TS,pitch,roll,yaw,vgx,vgy,vgz,templ,temph,tof,h,bat,baro,time,agx,agy,agz
2024-05-17 17:13:29.431639,0,0,-37,0,0,0,54,57,10,0,100,191.62,0,0.00,-6.00,-1002.00
2024-05-17 17:13:29.477879,0,0,-37,0,0,0,55,57,10,0,100,191.65,0,2.00,-3.00,-999.00
2024-05-17 17:13:29.636637,0,0,-37,0,0,0,55,57,10,0,100,191.64,0,0.00,-4.00,-1000.00
2024-05-17 17:13:29.681758,0,0,-37,0,0,0,55,57,10,0,100,191.66,0,1.00,-4.00,-998.00
2024-05-17 17:13:29.841394,0,0,-37,0,0,0,55,57,10,0,100,191.63,0,1.00,-2.00,-998.00
2024-05-17 17:13:29.841560,0,0,-37,0,0,0,55,57,10,0,100,191.57,0,2.00,-3.00,-997.00
2024-05-17 17:13:29.943902,0,0,-37,0,0,0,55,57,10,0,100,191.60,0,2.00,-3.00,-998.00
2024-05-17 17:13:30.038425,0,0,-37,0,0,0,55,57,10,0,100,191.65,0,0.00,-4.00,-997.00
2024-05-17 17:13:30.148665,0,0,-37,0,0,0,55,57,10,0,100,191.67,0,1.00,-3.00,-999.00
2024-05-17 17:13:30.242514,0,0,-37,0,0,0,55,57,10,0,100,191.61,0,0.00,-3.00,-998.00
2024-05-17 17:13:30.345729,0,0,-37,0,0,0,55,57,10,0,100,191.61,0,0.00,-5.00,-996.00
2024-05-17 17:13:30.455801,0,0,-37,0,0,0,55,58,10,0,100,191.58,0,2.00,-4.00,-1001.00
2024-05-17 17:13:30.550044,0,0,-37,0,0,0,55,58,10,0,100,191.57,0,1.00,-5.00,-998.00
2024-05-17 17:13:30.650480,0,0,-37,0,0,0,55,58,10,0,100,191.62,0,0.00,-3.00,-1000.00
2024-05-17 17:13:30.765267,0,0,-37,0,0,0,55,58,10,0,100,191.60,0,1.00,-4.00,-998.00
2024-05-17 17:13:30.854490,0,0,-37,0,0,0,55,58,10,0,100,191.62,0,1.00,-3.00,-998.00
2024-05-17 17:13:30.971446,0,0,-37,0,0,0,55,58,10,0,100,191.58,0,0.00,-3.00,-1000.00
2024-05-17 17:13:31.058516,0,0,-37,0,0,0,55,58,10,0,100,191.63,0,2.00,-3.00,-996.00
2024-05-17 17:13:31.172670,0,0,-37,0,0,0,55,58,10,0,100,191.64,0,-1.00,-3.00,-999.00
2024-05-17 17:13:31.262465,0,0,-37,0,0,0,55,58,10,0,100,191.63,0,1.00,-4.00,-997.00
2024-05-17 17:13:31.377348,0,0,-37,0,0,0,55,58,10,0,100,191.64,0,2.00,-5.00,-1001.00
2024-05-17 17:13:31.468797,0,0,-37,0,0,0,56,57,10,0,100,191.60,0,0.00,-4.00,-999.00
2024-05-17 17:13:31.582253,0,0,-37,0,0,0,56,57,10,0,100,191.62,0,1.00,-5.00,-998.00
2024-05-17 17:13:31.671724,0,0,-37,0,0,0,56,57,10,0,100,191.64,0,1.00,-4.00,-1000.00
2024-05-17 17:13:31.786999,0,0,-37,0,0,0,56,57,10,0,100,191.61,0,2.00,-4.00,-1001.00
2024-05-17 17:13:31.875672,0,0,-37,0,0,0,56,57,10,0,100,191.63,0,1.00,-4.00,-1001.00
2024-05-17 17:13:31.991834,0,0,-37,0,0,0,56,57,10,0,100,191.63,0,1.00,-4.00,-999.00
2024-05-17 17:13:32.079674,0,0,-37,0,0,0,56,57,10,0,100,191.63,0,1.00,-4.00,-998.00
2024-05-17 17:13:32.196623,0,0,-37,0,0,0,56,57,10,0,100,191.63,0,3.00,-4.00,-998.00
2024-05-17 17:13:32.284847,0,0,-37,0,0,0,56,57,10,0,100,191.63,0,1.00,-3.00,-1000.00
2024-05-17 17:13:32.385504,0,0,-37,0,0,0,56,57,10,0,100,191.60,0,1.00,-3.00,-998.00
2024-05-17 17:13:32.503689,0,0,-37,0,0,0,55,58,10,0,100,191.58,0,0.00,-4.00,-996.00
2024-05-17 17:13:32.589692,0,0,-37,0,0,0,55,58,10,0,100,191.63,0,2.00,-4.00,-999.00
2024-05-17 17:13:32.709555,0,0,-37,0,0,0,55,58,10,0,100,191.64,0,1.00,-4.00,-999.00
2024-05-17 17:13:32.793457,0,0,-37,0,0,0,55,58,10,0,100,191.66,0,0.00,-5.00,-998.00
2024-05-17 17:13:32.895381,0,0,-37,0,0,0,55,58,10,0,100,191.66,0,1.00,-4.00,-1000.00
2024-05-17 17:13:33.015578,0,0,-37,0,0,0,55,58,10,0,100,191.66,0,16.00,-7.00,-999.00
2024-05-17 17:13:33.099425,0,0,-37,0,0,0,55,58,10,0,100,191.66,0,-3.00,-1.00,-997.00
2024-05-17 17:13:33.150176,0,0,-37,0,0,0,55,58,10,0,100,191.66,0,-15.00,21.00,-982.00
2024-05-17 17:13:33.323119,0,0,-34,0,0,0,55,58,10,0,100,191.66,0,-15.00,-14.00,-1050.00
2024-05-17 17:13:33.354174,0,0,-34,0,0,0,55,58,10,0,100,191.66,0,-12.00,5.00,-1066.00
2024-05-17 17:13:33.527636,0,0,-35,0,0,0,56,58,20,0,100,191.66,0,43.00,-32.00,-1132.00
2024-05-17 17:13:33.558180,0,0,-35,0,0,-3,56,58,20,0,100,191.66,0,10.00,-24.00,-1449.00
2024-05-17 17:13:33.732419,0,1,-35,0,0,-6,56,58,16,0,100,191.68,0,5.00,0.00,-1176.00
2024-05-17 17:13:33.762131,-1,1,-35,0,0,-7,56,58,17,0,100,192.00,0,-3.00,-23.00,-1036.00
2024-05-17 17:13:33.864251,-1,0,-35,0,0,-7,56,58,31,0,100,192.02,0,-15.00,-5.00,-1028.00
2024-05-17 17:13:34.039628,-1,0,-35,0,0,-7,56,58,41,10,100,192.14,1,-22.00,0.00,-959.00
2024-05-17 17:13:34.068139,-2,0,-35,0,0,-6,56,58,46,20,100,192.20,1,11.00,-13.00,-932.00
2024-05-17 17:13:34.246866,-1,0,-34,0,0,-5,56,58,54,20,100,192.31,1,5.00,-2.00,-917.00
2024-05-17 17:13:34.272218,0,0,-35,0,0,-4,56,58,61,20,100,192.34,1,-2.00,-8.00,-898.00
2024-05-17 17:13:34.449184,0,0,-35,0,0,-3,56,58,67,30,100,192.43,1,5.00,21.00,-912.00
2024-05-17 17:13:34.476745,-1,0,-35,0,0,-2,57,58,70,30,100,192.47,1,19.00,0.00,-955.00
2024-05-17 17:13:34.656905,-1,0,-34,0,0,-1,57,58,75,30,100,192.51,1,59.00,9.00,-963.00
2024-05-17 17:13:34.680236,0,0,-34,0,0,-1,57,58,78,30,100,192.58,1,-6.00,14.00,-946.00
2024-05-17 17:13:34.859763,0,0,-34,0,0,0,57,58,81,40,100,192.62,1,32.00,-19.00,-949.00
2024-05-17 17:13:34.887821,0,0,-34,0,0,0,57,58,84,40,100,192.67,1,-5.00,-5.00,-923.00
2024-05-17 17:13:34.986094,0,0,-34,0,0,0,57,58,86,40,100,192.71,2,-16.00,3.00,-963.00
2024-05-17 17:13:35.166273,0,0,-34,0,0,0,57,58,89,40,100,192.73,2,-13.00,22.00,-974.00
2024-05-17 17:13:35.190069,0,0,-34,0,0,0,57,58,90,40,100,192.73,2,7.00,0.00,-974.00
2024-05-17 17:13:35.293926,0,0,-34,0,0,0,57,58,92,40,100,192.75,2,28.00,-9.00,-968.00
2024-05-17 17:13:35.394642,0,0,-34,0,0,0,57,58,93,40,100,192.78,2,16.00,21.00,-954.00
2024-05-17 17:13:35.577549,0,0,-34,0,0,0,56,59,94,50,100,192.75,2,-18.00,18.00,-983.00
2024-05-17 17:13:35.598191,0,0,-34,0,0,0,56,59,95,50,100,192.75,2,-48.00,16.00,-952.00
2024-05-17 17:13:35.784193,0,0,-34,0,0,0,56,59,95,50,100,192.82,2,15.00,-12.00,-965.00
2024-05-17 17:13:35.802396,0,0,-34,0,0,0,56,59,95,50,100,192.83,2,5.00,-10.00,-953.00
2024-05-17 17:13:35.988995,0,0,-34,0,0,0,56,59,95,50,100,192.83,2,39.00,-18.00,-983.00
2024-05-17 17:13:36.006159,0,0,-34,0,0,0,56,59,96,50,100,192.79,3,-14.00,19.00,-975.00
2024-05-17 17:13:36.190022,0,0,-34,0,0,0,56,59,95,50,100,192.85,3,12.00,-6.00,-946.00
2024-05-17 17:13:36.210594,0,0,-34,0,0,1,56,59,94,50,100,192.82,3,8.00,17.00,-981.00
2024-05-17 17:13:36.312115,0,0,-34,0,0,1,56,59,93,50,100,192.74,3,-4.00,36.00,-990.00
2024-05-17 17:13:36.499397,0,0,-34,0,0,1,56,59,92,50,100,192.74,3,33.00,-12.00,-1008.00
2024-05-17 17:13:36.516036,0,0,-34,0,0,1,56,58,91,50,100,192.77,3,-9.00,7.00,-996.00
2024-05-17 17:13:36.702006,0,0,-34,0,0,1,56,58,90,50,100,192.79,3,-3.00,3.00,-985.00
2024-05-17 17:13:36.720054,0,0,-34,0,0,1,56,58,90,50,100,192.81,3,16.00,18.00,-1025.00
2024-05-17 17:13:36.909023,0,0,-34,0,0,0,56,58,89,50,100,192.72,3,4.00,-10.00,-1013.00
2024-05-17 17:13:36.909058,0,0,-34,0,0,1,56,58,88,50,100,192.72,3,-34.00,40.00,-989.00
2024-05-17 17:13:36.976293,0,0,-34,0,0,1,56,58,87,50,100,192.77,4,29.00,-8.00,-978.00
2024-05-17 17:13:37.105877,0,0,-35,0,0,0,56,58,86,50,100,192.78,4,-22.00,8.00,-1032.00
2024-05-17 17:13:37.179250,0,0,-35,0,0,0,56,58,86,40,100,192.78,4,-22.00,23.00,-984.00
2024-05-17 17:13:37.318481,0,0,-35,0,0,0,56,58,85,40,100,192.72,4,2.00,0.00,-1028.00
2024-05-17 17:13:37.383256,0,0,-34,0,0,0,56,58,84,40,100,192.71,4,-5.00,30.00,-1033.00
2024-05-17 17:13:37.536050,0,0,-34,0,0,0,57,59,83,40,100,192.70,4,9.00,-18.00,-994.00
2024-05-17 17:13:37.587219,0,0,-34,0,0,0,57,59,82,40,100,192.64,4,37.00,-24.00,-997.00
2024-05-17 17:13:37.726044,0,0,-34,0,0,0,57,59,81,40,100,192.70,4,28.00,-2.00,-1006.00
2024-05-17 17:13:37.791462,0,0,-34,0,0,0,57,59,80,40,100,192.70,4,-3.00,20.00,-1020.00
2024-05-17 17:13:37.931825,0,0,-34,0,0,0,57,59,80,40,100,192.66,4,-32.00,19.00,-1028.00
2024-05-17 17:13:37.995102,-1,0,-34,0,0,0,57,59,79,40,100,192.64,5,-27.00,22.00,-1018.00
2024-05-17 17:13:38.140161,-2,0,-34,0,0,0,57,59,79,40,100,192.66,5,7.00,-4.00,-1019.00
2024-05-17 17:13:38.199512,-3,-1,-34,0,0,0,57,59,79,40,100,192.69,5,-8.00,22.00,-1025.00
2024-05-17 17:13:38.344147,-3,0,-34,0,0,0,57,59,78,40,100,192.59,5,7.00,-4.00,-1065.00
2024-05-17 17:13:38.404201,-1,0,-34,0,0,0,57,59,78,40,100,192.67,5,27.00,-14.00,-1025.00
2024-05-17 17:13:38.546076,0,0,-34,0,0,0,56,59,79,40,100,192.68,5,-37.00,22.00,-985.00
2024-05-17 17:13:38.607203,0,1,-34,0,0,0,56,59,79,40,100,192.68,5,-21.00,37.00,-1060.00
2024-05-17 17:13:38.751057,0,0,-35,0,0,0,56,59,79,40,100,192.65,5,-32.00,21.00,-1025.00
2024-05-17 17:13:38.811164,0,0,-35,0,0,0,56,59,79,40,100,192.70,5,7.00,-5.00,-988.00
2024-05-17 17:13:38.913267,-1,0,-35,0,0,0,56,59,79,40,100,192.69,5,-75.00,25.00,-1016.00
2024-05-17 17:13:39.061078,0,0,-35,0,0,0,56,59,79,40,100,192.68,6,-37.00,55.00,-985.00
2024-05-17 17:13:39.117172,0,0,-35,0,0,0,56,59,79,40,100,192.69,6,-10.00,39.00,-1015.00
2024-05-17 17:13:39.263899,0,0,-35,0,0,0,56,59,79,40,100,192.63,6,28.00,-4.00,-1004.00
2024-05-17 17:13:39.321413,0,0,-35,0,0,0,56,59,80,40,100,192.70,6,11.00,3.00,-1001.00
2024-05-17 17:13:39.468742,-1,0,-35,0,0,0,56,59,80,40,100,192.71,6,-1.00,10.00,-999.00
2024-05-17 17:13:39.526372,-1,0,-35,0,0,0,56,59,80,40,100,192.68,6,5.00,-11.00,-997.00
2024-05-17 17:13:39.674374,-1,0,-35,0,0,0,56,59,81,40,100,192.65,6,11.00,-12.00,-1025.00
2024-05-17 17:13:39.731755,-1,0,-35,0,0,0,56,59,81,40,100,192.64,6,22.00,-14.00,-1025.00
2024-05-17 17:13:39.832127,-1,0,-35,0,0,0,56,59,81,40,100,192.60,6,17.00,-2.00,-1018.00
2024-05-17 17:13:39.980396,-1,0,-35,0,0,0,56,59,81,40,100,192.70,6,1.00,-5.00,-1004.00
2024-05-17 17:13:40.035193,-1,0,-35,0,0,0,56,59,81,40,100,192.73,7,19.00,5.00,-996.00
2024-05-17 17:13:40.137431,-1,0,-35,0,0,0,56,59,82,40,100,192.67,7,32.00,1.00,-1009.00
2024-05-17 17:13:40.287168,-1,0,-35,0,0,0,56,59,82,40,100,192.73,7,5.00,-1.00,-1016.00
2024-05-17 17:13:40.341178,-1,0,-35,0,0,0,56,59,82,40,100,192.69,7,-8.00,14.00,-1035.00
2024-05-17 17:13:40.491100,-1,0,-35,0,0,0,56,59,82,40,100,192.63,7,12.00,-5.00,-973.00
2024-05-17 17:13:40.545374,-1,0,-35,0,0,0,57,59,82,40,100,192.69,7,-65.00,22.00,-1012.00
2024-05-17 17:13:40.695834,-1,0,-35,0,0,0,57,59,82,40,100,192.70,7,-50.00,10.00,-1009.00
2024-05-17 17:13:40.749162,0,0,-35,0,0,0,57,59,81,40,100,192.64,7,-19.00,-2.00,-990.00
2024-05-17 17:13:40.902227,-1,0,-35,0,0,0,57,59,82,40,100,192.74,7,32.00,4.00,-1013.00
2024-05-17 17:13:40.959027,0,0,-35,0,0,0,57,59,81,40,100,192.73,7,-39.00,17.00,-998.00
2024-05-17 17:13:41.005911,0,0,-35,0,0,0,57,59,81,40,100,192.79,8,-9.00,-9.00,-989.00
2024-05-17 17:13:41.105966,-1,0,-35,0,0,0,57,59,81,40,100,192.75,8,48.00,-18.00,-995.00
2024-05-17 17:13:41.208047,-1,0,-35,0,0,0,57,59,81,40,100,192.69,8,-6.00,-2.00,-979.00
2024-05-17 17:13:41.311524,-1,0,-35,0,0,0,57,59,81,40,100,192.73,8,-43.00,4.00,-1013.00
2024-05-17 17:13:41.412070,-1,0,-35,0,0,0,57,59,81,40,100,192.68,8,26.00,17.00,-1052.00
2024-05-17 17:13:41.514729,-1,0,-35,0,0,0,58,59,82,40,100,192.71,8,-10.00,13.00,-1185.00
2024-05-17 17:13:41.618056,-1,0,-35,0,0,-1,58,59,84,40,100,192.73,8,-12.00,-6.00,-1065.00
2024-05-17 17:13:41.719924,-1,0,-35,0,0,-2,58,59,86,40,100,192.79,8,21.00,2.00,-1128.00
2024-05-17 17:13:41.819845,0,0,-35,0,0,-3,58,59,90,50,100,192.76,8,10.00,0.00,-1093.00
2024-05-17 17:13:41.924933,-1,0,-34,0,0,-4,58,59,94,50,100,192.84,8,-6.00,7.00,-1008.00
2024-05-17 17:13:42.024078,-1,0,-34,0,0,-4,58,59,100,50,100,192.93,9,37.00,-8.00,-1001.00
2024-05-17 17:13:42.129553,-1,0,-34,0,0,-5,58,59,105,60,100,192.97,9,-47.00,52.00,-994.00
2024-05-17 17:13:42.231697,-1,0,-34,0,0,-5,58,59,111,70,100,192.98,9,-55.00,45.00,-1022.00
2024-05-17 17:13:42.331068,-1,0,-34,0,0,-5,58,59,117,70,100,193.05,9,0.00,-4.00,-995.00
2024-05-17 17:13:42.436937,-1,0,-34,0,0,-5,58,59,123,80,100,193.05,9,9.00,0.00,-993.00
2024-05-17 17:13:42.538932,-1,0,-34,0,0,-5,58,60,129,80,100,193.12,9,47.00,-10.00,-1008.00
2024-05-17 17:13:42.638440,0,0,-34,0,0,-5,58,60,134,90,100,193.17,9,22.00,1.00,-978.00
2024-05-17 17:13:42.745687,0,0,-34,0,0,-5,58,60,140,90,100,193.24,9,-23.00,11.00,-978.00
2024-05-17 17:13:42.841089,-1,0,-34,0,0,-4,58,60,145,100,100,193.30,9,15.00,-4.00,-957.00
2024-05-17 17:13:42.948867,-1,0,-35,0,0,-4,58,60,150,100,100,193.37,9,10.00,2.00,-961.00
2024-05-17 17:13:43.044912,-1,0,-34,0,0,-4,58,60,154,110,100,193.45,10,-11.00,12.00,-977.00
2024-05-17 17:13:43.154406,-1,0,-34,0,0,-4,58,60,158,110,100,193.45,10,26.00,-13.00,-962.00
2024-05-17 17:13:43.249154,-1,0,-34,0,0,-3,58,60,162,120,100,193.52,10,-13.00,-1.00,-953.00
2024-05-17 17:13:43.350834,-1,0,-34,0,0,-3,58,60,166,120,100,193.50,10,5.00,43.00,-975.00
2024-05-17 17:13:43.461028,0,0,-34,0,0,-3,58,60,169,120,100,193.59,10,-35.00,-1.00,-975.00
2024-05-17 17:13:43.554878,0,0,-34,0,0,-2,58,60,172,130,100,193.58,10,-3.00,-1.00,-944.00
2024-05-17 17:13:43.665399,0,0,-34,0,0,-1,58,60,174,130,100,193.56,10,7.00,-6.00,-971.00
2024-05-17 17:13:43.758848,0,0,-34,0,0,-1,58,60,176,130,100,193.59,10,51.00,-24.00,-981.00
2024-05-17 17:13:43.860780,-1,0,-34,0,0,-1,58,60,177,130,100,193.59,10,17.00,3.00,-991.00
2024-05-17 17:13:43.964927,-1,0,-34,0,0,-1,58,60,179,140,100,193.58,11,0.00,-6.00,-965.00
2024-05-17 17:13:44.065248,-1,0,-34,0,0,0,58,60,180,140,100,193.67,11,26.00,-4.00,-950.00
2024-05-17 17:13:44.177282,0,0,-34,0,0,0,58,60,182,140,100,193.64,11,0.00,14.00,-964.00
2024-05-17 17:13:44.269028,0,0,-34,0,0,0,58,60,181,140,100,193.62,11,30.00,1.00,-988.00
2024-05-17 17:13:44.371139,0,0,-34,0,0,0,58,60,183,140,100,193.61,11,-15.00,-2.00,-994.00
2024-05-17 17:13:44.484561,0,0,-34,0,0,0,58,60,183,140,100,193.65,11,55.00,-9.00,-1009.00
2024-05-17 17:13:44.575427,0,0,-34,0,0,0,58,60,183,140,100,193.70,11,44.00,-15.00,-990.00
2024-05-17 17:13:44.690535,-1,0,-34,0,0,0,58,60,183,140,100,193.66,11,-30.00,33.00,-996.00
2024-05-17 17:13:44.779045,-1,0,-34,0,0,0,58,60,183,140,100,193.65,11,-17.00,31.00,-992.00
2024-05-17 17:13:44.831153,-1,0,-35,0,0,0,58,60,182,140,100,193.62,11,7.00,8.00,-1006.00
2024-05-17 17:13:44.996908,-1,0,-35,0,0,0,58,60,182,140,100,193.65,12,17.00,17.00,-983.00
2024-05-17 17:13:45.033781,-1,0,-35,0,0,0,58,60,182,140,100,193.69,12,-27.00,61.00,-1018.00
2024-05-17 17:13:45.139889,-1,0,-35,0,0,0,58,60,181,140,100,193.62,12,-23.00,31.00,-1002.00
2024-05-17 17:13:45.237726,-1,0,-35,0,0,0,58,60,181,140,100,193.62,12,37.00,5.00,-1004.00
2024-05-17 17:13:45.406785,-1,0,-35,0,0,0,58,60,181,140,100,193.58,12,-20.00,48.00,-1018.00
2024-05-17 17:13:45.441704,-1,0,-35,1,0,0,58,60,181,140,100,193.62,12,14.00,15.00,-1023.00
2024-05-17 17:13:45.611821,0,0,-35,1,0,0,58,60,181,140,100,193.62,12,-7.00,25.00,-1011.00
2024-05-17 17:13:45.645924,0,0,-35,1,0,0,58,60,181,140,100,193.62,12,29.00,-1.00,-977.00
2024-05-17 17:13:45.749254,0,0,-35,0,0,0,58,60,181,140,100,193.52,12,25.00,3.00,-1005.00
2024-05-17 17:13:45.849677,0,0,-35,0,0,0,58,60,181,140,100,193.63,12,-12.00,26.00,-1032.00
2024-05-17 17:13:45.951545,0,0,-35,0,0,0,58,60,181,140,100,193.61,13,2.00,9.00,-1017.00
2024-05-17 17:13:46.123213,0,0,-35,0,0,0,58,60,181,140,100,193.58,13,-35.00,0.00,-952.00
2024-05-17 17:13:46.155596,0,0,-35,0,0,0,58,60,180,140,100,193.59,13,-21.00,28.00,-948.00
2024-05-17 17:13:46.328684,0,0,-35,0,0,1,58,60,180,140,100,193.55,13,-41.00,41.00,-990.00
2024-05-17 17:13:46.359561,0,0,-35,0,0,1,58,60,178,140,100,193.63,13,-2.00,30.00,-994.00
2024-05-17 17:13:46.532689,0,0,-35,0,0,1,58,60,177,140,100,193.62,13,25.00,-35.00,-901.00
2024-05-17 17:13:46.564332,0,0,-35,0,0,2,58,60,175,130,100,193.59,13,15.00,63.00,-1033.00
2024-05-17 17:13:46.737466,-1,0,-35,0,0,2,58,60,173,130,100,193.54,13,-5.00,9.00,-955.00
2024-05-17 17:13:46.767543,-1,0,-35,0,0,2,58,60,170,130,100,193.53,13,7.00,51.00,-1022.00
2024-05-17 17:13:46.942966,-1,0,-35,0,0,2,58,60,167,130,100,193.44,13,48.00,18.00,-1060.00
2024-05-17 17:13:46.971571,-1,0,-35,0,0,2,58,60,165,120,100,193.50,14,34.00,21.00,-1012.00
2024-05-17 17:13:47.164312,-1,0,-34,0,0,2,58,60,162,120,100,193.47,14,-2.00,11.00,-995.00
2024-05-17 17:13:47.179076,-1,0,-35,0,0,2,58,60,160,120,100,193.49,14,14.00,13.00,-1001.00
2024-05-17 17:13:47.277543,-1,0,-35,0,0,2,58,60,157,120,100,193.39,14,3.00,0.00,-1004.00
2024-05-17 17:13:47.379522,0,0,-34,0,0,2,58,60,155,110,100,193.33,14,6.00,-7.00,-1021.00
2024-05-17 17:13:47.559314,0,0,-34,0,0,2,58,60,152,110,100,193.37,14,-3.00,-7.00,-997.00
2024-05-17 17:13:47.583433,0,0,-34,0,0,2,59,61,150,110,100,193.37,14,0.00,25.00,-973.00
2024-05-17 17:13:47.765493,-1,0,-34,0,0,1,59,61,148,110,100,193.35,14,26.00,7.00,-1038.00
2024-05-17 17:13:47.787495,-1,0,-34,0,0,1,59,61,146,110,100,193.26,14,-18.00,15.00,-994.00
2024-05-17 17:13:47.969320,-1,0,-34,0,0,1,59,61,144,100,100,193.29,14,36.00,-19.00,-986.00
2024-05-17 17:13:47.991402,-1,0,-34,0,0,1,59,61,142,100,100,193.27,15,21.00,22.00,-1032.00
2024-05-17 17:13:48.171706,-1,0,-34,0,0,1,59,61,140,100,100,193.25,15,19.00,-9.00,-1011.00
2024-05-17 17:13:48.195452,-1,0,-34,0,0,1,59,61,139,100,100,193.26,15,1.00,11.00,-1035.00
2024-05-17 17:13:48.375931,-1,0,-34,0,0,1,59,61,137,100,100,193.29,15,-19.00,15.00,-1013.00
2024-05-17 17:13:48.399438,-1,0,-34,0,0,1,59,61,136,100,100,193.27,15,34.00,3.00,-1033.00
2024-05-17 17:13:48.582131,-1,0,-34,0,0,1,59,61,135,100,100,193.30,15,16.00,-26.00,-1056.00
2024-05-17 17:13:48.605262,-1,0,-34,0,0,0,59,61,134,90,100,193.24,15,-38.00,42.00,-985.00
2024-05-17 17:13:48.705674,-1,0,-34,0,0,0,59,61,134,90,100,193.24,15,20.00,-15.00,-1026.00
2024-05-17 17:13:48.990520,-1,0,-34,0,0,0,59,61,133,90,100,193.23,15,6.00,11.00,-1017.00
2024-05-17 17:13:48.990703,-1,0,-34,0,0,0,59,61,133,90,100,193.14,15,56.00,-19.00,-999.00
2024-05-17 17:13:49.017618,0,0,-34,1,0,0,59,61,133,90,100,193.11,16,-5.00,3.00,-1022.00
2024-05-17 17:13:49.066610,0,0,-34,0,0,0,59,61,133,90,100,193.11,16,-16.00,0.00,-997.00
2024-05-17 17:13:49.165139,-1,0,-34,0,0,0,59,61,132,90,100,193.21,16,28.00,-10.00,-1028.00
2024-05-17 17:13:49.297577,-1,0,-34,0,0,0,59,61,132,90,100,193.15,16,-38.00,23.00,-988.00
2024-05-17 17:13:49.368916,-1,0,-34,0,0,0,59,61,132,90,100,193.12,16,10.00,10.00,-1058.00
2024-05-17 17:13:49.503618,-1,0,-34,0,0,0,59,61,132,90,100,193.18,16,41.00,-23.00,-1011.00
2024-05-17 17:13:49.573005,-1,0,-34,0,0,0,58,61,133,90,100,193.21,16,-3.00,27.00,-1034.00
2024-05-17 17:13:49.708267,-1,0,-34,0,0,0,58,61,133,90,100,193.24,16,-21.00,27.00,-1047.00
2024-05-17 17:13:49.777553,-1,0,-34,0,0,0,58,61,132,90,100,193.16,16,59.00,0.00,-1042.00
2024-05-17 17:13:49.911759,-1,0,-34,0,0,0,58,61,132,90,100,193.18,16,-29.00,6.00,-1011.00
2024-05-17 17:13:49.980910,-1,0,-34,0,0,0,58,61,133,90,100,193.16,17,24.00,-6.00,-984.00
2024-05-17 17:13:50.082776,-1,0,-34,0,0,0,58,61,133,90,100,193.21,17,-10.00,12.00,-978.00
2024-05-17 17:13:50.184681,-1,0,-34,0,0,0,58,61,133,90,100,193.22,17,15.00,-26.00,-1005.00
2024-05-17 17:13:50.321762,-1,0,-34,0,0,0,58,61,133,90,100,193.20,17,-11.00,2.00,-1004.00
2024-05-17 17:13:50.388605,-1,0,-34,0,0,0,58,61,133,90,100,193.20,17,-27.00,19.00,-997.00
2024-05-17 17:13:50.525977,-1,0,-34,0,0,0,58,61,133,90,100,193.21,17,-28.00,31.00,-1020.00
2024-05-17 17:13:50.592629,-1,0,-34,0,0,0,59,62,133,90,100,193.13,17,-22.00,34.00,-1017.00
2024-05-17 17:13:50.694551,-1,0,-34,0,0,0,59,62,133,90,100,193.18,17,-8.00,8.00,-977.00
2024-05-17 17:13:50.834181,-1,0,-34,0,0,0,59,62,133,90,100,193.18,17,0.00,-11.00,-968.00
2024-05-17 17:13:50.898715,-2,0,-34,0,0,0,59,62,133,90,100,193.16,17,-8.00,11.00,-1036.00
2024-05-17 17:13:51.037837,-7,0,-34,1,0,0,59,62,132,90,100,193.21,18,-1.00,-14.00,-1049.00
2024-05-17 17:13:51.103428,-8,0,-34,2,-1,0,59,62,135,90,100,193.28,18,4.00,-16.00,-985.00
2024-05-17 17:13:51.243406,-8,0,-34,3,-2,0,59,62,135,90,100,193.19,18,-27.00,-9.00,-1033.00
2024-05-17 17:13:51.306614,-8,0,-34,4,-3,0,59,62,133,90,100,193.14,18,18.00,-48.00,-971.00
2024-05-17 17:13:51.408683,-6,0,-34,5,-3,0,59,62,132,90,100,193.14,18,23.00,-5.00,-990.00
2024-05-17 17:13:51.550655,-6,0,-34,5,-4,0,59,62,134,90,99,193.13,18,26.00,-43.00,-1025.00
2024-05-17 17:13:51.612576,-5,0,-34,5,-4,0,60,62,134,90,99,193.14,18,-3.00,-44.00,-1046.00
2024-05-17 17:13:51.755044,-5,0,-34,5,-3,0,60,62,135,90,99,193.16,18,-58.00,-19.00,-984.00
2024-05-17 17:13:51.817569,-3,0,-34,6,-3,0,60,62,134,90,99,193.20,18,32.00,1.00,-998.00
2024-05-17 17:13:51.963575,0,0,-34,5,-3,0,60,62,135,90,99,193.20,18,-8.00,-15.00,-1002.00
2024-05-17 17:13:52.020502,1,0,-35,5,-3,0,60,62,137,90,99,193.19,19,-22.00,17.00,-1027.00
2024-05-17 17:13:52.165157,3,0,-35,4,-2,0,60,62,137,90,99,193.24,19,-39.00,7.00,-983.00
2024-05-17 17:13:52.224495,2,0,-35,3,-2,0,60,62,137,90,99,193.20,19,-22.00,1.00,-988.00
2024-05-17 17:13:52.369781,0,0,-35,2,-1,0,60,62,137,90,99,193.15,19,-24.00,-4.00,-913.00
2024-05-17 17:13:52.428754,0,0,-35,2,-1,0,60,62,136,90,99,193.18,19,16.00,-5.00,-1010.00
2024-05-17 17:13:52.574656,0,0,-35,2,-1,0,60,62,136,90,99,193.20,19,34.00,5.00,-1005.00
2024-05-17 17:13:52.632702,0,0,-35,2,-1,0,60,61,136,90,99,193.22,19,-1.00,-6.00,-971.00
2024-05-17 17:13:52.779050,0,0,-35,2,-1,0,60,61,137,90,99,193.24,19,-9.00,-26.00,-1051.00
2024-05-17 17:13:52.836525,-1,0,-35,2,-1,0,60,61,137,90,99,193.30,19,-1.00,3.00,-973.00
2024-05-17 17:13:52.983787,-1,-1,-35,2,-1,0,60,61,137,100,99,193.26,19,8.00,-32.00,-1025.00
2024-05-17 17:13:53.040477,-1,0,-35,1,-1,0,60,61,137,100,99,193.19,20,-28.00,9.00,-974.00
2024-05-17 17:13:53.091475,-1,0,-35,1,-1,0,60,61,136,100,99,193.27,20,115.00,-58.00,-1003.00
2024-05-17 17:13:53.290724,-1,0,-35,1,-1,0,60,61,136,100,99,193.21,20,-7.00,0.00,-986.00
2024-05-17 17:13:53.295209,-1,0,-35,1,-1,0,60,61,136,100,99,193.22,20,42.00,-40.00,-972.00
2024-05-17 17:13:53.397209,-1,0,-35,1,-1,0,60,61,135,90,99,193.20,20,-27.00,7.00,-1018.00
2024-05-17 17:13:53.612288,-1,0,-35,1,-1,0,60,61,135,90,98,193.26,20,-9.00,25.00,-1024.00
2024-05-17 17:13:53.612327,-1,0,-35,1,-1,0,59,62,134,90,98,193.22,20,-45.00,10.00,-1059.00
2024-05-17 17:13:53.703173,-1,0,-34,1,-1,0,59,62,134,90,98,193.23,20,33.00,22.00,-1035.00
2024-05-17 17:13:53.805660,-2,0,-34,1,-1,0,59,62,134,90,98,193.24,20,-6.00,22.00,-981.00
2024-05-17 17:13:53.907164,-1,0,-34,1,-1,0,59,62,134,90,98,193.22,20,-30.00,23.00,-922.00
2024-05-17 17:13:54.009213,-2,0,-34,1,-1,0,59,62,134,90,98,193.22,21,-20.00,-25.00,-995.00
2024-05-17 17:13:54.212206,-1,0,-34,1,-1,0,59,62,134,90,98,193.22,21,53.00,-33.00,-960.00
2024-05-17 17:13:54.213156,-1,0,-34,1,-1,0,59,62,134,90,98,193.19,21,35.00,-3.00,-1054.00
2024-05-17 17:13:54.419021,-1,0,-34,1,-1,0,59,62,134,90,98,193.18,21,42.00,-19.00,-954.00
2024-05-17 17:13:54.419571,-1,0,-34,1,-1,0,59,62,134,90,98,193.20,21,22.00,-24.00,-986.00
2024-05-17 17:13:54.519899,-1,0,-34,1,-1,0,59,62,134,90,98,193.20,21,-3.00,-11.00,-1005.00
2024-05-17 17:13:54.621804,0,0,-34,1,-1,0,60,62,134,90,98,193.27,21,-2.00,-4.00,-985.00
2024-05-17 17:13:54.725880,-1,0,-34,1,-1,0,60,62,136,90,98,193.27,21,53.00,-21.00,-1063.00
2024-05-17 17:13:54.826731,0,2,-35,1,0,0,60,62,137,90,98,193.28,21,26.00,-13.00,-999.00
2024-05-17 17:13:54.927136,0,0,-35,1,0,0,60,62,135,90,98,193.27,21,70.00,5.00,-953.00
2024-05-17 17:13:55.031914,1,-2,-35,1,0,0,60,62,135,90,98,193.23,22,17.00,2.00,-1047.00
2024-05-17 17:13:55.131111,0,-4,-35,0,0,0,60,62,135,90,98,193.24,22,-35.00,56.00,-977.00
2024-05-17 17:13:55.236986,0,-3,-35,0,-1,0,60,62,135,90,98,193.23,22,-15.00,7.00,-985.00
2024-05-17 17:13:55.338796,0,0,-35,0,-1,0,60,62,135,90,98,193.27,22,19.00,22.00,-1035.00
2024-05-17 17:13:55.441348,0,3,-35,0,0,0,60,62,134,90,98,193.20,22,39.00,4.00,-996.00
2024-05-17 17:13:55.544885,-2,3,-35,0,0,0,60,62,135,90,97,193.23,22,13.00,-11.00,-1002.00
2024-05-17 17:13:55.646099,-1,1,-35,1,0,0,60,62,134,90,97,193.22,22,5.00,16.00,-990.00
2024-05-17 17:13:55.744447,1,-1,-35,1,0,0,60,62,135,90,97,193.27,22,-17.00,44.00,-1019.00
2024-05-17 17:13:55.846421,1,-3,-35,0,0,0,60,62,135,90,97,193.35,22,39.00,-11.00,-980.00
2024-05-17 17:13:55.948535,0,-1,-34,0,0,0,60,62,137,90,97,193.26,22,11.00,-8.00,-1030.00
2024-05-17 17:13:56.053171,0,0,-34,0,0,0,60,62,135,90,97,193.27,23,41.00,19.00,-1026.00
2024-05-17 17:13:56.152549,0,0,-35,0,0,0,60,62,136,90,97,193.22,23,-32.00,24.00,-990.00
2024-05-17 17:13:56.264290,0,0,-35,0,0,0,60,62,136,90,97,193.28,23,-29.00,46.00,-954.00
2024-05-17 17:13:56.356410,0,0,-35,0,0,0,60,62,137,90,97,193.27,23,4.00,18.00,-988.00
2024-05-17 17:13:56.465135,0,-1,-34,0,0,0,60,62,138,100,97,193.24,23,6.00,1.00,-972.00
2024-05-17 17:13:56.560487,0,-1,-34,0,0,0,60,62,138,100,97,193.31,23,19.00,-31.00,-1007.00
2024-05-17 17:13:56.662436,-1,-1,-34,0,0,0,60,62,137,100,97,193.27,23,26.00,5.00,-976.00
2024-05-17 17:13:56.713232,-1,0,-34,0,0,0,60,62,136,100,97,193.23,23,-6.00,26.00,-1015.00
2024-05-17 17:13:56.877385,-1,0,-34,0,0,0,60,62,136,100,97,193.24,23,10.00,22.00,-999.00
2024-05-17 17:13:56.918875,0,0,-34,0,0,0,60,62,135,100,97,193.28,23,29.00,44.00,-973.00
2024-05-17 17:13:57.019524,0,0,-34,0,0,0,60,62,135,100,97,193.27,24,63.00,-28.00,-1008.00
2024-05-17 17:13:57.184255,0,0,-34,0,0,0,60,62,134,100,97,193.31,24,-21.00,17.00,-1037.00
2024-05-17 17:13:57.222980,0,0,-34,0,0,0,60,62,134,90,97,193.35,24,-38.00,43.00,-959.00
2024-05-17 17:13:57.387226,0,0,-34,0,0,0,60,62,133,90,97,193.30,24,80.00,-7.00,-1017.00
2024-05-17 17:13:57.427400,-1,0,-34,0,0,0,60,62,133,90,97,193.34,24,-13.00,8.00,-1038.00
2024-05-17 17:13:57.530376,-1,0,-34,0,0,0,60,62,133,90,96,193.29,24,78.00,-13.00,-1038.00
2024-05-17 17:13:57.631589,-1,0,-34,0,0,0,60,62,132,90,96,193.34,24,-37.00,23.00,-992.00
2024-05-17 17:13:57.734751,2,0,-34,0,0,0,60,62,133,90,96,193.26,24,-13.00,29.00,-955.00
2024-05-17 17:13:57.836974,8,0,-35,0,0,0,60,62,135,90,96,193.33,24,-68.00,34.00,-1043.00
2024-05-17 17:13:57.938526,8,0,-35,-2,1,0,60,62,135,90,96,193.32,25,13.00,33.00,-1024.00
2024-05-17 17:13:58.039694,8,0,-35,-3,2,0,60,62,135,90,96,193.24,25,3.00,15.00,-1027.00
2024-05-17 17:13:58.143322,7,0,-35,-4,2,0,60,62,134,90,96,193.36,25,81.00,-24.00,-1000.00
2024-05-17 17:13:58.242957,6,0,-35,-5,3,0,60,62,134,90,96,193.34,25,68.00,-19.00,-969.00
2024-05-17 17:13:58.411371,6,0,-35,-5,3,0,60,62,133,90,96,193.26,25,137.00,-62.00,-1014.00
2024-05-17 17:13:58.446853,4,0,-35,-6,4,0,60,62,133,90,96,193.20,25,31.00,42.00,-1049.00
2024-05-17 17:13:58.615350,1,0,-35,-6,4,0,60,62,132,90,96,193.29,25,100.00,15.00,-1007.00
2024-05-17 17:13:58.651004,-1,0,-34,-5,3,0,60,63,131,90,96,193.17,25,97.00,-77.00,-957.00
2024-05-17 17:13:58.820985,-3,0,-35,-5,3,0,60,63,130,90,96,193.20,25,38.00,14.00,-990.00
2024-05-17 17:13:58.854891,-3,0,-35,-4,2,0,60,63,131,90,96,193.25,25,7.00,5.00,-1029.00
2024-05-17 17:13:58.961272,-2,1,-35,-3,1,0,60,63,133,90,96,193.28,26,8.00,53.00,-1000.00
2024-05-17 17:13:59.058880,0,1,-35,-2,1,0,60,63,130,90,96,193.30,26,33.00,-15.00,-978.00
2024-05-17 17:13:59.230515,0,1,-35,-2,1,0,60,63,131,90,96,193.34,26,86.00,-7.00,-1070.00
2024-05-17 17:13:59.262950,0,1,-35,-2,1,0,60,63,130,90,96,193.26,26,48.00,-55.00,-934.00
2024-05-17 17:13:59.435230,0,1,-35,-2,1,0,60,63,129,90,96,193.28,26,33.00,55.00,-1054.00
2024-05-17 17:13:59.467089,0,1,-35,-2,2,0,60,63,129,90,96,193.26,26,98.00,-52.00,-986.00
2024-05-17 17:13:59.639327,-6,0,-34,-2,2,0,60,63,126,90,95,193.37,26,43.00,-12.00,-1007.00
2024-05-17 17:13:59.670914,-5,-1,-34,-1,1,0,60,63,123,90,95,193.26,26,97.00,-47.00,-1048.00
2024-05-17 17:13:59.845074,-3,0,-34,-1,0,0,60,63,123,90,95,193.25,26,51.00,-35.00,-1037.00
2024-05-17 17:13:59.876209,-2,0,-34,-1,0,0,60,63,123,90,95,193.24,26,49.00,-22.00,-1007.00
2024-05-17 17:14:00.052141,-1,0,-34,-1,0,0,60,63,123,90,95,193.19,27,-23.00,37.00,-1004.00
2024-05-17 17:14:00.078837,-1,1,-34,0,0,0,60,63,124,90,95,193.28,27,56.00,-20.00,-1011.00
2024-05-17 17:14:00.254415,-1,1,-34,0,0,0,60,63,123,90,95,193.36,27,1.00,-6.00,-1023.00
2024-05-17 17:14:00.282894,-2,0,-34,0,0,0,60,63,124,90,95,193.33,27,11.00,-7.00,-1016.00
2024-05-17 17:14:00.458681,-2,0,-34,0,0,0,60,63,125,90,95,193.21,27,67.00,-45.00,-1023.00
2024-05-17 17:14:00.458897,-2,0,-34,0,0,0,60,63,125,90,95,193.29,27,45.00,-32.00,-1022.00
2024-05-17 17:14:00.538997,-1,0,-35,0,0,0,60,63,125,90,95,193.26,27,6.00,-22.00,-981.00
2024-05-17 17:14:00.695504,-1,0,-35,0,0,0,62,63,126,90,95,193.24,27,8.00,-11.00,-1023.00
2024-05-17 17:14:00.794125,-2,0,-35,0,0,0,62,63,128,90,95,193.22,27,-27.00,-15.00,-1026.00
2024-05-17 17:14:00.970677,-2,0,-35,0,0,0,62,63,128,90,95,193.27,27,49.00,-53.00,-992.00
2024-05-17 17:14:00.998409,-1,1,-35,0,0,0,62,63,129,90,95,193.28,28,23.00,-50.00,-971.00
2024-05-17 17:14:01.048973,0,1,-34,0,0,0,62,63,129,90,95,193.30,28,11.00,5.00,-1017.00
2024-05-17 17:14:01.176704,0,1,-34,0,0,0,62,63,129,90,95,193.39,28,27.00,-11.00,-1014.00
2024-05-17 17:14:01.253430,0,1,-34,0,0,0,62,63,129,90,95,193.27,28,12.00,5.00,-979.00
2024-05-17 17:14:01.388496,-1,0,-34,0,0,0,62,63,129,90,95,193.38,28,-28.00,28.00,-963.00
2024-05-17 17:14:01.456702,-1,0,-34,0,0,0,62,63,128,90,95,193.39,28,55.00,-55.00,-1035.00
2024-05-17 17:14:01.585408,-1,0,-34,0,0,0,62,63,129,90,94,193.37,28,-57.00,5.00,-962.00
2024-05-17 17:14:01.660877,-1,0,-34,0,0,0,61,63,130,90,94,193.31,28,9.00,-1.00,-1015.00
2024-05-17 17:14:01.791129,-1,1,-34,0,0,0,61,63,129,90,94,193.36,28,-35.00,1.00,-971.00
2024-05-17 17:14:01.864699,-1,1,-34,0,0,0,61,63,130,90,94,193.38,28,53.00,-42.00,-1025.00
2024-05-17 17:14:01.994446,-1,1,-34,0,0,0,61,63,130,90,94,193.39,29,-5.00,0.00,-994.00
2024-05-17 17:14:02.073492,2,-5,-34,0,0,0,61,63,131,90,94,193.29,29,29.00,-59.00,-1058.00
2024-05-17 17:14:02.170681,1,-7,-34,0,-1,0,61,63,132,90,94,193.29,29,-1.00,7.00,-1030.00
2024-05-17 17:14:02.272980,0,-5,-34,-1,-2,0,61,63,130,90,94,193.38,29,75.00,-32.00,-1037.00
2024-05-17 17:14:02.405602,0,-2,-34,-2,-3,0,61,63,132,90,94,193.35,29,7.00,22.00,-1019.00
2024-05-17 17:14:02.476768,0,0,-34,-2,-3,0,61,63,132,90,94,193.28,29,73.00,-37.00,-1014.00
2024-05-17 17:14:02.578741,0,2,-34,-2,-2,0,61,63,132,90,94,193.35,29,1.00,-9.00,-994.00
2024-05-17 17:14:02.712216,-1,1,-34,-1,-2,0,62,64,133,90,94,193.35,29,53.00,-13.00,-973.00
2024-05-17 17:14:02.782695,0,0,-34,0,-1,0,62,64,132,90,94,193.38,29,-40.00,41.00,-987.00
2024-05-17 17:14:02.916953,0,0,-34,-1,-1,0,62,64,133,90,94,193.40,29,-10.00,4.00,-966.00
2024-05-17 17:14:02.986783,0,-1,-34,-1,-2,0,62,64,133,90,94,193.39,30,18.00,7.00,-1001.00
2024-05-17 17:14:03.120924,0,0,-34,-1,-2,0,62,64,132,90,94,193.48,30,0.00,7.00,-975.00
2024-05-17 17:14:03.190684,0,0,-34,-1,-2,0,62,64,133,90,94,193.39,30,-17.00,40.00,-1021.00
2024-05-17 17:14:03.326483,0,0,-34,-1,-2,0,62,64,133,90,94,193.41,30,-2.00,18.00,-979.00
2024-05-17 17:14:03.395636,0,0,-34,0,-2,0,62,64,134,90,94,193.41,30,-32.00,15.00,-949.00
2024-05-17 17:14:03.531592,-1,1,-34,0,-2,0,62,64,135,90,93,193.35,30,-69.00,50.00,-981.00
2024-05-17 17:14:03.598804,-1,0,-34,0,-2,0,62,64,135,90,93,193.41,30,9.00,12.00,-973.00
2024-05-17 17:14:03.735774,-1,0,-34,0,-2,0,61,64,133,90,93,193.40,30,59.00,-24.00,-1055.00
2024-05-17 17:14:03.804165,0,0,-34,0,-2,0,61,64,133,90,93,193.40,30,-22.00,17.00,-965.00
2024-05-17 17:14:03.941004,0,0,-34,0,-2,0,61,64,132,90,93,193.34,30,4.00,7.00,-959.00
2024-05-17 17:14:04.007684,0,0,-34,0,-2,0,61,64,133,90,93,193.40,31,-17.00,-1.00,-1000.00
2024-05-17 17:14:04.145790,2,4,-34,0,-1,0,61,64,133,90,93,193.44,31,-46.00,49.00,-963.00
2024-05-17 17:14:04.210764,0,2,-34,0,0,0,61,64,132,90,93,193.44,31,2.00,23.00,-1040.00
2024-05-17 17:14:04.350601,0,0,-34,0,0,0,61,64,132,90,93,193.45,31,78.00,-50.00,-1002.00
2024-05-17 17:14:04.415607,0,0,-34,0,0,0,61,64,132,90,93,193.42,31,58.00,-35.00,-1060.00
2024-05-17 17:14:04.466485,0,0,-34,0,0,0,61,64,132,90,93,193.35,31,-3.00,14.00,-1002.00
2024-05-17 17:14:04.658519,0,0,-34,0,0,0,61,64,131,90,93,193.44,31,42.00,-27.00,-1016.00
2024-05-17 17:14:04.721565,1,1,-34,0,0,0,62,64,131,90,93,193.49,31,25.00,-33.00,-996.00
2024-05-17 17:14:04.773055,0,0,-34,0,0,0,62,64,131,90,93,193.48,31,31.00,-36.00,-995.00
2024-05-17 17:14:04.964849,0,0,-34,0,0,0,62,64,130,90,93,193.45,31,100.00,-25.00,-983.00
2024-05-17 17:14:04.977264,0,0,-34,0,0,0,62,64,129,90,93,193.44,32,43.00,-18.00,-1046.00
2024-05-17 17:14:05.169483,-1,0,-34,0,0,0,62,64,129,90,93,193.38,32,29.00,-45.00,-1070.00
2024-05-17 17:14:05.182727,-1,0,-34,0,0,0,62,64,128,90,93,193.34,32,64.00,-58.00,-1052.00
2024-05-17 17:14:05.282064,-1,0,-34,0,0,0,62,64,129,90,93,193.37,32,21.00,-33.00,-1003.00
2024-05-17 17:14:05.476804,0,0,-34,0,0,0,62,64,129,90,93,193.41,32,19.00,-34.00,-1071.00
2024-05-17 17:14:05.485946,0,1,-34,0,0,0,62,64,129,90,92,193.35,32,-124.00,70.00,-995.00
2024-05-17 17:14:05.681936,0,1,-34,0,0,0,62,64,129,90,92,193.33,32,6.00,-41.00,-995.00
2024-05-17 17:14:05.690225,0,1,-34,0,0,0,62,64,129,90,92,193.33,32,11.00,-38.00,-958.00
2024-05-17 17:14:05.792021,-1,1,-34,0,0,0,62,64,129,90,92,193.29,32,-42.00,23.00,-982.00
2024-05-17 17:14:05.893893,0,1,-35,0,0,0,62,64,130,90,92,193.40,32,-29.00,-9.00,-990.00
2024-05-17 17:14:05.995888,0,1,-35,0,0,0,62,64,130,90,92,193.40,33,59.00,-63.00,-995.00
2024-05-17 17:14:06.163079,0,1,-35,0,0,0,62,64,130,90,92,193.36,33,36.00,-31.00,-963.00
2024-05-17 17:14:06.202747,0,1,-35,0,0,0,62,64,131,90,92,193.37,33,36.00,-41.00,-1021.00
2024-05-17 17:14:06.301808,0,1,-35,0,0,0,62,64,131,90,92,193.39,33,28.00,-55.00,-995.00
2024-05-17 17:14:06.505364,0,7,-35,0,0,0,62,64,132,90,92,193.30,33,57.00,-35.00,-993.00
2024-05-17 17:14:06.505724,0,8,-35,0,1,0,62,64,132,90,92,193.32,33,-30.00,2.00,-967.00
2024-05-17 17:14:06.608203,0,7,-35,1,2,0,62,64,131,90,92,193.32,33,10.00,-69.00,-995.00
2024-05-17 17:14:06.807214,-1,4,-35,2,3,0,62,64,132,90,92,193.27,33,-21.00,9.00,-1013.00
2024-05-17 17:14:06.811638,-1,1,-35,2,3,0,62,64,133,90,92,193.28,33,5.00,-29.00,-979.00
2024-05-17 17:14:07.013130,-1,0,-35,2,2,0,62,64,131,90,92,193.35,33,25.00,-46.00,-1011.00
2024-05-17 17:14:07.016747,0,0,-35,1,2,0,62,64,131,90,92,193.39,34,26.00,-52.00,-988.00
2024-05-17 17:14:07.117689,0,0,-34,1,1,0,62,64,133,90,92,193.45,34,11.00,-29.00,-1018.00
2024-05-17 17:14:07.219665,-1,1,-34,1,1,0,62,64,133,90,92,193.36,34,-68.00,-5.00,-968.00
2024-05-17 17:14:07.321675,-1,1,-34,1,1,0,62,64,133,90,92,193.36,34,-32.00,-16.00,-1011.00
2024-05-17 17:14:07.423922,-1,1,-34,1,1,0,62,64,134,90,92,193.33,34,-32.00,8.00,-1023.00
2024-05-17 17:14:07.627254,-2,1,-34,1,1,0,62,64,136,90,91,193.28,34,-46.00,-2.00,-978.00
2024-05-17 17:14:07.627844,-2,1,-34,1,1,0,62,64,137,90,91,193.39,34,-91.00,8.00,-995.00
2024-05-17 17:14:07.731263,-2,1,-34,1,1,0,62,64,135,90,91,193.38,34,-35.00,-48.00,-966.00
2024-05-17 17:14:07.832318,-3,0,-34,1,1,0,62,64,134,90,91,193.34,34,-32.00,-51.00,-988.00
2024-05-17 17:14:07.934515,-4,0,-34,1,1,0,62,64,135,90,91,193.35,34,-45.00,-30.00,-1081.00
2024-05-17 17:14:08.037019,-4,0,-34,1,1,0,62,64,135,90,91,193.37,35,-98.00,51.00,-1021.00
2024-05-17 17:14:08.139039,-3,0,-34,1,0,0,62,64,135,90,91,193.30,35,-55.00,-42.00,-1021.00
2024-05-17 17:14:08.241070,-3,0,-34,1,0,0,62,64,136,90,91,193.42,35,0.00,-52.00,-957.00
2024-05-17 17:14:08.290334,-3,0,-34,1,0,0,62,64,136,90,91,193.37,35,-11.00,-40.00,-963.00
2024-05-17 17:14:08.447118,-3,0,-34,1,0,0,62,64,136,90,91,193.30,35,77.00,-80.00,-1000.00
2024-05-17 17:14:08.494397,-3,-1,-34,1,0,0,62,64,138,90,91,193.31,35,-62.00,-18.00,-974.00
2024-05-17 17:14:08.651287,-4,-2,-34,1,0,0,62,64,137,90,91,193.39,35,-46.00,14.00,-960.00
2024-05-17 17:14:08.698481,-2,-3,-34,0,0,0,62,65,137,90,91,193.36,35,-29.00,-7.00,-1077.00
2024-05-17 17:14:08.856390,-1,-3,-34,0,0,0,62,65,138,90,91,193.37,35,-41.00,4.00,-1021.00
2024-05-17 17:14:08.903584,-2,-1,-34,0,0,0,62,65,137,90,91,193.24,35,-42.00,38.00,-954.00
2024-05-17 17:14:09.060872,-3,0,-34,0,-1,0,62,65,139,90,91,193.38,36,-22.00,-11.00,-1013.00
2024-05-17 17:14:09.106493,-5,2,-34,0,0,0,62,65,138,100,91,193.41,36,35.00,-31.00,-1054.00
2024-05-17 17:14:09.265687,-5,2,-34,0,0,0,62,65,139,100,91,193.32,36,5.00,-34.00,-956.00
2024-05-17 17:14:09.312582,-4,1,-34,1,0,0,62,65,138,100,91,193.40,36,-11.00,-1.00,-1026.00
2024-05-17 17:14:09.412598,-3,0,-35,1,0,0,62,65,138,100,91,193.36,36,-115.00,84.00,-999.00
2024-05-17 17:14:09.573376,-2,-1,-35,1,0,0,62,65,137,100,90,193.29,36,-74.00,28.00,-1003.00
2024-05-17 17:14:09.616512,-2,-1,-35,1,0,0,62,65,137,90,90,193.41,36,4.00,-23.00,-976.00
2024-05-17 17:14:09.776986,-2,0,-35,1,0,0,63,64,136,90,90,193.38,36,-28.00,4.00,-987.00
2024-05-17 17:14:09.820434,-1,0,-35,0,0,0,63,64,137,90,90,193.38,36,-91.00,30.00,-1014.00
2024-05-17 17:14:09.982517,0,0,-35,0,0,0,63,64,139,90,90,193.34,36,-22.00,9.00,-1046.00
2024-05-17 17:14:10.030598,1,0,-35,0,0,0,63,64,139,90,90,193.32,37,-5.00,0.00,-1022.00
2024-05-17 17:14:10.131405,0,0,-35,0,0,0,63,64,137,100,90,193.39,37,-31.00,-6.00,-994.00
2024-05-17 17:14:10.228374,0,0,-35,0,0,0,63,64,138,100,90,193.39,37,0.00,-15.00,-1015.00
2024-05-17 17:14:10.392223,-1,0,-35,0,0,0,63,64,138,100,90,193.43,37,25.00,-43.00,-1016.00
2024-05-17 17:14:10.432423,-1,0,-35,0,0,0,63,64,138,100,90,193.39,37,-15.00,-1.00,-977.00
2024-05-17 17:14:10.534594,-1,0,-35,0,0,0,63,64,139,100,90,193.33,37,1.00,-33.00,-968.00
2024-05-17 17:14:10.636424,-1,0,-35,0,0,0,63,64,138,100,90,193.34,37,-32.00,0.00,-1019.00
2024-05-17 17:14:10.801307,-1,0,-35,0,0,0,64,65,138,100,90,193.42,37,-41.00,-17.00,-938.00
2024-05-17 17:14:10.841242,-1,0,-35,0,0,0,64,65,139,100,90,193.38,37,27.00,-30.00,-971.00
2024-05-17 17:14:11.030293,-1,0,-35,0,0,0,64,65,138,100,90,193.36,37,-53.00,19.00,-1015.00
2024-05-17 17:14:11.047207,-1,0,-35,0,0,0,64,65,138,100,90,193.32,38,-24.00,-28.00,-1004.00
2024-05-17 17:14:11.147459,-1,0,-35,0,0,0,64,65,138,100,90,193.30,38,40.00,-63.00,-996.00
2024-05-17 17:14:11.248440,-2,0,-35,0,0,0,64,65,138,100,90,193.28,38,39.00,-49.00,-1011.00
2024-05-17 17:14:11.350259,-1,1,-35,0,0,0,64,65,138,90,90,193.40,38,4.00,-33.00,-1032.00
2024-05-17 17:14:11.452178,-1,1,-35,0,0,0,64,65,136,90,90,193.36,38,-1.00,-25.00,-949.00
2024-05-17 17:14:11.620933,-2,0,-30,0,0,0,64,65,136,90,89,193.36,38,-29.00,-7.00,-1009.00
2024-05-17 17:14:11.658772,-1,0,-24,0,0,0,64,65,137,90,89,193.35,38,14.00,-26.00,-1027.00
2024-05-17 17:14:11.758251,-1,0,-13,0,0,0,63,65,136,90,89,193.33,38,-18.00,-17.00,-1038.00
2024-05-17 17:14:11.860236,-2,0,-8,0,0,0,63,65,137,90,89,193.41,38,0.00,-30.00,-979.00
2024-05-17 17:14:11.962875,-2,0,-2,0,0,0,63,65,137,90,89,193.36,39,-54.00,-6.00,-995.00
2024-05-17 17:14:12.064225,-2,0,2,0,0,0,63,65,136,90,89,193.36,39,-32.00,-20.00,-974.00
2024-05-17 17:14:12.166373,-2,0,8,0,0,0,63,65,135,90,89,193.42,39,-34.00,1.00,-1024.00
2024-05-17 17:14:12.337948,-2,0,13,0,0,0,63,65,136,90,89,193.42,39,-5.00,-6.00,-1025.00
2024-05-17 17:14:12.370178,-2,0,19,0,0,0,63,65,136,90,89,193.31,39,-37.00,-13.00,-1028.00
2024-05-17 17:14:12.421658,-2,0,25,0,0,0,63,65,136,100,89,193.38,39,-9.00,9.00,-1022.00
2024-05-17 17:14:12.542593,-1,0,30,0,0,0,63,65,136,100,89,193.35,39,-32.00,7.00,-993.00
2024-05-17 17:14:12.625366,-1,0,36,0,0,0,63,65,136,100,89,193.31,39,1.00,-8.00,-1024.00
2024-05-17 17:14:12.746918,-1,0,42,0,0,0,63,65,137,100,89,193.30,39,-30.00,-20.00,-991.00
2024-05-17 17:14:12.829372,-1,0,48,0,0,0,63,65,136,100,89,193.26,39,-29.00,16.00,-1027.00
2024-05-17 17:14:12.951592,-1,-1,54,0,0,0,63,65,136,100,89,193.26,40,-16.00,9.00,-1023.00
2024-05-17 17:14:13.033482,-1,-1,60,0,0,0,63,65,136,100,89,193.28,40,-16.00,-2.00,-990.00
2024-05-17 17:14:13.156835,-1,-1,66,0,0,0,63,65,136,100,89,193.35,40,6.00,-2.00,-1005.00
2024-05-17 17:14:13.237349,-1,-1,73,0,0,0,63,65,136,100,89,193.50,40,-13.00,15.00,-1021.00
2024-05-17 17:14:13.339362,-1,0,79,0,0,0,63,65,136,90,89,193.51,40,-18.00,7.00,-1001.00
2024-05-17 17:14:13.441529,0,0,85,0,0,0,63,65,136,90,89,193.47,40,11.00,25.00,-1019.00
2024-05-17 17:14:13.565578,0,-1,92,0,0,0,63,65,135,90,89,193.50,40,7.00,10.00,-1001.00
2024-05-17 17:14:13.649325,0,-1,98,0,0,0,63,65,135,90,89,193.45,40,-53.00,43.00,-993.00
2024-05-17 17:14:13.748531,0,-1,104,0,0,0,62,66,135,90,89,193.47,40,-24.00,35.00,-1037.00
2024-05-17 17:14:13.851645,0,-1,111,0,0,0,62,66,134,90,89,193.35,40,29.00,-10.00,-1004.00
2024-05-17 17:14:13.952047,1,-1,118,0,0,0,62,66,135,90,89,193.42,41,-32.00,81.00,-1042.00
2024-05-17 17:14:14.077562,1,-1,124,0,0,0,62,66,134,90,89,193.47,41,-33.00,31.00,-954.00
2024-05-17 17:14:14.155536,1,-1,131,0,0,0,62,66,134,90,89,193.45,41,0.00,35.00,-986.00
2024-05-17 17:14:14.285197,1,0,137,0,0,0,62,66,134,90,89,193.39,41,-14.00,37.00,-974.00
2024-05-17 17:14:14.359315,2,0,144,0,0,0,62,66,134,90,89,193.35,41,5.00,34.00,-1001.00
2024-05-17 17:14:14.461347,2,0,150,0,0,0,62,66,135,90,89,193.36,41,21.00,20.00,-960.00
2024-05-17 17:14:14.589607,2,0,156,0,0,0,62,66,136,90,88,193.35,41,3.00,11.00,-992.00
2024-05-17 17:14:14.670087,2,0,162,0,0,0,62,66,136,90,88,193.55,41,0.00,51.00,-998.00
2024-05-17 17:14:14.767636,2,0,168,0,0,0,64,65,138,90,88,193.46,41,45.00,-12.00,-991.00
2024-05-17 17:14:14.896786,2,1,174,0,0,0,64,65,137,90,88,193.37,41,30.00,-2.00,-1028.00
2024-05-17 17:14:14.972598,2,1,-179,0,0,0,64,65,137,90,88,193.50,42,18.00,0.00,-1032.00
2024-05-17 17:14:15.101667,1,1,-173,0,0,0,64,65,137,90,88,193.41,42,58.00,-35.00,-1009.00
2024-05-17 17:14:15.175325,2,1,-167,0,0,0,64,65,137,90,88,193.36,42,29.00,-35.00,-1025.00
2024-05-17 17:14:15.307358,1,2,-161,0,0,0,64,65,137,100,88,193.45,42,10.00,-24.00,-974.00
2024-05-17 17:14:15.379262,1,2,-155,0,0,0,64,65,136,100,88,193.41,42,54.00,-17.00,-1028.00
2024-05-17 17:14:15.481293,0,1,-150,0,0,0,64,65,138,100,88,193.40,42,11.00,-25.00,-989.00
2024-05-17 17:14:15.613596,0,1,-144,0,0,0,64,65,139,100,88,193.41,42,20.00,17.00,-1001.00
2024-05-17 17:14:15.687621,0,1,-138,0,0,0,64,65,139,100,88,193.44,42,13.00,-16.00,-1012.00
2024-05-17 17:14:15.787352,0,1,-133,0,0,0,63,66,139,100,88,193.41,42,-8.00,-16.00,-1001.00
2024-05-17 17:14:15.920752,0,1,-127,0,0,0,63,66,140,100,88,193.38,42,-22.00,-8.00,-1000.00
2024-05-17 17:14:15.991142,0,1,-121,0,0,0,63,66,140,100,88,193.37,43,9.00,-20.00,-1013.00
2024-05-17 17:14:16.125526,0,1,-116,0,0,0,63,66,140,100,88,193.41,43,-15.00,-8.00,-1004.00
2024-05-17 17:14:16.195481,0,1,-110,0,0,0,63,66,141,100,88,193.44,43,14.00,-43.00,-988.00
2024-05-17 17:14:16.330361,0,1,-104,0,0,0,63,66,142,100,88,193.49,43,-16.00,-5.00,-1003.00
2024-05-17 17:14:16.399354,0,1,-99,0,0,0,63,66,141,100,88,193.47,43,4.00,-10.00,-996.00
2024-05-17 17:14:16.502319,0,1,-93,0,0,0,63,66,140,100,88,193.43,43,-31.00,13.00,-994.00
2024-05-17 17:14:16.552149,0,1,-87,0,0,0,63,66,142,100,88,193.43,43,-23.00,-3.00,-1005.00
2024-05-17 17:14:16.739963,0,1,-81,0,0,0,63,66,143,100,88,193.42,43,-4.00,-8.00,-1037.00
2024-05-17 17:14:16.807375,0,1,-75,0,0,0,64,66,143,100,88,193.41,43,20.00,-30.00,-1015.00
2024-05-17 17:14:16.947909,0,1,-69,0,0,0,64,66,143,100,88,193.48,43,-27.00,18.00,-1029.00
2024-05-17 17:14:17.011553,0,1,-63,0,0,0,64,66,144,100,88,193.43,44,-44.00,-6.00,-980.00
2024-05-17 17:14:17.063192,-1,1,-57,0,0,0,64,66,142,100,88,193.37,44,-28.00,-4.00,-994.00
2024-05-17 17:14:17.252925,-1,1,-52,0,0,0,64,66,141,100,88,193.39,44,-32.00,-28.00,-976.00
2024-05-17 17:14:17.266866,-1,0,-48,0,0,0,64,66,140,100,88,193.38,44,-1.00,-37.00,-987.00
2024-05-17 17:14:17.457669,-1,0,-45,0,0,0,64,66,140,100,88,193.42,44,-47.00,-6.00,-972.00
2024-05-17 17:14:17.473076,-1,1,-42,0,0,0,64,66,141,100,88,193.37,44,35.00,-48.00,-988.00
2024-05-17 17:14:17.571944,0,1,-41,0,0,0,64,66,141,100,88,193.42,44,-51.00,-15.00,-1013.00
2024-05-17 17:14:17.764400,0,1,-40,0,0,0,64,66,141,100,88,193.38,44,-40.00,-13.00,-997.00
2024-05-17 17:14:17.776194,0,1,-39,0,0,0,63,66,140,100,88,193.46,44,-20.00,-18.00,-1008.00
2024-05-17 17:14:17.969859,0,1,-38,0,0,0,63,66,138,100,88,193.35,44,-18.00,-20.00,-991.00
2024-05-17 17:14:17.979880,0,1,-38,0,0,0,63,66,137,100,88,193.40,45,-11.00,-27.00,-1012.00
2024-05-17 17:14:18.174693,0,1,-37,0,0,0,63,66,137,100,88,193.40,45,-32.00,-17.00,-977.00
2024-05-17 17:14:18.184235,0,1,-37,0,0,0,63,66,137,100,88,193.42,45,-14.00,-21.00,-996.00
2024-05-17 17:14:18.379882,0,1,-37,0,0,0,63,66,138,100,88,193.28,45,-13.00,-16.00,-996.00
2024-05-17 17:14:18.387863,0,1,-37,0,0,0,63,66,138,100,88,193.38,45,-18.00,-21.00,-1010.00
2024-05-17 17:14:18.490019,0,1,-37,0,0,0,63,66,138,90,88,193.31,45,-32.00,-20.00,-1011.00
2024-05-17 17:14:18.591934,0,1,-37,0,0,0,63,66,137,90,88,193.34,45,-17.00,-36.00,-1008.00
2024-05-17 17:14:18.693936,-1,0,-37,0,0,0,63,66,136,90,88,193.48,45,-1.00,-43.00,-961.00
2024-05-17 17:14:18.795944,0,0,-37,0,0,0,64,66,135,90,88,193.42,45,-20.00,-21.00,-993.00
2024-05-17 17:14:18.897971,0,0,-37,0,0,0,64,66,134,90,88,193.40,45,-35.00,-5.00,-1046.00
2024-05-17 17:14:19.095247,0,0,-37,0,0,0,64,66,134,90,88,193.30,46,-29.00,3.00,-1038.00
2024-05-17 17:14:19.102208,0,0,-37,0,0,0,64,66,134,90,88,193.34,46,2.00,-39.00,-984.00
2024-05-17 17:14:19.300315,0,0,-37,0,0,0,64,66,134,90,88,193.32,46,0.00,-27.00,-980.00
2024-05-17 17:14:19.305937,0,1,-37,0,0,0,64,66,133,90,88,193.36,46,32.00,-14.00,-1063.00
2024-05-17 17:14:19.505822,0,1,-37,0,0,0,64,66,133,90,88,193.38,46,41.00,-39.00,-978.00
2024-05-17 17:14:19.509980,0,1,-37,0,0,0,64,66,132,90,88,193.44,46,12.00,-25.00,-989.00
2024-05-17 17:14:19.710489,0,1,-37,0,0,0,64,66,132,90,88,193.31,46,4.00,-3.00,-1025.00
2024-05-17 17:14:19.713817,0,0,-37,0,0,0,64,66,131,90,88,193.31,46,-2.00,-32.00,-991.00
2024-05-17 17:14:19.817314,0,0,-37,0,0,0,64,66,131,90,88,193.31,46,-11.00,-17.00,-986.00
2024-05-17 17:14:20.017024,0,0,-37,0,0,0,64,66,131,90,88,193.40,46,-11.00,-11.00,-987.00
2024-05-17 17:14:20.023537,0,1,-37,0,0,0,64,66,130,90,88,193.34,47,5.00,-23.00,-1028.00
2024-05-17 17:14:20.122443,0,1,-37,0,0,0,64,66,130,90,88,193.31,47,0.00,-27.00,-1030.00
2024-05-17 17:14:20.174034,0,1,-37,0,0,0,64,66,130,90,88,193.31,47,5.00,-13.00,-1014.00
2024-05-17 17:14:20.287583,0,0,-37,0,0,0,64,66,129,90,88,193.27,47,-49.00,26.00,-936.00
2024-05-17 17:14:20.377037,0,0,-40,0,0,0,64,66,129,90,88,193.33,47,29.00,-60.00,-1101.00
2024-05-17 17:14:20.480770,0,0,-46,0,0,0,64,66,130,90,88,193.37,47,-32.00,4.00,-1018.00
2024-05-17 17:14:20.581260,0,0,-51,0,0,0,64,66,131,90,88,193.35,47,8.00,-26.00,-962.00
2024-05-17 17:14:20.734169,0,0,-57,0,0,0,64,66,131,90,88,193.45,47,39.00,-28.00,-1026.00
2024-05-17 17:14:20.789720,0,0,-63,0,0,0,64,67,130,90,88,193.33,47,53.00,-41.00,-982.00
2024-05-17 17:14:20.890261,0,0,-68,0,0,0,64,67,131,90,88,193.34,47,45.00,-33.00,-1022.00
2024-05-17 17:14:20.989002,0,0,-74,0,0,0,64,67,131,90,88,193.36,48,11.00,-48.00,-1000.00
2024-05-17 17:14:21.144293,0,0,-79,0,0,0,64,67,131,90,88,193.33,48,-8.00,8.00,-1008.00
2024-05-17 17:14:21.192962,0,1,-84,0,0,0,64,67,132,90,88,193.45,48,20.00,-30.00,-947.00
2024-05-17 17:14:21.348845,0,0,-89,0,0,0,64,67,132,90,88,193.35,48,4.00,-18.00,-968.00
2024-05-17 17:14:21.397008,-1,0,-95,0,0,0,64,67,131,90,88,193.41,48,-53.00,56.00,-951.00
2024-05-17 17:14:21.498992,0,0,-100,0,0,0,64,67,132,90,88,193.41,48,21.00,-24.00,-998.00
2024-05-17 17:14:21.655991,0,0,-105,0,0,0,64,67,132,90,88,193.30,48,6.00,-45.00,-1070.00
2024-05-17 17:14:21.705347,0,0,-111,0,0,0,64,67,131,90,88,193.40,48,55.00,13.00,-980.00
2024-05-17 17:14:21.805219,0,0,-116,0,0,0,64,66,131,90,88,193.41,48,65.00,-49.00,-1078.00
2024-05-17 17:14:21.962958,0,0,-122,0,0,0,64,66,131,90,88,193.25,48,13.00,-29.00,-926.00
2024-05-17 17:14:22.009502,0,1,-127,0,0,0,64,66,131,90,88,193.33,49,57.00,-39.00,-1006.00
2024-05-17 17:14:22.168407,0,1,-133,0,0,0,64,66,130,90,88,193.42,49,25.00,-30.00,-977.00
2024-05-17 17:14:22.212928,0,2,-139,0,0,0,64,66,130,90,88,193.44,49,-13.00,-20.00,-959.00
2024-05-17 17:14:22.373336,1,2,-145,0,0,0,64,66,130,90,88,193.38,49,-11.00,-11.00,-989.00
2024-05-17 17:14:22.417095,1,2,-151,0,0,0,64,66,128,90,88,193.42,49,-51.00,54.00,-1026.00
2024-05-17 17:14:22.577412,0,1,-157,0,0,0,64,66,128,90,87,193.30,49,27.00,-29.00,-1041.00
2024-05-17 17:14:22.621495,0,1,-164,0,0,0,64,66,128,90,87,193.29,49,71.00,-27.00,-1005.00
2024-05-17 17:14:22.781456,0,1,-170,0,0,0,64,66,129,90,87,193.38,49,32.00,10.00,-1096.00
2024-05-17 17:14:22.824912,1,1,-177,0,0,0,64,66,129,90,87,193.38,49,15.00,49.00,-1051.00
2024-05-17 17:14:22.988366,1,0,176,0,0,0,64,66,128,90,87,193.32,49,26.00,-35.00,-980.00
2024-05-17 17:14:23.028877,1,0,169,0,0,0,64,66,129,90,87,193.34,50,6.00,4.00,-966.00
2024-05-17 17:14:23.191046,1,0,163,0,0,0,64,66,129,90,87,193.23,50,37.00,7.00,-1032.00
2024-05-17 17:14:23.236403,1,0,157,0,0,0,64,66,129,90,87,193.26,50,-16.00,38.00,-1004.00
2024-05-17 17:14:23.335008,1,0,151,0,0,0,64,66,130,90,87,193.37,50,1.00,29.00,-1016.00
2024-05-17 17:14:23.499195,0,-1,145,0,0,0,64,66,130,90,87,193.41,50,51.00,-31.00,-978.00
2024-05-17 17:14:23.538898,0,-1,139,0,0,0,64,66,130,90,87,193.27,50,17.00,1.00,-946.00
2024-05-17 17:14:23.705947,0,-1,133,0,0,0,64,66,130,90,87,193.33,50,28.00,-32.00,-972.00
2024-05-17 17:14:23.705984,1,0,128,0,0,0,64,66,131,90,87,193.36,50,-9.00,29.00,-994.00
2024-05-17 17:14:23.844821,1,0,122,0,0,0,65,67,131,90,87,193.38,50,46.00,-17.00,-981.00
2024-05-17 17:14:24.012070,1,0,117,0,0,0,65,67,131,90,87,193.45,50,27.00,0.00,-1032.00
2024-05-17 17:14:24.048547,1,0,111,0,0,0,65,67,131,90,87,193.41,51,14.00,45.00,-1009.00
2024-05-17 17:14:24.216036,0,-1,106,0,0,0,65,67,131,90,87,193.44,51,16.00,37.00,-990.00
2024-05-17 17:14:24.216066,0,-1,100,0,0,0,65,67,131,90,87,193.42,51,7.00,14.00,-1033.00
2024-05-17 17:14:24.304994,1,-1,95,0,0,0,65,67,131,90,87,193.43,51,-6.00,58.00,-1037.00
2024-05-17 17:14:24.406057,1,-1,89,0,0,0,65,67,131,90,87,193.43,51,74.00,-28.00,-977.00
2024-05-17 17:14:24.511531,1,-1,83,0,0,0,65,67,131,90,87,193.47,51,-12.00,17.00,-981.00
2024-05-17 17:14:24.630464,1,-1,77,0,0,0,65,67,130,90,87,193.34,51,34.00,-4.00,-996.00
2024-05-17 17:14:24.714660,0,-1,71,0,0,0,65,67,130,90,87,193.32,51,97.00,-61.00,-1047.00
2024-05-17 17:14:24.816481,0,0,66,0,0,0,65,67,129,90,87,193.36,51,-11.00,7.00,-1042.00
2024-05-17 17:14:24.918201,0,0,60,0,0,0,65,67,129,90,87,193.40,51,-28.00,62.00,-1000.00
2024-05-17 17:14:25.019101,0,0,54,0,0,0,65,67,128,90,87,193.42,52,-63.00,49.00,-974.00
2024-05-17 17:14:25.120307,0,-1,48,0,0,0,65,67,129,90,87,193.40,52,37.00,-17.00,-1010.00
2024-05-17 17:14:25.221693,0,-1,41,0,0,0,65,67,128,90,87,193.40,52,-28.00,35.00,-996.00
2024-05-17 17:14:25.443851,0,-1,35,0,0,0,65,67,128,90,87,193.40,52,-56.00,36.00,-977.00
2024-05-17 17:14:25.443887,0,-1,29,0,0,0,65,67,128,90,87,193.40,52,-2.00,3.00,-974.00
2024-05-17 17:14:25.527516,0,-1,22,0,0,0,65,67,127,90,87,193.36,52,-36.00,36.00,-1015.00
2024-05-17 17:14:25.654590,0,-1,16,0,0,0,65,67,127,90,87,193.42,52,-41.00,42.00,-995.00
2024-05-17 17:14:25.731487,0,-1,10,0,0,0,65,67,128,90,87,193.35,52,7.00,-7.00,-1035.00
2024-05-17 17:14:25.833628,0,-1,3,0,0,0,65,67,128,90,87,193.40,52,-7.00,-6.00,-972.00
2024-05-17 17:14:25.955879,-1,-1,-2,0,0,0,65,67,129,90,87,193.34,52,8.00,-20.00,-976.00
2024-05-17 17:14:26.037591,-1,-1,-9,0,0,0,65,67,129,90,87,193.38,53,-6.00,-19.00,-1002.00
2024-05-17 17:14:26.160627,0,-1,-15,0,0,0,65,67,130,90,87,193.33,53,-11.00,-1.00,-959.00
2024-05-17 17:14:26.241475,0,0,-20,0,0,0,65,67,131,90,87,193.40,53,-25.00,1.00,-1001.00
2024-05-17 17:14:26.365442,-1,0,-25,0,0,0,65,67,132,90,87,193.38,53,-52.00,10.00,-1024.00
2024-05-17 17:14:26.446952,-1,0,-28,0,0,0,65,67,132,90,87,193.42,53,-54.00,12.00,-968.00
2024-05-17 17:14:26.547508,-1,0,-30,0,0,0,65,67,133,90,87,193.40,53,-34.00,-13.00,-982.00
2024-05-17 17:14:26.674292,-1,0,-32,0,0,0,65,67,134,90,87,193.31,53,-13.00,11.00,-1005.00
2024-05-17 17:14:26.762896,-1,0,-34,0,0,0,65,67,134,90,87,193.35,53,15.00,-42.00,-988.00
2024-05-17 17:14:26.854797,0,0,-35,0,0,0,65,66,135,90,87,193.40,53,-26.00,-5.00,-1022.00
2024-05-17 17:14:26.981500,0,0,-36,0,0,0,65,66,135,90,87,193.44,54,-44.00,51.00,-1020.00
2024-05-17 17:14:27.064183,0,0,-36,0,0,0,65,66,135,100,87,193.41,54,-101.00,31.00,-1017.00
2024-05-17 17:14:27.160898,0,0,-36,0,0,0,65,66,135,100,87,193.46,54,-7.00,39.00,-949.00
2024-05-17 17:14:27.289499,0,0,-36,0,0,0,65,66,135,90,87,193.45,54,82.00,-61.00,-1000.00
2024-05-17 17:14:27.372007,0,0,-36,0,0,0,65,66,134,90,87,193.49,54,-17.00,-4.00,-991.00
2024-05-17 17:14:27.467563,-1,0,-36,0,0,0,65,66,134,90,87,193.41,54,53.00,-28.00,-1061.00
2024-05-17 17:14:27.596693,0,0,-36,0,0,0,65,66,134,90,87,193.48,54,1.00,-23.00,-991.00
2024-05-17 17:14:27.620482,0,0,-36,0,0,0,65,66,134,90,87,193.35,54,-46.00,24.00,-986.00
2024-05-17 17:14:27.723184,0,0,-36,0,0,0,65,66,133,90,87,193.27,54,-12.00,15.00,-1033.00
2024-05-17 17:14:27.832031,0,0,-36,0,0,0,65,67,133,90,87,193.41,54,-21.00,-3.00,-1012.00
2024-05-17 17:14:27.926963,0,0,-36,0,0,0,65,67,133,90,87,193.39,55,-14.00,-4.00,-975.00
2024-05-17 17:14:28.108658,0,0,-36,0,0,0,65,67,133,90,87,193.33,55,-45.00,53.00,-1009.00
2024-05-17 17:14:28.130785,0,0,-36,0,0,0,65,67,133,90,87,193.40,55,-63.00,48.00,-1043.00
2024-05-17 17:14:28.232812,0,0,-36,0,0,0,65,67,133,90,87,193.35,55,73.00,-57.00,-1101.00
2024-05-17 17:14:28.415383,0,0,-36,0,0,0,65,67,133,90,87,193.38,55,46.00,-50.00,-971.00
2024-05-17 17:14:28.436790,0,0,-36,0,0,0,65,67,134,90,87,193.42,55,16.00,-5.00,-1015.00
2024-05-17 17:14:28.618620,-1,0,-36,0,0,0,65,67,135,90,87,193.39,55,-21.00,-14.00,-987.00
2024-05-17 17:14:28.642447,-1,0,-36,0,0,0,65,67,135,90,87,193.40,55,-28.00,15.00,-975.00
2024-05-17 17:14:28.766324,-1,0,-36,0,0,0,65,67,135,90,87,193.46,55,-28.00,25.00,-991.00
2024-05-17 17:14:28.851546,0,0,-36,0,0,0,65,67,136,90,87,193.42,55,-34.00,8.00,-997.00
2024-05-17 17:14:28.951906,0,0,-36,0,0,-3,65,67,137,100,87,193.60,56,3.00,-8.00,-1037.00
2024-05-17 17:14:29.049632,0,-10,-36,0,0,-10,65,67,145,100,87,193.62,56,72.00,-38.00,-1000.00
2024-05-17 17:14:29.232590,0,-100,-35,-3,-4,-11,65,67,249,120,87,193.76,56,55.00,-34.00,-1758.00
2024-05-17 17:14:29.254533,1,136,-35,-6,-8,3,65,67,166,120,87,193.76,56,-87.00,198.00,-1320.00
2024-05-17 17:14:29.356933,0,24,-37,-2,-3,12,65,67,317,110,87,194.00,56,-27.00,589.00,-1001.00
2024-05-17 17:14:29.458611,0,-1,-37,-2,-2,9,65,67,146,100,87,193.58,56,-40.00,465.00,-869.00
2024-05-17 17:14:29.560855,0,2,-37,-2,-2,5,65,67,137,90,87,193.51,56,37.00,226.00,-1669.00
2024-05-17 17:14:29.662267,0,2,-36,-1,-1,2,65,67,132,90,87,193.44,56,-2.00,-23.00,-1356.00
2024-05-17 17:14:29.763620,0,1,-36,-1,-1,0,65,67,131,90,87,193.27,56,14.00,-33.00,-1387.00
2024-05-17 17:14:29.865309,0,0,-36,-1,-1,0,65,67,129,90,87,193.31,56,14.00,-20.00,-1053.00
2024-05-17 17:14:30.053880,0,0,-36,0,-1,0,65,67,130,90,87,193.30,57,72.00,-47.00,-1001.00
2024-05-17 17:14:30.069494,0,0,-36,0,-1,0,65,67,131,90,87,193.36,57,25.00,-12.00,-979.00
2024-05-17 17:14:30.257740,0,1,-36,0,0,0,65,67,133,90,87,193.42,57,-10.00,7.00,-988.00
2024-05-17 17:14:30.279151,0,3,-36,0,0,0,65,67,132,90,87,193.43,57,-13.00,13.00,-959.00
2024-05-17 17:14:30.378142,0,1,-36,0,0,0,65,67,134,90,87,193.37,57,17.00,-24.00,-981.00
2024-05-17 17:14:30.477720,0,1,-36,0,0,0,65,67,133,90,87,193.44,57,56.00,-34.00,-987.00
2024-05-17 17:14:30.666646,0,0,-36,0,0,0,65,67,133,90,87,193.43,57,7.00,-15.00,-1000.00
2024-05-17 17:14:30.681222,0,0,-36,0,0,0,65,67,133,90,87,193.46,57,33.00,-50.00,-952.00
2024-05-17 17:14:30.874971,0,0,-36,0,0,0,65,67,133,90,87,193.39,57,-1.00,-11.00,-981.00
2024-05-17 17:14:30.885212,-1,0,-36,0,0,0,66,68,133,90,87,193.42,57,-9.00,24.00,-1034.00
2024-05-17 17:14:30.987657,-1,0,-36,0,0,0,66,68,133,90,87,193.36,58,5.00,6.00,-961.00
2024-05-17 17:14:31.178211,-1,0,-36,0,0,0,66,68,134,90,87,193.41,58,8.00,-15.00,-1007.00
2024-05-17 17:14:31.192987,0,1,-36,0,0,0,66,68,136,90,87,193.32,58,-2.00,14.00,-997.00
2024-05-17 17:14:31.293452,0,1,-36,0,0,0,66,68,136,90,87,193.35,58,-5.00,1.00,-1008.00
2024-05-17 17:14:31.485471,0,1,-36,0,0,0,66,68,137,90,87,193.42,58,-25.00,2.00,-1016.00
2024-05-17 17:14:31.488610,0,1,-36,0,0,0,66,68,138,90,87,193.51,58,13.00,-10.00,-1029.00
2024-05-17 17:14:31.548220,0,0,-36,0,0,0,66,68,138,90,86,193.44,58,2.00,-14.00,-1002.00
2024-05-17 17:14:31.691696,-1,0,-36,0,0,0,66,68,140,90,86,193.43,58,4.00,-1.00,-1054.00
2024-05-17 17:14:31.752185,-1,0,-36,0,0,0,66,68,140,90,86,193.48,58,-63.00,19.00,-1011.00
2024-05-17 17:14:31.854290,0,0,-36,0,0,0,66,67,140,90,86,193.46,58,-24.00,19.00,-1002.00
2024-05-17 17:14:31.998361,-1,0,-36,0,0,0,66,67,141,100,86,193.42,59,-6.00,-37.00,-890.00
2024-05-17 17:14:32.061477,-1,0,-36,0,0,0,66,67,141,100,86,193.45,59,-21.00,19.00,-890.00
2024-05-17 17:14:32.160335,0,0,-36,0,0,0,66,67,141,100,86,193.45,59,-32.00,24.00,-997.00
2024-05-17 17:14:32.305041,0,0,-36,0,0,0,66,67,141,100,86,193.41,59,-44.00,49.00,-1044.00
2024-05-17 17:14:32.364749,0,0,-36,0,0,0,66,67,142,100,86,193.51,59,33.00,-14.00,-1049.00
2024-05-17 17:14:32.509516,0,0,-36,0,0,0,66,67,142,100,86,193.51,59,15.00,-21.00,-1008.00
2024-05-17 17:14:32.568440,0,0,-36,0,0,0,66,67,142,100,86,193.50,59,16.00,-3.00,-1035.00
2024-05-17 17:14:32.714278,0,0,-36,0,0,0,66,67,143,100,86,193.48,59,-17.00,1.00,-976.00
2024-05-17 17:14:32.772273,0,0,-36,0,0,0,66,67,142,100,86,193.48,59,-31.00,13.00,-986.00
2024-05-17 17:14:32.874486,0,0,-36,0,0,0,66,68,142,100,86,193.43,59,-11.00,19.00,-965.00
2024-05-17 17:14:33.021369,0,0,-36,0,0,0,66,68,143,100,86,193.46,60,-13.00,22.00,-933.00
2024-05-17 17:14:33.078612,0,0,-36,0,0,0,66,68,143,100,86,193.52,60,36.00,-17.00,-991.00
2024-05-17 17:14:33.231246,0,0,-36,0,0,0,66,68,143,100,86,193.51,60,61.00,-41.00,-979.00
2024-05-17 17:14:33.282418,0,0,-36,0,0,0,66,68,143,100,86,193.47,60,4.00,-25.00,-974.00
2024-05-17 17:14:33.431299,0,0,-36,0,0,0,66,68,142,100,86,193.44,60,71.00,-46.00,-971.00
2024-05-17 17:14:33.487445,0,0,-36,0,0,0,66,68,142,100,86,193.49,60,10.00,20.00,-983.00
2024-05-17 17:14:33.589831,-1,0,-36,0,0,0,66,68,141,100,86,193.44,60,-3.00,-12.00,-1002.00
2024-05-17 17:14:33.690159,-1,0,-36,0,0,0,66,68,141,100,86,193.47,60,-70.00,12.00,-954.00
2024-05-17 17:14:33.840672,0,0,-36,0,0,0,66,68,141,100,86,193.47,60,63.00,-60.00,-993.00
2024-05-17 17:14:33.896753,0,0,-36,0,0,0,65,68,140,100,86,193.48,60,62.00,-68.00,-1002.00
2024-05-17 17:14:33.996636,0,0,-36,0,0,0,65,68,140,90,86,193.42,61,42.00,-14.00,-1030.00
2024-05-17 17:14:34.098703,0,0,-36,0,0,0,65,68,140,90,86,193.36,61,-13.00,13.00,-1023.00
2024-05-17 17:14:34.253881,-1,0,-36,0,0,0,65,68,139,90,86,193.40,61,-84.00,52.00,-989.00
2024-05-17 17:14:34.307851,-1,0,-36,0,0,0,65,68,139,90,86,193.43,61,5.00,-9.00,-1034.00
2024-05-17 17:14:34.407151,-1,0,-36,0,0,0,65,68,138,90,86,193.40,61,28.00,-34.00,-964.00
2024-05-17 17:14:34.514385,-1,0,-36,0,0,0,65,68,138,90,86,193.45,61,-8.00,-24.00,-1041.00
2024-05-17 17:14:34.610859,-1,0,-36,0,0,0,65,68,137,90,86,193.45,61,-81.00,37.00,-949.00
2024-05-17 17:14:34.710541,-1,0,-36,0,0,0,65,68,137,90,86,193.40,61,8.00,16.00,-1038.00
2024-05-17 17:14:34.865659,-1,0,-36,0,0,0,65,68,137,90,86,193.43,61,-84.00,18.00,-999.00
2024-05-17 17:14:34.919121,-1,0,-36,0,0,0,66,68,138,90,86,193.37,61,0.00,13.00,-1018.00
2024-05-17 17:14:35.019177,0,0,-36,0,0,0,66,68,137,90,86,193.40,62,30.00,-23.00,-972.00
2024-05-17 17:14:35.118113,0,0,-36,0,0,0,66,68,137,90,86,193.43,62,72.00,-32.00,-1015.00
2024-05-17 17:14:35.275339,-1,0,-36,0,0,0,66,68,136,90,86,193.37,62,-19.00,-12.00,-977.00
2024-05-17 17:14:35.275565,-1,0,-36,0,0,0,66,68,136,90,86,193.38,62,2.00,-24.00,-962.00
2024-05-17 17:14:35.373080,-2,0,-36,0,0,0,66,68,135,90,86,193.36,62,24.00,-33.00,-1021.00
2024-05-17 17:14:35.480772,-2,0,-36,0,0,0,66,68,136,90,86,193.50,62,59.00,-70.00,-1110.00
2024-05-17 17:14:35.582502,0,1,-36,0,0,-3,66,68,138,90,86,193.56,62,-43.00,116.00,-1771.00
2024-05-17 17:14:35.683389,0,8,-36,0,0,-10,66,68,149,100,86,193.64,62,6.00,-104.00,-1892.00
2024-05-17 17:14:35.781693,0,91,-36,4,5,-13,66,68,310,110,86,193.70,62,-43.00,655.00,-1295.00
2024-05-17 17:14:35.889524,1,-146,-37,7,9,1,66,67,222,120,86,193.76,62,64.00,118.00,-1863.00
2024-05-17 17:14:35.984979,1,-31,-33,4,4,11,66,67,170,110,86,193.94,63,61.00,733.00,-1009.00
2024-05-17 17:14:36.096113,0,4,-33,3,4,10,66,67,140,100,86,193.50,63,9.00,750.00,-764.00
2024-05-17 17:14:36.190895,1,-2,-33,3,4,6,66,67,131,90,86,193.50,63,30.00,395.00,-937.00
2024-05-17 17:14:36.290913,0,-4,-33,2,4,2,66,67,125,90,86,193.40,63,-17.00,4.00,-1435.00
2024-05-17 17:14:36.405293,0,-3,-35,2,3,0,66,67,123,90,86,193.23,63,25.00,-102.00,-1350.00
