TS,pitch,roll,yaw,vgx,vgy,vgz,templ,temph,tof,h,bat,baro,time,agx,agy,agz
2024-05-19 09:40:44.718557,0,0,-10,0,0,0,87,89,10,0,50,131.23,334,-1.00,3.00,-1000.00
2024-05-19 09:40:44.750835,0,0,-10,0,0,0,87,89,10,0,50,131.28,334,-3.00,5.00,-1003.00
2024-05-19 09:40:44.923733,0,0,-10,0,0,0,87,89,10,0,50,131.30,334,-2.00,4.00,-1000.00
2024-05-19 09:40:44.954916,0,0,-10,0,0,0,87,89,10,0,50,131.29,334,-3.00,4.00,-1001.00
2024-05-19 09:40:45.128242,0,0,-10,0,0,0,87,89,10,0,50,131.25,334,-3.00,3.00,-999.00
2024-05-19 09:40:45.128437,0,0,-10,0,0,0,87,89,10,0,50,131.24,334,-3.00,3.00,-999.00
2024-05-19 09:40:45.209649,0,0,-10,0,0,0,87,89,10,0,50,131.17,334,-2.00,3.00,-1000.00
2024-05-19 09:40:45.332800,0,0,-10,0,0,0,87,89,10,0,50,131.24,334,-3.00,3.00,-999.00
2024-05-19 09:40:45.413916,0,0,-10,0,0,0,88,89,10,0,50,131.26,334,-3.00,2.00,-1001.00
2024-05-19 09:40:45.537870,0,0,-10,0,0,0,88,89,10,0,50,131.28,334,-4.00,5.00,-999.00
2024-05-19 09:40:45.617730,0,0,-10,0,0,0,88,89,10,0,50,131.24,334,-3.00,3.00,-1000.00
2024-05-19 09:40:45.742613,0,0,-10,0,0,0,88,89,10,0,50,131.26,334,-3.00,3.00,-999.00
2024-05-19 09:40:45.821760,0,0,-10,0,0,0,88,89,10,0,50,131.27,334,-3.00,3.00,-999.00
2024-05-19 09:40:45.923682,0,0,-10,0,0,0,88,89,10,0,50,131.21,334,-3.00,4.00,-1001.00
2024-05-19 09:40:46.049791,0,0,-10,0,0,0,88,89,10,0,50,131.22,334,-1.00,2.00,-1000.00
2024-05-19 09:40:46.127837,0,0,-10,0,0,0,88,89,10,0,50,131.31,334,-2.00,3.00,-1002.00
2024-05-19 09:40:46.254705,0,0,-10,0,0,0,88,89,10,0,50,131.30,334,-2.00,5.00,-1001.00
2024-05-19 09:40:46.331754,0,0,-10,0,0,0,88,89,10,0,50,131.24,334,-3.00,3.00,-999.00
2024-05-19 09:40:46.433935,0,0,-10,0,0,0,87,89,10,0,50,131.20,334,-2.00,3.00,-1000.00
2024-05-19 09:40:46.561768,0,0,-10,0,0,0,87,89,10,0,50,131.23,334,-1.00,3.00,-1000.00
2024-05-19 09:40:46.637791,0,0,-10,0,0,0,87,89,10,0,50,131.31,334,-1.00,5.00,-999.00
2024-05-19 09:40:46.739792,0,0,-10,0,0,0,87,89,10,0,50,131.33,334,-2.00,2.00,-1001.00
2024-05-19 09:40:46.869043,0,0,-10,0,0,0,87,89,10,0,50,131.33,334,0.00,2.00,-1001.00
2024-05-19 09:40:46.944860,0,0,-10,0,0,0,87,89,10,0,50,131.30,334,-3.00,2.00,-1001.00
2024-05-19 09:40:47.073759,0,0,-10,0,0,0,87,89,10,0,50,131.32,334,-4.00,3.00,-1000.00
2024-05-19 09:40:47.148723,0,0,-10,0,0,0,87,89,10,0,50,131.32,334,-1.00,2.00,-1000.00
2024-05-19 09:40:47.278643,0,0,-10,0,0,0,87,89,10,0,50,131.31,334,-1.00,3.00,-999.00
2024-05-19 09:40:47.352490,0,0,-10,0,0,0,87,89,10,0,50,131.31,334,-1.00,3.00,-998.00
2024-05-19 09:40:47.483327,0,0,-10,0,0,0,88,89,10,0,50,131.29,334,-1.00,2.00,-1001.00
2024-05-19 09:40:47.556580,0,0,-10,0,0,0,88,89,10,0,50,131.29,335,6.00,-9.00,-996.00
2024-05-19 09:40:47.658733,0,0,-10,0,0,0,88,89,10,0,50,131.29,335,-11.00,4.00,-999.00
2024-05-19 09:40:47.760933,0,0,-9,0,0,0,88,89,10,0,50,131.29,335,31.00,-13.00,-1015.00
2024-05-19 09:40:47.892871,0,0,-7,0,0,0,88,89,10,0,50,131.29,335,30.00,28.00,-1017.00
2024-05-19 09:40:47.964549,0,0,-5,0,0,0,88,89,10,0,50,131.29,335,25.00,-42.00,-1099.00
2024-05-19 09:40:48.015605,0,0,-4,0,0,0,88,89,10,0,50,131.29,335,-37.00,-11.00,-1027.00
2024-05-19 09:40:48.200118,1,-1,-4,0,0,-1,88,89,10,0,50,131.29,335,-35.00,14.00,-1232.00
2024-05-19 09:40:48.219573,0,0,-4,0,0,-4,88,89,10,0,50,131.29,335,48.00,-32.00,-1277.00
2024-05-19 09:40:48.406197,-1,1,-4,0,0,-7,88,89,17,0,50,131.29,335,3.00,-30.00,-1320.00
2024-05-19 09:40:48.423533,-1,1,-4,0,0,-8,88,90,25,10,50,131.56,335,-39.00,-16.00,-1104.00
2024-05-19 09:40:48.609638,-1,1,-4,0,0,-8,88,90,33,20,50,131.69,336,-95.00,-10.00,-1094.00
2024-05-19 09:40:48.627519,-1,2,-4,0,0,-7,88,90,41,30,50,131.84,336,-13.00,-12.00,-1093.00
2024-05-19 09:40:48.817847,-2,3,-4,0,0,-7,88,90,43,30,50,131.91,336,-23.00,-17.00,-967.00
2024-05-19 09:40:48.832090,-1,2,-4,0,0,-6,88,90,49,40,50,131.97,336,-27.00,-4.00,-852.00
2024-05-19 09:40:48.933429,-2,1,-4,0,0,-5,88,90,55,40,50,132.02,336,-43.00,-35.00,-895.00
2024-05-19 09:40:49.121900,-1,2,-4,0,0,-4,88,90,59,50,50,131.98,336,-50.00,0.00,-898.00
2024-05-19 09:40:49.137535,0,2,-4,0,0,-2,88,90,61,50,50,132.04,336,27.00,-65.00,-856.00
2024-05-19 09:40:49.326487,0,2,-4,0,0,-1,88,90,63,50,50,132.08,336,-5.00,-34.00,-1030.00
2024-05-19 09:40:49.341573,1,2,-4,0,0,0,88,90,64,50,50,132.06,336,118.00,-56.00,-1057.00
2024-05-19 09:40:49.534441,1,3,-4,0,0,0,88,90,64,50,50,132.05,336,20.00,-24.00,-1049.00
2024-05-19 09:40:49.545502,1,3,-4,0,0,0,88,90,65,50,50,132.04,337,60.00,-59.00,-1078.00
2024-05-19 09:40:49.739313,2,2,-4,0,0,0,88,90,65,50,50,132.06,337,40.00,-80.00,-1004.00
2024-05-19 09:40:49.749457,2,4,-4,0,0,0,88,90,65,50,50,132.03,337,-15.00,-23.00,-1175.00
2024-05-19 09:40:49.940894,2,3,-4,0,0,0,88,90,66,50,50,131.96,337,87.00,-70.00,-1053.00
2024-05-19 09:40:49.953340,2,3,-4,0,0,-1,88,90,68,50,50,131.99,337,48.00,-9.00,-865.00
2024-05-19 09:40:50.145724,3,3,-4,1,0,-1,88,90,70,50,50,132.23,337,102.00,-2.00,-1120.00
2024-05-19 09:40:50.157360,3,3,-5,1,0,-1,88,90,72,50,50,132.20,337,12.00,19.00,-1269.00
2024-05-19 09:40:50.350704,4,4,-5,0,0,-1,88,90,74,60,50,132.24,337,162.00,-60.00,-1053.00
2024-05-19 09:40:50.361264,4,4,-5,0,0,-1,88,90,76,60,50,132.15,337,33.00,-39.00,-1042.00
2024-05-19 09:40:50.555302,3,2,-5,0,1,-1,88,90,77,60,50,132.22,337,68.00,-27.00,-880.00
2024-05-19 09:40:50.565753,3,0,-5,0,1,0,88,90,79,60,50,132.13,338,-30.00,32.00,-897.00
2024-05-19 09:40:50.760065,2,0,-5,0,1,0,88,90,79,60,50,132.12,338,-21.00,41.00,-1046.00
2024-05-19 09:40:50.769388,0,-1,-4,0,1,0,88,90,80,60,50,132.27,338,45.00,19.00,-1059.00
2024-05-19 09:40:50.964851,2,-1,-5,0,1,0,88,90,81,60,50,132.30,338,-64.00,64.00,-914.00
2024-05-19 09:40:50.973421,4,-1,-5,0,1,0,88,90,81,60,50,132.27,338,-4.00,1.00,-1118.00
2024-05-19 09:40:51.169662,3,0,-5,0,1,0,88,90,82,70,50,132.16,338,-31.00,47.00,-1037.00
2024-05-19 09:40:51.178823,1,0,-5,0,1,0,88,90,82,70,50,132.14,338,62.00,37.00,-848.00
2024-05-19 09:40:51.374390,0,-2,-4,0,2,0,88,90,82,70,50,132.24,338,34.00,0.00,-969.00
2024-05-19 09:40:51.381432,0,-4,-4,0,1,0,88,90,82,70,50,132.28,338,-18.00,42.00,-1110.00
2024-05-19 09:40:51.579307,0,-3,-4,0,1,0,88,90,83,70,50,132.20,338,127.00,-37.00,-945.00
2024-05-19 09:40:51.585332,1,-1,-4,0,0,0,88,90,84,70,50,132.20,339,-3.00,49.00,-1204.00
2024-05-19 09:40:51.784001,2,0,-4,0,0,0,88,90,85,70,50,132.29,339,24.00,13.00,-915.00
2024-05-19 09:40:51.789346,2,0,-4,0,0,0,88,90,86,70,50,132.20,339,73.00,-28.00,-1001.00
2024-05-19 09:40:51.891644,1,0,-4,0,0,0,88,90,86,70,50,132.19,339,-28.00,54.00,-946.00
2024-05-19 09:40:52.091386,2,0,-4,0,0,0,88,90,87,70,50,132.27,339,94.00,27.00,-932.00
2024-05-19 09:40:52.095495,1,-1,-4,0,0,0,88,90,87,70,50,132.25,339,135.00,-56.00,-957.00
2024-05-19 09:40:52.146451,2,0,-4,0,0,0,88,90,87,70,50,132.25,339,33.00,47.00,-1017.00
2024-05-19 09:40:52.295988,3,0,-4,0,0,0,88,90,87,70,50,132.18,339,97.00,13.00,-967.00
2024-05-19 09:40:52.351174,3,0,-4,0,0,0,88,90,87,70,50,132.25,339,-28.00,98.00,-1054.00
2024-05-19 09:40:52.452367,3,-1,-4,0,0,0,87,90,87,70,50,132.30,339,114.00,-4.00,-1033.00
2024-05-19 09:40:52.603249,2,-2,-4,0,0,0,87,90,87,70,50,132.23,340,106.00,-41.00,-1057.00
2024-05-19 09:40:52.656679,4,0,-4,0,0,0,87,90,87,70,50,132.18,340,92.00,3.00,-1039.00
2024-05-19 09:40:52.808059,4,0,-4,0,0,0,87,90,87,70,50,132.26,340,61.00,15.00,-1034.00
2024-05-19 09:40:52.860376,3,0,-4,0,0,0,87,90,87,70,50,132.20,340,44.00,18.00,-897.00
2024-05-19 09:40:53.012881,3,0,-4,0,0,0,87,90,87,70,50,132.26,340,93.00,12.00,-855.00
2024-05-19 09:40:53.064607,3,0,-4,0,0,0,87,90,87,70,50,132.15,340,84.00,8.00,-1134.00
2024-05-19 09:40:53.217674,2,-2,-4,0,0,0,87,90,87,70,50,132.34,340,34.00,54.00,-919.00
2024-05-19 09:40:53.268228,2,-1,-5,0,0,0,87,90,88,70,50,132.30,340,4.00,69.00,-1070.00
2024-05-19 09:40:53.422761,3,-1,-5,0,0,0,87,90,88,70,50,132.20,340,86.00,16.00,-969.00
2024-05-19 09:40:53.472456,2,0,-5,0,0,0,88,89,89,70,50,132.20,340,-26.00,84.00,-1052.00
2024-05-19 09:40:53.627249,1,-1,-5,0,1,0,88,89,88,70,50,132.20,341,18.00,41.00,-991.00
2024-05-19 09:40:53.676934,0,-2,-5,0,0,0,88,89,88,70,50,132.22,341,75.00,82.00,-811.00
2024-05-19 09:40:53.832205,1,-3,-5,0,0,0,88,89,88,70,50,132.25,341,3.00,16.00,-1042.00
2024-05-19 09:40:53.880324,0,-3,-5,0,0,0,88,89,88,70,50,132.34,341,-91.00,26.00,-1021.00
2024-05-19 09:40:54.036839,0,-2,-5,-1,0,0,88,89,87,70,50,132.29,341,40.00,8.00,-1032.00
2024-05-19 09:40:54.084244,-1,-2,-5,-1,0,0,88,89,87,70,50,132.34,341,-31.00,-30.00,-1135.00
2024-05-19 09:40:54.241837,-1,-2,-5,-1,0,0,88,89,87,70,50,132.31,341,2.00,46.00,-1020.00
2024-05-19 09:40:54.288073,-1,-1,-5,-1,0,0,88,89,86,70,50,132.30,341,-61.00,113.00,-1034.00
2024-05-19 09:40:54.446436,-1,-1,-5,-1,0,0,88,89,86,70,50,132.25,341,43.00,1.00,-934.00
2024-05-19 09:40:54.492253,-2,-2,-5,-1,0,0,87,90,85,70,50,132.28,341,-80.00,55.00,-971.00
2024-05-19 09:40:54.654789,-2,-1,-4,-1,0,0,87,90,84,70,50,132.25,342,-64.00,6.00,-1083.00
2024-05-19 09:40:54.696203,-2,0,-4,0,0,0,87,90,82,70,50,132.21,342,-139.00,65.00,-1028.00
2024-05-19 09:40:54.856317,-2,1,-4,-1,0,0,87,90,81,70,50,132.15,342,-30.00,-3.00,-798.00
2024-05-19 09:40:54.900911,-4,1,-4,0,0,0,87,90,79,70,50,132.28,342,-53.00,14.00,-1007.00
2024-05-19 09:40:55.066850,-3,1,-3,0,0,0,87,90,78,70,50,132.03,342,-41.00,-2.00,-1001.00
2024-05-19 09:40:55.104198,-3,1,-3,0,0,0,87,90,77,60,50,132.08,342,-77.00,13.00,-1103.00
2024-05-19 09:40:55.265692,-3,0,-4,0,0,0,87,90,75,60,50,132.14,342,-19.00,-12.00,-1067.00
2024-05-19 09:40:55.308821,-3,0,-4,0,0,0,87,90,74,60,50,132.13,342,40.00,-8.00,-1053.00
2024-05-19 09:40:55.470472,-3,0,-4,0,0,0,87,90,73,60,50,132.22,342,59.00,-70.00,-954.00
2024-05-19 09:40:55.512209,-3,0,-4,0,0,0,87,89,72,60,50,132.17,342,29.00,-35.00,-1035.00
2024-05-19 09:40:55.676652,-2,1,-4,0,0,0,87,89,72,60,50,132.10,343,-51.00,1.00,-1117.00
2024-05-19 09:40:55.716159,-2,1,-4,0,0,0,87,89,71,60,50,132.17,343,-36.00,-23.00,-885.00
2024-05-19 09:40:55.767154,-1,2,-4,0,0,0,87,89,72,60,50,132.07,343,-55.00,-21.00,-976.00
2024-05-19 09:40:55.882518,-2,2,-4,0,0,0,87,89,73,60,50,132.13,343,-1.00,-17.00,-1151.00
2024-05-19 09:40:55.972077,-2,2,-4,0,0,0,87,89,73,60,50,132.07,343,-38.00,-6.00,-986.00
2024-05-19 09:40:56.087827,-2,1,-4,0,0,-1,87,89,74,60,50,132.11,343,-30.00,-22.00,-939.00
2024-05-19 09:40:56.177231,-1,1,-4,0,0,0,87,89,74,60,50,132.21,343,-54.00,16.00,-958.00
2024-05-19 09:40:56.289806,-1,1,-4,0,0,0,87,89,74,60,50,132.14,343,11.00,-3.00,-1018.00
2024-05-19 09:40:56.382097,-1,2,-4,0,0,0,87,89,74,60,50,132.10,343,0.00,6.00,-977.00
2024-05-19 09:40:56.482740,-1,1,-4,0,0,0,87,89,74,60,50,132.14,343,-62.00,28.00,-965.00
2024-05-19 09:40:56.584410,-1,1,-4,0,0,0,87,89,74,60,50,132.05,344,-22.00,29.00,-1020.00
2024-05-19 09:40:56.687107,-1,0,-4,0,1,0,87,89,73,60,50,132.16,344,-24.00,38.00,-988.00
2024-05-19 09:40:56.788715,-1,0,-4,0,1,0,87,89,73,60,50,132.03,344,18.00,-20.00,-998.00
2024-05-19 09:40:56.904364,-1,0,-4,0,0,0,87,89,74,60,50,132.11,344,-36.00,63.00,-1070.00
2024-05-19 09:40:56.992164,0,0,-4,1,0,0,87,89,74,60,50,132.16,344,-21.00,24.00,-1096.00
2024-05-19 09:40:57.094493,0,0,-4,1,0,0,87,89,74,60,50,132.15,344,11.00,-5.00,-1109.00
2024-05-19 09:40:57.214656,1,1,-4,1,0,0,87,89,75,60,50,132.30,344,-27.00,35.00,-901.00
2024-05-19 09:40:57.298195,0,1,-4,0,0,0,87,89,76,60,50,132.04,344,61.00,-55.00,-1014.00
2024-05-19 09:40:57.417946,0,0,-4,0,0,0,87,89,78,60,50,131.97,344,-49.00,36.00,-1012.00
2024-05-19 09:40:57.502235,0,0,-4,0,0,0,87,89,79,60,50,132.05,344,-11.00,9.00,-989.00
2024-05-19 09:40:57.604078,1,1,-5,0,0,0,87,89,80,60,50,132.11,345,83.00,-23.00,-1037.00
2024-05-19 09:40:57.723299,1,1,-5,0,0,0,87,89,81,60,50,132.03,345,-32.00,43.00,-935.00
2024-05-19 09:40:57.808646,0,0,-5,0,1,0,87,89,82,60,50,132.16,345,8.00,26.00,-1158.00
2024-05-19 09:40:57.931389,1,0,-5,1,1,0,87,89,82,60,50,132.21,345,33.00,46.00,-872.00
2024-05-19 09:40:58.012089,2,-1,-4,1,1,0,87,89,83,70,50,132.08,345,13.00,27.00,-923.00
2024-05-19 09:40:58.128388,2,-1,-4,0,0,0,87,89,84,70,50,132.06,345,58.00,-1.00,-903.00
2024-05-19 09:40:58.216030,2,0,-4,0,0,0,87,89,83,70,50,132.04,345,69.00,-31.00,-891.00
2024-05-19 09:40:58.337971,1,0,-4,0,0,0,87,89,83,70,50,132.05,345,-28.00,66.00,-917.00
2024-05-19 09:40:58.419989,1,0,-5,0,0,0,87,89,83,70,50,132.14,345,27.00,32.00,-997.00
2024-05-19 09:40:58.522146,2,-1,-5,0,1,-1,86,89,84,70,50,132.19,346,-27.00,54.00,-1232.00
2024-05-19 09:40:58.644786,3,-2,-5,0,1,-2,86,89,87,70,50,132.16,346,38.00,27.00,-1161.00
2024-05-19 09:40:58.725978,2,-2,-4,0,0,-3,86,89,90,70,50,132.24,346,4.00,27.00,-1145.00
2024-05-19 09:40:58.849630,2,-1,-4,0,0,-4,86,89,95,80,50,132.21,346,75.00,29.00,-1030.00
2024-05-19 09:40:58.929944,2,0,-4,0,0,-5,86,89,99,80,50,132.26,346,92.00,43.00,-970.00
2024-05-19 09:40:59.054296,2,0,-4,0,0,-5,86,89,105,90,50,132.33,346,68.00,17.00,-995.00
2024-05-19 09:40:59.133960,2,0,-4,0,0,-5,86,89,110,90,50,132.37,346,76.00,16.00,-875.00
2024-05-19 09:40:59.262593,2,0,-4,0,0,-5,86,89,116,100,50,132.50,346,3.00,37.00,-1084.00
2024-05-19 09:40:59.338059,2,-1,-4,0,0,-5,86,89,123,110,50,132.52,346,37.00,6.00,-941.00
2024-05-19 09:40:59.467270,2,-1,-4,0,0,-5,86,89,129,110,50,132.61,346,148.00,-16.00,-1063.00
2024-05-19 09:40:59.542298,1,0,-4,0,0,-5,87,88,135,120,50,132.71,347,71.00,-2.00,-810.00
2024-05-19 09:40:59.672172,1,0,-4,0,0,-5,87,88,140,120,50,132.68,347,31.00,4.00,-1011.00
2024-05-19 09:40:59.694888,1,0,-4,0,0,-5,87,88,146,130,50,132.77,347,53.00,43.00,-962.00
2024-05-19 09:40:59.874430,1,0,-4,0,0,-5,87,88,151,130,50,132.71,347,-21.00,45.00,-961.00
2024-05-19 09:40:59.899338,1,0,-4,0,0,-4,87,88,157,140,50,132.82,347,14.00,5.00,-983.00
2024-05-19 09:41:00.078365,1,1,-4,0,0,-4,87,88,162,140,50,132.88,347,5.00,29.00,-907.00
2024-05-19 09:41:00.102893,2,1,-4,0,0,-4,87,88,166,150,50,132.85,347,72.00,9.00,-1021.00
2024-05-19 09:41:00.286522,2,1,-4,0,0,-3,87,88,171,150,50,132.82,347,8.00,61.00,-1015.00
2024-05-19 09:41:00.307002,3,1,-4,0,0,-3,87,88,175,160,50,132.94,347,155.00,-31.00,-907.00
2024-05-19 09:41:00.489211,3,1,-4,0,0,-2,87,88,178,160,50,132.93,347,62.00,-3.00,-797.00
2024-05-19 09:41:00.511304,3,1,-4,0,0,-2,86,89,181,160,50,132.95,348,99.00,-42.00,-881.00
2024-05-19 09:41:00.696167,3,1,-4,1,0,-1,86,89,184,160,50,132.89,348,194.00,-45.00,-849.00
2024-05-19 09:41:00.714945,4,2,-4,1,0,-1,86,89,186,170,50,133.02,348,45.00,8.00,-907.00
2024-05-19 09:41:00.901056,4,2,-4,0,0,0,86,89,187,170,50,133.07,348,4.00,55.00,-779.00
2024-05-19 09:41:00.919659,5,1,-4,0,0,0,86,89,186,170,50,133.08,348,23.00,-12.00,-945.00
2024-05-19 09:41:01.106019,4,1,-4,0,0,0,86,89,186,170,50,133.07,348,125.00,-15.00,-956.00
2024-05-19 09:41:01.123910,3,1,-4,0,0,0,86,89,188,170,50,133.04,348,148.00,-39.00,-1019.00
2024-05-19 09:41:01.310689,3,1,-4,0,0,0,86,89,186,170,50,133.10,348,93.00,-3.00,-1022.00
2024-05-19 09:41:01.327858,3,1,-4,0,0,0,86,89,187,170,50,133.04,348,146.00,-61.00,-845.00
2024-05-19 09:41:01.429912,3,1,-4,0,0,0,86,89,186,170,50,133.05,348,2.00,19.00,-1050.00
2024-05-19 09:41:01.617759,3,1,-4,0,0,0,86,88,187,170,50,132.99,349,119.00,-35.00,-901.00
2024-05-19 09:41:01.633740,4,1,-4,0,0,0,86,88,189,170,50,133.08,349,41.00,9.00,-1014.00
2024-05-19 09:41:01.819379,4,0,-4,0,0,0,86,88,189,170,50,132.96,349,113.00,-68.00,-945.00
2024-05-19 09:41:01.837833,4,0,-4,0,1,0,86,88,189,170,50,133.07,349,37.00,51.00,-886.00
2024-05-19 09:41:01.939981,3,0,-4,0,1,0,86,88,190,170,50,132.98,349,163.00,-9.00,-1031.00
2024-05-19 09:41:02.129799,3,0,-4,0,0,0,86,88,189,170,50,133.00,349,41.00,-4.00,-932.00
2024-05-19 09:41:02.143768,2,0,-4,0,0,0,86,88,190,170,50,133.04,349,87.00,0.00,-1076.00
2024-05-19 09:41:02.340906,3,0,-4,0,0,0,86,88,189,170,50,132.99,349,92.00,-24.00,-1104.00
2024-05-19 09:41:02.347750,3,0,-4,0,0,0,86,88,188,170,50,132.94,349,-13.00,18.00,-978.00
2024-05-19 09:41:02.514715,3,0,-4,0,0,0,86,88,186,170,50,132.96,349,160.00,-20.00,-1068.00
2024-05-19 09:41:02.551818,4,0,-4,0,0,0,86,88,184,170,50,133.02,350,102.00,-40.00,-944.00
2024-05-19 09:41:02.740712,4,0,-4,0,0,0,86,88,183,170,50,132.94,350,58.00,-5.00,-1168.00
2024-05-19 09:41:02.755794,4,0,-4,0,0,1,86,88,181,170,50,132.87,350,103.00,-56.00,-907.00
2024-05-19 09:41:02.961100,3,1,-4,0,0,1,86,88,180,170,50,132.94,350,33.00,32.00,-910.00
2024-05-19 09:41:02.961278,3,1,-4,0,0,2,86,88,176,160,50,132.94,350,50.00,14.00,-973.00
2024-05-19 09:41:03.062210,3,1,-4,0,0,2,86,88,174,160,50,132.87,350,86.00,-5.00,-1127.00
2024-05-19 09:41:03.252723,2,1,-4,0,0,2,86,88,171,160,50,132.90,350,69.00,-24.00,-1051.00
2024-05-19 09:41:03.266261,2,0,-4,0,0,3,86,88,167,150,50,132.80,350,79.00,-38.00,-935.00
2024-05-19 09:41:03.316738,3,1,-4,0,0,2,86,88,165,150,50,132.82,350,59.00,6.00,-1127.00
2024-05-19 09:41:03.459443,4,1,-4,0,0,3,86,88,162,150,50,132.81,350,127.00,-43.00,-810.00
2024-05-19 09:41:03.520725,4,1,-4,0,0,3,86,88,158,150,50,132.69,351,92.00,-37.00,-1058.00
2024-05-19 09:41:03.662286,5,1,-4,0,0,2,86,88,156,140,50,132.64,351,67.00,-13.00,-1140.00
2024-05-19 09:41:03.724803,4,2,-4,0,0,2,86,88,154,140,50,132.59,351,92.00,-36.00,-968.00
2024-05-19 09:41:03.867104,3,2,-4,0,0,2,86,88,153,140,50,132.64,351,34.00,-3.00,-1084.00
2024-05-19 09:41:03.928969,3,1,-4,0,0,1,86,88,150,130,50,132.65,351,53.00,26.00,-1175.00
2024-05-19 09:41:04.075008,2,1,-4,0,0,1,86,88,148,130,50,132.65,351,54.00,-13.00,-1080.00
2024-05-19 09:41:04.132678,3,1,-4,0,0,1,86,88,146,130,50,132.66,351,28.00,-39.00,-858.00
2024-05-19 09:41:04.277286,2,1,-4,0,0,1,86,88,145,130,50,132.57,351,102.00,-42.00,-1009.00
2024-05-19 09:41:04.336655,2,1,-4,0,0,1,86,88,144,130,50,132.64,351,-13.00,-10.00,-918.00
2024-05-19 09:41:04.481477,2,1,-4,0,0,1,86,88,142,130,50,132.54,351,26.00,-16.00,-997.00
2024-05-19 09:41:04.540642,1,2,-4,0,0,0,87,89,142,130,50,132.64,352,75.00,-14.00,-864.00
2024-05-19 09:41:04.688326,0,2,-4,0,0,0,87,89,140,130,50,132.64,352,84.00,-25.00,-1088.00
2024-05-19 09:41:04.744858,0,2,-4,0,0,0,87,89,139,130,50,132.75,352,72.00,-54.00,-951.00
2024-05-19 09:41:04.891175,1,1,-4,0,0,0,87,89,138,120,50,132.62,352,84.00,-42.00,-1103.00
2024-05-19 09:41:04.948836,1,0,-4,0,0,0,87,89,137,120,50,132.64,352,63.00,-24.00,-1052.00
2024-05-19 09:41:05.099645,1,0,-4,0,0,0,87,89,136,120,50,132.67,352,-65.00,39.00,-1085.00
2024-05-19 09:41:05.152750,1,1,-4,0,0,0,87,89,135,120,50,132.62,352,94.00,4.00,-909.00
2024-05-19 09:41:05.301164,1,0,-4,0,0,0,87,89,135,120,50,132.57,352,58.00,-48.00,-1074.00
2024-05-19 09:41:05.357276,0,1,-4,0,0,0,87,89,135,120,50,132.55,352,6.00,-21.00,-1154.00
2024-05-19 09:41:05.506739,0,2,-4,0,0,0,87,89,134,120,50,132.67,352,5.00,-31.00,-991.00
2024-05-19 09:41:05.560591,0,3,-4,0,0,0,86,89,134,120,50,132.60,353,9.00,-55.00,-944.00
2024-05-19 09:41:05.713737,1,3,-4,0,0,0,86,89,134,120,50,132.62,353,111.00,-86.00,-893.00
2024-05-19 09:41:05.764637,1,4,-4,0,0,0,86,89,134,120,50,132.56,353,-17.00,-39.00,-984.00
2024-05-19 09:41:05.918628,0,3,-4,0,0,0,86,89,134,120,50,132.60,353,-27.00,-42.00,-1203.00
2024-05-19 09:41:05.968692,0,3,-4,0,0,0,86,89,134,120,50,132.65,353,-30.00,-52.00,-920.00
2024-05-19 09:41:06.120026,-1,3,-4,0,0,0,86,89,134,120,50,132.65,353,21.00,-43.00,-955.00
2024-05-19 09:41:06.172687,-1,3,-4,0,0,0,86,89,133,120,50,132.60,353,-46.00,-28.00,-900.00
2024-05-19 09:41:06.326275,0,4,-4,0,0,0,86,89,134,120,50,132.85,353,30.00,-89.00,-1005.00
2024-05-19 09:41:06.376597,0,4,-4,0,0,0,86,89,133,120,50,132.74,353,-37.00,-59.00,-997.00
2024-05-19 09:41:06.533059,0,5,-4,0,0,0,86,89,133,120,50,132.74,353,-82.00,-28.00,-899.00
2024-05-19 09:41:06.580531,0,4,-3,0,0,0,86,89,132,120,50,132.93,354,79.00,-176.00,-925.00
2024-05-19 09:41:06.737791,-1,5,-3,0,0,0,86,89,132,120,50,132.57,354,-31.00,8.00,-1059.00
2024-05-19 09:41:06.784606,-2,5,-4,0,1,0,86,89,133,120,50,132.70,354,-43.00,-23.00,-945.00
2024-05-19 09:41:06.938973,-2,3,-5,0,1,0,86,89,133,120,50,132.86,354,9.00,-50.00,-1118.00
2024-05-19 09:41:06.941066,-2,0,-5,0,1,0,86,89,134,120,50,132.86,354,45.00,-79.00,-961.00
2024-05-19 09:41:07.039678,-5,-1,-5,0,0,0,86,89,136,120,50,132.86,354,-22.00,-19.00,-946.00
2024-05-19 09:41:07.141664,-8,0,-5,1,0,0,86,89,137,120,50,132.74,354,-17.00,2.00,-1110.00
2024-05-19 09:41:07.246307,-8,0,-5,2,0,0,86,89,139,120,50,132.79,354,42.00,-59.00,-932.00
2024-05-19 09:41:07.345511,-8,1,-5,4,-1,-1,86,89,139,120,50,132.83,354,13.00,-52.00,-1060.00
2024-05-19 09:41:07.454631,-7,2,-4,5,-1,0,86,89,140,120,50,132.69,354,-1.00,-22.00,-1194.00
2024-05-19 09:41:07.656370,-6,2,-3,6,-1,0,87,89,140,120,50,132.63,355,-74.00,27.00,-1033.00
2024-05-19 09:41:07.656418,-6,3,-3,6,0,0,87,89,141,120,50,132.74,355,-50.00,-18.00,-1016.00
2024-05-19 09:41:07.753561,-5,3,-4,6,0,0,87,89,141,130,50,132.63,355,-25.00,-31.00,-970.00
2024-05-19 09:41:07.860695,-4,1,-4,6,0,0,87,89,142,130,50,132.49,355,-87.00,19.00,-982.00
2024-05-19 09:41:07.957484,-3,0,-4,5,0,0,87,89,143,130,50,132.67,355,-180.00,80.00,-953.00
2024-05-19 09:41:08.065432,-2,0,-4,5,0,0,87,89,143,130,50,132.87,355,-44.00,-13.00,-954.00
2024-05-19 09:41:08.161603,0,-1,-4,5,0,0,87,89,143,130,50,132.83,355,-11.00,-26.00,-1113.00
2024-05-19 09:41:08.273549,2,0,-5,4,0,0,87,89,143,130,50,132.82,355,29.00,-70.00,-926.00
2024-05-19 09:41:08.365477,1,0,-5,3,0,0,87,89,143,130,50,132.89,355,-55.00,7.00,-1083.00
2024-05-19 09:41:08.475055,0,1,-4,2,0,0,87,89,142,130,50,132.82,355,40.00,-75.00,-944.00
2024-05-19 09:41:08.569425,0,1,-4,2,0,0,86,88,142,130,50,132.84,356,-1.00,-13.00,-1091.00
2024-05-19 09:41:08.679865,-1,1,-4,2,0,0,86,88,141,130,50,132.75,356,6.00,-51.00,-903.00
2024-05-19 09:41:08.773486,-2,0,-4,2,0,0,86,88,140,130,50,132.86,356,-27.00,14.00,-1040.00
2024-05-19 09:41:08.884599,0,-1,-4,2,0,0,86,88,138,130,50,132.95,356,34.00,-5.00,-1017.00
2024-05-19 09:41:08.977451,0,0,-4,2,0,1,86,88,137,130,50,132.87,356,22.00,-3.00,-993.00
2024-05-19 09:41:09.097117,0,0,-4,2,0,1,86,88,136,120,50,132.83,356,-64.00,37.00,-1051.00
2024-05-19 09:41:09.181570,0,0,-4,2,0,0,86,88,136,120,50,132.90,356,-13.00,-6.00,-1067.00
2024-05-19 09:41:09.294349,0,1,-4,2,0,0,86,88,135,120,50,132.74,356,-3.00,-22.00,-1007.00
2024-05-19 09:41:09.386225,0,2,-4,2,0,0,86,88,136,120,50,132.87,356,62.00,-59.00,-1013.00
2024-05-19 09:41:09.499051,0,1,-4,2,0,0,86,88,135,120,50,132.86,356,26.00,-68.00,-988.00
2024-05-19 09:41:09.589358,0,1,-5,3,0,0,87,88,135,120,50,132.79,357,89.00,-37.00,-922.00
2024-05-19 09:41:09.703958,1,2,-5,2,0,0,87,88,135,120,50,132.80,357,26.00,-8.00,-933.00
2024-05-19 09:41:09.795568,2,2,-5,2,0,0,87,88,136,120,50,132.86,357,-6.00,19.00,-942.00
2024-05-19 09:41:09.895897,4,2,-4,2,0,0,87,88,135,120,50,132.75,357,45.00,-37.00,-1038.00
2024-05-19 09:41:09.997356,5,0,-5,2,0,0,87,88,135,120,50,132.86,357,11.00,10.00,-926.00
2024-05-19 09:41:10.113707,4,0,-5,1,0,0,87,88,134,120,50,132.81,357,57.00,4.00,-948.00
2024-05-19 09:41:10.201637,3,0,-5,0,0,0,87,88,133,120,50,132.82,357,114.00,-41.00,-938.00
2024-05-19 09:41:10.320583,2,0,-5,0,0,0,87,88,133,120,50,132.84,357,82.00,0.00,-856.00
2024-05-19 09:41:10.405702,2,0,-5,0,0,0,87,88,133,120,50,132.92,357,40.00,-1.00,-1021.00
2024-05-19 09:41:10.523144,2,0,-5,0,0,0,87,88,132,120,50,132.85,357,-26.00,31.00,-1110.00
2024-05-19 09:41:10.609430,2,0,-5,0,0,0,86,88,133,120,50,132.84,358,22.00,16.00,-1049.00
2024-05-19 09:41:10.728104,3,0,-5,0,0,0,86,88,133,120,50,132.91,358,82.00,5.00,-989.00
2024-05-19 09:41:10.813601,1,0,-5,0,0,0,86,88,132,120,50,132.93,358,80.00,-12.00,-906.00
2024-05-19 09:41:10.864779,2,0,-5,0,0,0,86,88,131,120,50,132.80,358,28.00,23.00,-927.00
2024-05-19 09:41:10.967624,3,0,-4,0,0,0,86,88,131,120,50,132.84,358,28.00,-26.00,-1028.00
2024-05-19 09:41:11.138223,3,0,-4,0,0,0,86,88,131,120,50,132.79,358,-2.00,-12.00,-1035.00
2024-05-19 09:41:11.171734,2,1,-4,0,0,0,86,88,130,120,50,132.88,358,51.00,-17.00,-1060.00
2024-05-19 09:41:11.342874,1,0,-5,0,0,0,86,88,130,120,50,132.80,358,40.00,11.00,-1030.00
2024-05-19 09:41:11.378186,1,1,-5,0,0,0,86,88,130,120,50,132.88,358,84.00,39.00,-984.00
2024-05-19 09:41:11.477449,1,1,-4,0,0,0,86,88,130,120,50,132.84,358,-12.00,70.00,-988.00
2024-05-19 09:41:11.649382,2,0,-4,0,0,0,86,88,130,120,50,132.87,359,10.00,56.00,-797.00
2024-05-19 09:41:11.681371,3,0,-4,0,1,0,86,88,130,120,50,132.89,359,-2.00,37.00,-1103.00
2024-05-19 09:41:11.854336,3,-2,-4,0,0,0,86,88,132,120,50,132.82,359,114.00,-30.00,-942.00
2024-05-19 09:41:11.885226,3,-1,-4,0,0,0,86,88,132,120,50,132.81,359,57.00,-17.00,-918.00
2024-05-19 09:41:11.987387,2,-1,-4,0,0,0,86,88,134,120,50,132.73,359,72.00,0.00,-1063.00
2024-05-19 09:41:12.116862,2,0,-4,0,0,0,86,88,136,120,50,132.78,359,49.00,33.00,-996.00
2024-05-19 09:41:12.191337,3,0,-4,0,0,0,86,88,137,120,50,132.89,359,97.00,-14.00,-1156.00
2024-05-19 09:41:12.366230,3,0,-4,0,0,-1,86,88,139,120,50,132.85,359,41.00,23.00,-886.00
2024-05-19 09:41:12.395218,7,0,-4,0,0,0,86,88,141,120,50,132.76,359,8.00,6.00,-1166.00
2024-05-19 09:41:12.570983,9,-1,-4,-1,0,0,86,88,143,120,50,132.84,359,4.00,-21.00,-976.00
2024-05-19 09:41:12.599152,9,-1,-4,-2,0,0,86,88,144,120,50,132.77,360,24.00,10.00,-897.00
2024-05-19 09:41:12.779286,8,0,-4,-4,0,0,86,88,144,120,50,132.74,360,76.00,-11.00,-1013.00
2024-05-19 09:41:12.803209,8,-1,-4,-5,0,0,86,88,142,130,49,132.91,360,27.00,41.00,-965.00
2024-05-19 09:41:12.984021,8,0,-4,-5,0,0,86,88,143,130,49,132.77,360,94.00,9.00,-1115.00
2024-05-19 09:41:13.007208,8,0,-4,-6,0,0,86,88,143,130,49,132.76,360,30.00,28.00,-961.00
2024-05-19 09:41:13.109145,8,0,-4,-6,0,0,86,88,142,130,49,132.80,360,93.00,13.00,-834.00
2024-05-19 09:41:13.211210,6,0,-4,-7,0,0,86,88,141,130,49,132.64,360,29.00,72.00,-1028.00
2024-05-19 09:41:13.391382,3,0,-4,-7,0,0,86,88,141,120,49,132.77,360,101.00,37.00,-1052.00
2024-05-19 09:41:13.415158,0,0,-4,-7,0,0,86,88,140,120,49,132.75,360,123.00,33.00,-1005.00
2024-05-19 09:41:13.517182,-1,0,-4,-6,0,0,86,88,140,120,49,132.82,360,-23.00,37.00,-912.00
2024-05-19 09:41:13.698226,-1,0,-4,-4,0,0,86,88,139,120,49,132.71,361,35.00,61.00,-1020.00
2024-05-19 09:41:13.721720,0,0,-4,-3,0,0,86,88,139,120,49,132.81,361,6.00,49.00,-958.00
2024-05-19 09:41:13.902234,1,0,-4,-3,0,0,86,88,138,120,49,132.63,361,17.00,45.00,-1026.00
2024-05-19 09:41:13.925272,1,0,-5,-3,0,0,86,88,137,120,49,132.73,361,47.00,-21.00,-977.00
2024-05-19 09:41:13.977113,2,0,-5,-3,0,0,86,88,136,120,49,132.68,361,26.00,10.00,-1118.00
2024-05-19 09:41:14.106977,1,0,-4,-3,0,0,86,88,135,120,49,132.64,361,28.00,22.00,-1068.00
2024-05-19 09:41:14.181331,1,0,-4,-2,0,0,86,88,134,120,49,132.73,361,72.00,-39.00,-935.00
2024-05-19 09:41:14.313117,2,0,-4,-2,0,0,86,88,134,120,49,132.70,361,56.00,34.00,-923.00
2024-05-19 09:41:14.385114,2,0,-4,-2,0,0,86,88,134,120,49,132.66,361,-3.00,-5.00,-1207.00
2024-05-19 09:41:14.520066,1,0,-4,-2,0,0,86,88,135,120,49,132.74,361,2.00,12.00,-1144.00
2024-05-19 09:41:14.722378,-2,0,-4,-2,0,0,86,89,136,120,49,132.69,362,-8.00,10.00,-1053.00
2024-05-19 09:41:14.742104,-3,0,-4,-1,0,0,86,89,136,120,49,132.73,362,10.00,13.00,-1033.00
2024-05-19 09:41:14.793158,-1,2,-4,0,0,0,86,89,136,120,49,132.69,362,59.00,-14.00,-983.00
2024-05-19 09:41:14.929731,0,4,-4,0,0,0,86,89,138,120,49,132.78,362,43.00,16.00,-1267.00
2024-05-19 09:41:14.997034,1,3,-4,0,1,0,86,89,138,120,49,132.72,362,-46.00,48.00,-1036.00
2024-05-19 09:41:15.099064,1,0,-4,0,2,0,86,89,139,120,49,132.73,362,12.00,-8.00,-890.00
2024-05-19 09:41:15.236937,0,-4,-5,0,1,0,86,89,139,120,49,132.86,362,67.00,-23.00,-1039.00
2024-05-19 09:41:15.304081,1,-2,-4,0,0,0,86,89,140,120,49,132.86,362,120.00,-20.00,-1100.00
2024-05-19 09:41:15.445535,1,-1,-4,0,0,0,86,89,140,120,49,132.79,362,60.00,-3.00,-991.00
2024-05-19 09:41:15.507258,2,0,-4,0,0,0,86,89,140,120,49,132.78,363,31.00,23.00,-1118.00
2024-05-19 09:41:15.643216,2,0,-4,0,0,0,86,88,140,120,49,132.78,363,74.00,18.00,-1037.00
2024-05-19 09:41:15.711617,2,0,-4,0,0,0,86,88,140,120,49,132.81,363,-16.00,-19.00,-1113.00
2024-05-19 09:41:15.850649,1,0,-4,0,0,0,86,88,140,120,48,132.78,363,-24.00,-1.00,-885.00
2024-05-19 09:41:15.915209,1,0,-4,0,0,0,86,88,139,120,48,132.81,363,0.00,15.00,-1113.00
2024-05-19 09:41:16.017119,1,0,-4,0,0,0,86,88,140,120,48,132.80,363,58.00,-1.00,-778.00
2024-05-19 09:41:16.158525,1,0,-4,0,0,0,86,88,139,120,48,132.84,363,8.00,8.00,-1160.00
2024-05-19 09:41:16.221164,1,0,-4,0,0,0,86,88,139,120,48,132.67,363,107.00,-48.00,-991.00
2024-05-19 09:41:16.359780,1,0,-4,0,0,0,86,88,139,120,48,132.66,363,18.00,-12.00,-1011.00
2024-05-19 09:41:16.425600,1,0,-4,0,0,0,86,88,137,120,48,132.79,363,-26.00,-38.00,-849.00
2024-05-19 09:41:16.565332,1,1,-4,0,0,0,86,88,136,120,48,132.70,364,33.00,-32.00,-984.00
2024-05-19 09:41:16.629603,1,2,-4,0,-1,0,86,88,136,120,48,132.67,364,-51.00,-30.00,-939.00
2024-05-19 09:41:16.733766,1,3,-4,0,0,0,86,88,135,120,48,132.77,364,-59.00,-31.00,-889.00
2024-05-19 09:41:16.833018,0,2,-4,0,0,0,86,88,134,120,48,132.70,364,18.00,5.00,-1055.00
2024-05-19 09:41:16.974752,0,1,-4,0,0,0,86,88,133,120,48,132.77,364,108.00,-50.00,-825.00
2024-05-19 09:41:17.037495,0,1,-4,0,0,0,86,88,133,120,48,132.71,364,30.00,-9.00,-907.00
2024-05-19 09:41:17.139163,0,0,-4,0,0,0,86,88,134,120,48,132.74,364,3.00,-7.00,-1078.00
2024-05-19 09:41:17.241387,0,0,-4,0,0,0,86,88,133,120,48,132.70,364,42.00,-21.00,-952.00
2024-05-19 09:41:17.383770,0,0,-4,0,0,0,86,88,134,120,48,132.73,364,53.00,-39.00,-928.00
2024-05-19 09:41:17.444976,0,-2,-4,0,0,0,86,88,134,120,48,132.76,364,68.00,-65.00,-986.00
2024-05-19 09:41:17.588550,0,-8,-4,0,-1,0,86,88,136,120,48,132.81,365,-44.00,-30.00,-1125.00
2024-05-19 09:41:17.648962,0,-6,-4,0,-2,0,86,88,136,120,48,132.76,365,-19.00,-38.00,-1001.00
2024-05-19 09:41:17.793323,-1,-2,-4,0,-3,0,86,88,137,120,48,132.69,365,-20.00,-14.00,-946.00
2024-05-19 09:41:17.852921,0,0,-4,0,-4,-1,86,88,138,120,48,132.74,365,-93.00,42.00,-1037.00
2024-05-19 09:41:17.998154,0,2,-4,0,-3,-1,86,88,139,120,48,132.78,365,5.00,13.00,-1043.00
2024-05-19 09:41:18.056867,0,1,-4,0,-2,-1,86,88,140,120,48,132.77,365,0.00,38.00,-1269.00
2024-05-19 09:41:18.107917,0,0,-4,0,-2,0,86,88,140,130,48,132.82,365,-36.00,62.00,-818.00
2024-05-19 09:41:18.305325,0,0,-4,0,-2,0,86,88,140,130,48,132.82,365,-31.00,13.00,-913.00
2024-05-19 09:41:18.311812,0,-1,-4,0,-2,0,86,88,140,130,48,132.83,365,-17.00,25.00,-1078.00
2024-05-19 09:41:18.413900,0,-1,-4,0,-2,0,86,88,140,130,48,132.89,365,-69.00,47.00,-1154.00
2024-05-19 09:41:18.612478,0,0,-4,0,-2,0,86,88,139,120,48,132.81,366,-24.00,9.00,-1060.00
2024-05-19 09:41:18.617917,0,0,-4,0,-2,0,86,88,138,120,48,132.80,366,50.00,37.00,-1214.00
2024-05-19 09:41:18.818014,0,0,-4,0,-2,0,86,88,137,120,48,132.84,366,-26.00,24.00,-897.00
2024-05-19 09:41:18.821869,0,0,-4,0,-2,0,86,88,137,120,47,132.84,366,-40.00,4.00,-1014.00
2024-05-19 09:41:18.926406,0,0,-4,0,-2,0,86,88,136,120,47,132.76,366,-42.00,66.00,-1070.00
2024-05-19 09:41:19.025909,0,1,-4,0,-2,0,86,88,136,120,47,132.77,366,14.00,22.00,-1163.00
2024-05-19 09:41:19.127914,0,1,-4,0,-1,0,86,88,135,120,47,132.78,366,-52.00,20.00,-913.00
2024-05-19 09:41:19.230081,-1,3,-4,0,-1,0,86,88,135,120,47,132.79,366,-77.00,29.00,-1058.00
2024-05-19 09:41:19.332586,-4,2,-4,0,0,0,86,88,135,120,47,132.74,366,29.00,-34.00,-1042.00
2024-05-19 09:41:19.435091,-4,2,-4,0,0,0,86,88,135,120,47,132.84,366,-38.00,-14.00,-882.00
2024-05-19 09:41:19.535757,-3,2,-4,1,0,0,86,88,135,120,47,132.86,367,-44.00,26.00,-1027.00
2024-05-19 09:41:19.739491,3,1,-4,1,0,0,87,88,135,120,47,132.80,367,6.00,-14.00,-1049.00
2024-05-19 09:41:19.741844,2,1,-4,0,0,0,87,88,136,120,47,132.77,367,-35.00,-44.00,-1011.00
2024-05-19 09:41:19.843887,0,1,-4,0,0,0,87,88,136,120,47,132.83,367,-79.00,28.00,-1019.00
2024-05-19 09:41:19.946920,0,0,-4,-1,0,0,87,88,136,120,47,132.71,367,-7.00,-42.00,-1003.00
2024-05-19 09:41:20.046122,-2,0,-4,-1,0,0,87,88,137,120,47,132.74,367,12.00,-19.00,-1039.00
2024-05-19 09:41:20.148492,-2,0,-4,0,0,0,87,88,136,120,47,132.68,367,-3.00,-50.00,-1018.00
2024-05-19 09:41:20.251518,-1,0,-4,0,0,0,87,88,138,120,47,132.70,367,-115.00,64.00,-979.00
2024-05-19 09:41:20.353060,-1,0,-4,0,0,0,87,88,139,120,47,132.72,367,-8.00,-10.00,-1002.00
2024-05-19 09:41:20.453793,-1,0,-4,0,0,0,87,88,139,120,47,132.68,367,-81.00,20.00,-959.00
2024-05-19 09:41:20.558475,-1,0,-4,0,0,0,87,88,140,120,47,132.66,368,-17.00,-38.00,-987.00
2024-05-19 09:41:20.657878,-1,0,-4,0,0,0,86,88,141,120,47,132.76,368,15.00,-43.00,-1004.00
2024-05-19 09:41:20.764598,-2,0,-4,0,0,-1,86,88,140,130,47,132.77,368,-42.00,17.00,-1052.00
2024-05-19 09:41:20.861835,-2,0,-4,0,0,0,86,88,140,130,47,132.78,368,-5.00,-18.00,-1045.00
2024-05-19 09:41:20.969648,-1,-1,-4,0,0,0,86,88,139,130,47,132.72,368,-120.00,41.00,-885.00
2024-05-19 09:41:21.065883,-2,-1,-4,0,0,0,86,88,137,130,47,132.76,368,3.00,5.00,-1061.00
2024-05-19 09:41:21.172765,-1,0,-5,0,0,0,86,88,137,120,47,132.67,368,46.00,-57.00,-978.00
2024-05-19 09:41:21.271599,-1,0,-5,0,0,1,86,88,135,120,47,132.62,368,-27.00,-25.00,-995.00
2024-05-19 09:41:21.377663,-2,0,-5,0,0,0,86,88,134,120,47,132.71,368,-31.00,22.00,-1083.00
2024-05-19 09:41:21.473867,-2,0,-5,0,0,0,86,88,133,120,47,132.70,368,-46.00,29.00,-1097.00
2024-05-19 09:41:21.582238,-3,0,-5,0,0,0,86,88,132,120,47,132.59,369,5.00,-5.00,-1051.00
2024-05-19 09:41:21.677901,-3,0,-5,0,0,0,86,88,131,120,47,132.64,369,-20.00,-17.00,-985.00
2024-05-19 09:41:21.779764,-2,0,-5,0,0,0,86,88,131,120,47,132.67,369,-4.00,13.00,-1071.00
2024-05-19 09:41:21.890594,-2,0,-5,0,0,0,86,88,131,120,47,132.67,369,-68.00,17.00,-1012.00
2024-05-19 09:41:21.932772,-1,3,-5,0,0,0,86,88,131,120,47,132.78,369,-25.00,37.00,-970.00
2024-05-19 09:41:22.034642,-1,8,-5,0,0,0,86,88,132,120,47,132.76,369,20.00,4.00,-1063.00
2024-05-19 09:41:22.196449,-2,8,-5,0,1,0,86,88,133,120,47,132.78,369,-5.00,-80.00,-1166.00
2024-05-19 09:41:22.238698,-2,7,-5,0,2,0,86,88,133,120,47,132.85,369,50.00,-66.00,-1015.00
2024-05-19 09:41:22.401298,0,5,-5,0,2,0,86,88,133,120,47,132.78,369,34.00,-47.00,-958.00
2024-05-19 09:41:22.442840,0,1,-5,0,2,0,86,88,134,120,47,132.74,369,9.00,-50.00,-937.00
2024-05-19 09:41:22.609547,0,1,-4,0,2,0,86,88,135,120,47,132.82,370,12.00,-42.00,-1033.00
2024-05-19 09:41:22.646760,0,1,-4,0,2,0,86,88,136,120,47,132.80,370,73.00,-53.00,-942.00
2024-05-19 09:41:22.813186,0,0,-4,0,2,0,86,88,137,120,46,132.74,370,-25.00,-28.00,-928.00
2024-05-19 09:41:22.850588,-1,1,-4,0,2,0,86,88,138,120,46,132.81,370,-49.00,-26.00,-1065.00
2024-05-19 09:41:23.015871,-3,1,-4,0,2,0,86,88,140,120,46,132.81,370,-101.00,24.00,-1000.00
2024-05-19 09:41:23.054671,-3,1,-4,0,2,0,86,88,141,120,46,132.86,370,44.00,-18.00,-1024.00
2024-05-19 09:41:23.220472,-4,1,-4,0,2,0,86,88,142,120,46,132.87,370,-1.00,-69.00,-1089.00
2024-05-19 09:41:23.258732,-3,1,-4,0,2,0,86,88,143,120,46,132.79,370,-1.00,-55.00,-989.00
2024-05-19 09:41:23.426389,-3,1,-4,0,2,0,86,88,145,120,46,132.80,370,-33.00,-5.00,-878.00
2024-05-19 09:41:23.462621,-2,1,-4,1,2,0,86,88,146,120,46,132.96,370,10.00,-49.00,-974.00
2024-05-19 09:41:23.630077,-1,1,-4,1,1,0,86,88,147,130,46,132.90,371,-63.00,-37.00,-1041.00
2024-05-19 09:41:23.666544,-1,2,-4,1,1,0,86,88,148,130,46,132.91,371,-15.00,-67.00,-1036.00
2024-05-19 09:41:23.835356,0,2,-4,1,1,0,86,88,148,130,46,132.88,371,-110.00,19.00,-1130.00
2024-05-19 09:41:23.871509,0,2,-4,1,1,0,86,88,149,130,46,132.88,371,-37.00,21.00,-1080.00
2024-05-19 09:41:23.972653,-1,2,-4,1,1,0,86,88,150,130,46,132.86,371,-24.00,-27.00,-946.00
2024-05-19 09:41:24.075360,0,1,-4,0,1,0,86,88,148,130,46,132.86,371,10.00,-86.00,-1058.00
2024-05-19 09:41:24.176714,1,1,-4,0,1,0,86,88,148,130,46,132.89,371,13.00,-40.00,-1066.00
2024-05-19 09:41:24.346810,0,-1,-4,0,1,0,86,88,147,130,46,132.88,371,-69.00,-18.00,-1137.00
2024-05-19 09:41:24.380816,0,-3,-4,0,1,0,86,88,146,130,46,132.92,371,-32.00,6.00,-1034.00
2024-05-19 09:41:24.551773,0,0,-4,0,0,0,86,88,145,130,46,132.85,371,-73.00,4.00,-934.00
2024-05-19 09:41:24.584584,0,0,-4,0,0,0,86,88,144,130,46,132.80,372,-125.00,28.00,-874.00
2024-05-19 09:41:24.756568,0,1,-4,0,0,0,86,88,144,130,46,132.81,372,35.00,-47.00,-955.00
2024-05-19 09:41:24.788563,0,1,-4,0,0,0,86,88,143,130,45,132.84,372,62.00,-42.00,-1112.00
2024-05-19 09:41:24.961307,0,1,-5,0,0,0,86,88,141,130,45,132.86,372,15.00,-50.00,-1107.00
2024-05-19 09:41:24.992679,0,1,-5,0,0,0,86,88,141,130,45,132.89,372,-7.00,-29.00,-960.00
2024-05-19 09:41:25.094599,0,1,-5,0,0,0,86,88,140,120,45,132.85,372,48.00,-53.00,-985.00
2024-05-19 09:41:25.271756,0,0,-5,0,0,0,86,88,139,120,45,132.74,372,35.00,-13.00,-1052.00
2024-05-19 09:41:25.298532,0,0,-5,0,0,0,86,88,139,120,45,132.79,372,19.00,4.00,-993.00
2024-05-19 09:41:25.473727,0,0,-4,0,0,0,86,88,138,120,45,132.71,372,76.00,-37.00,-1056.00
2024-05-19 09:41:25.473891,0,0,-4,0,0,0,86,88,138,120,45,132.80,372,-51.00,-24.00,-1179.00
2024-05-19 09:41:25.553566,0,0,-4,0,0,0,86,88,138,120,45,132.74,373,-34.00,9.00,-971.00
2024-05-19 09:41:25.706673,0,0,-4,0,0,0,86,89,138,120,45,132.76,373,11.00,-23.00,-968.00
2024-05-19 09:41:25.757524,0,0,-4,0,0,0,86,89,138,120,45,132.75,373,-25.00,-20.00,-1003.00
2024-05-19 09:41:25.883527,0,1,-4,0,0,0,86,89,138,120,45,132.77,373,-10.00,42.00,-940.00
2024-05-19 09:41:25.961594,0,1,-4,0,0,0,86,89,139,120,45,132.77,373,-8.00,-40.00,-999.00
2024-05-19 09:41:26.088718,0,2,-4,0,0,0,86,89,140,120,45,132.78,373,16.00,-23.00,-967.00
2024-05-19 09:41:26.165547,0,2,-4,0,0,0,86,89,140,120,45,132.85,373,36.00,-40.00,-1026.00
2024-05-19 09:41:26.292564,0,2,-4,0,0,0,86,89,141,120,45,132.71,373,54.00,-32.00,-1088.00
2024-05-19 09:41:26.369406,0,2,-4,0,0,0,86,89,143,120,45,132.84,373,-10.00,5.00,-975.00
2024-05-19 09:41:26.471525,0,2,-4,0,0,0,86,89,143,120,45,132.88,373,-18.00,-24.00,-771.00
2024-05-19 09:41:26.599586,0,1,-3,0,0,0,86,89,145,130,45,132.84,374,89.00,-63.00,-707.00
2024-05-19 09:41:26.675531,1,2,1,0,0,0,86,88,145,130,45,132.91,374,15.00,32.00,-989.00
2024-05-19 09:41:26.804398,1,2,7,0,0,0,86,88,145,130,45,132.77,374,20.00,-36.00,-945.00
2024-05-19 09:41:26.879429,1,2,12,0,0,0,86,88,145,130,45,132.93,374,84.00,-22.00,-924.00
2024-05-19 09:41:27.009297,1,2,18,0,0,0,86,88,145,130,45,132.88,374,-15.00,1.00,-982.00
2024-05-19 09:41:27.083760,1,2,24,0,0,0,86,88,144,130,45,132.85,374,31.00,-1.00,-1036.00
2024-05-19 09:41:27.213979,0,3,30,0,0,0,86,88,144,130,45,132.78,374,73.00,-93.00,-933.00
2024-05-19 09:41:27.287386,0,3,36,0,0,0,86,88,143,130,45,132.88,374,19.00,-50.00,-1078.00
2024-05-19 09:41:27.418770,0,3,42,0,0,0,86,88,144,130,45,132.74,374,35.00,-78.00,-982.00
2024-05-19 09:41:27.491466,0,2,50,0,0,0,86,88,142,130,45,132.80,374,-41.00,-16.00,-1155.00
2024-05-19 09:41:27.623592,-1,2,57,0,0,0,86,88,141,130,45,132.78,375,-12.00,-58.00,-1009.00
2024-05-19 09:41:27.695299,-2,2,64,0,0,0,86,88,141,120,45,132.74,375,-23.00,-8.00,-1036.00
2024-05-19 09:41:27.831493,-2,2,71,0,0,0,86,88,141,120,45,132.80,375,-111.00,45.00,-1048.00
2024-05-19 09:41:27.900095,-2,1,78,0,0,0,86,88,140,120,45,132.84,375,-2.00,-32.00,-1061.00
2024-05-19 09:41:28.036491,-3,0,84,0,0,0,86,88,140,120,45,132.71,375,-120.00,46.00,-1033.00
2024-05-19 09:41:28.103356,-3,-1,90,-1,0,0,86,88,138,120,45,132.78,375,-9.00,-31.00,-801.00
2024-05-19 09:41:28.237992,-4,-2,96,-1,0,0,86,88,137,120,45,132.74,375,-68.00,43.00,-1050.00
2024-05-19 09:41:28.307465,-3,-3,102,-1,0,0,86,88,136,120,45,132.73,375,-157.00,54.00,-1052.00
2024-05-19 09:41:28.442835,-3,-3,108,0,0,0,86,88,134,120,45,132.80,375,-39.00,35.00,-800.00
2024-05-19 09:41:28.511328,-3,-3,114,0,0,0,86,88,133,120,45,132.74,375,-90.00,82.00,-1121.00
2024-05-19 09:41:28.647562,-1,-3,120,0,0,0,86,88,132,120,45,132.70,376,-104.00,65.00,-931.00
2024-05-19 09:41:28.715287,-1,-3,126,0,0,0,86,88,132,120,45,132.79,376,-102.00,80.00,-1046.00
2024-05-19 09:41:28.852396,-1,-3,132,0,0,0,86,88,131,120,45,132.74,376,-2.00,56.00,-1120.00
2024-05-19 09:41:28.919337,-1,-3,137,0,0,0,86,88,131,120,45,132.69,376,28.00,11.00,-1028.00
2024-05-19 09:41:29.021413,-1,-3,143,0,0,0,86,88,131,120,45,132.69,376,-52.00,77.00,-990.00
2024-05-19 09:41:29.072605,-1,-3,149,0,0,0,86,88,132,120,45,132.66,376,-106.00,87.00,-1005.00
2024-05-19 09:41:29.261990,-1,-4,155,0,0,0,86,88,133,120,45,132.69,376,-12.00,36.00,-1018.00
2024-05-19 09:41:29.276287,-1,-4,161,0,0,0,86,88,133,120,45,132.65,376,-71.00,71.00,-988.00
2024-05-19 09:41:29.466779,0,-3,167,0,0,0,86,88,135,120,45,132.81,376,27.00,22.00,-949.00
2024-05-19 09:41:29.480418,0,-3,173,0,0,0,86,88,135,120,45,132.77,376,-58.00,73.00,-970.00
2024-05-19 09:41:29.671543,-1,-2,179,0,0,0,86,88,137,120,45,132.80,377,-35.00,22.00,-914.00
2024-05-19 09:41:29.735282,-1,-3,-168,0,0,0,86,88,137,120,45,132.78,377,20.00,69.00,-1039.00
2024-05-19 09:41:29.876312,0,-3,-162,0,0,0,86,88,138,120,45,132.72,377,-28.00,66.00,-907.00
2024-05-19 09:41:29.888061,0,-3,-156,0,0,0,86,88,139,120,45,132.87,377,68.00,5.00,-1010.00
2024-05-19 09:41:30.081708,0,-2,-150,0,0,0,86,88,139,120,45,132.83,377,-52.00,64.00,-959.00
2024-05-19 09:41:30.092264,0,-2,-145,0,0,0,86,88,140,120,45,132.83,377,-73.00,52.00,-984.00
2024-05-19 09:41:30.285962,0,-3,-139,0,0,0,86,88,140,120,45,132.82,377,-39.00,86.00,-883.00
2024-05-19 09:41:30.296175,0,-3,-133,0,0,0,86,88,141,120,45,132.78,377,62.00,38.00,-1015.00
2024-05-19 09:41:30.490750,1,-3,-126,0,0,0,86,88,141,120,45,132.76,377,43.00,72.00,-1232.00
2024-05-19 09:41:30.500373,1,-3,-120,0,0,0,86,88,142,120,45,132.73,378,-20.00,57.00,-1100.00
2024-05-19 09:41:30.602230,2,-2,-114,0,0,0,86,88,143,120,45,132.78,378,-25.00,64.00,-965.00
2024-05-19 09:41:30.797961,2,-2,-108,0,0,0,86,88,142,130,45,132.74,378,21.00,79.00,-983.00
2024-05-19 09:41:30.806349,2,-2,-102,0,0,0,86,88,142,130,45,132.74,378,147.00,-21.00,-787.00
2024-05-19 09:41:30.908220,2,-1,-96,0,0,0,86,88,142,130,45,132.78,378,71.00,10.00,-1068.00
2024-05-19 09:41:31.010521,3,-1,-89,0,0,0,86,88,141,130,45,132.74,378,39.00,12.00,-898.00
2024-05-19 09:41:31.112234,3,0,-83,0,0,0,86,88,141,120,45,132.80,378,-14.00,25.00,-1080.00
2024-05-19 09:41:31.309921,3,0,-76,0,0,0,86,88,140,120,45,132.72,378,122.00,0.00,-1192.00
2024-05-19 09:41:31.316214,4,0,-70,0,0,0,86,88,141,120,45,132.70,378,74.00,43.00,-1097.00
2024-05-19 09:41:31.514786,3,1,-64,0,0,0,86,88,140,120,45,132.76,378,66.00,-48.00,-931.00
2024-05-19 09:41:31.521567,3,1,-58,0,0,0,86,88,141,120,45,132.83,379,46.00,-21.00,-1083.00
2024-05-19 09:41:31.719546,2,2,-52,0,0,0,86,88,141,120,45,132.75,379,70.00,-37.00,-845.00
2024-05-19 09:41:31.724395,2,2,-46,0,0,0,85,88,141,120,45,132.70,379,56.00,-63.00,-896.00
2024-05-19 09:41:31.826246,2,2,-39,0,0,0,85,88,141,120,44,132.79,379,-12.00,-53.00,-934.00
2024-05-19 09:41:32.026705,2,3,-33,0,0,0,85,88,140,120,44,132.67,379,64.00,-40.00,-875.00
2024-05-19 09:41:32.030104,1,3,-28,0,0,0,85,88,140,120,44,132.72,379,-16.00,-21.00,-1032.00
2024-05-19 09:41:32.132079,1,4,-23,0,0,0,85,88,138,120,44,132.66,379,22.00,-76.00,-1094.00
2024-05-19 09:41:32.234121,1,4,-19,0,0,0,85,88,138,120,44,132.67,379,-5.00,-46.00,-974.00
2024-05-19 09:41:32.336811,1,4,-16,0,0,0,85,88,136,120,44,132.63,379,13.00,-29.00,-1097.00
2024-05-19 09:41:32.438190,1,4,-13,0,0,0,85,88,135,120,44,132.74,379,2.00,-55.00,-1029.00
2024-05-19 09:41:32.641123,0,3,-11,0,0,0,85,88,133,120,44,132.65,380,13.00,-53.00,-1034.00
2024-05-19 09:41:32.643528,0,3,-9,0,0,0,85,88,133,120,44,132.61,380,-57.00,-10.00,-1068.00
2024-05-19 09:41:32.744271,0,3,-8,0,0,0,86,88,131,120,44,132.62,380,-1.00,-28.00,-896.00
2024-05-19 09:41:32.846226,0,3,-7,0,0,0,86,88,130,120,44,132.59,380,-6.00,-86.00,-978.00
2024-05-19 09:41:32.948491,0,3,-6,0,0,0,86,88,131,120,44,132.62,380,-71.00,-25.00,-890.00
2024-05-19 09:41:33.050492,0,3,-6,0,0,0,86,88,130,120,44,132.65,380,102.00,-58.00,-1011.00
2024-05-19 09:41:33.153576,0,3,-6,0,0,0,86,88,131,120,44,132.65,380,-56.00,-40.00,-1036.00
2024-05-19 09:41:33.255606,0,3,-6,0,0,0,86,88,132,120,44,132.65,380,19.00,-81.00,-996.00
2024-05-19 09:41:33.358019,1,3,-6,0,0,0,86,88,133,120,44,132.61,380,24.00,-83.00,-1287.00
2024-05-19 09:41:33.407262,1,3,-6,0,0,0,86,88,134,120,44,132.68,380,45.00,-66.00,-955.00
2024-05-19 09:41:33.562846,1,3,-6,0,0,0,86,88,136,120,44,132.76,381,36.00,-38.00,-1180.00
2024-05-19 09:41:33.611145,1,2,-6,0,0,-1,86,88,137,120,44,132.82,381,57.00,-92.00,-1023.00
2024-05-19 09:41:33.767700,1,2,-6,0,1,-1,85,88,138,120,44,132.75,381,-28.00,-48.00,-823.00
2024-05-19 09:41:33.815180,1,2,-6,0,1,-1,85,88,140,120,44,132.80,381,24.00,-70.00,-1079.00
2024-05-19 09:41:33.972403,0,2,-6,0,0,0,85,88,139,120,44,132.76,381,62.00,-42.00,-618.00
2024-05-19 09:41:34.019819,1,2,-6,0,0,0,85,88,140,130,44,132.72,381,67.00,-113.00,-1047.00
2024-05-19 09:41:34.122510,1,3,-6,0,0,0,85,88,140,130,44,132.78,381,33.00,-71.00,-1047.00
2024-05-19 09:41:34.224261,1,3,-6,0,0,0,85,88,140,130,44,132.73,381,-56.00,-5.00,-980.00
2024-05-19 09:41:34.382429,1,3,-6,0,0,0,85,88,140,120,44,132.74,381,-13.00,-24.00,-867.00
2024-05-19 09:41:34.428066,1,3,-6,0,0,0,85,88,139,120,44,132.71,381,-23.00,0.00,-1053.00
2024-05-19 09:41:34.586886,2,2,-6,0,0,0,85,88,140,120,44,132.73,382,-61.00,-15.00,-1194.00
2024-05-19 09:41:34.633090,2,2,-6,0,0,0,85,88,140,120,44,132.74,382,31.00,-20.00,-820.00
2024-05-19 09:41:34.791639,2,2,-6,0,0,0,86,89,141,120,44,132.77,382,136.00,-95.00,-877.00
2024-05-19 09:41:34.835985,2,2,-6,0,0,0,86,89,140,120,44,132.69,382,-37.00,-29.00,-1054.00
2024-05-19 09:41:34.951563,2,2,-6,0,0,0,86,89,140,120,44,132.71,382,40.00,-75.00,-984.00
2024-05-19 09:41:35.040443,1,2,-6,0,0,0,86,89,140,120,44,132.78,382,66.00,-78.00,-822.00
2024-05-19 09:41:35.201146,1,2,-9,0,0,0,86,89,140,120,44,132.72,382,-5.00,-63.00,-989.00
2024-05-19 09:41:35.244267,0,3,-15,0,0,0,86,89,140,120,44,132.70,382,8.00,-54.00,-1109.00
2024-05-19 09:41:35.405894,0,3,-21,0,0,0,86,89,140,120,44,132.69,382,11.00,-68.00,-1044.00
2024-05-19 09:41:35.447866,0,3,-27,0,0,0,86,89,139,120,44,132.70,382,33.00,-56.00,-890.00
2024-05-19 09:41:35.610704,2,2,-32,0,0,0,86,89,138,120,44,132.66,383,8.00,-23.00,-938.00
2024-05-19 09:41:35.651823,2,2,-38,0,0,0,86,89,138,120,44,132.65,383,30.00,-28.00,-1062.00
2024-05-19 09:41:35.815475,3,2,-43,0,0,0,86,88,138,120,44,132.63,383,-7.00,-79.00,-933.00
2024-05-19 09:41:35.855837,3,1,-49,0,0,0,86,88,137,120,44,132.66,383,48.00,-32.00,-987.00
2024-05-19 09:41:36.020295,3,1,-54,0,0,0,86,88,136,120,44,132.64,383,-57.00,-17.00,-1006.00
2024-05-19 09:41:36.059975,4,2,-60,0,0,0,86,88,135,120,44,132.62,383,27.00,-47.00,-1114.00
2024-05-19 09:41:36.225114,5,1,-66,0,0,0,86,88,135,120,44,132.64,383,110.00,-60.00,-1082.00
2024-05-19 09:41:36.263927,4,1,-72,0,0,0,86,88,135,120,44,132.63,383,63.00,-29.00,-1053.00
2024-05-19 09:41:36.429857,4,0,-77,0,0,0,86,88,134,120,44,132.56,383,25.00,-30.00,-978.00
2024-05-19 09:41:36.467828,4,0,-83,0,0,0,86,88,134,120,44,132.56,383,79.00,1.00,-988.00
2024-05-19 09:41:36.634689,4,0,-89,0,0,0,86,88,133,120,44,132.62,384,84.00,-44.00,-892.00
2024-05-19 09:41:36.671873,3,-1,-95,0,0,0,86,88,133,120,44,132.55,384,24.00,58.00,-988.00
2024-05-19 09:41:36.839472,5,0,-101,0,0,0,86,88,133,120,44,132.56,384,71.00,-12.00,-1024.00
2024-05-19 09:41:36.875874,5,-1,-107,0,0,0,86,88,134,120,44,132.59,384,66.00,16.00,-1047.00
2024-05-19 09:41:37.049188,5,-1,-112,0,0,0,86,88,134,120,44,132.65,384,10.00,40.00,-943.00
2024-05-19 09:41:37.079978,4,-2,-118,0,0,0,86,88,135,120,44,132.59,384,99.00,18.00,-965.00
2024-05-19 09:41:37.249092,4,-2,-124,0,0,0,86,88,136,120,44,132.59,384,158.00,-30.00,-974.00
2024-05-19 09:41:37.287153,4,-2,-129,0,0,0,86,88,136,120,44,132.61,384,0.00,74.00,-1029.00
2024-05-19 09:41:37.385981,4,-2,-135,0,0,0,86,88,137,120,44,132.56,384,118.00,10.00,-923.00
2024-05-19 09:41:37.436867,4,-2,-141,-1,0,0,86,88,138,120,44,132.60,384,88.00,25.00,-1119.00
2024-05-19 09:41:37.556273,5,-1,-147,-1,0,0,86,88,138,120,44,132.63,385,40.00,44.00,-1027.00
2024-05-19 09:41:37.640937,4,-2,-153,0,0,0,86,88,138,120,44,132.57,385,53.00,59.00,-1016.00
2024-05-19 09:41:37.793888,3,-2,-160,0,0,0,86,88,137,120,43,132.74,385,79.00,18.00,-947.00
2024-05-19 09:41:37.965805,2,-3,-166,0,0,0,86,88,137,120,43,132.77,385,56.00,64.00,-1067.00
2024-05-19 09:41:37.965862,1,-4,-172,0,0,0,86,88,137,120,43,132.69,385,-7.00,82.00,-1014.00
2024-05-19 09:41:38.048801,0,-4,-179,0,0,0,86,88,136,120,43,132.63,385,15.00,114.00,-1151.00
2024-05-19 09:41:38.170679,0,-4,174,0,0,0,86,88,136,120,43,132.69,385,81.00,32.00,-1143.00
2024-05-19 09:41:38.252793,0,-4,168,0,0,0,86,88,136,120,43,132.67,385,9.00,47.00,-1026.00
2024-05-19 09:41:38.375458,0,-3,162,0,0,0,86,88,136,120,43,132.68,385,-28.00,115.00,-696.00
2024-05-19 09:41:38.456764,0,-4,155,0,0,0,86,88,136,120,43,132.66,385,-35.00,44.00,-996.00
2024-05-19 09:41:38.580517,0,-4,149,0,0,0,86,88,137,120,43,132.68,386,7.00,109.00,-957.00
2024-05-19 09:41:38.660613,0,-4,143,0,1,0,86,88,138,120,43,132.59,386,-142.00,110.00,-1087.00
2024-05-19 09:41:38.785043,0,-3,137,0,1,0,86,88,139,120,43,132.66,386,-51.00,54.00,-1018.00
2024-05-19 09:41:38.864811,-1,-2,131,0,1,0,86,88,141,120,43,132.73,386,-102.00,68.00,-964.00
2024-05-19 09:41:38.989794,-1,-2,124,0,1,0,86,88,141,120,43,132.66,386,-107.00,86.00,-1069.00
2024-05-19 09:41:39.069067,-2,-1,118,0,0,-1,86,88,144,120,43,132.61,386,-38.00,59.00,-868.00
2024-05-19 09:41:39.194618,-2,-1,112,0,0,0,86,88,146,120,43,132.53,386,3.00,5.00,-1360.00
2024-05-19 09:41:39.272795,-2,-1,106,0,0,0,86,88,147,130,43,132.52,386,55.00,-9.00,-797.00
2024-05-19 09:41:39.399435,-2,-1,100,0,0,0,86,88,147,130,43,132.59,386,-27.00,14.00,-959.00
2024-05-19 09:41:39.476775,-3,-1,94,0,0,0,86,88,147,130,43,132.56,386,-91.00,65.00,-732.00
2024-05-19 09:41:39.605721,-3,-1,88,0,0,0,86,88,147,130,43,132.57,387,-13.00,-10.00,-904.00
2024-05-19 09:41:39.680759,-3,0,82,0,0,0,86,88,146,130,43,132.62,387,-67.00,38.00,-1050.00
2024-05-19 09:41:39.809045,-3,0,76,0,0,0,86,88,144,130,43,132.48,387,51.00,-68.00,-1018.00
2024-05-19 09:41:39.884698,-3,0,70,0,0,0,86,88,145,130,43,132.58,387,-68.00,-25.00,-1130.00
2024-05-19 09:41:40.013888,-3,0,64,0,0,0,86,88,143,130,43,132.61,387,-116.00,47.00,-946.00
2024-05-19 09:41:40.088703,-3,0,58,0,0,0,86,88,142,130,43,132.51,387,30.00,-69.00,-1016.00
2024-05-19 09:41:40.218535,-3,0,53,0,0,0,86,88,142,120,43,132.65,387,-49.00,-23.00,-1122.00
2024-05-19 09:41:40.292749,-3,0,46,0,0,0,86,88,143,120,43,132.66,387,-73.00,-21.00,-990.00
2024-05-19 09:41:40.423462,-2,1,41,0,0,0,86,88,142,120,43,132.66,387,-66.00,-29.00,-941.00
2024-05-19 09:41:40.496632,-2,1,34,0,0,0,86,88,142,120,43,132.65,387,-99.00,2.00,-1002.00
2024-05-19 09:41:40.628238,-1,1,28,0,0,0,86,88,142,120,43,132.66,388,-51.00,-58.00,-1088.00
2024-05-19 09:41:40.700702,-2,1,22,0,0,0,86,88,142,120,43,132.75,388,13.00,-56.00,-1032.00
2024-05-19 09:41:40.802624,-1,2,16,0,0,0,85,88,142,120,42,132.75,388,-9.00,-46.00,-1015.00
2024-05-19 09:41:40.935434,0,2,11,0,0,0,85,88,142,120,42,132.77,388,19.00,-94.00,-920.00
2024-05-19 09:41:41.006668,0,3,6,0,0,0,85,88,142,120,42,132.77,388,-29.00,-3.00,-1025.00
2024-05-19 09:41:41.108771,0,3,3,0,0,0,85,88,142,120,42,132.80,388,54.00,-62.00,-1112.00
2024-05-19 09:41:41.244415,0,2,1,0,0,0,85,88,142,120,42,132.73,388,-71.00,-22.00,-1021.00
2024-05-19 09:41:41.312639,0,2,0,0,0,0,85,88,142,120,42,132.74,388,-89.00,5.00,-868.00
2024-05-19 09:41:41.447474,0,2,-2,0,0,0,85,88,142,120,42,132.72,388,82.00,-81.00,-1062.00
2024-05-19 09:41:41.465598,0,2,-3,0,0,0,85,88,143,120,42,132.79,388,4.00,-49.00,-1126.00
2024-05-19 09:41:41.652205,0,2,-3,0,0,0,85,88,143,120,42,132.77,389,-35.00,-19.00,-991.00
2024-05-19 09:41:41.669569,0,3,-4,0,0,0,85,88,143,120,42,132.72,389,-27.00,-40.00,-1019.00
2024-05-19 09:41:41.771739,0,3,-4,0,0,0,86,88,143,120,42,132.73,389,-12.00,-21.00,-1028.00
2024-05-19 09:41:41.959523,0,3,-4,0,0,0,86,88,144,120,42,132.70,389,-19.00,-12.00,-1228.00
2024-05-19 09:41:41.975704,0,3,-4,0,0,0,86,88,144,120,42,132.75,389,31.00,-18.00,-1066.00
2024-05-19 09:41:42.077555,0,2,-4,0,0,0,86,88,144,120,42,132.69,389,-11.00,-25.00,-1080.00
2024-05-19 09:41:42.179977,0,2,-4,0,0,0,86,88,146,120,42,132.72,389,129.00,-96.00,-982.00
2024-05-19 09:41:42.369109,0,2,-4,0,0,0,86,88,146,120,42,132.74,389,35.00,-43.00,-996.00
2024-05-19 09:41:42.383602,0,2,-4,0,0,0,86,88,146,130,42,132.76,389,33.00,-86.00,-859.00
2024-05-19 09:41:42.573777,0,3,-4,0,0,0,86,88,147,130,42,132.70,389,-15.00,-24.00,-895.00
2024-05-19 09:41:42.588341,0,3,-4,0,0,0,86,88,146,130,42,132.72,390,-57.00,-1.00,-1121.00
2024-05-19 09:41:42.689770,0,2,-4,0,0,0,86,88,146,130,42,132.77,390,63.00,-73.00,-907.00
2024-05-19 09:41:42.881099,0,2,-4,0,0,0,86,88,146,130,42,132.74,390,16.00,-77.00,-1087.00
2024-05-19 09:41:42.893745,0,2,-4,0,0,0,86,88,146,130,42,132.76,390,13.00,-20.00,-1034.00
2024-05-19 09:41:42.995656,0,2,-4,0,0,0,86,88,145,130,42,132.75,390,1.00,-47.00,-1074.00
2024-05-19 09:41:43.097605,0,2,-4,0,0,0,86,88,144,130,42,132.70,390,32.00,-42.00,-980.00
2024-05-19 09:41:43.290613,0,2,-4,0,0,0,86,88,144,130,42,132.70,390,80.00,-71.00,-989.00
2024-05-19 09:41:43.301639,0,2,-4,0,0,0,86,88,143,130,42,132.70,390,16.00,-7.00,-1237.00
2024-05-19 09:41:43.495539,1,2,-4,0,0,0,86,88,143,120,42,132.73,390,38.00,-60.00,-1068.00
2024-05-19 09:41:43.505753,1,2,-4,0,0,0,86,88,144,120,42,132.75,390,54.00,-47.00,-1070.00
2024-05-19 09:41:43.700770,1,2,-4,0,0,0,86,88,143,120,42,132.73,391,2.00,-40.00,-1023.00
2024-05-19 09:41:43.709626,1,2,-4,0,0,0,86,88,144,120,42,132.73,391,0.00,-66.00,-1035.00
2024-05-19 09:41:43.814364,0,2,-4,0,0,0,85,87,144,120,42,132.78,391,0.00,-66.00,-984.00
2024-05-19 09:41:43.913641,0,2,-4,0,0,0,85,87,145,120,42,132.75,391,96.00,-89.00,-1088.00
2024-05-19 09:41:44.109925,0,2,-4,0,0,0,85,87,147,120,42,132.76,391,5.00,-37.00,-932.00
2024-05-19 09:41:44.118232,0,2,-4,0,0,0,85,87,148,130,42,132.80,391,10.00,-11.00,-930.00
2024-05-19 09:41:44.314794,0,2,-4,0,0,0,85,87,148,130,42,132.80,391,79.00,-86.00,-797.00
2024-05-19 09:41:44.321456,0,2,-4,0,0,0,85,87,149,130,42,132.84,391,54.00,-65.00,-1229.00
2024-05-19 09:41:44.519450,1,2,-4,0,0,0,85,87,150,130,42,132.77,391,44.00,-70.00,-794.00
2024-05-19 09:41:44.525730,1,2,-4,0,0,0,85,87,149,130,42,132.75,392,1.00,-29.00,-884.00
2024-05-19 09:41:44.724362,1,2,-4,0,0,0,85,87,149,130,42,132.80,392,1.00,-60.00,-1061.00
2024-05-19 09:41:44.730126,1,2,-4,0,0,0,85,87,150,130,42,132.76,392,-24.00,-37.00,-906.00
2024-05-19 09:41:44.929365,0,2,-4,0,0,0,86,88,149,130,42,132.83,392,-12.00,-25.00,-1012.00
2024-05-19 09:41:44.933479,1,2,-4,0,0,0,86,88,150,130,42,132.80,392,-45.00,-5.00,-753.00
2024-05-19 09:41:45.133926,0,2,-4,0,0,0,86,88,150,130,42,132.77,392,118.00,-102.00,-796.00
2024-05-19 09:41:45.137770,0,2,-4,0,0,0,86,88,150,130,42,132.82,392,42.00,-45.00,-998.00
2024-05-19 09:41:45.338684,0,2,-4,0,0,0,86,88,151,130,42,132.82,392,82.00,-32.00,-1189.00
2024-05-19 09:41:45.338888,0,2,-4,0,0,0,86,88,151,130,42,132.78,392,11.00,-37.00,-958.00
2024-05-19 09:41:45.392505,0,2,-4,0,0,0,86,88,150,130,42,132.81,392,-13.00,0.00,-1004.00
2024-05-19 09:41:45.543545,0,2,-4,0,0,0,86,88,151,130,42,132.79,393,131.00,-79.00,-1022.00
2024-05-19 09:41:45.596487,0,2,-4,0,0,0,86,88,150,130,42,132.85,393,67.00,-71.00,-948.00
2024-05-19 09:41:45.748286,0,3,-4,0,0,0,86,88,149,130,42,132.86,393,60.00,-81.00,-808.00
2024-05-19 09:41:45.800435,0,2,-4,0,0,0,86,88,150,130,42,132.75,393,-9.00,-46.00,-843.00
2024-05-19 09:41:45.953044,0,2,-4,0,0,0,86,88,149,130,42,132.80,393,14.00,-46.00,-1151.00
2024-05-19 09:41:46.004506,0,2,-4,0,0,0,86,88,148,130,42,132.77,393,40.00,-45.00,-1091.00
2024-05-19 09:41:46.106550,0,2,-4,0,0,0,86,88,149,130,42,132.77,393,5.00,-11.00,-822.00
2024-05-19 09:41:46.260239,0,2,-4,0,0,0,86,88,148,130,42,132.74,393,25.00,-35.00,-895.00
2024-05-19 09:41:46.310407,0,2,-4,0,0,0,86,88,146,130,42,132.72,393,-20.00,-11.00,-951.00
2024-05-19 09:41:46.465460,0,3,-4,0,0,0,86,88,146,130,42,132.75,393,52.00,-70.00,-905.00
2024-05-19 09:41:46.514544,0,2,-4,0,0,0,86,88,146,130,42,132.76,394,19.00,-41.00,-889.00
2024-05-19 09:41:46.669874,0,2,-4,0,0,0,86,88,146,130,42,132.75,394,-44.00,-7.00,-1118.00
2024-05-19 09:41:46.718707,0,2,-4,0,0,0,86,88,144,120,42,132.74,394,16.00,-40.00,-1065.00
2024-05-19 09:41:46.820370,0,2,-4,0,0,0,86,88,145,120,41,132.76,394,22.00,-46.00,-1159.00
2024-05-19 09:41:46.977385,0,2,-4,0,0,0,86,88,145,120,41,132.73,394,-56.00,-40.00,-976.00
2024-05-19 09:41:47.024617,0,3,-4,0,0,0,86,88,146,120,41,132.72,394,6.00,-37.00,-1111.00
2024-05-19 09:41:47.126310,0,2,-4,0,0,0,86,88,146,130,41,132.71,394,105.00,-75.00,-888.00
2024-05-19 09:41:47.284258,0,2,-4,0,0,0,86,88,147,130,41,132.84,394,10.00,-36.00,-1066.00
2024-05-19 09:41:47.330697,0,2,-4,0,0,0,86,88,147,130,41,132.76,394,-32.00,-30.00,-1015.00
2024-05-19 09:41:47.489132,0,2,-4,0,0,0,86,88,148,130,41,132.75,394,34.00,-34.00,-953.00
2024-05-19 09:41:47.534408,0,2,-4,0,0,0,86,88,148,130,41,132.76,395,88.00,-90.00,-926.00
2024-05-19 09:41:47.693861,0,2,-4,0,0,0,86,88,148,130,41,132.77,395,13.00,-32.00,-1008.00
2024-05-19 09:41:47.738438,0,2,-4,0,0,0,86,88,148,130,41,132.80,395,9.00,-41.00,-1105.00
2024-05-19 09:41:47.898787,0,2,-4,0,0,0,86,88,148,130,41,132.81,395,27.00,-20.00,-1134.00
2024-05-19 09:41:47.942369,0,2,-4,0,0,0,86,88,148,130,41,132.79,395,35.00,-43.00,-1066.00
2024-05-19 09:41:48.103470,0,1,-4,0,0,0,86,88,148,130,41,132.85,395,83.00,-64.00,-1032.00
2024-05-19 09:41:48.146342,0,1,-4,0,0,0,86,88,149,130,41,132.73,395,-24.00,-26.00,-953.00
2024-05-19 09:41:48.308189,1,1,-4,0,0,0,86,88,149,130,41,132.81,395,116.00,-54.00,-1026.00
2024-05-19 09:41:48.350538,2,1,-4,1,0,0,86,88,149,130,41,132.75,395,-13.00,-10.00,-1014.00
2024-05-19 09:41:48.513246,3,0,-4,1,0,0,86,88,148,130,41,132.83,395,12.00,-14.00,-936.00
2024-05-19 09:41:48.554276,3,1,-4,1,0,0,86,88,148,130,41,132.85,396,165.00,-45.00,-912.00
2024-05-19 09:41:48.717838,3,1,-4,0,0,0,86,88,148,130,41,132.69,396,-20.00,5.00,-968.00
2024-05-19 09:41:48.758412,3,1,-4,0,0,0,86,88,148,130,41,132.74,396,15.00,-18.00,-1129.00
2024-05-19 09:41:48.922717,2,1,-4,0,0,0,87,88,147,130,41,132.71,396,32.00,-61.00,-960.00
2024-05-19 09:41:48.962215,2,1,-4,0,0,0,87,88,147,130,41,132.71,396,28.00,-15.00,-1137.00
2024-05-19 09:41:49.127571,2,1,-4,0,0,0,87,88,146,130,41,132.81,396,94.00,-60.00,-971.00
2024-05-19 09:41:49.127781,2,1,-4,0,0,0,87,88,146,130,41,132.77,396,-40.00,-18.00,-1216.00
2024-05-19 09:41:49.219016,2,1,-4,0,0,0,87,88,146,130,41,132.81,396,49.00,-29.00,-944.00
2024-05-19 09:41:49.332123,2,1,-4,0,0,0,87,88,145,130,41,132.79,396,35.00,-5.00,-1052.00
2024-05-19 09:41:49.424069,2,1,-4,0,0,0,87,88,145,130,41,132.76,396,51.00,-35.00,-953.00
2024-05-19 09:41:49.524585,2,1,-4,0,0,0,87,88,144,130,41,132.76,397,72.00,-92.00,-1094.00
2024-05-19 09:41:49.627218,2,1,-4,0,0,0,87,88,144,130,41,132.74,397,-30.00,-38.00,-1022.00
2024-05-19 09:41:49.728224,2,1,-4,0,0,0,87,88,143,130,41,132.76,397,-35.00,9.00,-971.00
2024-05-19 09:41:49.830222,1,1,-4,0,0,0,86,89,142,130,41,132.78,397,82.00,-65.00,-991.00
2024-05-19 09:41:50.049089,2,1,-4,0,0,0,86,89,142,120,41,132.72,397,70.00,-68.00,-870.00
2024-05-19 09:41:50.049237,2,2,-4,0,0,0,86,89,142,120,41,132.72,397,3.00,-2.00,-905.00
2024-05-19 09:41:50.136471,2,1,-4,0,0,0,86,89,142,120,41,132.74,397,65.00,-52.00,-919.00
2024-05-19 09:41:50.253823,2,2,-4,0,0,0,86,89,142,120,41,132.69,397,137.00,-21.00,-1083.00
2024-05-19 09:41:50.340079,2,2,-4,0,0,0,86,89,142,120,41,132.78,397,86.00,-17.00,-922.00
2024-05-19 09:41:50.458910,2,1,-4,0,0,0,86,89,142,120,41,132.83,397,60.00,-43.00,-1061.00
2024-05-19 09:41:50.544222,2,1,-4,0,0,0,86,89,142,120,41,132.74,398,44.00,-52.00,-945.00
2024-05-19 09:41:50.663425,3,1,-4,0,0,0,86,89,143,120,41,132.79,398,68.00,-21.00,-870.00
2024-05-19 09:41:50.748252,3,2,-4,0,0,0,86,89,143,120,41,132.75,398,65.00,-38.00,-953.00
2024-05-19 09:41:50.868225,3,3,-4,0,0,0,86,88,144,120,41,132.76,398,26.00,-50.00,-979.00
2024-05-19 09:41:50.952182,3,3,-4,0,0,0,86,88,145,120,41,132.75,398,122.00,-61.00,-858.00
2024-05-19 09:41:51.073140,2,3,-4,0,0,0,86,88,146,130,41,132.81,398,56.00,-39.00,-982.00
