TS,pitch,roll,yaw,vgx,vgy,vgz,templ,temph,tof,h,bat,baro,time,agx,agy,agz
2024-06-07 01:27:27.630499,0,0,0,0,0,0,54,57,10,0,68,123.04,0,-2.00,0.00,-998.00
2024-06-07 01:27:27.731193,0,0,0,0,0,0,54,57,10,0,68,123.08,0,-2.00,0.00,-997.00
2024-06-07 01:27:27.833075,0,0,0,0,0,0,54,57,10,0,68,123.08,0,-2.00,0.00,-997.00
2024-06-07 01:27:28.017549,0,0,0,0,0,0,54,57,10,0,68,123.13,0,0.00,0.00,-999.00
2024-06-07 01:27:28.036914,0,0,0,0,0,0,54,57,10,0,68,123.06,0,-2.00,-1.00,-1000.00
2024-06-07 01:27:28.221824,0,0,0,0,0,0,54,57,10,0,68,123.11,0,0.00,0.00,-1001.00
2024-06-07 01:27:28.240947,0,0,0,0,0,0,54,57,10,0,68,123.13,0,-3.00,0.00,-998.00
2024-06-07 01:27:28.426931,0,0,0,0,0,0,54,57,10,0,68,123.12,0,-3.00,0.00,-997.00
2024-06-07 01:27:28.445183,0,0,0,0,0,0,54,57,10,0,68,123.08,0,-3.00,0.00,-998.00
2024-06-07 01:27:28.631569,0,0,0,0,0,0,54,57,10,0,68,123.09,0,0.00,0.00,-998.00
2024-06-07 01:27:28.631803,0,0,0,0,0,0,54,57,10,0,68,123.09,0,-2.00,0.00,-1000.00
2024-06-07 01:27:28.699748,0,0,0,0,0,0,54,57,10,0,68,123.14,0,-3.00,0.00,-998.00
2024-06-07 01:27:28.836589,0,0,0,0,0,0,54,57,10,0,68,123.03,0,-1.00,-1.00,-998.00
2024-06-07 01:27:28.903860,0,0,0,0,0,0,54,57,10,0,68,123.16,0,-3.00,0.00,-1000.00
2024-06-07 01:27:29.041442,0,0,0,0,0,0,54,57,10,0,68,123.11,0,-2.00,1.00,-1001.00
2024-06-07 01:27:29.107864,0,0,0,0,0,0,54,57,10,0,68,123.12,0,-2.00,0.00,-998.00
2024-06-07 01:27:29.246100,0,0,0,0,0,0,54,57,10,0,68,123.12,0,0.00,0.00,-1000.00
2024-06-07 01:27:29.311823,0,0,0,0,0,0,54,57,10,0,68,123.09,0,-2.00,0.00,-1001.00
2024-06-07 01:27:29.413738,0,0,0,0,0,0,54,57,10,0,68,123.03,0,-1.00,0.00,-1001.00
2024-06-07 01:27:29.552264,0,0,0,0,0,0,54,56,10,0,68,123.12,0,-2.00,0.00,-998.00
2024-06-07 01:27:29.617991,0,0,0,0,0,0,54,56,10,0,68,123.10,0,-3.00,0.00,-1000.00
2024-06-07 01:27:29.758694,0,0,0,0,0,0,54,56,10,0,68,123.13,0,-2.00,-1.00,-1000.00
2024-06-07 01:27:29.821721,0,0,0,0,0,0,54,56,10,0,68,123.08,0,-2.00,0.00,-1000.00
2024-06-07 01:27:29.962755,0,0,0,0,0,0,54,56,10,0,68,123.08,0,-2.00,0.00,-999.00
2024-06-07 01:27:30.025886,0,0,0,0,0,0,54,56,10,0,68,123.09,0,-1.00,0.00,-998.00
2024-06-07 01:27:30.167602,0,0,0,0,0,0,54,56,10,0,68,123.12,0,-2.00,0.00,-998.00
2024-06-07 01:27:30.229726,0,0,0,0,0,0,54,56,10,0,68,123.15,0,-2.00,0.00,-1002.00
2024-06-07 01:27:30.373246,0,0,0,0,0,0,54,56,10,0,68,123.15,0,-1.00,0.00,-999.00
2024-06-07 01:27:30.434399,0,0,0,0,0,0,54,56,10,0,68,123.15,0,-1.00,0.00,-998.00
2024-06-07 01:27:30.577683,0,0,0,0,0,0,55,57,10,0,68,123.10,0,-2.00,0.00,-1001.00
2024-06-07 01:27:30.637747,0,0,0,0,0,0,55,57,10,0,68,123.15,0,-3.00,0.00,-1001.00
2024-06-07 01:27:30.784015,0,0,0,0,0,0,55,57,10,0,68,123.12,0,-1.00,0.00,-999.00
2024-06-07 01:27:30.842959,0,0,0,0,0,0,55,57,10,0,68,123.16,0,-1.00,0.00,-1000.00
2024-06-07 01:27:30.986077,0,0,0,0,0,0,55,57,10,0,68,123.13,0,-1.00,0.00,-1001.00
2024-06-07 01:27:31.045630,0,0,0,0,0,0,55,57,10,0,68,123.13,0,-1.00,-1.00,-999.00
2024-06-07 01:27:31.191396,0,0,0,0,0,0,55,57,10,0,68,123.13,0,-2.00,0.00,-998.00
2024-06-07 01:27:31.249684,0,0,0,0,0,0,55,57,10,0,68,123.12,0,-2.00,0.00,-999.00
2024-06-07 01:27:31.396442,0,0,0,0,0,0,55,57,10,0,68,123.15,0,-3.00,-1.00,-1003.00
2024-06-07 01:27:31.453544,0,0,0,0,0,0,55,57,10,0,68,123.07,0,-1.00,0.00,-998.00
2024-06-07 01:27:31.601126,0,0,0,0,0,0,55,57,10,0,68,123.16,0,-2.00,0.00,-1000.00
2024-06-07 01:27:31.657568,0,0,0,0,0,0,55,57,10,0,68,123.20,0,-1.00,0.00,-998.00
2024-06-07 01:27:31.806012,0,0,0,0,0,0,55,57,10,0,68,123.17,0,-2.00,0.00,-998.00
2024-06-07 01:27:31.811960,0,0,0,0,0,0,55,57,10,0,68,123.18,0,-2.00,0.00,-999.00
2024-06-07 01:27:31.915088,0,0,0,0,0,0,55,57,10,0,68,123.20,0,-2.00,0.00,-1000.00
2024-06-07 01:27:32.014838,0,0,0,0,0,0,55,57,10,0,68,123.20,0,-1.00,-1.00,-997.00
2024-06-07 01:27:32.216391,0,0,0,0,0,0,55,57,10,0,68,123.15,0,-2.00,0.00,-1002.00
2024-06-07 01:27:32.218838,0,0,0,0,0,0,55,57,10,0,68,123.17,0,-2.00,-1.00,-1000.00
2024-06-07 01:27:32.320931,0,0,0,0,0,0,55,57,10,0,68,123.11,0,-4.00,-1.00,-997.00
2024-06-07 01:27:32.422763,0,0,0,0,0,0,55,57,10,0,68,123.13,0,-1.00,0.00,-999.00
2024-06-07 01:27:32.524560,0,0,0,0,0,0,55,57,10,0,68,123.16,0,-3.00,-1.00,-1000.00
2024-06-07 01:27:32.626496,0,0,0,0,0,0,55,57,10,0,67,123.15,0,10.00,14.00,-999.00
2024-06-07 01:27:32.728474,0,0,0,0,0,0,55,57,10,0,67,123.15,0,-8.00,-3.00,-996.00
2024-06-07 01:27:32.830496,0,0,0,0,0,0,55,57,10,0,67,123.15,0,20.00,14.00,-998.00
2024-06-07 01:27:32.932468,0,0,2,0,0,0,55,57,10,0,67,123.15,0,16.00,27.00,-1003.00
2024-06-07 01:27:33.034474,0,0,3,0,0,0,55,57,10,0,67,123.15,0,44.00,32.00,-1014.00
2024-06-07 01:27:33.239219,0,0,3,0,0,0,55,57,10,0,67,123.15,0,-31.00,3.00,-1135.00
2024-06-07 01:27:33.239287,0,-1,3,0,0,0,55,57,20,0,67,123.15,0,0.00,-10.00,-1208.00
2024-06-07 01:27:33.340537,0,0,3,0,0,-3,55,57,20,0,67,123.15,0,-13.00,13.00,-1286.00
2024-06-07 01:27:33.442971,0,2,3,0,0,-5,55,57,20,0,67,123.21,0,-22.00,15.00,-1174.00
2024-06-07 01:27:33.549374,0,1,3,0,0,-6,56,58,20,0,67,123.54,0,5.00,-5.00,-1036.00
2024-06-07 01:27:33.648233,0,0,3,0,0,-7,56,58,28,0,67,123.60,1,10.00,-13.00,-1040.00
2024-06-07 01:27:33.748462,0,0,3,0,0,-7,56,58,36,10,67,123.64,1,10.00,-3.00,-950.00
2024-06-07 01:27:33.850451,0,0,3,0,0,-6,56,58,45,20,67,123.73,1,-10.00,20.00,-886.00
2024-06-07 01:27:33.952948,0,0,3,0,0,-6,56,58,53,20,67,123.81,1,-27.00,4.00,-924.00
2024-06-07 01:27:34.054445,0,0,3,0,0,-5,56,58,61,20,67,123.93,1,-6.00,9.00,-909.00
2024-06-07 01:27:34.450038,0,0,3,0,0,-4,56,58,68,30,67,124.00,1,11.00,-17.00,-892.00
2024-06-07 01:27:34.451198,0,0,3,0,0,-3,56,58,73,30,67,124.03,1,36.00,-37.00,-879.00
2024-06-07 01:27:34.451226,0,0,3,0,0,-2,56,58,78,40,67,124.09,1,46.00,-20.00,-922.00
2024-06-07 01:27:34.462356,0,0,3,0,0,-1,56,58,82,40,67,124.08,1,4.00,-8.00,-883.00
2024-06-07 01:27:34.601692,0,0,3,0,0,0,56,58,86,40,67,124.15,1,-29.00,18.00,-971.00
2024-06-07 01:27:34.667136,0,0,3,0,0,0,56,58,87,40,67,124.17,2,1.00,0.00,-954.00
2024-06-07 01:27:34.789309,0,0,3,0,0,0,56,58,90,50,67,124.25,2,0.00,-18.00,-988.00
2024-06-07 01:27:34.877450,0,0,3,0,0,0,56,58,91,50,67,124.24,2,-49.00,15.00,-958.00
2024-06-07 01:27:34.972275,0,0,3,0,0,0,56,58,93,50,67,124.31,2,25.00,-27.00,-948.00
2024-06-07 01:27:35.286513,0,0,3,0,0,0,56,58,94,50,67,124.30,2,37.00,-16.00,-990.00
2024-06-07 01:27:35.287048,0,0,3,0,0,0,56,58,95,50,67,124.25,2,23.00,1.00,-966.00
2024-06-07 01:27:35.399755,-1,0,3,0,0,0,56,58,96,50,67,124.32,2,-22.00,3.00,-967.00
2024-06-07 01:27:35.399966,-1,0,3,0,0,0,56,58,96,50,67,124.31,2,-3.00,-10.00,-977.00
2024-06-07 01:27:35.547077,-1,0,3,0,0,0,56,58,96,50,67,124.26,2,-12.00,-3.00,-967.00
2024-06-07 01:27:35.585562,0,0,3,0,0,0,57,58,96,50,67,124.25,2,-9.00,11.00,-960.00
2024-06-07 01:27:35.761320,0,0,3,0,0,0,57,58,96,50,67,124.26,3,25.00,-26.00,-970.00
2024-06-07 01:27:35.903971,0,0,3,0,0,1,57,58,96,50,67,124.26,3,-5.00,-22.00,-964.00
2024-06-07 01:27:35.936883,0,0,3,0,0,1,57,58,95,50,67,124.26,3,-31.00,2.00,-947.00
2024-06-07 01:27:35.941141,0,0,3,0,0,1,57,58,94,50,67,124.35,3,-21.00,3.00,-915.00
2024-06-07 01:27:36.042951,0,0,3,0,0,1,57,58,93,50,67,124.24,3,12.00,-42.00,-945.00
2024-06-07 01:27:36.208649,0,0,3,0,0,1,57,58,92,50,67,124.24,3,0.00,-20.00,-1001.00
2024-06-07 01:27:36.246997,0,0,3,0,0,1,57,58,91,50,67,124.23,3,-14.00,-1.00,-976.00
2024-06-07 01:27:36.413756,0,0,3,0,0,1,57,58,89,50,67,124.27,3,0.00,0.00,-980.00
2024-06-07 01:27:36.451163,0,0,3,0,0,1,57,58,88,50,67,124.22,3,-27.00,-3.00,-968.00
2024-06-07 01:27:36.553126,-1,0,3,0,0,1,56,59,87,50,67,124.24,3,7.00,-23.00,-1021.00
2024-06-07 01:27:36.720699,-1,0,3,0,0,1,56,59,86,50,67,124.21,4,13.00,-1.00,-1057.00
2024-06-07 01:27:36.756932,-1,0,3,0,0,1,56,59,84,50,67,124.17,4,30.00,-16.00,-1044.00
2024-06-07 01:27:36.925808,0,0,3,0,0,1,56,59,83,50,67,124.25,4,2.00,-1.00,-998.00
2024-06-07 01:27:36.960922,-1,0,3,0,0,0,56,59,82,50,67,124.16,4,-27.00,-6.00,-1008.00
2024-06-07 01:27:37.130142,-1,0,3,0,0,0,56,59,81,50,67,124.14,4,-30.00,26.00,-1014.00
2024-06-07 01:27:37.164845,-1,0,3,0,0,0,56,59,80,50,67,124.14,4,-29.00,15.00,-1018.00
2024-06-07 01:27:37.335090,-1,0,3,0,0,0,56,59,79,40,67,124.17,4,-37.00,27.00,-1018.00
2024-06-07 01:27:37.369167,-1,0,3,0,0,0,56,59,78,40,67,124.22,4,-10.00,6.00,-1004.00
2024-06-07 01:27:37.471045,-1,0,3,0,0,0,56,59,77,40,67,124.14,4,2.00,6.00,-995.00
2024-06-07 01:27:37.641558,-1,0,3,0,0,0,57,59,76,40,67,124.15,4,58.00,-40.00,-1056.00
2024-06-07 01:27:37.675005,0,0,3,0,0,0,57,59,75,40,66,124.16,5,-4.00,7.00,-987.00
2024-06-07 01:27:37.846940,0,0,3,0,0,0,57,59,74,40,66,124.18,5,-12.00,-3.00,-1010.00
2024-06-07 01:27:37.878976,-1,0,3,0,0,0,57,59,74,40,66,124.09,5,14.00,-38.00,-994.00
2024-06-07 01:27:37.983143,-1,0,3,0,0,0,57,59,73,40,66,124.10,5,-15.00,0.00,-978.00
2024-06-07 01:27:38.082849,-1,0,3,0,0,0,57,59,72,40,66,124.12,5,-17.00,18.00,-966.00
2024-06-07 01:27:38.258801,-1,0,3,0,0,0,57,59,71,40,66,124.20,5,-45.00,42.00,-1008.00
2024-06-07 01:27:38.287389,-1,0,3,0,0,0,57,59,71,40,66,124.13,5,-52.00,32.00,-1033.00
2024-06-07 01:27:38.460720,-1,0,3,0,0,0,57,59,71,40,66,124.02,5,31.00,-15.00,-1013.00
2024-06-07 01:27:38.491697,-1,0,3,0,0,0,57,59,71,40,66,124.07,5,7.00,-14.00,-1035.00
2024-06-07 01:27:38.668912,-1,0,3,0,0,0,57,59,71,40,66,124.11,5,-15.00,-2.00,-995.00
2024-06-07 01:27:38.696399,-1,0,3,0,0,0,57,59,71,40,66,124.07,6,3.00,-30.00,-981.00
2024-06-07 01:27:38.797023,-1,0,3,0,0,0,57,59,71,40,66,124.04,6,-13.00,0.00,-1015.00
2024-06-07 01:27:38.898754,0,0,3,0,0,0,57,59,72,40,66,124.14,6,30.00,-15.00,-1067.00
2024-06-07 01:27:39.001250,-1,0,3,0,0,0,57,59,72,40,66,124.08,6,-12.00,7.00,-1025.00
2024-06-07 01:27:39.102835,-1,0,3,0,0,0,57,59,72,40,66,124.12,6,-30.00,14.00,-1004.00
2024-06-07 01:27:39.282783,-1,0,3,0,0,0,57,59,73,40,66,124.07,6,4.00,-27.00,-1013.00
2024-06-07 01:27:39.306686,-1,0,3,0,0,0,57,59,73,40,66,124.10,6,6.00,-4.00,-984.00
2024-06-07 01:27:39.357855,0,0,3,0,0,0,57,59,74,40,66,124.12,6,13.00,-12.00,-1010.00
2024-06-07 01:27:39.459943,0,0,3,0,0,0,57,59,74,40,66,124.11,6,28.00,-27.00,-1012.00
2024-06-07 01:27:39.612737,0,0,3,0,0,0,57,59,74,40,66,124.09,7,-18.00,0.00,-1006.00
2024-06-07 01:27:39.791844,-1,0,3,0,0,0,57,59,74,40,65,124.16,7,64.00,-43.00,-999.00
2024-06-07 01:27:39.791919,-1,0,3,0,0,0,57,59,74,40,65,124.12,7,-4.00,5.00,-999.00
2024-06-07 01:27:39.867821,-2,0,3,0,0,0,57,59,74,40,65,124.19,7,-30.00,21.00,-1026.00
2024-06-07 01:27:39.970510,-2,0,3,0,0,0,57,59,74,40,65,124.16,7,-15.00,25.00,-1033.00
2024-06-07 01:27:40.099749,-2,0,3,0,0,0,57,59,74,40,65,124.14,7,18.00,-2.00,-976.00
2024-06-07 01:27:40.173854,-1,0,3,0,0,0,57,59,73,40,65,124.14,7,-5.00,2.00,-986.00
2024-06-07 01:27:40.304028,-1,0,3,1,0,0,57,59,73,40,65,124.11,7,54.00,-49.00,-1057.00
2024-06-07 01:27:40.378832,0,1,3,1,0,0,57,59,73,40,65,124.16,7,14.00,-22.00,-990.00
2024-06-07 01:27:40.479903,0,1,3,0,0,0,57,59,73,40,65,124.13,7,20.00,-28.00,-997.00
2024-06-07 01:27:40.611691,-1,0,3,0,0,0,56,59,73,40,65,124.12,8,-18.00,-16.00,-1012.00
2024-06-07 01:27:40.683858,-1,0,3,0,0,0,56,59,73,40,65,124.06,8,-17.00,0.00,-990.00
2024-06-07 01:27:40.816539,0,0,3,0,0,0,56,59,74,40,65,124.15,8,-10.00,6.00,-976.00
2024-06-07 01:27:40.887801,-1,0,3,0,0,0,56,59,75,40,65,124.16,8,33.00,-21.00,-1026.00
2024-06-07 01:27:41.021242,-1,0,3,0,0,0,56,59,76,40,65,124.15,8,14.00,-21.00,-1016.00
2024-06-07 01:27:41.091763,-2,0,3,0,0,0,56,59,76,40,65,124.15,8,-36.00,23.00,-1042.00
2024-06-07 01:27:41.193759,-2,0,3,0,0,0,56,59,77,40,65,124.18,8,12.00,-10.00,-1035.00
2024-06-07 01:27:41.296036,-2,0,3,0,0,0,56,59,78,40,65,124.09,8,-2.00,20.00,-946.00
2024-06-07 01:27:41.431286,-2,0,3,0,0,0,56,59,79,40,65,124.13,8,-11.00,3.00,-1001.00
2024-06-07 01:27:41.499945,-1,0,3,0,0,0,56,59,79,40,65,124.08,8,26.00,-25.00,-990.00
2024-06-07 01:27:41.636312,-1,0,3,0,0,0,58,59,80,40,65,124.14,9,-2.00,-7.00,-965.00
2024-06-07 01:27:41.704893,-1,0,3,1,0,0,58,59,80,40,64,124.18,9,-27.00,35.00,-959.00
2024-06-07 01:27:41.847100,-1,0,3,0,0,0,58,59,80,40,64,124.16,9,16.00,-21.00,-982.00
2024-06-07 01:27:41.908046,-1,0,3,0,0,0,58,59,79,40,64,124.16,9,-4.00,-2.00,-977.00
2024-06-07 01:27:42.045547,-2,0,3,0,0,0,58,59,79,40,64,124.09,9,7.00,-8.00,-996.00
2024-06-07 01:27:42.112114,-2,0,3,1,0,0,58,59,78,40,64,124.21,9,-6.00,19.00,-997.00
2024-06-07 01:27:42.249507,-2,0,3,0,0,0,58,59,78,40,64,124.19,9,9.00,-3.00,-1046.00
2024-06-07 01:27:42.315850,-2,0,3,1,0,0,58,59,78,40,64,124.15,9,39.00,-24.00,-1065.00
2024-06-07 01:27:42.455225,-1,0,3,1,0,0,58,59,77,40,64,124.18,9,47.00,-19.00,-1028.00
2024-06-07 01:27:42.520272,-1,0,3,1,0,0,58,59,78,40,64,124.12,9,0.00,-30.00,-998.00
2024-06-07 01:27:42.662565,-1,0,3,1,0,0,58,60,78,40,64,124.17,10,-15.00,19.00,-958.00
2024-06-07 01:27:42.724166,-1,0,3,1,0,0,58,60,77,40,64,124.19,10,-13.00,-13.00,-910.00
2024-06-07 01:27:42.864288,-2,0,3,0,0,0,58,60,77,40,64,124.19,10,43.00,-32.00,-1038.00
2024-06-07 01:27:42.927728,-2,0,3,0,0,0,58,60,76,40,64,124.16,10,-56.00,17.00,-1011.00
2024-06-07 01:27:43.069299,-2,0,3,0,0,0,58,60,76,40,64,124.14,10,13.00,-18.00,-1018.00
2024-06-07 01:27:43.131621,-2,0,3,0,0,0,58,60,76,40,64,124.24,10,4.00,-11.00,-1061.00
2024-06-07 01:27:43.273970,-2,0,3,1,0,0,58,60,77,40,64,124.14,10,-26.00,20.00,-980.00
2024-06-07 01:27:43.335649,-1,0,3,1,0,0,58,60,77,40,64,124.12,10,9.00,-5.00,-1015.00
2024-06-07 01:27:43.386332,-1,0,3,1,0,0,58,60,77,40,64,124.18,10,-9.00,0.00,-1025.00
2024-06-07 01:27:43.488338,-1,0,3,1,0,0,58,60,78,40,64,124.16,10,-21.00,4.00,-1079.00
2024-06-07 01:27:43.683493,-1,0,3,1,0,-1,58,60,80,40,64,124.23,11,13.00,-3.00,-1104.00
2024-06-07 01:27:43.692336,-1,0,3,1,0,-2,58,60,83,40,63,124.29,11,-16.00,-1.00,-1143.00
2024-06-07 01:27:43.888391,-1,0,3,1,0,-3,58,60,86,50,63,124.25,11,-42.00,15.00,-1081.00
2024-06-07 01:27:43.896179,-1,0,3,0,0,-4,58,60,90,50,63,124.29,11,-43.00,9.00,-1039.00
2024-06-07 01:27:43.998232,-1,0,3,0,0,-4,58,60,94,60,63,124.41,11,19.00,-21.00,-1027.00
2024-06-07 01:27:44.194894,-1,0,3,1,0,-4,58,60,98,60,63,124.41,11,25.00,0.00,-1033.00
2024-06-07 01:27:44.202829,0,0,3,0,0,-5,58,60,103,70,63,124.44,11,-50.00,25.00,-1073.00
2024-06-07 01:27:44.399669,-1,0,3,0,0,-5,58,60,108,70,63,124.45,11,21.00,-31.00,-1020.00
2024-06-07 01:27:44.408397,-1,0,3,0,0,-5,58,60,113,80,63,124.57,11,26.00,-19.00,-985.00
2024-06-07 01:27:44.508325,-1,0,3,0,0,-5,58,60,119,80,63,124.57,11,58.00,-33.00,-985.00
2024-06-07 01:27:44.707530,-1,0,3,0,0,-5,58,61,124,90,63,124.64,12,-40.00,14.00,-974.00
2024-06-07 01:27:44.712308,-1,0,3,0,0,-4,58,61,128,90,63,124.73,12,27.00,-25.00,-979.00
2024-06-07 01:27:44.814299,-1,0,3,0,0,-4,58,61,133,100,63,124.78,12,15.00,-27.00,-919.00
2024-06-07 01:27:45.014725,-2,0,3,0,0,-4,58,61,138,100,63,124.83,12,-10.00,-9.00,-992.00
2024-06-07 01:27:45.018484,-2,0,3,0,0,-4,58,61,142,100,63,124.76,12,22.00,-5.00,-974.00
2024-06-07 01:27:45.120314,-2,0,3,0,0,-3,58,61,145,110,63,124.86,12,25.00,-10.00,-998.00
2024-06-07 01:27:45.222239,-1,0,3,1,0,-3,58,61,149,110,63,124.93,12,-21.00,11.00,-970.00
2024-06-07 01:27:45.324693,-1,0,3,1,0,-3,58,61,153,120,63,125.01,12,19.00,-26.00,-935.00
2024-06-07 01:27:45.426140,-1,1,3,0,0,-2,58,61,156,120,63,125.01,12,-7.00,33.00,-952.00
2024-06-07 01:27:45.529406,-2,0,3,0,0,-2,58,61,157,120,63,125.03,12,-47.00,8.00,-960.00
2024-06-07 01:27:45.630313,-2,0,3,0,0,-2,59,60,160,120,62,124.99,13,31.00,-5.00,-982.00
2024-06-07 01:27:45.833853,-2,0,3,0,0,-2,59,60,162,130,62,125.03,13,-3.00,-3.00,-974.00
2024-06-07 01:27:45.834185,-2,0,3,0,0,-1,59,60,164,130,62,125.05,13,14.00,-6.00,-988.00
2024-06-07 01:27:45.936394,-2,0,3,1,0,-1,59,60,167,130,62,125.01,13,45.00,-29.00,-1055.00
2024-06-07 01:27:46.039492,-1,1,3,1,0,-1,59,60,168,130,62,125.04,13,-2.00,-1.00,-950.00
2024-06-07 01:27:46.142996,-1,1,3,1,0,-1,59,60,169,130,62,125.12,13,-20.00,0.00,-977.00
2024-06-07 01:27:46.243505,-1,0,3,0,0,-1,59,60,171,130,62,125.09,13,-29.00,36.00,-974.00
2024-06-07 01:27:46.346237,-2,0,3,0,0,-1,59,60,172,130,62,125.06,13,-16.00,21.00,-1017.00
2024-06-07 01:27:46.448130,-2,0,3,0,0,0,59,60,172,140,62,125.07,13,-59.00,18.00,-965.00
2024-06-07 01:27:46.550499,-2,0,3,1,0,0,59,60,172,140,62,125.10,13,-11.00,-8.00,-936.00
2024-06-07 01:27:46.652148,-2,0,3,1,0,0,58,61,172,140,62,125.10,14,12.00,-52.00,-1032.00
2024-06-07 01:27:46.754637,-1,0,3,1,0,0,58,61,173,140,62,125.11,14,-50.00,23.00,-1002.00
2024-06-07 01:27:46.857970,-1,0,3,1,0,0,58,61,173,140,62,125.07,14,-28.00,14.00,-976.00
2024-06-07 01:27:46.957509,-1,0,3,1,0,0,58,61,173,140,62,125.12,14,-58.00,22.00,-1044.00
2024-06-07 01:27:47.059634,-2,0,3,1,0,0,58,61,173,140,62,125.14,14,-17.00,31.00,-966.00
2024-06-07 01:27:47.110295,-1,0,3,1,0,0,58,61,173,140,62,125.16,14,32.00,-15.00,-1017.00
2024-06-07 01:27:47.269387,-1,0,3,1,0,0,58,61,174,140,62,125.18,14,8.00,-6.00,-970.00
2024-06-07 01:27:47.314152,-1,0,3,1,0,0,58,61,174,140,62,125.09,14,8.00,-38.00,-1035.00
2024-06-07 01:27:47.474134,-1,0,3,1,0,0,58,61,176,140,62,125.11,14,4.00,-17.00,-983.00
2024-06-07 01:27:47.518374,-2,0,3,1,0,0,58,61,176,140,62,125.06,14,-9.00,-8.00,-991.00
2024-06-07 01:27:47.677247,-2,0,3,1,0,0,60,61,176,140,61,125.13,15,10.00,-23.00,-1036.00
2024-06-07 01:27:47.722162,-2,0,3,1,0,0,60,61,176,140,61,125.12,15,42.00,-35.00,-1014.00
2024-06-07 01:27:47.881314,-1,0,3,1,0,0,60,61,178,140,61,125.15,15,-9.00,-4.00,-993.00
2024-06-07 01:27:47.926868,-1,0,3,1,0,0,60,61,177,140,61,125.21,15,25.00,-18.00,-1004.00
2024-06-07 01:27:48.088139,-1,0,3,1,0,0,60,61,177,140,61,125.21,15,44.00,-32.00,-987.00
2024-06-07 01:27:48.131229,-1,0,3,1,0,0,60,61,177,140,61,125.25,15,17.00,-8.00,-983.00
2024-06-07 01:27:48.294069,-1,0,3,1,0,0,60,61,178,140,61,125.25,15,24.00,-20.00,-959.00
2024-06-07 01:27:48.333905,-1,0,3,1,0,0,60,61,178,140,61,125.18,15,-16.00,26.00,-1049.00
2024-06-07 01:27:48.497144,-1,0,3,0,0,0,60,61,178,140,61,125.19,15,25.00,-7.00,-990.00
2024-06-07 01:27:48.539623,-2,0,3,1,0,0,60,61,177,140,61,125.15,15,1.00,6.00,-1007.00
2024-06-07 01:27:48.701981,-1,0,3,1,0,0,59,61,177,140,61,125.19,16,15.00,-28.00,-965.00
2024-06-07 01:27:48.743480,-1,0,3,1,0,1,59,61,176,140,61,125.15,16,-42.00,0.00,-946.00
2024-06-07 01:27:48.906726,-1,0,3,1,0,1,59,61,175,140,61,125.10,16,22.00,-19.00,-941.00
2024-06-07 01:27:48.947327,-1,0,3,1,0,2,59,61,173,130,61,125.14,16,15.00,-19.00,-979.00
2024-06-07 01:27:49.225972,-1,0,3,0,0,2,59,61,169,130,61,125.07,16,-33.00,15.00,-995.00
2024-06-07 01:27:49.226053,-1,0,3,0,0,2,59,61,167,130,61,125.04,16,23.00,-34.00,-1011.00
2024-06-07 01:27:49.253240,-1,0,3,0,0,2,59,61,166,130,61,125.06,16,-4.00,-13.00,-992.00
2024-06-07 01:27:49.368403,-1,0,3,0,0,2,59,61,161,130,61,125.08,16,-18.00,5.00,-1018.00
2024-06-07 01:27:49.502516,-1,0,3,0,0,2,59,61,159,120,61,124.98,16,1.00,12.00,-980.00
2024-06-07 01:27:49.561532,-1,0,3,0,0,2,59,61,156,120,61,124.98,16,31.00,-39.00,-1035.00
2024-06-07 01:27:49.661145,-2,0,3,0,0,2,60,63,152,120,60,124.96,17,-3.00,-16.00,-981.00
2024-06-07 01:27:49.929855,-1,0,3,0,0,2,60,63,151,110,60,124.96,17,27.00,4.00,-1087.00
2024-06-07 01:27:49.929934,-2,0,3,0,0,2,60,63,150,110,60,124.92,17,-28.00,6.00,-1010.00
2024-06-07 01:27:50.015470,-2,0,3,0,0,2,60,63,146,110,60,124.84,17,9.00,-8.00,-1022.00
2024-06-07 01:27:50.106074,-2,0,3,0,0,2,60,63,145,110,60,124.87,17,13.00,-20.00,-1019.00
2024-06-07 01:27:50.287769,-2,0,3,0,0,1,60,63,143,110,60,124.88,17,56.00,-52.00,-1055.00
2024-06-07 01:27:50.287853,-1,0,3,1,0,1,60,63,142,100,60,124.80,17,28.00,-34.00,-975.00
2024-06-07 01:27:50.457116,-1,0,3,1,0,1,60,63,140,100,60,124.80,17,-33.00,20.00,-975.00
2024-06-07 01:27:50.649178,-1,0,3,0,0,1,60,63,138,100,60,124.79,17,-24.00,7.00,-1017.00
2024-06-07 01:27:50.762078,-2,0,3,0,0,1,60,63,137,100,60,124.81,17,36.00,-28.00,-1053.00
2024-06-07 01:27:50.762583,-1,0,3,1,0,1,59,62,134,100,60,124.81,18,-35.00,8.00,-931.00
2024-06-07 01:27:50.783536,-1,1,3,1,0,1,59,62,133,100,60,124.79,18,16.00,-5.00,-1046.00
2024-06-07 01:27:50.905404,-1,0,3,1,0,0,59,62,132,100,60,124.80,18,0.00,-3.00,-1013.00
2024-06-07 01:27:50.947369,-1,0,3,0,0,1,59,62,131,100,60,124.81,18,17.00,-12.00,-1025.00
2024-06-07 01:27:51.067039,-2,0,3,0,0,1,59,62,129,90,60,124.76,18,1.00,-10.00,-987.00
2024-06-07 01:27:51.139892,-2,0,3,0,0,1,59,62,128,90,60,124.78,18,-23.00,-12.00,-1031.00
2024-06-07 01:27:51.263300,-2,0,3,0,0,0,59,62,127,90,60,124.78,18,-21.00,3.00,-999.00
2024-06-07 01:27:51.343823,-3,0,3,0,0,0,59,62,127,90,60,124.77,18,0.00,2.00,-1021.00
2024-06-07 01:27:51.465937,-3,0,3,0,0,0,59,62,127,90,60,124.66,18,6.00,25.00,-1093.00
2024-06-07 01:27:51.547868,-3,0,3,1,0,0,59,62,128,90,60,124.75,18,-17.00,6.00,-1028.00
2024-06-07 01:27:51.671922,-2,0,3,1,0,0,60,63,128,90,59,124.71,19,-36.00,25.00,-1009.00
2024-06-07 01:27:51.754721,-1,1,3,1,0,0,60,63,128,90,59,124.76,19,13.00,-10.00,-962.00
2024-06-07 01:27:51.854674,-1,0,3,1,0,0,60,63,129,90,59,124.73,19,-10.00,6.00,-1003.00
2024-06-07 01:27:51.957015,-1,0,3,1,0,0,60,63,129,90,59,124.82,19,15.00,-15.00,-964.00
2024-06-07 01:27:52.057878,-1,0,3,0,0,0,60,63,130,90,59,124.78,19,36.00,-46.00,-972.00
2024-06-07 01:27:52.183811,-1,0,3,0,0,0,60,63,130,90,59,124.76,19,28.00,-34.00,-947.00
2024-06-07 01:27:52.261873,-2,0,3,0,0,0,60,63,130,90,59,124.80,19,-7.00,0.00,-954.00
2024-06-07 01:27:52.386649,-2,0,3,0,0,0,60,63,130,90,59,124.72,19,4.00,0.00,-993.00
2024-06-07 01:27:52.466045,-2,0,3,0,0,0,60,63,130,90,59,124.76,19,5.00,7.00,-1018.00
2024-06-07 01:27:52.592334,-2,0,3,0,0,0,60,63,130,90,59,124.77,19,-23.00,12.00,-953.00
2024-06-07 01:27:52.670007,-2,0,3,0,0,0,61,62,129,90,59,124.75,20,10.00,-2.00,-983.00
2024-06-07 01:27:52.796209,-2,0,3,1,0,0,61,62,129,90,59,124.77,20,68.00,-51.00,-1017.00
2024-06-07 01:27:52.873812,-1,0,3,1,0,0,61,62,128,90,59,124.80,20,-8.00,-14.00,-960.00
2024-06-07 01:27:53.001844,-1,0,3,1,0,0,61,62,128,90,59,124.75,20,32.00,-23.00,-1071.00
2024-06-07 01:27:53.077741,-1,0,3,0,0,0,61,62,128,90,59,124.72,20,-3.00,4.00,-955.00
2024-06-07 01:27:53.179618,-2,0,3,0,0,0,61,62,128,90,59,124.82,20,-32.00,16.00,-1013.00
2024-06-07 01:27:53.308813,-2,0,3,0,0,0,61,62,127,90,59,124.78,20,-8.00,2.00,-1001.00
2024-06-07 01:27:53.383606,-3,0,3,0,0,0,61,62,126,90,59,124.72,20,19.00,-11.00,-1041.00
2024-06-07 01:27:53.485612,-8,0,3,1,0,0,61,62,127,90,59,124.70,20,52.00,-41.00,-1047.00
2024-06-07 01:27:53.616028,-8,0,3,2,0,0,61,62,126,90,59,124.73,20,-6.00,9.00,-996.00
2024-06-07 01:27:53.689721,-8,0,3,3,0,0,61,62,125,90,58,124.67,21,-22.00,3.00,-1045.00
2024-06-07 01:27:53.825114,-8,0,3,4,0,0,61,62,127,90,58,124.72,21,-75.00,35.00,-995.00
2024-06-07 01:27:53.893583,-8,0,3,5,0,0,61,62,126,90,58,124.70,21,-19.00,6.00,-1010.00
2024-06-07 01:27:53.995576,-8,0,3,6,0,0,61,62,126,90,58,124.66,21,-27.00,0.00,-1002.00
2024-06-07 01:27:54.127247,-7,0,3,7,0,0,61,62,126,90,58,124.61,21,-52.00,-8.00,-1004.00
2024-06-07 01:27:54.199550,-5,-1,3,7,0,0,61,62,125,90,58,124.64,21,0.00,-15.00,-1027.00
2024-06-07 01:27:54.333081,-4,0,3,7,0,0,61,62,126,90,58,124.57,21,-64.00,5.00,-1008.00
2024-06-07 01:27:54.404176,-1,0,3,7,0,0,61,62,126,90,58,124.58,21,-60.00,-7.00,-948.00
2024-06-07 01:27:54.505847,0,0,3,6,0,0,61,62,125,90,58,124.67,21,-22.00,-17.00,-998.00
2024-06-07 01:27:54.556681,2,0,3,5,0,0,61,62,127,90,58,124.71,21,-52.00,12.00,-1025.00
2024-06-07 01:27:54.744844,2,0,3,4,0,0,61,63,128,90,58,124.70,22,-45.00,21.00,-1018.00
2024-06-07 01:27:54.811466,0,0,3,3,0,0,61,63,126,90,58,124.77,22,-57.00,58.00,-961.00
2024-06-07 01:27:54.946265,-1,0,3,2,0,0,61,63,126,90,58,124.77,22,-15.00,21.00,-1036.00
2024-06-07 01:27:54.964225,-1,0,3,2,0,0,61,63,126,90,58,124.73,22,-31.00,36.00,-1039.00
2024-06-07 01:27:55.152125,-1,0,3,2,0,0,61,63,127,90,58,124.75,22,42.00,-23.00,-1035.00
2024-06-07 01:27:55.171458,-1,0,3,2,0,0,61,63,127,90,58,124.76,22,-64.00,27.00,-1031.00
2024-06-07 01:27:55.270501,-1,0,3,2,0,0,61,63,127,90,58,124.79,22,-11.00,7.00,-1028.00
2024-06-07 01:27:55.458403,-1,0,3,2,0,0,61,63,126,90,58,124.74,22,-11.00,-19.00,-988.00
2024-06-07 01:27:55.474740,-2,0,3,2,0,0,61,63,127,90,58,124.77,22,-16.00,10.00,-966.00
2024-06-07 01:27:55.665161,-1,0,3,2,0,0,61,63,126,90,58,124.76,23,0.00,3.00,-985.00
2024-06-07 01:27:55.678559,-1,0,3,2,0,0,61,63,127,90,57,124.78,23,-39.00,17.00,-971.00
2024-06-07 01:27:55.869937,-2,0,3,2,0,0,61,63,126,90,57,124.75,23,-6.00,-3.00,-1086.00
2024-06-07 01:27:55.882532,-2,0,3,2,0,0,61,63,126,90,57,124.70,23,-34.00,32.00,-1017.00
2024-06-07 01:27:55.984483,-2,0,3,2,0,0,61,63,126,90,57,124.68,23,-41.00,16.00,-953.00
2024-06-07 01:27:56.184459,-1,0,3,2,0,0,61,63,126,90,57,124.74,23,24.00,-24.00,-1025.00
2024-06-07 01:27:56.189082,-1,0,3,2,0,0,61,63,126,90,57,124.84,23,43.00,-47.00,-1113.00
2024-06-07 01:27:56.382001,-2,0,3,2,0,0,61,63,126,90,57,124.80,23,1.00,-8.00,-1007.00
2024-06-07 01:27:56.392167,-2,0,3,1,0,0,61,63,127,90,57,124.78,23,5.00,-10.00,-998.00
2024-06-07 01:27:56.494178,-2,0,3,1,0,0,61,63,127,90,57,124.73,23,2.00,2.00,-1024.00
2024-06-07 01:27:56.688595,-2,0,3,2,0,0,61,63,127,90,57,124.78,24,-57.00,52.00,-960.00
2024-06-07 01:27:56.701683,-2,0,3,2,0,0,61,64,127,90,57,124.79,24,-18.00,6.00,-960.00
2024-06-07 01:27:56.800439,-2,0,3,2,0,0,61,64,127,90,57,124.77,24,-20.00,-8.00,-971.00
2024-06-07 01:27:56.995481,-1,0,3,2,0,0,61,64,127,90,57,124.80,24,-19.00,9.00,-1038.00
2024-06-07 01:27:57.007311,-1,0,3,2,0,0,61,64,128,90,57,124.81,24,-15.00,14.00,-975.00
2024-06-07 01:27:57.106734,-1,0,3,2,0,0,61,64,128,90,57,124.77,24,-35.00,9.00,-1005.00
2024-06-07 01:27:57.302513,-1,0,3,2,0,0,61,64,128,90,57,124.79,24,19.00,-12.00,-1002.00
2024-06-07 01:27:57.310410,0,0,3,1,0,0,61,64,128,90,57,124.78,24,22.00,-38.00,-1037.00
2024-06-07 01:27:57.507554,3,0,3,1,0,0,61,64,129,90,57,124.77,24,-15.00,23.00,-915.00
2024-06-07 01:27:57.514431,1,0,3,0,0,0,61,64,129,90,57,124.82,24,39.00,-39.00,-1017.00
2024-06-07 01:27:57.618261,0,0,3,0,0,0,61,64,129,90,57,124.82,25,-3.00,1.00,-1066.00
2024-06-07 01:27:57.718233,0,0,3,0,0,0,62,64,128,90,56,124.89,25,31.00,-15.00,-1015.00
2024-06-07 01:27:57.916386,-1,0,3,0,0,0,62,64,129,90,56,124.88,25,3.00,7.00,-975.00
2024-06-07 01:27:57.924316,0,0,3,0,0,0,62,64,129,90,56,124.85,25,-43.00,17.00,-991.00
2024-06-07 01:27:58.024880,0,0,3,0,0,0,62,64,128,90,56,124.89,25,-29.00,22.00,-990.00
2024-06-07 01:27:58.224120,0,0,3,0,0,0,62,64,129,90,56,124.90,25,16.00,2.00,-1070.00
2024-06-07 01:27:58.228211,-1,0,3,0,0,0,62,64,127,90,56,124.83,25,24.00,-18.00,-974.00
2024-06-07 01:27:58.429087,-1,0,3,0,0,0,62,64,128,90,56,124.89,25,35.00,-16.00,-1021.00
2024-06-07 01:27:58.432170,-1,0,3,0,0,0,62,64,127,90,56,124.89,25,35.00,-18.00,-1010.00
2024-06-07 01:27:58.534132,-1,0,3,0,0,0,62,64,128,90,56,124.86,25,39.00,-19.00,-993.00
2024-06-07 01:27:58.585234,-1,0,3,0,0,0,62,64,127,90,56,124.90,26,2.00,-7.00,-970.00
2024-06-07 01:27:58.738325,-1,0,3,0,0,0,62,64,127,90,56,124.90,26,7.00,3.00,-1023.00
2024-06-07 01:27:58.789197,-1,0,3,0,0,0,62,64,128,90,56,124.84,26,30.00,-33.00,-999.00
2024-06-07 01:27:58.940511,-1,0,3,0,0,0,62,64,127,90,56,124.85,26,0.00,-17.00,-957.00
2024-06-07 01:27:58.993329,-1,0,3,0,0,0,62,64,127,90,56,124.84,26,21.00,-21.00,-969.00
2024-06-07 01:27:59.144807,-1,0,3,0,0,0,62,64,126,90,56,124.89,26,-12.00,19.00,-992.00
2024-06-07 01:27:59.197346,-1,0,3,0,0,0,62,64,126,90,56,124.80,26,-9.00,3.00,-1011.00
2024-06-07 01:27:59.350777,-1,0,3,0,0,0,62,64,126,90,56,124.88,26,26.00,-11.00,-1040.00
2024-06-07 01:27:59.401165,-1,0,3,0,0,0,62,64,127,90,56,124.89,26,16.00,1.00,-938.00
2024-06-07 01:27:59.503219,-1,0,3,0,0,0,62,64,127,90,56,124.85,26,-25.00,10.00,-980.00
2024-06-07 01:27:59.605076,-1,0,3,0,0,0,62,64,126,90,56,124.86,27,38.00,-9.00,-990.00
2024-06-07 01:27:59.760247,0,0,3,0,0,0,62,64,127,90,55,124.87,27,-6.00,1.00,-927.00
2024-06-07 01:27:59.814507,7,0,3,0,0,0,62,64,127,90,55,124.89,27,54.00,-22.00,-1115.00
2024-06-07 01:27:59.910999,8,0,3,-2,0,0,62,64,127,90,55,124.91,27,0.00,-1.00,-1010.00
2024-06-07 01:28:00.066817,7,0,3,-4,0,0,62,64,128,90,55,124.79,27,56.00,-27.00,-1021.00
2024-06-07 01:28:00.115012,6,0,3,-5,0,0,62,64,127,90,55,124.79,27,52.00,-46.00,-1052.00
2024-06-07 01:28:00.271546,5,0,3,-6,0,0,62,64,127,90,55,124.94,27,92.00,-23.00,-997.00
2024-06-07 01:28:00.318894,5,1,3,-6,0,0,62,64,127,90,55,124.93,27,19.00,8.00,-990.00
2024-06-07 01:28:00.478959,5,1,3,-6,0,0,62,64,126,90,55,124.87,27,34.00,-3.00,-995.00
2024-06-07 01:28:00.522838,2,0,3,-7,0,0,62,64,127,90,55,124.87,27,86.00,-34.00,-1041.00
2024-06-07 01:28:00.634072,0,0,3,-7,0,0,62,64,126,90,55,124.88,28,39.00,17.00,-878.00
2024-06-07 01:28:00.728083,-2,0,3,-6,0,0,62,65,126,90,55,124.84,28,56.00,-47.00,-1037.00
2024-06-07 01:28:00.885869,-4,0,3,-5,0,0,62,65,127,90,55,124.90,28,31.00,0.00,-1013.00
2024-06-07 01:28:00.930731,-3,0,3,-4,0,0,62,65,126,90,55,124.89,28,47.00,-32.00,-1053.00
2024-06-07 01:28:01.093195,-2,0,3,-3,0,0,62,65,126,90,55,124.97,28,32.00,-21.00,-1017.00
2024-06-07 01:28:01.134768,-1,0,3,-3,0,0,62,65,126,90,55,124.94,28,-4.00,-7.00,-1002.00
2024-06-07 01:28:01.295897,0,0,3,-3,0,0,62,65,125,90,55,124.94,28,64.00,-15.00,-990.00
2024-06-07 01:28:01.338772,0,0,3,-3,0,0,62,65,126,90,55,124.87,28,21.00,-13.00,-996.00
2024-06-07 01:28:01.500312,0,0,3,-3,0,0,62,65,125,90,55,124.84,28,42.00,3.00,-1064.00
2024-06-07 01:28:01.542771,-1,0,3,-3,0,0,62,65,125,90,55,124.95,28,-45.00,42.00,-990.00
2024-06-07 01:28:01.662502,-3,0,3,-2,0,0,62,65,124,90,54,124.92,29,31.00,-10.00,-1039.00
2024-06-07 01:28:01.750161,-6,0,3,-2,0,0,62,64,124,90,54,124.89,29,55.00,-45.00,-1015.00
2024-06-07 01:28:01.849002,-3,0,3,0,0,0,62,64,124,90,54,124.86,29,-7.00,12.00,-987.00
2024-06-07 01:28:02.012765,-1,0,3,0,0,0,62,64,123,90,54,124.91,29,62.00,-40.00,-1009.00
2024-06-07 01:28:02.052900,-1,0,3,0,0,0,62,64,123,90,54,124.90,29,15.00,-21.00,-984.00
2024-06-07 01:28:02.154995,0,0,3,0,0,0,62,64,124,90,54,124.95,29,51.00,-30.00,-969.00
2024-06-07 01:28:02.256980,0,0,3,0,0,0,62,64,124,90,54,124.92,29,57.00,-41.00,-1023.00
2024-06-07 01:28:02.358933,-1,0,3,0,0,0,62,64,123,90,54,124.97,29,23.00,-31.00,-1033.00
2024-06-07 01:28:02.411237,-2,0,3,0,0,0,62,64,124,90,54,124.89,29,57.00,-32.00,-1046.00
2024-06-07 01:28:02.511936,-2,0,3,0,0,0,62,64,125,90,54,124.88,29,73.00,-48.00,-1054.00
2024-06-07 01:28:02.627214,-2,0,3,0,0,0,62,64,126,90,54,124.93,30,32.00,-17.00,-990.00
2024-06-07 01:28:02.715885,-1,0,3,0,0,0,63,65,127,90,54,124.95,30,2.00,-1.00,-964.00
2024-06-07 01:28:02.831758,-1,0,3,0,0,0,63,65,127,90,54,124.92,30,60.00,-31.00,-1031.00
2024-06-07 01:28:02.919955,-2,0,3,0,0,0,63,65,129,90,54,124.94,30,7.00,-6.00,-969.00
2024-06-07 01:28:03.040930,-2,0,3,0,0,0,63,65,129,90,54,124.95,30,-16.00,6.00,-1030.00
2024-06-07 01:28:03.123783,-3,0,3,0,0,0,63,65,131,90,54,125.01,30,-13.00,5.00,-1011.00
2024-06-07 01:28:03.242650,-2,0,3,0,0,0,63,65,132,90,54,124.97,30,-23.00,40.00,-1011.00
2024-06-07 01:28:03.328153,-2,0,3,0,0,0,63,65,133,90,54,124.95,30,67.00,-49.00,-924.00
2024-06-07 01:28:03.447132,-2,0,3,0,0,0,63,65,132,90,54,124.94,30,3.00,-11.00,-1036.00
2024-06-07 01:28:03.531776,-1,0,3,0,0,0,63,65,133,100,54,124.89,30,-9.00,-12.00,-964.00
2024-06-07 01:28:03.651830,-2,0,3,0,0,0,63,65,133,100,53,124.92,31,-51.00,16.00,-948.00
2024-06-07 01:28:03.735775,-2,0,3,0,0,0,64,65,132,90,53,124.91,31,-19.00,0.00,-991.00
2024-06-07 01:28:03.861264,-1,0,3,0,0,0,64,65,132,90,53,124.92,31,1.00,-19.00,-966.00
2024-06-07 01:28:03.940156,-1,0,3,0,0,0,64,65,131,90,53,124.88,31,-33.00,6.00,-993.00
2024-06-07 01:28:04.112874,0,-1,3,0,0,0,64,65,130,90,53,124.96,31,-12.00,5.00,-978.00
2024-06-07 01:28:04.143549,2,-7,3,0,0,0,64,65,132,90,53,124.96,31,10.00,-9.00,-1044.00
2024-06-07 01:28:04.288358,0,-7,3,0,-2,0,64,65,130,90,53,124.90,31,-23.00,34.00,-1031.00
2024-06-07 01:28:04.371983,0,-3,3,0,-3,0,64,65,129,90,53,124.93,31,-53.00,64.00,-997.00
2024-06-07 01:28:04.462134,0,-1,3,0,-4,0,64,65,128,90,53,124.91,31,-12.00,19.00,-1017.00
2024-06-07 01:28:04.553393,0,1,3,0,-4,0,64,65,128,90,53,124.94,31,-16.00,59.00,-959.00
2024-06-07 01:28:04.653726,0,2,3,0,-3,0,64,65,127,90,53,124.96,32,35.00,20.00,-1105.00
2024-06-07 01:28:04.755586,0,0,3,0,-2,0,63,65,127,90,53,124.99,32,24.00,-11.00,-1007.00
2024-06-07 01:28:04.966805,0,0,3,0,-2,0,63,65,126,90,53,124.89,32,-15.00,37.00,-1043.00
2024-06-07 01:28:05.059081,0,0,3,0,-2,0,63,65,126,90,53,124.91,32,47.00,-5.00,-1023.00
2024-06-07 01:28:05.061399,0,-1,3,0,-2,0,63,65,126,90,53,124.91,32,8.00,-1.00,-975.00
2024-06-07 01:28:05.202491,0,0,3,0,-2,0,63,65,125,90,53,124.97,32,-1.00,-7.00,-987.00
2024-06-07 01:28:05.350729,0,0,3,0,-3,0,63,65,125,90,53,124.88,32,46.00,-19.00,-1027.00
2024-06-07 01:28:05.370917,0,1,3,0,-3,0,63,65,125,90,53,124.91,32,15.00,20.00,-971.00
2024-06-07 01:28:05.505800,0,2,3,0,-2,0,63,65,124,90,53,124.90,32,-4.00,5.00,-1036.00
2024-06-07 01:28:05.648996,-2,2,3,0,-2,0,63,65,124,90,53,124.89,32,75.00,-13.00,-1011.00
2024-06-07 01:28:05.673502,-5,2,3,0,-1,0,63,65,122,90,52,124.88,33,-8.00,7.00,-1013.00
2024-06-07 01:28:05.811866,-5,2,3,1,0,0,64,66,122,90,52,124.83,33,13.00,-3.00,-1067.00
2024-06-07 01:28:05.955233,-3,1,3,1,0,0,64,66,122,90,52,124.90,33,8.00,-6.00,-1009.00
2024-06-07 01:28:05.979396,1,0,3,1,0,0,64,66,122,90,52,124.88,33,-4.00,-12.00,-1069.00
2024-06-07 01:28:06.120686,3,0,3,0,0,0,64,66,123,90,52,124.90,33,-55.00,20.00,-1034.00
2024-06-07 01:28:06.262983,0,1,3,0,0,0,64,66,122,90,52,124.93,33,35.00,-21.00,-1025.00
2024-06-07 01:28:06.263192,-1,1,3,0,0,0,64,66,122,90,52,124.87,33,-58.00,32.00,-970.00
2024-06-07 01:28:06.429321,-1,1,3,0,0,0,64,66,122,90,52,124.92,33,50.00,-39.00,-1004.00
2024-06-07 01:28:06.439291,-1,1,3,0,0,0,64,66,123,90,52,124.91,33,27.00,-11.00,-970.00
2024-06-07 01:28:06.570710,0,1,3,0,0,0,64,66,123,90,52,124.89,33,36.00,-12.00,-1061.00
2024-06-07 01:28:06.734685,0,1,3,0,0,0,64,66,123,90,52,124.90,34,9.00,-34.00,-992.00
2024-06-07 01:28:06.800887,0,1,3,0,0,0,63,66,123,90,52,124.89,34,-20.00,-13.00,-972.00
2024-06-07 01:28:06.846420,0,1,3,0,0,0,63,66,124,90,52,124.89,34,-46.00,10.00,-922.00
2024-06-07 01:28:07.030646,0,1,3,0,0,0,63,66,123,90,52,124.86,34,-65.00,24.00,-955.00
2024-06-07 01:28:07.050458,0,1,3,0,0,0,63,66,124,90,52,124.89,34,-6.00,5.00,-940.00
2024-06-07 01:28:07.234915,0,1,3,0,0,0,63,66,123,90,52,124.95,34,27.00,-20.00,-1018.00
2024-06-07 01:28:07.254307,0,1,3,0,0,0,63,66,124,90,52,124.99,34,5.00,-44.00,-1088.00
2024-06-07 01:28:07.439132,-1,1,3,0,0,0,63,66,126,90,52,124.92,34,-22.00,-11.00,-961.00
2024-06-07 01:28:07.458214,-1,1,3,0,0,0,63,66,126,90,52,124.86,34,36.00,-49.00,-990.00
2024-06-07 01:28:07.560432,-1,0,3,0,0,0,63,66,127,90,52,124.89,34,-47.00,38.00,-936.00
2024-06-07 01:28:07.664578,-1,1,3,0,0,0,63,66,128,90,51,124.90,35,12.00,-28.00,-996.00
2024-06-07 01:28:07.764601,0,1,3,0,0,0,64,66,129,90,51,124.87,35,-27.00,0.00,-939.00
2024-06-07 01:28:07.866440,0,1,3,0,0,0,64,66,130,90,51,124.90,35,9.00,-44.00,-1024.00
2024-06-07 01:28:07.968669,0,1,3,0,0,0,64,66,130,90,51,124.91,35,18.00,-22.00,-981.00
2024-06-07 01:28:08.122925,0,1,3,0,0,0,64,66,130,90,51,124.90,35,23.00,-23.00,-1009.00
2024-06-07 01:28:08.172307,0,1,3,0,0,0,64,66,130,90,51,124.96,35,-2.00,-32.00,-978.00
2024-06-07 01:28:08.362135,-1,0,3,0,0,0,64,66,130,90,51,124.93,35,-31.00,-28.00,-977.00
2024-06-07 01:28:08.376147,-1,3,3,0,0,0,64,66,129,90,51,124.88,35,-26.00,2.00,-1006.00
2024-06-07 01:28:08.564865,-1,8,3,0,1,0,64,66,129,90,51,124.90,35,31.00,-11.00,-1003.00
2024-06-07 01:28:08.580158,-1,6,3,0,2,0,64,66,127,90,51,124.88,35,20.00,-41.00,-973.00
2024-06-07 01:28:08.769689,-1,4,3,0,3,0,64,66,127,90,51,124.86,36,-14.00,-15.00,-973.00
2024-06-07 01:28:08.784129,-1,2,3,0,3,0,64,66,125,90,51,124.90,36,33.00,-39.00,-1007.00
2024-06-07 01:28:08.974481,0,0,3,0,3,0,64,66,126,90,51,124.88,36,-30.00,-29.00,-1042.00
2024-06-07 01:28:08.988265,0,0,3,0,3,0,64,66,124,90,51,124.85,36,-106.00,35.00,-987.00
2024-06-07 01:28:09.179252,0,0,3,0,3,0,64,66,122,90,51,124.82,36,34.00,-24.00,-1083.00
2024-06-07 01:28:09.192151,-1,0,3,0,2,0,64,66,123,90,51,124.91,36,16.00,-25.00,-1023.00
2024-06-07 01:28:09.384072,0,0,3,0,2,0,64,66,122,90,51,124.87,36,-16.00,-15.00,-1034.00
2024-06-07 01:28:09.395985,0,0,3,0,2,0,64,66,121,90,51,124.86,36,16.00,-25.00,-997.00
2024-06-07 01:28:09.588831,0,1,3,0,1,0,64,66,121,90,51,124.84,36,-16.00,-17.00,-943.00
2024-06-07 01:28:09.599949,0,2,3,0,1,0,64,66,122,90,51,124.77,36,-5.00,-33.00,-939.00
2024-06-07 01:28:09.795383,-1,2,3,0,2,0,64,66,121,90,50,124.77,37,23.00,-32.00,-1065.00
2024-06-07 01:28:09.804800,-1,1,3,0,2,0,65,67,121,90,50,124.83,37,-26.00,18.00,-944.00
2024-06-07 01:28:09.998415,-1,1,3,0,2,0,65,67,120,90,50,124.84,37,18.00,-14.00,-964.00
2024-06-07 01:28:10.009437,-1,0,3,0,2,0,65,67,119,90,50,124.79,37,-29.00,-16.00,-961.00
2024-06-07 01:28:10.203219,-2,0,3,0,1,0,65,67,120,90,50,124.84,37,2.00,-11.00,-1015.00
2024-06-07 01:28:10.214635,-4,0,3,0,1,0,65,67,120,90,50,124.80,37,65.00,-52.00,-925.00
2024-06-07 01:28:10.265079,-3,0,3,0,1,0,65,67,120,90,50,124.77,37,-2.00,-21.00,-973.00
2024-06-07 01:28:10.367603,-2,0,3,1,1,0,65,67,120,90,50,124.80,37,0.00,-24.00,-1077.00
2024-06-07 01:28:10.470312,-2,-1,3,1,1,0,65,67,119,90,50,124.82,37,-44.00,-11.00,-944.00
2024-06-07 01:28:10.568974,0,-2,3,1,0,0,65,67,120,90,50,124.85,38,-3.00,-36.00,-1039.00
2024-06-07 01:28:10.671112,3,0,3,1,0,0,65,67,121,90,50,124.89,38,46.00,-51.00,-1018.00
2024-06-07 01:28:10.817551,1,0,3,0,0,0,65,67,121,90,50,124.87,38,-90.00,33.00,-1062.00
2024-06-07 01:28:10.879163,-2,0,3,0,0,0,65,67,123,90,50,124.84,38,-22.00,-6.00,-999.00
2024-06-07 01:28:10.976928,-4,0,3,0,0,0,65,67,124,90,50,124.83,38,61.00,-4.00,-1029.00
2024-06-07 01:28:11.126778,-3,0,3,0,0,0,65,67,124,90,50,124.93,38,12.00,-32.00,-1051.00
2024-06-07 01:28:11.180924,-3,0,3,1,0,0,65,67,124,90,50,124.91,38,-24.00,12.00,-953.00
2024-06-07 01:28:11.330823,-2,0,3,1,0,0,65,67,126,90,50,124.93,38,-2.00,0.00,-1006.00
2024-06-07 01:28:11.385143,0,0,3,1,0,0,65,67,126,90,50,124.89,38,-30.00,4.00,-963.00
2024-06-07 01:28:11.534541,0,0,3,1,0,0,65,67,127,90,50,124.88,38,-14.00,-16.00,-1005.00
2024-06-07 01:28:11.589006,0,0,3,1,0,0,65,67,126,90,50,124.87,39,-30.00,-29.00,-1053.00
2024-06-07 01:28:11.739918,0,0,3,0,0,0,65,67,127,90,49,124.84,39,-59.00,10.00,-983.00
2024-06-07 01:28:11.792938,-1,0,3,0,0,0,64,67,127,90,49,124.91,39,-24.00,40.00,-906.00
2024-06-07 01:28:11.944031,0,0,3,0,0,0,64,67,126,90,49,124.81,39,61.00,0.00,-1042.00
2024-06-07 01:28:11.997046,1,1,3,0,0,0,64,67,126,90,49,124.90,39,32.00,-39.00,-985.00
2024-06-07 01:28:12.153568,0,1,3,0,0,0,64,67,127,90,49,124.81,39,35.00,18.00,-1027.00
2024-06-07 01:28:12.200999,0,1,3,0,0,0,64,67,125,90,49,124.88,39,-19.00,6.00,-1108.00
2024-06-07 01:28:12.360332,0,1,3,0,0,0,64,67,125,90,49,124.92,39,-13.00,6.00,-968.00
2024-06-07 01:28:12.406466,0,1,3,0,0,0,64,67,125,90,49,124.92,39,-44.00,28.00,-1021.00
2024-06-07 01:28:12.507048,0,1,3,0,0,0,64,67,125,90,49,124.91,39,-33.00,8.00,-997.00
2024-06-07 01:28:12.663135,-1,1,3,0,0,0,64,67,124,90,49,124.90,40,2.00,-32.00,-985.00
2024-06-07 01:28:12.711300,-1,1,3,0,0,0,64,67,124,90,49,124.91,40,72.00,-39.00,-980.00
2024-06-07 01:28:12.867362,-1,0,3,0,0,0,65,67,123,90,49,124.94,40,36.00,-38.00,-1090.00
2024-06-07 01:28:12.919358,-1,1,3,0,0,0,65,67,123,90,49,124.88,40,51.00,-58.00,-1057.00
2024-06-07 01:28:13.016922,0,1,3,0,0,0,65,67,123,90,49,124.84,40,28.00,-35.00,-972.00
2024-06-07 01:28:13.173085,0,1,3,0,0,0,65,67,123,90,49,124.90,40,46.00,-46.00,-971.00
2024-06-07 01:28:13.221798,0,1,3,0,0,0,65,67,122,90,49,124.93,40,16.00,12.00,-1065.00
2024-06-07 01:28:13.335397,0,1,3,0,0,0,65,67,121,90,49,124.90,40,58.00,-17.00,-1065.00
2024-06-07 01:28:13.431030,-1,0,3,0,0,0,65,67,120,90,49,124.90,40,-14.00,6.00,-916.00
2024-06-07 01:28:13.527221,-1,0,7,0,0,0,65,67,121,90,49,124.85,40,15.00,-38.00,-939.00
2024-06-07 01:28:13.649044,-1,0,12,0,0,0,65,67,120,90,49,124.84,41,38.00,-59.00,-944.00
2024-06-07 01:28:13.730669,-1,0,18,0,0,0,65,67,120,90,48,124.83,41,35.00,-7.00,-1057.00
2024-06-07 01:28:13.889432,-1,0,24,0,0,0,65,67,121,90,48,124.86,41,34.00,-17.00,-983.00
2024-06-07 01:28:13.935285,-1,0,30,0,0,0,65,67,120,90,48,124.75,41,-48.00,11.00,-1048.00
2024-06-07 01:28:14.094221,-1,0,37,0,0,0,65,67,120,90,48,124.86,41,15.00,-40.00,-970.00
2024-06-07 01:28:14.138778,-1,0,43,0,0,0,65,67,120,90,48,124.88,41,-14.00,3.00,-1061.00
2024-06-07 01:28:14.189705,-1,0,49,0,0,0,65,67,120,90,48,124.85,41,-33.00,10.00,-985.00
2024-06-07 01:28:14.291532,-1,0,55,0,0,0,65,67,119,90,48,124.81,41,4.00,-15.00,-946.00
2024-06-07 01:28:14.403505,-1,0,61,0,0,0,65,67,119,90,48,124.83,41,-28.00,-13.00,-1011.00
2024-06-07 01:28:14.496414,-1,-1,67,0,0,0,65,67,120,90,48,124.85,41,-32.00,8.00,-1000.00
2024-06-07 01:28:14.598480,-1,-1,73,0,0,0,65,67,120,90,48,124.89,42,8.00,-6.00,-1017.00
2024-06-07 01:28:14.709619,-1,-1,79,0,0,0,65,67,119,90,48,124.83,42,-48.00,2.00,-1049.00
2024-06-07 01:28:14.803491,-1,0,85,0,0,0,66,67,121,90,48,124.88,42,24.00,-47.00,-989.00
2024-06-07 01:28:14.903501,-1,-1,91,0,0,0,66,67,121,90,48,124.86,42,-27.00,-1.00,-1107.00
2024-06-07 01:28:15.005829,0,-1,97,0,0,0,66,67,122,90,48,124.82,42,-28.00,10.00,-985.00
2024-06-07 01:28:15.108183,0,-1,103,0,0,0,66,67,122,90,48,124.90,42,-27.00,-9.00,-1014.00
2024-06-07 01:28:15.223602,0,-1,110,0,0,0,66,67,123,90,48,124.92,42,6.00,41.00,-945.00
2024-06-07 01:28:15.311564,0,-1,116,0,0,0,66,67,122,90,48,124.85,42,-48.00,50.00,-913.00
2024-06-07 01:28:15.425339,0,-1,122,0,0,0,66,67,123,90,48,124.89,42,-7.00,44.00,-1002.00
2024-06-07 01:28:15.515688,0,-2,128,0,0,0,66,67,123,90,48,124.91,42,-18.00,20.00,-976.00
2024-06-07 01:28:15.630474,0,-2,134,0,0,0,66,67,123,90,48,124.84,43,-25.00,39.00,-974.00
2024-06-07 01:28:15.719635,0,-2,140,0,0,0,66,67,122,90,47,124.91,43,-55.00,34.00,-999.00
2024-06-07 01:28:15.834942,0,-1,147,0,0,0,65,68,122,90,47,124.93,43,-22.00,1.00,-972.00
2024-06-07 01:28:15.923579,0,-1,153,0,0,0,65,68,121,90,47,124.93,43,3.00,22.00,-992.00
2024-06-07 01:28:16.029475,0,-1,159,0,0,0,65,68,122,90,47,124.91,43,11.00,11.00,-1041.00
2024-06-07 01:28:16.131051,0,0,165,0,0,0,65,68,122,90,47,124.83,43,9.00,-21.00,-1025.00
2024-06-07 01:28:16.230439,0,0,171,0,0,0,65,68,122,90,47,124.91,43,68.00,-3.00,-947.00
2024-06-07 01:28:16.347998,1,0,177,0,0,0,65,68,123,90,47,124.95,43,66.00,15.00,-1030.00
2024-06-07 01:28:16.434356,0,0,-176,0,0,0,65,68,123,90,47,124.84,43,41.00,0.00,-1053.00
2024-06-07 01:28:16.552884,1,0,-169,0,0,0,65,68,124,90,47,124.95,43,-16.00,20.00,-997.00
2024-06-07 01:28:16.638456,1,0,-163,0,0,0,65,68,124,90,47,124.96,44,13.00,1.00,-987.00
2024-06-07 01:28:16.740844,1,0,-157,0,0,0,65,68,125,90,47,124.99,44,-8.00,6.00,-1004.00
2024-06-07 01:28:16.860328,0,0,-151,0,0,0,66,68,126,90,47,124.97,44,-15.00,13.00,-973.00
2024-06-07 01:28:16.945201,1,0,-145,0,0,0,66,68,126,90,47,124.95,44,77.00,-41.00,-1065.00
2024-06-07 01:28:17.064663,1,0,-139,0,0,0,66,68,127,90,47,124.99,44,-57.00,0.00,-969.00
2024-06-07 01:28:17.148377,1,1,-133,0,0,0,66,68,129,90,47,124.90,44,0.00,-25.00,-1032.00
2024-06-07 01:28:17.269336,0,1,-127,0,0,0,66,68,128,90,47,124.93,44,-17.00,23.00,-988.00
2024-06-07 01:28:17.352767,0,0,-121,0,0,0,66,68,130,90,47,124.97,44,-64.00,41.00,-939.00
2024-06-07 01:28:17.475030,0,1,-115,0,0,0,66,68,130,90,47,124.95,44,-3.00,-5.00,-995.00
2024-06-07 01:28:17.556370,1,0,-109,0,0,0,66,68,131,90,47,124.91,44,11.00,-4.00,-1062.00
2024-06-07 01:28:17.607645,0,1,-102,0,0,0,66,68,130,90,46,125.03,45,4.00,-6.00,-1014.00
2024-06-07 01:28:17.781463,0,1,-96,0,0,0,66,68,131,90,46,125.04,45,-15.00,52.00,-1106.00
2024-06-07 01:28:17.862328,0,1,-90,0,0,0,66,68,131,90,46,124.99,45,40.00,-12.00,-989.00
2024-06-07 01:28:17.913609,0,1,-84,0,0,0,66,68,132,90,46,125.02,45,-17.00,2.00,-981.00
2024-06-07 01:28:18.088493,0,0,-78,0,0,0,66,68,133,90,46,124.94,45,82.00,-47.00,-1088.00
2024-06-07 01:28:18.117317,0,0,-71,0,0,0,66,68,133,90,46,125.04,45,-49.00,1.00,-970.00
2024-06-07 01:28:18.219876,0,1,-65,0,0,0,66,68,133,90,46,125.05,45,-8.00,-3.00,-981.00
2024-06-07 01:28:18.321270,0,1,-59,0,0,0,66,68,133,90,46,125.07,45,41.00,-35.00,-1009.00
2024-06-07 01:28:18.498548,0,1,-53,0,0,0,66,68,134,90,46,125.07,45,41.00,-35.00,-963.00
2024-06-07 01:28:18.526171,0,1,-46,0,0,0,66,68,133,90,46,125.00,45,25.00,-22.00,-984.00
2024-06-07 01:28:18.701900,0,1,-40,0,0,0,66,68,134,100,46,125.01,46,-42.00,32.00,-931.00
2024-06-07 01:28:18.730218,0,0,-34,0,0,0,66,68,134,100,46,125.02,46,-67.00,35.00,-930.00
2024-06-07 01:28:18.907661,0,0,-27,0,0,0,66,67,133,100,46,125.05,46,24.00,-13.00,-1018.00
2024-06-07 01:28:18.934152,0,0,-21,0,0,0,66,67,134,90,46,125.04,46,-13.00,-15.00,-1018.00
2024-06-07 01:28:19.115369,0,0,-15,0,0,0,66,67,133,90,46,125.00,46,-10.00,10.00,-986.00
2024-06-07 01:28:19.140451,0,0,-10,0,0,0,66,67,133,90,46,124.99,46,55.00,-27.00,-1076.00
2024-06-07 01:28:19.329388,0,0,-6,0,0,0,66,67,133,90,46,124.97,46,-42.00,14.00,-984.00
2024-06-07 01:28:19.342175,0,0,-3,0,0,0,66,67,133,90,46,125.00,46,-13.00,11.00,-984.00
2024-06-07 01:28:19.444253,0,0,-1,0,0,0,66,67,132,90,46,125.10,46,-25.00,19.00,-916.00
2024-06-07 01:28:19.599444,0,0,0,0,0,0,66,67,132,90,46,125.08,46,-17.00,25.00,-992.00
2024-06-07 01:28:19.684284,0,0,0,0,0,0,66,67,132,90,45,125.07,47,20.00,-21.00,-999.00
2024-06-07 01:28:19.774758,0,0,1,0,0,0,66,67,131,90,45,125.08,47,-5.00,16.00,-1031.00
2024-06-07 01:28:19.870207,0,0,2,0,0,0,66,68,132,90,45,125.01,47,-26.00,27.00,-1015.00
2024-06-07 01:28:19.956933,0,0,2,0,0,0,66,68,131,90,45,124.99,47,20.00,11.00,-1025.00
2024-06-07 01:28:20.056319,0,0,2,0,0,0,66,68,131,90,45,125.06,47,32.00,-7.00,-1067.00
2024-06-07 01:28:20.248929,0,0,2,0,0,0,66,68,130,90,45,125.04,47,20.00,8.00,-991.00
2024-06-07 01:28:20.260240,0,0,2,0,0,0,66,68,129,90,45,125.00,47,108.00,-51.00,-1123.00
2024-06-07 01:28:20.392434,0,0,2,0,0,0,66,68,128,90,45,125.06,47,-10.00,18.00,-1021.00
2024-06-07 01:28:20.556136,0,0,2,0,0,0,66,68,128,90,45,124.94,47,22.00,0.00,-1007.00
2024-06-07 01:28:20.566139,0,0,2,0,0,0,66,68,128,90,45,125.01,47,0.00,2.00,-1022.00
2024-06-07 01:28:20.699929,0,0,2,0,0,0,66,68,128,90,45,124.96,48,-10.00,13.00,-1021.00
2024-06-07 01:28:20.973952,0,0,2,0,0,0,66,68,127,90,45,124.99,48,-7.00,9.00,-940.00
2024-06-07 01:28:20.974424,0,0,2,0,0,0,66,68,126,90,45,125.04,48,-14.00,12.00,-1002.00
2024-06-07 01:28:21.161104,0,0,2,0,0,0,66,68,125,90,45,125.00,48,-30.00,23.00,-977.00
2024-06-07 01:28:21.178108,0,0,2,0,0,0,66,68,126,90,45,125.02,48,-12.00,12.00,-981.00
2024-06-07 01:28:21.280809,0,0,2,0,0,0,66,68,126,90,45,125.03,48,16.00,-6.00,-988.00
2024-06-07 01:28:21.331233,0,0,2,0,0,0,66,68,125,90,45,125.01,48,30.00,-34.00,-1028.00
2024-06-07 01:28:21.468057,0,0,2,0,0,0,66,68,125,90,45,124.94,48,-32.00,0.00,-974.00
2024-06-07 01:28:21.539245,0,0,1,0,0,0,66,68,124,90,45,124.91,48,-31.00,7.00,-943.00
2024-06-07 01:28:21.637193,0,0,2,0,0,0,66,68,124,90,44,124.98,49,3.00,-5.00,-1011.00
2024-06-07 01:28:21.739163,0,0,2,0,0,0,66,68,124,90,44,125.04,49,-5.00,-12.00,-1023.00
2024-06-07 01:28:21.840988,0,0,1,0,0,0,67,69,124,90,44,125.00,49,71.00,-44.00,-1023.00
2024-06-07 01:28:21.982213,0,0,-3,0,0,0,67,69,123,90,44,125.02,49,-9.00,6.00,-1004.00
2024-06-07 01:28:22.045988,0,0,-9,0,0,0,67,69,123,90,44,125.00,49,-9.00,-9.00,-967.00
2024-06-07 01:28:22.183420,0,0,-15,0,0,0,67,69,123,90,44,125.01,49,-13.00,7.00,-1021.00
2024-06-07 01:28:22.249856,0,0,-21,0,0,0,67,69,123,90,44,125.02,49,0.00,1.00,-983.00
2024-06-07 01:28:22.390980,0,0,-27,0,0,0,67,69,123,90,44,124.98,49,-23.00,24.00,-1022.00
2024-06-07 01:28:22.454650,-1,0,-33,0,0,0,67,69,123,90,44,125.01,49,-85.00,54.00,-903.00
2024-06-07 01:28:22.556316,0,0,-39,0,0,0,67,69,123,90,44,124.95,49,28.00,-21.00,-946.00
2024-06-07 01:28:22.658411,0,0,-45,0,0,0,67,69,124,90,44,125.01,50,2.00,5.00,-1053.00
2024-06-07 01:28:22.800341,0,0,-51,0,0,0,67,69,124,90,44,124.97,50,-3.00,1.00,-970.00
2024-06-07 01:28:22.861827,0,0,-57,0,0,0,66,69,125,90,44,125.05,50,6.00,1.00,-984.00
2024-06-07 01:28:23.004903,0,0,-63,0,0,0,66,69,125,90,44,125.00,50,14.00,-13.00,-982.00
2024-06-07 01:28:23.067510,0,0,-68,0,0,0,66,69,125,90,44,124.98,50,-39.00,28.00,-997.00
2024-06-07 01:28:23.167715,0,1,-74,0,0,0,66,69,126,90,44,125.08,50,32.00,-40.00,-1023.00
2024-06-07 01:28:23.311471,0,1,-80,0,0,0,66,69,127,90,44,125.04,50,-2.00,8.00,-979.00
2024-06-07 01:28:23.371875,0,1,-86,0,0,0,66,69,126,90,44,125.09,50,-12.00,6.00,-1041.00
2024-06-07 01:28:23.516680,0,1,-92,0,0,0,66,69,126,90,44,125.03,50,62.00,-30.00,-1056.00
2024-06-07 01:28:23.575930,0,0,-98,0,0,0,66,69,128,90,44,125.10,50,12.00,-16.00,-990.00
2024-06-07 01:28:23.721154,0,0,-104,0,0,0,66,69,127,90,43,125.09,51,-23.00,12.00,-918.00
2024-06-07 01:28:23.782837,0,0,-110,0,0,0,66,69,129,90,43,125.04,51,-18.00,-2.00,-974.00
2024-06-07 01:28:23.882756,0,0,-116,0,0,0,67,69,129,90,43,125.01,51,0.00,-12.00,-1021.00
2024-06-07 01:28:23.983803,0,0,-122,0,0,0,67,69,129,90,43,125.09,51,-16.00,2.00,-1017.00
2024-06-07 01:28:24.135164,0,0,-128,0,0,0,67,69,130,90,43,125.06,51,-24.00,2.00,-979.00
2024-06-07 01:28:24.190596,1,0,-134,0,0,0,67,69,131,90,43,125.01,51,22.00,0.00,-1014.00
2024-06-07 01:28:24.289735,1,0,-140,0,0,0,67,69,131,90,43,125.08,51,4.00,-10.00,-979.00
2024-06-07 01:28:24.437510,1,0,-146,0,0,0,67,69,131,90,43,125.13,51,27.00,-8.00,-1014.00
2024-06-07 01:28:24.494455,1,0,-152,0,0,0,67,69,132,90,43,125.10,51,47.00,-1.00,-1044.00
2024-06-07 01:28:24.595726,1,0,-158,0,0,0,67,69,133,90,43,125.08,51,24.00,-3.00,-1006.00
2024-06-07 01:28:24.744805,1,0,-164,0,0,0,67,69,132,90,43,125.05,52,14.00,13.00,-979.00
2024-06-07 01:28:24.799688,1,0,-170,0,0,0,67,69,132,90,43,125.12,52,-1.00,24.00,-993.00
2024-06-07 01:28:24.950739,0,0,178,0,0,0,66,69,132,90,43,125.11,52,34.00,-15.00,-1007.00
2024-06-07 01:28:25.003733,0,0,172,0,0,0,66,69,133,90,43,125.10,52,13.00,-10.00,-999.00
2024-06-07 01:28:25.152879,1,0,166,0,0,0,66,69,133,90,43,125.06,52,21.00,-30.00,-967.00
2024-06-07 01:28:25.207696,1,0,160,0,0,0,66,69,133,90,43,125.07,52,-11.00,1.00,-968.00
2024-06-07 01:28:25.362161,1,0,154,0,0,0,66,69,133,90,43,125.08,52,8.00,11.00,-996.00
2024-06-07 01:28:25.411898,1,0,147,0,0,0,66,69,132,90,43,125.08,52,-50.00,60.00,-971.00
2024-06-07 01:28:25.462625,1,0,141,0,0,0,66,69,132,90,43,125.07,52,-1.00,0.00,-1001.00
2024-06-07 01:28:25.564780,1,0,135,0,0,0,66,69,132,90,43,125.05,53,3.00,-12.00,-982.00
2024-06-07 01:28:25.666913,1,-1,129,0,0,0,66,69,132,90,42,125.10,53,17.00,13.00,-1005.00
2024-06-07 01:28:25.768648,1,-1,123,0,0,0,66,69,132,90,42,125.14,53,-2.00,31.00,-1008.00
2024-06-07 01:28:25.972029,0,-1,117,0,0,0,66,69,132,90,42,125.04,53,2.00,13.00,-992.00
2024-06-07 01:28:25.972700,0,-1,111,0,0,0,66,69,132,90,42,125.07,53,3.00,6.00,-990.00
2024-06-07 01:28:26.074564,0,-1,104,0,0,0,66,69,133,90,42,125.11,53,-15.00,47.00,-980.00
2024-06-07 01:28:26.176687,0,-1,98,0,0,0,66,69,134,90,42,125.10,53,-16.00,21.00,-1020.00
2024-06-07 01:28:26.279420,0,-1,92,0,0,0,66,69,134,90,42,125.10,53,4.00,10.00,-1011.00
2024-06-07 01:28:26.381335,0,-1,86,0,0,0,66,69,135,90,42,125.10,53,3.00,34.00,-985.00
2024-06-07 01:28:26.483971,0,-1,79,0,0,0,66,69,136,90,42,125.17,53,2.00,22.00,-977.00
2024-06-07 01:28:26.584543,0,-1,73,0,0,0,66,69,137,100,42,125.11,54,0.00,11.00,-972.00
2024-06-07 01:28:26.688818,-1,-1,67,0,0,0,66,69,137,100,42,125.18,54,-70.00,36.00,-955.00
2024-06-07 01:28:26.788553,-1,0,61,0,0,0,66,69,138,100,42,125.24,54,-3.00,6.00,-986.00
2024-06-07 01:28:26.893614,-1,0,55,0,0,0,67,70,138,100,42,125.17,54,-22.00,9.00,-966.00
2024-06-07 01:28:26.993922,0,0,49,0,0,0,67,70,139,100,42,125.15,54,-29.00,21.00,-994.00
2024-06-07 01:28:27.096243,0,0,43,0,0,0,67,70,138,100,42,125.13,54,-10.00,0.00,-1006.00
2024-06-07 01:28:27.199015,0,0,37,0,0,0,67,70,138,100,42,125.18,54,21.00,-17.00,-976.00
2024-06-07 01:28:27.298460,0,0,31,0,0,0,67,70,137,100,42,125.17,54,-70.00,35.00,-1008.00
2024-06-07 01:28:27.409352,-1,0,25,0,0,0,67,70,138,100,42,125.07,54,-11.00,-2.00,-1024.00
2024-06-07 01:28:27.502460,-1,0,19,0,0,0,67,70,138,100,42,125.05,54,-76.00,17.00,-980.00
2024-06-07 01:28:27.604442,-2,0,15,0,0,0,67,70,137,100,42,125.05,55,0.00,-1.00,-997.00
2024-06-07 01:28:27.712759,-2,0,12,0,0,0,67,70,137,100,42,125.12,55,63.00,-30.00,-1031.00
2024-06-07 01:28:27.808463,0,0,9,0,0,0,67,70,136,100,42,125.12,55,39.00,-63.00,-1026.00
2024-06-07 01:28:27.918068,0,0,7,1,0,0,67,69,136,100,42,125.15,55,4.00,-3.00,-1050.00
2024-06-07 01:28:28.012540,1,0,6,1,0,0,67,69,136,100,42,125.11,55,-8.00,-18.00,-1087.00
2024-06-07 01:28:28.115045,0,0,5,0,0,0,67,69,137,100,42,125.06,55,9.00,0.00,-1028.00
2024-06-07 01:28:28.217415,0,0,4,0,0,0,67,69,136,100,42,125.18,55,-10.00,16.00,-983.00
2024-06-07 01:28:28.327461,0,0,3,0,0,0,67,69,135,100,42,125.17,55,-7.00,5.00,-1009.00
2024-06-07 01:28:28.422397,0,0,3,0,0,0,67,69,135,100,42,125.07,55,-15.00,-5.00,-987.00
2024-06-07 01:28:28.522740,0,0,3,0,0,0,67,69,134,100,42,125.12,55,-31.00,17.00,-998.00
2024-06-07 01:28:28.627498,0,0,3,0,0,0,67,69,134,90,42,125.10,56,-16.00,10.00,-1006.00
2024-06-07 01:28:28.726746,0,0,3,0,0,0,67,69,133,90,42,125.10,56,26.00,-17.00,-987.00
2024-06-07 01:28:28.828665,0,0,3,0,0,0,67,69,132,90,42,125.06,56,-25.00,27.00,-969.00
2024-06-07 01:28:28.930863,0,0,3,0,0,0,67,70,132,90,42,125.09,56,15.00,-18.00,-1033.00
2024-06-07 01:28:29.044032,0,0,3,0,0,0,67,70,131,90,42,125.07,56,-30.00,13.00,-1025.00
2024-06-07 01:28:29.134510,0,0,3,0,0,0,67,70,130,90,42,125.13,56,-14.00,4.00,-1002.00
2024-06-07 01:28:29.249609,0,0,3,0,0,0,67,70,131,90,42,125.07,56,9.00,16.00,-1061.00
2024-06-07 01:28:29.338382,0,0,3,0,0,0,67,70,130,90,42,125.18,56,3.00,8.00,-981.00
2024-06-07 01:28:29.453711,0,0,3,0,0,0,67,70,130,90,42,125.08,56,11.00,11.00,-1077.00
2024-06-07 01:28:29.491387,0,0,3,0,0,0,67,70,131,90,42,125.06,56,5.00,-23.00,-1045.00
2024-06-07 01:28:29.593271,0,0,3,0,0,0,67,70,131,90,42,125.10,57,-60.00,14.00,-964.00
2024-06-07 01:28:29.761443,0,0,3,0,0,0,67,70,130,90,42,125.04,57,-8.00,-3.00,-972.00
2024-06-07 01:28:29.797249,0,0,3,0,0,0,67,70,130,90,42,125.10,57,-6.00,-9.00,-939.00
2024-06-07 01:28:29.969546,0,0,3,0,0,0,67,70,131,90,42,125.10,57,3.00,-23.00,-999.00
2024-06-07 01:28:30.001356,0,0,3,0,0,0,67,70,130,90,42,125.11,57,-13.00,-15.00,-1088.00
2024-06-07 01:28:30.170615,0,0,3,0,0,0,67,70,130,90,42,125.09,57,15.00,0.00,-1031.00
2024-06-07 01:28:30.205389,0,0,3,0,0,0,67,70,130,90,42,125.12,57,-29.00,34.00,-995.00
2024-06-07 01:28:30.307441,0,0,3,0,0,0,67,70,129,90,42,125.15,57,-10.00,9.00,-994.00
2024-06-07 01:28:30.480623,-1,0,3,0,0,0,67,70,129,90,42,125.06,57,22.00,-20.00,-1055.00
2024-06-07 01:28:30.511231,0,0,3,0,0,0,67,70,129,90,42,125.04,57,-4.00,5.00,-1026.00
2024-06-07 01:28:30.613221,0,0,3,0,0,0,67,70,128,90,42,125.09,58,-29.00,6.00,-995.00
2024-06-07 01:28:30.784730,0,0,3,0,0,0,67,70,128,90,42,125.10,58,12.00,-8.00,-978.00
2024-06-07 01:28:30.817240,0,0,3,0,0,0,67,70,128,90,42,125.07,58,-34.00,15.00,-983.00
2024-06-07 01:28:30.992560,-1,0,3,0,0,0,67,70,127,90,42,125.14,58,-51.00,4.00,-925.00
2024-06-07 01:28:31.021207,-1,0,3,0,0,0,67,70,127,90,42,125.09,58,-28.00,8.00,-984.00
2024-06-07 01:28:31.194277,-1,0,4,0,0,0,67,70,127,90,42,125.15,58,40.00,-11.00,-1038.00
2024-06-07 01:28:31.225281,-1,0,3,0,0,0,67,70,127,90,42,125.10,58,50.00,-19.00,-1004.00
2024-06-07 01:28:31.399456,-1,0,3,0,0,0,67,70,127,90,42,125.10,58,5.00,-39.00,-1081.00
2024-06-07 01:28:31.429123,0,0,3,0,0,0,67,70,126,90,42,125.14,58,6.00,2.00,-952.00
2024-06-07 01:28:31.603927,0,0,3,0,0,0,67,70,127,90,42,125.17,58,-65.00,22.00,-955.00
2024-06-07 01:28:31.633191,-1,0,3,0,0,0,67,70,127,90,41,125.11,59,82.00,-5.00,-1096.00
2024-06-07 01:28:31.735154,0,0,3,0,0,0,67,70,126,90,41,125.03,59,-25.00,0.00,-1021.00
2024-06-07 01:28:31.911605,0,0,3,0,0,0,67,70,126,90,41,125.03,59,24.00,-23.00,-982.00
2024-06-07 01:28:31.942955,0,0,3,0,0,0,68,69,126,90,41,125.09,59,6.00,-24.00,-995.00
2024-06-07 01:28:32.041527,-1,0,3,0,0,0,68,69,126,90,41,125.14,59,2.00,-2.00,-1020.00
2024-06-07 01:28:32.218251,-1,0,3,0,0,0,68,69,126,90,41,125.15,59,-22.00,25.00,-1037.00
2024-06-07 01:28:32.245499,-1,0,3,0,0,0,68,69,125,90,41,125.12,59,26.00,-10.00,-998.00
2024-06-07 01:28:32.347112,-1,0,3,0,0,0,68,69,126,90,41,125.09,59,-39.00,26.00,-1003.00
2024-06-07 01:28:32.525572,-1,0,3,0,0,0,68,69,126,90,41,125.06,59,-56.00,51.00,-1003.00
2024-06-07 01:28:32.551067,-1,0,3,0,0,0,68,69,125,90,41,125.09,59,-12.00,-12.00,-1013.00
2024-06-07 01:28:32.730269,0,0,3,0,0,0,68,69,126,90,41,125.12,60,59.00,-30.00,-999.00
2024-06-07 01:28:32.759195,0,0,3,0,0,0,68,69,125,90,41,125.09,60,11.00,6.00,-1004.00
2024-06-07 01:28:32.857519,0,0,3,0,0,0,68,69,125,90,41,125.08,60,-13.00,20.00,-939.00
2024-06-07 01:28:33.037580,0,0,3,0,0,0,67,70,125,90,41,125.07,60,-41.00,25.00,-1015.00
2024-06-07 01:28:33.061028,0,0,3,0,0,0,67,70,125,90,41,125.06,60,0.00,-11.00,-969.00
2024-06-07 01:28:33.112058,0,0,3,0,0,0,67,70,125,90,41,125.05,60,-52.00,27.00,-956.00
2024-06-07 01:28:33.242066,-1,0,3,0,0,0,67,70,125,90,41,125.03,60,31.00,-35.00,-1039.00
2024-06-07 01:28:33.316145,0,0,3,0,0,0,67,70,125,90,41,125.03,60,23.00,-38.00,-975.00
2024-06-07 01:28:33.447006,0,0,3,0,0,0,67,70,125,90,41,125.06,60,-17.00,3.00,-1016.00
2024-06-07 01:28:33.519983,0,0,3,0,0,0,67,70,126,90,41,125.07,60,45.00,-2.00,-1072.00
2024-06-07 01:28:33.621962,0,0,3,0,0,0,67,70,126,90,41,125.11,61,2.00,-8.00,-958.00
2024-06-07 01:28:33.754158,0,0,3,0,0,0,67,70,126,90,41,125.13,61,-61.00,9.00,-957.00
2024-06-07 01:28:33.826078,0,0,3,0,0,0,67,70,126,90,41,125.04,61,-25.00,-1.00,-1020.00
2024-06-07 01:28:33.960153,0,0,3,0,0,0,68,70,126,90,41,125.15,61,17.00,-27.00,-989.00
2024-06-07 01:28:34.116430,0,0,3,0,0,0,68,70,126,90,41,125.14,61,-7.00,7.00,-966.00
2024-06-07 01:28:34.131939,0,0,3,0,0,0,68,70,127,90,41,125.06,61,22.00,-24.00,-1004.00
2024-06-07 01:28:34.259017,0,0,3,0,0,0,68,70,128,90,41,125.08,61,-47.00,22.00,-953.00
2024-06-07 01:28:34.377433,0,0,3,0,0,0,68,70,128,90,41,125.08,61,63.00,10.00,-1122.00
2024-06-07 01:28:34.437927,-1,0,3,0,0,0,68,70,128,90,41,125.10,61,33.00,-56.00,-1001.00
2024-06-07 01:28:34.574264,0,0,3,0,0,0,68,70,128,90,41,125.17,61,-20.00,-9.00,-1004.00
2024-06-07 01:28:34.642833,0,0,3,0,0,0,68,70,128,90,41,125.18,62,54.00,-34.00,-1007.00
2024-06-07 01:28:34.743983,0,0,3,0,0,0,68,70,129,90,41,125.13,62,14.00,-28.00,-1003.00
2024-06-07 01:28:34.872296,0,0,3,0,0,0,68,70,128,90,41,125.15,62,20.00,-22.00,-989.00
2024-06-07 01:28:34.977482,-1,0,3,0,0,0,67,70,129,90,41,125.10,62,6.00,0.00,-1006.00
2024-06-07 01:28:35.055720,-1,0,3,0,0,0,67,70,129,90,41,125.18,62,14.00,-14.00,-1018.00
2024-06-07 01:28:35.151836,-1,0,3,0,0,0,67,70,129,90,41,125.17,62,-43.00,20.00,-1040.00
2024-06-07 01:28:35.300972,-1,0,3,0,0,0,67,70,129,90,41,125.18,62,24.00,-31.00,-1015.00
2024-06-07 01:28:35.444329,-1,0,3,0,0,0,67,70,129,90,41,125.18,62,31.00,-20.00,-984.00
2024-06-07 01:28:35.457923,-1,0,3,0,0,0,67,70,130,90,41,125.10,62,-40.00,18.00,-1044.00
2024-06-07 01:28:35.608891,0,0,3,0,0,0,67,70,131,90,41,125.13,62,26.00,-3.00,-985.00
2024-06-07 01:28:35.752585,0,0,3,0,0,0,67,70,132,90,41,125.16,63,4.00,0.00,-965.00
2024-06-07 01:28:35.763803,0,0,3,0,0,0,67,70,132,90,41,125.21,63,39.00,-25.00,-972.00
2024-06-07 01:28:35.915356,0,0,3,0,0,0,67,70,132,90,41,125.18,63,6.00,-16.00,-1001.00
2024-06-07 01:28:36.059368,0,0,3,0,0,0,68,70,132,90,41,125.19,63,-30.00,12.00,-1002.00
2024-06-07 01:28:36.070008,0,0,3,0,0,0,68,70,131,90,41,125.18,63,-7.00,12.00,-1046.00
2024-06-07 01:28:36.222708,-1,0,3,0,0,0,68,70,131,90,41,125.18,63,-12.00,11.00,-1012.00
2024-06-07 01:28:36.378716,-1,0,3,0,0,0,68,70,129,90,41,125.19,63,0.00,-27.00,-976.00
2024-06-07 01:28:36.378772,-1,0,3,0,0,0,68,70,130,90,41,125.18,63,-54.00,9.00,-968.00
2024-06-07 01:28:36.478066,-1,0,3,0,0,0,68,70,129,90,41,125.16,63,-40.00,22.00,-1025.00
2024-06-07 01:28:36.621309,-1,0,3,0,0,0,68,70,128,90,41,125.13,63,68.00,-45.00,-1059.00
2024-06-07 01:28:36.681848,-1,0,3,0,0,0,68,70,127,90,41,125.15,64,5.00,-16.00,-1011.00
