TS,pitch,roll,yaw,vgx,vgy,vgz,templ,temph,tof,h,bat,baro,time,agx,agy,agz
2024-06-07 01:29:23.621582,0,0,-9,0,0,0,74,76,10,0,41,124.13,74,-3.00,0.00,-1002.00
2024-06-07 01:29:23.702714,0,0,-9,0,0,0,74,76,10,0,41,124.16,74,-4.00,0.00,-999.00
2024-06-07 01:29:23.825541,0,0,-9,0,0,0,74,76,10,0,41,124.19,74,-4.00,0.00,-1002.00
2024-06-07 01:29:23.906657,0,0,-9,0,0,0,74,76,10,0,41,124.19,74,-6.00,-1.00,-998.00
2024-06-07 01:29:24.031976,0,0,-9,0,0,0,74,76,10,0,41,124.12,74,-5.00,0.00,-1000.00
2024-06-07 01:29:24.110550,0,0,-9,0,0,0,74,76,10,0,41,124.13,74,-5.00,-2.00,-998.00
2024-06-07 01:29:24.236703,0,0,-9,0,0,0,74,77,10,0,41,124.16,74,-5.00,0.00,-1000.00
2024-06-07 01:29:24.314587,0,0,-9,0,0,0,74,77,10,0,41,124.22,74,-5.00,0.00,-1000.00
2024-06-07 01:29:24.441754,0,0,-9,0,0,0,74,77,10,0,41,124.11,74,-3.00,0.00,-1000.00
2024-06-07 01:29:24.518538,0,0,-9,0,0,0,74,77,10,0,41,124.16,74,-4.00,0.00,-999.00
2024-06-07 01:29:24.646480,0,0,-9,0,0,0,74,77,10,0,41,124.14,74,-5.00,0.00,-1001.00
2024-06-07 01:29:24.722565,0,0,-9,0,0,0,74,77,10,0,41,124.19,74,-4.00,0.00,-1000.00
2024-06-07 01:29:24.824653,0,0,-9,0,0,0,74,77,10,0,41,124.16,74,-5.00,1.00,-999.00
2024-06-07 01:29:24.951641,0,0,-9,0,0,0,74,77,10,0,41,124.23,74,-6.00,-1.00,-1001.00
2024-06-07 01:29:25.028465,0,0,-9,0,0,0,74,77,10,0,41,124.17,74,-4.00,-1.00,-1000.00
2024-06-07 01:29:25.159690,0,0,-9,0,0,0,74,77,10,0,41,124.14,74,-3.00,0.00,-999.00
2024-06-07 01:29:25.232542,0,0,-9,0,0,0,73,77,10,0,41,124.23,74,-4.00,0.00,-999.00
2024-06-07 01:29:25.363635,0,0,-9,0,0,0,73,77,10,0,41,124.16,74,-4.00,0.00,-1000.00
2024-06-07 01:29:25.436504,0,0,-9,0,0,0,73,77,10,0,41,124.15,74,-5.00,-1.00,-1001.00
2024-06-07 01:29:25.559698,0,0,-9,0,0,0,73,77,10,0,41,124.17,74,-5.00,0.00,-1001.00
2024-06-07 01:29:25.641109,0,0,-9,0,0,0,73,77,10,0,41,124.17,74,-4.00,0.00,-1000.00
2024-06-07 01:29:25.772927,0,0,-9,0,0,0,73,77,10,0,41,124.15,74,-5.00,0.00,-1002.00
2024-06-07 01:29:25.844478,0,0,-9,0,0,0,73,77,10,0,41,124.17,74,-5.00,0.00,-999.00
2024-06-07 01:29:25.946497,0,0,-9,0,0,0,73,77,10,0,41,124.16,74,-4.00,0.00,-998.00
2024-06-07 01:29:25.997432,0,0,-9,0,0,0,73,77,10,0,41,124.18,74,-5.00,0.00,-998.00
2024-06-07 01:29:26.182307,0,0,-9,0,0,0,73,77,10,0,41,124.20,74,-3.00,0.00,-1000.00
2024-06-07 01:29:26.201507,0,0,-9,0,0,0,74,77,10,0,41,124.15,74,-4.00,0.00,-999.00
2024-06-07 01:29:26.387203,0,0,-9,0,0,0,74,77,10,0,41,124.16,74,-4.00,0.00,-1002.00
2024-06-07 01:29:26.405388,0,0,-9,0,0,0,74,77,10,0,41,124.19,74,-4.00,0.00,-1001.00
2024-06-07 01:29:26.507206,0,0,-9,0,0,0,74,77,10,0,41,124.19,74,-5.00,0.00,-1000.00
2024-06-07 01:29:26.692369,0,0,-9,0,0,0,74,77,10,0,41,124.18,74,-2.00,0.00,-999.00
2024-06-07 01:29:26.711203,0,0,-9,0,0,0,74,77,10,0,41,124.18,74,4.00,0.00,-1001.00
2024-06-07 01:29:26.900858,0,0,-9,0,0,0,74,77,10,0,41,124.18,74,6.00,9.00,-992.00
2024-06-07 01:29:26.915143,0,0,-8,0,0,0,74,77,10,0,41,124.18,74,-26.00,43.00,-997.00
2024-06-07 01:29:27.101832,0,0,-7,0,0,0,74,77,10,0,41,124.18,74,-18.00,37.00,-1023.00
2024-06-07 01:29:27.119123,0,0,-6,0,0,0,74,77,10,0,41,124.18,74,73.00,-49.00,-990.00
2024-06-07 01:29:27.308553,0,-1,-6,0,0,0,75,77,10,0,41,124.18,74,24.00,-57.00,-1196.00
2024-06-07 01:29:27.323113,0,0,-6,0,0,-1,75,77,10,0,41,124.18,75,17.00,14.00,-1155.00
2024-06-07 01:29:27.511496,-1,0,-6,0,0,-4,75,77,10,0,41,124.18,75,-22.00,-27.00,-1285.00
2024-06-07 01:29:27.527082,-1,0,-6,0,0,-6,75,77,19,0,41,124.50,75,-31.00,36.00,-1113.00
2024-06-07 01:29:27.719428,0,1,-6,0,0,-7,75,77,28,10,41,124.64,75,-32.00,7.00,-1152.00
2024-06-07 01:29:27.730949,0,1,-6,0,0,-8,75,77,34,10,41,124.66,75,-25.00,3.00,-1037.00
2024-06-07 01:29:27.921406,0,0,-6,0,0,-8,75,77,42,20,41,124.71,75,80.00,-23.00,-966.00
2024-06-07 01:29:27.935973,0,0,-6,0,0,-7,75,77,51,30,41,124.86,75,40.00,9.00,-870.00
2024-06-07 01:29:28.128844,0,0,-6,0,0,-6,75,77,58,30,41,124.90,75,-82.00,10.00,-876.00
2024-06-07 01:29:28.140061,0,0,-6,0,0,-5,75,77,65,40,41,124.99,75,-79.00,66.00,-953.00
2024-06-07 01:29:28.333317,0,0,-6,0,0,-3,76,78,71,50,41,125.02,75,101.00,-66.00,-890.00
2024-06-07 01:29:28.344029,0,0,-6,0,0,-2,76,78,75,50,41,125.11,76,12.00,38.00,-910.00
2024-06-07 01:29:28.535445,0,0,-6,0,0,-1,76,78,78,50,41,125.14,76,22.00,-55.00,-961.00
2024-06-07 01:29:28.550233,0,0,-6,0,0,-1,76,78,79,50,41,125.13,76,-2.00,30.00,-859.00
2024-06-07 01:29:28.649932,0,0,-6,0,0,0,76,78,80,50,40,125.20,76,55.00,-12.00,-974.00
2024-06-07 01:29:28.842624,0,0,-6,0,0,0,76,78,81,60,40,125.19,76,39.00,-28.00,-1033.00
2024-06-07 01:29:28.853895,0,0,-6,0,0,0,76,78,82,60,40,125.27,76,-102.00,45.00,-959.00
2024-06-07 01:29:29.049758,0,0,-6,0,0,0,76,78,82,60,40,125.26,76,-28.00,0.00,-978.00
2024-06-07 01:29:29.049825,0,0,-6,0,0,0,76,78,83,60,40,125.29,76,-41.00,19.00,-952.00
2024-06-07 01:29:29.108980,0,0,-6,0,0,0,76,78,83,60,40,125.15,76,10.00,-14.00,-1011.00
2024-06-07 01:29:29.261932,0,0,-6,0,0,0,75,76,83,60,40,125.22,76,38.00,3.00,-1045.00
2024-06-07 01:29:29.458422,0,0,-6,0,0,0,75,76,84,60,40,125.20,77,-17.00,-16.00,-1070.00
2024-06-07 01:29:29.466079,0,0,-6,0,0,0,75,76,84,60,40,125.25,77,-8.00,-19.00,-904.00
2024-06-07 01:29:29.516931,0,0,-6,0,0,0,75,76,84,60,40,125.18,77,-30.00,3.00,-968.00
2024-06-07 01:29:29.661807,0,0,-6,0,0,0,75,76,84,60,40,125.27,77,-16.00,26.00,-1006.00
2024-06-07 01:29:29.723713,0,0,-6,0,0,0,75,76,84,60,40,125.27,77,-19.00,7.00,-952.00
2024-06-07 01:29:29.822896,0,0,-6,0,0,0,75,76,84,60,40,125.29,77,73.00,-37.00,-1032.00
2024-06-07 01:29:29.969062,0,0,-6,0,0,0,75,76,85,60,40,125.25,77,21.00,-18.00,-1023.00
2024-06-07 01:29:30.027047,0,0,-6,0,0,0,75,76,84,60,40,125.23,77,34.00,-18.00,-920.00
2024-06-07 01:29:30.178505,0,0,-6,0,0,0,75,76,84,60,40,125.17,77,-16.00,35.00,-1036.00
2024-06-07 01:29:30.231104,0,0,-6,0,0,0,74,77,83,60,40,125.22,77,-25.00,37.00,-977.00
2024-06-07 01:29:30.382360,0,0,-6,0,0,0,74,77,83,60,40,125.23,78,-2.00,11.00,-917.00
2024-06-07 01:29:30.435053,0,0,-6,0,0,0,74,77,82,60,40,125.22,78,-51.00,25.00,-942.00
2024-06-07 01:29:30.583588,0,0,-6,0,0,0,74,77,81,60,40,125.18,78,-5.00,-7.00,-939.00
2024-06-07 01:29:30.639069,0,0,-6,0,0,0,74,77,80,60,40,125.17,78,-26.00,17.00,-1012.00
2024-06-07 01:29:30.788436,0,0,-6,0,0,0,74,77,80,60,40,125.19,78,23.00,-20.00,-996.00
2024-06-07 01:29:30.843448,0,0,-6,0,0,0,74,77,79,60,40,125.19,78,19.00,-12.00,-1037.00
2024-06-07 01:29:30.944995,0,0,-6,0,0,0,74,77,79,60,40,125.22,78,-31.00,11.00,-996.00
2024-06-07 01:29:31.095532,0,0,-6,0,0,0,74,77,78,60,40,125.27,78,32.00,11.00,-967.00
2024-06-07 01:29:31.148979,0,0,-6,0,0,0,74,77,77,60,40,125.20,78,10.00,-13.00,-1108.00
2024-06-07 01:29:31.300315,-1,0,-6,0,0,0,75,77,77,50,40,125.22,78,40.00,-33.00,-972.00
2024-06-07 01:29:31.353003,0,0,-6,0,0,0,75,77,76,50,40,125.27,79,11.00,22.00,-1034.00
2024-06-07 01:29:31.454942,0,0,-6,0,0,0,75,77,76,50,40,125.28,79,-58.00,44.00,-1045.00
2024-06-07 01:29:31.562263,0,0,-6,0,0,0,75,77,76,50,40,125.28,79,86.00,-65.00,-992.00
2024-06-07 01:29:31.658983,0,0,-6,0,0,0,75,77,75,50,40,125.27,79,20.00,-7.00,-1005.00
2024-06-07 01:29:31.812407,0,0,-6,0,0,0,75,77,75,50,40,125.19,79,0.00,-6.00,-1005.00
2024-06-07 01:29:31.862919,0,0,-6,0,0,0,75,77,75,50,40,125.22,79,39.00,-26.00,-1043.00
2024-06-07 01:29:31.966202,0,0,-6,0,0,0,75,77,75,50,40,125.18,79,-111.00,47.00,-894.00
2024-06-07 01:29:32.066850,0,0,-6,0,0,0,75,77,75,50,40,125.19,79,42.00,-34.00,-1077.00
2024-06-07 01:29:32.221891,0,0,-6,0,0,0,75,77,74,50,40,125.25,79,35.00,-12.00,-1073.00
2024-06-07 01:29:32.271013,0,0,-6,0,0,0,75,76,75,50,40,125.21,79,-47.00,17.00,-1113.00
2024-06-07 01:29:32.374218,0,0,-6,0,0,-1,75,76,76,50,40,125.27,80,9.00,-30.00,-1009.00
2024-06-07 01:29:32.474662,0,0,-6,0,0,-2,75,76,79,60,40,125.30,80,21.00,-30.00,-1109.00
2024-06-07 01:29:32.633324,0,0,-6,0,0,-2,75,76,82,60,40,125.32,80,-26.00,10.00,-1016.00
2024-06-07 01:29:32.678637,0,0,-6,0,0,-3,75,76,86,60,40,125.34,80,20.00,-21.00,-1096.00
2024-06-07 01:29:32.780785,0,0,-6,0,0,-4,75,76,91,70,40,125.32,80,-36.00,40.00,-1079.00
2024-06-07 01:29:32.940629,0,0,-6,0,0,-5,75,76,96,70,40,125.42,80,-37.00,6.00,-1071.00
2024-06-07 01:29:32.985556,-1,0,-6,0,0,-5,75,76,102,80,40,125.45,80,-16.00,2.00,-1012.00
2024-06-07 01:29:33.145456,-1,0,-6,0,0,-5,75,76,107,80,40,125.53,80,15.00,-12.00,-1008.00
2024-06-07 01:29:33.188583,-1,0,-6,0,0,-5,75,76,113,90,40,125.57,80,-32.00,15.00,-881.00
2024-06-07 01:29:33.349839,0,0,-6,0,0,-5,75,76,120,90,40,125.55,80,27.00,-18.00,-1006.00
2024-06-07 01:29:33.349896,0,0,-6,0,0,-5,75,76,124,100,40,125.64,81,97.00,-43.00,-982.00
2024-06-07 01:29:33.443905,0,0,-6,0,0,-5,75,76,131,100,40,125.71,81,6.00,8.00,-918.00
2024-06-07 01:29:33.546483,0,0,-6,0,0,-5,75,76,136,110,40,125.75,81,-8.00,25.00,-990.00
2024-06-07 01:29:33.648639,0,0,-6,0,0,-5,75,76,140,110,40,125.83,81,10.00,-21.00,-993.00
2024-06-07 01:29:33.751532,0,0,-6,0,0,-4,75,76,145,120,40,125.86,81,37.00,-25.00,-962.00
2024-06-07 01:29:33.853458,0,0,-6,0,0,-4,75,76,148,120,40,125.87,81,-19.00,13.00,-915.00
2024-06-07 01:29:33.953455,-1,0,-6,0,0,-3,75,76,151,130,40,125.90,81,49.00,-59.00,-1032.00
2024-06-07 01:29:34.110162,-1,0,-6,0,0,-3,75,76,154,130,40,125.96,81,0.00,16.00,-1022.00
2024-06-07 01:29:34.158018,-1,0,-6,0,0,-3,75,76,157,130,40,125.93,81,27.00,-12.00,-876.00
2024-06-07 01:29:34.284503,-1,0,-6,0,0,-2,74,76,159,140,40,125.99,81,-22.00,-3.00,-912.00
2024-06-07 01:29:34.414142,-1,0,-6,0,0,-2,74,76,160,140,40,125.97,82,6.00,-30.00,-956.00
2024-06-07 01:29:34.472464,0,0,-6,0,0,-1,74,76,160,140,40,126.10,82,-1.00,28.00,-957.00
2024-06-07 01:29:34.594912,0,0,-6,0,0,-1,74,76,162,140,40,126.01,82,-27.00,16.00,-926.00
2024-06-07 01:29:34.710070,-1,0,-6,0,0,-1,74,76,163,140,40,126.07,82,0.00,-6.00,-968.00
2024-06-07 01:29:34.770338,0,0,-6,0,0,0,74,76,163,140,40,126.03,82,6.00,40.00,-962.00
2024-06-07 01:29:34.879059,-1,0,-6,0,0,0,74,76,164,140,40,126.04,82,-3.00,16.00,-976.00
2024-06-07 01:29:35.038844,-1,0,-6,0,0,0,74,76,165,140,40,126.06,82,36.00,10.00,-1075.00
2024-06-07 01:29:35.078693,-1,0,-6,0,0,0,74,76,166,140,40,126.03,82,-6.00,-1.00,-991.00
2024-06-07 01:29:35.242117,-1,0,-6,0,0,0,74,76,166,140,40,126.06,82,-14.00,13.00,-1000.00
2024-06-07 01:29:35.390679,-1,0,-6,0,0,0,74,77,166,150,40,126.10,83,8.00,4.00,-919.00
2024-06-07 01:29:35.390734,-1,0,-6,0,0,0,74,77,168,150,40,126.10,83,27.00,-8.00,-1113.00
2024-06-07 01:29:35.528768,-1,0,-6,0,0,0,74,77,170,150,40,126.09,83,-2.00,-3.00,-972.00
2024-06-07 01:29:35.672055,-1,0,-6,0,0,0,74,77,169,150,40,126.10,83,-57.00,84.00,-988.00
2024-06-07 01:29:35.688830,0,0,-6,0,0,0,74,77,169,150,40,126.12,83,-27.00,-17.00,-1026.00
2024-06-07 01:29:35.819192,-1,0,-6,0,0,0,74,77,170,150,40,126.06,83,-8.00,9.00,-994.00
2024-06-07 01:29:35.960024,-1,0,-6,0,0,0,74,77,170,150,40,126.12,83,-17.00,38.00,-996.00
2024-06-07 01:29:36.003871,-1,0,-6,0,0,0,74,77,170,150,40,126.15,83,-20.00,-25.00,-1123.00
2024-06-07 01:29:36.125705,-1,0,-6,0,0,0,74,77,172,150,40,126.14,83,17.00,-39.00,-980.00
2024-06-07 01:29:36.200878,-1,0,-6,0,0,0,74,77,172,150,40,126.15,83,64.00,-62.00,-1108.00
2024-06-07 01:29:36.300564,-1,0,-6,0,0,0,73,76,173,150,40,126.12,84,4.00,-2.00,-962.00
2024-06-07 01:29:36.422321,-1,0,-6,0,0,0,73,76,173,150,40,126.15,84,-28.00,7.00,-922.00
2024-06-07 01:29:36.504527,-1,0,-6,0,0,0,73,76,172,150,40,126.12,84,71.00,-29.00,-1004.00
2024-06-07 01:29:36.626660,-1,0,-6,0,0,0,73,76,173,150,40,126.10,84,10.00,12.00,-958.00
2024-06-07 01:29:36.708526,-1,0,-6,0,0,0,73,76,172,150,40,126.07,84,32.00,-19.00,-972.00
2024-06-07 01:29:36.759688,-1,0,-6,0,0,0,73,76,172,150,40,126.11,84,3.00,2.00,-940.00
2024-06-07 01:29:36.932058,-1,0,-6,0,0,0,73,76,173,150,40,126.16,84,61.00,-28.00,-1068.00
2024-06-07 01:29:36.963510,-1,0,-6,0,0,0,73,76,174,150,40,126.14,84,37.00,-40.00,-1047.00
2024-06-07 01:29:37.141862,-1,0,-6,0,0,0,73,76,173,150,40,126.21,84,-38.00,1.00,-1024.00
2024-06-07 01:29:37.167433,-1,0,-6,0,0,0,73,76,174,150,40,126.20,84,2.00,-17.00,-1002.00
2024-06-07 01:29:37.343613,0,0,-6,0,0,0,73,75,175,150,40,126.27,85,-3.00,5.00,-982.00
2024-06-07 01:29:37.371392,-1,0,-6,0,0,0,73,75,175,150,40,126.21,85,104.00,-68.00,-1063.00
2024-06-07 01:29:37.546281,-1,0,-6,0,0,0,73,75,175,150,40,126.17,85,39.00,-19.00,-1108.00
2024-06-07 01:29:37.575371,-1,0,-6,0,0,0,73,75,177,150,40,126.27,85,-13.00,11.00,-1114.00
2024-06-07 01:29:37.753244,-1,0,-6,0,0,0,73,75,178,150,40,126.17,85,7.00,16.00,-984.00
2024-06-07 01:29:37.779572,-1,0,-6,0,0,0,73,75,178,150,40,126.20,85,-45.00,4.00,-895.00
2024-06-07 01:29:37.883411,-1,0,-6,0,0,0,73,75,178,150,40,126.23,85,-44.00,5.00,-1056.00
2024-06-07 01:29:37.984797,-1,0,-6,0,0,0,73,75,177,150,40,126.20,85,-81.00,80.00,-972.00
2024-06-07 01:29:38.085469,-1,0,-6,0,0,0,73,75,178,150,40,126.14,85,10.00,-39.00,-942.00
2024-06-07 01:29:38.187394,-1,0,-6,0,0,0,73,75,178,150,40,126.20,85,4.00,-30.00,-997.00
2024-06-07 01:29:38.370191,-1,0,-6,0,0,1,74,76,176,150,40,126.20,86,-23.00,24.00,-906.00
2024-06-07 01:29:38.391030,-1,0,-6,0,0,1,74,76,174,150,40,126.14,86,-11.00,-18.00,-917.00
2024-06-07 01:29:38.572167,-1,0,-6,0,0,2,74,76,171,150,40,126.15,86,64.00,-48.00,-1002.00
2024-06-07 01:29:38.595217,-1,0,-6,0,0,2,74,76,167,150,40,126.12,86,-35.00,10.00,-992.00
2024-06-07 01:29:38.774959,-1,0,-6,0,0,3,74,76,165,140,40,126.09,86,70.00,-60.00,-1046.00
2024-06-07 01:29:38.800020,-1,0,-6,0,0,3,74,76,162,140,40,126.02,86,-49.00,41.00,-910.00
2024-06-07 01:29:38.984460,-1,0,-6,0,0,3,74,76,158,140,40,126.03,86,-87.00,49.00,-949.00
2024-06-07 01:29:39.004796,-1,0,-6,0,0,3,74,76,155,130,40,126.00,86,-10.00,3.00,-1011.00
2024-06-07 01:29:39.107229,-1,0,-6,0,0,3,74,76,151,130,40,125.92,86,-88.00,30.00,-920.00
2024-06-07 01:29:39.207117,-1,0,-6,0,0,2,74,76,149,130,40,125.93,86,-35.00,38.00,-1026.00
2024-06-07 01:29:39.389283,-1,0,-6,0,0,2,74,76,145,120,40,125.86,87,-80.00,33.00,-927.00
2024-06-07 01:29:39.411045,-1,0,-6,0,0,2,74,76,142,120,40,125.81,87,19.00,-8.00,-1073.00
2024-06-07 01:29:39.596600,-1,0,-6,0,0,2,74,76,140,120,40,125.78,87,-12.00,-12.00,-1014.00
2024-06-07 01:29:39.614972,-1,0,-6,0,0,2,74,76,138,120,40,125.81,87,13.00,-21.00,-991.00
2024-06-07 01:29:39.800276,-1,0,-6,0,0,1,74,76,135,110,40,125.82,87,55.00,-22.00,-1079.00
2024-06-07 01:29:39.818917,-1,0,-6,0,0,1,74,76,134,110,40,125.78,87,-3.00,-25.00,-1012.00
2024-06-07 01:29:40.008106,-1,0,-6,0,0,1,74,76,133,110,40,125.76,87,35.00,-21.00,-1043.00
2024-06-07 01:29:40.023961,-1,0,-6,0,0,1,74,76,131,110,40,125.79,87,-39.00,8.00,-1019.00
2024-06-07 01:29:40.126107,-1,0,-6,0,0,1,74,76,130,110,40,125.78,87,13.00,6.00,-1056.00
2024-06-07 01:29:40.228148,-1,0,-6,0,0,0,74,76,128,110,40,125.76,87,-62.00,38.00,-1029.00
2024-06-07 01:29:40.330119,-1,0,-6,0,0,0,73,76,128,110,40,125.71,88,-59.00,64.00,-1022.00
2024-06-07 01:29:40.517012,-1,0,-6,0,0,0,73,76,127,110,40,125.70,88,5.00,-16.00,-1099.00
2024-06-07 01:29:40.534446,-1,0,-6,0,0,0,73,76,128,110,40,125.74,88,-42.00,-2.00,-952.00
2024-06-07 01:29:40.636190,-1,0,-6,0,0,0,73,76,127,100,40,125.70,88,36.00,-40.00,-957.00
2024-06-07 01:29:40.687210,-1,0,-6,0,0,0,73,76,126,100,40,125.73,88,-28.00,27.00,-1002.00
2024-06-07 01:29:40.823263,-1,0,-6,0,0,0,73,76,128,100,40,125.74,88,-29.00,10.00,-1023.00
2024-06-07 01:29:40.891086,-1,0,-6,0,0,0,73,76,127,110,40,125.74,88,-36.00,31.00,-983.00
2024-06-07 01:29:41.030721,-1,0,-6,0,0,0,73,76,128,110,40,125.69,88,-54.00,6.00,-969.00
2024-06-07 01:29:41.095617,-1,0,-6,0,0,0,73,76,127,100,40,125.77,88,-19.00,28.00,-905.00
2024-06-07 01:29:41.234658,-1,0,-6,0,0,0,73,76,128,100,40,125.70,88,-55.00,11.00,-1016.00
2024-06-07 01:29:41.299085,-1,0,-6,0,0,0,74,76,128,100,40,125.77,89,-74.00,46.00,-955.00
2024-06-07 01:29:41.439430,-1,0,-6,0,0,0,74,76,128,100,40,125.75,89,15.00,-7.00,-965.00
2024-06-07 01:29:41.502994,-1,0,-6,0,0,0,74,76,128,100,40,125.75,89,-44.00,40.00,-1048.00
2024-06-07 01:29:41.643489,-1,0,-6,0,0,0,74,76,130,110,40,125.76,89,-1.00,22.00,-943.00
2024-06-07 01:29:41.707213,-1,0,-6,0,0,0,74,76,129,110,40,125.78,89,-80.00,51.00,-1064.00
2024-06-07 01:29:41.809132,-1,0,-6,0,0,0,74,76,130,110,40,125.78,89,-5.00,6.00,-936.00
2024-06-07 01:29:41.950027,-1,0,-6,0,0,0,74,76,130,110,40,125.78,89,33.00,-7.00,-1078.00
2024-06-07 01:29:42.014083,-1,0,-6,0,0,0,74,76,130,110,40,125.79,89,-24.00,-2.00,-902.00
2024-06-07 01:29:42.114932,-1,0,-6,0,0,0,74,76,131,110,40,125.82,89,-4.00,9.00,-1022.00
2024-06-07 01:29:42.216956,-1,0,-6,0,0,0,74,76,131,110,40,125.78,89,24.00,32.00,-1026.00
2024-06-07 01:29:42.319062,-4,0,-6,0,0,0,73,75,132,110,40,125.74,90,78.00,-29.00,-1014.00
2024-06-07 01:29:42.420852,-8,0,-6,1,0,0,73,75,133,110,40,125.76,90,-15.00,3.00,-897.00
2024-06-07 01:29:42.522772,-8,0,-6,2,0,0,73,75,133,110,40,125.72,90,-19.00,-5.00,-973.00
2024-06-07 01:29:42.626486,-8,0,-6,4,0,0,73,75,133,110,40,125.67,90,40.00,-30.00,-1037.00
2024-06-07 01:29:42.726752,-8,0,-6,5,0,0,73,75,133,110,40,125.70,90,62.00,-16.00,-1000.00
2024-06-07 01:29:42.828737,-7,0,-6,6,0,0,73,75,132,110,40,125.73,90,-13.00,0.00,-1112.00
2024-06-07 01:29:42.973174,-7,0,-6,6,0,0,73,75,133,110,40,125.71,90,-29.00,25.00,-1077.00
2024-06-07 01:29:43.033002,-6,0,-6,6,0,0,73,75,133,110,40,125.66,90,52.00,-96.00,-1044.00
2024-06-07 01:29:43.178094,-6,0,-6,7,0,0,73,75,132,110,40,125.62,90,12.00,-9.00,-970.00
2024-06-07 01:29:43.236722,-3,0,-6,7,0,0,73,75,132,110,40,125.64,90,-57.00,-17.00,-1073.00
2024-06-07 01:29:43.384988,0,0,-6,6,0,0,74,76,132,110,40,125.58,91,-64.00,16.00,-1025.00
2024-06-07 01:29:43.440678,1,1,-6,5,0,0,74,76,132,110,40,125.56,91,-87.00,-4.00,-923.00
2024-06-07 01:29:43.589494,2,0,-6,4,0,0,74,76,131,110,40,125.63,91,-82.00,-12.00,-929.00
2024-06-07 01:29:43.645243,1,0,-6,3,0,0,74,76,131,110,40,125.73,91,-67.00,24.00,-976.00
2024-06-07 01:29:43.793760,0,0,-6,3,0,0,74,76,131,110,40,125.66,91,-74.00,9.00,-901.00
2024-06-07 01:29:43.848650,0,0,-6,3,0,0,74,76,130,110,40,125.55,91,10.00,-20.00,-975.00
2024-06-07 01:29:43.952852,-1,0,-6,3,0,0,74,76,130,100,40,125.65,91,-74.00,5.00,-1017.00
2024-06-07 01:29:44.052644,-1,0,-6,3,0,0,74,76,131,100,40,125.65,91,-30.00,-3.00,-976.00
2024-06-07 01:29:44.205020,-1,0,-6,2,0,0,74,76,130,100,40,125.67,91,-56.00,20.00,-998.00
2024-06-07 01:29:44.258009,-1,0,-6,2,0,0,74,76,130,100,40,125.69,91,40.00,-36.00,-978.00
2024-06-07 01:29:44.362299,-1,0,-6,2,0,0,74,76,130,100,40,125.63,92,-54.00,48.00,-947.00
2024-06-07 01:29:44.460603,-1,0,-6,2,0,0,74,76,130,100,40,125.66,92,-11.00,25.00,-944.00
2024-06-07 01:29:44.613473,-2,0,-6,2,0,0,74,76,130,110,40,125.68,92,20.00,-24.00,-1093.00
2024-06-07 01:29:44.664635,-2,0,-6,2,0,0,74,76,130,110,40,125.71,92,2.00,-24.00,-1009.00
2024-06-07 01:29:44.820331,-1,0,-6,2,0,0,74,76,130,110,40,125.74,92,-43.00,13.00,-1011.00
2024-06-07 01:29:44.820670,-1,0,-6,2,0,0,74,76,130,110,40,125.67,92,-15.00,-26.00,-940.00
2024-06-07 01:29:44.920545,-1,0,-6,2,0,0,74,76,131,110,40,125.67,92,-42.00,-1.00,-1016.00
2024-06-07 01:29:45.022665,-1,0,-6,2,0,0,74,76,131,110,40,125.63,92,-36.00,25.00,-1080.00
2024-06-07 01:29:45.124537,-2,0,-6,1,0,0,74,76,130,110,40,125.66,92,-53.00,25.00,-1025.00
2024-06-07 01:29:45.226524,-1,0,-6,1,0,0,74,76,132,110,40,125.74,92,55.00,-60.00,-1062.00
2024-06-07 01:29:45.332180,0,0,-6,1,0,0,74,75,132,110,40,125.68,93,-125.00,43.00,-1042.00
2024-06-07 01:29:45.430592,3,0,-6,0,0,0,74,75,132,110,40,125.73,93,-11.00,-4.00,-1007.00
2024-06-07 01:29:45.533047,0,0,-6,0,0,0,74,75,131,110,40,125.71,93,54.00,2.00,-966.00
2024-06-07 01:29:45.635371,0,0,-6,0,0,0,74,75,131,110,40,125.68,93,-22.00,17.00,-1019.00
2024-06-07 01:29:45.740913,-1,0,-6,0,0,0,74,75,130,110,40,125.70,93,-10.00,20.00,-1068.00
2024-06-07 01:29:45.840720,-1,0,-6,0,0,0,74,75,130,110,40,125.64,93,16.00,1.00,-1070.00
2024-06-07 01:29:45.943202,-1,0,-6,0,0,0,74,75,130,110,40,125.64,93,5.00,4.00,-1016.00
2024-06-07 01:29:46.042699,-1,0,-6,0,0,0,74,75,128,100,40,125.62,93,87.00,-48.00,-1052.00
2024-06-07 01:29:46.148372,-1,0,-6,0,0,0,74,75,128,100,40,125.63,93,-100.00,49.00,-949.00
2024-06-07 01:29:46.246708,-1,0,-6,0,0,0,74,75,128,100,40,125.63,93,19.00,-15.00,-1026.00
2024-06-07 01:29:46.354940,-1,0,-6,0,0,0,73,76,128,100,40,125.61,94,33.00,-45.00,-925.00
2024-06-07 01:29:46.450561,-1,0,-6,0,0,0,73,76,129,100,40,125.69,94,50.00,0.00,-1088.00
2024-06-07 01:29:46.559862,-1,0,-6,0,0,0,73,76,128,100,40,125.68,94,-71.00,14.00,-929.00
2024-06-07 01:29:46.654626,-1,0,-6,0,0,0,73,76,128,100,40,125.69,94,23.00,-4.00,-986.00
2024-06-07 01:29:46.757908,-1,0,-6,0,0,0,73,76,128,100,40,125.68,94,31.00,-21.00,-1053.00
2024-06-07 01:29:46.860300,-1,0,-6,0,0,0,73,76,128,100,40,125.66,94,21.00,-6.00,-994.00
2024-06-07 01:29:46.960619,-1,0,-6,0,0,0,73,76,129,100,40,125.70,94,-14.00,4.00,-1047.00
2024-06-07 01:29:47.071914,-1,0,-6,0,0,0,73,76,129,100,40,125.71,94,-72.00,29.00,-966.00
2024-06-07 01:29:47.164649,-1,0,-6,0,0,0,73,76,130,100,40,125.70,94,-3.00,-19.00,-950.00
2024-06-07 01:29:47.266808,-1,0,-6,0,0,0,73,76,130,110,40,125.71,94,91.00,-77.00,-1017.00
2024-06-07 01:29:47.369249,-1,0,-6,0,0,0,74,76,130,110,40,125.65,95,8.00,0.00,-902.00
2024-06-07 01:29:47.471817,-2,0,-6,0,0,0,74,76,131,110,40,125.72,95,-5.00,5.00,-937.00
2024-06-07 01:29:47.572347,-2,0,-6,0,0,0,74,76,131,110,40,125.67,95,26.00,-30.00,-1124.00
2024-06-07 01:29:47.674453,-1,0,-6,0,0,0,74,76,132,110,40,125.65,95,-20.00,0.00,-922.00
2024-06-07 01:29:47.776337,4,0,-6,0,0,0,74,76,133,110,40,125.74,95,-47.00,32.00,-992.00
2024-06-07 01:29:47.878302,8,0,-6,-1,0,0,74,76,132,110,40,125.70,95,5.00,18.00,-1013.00
2024-06-07 01:29:47.980270,7,0,-6,-3,0,0,74,76,133,110,40,125.70,95,21.00,0.00,-982.00
2024-06-07 01:29:48.082221,6,0,-6,-4,0,0,74,76,133,110,40,125.68,95,-31.00,33.00,-1013.00
2024-06-07 01:29:48.197806,5,0,-6,-5,0,0,74,76,131,110,40,125.73,95,39.00,1.00,-932.00
2024-06-07 01:29:48.286260,5,0,-6,-6,0,0,74,76,131,110,40,125.72,95,54.00,-21.00,-955.00
2024-06-07 01:29:48.400190,4,0,-6,-6,0,0,74,76,131,110,40,125.76,96,3.00,43.00,-1031.00
2024-06-07 01:29:48.490434,4,0,-6,-7,0,0,74,76,130,110,40,125.68,96,51.00,-44.00,-1061.00
2024-06-07 01:29:48.607620,1,0,-6,-7,0,0,74,76,129,110,40,125.73,96,-31.00,33.00,-984.00
2024-06-07 01:29:48.694447,-1,0,-6,-6,0,0,74,76,130,110,40,125.71,96,52.00,-35.00,-959.00
2024-06-07 01:29:48.745228,-4,0,-6,-5,0,0,74,76,129,110,40,125.68,96,46.00,2.00,-995.00
2024-06-07 01:29:48.847213,-4,0,-6,-4,0,0,74,76,129,110,40,125.71,96,49.00,-27.00,-989.00
2024-06-07 01:29:49.120126,-3,-1,-6,-3,0,0,74,76,128,110,40,125.71,96,-60.00,34.00,-916.00
2024-06-07 01:29:49.120193,-1,0,-6,-3,0,0,74,76,128,110,40,125.76,96,-1.00,8.00,-1037.00
2024-06-07 01:29:49.154217,-1,0,-6,-3,0,0,74,76,129,110,40,125.78,96,20.00,-12.00,-1050.00
2024-06-07 01:29:49.338660,0,0,-6,-3,0,0,74,76,129,110,40,125.66,96,22.00,5.00,-979.00
2024-06-07 01:29:49.357223,0,0,-6,-3,0,0,74,76,129,110,40,125.74,97,-30.00,16.00,-969.00
2024-06-07 01:29:49.466291,-1,0,-6,-2,0,0,74,76,130,110,40,125.75,97,52.00,-20.00,-996.00
2024-06-07 01:29:49.593200,-2,0,-6,-2,0,0,74,76,130,110,40,125.72,97,-39.00,28.00,-1081.00
2024-06-07 01:29:49.663196,-3,0,-6,-2,0,0,74,76,129,110,40,125.72,97,-10.00,12.00,-1011.00
2024-06-07 01:29:49.802970,-5,0,-6,-1,0,0,74,76,130,110,40,125.68,97,117.00,-51.00,-1075.00
2024-06-07 01:29:49.867074,-3,0,-6,0,0,0,74,76,130,110,40,125.73,97,42.00,-10.00,-978.00
2024-06-07 01:29:49.981826,-2,0,-6,0,0,0,74,76,130,110,40,125.69,97,48.00,-35.00,-1030.00
2024-06-07 01:29:50.116655,-1,0,-6,0,0,0,74,76,131,110,40,125.66,97,86.00,-41.00,-1095.00
2024-06-07 01:29:50.173177,-1,0,-6,0,0,0,74,76,131,110,40,125.71,97,85.00,-37.00,-1038.00
2024-06-07 01:29:50.390582,-1,0,-6,0,0,0,74,76,131,110,40,125.69,98,-23.00,12.00,-1008.00
2024-06-07 01:29:50.390747,-2,0,-6,0,0,0,74,76,131,110,40,125.67,98,49.00,-24.00,-1108.00
2024-06-07 01:29:50.564285,-1,0,-6,0,0,0,74,76,132,110,40,125.72,98,40.00,-16.00,-1094.00
2024-06-07 01:29:50.581219,-1,0,-6,0,0,0,74,76,132,110,40,125.67,98,36.00,-15.00,-1041.00
2024-06-07 01:29:50.707352,-1,0,-6,0,0,0,74,76,133,110,40,125.67,98,47.00,-37.00,-993.00
2024-06-07 01:29:50.870862,-1,0,-6,0,0,0,74,76,134,110,40,125.67,98,25.00,-16.00,-922.00
2024-06-07 01:29:50.887308,-1,0,-6,0,0,0,74,76,134,110,40,125.73,98,37.00,-18.00,-977.00
2024-06-07 01:29:51.026732,-1,0,-6,0,0,0,74,76,134,110,40,125.79,98,-22.00,1.00,-982.00
2024-06-07 01:29:51.098730,-1,0,-6,0,0,0,74,76,134,110,40,125.71,98,-79.00,49.00,-928.00
2024-06-07 01:29:51.192998,-1,0,-6,0,0,0,74,76,134,110,40,125.73,98,7.00,-6.00,-1061.00
2024-06-07 01:29:51.369853,-1,0,-6,0,0,0,74,76,134,110,40,125.74,99,12.00,-14.00,-943.00
2024-06-07 01:29:51.397228,-1,0,-6,0,0,0,73,75,134,110,40,125.72,99,-46.00,4.00,-970.00
2024-06-07 01:29:51.578014,0,0,-6,0,0,0,73,75,135,110,40,125.75,99,33.00,4.00,-999.00
2024-06-07 01:29:51.601023,0,0,-6,0,0,0,73,75,135,110,40,125.68,99,52.00,-51.00,-978.00
2024-06-07 01:29:51.781996,0,0,-6,0,0,0,73,75,134,110,40,125.64,99,-30.00,15.00,-923.00
2024-06-07 01:29:51.805134,0,0,-6,0,0,0,73,75,134,110,40,125.71,99,-37.00,12.00,-980.00
2024-06-07 01:29:51.985464,0,0,-6,0,0,0,73,75,133,110,40,125.73,99,-9.00,-21.00,-943.00
2024-06-07 01:29:52.009199,-1,0,-6,0,0,0,73,75,133,110,40,125.71,99,-25.00,35.00,-950.00
2024-06-07 01:29:52.060265,-1,0,-6,0,0,0,73,75,132,110,40,125.70,99,-44.00,-15.00,-983.00
2024-06-07 01:29:52.189573,0,-5,-6,0,0,0,73,75,132,110,40,125.72,99,18.00,9.00,-983.00
2024-06-07 01:29:52.263962,0,-8,-6,0,-1,0,73,75,133,110,40,125.65,100,-11.00,-28.00,-1040.00
2024-06-07 01:29:52.417064,0,-5,-6,0,-3,0,74,76,131,110,40,125.65,100,-92.00,36.00,-996.00
2024-06-07 01:29:52.600639,0,-3,-6,0,-4,0,74,76,129,110,40,125.65,100,4.00,10.00,-1159.00
2024-06-07 01:29:52.620944,-1,0,-6,0,-4,0,74,76,130,110,40,125.62,100,8.00,6.00,-1020.00
2024-06-07 01:29:52.804003,-1,1,-6,0,-3,0,74,76,129,110,40,125.71,100,0.00,29.00,-1054.00
2024-06-07 01:29:52.824867,-1,1,-6,0,-2,0,74,76,129,110,40,125.69,100,40.00,7.00,-1151.00
2024-06-07 01:29:53.010048,0,0,-6,0,-2,0,74,76,128,110,40,125.66,100,-31.00,9.00,-982.00
2024-06-07 01:29:53.010249,0,-1,-6,0,-2,0,74,76,128,100,40,125.64,100,-15.00,2.00,-975.00
2024-06-07 01:29:53.079807,0,-1,-6,0,-2,0,74,76,128,100,40,125.66,100,-73.00,64.00,-1032.00
2024-06-07 01:29:53.214820,0,-1,-6,0,-2,0,74,76,127,100,40,125.63,100,22.00,-11.00,-1032.00
2024-06-07 01:29:53.286982,0,-1,-6,0,-2,0,74,76,127,100,40,125.64,101,54.00,-21.00,-1030.00
2024-06-07 01:29:53.385788,-1,0,-6,0,-2,0,74,76,128,100,40,125.64,101,-43.00,12.00,-983.00
2024-06-07 01:29:53.519874,0,0,-6,0,-2,0,74,76,127,100,40,125.65,101,25.00,-16.00,-966.00
2024-06-07 01:29:53.590370,-1,0,-6,0,-2,0,74,76,128,100,40,125.69,101,-87.00,36.00,-1090.00
2024-06-07 01:29:53.724755,0,0,-6,0,-2,0,74,76,129,100,40,125.57,101,-16.00,63.00,-949.00
2024-06-07 01:29:53.793885,0,0,-6,0,-2,0,74,76,129,100,40,125.67,101,-15.00,6.00,-1021.00
2024-06-07 01:29:53.930799,0,2,-6,0,-2,0,74,76,130,100,40,125.64,101,53.00,-38.00,-1024.00
2024-06-07 01:29:53.997826,0,4,-6,0,-1,0,74,76,131,100,40,125.60,101,9.00,-5.00,-876.00
2024-06-07 01:29:54.134879,0,2,-6,0,0,0,74,76,131,110,40,125.62,101,43.00,-19.00,-1033.00
2024-06-07 01:29:54.202834,0,0,-6,0,0,0,74,76,131,110,40,125.61,101,38.00,-23.00,-1074.00
2024-06-07 01:29:54.341575,0,0,-6,0,0,0,74,76,131,110,40,125.72,102,28.00,-17.00,-1012.00
2024-06-07 01:29:54.405958,0,0,-6,0,0,0,74,76,131,110,40,125.63,102,-29.00,6.00,-980.00
2024-06-07 01:29:54.546070,0,0,-6,0,0,0,74,76,132,110,40,125.63,102,-31.00,40.00,-892.00
2024-06-07 01:29:54.610064,0,0,-6,0,0,0,74,76,132,110,40,125.64,102,94.00,-63.00,-1010.00
2024-06-07 01:29:54.753245,0,0,-6,0,0,0,74,76,132,110,40,125.58,102,-1.00,9.00,-986.00
2024-06-07 01:29:54.814043,0,0,-6,0,0,0,74,76,132,110,40,125.69,102,41.00,-27.00,-1013.00
2024-06-07 01:29:54.955821,0,0,-6,0,0,0,74,76,132,110,40,125.66,102,-81.00,68.00,-977.00
2024-06-07 01:29:55.017922,0,0,-6,0,0,0,74,76,132,110,40,125.63,102,-1.00,-7.00,-1043.00
2024-06-07 01:29:55.158347,0,0,-6,0,0,0,74,76,131,110,40,125.67,102,20.00,-16.00,-1146.00
2024-06-07 01:29:55.221805,0,0,-6,0,0,0,74,76,131,110,40,125.63,102,-38.00,-17.00,-980.00
2024-06-07 01:29:55.363306,0,0,-6,0,0,0,74,76,130,110,40,125.63,103,22.00,-30.00,-969.00
2024-06-07 01:29:55.425861,0,0,-6,0,0,0,74,76,130,110,40,125.63,103,33.00,-22.00,-997.00
2024-06-07 01:29:55.527791,0,0,-6,0,0,0,74,76,130,110,40,125.69,103,76.00,-46.00,-1038.00
2024-06-07 01:29:55.630022,0,0,-6,0,0,0,74,76,130,110,40,125.61,103,-19.00,7.00,-1040.00
2024-06-07 01:29:55.772950,0,0,-6,0,0,0,74,76,130,110,40,125.66,103,12.00,-24.00,-1013.00
2024-06-07 01:29:55.834324,0,0,-6,0,0,0,74,76,130,110,40,125.62,103,-3.00,10.00,-996.00
2024-06-07 01:29:55.979020,0,0,-6,0,0,0,74,76,130,110,40,125.65,103,46.00,-26.00,-1025.00
2024-06-07 01:29:56.037879,0,0,-6,0,0,0,74,76,129,110,40,125.58,103,-26.00,49.00,-1014.00
2024-06-07 01:29:56.139892,0,0,-6,0,0,0,74,76,130,110,40,125.66,103,-57.00,21.00,-1045.00
2024-06-07 01:29:56.284909,0,0,-6,0,0,0,74,76,130,110,40,125.57,103,6.00,-20.00,-1031.00
2024-06-07 01:29:56.343536,0,0,-6,0,0,0,74,76,130,110,40,125.59,104,-29.00,1.00,-1074.00
2024-06-07 01:29:56.445523,0,7,-6,0,0,0,74,75,130,110,40,125.59,104,-11.00,23.00,-1009.00
2024-06-07 01:29:56.591682,0,7,-6,0,2,0,74,75,130,110,40,125.65,104,-38.00,7.00,-1025.00
2024-06-07 01:29:56.649485,0,4,-6,0,3,0,74,75,129,100,40,125.66,104,-22.00,-9.00,-1005.00
2024-06-07 01:29:56.700867,0,2,-6,0,4,0,74,75,129,100,40,125.61,104,40.00,-24.00,-996.00
2024-06-07 01:29:56.902571,0,0,-6,0,3,0,74,75,129,100,40,125.64,104,-76.00,41.00,-1042.00
2024-06-07 01:29:56.905534,0,-1,-6,0,3,0,74,75,129,100,40,125.64,104,35.00,-49.00,-1008.00
2024-06-07 01:29:57.105457,0,0,-6,0,2,0,74,75,130,100,40,125.57,104,40.00,-31.00,-973.00
2024-06-07 01:29:57.109489,0,0,-6,0,2,0,74,75,129,100,40,125.63,104,22.00,-17.00,-1011.00
2024-06-07 01:29:57.211470,0,1,-6,0,1,0,74,75,131,100,40,125.59,104,63.00,-25.00,-946.00
2024-06-07 01:29:57.313716,0,1,-6,0,2,0,74,75,131,110,40,125.60,105,-10.00,0.00,-974.00
2024-06-07 01:29:57.517965,0,1,-6,0,2,0,75,76,132,110,40,125.62,105,19.00,-24.00,-989.00
2024-06-07 01:29:57.518126,0,0,-6,0,2,0,75,76,132,110,40,125.68,105,-29.00,-18.00,-1010.00
2024-06-07 01:29:57.718106,0,0,-6,0,2,0,75,76,132,110,40,125.63,105,-27.00,-12.00,-973.00
2024-06-07 01:29:57.721499,0,0,-6,0,2,0,75,76,133,110,40,125.71,105,0.00,8.00,-949.00
2024-06-07 01:29:57.824574,0,0,-6,0,2,0,75,76,133,110,40,125.65,105,-13.00,15.00,-958.00
2024-06-07 01:29:57.925591,0,0,-6,0,2,0,75,76,132,110,40,125.65,105,66.00,-28.00,-988.00
2024-06-07 01:29:58.027416,-1,-1,-6,0,2,0,75,76,132,110,40,125.59,105,39.00,-34.00,-1005.00
2024-06-07 01:29:58.129459,-1,-2,-6,0,1,0,75,76,132,110,40,125.69,105,-45.00,13.00,-923.00
2024-06-07 01:29:58.335367,-1,-3,-6,0,1,0,75,76,132,110,40,125.64,105,24.00,-29.00,-1124.00
2024-06-07 01:29:58.335518,0,-1,-6,0,0,0,75,76,131,110,40,125.67,106,36.00,-28.00,-1056.00
2024-06-07 01:29:58.436903,-3,0,-6,0,0,0,74,76,131,110,40,125.62,106,2.00,6.00,-1039.00
2024-06-07 01:29:58.537529,-4,0,-6,0,0,0,74,76,130,110,40,125.57,106,-37.00,15.00,-984.00
2024-06-07 01:29:58.639876,-1,0,-6,1,0,0,74,76,131,110,40,125.63,106,8.00,-17.00,-1027.00
2024-06-07 01:29:58.741842,3,0,-6,1,0,0,74,76,130,110,40,125.64,106,19.00,-47.00,-1005.00
2024-06-07 01:29:58.845346,1,0,-6,0,0,0,74,76,130,110,40,125.61,106,16.00,-49.00,-943.00
2024-06-07 01:29:58.946650,0,0,-6,0,0,0,74,76,129,110,40,125.56,106,46.00,-19.00,-1050.00
2024-06-07 01:29:59.047484,0,0,-6,0,0,0,74,76,128,110,40,125.58,106,29.00,-16.00,-1038.00
2024-06-07 01:29:59.154831,-1,0,-6,0,0,0,74,76,128,100,40,125.64,106,-82.00,21.00,-960.00
2024-06-07 01:29:59.251522,-1,0,-6,0,0,0,74,76,128,100,40,125.57,106,25.00,-20.00,-933.00
2024-06-07 01:29:59.358985,0,0,-6,0,0,0,74,76,127,100,40,125.61,107,-3.00,-19.00,-1005.00
2024-06-07 01:29:59.455481,0,0,-6,0,0,0,74,76,127,100,40,125.62,107,-26.00,54.00,-937.00
2024-06-07 01:29:59.563337,0,0,-6,0,0,0,74,76,127,100,40,125.64,107,25.00,6.00,-1097.00
2024-06-07 01:29:59.659470,0,0,-6,0,0,0,74,76,127,100,40,125.57,107,-32.00,34.00,-926.00
2024-06-07 01:29:59.766406,0,0,-6,0,0,0,74,76,127,100,40,125.62,107,-58.00,26.00,-1011.00
2024-06-07 01:29:59.863484,-1,0,-6,0,0,0,74,76,127,100,40,125.61,107,3.00,-20.00,-979.00
2024-06-07 01:29:59.965425,-1,0,-6,0,0,0,74,76,129,100,40,125.61,107,-38.00,18.00,-1006.00
2024-06-07 01:30:00.077446,0,0,-6,0,0,0,74,76,129,100,40,125.63,107,-39.00,15.00,-1025.00
2024-06-07 01:30:00.169559,0,0,-6,0,0,0,74,76,129,100,40,125.59,107,57.00,-29.00,-1136.00
2024-06-07 01:30:00.220340,0,0,-6,0,0,0,74,76,130,110,40,125.67,107,-6.00,8.00,-974.00
2024-06-07 01:30:00.380603,0,0,-6,0,0,0,74,76,131,110,40,125.58,108,-63.00,-1.00,-984.00
2024-06-07 01:30:00.476793,0,0,-6,0,0,0,73,76,131,110,40,125.63,108,92.00,-89.00,-1060.00
2024-06-07 01:30:00.526307,0,0,-6,0,0,0,73,76,132,110,40,125.62,108,92.00,-57.00,-1026.00
2024-06-07 01:30:00.628202,0,0,-6,0,0,0,73,76,132,110,40,125.65,108,-34.00,24.00,-1019.00
2024-06-07 01:30:00.790969,0,0,-6,0,0,0,73,76,131,110,40,125.65,108,-58.00,1.00,-1049.00
2024-06-07 01:30:00.832392,0,0,0,0,0,0,73,76,132,110,40,125.70,108,-53.00,53.00,-1043.00
2024-06-07 01:30:00.995355,0,0,5,0,0,0,73,76,132,110,40,125.60,108,30.00,-33.00,-1033.00
2024-06-07 01:30:01.036214,0,0,11,0,0,0,73,76,132,110,40,125.63,108,-7.00,20.00,-928.00
2024-06-07 01:30:01.201852,0,0,17,0,0,0,73,76,131,110,40,125.66,108,-1.00,0.00,-1121.00
2024-06-07 01:30:01.240102,0,0,23,0,0,0,73,76,132,110,40,125.69,108,-6.00,23.00,-1022.00
2024-06-07 01:30:01.404625,0,0,29,0,0,0,73,76,132,110,40,125.60,109,26.00,-38.00,-1048.00
2024-06-07 01:30:01.444121,0,0,35,0,0,0,73,76,131,110,40,125.57,109,-40.00,46.00,-1070.00
2024-06-07 01:30:01.612141,0,0,41,0,0,0,73,76,131,110,40,125.62,109,51.00,-5.00,-994.00
2024-06-07 01:30:01.648571,0,0,47,0,0,0,73,76,131,110,40,125.59,109,-84.00,73.00,-819.00
2024-06-07 01:30:01.814445,0,0,53,0,0,0,73,76,130,110,40,125.62,109,-23.00,-1.00,-979.00
2024-06-07 01:30:01.852281,0,0,59,0,0,0,73,76,131,110,40,125.59,109,39.00,-20.00,-1010.00
2024-06-07 01:30:01.953992,0,0,65,0,0,0,73,76,131,110,40,125.60,109,-30.00,-24.00,-1071.00
2024-06-07 01:30:02.123304,0,0,71,0,0,0,73,76,130,110,40,125.60,109,4.00,-18.00,-1025.00
2024-06-07 01:30:02.158725,0,0,77,0,0,0,73,76,130,110,40,125.64,109,-17.00,34.00,-913.00
2024-06-07 01:30:02.325799,0,0,83,0,0,0,73,76,129,110,40,125.61,109,-81.00,57.00,-900.00
2024-06-07 01:30:02.361963,0,0,89,0,0,0,73,76,129,110,40,125.62,110,-33.00,3.00,-1075.00
2024-06-07 01:30:02.531133,0,0,95,0,0,0,75,77,129,110,40,125.63,110,-13.00,47.00,-997.00
2024-06-07 01:30:02.565938,0,0,101,0,0,0,75,77,128,110,40,125.62,110,-37.00,22.00,-908.00
2024-06-07 01:30:02.735776,0,-1,107,0,0,0,75,77,128,110,40,125.56,110,-31.00,-7.00,-981.00
2024-06-07 01:30:02.769901,0,0,113,0,0,0,75,77,128,100,40,125.63,110,85.00,-12.00,-1002.00
2024-06-07 01:30:02.871975,0,0,119,0,0,0,75,77,128,100,40,125.61,110,16.00,-10.00,-1013.00
2024-06-07 01:30:03.044789,0,0,131,0,0,0,75,77,128,100,40,125.68,110,-28.00,20.00,-1019.00
2024-06-07 01:30:03.075952,0,0,137,0,0,0,75,77,128,100,40,125.57,110,-19.00,1.00,-1050.00
2024-06-07 01:30:03.249607,0,0,143,0,0,0,75,77,128,110,40,125.59,110,-41.00,-2.00,-1015.00
2024-06-07 01:30:03.279939,0,0,149,0,0,0,75,77,129,110,40,125.66,111,40.00,-33.00,-1124.00
2024-06-07 01:30:03.454699,0,0,155,0,0,0,75,77,128,110,40,125.59,111,33.00,-3.00,-1052.00
2024-06-07 01:30:03.483896,0,1,161,0,0,0,74,77,128,110,40,125.60,111,86.00,-45.00,-935.00
2024-06-07 01:30:03.659607,0,0,167,0,0,0,74,77,129,110,40,125.63,111,22.00,-9.00,-1041.00
2024-06-07 01:30:03.687880,0,0,173,0,0,0,74,77,128,110,40,125.62,111,75.00,-26.00,-928.00
2024-06-07 01:30:03.864080,0,0,179,0,0,0,74,77,128,110,40,125.60,111,-32.00,0.00,-1040.00
2024-06-07 01:30:03.892155,0,0,-174,0,0,0,74,77,128,110,40,125.55,111,51.00,-13.00,-1025.00
2024-06-07 01:30:03.993803,0,0,-168,0,0,0,74,77,128,110,40,125.61,111,-16.00,-6.00,-1004.00
2024-06-07 01:30:04.256650,0,1,-162,0,0,0,74,77,128,110,40,125.57,111,-34.00,34.00,-1073.00
2024-06-07 01:30:04.273581,0,0,-156,0,0,0,74,77,128,110,40,125.59,111,-26.00,2.00,-966.00
2024-06-07 01:30:04.385328,0,0,-150,0,0,0,74,77,127,110,40,125.61,112,-69.00,11.00,-917.00
2024-06-07 01:30:04.405637,0,0,-144,0,0,0,74,77,127,100,40,125.63,112,-57.00,21.00,-1011.00
2024-06-07 01:30:04.504167,0,0,-138,0,0,0,74,76,127,100,40,125.62,112,23.00,-12.00,-1053.00
2024-06-07 01:30:04.572329,0,0,-132,0,0,0,74,76,126,100,40,125.62,112,33.00,-23.00,-953.00
2024-06-07 01:30:04.692769,0,1,-126,0,0,0,74,76,125,100,40,125.57,112,-2.00,17.00,-1086.00
2024-06-07 01:30:04.911206,0,0,-120,0,0,0,74,76,126,100,40,125.57,112,45.00,-11.00,-1024.00
2024-06-07 01:30:04.917539,0,0,-114,0,0,0,74,76,126,100,40,125.57,112,-31.00,40.00,-904.00
2024-06-07 01:30:05.024235,0,0,-108,0,0,0,74,76,126,100,40,125.65,112,35.00,-7.00,-982.00
2024-06-07 01:30:05.077799,0,1,-102,0,0,0,74,76,126,100,40,125.62,112,43.00,-5.00,-1027.00
2024-06-07 01:30:05.166810,0,0,-96,0,0,0,74,76,126,100,40,125.69,112,10.00,-43.00,-1070.00
2024-06-07 01:30:05.307994,0,0,-90,0,0,0,74,76,127,100,40,125.62,113,26.00,14.00,-1077.00
2024-06-07 01:30:05.451349,0,1,-84,0,0,0,74,76,127,100,40,125.69,113,37.00,-3.00,-1080.00
2024-06-07 01:30:05.472845,0,0,-78,0,0,0,74,76,126,100,40,125.65,113,39.00,-7.00,-1096.00
2024-06-07 01:30:05.615916,0,0,-72,0,0,0,74,76,127,100,40,125.63,113,5.00,-5.00,-987.00
2024-06-07 01:30:05.759307,0,0,-66,0,0,0,74,76,127,100,40,125.60,113,-71.00,26.00,-1079.00
2024-06-07 01:30:05.778705,0,0,-60,0,0,0,74,76,128,100,40,125.62,113,14.00,6.00,-1073.00
2024-06-07 01:30:05.921907,0,0,-53,0,0,0,74,76,128,100,40,125.62,113,27.00,-31.00,-1021.00
2024-06-07 01:30:05.982858,0,0,-47,0,0,0,74,76,128,100,40,125.64,113,41.00,-4.00,-1119.00
2024-06-07 01:30:06.114520,0,0,-41,0,0,0,74,76,128,100,40,125.59,113,-52.00,23.00,-894.00
2024-06-07 01:30:06.186687,0,0,-35,0,0,0,74,76,129,100,40,125.66,113,16.00,6.00,-988.00
2024-06-07 01:30:06.319668,0,0,-29,0,0,0,74,76,129,100,40,125.66,114,90.00,-23.00,-1017.00
2024-06-07 01:30:06.391201,0,0,-24,0,0,0,74,76,129,100,40,125.64,114,-70.00,28.00,-1005.00
2024-06-07 01:30:06.524062,0,0,-19,0,0,0,74,76,129,100,40,125.68,114,-61.00,25.00,-1004.00
2024-06-07 01:30:06.594641,0,0,-16,0,0,0,74,76,130,100,40,125.66,114,-54.00,32.00,-985.00
2024-06-07 01:30:06.731802,0,0,-14,0,0,0,74,76,131,100,40,125.71,114,-29.00,19.00,-1071.00
2024-06-07 01:30:06.798655,0,0,-12,0,0,0,74,76,131,100,40,125.77,114,29.00,-27.00,-1188.00
2024-06-07 01:30:06.900841,0,0,-10,0,0,0,74,76,132,110,40,125.65,114,-3.00,-5.00,-1027.00
2024-06-07 01:30:07.037396,0,0,-9,0,0,0,74,76,132,110,40,125.68,114,-53.00,22.00,-1050.00
2024-06-07 01:30:07.104633,0,0,-8,0,0,0,74,76,133,110,40,125.69,114,-50.00,36.00,-991.00
2024-06-07 01:30:07.210344,0,0,-8,0,0,0,74,76,133,110,40,125.75,114,30.00,-9.00,-925.00
2024-06-07 01:30:07.308825,0,0,-8,0,0,0,74,76,133,110,40,125.73,115,-8.00,-14.00,-971.00
2024-06-07 01:30:07.448109,0,0,-8,0,0,0,74,76,133,110,40,125.71,115,-53.00,0.00,-967.00
2024-06-07 01:30:07.512790,0,0,-8,0,0,0,75,76,133,110,40,125.73,115,-90.00,21.00,-1018.00
2024-06-07 01:30:07.654826,0,0,-8,0,0,0,75,76,133,110,40,125.74,115,-35.00,-2.00,-952.00
2024-06-07 01:30:07.717138,0,0,-8,0,0,0,75,76,132,110,40,125.73,115,-18.00,-28.00,-909.00
2024-06-07 01:30:07.857589,0,0,-8,0,0,0,75,76,132,110,40,125.77,115,14.00,-10.00,-994.00
2024-06-07 01:30:07.920871,0,0,-8,0,0,0,75,76,131,110,40,125.72,115,-60.00,1.00,-974.00
2024-06-07 01:30:08.062506,0,0,-8,0,0,0,75,76,131,110,40,125.75,115,65.00,-33.00,-974.00
2024-06-07 01:30:08.124698,0,0,-8,0,0,0,75,76,131,110,40,125.74,115,-48.00,-1.00,-994.00
2024-06-07 01:30:08.228097,0,0,-8,0,0,0,75,76,131,110,40,125.80,115,-3.00,-3.00,-979.00
2024-06-07 01:30:08.328749,0,0,-8,0,0,0,75,76,131,110,40,125.78,116,52.00,-10.00,-959.00
2024-06-07 01:30:08.379881,0,0,-8,0,0,0,75,76,131,110,40,125.77,116,-44.00,3.00,-1028.00
2024-06-07 01:30:08.574284,0,0,-8,0,0,0,74,76,131,110,40,125.68,116,2.00,-2.00,-1014.00
2024-06-07 01:30:08.583480,0,0,-8,0,0,0,74,76,131,110,40,125.72,116,19.00,19.00,-1013.00
2024-06-07 01:30:08.777646,0,0,-8,0,0,0,74,76,131,110,40,125.81,116,0.00,-14.00,-1020.00
2024-06-07 01:30:08.787584,0,0,-8,0,0,0,74,76,131,110,40,125.75,116,81.00,-58.00,-1077.00
2024-06-07 01:30:08.889603,0,0,-8,0,0,0,74,76,131,110,40,125.75,116,-90.00,17.00,-1038.00
2024-06-07 01:30:09.087246,0,0,-8,0,0,0,74,76,131,110,40,125.82,116,-8.00,-32.00,-1013.00
2024-06-07 01:30:09.093615,0,0,-8,0,0,0,74,76,131,110,40,125.81,116,85.00,-38.00,-1074.00
2024-06-07 01:30:09.195440,0,0,-8,0,0,0,74,76,131,110,40,125.83,116,-71.00,16.00,-1018.00
2024-06-07 01:30:09.393970,0,0,-9,0,0,0,74,76,132,110,40,125.80,117,-44.00,45.00,-971.00
2024-06-07 01:30:09.399384,0,0,-15,0,0,0,74,76,130,110,40,125.88,117,-64.00,41.00,-973.00
2024-06-07 01:30:09.504167,-1,0,-21,0,0,0,74,77,131,110,40,125.80,117,29.00,0.00,-961.00
2024-06-07 01:30:09.606000,-1,0,-27,0,0,0,74,77,130,110,40,125.79,117,-24.00,33.00,-996.00
2024-06-07 01:30:09.707612,0,0,-33,0,0,0,74,77,130,110,40,125.85,117,24.00,-36.00,-956.00
2024-06-07 01:30:09.807370,0,0,-39,0,0,0,74,77,130,110,40,125.76,117,-17.00,0.00,-967.00
2024-06-07 01:30:09.909382,0,0,-45,0,0,0,74,77,130,110,40,125.80,117,-26.00,31.00,-1098.00
2024-06-07 01:30:10.110034,0,0,-51,0,0,0,74,77,129,110,40,125.78,117,-52.00,24.00,-994.00
2024-06-07 01:30:10.113302,0,0,-57,0,0,0,74,77,130,110,40,125.84,117,-19.00,20.00,-976.00
2024-06-07 01:30:10.215242,0,0,-63,0,0,0,74,77,129,110,40,125.84,117,-51.00,-3.00,-988.00
2024-06-07 01:30:10.317482,0,0,-69,0,0,0,74,77,128,110,40,125.81,118,23.00,5.00,-1026.00
2024-06-07 01:30:10.419288,0,0,-75,0,0,0,74,77,129,110,40,125.85,118,-45.00,10.00,-914.00
2024-06-07 01:30:10.521376,0,0,-81,0,0,0,74,76,128,110,40,125.79,118,40.00,-7.00,-1109.00
2024-06-07 01:30:10.724650,0,0,-87,0,0,0,74,76,128,110,40,125.84,118,1.00,9.00,-927.00
2024-06-07 01:30:10.725617,0,0,-93,0,0,0,74,76,127,100,40,125.80,118,5.00,-9.00,-1048.00
2024-06-07 01:30:10.827283,0,0,-99,0,0,0,74,76,126,100,40,125.91,118,20.00,-9.00,-940.00
2024-06-07 01:30:10.930212,0,0,-106,0,0,0,74,76,126,100,40,125.88,118,-20.00,27.00,-1006.00
2024-06-07 01:30:11.031421,0,0,-112,0,0,0,74,76,125,100,40,125.84,118,1.00,0.00,-944.00
2024-06-07 01:30:11.133235,0,0,-118,0,0,0,74,76,125,100,40,125.89,118,74.00,-27.00,-1005.00
2024-06-07 01:30:11.235228,0,0,-124,0,0,0,74,76,124,100,40,125.88,118,-60.00,38.00,-994.00
2024-06-07 01:30:11.337382,0,0,-130,0,0,0,74,76,124,100,40,125.87,119,30.00,-30.00,-959.00
2024-06-07 01:30:11.441493,0,0,-136,0,0,0,74,76,124,100,40,125.81,119,-44.00,16.00,-1077.00
2024-06-07 01:30:11.544595,0,0,-142,0,0,0,75,77,125,100,40,125.81,119,-24.00,8.00,-980.00
2024-06-07 01:30:11.643432,0,0,-148,0,0,0,75,77,125,100,40,125.79,119,65.00,-57.00,-1036.00
2024-06-07 01:30:11.745854,0,0,-154,0,0,0,75,77,126,100,40,125.82,119,-9.00,17.00,-1042.00
2024-06-07 01:30:11.848270,0,0,-160,0,0,0,75,77,126,100,40,125.86,119,-44.00,14.00,-887.00
2024-06-07 01:30:11.949162,0,0,-166,0,0,0,75,77,127,100,40,125.86,119,-46.00,12.00,-1041.00
2024-06-07 01:30:12.053487,0,0,-172,0,0,0,75,77,128,100,40,125.84,119,-4.00,-32.00,-991.00
2024-06-07 01:30:12.153176,0,0,-178,0,0,0,75,77,128,100,40,125.84,119,31.00,24.00,-1040.00
2024-06-07 01:30:12.204263,0,0,175,0,0,0,75,77,130,110,40,125.93,119,80.00,-72.00,-1102.00
2024-06-07 01:30:12.365108,0,0,169,0,0,0,75,77,130,110,40,125.84,120,-1.00,-1.00,-957.00
2024-06-07 01:30:12.408139,0,0,163,0,0,0,75,77,129,110,40,125.83,120,9.00,-40.00,-976.00
2024-06-07 01:30:12.567589,0,0,157,0,0,0,74,77,130,110,40,125.85,120,-93.00,58.00,-982.00
2024-06-07 01:30:12.663094,1,0,151,0,0,0,74,77,130,110,40,125.81,120,-5.00,-2.00,-1000.00
2024-06-07 01:30:12.714573,0,0,145,0,0,0,74,77,130,110,40,125.89,120,69.00,-33.00,-1140.00
2024-06-07 01:30:12.816073,0,0,139,0,0,0,74,77,129,110,40,125.90,120,67.00,-17.00,-972.00
2024-06-07 01:30:12.918331,0,0,133,0,0,0,74,77,129,110,40,125.85,120,14.00,25.00,-972.00
2024-06-07 01:30:13.083392,0,0,127,0,0,0,74,77,128,110,40,125.86,120,4.00,-1.00,-1147.00
2024-06-07 01:30:13.123143,0,0,121,0,0,0,74,77,127,110,40,125.81,120,93.00,-58.00,-1134.00
2024-06-07 01:30:13.282127,0,0,115,0,0,0,74,77,128,110,40,125.84,120,-30.00,28.00,-923.00
2024-06-07 01:30:13.325963,0,0,109,0,0,0,74,77,126,100,40,125.77,121,-17.00,23.00,-1089.00
2024-06-07 01:30:13.488718,0,0,102,0,0,0,74,77,126,100,40,125.80,121,-57.00,3.00,-1028.00
2024-06-07 01:30:13.529952,0,0,96,0,0,0,74,77,127,100,40,125.75,121,27.00,1.00,-1007.00
2024-06-07 01:30:13.693950,0,0,90,0,0,0,74,77,128,100,40,125.84,121,52.00,-20.00,-995.00
2024-06-07 01:30:13.733953,0,0,84,0,0,0,74,77,128,100,40,125.81,121,-18.00,27.00,-915.00
2024-06-07 01:30:13.836145,0,0,77,0,0,0,74,77,128,100,40,125.82,121,26.00,4.00,-1059.00
2024-06-07 01:30:13.938385,0,0,71,0,0,0,74,77,129,100,40,125.78,121,8.00,-23.00,-1022.00
2024-06-07 01:30:14.039993,0,0,65,0,0,0,74,77,129,110,40,125.82,121,-24.00,-6.00,-955.00
2024-06-07 01:30:14.141965,0,-1,59,0,0,0,74,77,128,110,40,125.82,121,-15.00,20.00,-1116.00
2024-06-07 01:30:14.306077,0,-1,52,0,0,0,74,77,130,110,40,125.82,121,15.00,15.00,-1100.00
2024-06-07 01:30:14.345939,0,-1,46,0,0,0,74,77,130,110,40,125.81,122,-14.00,35.00,-1033.00
2024-06-07 01:30:14.512147,0,-1,40,0,0,0,74,77,130,110,40,125.78,122,-24.00,41.00,-932.00
2024-06-07 01:30:14.549920,0,-1,34,0,0,0,74,77,129,110,40,125.78,122,-23.00,13.00,-1081.00
2024-06-07 01:30:14.718010,0,0,28,0,0,0,74,77,129,110,40,125.81,122,-9.00,19.00,-951.00
2024-06-07 01:30:14.753926,0,0,22,0,0,0,74,77,130,110,40,125.80,122,-17.00,-13.00,-1030.00
2024-06-07 01:30:14.924560,0,0,15,0,0,0,74,77,130,110,40,125.81,122,-29.00,48.00,-861.00
2024-06-07 01:30:14.959685,0,0,10,0,0,0,74,77,129,110,40,125.86,122,-63.00,53.00,-1036.00
2024-06-07 01:30:15.127548,0,0,5,0,0,0,74,77,129,110,40,125.81,122,-49.00,23.00,-1079.00
2024-06-07 01:30:15.162896,0,-1,2,0,0,0,74,77,129,110,40,125.85,122,-3.00,19.00,-1015.00
2024-06-07 01:30:15.332268,-1,-1,0,0,0,0,74,77,129,110,40,125.85,122,-42.00,15.00,-1014.00
2024-06-07 01:30:15.366874,0,0,-2,0,0,0,74,77,129,110,40,125.78,123,-3.00,30.00,-1090.00
2024-06-07 01:30:15.468846,0,0,-3,0,0,0,74,77,130,110,40,125.81,123,-22.00,-7.00,-1059.00
2024-06-07 01:30:15.640556,0,0,-4,0,0,0,74,77,130,110,40,125.82,123,-68.00,43.00,-934.00
2024-06-07 01:30:15.672814,0,0,-5,0,0,0,74,77,130,110,40,125.83,123,-72.00,38.00,-1051.00
2024-06-07 01:30:15.845971,0,0,-5,0,0,0,74,77,131,110,40,125.87,123,26.00,-12.00,-998.00
2024-06-07 01:30:15.876979,0,0,-6,0,0,0,74,77,131,110,40,125.78,123,-4.00,-3.00,-1057.00
2024-06-07 01:30:15.981757,0,0,-6,0,0,0,74,77,131,110,40,125.74,123,14.00,10.00,-964.00
2024-06-07 01:30:16.081040,0,0,-6,0,0,0,74,77,130,110,40,125.87,123,-16.00,-21.00,-1028.00
2024-06-07 01:30:16.254220,0,0,-6,0,0,0,74,77,131,110,40,125.77,123,43.00,-28.00,-1105.00
2024-06-07 01:30:16.254384,0,0,-6,0,0,0,74,77,131,110,40,125.76,123,-10.00,9.00,-1009.00
2024-06-07 01:30:16.335970,0,0,-6,0,0,0,74,77,131,110,40,125.83,124,-13.00,6.00,-1031.00
2024-06-07 01:30:16.456652,0,0,-6,0,0,0,74,77,130,110,40,125.86,124,-45.00,21.00,-971.00
2024-06-07 01:30:16.540021,0,0,-6,0,0,0,75,77,130,110,40,125.77,124,-2.00,-13.00,-977.00
2024-06-07 01:30:16.666199,0,0,-6,0,0,0,75,77,130,110,40,125.79,124,-7.00,-14.00,-955.00
2024-06-07 01:30:16.743987,0,0,-6,0,0,0,75,77,131,110,40,125.81,124,-20.00,-7.00,-1013.00
2024-06-07 01:30:16.868894,0,0,-6,0,0,0,75,77,130,110,40,125.85,124,6.00,-26.00,-1012.00
2024-06-07 01:30:16.948370,0,0,-6,0,0,0,75,77,130,110,40,125.80,124,-1.00,5.00,-971.00
2024-06-07 01:30:17.073747,0,0,-6,0,0,0,75,77,130,110,40,125.90,124,-71.00,4.00,-991.00
2024-06-07 01:30:17.152117,0,0,-6,0,0,0,75,77,130,110,40,125.74,124,-16.00,14.00,-921.00
2024-06-07 01:30:17.275869,0,0,-6,0,0,0,75,77,130,110,40,125.80,124,-9.00,-25.00,-994.00
2024-06-07 01:30:17.359030,0,0,-6,0,0,0,75,77,131,110,40,125.79,125,94.00,-63.00,-1008.00
2024-06-07 01:30:17.457881,0,0,-6,0,0,0,75,77,131,110,40,125.81,125,-20.00,8.00,-1073.00
2024-06-07 01:30:17.583561,0,0,-6,0,0,0,75,77,131,110,40,125.89,125,-28.00,11.00,-935.00
2024-06-07 01:30:17.661968,0,0,-6,0,0,0,75,77,132,110,40,125.85,125,-42.00,39.00,-1016.00
2024-06-07 01:30:17.792465,0,0,-6,0,0,0,75,77,131,110,40,125.86,125,-25.00,-4.00,-979.00
2024-06-07 01:30:17.867611,0,0,-6,0,0,0,75,77,132,110,40,125.80,125,24.00,-8.00,-911.00
2024-06-07 01:30:17.968853,0,0,-6,0,0,0,75,77,131,110,40,125.82,125,23.00,-16.00,-1046.00
2024-06-07 01:30:18.098680,0,0,-6,0,0,0,75,77,131,110,40,125.80,125,-89.00,9.00,-1086.00
2024-06-07 01:30:18.172808,0,0,-6,0,0,0,75,77,131,110,40,125.75,125,-23.00,-9.00,-967.00
2024-06-07 01:30:18.303853,0,0,-6,0,0,0,75,77,132,110,40,125.78,125,-63.00,14.00,-1004.00
2024-06-07 01:30:18.376843,0,0,-6,0,0,0,75,77,131,110,40,125.81,126,-23.00,48.00,-868.00
2024-06-07 01:30:18.505823,0,0,-6,0,0,0,75,77,132,110,40,125.90,126,33.00,-6.00,-1027.00
2024-06-07 01:30:18.580625,0,0,-6,0,0,0,75,77,131,110,40,125.85,126,26.00,6.00,-1007.00
2024-06-07 01:30:18.710617,0,0,-6,0,0,0,75,77,131,110,40,125.86,126,-39.00,11.00,-1015.00
2024-06-07 01:30:18.784734,0,0,-6,0,0,0,75,77,131,110,40,125.87,126,34.00,-62.00,-1062.00
2024-06-07 01:30:18.917741,0,0,-6,0,0,0,75,77,131,110,40,125.87,126,-31.00,25.00,-1035.00
2024-06-07 01:30:18.994004,0,0,-6,0,0,0,75,77,131,110,40,125.81,126,-16.00,-4.00,-1100.00
2024-06-07 01:30:19.133056,0,0,-6,0,0,0,75,77,130,110,40,125.79,126,28.00,-6.00,-937.00
2024-06-07 01:30:19.274871,0,0,-6,0,0,0,75,77,130,110,40,125.82,126,-20.00,24.00,-962.00
2024-06-07 01:30:19.294665,0,0,-6,0,0,0,75,77,130,110,40,125.83,127,117.00,-43.00,-1191.00
2024-06-07 01:30:19.421212,0,0,-6,0,0,0,75,77,129,110,40,125.80,127,-30.00,26.00,-1018.00
2024-06-07 01:30:19.498664,0,0,-6,0,0,0,75,77,129,110,40,125.82,127,3.00,-10.00,-1048.00
2024-06-07 01:30:19.633870,0,0,-6,0,0,0,74,76,128,100,40,125.82,127,-16.00,-18.00,-925.00
2024-06-07 01:30:19.940549,0,0,-6,0,0,0,74,76,128,100,40,125.84,127,-55.00,50.00,-1118.00
2024-06-07 01:30:19.958998,0,0,-6,0,0,0,74,76,128,100,40,125.79,127,-50.00,14.00,-975.00
2024-06-07 01:30:19.959069,0,0,-6,0,0,0,74,76,129,100,40,125.79,127,50.00,-18.00,-1033.00
2024-06-07 01:30:19.959643,0,0,-6,0,0,0,74,76,128,100,40,125.73,127,82.00,-27.00,-992.00
2024-06-07 01:30:20.077513,0,0,-6,0,0,0,74,76,129,100,40,125.81,127,-42.00,11.00,-1019.00
2024-06-07 01:30:20.162697,0,0,-6,0,0,0,74,76,130,110,40,125.87,127,-57.00,44.00,-909.00
2024-06-07 01:30:20.359755,0,0,-6,0,0,0,74,76,130,110,40,125.87,128,-10.00,9.00,-986.00
2024-06-07 01:30:20.369772,0,0,-6,0,0,0,74,76,131,110,40,125.78,128,36.00,2.00,-1059.00
2024-06-07 01:30:20.501874,0,0,-6,0,0,0,74,76,132,110,40,125.94,128,40.00,-3.00,-913.00
2024-06-07 01:30:20.669180,0,0,-6,0,0,0,74,76,132,110,40,125.91,128,-96.00,10.00,-904.00
2024-06-07 01:30:20.672584,0,0,-6,0,0,0,74,76,132,110,40,125.89,128,-27.00,-9.00,-1058.00
2024-06-07 01:30:20.812747,0,0,-6,0,0,0,74,76,132,110,40,125.89,128,-35.00,26.00,-900.00
2024-06-07 01:30:20.972965,0,0,-6,0,0,0,74,76,132,110,40,125.86,128,-46.00,32.00,-970.00
2024-06-07 01:30:20.978372,0,0,-6,0,0,0,74,76,133,110,40,125.91,128,-38.00,17.00,-961.00
2024-06-07 01:30:21.116290,0,0,-6,0,0,0,74,76,132,110,40,125.87,128,84.00,-56.00,-1153.00
2024-06-07 01:30:21.284732,0,0,-6,0,0,0,74,76,132,110,40,125.84,128,-53.00,24.00,-929.00
2024-06-07 01:30:21.284883,0,0,-6,0,0,0,74,76,130,110,40,125.82,129,-63.00,24.00,-1005.00
2024-06-07 01:30:21.478004,0,0,-6,0,0,0,74,76,130,110,40,125.80,129,-24.00,31.00,-1010.00
2024-06-07 01:30:21.494625,0,0,-6,0,0,0,74,76,129,110,40,125.80,129,6.00,-2.00,-1071.00
2024-06-07 01:30:21.591320,0,0,-6,0,0,0,75,76,128,100,40,125.88,129,-94.00,44.00,-1053.00
2024-06-07 01:30:21.692468,0,0,-6,0,0,0,75,76,128,100,40,125.81,129,-3.00,-13.00,-1139.00
2024-06-07 01:30:21.885316,0,0,-6,0,0,0,75,76,127,100,40,125.84,129,1.00,-9.00,-984.00
2024-06-07 01:30:21.896790,0,0,-6,0,0,0,75,76,126,100,40,125.83,129,-31.00,27.00,-1050.00
2024-06-07 01:30:22.090817,0,0,-6,0,0,0,75,76,127,100,40,125.84,129,11.00,14.00,-1074.00
2024-06-07 01:30:22.100480,0,0,-6,0,0,0,75,76,126,100,40,125.83,129,-41.00,23.00,-924.00
2024-06-07 01:30:22.202515,0,0,-6,0,0,0,75,76,126,100,40,125.83,129,-6.00,1.00,-948.00
2024-06-07 01:30:22.304999,0,0,-6,0,0,0,75,76,126,100,40,125.86,130,-31.00,45.00,-1006.00
2024-06-07 01:30:22.502055,0,-1,-6,0,0,0,75,76,126,100,40,125.88,130,9.00,-17.00,-1011.00
2024-06-07 01:30:22.508630,0,0,-6,0,0,0,75,76,125,100,40,125.87,130,13.00,-2.00,-1022.00
2024-06-07 01:30:22.705140,0,0,-6,0,0,0,75,77,125,100,40,125.89,130,-19.00,19.00,-917.00
2024-06-07 01:30:22.712342,0,0,-6,0,0,0,75,77,125,100,40,125.79,130,-40.00,-1.00,-986.00
2024-06-07 01:30:22.909762,0,0,-6,0,0,0,75,77,125,100,40,125.81,130,-74.00,23.00,-1049.00
2024-06-07 01:30:22.918454,0,0,-6,0,0,0,75,77,125,100,40,125.82,130,21.00,-9.00,-1085.00
2024-06-07 01:30:23.018444,0,0,-6,0,0,0,75,77,125,100,40,125.82,130,-5.00,48.00,-1051.00
2024-06-07 01:30:23.216862,0,-1,-6,0,0,0,75,77,125,100,40,125.86,130,4.00,10.00,-1027.00
2024-06-07 01:30:23.222331,0,0,-6,0,0,0,75,77,124,100,40,125.83,130,59.00,-33.00,-1020.00
2024-06-07 01:30:23.422177,0,0,-6,0,0,0,75,77,125,100,40,125.81,131,-17.00,18.00,-846.00
2024-06-07 01:30:23.427594,0,0,-6,0,0,0,75,77,125,100,40,125.86,131,-77.00,66.00,-934.00
2024-06-07 01:30:23.477532,0,0,-6,0,0,0,75,77,125,100,40,125.86,131,-49.00,37.00,-975.00
2024-06-07 01:30:23.630384,0,0,-6,0,0,0,75,77,125,100,40,125.80,131,23.00,0.00,-1046.00
2024-06-07 01:30:23.831663,0,0,-6,0,0,0,75,77,125,100,40,125.81,131,63.00,-21.00,-1074.00
2024-06-07 01:30:23.831836,0,0,-6,0,0,0,75,77,127,100,40,125.89,131,-41.00,19.00,-1095.00
2024-06-07 01:30:23.885729,0,0,-6,0,0,0,75,77,127,100,40,125.89,131,27.00,-17.00,-973.00
2024-06-07 01:30:23.987137,0,0,-6,0,0,0,75,77,129,100,40,125.90,131,8.00,9.00,-1094.00
2024-06-07 01:30:24.138797,0,0,-6,0,0,0,75,77,129,100,40,125.91,131,-30.00,45.00,-983.00
2024-06-07 01:30:24.191248,0,0,-6,0,0,0,75,77,129,110,40,125.82,131,-18.00,12.00,-1055.00
2024-06-07 01:30:24.344371,0,0,-6,0,0,0,75,77,130,110,40,125.90,132,-36.00,38.00,-1036.00
2024-06-07 01:30:24.395263,0,0,-6,0,0,0,75,77,129,110,40,125.80,132,-34.00,-5.00,-856.00
2024-06-07 01:30:24.550279,0,0,-6,0,0,0,75,77,130,110,40,125.88,132,-15.00,-5.00,-909.00
2024-06-07 01:30:24.599268,0,0,-6,0,0,0,74,77,131,110,40,125.90,132,-70.00,46.00,-939.00
2024-06-07 01:30:24.754178,0,0,-6,0,0,0,74,77,131,110,40,125.92,132,52.00,-3.00,-988.00
2024-06-07 01:30:24.803614,0,0,-6,0,0,0,74,77,131,110,40,125.91,132,-22.00,25.00,-996.00
2024-06-07 01:30:24.955820,0,0,-6,0,0,0,74,77,131,110,40,125.93,132,-43.00,23.00,-1027.00
2024-06-07 01:30:25.007313,0,0,-6,0,0,0,74,77,131,110,40,125.88,132,27.00,-5.00,-986.00
2024-06-07 01:30:25.162586,0,0,-6,0,0,0,74,77,131,110,40,125.94,132,17.00,0.00,-1108.00
2024-06-07 01:30:25.211254,0,0,-6,0,0,0,74,77,131,110,40,125.89,132,37.00,-7.00,-1040.00
2024-06-07 01:30:25.365452,0,0,-6,0,0,0,74,77,131,110,40,125.92,133,-37.00,-9.00,-952.00
2024-06-07 01:30:25.415095,0,0,-6,0,0,0,74,77,131,110,40,125.89,133,1.00,32.00,-863.00
2024-06-07 01:30:25.570632,0,0,-6,0,0,0,74,77,131,110,40,125.88,133,24.00,-3.00,-1016.00
2024-06-07 01:30:25.619199,0,0,-6,0,0,0,75,77,132,110,40,125.91,133,24.00,-11.00,-1009.00
2024-06-07 01:30:25.775483,0,0,-6,0,0,0,75,77,131,110,40,125.92,133,51.00,-21.00,-1019.00
2024-06-07 01:30:25.823521,0,0,-6,0,0,0,75,77,131,110,40,125.86,133,-4.00,16.00,-1061.00
2024-06-07 01:30:25.980905,0,0,-6,0,0,0,75,77,131,110,40,125.87,133,-44.00,19.00,-930.00
2024-06-07 01:30:26.027945,0,0,-6,0,0,0,75,77,132,110,40,125.88,133,1.00,5.00,-979.00
2024-06-07 01:30:26.184169,0,0,-6,0,0,0,75,77,132,110,40,125.91,133,-20.00,21.00,-1024.00
2024-06-07 01:30:26.232072,0,0,-6,0,0,0,75,77,132,110,40,125.89,133,-25.00,11.00,-940.00
2024-06-07 01:30:26.391436,0,0,-6,0,0,0,75,77,132,110,40,125.92,134,58.00,-33.00,-933.00
2024-06-07 01:30:26.436075,0,0,-6,0,0,0,75,77,132,110,40,125.87,134,12.00,-36.00,-1015.00
2024-06-07 01:30:26.593782,0,0,-6,0,0,0,75,77,132,110,40,125.98,134,54.00,26.00,-1168.00
2024-06-07 01:30:26.640684,0,0,-6,0,0,0,75,77,132,110,39,125.88,134,-64.00,59.00,-993.00
2024-06-07 01:30:26.799592,0,0,-6,0,0,0,75,77,133,110,39,125.87,134,-1.00,9.00,-967.00
2024-06-07 01:30:26.845248,0,0,-6,0,0,0,75,77,134,110,39,126.00,134,-17.00,-6.00,-1019.00
2024-06-07 01:30:26.945995,0,0,-6,0,0,0,75,77,135,110,39,125.97,134,-32.00,13.00,-1030.00
2024-06-07 01:30:27.047958,0,0,-6,0,0,0,75,77,135,110,39,125.96,134,17.00,-29.00,-1003.00
2024-06-07 01:30:27.166338,0,0,-6,0,0,0,75,77,136,110,39,125.91,134,48.00,-18.00,-978.00
2024-06-07 01:30:27.251987,0,0,-6,0,0,0,75,77,136,110,39,125.92,134,-5.00,-3.00,-959.00
2024-06-07 01:30:27.306866,0,0,-6,0,0,0,75,77,136,110,39,125.94,135,-67.00,67.00,-1005.00
2024-06-07 01:30:27.407017,0,0,-6,0,0,0,75,77,135,110,39,125.96,135,16.00,-2.00,-969.00
2024-06-07 01:30:27.507048,0,0,-6,0,0,0,75,77,135,110,39,125.96,135,74.00,-27.00,-1093.00
2024-06-07 01:30:27.660421,0,0,-6,0,0,0,75,76,134,110,39,125.97,135,52.00,-40.00,-961.00
2024-06-07 01:30:27.710937,0,0,-6,0,0,0,75,76,134,110,39,125.91,135,24.00,8.00,-989.00
2024-06-07 01:30:27.813382,0,0,-6,0,0,0,75,76,133,110,39,125.92,135,0.00,-7.00,-995.00
2024-06-07 01:30:27.916868,0,0,-6,0,0,0,75,76,133,110,39,125.92,135,-51.00,42.00,-1039.00
2024-06-07 01:30:28.018125,0,0,-6,0,0,0,75,76,132,110,39,125.89,135,-48.00,22.00,-930.00
2024-06-07 01:30:28.123915,0,0,-6,0,0,0,75,76,131,110,39,125.92,135,22.00,-5.00,-976.00
2024-06-07 01:30:28.222012,0,0,-6,0,0,0,75,76,129,110,39,125.88,135,2.00,-6.00,-971.00
2024-06-07 01:30:28.324309,0,0,-6,0,0,0,75,76,128,110,39,125.84,136,58.00,-16.00,-972.00
2024-06-07 01:30:28.439322,0,0,-6,0,0,0,75,76,127,110,39,125.81,136,56.00,3.00,-1092.00
2024-06-07 01:30:28.527930,0,0,-6,0,0,0,75,76,127,100,39,125.88,136,15.00,10.00,-986.00
2024-06-07 01:30:28.642090,0,0,-6,0,0,0,74,77,126,100,39,125.86,136,-4.00,13.00,-1033.00
2024-06-07 01:30:28.732143,0,0,-6,0,0,0,74,77,124,100,39,125.85,136,-64.00,10.00,-978.00
2024-06-07 01:30:28.846644,0,0,-6,0,0,0,74,77,125,100,39,125.86,136,13.00,13.00,-1030.00
2024-06-07 01:30:28.936289,0,0,-6,0,0,0,74,77,125,100,39,125.87,136,-6.00,9.00,-1119.00
2024-06-07 01:30:29.052456,0,0,-6,0,0,0,74,77,124,100,39,125.88,136,-3.00,30.00,-1161.00
2024-06-07 01:30:29.139962,0,0,-6,0,0,0,74,77,124,100,39,125.82,136,45.00,-33.00,-1011.00
2024-06-07 01:30:29.259091,0,0,-6,0,0,0,74,77,125,100,39,125.83,136,-50.00,10.00,-975.00
2024-06-07 01:30:29.344157,0,0,-6,0,0,0,74,77,127,100,39,125.81,137,1.00,-4.00,-1020.00
2024-06-07 01:30:29.460927,0,0,-6,0,0,0,74,77,127,100,39,125.84,137,55.00,-59.00,-1063.00
2024-06-07 01:30:29.547840,0,0,-6,0,0,0,74,77,128,100,39,125.83,137,5.00,2.00,-939.00
2024-06-07 01:30:29.667907,0,0,-6,0,0,0,74,77,129,100,39,125.91,137,-24.00,43.00,-1001.00
2024-06-07 01:30:29.751804,0,0,-6,0,0,0,74,77,130,110,39,125.89,137,22.00,1.00,-963.00
2024-06-07 01:30:29.873620,0,0,-6,0,0,0,74,77,130,110,39,125.94,137,64.00,-18.00,-1014.00
2024-06-07 01:30:29.955922,0,0,-6,0,0,0,74,77,131,110,39,125.96,137,-5.00,39.00,-1001.00
2024-06-07 01:30:30.057847,1,0,-6,0,0,0,74,77,131,110,39,125.87,137,-24.00,13.00,-1010.00
2024-06-07 01:30:30.162837,1,0,-6,0,0,0,74,77,131,110,39,125.94,137,-24.00,16.00,-1024.00
2024-06-07 01:30:30.261579,0,0,-6,0,0,0,74,77,132,110,39,125.83,137,-21.00,0.00,-1040.00
2024-06-07 01:30:30.387042,0,0,-6,0,0,0,74,77,132,110,39,125.89,138,-22.00,-17.00,-935.00
2024-06-07 01:30:30.465667,0,0,-6,0,0,0,74,77,130,110,39,125.90,138,14.00,0.00,-968.00
2024-06-07 01:30:30.588151,0,0,-6,0,0,0,74,77,130,110,39,125.85,138,46.00,19.00,-1091.00
2024-06-07 01:30:30.669486,1,0,-6,0,0,0,73,76,130,110,39,125.83,138,-21.00,1.00,-913.00
