TS,pitch,roll,yaw,vgx,vgy,vgz,templ,temph,tof,h,bat,baro,time,agx,agy,agz
2024-06-07 01:30:51.475928,0,0,-7,0,0,0,77,80,10,0,38,124.38,140,-4.00,0.00,-1000.00
2024-06-07 01:30:51.476911,0,0,-7,0,0,0,77,80,10,0,38,124.40,140,-5.00,0.00,-1000.00
2024-06-07 01:30:51.580614,0,0,-7,0,0,0,77,80,10,0,38,124.41,140,-4.00,0.00,-999.00
2024-06-07 01:30:51.680623,0,0,-7,0,0,0,77,80,10,0,38,124.38,140,-4.00,0.00,-1001.00
2024-06-07 01:30:51.783096,0,0,-7,0,0,0,78,80,10,0,38,124.37,140,-5.00,0.00,-999.00
2024-06-07 01:30:51.885699,0,0,-7,0,0,0,78,80,10,0,38,124.37,140,-3.00,1.00,-999.00
2024-06-07 01:30:51.987873,0,0,-7,0,0,0,78,80,10,0,38,124.40,140,-4.00,0.00,-998.00
2024-06-07 01:30:52.089983,0,0,-7,0,0,0,78,80,10,0,38,124.40,140,-5.00,0.00,-998.00
2024-06-07 01:30:52.139648,0,0,-7,0,0,0,78,80,10,0,38,124.44,140,-4.00,0.00,-1001.00
2024-06-07 01:30:52.296297,0,0,-7,0,0,0,78,80,10,0,38,124.41,140,-6.00,0.00,-1000.00
2024-06-07 01:30:52.343691,0,0,-7,0,0,0,78,80,10,0,38,124.41,140,-6.00,1.00,-1001.00
2024-06-07 01:30:52.500905,0,0,-7,0,0,0,78,80,10,0,38,124.40,140,-5.00,0.00,-1001.00
2024-06-07 01:30:52.552742,0,0,-7,0,0,0,78,80,10,0,38,124.43,140,-4.00,0.00,-1002.00
2024-06-07 01:30:52.649559,0,0,-7,0,0,0,78,80,10,0,38,124.41,140,-2.00,0.00,-1003.00
2024-06-07 01:30:52.806843,0,0,-7,0,0,0,78,80,10,0,38,124.48,140,-5.00,1.00,-998.00
2024-06-07 01:30:52.853993,0,0,-7,0,0,0,78,80,10,0,38,124.38,140,-5.00,1.00,-1001.00
2024-06-07 01:30:53.011629,0,0,-7,0,0,0,78,80,10,0,38,124.42,140,-3.00,0.00,-998.00
2024-06-07 01:30:53.057739,0,0,-7,0,0,0,78,80,10,0,38,124.40,140,-5.00,0.00,-999.00
2024-06-07 01:30:53.216524,0,0,-7,0,0,0,78,80,10,0,38,124.44,140,-4.00,0.00,-1000.00
2024-06-07 01:30:53.267385,0,0,-7,0,0,0,78,80,10,0,38,124.39,140,-5.00,1.00,-1002.00
2024-06-07 01:30:53.363673,0,0,-7,0,0,0,78,80,10,0,38,124.41,140,-5.00,1.00,-998.00
2024-06-07 01:30:53.526037,0,0,-7,0,0,0,78,80,10,0,38,124.42,140,-4.00,0.00,-998.00
2024-06-07 01:30:53.567495,0,0,-7,0,0,0,78,80,10,0,38,124.44,140,-5.00,0.00,-999.00
2024-06-07 01:30:53.669616,0,0,-7,0,0,0,78,80,10,0,38,124.41,140,-5.00,0.00,-999.00
2024-06-07 01:30:53.832165,0,0,-7,0,0,0,77,80,10,0,38,124.41,141,3.00,8.00,-1000.00
2024-06-07 01:30:53.873507,0,0,-6,0,0,0,77,80,10,0,38,124.41,141,-1.00,-23.00,-1010.00
2024-06-07 01:30:53.975420,0,0,-5,0,0,0,77,80,10,0,38,124.41,141,33.00,8.00,-1011.00
2024-06-07 01:30:54.137843,0,0,-2,0,0,0,77,80,10,0,38,124.41,141,-6.00,33.00,-1017.00
2024-06-07 01:30:54.179375,0,0,0,0,0,0,77,80,10,0,38,124.41,141,-22.00,12.00,-939.00
2024-06-07 01:30:54.342694,0,-1,0,0,0,0,77,80,10,0,38,124.41,141,-4.00,-16.00,-1043.00
2024-06-07 01:30:54.383510,0,-1,0,0,0,-2,77,80,10,0,38,124.41,141,-17.00,15.00,-1125.00
2024-06-07 01:30:54.547844,0,0,0,0,0,-5,77,80,10,0,38,124.41,141,-25.00,40.00,-1271.00
2024-06-07 01:30:54.587594,0,0,0,0,0,-7,77,80,12,10,38,124.41,141,77.00,-20.00,-1126.00
2024-06-07 01:30:54.752714,0,0,0,0,0,-8,77,80,21,20,38,124.76,141,-24.00,16.00,-1107.00
2024-06-07 01:30:54.791525,0,0,0,0,0,-8,78,80,30,30,38,124.92,142,-14.00,14.00,-1078.00
2024-06-07 01:30:54.959406,0,0,0,0,0,-8,78,80,33,30,38,124.92,142,56.00,-30.00,-1039.00
2024-06-07 01:30:54.995479,0,0,0,0,0,-7,78,80,40,40,38,124.98,142,8.00,-33.00,-985.00
2024-06-07 01:30:55.161860,0,0,0,0,0,-6,78,80,47,50,38,125.10,142,61.00,-49.00,-934.00
2024-06-07 01:30:55.199480,0,1,0,0,0,-5,78,80,53,50,38,125.10,142,-2.00,23.00,-846.00
2024-06-07 01:30:55.366637,0,0,0,0,0,-4,78,80,58,60,38,125.13,142,-77.00,-7.00,-840.00
2024-06-07 01:30:55.403583,0,0,0,0,0,-3,78,80,62,60,38,125.20,142,-23.00,11.00,-828.00
2024-06-07 01:30:55.454736,0,0,0,0,0,-2,78,80,64,60,38,125.24,142,43.00,-43.00,-868.00
2024-06-07 01:30:55.572268,0,0,0,0,0,-1,78,80,66,60,38,125.24,142,-41.00,30.00,-809.00
2024-06-07 01:30:55.658391,0,0,0,0,0,0,78,80,67,70,38,125.27,142,-144.00,87.00,-882.00
2024-06-07 01:30:55.778721,0,0,0,0,0,0,77,79,68,70,38,125.25,143,26.00,-10.00,-1025.00
2024-06-07 01:30:55.862336,0,0,0,0,0,0,77,79,68,70,38,125.29,143,-27.00,21.00,-1011.00
2024-06-07 01:30:55.966104,0,0,0,0,0,0,77,79,69,70,38,125.30,143,10.00,-6.00,-895.00
2024-06-07 01:30:56.066219,0,0,0,0,0,0,77,79,70,70,38,125.34,143,-75.00,27.00,-1062.00
2024-06-07 01:30:56.188215,0,0,0,0,0,0,77,79,71,70,38,125.36,143,-14.00,10.00,-972.00
2024-06-07 01:30:56.270349,0,0,0,0,0,-1,77,79,72,70,38,125.38,143,46.00,-7.00,-1130.00
2024-06-07 01:30:56.393822,0,0,0,0,0,-1,77,79,73,70,38,125.33,143,26.00,-35.00,-1011.00
2024-06-07 01:30:56.474274,0,0,0,0,0,-1,77,79,74,70,38,125.37,143,37.00,0.00,-911.00
2024-06-07 01:30:56.598051,0,0,0,0,0,-1,77,79,76,70,38,125.43,143,-4.00,12.00,-987.00
2024-06-07 01:30:56.678219,0,0,0,0,0,-1,77,79,76,70,38,125.44,143,-58.00,26.00,-1014.00
2024-06-07 01:30:56.800090,0,0,0,0,0,-1,78,80,77,70,38,125.36,144,-50.00,14.00,-966.00
2024-06-07 01:30:56.882043,0,0,0,0,0,0,78,80,78,70,38,125.35,144,24.00,-10.00,-930.00
2024-06-07 01:30:57.008985,0,0,0,0,0,0,78,80,78,80,38,125.40,144,-38.00,-3.00,-989.00
2024-06-07 01:30:57.086296,0,0,0,0,0,0,78,80,79,80,38,125.49,144,30.00,-8.00,-1000.00
2024-06-07 01:30:57.210289,0,0,0,0,0,0,78,80,79,80,38,125.33,144,80.00,-50.00,-989.00
2024-06-07 01:30:57.290224,0,0,0,0,0,0,78,80,79,80,38,125.39,144,29.00,-15.00,-1009.00
2024-06-07 01:30:57.392257,0,0,0,0,0,0,78,80,80,80,38,125.41,144,28.00,-7.00,-1084.00
2024-06-07 01:30:57.516916,0,0,0,0,0,0,78,80,80,80,38,125.46,144,1.00,4.00,-1005.00
2024-06-07 01:30:57.596185,0,0,0,0,0,0,78,80,80,80,38,125.47,144,13.00,3.00,-993.00
2024-06-07 01:30:57.724001,0,0,0,0,0,0,78,80,80,80,38,125.43,144,29.00,-8.00,-1056.00
2024-06-07 01:30:57.800212,0,0,0,0,0,0,78,79,80,80,38,125.42,145,-17.00,19.00,-908.00
2024-06-07 01:30:57.932399,0,0,0,0,0,0,78,79,80,80,38,125.38,145,-6.00,51.00,-903.00
2024-06-07 01:30:58.004283,0,0,0,0,0,0,78,79,80,80,38,125.40,145,32.00,-4.00,-952.00
2024-06-07 01:30:58.107883,0,0,0,0,0,0,78,79,79,80,38,125.42,145,12.00,-18.00,-980.00
2024-06-07 01:30:58.209123,0,0,0,0,0,0,78,79,79,80,38,125.41,145,53.00,6.00,-959.00
2024-06-07 01:30:58.311277,0,0,0,0,0,0,78,79,79,80,38,125.37,145,92.00,-58.00,-1073.00
2024-06-07 01:30:58.441032,0,0,0,0,0,0,78,79,79,70,38,125.40,145,-16.00,30.00,-935.00
2024-06-07 01:30:58.515173,0,0,0,0,0,0,78,79,79,70,38,125.39,145,-10.00,-8.00,-915.00
2024-06-07 01:30:58.648691,0,0,0,0,0,0,78,79,79,70,38,125.39,145,30.00,-9.00,-1035.00
2024-06-07 01:30:58.719332,0,0,0,0,0,0,78,79,79,70,38,125.51,145,11.00,-16.00,-974.00
2024-06-07 01:30:58.854923,0,0,0,0,0,0,77,80,79,80,38,125.47,146,31.00,-28.00,-995.00
2024-06-07 01:30:58.923223,0,0,0,0,0,0,77,80,79,80,38,125.45,146,-15.00,9.00,-1067.00
2024-06-07 01:30:59.053113,0,0,0,0,0,0,77,80,80,80,38,125.48,146,48.00,-37.00,-1022.00
2024-06-07 01:30:59.127126,0,0,0,0,0,0,77,80,80,80,38,125.42,146,-33.00,5.00,-1036.00
2024-06-07 01:30:59.261329,0,0,0,0,0,0,77,80,80,80,38,125.42,146,24.00,-16.00,-1046.00
2024-06-07 01:30:59.279898,0,0,0,0,0,0,77,80,80,80,38,125.39,146,-5.00,5.00,-967.00
2024-06-07 01:30:59.466210,0,0,0,0,0,0,77,80,80,80,38,125.42,146,14.00,-2.00,-1037.00
2024-06-07 01:30:59.485222,0,0,0,0,0,0,77,80,81,80,38,125.45,146,-2.00,-13.00,-957.00
2024-06-07 01:30:59.671957,0,0,0,0,0,0,77,80,81,80,38,125.46,146,29.00,13.00,-1027.00
2024-06-07 01:30:59.693431,0,0,0,0,0,0,77,80,80,80,38,125.41,146,39.00,-37.00,-1056.00
2024-06-07 01:30:59.790059,0,0,0,0,0,0,77,80,80,80,38,125.43,147,-26.00,12.00,-969.00
2024-06-07 01:30:59.974976,0,0,0,0,0,0,77,80,80,80,38,125.47,147,-36.00,20.00,-1019.00
2024-06-07 01:30:59.994192,0,0,0,0,0,0,77,80,79,80,38,125.44,147,-60.00,-12.00,-962.00
2024-06-07 01:31:00.181582,0,0,0,0,0,0,77,80,79,80,38,125.46,147,-38.00,14.00,-955.00
2024-06-07 01:31:00.197975,0,0,0,0,0,0,77,80,79,80,38,125.48,147,23.00,14.00,-1089.00
2024-06-07 01:31:00.299962,0,0,0,0,0,0,77,80,79,70,38,125.41,147,53.00,-45.00,-983.00
2024-06-07 01:31:00.489572,0,0,0,0,0,0,77,80,79,70,38,125.46,147,14.00,10.00,-1052.00
2024-06-07 01:31:00.504402,0,0,0,0,0,0,77,80,80,70,38,125.42,147,3.00,15.00,-1084.00
2024-06-07 01:31:00.694929,0,0,0,0,0,-1,77,80,81,80,38,125.50,147,-3.00,-34.00,-1129.00
2024-06-07 01:31:00.708213,0,0,0,0,0,-2,77,80,83,80,38,125.49,147,-39.00,20.00,-969.00
2024-06-07 01:31:00.896023,0,0,0,0,0,-3,77,79,87,80,38,125.50,148,38.00,-5.00,-1120.00
2024-06-07 01:31:00.911818,0,0,0,0,0,-4,77,79,90,90,38,125.54,148,5.00,-16.00,-1089.00
2024-06-07 01:31:01.103085,0,0,0,0,0,-4,77,79,95,90,38,125.56,148,-67.00,30.00,-1013.00
2024-06-07 01:31:01.115776,0,1,0,0,0,-5,77,79,101,90,38,125.59,148,5.00,-5.00,-1082.00
2024-06-07 01:31:01.308207,0,0,0,0,0,-5,77,79,105,100,38,125.60,148,-80.00,17.00,-974.00
2024-06-07 01:31:01.320940,0,0,0,0,0,-5,77,79,111,110,38,125.70,148,-40.00,4.00,-1089.00
2024-06-07 01:31:01.513473,0,0,0,0,0,-5,77,79,117,110,38,125.80,148,24.00,0.00,-973.00
2024-06-07 01:31:01.523769,0,0,0,0,0,-5,77,79,122,120,38,125.82,148,82.00,-49.00,-1011.00
2024-06-07 01:31:01.717830,0,0,0,0,0,-5,77,79,127,120,38,125.86,148,14.00,-6.00,-984.00
2024-06-07 01:31:01.727762,0,0,0,0,0,-4,77,79,132,130,38,125.94,148,-50.00,9.00,-998.00
2024-06-07 01:31:01.919944,0,0,0,0,0,-4,77,79,136,130,38,126.00,149,-8.00,-12.00,-982.00
2024-06-07 01:31:01.932576,0,0,0,0,0,-4,77,79,143,140,38,126.01,149,-11.00,7.00,-991.00
2024-06-07 01:31:02.125794,0,0,0,0,0,-4,77,79,147,140,38,126.01,149,9.00,9.00,-1005.00
2024-06-07 01:31:02.136436,0,0,0,0,0,-4,77,79,150,140,38,126.13,149,37.00,-40.00,-961.00
2024-06-07 01:31:02.238883,0,0,0,0,0,-3,77,79,155,150,38,126.17,149,-88.00,39.00,-976.00
2024-06-07 01:31:02.434844,0,0,0,0,0,-3,77,79,158,150,38,126.11,149,70.00,-16.00,-944.00
2024-06-07 01:31:02.442428,0,0,0,0,0,-3,77,79,162,160,38,126.19,149,20.00,-19.00,-1022.00
2024-06-07 01:31:02.639042,0,0,0,0,0,-2,77,79,164,160,38,126.25,149,-36.00,11.00,-1004.00
2024-06-07 01:31:02.645663,0,0,0,0,0,-2,77,79,167,160,38,126.33,149,35.00,-16.00,-993.00
2024-06-07 01:31:02.844991,0,0,0,0,0,-2,77,79,170,160,38,126.23,149,-5.00,-6.00,-977.00
2024-06-07 01:31:02.849605,0,0,0,0,0,-1,77,79,170,170,38,126.30,150,-17.00,-10.00,-1013.00
2024-06-07 01:31:03.046322,0,0,0,0,0,-1,77,79,171,170,38,126.30,150,-14.00,-21.00,-970.00
2024-06-07 01:31:03.053683,0,0,0,0,0,-1,77,79,171,170,38,126.29,150,43.00,-38.00,-968.00
2024-06-07 01:31:03.166871,0,0,0,0,0,-1,77,79,172,170,38,126.32,150,37.00,-13.00,-919.00
2024-06-07 01:31:03.257748,0,0,0,0,0,0,77,79,174,170,38,126.32,150,-15.00,-2.00,-980.00
2024-06-07 01:31:03.458288,0,0,0,0,0,0,77,79,174,170,38,126.25,150,-67.00,22.00,-944.00
2024-06-07 01:31:03.458452,0,0,0,0,0,0,77,79,174,170,38,126.31,150,-5.00,-10.00,-1022.00
2024-06-07 01:31:03.512888,0,0,0,0,0,0,77,79,174,170,38,126.32,150,-24.00,13.00,-987.00
2024-06-07 01:31:03.661613,0,0,0,0,0,0,77,79,174,170,38,126.29,150,40.00,4.00,-994.00
2024-06-07 01:31:03.716650,0,0,0,0,0,0,77,79,174,170,38,126.26,150,21.00,18.00,-961.00
2024-06-07 01:31:03.865684,0,0,0,0,0,0,76,79,176,170,38,126.28,151,-29.00,6.00,-1009.00
2024-06-07 01:31:03.920925,0,0,0,0,0,0,76,79,175,170,38,126.28,151,-19.00,17.00,-1019.00
2024-06-07 01:31:04.125811,0,0,0,0,0,0,76,79,175,170,38,126.22,151,31.00,0.00,-946.00
2024-06-07 01:31:04.125946,0,0,0,0,0,0,76,79,175,170,38,126.36,151,-12.00,14.00,-901.00
2024-06-07 01:31:04.289948,0,0,0,0,0,0,76,79,174,170,38,126.31,151,35.00,-21.00,-915.00
2024-06-07 01:31:04.405285,0,0,0,0,0,0,76,79,174,170,38,126.31,151,10.00,25.00,-1033.00
2024-06-07 01:31:04.430708,0,0,0,0,0,0,76,79,173,170,38,126.30,151,41.00,-28.00,-1107.00
2024-06-07 01:31:04.567661,0,0,0,0,0,0,76,79,173,170,38,126.32,151,-46.00,33.00,-949.00
2024-06-07 01:31:04.658485,0,0,0,0,0,0,76,79,174,170,38,126.38,151,17.00,-4.00,-1035.00
2024-06-07 01:31:04.755738,0,0,0,0,0,0,76,79,172,170,38,126.35,151,-62.00,24.00,-982.00
2024-06-07 01:31:04.877750,0,0,0,0,0,0,76,79,172,170,38,126.32,152,17.00,22.00,-1043.00
2024-06-07 01:31:04.948062,0,0,0,0,0,0,76,79,173,170,38,126.28,152,3.00,0.00,-982.00
2024-06-07 01:31:05.043583,0,0,0,0,0,0,76,79,172,170,38,126.29,152,-59.00,32.00,-888.00
2024-06-07 01:31:05.224131,0,0,0,0,0,0,76,79,172,170,38,126.29,152,57.00,-37.00,-932.00
2024-06-07 01:31:05.249293,0,0,0,0,0,0,76,79,172,170,38,126.27,152,13.00,-6.00,-1006.00
2024-06-07 01:31:05.366843,0,0,0,0,0,0,76,79,172,170,38,126.33,152,19.00,5.00,-909.00
2024-06-07 01:31:05.519834,0,0,0,0,0,0,76,79,172,170,38,126.31,152,28.00,-4.00,-869.00
2024-06-07 01:31:05.821774,0,0,0,0,0,0,76,79,172,170,38,126.29,152,-22.00,9.00,-908.00
2024-06-07 01:31:05.821827,0,0,0,0,0,1,76,79,172,170,38,126.28,152,-3.00,-8.00,-1032.00
2024-06-07 01:31:05.822070,0,0,0,0,0,1,76,79,171,170,38,126.27,152,21.00,7.00,-996.00
2024-06-07 01:31:05.965150,0,0,0,0,0,1,76,79,168,160,38,126.26,153,22.00,-30.00,-927.00
2024-06-07 01:31:05.965482,0,0,0,0,0,1,76,79,169,160,38,126.31,153,68.00,-11.00,-1071.00
2024-06-07 01:31:06.132195,0,0,0,0,0,2,76,79,166,160,38,126.35,153,44.00,-10.00,-966.00
2024-06-07 01:31:06.189918,0,0,0,0,0,2,76,79,164,160,38,126.21,153,28.00,-29.00,-978.00
2024-06-07 01:31:06.267217,-1,0,0,0,0,2,76,79,163,160,38,126.17,153,80.00,-33.00,-1054.00
2024-06-07 01:31:06.428426,-1,0,0,0,0,2,76,79,161,160,38,126.21,153,-17.00,-8.00,-995.00
2024-06-07 01:31:06.470876,0,0,0,0,0,2,76,79,161,150,38,126.15,153,18.00,-8.00,-1043.00
2024-06-07 01:31:06.630240,0,0,0,0,0,2,76,79,157,150,38,126.16,153,31.00,-63.00,-1018.00
2024-06-07 01:31:06.674678,0,0,0,0,0,2,76,79,156,150,38,126.21,153,79.00,-65.00,-1087.00
2024-06-07 01:31:06.837231,0,0,0,0,0,2,76,79,155,150,38,126.14,153,-20.00,35.00,-1029.00
2024-06-07 01:31:06.879354,-1,0,0,0,0,2,77,79,154,150,38,126.13,154,49.00,-41.00,-1101.00
2024-06-07 01:31:06.980295,-1,0,0,0,0,2,77,79,152,140,38,126.15,154,30.00,16.00,-1010.00
2024-06-07 01:31:07.084164,-1,0,0,0,0,1,77,79,151,140,38,126.07,154,23.00,2.00,-968.00
2024-06-07 01:31:07.184320,-1,0,0,0,0,1,77,79,149,140,38,126.16,154,22.00,-28.00,-982.00
2024-06-07 01:31:07.286375,0,0,0,0,0,1,77,79,148,140,38,126.09,154,20.00,2.00,-1027.00
2024-06-07 01:31:07.337403,0,0,0,0,0,1,77,79,146,140,38,126.11,154,-45.00,55.00,-989.00
2024-06-07 01:31:07.439294,0,0,0,0,0,1,77,79,145,140,38,126.05,154,-50.00,44.00,-971.00
2024-06-07 01:31:07.541263,0,0,0,0,0,1,77,79,144,140,38,126.05,154,8.00,-18.00,-946.00
2024-06-07 01:31:07.643362,0,0,0,0,0,1,77,79,143,140,38,126.10,154,-32.00,36.00,-920.00
2024-06-07 01:31:07.758939,0,0,0,0,0,1,77,79,141,140,38,126.02,154,-27.00,8.00,-948.00
2024-06-07 01:31:07.847259,0,0,0,0,0,1,76,79,139,130,38,126.03,155,-4.00,-25.00,-1020.00
2024-06-07 01:31:07.949160,0,0,0,0,0,1,76,79,137,130,38,125.98,155,-23.00,6.00,-1003.00
2024-06-07 01:31:08.067110,0,0,0,0,0,1,76,79,137,130,38,125.99,155,34.00,20.00,-1015.00
2024-06-07 01:31:08.153314,0,0,0,0,0,1,76,79,134,130,38,126.03,155,-39.00,12.00,-922.00
2024-06-07 01:31:08.272172,0,0,0,0,0,1,76,79,133,130,38,126.03,155,-61.00,26.00,-935.00
2024-06-07 01:31:08.357238,0,0,0,0,0,1,76,79,131,130,38,125.97,155,47.00,4.00,-1014.00
2024-06-07 01:31:08.476092,-1,0,0,0,0,1,76,79,131,130,38,125.98,155,-26.00,-8.00,-991.00
2024-06-07 01:31:08.561238,-1,0,0,0,0,1,76,79,129,120,38,125.92,155,-43.00,31.00,-1019.00
2024-06-07 01:31:08.678417,0,0,0,0,0,0,76,79,127,120,38,125.96,155,76.00,-42.00,-968.00
2024-06-07 01:31:08.765315,0,0,0,0,0,0,76,79,127,120,38,125.91,156,56.00,-38.00,-1009.00
2024-06-07 01:31:08.883345,0,0,0,0,0,0,77,79,126,120,38,125.91,156,-67.00,19.00,-991.00
2024-06-07 01:31:08.969306,0,0,0,0,0,0,77,79,126,120,38,125.90,156,-46.00,-1.00,-1166.00
2024-06-07 01:31:09.071171,0,0,0,0,0,0,77,79,125,120,38,125.87,156,25.00,4.00,-1104.00
2024-06-07 01:31:09.173196,-1,0,0,0,0,0,77,79,126,120,38,125.89,156,42.00,4.00,-1052.00
2024-06-07 01:31:09.295726,-1,0,0,0,0,0,77,79,125,120,38,125.85,156,-47.00,69.00,-895.00
2024-06-07 01:31:09.377174,0,0,0,0,0,0,77,79,125,120,38,125.94,156,-40.00,26.00,-1074.00
2024-06-07 01:31:09.479053,0,0,0,0,0,0,77,79,125,120,38,125.87,156,-62.00,35.00,-988.00
2024-06-07 01:31:09.602036,0,0,0,0,0,0,77,79,125,120,38,125.88,156,22.00,-8.00,-1106.00
2024-06-07 01:31:09.683098,0,0,0,0,0,0,77,79,124,120,38,125.94,156,0.00,6.00,-1034.00
2024-06-07 01:31:09.808258,-1,0,0,0,0,0,77,79,125,120,38,125.92,157,3.00,-12.00,-1017.00
2024-06-07 01:31:09.887181,0,0,0,0,0,0,76,78,124,120,38,125.89,157,6.00,-23.00,-1011.00
2024-06-07 01:31:09.989097,0,0,0,0,0,0,76,78,124,120,38,125.90,157,12.00,6.00,-907.00
2024-06-07 01:31:10.091119,0,0,0,0,0,0,76,78,123,120,38,125.91,157,-56.00,36.00,-926.00
2024-06-07 01:31:10.213947,0,0,0,0,0,0,76,78,122,120,38,125.94,157,-1.00,-12.00,-1084.00
2024-06-07 01:31:10.295027,0,0,0,0,0,0,76,78,122,120,38,125.92,157,6.00,25.00,-1086.00
2024-06-07 01:31:10.418915,0,0,0,0,0,0,76,78,122,120,38,125.99,157,5.00,-10.00,-977.00
2024-06-07 01:31:10.499075,0,0,0,0,0,0,76,78,122,120,38,125.86,157,-51.00,42.00,-984.00
2024-06-07 01:31:10.600919,-1,0,0,0,0,0,76,78,122,120,38,125.97,157,17.00,-14.00,-1096.00
2024-06-07 01:31:10.729786,0,0,0,0,0,0,76,78,121,120,38,125.89,157,-3.00,16.00,-1092.00
2024-06-07 01:31:10.754045,-4,0,0,0,0,0,76,78,121,120,38,125.91,158,-2.00,31.00,-953.00
2024-06-07 01:31:10.932968,-8,0,0,1,0,0,76,79,122,120,38,125.94,158,4.00,20.00,-1052.00
2024-06-07 01:31:11.008857,-8,0,0,3,0,0,76,79,123,120,38,125.96,158,-36.00,-4.00,-931.00
2024-06-07 01:31:11.060483,-8,0,0,4,0,0,76,79,124,120,38,125.90,158,-29.00,-2.00,-1082.00
2024-06-07 01:31:11.241123,-7,0,0,5,0,0,76,79,125,120,38,125.90,158,-35.00,11.00,-1064.00
2024-06-07 01:31:11.264268,-6,0,0,6,0,0,76,79,126,120,38,125.97,158,-56.00,-14.00,-884.00
2024-06-07 01:31:11.445001,-5,0,0,7,0,0,76,79,126,120,38,125.89,158,-44.00,-21.00,-961.00
2024-06-07 01:31:11.469133,-5,0,0,7,0,0,76,79,128,120,38,125.89,158,-73.00,35.00,-902.00
2024-06-07 01:31:11.571491,-3,0,0,7,0,0,76,79,129,120,38,125.88,158,-21.00,-49.00,-1063.00
2024-06-07 01:31:11.672749,0,0,0,7,0,0,76,79,129,120,38,125.93,158,-25.00,-31.00,-915.00
2024-06-07 01:31:11.776143,1,0,0,6,0,0,76,79,130,120,38,125.91,159,-58.00,20.00,-977.00
2024-06-07 01:31:11.876272,3,0,0,5,0,0,77,79,132,120,38,125.97,159,-7.00,-42.00,-1002.00
2024-06-07 01:31:11.978108,3,0,0,4,0,0,77,79,133,120,38,125.96,159,-2.00,-37.00,-940.00
2024-06-07 01:31:12.079928,1,0,0,3,0,0,77,79,133,120,38,126.01,159,-87.00,25.00,-985.00
2024-06-07 01:31:12.186332,0,0,0,3,0,0,77,79,132,120,38,126.00,159,-42.00,-2.00,-1010.00
2024-06-07 01:31:12.283838,0,0,0,3,0,0,77,79,134,120,38,125.99,159,-37.00,26.00,-937.00
2024-06-07 01:31:12.466635,0,0,0,3,0,0,77,79,134,130,38,126.02,159,-48.00,68.00,-982.00
2024-06-07 01:31:12.493172,0,0,0,3,0,0,77,79,134,130,38,126.01,159,73.00,-68.00,-1150.00
2024-06-07 01:31:12.591441,0,0,0,2,0,0,77,79,133,130,38,126.00,159,-12.00,-4.00,-1005.00
2024-06-07 01:31:12.773719,0,0,0,2,0,0,77,79,133,130,38,125.92,159,-117.00,47.00,-989.00
2024-06-07 01:31:12.793801,0,0,0,2,0,0,77,79,134,130,38,126.00,160,-37.00,4.00,-941.00
2024-06-07 01:31:12.978526,0,0,0,2,0,0,77,79,134,130,38,126.05,160,21.00,-14.00,-1013.00
2024-06-07 01:31:12.997826,-1,0,0,2,0,0,77,79,133,130,38,126.00,160,-33.00,7.00,-972.00
2024-06-07 01:31:13.099783,-1,0,0,2,0,0,77,79,132,130,38,126.01,160,29.00,-34.00,-1200.00
2024-06-07 01:31:13.287952,0,0,0,2,0,0,77,79,133,130,38,126.00,160,-45.00,31.00,-1048.00
2024-06-07 01:31:13.307209,0,0,0,2,0,0,77,79,132,120,38,126.03,160,-42.00,25.00,-984.00
2024-06-07 01:31:13.405844,2,0,0,1,0,0,77,79,132,120,38,126.02,160,46.00,-11.00,-1024.00
2024-06-07 01:31:13.593709,3,0,0,1,0,0,77,79,132,120,38,126.01,160,97.00,-45.00,-992.00
2024-06-07 01:31:13.610505,1,0,0,0,0,0,77,79,132,120,38,126.08,160,6.00,0.00,-975.00
2024-06-07 01:31:13.797892,0,0,0,0,0,0,77,79,131,120,38,126.07,160,3.00,1.00,-1042.00
2024-06-07 01:31:13.813909,0,0,0,0,0,0,77,79,131,120,38,126.03,161,53.00,-11.00,-1083.00
2024-06-07 01:31:14.003253,0,0,0,0,0,0,76,79,130,120,38,126.01,161,-42.00,12.00,-922.00
2024-06-07 01:31:14.017623,0,0,0,0,0,0,76,79,130,120,38,125.95,161,-63.00,22.00,-1069.00
2024-06-07 01:31:14.119719,0,0,0,0,0,0,76,79,130,120,38,126.06,161,-11.00,10.00,-949.00
2024-06-07 01:31:14.313352,0,0,0,0,0,0,76,79,129,120,38,126.01,161,45.00,-10.00,-1047.00
2024-06-07 01:31:14.323758,0,0,0,0,0,0,76,79,128,120,38,125.98,161,14.00,-29.00,-1091.00
2024-06-07 01:31:14.426147,0,0,0,0,0,0,76,79,127,120,38,126.03,161,5.00,-25.00,-1021.00
2024-06-07 01:31:14.527916,-1,0,0,0,0,0,76,79,126,120,38,125.98,161,103.00,-33.00,-972.00
2024-06-07 01:31:14.630021,-1,0,0,0,0,0,76,79,126,120,38,125.92,161,59.00,-49.00,-1058.00
2024-06-07 01:31:14.731808,0,0,0,0,0,0,76,79,125,120,38,125.92,161,51.00,-9.00,-1000.00
2024-06-07 01:31:14.924605,0,0,0,0,0,0,76,79,126,120,38,125.89,162,-16.00,20.00,-1009.00
2024-06-07 01:31:14.935624,0,0,0,0,0,0,77,79,126,120,38,125.92,162,62.00,-34.00,-969.00
2024-06-07 01:31:15.129034,-1,0,0,0,0,0,77,79,125,120,38,125.95,162,24.00,12.00,-934.00
2024-06-07 01:31:15.139812,0,0,0,0,0,0,77,79,125,120,38,125.92,162,9.00,42.00,-1050.00
2024-06-07 01:31:15.243612,0,0,0,0,0,0,77,79,125,120,38,125.91,162,49.00,-14.00,-1133.00
2024-06-07 01:31:15.292810,0,0,0,0,0,0,77,79,125,120,38,125.95,162,-38.00,-4.00,-941.00
2024-06-07 01:31:15.440970,-1,0,0,0,0,0,77,79,125,120,38,125.94,162,-22.00,5.00,-909.00
2024-06-07 01:31:15.497455,-1,0,0,0,0,0,77,79,126,120,38,126.02,162,-29.00,16.00,-864.00
2024-06-07 01:31:15.598562,0,0,0,0,0,0,77,79,125,120,38,125.93,162,-37.00,42.00,-861.00
2024-06-07 01:31:15.743371,0,0,0,0,0,0,77,79,125,120,38,125.90,162,-11.00,21.00,-932.00
2024-06-07 01:31:15.802527,3,0,0,0,0,0,77,79,126,120,38,125.91,163,50.00,-19.00,-1008.00
2024-06-07 01:31:15.948350,9,0,0,-1,0,0,77,78,127,120,38,125.98,163,102.00,-44.00,-1194.00
2024-06-07 01:31:16.007499,8,0,0,-3,0,0,77,78,126,120,38,126.00,163,103.00,-11.00,-986.00
2024-06-07 01:31:16.109507,7,0,0,-4,0,0,77,78,128,120,38,125.98,163,55.00,-4.00,-1032.00
2024-06-07 01:31:16.257101,6,0,0,-5,0,0,77,78,127,120,38,126.04,163,31.00,-3.00,-1098.00
2024-06-07 01:31:16.314012,5,0,0,-6,0,0,77,78,128,120,38,125.96,163,74.00,18.00,-908.00
2024-06-07 01:31:16.463355,5,0,0,-6,0,0,77,78,127,120,38,125.90,163,20.00,-10.00,-891.00
2024-06-07 01:31:16.517533,5,0,0,-7,0,0,77,78,128,120,38,125.94,163,135.00,-5.00,-1009.00
2024-06-07 01:31:16.668141,2,0,0,-7,0,0,77,78,128,120,38,125.97,163,39.00,11.00,-1055.00
2024-06-07 01:31:16.721766,0,0,0,-6,0,0,77,78,128,120,38,125.99,163,69.00,12.00,-941.00
2024-06-07 01:31:16.873663,-2,0,0,-6,0,0,77,78,128,120,38,126.02,164,-35.00,42.00,-936.00
2024-06-07 01:31:16.925754,-3,0,0,-5,0,0,77,78,128,120,38,125.92,164,53.00,-5.00,-1006.00
2024-06-07 01:31:17.074483,-3,0,0,-4,0,0,77,78,129,120,38,125.97,164,63.00,-13.00,-1088.00
2024-06-07 01:31:17.129511,-1,0,0,-3,0,0,77,78,129,120,38,125.94,164,46.00,30.00,-877.00
2024-06-07 01:31:17.281617,0,0,0,-3,0,0,77,78,129,120,38,125.98,164,67.00,-8.00,-1026.00
2024-06-07 01:31:17.333477,0,0,0,-3,0,0,77,78,129,120,38,125.94,164,22.00,-7.00,-992.00
2024-06-07 01:31:17.485473,0,0,0,-3,0,0,77,78,129,120,38,126.05,164,49.00,-9.00,-963.00
2024-06-07 01:31:17.537381,0,0,0,-3,0,0,77,78,129,120,38,126.01,164,60.00,0.00,-939.00
2024-06-07 01:31:17.639493,0,0,0,-2,0,0,77,78,130,120,38,126.03,164,-29.00,17.00,-921.00
2024-06-07 01:31:17.794889,0,0,0,-2,0,0,77,78,129,120,38,126.02,164,-29.00,-5.00,-1047.00
2024-06-07 01:31:17.843965,0,0,0,-2,0,0,77,78,130,120,38,126.04,165,27.00,-9.00,-1033.00
2024-06-07 01:31:17.946818,-5,0,0,-2,0,0,76,79,129,120,38,126.01,165,46.00,2.00,-1051.00
2024-06-07 01:31:18.098375,-4,0,0,-1,0,0,76,79,130,130,38,125.99,165,60.00,2.00,-1213.00
2024-06-07 01:31:18.149514,-2,0,0,0,0,0,76,79,130,130,38,126.03,165,5.00,5.00,-1008.00
2024-06-07 01:31:18.252409,-1,0,0,0,0,0,76,79,128,120,38,126.01,165,-43.00,11.00,-995.00
2024-06-07 01:31:18.405719,-1,0,0,0,0,0,76,79,129,120,38,125.97,165,57.00,-16.00,-1010.00
2024-06-07 01:31:18.457741,-1,0,0,0,0,0,76,79,128,120,38,126.02,165,-25.00,27.00,-962.00
2024-06-07 01:31:18.557616,-1,0,0,0,0,0,76,79,128,120,38,126.02,165,-87.00,35.00,-951.00
2024-06-07 01:31:18.715192,-1,0,0,0,0,0,76,79,127,120,38,125.95,165,38.00,-30.00,-950.00
2024-06-07 01:31:18.761566,-1,0,0,0,0,0,76,79,127,120,38,125.94,165,-16.00,-13.00,-993.00
2024-06-07 01:31:18.812313,0,0,0,0,0,0,76,79,126,120,38,125.96,166,-14.00,-13.00,-999.00
2024-06-07 01:31:19.122446,0,0,0,0,0,0,77,78,125,120,38,125.94,166,47.00,-20.00,-997.00
2024-06-07 01:31:19.122619,0,0,0,0,0,0,77,78,124,120,38,125.93,166,1.00,12.00,-978.00
2024-06-07 01:31:19.123341,0,0,0,0,0,0,77,78,123,120,38,125.97,166,-4.00,17.00,-1073.00
2024-06-07 01:31:19.220316,0,0,0,0,0,0,77,78,122,120,38,125.95,166,-17.00,1.00,-1042.00
2024-06-07 01:31:19.615123,0,0,0,0,0,0,77,78,121,120,38,125.89,166,-27.00,6.00,-1027.00
2024-06-07 01:31:19.615297,0,0,0,0,0,0,77,78,121,120,38,125.92,166,-48.00,27.00,-970.00
2024-06-07 01:31:19.615347,0,0,0,0,0,0,77,78,121,120,38,125.88,166,30.00,-16.00,-1086.00
2024-06-07 01:31:19.629023,0,0,0,0,0,0,77,78,120,120,38,125.90,166,33.00,-28.00,-949.00
2024-06-07 01:31:19.731800,0,0,0,0,0,0,77,78,121,120,38,125.95,166,86.00,-32.00,-1050.00
2024-06-07 01:31:19.834042,0,0,0,0,0,0,77,78,121,120,38,125.86,167,19.00,-1.00,-1059.00
2024-06-07 01:31:19.974704,0,0,0,0,0,0,76,78,122,120,38,125.90,167,-1.00,-6.00,-1061.00
2024-06-07 01:31:20.091288,0,0,0,0,0,0,76,78,123,120,38,125.92,167,4.00,3.00,-1057.00
2024-06-07 01:31:20.140770,0,0,0,0,0,0,76,78,124,120,38,125.94,167,-12.00,-4.00,-1029.00
2024-06-07 01:31:20.283754,0,0,0,0,0,0,76,78,124,120,38,125.97,167,25.00,-2.00,-1102.00
2024-06-07 01:31:20.427476,0,-4,0,0,0,0,76,78,128,120,38,125.90,167,-6.00,-3.00,-988.00
2024-06-07 01:31:20.453780,0,-9,0,0,0,0,76,78,127,120,38,126.02,167,0.00,22.00,-1018.00
2024-06-07 01:31:20.570797,0,-7,0,0,-2,0,76,78,126,120,38,125.96,167,-37.00,29.00,-1019.00
2024-06-07 01:31:20.714510,0,-5,0,0,-3,0,76,78,126,120,38,126.01,167,-83.00,86.00,-764.00
2024-06-07 01:31:20.751681,-1,-1,0,0,-4,0,76,78,126,120,38,126.04,167,139.00,-63.00,-1070.00
2024-06-07 01:31:20.873884,-1,1,0,0,-3,0,76,78,127,120,38,125.89,168,23.00,38.00,-1080.00
2024-06-07 01:31:21.017257,-1,0,0,0,-2,0,77,79,127,120,38,126.02,168,4.00,29.00,-945.00
2024-06-07 01:31:21.057000,0,0,0,0,-2,0,77,79,126,120,38,125.96,168,37.00,3.00,-1022.00
2024-06-07 01:31:21.181928,0,-1,0,0,-2,0,77,79,125,120,38,125.93,168,-44.00,30.00,-838.00
2024-06-07 01:31:21.339192,0,-1,0,0,-2,0,77,79,124,120,38,125.91,168,21.00,18.00,-1033.00
2024-06-07 01:31:21.363243,0,-1,0,0,-2,0,77,79,122,120,38,125.94,168,-17.00,34.00,-960.00
2024-06-07 01:31:21.480704,0,-1,0,0,-2,0,77,79,121,120,38,125.91,168,-62.00,27.00,-1021.00
2024-06-07 01:31:21.567168,0,0,0,0,-2,0,77,79,120,120,38,125.89,168,-20.00,5.00,-1079.00
2024-06-07 01:31:21.685385,0,0,0,0,-2,0,77,79,119,120,38,125.91,168,41.00,21.00,-955.00
2024-06-07 01:31:21.771303,0,0,0,0,-2,0,77,79,117,120,38,125.89,168,-75.00,45.00,-958.00
2024-06-07 01:31:21.889878,-1,-1,0,0,-2,0,77,79,116,120,38,125.87,169,17.00,10.00,-1084.00
2024-06-07 01:31:21.974958,-1,0,0,0,-2,0,77,79,115,120,38,125.90,169,0.00,20.00,-936.00
2024-06-07 01:31:22.094065,-1,0,0,0,-2,0,77,79,114,120,38,125.87,169,59.00,-81.00,-1076.00
2024-06-07 01:31:22.179034,0,2,0,0,-2,0,77,79,114,120,38,125.87,169,59.00,-21.00,-1081.00
2024-06-07 01:31:22.298849,0,4,0,0,-1,0,77,79,113,120,38,125.84,169,-26.00,13.00,-1097.00
2024-06-07 01:31:22.383342,0,2,0,0,0,0,77,79,113,110,38,125.86,169,-11.00,21.00,-999.00
2024-06-07 01:31:22.501706,-1,0,0,0,0,0,77,79,113,110,38,125.86,169,18.00,-10.00,-1005.00
2024-06-07 01:31:22.587177,0,0,0,0,0,0,77,79,113,110,38,125.83,169,-1.00,13.00,-1051.00
2024-06-07 01:31:22.637843,0,0,0,0,0,0,77,79,114,110,38,125.89,169,54.00,-38.00,-1119.00
2024-06-07 01:31:22.810911,0,0,0,0,0,0,77,79,114,110,38,125.94,169,0.00,10.00,-1029.00
2024-06-07 01:31:22.893236,-1,0,0,0,0,0,77,79,114,120,38,125.93,170,-18.00,39.00,-873.00
2024-06-07 01:31:23.016410,-1,0,0,0,0,0,76,79,115,120,38,125.90,170,-66.00,38.00,-938.00
2024-06-07 01:31:23.097335,-1,0,0,0,0,0,76,79,116,120,38,125.99,170,148.00,-23.00,-1125.00
2024-06-07 01:31:23.148039,0,0,0,0,0,0,76,79,117,120,38,125.98,170,17.00,14.00,-964.00
2024-06-07 01:31:23.324626,0,0,0,0,0,0,76,79,118,120,38,125.95,170,39.00,-18.00,-952.00
2024-06-07 01:31:23.351856,0,0,0,0,0,0,76,79,118,120,38,125.81,170,-32.00,45.00,-1018.00
2024-06-07 01:31:23.529522,0,0,0,0,0,0,76,79,118,120,38,125.92,170,-88.00,95.00,-995.00
2024-06-07 01:31:23.555980,-2,-1,0,0,0,0,76,79,118,120,38,125.96,170,-41.00,53.00,-968.00
2024-06-07 01:31:23.733720,-2,-1,0,0,0,0,76,79,118,120,38,125.97,170,-178.00,117.00,-951.00
2024-06-07 01:31:23.759866,-2,0,0,0,0,0,76,79,118,120,38,125.97,171,-42.00,18.00,-955.00
2024-06-07 01:31:23.937279,0,0,0,0,0,0,76,79,119,120,38,125.94,171,21.00,15.00,-1028.00
2024-06-07 01:31:23.963731,0,0,0,0,0,0,76,78,120,120,38,125.94,171,58.00,-50.00,-1168.00
2024-06-07 01:31:24.143744,0,0,0,0,0,0,76,78,120,120,38,125.86,171,80.00,-19.00,-1066.00
2024-06-07 01:31:24.167808,0,0,0,0,0,0,76,78,121,120,38,125.92,171,2.00,4.00,-1111.00
2024-06-07 01:31:24.304212,0,0,0,0,0,0,76,78,121,120,38,126.02,171,47.00,-21.00,-1105.00
2024-06-07 01:31:24.371995,0,0,0,0,0,0,76,78,121,120,38,126.03,171,0.00,11.00,-974.00
2024-06-07 01:31:24.551476,0,3,0,0,0,0,76,78,122,120,38,125.93,171,-96.00,16.00,-927.00
2024-06-07 01:31:24.575792,0,8,0,0,1,0,76,78,121,120,38,125.88,171,-3.00,61.00,-887.00
2024-06-07 01:31:24.757556,0,6,0,0,2,0,76,78,122,120,38,125.97,171,-119.00,49.00,-941.00
2024-06-07 01:31:24.779839,0,3,0,0,3,0,76,78,121,120,38,125.92,172,38.00,-30.00,-935.00
2024-06-07 01:31:24.961003,0,1,0,0,3,0,76,78,120,120,38,125.99,172,-10.00,4.00,-1021.00
2024-06-07 01:31:24.983861,0,-1,0,0,3,0,76,78,119,120,38,125.92,172,-50.00,-4.00,-991.00
2024-06-07 01:31:25.163934,0,0,0,0,2,0,76,78,118,120,38,125.87,172,-56.00,16.00,-972.00
2024-06-07 01:31:25.190098,0,0,0,0,2,0,76,78,118,120,38,125.93,172,13.00,-57.00,-1010.00
2024-06-07 01:31:25.368456,0,1,0,0,2,0,76,78,118,120,38,125.89,172,49.00,-30.00,-1025.00
2024-06-07 01:31:25.395884,0,1,0,0,2,0,76,78,119,120,38,125.92,172,54.00,-17.00,-1076.00
2024-06-07 01:31:25.494823,0,0,0,0,2,0,76,78,120,120,38,125.94,172,32.00,-74.00,-950.00
2024-06-07 01:31:25.678580,0,0,0,0,2,0,76,78,119,120,38,125.94,172,-19.00,-9.00,-1072.00
2024-06-07 01:31:25.698751,0,0,0,0,2,0,76,78,120,120,38,126.04,172,69.00,-39.00,-1067.00
2024-06-07 01:31:25.880376,0,0,0,0,2,0,76,78,121,120,38,126.02,173,44.00,10.00,-1063.00
2024-06-07 01:31:25.880423,0,0,0,0,2,0,76,78,122,120,38,126.00,173,-37.00,3.00,-961.00
2024-06-07 01:31:26.091166,0,0,0,0,2,0,75,77,123,120,38,126.03,173,-102.00,23.00,-945.00
2024-06-07 01:31:26.106723,0,0,0,0,2,0,75,77,124,120,38,125.99,173,45.00,-31.00,-966.00
2024-06-07 01:31:26.157670,0,-2,0,0,2,0,75,77,125,120,38,125.99,173,48.00,-42.00,-892.00
2024-06-07 01:31:26.292217,0,-4,0,0,1,0,75,77,125,120,38,126.03,173,-30.00,24.00,-968.00
2024-06-07 01:31:26.361613,0,-3,0,0,0,0,75,77,127,120,38,125.98,173,-21.00,-10.00,-832.00
2024-06-07 01:31:26.463687,0,-1,0,0,0,0,75,77,127,120,38,126.00,173,27.00,-25.00,-1029.00
2024-06-07 01:31:26.598029,0,0,0,0,0,0,75,77,128,120,38,126.01,173,13.00,-28.00,-1054.00
2024-06-07 01:31:26.667770,0,0,0,0,0,0,75,77,127,120,37,126.06,173,-23.00,19.00,-904.00
2024-06-07 01:31:26.804125,0,0,0,0,0,0,75,77,128,120,37,126.04,174,-42.00,19.00,-898.00
2024-06-07 01:31:26.871786,-1,-1,0,0,0,0,75,77,128,120,37,126.02,174,30.00,-13.00,-1063.00
2024-06-07 01:31:27.010126,-1,-1,0,0,0,0,76,78,128,120,37,125.99,174,-86.00,44.00,-915.00
2024-06-07 01:31:27.075793,-1,-1,0,0,0,0,76,78,128,120,37,126.08,174,-63.00,24.00,-975.00
2024-06-07 01:31:27.177747,0,-1,0,0,0,0,76,78,128,120,37,126.04,174,62.00,-15.00,-857.00
2024-06-07 01:31:27.314057,0,0,0,0,0,0,76,78,127,120,37,126.04,174,-71.00,29.00,-854.00
2024-06-07 01:31:27.381557,0,0,0,0,0,0,76,78,128,120,37,126.02,174,-57.00,46.00,-1060.00
2024-06-07 01:31:27.520479,0,0,0,0,0,0,76,78,129,120,37,126.03,174,-21.00,-14.00,-1007.00
2024-06-07 01:31:27.588240,0,0,0,0,0,0,76,78,130,120,37,126.03,174,67.00,-25.00,-1033.00
2024-06-07 01:31:27.687573,0,0,0,0,0,0,76,78,130,120,37,126.09,174,-12.00,23.00,-1097.00
2024-06-07 01:31:27.789567,0,0,0,0,0,0,76,78,133,120,37,126.08,175,0.00,21.00,-1188.00
2024-06-07 01:31:27.891551,0,0,0,0,0,0,76,78,133,120,37,126.07,175,-9.00,-3.00,-1006.00
2024-06-07 01:31:27.993592,-1,0,0,0,0,0,76,79,135,130,37,126.10,175,19.00,-18.00,-903.00
2024-06-07 01:31:28.133363,0,0,0,0,0,0,76,79,135,130,37,126.08,175,-14.00,18.00,-975.00
2024-06-07 01:31:28.197517,0,0,0,0,0,0,76,79,137,130,37,126.02,175,65.00,-46.00,-969.00
2024-06-07 01:31:28.338763,0,0,0,0,0,0,76,79,137,130,37,126.04,175,29.00,-9.00,-1014.00
2024-06-07 01:31:28.401563,0,0,0,0,0,0,76,79,136,130,37,126.05,175,0.00,-4.00,-998.00
2024-06-07 01:31:28.503330,-1,0,0,0,0,0,76,79,136,130,37,126.07,175,-12.00,40.00,-889.00
2024-06-07 01:31:28.647404,-1,0,3,0,0,1,76,79,135,130,37,126.05,175,-13.00,-22.00,-1082.00
2024-06-07 01:31:28.707384,-1,0,8,0,0,0,76,79,135,130,37,126.08,175,52.00,-22.00,-1138.00
2024-06-07 01:31:28.852795,0,0,14,0,0,0,76,79,134,130,37,126.01,176,-10.00,43.00,-1105.00
2024-06-07 01:31:28.911781,0,0,20,0,0,0,76,79,134,130,37,126.09,176,-35.00,33.00,-1040.00
2024-06-07 01:31:29.056641,0,0,26,0,0,0,76,79,133,130,37,126.04,176,-22.00,-10.00,-993.00
2024-06-07 01:31:29.117181,0,0,32,0,0,0,76,79,133,130,37,125.96,176,-18.00,29.00,-994.00
2024-06-07 01:31:29.219439,0,0,38,0,0,0,76,79,132,130,37,126.05,176,-9.00,-15.00,-950.00
2024-06-07 01:31:29.319848,0,0,43,0,0,0,76,79,132,130,37,126.02,176,75.00,-66.00,-1013.00
2024-06-07 01:31:29.422027,0,0,49,0,0,0,76,79,131,130,37,126.01,176,-106.00,47.00,-927.00
2024-06-07 01:31:29.523574,0,0,55,0,0,0,76,79,129,120,37,126.04,176,11.00,12.00,-945.00
2024-06-07 01:31:29.672374,0,0,61,0,0,0,76,79,128,120,36,126.01,176,-3.00,4.00,-1013.00
2024-06-07 01:31:29.727215,0,0,67,0,0,0,76,79,128,120,36,125.98,176,-88.00,39.00,-1116.00
2024-06-07 01:31:29.880966,0,0,73,0,0,0,76,79,128,120,36,126.01,177,10.00,14.00,-1090.00
2024-06-07 01:31:29.931190,0,0,78,0,0,0,76,79,127,120,36,126.01,177,-45.00,46.00,-976.00
2024-06-07 01:31:30.078541,0,0,84,0,0,0,77,79,126,120,36,126.01,177,-50.00,-9.00,-958.00
2024-06-07 01:31:30.135215,0,0,90,0,0,0,77,79,126,120,36,126.01,177,-11.00,-5.00,-1013.00
2024-06-07 01:31:30.237142,0,0,96,0,0,0,77,79,125,120,36,125.99,177,-14.00,27.00,-943.00
2024-06-07 01:31:30.385670,0,0,102,0,0,0,77,79,125,120,36,125.96,177,38.00,-54.00,-987.00
2024-06-07 01:31:30.441134,0,0,108,0,0,0,77,79,125,120,36,125.96,177,-26.00,47.00,-1042.00
2024-06-07 01:31:30.492464,0,0,114,0,0,0,77,79,124,120,36,125.87,177,-17.00,-39.00,-1003.00
2024-06-07 01:31:30.594291,0,0,120,0,0,0,77,79,123,120,36,126.00,177,28.00,-27.00,-1026.00
2024-06-07 01:31:30.696211,0,0,125,0,0,0,77,79,123,120,36,126.00,177,5.00,-28.00,-949.00
2024-06-07 01:31:30.798382,0,0,131,0,0,0,77,79,123,120,36,125.94,178,10.00,11.00,-1106.00
2024-06-07 01:31:31.002556,0,0,137,0,0,0,77,79,122,120,36,125.91,178,47.00,-23.00,-1031.00
2024-06-07 01:31:31.002734,0,0,143,0,0,0,77,78,123,120,36,125.97,178,42.00,-8.00,-1079.00
2024-06-07 01:31:31.104860,0,0,149,0,0,0,77,78,123,120,36,125.96,178,-41.00,4.00,-964.00
2024-06-07 01:31:31.207057,0,0,155,0,0,0,77,78,123,120,36,125.94,178,-25.00,21.00,-987.00
2024-06-07 01:31:31.309580,0,0,161,0,0,0,77,78,122,120,36,125.95,178,-18.00,10.00,-965.00
2024-06-07 01:31:31.411027,0,0,167,0,0,0,77,78,121,120,36,125.93,178,13.00,45.00,-898.00
2024-06-07 01:31:31.513048,0,0,173,0,0,0,77,78,121,120,36,125.91,178,13.00,-42.00,-1119.00
2024-06-07 01:31:31.614949,0,0,179,0,0,0,77,78,120,120,36,125.90,178,-21.00,15.00,-1006.00
2024-06-07 01:31:31.717160,0,0,-174,0,0,0,77,78,120,120,36,125.89,178,67.00,-33.00,-1129.00
2024-06-07 01:31:31.819023,0,0,-168,0,0,0,77,78,119,120,36,125.94,179,23.00,-29.00,-1000.00
2024-06-07 01:31:31.921590,0,1,-162,0,0,0,77,78,119,120,36,125.93,179,-27.00,-21.00,-1022.00
2024-06-07 01:31:32.023678,0,1,-156,0,0,0,77,79,120,120,36,125.92,179,17.00,8.00,-1024.00
2024-06-07 01:31:32.127997,0,0,-150,0,0,0,77,79,119,120,36,125.92,179,-12.00,4.00,-965.00
2024-06-07 01:31:32.226970,0,0,-144,0,0,0,77,79,120,120,36,125.90,179,-59.00,31.00,-1006.00
2024-06-07 01:31:32.334433,0,1,-138,0,0,0,77,79,121,120,36,125.97,179,38.00,-81.00,-969.00
2024-06-07 01:31:32.430992,0,1,-132,0,0,0,77,79,120,120,36,125.94,179,-87.00,45.00,-1016.00
2024-06-07 01:31:32.539316,0,1,-126,0,0,0,77,79,120,120,36,125.92,179,-16.00,8.00,-987.00
2024-06-07 01:31:32.635120,0,0,-120,0,0,0,77,79,120,120,35,125.92,179,-39.00,51.00,-931.00
2024-06-07 01:31:32.743222,0,0,-114,0,0,0,77,79,120,120,35,125.93,179,26.00,-32.00,-1034.00
2024-06-07 01:31:32.839633,0,0,-108,0,0,0,77,79,120,120,35,125.89,180,49.00,-13.00,-1076.00
2024-06-07 01:31:32.946365,0,0,-102,0,0,0,77,79,120,120,35,125.87,180,-38.00,-11.00,-993.00
2024-06-07 01:31:33.043338,0,1,-96,0,0,0,77,78,121,120,35,125.95,180,-22.00,18.00,-931.00
2024-06-07 01:31:33.146409,0,1,-90,0,0,0,77,78,122,120,35,125.92,180,27.00,22.00,-957.00
2024-06-07 01:31:33.247765,0,1,-84,0,0,0,77,78,122,120,35,125.89,180,25.00,-7.00,-956.00
2024-06-07 01:31:33.349868,0,1,-77,0,0,0,77,78,122,120,35,125.94,180,50.00,-50.00,-1039.00
2024-06-07 01:31:33.458538,0,0,-71,0,0,0,77,78,122,120,35,125.83,180,81.00,-53.00,-938.00
2024-06-07 01:31:33.555034,0,0,-65,0,0,0,77,78,122,120,35,125.84,180,31.00,-49.00,-993.00
2024-06-07 01:31:33.655440,0,0,-59,0,0,0,77,78,122,120,35,125.92,180,-35.00,25.00,-951.00
2024-06-07 01:31:33.757001,0,0,-53,0,0,0,77,78,122,120,35,125.88,180,-87.00,48.00,-1034.00
2024-06-07 01:31:33.858821,0,0,-47,0,0,0,77,78,123,120,35,125.92,181,5.00,5.00,-1016.00
2024-06-07 01:31:33.960866,0,0,-41,0,0,0,77,78,122,120,35,125.93,181,2.00,-14.00,-1066.00
2024-06-07 01:31:34.111043,0,0,-35,0,0,0,77,79,123,120,35,125.91,181,9.00,-9.00,-991.00
2024-06-07 01:31:34.253544,0,0,-29,0,0,0,77,79,123,120,35,125.92,181,-28.00,55.00,-959.00
2024-06-07 01:31:34.266785,0,0,-22,0,0,0,77,79,123,120,35,125.91,181,-26.00,26.00,-949.00
2024-06-07 01:31:34.369045,0,1,-17,0,0,0,77,79,123,120,35,125.99,181,-52.00,3.00,-851.00
2024-06-07 01:31:34.430575,0,0,-13,0,0,0,77,79,123,120,35,125.94,181,-5.00,4.00,-1113.00
2024-06-07 01:31:34.532910,0,0,-9,0,0,0,77,79,123,120,35,126.00,181,19.00,-1.00,-1030.00
2024-06-07 01:31:34.623945,-1,0,-7,0,0,0,77,79,123,120,35,125.88,181,-26.00,9.00,-971.00
2024-06-07 01:31:34.894144,-1,0,-5,0,0,0,77,79,123,120,35,125.94,181,-5.00,-12.00,-990.00
2024-06-07 01:31:34.894318,0,0,-4,0,0,0,77,79,122,120,35,125.95,182,34.00,-17.00,-1027.00
2024-06-07 01:31:34.995836,0,0,-2,0,0,0,77,79,122,120,35,125.96,182,75.00,-47.00,-1006.00
2024-06-07 01:31:35.057379,0,0,-2,0,0,0,76,79,122,120,35,125.93,182,-3.00,-5.00,-967.00
2024-06-07 01:31:35.134256,0,0,-1,0,0,0,76,79,122,120,35,125.93,182,-62.00,24.00,-1098.00
2024-06-07 01:31:35.379963,0,0,-1,0,0,0,76,79,122,120,35,125.97,182,-63.00,18.00,-888.00
2024-06-07 01:31:35.455058,0,0,-1,0,0,0,76,79,123,120,35,125.91,182,-25.00,5.00,-1046.00
2024-06-07 01:31:35.455626,0,0,-1,0,0,0,76,79,123,120,35,125.94,182,60.00,-37.00,-971.00
2024-06-07 01:31:35.624921,0,0,-1,0,0,0,76,79,123,120,35,125.93,182,-74.00,11.00,-1007.00
2024-06-07 01:31:35.643751,0,0,-1,0,0,0,76,79,124,120,35,125.90,182,86.00,-22.00,-1076.00
2024-06-07 01:31:35.762214,0,0,-1,0,0,0,76,79,125,120,35,125.98,182,45.00,-27.00,-989.00
2024-06-07 01:31:35.929651,0,0,-1,0,0,0,76,79,125,120,35,126.03,183,4.00,-3.00,-1022.00
2024-06-07 01:31:35.950202,0,0,-1,0,0,0,76,79,125,120,35,126.03,183,5.00,-9.00,-915.00
2024-06-07 01:31:36.081464,0,0,-1,0,0,0,77,79,126,120,35,126.02,183,1.00,9.00,-1043.00
2024-06-07 01:31:36.154771,0,0,-1,0,0,0,77,79,127,120,35,125.96,183,-28.00,2.00,-1026.00
2024-06-07 01:31:36.262636,0,0,-1,0,0,0,77,79,127,120,35,125.98,183,39.00,-23.00,-1116.00
2024-06-07 01:31:36.361115,0,0,-1,0,0,0,77,79,127,120,35,126.00,183,-88.00,50.00,-861.00
2024-06-07 01:31:36.461025,0,0,-1,0,0,0,77,79,128,120,35,125.93,183,33.00,-9.00,-942.00
2024-06-07 01:31:36.636369,0,0,-1,0,0,0,77,79,128,120,35,126.00,183,78.00,-17.00,-999.00
2024-06-07 01:31:36.664700,0,0,-1,0,0,0,77,79,128,120,34,125.96,183,-30.00,42.00,-889.00
2024-06-07 01:31:36.840233,0,0,-1,0,0,0,77,79,127,120,34,125.97,183,-30.00,32.00,-862.00
2024-06-07 01:31:36.868736,0,0,-1,0,0,0,77,79,127,120,34,125.91,184,-11.00,1.00,-894.00
2024-06-07 01:31:37.041500,0,0,-1,0,0,0,77,79,127,120,34,126.03,184,29.00,-18.00,-1044.00
2024-06-07 01:31:37.072606,0,0,-1,0,0,0,76,79,128,120,34,126.03,184,-19.00,20.00,-1002.00
2024-06-07 01:31:37.176346,0,0,-3,0,0,0,76,79,126,120,34,126.03,184,-54.00,39.00,-1057.00
2024-06-07 01:31:37.276754,0,0,-8,0,0,0,76,79,127,120,34,126.01,184,0.00,-31.00,-985.00
2024-06-07 01:31:37.453649,0,0,-14,0,0,0,76,79,126,120,34,125.99,184,-49.00,22.00,-868.00
2024-06-07 01:31:37.482202,0,0,-20,0,0,0,76,79,127,120,34,126.00,184,10.00,-2.00,-909.00
2024-06-07 01:31:37.582737,-1,0,-25,0,0,0,76,79,128,120,34,125.97,184,-51.00,39.00,-1010.00
2024-06-07 01:31:37.758153,-1,0,-31,0,0,0,76,79,128,120,34,125.97,184,-61.00,42.00,-837.00
2024-06-07 01:31:37.786515,0,0,-37,0,0,0,76,79,128,120,34,125.99,185,-17.00,25.00,-1003.00
2024-06-07 01:31:37.965432,0,0,-43,0,0,0,76,79,129,120,34,125.99,185,53.00,-41.00,-1050.00
2024-06-07 01:31:37.990480,0,0,-49,0,0,0,76,79,130,120,34,126.01,185,0.00,-28.00,-995.00
2024-06-07 01:31:38.168054,0,0,-55,0,0,0,77,79,130,120,34,126.00,185,24.00,-8.00,-970.00
2024-06-07 01:31:38.194334,0,0,-60,0,0,0,77,79,130,120,34,126.00,185,-36.00,18.00,-1026.00
2024-06-07 01:31:38.374995,0,0,-66,0,0,0,77,79,130,120,34,125.98,185,27.00,-1.00,-966.00
2024-06-07 01:31:38.399112,0,0,-72,0,0,0,77,79,131,130,34,126.00,185,-36.00,13.00,-1021.00
2024-06-07 01:31:38.449935,0,0,-78,0,0,0,77,79,131,120,34,126.00,185,10.00,-24.00,-1007.00
2024-06-07 01:31:38.580568,0,0,-84,0,0,0,77,79,132,120,34,126.00,185,-9.00,25.00,-940.00
2024-06-07 01:31:38.653754,0,0,-90,0,0,0,77,79,131,120,34,126.10,185,-46.00,32.00,-939.00
2024-06-07 01:31:38.785621,0,0,-96,0,0,0,77,79,131,120,34,126.00,186,-21.00,32.00,-981.00
2024-06-07 01:31:38.857559,0,0,-101,0,0,0,77,79,131,130,34,126.04,186,0.00,18.00,-996.00
2024-06-07 01:31:38.987336,0,0,-107,0,0,0,77,79,132,120,34,126.05,186,19.00,-22.00,-986.00
2024-06-07 01:31:39.061527,0,0,-113,0,0,0,76,79,130,130,34,126.08,186,0.00,3.00,-931.00
2024-06-07 01:31:39.178379,0,0,-119,0,0,0,76,79,130,130,34,126.05,186,69.00,-18.00,-995.00
2024-06-07 01:31:39.265498,0,0,-125,0,0,0,76,79,130,120,34,126.04,186,65.00,-58.00,-983.00
2024-06-07 01:31:39.400820,0,0,-131,0,0,0,76,79,129,120,34,126.01,186,-27.00,17.00,-899.00
2024-06-07 01:31:39.469659,0,0,-137,0,0,0,76,79,128,120,34,125.95,186,34.00,-11.00,-1054.00
2024-06-07 01:31:39.603343,0,0,-143,0,0,0,76,79,128,120,34,126.00,186,-16.00,24.00,-1026.00
2024-06-07 01:31:39.675372,0,0,-148,0,0,0,76,79,127,120,34,126.03,186,24.00,-38.00,-966.00
2024-06-07 01:31:39.775348,0,0,-154,0,0,0,76,79,127,120,34,125.97,187,36.00,-26.00,-1017.00
2024-06-07 01:31:39.908699,0,0,-160,0,0,0,76,79,127,120,34,126.00,187,-53.00,38.00,-976.00
2024-06-07 01:31:39.980412,0,0,-166,0,0,0,76,79,126,120,34,126.01,187,12.00,21.00,-1087.00
2024-06-07 01:31:40.113319,0,0,-172,0,0,0,76,79,127,120,34,125.98,187,35.00,22.00,-1041.00
2024-06-07 01:31:40.183373,0,0,-178,0,0,0,76,79,127,120,34,126.02,187,-66.00,17.00,-1010.00
2024-06-07 01:31:40.321145,0,0,175,0,0,0,76,79,127,120,34,126.04,187,-23.00,36.00,-1032.00
2024-06-07 01:31:40.387495,0,0,169,0,0,0,76,79,128,120,34,126.01,187,10.00,4.00,-1015.00
2024-06-07 01:31:40.525237,0,0,163,0,0,0,76,79,129,120,34,125.96,187,42.00,-34.00,-1026.00
2024-06-07 01:31:40.591397,0,0,157,0,0,0,76,79,129,120,34,126.01,187,36.00,5.00,-1048.00
2024-06-07 01:31:40.693393,0,0,151,0,0,0,76,79,129,120,34,126.03,187,-5.00,-3.00,-1059.00
2024-06-07 01:31:40.830311,0,0,145,0,0,0,76,79,129,120,34,125.95,188,4.00,-3.00,-1048.00
2024-06-07 01:31:40.897360,0,0,139,0,0,0,76,79,130,120,34,126.00,188,-71.00,-19.00,-964.00
2024-06-07 01:31:40.999382,0,0,133,0,0,0,76,79,129,120,34,125.96,188,-65.00,55.00,-947.00
2024-06-07 01:31:41.101315,0,0,127,0,0,0,76,79,129,120,34,126.01,188,-45.00,28.00,-972.00
2024-06-07 01:31:41.203335,0,0,121,0,0,0,76,79,129,120,34,126.00,188,-9.00,-3.00,-837.00
2024-06-07 01:31:41.311535,0,0,114,0,0,0,76,79,130,120,34,126.03,188,-21.00,-4.00,-1074.00
2024-06-07 01:31:41.407281,0,0,108,0,0,0,76,79,130,120,34,125.95,188,87.00,-32.00,-975.00
2024-06-07 01:31:41.547066,0,0,102,0,0,0,76,79,130,120,34,125.98,188,-69.00,13.00,-1047.00
2024-06-07 01:31:41.611268,0,0,96,0,0,0,76,79,129,120,34,126.04,188,12.00,3.00,-1028.00
2024-06-07 01:31:41.755158,1,0,90,0,0,0,76,79,129,120,34,126.01,188,-4.00,4.00,-982.00
2024-06-07 01:31:41.815199,0,0,83,0,0,0,76,79,129,120,34,125.98,189,24.00,12.00,-1049.00
2024-06-07 01:31:41.959421,0,0,77,0,0,0,76,79,128,120,34,125.89,189,26.00,-16.00,-984.00
2024-06-07 01:31:42.023480,0,0,71,0,0,0,76,79,126,120,34,125.96,189,12.00,-17.00,-942.00
2024-06-07 01:31:42.121266,0,0,65,0,0,0,76,79,125,120,34,125.91,189,4.00,4.00,-1007.00
2024-06-07 01:31:42.223314,0,0,59,0,0,0,76,79,124,120,34,125.94,189,26.00,-15.00,-992.00
2024-06-07 01:31:42.367946,0,0,52,0,0,0,76,79,124,120,34,125.91,189,4.00,-2.00,-1037.00
2024-06-07 01:31:42.376141,0,0,46,0,0,0,76,79,123,120,34,125.91,189,8.00,17.00,-1146.00
2024-06-07 01:31:42.570637,0,0,41,0,0,0,76,79,123,120,34,125.90,189,49.00,-10.00,-1019.00
2024-06-07 01:31:42.580098,0,0,35,0,0,0,76,79,122,120,34,125.92,189,2.00,-27.00,-938.00
2024-06-07 01:31:42.779187,0,0,29,0,0,0,76,79,122,120,33,125.86,189,34.00,29.00,-1150.00
2024-06-07 01:31:42.784098,0,0,23,0,0,0,76,79,122,120,33,125.89,190,30.00,4.00,-959.00
2024-06-07 01:31:42.982810,0,0,17,0,0,0,76,79,123,120,33,125.96,190,-20.00,1.00,-951.00
2024-06-07 01:31:42.988011,0,0,12,0,0,0,76,79,123,120,33,125.95,190,-16.00,41.00,-913.00
2024-06-07 01:31:43.187485,0,0,9,0,0,0,76,79,124,120,33,125.94,190,-37.00,-1.00,-1108.00
2024-06-07 01:31:43.191927,0,0,6,0,0,0,76,79,125,120,33,125.97,190,22.00,-40.00,-950.00
2024-06-07 01:31:43.389882,0,0,4,0,0,0,76,79,126,120,33,125.93,190,21.00,1.00,-984.00
2024-06-07 01:31:43.395973,0,0,3,0,0,0,76,79,126,120,33,125.89,190,-45.00,17.00,-1007.00
2024-06-07 01:31:43.597177,0,0,1,0,0,0,76,79,126,120,33,125.93,190,-49.00,48.00,-977.00
2024-06-07 01:31:43.599966,0,0,1,0,0,0,76,79,127,120,33,125.98,190,-49.00,50.00,-1084.00
2024-06-07 01:31:43.799446,0,0,0,0,0,0,76,79,128,120,33,125.91,190,5.00,-7.00,-1001.00
2024-06-07 01:31:43.804112,0,0,0,0,0,0,76,79,128,120,33,125.94,191,22.00,-10.00,-1047.00
2024-06-07 01:31:43.906301,0,0,0,0,0,0,76,79,129,120,33,126.02,191,41.00,-6.00,-937.00
2024-06-07 01:31:44.009492,0,0,0,0,0,0,76,79,128,120,33,125.91,191,-10.00,12.00,-945.00
2024-06-07 01:31:44.209185,0,0,0,0,0,0,76,79,127,120,33,125.89,191,10.00,2.00,-1175.00
2024-06-07 01:31:44.213305,0,0,0,0,0,0,76,79,127,120,33,125.93,191,-11.00,8.00,-968.00
2024-06-07 01:31:44.315219,0,0,0,0,0,0,76,79,126,120,33,125.91,191,-47.00,27.00,-944.00
2024-06-07 01:31:44.417579,0,0,0,0,0,0,76,79,125,120,33,125.88,191,-21.00,-1.00,-968.00
2024-06-07 01:31:44.519613,0,0,0,0,0,0,76,79,125,120,33,125.91,191,12.00,1.00,-983.00
2024-06-07 01:31:44.621281,0,0,0,0,0,0,76,79,124,120,33,125.84,191,48.00,-20.00,-1165.00
2024-06-07 01:31:44.723406,0,0,0,0,0,0,76,79,124,120,33,125.89,191,46.00,-18.00,-1048.00
2024-06-07 01:31:44.825175,0,0,0,0,0,0,76,79,124,120,33,125.90,192,49.00,-13.00,-1020.00
2024-06-07 01:31:44.927201,0,0,0,0,0,0,76,79,123,120,33,125.85,192,-71.00,34.00,-868.00
2024-06-07 01:31:45.029269,0,0,0,0,0,0,76,79,123,120,33,125.90,192,-69.00,36.00,-1052.00
2024-06-07 01:31:45.131267,0,0,0,0,0,0,77,79,122,120,33,125.91,192,0.00,12.00,-1013.00
2024-06-07 01:31:45.233540,0,0,0,0,0,0,77,79,122,120,33,125.91,192,39.00,-20.00,-931.00
2024-06-07 01:31:45.335828,0,0,0,0,0,0,77,79,122,120,33,125.88,192,-27.00,-8.00,-1004.00
2024-06-07 01:31:45.441322,0,0,0,0,0,0,77,79,122,120,33,125.77,192,-25.00,16.00,-1042.00
2024-06-07 01:31:45.543474,0,0,0,0,0,0,77,79,122,120,33,125.94,192,12.00,-2.00,-947.00
2024-06-07 01:31:45.642479,0,0,0,0,0,0,77,79,123,120,33,125.94,192,-16.00,-1.00,-981.00
2024-06-07 01:31:45.743114,0,0,0,0,0,0,77,79,124,120,33,125.92,192,53.00,-25.00,-1037.00
2024-06-07 01:31:45.793906,0,0,0,0,0,0,77,79,124,120,33,125.92,193,-14.00,0.00,-1038.00
2024-06-07 01:31:45.896152,0,0,0,0,0,0,77,79,124,120,33,125.91,193,7.00,5.00,-1081.00
2024-06-07 01:31:46.053181,0,0,0,0,0,0,77,79,124,120,33,125.93,193,14.00,-26.00,-935.00
2024-06-07 01:31:46.151150,0,0,0,0,0,0,76,79,125,120,33,125.92,193,-28.00,0.00,-1014.00
2024-06-07 01:31:46.253744,0,0,0,0,0,0,76,79,125,120,33,125.83,193,-59.00,24.00,-959.00
2024-06-07 01:31:46.304008,0,0,0,0,0,0,76,79,125,120,33,125.90,193,-1.00,7.00,-995.00
2024-06-07 01:31:46.464548,0,0,0,0,0,0,76,79,125,120,33,125.88,193,4.00,-6.00,-983.00
2024-06-07 01:31:46.507899,0,0,0,0,0,0,76,79,125,120,33,125.86,193,5.00,-37.00,-1052.00
2024-06-07 01:31:46.669832,0,0,0,0,0,0,76,79,125,120,33,125.91,193,39.00,11.00,-1127.00
2024-06-07 01:31:46.713713,0,0,0,0,0,0,76,79,124,120,33,125.91,193,55.00,-34.00,-1015.00
2024-06-07 01:31:46.871669,0,0,0,0,0,0,76,79,123,120,33,125.85,194,33.00,-17.00,-957.00
2024-06-07 01:31:46.916131,0,0,0,0,0,0,76,79,124,120,33,125.89,194,-9.00,-6.00,-1004.00
2024-06-07 01:31:47.078711,0,0,0,0,0,0,76,79,124,120,33,125.94,194,0.00,-21.00,-982.00
2024-06-07 01:31:47.119853,0,0,0,0,0,0,77,78,124,120,33,125.97,194,-34.00,15.00,-1089.00
2024-06-07 01:31:47.221950,0,0,0,0,0,0,77,78,124,120,33,125.88,194,27.00,-31.00,-1128.00
2024-06-07 01:31:47.324186,0,0,0,0,0,0,77,78,125,120,33,125.92,194,2.00,-29.00,-1107.00
2024-06-07 01:31:47.425870,0,0,0,0,0,0,77,78,124,120,33,125.92,194,66.00,-46.00,-942.00
2024-06-07 01:31:47.528568,0,0,0,0,0,0,77,78,125,120,33,125.90,194,-12.00,13.00,-986.00
2024-06-07 01:31:47.631065,0,0,0,0,0,0,77,78,124,120,33,125.87,194,-13.00,-11.00,-978.00
2024-06-07 01:31:47.733372,0,0,0,0,0,0,77,78,125,120,33,125.91,194,27.00,-19.00,-1008.00
2024-06-07 01:31:47.833839,0,0,0,0,0,0,77,78,125,120,33,125.95,195,-67.00,40.00,-932.00
2024-06-07 01:31:47.938531,0,0,0,0,0,0,77,78,126,120,33,125.90,195,23.00,-17.00,-1072.00
2024-06-07 01:31:48.040157,0,0,0,0,0,0,77,78,126,120,33,125.94,195,-15.00,-9.00,-1036.00
2024-06-07 01:31:48.139773,0,0,0,0,0,0,76,78,126,120,33,125.91,195,-24.00,31.00,-1030.00
2024-06-07 01:31:48.241831,0,0,0,0,0,0,76,78,127,120,33,125.87,195,-53.00,45.00,-976.00
2024-06-07 01:31:48.410585,0,0,0,0,0,0,76,78,127,120,33,125.96,195,-44.00,38.00,-984.00
2024-06-07 01:31:48.445617,0,0,0,0,0,0,76,78,127,120,33,125.94,195,42.00,-30.00,-1035.00
2024-06-07 01:31:48.614264,0,0,0,0,0,0,76,78,128,120,33,125.95,195,-24.00,33.00,-920.00
2024-06-07 01:31:48.650606,0,0,0,0,0,0,76,78,127,120,32,125.96,195,-37.00,29.00,-1008.00
2024-06-07 01:31:48.817687,0,0,0,0,0,0,76,78,128,120,32,125.88,195,47.00,-27.00,-1063.00
2024-06-07 01:31:48.854212,0,0,0,0,0,0,76,78,128,120,32,125.93,196,22.00,-6.00,-1027.00
2024-06-07 01:31:49.023273,0,0,0,0,0,0,76,78,127,120,32,125.92,196,-36.00,41.00,-1011.00
2024-06-07 01:31:49.127271,0,0,0,0,0,0,76,78,127,120,32,125.92,196,11.00,-4.00,-984.00
2024-06-07 01:31:49.383504,0,0,0,0,0,0,76,79,126,120,32,125.85,196,5.00,-24.00,-1000.00
2024-06-07 01:31:49.383701,0,0,0,0,0,0,76,79,126,120,32,125.97,196,-50.00,38.00,-970.00
2024-06-07 01:31:49.383840,0,0,0,0,0,0,76,79,126,120,32,125.96,196,-49.00,13.00,-952.00
2024-06-07 01:31:49.474128,0,0,0,0,0,0,76,79,125,120,32,125.91,196,32.00,-32.00,-1026.00
2024-06-07 01:31:49.574134,0,0,0,0,0,0,76,79,124,120,32,125.86,196,71.00,-76.00,-1128.00
2024-06-07 01:31:49.618988,0,0,0,0,0,0,76,79,123,120,32,125.92,196,58.00,-45.00,-954.00
2024-06-07 01:31:49.740133,0,0,0,0,0,0,76,79,123,120,32,125.88,196,29.00,-2.00,-1035.00
2024-06-07 01:31:49.823099,0,0,0,0,0,0,76,79,122,120,32,125.89,197,-31.00,-9.00,-1034.00
2024-06-07 01:31:50.060790,0,0,0,0,0,0,76,79,122,120,32,125.82,197,38.00,-22.00,-1022.00
2024-06-07 01:31:50.060961,0,0,0,0,0,0,76,79,121,120,32,125.86,197,18.00,1.00,-1020.00
2024-06-07 01:31:50.250503,0,0,0,0,0,0,76,78,122,120,32,125.92,197,49.00,14.00,-1055.00
2024-06-07 01:31:50.251265,0,0,0,0,0,0,76,78,122,120,32,125.85,197,3.00,25.00,-1006.00
2024-06-07 01:31:50.385702,0,0,0,0,0,0,76,78,122,120,32,125.90,197,34.00,-2.00,-1014.00
2024-06-07 01:31:50.529370,0,0,0,0,0,0,76,78,122,120,32,125.85,197,-35.00,20.00,-863.00
2024-06-07 01:31:50.536653,0,0,0,0,0,0,76,78,122,120,32,125.79,197,-22.00,-20.00,-1013.00
2024-06-07 01:31:50.671893,0,0,0,0,0,0,76,78,123,120,32,125.84,197,22.00,16.00,-1036.00
2024-06-07 01:31:50.817727,0,0,0,0,0,0,76,78,123,120,32,125.85,197,15.00,-30.00,-970.00
2024-06-07 01:31:50.843143,0,0,0,0,0,0,76,78,123,120,32,125.79,198,-37.00,-15.00,-990.00
2024-06-07 01:31:50.978156,0,0,0,0,0,0,76,78,123,120,32,125.86,198,25.00,5.00,-1027.00
2024-06-07 01:31:51.121476,0,0,0,0,0,0,76,78,123,120,32,125.80,198,49.00,-23.00,-1000.00
2024-06-07 01:31:51.148925,0,0,0,0,0,0,77,78,124,120,32,125.78,198,39.00,-19.00,-980.00
2024-06-07 01:31:51.285430,0,0,0,0,0,0,77,78,124,120,32,125.81,198,-21.00,36.00,-998.00
2024-06-07 01:31:51.428724,0,0,0,0,0,0,77,78,124,120,32,125.83,198,18.00,-3.00,-975.00
2024-06-07 01:31:51.479896,0,0,0,0,0,0,77,78,125,120,32,125.83,198,-56.00,14.00,-1010.00
2024-06-07 01:31:51.592641,0,0,0,0,0,0,77,78,124,120,32,125.83,198,27.00,-14.00,-1101.00
2024-06-07 01:31:51.735980,0,0,0,0,0,0,77,78,125,120,32,125.82,198,-58.00,12.00,-1071.00
2024-06-07 01:31:51.760934,0,0,0,0,0,0,77,78,125,120,32,125.89,198,19.00,1.00,-1076.00
2024-06-07 01:31:51.899573,0,0,0,0,0,0,77,78,125,120,32,125.81,199,-53.00,20.00,-973.00
2024-06-07 01:31:51.964607,0,0,0,0,0,0,77,78,126,120,32,125.86,199,17.00,-3.00,-1009.00
2024-06-07 01:31:52.093701,0,0,0,0,0,0,77,78,125,120,32,125.91,199,-20.00,-7.00,-1156.00
2024-06-07 01:31:52.168675,0,0,0,0,0,0,77,78,126,120,32,125.84,199,1.00,-19.00,-1022.00
2024-06-07 01:31:52.300821,0,0,0,0,0,0,77,78,127,120,32,125.87,199,-17.00,39.00,-977.00
2024-06-07 01:31:52.372563,0,0,0,0,0,0,77,78,127,120,32,125.84,199,47.00,22.00,-1027.00
2024-06-07 01:31:52.507948,0,0,0,0,0,0,77,78,128,120,32,125.85,199,38.00,-3.00,-1039.00
2024-06-07 01:31:52.576474,0,0,0,0,0,0,77,78,127,120,32,125.87,199,12.00,-13.00,-1087.00
2024-06-07 01:31:52.708400,0,0,0,0,0,0,77,78,127,120,32,125.88,199,28.00,-3.00,-1149.00
2024-06-07 01:31:52.780454,0,0,0,0,0,0,77,78,127,120,32,125.86,199,15.00,-22.00,-910.00
2024-06-07 01:31:52.913539,0,0,0,0,0,0,77,78,127,120,32,125.85,200,53.00,-28.00,-1082.00
2024-06-07 01:31:52.984632,0,0,0,0,0,0,77,78,128,120,32,125.88,200,19.00,-30.00,-1027.00
2024-06-07 01:31:53.118246,0,0,0,0,0,0,77,78,127,120,32,125.85,200,49.00,-45.00,-1025.00
2024-06-07 01:31:53.188665,0,0,0,0,0,0,76,79,127,120,32,125.87,200,89.00,-29.00,-1021.00
2024-06-07 01:31:53.334649,0,0,0,0,0,0,76,79,127,120,32,125.91,200,23.00,5.00,-1125.00
2024-06-07 01:31:53.392494,0,0,0,0,0,0,76,79,126,120,32,125.94,200,9.00,17.00,-1042.00
2024-06-07 01:31:53.494411,0,0,0,0,0,0,76,79,126,120,32,125.91,200,-9.00,31.00,-965.00
2024-06-07 01:31:53.545900,0,0,0,0,0,0,76,79,127,120,32,125.85,200,-32.00,9.00,-954.00
2024-06-07 01:31:53.649341,0,0,0,0,0,0,76,79,127,120,31,125.89,200,-26.00,16.00,-1065.00
2024-06-07 01:31:53.749298,0,0,0,0,0,0,76,79,127,120,31,125.86,201,92.00,-3.00,-1104.00
2024-06-07 01:31:53.936996,0,0,0,0,0,0,76,79,127,120,31,125.91,201,-10.00,5.00,-1002.00
2024-06-07 01:31:53.953185,0,0,0,0,0,0,76,79,127,120,31,125.82,201,-47.00,49.00,-961.00
2024-06-07 01:31:54.141415,0,0,0,0,0,0,76,79,128,120,31,125.82,201,-2.00,-16.00,-1019.00
2024-06-07 01:31:54.157472,0,0,0,0,0,0,76,78,127,120,31,125.83,201,76.00,-13.00,-1033.00
2024-06-07 01:31:54.263026,0,0,0,0,0,0,76,78,127,120,31,125.91,201,56.00,-15.00,-1090.00
2024-06-07 01:31:54.363546,0,0,0,0,0,0,76,78,126,120,31,125.88,201,5.00,-11.00,-1025.00
2024-06-07 01:31:54.463102,0,0,0,0,0,0,76,78,126,120,31,125.86,201,-45.00,30.00,-1036.00
2024-06-07 01:31:54.656059,0,0,0,0,0,0,76,78,126,120,31,125.90,201,-17.00,7.00,-972.00
2024-06-07 01:31:54.667209,0,0,0,0,0,0,76,78,126,120,31,125.88,201,14.00,-1.00,-989.00
2024-06-07 01:31:54.860296,0,0,0,0,0,0,76,78,126,120,31,125.87,202,5.00,3.00,-992.00
2024-06-07 01:31:54.870965,0,0,0,0,0,0,76,78,126,120,31,125.83,202,33.00,9.00,-954.00
2024-06-07 01:31:54.972958,0,0,0,0,0,0,76,78,126,120,31,125.89,202,61.00,-20.00,-1135.00
2024-06-07 01:31:55.167976,0,0,0,0,0,0,76,78,125,120,31,125.87,202,6.00,16.00,-822.00
2024-06-07 01:31:55.177080,0,0,0,0,0,0,76,78,125,120,31,125.89,202,-29.00,4.00,-982.00
2024-06-07 01:31:55.371881,0,0,0,0,0,0,76,78,125,120,31,125.87,202,-38.00,33.00,-978.00
2024-06-07 01:31:55.381025,0,0,0,0,0,0,76,78,125,120,31,125.89,202,-62.00,21.00,-956.00
2024-06-07 01:31:55.577761,0,0,0,0,0,0,76,78,125,120,31,125.86,202,10.00,-2.00,-965.00
2024-06-07 01:31:55.586151,0,0,0,0,0,0,76,78,125,120,31,125.90,202,37.00,-2.00,-1021.00
2024-06-07 01:31:55.784481,0,0,0,0,0,0,76,78,125,120,31,125.91,202,32.00,16.00,-1076.00
2024-06-07 01:31:55.790104,0,0,0,0,0,0,76,78,126,120,31,125.81,203,55.00,-19.00,-1038.00
2024-06-07 01:31:55.986564,0,0,0,0,0,0,76,78,127,120,31,125.86,203,-15.00,-20.00,-1018.00
2024-06-07 01:31:55.994002,0,0,0,0,0,0,76,78,126,120,31,125.86,203,-46.00,39.00,-1038.00
2024-06-07 01:31:56.189738,0,0,0,0,0,0,76,78,127,120,31,125.84,203,40.00,-13.00,-1060.00
2024-06-07 01:31:56.198227,0,0,0,0,0,0,77,79,127,120,31,125.86,203,34.00,-24.00,-1000.00
2024-06-07 01:31:56.396812,0,0,0,0,0,0,77,79,128,120,31,125.89,203,47.00,6.00,-962.00
2024-06-07 01:31:56.401969,0,0,0,0,0,0,77,79,128,120,31,125.93,203,23.00,23.00,-861.00
2024-06-07 01:31:56.601466,0,0,0,0,0,0,77,79,129,120,31,125.91,203,56.00,-19.00,-970.00
2024-06-07 01:31:56.605913,0,0,0,0,0,0,77,79,128,120,31,125.90,203,18.00,-19.00,-910.00
2024-06-07 01:31:56.803734,0,0,0,0,0,0,77,79,129,120,31,125.88,203,-19.00,4.00,-935.00
2024-06-07 01:31:56.809878,0,0,0,0,0,0,77,79,129,120,31,125.87,204,34.00,-35.00,-970.00
2024-06-07 01:31:57.008959,0,0,0,0,0,0,77,79,129,120,31,125.85,204,-41.00,13.00,-962.00
2024-06-07 01:31:57.013769,0,0,0,0,0,0,77,79,130,120,31,125.87,204,-56.00,10.00,-888.00
2024-06-07 01:31:57.116856,0,0,0,0,0,0,77,79,130,120,31,125.91,204,-56.00,24.00,-986.00
2024-06-07 01:31:57.218238,0,0,0,0,0,0,77,79,130,120,31,125.93,204,53.00,-19.00,-1013.00
2024-06-07 01:31:57.320604,0,0,0,0,0,0,77,79,130,120,31,125.90,204,67.00,-31.00,-950.00
2024-06-07 01:31:57.370937,0,0,0,0,0,0,77,79,130,120,31,125.91,204,10.00,-29.00,-1003.00
2024-06-07 01:31:57.521538,0,0,0,0,0,0,77,79,130,120,31,125.87,204,40.00,-30.00,-1060.00
2024-06-07 01:31:57.575044,0,0,0,0,0,0,77,79,130,120,31,125.89,204,14.00,12.00,-987.00
2024-06-07 01:31:57.728899,0,0,0,0,0,0,77,79,131,120,31,125.93,204,-119.00,45.00,-970.00
2024-06-07 01:31:57.779327,0,0,0,0,0,0,77,79,130,120,31,125.80,205,-18.00,-12.00,-974.00
2024-06-07 01:31:57.925409,0,0,0,0,0,0,77,79,130,120,31,125.87,205,65.00,-14.00,-1133.00
2024-06-07 01:31:57.982698,0,0,0,0,0,0,77,79,130,120,31,125.84,205,-21.00,-5.00,-941.00
2024-06-07 01:31:58.138511,0,0,0,0,0,0,77,79,130,120,31,125.85,205,-51.00,16.00,-975.00
2024-06-07 01:31:58.186885,0,0,0,0,0,0,76,79,130,120,31,125.87,205,-18.00,34.00,-1046.00
2024-06-07 01:31:58.342062,0,0,0,0,0,0,76,79,130,120,31,125.82,205,12.00,-3.00,-989.00
2024-06-07 01:31:58.390774,0,0,0,0,0,0,76,79,129,120,31,125.88,205,53.00,-2.00,-995.00
2024-06-07 01:31:58.548172,0,0,0,0,0,0,76,79,129,120,31,125.82,205,-81.00,47.00,-870.00
2024-06-07 01:31:58.594673,0,0,0,0,0,0,76,79,129,120,31,125.83,205,38.00,-9.00,-827.00
2024-06-07 01:31:58.751638,0,0,0,0,0,1,76,79,127,120,31,125.82,205,-7.00,-25.00,-837.00
