TS,pitch,roll,yaw,vgx,vgy,vgz,templ,temph,tof,h,bat,baro,time,agx,agy,agz
2024-06-07 01:32:27.733966,0,0,-12,0,0,0,81,82,10,0,31,124.48,209,-4.00,-1.00,-1001.00
2024-06-07 01:32:27.765248,0,0,-12,0,0,0,81,82,10,0,31,124.51,209,-4.00,0.00,-1002.00
2024-06-07 01:32:27.932236,0,0,-12,0,0,0,81,82,10,0,31,124.52,209,-5.00,0.00,-1000.00
2024-06-07 01:32:27.968426,0,0,-12,0,0,0,81,82,10,0,31,124.51,209,-6.00,1.00,-999.00
2024-06-07 01:32:28.137835,0,0,-12,0,0,0,81,82,10,0,31,124.50,209,-5.00,0.00,-1000.00
2024-06-07 01:32:28.171883,0,0,-12,0,0,0,81,82,10,0,31,124.52,209,-5.00,0.00,-1000.00
2024-06-07 01:32:28.341518,0,0,-12,0,0,0,81,82,10,0,31,124.50,209,-3.00,0.00,-1000.00
2024-06-07 01:32:28.377271,0,0,-12,0,0,0,80,83,10,0,31,124.50,209,-4.00,0.00,-1000.00
2024-06-07 01:32:28.546293,0,0,-12,0,0,0,80,83,10,0,31,124.47,209,-5.00,0.00,-1001.00
2024-06-07 01:32:28.581230,0,0,-12,0,0,0,80,83,10,0,31,124.50,209,-6.00,-2.00,-1000.00
2024-06-07 01:32:28.755329,0,0,-12,0,0,0,80,83,10,0,31,124.57,209,-3.00,1.00,-999.00
2024-06-07 01:32:28.785370,0,0,-12,0,0,0,80,83,10,0,31,124.57,209,-6.00,1.00,-998.00
2024-06-07 01:32:28.887172,0,0,-12,0,0,0,80,83,10,0,31,124.52,209,-5.00,0.00,-999.00
2024-06-07 01:32:29.061329,0,0,-12,0,0,0,80,83,10,0,31,124.46,209,-5.00,0.00,-1000.00
2024-06-07 01:32:29.091248,0,0,-12,0,0,0,80,83,10,0,31,124.51,209,-5.00,1.00,-999.00
2024-06-07 01:32:29.142025,0,0,-12,0,0,0,80,83,10,0,31,124.52,209,-5.00,1.00,-998.00
2024-06-07 01:32:29.264842,0,0,-12,0,0,0,80,83,10,0,31,124.51,209,-5.00,-1.00,-999.00
2024-06-07 01:32:29.345864,0,0,-12,0,0,0,80,82,10,0,31,124.53,209,-4.00,0.00,-999.00
2024-06-07 01:32:29.448236,0,0,-12,0,0,0,80,82,10,0,31,124.54,209,-6.00,0.00,-999.00
2024-06-07 01:32:29.570197,0,0,-12,0,0,0,80,82,10,0,31,124.50,209,-4.00,0.00,-998.00
2024-06-07 01:32:29.652035,0,0,-12,0,0,0,80,82,10,0,31,124.46,209,-6.00,0.00,-1000.00
2024-06-07 01:32:29.775832,0,0,-12,0,0,0,80,82,10,0,31,124.46,209,-4.00,1.00,-998.00
2024-06-07 01:32:29.855948,0,0,-12,0,0,0,80,82,10,0,31,124.52,209,-6.00,0.00,-997.00
2024-06-07 01:32:29.957941,0,0,-12,0,0,0,80,82,10,0,31,124.52,209,5.00,-8.00,-999.00
2024-06-07 01:32:30.082154,0,0,-12,0,0,0,80,82,10,0,31,124.52,209,-6.00,-7.00,-985.00
2024-06-07 01:32:30.161810,0,0,-11,0,0,0,80,82,10,0,31,124.52,209,1.00,11.00,-999.00
2024-06-07 01:32:30.289885,0,0,-7,0,0,0,80,82,10,0,31,124.52,209,56.00,-78.00,-978.00
2024-06-07 01:32:30.366796,0,0,-5,0,0,0,80,82,10,0,31,124.52,210,-67.00,38.00,-973.00
2024-06-07 01:32:30.491705,0,0,-4,0,0,0,80,82,10,0,31,124.52,210,16.00,-43.00,-1083.00
2024-06-07 01:32:30.569800,0,0,-4,0,0,-1,80,82,10,0,31,124.52,210,9.00,-20.00,-1167.00
2024-06-07 01:32:30.699359,0,0,-4,0,0,-3,80,82,10,0,31,124.52,210,-12.00,16.00,-1230.00
2024-06-07 01:32:30.773797,0,0,-4,0,0,-5,80,82,11,0,31,124.52,210,-4.00,12.00,-1226.00
2024-06-07 01:32:30.901195,-1,1,-4,0,0,-6,80,82,20,0,31,124.82,210,-2.00,9.00,-1068.00
2024-06-07 01:32:30.977776,0,0,-4,0,0,-7,80,82,29,0,31,124.93,210,1.00,5.00,-1143.00
2024-06-07 01:32:31.106546,0,0,-4,0,0,-7,80,82,33,10,31,124.93,210,-36.00,-8.00,-1082.00
2024-06-07 01:32:31.181798,0,0,-4,0,0,-7,80,82,43,10,31,125.07,210,-32.00,12.00,-1011.00
2024-06-07 01:32:31.314839,0,0,-4,0,0,-6,80,82,52,20,31,125.18,210,-70.00,21.00,-983.00
2024-06-07 01:32:31.385834,0,0,-4,0,0,-5,81,83,65,30,31,125.24,211,-31.00,33.00,-890.00
2024-06-07 01:32:31.515690,0,0,-4,0,0,-4,81,83,72,30,31,125.28,211,-4.00,11.00,-947.00
2024-06-07 01:32:31.589803,0,0,-4,0,0,-3,81,83,79,40,31,125.36,211,35.00,-16.00,-958.00
2024-06-07 01:32:31.720436,0,0,-4,0,0,-2,81,83,83,40,31,125.47,211,-7.00,49.00,-938.00
2024-06-07 01:32:31.793815,0,0,-4,0,0,-1,81,83,87,40,31,125.51,211,13.00,-9.00,-858.00
2024-06-07 01:32:31.928696,0,0,-4,0,0,0,81,83,90,50,31,125.50,211,-34.00,33.00,-934.00
2024-06-07 01:32:31.997730,0,0,-4,0,0,0,81,83,91,50,31,125.55,211,8.00,15.00,-880.00
2024-06-07 01:32:32.129930,0,0,-4,0,0,0,81,83,91,50,31,125.58,211,-31.00,16.00,-842.00
2024-06-07 01:32:32.201688,0,0,-4,0,0,0,81,83,92,50,31,125.50,211,47.00,-35.00,-931.00
2024-06-07 01:32:32.334810,0,0,-4,0,0,0,81,83,92,50,31,125.49,211,57.00,23.00,-1008.00
2024-06-07 01:32:32.405728,0,0,-4,0,0,0,81,82,92,50,31,125.51,212,21.00,-42.00,-978.00
2024-06-07 01:32:32.539614,0,0,-4,0,0,1,81,82,91,50,31,125.55,212,6.00,-8.00,-951.00
2024-06-07 01:32:32.609741,0,0,-4,0,0,1,81,82,90,50,31,125.53,212,47.00,0.00,-917.00
2024-06-07 01:32:32.747963,0,0,-4,0,0,1,81,82,89,50,31,125.53,212,81.00,-37.00,-1060.00
2024-06-07 01:32:32.813642,0,0,-4,0,0,0,81,82,88,50,31,125.53,212,24.00,-32.00,-1054.00
2024-06-07 01:32:32.952862,0,0,-4,0,0,0,81,82,87,50,31,125.55,212,4.00,9.00,-1114.00
2024-06-07 01:32:32.968514,0,0,-4,0,0,1,81,82,86,50,31,125.56,212,5.00,-17.00,-1063.00
2024-06-07 01:32:33.068892,0,0,-4,0,0,1,81,82,85,50,31,125.53,212,-36.00,18.00,-906.00
2024-06-07 01:32:33.170850,0,0,-4,0,0,0,81,82,84,50,31,125.49,212,11.00,-19.00,-993.00
2024-06-07 01:32:33.272803,0,0,-4,0,0,0,81,82,82,50,31,125.50,212,-15.00,45.00,-1097.00
2024-06-07 01:32:33.374817,0,0,-4,0,0,0,80,83,81,50,31,125.51,213,52.00,2.00,-1024.00
2024-06-07 01:32:33.568957,0,0,-4,0,0,0,80,83,80,40,31,125.43,213,48.00,-5.00,-1004.00
2024-06-07 01:32:33.578763,0,0,-4,0,0,0,80,83,79,40,31,125.45,213,22.00,-19.00,-1028.00
2024-06-07 01:32:33.768715,0,0,-4,0,0,0,80,83,78,40,31,125.45,213,47.00,-50.00,-1019.00
2024-06-07 01:32:33.784242,0,0,-4,0,0,0,80,83,77,40,31,125.36,213,26.00,10.00,-1056.00
2024-06-07 01:32:33.975092,0,0,-4,0,0,0,80,83,75,40,31,125.38,213,5.00,-1.00,-1104.00
2024-06-07 01:32:33.986849,0,0,-4,0,0,0,80,83,75,40,31,125.44,213,2.00,19.00,-1061.00
2024-06-07 01:32:34.114827,0,0,-4,0,0,0,80,83,74,40,31,125.37,213,-55.00,16.00,-1012.00
2024-06-07 01:32:34.297397,0,0,-4,0,0,0,80,83,73,40,31,125.38,213,-22.00,-24.00,-957.00
2024-06-07 01:32:34.298698,0,0,-4,0,0,0,80,83,72,40,31,125.39,213,78.00,-32.00,-1094.00
2024-06-07 01:32:34.410519,0,0,-4,0,0,0,80,83,72,40,31,125.37,214,-36.00,18.00,-1070.00
2024-06-07 01:32:34.496722,0,0,-4,0,0,0,80,83,72,40,31,125.42,214,-52.00,12.00,-1046.00
2024-06-07 01:32:34.794699,-1,0,-4,0,0,0,80,83,72,40,31,125.43,214,36.00,15.00,-988.00
2024-06-07 01:32:34.837269,0,0,-4,0,0,0,80,83,72,40,31,125.35,214,21.00,17.00,-1067.00
2024-06-07 01:32:34.837307,0,0,-4,0,0,0,80,83,73,40,31,125.33,214,-70.00,19.00,-968.00
2024-06-07 01:32:34.925747,0,0,-4,0,0,0,80,83,73,40,31,125.44,214,-51.00,36.00,-1073.00
2024-06-07 01:32:35.006627,0,0,-4,0,0,0,80,83,73,40,31,125.43,214,0.00,-29.00,-983.00
2024-06-07 01:32:35.224758,-1,0,-4,0,0,0,80,83,74,40,31,125.41,214,-17.00,-5.00,-1017.00
2024-06-07 01:32:35.224828,-1,0,-4,0,0,0,80,83,74,40,31,125.45,214,51.00,-7.00,-1064.00
2024-06-07 01:32:35.368063,-1,0,-4,0,0,0,80,83,75,40,31,125.52,214,-55.00,-6.00,-986.00
2024-06-07 01:32:35.520668,0,0,-4,0,0,0,80,82,75,40,31,125.41,215,-8.00,6.00,-992.00
2024-06-07 01:32:35.520959,0,1,-4,0,0,0,80,82,75,40,31,125.41,215,-49.00,11.00,-941.00
2024-06-07 01:32:35.675289,0,1,-4,0,0,0,80,82,75,40,31,125.40,215,-7.00,-14.00,-1091.00
2024-06-07 01:32:35.744838,0,1,-4,0,0,0,80,82,75,40,31,125.42,215,29.00,-23.00,-1002.00
2024-06-07 01:32:35.822642,-1,0,-4,0,0,0,80,82,74,40,31,125.38,215,0.00,-4.00,-918.00
2024-06-07 01:32:36.021542,0,0,-4,0,0,0,80,82,74,40,31,125.44,215,-22.00,14.00,-903.00
2024-06-07 01:32:36.026567,0,0,-4,0,0,0,80,82,74,40,31,125.40,215,-35.00,4.00,-992.00
2024-06-07 01:32:36.128581,-1,0,-4,0,0,0,80,82,75,40,31,125.40,215,-32.00,-15.00,-1018.00
2024-06-07 01:32:36.233059,-1,0,-4,0,0,0,80,82,75,40,31,125.43,215,107.00,-38.00,-1011.00
2024-06-07 01:32:36.332549,-1,1,-4,0,0,0,80,82,76,40,31,125.41,215,-12.00,0.00,-983.00
2024-06-07 01:32:36.434599,-1,0,-4,0,0,0,80,82,77,40,31,125.50,216,-9.00,-25.00,-1132.00
2024-06-07 01:32:36.637548,-1,0,-4,0,0,0,80,82,78,40,31,125.45,216,-60.00,23.00,-977.00
2024-06-07 01:32:36.638490,-1,0,-4,0,0,0,80,82,79,40,31,125.42,216,7.00,-33.00,-976.00
2024-06-07 01:32:36.843096,-1,0,-4,0,0,0,80,82,80,40,31,125.41,216,45.00,-34.00,-938.00
2024-06-07 01:32:36.843164,0,0,-4,0,0,0,80,82,81,40,31,125.42,216,-54.00,9.00,-1062.00
2024-06-07 01:32:36.894364,0,0,-4,0,0,0,80,82,83,40,31,125.44,216,0.00,-25.00,-933.00
2024-06-07 01:32:37.045018,-1,0,-4,0,0,0,80,82,84,40,31,125.48,216,-33.00,7.00,-969.00
2024-06-07 01:32:37.097263,-1,0,-4,0,0,0,80,82,84,50,31,125.48,216,-20.00,6.00,-931.00
2024-06-07 01:32:37.251892,-1,0,-4,0,0,0,80,82,85,50,31,125.54,216,24.00,-66.00,-949.00
2024-06-07 01:32:37.301278,0,0,-4,0,0,0,80,82,86,50,31,125.54,216,-36.00,8.00,-918.00
2024-06-07 01:32:37.403221,0,1,-4,0,0,0,80,82,87,50,31,125.52,217,20.00,-6.00,-984.00
2024-06-07 01:32:37.559844,0,0,-4,0,0,0,80,82,87,50,31,125.51,217,91.00,-52.00,-967.00
2024-06-07 01:32:37.607248,-1,0,-4,0,0,0,80,82,87,50,31,125.57,217,14.00,-23.00,-946.00
2024-06-07 01:32:37.763645,-1,0,-4,0,0,0,80,82,87,50,31,125.50,217,-47.00,-5.00,-1020.00
2024-06-07 01:32:37.811394,-1,0,-4,0,0,0,80,82,87,50,31,125.46,217,-26.00,-9.00,-1021.00
2024-06-07 01:32:37.967762,0,0,-4,0,0,0,80,82,86,50,31,125.52,217,2.00,-7.00,-915.00
2024-06-07 01:32:38.015544,0,1,-4,0,0,0,80,82,87,50,31,125.57,217,-33.00,32.00,-1021.00
2024-06-07 01:32:38.174159,0,0,-4,0,0,0,80,82,87,50,31,125.52,217,-6.00,2.00,-1077.00
2024-06-07 01:32:38.219200,0,0,-4,0,0,0,80,82,87,50,31,125.50,217,2.00,-12.00,-968.00
2024-06-07 01:32:38.374004,0,0,-4,0,0,0,80,82,87,50,31,125.57,217,-17.00,-20.00,-977.00
2024-06-07 01:32:38.423140,-1,0,-4,0,0,0,79,82,88,50,31,125.52,218,20.00,12.00,-999.00
2024-06-07 01:32:38.585804,-1,0,-4,0,0,0,79,82,87,50,31,125.64,218,19.00,17.00,-1117.00
2024-06-07 01:32:38.627231,-1,0,-4,0,0,0,79,82,88,50,31,125.57,218,-107.00,9.00,-950.00
2024-06-07 01:32:38.782767,-1,0,-4,0,0,0,79,82,88,50,31,125.56,218,41.00,-24.00,-957.00
2024-06-07 01:32:38.831283,-1,0,-4,0,0,0,79,82,89,50,31,125.59,218,48.00,-28.00,-943.00
2024-06-07 01:32:38.993142,-1,0,-4,0,0,0,79,82,89,50,31,125.60,218,-22.00,-28.00,-1079.00
2024-06-07 01:32:39.035085,-1,0,-4,0,0,0,79,82,89,50,31,125.51,218,-63.00,-9.00,-1023.00
2024-06-07 01:32:39.198314,0,0,-4,0,0,0,79,82,89,50,31,125.45,218,41.00,-29.00,-991.00
2024-06-07 01:32:39.239159,-1,0,-4,0,0,0,79,82,89,50,31,125.53,218,-33.00,-19.00,-1005.00
2024-06-07 01:32:39.341817,-1,0,-4,0,0,0,79,82,88,50,31,125.58,218,-100.00,21.00,-972.00
2024-06-07 01:32:39.443166,-1,0,-4,0,0,0,80,81,88,50,31,125.50,219,0.00,-23.00,-1018.00
2024-06-07 01:32:39.545060,-1,0,-4,0,0,0,80,81,87,50,31,125.55,219,-28.00,-11.00,-1019.00
2024-06-07 01:32:39.710334,-1,0,-4,0,0,0,80,81,87,50,31,125.49,219,36.00,-20.00,-1021.00
2024-06-07 01:32:39.749305,-1,0,-4,0,0,0,80,81,87,50,31,125.52,219,-31.00,27.00,-1000.00
2024-06-07 01:32:39.851288,-1,0,-4,0,0,0,80,81,86,50,31,125.44,219,63.00,-19.00,-895.00
2024-06-07 01:32:39.953138,-1,0,-4,0,0,0,80,81,87,50,31,125.52,219,-24.00,-11.00,-950.00
2024-06-07 01:32:40.117495,-1,0,-4,0,0,0,80,81,87,50,31,125.51,219,27.00,-15.00,-889.00
2024-06-07 01:32:40.157019,-1,0,-4,0,0,0,80,81,87,50,31,125.55,219,-70.00,22.00,-961.00
2024-06-07 01:32:40.325554,0,0,-4,0,0,0,80,81,87,50,31,125.51,219,-16.00,3.00,-1037.00
2024-06-07 01:32:40.325732,-1,0,-4,0,0,0,80,81,88,50,31,125.55,219,-27.00,13.00,-956.00
2024-06-07 01:32:40.529512,0,0,-4,0,0,0,79,81,88,50,31,125.54,220,10.00,-7.00,-1028.00
2024-06-07 01:32:40.566400,-1,0,-4,0,0,0,79,81,88,50,31,125.47,220,61.00,-41.00,-961.00
2024-06-07 01:32:40.668310,-1,0,-4,0,0,0,79,81,88,50,31,125.47,220,11.00,-18.00,-985.00
2024-06-07 01:32:40.770591,-1,0,-4,0,0,0,79,81,87,50,31,125.51,220,17.00,-23.00,-1122.00
2024-06-07 01:32:40.939362,-1,0,-4,0,0,0,79,81,87,50,31,125.43,220,23.00,-14.00,-1103.00
2024-06-07 01:32:40.974039,0,0,-4,0,0,0,79,81,88,50,31,125.52,220,21.00,-8.00,-1050.00
2024-06-07 01:32:41.024829,0,0,-4,0,0,-1,79,81,89,50,31,125.55,220,27.00,-20.00,-1091.00
2024-06-07 01:32:41.141174,-1,0,-4,0,0,-2,79,81,93,50,31,125.56,220,-9.00,-18.00,-1073.00
2024-06-07 01:32:41.229015,-1,0,-4,0,0,-3,79,81,95,60,31,125.61,220,-47.00,26.00,-964.00
2024-06-07 01:32:41.349160,-1,0,-4,0,0,-3,79,81,99,60,31,125.65,220,21.00,-39.00,-1002.00
2024-06-07 01:32:41.432752,-1,0,-4,0,0,-4,80,81,104,60,31,125.69,221,-51.00,1.00,-969.00
2024-06-07 01:32:41.552402,-1,0,-4,0,0,-5,80,81,110,70,31,125.66,221,-53.00,-32.00,-1097.00
2024-06-07 01:32:41.636858,-1,0,-4,0,0,-5,80,81,115,70,31,125.72,221,16.00,12.00,-1053.00
2024-06-07 01:32:41.757517,0,0,-4,0,0,-5,80,81,121,80,31,125.82,221,-115.00,55.00,-1001.00
2024-06-07 01:32:41.840866,0,0,-4,0,0,-5,80,81,127,90,31,125.88,221,23.00,37.00,-843.00
2024-06-07 01:32:41.942817,0,0,-4,0,0,-5,80,81,132,90,31,125.93,221,17.00,3.00,-979.00
2024-06-07 01:32:42.065395,0,0,-4,0,0,-5,80,81,138,100,31,126.01,221,14.00,-22.00,-909.00
2024-06-07 01:32:42.146847,0,0,-4,0,0,-5,80,81,142,100,31,126.03,221,2.00,-28.00,-940.00
2024-06-07 01:32:42.270051,-1,0,-4,0,0,-5,80,81,147,110,31,126.06,221,7.00,9.00,-995.00
2024-06-07 01:32:42.351105,-1,0,-4,0,0,-4,80,81,153,110,31,126.10,221,-70.00,34.00,-1016.00
2024-06-07 01:32:42.453932,0,0,-4,0,0,-4,79,81,157,120,31,126.11,222,-5.00,-8.00,-932.00
2024-06-07 01:32:42.556089,-1,0,-4,0,0,-3,79,81,159,120,31,126.14,222,97.00,-64.00,-1073.00
2024-06-07 01:32:42.657934,-1,0,-4,0,0,-3,79,81,163,130,31,126.23,222,-7.00,29.00,-896.00
2024-06-07 01:32:42.779128,-1,0,-4,0,0,-2,79,81,166,130,31,126.26,222,4.00,-35.00,-978.00
2024-06-07 01:32:42.863742,-1,0,-4,0,0,-2,79,81,169,130,31,126.28,222,-32.00,-8.00,-944.00
2024-06-07 01:32:42.962812,-1,0,-4,0,0,-2,79,81,173,140,31,126.29,222,15.00,-11.00,-1124.00
2024-06-07 01:32:43.089566,0,0,-4,0,0,-2,79,81,175,140,31,126.30,222,-48.00,34.00,-846.00
2024-06-07 01:32:43.166761,0,0,-4,0,0,-1,79,81,179,140,31,126.33,222,51.00,-28.00,-994.00
2024-06-07 01:32:43.291413,-1,0,-4,0,0,-1,79,81,181,140,31,126.34,222,-37.00,-27.00,-944.00
2024-06-07 01:32:43.370745,-1,0,-4,0,0,-1,79,81,182,140,31,126.39,223,-49.00,66.00,-977.00
2024-06-07 01:32:43.472779,-1,0,-4,0,0,-1,79,81,185,150,31,126.36,223,4.00,10.00,-921.00
2024-06-07 01:32:43.600321,-1,0,-4,0,0,-1,79,81,185,150,31,126.48,223,-17.00,10.00,-867.00
2024-06-07 01:32:43.678901,0,0,-4,0,0,0,79,81,187,150,31,126.45,223,-91.00,74.00,-846.00
2024-06-07 01:32:43.779543,0,0,-4,0,0,0,79,81,189,150,31,126.49,223,16.00,16.00,-877.00
2024-06-07 01:32:43.908677,0,0,-4,0,0,0,79,81,189,150,31,126.43,223,37.00,-22.00,-1002.00
2024-06-07 01:32:43.982807,0,0,-4,0,0,0,79,81,189,150,31,126.51,223,-9.00,-14.00,-1009.00
2024-06-07 01:32:44.113441,0,0,-4,0,0,0,79,81,191,150,31,126.40,223,21.00,-29.00,-1022.00
2024-06-07 01:32:44.186826,-1,0,-4,0,0,0,79,81,190,150,31,126.44,223,-104.00,-2.00,-955.00
2024-06-07 01:32:44.317512,-1,0,-4,0,0,0,79,81,191,150,31,126.44,223,38.00,-3.00,-974.00
2024-06-07 01:32:44.390726,0,0,-4,0,0,0,79,81,191,150,31,126.47,224,0.00,-27.00,-1110.00
2024-06-07 01:32:44.492819,0,0,-4,0,0,0,78,81,190,150,31,126.46,224,9.00,18.00,-1010.00
2024-06-07 01:32:44.624163,-1,0,-4,0,0,0,78,81,190,150,31,126.42,224,51.00,-25.00,-1101.00
2024-06-07 01:32:44.645851,-1,0,-4,0,0,0,78,81,190,150,31,126.49,224,-9.00,8.00,-1011.00
2024-06-07 01:32:44.829405,-1,0,-4,0,0,0,78,81,190,150,31,126.45,224,35.00,-31.00,-1016.00
2024-06-07 01:32:44.850570,-1,0,-4,0,0,0,78,81,190,150,31,126.42,224,52.00,-34.00,-1062.00
2024-06-07 01:32:45.031871,-1,0,-4,0,0,0,78,81,189,150,31,126.44,224,16.00,-16.00,-972.00
2024-06-07 01:32:45.053854,-1,0,-4,0,0,0,78,81,191,150,31,126.46,224,-36.00,23.00,-971.00
2024-06-07 01:32:45.238487,0,0,-4,0,0,0,78,81,189,150,31,126.35,224,-63.00,39.00,-1040.00
2024-06-07 01:32:45.257823,-1,0,-4,0,0,0,78,81,187,150,31,126.43,224,66.00,-39.00,-1113.00
2024-06-07 01:32:45.425410,-1,0,-4,0,0,0,78,81,189,150,31,126.45,225,-1.00,-8.00,-1013.00
2024-06-07 01:32:45.514691,-1,0,-4,0,0,0,79,80,188,150,31,126.42,225,46.00,-22.00,-1047.00
2024-06-07 01:32:45.564480,-1,0,-4,0,0,0,79,80,188,150,31,126.47,225,19.00,-19.00,-972.00
2024-06-07 01:32:45.748533,-1,0,-4,0,0,0,79,80,186,150,31,126.47,225,-31.00,8.00,-1010.00
2024-06-07 01:32:45.768463,-1,0,-4,0,0,0,79,80,184,150,31,126.37,225,-86.00,45.00,-904.00
2024-06-07 01:32:45.957669,0,0,-4,0,0,1,79,80,183,150,31,126.39,225,-75.00,68.00,-941.00
2024-06-07 01:32:45.972409,0,0,-4,0,0,1,79,80,182,150,31,126.41,225,-64.00,42.00,-933.00
2024-06-07 01:32:46.160204,0,0,-4,0,0,2,79,80,180,140,31,126.38,225,0.00,-4.00,-997.00
2024-06-07 01:32:46.185527,0,0,-4,0,0,2,79,80,177,140,31,126.33,225,-7.00,11.00,-1057.00
2024-06-07 01:32:46.279469,0,0,-4,0,0,2,79,80,174,140,31,126.31,225,24.00,-50.00,-1074.00
2024-06-07 01:32:46.380400,0,0,-4,0,0,3,79,80,170,130,31,126.24,226,21.00,-18.00,-995.00
2024-06-07 01:32:46.567774,-1,0,-4,0,0,3,78,81,168,130,31,126.27,226,27.00,-38.00,-1031.00
2024-06-07 01:32:46.584283,-1,0,-4,0,0,3,78,81,166,130,31,126.24,226,-37.00,8.00,-1058.00
2024-06-07 01:32:46.775599,-1,0,-4,0,0,3,78,81,163,130,31,126.18,226,32.00,-41.00,-1030.00
2024-06-07 01:32:46.788309,-1,0,-4,0,0,2,78,81,160,120,31,126.17,226,4.00,-16.00,-904.00
2024-06-07 01:32:46.978550,-1,0,-4,0,0,2,78,81,157,120,31,126.14,226,17.00,-15.00,-1120.00
2024-06-07 01:32:46.992358,-1,0,-4,0,0,2,78,81,155,120,31,126.07,226,31.00,-19.00,-949.00
2024-06-07 01:32:47.185088,0,0,-4,0,0,2,78,81,153,120,31,126.08,226,32.00,-15.00,-1114.00
2024-06-07 01:32:47.196358,-1,0,-4,0,0,1,78,81,151,110,31,126.11,226,16.00,-38.00,-1010.00
2024-06-07 01:32:47.389896,-1,0,-4,0,0,1,78,81,149,110,31,126.07,226,-29.00,9.00,-967.00
2024-06-07 01:32:47.400302,-2,0,-4,0,0,1,78,81,148,110,31,126.07,227,-62.00,15.00,-965.00
2024-06-07 01:32:47.594764,-2,0,-4,0,0,1,79,80,146,110,31,125.98,227,46.00,6.00,-948.00
2024-06-07 01:32:47.604305,-1,0,-4,0,0,1,79,80,145,110,31,126.03,227,-22.00,20.00,-997.00
2024-06-07 01:32:47.797565,-1,0,-4,0,0,0,79,80,144,110,31,125.99,227,-24.00,31.00,-956.00
2024-06-07 01:32:47.808753,0,0,-4,0,0,0,79,80,143,110,31,126.03,227,-36.00,-3.00,-972.00
2024-06-07 01:32:47.911353,0,0,-4,0,0,0,79,80,143,110,31,126.04,227,-22.00,-7.00,-989.00
2024-06-07 01:32:48.107275,-1,0,-4,0,0,0,79,80,142,100,31,126.00,227,-21.00,-1.00,-1077.00
2024-06-07 01:32:48.116923,-1,0,-4,0,0,0,79,80,142,100,31,126.03,227,-47.00,10.00,-995.00
2024-06-07 01:32:48.312316,0,0,-4,0,0,0,79,80,142,100,31,126.08,227,-27.00,-12.00,-941.00
2024-06-07 01:32:48.319571,0,0,-4,0,0,0,79,80,141,100,31,125.98,227,18.00,-4.00,-984.00
2024-06-07 01:32:48.421711,-1,0,-4,0,0,0,79,80,141,100,31,126.02,228,-38.00,0.00,-977.00
2024-06-07 01:32:48.616841,-1,0,-4,0,0,0,78,81,141,100,31,126.03,228,31.00,13.00,-970.00
2024-06-07 01:32:48.627351,-1,0,-4,0,0,0,78,81,142,100,31,126.01,228,-44.00,18.00,-899.00
2024-06-07 01:32:48.727630,-1,0,-4,0,0,0,78,81,143,100,31,126.04,228,58.00,8.00,-973.00
2024-06-07 01:32:48.926904,-1,0,-4,0,0,0,78,81,143,100,31,126.03,228,31.00,-6.00,-991.00
2024-06-07 01:32:48.931271,0,0,-4,0,0,0,78,81,142,100,31,126.00,228,-66.00,55.00,-985.00
2024-06-07 01:32:49.129697,0,0,-4,0,0,0,78,81,143,100,31,126.05,228,-9.00,-1.00,-943.00
2024-06-07 01:32:49.130747,0,0,-4,0,0,0,78,81,143,110,31,126.06,228,-41.00,23.00,-922.00
2024-06-07 01:32:49.186262,0,0,-4,0,0,0,78,81,143,100,31,126.05,228,4.00,25.00,-1021.00
2024-06-07 01:32:49.345534,-1,0,-4,0,0,0,78,81,143,100,31,126.07,228,-78.00,51.00,-965.00
2024-06-07 01:32:49.466826,-1,0,-4,0,0,0,78,81,143,100,31,126.07,229,-3.00,-23.00,-1036.00
2024-06-07 01:32:49.492224,-1,0,-4,0,0,0,79,80,142,100,31,126.07,229,-36.00,26.00,-1033.00
2024-06-07 01:32:49.652354,0,0,-4,0,0,0,79,80,142,100,31,126.02,229,2.00,-15.00,-947.00
2024-06-07 01:32:49.698993,0,0,-4,0,0,0,79,80,142,100,31,125.96,229,-48.00,33.00,-1003.00
2024-06-07 01:32:49.810028,0,0,-4,0,0,0,79,80,143,100,31,125.99,229,31.00,-16.00,-1022.00
2024-06-07 01:32:49.978458,-1,0,-4,0,0,0,79,80,142,100,31,125.97,229,39.00,-15.00,-1006.00
2024-06-07 01:32:50.001937,-1,0,-4,0,0,0,79,80,142,100,31,125.88,229,-34.00,-21.00,-1047.00
2024-06-07 01:32:50.132483,-4,0,-4,0,0,0,79,80,140,100,31,125.93,229,-40.00,44.00,-942.00
2024-06-07 01:32:50.285161,-9,0,-4,1,0,0,79,80,142,100,31,125.96,229,48.00,-27.00,-1027.00
2024-06-07 01:32:50.308082,-8,0,-4,2,0,0,79,80,141,100,31,125.94,229,-23.00,12.00,-1099.00
2024-06-07 01:32:50.442538,-8,0,-4,4,0,0,79,80,140,100,31,125.94,230,-49.00,8.00,-1040.00
2024-06-07 01:32:50.582857,-8,0,-4,5,0,0,78,80,142,100,31,126.00,230,-39.00,11.00,-954.00
2024-06-07 01:32:50.726284,-8,0,-4,6,0,0,78,80,141,100,31,125.95,230,3.00,-19.00,-1057.00
2024-06-07 01:32:50.726348,-7,0,-4,6,0,0,78,80,142,100,31,125.95,230,-70.00,34.00,-953.00
2024-06-07 01:32:50.882910,-6,0,-4,7,0,0,78,80,141,100,31,125.90,230,0.00,1.00,-969.00
2024-06-07 01:32:51.026256,-5,0,-4,7,0,0,78,80,142,100,31,125.89,230,-34.00,13.00,-930.00
2024-06-07 01:32:51.026299,-2,0,-4,7,0,0,78,80,142,100,31,125.83,230,-111.00,16.00,-998.00
2024-06-07 01:32:51.187382,0,0,-4,7,0,0,78,80,143,100,31,125.90,230,-68.00,16.00,-1011.00
2024-06-07 01:32:51.330820,2,0,-4,6,0,0,78,80,144,100,31,125.95,230,-20.00,-15.00,-1060.00
2024-06-07 01:32:51.331753,3,0,-4,5,0,0,78,80,144,110,31,125.99,230,-68.00,18.00,-1042.00
2024-06-07 01:32:51.493820,2,0,-4,4,0,0,78,80,143,100,31,125.91,231,-10.00,9.00,-1047.00
2024-06-07 01:32:51.550381,0,0,-4,3,0,0,78,80,144,100,31,125.95,231,-2.00,-1.00,-1003.00
2024-06-07 01:32:51.633901,0,0,-4,3,0,0,78,80,143,100,31,125.96,231,43.00,-45.00,-956.00
2024-06-07 01:32:51.791775,-1,0,-4,3,0,0,78,80,143,100,31,125.97,231,2.00,-46.00,-987.00
2024-06-07 01:32:51.837903,0,0,-4,3,0,0,78,80,145,110,31,125.85,231,92.00,-21.00,-1088.00
2024-06-07 01:32:51.939887,0,0,-4,3,0,0,78,80,144,110,31,125.99,231,-17.00,1.00,-977.00
2024-06-07 01:32:52.101374,0,0,-4,3,0,0,78,80,144,110,31,126.03,231,-13.00,22.00,-1017.00
2024-06-07 01:32:52.146765,0,0,-4,2,0,0,78,80,143,110,31,125.98,231,-11.00,-44.00,-872.00
2024-06-07 01:32:52.245933,0,0,-4,2,0,0,78,80,143,110,31,126.00,231,-66.00,19.00,-1045.00
2024-06-07 01:32:52.406347,0,0,-4,2,0,0,78,80,144,110,31,125.93,231,31.00,-7.00,-934.00
2024-06-07 01:32:52.449796,0,0,-4,1,0,0,78,80,141,110,31,125.97,232,-70.00,16.00,-965.00
2024-06-07 01:32:52.612169,0,0,-4,1,0,0,78,81,141,110,31,125.95,232,-13.00,12.00,-1014.00
2024-06-07 01:32:52.653809,0,0,-4,1,0,0,78,81,142,110,31,125.95,232,54.00,-41.00,-988.00
2024-06-07 01:32:52.814041,2,0,-4,0,0,0,78,81,140,110,31,125.92,232,-68.00,29.00,-982.00
2024-06-07 01:32:52.857803,0,0,-4,0,0,0,78,81,139,100,31,125.88,232,44.00,-28.00,-978.00
2024-06-07 01:32:52.912504,0,-1,-4,0,0,0,78,81,139,100,31,125.88,232,29.00,-7.00,-1000.00
2024-06-07 01:32:53.014063,0,-2,-4,0,0,0,78,81,138,100,31,126.01,232,-5.00,-6.00,-1061.00
2024-06-07 01:32:53.117259,0,2,-4,0,0,0,78,81,138,100,31,125.92,232,-103.00,115.00,-957.00
2024-06-07 01:32:53.215968,0,0,-4,0,0,0,78,81,137,100,31,125.90,232,42.00,1.00,-1026.00
2024-06-07 01:32:53.318035,0,0,-4,0,0,0,78,81,138,100,31,125.91,232,-39.00,41.00,-1063.00
2024-06-07 01:32:53.419952,0,0,-4,0,0,0,78,81,139,100,31,125.94,233,-37.00,47.00,-973.00
2024-06-07 01:32:53.532162,0,0,-4,0,0,0,77,81,139,100,31,125.93,233,54.00,-36.00,-1021.00
2024-06-07 01:32:53.623854,-1,0,-4,0,0,0,77,81,139,100,31,125.90,233,-50.00,-15.00,-942.00
2024-06-07 01:32:53.735568,0,0,-4,0,0,0,77,81,140,100,31,125.92,233,-10.00,16.00,-1072.00
2024-06-07 01:32:53.827982,0,0,-4,0,0,0,77,81,140,100,31,125.97,233,9.00,25.00,-880.00
2024-06-07 01:32:53.929870,0,0,-4,0,0,0,77,81,140,100,31,125.89,233,1.00,2.00,-1070.00
2024-06-07 01:32:54.044516,-1,0,-4,0,0,0,77,81,140,100,31,125.90,233,13.00,4.00,-969.00
2024-06-07 01:32:54.133911,0,0,-4,0,0,0,77,81,141,100,31,125.99,233,-7.00,3.00,-940.00
2024-06-07 01:32:54.250085,0,0,-4,0,0,0,77,81,141,100,31,125.92,233,34.00,31.00,-1075.00
2024-06-07 01:32:54.337718,0,0,-4,0,0,0,77,81,141,100,31,125.98,233,15.00,-8.00,-1018.00
2024-06-07 01:32:54.439772,0,0,-4,0,0,0,77,81,141,100,31,125.97,234,-20.00,-29.00,-1044.00
2024-06-07 01:32:54.554700,0,0,-4,0,0,0,78,80,142,100,31,125.94,234,-14.00,-15.00,-1030.00
2024-06-07 01:32:54.646712,0,0,-4,0,0,0,78,80,142,100,31,125.92,234,9.00,10.00,-925.00
2024-06-07 01:32:54.746200,0,0,-4,0,0,0,78,80,141,100,31,125.99,234,30.00,-20.00,-998.00
2024-06-07 01:32:54.862149,0,0,-4,0,0,0,78,80,141,100,31,125.95,234,21.00,0.00,-986.00
2024-06-07 01:32:54.949914,0,0,-4,0,0,0,78,80,141,100,31,125.90,234,15.00,-20.00,-993.00
2024-06-07 01:32:55.066712,-1,0,-4,0,0,0,78,80,141,100,31,125.96,234,63.00,-24.00,-957.00
2024-06-07 01:32:55.153739,1,0,-4,0,0,0,78,80,141,100,31,125.97,234,-40.00,58.00,-943.00
2024-06-07 01:32:55.273074,7,0,-4,0,0,0,78,80,141,100,31,125.99,234,-37.00,36.00,-1005.00
2024-06-07 01:32:55.357754,8,0,-4,-2,0,0,78,80,143,100,31,126.00,234,133.00,-41.00,-974.00
2024-06-07 01:32:55.459606,8,0,-4,-3,0,0,78,80,141,100,31,125.95,235,-20.00,14.00,-1007.00
2024-06-07 01:32:55.579514,6,0,-4,-5,0,0,78,80,142,100,31,125.94,235,35.00,20.00,-1047.00
2024-06-07 01:32:55.663701,5,0,-4,-6,0,0,78,80,142,100,31,125.93,235,64.00,-22.00,-986.00
2024-06-07 01:32:55.785239,4,0,-4,-6,0,0,78,80,142,100,31,125.96,235,89.00,7.00,-1128.00
2024-06-07 01:32:55.867625,4,0,-4,-6,0,0,78,80,143,100,31,125.92,235,-32.00,49.00,-1027.00
2024-06-07 01:32:55.971066,4,0,-4,-6,0,0,78,80,142,100,31,125.94,235,5.00,20.00,-868.00
2024-06-07 01:32:56.071591,1,0,-4,-6,0,0,78,80,143,100,31,125.98,235,83.00,-2.00,-1097.00
2024-06-07 01:32:56.173565,-1,-1,-4,-6,0,0,78,80,143,100,31,125.89,235,80.00,16.00,-1119.00
2024-06-07 01:32:56.275854,-3,-1,-4,-5,0,0,78,80,143,110,31,125.98,235,48.00,29.00,-980.00
2024-06-07 01:32:56.397673,-3,0,-4,-4,0,0,78,80,143,110,31,126.00,235,55.00,-30.00,-1066.00
2024-06-07 01:32:56.479634,-2,0,-4,-3,0,0,78,80,144,110,31,125.94,236,23.00,-6.00,-1017.00
2024-06-07 01:32:56.602512,0,0,-4,-3,0,0,78,81,144,110,31,125.99,236,25.00,6.00,-936.00
2024-06-07 01:32:56.683533,0,0,-4,-3,0,0,78,81,144,110,31,125.98,236,92.00,-48.00,-1005.00
2024-06-07 01:32:56.808455,0,0,-4,-3,0,0,78,81,144,110,31,125.96,236,-33.00,41.00,-1008.00
2024-06-07 01:32:56.837739,-1,0,-4,-3,0,0,78,81,144,110,31,125.99,236,37.00,8.00,-1037.00
2024-06-07 01:32:57.013887,-1,0,-4,-3,0,0,78,81,144,110,31,125.98,236,62.00,-21.00,-987.00
2024-06-07 01:32:57.040416,-1,0,-4,-2,0,0,78,81,144,110,31,126.01,236,84.00,-16.00,-1023.00
2024-06-07 01:32:57.216873,-1,0,-4,-2,0,0,78,81,144,110,31,126.01,236,16.00,-12.00,-1053.00
2024-06-07 01:32:57.244756,-3,0,-4,-2,0,0,78,81,145,110,31,125.99,236,-21.00,17.00,-977.00
2024-06-07 01:32:57.423524,-5,0,-4,-1,0,0,78,81,145,110,31,126.00,237,8.00,0.00,-1017.00
2024-06-07 01:32:57.448634,-3,0,-4,0,0,0,78,81,145,110,31,125.95,237,-50.00,27.00,-1005.00
2024-06-07 01:32:57.551239,-1,0,-4,0,0,0,78,81,145,110,31,125.96,237,-90.00,65.00,-940.00
2024-06-07 01:32:57.731046,-1,0,-4,0,0,0,78,81,146,110,31,125.99,237,4.00,17.00,-1015.00
2024-06-07 01:32:57.758973,-1,0,-4,0,0,0,78,81,146,110,31,125.96,237,-42.00,12.00,-964.00
2024-06-07 01:32:57.857857,0,0,-4,0,0,0,78,81,145,110,31,126.00,237,-11.00,3.00,-1007.00
2024-06-07 01:32:57.959014,-1,0,-4,0,0,0,78,81,144,110,31,126.03,237,3.00,-16.00,-906.00
2024-06-07 01:32:58.138961,-1,0,-4,0,0,0,78,81,144,110,31,126.07,237,22.00,-3.00,-975.00
2024-06-07 01:32:58.162709,-1,0,-4,0,0,0,78,81,144,110,31,125.96,237,-54.00,31.00,-916.00
2024-06-07 01:32:58.343364,0,0,-4,0,0,0,78,81,144,110,31,126.05,237,12.00,-8.00,-969.00
2024-06-07 01:32:58.366387,0,0,-4,0,0,0,78,81,144,110,31,125.96,238,62.00,-5.00,-1081.00
2024-06-07 01:32:58.548062,0,0,-4,0,0,0,78,81,144,110,31,126.01,238,-8.00,17.00,-1071.00
2024-06-07 01:32:58.570390,0,0,-4,0,0,0,78,81,144,110,31,125.93,238,9.00,-4.00,-985.00
2024-06-07 01:32:58.752978,0,0,-4,0,0,0,78,81,144,110,30,125.95,238,36.00,-6.00,-947.00
2024-06-07 01:32:58.774283,0,0,-4,0,0,0,78,81,143,110,30,126.01,238,19.00,2.00,-990.00
2024-06-07 01:32:58.878046,0,0,-4,0,0,0,78,81,144,110,30,125.98,238,31.00,-16.00,-1054.00
2024-06-07 01:32:58.978703,0,0,-4,0,0,0,78,81,143,110,30,125.92,238,11.00,-24.00,-1095.00
2024-06-07 01:32:59.162478,0,0,-4,0,0,0,78,81,144,110,30,125.97,238,-10.00,5.00,-988.00
2024-06-07 01:32:59.182719,0,0,-4,0,0,0,78,81,143,110,30,125.97,238,-16.00,12.00,-936.00
2024-06-07 01:32:59.369822,0,0,-4,0,0,0,78,81,143,110,30,125.92,238,6.00,0.00,-986.00
2024-06-07 01:32:59.386184,0,0,-4,0,0,0,78,81,142,110,30,125.96,239,1.00,12.00,-1072.00
2024-06-07 01:32:59.509819,0,0,-4,0,0,0,78,81,142,110,30,125.92,239,-61.00,3.00,-944.00
2024-06-07 01:32:59.590274,0,0,-4,0,0,0,78,80,142,110,30,125.95,239,-17.00,29.00,-1002.00
2024-06-07 01:32:59.785032,0,-3,-4,0,0,0,78,80,142,100,30,125.97,239,94.00,-47.00,-1013.00
2024-06-07 01:32:59.794170,-1,-9,-4,0,0,0,78,80,144,100,30,125.95,239,11.00,-12.00,-1077.00
2024-06-07 01:32:59.981528,-1,-8,-4,0,-2,0,78,80,143,100,30,125.93,239,-15.00,38.00,-1002.00
2024-06-07 01:32:59.998198,-1,-5,-4,0,-3,0,78,80,141,100,30,125.99,239,13.00,4.00,-1000.00
2024-06-07 01:33:00.186328,0,-1,-4,0,-4,0,78,80,141,100,30,125.98,239,-93.00,33.00,-948.00
2024-06-07 01:33:00.202621,0,1,-4,0,-3,0,78,80,141,100,30,125.95,239,-59.00,55.00,-1002.00
2024-06-07 01:33:00.393736,0,1,-4,0,-2,0,78,80,142,110,30,125.86,239,14.00,0.00,-1063.00
2024-06-07 01:33:00.406830,0,0,-4,0,-2,0,78,80,142,110,30,125.91,240,69.00,-9.00,-990.00
2024-06-07 01:33:00.508131,0,0,-4,0,-2,0,78,80,141,110,30,125.92,240,90.00,-14.00,-942.00
2024-06-07 01:33:00.700850,0,-1,-4,0,-2,0,79,80,141,110,30,125.93,240,56.00,-2.00,-1048.00
2024-06-07 01:33:00.700902,0,-1,-4,0,-2,0,79,80,141,110,30,125.94,240,37.00,-5.00,-1001.00
2024-06-07 01:33:00.763557,0,0,-4,0,-2,0,79,80,140,110,30,125.93,240,-35.00,55.00,-1000.00
2024-06-07 01:33:00.907830,0,0,-4,0,-2,0,79,80,140,110,30,125.92,240,-58.00,50.00,-970.00
2024-06-07 01:33:00.967105,0,0,-4,0,-2,0,79,80,139,110,30,125.95,240,-32.00,22.00,-1133.00
2024-06-07 01:33:01.109684,0,0,-4,0,-2,0,79,80,139,100,30,125.93,240,-39.00,57.00,-991.00
2024-06-07 01:33:01.171471,0,0,-4,0,-2,0,79,80,138,100,30,125.93,240,-48.00,49.00,-969.00
2024-06-07 01:33:01.314481,0,0,-4,0,-2,0,79,80,138,100,30,125.91,240,-63.00,45.00,-980.00
2024-06-07 01:33:01.375138,0,0,-4,0,-2,0,79,80,139,100,30,126.03,241,-9.00,-7.00,-1033.00
2024-06-07 01:33:01.519243,0,1,-4,0,-2,0,79,80,139,100,30,125.92,241,-46.00,-8.00,-987.00
2024-06-07 01:33:01.579076,0,4,-4,0,-1,0,77,80,138,100,30,126.02,241,-12.00,11.00,-1045.00
2024-06-07 01:33:01.723524,0,3,-4,0,0,0,77,80,139,100,29,125.89,241,-55.00,36.00,-945.00
2024-06-07 01:33:01.783195,0,1,-4,0,0,0,77,80,138,100,29,125.97,241,-16.00,24.00,-1016.00
2024-06-07 01:33:01.928744,0,0,-4,0,0,0,77,80,139,100,29,125.93,241,61.00,-13.00,-1036.00
2024-06-07 01:33:01.988171,0,0,-4,0,0,0,77,80,139,100,29,125.93,241,-63.00,70.00,-919.00
2024-06-07 01:33:02.089104,0,0,-4,0,0,0,77,80,139,100,29,125.94,241,10.00,-12.00,-946.00
2024-06-07 01:33:02.191018,0,0,-4,0,0,0,77,80,140,100,29,125.95,241,2.00,-13.00,-992.00
2024-06-07 01:33:02.339915,-1,0,-4,0,0,0,77,80,141,100,29,125.92,241,-40.00,3.00,-928.00
2024-06-07 01:33:02.395951,0,0,-4,0,0,0,77,80,139,100,29,125.95,242,-2.00,-2.00,-996.00
2024-06-07 01:33:02.541533,0,0,-4,0,0,0,77,80,140,100,29,126.01,242,10.00,-29.00,-983.00
2024-06-07 01:33:02.601393,0,0,-4,0,0,0,78,80,140,100,29,125.96,242,-25.00,13.00,-1063.00
2024-06-07 01:33:02.701014,0,0,-4,0,0,0,78,80,141,100,29,125.88,242,-79.00,26.00,-988.00
2024-06-07 01:33:02.852076,0,0,-4,0,0,0,78,80,141,100,29,125.96,242,-7.00,7.00,-1046.00
2024-06-07 01:33:02.904997,0,0,-4,0,0,0,78,80,140,100,29,125.94,242,-61.00,37.00,-959.00
2024-06-07 01:33:03.055176,0,0,-4,0,0,0,78,80,141,100,29,125.86,242,-37.00,-27.00,-1036.00
2024-06-07 01:33:03.108916,0,0,-4,0,0,0,78,80,141,110,29,125.96,242,-41.00,20.00,-1038.00
2024-06-07 01:33:03.258851,0,0,-4,0,0,0,78,80,141,110,29,125.95,242,-54.00,-2.00,-1041.00
2024-06-07 01:33:03.313175,0,0,-4,0,0,0,78,80,141,110,29,125.92,242,-31.00,1.00,-952.00
2024-06-07 01:33:03.464216,0,0,-4,0,0,0,78,80,141,100,29,125.90,243,-23.00,-34.00,-1023.00
2024-06-07 01:33:03.517743,0,0,-4,0,0,0,78,80,141,100,29,125.88,243,-11.00,46.00,-1010.00
2024-06-07 01:33:03.668432,0,0,-4,0,0,0,77,80,140,100,28,125.90,243,52.00,-28.00,-991.00
2024-06-07 01:33:03.722468,0,0,-4,0,0,0,77,80,140,100,28,125.88,243,-23.00,-13.00,-1002.00
2024-06-07 01:33:03.826001,0,0,-4,0,0,0,77,80,140,100,28,125.94,243,-47.00,0.00,-1068.00
2024-06-07 01:33:03.925169,0,1,-4,0,0,0,77,80,141,100,28,125.90,243,-1.00,3.00,-1094.00
2024-06-07 01:33:04.114662,0,8,-4,0,0,0,77,80,143,100,28,125.88,243,50.00,-3.00,-1110.00
2024-06-07 01:33:04.132039,0,8,-4,0,2,0,77,80,141,100,28,125.88,243,-26.00,22.00,-882.00
2024-06-07 01:33:04.281768,0,4,-4,0,3,0,77,80,141,100,28,125.92,243,-17.00,-3.00,-1007.00
2024-06-07 01:33:04.347433,0,1,-4,0,4,0,77,80,143,100,28,125.98,243,0.00,1.00,-917.00
2024-06-07 01:33:04.468679,0,-1,-4,0,3,0,77,80,142,100,28,126.03,244,-39.00,3.00,-1093.00
2024-06-07 01:33:04.486865,0,-1,-4,0,3,0,77,80,142,110,28,125.95,244,48.00,-18.00,-1070.00
2024-06-07 01:33:04.780155,0,0,-4,0,2,0,79,80,143,110,28,125.90,244,-58.00,23.00,-978.00
2024-06-07 01:33:04.780749,0,0,-4,0,2,0,79,80,142,110,28,125.91,244,20.00,4.00,-1037.00
2024-06-07 01:33:04.791749,0,1,-4,0,2,0,79,80,143,110,28,125.90,244,-38.00,4.00,-963.00
2024-06-07 01:33:04.896866,0,0,-4,0,2,0,79,80,141,110,28,125.96,244,-42.00,-3.00,-960.00
2024-06-07 01:33:05.010045,0,0,-4,0,2,0,79,80,141,110,28,125.95,244,-43.00,0.00,-937.00
2024-06-07 01:33:05.192363,0,0,-4,0,2,0,79,80,140,110,28,125.96,244,-1.00,-40.00,-1051.00
2024-06-07 01:33:05.199709,0,0,-4,0,2,0,79,80,138,100,28,125.90,244,5.00,-19.00,-1010.00
2024-06-07 01:33:05.335503,0,0,-4,0,2,0,79,80,138,100,28,125.91,244,-80.00,44.00,-887.00
2024-06-07 01:33:05.479107,0,0,-4,0,2,0,79,80,137,100,28,125.89,245,-7.00,-1.00,-951.00
2024-06-07 01:33:05.507069,0,0,-4,0,2,0,79,80,136,100,28,125.87,245,-73.00,0.00,-1087.00
2024-06-07 01:33:05.627692,0,0,-4,0,2,0,79,80,136,100,28,125.88,245,28.00,-51.00,-1033.00
2024-06-07 01:33:05.768432,0,0,-4,0,2,0,79,80,136,100,28,125.80,245,-78.00,65.00,-962.00
2024-06-07 01:33:05.813836,0,-5,-4,0,1,0,79,80,136,100,28,125.86,245,-26.00,-27.00,-1096.00
2024-06-07 01:33:05.933032,0,-3,-4,0,0,0,79,80,135,100,28,125.85,245,3.00,2.00,-932.00
2024-06-07 01:33:06.076198,0,-1,-4,0,0,0,79,80,134,100,28,125.82,245,18.00,-6.00,-935.00
2024-06-07 01:33:06.118718,0,0,-4,0,0,0,79,80,134,100,28,125.86,245,-5.00,-5.00,-1039.00
2024-06-07 01:33:06.248650,-1,0,-4,0,0,0,79,80,135,100,28,125.92,245,36.00,-18.00,-976.00
2024-06-07 01:33:06.385558,0,0,-4,0,0,0,79,80,135,100,28,125.83,245,44.00,4.00,-993.00
2024-06-07 01:33:06.424944,0,0,-4,0,0,0,79,80,134,100,28,125.80,246,-16.00,32.00,-1057.00
2024-06-07 01:33:06.578958,0,-1,-4,0,0,0,79,80,135,100,28,125.84,246,-26.00,-6.00,-995.00
2024-06-07 01:33:06.690440,0,-1,-4,0,0,0,77,80,135,100,27,125.85,246,2.00,29.00,-941.00
2024-06-07 01:33:06.730745,0,0,-4,0,0,0,77,80,135,100,27,125.80,246,-33.00,17.00,-1006.00
2024-06-07 01:33:06.853414,0,0,-4,0,0,0,77,80,135,100,27,125.78,246,-109.00,47.00,-1063.00
2024-06-07 01:33:06.937250,0,0,-4,0,0,0,77,80,136,100,27,125.87,246,-49.00,21.00,-881.00
2024-06-07 01:33:07.036837,0,0,-4,0,0,0,77,80,137,100,27,125.90,246,10.00,-14.00,-973.00
2024-06-07 01:33:07.152818,0,0,-4,0,0,0,77,80,138,100,27,125.82,246,95.00,-55.00,-1057.00
2024-06-07 01:33:07.240654,0,0,-4,0,0,0,77,80,137,100,27,125.82,246,2.00,16.00,-962.00
2024-06-07 01:33:07.354688,0,0,-4,0,0,0,77,80,137,100,27,125.92,246,9.00,-9.00,-1025.00
2024-06-07 01:33:07.444712,0,0,-4,0,0,0,77,80,137,100,27,125.92,247,43.00,-16.00,-997.00
2024-06-07 01:33:07.559778,0,0,-4,0,0,0,77,80,138,100,27,125.88,247,73.00,-24.00,-973.00
2024-06-07 01:33:07.648847,0,0,-4,0,0,0,78,80,136,100,27,125.92,247,9.00,1.00,-977.00
2024-06-07 01:33:07.764284,0,0,-4,0,0,0,78,80,137,100,27,125.94,247,-28.00,50.00,-958.00
2024-06-07 01:33:07.852936,0,0,-4,0,0,0,78,80,137,100,27,125.90,247,-51.00,15.00,-1048.00
2024-06-07 01:33:07.954445,0,0,-4,0,0,0,78,80,138,100,27,125.87,247,0.00,-12.00,-998.00
2024-06-07 01:33:08.074233,0,0,-4,0,0,0,78,80,137,100,27,125.84,247,-8.00,16.00,-949.00
2024-06-07 01:33:08.107462,0,0,-2,0,0,0,78,80,138,100,27,125.88,247,24.00,0.00,-998.00
2024-06-07 01:33:08.276652,0,0,3,0,0,0,78,80,138,100,27,125.88,247,91.00,-35.00,-966.00
2024-06-07 01:33:08.311484,0,0,9,0,0,0,78,80,138,100,27,125.90,247,77.00,-22.00,-1003.00
2024-06-07 01:33:08.481616,0,0,15,0,0,0,78,80,139,100,27,125.95,248,-71.00,30.00,-974.00
2024-06-07 01:33:08.515484,0,0,21,0,0,0,78,80,138,100,27,125.86,248,67.00,-16.00,-1055.00
2024-06-07 01:33:08.685133,0,0,27,0,0,0,78,80,138,100,27,125.90,248,-13.00,20.00,-972.00
2024-06-07 01:33:08.721032,0,0,33,0,0,0,78,80,138,100,27,125.92,248,-19.00,8.00,-1115.00
2024-06-07 01:33:08.821798,0,0,39,0,0,0,78,80,138,100,27,125.91,248,8.00,-25.00,-1034.00
2024-06-07 01:33:08.993943,0,0,45,0,0,0,78,80,138,100,27,125.92,248,-70.00,77.00,-875.00
2024-06-07 01:33:09.025751,0,0,51,0,0,0,78,80,138,100,27,125.91,248,-14.00,9.00,-1100.00
2024-06-07 01:33:09.197934,0,0,56,0,0,0,78,80,137,100,27,125.87,248,107.00,-23.00,-1093.00
2024-06-07 01:33:09.229841,0,0,62,0,0,0,78,80,137,100,27,125.82,248,36.00,-11.00,-1089.00
2024-06-07 01:33:09.401803,0,0,68,0,0,0,78,80,137,100,27,125.93,248,25.00,5.00,-949.00
2024-06-07 01:33:09.435430,0,0,74,0,0,0,78,80,138,100,27,125.85,249,11.00,9.00,-1000.00
2024-06-07 01:33:09.536061,0,0,80,0,0,0,78,80,138,100,27,125.85,249,-38.00,17.00,-1052.00
2024-06-07 01:33:09.714296,0,0,86,0,0,0,77,80,139,100,26,125.91,249,-60.00,26.00,-990.00
2024-06-07 01:33:09.739250,0,0,92,0,0,0,77,80,138,100,26,125.91,249,9.00,3.00,-995.00
2024-06-07 01:33:09.915473,0,0,98,0,0,0,77,80,139,100,26,125.91,249,-51.00,10.00,-1034.00
2024-06-07 01:33:09.943365,0,0,104,0,0,0,77,80,140,100,26,125.89,249,15.00,-3.00,-1006.00
2024-06-07 01:33:10.118660,0,0,110,0,0,0,77,80,139,100,26,125.89,249,18.00,-16.00,-999.00
2024-06-07 01:33:10.147437,0,0,116,0,0,0,77,80,140,100,26,125.91,249,-9.00,-11.00,-947.00
2024-06-07 01:33:10.325368,0,0,122,0,0,0,77,80,140,100,26,125.96,249,0.00,35.00,-966.00
2024-06-07 01:33:10.351295,0,0,128,0,0,0,77,80,140,100,26,125.96,249,-31.00,53.00,-1011.00
2024-06-07 01:33:10.453356,0,0,134,0,0,0,77,80,141,100,26,125.86,250,3.00,30.00,-919.00
2024-06-07 01:33:10.555470,0,0,140,0,0,0,77,80,141,100,26,125.87,250,21.00,-8.00,-1011.00
2024-06-07 01:33:10.734445,0,0,147,0,0,0,78,80,141,100,26,125.87,250,-96.00,56.00,-932.00
2024-06-07 01:33:10.761195,0,0,153,0,0,0,78,80,140,100,26,125.94,250,53.00,-20.00,-1119.00
2024-06-07 01:33:10.861723,0,0,159,0,0,0,78,80,140,100,26,125.85,250,-32.00,55.00,-893.00
2024-06-07 01:33:11.040196,0,0,165,0,0,0,78,80,140,100,26,125.90,250,18.00,-7.00,-924.00
2024-06-07 01:33:11.065627,0,0,171,0,0,0,78,80,140,100,26,125.94,250,25.00,8.00,-1060.00
2024-06-07 01:33:11.244988,0,0,177,0,0,0,78,80,140,100,26,125.84,250,-80.00,29.00,-974.00
2024-06-07 01:33:11.269206,0,0,-176,0,0,0,78,80,139,100,26,125.91,250,23.00,-27.00,-985.00
2024-06-07 01:33:11.449774,0,0,-170,0,0,0,78,80,140,100,26,125.88,250,-38.00,6.00,-982.00
2024-06-07 01:33:11.473172,0,0,-164,0,0,0,78,80,139,100,26,125.86,251,45.00,-25.00,-1015.00
2024-06-07 01:33:11.656478,0,0,-157,0,0,0,78,80,139,100,26,125.82,251,26.00,15.00,-1065.00
2024-06-07 01:33:11.677020,0,0,-145,0,0,0,78,80,139,100,26,125.91,251,-14.00,-11.00,-940.00
2024-06-07 01:33:11.779175,0,0,-139,0,0,0,78,80,140,100,26,125.88,251,100.00,-37.00,-993.00
2024-06-07 01:33:11.883250,0,0,-133,0,0,0,78,80,140,100,26,125.92,251,-25.00,-10.00,-1070.00
2024-06-07 01:33:11.984042,0,0,-127,0,0,0,78,80,142,100,26,125.83,251,-45.00,15.00,-964.00
2024-06-07 01:33:12.085498,0,0,-121,0,0,0,78,80,141,100,26,125.83,251,-14.00,-22.00,-1021.00
2024-06-07 01:33:12.270265,0,0,-115,0,0,0,78,80,143,100,26,125.89,251,-2.00,5.00,-991.00
2024-06-07 01:33:12.270320,0,1,-109,0,0,0,78,80,143,100,26,125.98,251,-79.00,34.00,-987.00
2024-06-07 01:33:12.341307,0,0,-103,0,0,0,78,80,143,110,26,125.94,252,-17.00,17.00,-1007.00
2024-06-07 01:33:12.443206,0,0,-97,0,0,0,78,80,145,110,26,125.95,252,99.00,-43.00,-1039.00
2024-06-07 01:33:12.544106,0,0,-91,0,0,0,78,80,144,110,26,125.96,252,-77.00,46.00,-964.00
2024-06-07 01:33:12.685748,0,0,-85,0,0,0,78,80,144,110,25,125.90,252,-6.00,6.00,-1027.00
2024-06-07 01:33:12.749711,0,0,-79,0,0,0,78,80,144,110,25,125.96,252,-37.00,5.00,-958.00
2024-06-07 01:33:12.852465,0,0,-73,0,0,0,78,80,144,110,25,125.97,252,71.00,-43.00,-973.00
2024-06-07 01:33:12.952841,0,0,-67,0,0,0,78,80,144,110,25,125.91,252,35.00,-7.00,-1047.00
2024-06-07 01:33:13.054067,0,0,-61,0,0,0,78,80,145,110,25,125.93,252,15.00,-13.00,-1003.00
2024-06-07 01:33:13.191121,0,0,-54,0,0,0,78,80,143,110,25,125.92,252,-89.00,33.00,-925.00
2024-06-07 01:33:13.257945,0,0,-48,0,0,0,78,80,143,110,25,125.92,252,34.00,-35.00,-990.00
2024-06-07 01:33:13.397639,0,0,-42,0,0,0,78,80,144,110,25,125.92,253,-15.00,21.00,-1069.00
2024-06-07 01:33:13.462047,0,0,-36,0,0,0,78,80,144,110,25,125.95,253,-80.00,47.00,-941.00
2024-06-07 01:33:13.603022,0,0,-30,0,0,0,78,80,143,110,25,125.92,253,-8.00,-16.00,-1063.00
2024-06-07 01:33:13.665941,0,0,-24,0,0,0,77,80,144,110,25,125.98,253,0.00,-9.00,-1031.00
2024-06-07 01:33:13.807860,0,0,-19,0,0,0,77,80,144,110,25,126.02,253,-62.00,52.00,-1029.00
2024-06-07 01:33:13.870211,0,0,-15,0,0,0,77,80,144,110,25,125.92,253,85.00,-45.00,-970.00
2024-06-07 01:33:13.971970,0,0,-12,0,0,0,77,80,145,110,25,125.95,253,0.00,9.00,-927.00
2024-06-07 01:33:14.114734,0,0,-10,0,0,0,77,80,144,110,25,125.98,253,-26.00,25.00,-1055.00
2024-06-07 01:33:14.176016,0,0,-8,0,0,0,77,80,143,110,25,125.96,253,49.00,-7.00,-1101.00
2024-06-07 01:33:14.318753,0,0,-7,0,0,0,77,80,143,110,25,125.94,253,16.00,-41.00,-1036.00
2024-06-07 01:33:14.380063,0,0,-6,0,0,0,77,80,143,110,25,125.97,254,14.00,3.00,-942.00
2024-06-07 01:33:14.483095,0,0,-6,0,0,0,77,80,142,110,25,125.91,254,24.00,-22.00,-986.00
2024-06-07 01:33:14.626646,0,0,-5,0,0,0,77,80,142,110,25,125.91,254,-36.00,23.00,-1041.00
2024-06-07 01:33:14.687810,0,0,-5,0,0,0,78,80,140,100,25,125.95,254,0.00,9.00,-1128.00
2024-06-07 01:33:14.789022,0,0,-5,0,0,0,78,80,139,100,25,125.90,254,-14.00,32.00,-1049.00
2024-06-07 01:33:14.931319,0,0,-5,0,0,0,78,80,137,100,25,125.95,254,7.00,16.00,-920.00
2024-06-07 01:33:14.992992,0,0,-5,0,0,0,78,80,137,100,25,125.92,254,-49.00,66.00,-1020.00
2024-06-07 01:33:15.137522,0,0,-5,0,0,0,78,80,136,100,25,125.94,254,41.00,-13.00,-1072.00
2024-06-07 01:33:15.197087,0,0,-5,0,0,0,78,80,135,100,25,125.92,254,19.00,-34.00,-983.00
2024-06-07 01:33:15.344846,0,0,-5,0,0,0,78,80,135,100,25,125.90,254,-38.00,2.00,-963.00
2024-06-07 01:33:15.401248,0,0,-5,0,0,0,78,80,135,100,25,125.94,255,-56.00,-10.00,-914.00
2024-06-07 01:33:15.503535,0,0,-5,0,0,0,78,80,134,100,25,125.93,255,2.00,-23.00,-1010.00
2024-06-07 01:33:15.649265,0,0,-5,0,0,0,78,80,134,100,25,125.86,255,50.00,-14.00,-1009.00
2024-06-07 01:33:15.711460,0,0,-5,0,0,0,78,80,135,100,25,125.93,255,4.00,41.00,-1061.00
2024-06-07 01:33:15.808955,0,0,-5,0,0,0,78,80,136,100,25,125.96,255,14.00,-4.00,-1029.00
2024-06-07 01:33:15.956976,0,0,-5,0,0,0,78,80,135,100,25,125.90,255,-30.00,49.00,-998.00
2024-06-07 01:33:16.013740,0,0,-5,0,0,0,78,80,136,100,25,125.87,255,-50.00,41.00,-989.00
2024-06-07 01:33:16.063929,0,0,-5,0,0,0,78,80,138,100,25,125.90,255,-50.00,33.00,-944.00
2024-06-07 01:33:16.262483,0,0,-5,0,0,0,78,80,137,100,25,125.92,255,5.00,10.00,-1002.00
2024-06-07 01:33:16.268262,0,0,-5,0,0,0,78,80,138,100,25,125.94,255,48.00,-38.00,-1073.00
2024-06-07 01:33:16.369858,0,0,-5,0,0,0,78,80,138,100,25,125.96,256,-29.00,11.00,-1038.00
2024-06-07 01:33:16.471648,0,0,-5,0,0,0,78,80,138,100,25,125.89,256,27.00,-19.00,-956.00
2024-06-07 01:33:16.673451,0,0,-9,0,0,0,78,80,139,100,25,125.97,256,1.00,-28.00,-1024.00
2024-06-07 01:33:16.675671,0,0,-15,0,0,0,78,80,140,100,24,125.91,256,-77.00,56.00,-996.00
2024-06-07 01:33:16.777622,0,0,-21,0,0,0,78,80,140,100,24,125.97,256,-31.00,19.00,-1047.00
2024-06-07 01:33:16.879734,-1,0,-27,0,0,0,78,80,142,100,24,126.00,256,4.00,1.00,-1042.00
2024-06-07 01:33:16.981824,-1,-1,-33,0,0,0,78,80,141,110,24,125.98,256,-39.00,24.00,-1074.00
2024-06-07 01:33:17.083628,-2,-1,-39,0,0,0,78,80,142,110,24,125.97,256,-55.00,40.00,-967.00
2024-06-07 01:33:17.185561,-1,0,-45,0,0,0,78,80,143,110,24,125.98,256,-33.00,6.00,-906.00
2024-06-07 01:33:17.388593,0,0,-51,0,0,0,78,80,142,110,24,125.92,256,26.00,-41.00,-954.00
2024-06-07 01:33:17.389538,0,0,-58,0,0,0,78,80,142,110,24,125.88,257,-66.00,10.00,-1058.00
2024-06-07 01:33:17.491573,0,0,-64,0,0,0,78,80,141,110,24,125.90,257,-11.00,33.00,-1035.00
2024-06-07 01:33:17.596523,0,0,-70,0,0,0,78,80,141,110,24,125.92,257,-25.00,7.00,-964.00
2024-06-07 01:33:17.695544,0,0,-76,0,0,0,78,79,141,100,24,125.95,257,-2.00,-9.00,-1023.00
2024-06-07 01:33:17.797890,0,0,-82,0,0,0,78,79,141,100,24,125.92,257,-19.00,30.00,-921.00
2024-06-07 01:33:17.902383,0,0,-88,0,0,0,78,79,141,100,24,125.90,257,-87.00,28.00,-984.00
2024-06-07 01:33:18.002647,0,0,-94,0,0,0,78,79,141,100,24,125.96,257,-46.00,12.00,-1082.00
2024-06-07 01:33:18.105432,0,0,-100,0,0,0,78,79,141,100,24,125.91,257,0.00,16.00,-1048.00
2024-06-07 01:33:18.205463,0,0,-106,0,0,0,78,79,142,100,24,125.92,257,56.00,-20.00,-1075.00
2024-06-07 01:33:18.313422,0,0,-111,0,0,0,78,79,141,100,24,125.96,257,-57.00,34.00,-959.00
2024-06-07 01:33:18.409500,0,0,-117,0,0,0,78,79,143,100,24,125.97,258,38.00,-23.00,-983.00
2024-06-07 01:33:18.511431,0,0,-123,0,0,0,78,79,143,110,24,125.94,258,15.00,-10.00,-1035.00
2024-06-07 01:33:18.619745,0,0,-129,0,0,0,78,79,142,110,24,126.00,258,-30.00,-10.00,-974.00
2024-06-07 01:33:18.715678,0,0,-135,0,0,0,77,80,143,110,24,126.00,258,74.00,-28.00,-1081.00
2024-06-07 01:33:18.818133,0,0,-141,0,0,0,77,80,143,110,24,125.94,258,-75.00,44.00,-894.00
2024-06-07 01:33:18.925697,0,0,-147,0,0,0,77,80,144,110,24,125.96,258,0.00,-10.00,-921.00
2024-06-07 01:33:19.022878,0,0,-153,0,0,0,77,80,143,110,24,125.90,258,45.00,-16.00,-1069.00
2024-06-07 01:33:19.285054,1,0,-159,0,0,0,77,80,143,110,24,126.00,258,34.00,-20.00,-1117.00
2024-06-07 01:33:19.285318,1,0,-165,0,0,0,77,80,143,110,24,125.95,258,-1.00,8.00,-1005.00
2024-06-07 01:33:19.327392,0,0,-170,0,0,0,77,80,143,110,24,125.93,258,-2.00,6.00,-1023.00
2024-06-07 01:33:19.429395,0,0,-176,0,0,0,77,80,141,110,24,125.96,259,-21.00,12.00,-911.00
2024-06-07 01:33:19.609778,0,0,177,0,0,0,77,80,140,110,24,126.01,259,-13.00,16.00,-1071.00
2024-06-07 01:33:19.609953,1,0,171,0,0,0,77,80,141,100,23,125.90,259,-61.00,40.00,-974.00
2024-06-07 01:33:19.771236,0,0,165,0,0,0,78,80,140,100,23,125.97,259,48.00,-1.00,-987.00
2024-06-07 01:33:19.837314,1,0,159,0,0,0,78,80,139,100,23,126.00,259,61.00,-37.00,-1088.00
2024-06-07 01:33:19.939404,1,0,153,0,0,0,78,80,139,100,23,125.99,259,-32.00,16.00,-955.00
2024-06-07 01:33:20.098236,1,0,148,0,0,0,78,80,139,100,23,125.93,259,22.00,9.00,-992.00
2024-06-07 01:33:20.143334,1,0,142,0,0,0,78,80,140,100,23,125.90,259,-33.00,17.00,-1002.00
2024-06-07 01:33:20.256002,1,0,136,0,0,0,78,80,141,100,23,125.90,259,-60.00,27.00,-917.00
2024-06-07 01:33:20.368978,0,0,130,0,0,0,78,80,142,100,23,125.84,259,63.00,-40.00,-1081.00
2024-06-07 01:33:20.512340,0,0,124,0,0,0,78,80,142,100,23,125.92,260,-61.00,39.00,-948.00
2024-06-07 01:33:20.512659,0,0,118,0,0,0,78,80,143,100,23,125.89,260,-28.00,6.00,-985.00
2024-06-07 01:33:20.680472,0,0,112,0,0,0,78,80,143,100,23,126.00,260,82.00,-14.00,-978.00
2024-06-07 01:33:20.820802,1,0,106,0,0,0,77,80,144,110,23,125.94,260,11.00,17.00,-1045.00
2024-06-07 01:33:20.820855,1,0,100,0,0,0,77,80,145,110,23,126.05,260,-31.00,15.00,-985.00
2024-06-07 01:33:21.026774,0,-1,94,0,0,0,77,80,145,110,23,125.99,260,23.00,2.00,-959.00
2024-06-07 01:33:21.126651,0,0,88,0,0,0,77,80,146,110,23,126.07,260,-42.00,35.00,-955.00
2024-06-07 01:33:21.126735,0,0,82,0,0,0,77,80,146,110,23,125.97,260,-3.00,19.00,-994.00
2024-06-07 01:33:21.316584,0,0,75,0,0,0,77,80,144,110,23,125.96,260,34.00,-12.00,-999.00
2024-06-07 01:33:21.316650,0,0,69,0,0,0,77,80,145,110,23,126.03,260,-12.00,-2.00,-1082.00
2024-06-07 01:33:21.447589,0,0,63,0,0,0,77,80,145,110,23,126.05,261,-4.00,-5.00,-987.00
2024-06-07 01:33:21.520609,0,0,57,0,0,0,77,80,146,110,23,126.02,261,-2.00,55.00,-1074.00
2024-06-07 01:33:21.689206,0,0,51,0,0,0,77,80,146,110,23,126.04,261,-69.00,5.00,-995.00
2024-06-07 01:33:21.724298,0,0,44,0,0,0,77,80,146,110,23,125.99,261,-62.00,19.00,-961.00
2024-06-07 01:33:21.893993,0,0,38,0,0,0,77,80,144,110,23,125.92,261,31.00,-34.00,-1004.00
2024-06-07 01:33:21.928663,0,0,32,0,0,0,77,80,143,110,23,125.93,261,21.00,0.00,-1061.00
2024-06-07 01:33:22.099124,0,0,26,0,0,0,77,80,143,110,23,126.00,261,-14.00,3.00,-993.00
2024-06-07 01:33:22.132199,0,0,20,0,0,0,77,80,143,110,23,125.98,261,-52.00,47.00,-888.00
2024-06-07 01:33:22.234195,0,0,13,0,0,0,77,80,142,110,23,125.92,261,-37.00,31.00,-1044.00
2024-06-07 01:33:22.336087,0,0,8,0,0,0,77,80,141,110,23,125.91,261,-48.00,3.00,-1033.00
2024-06-07 01:33:22.508359,0,0,5,0,0,0,77,80,141,100,23,125.99,262,-71.00,32.00,-1077.00
2024-06-07 01:33:22.546781,0,0,2,0,0,0,77,80,141,100,23,125.94,262,-29.00,41.00,-1065.00
2024-06-07 01:33:22.642032,0,0,0,0,0,0,77,80,141,100,22,125.93,262,-6.00,-22.00,-973.00
2024-06-07 01:33:22.815861,0,0,-1,0,0,0,77,80,141,100,22,125.96,262,-40.00,50.00,-947.00
2024-06-07 01:33:22.846028,0,0,-3,0,0,0,77,80,142,100,22,125.95,262,-63.00,63.00,-934.00
2024-06-07 01:33:22.948243,0,0,-3,0,0,0,77,80,143,100,22,125.93,262,-16.00,-2.00,-1047.00
2024-06-07 01:33:23.124694,0,0,-4,0,0,0,77,80,142,100,22,125.96,262,-1.00,-4.00,-1012.00
2024-06-07 01:33:23.153945,0,0,-4,0,0,0,77,80,142,110,22,125.92,262,76.00,-33.00,-1020.00
2024-06-07 01:33:23.256203,0,0,-4,0,0,0,77,80,143,110,22,125.97,262,-3.00,-30.00,-1056.00
2024-06-07 01:33:23.356277,0,0,-5,0,0,0,77,80,143,110,22,125.97,262,-76.00,37.00,-990.00
2024-06-07 01:33:23.407117,0,0,-5,0,0,0,77,80,143,110,22,125.91,263,88.00,-34.00,-1009.00
2024-06-07 01:33:23.509874,0,0,-5,0,0,0,77,80,143,110,22,125.92,263,-31.00,20.00,-1016.00
2024-06-07 01:33:23.611467,0,0,-5,0,0,0,77,80,143,110,22,125.93,263,-38.00,56.00,-831.00
2024-06-07 01:33:23.764750,0,0,-5,0,0,0,77,80,141,110,22,125.93,263,77.00,-34.00,-1031.00
2024-06-07 01:33:23.942098,0,0,-5,0,0,0,77,80,140,110,22,125.82,263,-40.00,23.00,-973.00
2024-06-07 01:33:23.973213,0,0,-5,0,0,0,77,80,141,110,22,125.91,263,-16.00,36.00,-976.00
2024-06-07 01:33:24.072475,0,0,-5,0,0,0,77,80,140,100,22,125.88,263,-34.00,53.00,-809.00
2024-06-07 01:33:24.122140,0,0,-5,0,0,0,77,80,139,100,22,125.91,263,-82.00,55.00,-972.00
2024-06-07 01:33:24.252793,0,0,-5,0,0,0,77,80,140,100,22,125.88,263,26.00,-2.00,-964.00
2024-06-07 01:33:24.325174,0,0,-5,0,0,0,77,80,138,100,22,125.94,263,24.00,-29.00,-1133.00
2024-06-07 01:33:24.455672,0,0,-5,0,0,0,77,80,139,100,22,125.93,264,31.00,23.00,-948.00
2024-06-07 01:33:24.532803,0,0,-5,0,0,0,77,80,139,100,22,125.94,264,-21.00,40.00,-1076.00
2024-06-07 01:33:24.631222,0,0,-5,0,0,0,77,80,139,100,22,125.97,264,-46.00,5.00,-1041.00
2024-06-07 01:33:24.763234,0,0,-5,0,0,0,78,80,140,100,22,125.95,264,6.00,-14.00,-983.00
2024-06-07 01:33:24.835157,0,0,-5,0,0,0,78,80,140,100,22,125.94,264,-14.00,21.00,-946.00
2024-06-07 01:33:24.937307,0,0,-5,0,0,0,78,80,140,100,22,125.97,264,-47.00,12.00,-993.00
2024-06-07 01:33:25.068324,0,0,-5,0,0,0,78,80,141,100,22,125.98,264,31.00,-3.00,-965.00
2024-06-07 01:33:25.141067,0,0,-5,0,0,0,78,80,140,100,22,125.94,264,26.00,-9.00,-981.00
2024-06-07 01:33:25.273186,0,0,-5,0,0,0,78,80,141,100,22,126.02,264,-26.00,34.00,-1002.00
2024-06-07 01:33:25.348877,1,0,-5,0,0,0,78,80,142,100,22,125.95,264,-64.00,35.00,-888.00
2024-06-07 01:33:25.446990,0,0,-5,0,0,0,78,80,142,100,22,125.95,265,2.00,13.00,-993.00
2024-06-07 01:33:25.549295,0,-1,-5,0,0,0,78,80,142,110,22,125.96,265,-1.00,14.00,-969.00
2024-06-07 01:33:25.683237,0,-1,-5,0,0,0,78,80,142,110,22,125.96,265,40.00,-32.00,-919.00
2024-06-07 01:33:25.753092,0,0,-5,0,0,0,78,79,141,110,22,125.94,265,25.00,0.00,-1108.00
2024-06-07 01:33:25.855034,0,0,-5,0,0,0,78,79,141,110,22,126.01,265,-11.00,0.00,-962.00
2024-06-07 01:33:25.956993,0,0,-5,0,0,0,78,79,141,100,22,125.93,265,41.00,-18.00,-1053.00
2024-06-07 01:33:26.092381,0,0,-5,0,0,0,78,79,141,100,22,125.99,265,-9.00,34.00,-1057.00
2024-06-07 01:33:26.160948,0,0,-5,0,0,0,78,79,140,100,22,125.92,265,-13.00,5.00,-1068.00
2024-06-07 01:33:26.298774,0,-1,-5,0,0,0,78,79,140,100,22,125.99,265,45.00,0.00,-971.00
2024-06-07 01:33:26.364973,0,0,-5,0,0,0,78,79,140,100,22,125.98,266,-19.00,18.00,-990.00
2024-06-07 01:33:26.501937,0,0,-5,0,0,0,78,79,139,100,22,125.96,266,35.00,-3.00,-1053.00
2024-06-07 01:33:26.568985,0,0,-5,0,0,0,78,79,140,100,22,125.97,266,54.00,-11.00,-1073.00
2024-06-07 01:33:26.707711,0,0,-5,0,0,0,78,79,139,100,22,125.97,266,50.00,-16.00,-1031.00
2024-06-07 01:33:26.772907,0,0,-5,0,0,0,78,80,139,100,22,125.96,266,-8.00,19.00,-1012.00
2024-06-07 01:33:26.917140,1,0,-5,0,0,0,78,80,139,100,22,126.03,266,23.00,-32.00,-1057.00
2024-06-07 01:33:26.976910,1,0,-5,0,0,0,78,80,138,100,22,125.97,266,95.00,-31.00,-1085.00
2024-06-07 01:33:27.118382,0,0,-4,0,0,0,78,80,138,100,22,125.96,266,54.00,-6.00,-1022.00
2024-06-07 01:33:27.181125,0,0,-4,0,0,0,78,80,138,100,22,125.97,266,21.00,8.00,-961.00
2024-06-07 01:33:27.321201,0,0,-5,0,0,0,78,80,137,100,22,125.94,266,18.00,-6.00,-1053.00
2024-06-07 01:33:27.384857,0,0,-5,0,0,0,78,80,137,100,22,125.93,267,-55.00,61.00,-998.00
2024-06-07 01:33:27.486919,0,0,-5,0,0,0,78,80,138,100,22,125.93,267,-32.00,25.00,-976.00
2024-06-07 01:33:27.588984,0,0,-5,0,0,0,78,80,139,100,22,125.92,267,42.00,4.00,-975.00
2024-06-07 01:33:27.640304,0,0,-5,0,0,0,78,80,139,100,22,125.95,267,21.00,39.00,-1032.00
2024-06-07 01:33:27.836418,0,0,-5,0,0,0,77,79,140,100,22,126.00,267,-38.00,26.00,-990.00
2024-06-07 01:33:27.896145,0,0,-5,0,0,0,77,79,141,100,22,125.92,267,-58.00,13.00,-926.00
2024-06-07 01:33:27.998520,0,0,-5,0,0,0,77,79,141,100,22,126.03,267,49.00,-23.00,-982.00
2024-06-07 01:33:28.101186,0,0,-5,0,0,0,77,79,142,110,22,126.04,267,40.00,-30.00,-978.00
2024-06-07 01:33:28.201487,0,0,-5,0,0,0,77,79,143,110,22,125.98,267,10.00,24.00,-962.00
2024-06-07 01:33:28.302992,0,0,-5,0,0,0,77,79,143,110,22,125.99,267,5.00,-4.00,-934.00
2024-06-07 01:33:28.447469,0,0,-5,0,0,0,77,79,143,110,22,126.03,268,-18.00,15.00,-985.00
2024-06-07 01:33:28.456744,1,0,-4,0,0,0,77,79,143,110,22,125.96,268,-46.00,28.00,-958.00
2024-06-07 01:33:28.560101,0,0,-5,0,0,0,77,79,143,110,22,125.98,268,14.00,-7.00,-933.00
2024-06-07 01:33:28.659800,0,0,-4,0,0,0,77,79,141,110,22,126.03,268,10.00,1.00,-957.00
2024-06-07 01:33:28.859057,0,0,-4,0,0,0,78,80,142,110,22,125.97,268,-23.00,-9.00,-988.00
2024-06-07 01:33:28.864585,0,0,-5,0,0,0,78,80,141,100,22,126.01,268,1.00,-15.00,-959.00
2024-06-07 01:33:29.064952,0,0,-5,0,0,0,78,80,141,100,22,125.96,268,-27.00,21.00,-1009.00
2024-06-07 01:33:29.067906,0,0,-5,0,0,0,78,80,142,100,22,126.00,268,24.00,-13.00,-1041.00
2024-06-07 01:33:29.268245,0,0,-5,0,0,0,78,80,142,100,22,125.94,268,-66.00,49.00,-1007.00
2024-06-07 01:33:29.271979,0,0,-5,0,0,0,78,80,142,100,22,125.93,268,-43.00,40.00,-1000.00
2024-06-07 01:33:29.471997,0,0,-5,0,0,0,78,80,144,100,22,126.00,269,-30.00,53.00,-1042.00
2024-06-07 01:33:29.475592,0,0,-5,0,0,0,78,80,145,110,22,126.04,269,-43.00,1.00,-1006.00
2024-06-07 01:33:29.577864,0,0,-5,0,0,0,78,80,147,110,22,126.03,269,-21.00,31.00,-1052.00
2024-06-07 01:33:29.679923,0,0,-5,0,0,-1,78,80,148,110,22,126.06,269,-6.00,-23.00,-961.00
2024-06-07 01:33:29.782058,0,0,-5,0,0,0,78,80,149,110,22,126.09,269,-25.00,-19.00,-938.00
2024-06-07 01:33:29.983473,0,0,-5,0,0,0,78,80,149,110,22,126.02,269,54.00,-37.00,-913.00
2024-06-07 01:33:29.985860,0,0,-5,0,0,0,78,80,149,110,22,126.00,269,-28.00,-6.00,-926.00
2024-06-07 01:33:30.087654,0,0,-5,0,0,0,78,80,149,110,22,125.99,269,-31.00,44.00,-990.00
2024-06-07 01:33:30.293168,0,-1,-5,0,0,0,78,80,150,110,22,126.02,269,23.00,-39.00,-940.00
2024-06-07 01:33:30.293353,0,0,-5,0,0,0,78,80,149,110,22,126.01,269,-63.00,16.00,-984.00
2024-06-07 01:33:30.393571,0,0,-5,0,0,0,78,80,148,110,22,125.98,270,-70.00,41.00,-958.00
2024-06-07 01:33:30.495799,0,0,-5,0,0,0,78,80,148,110,22,125.96,270,62.00,-15.00,-1053.00
2024-06-07 01:33:30.597808,0,0,-5,0,0,0,78,80,146,110,22,125.97,270,-13.00,-2.00,-1047.00
2024-06-07 01:33:30.699603,0,0,-5,0,0,0,78,80,144,110,22,126.02,270,-22.00,11.00,-961.00
2024-06-07 01:33:30.802714,0,0,-5,0,0,1,77,79,143,110,22,126.02,270,-59.00,34.00,-932.00
2024-06-07 01:33:30.904894,0,0,-5,0,0,0,77,79,142,110,22,125.97,270,57.00,-42.00,-1005.00
2024-06-07 01:33:31.005569,0,0,-5,0,0,0,77,79,141,100,22,126.03,270,50.00,-40.00,-978.00
2024-06-07 01:33:31.112053,0,0,-5,0,0,0,77,79,140,100,22,125.95,270,55.00,-33.00,-1055.00
2024-06-07 01:33:31.209545,0,0,-5,0,0,0,77,79,139,100,22,125.87,270,28.00,-8.00,-1079.00
2024-06-07 01:33:31.314988,0,0,-5,0,0,0,77,79,139,100,22,125.89,270,16.00,-17.00,-1027.00
2024-06-07 01:33:31.413625,0,0,-5,0,0,0,77,79,137,100,22,125.93,271,37.00,-18.00,-992.00
2024-06-07 01:33:31.467109,0,0,-5,0,0,0,77,79,137,100,22,125.97,271,-30.00,19.00,-1090.00
2024-06-07 01:33:31.566612,0,0,-5,0,0,0,77,79,137,100,22,125.88,271,30.00,-26.00,-1042.00
2024-06-07 01:33:31.725791,0,0,-5,0,0,0,77,79,136,100,21,125.94,271,-23.00,41.00,-1054.00
2024-06-07 01:33:31.770450,-1,0,-5,0,0,0,77,80,135,100,21,125.90,271,-40.00,29.00,-1001.00
2024-06-07 01:33:31.929026,0,0,-5,0,0,0,77,80,136,100,21,125.87,271,-7.00,34.00,-1067.00
2024-06-07 01:33:32.026947,0,0,-5,0,0,0,77,80,136,100,21,125.87,271,-15.00,18.00,-1095.00
2024-06-07 01:33:32.076458,1,0,-5,0,0,0,77,80,138,100,21,125.89,271,29.00,15.00,-981.00
2024-06-07 01:33:32.238115,0,0,-5,0,0,0,77,80,138,100,21,125.85,271,2.00,6.00,-967.00
2024-06-07 01:33:32.280332,0,0,-5,0,0,0,77,80,139,100,21,125.95,271,89.00,-52.00,-1065.00
2024-06-07 01:33:32.382342,0,0,-5,0,0,0,77,80,139,100,21,125.91,272,-32.00,34.00,-932.00
2024-06-07 01:33:32.484663,0,0,-5,0,0,0,77,80,140,100,21,125.93,272,-46.00,-12.00,-1011.00
2024-06-07 01:33:32.586306,0,0,-5,0,0,0,77,80,141,100,21,125.92,272,29.00,1.00,-911.00
2024-06-07 01:33:32.688428,0,0,-5,0,0,0,77,80,141,100,21,125.96,272,65.00,-57.00,-960.00
2024-06-07 01:33:32.793133,0,0,-5,0,0,0,77,79,140,100,21,125.91,272,59.00,-36.00,-1013.00
2024-06-07 01:33:32.892279,0,0,-5,0,0,0,77,79,140,100,21,125.85,272,-31.00,22.00,-971.00
2024-06-07 01:33:33.055236,0,0,-5,0,0,0,77,79,141,100,21,125.92,272,9.00,-15.00,-989.00
2024-06-07 01:33:33.096205,0,0,-5,0,0,0,77,79,139,100,21,125.96,272,55.00,-50.00,-1004.00
2024-06-07 01:33:33.262217,-1,0,-5,0,0,0,77,79,140,100,21,125.94,272,43.00,-39.00,-1044.00
2024-06-07 01:33:33.300265,-1,0,-5,0,0,0,77,79,140,100,21,125.94,272,0.00,-14.00,-965.00
2024-06-07 01:33:33.468096,-1,0,-5,0,0,0,77,79,140,100,21,125.90,273,9.00,-26.00,-1044.00
2024-06-07 01:33:33.504517,0,0,-5,0,0,0,77,79,140,100,21,125.87,273,-86.00,55.00,-920.00
2024-06-07 01:33:33.671284,0,0,-5,0,0,0,77,79,140,100,21,125.93,273,-40.00,-11.00,-938.00
2024-06-07 01:33:33.708853,0,0,-5,0,0,0,77,79,141,100,21,125.89,273,38.00,-52.00,-1069.00
2024-06-07 01:33:33.874396,-1,0,-5,0,0,0,77,80,142,100,21,125.90,273,-23.00,12.00,-1001.00
2024-06-07 01:33:33.913114,0,0,-5,0,0,0,77,80,142,110,21,125.96,273,-1.00,-25.00,-1000.00
2024-06-07 01:33:34.015321,0,0,-5,0,0,0,77,80,143,110,21,125.92,273,-1.00,3.00,-950.00
2024-06-07 01:33:34.195640,0,0,-5,0,0,0,77,80,143,110,21,125.93,273,-18.00,-3.00,-944.00
2024-06-07 01:33:34.219280,0,0,-5,0,0,0,77,80,144,110,21,125.86,273,-21.00,15.00,-1091.00
2024-06-07 01:33:34.476885,0,0,-5,0,0,0,77,80,144,110,21,125.96,273,-3.00,-11.00,-935.00
2024-06-07 01:33:34.477044,0,0,-5,0,0,0,77,80,144,110,21,125.93,274,-33.00,27.00,-995.00
2024-06-07 01:33:34.536743,0,0,-5,0,0,0,77,80,144,110,21,125.94,274,35.00,-11.00,-986.00
