TS,pitch,roll,yaw,vgx,vgy,vgz,templ,temph,tof,h,bat,baro,time,agx,agy,agz
2024-06-07 01:34:52.449494,0,0,56,0,0,0,75,78,10,0,100,124.67,0,-5.00,0.00,-1003.00
2024-06-07 01:34:52.551231,0,0,56,0,0,0,75,78,10,0,100,124.66,0,-4.00,0.00,-1000.00
2024-06-07 01:34:52.653063,0,0,56,0,0,0,75,78,10,0,100,124.66,0,-4.00,0.00,-998.00
2024-06-07 01:34:52.754753,0,0,56,0,0,0,75,78,10,0,100,124.64,0,-4.00,0.00,-1001.00
2024-06-07 01:34:52.930430,0,0,56,0,0,0,75,78,10,0,100,124.64,0,-5.00,0.00,-998.00
2024-06-07 01:34:52.958777,0,0,57,0,0,0,75,78,10,0,100,124.63,0,-3.00,0.00,-998.00
2024-06-07 01:34:53.061034,0,0,57,0,0,0,75,78,10,0,100,124.63,0,-3.00,1.00,-999.00
2024-06-07 01:34:53.168475,0,0,57,0,0,0,76,78,10,0,100,124.62,0,-4.00,1.00,-998.00
2024-06-07 01:34:53.265262,0,0,57,0,0,0,76,78,10,0,100,124.59,0,-3.00,0.00,-999.00
2024-06-07 01:34:53.367692,0,0,57,0,0,0,76,78,10,0,99,124.63,0,-5.00,0.00,-1001.00
2024-06-07 01:34:53.470269,0,0,57,0,0,0,76,78,10,0,99,124.57,0,-5.00,0.00,-1001.00
2024-06-07 01:34:53.577684,0,0,57,0,0,0,76,78,10,0,99,124.65,0,-3.00,0.00,-1000.00
2024-06-07 01:34:53.672831,0,0,57,0,0,0,76,78,10,0,99,124.71,0,-3.00,1.00,-1001.00
2024-06-07 01:34:53.777594,0,0,57,0,0,0,76,78,10,0,99,124.63,0,-4.00,1.00,-999.00
2024-06-07 01:34:53.876765,0,0,57,0,0,0,76,78,10,0,99,124.61,0,-5.00,0.00,-1000.00
2024-06-07 01:34:53.982277,0,0,57,0,0,0,76,78,10,0,99,124.64,0,-4.00,1.00,-997.00
2024-06-07 01:34:54.080880,0,0,57,0,0,0,76,78,10,0,99,124.60,0,-5.00,1.00,-1000.00
2024-06-07 01:34:54.187166,0,0,57,0,0,0,77,78,10,0,99,124.68,0,-4.00,0.00,-1001.00
2024-06-07 01:34:54.285094,0,0,57,0,0,0,77,78,10,0,99,124.61,0,-5.00,1.00,-998.00
2024-06-07 01:34:54.391916,0,0,57,0,0,0,77,78,10,0,99,124.64,0,-3.00,0.00,-1002.00
2024-06-07 01:34:54.488671,0,0,57,0,0,0,77,78,10,0,99,124.62,0,-5.00,1.00,-1001.00
2024-06-07 01:34:54.539469,0,0,57,0,0,0,77,78,10,0,99,124.63,0,-4.00,2.00,-997.00
2024-06-07 01:34:54.700401,0,0,57,0,0,0,77,78,10,0,99,124.61,0,-4.00,0.00,-1001.00
2024-06-07 01:34:54.743545,0,0,57,0,0,0,77,78,10,0,99,124.61,0,-5.00,1.00,-1002.00
2024-06-07 01:34:54.905164,0,0,57,0,0,0,77,78,10,0,99,124.64,0,-2.00,0.00,-1000.00
2024-06-07 01:34:54.947607,0,0,57,0,0,0,77,78,10,0,99,124.57,0,-5.00,0.00,-999.00
2024-06-07 01:34:55.053509,0,0,57,0,0,0,77,78,10,0,99,124.58,0,-4.00,0.00,-1002.00
2024-06-07 01:34:55.151399,0,0,57,0,0,0,76,78,10,0,99,124.61,0,-5.00,0.00,-999.00
2024-06-07 01:34:55.313324,0,0,57,0,0,0,76,78,10,0,99,124.61,0,6.00,-10.00,-996.00
2024-06-07 01:34:55.355309,0,0,57,0,0,0,76,78,10,0,98,124.61,0,-16.00,13.00,-1000.00
2024-06-07 01:34:55.518003,0,0,58,0,0,0,76,78,10,0,98,124.61,0,-67.00,-30.00,-990.00
2024-06-07 01:34:55.559411,0,0,60,0,0,0,76,78,10,0,98,124.61,0,-33.00,4.00,-911.00
2024-06-07 01:34:55.724733,0,0,60,0,0,0,76,78,10,0,98,124.61,0,-36.00,19.00,-1035.00
2024-06-07 01:34:55.763898,0,-1,60,0,0,0,76,78,10,0,98,124.61,0,-15.00,29.00,-1228.00
2024-06-07 01:34:55.927714,0,0,60,0,0,-2,76,78,10,0,98,124.61,0,70.00,-61.00,-1338.00
2024-06-07 01:34:55.967190,0,0,60,0,0,-5,76,78,18,0,98,124.68,0,-1.00,19.00,-1210.00
2024-06-07 01:34:56.069274,0,0,60,0,0,-7,76,78,27,0,98,124.99,0,-22.00,-6.00,-1047.00
2024-06-07 01:34:56.234946,0,0,60,0,0,-8,76,78,33,10,98,125.04,0,-9.00,9.00,-1031.00
2024-06-07 01:34:56.273322,0,0,60,0,0,-8,76,78,41,20,98,125.12,1,-31.00,38.00,-876.00
2024-06-07 01:34:56.375642,0,0,60,0,0,-7,76,78,50,30,98,125.17,1,-47.00,27.00,-816.00
2024-06-07 01:34:56.477180,0,0,60,0,0,-7,76,78,57,30,98,125.29,1,14.00,-31.00,-953.00
2024-06-07 01:34:56.579190,0,0,60,0,0,-5,76,78,64,40,98,125.39,1,5.00,2.00,-900.00
2024-06-07 01:34:56.681297,0,0,60,0,0,-4,76,78,70,50,98,125.39,1,-15.00,44.00,-946.00
2024-06-07 01:34:56.849292,0,0,60,0,0,-3,76,78,74,50,98,125.43,1,-18.00,4.00,-912.00
2024-06-07 01:34:56.885129,0,0,60,0,0,-2,76,78,76,50,98,125.47,1,20.00,-13.00,-833.00
2024-06-07 01:34:56.988088,0,0,60,0,0,-1,76,78,78,50,98,125.55,1,16.00,-37.00,-903.00
2024-06-07 01:34:57.038704,0,0,60,0,0,0,76,78,80,60,98,125.62,1,61.00,-21.00,-915.00
2024-06-07 01:34:57.156497,0,0,60,0,0,0,76,79,80,60,98,125.61,1,17.00,-16.00,-991.00
2024-06-07 01:34:57.242748,0,0,60,0,0,0,76,79,81,60,98,125.64,2,11.00,7.00,-1053.00
2024-06-07 01:34:57.361453,0,0,60,0,0,0,76,79,82,60,97,125.66,2,-43.00,13.00,-931.00
2024-06-07 01:34:57.446334,0,0,60,0,0,0,76,79,82,60,97,125.63,2,102.00,-43.00,-976.00
2024-06-07 01:34:57.570303,0,0,60,0,0,0,76,79,84,60,97,125.71,2,40.00,-44.00,-964.00
2024-06-07 01:34:57.656002,0,0,60,0,0,0,76,79,85,60,97,125.68,2,34.00,0.00,-949.00
2024-06-07 01:34:57.752343,0,0,60,0,0,0,76,79,86,60,97,125.71,2,6.00,-9.00,-977.00
2024-06-07 01:34:57.873212,0,0,60,0,0,0,76,79,87,60,97,125.66,2,-9.00,28.00,-982.00
2024-06-07 01:34:57.956395,0,0,60,0,0,0,76,79,88,60,97,125.76,2,-4.00,2.00,-973.00
2024-06-07 01:34:58.058291,0,0,60,0,0,0,76,79,89,60,97,125.77,2,-74.00,23.00,-1002.00
2024-06-07 01:34:58.180707,0,0,60,0,0,0,76,78,89,60,97,125.68,2,62.00,-23.00,-1078.00
2024-06-07 01:34:58.262288,0,0,60,0,0,0,76,78,89,70,97,125.66,3,-35.00,27.00,-917.00
2024-06-07 01:34:58.385217,0,0,60,0,0,0,76,78,89,70,97,125.74,3,-23.00,12.00,-1037.00
2024-06-07 01:34:58.466385,0,0,60,0,0,0,76,78,89,70,97,125.66,3,68.00,-6.00,-936.00
2024-06-07 01:34:58.589870,0,0,60,0,0,0,76,78,88,70,97,125.76,3,10.00,-39.00,-936.00
2024-06-07 01:34:58.670455,0,0,60,0,0,0,76,78,87,70,97,125.69,3,4.00,4.00,-1023.00
2024-06-07 01:34:58.794719,0,0,60,0,0,0,76,78,86,70,97,125.66,3,-47.00,24.00,-951.00
2024-06-07 01:34:58.874402,0,0,60,0,0,0,76,78,85,70,97,125.75,3,31.00,-24.00,-949.00
2024-06-07 01:34:59.000253,0,0,60,0,0,0,76,78,84,60,97,125.66,3,1.00,-6.00,-1002.00
2024-06-07 01:34:59.078087,0,0,60,0,0,0,76,78,83,60,97,125.75,3,-47.00,37.00,-1052.00
2024-06-07 01:34:59.205928,0,0,60,0,0,0,77,79,82,60,97,125.66,3,27.00,-26.00,-875.00
2024-06-07 01:34:59.282371,0,0,60,0,0,0,77,79,80,60,97,125.67,4,78.00,-27.00,-981.00
2024-06-07 01:34:59.410507,0,0,60,0,0,0,77,79,78,60,96,125.62,4,108.00,-14.00,-968.00
2024-06-07 01:34:59.486250,0,0,60,0,0,0,77,79,77,60,96,125.57,4,-51.00,31.00,-994.00
2024-06-07 01:34:59.620004,0,0,60,0,0,0,77,79,75,60,96,125.58,4,-32.00,24.00,-976.00
2024-06-07 01:34:59.638823,0,0,60,0,0,0,77,79,74,60,96,125.56,4,49.00,-38.00,-993.00
2024-06-07 01:34:59.818675,0,0,60,0,0,0,77,79,73,60,96,125.52,4,0.00,-17.00,-1220.00
2024-06-07 01:34:59.843783,0,0,60,0,0,0,77,79,72,60,96,125.60,4,2.00,-36.00,-930.00
2024-06-07 01:35:00.024135,0,0,60,0,0,0,77,79,71,60,96,125.60,4,-8.00,-7.00,-900.00
2024-06-07 01:35:00.047107,0,0,60,0,0,0,77,79,70,60,96,125.58,4,26.00,-12.00,-978.00
2024-06-07 01:35:00.228330,-1,0,60,0,0,0,76,79,69,50,96,125.55,4,55.00,-19.00,-1067.00
2024-06-07 01:35:00.250776,-1,0,60,0,0,0,76,79,69,50,96,125.58,5,6.00,1.00,-1016.00
2024-06-07 01:35:00.433125,-1,0,60,0,0,0,76,79,68,50,96,125.54,5,-10.00,18.00,-1083.00
2024-06-07 01:35:00.454796,0,0,60,0,0,0,76,79,68,50,96,125.55,5,-60.00,78.00,-949.00
2024-06-07 01:35:00.557680,0,0,60,0,0,0,76,79,67,50,96,125.53,5,-12.00,12.00,-957.00
2024-06-07 01:35:00.740773,0,0,60,0,0,0,76,79,67,50,96,125.58,5,-98.00,52.00,-919.00
2024-06-07 01:35:00.760842,0,0,60,0,0,0,76,79,67,50,96,125.58,5,-79.00,55.00,-1072.00
2024-06-07 01:35:00.946510,0,0,60,0,0,0,76,79,68,50,96,125.56,5,54.00,-3.00,-977.00
2024-06-07 01:35:00.964704,0,0,60,0,0,0,76,79,68,50,96,125.59,5,-3.00,12.00,-978.00
2024-06-07 01:35:01.066854,0,0,60,0,0,0,76,79,69,50,96,125.57,5,-18.00,-5.00,-1031.00
2024-06-07 01:35:01.169522,0,0,60,0,0,0,76,78,69,50,96,125.55,5,-50.00,20.00,-1033.00
2024-06-07 01:35:01.354673,0,0,60,0,0,0,76,78,70,50,96,125.63,6,-25.00,16.00,-1038.00
2024-06-07 01:35:01.372649,-1,0,60,0,0,0,76,78,71,50,95,125.55,6,106.00,-23.00,-965.00
2024-06-07 01:35:01.560016,0,0,60,0,0,0,76,78,72,50,95,125.53,6,-21.00,21.00,-967.00
2024-06-07 01:35:01.576746,0,0,60,0,0,0,76,78,73,50,95,125.53,6,-52.00,51.00,-916.00
2024-06-07 01:35:01.764203,0,0,60,0,0,0,76,78,74,50,95,125.62,6,-23.00,32.00,-1047.00
2024-06-07 01:35:01.780848,0,0,60,0,0,0,76,78,75,50,95,125.60,6,-103.00,21.00,-1124.00
2024-06-07 01:35:01.969335,0,0,60,0,0,-1,76,78,76,60,95,125.61,6,-8.00,-6.00,-909.00
2024-06-07 01:35:01.984765,0,0,60,0,0,-1,76,78,78,60,95,125.58,6,15.00,-15.00,-1093.00
2024-06-07 01:35:02.086890,-1,0,60,0,0,0,76,78,79,60,95,125.68,6,56.00,-41.00,-1128.00
2024-06-07 01:35:02.283626,-1,0,60,0,0,0,75,78,80,60,95,125.56,6,12.00,-12.00,-974.00
2024-06-07 01:35:02.290678,0,0,60,0,0,0,75,78,81,60,95,125.63,7,47.00,-14.00,-968.00
2024-06-07 01:35:02.392709,0,0,60,0,0,0,75,78,83,60,95,125.67,7,-6.00,-4.00,-1123.00
2024-06-07 01:35:02.494622,0,0,60,0,0,0,75,78,83,60,95,125.68,7,35.00,-21.00,-938.00
2024-06-07 01:35:02.629891,0,0,60,0,0,0,75,78,83,60,95,125.65,7,72.00,-20.00,-943.00
2024-06-07 01:35:02.698660,0,0,60,0,0,0,75,78,84,60,95,125.65,7,29.00,-12.00,-1059.00
2024-06-07 01:35:02.890586,0,0,60,0,0,0,75,78,84,60,95,125.65,7,22.00,-8.00,-1017.00
2024-06-07 01:35:02.902551,0,0,60,0,0,0,75,78,84,60,95,125.71,7,-3.00,19.00,-1064.00
2024-06-07 01:35:03.100633,0,0,60,0,0,0,75,78,84,60,95,125.79,7,-28.00,-2.00,-975.00
2024-06-07 01:35:03.106622,-1,0,60,0,0,0,75,78,85,60,95,125.76,7,38.00,4.00,-939.00
2024-06-07 01:35:03.208617,-1,0,60,0,0,0,75,77,85,60,95,125.76,7,-111.00,61.00,-978.00
2024-06-07 01:35:03.402740,0,0,60,0,0,0,75,77,86,60,95,125.61,8,70.00,-35.00,-1000.00
2024-06-07 01:35:03.402826,0,0,60,0,0,0,75,77,86,60,94,125.76,8,-5.00,7.00,-996.00
2024-06-07 01:35:03.464562,0,0,60,0,0,0,75,77,86,60,94,125.73,8,-22.00,27.00,-951.00
2024-06-07 01:35:03.607663,0,0,60,0,0,0,75,77,87,60,94,125.74,8,130.00,-27.00,-1044.00
2024-06-07 01:35:03.667973,0,0,60,0,0,0,75,77,87,70,94,125.71,8,10.00,10.00,-1029.00
2024-06-07 01:35:03.769843,0,0,60,0,0,0,75,77,88,70,94,125.63,8,109.00,-29.00,-1195.00
2024-06-07 01:35:03.914629,0,0,60,0,0,0,75,77,88,70,94,125.68,8,-82.00,52.00,-1045.00
2024-06-07 01:35:03.973869,0,0,60,0,0,0,75,77,88,70,94,125.72,8,17.00,16.00,-917.00
2024-06-07 01:35:04.134374,0,0,60,0,0,0,75,77,88,70,94,125.73,8,2.00,20.00,-1040.00
2024-06-07 01:35:04.275409,0,0,60,0,0,0,76,78,88,70,94,125.64,8,-58.00,32.00,-965.00
2024-06-07 01:35:04.279626,0,0,60,0,0,0,76,78,88,70,94,125.74,9,-17.00,51.00,-926.00
2024-06-07 01:35:04.415249,0,0,60,0,0,0,76,78,87,70,94,125.75,9,58.00,-49.00,-975.00
2024-06-07 01:35:04.483731,0,0,60,0,0,0,76,78,87,70,94,125.70,9,83.00,-27.00,-1012.00
2024-06-07 01:35:04.594775,0,0,60,0,0,0,76,78,86,70,94,125.65,9,-33.00,2.00,-968.00
2024-06-07 01:35:04.773945,0,0,60,0,0,0,76,78,85,70,94,125.63,9,-23.00,35.00,-1053.00
2024-06-07 01:35:04.794011,0,0,60,0,0,0,76,78,85,70,94,125.71,9,-5.00,15.00,-940.00
2024-06-07 01:35:04.921350,0,0,60,0,0,0,76,78,84,60,94,125.66,9,-29.00,16.00,-968.00
2024-06-07 01:35:05.010859,0,0,60,0,0,0,76,78,83,60,94,125.72,9,43.00,11.00,-995.00
2024-06-07 01:35:05.136832,0,0,60,0,0,0,76,78,83,60,94,125.74,9,63.00,-19.00,-963.00
2024-06-07 01:35:05.200450,0,0,60,0,0,0,75,78,83,60,94,125.69,10,-5.00,-14.00,-1082.00
2024-06-07 01:35:05.360901,0,1,60,0,0,0,75,78,83,60,94,125.66,10,-21.00,25.00,-1033.00
2024-06-07 01:35:05.553420,0,0,60,0,0,0,75,78,84,60,93,125.68,10,8.00,-11.00,-1002.00
2024-06-07 01:35:05.666358,0,0,60,0,0,0,75,78,84,60,93,125.64,10,-7.00,24.00,-1106.00
2024-06-07 01:35:05.666522,-1,0,60,0,0,0,75,78,84,60,93,125.67,10,27.00,-38.00,-991.00
2024-06-07 01:35:05.809772,0,0,60,0,0,0,75,78,84,60,93,125.58,10,0.00,17.00,-1056.00
2024-06-07 01:35:05.809950,-1,0,60,0,0,0,75,78,84,60,93,125.68,10,-10.00,4.00,-954.00
2024-06-07 01:35:05.974388,-1,0,60,0,0,0,75,78,83,60,93,125.77,10,-98.00,55.00,-975.00
2024-06-07 01:35:06.118079,0,0,60,0,0,0,75,78,83,60,93,125.71,10,23.00,-20.00,-892.00
2024-06-07 01:35:06.118610,0,1,60,0,0,0,75,78,84,60,93,125.61,10,18.00,-33.00,-970.00
2024-06-07 01:35:06.282229,0,1,60,0,0,-2,76,77,86,60,93,125.69,11,16.00,-5.00,-1050.00
2024-06-07 01:35:06.425785,0,1,60,0,0,-3,76,77,88,70,93,125.84,11,58.00,-3.00,-1031.00
2024-06-07 01:35:06.426737,0,1,60,0,0,-3,76,77,91,70,93,125.79,11,-21.00,22.00,-1133.00
2024-06-07 01:35:06.587730,0,0,60,0,0,-4,76,77,95,80,93,125.84,11,33.00,-39.00,-1042.00
2024-06-07 01:35:06.643595,0,0,60,0,0,-5,76,77,99,80,93,125.81,11,16.00,-12.00,-1138.00
2024-06-07 01:35:06.728261,0,0,60,0,0,-5,76,77,105,90,93,125.85,11,-46.00,29.00,-1030.00
2024-06-07 01:35:06.884007,0,0,60,0,0,-5,76,77,110,90,93,125.88,11,2.00,-42.00,-1040.00
2024-06-07 01:35:06.934277,0,1,60,0,0,-5,76,77,116,100,93,125.91,11,-23.00,4.00,-1010.00
2024-06-07 01:35:06.983482,0,1,60,0,0,-5,76,77,121,100,93,126.03,11,12.00,-20.00,-939.00
2024-06-07 01:35:07.085638,0,0,60,0,0,-5,76,77,127,110,93,126.07,11,36.00,-23.00,-1010.00
2024-06-07 01:35:07.191275,0,0,60,0,0,-5,75,77,132,110,93,126.15,12,67.00,-50.00,-973.00
2024-06-07 01:35:07.289471,0,0,60,0,0,-5,75,77,138,120,93,126.17,12,10.00,-30.00,-953.00
2024-06-07 01:35:07.395879,0,0,60,0,0,-4,75,77,143,120,92,126.20,12,-17.00,13.00,-969.00
2024-06-07 01:35:07.493508,0,1,60,0,0,-4,75,77,147,130,92,126.22,12,-40.00,32.00,-1002.00
2024-06-07 01:35:07.600783,0,1,60,0,0,-4,75,77,151,130,92,126.36,12,-26.00,33.00,-999.00
2024-06-07 01:35:07.697538,0,1,60,0,0,-3,75,77,155,140,92,126.30,12,8.00,1.00,-912.00
2024-06-07 01:35:07.805571,-1,0,60,0,0,-3,75,77,157,140,92,126.33,12,26.00,10.00,-979.00
2024-06-07 01:35:07.901892,0,0,60,0,0,-2,75,77,161,140,92,126.35,12,1.00,-33.00,-1072.00
2024-06-07 01:35:08.010342,0,0,60,0,0,-2,75,77,163,140,92,126.38,12,8.00,-2.00,-1042.00
2024-06-07 01:35:08.107095,0,0,60,0,0,-2,75,77,163,150,92,126.40,12,-84.00,33.00,-978.00
2024-06-07 01:35:08.207663,0,0,60,0,0,-1,75,77,166,150,92,126.43,13,9.00,-6.00,-990.00
2024-06-07 01:35:08.317577,0,0,60,0,0,-1,75,77,168,150,92,126.41,13,-48.00,3.00,-907.00
2024-06-07 01:35:08.413044,0,0,60,0,0,-1,75,77,169,150,92,126.46,13,-30.00,-7.00,-940.00
2024-06-07 01:35:08.513511,0,1,60,0,0,-1,75,77,169,150,92,126.45,13,26.00,-2.00,-982.00
2024-06-07 01:35:08.624712,0,1,60,0,0,0,75,77,171,150,92,126.49,13,2.00,-3.00,-972.00
2024-06-07 01:35:08.721115,0,1,60,0,0,0,75,77,172,150,92,126.47,13,-5.00,-23.00,-985.00
2024-06-07 01:35:08.825981,0,1,60,0,0,0,75,77,173,150,92,126.47,13,34.00,-41.00,-1062.00
2024-06-07 01:35:08.923098,0,1,60,0,0,-1,75,77,174,160,92,126.56,13,-67.00,39.00,-979.00
2024-06-07 01:35:09.023689,0,0,60,0,0,0,75,77,175,160,92,126.52,13,-67.00,52.00,-920.00
2024-06-07 01:35:09.125564,0,0,60,0,0,0,75,77,175,160,92,126.49,13,63.00,-80.00,-1171.00
2024-06-07 01:35:09.239082,0,0,60,0,0,0,76,78,176,160,92,126.51,14,26.00,-2.00,-973.00
2024-06-07 01:35:09.332466,0,0,60,0,0,0,76,78,176,160,92,126.55,14,-7.00,-8.00,-955.00
2024-06-07 01:35:09.431353,0,1,60,0,0,0,76,78,176,160,91,126.51,14,8.00,-12.00,-1097.00
2024-06-07 01:35:09.546960,0,0,60,0,0,0,76,78,179,160,91,126.51,14,10.00,4.00,-1015.00
2024-06-07 01:35:09.635525,0,0,60,0,0,0,76,78,178,160,91,126.51,14,-7.00,8.00,-986.00
2024-06-07 01:35:09.737312,0,0,60,0,0,0,76,78,179,160,91,126.54,14,-63.00,59.00,-993.00
2024-06-07 01:35:09.853513,0,0,60,0,0,0,76,78,180,160,91,126.56,14,-11.00,-20.00,-1039.00
2024-06-07 01:35:09.941400,0,0,60,0,0,0,76,78,181,160,91,126.50,14,-7.00,22.00,-902.00
2024-06-07 01:35:10.058307,0,0,60,0,0,0,76,78,182,160,91,126.61,14,60.00,-19.00,-1050.00
2024-06-07 01:35:10.145422,0,0,60,0,0,0,76,78,182,160,91,126.57,14,-19.00,15.00,-1007.00
2024-06-07 01:35:10.263143,0,0,60,0,0,0,76,76,184,160,91,126.51,15,-25.00,24.00,-926.00
2024-06-07 01:35:10.349437,0,0,60,0,0,0,76,76,185,160,91,126.51,15,40.00,-30.00,-1079.00
2024-06-07 01:35:10.468308,0,0,60,0,0,0,76,76,184,160,91,126.61,15,-94.00,48.00,-922.00
2024-06-07 01:35:10.553236,0,0,60,0,0,0,76,76,185,160,91,126.59,15,12.00,15.00,-947.00
2024-06-07 01:35:10.673534,0,0,60,0,0,0,76,76,185,160,91,126.59,15,-17.00,17.00,-1042.00
2024-06-07 01:35:10.757320,0,0,60,0,0,0,76,76,184,160,91,126.59,15,-17.00,12.00,-1072.00
2024-06-07 01:35:10.881628,0,0,60,0,0,0,76,76,185,160,91,126.59,15,-37.00,25.00,-1022.00
2024-06-07 01:35:10.961385,0,0,60,0,0,0,76,76,183,160,91,126.56,15,86.00,-21.00,-888.00
2024-06-07 01:35:11.011963,0,0,60,0,0,0,76,76,183,160,91,126.59,15,2.00,47.00,-1025.00
2024-06-07 01:35:11.114145,0,0,60,0,0,0,76,76,184,160,91,126.58,15,71.00,-22.00,-955.00
2024-06-07 01:35:11.287126,0,0,60,0,0,0,75,78,184,160,91,126.62,16,-64.00,51.00,-873.00
2024-06-07 01:35:11.318838,0,0,60,0,0,0,75,78,183,160,90,126.59,16,10.00,2.00,-929.00
2024-06-07 01:35:11.492209,0,0,60,0,0,0,75,78,182,160,90,126.60,16,-30.00,24.00,-1075.00
2024-06-07 01:35:11.521988,0,0,60,0,0,0,75,78,185,160,90,126.62,16,-18.00,19.00,-981.00
2024-06-07 01:35:11.640425,0,0,60,0,0,0,75,78,185,160,90,126.52,16,-49.00,37.00,-961.00
2024-06-07 01:35:11.725803,0,0,60,0,0,0,75,78,185,160,90,126.61,16,-26.00,23.00,-1026.00
2024-06-07 01:35:11.901376,0,0,60,0,0,0,75,78,184,160,90,126.59,16,-15.00,4.00,-1034.00
2024-06-07 01:35:11.929804,0,0,60,0,0,0,75,78,184,160,90,126.58,16,-66.00,18.00,-1012.00
2024-06-07 01:35:12.106054,0,0,60,0,0,0,75,78,185,160,90,126.54,16,27.00,-13.00,-936.00
2024-06-07 01:35:12.135324,0,0,60,0,0,1,75,78,183,160,90,126.53,16,32.00,-7.00,-1021.00
2024-06-07 01:35:12.235975,0,0,60,0,0,1,75,77,182,160,90,126.55,17,-24.00,11.00,-803.00
2024-06-07 01:35:12.413367,0,0,60,0,0,2,75,77,179,160,90,126.54,17,51.00,-29.00,-991.00
2024-06-07 01:35:12.439748,0,0,60,0,0,2,75,77,178,160,90,126.53,17,-24.00,-1.00,-876.00
2024-06-07 01:35:12.618071,0,0,60,0,0,2,75,77,174,150,90,126.49,17,14.00,1.00,-1002.00
2024-06-07 01:35:12.643800,0,0,60,0,0,2,75,77,172,150,90,126.49,17,-10.00,14.00,-975.00
2024-06-07 01:35:12.822944,0,0,60,0,0,2,75,77,169,150,90,126.48,17,-47.00,25.00,-1000.00
2024-06-07 01:35:12.848087,0,0,60,0,0,2,75,77,166,150,90,126.37,17,48.00,-47.00,-997.00
2024-06-07 01:35:13.027753,0,0,60,0,0,2,75,77,163,140,90,126.36,17,-41.00,29.00,-1044.00
2024-06-07 01:35:13.051726,0,0,60,0,0,2,75,77,162,140,90,126.40,17,-6.00,13.00,-1088.00
2024-06-07 01:35:13.233114,0,0,60,0,0,2,75,77,159,140,90,126.34,17,17.00,-6.00,-979.00
2024-06-07 01:35:13.255702,0,0,60,0,0,2,75,77,155,140,90,126.31,18,23.00,-5.00,-905.00
2024-06-07 01:35:13.437314,0,0,60,0,0,2,75,77,152,130,89,126.28,18,77.00,-21.00,-998.00
2024-06-07 01:35:13.459666,0,0,60,0,0,2,75,77,150,130,89,126.25,18,48.00,-55.00,-1055.00
2024-06-07 01:35:13.642119,0,0,60,0,0,2,75,77,147,130,89,126.31,18,-32.00,49.00,-967.00
2024-06-07 01:35:13.663615,0,0,60,0,0,2,75,77,145,130,89,126.30,18,-58.00,29.00,-958.00
2024-06-07 01:35:13.846856,0,0,60,0,0,2,75,77,143,120,89,126.28,18,-23.00,20.00,-916.00
2024-06-07 01:35:13.867885,0,0,60,0,0,2,75,77,141,120,89,126.26,18,97.00,-12.00,-1097.00
2024-06-07 01:35:14.051644,0,0,60,0,0,1,75,77,139,120,89,126.27,18,19.00,-25.00,-1024.00
2024-06-07 01:35:14.071729,0,0,60,0,0,1,75,77,137,120,89,126.22,18,49.00,-55.00,-1038.00
2024-06-07 01:35:14.256578,0,0,60,0,0,1,75,77,137,120,89,126.21,18,-14.00,-20.00,-1038.00
2024-06-07 01:35:14.275541,0,1,60,0,0,0,76,77,135,120,89,126.17,19,-9.00,-7.00,-972.00
2024-06-07 01:35:14.461341,0,0,60,0,0,0,76,77,135,120,89,126.15,19,25.00,-3.00,-1007.00
2024-06-07 01:35:14.483978,0,0,60,0,0,0,76,77,135,110,89,126.23,19,-2.00,35.00,-1053.00
2024-06-07 01:35:14.583917,0,0,60,0,0,0,76,77,135,110,89,126.19,19,-3.00,-1.00,-1026.00
2024-06-07 01:35:14.685912,0,0,60,0,0,0,76,77,133,110,89,126.19,19,13.00,-33.00,-1113.00
2024-06-07 01:35:14.785865,0,0,60,0,0,0,76,77,133,110,89,126.13,19,-13.00,10.00,-1023.00
2024-06-07 01:35:14.973328,0,0,60,0,0,0,76,77,134,110,89,126.15,19,17.00,-17.00,-1007.00
2024-06-07 01:35:14.973485,0,0,60,0,0,0,76,77,134,110,89,126.12,19,12.00,12.00,-1002.00
2024-06-07 01:35:15.040783,-1,0,60,0,0,0,76,77,133,110,89,126.12,19,11.00,-8.00,-979.00
2024-06-07 01:35:15.142986,0,0,60,0,0,0,76,77,134,110,89,126.14,19,-13.00,20.00,-893.00
2024-06-07 01:35:15.244939,0,0,60,0,0,0,75,77,135,110,89,126.17,20,7.00,-7.00,-972.00
2024-06-07 01:35:15.382905,0,0,60,0,0,0,75,77,135,110,88,126.16,20,-18.00,-11.00,-990.00
2024-06-07 01:35:15.448761,0,0,60,0,0,0,75,77,136,110,88,126.18,20,-50.00,27.00,-1064.00
2024-06-07 01:35:15.550660,0,0,60,0,0,0,75,77,138,110,88,126.14,20,11.00,19.00,-1022.00
2024-06-07 01:35:15.653219,0,0,60,0,0,0,75,77,137,110,88,126.17,20,36.00,-13.00,-1011.00
2024-06-07 01:35:15.792654,0,0,60,0,0,0,75,77,139,120,88,126.21,20,44.00,4.00,-1029.00
2024-06-07 01:35:15.857092,0,0,60,0,0,0,75,77,140,120,88,126.21,20,-14.00,-17.00,-963.00
2024-06-07 01:35:15.959157,0,0,60,0,0,0,75,77,141,120,88,126.16,20,-14.00,-13.00,-988.00
2024-06-07 01:35:16.074883,0,0,60,0,0,0,75,77,141,120,88,126.22,20,45.00,-17.00,-933.00
2024-06-07 01:35:16.164616,0,0,60,0,0,0,75,77,141,120,88,126.22,20,-60.00,38.00,-958.00
2024-06-07 01:35:16.266955,0,0,60,0,0,0,75,78,141,120,88,126.23,21,-45.00,21.00,-963.00
2024-06-07 01:35:16.366717,-5,0,60,0,0,0,75,78,140,120,88,126.18,21,48.00,-21.00,-963.00
2024-06-07 01:35:16.468556,-8,0,60,0,1,0,75,78,142,120,88,126.19,21,-18.00,37.00,-1023.00
2024-06-07 01:35:16.570778,-8,0,60,1,2,0,75,78,142,120,88,126.16,21,-18.00,27.00,-820.00
2024-06-07 01:35:16.672801,-8,0,60,2,4,0,75,78,140,120,88,126.18,21,-14.00,15.00,-993.00
2024-06-07 01:35:16.817818,-7,0,60,2,5,0,75,78,140,120,88,126.13,21,0.00,8.00,-981.00
2024-06-07 01:35:16.876509,-6,0,60,3,5,0,75,78,139,120,88,126.13,21,-110.00,41.00,-1031.00
2024-06-07 01:35:16.978493,-6,0,60,3,6,0,75,78,138,120,88,126.17,21,-45.00,20.00,-1070.00
2024-06-07 01:35:17.080564,-6,0,60,3,6,0,75,78,137,120,88,126.15,21,-11.00,-29.00,-1016.00
2024-06-07 01:35:17.225798,-4,0,60,3,6,0,75,78,137,120,88,126.14,21,-46.00,8.00,-957.00
2024-06-07 01:35:17.285528,0,0,60,4,6,0,75,77,137,120,88,126.11,22,-91.00,5.00,-960.00
2024-06-07 01:35:17.430916,1,0,60,3,6,0,75,77,137,120,87,126.18,22,0.00,-56.00,-959.00
2024-06-07 01:35:17.489093,3,0,60,3,4,0,75,77,137,120,87,126.14,22,-89.00,-16.00,-1044.00
2024-06-07 01:35:17.635398,3,1,60,2,3,0,75,77,136,120,87,126.17,22,38.00,-39.00,-1001.00
2024-06-07 01:35:17.692724,2,1,60,2,3,0,75,77,136,120,87,126.16,22,-61.00,75.00,-1063.00
2024-06-07 01:35:17.840197,1,1,60,1,2,0,75,77,136,120,87,126.14,22,-73.00,41.00,-908.00
2024-06-07 01:35:17.898707,0,1,60,1,2,0,75,77,137,120,87,126.12,22,-69.00,-50.00,-1017.00
2024-06-07 01:35:17.998435,0,0,60,1,2,0,75,77,137,120,87,126.18,22,61.00,-54.00,-978.00
2024-06-07 01:35:18.147379,0,0,60,1,2,0,75,77,137,120,87,126.15,22,7.00,-23.00,-852.00
2024-06-07 01:35:18.202458,0,0,60,1,2,0,75,77,138,120,87,126.15,22,47.00,-53.00,-917.00
2024-06-07 01:35:18.352168,0,0,60,1,2,0,75,78,138,120,87,126.17,23,74.00,-53.00,-969.00
2024-06-07 01:35:18.407485,0,2,60,1,2,0,75,78,139,120,87,126.21,23,-34.00,-8.00,-895.00
2024-06-07 01:35:18.556947,0,2,60,0,2,0,75,78,139,120,87,126.18,23,-107.00,25.00,-951.00
2024-06-07 01:35:18.610382,0,1,60,0,2,0,75,78,140,120,87,126.18,23,9.00,-15.00,-995.00
2024-06-07 01:35:18.661452,0,1,60,0,2,0,75,78,140,120,87,126.21,23,53.00,-47.00,-1132.00
2024-06-07 01:35:18.763226,2,-1,60,0,2,0,75,78,141,120,87,126.23,23,32.00,-51.00,-1082.00
2024-06-07 01:35:18.966851,3,-1,60,0,1,0,75,78,141,120,87,126.25,23,-74.00,42.00,-1003.00
2024-06-07 01:35:18.968507,2,0,60,0,0,0,75,78,141,120,87,126.25,23,-60.00,12.00,-1009.00
2024-06-07 01:35:19.185094,1,0,60,0,0,0,75,78,141,120,87,126.24,23,-15.00,0.00,-881.00
2024-06-07 01:35:19.185633,0,0,60,0,0,0,75,78,140,120,87,126.24,23,14.00,26.00,-884.00
2024-06-07 01:35:19.327779,0,1,60,0,0,0,76,77,140,120,87,126.25,24,49.00,-46.00,-960.00
2024-06-07 01:35:19.376566,0,0,60,0,0,0,76,77,139,120,86,126.23,24,47.00,-57.00,-1053.00
2024-06-07 01:35:19.479105,0,0,60,0,0,0,76,77,137,120,86,126.19,24,-51.00,-9.00,-1013.00
2024-06-07 01:35:19.645873,0,0,60,0,0,0,76,77,135,120,86,126.21,24,25.00,8.00,-1025.00
2024-06-07 01:35:19.683208,0,0,60,0,0,0,76,77,134,110,86,126.19,24,34.00,-64.00,-968.00
2024-06-07 01:35:19.842471,0,0,60,0,0,0,76,77,133,110,86,126.14,24,-38.00,-2.00,-1024.00
2024-06-07 01:35:19.894697,0,0,60,0,0,0,76,77,133,110,86,126.16,24,-24.00,22.00,-1011.00
2024-06-07 01:35:19.988434,0,0,60,0,0,0,76,77,132,110,86,126.14,24,104.00,-57.00,-991.00
2024-06-07 01:35:20.184614,0,0,60,0,0,0,76,77,132,110,86,126.13,24,43.00,-50.00,-1169.00
2024-06-07 01:35:20.192459,0,0,60,0,0,0,76,77,131,110,86,126.13,25,-9.00,18.00,-969.00
2024-06-07 01:35:20.298237,0,0,60,0,0,0,75,78,130,110,86,126.15,25,-25.00,-1.00,-1143.00
2024-06-07 01:35:20.411268,0,0,60,0,0,0,75,78,130,110,86,126.17,25,0.00,3.00,-971.00
2024-06-07 01:35:20.592810,0,0,60,0,0,0,75,78,131,110,86,126.12,25,-67.00,43.00,-1053.00
2024-06-07 01:35:20.600977,0,0,60,0,0,0,75,78,131,110,86,126.11,25,-4.00,10.00,-1152.00
2024-06-07 01:35:20.737082,0,0,60,0,0,0,75,78,130,110,86,126.17,25,59.00,-8.00,-1185.00
2024-06-07 01:35:20.879632,0,0,60,0,0,0,75,78,131,110,86,126.08,25,-71.00,33.00,-1046.00
2024-06-07 01:35:20.906388,0,0,60,0,0,0,75,78,130,110,86,126.11,25,-16.00,39.00,-974.00
2024-06-07 01:35:21.025345,0,0,60,0,0,0,75,78,131,110,86,126.09,25,66.00,-47.00,-1126.00
2024-06-07 01:35:21.168799,0,0,60,0,0,0,75,78,130,110,86,126.15,25,-36.00,14.00,-887.00
2024-06-07 01:35:21.212162,3,0,60,0,0,0,75,78,130,110,86,126.10,26,-38.00,37.00,-985.00
2024-06-07 01:35:21.333324,8,0,60,0,0,0,76,77,129,110,86,126.14,26,-60.00,-2.00,-1062.00
2024-06-07 01:35:21.475842,8,0,60,-1,-2,0,76,77,133,110,86,126.06,26,-41.00,40.00,-930.00
2024-06-07 01:35:21.518265,8,0,60,-2,-3,0,76,77,131,110,86,126.17,26,-3.00,27.00,-1069.00
2024-06-07 01:35:21.639703,7,0,60,-2,-4,0,76,77,131,110,86,126.05,26,11.00,22.00,-945.00
2024-06-07 01:35:21.796105,6,0,60,-3,-5,0,76,77,131,110,86,126.21,26,26.00,21.00,-1048.00
2024-06-07 01:35:21.827687,5,0,60,-3,-6,0,76,77,132,110,86,126.18,26,56.00,-17.00,-1120.00
2024-06-07 01:35:21.928025,5,0,60,-3,-6,0,76,77,132,110,86,126.13,26,43.00,-12.00,-988.00
2024-06-07 01:35:22.027885,3,0,60,-3,-6,0,76,77,131,110,86,126.11,26,58.00,19.00,-1097.00
2024-06-07 01:35:22.130113,0,0,60,-3,-6,0,76,77,130,110,86,126.10,26,134.00,-36.00,-1004.00
2024-06-07 01:35:22.243185,-1,0,60,-3,-5,0,76,77,131,110,86,126.12,27,19.00,32.00,-1012.00
2024-06-07 01:35:22.334164,-3,0,60,-2,-4,0,76,78,132,110,86,126.09,27,31.00,-18.00,-957.00
2024-06-07 01:35:22.436067,-3,0,60,-2,-3,0,76,78,132,110,85,126.04,27,64.00,4.00,-967.00
2024-06-07 01:35:22.537762,-1,0,60,-1,-2,0,76,78,132,110,85,126.13,27,65.00,2.00,-992.00
2024-06-07 01:35:22.639717,0,0,60,-1,-2,0,76,78,132,110,85,126.06,27,11.00,-10.00,-1016.00
2024-06-07 01:35:22.741932,0,0,60,-1,-2,0,76,78,132,110,85,126.16,27,69.00,-43.00,-1074.00
2024-06-07 01:35:22.793344,0,0,60,-1,-2,0,76,78,131,110,85,126.15,27,3.00,0.00,-1039.00
2024-06-07 01:35:22.960368,0,0,60,-1,-2,0,76,78,131,110,85,126.13,27,92.00,-21.00,-1073.00
2024-06-07 01:35:22.996758,0,0,60,-1,-2,0,76,78,129,110,85,126.17,27,34.00,-3.00,-954.00
2024-06-07 01:35:23.170743,0,0,60,-1,-2,0,76,78,129,110,85,126.09,27,0.00,23.00,-1065.00
2024-06-07 01:35:23.200766,0,0,60,-1,-2,0,76,78,129,110,85,126.11,28,21.00,7.00,-957.00
2024-06-07 01:35:23.369558,0,0,60,-1,-2,0,75,77,129,110,85,126.02,28,-12.00,-5.00,-940.00
2024-06-07 01:35:23.404931,0,0,60,-1,-2,0,75,77,128,110,85,126.10,28,-26.00,10.00,-1075.00
2024-06-07 01:35:23.574356,-4,-1,60,-1,-2,0,75,77,128,110,85,126.05,28,48.00,-34.00,-1008.00
2024-06-07 01:35:23.608681,-4,0,60,0,-1,0,75,77,127,110,85,126.04,28,24.00,11.00,-1126.00
2024-06-07 01:35:23.779410,-2,0,60,0,0,0,75,77,128,110,85,126.16,28,23.00,1.00,-1074.00
2024-06-07 01:35:23.812773,-1,0,60,0,0,0,75,77,128,110,85,126.11,28,-64.00,8.00,-1062.00
2024-06-07 01:35:23.984648,0,0,60,0,0,0,75,77,128,110,85,126.10,28,6.00,-6.00,-972.00
2024-06-07 01:35:24.016824,0,0,60,0,0,0,75,77,128,110,85,126.09,28,12.00,-20.00,-879.00
2024-06-07 01:35:24.189060,0,0,60,0,0,0,75,77,128,110,85,126.06,28,22.00,16.00,-910.00
2024-06-07 01:35:24.220771,0,0,60,0,0,0,75,77,127,110,85,126.13,29,-18.00,15.00,-944.00
2024-06-07 01:35:24.394027,0,0,60,0,0,0,76,78,127,110,85,126.07,29,-40.00,5.00,-1010.00
2024-06-07 01:35:24.424765,0,0,60,0,0,0,76,78,127,110,85,126.09,29,-21.00,-5.00,-1034.00
2024-06-07 01:35:24.604147,0,0,60,0,0,0,76,78,126,110,85,126.17,29,20.00,-26.00,-1041.00
2024-06-07 01:35:24.629450,0,0,60,0,0,0,76,78,127,110,85,126.11,29,19.00,15.00,-1050.00
2024-06-07 01:35:24.731168,0,0,60,0,0,0,76,78,126,110,85,126.10,29,10.00,-25.00,-1200.00
2024-06-07 01:35:24.832860,0,0,60,0,0,0,76,78,126,110,85,126.00,29,-3.00,0.00,-1003.00
2024-06-07 01:35:24.934814,0,0,60,0,0,0,76,78,126,110,85,126.10,29,-48.00,10.00,-1014.00
2024-06-07 01:35:25.110818,0,0,60,0,0,0,76,78,127,110,85,126.10,29,-37.00,20.00,-1028.00
2024-06-07 01:35:25.138579,0,0,60,0,0,0,76,78,127,110,85,126.02,29,20.00,-17.00,-849.00
2024-06-07 01:35:25.315139,0,0,60,0,0,0,76,78,128,110,85,126.10,30,47.00,-10.00,-1064.00
2024-06-07 01:35:25.342662,0,0,60,0,0,0,76,77,128,110,84,126.18,30,46.00,-43.00,-1054.00
2024-06-07 01:35:25.520035,0,0,60,0,0,0,76,77,128,110,84,126.07,30,50.00,-10.00,-1058.00
2024-06-07 01:35:25.546680,0,0,60,0,0,0,76,77,128,110,84,126.13,30,-3.00,31.00,-994.00
2024-06-07 01:35:25.724713,0,0,60,0,0,0,76,77,129,110,84,126.14,30,31.00,7.00,-945.00
2024-06-07 01:35:25.750675,0,0,60,0,0,0,76,77,128,110,84,126.12,30,79.00,-56.00,-996.00
2024-06-07 01:35:25.852506,0,0,60,0,0,0,76,77,128,110,84,126.16,30,-37.00,26.00,-990.00
2024-06-07 01:35:26.035674,0,0,60,0,0,0,76,77,128,110,84,126.10,30,36.00,0.00,-924.00
2024-06-07 01:35:26.057042,0,-7,60,0,0,0,76,77,130,110,84,126.09,30,-94.00,20.00,-994.00
2024-06-07 01:35:26.158526,0,-8,60,1,0,0,76,77,130,110,84,126.09,30,-12.00,0.00,-1009.00
2024-06-07 01:35:26.341289,0,-5,60,2,-1,0,76,77,130,110,84,126.10,31,27.00,16.00,-1044.00
2024-06-07 01:35:26.362446,0,-3,60,3,-2,0,75,78,131,110,84,126.09,31,33.00,-14.00,-947.00
2024-06-07 01:35:26.413641,0,0,60,3,-2,0,75,78,131,110,84,126.15,31,33.00,26.00,-1185.00
2024-06-07 01:35:26.543772,0,1,60,2,-1,0,75,78,133,110,84,126.10,31,13.00,37.00,-1025.00
2024-06-07 01:35:26.617438,0,0,60,2,-1,0,75,78,134,110,84,126.17,31,-45.00,47.00,-894.00
2024-06-07 01:35:26.719779,0,0,60,1,-1,0,75,78,135,110,84,126.13,31,27.00,5.00,-1049.00
2024-06-07 01:35:26.824532,0,-1,60,2,-1,0,75,78,135,120,84,126.16,31,54.00,-61.00,-913.00
2024-06-07 01:35:26.923833,0,0,60,2,-1,0,75,78,138,120,84,126.19,31,-43.00,28.00,-991.00
2024-06-07 01:35:27.059030,0,0,60,2,-1,0,75,78,137,120,84,126.13,31,-39.00,58.00,-1056.00
2024-06-07 01:35:27.127897,0,0,60,2,-1,0,75,78,138,120,84,126.15,31,-40.00,78.00,-985.00
2024-06-07 01:35:27.229669,0,0,60,2,-1,0,75,78,139,120,84,126.16,32,75.00,-13.00,-990.00
2024-06-07 01:35:27.363328,0,0,60,2,-1,0,75,77,139,120,84,126.19,32,-39.00,43.00,-990.00
2024-06-07 01:35:27.433568,0,0,60,2,-1,0,75,77,139,120,84,126.16,32,-35.00,54.00,-892.00
2024-06-07 01:35:27.570163,-1,0,60,2,-1,0,75,77,139,120,84,126.14,32,-23.00,11.00,-975.00
2024-06-07 01:35:27.637311,-2,0,60,2,0,0,75,77,139,120,84,126.10,32,58.00,-47.00,-904.00
2024-06-07 01:35:27.775825,0,2,60,2,0,0,75,77,139,120,84,126.18,32,-76.00,58.00,-1053.00
2024-06-07 01:35:27.841290,1,4,60,1,0,0,75,77,140,120,84,126.16,32,76.00,-50.00,-983.00
2024-06-07 01:35:27.945691,0,2,60,0,0,0,75,77,139,120,84,126.14,32,20.00,-4.00,-1080.00
2024-06-07 01:35:28.046237,0,1,60,0,0,0,75,77,138,120,84,126.15,32,-3.00,48.00,-1063.00
2024-06-07 01:35:28.147649,0,0,60,0,0,0,75,77,137,120,84,126.22,32,-39.00,-9.00,-880.00
2024-06-07 01:35:28.249508,0,0,60,0,0,0,75,77,138,120,84,126.22,33,11.00,-3.00,-1064.00
2024-06-07 01:35:28.387293,0,0,60,0,0,0,76,78,137,120,84,126.11,33,19.00,11.00,-1089.00
2024-06-07 01:35:28.454248,0,1,60,0,0,0,76,78,137,120,84,126.14,33,-30.00,19.00,-968.00
2024-06-07 01:35:28.591902,0,0,60,0,0,0,76,78,138,120,84,126.13,33,-7.00,-18.00,-916.00
2024-06-07 01:35:28.658785,0,0,60,0,0,0,76,78,137,120,84,126.10,33,30.00,-15.00,-1025.00
2024-06-07 01:35:28.760855,0,0,60,0,0,0,76,78,137,120,84,126.13,33,-16.00,40.00,-1114.00
2024-06-07 01:35:28.861803,0,0,60,0,0,0,76,78,138,120,84,126.12,33,-62.00,39.00,-991.00
2024-06-07 01:35:28.964477,0,0,60,0,0,0,76,78,137,120,84,126.09,33,-14.00,24.00,-948.00
2024-06-07 01:35:29.066426,0,0,60,0,0,0,76,78,138,120,84,126.09,33,-41.00,5.00,-949.00
2024-06-07 01:35:29.168906,0,0,60,0,0,0,76,78,138,120,84,126.13,33,37.00,-19.00,-1055.00
2024-06-07 01:35:29.269697,0,0,60,0,0,0,76,78,137,120,84,126.08,34,-10.00,4.00,-1012.00
2024-06-07 01:35:29.411236,0,0,60,0,0,0,76,77,138,120,84,126.14,34,30.00,-24.00,-1174.00
2024-06-07 01:35:29.473372,0,0,60,0,0,0,76,77,138,120,84,126.09,34,9.00,-14.00,-955.00
2024-06-07 01:35:29.615739,0,0,60,0,0,0,76,77,137,120,84,126.13,34,-5.00,-2.00,-964.00
2024-06-07 01:35:29.677344,0,0,60,0,0,0,76,77,137,120,84,126.13,34,-55.00,44.00,-779.00
2024-06-07 01:35:29.779319,0,0,60,0,0,0,76,77,137,120,84,126.13,34,58.00,-11.00,-1043.00
2024-06-07 01:35:29.881345,0,0,60,0,0,0,76,77,136,120,84,126.07,34,-34.00,4.00,-1046.00
2024-06-07 01:35:29.983614,0,0,60,0,0,0,76,77,135,120,84,126.02,34,-1.00,11.00,-944.00
2024-06-07 01:35:30.085131,0,0,60,0,0,0,76,77,135,120,84,126.08,34,-34.00,-8.00,-948.00
2024-06-07 01:35:30.187401,0,6,60,0,0,0,76,77,137,120,84,126.03,34,-3.00,20.00,-887.00
2024-06-07 01:35:30.240069,0,8,60,-1,0,0,76,77,134,110,84,126.13,35,-92.00,51.00,-1062.00
2024-06-07 01:35:30.437630,0,5,60,-2,1,0,76,78,133,110,83,126.13,35,20.00,-25.00,-1032.00
2024-06-07 01:35:30.442073,0,2,60,-3,2,0,76,78,132,110,83,126.11,35,21.00,-77.00,-959.00
2024-06-07 01:35:30.639582,0,0,60,-3,2,0,76,78,133,110,83,126.08,35,-7.00,-21.00,-1167.00
2024-06-07 01:35:30.646608,0,-1,60,-2,1,0,76,78,132,110,83,126.13,35,14.00,13.00,-1206.00
2024-06-07 01:35:30.844602,0,0,60,-2,1,0,76,78,132,110,83,126.06,35,12.00,-16.00,-927.00
2024-06-07 01:35:30.849966,0,0,60,-2,1,0,76,78,132,110,83,126.12,35,29.00,1.00,-925.00
2024-06-07 01:35:30.952289,0,1,60,-2,1,0,76,78,133,110,83,126.09,35,-79.00,16.00,-989.00
2024-06-07 01:35:31.154562,0,1,60,-2,1,0,76,78,134,110,83,126.05,35,1.00,-4.00,-844.00
2024-06-07 01:35:31.156022,0,1,60,-2,1,0,76,78,135,110,83,126.12,35,71.00,-59.00,-1068.00
2024-06-07 01:35:31.363326,0,0,60,-2,1,0,76,78,135,110,83,126.08,36,-28.00,5.00,-875.00
2024-06-07 01:35:31.363873,0,0,60,-2,1,0,75,78,137,110,83,126.12,36,41.00,-40.00,-1083.00
2024-06-07 01:35:31.462011,0,0,60,-2,1,0,75,78,137,110,83,126.18,36,19.00,-34.00,-942.00
2024-06-07 01:35:31.564019,0,0,60,-2,1,0,75,78,138,120,83,126.15,36,6.00,2.00,-1031.00
2024-06-07 01:35:31.666126,2,0,60,-2,0,0,75,78,139,120,83,126.13,36,10.00,-13.00,-1010.00
2024-06-07 01:35:31.767987,1,0,60,-2,0,0,75,78,139,120,83,126.16,36,-78.00,28.00,-1029.00
2024-06-07 01:35:31.869924,0,-2,60,-2,0,0,75,78,139,120,83,126.13,36,-10.00,-7.00,-1003.00
2024-06-07 01:35:32.073118,-2,-4,60,-1,0,0,75,78,138,120,83,126.01,36,-34.00,-5.00,-1087.00
2024-06-07 01:35:32.074052,-1,-2,60,0,0,0,75,78,138,120,83,126.06,36,50.00,-45.00,-982.00
2024-06-07 01:35:32.176249,0,-1,60,0,0,0,75,78,138,120,83,126.11,36,-2.00,-2.00,-1028.00
2024-06-07 01:35:32.278631,0,0,60,0,0,0,75,78,138,120,83,126.12,37,-69.00,40.00,-1006.00
2024-06-07 01:35:32.380808,0,0,60,0,0,0,75,78,137,120,83,126.17,37,44.00,-18.00,-1118.00
2024-06-07 01:35:32.483846,0,0,60,0,0,0,75,78,137,120,83,126.14,37,-19.00,32.00,-979.00
2024-06-07 01:35:32.584957,0,0,60,0,0,0,75,78,136,120,83,126.17,37,51.00,-14.00,-1100.00
2024-06-07 01:35:32.687892,0,-1,60,0,0,0,75,78,136,120,83,126.11,37,-49.00,48.00,-1025.00
2024-06-07 01:35:32.790303,0,0,60,0,0,0,75,78,136,120,83,126.14,37,69.00,-12.00,-990.00
2024-06-07 01:35:32.890014,0,0,60,0,0,0,75,78,137,110,83,126.09,37,0.00,-9.00,-971.00
2024-06-07 01:35:32.994965,0,0,60,0,0,0,75,78,137,110,83,126.20,37,-35.00,24.00,-975.00
2024-06-07 01:35:33.098631,0,0,60,0,0,0,75,78,136,110,83,126.10,37,-22.00,4.00,-832.00
2024-06-07 01:35:33.197229,0,0,60,0,0,0,75,78,136,110,83,126.10,37,-83.00,21.00,-1044.00
2024-06-07 01:35:33.302026,0,0,60,0,0,0,75,78,136,110,83,126.12,38,40.00,-16.00,-953.00
2024-06-07 01:35:33.400015,0,0,60,0,0,0,75,78,136,110,83,126.09,38,-46.00,24.00,-1037.00
2024-06-07 01:35:33.507375,0,0,60,0,0,0,75,78,136,110,83,126.13,38,4.00,-4.00,-994.00
2024-06-07 01:35:33.603900,0,0,60,0,0,0,75,78,137,120,83,126.13,38,-44.00,36.00,-966.00
2024-06-07 01:35:33.706048,0,0,60,0,0,0,75,78,136,120,83,126.12,38,36.00,-13.00,-999.00
2024-06-07 01:35:33.814040,0,0,60,0,0,0,75,78,136,120,83,126.14,38,28.00,-17.00,-1002.00
2024-06-07 01:35:33.910358,0,0,60,0,0,0,75,78,136,120,83,126.15,38,10.00,-5.00,-1099.00
2024-06-07 01:35:33.961263,0,0,60,0,0,0,75,78,135,120,83,126.16,38,-51.00,16.00,-953.00
2024-06-07 01:35:34.115950,0,0,60,0,0,0,75,78,134,120,83,126.10,38,28.00,-24.00,-1119.00
2024-06-07 01:35:34.258241,0,0,60,0,0,0,75,78,134,120,83,126.15,38,22.00,0.00,-926.00
2024-06-07 01:35:34.266684,0,0,60,0,0,0,75,78,134,110,83,126.14,39,61.00,-48.00,-993.00
2024-06-07 01:35:34.428257,1,0,71,0,0,0,76,78,134,110,83,126.20,39,-9.00,38.00,-1011.00
2024-06-07 01:35:34.636664,0,0,77,0,0,0,76,78,134,110,83,126.07,39,15.00,-15.00,-892.00
2024-06-07 01:35:34.691550,0,0,84,0,0,0,76,78,134,110,83,126.10,39,-32.00,28.00,-1002.00
2024-06-07 01:35:34.691912,0,0,90,0,0,0,76,78,135,110,83,126.16,39,-37.00,18.00,-1111.00
2024-06-07 01:35:34.778896,0,0,96,0,0,0,76,78,136,110,83,126.16,39,65.00,-21.00,-1073.00
2024-06-07 01:35:34.879036,0,0,102,0,0,0,76,78,137,110,83,126.17,39,-72.00,14.00,-912.00
2024-06-07 01:35:35.043352,0,0,108,0,0,0,76,78,138,120,83,126.18,39,-62.00,18.00,-1036.00
2024-06-07 01:35:35.350253,0,0,114,0,0,0,76,78,139,120,83,126.15,39,22.00,-16.00,-990.00
2024-06-07 01:35:35.463293,0,0,120,0,0,0,76,78,140,120,83,126.15,40,-87.00,17.00,-942.00
2024-06-07 01:35:35.463347,0,0,126,0,0,0,76,78,140,120,83,126.13,40,-74.00,17.00,-939.00
2024-06-07 01:35:35.463783,0,0,132,0,0,0,76,78,140,120,82,126.12,40,27.00,-44.00,-1108.00
2024-06-07 01:35:35.606446,0,0,138,0,0,0,76,78,140,120,82,126.12,40,-15.00,19.00,-811.00
2024-06-07 01:35:35.606504,0,0,144,0,0,0,76,78,141,120,82,126.19,40,-15.00,27.00,-975.00
2024-06-07 01:35:35.770179,0,0,149,0,0,0,76,78,140,120,82,126.18,40,-15.00,19.00,-1051.00
2024-06-07 01:35:35.913484,0,0,155,0,0,0,76,78,141,120,82,126.19,40,-64.00,34.00,-943.00
2024-06-07 01:35:35.913594,0,0,161,0,0,0,76,78,140,120,82,126.09,40,66.00,-72.00,-1011.00
2024-06-07 01:35:36.077406,0,0,167,0,0,0,76,78,139,120,82,126.12,40,-12.00,27.00,-1047.00
2024-06-07 01:35:36.103009,0,0,173,0,0,0,76,78,138,120,82,126.12,40,-10.00,-1.00,-996.00
2024-06-07 01:35:36.231893,0,0,179,0,0,0,76,78,138,120,82,126.16,41,-18.00,36.00,-952.00
2024-06-07 01:35:36.306569,0,0,-174,0,0,0,76,78,137,120,82,126.17,41,-89.00,17.00,-1046.00
2024-06-07 01:35:36.476144,0,0,-168,0,0,0,76,79,136,120,82,126.11,41,41.00,-7.00,-1162.00
2024-06-07 01:35:36.510528,0,0,-162,0,0,0,76,79,135,110,82,126.19,41,26.00,-18.00,-1012.00
2024-06-07 01:35:36.612518,0,0,-155,0,0,0,76,79,135,110,82,126.09,41,-32.00,18.00,-1029.00
2024-06-07 01:35:36.714595,0,0,-149,0,0,0,76,79,134,110,82,126.17,41,28.00,-10.00,-1028.00
2024-06-07 01:35:36.885695,0,0,-143,0,0,0,76,79,135,110,82,126.13,41,9.00,2.00,-1048.00
2024-06-07 01:35:36.919352,0,0,-137,0,0,0,76,79,134,110,82,126.10,41,-56.00,-1.00,-994.00
2024-06-07 01:35:37.090626,0,0,-131,0,0,0,76,79,134,110,82,126.09,41,2.00,1.00,-1007.00
2024-06-07 01:35:37.123001,0,0,-125,0,0,0,76,79,135,110,82,126.13,41,38.00,-48.00,-1014.00
2024-06-07 01:35:37.295276,0,0,-119,0,0,0,76,79,135,110,82,126.12,42,24.00,-43.00,-978.00
2024-06-07 01:35:37.331944,0,0,-113,0,0,0,76,79,135,110,82,126.16,42,11.00,-37.00,-1004.00
2024-06-07 01:35:37.429668,0,0,-107,0,0,0,76,79,136,110,82,126.21,42,-18.00,-22.00,-934.00
2024-06-07 01:35:37.602454,0,0,-101,0,0,0,76,79,137,120,82,126.15,42,-80.00,48.00,-882.00
2024-06-07 01:35:37.634677,0,0,-95,0,0,0,76,79,138,120,82,126.12,42,-6.00,-3.00,-946.00
2024-06-07 01:35:37.807874,0,0,-89,0,0,0,76,79,139,120,82,126.10,42,40.00,-51.00,-977.00
2024-06-07 01:35:37.837418,0,0,-83,0,0,0,76,79,139,120,82,126.15,42,86.00,-51.00,-1007.00
2024-06-07 01:35:38.012039,0,0,-77,0,0,0,76,79,139,120,82,126.11,42,-79.00,34.00,-946.00
2024-06-07 01:35:38.041421,0,0,-71,0,0,0,76,79,140,120,82,126.15,42,-83.00,22.00,-1116.00
2024-06-07 01:35:38.216832,0,0,-65,0,0,0,76,79,140,120,82,126.19,42,25.00,-27.00,-960.00
2024-06-07 01:35:38.245380,0,0,-58,0,0,0,76,79,140,120,82,126.15,43,33.00,-11.00,-893.00
2024-06-07 01:35:38.296675,0,0,-52,0,0,0,76,79,139,120,82,126.12,43,9.00,6.00,-1084.00
2024-06-07 01:35:38.449377,0,0,-46,0,0,0,76,79,139,120,82,126.19,43,-22.00,-13.00,-959.00
2024-06-07 01:35:38.500393,0,0,-40,0,0,0,76,79,139,120,82,126.21,43,-24.00,5.00,-914.00
2024-06-07 01:35:38.628407,0,0,-34,0,0,0,76,79,139,120,82,126.09,43,61.00,-2.00,-952.00
2024-06-07 01:35:38.704347,0,0,-28,0,0,0,76,79,139,120,82,126.11,43,-22.00,-19.00,-995.00
2024-06-07 01:35:38.831385,0,0,-22,0,0,0,76,79,139,120,82,126.11,43,27.00,4.00,-956.00
2024-06-07 01:35:38.908314,0,0,-16,0,0,0,76,79,139,120,82,126.21,43,38.00,-31.00,-1033.00
2024-06-07 01:35:39.036038,0,0,-10,0,0,0,76,79,139,120,82,126.19,43,-10.00,19.00,-1031.00
2024-06-07 01:35:39.112536,0,0,-4,0,0,0,76,79,140,120,82,126.20,43,70.00,-21.00,-969.00
2024-06-07 01:35:39.214287,0,0,1,0,0,0,76,79,140,120,82,126.18,44,-35.00,31.00,-1035.00
2024-06-07 01:35:39.344478,0,0,7,0,0,0,76,79,140,120,82,126.14,44,3.00,20.00,-847.00
2024-06-07 01:35:39.418661,0,0,13,0,0,0,76,78,139,120,82,126.21,44,17.00,-5.00,-1074.00
2024-06-07 01:35:39.520274,0,0,19,0,0,0,76,78,139,120,82,126.23,44,9.00,-2.00,-971.00
2024-06-07 01:35:39.650374,0,0,25,0,0,0,76,78,140,120,82,126.14,44,-22.00,10.00,-1062.00
2024-06-07 01:35:39.724504,0,0,31,0,0,0,76,78,138,120,82,126.12,44,-53.00,21.00,-930.00
2024-06-07 01:35:39.855613,0,0,37,0,0,0,76,78,138,120,82,126.13,44,-50.00,49.00,-1008.00
2024-06-07 01:35:39.928565,0,0,43,0,0,0,76,78,137,120,82,126.09,44,71.00,-22.00,-1015.00
2024-06-07 01:35:40.059964,0,0,47,0,0,0,76,78,135,120,82,126.21,44,-5.00,21.00,-947.00
2024-06-07 01:35:40.132227,0,0,50,0,0,0,76,78,135,120,82,126.10,44,-47.00,35.00,-928.00
2024-06-07 01:35:40.234854,0,0,52,0,0,0,76,78,134,120,82,126.13,45,3.00,-3.00,-1124.00
2024-06-07 01:35:40.336201,0,0,54,0,0,0,76,78,133,110,82,126.12,45,-23.00,-5.00,-1013.00
2024-06-07 01:35:40.469591,0,0,56,0,0,0,76,79,133,110,82,126.13,45,43.00,-27.00,-977.00
2024-06-07 01:35:40.540093,0,0,57,0,0,0,76,79,132,110,82,126.13,45,-72.00,43.00,-1082.00
2024-06-07 01:35:40.674311,0,0,57,0,0,0,76,79,133,110,82,126.05,45,-53.00,-2.00,-1004.00
2024-06-07 01:35:40.744215,0,0,58,0,0,0,76,79,132,110,82,126.08,45,-31.00,35.00,-1023.00
2024-06-07 01:35:40.846394,0,0,58,0,0,0,76,79,132,110,82,126.10,45,58.00,-40.00,-1098.00
2024-06-07 01:35:40.982094,0,0,58,0,0,0,76,79,132,110,82,126.07,45,12.00,-8.00,-1032.00
2024-06-07 01:35:41.050344,0,0,58,0,0,0,76,79,133,110,82,126.11,45,-34.00,4.00,-1055.00
2024-06-07 01:35:41.186454,0,0,58,0,0,0,76,79,133,110,82,126.09,45,-54.00,23.00,-945.00
2024-06-07 01:35:41.254313,0,0,58,0,0,0,76,79,133,110,82,126.18,46,-59.00,12.00,-887.00
2024-06-07 01:35:41.391345,0,0,58,0,0,0,76,79,134,110,81,126.16,46,-17.00,22.00,-1027.00
2024-06-07 01:35:41.458368,0,0,58,0,0,0,76,78,133,110,81,126.19,46,-91.00,46.00,-1076.00
2024-06-07 01:35:41.596164,0,0,58,0,0,0,76,78,133,110,81,126.09,46,-68.00,42.00,-1023.00
2024-06-07 01:35:41.662659,0,0,58,0,0,0,76,78,134,110,81,126.14,46,58.00,-8.00,-1019.00
2024-06-07 01:35:41.764273,0,0,58,0,0,0,76,78,135,110,81,126.11,46,30.00,-30.00,-988.00
2024-06-07 01:35:41.866379,0,0,58,0,0,0,76,78,135,110,81,126.12,46,-43.00,3.00,-962.00
2024-06-07 01:35:41.968323,0,0,58,0,0,0,76,78,135,120,81,126.11,46,-21.00,35.00,-898.00
2024-06-07 01:35:42.109541,0,0,58,0,0,0,76,78,135,120,81,126.16,46,-20.00,0.00,-857.00
2024-06-07 01:35:42.121126,0,0,58,0,0,0,76,78,136,120,81,126.11,46,-2.00,-35.00,-961.00
2024-06-07 01:35:42.223211,0,0,58,0,0,0,76,78,135,120,81,126.13,47,51.00,-45.00,-993.00
2024-06-07 01:35:42.416314,0,0,58,0,0,0,76,78,134,120,81,126.16,47,12.00,27.00,-1037.00
2024-06-07 01:35:42.480448,0,0,58,0,0,0,76,78,134,120,81,126.07,47,-39.00,22.00,-1001.00
2024-06-07 01:35:42.580177,0,0,58,0,0,0,76,78,134,110,81,126.10,47,-72.00,23.00,-1010.00
2024-06-07 01:35:42.682554,0,0,58,0,0,0,76,78,133,110,81,126.11,47,23.00,-11.00,-1124.00
2024-06-07 01:35:42.733245,0,0,58,0,0,0,76,78,132,110,81,126.08,47,18.00,-1.00,-1254.00
2024-06-07 01:35:42.835013,0,0,58,0,0,0,76,78,132,110,81,126.12,47,8.00,-43.00,-1018.00
2024-06-07 01:35:42.936955,0,0,58,0,0,0,76,78,132,110,81,126.11,47,2.00,-8.00,-980.00
2024-06-07 01:35:43.038962,0,0,52,0,0,0,76,78,131,110,81,126.12,47,67.00,-24.00,-1084.00
2024-06-07 01:35:43.140988,0,0,46,0,0,0,76,78,131,110,81,126.13,47,20.00,-30.00,-1125.00
2024-06-07 01:35:43.242939,0,0,40,0,0,0,76,78,131,110,81,126.06,48,11.00,-5.00,-1013.00
2024-06-07 01:35:43.438970,0,0,34,0,0,0,76,78,132,110,81,126.16,48,-52.00,13.00,-1109.00
2024-06-07 01:35:43.446890,0,0,28,0,0,0,76,79,132,110,81,126.18,48,80.00,-42.00,-1002.00
2024-06-07 01:35:43.646600,0,0,22,0,0,0,76,79,132,110,81,126.05,48,51.00,-11.00,-1098.00
2024-06-07 01:35:43.650983,0,0,16,0,0,0,76,79,132,110,81,126.19,48,-22.00,-11.00,-968.00
2024-06-07 01:35:43.849150,0,0,10,0,0,0,76,79,133,110,81,126.16,48,30.00,3.00,-1102.00
2024-06-07 01:35:43.854809,0,0,4,0,0,0,76,79,132,110,81,126.18,48,8.00,-24.00,-960.00
2024-06-07 01:35:44.053521,0,0,-1,0,0,0,76,79,133,110,81,126.10,48,-1.00,6.00,-1025.00
2024-06-07 01:35:44.058884,0,0,-7,0,0,0,76,79,133,110,81,126.12,48,-31.00,28.00,-989.00
2024-06-07 01:35:44.261805,0,0,-13,0,0,0,76,79,133,110,81,126.16,48,9.00,-37.00,-1092.00
2024-06-07 01:35:44.262897,0,0,-19,0,0,0,76,79,133,110,81,126.21,49,-56.00,46.00,-900.00
2024-06-07 01:35:44.462928,0,0,-25,0,0,0,76,79,133,110,81,126.15,49,77.00,-11.00,-1000.00
2024-06-07 01:35:44.466902,0,0,-31,0,0,0,77,78,132,110,81,126.14,49,-39.00,53.00,-1007.00
2024-06-07 01:35:44.667718,0,0,-37,0,0,0,77,78,133,110,81,126.18,49,8.00,-7.00,-1016.00
2024-06-07 01:35:44.671489,0,0,-43,0,0,0,77,78,132,110,81,126.17,49,19.00,-7.00,-975.00
2024-06-07 01:35:44.773277,0,0,-49,0,0,0,77,78,133,110,81,126.17,49,39.00,-15.00,-1196.00
2024-06-07 01:35:44.874775,0,0,-55,0,0,0,77,78,132,110,81,126.15,49,-48.00,9.00,-1035.00
2024-06-07 01:35:44.976784,0,0,-61,0,0,0,77,78,133,110,81,126.19,49,-27.00,21.00,-1107.00
2024-06-07 01:35:45.179707,0,0,-67,0,0,0,77,78,132,110,81,126.12,49,-21.00,11.00,-990.00
2024-06-07 01:35:45.180793,0,0,-73,0,0,0,77,78,133,110,81,126.15,49,42.00,8.00,-972.00
2024-06-07 01:35:45.283170,0,0,-79,0,0,0,77,78,133,110,81,126.13,50,-33.00,27.00,-1050.00
2024-06-07 01:35:45.385823,0,0,-85,0,0,0,77,78,132,110,81,126.14,50,-46.00,15.00,-1033.00
2024-06-07 01:35:45.488451,0,0,-91,0,0,0,76,78,133,110,81,126.17,50,17.00,-19.00,-967.00
2024-06-07 01:35:45.591002,0,0,-97,0,0,0,76,78,133,110,81,126.15,50,-17.00,-9.00,-876.00
2024-06-07 01:35:45.691861,1,0,-103,0,0,0,76,78,133,110,81,126.12,50,4.00,-17.00,-1087.00
2024-06-07 01:35:45.794120,0,0,-109,0,0,0,76,78,133,110,81,126.10,50,-2.00,-28.00,-977.00
2024-06-07 01:35:45.896457,0,0,-115,0,0,0,76,78,132,110,81,126.05,50,52.00,-4.00,-954.00
2024-06-07 01:35:45.996952,0,0,-121,0,0,0,76,78,133,110,81,126.10,50,-41.00,35.00,-1059.00
2024-06-07 01:35:46.098814,0,0,-127,0,0,0,76,78,132,110,81,126.07,50,-8.00,6.00,-894.00
2024-06-07 01:35:46.200717,0,0,-133,0,0,0,76,78,132,110,81,126.16,50,48.00,-18.00,-959.00
2024-06-07 01:35:46.305984,0,0,-139,0,0,0,76,78,132,110,81,126.12,51,-54.00,56.00,-1077.00
2024-06-07 01:35:46.353679,0,0,-145,0,0,0,76,78,132,110,81,126.22,51,82.00,-39.00,-983.00
2024-06-07 01:35:46.510840,0,0,-151,0,0,0,75,78,133,110,81,126.15,51,54.00,-17.00,-1069.00
2024-06-07 01:35:46.557715,0,0,-157,0,0,0,75,78,132,110,81,126.06,51,-48.00,27.00,-1039.00
2024-06-07 01:35:46.716264,0,0,-163,0,0,0,75,78,133,110,81,126.09,51,-9.00,11.00,-825.00
2024-06-07 01:35:46.761827,0,0,-169,0,0,0,75,78,133,110,81,126.17,51,89.00,-9.00,-1063.00
2024-06-07 01:35:46.920439,0,0,-175,0,0,0,75,78,133,110,81,126.11,51,47.00,-14.00,-1094.00
2024-06-07 01:35:46.965618,0,0,178,0,0,0,75,78,134,110,81,126.10,51,-8.00,4.00,-945.00
2024-06-07 01:35:47.067614,0,0,172,0,0,0,75,78,134,110,81,126.16,51,-39.00,57.00,-1003.00
2024-06-07 01:35:47.227775,0,0,166,0,0,0,75,78,135,110,81,126.12,51,-88.00,41.00,-900.00
2024-06-07 01:35:47.271569,0,0,160,0,0,0,75,78,136,120,81,126.11,52,38.00,-9.00,-958.00
2024-06-07 01:35:47.432412,0,0,154,0,0,0,75,78,135,120,81,126.09,52,-21.00,15.00,-1058.00
2024-06-07 01:35:47.475556,0,0,148,0,0,0,77,79,136,120,81,126.15,52,50.00,3.00,-929.00
2024-06-07 01:35:47.637187,0,0,142,0,0,0,77,79,135,120,81,126.14,52,34.00,-50.00,-1145.00
2024-06-07 01:35:47.679533,0,0,136,0,0,0,77,79,137,120,81,126.11,52,20.00,13.00,-983.00
2024-06-07 01:35:47.786897,0,0,130,0,0,0,77,79,137,120,81,126.15,52,-117.00,47.00,-997.00
2024-06-07 01:35:47.884627,0,0,123,0,0,0,77,79,137,120,81,126.13,52,-6.00,14.00,-1004.00
2024-06-07 01:35:47.987099,0,0,117,0,0,0,77,79,137,120,81,126.16,52,-63.00,18.00,-1018.00
2024-06-07 01:35:48.087646,0,0,111,0,0,0,77,79,137,120,81,126.09,52,62.00,-16.00,-1138.00
2024-06-07 01:35:48.191954,0,0,105,0,0,0,77,79,137,120,81,126.15,52,-73.00,25.00,-1077.00
2024-06-07 01:35:48.291507,0,0,99,0,0,0,77,79,138,120,81,126.14,53,-80.00,89.00,-942.00
2024-06-07 01:35:48.393500,0,0,93,0,0,0,77,79,137,120,81,126.14,53,-6.00,-3.00,-990.00
2024-06-07 01:35:48.495426,0,0,81,0,0,0,77,79,136,120,81,126.12,53,86.00,-28.00,-1134.00
2024-06-07 01:35:48.597478,0,0,76,0,0,0,77,79,137,120,81,126.13,53,33.00,-16.00,-1045.00
2024-06-07 01:35:48.699469,0,0,71,0,0,0,77,79,136,120,81,126.12,53,26.00,23.00,-1026.00
2024-06-07 01:35:48.801638,0,0,68,0,0,0,77,79,135,120,81,126.16,53,-5.00,30.00,-1080.00
2024-06-07 01:35:48.968328,0,0,66,0,0,0,77,79,134,120,81,126.14,53,-30.00,-23.00,-1082.00
2024-06-07 01:35:49.111414,0,0,64,0,0,0,77,79,135,110,81,126.01,53,-57.00,46.00,-997.00
2024-06-07 01:35:49.111691,0,0,63,0,0,0,77,79,135,110,81,126.16,53,-81.00,18.00,-941.00
2024-06-07 01:35:49.288535,0,0,62,0,0,0,77,79,136,110,81,126.08,54,-57.00,44.00,-1083.00
2024-06-07 01:35:49.311396,0,0,61,0,0,0,77,79,135,110,81,126.11,54,3.00,-31.00,-894.00
2024-06-07 01:35:49.413371,0,0,60,0,0,0,77,79,135,110,81,126.14,54,-26.00,-30.00,-952.00
2024-06-07 01:35:49.585445,0,0,60,0,0,0,76,79,136,110,81,126.14,54,-82.00,23.00,-900.00
2024-06-07 01:35:49.634026,0,0,60,0,0,0,76,79,137,120,81,126.17,54,-23.00,-26.00,-965.00
2024-06-07 01:35:49.746906,0,0,60,0,0,0,76,79,139,120,81,126.16,54,-50.00,-4.00,-903.00
2024-06-07 01:35:49.992877,0,0,60,0,0,0,76,79,139,120,81,126.17,54,-51.00,45.00,-1070.00
2024-06-07 01:35:49.993039,0,0,60,0,0,0,76,79,140,120,81,126.18,54,-51.00,4.00,-1046.00
2024-06-07 01:35:50.066231,0,0,60,0,0,0,76,79,140,120,81,126.16,54,-20.00,-1.00,-924.00
2024-06-07 01:35:50.128244,0,0,60,0,0,0,76,79,140,120,81,126.12,54,-46.00,25.00,-868.00
2024-06-07 01:35:50.317421,0,0,60,0,0,0,76,79,139,120,81,126.14,55,-59.00,21.00,-936.00
2024-06-07 01:35:50.317584,0,0,60,0,0,0,76,79,139,120,81,126.14,55,-11.00,3.00,-1058.00
2024-06-07 01:35:50.382685,0,0,60,0,0,0,76,79,139,120,80,126.17,55,-56.00,11.00,-960.00
2024-06-07 01:35:50.709971,0,0,60,0,0,0,76,79,137,120,80,126.08,55,87.00,-15.00,-1049.00
2024-06-07 01:35:50.824508,0,0,60,0,0,0,76,79,136,120,80,126.22,55,-86.00,32.00,-979.00
2024-06-07 01:35:50.824692,0,0,60,0,0,0,76,79,135,120,80,126.13,55,83.00,-48.00,-978.00
2024-06-07 01:35:50.827224,0,0,60,0,0,0,76,79,135,120,80,126.15,55,0.00,-31.00,-1106.00
2024-06-07 01:35:50.966050,0,0,60,0,0,0,76,79,135,120,80,126.09,55,-62.00,16.00,-1068.00
2024-06-07 01:35:50.994438,0,0,60,0,0,0,76,79,134,110,80,126.14,55,43.00,-23.00,-948.00
2024-06-07 01:35:51.129723,0,0,60,0,0,0,76,79,134,110,80,126.13,55,-11.00,0.00,-1018.00
2024-06-07 01:35:51.273258,0,0,60,0,0,0,76,79,134,110,80,126.10,56,9.00,-17.00,-979.00
2024-06-07 01:35:51.300433,0,0,60,0,0,0,76,79,134,110,80,126.12,56,-2.00,-6.00,-935.00
2024-06-07 01:35:51.436727,0,0,60,0,0,0,76,79,134,110,80,126.13,56,-6.00,-6.00,-1043.00
2024-06-07 01:35:51.504177,0,0,60,0,0,0,77,78,134,110,80,126.13,56,-14.00,-19.00,-921.00
2024-06-07 01:35:51.630600,0,0,60,0,0,-2,77,78,136,120,80,126.28,56,-131.00,42.00,-1668.00
2024-06-07 01:35:51.708210,0,-3,60,0,0,-9,77,78,143,120,80,126.29,56,51.00,151.00,-1577.00
2024-06-07 01:35:51.835372,0,-70,60,3,-1,-12,77,78,405,130,80,126.43,56,-2.00,506.00,-981.00
2024-06-07 01:35:51.912185,0,168,60,9,-5,0,77,78,174,140,80,126.50,56,-70.00,649.00,-887.00
2024-06-07 01:35:52.040186,0,49,60,5,-3,12,77,78,201,130,80,126.67,56,-28.00,445.00,-1223.00
2024-06-07 01:35:52.116207,1,-7,60,3,-1,11,77,78,141,120,80,126.16,56,-65.00,-158.00,-1541.00
2024-06-07 01:35:52.218173,0,0,60,4,-2,8,77,78,129,110,80,126.22,57,-15.00,31.00,-1403.00
2024-06-07 01:35:52.347370,0,4,60,3,-2,4,77,78,124,110,80,126.15,57,-14.00,39.00,-1332.00
2024-06-07 01:35:52.422806,0,3,60,2,-1,0,77,78,122,100,80,125.98,57,-15.00,0.00,-1214.00
2024-06-07 01:35:52.553359,0,2,60,2,-1,0,77,79,122,100,80,126.05,57,-24.00,16.00,-1131.00
2024-06-07 01:35:52.626178,0,1,60,1,-1,-1,77,79,122,100,80,126.03,57,-37.00,19.00,-1150.00
2024-06-07 01:35:52.731859,0,1,60,1,0,-1,77,79,123,100,80,126.02,57,-1.00,1.00,-1000.00
2024-06-07 01:35:52.832082,0,0,60,0,0,-1,77,79,124,100,80,126.02,57,-11.00,32.00,-1089.00
2024-06-07 01:35:52.932090,0,0,60,0,0,-1,77,79,124,110,80,125.99,57,-5.00,-5.00,-944.00
2024-06-07 01:35:53.034013,0,1,60,0,0,0,77,79,126,110,80,126.06,57,-32.00,3.00,-975.00
2024-06-07 01:35:53.136067,0,2,60,0,0,0,77,79,127,110,80,126.07,57,-56.00,14.00,-970.00
2024-06-07 01:35:53.243871,0,1,60,0,0,-1,77,79,127,110,80,126.09,58,5.00,-15.00,-906.00
2024-06-07 01:35:53.340052,0,0,60,0,0,0,77,79,127,110,80,126.05,58,19.00,-3.00,-946.00
2024-06-07 01:35:53.442002,0,0,60,0,0,0,77,79,127,110,80,125.98,58,-74.00,28.00,-1007.00
2024-06-07 01:35:53.580135,0,0,60,0,0,0,76,79,126,110,80,126.01,58,59.00,-57.00,-1152.00
2024-06-07 01:35:53.646354,0,0,60,0,0,0,76,79,126,110,80,126.06,58,-63.00,25.00,-1013.00
2024-06-07 01:35:53.749158,0,1,60,0,0,0,76,79,126,110,80,125.98,58,27.00,-30.00,-1019.00
2024-06-07 01:35:53.850212,0,1,60,0,0,0,76,79,127,110,80,126.03,58,65.00,12.00,-956.00
2024-06-07 01:35:53.952284,0,1,60,0,0,0,76,79,126,110,80,125.99,58,-66.00,13.00,-1085.00
2024-06-07 01:35:54.088087,0,1,60,0,0,0,76,79,126,110,80,126.00,58,-18.00,0.00,-941.00
2024-06-07 01:35:54.156136,0,1,60,0,0,0,76,79,127,110,80,126.03,58,37.00,-28.00,-1043.00
2024-06-07 01:35:54.261770,0,1,60,0,0,0,76,79,128,110,80,126.08,59,-16.00,35.00,-782.00
2024-06-07 01:35:54.308948,0,0,60,0,0,0,76,79,128,110,79,126.04,59,41.00,-40.00,-968.00
2024-06-07 01:35:54.497668,0,0,60,0,0,0,76,79,128,110,79,126.07,59,15.00,-36.00,-1032.00
2024-06-07 01:35:54.563942,0,0,60,0,0,0,76,79,129,110,79,126.07,59,14.00,-16.00,-1111.00
2024-06-07 01:35:54.615076,0,0,60,0,0,0,76,79,129,110,79,126.17,59,0.00,-16.00,-910.00
2024-06-07 01:35:54.717014,0,0,60,0,0,0,76,79,129,110,79,126.06,59,18.00,-18.00,-1136.00
2024-06-07 01:35:54.907405,0,0,60,0,0,0,76,79,129,110,79,126.07,59,-109.00,53.00,-905.00
2024-06-07 01:35:54.921414,0,0,60,0,0,0,76,79,129,110,79,126.15,59,47.00,-16.00,-913.00
2024-06-07 01:35:55.023171,0,0,60,0,0,0,76,79,129,110,79,126.07,59,23.00,-16.00,-1113.00
2024-06-07 01:35:55.214669,0,0,60,0,0,0,76,79,130,110,79,126.10,59,21.00,-30.00,-889.00
2024-06-07 01:35:55.227500,0,0,60,0,0,0,76,79,131,110,79,126.12,60,-6.00,28.00,-1009.00
2024-06-07 01:35:55.419833,0,0,60,0,0,0,76,79,131,110,79,126.10,60,-3.00,10.00,-987.00
2024-06-07 01:35:55.431944,0,0,60,0,0,0,76,79,131,110,79,126.16,60,-4.00,-9.00,-1018.00
2024-06-07 01:35:55.624241,0,0,60,0,0,0,77,78,131,110,79,126.12,60,0.00,17.00,-1074.00
2024-06-07 01:35:55.636425,0,0,60,0,0,0,77,78,130,110,79,126.03,60,-51.00,10.00,-1010.00
2024-06-07 01:35:55.737353,0,0,60,0,0,0,77,78,130,110,79,126.07,60,41.00,-25.00,-1129.00
2024-06-07 01:35:55.839107,0,0,60,0,0,0,77,78,131,110,79,126.16,60,-24.00,-12.00,-965.00
2024-06-07 01:35:55.941490,0,0,60,0,0,0,77,78,131,110,79,126.09,60,-7.00,-16.00,-935.00
2024-06-07 01:35:56.043291,0,0,60,0,0,0,77,78,130,110,79,126.11,60,-32.00,-5.00,-1070.00
2024-06-07 01:35:56.238780,0,0,60,0,0,0,77,78,131,110,79,126.11,60,-43.00,11.00,-980.00
2024-06-07 01:35:56.247149,0,0,60,0,0,0,77,78,130,110,79,126.03,61,-3.00,0.00,-948.00
2024-06-07 01:35:56.443779,0,0,60,0,0,0,77,78,130,110,79,126.09,61,27.00,-21.00,-925.00
2024-06-07 01:35:56.451000,0,0,60,0,0,0,77,78,130,110,79,126.09,61,49.00,-29.00,-970.00
2024-06-07 01:35:56.648154,0,0,60,0,0,0,77,78,130,110,79,126.10,61,36.00,-40.00,-1169.00
2024-06-07 01:35:56.655599,0,0,60,0,0,0,77,78,130,110,79,126.13,61,67.00,-51.00,-1005.00
2024-06-07 01:35:56.853163,0,0,60,0,0,0,77,78,130,110,79,126.05,61,-26.00,-20.00,-1046.00
2024-06-07 01:35:56.859130,0,0,60,0,0,0,77,78,131,110,79,126.09,61,-21.00,-4.00,-1031.00
2024-06-07 01:35:57.057818,0,0,60,0,0,0,77,78,130,110,79,126.08,61,5.00,-31.00,-947.00
2024-06-07 01:35:57.062984,0,0,60,0,0,0,77,78,131,110,79,126.09,61,-35.00,-7.00,-1063.00
2024-06-07 01:35:57.262568,0,0,60,0,0,0,77,78,130,110,79,126.17,61,68.00,-42.00,-1056.00
2024-06-07 01:35:57.267713,0,0,60,0,0,0,77,78,130,110,79,126.14,62,65.00,-59.00,-1018.00
2024-06-07 01:35:57.467684,0,0,60,0,0,0,77,78,130,110,79,126.14,62,-5.00,-36.00,-1076.00
2024-06-07 01:35:57.471107,0,0,60,0,0,0,77,78,130,110,79,126.16,62,7.00,7.00,-1103.00
2024-06-07 01:35:57.572816,0,0,60,0,0,0,77,79,131,110,79,126.09,62,-58.00,19.00,-938.00
2024-06-07 01:35:57.674833,0,0,60,0,0,0,77,79,131,110,79,126.07,62,23.00,2.00,-1000.00
2024-06-07 01:35:57.776952,0,0,60,0,0,0,77,79,131,110,79,126.16,62,-16.00,-21.00,-981.00
2024-06-07 01:35:57.878812,0,0,60,0,0,0,77,79,131,110,79,126.17,62,-47.00,34.00,-1104.00
2024-06-07 01:35:57.980806,0,0,60,0,0,0,77,79,131,110,79,126.18,62,-15.00,15.00,-960.00
2024-06-07 01:35:58.189558,0,0,60,0,0,0,77,79,132,110,79,126.18,62,8.00,-5.00,-954.00
2024-06-07 01:35:58.189629,0,0,60,0,0,0,77,79,133,110,79,126.22,62,15.00,339.00,-1608.00
2024-06-07 01:35:58.289977,0,0,61,-1,0,-5,77,79,142,110,79,126.25,63,-47.00,2.00,-1764.00
2024-06-07 01:35:58.337672,0,21,62,-1,0,-11,77,79,149,120,79,126.45,63,25.00,250.00,-1557.00
2024-06-07 01:35:58.439608,-2,124,59,-8,4,-9,77,79,174,130,79,126.56,63,148.00,879.00,-1033.00
2024-06-07 01:35:58.594559,5,-108,59,-8,5,6,77,79,221,130,79,126.60,63,21.00,820.00,-1055.00
2024-06-07 01:35:58.695782,0,-7,66,-3,1,11,77,79,140,120,79,126.17,63,67.00,165.00,-824.00
2024-06-07 01:35:58.746703,0,2,65,-3,2,9,77,79,131,110,79,125.99,63,-53.00,56.00,-1374.00
2024-06-07 01:35:58.904085,0,-3,63,-3,2,5,77,79,126,100,79,126.07,63,-15.00,8.00,-1267.00
2024-06-07 01:35:58.951694,0,-3,60,-3,1,2,77,79,124,100,79,126.13,63,29.00,-8.00,-1180.00
2024-06-07 01:35:59.053947,0,-2,60,-2,1,0,77,79,124,100,79,126.05,63,-5.00,6.00,-1141.00
2024-06-07 01:35:59.153549,0,-1,60,-2,1,0,77,79,124,100,79,126.01,63,29.00,-3.00,-1047.00
2024-06-07 01:35:59.255557,0,-1,60,-1,0,-1,77,79,125,100,79,126.07,64,14.00,-7.00,-979.00
2024-06-07 01:35:59.412957,0,0,60,-1,0,-1,77,79,127,100,79,126.05,64,23.00,-16.00,-1001.00
2024-06-07 01:35:59.459563,-1,0,60,-1,0,-1,77,79,127,100,79,126.14,64,-46.00,-17.00,-988.00
2024-06-07 01:35:59.617402,-1,0,60,-1,0,-1,77,79,128,100,79,126.14,64,17.00,-1.00,-964.00
2024-06-07 01:35:59.663511,-1,-3,60,-1,0,0,77,79,128,100,79,126.16,64,-86.00,25.00,-918.00
2024-06-07 01:35:59.822168,-1,-2,60,0,0,0,77,79,128,100,79,126.10,64,76.00,-60.00,-1003.00
2024-06-07 01:35:59.867472,-1,-2,60,0,0,0,77,79,128,100,79,126.02,64,14.00,-35.00,-1066.00
2024-06-07 01:35:59.970237,-1,-1,60,0,0,0,77,79,127,100,79,126.06,64,-102.00,57.00,-1018.00
2024-06-07 01:36:00.072092,0,0,60,0,0,0,77,79,127,100,79,126.04,64,-63.00,19.00,-980.00
