TS,pitch,roll,yaw,vgx,vgy,vgz,templ,temph,tof,h,bat,baro,time,agx,agy,agz
2024-06-07 01:36:39.551760,0,0,57,0,0,0,80,82,10,0,76,124.73,87,-4.00,0.00,-1000.00
2024-06-07 01:36:39.595209,0,0,57,0,0,0,80,82,10,0,76,124.77,87,-4.00,0.00,-1000.00
2024-06-07 01:36:39.758288,0,0,57,0,0,0,80,82,10,0,76,124.69,87,-5.00,0.00,-999.00
2024-06-07 01:36:39.799071,0,0,57,0,0,0,80,82,10,0,76,124.71,87,-4.00,1.00,-997.00
2024-06-07 01:36:39.961164,0,0,57,0,0,0,80,82,10,0,76,124.68,87,-3.00,0.00,-998.00
2024-06-07 01:36:40.002787,0,0,57,0,0,0,80,82,10,0,76,124.73,87,-5.00,0.00,-1001.00
2024-06-07 01:36:40.166089,0,0,57,0,0,0,80,82,10,0,76,124.64,87,-5.00,0.00,-1003.00
2024-06-07 01:36:40.206896,0,0,57,0,0,0,80,82,10,0,76,124.72,87,-4.00,0.00,-999.00
2024-06-07 01:36:40.370792,0,0,57,0,0,0,80,82,10,0,76,124.71,87,-4.00,1.00,-999.00
2024-06-07 01:36:40.410982,0,0,57,0,0,0,80,82,10,0,76,124.69,87,-4.00,1.00,-1001.00
2024-06-07 01:36:40.513204,0,0,57,0,0,0,80,82,10,0,76,124.67,87,-3.00,0.00,-1002.00
2024-06-07 01:36:40.678062,0,0,57,0,0,0,80,82,10,0,76,124.72,87,-3.00,0.00,-999.00
2024-06-07 01:36:40.717144,0,0,57,0,0,0,80,82,10,0,76,124.68,87,-5.00,1.00,-1002.00
2024-06-07 01:36:40.882845,0,0,57,0,0,0,80,83,10,0,76,124.70,87,-4.00,0.00,-1002.00
2024-06-07 01:36:40.921108,0,0,57,0,0,0,80,83,10,0,76,124.69,87,-5.00,0.00,-1001.00
2024-06-07 01:36:41.087711,0,0,57,0,0,0,80,83,10,0,76,124.72,87,-4.00,2.00,-1001.00
2024-06-07 01:36:41.124996,0,0,57,0,0,0,80,83,10,0,76,124.73,87,-3.00,0.00,-998.00
2024-06-07 01:36:41.292724,0,0,57,0,0,0,80,83,10,0,76,124.68,87,-2.00,0.00,-1001.00
2024-06-07 01:36:41.329145,0,0,57,0,0,0,80,83,10,0,76,124.74,87,-6.00,0.00,-1000.00
2024-06-07 01:36:41.497227,0,0,57,0,0,0,80,83,10,0,76,124.74,87,-5.00,0.00,-1001.00
2024-06-07 01:36:41.534531,0,0,57,0,0,0,80,83,10,0,76,124.72,87,-3.00,0.00,-1000.00
2024-06-07 01:36:41.635747,0,0,57,0,0,0,80,83,10,0,76,124.77,87,-5.00,1.00,-999.00
2024-06-07 01:36:41.804253,0,0,57,0,0,0,80,83,10,0,76,124.70,87,-10.00,1.00,-999.00
2024-06-07 01:36:41.839725,0,0,57,0,0,0,81,82,10,0,76,124.70,87,-9.00,1.00,-1006.00
2024-06-07 01:36:42.008991,0,0,58,0,0,0,81,82,10,0,76,124.70,87,-13.00,-15.00,-991.00
2024-06-07 01:36:42.009143,0,0,60,0,0,0,81,82,10,0,76,124.70,87,22.00,-35.00,-1023.00
2024-06-07 01:36:42.095707,0,0,62,0,0,0,81,82,10,0,76,124.70,87,-63.00,41.00,-950.00
2024-06-07 01:36:42.214684,0,-1,62,0,0,0,81,82,10,0,76,124.70,87,-57.00,48.00,-1127.00
2024-06-07 01:36:42.302249,0,-1,62,0,0,-1,81,82,10,0,76,124.70,88,44.00,-5.00,-1182.00
2024-06-07 01:36:42.400641,0,1,62,0,0,-4,81,82,10,0,76,124.70,88,64.00,2.00,-1342.00
2024-06-07 01:36:42.521013,0,0,62,0,0,-6,81,82,18,0,76,124.70,88,-2.00,-3.00,-1218.00
2024-06-07 01:36:42.604655,0,0,62,0,0,-7,81,82,27,0,76,125.06,88,4.00,-46.00,-1140.00
2024-06-07 01:36:42.707449,0,0,62,0,0,-7,81,82,32,10,76,125.11,88,-64.00,54.00,-1172.00
2024-06-07 01:36:42.830255,0,0,62,0,0,-7,81,83,41,10,76,125.25,88,63.00,-40.00,-902.00
2024-06-07 01:36:42.910514,0,0,62,0,0,-7,81,83,50,20,76,125.34,88,2.00,-4.00,-969.00
2024-06-07 01:36:43.033505,0,0,62,0,0,-6,81,83,57,30,76,125.37,88,-13.00,38.00,-831.00
2024-06-07 01:36:43.115271,0,0,62,0,0,-4,81,83,64,30,76,125.44,88,-33.00,-4.00,-893.00
2024-06-07 01:36:43.241688,-1,0,62,0,0,-3,81,83,70,30,76,125.44,88,-7.00,13.00,-890.00
2024-06-07 01:36:43.321895,-1,0,62,0,0,-2,81,83,75,40,76,125.59,89,-62.00,38.00,-775.00
2024-06-07 01:36:43.420609,-1,0,62,0,0,-1,81,83,79,40,76,125.61,89,-57.00,44.00,-892.00
2024-06-07 01:36:43.544922,0,0,62,0,0,-1,81,83,82,40,76,125.69,89,-68.00,0.00,-949.00
2024-06-07 01:36:43.624551,0,0,62,0,0,0,81,83,84,40,76,125.71,89,33.00,-14.00,-909.00
2024-06-07 01:36:43.749727,0,0,62,0,0,0,81,83,87,50,76,125.69,89,-126.00,66.00,-956.00
2024-06-07 01:36:43.828563,0,0,62,0,0,0,81,83,88,50,76,125.69,89,-36.00,21.00,-952.00
2024-06-07 01:36:43.930625,-1,0,62,0,0,0,81,83,89,50,76,125.71,89,-63.00,20.00,-913.00
2024-06-07 01:36:44.057122,-1,0,62,0,0,0,81,83,90,50,76,125.73,89,22.00,1.00,-1077.00
2024-06-07 01:36:44.134497,0,0,62,0,0,0,81,83,91,50,76,125.78,89,-3.00,-15.00,-996.00
2024-06-07 01:36:44.261697,0,0,62,0,0,0,81,83,92,50,76,125.73,89,52.00,-13.00,-1001.00
2024-06-07 01:36:44.341683,0,0,62,0,0,0,81,83,92,50,76,125.82,90,-90.00,15.00,-1059.00
2024-06-07 01:36:44.440948,0,0,62,0,0,0,81,83,92,50,76,125.79,90,-75.00,30.00,-1068.00
2024-06-07 01:36:44.568878,-1,0,62,0,0,0,81,83,92,50,76,125.74,90,-90.00,54.00,-878.00
2024-06-07 01:36:44.644468,-1,0,62,0,0,0,81,83,92,50,76,125.73,90,31.00,-41.00,-1011.00
2024-06-07 01:36:44.773565,0,0,62,0,0,0,81,83,91,50,76,125.77,90,-131.00,55.00,-869.00
2024-06-07 01:36:44.848501,0,0,62,0,0,1,80,82,89,50,76,125.73,90,-16.00,22.00,-883.00
2024-06-07 01:36:44.978463,0,0,62,0,0,1,80,82,88,50,76,125.74,90,71.00,-45.00,-959.00
2024-06-07 01:36:45.052448,0,0,62,0,0,1,80,82,86,50,76,125.76,90,-23.00,18.00,-1057.00
2024-06-07 01:36:45.183250,0,0,62,0,0,1,80,82,84,50,76,125.70,90,70.00,-38.00,-986.00
2024-06-07 01:36:45.256500,0,0,62,0,0,0,80,82,83,50,76,125.67,90,19.00,-4.00,-767.00
2024-06-07 01:36:45.387975,0,0,62,0,0,0,80,82,81,50,76,125.72,91,-67.00,6.00,-955.00
2024-06-07 01:36:45.460400,0,0,62,0,0,0,80,82,80,50,76,125.70,91,-10.00,37.00,-1070.00
2024-06-07 01:36:45.511371,0,0,62,0,0,0,80,82,78,50,76,125.61,91,59.00,32.00,-923.00
2024-06-07 01:36:45.695230,0,0,62,0,0,0,80,82,77,50,76,125.64,91,66.00,-4.00,-1079.00
2024-06-07 01:36:45.715430,0,0,62,0,0,0,80,82,76,40,76,125.64,91,24.00,19.00,-911.00
2024-06-07 01:36:45.903090,0,0,62,0,0,0,80,82,75,40,76,125.62,91,40.00,-20.00,-1029.00
2024-06-07 01:36:45.970799,0,0,62,0,0,0,80,82,74,40,76,125.67,91,7.00,-17.00,-1223.00
2024-06-07 01:36:46.073833,-1,0,62,0,0,0,80,82,73,40,76,125.66,91,-72.00,-7.00,-1077.00
2024-06-07 01:36:46.174296,0,0,62,0,0,0,80,82,72,40,76,125.62,91,58.00,-15.00,-1028.00
2024-06-07 01:36:46.225316,0,0,62,0,0,0,80,82,72,40,76,125.58,91,-4.00,-12.00,-1001.00
2024-06-07 01:36:46.412263,0,0,62,0,0,0,80,82,72,40,76,125.59,92,-5.00,15.00,-1029.00
2024-06-07 01:36:46.429303,0,0,62,0,0,0,80,82,72,40,76,125.57,92,-20.00,-28.00,-1007.00
2024-06-07 01:36:46.616804,-1,0,62,0,0,0,80,82,72,40,76,125.61,92,-43.00,35.00,-1184.00
2024-06-07 01:36:46.633440,0,0,62,0,0,0,80,82,73,40,76,125.59,92,-8.00,16.00,-1022.00
2024-06-07 01:36:46.825228,-1,0,62,0,0,0,80,82,73,40,76,125.58,92,33.00,-52.00,-1080.00
2024-06-07 01:36:46.837225,0,0,62,0,0,0,81,82,72,40,76,125.52,92,4.00,-11.00,-973.00
2024-06-07 01:36:47.026366,0,0,62,0,0,0,81,82,72,40,76,125.61,92,-5.00,41.00,-928.00
2024-06-07 01:36:47.041211,0,0,62,0,0,0,81,82,71,40,76,125.63,92,7.00,41.00,-945.00
2024-06-07 01:36:47.143234,0,0,62,0,0,0,81,82,71,40,76,125.62,92,17.00,-33.00,-911.00
2024-06-07 01:36:47.333742,0,0,62,0,0,0,81,82,71,40,76,125.55,92,3.00,17.00,-1000.00
2024-06-07 01:36:47.347592,0,0,62,0,0,0,81,82,71,40,76,125.61,93,-75.00,41.00,-882.00
2024-06-07 01:36:47.449233,0,0,62,0,0,0,81,82,72,40,76,125.59,93,-3.00,4.00,-1024.00
2024-06-07 01:36:47.640778,0,0,62,0,0,0,81,82,72,40,76,125.63,93,25.00,0.00,-894.00
2024-06-07 01:36:47.653240,0,0,62,0,0,0,81,82,73,40,76,125.48,93,4.00,3.00,-1057.00
2024-06-07 01:36:47.845570,0,0,62,0,0,0,81,82,74,40,76,125.49,93,-53.00,57.00,-1120.00
2024-06-07 01:36:47.857209,0,0,62,0,0,0,80,82,75,40,76,125.56,93,-3.00,7.00,-1086.00
2024-06-07 01:36:48.050630,0,0,62,0,0,0,80,82,76,40,76,125.65,93,-74.00,68.00,-921.00
2024-06-07 01:36:48.064320,0,0,62,0,0,0,80,82,76,40,76,125.60,93,-11.00,0.00,-1168.00
2024-06-07 01:36:48.163170,-1,0,62,0,0,0,80,82,77,40,76,125.60,93,27.00,-9.00,-992.00
2024-06-07 01:36:48.357515,-1,0,62,0,0,0,80,82,77,40,76,125.62,93,10.00,-1.00,-987.00
2024-06-07 01:36:48.367429,0,0,62,0,0,0,80,82,77,40,76,125.67,94,45.00,-12.00,-1016.00
2024-06-07 01:36:48.469104,0,0,62,0,0,0,80,82,78,40,76,125.66,94,0.00,-18.00,-983.00
2024-06-07 01:36:48.664760,0,0,62,0,0,0,80,82,78,40,76,125.67,94,7.00,0.00,-990.00
2024-06-07 01:36:48.673413,0,0,62,0,0,0,80,82,78,40,76,125.62,94,135.00,-49.00,-973.00
2024-06-07 01:36:48.869492,0,0,62,0,0,0,80,82,78,40,76,125.63,94,110.00,-17.00,-1063.00
2024-06-07 01:36:48.877899,0,0,62,0,0,0,80,82,79,40,76,125.67,94,9.00,18.00,-1013.00
2024-06-07 01:36:49.074391,0,0,62,0,0,0,80,82,78,40,76,125.69,94,63.00,2.00,-1136.00
2024-06-07 01:36:49.190306,0,0,62,0,0,0,80,82,79,40,76,125.70,94,-15.00,10.00,-982.00
2024-06-07 01:36:49.190369,0,0,62,0,0,0,80,82,78,40,76,125.62,94,40.00,-31.00,-982.00
2024-06-07 01:36:49.332806,0,0,62,0,0,0,80,82,78,40,76,125.59,94,19.00,-1.00,-981.00
2024-06-07 01:36:49.487792,0,0,62,0,0,0,80,82,78,40,76,125.63,95,21.00,-24.00,-981.00
2024-06-07 01:36:49.489009,0,0,62,0,0,0,80,82,78,40,76,125.65,95,6.00,9.00,-900.00
2024-06-07 01:36:49.667362,0,0,62,0,0,0,80,82,77,40,76,125.61,95,4.00,-12.00,-1004.00
2024-06-07 01:36:49.667414,0,0,62,0,0,0,80,82,77,40,76,125.63,95,23.00,3.00,-1099.00
2024-06-07 01:36:49.833862,0,0,62,0,0,0,80,82,77,40,76,125.63,95,37.00,23.00,-906.00
2024-06-07 01:36:49.897145,0,0,62,0,0,0,79,82,76,40,76,125.55,95,-1.00,34.00,-925.00
2024-06-07 01:36:49.999274,0,0,62,0,0,0,79,82,76,40,76,125.64,95,27.00,-17.00,-963.00
2024-06-07 01:36:50.069011,0,0,62,0,0,0,79,82,76,40,76,125.67,95,22.00,14.00,-881.00
2024-06-07 01:36:50.157310,0,0,62,0,0,0,79,82,76,40,76,125.60,95,19.00,4.00,-1009.00
2024-06-07 01:36:50.255311,-1,0,62,0,0,0,79,82,76,40,76,125.54,95,-14.00,35.00,-982.00
2024-06-07 01:36:50.418117,0,0,62,0,0,0,79,82,77,40,76,125.62,96,-46.00,24.00,-1077.00
2024-06-07 01:36:50.561377,0,0,62,0,0,0,79,82,77,40,76,125.67,96,2.00,-7.00,-1048.00
2024-06-07 01:36:50.561578,-1,0,62,0,0,0,79,82,78,40,76,125.67,96,-12.00,10.00,-1065.00
2024-06-07 01:36:50.724101,0,0,62,0,0,0,79,82,78,40,76,125.73,96,53.00,-14.00,-936.00
2024-06-07 01:36:50.867566,0,0,62,0,0,0,79,82,79,40,76,125.67,96,51.00,-13.00,-1080.00
2024-06-07 01:36:50.867778,0,0,62,0,0,0,80,82,80,40,76,125.68,96,-55.00,14.00,-973.00
2024-06-07 01:36:51.030971,0,0,62,0,0,0,80,82,80,40,76,125.67,96,0.00,23.00,-1018.00
2024-06-07 01:36:51.174249,0,0,62,0,0,0,80,82,80,40,76,125.66,96,39.00,-31.00,-951.00
2024-06-07 01:36:51.174377,0,0,62,0,0,0,80,82,81,50,76,125.68,96,36.00,-8.00,-943.00
2024-06-07 01:36:51.338070,0,0,62,0,0,0,80,82,81,50,76,125.71,96,-8.00,-5.00,-914.00
2024-06-07 01:36:51.394137,0,0,62,0,0,0,80,82,81,50,76,125.72,97,88.00,1.00,-963.00
2024-06-07 01:36:51.481058,0,0,62,0,0,0,80,82,81,50,76,125.70,97,-14.00,18.00,-1076.00
2024-06-07 01:36:51.581118,0,0,62,0,0,0,80,82,81,50,76,125.71,97,79.00,-27.00,-944.00
2024-06-07 01:36:51.736992,0,0,62,0,0,0,80,82,80,50,76,125.74,97,51.00,-26.00,-1161.00
2024-06-07 01:36:51.785236,-1,0,62,0,0,0,80,82,80,50,76,125.69,97,73.00,-12.00,-1118.00
2024-06-07 01:36:51.899027,-1,0,62,0,0,0,80,82,80,50,76,125.65,97,111.00,-64.00,-1031.00
2024-06-07 01:36:51.988834,-1,0,62,0,0,0,80,82,79,50,76,125.68,97,70.00,-42.00,-1006.00
2024-06-07 01:36:52.146153,-1,0,62,0,0,0,80,82,79,50,76,125.73,97,7.00,-10.00,-1034.00
2024-06-07 01:36:52.192831,-1,0,62,0,0,-1,80,82,80,50,76,125.64,97,52.00,-36.00,-1098.00
2024-06-07 01:36:52.351073,0,0,62,0,0,-2,80,82,81,50,76,125.65,98,-33.00,57.00,-1101.00
2024-06-07 01:36:52.396869,0,0,62,0,0,-3,80,82,84,50,76,125.75,98,3.00,16.00,-1131.00
2024-06-07 01:36:52.555716,0,0,62,0,0,-4,80,82,87,50,76,125.81,98,25.00,-4.00,-958.00
2024-06-07 01:36:52.600818,-1,0,62,0,0,-4,80,82,92,60,76,125.74,98,-45.00,22.00,-998.00
2024-06-07 01:36:52.702768,-1,0,62,0,0,-5,80,82,96,60,76,125.84,98,-69.00,22.00,-1075.00
2024-06-07 01:36:52.862927,-1,0,62,0,0,-5,80,82,101,70,76,125.91,98,-49.00,26.00,-908.00
2024-06-07 01:36:52.906735,-1,0,62,0,0,-5,80,82,106,70,76,125.97,98,-6.00,-4.00,-913.00
2024-06-07 01:36:53.008765,-1,0,62,0,0,-5,80,82,110,80,76,125.96,98,-11.00,28.00,-1039.00
2024-06-07 01:36:53.171784,-1,0,62,0,0,-5,80,82,116,80,76,125.98,98,88.00,-24.00,-879.00
2024-06-07 01:36:53.212745,-1,0,62,0,0,-5,80,82,121,90,76,126.01,98,56.00,-18.00,-828.00
2024-06-07 01:36:53.374862,0,0,62,0,0,-4,80,82,125,90,76,126.07,99,-26.00,21.00,-977.00
2024-06-07 01:36:53.375185,0,0,62,0,0,-4,80,82,130,100,76,126.13,99,-59.00,48.00,-997.00
2024-06-07 01:36:53.469387,-1,0,62,0,0,-4,80,82,134,100,76,126.18,99,-17.00,52.00,-1053.00
2024-06-07 01:36:53.569745,-1,0,62,0,0,-4,80,82,138,110,76,126.16,99,25.00,-11.00,-950.00
2024-06-07 01:36:53.672350,-1,0,62,0,0,-3,80,82,142,110,76,126.24,99,-42.00,3.00,-938.00
2024-06-07 01:36:53.774626,-1,0,62,0,0,-3,80,82,145,110,76,126.26,99,-26.00,25.00,-985.00
2024-06-07 01:36:53.875815,-1,0,62,0,0,-3,79,81,150,120,76,126.25,99,24.00,-37.00,-951.00
2024-06-07 01:36:53.991285,-1,0,62,0,0,-3,79,81,153,120,76,126.30,99,-36.00,5.00,-911.00
2024-06-07 01:36:54.079680,-1,0,62,0,0,-2,79,81,155,120,76,126.37,99,-78.00,40.00,-1053.00
2024-06-07 01:36:54.181678,-1,0,62,0,0,-2,79,81,159,130,76,126.42,99,67.00,-9.00,-1021.00
2024-06-07 01:36:54.284264,0,0,62,0,0,-2,79,81,161,130,76,126.45,100,44.00,-39.00,-980.00
2024-06-07 01:36:54.402887,-1,0,62,0,0,-2,79,81,165,130,76,126.41,100,-79.00,37.00,-980.00
2024-06-07 01:36:54.488413,-1,0,62,0,0,-2,79,81,166,130,76,126.46,100,-64.00,30.00,-981.00
2024-06-07 01:36:54.603513,-1,0,62,0,0,-1,79,81,170,130,76,126.47,100,120.00,-31.00,-1013.00
2024-06-07 01:36:54.691667,-1,0,62,0,0,-1,79,81,172,140,76,126.49,100,-59.00,34.00,-988.00
2024-06-07 01:36:54.808385,0,0,62,0,0,-1,79,81,172,140,76,126.47,100,-37.00,14.00,-1234.00
2024-06-07 01:36:54.895658,0,0,62,0,0,-1,79,82,175,140,76,126.51,100,29.00,-43.00,-989.00
2024-06-07 01:36:55.013258,-1,0,62,0,0,-1,79,82,176,140,76,126.54,100,-49.00,-1.00,-841.00
2024-06-07 01:36:55.101072,-1,0,62,0,0,0,79,82,177,140,76,126.48,100,-8.00,-32.00,-1043.00
2024-06-07 01:36:55.218071,-1,0,62,0,0,0,79,82,178,140,76,126.53,100,36.00,-1.00,-958.00
2024-06-07 01:36:55.304804,-1,0,62,0,0,0,79,82,178,140,76,126.53,101,52.00,-66.00,-913.00
2024-06-07 01:36:55.406782,-1,0,62,0,0,0,79,82,179,140,76,126.57,101,-23.00,33.00,-973.00
2024-06-07 01:36:55.525470,-1,0,62,0,0,0,79,82,179,140,76,126.57,101,-106.00,43.00,-967.00
2024-06-07 01:36:55.612115,-1,0,62,0,0,0,79,82,177,140,76,126.55,101,10.00,-37.00,-900.00
2024-06-07 01:36:55.712725,-1,0,62,0,0,0,79,82,178,140,76,126.51,101,62.00,7.00,-1095.00
2024-06-07 01:36:55.832605,-1,0,62,0,0,0,79,82,176,140,76,126.49,101,-59.00,51.00,-1052.00
2024-06-07 01:36:55.920891,-1,0,62,0,0,0,80,82,176,140,76,126.58,101,-43.00,-6.00,-871.00
2024-06-07 01:36:56.018690,-1,0,62,0,0,0,80,82,177,140,76,126.60,101,-60.00,56.00,-1010.00
2024-06-07 01:36:56.139717,-1,0,62,0,0,0,80,82,176,140,76,126.53,101,8.00,-30.00,-938.00
2024-06-07 01:36:56.222664,-1,0,62,0,0,0,80,82,175,140,76,126.55,101,-15.00,30.00,-1079.00
2024-06-07 01:36:56.345509,-1,0,62,0,0,0,80,82,176,140,76,126.56,102,3.00,-50.00,-964.00
2024-06-07 01:36:56.436732,-1,0,62,0,0,0,80,82,176,140,76,126.55,102,-3.00,5.00,-1144.00
2024-06-07 01:36:56.528554,0,0,62,0,0,0,80,82,178,140,76,126.60,102,-27.00,6.00,-980.00
2024-06-07 01:36:56.651763,0,0,62,0,0,0,80,82,177,140,76,126.56,102,-89.00,26.00,-921.00
2024-06-07 01:36:56.732999,-1,0,62,0,0,0,80,82,177,140,76,126.58,102,43.00,-22.00,-956.00
2024-06-07 01:36:56.856780,-1,0,62,0,0,0,80,82,177,140,76,126.57,102,-66.00,20.00,-952.00
2024-06-07 01:36:56.940064,-1,0,62,0,0,0,80,82,178,140,76,126.54,102,-91.00,28.00,-953.00
2024-06-07 01:36:57.038310,-1,0,62,0,0,0,80,82,177,140,76,126.57,102,-30.00,-38.00,-945.00
2024-06-07 01:36:57.140322,-1,0,62,0,0,0,80,82,176,140,76,126.51,102,51.00,-107.00,-963.00
2024-06-07 01:36:57.265923,-1,1,62,0,0,0,80,82,178,140,76,126.53,102,34.00,-82.00,-1017.00
2024-06-07 01:36:57.344321,-1,1,62,0,0,0,80,82,176,140,76,126.50,103,-21.00,55.00,-820.00
2024-06-07 01:36:57.446451,-1,0,62,0,0,0,80,82,176,140,76,126.47,103,-8.00,-4.00,-801.00
2024-06-07 01:36:57.575208,-1,0,62,0,0,1,80,82,175,140,76,126.41,103,14.00,-23.00,-885.00
2024-06-07 01:36:57.650310,-1,0,62,0,1,1,80,82,174,140,76,126.49,103,70.00,-72.00,-869.00
2024-06-07 01:36:57.701288,0,0,62,0,0,2,80,82,170,140,76,126.44,103,-98.00,24.00,-982.00
2024-06-07 01:36:57.881940,-1,0,62,0,0,2,80,82,168,130,76,126.40,103,59.00,-53.00,-897.00
2024-06-07 01:36:57.905261,-1,0,62,0,0,2,80,81,165,130,76,126.50,103,26.00,-67.00,-932.00
2024-06-07 01:36:58.085067,-1,1,62,0,0,2,80,81,163,130,76,126.40,103,-2.00,66.00,-943.00
2024-06-07 01:36:58.109466,-1,0,62,0,0,3,80,81,161,130,76,126.34,103,37.00,-80.00,-1124.00
2024-06-07 01:36:58.290054,-1,0,62,0,0,2,80,81,158,120,76,126.35,103,16.00,-6.00,-917.00
2024-06-07 01:36:58.313204,-1,0,62,0,0,2,80,81,156,120,76,126.31,104,56.00,-62.00,-1099.00
2024-06-07 01:36:58.415507,-1,0,62,0,1,2,80,81,153,120,76,126.37,104,-40.00,3.00,-935.00
2024-06-07 01:36:58.597015,0,0,62,0,0,2,80,81,153,120,76,126.27,104,59.00,-19.00,-1063.00
2024-06-07 01:36:58.620164,-1,0,62,0,0,2,80,81,151,110,76,126.29,104,-23.00,21.00,-998.00
2024-06-07 01:36:58.801835,0,0,62,0,0,1,80,81,149,110,76,126.29,104,77.00,-77.00,-1020.00
2024-06-07 01:36:58.824798,0,1,62,0,0,1,80,81,148,110,76,126.25,104,-4.00,18.00,-1039.00
2024-06-07 01:36:59.006624,0,1,62,0,0,1,79,81,147,110,76,126.26,104,-18.00,46.00,-1051.00
2024-06-07 01:36:59.028381,0,0,62,0,0,1,79,81,146,110,76,126.26,104,-7.00,17.00,-933.00
2024-06-07 01:36:59.211568,0,0,62,0,0,0,79,81,144,110,76,126.19,104,-12.00,70.00,-1019.00
2024-06-07 01:36:59.232235,0,0,62,0,0,1,79,81,143,110,76,126.22,104,-2.00,-21.00,-953.00
2024-06-07 01:36:59.418200,-1,0,62,0,0,1,79,81,140,110,76,126.15,105,13.00,-21.00,-1124.00
2024-06-07 01:36:59.436202,-1,0,62,0,0,1,79,81,139,110,76,126.20,105,42.00,-40.00,-1153.00
2024-06-07 01:36:59.622245,-1,0,62,0,0,1,79,81,137,100,76,126.20,105,12.00,45.00,-994.00
2024-06-07 01:36:59.640015,-1,0,62,0,0,1,79,81,135,100,76,126.06,105,27.00,-26.00,-1009.00
2024-06-07 01:36:59.825740,-1,0,62,0,0,1,79,81,132,100,76,126.09,105,16.00,14.00,-919.00
2024-06-07 01:36:59.844098,-1,0,62,0,0,1,79,81,129,100,76,126.04,105,-82.00,-10.00,-946.00
2024-06-07 01:37:00.030545,-2,0,62,0,0,1,79,81,126,100,76,125.96,105,-55.00,36.00,-942.00
2024-06-07 01:37:00.048239,-1,0,62,0,0,1,79,81,122,100,76,125.99,105,56.00,-15.00,-1054.00
2024-06-07 01:37:00.150238,-1,1,62,0,0,1,79,81,120,90,76,126.04,105,-18.00,17.00,-1064.00
2024-06-07 01:37:00.338034,0,1,62,0,0,1,79,81,116,90,76,125.97,105,-27.00,19.00,-978.00
2024-06-07 01:37:00.354212,0,2,62,0,0,1,79,81,114,90,76,125.92,106,-62.00,46.00,-909.00
2024-06-07 01:37:00.456238,0,1,62,0,0,1,79,81,113,90,76,125.95,106,39.00,-35.00,-1044.00
2024-06-07 01:37:00.645183,0,1,62,0,0,1,79,81,111,80,76,125.94,106,-100.00,26.00,-1080.00
2024-06-07 01:37:00.660238,0,1,62,0,0,0,79,81,110,80,76,125.90,106,40.00,-37.00,-1098.00
2024-06-07 01:37:00.850488,-1,0,62,0,0,0,79,81,109,80,76,125.89,106,-77.00,87.00,-895.00
2024-06-07 01:37:00.850674,-1,1,62,0,0,0,79,81,109,80,76,125.85,106,-81.00,121.00,-899.00
2024-06-07 01:37:00.966247,-1,1,62,0,0,0,79,81,109,80,76,125.87,106,23.00,-21.00,-1011.00
2024-06-07 01:37:01.157119,-1,1,62,0,0,0,79,81,110,80,76,125.87,106,32.00,-66.00,-903.00
2024-06-07 01:37:01.169935,-1,1,62,0,0,0,79,81,110,80,76,125.83,106,-1.00,-17.00,-1014.00
2024-06-07 01:37:01.361984,0,1,62,0,0,0,79,81,111,80,76,125.95,106,-54.00,-4.00,-928.00
2024-06-07 01:37:01.374120,0,1,62,0,0,0,79,81,112,80,76,125.87,107,-10.00,-7.00,-1149.00
2024-06-07 01:37:01.566663,0,0,62,0,0,0,79,81,113,80,76,125.94,107,5.00,22.00,-969.00
2024-06-07 01:37:01.566830,0,0,62,0,0,0,79,81,114,80,76,125.87,107,-38.00,13.00,-933.00
2024-06-07 01:37:01.633030,-1,1,62,0,0,0,79,81,115,80,76,125.93,107,-27.00,25.00,-946.00
2024-06-07 01:37:01.731346,0,1,62,0,0,0,79,81,116,80,76,125.89,107,11.00,-81.00,-1061.00
2024-06-07 01:37:01.834531,0,0,62,0,0,0,79,81,117,80,76,125.98,107,-49.00,41.00,-814.00
2024-06-07 01:37:01.939925,0,1,62,0,0,0,80,81,118,80,76,126.03,107,50.00,-11.00,-980.00
2024-06-07 01:37:02.036976,0,1,62,0,0,0,80,81,120,90,76,125.96,107,-32.00,5.00,-950.00
2024-06-07 01:37:02.185567,0,0,62,0,0,0,80,81,120,90,76,125.96,107,0.00,-10.00,-1138.00
2024-06-07 01:37:02.240822,-2,0,62,0,0,0,80,81,120,90,76,126.00,107,61.00,-27.00,-1124.00
2024-06-07 01:37:02.385567,-7,0,62,0,0,0,80,81,121,90,76,125.97,108,-11.00,-11.00,-916.00
2024-06-07 01:37:02.445203,-8,0,62,1,2,0,80,81,121,90,76,125.88,108,30.00,-19.00,-962.00
2024-06-07 01:37:02.548103,-8,0,62,1,3,0,80,81,120,90,76,125.90,108,27.00,-46.00,-966.00
2024-06-07 01:37:02.693020,-8,1,62,2,4,0,80,81,119,90,76,125.92,108,-17.00,-31.00,-997.00
2024-06-07 01:37:02.753417,-8,1,62,2,5,0,80,81,120,90,76,125.88,108,-57.00,-34.00,-936.00
2024-06-07 01:37:02.854352,-7,0,62,3,6,0,80,81,119,90,76,125.85,108,2.00,-46.00,-951.00
2024-06-07 01:37:02.955937,-6,0,62,3,6,0,79,82,119,80,76,125.89,108,-87.00,67.00,-884.00
2024-06-07 01:37:03.102401,-5,0,62,3,6,0,79,82,119,80,76,125.87,108,-145.00,61.00,-1028.00
2024-06-07 01:37:03.159838,-3,1,62,3,6,0,79,82,119,80,76,125.88,108,-70.00,-33.00,-1094.00
2024-06-07 01:37:03.307199,0,1,62,3,6,0,79,82,120,80,76,125.93,108,-31.00,-30.00,-890.00
2024-06-07 01:37:03.363803,2,0,62,2,5,0,79,82,121,80,76,125.90,109,-51.00,1.00,-990.00
2024-06-07 01:37:03.465822,3,0,62,2,4,0,79,82,121,80,76,125.98,109,12.00,-37.00,-1100.00
2024-06-07 01:37:03.614398,2,0,62,1,3,0,79,82,121,80,76,125.93,109,-12.00,-43.00,-1000.00
2024-06-07 01:37:03.669815,0,0,62,1,3,0,79,82,122,80,76,125.99,109,-7.00,-32.00,-1008.00
2024-06-07 01:37:03.819165,0,0,62,1,2,0,79,82,122,80,76,125.95,109,-34.00,0.00,-1009.00
2024-06-07 01:37:03.874573,0,0,62,1,2,0,79,82,123,80,76,125.95,109,28.00,22.00,-989.00
2024-06-07 01:37:04.126363,0,0,62,1,2,0,79,81,124,90,76,125.95,109,-37.00,3.00,-961.00
2024-06-07 01:37:04.126424,0,0,62,1,2,0,79,81,124,90,76,125.95,109,82.00,-46.00,-947.00
2024-06-07 01:37:04.434000,0,0,62,1,2,0,79,81,123,90,76,125.99,109,-27.00,-22.00,-989.00
2024-06-07 01:37:04.539232,0,2,62,0,2,0,79,81,124,90,76,126.00,109,30.00,-22.00,-984.00
2024-06-07 01:37:04.539780,0,1,62,0,2,0,79,81,124,90,76,126.01,110,46.00,-45.00,-1091.00
2024-06-07 01:37:04.540449,0,0,62,0,2,0,79,81,123,90,76,125.99,110,-43.00,17.00,-844.00
2024-06-07 01:37:04.589930,2,-1,62,0,2,0,79,81,124,90,76,126.03,110,-97.00,58.00,-1015.00
2024-06-07 01:37:04.694454,3,-2,62,0,1,0,79,81,122,90,76,125.98,110,-11.00,-21.00,-1122.00
2024-06-07 01:37:04.742000,1,0,62,0,0,0,79,81,122,90,76,126.05,110,66.00,-17.00,-1017.00
2024-06-07 01:37:04.853816,0,0,62,0,0,0,79,81,122,90,76,126.08,110,0.00,-5.00,-980.00
2024-06-07 01:37:04.945365,0,0,62,0,0,0,79,82,120,90,76,125.96,110,0.00,2.00,-1044.00
2024-06-07 01:37:05.048223,0,0,62,0,0,0,79,82,119,90,76,126.00,110,-46.00,22.00,-841.00
2024-06-07 01:37:05.252782,0,0,62,0,0,0,79,82,119,90,76,126.03,110,-21.00,14.00,-1016.00
2024-06-07 01:37:05.252943,0,0,62,0,0,0,79,82,117,80,76,125.96,110,12.00,5.00,-1117.00
2024-06-07 01:37:05.352740,0,0,62,0,0,0,79,82,117,80,76,126.00,111,20.00,-16.00,-970.00
2024-06-07 01:37:05.468760,0,0,62,0,0,0,79,82,117,80,76,125.92,111,12.00,-53.00,-1052.00
2024-06-07 01:37:05.611784,0,0,62,0,0,0,79,82,116,80,76,125.93,111,3.00,1.00,-1080.00
2024-06-07 01:37:05.658700,0,0,62,0,0,0,79,82,115,80,76,125.91,111,52.00,-9.00,-1163.00
2024-06-07 01:37:05.775557,0,0,62,0,0,0,79,82,115,80,76,125.92,111,-6.00,29.00,-1050.00
2024-06-07 01:37:05.919720,0,0,62,0,0,0,79,82,115,80,76,126.00,111,49.00,-63.00,-1111.00
2024-06-07 01:37:05.964599,0,0,62,0,0,0,79,81,115,80,76,125.90,111,16.00,1.00,-1035.00
2024-06-07 01:37:06.083003,0,0,62,0,0,0,79,81,116,80,76,125.94,111,39.00,-21.00,-949.00
2024-06-07 01:37:06.168828,0,0,62,0,0,0,79,81,116,80,76,125.98,111,73.00,-16.00,-1084.00
2024-06-07 01:37:06.276801,0,0,62,0,0,0,79,81,116,80,76,125.99,111,22.00,-18.00,-1026.00
2024-06-07 01:37:06.374439,0,0,62,0,0,0,79,81,117,80,76,125.92,112,58.00,-27.00,-1211.00
2024-06-07 01:37:06.476487,0,0,62,0,0,0,79,81,117,80,76,126.00,112,19.00,-43.00,-1066.00
2024-06-07 01:37:06.577012,0,0,62,0,0,0,79,81,118,80,76,125.99,112,32.00,5.00,-954.00
2024-06-07 01:37:06.679146,0,0,62,0,0,0,79,81,117,80,76,125.98,112,-47.00,13.00,-853.00
2024-06-07 01:37:06.783561,0,0,62,0,0,0,79,81,118,80,76,125.93,112,-18.00,20.00,-1072.00
2024-06-07 01:37:06.882504,0,0,62,0,0,0,79,81,118,80,76,126.00,112,-20.00,22.00,-910.00
2024-06-07 01:37:06.984493,7,0,62,0,0,0,79,81,119,80,76,125.94,112,-39.00,12.00,-891.00
2024-06-07 01:37:07.086965,8,0,62,-1,-1,0,79,81,121,80,76,125.99,112,37.00,-44.00,-1270.00
2024-06-07 01:37:07.198208,8,0,62,-1,-3,0,79,81,120,80,76,125.98,112,29.00,-17.00,-1002.00
2024-06-07 01:37:07.290448,7,0,62,-2,-4,0,79,81,121,80,76,125.96,113,-3.00,29.00,-803.00
2024-06-07 01:37:07.402983,6,0,62,-2,-5,0,79,81,120,80,76,125.97,113,0.00,20.00,-994.00
2024-06-07 01:37:07.494564,5,0,62,-3,-5,0,79,81,121,80,76,125.99,113,41.00,-7.00,-914.00
2024-06-07 01:37:07.609145,5,0,62,-3,-6,0,79,81,121,80,76,126.04,113,100.00,-16.00,-1035.00
2024-06-07 01:37:07.698387,4,0,62,-3,-6,0,79,81,122,80,76,126.03,113,40.00,-2.00,-1117.00
2024-06-07 01:37:07.812583,1,0,62,-3,-6,0,79,81,122,80,76,126.02,113,73.00,-37.00,-1011.00
2024-06-07 01:37:07.902287,-1,0,62,-3,-6,0,79,81,123,80,76,126.04,113,119.00,-31.00,-968.00
2024-06-07 01:37:08.017385,-3,0,62,-2,-5,0,79,81,124,90,76,126.04,113,92.00,-34.00,-1118.00
2024-06-07 01:37:08.107921,-4,0,62,-2,-4,0,79,81,124,90,76,126.02,113,82.00,-29.00,-938.00
2024-06-07 01:37:08.208367,-2,0,62,-1,-3,0,79,81,124,90,76,126.02,113,49.00,-45.00,-1090.00
2024-06-07 01:37:08.326131,-1,0,62,-1,-3,0,79,81,125,90,76,126.09,114,-20.00,16.00,-1112.00
2024-06-07 01:37:08.412392,0,0,62,-1,-2,0,79,81,126,90,76,126.07,114,-45.00,12.00,-981.00
2024-06-07 01:37:08.535114,0,1,62,-1,-2,0,79,81,126,90,76,126.10,114,-7.00,-9.00,-939.00
2024-06-07 01:37:08.618524,0,0,62,-1,-2,0,79,81,126,90,76,126.07,114,0.00,11.00,-961.00
2024-06-07 01:37:08.668367,0,1,62,-1,-2,0,79,81,126,90,76,126.13,114,-15.00,22.00,-934.00
2024-06-07 01:37:08.836566,0,0,62,-1,-2,0,79,81,126,90,76,126.05,114,11.00,15.00,-978.00
2024-06-07 01:37:08.872282,0,0,62,-1,-2,0,79,81,126,90,76,126.04,114,-72.00,7.00,-1029.00
2024-06-07 01:37:09.041324,-1,-1,62,-1,-2,0,79,81,125,90,76,126.03,114,19.00,-2.00,-979.00
2024-06-07 01:37:09.076283,-5,0,62,0,-2,0,79,81,124,90,76,125.98,114,36.00,-25.00,-793.00
2024-06-07 01:37:09.178297,-4,0,62,0,-1,0,79,81,124,90,76,125.97,114,66.00,-47.00,-1028.00
2024-06-07 01:37:09.280564,-2,0,62,0,0,0,79,81,124,90,76,125.99,115,15.00,7.00,-973.00
2024-06-07 01:37:09.451151,-1,0,62,0,0,0,79,81,123,90,76,125.98,115,-7.00,2.00,-1009.00
2024-06-07 01:37:09.484430,0,0,62,0,0,0,79,81,122,90,76,126.02,115,87.00,-26.00,-995.00
2024-06-07 01:37:09.656147,0,0,62,0,0,0,79,81,122,90,76,126.02,115,-8.00,27.00,-931.00
2024-06-07 01:37:09.688436,-1,0,62,0,0,0,79,81,121,90,76,126.00,115,-30.00,24.00,-980.00
2024-06-07 01:37:09.860834,-1,0,62,0,0,0,79,81,120,90,76,125.98,115,16.00,-10.00,-1020.00
2024-06-07 01:37:09.892397,-1,0,62,0,0,0,79,81,119,90,76,125.95,115,-5.00,-27.00,-924.00
2024-06-07 01:37:09.994483,-1,0,62,0,0,0,79,81,118,80,76,125.93,115,-16.00,34.00,-1147.00
2024-06-07 01:37:10.167891,-1,0,62,0,0,0,79,81,117,80,76,125.92,115,-38.00,28.00,-1081.00
2024-06-07 01:37:10.198473,-1,0,62,0,0,0,79,81,116,80,76,125.95,115,-2.00,-26.00,-991.00
2024-06-07 01:37:10.372607,0,0,62,0,0,0,79,81,116,80,76,125.94,116,56.00,-11.00,-1021.00
2024-06-07 01:37:10.405164,0,0,62,0,0,0,79,81,115,80,76,125.96,116,19.00,-24.00,-1014.00
2024-06-07 01:37:10.504442,0,0,62,0,0,0,79,81,114,80,76,125.93,116,87.00,-48.00,-1171.00
2024-06-07 01:37:10.679908,-1,0,62,0,0,0,79,81,113,80,76,125.89,116,52.00,-1.00,-1077.00
2024-06-07 01:37:10.708385,0,0,62,0,0,0,79,81,113,80,76,125.90,116,-35.00,8.00,-1025.00
2024-06-07 01:37:10.885014,-1,0,62,0,0,0,79,81,114,80,76,125.88,116,33.00,-62.00,-941.00
2024-06-07 01:37:10.912323,0,0,62,0,0,0,79,81,114,80,76,125.95,116,-68.00,68.00,-959.00
2024-06-07 01:37:11.089444,0,0,62,0,0,0,80,81,114,80,76,125.92,116,-4.00,-2.00,-911.00
2024-06-07 01:37:11.116268,0,0,62,0,0,0,80,81,114,80,76,125.95,116,-118.00,16.00,-1050.00
2024-06-07 01:37:11.231284,0,0,62,0,0,0,80,81,114,80,76,125.93,116,-8.00,-16.00,-1059.00
2024-06-07 01:37:11.320110,0,0,62,0,0,0,80,81,115,80,76,126.00,117,43.00,-18.00,-961.00
2024-06-07 01:37:11.498780,0,-2,62,0,0,0,80,81,115,80,76,125.93,117,-48.00,31.00,-987.00
2024-06-07 01:37:11.524565,0,-8,62,1,0,0,80,81,117,80,76,125.95,117,-16.00,-40.00,-1034.00
2024-06-07 01:37:11.703919,0,-6,62,2,-1,0,80,81,117,80,76,125.86,117,40.00,-70.00,-1084.00
2024-06-07 01:37:11.728035,0,-3,62,3,-1,0,80,81,116,80,76,125.93,117,37.00,-8.00,-1051.00
2024-06-07 01:37:11.830014,0,0,62,3,-2,0,80,81,117,80,76,125.97,117,-69.00,30.00,-1014.00
2024-06-07 01:37:11.932071,-1,1,62,3,-2,0,80,81,118,80,76,125.96,117,-15.00,26.00,-878.00
2024-06-07 01:37:12.113187,-1,1,62,2,-1,0,79,82,118,80,76,125.98,117,0.00,4.00,-1001.00
2024-06-07 01:37:12.135934,-1,0,62,2,-1,0,79,82,119,80,76,125.96,117,-112.00,57.00,-974.00
2024-06-07 01:37:12.238011,-1,0,62,1,0,0,79,82,119,80,76,126.00,117,-21.00,43.00,-959.00
2024-06-07 01:37:12.423044,-1,-1,62,1,0,0,79,82,120,80,76,126.07,118,0.00,12.00,-987.00
2024-06-07 01:37:12.442878,-1,-1,62,2,0,0,79,82,119,80,76,125.96,118,-9.00,-10.00,-1038.00
2024-06-07 01:37:12.625476,0,0,62,2,-1,0,79,82,119,80,76,126.00,118,-63.00,30.00,-975.00
2024-06-07 01:37:12.650050,-1,0,62,2,-1,0,79,82,119,80,76,126.07,118,-30.00,35.00,-1000.00
2024-06-07 01:37:12.748071,-1,0,62,2,0,0,79,82,119,80,76,126.00,118,-49.00,42.00,-976.00
2024-06-07 01:37:12.932367,-1,0,62,2,0,0,79,82,119,80,76,126.03,118,57.00,-4.00,-878.00
2024-06-07 01:37:12.951939,-2,0,62,2,0,0,79,82,119,80,76,126.05,118,-112.00,69.00,-961.00
2024-06-07 01:37:13.137130,-1,0,62,2,0,0,78,81,119,80,76,126.00,118,-12.00,4.00,-963.00
2024-06-07 01:37:13.155924,-1,0,62,2,0,0,78,81,118,80,76,125.98,118,-35.00,55.00,-966.00
2024-06-07 01:37:13.206872,-1,0,62,2,0,0,78,81,119,80,76,125.98,118,9.00,-6.00,-943.00
2024-06-07 01:37:13.343108,0,0,62,2,0,0,78,81,119,80,76,125.93,119,9.00,8.00,-898.00
2024-06-07 01:37:13.411209,0,2,62,1,0,0,78,81,119,80,76,125.95,119,-41.00,-14.00,-1037.00
2024-06-07 01:37:13.513155,1,4,62,1,0,0,78,81,120,80,76,125.95,119,-44.00,24.00,-1026.00
2024-06-07 01:37:13.615106,0,2,62,0,0,0,78,81,119,80,76,126.00,119,-51.00,51.00,-1060.00
2024-06-07 01:37:13.751724,0,0,62,0,0,0,78,81,120,80,76,125.97,119,-24.00,3.00,-975.00
2024-06-07 01:37:13.818991,0,0,62,0,0,0,78,81,121,80,76,126.00,119,68.00,-16.00,-1061.00
2024-06-07 01:37:13.956592,0,0,62,0,0,0,78,81,121,80,76,126.03,119,53.00,-16.00,-999.00
2024-06-07 01:37:14.023024,0,0,62,0,0,0,79,81,122,80,76,126.00,119,11.00,-10.00,-1042.00
2024-06-07 01:37:14.125047,0,0,62,0,0,0,79,81,122,80,76,126.03,119,-62.00,-8.00,-940.00
2024-06-07 01:37:14.228935,0,0,62,0,0,0,79,81,122,90,76,126.00,119,-36.00,20.00,-992.00
2024-06-07 01:37:14.329935,0,0,62,0,0,0,79,81,122,90,75,125.99,120,-31.00,-5.00,-1126.00
2024-06-07 01:37:14.469488,-1,0,62,0,0,0,79,81,121,90,75,126.00,120,1.00,-43.00,-974.00
2024-06-07 01:37:14.534644,-1,0,62,0,0,0,79,81,121,90,75,126.00,120,87.00,-35.00,-1133.00
2024-06-07 01:37:14.635561,-1,0,62,0,0,0,79,81,120,90,75,126.08,120,-1.00,-20.00,-1093.00
2024-06-07 01:37:14.737005,0,0,62,0,0,0,79,81,120,80,75,126.01,120,26.00,-27.00,-910.00
2024-06-07 01:37:14.839035,0,0,62,0,0,0,79,81,119,80,75,125.96,120,12.00,-6.00,-890.00
2024-06-07 01:37:14.980576,0,0,62,0,0,0,79,81,119,80,75,126.01,120,4.00,-23.00,-971.00
2024-06-07 01:37:15.042779,0,0,62,0,0,0,79,81,117,80,75,126.01,120,26.00,12.00,-766.00
2024-06-07 01:37:15.145011,0,0,62,0,0,0,79,81,117,80,75,125.94,120,-82.00,29.00,-878.00
2024-06-07 01:37:15.246877,0,0,62,0,0,0,79,81,117,80,75,125.99,120,15.00,-25.00,-996.00
2024-06-07 01:37:15.348921,0,0,62,0,0,0,79,81,117,80,75,126.01,121,-46.00,1.00,-1047.00
2024-06-07 01:37:15.492955,0,0,62,0,0,0,79,81,116,80,75,125.94,121,-13.00,8.00,-1021.00
2024-06-07 01:37:15.553513,0,0,62,0,0,0,79,81,116,80,75,125.99,121,-6.00,-23.00,-1016.00
2024-06-07 01:37:15.654712,-1,0,62,0,0,0,79,81,116,80,75,125.91,121,-9.00,-9.00,-1091.00
2024-06-07 01:37:15.799405,0,0,62,0,0,0,79,81,117,80,75,125.91,121,-36.00,28.00,-1048.00
2024-06-07 01:37:15.859338,0,7,62,0,0,0,79,81,118,80,75,126.00,121,-14.00,33.00,-869.00
2024-06-07 01:37:16.004277,0,8,62,-1,0,0,79,81,118,80,75,125.99,121,-2.00,48.00,-951.00
2024-06-07 01:37:16.062769,0,5,62,-3,1,0,80,81,118,80,75,126.03,121,-99.00,47.00,-846.00
2024-06-07 01:37:16.209321,-1,2,62,-3,1,0,80,81,118,80,75,126.00,121,3.00,-14.00,-1051.00
2024-06-07 01:37:16.266618,0,0,62,-3,1,0,80,81,119,80,75,126.02,121,101.00,-43.00,-1018.00
2024-06-07 01:37:16.413771,0,-1,62,-3,1,0,80,81,120,80,75,126.01,122,31.00,-35.00,-947.00
2024-06-07 01:37:16.470614,0,0,62,-2,1,0,80,81,121,80,75,126.02,122,-56.00,-3.00,-1109.00
2024-06-07 01:37:16.618529,0,0,62,-2,1,0,80,81,121,80,75,126.05,122,55.00,-46.00,-1058.00
2024-06-07 01:37:16.674771,0,1,62,-2,1,0,80,81,122,80,75,126.00,122,-59.00,6.00,-995.00
2024-06-07 01:37:16.823362,0,1,62,-2,1,0,80,81,123,80,75,126.07,122,-109.00,0.00,-953.00
2024-06-07 01:37:16.827670,-1,0,62,-2,1,0,80,81,123,80,75,126.04,122,12.00,-27.00,-914.00
2024-06-07 01:37:17.028147,-1,0,62,-2,1,0,80,81,124,90,75,126.05,122,7.00,-42.00,-944.00
2024-06-07 01:37:17.082679,-1,0,62,-2,1,0,79,82,124,90,75,126.08,122,47.00,-85.00,-1074.00
2024-06-07 01:37:17.133735,-1,0,62,-2,1,0,79,82,125,90,75,126.05,122,5.00,0.00,-984.00
2024-06-07 01:37:17.235534,2,-1,62,-2,1,0,79,82,124,90,75,126.09,122,68.00,-61.00,-1025.00
2024-06-07 01:37:17.439039,0,-5,62,-1,0,0,79,82,125,90,75,126.05,123,-24.00,-15.00,-1029.00
2024-06-07 01:37:17.440417,0,-3,62,0,0,0,79,82,125,90,75,126.09,123,-11.00,-9.00,-960.00
2024-06-07 01:37:17.542724,0,-1,62,0,0,0,79,82,124,90,75,126.04,123,37.00,-33.00,-1020.00
2024-06-07 01:37:17.644838,0,0,62,0,0,0,79,82,124,90,75,126.05,123,29.00,-2.00,-955.00
2024-06-07 01:37:17.747010,0,0,62,0,0,0,79,82,124,90,75,126.09,123,-83.00,9.00,-1072.00
2024-06-07 01:37:17.956945,0,0,62,0,0,0,79,82,124,90,75,126.08,123,-22.00,-13.00,-860.00
2024-06-07 01:37:17.957129,0,0,62,0,0,0,79,82,123,90,75,126.07,123,2.00,-5.00,-1062.00
2024-06-07 01:37:18.052737,0,0,62,0,0,0,78,81,124,90,75,126.10,123,-53.00,31.00,-872.00
2024-06-07 01:37:18.154780,0,0,62,0,0,0,78,81,124,90,75,126.09,123,-52.00,10.00,-958.00
2024-06-07 01:37:18.257293,0,0,62,0,0,0,78,81,124,90,75,126.06,123,-4.00,-5.00,-971.00
2024-06-07 01:37:18.359471,-1,0,62,0,0,0,78,81,124,90,74,126.04,124,4.00,-59.00,-1094.00
2024-06-07 01:37:18.465624,0,0,62,0,0,0,78,81,124,90,74,126.07,124,59.00,-20.00,-1085.00
2024-06-07 01:37:18.563882,0,0,62,0,0,0,78,81,123,90,74,126.06,124,-25.00,-21.00,-1038.00
2024-06-07 01:37:18.664632,0,0,62,0,0,0,78,81,123,90,74,126.04,124,-11.00,25.00,-1166.00
2024-06-07 01:37:18.769032,0,0,62,0,0,0,78,81,122,90,74,126.00,124,14.00,-6.00,-953.00
2024-06-07 01:37:18.868643,0,0,62,0,0,0,78,81,121,90,74,126.05,124,-72.00,33.00,-1019.00
2024-06-07 01:37:18.973879,0,0,62,0,0,0,78,81,122,90,74,126.11,124,-11.00,13.00,-861.00
2024-06-07 01:37:19.134025,0,0,62,0,0,0,79,81,121,90,74,126.05,124,-14.00,-4.00,-966.00
2024-06-07 01:37:19.174730,0,0,62,0,0,0,79,81,120,80,74,126.01,124,111.00,-54.00,-1147.00
2024-06-07 01:37:19.328305,0,0,62,0,0,0,79,81,120,80,74,125.99,124,-42.00,6.00,-998.00
2024-06-07 01:37:19.378969,0,0,62,0,0,0,79,81,119,80,74,125.93,125,-5.00,-12.00,-1116.00
2024-06-07 01:37:19.494655,0,0,62,0,0,0,79,81,119,80,74,125.97,125,33.00,25.00,-858.00
2024-06-07 01:37:19.654621,0,0,62,0,0,0,79,81,119,80,74,126.02,125,21.00,-27.00,-1198.00
2024-06-07 01:37:19.705034,0,0,62,0,0,0,79,81,118,80,74,125.99,125,58.00,-15.00,-1039.00
2024-06-07 01:37:19.788444,0,0,67,0,0,0,79,81,118,80,74,126.03,125,-55.00,-47.00,-927.00
2024-06-07 01:37:19.941568,0,0,73,0,0,0,79,81,117,80,74,125.92,125,43.00,-13.00,-993.00
2024-06-07 01:37:20.096135,0,0,79,0,0,0,79,81,117,80,74,126.06,125,65.00,-55.00,-954.00
2024-06-07 01:37:20.096562,0,0,85,0,0,0,79,81,117,80,74,126.00,125,2.00,-32.00,-1028.00
2024-06-07 01:37:20.240308,0,0,91,0,0,0,79,81,117,80,74,126.01,125,-55.00,26.00,-954.00
2024-06-07 01:37:20.382951,0,0,97,0,0,0,79,81,117,80,74,126.05,125,24.00,-38.00,-872.00
2024-06-07 01:37:20.398546,0,0,103,0,0,0,79,81,116,80,74,126.00,126,6.00,-6.00,-976.00
2024-06-07 01:37:20.529081,0,0,109,0,0,0,79,81,116,80,74,126.00,126,-4.00,-3.00,-1002.00
2024-06-07 01:37:20.551275,0,0,116,0,0,0,79,81,116,80,74,125.98,126,-58.00,27.00,-1076.00
2024-06-07 01:37:20.669906,0,0,122,0,0,0,79,81,116,80,74,125.94,126,-29.00,14.00,-972.00
2024-06-07 01:37:20.828016,0,0,128,0,0,0,79,81,116,80,74,125.98,126,92.00,-22.00,-1154.00
2024-06-07 01:37:20.971147,0,0,134,0,0,0,79,81,116,80,74,125.99,126,-10.00,-15.00,-1026.00
2024-06-07 01:37:20.971320,0,0,140,0,0,0,79,81,116,80,74,126.05,126,-4.00,18.00,-1094.00
2024-06-07 01:37:21.135199,0,0,152,0,0,0,80,82,116,80,74,125.95,126,-7.00,8.00,-994.00
2024-06-07 01:37:21.278183,0,0,158,0,0,0,80,82,117,80,74,126.02,126,-65.00,-4.00,-959.00
2024-06-07 01:37:21.278244,0,0,164,0,0,0,80,82,116,80,74,126.01,127,0.00,10.00,-964.00
2024-06-07 01:37:21.442644,0,0,170,0,0,0,80,82,117,80,74,126.01,127,-22.00,5.00,-1028.00
2024-06-07 01:37:21.586447,0,0,176,0,0,0,80,82,117,80,74,126.04,127,61.00,-39.00,-905.00
2024-06-07 01:37:21.586746,0,0,-177,0,0,0,80,82,117,80,74,125.99,127,-27.00,17.00,-1036.00
2024-06-07 01:37:21.749483,0,0,-171,0,0,0,80,82,117,80,74,126.03,127,62.00,-37.00,-932.00
2024-06-07 01:37:21.805102,0,0,-165,0,0,0,80,82,117,80,74,126.01,127,28.00,13.00,-995.00
2024-06-07 01:37:21.878138,0,0,-159,0,0,0,80,82,118,80,74,126.03,127,15.00,17.00,-945.00
2024-06-07 01:37:22.045531,0,0,-153,0,0,0,80,82,118,80,74,126.04,127,40.00,-2.00,-866.00
2024-06-07 01:37:22.084153,0,0,-148,0,0,0,79,80,119,80,74,126.06,127,-16.00,24.00,-1038.00
2024-06-07 01:37:22.184566,0,0,-142,0,0,0,79,80,119,80,74,125.99,127,65.00,13.00,-1047.00
2024-06-07 01:37:22.352918,1,0,-136,0,0,0,79,80,119,80,74,126.01,128,7.00,29.00,-727.00
2024-06-07 01:37:22.389815,0,0,-130,0,0,0,79,80,120,80,74,125.98,128,-28.00,21.00,-971.00
2024-06-07 01:37:22.490109,0,0,-124,0,0,0,79,80,120,80,74,126.03,128,12.00,-7.00,-997.00
2024-06-07 01:37:22.663485,0,0,-118,0,0,0,79,80,120,80,74,126.05,128,-47.00,21.00,-816.00
2024-06-07 01:37:22.693997,0,0,-112,0,0,0,79,80,120,80,74,126.05,128,10.00,24.00,-1150.00
2024-06-07 01:37:22.864684,0,0,-106,0,0,0,79,80,120,80,74,126.11,128,33.00,-17.00,-1163.00
2024-06-07 01:37:22.898110,0,0,-100,0,0,0,79,80,120,80,74,126.10,128,-6.00,-19.00,-933.00
2024-06-07 01:37:23.069445,0,0,-95,0,0,0,79,80,119,80,74,126.05,128,-62.00,33.00,-872.00
2024-06-07 01:37:23.101999,0,0,-89,0,0,0,79,81,119,80,74,126.03,128,45.00,23.00,-1002.00
2024-06-07 01:37:23.274758,0,0,-83,0,0,0,79,81,119,80,74,126.06,128,-72.00,24.00,-919.00
2024-06-07 01:37:23.305921,0,0,-77,0,0,0,79,81,119,80,74,126.05,129,24.00,0.00,-1096.00
2024-06-07 01:37:23.408030,0,0,-71,0,0,0,79,81,118,80,74,125.99,129,-57.00,66.00,-1040.00
2024-06-07 01:37:23.509962,0,0,-65,0,0,0,79,81,117,80,74,126.07,129,11.00,-7.00,-1076.00
2024-06-07 01:37:23.683876,0,0,-59,0,0,0,79,81,117,80,74,126.08,129,12.00,-8.00,-1039.00
2024-06-07 01:37:23.713972,0,0,-53,0,0,0,79,81,117,80,74,126.02,129,-47.00,7.00,-931.00
2024-06-07 01:37:23.889202,0,0,-47,0,0,0,79,81,117,80,74,126.09,129,-21.00,41.00,-963.00
2024-06-07 01:37:23.917893,0,1,-41,0,0,0,79,81,117,80,74,125.99,129,8.00,-5.00,-1063.00
2024-06-07 01:37:24.093420,0,1,-35,0,0,0,79,81,118,80,74,126.03,129,-56.00,17.00,-968.00
2024-06-07 01:37:24.121902,0,1,-29,0,0,0,79,81,118,80,74,126.03,129,19.00,5.00,-937.00
2024-06-07 01:37:24.223937,0,1,-23,0,0,0,79,81,118,80,74,126.07,129,-7.00,-1.00,-1014.00
2024-06-07 01:37:24.325852,0,1,-17,0,0,0,79,81,119,80,74,126.10,130,-36.00,22.00,-987.00
2024-06-07 01:37:24.427934,0,1,-11,0,0,0,79,81,119,80,74,126.06,130,-31.00,51.00,-1071.00
2024-06-07 01:37:24.529803,0,1,-5,0,0,0,79,81,120,80,74,126.04,130,-97.00,34.00,-1036.00
2024-06-07 01:37:24.707857,0,1,0,0,0,0,79,81,121,80,74,126.11,130,-36.00,19.00,-990.00
2024-06-07 01:37:24.735206,0,1,6,0,0,0,79,81,122,80,74,126.03,130,-42.00,53.00,-829.00
2024-06-07 01:37:24.789878,0,0,12,0,0,0,79,81,122,80,74,126.11,130,-65.00,21.00,-955.00
2024-06-07 01:37:24.888733,0,1,18,0,0,0,79,81,121,90,74,126.08,130,-69.00,25.00,-972.00
2024-06-07 01:37:24.990976,0,1,24,0,0,0,79,81,122,90,74,126.04,130,-31.00,30.00,-884.00
2024-06-07 01:37:25.090873,0,0,30,0,0,0,79,81,122,90,74,126.13,130,-35.00,-36.00,-947.00
2024-06-07 01:37:25.222251,0,0,37,0,0,0,79,81,121,90,74,126.02,130,39.00,-22.00,-972.00
2024-06-07 01:37:25.294819,0,0,43,0,0,0,79,81,122,90,74,126.15,131,-20.00,11.00,-1166.00
2024-06-07 01:37:25.428833,0,0,47,0,0,0,79,81,121,90,73,126.08,131,6.00,-10.00,-941.00
2024-06-07 01:37:25.498808,0,0,51,0,0,0,79,81,121,90,73,126.05,131,-26.00,16.00,-1016.00
2024-06-07 01:37:25.600785,0,1,54,0,0,0,79,81,120,90,73,126.05,131,9.00,-23.00,-1015.00
2024-06-07 01:37:25.702869,0,1,56,0,0,0,79,81,120,90,73,126.06,131,36.00,-1.00,-878.00
2024-06-07 01:37:25.836370,0,1,58,0,0,0,79,81,119,90,73,126.07,131,-12.00,13.00,-878.00
2024-06-07 01:37:25.906782,0,0,59,0,0,0,79,81,119,80,73,126.07,131,-133.00,46.00,-924.00
2024-06-07 01:37:26.008861,0,0,60,0,0,0,79,81,118,80,73,126.04,131,-42.00,10.00,-1059.00
2024-06-07 01:37:26.110961,0,0,61,0,0,0,80,81,117,80,73,126.07,131,18.00,-39.00,-1044.00
2024-06-07 01:37:26.213464,0,0,61,0,0,0,80,81,118,80,73,126.11,131,32.00,-58.00,-1060.00
2024-06-07 01:37:26.315159,0,0,61,0,0,0,80,81,118,80,73,126.15,132,-31.00,-42.00,-1024.00
2024-06-07 01:37:26.416915,0,0,61,0,0,0,80,81,119,80,73,126.06,132,-76.00,13.00,-875.00
2024-06-07 01:37:26.518965,0,0,61,0,0,0,80,81,119,80,73,126.07,132,-6.00,-15.00,-962.00
2024-06-07 01:37:26.653509,0,0,61,0,0,0,80,81,119,80,73,126.10,132,-1.00,-16.00,-980.00
2024-06-07 01:37:26.722960,0,0,61,0,0,0,80,81,119,80,73,126.03,132,0.00,-26.00,-930.00
2024-06-07 01:37:26.824887,0,0,61,0,0,0,80,81,119,80,73,126.09,132,9.00,-44.00,-953.00
2024-06-07 01:37:26.926895,0,0,61,0,0,0,80,81,119,80,73,126.10,132,-51.00,-11.00,-1015.00
2024-06-07 01:37:27.063125,0,0,61,0,0,0,80,81,119,80,73,126.07,132,-39.00,-31.00,-950.00
2024-06-07 01:37:27.130858,0,0,61,0,0,0,78,81,119,80,73,126.04,132,22.00,-45.00,-949.00
2024-06-07 01:37:27.233289,0,0,61,0,0,0,78,81,118,80,73,126.07,132,-62.00,51.00,-849.00
2024-06-07 01:37:27.334852,0,0,61,0,0,0,78,81,118,80,73,126.07,133,7.00,-19.00,-1067.00
2024-06-07 01:37:27.436879,0,0,61,0,0,0,78,81,118,80,73,126.06,133,-94.00,30.00,-937.00
2024-06-07 01:37:27.539141,0,0,61,0,0,0,78,81,117,80,73,126.07,133,38.00,-25.00,-953.00
2024-06-07 01:37:27.641428,0,0,61,0,0,0,78,81,117,80,73,126.07,133,-21.00,13.00,-938.00
2024-06-07 01:37:27.743815,0,0,61,0,0,0,78,81,117,80,73,126.10,133,70.00,-53.00,-994.00
2024-06-07 01:37:27.846541,0,0,61,0,0,0,78,81,116,80,73,126.09,133,5.00,15.00,-922.00
2024-06-07 01:37:27.946911,0,0,61,0,0,0,78,81,116,80,73,126.07,133,28.00,22.00,-1064.00
2024-06-07 01:37:28.062840,0,0,61,0,0,0,78,81,116,80,73,126.10,133,-83.00,17.00,-1054.00
2024-06-07 01:37:28.150609,0,0,61,0,0,0,79,81,116,80,73,126.00,133,-92.00,25.00,-931.00
2024-06-07 01:37:28.252753,0,0,59,0,0,0,79,81,116,80,73,126.07,133,-101.00,68.00,-1005.00
2024-06-07 01:37:28.354568,0,0,54,0,0,0,79,81,115,80,73,126.10,134,-9.00,-10.00,-1037.00
2024-06-07 01:37:28.496398,0,0,48,0,0,0,79,81,116,80,73,126.06,134,-51.00,29.00,-1003.00
2024-06-07 01:37:28.560314,0,0,42,0,0,0,79,81,116,80,73,126.14,134,3.00,-22.00,-906.00
2024-06-07 01:37:28.609530,0,0,36,0,0,0,79,81,115,80,73,126.07,134,-5.00,17.00,-887.00
2024-06-07 01:37:28.711555,0,0,30,0,0,0,79,81,115,80,73,126.10,134,-7.00,-15.00,-1039.00
2024-06-07 01:37:28.905922,0,0,24,0,0,0,79,81,114,80,73,126.08,134,-64.00,15.00,-914.00
2024-06-07 01:37:28.915528,0,0,18,0,0,0,79,81,114,80,73,126.11,134,22.00,-4.00,-925.00
2024-06-07 01:37:29.110772,0,0,12,0,0,0,79,81,114,80,73,126.11,134,-17.00,-2.00,-932.00
2024-06-07 01:37:29.170501,0,0,7,0,0,0,79,81,113,80,73,126.06,134,2.00,-34.00,-1122.00
2024-06-07 01:37:29.221500,0,0,1,0,0,0,79,81,113,80,73,126.04,134,-41.00,0.00,-1069.00
2024-06-07 01:37:29.417885,0,0,-4,0,0,0,79,81,113,80,73,126.06,135,26.00,-19.00,-1022.00
2024-06-07 01:37:29.425445,0,0,-10,0,0,0,79,81,113,80,73,126.12,135,-13.00,-17.00,-998.00
2024-06-07 01:37:29.527460,0,0,-16,0,0,0,79,81,113,80,73,126.07,135,66.00,-10.00,-1040.00
2024-06-07 01:37:29.725475,0,0,-22,0,0,0,79,81,113,80,73,126.08,135,44.00,-17.00,-1018.00
2024-06-07 01:37:29.731526,0,0,-28,0,0,0,79,81,113,80,73,126.12,135,19.00,-19.00,-994.00
2024-06-07 01:37:29.929914,0,0,-34,0,0,0,79,81,113,80,73,126.15,135,-23.00,18.00,-1108.00
2024-06-07 01:37:29.935418,0,0,-40,0,0,0,79,81,114,80,73,126.16,135,45.00,-58.00,-1052.00
2024-06-07 01:37:30.135112,0,0,-46,0,0,0,79,81,114,80,73,126.12,135,27.00,0.00,-1006.00
2024-06-07 01:37:30.139407,0,0,-52,0,0,0,80,81,115,80,73,126.14,135,-11.00,1.00,-1089.00
2024-06-07 01:37:30.339513,0,0,-58,0,0,0,80,81,115,80,73,126.09,135,-54.00,14.00,-980.00
2024-06-07 01:37:30.343398,0,0,-64,0,0,0,80,81,115,80,73,126.07,136,-43.00,41.00,-948.00
2024-06-07 01:37:30.445393,0,0,-70,0,0,0,80,81,115,80,73,126.12,136,-18.00,-14.00,-1032.00
2024-06-07 01:37:30.547318,1,0,-76,0,0,0,80,81,116,80,73,126.10,136,80.00,-46.00,-993.00
2024-06-07 01:37:30.651483,1,0,-82,0,0,0,80,81,115,80,73,126.10,136,33.00,-12.00,-1028.00
2024-06-07 01:37:30.854664,1,0,-88,0,0,0,80,81,116,80,73,126.08,136,-4.00,1.00,-974.00
2024-06-07 01:37:30.854736,0,0,-94,0,0,0,80,81,115,80,73,126.17,136,-49.00,56.00,-975.00
2024-06-07 01:37:30.957657,0,0,-100,0,0,0,80,81,115,80,73,126.10,136,-56.00,27.00,-1083.00
2024-06-07 01:37:31.058299,0,0,-106,0,0,0,80,81,116,80,73,126.10,136,10.00,-29.00,-997.00
2024-06-07 01:37:31.160581,0,0,-112,0,0,0,79,81,117,80,73,126.14,136,41.00,-20.00,-1058.00
2024-06-07 01:37:31.365212,0,0,-118,0,0,0,79,81,117,80,73,126.11,136,46.00,-2.00,-1039.00
2024-06-07 01:37:31.365279,0,0,-124,0,0,0,79,81,118,80,72,126.13,137,9.00,-7.00,-1007.00
2024-06-07 01:37:31.466462,0,0,-130,0,0,0,79,81,118,80,72,126.10,137,-18.00,9.00,-970.00
2024-06-07 01:37:31.568435,0,0,-136,0,0,0,79,81,119,80,72,126.17,137,30.00,-19.00,-1010.00
2024-06-07 01:37:31.671056,0,0,-142,0,0,0,79,81,120,80,72,126.14,137,61.00,-32.00,-995.00
2024-06-07 01:37:31.773431,0,0,-148,0,0,0,79,81,120,80,72,126.15,137,26.00,-24.00,-1087.00
2024-06-07 01:37:31.875691,1,0,-154,0,0,0,79,81,121,80,72,126.17,137,-10.00,-28.00,-1046.00
2024-06-07 01:37:31.978538,0,-1,-159,0,0,0,79,81,122,80,72,126.11,137,13.00,0.00,-1017.00
2024-06-07 01:37:32.078283,0,-1,-165,0,0,0,79,81,122,90,72,126.16,137,25.00,-7.00,-978.00
2024-06-07 01:37:32.184657,0,-1,-171,0,0,0,79,81,123,90,72,126.17,137,87.00,-43.00,-1070.00
2024-06-07 01:37:32.282214,0,-1,-177,0,0,0,79,81,123,90,72,126.16,137,-29.00,19.00,-1076.00
2024-06-07 01:37:32.389124,0,0,175,0,0,0,79,81,124,90,72,126.17,138,-41.00,29.00,-855.00
2024-06-07 01:37:32.487127,0,-1,169,0,0,0,79,81,125,90,72,126.19,138,10.00,23.00,-887.00
2024-06-07 01:37:32.588362,0,-1,163,0,0,0,79,81,124,90,72,126.21,138,-4.00,14.00,-1100.00
2024-06-07 01:37:32.690190,0,-1,157,0,0,0,79,81,125,90,72,126.23,138,-43.00,28.00,-1068.00
2024-06-07 01:37:32.741159,0,-1,151,0,0,0,79,81,125,90,72,126.22,138,6.00,26.00,-1044.00
2024-06-07 01:37:32.900192,0,-1,145,0,0,0,79,81,126,90,72,126.15,138,86.00,-51.00,-985.00
2024-06-07 01:37:32.945147,0,0,139,0,0,0,79,81,124,90,72,126.14,138,-26.00,43.00,-958.00
2024-06-07 01:37:33.048056,0,0,133,0,0,0,79,81,124,90,72,126.22,138,-18.00,-9.00,-968.00
2024-06-07 01:37:33.149253,0,0,127,0,0,0,79,81,124,90,72,126.19,138,21.00,-23.00,-1039.00
2024-06-07 01:37:33.251131,0,-1,121,0,0,0,79,81,123,90,72,126.15,138,6.00,24.00,-1062.00
2024-06-07 01:37:33.353117,0,-1,115,0,0,0,79,81,123,90,72,126.18,139,-17.00,17.00,-976.00
2024-06-07 01:37:33.457674,0,0,109,0,0,0,79,81,123,90,72,126.15,139,21.00,13.00,-886.00
2024-06-07 01:37:33.557371,0,0,103,0,0,0,79,81,121,90,72,126.16,139,45.00,-1.00,-1110.00
2024-06-07 01:37:33.659100,-1,0,97,0,0,0,79,81,121,90,72,126.17,139,-25.00,-7.00,-1076.00
2024-06-07 01:37:33.820975,0,0,91,0,0,0,79,81,120,90,72,126.16,139,5.00,-19.00,-1017.00
2024-06-07 01:37:33.863345,0,0,85,0,0,0,79,81,120,90,72,126.16,139,-3.00,5.00,-1050.00
2024-06-07 01:37:34.129941,0,0,80,0,0,0,79,81,119,80,72,126.12,139,-33.00,15.00,-1014.00
2024-06-07 01:37:34.130098,0,0,75,0,0,0,79,81,117,80,72,126.18,139,68.00,5.00,-1009.00
2024-06-07 01:37:34.168953,0,0,69,0,0,0,79,81,117,80,72,126.12,139,-18.00,3.00,-1026.00
2024-06-07 01:37:34.347743,0,0,67,0,0,0,79,81,117,80,72,126.16,140,19.00,15.00,-882.00
2024-06-07 01:37:34.373195,0,0,66,0,0,0,79,81,116,80,72,126.12,140,21.00,-19.00,-982.00
2024-06-07 01:37:34.487663,0,0,65,0,0,0,79,81,116,80,72,126.11,140,-68.00,42.00,-928.00
2024-06-07 01:37:34.619923,0,0,64,0,0,0,79,81,116,80,72,126.09,140,-65.00,43.00,-1074.00
2024-06-07 01:37:34.716152,0,0,63,0,0,0,79,81,115,80,72,126.11,140,-17.00,12.00,-911.00
2024-06-07 01:37:34.802217,0,0,63,0,0,0,79,81,115,80,72,126.11,140,-43.00,-3.00,-1014.00
2024-06-07 01:37:34.911731,0,0,63,0,0,0,79,81,116,80,72,126.12,140,-52.00,29.00,-993.00
2024-06-07 01:37:34.999777,0,0,63,0,0,0,79,81,115,80,72,126.08,140,3.00,-33.00,-969.00
2024-06-07 01:37:35.088219,0,0,63,0,0,0,79,81,115,80,72,126.11,140,-26.00,7.00,-894.00
2024-06-07 01:37:35.306860,0,0,63,0,0,0,79,82,115,80,72,126.15,140,0.00,-27.00,-976.00
2024-06-07 01:37:35.307332,0,0,63,0,0,0,79,82,115,80,72,126.15,141,-18.00,-5.00,-981.00
2024-06-07 01:37:35.448413,0,0,63,0,0,0,79,82,115,80,72,126.13,141,-73.00,46.00,-972.00
2024-06-07 01:37:35.591801,0,0,63,0,0,0,79,82,116,80,72,126.14,141,29.00,-19.00,-1053.00
2024-06-07 01:37:35.598024,0,0,63,0,0,0,79,82,116,80,72,126.07,141,-8.00,-19.00,-902.00
2024-06-07 01:37:35.737203,0,0,63,0,0,0,79,82,117,80,72,126.13,141,-88.00,1.00,-927.00
2024-06-07 01:37:35.880508,0,0,63,0,0,0,79,82,118,80,72,126.11,141,54.00,-45.00,-1033.00
2024-06-07 01:37:35.904061,0,0,63,0,0,0,79,82,119,80,72,126.12,141,1.00,15.00,-919.00
2024-06-07 01:37:36.023885,0,0,63,0,0,0,79,82,119,80,72,126.21,141,-46.00,38.00,-1065.00
2024-06-07 01:37:36.108215,0,0,63,0,0,0,79,82,119,80,72,126.18,141,-39.00,10.00,-1099.00
2024-06-07 01:37:36.278746,0,0,63,0,0,0,79,81,120,80,72,126.11,141,-66.00,0.00,-994.00
2024-06-07 01:37:36.312128,0,0,63,0,0,0,79,81,120,80,72,126.14,142,-55.00,-5.00,-969.00
2024-06-07 01:37:36.483943,-1,0,63,0,0,0,79,81,121,80,72,126.16,142,-16.00,3.00,-1106.00
2024-06-07 01:37:36.516080,-1,0,63,0,0,0,79,81,119,80,72,126.20,142,-18.00,2.00,-959.00
2024-06-07 01:37:36.688448,0,0,63,0,0,0,79,81,120,80,72,126.14,142,-36.00,9.00,-944.00
2024-06-07 01:37:36.688560,0,0,63,0,0,0,79,81,118,80,72,126.15,142,3.00,-25.00,-1121.00
2024-06-07 01:37:36.773186,0,0,63,0,0,0,79,81,118,80,72,126.15,142,-27.00,-20.00,-997.00
2024-06-07 01:37:36.894328,0,0,63,0,0,0,79,81,117,80,72,126.07,142,-55.00,16.00,-1056.00
2024-06-07 01:37:36.976912,0,0,63,0,0,0,79,81,115,80,72,126.15,142,16.00,-23.00,-981.00
2024-06-07 01:37:37.099453,0,0,63,0,0,-2,79,81,115,80,72,126.21,142,-65.00,3.00,-1474.00
2024-06-07 01:37:37.180906,0,-3,63,0,0,-9,79,81,123,90,72,126.31,142,19.00,91.00,-1395.00
2024-06-07 01:37:37.282940,0,-72,63,3,-1,-12,79,81,391,100,72,126.41,143,-46.00,534.00,-1007.00
2024-06-07 01:37:37.404860,0,161,63,9,-4,0,79,81,211,110,72,126.40,143,-86.00,604.00,-976.00
2024-06-07 01:37:37.487732,0,43,61,5,-2,12,79,81,153,100,72,126.61,143,-14.00,372.00,-1270.00
2024-06-07 01:37:37.609737,1,-12,61,3,-2,11,79,81,118,90,72,126.09,143,113.00,-172.00,-1564.00
2024-06-07 01:37:37.691894,0,1,61,5,-3,7,79,81,105,80,72,126.07,143,-61.00,220.00,-1406.00
2024-06-07 01:37:37.817423,0,6,62,3,-2,3,79,81,99,80,72,126.06,143,-16.00,56.00,-1346.00
2024-06-07 01:37:37.895788,0,4,62,2,-1,0,79,81,97,70,72,126.01,143,11.00,21.00,-1318.00
2024-06-07 01:37:38.019315,0,2,63,2,-1,-1,79,81,97,70,72,126.05,143,9.00,-7.00,-1087.00
2024-06-07 01:37:38.099779,0,1,62,1,-1,-2,79,81,98,70,72,125.99,143,13.00,-9.00,-1042.00
2024-06-07 01:37:38.224056,0,1,62,1,0,-2,80,81,100,80,72,126.03,143,-75.00,55.00,-994.00
2024-06-07 01:37:38.303752,0,0,62,1,0,-2,80,81,101,80,72,126.05,144,71.00,-35.00,-941.00
2024-06-07 01:37:38.428825,0,0,62,0,0,-2,80,81,104,80,72,126.07,144,37.00,-21.00,-1021.00
2024-06-07 01:37:38.508099,0,2,62,0,0,-2,80,81,105,80,72,126.07,144,-69.00,25.00,-918.00
2024-06-07 01:37:38.636472,0,3,62,0,0,-1,80,81,107,80,72,126.05,144,70.00,-28.00,-905.00
2024-06-07 01:37:38.712796,0,2,62,0,0,-1,80,81,108,90,72,126.04,144,-24.00,16.00,-1091.00
2024-06-07 01:37:38.843885,0,1,62,0,0,-1,80,81,108,90,72,126.10,144,-13.00,39.00,-1015.00
2024-06-07 01:37:38.917083,0,1,62,0,0,0,80,81,109,90,72,126.07,144,113.00,-36.00,-1047.00
2024-06-07 01:37:39.043211,0,0,62,0,0,0,80,81,110,90,72,126.09,144,-47.00,43.00,-939.00
2024-06-07 01:37:39.120676,0,0,62,0,0,0,80,81,110,90,72,125.99,144,43.00,-63.00,-880.00
2024-06-07 01:37:39.248895,0,0,62,0,0,0,79,81,111,90,72,126.07,144,-36.00,4.00,-928.00
2024-06-07 01:37:39.328979,0,0,62,0,0,0,79,81,111,90,72,126.05,145,-24.00,-22.00,-875.00
2024-06-07 01:37:39.426668,0,1,62,0,0,0,79,81,112,90,71,126.11,145,-77.00,44.00,-1025.00
2024-06-07 01:37:39.555336,0,1,62,0,0,0,79,81,112,90,71,126.13,145,-6.00,25.00,-1087.00
2024-06-07 01:37:39.630641,0,0,62,0,0,0,79,81,113,90,71,126.14,145,-26.00,32.00,-1034.00
2024-06-07 01:37:39.760036,0,0,62,0,0,0,79,81,112,90,71,126.14,145,33.00,-9.00,-905.00
2024-06-07 01:37:39.834609,0,0,62,0,0,0,79,81,113,90,71,126.11,145,59.00,-58.00,-983.00
2024-06-07 01:37:39.936627,0,0,62,0,0,0,79,81,113,90,71,126.18,145,-36.00,2.00,-914.00
2024-06-07 01:37:40.067852,0,0,62,0,0,0,79,81,113,90,71,126.15,145,11.00,14.00,-957.00
2024-06-07 01:37:40.089628,0,0,62,0,0,0,79,81,112,90,71,126.21,145,22.00,-55.00,-1010.00
2024-06-07 01:37:40.271928,0,0,62,0,0,0,78,81,113,90,71,126.17,145,-43.00,57.00,-934.00
2024-06-07 01:37:40.344585,0,0,62,0,0,0,78,81,112,90,71,126.24,146,-48.00,3.00,-1032.00
2024-06-07 01:37:40.446750,0,0,62,0,0,0,78,81,112,90,71,126.17,146,-6.00,-20.00,-909.00
2024-06-07 01:37:40.549726,0,0,62,0,0,0,78,81,112,90,71,126.17,146,-30.00,14.00,-790.00
2024-06-07 01:37:40.600638,0,0,62,0,0,0,78,81,112,90,71,126.15,146,55.00,-27.00,-1005.00
2024-06-07 01:37:40.702652,0,0,62,0,0,0,78,81,111,90,71,126.17,146,27.00,1.00,-1090.00
2024-06-07 01:37:40.886714,0,0,62,0,0,0,78,81,111,90,71,126.19,146,37.00,-2.00,-901.00
2024-06-07 01:37:40.906458,0,0,62,0,0,0,78,81,111,90,71,126.20,146,27.00,-8.00,-1006.00
2024-06-07 01:37:41.091265,0,0,62,0,0,0,78,81,111,90,71,126.22,146,-34.00,16.00,-892.00
2024-06-07 01:37:41.110504,0,0,62,0,0,0,78,81,111,90,71,126.07,146,-72.00,55.00,-953.00
2024-06-07 01:37:41.212671,0,0,62,0,0,0,79,81,111,90,71,126.14,146,-49.00,33.00,-1047.00
2024-06-07 01:37:41.398413,0,0,63,0,0,0,79,81,111,90,70,126.15,147,40.00,-7.00,-1047.00
2024-06-07 01:37:41.416427,0,0,63,0,0,0,79,81,112,90,70,126.17,147,64.00,-46.00,-981.00
2024-06-07 01:37:41.519775,0,0,63,0,0,0,79,81,111,90,70,126.12,147,55.00,-47.00,-1023.00
2024-06-07 01:37:41.620584,0,0,63,0,0,0,79,81,111,90,70,126.14,147,99.00,-53.00,-1157.00
2024-06-07 01:37:41.722959,0,0,63,0,0,0,79,81,111,90,70,126.13,147,-24.00,17.00,-1017.00
2024-06-07 01:37:41.824553,0,0,63,0,0,0,79,81,112,90,70,126.19,147,92.00,-60.00,-943.00
2024-06-07 01:37:41.927010,0,0,63,0,0,0,79,81,111,90,70,126.12,147,-78.00,35.00,-971.00
2024-06-07 01:37:42.028594,0,0,63,0,0,0,79,81,112,90,70,126.17,147,11.00,-12.00,-951.00
2024-06-07 01:37:42.217619,0,0,63,0,0,0,79,81,112,90,70,126.16,147,37.00,-29.00,-1101.00
2024-06-07 01:37:42.232740,0,0,63,0,0,0,79,82,112,90,70,126.13,147,-4.00,5.00,-1085.00
2024-06-07 01:37:42.422773,0,0,63,0,0,0,79,82,112,90,70,126.18,148,6.00,-18.00,-1006.00
2024-06-07 01:37:42.436867,0,0,63,0,0,0,79,82,112,90,70,126.12,148,51.00,-19.00,-984.00
2024-06-07 01:37:42.627366,0,0,63,0,0,0,79,82,112,90,70,126.22,148,29.00,-8.00,-1058.00
2024-06-07 01:37:42.642770,0,0,63,0,0,0,79,82,113,90,70,126.11,148,14.00,-9.00,-1135.00
2024-06-07 01:37:42.831891,0,0,63,0,0,0,79,82,112,90,70,126.15,148,3.00,-31.00,-1021.00
2024-06-07 01:37:42.845328,0,0,63,0,0,0,79,82,112,90,70,126.15,148,56.00,-30.00,-1097.00
2024-06-07 01:37:43.037199,0,0,63,0,0,0,79,82,112,90,70,126.20,148,-1.00,-1.00,-1013.00
2024-06-07 01:37:43.049395,0,0,63,0,0,0,79,82,112,90,70,126.15,148,-22.00,-10.00,-999.00
2024-06-07 01:37:43.241874,0,0,63,0,0,0,79,82,111,90,70,126.19,148,-44.00,31.00,-869.00
2024-06-07 01:37:43.253353,0,0,63,0,0,0,79,81,110,90,70,126.12,148,57.00,-16.00,-1010.00
2024-06-07 01:37:43.355548,0,0,63,0,0,0,79,81,109,90,70,126.13,149,-21.00,0.00,-948.00
2024-06-07 01:37:43.457863,0,0,63,0,0,0,79,81,109,90,70,126.08,149,79.00,-41.00,-1189.00
2024-06-07 01:37:43.559258,0,0,63,0,0,0,79,81,108,90,70,126.20,149,34.00,-21.00,-991.00
2024-06-07 01:37:43.753278,0,0,63,0,0,0,79,81,108,90,70,126.28,149,8.00,38.00,-1066.00
2024-06-07 01:37:43.763495,0,0,63,0,0,-3,79,81,111,90,70,126.36,149,37.00,-107.00,-1592.00
2024-06-07 01:37:43.958095,0,7,63,0,0,-10,79,81,122,90,70,126.36,149,42.00,-74.00,-1694.00
2024-06-07 01:37:43.967149,0,85,63,-5,2,-12,79,81,6553,110,70,126.43,149,10.00,521.00,-1401.00
2024-06-07 01:37:44.162991,1,-143,62,-9,4,1,79,81,264,110,70,126.51,149,33.00,833.00,-906.00
2024-06-07 01:37:44.163149,1,-28,65,-3,1,10,79,81,137,110,70,126.58,149,-6.00,736.00,-1018.00
2024-06-07 01:37:44.273138,1,5,65,-3,1,9,79,81,110,100,70,126.19,149,36.00,760.00,-856.00
2024-06-07 01:37:44.324122,0,-3,64,-4,1,5,79,81,106,90,70,126.32,150,8.00,348.00,-873.00
2024-06-07 01:37:44.470032,-1,-4,63,-3,1,1,79,81,102,80,70,126.24,150,-46.00,-16.00,-1498.00
2024-06-07 01:37:44.528367,0,-1,62,-2,0,0,79,81,102,80,70,126.19,150,-24.00,-47.00,-1329.00
2024-06-07 01:37:44.675122,0,-1,62,-2,0,-1,79,81,101,80,70,126.21,150,48.00,-10.00,-1213.00
2024-06-07 01:37:44.732281,0,-1,63,-1,0,-1,79,81,103,80,70,126.16,150,76.00,-59.00,-1200.00
2024-06-07 01:37:44.879616,0,-1,63,-1,0,-1,79,81,105,80,70,126.23,150,37.00,-37.00,-1130.00
2024-06-07 01:37:44.936083,0,-1,63,-1,0,-1,79,81,106,90,70,126.18,150,-14.00,9.00,-1037.00
2024-06-07 01:37:45.084551,0,-2,63,-1,0,0,79,81,107,90,70,126.25,150,27.00,-35.00,-1200.00
2024-06-07 01:37:45.140043,-1,-3,63,0,0,0,79,81,107,90,70,126.14,150,71.00,-41.00,-951.00
2024-06-07 01:37:45.289340,0,-1,63,0,0,0,78,80,108,90,70,126.11,150,14.00,-39.00,-1015.00
2024-06-07 01:37:45.344721,0,-1,63,0,0,0,78,80,109,90,70,126.11,151,6.00,3.00,-949.00
2024-06-07 01:37:45.493933,0,0,63,0,0,0,78,80,110,90,70,126.13,151,-99.00,70.00,-992.00
2024-06-07 01:37:45.551011,0,0,63,0,0,0,78,80,110,90,70,126.17,151,1.00,-1.00,-1013.00
2024-06-07 01:37:45.652072,-1,-1,63,0,0,0,78,80,111,90,70,126.26,151,-12.00,-11.00,-1017.00
2024-06-07 01:37:45.752013,0,-1,63,0,0,0,78,80,111,90,70,126.28,151,-67.00,26.00,-903.00
2024-06-07 01:37:45.903633,0,-1,63,0,0,0,78,80,111,90,70,126.19,151,-80.00,36.00,-1067.00
2024-06-07 01:37:45.959242,0,-1,62,0,0,0,78,80,113,90,70,126.24,151,-46.00,22.00,-1020.00
2024-06-07 01:37:46.058115,0,-1,62,0,0,0,78,80,113,90,70,126.26,151,-57.00,-7.00,-948.00
2024-06-07 01:37:46.160103,0,-1,63,0,0,0,78,80,113,90,70,126.24,151,2.00,-52.00,-1059.00
2024-06-07 01:37:46.313426,0,-1,62,0,0,0,78,81,114,90,70,126.22,151,-5.00,0.00,-974.00
2024-06-07 01:37:46.365262,0,-1,62,0,0,0,78,81,115,90,69,126.27,152,11.00,-1.00,-1183.00
2024-06-07 01:37:46.517872,0,0,62,0,0,0,78,81,115,90,69,126.25,152,-61.00,40.00,-897.00
2024-06-07 01:37:46.570400,0,0,62,0,0,0,78,81,115,90,69,126.20,152,-35.00,20.00,-965.00
2024-06-07 01:37:46.669888,0,-1,62,0,0,0,78,81,115,90,69,126.25,152,-11.00,-18.00,-972.00
2024-06-07 01:37:46.825124,0,-1,62,0,0,0,78,81,116,90,69,126.24,152,-23.00,9.00,-955.00
2024-06-07 01:37:46.873890,0,-1,62,0,0,0,78,81,116,90,69,126.22,152,-106.00,66.00,-1086.00
