TS,pitch,roll,yaw,vgx,vgy,vgz,templ,temph,tof,h,bat,baro,time,agx,agy,agz
2024-06-07 10:25:03.478571,1,0,0,0,0,0,58,60,10,0,92,131.20,0,24.00,7.00,-997.00
2024-06-07 10:25:03.558468,1,0,0,0,0,0,58,60,10,0,92,131.22,0,24.00,7.00,-998.00
2024-06-07 10:25:03.675824,1,0,0,0,0,0,58,60,10,0,92,131.10,0,26.00,5.00,-998.00
2024-06-07 10:25:03.761998,1,0,0,0,0,0,58,60,10,0,92,131.16,0,26.00,5.00,-996.00
2024-06-07 10:25:03.880597,1,0,0,0,0,0,58,60,10,0,92,131.23,0,25.00,6.00,-998.00
2024-06-07 10:25:03.965767,1,0,0,0,0,0,58,60,10,0,92,131.17,0,25.00,6.00,-998.00
2024-06-07 10:25:04.068856,1,0,0,0,0,0,58,60,10,0,92,131.15,0,25.00,6.00,-999.00
2024-06-07 10:25:04.169870,1,0,0,0,0,0,58,60,10,0,92,131.15,0,26.00,6.00,-997.00
2024-06-07 10:25:04.220917,1,0,0,0,0,0,58,60,10,0,92,131.21,0,25.00,7.00,-999.00
2024-06-07 10:25:04.397082,1,0,0,0,0,0,58,60,10,0,92,131.27,0,24.00,7.00,-997.00
2024-06-07 10:25:04.424895,1,0,0,0,0,0,58,60,10,0,92,131.28,0,25.00,6.00,-999.00
2024-06-07 10:25:04.597246,1,0,0,0,0,0,58,60,10,0,92,131.27,0,26.00,6.00,-1000.00
2024-06-07 10:25:04.679825,1,0,0,0,0,0,58,60,10,0,92,131.28,0,24.00,7.00,-999.00
2024-06-07 10:25:04.782055,1,0,0,0,0,0,58,60,10,0,92,131.33,0,24.00,7.00,-999.00
2024-06-07 10:25:04.833300,1,0,0,0,0,0,58,60,10,0,92,131.32,0,26.00,6.00,-997.00
2024-06-07 10:25:05.007575,1,0,0,0,0,0,58,60,10,0,92,131.28,0,24.00,7.00,-1000.00
2024-06-07 10:25:05.037096,1,0,0,0,0,0,58,60,10,0,92,131.22,0,25.00,7.00,-1000.00
2024-06-07 10:25:05.211629,1,0,0,0,0,0,58,60,10,0,92,131.21,0,24.00,5.00,-1001.00
2024-06-07 10:25:05.241243,1,0,0,0,0,0,58,60,10,0,92,131.23,0,25.00,5.00,-999.00
2024-06-07 10:25:05.417058,1,0,0,0,0,0,58,60,10,0,92,131.22,0,26.00,6.00,-997.00
2024-06-07 10:25:05.444809,1,0,0,0,0,0,58,60,10,0,92,131.20,0,26.00,5.00,-1000.00
2024-06-07 10:25:05.622019,1,0,0,0,0,0,59,60,10,0,92,131.20,0,25.00,6.00,-997.00
2024-06-07 10:25:05.648724,1,0,0,0,0,0,59,60,10,0,92,131.18,0,25.00,6.00,-999.00
2024-06-07 10:25:05.827600,1,0,0,0,0,0,59,60,10,0,92,131.19,0,25.00,5.00,-1000.00
2024-06-07 10:25:05.853453,1,0,0,0,0,0,59,60,10,0,92,131.24,0,24.00,7.00,-1001.00
2024-06-07 10:25:05.954916,1,0,0,0,0,0,59,60,10,0,92,131.26,0,26.00,5.00,-998.00
2024-06-07 10:25:06.133297,1,0,0,0,0,0,59,60,10,0,92,131.20,0,25.00,6.00,-999.00
2024-06-07 10:25:06.159066,1,0,0,0,0,0,59,60,10,0,92,131.20,0,26.00,7.00,-999.00
2024-06-07 10:25:06.338286,1,0,0,0,0,0,59,60,10,0,92,131.26,0,25.00,8.00,-997.00
2024-06-07 10:25:06.362732,1,0,0,0,0,0,59,60,10,0,92,131.24,0,25.00,7.00,-999.00
2024-06-07 10:25:06.542989,1,0,0,0,0,0,59,60,10,0,92,131.27,0,24.00,5.00,-999.00
2024-06-07 10:25:06.566790,1,0,0,0,0,0,59,61,10,0,92,131.26,0,27.00,6.00,-999.00
2024-06-07 10:25:06.672735,1,0,0,0,0,0,59,61,10,0,92,131.22,0,24.00,7.00,-1000.00
2024-06-07 10:25:06.770803,1,0,0,0,0,0,59,61,10,0,92,131.23,0,25.00,6.00,-1001.00
2024-06-07 10:25:06.873023,1,0,0,0,0,0,59,61,10,0,92,131.25,0,26.00,6.00,-1003.00
2024-06-07 10:25:07.054906,1,0,0,0,0,0,59,61,10,0,92,131.23,0,26.00,7.00,-997.00
2024-06-07 10:25:07.076719,1,0,0,0,0,0,59,61,10,0,92,131.23,0,41.00,20.00,-988.00
2024-06-07 10:25:07.178677,1,0,0,0,0,0,59,61,10,0,92,131.23,0,25.00,25.00,-999.00
2024-06-07 10:25:07.361976,1,0,0,0,0,0,59,61,10,0,92,131.23,0,8.00,23.00,-993.00
2024-06-07 10:25:07.382562,1,0,2,0,0,0,59,61,10,0,92,131.23,0,-50.00,-1.00,-873.00
2024-06-07 10:25:07.485953,1,0,3,0,0,0,59,61,10,0,92,131.23,0,23.00,-62.00,-1089.00
2024-06-07 10:25:07.670633,1,-1,3,0,0,0,59,62,10,0,92,131.23,0,-5.00,-9.00,-1235.00
2024-06-07 10:25:07.688667,1,-1,3,0,-1,-2,59,62,18,0,92,131.23,0,-35.00,-49.00,-1330.00
2024-06-07 10:25:07.874136,-1,3,3,-1,-2,-4,59,62,18,0,92,131.23,0,-70.00,-76.00,-1123.00
2024-06-07 10:25:07.892661,-2,4,3,-1,-2,-6,59,62,20,0,92,131.60,0,-88.00,-48.00,-999.00
2024-06-07 10:25:08.078991,-3,5,3,-1,-1,-7,59,62,27,0,92,131.82,0,-53.00,-65.00,-1047.00
2024-06-07 10:25:08.096632,-4,5,3,-1,-1,-6,59,62,36,10,92,131.72,1,-138.00,-54.00,-1037.00
2024-06-07 10:25:08.147665,-4,5,3,-1,-1,-6,59,62,44,10,92,131.84,1,-13.00,-93.00,-922.00
2024-06-07 10:25:08.287338,-4,5,3,0,-1,-6,59,62,53,20,92,131.97,1,-32.00,-80.00,-966.00
2024-06-07 10:25:08.351929,-4,5,3,-1,-1,-5,59,62,60,20,92,132.02,1,-39.00,-104.00,-925.00
2024-06-07 10:25:08.488491,-5,5,3,0,-1,-4,59,62,67,30,92,132.13,1,-61.00,-72.00,-950.00
2024-06-07 10:25:08.555822,-5,6,3,0,0,-3,59,62,72,30,92,132.13,1,-87.00,-45.00,-894.00
2024-06-07 10:25:08.658926,-5,5,3,0,0,-2,59,62,76,30,92,132.11,1,-46.00,-80.00,-904.00
2024-06-07 10:25:08.760652,-5,5,3,0,0,-2,59,62,80,40,92,132.18,1,-59.00,-83.00,-895.00
2024-06-07 10:25:08.861964,-5,5,3,0,0,-1,59,62,83,40,92,132.17,1,-50.00,-77.00,-1004.00
2024-06-07 10:25:08.965434,-4,6,3,0,0,0,59,62,85,40,92,132.39,1,-91.00,-58.00,-892.00
2024-06-07 10:25:09.067951,-4,5,3,0,0,0,59,62,87,40,92,132.23,2,-5.00,-141.00,-933.00
2024-06-07 10:25:09.167641,-4,5,2,0,0,0,59,62,87,40,92,132.27,2,5.00,-111.00,-1018.00
2024-06-07 10:25:09.308924,-3,7,3,0,0,0,59,62,89,40,92,132.32,2,-15.00,-123.00,-1010.00
2024-06-07 10:25:09.371581,-2,7,3,0,0,0,59,62,90,50,92,132.49,2,14.00,-120.00,-969.00
2024-06-07 10:25:09.516949,-1,8,3,0,0,0,59,62,90,50,92,132.44,2,6.00,-108.00,-985.00
2024-06-07 10:25:09.575659,-2,7,2,0,0,0,59,62,90,50,92,132.30,2,-6.00,-137.00,-1012.00
2024-06-07 10:25:09.719265,-3,6,2,0,0,0,59,62,90,50,92,132.16,2,-8.00,-128.00,-948.00
2024-06-07 10:25:09.779932,-3,5,2,0,0,0,59,62,92,50,92,132.15,2,-65.00,-85.00,-1011.00
2024-06-07 10:25:09.881681,-2,6,3,0,0,0,59,62,92,50,92,132.29,2,-100.00,-74.00,-1002.00
2024-06-07 10:25:10.024450,-2,6,3,0,0,0,59,62,94,50,92,132.21,2,-34.00,-101.00,-962.00
2024-06-07 10:25:10.085723,-3,5,3,0,0,0,59,62,93,50,92,132.23,3,-34.00,-77.00,-976.00
2024-06-07 10:25:10.229273,-3,5,3,0,0,0,59,62,96,50,92,132.30,3,-14.00,-99.00,-998.00
2024-06-07 10:25:10.289533,-3,5,3,0,0,0,59,62,96,50,92,132.27,3,-21.00,-102.00,-951.00
2024-06-07 10:25:10.392083,-2,5,3,0,0,0,59,62,95,50,92,132.24,3,4.00,-126.00,-874.00
2024-06-07 10:25:10.493588,-2,5,3,1,0,0,59,62,95,50,92,132.25,3,-5.00,-64.00,-984.00
2024-06-07 10:25:10.641913,0,6,4,1,0,0,59,62,95,50,92,132.27,3,-16.00,-94.00,-1018.00
2024-06-07 10:25:10.697616,-1,5,3,0,0,1,59,62,94,50,92,132.28,3,-43.00,-86.00,-987.00
2024-06-07 10:25:10.843730,-2,5,3,0,0,1,59,62,94,50,92,132.31,3,-63.00,-76.00,-1050.00
2024-06-07 10:25:10.901540,-2,4,3,0,0,1,59,62,95,50,92,132.30,3,32.00,-87.00,-997.00
2024-06-07 10:25:11.016718,-1,5,3,0,0,1,59,62,93,50,92,132.19,4,-23.00,-62.00,-951.00
2024-06-07 10:25:11.105505,-1,4,3,0,0,1,59,62,92,50,92,132.22,4,-49.00,-76.00,-977.00
2024-06-07 10:25:11.254475,-1,4,3,0,0,1,59,62,91,50,92,132.16,4,-17.00,-108.00,-992.00
2024-06-07 10:25:11.309474,-1,5,3,0,0,1,59,62,90,50,92,132.25,4,-6.00,-111.00,-974.00
2024-06-07 10:25:11.411424,-2,5,3,0,0,1,59,62,89,50,92,132.37,4,-24.00,-95.00,-981.00
2024-06-07 10:25:11.560997,-2,5,3,0,0,1,59,62,88,50,92,132.36,4,-56.00,-80.00,-1026.00
2024-06-07 10:25:11.615491,-3,5,3,0,0,1,60,62,87,50,91,132.31,4,-11.00,-103.00,-898.00
2024-06-07 10:25:11.769471,-4,5,3,0,0,1,60,62,87,50,91,132.19,4,-2.00,-99.00,-986.00
2024-06-07 10:25:11.819547,-4,5,3,0,0,1,60,62,86,50,91,132.15,4,-44.00,-109.00,-983.00
2024-06-07 10:25:11.970033,-4,5,3,0,0,0,60,62,84,50,91,132.16,4,-33.00,-96.00,-970.00
2024-06-07 10:25:12.023545,-4,5,3,0,0,0,60,62,84,50,91,132.11,5,-98.00,-66.00,-1017.00
2024-06-07 10:25:12.074982,-5,4,3,0,0,0,60,62,83,50,91,131.98,5,-75.00,-69.00,-1060.00
2024-06-07 10:25:12.176533,-4,3,3,0,0,0,60,62,81,40,91,132.07,5,-34.00,-82.00,-931.00
2024-06-07 10:25:12.278694,-4,4,3,0,0,0,60,62,82,40,91,132.01,5,-29.00,-68.00,-1033.00
2024-06-07 10:25:12.380433,-4,4,3,0,0,0,60,62,80,40,91,132.05,5,-39.00,-75.00,-960.00
2024-06-07 10:25:12.483463,-3,4,3,0,0,0,60,62,80,40,91,131.95,5,-26.00,-85.00,-1040.00
2024-06-07 10:25:12.584684,-4,4,3,0,0,0,61,63,80,40,91,131.97,5,-62.00,-56.00,-1024.00
2024-06-07 10:25:12.686498,-4,4,3,0,0,0,61,63,79,40,91,131.93,5,-66.00,-61.00,-1071.00
2024-06-07 10:25:12.789227,-4,4,3,0,0,0,61,63,79,40,91,131.95,5,-59.00,-61.00,-1001.00
2024-06-07 10:25:12.891317,-4,3,3,0,0,0,61,63,79,40,91,131.99,5,-69.00,-66.00,-945.00
2024-06-07 10:25:12.995282,-4,3,3,0,0,0,61,63,79,40,91,131.94,6,-21.00,-79.00,-979.00
2024-06-07 10:25:13.094510,-4,3,3,0,0,0,61,63,80,40,91,132.03,6,-92.00,-56.00,-984.00
2024-06-07 10:25:13.196878,-4,3,3,0,0,0,61,63,79,40,91,132.05,6,-66.00,-49.00,-994.00
2024-06-07 10:25:13.298961,-5,3,3,0,0,0,61,63,80,40,91,131.89,6,-39.00,-67.00,-996.00
2024-06-07 10:25:13.400430,-4,3,3,0,0,0,61,63,80,40,91,131.86,6,-56.00,-60.00,-958.00
2024-06-07 10:25:13.502486,-4,3,3,0,0,0,61,63,80,40,91,132.02,6,-57.00,-47.00,-1065.00
2024-06-07 10:25:13.608771,-4,2,3,0,1,0,61,62,82,40,90,131.97,6,-58.00,-50.00,-990.00
2024-06-07 10:25:13.706739,-5,2,3,0,0,0,61,62,82,40,90,131.86,6,-77.00,-38.00,-1019.00
2024-06-07 10:25:13.813903,-5,2,3,0,0,0,61,62,83,40,90,131.72,6,-64.00,-34.00,-1040.00
2024-06-07 10:25:13.910450,-5,2,3,0,0,0,61,62,84,40,90,131.74,6,-74.00,-38.00,-1013.00
2024-06-07 10:25:14.018864,-4,3,3,0,0,0,61,62,83,40,90,131.81,7,-34.00,-20.00,-981.00
2024-06-07 10:25:14.117493,-4,2,3,0,0,0,61,62,83,50,90,131.75,7,-74.00,-19.00,-1005.00
2024-06-07 10:25:14.216432,-4,1,3,0,0,0,61,62,84,50,90,131.85,7,-63.00,-39.00,-984.00
2024-06-07 10:25:14.318711,-4,2,3,0,0,0,61,62,84,50,90,131.77,7,-77.00,-33.00,-1006.00
2024-06-07 10:25:14.420426,-4,2,3,0,0,0,61,62,84,50,90,131.90,7,-58.00,-49.00,-958.00
2024-06-07 10:25:14.522421,-5,2,3,0,0,0,61,62,83,50,90,131.96,7,-79.00,-36.00,-970.00
2024-06-07 10:25:14.624410,-5,2,3,0,0,0,60,63,83,40,90,131.95,7,-101.00,-30.00,-1007.00
2024-06-07 10:25:14.736151,-5,2,3,0,0,0,60,63,82,40,90,131.74,7,-25.00,-57.00,-996.00
2024-06-07 10:25:14.828638,-5,2,3,0,0,0,60,63,82,40,90,131.92,7,-47.00,-68.00,-1058.00
2024-06-07 10:25:14.939570,-5,2,3,0,0,0,60,63,81,40,90,131.84,7,-66.00,-50.00,-1002.00
2024-06-07 10:25:15.032605,-5,3,3,0,0,0,60,63,80,40,90,131.89,8,-40.00,-58.00,-975.00
2024-06-07 10:25:15.134568,-5,3,3,0,0,0,60,63,79,40,90,131.82,8,-66.00,-55.00,-926.00
2024-06-07 10:25:15.356780,-5,3,3,0,0,0,60,63,79,40,90,131.84,8,2.00,-69.00,-1049.00
2024-06-07 10:25:15.356902,-5,3,3,1,0,0,60,63,79,40,90,131.87,8,-63.00,-56.00,-1009.00
2024-06-07 10:25:15.440414,-4,3,3,1,0,0,60,63,78,40,90,131.94,8,-58.00,-60.00,-1015.00
2024-06-07 10:25:15.554837,-4,3,3,1,0,0,60,63,78,40,90,131.89,8,-1.00,-71.00,-1027.00
2024-06-07 10:25:15.644467,-3,4,3,1,0,0,61,63,77,40,89,131.91,8,-43.00,-48.00,-1045.00
2024-06-07 10:25:15.746551,-3,4,3,1,0,0,61,63,77,40,89,131.89,8,-71.00,-43.00,-972.00
2024-06-07 10:25:15.848360,-3,4,3,1,0,0,61,63,78,40,89,131.91,8,47.00,-72.00,-1030.00
2024-06-07 10:25:15.899238,-2,4,3,1,0,0,61,63,78,40,89,131.98,8,4.00,-59.00,-1020.00
2024-06-07 10:25:16.001248,-2,4,3,1,0,-1,61,63,79,40,89,131.94,9,-36.00,-59.00,-1103.00
2024-06-07 10:25:16.168382,-2,3,3,1,0,-2,61,63,81,40,89,132.06,9,49.00,-79.00,-997.00
2024-06-07 10:25:16.205266,-2,3,3,1,0,-3,61,63,84,50,89,132.14,9,5.00,-92.00,-1030.00
2024-06-07 10:25:16.307226,-2,3,3,1,0,-4,61,63,88,50,89,132.13,9,6.00,-57.00,-1092.00
2024-06-07 10:25:16.409333,-2,3,3,1,0,-4,61,63,93,50,89,132.12,9,6.00,-65.00,-1043.00
2024-06-07 10:25:16.511219,-1,4,3,1,0,-5,61,63,99,60,89,132.09,9,-12.00,-73.00,-1000.00
2024-06-07 10:25:16.680371,-1,3,3,1,0,-5,62,63,104,70,89,132.19,9,-30.00,-69.00,-1031.00
2024-06-07 10:25:16.715221,-1,3,3,1,0,-6,62,63,111,70,89,132.18,9,19.00,-80.00,-971.00
2024-06-07 10:25:16.888241,-1,4,3,0,0,-6,62,63,116,80,89,132.19,9,27.00,-91.00,-936.00
2024-06-07 10:25:16.919185,-2,4,3,0,0,-5,62,63,122,80,89,132.39,9,-51.00,-27.00,-1002.00
2024-06-07 10:25:17.093225,-3,4,3,0,0,-5,62,63,128,90,89,132.37,10,-45.00,-33.00,-984.00
2024-06-07 10:25:17.123435,-4,3,3,0,0,-5,62,63,135,90,89,132.54,10,-2.00,-51.00,-937.00
2024-06-07 10:25:17.295426,-4,3,3,0,1,-4,62,63,138,100,89,132.59,10,-25.00,-28.00,-974.00
2024-06-07 10:25:17.327145,-4,2,3,0,1,-4,62,63,144,100,89,132.65,10,-63.00,9.00,-904.00
2024-06-07 10:25:17.429214,-4,1,3,0,1,-3,62,63,147,110,89,132.65,10,-41.00,-30.00,-966.00
2024-06-07 10:25:17.605224,-4,1,3,0,1,-3,62,63,150,110,88,132.65,10,-68.00,-4.00,-1017.00
2024-06-07 10:25:17.634874,-5,1,3,0,0,-3,62,64,153,110,88,132.62,10,-34.00,-24.00,-981.00
2024-06-07 10:25:17.735370,-5,1,3,0,0,-2,62,64,155,120,88,132.56,10,-82.00,-2.00,-955.00
2024-06-07 10:25:17.912690,-5,2,3,0,0,-2,62,64,160,120,88,132.67,10,-108.00,44.00,-1042.00
2024-06-07 10:25:17.939751,-5,2,3,0,1,-2,62,64,159,120,88,132.63,10,-7.00,-16.00,-913.00
2024-06-07 10:25:18.137004,-5,0,3,0,1,-2,62,64,164,130,88,132.69,11,-167.00,78.00,-1018.00
2024-06-07 10:25:18.143271,-5,0,3,0,1,-2,62,64,168,130,88,132.74,11,-110.00,41.00,-983.00
2024-06-07 10:25:18.319190,-6,-1,3,0,1,-1,62,64,167,130,88,132.67,11,-43.00,-4.00,-937.00
2024-06-07 10:25:18.347137,-6,-1,3,0,1,-1,62,64,170,130,88,132.72,11,-70.00,-25.00,-940.00
2024-06-07 10:25:18.449113,-6,0,2,0,0,-1,62,64,171,130,88,132.90,11,-6.00,-15.00,-1026.00
2024-06-07 10:25:18.626789,-5,1,2,0,0,0,62,64,172,130,88,132.88,11,-36.00,-10.00,-1012.00
2024-06-07 10:25:18.653111,-4,2,2,1,0,0,62,64,170,130,88,132.85,11,-33.00,-30.00,-936.00
2024-06-07 10:25:18.831258,-3,2,2,1,0,0,62,64,168,130,88,132.73,11,1.00,-4.00,-1010.00
2024-06-07 10:25:18.857173,-3,2,3,1,0,0,62,64,169,140,88,132.83,11,-42.00,-40.00,-916.00
2024-06-07 10:25:19.036931,-2,2,3,1,0,0,62,64,169,140,88,132.83,11,29.00,-38.00,-992.00
2024-06-07 10:25:19.061031,-2,2,3,1,0,0,62,64,170,130,88,132.85,12,-53.00,6.00,-1008.00
2024-06-07 10:25:19.240665,-3,2,3,1,0,0,62,64,171,140,88,132.79,12,-36.00,-36.00,-999.00
2024-06-07 10:25:19.265068,-3,2,3,1,0,0,62,64,174,140,88,132.81,12,77.00,-53.00,-1031.00
2024-06-07 10:25:19.446530,-3,2,3,1,0,0,62,64,173,140,88,132.86,12,-30.00,-28.00,-1006.00
2024-06-07 10:25:19.470062,-3,3,3,1,0,0,62,64,174,140,88,132.81,12,-3.00,-31.00,-1034.00
2024-06-07 10:25:19.520589,-3,3,3,1,0,0,62,64,173,140,87,132.88,12,-107.00,-2.00,-953.00
2024-06-07 10:25:19.673082,-3,3,3,1,0,0,62,64,176,140,87,132.80,12,22.00,-62.00,-1009.00
2024-06-07 10:25:19.855402,-2,3,3,1,0,0,62,64,176,140,87,132.81,12,-7.00,-55.00,-1005.00
2024-06-07 10:25:19.877498,-2,4,3,1,0,0,62,64,178,140,87,132.85,12,54.00,-56.00,-999.00
2024-06-07 10:25:20.059698,-2,4,3,1,0,0,62,64,177,140,87,132.87,12,53.00,-74.00,-949.00
2024-06-07 10:25:20.081057,-2,3,3,1,0,0,62,64,178,140,87,132.94,13,-92.00,-8.00,-982.00
2024-06-07 10:25:20.132183,-2,3,3,1,0,0,62,64,176,140,87,132.91,13,6.00,-53.00,-976.00
2024-06-07 10:25:20.234143,-3,2,3,1,0,0,62,64,177,140,87,132.86,13,-39.00,-10.00,-1012.00
2024-06-07 10:25:20.366737,-3,3,3,1,0,0,62,64,177,140,87,132.87,13,-30.00,3.00,-961.00
2024-06-07 10:25:20.438124,-2,3,3,1,0,0,62,64,177,140,87,132.87,13,-15.00,-18.00,-1006.00
2024-06-07 10:25:20.572524,-2,3,3,1,1,0,62,64,177,140,87,132.91,13,-77.00,7.00,-1051.00
2024-06-07 10:25:20.642191,-1,2,3,1,1,0,63,65,175,140,87,132.89,13,-8.00,-44.00,-1033.00
2024-06-07 10:25:20.784639,-1,1,3,1,1,0,63,65,175,140,87,132.82,13,-2.00,-39.00,-983.00
2024-06-07 10:25:20.846612,-1,1,3,1,0,0,63,65,175,140,87,132.95,13,51.00,-73.00,-915.00
2024-06-07 10:25:20.981611,-1,2,3,1,0,0,63,65,173,140,87,132.90,13,-40.00,-54.00,-1022.00
2024-06-07 10:25:21.051486,-1,3,3,1,0,0,63,65,176,140,87,132.84,14,-25.00,-44.00,-1021.00
2024-06-07 10:25:21.152174,-1,3,3,1,0,0,63,65,175,140,87,132.97,14,-23.00,-38.00,-1015.00
2024-06-07 10:25:21.254192,-2,4,3,0,0,0,63,65,173,140,87,132.91,14,-26.00,-52.00,-1009.00
2024-06-07 10:25:21.356361,-2,4,3,0,0,0,63,65,173,140,87,132.87,14,-43.00,-43.00,-1030.00
2024-06-07 10:25:21.458303,-2,3,3,0,0,0,63,65,174,140,87,132.94,14,0.00,-55.00,-951.00
2024-06-07 10:25:21.560809,-3,2,3,0,0,0,63,65,175,140,86,132.81,14,-18.00,-58.00,-1026.00
2024-06-07 10:25:21.663319,-2,2,3,0,0,0,63,65,175,140,86,133.02,14,-46.00,-53.00,-967.00
2024-06-07 10:25:21.765645,-2,3,3,0,0,0,63,65,171,140,86,133.06,14,37.00,-101.00,-890.00
2024-06-07 10:25:21.868749,-2,4,3,0,0,0,63,65,171,130,86,133.10,14,31.00,-93.00,-951.00
2024-06-07 10:25:21.970383,-3,5,3,0,0,1,63,65,169,130,86,133.13,14,-12.00,-80.00,-923.00
2024-06-07 10:25:22.072826,-3,5,3,0,0,1,63,65,166,130,86,133.10,15,-47.00,-74.00,-985.00
2024-06-07 10:25:22.175230,-2,5,3,0,0,2,63,65,165,130,86,133.15,15,-20.00,-96.00,-988.00
2024-06-07 10:25:22.274782,-3,5,3,0,0,2,63,65,163,130,86,133.07,15,27.00,-118.00,-927.00
2024-06-07 10:25:22.414870,-3,6,3,0,0,2,63,65,160,130,86,133.06,15,0.00,-89.00,-970.00
2024-06-07 10:25:22.478846,-3,6,3,0,0,2,63,65,156,120,86,132.99,15,26.00,-110.00,-975.00
2024-06-07 10:25:22.619650,-3,6,3,0,0,2,63,65,152,120,86,133.03,15,-68.00,-57.00,-1014.00
2024-06-07 10:25:22.683239,-3,6,3,1,0,3,63,65,149,120,86,133.01,15,34.00,-102.00,-971.00
2024-06-07 10:25:22.827277,-3,6,3,1,0,3,63,65,147,110,86,132.87,15,-34.00,-114.00,-965.00
2024-06-07 10:25:22.886834,-2,6,3,1,0,3,63,65,147,110,86,132.89,15,-73.00,-79.00,-1017.00
2024-06-07 10:25:22.988880,-2,7,3,1,0,2,63,65,143,110,86,132.94,15,-38.00,-97.00,-1013.00
2024-06-07 10:25:23.131892,-2,7,3,1,0,2,63,65,141,100,86,132.88,16,-63.00,-82.00,-1032.00
2024-06-07 10:25:23.192896,-3,7,3,1,0,2,63,65,138,100,86,132.75,16,-4.00,-102.00,-1086.00
2024-06-07 10:25:23.337256,-2,6,3,1,0,1,63,65,137,100,86,132.70,16,24.00,-111.00,-1043.00
2024-06-07 10:25:23.398423,-2,6,3,1,0,1,63,65,135,100,86,132.83,16,-26.00,-62.00,-1020.00
2024-06-07 10:25:23.498869,-1,6,3,1,0,1,63,65,132,100,86,132.75,16,-55.00,-69.00,-997.00
2024-06-07 10:25:23.549934,-2,6,3,0,0,1,63,65,132,100,85,132.74,16,-1.00,-81.00,-1013.00
2024-06-07 10:25:23.745866,-2,6,3,0,0,1,63,65,131,90,85,132.60,16,-44.00,-81.00,-990.00
2024-06-07 10:25:23.753858,-2,6,3,0,0,1,63,65,129,90,85,132.62,16,-42.00,-66.00,-1056.00
2024-06-07 10:25:23.856211,-3,5,3,0,1,1,63,65,129,90,85,132.63,16,-51.00,-49.00,-1013.00
2024-06-07 10:25:24.057418,-3,5,3,0,1,0,63,65,129,90,85,132.59,16,-26.00,-61.00,-1031.00
2024-06-07 10:25:24.060155,-3,4,3,0,1,0,63,65,129,90,85,132.60,17,-57.00,-53.00,-989.00
2024-06-07 10:25:24.258205,-3,4,3,0,1,0,63,65,129,90,85,132.70,17,-31.00,-72.00,-1023.00
2024-06-07 10:25:24.264714,-3,4,3,0,1,0,63,65,130,90,85,132.76,17,-49.00,-94.00,-970.00
2024-06-07 10:25:24.365939,-4,4,3,0,0,0,63,65,129,90,85,132.87,17,20.00,-95.00,-995.00
2024-06-07 10:25:24.467780,-4,5,2,1,0,0,63,65,131,90,85,132.83,17,20.00,-102.00,-984.00
2024-06-07 10:25:24.669147,-2,5,2,2,0,0,63,65,129,90,85,132.88,17,14.00,-90.00,-1043.00
2024-06-07 10:25:24.671855,0,6,3,2,0,0,63,66,131,90,85,132.77,17,58.00,-117.00,-992.00
2024-06-07 10:25:24.872341,0,6,3,2,0,0,63,66,130,90,85,132.72,17,-27.00,-88.00,-1009.00
2024-06-07 10:25:24.875919,1,6,3,1,0,0,63,66,128,90,85,132.77,17,62.00,-122.00,-925.00
2024-06-07 10:25:24.979157,0,6,3,1,0,0,63,66,127,90,85,132.78,17,3.00,-115.00,-977.00
2024-06-07 10:25:25.080072,-1,6,3,0,0,0,63,66,127,90,85,132.66,18,15.00,-112.00,-946.00
2024-06-07 10:25:25.182849,-1,6,3,1,0,0,63,66,125,90,85,132.71,18,88.00,-140.00,-965.00
2024-06-07 10:25:25.284215,-2,7,3,1,0,0,63,66,125,90,85,132.70,18,34.00,-120.00,-974.00
2024-06-07 10:25:25.385786,-2,6,3,1,0,0,63,66,125,90,85,132.70,18,21.00,-91.00,-1058.00
2024-06-07 10:25:25.487909,-2,6,3,1,0,0,63,66,124,90,85,132.56,18,-25.00,-86.00,-994.00
2024-06-07 10:25:25.692013,-1,6,3,1,0,0,63,66,124,90,84,132.56,18,-60.00,-69.00,-1025.00
2024-06-07 10:25:25.692183,-2,5,3,0,0,0,64,65,126,90,84,132.64,18,42.00,-103.00,-1015.00
2024-06-07 10:25:25.795006,-2,5,3,1,0,0,64,65,125,90,84,132.63,18,19.00,-85.00,-1024.00
2024-06-07 10:25:25.897703,-1,5,3,1,0,0,64,65,125,90,84,132.70,18,48.00,-100.00,-1060.00
2024-06-07 10:25:25.998792,-2,3,3,1,0,0,64,65,126,90,84,132.66,19,22.00,-77.00,-986.00
2024-06-07 10:25:26.101297,-6,3,3,1,0,0,64,65,126,90,84,132.62,19,11.00,-107.00,-987.00
2024-06-07 10:25:26.203870,-7,3,3,2,0,0,64,65,128,90,84,132.59,19,1.00,-88.00,-983.00
2024-06-07 10:25:26.307244,-7,3,3,3,0,0,64,65,128,90,84,132.61,19,15.00,-108.00,-995.00
2024-06-07 10:25:26.408795,-7,4,3,4,0,0,64,65,130,90,84,132.75,19,-38.00,-86.00,-1033.00
2024-06-07 10:25:26.507722,-7,5,3,4,0,0,64,65,131,90,84,132.66,19,-50.00,-108.00,-963.00
2024-06-07 10:25:26.609698,-7,5,3,5,-1,0,64,65,131,90,84,132.68,19,7.00,-88.00,-988.00
2024-06-07 10:25:26.713525,-6,5,3,6,-1,0,64,66,132,90,84,132.71,19,62.00,-142.00,-991.00
2024-06-07 10:25:26.819702,-6,6,3,6,0,0,64,66,132,90,84,132.67,19,-1.00,-127.00,-1000.00
2024-06-07 10:25:26.915806,-5,6,3,7,0,0,64,66,132,90,84,132.73,19,-77.00,-76.00,-991.00
2024-06-07 10:25:27.023003,-4,7,3,7,0,0,64,66,133,90,84,132.71,20,-49.00,-75.00,-1038.00
2024-06-07 10:25:27.126431,-2,8,3,7,0,0,64,66,132,90,84,132.72,20,59.00,-137.00,-993.00
2024-06-07 10:25:27.221860,0,9,3,6,0,0,64,66,130,90,84,132.73,20,0.00,-115.00,-940.00
2024-06-07 10:25:27.332117,2,8,3,5,0,0,64,66,134,90,84,132.68,20,-74.00,-89.00,-962.00
2024-06-07 10:25:27.374951,1,7,3,4,0,0,64,66,134,90,84,132.81,20,-59.00,-100.00,-1041.00
2024-06-07 10:25:27.534826,0,6,3,3,0,0,64,66,134,90,84,132.77,20,-63.00,-94.00,-954.00
2024-06-07 10:25:27.578750,0,6,3,3,0,0,64,66,132,90,83,132.82,20,-61.00,-74.00,-999.00
2024-06-07 10:25:27.739643,0,6,3,3,0,0,64,67,132,90,83,132.80,20,-25.00,-86.00,-989.00
2024-06-07 10:25:27.784132,-1,6,3,3,0,0,64,67,132,90,83,132.79,20,-60.00,-98.00,-922.00
2024-06-07 10:25:27.884792,0,7,3,3,0,0,64,67,130,90,83,132.79,20,-12.00,-96.00,-981.00
2024-06-07 10:25:28.046650,0,7,3,3,0,0,64,67,129,90,83,132.94,21,-58.00,-96.00,-1085.00
2024-06-07 10:25:28.088738,0,8,3,3,0,0,64,67,129,90,83,132.78,21,57.00,-147.00,-1070.00
2024-06-07 10:25:28.190871,1,9,3,3,0,0,64,67,132,90,83,132.77,21,-15.00,-118.00,-903.00
2024-06-07 10:25:28.292675,0,8,3,2,0,0,64,67,131,90,83,132.82,21,93.00,-140.00,-983.00
2024-06-07 10:25:28.457050,0,8,3,2,0,0,64,67,128,90,83,132.95,21,35.00,-137.00,-1007.00
2024-06-07 10:25:28.496553,1,8,3,2,0,0,64,67,128,90,83,132.90,21,67.00,-160.00,-1015.00
2024-06-07 10:25:28.661617,1,8,3,2,0,0,64,67,129,90,83,132.97,21,57.00,-158.00,-976.00
2024-06-07 10:25:28.702423,1,9,3,2,0,0,65,67,129,90,83,132.94,21,29.00,-144.00,-933.00
2024-06-07 10:25:28.803409,1,8,3,1,0,0,65,67,132,90,83,132.92,21,15.00,-162.00,-985.00
2024-06-07 10:25:28.968404,1,8,3,1,0,0,65,67,129,90,83,132.83,21,9.00,-126.00,-1001.00
2024-06-07 10:25:29.007228,1,9,3,0,0,0,65,67,133,90,83,132.85,22,8.00,-145.00,-990.00
2024-06-07 10:25:29.109927,0,8,3,0,0,0,65,67,131,90,83,132.87,22,-41.00,-129.00,-991.00
2024-06-07 10:25:29.210438,-1,8,3,0,0,0,65,67,128,90,83,132.90,22,-6.00,-152.00,-1069.00
2024-06-07 10:25:29.378741,-1,8,3,0,0,0,65,67,131,90,83,132.94,22,55.00,-177.00,-1005.00
2024-06-07 10:25:29.414876,0,8,3,0,0,0,65,67,130,90,83,132.94,22,-68.00,-147.00,-952.00
2024-06-07 10:25:29.516510,-2,8,3,0,0,0,65,67,132,90,83,132.89,22,32.00,-131.00,-968.00
2024-06-07 10:25:29.618922,-3,8,3,0,0,0,65,67,127,90,82,132.94,22,71.00,-182.00,-956.00
2024-06-07 10:25:29.720580,-2,8,3,0,0,0,64,67,129,90,82,132.98,22,-6.00,-137.00,-974.00
2024-06-07 10:25:29.890014,-2,8,3,0,0,0,64,67,129,90,82,132.95,22,33.00,-147.00,-975.00
2024-06-07 10:25:29.924528,-2,9,3,0,0,0,64,67,129,90,82,132.92,22,-3.00,-144.00,-991.00
2024-06-07 10:25:30.094773,-1,9,3,0,0,0,64,67,129,90,82,132.86,23,-48.00,-121.00,-1003.00
2024-06-07 10:25:30.128533,-2,8,3,0,0,0,64,67,129,90,82,132.89,23,-25.00,-145.00,-1021.00
2024-06-07 10:25:30.401963,-3,8,3,0,0,0,64,67,131,90,82,132.92,23,6.00,-159.00,-978.00
2024-06-07 10:25:30.402208,-2,8,3,0,0,0,64,67,129,90,82,132.85,23,-3.00,-145.00,-1021.00
2024-06-07 10:25:30.434479,-2,8,3,0,0,0,64,67,129,90,82,132.89,23,85.00,-166.00,-1020.00
2024-06-07 10:25:30.606759,-2,9,3,0,0,0,64,67,130,90,82,132.88,23,9.00,-142.00,-980.00
2024-06-07 10:25:30.638937,-1,9,3,0,0,0,64,67,129,90,82,132.84,23,-12.00,-139.00,-941.00
2024-06-07 10:25:30.742576,-1,8,3,0,0,0,65,68,131,90,82,132.88,23,28.00,-134.00,-1034.00
2024-06-07 10:25:30.843313,-2,8,3,0,0,0,65,68,129,90,82,132.81,23,59.00,-166.00,-984.00
2024-06-07 10:25:31.017149,-1,8,3,1,0,0,65,68,130,90,82,132.92,23,61.00,-153.00,-1020.00
2024-06-07 10:25:31.047693,0,9,3,1,0,0,65,68,129,90,82,132.84,24,1.00,-114.00,-1041.00
2024-06-07 10:25:31.222106,0,8,3,1,0,0,65,68,128,90,82,132.88,24,48.00,-146.00,-1004.00
2024-06-07 10:25:31.222157,0,8,3,0,0,0,65,68,127,90,82,132.91,24,-21.00,-130.00,-1013.00
2024-06-07 10:25:31.301444,-1,8,3,0,0,0,65,68,126,90,82,132.91,24,-15.00,-148.00,-979.00
2024-06-07 10:25:31.435442,-1,8,3,0,-1,0,65,68,126,90,82,132.81,24,-33.00,-132.00,-1037.00
2024-06-07 10:25:31.505575,-1,8,3,0,-1,0,65,68,126,90,82,132.92,24,-21.00,-157.00,-967.00
2024-06-07 10:25:31.630862,-1,9,3,0,-1,0,65,68,125,90,82,132.80,24,-61.00,-119.00,-982.00
2024-06-07 10:25:31.709419,-1,9,3,0,0,0,66,68,126,90,82,132.87,24,21.00,-154.00,-1026.00
2024-06-07 10:25:31.836089,-2,8,3,0,0,0,66,68,126,90,82,132.85,24,67.00,-144.00,-960.00
2024-06-07 10:25:31.913427,-1,8,3,1,0,0,66,68,124,90,82,132.79,24,46.00,-153.00,-986.00
2024-06-07 10:25:32.040804,0,8,3,1,0,0,66,68,125,90,82,132.84,25,14.00,-177.00,-1031.00
2024-06-07 10:25:32.117522,0,8,3,0,0,0,66,68,124,90,82,132.89,25,3.00,-174.00,-1022.00
2024-06-07 10:25:32.244985,-1,9,3,0,0,0,66,68,126,90,82,132.73,25,46.00,-132.00,-1050.00
2024-06-07 10:25:32.321618,-1,9,3,0,0,0,66,68,126,90,82,132.69,25,8.00,-87.00,-907.00
2024-06-07 10:25:32.450583,0,8,3,1,0,0,66,68,126,90,82,132.79,25,48.00,-126.00,-983.00
2024-06-07 10:25:32.525331,0,8,3,1,0,0,66,68,129,90,81,132.78,25,-39.00,-104.00,-1065.00
2024-06-07 10:25:32.655333,0,8,3,0,0,0,66,68,128,90,81,132.79,25,-75.00,-105.00,-1070.00
2024-06-07 10:25:32.729327,-1,8,3,0,0,0,66,68,130,90,81,132.87,25,-14.00,-101.00,-998.00
2024-06-07 10:25:32.859753,-2,8,3,0,0,0,66,68,128,90,81,132.78,25,46.00,-126.00,-976.00
2024-06-07 10:25:32.933850,-1,8,3,0,0,0,66,68,129,90,81,132.76,25,0.00,-132.00,-1038.00
2024-06-07 10:25:33.068970,0,8,3,1,0,0,66,68,130,90,81,132.88,26,52.00,-166.00,-896.00
2024-06-07 10:25:33.137310,0,8,3,0,0,0,66,68,131,90,81,132.76,26,39.00,-150.00,-981.00
2024-06-07 10:25:33.269651,0,9,3,0,0,0,66,68,131,90,81,132.89,26,26.00,-152.00,-1009.00
2024-06-07 10:25:33.341317,-1,8,3,0,0,0,66,68,132,90,81,132.88,26,-2.00,-144.00,-937.00
2024-06-07 10:25:33.443319,-1,8,3,0,0,0,66,68,130,90,81,132.86,26,-63.00,-100.00,-1011.00
2024-06-07 10:25:33.576803,-2,9,3,0,0,0,66,68,131,90,81,132.76,26,-35.00,-103.00,-969.00
2024-06-07 10:25:33.648575,-2,8,3,0,0,0,66,68,129,90,81,132.85,26,29.00,-160.00,-960.00
2024-06-07 10:25:33.780988,-1,9,3,1,0,0,66,68,128,90,81,132.80,26,23.00,-118.00,-968.00
2024-06-07 10:25:33.851618,0,9,3,1,0,0,66,68,128,90,81,132.83,26,23.00,-98.00,-1043.00
2024-06-07 10:25:33.985930,0,8,3,1,1,0,66,68,128,90,81,132.79,26,25.00,-100.00,-1042.00
2024-06-07 10:25:34.055303,1,8,3,1,1,0,66,68,129,90,81,132.84,27,51.00,-138.00,-957.00
2024-06-07 10:25:34.197160,1,8,3,1,1,0,66,68,128,90,81,132.72,27,32.00,-118.00,-1130.00
2024-06-07 10:25:34.259334,0,8,3,0,2,0,66,68,127,90,81,132.69,27,-4.00,-142.00,-982.00
2024-06-07 10:25:34.361361,0,7,3,0,2,0,66,68,128,90,81,132.79,27,74.00,-149.00,-1022.00
2024-06-07 10:25:34.463280,-1,7,3,0,1,0,66,68,127,90,81,132.82,27,4.00,-134.00,-1030.00
2024-06-07 10:25:34.565781,-1,8,3,0,1,0,66,68,129,90,81,132.75,27,16.00,-149.00,-1001.00
2024-06-07 10:25:34.667935,-1,8,3,0,1,0,66,68,128,90,81,132.75,27,33.00,-140.00,-1005.00
2024-06-07 10:25:34.808852,-1,8,3,0,2,0,66,68,128,90,81,132.71,27,19.00,-124.00,-974.00
2024-06-07 10:25:34.872744,-2,8,3,0,2,0,66,68,128,90,81,132.75,27,-38.00,-95.00,-1051.00
2024-06-07 10:25:34.974789,-2,7,3,0,2,0,66,68,128,90,81,132.74,27,13.00,-116.00,-945.00
2024-06-07 10:25:35.078307,-2,7,3,0,2,0,66,68,128,90,81,132.78,28,-22.00,-81.00,-943.00
2024-06-07 10:25:35.177198,-1,6,3,0,2,0,66,68,130,90,81,132.73,28,34.00,-95.00,-1007.00
2024-06-07 10:25:35.317569,-1,5,3,1,2,0,66,68,129,90,81,132.72,28,100.00,-120.00,-1038.00
2024-06-07 10:25:35.381196,0,5,3,1,2,0,66,68,129,90,81,132.74,28,-4.00,-112.00,-971.00
2024-06-07 10:25:35.483937,0,6,3,1,2,0,66,68,131,90,81,132.76,28,-8.00,-105.00,-993.00
2024-06-07 10:25:35.534221,0,6,3,1,2,0,66,68,130,90,80,132.81,28,50.00,-127.00,-949.00
2024-06-07 10:25:35.726757,-1,6,3,1,2,0,66,68,131,90,80,132.77,28,-11.00,-79.00,-1008.00
2024-06-07 10:25:35.738376,-1,6,3,1,2,0,67,68,131,90,80,132.81,28,-53.00,-79.00,-923.00
2024-06-07 10:25:35.935180,0,5,3,1,2,0,67,68,132,90,80,132.80,28,24.00,-95.00,-1035.00
2024-06-07 10:25:35.942344,-1,5,3,1,2,0,67,68,132,90,80,132.78,28,2.00,-111.00,-985.00
2024-06-07 10:25:36.138856,-1,5,3,1,2,0,67,68,131,90,80,132.81,29,11.00,-106.00,-929.00
2024-06-07 10:25:36.149772,0,6,3,1,2,0,67,68,132,90,80,132.76,29,-18.00,-86.00,-927.00
2024-06-07 10:25:36.250296,-1,5,3,1,2,0,67,68,131,90,80,132.78,29,62.00,-108.00,-976.00
2024-06-07 10:25:36.350154,-1,5,3,1,2,0,67,68,131,90,80,132.75,29,49.00,-87.00,-1005.00
2024-06-07 10:25:36.452116,-1,4,3,1,2,0,67,68,132,90,80,132.74,29,29.00,-94.00,-1018.00
2024-06-07 10:25:36.554152,-2,3,3,1,2,0,67,68,132,90,80,132.71,29,-18.00,-92.00,-990.00
2024-06-07 10:25:36.753751,-2,2,3,1,1,0,67,68,133,90,80,132.68,29,-22.00,-80.00,-972.00
2024-06-07 10:25:36.758187,-2,2,3,1,1,0,66,69,133,90,80,132.72,29,26.00,-102.00,-983.00
2024-06-07 10:25:36.956720,-1,3,3,2,1,0,66,69,133,90,80,132.65,29,-25.00,-75.00,-970.00
2024-06-07 10:25:36.962476,-1,3,3,1,0,0,66,69,134,90,80,132.60,29,-29.00,-60.00,-1016.00
2024-06-07 10:25:37.160286,-1,4,3,1,1,0,66,69,132,90,80,132.78,30,-33.00,-54.00,-909.00
2024-06-07 10:25:37.166138,3,4,3,1,1,0,66,69,135,90,80,132.74,30,10.00,-36.00,-1047.00
2024-06-07 10:25:37.366491,1,3,3,0,1,0,66,69,134,90,80,132.78,30,32.00,-35.00,-1073.00
2024-06-07 10:25:37.370179,0,3,3,0,1,0,66,69,134,90,80,132.63,30,-12.00,-48.00,-1024.00
2024-06-07 10:25:37.472052,-1,2,3,0,1,0,66,69,134,90,80,132.71,30,-26.00,-28.00,-970.00
2024-06-07 10:25:37.673684,-1,2,3,0,1,0,66,69,133,100,80,132.67,30,-35.00,-26.00,-1005.00
2024-06-07 10:25:37.676586,-1,2,3,0,1,0,66,69,136,100,80,132.73,30,12.00,-48.00,-972.00
2024-06-07 10:25:37.778246,-1,2,3,0,1,0,66,69,134,100,80,132.68,30,-11.00,-23.00,-1026.00
2024-06-07 10:25:37.880137,0,2,3,0,1,0,66,69,133,100,80,132.77,30,-62.00,3.00,-1037.00
2024-06-07 10:25:38.084678,0,2,3,0,0,0,66,69,133,90,80,132.76,30,-28.00,-52.00,-1003.00
2024-06-07 10:25:38.085681,0,2,3,0,0,0,66,69,133,90,80,132.71,31,-17.00,-20.00,-1040.00
2024-06-07 10:25:38.186473,0,2,3,0,0,0,66,69,132,90,80,132.83,31,-17.00,-33.00,-1033.00
2024-06-07 10:25:38.288499,-1,2,3,0,0,0,66,69,131,90,80,132.79,31,0.00,-24.00,-1094.00
2024-06-07 10:25:38.492891,-1,2,3,0,0,0,66,69,131,90,80,132.78,31,-42.00,-66.00,-990.00
2024-06-07 10:25:38.493047,-1,2,3,0,0,0,66,69,131,90,80,132.85,31,-30.00,-83.00,-979.00
2024-06-07 10:25:38.595337,-1,4,3,0,0,0,66,69,130,90,80,133.02,31,13.00,-72.00,-1016.00
2024-06-07 10:25:38.696692,-2,5,3,0,0,0,66,69,130,90,80,132.92,31,0.00,-76.00,-1077.00
2024-06-07 10:25:38.798496,-1,5,3,0,0,0,67,69,129,90,80,132.91,31,19.00,-93.00,-1029.00
2024-06-07 10:25:38.902133,-1,5,3,0,0,0,67,69,129,90,80,132.92,31,-15.00,-94.00,-994.00
2024-06-07 10:25:39.003819,0,4,3,0,0,0,67,69,130,90,80,132.92,31,26.00,-120.00,-1049.00
2024-06-07 10:25:39.104160,0,5,3,0,0,0,67,69,129,90,80,132.95,32,25.00,-114.00,-970.00
2024-06-07 10:25:39.208471,-1,6,3,0,-1,0,67,69,130,90,80,132.93,32,-8.00,-114.00,-1002.00
2024-06-07 10:25:39.310316,-2,7,3,0,0,0,67,69,128,90,80,132.88,32,15.00,-98.00,-1028.00
2024-06-07 10:25:39.359232,-2,7,3,0,0,0,67,69,127,90,80,132.91,32,-19.00,-113.00,-996.00
2024-06-07 10:25:39.460959,-2,6,3,0,0,0,67,69,130,90,80,132.93,32,-61.00,-80.00,-979.00
2024-06-07 10:25:39.617623,-1,6,3,0,0,0,67,69,128,90,80,133.02,32,-46.00,-107.00,-998.00
2024-06-07 10:25:39.665511,6,5,4,0,0,0,67,69,128,90,80,133.01,32,49.00,-137.00,-1037.00
2024-06-07 10:25:39.822541,6,5,4,-3,-1,0,67,68,129,90,80,132.98,32,-14.00,-120.00,-986.00
2024-06-07 10:25:39.868888,6,6,4,-4,-1,0,67,68,130,90,80,133.00,32,76.00,-162.00,-1021.00
2024-06-07 10:25:40.027377,4,7,3,-5,-1,0,67,68,128,90,80,133.05,33,-63.00,-110.00,-1100.00
2024-06-07 10:25:40.079471,3,7,3,-6,-1,0,67,68,129,90,80,133.05,33,-17.00,-77.00,-1040.00
2024-06-07 10:25:40.174860,4,8,3,-6,-1,0,67,68,129,90,80,133.07,33,-6.00,-73.00,-982.00
2024-06-07 10:25:40.334551,4,8,3,-7,0,0,67,68,130,90,80,133.05,33,-1.00,-83.00,-998.00
2024-06-07 10:25:40.378782,1,6,3,-7,0,0,67,68,128,90,80,132.95,33,21.00,-84.00,-976.00
2024-06-07 10:25:40.481066,-1,5,3,-7,0,0,67,68,128,90,80,132.99,33,40.00,-107.00,-970.00
2024-06-07 10:25:40.641588,-4,5,2,-6,0,0,67,68,128,90,80,133.02,33,42.00,-60.00,-949.00
2024-06-07 10:25:40.684893,-4,5,3,-4,0,0,67,68,128,90,80,133.05,33,30.00,-100.00,-1046.00
2024-06-07 10:25:40.846676,-3,5,3,-3,0,0,67,69,128,90,80,132.95,33,46.00,-105.00,-958.00
2024-06-07 10:25:40.888879,-1,6,3,-3,0,0,67,69,128,90,80,132.97,33,104.00,-109.00,-982.00
2024-06-07 10:25:40.990790,-1,7,3,-3,0,0,67,69,129,90,80,132.96,34,94.00,-134.00,-982.00
2024-06-07 10:25:41.153757,-1,7,3,-3,0,0,67,69,129,90,80,133.05,34,0.00,-59.00,-1040.00
2024-06-07 10:25:41.194693,-1,6,3,-3,0,0,67,69,130,90,80,133.04,34,30.00,-86.00,-1030.00
2024-06-07 10:25:41.359704,-2,6,3,-3,1,0,67,69,131,90,80,132.93,34,53.00,-86.00,-1172.00
2024-06-07 10:25:41.398845,-4,2,3,-3,1,0,67,69,131,90,80,133.02,34,-6.00,-105.00,-956.00
2024-06-07 10:25:41.505280,-7,3,3,-2,0,0,67,69,130,90,80,132.89,34,-5.00,-63.00,-969.00
2024-06-07 10:25:41.602805,-4,4,3,-1,0,0,67,69,134,90,80,132.89,34,11.00,-94.00,-1022.00
2024-06-07 10:25:41.768746,-2,4,3,0,0,0,67,69,131,90,80,132.84,34,9.00,-76.00,-1003.00
2024-06-07 10:25:41.806907,-2,5,3,0,0,0,67,70,131,90,80,132.94,34,13.00,-60.00,-975.00
2024-06-07 10:25:41.908955,-1,4,3,0,0,0,67,70,131,90,80,132.92,34,16.00,-81.00,-987.00
2024-06-07 10:25:42.076847,-1,4,3,0,0,0,67,70,130,90,80,132.89,35,-4.00,-56.00,-995.00
2024-06-07 10:25:42.112974,-1,3,3,0,0,0,67,70,130,90,80,132.85,35,7.00,-72.00,-996.00
2024-06-07 10:25:42.282536,-2,3,3,0,0,0,67,70,130,90,80,132.81,35,-29.00,-45.00,-1004.00
2024-06-07 10:25:42.317012,-2,3,3,0,0,0,67,70,126,90,80,132.91,35,3.00,-91.00,-992.00
2024-06-07 10:25:42.485143,-2,3,3,0,0,0,67,70,128,90,80,132.84,35,-45.00,-68.00,-976.00
2024-06-07 10:25:42.521004,-2,3,3,0,0,0,67,70,128,90,80,132.86,35,-12.00,-57.00,-1004.00
2024-06-07 10:25:42.690296,-1,3,3,0,0,0,67,70,129,90,79,132.81,35,-27.00,-68.00,-1022.00
2024-06-07 10:25:42.724992,-1,4,3,0,0,0,67,70,128,90,79,132.85,35,2.00,-80.00,-997.00
2024-06-07 10:25:42.898832,-1,3,3,0,0,0,67,70,128,90,79,132.88,35,16.00,-50.00,-1093.00
2024-06-07 10:25:42.928817,-1,3,3,0,0,0,67,70,128,90,79,132.84,35,10.00,-71.00,-1028.00
2024-06-07 10:25:43.031018,-1,3,3,0,0,0,67,70,130,90,79,132.78,36,4.00,-62.00,-985.00
2024-06-07 10:25:43.132926,-1,3,3,0,0,0,67,70,128,90,79,132.82,36,-34.00,-54.00,-1009.00
2024-06-07 10:25:43.234890,-1,3,3,0,0,0,67,70,128,90,79,132.89,36,-65.00,-57.00,-1061.00
2024-06-07 10:25:43.406929,-2,3,3,0,0,0,67,70,128,90,79,132.87,36,-24.00,-69.00,-974.00
2024-06-07 10:25:43.438876,-2,3,3,0,0,0,67,70,127,90,79,132.89,36,44.00,-87.00,-1024.00
2024-06-07 10:25:43.491326,-1,3,3,0,0,0,67,70,127,90,79,132.90,36,-24.00,-65.00,-1026.00
2024-06-07 10:25:43.591868,-1,4,3,0,0,0,67,70,127,90,79,132.91,36,-41.00,-60.00,-1002.00
2024-06-07 10:25:43.718751,-1,3,3,0,0,0,67,70,128,90,79,132.93,36,24.00,-96.00,-973.00
2024-06-07 10:25:43.795731,0,3,3,0,0,0,68,70,126,90,79,132.83,36,71.00,-90.00,-987.00
2024-06-07 10:25:43.898717,0,3,3,0,0,0,68,70,124,90,79,132.79,36,-49.00,-17.00,-893.00
2024-06-07 10:25:44.021974,0,-3,3,0,0,0,68,70,124,90,79,132.87,37,-10.00,-82.00,-1032.00
2024-06-07 10:25:44.101806,0,-3,3,0,-1,0,68,70,123,90,79,132.75,37,-12.00,-61.00,-1019.00
2024-06-07 10:25:44.226891,-1,0,3,0,-2,0,68,70,124,90,79,132.91,37,-46.00,-28.00,-1053.00
2024-06-07 10:25:44.305687,-2,1,3,0,-3,0,68,70,125,90,79,132.86,37,-37.00,-37.00,-1027.00
2024-06-07 10:25:44.431655,-2,4,3,0,-3,0,68,70,126,90,79,132.86,37,-71.00,-8.00,-1040.00
2024-06-07 10:25:44.509638,-2,5,3,0,-2,0,68,70,128,90,79,132.86,37,2.00,-59.00,-1023.00
2024-06-07 10:25:44.636613,-2,4,3,0,-2,0,68,70,127,90,79,132.94,37,-7.00,-53.00,-971.00
2024-06-07 10:25:44.713777,0,2,3,0,-1,0,68,70,127,90,79,132.97,37,-16.00,-68.00,-991.00
2024-06-07 10:25:44.840331,0,2,3,0,-1,0,68,70,128,90,79,132.96,37,-64.00,-26.00,-983.00
2024-06-07 10:25:44.917646,0,2,3,0,-1,0,68,70,129,90,79,132.97,37,10.00,-49.00,-998.00
2024-06-07 10:25:45.045162,-1,2,3,0,-2,0,68,70,127,90,79,132.99,38,-58.00,-17.00,-1011.00
2024-06-07 10:25:45.121829,-1,2,3,0,-2,0,68,70,129,90,79,132.97,38,3.00,-44.00,-1036.00
2024-06-07 10:25:45.249859,-2,2,3,0,-2,0,68,70,128,90,79,133.01,38,-28.00,-28.00,-907.00
2024-06-07 10:25:45.325636,-3,2,3,0,-1,0,68,70,127,90,79,132.98,38,-34.00,-21.00,-1025.00
2024-06-07 10:25:45.455953,-2,2,3,0,-1,0,68,70,127,90,79,132.93,38,-4.00,-52.00,-995.00
2024-06-07 10:25:45.529613,-1,2,3,0,-1,0,68,70,127,90,79,133.02,38,-18.00,-35.00,-968.00
2024-06-07 10:25:45.659515,0,2,3,0,-1,0,68,70,128,90,79,133.00,38,-44.00,-20.00,-1022.00
2024-06-07 10:25:45.733561,0,2,3,0,-2,0,68,70,128,90,79,133.02,38,-24.00,-50.00,-959.00
2024-06-07 10:25:45.835615,0,2,3,0,-2,0,68,71,128,90,79,133.06,38,-67.00,5.00,-1037.00
2024-06-07 10:25:45.966882,0,3,3,0,-2,0,68,71,128,90,79,133.00,38,-4.00,-45.00,-986.00
2024-06-07 10:25:46.039582,-1,4,3,0,-1,0,68,71,127,90,79,133.02,39,-17.00,-40.00,-993.00
2024-06-07 10:25:46.174453,-1,7,3,0,-1,0,68,71,128,90,79,132.94,39,22.00,-40.00,-1011.00
2024-06-07 10:25:46.243600,-1,6,3,0,0,0,68,71,128,90,79,133.00,39,-11.00,-36.00,-994.00
2024-06-07 10:25:46.376451,0,4,3,0,0,0,68,71,125,90,79,133.02,39,-6.00,-59.00,-1013.00
2024-06-07 10:25:46.447799,0,3,3,0,0,0,68,71,126,90,79,133.01,39,14.00,-60.00,-1019.00
2024-06-07 10:25:46.683702,0,3,3,0,0,0,68,71,126,90,79,133.02,39,1.00,-37.00,-1028.00
2024-06-07 10:25:46.684829,-1,3,3,0,0,0,68,71,126,90,79,133.04,39,0.00,-34.00,-978.00
2024-06-07 10:25:46.754745,-1,3,3,0,0,0,68,71,125,90,79,133.04,39,-36.00,-26.00,-967.00
2024-06-07 10:25:46.888965,-1,3,3,0,0,0,68,70,125,90,79,132.98,39,18.00,-49.00,-1012.00
2024-06-07 10:25:46.958754,-1,2,3,0,0,0,68,70,125,90,79,132.98,39,18.00,-47.00,-1031.00
2024-06-07 10:25:47.095377,-1,1,3,0,0,0,68,70,125,90,79,132.90,40,-36.00,-49.00,-1061.00
2024-06-07 10:25:47.162719,0,1,3,0,0,0,68,70,126,90,79,132.96,40,-42.00,-7.00,-1013.00
2024-06-07 10:25:47.265446,0,2,3,0,0,0,68,70,127,90,79,132.97,40,-39.00,-40.00,-993.00
2024-06-07 10:25:47.319724,0,1,3,0,0,0,68,70,127,90,79,133.04,40,-31.00,-45.00,-985.00
2024-06-07 10:25:47.417722,-1,2,3,0,0,0,68,70,129,90,79,133.00,40,-79.00,-26.00,-1038.00
2024-06-07 10:25:47.519714,-1,1,3,0,0,0,68,70,130,90,78,132.97,40,-66.00,-3.00,-987.00
2024-06-07 10:25:47.810741,-2,1,3,0,0,0,68,70,131,90,78,132.99,40,0.00,-58.00,-1040.00
2024-06-07 10:25:47.810926,-2,0,3,0,0,0,68,70,133,90,78,133.01,40,-35.00,-45.00,-943.00
2024-06-07 10:25:47.877901,-2,0,3,0,0,0,68,71,131,90,78,133.03,40,-13.00,-34.00,-989.00
2024-06-07 10:25:47.927656,-2,1,3,0,0,0,68,71,134,90,78,133.11,40,42.00,-82.00,-970.00
2024-06-07 10:25:48.118613,-2,1,3,0,0,0,68,71,135,90,78,133.10,41,-19.00,-41.00,-1014.00
2024-06-07 10:25:48.133863,-2,1,3,0,0,0,68,71,135,100,78,133.09,41,-54.00,-34.00,-1006.00
2024-06-07 10:25:48.234320,-3,0,3,0,0,0,68,71,134,100,78,133.10,41,5.00,-38.00,-1045.00
2024-06-07 10:25:48.335439,-3,0,3,0,0,0,68,71,136,100,78,133.10,41,-33.00,-17.00,-977.00
2024-06-07 10:25:48.526599,-2,3,3,0,0,0,68,71,135,100,78,133.02,41,17.00,-49.00,-969.00
2024-06-07 10:25:48.539330,-1,8,3,0,1,0,68,71,137,100,78,133.15,41,-24.00,-37.00,-1063.00
2024-06-07 10:25:48.731550,-2,8,3,0,2,0,68,71,137,100,78,133.23,41,-40.00,-42.00,-1054.00
2024-06-07 10:25:48.743398,-2,7,3,0,3,0,68,71,135,100,78,133.12,41,-20.00,-50.00,-1038.00
2024-06-07 10:25:48.936170,-2,4,3,0,4,0,69,70,135,100,78,133.01,41,66.00,-85.00,-1026.00
2024-06-07 10:25:48.947298,-2,1,3,0,4,0,69,70,133,90,78,133.06,41,-15.00,-51.00,-1048.00
2024-06-07 10:25:49.146901,-1,0,3,0,4,0,69,70,132,90,78,133.02,42,34.00,-77.00,-996.00
2024-06-07 10:25:49.151392,-1,0,3,0,3,0,69,70,130,90,78,133.03,42,-31.00,-44.00,-1049.00
2024-06-07 10:25:49.346924,0,2,3,0,2,0,69,70,129,90,78,133.02,42,-24.00,-53.00,-980.00
2024-06-07 10:25:49.355308,0,2,3,0,2,0,69,70,130,90,78,133.02,42,-7.00,-59.00,-1033.00
2024-06-07 10:25:49.550637,0,3,3,0,2,0,69,70,128,90,78,133.03,42,-6.00,-58.00,-1028.00
2024-06-07 10:25:49.559390,-1,3,3,0,2,0,69,70,128,90,78,133.12,42,-10.00,-22.00,-1073.00
2024-06-07 10:25:49.755100,-1,3,3,0,2,0,69,70,127,90,78,133.03,42,0.00,-60.00,-1049.00
2024-06-07 10:25:49.763384,-1,3,3,0,3,0,69,70,126,90,78,133.08,42,53.00,-88.00,-998.00
2024-06-07 10:25:49.963025,0,2,3,0,3,0,68,70,127,90,78,133.09,42,3.00,-44.00,-1056.00
2024-06-07 10:25:49.967331,0,-2,3,0,3,0,68,70,127,90,78,132.96,42,-26.00,-49.00,-1077.00
2024-06-07 10:25:50.069372,0,-2,3,0,1,0,68,70,126,90,78,133.00,43,4.00,-35.00,-965.00
2024-06-07 10:25:50.171520,0,0,3,0,1,0,68,70,125,90,78,133.01,43,42.00,-61.00,-1034.00
2024-06-07 10:25:50.369721,0,1,3,0,0,0,68,70,125,90,78,133.07,43,15.00,-33.00,-1052.00
2024-06-07 10:25:50.377377,0,2,3,0,0,0,68,70,125,90,78,133.04,43,0.00,-60.00,-1039.00
2024-06-07 10:25:50.477742,0,2,3,0,0,0,68,70,125,90,78,133.10,43,-55.00,-51.00,-1021.00
2024-06-07 10:25:50.579652,0,1,3,0,0,0,68,70,123,90,78,133.15,43,-16.00,-82.00,-982.00
2024-06-07 10:25:50.779535,0,2,3,0,0,0,68,70,123,90,78,133.22,43,-55.00,-48.00,-955.00
2024-06-07 10:25:50.783487,0,3,3,0,0,0,68,70,121,90,78,133.11,43,5.00,-62.00,-1010.00
2024-06-07 10:25:50.984295,0,3,3,0,0,0,69,71,121,90,78,133.13,43,41.00,-96.00,-988.00
2024-06-07 10:25:50.987478,0,3,3,0,0,0,69,71,121,90,78,133.06,43,31.00,-61.00,-988.00
2024-06-07 10:25:51.090224,0,3,3,0,0,0,69,71,122,90,78,133.10,44,-30.00,-57.00,-1030.00
2024-06-07 10:25:51.191526,0,3,3,0,0,0,69,71,120,90,78,133.16,44,-5.00,-60.00,-1038.00
2024-06-07 10:25:51.293522,0,3,3,0,0,0,69,71,121,90,78,133.12,44,-30.00,-53.00,-1011.00
2024-06-07 10:25:51.395456,0,3,3,0,0,0,69,71,120,90,78,133.18,44,34.00,-78.00,-974.00
2024-06-07 10:25:51.446319,0,3,3,0,0,0,69,71,123,90,78,133.16,44,-7.00,-68.00,-1064.00
2024-06-07 10:25:51.548467,0,3,3,0,0,0,69,71,122,90,78,133.05,44,57.00,-100.00,-963.00
2024-06-07 10:25:51.702430,0,3,3,0,0,0,69,71,121,90,78,133.14,44,-23.00,-52.00,-1009.00
2024-06-07 10:25:51.752606,0,3,3,0,0,0,69,71,121,90,78,133.14,44,-2.00,-74.00,-1030.00
2024-06-07 10:25:51.907488,0,3,3,0,0,0,68,71,122,90,78,133.20,44,67.00,-56.00,-989.00
2024-06-07 10:25:51.956399,0,3,3,0,0,0,68,71,122,90,78,133.14,44,2.00,-46.00,-990.00
2024-06-07 10:25:52.110676,0,3,3,0,0,0,68,71,122,90,78,133.07,45,-18.00,-60.00,-1027.00
2024-06-07 10:25:52.160302,0,3,3,0,0,0,68,71,122,90,78,133.01,45,-28.00,-46.00,-1027.00
2024-06-07 10:25:52.315397,0,3,3,0,0,0,68,71,123,90,78,133.16,45,1.00,-58.00,-981.00
2024-06-07 10:25:52.364383,0,3,7,0,0,0,68,71,123,90,78,133.08,45,-21.00,-40.00,-1065.00
2024-06-07 10:25:52.521646,0,4,13,0,0,0,68,71,123,90,78,133.04,45,7.00,-56.00,-1087.00
2024-06-07 10:25:52.568237,-1,4,19,0,0,0,68,71,122,90,78,133.15,45,44.00,-84.00,-968.00
2024-06-07 10:25:52.728576,-1,3,25,0,0,0,68,71,122,90,78,133.08,45,63.00,-90.00,-1047.00
2024-06-07 10:25:52.774405,-2,3,31,0,0,0,68,71,122,90,78,133.04,45,-24.00,-67.00,-987.00
2024-06-07 10:25:52.874185,-3,3,37,0,0,0,68,70,122,90,78,133.05,45,-33.00,-49.00,-1015.00
2024-06-07 10:25:53.032176,-3,2,43,0,0,0,68,70,122,90,78,133.19,45,-40.00,-64.00,-1054.00
2024-06-07 10:25:53.078190,-3,2,49,0,0,0,68,70,122,90,78,132.99,46,-1.00,-67.00,-1013.00
2024-06-07 10:25:53.236810,-3,2,55,0,0,0,68,70,122,90,78,132.93,46,-78.00,-74.00,-952.00
2024-06-07 10:25:53.282259,-3,2,61,0,0,0,68,70,123,90,78,133.14,46,-84.00,-28.00,-926.00
2024-06-07 10:25:53.441565,-3,2,67,0,0,0,68,70,124,90,78,133.13,46,-62.00,-40.00,-1056.00
2024-06-07 10:25:53.486485,-3,1,73,0,0,0,68,70,125,90,78,133.01,46,-134.00,-23.00,-1026.00
2024-06-07 10:25:53.646405,-3,1,79,0,0,0,68,70,123,90,78,132.87,46,-4.00,-56.00,-978.00
2024-06-07 10:25:53.691524,-3,1,85,0,0,0,68,70,125,90,78,132.94,46,-201.00,25.00,-979.00
2024-06-07 10:25:53.851011,-4,1,91,0,0,0,68,70,124,90,78,132.85,46,-30.00,-33.00,-962.00
2024-06-07 10:25:53.894718,-4,0,103,0,0,0,69,71,124,90,78,132.83,46,-86.00,-1.00,-1000.00
2024-06-07 10:25:54.056425,-4,0,109,0,0,0,69,71,124,90,78,132.87,47,-94.00,22.00,-998.00
2024-06-07 10:25:54.098246,-4,-1,115,0,0,0,69,71,125,90,78,132.91,47,-104.00,27.00,-988.00
2024-06-07 10:25:54.263443,-3,-1,121,0,0,0,69,71,125,90,78,132.88,47,-92.00,40.00,-1034.00
2024-06-07 10:25:54.302122,-3,-2,126,0,0,0,69,71,125,90,78,133.01,47,-39.00,33.00,-1065.00
2024-06-07 10:25:54.465641,-3,-2,132,0,0,0,69,71,125,90,78,132.97,47,-1.00,-9.00,-973.00
2024-06-07 10:25:54.506342,-3,-2,138,0,0,0,69,71,122,90,78,132.91,47,-84.00,24.00,-976.00
2024-06-07 10:25:54.670547,-2,-2,144,0,0,0,69,71,124,90,78,132.95,47,-60.00,46.00,-984.00
2024-06-07 10:25:54.710083,-2,-3,150,0,0,0,69,71,125,90,78,132.94,47,-81.00,57.00,-1043.00
2024-06-07 10:25:54.812082,-1,-3,155,0,0,0,69,71,124,90,78,133.12,47,-32.00,63.00,-1006.00
2024-06-07 10:25:54.978301,-1,-3,161,0,0,0,69,71,125,90,78,133.16,47,-33.00,26.00,-1003.00
2024-06-07 10:25:55.016267,-1,-3,167,0,0,0,69,71,126,90,78,133.08,48,-31.00,72.00,-1020.00
2024-06-07 10:25:55.182332,0,-3,173,0,0,0,69,71,125,90,78,133.18,48,0.00,51.00,-1005.00
2024-06-07 10:25:55.222118,0,-3,-179,0,0,0,69,71,126,90,78,133.24,48,-20.00,74.00,-948.00
2024-06-07 10:25:55.322133,0,-3,-173,0,0,0,69,71,125,90,78,133.20,48,6.00,52.00,-1006.00
2024-06-07 10:25:55.373382,0,-3,-167,0,0,0,69,71,125,90,78,133.24,48,-17.00,72.00,-1012.00
2024-06-07 10:25:55.492508,1,-2,-161,0,0,0,69,71,125,90,78,133.24,48,-20.00,64.00,-989.00
2024-06-07 10:25:55.577041,1,-2,-155,0,0,0,69,71,126,90,78,133.19,48,-5.00,40.00,-973.00
2024-06-07 10:25:55.695276,1,-2,-149,0,0,0,69,71,124,90,78,133.30,48,-4.00,61.00,-1031.00
2024-06-07 10:25:55.781376,2,-1,-142,0,0,0,69,71,126,90,78,133.22,48,86.00,-3.00,-948.00
2024-06-07 10:25:55.883373,2,-1,-136,0,0,0,69,71,124,90,78,133.11,48,61.00,28.00,-970.00
2024-06-07 10:25:56.001752,2,-1,-130,0,0,0,69,71,124,90,78,133.17,49,-14.00,38.00,-959.00
2024-06-07 10:25:56.087042,2,-1,-124,0,0,0,69,71,125,90,78,133.17,49,58.00,40.00,-1004.00
2024-06-07 10:25:56.189056,2,-1,-117,0,0,0,69,71,124,90,78,133.07,49,95.00,20.00,-1015.00
2024-06-07 10:25:56.309842,3,0,-111,0,0,0,69,71,124,90,78,133.18,49,-9.00,35.00,-1020.00
2024-06-07 10:25:56.396133,3,0,-105,0,0,0,69,71,125,90,78,133.19,49,18.00,11.00,-951.00
2024-06-07 10:25:56.495797,3,2,-99,0,0,0,69,71,124,90,78,133.11,49,53.00,-16.00,-1001.00
2024-06-07 10:25:56.599396,2,2,-93,0,0,0,69,71,126,90,77,133.13,49,42.00,-24.00,-1006.00
2024-06-07 10:25:56.699033,1,3,-87,0,0,0,69,71,126,90,77,133.24,49,68.00,-43.00,-994.00
2024-06-07 10:25:56.820937,1,2,-81,0,0,0,69,71,125,90,77,133.15,49,94.00,-36.00,-1025.00
2024-06-07 10:25:56.903368,1,2,-75,0,0,0,69,72,125,90,77,133.06,49,25.00,-1.00,-1030.00
2024-06-07 10:25:57.025740,1,2,-69,0,0,0,69,72,126,90,77,133.17,50,-2.00,3.00,-1023.00
2024-06-07 10:25:57.107516,1,2,-63,0,0,0,69,72,127,90,77,133.27,50,24.00,-9.00,-964.00
2024-06-07 10:25:57.233011,1,2,-57,0,0,0,69,72,128,90,77,133.19,50,15.00,-63.00,-1015.00
2024-06-07 10:25:57.311177,1,3,-51,0,0,0,69,72,126,90,77,133.17,50,-41.00,-17.00,-1050.00
2024-06-07 10:25:57.437036,1,3,-46,0,0,0,69,72,128,90,77,133.21,50,76.00,-45.00,-999.00
2024-06-07 10:25:57.518259,0,3,-40,0,0,0,69,72,128,90,77,133.19,50,50.00,-87.00,-1002.00
2024-06-07 10:25:57.617139,1,3,-35,0,0,0,69,72,128,90,77,133.14,50,16.00,-30.00,-946.00
2024-06-07 10:25:57.742417,1,3,-30,1,0,0,69,72,127,90,77,133.24,50,-27.00,28.00,-1055.00
2024-06-07 10:25:57.821149,1,2,-24,1,0,0,69,72,129,90,77,133.29,50,-11.00,-12.00,-971.00
2024-06-07 10:25:57.923136,1,1,-18,1,0,0,69,72,129,90,77,133.29,50,23.00,-30.00,-947.00
2024-06-07 10:25:58.049689,2,1,-13,0,0,0,69,72,129,90,77,133.26,51,-60.00,-48.00,-998.00
2024-06-07 10:25:58.127225,1,2,-8,0,0,0,69,72,129,90,77,133.29,51,26.00,-83.00,-970.00
2024-06-07 10:25:58.255548,0,3,-5,0,0,0,69,72,130,90,77,133.27,51,-44.00,-36.00,-1041.00
2024-06-07 10:25:58.330845,-1,3,-2,0,0,0,69,72,132,90,77,133.31,51,-37.00,-56.00,-1009.00
2024-06-07 10:25:58.458970,-2,3,-1,0,0,0,69,72,131,90,77,133.42,51,11.00,-92.00,-980.00
2024-06-07 10:25:58.535548,-1,4,0,0,0,0,69,72,132,90,77,133.39,51,-38.00,-74.00,-957.00
2024-06-07 10:25:58.664046,0,4,0,0,0,0,69,72,130,90,77,133.39,51,65.00,-110.00,-988.00
2024-06-07 10:25:58.739046,0,5,1,0,0,0,69,72,131,90,77,133.40,51,-67.00,-71.00,-999.00
2024-06-07 10:25:58.872563,0,4,2,0,0,0,69,72,130,90,77,133.48,51,-49.00,-102.00,-939.00
2024-06-07 10:25:58.942987,0,5,2,0,0,0,70,71,128,90,77,133.47,51,-18.00,-115.00,-1047.00
2024-06-07 10:25:59.045699,-1,6,2,0,0,0,70,71,127,90,77,133.47,52,-38.00,-94.00,-1024.00
2024-06-07 10:25:59.178982,-2,5,2,0,0,0,70,71,127,90,77,133.45,52,-9.00,-112.00,-956.00
2024-06-07 10:25:59.198466,-3,5,2,0,0,0,70,71,126,90,77,133.56,52,-39.00,-93.00,-1096.00
2024-06-07 10:25:59.381584,-3,5,2,0,0,0,70,71,125,90,77,133.51,52,-48.00,-74.00,-1037.00
2024-06-07 10:25:59.402047,-2,5,2,0,0,0,70,71,125,90,77,133.48,52,-22.00,-127.00,-1004.00
2024-06-07 10:25:59.585966,-2,5,3,0,0,0,70,71,124,90,77,133.42,52,-64.00,-108.00,-1029.00
2024-06-07 10:25:59.605868,-2,5,3,0,0,0,70,71,125,90,77,133.38,52,-44.00,-112.00,-966.00
2024-06-07 10:25:59.790578,-3,5,2,0,0,0,70,71,125,90,77,133.38,52,70.00,-135.00,-1020.00
2024-06-07 10:25:59.809848,-2,6,2,0,0,0,70,71,125,90,77,133.32,52,-21.00,-119.00,-1011.00
2024-06-07 10:25:59.912285,-2,6,2,0,0,0,70,72,124,90,77,133.46,52,-30.00,-118.00,-989.00
2024-06-07 10:26:00.016405,-2,6,2,0,0,0,70,72,124,90,77,133.39,53,-55.00,-111.00,-951.00
2024-06-07 10:26:00.116180,-1,6,3,0,0,0,70,72,123,90,77,133.38,53,-104.00,-68.00,-1045.00
2024-06-07 10:26:00.218020,-2,6,2,0,0,0,70,72,125,90,77,133.41,53,-39.00,-92.00,-1013.00
2024-06-07 10:26:00.320043,-3,5,2,0,0,0,70,72,124,90,77,133.42,53,-20.00,-118.00,-953.00
2024-06-07 10:26:00.508182,-3,5,2,0,0,0,70,72,123,90,77,133.37,53,-121.00,-94.00,-1008.00
2024-06-07 10:26:00.524343,-3,5,2,0,0,0,70,72,123,90,77,133.39,53,54.00,-151.00,-932.00
2024-06-07 10:26:00.626173,-2,6,2,0,0,0,70,72,123,90,77,133.42,53,-66.00,-101.00,-1043.00
2024-06-07 10:26:00.727881,-2,6,3,0,0,0,70,72,122,90,77,133.47,53,-22.00,-131.00,-1013.00
2024-06-07 10:26:00.916643,-2,7,2,0,0,0,70,72,125,90,77,133.34,53,-105.00,-99.00,-968.00
2024-06-07 10:26:00.931935,-2,6,-2,0,0,0,70,72,124,90,77,133.22,53,-32.00,-112.00,-1043.00
2024-06-07 10:26:01.121664,-2,7,-7,0,0,0,70,72,125,90,77,133.37,54,-66.00,-116.00,-1040.00
2024-06-07 10:26:01.135770,-1,7,-13,0,0,0,70,72,126,90,77,133.45,54,-85.00,-101.00,-1003.00
2024-06-07 10:26:01.326289,0,7,-19,0,0,0,70,72,126,90,77,133.44,54,8.00,-132.00,-1068.00
2024-06-07 10:26:01.339836,0,7,-25,0,0,0,70,72,127,90,77,133.42,54,9.00,-107.00,-1012.00
2024-06-07 10:26:01.531749,1,7,-31,0,0,0,70,72,126,90,77,133.43,54,64.00,-135.00,-1040.00
2024-06-07 10:26:01.543727,2,6,-37,0,0,0,70,72,127,90,77,133.47,54,54.00,-119.00,-1008.00
2024-06-07 10:26:01.736050,2,6,-43,0,0,0,70,72,131,90,77,133.48,54,104.00,-110.00,-945.00
2024-06-07 10:26:01.747808,2,6,-49,0,0,0,70,72,128,90,77,133.30,54,64.00,-60.00,-980.00
2024-06-07 10:26:01.941518,4,5,-56,0,0,0,70,72,129,90,77,133.28,54,16.00,-71.00,-1034.00
2024-06-07 10:26:01.951817,5,4,-62,0,0,0,70,72,129,90,77,133.36,54,191.00,-148.00,-939.00
2024-06-07 10:26:02.147553,5,3,-68,0,0,0,70,72,130,90,77,133.28,55,136.00,-67.00,-912.00
2024-06-07 10:26:02.155848,6,3,-75,0,0,0,70,72,133,90,77,133.25,55,79.00,-68.00,-1000.00
2024-06-07 10:26:02.352578,6,2,-81,0,0,0,70,72,133,90,77,133.17,55,64.00,-20.00,-990.00
2024-06-07 10:26:02.359845,6,1,-87,0,0,0,70,72,133,90,77,132.93,55,165.00,-37.00,-1038.00
2024-06-07 10:26:02.560246,7,1,-94,0,0,0,70,72,132,90,77,133.09,55,163.00,-29.00,-969.00
2024-06-07 10:26:02.563835,7,0,-100,0,0,0,70,72,133,90,77,133.19,55,169.00,-11.00,-962.00
2024-06-07 10:26:02.760003,7,-1,-106,0,0,0,70,72,133,90,77,133.27,55,91.00,50.00,-919.00
2024-06-07 10:26:02.760083,6,-3,-112,0,0,0,70,72,131,90,77,133.27,55,73.00,49.00,-1042.00
2024-06-07 10:26:02.818779,5,-3,-118,0,0,0,70,72,132,90,77,133.25,55,91.00,77.00,-961.00
2024-06-07 10:26:02.972459,5,-4,-124,0,0,0,70,73,131,90,77,133.22,55,74.00,64.00,-998.00
2024-06-07 10:26:03.170264,5,-4,-130,0,0,0,70,73,131,90,77,133.20,56,77.00,38.00,-942.00
2024-06-07 10:26:03.177147,5,-2,-137,0,0,0,70,73,130,90,77,133.24,56,122.00,14.00,-936.00
2024-06-07 10:26:03.374258,6,-2,-143,0,0,0,70,73,129,90,77,133.13,56,169.00,-13.00,-1042.00
2024-06-07 10:26:03.379677,5,-2,-149,0,0,0,70,73,128,90,77,133.08,56,98.00,23.00,-1016.00
2024-06-07 10:26:03.430706,4,-2,-155,0,1,0,70,73,126,90,77,133.10,56,59.00,44.00,-1016.00
2024-06-07 10:26:03.579779,3,-2,-161,0,1,0,70,73,125,90,77,133.06,56,115.00,12.00,-1006.00
2024-06-07 10:26:03.634709,3,-2,-167,0,1,0,70,73,125,90,77,133.09,56,52.00,45.00,-990.00
2024-06-07 10:26:03.784069,4,-2,-173,-1,1,0,70,73,127,90,77,133.12,56,23.00,95.00,-1015.00
2024-06-07 10:26:03.838891,5,-2,-179,-1,1,0,70,73,127,90,77,133.22,56,67.00,73.00,-1017.00
2024-06-07 10:26:03.988925,4,-3,174,0,0,0,71,73,124,90,77,133.18,56,21.00,63.00,-951.00
2024-06-07 10:26:04.042699,3,-4,168,0,0,0,71,73,125,90,77,133.19,57,65.00,36.00,-997.00
2024-06-07 10:26:04.196548,1,-4,162,0,0,0,71,73,125,90,77,133.18,57,-65.00,112.00,-974.00
2024-06-07 10:26:04.246699,0,-3,156,0,0,0,71,73,123,90,77,133.14,57,90.00,18.00,-928.00
2024-06-07 10:26:04.398706,0,-3,150,0,0,0,71,73,123,90,77,133.14,57,26.00,57.00,-1027.00
2024-06-07 10:26:04.450673,0,-3,144,0,0,0,71,73,124,90,77,133.19,57,-55.00,93.00,-1004.00
2024-06-07 10:26:04.553212,0,-3,139,0,0,0,71,73,123,90,77,133.16,57,0.00,68.00,-1016.00
2024-06-07 10:26:04.705752,0,-3,132,0,0,0,71,73,124,90,77,133.01,57,-15.00,44.00,-1010.00
2024-06-07 10:26:04.756815,0,-4,127,0,0,0,71,73,125,90,77,133.11,57,-32.00,71.00,-1007.00
2024-06-07 10:26:04.917419,-1,-3,121,0,0,0,71,73,124,90,77,133.09,57,-25.00,59.00,-996.00
2024-06-07 10:26:04.962512,-2,-3,115,0,0,0,71,73,126,90,77,133.08,57,-24.00,46.00,-960.00
2024-06-07 10:26:05.062928,-2,-3,109,0,0,0,71,73,126,90,77,133.07,58,-140.00,124.00,-1034.00
2024-06-07 10:26:05.164705,-3,-3,103,0,0,0,71,73,127,90,77,133.04,58,-17.00,20.00,-932.00
2024-06-07 10:26:05.266936,-3,-3,96,0,0,0,71,73,127,90,77,133.01,58,-85.00,63.00,-1019.00
2024-06-07 10:26:05.368708,-3,-3,90,0,0,0,71,73,127,90,77,133.17,58,-96.00,62.00,-981.00
2024-06-07 10:26:05.525262,-3,-2,83,0,0,0,71,73,127,90,77,133.14,58,-117.00,27.00,-959.00
2024-06-07 10:26:05.572583,-4,-2,77,0,0,0,71,73,129,90,77,133.07,58,-118.00,43.00,-983.00
2024-06-07 10:26:05.729535,-5,-2,70,0,0,0,71,73,127,90,77,132.94,58,-167.00,46.00,-965.00
2024-06-07 10:26:05.776828,-5,-2,64,0,0,0,71,73,129,90,77,132.99,58,-154.00,40.00,-982.00
2024-06-07 10:26:05.878599,-6,0,58,0,0,0,71,73,129,90,77,132.96,58,-137.00,-21.00,-986.00
2024-06-07 10:26:06.038796,-6,0,51,0,0,0,71,73,129,90,77,132.89,58,-94.00,-40.00,-963.00
2024-06-07 10:26:06.082675,-5,1,45,0,0,0,71,73,128,90,77,132.86,59,-93.00,-37.00,-957.00
2024-06-07 10:26:06.242069,-4,2,39,0,0,0,71,73,128,90,77,132.95,59,-88.00,-8.00,-972.00
2024-06-07 10:26:06.286686,-4,2,34,0,0,0,71,73,128,90,77,132.90,59,-56.00,-27.00,-1002.00
2024-06-07 10:26:06.447145,-4,1,28,0,0,0,71,73,129,90,77,132.98,59,-91.00,-17.00,-959.00
2024-06-07 10:26:06.491917,-4,1,22,0,0,0,71,73,128,90,77,132.94,59,-22.00,-59.00,-1018.00
2024-06-07 10:26:06.592645,-4,2,18,0,0,0,71,73,127,90,77,133.09,59,-104.00,-31.00,-994.00
2024-06-07 10:26:06.694449,-3,2,14,0,0,0,71,73,128,90,77,133.09,59,-107.00,-23.00,-980.00
2024-06-07 10:26:06.856220,-2,3,12,0,0,0,71,73,127,90,77,133.14,59,-24.00,-32.00,-1056.00
2024-06-07 10:26:06.856276,-2,3,10,0,0,0,71,73,126,90,77,133.07,59,-73.00,-33.00,-978.00
2024-06-07 10:26:07.000846,-2,2,8,0,0,0,70,73,127,90,77,133.08,59,-69.00,-29.00,-1040.00
2024-06-07 10:26:07.051559,-2,2,7,0,0,0,70,73,127,90,77,133.08,60,-86.00,-10.00,-983.00
2024-06-07 10:26:07.267061,-1,2,7,0,0,0,70,73,126,90,77,133.02,60,-10.00,-49.00,-1026.00
2024-06-07 10:26:07.267119,-1,2,6,0,0,0,70,73,126,90,77,133.09,60,5.00,-77.00,-990.00
2024-06-07 10:26:07.358568,-1,2,5,0,0,0,70,73,127,90,77,133.13,60,-88.00,-18.00,-1045.00
2024-06-07 10:26:07.459675,-1,2,4,0,0,0,70,73,126,90,77,133.08,60,-31.00,-26.00,-1043.00
2024-06-07 10:26:07.561707,-1,3,5,0,0,0,70,73,126,90,77,133.13,60,-8.00,-50.00,-1001.00
2024-06-07 10:26:07.676204,-1,2,4,0,0,0,70,73,126,90,77,133.11,60,-55.00,-28.00,-1018.00
2024-06-07 10:26:07.765715,-1,2,4,0,0,0,70,73,126,90,77,133.05,60,-50.00,-9.00,-1072.00
2024-06-07 10:26:07.867571,-1,2,4,0,0,0,70,73,128,90,77,133.12,60,-79.00,-20.00,-904.00
2024-06-07 10:26:07.974343,-1,1,4,0,0,0,71,73,127,90,77,133.20,60,18.00,-84.00,-963.00
2024-06-07 10:26:08.071609,-1,2,4,0,0,0,71,73,127,90,77,133.26,61,0.00,-73.00,-1035.00
2024-06-07 10:26:08.187114,-1,1,4,0,0,0,71,73,128,90,77,133.23,61,-37.00,-43.00,-1010.00
2024-06-07 10:26:08.275619,-2,1,4,0,0,0,71,73,128,90,77,133.19,61,-25.00,-78.00,-1009.00
2024-06-07 10:26:08.392252,-2,2,4,0,0,0,71,73,128,90,77,133.17,61,1.00,-12.00,-1062.00
2024-06-07 10:26:08.479530,-1,2,4,0,0,0,71,73,129,90,77,133.14,61,-79.00,-22.00,-979.00
2024-06-07 10:26:08.581673,0,2,4,0,0,0,71,73,129,90,77,133.15,61,-28.00,-38.00,-993.00
2024-06-07 10:26:08.700063,-1,2,5,0,0,0,71,73,130,90,77,133.17,61,-56.00,-9.00,-961.00
2024-06-07 10:26:08.785654,-2,2,4,0,0,0,71,73,129,90,77,133.18,61,-70.00,-13.00,-1021.00
2024-06-07 10:26:08.887555,-2,1,4,0,0,0,71,73,129,90,77,133.17,61,5.00,-26.00,-1056.00
2024-06-07 10:26:09.008532,-2,1,4,0,0,0,70,73,129,90,77,133.15,62,-88.00,3.00,-1010.00
2024-06-07 10:26:09.091693,-2,1,4,0,0,0,70,73,128,90,77,133.15,62,-23.00,-35.00,-1010.00
2024-06-07 10:26:09.214828,-3,1,4,0,0,0,70,73,128,90,77,133.22,62,-55.00,-33.00,-994.00
2024-06-07 10:26:09.295651,-2,1,4,0,0,0,70,73,126,90,77,133.13,62,-22.00,-28.00,-1056.00
2024-06-07 10:26:09.412422,-2,1,4,0,0,0,70,73,124,90,77,133.17,62,20.00,-39.00,-1026.00
2024-06-07 10:26:09.500192,-2,1,5,0,0,0,70,73,125,90,77,133.18,62,-45.00,-36.00,-932.00
2024-06-07 10:26:09.601288,0,-1,5,0,0,-2,70,73,125,90,76,133.28,62,-103.00,-48.00,-1580.00
2024-06-07 10:26:09.723409,0,-6,5,0,0,-9,70,73,129,100,76,133.35,62,-98.00,-15.00,-1734.00
2024-06-07 10:26:09.805487,0,-77,5,0,-5,-11,70,73,171,110,76,133.45,62,70.00,144.00,-1054.00
2024-06-07 10:26:09.907389,0,158,5,0,-12,1,70,73,6553,110,76,133.54,62,-17.00,608.00,-1085.00
2024-06-07 10:26:10.030422,0,42,5,0,-7,13,71,73,405,110,76,133.58,63,-26.00,531.00,-825.00
2024-06-07 10:26:10.111338,2,-9,5,0,-4,11,71,73,130,90,76,133.39,63,241.00,-110.00,-1455.00
2024-06-07 10:26:10.236414,0,1,5,-1,-6,7,71,73,118,80,76,133.05,63,-24.00,-33.00,-1466.00
2024-06-07 10:26:10.316109,-2,7,4,-1,-5,3,71,73,112,80,76,133.13,63,-34.00,41.00,-1330.00
2024-06-07 10:26:10.542555,-2,5,4,-1,-4,1,71,73,108,80,76,133.08,63,-35.00,-14.00,-1334.00
2024-06-07 10:26:10.542747,-2,3,4,-1,-3,0,71,73,107,80,76,132.99,63,-40.00,-21.00,-1110.00
2024-06-07 10:26:10.621416,-2,2,4,-1,-2,-1,71,73,108,80,76,133.12,63,-29.00,-45.00,-1116.00
2024-06-07 10:26:10.672350,-2,2,4,-1,-2,-1,71,73,109,80,76,133.08,63,25.00,-27.00,-1116.00
2024-06-07 10:26:10.849961,-2,2,4,-1,-2,-1,71,73,111,80,76,133.04,63,-134.00,7.00,-1018.00
2024-06-07 10:26:10.876908,-3,2,4,-1,-2,-1,71,73,113,80,76,133.07,63,-18.00,9.00,-1054.00
2024-06-07 10:26:11.054668,-3,2,4,-1,-2,-1,72,73,116,80,76,133.05,64,-13.00,-35.00,-1043.00
2024-06-07 10:26:11.080517,-3,2,4,-1,-1,-1,72,73,117,80,76,133.11,64,26.00,-19.00,-1026.00
