TS,pitch,roll,yaw,vgx,vgy,vgz,templ,temph,tof,h,bat,baro,time,agx,agy,agz
2024-06-07 10:27:01.640868,0,1,-2,0,0,0,76,78,10,0,72,132.34,93,13.00,-16.00,-1000.00
2024-06-07 10:27:01.727681,0,1,-2,0,0,0,76,78,10,0,72,132.39,93,15.00,-17.00,-1000.00
2024-06-07 10:27:01.844168,0,1,-2,0,0,0,76,78,10,0,72,132.38,93,13.00,-17.00,-999.00
2024-06-07 10:27:01.931752,0,1,-2,0,0,0,76,78,10,0,72,132.38,93,14.00,-17.00,-998.00
2024-06-07 10:27:02.050144,0,1,-2,0,0,0,76,78,10,0,72,132.33,93,13.00,-17.00,-997.00
2024-06-07 10:27:02.084814,0,1,-2,0,0,0,76,78,10,0,72,132.29,93,15.00,-17.00,-1000.00
2024-06-07 10:27:02.255899,0,1,-2,0,0,0,76,78,10,0,72,132.42,93,14.00,-17.00,-998.00
2024-06-07 10:27:02.288657,0,1,-2,0,0,0,75,78,10,0,72,132.38,93,14.00,-18.00,-999.00
2024-06-07 10:27:02.390683,0,1,-2,0,0,0,75,78,10,0,72,132.37,93,14.00,-17.00,-1000.00
2024-06-07 10:27:02.561659,0,1,-2,0,0,0,75,78,10,0,72,132.42,93,13.00,-16.00,-1000.00
2024-06-07 10:27:02.594702,0,1,-2,0,0,0,75,78,10,0,72,132.37,93,15.00,-16.00,-1001.00
2024-06-07 10:27:02.768595,0,1,-2,0,0,0,75,78,10,0,72,132.40,93,14.00,-17.00,-997.00
2024-06-07 10:27:02.799607,0,1,-2,0,0,0,75,78,10,0,72,132.42,93,15.00,-18.00,-1001.00
2024-06-07 10:27:02.974773,0,1,-2,0,0,0,75,78,10,0,72,132.39,93,15.00,-17.00,-1000.00
2024-06-07 10:27:03.003782,0,1,-2,0,0,0,75,78,10,0,72,132.35,93,13.00,-18.00,-1000.00
2024-06-07 10:27:03.176758,0,1,-2,0,0,0,75,78,10,0,72,132.43,93,14.00,-17.00,-998.00
2024-06-07 10:27:03.207599,0,1,-2,0,0,0,75,78,10,0,72,132.41,93,14.00,-16.00,-1000.00
2024-06-07 10:27:03.312174,0,1,-2,0,0,0,76,78,10,0,72,132.42,93,13.00,-17.00,-1001.00
2024-06-07 10:27:03.411834,0,1,-2,0,0,0,76,78,10,0,72,132.35,93,13.00,-18.00,-1001.00
2024-06-07 10:27:03.513518,0,1,-2,0,0,0,76,78,10,0,72,132.38,93,14.00,-18.00,-1001.00
2024-06-07 10:27:03.688700,0,1,-2,0,0,0,76,78,10,0,72,132.34,93,13.00,-17.00,-999.00
2024-06-07 10:27:03.719611,0,1,-2,0,0,0,76,78,10,0,72,132.37,93,14.00,-17.00,-1000.00
2024-06-07 10:27:03.819663,0,1,-2,0,0,0,76,78,10,0,72,132.32,93,14.00,-18.00,-1001.00
2024-06-07 10:27:03.994446,0,1,-2,0,0,0,76,78,10,0,72,132.42,93,15.00,-16.00,-998.00
2024-06-07 10:27:04.023441,0,1,-2,0,0,0,76,78,10,0,72,132.41,93,14.00,-19.00,-1000.00
2024-06-07 10:27:04.203449,0,1,-2,0,0,0,76,78,10,0,72,132.34,93,14.00,-18.00,-998.00
2024-06-07 10:27:04.227627,0,1,-2,0,0,0,76,78,10,0,72,132.31,93,14.00,-17.00,-1001.00
2024-06-07 10:27:04.406119,0,1,-2,0,0,0,77,78,10,0,72,132.35,93,14.00,-18.00,-998.00
2024-06-07 10:27:04.431717,0,1,-2,0,0,0,77,78,10,0,72,132.37,93,13.00,-18.00,-999.00
2024-06-07 10:27:04.611381,0,1,-2,0,0,0,77,78,10,0,72,132.38,93,15.00,-17.00,-1001.00
2024-06-07 10:27:04.635503,0,1,-2,0,0,0,77,78,10,0,72,132.35,93,15.00,-17.00,-999.00
2024-06-07 10:27:04.737703,0,1,-2,0,0,0,77,78,10,0,72,132.37,93,15.00,-18.00,-1002.00
2024-06-07 10:27:04.918833,0,1,-2,0,0,0,77,78,10,0,72,132.38,93,15.00,-18.00,-998.00
2024-06-07 10:27:04.941478,0,1,-2,0,0,0,77,78,10,0,72,132.40,93,16.00,-17.00,-994.00
2024-06-07 10:27:05.043464,0,1,-2,0,0,0,77,78,10,0,72,132.39,93,13.00,-17.00,-1001.00
2024-06-07 10:27:05.225205,0,1,-2,0,0,0,77,78,10,0,72,132.39,93,17.00,-5.00,-999.00
2024-06-07 10:27:05.247501,0,1,-2,0,0,0,77,78,10,0,72,132.39,93,5.00,-15.00,-994.00
2024-06-07 10:27:05.349611,0,1,-1,0,0,0,77,78,10,0,72,132.39,93,34.00,-84.00,-1003.00
2024-06-07 10:27:05.534401,0,1,-1,0,0,0,77,78,10,0,72,132.39,93,-36.00,-14.00,-1084.00
2024-06-07 10:27:05.553430,1,0,0,0,0,0,77,78,10,0,72,132.39,93,-28.00,18.00,-1049.00
2024-06-07 10:27:05.604433,1,-1,0,-1,0,0,77,78,10,0,72,132.39,93,3.00,-36.00,-1106.00
2024-06-07 10:27:05.737571,0,-2,0,-2,0,-2,77,78,10,0,72,132.39,93,-66.00,-60.00,-1353.00
2024-06-07 10:27:05.808386,-3,0,0,-2,-2,-5,77,78,10,0,72,132.39,93,-81.00,-83.00,-1325.00
2024-06-07 10:27:05.910439,-5,4,0,-2,-2,-7,77,78,15,0,72,132.75,94,-14.00,-75.00,-1103.00
2024-06-07 10:27:06.044041,-5,6,0,-1,-2,-8,77,78,24,10,72,132.84,94,0.00,-129.00,-1019.00
2024-06-07 10:27:06.114558,-4,6,0,0,-2,-8,77,78,33,20,72,132.94,94,-21.00,-114.00,-969.00
2024-06-07 10:27:06.248464,-3,7,0,0,-2,-8,77,78,42,30,72,132.97,94,-4.00,-120.00,-964.00
2024-06-07 10:27:06.318439,-3,8,0,0,-2,-7,77,79,51,30,72,133.08,94,-67.00,-121.00,-862.00
2024-06-07 10:27:06.453130,-4,8,0,0,-1,-6,77,79,59,40,72,133.23,94,-82.00,-113.00,-844.00
2024-06-07 10:27:06.522455,-4,8,0,0,-1,-5,77,79,65,40,72,133.28,94,-92.00,-95.00,-846.00
2024-06-07 10:27:06.660445,-1,8,0,0,-1,-4,77,79,70,50,72,133.30,94,-55.00,-126.00,-874.00
2024-06-07 10:27:06.726670,-3,8,0,0,-1,-3,77,79,74,50,72,133.42,94,-91.00,-151.00,-865.00
2024-06-07 10:27:06.828820,-4,9,0,0,-1,-1,77,79,78,60,72,133.43,94,-85.00,-120.00,-931.00
2024-06-07 10:27:06.967593,-3,9,0,0,-1,-1,77,79,80,60,72,133.47,95,-64.00,-121.00,-901.00
2024-06-07 10:27:07.032776,-3,10,0,0,-1,0,77,79,82,60,72,133.54,95,-8.00,-154.00,-882.00
2024-06-07 10:27:07.134794,-3,10,0,0,-1,0,77,79,82,60,72,133.45,95,-36.00,-145.00,-954.00
2024-06-07 10:27:07.237217,-2,10,0,0,-1,0,77,79,82,60,72,133.47,95,-38.00,-146.00,-960.00
2024-06-07 10:27:07.339551,-2,10,0,0,0,0,77,79,82,60,72,133.52,95,-57.00,-140.00,-989.00
2024-06-07 10:27:07.442061,-2,10,0,0,0,0,77,79,82,60,72,133.47,95,-69.00,-158.00,-1015.00
2024-06-07 10:27:07.544490,-2,10,0,0,0,0,77,79,82,60,72,133.50,95,-104.00,-129.00,-971.00
2024-06-07 10:27:07.646704,-3,11,0,0,0,0,77,79,82,60,72,133.51,95,-118.00,-125.00,-1012.00
2024-06-07 10:27:07.746376,-3,11,0,0,0,0,77,79,82,60,72,133.32,95,-66.00,-173.00,-994.00
2024-06-07 10:27:07.851757,-3,11,0,0,0,0,77,79,82,60,72,133.43,95,-142.00,-119.00,-1062.00
2024-06-07 10:27:07.951364,-4,10,0,0,0,0,77,79,82,60,72,133.46,96,21.00,-177.00,-977.00
2024-06-07 10:27:08.090326,-4,9,0,0,0,0,77,79,81,60,72,133.47,96,-13.00,-191.00,-891.00
2024-06-07 10:27:08.156117,-2,10,0,0,0,0,77,79,81,60,72,133.26,96,-38.00,-135.00,-997.00
2024-06-07 10:27:08.295307,-2,10,0,0,0,0,77,79,80,60,72,133.34,96,-73.00,-138.00,-917.00
2024-06-07 10:27:08.359302,-2,9,0,0,0,0,77,79,80,60,72,133.27,96,-138.00,-129.00,-1059.00
2024-06-07 10:27:08.500134,-3,9,0,0,0,0,77,79,80,60,72,133.25,96,-76.00,-159.00,-950.00
2024-06-07 10:27:08.563424,-4,9,0,0,0,0,77,79,80,60,72,133.17,96,-117.00,-149.00,-959.00
2024-06-07 10:27:08.709620,-5,9,0,0,1,0,77,79,79,60,72,133.24,96,-76.00,-112.00,-1039.00
2024-06-07 10:27:08.767362,-5,8,0,0,1,0,77,79,80,60,72,133.14,96,-136.00,-105.00,-991.00
2024-06-07 10:27:08.909611,-4,7,0,0,1,0,77,79,79,60,72,133.13,96,-96.00,-134.00,-1009.00
2024-06-07 10:27:08.971358,-5,7,0,0,1,0,77,79,79,60,72,133.17,97,-46.00,-121.00,-1008.00
2024-06-07 10:27:09.116176,-4,7,0,0,1,0,77,79,81,60,72,133.05,97,-70.00,-142.00,-973.00
2024-06-07 10:27:09.175349,-3,7,0,0,1,0,77,79,81,60,72,132.98,97,-66.00,-131.00,-948.00
2024-06-07 10:27:09.226322,-3,7,0,0,1,0,77,79,82,60,72,132.97,97,-44.00,-130.00,-988.00
2024-06-07 10:27:09.428977,-3,6,0,0,1,0,77,79,82,60,72,133.18,97,-92.00,-95.00,-1042.00
2024-06-07 10:27:09.481672,-3,6,0,0,1,0,77,79,82,60,72,133.16,97,-36.00,-138.00,-926.00
2024-06-07 10:27:09.532408,-3,6,0,0,1,0,77,79,82,60,72,133.09,97,-72.00,-121.00,-1001.00
2024-06-07 10:27:09.729120,-4,6,0,0,0,0,77,79,83,60,72,133.02,97,-53.00,-139.00,-965.00
2024-06-07 10:27:09.736585,-4,7,0,0,1,0,77,79,82,60,72,133.01,97,-69.00,-107.00,-1030.00
2024-06-07 10:27:09.936459,-4,6,0,0,1,0,77,79,83,60,72,133.04,97,-3.00,-127.00,-1001.00
2024-06-07 10:27:09.940292,-4,5,0,0,1,0,77,79,82,60,72,133.01,98,-112.00,-91.00,-957.00
2024-06-07 10:27:10.138782,-4,5,0,0,1,0,77,79,82,60,72,133.07,98,-21.00,-97.00,-1012.00
2024-06-07 10:27:10.144310,-3,5,0,0,0,0,77,79,82,60,72,133.10,98,-14.00,-116.00,-946.00
2024-06-07 10:27:10.346183,-2,5,0,0,0,0,77,79,83,60,72,133.17,98,-34.00,-96.00,-1062.00
2024-06-07 10:27:10.348386,-2,5,0,0,0,0,77,79,82,60,72,133.10,98,-34.00,-115.00,-1028.00
2024-06-07 10:27:10.503810,-3,6,0,0,0,0,77,79,82,60,72,133.11,98,11.00,-107.00,-903.00
2024-06-07 10:27:10.552184,-3,6,0,0,0,0,77,79,82,60,72,133.06,98,-69.00,-92.00,-955.00
2024-06-07 10:27:10.757745,-2,6,0,0,0,0,77,79,83,60,72,133.19,98,-85.00,-99.00,-1043.00
2024-06-07 10:27:10.758061,-2,6,0,0,0,0,77,79,84,60,72,133.29,98,-144.00,-122.00,-1141.00
2024-06-07 10:27:10.858242,-4,6,0,0,0,-1,77,79,86,60,72,133.20,98,-92.00,-154.00,-1005.00
2024-06-07 10:27:11.062753,-5,7,0,0,0,-2,77,79,89,60,72,133.17,99,-11.00,-160.00,-1002.00
2024-06-07 10:27:11.062942,-4,8,0,0,0,-3,77,79,93,70,72,133.13,99,-82.00,-141.00,-1060.00
2024-06-07 10:27:11.167816,-4,8,0,0,0,-4,77,79,98,70,72,133.25,99,-93.00,-118.00,-1113.00
2024-06-07 10:27:11.266268,-5,8,0,0,0,-5,77,79,103,80,72,133.22,99,-93.00,-130.00,-1107.00
2024-06-07 10:27:11.371465,-4,8,0,0,0,-5,76,78,109,80,72,133.34,99,-81.00,-113.00,-1087.00
2024-06-07 10:27:11.471534,-4,8,0,0,0,-5,76,78,115,90,72,133.32,99,-110.00,-122.00,-959.00
2024-06-07 10:27:11.573726,-5,8,0,0,0,-5,76,78,120,90,72,133.33,99,-111.00,-96.00,-1032.00
2024-06-07 10:27:11.675716,-6,7,0,0,0,-5,76,78,128,100,72,133.35,99,-11.00,-145.00,-940.00
2024-06-07 10:27:11.778910,-5,8,0,0,0,-5,76,78,132,100,72,133.36,99,-94.00,-105.00,-982.00
2024-06-07 10:27:11.882347,-4,8,0,0,0,-4,76,78,137,110,72,133.42,99,-50.00,-100.00,-1001.00
2024-06-07 10:27:11.983643,-4,7,0,0,0,-4,76,78,139,110,72,133.39,100,-77.00,-97.00,-989.00
2024-06-07 10:27:12.083944,-3,7,0,0,0,-4,76,78,145,120,72,133.52,100,-103.00,-133.00,-954.00
2024-06-07 10:27:12.186821,-3,7,0,0,0,-4,76,78,150,120,72,133.48,100,-105.00,-135.00,-971.00
2024-06-07 10:27:12.290623,-3,7,0,0,0,-4,76,78,153,130,72,133.62,100,0.00,-124.00,-992.00
2024-06-07 10:27:12.392598,-3,8,0,0,0,-4,77,79,158,130,72,133.66,100,-70.00,-126.00,-907.00
2024-06-07 10:27:12.490127,-4,7,0,0,0,-3,77,79,161,140,72,133.67,100,-140.00,-92.00,-940.00
2024-06-07 10:27:12.596200,-4,7,0,0,0,-3,77,79,166,140,72,133.65,100,-144.00,-94.00,-939.00
2024-06-07 10:27:12.694085,-5,7,0,0,0,-3,77,79,169,140,72,133.75,100,-79.00,-117.00,-919.00
2024-06-07 10:27:12.796425,-6,7,0,0,0,-2,77,79,170,150,72,133.75,100,-47.00,-121.00,-989.00
2024-06-07 10:27:12.897999,-5,6,0,0,0,-2,77,79,173,150,72,133.71,100,-130.00,-91.00,-962.00
2024-06-07 10:27:13.000177,-5,7,0,0,0,-2,77,79,178,150,72,133.89,101,-94.00,-144.00,-843.00
2024-06-07 10:27:13.102053,-5,8,0,0,0,-1,77,79,179,150,72,133.84,101,-38.00,-127.00,-1011.00
2024-06-07 10:27:13.153145,-5,8,0,0,0,-1,77,79,178,160,72,133.78,101,-53.00,-103.00,-1017.00
2024-06-07 10:27:13.312949,-5,8,0,0,0,0,77,79,178,160,72,133.76,101,-79.00,-140.00,-914.00
2024-06-07 10:27:13.408063,-4,8,0,0,0,0,76,80,181,160,72,133.85,101,-69.00,-103.00,-1006.00
2024-06-07 10:27:13.518914,-4,8,0,0,0,0,76,80,179,160,72,133.90,101,32.00,-126.00,-906.00
2024-06-07 10:27:13.612400,-3,8,0,1,0,0,76,80,178,160,72,133.86,101,-32.00,-135.00,-1049.00
2024-06-07 10:27:13.663067,-2,8,0,1,0,0,76,80,180,160,72,133.85,101,-64.00,-98.00,-1004.00
2024-06-07 10:27:13.765227,-2,7,0,1,0,0,76,80,181,160,72,133.76,101,-26.00,-124.00,-954.00
2024-06-07 10:27:13.867116,-1,7,0,1,0,0,76,80,180,160,72,133.76,102,-39.00,-86.00,-944.00
2024-06-07 10:27:14.030032,0,6,0,1,0,0,76,80,178,160,72,133.77,102,5.00,-122.00,-1009.00
2024-06-07 10:27:14.071013,0,6,0,1,0,0,76,80,179,160,72,133.78,102,-7.00,-107.00,-1077.00
2024-06-07 10:27:14.236849,0,6,0,1,0,0,76,80,180,160,72,133.72,102,-41.00,-76.00,-997.00
2024-06-07 10:27:14.275004,0,6,0,1,0,0,76,80,182,160,72,133.79,102,25.00,-125.00,-1018.00
2024-06-07 10:27:14.377339,0,7,0,1,0,0,77,79,183,160,72,133.84,102,-9.00,-130.00,-1065.00
2024-06-07 10:27:14.479064,0,8,0,1,0,0,77,79,182,160,72,133.88,102,-91.00,-160.00,-944.00
2024-06-07 10:27:14.581222,0,8,0,1,-1,0,77,79,178,160,72,133.97,102,0.00,-208.00,-966.00
2024-06-07 10:27:14.683180,0,8,0,0,-1,0,77,79,181,160,72,133.98,102,-70.00,-143.00,-1100.00
2024-06-07 10:27:14.785107,-1,8,0,0,-1,0,77,79,183,160,72,133.93,102,14.00,-192.00,-977.00
2024-06-07 10:27:14.954178,-1,8,0,0,-1,0,77,79,181,160,72,134.02,103,32.00,-198.00,-988.00
2024-06-07 10:27:14.989262,-1,8,0,0,-2,0,77,79,182,160,72,133.79,103,24.00,-204.00,-984.00
2024-06-07 10:27:15.161964,0,9,0,0,-2,0,77,79,181,160,72,133.97,103,-7.00,-191.00,-927.00
2024-06-07 10:27:15.192981,0,9,0,0,-2,0,77,79,184,160,72,133.98,103,-16.00,-164.00,-930.00
2024-06-07 10:27:15.315956,-1,9,0,0,-2,0,77,79,185,160,72,133.86,103,-10.00,-148.00,-949.00
2024-06-07 10:27:15.397095,0,9,0,0,-2,0,77,79,179,160,72,133.85,103,-29.00,-134.00,-967.00
2024-06-07 10:27:15.569054,-1,9,0,0,-2,0,77,79,184,160,72,133.94,103,-59.00,-132.00,-1003.00
2024-06-07 10:27:15.602716,-1,9,0,0,-2,0,77,79,185,160,72,133.85,103,19.00,-142.00,-881.00
2024-06-07 10:27:15.703140,-1,9,0,0,-2,1,77,79,185,160,72,133.73,103,-37.00,-81.00,-860.00
2024-06-07 10:27:15.804938,-1,8,0,0,-1,1,77,79,182,160,72,133.77,103,-49.00,-118.00,-975.00
2024-06-07 10:27:15.909108,-2,8,0,0,-1,1,77,79,185,160,72,133.80,104,-21.00,-119.00,-913.00
2024-06-07 10:27:16.010910,-2,8,0,0,-1,1,77,79,180,160,72,133.76,104,-47.00,-113.00,-928.00
2024-06-07 10:27:16.110857,-2,8,0,0,-1,1,77,79,179,150,72,133.71,104,-50.00,-120.00,-1068.00
2024-06-07 10:27:16.213050,-2,8,0,0,-1,1,77,79,175,150,72,133.79,104,-104.00,-92.00,-1030.00
2024-06-07 10:27:16.387641,-2,8,0,0,-1,2,77,79,175,150,72,133.83,104,-32.00,-139.00,-981.00
2024-06-07 10:27:16.417252,-2,8,0,0,-1,2,77,79,170,150,72,133.91,104,-134.00,-108.00,-982.00
2024-06-07 10:27:16.518948,-2,8,0,0,-2,2,77,79,168,150,72,133.70,104,-38.00,-149.00,-909.00
2024-06-07 10:27:16.622686,-2,8,0,0,-2,3,77,79,166,140,72,133.72,104,-5.00,-150.00,-1055.00
2024-06-07 10:27:16.722938,-2,8,0,0,-2,3,77,79,160,140,72,133.73,104,-33.00,-140.00,-999.00
2024-06-07 10:27:16.825942,-2,8,0,0,-2,2,77,79,158,140,72,133.67,104,-37.00,-136.00,-990.00
2024-06-07 10:27:16.926805,-2,8,0,0,-2,2,77,79,157,130,72,133.68,105,-13.00,-160.00,-1018.00
2024-06-07 10:27:17.103344,-2,8,0,-1,-2,2,77,79,153,130,72,133.59,105,-32.00,-156.00,-954.00
2024-06-07 10:27:17.130785,-2,8,0,-1,-2,2,77,79,150,130,72,133.49,105,-82.00,-111.00,-1060.00
2024-06-07 10:27:17.308306,-3,8,0,-1,-2,2,77,79,151,130,72,133.53,105,-50.00,-134.00,-979.00
2024-06-07 10:27:17.308560,-3,8,0,-1,-2,1,77,79,146,130,72,133.49,105,-48.00,-149.00,-998.00
2024-06-07 10:27:17.437021,-3,8,0,-1,-2,1,76,80,147,120,72,133.52,105,-57.00,-136.00,-1029.00
2024-06-07 10:27:17.487818,-3,8,0,-1,-2,1,76,80,147,120,72,133.42,105,-40.00,-133.00,-1041.00
2024-06-07 10:27:17.615533,-3,8,0,-1,-2,1,76,80,143,120,72,133.49,105,2.00,-151.00,-945.00
2024-06-07 10:27:17.692963,-3,7,0,-1,-2,1,76,80,143,120,72,133.48,105,-23.00,-149.00,-972.00
2024-06-07 10:27:17.794708,-3,8,0,-1,-2,1,76,80,141,120,72,133.51,105,-42.00,-126.00,-958.00
2024-06-07 10:27:17.895797,-3,8,0,-1,-2,0,76,80,142,120,72,133.42,106,-56.00,-104.00,-983.00
2024-06-07 10:27:18.025354,-3,8,0,-1,-1,0,76,80,139,120,72,133.47,106,-19.00,-136.00,-1076.00
2024-06-07 10:27:18.100141,-4,8,0,-1,-1,0,76,80,140,120,72,133.40,106,37.00,-140.00,-938.00
2024-06-07 10:27:18.228128,-4,8,0,-1,-1,0,76,80,138,120,72,133.50,106,3.00,-132.00,-1031.00
2024-06-07 10:27:18.303758,-3,8,0,0,-1,0,76,80,136,120,72,133.48,106,-44.00,-130.00,-1017.00
2024-06-07 10:27:18.405753,-3,8,0,-1,-1,0,77,80,134,110,72,133.40,106,-47.00,-130.00,-942.00
2024-06-07 10:27:18.514022,-3,7,0,-1,-1,0,77,80,135,110,72,133.40,106,-29.00,-147.00,-1004.00
2024-06-07 10:27:18.610577,-3,7,0,-1,-1,0,77,80,134,110,72,133.39,106,-48.00,-153.00,-1000.00
2024-06-07 10:27:18.740210,-4,7,0,-1,-1,0,77,80,136,110,72,133.34,106,-110.00,-145.00,-979.00
2024-06-07 10:27:18.813901,-4,7,0,-1,-1,0,77,80,135,110,72,133.34,106,8.00,-165.00,-929.00
2024-06-07 10:27:18.944916,-4,8,0,0,-1,0,77,80,135,110,72,133.27,107,4.00,-176.00,-946.00
2024-06-07 10:27:19.017950,-3,8,0,0,-1,0,77,80,135,110,72,133.29,107,-23.00,-166.00,-971.00
2024-06-07 10:27:19.157653,-3,8,0,0,-1,0,77,80,134,110,72,133.29,107,30.00,-141.00,-954.00
2024-06-07 10:27:19.221905,-3,9,0,0,-1,0,77,80,134,110,72,133.30,107,-20.00,-157.00,-952.00
2024-06-07 10:27:19.359158,-3,9,0,0,-1,0,77,80,135,110,72,133.21,107,-11.00,-137.00,-1043.00
2024-06-07 10:27:19.425833,-3,10,0,0,-1,0,77,80,134,110,72,133.19,107,-80.00,-112.00,-911.00
2024-06-07 10:27:19.559367,-3,10,0,0,0,0,77,80,132,110,72,133.13,107,-61.00,-133.00,-1020.00
2024-06-07 10:27:19.630786,-4,11,0,0,0,0,77,80,135,110,72,133.12,107,-17.00,-133.00,-1043.00
2024-06-07 10:27:19.731814,-4,11,0,0,0,0,77,80,135,110,72,133.17,107,-74.00,-128.00,-1052.00
2024-06-07 10:27:19.833894,-4,11,0,1,1,0,77,80,134,110,72,133.08,107,-24.00,-137.00,-1079.00
2024-06-07 10:27:19.970871,-4,11,0,1,1,0,77,80,134,110,72,133.16,108,-30.00,-151.00,-969.00
2024-06-07 10:27:20.038738,-4,12,-1,1,2,0,77,80,135,110,72,133.21,108,-84.00,-114.00,-1054.00
2024-06-07 10:27:20.177004,-5,13,-1,1,3,0,77,80,133,110,72,133.16,108,-24.00,-139.00,-1027.00
2024-06-07 10:27:20.243649,-5,13,-1,2,4,0,77,80,137,110,72,133.15,108,3.00,-146.00,-1054.00
2024-06-07 10:27:20.379388,-5,14,-1,3,5,0,77,80,135,110,72,133.24,108,-5.00,-173.00,-994.00
2024-06-07 10:27:20.446713,-4,14,-1,3,5,0,77,80,137,110,72,133.03,108,-72.00,-147.00,-1044.00
2024-06-07 10:27:20.549294,-3,13,0,3,7,0,77,80,135,110,72,133.12,108,20.00,-180.00,-962.00
2024-06-07 10:27:20.652040,-1,8,0,4,7,0,77,80,133,110,72,133.12,108,-74.00,-118.00,-1067.00
2024-06-07 10:27:20.753946,0,-4,0,3,6,0,77,80,133,110,72,133.27,108,-142.00,-115.00,-1060.00
2024-06-07 10:27:20.855663,-4,-9,0,3,3,0,77,80,136,110,72,133.03,108,-79.00,-121.00,-1145.00
2024-06-07 10:27:20.913292,-8,-4,0,3,1,0,77,80,138,110,72,133.41,109,-49.00,-154.00,-1001.00
2024-06-07 10:27:21.008665,-8,0,0,4,0,0,77,80,136,110,72,133.29,109,-30.00,-161.00,-948.00
2024-06-07 10:27:21.200600,-8,3,0,5,-1,0,77,80,140,110,72,133.21,109,-67.00,-129.00,-995.00
2024-06-07 10:27:21.212650,-8,5,0,6,-1,0,77,80,136,110,72,133.05,109,-86.00,-115.00,-1004.00
2024-06-07 10:27:21.350625,-8,5,0,6,-2,0,77,80,138,110,72,133.13,109,-109.00,-101.00,-952.00
2024-06-07 10:27:21.416883,-6,6,0,7,-2,0,77,80,138,110,72,133.13,109,-127.00,-120.00,-954.00
2024-06-07 10:27:21.610166,-3,7,0,7,-2,0,77,80,138,120,72,133.05,109,-131.00,-89.00,-961.00
2024-06-07 10:27:21.621015,0,8,0,5,-1,0,77,80,138,120,72,133.13,109,-59.00,-104.00,-967.00
2024-06-07 10:27:21.817919,-1,7,0,4,-1,0,77,80,138,110,72,133.12,109,-110.00,-81.00,-1043.00
2024-06-07 10:27:21.825813,-2,6,0,3,-1,0,77,80,138,110,72,133.11,109,-77.00,-103.00,-914.00
2024-06-07 10:27:22.017815,-3,6,0,2,-1,0,77,80,139,110,72,133.04,110,-76.00,-116.00,-1003.00
2024-06-07 10:27:22.028727,-3,6,0,2,-1,0,77,80,139,110,72,133.07,110,-64.00,-121.00,-919.00
2024-06-07 10:27:22.221750,-3,6,0,2,-1,0,77,80,140,120,72,133.12,110,-41.00,-129.00,-919.00
2024-06-07 10:27:22.232776,-3,7,0,2,0,0,77,80,141,120,72,133.04,110,-52.00,-97.00,-979.00
2024-06-07 10:27:22.427641,-3,6,0,2,0,0,77,80,142,120,72,133.14,110,-54.00,-87.00,-1015.00
2024-06-07 10:27:22.436721,-3,6,0,1,0,0,77,80,139,120,72,133.16,110,-91.00,-100.00,-979.00
2024-06-07 10:27:22.631963,-3,6,0,1,0,0,77,80,142,120,72,133.13,110,-51.00,-100.00,-1053.00
2024-06-07 10:27:22.640636,-2,6,0,1,0,0,77,80,143,120,72,133.14,110,-22.00,-115.00,-913.00
2024-06-07 10:27:22.836686,0,7,0,1,0,0,77,80,142,120,72,133.09,110,8.00,-135.00,-907.00
2024-06-07 10:27:22.844449,0,7,0,0,0,0,77,80,141,120,72,133.20,110,-7.00,-105.00,-974.00
2024-06-07 10:27:23.042890,0,6,0,0,0,0,77,80,143,120,72,133.20,111,-80.00,-91.00,-913.00
2024-06-07 10:27:23.048729,-2,6,0,0,0,0,77,80,142,120,72,133.18,111,10.00,-138.00,-892.00
2024-06-07 10:27:23.245840,-4,5,0,0,0,0,77,80,143,120,72,133.12,111,-69.00,-96.00,-953.00
2024-06-07 10:27:23.252487,-4,5,0,0,0,0,77,80,143,120,72,133.16,111,-88.00,-67.00,-1096.00
2024-06-07 10:27:23.354778,-3,5,0,0,0,0,77,80,141,120,72,133.26,111,-36.00,-90.00,-1039.00
2024-06-07 10:27:23.554322,-3,6,0,0,0,0,77,80,143,120,72,133.26,111,-64.00,-106.00,-958.00
2024-06-07 10:27:23.558659,-3,6,0,0,0,0,77,80,143,120,72,133.28,111,-66.00,-112.00,-924.00
2024-06-07 10:27:23.660818,-3,6,0,0,0,0,77,80,140,120,72,133.31,111,-20.00,-125.00,-1029.00
2024-06-07 10:27:23.859974,-4,6,0,0,0,0,77,80,141,120,72,133.31,111,-16.00,-126.00,-918.00
2024-06-07 10:27:23.864521,0,6,0,0,0,0,77,80,140,120,72,133.23,111,-16.00,-127.00,-893.00
2024-06-07 10:27:23.966666,4,6,0,-1,0,0,77,80,139,120,72,133.25,112,-35.00,-114.00,-903.00
2024-06-07 10:27:24.171324,5,6,0,-3,0,0,77,80,139,120,72,133.22,112,-12.00,-156.00,-905.00
2024-06-07 10:27:24.172519,4,7,0,-5,0,0,77,80,140,120,72,133.23,112,-99.00,-92.00,-1012.00
2024-06-07 10:27:24.272474,2,6,0,-6,0,0,77,80,138,120,72,133.22,112,-24.00,-96.00,-1044.00
2024-06-07 10:27:24.374395,2,6,0,-6,0,0,77,80,138,120,72,133.27,112,-67.00,-111.00,-988.00
2024-06-07 10:27:24.478445,2,6,0,-7,0,0,78,80,139,120,72,133.24,112,-22.00,-139.00,-989.00
2024-06-07 10:27:24.578471,0,7,0,-7,0,0,78,80,140,120,72,133.33,112,-3.00,-116.00,-1014.00
2024-06-07 10:27:24.781716,-1,8,0,-7,0,0,78,80,140,120,72,133.28,112,42.00,-93.00,-947.00
2024-06-07 10:27:24.783110,-3,8,0,-6,0,0,78,80,141,120,72,133.32,112,15.00,-119.00,-937.00
2024-06-07 10:27:24.833522,-4,8,-1,-5,0,0,78,80,137,120,72,133.29,112,-1.00,-121.00,-999.00
2024-06-07 10:27:24.986362,-5,7,-1,-4,0,0,78,80,139,120,72,133.23,113,-15.00,-98.00,-934.00
2024-06-07 10:27:25.037412,-5,7,0,-3,0,0,78,80,139,110,72,133.16,113,-6.00,-81.00,-1037.00
2024-06-07 10:27:25.191307,-4,7,0,-3,0,0,78,80,139,110,72,133.16,113,-37.00,-95.00,-1086.00
2024-06-07 10:27:25.241328,-3,7,0,-2,0,0,78,80,138,110,72,133.23,113,3.00,-107.00,-951.00
2024-06-07 10:27:25.396036,-2,6,0,-2,0,0,78,80,138,110,72,133.19,113,14.00,-110.00,-1021.00
2024-06-07 10:27:25.445491,-2,6,0,-2,0,0,78,80,137,110,72,133.19,113,21.00,-113.00,-951.00
2024-06-07 10:27:25.600521,-1,6,0,-2,0,0,78,80,137,110,72,133.15,113,-22.00,-123.00,-946.00
2024-06-07 10:27:25.649485,-1,6,0,-2,0,0,78,80,137,110,72,133.25,113,26.00,-125.00,-984.00
2024-06-07 10:27:25.751514,-2,4,0,-2,0,0,78,80,136,110,72,133.23,113,36.00,-128.00,-1043.00
2024-06-07 10:27:25.855291,-2,4,0,-2,0,0,78,80,140,110,72,133.07,113,0.00,-102.00,-1031.00
2024-06-07 10:27:25.955711,-4,5,0,-2,0,0,78,80,138,110,72,133.24,114,12.00,-139.00,-845.00
2024-06-07 10:27:26.112811,-6,4,0,-1,0,0,78,80,138,110,72,133.31,114,10.00,-161.00,-966.00
2024-06-07 10:27:26.160068,-5,6,0,0,0,0,78,80,138,110,72,133.22,114,-12.00,-130.00,-1066.00
2024-06-07 10:27:26.317731,-3,8,0,0,-1,0,78,80,140,110,72,133.28,114,-27.00,-175.00,-976.00
2024-06-07 10:27:26.363262,-1,8,0,0,-1,0,78,80,140,110,72,133.28,114,-52.00,-135.00,-1001.00
2024-06-07 10:27:26.524518,-1,8,0,0,-1,0,76,80,140,110,72,133.28,114,-22.00,-156.00,-976.00
2024-06-07 10:27:26.568660,-1,8,0,0,-1,0,76,80,140,120,72,133.31,114,9.00,-160.00,-963.00
2024-06-07 10:27:26.729523,-2,8,0,0,-1,0,76,80,139,120,72,133.36,114,18.00,-148.00,-977.00
2024-06-07 10:27:26.771462,-1,8,0,0,-1,0,76,80,140,120,72,133.20,114,-47.00,-115.00,-1001.00
2024-06-07 10:27:26.873502,-3,8,0,0,-1,0,76,80,139,120,72,133.14,114,-53.00,-123.00,-926.00
2024-06-07 10:27:26.975491,-3,8,0,0,0,0,76,80,137,120,72,133.16,115,-61.00,-130.00,-989.00
2024-06-07 10:27:27.078288,-4,7,0,0,0,0,76,80,138,120,72,133.16,115,-22.00,-137.00,-942.00
2024-06-07 10:27:27.179401,-4,8,0,0,0,0,76,80,137,120,72,133.11,115,-36.00,-100.00,-999.00
2024-06-07 10:27:27.341865,-3,8,0,0,0,0,76,80,136,110,72,133.11,115,4.00,-140.00,-985.00
2024-06-07 10:27:27.383440,-3,8,0,0,0,0,76,80,134,110,72,133.14,115,19.00,-119.00,-962.00
2024-06-07 10:27:27.485673,-3,8,0,0,0,0,77,80,138,110,72,133.04,115,-48.00,-116.00,-926.00
2024-06-07 10:27:27.650644,-2,8,0,0,0,0,77,80,135,110,72,133.05,115,-34.00,-121.00,-1116.00
2024-06-07 10:27:27.689835,-2,8,0,0,0,0,77,80,135,110,72,133.12,115,-23.00,-117.00,-1073.00
2024-06-07 10:27:27.853768,-2,8,0,0,0,0,77,80,134,110,72,133.04,115,4.00,-121.00,-925.00
2024-06-07 10:27:27.893448,-3,8,0,0,0,0,77,80,134,110,72,132.95,115,-53.00,-91.00,-916.00
2024-06-07 10:27:28.060406,-3,8,0,0,0,0,77,80,135,110,72,132.93,116,-1.00,-129.00,-943.00
2024-06-07 10:27:28.097936,-3,7,0,0,0,0,77,80,133,110,72,132.92,116,-37.00,-83.00,-1051.00
2024-06-07 10:27:28.199307,-3,7,0,0,1,0,77,80,134,110,72,132.98,116,-81.00,-137.00,-949.00
2024-06-07 10:27:28.367451,-2,6,0,0,0,0,77,80,132,110,72,132.93,116,-76.00,-97.00,-1027.00
2024-06-07 10:27:28.367521,-2,5,0,0,0,0,77,80,132,110,72,132.91,116,-102.00,-107.00,-1007.00
2024-06-07 10:27:28.572969,-2,-3,0,0,-1,0,78,79,131,110,72,133.00,116,-84.00,-122.00,-1023.00
2024-06-07 10:27:28.607186,-3,0,0,0,-3,0,78,79,131,110,72,132.89,116,-66.00,-82.00,-1064.00
2024-06-07 10:27:28.774890,-4,4,0,0,-4,0,78,79,131,110,72,132.92,116,-51.00,-78.00,-1066.00
2024-06-07 10:27:28.811314,-4,6,0,0,-4,0,78,79,133,110,72,132.88,116,-59.00,-71.00,-1080.00
2024-06-07 10:27:28.913385,-4,7,0,0,-3,0,78,79,134,110,72,132.88,117,-94.00,-75.00,-1072.00
2024-06-07 10:27:28.964272,-3,7,0,0,-2,0,78,79,134,110,72,132.97,117,-105.00,-63.00,-974.00
2024-06-07 10:27:29.082388,-3,5,0,0,-1,0,78,79,136,110,72,133.04,117,-85.00,-54.00,-987.00
2024-06-07 10:27:29.168293,-4,4,0,0,-1,0,78,79,134,110,72,132.97,117,-45.00,-92.00,-993.00
2024-06-07 10:27:29.270289,-3,4,0,0,-1,0,78,79,135,110,72,132.87,117,-145.00,-44.00,-925.00
2024-06-07 10:27:29.372312,-4,3,0,0,-1,0,78,79,132,110,72,132.94,117,-41.00,-72.00,-992.00
2024-06-07 10:27:29.474192,-4,3,0,0,-1,0,77,80,132,110,72,132.94,117,-80.00,-53.00,-976.00
2024-06-07 10:27:29.595677,-3,3,0,0,-1,0,77,80,134,110,72,132.90,117,-71.00,-55.00,-1050.00
2024-06-07 10:27:29.678257,-2,3,0,0,-1,0,77,80,133,110,72,132.96,117,-19.00,-79.00,-1046.00
2024-06-07 10:27:29.798891,-2,3,0,0,-1,0,77,80,132,110,72,132.93,117,-66.00,-59.00,-1068.00
2024-06-07 10:27:29.882407,-2,3,0,0,-2,0,77,80,134,110,72,132.92,118,-41.00,-79.00,-970.00
2024-06-07 10:27:30.003955,-1,4,0,0,-2,0,77,80,134,110,72,132.99,118,-25.00,-103.00,-994.00
2024-06-07 10:27:30.086509,-1,4,0,0,-2,0,77,80,134,110,72,132.86,118,-35.00,-75.00,-1016.00
2024-06-07 10:27:30.210027,-2,5,0,0,-2,0,77,80,134,110,72,133.02,118,-25.00,-120.00,-934.00
2024-06-07 10:27:30.290325,-2,5,0,0,-2,0,77,80,136,110,72,132.98,118,-21.00,-72.00,-1006.00
2024-06-07 10:27:30.392196,-2,7,0,0,-1,0,77,80,134,110,72,132.95,118,-66.00,-63.00,-929.00
2024-06-07 10:27:30.516174,-2,8,0,0,-1,0,77,80,135,110,72,132.99,118,-62.00,-53.00,-989.00
2024-06-07 10:27:30.596534,-3,7,0,0,0,0,77,80,134,110,72,132.88,118,-18.00,-100.00,-1032.00
2024-06-07 10:27:30.698688,-2,6,0,0,0,0,77,80,134,110,72,132.88,118,-37.00,-70.00,-982.00
2024-06-07 10:27:30.801352,-2,6,0,0,0,0,77,80,134,110,72,132.97,118,-38.00,-99.00,-956.00
2024-06-07 10:27:30.927644,-2,5,0,0,0,0,77,80,132,110,72,133.01,119,-109.00,-90.00,-1118.00
2024-06-07 10:27:31.005200,-2,5,0,0,0,0,77,80,131,110,72,132.91,119,-25.00,-97.00,-970.00
2024-06-07 10:27:31.111710,-2,6,0,0,0,0,77,80,131,110,72,132.88,119,16.00,-96.00,-1076.00
2024-06-07 10:27:31.209190,-2,6,0,0,0,0,77,80,133,110,72,132.91,119,-81.00,-77.00,-1078.00
2024-06-07 10:27:31.335812,-2,6,0,0,0,0,77,80,131,110,72,132.83,119,-54.00,-98.00,-1055.00
2024-06-07 10:27:31.413709,-2,6,0,0,0,0,77,80,131,110,72,132.81,119,-66.00,-64.00,-1045.00
2024-06-07 10:27:31.515187,-2,5,0,0,0,0,78,80,130,110,72,132.92,119,-54.00,-85.00,-1014.00
2024-06-07 10:27:31.617206,-3,5,0,0,0,0,78,80,130,110,72,132.95,119,-15.00,-122.00,-989.00
2024-06-07 10:27:31.744828,-2,5,0,0,0,0,78,80,130,110,72,132.95,119,-26.00,-88.00,-983.00
2024-06-07 10:27:31.821222,-2,6,0,0,0,0,78,80,131,110,72,132.92,119,-29.00,-111.00,-937.00
2024-06-07 10:27:31.949297,-1,5,0,0,0,0,78,80,132,110,72,133.00,120,-59.00,-64.00,-910.00
2024-06-07 10:27:32.025487,-1,5,0,0,0,0,78,80,131,110,72,132.92,120,31.00,-95.00,-1013.00
2024-06-07 10:27:32.154888,-1,4,0,0,0,0,78,80,131,110,72,132.98,120,-74.00,-82.00,-997.00
2024-06-07 10:27:32.229636,-1,4,0,0,0,0,78,80,133,110,72,132.82,120,-95.00,-62.00,-1066.00
2024-06-07 10:27:32.363328,-3,4,0,0,0,0,78,80,135,110,72,132.90,120,-81.00,-66.00,-935.00
2024-06-07 10:27:32.433069,-4,3,0,0,1,0,78,80,135,110,72,133.00,120,-28.00,-77.00,-1002.00
2024-06-07 10:27:32.565569,-4,2,0,0,0,0,77,80,136,110,72,132.89,120,-39.00,-79.00,-923.00
2024-06-07 10:27:32.637764,-4,3,0,0,0,0,77,80,136,120,72,132.96,120,39.00,-105.00,-909.00
2024-06-07 10:27:32.688583,-3,3,0,0,0,0,77,80,137,120,72,132.99,120,-10.00,-97.00,-1024.00
2024-06-07 10:27:32.872369,-1,8,0,0,0,0,77,80,139,120,72,132.99,120,-90.00,-56.00,-898.00
2024-06-07 10:27:32.892035,-1,8,0,0,0,0,77,80,138,120,72,133.07,121,-2.00,-106.00,-1048.00
2024-06-07 10:27:33.178843,-1,8,0,0,1,0,77,80,137,120,72,133.10,121,-47.00,-88.00,-928.00
2024-06-07 10:27:33.178896,-2,8,0,0,2,0,77,80,138,120,72,132.91,121,-60.00,-126.00,-933.00
2024-06-07 10:27:33.198376,-3,8,0,0,2,0,77,80,138,120,72,133.01,121,-23.00,-130.00,-1003.00
2024-06-07 10:27:33.300622,-4,7,0,0,3,0,77,80,137,120,72,132.88,121,-17.00,-107.00,-1030.00
2024-06-07 10:27:33.403061,-3,5,0,0,3,0,77,80,136,110,72,132.83,121,-71.00,-65.00,-921.00
2024-06-07 10:27:33.590688,-3,4,0,0,3,0,78,79,134,110,72,132.92,121,-40.00,-93.00,-982.00
2024-06-07 10:27:33.607006,-3,4,0,0,3,0,78,79,135,110,71,132.99,121,-8.00,-119.00,-993.00
2024-06-07 10:27:33.796559,-2,4,0,0,3,0,78,79,137,110,71,133.02,121,-53.00,-110.00,-895.00
2024-06-07 10:27:33.810334,-2,5,0,0,2,0,78,79,135,110,71,133.00,121,-62.00,-83.00,-1000.00
2024-06-07 10:27:33.912066,-2,5,0,0,2,0,78,79,135,110,71,133.06,122,-111.00,-46.00,-1077.00
2024-06-07 10:27:34.100939,-3,5,0,0,3,0,78,79,137,110,71,132.94,122,-27.00,-85.00,-1037.00
2024-06-07 10:27:34.116222,-3,4,0,0,3,0,78,79,136,110,71,132.87,122,7.00,-85.00,-961.00
2024-06-07 10:27:34.304635,-3,3,0,0,3,0,78,79,136,110,71,132.91,122,-35.00,-103.00,-952.00
2024-06-07 10:27:34.320830,-3,2,0,0,3,0,78,79,137,110,71,132.92,122,-27.00,-87.00,-979.00
2024-06-07 10:27:34.509195,-4,0,0,0,2,0,78,79,138,110,71,132.90,122,-130.00,-48.00,-1000.00
2024-06-07 10:27:34.523881,-4,0,0,0,2,0,78,80,137,110,71,132.99,122,-79.00,-69.00,-1058.00
2024-06-07 10:27:34.719144,-4,1,0,0,1,0,78,80,138,120,71,132.95,122,-162.00,-28.00,-1048.00
2024-06-07 10:27:34.728752,-5,2,0,0,1,0,78,80,137,120,71,132.93,122,-11.00,-103.00,-947.00
2024-06-07 10:27:34.830098,-4,3,0,0,1,0,78,80,139,120,71,132.91,122,-79.00,-39.00,-978.00
2024-06-07 10:27:35.021527,-4,2,0,0,1,0,78,80,137,120,71,132.95,123,-134.00,-52.00,-994.00
2024-06-07 10:27:35.034114,-5,1,0,0,1,0,78,80,139,120,71,132.96,123,-34.00,-74.00,-999.00
2024-06-07 10:27:35.227761,-5,1,0,0,1,0,78,80,138,120,71,132.94,123,-86.00,-31.00,-1039.00
2024-06-07 10:27:35.255115,-4,1,0,0,1,0,78,80,138,120,71,132.93,123,-111.00,-8.00,-1002.00
2024-06-07 10:27:35.340186,-4,1,0,0,0,0,78,80,138,120,71,132.95,123,-110.00,-41.00,-994.00
2024-06-07 10:27:35.441986,-5,1,0,0,0,0,78,80,137,120,71,132.92,123,-44.00,-59.00,-1002.00
2024-06-07 10:27:35.636480,-5,1,0,0,0,0,77,80,137,120,71,132.89,123,-30.00,-61.00,-1039.00
2024-06-07 10:27:35.646024,-5,1,0,0,0,0,77,80,138,120,71,132.91,123,-81.00,-76.00,-945.00
2024-06-07 10:27:35.842780,-6,1,0,0,0,0,77,80,138,120,71,132.55,123,-52.00,-30.00,-963.00
2024-06-07 10:27:35.853613,-6,0,0,0,0,0,77,80,138,120,71,132.69,123,-156.00,2.00,-943.00
2024-06-07 10:27:35.952060,-6,0,0,0,0,0,77,80,137,120,71,132.90,124,-125.00,-11.00,-947.00
2024-06-07 10:27:36.054342,-6,0,0,0,0,0,77,80,136,120,71,132.91,124,-67.00,-71.00,-1006.00
2024-06-07 10:27:36.104905,-6,0,0,0,0,0,77,80,135,120,71,132.80,124,-75.00,-59.00,-974.00
2024-06-07 10:27:36.206975,-6,1,0,0,0,0,77,80,137,120,71,132.88,124,-94.00,-71.00,-910.00
2024-06-07 10:27:36.310264,-6,1,0,0,0,0,77,80,136,120,71,132.76,124,-126.00,-29.00,-1037.00
2024-06-07 10:27:36.410832,-6,1,0,0,0,0,77,80,136,120,71,132.88,124,-109.00,-45.00,-1056.00
2024-06-07 10:27:36.558887,-7,2,0,0,0,0,77,80,138,120,71,132.71,124,-77.00,-54.00,-970.00
2024-06-07 10:27:36.614966,-7,2,0,0,0,0,77,80,138,120,71,132.66,124,-111.00,-19.00,-995.00
2024-06-07 10:27:36.723284,-7,1,0,0,0,0,77,80,137,120,71,132.62,124,-130.00,-26.00,-902.00
2024-06-07 10:27:36.819043,-7,1,0,0,0,0,77,80,136,120,71,132.65,124,-132.00,-17.00,-985.00
2024-06-07 10:27:36.969883,-7,0,3,0,0,0,77,80,137,120,71,132.58,125,-131.00,-2.00,-1002.00
2024-06-07 10:27:37.022795,-7,0,8,0,0,0,77,80,136,120,71,132.55,125,-217.00,66.00,-1027.00
2024-06-07 10:27:37.171894,-7,-1,14,0,0,0,77,80,137,110,71,132.78,125,-161.00,47.00,-923.00
2024-06-07 10:27:37.226710,-8,-2,20,0,0,0,77,80,135,110,71,133.01,125,-139.00,70.00,-856.00
2024-06-07 10:27:37.331053,-8,-4,25,0,0,0,77,80,134,110,71,132.89,125,-87.00,41.00,-961.00
2024-06-07 10:27:37.430734,-7,-5,31,0,0,1,77,80,133,110,71,132.89,125,-128.00,67.00,-960.00
2024-06-07 10:27:37.582828,-6,-6,36,0,0,0,77,80,133,110,71,132.84,125,-107.00,83.00,-1077.00
2024-06-07 10:27:37.634829,-5,-6,41,0,0,0,77,80,134,110,71,132.83,125,-177.00,91.00,-1065.00
2024-06-07 10:27:37.786358,-6,-6,47,0,0,0,77,80,132,110,71,132.81,125,-168.00,95.00,-1049.00
2024-06-07 10:27:37.839348,-5,-6,52,0,0,0,77,80,135,110,71,132.93,125,-105.00,83.00,-994.00
2024-06-07 10:27:37.940757,-5,-7,58,0,0,0,77,80,135,110,71,132.99,126,-74.00,99.00,-1010.00
2024-06-07 10:27:38.094898,-4,-7,64,0,0,0,77,80,134,110,71,133.17,126,-40.00,101.00,-962.00
2024-06-07 10:27:38.144692,-2,-8,69,0,0,0,77,80,133,110,71,133.23,126,-96.00,119.00,-998.00
2024-06-07 10:27:38.297976,-2,-8,75,0,0,0,77,80,135,110,71,132.96,126,-109.00,131.00,-1054.00
2024-06-07 10:27:38.348715,-2,-8,81,0,-1,0,77,80,133,110,71,132.99,126,-103.00,99.00,-1032.00
2024-06-07 10:27:38.450867,-2,-8,87,0,0,0,77,80,131,110,71,132.86,126,44.00,61.00,-1016.00
2024-06-07 10:27:38.607718,-1,-6,93,1,0,0,77,80,129,110,71,133.05,126,54.00,79.00,-969.00
2024-06-07 10:27:38.654716,0,-6,99,1,0,0,77,80,129,110,71,133.09,126,-38.00,88.00,-942.00
2024-06-07 10:27:38.812258,0,-6,105,1,0,0,77,80,128,110,71,133.03,126,4.00,107.00,-946.00
2024-06-07 10:27:38.858645,1,-6,111,0,0,0,77,80,128,110,71,133.12,126,-27.00,129.00,-1041.00
2024-06-07 10:27:39.015674,3,-5,117,0,0,0,77,80,127,110,71,133.13,127,24.00,124.00,-1053.00
2024-06-07 10:27:39.062701,4,-5,123,0,0,0,77,80,128,110,71,133.12,127,77.00,101.00,-1030.00
2024-06-07 10:27:39.224500,5,-4,129,0,0,0,77,80,129,110,71,133.07,127,57.00,111.00,-972.00
2024-06-07 10:27:39.266668,6,-3,136,0,0,0,77,80,130,110,71,133.07,127,145.00,73.00,-993.00
2024-06-07 10:27:39.368804,7,-1,142,0,0,0,77,80,129,110,71,133.06,127,122.00,37.00,-1001.00
2024-06-07 10:27:39.528860,7,-1,148,0,0,0,77,80,131,110,71,133.11,127,143.00,37.00,-974.00
2024-06-07 10:27:39.572685,8,0,155,0,0,0,77,79,130,110,71,132.93,127,136.00,67.00,-1009.00
2024-06-07 10:27:39.736708,7,-1,161,0,0,0,77,79,131,110,71,132.84,127,145.00,46.00,-997.00
2024-06-07 10:27:39.777447,7,-1,167,0,-1,0,77,79,133,110,71,132.68,127,195.00,11.00,-982.00
2024-06-07 10:27:39.878918,8,-1,173,0,0,0,77,79,134,110,71,132.52,127,192.00,8.00,-944.00
2024-06-07 10:27:40.042478,8,0,-179,0,0,0,77,79,135,110,71,132.57,128,100.00,64.00,-989.00
2024-06-07 10:27:40.082670,8,0,-173,-1,0,0,77,79,135,110,71,132.49,128,206.00,-73.00,-969.00
2024-06-07 10:27:40.245135,8,1,-167,-1,0,0,77,79,136,120,71,132.68,128,131.00,-38.00,-943.00
2024-06-07 10:27:40.245183,8,2,-162,-1,0,0,77,79,137,120,71,132.89,128,175.00,-82.00,-945.00
2024-06-07 10:27:40.338116,8,3,-156,-1,0,0,77,79,137,120,71,132.90,128,193.00,-67.00,-988.00
2024-06-07 10:27:40.449838,7,4,-150,-1,0,0,77,79,137,120,71,132.91,128,93.00,-57.00,-992.00
2024-06-07 10:27:40.592580,7,4,-144,-1,0,0,77,79,133,120,71,132.99,128,77.00,-66.00,-995.00
2024-06-07 10:27:40.643607,6,5,-139,-1,0,0,77,79,135,120,71,132.92,128,124.00,-65.00,-1056.00
2024-06-07 10:27:40.755567,6,6,-133,-1,0,0,77,79,132,120,71,132.89,128,118.00,-138.00,-900.00
2024-06-07 10:27:40.847965,6,6,-127,-1,0,0,77,79,132,110,71,132.87,128,145.00,-138.00,-955.00
2024-06-07 10:27:40.962029,5,6,-121,-1,0,1,77,79,131,110,71,132.99,129,49.00,-146.00,-924.00
2024-06-07 10:27:41.051767,5,7,-115,-1,0,1,77,79,129,110,71,132.94,129,-7.00,-97.00,-1053.00
2024-06-07 10:27:41.168907,3,8,-109,-1,0,1,77,79,128,110,71,132.95,129,-14.00,-83.00,-995.00
2024-06-07 10:27:41.255837,1,8,-104,-1,0,1,77,79,129,110,71,132.93,129,32.00,-117.00,-1072.00
2024-06-07 10:27:41.378808,0,8,-98,0,0,0,77,79,127,110,71,132.95,129,93.00,-147.00,-1072.00
2024-06-07 10:27:41.459727,-1,8,-92,-1,0,0,77,79,128,110,71,132.94,129,-33.00,-95.00,-992.00
2024-06-07 10:27:41.578942,-1,8,-86,-1,0,0,77,80,129,110,70,132.97,129,-34.00,-117.00,-1011.00
2024-06-07 10:27:41.663612,-1,8,-79,0,0,0,77,80,129,110,70,133.00,129,-104.00,-88.00,-1025.00
2024-06-07 10:27:41.780534,-2,8,-72,0,0,0,77,80,130,110,70,133.03,129,-46.00,-66.00,-1047.00
2024-06-07 10:27:41.897968,-4,7,-66,0,0,0,77,80,132,110,70,133.06,129,-66.00,-108.00,-958.00
2024-06-07 10:27:42.009780,-5,7,-60,0,0,0,77,80,131,110,70,132.86,130,-97.00,-77.00,-1010.00
2024-06-07 10:27:42.107256,-6,5,-54,0,0,0,77,80,132,110,70,132.89,130,-133.00,-115.00,-910.00
2024-06-07 10:27:42.175644,-6,5,-47,0,0,0,77,80,131,110,70,132.88,130,-138.00,-92.00,-946.00
2024-06-07 10:27:42.307225,-7,4,-41,0,0,0,77,80,129,110,70,132.88,130,-145.00,-68.00,-915.00
2024-06-07 10:27:42.408493,-7,4,-35,0,0,0,77,80,132,110,70,132.84,130,-115.00,-54.00,-1014.00
2024-06-07 10:27:42.480027,-8,3,-28,0,0,0,77,80,130,110,70,132.87,130,-77.00,-86.00,-1007.00
2024-06-07 10:27:42.581588,-8,2,-22,0,0,0,77,80,131,110,70,132.71,130,-202.00,-36.00,-1001.00
2024-06-07 10:27:42.683593,-8,1,-17,-1,0,0,77,80,130,110,70,132.72,130,-221.00,-40.00,-994.00
2024-06-07 10:27:42.785708,-8,1,-13,-1,0,0,77,80,129,110,70,132.66,130,-137.00,-51.00,-1075.00
2024-06-07 10:27:42.887624,-8,1,-10,-1,0,0,77,80,131,110,70,132.65,130,-146.00,-69.00,-990.00
2024-06-07 10:27:42.990625,-8,0,-8,-1,0,0,77,80,130,110,70,132.61,131,-151.00,-21.00,-1034.00
2024-06-07 10:27:43.115876,-8,0,-6,-1,0,0,77,80,132,110,70,132.54,131,-112.00,-33.00,-1056.00
2024-06-07 10:27:43.193538,-9,0,-4,-1,0,0,77,80,133,110,70,132.57,131,-149.00,3.00,-1000.00
2024-06-07 10:27:43.295723,-9,0,-3,-1,0,0,77,80,130,110,70,132.36,131,-169.00,-25.00,-996.00
2024-06-07 10:27:43.417902,-8,0,-3,-1,0,0,77,80,130,110,70,132.54,131,-157.00,27.00,-971.00
2024-06-07 10:27:43.505396,-8,0,-2,-1,0,0,77,80,129,110,70,132.51,131,-155.00,-16.00,-975.00
2024-06-07 10:27:43.601628,-8,0,-2,-2,0,0,77,80,128,110,70,132.50,131,-103.00,-40.00,-955.00
2024-06-07 10:27:43.725248,-8,0,-2,-2,0,0,77,80,128,110,70,132.33,131,-190.00,15.00,-973.00
2024-06-07 10:27:43.805682,-8,0,-2,-2,0,0,77,80,127,110,70,132.39,131,-94.00,-37.00,-911.00
2024-06-07 10:27:43.907566,-8,0,-2,-2,0,0,77,80,126,110,70,132.36,132,-195.00,-2.00,-1084.00
2024-06-07 10:27:44.032753,-8,0,-2,-2,0,0,77,80,125,110,70,132.15,132,-119.00,9.00,-1000.00
2024-06-07 10:27:44.111557,-8,0,-2,-2,0,0,77,80,126,110,70,132.33,132,-171.00,28.00,-1104.00
2024-06-07 10:27:44.162316,-9,0,-2,-2,0,0,77,80,125,110,70,132.49,132,-164.00,31.00,-977.00
2024-06-07 10:27:44.340780,-9,0,-2,-2,0,0,77,80,124,110,70,132.51,132,-53.00,-3.00,-918.00
2024-06-07 10:27:44.366678,-9,0,-2,-2,0,0,77,80,124,110,70,132.32,132,-135.00,2.00,-906.00
2024-06-07 10:27:44.544514,-9,0,-2,-2,0,0,77,80,124,110,70,132.31,132,-185.00,66.00,-1015.00
2024-06-07 10:27:44.570507,-9,0,-2,-2,0,0,78,79,122,110,70,132.28,132,-136.00,-32.00,-972.00
2024-06-07 10:27:44.750596,-9,-1,-2,-2,0,0,78,79,123,110,70,132.42,132,-129.00,-47.00,-844.00
2024-06-07 10:27:44.774365,-9,0,-2,-2,0,0,78,79,123,110,70,132.42,132,-158.00,9.00,-1048.00
2024-06-07 10:27:44.877494,-9,0,-2,-1,0,0,78,79,123,110,70,132.56,133,-116.00,-45.00,-941.00
2024-06-07 10:27:45.056610,-9,0,-2,-1,0,0,78,79,124,110,70,132.53,133,-194.00,-4.00,-915.00
2024-06-07 10:27:45.080475,-8,0,-2,-2,0,0,78,79,122,110,70,132.56,133,-224.00,30.00,-1046.00
2024-06-07 10:27:45.261685,-9,0,-2,-2,0,0,78,79,124,110,70,132.44,133,-118.00,-2.00,-994.00
2024-06-07 10:27:45.284414,-9,0,-2,-2,0,0,78,79,125,110,70,132.40,133,-141.00,45.00,-914.00
2024-06-07 10:27:45.386352,-8,0,-2,-1,0,0,78,79,125,110,70,132.49,133,-131.00,17.00,-943.00
2024-06-07 10:27:45.489156,-9,0,-2,-1,0,0,78,79,124,110,70,132.42,133,-209.00,35.00,-937.00
2024-06-07 10:27:45.591153,-8,0,-2,-1,0,0,77,80,127,110,70,132.48,133,-61.00,-29.00,-996.00
2024-06-07 10:27:45.774451,-8,0,-7,0,0,0,77,80,127,110,70,132.45,133,-143.00,6.00,-1014.00
2024-06-07 10:27:45.794332,-8,1,-13,0,0,0,77,80,129,110,70,132.40,133,-175.00,29.00,-1071.00
2024-06-07 10:27:45.896983,-8,1,-20,0,0,0,77,80,131,110,70,132.35,134,-155.00,20.00,-1046.00
2024-06-07 10:27:45.999210,-8,2,-26,0,1,0,77,80,132,110,70,132.51,134,-179.00,15.00,-945.00
2024-06-07 10:27:46.100287,-8,3,-32,0,1,0,77,80,133,110,70,132.59,134,-119.00,-25.00,-995.00
2024-06-07 10:27:46.202312,-8,3,-38,0,1,0,77,80,136,110,70,132.59,134,-131.00,-31.00,-916.00
2024-06-07 10:27:46.387445,-7,4,-43,1,0,0,77,80,134,110,70,132.63,134,-133.00,-30.00,-1091.00
2024-06-07 10:27:46.406277,-7,5,-49,1,1,0,77,80,136,110,70,132.71,134,-150.00,-28.00,-924.00
2024-06-07 10:27:46.592228,-7,6,-55,1,1,0,77,80,136,110,70,132.72,134,-49.00,-77.00,-965.00
2024-06-07 10:27:46.610292,-6,7,-61,2,0,0,77,79,137,110,70,132.80,134,-48.00,-96.00,-1053.00
2024-06-07 10:27:46.798651,-6,8,-67,3,0,0,77,79,138,120,70,132.81,134,-43.00,-110.00,-916.00
2024-06-07 10:27:46.815940,-5,8,-72,3,0,0,77,79,137,120,70,132.76,134,-30.00,-124.00,-945.00
2024-06-07 10:27:46.916354,-3,8,-77,4,0,0,77,79,137,120,70,132.86,135,-101.00,-115.00,-905.00
2024-06-07 10:27:47.104274,-3,8,-83,4,0,0,77,79,136,120,70,132.86,135,-39.00,-105.00,-1011.00
2024-06-07 10:27:47.125831,-2,8,-89,4,0,0,77,79,137,120,70,132.86,135,-64.00,-120.00,-942.00
2024-06-07 10:27:47.222396,-1,9,-95,4,0,0,77,79,139,120,70,132.86,135,-67.00,-95.00,-1013.00
2024-06-07 10:27:47.413498,-1,9,-100,5,0,0,77,79,138,120,70,132.82,135,-34.00,-102.00,-1056.00
2024-06-07 10:27:47.426244,0,8,-106,5,0,0,77,79,138,120,70,132.99,135,17.00,-124.00,-940.00
2024-06-07 10:27:47.616215,0,8,-112,5,0,0,77,79,138,120,70,132.90,135,68.00,-146.00,-977.00
2024-06-07 10:27:47.630288,0,8,-117,5,0,0,78,79,135,120,69,133.00,135,44.00,-118.00,-956.00
2024-06-07 10:27:47.823746,0,8,-118,5,0,0,78,79,137,120,69,132.90,135,36.00,-89.00,-1009.00
2024-06-07 10:27:47.834310,1,7,-118,5,-1,0,78,79,135,120,69,133.01,135,47.00,-182.00,-986.00
2024-06-07 10:27:48.025931,1,6,-118,5,0,0,78,79,135,110,69,132.99,136,-27.00,-116.00,-1042.00
2024-06-07 10:27:48.027618,1,5,-118,5,0,0,78,79,135,110,69,133.04,136,99.00,-147.00,-1036.00
2024-06-07 10:27:48.089421,1,5,-118,4,0,0,78,79,135,110,69,133.09,136,2.00,-127.00,-1042.00
2024-06-07 10:27:48.232186,1,6,-118,4,0,0,78,79,135,110,69,133.07,136,-3.00,-99.00,-1026.00
2024-06-07 10:27:48.293352,0,6,-118,4,0,0,78,79,134,110,69,133.11,136,47.00,-173.00,-956.00
2024-06-07 10:27:48.395516,0,6,-118,3,0,0,78,79,135,110,69,133.05,136,11.00,-151.00,-1018.00
2024-06-07 10:27:48.537952,1,6,-118,3,0,0,78,79,136,110,69,133.00,136,79.00,-147.00,-982.00
2024-06-07 10:27:48.600616,2,6,-118,2,-1,0,77,80,136,110,69,133.07,136,0.00,-159.00,-994.00
2024-06-07 10:27:48.701580,2,6,-118,2,-1,0,77,80,134,110,69,133.01,136,57.00,-145.00,-947.00
2024-06-07 10:27:48.846689,2,6,-118,2,-1,0,77,80,135,110,69,133.08,136,118.00,-159.00,-1010.00
2024-06-07 10:27:48.905390,3,5,-118,2,-1,0,77,80,134,110,69,133.06,137,82.00,-174.00,-1018.00
2024-06-07 10:27:49.050708,3,5,-118,2,-1,0,77,80,134,110,69,133.07,137,40.00,-121.00,-993.00
2024-06-07 10:27:49.109248,3,5,-118,1,0,0,77,80,134,110,69,133.05,137,55.00,-139.00,-1047.00
2024-06-07 10:27:49.257684,3,6,-118,1,0,0,77,80,133,110,69,133.02,137,43.00,-134.00,-966.00
2024-06-07 10:27:49.313646,3,6,-118,1,0,0,77,80,134,110,69,132.99,137,8.00,-143.00,-1008.00
2024-06-07 10:27:49.459645,3,6,-118,1,0,0,77,80,133,110,69,132.97,137,70.00,-109.00,-1023.00
2024-06-07 10:27:49.517600,3,6,-118,1,0,0,77,80,132,110,69,132.94,137,52.00,-111.00,-972.00
2024-06-07 10:27:49.619498,4,5,-118,1,0,0,77,80,131,110,69,132.94,137,62.00,-69.00,-970.00
2024-06-07 10:27:49.721376,4,5,-118,1,0,0,77,80,131,110,69,132.99,137,-9.00,-64.00,-903.00
2024-06-07 10:27:49.871499,1,-2,-118,1,0,0,77,80,132,110,69,133.13,137,12.00,-86.00,-1600.00
2024-06-07 10:27:49.925879,0,-5,-117,0,0,-6,77,80,138,120,69,133.12,138,124.00,-133.00,-1718.00
2024-06-07 10:27:50.027197,1,-40,-116,-3,1,-10,77,80,216,130,69,133.30,138,75.00,263.00,-1067.00
2024-06-07 10:27:50.129113,1,-155,-120,-11,5,-3,77,80,6553,130,69,133.22,138,-45.00,626.00,-1085.00
2024-06-07 10:27:50.281130,1,85,-117,-10,4,12,77,80,383,130,69,133.18,138,38.00,609.00,-1016.00
2024-06-07 10:27:50.333724,1,-10,-124,-4,1,15,77,80,133,110,69,133.44,138,-43.00,-57.00,-1709.00
2024-06-07 10:27:50.484954,-2,-11,-131,-9,4,13,77,80,117,100,69,132.61,138,68.00,23.00,-1465.00
2024-06-07 10:27:50.537344,2,4,-139,-10,4,9,77,80,104,90,69,132.75,138,59.00,18.00,-1395.00
2024-06-07 10:27:50.688226,4,6,-145,-9,3,4,77,79,97,80,69,132.59,138,27.00,-3.00,-1500.00
2024-06-07 10:27:50.741109,5,6,-143,-8,2,0,77,79,97,80,69,132.50,138,80.00,-77.00,-1272.00
2024-06-07 10:27:50.893668,4,7,-134,-7,2,-2,77,79,98,80,69,132.58,138,93.00,-53.00,-1279.00
2024-06-07 10:27:50.945297,2,8,-124,-5,1,-3,77,79,102,80,69,132.68,139,42.00,-20.00,-1087.00
2024-06-07 10:27:51.101603,2,8,-118,-5,1,-4,77,79,106,80,69,132.77,139,27.00,-91.00,-1036.00
2024-06-07 10:27:51.149178,2,7,-117,-4,1,-4,77,79,110,90,69,132.87,139,20.00,-81.00,-921.00
2024-06-07 10:27:51.303380,2,7,-117,-4,1,-3,77,79,115,90,69,132.93,139,78.00,-90.00,-929.00
2024-06-07 10:27:51.353364,1,6,-117,-3,1,-3,77,79,120,100,69,132.93,139,65.00,-95.00,-1080.00
2024-06-07 10:27:51.408575,1,6,-117,-3,0,-2,77,79,122,100,69,132.92,139,27.00,-89.00,-937.00
2024-06-07 10:27:51.511033,2,7,-117,-3,0,-2,77,79,125,100,69,133.05,139,35.00,-129.00,-1022.00
2024-06-07 10:27:51.659067,2,7,-117,-3,0,-1,77,80,127,100,69,132.98,139,-22.00,-79.00,-962.00
2024-06-07 10:27:51.710020,2,7,-118,-3,0,-1,77,80,130,110,69,132.97,139,11.00,-83.00,-1027.00
2024-06-07 10:27:51.814579,2,6,-117,-2,0,0,77,80,130,110,69,132.97,139,118.00,-121.00,-914.00
2024-06-07 10:27:51.918896,2,6,-117,-2,0,0,77,80,131,110,69,132.99,140,0.00,-66.00,-1003.00
2024-06-07 10:27:52.020650,2,6,-117,-2,0,0,77,80,131,110,69,132.97,140,30.00,-95.00,-974.00
2024-06-07 10:27:52.118019,1,6,-118,-2,0,0,77,80,131,110,69,133.03,140,26.00,-75.00,-930.00
2024-06-07 10:27:52.224194,1,5,-118,-1,0,0,77,80,131,110,69,132.90,140,49.00,-60.00,-1014.00
2024-06-07 10:27:52.322006,1,6,-118,-1,0,0,77,80,132,110,69,132.99,140,23.00,-27.00,-1037.00
2024-06-07 10:27:52.429364,2,5,-118,-1,0,0,77,80,132,110,69,132.99,140,63.00,-63.00,-934.00
2024-06-07 10:27:52.525949,2,5,-118,-1,0,0,77,80,133,110,68,133.01,140,-5.00,-61.00,-921.00
2024-06-07 10:27:52.633800,2,5,-118,0,0,0,77,80,132,110,68,133.04,140,-19.00,-43.00,-995.00
2024-06-07 10:27:52.729898,2,6,-118,0,0,0,77,80,132,110,68,133.01,140,15.00,-84.00,-887.00
2024-06-07 10:27:52.838474,1,5,-118,0,0,0,77,80,130,110,68,133.00,140,38.00,-76.00,-973.00
2024-06-07 10:27:52.934020,2,5,-118,0,0,0,77,80,130,110,68,133.05,141,18.00,-49.00,-950.00
2024-06-07 10:27:53.043575,2,6,-118,0,0,0,77,80,131,110,68,133.03,141,8.00,-62.00,-984.00
2024-06-07 10:27:53.137896,2,5,-118,0,0,0,77,80,130,110,68,133.05,141,-26.00,-51.00,-997.00
2024-06-07 10:27:53.239960,2,4,-118,0,0,0,77,80,131,110,68,133.00,141,55.00,-71.00,-1061.00
2024-06-07 10:27:53.357467,2,4,-118,0,0,0,77,80,131,110,68,133.00,141,61.00,-49.00,-1093.00
2024-06-07 10:27:53.443985,2,4,-118,0,0,0,77,80,129,110,68,132.98,141,-17.00,-64.00,-987.00
2024-06-07 10:27:53.555408,2,5,-118,0,0,0,77,80,127,110,68,132.97,141,66.00,-92.00,-965.00
2024-06-07 10:27:53.648172,2,5,-118,0,0,0,79,80,128,110,68,132.94,141,13.00,-76.00,-938.00
2024-06-07 10:27:53.761696,2,5,-118,0,0,0,79,80,129,110,68,132.97,141,50.00,-108.00,-948.00
2024-06-07 10:27:53.853020,2,5,-118,0,0,0,79,80,127,110,68,133.00,141,-15.00,-107.00,-1021.00
2024-06-07 10:27:53.965091,2,5,-118,0,0,0,79,80,127,110,68,133.08,142,63.00,-77.00,-1028.00
2024-06-07 10:27:54.057144,2,5,-118,0,0,0,79,80,127,110,68,132.94,142,-19.00,-50.00,-981.00
2024-06-07 10:27:54.170705,2,5,-118,0,0,0,79,80,127,110,68,132.93,142,120.00,-115.00,-1054.00
2024-06-07 10:27:54.262425,3,4,-118,0,0,0,79,80,127,110,68,133.01,142,45.00,-101.00,-970.00
2024-06-07 10:27:54.363013,3,4,-118,0,0,0,79,80,126,110,68,133.01,142,22.00,-73.00,-1046.00
2024-06-07 10:27:54.480777,3,4,-118,0,0,0,79,80,128,110,68,133.03,142,57.00,-85.00,-985.00
2024-06-07 10:27:54.568551,2,5,-118,0,0,0,79,80,127,110,67,132.98,142,32.00,-73.00,-955.00
2024-06-07 10:27:54.682281,2,4,-118,0,0,0,78,80,127,110,67,132.98,142,50.00,-77.00,-998.00
2024-06-07 10:27:54.770980,2,4,-118,0,0,0,78,80,127,110,67,133.06,142,-26.00,-52.00,-992.00
2024-06-07 10:27:54.887419,1,4,-118,0,0,0,78,80,128,110,67,133.01,142,7.00,-75.00,-1005.00
2024-06-07 10:27:54.975393,2,5,-118,0,0,0,78,80,129,110,67,132.94,143,62.00,-111.00,-983.00
2024-06-07 10:27:55.091551,1,4,-118,0,0,0,78,80,128,110,67,132.97,143,46.00,-90.00,-963.00
2024-06-07 10:27:55.179075,1,4,-118,0,0,0,78,80,129,110,67,132.87,143,-18.00,-89.00,-1015.00
2024-06-07 10:27:55.298625,0,4,-118,0,0,0,78,80,130,110,67,133.00,143,-32.00,-65.00,-882.00
2024-06-07 10:27:55.331886,0,4,-118,0,0,0,78,80,130,110,67,133.01,143,40.00,-85.00,-983.00
2024-06-07 10:27:55.501444,0,5,-118,0,0,0,78,80,130,110,67,133.05,143,64.00,-94.00,-1041.00
2024-06-07 10:27:55.535965,0,5,-118,0,0,0,78,80,131,110,67,133.10,143,-29.00,-91.00,-1022.00
2024-06-07 10:27:55.706032,1,5,-118,0,0,0,78,80,132,110,67,133.09,143,-2.00,-66.00,-1087.00
2024-06-07 10:27:55.739916,1,5,-118,0,0,0,78,80,131,110,67,133.13,143,61.00,-109.00,-908.00
2024-06-07 10:27:55.916304,0,5,-118,0,0,0,78,80,133,110,67,133.10,143,74.00,-68.00,-1032.00
2024-06-07 10:27:55.943790,1,5,-118,0,0,0,78,80,132,110,67,132.96,144,11.00,-59.00,-1068.00
2024-06-07 10:27:56.115694,2,4,-118,0,0,0,78,80,132,110,67,133.02,144,18.00,-83.00,-1005.00
2024-06-07 10:27:56.148030,3,4,-118,0,0,0,78,80,133,110,67,133.08,144,-12.00,-75.00,-962.00
2024-06-07 10:27:56.250086,3,4,-118,0,0,0,78,80,132,110,67,133.12,144,-38.00,-83.00,-944.00
2024-06-07 10:27:56.426918,1,4,-118,0,0,0,78,80,133,110,67,133.23,144,-82.00,16.00,-1486.00
2024-06-07 10:27:56.453692,0,5,-118,0,0,-3,78,80,140,110,67,133.27,144,104.00,-95.00,-1603.00
2024-06-07 10:27:56.627337,0,7,-118,0,0,-9,78,80,172,120,67,133.30,144,86.00,-130.00,-1596.00
2024-06-07 10:27:56.657784,0,67,-118,2,-3,-12,77,81,6553,130,67,133.06,144,58.00,745.00,-1100.00
2024-06-07 10:27:56.759729,0,-164,-120,8,-6,0,77,81,444,140,67,132.83,144,37.00,930.00,-1208.00
2024-06-07 10:27:56.937414,2,-38,-112,1,-2,11,77,81,145,130,67,133.35,144,60.00,347.00,-1018.00
2024-06-07 10:27:56.963692,0,3,-105,0,-2,10,77,81,132,120,67,133.01,145,68.00,-87.00,-1418.00
2024-06-07 10:27:57.065737,1,-2,-92,0,-2,6,77,81,126,110,67,133.06,145,-60.00,-88.00,-1396.00
2024-06-07 10:27:57.242478,1,0,-81,-2,-1,2,77,81,122,110,67,133.02,145,43.00,-85.00,-1154.00
2024-06-07 10:27:57.269706,-1,3,-78,-2,0,0,77,81,121,100,67,132.95,145,-168.00,-17.00,-1116.00
2024-06-07 10:27:57.447138,-1,5,-83,-2,0,0,77,81,121,100,67,132.96,145,-80.00,-48.00,-1021.00
2024-06-07 10:27:57.473653,-1,6,-94,-2,0,-1,77,81,121,100,67,133.10,145,-20.00,-100.00,-992.00
2024-06-07 10:27:57.651922,1,6,-106,-2,0,-1,77,81,121,100,67,132.98,145,-27.00,-70.00,-1052.00
2024-06-07 10:27:57.677867,1,6,-117,-2,0,-1,78,81,122,100,67,132.92,145,82.00,-117.00,-1014.00
2024-06-07 10:27:57.858889,1,6,-119,-1,0,-1,78,81,121,100,67,133.02,145,7.00,-75.00,-928.00
2024-06-07 10:27:57.881716,3,6,-119,-1,0,0,78,81,122,100,67,133.07,145,60.00,-114.00,-956.00
2024-06-07 10:27:58.061766,3,5,-119,-1,0,0,78,81,121,100,67,133.05,146,36.00,-110.00,-988.00
2024-06-07 10:27:58.085616,3,4,-119,-1,0,0,78,81,119,100,67,133.00,146,31.00,-87.00,-1006.00
2024-06-07 10:27:58.265697,4,4,-119,0,0,0,78,81,119,100,67,132.97,146,33.00,-121.00,-976.00
2024-06-07 10:27:58.289649,3,4,-119,0,0,0,78,81,117,100,67,132.97,146,29.00,-59.00,-1024.00
2024-06-07 10:27:58.391637,3,5,-119,0,0,0,78,81,117,100,67,132.94,146,-14.00,-60.00,-990.00
2024-06-07 10:27:58.574507,4,4,-119,0,0,0,78,81,117,100,67,133.00,146,10.00,-71.00,-1101.00
2024-06-07 10:27:58.595525,4,4,-119,0,0,0,78,81,116,100,66,132.98,146,35.00,-71.00,-1047.00
2024-06-07 10:27:58.777718,4,4,-119,0,0,0,78,80,117,100,66,132.95,146,71.00,-81.00,-1112.00
2024-06-07 10:27:58.799613,4,4,-119,0,0,0,78,80,118,100,66,132.93,146,20.00,-80.00,-988.00
2024-06-07 10:27:58.982662,4,4,-119,0,0,0,78,80,117,100,66,132.91,147,35.00,-55.00,-1066.00
2024-06-07 10:27:59.004074,3,4,-119,0,0,0,78,80,117,100,66,132.98,147,98.00,-80.00,-1093.00
2024-06-07 10:27:59.187660,3,3,-118,0,0,0,78,80,118,100,66,132.90,147,75.00,-103.00,-980.00
2024-06-07 10:27:59.209018,3,3,-118,0,0,0,78,80,121,100,66,132.96,147,13.00,-84.00,-1030.00
2024-06-07 10:27:59.310505,3,4,-118,0,0,0,78,80,120,100,66,132.94,147,13.00,-80.00,-995.00
2024-06-07 10:27:59.361011,3,4,-119,0,0,0,78,80,120,100,66,132.94,147,77.00,-88.00,-978.00
2024-06-07 10:27:59.494503,2,3,-119,0,0,0,78,80,121,100,66,132.91,147,80.00,-68.00,-1007.00
2024-06-07 10:27:59.564783,2,3,-119,0,0,0,78,80,121,100,66,132.92,147,49.00,-53.00,-1040.00
2024-06-07 10:27:59.666692,2,3,-119,0,0,0,78,80,119,100,66,132.91,147,65.00,-69.00,-948.00
2024-06-07 10:27:59.802690,2,3,-118,0,0,0,78,80,121,100,66,132.95,147,80.00,-67.00,-1095.00
2024-06-07 10:27:59.871941,3,3,-118,0,0,0,78,80,123,100,66,132.95,148,136.00,-57.00,-983.00
2024-06-07 10:28:00.007381,3,3,-118,0,0,0,78,80,121,100,66,132.94,148,131.00,-86.00,-976.00
2024-06-07 10:28:00.075985,2,3,-118,0,0,0,78,80,122,100,66,132.89,148,98.00,-73.00,-984.00
2024-06-07 10:28:00.178029,2,3,-118,0,0,0,78,80,122,100,66,132.90,148,59.00,-52.00,-1069.00
2024-06-07 10:28:00.282847,2,3,-119,0,0,0,78,80,122,100,66,132.92,148,57.00,-108.00,-888.00
2024-06-07 10:28:00.382812,2,4,-118,0,0,0,78,80,123,100,66,132.90,148,44.00,-52.00,-1060.00
2024-06-07 10:28:00.518777,2,3,-118,0,0,0,78,80,121,100,66,133.03,148,17.00,-69.00,-905.00
2024-06-07 10:28:00.587358,2,3,-118,0,0,0,78,80,123,100,65,132.99,148,73.00,-71.00,-1017.00
2024-06-07 10:28:00.687870,3,3,-118,0,0,0,78,81,123,100,65,132.94,148,38.00,-87.00,-952.00
2024-06-07 10:28:00.789571,3,3,-118,0,0,0,78,81,126,100,65,133.02,148,101.00,-80.00,-1066.00
2024-06-07 10:28:00.932906,3,3,-118,0,0,0,78,81,125,100,65,133.03,149,105.00,-104.00,-1015.00
2024-06-07 10:28:00.993652,2,3,-118,0,0,0,78,81,125,100,65,133.00,149,32.00,-111.00,-934.00
2024-06-07 10:28:01.134069,2,4,-118,0,0,0,78,81,125,100,65,133.05,149,7.00,-55.00,-1017.00
2024-06-07 10:28:01.197582,2,4,-118,0,0,0,78,81,125,100,65,132.99,149,27.00,-55.00,-1087.00
2024-06-07 10:28:01.337799,2,4,-118,0,0,0,78,81,125,100,65,132.99,149,117.00,-95.00,-1010.00
2024-06-07 10:28:01.401618,3,3,-118,0,0,0,78,81,127,100,65,132.94,149,107.00,-75.00,-983.00
2024-06-07 10:28:01.542659,3,3,-118,0,0,0,78,81,127,100,65,132.97,149,23.00,-27.00,-1019.00
2024-06-07 10:28:01.605501,4,2,-118,0,0,0,78,81,128,100,65,133.05,149,5.00,-39.00,-863.00
2024-06-07 10:28:01.749630,3,3,-118,0,0,0,78,80,127,100,65,133.06,149,23.00,-52.00,-958.00
2024-06-07 10:28:01.809625,3,4,-118,0,0,0,78,80,127,100,65,133.04,149,47.00,-73.00,-1049.00
2024-06-07 10:28:01.911909,3,4,-118,0,0,0,78,80,127,100,65,133.03,150,91.00,-88.00,-1018.00
2024-06-07 10:28:02.057767,3,5,-118,0,0,0,78,80,129,100,65,133.06,150,92.00,-91.00,-1117.00
2024-06-07 10:28:02.115576,3,5,-118,0,0,0,78,80,129,100,65,132.99,150,94.00,-64.00,-1034.00
2024-06-07 10:28:02.217696,3,5,-118,0,0,0,78,80,128,100,65,133.00,150,61.00,-68.00,-995.00
2024-06-07 10:28:02.362350,3,5,-118,0,0,0,78,80,129,100,65,132.98,150,42.00,-47.00,-1007.00
2024-06-07 10:28:02.421664,4,5,-118,0,0,0,78,80,129,100,65,133.00,150,1.00,-68.00,-1004.00
2024-06-07 10:28:02.566807,4,4,-118,0,0,0,78,80,129,100,65,133.09,150,89.00,-99.00,-1031.00
2024-06-07 10:28:02.625456,4,3,-118,0,0,0,78,80,129,100,65,133.13,150,22.00,-30.00,-833.00
2024-06-07 10:28:02.776392,3,4,-118,0,0,0,79,81,129,100,65,133.18,150,34.00,-125.00,-1020.00
2024-06-07 10:28:02.829376,3,6,-118,0,0,0,79,81,129,100,65,133.09,150,96.00,-89.00,-1099.00
2024-06-07 10:28:02.931393,2,6,-118,0,0,0,79,81,127,100,65,133.07,151,124.00,-89.00,-1054.00
2024-06-07 10:28:03.033492,-4,1,-118,0,0,-1,79,81,128,100,65,133.24,151,-14.00,-71.00,-1571.00
2024-06-07 10:28:03.183543,-6,0,-117,-1,-2,-7,79,81,136,110,65,133.27,151,-131.00,7.00,-1642.00
2024-06-07 10:28:03.237368,-45,-4,-114,-4,-4,-11,79,81,229,120,65,133.54,151,161.00,-78.00,-1596.00
2024-06-07 10:28:03.288493,-18,-177,54,-8,-11,-4,79,81,6553,130,65,133.28,151,660.00,-128.00,-1021.00
2024-06-07 10:28:03.390551,74,30,-87,-8,-10,10,79,81,385,120,65,133.24,151,643.00,-186.00,-1108.00
2024-06-07 10:28:03.591944,-16,-6,-107,-6,-5,13,79,81,141,110,65,133.12,151,221.00,-105.00,-911.00
2024-06-07 10:28:03.594618,-17,-12,-110,-11,-8,12,79,81,128,100,65,132.68,151,-7.00,-123.00,-1294.00
2024-06-07 10:28:03.795486,4,0,-113,-13,-8,10,77,81,110,80,65,132.88,151,-48.00,-18.00,-1419.00
2024-06-07 10:28:03.798450,6,5,-109,-12,-7,6,77,81,103,80,65,132.93,151,-61.00,-46.00,-1661.00
2024-06-07 10:28:03.900839,5,6,-104,-10,-5,0,77,81,103,70,65,132.84,152,29.00,-60.00,-1353.00
2024-06-07 10:28:04.002469,5,7,-106,-8,-4,-2,77,81,103,70,65,132.89,152,-8.00,-31.00,-1239.00
2024-06-07 10:28:04.104532,5,6,-116,-7,-3,-4,77,81,106,70,65,132.88,152,71.00,-78.00,-1067.00
2024-06-07 10:28:04.206450,5,6,-119,-5,-2,-4,77,81,111,80,65,132.83,152,110.00,-99.00,-996.00
2024-06-07 10:28:04.410760,5,5,-119,-4,-2,-4,77,81,113,80,65,132.89,152,53.00,-58.00,-936.00
2024-06-07 10:28:04.410926,4,4,-119,-3,-2,-3,77,81,117,80,65,132.94,152,111.00,-101.00,-914.00
2024-06-07 10:28:04.512593,4,3,-119,-3,-1,-2,77,81,117,90,65,133.00,152,-3.00,-17.00,-912.00
2024-06-07 10:28:04.614736,4,3,-119,-3,-1,-1,77,81,120,90,65,133.02,152,125.00,-78.00,-990.00
2024-06-07 10:28:04.718082,4,4,-119,-3,-1,-1,78,82,121,90,65,132.95,152,18.00,-29.00,-872.00
2024-06-07 10:28:04.818851,4,3,-118,-3,-1,0,78,82,122,90,65,132.98,152,72.00,-97.00,-1031.00
2024-06-07 10:28:04.922019,3,4,-119,-2,0,0,78,82,122,90,65,133.04,153,45.00,-78.00,-982.00
2024-06-07 10:28:05.024246,3,5,-119,-3,0,0,78,82,121,90,65,133.01,153,69.00,-76.00,-974.00
2024-06-07 10:28:05.124409,4,5,-118,-3,0,0,78,82,122,90,65,133.00,153,76.00,-116.00,-884.00
2024-06-07 10:28:05.232828,3,5,-118,-2,0,0,78,82,121,90,65,133.02,153,55.00,-87.00,-956.00
2024-06-07 10:28:05.328643,3,5,-118,-2,0,0,78,82,122,90,65,133.04,153,166.00,-136.00,-944.00
2024-06-07 10:28:05.434992,4,5,-118,-2,0,0,78,82,123,90,65,133.02,153,42.00,-104.00,-915.00
2024-06-07 10:28:05.532437,4,6,-118,-2,0,0,78,82,123,90,65,133.05,153,78.00,-101.00,-1095.00
2024-06-07 10:28:05.638463,4,6,-118,-2,0,0,78,82,124,90,65,132.99,153,36.00,-104.00,-1047.00
2024-06-07 10:28:05.737487,4,7,-118,-2,0,0,79,81,123,90,65,133.04,153,42.00,-114.00,-963.00
2024-06-07 10:28:05.850467,5,7,-118,-2,0,0,79,81,124,90,65,133.00,153,53.00,-117.00,-1044.00
2024-06-07 10:28:05.940346,4,7,-118,-2,0,0,79,81,124,90,65,133.03,154,37.00,-83.00,-1006.00
2024-06-07 10:28:06.042760,4,7,-118,-1,0,0,79,81,126,90,65,132.99,154,31.00,-99.00,-1048.00
2024-06-07 10:28:06.150362,3,8,-118,-1,0,0,79,81,126,90,65,133.04,154,84.00,-154.00,-1004.00
2024-06-07 10:28:06.246373,3,8,-118,-1,0,0,79,81,126,90,65,132.97,154,48.00,-106.00,-902.00
2024-06-07 10:28:06.357497,3,8,-118,-1,0,0,79,81,128,90,65,133.01,154,67.00,-129.00,-986.00
2024-06-07 10:28:06.451195,3,8,-118,0,0,0,79,81,128,90,65,132.96,154,51.00,-133.00,-978.00
2024-06-07 10:28:06.560137,2,8,-118,0,0,0,79,81,128,90,65,133.00,154,122.00,-139.00,-972.00
2024-06-07 10:28:06.654647,2,8,-118,0,0,0,79,81,128,90,65,133.00,154,82.00,-123.00,-987.00
2024-06-07 10:28:06.765927,2,7,-118,0,0,0,79,81,127,90,65,133.00,154,109.00,-160.00,-885.00
