TS,pitch,roll,yaw,vgx,vgy,vgz,templ,temph,tof,h,bat,baro,time,agx,agy,agz
2024-06-07 10:29:00.219240,0,0,-11,0,0,0,80,82,10,0,63,132.18,168,17.00,-14.00,-999.00
2024-06-07 10:29:00.307609,0,0,-11,0,0,0,80,82,10,0,63,132.19,168,17.00,-15.00,-1000.00
2024-06-07 10:29:00.426637,0,0,-11,0,0,0,80,82,10,0,63,132.21,168,18.00,-14.00,-1002.00
2024-06-07 10:29:00.511802,0,0,-11,0,0,0,80,82,10,0,63,132.20,168,18.00,-15.00,-1001.00
2024-06-07 10:29:00.628910,0,0,-11,0,0,0,80,82,10,0,63,132.16,168,18.00,-15.00,-1000.00
2024-06-07 10:29:00.715457,0,0,-11,0,0,0,80,82,10,0,63,132.18,168,17.00,-15.00,-999.00
2024-06-07 10:29:00.831460,0,0,-11,0,0,0,80,82,10,0,63,132.20,168,18.00,-14.00,-1002.00
2024-06-07 10:29:00.919608,0,0,-11,0,0,0,80,82,10,0,63,132.27,168,18.00,-14.00,-999.00
2024-06-07 10:29:01.021412,0,0,-11,0,0,0,80,82,10,0,63,132.24,168,17.00,-15.00,-1001.00
2024-06-07 10:29:01.123596,0,0,-11,0,0,0,80,82,10,0,63,132.19,168,16.00,-15.00,-1001.00
2024-06-07 10:29:01.241179,0,0,-11,0,0,0,80,82,10,0,63,132.21,168,18.00,-13.00,-998.00
2024-06-07 10:29:01.327561,0,0,-11,0,0,0,80,82,10,0,63,132.14,168,19.00,-16.00,-998.00
2024-06-07 10:29:01.447334,0,0,-11,0,0,0,80,82,10,0,63,132.19,168,18.00,-15.00,-1000.00
2024-06-07 10:29:01.531646,0,0,-11,0,0,0,80,82,10,0,62,132.20,168,17.00,-15.00,-999.00
2024-06-07 10:29:01.650722,0,0,-11,0,0,0,80,82,10,0,62,132.18,168,18.00,-15.00,-999.00
2024-06-07 10:29:01.735687,0,0,-11,0,0,0,80,82,10,0,62,132.22,168,16.00,-13.00,-1000.00
2024-06-07 10:29:01.855754,0,0,-11,0,0,0,80,82,10,0,62,132.22,168,20.00,-15.00,-1001.00
2024-06-07 10:29:01.940885,0,0,-11,0,0,0,80,82,10,0,62,132.23,168,18.00,-13.00,-1000.00
2024-06-07 10:29:02.061172,0,0,-11,0,0,0,80,82,10,0,62,132.25,168,14.00,-14.00,-999.00
2024-06-07 10:29:02.143602,0,0,-11,0,0,0,80,82,10,0,62,132.22,168,17.00,-14.00,-999.00
2024-06-07 10:29:02.250369,0,0,-11,0,0,0,80,82,10,0,62,132.21,168,17.00,-16.00,-1001.00
2024-06-07 10:29:02.347932,0,0,-11,0,0,0,80,82,10,0,62,132.21,168,18.00,-15.00,-1003.00
2024-06-07 10:29:02.469676,0,0,-11,0,0,0,80,82,10,0,62,132.21,168,40.00,5.00,-987.00
2024-06-07 10:29:02.551607,0,0,-11,0,0,0,80,82,10,0,62,132.21,168,5.00,-40.00,-996.00
2024-06-07 10:29:02.674576,0,0,-11,0,0,0,80,82,10,0,62,132.21,168,21.00,15.00,-992.00
2024-06-07 10:29:02.755119,1,0,-9,0,0,0,80,82,10,0,62,132.21,168,-22.00,18.00,-996.00
2024-06-07 10:29:02.882018,0,0,-8,0,0,0,80,82,10,0,62,132.21,168,-75.00,-1.00,-981.00
2024-06-07 10:29:02.908103,1,0,-8,0,0,0,80,82,10,0,62,132.21,168,23.00,-57.00,-1077.00
2024-06-07 10:29:03.084089,1,0,-8,0,0,0,80,82,10,0,62,132.21,169,-35.00,17.00,-1082.00
2024-06-07 10:29:03.163270,0,-2,-8,-1,0,-2,80,82,10,0,62,132.21,169,-50.00,4.00,-1326.00
2024-06-07 10:29:03.288869,-3,0,-8,-1,0,-5,80,82,10,0,62,132.38,169,-34.00,31.00,-1162.00
2024-06-07 10:29:03.367281,-4,0,-8,-1,0,-6,80,82,19,0,62,132.46,169,-74.00,18.00,-1160.00
2024-06-07 10:29:03.418164,-4,0,-8,-1,0,-6,80,82,29,0,62,132.60,169,-91.00,-13.00,-1084.00
2024-06-07 10:29:03.597632,-4,-1,-8,0,0,-7,80,82,38,0,62,132.73,169,-73.00,20.00,-958.00
2024-06-07 10:29:03.622064,-3,0,-8,0,0,-6,80,82,47,10,62,132.80,169,-95.00,53.00,-991.00
2024-06-07 10:29:03.724082,-2,0,-8,0,0,-6,80,82,57,10,62,132.93,169,-128.00,72.00,-937.00
2024-06-07 10:29:03.840245,-4,0,-8,0,0,-5,80,82,65,20,62,133.05,169,-125.00,72.00,-764.00
2024-06-07 10:29:03.928696,-4,-1,-8,0,0,-4,80,82,73,20,62,133.05,169,-136.00,75.00,-859.00
2024-06-07 10:29:04.110891,-4,-1,-8,0,0,-3,80,83,82,30,62,133.14,170,-19.00,18.00,-927.00
2024-06-07 10:29:04.132013,-3,-2,-8,0,0,-2,80,83,87,30,62,133.11,170,-119.00,48.00,-937.00
2024-06-07 10:29:04.312868,-3,-2,-8,0,0,-1,80,83,91,40,62,133.18,170,-70.00,14.00,-902.00
2024-06-07 10:29:04.336703,-4,-2,-8,0,0,-1,80,83,95,40,62,133.16,170,-65.00,31.00,-927.00
2024-06-07 10:29:04.437989,-6,-2,-8,0,0,0,80,83,96,40,62,133.08,170,-58.00,-15.00,-875.00
2024-06-07 10:29:04.620389,-6,-2,-8,0,0,0,80,83,98,40,62,133.24,170,-143.00,60.00,-950.00
2024-06-07 10:29:04.642032,-5,0,-8,0,0,0,80,83,100,50,62,133.29,170,-93.00,66.00,-870.00
2024-06-07 10:29:04.824857,-5,-1,-8,0,0,0,80,83,100,50,62,133.22,170,-108.00,28.00,-939.00
2024-06-07 10:29:04.845998,-4,-2,-8,0,0,0,80,83,100,50,62,133.17,170,21.00,-15.00,-1102.00
2024-06-07 10:29:04.947997,-4,-1,-8,0,0,1,80,83,99,50,62,133.19,170,-120.00,48.00,-881.00
2024-06-07 10:29:05.132759,-4,-1,-8,0,0,1,81,82,99,50,62,133.21,171,-80.00,14.00,-1003.00
2024-06-07 10:29:05.152054,-4,-2,-8,0,0,1,81,82,97,50,62,133.10,171,-38.00,11.00,-1015.00
2024-06-07 10:29:05.336861,-4,-2,-8,0,0,1,81,82,97,50,62,133.13,171,11.00,-22.00,-1067.00
2024-06-07 10:29:05.355944,-3,-1,-8,0,0,1,81,82,95,50,62,133.14,171,-41.00,33.00,-1079.00
2024-06-07 10:29:05.541656,-3,0,-7,0,0,1,81,82,93,50,62,133.11,171,-42.00,24.00,-985.00
2024-06-07 10:29:05.560217,-3,0,-8,0,0,1,81,82,91,50,62,132.97,171,-130.00,39.00,-942.00
2024-06-07 10:29:05.746557,-3,0,-8,0,0,1,81,82,90,50,62,132.99,171,-42.00,-3.00,-1019.00
2024-06-07 10:29:05.765277,-4,0,-8,0,0,1,81,82,89,50,62,132.94,171,-101.00,28.00,-933.00
2024-06-07 10:29:05.865952,-4,-1,-8,0,0,1,81,82,86,40,62,133.05,171,-95.00,19.00,-1010.00
2024-06-07 10:29:06.053647,-4,-1,-8,0,0,1,81,82,85,40,62,133.08,171,-67.00,47.00,-1038.00
2024-06-07 10:29:06.070045,-4,0,-8,0,0,1,80,82,83,40,62,132.90,172,40.00,0.00,-1134.00
2024-06-07 10:29:06.171865,-3,0,-8,0,0,1,80,82,81,40,62,133.04,172,-84.00,53.00,-1005.00
2024-06-07 10:29:06.360905,-4,-1,-8,0,0,1,80,82,79,40,62,133.11,172,-115.00,53.00,-1036.00
2024-06-07 10:29:06.375896,-4,-1,-8,0,0,1,80,82,78,40,62,132.94,172,-83.00,55.00,-959.00
2024-06-07 10:29:06.566408,-3,-1,-8,0,0,1,80,82,76,40,62,132.85,172,-98.00,40.00,-1062.00
2024-06-07 10:29:06.579891,-3,-2,-8,0,0,0,80,82,75,40,62,132.77,172,-98.00,-3.00,-979.00
2024-06-07 10:29:06.682053,-3,0,-8,0,0,0,80,82,74,30,62,132.85,172,-78.00,10.00,-1034.00
2024-06-07 10:29:06.783904,-5,0,-8,0,0,0,80,82,74,30,62,132.76,172,-47.00,18.00,-988.00
2024-06-07 10:29:06.892932,-5,0,-8,0,0,0,80,82,73,30,62,132.82,172,-115.00,34.00,-969.00
2024-06-07 10:29:06.991637,-5,-1,-8,0,0,0,80,82,73,30,62,132.81,172,-55.00,-24.00,-1003.00
2024-06-07 10:29:07.090180,-5,-2,-8,0,0,0,80,82,73,30,62,132.76,173,-60.00,-18.00,-1120.00
2024-06-07 10:29:07.191868,-5,-1,-8,0,0,0,80,82,72,30,62,132.81,173,-73.00,2.00,-966.00
2024-06-07 10:29:07.243078,-5,0,-8,0,0,0,80,82,72,30,62,132.78,173,-71.00,2.00,-967.00
2024-06-07 10:29:07.389511,-5,0,-8,0,0,0,80,82,72,30,62,132.72,173,-76.00,25.00,-935.00
2024-06-07 10:29:07.447129,-5,0,-8,0,0,0,80,82,72,30,62,132.72,173,-17.00,-10.00,-1083.00
2024-06-07 10:29:07.589689,-6,-1,-7,0,0,0,80,82,72,30,62,132.70,173,-53.00,-14.00,-949.00
2024-06-07 10:29:07.651488,-6,-1,-8,0,0,0,80,82,72,30,62,132.73,173,-98.00,50.00,-1009.00
2024-06-07 10:29:07.794433,-5,-1,-8,0,0,0,80,82,72,30,62,132.73,173,-154.00,77.00,-1156.00
2024-06-07 10:29:07.855692,-5,-1,-8,0,0,0,80,82,71,30,62,132.75,173,-13.00,-11.00,-1012.00
2024-06-07 10:29:07.999747,-5,-1,-8,0,0,0,80,82,72,30,62,132.76,173,-104.00,46.00,-968.00
2024-06-07 10:29:08.059806,-4,-1,-8,0,0,0,79,82,72,30,62,132.81,174,-77.00,4.00,-1101.00
2024-06-07 10:29:08.161818,-4,0,-8,0,0,0,79,82,72,30,62,132.65,174,-90.00,-1.00,-979.00
2024-06-07 10:29:08.310366,-4,0,-8,0,0,0,79,82,72,30,62,132.77,174,-120.00,37.00,-936.00
2024-06-07 10:29:08.365811,-4,0,-8,0,0,0,79,82,73,30,62,132.70,174,-69.00,-32.00,-1016.00
2024-06-07 10:29:08.467793,-4,1,-8,0,0,0,79,82,73,30,62,132.69,174,-68.00,1.00,-987.00
2024-06-07 10:29:08.613759,-5,0,-8,0,0,0,79,82,74,30,62,132.73,174,-93.00,0.00,-1045.00
2024-06-07 10:29:08.671896,-5,1,-8,0,0,0,79,82,75,30,62,132.73,174,-19.00,-33.00,-999.00
2024-06-07 10:29:08.818720,-4,1,-8,0,0,0,79,82,75,30,62,132.78,174,-95.00,-26.00,-935.00
2024-06-07 10:29:08.875779,-4,0,-8,0,0,0,79,82,76,30,62,132.84,174,-73.00,-34.00,-997.00
2024-06-07 10:29:09.023244,-5,0,-8,0,0,0,79,82,76,30,62,132.91,174,-143.00,0.00,-940.00
2024-06-07 10:29:09.079786,-6,2,-8,0,0,0,80,81,77,30,62,132.88,175,-131.00,-36.00,-992.00
2024-06-07 10:29:09.181787,-6,3,-8,0,0,0,80,81,78,30,62,132.81,175,-140.00,26.00,-988.00
2024-06-07 10:29:09.330419,-6,2,-8,0,0,0,80,81,79,40,62,132.84,175,-67.00,-26.00,-1005.00
2024-06-07 10:29:09.385803,-6,2,-8,0,0,0,80,81,79,40,62,132.83,175,-97.00,-30.00,-1021.00
2024-06-07 10:29:09.536393,-7,3,-8,0,0,0,80,81,81,40,62,132.90,175,-100.00,-35.00,-1036.00
2024-06-07 10:29:09.589830,-7,3,-8,0,0,0,80,81,82,40,62,132.81,175,-114.00,-29.00,-877.00
2024-06-07 10:29:09.740093,-7,1,-8,0,0,0,80,81,82,40,62,132.82,175,-107.00,-30.00,-905.00
2024-06-07 10:29:09.793714,-6,2,-8,0,0,0,80,81,82,40,62,132.71,175,-100.00,-16.00,-1043.00
2024-06-07 10:29:09.895725,-7,1,-8,0,0,0,80,81,84,40,62,132.77,175,-45.00,-56.00,-1039.00
2024-06-07 10:29:09.998724,-8,2,-8,0,0,0,80,81,84,40,62,132.74,176,-216.00,2.00,-1022.00
2024-06-07 10:29:10.099744,-8,2,-8,0,0,0,80,82,85,40,62,132.87,176,-140.00,-45.00,-984.00
2024-06-07 10:29:10.252015,-8,3,-8,0,0,0,80,82,85,40,62,132.77,176,-115.00,-72.00,-987.00
2024-06-07 10:29:10.303687,-8,3,-8,0,0,0,80,82,86,40,62,132.85,176,-135.00,-35.00,-980.00
2024-06-07 10:29:10.456991,-8,3,-8,0,0,0,80,82,86,40,62,132.72,176,-214.00,-13.00,-1005.00
2024-06-07 10:29:10.507640,-8,3,-8,0,0,0,80,82,85,40,62,132.79,176,-139.00,-49.00,-926.00
2024-06-07 10:29:10.661855,-8,3,-8,0,0,0,80,82,85,40,62,132.87,176,-180.00,-10.00,-1008.00
2024-06-07 10:29:10.711709,-8,3,-8,0,0,0,80,82,85,40,62,132.70,176,-96.00,-93.00,-919.00
2024-06-07 10:29:10.763684,-8,3,-8,0,0,0,80,82,85,40,62,132.73,176,-179.00,-28.00,-887.00
2024-06-07 10:29:10.866168,-8,3,-8,0,0,0,80,82,84,40,62,132.72,176,-206.00,-42.00,-933.00
2024-06-07 10:29:10.970006,-9,3,-8,0,0,0,80,82,84,40,62,132.88,177,-141.00,-29.00,-960.00
2024-06-07 10:29:11.068825,-8,2,-8,0,0,0,80,81,83,40,62,132.79,177,-173.00,-55.00,-1039.00
2024-06-07 10:29:11.171627,-8,3,-8,0,0,0,80,81,83,40,62,132.80,177,-181.00,-23.00,-1028.00
2024-06-07 10:29:11.276428,-8,3,-8,0,0,0,80,81,83,40,62,132.65,177,-69.00,-114.00,-953.00
2024-06-07 10:29:11.375087,-8,3,-8,0,0,0,80,81,82,40,62,132.72,177,-108.00,-64.00,-995.00
2024-06-07 10:29:11.481707,-8,2,-8,0,0,0,80,81,81,40,62,132.70,177,-169.00,-16.00,-1022.00
2024-06-07 10:29:11.579098,-8,2,-8,0,0,0,80,81,81,40,62,132.65,177,-123.00,-53.00,-1016.00
2024-06-07 10:29:11.681158,-8,3,-8,0,0,0,80,81,81,40,62,132.65,177,-101.00,-30.00,-1078.00
2024-06-07 10:29:11.782965,-8,2,-8,0,0,0,80,81,80,40,62,132.62,177,-136.00,-64.00,-951.00
2024-06-07 10:29:11.885188,-8,3,-8,0,0,0,80,81,81,40,62,132.70,177,-100.00,-50.00,-992.00
2024-06-07 10:29:11.987322,-8,3,-8,0,0,0,80,81,80,40,62,132.57,178,-36.00,-90.00,-906.00
2024-06-07 10:29:12.089326,-8,3,-8,0,0,0,79,81,80,40,62,132.62,178,-112.00,-66.00,-930.00
2024-06-07 10:29:12.191070,-8,3,-8,0,0,0,79,81,80,40,62,132.57,178,-120.00,-44.00,-912.00
2024-06-07 10:29:12.292934,-8,2,-8,0,0,0,79,81,80,40,62,132.60,178,-209.00,6.00,-1050.00
2024-06-07 10:29:12.395612,-8,1,-8,0,0,0,79,81,79,40,62,132.51,178,-161.00,13.00,-1137.00
2024-06-07 10:29:12.505019,-9,1,-8,0,0,0,79,81,79,40,62,132.52,178,-147.00,-29.00,-1111.00
2024-06-07 10:29:12.598819,-8,1,-8,0,0,0,79,81,79,40,62,132.47,178,-107.00,-44.00,-893.00
2024-06-07 10:29:12.711104,-9,1,-8,0,0,0,79,81,78,40,62,132.50,178,-129.00,-53.00,-1044.00
2024-06-07 10:29:12.802803,-9,1,-8,1,0,0,79,81,78,40,62,132.43,178,-79.00,-63.00,-920.00
2024-06-07 10:29:12.904552,-8,1,-8,1,0,0,79,81,79,40,62,132.29,178,-208.00,55.00,-965.00
2024-06-07 10:29:13.016796,-9,0,-8,0,1,0,79,81,79,40,62,132.53,179,-93.00,8.00,-961.00
2024-06-07 10:29:13.108575,-9,0,-8,0,1,0,79,82,79,40,62,132.63,179,-140.00,10.00,-1005.00
2024-06-07 10:29:13.221553,-9,-1,-8,1,1,-1,79,82,80,40,62,132.41,179,-180.00,57.00,-1031.00
2024-06-07 10:29:13.312557,-8,-1,-8,1,0,-2,79,82,82,40,62,132.58,179,-52.00,0.00,-1081.00
2024-06-07 10:29:13.431059,-7,0,-8,2,0,-3,79,82,84,40,62,132.62,179,-108.00,15.00,-1074.00
2024-06-07 10:29:13.516857,-6,0,-8,2,0,-3,79,82,87,50,62,132.51,179,-127.00,-16.00,-1118.00
2024-06-07 10:29:13.632199,-5,2,-8,2,0,-4,79,82,91,50,62,132.46,179,-107.00,-30.00,-1073.00
2024-06-07 10:29:13.720896,-5,0,-8,1,0,-4,79,82,96,50,62,132.58,179,-91.00,-30.00,-1071.00
2024-06-07 10:29:13.835951,-5,0,-8,1,0,-5,79,82,101,60,62,132.69,179,-160.00,34.00,-1032.00
2024-06-07 10:29:13.924920,-5,0,-8,1,0,-5,79,82,107,60,62,132.68,179,-65.00,-24.00,-1033.00
2024-06-07 10:29:14.026494,-5,-1,-8,1,0,-5,79,82,113,70,62,132.61,180,-75.00,-10.00,-1048.00
2024-06-07 10:29:14.143723,-5,0,-8,1,0,-5,79,81,120,70,62,132.75,180,-82.00,5.00,-974.00
2024-06-07 10:29:14.230887,-6,0,-8,0,0,-5,79,81,123,80,62,132.78,180,-72.00,-19.00,-1059.00
2024-06-07 10:29:14.348047,-6,0,-8,0,0,-5,79,81,130,80,62,133.00,180,-117.00,46.00,-1010.00
2024-06-07 10:29:14.434459,-6,0,-8,1,0,-5,79,81,137,90,62,133.02,180,-132.00,19.00,-938.00
2024-06-07 10:29:14.556695,-6,0,-8,0,0,-4,79,81,142,100,62,133.05,180,-2.00,-74.00,-984.00
2024-06-07 10:29:14.640494,-6,0,-8,1,0,-4,79,81,148,100,62,133.09,180,-84.00,-35.00,-966.00
2024-06-07 10:29:14.740469,-5,0,-8,1,0,-4,79,81,151,110,62,133.06,180,-127.00,-33.00,-971.00
2024-06-07 10:29:14.862844,-5,1,-8,0,0,-4,79,81,156,110,62,133.14,180,-162.00,-5.00,-869.00
2024-06-07 10:29:14.945959,-6,2,-8,0,0,-4,79,81,160,110,62,133.21,180,-10.00,-44.00,-949.00
2024-06-07 10:29:15.070899,-6,1,-8,0,0,-3,79,81,166,120,62,133.35,181,-190.00,38.00,-886.00
2024-06-07 10:29:15.149177,-6,0,-8,0,0,-3,79,81,168,120,62,133.22,181,-132.00,17.00,-960.00
2024-06-07 10:29:15.199425,-6,0,-8,0,0,-2,79,81,172,120,62,133.13,181,-85.00,3.00,-905.00
2024-06-07 10:29:15.371959,-6,0,-8,0,0,-2,79,81,173,130,62,133.23,181,-130.00,37.00,-959.00
2024-06-07 10:29:15.403446,-6,0,-8,0,0,-2,79,81,179,130,62,133.33,181,-100.00,1.00,-898.00
2024-06-07 10:29:15.505763,-7,0,-8,0,0,-1,79,81,178,130,62,133.35,181,-73.00,-27.00,-886.00
2024-06-07 10:29:15.607559,-7,0,-8,0,0,-1,79,81,180,130,62,133.16,181,-201.00,24.00,-940.00
2024-06-07 10:29:15.782394,-7,-1,-8,0,0,0,79,81,181,140,62,133.22,181,-161.00,-2.00,-989.00
2024-06-07 10:29:15.811678,-8,0,-8,0,0,0,79,81,182,140,62,133.24,181,-139.00,37.00,-925.00
2024-06-07 10:29:15.986768,-8,0,-8,0,0,0,79,81,180,140,62,133.12,181,-119.00,-26.00,-941.00
2024-06-07 10:29:16.015613,-8,0,-8,0,0,0,79,81,184,140,62,133.12,182,-88.00,-73.00,-1021.00
2024-06-07 10:29:16.191687,-8,0,-8,0,0,0,79,81,179,140,62,133.18,182,-95.00,-23.00,-943.00
2024-06-07 10:29:16.219768,-8,0,-8,0,0,0,79,81,180,140,62,133.29,182,-108.00,-46.00,-957.00
2024-06-07 10:29:16.396349,-8,0,-8,0,0,0,79,81,182,140,62,133.32,182,-181.00,7.00,-991.00
2024-06-07 10:29:16.423500,-8,0,-8,0,0,0,79,81,181,140,62,133.34,182,-72.00,-61.00,-940.00
2024-06-07 10:29:16.601135,-8,1,-8,0,0,0,79,81,181,130,62,133.12,182,-189.00,31.00,-1051.00
2024-06-07 10:29:16.627557,-9,0,-8,0,0,0,79,81,179,130,62,133.19,182,-147.00,53.00,-1024.00
2024-06-07 10:29:16.805804,-8,0,-8,0,0,0,79,81,184,130,62,133.09,182,-139.00,29.00,-1055.00
2024-06-07 10:29:16.831556,-8,0,-8,0,0,0,79,81,179,140,62,133.21,182,-151.00,41.00,-1005.00
2024-06-07 10:29:16.933697,-7,0,-8,0,0,0,79,81,184,140,62,133.29,182,-131.00,-37.00,-973.00
2024-06-07 10:29:17.113399,-8,0,-8,0,0,0,79,81,181,140,62,133.31,183,-163.00,-4.00,-1038.00
2024-06-07 10:29:17.137798,-8,0,-8,0,0,0,79,81,180,140,62,133.35,183,-152.00,42.00,-912.00
2024-06-07 10:29:17.318264,-8,1,-8,0,0,0,79,81,182,140,62,133.30,183,-118.00,-23.00,-1058.00
2024-06-07 10:29:17.341493,-7,1,-8,0,0,0,79,81,184,140,62,133.38,183,-65.00,-64.00,-969.00
2024-06-07 10:29:17.458075,-7,1,-8,0,0,0,79,81,183,140,62,133.36,183,-131.00,-15.00,-1080.00
2024-06-07 10:29:17.545335,-7,1,-8,0,0,0,79,81,180,140,62,133.40,183,-54.00,-55.00,-946.00
2024-06-07 10:29:17.729634,-7,1,-8,0,0,0,79,81,180,130,62,133.27,183,-176.00,10.00,-998.00
2024-06-07 10:29:17.749638,-8,1,-8,0,0,0,79,81,181,130,62,133.23,183,-136.00,5.00,-931.00
2024-06-07 10:29:17.855476,-8,1,-8,0,0,0,79,81,182,130,62,133.11,183,-136.00,30.00,-976.00
2024-06-07 10:29:17.953433,-8,0,-8,0,0,1,79,81,181,130,62,133.10,183,-143.00,3.00,-1036.00
2024-06-07 10:29:18.139922,-8,0,-8,0,0,1,79,81,178,130,62,133.18,184,-138.00,-33.00,-913.00
2024-06-07 10:29:18.161004,-8,0,-8,0,0,1,80,81,179,130,62,133.17,184,-142.00,0.00,-937.00
2024-06-07 10:29:18.262690,-8,0,-8,0,0,2,80,81,176,130,62,133.15,184,-97.00,-20.00,-966.00
2024-06-07 10:29:18.365366,-8,0,-8,0,0,2,80,81,176,130,62,133.21,184,-112.00,-44.00,-914.00
2024-06-07 10:29:18.463237,-7,0,-8,0,0,2,80,81,170,130,62,133.13,184,-184.00,-4.00,-934.00
2024-06-07 10:29:18.648734,-7,0,-8,0,0,2,80,81,171,120,62,133.19,184,-107.00,-15.00,-1013.00
2024-06-07 10:29:18.667243,-7,1,-8,0,0,2,80,81,165,120,62,133.05,184,-123.00,-18.00,-997.00
2024-06-07 10:29:18.858377,-7,1,-8,0,0,2,80,81,161,120,62,133.06,184,-27.00,-63.00,-903.00
2024-06-07 10:29:18.871342,-7,0,-8,0,0,2,80,81,157,110,62,132.97,184,-109.00,-2.00,-1098.00
2024-06-07 10:29:18.922516,-7,0,-8,0,0,2,80,81,155,110,62,133.00,184,-230.00,34.00,-1035.00
2024-06-07 10:29:19.058840,-7,0,-8,0,0,2,80,81,153,110,62,133.03,185,-83.00,0.00,-1083.00
2024-06-07 10:29:19.177331,-8,0,-8,0,0,2,79,81,145,110,62,132.94,185,-112.00,-17.00,-978.00
2024-06-07 10:29:19.228220,-8,0,-8,0,0,2,79,81,143,100,62,132.89,185,-94.00,-28.00,-1075.00
2024-06-07 10:29:19.366062,-7,0,-8,0,0,2,79,81,143,100,62,132.67,185,-53.00,-37.00,-977.00
2024-06-07 10:29:19.432171,-7,0,-8,0,0,1,79,81,139,100,62,132.88,185,-150.00,-9.00,-1070.00
2024-06-07 10:29:19.537350,-8,0,-8,0,0,1,79,81,139,100,62,132.88,185,-162.00,-10.00,-1058.00
2024-06-07 10:29:19.636183,-8,0,-8,0,0,1,79,81,137,90,62,132.85,185,-52.00,-56.00,-1121.00
2024-06-07 10:29:19.738296,-8,0,-8,0,0,1,79,81,134,90,62,132.74,185,-123.00,-17.00,-979.00
2024-06-07 10:29:19.852931,-8,0,-8,0,0,1,79,81,134,90,62,132.60,185,-159.00,-10.00,-1057.00
2024-06-07 10:29:19.942184,-8,0,-8,0,0,0,79,81,132,90,62,132.51,185,-198.00,46.00,-917.00
2024-06-07 10:29:20.082788,-8,0,-8,0,0,1,79,81,132,90,62,132.59,186,-176.00,1.00,-1031.00
2024-06-07 10:29:20.146887,-8,1,-8,0,0,0,79,80,131,90,62,132.64,186,-191.00,4.00,-1087.00
2024-06-07 10:29:20.300721,-8,0,-8,0,0,0,79,80,132,90,62,132.77,186,-161.00,-26.00,-1062.00
2024-06-07 10:29:20.350661,-8,0,-8,0,0,0,79,80,131,90,62,132.74,186,-153.00,-14.00,-997.00
2024-06-07 10:29:20.496074,-8,1,-8,0,0,0,79,80,128,90,62,132.74,186,-58.00,-24.00,-954.00
2024-06-07 10:29:20.554364,-7,1,-8,0,0,0,79,80,128,90,62,132.74,186,-76.00,-33.00,-948.00
2024-06-07 10:29:20.697035,-6,1,-8,0,0,0,79,80,129,90,62,132.64,186,-93.00,-51.00,-1024.00
2024-06-07 10:29:20.758299,-6,1,-8,0,0,0,79,80,130,90,62,132.76,186,-135.00,-24.00,-1009.00
2024-06-07 10:29:20.906492,-6,1,-8,0,0,0,79,80,127,90,62,132.67,186,-154.00,0.00,-1020.00
2024-06-07 10:29:20.962234,-6,1,-8,0,0,0,79,80,127,90,62,132.70,186,-216.00,43.00,-1082.00
2024-06-07 10:29:21.106612,-7,1,-8,0,0,0,79,80,128,90,62,132.66,187,-144.00,-25.00,-1061.00
2024-06-07 10:29:21.166748,-7,1,-8,0,0,0,78,81,128,90,62,132.79,187,-83.00,-30.00,-1062.00
2024-06-07 10:29:21.311632,-7,1,-8,0,0,0,78,81,129,90,62,132.82,187,-98.00,-28.00,-1070.00
2024-06-07 10:29:21.370845,-6,1,-8,0,0,0,78,81,128,90,62,132.74,187,-138.00,2.00,-1021.00
2024-06-07 10:29:21.472568,-6,1,-8,0,0,0,78,81,129,90,62,132.74,187,-231.00,13.00,-1072.00
2024-06-07 10:29:21.618726,-6,1,-8,0,0,0,78,81,129,90,62,132.74,187,-114.00,-23.00,-954.00
2024-06-07 10:29:21.677259,-7,1,-8,0,0,0,78,81,133,90,62,132.73,187,-56.00,-30.00,-954.00
2024-06-07 10:29:21.778405,-7,1,-8,0,0,0,78,81,132,90,62,132.79,187,-101.00,-6.00,-1026.00
2024-06-07 10:29:21.880304,-7,1,-8,0,0,0,78,81,133,90,62,132.81,187,-105.00,-33.00,-1074.00
2024-06-07 10:29:21.982108,-8,0,-8,0,0,0,78,81,132,90,62,132.76,187,-216.00,-8.00,-965.00
2024-06-07 10:29:22.130412,-7,1,-8,0,0,0,78,81,134,90,62,132.83,188,-156.00,-4.00,-1037.00
2024-06-07 10:29:22.186180,-8,1,-8,0,0,0,79,81,134,90,62,132.67,188,-90.00,-43.00,-910.00
2024-06-07 10:29:22.335338,-9,0,-8,0,0,0,79,81,136,90,62,132.71,188,-120.00,26.00,-1018.00
2024-06-07 10:29:22.391094,-9,0,-8,0,0,0,79,81,138,90,62,132.69,188,-103.00,-3.00,-925.00
2024-06-07 10:29:22.541256,-8,0,-8,1,0,0,79,81,137,90,62,132.75,188,-112.00,-15.00,-919.00
2024-06-07 10:29:22.593961,-8,0,-8,1,0,0,79,81,140,90,62,132.60,188,-85.00,-12.00,-1013.00
2024-06-07 10:29:22.749763,-8,0,-8,1,0,0,79,81,137,90,62,132.62,188,-140.00,10.00,-1008.00
2024-06-07 10:29:22.749820,-8,0,-8,1,0,0,79,81,140,90,62,132.75,188,-154.00,-6.00,-1015.00
2024-06-07 10:29:22.851459,-8,0,-8,1,0,0,79,81,139,90,62,132.69,188,-173.00,19.00,-960.00
2024-06-07 10:29:22.951144,-8,0,-8,2,0,0,79,81,139,90,62,132.74,188,-83.00,-23.00,-1018.00
2024-06-07 10:29:23.154275,-8,0,-8,2,0,0,79,81,138,90,62,132.58,189,-123.00,-6.00,-1007.00
2024-06-07 10:29:23.206191,-8,0,-8,2,0,0,79,81,137,90,62,132.63,189,-208.00,1.00,-1008.00
2024-06-07 10:29:23.257223,-8,0,-8,2,0,0,79,81,137,90,62,132.57,189,-186.00,-13.00,-907.00
2024-06-07 10:29:23.359431,-8,0,-8,2,0,0,79,81,134,90,62,132.52,189,-221.00,59.00,-905.00
2024-06-07 10:29:23.461117,-8,0,-8,2,0,0,79,81,135,90,62,132.43,189,-121.00,-3.00,-1045.00
2024-06-07 10:29:23.564562,-8,0,-8,2,0,0,79,81,134,90,62,132.47,189,-166.00,32.00,-1087.00
2024-06-07 10:29:23.672278,-8,0,-8,2,0,0,79,81,133,90,62,132.48,189,-209.00,14.00,-944.00
2024-06-07 10:29:23.766887,-9,0,-8,2,0,0,79,81,131,90,62,132.65,189,-134.00,-47.00,-1069.00
2024-06-07 10:29:23.875786,-9,0,-8,2,0,0,79,81,132,90,62,132.65,189,-128.00,-42.00,-977.00
2024-06-07 10:29:23.971790,-8,0,-8,2,0,0,79,81,131,90,62,132.70,190,-28.00,-73.00,-965.00
2024-06-07 10:29:24.073007,-8,0,-8,2,0,0,79,81,131,90,62,132.56,190,-145.00,19.00,-1051.00
2024-06-07 10:29:24.185129,-9,0,-8,2,0,0,79,81,130,90,62,132.68,190,-90.00,-45.00,-944.00
2024-06-07 10:29:24.276876,-8,0,-8,2,0,0,79,81,130,90,62,132.67,190,-192.00,26.00,-1065.00
2024-06-07 10:29:24.383532,-8,0,-8,2,0,0,79,81,129,90,62,132.61,190,-156.00,18.00,-988.00
2024-06-07 10:29:24.482388,-8,0,-8,2,0,0,79,81,129,90,62,132.59,190,-178.00,37.00,-1122.00
2024-06-07 10:29:24.582997,-7,0,-8,2,0,0,79,81,130,90,62,132.60,190,-88.00,-44.00,-1052.00
2024-06-07 10:29:24.690644,-7,1,-8,2,0,0,79,81,129,90,62,132.54,190,-219.00,-7.00,-952.00
2024-06-07 10:29:24.786964,-8,1,-8,1,0,0,79,81,128,90,62,132.53,190,-163.00,10.00,-1032.00
2024-06-07 10:29:24.889013,-8,1,-8,1,0,0,79,81,129,90,62,132.38,190,-94.00,-26.00,-1021.00
2024-06-07 10:29:24.997638,-8,0,-8,2,0,0,79,81,127,90,62,132.67,191,-90.00,-59.00,-959.00
2024-06-07 10:29:25.092891,-8,0,-8,1,0,0,79,81,130,90,62,132.61,191,-153.00,-19.00,-936.00
2024-06-07 10:29:25.194831,-8,0,-8,1,0,0,79,81,128,90,62,132.59,191,-148.00,-11.00,-927.00
2024-06-07 10:29:25.304900,-8,0,-8,1,0,0,79,81,128,90,62,132.64,191,-186.00,1.00,-1073.00
2024-06-07 10:29:25.398793,-9,0,-8,1,0,0,79,81,128,80,62,132.49,191,-168.00,-12.00,-928.00
2024-06-07 10:29:25.509606,-9,0,-8,1,0,0,79,81,129,80,62,132.50,191,-177.00,46.00,-1015.00
2024-06-07 10:29:25.602818,-8,0,-8,1,0,0,79,81,128,80,62,132.60,191,-133.00,-9.00,-1002.00
2024-06-07 10:29:25.715066,-9,0,-8,1,0,0,79,81,128,80,62,132.60,191,-56.00,-17.00,-1076.00
2024-06-07 10:29:25.806889,-9,0,-8,1,0,0,79,81,128,80,62,132.61,191,-173.00,13.00,-976.00
2024-06-07 10:29:25.910322,-8,-1,-8,1,0,0,79,81,129,80,62,132.44,191,-150.00,17.00,-1012.00
2024-06-07 10:29:26.021781,-8,-1,-8,1,0,0,79,81,128,80,62,132.43,192,-141.00,1.00,-1072.00
2024-06-07 10:29:26.113893,-8,0,-8,1,0,0,79,81,129,90,62,132.46,192,-140.00,6.00,-1070.00
2024-06-07 10:29:26.215884,-8,0,-8,1,0,0,78,81,130,90,62,132.47,192,-101.00,9.00,-1002.00
2024-06-07 10:29:26.317857,-8,0,-8,2,0,0,78,81,131,90,62,132.51,192,-78.00,-25.00,-947.00
2024-06-07 10:29:26.435829,-8,0,-8,2,0,0,78,81,131,90,62,132.57,192,-201.00,33.00,-921.00
2024-06-07 10:29:26.521749,-8,0,-8,1,0,0,78,81,132,90,62,132.58,192,-189.00,14.00,-994.00
2024-06-07 10:29:26.637198,-8,0,-8,1,0,0,78,81,133,90,62,132.40,192,-151.00,14.00,-1036.00
2024-06-07 10:29:26.674770,-8,0,-8,1,0,0,78,81,131,90,62,132.37,192,-130.00,-13.00,-994.00
2024-06-07 10:29:26.841820,-8,0,-8,1,0,0,78,81,131,90,62,132.55,192,-210.00,50.00,-970.00
2024-06-07 10:29:26.880384,-8,1,-8,1,0,0,78,81,133,90,62,132.53,192,-178.00,8.00,-953.00
2024-06-07 10:29:26.980848,-8,2,-8,1,0,0,78,81,131,90,62,132.42,193,-189.00,54.00,-1006.00
2024-06-07 10:29:27.148082,-8,1,-8,2,0,0,78,81,130,90,62,132.43,193,-85.00,-18.00,-1018.00
2024-06-07 10:29:27.188674,-8,0,-8,1,0,0,79,81,131,90,62,132.44,193,-126.00,13.00,-999.00
2024-06-07 10:29:27.286704,-8,0,-8,1,0,0,79,81,131,90,62,132.64,193,-159.00,24.00,-921.00
2024-06-07 10:29:27.455334,-7,0,-8,1,0,0,79,81,130,90,62,132.58,193,-83.00,-36.00,-1034.00
2024-06-07 10:29:27.490813,-7,1,-8,2,0,0,79,81,130,90,62,132.47,193,-99.00,-67.00,-1080.00
2024-06-07 10:29:27.659979,-7,1,-8,2,0,0,79,81,129,90,62,132.57,193,-198.00,25.00,-1051.00
2024-06-07 10:29:27.694936,-5,1,-8,1,0,0,79,81,129,90,62,132.58,193,-162.00,0.00,-945.00
2024-06-07 10:29:27.872805,-2,0,-8,1,0,0,79,81,128,90,62,132.59,193,-100.00,-24.00,-916.00
2024-06-07 10:29:27.899517,-5,0,-8,0,0,0,79,81,128,90,62,132.63,193,-152.00,11.00,-950.00
2024-06-07 10:29:28.074427,-7,0,-8,0,0,0,79,81,128,90,62,132.61,194,-204.00,19.00,-1090.00
2024-06-07 10:29:28.102842,-7,0,-8,0,0,0,79,81,128,90,62,132.65,194,-142.00,-5.00,-880.00
2024-06-07 10:29:28.212185,-7,0,-8,0,0,0,78,80,128,90,62,132.54,194,-182.00,39.00,-984.00
2024-06-07 10:29:28.307047,-7,0,-8,0,0,0,78,80,128,90,62,132.44,194,-98.00,-52.00,-954.00
2024-06-07 10:29:28.479399,-7,1,-8,0,0,0,78,80,126,90,62,132.69,194,-105.00,-35.00,-1075.00
2024-06-07 10:29:28.514462,-7,1,-8,0,0,0,78,80,128,90,62,132.66,194,-48.00,-54.00,-1021.00
2024-06-07 10:29:28.613683,-7,1,-8,0,0,0,78,80,126,90,62,132.58,194,-168.00,9.00,-1020.00
2024-06-07 10:29:28.791827,-7,1,-8,0,0,0,78,80,126,90,62,132.60,194,-94.00,-6.00,-1017.00
2024-06-07 10:29:28.816888,-7,1,-8,0,0,0,78,80,124,90,62,132.54,194,-128.00,15.00,-1051.00
2024-06-07 10:29:28.918928,-7,1,-8,0,0,0,78,80,124,80,62,132.53,194,-125.00,-18.00,-1029.00
2024-06-07 10:29:29.096864,-7,1,-8,0,0,0,78,80,124,80,62,132.59,195,-142.00,20.00,-976.00
2024-06-07 10:29:29.122932,-7,0,-8,0,0,0,78,80,123,80,62,132.58,195,-124.00,-16.00,-1072.00
2024-06-07 10:29:29.224977,-7,0,-8,0,0,0,79,81,122,80,62,132.65,195,-87.00,-39.00,-1066.00
2024-06-07 10:29:29.401314,-7,1,-8,0,0,0,79,81,123,80,62,132.60,195,-179.00,37.00,-1032.00
2024-06-07 10:29:29.428868,-7,1,-8,0,0,0,79,81,122,80,62,132.58,195,-136.00,-21.00,-984.00
2024-06-07 10:29:29.605753,-7,1,-8,0,0,0,79,81,122,80,62,132.65,195,-155.00,38.00,-875.00
2024-06-07 10:29:29.632846,-7,1,-8,0,0,0,79,81,122,80,62,132.62,195,-159.00,-1.00,-1027.00
2024-06-07 10:29:29.810391,-6,1,-8,0,0,0,79,81,123,80,62,132.38,195,-54.00,-6.00,-1037.00
2024-06-07 10:29:29.836859,-6,0,-8,0,0,0,79,81,123,80,62,132.46,195,-170.00,-3.00,-1006.00
2024-06-07 10:29:29.938651,-8,0,-8,0,0,0,79,81,123,80,62,132.51,195,-80.00,-53.00,-1052.00
2024-06-07 10:29:30.117603,-8,0,-8,0,0,0,79,81,124,80,62,132.53,196,-192.00,63.00,-981.00
2024-06-07 10:29:30.142893,-3,0,-8,0,0,0,79,81,122,80,62,132.33,196,-182.00,18.00,-970.00
2024-06-07 10:29:30.244665,1,0,-8,-1,0,0,79,81,123,80,62,132.68,196,-95.00,-28.00,-998.00
2024-06-07 10:29:30.424778,2,0,-8,-3,0,0,79,81,124,80,62,132.76,196,-149.00,57.00,-899.00
2024-06-07 10:29:30.448566,0,0,-8,-4,1,0,79,81,124,80,62,132.70,196,-118.00,50.00,-913.00
2024-06-07 10:29:30.551374,0,-2,-8,-5,1,0,79,81,126,80,62,132.77,196,-36.00,-46.00,-1114.00
2024-06-07 10:29:30.602330,-1,-2,-8,-6,1,0,79,81,129,80,62,132.71,196,-117.00,41.00,-983.00
2024-06-07 10:29:30.703612,-1,-2,-8,-6,1,0,79,81,127,80,62,132.78,196,-90.00,12.00,-990.00
2024-06-07 10:29:30.834372,-1,-2,-8,-7,1,0,79,81,128,80,62,132.72,196,34.00,-35.00,-947.00
2024-06-07 10:29:30.907721,-4,0,-7,-7,0,0,79,81,130,80,62,132.85,196,-46.00,39.00,-973.00
2024-06-07 10:29:31.040348,-7,0,-8,-7,1,0,79,81,131,90,62,132.82,197,-113.00,48.00,-913.00
2024-06-07 10:29:31.111609,-7,-1,-8,-6,1,0,79,81,132,90,62,132.76,197,-82.00,47.00,-1131.00
2024-06-07 10:29:31.213542,-8,-1,-8,-5,1,0,79,81,134,90,62,132.83,197,-19.00,3.00,-966.00
2024-06-07 10:29:31.317150,-7,-1,-8,-5,0,0,79,81,134,90,62,132.75,197,-12.00,-46.00,-1063.00
2024-06-07 10:29:31.417525,-8,-1,-8,-4,0,0,79,81,134,90,62,132.84,197,-107.00,66.00,-953.00
2024-06-07 10:29:31.551294,-8,0,-8,-4,0,0,79,81,137,90,62,132.73,197,-59.00,4.00,-1017.00
2024-06-07 10:29:31.621881,-8,0,-8,-3,0,0,79,81,139,90,62,132.64,197,-72.00,-22.00,-999.00
2024-06-07 10:29:31.760851,-8,0,-8,-3,0,0,79,81,139,90,62,132.73,197,-128.00,67.00,-880.00
2024-06-07 10:29:31.826106,-7,-1,-8,-3,0,0,79,81,139,90,62,132.79,197,-118.00,66.00,-1001.00
2024-06-07 10:29:31.927561,-7,-1,-8,-3,0,0,79,81,140,90,62,132.80,197,-89.00,14.00,-959.00
2024-06-07 10:29:32.064575,-8,0,-8,-2,0,0,79,81,139,90,62,132.80,198,-121.00,11.00,-993.00
2024-06-07 10:29:32.131504,-8,0,-8,-2,0,0,79,81,141,90,62,132.75,198,-124.00,21.00,-969.00
2024-06-07 10:29:32.233506,-8,0,-8,-2,0,0,78,80,139,90,62,132.83,198,-92.00,-6.00,-927.00
2024-06-07 10:29:32.335938,-8,0,-8,-1,0,0,78,80,140,90,62,132.83,198,-83.00,17.00,-942.00
2024-06-07 10:29:32.472935,-8,0,-8,-1,0,0,78,80,138,90,62,132.85,198,-94.00,5.00,-1079.00
2024-06-07 10:29:32.540529,-8,0,-8,0,0,0,78,80,136,90,62,132.82,198,-61.00,-13.00,-1060.00
2024-06-07 10:29:32.682832,-8,-1,-8,0,0,0,78,80,138,90,62,132.80,198,-105.00,8.00,-1005.00
2024-06-07 10:29:32.743675,-7,-1,-8,0,0,0,78,80,136,90,62,132.76,198,-112.00,-7.00,-974.00
2024-06-07 10:29:32.883006,-7,-1,-8,0,0,0,78,80,136,90,62,132.65,198,-78.00,-25.00,-1085.00
2024-06-07 10:29:32.947704,-7,0,-8,0,0,0,78,80,138,90,62,132.76,198,-137.00,55.00,-977.00
2024-06-07 10:29:33.087690,-8,-1,-8,0,0,0,78,80,136,90,62,132.75,199,-168.00,46.00,-981.00
2024-06-07 10:29:33.151671,-8,-2,-8,0,0,0,78,80,138,90,62,132.80,199,-158.00,48.00,-980.00
2024-06-07 10:29:33.253596,-8,-2,-8,0,0,0,79,81,138,90,62,132.71,199,-185.00,13.00,-988.00
2024-06-07 10:29:33.394357,-8,-2,-8,0,0,0,79,81,137,90,62,132.78,199,-171.00,40.00,-1063.00
2024-06-07 10:29:33.457750,-8,-2,-8,0,0,0,79,81,136,90,62,132.83,199,-198.00,64.00,-1026.00
2024-06-07 10:29:33.603430,-8,-1,-8,0,0,0,79,81,136,90,62,132.64,199,-145.00,-2.00,-1017.00
2024-06-07 10:29:33.661493,-8,-1,-8,0,0,0,79,81,136,90,62,132.71,199,-161.00,11.00,-1067.00
2024-06-07 10:29:33.804042,-8,-1,-8,0,0,0,79,81,133,90,62,132.71,199,-170.00,21.00,-992.00
2024-06-07 10:29:33.865571,-8,-1,-8,0,0,0,79,81,135,90,62,132.58,199,-139.00,9.00,-936.00
2024-06-07 10:29:34.016638,-7,-1,-8,0,0,0,79,81,134,90,62,132.69,199,-180.00,7.00,-1009.00
2024-06-07 10:29:34.071919,-7,0,-8,0,0,0,79,81,134,90,62,132.76,200,-108.00,34.00,-1012.00
2024-06-07 10:29:34.172342,-7,0,-8,0,0,0,79,81,132,90,62,132.68,200,-221.00,43.00,-1023.00
2024-06-07 10:29:34.288647,-7,-1,-8,0,0,0,79,81,134,90,62,132.67,200,-210.00,45.00,-956.00
2024-06-07 10:29:34.375448,-8,-2,-8,0,0,0,79,81,133,90,62,132.56,200,-172.00,25.00,-1051.00
2024-06-07 10:29:34.426496,-8,-1,-8,0,0,0,79,81,134,90,62,132.46,200,-202.00,22.00,-920.00
2024-06-07 10:29:34.628419,-7,-4,-7,0,0,0,79,81,134,90,62,132.67,200,-168.00,6.00,-1019.00
2024-06-07 10:29:34.630385,-6,-6,-7,0,-1,0,79,81,135,90,62,132.64,200,-191.00,54.00,-1098.00
2024-06-07 10:29:34.827895,-6,-5,-7,0,-1,0,79,81,137,90,62,132.71,200,-174.00,37.00,-1046.00
2024-06-07 10:29:34.834380,-7,-5,-7,-1,-2,0,79,81,134,90,62,132.70,200,-169.00,34.00,-995.00
2024-06-07 10:29:34.936852,-8,-2,-8,-1,-2,0,79,81,136,90,62,132.71,200,-129.00,-3.00,-1045.00
2024-06-07 10:29:35.039106,-9,-1,-8,-1,-2,0,79,81,135,90,62,132.67,201,-172.00,39.00,-932.00
2024-06-07 10:29:35.140468,-9,-1,-8,-1,-2,0,79,81,138,90,62,132.65,201,-119.00,37.00,-1017.00
2024-06-07 10:29:35.242365,-8,-1,-8,0,-2,0,79,80,137,90,62,132.66,201,-154.00,-1.00,-947.00
2024-06-07 10:29:35.344382,-8,-2,-8,-1,-1,0,79,80,136,90,62,132.65,201,-132.00,20.00,-894.00
2024-06-07 10:29:35.446351,-8,-2,-8,-1,-2,0,79,80,135,90,62,132.67,201,-182.00,41.00,-1051.00
2024-06-07 10:29:35.647057,-8,-1,-8,0,-2,0,79,80,135,90,62,132.66,201,-148.00,1.00,-965.00
2024-06-07 10:29:35.650380,-8,0,-8,0,-2,0,79,80,134,90,62,132.53,201,-158.00,18.00,-977.00
2024-06-07 10:29:35.752386,-8,0,-8,0,-2,0,79,80,133,90,62,132.62,201,-95.00,-13.00,-1037.00
2024-06-07 10:29:35.855287,-8,-1,-8,0,-2,0,79,80,131,90,62,132.42,201,-137.00,-22.00,-989.00
2024-06-07 10:29:35.956365,-8,0,-8,0,-2,0,79,80,133,90,62,132.71,201,-174.00,51.00,-967.00
2024-06-07 10:29:36.060953,-9,0,-8,0,-2,0,79,80,133,90,62,132.61,202,-144.00,11.00,-941.00
2024-06-07 10:29:36.162361,-9,0,-8,0,-1,0,79,80,131,90,62,132.71,202,-165.00,56.00,-977.00
2024-06-07 10:29:36.262653,-8,0,-8,0,-1,0,79,81,132,90,62,132.68,202,-164.00,13.00,-1042.00
2024-06-07 10:29:36.364301,-8,0,-8,0,-1,0,79,81,131,90,62,132.54,202,-122.00,16.00,-1038.00
2024-06-07 10:29:36.467556,-8,0,-8,0,-1,0,79,81,132,90,62,132.49,202,-178.00,5.00,-981.00
2024-06-07 10:29:36.569157,-9,0,-8,0,-1,0,79,81,132,90,62,132.53,202,-141.00,13.00,-1036.00
2024-06-07 10:29:36.670638,-8,0,-8,0,-1,0,79,81,131,90,62,132.53,202,-86.00,-4.00,-961.00
2024-06-07 10:29:36.774626,-8,0,-8,0,-1,0,79,81,131,90,62,132.35,202,-134.00,34.00,-963.00
2024-06-07 10:29:36.877693,-8,0,-8,0,-1,0,79,81,129,90,62,132.50,202,-171.00,16.00,-957.00
2024-06-07 10:29:36.980164,-8,0,-8,0,-1,0,79,81,129,90,62,132.49,202,-116.00,13.00,-987.00
2024-06-07 10:29:37.083785,-9,0,-8,0,0,0,79,81,130,90,62,132.57,203,-153.00,4.00,-934.00
2024-06-07 10:29:37.186099,-9,0,-8,0,0,0,79,81,129,90,62,132.38,203,-140.00,19.00,-978.00
2024-06-07 10:29:37.282283,-8,0,-8,0,0,0,78,81,128,90,62,132.53,203,-144.00,-23.00,-1042.00
2024-06-07 10:29:37.388102,-8,0,-8,0,0,0,78,81,130,90,62,132.51,203,-159.00,-54.00,-1000.00
2024-06-07 10:29:37.486250,-8,0,-8,0,0,0,78,81,129,90,62,132.51,203,-170.00,-20.00,-984.00
2024-06-07 10:29:37.596683,-8,1,-8,0,0,0,78,81,128,80,62,132.52,203,-115.00,-12.00,-983.00
2024-06-07 10:29:37.690251,-8,1,-8,0,0,0,78,81,128,80,62,132.66,203,-164.00,3.00,-1069.00
2024-06-07 10:29:37.792361,-9,1,-8,0,0,0,78,81,127,80,62,132.68,203,-92.00,-48.00,-966.00
2024-06-07 10:29:37.894252,-9,0,-8,0,0,0,78,81,129,80,62,132.68,203,-75.00,-67.00,-1084.00
2024-06-07 10:29:37.945249,-9,0,-8,1,0,0,78,81,128,80,62,132.68,203,-164.00,-11.00,-1105.00
2024-06-07 10:29:38.109524,-8,1,-8,1,0,0,78,81,128,80,62,132.69,204,-66.00,40.00,-985.00
2024-06-07 10:29:38.149651,-9,1,-8,1,0,0,78,81,130,80,62,132.64,204,-86.00,-5.00,-935.00
2024-06-07 10:29:38.314456,-7,-1,-8,2,0,0,79,81,130,90,62,132.63,204,-137.00,36.00,-1008.00
2024-06-07 10:29:38.404287,-4,-2,-8,2,0,0,79,81,130,90,62,132.64,204,-62.00,-19.00,-1026.00
2024-06-07 10:29:38.518096,-2,-2,-8,1,0,0,79,81,128,90,62,132.76,204,-102.00,31.00,-1061.00
2024-06-07 10:29:38.557733,-3,-1,-8,0,0,0,79,81,128,90,61,132.66,204,-86.00,-5.00,-975.00
2024-06-07 10:29:38.720457,-4,-1,-8,0,0,0,79,81,128,90,61,132.57,204,-96.00,-16.00,-979.00
2024-06-07 10:29:38.761275,-6,0,-8,0,0,0,79,81,129,90,61,132.74,204,-74.00,-17.00,-1002.00
2024-06-07 10:29:38.924708,-6,0,-8,0,0,0,79,81,132,90,61,132.75,204,-150.00,48.00,-950.00
2024-06-07 10:29:38.965604,-6,0,-8,0,0,0,79,81,132,90,61,132.65,205,-114.00,22.00,-1050.00
2024-06-07 10:29:39.129681,-5,-1,-8,0,0,0,79,81,138,90,61,132.49,205,-126.00,4.00,-931.00
2024-06-07 10:29:39.169904,-5,-2,-8,0,0,0,79,81,137,90,61,132.49,205,-85.00,-30.00,-1002.00
2024-06-07 10:29:39.274105,-6,-1,-8,0,0,0,79,80,138,90,61,132.53,205,-106.00,-6.00,-894.00
2024-06-07 10:29:39.374371,-6,-1,-8,0,0,0,79,80,139,90,61,132.57,205,-41.00,-16.00,-978.00
2024-06-07 10:29:39.475513,-6,-1,-8,0,0,0,79,80,139,90,61,132.71,205,-139.00,-15.00,-985.00
2024-06-07 10:29:39.640742,-7,0,-8,0,0,0,79,80,141,100,61,132.65,205,-173.00,57.00,-962.00
2024-06-07 10:29:39.680307,-7,-1,-8,0,0,0,79,80,141,100,61,132.48,205,-108.00,3.00,-953.00
2024-06-07 10:29:39.856802,-7,0,-8,0,0,0,79,80,139,100,61,132.62,205,-142.00,30.00,-967.00
2024-06-07 10:29:39.883281,-7,0,-8,0,0,0,79,80,139,90,61,132.59,205,-164.00,55.00,-904.00
2024-06-07 10:29:40.050693,-7,0,-8,0,0,0,79,80,138,90,61,132.63,206,-155.00,37.00,-1016.00
2024-06-07 10:29:40.087157,-7,-1,-8,0,0,0,79,80,137,90,61,132.71,206,-159.00,85.00,-972.00
2024-06-07 10:29:40.255751,-7,-3,-8,0,0,1,79,80,134,90,61,132.56,206,-103.00,18.00,-912.00
2024-06-07 10:29:40.291290,-6,-2,-8,0,0,1,78,81,133,90,61,132.51,206,-86.00,-31.00,-1031.00
2024-06-07 10:29:40.460701,-6,-1,-8,0,0,0,78,81,131,90,61,132.51,206,-53.00,-31.00,-1105.00
2024-06-07 10:29:40.495223,-5,0,-8,0,-1,0,78,81,130,90,61,132.51,206,-110.00,-8.00,-1037.00
2024-06-07 10:29:40.597081,-5,1,-8,0,-1,0,78,81,131,90,61,132.51,206,-77.00,-9.00,-946.00
2024-06-07 10:29:40.767270,-5,2,-8,0,0,0,78,81,130,90,61,132.48,206,-71.00,-7.00,-1036.00
2024-06-07 10:29:40.802177,-4,7,-8,0,0,0,78,81,131,90,61,132.42,206,-152.00,43.00,-963.00
2024-06-07 10:29:40.904644,-5,7,-8,0,1,0,78,81,131,90,61,132.38,206,-78.00,-40.00,-1025.00
2024-06-07 10:29:41.009093,-6,6,-8,0,2,0,78,81,130,90,61,132.51,207,-134.00,-22.00,-969.00
2024-06-07 10:29:41.110098,-7,2,-8,0,3,0,78,81,132,90,61,132.39,207,-99.00,-16.00,-971.00
2024-06-07 10:29:41.209877,-7,0,-8,0,3,0,78,81,131,90,61,132.63,207,-123.00,-50.00,-1092.00
2024-06-07 10:29:41.381598,-6,0,-8,0,2,0,79,81,131,90,61,132.53,207,-104.00,-70.00,-975.00
2024-06-07 10:29:41.414658,-5,0,-8,0,2,0,79,81,131,90,61,132.49,207,-59.00,-47.00,-1023.00
2024-06-07 10:29:41.586498,-5,1,-8,0,2,0,79,81,133,90,61,132.58,207,-89.00,-14.00,-996.00
2024-06-07 10:29:41.618024,-6,1,-8,0,2,0,79,81,133,90,61,132.43,207,-149.00,15.00,-1078.00
2024-06-07 10:29:41.791821,-7,0,-8,0,3,0,79,81,133,90,61,132.50,207,-173.00,32.00,-855.00
2024-06-07 10:29:41.822048,-9,0,-8,0,3,0,79,81,132,90,61,132.60,207,-26.00,-69.00,-920.00
2024-06-07 10:29:41.996260,-9,-1,-8,0,3,0,79,81,133,90,61,132.41,207,-144.00,-2.00,-993.00
2024-06-07 10:29:41.996800,-9,-1,-8,0,2,0,79,81,134,90,61,132.48,208,-123.00,5.00,-1022.00
2024-06-07 10:29:42.077038,-8,0,-8,0,2,0,79,81,132,90,61,132.49,208,-120.00,-33.00,-1025.00
2024-06-07 10:29:42.202396,-8,0,-8,0,2,0,79,81,130,90,61,132.60,208,-78.00,-25.00,-1015.00
2024-06-07 10:29:42.281006,-8,0,-8,0,1,0,79,81,132,90,61,132.42,208,-106.00,-28.00,-1055.00
2024-06-07 10:29:42.405277,-8,0,-8,0,1,0,79,81,135,90,61,132.41,208,-62.00,-44.00,-1054.00
2024-06-07 10:29:42.485078,-8,-1,-8,0,1,0,79,81,133,90,61,132.34,208,-181.00,6.00,-1033.00
2024-06-07 10:29:42.611211,-8,-1,-8,0,1,0,79,81,134,90,61,132.60,208,-216.00,-14.00,-962.00
2024-06-07 10:29:42.689381,-8,-1,-8,0,1,0,79,81,131,90,61,132.52,208,-107.00,-32.00,-1085.00
2024-06-07 10:29:42.815282,-9,0,-8,0,0,0,79,81,133,90,61,132.58,208,-162.00,-25.00,-918.00
2024-06-07 10:29:42.893119,-9,0,-8,0,0,0,79,81,131,90,61,132.72,208,-188.00,-19.00,-901.00
2024-06-07 10:29:43.019800,-9,0,-8,0,0,0,79,81,130,90,61,132.55,209,-225.00,14.00,-1022.00
2024-06-07 10:29:43.096940,-9,0,-8,0,0,0,79,81,131,90,61,132.56,209,-138.00,-20.00,-980.00
2024-06-07 10:29:43.228190,-9,0,-8,0,0,0,79,81,129,90,61,132.68,209,-236.00,13.00,-1000.00
2024-06-07 10:29:43.300922,-9,0,-8,0,0,0,79,81,128,90,61,132.53,209,-130.00,10.00,-1011.00
2024-06-07 10:29:43.429401,-8,0,-8,0,0,0,79,81,126,80,61,132.38,209,-184.00,37.00,-1038.00
2024-06-07 10:29:43.504976,-8,-1,-8,0,0,0,79,81,127,80,61,132.34,209,-88.00,-5.00,-1027.00
2024-06-07 10:29:43.634556,-9,-2,-8,0,0,0,79,81,124,80,61,132.50,209,-146.00,26.00,-953.00
2024-06-07 10:29:43.709495,-8,-1,-8,1,0,0,79,81,126,80,61,132.53,209,-132.00,-10.00,-939.00
2024-06-07 10:29:43.839602,-8,-2,-8,1,0,0,79,81,126,80,61,132.26,209,-130.00,15.00,-985.00
2024-06-07 10:29:43.913551,-8,-1,-8,1,0,0,79,81,125,80,61,132.62,209,-171.00,44.00,-936.00
2024-06-07 10:29:44.043975,-7,0,-8,1,0,0,79,81,126,80,61,132.44,210,-57.00,-50.00,-1023.00
2024-06-07 10:29:44.117051,-6,0,-8,1,0,0,79,81,124,80,61,132.64,210,-114.00,68.00,-1077.00
2024-06-07 10:29:44.248565,-4,0,-8,2,0,0,79,81,124,80,61,132.77,210,-122.00,4.00,-1030.00
2024-06-07 10:29:44.321158,-1,0,-8,1,0,0,80,81,124,80,61,132.50,210,-111.00,15.00,-981.00
2024-06-07 10:29:44.423143,-4,-1,-8,0,0,0,80,81,124,80,61,132.62,210,-135.00,68.00,-951.00
2024-06-07 10:29:44.556604,-6,-2,-8,0,0,0,80,81,127,80,61,132.64,210,-112.00,0.00,-921.00
2024-06-07 10:29:44.626957,-7,-1,-8,0,0,0,80,81,127,80,61,132.55,210,-106.00,18.00,-1082.00
2024-06-07 10:29:44.760663,-7,-2,-8,0,0,0,80,81,125,80,61,132.55,210,-176.00,50.00,-1092.00
2024-06-07 10:29:44.830902,-6,0,-8,0,0,0,80,81,126,80,61,132.61,210,-57.00,-28.00,-999.00
2024-06-07 10:29:44.966108,-5,0,-8,0,0,0,80,81,126,80,61,132.62,210,-154.00,47.00,-1140.00
2024-06-07 10:29:45.034984,-5,0,-8,0,0,0,80,81,126,90,61,132.71,211,-54.00,13.00,-1047.00
2024-06-07 10:29:45.171504,-4,0,-8,0,0,0,80,81,126,90,61,132.83,211,-26.00,5.00,-988.00
2024-06-07 10:29:45.239501,-4,0,-7,0,0,0,80,81,126,90,61,132.56,211,-82.00,55.00,-1011.00
2024-06-07 10:29:45.375255,-4,-1,-8,0,0,0,79,81,126,90,61,132.56,211,-144.00,79.00,-1007.00
2024-06-07 10:29:45.443908,-4,-2,-8,0,0,0,79,81,129,90,61,132.62,211,-94.00,5.00,-985.00
2024-06-07 10:29:45.580895,-4,-1,-8,0,0,0,79,81,127,90,60,132.66,211,-68.00,-23.00,-1002.00
2024-06-07 10:29:45.650077,-4,0,-8,0,0,0,79,81,127,90,60,132.74,211,-91.00,20.00,-1061.00
2024-06-07 10:29:45.751831,-4,0,-8,0,0,0,79,81,127,90,60,132.80,211,8.00,-3.00,-986.00
2024-06-07 10:29:45.850824,-3,-1,-6,0,0,0,79,81,124,90,60,132.83,211,-39.00,68.00,-1004.00
2024-06-07 10:29:45.901741,-2,-2,-1,0,0,0,79,81,123,90,60,132.77,211,-88.00,43.00,-1048.00
2024-06-07 10:29:46.091807,-2,-3,3,0,0,0,79,81,124,90,60,132.81,212,-57.00,22.00,-999.00
2024-06-07 10:29:46.105783,-3,-3,8,0,0,0,79,81,124,80,60,132.82,212,-122.00,72.00,-1098.00
2024-06-07 10:29:46.297272,-3,-2,14,0,0,0,79,81,125,80,60,132.96,212,-74.00,78.00,-1015.00
2024-06-07 10:29:46.309829,-4,-2,20,0,0,0,79,80,127,90,60,132.94,212,-37.00,67.00,-895.00
2024-06-07 10:29:46.505745,-3,-2,26,0,0,0,79,80,125,90,60,133.09,212,23.00,63.00,-1048.00
2024-06-07 10:29:46.514123,-2,-3,32,0,0,0,79,80,127,90,60,133.18,212,-6.00,79.00,-1023.00
2024-06-07 10:29:46.707547,0,-4,38,0,0,0,79,80,125,90,60,133.18,212,-112.00,133.00,-883.00
2024-06-07 10:29:46.718207,0,-5,45,0,0,0,79,80,126,90,60,133.04,212,-74.00,147.00,-950.00
2024-06-07 10:29:46.910946,0,-5,51,0,0,0,79,80,126,90,60,133.12,212,-94.00,113.00,-1024.00
2024-06-07 10:29:46.922646,0,-5,57,0,0,0,79,80,126,80,60,133.14,212,0.00,48.00,-941.00
2024-06-07 10:29:47.024892,0,-5,63,0,0,0,79,80,126,80,60,133.04,213,38.00,82.00,-930.00
2024-06-07 10:29:47.127028,-1,-5,69,0,0,0,79,80,126,80,60,133.30,213,-80.00,148.00,-1019.00
2024-06-07 10:29:47.228441,0,-5,76,0,0,0,79,80,128,80,60,133.19,213,-32.00,127.00,-970.00
2024-06-07 10:29:47.330203,0,-6,82,-1,0,0,79,81,128,90,60,133.29,213,89.00,86.00,-958.00
2024-06-07 10:29:47.525429,0,-7,88,-1,0,0,79,81,128,90,60,133.24,213,-32.00,155.00,-986.00
2024-06-07 10:29:47.533674,2,-7,94,-1,0,0,79,81,129,90,60,133.17,213,90.00,91.00,-928.00
2024-06-07 10:29:47.730147,3,-7,100,0,0,0,79,81,129,90,60,133.18,213,48.00,135.00,-986.00
2024-06-07 10:29:47.738230,5,-5,106,0,0,0,79,81,131,90,60,133.09,213,131.00,61.00,-973.00
2024-06-07 10:29:47.940100,7,-4,113,0,1,0,79,81,131,90,60,133.13,213,59.00,100.00,-997.00
2024-06-07 10:29:47.941791,7,-2,119,0,0,0,79,81,133,90,60,133.10,213,106.00,115.00,-958.00
2024-06-07 10:29:48.043732,7,-2,126,0,0,0,79,81,133,90,60,133.05,214,113.00,107.00,-1046.00
2024-06-07 10:29:48.242173,7,-3,133,-1,0,0,79,81,134,90,60,133.06,214,146.00,99.00,-965.00
2024-06-07 10:29:48.247973,7,-4,140,-1,0,0,79,81,134,90,60,133.08,214,147.00,110.00,-1013.00
2024-06-07 10:29:48.447203,7,-4,146,-1,0,0,78,81,136,90,60,133.21,214,110.00,110.00,-1008.00
2024-06-07 10:29:48.451851,7,-3,152,-1,0,0,78,81,134,90,60,133.03,214,99.00,94.00,-975.00
2024-06-07 10:29:48.651832,8,-3,158,-1,0,0,78,81,136,90,60,133.11,214,102.00,73.00,-1015.00
2024-06-07 10:29:48.655620,8,-2,165,-1,0,0,78,81,136,90,60,132.84,214,122.00,37.00,-949.00
2024-06-07 10:29:48.757779,8,-1,171,-1,0,0,78,81,137,90,60,132.88,214,123.00,21.00,-975.00
2024-06-07 10:29:48.958959,9,0,177,-1,0,0,78,81,140,90,60,132.86,214,160.00,-19.00,-994.00
2024-06-07 10:29:48.962092,8,0,-176,-1,0,0,78,81,140,90,60,132.76,214,162.00,30.00,-1016.00
2024-06-07 10:29:49.063627,8,0,-170,-1,0,0,78,81,140,90,60,132.90,215,122.00,-10.00,-997.00
2024-06-07 10:29:49.165567,8,1,-165,-1,0,0,78,81,140,90,60,132.81,215,112.00,-29.00,-989.00
2024-06-07 10:29:49.268191,8,2,-159,-1,0,0,78,81,142,90,60,132.88,215,182.00,-107.00,-966.00
2024-06-07 10:29:49.371864,7,3,-153,-1,0,0,78,80,144,90,60,133.12,215,148.00,-109.00,-943.00
2024-06-07 10:29:49.471989,7,4,-148,-2,0,0,78,80,142,90,60,133.00,215,152.00,-153.00,-939.00
2024-06-07 10:29:49.573669,6,5,-142,-2,0,0,78,80,143,90,60,132.86,215,83.00,-130.00,-1037.00
2024-06-07 10:29:49.624618,5,6,-136,-2,1,0,78,80,143,90,60,132.94,215,85.00,-140.00,-950.00
2024-06-07 10:29:49.778112,4,7,-130,-2,1,0,78,80,143,90,60,133.02,215,158.00,-174.00,-943.00
2024-06-07 10:29:49.829395,3,7,-125,-3,1,0,78,80,143,90,60,133.03,215,122.00,-152.00,-933.00
2024-06-07 10:29:49.931609,3,8,-119,-3,1,0,78,80,143,90,60,133.15,215,9.00,-100.00,-949.00
2024-06-07 10:29:50.085310,2,8,-112,-3,1,1,78,80,143,90,60,133.24,216,98.00,-177.00,-956.00
2024-06-07 10:29:50.135546,1,8,-106,-3,1,1,78,80,139,90,60,133.37,216,49.00,-185.00,-943.00
2024-06-07 10:29:50.290331,0,8,-100,-4,1,1,78,80,140,90,60,133.36,216,-16.00,-173.00,-923.00
2024-06-07 10:29:50.339595,0,8,-94,-4,1,0,78,81,139,90,60,133.25,216,-11.00,-192.00,-1072.00
2024-06-07 10:29:50.498020,-1,8,-88,-4,1,0,78,81,137,90,60,133.24,216,-34.00,-186.00,-968.00
2024-06-07 10:29:50.543683,-2,8,-82,-5,1,0,78,81,136,90,60,133.16,216,-18.00,-186.00,-979.00
2024-06-07 10:29:50.703336,-3,8,-75,-5,1,0,78,81,135,90,60,133.08,216,-57.00,-138.00,-978.00
2024-06-07 10:29:50.751387,-4,7,-69,-5,1,0,78,81,135,90,60,133.07,216,-110.00,-132.00,-952.00
2024-06-07 10:29:50.849744,-5,7,-62,-5,1,0,78,81,135,90,60,133.12,216,-120.00,-111.00,-1096.00
2024-06-07 10:29:51.006807,-6,6,-56,-5,1,0,78,81,135,90,60,133.03,216,-148.00,-78.00,-972.00
2024-06-07 10:29:51.053659,-6,5,-50,-5,1,0,78,81,134,90,60,132.95,217,-175.00,-71.00,-1090.00
2024-06-07 10:29:51.213897,-7,5,-43,-6,1,0,78,81,137,90,60,132.93,217,-181.00,-36.00,-1033.00
2024-06-07 10:29:51.257814,-7,4,-37,-6,1,0,78,81,136,90,60,132.91,217,-141.00,-76.00,-919.00
2024-06-07 10:29:51.417634,-8,3,-31,-6,1,0,79,81,137,90,60,132.93,217,-112.00,-87.00,-1042.00
2024-06-07 10:29:51.461602,-8,2,-25,-6,1,0,79,81,136,90,60,132.86,217,-142.00,-68.00,-1007.00
2024-06-07 10:29:51.621377,-8,2,-21,-6,1,0,79,81,138,90,60,132.76,217,-122.00,-60.00,-913.00
2024-06-07 10:29:51.665462,-8,1,-18,-6,1,0,79,81,138,90,60,132.58,217,-143.00,-32.00,-929.00
2024-06-07 10:29:51.829957,-8,1,-15,-6,0,0,79,81,139,90,60,132.51,217,-101.00,-49.00,-937.00
2024-06-07 10:29:51.869510,-8,1,-14,-6,1,0,79,81,138,90,60,132.70,217,-256.00,44.00,-989.00
2024-06-07 10:29:52.030877,-9,0,-13,-6,1,0,79,81,137,90,60,132.67,217,-152.00,12.00,-937.00
2024-06-07 10:29:52.073476,-9,0,-12,-6,1,0,79,81,139,90,60,132.59,218,-156.00,-5.00,-975.00
2024-06-07 10:29:52.235776,-8,0,-11,-6,1,0,79,81,138,90,60,132.51,218,-186.00,34.00,-991.00
2024-06-07 10:29:52.277601,-8,0,-10,-6,1,0,79,81,138,90,60,132.45,218,-94.00,-34.00,-973.00
2024-06-07 10:29:52.440744,-8,0,-10,-6,1,0,79,82,139,90,60,132.71,218,-118.00,11.00,-924.00
2024-06-07 10:29:52.481940,-8,0,-10,-6,1,0,79,82,138,90,60,132.68,218,-156.00,-6.00,-893.00
2024-06-07 10:29:52.645535,-8,0,-10,-6,1,0,79,82,139,90,59,132.52,218,-175.00,37.00,-986.00
2024-06-07 10:29:52.686246,-8,0,-10,-6,1,0,79,82,139,90,59,132.55,218,-222.00,26.00,-1035.00
2024-06-07 10:29:52.850730,-9,0,-10,-7,1,0,79,82,140,90,59,132.65,218,-191.00,33.00,-969.00
2024-06-07 10:29:52.889681,-9,0,-10,-7,1,0,79,82,138,90,59,132.72,218,-193.00,1.00,-1003.00
2024-06-07 10:29:53.058277,-9,0,-10,-7,1,0,79,82,136,90,59,132.58,218,-172.00,14.00,-962.00
2024-06-07 10:29:53.093625,-8,0,-10,-7,1,0,79,82,135,90,59,132.73,219,-90.00,-4.00,-1060.00
2024-06-07 10:29:53.263058,-9,0,-10,-7,1,0,79,82,135,90,59,132.44,219,-87.00,-41.00,-956.00
2024-06-07 10:29:53.263436,-8,0,-10,-7,1,0,79,82,133,90,59,132.62,219,-134.00,8.00,-940.00
2024-06-07 10:29:53.465005,-8,0,-10,-6,1,0,80,81,134,90,59,132.47,219,-199.00,23.00,-1000.00
2024-06-07 10:29:53.501423,-8,0,-10,-6,1,0,80,81,134,90,59,132.61,219,-86.00,-3.00,-954.00
2024-06-07 10:29:53.603654,-9,0,-10,-6,1,0,80,81,132,90,59,132.71,219,-167.00,39.00,-978.00
2024-06-07 10:29:53.705712,-9,0,-10,-6,2,0,80,81,132,90,59,132.75,219,-156.00,-12.00,-984.00
2024-06-07 10:29:53.756494,-9,0,-10,-6,2,0,80,81,133,90,59,132.58,219,-160.00,30.00,-1078.00
2024-06-07 10:29:53.867954,-9,-1,-10,-6,2,0,80,81,132,90,59,132.63,219,-140.00,-21.00,-1059.00
2024-06-07 10:29:53.960547,-10,0,-10,-6,1,0,80,81,132,90,59,132.59,220,-141.00,-19.00,-930.00
2024-06-07 10:29:54.079568,-11,0,-10,-5,1,0,80,81,132,90,59,132.65,220,-82.00,13.00,-1039.00
2024-06-07 10:29:54.164690,-11,0,-10,-5,2,0,80,81,133,90,59,132.50,220,-220.00,20.00,-1061.00
2024-06-07 10:29:54.270044,-11,-1,-10,-4,1,0,80,81,134,90,59,132.52,220,-108.00,-49.00,-1064.00
2024-06-07 10:29:54.368936,-11,0,-12,-4,1,0,79,81,135,90,59,132.54,220,-127.00,-6.00,-1008.00
2024-06-07 10:29:54.488555,-12,0,-18,-3,1,0,79,81,136,90,59,132.65,220,-207.00,16.00,-955.00
2024-06-07 10:29:54.572385,-13,2,-23,-3,0,0,79,81,136,90,59,132.60,220,-80.00,-46.00,-928.00
2024-06-07 10:29:54.693285,-13,3,-29,-2,0,0,79,81,136,90,59,132.60,220,-208.00,-3.00,-901.00
2024-06-07 10:29:54.776456,-13,4,-35,-1,0,0,79,81,134,90,59,132.80,220,-102.00,-59.00,-1025.00
2024-06-07 10:29:54.897911,-12,5,-41,0,0,0,79,81,134,90,59,132.88,220,-117.00,-94.00,-974.00
2024-06-07 10:29:54.980337,-12,7,-47,0,0,0,79,81,134,90,59,132.81,221,-165.00,-84.00,-963.00
2024-06-07 10:29:55.102845,-12,9,-53,0,-1,0,79,81,133,90,59,132.72,221,-90.00,-145.00,-958.00
2024-06-07 10:29:55.184317,-11,10,-59,1,-1,0,79,81,133,90,59,132.78,221,-142.00,-148.00,-865.00
2024-06-07 10:29:55.286839,-10,12,-64,2,-1,0,79,81,132,90,59,132.82,221,-104.00,-132.00,-976.00
2024-06-07 10:29:55.388617,-10,13,-65,2,-2,0,79,82,131,80,59,132.89,221,-117.00,-175.00,-1016.00
2024-06-07 10:29:55.515260,-10,13,-65,3,-2,0,79,82,131,80,59,132.80,221,-117.00,-175.00,-1018.00
2024-06-07 10:29:55.592614,-10,14,-65,4,-2,0,79,82,131,80,59,132.86,221,-158.00,-176.00,-992.00
2024-06-07 10:29:55.694454,-11,15,-65,5,-2,0,79,82,132,80,59,132.74,221,-107.00,-185.00,-1049.00
2024-06-07 10:29:55.820850,-11,15,-66,6,-2,0,79,82,132,80,59,132.82,221,-83.00,-194.00,-1037.00
2024-06-07 10:29:55.898520,-11,16,-66,7,-2,0,79,82,132,80,59,132.83,221,-164.00,-182.00,-968.00
2024-06-07 10:29:56.024828,-11,16,-66,8,-2,0,79,82,133,80,59,132.71,222,-182.00,-128.00,-1081.00
2024-06-07 10:29:56.102472,-12,16,-66,10,-2,0,79,82,133,90,59,132.85,222,-150.00,-163.00,-934.00
2024-06-07 10:29:56.204492,-12,17,-66,11,-2,0,79,82,135,90,59,132.86,222,-183.00,-165.00,-930.00
2024-06-07 10:29:56.306422,-13,17,-66,12,-2,0,79,82,137,90,59,132.90,222,-141.00,-192.00,-870.00
2024-06-07 10:29:56.434893,-14,17,-66,13,-2,0,79,82,135,90,59,132.90,222,-192.00,-175.00,-930.00
2024-06-07 10:29:56.510509,-14,17,-66,14,-3,0,79,82,134,90,59,132.88,222,-128.00,-193.00,-958.00
2024-06-07 10:29:56.639040,-10,14,-65,16,-3,0,79,82,130,90,59,132.80,222,-141.00,-187.00,-1012.00
2024-06-07 10:29:56.714753,-7,10,-65,16,-3,0,79,82,126,90,59,132.73,222,-141.00,-215.00,-952.00
2024-06-07 10:29:56.845305,-5,7,-64,16,-3,0,79,82,124,90,59,132.58,222,-165.00,-166.00,-1048.00
2024-06-07 10:29:56.918849,-4,5,-64,15,-3,0,79,82,123,90,59,132.59,222,-118.00,-184.00,-909.00
2024-06-07 10:29:57.048718,-3,3,-64,14,-2,0,79,82,123,90,59,132.61,223,-103.00,-197.00,-891.00
2024-06-07 10:29:57.122398,-3,2,-64,13,-2,0,79,82,122,90,59,132.46,223,-110.00,-195.00,-1028.00
2024-06-07 10:29:57.257741,-3,2,-64,11,-2,0,79,82,122,90,59,132.61,223,-127.00,-158.00,-1121.00
2024-06-07 10:29:57.275699,-3,3,-64,10,-2,0,79,82,120,90,59,132.46,223,-104.00,-172.00,-956.00
2024-06-07 10:29:57.428291,-3,4,-64,9,-2,0,79,81,120,90,59,132.47,223,-122.00,-172.00,-1021.00
2024-06-07 10:29:57.530629,-3,4,-64,8,-1,0,79,81,120,90,59,132.55,223,-138.00,-140.00,-1000.00
2024-06-07 10:29:57.665344,-4,4,-64,7,-1,0,79,81,122,90,58,132.61,223,-103.00,-152.00,-899.00
2024-06-07 10:29:57.683319,-5,4,-64,7,-1,0,79,81,120,90,58,132.56,223,-130.00,-132.00,-971.00
2024-06-07 10:29:57.867824,-4,3,-64,6,-1,0,79,81,120,90,58,132.53,223,-134.00,-164.00,-910.00
2024-06-07 10:29:57.887307,-4,3,-64,5,-1,0,79,81,120,90,58,132.54,223,-142.00,-130.00,-946.00
2024-06-07 10:29:57.989605,-5,4,-64,5,-1,0,79,81,119,90,58,132.68,224,-113.00,-133.00,-990.00
2024-06-07 10:29:58.175020,-5,3,-64,4,-1,0,79,81,119,90,58,132.66,224,-154.00,-85.00,-1119.00
2024-06-07 10:29:58.193320,-4,5,-64,4,-1,0,79,81,118,90,58,132.59,224,-81.00,-167.00,-945.00
2024-06-07 10:29:58.295122,-3,5,-64,3,-1,0,79,81,118,80,58,132.62,224,-154.00,-156.00,-923.00
2024-06-07 10:29:58.486731,-2,6,-64,2,-1,0,80,82,116,80,58,132.65,224,-94.00,-146.00,-984.00
2024-06-07 10:29:58.499426,-2,6,-64,2,-1,0,80,82,116,80,58,132.69,224,-94.00,-156.00,-944.00
2024-06-07 10:29:58.688635,-2,6,-64,2,-1,0,80,82,115,80,58,132.57,224,-100.00,-160.00,-966.00
2024-06-07 10:29:58.703268,-3,6,-64,2,0,0,80,82,115,80,58,132.63,224,-121.00,-129.00,-991.00
2024-06-07 10:29:58.893770,-4,6,-64,1,0,0,80,82,116,80,58,132.74,224,-76.00,-140.00,-921.00
2024-06-07 10:29:58.907208,-3,7,-64,1,0,0,80,82,115,80,58,132.69,224,-74.00,-155.00,-957.00
2024-06-07 10:29:59.101470,-4,6,-64,1,0,0,80,82,118,80,58,132.66,225,-126.00,-120.00,-955.00
2024-06-07 10:29:59.111181,-4,6,-64,1,0,0,80,82,115,80,58,132.64,225,-180.00,-81.00,-1001.00
2024-06-07 10:29:59.301239,-4,6,-64,1,0,0,80,82,117,80,58,132.75,225,-80.00,-103.00,-977.00
2024-06-07 10:29:59.315129,-5,5,-64,1,0,0,80,82,117,80,58,132.75,225,-96.00,-136.00,-953.00
2024-06-07 10:29:59.506769,-4,5,-64,1,0,0,80,81,117,80,58,132.78,225,-92.00,-115.00,-1052.00
2024-06-07 10:29:59.522732,-4,5,-64,1,0,0,80,81,117,80,58,132.83,225,-79.00,-106.00,-973.00
2024-06-07 10:29:59.622456,-4,5,-64,0,0,0,80,81,118,80,58,132.85,225,-84.00,-117.00,-1119.00
2024-06-07 10:29:59.818347,-3,5,-64,0,0,0,80,81,118,80,58,132.69,225,-72.00,-137.00,-989.00
2024-06-07 10:29:59.825348,-4,5,-64,0,0,-1,80,81,119,80,58,132.86,225,-112.00,-133.00,-929.00
2024-06-07 10:29:59.928307,-5,5,-64,0,0,0,80,81,120,80,58,132.78,225,-106.00,-108.00,-1027.00
2024-06-07 10:30:00.124659,-5,6,-65,0,0,0,80,81,123,80,58,132.84,226,-145.00,-117.00,-961.00
2024-06-07 10:30:00.132081,-5,6,-65,0,0,0,80,81,124,80,58,132.88,226,-132.00,-86.00,-975.00
2024-06-07 10:30:00.326871,-5,6,-65,0,0,0,80,81,122,80,58,132.89,226,-91.00,-133.00,-939.00
2024-06-07 10:30:00.336410,-5,6,-64,0,0,0,80,81,123,80,58,132.83,226,-110.00,-125.00,-942.00
2024-06-07 10:30:00.535071,-5,6,-64,0,0,0,80,82,123,80,58,132.87,226,-154.00,-108.00,-968.00
2024-06-07 10:30:00.540324,-6,5,-64,0,0,0,80,82,124,80,58,132.77,226,-103.00,-83.00,-1096.00
2024-06-07 10:30:00.736000,-5,5,-64,0,0,0,80,82,123,80,58,132.74,226,-113.00,-93.00,-1081.00
2024-06-07 10:30:00.746273,-5,5,-64,0,0,0,80,82,125,80,58,132.91,226,-114.00,-106.00,-969.00
2024-06-07 10:30:00.846283,-4,6,-65,0,0,0,80,82,123,80,58,132.83,226,-55.00,-133.00,-1053.00
2024-06-07 10:30:00.950305,-4,6,-64,0,0,0,80,82,125,80,58,132.82,226,-70.00,-145.00,-919.00
2024-06-07 10:30:01.050227,-5,6,-64,0,0,0,80,82,129,80,58,132.90,227,-134.00,-108.00,-952.00
2024-06-07 10:30:01.101144,-6,6,-65,0,0,0,80,82,126,90,58,132.87,227,-115.00,-113.00,-892.00
2024-06-07 10:30:01.250659,-6,6,-65,0,0,0,80,82,127,90,58,132.90,227,-37.00,-131.00,-920.00
2024-06-07 10:30:01.305251,-5,6,-65,0,0,0,80,82,127,90,58,132.95,227,-93.00,-106.00,-904.00
2024-06-07 10:30:01.452066,-5,5,-65,0,0,0,79,82,126,90,58,132.96,227,-70.00,-127.00,-975.00
2024-06-07 10:30:01.509166,-4,6,-65,0,0,0,79,82,126,90,57,132.98,227,-40.00,-164.00,-924.00
2024-06-07 10:30:01.657553,-4,6,-65,0,0,0,79,82,126,90,57,132.96,227,-120.00,-94.00,-994.00
2024-06-07 10:30:01.713271,-5,6,-65,0,0,0,79,82,126,90,57,132.93,227,-109.00,-110.00,-940.00
2024-06-07 10:30:01.866796,-5,6,-65,0,0,0,79,82,126,90,57,132.94,227,-105.00,-100.00,-968.00
2024-06-07 10:30:01.917047,-5,6,-64,0,0,0,79,82,126,90,57,132.83,227,-129.00,-107.00,-879.00
2024-06-07 10:30:02.071414,-5,5,-64,0,0,0,79,82,125,80,57,132.96,228,-128.00,-97.00,-1002.00
2024-06-07 10:30:02.121154,-5,6,-64,0,0,0,79,82,126,80,57,132.94,228,-99.00,-136.00,-903.00
2024-06-07 10:30:02.276342,-5,6,-64,0,0,0,79,82,126,80,57,132.92,228,-95.00,-120.00,-1030.00
2024-06-07 10:30:02.325528,-5,7,-64,0,0,0,79,82,126,80,57,132.99,228,-56.00,-110.00,-1022.00
2024-06-07 10:30:02.476827,-6,7,-65,0,0,0,80,82,127,80,57,132.99,228,-94.00,-110.00,-889.00
2024-06-07 10:30:02.529148,-5,6,-65,0,0,0,80,82,127,80,57,132.97,228,-42.00,-124.00,-1008.00
2024-06-07 10:30:02.681038,-5,6,-65,0,0,0,80,82,124,80,57,132.94,228,-58.00,-138.00,-1025.00
2024-06-07 10:30:02.733124,-4,6,-65,0,0,0,80,82,126,80,57,132.94,228,-125.00,-120.00,-950.00
2024-06-07 10:30:02.886052,-5,6,-65,0,0,0,80,82,126,80,57,132.90,228,-78.00,-101.00,-970.00
2024-06-07 10:30:02.937070,-5,6,-65,0,0,0,80,82,125,80,57,132.95,228,-80.00,-87.00,-993.00
2024-06-07 10:30:03.039612,-5,6,-65,0,0,0,80,82,126,80,57,132.92,229,-119.00,-101.00,-906.00
2024-06-07 10:30:03.198931,-4,6,-65,0,0,0,80,82,125,80,57,132.90,229,-69.00,-139.00,-939.00
2024-06-07 10:30:03.243443,-3,6,-65,0,0,0,80,82,126,80,57,133.00,229,-105.00,-102.00,-939.00
2024-06-07 10:30:03.344939,-4,6,-65,0,0,0,80,82,124,80,57,132.94,229,-46.00,-140.00,-974.00
2024-06-07 10:30:03.499768,-4,6,-64,0,0,0,80,83,126,80,57,132.95,229,-91.00,-108.00,-962.00
2024-06-07 10:30:03.551024,-4,6,-64,0,0,0,80,83,124,80,57,133.00,229,-72.00,-89.00,-1118.00
2024-06-07 10:30:03.651082,-4,6,-64,0,0,0,80,83,123,80,57,133.04,229,-72.00,-116.00,-1088.00
2024-06-07 10:30:03.753396,-4,7,-64,0,0,0,80,83,124,80,57,133.00,229,-120.00,-125.00,-956.00
2024-06-07 10:30:03.856641,-4,7,-64,0,0,0,80,83,122,80,57,132.99,229,-104.00,-140.00,-982.00
2024-06-07 10:30:03.957251,-5,7,-65,0,0,0,80,83,125,80,57,132.89,229,-85.00,-142.00,-906.00
2024-06-07 10:30:04.114115,-5,7,-65,0,0,0,80,83,125,80,57,132.93,230,-39.00,-137.00,-966.00
2024-06-07 10:30:04.161062,-5,7,-65,0,0,0,80,83,125,80,57,132.99,230,-122.00,-107.00,-941.00
2024-06-07 10:30:04.322964,-5,7,-65,0,0,0,80,83,126,80,57,133.01,230,-115.00,-116.00,-1018.00
2024-06-07 10:30:04.365880,-4,7,-64,0,0,0,80,83,126,80,57,132.98,230,-87.00,-118.00,-972.00
2024-06-07 10:30:04.527689,-5,7,-64,0,0,0,80,82,130,80,57,133.04,230,-86.00,-133.00,-925.00
2024-06-07 10:30:04.569096,-5,6,-65,0,0,0,80,82,130,80,57,133.11,230,-57.00,-134.00,-957.00
2024-06-07 10:30:04.733745,-5,7,-65,0,0,0,80,82,131,90,57,133.04,230,-79.00,-79.00,-937.00
2024-06-07 10:30:04.773215,-5,6,-65,0,0,0,80,82,131,90,57,132.94,230,-78.00,-104.00,-949.00
2024-06-07 10:30:04.823915,-4,6,-64,0,0,0,80,82,131,90,57,133.03,230,-44.00,-90.00,-1049.00
2024-06-07 10:30:04.933291,-3,6,-64,0,0,0,80,82,131,90,57,133.05,230,-104.00,-83.00,-1031.00
2024-06-07 10:30:05.028108,-4,5,-64,0,0,0,80,82,132,90,57,133.04,231,-27.00,-114.00,-944.00
2024-06-07 10:30:05.139627,-4,5,-64,0,0,0,80,82,132,90,57,133.08,231,-80.00,-93.00,-994.00
2024-06-07 10:30:05.231951,-4,5,-64,0,0,0,80,82,133,90,57,133.04,231,-41.00,-128.00,-930.00
2024-06-07 10:30:05.333896,-4,5,-64,0,0,0,80,82,132,90,57,132.99,231,-8.00,-132.00,-910.00
2024-06-07 10:30:05.445405,-3,6,-64,0,0,0,81,82,133,90,57,133.06,231,-40.00,-102.00,-965.00
