TS,pitch,roll,yaw,vgx,vgy,vgz,templ,temph,tof,h,bat,baro,time,agx,agy,agz
2024-05-17 17:15:21.558680,0,0,-46,0,0,0,72,73,10,0,83,191.99,85,-3.00,-4.00,-998.00
2024-05-17 17:15:21.579633,0,0,-46,0,0,0,72,73,10,0,83,192.00,85,-1.00,-4.00,-999.00
2024-05-17 17:15:21.681593,0,0,-46,0,0,0,72,73,10,0,83,192.02,85,-1.00,-4.00,-999.00
2024-05-17 17:15:21.865813,0,0,-46,0,0,0,72,73,10,0,83,192.02,85,-3.00,-4.00,-1000.00
2024-05-17 17:15:21.885520,0,0,-46,0,0,0,72,73,10,0,83,192.01,85,-3.00,-4.00,-1002.00
2024-05-17 17:15:22.070502,0,0,-46,0,0,0,72,73,10,0,83,191.97,85,-2.00,-5.00,-1002.00
2024-05-17 17:15:22.070750,0,0,-46,0,0,0,72,73,10,0,83,192.01,85,-3.00,-4.00,-1000.00
2024-05-17 17:15:22.275255,0,0,-46,0,0,0,71,74,10,0,83,192.06,85,-4.00,-6.00,-1002.00
2024-05-17 17:15:22.293581,0,0,-46,0,0,0,71,74,10,0,83,192.01,85,-3.00,-4.00,-998.00
2024-05-17 17:15:22.344922,0,0,-46,0,0,0,71,74,10,0,83,192.05,85,-3.00,-5.00,-1001.00
2024-05-17 17:15:22.479897,0,0,-46,0,0,0,71,74,10,0,83,192.06,85,-2.00,-5.00,-998.00
2024-05-17 17:15:22.548488,0,0,-46,0,0,0,71,74,10,0,83,192.09,85,-2.00,-4.00,-998.00
2024-05-17 17:15:22.650451,0,0,-46,0,0,0,71,74,10,0,83,192.02,85,-3.00,-3.00,-998.00
2024-05-17 17:15:22.787074,0,0,-46,0,0,0,71,74,10,0,83,192.06,85,-2.00,-3.00,-1001.00
2024-05-17 17:15:22.854566,0,0,-46,0,0,0,71,74,10,0,83,192.02,85,-3.00,-5.00,-997.00
2024-05-17 17:15:22.993020,0,0,-46,0,0,0,71,74,10,0,83,192.03,85,-2.00,-3.00,-1000.00
2024-05-17 17:15:23.058643,0,0,-46,0,0,0,71,74,10,0,83,192.04,85,-1.00,-4.00,-999.00
2024-05-17 17:15:23.197228,0,0,-46,0,0,0,71,74,10,0,83,192.07,85,-2.00,-5.00,-1000.00
2024-05-17 17:15:23.263074,0,0,-46,0,0,0,71,74,10,0,83,192.11,85,-2.00,-4.00,-999.00
2024-05-17 17:15:23.401722,0,0,-46,0,0,0,71,74,10,0,83,192.09,85,-2.00,-5.00,-1000.00
2024-05-17 17:15:23.466518,0,0,-46,0,0,0,71,74,10,0,83,192.07,85,-2.00,-4.00,-1002.00
2024-05-17 17:15:23.608486,0,0,-46,0,0,0,71,74,10,0,83,192.03,85,-3.00,-3.00,-999.00
2024-05-17 17:15:23.670647,0,0,-46,0,0,0,71,74,10,0,83,192.04,85,-3.00,-3.00,-1000.00
2024-05-17 17:15:23.811322,0,0,-46,0,0,0,71,74,10,0,83,192.03,85,-3.00,-4.00,-1001.00
2024-05-17 17:15:23.874547,0,0,-46,0,0,0,71,74,10,0,83,192.04,85,-2.00,-6.00,-1001.00
2024-05-17 17:15:23.979460,0,0,-46,0,0,0,71,74,10,0,83,192.01,85,-3.00,-3.00,-999.00
2024-05-17 17:15:24.079948,0,0,-46,0,0,0,71,74,10,0,83,192.03,85,-2.00,-3.00,-1002.00
2024-05-17 17:15:24.180339,0,0,-46,0,0,0,71,73,10,0,83,192.03,85,0.00,-4.00,-994.00
2024-05-17 17:15:24.325473,0,0,-46,0,0,0,71,73,10,0,83,192.03,86,1.00,-58.00,-1002.00
2024-05-17 17:15:24.384316,0,0,-44,0,0,0,71,73,10,0,83,192.03,86,42.00,-10.00,-970.00
2024-05-17 17:15:24.527915,0,0,-43,0,0,0,71,73,10,0,83,192.03,86,-24.00,-23.00,-995.00
2024-05-17 17:15:24.588454,0,0,-43,0,0,0,71,73,10,0,83,192.03,86,-77.00,24.00,-1061.00
2024-05-17 17:15:24.690239,0,0,-43,0,0,-1,71,73,10,0,83,192.03,86,-11.00,-15.00,-1292.00
2024-05-17 17:15:24.836546,0,0,-42,0,0,-4,71,73,10,0,83,192.03,86,-49.00,8.00,-1335.00
2024-05-17 17:15:24.894346,-1,0,-43,0,0,-7,71,73,13,0,83,192.03,86,43.00,-40.00,-1179.00
2024-05-17 17:15:25.039877,-1,0,-43,0,0,-8,71,73,23,10,83,192.44,86,-24.00,5.00,-1084.00
2024-05-17 17:15:25.098307,-1,0,-43,0,0,-8,71,73,35,20,83,192.51,86,-30.00,28.00,-889.00
2024-05-17 17:15:25.200405,-1,0,-43,0,0,-8,72,74,43,20,83,192.54,86,0.00,-14.00,-940.00
2024-05-17 17:15:25.347140,-2,0,-43,0,0,-7,72,74,49,30,83,192.66,87,-49.00,40.00,-974.00
2024-05-17 17:15:25.404285,-1,0,-43,0,0,-6,72,74,56,40,83,192.73,87,-15.00,33.00,-930.00
2024-05-17 17:15:25.520856,-1,0,-43,0,0,-5,72,74,57,40,83,192.80,87,8.00,-29.00,-881.00
2024-05-17 17:15:25.608299,0,0,-43,0,0,-3,72,74,64,50,83,192.84,87,-1.00,28.00,-871.00
2024-05-17 17:15:25.756652,0,0,-43,0,0,-2,72,74,66,50,83,192.85,87,2.00,-43.00,-864.00
2024-05-17 17:15:25.812261,0,0,-43,0,0,-1,72,74,68,50,83,192.95,87,-34.00,17.00,-914.00
2024-05-17 17:15:25.865970,-1,0,-43,0,0,-1,72,74,69,50,83,192.98,87,-6.00,-30.00,-988.00
2024-05-17 17:15:25.965228,0,0,-43,0,0,0,72,74,70,50,83,192.99,87,15.00,-8.00,-984.00
2024-05-17 17:15:26.067298,0,0,-43,0,0,0,72,74,72,50,83,192.97,87,8.00,1.00,-1006.00
2024-05-17 17:15:26.270026,0,0,-43,0,0,0,71,74,73,50,83,193.01,87,-10.00,6.00,-986.00
2024-05-17 17:15:26.272466,0,0,-43,0,0,0,71,74,74,50,83,192.98,88,23.00,11.00,-990.00
2024-05-17 17:15:26.373954,0,0,-43,0,0,0,71,74,75,50,83,192.98,88,-13.00,3.00,-1012.00
2024-05-17 17:15:26.475209,0,0,-43,0,0,0,71,74,77,60,83,193.06,88,-59.00,5.00,-947.00
2024-05-17 17:15:26.577430,0,0,-43,0,0,0,71,74,79,60,83,193.09,88,42.00,-26.00,-1029.00
2024-05-17 17:15:26.679705,0,0,-43,0,0,0,71,74,81,60,83,193.08,88,4.00,15.00,-1039.00
2024-05-17 17:15:26.781948,0,0,-42,0,0,0,71,74,82,60,83,193.15,88,-21.00,15.00,-1035.00
2024-05-17 17:15:26.888860,0,0,-42,0,0,0,71,74,84,60,83,193.08,88,-45.00,22.00,-980.00
2024-05-17 17:15:26.985458,-1,0,-42,0,0,0,71,74,86,60,83,193.14,88,20.00,-4.00,-966.00
2024-05-17 17:15:27.088475,0,0,-42,0,0,0,71,74,87,60,83,193.12,88,35.00,-10.00,-1017.00
2024-05-17 17:15:27.191042,0,0,-42,0,0,0,72,74,89,60,83,193.10,88,34.00,-42.00,-919.00
2024-05-17 17:15:27.294086,0,0,-42,0,0,0,72,74,90,70,83,193.15,89,-38.00,5.00,-991.00
2024-05-17 17:15:27.395765,0,0,-42,0,0,0,72,74,91,70,83,193.14,89,-48.00,47.00,-1010.00
2024-05-17 17:15:27.497838,0,0,-42,0,0,0,72,74,91,70,83,193.17,89,-3.00,12.00,-961.00
2024-05-17 17:15:27.600128,0,0,-42,0,0,0,72,74,92,70,83,193.14,89,9.00,-25.00,-959.00
2024-05-17 17:15:27.699155,0,0,-42,0,0,0,72,74,92,70,83,193.13,89,-28.00,15.00,-956.00
2024-05-17 17:15:27.806341,0,0,-42,0,0,0,72,74,92,70,83,193.11,89,-94.00,62.00,-965.00
2024-05-17 17:15:27.908265,0,0,-42,0,0,0,72,74,92,70,83,193.15,89,-3.00,13.00,-1038.00
2024-05-17 17:15:28.005270,0,0,-43,0,0,0,72,74,92,70,83,193.17,89,82.00,-51.00,-964.00
2024-05-17 17:15:28.113215,0,0,-43,0,0,0,72,74,92,70,83,193.24,89,69.00,-44.00,-936.00
2024-05-17 17:15:28.209104,0,0,-43,0,0,0,72,73,91,70,83,193.26,89,-42.00,15.00,-960.00
2024-05-17 17:15:28.317624,0,0,-43,0,0,0,72,73,90,70,83,193.22,90,-53.00,2.00,-1009.00
2024-05-17 17:15:28.413102,-1,0,-43,0,0,0,72,73,89,70,83,193.15,90,-62.00,18.00,-1066.00
2024-05-17 17:15:28.522871,-1,0,-43,0,0,0,72,73,89,70,83,193.17,90,-38.00,12.00,-1022.00
2024-05-17 17:15:28.617125,-1,0,-43,0,0,0,72,73,88,70,83,193.17,90,-8.00,4.00,-1014.00
2024-05-17 17:15:28.727227,-1,0,-43,0,0,0,72,73,87,70,83,193.16,90,-3.00,-23.00,-979.00
2024-05-17 17:15:28.821093,-1,0,-43,0,0,0,72,73,87,70,83,193.20,90,0.00,8.00,-1019.00
2024-05-17 17:15:28.932052,-1,0,-43,0,0,0,72,73,86,70,83,193.13,90,-31.00,25.00,-973.00
2024-05-17 17:15:29.025029,-1,0,-43,0,0,0,72,73,85,70,83,193.07,90,9.00,-27.00,-1007.00
2024-05-17 17:15:29.136677,-1,0,-43,0,0,0,72,73,85,70,83,193.10,90,7.00,-10.00,-1011.00
2024-05-17 17:15:29.229138,-1,0,-42,0,0,0,71,73,83,70,83,193.08,90,-38.00,13.00,-984.00
2024-05-17 17:15:29.340621,-1,0,-42,0,0,0,71,73,82,60,83,193.10,91,11.00,3.00,-1074.00
2024-05-17 17:15:29.433045,-1,0,-42,0,0,0,71,73,82,60,83,193.11,91,23.00,-17.00,-954.00
2024-05-17 17:15:29.545908,0,0,-43,0,0,0,71,73,81,60,83,193.13,91,-9.00,-22.00,-939.00
2024-05-17 17:15:29.639141,0,0,-42,0,0,0,71,73,81,60,83,193.13,91,-4.00,-13.00,-992.00
2024-05-17 17:15:29.739010,0,0,-42,0,0,0,71,73,80,60,83,193.01,91,42.00,-28.00,-1062.00
2024-05-17 17:15:29.841087,0,0,-42,0,0,0,71,73,79,60,83,193.07,91,4.00,-3.00,-928.00
2024-05-17 17:15:29.892031,-1,0,-42,0,0,0,71,73,79,60,83,193.10,91,22.00,-8.00,-1035.00
2024-05-17 17:15:29.994237,0,0,-42,0,0,0,71,73,79,60,83,193.02,91,11.00,0.00,-1038.00
2024-05-17 17:15:30.096053,0,0,-42,0,0,0,71,73,78,60,83,193.08,91,-63.00,52.00,-983.00
2024-05-17 17:15:30.262434,0,0,-42,0,0,0,71,73,76,60,83,193.05,91,-17.00,25.00,-987.00
2024-05-17 17:15:30.350988,-1,0,-42,0,0,0,71,73,76,60,83,193.02,92,8.00,-8.00,-942.00
2024-05-17 17:15:30.402087,-1,0,-42,0,0,0,71,73,75,60,83,193.05,92,-5.00,-3.00,-943.00
2024-05-17 17:15:30.569421,0,0,-42,0,0,0,71,73,77,60,83,192.99,92,27.00,-22.00,-977.00
2024-05-17 17:15:30.606063,0,1,-42,0,0,0,71,73,77,60,83,193.05,92,29.00,-39.00,-979.00
2024-05-17 17:15:30.708226,1,1,-42,0,0,0,71,73,76,60,83,193.00,92,17.00,-19.00,-1017.00
2024-05-17 17:15:30.813267,1,1,-42,0,0,0,71,73,75,60,83,193.04,92,5.00,-7.00,-1036.00
2024-05-17 17:15:30.912258,0,1,-42,0,0,0,71,73,75,60,83,193.00,92,-17.00,21.00,-1076.00
2024-05-17 17:15:31.014017,-1,0,-42,0,1,0,71,73,74,60,83,193.10,92,4.00,2.00,-1017.00
2024-05-17 17:15:31.117278,-3,0,-42,0,1,0,71,73,75,60,83,193.04,92,15.00,-11.00,-987.00
2024-05-17 17:15:31.218110,-2,-1,-42,0,0,0,71,73,75,60,83,193.01,92,0.00,-15.00,-1008.00
2024-05-17 17:15:31.320130,-1,0,-43,0,0,0,71,73,76,60,83,193.05,93,24.00,-6.00,-1061.00
2024-05-17 17:15:31.422387,0,0,-43,0,0,0,71,73,76,60,83,193.13,93,10.00,-8.00,-997.00
2024-05-17 17:15:31.593727,-1,0,-43,0,0,0,71,73,77,60,83,193.04,93,35.00,-6.00,-1000.00
2024-05-17 17:15:31.630541,-1,0,-43,0,0,0,71,73,78,60,83,193.09,93,-18.00,7.00,-1015.00
2024-05-17 17:15:31.728441,-1,0,-43,0,0,0,71,73,77,60,83,193.06,93,6.00,5.00,-1028.00
2024-05-17 17:15:31.830239,-2,0,-43,0,0,0,71,73,78,60,83,193.11,93,14.00,-20.00,-1017.00
2024-05-17 17:15:32.004547,-2,0,-43,0,0,0,71,73,79,60,83,193.06,93,20.00,12.00,-1005.00
2024-05-17 17:15:32.034126,-2,0,-43,0,0,0,71,73,80,60,83,193.07,93,52.00,-28.00,-1003.00
2024-05-17 17:15:32.136256,-2,0,-43,0,0,0,71,73,81,60,83,193.04,93,-77.00,48.00,-971.00
2024-05-17 17:15:32.310456,-1,0,-43,0,0,0,71,73,81,60,83,193.15,93,41.00,-49.00,-929.00
2024-05-17 17:15:32.340131,-1,0,-43,0,0,0,71,73,82,60,83,193.03,94,-26.00,1.00,-957.00
2024-05-17 17:15:32.515038,-1,0,-43,0,0,0,71,73,82,60,83,193.04,94,50.00,-37.00,-1062.00
2024-05-17 17:15:32.544590,-1,0,-43,0,0,0,71,73,82,60,83,193.08,94,103.00,-66.00,-1090.00
2024-05-17 17:15:32.720076,-1,0,-43,0,0,0,71,73,82,60,83,193.10,94,-41.00,28.00,-1012.00
2024-05-17 17:15:32.752061,-1,0,-43,0,0,0,71,73,82,60,83,193.15,94,-13.00,32.00,-959.00
2024-05-17 17:15:32.852499,-1,0,-43,0,0,0,71,73,82,60,83,193.09,94,-55.00,36.00,-954.00
2024-05-17 17:15:32.951971,-1,0,-43,0,0,0,71,73,81,60,83,193.12,94,-51.00,34.00,-933.00
2024-05-17 17:15:33.053909,-1,0,-43,0,0,0,71,73,82,60,83,193.10,94,-72.00,38.00,-975.00
2024-05-17 17:15:33.155805,-1,0,-43,0,0,0,71,73,81,60,83,193.14,94,-59.00,49.00,-967.00
2024-05-17 17:15:33.334402,-1,0,-43,0,0,0,71,73,81,60,83,193.15,95,2.00,-2.00,-1035.00
2024-05-17 17:15:33.359910,-2,0,-43,0,0,-1,71,73,82,60,83,193.18,95,6.00,12.00,-1133.00
2024-05-17 17:15:33.539136,-2,0,-43,0,0,-2,71,73,83,60,83,193.16,95,29.00,-28.00,-1066.00
2024-05-17 17:15:33.563826,-2,0,-43,0,0,-3,71,73,86,70,83,193.16,95,-8.00,14.00,-993.00
2024-05-17 17:15:33.745215,-1,0,-43,0,0,-4,71,73,90,70,83,193.23,95,40.00,-6.00,-1102.00
2024-05-17 17:15:33.768634,-1,0,-43,0,0,-4,71,73,94,80,83,193.29,95,-33.00,1.00,-1093.00
2024-05-17 17:15:33.818814,-1,0,-43,0,0,-5,71,73,99,80,83,193.33,95,10.00,0.00,-982.00
2024-05-17 17:15:33.952299,-1,-1,-43,0,0,-5,71,73,106,90,83,193.38,95,-15.00,28.00,-973.00
2024-05-17 17:15:34.023393,-1,-1,-43,0,0,-5,71,73,112,90,83,193.40,95,-23.00,28.00,-1025.00
2024-05-17 17:15:34.154471,-1,0,-43,0,0,-5,71,73,117,100,83,193.45,95,10.00,-12.00,-978.00
2024-05-17 17:15:34.227623,0,0,-43,0,0,-5,70,73,123,100,83,193.43,96,7.00,28.00,-1014.00
2024-05-17 17:15:34.359591,0,0,-43,0,0,-5,70,73,128,110,83,193.56,96,-34.00,-7.00,-965.00
2024-05-17 17:15:34.430890,-1,0,-43,0,0,-5,70,73,134,110,83,193.64,96,-1.00,1.00,-982.00
2024-05-17 17:15:34.564185,-1,0,-43,0,0,-4,70,73,140,120,83,193.67,96,-14.00,14.00,-961.00
2024-05-17 17:15:34.636822,-1,0,-43,0,0,-4,70,73,145,120,83,193.67,96,20.00,12.00,-1006.00
2024-05-17 17:15:34.736904,-1,0,-43,0,0,-4,70,73,150,130,83,193.68,96,-68.00,38.00,-975.00
2024-05-17 17:15:34.874264,-1,0,-43,0,0,-4,70,73,154,130,83,193.78,96,25.00,-5.00,-952.00
2024-05-17 17:15:34.940962,-1,0,-43,0,0,-3,70,73,159,140,83,193.78,96,-56.00,22.00,-961.00
2024-05-17 17:15:35.077133,-1,0,-43,0,0,-3,70,73,163,140,83,193.86,96,-51.00,23.00,-921.00
2024-05-17 17:15:35.144769,-1,0,-43,0,0,-3,70,73,167,140,83,193.84,96,-7.00,7.00,-973.00
2024-05-17 17:15:35.281209,-1,0,-43,0,0,-2,70,72,171,150,83,193.94,97,37.00,4.00,-1017.00
2024-05-17 17:15:35.349865,-1,0,-43,0,0,-2,70,72,174,150,83,193.97,97,3.00,-3.00,-1022.00
2024-05-17 17:15:35.484827,-1,0,-43,0,0,-2,70,72,176,150,83,194.04,97,-12.00,6.00,-893.00
2024-05-17 17:15:35.553250,-1,0,-43,0,0,-1,70,72,179,160,83,194.01,97,-80.00,56.00,-942.00
2024-05-17 17:15:35.655126,0,0,-43,0,0,-1,70,72,181,160,83,194.05,97,25.00,22.00,-1010.00
2024-05-17 17:15:35.791742,0,0,-43,0,0,-1,70,72,182,160,83,194.04,97,52.00,29.00,-991.00
2024-05-17 17:15:35.858819,0,0,-43,0,0,0,70,72,183,160,83,194.06,97,58.00,0.00,-918.00
2024-05-17 17:15:35.997043,0,0,-43,0,0,0,70,72,183,160,83,194.05,97,7.00,4.00,-913.00
2024-05-17 17:15:36.066383,-1,0,-43,0,0,0,70,72,184,160,83,194.03,97,3.00,4.00,-877.00
2024-05-17 17:15:36.164892,0,0,-43,0,0,0,70,72,185,160,83,194.05,97,-9.00,9.00,-1019.00
2024-05-17 17:15:36.304530,-1,0,-43,0,0,0,71,72,183,160,83,193.98,98,78.00,-17.00,-1037.00
2024-05-17 17:15:36.370328,0,0,-43,0,0,0,71,72,183,160,83,194.02,98,12.00,9.00,-944.00
2024-05-17 17:15:36.510308,0,0,-43,0,0,0,71,72,183,160,83,194.07,98,-36.00,24.00,-1060.00
2024-05-17 17:15:36.572881,0,0,-43,0,0,0,71,72,182,160,83,194.03,98,-46.00,50.00,-1007.00
2024-05-17 17:15:36.714644,-1,0,-43,0,0,0,71,72,182,160,83,194.08,98,-4.00,34.00,-1032.00
2024-05-17 17:15:36.777849,-1,0,-43,0,0,0,71,72,182,160,83,194.00,98,2.00,16.00,-1029.00
2024-05-17 17:15:36.922688,-1,0,-43,0,0,0,71,72,182,160,83,194.06,98,6.00,10.00,-990.00
2024-05-17 17:15:36.981878,0,0,-43,0,0,0,71,72,181,160,83,193.97,98,1.00,6.00,-999.00
2024-05-17 17:15:37.124499,0,0,-43,0,0,0,71,72,181,160,83,194.01,98,42.00,0.00,-977.00
2024-05-17 17:15:37.188841,-1,0,-43,0,0,0,71,72,181,160,83,193.99,98,14.00,-10.00,-1036.00
2024-05-17 17:15:37.287791,0,0,-43,0,0,0,70,73,181,160,83,194.03,99,13.00,-10.00,-1013.00
2024-05-17 17:15:37.431845,-1,0,-43,0,0,0,70,73,180,160,83,194.04,99,80.00,-65.00,-1014.00
2024-05-17 17:15:37.491820,0,0,-43,0,0,0,70,73,180,160,83,194.06,99,82.00,-20.00,-1138.00
2024-05-17 17:15:37.607442,0,0,-43,0,0,0,70,73,180,160,83,194.04,99,38.00,0.00,-976.00
2024-05-17 17:15:37.697193,0,0,-43,0,0,0,70,73,180,160,83,194.05,99,26.00,-21.00,-970.00
2024-05-17 17:15:37.797740,-1,0,-43,0,0,0,70,73,180,160,83,194.05,99,-22.00,41.00,-906.00
2024-05-17 17:15:37.848722,-1,0,-43,0,0,0,70,73,179,160,83,194.00,99,21.00,5.00,-980.00
2024-05-17 17:15:37.950721,-1,0,-43,0,0,1,70,73,178,160,83,194.03,99,-4.00,19.00,-924.00
2024-05-17 17:15:38.148423,-1,0,-43,0,0,1,70,73,176,160,83,193.99,99,13.00,-12.00,-889.00
2024-05-17 17:15:38.154675,-1,0,-43,0,0,2,70,73,174,160,83,193.91,99,-32.00,3.00,-926.00
2024-05-17 17:15:38.353396,0,0,-43,0,0,2,71,73,171,150,83,193.92,100,31.00,-8.00,-966.00
2024-05-17 17:15:38.359270,0,0,-43,0,0,2,71,73,168,150,83,193.87,100,17.00,-7.00,-949.00
2024-05-17 17:15:38.557705,-1,0,-43,0,0,2,71,73,166,150,83,193.85,100,81.00,-33.00,-1039.00
2024-05-17 17:15:38.568979,-1,0,-43,0,0,2,71,73,163,140,83,193.85,100,-2.00,7.00,-986.00
2024-05-17 17:15:38.665225,-1,0,-43,0,0,2,71,73,160,140,83,193.82,100,26.00,1.00,-1030.00
2024-05-17 17:15:38.766624,-1,0,-43,0,0,2,71,73,157,140,83,193.76,100,3.00,-20.00,-1023.00
2024-05-17 17:15:38.868654,-1,0,-43,0,0,2,71,73,154,140,83,193.78,100,13.00,0.00,-1016.00
2024-05-17 17:15:38.970625,0,0,-43,0,0,2,71,73,152,130,83,193.75,100,-4.00,37.00,-983.00
2024-05-17 17:15:39.072602,0,0,-43,0,0,2,71,73,150,130,83,193.76,100,6.00,-18.00,-1036.00
2024-05-17 17:15:39.174597,-1,0,-43,0,0,2,71,73,148,130,83,193.71,100,87.00,-47.00,-1061.00
2024-05-17 17:15:39.276616,-1,0,-43,0,0,1,70,73,146,130,83,193.73,101,29.00,0.00,-1093.00
2024-05-17 17:15:39.378549,0,0,-43,0,0,1,70,73,145,130,83,193.73,101,-18.00,3.00,-1016.00
2024-05-17 17:15:39.480526,0,0,-43,0,0,1,70,73,143,120,83,193.76,101,-34.00,20.00,-991.00
2024-05-17 17:15:39.684416,0,0,-43,0,0,1,70,73,142,120,83,193.67,101,73.00,-33.00,-1026.00
2024-05-17 17:15:39.685148,0,0,-43,0,0,1,70,73,140,120,83,193.68,101,53.00,-62.00,-960.00
2024-05-17 17:15:39.791405,0,0,-43,0,0,1,70,73,139,120,83,193.60,101,24.00,33.00,-1037.00
2024-05-17 17:15:39.888838,0,0,-43,0,0,1,70,73,137,120,83,193.66,101,6.00,-22.00,-1022.00
2024-05-17 17:15:39.991707,-1,0,-43,0,0,1,70,73,137,120,83,193.62,101,2.00,-22.00,-987.00
2024-05-17 17:15:40.093091,-1,0,-43,0,0,0,70,73,136,120,83,193.63,101,44.00,-32.00,-1035.00
2024-05-17 17:15:40.197112,-1,0,-43,0,0,0,70,73,136,120,83,193.60,101,-6.00,-67.00,-947.00
2024-05-17 17:15:40.298622,0,0,-43,0,0,0,71,73,136,120,83,193.60,102,19.00,3.00,-1031.00
2024-05-17 17:15:40.401282,0,0,-43,0,0,0,71,73,136,120,83,193.57,102,26.00,34.00,-1084.00
2024-05-17 17:15:40.503249,0,0,-43,0,0,0,71,73,136,120,83,193.63,102,-25.00,-27.00,-1066.00
2024-05-17 17:15:40.602655,0,0,-43,0,0,0,71,73,137,120,83,193.62,102,27.00,20.00,-1088.00
2024-05-17 17:15:40.708389,-1,0,-43,0,0,0,71,73,138,120,83,193.69,102,36.00,-10.00,-998.00
2024-05-17 17:15:40.810175,-1,0,-43,0,0,0,71,73,138,120,83,193.60,102,-105.00,45.00,-911.00
2024-05-17 17:15:40.908708,0,0,-43,0,0,0,71,73,138,120,83,193.62,102,37.00,-20.00,-972.00
2024-05-17 17:15:41.016411,-1,0,-43,0,0,0,71,73,139,120,83,193.62,102,-60.00,55.00,-1058.00
2024-05-17 17:15:41.114478,-1,0,-42,0,0,0,71,73,139,120,83,193.63,102,56.00,-33.00,-989.00
2024-05-17 17:15:41.214775,-1,0,-42,0,0,0,71,73,139,120,83,193.65,102,-55.00,-6.00,-962.00
2024-05-17 17:15:41.324224,-1,0,-42,0,0,0,71,72,139,120,83,193.69,103,-39.00,24.00,-1006.00
2024-05-17 17:15:41.420633,-1,0,-42,0,0,0,71,72,139,120,83,193.66,103,10.00,-9.00,-1010.00
2024-05-17 17:15:41.521052,-1,0,-42,0,0,0,71,72,139,120,83,193.70,103,42.00,-1.00,-1082.00
2024-05-17 17:15:41.629077,-1,0,-42,0,0,0,71,72,138,120,83,193.61,103,-83.00,35.00,-976.00
2024-05-17 17:15:41.724542,-1,0,-42,0,0,0,71,72,138,120,83,193.63,103,-14.00,23.00,-974.00
2024-05-17 17:15:41.826537,-1,0,-42,0,0,0,71,72,138,120,83,193.61,103,20.00,0.00,-959.00
2024-05-17 17:15:41.937242,-1,0,-42,0,0,0,71,72,137,120,83,193.60,103,-4.00,19.00,-982.00
2024-05-17 17:15:42.034109,-1,0,-42,0,0,0,71,72,137,120,83,193.64,103,-6.00,27.00,-985.00
2024-05-17 17:15:42.087270,0,0,-42,0,0,0,71,72,135,120,83,193.70,103,62.00,-39.00,-1033.00
2024-05-17 17:15:42.183520,0,0,-42,0,0,0,71,72,135,120,83,193.54,103,-26.00,34.00,-1075.00
2024-05-17 17:15:42.347705,-1,0,-42,0,0,0,71,73,134,120,83,193.51,104,0.00,10.00,-951.00
2024-05-17 17:15:42.387720,-1,0,-42,0,0,0,71,73,134,120,83,193.55,104,-10.00,-8.00,-1083.00
2024-05-17 17:15:42.551362,-5,0,-42,0,0,0,71,73,134,120,83,193.55,104,-9.00,22.00,-1010.00
2024-05-17 17:15:42.591400,-8,0,-42,1,-1,0,71,73,135,110,83,193.51,104,49.00,-18.00,-996.00
2024-05-17 17:15:42.694390,-8,0,-42,2,-2,0,71,73,134,110,83,193.54,104,34.00,-6.00,-981.00
2024-05-17 17:15:42.860859,-8,0,-43,3,-3,0,71,73,134,110,83,193.46,104,-12.00,12.00,-1027.00
2024-05-17 17:15:42.902630,-7,0,-43,4,-4,0,71,73,131,110,83,193.50,104,24.00,-20.00,-955.00
2024-05-17 17:15:43.000414,-6,0,-43,4,-4,0,71,73,129,110,83,193.47,104,-10.00,-25.00,-986.00
2024-05-17 17:15:43.166649,-5,0,-43,5,-5,0,71,73,132,110,83,193.50,104,-97.00,26.00,-977.00
2024-05-17 17:15:43.204427,-5,0,-43,5,-5,0,71,73,132,110,83,193.48,104,29.00,-10.00,-966.00
2024-05-17 17:15:43.369360,-3,0,-43,5,-5,0,71,73,131,110,83,193.38,105,-29.00,-13.00,-1069.00
2024-05-17 17:15:43.408384,0,0,-43,5,-5,0,71,73,132,110,83,193.39,105,-30.00,-24.00,-1036.00
2024-05-17 17:15:43.574396,2,0,-43,4,-4,0,71,73,133,110,83,193.44,105,-27.00,-6.00,-1006.00
2024-05-17 17:15:43.612507,3,0,-43,4,-3,0,71,73,133,110,83,193.45,105,-37.00,9.00,-1063.00
2024-05-17 17:15:43.714363,3,0,-43,3,-3,0,71,73,133,110,83,193.49,105,-22.00,4.00,-1010.00
2024-05-17 17:15:43.816370,1,1,-43,2,-2,0,71,73,135,110,83,193.46,105,16.00,-57.00,-907.00
2024-05-17 17:15:43.986557,0,1,-43,2,-2,0,71,73,134,110,83,193.47,105,-63.00,24.00,-1010.00
2024-05-17 17:15:44.022069,0,1,-43,2,-1,0,71,73,134,110,83,193.52,105,-38.00,0.00,-1012.00
2024-05-17 17:15:44.124040,-1,0,-43,2,-1,0,71,73,135,110,83,193.53,105,-3.00,1.00,-1026.00
2024-05-17 17:15:44.227006,-1,0,-43,2,-1,0,71,73,136,110,83,193.51,105,17.00,13.00,-963.00
2024-05-17 17:15:44.328355,-1,0,-43,2,-1,0,71,73,137,110,83,193.61,106,4.00,-12.00,-964.00
2024-05-17 17:15:44.431189,-1,0,-43,2,-1,0,71,73,137,110,83,193.59,106,8.00,11.00,-1002.00
2024-05-17 17:15:44.531580,0,0,-43,2,-1,0,71,73,138,120,83,193.60,106,37.00,-12.00,-932.00
2024-05-17 17:15:44.632330,0,0,-43,2,-1,0,71,73,139,120,83,193.57,106,-42.00,12.00,-973.00
2024-05-17 17:15:44.734206,0,0,-43,2,-1,0,71,73,139,120,83,193.60,106,-1.00,20.00,-1056.00
2024-05-17 17:15:44.907310,0,0,-43,2,-1,0,71,73,140,120,83,193.57,106,32.00,64.00,-845.00
2024-05-17 17:15:44.938293,0,0,-43,2,-1,0,71,73,140,120,83,193.54,106,-18.00,17.00,-995.00
2024-05-17 17:15:45.112013,-1,0,-42,2,0,0,71,73,141,120,83,193.56,106,16.00,-21.00,-979.00
2024-05-17 17:15:45.142310,-1,-2,-42,1,0,0,71,73,141,120,83,193.60,106,41.00,-48.00,-1002.00
2024-05-17 17:15:45.318243,-2,-2,-42,1,0,0,71,73,140,120,83,193.50,106,71.00,-22.00,-980.00
2024-05-17 17:15:45.346385,-2,-1,-42,1,-1,0,71,72,140,120,83,193.55,107,27.00,-22.00,-974.00
2024-05-17 17:15:45.448336,-1,0,-43,1,-1,0,71,72,139,120,83,193.54,107,-28.00,3.00,-968.00
2024-05-17 17:15:45.623589,-1,0,-43,1,-1,0,71,72,140,120,83,193.54,107,-77.00,55.00,-923.00
2024-05-17 17:15:45.652299,2,1,-42,1,-1,0,71,72,140,120,83,193.50,107,-40.00,11.00,-1018.00
2024-05-17 17:15:45.827221,4,-1,-43,1,0,0,71,72,139,120,83,193.59,107,-36.00,35.00,-955.00
2024-05-17 17:15:45.856170,2,0,-42,0,0,0,71,72,139,120,83,193.51,107,-76.00,49.00,-935.00
2024-05-17 17:15:46.135638,0,0,-42,0,0,0,71,72,138,120,83,193.55,107,31.00,0.00,-999.00
2024-05-17 17:15:46.135829,0,0,-42,0,0,0,71,72,136,120,83,193.58,107,-5.00,38.00,-1025.00
2024-05-17 17:15:46.135882,0,0,-42,0,0,0,71,72,135,120,83,193.47,107,64.00,-6.00,-1045.00
2024-05-17 17:15:46.213283,0,0,-42,0,0,0,71,72,135,110,83,193.54,107,28.00,-9.00,-1013.00
2024-05-17 17:15:46.340460,0,0,-43,0,0,0,70,73,135,110,83,193.52,108,23.00,11.00,-1066.00
2024-05-17 17:15:46.417283,0,0,-43,0,0,0,70,73,135,110,83,193.51,108,28.00,7.00,-1006.00
2024-05-17 17:15:46.543902,0,0,-43,0,0,0,70,73,135,110,83,193.58,108,19.00,5.00,-904.00
2024-05-17 17:15:46.621342,0,0,-43,0,0,0,70,73,135,110,83,193.59,108,78.00,-23.00,-1066.00
2024-05-17 17:15:46.723491,0,0,-43,0,0,0,70,73,135,110,83,193.57,108,68.00,12.00,-1016.00
2024-05-17 17:15:46.851393,0,0,-43,0,0,0,70,73,135,110,83,193.56,108,24.00,12.00,-1010.00
2024-05-17 17:15:46.927547,-1,0,-43,0,0,0,70,73,136,120,83,193.56,108,62.00,-15.00,-969.00
2024-05-17 17:15:47.057269,-1,0,-43,0,0,0,70,73,136,120,83,193.60,108,-25.00,33.00,-932.00
2024-05-17 17:15:47.131370,-1,0,-43,0,0,0,70,73,136,120,83,193.56,108,52.00,-16.00,-985.00
2024-05-17 17:15:47.261855,-1,0,-43,0,0,0,70,73,136,120,83,193.58,109,35.00,-12.00,-1021.00
2024-05-17 17:15:47.335473,-1,0,-43,0,0,0,70,73,136,120,83,193.56,109,-52.00,38.00,-928.00
2024-05-17 17:15:47.437574,-1,0,-43,0,0,0,70,73,136,120,83,193.56,109,40.00,-2.00,-998.00
2024-05-17 17:15:47.569172,0,0,-43,0,0,0,70,73,135,120,83,193.56,109,25.00,-26.00,-1059.00
2024-05-17 17:15:47.641356,0,0,-43,0,0,0,70,73,135,120,83,193.54,109,-42.00,13.00,-1047.00
2024-05-17 17:15:47.743469,0,0,-43,0,0,0,70,73,134,120,83,193.53,109,-26.00,31.00,-970.00
2024-05-17 17:15:47.845510,0,0,-43,0,0,0,70,73,134,120,83,193.53,109,8.00,-23.00,-941.00
2024-05-17 17:15:47.978317,0,0,-43,0,0,0,70,73,134,110,83,193.61,109,32.00,-6.00,-1034.00
2024-05-17 17:15:48.050717,6,0,-43,0,0,0,70,73,135,110,83,193.53,109,10.00,17.00,-1037.00
2024-05-17 17:15:48.151156,8,0,-43,-1,1,0,70,73,136,110,83,193.52,109,-50.00,14.00,-1045.00
2024-05-17 17:15:48.255703,8,0,-43,-2,2,0,70,73,137,110,83,193.53,110,13.00,-15.00,-1019.00
2024-05-17 17:15:48.355695,7,0,-43,-3,3,0,70,73,136,110,83,193.48,110,55.00,-34.00,-1021.00
2024-05-17 17:15:48.457296,6,0,-43,-4,4,0,70,73,135,110,83,193.46,110,34.00,0.00,-1012.00
2024-05-17 17:15:48.591680,5,0,-43,-4,4,0,70,73,133,110,83,193.48,110,37.00,5.00,-1089.00
2024-05-17 17:15:48.665944,5,0,-43,-5,4,0,70,73,134,110,83,193.57,110,50.00,10.00,-982.00
2024-05-17 17:15:48.764693,3,0,-43,-5,4,0,70,73,134,110,83,193.55,110,-22.00,28.00,-993.00
2024-05-17 17:15:48.865091,0,0,-43,-5,4,0,70,73,134,110,83,193.49,110,15.00,8.00,-997.00
2024-05-17 17:15:49.002971,-2,0,-43,-4,4,0,70,73,133,110,83,193.47,110,89.00,8.00,-1009.00
2024-05-17 17:15:49.069086,-3,0,-43,-4,3,0,70,73,133,110,83,193.52,110,49.00,26.00,-991.00
2024-05-17 17:15:49.207526,-3,0,-43,-3,2,0,70,73,132,110,83,193.51,110,69.00,-8.00,-1036.00
2024-05-17 17:15:49.273680,-2,0,-43,-2,2,0,70,73,133,110,83,193.44,111,-10.00,6.00,-984.00
2024-05-17 17:15:49.411929,0,0,-43,-2,1,0,71,72,134,110,83,193.52,111,16.00,29.00,-1053.00
2024-05-17 17:15:49.477036,0,0,-42,-2,1,0,71,72,134,120,83,193.50,111,23.00,28.00,-980.00
2024-05-17 17:15:49.579188,0,1,-43,-2,1,0,71,72,135,120,83,193.53,111,42.00,-12.00,-1029.00
2024-05-17 17:15:49.719934,0,1,-43,-2,2,0,71,72,135,120,83,193.43,111,2.00,33.00,-1018.00
2024-05-17 17:15:49.783051,0,1,-43,-2,2,0,71,72,135,120,83,193.58,111,-3.00,15.00,-975.00
2024-05-17 17:15:49.924281,0,1,-43,-1,2,0,71,72,134,120,83,193.60,111,50.00,-45.00,-972.00
2024-05-17 17:15:49.987707,-2,2,-43,-1,2,0,71,72,133,120,83,193.53,111,3.00,26.00,-1016.00
2024-05-17 17:15:50.129143,-5,-2,-42,0,2,0,71,72,133,120,83,193.50,111,107.00,-67.00,-1020.00
2024-05-17 17:15:50.140009,-3,-1,-42,0,1,0,71,72,133,110,83,193.51,111,2.00,1.00,-1017.00
2024-05-17 17:15:50.242291,-2,0,-42,0,0,0,71,72,132,110,83,193.55,112,18.00,16.00,-961.00
2024-05-17 17:15:50.436047,-1,0,-42,0,0,0,71,72,131,110,83,193.51,112,-55.00,53.00,-1003.00
2024-05-17 17:15:50.446058,0,0,-43,0,0,0,71,72,131,110,83,193.58,112,-51.00,24.00,-921.00
2024-05-17 17:15:50.640432,0,0,-43,0,0,0,71,72,131,120,83,193.51,112,-20.00,6.00,-921.00
2024-05-17 17:15:50.650510,0,0,-43,0,0,0,71,72,131,120,83,193.43,112,-34.00,31.00,-944.00
2024-05-17 17:15:50.752311,-1,0,-43,0,0,0,71,72,130,110,83,193.51,112,20.00,-6.00,-996.00
2024-05-17 17:15:50.854524,-1,0,-42,0,0,0,71,72,129,110,83,193.44,112,20.00,-32.00,-1006.00
2024-05-17 17:15:50.956087,-1,0,-43,0,0,0,71,72,129,110,83,193.46,112,9.00,-5.00,-1043.00
2024-05-17 17:15:51.058514,-1,0,-42,0,0,0,71,72,128,110,83,193.52,112,25.00,-17.00,-1053.00
2024-05-17 17:15:51.254499,-1,0,-43,0,0,0,71,72,128,110,83,193.44,112,0.00,-16.00,-979.00
2024-05-17 17:15:51.265104,-1,0,-43,0,0,0,71,72,128,110,83,193.51,113,42.00,-19.00,-1005.00
2024-05-17 17:15:51.366189,-1,0,-43,0,0,0,71,73,129,110,83,193.48,113,11.00,3.00,-1057.00
2024-05-17 17:15:51.468614,-1,0,-43,0,0,0,71,73,129,110,83,193.44,113,-35.00,29.00,-923.00
2024-05-17 17:15:51.571072,-1,0,-43,0,0,0,71,73,129,110,83,193.47,113,-3.00,-11.00,-977.00
2024-05-17 17:15:51.673134,-1,0,-43,0,0,0,71,73,129,110,83,193.39,113,-10.00,7.00,-1017.00
2024-05-17 17:15:51.776098,0,0,-43,0,0,0,71,73,130,110,83,193.48,113,11.00,8.00,-967.00
2024-05-17 17:15:51.877423,0,0,-43,0,0,0,71,73,130,110,83,193.46,113,49.00,-37.00,-1004.00
2024-05-17 17:15:51.976140,0,0,-43,0,0,0,71,73,130,110,83,193.44,113,69.00,-35.00,-1062.00
2024-05-17 17:15:52.078018,-1,0,-43,0,0,0,71,73,131,110,83,193.48,113,28.00,-34.00,-946.00
2024-05-17 17:15:52.180054,-1,0,-43,0,0,0,71,73,131,110,83,193.48,113,45.00,-8.00,-974.00
2024-05-17 17:15:52.282013,-1,0,-43,0,0,0,71,73,131,110,83,193.50,114,15.00,-30.00,-1005.00
2024-05-17 17:15:52.383907,0,-3,-43,0,0,0,70,73,132,110,83,193.47,114,32.00,0.00,-952.00
2024-05-17 17:15:52.486497,0,-8,-43,0,-1,0,70,73,135,110,83,193.56,114,-50.00,15.00,-1038.00
2024-05-17 17:15:52.588064,0,-6,-43,-1,-1,0,70,73,134,110,83,193.50,114,-12.00,12.00,-1047.00
2024-05-17 17:15:52.689962,0,-4,-43,-2,-2,0,70,73,133,110,83,193.54,114,23.00,17.00,-1043.00
2024-05-17 17:15:52.791884,0,-1,-43,-2,-3,0,70,73,133,110,83,193.50,114,12.00,35.00,-997.00
2024-05-17 17:15:52.996324,0,1,-43,-2,-2,0,70,73,134,110,83,193.50,114,57.00,-16.00,-1019.00
2024-05-17 17:15:52.996468,0,1,-43,-2,-2,0,70,73,134,110,83,193.50,114,-60.00,29.00,-962.00
2024-05-17 17:15:53.098297,0,0,-43,-1,-2,0,70,73,134,110,83,193.46,114,18.00,16.00,-1071.00
2024-05-17 17:15:53.200438,0,0,-43,-1,-1,0,70,73,133,120,83,193.51,114,-34.00,20.00,-970.00
2024-05-17 17:15:53.302125,0,0,-43,-1,-1,0,70,73,133,120,83,193.53,115,51.00,-18.00,-966.00
2024-05-17 17:15:53.408059,0,0,-43,-1,-1,0,71,73,133,120,83,193.53,115,34.00,12.00,-1018.00
2024-05-17 17:15:53.506552,0,0,-43,-1,-2,0,71,73,133,120,83,193.52,115,-37.00,46.00,-1008.00
2024-05-17 17:15:53.610267,0,0,-43,-1,-1,0,71,73,134,120,83,193.49,115,-70.00,45.00,-949.00
2024-05-17 17:15:53.712106,-1,0,-43,-1,-1,0,71,73,134,120,83,193.49,115,96.00,-16.00,-1001.00
2024-05-17 17:15:53.814317,-2,0,-43,-1,-1,0,71,73,134,120,83,193.45,115,-44.00,29.00,-1012.00
2024-05-17 17:15:53.862785,-3,0,-43,-1,-2,0,71,73,134,120,83,193.42,115,-102.00,101.00,-933.00
2024-05-17 17:15:54.018874,-2,0,-43,0,-2,0,71,73,135,120,83,193.45,115,-19.00,34.00,-972.00
2024-05-17 17:15:54.071153,1,3,-43,0,-2,0,71,73,136,120,83,193.50,115,25.00,8.00,-982.00
2024-05-17 17:15:54.168861,2,3,-43,0,-1,0,71,73,137,120,83,193.56,115,16.00,41.00,-1042.00
2024-05-17 17:15:54.271380,0,1,-43,0,0,0,71,73,138,120,83,193.49,116,-14.00,17.00,-1038.00
2024-05-17 17:15:54.430032,0,0,-43,0,0,0,71,73,135,120,83,193.52,116,-32.00,77.00,-988.00
2024-05-17 17:15:54.474819,0,0,-43,0,0,0,71,73,136,120,83,193.54,116,-30.00,23.00,-844.00
2024-05-17 17:15:54.634514,0,0,-43,0,0,0,71,73,136,120,83,193.52,116,-18.00,32.00,-1058.00
2024-05-17 17:15:54.678879,0,0,-43,0,0,0,71,73,137,120,83,193.57,116,-6.00,13.00,-1011.00
2024-05-17 17:15:54.780850,0,0,-42,0,0,0,71,73,138,120,83,193.56,116,-5.00,17.00,-1005.00
2024-05-17 17:15:54.942027,0,0,-42,0,0,0,71,73,138,120,83,193.56,116,-37.00,13.00,-1063.00
2024-05-17 17:15:54.984860,0,0,-42,0,0,0,71,73,138,120,83,193.61,116,12.00,0.00,-983.00
2024-05-17 17:15:55.146205,0,0,-42,0,0,0,71,73,138,120,83,193.57,116,-7.00,17.00,-990.00
2024-05-17 17:15:55.189046,0,0,-42,0,0,0,71,73,137,120,83,193.63,116,-25.00,4.00,-968.00
2024-05-17 17:15:55.353414,0,0,-42,0,0,0,71,73,138,120,83,193.58,117,-49.00,16.00,-975.00
2024-05-17 17:15:55.393315,0,0,-42,0,0,0,71,73,138,120,83,193.51,117,0.00,24.00,-1050.00
2024-05-17 17:15:55.555620,0,0,-42,0,0,0,71,73,138,120,83,193.58,117,-26.00,34.00,-950.00
2024-05-17 17:15:55.596874,0,0,-42,0,0,0,71,73,138,120,83,193.55,117,68.00,-42.00,-997.00
2024-05-17 17:15:55.759747,1,0,-42,0,0,0,71,73,142,120,83,193.57,117,27.00,-11.00,-969.00
2024-05-17 17:15:55.801113,2,1,-42,0,0,0,71,73,141,120,83,193.57,117,58.00,-12.00,-997.00
2024-05-17 17:15:55.966504,2,1,-42,0,0,0,71,73,141,120,83,193.57,117,23.00,-6.00,-1003.00
2024-05-17 17:15:56.004857,2,0,-42,0,0,0,71,73,141,120,83,193.58,117,47.00,-32.00,-932.00
2024-05-17 17:15:56.108518,1,0,-43,0,0,0,71,73,141,120,83,193.58,117,2.00,9.00,-1020.00
2024-05-17 17:15:56.208775,0,0,-43,0,0,0,71,73,139,120,83,193.55,117,0.00,-9.00,-1020.00
2024-05-17 17:15:56.310719,0,0,-43,0,0,0,71,73,138,120,83,193.55,118,-23.00,15.00,-995.00
2024-05-17 17:15:56.476365,0,0,-43,0,0,0,71,73,138,120,83,193.51,118,-51.00,26.00,-867.00
2024-05-17 17:15:56.514639,-1,6,-43,0,0,0,71,73,138,120,82,193.60,118,-2.00,-5.00,-1050.00
2024-05-17 17:15:56.618222,0,7,-43,1,1,0,71,73,138,120,82,193.60,118,14.00,-1.00,-936.00
2024-05-17 17:15:56.719113,0,4,-42,2,2,0,71,73,139,120,82,193.54,118,62.00,-21.00,-1042.00
2024-05-17 17:15:56.821140,0,2,-42,2,2,0,71,73,138,120,82,193.53,118,-3.00,-8.00,-989.00
2024-05-17 17:15:56.924634,0,0,-42,2,2,0,71,73,140,120,82,193.53,118,38.00,-52.00,-957.00
2024-05-17 17:15:57.024633,0,0,-42,2,2,0,71,73,137,120,82,193.63,118,12.00,-46.00,-963.00
2024-05-17 17:15:57.127254,-1,0,-42,1,3,0,71,73,138,120,82,193.61,118,-35.00,-6.00,-1017.00
2024-05-17 17:15:57.228795,-2,0,-42,1,2,0,71,73,139,120,82,193.60,118,-37.00,16.00,-1006.00
2024-05-17 17:15:57.330649,-2,0,-42,1,1,0,71,73,140,120,82,193.54,119,-27.00,-2.00,-1019.00
2024-05-17 17:15:57.501868,-1,0,-42,2,1,0,70,73,141,120,82,193.59,119,-40.00,2.00,-1052.00
2024-05-17 17:15:57.534616,0,0,-42,2,1,0,70,73,141,120,82,193.58,119,13.00,-12.00,-1018.00
2024-05-17 17:15:57.707705,0,0,-42,2,1,0,70,73,141,120,82,193.53,119,47.00,-71.00,-1020.00
2024-05-17 17:15:57.707932,0,0,-42,2,1,0,70,73,141,120,82,193.56,119,-1.00,9.00,-997.00
2024-05-17 17:15:57.789817,0,0,-42,1,2,0,70,73,140,120,82,193.56,119,24.00,-33.00,-1033.00
2024-05-17 17:15:57.910075,-3,-1,-42,1,2,0,70,73,140,120,82,193.61,119,-9.00,3.00,-927.00
2024-05-17 17:15:57.993677,0,-5,-42,1,1,0,70,73,138,120,82,193.55,119,-10.00,-38.00,-969.00
2024-05-17 17:15:58.117581,0,-3,-42,0,0,0,70,73,139,120,82,193.60,119,-19.00,25.00,-1070.00
2024-05-17 17:15:58.198604,0,-1,-42,0,0,0,70,73,137,120,82,193.51,119,-62.00,68.00,-1031.00
2024-05-17 17:15:58.321253,0,0,-42,0,0,0,70,73,137,120,82,193.54,120,25.00,-20.00,-974.00
2024-05-17 17:15:58.402496,-1,0,-42,0,0,0,71,73,138,120,82,193.50,120,10.00,27.00,-1050.00
2024-05-17 17:15:58.527741,-1,0,-43,0,0,0,71,73,137,120,82,193.47,120,-3.00,0.00,-1033.00
2024-05-17 17:15:58.605663,-1,0,-43,0,0,0,71,73,137,120,82,193.51,120,19.00,-30.00,-980.00
2024-05-17 17:15:58.730731,-2,-1,-43,0,0,0,71,73,137,120,82,193.49,120,16.00,-5.00,-998.00
2024-05-17 17:15:58.813258,-1,-1,-43,0,0,0,71,73,136,120,82,193.46,120,13.00,-31.00,-934.00
2024-05-17 17:15:58.911647,-1,0,-43,0,0,0,71,73,135,120,82,193.47,120,-35.00,24.00,-988.00
2024-05-17 17:15:59.036457,-1,0,-43,0,0,0,71,73,135,120,82,193.46,120,41.00,-41.00,-988.00
2024-05-17 17:15:59.115635,-1,-1,-43,0,0,0,71,73,134,120,82,193.48,120,-51.00,26.00,-1001.00
2024-05-17 17:15:59.242213,-1,0,-43,0,0,0,71,73,134,120,82,193.52,120,-92.00,66.00,-991.00
2024-05-17 17:15:59.319671,-2,-1,-43,0,0,0,71,73,134,120,82,193.53,121,9.00,-22.00,-968.00
2024-05-17 17:15:59.446013,-2,-2,-43,0,0,0,72,74,134,110,82,193.50,121,2.00,-13.00,-976.00
2024-05-17 17:15:59.525360,-2,-1,-43,0,0,0,72,74,133,110,82,193.50,121,-56.00,55.00,-1015.00
2024-05-17 17:15:59.652962,-1,0,-43,0,0,0,72,74,132,110,82,193.52,121,-72.00,35.00,-993.00
2024-05-17 17:15:59.728075,0,0,-43,0,0,0,72,74,132,110,82,193.49,121,-67.00,68.00,-1032.00
2024-05-17 17:15:59.829707,0,0,-43,0,0,0,72,74,132,110,82,193.52,121,-41.00,35.00,-963.00
2024-05-17 17:15:59.959758,0,0,-43,0,0,0,72,74,132,110,82,193.50,121,1.00,0.00,-967.00
2024-05-17 17:16:00.034524,0,0,-43,0,0,0,72,74,132,110,82,193.49,121,-20.00,20.00,-996.00
2024-05-17 17:16:00.136670,0,0,-43,0,0,0,72,74,133,110,82,193.42,121,30.00,-3.00,-1021.00
2024-05-17 17:16:00.237850,-1,-1,-43,0,0,0,72,74,132,110,82,193.43,121,-41.00,44.00,-1027.00
2024-05-17 17:16:00.339461,0,0,-41,0,0,0,72,74,133,110,82,193.49,122,11.00,11.00,-1043.00
2024-05-17 17:16:00.470091,-1,-1,-35,0,0,0,71,73,133,110,82,193.52,122,-45.00,20.00,-902.00
2024-05-17 17:16:00.543573,-1,-1,-29,0,0,0,71,73,133,110,81,193.45,122,-28.00,37.00,-1055.00
2024-05-17 17:16:00.674757,-1,-1,-24,0,0,0,71,73,132,110,81,193.47,122,16.00,-6.00,-1071.00
2024-05-17 17:16:00.747669,0,-1,-18,0,0,0,71,73,133,110,81,193.46,122,16.00,-19.00,-967.00
2024-05-17 17:16:00.882763,0,0,-12,0,0,0,71,73,133,110,81,193.42,122,14.00,-4.00,-1032.00
2024-05-17 17:16:00.951386,0,0,-7,0,0,0,71,73,133,110,81,193.43,122,-62.00,41.00,-938.00
2024-05-17 17:16:01.084308,0,0,-1,0,0,0,71,73,133,110,81,193.49,122,-58.00,45.00,-895.00
2024-05-17 17:16:01.155365,0,0,4,0,0,0,71,73,133,110,81,193.44,122,-26.00,15.00,-1034.00
2024-05-17 17:16:01.206373,0,0,10,0,0,0,71,73,133,110,81,193.46,122,1.00,16.00,-951.00
2024-05-17 17:16:01.308365,0,0,15,0,0,0,71,73,133,110,81,193.46,123,41.00,-14.00,-1002.00
2024-05-17 17:16:01.496021,0,0,27,0,0,0,71,73,133,120,81,193.48,123,-14.00,52.00,-939.00
2024-05-17 17:16:01.566018,0,0,33,0,0,0,71,73,134,120,81,193.46,123,-5.00,7.00,-1050.00
2024-05-17 17:16:01.665525,0,0,39,0,0,0,71,73,134,120,81,193.50,123,12.00,-19.00,-997.00
2024-05-17 17:16:01.716731,0,0,45,0,0,0,71,73,133,120,81,193.46,123,-17.00,3.00,-976.00
2024-05-17 17:16:01.824273,0,0,50,0,0,0,71,73,134,110,81,193.46,123,-32.00,24.00,-1011.00
2024-05-17 17:16:01.920466,0,0,56,0,0,0,71,73,134,110,81,193.43,123,-39.00,15.00,-1034.00
2024-05-17 17:16:02.108312,0,0,62,0,0,0,71,73,133,110,81,193.50,123,-16.00,31.00,-985.00
2024-05-17 17:16:02.125251,0,0,68,0,0,0,71,73,133,110,81,193.46,123,-38.00,14.00,-1027.00
2024-05-17 17:16:02.313219,0,0,74,0,0,0,71,73,132,110,81,193.49,124,23.00,-13.00,-972.00
2024-05-17 17:16:02.328537,0,0,79,0,0,0,71,73,132,110,81,193.45,124,-6.00,-14.00,-955.00
2024-05-17 17:16:02.517927,0,0,85,0,0,0,71,73,131,110,81,193.52,124,37.00,-22.00,-1060.00
2024-05-17 17:16:02.532419,0,0,91,0,0,0,71,73,131,110,81,193.47,124,-2.00,-3.00,-1011.00
2024-05-17 17:16:02.722694,0,0,97,0,0,0,71,73,131,110,81,193.48,124,7.00,-28.00,-1055.00
2024-05-17 17:16:02.737105,0,0,103,0,0,0,71,73,131,110,81,193.44,124,-36.00,16.00,-991.00
2024-05-17 17:16:02.838345,0,0,109,0,0,0,71,73,132,110,81,193.55,124,-61.00,23.00,-991.00
2024-05-17 17:16:03.031489,0,0,114,0,0,0,71,73,132,110,81,193.48,124,-89.00,40.00,-995.00
2024-05-17 17:16:03.042331,0,0,120,0,0,0,71,73,132,110,81,193.48,124,10.00,0.00,-953.00
2024-05-17 17:16:03.234768,0,0,126,0,0,0,71,73,133,110,81,193.46,124,-30.00,-15.00,-1018.00
2024-05-17 17:16:03.247373,0,0,132,0,0,0,71,73,133,110,81,193.43,125,20.00,-10.00,-1009.00
2024-05-17 17:16:03.439450,0,1,138,0,0,0,71,73,135,110,81,193.50,125,-5.00,0.00,-1019.00
2024-05-17 17:16:03.450285,1,1,144,0,0,0,71,73,136,120,81,193.56,125,-26.00,-26.00,-950.00
2024-05-17 17:16:03.644289,1,1,150,0,0,0,71,73,135,120,81,193.53,125,61.00,-23.00,-1096.00
2024-05-17 17:16:03.654438,0,1,156,0,0,0,71,73,135,120,81,193.43,125,36.00,-13.00,-1039.00
2024-05-17 17:16:03.757868,0,1,161,0,0,0,71,73,135,120,81,193.48,125,-90.00,24.00,-1016.00
2024-05-17 17:16:03.859372,0,1,167,0,0,0,71,73,135,120,81,193.48,125,-10.00,-5.00,-1030.00
2024-05-17 17:16:03.960356,0,1,173,0,0,0,71,73,136,120,81,193.43,125,-12.00,-26.00,-973.00
2024-05-17 17:16:04.062330,0,1,178,0,0,0,71,73,136,120,81,193.51,125,70.00,-68.00,-1056.00
2024-05-17 17:16:04.164237,0,1,-175,0,0,0,71,73,136,120,81,193.38,125,6.00,-3.00,-1045.00
2024-05-17 17:16:04.361067,0,1,-169,0,0,0,71,73,135,120,81,193.46,126,18.00,21.00,-999.00
2024-05-17 17:16:04.371517,0,1,-163,0,0,0,71,73,135,110,81,193.43,126,25.00,-38.00,-997.00
2024-05-17 17:16:04.470320,0,1,-157,0,0,0,71,73,136,110,81,193.50,126,-85.00,33.00,-1004.00
2024-05-17 17:16:04.668743,0,1,-150,0,0,0,71,73,136,110,81,193.40,126,-41.00,31.00,-1009.00
2024-05-17 17:16:04.674204,0,1,-144,0,0,0,71,73,137,120,81,193.37,126,-23.00,6.00,-978.00
2024-05-17 17:16:04.776682,-1,1,-138,0,0,0,71,73,135,120,81,193.46,126,-23.00,0.00,-990.00
2024-05-17 17:16:04.975972,-1,1,-131,0,0,0,71,73,136,120,81,193.45,126,-46.00,2.00,-1015.00
2024-05-17 17:16:04.981686,-1,1,-125,0,0,0,71,73,136,120,81,193.42,126,-47.00,15.00,-1028.00
2024-05-17 17:16:05.082437,-1,0,-118,0,0,0,71,73,133,120,81,193.39,126,7.00,-11.00,-1021.00
2024-05-17 17:16:05.282676,-1,0,-112,0,0,0,71,73,134,120,81,193.45,126,-80.00,53.00,-994.00
2024-05-17 17:16:05.286194,-1,0,-106,0,0,0,71,73,134,120,81,193.46,127,35.00,-38.00,-956.00
2024-05-17 17:16:05.388192,-1,0,-99,0,0,0,71,73,133,120,81,193.52,127,-28.00,23.00,-1035.00
2024-05-17 17:16:05.490232,-1,0,-93,0,0,0,71,73,133,120,81,193.50,127,-16.00,-1.00,-996.00
2024-05-17 17:16:05.541293,-1,0,-87,0,0,0,71,73,133,120,81,193.55,127,-34.00,35.00,-1071.00
2024-05-17 17:16:05.692262,0,0,-81,0,0,0,71,73,133,120,81,193.54,127,1.00,8.00,-1010.00
2024-05-17 17:16:05.745582,0,0,-75,0,0,0,71,73,133,120,81,193.48,127,9.00,-8.00,-1073.00
2024-05-17 17:16:05.848073,0,0,-68,0,0,0,71,73,132,120,81,193.48,127,-13.00,17.00,-1027.00
2024-05-17 17:16:05.999521,0,0,-62,0,0,0,71,73,133,110,81,193.45,127,-21.00,17.00,-1006.00
2024-05-17 17:16:06.051140,0,0,-58,0,0,0,71,73,132,110,81,193.42,127,62.00,-34.00,-1027.00
2024-05-17 17:16:06.204237,0,0,-54,0,0,0,71,73,133,110,81,193.44,127,26.00,-4.00,-1039.00
2024-05-17 17:16:06.256669,0,0,-52,0,0,0,71,73,133,110,81,193.44,128,-80.00,57.00,-998.00
2024-05-17 17:16:06.358346,0,0,-50,0,0,0,71,73,133,110,81,193.40,128,6.00,-17.00,-984.00
2024-05-17 17:16:06.460797,0,0,-48,0,0,0,71,74,133,110,81,193.43,128,62.00,-13.00,-1038.00
2024-05-17 17:16:06.614048,0,0,-47,0,0,0,71,74,133,110,80,193.44,128,-14.00,18.00,-1001.00
2024-05-17 17:16:06.663164,0,0,-47,0,0,0,71,74,134,110,80,193.43,128,3.00,20.00,-1007.00
2024-05-17 17:16:06.820315,0,0,-46,0,0,0,71,74,134,120,80,193.43,128,-78.00,11.00,-973.00
2024-05-17 17:16:06.872332,0,0,-46,0,0,0,71,74,134,120,80,193.49,128,8.00,-20.00,-929.00
2024-05-17 17:16:06.970116,0,0,-45,0,0,0,71,74,134,120,80,193.43,128,-15.00,0.00,-989.00
2024-05-17 17:16:07.128746,0,0,-45,0,0,0,71,74,134,120,80,193.43,128,-1.00,11.00,-999.00
2024-05-17 17:16:07.173115,0,0,-45,0,0,0,71,74,134,120,80,193.51,128,-51.00,6.00,-935.00
2024-05-17 17:16:07.275372,0,0,-45,0,0,0,71,74,133,120,80,193.45,129,27.00,36.00,-1078.00
2024-05-17 17:16:07.436540,0,0,-45,0,0,0,71,74,133,120,80,193.50,129,-50.00,14.00,-1004.00
2024-05-17 17:16:07.479217,0,0,-45,0,0,0,71,73,133,120,80,193.48,129,-12.00,12.00,-955.00
2024-05-17 17:16:07.653275,0,0,-45,0,0,0,71,73,132,120,80,193.44,129,36.00,-13.00,-1004.00
2024-05-17 17:16:07.691081,0,0,-45,0,0,0,71,73,133,120,80,193.44,129,0.00,26.00,-986.00
2024-05-17 17:16:07.785383,0,0,-45,0,0,0,71,73,132,110,80,193.42,129,43.00,-9.00,-1010.00
2024-05-17 17:16:07.887601,0,0,-45,0,0,0,71,73,132,110,80,193.45,129,-15.00,31.00,-975.00
2024-05-17 17:16:07.989202,0,0,-45,0,0,0,71,73,132,110,80,193.46,129,-81.00,9.00,-972.00
2024-05-17 17:16:08.150223,0,0,-45,0,0,0,71,73,131,110,80,193.46,129,-43.00,30.00,-1014.00
2024-05-17 17:16:08.193371,0,0,-45,0,0,0,71,73,130,110,80,193.41,129,54.00,-31.00,-1047.00
2024-05-17 17:16:08.358528,0,0,-45,0,0,0,71,73,130,110,80,193.40,130,4.00,5.00,-1040.00
2024-05-17 17:16:08.397166,0,0,-45,0,0,0,71,73,130,110,80,193.40,130,-9.00,34.00,-991.00
2024-05-17 17:16:08.559577,0,-1,-45,0,0,0,70,73,130,110,80,193.41,130,11.00,29.00,-987.00
2024-05-17 17:16:08.603060,0,0,-45,0,0,0,70,73,130,110,80,193.44,130,-1.00,13.00,-985.00
2024-05-17 17:16:08.707597,0,0,-45,0,0,0,70,73,130,110,80,193.40,130,-40.00,60.00,-979.00
2024-05-17 17:16:08.806449,0,0,-45,0,0,0,70,73,129,110,80,193.43,130,-26.00,16.00,-952.00
2024-05-17 17:16:08.969777,0,0,-45,0,0,0,70,73,130,110,80,193.39,130,-25.00,17.00,-989.00
2024-05-17 17:16:09.013551,0,0,-45,0,0,0,70,73,130,110,80,193.49,130,0.00,40.00,-965.00
2024-05-17 17:16:09.111132,0,0,-45,0,0,0,70,73,130,110,80,193.47,130,-105.00,27.00,-982.00
2024-05-17 17:16:09.162101,0,0,-45,0,0,0,70,73,130,110,80,193.38,130,10.00,8.00,-1004.00
2024-05-17 17:16:09.264264,0,0,-45,0,0,0,70,73,130,110,80,193.43,131,25.00,-10.00,-1033.00
2024-05-17 17:16:09.379822,0,0,-46,0,0,0,70,73,130,110,80,193.46,131,-6.00,22.00,-1032.00
2024-05-17 17:16:09.520084,0,-1,-52,0,0,0,71,73,131,110,80,193.49,131,48.00,-36.00,-959.00
2024-05-17 17:16:09.685816,0,0,-58,0,0,0,71,73,130,110,80,193.37,131,34.00,3.00,-999.00
2024-05-17 17:16:09.723244,0,0,-64,0,0,0,71,73,130,110,80,193.37,131,-4.00,8.00,-948.00
2024-05-17 17:16:09.829550,0,0,-70,0,0,0,71,73,129,110,80,193.47,131,-59.00,48.00,-1057.00
2024-05-17 17:16:09.876350,0,0,-76,0,0,0,71,73,129,110,80,193.38,131,6.00,-41.00,-958.00
2024-05-17 17:16:09.993418,-1,0,-82,0,0,0,71,73,129,110,80,193.43,131,22.00,-25.00,-1018.00
2024-05-17 17:16:10.091890,-1,0,-88,0,0,0,71,73,128,110,80,193.48,131,-14.00,-1.00,-1075.00
2024-05-17 17:16:10.181966,-1,0,-94,0,0,0,71,73,128,110,80,193.55,131,12.00,-5.00,-1071.00
2024-05-17 17:16:10.303282,-1,0,-99,0,0,0,71,73,128,110,80,193.49,132,-13.00,7.00,-982.00
2024-05-17 17:16:10.388731,0,0,-105,0,0,0,71,73,129,110,80,193.39,132,7.00,4.00,-1052.00
2024-05-17 17:16:10.489207,0,0,-110,0,0,0,71,73,129,110,80,193.35,132,-51.00,35.00,-981.00
2024-05-17 17:16:10.590397,-1,0,-116,0,0,0,71,73,129,110,80,193.49,132,8.00,-18.00,-995.00
2024-05-17 17:16:10.692178,-1,0,-122,0,0,0,71,73,129,110,80,193.49,132,0.00,-20.00,-963.00
2024-05-17 17:16:10.801771,0,0,-127,0,0,0,71,73,130,110,80,193.44,132,18.00,-7.00,-1058.00
2024-05-17 17:16:10.902672,1,1,-133,0,0,0,71,73,132,110,80,193.44,132,16.00,-28.00,-990.00
2024-05-17 17:16:10.997849,1,1,-138,0,0,0,71,73,134,110,80,193.46,132,-69.00,17.00,-945.00
2024-05-17 17:16:11.120628,1,1,-144,0,0,0,71,73,135,110,80,193.37,132,18.00,-34.00,-1000.00
2024-05-17 17:16:11.201835,1,1,-149,0,0,0,71,73,134,110,80,193.49,132,14.00,-29.00,-1027.00
2024-05-17 17:16:11.324249,1,1,-155,0,0,0,71,73,135,110,80,193.52,133,20.00,-8.00,-1063.00
2024-05-17 17:16:11.405887,0,1,-161,0,0,0,71,73,136,110,80,193.47,133,12.00,2.00,-1040.00
2024-05-17 17:16:11.528965,0,0,-167,0,0,0,71,73,137,120,80,193.48,133,14.00,-5.00,-1051.00
2024-05-17 17:16:11.610836,-1,0,-173,1,0,0,71,73,137,120,80,193.50,133,28.00,-35.00,-968.00
2024-05-17 17:16:11.735538,-2,0,-179,0,0,0,71,73,137,120,80,193.58,133,-31.00,28.00,-1014.00
2024-05-17 17:16:11.814941,-1,0,175,0,0,0,71,73,138,120,80,193.52,133,-42.00,-12.00,-948.00
2024-05-17 17:16:11.941725,-1,0,169,0,0,0,71,73,138,120,80,193.52,133,53.00,-16.00,-991.00
2024-05-17 17:16:12.018842,-1,0,163,0,0,0,71,73,138,120,80,193.52,133,-60.00,17.00,-1009.00
2024-05-17 17:16:12.121408,0,0,157,0,0,0,71,73,138,120,80,193.52,133,-28.00,-26.00,-941.00
2024-05-17 17:16:12.245760,0,0,151,0,0,0,71,73,138,120,80,193.48,133,-23.00,37.00,-1062.00
2024-05-17 17:16:12.324893,0,0,145,0,0,0,71,73,138,120,80,193.49,134,6.00,-32.00,-1012.00
2024-05-17 17:16:12.450599,0,0,139,0,0,0,71,73,138,120,80,193.44,134,-36.00,19.00,-1027.00
2024-05-17 17:16:12.528886,0,0,133,0,0,0,71,73,137,120,80,193.44,134,-29.00,-15.00,-1001.00
2024-05-17 17:16:12.655337,0,0,127,0,0,0,71,73,137,120,80,193.44,134,-22.00,-6.00,-980.00
2024-05-17 17:16:12.732867,0,0,121,0,0,0,71,73,137,120,80,193.56,134,-61.00,3.00,-1018.00
2024-05-17 17:16:12.836048,0,0,115,0,0,0,71,73,137,120,80,193.47,134,-69.00,18.00,-984.00
2024-05-17 17:16:12.962548,0,0,109,0,0,0,71,73,137,120,80,193.50,134,18.00,-20.00,-1062.00
2024-05-17 17:16:13.042496,0,0,103,0,0,0,71,73,137,120,80,193.50,134,81.00,-77.00,-974.00
2024-05-17 17:16:13.140842,0,0,97,0,0,0,71,73,136,120,80,193.41,134,-11.00,-9.00,-1010.00
2024-05-17 17:16:13.279723,0,0,92,0,0,0,71,73,135,120,80,193.42,134,72.00,-67.00,-979.00
2024-05-17 17:16:13.344716,0,0,86,0,0,0,71,73,135,120,80,193.47,135,62.00,-48.00,-1017.00
2024-05-17 17:16:13.475828,1,1,80,0,0,0,71,73,135,120,80,193.43,135,22.00,-31.00,-976.00
2024-05-17 17:16:13.548905,1,1,74,0,0,0,72,73,133,120,80,193.41,135,9.00,-19.00,-1052.00
2024-05-17 17:16:13.679443,0,0,68,0,0,0,72,73,131,110,80,193.42,135,3.00,-8.00,-1026.00
2024-05-17 17:16:13.702404,0,0,62,0,0,0,72,73,131,110,80,193.39,135,48.00,-43.00,-1052.00
2024-05-17 17:16:13.804156,0,0,56,0,0,0,72,73,133,110,80,193.42,135,29.00,-21.00,-983.00
2024-05-17 17:16:13.986556,0,1,50,0,0,0,72,73,131,110,80,193.44,135,-7.00,25.00,-1066.00
2024-05-17 17:16:14.007792,1,1,44,0,0,0,72,73,133,110,80,193.47,135,-22.00,-1.00,-993.00
2024-05-17 17:16:14.191267,1,0,38,0,0,0,72,73,130,110,80,193.49,135,26.00,-25.00,-948.00
2024-05-17 17:16:14.213864,0,0,32,0,0,0,72,73,131,110,80,193.42,135,-30.00,24.00,-995.00
2024-05-17 17:16:14.313792,0,0,26,0,0,0,72,73,131,110,80,193.50,136,-14.00,34.00,-1012.00
2024-05-17 17:16:14.502459,0,0,20,0,0,0,72,73,131,110,80,193.44,136,68.00,-37.00,-997.00
2024-05-17 17:16:14.519480,0,0,14,0,0,0,71,74,132,110,79,193.41,136,23.00,-8.00,-1003.00
2024-05-17 17:16:14.619856,0,0,8,0,0,0,71,74,134,110,79,193.49,136,-62.00,38.00,-965.00
2024-05-17 17:16:14.805671,1,0,-4,0,0,0,71,74,133,110,79,193.44,136,40.00,-11.00,-962.00
2024-05-17 17:16:14.823690,1,-1,-10,0,0,0,71,74,133,110,79,193.39,136,1.00,14.00,-943.00
2024-05-17 17:16:14.926109,0,-1,-16,0,0,0,71,74,134,110,79,193.46,136,57.00,-22.00,-1021.00
2024-05-17 17:16:15.113026,0,-1,-22,0,0,0,71,74,134,120,79,193.40,136,34.00,-7.00,-962.00
2024-05-17 17:16:15.129696,0,0,-27,0,0,0,71,74,134,120,79,193.39,136,39.00,19.00,-1077.00
2024-05-17 17:16:15.231794,0,0,-32,0,0,0,71,74,134,120,79,193.46,137,50.00,0.00,-1020.00
2024-05-17 17:16:15.422459,0,0,-35,0,0,0,71,74,134,120,79,193.45,137,80.00,-31.00,-976.00
2024-05-17 17:16:15.435655,0,-1,-37,0,0,0,71,74,134,120,79,193.44,137,27.00,-6.00,-1009.00
2024-05-17 17:16:15.628357,0,-1,-39,0,0,0,71,74,135,120,79,193.51,137,8.00,7.00,-1008.00
2024-05-17 17:16:15.639629,0,-1,-40,0,0,0,71,74,135,120,79,193.46,137,-40.00,37.00,-945.00
2024-05-17 17:16:15.835131,0,0,-41,0,0,0,71,74,135,120,79,193.48,137,23.00,3.00,-971.00
2024-05-17 17:16:15.847050,0,0,-42,0,0,0,71,74,135,120,79,193.53,137,61.00,-28.00,-1027.00
2024-05-17 17:16:15.945751,0,-1,-43,0,0,0,71,74,136,120,79,193.47,137,29.00,9.00,-956.00
2024-05-17 17:16:16.139543,0,0,-43,0,0,0,71,74,136,120,79,193.56,137,0.00,-6.00,-1023.00
2024-05-17 17:16:16.150960,0,0,-43,0,0,0,71,74,136,120,79,193.52,137,23.00,15.00,-987.00
2024-05-17 17:16:16.252472,0,0,-43,0,0,0,71,74,136,120,79,193.54,138,67.00,1.00,-1036.00
2024-05-17 17:16:16.446223,1,0,-43,0,0,0,71,74,136,120,79,193.54,138,0.00,17.00,-976.00
2024-05-17 17:16:16.459110,1,0,-43,0,0,0,71,74,137,120,79,193.52,138,63.00,-15.00,-1060.00
2024-05-17 17:16:16.559438,0,0,-43,0,0,0,71,73,136,120,79,193.52,138,11.00,39.00,-906.00
2024-05-17 17:16:16.661190,0,0,-43,0,0,0,71,73,137,120,79,193.55,138,-37.00,24.00,-972.00
2024-05-17 17:16:16.855825,0,-1,-43,0,0,0,71,73,137,120,79,193.49,138,-33.00,38.00,-1021.00
2024-05-17 17:16:16.864295,0,0,-43,0,0,0,71,73,137,120,79,193.52,138,-28.00,17.00,-962.00
2024-05-17 17:16:17.062140,0,0,-43,0,0,0,71,73,136,120,79,193.47,138,-10.00,18.00,-1000.00
2024-05-17 17:16:17.067660,0,0,-43,0,0,0,71,73,136,120,79,193.48,138,27.00,12.00,-1093.00
2024-05-17 17:16:17.118792,1,0,-43,0,0,0,71,73,137,120,79,193.46,138,21.00,-17.00,-949.00
2024-05-17 17:16:17.222993,1,0,-43,0,0,0,71,73,137,120,79,193.57,139,-33.00,23.00,-1054.00
2024-05-17 17:16:17.324411,0,0,-43,0,0,0,71,73,136,120,79,193.54,139,-38.00,23.00,-988.00
2024-05-17 17:16:17.425095,0,0,-43,0,0,0,71,73,135,120,79,193.51,139,-12.00,29.00,-955.00
2024-05-17 17:16:17.579755,0,0,-43,0,0,0,71,73,135,120,79,193.51,139,-71.00,42.00,-967.00
2024-05-17 17:16:17.629051,0,0,-43,0,0,0,71,73,135,120,79,193.55,139,-21.00,9.00,-980.00
2024-05-17 17:16:17.777567,0,0,-43,0,0,0,71,73,135,120,79,193.50,139,-38.00,6.00,-942.00
2024-05-17 17:16:17.836683,0,0,-43,0,0,0,71,73,135,120,79,193.50,139,-15.00,8.00,-1029.00
2024-05-17 17:16:17.935940,0,0,-43,0,0,0,71,73,135,120,79,193.52,139,-57.00,44.00,-838.00
2024-05-17 17:16:18.037786,0,0,-43,0,0,0,71,73,135,120,79,193.59,139,52.00,-16.00,-1035.00
2024-05-17 17:16:18.186783,0,0,-43,0,0,-5,71,73,136,120,79,193.66,139,-45.00,72.00,-1591.00
2024-05-17 17:16:18.240617,0,-19,-43,0,0,-11,71,73,145,130,79,193.59,140,10.00,92.00,-1349.00
2024-05-17 17:16:18.392509,0,-122,-42,-4,-5,-9,71,73,297,140,79,193.81,140,-36.00,514.00,-981.00
2024-05-17 17:16:18.445270,1,113,-42,-6,-6,6,71,73,180,140,79,193.76,140,6.00,533.00,-945.00
2024-05-17 17:16:18.596896,0,11,-45,-2,-2,12,71,74,221,130,79,194.17,140,55.00,312.00,-1319.00
2024-05-17 17:16:18.648742,0,0,-45,-1,-2,9,71,74,134,120,79,193.51,140,-43.00,41.00,-1378.00
2024-05-17 17:16:18.803802,0,2,-45,-1,-1,5,71,74,127,110,79,193.49,140,31.00,13.00,-1341.00
2024-05-17 17:16:18.852537,0,1,-43,-1,-1,2,71,74,122,110,79,193.35,140,30.00,-53.00,-1327.00
2024-05-17 17:16:19.009655,0,0,-43,0,0,0,71,74,120,100,79,193.44,140,82.00,0.00,-1323.00
2024-05-17 17:16:19.056615,0,0,-43,0,0,-1,71,74,121,100,79,193.28,140,-56.00,23.00,-1028.00
2024-05-17 17:16:19.212392,0,1,-43,0,0,-1,71,74,124,110,79,193.33,140,31.00,0.00,-1031.00
2024-05-17 17:16:19.260824,0,2,-43,0,0,-1,71,74,125,110,79,193.37,141,-20.00,26.00,-908.00
2024-05-17 17:16:19.413758,0,1,-43,0,0,-1,71,74,127,110,79,193.45,141,-10.00,18.00,-1002.00
2024-05-17 17:16:19.464864,0,0,-43,0,0,-1,71,74,126,110,79,193.42,141,12.00,-23.00,-967.00
2024-05-17 17:16:19.567105,0,0,-43,0,0,-1,71,73,126,110,79,193.34,141,21.00,4.00,-926.00
2024-05-17 17:16:19.670144,0,0,-43,0,0,0,71,73,126,110,79,193.42,141,-13.00,3.00,-990.00
2024-05-17 17:16:19.772418,0,0,-43,0,0,0,71,73,127,110,79,193.42,141,62.00,-30.00,-955.00
2024-05-17 17:16:19.874728,0,0,-43,0,0,0,71,73,126,110,79,193.41,141,-74.00,80.00,-977.00
2024-05-17 17:16:19.977186,0,0,-43,0,0,0,71,73,126,110,79,193.42,141,75.00,-21.00,-1198.00
2024-05-17 17:16:20.078878,0,0,-43,0,0,0,71,73,125,110,79,193.43,141,1.00,-5.00,-1000.00
2024-05-17 17:16:20.179578,0,0,-43,0,0,0,71,73,125,110,79,193.39,141,1.00,42.00,-1032.00
2024-05-17 17:16:20.336637,0,0,-43,0,0,0,71,73,125,110,79,193.43,142,18.00,-17.00,-993.00
2024-05-17 17:16:20.383435,0,1,-43,0,0,0,71,73,126,110,79,193.39,142,6.00,-10.00,-1110.00
2024-05-17 17:16:20.540800,0,0,-43,0,0,0,71,73,126,110,79,193.42,142,0.00,21.00,-988.00
2024-05-17 17:16:20.587356,0,0,-43,0,0,0,71,73,127,110,78,193.44,142,2.00,-17.00,-981.00
2024-05-17 17:16:20.744974,0,0,-43,0,0,0,71,73,126,110,78,193.38,142,41.00,3.00,-980.00
2024-05-17 17:16:20.791506,0,0,-43,0,0,0,71,73,126,110,78,193.41,142,-30.00,25.00,-916.00
2024-05-17 17:16:20.953453,0,0,-43,0,0,0,71,73,127,110,78,193.46,142,16.00,-9.00,-977.00
2024-05-17 17:16:20.953618,0,0,-43,0,0,0,71,73,127,110,78,193.50,142,27.00,-10.00,-978.00
2024-05-17 17:16:21.046923,0,0,-43,0,0,0,71,73,128,110,78,193.39,142,88.00,-26.00,-1080.00
2024-05-17 17:16:21.157281,1,0,-43,0,0,0,71,73,128,110,78,193.43,142,14.00,22.00,-1033.00
2024-05-17 17:16:21.257311,1,0,-43,0,0,0,71,73,129,110,78,193.45,143,14.00,-1.00,-996.00
2024-05-17 17:16:21.352393,0,0,-43,0,0,0,71,73,128,110,78,193.39,143,-12.00,27.00,-1064.00
2024-05-17 17:16:21.464302,0,0,-43,0,0,0,71,73,128,110,78,193.44,143,29.00,-17.00,-1048.00
2024-05-17 17:16:21.557667,0,0,-43,0,0,0,71,74,128,110,78,193.41,143,32.00,22.00,-982.00
2024-05-17 17:16:21.667308,0,0,-43,0,0,0,71,74,128,110,78,193.47,143,-4.00,42.00,-1053.00
2024-05-17 17:16:21.761860,0,0,-43,0,0,0,71,74,128,110,78,193.46,143,-13.00,26.00,-1055.00
2024-05-17 17:16:21.865325,0,0,-43,0,0,0,71,74,128,110,78,193.43,143,-7.00,33.00,-1005.00
2024-05-17 17:16:21.964532,0,0,-43,0,0,0,71,74,128,110,78,193.36,143,-32.00,51.00,-1002.00
2024-05-17 17:16:22.079729,0,0,-43,0,0,0,71,74,128,110,78,193.52,143,-9.00,36.00,-942.00
2024-05-17 17:16:22.168563,0,0,-43,0,0,0,71,74,127,110,78,193.57,143,13.00,0.00,-902.00
2024-05-17 17:16:22.281904,0,0,-43,0,0,0,71,74,128,110,78,193.49,144,-23.00,18.00,-1065.00
2024-05-17 17:16:22.372501,0,0,-43,0,0,0,71,74,127,110,78,193.43,144,42.00,-11.00,-1011.00
2024-05-17 17:16:22.485776,0,0,-43,0,1,0,71,74,127,110,78,193.40,144,70.00,-38.00,-1003.00
2024-05-17 17:16:22.579491,0,0,-43,0,0,0,71,74,128,110,78,193.42,144,56.00,-10.00,-1052.00
2024-05-17 17:16:22.679884,0,0,-43,0,0,0,71,74,129,110,78,193.44,144,24.00,23.00,-987.00
2024-05-17 17:16:22.780690,0,0,-43,0,0,0,71,74,129,110,78,193.41,144,-27.00,3.00,-927.00
2024-05-17 17:16:22.898445,0,0,-43,0,0,0,71,74,129,110,78,193.48,144,39.00,-14.00,-925.00
2024-05-17 17:16:22.985351,0,0,-43,0,0,0,71,74,129,110,78,193.47,144,65.00,-41.00,-1051.00
2024-05-17 17:16:23.103605,0,0,-43,0,0,0,71,74,130,110,78,193.42,144,29.00,-4.00,-1055.00
2024-05-17 17:16:23.189986,1,0,-43,0,0,0,71,74,132,110,78,193.50,144,-32.00,31.00,-990.00
2024-05-17 17:16:23.305210,0,0,-43,0,1,0,71,74,130,110,78,193.48,145,-24.00,36.00,-969.00
2024-05-17 17:16:23.393464,0,0,-43,0,1,0,71,74,131,110,78,193.45,145,15.00,1.00,-990.00
2024-05-17 17:16:23.511598,-1,0,-43,0,1,0,71,74,132,110,77,193.46,145,12.00,-5.00,-976.00
2024-05-17 17:16:23.601477,-1,-1,-43,0,1,0,72,73,133,110,77,193.49,145,33.00,-38.00,-1017.00
2024-05-17 17:16:23.699521,-1,0,-43,0,0,0,72,73,132,110,77,193.48,145,7.00,13.00,-1021.00
2024-05-17 17:16:23.817393,0,0,-43,0,0,0,72,73,132,110,77,193.57,145,-11.00,24.00,-1040.00
2024-05-17 17:16:23.903524,0,0,-43,0,0,0,72,73,133,110,77,193.45,145,48.00,-35.00,-953.00
2024-05-17 17:16:24.025346,1,0,-43,0,0,0,72,73,134,110,77,193.47,145,52.00,-27.00,-1017.00
2024-05-17 17:16:24.108227,1,0,-43,0,0,0,72,73,134,110,77,193.52,145,-51.00,48.00,-972.00
2024-05-17 17:16:24.230779,1,0,-42,0,0,0,72,73,134,110,77,193.48,145,14.00,25.00,-1069.00
2024-05-17 17:16:24.311974,0,0,-42,0,0,0,72,73,134,110,77,193.60,146,-32.00,52.00,-957.00
2024-05-17 17:16:24.432343,0,0,-42,0,0,0,72,73,133,110,77,193.57,146,-33.00,26.00,-973.00
2024-05-17 17:16:24.515876,0,0,-42,0,0,0,72,73,133,110,77,193.54,146,19.00,-6.00,-1041.00
2024-05-17 17:16:24.617253,0,0,-42,0,0,0,72,73,132,110,77,193.55,146,-17.00,67.00,-1009.00
2024-05-17 17:16:24.738497,0,0,-42,0,0,0,72,73,132,110,77,193.75,146,20.00,46.00,-1169.00
2024-05-17 17:16:24.824647,0,0,-39,0,0,-3,72,73,134,110,77,193.67,146,-88.00,39.00,-1622.00
2024-05-17 17:16:24.923206,0,4,-31,0,1,-9,72,73,144,120,77,193.78,146,83.00,-108.00,-1912.00
2024-05-17 17:16:25.047380,-20,75,-35,3,4,-12,72,73,299,130,77,194.08,146,303.00,645.00,-1594.00
2024-05-17 17:16:25.076196,10,-159,-71,8,9,0,72,73,197,140,77,193.75,146,513.00,948.00,-1040.00
2024-05-17 17:16:25.251042,22,-32,-10,4,5,12,72,73,178,130,77,193.85,146,469.00,687.00,-1030.00
2024-05-17 17:16:25.280263,-9,10,-1,2,4,11,72,73,142,120,77,193.56,147,131.00,118.00,-968.00
2024-05-17 17:16:25.455281,0,0,0,4,6,7,72,73,129,110,77,193.48,147,-64.00,111.00,-1423.00
2024-05-17 17:16:25.484194,4,-6,-8,3,5,3,72,73,125,110,77,193.42,147,-131.00,37.00,-1259.00
2024-05-17 17:16:25.586183,1,-6,-19,2,3,0,71,73,119,100,77,193.40,147,3.00,25.00,-1153.00
2024-05-17 17:16:25.772215,0,-3,-31,1,3,0,71,73,120,100,77,193.25,147,-13.00,4.00,-1055.00
2024-05-17 17:16:25.791303,-1,-2,-42,1,2,-1,71,73,120,100,77,193.35,147,43.00,-32.00,-1072.00
2024-05-17 17:16:25.893134,0,-1,-44,1,0,-1,71,73,121,100,77,193.34,147,48.00,-71.00,-969.00
2024-05-17 17:16:25.995211,1,0,-44,1,0,-1,71,73,123,100,77,193.32,147,24.00,-29.00,-963.00
2024-05-17 17:16:26.174970,1,0,-44,1,0,-1,71,73,125,100,77,193.32,147,7.00,5.00,-1040.00
2024-05-17 17:16:26.199144,1,0,-44,0,0,-1,71,73,126,110,77,193.36,147,14.00,12.00,-949.00
2024-05-17 17:16:26.376958,0,0,-44,0,0,0,71,73,124,110,77,193.46,148,-114.00,88.00,-953.00
2024-05-17 17:16:26.403150,0,-3,-44,0,1,0,71,73,125,110,77,193.40,148,61.00,-38.00,-1014.00
2024-05-17 17:16:26.581671,-1,-2,-44,0,0,0,71,73,125,110,77,193.30,148,-36.00,36.00,-985.00
2024-05-17 17:16:26.607127,-1,-1,-43,0,0,0,71,73,125,110,77,193.41,148,-10.00,5.00,-978.00
2024-05-17 17:16:26.790382,0,0,-43,0,0,0,71,73,125,110,77,193.39,148,-8.00,-12.00,-972.00
2024-05-17 17:16:26.812265,0,0,-43,0,-1,0,71,73,128,110,77,193.43,148,65.00,-45.00,-916.00
2024-05-17 17:16:26.991261,1,1,-43,0,-1,0,71,73,129,110,77,193.46,148,78.00,-39.00,-1024.00
2024-05-17 17:16:27.015563,2,1,-43,0,0,0,71,73,129,110,77,193.45,148,75.00,-12.00,-1054.00
2024-05-17 17:16:27.196059,1,0,-43,0,0,0,71,73,126,110,77,193.39,148,-46.00,35.00,-971.00
2024-05-17 17:16:27.219882,0,0,-43,0,0,0,71,73,126,110,77,193.37,148,7.00,-17.00,-985.00
2024-05-17 17:16:27.400857,0,0,-43,0,0,0,71,73,126,110,77,193.36,149,62.00,-43.00,-1008.00
2024-05-17 17:16:27.425056,0,0,-43,0,0,0,71,73,126,110,77,193.44,149,-39.00,46.00,-976.00
2024-05-17 17:16:27.525110,0,0,-43,0,0,0,71,73,127,110,76,193.45,149,21.00,-26.00,-965.00
2024-05-17 17:16:27.708600,0,0,-43,0,0,0,72,73,127,110,76,193.43,149,-44.00,37.00,-1007.00
2024-05-17 17:16:27.735739,0,0,-43,0,0,0,72,73,127,110,76,193.35,149,-55.00,42.00,-1032.00
