TS,pitch,roll,yaw,vgx,vgy,vgz,templ,temph,tof,h,bat,baro,time,agx,agy,agz
2024-06-07 10:32:40.798973,1,0,-11,0,0,0,82,84,10,0,44,132.56,312,23.00,8.00,-999.00
2024-06-07 10:32:40.989353,1,0,-11,0,0,0,82,84,10,0,44,132.60,312,22.00,8.00,-999.00
2024-06-07 10:32:41.005903,1,0,-11,0,0,0,82,84,10,0,44,132.58,312,24.00,8.00,-998.00
2024-06-07 10:32:41.105098,1,0,-11,0,0,0,82,84,10,0,44,132.59,312,24.00,8.00,-1000.00
2024-06-07 10:32:41.155931,1,0,-11,0,0,0,82,84,10,0,44,132.61,312,25.00,8.00,-999.00
2024-06-07 10:32:41.301221,1,0,-11,0,0,0,82,84,10,0,44,132.60,312,24.00,7.00,-1000.00
2024-06-07 10:32:41.501927,1,0,-11,0,0,0,82,85,10,0,44,132.57,312,25.00,8.00,-1000.00
2024-06-07 10:32:41.512524,1,0,-11,0,0,0,82,85,10,0,44,132.54,312,24.00,7.00,-999.00
2024-06-07 10:32:41.563596,1,0,-11,0,0,0,82,85,10,0,44,132.59,312,23.00,8.00,-1000.00
2024-06-07 10:32:41.665542,1,0,-11,0,0,0,82,85,10,0,44,132.62,312,24.00,6.00,-1000.00
2024-06-07 10:32:41.795702,1,0,-11,0,0,0,82,85,10,0,44,132.58,312,25.00,6.00,-996.00
2024-06-07 10:32:41.869666,1,0,-11,0,0,0,82,85,10,0,44,132.59,312,26.00,7.00,-1000.00
2024-06-07 10:32:41.971640,1,0,-11,0,0,0,82,85,10,0,44,132.62,312,25.00,8.00,-997.00
2024-06-07 10:32:42.115520,1,0,-11,0,0,0,82,85,10,0,44,132.58,312,23.00,9.00,-999.00
2024-06-07 10:32:42.175707,1,0,-11,0,0,0,82,85,10,0,44,132.62,312,23.00,8.00,-999.00
2024-06-07 10:32:42.320427,1,0,-11,0,0,0,82,85,10,0,44,132.62,312,25.00,9.00,-997.00
2024-06-07 10:32:42.379715,1,0,-11,0,0,0,83,85,10,0,44,132.59,312,25.00,7.00,-998.00
2024-06-07 10:32:42.529306,1,0,-11,0,0,0,83,85,10,0,44,132.63,312,24.00,6.00,-997.00
2024-06-07 10:32:42.583607,1,0,-11,0,0,0,83,85,10,0,44,132.60,312,23.00,7.00,-999.00
2024-06-07 10:32:42.686435,1,0,-11,0,0,0,83,85,10,0,44,132.62,312,24.00,7.00,-999.00
2024-06-07 10:32:42.787433,1,0,-11,0,0,0,83,85,10,0,44,132.60,312,25.00,6.00,-999.00
2024-06-07 10:32:42.934605,1,0,-11,0,0,0,83,85,10,0,44,132.61,312,27.00,7.00,-997.00
2024-06-07 10:32:42.991428,1,0,-11,0,0,0,83,85,10,0,44,132.61,312,22.00,13.00,-1000.00
2024-06-07 10:32:43.139306,1,0,-11,0,0,0,83,85,10,0,44,132.61,312,24.00,-5.00,-999.00
2024-06-07 10:32:43.195506,1,0,-11,0,0,0,83,85,10,0,44,132.61,312,26.00,21.00,-1010.00
2024-06-07 10:32:43.344190,1,0,-9,0,0,0,83,85,10,0,44,132.61,312,-26.00,12.00,-1021.00
2024-06-07 10:32:43.399564,1,0,-8,0,0,0,83,85,10,0,44,132.61,312,16.00,15.00,-1026.00
2024-06-07 10:32:43.548968,0,-1,-8,0,0,0,83,85,10,0,44,132.61,312,23.00,-28.00,-1106.00
2024-06-07 10:32:43.603396,0,0,-8,0,0,-2,83,85,10,0,44,132.61,312,-26.00,7.00,-1132.00
2024-06-07 10:32:43.754818,0,0,-8,0,0,-5,83,85,10,0,44,132.61,312,-14.00,-22.00,-1326.00
2024-06-07 10:32:43.807562,0,0,-8,0,0,-7,83,85,13,10,44,132.74,312,-2.00,-32.00,-1190.00
2024-06-07 10:32:43.960252,0,2,-8,0,-1,-8,83,85,22,10,44,132.99,313,18.00,-41.00,-1033.00
2024-06-07 10:32:44.011361,1,2,-8,0,0,-8,83,85,31,20,44,133.10,313,40.00,-55.00,-1087.00
2024-06-07 10:32:44.113430,0,2,-8,0,0,-8,83,85,38,30,44,133.20,313,2.00,-2.00,-1057.00
2024-06-07 10:32:44.215394,0,2,-8,0,0,-7,83,85,46,40,44,133.27,313,-9.00,-25.00,-878.00
2024-06-07 10:32:44.369613,0,2,-8,0,0,-6,83,85,55,40,44,133.39,313,92.00,-75.00,-836.00
2024-06-07 10:32:44.419444,0,3,-8,0,0,-5,82,85,60,50,44,133.35,313,34.00,-54.00,-924.00
2024-06-07 10:32:44.574482,0,3,-8,0,0,-4,82,85,65,50,44,133.43,313,-16.00,-3.00,-908.00
2024-06-07 10:32:44.623397,0,3,-8,0,0,-3,82,85,70,60,44,133.43,313,-75.00,-19.00,-928.00
2024-06-07 10:32:44.675292,0,3,-8,0,0,-2,82,85,72,60,44,133.49,313,3.00,4.00,-939.00
2024-06-07 10:32:44.777394,0,3,-8,0,0,-1,82,85,74,60,44,133.49,313,127.00,-81.00,-904.00
2024-06-07 10:32:44.880594,0,3,-8,0,0,0,82,85,74,60,44,133.52,314,-11.00,-16.00,-971.00
2024-06-07 10:32:44.982565,0,3,-8,0,0,0,82,85,76,60,44,133.49,314,43.00,-78.00,-948.00
2024-06-07 10:32:45.085271,0,3,-8,0,0,0,82,85,75,60,44,133.48,314,83.00,-46.00,-858.00
2024-06-07 10:32:45.184393,0,3,-8,0,0,0,82,85,76,60,44,133.54,314,10.00,-29.00,-1077.00
2024-06-07 10:32:45.286334,0,3,-8,0,0,0,82,85,76,60,44,133.52,314,87.00,-41.00,-843.00
2024-06-07 10:32:45.396918,0,2,-8,0,0,0,84,86,76,60,44,133.53,314,53.00,-78.00,-963.00
2024-06-07 10:32:45.490372,0,2,-8,0,0,0,84,86,77,60,44,133.56,314,17.00,-11.00,-1133.00
2024-06-07 10:32:45.597264,0,2,-8,0,0,0,84,86,77,60,44,133.57,314,41.00,-55.00,-971.00
2024-06-07 10:32:45.694419,1,2,-8,0,0,0,84,86,78,60,44,133.57,314,81.00,-55.00,-971.00
2024-06-07 10:32:45.804333,1,2,-8,0,0,0,84,86,78,60,44,133.51,314,-51.00,14.00,-1095.00
2024-06-07 10:32:45.899350,1,2,-8,0,0,0,84,86,79,70,44,133.59,315,75.00,-47.00,-1125.00
2024-06-07 10:32:46.009712,1,2,-8,0,0,0,84,86,79,70,44,133.51,315,-42.00,-14.00,-1003.00
2024-06-07 10:32:46.103227,1,2,-8,0,0,0,84,86,80,70,44,133.57,315,-45.00,8.00,-1013.00
2024-06-07 10:32:46.211336,0,1,-8,0,0,0,84,86,81,70,44,133.57,315,59.00,-47.00,-1063.00
2024-06-07 10:32:46.307737,0,1,-8,0,0,0,84,86,82,70,44,133.56,315,-41.00,-14.00,-868.00
2024-06-07 10:32:46.409437,0,1,-8,0,0,0,83,85,83,70,44,133.56,315,73.00,-44.00,-1026.00
2024-06-07 10:32:46.511181,0,1,-8,0,0,0,83,85,83,70,44,133.62,315,60.00,-33.00,-1092.00
2024-06-07 10:32:46.613378,0,1,-8,0,0,0,83,85,85,70,44,133.61,315,30.00,-2.00,-977.00
2024-06-07 10:32:46.715978,0,1,-8,0,0,0,83,85,85,70,44,133.58,315,76.00,-71.00,-992.00
2024-06-07 10:32:46.817490,0,1,-8,0,0,0,83,85,84,70,44,133.52,315,28.00,-38.00,-865.00
2024-06-07 10:32:46.919256,1,1,-8,0,0,0,83,85,84,70,44,133.50,316,-4.00,-45.00,-973.00
2024-06-07 10:32:47.032682,1,1,-8,0,0,0,83,85,84,70,44,133.56,316,54.00,-35.00,-961.00
2024-06-07 10:32:47.123292,0,1,-8,0,0,0,83,85,83,70,44,133.62,316,-15.00,-8.00,-1078.00
2024-06-07 10:32:47.235265,0,1,-8,0,0,0,83,85,83,70,44,133.51,316,44.00,-60.00,-983.00
2024-06-07 10:32:47.327318,0,1,-8,0,0,0,83,85,83,70,44,133.54,316,-14.00,-34.00,-990.00
2024-06-07 10:32:47.441119,0,1,-8,0,0,0,82,84,82,70,44,133.54,316,50.00,-24.00,-994.00
2024-06-07 10:32:47.531375,0,1,-8,0,0,0,82,84,82,70,44,133.58,316,57.00,-55.00,-869.00
2024-06-07 10:32:47.633384,0,1,-8,0,0,0,82,84,83,70,44,133.59,316,-29.00,-26.00,-975.00
2024-06-07 10:32:47.748756,0,2,-8,0,0,0,82,84,83,70,44,133.54,316,-31.00,-23.00,-969.00
2024-06-07 10:32:47.837885,0,3,-8,0,0,0,82,84,83,70,44,133.49,316,74.00,-32.00,-1005.00
2024-06-07 10:32:47.952201,0,1,-8,0,0,0,82,84,82,70,44,133.53,317,39.00,-11.00,-959.00
2024-06-07 10:32:48.041360,0,0,-8,0,0,0,82,84,82,70,44,133.59,317,68.00,-97.00,-962.00
2024-06-07 10:32:48.143996,0,0,-8,0,0,0,82,84,82,70,44,133.55,317,-1.00,22.00,-1043.00
2024-06-07 10:32:48.261616,0,1,-8,0,0,0,82,84,81,70,44,133.54,317,76.00,-34.00,-988.00
2024-06-07 10:32:48.296357,0,1,-8,0,0,0,82,84,81,70,44,133.51,317,-22.00,-17.00,-998.00
2024-06-07 10:32:48.469079,0,1,-8,0,0,0,82,85,81,70,44,133.56,317,95.00,-37.00,-1029.00
2024-06-07 10:32:48.553344,0,1,-8,0,0,0,82,85,81,70,44,133.56,317,61.00,-84.00,-945.00
2024-06-07 10:32:48.653298,0,2,-8,0,0,0,82,85,82,70,44,133.60,317,-8.00,-12.00,-1027.00
2024-06-07 10:32:48.873863,0,2,-8,0,0,0,82,85,80,70,44,133.58,317,-26.00,-36.00,-961.00
2024-06-07 10:32:48.874118,0,2,-8,0,0,0,82,85,80,70,44,133.51,317,-29.00,7.00,-1105.00
2024-06-07 10:32:48.913532,0,2,-8,0,0,0,82,85,80,70,44,133.59,318,-51.00,-43.00,-1011.00
2024-06-07 10:32:49.011098,0,2,-8,0,0,0,82,85,80,70,44,133.62,318,17.00,-30.00,-945.00
2024-06-07 10:32:49.181483,0,1,-8,0,0,0,82,85,79,70,44,133.59,318,93.00,-49.00,-1027.00
2024-06-07 10:32:49.218751,0,1,-8,0,0,0,82,85,80,70,44,133.54,318,61.00,-45.00,-936.00
2024-06-07 10:32:49.316190,0,1,-8,0,0,0,82,85,79,70,44,133.53,318,6.00,-59.00,-1115.00
2024-06-07 10:32:49.418654,0,1,-8,0,0,0,83,84,79,70,44,133.56,318,73.00,-66.00,-907.00
2024-06-07 10:32:49.591852,0,2,-8,0,0,0,83,84,78,70,44,133.54,318,47.00,-73.00,-1044.00
2024-06-07 10:32:49.622056,0,2,-8,0,0,0,83,84,79,70,44,133.57,318,57.00,-30.00,-1093.00
2024-06-07 10:32:49.724509,0,3,-8,0,0,-1,83,84,80,70,44,133.62,318,-25.00,-23.00,-1136.00
2024-06-07 10:32:49.899141,0,3,-8,0,0,-2,83,84,83,70,44,133.62,318,28.00,-53.00,-1130.00
2024-06-07 10:32:49.928692,0,3,-8,0,0,-3,83,84,87,70,44,133.64,319,61.00,-54.00,-1023.00
2024-06-07 10:32:50.102492,0,3,-8,0,0,-4,83,84,92,80,44,133.72,319,13.00,-40.00,-1001.00
2024-06-07 10:32:50.132042,0,3,-8,0,0,-4,83,84,97,80,44,133.77,319,8.00,-4.00,-943.00
2024-06-07 10:32:50.307423,0,3,-8,0,0,-5,83,84,103,90,44,133.73,319,58.00,-38.00,-1119.00
2024-06-07 10:32:50.336189,0,2,-8,0,0,-5,83,84,110,90,44,133.79,319,-39.00,23.00,-1045.00
2024-06-07 10:32:50.512263,0,1,-8,0,1,-5,82,84,119,100,44,133.83,319,-11.00,-13.00,-988.00
2024-06-07 10:32:50.540176,0,0,-8,0,0,-6,82,84,124,100,44,133.91,319,26.00,-38.00,-957.00
2024-06-07 10:32:50.719224,0,1,-8,0,0,-5,82,84,130,110,44,133.97,319,30.00,-52.00,-888.00
2024-06-07 10:32:50.744148,0,1,-8,0,0,-5,82,84,135,120,44,134.00,319,-37.00,26.00,-961.00
2024-06-07 10:32:50.847682,0,0,-8,0,0,-5,82,84,142,120,44,134.02,319,78.00,-17.00,-977.00
2024-06-07 10:32:50.951855,0,0,-8,0,0,-5,82,84,148,130,44,134.05,320,9.00,-19.00,-1023.00
2024-06-07 10:32:51.050141,0,1,-8,0,0,-4,82,84,151,130,44,134.13,320,87.00,-35.00,-1010.00
2024-06-07 10:32:51.228913,0,1,-8,0,0,-4,82,84,155,140,44,134.19,320,53.00,-21.00,-988.00
2024-06-07 10:32:51.254866,0,1,-8,0,0,-4,82,84,161,140,44,134.26,320,53.00,-55.00,-950.00
2024-06-07 10:32:51.433981,0,1,-8,0,0,-3,82,84,163,150,44,134.24,320,50.00,-21.00,-1064.00
2024-06-07 10:32:51.460173,0,1,-8,0,0,-3,82,84,163,150,44,134.35,320,-25.00,-2.00,-955.00
2024-06-07 10:32:51.562001,0,1,-8,0,0,-2,82,84,168,150,44,134.33,320,27.00,-19.00,-1096.00
2024-06-07 10:32:51.664405,0,1,-8,0,0,-2,82,84,168,150,44,134.32,320,-22.00,-23.00,-927.00
2024-06-07 10:32:51.764633,0,1,-8,0,0,-1,82,84,171,160,44,134.40,320,-20.00,10.00,-934.00
2024-06-07 10:32:51.866166,0,1,-8,0,0,-1,82,84,173,160,44,134.37,320,-68.00,-14.00,-936.00
2024-06-07 10:32:52.048155,0,1,-8,0,0,-1,82,84,174,160,44,134.36,321,49.00,-52.00,-959.00
2024-06-07 10:32:52.074217,0,2,-8,0,0,0,82,84,172,160,44,134.43,321,-37.00,-39.00,-1021.00
2024-06-07 10:32:52.173012,0,2,-8,0,0,0,82,84,174,160,44,134.38,321,-8.00,-48.00,-978.00
2024-06-07 10:32:52.274428,0,2,-8,0,0,0,82,84,171,160,44,134.45,321,91.00,-60.00,-879.00
2024-06-07 10:32:52.326197,0,2,-8,0,0,0,82,84,176,160,44,134.36,321,5.00,-19.00,-1043.00
2024-06-07 10:32:52.458025,0,2,-8,0,0,0,82,84,174,160,44,134.42,321,57.00,-61.00,-991.00
2024-06-07 10:32:52.529167,0,2,-8,0,0,0,82,84,176,160,44,134.40,321,42.00,-5.00,-903.00
2024-06-07 10:32:52.662708,0,2,-8,0,0,0,82,84,178,160,44,134.33,321,18.00,-28.00,-953.00
2024-06-07 10:32:52.733084,0,2,-8,0,0,0,82,84,177,160,44,134.41,321,72.00,-57.00,-931.00
2024-06-07 10:32:52.869288,0,2,-7,0,0,0,82,84,178,160,44,134.42,321,46.00,-53.00,-1082.00
2024-06-07 10:32:52.938650,0,2,-7,0,0,0,82,84,178,160,44,134.45,322,-53.00,3.00,-1014.00
2024-06-07 10:32:53.039019,0,1,-8,0,0,0,82,84,179,160,44,134.36,322,-41.00,-21.00,-909.00
2024-06-07 10:32:53.176119,0,1,-8,0,0,0,82,84,178,160,44,134.37,322,19.00,-18.00,-1055.00
2024-06-07 10:32:53.242964,0,1,-8,0,0,0,82,84,179,160,44,134.39,322,-33.00,-16.00,-1008.00
2024-06-07 10:32:53.379661,0,1,-8,0,0,0,82,84,177,160,44,134.39,322,27.00,-1.00,-938.00
2024-06-07 10:32:53.447036,0,1,-8,0,0,0,81,84,178,160,44,134.40,322,16.00,-7.00,-975.00
2024-06-07 10:32:53.584631,0,2,-8,0,0,0,81,84,175,160,44,134.46,322,13.00,-18.00,-908.00
2024-06-07 10:32:53.652459,0,1,-8,0,0,0,81,84,178,160,44,134.40,322,27.00,1.00,-1118.00
2024-06-07 10:32:53.789365,0,2,-8,0,0,0,81,84,176,160,44,134.39,322,15.00,-39.00,-999.00
2024-06-07 10:32:53.855256,0,1,-8,0,0,0,81,84,175,160,44,134.35,322,68.00,-44.00,-1013.00
2024-06-07 10:32:53.994640,0,1,-8,0,0,0,81,84,174,160,44,134.40,323,54.00,-41.00,-948.00
2024-06-07 10:32:54.059146,0,1,-8,0,0,0,81,84,171,160,44,134.41,323,10.00,6.00,-1059.00
2024-06-07 10:32:54.198861,0,1,-8,0,0,0,81,84,171,160,44,134.36,323,70.00,-44.00,-1132.00
2024-06-07 10:32:54.262813,0,1,-8,0,0,0,81,84,173,160,44,134.37,323,-16.00,-32.00,-1052.00
2024-06-07 10:32:54.403879,0,1,-8,0,0,0,81,84,174,160,44,134.35,323,-1.00,-55.00,-1040.00
2024-06-07 10:32:54.466815,0,1,-7,0,0,0,81,84,173,160,44,134.32,323,26.00,-32.00,-1033.00
2024-06-07 10:32:54.608082,0,2,-7,0,0,0,81,84,172,160,44,134.35,323,28.00,-28.00,-1010.00
2024-06-07 10:32:54.672715,0,2,-7,0,0,0,81,84,174,160,44,134.35,323,27.00,-67.00,-919.00
2024-06-07 10:32:54.772864,0,2,-7,0,0,1,81,84,171,160,44,134.32,323,4.00,-33.00,-984.00
2024-06-07 10:32:54.874798,0,2,-8,0,0,1,81,84,169,160,44,134.29,323,19.00,-52.00,-933.00
2024-06-07 10:32:55.017818,0,2,-8,0,0,2,81,84,165,160,44,134.28,324,-38.00,-6.00,-963.00
2024-06-07 10:32:55.080366,-1,1,-8,0,0,2,81,84,162,150,44,134.18,324,-27.00,-25.00,-1000.00
2024-06-07 10:32:55.180854,0,1,-8,0,0,2,81,84,161,150,44,134.24,324,28.00,-41.00,-981.00
2024-06-07 10:32:55.329367,0,2,-8,0,0,3,81,84,154,150,44,134.17,324,76.00,-71.00,-1029.00
2024-06-07 10:32:55.384767,0,2,-8,0,0,3,81,84,152,140,44,134.19,324,40.00,-47.00,-1023.00
2024-06-07 10:32:55.529742,1,3,-8,0,0,2,82,84,148,140,44,134.14,324,-1.00,-21.00,-1026.00
2024-06-07 10:32:55.588716,1,3,-8,0,0,2,82,84,147,130,44,134.12,324,6.00,-81.00,-966.00
2024-06-07 10:32:55.734433,1,3,-8,0,0,2,82,84,144,130,44,134.17,324,65.00,-55.00,-1006.00
2024-06-07 10:32:55.792760,0,2,-8,0,0,2,82,84,139,130,44,134.10,324,-19.00,-22.00,-1033.00
2024-06-07 10:32:55.894850,1,2,-8,0,0,2,82,84,139,130,44,134.09,325,61.00,-28.00,-1089.00
2024-06-07 10:32:56.042236,1,2,-8,0,0,1,82,84,136,120,44,134.02,325,31.00,-28.00,-1111.00
2024-06-07 10:32:56.098791,1,2,-8,0,0,1,82,84,133,120,44,134.01,325,-52.00,6.00,-1101.00
2024-06-07 10:32:56.150613,1,3,-8,0,0,1,82,84,132,120,44,134.02,325,36.00,-45.00,-998.00
2024-06-07 10:32:56.349034,1,3,-8,0,0,1,82,84,129,120,44,133.99,325,123.00,-80.00,-1002.00
2024-06-07 10:32:56.353811,0,2,-8,0,0,1,82,84,128,120,44,133.96,325,61.00,-75.00,-1002.00
2024-06-07 10:32:56.554783,1,2,-8,0,0,1,82,84,125,120,44,133.91,325,6.00,-11.00,-1005.00
2024-06-07 10:32:56.558071,1,2,-8,0,0,1,82,84,127,110,44,133.87,325,96.00,-51.00,-1026.00
2024-06-07 10:32:56.660003,1,2,-8,0,0,1,82,84,124,110,44,133.89,325,98.00,-77.00,-974.00
2024-06-07 10:32:56.762958,1,2,-8,0,0,0,82,84,123,110,44,133.91,325,34.00,-40.00,-1114.00
2024-06-07 10:32:56.864525,1,2,-8,0,0,0,82,84,123,110,44,133.91,326,42.00,-68.00,-1004.00
2024-06-07 10:32:56.967531,1,2,-8,0,0,0,82,84,122,110,44,133.96,326,81.00,-59.00,-992.00
2024-06-07 10:32:57.067914,1,2,-8,0,0,0,82,84,122,110,44,133.88,326,40.00,-53.00,-993.00
2024-06-07 10:32:57.171391,1,2,-8,0,0,0,82,84,122,110,44,133.92,326,11.00,-56.00,-1019.00
2024-06-07 10:32:57.272305,1,2,-8,0,0,0,82,84,123,110,44,133.95,326,74.00,-87.00,-882.00
2024-06-07 10:32:57.475772,1,2,-8,0,0,0,82,84,122,110,44,133.84,326,18.00,-23.00,-1134.00
2024-06-07 10:32:57.475945,1,2,-8,0,0,0,82,84,123,110,44,133.93,326,25.00,-31.00,-1060.00
2024-06-07 10:32:57.578271,1,2,-8,0,0,0,82,84,125,110,44,133.87,326,60.00,-40.00,-1010.00
2024-06-07 10:32:57.680315,1,2,-8,0,0,0,82,84,123,110,44,133.88,326,14.00,-14.00,-1040.00
2024-06-07 10:32:57.783349,1,2,-8,0,0,0,82,84,123,110,44,134.02,326,34.00,-32.00,-991.00
2024-06-07 10:32:57.888082,1,2,-8,0,0,0,82,84,124,110,44,134.01,327,86.00,-45.00,-1182.00
2024-06-07 10:32:57.988405,1,2,-8,0,0,0,82,84,123,110,44,133.87,327,5.00,-35.00,-1045.00
2024-06-07 10:32:58.090120,1,2,-8,0,0,0,82,84,123,110,44,134.00,327,11.00,-43.00,-1084.00
2024-06-07 10:32:58.190485,1,2,-8,0,0,0,82,84,123,110,44,133.90,327,6.00,-15.00,-1000.00
2024-06-07 10:32:58.291837,1,2,-8,0,0,0,82,84,124,110,44,133.94,327,44.00,-64.00,-959.00
2024-06-07 10:32:58.396923,1,2,-8,0,0,0,82,84,124,110,44,133.88,327,68.00,-54.00,-1028.00
2024-06-07 10:32:58.496044,1,2,-8,0,0,0,81,84,124,110,44,133.91,327,43.00,-63.00,-914.00
2024-06-07 10:32:58.597741,1,2,-8,0,0,0,81,84,124,110,44,133.91,327,-17.00,-7.00,-1007.00
2024-06-07 10:32:58.704285,0,2,-8,0,0,0,81,84,123,110,44,133.85,327,-23.00,-26.00,-1003.00
2024-06-07 10:32:58.801775,-4,0,-8,0,0,0,81,84,126,110,44,133.97,327,136.00,-65.00,-891.00
2024-06-07 10:32:58.903762,-7,1,-8,1,0,0,81,84,126,110,44,133.94,328,11.00,3.00,-1037.00
2024-06-07 10:32:59.008009,-8,1,-8,3,0,0,81,84,127,110,44,133.96,328,41.00,-19.00,-1026.00
2024-06-07 10:32:59.107736,-7,2,-8,4,0,0,81,84,128,110,44,133.92,328,-2.00,-38.00,-968.00
2024-06-07 10:32:59.215985,-5,2,-8,5,-1,0,81,84,128,110,44,133.97,328,-6.00,-30.00,-1058.00
2024-06-07 10:32:59.311630,-5,3,-8,6,-1,0,81,84,127,110,44,133.87,328,-8.00,-31.00,-1086.00
2024-06-07 10:32:59.421523,-4,3,-8,6,-1,0,81,84,127,110,44,133.95,328,0.00,-14.00,-968.00
2024-06-07 10:32:59.515686,-4,3,-8,7,-1,0,82,84,127,110,44,134.00,328,-7.00,-25.00,-948.00
2024-06-07 10:32:59.627940,-2,3,-8,7,0,0,82,84,125,110,44,133.94,328,61.00,-76.00,-1003.00
2024-06-07 10:32:59.719735,0,2,-8,7,0,0,82,84,125,110,44,133.98,328,14.00,-59.00,-930.00
2024-06-07 10:32:59.831047,2,3,-7,6,0,0,82,84,125,110,44,133.97,328,-33.00,-27.00,-932.00
2024-06-07 10:32:59.923917,4,2,-7,5,0,0,82,84,125,110,44,133.90,329,-80.00,-14.00,-1027.00
2024-06-07 10:33:00.137723,4,2,-8,4,0,0,82,84,125,110,44,133.96,329,-70.00,0.00,-1087.00
2024-06-07 10:33:00.137803,2,2,-8,3,0,0,82,84,125,110,44,133.93,329,-56.00,-45.00,-1038.00
2024-06-07 10:33:00.178705,1,2,-8,2,0,0,82,84,124,110,44,133.97,329,73.00,-69.00,-1000.00
2024-06-07 10:33:00.342557,0,3,-8,2,0,0,82,84,125,110,44,133.99,329,-28.00,-32.00,-1079.00
2024-06-07 10:33:00.382504,0,3,-8,2,0,0,82,84,126,110,44,133.95,329,-13.00,-46.00,-903.00
2024-06-07 10:33:00.547528,0,3,-8,2,0,0,82,83,127,110,44,134.01,329,30.00,-60.00,-989.00
2024-06-07 10:33:00.586470,0,2,-8,2,0,0,82,83,127,110,44,134.00,329,20.00,-60.00,-1022.00
2024-06-07 10:33:00.754938,0,2,-8,2,0,0,82,83,127,110,44,133.93,329,17.00,-60.00,-853.00
2024-06-07 10:33:00.793011,0,2,-8,2,0,0,82,83,126,110,44,133.97,329,16.00,-81.00,-937.00
2024-06-07 10:33:00.893084,0,2,-8,2,0,0,82,83,128,110,44,133.99,330,-41.00,-46.00,-1021.00
2024-06-07 10:33:01.060066,0,2,-8,2,0,0,82,83,127,110,44,133.95,330,80.00,-57.00,-849.00
2024-06-07 10:33:01.096745,0,3,-8,2,0,0,82,83,128,110,44,133.87,330,51.00,-82.00,-990.00
2024-06-07 10:33:01.265527,1,6,-8,2,0,0,82,83,128,110,44,134.00,330,-71.00,-29.00,-919.00
2024-06-07 10:33:01.301849,1,6,-8,1,0,0,82,83,129,110,44,133.92,330,50.00,-71.00,-1070.00
2024-06-07 10:33:01.402482,1,5,-8,1,0,0,82,83,127,110,44,133.94,330,-24.00,-48.00,-930.00
2024-06-07 10:33:01.571431,0,4,-8,1,1,0,82,84,128,110,44,133.96,330,3.00,-63.00,-1023.00
2024-06-07 10:33:01.608927,0,2,-8,1,1,0,82,84,129,110,44,133.86,330,-39.00,-33.00,-878.00
2024-06-07 10:33:01.708587,2,-1,-8,1,0,0,82,84,127,110,44,133.89,330,30.00,-47.00,-1067.00
2024-06-07 10:33:01.883157,4,1,-8,1,0,0,82,84,128,110,44,133.96,330,-35.00,-39.00,-1024.00
2024-06-07 10:33:01.912544,3,4,-8,0,0,0,82,84,127,110,44,133.94,331,2.00,-74.00,-1063.00
2024-06-07 10:33:02.083243,2,7,-8,0,0,0,82,84,127,110,44,133.95,331,35.00,-45.00,-995.00
2024-06-07 10:33:02.116447,2,8,-8,0,0,0,82,84,129,110,44,133.93,331,-41.00,-28.00,-1002.00
2024-06-07 10:33:02.287971,2,7,-8,0,1,0,82,84,126,110,44,134.07,331,32.00,-53.00,-834.00
2024-06-07 10:33:02.320477,2,5,-8,0,1,0,82,84,128,110,44,134.06,331,-1.00,-53.00,-1091.00
2024-06-07 10:33:02.493259,1,-1,-8,0,1,0,82,84,127,110,44,134.08,331,78.00,-84.00,-971.00
2024-06-07 10:33:02.524471,1,0,-8,0,0,0,81,83,127,110,44,133.99,331,17.00,-61.00,-994.00
2024-06-07 10:33:02.698597,2,2,-8,0,0,0,81,83,126,110,44,133.98,331,0.00,-68.00,-1094.00
2024-06-07 10:33:02.728540,1,4,-8,0,-1,0,81,83,124,110,44,134.02,331,69.00,-73.00,-995.00
2024-06-07 10:33:02.906086,1,5,-8,0,-1,0,81,83,125,110,44,134.02,331,45.00,-94.00,-980.00
2024-06-07 10:33:02.932449,1,5,-8,0,0,0,81,83,124,110,44,133.93,332,99.00,-98.00,-934.00
2024-06-07 10:33:03.111044,0,4,-8,0,0,0,81,83,123,110,44,133.97,332,38.00,-73.00,-1088.00
2024-06-07 10:33:03.136722,0,4,-8,0,0,0,81,83,123,110,44,133.97,332,57.00,-68.00,-1138.00
2024-06-07 10:33:03.312303,0,3,-8,0,0,0,81,83,124,110,44,134.00,332,62.00,-79.00,-1037.00
2024-06-07 10:33:03.340716,0,4,-8,0,0,0,81,83,122,110,44,133.93,332,83.00,-95.00,-1043.00
2024-06-07 10:33:03.523463,1,4,-8,0,0,0,81,83,122,110,44,133.92,332,62.00,-99.00,-979.00
2024-06-07 10:33:03.544408,1,5,-8,0,0,0,81,83,123,110,44,133.97,332,29.00,-62.00,-1061.00
2024-06-07 10:33:03.722173,1,5,-8,0,0,0,81,83,124,110,44,133.93,332,-8.00,-36.00,-1070.00
2024-06-07 10:33:03.748833,1,5,-8,0,0,0,81,83,122,110,44,133.96,332,9.00,-45.00,-1017.00
2024-06-07 10:33:03.852215,1,4,-8,0,0,0,81,83,123,110,44,133.93,332,85.00,-98.00,-897.00
2024-06-07 10:33:03.953697,1,4,-8,0,0,0,81,83,124,110,44,133.96,333,25.00,-55.00,-986.00
2024-06-07 10:33:04.131780,1,4,-8,0,0,0,81,83,123,110,44,133.89,333,3.00,-54.00,-1075.00
2024-06-07 10:33:04.131930,1,4,-8,0,0,0,81,83,123,110,44,133.91,333,44.00,-100.00,-1092.00
2024-06-07 10:33:04.207586,0,4,-8,0,0,0,81,83,122,110,44,133.86,333,15.00,-63.00,-942.00
2024-06-07 10:33:04.324386,0,4,-8,0,0,0,81,83,124,110,44,133.85,333,35.00,-73.00,-878.00
2024-06-07 10:33:04.411596,0,4,-8,0,0,0,81,83,123,110,44,133.89,333,1.00,-66.00,-915.00
2024-06-07 10:33:04.545463,2,4,-8,0,0,0,82,83,124,110,44,133.89,333,93.00,-93.00,-1022.00
2024-06-07 10:33:04.615420,8,2,-7,0,0,0,82,83,125,110,44,133.88,333,-8.00,-88.00,-1052.00
2024-06-07 10:33:04.749974,8,3,-7,-1,0,0,82,83,125,110,44,133.89,333,42.00,-55.00,-990.00
2024-06-07 10:33:04.819821,8,3,-7,-3,0,0,82,83,126,110,44,133.97,333,2.00,-72.00,-1094.00
2024-06-07 10:33:04.921355,7,4,-7,-4,0,0,82,83,128,110,44,133.90,334,92.00,-89.00,-1070.00
2024-06-07 10:33:05.053270,7,4,-7,-5,0,0,82,83,128,110,44,133.94,334,85.00,-65.00,-1197.00
2024-06-07 10:33:05.126629,6,5,-7,-6,0,0,82,83,128,110,44,133.89,334,16.00,-9.00,-1049.00
2024-06-07 10:33:05.227555,6,5,-7,-6,0,0,82,83,128,110,44,133.95,334,89.00,-79.00,-959.00
2024-06-07 10:33:05.365860,6,6,-7,-6,0,0,82,83,130,110,44,133.97,334,54.00,-65.00,-986.00
2024-06-07 10:33:05.431550,5,6,-8,-7,1,0,82,83,130,110,44,133.92,334,36.00,-43.00,-1099.00
2024-06-07 10:33:05.533439,1,5,-8,-7,1,0,82,84,127,110,43,133.97,334,48.00,-46.00,-978.00
2024-06-07 10:33:05.635689,-1,4,-8,-6,1,0,82,84,129,110,43,133.94,334,51.00,-79.00,-977.00
2024-06-07 10:33:05.769737,-2,3,-8,-5,1,0,82,84,130,110,43,133.97,334,121.00,-93.00,-1017.00
2024-06-07 10:33:05.840461,-1,3,-8,-4,0,0,82,84,130,110,43,133.98,334,99.00,-78.00,-878.00
2024-06-07 10:33:05.943296,0,3,-8,-3,0,0,82,84,130,110,43,133.83,335,94.00,-103.00,-1064.00
2024-06-07 10:33:06.045296,0,5,-8,-3,0,0,82,84,130,110,43,133.97,335,51.00,-62.00,-896.00
2024-06-07 10:33:06.145684,1,6,-8,-2,0,0,82,84,130,110,43,134.00,335,65.00,-92.00,-920.00
2024-06-07 10:33:06.247367,2,5,-8,-2,0,0,82,84,130,110,43,133.98,335,55.00,-37.00,-1060.00
2024-06-07 10:33:06.349426,1,6,-8,-2,0,0,82,84,130,110,43,133.92,335,6.00,-41.00,-980.00
2024-06-07 10:33:06.486524,1,5,-8,-2,1,0,82,84,127,110,43,133.97,335,141.00,-86.00,-882.00
2024-06-07 10:33:06.553581,1,5,-8,-2,1,0,82,83,128,110,43,133.92,335,37.00,-57.00,-974.00
2024-06-07 10:33:06.691251,1,5,-8,-2,0,0,82,83,128,110,43,133.90,335,-15.00,-34.00,-1013.00
2024-06-07 10:33:06.757297,1,6,-8,-2,1,0,82,83,129,110,43,133.85,335,59.00,-116.00,-959.00
2024-06-07 10:33:06.899915,0,6,-8,-1,1,0,82,83,128,110,43,133.87,335,143.00,-133.00,-934.00
2024-06-07 10:33:06.961400,-1,6,-8,-1,1,0,82,83,128,110,43,133.84,336,99.00,-113.00,-878.00
2024-06-07 10:33:07.100859,0,2,-8,0,1,0,82,83,125,110,43,133.94,336,36.00,-74.00,-980.00
2024-06-07 10:33:07.166145,0,0,-8,0,0,0,82,83,125,110,43,133.95,336,24.00,-72.00,-947.00
2024-06-07 10:33:07.268758,1,2,-8,0,0,0,82,83,123,110,43,133.85,336,13.00,-101.00,-1015.00
2024-06-07 10:33:07.412310,1,3,-8,0,0,0,82,83,121,110,43,133.86,336,47.00,-87.00,-1064.00
2024-06-07 10:33:07.471585,1,4,-8,0,0,0,82,83,123,110,43,133.88,336,43.00,-91.00,-1047.00
2024-06-07 10:33:07.573521,1,4,-8,0,0,0,81,83,122,110,42,133.84,336,66.00,-74.00,-1068.00
2024-06-07 10:33:07.719576,0,3,-8,0,0,0,81,83,124,110,42,133.85,336,36.00,-68.00,-1099.00
2024-06-07 10:33:07.777396,0,3,-8,0,0,0,81,83,124,110,42,133.87,336,63.00,-74.00,-1135.00
2024-06-07 10:33:07.828554,1,3,-8,0,0,0,81,83,123,110,42,133.83,336,68.00,-74.00,-1094.00
2024-06-07 10:33:07.930851,2,4,-7,0,0,0,81,83,123,110,42,133.81,337,-3.00,-51.00,-1026.00
2024-06-07 10:33:08.129680,2,5,-7,0,0,0,81,83,124,110,42,133.79,337,-12.00,-91.00,-983.00
2024-06-07 10:33:08.134847,1,5,-7,0,0,0,81,83,123,110,42,133.85,337,51.00,-103.00,-1104.00
2024-06-07 10:33:08.255601,0,5,-7,0,0,0,81,83,123,110,42,133.78,337,-2.00,-56.00,-1011.00
2024-06-07 10:33:08.338661,0,5,-8,0,0,0,81,83,124,110,42,133.78,337,-13.00,-73.00,-898.00
2024-06-07 10:33:08.535335,0,5,-8,0,0,0,81,83,123,110,42,133.79,337,-1.00,-51.00,-1073.00
2024-06-07 10:33:08.542059,0,4,-8,0,0,0,81,84,123,110,42,133.86,337,77.00,-100.00,-967.00
2024-06-07 10:33:08.739431,0,5,-8,0,0,0,81,84,123,110,42,133.89,337,44.00,-68.00,-1030.00
2024-06-07 10:33:08.746090,0,5,-8,0,0,0,81,84,125,110,42,133.88,337,82.00,-93.00,-1008.00
2024-06-07 10:33:08.944672,0,5,-8,0,0,0,81,84,124,110,42,133.85,337,-33.00,-77.00,-1008.00
2024-06-07 10:33:08.950724,0,4,-8,0,0,0,81,84,124,110,42,133.82,338,67.00,-86.00,-983.00
2024-06-07 10:33:09.150722,0,4,-8,0,0,0,81,84,125,110,42,133.80,338,-26.00,-102.00,-903.00
2024-06-07 10:33:09.154846,0,4,-8,0,0,0,81,84,124,110,42,133.76,338,92.00,-122.00,-933.00
2024-06-07 10:33:09.256041,0,5,-8,0,0,0,81,84,124,110,42,133.74,338,-59.00,-60.00,-1070.00
2024-06-07 10:33:09.456208,-1,5,-8,0,0,0,81,84,124,110,42,133.81,338,24.00,-84.00,-989.00
2024-06-07 10:33:09.460215,0,-1,-8,0,0,0,81,84,124,110,42,133.77,338,18.00,-113.00,-1030.00
2024-06-07 10:33:09.562547,0,0,-8,0,-3,0,82,84,124,110,41,133.83,338,-5.00,-84.00,-1039.00
2024-06-07 10:33:09.763841,0,1,-8,0,-4,0,82,84,123,110,41,133.74,338,6.00,-50.00,-1045.00
2024-06-07 10:33:09.766614,0,4,-8,0,-4,0,82,84,125,110,41,133.73,338,7.00,-84.00,-998.00
2024-06-07 10:33:09.867997,0,6,-8,0,-3,0,82,84,124,110,41,133.85,339,57.00,-67.00,-1040.00
2024-06-07 10:33:09.969919,0,6,-8,0,-3,0,82,84,125,110,41,133.75,339,-50.00,-67.00,-960.00
2024-06-07 10:33:10.072240,0,5,-8,0,-2,0,82,84,126,110,41,133.87,339,-59.00,-43.00,-995.00
2024-06-07 10:33:10.178717,0,4,-8,0,-2,0,82,84,126,110,41,133.83,339,-36.00,-26.00,-1034.00
2024-06-07 10:33:10.275958,0,3,-8,0,-2,0,82,84,127,110,41,133.85,339,-13.00,-74.00,-910.00
2024-06-07 10:33:10.379099,0,3,-8,0,-2,0,82,84,127,110,41,133.87,339,24.00,-75.00,-1017.00
2024-06-07 10:33:10.482848,0,4,-8,0,-2,0,82,84,129,110,41,133.85,339,51.00,-79.00,-901.00
2024-06-07 10:33:10.581958,0,4,-8,0,-3,0,81,83,130,110,41,133.82,339,-27.00,-79.00,-1028.00
2024-06-07 10:33:10.685007,0,5,-7,0,-2,0,81,83,130,110,41,133.78,339,-13.00,-79.00,-974.00
2024-06-07 10:33:10.787341,0,7,-7,-1,-2,0,81,83,131,110,41,133.86,339,-22.00,-102.00,-991.00
2024-06-07 10:33:10.891261,-1,8,-8,-1,-2,0,81,83,132,110,41,133.91,340,-72.00,-50.00,-942.00
2024-06-07 10:33:10.989981,-2,8,-8,-1,-1,0,81,83,132,110,41,133.92,340,-20.00,-78.00,-1031.00
2024-06-07 10:33:11.095604,-3,7,-8,0,-1,0,81,83,131,110,41,133.93,340,-38.00,-84.00,-1061.00
2024-06-07 10:33:11.193906,-5,7,-8,0,0,0,81,83,132,110,41,133.90,340,-80.00,-84.00,-969.00
2024-06-07 10:33:11.295990,-5,7,-8,0,0,0,81,83,133,120,41,133.84,340,-45.00,-92.00,-958.00
2024-06-07 10:33:11.403238,-4,7,-8,0,0,0,81,83,135,120,41,133.88,340,-76.00,-71.00,-881.00
2024-06-07 10:33:11.499868,-2,6,-8,1,0,0,81,83,132,120,41,133.90,340,-62.00,-89.00,-1092.00
2024-06-07 10:33:11.606281,3,6,-7,1,0,0,82,84,131,110,40,133.88,340,6.00,-116.00,-1038.00
2024-06-07 10:33:11.704372,2,9,-8,0,0,0,82,84,131,110,40,133.84,340,-17.00,-97.00,-901.00
2024-06-07 10:33:11.754885,0,8,-8,0,0,0,82,84,131,110,40,133.83,340,20.00,-130.00,-1037.00
2024-06-07 10:33:11.857636,0,8,-8,0,0,0,82,84,131,110,40,133.80,341,-29.00,-102.00,-1036.00
2024-06-07 10:33:11.959091,0,6,-8,0,1,0,82,84,130,110,40,133.82,341,25.00,-114.00,-1038.00
2024-06-07 10:33:12.118578,-1,4,-8,0,1,0,82,84,128,110,40,133.83,341,-62.00,-82.00,-989.00
2024-06-07 10:33:12.163147,-1,4,-8,0,0,0,82,84,127,110,40,133.78,341,11.00,-113.00,-930.00
2024-06-07 10:33:12.327406,0,5,-8,0,0,0,82,84,126,110,40,133.78,341,11.00,-76.00,-1046.00
2024-06-07 10:33:12.367165,0,4,-8,0,0,0,82,84,125,110,40,133.80,341,25.00,-75.00,-1012.00
2024-06-07 10:33:12.630710,0,4,-8,0,1,0,82,84,123,110,40,133.75,341,20.00,-72.00,-982.00
2024-06-07 10:33:12.630860,0,3,-8,0,1,0,82,83,122,110,40,133.73,341,31.00,-62.00,-947.00
2024-06-07 10:33:12.673110,0,2,-8,0,1,0,82,83,124,110,40,133.75,341,22.00,-76.00,-898.00
2024-06-07 10:33:12.835664,1,2,-8,0,0,0,82,83,123,110,40,133.72,341,20.00,-53.00,-989.00
2024-06-07 10:33:12.877244,1,2,-8,0,0,0,82,83,122,110,40,133.82,342,-27.00,-39.00,-1026.00
2024-06-07 10:33:12.980018,1,3,-8,0,0,0,82,83,124,110,40,133.77,342,22.00,-54.00,-884.00
2024-06-07 10:33:13.083007,1,3,-8,0,0,0,82,83,123,110,40,133.82,342,-19.00,-70.00,-1090.00
2024-06-07 10:33:13.183940,0,3,-8,0,0,0,82,83,124,110,40,133.72,342,50.00,-58.00,-1049.00
2024-06-07 10:33:13.351052,1,3,-8,0,0,0,82,83,123,110,40,133.81,342,92.00,-131.00,-1007.00
2024-06-07 10:33:13.387849,1,3,-8,0,0,0,82,83,124,110,40,133.84,342,40.00,-100.00,-1049.00
2024-06-07 10:33:13.552078,2,4,-8,0,0,0,82,83,126,110,40,133.94,342,-21.00,-90.00,-861.00
2024-06-07 10:33:13.591869,2,4,-7,0,0,0,81,83,126,110,40,133.93,342,71.00,-120.00,-997.00
2024-06-07 10:33:13.756997,2,6,-8,0,-1,0,81,83,128,110,40,134.04,342,22.00,-113.00,-835.00
2024-06-07 10:33:13.796677,1,7,-8,0,0,0,81,83,129,110,40,134.00,342,87.00,-144.00,-862.00
2024-06-07 10:33:13.899381,0,6,-8,0,0,0,81,83,128,110,40,133.92,343,5.00,-112.00,-996.00
2024-06-07 10:33:14.001723,0,6,-8,0,0,0,81,83,129,110,40,133.95,343,-48.00,-84.00,-1037.00
2024-06-07 10:33:14.168572,0,7,-8,0,0,0,81,83,127,110,40,133.93,343,-1.00,-79.00,-855.00
2024-06-07 10:33:14.204991,0,9,-8,0,0,0,81,83,130,110,40,133.93,343,17.00,-63.00,-964.00
2024-06-07 10:33:14.308239,0,9,-8,0,0,0,81,83,129,110,40,133.89,343,-13.00,-129.00,-1043.00
2024-06-07 10:33:14.431907,0,9,-8,0,0,0,81,83,128,110,40,133.91,343,26.00,-107.00,-915.00
2024-06-07 10:33:14.510863,1,8,-8,0,1,0,81,83,129,110,40,133.91,343,86.00,-144.00,-1051.00
2024-06-07 10:33:14.679265,1,8,-8,0,1,0,82,84,129,110,39,133.96,343,57.00,-142.00,-1083.00
2024-06-07 10:33:14.714872,0,9,-8,0,2,0,82,84,128,110,39,133.81,343,7.00,-126.00,-988.00
2024-06-07 10:33:14.884047,0,7,-8,0,2,0,82,84,127,110,39,133.88,343,2.00,-111.00,-897.00
2024-06-07 10:33:14.919236,0,6,-8,0,2,0,82,84,128,110,39,133.89,344,4.00,-87.00,-1078.00
2024-06-07 10:33:15.092161,0,6,-8,0,2,0,82,84,127,110,39,133.89,344,80.00,-130.00,-929.00
2024-06-07 10:33:15.122802,0,5,-8,0,2,0,82,84,126,110,39,133.86,344,41.00,-122.00,-1044.00
2024-06-07 10:33:15.293870,1,5,-8,0,2,0,82,84,127,110,39,133.82,344,65.00,-128.00,-1056.00
2024-06-07 10:33:15.294761,0,5,-8,0,2,0,82,84,126,110,39,133.86,344,41.00,-128.00,-1005.00
2024-06-07 10:33:15.378311,1,5,-8,0,2,0,82,84,126,110,39,133.95,344,14.00,-139.00,-991.00
2024-06-07 10:33:15.497773,0,5,-8,0,2,0,82,84,125,110,39,133.87,344,4.00,-127.00,-944.00
2024-06-07 10:33:15.632994,0,5,-8,0,2,0,82,83,123,110,39,133.79,344,-4.00,-71.00,-915.00
2024-06-07 10:33:15.805218,0,5,-8,0,2,0,82,83,124,110,39,133.85,344,-1.00,-89.00,-1056.00
2024-06-07 10:33:15.837119,0,5,-8,0,2,0,82,83,123,110,39,133.78,344,23.00,-135.00,-1023.00
2024-06-07 10:33:15.888216,1,5,-8,0,2,0,82,83,123,110,39,133.87,345,37.00,-118.00,-1067.00
2024-06-07 10:33:15.989659,1,5,-8,0,2,0,82,83,122,110,39,133.79,345,-1.00,-110.00,-1021.00
2024-06-07 10:33:16.112098,0,5,-8,0,2,0,82,83,121,110,39,133.71,345,26.00,-75.00,-1000.00
2024-06-07 10:33:16.194166,0,3,-8,0,2,0,82,83,120,110,39,133.74,345,44.00,-98.00,-1075.00
2024-06-07 10:33:16.321190,1,2,-8,0,2,0,82,83,119,110,39,133.82,345,42.00,-92.00,-997.00
2024-06-07 10:33:16.397786,1,0,-8,0,1,0,82,83,120,110,39,133.80,345,51.00,-91.00,-996.00
2024-06-07 10:33:16.521730,1,2,-8,0,0,0,82,83,119,110,38,133.80,345,92.00,-130.00,-861.00
2024-06-07 10:33:16.601809,1,4,-8,0,0,0,82,84,118,110,38,133.78,345,55.00,-99.00,-1020.00
2024-06-07 10:33:16.726770,1,4,-8,0,0,0,82,84,119,110,38,133.76,345,38.00,-75.00,-1013.00
2024-06-07 10:33:16.805796,1,4,-8,0,0,0,82,84,120,110,38,133.80,345,13.00,-90.00,-825.00
2024-06-07 10:33:16.935885,1,4,-8,0,0,0,82,84,120,110,38,133.76,346,8.00,-100.00,-1021.00
2024-06-07 10:33:17.009719,1,4,-8,0,0,0,82,84,120,110,38,133.88,346,21.00,-126.00,-990.00
2024-06-07 10:33:17.136180,1,4,-8,0,0,0,82,84,120,110,38,133.79,346,36.00,-81.00,-1065.00
2024-06-07 10:33:17.213756,1,4,-8,0,0,0,82,84,123,110,38,133.89,346,40.00,-121.00,-913.00
2024-06-07 10:33:17.315938,1,4,-8,0,0,0,82,84,122,110,38,133.78,346,-3.00,-67.00,-1004.00
2024-06-07 10:33:17.417737,0,4,-8,0,0,0,82,84,122,110,38,133.81,346,59.00,-107.00,-1019.00
2024-06-07 10:33:17.519678,1,4,-8,0,0,0,82,84,124,110,38,133.85,346,-69.00,-66.00,-1012.00
2024-06-07 10:33:17.648194,1,4,-8,0,0,0,81,84,123,110,38,133.78,346,59.00,-87.00,-1064.00
2024-06-07 10:33:17.723707,2,4,-7,0,0,0,81,84,123,110,38,133.83,346,80.00,-111.00,-1038.00
2024-06-07 10:33:17.955515,1,4,-8,0,0,0,81,84,123,110,38,133.80,346,32.00,-81.00,-1050.00
2024-06-07 10:33:17.956133,0,4,-8,0,0,0,81,84,124,110,38,133.77,347,-18.00,-63.00,-897.00
2024-06-07 10:33:18.029740,0,4,-8,0,0,0,81,84,124,110,38,133.73,347,3.00,-95.00,-1128.00
2024-06-07 10:33:18.164587,0,5,-8,0,0,0,81,84,124,110,38,133.75,347,29.00,-72.00,-1002.00
2024-06-07 10:33:18.233692,0,5,-8,0,0,0,81,84,127,110,38,133.73,347,-13.00,-90.00,-1000.00
2024-06-07 10:33:18.365008,0,5,-8,0,0,0,81,84,127,110,38,133.68,347,-68.00,-43.00,-1087.00
2024-06-07 10:33:18.437815,0,5,-8,0,0,0,81,84,126,110,38,133.71,347,-15.00,-84.00,-978.00
2024-06-07 10:33:18.539573,0,4,-8,0,0,0,81,84,127,110,38,133.74,347,-10.00,-85.00,-964.00
2024-06-07 10:33:18.671970,0,4,-8,0,0,0,82,84,126,110,38,133.70,347,-5.00,-70.00,-986.00
2024-06-07 10:33:18.743629,-1,4,-5,0,0,0,82,84,125,110,38,133.56,347,-30.00,-64.00,-960.00
2024-06-07 10:33:18.876937,-1,4,0,0,0,0,82,84,125,110,38,133.68,347,10.00,-107.00,-1078.00
2024-06-07 10:33:18.947667,-1,4,6,0,0,0,82,84,124,110,38,133.62,348,-67.00,-34.00,-1007.00
2024-06-07 10:33:19.081721,-1,4,12,0,0,0,82,84,125,110,38,133.62,348,-41.00,-70.00,-934.00
2024-06-07 10:33:19.151797,-2,4,18,0,0,0,82,84,124,110,38,133.55,348,-117.00,-39.00,-989.00
2024-06-07 10:33:19.290268,-3,3,24,0,0,0,82,84,126,110,38,133.51,348,-57.00,-63.00,-993.00
2024-06-07 10:33:19.355640,-4,2,29,0,0,0,82,84,126,110,38,133.54,348,-143.00,-27.00,-998.00
2024-06-07 10:33:19.494571,-4,1,35,0,0,0,82,84,127,110,38,133.59,348,-99.00,-32.00,-972.00
2024-06-07 10:33:19.559484,-3,1,40,0,0,0,82,84,126,110,38,133.51,348,-59.00,-49.00,-1008.00
2024-06-07 10:33:19.695796,-4,1,46,0,0,0,82,84,127,110,38,133.48,348,-61.00,-16.00,-936.00
2024-06-07 10:33:19.763473,-3,1,52,0,0,0,82,84,127,110,38,133.40,348,0.00,-37.00,-977.00
2024-06-07 10:33:19.814865,-3,0,58,0,0,0,82,84,127,110,38,133.32,348,-101.00,28.00,-1023.00
2024-06-07 10:33:19.917310,-4,0,64,0,0,0,82,84,129,110,38,133.50,349,0.00,-28.00,-944.00
2024-06-07 10:33:20.018898,-4,-1,71,0,0,0,82,84,129,110,38,133.40,349,-97.00,5.00,-1004.00
2024-06-07 10:33:20.120672,-4,-1,77,0,0,0,82,84,128,110,38,133.54,349,-102.00,10.00,-985.00
2024-06-07 10:33:20.225077,-4,0,83,0,0,0,82,84,127,110,38,133.53,349,-6.00,-35.00,-1103.00
2024-06-07 10:33:20.324594,-3,0,89,0,0,0,82,84,127,110,38,133.47,349,-86.00,21.00,-1011.00
2024-06-07 10:33:20.519551,-3,0,95,0,0,0,82,84,126,110,38,133.51,349,-97.00,25.00,-1006.00
2024-06-07 10:33:20.528749,-3,-1,101,0,0,0,82,84,125,110,38,133.56,349,-45.00,-3.00,-1019.00
2024-06-07 10:33:20.721129,-3,-2,107,0,0,0,82,84,126,110,38,133.58,349,-120.00,80.00,-944.00
2024-06-07 10:33:20.732715,-3,-3,112,0,0,0,82,84,125,110,38,133.60,349,-142.00,74.00,-968.00
2024-06-07 10:33:20.924817,-4,-4,118,0,0,0,82,84,125,110,38,133.54,349,-49.00,88.00,-1081.00
2024-06-07 10:33:20.936948,-4,-4,124,0,0,0,82,84,123,110,38,133.64,350,-65.00,92.00,-940.00
2024-06-07 10:33:21.134814,-2,-3,130,0,0,0,82,84,124,110,38,133.59,350,-74.00,107.00,-1077.00
2024-06-07 10:33:21.140672,-2,-4,136,0,0,0,82,84,123,110,38,133.68,350,-58.00,89.00,-991.00
2024-06-07 10:33:21.335635,-1,-4,143,0,0,0,82,84,123,110,38,133.73,350,-48.00,95.00,-955.00
2024-06-07 10:33:21.344721,0,-4,149,0,0,0,82,84,123,110,38,133.73,350,-17.00,102.00,-978.00
2024-06-07 10:33:21.446570,0,-5,156,0,0,0,82,84,123,110,38,133.74,350,-16.00,105.00,-994.00
2024-06-07 10:33:21.641366,1,-5,162,0,0,0,82,84,122,110,38,133.62,350,-7.00,101.00,-927.00
2024-06-07 10:33:21.653262,1,-4,168,0,0,0,81,83,121,110,38,133.74,350,-5.00,76.00,-962.00
2024-06-07 10:33:21.752545,1,-4,174,0,0,0,81,83,121,110,38,133.64,350,126.00,17.00,-926.00
2024-06-07 10:33:21.854492,2,-2,-179,0,0,0,81,83,121,110,38,133.70,350,-32.00,100.00,-1010.00
2024-06-07 10:33:21.956504,3,-2,-173,0,0,0,81,83,120,110,38,133.75,351,100.00,79.00,-1024.00
2024-06-07 10:33:22.153772,3,-3,-166,0,0,0,81,83,121,110,38,133.73,351,70.00,89.00,-1049.00
2024-06-07 10:33:22.160759,3,-3,-160,0,0,0,81,83,122,110,38,133.67,351,24.00,66.00,-1034.00
2024-06-07 10:33:22.362868,4,-2,-153,0,0,0,81,83,123,110,38,133.66,351,3.00,66.00,-983.00
2024-06-07 10:33:22.364648,4,-1,-147,0,0,0,81,83,124,110,38,133.66,351,11.00,88.00,-996.00
2024-06-07 10:33:22.563354,3,-1,-140,0,0,0,81,83,123,110,38,133.60,351,72.00,0.00,-944.00
2024-06-07 10:33:22.568633,3,0,-133,0,0,0,81,83,124,110,37,133.57,351,23.00,29.00,-1004.00
2024-06-07 10:33:22.670878,4,0,-127,0,0,0,81,83,124,110,37,133.64,351,120.00,-31.00,-996.00
2024-06-07 10:33:22.870511,5,1,-120,0,0,0,81,83,125,110,37,133.68,351,83.00,-33.00,-961.00
2024-06-07 10:33:22.874678,5,2,-113,0,0,0,81,83,124,110,37,133.62,351,55.00,-19.00,-1009.00
2024-06-07 10:33:22.976911,4,3,-107,0,0,0,81,83,125,110,37,133.53,352,136.00,-59.00,-992.00
2024-06-07 10:33:23.080418,4,4,-101,0,0,0,81,83,125,110,37,133.65,352,118.00,-52.00,-948.00
2024-06-07 10:33:23.180608,4,4,-95,0,0,0,81,83,124,110,37,133.58,352,98.00,-67.00,-1049.00
2024-06-07 10:33:23.283759,4,4,-89,0,0,0,81,83,124,110,37,133.66,352,95.00,-59.00,-996.00
2024-06-07 10:33:23.386235,4,5,-83,0,0,0,81,83,123,110,37,133.72,352,62.00,-42.00,-936.00
2024-06-07 10:33:23.435297,3,5,-78,0,0,0,81,83,123,110,37,133.66,352,57.00,-45.00,-1092.00
2024-06-07 10:33:23.537475,3,5,-72,0,0,0,81,83,119,110,37,133.72,352,52.00,-107.00,-1038.00
2024-06-07 10:33:23.694093,2,6,-61,0,0,0,81,83,121,110,37,133.75,352,34.00,-102.00,-1069.00
2024-06-07 10:33:23.792579,2,6,-56,0,0,0,81,83,122,110,37,133.75,352,47.00,-86.00,-1016.00
2024-06-07 10:33:23.894562,1,6,-50,0,0,0,81,83,120,110,37,133.84,353,62.00,-129.00,-1062.00
2024-06-07 10:33:23.996522,0,6,-45,0,0,0,81,83,120,110,37,133.81,353,25.00,-113.00,-1043.00
2024-06-07 10:33:24.047572,0,6,-39,0,0,0,81,83,120,110,37,133.78,353,11.00,-145.00,-1051.00
2024-06-07 10:33:24.150205,0,7,-33,0,0,0,81,83,121,110,37,133.79,353,24.00,-152.00,-928.00
2024-06-07 10:33:24.253289,-1,7,-27,0,0,0,81,83,121,110,37,133.64,353,-50.00,-105.00,-1006.00
2024-06-07 10:33:24.353229,-2,7,-23,0,0,0,81,83,122,110,37,133.66,353,20.00,-137.00,-1075.00
2024-06-07 10:33:24.510187,-2,7,-19,0,0,0,81,83,122,110,37,133.67,353,-59.00,-124.00,-915.00
2024-06-07 10:33:24.557533,-2,7,-16,0,0,0,81,83,122,110,36,133.67,353,-81.00,-100.00,-1051.00
2024-06-07 10:33:24.713351,-2,7,-13,0,0,0,81,83,123,110,36,133.71,353,-83.00,-90.00,-1075.00
2024-06-07 10:33:24.761837,-3,7,-12,0,0,0,81,83,125,110,36,133.75,353,-72.00,-99.00,-1090.00
2024-06-07 10:33:24.919834,-2,7,-11,0,0,0,81,83,126,110,36,133.79,354,-82.00,-95.00,-1005.00
2024-06-07 10:33:24.965393,-1,7,-9,0,0,0,81,83,128,110,36,133.74,354,-35.00,-105.00,-995.00
2024-06-07 10:33:25.123722,-1,7,-9,1,0,0,81,83,126,110,36,133.62,354,-40.00,-102.00,-1047.00
2024-06-07 10:33:25.169228,-1,6,-8,1,0,0,81,83,126,110,36,133.75,354,-47.00,-97.00,-1044.00
2024-06-07 10:33:25.328822,-1,5,-8,1,0,0,81,83,128,110,36,133.77,354,-53.00,-102.00,-1085.00
2024-06-07 10:33:25.373407,-1,5,-7,0,0,0,81,83,128,110,36,133.83,354,-65.00,-98.00,-984.00
2024-06-07 10:33:25.533447,-1,6,-7,0,0,0,81,83,129,110,36,133.83,354,17.00,-123.00,-1050.00
2024-06-07 10:33:25.577674,-1,6,-6,0,0,0,81,83,128,110,36,133.80,354,-1.00,-131.00,-974.00
2024-06-07 10:33:25.737974,-1,6,-6,0,0,0,81,83,127,110,36,133.82,354,-94.00,-96.00,-1021.00
2024-06-07 10:33:25.781621,-2,6,-6,0,0,0,81,83,126,110,36,133.86,354,-11.00,-114.00,-1019.00
2024-06-07 10:33:25.883230,-1,6,-6,0,0,0,81,83,125,110,36,133.80,355,-57.00,-101.00,-1023.00
2024-06-07 10:33:25.985177,-1,6,-6,0,0,1,81,83,124,110,36,133.72,355,-55.00,-97.00,-938.00
2024-06-07 10:33:26.089682,-1,6,-6,0,0,0,81,83,124,110,36,133.70,355,15.00,-136.00,-1001.00
2024-06-07 10:33:26.189193,-1,6,-6,0,0,0,81,83,123,110,36,133.85,355,-32.00,-118.00,-1103.00
2024-06-07 10:33:26.291671,0,6,-6,0,0,0,81,83,122,110,36,133.77,355,-52.00,-122.00,-978.00
2024-06-07 10:33:26.458050,0,7,-6,0,0,0,81,83,123,110,36,133.71,355,-69.00,-125.00,-1068.00
2024-06-07 10:33:26.495295,0,7,-6,0,0,0,81,83,123,110,36,133.86,355,-44.00,-158.00,-1028.00
2024-06-07 10:33:26.659518,-1,8,-6,0,0,0,81,83,122,110,35,133.85,355,-72.00,-146.00,-918.00
2024-06-07 10:33:26.699099,-2,8,-6,0,0,0,81,84,122,110,35,133.75,355,-35.00,-132.00,-1064.00
2024-06-07 10:33:26.865421,-2,8,-6,0,0,0,81,84,122,110,35,133.79,355,-9.00,-155.00,-1016.00
2024-06-07 10:33:26.903179,-2,8,-6,0,0,0,81,84,122,110,35,133.81,356,-35.00,-131.00,-1026.00
2024-06-07 10:33:27.005088,-1,8,-6,0,0,0,81,84,123,110,35,133.71,356,-87.00,-110.00,-979.00
2024-06-07 10:33:27.171438,-1,8,-7,0,0,0,81,84,123,110,35,133.60,356,-73.00,-146.00,-917.00
2024-06-07 10:33:27.209074,-2,8,-12,-1,0,0,81,84,124,110,35,133.61,356,-79.00,-157.00,-980.00
2024-06-07 10:33:27.376484,-3,9,-18,-1,0,0,81,84,125,110,35,133.76,356,-2.00,-177.00,-947.00
2024-06-07 10:33:27.414958,-2,8,-23,-1,0,0,81,84,124,110,35,133.74,356,-16.00,-205.00,-1064.00
2024-06-07 10:33:27.514924,-1,8,-29,0,0,0,81,84,124,110,35,133.83,356,-80.00,-157.00,-971.00
2024-06-07 10:33:27.580912,0,8,-35,0,-1,0,81,84,125,110,35,133.93,356,81.00,-187.00,-1002.00
2024-06-07 10:33:27.719082,1,8,-41,0,-1,0,81,84,126,110,35,133.87,356,4.00,-175.00,-1051.00
2024-06-07 10:33:27.770682,2,8,-47,0,-1,0,81,84,127,110,35,133.75,356,7.00,-120.00,-945.00
2024-06-07 10:33:27.872405,3,7,-53,0,-1,0,81,84,126,110,35,133.62,357,87.00,-139.00,-1160.00
2024-06-07 10:33:27.974255,4,7,-59,0,-1,0,81,84,126,110,35,133.71,357,137.00,-152.00,-992.00
2024-06-07 10:33:28.076195,5,7,-66,0,-1,0,81,84,127,110,35,133.77,357,153.00,-93.00,-858.00
2024-06-07 10:33:28.198927,6,5,-72,0,-2,0,81,84,128,110,35,133.75,357,171.00,-98.00,-891.00
2024-06-07 10:33:28.281236,7,4,-79,0,-2,0,81,84,128,110,35,133.74,357,149.00,-73.00,-1001.00
2024-06-07 10:33:28.399766,8,3,-85,0,-2,0,81,84,127,110,35,133.66,357,191.00,-119.00,-971.00
2024-06-07 10:33:28.484141,8,2,-92,0,-2,0,81,84,128,110,35,133.64,357,162.00,-70.00,-990.00
2024-06-07 10:33:28.604468,8,1,-98,0,-2,0,81,84,129,110,35,133.62,357,184.00,-68.00,-966.00
2024-06-07 10:33:28.688260,8,1,-105,0,-3,0,82,83,129,110,35,133.54,357,184.00,-46.00,-981.00
2024-06-07 10:33:28.809277,8,0,-111,-1,-3,0,82,83,131,110,35,133.48,357,191.00,-13.00,-980.00
2024-06-07 10:33:28.892503,8,0,-118,-1,-3,0,82,83,130,110,35,133.74,358,223.00,-4.00,-940.00
2024-06-07 10:33:28.994568,8,-1,-124,-1,-4,0,82,83,131,110,35,133.58,358,228.00,30.00,-984.00
2024-06-07 10:33:29.121245,8,-3,-130,-1,-4,0,82,83,130,110,35,133.65,358,61.00,62.00,-1054.00
2024-06-07 10:33:29.198250,7,-3,-135,-1,-4,0,82,83,131,110,35,133.61,358,171.00,69.00,-1005.00
2024-06-07 10:33:29.300249,7,-4,-141,-1,-4,0,82,83,131,110,35,133.64,358,192.00,40.00,-1035.00
2024-06-07 10:33:29.425872,6,-5,-147,-1,-4,0,82,83,131,110,35,133.63,358,115.00,65.00,-1034.00
2024-06-07 10:33:29.506439,6,-5,-152,-2,-5,0,82,83,130,110,35,133.65,358,96.00,109.00,-972.00
2024-06-07 10:33:29.606194,6,-6,-158,-2,-5,0,82,83,130,110,35,133.51,358,99.00,114.00,-948.00
2024-06-07 10:33:29.731212,5,-6,-164,-2,-5,0,81,84,130,110,35,133.56,358,98.00,107.00,-979.00
2024-06-07 10:33:29.810165,4,-7,-170,-2,-4,0,81,84,129,110,35,133.64,358,95.00,96.00,-1065.00
2024-06-07 10:33:29.935660,4,-7,-176,-2,-4,0,81,84,129,110,35,133.69,359,142.00,98.00,-954.00
2024-06-07 10:33:30.015352,4,-7,177,-2,-4,0,81,84,128,110,35,133.73,359,95.00,97.00,-941.00
2024-06-07 10:33:30.140481,3,-7,171,-2,-5,0,81,84,128,110,35,133.66,359,34.00,139.00,-1008.00
2024-06-07 10:33:30.218212,1,-8,165,-2,-5,0,81,84,125,110,35,133.84,359,40.00,110.00,-1036.00
2024-06-07 10:33:30.345250,0,-8,159,-2,-5,0,81,84,127,110,35,133.82,359,35.00,146.00,-977.00
2024-06-07 10:33:30.422085,0,-8,152,-2,-5,0,81,84,124,110,35,133.62,359,72.00,155.00,-1005.00
2024-06-07 10:33:30.550372,0,-8,146,-2,-5,0,81,84,125,110,35,133.74,359,23.00,145.00,-951.00
2024-06-07 10:33:30.626163,-1,-8,140,-2,-5,0,81,84,125,110,35,133.73,359,-55.00,157.00,-987.00
2024-06-07 10:33:30.754763,-2,-8,134,-2,-6,0,81,83,125,110,35,133.67,359,-24.00,101.00,-920.00
2024-06-07 10:33:30.830276,-3,-7,127,-2,-6,0,81,83,125,110,35,133.67,359,-114.00,177.00,-1046.00
2024-06-07 10:33:30.961390,-4,-7,121,-2,-6,0,81,83,124,110,35,133.60,360,-31.00,112.00,-1012.00
2024-06-07 10:33:31.034551,-5,-7,114,-2,-6,0,81,83,126,110,35,133.68,360,-139.00,132.00,-1040.00
2024-06-07 10:33:31.174691,-6,-7,108,-2,-6,0,81,83,128,110,35,133.53,360,-67.00,104.00,-1019.00
2024-06-07 10:33:31.243264,-7,-5,102,-2,-6,0,81,83,125,110,35,133.47,360,-96.00,132.00,-1017.00
2024-06-07 10:33:31.344796,-6,-4,95,-2,-5,0,81,83,128,110,35,133.29,360,-173.00,83.00,-978.00
2024-06-07 10:33:31.442249,-7,-4,89,-2,-6,0,81,83,127,110,35,133.23,360,-146.00,43.00,-983.00
2024-06-07 10:33:31.575636,-7,-3,82,-2,-6,0,81,83,127,110,34,133.25,360,-162.00,88.00,-995.00
2024-06-07 10:33:31.594786,-8,-2,75,-3,-6,0,81,83,131,110,34,133.16,360,-208.00,55.00,-917.00
2024-06-07 10:33:31.778814,-8,-1,69,-3,-6,0,82,83,132,110,34,133.20,360,-132.00,2.00,-979.00
2024-06-07 10:33:31.850019,-8,0,62,-3,-6,0,82,83,133,110,34,133.17,360,-103.00,-24.00,-1039.00
2024-06-07 10:33:31.984701,-8,0,57,-3,-6,0,82,83,133,110,34,133.15,361,-151.00,4.00,-942.00
2024-06-07 10:33:32.054698,-8,1,51,-2,-7,0,82,83,134,110,34,133.16,361,-178.00,14.00,-944.00
2024-06-07 10:33:32.193020,-8,3,46,-2,-7,0,82,83,135,120,34,133.11,361,-101.00,-58.00,-920.00
2024-06-07 10:33:32.258040,-8,3,40,-2,-6,0,82,83,136,120,34,133.34,361,-104.00,-37.00,-1062.00
2024-06-07 10:33:32.308755,-8,4,35,-2,-6,0,82,83,135,120,34,133.35,361,-31.00,-96.00,-1011.00
2024-06-07 10:33:32.495628,-8,5,29,-2,-6,0,82,83,135,120,34,133.34,361,-128.00,-27.00,-1026.00
2024-06-07 10:33:32.512785,-7,5,24,-2,-5,0,82,83,132,120,34,133.40,361,-81.00,-69.00,-983.00
2024-06-07 10:33:32.700871,-6,6,18,-2,-5,0,82,83,130,120,34,133.27,361,-127.00,-58.00,-921.00
2024-06-07 10:33:32.716935,-6,6,12,-2,-4,0,81,83,127,110,34,133.41,361,-43.00,-96.00,-1053.00
2024-06-07 10:33:32.905841,-4,6,8,-2,-4,0,81,83,124,110,34,133.39,361,-157.00,-54.00,-993.00
2024-06-07 10:33:32.920718,-4,7,5,-2,-4,0,81,83,122,110,34,133.45,362,-84.00,-140.00,-980.00
2024-06-07 10:33:33.023446,-4,7,2,-2,-4,0,81,83,120,110,34,133.49,362,-125.00,-105.00,-902.00
2024-06-07 10:33:33.125566,-4,7,0,-2,-4,0,81,83,120,110,34,133.48,362,-17.00,-139.00,-1116.00
2024-06-07 10:33:33.226707,-4,8,-1,-2,-4,0,81,83,119,110,34,133.45,362,8.00,-132.00,-984.00
2024-06-07 10:33:33.417241,-3,9,-2,-2,-4,0,81,83,117,110,34,133.55,362,-109.00,-129.00,-968.00
2024-06-07 10:33:33.430844,-4,9,-3,-2,-3,0,81,83,116,110,34,133.57,362,-54.00,-126.00,-981.00
2024-06-07 10:33:33.622020,-4,10,-3,-1,-3,0,81,83,115,110,34,133.50,362,-53.00,-117.00,-1082.00
2024-06-07 10:33:33.634772,-4,11,-4,-1,-3,0,81,83,115,110,34,133.51,362,-86.00,-122.00,-916.00
2024-06-07 10:33:33.736899,-4,12,-4,-1,-2,0,81,83,114,110,34,133.49,362,-42.00,-127.00,-1105.00
2024-06-07 10:33:33.929580,-5,12,-4,-1,-1,0,81,83,113,100,34,133.47,362,-43.00,-135.00,-917.00
2024-06-07 10:33:33.940880,-4,12,-4,0,0,0,81,83,112,100,34,133.29,363,-48.00,-133.00,-963.00
2024-06-07 10:33:34.042853,-4,13,-5,0,0,0,81,83,112,100,34,133.45,363,-42.00,-134.00,-1063.00
2024-06-07 10:33:34.236757,-4,13,-5,0,1,0,81,83,112,100,34,133.53,363,75.00,-199.00,-952.00
2024-06-07 10:33:34.246957,-5,13,-5,1,1,0,81,83,113,100,34,133.54,363,-6.00,-162.00,-1045.00
2024-06-07 10:33:34.441944,-4,13,-5,1,2,0,81,83,114,100,34,133.51,363,-60.00,-125.00,-1075.00
2024-06-07 10:33:34.450738,-4,14,-5,2,3,-1,81,83,116,100,34,133.37,363,-13.00,-171.00,-977.00
2024-06-07 10:33:34.646609,-4,15,-4,2,4,-1,81,83,117,100,34,133.53,363,-44.00,-205.00,-989.00
2024-06-07 10:33:34.654693,-5,15,-4,2,5,-1,81,83,118,100,34,133.49,363,-94.00,-188.00,-896.00
2024-06-07 10:33:34.851007,-5,16,-5,2,6,-1,81,83,120,110,34,133.45,363,-116.00,-190.00,-1056.00
2024-06-07 10:33:34.859147,-6,16,-5,2,7,-1,81,83,120,110,34,133.44,363,-77.00,-206.00,-990.00
2024-06-07 10:33:35.056604,-6,17,-5,2,7,0,81,83,123,110,34,133.37,364,-113.00,-215.00,-1004.00
2024-06-07 10:33:35.062790,-6,17,-5,3,8,0,81,83,123,110,34,133.39,364,-123.00,-218.00,-981.00
2024-06-07 10:33:35.261503,-6,17,-5,3,9,0,81,83,124,110,34,133.34,364,-5.00,-245.00,-1011.00
2024-06-07 10:33:35.266767,-6,18,-5,3,9,0,81,83,126,110,34,133.33,364,-67.00,-212.00,-1056.00
2024-06-07 10:33:35.368763,-7,18,-5,4,10,0,81,83,128,110,34,133.33,364,-21.00,-231.00,-1018.00
2024-06-07 10:33:35.568646,-7,19,-5,5,12,0,81,83,130,110,34,133.44,364,-54.00,-219.00,-981.00
2024-06-07 10:33:35.572778,-7,20,-5,5,13,0,81,83,131,110,34,133.38,364,-129.00,-201.00,-980.00
2024-06-07 10:33:35.689322,-7,20,-5,6,14,0,81,83,127,110,34,133.20,364,-50.00,-246.00,-905.00
2024-06-07 10:33:35.776848,-5,14,-5,6,15,0,81,84,123,110,34,133.11,364,-176.00,-225.00,-1015.00
2024-06-07 10:33:35.878655,-3,9,-4,6,15,0,81,84,120,110,34,133.00,364,-114.00,-199.00,-981.00
2024-06-07 10:33:35.930132,-3,7,-4,6,15,0,81,84,118,110,34,133.10,365,-143.00,-171.00,-1002.00
2024-06-07 10:33:36.032310,-4,5,-4,5,14,0,81,84,117,110,34,132.86,365,-82.00,-200.00,-930.00
2024-06-07 10:33:36.185697,-3,3,-4,5,13,0,81,84,116,110,34,133.04,365,-42.00,-196.00,-963.00
2024-06-07 10:33:36.236427,-2,3,-4,5,12,0,81,84,116,110,34,133.20,365,-7.00,-208.00,-954.00
2024-06-07 10:33:36.386880,-1,3,-4,5,10,0,81,84,114,110,34,133.33,365,-77.00,-170.00,-860.00
2024-06-07 10:33:36.440127,-1,4,-4,4,9,0,81,84,111,110,34,133.08,365,-104.00,-151.00,-970.00
2024-06-07 10:33:36.542682,-2,4,-4,3,8,0,81,84,112,110,33,133.28,365,-22.00,-171.00,-979.00
2024-06-07 10:33:36.694780,-3,5,-4,3,7,0,81,84,110,110,33,133.36,365,5.00,-206.00,-981.00
2024-06-07 10:33:36.745953,-2,5,-4,3,6,0,81,83,108,110,33,133.27,365,-14.00,-168.00,-986.00
2024-06-07 10:33:36.899510,0,5,-4,3,6,0,81,83,107,110,33,133.32,365,-31.00,-159.00,-1091.00
2024-06-07 10:33:36.949891,0,6,-4,3,5,0,81,83,105,100,33,133.24,366,-6.00,-159.00,-962.00
2024-06-07 10:33:37.051973,0,6,-4,3,5,0,81,83,104,100,33,133.25,366,14.00,-185.00,-1062.00
2024-06-07 10:33:37.153812,0,5,-4,3,4,0,81,83,104,100,33,133.36,366,-79.00,-136.00,-1113.00
2024-06-07 10:33:37.255819,1,5,-4,2,4,0,81,83,102,100,33,133.39,366,-3.00,-166.00,-1019.00
2024-06-07 10:33:37.412527,0,6,-4,2,3,0,81,83,102,100,33,133.26,366,-48.00,-135.00,-938.00
2024-06-07 10:33:37.459919,0,6,-4,1,3,0,81,83,103,100,33,133.27,366,-54.00,-163.00,-878.00
2024-06-07 10:33:37.620674,0,6,-4,1,3,0,81,83,102,100,33,133.33,366,81.00,-171.00,-1099.00
2024-06-07 10:33:37.663871,0,6,-4,1,2,0,81,83,102,100,33,133.29,366,10.00,-178.00,-1034.00
2024-06-07 10:33:37.820521,0,7,-4,0,2,-1,81,84,102,100,33,133.22,366,4.00,-128.00,-1002.00
2024-06-07 10:33:37.867958,0,6,-4,0,2,-1,81,84,102,100,33,133.35,367,0.00,-149.00,-1036.00
2024-06-07 10:33:37.970702,-1,6,-4,0,2,0,81,84,103,100,33,133.25,367,-47.00,-138.00,-983.00
2024-06-07 10:33:38.072013,-1,6,-4,0,1,0,81,84,102,100,33,133.17,367,4.00,-156.00,-940.00
2024-06-07 10:33:38.232699,-1,6,-4,0,1,0,81,84,102,100,33,133.19,367,2.00,-134.00,-995.00
2024-06-07 10:33:38.275771,0,6,-4,1,1,0,81,84,100,100,33,133.13,367,-45.00,-103.00,-1005.00
2024-06-07 10:33:38.378525,0,6,-4,0,1,0,81,84,101,100,33,133.07,367,8.00,-121.00,-914.00
2024-06-07 10:33:38.537300,1,6,-4,0,1,0,81,84,101,100,33,133.14,367,39.00,-117.00,-993.00
2024-06-07 10:33:38.582639,0,5,-4,0,1,0,81,84,101,100,33,133.15,367,8.00,-103.00,-1076.00
2024-06-07 10:33:38.728693,0,5,-4,0,1,0,81,84,102,100,33,133.24,367,0.00,-117.00,-999.00
2024-06-07 10:33:38.785801,0,5,-4,0,1,0,82,84,104,100,33,133.28,367,8.00,-137.00,-1095.00
2024-06-07 10:33:38.947182,0,5,-4,0,1,-1,82,84,105,100,33,133.36,368,-31.00,-85.00,-1073.00
2024-06-07 10:33:38.989836,0,5,-4,0,1,-1,82,84,107,100,33,133.38,368,-11.00,-85.00,-977.00
2024-06-07 10:33:39.158289,0,4,-4,0,1,-1,82,84,107,110,33,133.34,368,12.00,-104.00,-943.00
2024-06-07 10:33:39.195913,0,3,-4,0,1,0,82,84,108,110,33,133.30,368,11.00,-68.00,-936.00
2024-06-07 10:33:39.295925,1,4,-4,0,0,0,82,84,108,110,33,133.31,368,-8.00,-96.00,-1058.00
2024-06-07 10:33:39.463996,0,4,-4,0,0,0,82,84,111,110,33,133.31,368,-46.00,-68.00,-988.00
2024-06-07 10:33:39.500955,0,5,-4,0,0,0,82,84,110,110,33,133.31,368,18.00,-93.00,-881.00
2024-06-07 10:33:39.665757,1,5,-4,0,0,0,82,84,111,110,32,133.31,368,-20.00,-64.00,-942.00
2024-06-07 10:33:39.665921,0,5,-4,0,0,0,82,84,111,110,32,133.36,368,27.00,-81.00,-1070.00
2024-06-07 10:33:39.868484,0,4,-4,0,0,0,81,84,110,110,32,133.30,368,123.00,-121.00,-982.00
2024-06-07 10:33:39.907694,1,4,-4,0,0,0,81,84,111,110,32,133.29,369,63.00,-93.00,-1036.00
2024-06-07 10:33:40.073849,1,4,-4,0,0,0,81,84,111,110,32,133.24,369,38.00,-85.00,-983.00
2024-06-07 10:33:40.074969,1,4,-4,0,0,0,81,84,111,110,32,133.26,369,1.00,-71.00,-1041.00
2024-06-07 10:33:40.162495,0,4,-4,0,0,0,81,84,111,110,32,133.40,369,1.00,-67.00,-1019.00
2024-06-07 10:33:40.280412,0,4,-4,0,0,0,81,84,111,110,32,133.34,369,48.00,-91.00,-950.00
2024-06-07 10:33:40.366611,0,4,-4,0,0,0,81,84,113,110,32,133.33,369,-21.00,-98.00,-1128.00
2024-06-07 10:33:40.482892,0,4,-4,0,0,0,81,84,112,110,32,133.30,369,11.00,-72.00,-1026.00
2024-06-07 10:33:40.571207,0,4,-4,0,0,0,81,84,113,110,32,133.39,369,28.00,-73.00,-1028.00
2024-06-07 10:33:40.688711,0,3,-4,0,0,0,81,84,115,110,32,133.37,369,14.00,-65.00,-1020.00
2024-06-07 10:33:40.774407,0,4,-4,0,0,0,81,83,114,110,32,133.38,369,9.00,-102.00,-944.00
2024-06-07 10:33:40.881604,0,4,-4,0,0,0,81,83,115,110,32,133.38,370,-22.00,-59.00,-1013.00
2024-06-07 10:33:40.978712,0,3,-4,0,0,0,81,83,115,110,32,133.55,370,-23.00,-53.00,-907.00
2024-06-07 10:33:41.081079,0,2,-4,0,0,0,81,83,116,110,32,133.48,370,-62.00,-43.00,-887.00
2024-06-07 10:33:41.186418,0,3,-4,0,0,0,81,83,115,110,32,133.44,370,30.00,-68.00,-991.00
2024-06-07 10:33:41.289450,0,3,-4,0,0,0,81,83,116,110,32,133.45,370,11.00,-61.00,-981.00
2024-06-07 10:33:41.386314,0,3,-4,0,0,0,81,83,116,110,32,133.54,370,79.00,-75.00,-1001.00
2024-06-07 10:33:41.506916,0,2,-4,0,0,0,81,83,117,110,32,133.52,370,-8.00,-46.00,-973.00
2024-06-07 10:33:41.590359,1,2,-4,0,0,0,81,83,115,110,31,133.46,370,-72.00,-31.00,-945.00
2024-06-07 10:33:41.712327,0,2,-4,0,0,0,81,83,116,110,31,133.46,370,-117.00,-21.00,-932.00
2024-06-07 10:33:41.794389,-1,2,-4,-1,0,0,80,83,114,110,31,133.41,370,-43.00,-41.00,-974.00
2024-06-07 10:33:41.916849,-1,2,-4,0,0,0,80,83,116,110,31,133.44,371,27.00,-110.00,-988.00
2024-06-07 10:33:41.998671,-1,3,-4,0,0,0,80,83,116,110,31,133.39,371,-45.00,-44.00,-950.00
2024-06-07 10:33:42.121424,0,3,-4,0,0,0,80,83,117,110,31,133.39,371,-93.00,-30.00,-974.00
2024-06-07 10:33:42.202673,0,3,-4,0,0,0,80,83,115,110,31,133.49,371,10.00,-63.00,-1051.00
2024-06-07 10:33:42.330664,0,3,-4,0,0,0,80,83,116,110,31,133.47,371,31.00,-69.00,-1042.00
2024-06-07 10:33:42.406308,0,3,-4,0,0,0,80,83,117,110,31,133.51,371,25.00,-65.00,-936.00
2024-06-07 10:33:42.531258,0,3,-4,0,0,0,80,83,116,110,31,133.56,371,12.00,-74.00,-880.00
2024-06-07 10:33:42.610698,0,3,-4,0,0,0,80,83,116,110,31,133.51,371,13.00,-58.00,-1043.00
2024-06-07 10:33:42.736016,0,4,-4,0,0,0,80,83,116,110,31,133.57,371,82.00,-125.00,-883.00
2024-06-07 10:33:42.814380,0,3,-4,0,0,0,82,83,118,110,31,133.62,371,7.00,-58.00,-1065.00
2024-06-07 10:33:42.916520,1,4,-4,0,0,0,82,83,118,110,31,133.58,372,-10.00,-58.00,-1041.00
2024-06-07 10:33:43.043126,1,4,-4,0,0,0,82,83,116,110,31,133.68,372,24.00,-89.00,-901.00
2024-06-07 10:33:43.120452,1,5,-4,0,0,0,82,83,117,110,31,133.60,372,7.00,-70.00,-949.00
2024-06-07 10:33:43.247897,1,5,-4,0,0,0,82,83,118,110,31,133.63,372,16.00,-57.00,-986.00
2024-06-07 10:33:43.324350,1,4,-4,0,0,0,82,83,118,110,31,133.65,372,29.00,-74.00,-1005.00
2024-06-07 10:33:43.452719,1,3,-4,0,0,0,82,83,119,110,31,133.61,372,-67.00,-38.00,-1006.00
2024-06-07 10:33:43.528314,1,3,-4,0,0,0,82,83,119,110,31,133.64,372,-38.00,-27.00,-996.00
2024-06-07 10:33:43.659221,1,3,-4,0,0,0,82,83,119,110,31,133.64,372,27.00,-79.00,-948.00
2024-06-07 10:33:43.732557,1,4,-4,0,0,0,82,83,119,110,31,133.59,372,15.00,-84.00,-906.00
2024-06-07 10:33:43.862627,0,3,-4,0,0,0,81,83,119,110,31,133.62,372,-25.00,-56.00,-936.00
2024-06-07 10:33:43.938485,0,3,-4,0,0,0,81,83,118,110,31,133.59,373,-29.00,-36.00,-1057.00
2024-06-07 10:33:44.038256,0,2,-4,0,0,0,81,83,119,110,31,133.54,373,0.00,-40.00,-979.00
2024-06-07 10:33:44.089484,0,2,-4,0,0,0,81,83,117,110,31,133.57,373,-3.00,-30.00,-1080.00
2024-06-07 10:33:44.271745,0,2,-4,0,0,0,81,83,117,110,31,133.58,373,5.00,-29.00,-1024.00
2024-06-07 10:33:44.293464,0,2,-4,0,0,0,81,83,119,110,31,133.56,373,69.00,-66.00,-1166.00
2024-06-07 10:33:44.476725,0,3,-4,0,0,0,81,83,118,110,31,133.65,373,-3.00,-53.00,-1001.00
2024-06-07 10:33:44.497725,1,3,-4,0,0,0,81,83,118,110,30,133.67,373,23.00,-69.00,-1027.00
2024-06-07 10:33:44.681376,0,4,-4,0,0,0,81,83,117,110,30,133.70,373,-17.00,-66.00,-971.00
2024-06-07 10:33:44.701500,0,4,-4,0,0,0,81,83,117,110,30,133.65,373,-23.00,-85.00,-946.00
2024-06-07 10:33:44.803474,0,4,-4,0,0,0,81,83,116,110,30,133.66,373,-85.00,-48.00,-935.00
2024-06-07 10:33:44.988650,0,4,-4,0,0,0,81,83,113,110,30,133.59,374,42.00,-74.00,-940.00
2024-06-07 10:33:45.008015,0,4,-4,0,0,0,81,83,113,110,30,133.64,374,-74.00,-48.00,-947.00
2024-06-07 10:33:45.197609,0,4,-4,0,0,0,81,83,112,110,30,133.58,374,-61.00,-72.00,-911.00
2024-06-07 10:33:45.212711,0,3,-4,0,0,0,81,83,112,110,30,133.55,374,-20.00,-87.00,-993.00
2024-06-07 10:33:45.313428,0,3,-4,0,0,0,81,83,111,110,30,133.59,374,42.00,-80.00,-1023.00
2024-06-07 10:33:45.415386,0,3,-4,0,0,0,81,83,110,110,30,133.57,374,-7.00,-75.00,-967.00
2024-06-07 10:33:45.517465,0,4,-4,0,0,0,81,83,110,110,30,133.59,374,-81.00,-8.00,-943.00
2024-06-07 10:33:45.707608,0,4,-4,0,0,0,81,83,111,110,30,133.56,374,-44.00,-43.00,-1039.00
2024-06-07 10:33:45.722007,0,3,-4,0,0,0,81,83,110,110,30,133.55,374,68.00,-81.00,-1028.00
2024-06-07 10:33:45.910488,0,4,-4,0,0,0,82,83,109,110,30,133.65,374,-29.00,-52.00,-967.00
2024-06-07 10:33:45.926128,0,3,-4,0,0,0,82,83,110,110,30,133.51,375,-17.00,-36.00,-1012.00
2024-06-07 10:33:46.115634,0,3,-4,0,0,0,82,83,108,110,30,133.65,375,-95.00,-19.00,-1019.00
2024-06-07 10:33:46.130124,0,3,-4,0,0,0,82,83,110,110,30,133.54,375,24.00,-98.00,-999.00
2024-06-07 10:33:46.320127,0,3,-4,0,0,0,82,83,110,110,30,133.59,375,-7.00,-63.00,-1084.00
2024-06-07 10:33:46.334171,0,3,-4,0,0,0,82,83,109,110,30,133.57,375,-18.00,-57.00,-1045.00
2024-06-07 10:33:46.524749,0,3,-4,0,0,0,82,83,111,110,30,133.57,375,9.00,-130.00,-1064.00
2024-06-07 10:33:46.538156,0,4,-4,0,0,0,82,83,111,110,30,133.59,375,16.00,-97.00,-1080.00
2024-06-07 10:33:46.731354,0,4,-4,0,0,0,82,83,112,110,30,133.60,375,25.00,-106.00,-940.00
