TS,pitch,roll,yaw,vgx,vgy,vgz,templ,temph,tof,h,bat,baro,time,agx,agy,agz
2024-06-07 10:30:56.644574,1,0,-10,0,0,0,83,85,10,0,54,131.89,239,22.00,-3.00,-1000.00
2024-06-07 10:30:56.742135,1,0,-10,0,0,0,83,85,10,0,54,131.88,239,22.00,-5.00,-998.00
2024-06-07 10:30:56.849529,1,0,-10,0,0,0,83,85,10,0,54,131.92,239,21.00,-4.00,-999.00
2024-06-07 10:30:56.948819,1,0,-10,0,0,0,83,85,10,0,54,131.96,239,22.00,-4.00,-998.00
2024-06-07 10:30:57.048127,1,0,-10,0,0,0,83,85,10,0,54,131.94,239,23.00,-3.00,-1000.00
2024-06-07 10:30:57.156503,1,0,-10,0,0,0,83,85,10,0,54,131.92,239,21.00,-4.00,-1000.00
2024-06-07 10:30:57.252203,1,0,-10,0,0,0,83,85,10,0,54,131.91,239,22.00,-4.00,-1002.00
2024-06-07 10:30:57.354779,1,0,-10,0,0,0,83,85,10,0,54,131.91,239,23.00,-4.00,-999.00
2024-06-07 10:30:57.469603,1,0,-10,0,0,0,83,85,10,0,54,131.93,239,24.00,-3.00,-1000.00
2024-06-07 10:30:57.558161,1,0,-10,0,0,0,83,85,10,0,54,131.93,239,22.00,-4.00,-1000.00
2024-06-07 10:30:57.668736,1,0,-10,0,0,0,83,85,10,0,54,131.94,239,22.00,-4.00,-999.00
2024-06-07 10:30:57.762238,1,0,-10,0,0,0,84,86,10,0,54,131.98,239,20.00,-4.00,-999.00
2024-06-07 10:30:57.863975,1,0,-10,0,0,0,84,86,10,0,54,131.92,239,21.00,-5.00,-999.00
2024-06-07 10:30:57.975668,1,0,-10,0,0,0,84,86,10,0,54,131.97,239,22.00,-3.00,-1001.00
2024-06-07 10:30:58.068287,1,0,-10,0,0,0,84,86,10,0,54,131.92,239,22.00,-3.00,-997.00
2024-06-07 10:30:58.119010,1,0,-10,0,0,0,84,86,10,0,54,131.90,239,22.00,-3.00,-997.00
2024-06-07 10:30:58.285079,1,0,-10,0,0,0,84,86,10,0,54,131.89,239,22.00,-2.00,-1000.00
2024-06-07 10:30:58.323871,1,0,-10,0,0,0,84,86,10,0,54,131.89,239,22.00,-4.00,-999.00
2024-06-07 10:30:58.490244,1,0,-10,0,0,0,84,86,10,0,54,131.90,239,21.00,-4.00,-1000.00
2024-06-07 10:30:58.530791,1,0,-10,0,0,0,84,86,10,0,54,131.91,239,21.00,-5.00,-998.00
2024-06-07 10:30:58.629086,1,0,-10,0,0,0,84,86,10,0,54,131.93,239,21.00,-4.00,-1000.00
2024-06-07 10:30:58.803723,1,0,-10,0,0,0,83,86,10,0,54,131.88,239,22.00,-3.00,-1000.00
2024-06-07 10:30:58.848688,1,0,-10,0,0,0,83,86,10,0,54,131.93,239,22.00,-4.00,-998.00
2024-06-07 10:30:58.935232,1,0,-10,0,0,0,83,86,10,0,54,131.89,239,23.00,-6.00,-1000.00
2024-06-07 10:30:59.036872,1,0,-10,0,0,0,83,86,10,0,54,131.93,239,21.00,-5.00,-1000.00
2024-06-07 10:30:59.204997,1,0,-10,0,0,0,83,86,10,0,54,131.91,239,22.00,-5.00,-996.00
2024-06-07 10:30:59.240940,1,0,-10,0,0,0,83,86,10,0,54,131.91,240,28.00,-6.00,-996.00
2024-06-07 10:30:59.409490,1,0,-10,0,0,0,83,86,10,0,54,131.91,240,21.00,-21.00,-997.00
2024-06-07 10:30:59.445875,1,0,-10,0,0,0,83,86,10,0,54,131.91,240,55.00,-8.00,-1017.00
2024-06-07 10:30:59.614103,1,0,-11,0,0,0,83,86,10,0,54,131.91,240,34.00,-8.00,-1022.00
2024-06-07 10:30:59.649936,1,0,-11,0,0,0,83,86,10,0,54,131.91,240,-57.00,6.00,-986.00
2024-06-07 10:30:59.823290,1,0,-12,0,0,0,84,85,10,0,54,131.91,240,35.00,9.00,-980.00
2024-06-07 10:30:59.853870,2,-2,-12,0,0,-1,84,85,10,0,54,131.91,240,-11.00,2.00,-992.00
2024-06-07 10:31:00.027819,0,-2,-12,-1,0,-3,84,85,10,0,54,131.91,240,-42.00,19.00,-1188.00
2024-06-07 10:31:00.058813,-2,2,-12,-1,-1,-6,84,85,14,10,54,132.10,240,-53.00,-10.00,-1357.00
2024-06-07 10:31:00.231026,-3,3,-12,-1,-1,-8,84,85,23,10,54,132.39,240,-69.00,-47.00,-1222.00
2024-06-07 10:31:00.262349,-3,3,-12,-1,-1,-8,84,85,33,20,54,132.36,241,-69.00,-50.00,-1125.00
2024-06-07 10:31:00.438820,-5,4,-12,-1,0,-8,84,85,42,30,54,132.61,241,-101.00,-37.00,-987.00
2024-06-07 10:31:00.465883,-5,5,-12,-1,0,-8,84,85,51,40,54,132.59,241,-98.00,-38.00,-971.00
2024-06-07 10:31:00.639207,-6,4,-12,-1,0,-7,84,85,60,50,54,132.74,241,-123.00,-29.00,-998.00
2024-06-07 10:31:00.669976,-6,3,-12,-2,0,-6,84,85,67,50,54,132.68,241,-71.00,-35.00,-1007.00
2024-06-07 10:31:00.843304,-8,3,-12,-1,0,-5,84,85,74,60,54,132.70,241,-112.00,-35.00,-899.00
2024-06-07 10:31:00.873782,-8,2,-12,-1,0,-4,84,85,77,60,54,132.85,241,-72.00,-48.00,-806.00
2024-06-07 10:31:01.056014,-8,3,-12,-1,0,-3,84,85,82,70,54,132.94,241,-102.00,-7.00,-917.00
2024-06-07 10:31:01.077845,-8,3,-12,-1,0,-1,84,85,84,70,54,132.95,241,-93.00,-76.00,-838.00
2024-06-07 10:31:01.257340,-8,3,-12,-1,0,0,84,85,84,70,54,132.91,241,-164.00,-46.00,-833.00
2024-06-07 10:31:01.281835,-8,3,-12,-1,0,0,84,85,84,70,54,132.98,242,-102.00,-55.00,-966.00
2024-06-07 10:31:01.457781,-8,3,-12,0,0,0,84,85,83,70,54,132.87,242,-89.00,-46.00,-952.00
2024-06-07 10:31:01.486304,-7,3,-12,0,0,0,84,85,81,70,54,132.86,242,-107.00,-55.00,-1013.00
2024-06-07 10:31:01.665716,-6,3,-12,0,0,1,84,85,80,70,54,132.88,242,-185.00,-16.00,-1031.00
2024-06-07 10:31:01.689815,-6,3,-12,0,0,1,84,85,79,70,54,132.77,242,-164.00,-25.00,-1003.00
2024-06-07 10:31:01.867358,-8,3,-12,0,0,0,84,86,80,70,54,132.82,242,-125.00,-15.00,-925.00
2024-06-07 10:31:01.893697,-8,2,-12,0,0,0,84,86,79,70,54,132.72,242,-122.00,-18.00,-965.00
2024-06-07 10:31:02.071698,-7,2,-12,0,0,0,84,86,79,70,54,132.79,242,-60.00,-83.00,-994.00
2024-06-07 10:31:02.097776,-6,2,-12,0,0,0,84,86,77,70,54,132.77,242,-107.00,-56.00,-946.00
2024-06-07 10:31:02.199862,-7,2,-12,0,0,0,84,86,77,70,54,132.72,243,-145.00,-23.00,-968.00
2024-06-07 10:31:02.250704,-7,2,-12,0,0,0,84,86,75,70,54,132.72,243,-139.00,-21.00,-919.00
2024-06-07 10:31:02.352850,-7,1,-12,0,0,0,84,86,75,70,54,132.59,243,-105.00,-27.00,-890.00
2024-06-07 10:31:02.485201,-7,1,-12,0,0,0,84,86,75,70,54,132.57,243,-87.00,-25.00,-1116.00
2024-06-07 10:31:02.557910,-6,1,-12,1,0,0,84,86,73,70,54,132.64,243,-129.00,-21.00,-908.00
2024-06-07 10:31:02.686191,-6,1,-12,1,0,0,84,86,73,70,54,132.46,243,-157.00,12.00,-1012.00
2024-06-07 10:31:02.761898,-5,0,-12,1,0,0,84,85,72,70,54,132.51,243,-88.00,-8.00,-1142.00
2024-06-07 10:31:02.891216,-4,1,-12,1,0,0,84,85,72,70,54,132.49,243,-139.00,11.00,-1055.00
2024-06-07 10:31:02.965873,-4,1,-12,1,0,0,84,85,71,60,54,132.45,243,-106.00,8.00,-1121.00
2024-06-07 10:31:03.095792,-4,1,-12,1,0,0,84,85,72,60,54,132.43,243,-63.00,-35.00,-935.00
2024-06-07 10:31:03.169909,-4,0,-12,0,0,0,84,85,72,60,54,132.40,244,-119.00,6.00,-1066.00
2024-06-07 10:31:03.300654,-5,0,-12,0,0,0,84,85,72,60,54,132.41,244,-64.00,-44.00,-1081.00
2024-06-07 10:31:03.373810,-5,0,-12,0,0,0,84,85,72,60,54,132.39,244,-96.00,-16.00,-973.00
2024-06-07 10:31:03.509643,-5,0,-12,0,0,0,84,85,72,70,54,132.41,244,-151.00,9.00,-967.00
2024-06-07 10:31:03.579030,-5,0,-12,0,0,0,84,85,72,70,54,132.35,244,-114.00,18.00,-905.00
2024-06-07 10:31:03.710128,-5,1,-12,0,0,0,84,85,72,70,54,132.47,244,-32.00,-19.00,-970.00
2024-06-07 10:31:03.781931,-4,1,-12,1,0,0,83,85,72,70,54,132.21,244,-73.00,-41.00,-936.00
2024-06-07 10:31:03.883804,-4,1,-12,0,0,0,83,85,73,70,54,132.31,244,-145.00,15.00,-988.00
2024-06-07 10:31:04.021305,-5,0,-12,0,0,0,83,85,73,70,54,132.30,244,-126.00,14.00,-1045.00
2024-06-07 10:31:04.087970,-5,0,-12,0,0,0,83,85,74,70,54,132.40,244,-86.00,-20.00,-1024.00
2024-06-07 10:31:04.189887,-6,0,-12,0,0,0,83,85,74,70,54,132.53,245,-137.00,11.00,-963.00
2024-06-07 10:31:04.292432,-6,0,-12,0,0,0,83,85,74,70,54,132.44,245,-99.00,-18.00,-1095.00
2024-06-07 10:31:04.428665,-6,1,-12,0,0,0,83,85,74,70,54,132.50,245,-86.00,-3.00,-972.00
2024-06-07 10:31:04.496831,-5,1,-12,1,0,0,83,85,75,70,54,132.49,245,-132.00,27.00,-1104.00
2024-06-07 10:31:04.635741,-4,0,-12,1,0,0,83,85,75,70,54,132.46,245,-40.00,0.00,-1111.00
2024-06-07 10:31:04.701616,-3,0,-12,1,0,0,83,85,76,70,54,132.50,245,-56.00,23.00,-1071.00
2024-06-07 10:31:04.802023,-2,0,-12,1,0,-1,83,85,77,70,54,132.53,245,-153.00,51.00,-1095.00
2024-06-07 10:31:04.939061,-3,0,-12,0,0,-2,83,85,79,70,54,132.51,245,-112.00,33.00,-1028.00
2024-06-07 10:31:05.005770,-4,0,-12,0,0,-3,83,85,84,80,54,132.69,245,-82.00,18.00,-1048.00
2024-06-07 10:31:05.143533,-4,0,-12,0,0,-4,83,85,89,80,54,132.65,245,-102.00,20.00,-1045.00
2024-06-07 10:31:05.209611,-5,0,-12,0,0,-4,83,85,94,80,54,132.72,246,-135.00,34.00,-981.00
2024-06-07 10:31:05.311601,-5,-1,-12,0,0,-5,83,85,101,90,54,132.75,246,-144.00,44.00,-1047.00
2024-06-07 10:31:05.450777,-5,0,-12,0,0,-5,83,85,106,90,54,132.72,246,-92.00,-7.00,-1001.00
2024-06-07 10:31:05.515602,-5,0,-12,0,0,-5,83,85,113,100,54,132.76,246,-105.00,-22.00,-1040.00
2024-06-07 10:31:05.661401,-5,1,-12,0,0,-5,83,85,118,110,54,132.85,246,-132.00,21.00,-1023.00
2024-06-07 10:31:05.719575,-4,1,-12,0,0,-5,83,85,125,110,54,132.79,246,-87.00,-42.00,-885.00
2024-06-07 10:31:05.860537,-5,1,-12,0,0,-5,83,85,131,120,54,132.89,246,-3.00,-56.00,-921.00
2024-06-07 10:31:05.872747,-5,0,-12,0,0,-5,83,85,137,120,54,132.95,246,-57.00,-12.00,-953.00
2024-06-07 10:31:06.065194,-5,0,-12,0,0,-5,83,85,142,130,54,132.97,246,-60.00,-7.00,-1137.00
2024-06-07 10:31:06.076609,-5,0,-12,0,0,-4,83,85,149,140,54,132.95,246,-59.00,9.00,-865.00
2024-06-07 10:31:06.269922,-5,0,-12,0,0,-4,83,85,153,140,54,133.11,247,-75.00,18.00,-974.00
2024-06-07 10:31:06.280549,-5,0,-12,0,0,-4,83,85,155,140,54,133.00,247,-125.00,35.00,-1069.00
2024-06-07 10:31:06.474744,-5,0,-12,0,0,-3,83,85,160,150,54,133.04,247,-77.00,-17.00,-965.00
2024-06-07 10:31:06.485229,-6,0,-12,0,0,-3,83,85,163,150,54,133.05,247,-98.00,26.00,-1017.00
2024-06-07 10:31:06.680103,-5,0,-12,0,0,-2,83,85,163,150,54,133.10,247,-112.00,31.00,-1033.00
2024-06-07 10:31:06.689513,-5,0,-12,0,0,-1,83,85,168,160,54,133.27,247,-48.00,-27.00,-952.00
2024-06-07 10:31:06.884721,-6,0,-12,0,0,-1,82,85,168,160,54,133.23,247,-102.00,1.00,-1026.00
2024-06-07 10:31:06.893409,-5,0,-12,0,0,-1,82,85,168,160,54,133.14,247,-163.00,-6.00,-959.00
2024-06-07 10:31:07.089294,-6,0,-12,0,0,-1,82,85,171,160,54,133.25,247,-90.00,3.00,-1003.00
2024-06-07 10:31:07.098716,-7,0,-12,0,0,0,82,85,172,160,54,133.25,247,-93.00,-30.00,-808.00
2024-06-07 10:31:07.199549,-7,0,-12,0,0,0,82,85,174,160,54,133.22,248,-79.00,-11.00,-962.00
2024-06-07 10:31:07.403190,-7,0,-12,0,0,0,82,85,174,160,54,133.25,248,-68.00,-44.00,-974.00
2024-06-07 10:31:07.403578,-6,1,-12,0,0,0,82,85,175,160,54,133.20,248,-161.00,-4.00,-883.00
2024-06-07 10:31:07.605721,-6,0,-12,0,0,0,82,85,176,160,54,133.36,248,-74.00,-26.00,-946.00
2024-06-07 10:31:07.609241,-6,0,-12,0,0,0,82,85,177,160,54,133.39,248,-3.00,-85.00,-1025.00
2024-06-07 10:31:07.805966,-7,1,-12,0,0,0,82,85,175,160,54,133.35,248,-82.00,-49.00,-1002.00
2024-06-07 10:31:07.812637,-7,1,-12,0,0,0,83,85,173,160,54,133.44,248,-74.00,-49.00,-996.00
2024-06-07 10:31:08.011175,-6,2,-12,0,0,0,83,85,174,160,54,133.32,248,-109.00,-31.00,-1016.00
2024-06-07 10:31:08.020179,-6,2,-12,0,0,0,83,85,177,160,54,133.44,248,-111.00,-41.00,-1016.00
2024-06-07 10:31:08.119633,-8,2,-12,0,0,0,83,85,180,170,54,133.59,248,-133.00,-37.00,-1084.00
2024-06-07 10:31:08.319655,-8,3,-12,0,0,0,83,85,177,170,54,133.40,249,-142.00,-52.00,-902.00
2024-06-07 10:31:08.323688,-8,2,-12,0,0,0,83,85,180,170,54,133.54,249,-117.00,-45.00,-934.00
2024-06-07 10:31:08.525153,-8,2,-12,0,0,0,83,85,178,170,54,133.57,249,-136.00,-58.00,-983.00
2024-06-07 10:31:08.527628,-8,2,-12,0,0,0,83,85,178,170,54,133.47,249,-109.00,-33.00,-1071.00
2024-06-07 10:31:08.729419,-8,3,-12,0,0,0,83,85,179,170,54,133.42,249,-181.00,-25.00,-971.00
2024-06-07 10:31:08.731554,-8,2,-12,0,0,0,83,85,180,170,54,133.46,249,-116.00,-41.00,-1059.00
2024-06-07 10:31:08.933943,-8,2,-12,0,0,0,83,84,176,170,54,133.56,249,-91.00,-61.00,-1037.00
2024-06-07 10:31:08.935586,-8,4,-12,0,0,0,83,84,179,170,54,133.42,249,-108.00,11.00,-898.00
2024-06-07 10:31:09.039125,-8,3,-12,0,0,0,83,84,177,170,54,133.05,249,-113.00,34.00,-1054.00
2024-06-07 10:31:09.140541,-8,1,-12,0,0,0,83,84,179,170,54,133.18,249,-93.00,0.00,-1027.00
2024-06-07 10:31:09.241458,-8,0,-12,0,0,0,83,84,181,170,54,133.14,250,-122.00,-29.00,-972.00
2024-06-07 10:31:09.448069,-7,0,-12,1,0,0,83,84,179,170,54,133.22,250,-162.00,10.00,-1054.00
2024-06-07 10:31:09.448159,-6,0,-12,1,0,0,83,84,180,170,54,133.22,250,-189.00,-3.00,-977.00
2024-06-07 10:31:09.496602,-7,1,-12,0,0,0,83,84,179,170,54,133.23,250,-92.00,-7.00,-949.00
2024-06-07 10:31:09.650718,-7,2,-12,0,0,1,83,84,179,170,54,132.97,250,-131.00,31.00,-876.00
2024-06-07 10:31:09.700430,-7,1,-12,0,1,1,83,84,176,170,54,133.17,250,-152.00,9.00,-869.00
2024-06-07 10:31:09.854659,-7,0,-12,0,1,2,82,84,174,160,54,133.15,250,-98.00,-2.00,-868.00
2024-06-07 10:31:09.904766,-8,-1,-12,0,0,2,82,84,172,160,54,133.31,250,-68.00,-19.00,-879.00
2024-06-07 10:31:10.006551,-7,0,-12,1,0,3,82,84,166,160,54,133.12,250,-111.00,7.00,-1067.00
2024-06-07 10:31:10.162399,-6,0,-12,1,0,3,82,84,163,150,54,133.11,250,-146.00,35.00,-1073.00
2024-06-07 10:31:10.210438,-6,0,-12,1,0,3,82,84,161,150,54,133.01,251,-125.00,-21.00,-884.00
2024-06-07 10:31:10.365999,-7,0,-12,1,0,3,82,84,158,150,54,132.99,251,-105.00,-39.00,-944.00
2024-06-07 10:31:10.414947,-5,0,-12,1,0,3,82,84,154,150,54,133.11,251,-149.00,-24.00,-934.00
2024-06-07 10:31:10.571756,-5,0,-12,0,0,2,82,84,153,140,54,133.10,251,-114.00,-65.00,-1126.00
2024-06-07 10:31:10.618411,-6,1,-12,0,0,2,82,84,151,140,54,132.94,251,-99.00,-36.00,-1024.00
2024-06-07 10:31:10.720377,-6,3,-12,0,0,2,82,84,148,140,54,132.82,251,-180.00,30.00,-1093.00
2024-06-07 10:31:10.878001,-7,3,-12,0,0,1,81,84,147,140,54,132.94,251,-180.00,29.00,-1142.00
2024-06-07 10:31:10.924883,-8,0,-12,0,0,1,81,84,145,140,54,133.00,251,-126.00,-67.00,-1002.00
2024-06-07 10:31:11.026381,-8,0,-12,0,0,1,81,84,144,130,54,133.04,251,-138.00,-39.00,-1012.00
2024-06-07 10:31:11.186761,-7,2,-12,0,0,1,81,84,138,130,54,132.86,251,-85.00,-85.00,-940.00
2024-06-07 10:31:11.230367,-7,2,-12,0,0,1,81,84,139,130,54,132.77,252,-121.00,-37.00,-968.00
2024-06-07 10:31:11.390442,-7,3,-12,0,0,1,81,84,137,130,54,132.94,252,-161.00,-23.00,-938.00
2024-06-07 10:31:11.434293,-8,3,-12,0,0,1,81,84,136,130,54,132.95,252,-98.00,-84.00,-928.00
2024-06-07 10:31:11.536353,-8,3,-12,0,0,1,81,84,137,130,54,132.97,252,-138.00,-47.00,-957.00
2024-06-07 10:31:11.700185,-8,2,-12,0,0,1,81,84,133,130,54,133.07,252,-116.00,-65.00,-938.00
2024-06-07 10:31:11.740353,-8,3,-12,0,0,1,81,84,134,120,54,133.11,252,-125.00,-65.00,-939.00
2024-06-07 10:31:11.902249,-7,3,-12,0,0,1,82,84,131,120,54,132.88,252,-143.00,-35.00,-1052.00
2024-06-07 10:31:11.945455,-7,4,-12,0,0,1,82,84,130,120,54,133.07,252,-59.00,-75.00,-1062.00
2024-06-07 10:31:12.106970,-7,3,-12,0,0,0,82,84,129,120,54,133.03,252,-185.00,-43.00,-954.00
2024-06-07 10:31:12.149451,-6,4,-12,0,0,0,82,84,129,120,54,132.97,252,-100.00,-62.00,-1044.00
2024-06-07 10:31:12.313671,-6,5,-12,0,0,0,82,84,129,120,54,132.95,253,-121.00,-63.00,-932.00
2024-06-07 10:31:12.353422,-7,4,-12,0,0,0,82,84,128,120,54,132.98,253,-143.00,-51.00,-972.00
2024-06-07 10:31:12.516761,-7,3,-12,0,0,0,82,84,128,120,54,132.98,253,-107.00,-55.00,-993.00
2024-06-07 10:31:12.557432,-7,3,-12,0,0,0,82,84,127,120,54,133.00,253,-43.00,-72.00,-924.00
2024-06-07 10:31:12.721664,-6,3,-12,0,0,0,82,84,125,120,54,133.02,253,-136.00,-58.00,-1014.00
2024-06-07 10:31:12.761559,-6,3,-12,0,0,0,82,84,125,120,54,132.85,253,-44.00,-67.00,-1117.00
2024-06-07 10:31:12.926981,-5,4,-12,0,0,0,82,84,128,120,54,132.75,253,-89.00,-81.00,-1018.00
2024-06-07 10:31:12.965358,-4,4,-12,0,0,0,82,84,126,120,54,132.89,253,-107.00,-55.00,-1028.00
2024-06-07 10:31:13.016920,-5,4,-12,0,0,0,82,84,125,120,54,132.95,253,-89.00,-93.00,-1073.00
2024-06-07 10:31:13.118423,-7,3,-12,0,0,0,82,84,126,120,54,132.85,253,-110.00,-28.00,-956.00
2024-06-07 10:31:13.234895,-7,3,-12,0,0,0,82,84,125,120,54,132.69,254,-126.00,-45.00,-853.00
2024-06-07 10:31:13.322703,-7,2,-12,0,1,0,82,84,123,120,54,132.88,254,-196.00,8.00,-947.00
2024-06-07 10:31:13.424415,-7,1,-12,0,1,0,82,84,124,120,54,132.86,254,-23.00,-76.00,-873.00
2024-06-07 10:31:13.528155,-8,1,-12,0,1,0,82,84,124,120,54,132.87,254,-75.00,-44.00,-1011.00
2024-06-07 10:31:13.629313,-7,1,-12,0,0,0,82,84,121,120,54,132.90,254,-151.00,-13.00,-1071.00
2024-06-07 10:31:13.731320,-6,1,-12,0,0,0,82,84,119,120,54,132.81,254,-102.00,-6.00,-965.00
2024-06-07 10:31:13.833952,-5,1,-12,0,0,0,83,84,119,110,54,132.83,254,-139.00,-5.00,-1020.00
2024-06-07 10:31:13.935217,-5,2,-12,0,0,0,83,84,120,110,54,132.76,254,-60.00,-39.00,-1037.00
2024-06-07 10:31:14.037278,-5,2,-12,0,0,0,83,84,118,110,54,132.83,254,-99.00,-29.00,-980.00
2024-06-07 10:31:14.156701,-7,1,-12,0,0,0,83,84,121,110,54,132.86,254,-128.00,-41.00,-902.00
2024-06-07 10:31:14.241216,-9,0,-12,1,0,0,83,84,119,110,54,132.79,255,-79.00,-37.00,-992.00
2024-06-07 10:31:14.361080,-8,1,-12,1,0,0,83,84,119,110,54,132.84,255,-174.00,-7.00,-850.00
2024-06-07 10:31:14.445576,-8,0,-12,2,0,0,83,84,119,110,54,132.78,255,-74.00,-47.00,-978.00
2024-06-07 10:31:14.549533,-8,0,-12,2,-1,0,83,84,118,110,54,132.69,255,-124.00,-47.00,-1127.00
2024-06-07 10:31:14.649172,-7,1,-12,2,-1,0,83,84,119,110,54,132.75,255,-86.00,-51.00,-945.00
2024-06-07 10:31:14.775281,-8,1,-12,2,-1,0,83,84,120,110,54,132.68,255,-160.00,-20.00,-964.00
2024-06-07 10:31:14.854103,-8,1,-12,2,-1,0,81,84,121,120,54,132.77,255,-144.00,-32.00,-1009.00
2024-06-07 10:31:14.978462,-8,1,-12,2,-1,0,81,84,122,120,54,132.79,255,-223.00,0.00,-943.00
2024-06-07 10:31:15.057075,-8,1,-12,2,-1,0,81,84,122,120,54,132.69,255,-168.00,-42.00,-888.00
2024-06-07 10:31:15.178689,-8,3,-12,2,-2,0,81,84,123,120,54,132.83,255,-91.00,-35.00,-1037.00
2024-06-07 10:31:15.261221,-8,2,-12,2,-1,0,81,84,123,120,54,132.89,256,-205.00,-6.00,-994.00
2024-06-07 10:31:15.385242,-8,3,-12,3,-1,0,81,84,121,120,54,132.72,256,-149.00,-43.00,-963.00
2024-06-07 10:31:15.465127,-7,4,-12,3,-1,0,81,84,123,120,54,132.71,256,-127.00,-50.00,-865.00
2024-06-07 10:31:15.567112,-7,4,-12,3,-1,0,81,84,122,120,54,132.73,256,-99.00,-67.00,-1009.00
2024-06-07 10:31:15.693762,-7,5,-12,3,-1,0,81,84,123,120,54,132.64,256,-118.00,-25.00,-1103.00
2024-06-07 10:31:15.771113,-6,4,-12,3,0,0,81,84,122,120,54,132.75,256,-63.00,-92.00,-964.00
2024-06-07 10:31:15.873139,-5,3,-12,2,0,0,82,84,123,120,54,132.74,256,-78.00,-65.00,-890.00
2024-06-07 10:31:15.999560,-6,2,-12,2,0,0,82,84,124,120,54,132.84,256,-122.00,-98.00,-941.00
2024-06-07 10:31:16.077231,-6,3,-12,2,-1,0,82,84,123,120,54,132.89,256,-171.00,-55.00,-1034.00
2024-06-07 10:31:16.204923,-7,5,-12,1,-1,0,82,84,123,120,54,132.95,256,-124.00,-82.00,-984.00
2024-06-07 10:31:16.281658,-7,5,-12,1,0,0,82,84,125,120,54,133.08,257,-136.00,-58.00,-946.00
2024-06-07 10:31:16.409402,-8,4,-12,1,0,0,82,84,125,120,54,132.99,257,-116.00,-88.00,-921.00
2024-06-07 10:31:16.434096,-7,4,-12,1,0,0,82,84,124,120,54,133.04,257,-86.00,-132.00,-913.00
2024-06-07 10:31:16.617266,-7,5,-12,1,0,0,82,84,123,120,54,133.11,257,-147.00,-69.00,-1058.00
2024-06-07 10:31:16.638074,-7,4,-12,1,0,0,82,84,126,120,54,132.99,257,-164.00,-77.00,-930.00
2024-06-07 10:31:16.817139,-7,5,-12,1,0,0,82,84,125,120,54,133.14,257,-157.00,-56.00,-968.00
2024-06-07 10:31:16.843898,-7,5,-12,0,0,0,81,83,125,120,54,133.04,257,-260.00,-33.00,-983.00
2024-06-07 10:31:16.944351,-7,4,-12,0,0,0,81,83,125,120,54,133.12,257,-84.00,-88.00,-904.00
2024-06-07 10:31:17.046084,-8,4,-12,0,0,0,81,83,126,120,54,133.05,257,-74.00,-73.00,-1003.00
2024-06-07 10:31:17.183508,-8,4,-12,0,0,0,81,83,125,120,54,133.01,257,-30.00,-108.00,-1004.00
2024-06-07 10:31:17.250023,-8,4,-12,0,0,0,81,83,125,120,54,133.07,258,-111.00,-60.00,-974.00
2024-06-07 10:31:17.433555,-6,5,-13,1,0,0,81,83,126,120,54,133.04,258,-198.00,-46.00,-1075.00
2024-06-07 10:31:17.454494,-7,5,-12,1,0,0,81,83,124,120,54,132.92,258,-112.00,-89.00,-966.00
2024-06-07 10:31:17.555954,-6,6,-12,1,0,0,81,83,125,120,54,132.95,258,-136.00,-73.00,-1084.00
2024-06-07 10:31:17.738972,-6,5,-12,0,0,0,81,83,126,120,54,133.00,258,-104.00,-75.00,-1140.00
2024-06-07 10:31:17.763770,-7,5,-12,0,0,0,81,83,128,120,54,133.21,258,-85.00,-65.00,-1065.00
2024-06-07 10:31:17.866280,-6,6,-12,1,0,0,82,83,129,120,54,132.95,258,-217.00,-29.00,-989.00
2024-06-07 10:31:17.964813,-6,5,-12,1,0,0,82,83,129,120,54,133.02,258,-122.00,-87.00,-947.00
2024-06-07 10:31:18.154924,-6,5,-12,1,0,0,82,83,130,120,54,133.08,258,-117.00,-78.00,-890.00
2024-06-07 10:31:18.168046,-6,5,-12,1,0,0,82,83,128,120,54,132.99,259,-98.00,-74.00,-1061.00
2024-06-07 10:31:18.355809,-7,5,-12,1,1,0,82,83,129,120,54,133.03,259,-150.00,-69.00,-951.00
2024-06-07 10:31:18.372327,-7,4,-12,1,1,0,82,83,128,120,54,133.08,259,-77.00,-108.00,-829.00
2024-06-07 10:31:18.474491,-7,4,-12,1,1,0,82,83,129,120,54,133.00,259,-155.00,-47.00,-1001.00
2024-06-07 10:31:18.576688,-7,4,-12,1,0,0,82,83,129,120,54,133.05,259,-98.00,-59.00,-1017.00
2024-06-07 10:31:18.678066,-7,4,-12,1,0,0,82,83,127,120,54,133.09,259,-88.00,-89.00,-930.00
2024-06-07 10:31:18.784658,-5,5,-12,1,0,0,82,83,126,120,54,133.06,259,-133.00,-36.00,-951.00
2024-06-07 10:31:18.881954,-5,5,-12,1,1,0,81,84,125,120,54,132.87,259,-143.00,-50.00,-973.00
2024-06-07 10:31:19.071087,-4,5,-12,1,1,0,81,84,124,120,54,132.98,259,-134.00,-56.00,-995.00
2024-06-07 10:31:19.085866,-6,4,-12,1,1,0,81,84,123,120,54,132.95,259,-91.00,-57.00,-1045.00
2024-06-07 10:31:19.274652,-6,4,-12,1,1,0,81,84,125,120,54,132.92,260,-143.00,-25.00,-963.00
2024-06-07 10:31:19.289773,-7,4,-12,1,1,0,81,84,124,120,54,133.12,260,-138.00,0.00,-1000.00
2024-06-07 10:31:19.480495,-7,2,-12,1,1,0,81,84,123,120,54,133.03,260,-28.00,-92.00,-1006.00
2024-06-07 10:31:19.493838,-6,3,-12,2,1,0,81,84,124,120,54,132.97,260,-142.00,-53.00,-1067.00
2024-06-07 10:31:19.596492,-3,3,-12,2,1,0,81,84,123,120,54,133.02,260,-107.00,-65.00,-992.00
2024-06-07 10:31:19.793564,-2,4,-12,1,1,0,81,84,123,120,54,133.03,260,-67.00,-101.00,-936.00
2024-06-07 10:31:19.803550,-1,4,-12,1,1,0,81,84,123,120,54,133.01,260,-81.00,-106.00,-1060.00
2024-06-07 10:31:19.902744,-4,4,-12,0,1,0,82,83,124,120,54,133.01,260,-83.00,-37.00,-1054.00
2024-06-07 10:31:20.004003,-5,-1,-12,0,1,0,82,83,126,120,54,133.04,260,-164.00,-30.00,-995.00
2024-06-07 10:31:20.196638,-5,1,-12,0,0,0,82,83,124,120,54,133.02,260,-108.00,-33.00,-963.00
2024-06-07 10:31:20.208004,-4,1,-12,0,0,0,82,83,124,120,54,132.96,261,-150.00,-42.00,-965.00
2024-06-07 10:31:20.404902,-4,2,-12,0,0,0,82,83,124,120,54,133.09,261,-116.00,-56.00,-978.00
2024-06-07 10:31:20.405040,-4,2,-12,0,0,0,82,83,125,120,54,133.08,261,-65.00,-73.00,-975.00
2024-06-07 10:31:20.462935,-4,3,-12,0,0,0,82,83,127,120,54,133.08,261,-59.00,-86.00,-911.00
2024-06-07 10:31:20.564864,-4,2,-12,0,0,0,82,83,126,120,54,133.09,261,-66.00,-89.00,-1000.00
2024-06-07 10:31:20.708456,-4,3,-12,0,0,0,82,83,127,120,54,133.08,261,-87.00,-41.00,-1134.00
2024-06-07 10:31:20.769371,-4,3,-12,0,0,0,82,83,127,120,54,133.07,261,-86.00,-41.00,-985.00
2024-06-07 10:31:20.913926,-4,2,-12,0,0,0,80,83,125,120,54,133.08,261,-94.00,-27.00,-1019.00
2024-06-07 10:31:20.973165,-4,2,-12,0,0,0,80,83,126,120,54,133.08,261,-75.00,-30.00,-1033.00
2024-06-07 10:31:21.118758,-4,2,-12,0,0,0,80,83,126,120,54,133.08,261,-98.00,-54.00,-1013.00
2024-06-07 10:31:21.176947,-4,2,-12,0,0,0,80,83,125,120,54,133.09,262,-108.00,-27.00,-998.00
2024-06-07 10:31:21.322918,-4,3,-12,0,0,0,80,83,126,120,54,133.17,262,-136.00,-26.00,-1020.00
2024-06-07 10:31:21.380980,-4,2,-12,0,0,0,80,83,126,120,54,133.06,262,-120.00,3.00,-1112.00
2024-06-07 10:31:21.529852,-4,3,-12,0,0,0,80,83,127,120,54,133.10,262,-47.00,-74.00,-955.00
2024-06-07 10:31:21.584786,-4,2,-12,0,0,0,80,83,126,120,54,133.21,262,-140.00,7.00,-965.00
2024-06-07 10:31:21.732924,-5,2,-12,0,0,0,80,83,127,120,54,133.16,262,-78.00,-37.00,-967.00
2024-06-07 10:31:21.788880,-5,2,-12,0,0,0,80,83,127,120,54,133.15,262,-111.00,-57.00,-933.00
2024-06-07 10:31:21.891129,-5,3,-12,0,0,0,80,84,127,120,54,133.06,262,-94.00,-50.00,-962.00
2024-06-07 10:31:22.040555,-5,3,-12,0,0,0,80,84,126,120,54,133.15,262,-116.00,-29.00,-1045.00
2024-06-07 10:31:22.095544,-5,3,-12,0,0,0,80,84,126,120,54,133.10,262,-27.00,-97.00,-873.00
2024-06-07 10:31:22.196727,-5,3,-12,0,0,0,80,84,125,120,54,133.10,263,-111.00,-46.00,-1113.00
2024-06-07 10:31:22.298839,-4,3,-12,0,0,0,80,84,124,120,54,133.13,263,-92.00,-54.00,-1077.00
2024-06-07 10:31:22.451307,0,3,-12,0,0,0,80,84,124,120,54,133.15,263,-57.00,-62.00,-873.00
2024-06-07 10:31:22.502638,4,3,-12,0,0,0,80,84,127,120,54,133.16,263,-70.00,-85.00,-1051.00
2024-06-07 10:31:22.606701,5,3,-12,-2,0,0,80,84,125,120,54,133.18,263,-147.00,1.00,-964.00
2024-06-07 10:31:22.706729,4,4,-12,-4,0,0,80,84,126,120,54,133.14,263,-71.00,-42.00,-945.00
2024-06-07 10:31:22.859227,2,4,-12,-5,1,0,80,84,127,120,54,133.12,263,4.00,-52.00,-1098.00
2024-06-07 10:31:22.911664,1,2,-12,-5,1,0,80,83,128,120,54,133.10,263,-40.00,-37.00,-1026.00
2024-06-07 10:31:23.013459,1,2,-12,-6,2,0,80,83,126,120,54,133.18,263,-103.00,-12.00,-912.00
2024-06-07 10:31:23.168557,0,1,-12,-6,2,0,80,83,127,120,54,133.21,263,-63.00,-13.00,-1030.00
2024-06-07 10:31:23.216655,0,0,-12,-7,2,0,80,83,129,120,54,133.27,264,-35.00,-55.00,-1027.00
2024-06-07 10:31:23.372266,-2,0,-12,-7,1,0,80,83,129,120,54,133.29,264,24.00,-60.00,-1049.00
2024-06-07 10:31:23.420628,-5,2,-12,-7,1,0,80,83,132,120,54,133.28,264,-6.00,-22.00,-1038.00
2024-06-07 10:31:23.576265,-7,2,-12,-6,1,0,80,83,132,120,54,133.17,264,-82.00,-29.00,-1012.00
2024-06-07 10:31:23.624578,-7,1,-12,-5,1,0,80,83,134,120,54,133.30,264,-21.00,-52.00,-1021.00
2024-06-07 10:31:23.781506,-8,1,-12,-4,1,0,80,83,133,120,54,133.30,264,-104.00,4.00,-1132.00
2024-06-07 10:31:23.828731,-7,0,-12,-3,1,0,80,83,134,120,54,133.21,264,-24.00,-34.00,-1007.00
2024-06-07 10:31:23.985416,-6,0,-12,-3,1,0,81,83,134,120,54,133.30,264,-139.00,-21.00,-983.00
2024-06-07 10:31:24.033684,-5,0,-12,-3,0,0,81,83,134,120,54,133.16,264,-80.00,-1.00,-1013.00
2024-06-07 10:31:24.190630,-5,1,-12,-3,0,0,81,83,137,130,54,133.24,264,-83.00,-61.00,-1000.00
2024-06-07 10:31:24.237831,-5,1,-12,-3,0,0,81,83,135,130,54,133.21,265,-27.00,-21.00,-1001.00
2024-06-07 10:31:24.342765,-5,1,-12,-2,0,0,81,83,136,130,54,133.18,265,-79.00,-26.00,-962.00
2024-06-07 10:31:24.441632,-6,0,-12,-2,0,0,81,83,136,130,54,133.26,265,-76.00,-33.00,-1006.00
2024-06-07 10:31:24.599607,-8,1,-12,-2,0,0,81,83,136,130,54,133.22,265,-8.00,-66.00,-948.00
2024-06-07 10:31:24.600982,-8,2,-12,-1,0,0,81,83,135,130,54,133.24,265,-56.00,-22.00,-1054.00
2024-06-07 10:31:24.697578,-8,2,-12,0,0,0,81,83,135,130,54,133.13,265,-134.00,-4.00,-1076.00
2024-06-07 10:31:24.799775,-6,1,-12,0,0,0,81,83,134,120,54,133.21,265,-80.00,-50.00,-1027.00
2024-06-07 10:31:24.901763,-5,2,-12,0,0,0,82,83,133,120,54,133.14,265,-113.00,64.00,-881.00
2024-06-07 10:31:25.003856,-5,1,-12,0,0,0,82,83,133,120,54,133.21,265,-1.00,-53.00,-950.00
2024-06-07 10:31:25.114226,-4,1,-12,0,0,0,82,83,131,120,54,132.99,265,-55.00,-1.00,-1034.00
2024-06-07 10:31:25.208622,-5,0,-12,0,1,0,82,83,131,120,54,132.87,266,-105.00,-3.00,-920.00
2024-06-07 10:31:25.309610,-5,0,-12,0,0,0,82,83,134,120,54,132.95,266,-56.00,-1.00,-1047.00
2024-06-07 10:31:25.414642,-5,0,-12,0,0,0,82,83,132,120,54,133.05,266,-127.00,-17.00,-995.00
2024-06-07 10:31:25.516517,-5,0,-12,0,0,0,82,83,132,120,53,133.02,266,-65.00,-8.00,-1020.00
2024-06-07 10:31:25.615656,-6,0,-12,0,0,0,82,83,134,120,53,133.08,266,-34.00,-24.00,-1107.00
2024-06-07 10:31:25.727294,-4,1,-12,0,0,0,82,83,134,120,53,133.17,266,-115.00,0.00,-1095.00
2024-06-07 10:31:25.819774,-4,1,-12,0,0,0,82,83,135,130,53,133.01,266,-107.00,4.00,-937.00
2024-06-07 10:31:25.930781,-3,1,-12,0,0,0,81,83,135,130,53,133.04,266,-146.00,-2.00,-969.00
2024-06-07 10:31:26.023662,-3,0,-12,0,0,0,81,83,134,130,53,133.07,266,3.00,-34.00,-1042.00
2024-06-07 10:31:26.125680,-4,0,-12,0,0,0,81,83,136,130,53,133.07,266,-55.00,1.00,-975.00
2024-06-07 10:31:26.238950,-5,0,-12,0,0,0,81,83,135,130,53,133.00,267,-124.00,13.00,-1053.00
2024-06-07 10:31:26.329642,-4,0,-12,0,0,0,81,83,133,120,53,133.10,267,-50.00,-68.00,-1083.00
2024-06-07 10:31:26.443213,-4,1,-12,0,0,0,81,83,133,120,53,133.10,267,-37.00,-81.00,-980.00
2024-06-07 10:31:26.534261,-3,2,-12,0,0,0,81,83,132,120,53,133.17,267,-137.00,-1.00,-1051.00
2024-06-07 10:31:26.649069,-3,2,-12,0,0,0,81,83,132,120,53,133.27,267,-50.00,-68.00,-1058.00
2024-06-07 10:31:26.737545,-3,2,-12,0,0,0,81,83,131,120,53,133.24,267,-118.00,-50.00,-907.00
2024-06-07 10:31:26.839895,-4,2,-12,0,0,0,81,83,130,120,53,133.17,267,-132.00,-17.00,-985.00
2024-06-07 10:31:26.941539,-4,2,-12,0,0,0,81,83,129,120,53,133.09,267,-11.00,-33.00,-1012.00
2024-06-07 10:31:27.043664,-5,-4,-11,0,0,0,81,83,131,120,53,133.07,267,-88.00,13.00,-1100.00
2024-06-07 10:31:27.145620,-5,-6,-11,0,-1,0,81,83,132,120,53,133.02,267,-72.00,-4.00,-985.00
2024-06-07 10:31:27.247485,-4,-4,-11,0,-3,0,81,83,130,120,53,133.18,268,-59.00,7.00,-974.00
2024-06-07 10:31:27.364479,-2,-1,-12,0,-3,0,81,83,131,120,53,133.22,268,-134.00,37.00,-980.00
2024-06-07 10:31:27.451496,-2,0,-12,0,-3,0,81,83,130,120,53,133.16,268,-108.00,44.00,-989.00
2024-06-07 10:31:27.570284,-2,0,-12,0,-2,0,81,83,133,120,53,133.33,268,-83.00,21.00,-1066.00
2024-06-07 10:31:27.655471,-3,0,-12,0,-1,0,81,83,133,120,53,133.25,268,-112.00,53.00,-1083.00
2024-06-07 10:31:27.775456,-4,0,-12,0,-1,0,81,83,134,120,53,133.19,268,-40.00,-2.00,-1001.00
2024-06-07 10:31:27.859379,-4,-1,-12,0,-1,0,81,83,132,120,53,133.23,268,-86.00,42.00,-1009.00
2024-06-07 10:31:27.978624,-3,-1,-12,0,-1,0,81,83,134,120,53,133.22,268,-125.00,32.00,-973.00
2024-06-07 10:31:28.063745,-3,-1,-12,0,-1,0,81,83,134,120,53,133.17,268,-68.00,12.00,-958.00
2024-06-07 10:31:28.183646,-3,0,-12,0,-1,0,81,83,133,120,53,133.22,268,-53.00,5.00,-989.00
2024-06-07 10:31:28.216428,-3,0,-12,0,-1,0,81,83,132,120,53,133.22,269,-20.00,-21.00,-974.00
2024-06-07 10:31:28.389445,-3,-1,-12,0,-1,0,81,83,133,120,53,133.33,269,-24.00,-11.00,-967.00
2024-06-07 10:31:28.420902,-3,-1,-12,0,-1,0,81,83,133,120,53,133.27,269,-41.00,11.00,-983.00
2024-06-07 10:31:28.593010,-3,-1,-12,0,-1,0,81,83,133,120,52,133.13,269,-44.00,15.00,-1108.00
2024-06-07 10:31:28.624353,-2,-1,-12,0,-1,0,81,83,132,120,52,133.24,269,-82.00,2.00,-953.00
2024-06-07 10:31:28.798814,-3,0,-12,0,-1,0,81,83,131,120,52,133.36,269,-72.00,16.00,-987.00
2024-06-07 10:31:28.828588,-2,0,-12,0,-2,0,81,83,132,120,52,133.29,269,-125.00,56.00,-1025.00
2024-06-07 10:31:28.975079,-2,0,-12,0,-1,0,81,83,131,120,52,133.28,269,-62.00,-8.00,-967.00
2024-06-07 10:31:29.034264,-3,0,-12,0,-1,0,81,83,128,120,52,133.31,269,-104.00,47.00,-1014.00
2024-06-07 10:31:29.134386,-3,-1,-12,-1,-1,0,81,83,129,120,52,133.25,269,-117.00,80.00,-969.00
2024-06-07 10:31:29.310058,-5,-1,-12,0,-1,0,81,83,129,120,52,133.17,270,-5.00,-4.00,-1034.00
2024-06-07 10:31:29.338445,-7,-1,-12,0,-1,0,81,83,128,120,52,133.14,270,-1.00,-26.00,-1076.00
2024-06-07 10:31:29.514755,-3,1,-12,0,-1,0,81,83,127,120,52,133.08,270,-93.00,17.00,-958.00
2024-06-07 10:31:29.542424,0,4,-12,0,-1,0,81,83,124,120,52,133.08,270,-118.00,46.00,-1009.00
2024-06-07 10:31:29.721712,0,0,-12,0,0,0,81,83,125,120,52,133.24,270,-87.00,10.00,-938.00
2024-06-07 10:31:29.746494,0,-1,-12,0,0,0,81,83,125,120,52,133.21,270,-115.00,37.00,-1031.00
2024-06-07 10:31:29.925865,0,-1,-12,-1,0,0,81,83,125,120,52,133.21,270,-54.00,-13.00,-1006.00
2024-06-07 10:31:29.950410,-2,0,-12,-1,0,0,81,83,124,120,52,133.35,270,-95.00,-12.00,-983.00
2024-06-07 10:31:30.129406,-8,2,-12,-1,0,0,81,83,126,120,52,133.21,270,-89.00,38.00,-945.00
2024-06-07 10:31:30.154350,-6,2,-12,0,0,0,81,83,125,120,52,133.20,270,-22.00,-11.00,-1034.00
2024-06-07 10:31:30.334461,-3,1,-12,0,0,0,81,83,124,120,52,133.23,271,-16.00,-21.00,-969.00
2024-06-07 10:31:30.358564,-2,1,-12,0,0,0,81,83,126,120,52,133.18,271,-92.00,-14.00,-904.00
2024-06-07 10:31:30.461796,-2,1,-12,0,0,0,81,83,126,120,52,133.29,271,-92.00,12.00,-1100.00
2024-06-07 10:31:30.562662,-2,1,-12,0,0,0,81,83,127,120,52,133.29,271,-92.00,-3.00,-993.00
2024-06-07 10:31:30.745416,-3,1,-12,0,0,0,81,83,128,120,52,133.29,271,-7.00,-46.00,-926.00
2024-06-07 10:31:30.767465,-4,1,-12,0,0,0,81,83,129,120,52,133.34,271,-67.00,-46.00,-1022.00
2024-06-07 10:31:30.948276,-3,2,-12,0,0,0,81,83,129,120,52,133.28,271,24.00,-98.00,-911.00
2024-06-07 10:31:30.973460,-2,2,-12,0,0,0,81,82,128,120,52,133.31,271,-100.00,-21.00,-887.00
2024-06-07 10:31:31.073395,-2,2,-12,0,0,0,81,82,129,120,52,133.34,271,-40.00,-65.00,-1057.00
2024-06-07 10:31:31.178192,-2,3,-12,0,0,0,81,82,131,120,52,133.36,271,-1.00,-75.00,-957.00
2024-06-07 10:31:31.277390,-2,4,-12,0,0,0,81,82,131,120,52,133.39,272,10.00,-60.00,-1026.00
2024-06-07 10:31:31.464230,-2,3,-12,0,0,0,81,82,132,120,52,133.45,272,-27.00,-54.00,-1054.00
2024-06-07 10:31:31.485572,-1,2,-12,0,0,0,81,82,133,120,52,133.40,272,27.00,-59.00,-1243.00
2024-06-07 10:31:31.583501,-1,2,-12,0,0,0,81,82,133,120,52,133.42,272,-80.00,-9.00,-978.00
2024-06-07 10:31:31.634381,-1,2,-12,0,0,0,81,82,133,120,52,133.40,272,-69.00,-5.00,-979.00
2024-06-07 10:31:31.767455,-1,2,-12,0,0,0,81,82,136,120,52,133.48,272,-64.00,-10.00,-1035.00
2024-06-07 10:31:31.838631,-1,2,-12,0,0,0,81,82,136,120,52,133.47,272,32.00,-37.00,-959.00
2024-06-07 10:31:31.972356,-1,2,-12,0,0,0,80,82,137,120,52,133.44,272,69.00,-91.00,-967.00
2024-06-07 10:31:32.042370,-1,2,-12,0,0,0,80,82,137,120,52,133.45,272,55.00,-97.00,-917.00
2024-06-07 10:31:32.144813,0,2,-12,0,0,0,80,82,139,130,52,133.45,272,29.00,-70.00,-1077.00
2024-06-07 10:31:32.280538,0,2,-12,0,0,0,80,82,140,130,52,133.44,273,-80.00,-22.00,-931.00
2024-06-07 10:31:32.348698,0,4,-12,0,0,0,80,82,141,130,52,133.39,273,-27.00,-17.00,-1043.00
2024-06-07 10:31:32.486637,-1,9,-12,0,0,0,80,82,140,130,52,133.49,273,19.00,-63.00,-996.00
2024-06-07 10:31:32.553529,0,8,-12,1,1,0,80,82,137,130,51,133.39,273,-22.00,-27.00,-970.00
2024-06-07 10:31:32.654212,0,8,-12,1,2,0,80,82,139,130,51,133.43,273,-11.00,-41.00,-1009.00
2024-06-07 10:31:32.792184,0,6,-12,1,3,0,80,82,137,130,51,133.35,273,-2.00,-65.00,-1036.00
2024-06-07 10:31:32.858195,0,1,-12,1,3,0,80,82,132,130,51,133.31,273,-47.00,-58.00,-985.00
2024-06-07 10:31:32.998528,-1,0,-12,0,3,0,80,82,135,130,51,133.32,273,-29.00,-73.00,-964.00
2024-06-07 10:31:33.062189,-3,0,-12,0,3,0,80,82,131,130,51,133.41,273,-73.00,-12.00,-1042.00
2024-06-07 10:31:33.201945,-3,0,-12,0,2,1,80,82,131,120,51,133.40,274,7.00,-60.00,-921.00
2024-06-07 10:31:33.266184,-4,1,-12,0,2,1,80,82,130,120,51,133.37,274,-53.00,-75.00,-1025.00
2024-06-07 10:31:33.406108,-4,3,-12,0,1,0,80,82,130,120,51,133.40,274,-55.00,-44.00,-996.00
2024-06-07 10:31:33.470173,-4,3,-12,0,1,0,80,82,129,120,51,133.41,274,-34.00,-37.00,-1041.00
2024-06-07 10:31:33.611384,-2,3,-12,0,2,0,80,82,128,120,51,133.29,274,-49.00,-52.00,-1054.00
2024-06-07 10:31:33.674154,-2,2,-12,0,2,0,80,82,129,120,51,133.22,274,25.00,-90.00,-1068.00
2024-06-07 10:31:33.815784,-4,2,-12,0,2,0,80,82,130,120,51,133.42,274,10.00,-93.00,-1053.00
2024-06-07 10:31:33.878108,-4,2,-12,0,2,0,80,82,130,120,51,133.35,274,-20.00,-95.00,-996.00
2024-06-07 10:31:34.020390,-5,1,-12,0,2,0,81,83,131,120,51,133.30,274,-101.00,-21.00,-1064.00
2024-06-07 10:31:34.082144,-4,0,-12,0,2,0,81,83,133,120,51,133.36,274,-88.00,-20.00,-956.00
2024-06-07 10:31:34.229568,-1,-3,-12,0,1,0,81,83,132,120,51,133.33,275,-85.00,-60.00,-1174.00
2024-06-07 10:31:34.286103,-4,-1,-12,0,1,0,81,83,133,120,51,133.31,275,-135.00,-27.00,-875.00
2024-06-07 10:31:34.429978,-7,0,-12,-1,1,0,81,83,134,120,51,133.30,275,-73.00,-21.00,-1007.00
2024-06-07 10:31:34.490076,-9,0,-12,0,1,0,81,83,137,120,51,133.16,275,-110.00,-20.00,-957.00
2024-06-07 10:31:34.635293,-8,0,-12,0,1,0,81,83,135,120,51,133.14,275,-70.00,-37.00,-968.00
2024-06-07 10:31:34.694033,-8,0,-12,0,1,0,81,83,137,120,51,133.00,275,-146.00,25.00,-958.00
2024-06-07 10:31:34.846068,-8,-2,-12,1,1,0,81,83,136,120,51,133.19,275,-118.00,27.00,-1004.00
2024-06-07 10:31:34.898224,-6,-4,-12,1,0,0,81,83,137,120,51,132.94,275,-105.00,0.00,-943.00
2024-06-07 10:31:35.000121,-4,-4,-12,1,0,0,81,82,135,120,51,133.24,275,-118.00,-11.00,-953.00
2024-06-07 10:31:35.146802,-1,-4,-12,0,0,0,81,82,136,120,51,133.13,275,-149.00,-1.00,-882.00
2024-06-07 10:31:35.204353,-3,-1,-12,0,-1,0,81,82,133,120,51,133.19,276,-167.00,2.00,-925.00
2024-06-07 10:31:35.351441,-4,1,-12,0,-1,0,81,82,134,120,51,133.25,276,-108.00,-9.00,-1006.00
2024-06-07 10:31:35.408153,-5,1,-12,0,-1,0,81,82,132,120,51,133.22,276,-46.00,-64.00,-1142.00
2024-06-07 10:31:35.558082,-4,2,-12,0,-1,0,81,82,132,120,51,133.11,276,-124.00,20.00,-1033.00
2024-06-07 10:31:35.561441,-4,2,-12,0,-1,0,81,82,131,120,50,133.23,276,-81.00,-35.00,-945.00
2024-06-07 10:31:35.761905,-3,1,-12,0,0,0,81,82,129,120,50,133.19,276,-122.00,12.00,-850.00
2024-06-07 10:31:35.766721,-3,1,-12,0,0,0,81,82,129,120,50,133.01,276,-74.00,-40.00,-1017.00
2024-06-07 10:31:35.867081,-3,3,-12,0,0,0,81,82,127,120,50,133.14,276,-133.00,-16.00,-979.00
2024-06-07 10:31:36.069226,-4,2,-12,0,0,0,80,82,128,120,50,133.13,276,36.00,-93.00,-877.00
2024-06-07 10:31:36.071956,-4,1,-12,0,0,0,80,82,128,120,50,133.06,276,-159.00,-2.00,-1022.00
2024-06-07 10:31:36.173156,-5,1,-12,0,0,0,80,82,128,120,50,132.98,277,-146.00,-1.00,-1087.00
2024-06-07 10:31:36.275035,-5,1,-12,0,0,0,80,82,128,120,50,133.00,277,-19.00,-55.00,-1023.00
2024-06-07 10:31:36.378593,-6,1,-12,0,0,0,80,82,129,120,50,133.24,277,-29.00,-48.00,-1028.00
2024-06-07 10:31:36.479184,-6,2,-12,0,0,0,80,82,128,120,50,133.25,277,-108.00,-63.00,-925.00
2024-06-07 10:31:36.582659,-5,2,-12,0,0,0,80,82,129,120,50,133.26,277,-95.00,-33.00,-928.00
2024-06-07 10:31:36.684134,-5,1,-12,0,0,0,80,82,128,120,50,133.21,277,-71.00,-47.00,-969.00
2024-06-07 10:31:36.887789,-6,1,-12,0,0,0,80,82,128,120,50,133.21,277,-103.00,-66.00,-944.00
2024-06-07 10:31:36.887994,-6,1,-12,0,0,0,80,82,126,120,50,133.21,277,-52.00,-44.00,-1013.00
2024-06-07 10:31:36.990239,-6,1,-12,0,0,0,81,82,127,120,50,133.18,277,-92.00,-55.00,-1025.00
2024-06-07 10:31:37.092384,-6,2,-12,0,0,0,81,82,126,120,50,133.19,277,-171.00,4.00,-1017.00
2024-06-07 10:31:37.194939,-6,3,-12,0,0,0,81,82,126,120,50,133.10,278,-84.00,-30.00,-961.00
2024-06-07 10:31:37.297161,-6,1,-12,0,0,0,81,82,124,120,50,133.11,278,-151.00,-10.00,-918.00
2024-06-07 10:31:37.399759,-5,0,-8,0,0,0,81,82,124,120,50,132.86,278,-93.00,-6.00,-1126.00
2024-06-07 10:31:37.500079,-5,0,-2,0,0,0,81,82,124,120,50,132.89,278,-141.00,45.00,-1041.00
2024-06-07 10:31:37.606554,-6,-1,3,0,0,0,81,82,122,120,50,132.96,278,-93.00,0.00,-1107.00
2024-06-07 10:31:37.703993,-6,-1,8,0,0,0,81,82,123,120,50,132.97,278,-55.00,15.00,-1006.00
2024-06-07 10:31:37.809451,-6,-2,14,0,0,0,81,82,122,120,50,132.96,278,-60.00,1.00,-945.00
2024-06-07 10:31:37.907887,-5,-2,19,0,0,0,81,82,122,120,50,133.05,278,-103.00,33.00,-1105.00
2024-06-07 10:31:38.009919,-4,-2,24,0,0,0,81,82,120,120,50,133.08,278,-58.00,55.00,-971.00
2024-06-07 10:31:38.116883,-4,-3,30,0,0,0,81,82,123,120,50,133.16,278,-67.00,43.00,-1029.00
2024-06-07 10:31:38.214231,-4,-3,35,0,0,0,81,82,121,120,50,133.08,279,-29.00,12.00,-979.00
2024-06-07 10:31:38.316059,-4,-3,42,0,0,0,81,82,122,120,50,133.11,279,-75.00,36.00,-1062.00
2024-06-07 10:31:38.426105,-4,-3,47,0,0,0,81,82,123,120,50,133.17,279,-20.00,-1.00,-969.00
2024-06-07 10:31:38.519898,-2,-4,54,0,0,0,81,82,122,120,50,133.23,279,-13.00,81.00,-1121.00
2024-06-07 10:31:38.621920,-2,-4,60,0,0,0,81,82,123,120,50,133.22,279,17.00,75.00,-990.00
2024-06-07 10:31:38.730783,-1,-4,65,0,0,0,81,82,121,120,50,133.22,279,-21.00,76.00,-1172.00
2024-06-07 10:31:38.825908,0,-4,71,0,0,0,81,82,121,120,50,133.29,279,16.00,43.00,-996.00
2024-06-07 10:31:38.927872,-1,-4,77,0,0,0,81,82,122,120,50,133.05,279,6.00,67.00,-972.00
2024-06-07 10:31:39.029910,0,-4,82,0,0,0,80,82,120,120,50,133.32,279,-19.00,68.00,-999.00
2024-06-07 10:31:39.140474,0,-5,88,0,0,0,80,82,122,120,50,133.36,279,-24.00,125.00,-878.00
2024-06-07 10:31:39.234445,0,-5,93,0,0,0,80,82,122,120,50,133.33,280,-23.00,110.00,-996.00
2024-06-07 10:31:39.345307,0,-4,99,0,0,0,80,82,122,120,50,133.30,280,-10.00,59.00,-1006.00
2024-06-07 10:31:39.437845,0,-3,105,0,0,0,80,82,122,120,50,133.41,280,51.00,87.00,-923.00
2024-06-07 10:31:39.549688,0,-3,110,0,0,0,80,82,122,120,50,133.42,280,24.00,99.00,-969.00
2024-06-07 10:31:39.590954,1,-4,116,0,0,0,80,82,124,120,50,133.42,280,-82.00,150.00,-954.00
2024-06-07 10:31:39.754650,2,-5,122,0,0,0,80,82,124,120,50,133.41,280,62.00,82.00,-924.00
2024-06-07 10:31:39.794821,2,-5,128,0,0,0,80,82,127,120,50,133.42,280,112.00,44.00,-978.00
2024-06-07 10:31:39.896762,2,-4,135,0,0,0,80,82,127,120,50,133.43,280,47.00,94.00,-1015.00
2024-06-07 10:31:40.062672,4,-3,142,0,0,0,80,82,128,120,50,133.40,280,108.00,46.00,-879.00
2024-06-07 10:31:40.101028,5,-3,149,0,0,0,80,82,128,120,50,133.31,280,108.00,26.00,-994.00
2024-06-07 10:31:40.267533,5,-3,156,0,0,0,80,82,130,120,50,133.35,281,62.00,43.00,-997.00
2024-06-07 10:31:40.304784,4,-2,162,0,0,0,80,82,129,120,50,133.19,281,33.00,67.00,-1017.00
2024-06-07 10:31:40.472039,3,-1,168,0,0,0,80,82,130,120,50,133.28,281,7.00,86.00,-889.00
2024-06-07 10:31:40.509517,3,-2,174,0,0,0,80,82,130,120,49,133.28,281,65.00,31.00,-1045.00
2024-06-07 10:31:40.678019,3,-2,-179,0,0,0,80,82,131,120,49,133.34,281,95.00,19.00,-970.00
2024-06-07 10:31:40.712732,4,-1,-173,0,0,0,80,82,131,120,49,133.30,281,117.00,-7.00,-950.00
2024-06-07 10:31:40.881114,4,0,-167,0,0,0,80,82,132,120,49,133.15,281,19.00,43.00,-1097.00
2024-06-07 10:31:40.916859,4,0,-161,0,0,0,80,82,131,120,49,133.15,281,136.00,-10.00,-988.00
2024-06-07 10:31:41.018691,3,1,-155,0,0,0,79,82,131,120,49,133.12,281,66.00,-2.00,-989.00
2024-06-07 10:31:41.190198,3,0,-149,0,0,0,79,82,131,120,49,133.21,281,55.00,-28.00,-1019.00
2024-06-07 10:31:41.224684,4,0,-143,0,0,0,79,82,133,120,49,133.27,282,38.00,-35.00,-989.00
2024-06-07 10:31:41.324720,4,2,-136,0,0,0,79,82,133,120,49,133.30,282,86.00,-41.00,-984.00
2024-06-07 10:31:41.426739,4,3,-131,0,0,0,79,82,131,120,49,133.33,282,53.00,-23.00,-949.00
2024-06-07 10:31:41.528629,3,4,-125,0,0,0,79,82,132,120,49,133.30,282,57.00,-73.00,-880.00
2024-06-07 10:31:41.630730,3,4,-119,0,0,0,79,82,132,120,49,133.37,282,23.00,-65.00,-955.00
2024-06-07 10:31:41.803047,3,5,-113,0,0,0,79,82,132,120,49,133.36,282,16.00,-33.00,-998.00
2024-06-07 10:31:41.834714,2,5,-108,0,0,0,79,82,131,120,49,133.36,282,94.00,-90.00,-964.00
2024-06-07 10:31:42.007406,2,4,-102,0,0,0,79,82,131,120,49,133.45,282,47.00,-100.00,-922.00
2024-06-07 10:31:42.046349,3,5,-96,0,0,0,80,82,131,120,49,133.54,282,52.00,-109.00,-930.00
2024-06-07 10:31:42.144159,2,7,-90,0,0,0,80,82,131,120,49,133.38,282,59.00,-107.00,-998.00
2024-06-07 10:31:42.243659,2,7,-85,0,0,0,80,82,130,120,49,133.48,283,61.00,-99.00,-1067.00
2024-06-07 10:31:42.416822,1,7,-79,0,0,0,80,82,131,120,49,133.46,283,0.00,-35.00,-883.00
2024-06-07 10:31:42.447633,1,5,-73,0,0,0,80,82,132,120,49,133.50,283,5.00,-113.00,-1070.00
2024-06-07 10:31:42.622401,1,5,-67,0,0,0,80,82,132,120,49,133.46,283,13.00,-112.00,-1065.00
2024-06-07 10:31:42.652373,0,6,-61,0,0,0,80,82,131,120,49,133.34,283,1.00,-132.00,-1076.00
2024-06-07 10:31:42.827217,0,6,-55,0,0,0,80,82,130,120,49,133.32,283,7.00,-101.00,-1060.00
2024-06-07 10:31:42.855717,-1,6,-49,0,0,0,80,82,131,120,49,133.24,283,-33.00,-63.00,-962.00
2024-06-07 10:31:43.032670,-2,5,-43,0,0,0,80,82,130,120,49,133.18,283,-28.00,-61.00,-981.00
2024-06-07 10:31:43.059963,-2,4,-37,0,0,0,81,82,130,120,49,133.22,283,-88.00,-70.00,-922.00
2024-06-07 10:31:43.161521,-1,4,-31,0,0,0,81,82,130,120,49,133.26,283,-73.00,-94.00,-985.00
2024-06-07 10:31:43.263582,-1,4,-26,0,0,0,81,82,131,120,49,133.22,284,-102.00,-19.00,-1057.00
2024-06-07 10:31:43.445743,-2,4,-22,0,0,0,81,82,131,120,49,133.27,284,-147.00,-38.00,-1007.00
2024-06-07 10:31:43.467581,-5,3,-19,0,0,0,81,82,132,120,49,133.25,284,-96.00,-40.00,-1050.00
2024-06-07 10:31:43.518467,-7,2,-17,0,0,0,81,82,132,120,49,133.19,284,-59.00,-67.00,-934.00
2024-06-07 10:31:43.646445,-6,2,-16,0,0,0,81,82,132,120,49,133.19,284,-122.00,-84.00,-859.00
2024-06-07 10:31:43.723882,-5,3,-14,0,0,0,81,82,128,120,49,133.11,284,-50.00,-78.00,-1049.00
2024-06-07 10:31:43.852260,-4,4,-13,0,0,0,81,82,129,120,49,133.11,284,-50.00,-98.00,-997.00
2024-06-07 10:31:43.927652,-5,3,-12,0,0,0,81,82,128,120,49,133.08,284,-45.00,-61.00,-1028.00
2024-06-07 10:31:44.029698,-6,2,-11,0,0,0,80,82,127,120,49,133.00,284,-87.00,-80.00,-1015.00
2024-06-07 10:31:44.157917,-6,3,-10,0,0,0,80,82,129,120,49,133.05,284,-162.00,48.00,-977.00
2024-06-07 10:31:44.233732,-5,2,-9,0,0,0,80,82,127,120,49,133.18,285,-28.00,-57.00,-1033.00
2024-06-07 10:31:44.362747,-5,0,-9,0,0,0,80,82,128,120,49,133.04,285,-108.00,-65.00,-884.00
2024-06-07 10:31:44.437716,-5,0,-9,0,0,0,80,82,128,120,49,133.08,285,-143.00,-10.00,-1120.00
2024-06-07 10:31:44.567712,-5,1,-9,0,0,0,80,82,127,120,49,133.17,285,-39.00,-88.00,-991.00
2024-06-07 10:31:44.641572,-5,1,-9,0,0,0,80,82,127,120,49,133.25,285,-61.00,-82.00,-1031.00
2024-06-07 10:31:44.772704,-5,1,-9,0,0,0,80,82,126,120,49,133.27,285,-28.00,-86.00,-974.00
2024-06-07 10:31:44.845685,-4,2,-9,0,0,0,80,82,127,120,49,133.32,285,-62.00,-79.00,-1063.00
2024-06-07 10:31:44.978166,-4,3,-9,0,0,0,80,82,127,120,49,133.20,285,-70.00,-57.00,-1058.00
2024-06-07 10:31:45.049701,-4,4,-9,0,0,0,81,82,126,120,49,133.14,285,-14.00,-70.00,-1055.00
2024-06-07 10:31:45.183135,-4,4,-9,0,0,0,81,82,126,120,49,133.01,285,-55.00,-48.00,-1043.00
2024-06-07 10:31:45.253760,-3,3,-9,0,0,0,81,82,127,120,49,133.19,286,-90.00,-27.00,-1037.00
2024-06-07 10:31:45.355632,-3,2,-9,0,0,0,81,82,126,120,49,133.16,286,-14.00,-49.00,-975.00
2024-06-07 10:31:45.488991,-3,1,-9,0,0,0,81,82,124,120,49,133.22,286,-83.00,-38.00,-1036.00
2024-06-07 10:31:45.559657,-3,2,-9,0,0,0,81,82,124,120,49,133.12,286,-34.00,-66.00,-1011.00
2024-06-07 10:31:45.661560,-3,2,-9,0,0,0,81,82,124,120,49,133.14,286,-28.00,-102.00,-978.00
2024-06-07 10:31:45.763430,-3,3,-9,0,0,0,81,82,124,120,49,133.18,286,-89.00,-41.00,-943.00
2024-06-07 10:31:45.866342,-4,3,-9,0,0,0,81,82,124,120,49,133.04,286,-134.00,6.00,-1036.00
2024-06-07 10:31:46.007792,-4,2,-11,0,0,0,81,82,123,120,49,133.16,286,-146.00,9.00,-1022.00
2024-06-07 10:31:46.069892,-4,2,-17,0,0,0,80,82,123,120,49,133.09,286,-115.00,-27.00,-999.00
2024-06-07 10:31:46.171392,-4,2,-23,0,0,0,80,82,123,120,49,133.11,286,-74.00,-93.00,-996.00
2024-06-07 10:31:46.274648,-3,2,-29,0,0,0,80,82,121,120,49,133.20,287,-87.00,-20.00,-976.00
2024-06-07 10:31:46.375474,-3,2,-35,0,0,0,80,82,122,120,49,133.15,287,-67.00,-53.00,-1078.00
2024-06-07 10:31:46.512978,-3,3,-40,0,0,0,80,82,122,120,49,133.21,287,-23.00,-92.00,-1007.00
2024-06-07 10:31:46.579331,-2,3,-46,0,0,0,80,82,122,120,48,133.23,287,-82.00,-87.00,-937.00
2024-06-07 10:31:46.682405,-2,4,-52,0,0,0,80,82,121,120,48,133.18,287,-101.00,-85.00,-915.00
2024-06-07 10:31:46.820354,-2,4,-59,0,0,0,80,82,122,120,48,133.19,287,-38.00,-69.00,-1076.00
2024-06-07 10:31:46.834368,-2,4,-65,0,0,0,80,82,123,120,48,133.21,287,-48.00,-75.00,-1030.00
2024-06-07 10:31:46.984993,-1,4,-71,0,0,0,80,82,122,120,48,133.20,287,-15.00,-85.00,-910.00
2024-06-07 10:31:47.127128,0,3,-84,0,0,0,80,83,124,120,48,133.31,287,4.00,-80.00,-979.00
2024-06-07 10:31:47.191690,0,4,-90,0,0,0,80,83,123,120,48,133.31,288,-4.00,-71.00,-1006.00
2024-06-07 10:31:47.333129,0,3,-96,0,0,0,80,83,124,120,48,133.32,288,56.00,-70.00,-992.00
2024-06-07 10:31:47.395281,1,3,-103,0,0,0,80,83,125,120,48,133.28,288,28.00,-76.00,-952.00
2024-06-07 10:31:47.538796,1,4,-109,0,0,0,80,83,125,120,48,133.24,288,57.00,-91.00,-1057.00
2024-06-07 10:31:47.548265,2,4,-116,0,0,0,80,83,127,120,48,133.32,288,113.00,-59.00,-1007.00
2024-06-07 10:31:47.650648,3,4,-123,0,0,0,80,83,128,120,48,133.33,288,113.00,-55.00,-978.00
2024-06-07 10:31:47.844125,3,3,-130,0,0,0,80,83,130,120,48,133.39,288,53.00,-10.00,-1006.00
2024-06-07 10:31:47.854230,4,1,-137,0,0,0,80,83,129,120,48,133.28,288,117.00,-29.00,-1035.00
2024-06-07 10:31:48.049061,4,0,-144,0,0,0,80,83,129,120,48,133.26,288,85.00,-7.00,-983.00
2024-06-07 10:31:48.058338,4,0,-150,0,0,0,81,83,131,120,48,133.28,288,87.00,-31.00,-1035.00
2024-06-07 10:31:48.253926,5,0,-157,0,0,0,81,83,131,120,48,133.25,289,92.00,-19.00,-972.00
2024-06-07 10:31:48.263395,5,0,-163,0,0,0,81,83,131,120,48,133.23,289,180.00,-34.00,-929.00
2024-06-07 10:31:48.459333,6,0,-169,0,0,0,81,83,132,120,48,133.17,289,130.00,-15.00,-1036.00
2024-06-07 10:31:48.469014,6,0,-175,0,0,0,81,83,131,120,48,133.13,289,79.00,35.00,-999.00
2024-06-07 10:31:48.568360,5,0,179,0,0,0,81,83,132,120,48,133.12,289,122.00,10.00,-957.00
2024-06-07 10:31:48.670347,5,-1,174,0,0,0,81,83,131,120,48,133.23,289,79.00,30.00,-940.00
2024-06-07 10:31:48.868048,4,-2,168,0,0,0,81,83,132,120,48,133.18,289,105.00,-6.00,-921.00
2024-06-07 10:31:48.874126,4,-3,162,0,0,0,81,83,132,120,48,133.23,289,63.00,43.00,-1043.00
2024-06-07 10:31:48.976317,3,-3,157,0,0,0,81,83,131,120,48,133.17,289,34.00,58.00,-978.00
2024-06-07 10:31:49.175516,2,-3,150,0,0,0,80,84,132,120,48,133.25,289,89.00,47.00,-1024.00
2024-06-07 10:31:49.180253,1,-3,144,0,0,0,80,84,132,120,48,133.24,290,69.00,52.00,-1037.00
2024-06-07 10:31:49.380302,1,-3,138,0,0,0,80,84,131,120,48,133.09,290,49.00,45.00,-965.00
2024-06-07 10:31:49.384227,1,-3,132,0,0,0,80,84,131,120,48,133.20,290,112.00,37.00,-1010.00
2024-06-07 10:31:49.586045,3,-3,125,0,0,0,80,84,132,120,48,133.28,290,-20.00,97.00,-1049.00
2024-06-07 10:31:49.588321,2,-3,119,0,0,0,80,84,131,120,47,133.32,290,-20.00,108.00,-1024.00
2024-06-07 10:31:49.690222,2,-4,113,0,0,0,80,84,131,120,47,133.32,290,-71.00,106.00,-904.00
2024-06-07 10:31:49.794615,1,-4,107,0,0,0,80,84,131,120,47,133.31,290,28.00,52.00,-1053.00
2024-06-07 10:31:49.894181,0,-4,101,0,0,0,80,84,130,120,47,133.30,290,16.00,46.00,-905.00
2024-06-07 10:31:49.996230,0,-3,95,0,0,0,80,84,129,120,47,133.29,290,38.00,66.00,-1020.00
2024-06-07 10:31:50.204539,0,-3,88,0,0,0,80,83,130,120,47,133.26,290,83.00,52.00,-1042.00
2024-06-07 10:31:50.204582,0,-3,81,0,0,0,80,83,131,120,47,133.21,291,-12.00,57.00,-966.00
2024-06-07 10:31:50.302485,-1,-3,75,0,0,0,80,83,131,120,47,133.17,291,-20.00,40.00,-1062.00
2024-06-07 10:31:50.404366,-1,-3,69,0,0,0,80,83,131,120,47,133.18,291,-5.00,60.00,-1009.00
2024-06-07 10:31:50.506715,-2,-3,62,0,0,0,80,83,132,120,47,133.15,291,-167.00,105.00,-1008.00
2024-06-07 10:31:50.608240,-3,-2,56,0,0,0,80,83,131,120,47,133.19,291,-57.00,85.00,-1025.00
2024-06-07 10:31:50.711270,-3,-2,49,0,0,0,80,83,133,120,47,133.12,291,-31.00,55.00,-934.00
2024-06-07 10:31:50.814446,-4,-2,43,0,0,0,80,83,134,120,47,133.13,291,-23.00,43.00,-909.00
2024-06-07 10:31:50.916493,-4,-2,37,0,0,0,80,83,133,120,47,133.01,291,-13.00,28.00,-1003.00
2024-06-07 10:31:51.016152,-3,-1,31,0,0,0,80,83,134,120,47,133.04,291,-178.00,63.00,-975.00
2024-06-07 10:31:51.120693,-3,-1,25,0,0,0,80,83,133,120,47,133.02,291,-3.00,-37.00,-966.00
2024-06-07 10:31:51.220131,-3,0,18,0,0,0,80,83,132,120,47,133.05,292,-138.00,64.00,-1001.00
2024-06-07 10:31:51.322475,-3,0,12,0,0,0,80,83,134,120,47,133.00,292,-47.00,-25.00,-1005.00
2024-06-07 10:31:51.373431,-3,0,7,0,0,0,80,83,133,120,47,132.87,292,-107.00,5.00,-1008.00
2024-06-07 10:31:51.475224,-4,0,2,0,0,0,80,83,132,120,47,133.02,292,-81.00,-20.00,-910.00
2024-06-07 10:31:51.577960,-4,0,0,0,0,0,80,83,132,120,47,133.01,292,-124.00,16.00,-1058.00
2024-06-07 10:31:51.679154,-4,0,-2,0,0,0,80,83,133,120,47,133.06,292,-116.00,17.00,-979.00
2024-06-07 10:31:51.838427,-4,0,-3,0,0,0,80,83,132,120,47,133.12,292,-25.00,-41.00,-1097.00
2024-06-07 10:31:51.883001,-4,1,-4,0,0,0,80,83,132,120,47,132.98,292,-61.00,-7.00,-930.00
2024-06-07 10:31:52.042657,-4,1,-5,0,0,0,80,83,132,120,47,132.97,292,-86.00,-19.00,-1030.00
2024-06-07 10:31:52.087008,-4,1,-6,0,0,0,81,82,133,120,47,133.04,292,-27.00,0.00,-986.00
2024-06-07 10:31:52.247465,-4,0,-7,0,0,0,81,82,133,120,47,133.01,293,-62.00,-50.00,-989.00
2024-06-07 10:31:52.292603,-4,0,-7,0,0,0,81,82,132,120,47,133.00,293,-18.00,-33.00,-1078.00
2024-06-07 10:31:52.452669,-3,1,-7,0,0,0,81,82,133,120,47,132.99,293,9.00,-81.00,-960.00
2024-06-07 10:31:52.496660,-3,1,-7,0,0,0,81,82,134,120,47,132.96,293,-58.00,-48.00,-935.00
2024-06-07 10:31:52.657547,-4,0,-7,0,0,0,81,82,133,120,47,132.96,293,-131.00,6.00,-896.00
2024-06-07 10:31:52.700670,-4,0,-7,0,0,0,81,82,136,120,47,133.12,293,-9.00,-33.00,-1043.00
2024-06-07 10:31:52.861940,-4,0,-7,0,0,0,81,82,133,120,47,133.01,293,-35.00,-31.00,-991.00
2024-06-07 10:31:52.904279,-4,0,-7,0,0,0,81,82,134,120,47,133.04,293,-90.00,-26.00,-1101.00
2024-06-07 10:31:53.067658,-4,0,-8,0,0,0,81,82,134,120,47,133.06,293,-167.00,86.00,-909.00
2024-06-07 10:31:53.108834,-4,0,-8,0,0,0,80,83,133,120,47,132.98,293,-100.00,-21.00,-1039.00
2024-06-07 10:31:53.271595,-4,0,-8,0,0,0,80,83,134,120,47,133.03,294,-9.00,-100.00,-979.00
2024-06-07 10:31:53.312218,-4,1,-7,0,0,0,80,83,133,120,47,133.18,294,-60.00,-72.00,-1048.00
2024-06-07 10:31:53.476648,-3,2,-7,0,0,0,80,83,134,120,47,133.16,294,-141.00,-29.00,-1011.00
2024-06-07 10:31:53.516448,-3,2,-7,0,0,0,80,83,134,120,47,133.11,294,-71.00,-51.00,-923.00
2024-06-07 10:31:53.619662,-4,2,-7,0,0,0,80,83,134,120,47,133.15,294,-157.00,0.00,-958.00
2024-06-07 10:31:53.720445,-4,2,-7,0,0,0,80,83,131,120,47,133.09,294,-113.00,-30.00,-937.00
2024-06-07 10:31:53.885709,-4,1,-7,0,0,0,80,83,132,120,47,133.12,294,-124.00,4.00,-1052.00
2024-06-07 10:31:53.924069,-4,2,-7,0,0,0,80,83,132,120,47,133.08,294,-104.00,-25.00,-1054.00
2024-06-07 10:31:54.090889,-5,1,-7,0,0,0,80,83,131,120,47,133.13,294,-96.00,-78.00,-898.00
2024-06-07 10:31:54.129428,-4,1,-7,0,0,0,80,82,130,120,47,133.11,294,-76.00,-75.00,-978.00
2024-06-07 10:31:54.250749,-4,2,-7,0,0,0,80,82,130,120,47,133.17,295,-155.00,-18.00,-1052.00
2024-06-07 10:31:54.331995,-4,3,-7,0,0,0,80,82,130,120,47,133.11,295,-9.00,-87.00,-991.00
2024-06-07 10:31:54.603029,-3,3,-7,0,0,0,80,82,129,120,47,133.16,295,-41.00,-84.00,-1094.00
2024-06-07 10:31:54.603285,-3,3,-7,0,0,0,80,82,129,120,47,133.10,295,-77.00,-30.00,-1018.00
2024-06-07 10:31:54.638213,-3,3,-7,0,0,0,80,82,130,120,47,133.06,295,-94.00,-42.00,-1150.00
2024-06-07 10:31:54.807136,-4,2,-7,0,0,0,80,82,128,120,47,133.16,295,-141.00,5.00,-943.00
2024-06-07 10:31:54.843325,-5,2,-7,0,0,0,80,82,128,120,47,133.02,295,-41.00,-67.00,-994.00
2024-06-07 10:31:54.894102,-6,2,-7,0,0,0,80,82,126,120,47,133.12,295,-72.00,-39.00,-988.00
2024-06-07 10:31:54.996212,-6,1,-7,0,0,0,80,82,127,120,47,133.03,295,-94.00,-43.00,-1031.00
2024-06-07 10:31:55.114502,-6,1,-7,0,0,0,80,82,125,120,47,132.96,295,-44.00,-74.00,-934.00
2024-06-07 10:31:55.200357,-6,2,-7,0,0,0,80,82,124,120,47,133.00,296,-86.00,-15.00,-993.00
2024-06-07 10:31:55.319147,-6,0,-7,0,0,0,80,82,123,120,47,132.88,296,-79.00,-29.00,-1026.00
2024-06-07 10:31:55.404129,-6,1,-7,0,0,0,80,82,122,120,47,132.85,296,-95.00,5.00,-1051.00
2024-06-07 10:31:55.525668,-5,1,-7,0,0,0,80,82,123,120,46,132.87,296,-154.00,22.00,-1026.00
2024-06-07 10:31:55.608489,-5,0,-7,0,0,0,80,82,124,120,46,132.94,296,-80.00,-20.00,-989.00
2024-06-07 10:31:55.710052,-5,0,-7,0,0,0,80,82,123,120,46,132.98,296,-55.00,-69.00,-1079.00
2024-06-07 10:31:55.831668,-5,0,-7,0,0,0,80,82,125,120,46,132.93,296,-122.00,4.00,-947.00
2024-06-07 10:31:55.914207,-5,0,-7,0,0,0,80,82,125,120,46,132.88,296,-47.00,-15.00,-1033.00
2024-06-07 10:31:56.037381,-5,1,-7,0,0,0,80,82,127,120,46,132.95,296,-172.00,29.00,-1023.00
2024-06-07 10:31:56.118108,-5,1,-7,0,0,0,79,82,126,120,46,132.89,296,-104.00,-15.00,-965.00
2024-06-07 10:31:56.241013,-5,1,-7,0,0,0,79,82,127,120,46,132.89,297,-130.00,18.00,-1046.00
2024-06-07 10:31:56.323371,-5,0,-7,0,0,0,79,82,129,120,46,132.89,297,-110.00,0.00,-1044.00
2024-06-07 10:31:56.445873,-5,0,-7,0,0,0,79,82,129,120,46,132.90,297,-65.00,-24.00,-1085.00
2024-06-07 10:31:56.526360,-5,0,-7,0,0,0,79,82,130,120,46,132.91,297,-86.00,-20.00,-995.00
2024-06-07 10:31:56.650667,-5,1,-7,0,0,0,79,82,131,120,46,132.92,297,-128.00,22.00,-1147.00
2024-06-07 10:31:56.730363,-4,0,-8,0,0,0,79,82,132,120,46,132.94,297,-63.00,-47.00,-936.00
2024-06-07 10:31:56.855430,-3,1,-7,0,0,0,79,82,132,120,46,133.06,297,-154.00,-20.00,-1035.00
2024-06-07 10:31:56.934030,-4,1,-7,0,0,0,79,82,133,120,46,133.00,297,-9.00,-98.00,-860.00
2024-06-07 10:31:57.060302,-4,1,-7,0,0,0,79,82,133,130,46,133.07,297,-117.00,-35.00,-904.00
2024-06-07 10:31:57.138102,-4,2,-7,0,0,0,80,82,134,130,46,133.06,297,-83.00,-14.00,-963.00
2024-06-07 10:31:57.264779,-5,2,-8,0,0,0,80,82,132,130,46,133.04,298,-85.00,-9.00,-895.00
2024-06-07 10:31:57.341963,-4,1,-8,0,0,0,80,82,132,130,46,133.03,298,-129.00,10.00,-1066.00
2024-06-07 10:31:57.469637,-4,1,-8,0,0,0,80,82,130,120,46,132.79,298,-98.00,-10.00,-868.00
2024-06-07 10:31:57.549152,-4,1,-8,0,0,0,80,82,128,120,46,132.80,298,-121.00,-34.00,-1067.00
2024-06-07 10:31:57.649048,-4,0,-8,0,0,0,80,82,127,120,46,132.69,298,-6.00,-51.00,-997.00
2024-06-07 10:31:57.749942,-4,1,-8,0,0,0,80,82,125,120,46,132.75,298,-90.00,-16.00,-1046.00
2024-06-07 10:31:57.852447,-4,1,-7,0,0,0,80,82,124,120,46,132.77,298,-78.00,-27.00,-974.00
2024-06-07 10:31:57.981819,-4,0,-7,0,0,0,80,82,121,120,46,132.76,298,-158.00,43.00,-999.00
2024-06-07 10:31:58.059206,-4,1,-7,0,0,0,80,82,122,120,46,132.81,298,-37.00,-40.00,-1041.00
2024-06-07 10:31:58.159294,-4,0,-7,0,0,0,80,83,122,120,46,132.91,298,-69.00,-45.00,-968.00
2024-06-07 10:31:58.289318,-4,0,-7,0,0,0,80,83,121,120,46,132.62,299,-63.00,-26.00,-1094.00
2024-06-07 10:31:58.362964,-5,1,-7,0,0,0,80,83,121,120,46,132.65,299,-18.00,-45.00,-1024.00
2024-06-07 10:31:58.493716,-5,0,-7,0,0,0,80,83,122,120,46,132.70,299,-96.00,1.00,-939.00
2024-06-07 10:31:58.569942,-4,1,-8,0,0,0,80,83,122,120,46,132.65,299,-165.00,27.00,-823.00
2024-06-07 10:31:58.669048,-5,0,-8,0,0,0,80,83,121,120,46,132.72,299,-135.00,7.00,-992.00
2024-06-07 10:31:58.719760,-5,0,-7,0,0,0,80,83,123,120,46,132.82,299,-141.00,32.00,-1040.00
2024-06-07 10:31:58.903754,-5,0,-8,0,0,0,80,83,123,120,46,132.83,299,-76.00,0.00,-992.00
2024-06-07 10:31:58.923855,-5,0,-7,0,0,0,80,83,123,120,46,132.79,299,-100.00,20.00,-1030.00
2024-06-07 10:31:59.108618,-5,0,-7,0,0,0,80,83,124,120,46,132.66,299,-110.00,28.00,-956.00
2024-06-07 10:31:59.127852,-5,0,-8,0,0,0,80,83,126,120,46,132.61,299,-29.00,-60.00,-988.00
2024-06-07 10:31:59.312782,-5,-1,-7,0,0,0,80,83,127,120,46,132.68,300,-121.00,-24.00,-1001.00
2024-06-07 10:31:59.334426,-5,0,-7,0,0,0,80,83,126,120,46,132.83,300,-145.00,76.00,-916.00
2024-06-07 10:31:59.434109,-5,0,-8,0,0,0,80,83,126,120,46,132.82,300,-58.00,-24.00,-872.00
2024-06-07 10:31:59.722751,-5,0,-7,0,0,0,80,83,126,120,46,132.73,300,-128.00,31.00,-1095.00
2024-06-07 10:31:59.722983,-5,-1,-7,0,0,0,80,83,127,120,46,132.66,300,-103.00,28.00,-993.00
2024-06-07 10:31:59.739727,-5,-1,-7,0,0,0,80,83,127,120,46,132.63,300,-105.00,3.00,-963.00
2024-06-07 10:31:59.927841,-5,-1,-7,0,0,0,80,83,128,120,46,132.65,300,-192.00,42.00,-1014.00
2024-06-07 10:31:59.945532,-6,-1,-7,0,0,0,80,83,127,120,46,132.64,300,-70.00,-60.00,-915.00
2024-06-07 10:32:00.132224,-6,0,-7,0,0,0,80,83,127,120,46,132.52,300,-138.00,1.00,-967.00
2024-06-07 10:32:00.149412,-6,0,-7,-1,0,0,80,82,127,120,46,132.60,300,-95.00,-19.00,-1022.00
2024-06-07 10:32:00.295587,-7,0,-7,-1,0,0,80,82,127,120,46,132.59,301,-217.00,23.00,-1037.00
2024-06-07 10:32:00.353133,-8,0,-7,-1,0,0,80,82,129,120,46,132.72,301,-196.00,27.00,-1020.00
2024-06-07 10:32:00.541718,-8,0,-7,0,0,0,80,82,126,120,46,132.67,301,-168.00,33.00,-1038.00
2024-06-07 10:32:00.558119,-7,0,-7,0,0,0,80,82,128,120,45,132.64,301,-50.00,-45.00,-1046.00
2024-06-07 10:32:00.746567,-7,0,-7,0,0,0,80,82,127,120,45,132.68,301,-140.00,-4.00,-1053.00
2024-06-07 10:32:00.760606,-8,0,-7,0,0,0,80,82,129,120,45,132.74,301,-140.00,-24.00,-867.00
2024-06-07 10:32:00.862853,-7,0,-7,0,0,0,80,82,127,120,45,132.67,301,-181.00,10.00,-1043.00
2024-06-07 10:32:00.964703,-8,0,-7,0,0,0,80,82,129,120,45,132.89,301,-164.00,17.00,-1026.00
2024-06-07 10:32:01.156299,-8,0,-7,0,0,0,80,82,128,120,45,132.91,301,-223.00,12.00,-1064.00
2024-06-07 10:32:01.169136,-8,0,-7,0,0,0,80,83,127,120,45,132.99,301,-258.00,3.00,-1035.00
2024-06-07 10:32:01.361332,-8,0,-7,0,0,0,80,83,129,120,45,132.89,302,-131.00,-51.00,-1057.00
2024-06-07 10:32:01.373034,-8,2,-7,0,-1,0,80,83,128,120,45,132.95,302,-237.00,21.00,-1047.00
2024-06-07 10:32:01.566103,-7,3,-8,0,0,0,80,83,131,120,45,132.84,302,-156.00,-43.00,-1039.00
