TS,pitch,roll,yaw,vgx,vgy,vgz,templ,temph,tof,h,bat,baro,time,agx,agy,agz
2024-06-07 10:34:16.016161,1,1,-8,0,0,0,82,84,10,0,30,132.54,381,22.00,-18.00,-1000.00
2024-06-07 10:34:16.068115,1,1,-8,0,0,0,82,84,10,0,30,132.57,381,24.00,-18.00,-997.00
2024-06-07 10:34:16.170171,1,1,-8,0,0,0,82,84,10,0,30,132.55,381,24.00,-17.00,-999.00
2024-06-07 10:34:16.323411,1,1,-8,0,0,0,82,84,10,0,30,132.54,381,23.00,-18.00,-1000.00
2024-06-07 10:34:16.373372,1,1,-8,0,0,0,82,84,10,0,30,132.59,381,22.00,-19.00,-999.00
2024-06-07 10:34:16.527009,1,1,-8,0,0,0,82,84,10,0,30,132.55,381,24.00,-18.00,-1000.00
2024-06-07 10:34:16.577568,1,1,-8,0,0,0,82,84,10,0,30,132.56,381,23.00,-16.00,-1002.00
2024-06-07 10:34:16.732559,1,1,-8,0,0,0,82,84,10,0,30,132.58,381,24.00,-17.00,-1000.00
2024-06-07 10:34:16.781327,1,1,-8,0,0,0,82,84,10,0,30,132.59,381,24.00,-18.00,-998.00
2024-06-07 10:34:16.883524,1,1,-8,0,0,0,82,84,10,0,30,132.58,381,23.00,-18.00,-1001.00
2024-06-07 10:34:16.985933,1,1,-8,0,0,0,82,84,10,0,30,132.57,381,23.00,-18.00,-999.00
2024-06-07 10:34:17.087533,1,1,-8,0,0,0,82,84,10,0,30,132.60,381,24.00,-18.00,-1000.00
2024-06-07 10:34:17.190001,1,1,-8,0,0,0,82,84,10,0,30,132.60,381,24.00,-19.00,-998.00
2024-06-07 10:34:17.350188,1,1,-8,0,0,0,82,84,10,0,30,132.55,381,23.00,-19.00,-999.00
2024-06-07 10:34:17.393770,1,1,-8,0,0,0,82,84,10,0,30,132.57,381,24.00,-18.00,-997.00
2024-06-07 10:34:17.551456,1,1,-8,0,0,0,82,84,10,0,30,132.54,381,23.00,-19.00,-996.00
2024-06-07 10:34:17.597580,1,1,-8,0,0,0,82,84,10,0,30,132.53,381,24.00,-18.00,-998.00
2024-06-07 10:34:17.699372,1,1,-8,0,0,0,82,84,10,0,30,132.56,381,22.00,-19.00,-1002.00
2024-06-07 10:34:17.863378,1,1,-8,0,0,0,82,84,10,0,30,132.53,381,24.00,-34.00,-1002.00
2024-06-07 10:34:17.903779,1,1,-8,0,0,0,82,84,10,0,30,132.53,381,29.00,-16.00,-997.00
2024-06-07 10:34:18.067882,1,1,-8,0,0,0,83,84,10,0,30,132.53,381,15.00,22.00,-1010.00
2024-06-07 10:34:18.107351,1,1,-8,0,0,0,83,84,10,0,30,132.53,381,-57.00,-22.00,-1015.00
2024-06-07 10:34:18.268202,1,1,-9,0,0,0,83,84,10,0,30,132.53,381,-54.00,16.00,-977.00
2024-06-07 10:34:18.311286,1,0,-9,0,0,0,83,84,10,0,30,132.53,381,-19.00,-28.00,-1021.00
2024-06-07 10:34:18.431503,2,-1,-9,0,0,0,83,84,10,0,30,132.53,381,49.00,-58.00,-1199.00
2024-06-07 10:34:18.515306,0,-3,-9,-1,-1,-2,83,84,10,0,30,132.53,381,-24.00,-82.00,-1316.00
2024-06-07 10:34:18.677445,0,0,-9,-2,-2,-5,83,84,10,0,30,132.53,382,-64.00,-107.00,-1325.00
2024-06-07 10:34:18.678428,-5,5,-9,-2,-3,-7,83,84,16,10,30,132.98,382,-14.00,-136.00,-1031.00
2024-06-07 10:34:18.770316,-4,8,-9,-1,-3,-7,83,84,25,10,30,133.22,382,-2.00,-144.00,-910.00
2024-06-07 10:34:18.872651,-3,10,-9,-1,-2,-7,83,84,34,20,30,133.09,382,-30.00,-113.00,-988.00
2024-06-07 10:34:18.974340,-3,10,-9,-1,-2,-7,83,84,42,30,30,133.24,382,-40.00,-123.00,-947.00
2024-06-07 10:34:19.077808,-3,9,-9,0,-1,-6,83,84,50,30,30,133.43,382,42.00,-128.00,-967.00
2024-06-07 10:34:19.179150,-2,8,-9,0,-1,-6,83,84,58,40,30,133.44,382,-32.00,-125.00,-866.00
2024-06-07 10:34:19.280250,-3,8,-9,0,0,-5,83,84,64,50,30,133.53,382,-94.00,-103.00,-884.00
2024-06-07 10:34:19.394381,-3,8,-9,0,-1,-4,83,84,70,50,30,133.61,382,-47.00,-129.00,-817.00
2024-06-07 10:34:19.484387,-4,9,-9,0,-1,-3,83,84,76,60,30,133.73,382,-58.00,-109.00,-927.00
2024-06-07 10:34:19.599102,-4,8,-9,0,-1,-3,83,84,80,60,30,133.81,383,-65.00,-111.00,-968.00
2024-06-07 10:34:19.689353,-1,9,-9,0,-1,-2,83,84,83,60,30,133.72,383,-29.00,-153.00,-991.00
2024-06-07 10:34:19.790672,-2,11,-9,0,-1,-1,83,84,86,70,30,133.80,383,-68.00,-147.00,-872.00
2024-06-07 10:34:19.892257,-3,11,-9,0,-1,0,83,84,88,70,30,133.77,383,-77.00,-126.00,-966.00
2024-06-07 10:34:20.009763,-4,10,-9,0,0,0,83,84,89,70,30,133.63,383,-105.00,-139.00,-882.00
2024-06-07 10:34:20.098060,-5,11,-9,-1,0,0,83,84,90,70,30,133.81,383,-110.00,-158.00,-945.00
2024-06-07 10:34:20.199002,-7,10,-10,0,0,1,83,84,89,70,30,133.69,383,-81.00,-119.00,-933.00
2024-06-07 10:34:20.302792,-5,9,-9,0,0,0,83,84,88,70,30,133.76,383,-34.00,-183.00,-1005.00
2024-06-07 10:34:20.402241,-3,10,-9,0,0,0,83,84,88,70,30,133.66,383,-21.00,-158.00,-1045.00
2024-06-07 10:34:20.524324,-3,11,-9,0,0,0,83,84,87,70,30,133.67,383,-45.00,-169.00,-910.00
2024-06-07 10:34:20.606729,-3,10,-9,0,0,0,83,84,87,70,30,133.55,384,-137.00,-123.00,-997.00
2024-06-07 10:34:20.729579,-4,9,-9,0,0,0,83,84,87,70,30,133.57,384,-59.00,-174.00,-937.00
2024-06-07 10:34:20.810195,-5,9,-9,0,0,0,83,84,85,70,30,133.58,384,-77.00,-141.00,-1071.00
2024-06-07 10:34:20.937642,-3,10,-9,0,0,0,83,84,85,70,30,133.62,384,-38.00,-150.00,-1073.00
2024-06-07 10:34:21.014216,-3,9,-9,0,0,0,83,84,84,70,30,133.65,384,-79.00,-140.00,-1028.00
2024-06-07 10:34:21.240302,-2,9,-9,0,0,0,83,84,83,70,30,133.69,384,-135.00,-137.00,-1003.00
2024-06-07 10:34:21.244272,-4,9,-9,0,0,0,83,84,83,70,30,133.56,384,-63.00,-149.00,-1022.00
2024-06-07 10:34:21.320539,-5,8,-9,0,0,0,83,84,83,70,30,133.43,384,-138.00,-145.00,-958.00
2024-06-07 10:34:21.442295,-4,8,-9,0,0,0,83,84,82,70,30,133.52,384,-82.00,-161.00,-1013.00
2024-06-07 10:34:21.524144,-4,9,-9,0,0,0,83,84,81,70,30,133.42,384,-138.00,-142.00,-967.00
2024-06-07 10:34:21.649771,-4,9,-9,0,0,0,83,84,80,70,30,133.30,385,-106.00,-164.00,-1018.00
2024-06-07 10:34:21.728222,-3,9,-9,0,0,0,83,84,80,70,30,133.24,385,-121.00,-133.00,-1083.00
2024-06-07 10:34:21.852695,-4,9,-9,0,0,0,83,84,79,60,30,133.29,385,-76.00,-179.00,-1027.00
2024-06-07 10:34:21.932173,-4,10,-10,0,0,0,83,84,81,60,30,133.57,385,-31.00,-229.00,-897.00
2024-06-07 10:34:22.056645,-5,12,-10,0,0,0,83,84,80,60,30,133.42,385,-73.00,-196.00,-974.00
2024-06-07 10:34:22.136221,-5,11,-9,0,0,0,83,84,79,60,30,133.42,385,-35.00,-213.00,-887.00
2024-06-07 10:34:22.187065,-6,9,-10,0,0,0,83,84,78,60,30,133.34,385,-102.00,-162.00,-991.00
2024-06-07 10:34:22.363886,-5,9,-10,0,0,0,83,84,78,60,30,133.23,385,-83.00,-186.00,-970.00
2024-06-07 10:34:22.392063,-5,11,-10,0,0,0,83,84,77,60,30,133.41,385,-17.00,-194.00,-940.00
2024-06-07 10:34:22.568681,-4,12,-10,0,0,0,83,84,78,60,30,133.40,385,22.00,-231.00,-998.00
2024-06-07 10:34:22.595920,-5,11,-10,0,0,0,83,84,76,60,30,133.40,386,-75.00,-196.00,-1052.00
2024-06-07 10:34:22.698118,-4,11,-9,0,0,0,83,84,78,60,30,133.40,386,-61.00,-208.00,-967.00
2024-06-07 10:34:22.799103,-4,12,-9,0,0,0,83,84,77,60,30,133.34,386,-64.00,-228.00,-1062.00
2024-06-07 10:34:22.978227,-4,11,-9,0,0,0,83,84,77,60,30,133.25,386,-43.00,-164.00,-962.00
2024-06-07 10:34:23.004800,-4,10,-10,0,0,0,82,85,77,60,30,133.28,386,-80.00,-146.00,-1070.00
2024-06-07 10:34:23.109013,-4,11,-9,0,0,0,82,85,77,60,30,133.29,386,-64.00,-170.00,-945.00
2024-06-07 10:34:23.207498,-4,11,-9,1,0,0,82,85,77,60,30,133.36,386,-43.00,-161.00,-941.00
2024-06-07 10:34:23.394413,-3,10,-9,1,0,0,82,85,78,60,30,133.35,386,-64.00,-188.00,-1007.00
2024-06-07 10:34:23.411088,-2,10,-9,1,0,0,82,85,77,60,30,133.32,386,-31.00,-168.00,-1030.00
2024-06-07 10:34:23.592898,-3,10,-9,1,0,0,82,85,77,60,30,133.34,386,-46.00,-180.00,-970.00
2024-06-07 10:34:23.615109,-1,10,-9,1,0,0,82,85,76,60,30,133.34,387,-39.00,-178.00,-920.00
2024-06-07 10:34:23.801969,0,10,-9,1,0,0,82,85,78,60,30,133.28,387,-85.00,-135.00,-997.00
2024-06-07 10:34:23.819533,-2,11,-9,0,0,0,82,85,78,60,30,133.20,387,-7.00,-160.00,-964.00
2024-06-07 10:34:24.003685,-3,10,-9,0,1,0,82,85,79,60,30,133.14,387,19.00,-169.00,-1029.00
2024-06-07 10:34:24.023089,-2,9,-9,0,1,0,82,85,78,60,30,133.28,387,-41.00,-180.00,-1005.00
2024-06-07 10:34:24.207396,-2,8,-9,0,0,0,82,85,77,60,30,133.16,387,-25.00,-159.00,-1041.00
2024-06-07 10:34:24.227718,-2,9,-9,0,0,0,82,85,77,60,30,133.31,387,-53.00,-161.00,-1035.00
2024-06-07 10:34:24.411984,-2,9,-9,0,0,0,82,85,76,60,30,133.23,387,-8.00,-171.00,-893.00
2024-06-07 10:34:24.431040,-2,9,-9,0,0,0,82,85,77,60,30,133.26,387,-23.00,-180.00,-982.00
2024-06-07 10:34:24.719231,-3,9,-9,0,0,0,82,85,76,60,30,133.22,387,-20.00,-177.00,-1017.00
2024-06-07 10:34:24.719480,-2,10,-9,0,0,0,82,85,76,60,30,133.28,388,-90.00,-162.00,-964.00
2024-06-07 10:34:24.737458,-2,10,-9,0,0,0,82,85,75,60,30,133.28,388,-56.00,-166.00,-933.00
2024-06-07 10:34:24.839403,-2,10,-9,0,0,0,82,85,74,60,30,133.20,388,-88.00,-145.00,-1010.00
2024-06-07 10:34:24.941065,-3,10,-9,0,0,0,82,85,74,60,30,133.26,388,-28.00,-136.00,-1090.00
2024-06-07 10:34:25.042925,-3,10,-9,0,0,0,83,85,73,60,30,133.20,388,-74.00,-147.00,-1022.00
2024-06-07 10:34:25.145392,-2,10,-9,0,0,0,83,85,72,60,30,133.20,388,-18.00,-146.00,-967.00
2024-06-07 10:34:25.247150,-3,9,-9,0,1,0,83,85,72,60,30,133.25,388,-119.00,-127.00,-1136.00
2024-06-07 10:34:25.349793,-4,8,-9,0,1,0,83,85,74,60,30,133.28,388,13.00,-194.00,-1091.00
2024-06-07 10:34:25.450991,-4,8,-9,0,0,-1,83,85,76,60,30,133.31,388,-11.00,-149.00,-1166.00
2024-06-07 10:34:25.640660,-3,8,-9,1,0,-2,83,85,79,60,30,133.28,388,-60.00,-178.00,-1069.00
2024-06-07 10:34:25.654930,-1,9,-9,1,0,-3,83,85,83,70,30,133.32,389,-58.00,-155.00,-1122.00
2024-06-07 10:34:25.845403,-1,9,-9,1,0,-4,83,85,88,70,30,133.34,389,-48.00,-179.00,-1136.00
2024-06-07 10:34:25.858910,-2,9,-9,0,0,-5,83,85,94,70,30,133.38,389,-109.00,-118.00,-1085.00
2024-06-07 10:34:25.909956,-3,8,-9,0,1,-5,83,85,99,80,30,133.38,389,-33.00,-169.00,-962.00
2024-06-07 10:34:26.062963,-4,7,-9,0,1,-5,83,85,106,90,30,133.47,389,-54.00,-148.00,-1035.00
2024-06-07 10:34:26.165213,-4,7,-9,0,0,-5,83,85,112,90,30,133.62,389,-94.00,-131.00,-988.00
2024-06-07 10:34:26.357730,-4,8,-9,0,0,-5,83,85,118,100,30,133.56,389,-49.00,-138.00,-992.00
2024-06-07 10:34:26.368942,-4,9,-9,0,0,-5,83,85,124,100,30,133.57,389,-22.00,-164.00,-825.00
2024-06-07 10:34:26.419870,-4,9,-9,0,0,-5,83,85,129,110,30,133.71,389,-63.00,-154.00,-854.00
2024-06-07 10:34:26.562182,-2,8,-9,0,0,-4,83,85,133,110,30,133.74,389,-77.00,-152.00,-925.00
2024-06-07 10:34:26.624346,-2,8,-9,0,0,-4,83,85,139,120,30,133.76,390,-147.00,-96.00,-901.00
2024-06-07 10:34:26.766944,-2,8,-9,0,0,-4,83,85,144,120,30,133.84,390,-41.00,-144.00,-997.00
2024-06-07 10:34:26.828692,-2,8,-9,0,0,-3,83,85,145,130,30,133.81,390,-42.00,-144.00,-974.00
2024-06-07 10:34:26.972026,-3,7,-9,0,0,-3,83,85,151,130,30,133.95,390,-46.00,-174.00,-901.00
2024-06-07 10:34:27.031912,-3,7,-9,0,0,-3,82,84,154,130,30,133.93,390,-83.00,-130.00,-1049.00
2024-06-07 10:34:27.176689,-2,8,-9,0,-1,-3,82,84,161,140,30,133.93,390,-76.00,-141.00,-904.00
2024-06-07 10:34:27.236069,-2,8,-9,0,-1,-3,82,84,159,140,30,133.97,390,-87.00,-136.00,-1015.00
2024-06-07 10:34:27.381419,-2,8,-9,0,-1,-3,82,84,165,140,30,134.03,390,-34.00,-138.00,-937.00
2024-06-07 10:34:27.439813,-2,8,-9,0,-2,-3,82,84,169,150,30,134.16,390,62.00,-211.00,-878.00
2024-06-07 10:34:27.541781,-2,8,-9,0,-2,-2,82,84,171,150,30,134.12,390,-22.00,-120.00,-903.00
2024-06-07 10:34:27.643807,-2,9,-10,0,-2,-2,82,84,175,150,30,134.04,391,-80.00,-64.00,-1059.00
2024-06-07 10:34:27.747883,-3,8,-9,0,-1,-1,82,84,175,150,30,133.98,391,8.00,-126.00,-954.00
2024-06-07 10:34:27.848007,-2,9,-9,0,-1,-1,82,84,178,160,30,134.03,391,-6.00,-134.00,-941.00
2024-06-07 10:34:27.999608,-2,8,-9,0,-1,0,82,84,179,160,30,134.08,391,-41.00,-121.00,-998.00
2024-06-07 10:34:28.051901,-3,8,-10,0,-1,0,82,84,181,160,30,134.19,391,33.00,-119.00,-861.00
2024-06-07 10:34:28.154406,-2,9,-9,0,-1,0,82,84,183,160,30,134.11,391,-21.00,-136.00,-968.00
2024-06-07 10:34:28.303267,-1,9,-9,1,-1,0,82,84,185,160,30,134.10,391,12.00,-160.00,-831.00
2024-06-07 10:34:28.357889,0,10,-9,0,0,0,82,84,181,160,30,133.98,391,2.00,-130.00,-1010.00
2024-06-07 10:34:28.508278,-1,10,-9,0,0,0,82,84,182,160,30,134.15,391,-55.00,-96.00,-1006.00
2024-06-07 10:34:28.562801,-2,11,-9,0,0,0,82,84,185,160,30,134.17,391,-57.00,-102.00,-1021.00
2024-06-07 10:34:28.714749,-3,11,-10,0,1,0,82,84,184,160,30,134.07,392,-7.00,-128.00,-877.00
2024-06-07 10:34:28.765992,-3,11,-9,0,1,0,82,84,186,160,30,134.09,392,-69.00,-125.00,-1032.00
2024-06-07 10:34:28.918369,-3,10,-10,1,2,0,82,84,183,160,30,134.09,392,-94.00,-149.00,-1050.00
2024-06-07 10:34:28.969947,-3,7,-9,1,1,0,82,84,182,160,30,134.12,392,-93.00,-148.00,-1008.00
2024-06-07 10:34:29.123319,-2,7,-9,1,1,0,82,84,179,160,30,134.10,392,-58.00,-133.00,-962.00
2024-06-07 10:34:29.175509,-2,8,-9,0,1,0,82,84,181,160,30,134.03,392,-27.00,-123.00,-1083.00
2024-06-07 10:34:29.276271,-2,9,-9,0,1,0,82,84,183,160,30,134.02,392,-150.00,-87.00,-926.00
2024-06-07 10:34:29.429603,-2,9,-9,0,1,0,82,84,182,160,30,134.00,392,-118.00,-114.00,-918.00
2024-06-07 10:34:29.479836,-3,8,-9,0,1,0,82,84,180,160,30,134.07,392,-72.00,-134.00,-1003.00
2024-06-07 10:34:29.531569,-4,7,-9,0,2,0,82,84,181,160,30,134.06,392,-133.00,-103.00,-956.00
2024-06-07 10:34:29.635444,-5,6,-9,0,2,0,82,84,182,160,30,133.99,393,-81.00,-85.00,-1058.00
2024-06-07 10:34:29.737674,-5,6,-9,0,2,0,82,84,183,160,30,134.01,393,-105.00,-77.00,-1012.00
2024-06-07 10:34:29.838582,-6,6,-9,0,2,0,82,84,179,160,30,134.03,393,-96.00,-107.00,-1165.00
2024-06-07 10:34:29.939322,-5,6,-9,0,1,0,82,84,180,160,30,134.02,393,-86.00,-101.00,-1003.00
2024-06-07 10:34:30.091684,-5,7,-9,0,1,0,82,84,182,160,30,134.00,393,-22.00,-121.00,-1034.00
2024-06-07 10:34:30.193829,-5,6,-9,0,1,0,82,84,181,160,30,134.01,393,-5.00,-171.00,-902.00
2024-06-07 10:34:30.350945,-5,6,-9,0,1,1,82,84,180,160,30,134.06,393,-82.00,-124.00,-950.00
2024-06-07 10:34:30.351025,-5,6,-9,0,0,1,82,84,178,160,30,133.97,393,-53.00,-103.00,-923.00
2024-06-07 10:34:30.448745,-5,7,-9,0,0,2,82,84,175,160,30,133.99,393,3.00,-171.00,-957.00
2024-06-07 10:34:30.555730,-4,7,-9,0,0,2,82,84,173,150,30,134.06,394,37.00,-177.00,-994.00
2024-06-07 10:34:30.652624,-4,7,-9,0,0,2,82,84,171,150,30,134.06,394,-146.00,-112.00,-1014.00
2024-06-07 10:34:30.754632,-4,7,-9,0,0,3,82,84,169,150,30,134.07,394,-17.00,-162.00,-950.00
2024-06-07 10:34:30.856658,-4,7,-9,0,0,3,82,84,167,150,30,133.98,394,-37.00,-136.00,-918.00
2024-06-07 10:34:30.965629,-4,7,-9,0,0,3,82,84,161,140,30,134.02,394,-61.00,-145.00,-1018.00
2024-06-07 10:34:31.060641,-4,7,-9,0,0,3,82,84,160,140,30,133.92,394,-57.00,-111.00,-977.00
2024-06-07 10:34:31.163123,-4,8,-9,0,0,2,82,84,155,140,30,133.92,394,-17.00,-153.00,-1038.00
2024-06-07 10:34:31.272545,-4,7,-9,0,0,2,82,84,150,130,30,133.92,394,-61.00,-134.00,-967.00
2024-06-07 10:34:31.366740,-3,8,-9,0,0,2,82,84,148,130,30,133.95,394,-48.00,-140.00,-1087.00
2024-06-07 10:34:31.478054,-3,8,-9,0,0,2,82,84,146,130,30,133.87,394,-99.00,-111.00,-1056.00
2024-06-07 10:34:31.570547,-3,8,-9,0,0,2,82,84,143,130,30,133.74,395,-51.00,-118.00,-1067.00
2024-06-07 10:34:31.682501,-3,7,-9,0,0,1,82,84,141,120,30,133.68,395,-31.00,-142.00,-1033.00
2024-06-07 10:34:31.774632,-3,7,-9,0,0,1,82,84,140,120,30,133.74,395,21.00,-148.00,-965.00
2024-06-07 10:34:31.876544,-3,8,-9,0,0,1,82,84,137,120,30,133.69,395,-70.00,-120.00,-987.00
2024-06-07 10:34:31.979006,-4,8,-9,0,0,1,82,84,136,120,30,133.90,395,-33.00,-163.00,-918.00
2024-06-07 10:34:32.091793,-3,8,-9,0,0,1,82,85,133,120,30,133.72,395,-96.00,-134.00,-941.00
2024-06-07 10:34:32.182742,-3,8,-9,0,0,1,82,85,130,120,30,133.72,395,-51.00,-159.00,-994.00
2024-06-07 10:34:32.300225,-3,8,-9,0,0,1,82,85,129,110,30,133.80,395,-70.00,-122.00,-1073.00
2024-06-07 10:34:32.386668,-3,8,-9,0,0,0,82,85,128,110,30,133.80,395,-34.00,-128.00,-934.00
2024-06-07 10:34:32.488835,-2,8,-9,0,0,0,82,85,126,110,30,133.74,395,5.00,-146.00,-1035.00
2024-06-07 10:34:32.604017,-2,8,-9,0,0,0,82,85,126,110,30,133.72,396,-78.00,-127.00,-984.00
2024-06-07 10:34:32.692708,-2,9,-9,0,0,0,82,85,124,110,30,133.78,396,-60.00,-145.00,-985.00
2024-06-07 10:34:32.808915,-3,8,-9,0,0,0,82,85,125,110,30,133.65,396,-104.00,-103.00,-1005.00
2024-06-07 10:34:32.897092,-3,8,-9,0,0,0,82,85,125,110,30,133.51,396,-49.00,-126.00,-949.00
2024-06-07 10:34:33.013757,-4,8,-9,0,1,0,82,85,126,110,30,133.49,396,-56.00,-107.00,-1002.00
2024-06-07 10:34:33.100670,-4,7,-9,0,1,0,82,84,126,110,30,133.48,396,-71.00,-110.00,-1101.00
2024-06-07 10:34:33.203883,-4,8,-9,0,1,0,82,84,126,110,30,133.48,396,-122.00,-101.00,-943.00
2024-06-07 10:34:33.321115,-4,8,-9,0,1,0,82,84,126,110,30,133.48,396,-78.00,-86.00,-968.00
2024-06-07 10:34:33.407120,-4,7,-10,0,1,0,82,84,127,110,30,133.49,396,24.00,-145.00,-1063.00
2024-06-07 10:34:33.526619,-4,7,-9,0,1,0,82,84,128,110,30,133.43,396,-25.00,-108.00,-1042.00
2024-06-07 10:34:33.610656,-4,7,-9,1,1,0,82,84,127,110,30,133.46,397,5.00,-123.00,-1065.00
2024-06-07 10:34:33.661689,-3,7,-9,1,1,0,82,84,128,110,30,133.47,397,-61.00,-91.00,-962.00
2024-06-07 10:34:33.832891,-3,7,-9,1,1,0,82,84,128,110,30,133.64,397,0.00,-110.00,-1013.00
2024-06-07 10:34:33.865554,-2,6,-9,1,1,0,82,84,130,110,30,133.58,397,-62.00,-71.00,-886.00
2024-06-07 10:34:34.037493,-2,7,-9,1,1,0,82,84,129,110,30,133.60,397,-37.00,-87.00,-864.00
2024-06-07 10:34:34.069565,-2,8,-9,1,1,0,82,84,128,110,30,133.53,397,16.00,-121.00,-969.00
2024-06-07 10:34:34.171701,-1,7,-9,1,1,0,82,84,128,110,30,133.59,397,-65.00,-81.00,-1048.00
2024-06-07 10:34:34.344584,-2,5,-9,1,1,0,82,84,129,110,30,133.61,397,-45.00,-74.00,-1037.00
2024-06-07 10:34:34.375498,-6,0,-9,1,1,0,82,84,131,110,30,133.65,397,-98.00,-106.00,-1039.00
2024-06-07 10:34:34.558194,-8,2,-9,1,0,0,82,84,131,110,30,133.52,397,-6.00,-116.00,-910.00
2024-06-07 10:34:34.579475,-8,2,-9,2,0,0,82,84,132,110,30,133.61,398,-33.00,-83.00,-927.00
2024-06-07 10:34:34.856608,-7,3,-9,3,-1,0,82,84,134,110,30,133.68,398,-51.00,-111.00,-1009.00
2024-06-07 10:34:34.856662,-7,4,-9,4,-2,0,82,84,134,110,30,133.65,398,-35.00,-125.00,-992.00
2024-06-07 10:34:34.885474,-6,5,-9,4,-2,0,82,84,135,110,30,133.60,398,-87.00,-79.00,-963.00
2024-06-07 10:34:35.061400,-6,5,-9,4,-2,0,82,84,134,110,30,133.60,398,-92.00,-80.00,-912.00
2024-06-07 10:34:35.089495,-6,5,-9,4,-1,0,83,84,136,110,30,133.54,398,-117.00,-109.00,-973.00
2024-06-07 10:34:35.191465,-6,5,-9,4,-1,0,83,84,135,110,30,133.58,398,-70.00,-122.00,-932.00
2024-06-07 10:34:35.368525,-6,6,-9,4,-1,0,83,84,139,120,30,133.61,398,-94.00,-100.00,-895.00
2024-06-07 10:34:35.395892,-5,6,-9,4,-1,0,83,84,140,120,30,133.64,398,-154.00,-88.00,-945.00
2024-06-07 10:34:35.675843,-3,8,-9,4,-1,0,83,84,140,120,30,133.70,398,-156.00,-58.00,-957.00
2024-06-07 10:34:35.675898,-2,8,-9,3,0,0,83,84,139,120,30,133.74,399,-57.00,-139.00,-876.00
2024-06-07 10:34:35.701532,-2,6,-9,3,0,0,83,84,139,120,30,133.80,399,-122.00,-82.00,-859.00
2024-06-07 10:34:35.880564,-2,6,-9,2,0,0,83,84,138,120,30,133.75,399,-33.00,-111.00,-1070.00
2024-06-07 10:34:35.908254,-3,6,-9,2,0,0,83,84,139,120,30,133.82,399,-90.00,-82.00,-986.00
2024-06-07 10:34:36.008961,-3,6,-9,2,0,0,83,84,139,120,30,133.68,399,-66.00,-101.00,-1052.00
2024-06-07 10:34:36.109317,-4,7,-9,2,0,0,82,84,138,120,30,133.67,399,-57.00,-53.00,-936.00
2024-06-07 10:34:36.211386,-5,6,-9,2,0,0,82,84,137,120,30,133.59,399,-41.00,-82.00,-1031.00
2024-06-07 10:34:36.392936,-3,6,-9,3,0,0,82,84,137,120,30,133.66,399,-24.00,-105.00,-999.00
2024-06-07 10:34:36.416549,-2,6,-9,3,0,0,82,84,136,120,30,133.67,399,-37.00,-129.00,-1010.00
2024-06-07 10:34:36.597443,-2,6,-9,2,0,1,82,84,136,120,30,133.74,399,-37.00,-123.00,-1064.00
2024-06-07 10:34:36.620150,-2,7,-9,2,0,0,82,84,136,110,30,133.79,400,-23.00,-124.00,-987.00
2024-06-07 10:34:36.802333,-2,7,-9,2,0,0,82,84,136,110,30,133.71,400,-113.00,-89.00,-1071.00
2024-06-07 10:34:36.823385,-2,8,-9,2,0,0,82,84,137,120,30,133.76,400,-142.00,-72.00,-1018.00
2024-06-07 10:34:37.007219,-3,7,-9,2,1,0,82,84,135,120,30,133.82,400,-61.00,-101.00,-892.00
2024-06-07 10:34:37.027330,-3,6,-9,2,1,0,82,84,135,120,30,133.76,400,-77.00,-66.00,-1010.00
2024-06-07 10:34:37.129329,-4,5,-9,2,1,0,81,84,135,120,30,133.79,400,10.00,-97.00,-991.00
2024-06-07 10:34:37.231332,-3,5,-9,2,0,0,81,84,135,120,30,133.75,400,-20.00,-124.00,-959.00
2024-06-07 10:34:37.416942,-2,6,-9,2,0,0,81,84,135,120,30,133.73,400,16.00,-103.00,-1006.00
2024-06-07 10:34:37.435268,-1,8,-9,2,0,0,81,84,134,120,30,133.74,400,-6.00,-95.00,-989.00
2024-06-07 10:34:37.486805,0,7,-9,2,1,0,81,84,133,110,30,133.82,400,-76.00,-101.00,-1043.00
2024-06-07 10:34:37.621327,-1,1,-9,1,1,0,81,84,130,110,30,133.81,401,-58.00,-103.00,-887.00
2024-06-07 10:34:37.690448,0,2,-9,0,0,0,81,84,129,110,30,133.84,401,0.00,-125.00,-1053.00
2024-06-07 10:34:37.826365,-1,4,-9,0,0,0,81,84,130,110,30,133.81,401,40.00,-120.00,-1023.00
2024-06-07 10:34:37.898083,-1,4,-9,0,0,0,81,84,129,110,30,133.68,401,37.00,-131.00,-932.00
2024-06-07 10:34:37.997917,0,5,-9,0,0,0,81,84,128,110,30,133.83,401,-72.00,-117.00,-1064.00
2024-06-07 10:34:38.133765,-1,7,-9,0,0,0,82,84,130,110,30,133.74,401,-25.00,-121.00,-1059.00
2024-06-07 10:34:38.201332,-2,8,-9,0,0,0,82,84,131,110,30,133.68,401,-78.00,-114.00,-1071.00
2024-06-07 10:34:38.338674,-3,7,-9,0,0,0,82,84,131,110,30,133.75,401,-56.00,-135.00,-1017.00
2024-06-07 10:34:38.412469,-4,7,-9,0,0,0,82,84,131,110,30,133.94,401,-112.00,-99.00,-874.00
2024-06-07 10:34:38.507369,-4,6,-9,0,0,0,82,84,128,110,30,133.90,401,5.00,-139.00,-1012.00
2024-06-07 10:34:38.645702,-4,6,-9,0,0,0,82,84,131,110,30,133.95,402,-54.00,-105.00,-1048.00
2024-06-07 10:34:38.711352,-3,7,-9,0,0,0,82,84,128,110,30,133.93,402,-79.00,-73.00,-971.00
2024-06-07 10:34:38.952754,-3,6,-9,0,0,0,82,84,128,110,30,133.91,402,6.00,-124.00,-922.00
2024-06-07 10:34:38.953012,-2,7,-9,0,0,0,82,84,129,110,30,133.90,402,-47.00,-131.00,-1017.00
2024-06-07 10:34:39.017458,-3,8,-9,0,0,0,82,84,130,110,30,133.88,402,-28.00,-151.00,-1069.00
2024-06-07 10:34:39.157422,-3,8,-9,0,0,0,82,84,130,110,30,133.85,402,-72.00,-115.00,-987.00
2024-06-07 10:34:39.221153,-2,8,-9,0,0,0,82,84,128,110,30,133.76,402,-95.00,-53.00,-1097.00
2024-06-07 10:34:39.323384,-2,7,-9,0,0,0,82,84,127,110,30,133.71,402,20.00,-136.00,-1054.00
2024-06-07 10:34:39.464535,-2,6,-9,0,0,0,82,84,127,110,30,133.69,402,-65.00,-104.00,-924.00
2024-06-07 10:34:39.527710,-3,5,-9,0,0,0,82,84,126,110,29,133.71,402,-55.00,-154.00,-840.00
2024-06-07 10:34:39.669726,-3,6,-9,0,0,0,82,84,125,110,29,133.73,403,-52.00,-110.00,-910.00
2024-06-07 10:34:39.731389,-2,7,-9,0,0,0,82,84,124,110,29,133.42,403,-166.00,-30.00,-1204.00
2024-06-07 10:34:39.834008,-4,6,-9,-1,1,0,82,84,123,110,29,133.61,403,-154.00,-58.00,-1087.00
2024-06-07 10:34:39.976728,-8,3,-9,-1,1,0,82,84,126,110,29,133.49,403,-40.00,-135.00,-923.00
2024-06-07 10:34:40.038126,-7,2,-9,-1,1,0,82,84,127,110,29,133.62,403,-120.00,-83.00,-983.00
2024-06-07 10:34:40.140088,0,3,-9,-2,1,0,82,84,126,110,29,133.33,403,-106.00,-83.00,-1095.00
2024-06-07 10:34:40.242315,1,3,-9,-3,0,0,82,84,127,110,29,133.67,403,-146.00,-65.00,-959.00
2024-06-07 10:34:40.388714,2,4,-9,-4,0,0,82,84,126,110,29,133.73,403,-130.00,-82.00,-1003.00
2024-06-07 10:34:40.446046,2,5,-9,-5,0,0,82,84,124,110,29,133.80,403,-58.00,-131.00,-953.00
2024-06-07 10:34:40.591014,2,6,-9,-6,0,0,82,84,125,110,29,133.71,403,-112.00,-17.00,-1024.00
2024-06-07 10:34:40.651280,0,5,-9,-7,1,0,82,84,123,110,29,133.70,404,-96.00,-59.00,-986.00
2024-06-07 10:34:40.795584,0,3,-9,-7,1,0,82,84,123,110,29,133.70,404,-79.00,-99.00,-957.00
2024-06-07 10:34:40.854055,-3,3,-9,-7,1,0,82,84,125,110,29,133.82,404,-34.00,-92.00,-1119.00
2024-06-07 10:34:41.000974,-4,6,-9,-7,0,0,82,84,125,110,29,133.74,404,31.00,-116.00,-1058.00
2024-06-07 10:34:41.058379,-5,6,-9,-6,0,0,82,84,124,110,29,133.74,404,24.00,-141.00,-1028.00
2024-06-07 10:34:41.206347,-6,5,-9,-5,0,0,82,84,124,110,29,133.79,404,-7.00,-136.00,-941.00
2024-06-07 10:34:41.210979,-5,6,-9,-4,0,0,82,84,124,110,29,133.81,404,6.00,-147.00,-976.00
2024-06-07 10:34:41.313833,-4,7,-9,-3,0,0,82,84,123,110,29,133.83,404,35.00,-157.00,-1017.00
2024-06-07 10:34:41.512401,-3,8,-9,-3,0,0,82,84,125,110,29,133.82,404,-56.00,-117.00,-993.00
2024-06-07 10:34:41.517789,-3,8,-9,-3,0,0,82,84,123,110,28,133.70,404,-43.00,-87.00,-1019.00
2024-06-07 10:34:41.619042,-4,8,-9,-3,0,0,82,84,122,110,28,133.74,405,-18.00,-113.00,-886.00
2024-06-07 10:34:41.722367,-4,8,-9,-3,0,0,82,84,122,110,28,133.61,405,-53.00,-101.00,-1084.00
2024-06-07 10:34:41.823527,-4,7,-9,-2,0,0,82,84,122,110,28,133.78,405,-40.00,-119.00,-956.00
2024-06-07 10:34:41.925024,-4,7,-9,-2,0,0,82,84,123,110,28,133.74,405,-21.00,-94.00,-1009.00
2024-06-07 10:34:42.027623,-5,7,-10,-1,0,0,82,84,122,110,28,133.80,405,4.00,-109.00,-1154.00
2024-06-07 10:34:42.129039,-4,8,-10,0,0,0,82,84,123,110,28,133.86,405,-33.00,-96.00,-1072.00
2024-06-07 10:34:42.230952,-2,7,-9,0,0,0,82,84,122,110,28,133.75,405,-25.00,-124.00,-1133.00
2024-06-07 10:34:42.334085,-2,3,-9,0,0,0,82,84,124,110,28,133.72,405,-72.00,-123.00,-971.00
2024-06-07 10:34:42.435178,-2,5,-9,0,0,0,82,84,124,110,28,133.71,405,-55.00,-124.00,-899.00
2024-06-07 10:34:42.638849,-2,6,-9,0,0,0,82,84,123,110,28,133.76,405,-63.00,-133.00,-1040.00
2024-06-07 10:34:42.639219,-2,7,-9,0,0,0,82,84,122,110,28,133.70,406,-45.00,-115.00,-1083.00
2024-06-07 10:34:42.741114,-3,7,-9,0,0,0,82,84,124,110,28,133.77,406,-51.00,-133.00,-1067.00
2024-06-07 10:34:42.843802,-3,7,-9,0,0,0,82,84,123,110,28,133.78,406,-77.00,-142.00,-1091.00
2024-06-07 10:34:42.950997,-3,7,-9,0,0,0,82,84,125,110,28,133.81,406,-6.00,-156.00,-1014.00
2024-06-07 10:34:43.048282,-2,8,-9,0,0,0,82,84,124,110,28,133.69,406,-48.00,-107.00,-1109.00
2024-06-07 10:34:43.154108,-3,8,-9,0,0,0,81,83,124,110,28,133.73,406,-56.00,-114.00,-949.00
2024-06-07 10:34:43.251002,-3,8,-9,0,0,0,81,83,124,110,28,133.75,406,33.00,-157.00,-951.00
2024-06-07 10:34:43.355772,-3,8,-9,0,0,0,81,83,125,110,28,133.68,406,-30.00,-117.00,-1034.00
2024-06-07 10:34:43.455161,-4,7,-9,0,0,0,81,83,123,110,28,133.42,406,-6.00,-110.00,-1047.00
2024-06-07 10:34:43.560707,-2,5,-8,0,0,0,81,83,123,110,27,133.40,406,-126.00,-62.00,-1066.00
2024-06-07 10:34:43.659088,-1,7,-9,0,0,0,81,83,125,110,27,133.66,407,-36.00,-104.00,-978.00
2024-06-07 10:34:43.768420,-3,6,-9,0,0,0,81,83,124,110,27,133.73,407,4.00,-118.00,-924.00
2024-06-07 10:34:43.862939,-3,5,-9,0,0,0,81,83,124,110,27,133.79,407,-72.00,-116.00,-1001.00
2024-06-07 10:34:43.970327,-2,5,-9,0,0,0,81,83,125,110,27,133.69,407,-14.00,-115.00,-983.00
2024-06-07 10:34:44.067057,-3,5,-9,0,0,0,81,83,125,110,27,133.74,407,-91.00,-91.00,-1070.00
2024-06-07 10:34:44.170704,-3,5,-9,0,0,0,81,84,126,110,27,133.89,407,-70.00,-118.00,-965.00
2024-06-07 10:34:44.270928,-3,6,-9,0,0,0,81,84,125,110,27,133.77,407,-29.00,-114.00,-1092.00
2024-06-07 10:34:44.373869,-3,7,-10,0,0,0,81,84,125,110,27,133.88,407,-13.00,-121.00,-1054.00
2024-06-07 10:34:44.474804,-2,6,-10,0,0,0,81,84,122,110,27,133.82,407,15.00,-149.00,-1018.00
2024-06-07 10:34:44.525879,-2,5,-9,0,0,0,81,84,123,110,27,133.77,407,-12.00,-105.00,-885.00
2024-06-07 10:34:44.688382,-1,1,-9,0,0,0,81,84,123,110,27,133.72,408,-26.00,-157.00,-996.00
2024-06-07 10:34:44.736757,0,-1,-9,0,-1,0,81,84,119,110,27,133.61,408,-68.00,-65.00,-1076.00
2024-06-07 10:34:44.832610,0,1,-9,0,-2,0,81,84,119,110,27,133.65,408,-91.00,-22.00,-1062.00
2024-06-07 10:34:44.994404,0,2,-9,0,-3,0,81,84,119,110,27,133.64,408,20.00,-109.00,-1095.00
2024-06-07 10:34:45.035874,-1,4,-9,0,-3,0,81,84,120,110,27,133.72,408,-9.00,-111.00,-1036.00
2024-06-07 10:34:45.199009,-1,7,-9,0,-3,0,81,84,120,110,27,133.74,408,-56.00,-59.00,-978.00
2024-06-07 10:34:45.239914,0,7,-9,0,-3,0,81,84,121,110,27,133.74,408,-15.00,-75.00,-1016.00
2024-06-07 10:34:45.408670,0,6,-9,0,-2,0,81,84,121,110,27,133.54,408,-81.00,-90.00,-1046.00
2024-06-07 10:34:45.443744,0,4,-9,0,-1,0,81,84,120,110,27,133.65,408,-63.00,-57.00,-990.00
2024-06-07 10:34:45.608372,0,4,-9,0,-1,0,81,84,122,110,26,133.85,408,-86.00,-70.00,-981.00
2024-06-07 10:34:45.647813,-1,3,-9,-1,-1,0,81,84,124,110,26,133.78,409,-97.00,-75.00,-966.00
2024-06-07 10:34:45.750959,-3,3,-9,-1,-2,0,81,84,126,110,26,133.69,409,21.00,-100.00,-908.00
2024-06-07 10:34:45.854809,-3,4,-9,0,-2,0,81,84,127,110,26,133.71,409,-113.00,-55.00,-941.00
2024-06-07 10:34:45.953764,-3,5,-9,0,-2,0,81,84,129,110,26,133.86,409,-65.00,-49.00,-1017.00
2024-06-07 10:34:46.056555,-2,5,-9,0,-2,0,81,84,128,110,26,133.90,409,-103.00,-71.00,-873.00
2024-06-07 10:34:46.157792,-1,5,-9,0,-2,0,82,84,129,110,26,133.62,409,-86.00,-92.00,-976.00
2024-06-07 10:34:46.259808,-3,6,-9,0,-2,0,82,84,129,110,26,133.75,409,-1.00,-78.00,-1079.00
2024-06-07 10:34:46.430771,-4,7,-9,0,-2,0,82,84,132,110,26,133.62,409,27.00,-68.00,-1080.00
2024-06-07 10:34:46.466784,-2,8,-9,0,-1,0,82,84,130,110,26,133.76,409,-76.00,-74.00,-1054.00
2024-06-07 10:34:46.567436,-1,8,-9,0,0,0,82,84,129,110,26,133.75,410,-1.00,-98.00,-992.00
2024-06-07 10:34:46.668857,0,5,-9,0,0,0,82,84,129,110,26,133.60,410,66.00,-133.00,-976.00
2024-06-07 10:34:46.769834,2,4,-9,0,0,0,82,84,130,110,26,133.74,410,-23.00,-114.00,-1017.00
2024-06-07 10:34:46.872222,1,4,-9,0,0,0,82,84,128,110,26,133.71,410,2.00,-80.00,-966.00
2024-06-07 10:34:46.975801,-3,4,-9,-1,0,0,82,84,129,110,26,133.70,410,-12.00,-71.00,-1054.00
2024-06-07 10:34:47.075867,-5,4,-9,0,0,0,82,84,128,110,26,133.62,410,-55.00,-58.00,-999.00
2024-06-07 10:34:47.246799,-4,4,-9,0,0,0,81,84,129,110,26,133.85,410,-22.00,-104.00,-962.00
2024-06-07 10:34:47.279902,-2,4,-9,0,0,0,81,84,129,110,26,133.68,410,-65.00,-66.00,-1070.00
2024-06-07 10:34:47.452437,0,5,-9,0,0,0,81,84,127,110,26,133.65,410,-24.00,-79.00,-1024.00
2024-06-07 10:34:47.483774,0,5,-9,0,0,0,81,84,128,110,26,133.56,410,-41.00,-116.00,-899.00
2024-06-07 10:34:47.656486,-1,4,-9,0,0,0,81,84,128,110,25,133.61,411,4.00,-95.00,-978.00
2024-06-07 10:34:47.687922,-2,4,-9,0,0,0,81,84,128,110,25,133.71,411,12.00,-111.00,-943.00
2024-06-07 10:34:47.861676,-2,4,-9,0,0,0,81,84,127,110,25,133.71,411,3.00,-97.00,-962.00
2024-06-07 10:34:47.891726,-1,4,-9,0,0,0,81,84,127,110,25,133.67,411,-49.00,-74.00,-972.00
2024-06-07 10:34:48.066145,-2,3,-9,0,0,0,81,84,127,110,25,133.64,411,-7.00,-87.00,-997.00
2024-06-07 10:34:48.095778,-2,3,-9,0,0,0,81,84,127,110,25,133.59,411,-36.00,-90.00,-958.00
2024-06-07 10:34:48.197922,-2,4,-9,0,0,0,82,84,128,110,25,133.64,411,-78.00,-35.00,-1071.00
2024-06-07 10:34:48.299729,-1,4,-9,0,0,0,82,84,128,110,25,133.63,411,-61.00,-57.00,-1045.00
2024-06-07 10:34:48.351825,-1,4,-9,0,0,0,82,84,129,110,25,133.59,411,-27.00,-79.00,-1163.00
2024-06-07 10:34:48.452912,-1,4,-9,0,0,0,82,84,128,110,25,133.51,411,-132.00,-26.00,-1001.00
2024-06-07 10:34:48.579359,-2,2,-9,-1,0,0,82,84,128,110,25,133.62,412,-113.00,-40.00,-951.00
2024-06-07 10:34:48.656793,-5,2,-9,-1,0,0,82,84,131,110,25,133.54,412,-193.00,-22.00,-969.00
2024-06-07 10:34:48.782908,-6,2,-9,-1,0,0,82,84,133,120,25,133.52,412,-106.00,-64.00,-920.00
2024-06-07 10:34:48.860820,-8,2,-9,-1,0,0,82,84,132,120,25,133.61,412,8.00,-139.00,-1031.00
2024-06-07 10:34:48.962688,-7,3,-9,0,0,0,82,84,132,120,25,133.66,412,-110.00,-65.00,-989.00
2024-06-07 10:34:49.091235,-5,6,-9,0,0,0,82,84,130,120,25,133.77,412,-95.00,-90.00,-1021.00
2024-06-07 10:34:49.166672,-1,9,-9,0,0,0,81,84,130,110,25,133.74,412,-174.00,-16.00,-997.00
2024-06-07 10:34:49.268528,-2,8,-9,-1,1,0,81,84,131,110,25,133.59,412,-44.00,-107.00,-1102.00
2024-06-07 10:34:49.397229,-3,7,-9,-1,2,0,81,84,129,110,25,133.48,412,-40.00,-98.00,-1111.00
2024-06-07 10:34:49.472711,-5,7,-9,-2,2,0,81,84,129,110,25,133.55,412,-115.00,-44.00,-1098.00
2024-06-07 10:34:49.602039,-7,5,-9,-2,3,0,81,84,129,110,24,133.65,413,-79.00,-60.00,-996.00
2024-06-07 10:34:49.676618,-8,3,-9,-1,3,0,81,84,128,110,24,133.65,413,-80.00,-141.00,-923.00
2024-06-07 10:34:49.806944,-8,3,-9,-1,3,0,81,84,126,110,24,133.57,413,-147.00,-67.00,-930.00
2024-06-07 10:34:49.880657,-8,3,-9,-1,2,0,81,84,127,110,24,133.56,413,-218.00,-31.00,-1004.00
2024-06-07 10:34:50.011629,-8,2,-9,-1,2,0,81,84,127,110,24,133.60,413,-164.00,-44.00,-996.00
2024-06-07 10:34:50.084575,-8,2,-9,-1,2,0,81,84,126,110,24,133.58,413,-106.00,-83.00,-1013.00
2024-06-07 10:34:50.216503,-8,3,-9,-1,1,0,81,84,127,110,24,133.59,413,-55.00,-124.00,-894.00
2024-06-07 10:34:50.288550,-8,4,-9,0,1,0,81,84,125,110,24,133.57,413,-150.00,-67.00,-977.00
2024-06-07 10:34:50.421266,-8,4,-9,0,1,0,81,84,126,110,24,133.62,413,-105.00,-76.00,-1024.00
2024-06-07 10:34:50.492732,-8,4,-9,0,1,0,81,84,126,110,24,133.63,413,-24.00,-102.00,-976.00
2024-06-07 10:34:50.626056,-8,3,-9,0,1,0,81,84,125,110,24,133.55,414,-33.00,-85.00,-959.00
2024-06-07 10:34:50.697589,-8,4,-9,1,1,0,81,84,124,110,24,133.56,414,-125.00,-56.00,-962.00
2024-06-07 10:34:50.830956,-7,4,-9,2,1,0,81,84,123,110,24,133.66,414,-110.00,-40.00,-1040.00
2024-06-07 10:34:50.903445,-5,3,-9,2,1,0,81,84,123,110,24,133.63,414,-11.00,-103.00,-980.00
2024-06-07 10:34:51.002521,-4,3,-9,2,1,0,81,84,122,110,24,133.69,414,13.00,-102.00,-1079.00
2024-06-07 10:34:51.138371,-3,3,-9,2,1,0,81,84,122,110,24,133.59,414,-62.00,-67.00,-1033.00
2024-06-07 10:34:51.206554,-3,4,-9,2,1,0,82,84,123,110,24,133.51,414,-58.00,-98.00,-1059.00
2024-06-07 10:34:51.342710,-3,4,-9,2,1,0,82,84,124,110,24,133.46,414,-90.00,-70.00,-1100.00
2024-06-07 10:34:51.414689,-3,4,-9,2,1,0,82,84,125,110,24,133.47,414,-39.00,-101.00,-995.00
2024-06-07 10:34:51.512669,-4,1,-9,2,1,0,82,84,126,110,24,133.51,414,-126.00,-66.00,-1055.00
2024-06-07 10:34:51.649899,-4,2,-9,2,0,0,82,84,126,110,24,133.50,415,-110.00,-38.00,-1092.00
2024-06-07 10:34:51.722174,0,1,-9,2,0,0,82,84,125,110,24,133.45,415,-144.00,-35.00,-1014.00
2024-06-07 10:34:51.818493,0,2,-9,1,0,0,82,84,126,110,24,133.50,415,-97.00,-51.00,-1014.00
2024-06-07 10:34:51.957854,-2,2,-9,0,0,0,82,84,127,110,24,133.43,415,-10.00,-89.00,-872.00
2024-06-07 10:34:51.971467,-3,3,-9,0,0,0,82,84,129,110,24,133.38,415,-164.00,-7.00,-943.00
2024-06-07 10:34:52.162556,-4,2,-9,0,1,0,82,84,127,110,24,133.42,415,-95.00,-40.00,-917.00
2024-06-07 10:34:52.226680,-4,1,-9,0,1,0,82,84,127,110,24,133.41,415,-133.00,-3.00,-1064.00
2024-06-07 10:34:52.328566,-4,1,-9,0,1,0,82,84,127,110,24,133.51,415,-119.00,-69.00,-961.00
2024-06-07 10:34:52.430743,-4,1,-9,0,0,0,82,84,129,110,24,133.33,415,-185.00,-45.00,-1085.00
2024-06-07 10:34:52.481544,-5,1,-9,0,0,0,82,84,130,110,24,133.46,415,-92.00,-46.00,-1052.00
2024-06-07 10:34:52.674170,-6,1,-9,-1,0,0,82,84,129,110,24,133.26,416,-152.00,-53.00,-987.00
2024-06-07 10:34:52.685804,-7,2,-9,-1,0,0,82,84,132,110,24,133.36,416,-188.00,-15.00,-979.00
2024-06-07 10:34:52.878827,-7,2,-9,-1,0,0,82,84,130,110,24,133.34,416,-47.00,-52.00,-1086.00
2024-06-07 10:34:52.889561,-8,2,-9,0,0,0,82,84,132,120,24,133.39,416,-49.00,-59.00,-981.00
2024-06-07 10:34:53.083916,-8,2,-9,0,0,0,82,84,132,120,24,133.51,416,-185.00,-13.00,-948.00
2024-06-07 10:34:53.093645,-8,1,-9,0,0,0,82,84,132,110,24,133.44,416,-79.00,-76.00,-1025.00
2024-06-07 10:34:53.291261,-7,1,-9,0,0,0,82,83,131,110,24,133.25,416,-66.00,-65.00,-1038.00
2024-06-07 10:34:53.297597,-7,1,-9,0,0,0,82,83,131,110,24,133.41,416,-63.00,-75.00,-960.00
2024-06-07 10:34:53.493353,-7,1,-9,0,0,0,82,83,130,110,24,133.43,416,-112.00,-64.00,-964.00
2024-06-07 10:34:53.501532,-8,2,-9,0,0,0,82,83,130,110,23,133.38,416,-143.00,-36.00,-1078.00
2024-06-07 10:34:53.698131,-9,2,-9,0,0,0,82,83,131,110,23,133.60,417,-105.00,-74.00,-853.00
2024-06-07 10:34:53.705525,-8,2,-9,0,0,0,82,83,130,110,23,133.37,417,-151.00,-88.00,-921.00
2024-06-07 10:34:53.822606,-8,2,-9,0,0,0,82,83,129,110,23,133.54,417,-156.00,-27.00,-1061.00
2024-06-07 10:34:53.909386,-8,2,-9,0,0,0,82,83,128,110,23,133.44,417,-147.00,-41.00,-936.00
2024-06-07 10:34:54.107730,-8,2,-7,0,0,0,82,83,127,110,23,133.34,417,-169.00,-93.00,-1022.00
2024-06-07 10:34:54.113341,-8,1,-1,0,0,0,82,83,127,110,23,133.35,417,-115.00,-52.00,-914.00
2024-06-07 10:34:54.217211,-8,2,4,0,0,0,80,83,126,110,23,133.20,417,-75.00,-61.00,-1064.00
2024-06-07 10:34:54.318434,-8,0,10,0,0,0,80,83,126,110,23,133.17,417,-50.00,-67.00,-989.00
2024-06-07 10:34:54.420518,-8,-1,15,0,0,0,80,83,126,110,23,133.13,417,-237.00,32.00,-1052.00
2024-06-07 10:34:54.522323,-8,-3,20,0,0,0,80,83,124,110,23,133.08,417,-157.00,54.00,-1041.00
2024-06-07 10:34:54.625622,-7,-4,26,0,0,0,80,83,122,110,23,133.02,418,-181.00,33.00,-1015.00
2024-06-07 10:34:54.726405,-7,-4,31,0,0,0,80,83,121,110,23,133.22,418,-163.00,11.00,-990.00
2024-06-07 10:34:54.828407,-7,-3,37,0,0,0,80,83,122,110,23,133.33,418,-133.00,6.00,-1062.00
2024-06-07 10:34:54.930419,-7,-4,43,0,0,0,80,83,120,110,23,133.37,418,-137.00,63.00,-999.00
2024-06-07 10:34:55.132735,-7,-5,49,0,0,0,80,83,120,110,23,133.33,418,-122.00,106.00,-1077.00
2024-06-07 10:34:55.136158,-6,-5,54,0,0,0,80,83,119,110,23,133.41,418,-118.00,77.00,-1160.00
2024-06-07 10:34:55.236561,-5,-6,60,0,0,0,81,83,117,110,23,133.43,418,-64.00,116.00,-921.00
2024-06-07 10:34:55.341268,-4,-6,65,0,0,0,81,83,115,110,23,133.57,418,-33.00,130.00,-1029.00
2024-06-07 10:34:55.440362,-3,-7,71,0,0,0,81,83,114,100,23,133.42,418,-65.00,143.00,-1089.00
2024-06-07 10:34:55.643489,-2,-8,76,0,0,0,81,83,115,100,23,133.40,418,-68.00,117.00,-1011.00
2024-06-07 10:34:55.644264,-2,-8,82,0,0,0,81,83,115,100,23,133.54,419,-39.00,135.00,-1060.00
2024-06-07 10:34:55.848522,-1,-9,87,0,0,0,81,83,115,100,23,133.51,419,-47.00,155.00,-1018.00
2024-06-07 10:34:55.848699,-1,-9,93,0,0,0,81,83,113,100,23,133.59,419,-23.00,201.00,-996.00
2024-06-07 10:34:55.950478,0,-8,98,0,0,0,81,83,114,100,23,133.64,419,-30.00,183.00,-957.00
2024-06-07 10:34:56.053655,1,-8,104,0,0,0,81,83,114,100,23,133.61,419,47.00,101.00,-879.00
2024-06-07 10:34:56.103261,3,-8,110,0,0,0,81,83,114,100,23,133.57,419,26.00,149.00,-1087.00
2024-06-07 10:34:56.258344,4,-8,115,0,0,0,82,83,115,100,23,133.61,419,98.00,111.00,-984.00
2024-06-07 10:34:56.358195,5,-6,121,0,0,0,82,83,116,100,23,133.51,419,144.00,88.00,-1088.00
2024-06-07 10:34:56.409542,5,-6,128,0,0,0,82,83,116,100,23,133.49,419,111.00,104.00,-988.00
2024-06-07 10:34:56.565059,5,-5,135,0,0,-1,82,83,118,100,23,133.48,419,154.00,76.00,-964.00
2024-06-07 10:34:56.613204,6,-4,141,0,0,-1,82,83,119,100,23,133.51,420,127.00,52.00,-979.00
2024-06-07 10:34:56.769817,7,-3,148,0,0,0,82,83,120,110,23,133.59,420,110.00,64.00,-1005.00
2024-06-07 10:34:56.817453,8,-1,154,0,0,0,82,83,121,110,23,133.44,420,75.00,95.00,-981.00
2024-06-07 10:34:56.974532,8,0,160,0,0,0,82,83,121,110,23,133.41,420,142.00,29.00,-905.00
2024-06-07 10:34:57.021122,8,0,167,0,0,0,82,83,123,110,23,133.27,420,195.00,13.00,-943.00
2024-06-07 10:34:57.179422,8,-1,173,0,0,0,82,83,123,110,23,133.44,420,109.00,16.00,-1042.00
2024-06-07 10:34:57.225725,7,1,179,0,0,0,80,83,124,110,23,133.15,420,211.00,-5.00,-978.00
2024-06-07 10:34:57.384391,7,0,-173,0,0,0,80,83,127,110,23,133.21,420,148.00,-5.00,-889.00
2024-06-07 10:34:57.431211,8,1,-167,0,0,0,80,83,126,110,23,133.14,420,160.00,-1.00,-982.00
2024-06-07 10:34:57.589248,8,1,-162,0,0,0,80,83,128,110,23,133.32,420,96.00,-46.00,-990.00
2024-06-07 10:34:57.634169,8,2,-156,0,0,0,80,83,128,110,23,133.31,421,107.00,-47.00,-1022.00
2024-06-07 10:34:57.793807,7,4,-150,0,0,0,80,83,130,110,23,133.46,421,23.00,2.00,-973.00
2024-06-07 10:34:57.838441,7,4,-144,0,0,0,80,83,131,110,23,133.44,421,117.00,-20.00,-992.00
2024-06-07 10:34:57.998725,7,5,-139,0,0,0,80,83,131,110,23,133.43,421,112.00,-123.00,-896.00
2024-06-07 10:34:58.042130,6,5,-133,0,0,0,80,83,132,110,23,133.56,421,131.00,-126.00,-843.00
2024-06-07 10:34:58.305864,6,6,-127,0,0,0,80,83,130,110,23,133.51,421,93.00,-86.00,-937.00
2024-06-07 10:34:58.306236,6,6,-121,0,-1,0,80,83,133,110,23,133.47,421,74.00,-56.00,-1011.00
2024-06-07 10:34:58.348117,5,6,-115,0,0,0,80,83,131,110,23,133.53,421,86.00,-123.00,-865.00
2024-06-07 10:34:58.512107,4,7,-110,0,0,0,80,83,131,110,23,133.57,421,44.00,-106.00,-990.00
2024-06-07 10:34:58.552428,3,7,-104,0,0,0,80,83,129,110,22,133.67,421,73.00,-156.00,-936.00
2024-06-07 10:34:58.715731,2,8,-98,0,0,0,80,83,131,110,22,133.66,422,67.00,-161.00,-958.00
2024-06-07 10:34:58.757427,1,8,-92,0,0,0,80,83,130,110,22,133.66,422,17.00,-159.00,-997.00
2024-06-07 10:34:58.920429,0,8,-86,0,0,0,80,83,131,110,22,133.69,422,-2.00,-169.00,-1001.00
2024-06-07 10:34:58.961742,0,8,-80,0,0,0,80,83,131,110,22,133.67,422,-25.00,-129.00,-931.00
2024-06-07 10:34:59.065980,0,8,-74,0,0,0,80,83,131,110,22,133.61,422,7.00,-146.00,-1019.00
2024-06-07 10:34:59.164850,-1,9,-67,0,0,0,80,83,131,110,22,133.62,422,-11.00,-129.00,-980.00
2024-06-07 10:34:59.266495,-2,7,-61,0,0,0,81,83,134,110,22,133.53,422,-87.00,-101.00,-1009.00
2024-06-07 10:34:59.433696,-4,6,-55,0,0,0,81,83,134,110,22,133.48,422,-103.00,-103.00,-1016.00
2024-06-07 10:34:59.471072,-5,6,-48,0,0,0,81,83,135,110,22,133.53,422,-85.00,-112.00,-970.00
2024-06-07 10:34:59.576543,-6,6,-42,0,0,0,81,83,137,120,22,133.51,422,-97.00,-86.00,-1032.00
2024-06-07 10:34:59.674064,-7,5,-35,0,0,0,81,83,137,120,22,133.52,423,-91.00,-82.00,-931.00
2024-06-07 10:34:59.841909,-8,4,-29,0,0,0,81,83,139,120,22,133.38,423,-80.00,-100.00,-888.00
2024-06-07 10:34:59.878821,-8,4,-24,0,0,0,81,83,137,120,22,133.45,423,-163.00,-40.00,-911.00
2024-06-07 10:34:59.932281,-8,4,-20,1,0,0,81,83,139,120,22,133.32,423,-76.00,-62.00,-1021.00
2024-06-07 10:35:00.031060,-8,4,-17,1,0,0,81,83,135,120,22,133.41,423,-87.00,-47.00,-1056.00
2024-06-07 10:35:00.153993,-7,2,-15,1,0,0,81,83,137,120,22,133.44,423,-100.00,-75.00,-930.00
2024-06-07 10:35:00.286127,-6,3,-12,1,0,0,81,83,133,120,22,133.37,423,-32.00,-103.00,-927.00
2024-06-07 10:35:00.388049,-6,4,-11,1,0,0,81,83,132,120,22,133.41,423,-100.00,-98.00,-941.00
2024-06-07 10:35:00.661858,-6,4,-11,1,0,0,81,83,132,120,22,133.32,423,-127.00,-80.00,-938.00
2024-06-07 10:35:00.664130,-6,3,-10,1,0,0,81,83,131,120,22,133.27,424,-193.00,-50.00,-937.00
2024-06-07 10:35:00.664823,-6,3,-10,1,0,0,81,83,131,110,22,133.25,424,-123.00,-62.00,-1051.00
2024-06-07 10:35:00.745463,-5,4,-10,1,0,0,81,83,130,110,22,133.14,424,-147.00,-68.00,-930.00
2024-06-07 10:35:00.866066,-5,4,-10,1,0,0,81,83,128,110,22,133.21,424,-90.00,-82.00,-1022.00
2024-06-07 10:35:00.949110,-5,3,-10,1,0,0,81,83,126,110,22,133.10,424,-183.00,-28.00,-1002.00
2024-06-07 10:35:01.070961,-5,2,-10,1,0,0,81,83,127,110,22,133.20,424,-171.00,-16.00,-1062.00
2024-06-07 10:35:01.154699,-5,2,-10,0,0,0,81,83,126,110,22,133.09,424,-143.00,-37.00,-961.00
2024-06-07 10:35:01.255605,-5,1,-10,1,0,0,81,83,125,110,22,133.14,424,-94.00,-36.00,-1022.00
2024-06-07 10:35:01.380303,-4,1,-10,1,0,0,81,83,126,110,22,133.05,424,-159.00,-19.00,-918.00
2024-06-07 10:35:01.460061,-5,1,-10,0,0,0,81,83,125,110,22,133.12,424,-99.00,-21.00,-1008.00
2024-06-07 10:35:01.583120,-5,2,-10,0,0,0,81,83,123,110,22,133.10,425,-49.00,-79.00,-992.00
2024-06-07 10:35:01.663830,-4,2,-10,0,0,0,81,83,125,110,22,133.13,425,-114.00,-35.00,-937.00
2024-06-07 10:35:01.788081,-4,1,-10,0,0,0,81,83,124,110,22,133.16,425,-150.00,-4.00,-1061.00
2024-06-07 10:35:01.867750,-5,1,-10,0,0,0,81,83,123,110,22,133.14,425,-101.00,-34.00,-1005.00
2024-06-07 10:35:01.969179,-5,1,-10,0,0,0,81,83,124,110,22,133.04,425,-71.00,-43.00,-1032.00
2024-06-07 10:35:02.094863,-5,1,-10,0,0,0,81,83,123,110,22,133.17,425,-84.00,-32.00,-984.00
2024-06-07 10:35:02.173135,-5,1,-10,0,0,0,81,83,124,110,22,133.05,425,-105.00,-12.00,-964.00
2024-06-07 10:35:02.275004,-6,1,-10,0,0,0,81,82,125,110,22,133.10,425,-46.00,-66.00,-957.00
2024-06-07 10:35:02.410913,-4,1,-10,0,0,0,81,82,126,110,22,133.16,425,-114.00,-44.00,-1081.00
2024-06-07 10:35:02.483976,-4,2,-10,0,0,0,81,82,126,110,22,133.22,425,-170.00,-10.00,-1075.00
2024-06-07 10:35:02.596688,-5,2,-12,0,0,0,81,82,126,110,22,133.16,426,-11.00,-85.00,-1044.00
2024-06-07 10:35:02.682853,-4,3,-18,0,0,0,81,82,125,110,22,133.24,426,-77.00,-43.00,-959.00
2024-06-07 10:35:02.784972,-4,4,-23,0,0,0,81,82,128,110,22,133.27,426,-83.00,-49.00,-924.00
2024-06-07 10:35:02.913973,-2,4,-29,0,0,0,81,82,126,110,22,133.26,426,-133.00,-45.00,-974.00
2024-06-07 10:35:02.989157,-3,3,-35,0,0,0,81,82,127,110,22,133.32,426,-4.00,-86.00,-1098.00
2024-06-07 10:35:03.091230,-3,3,-41,0,0,0,81,82,126,110,22,133.29,426,-119.00,-41.00,-1031.00
2024-06-07 10:35:03.221185,-5,3,-47,0,0,0,81,82,125,110,22,133.29,426,-59.00,-76.00,-946.00
2024-06-07 10:35:03.294787,-5,4,-52,0,0,0,80,83,126,110,22,133.39,426,-10.00,-115.00,-999.00
2024-06-07 10:35:03.426579,-4,5,-59,0,0,0,80,83,126,110,22,133.46,426,11.00,-96.00,-1011.00
2024-06-07 10:35:03.498996,-2,5,-65,0,0,0,80,83,125,110,22,133.35,426,-72.00,-62.00,-1009.00
2024-06-07 10:35:03.633189,-1,5,-70,0,0,0,80,83,124,110,21,133.42,427,-53.00,-90.00,-1089.00
2024-06-07 10:35:03.702861,-1,5,-76,0,0,0,80,83,123,110,21,133.39,427,-36.00,-63.00,-1050.00
2024-06-07 10:35:03.843004,-1,5,-82,0,0,0,80,83,123,110,21,133.45,427,18.00,-105.00,-948.00
2024-06-07 10:35:03.907742,0,6,-88,0,0,0,80,83,122,110,21,133.57,427,18.00,-125.00,-983.00
2024-06-07 10:35:04.010190,0,6,-94,0,0,0,80,83,122,110,21,133.54,427,26.00,-90.00,-1118.00
2024-06-07 10:35:04.142817,1,6,-101,0,0,0,80,83,122,110,21,133.46,427,-28.00,-84.00,-942.00
2024-06-07 10:35:04.163680,2,6,-107,0,0,0,80,83,120,110,21,133.53,427,63.00,-139.00,-965.00
2024-06-07 10:35:04.317485,2,5,-113,0,0,0,81,83,121,110,21,133.43,427,26.00,-69.00,-1194.00
2024-06-07 10:35:04.382321,2,4,-119,0,0,0,81,83,122,110,21,133.50,427,42.00,-75.00,-1055.00
2024-06-07 10:35:04.473583,2,3,-126,0,0,0,81,83,122,110,21,133.44,427,101.00,-100.00,-994.00
2024-06-07 10:35:04.575811,3,3,-133,0,0,0,81,83,123,110,21,133.38,428,122.00,-100.00,-897.00
2024-06-07 10:35:04.679641,4,3,-139,0,0,0,81,83,125,110,21,133.40,428,61.00,-49.00,-1012.00
2024-06-07 10:35:04.774790,4,3,-145,0,0,0,81,83,124,110,21,133.42,428,41.00,-27.00,-1022.00
2024-06-07 10:35:04.963663,5,3,-151,0,0,0,81,83,127,110,21,133.37,428,102.00,-56.00,-859.00
2024-06-07 10:35:04.978944,6,2,-158,0,0,0,81,83,127,110,21,133.36,428,60.00,-2.00,-1011.00
2024-06-07 10:35:05.168863,5,1,-164,0,0,0,81,83,128,110,21,133.34,428,99.00,-9.00,-1019.00
2024-06-07 10:35:05.182753,5,0,-170,0,0,0,81,83,130,110,21,133.21,428,43.00,47.00,-998.00
2024-06-07 10:35:05.284668,4,-1,-176,0,0,0,81,83,128,110,21,133.40,428,87.00,56.00,-969.00
2024-06-07 10:35:05.474089,4,-3,177,0,0,0,81,83,129,110,21,133.23,428,130.00,-38.00,-985.00
2024-06-07 10:35:05.488845,4,-3,172,0,0,0,81,83,128,110,21,133.28,428,132.00,-27.00,-1025.00
2024-06-07 10:35:05.591963,5,-3,166,0,0,0,81,83,129,110,20,133.25,429,69.00,45.00,-960.00
2024-06-07 10:35:05.695209,5,-2,160,0,0,0,81,83,128,110,20,133.33,429,108.00,7.00,-1024.00
2024-06-07 10:35:05.794840,6,-1,153,0,0,0,81,83,129,110,20,133.53,429,72.00,93.00,-992.00
2024-06-07 10:35:05.985780,6,-3,148,0,0,0,81,83,129,110,20,133.44,429,92.00,77.00,-1015.00
2024-06-07 10:35:05.998748,6,-3,142,0,0,0,81,83,129,110,20,133.48,429,113.00,26.00,-1013.00
2024-06-07 10:35:06.104834,5,-4,136,0,0,0,81,83,129,110,20,133.53,429,31.00,100.00,-1019.00
2024-06-07 10:35:06.202712,6,-4,130,0,0,0,81,83,129,110,20,133.57,429,82.00,84.00,-956.00
2024-06-07 10:35:06.304818,5,-4,124,0,0,0,81,82,128,110,20,133.61,429,31.00,126.00,-1042.00
2024-06-07 10:35:06.528197,4,-5,118,0,0,0,81,82,129,110,20,133.54,429,-6.00,143.00,-1025.00
2024-06-07 10:35:06.528251,3,-6,112,0,0,0,81,82,129,110,20,133.61,429,135.00,74.00,-959.00
2024-06-07 10:35:06.625756,3,-6,106,0,0,0,81,82,130,110,20,133.73,430,76.00,103.00,-947.00
2024-06-07 10:35:06.713722,2,-7,100,0,0,0,81,82,129,110,20,133.75,430,-48.00,199.00,-993.00
2024-06-07 10:35:06.907525,0,-8,93,0,0,0,81,82,129,110,20,133.80,430,-24.00,180.00,-1042.00
2024-06-07 10:35:06.916628,0,-7,87,0,0,0,81,82,130,110,20,133.49,430,11.00,131.00,-1095.00
2024-06-07 10:35:07.018683,0,-9,81,0,0,0,81,82,132,110,20,133.76,430,-34.00,120.00,-920.00
2024-06-07 10:35:07.214682,-2,-8,75,0,0,0,81,82,130,110,20,133.74,430,-73.00,173.00,-1004.00
2024-06-07 10:35:07.222708,-3,-7,68,0,0,0,81,82,131,110,20,133.73,430,-131.00,182.00,-1197.00
2024-06-07 10:35:07.333742,-4,-7,62,0,0,0,80,83,132,110,20,133.79,430,-75.00,178.00,-844.00
2024-06-07 10:35:07.433715,-5,-7,56,0,0,0,80,83,132,110,20,133.65,430,15.00,54.00,-858.00
2024-06-07 10:35:07.528667,-6,-7,50,0,0,0,80,83,131,110,20,133.42,430,-12.00,91.00,-1083.00
2024-06-07 10:35:07.631420,-7,-6,44,0,0,0,80,83,131,110,20,133.42,431,-10.00,49.00,-951.00
2024-06-07 10:35:07.828928,-6,-4,38,1,0,0,80,83,130,110,20,133.33,431,-118.00,116.00,-1042.00
2024-06-07 10:35:07.829009,-5,-2,31,1,0,0,80,83,128,110,20,133.33,431,-56.00,52.00,-985.00
2024-06-07 10:35:07.887888,-5,-1,25,1,0,0,80,83,128,110,20,133.26,431,-112.00,39.00,-972.00
2024-06-07 10:35:07.988068,-5,-1,18,1,0,0,80,83,127,110,20,133.18,431,-108.00,53.00,-981.00
2024-06-07 10:35:08.136120,-6,0,12,0,0,0,80,83,126,110,20,133.10,431,-73.00,1.00,-1091.00
2024-06-07 10:35:08.192526,-5,0,6,0,0,0,80,83,127,110,20,132.94,431,-115.00,33.00,-1027.00
2024-06-07 10:35:08.293742,-5,0,2,0,0,0,81,83,128,110,20,132.95,431,-138.00,62.00,-979.00
2024-06-07 10:35:08.448640,-7,0,-1,0,0,0,81,83,126,110,20,132.96,431,-180.00,34.00,-1056.00
2024-06-07 10:35:08.498775,-7,0,-4,0,0,0,81,83,129,110,20,133.17,431,-203.00,38.00,-1094.00
2024-06-07 10:35:08.648171,-6,0,-6,0,0,0,81,83,128,110,20,133.21,432,-123.00,14.00,-1057.00
2024-06-07 10:35:08.703559,-5,0,-8,1,0,0,81,83,129,110,20,133.20,432,-128.00,11.00,-1026.00
2024-06-07 10:35:08.804843,-3,0,-9,2,0,0,81,83,126,110,20,133.19,432,-44.00,-5.00,-925.00
2024-06-07 10:35:08.909438,-1,1,-9,1,0,0,81,83,127,110,20,133.14,432,-63.00,-5.00,-1035.00
2024-06-07 10:35:09.007661,-1,1,-9,1,0,0,81,83,128,110,20,133.17,432,-52.00,-54.00,-1001.00
2024-06-07 10:35:09.119557,-2,1,-9,0,0,0,81,83,129,110,20,133.23,432,-64.00,-33.00,-1109.00
2024-06-07 10:35:09.211603,-3,0,-9,0,0,0,81,83,129,110,20,133.16,432,-143.00,39.00,-914.00
2024-06-07 10:35:09.313561,-3,0,-8,0,0,0,80,83,131,110,20,133.22,432,-133.00,-20.00,-1032.00
2024-06-07 10:35:09.467538,-4,0,-8,0,0,0,80,83,132,110,20,133.23,432,-135.00,-2.00,-942.00
2024-06-07 10:35:09.517625,-4,1,-8,0,0,0,80,83,133,110,19,133.30,432,-161.00,0.00,-950.00
2024-06-07 10:35:09.672360,-4,0,-9,0,0,0,80,83,131,120,19,133.17,433,-62.00,-72.00,-953.00
2024-06-07 10:35:09.721757,-4,0,-8,0,0,0,80,83,134,120,19,133.48,433,-98.00,-18.00,-853.00
2024-06-07 10:35:09.877557,-3,1,-9,0,0,0,80,83,132,120,19,133.33,433,-147.00,35.00,-1077.00
2024-06-07 10:35:09.925572,-3,1,-9,0,0,0,80,83,131,110,19,133.42,433,-142.00,-25.00,-1044.00
2024-06-07 10:35:10.087894,-4,1,-9,0,0,0,80,83,131,110,19,133.27,433,-90.00,-60.00,-964.00
2024-06-07 10:35:10.129874,-4,1,-9,0,0,0,80,83,133,110,19,133.41,433,-108.00,-10.00,-941.00
2024-06-07 10:35:10.294930,-5,1,-9,0,0,0,80,83,132,110,19,133.38,433,-80.00,-64.00,-987.00
2024-06-07 10:35:10.333579,-5,1,-9,0,0,0,81,83,131,110,19,133.41,433,-31.00,-91.00,-1038.00
2024-06-07 10:35:10.491611,-5,1,-9,0,0,0,81,83,131,110,19,133.42,433,-54.00,-78.00,-1027.00
2024-06-07 10:35:10.537677,-5,2,-8,0,0,0,81,83,133,110,19,133.37,433,-16.00,-29.00,-1005.00
2024-06-07 10:35:10.696127,-5,3,-8,0,0,0,81,83,132,120,19,133.29,434,-57.00,-30.00,-918.00
2024-06-07 10:35:10.741510,-4,2,-8,0,0,0,81,83,132,110,19,133.23,434,-79.00,-30.00,-898.00
2024-06-07 10:35:10.901008,-3,2,-9,0,0,1,81,83,130,110,19,133.29,434,-159.00,3.00,-1135.00
2024-06-07 10:35:10.945607,-4,1,-9,0,0,0,81,83,130,110,19,133.20,434,-139.00,-20.00,-1021.00
2024-06-07 10:35:11.047578,-4,0,-9,0,0,0,81,83,129,110,19,133.30,434,-50.00,-33.00,-1036.00
2024-06-07 10:35:11.149982,-3,1,-8,0,0,0,81,83,129,110,19,133.20,434,-114.00,-6.00,-942.00
2024-06-07 10:35:11.257013,-3,2,-8,0,0,0,81,83,128,110,19,133.34,434,-28.00,-63.00,-967.00
2024-06-07 10:35:11.353592,-3,1,-8,0,0,0,81,82,128,110,19,133.30,434,-75.00,-33.00,-1027.00
2024-06-07 10:35:11.515364,-3,1,-8,0,0,0,81,82,128,110,19,133.29,434,-92.00,-19.00,-1077.00
2024-06-07 10:35:11.558724,-4,1,-9,0,0,0,81,82,130,110,19,133.32,434,-114.00,-44.00,-992.00
2024-06-07 10:35:11.659661,-5,1,-9,0,0,0,81,82,130,110,19,133.31,435,-126.00,-25.00,-1011.00
2024-06-07 10:35:11.710873,-5,1,-9,0,0,0,81,82,131,110,19,133.39,435,19.00,-102.00,-987.00
2024-06-07 10:35:11.812756,-5,2,-9,0,0,0,81,82,130,110,19,133.41,435,-13.00,-106.00,-881.00
2024-06-07 10:35:11.925404,-4,2,-9,0,0,0,81,82,129,110,19,133.29,435,-99.00,-41.00,-1068.00
2024-06-07 10:35:12.016736,-4,2,-9,0,0,0,81,82,128,110,19,133.33,435,-76.00,-64.00,-973.00
2024-06-07 10:35:12.129837,-3,3,-9,0,0,0,81,82,128,110,19,133.28,435,-54.00,-51.00,-903.00
2024-06-07 10:35:12.220690,-3,2,-9,0,0,0,81,82,127,110,19,133.32,435,-28.00,-63.00,-962.00
2024-06-07 10:35:12.322664,-4,2,-9,0,0,0,80,82,125,110,19,133.38,435,-79.00,-45.00,-1021.00
2024-06-07 10:35:12.424703,-4,1,-9,0,0,0,80,82,124,110,19,133.45,435,-125.00,-51.00,-992.00
2024-06-07 10:35:12.539564,-4,2,-9,0,0,0,80,82,124,110,19,133.28,435,-219.00,20.00,-1087.00
2024-06-07 10:35:12.628455,-5,2,-9,0,0,0,80,82,124,110,19,133.30,436,-12.00,-78.00,-1131.00
2024-06-07 10:35:12.731664,-5,2,-9,0,0,0,80,82,123,110,19,133.23,436,-103.00,-31.00,-964.00
2024-06-07 10:35:12.832820,-5,2,-9,0,0,0,80,82,121,110,19,133.30,436,-119.00,-32.00,-986.00
2024-06-07 10:35:12.949451,-5,1,-9,0,0,0,80,82,120,110,19,133.28,436,-114.00,-49.00,-878.00
2024-06-07 10:35:13.036485,-5,1,-8,0,0,0,80,82,120,110,19,133.33,436,-83.00,-67.00,-936.00
2024-06-07 10:35:13.153794,-5,1,-8,0,0,0,80,82,119,110,19,133.27,436,-145.00,-9.00,-1062.00
2024-06-07 10:35:13.240497,-5,1,-9,0,0,0,80,82,119,110,19,133.34,436,-94.00,-33.00,-966.00
2024-06-07 10:35:13.342431,-5,0,-9,0,0,0,80,82,117,110,19,133.18,436,-76.00,-57.00,-1049.00
2024-06-07 10:35:13.461016,-5,1,-9,0,0,0,80,82,116,110,19,133.21,436,-132.00,-30.00,-1070.00
2024-06-07 10:35:13.546509,-5,1,-9,0,0,0,80,82,118,100,19,133.25,436,-117.00,-32.00,-1060.00
2024-06-07 10:35:13.666763,-6,1,-9,0,0,0,80,82,116,100,19,133.34,437,-90.00,-44.00,-981.00
2024-06-07 10:35:13.776092,-6,1,-9,0,0,0,80,82,116,100,19,133.28,437,-75.00,-71.00,-1060.00
2024-06-07 10:35:13.853453,-6,1,-9,0,0,0,80,82,116,100,19,133.27,437,-74.00,-43.00,-1110.00
2024-06-07 10:35:13.955431,-6,2,-9,0,0,0,80,82,116,100,19,133.24,437,-74.00,-34.00,-966.00
2024-06-07 10:35:14.075332,-5,2,-9,0,0,0,80,82,116,100,19,133.33,437,-157.00,-43.00,-1015.00
2024-06-07 10:35:14.159783,-6,2,-9,0,0,0,80,82,116,100,19,133.21,437,-96.00,-57.00,-1054.00
2024-06-07 10:35:14.280722,-6,3,-9,0,0,0,80,82,118,100,19,133.22,437,-121.00,-46.00,-981.00
2024-06-07 10:35:14.363486,-6,3,-9,0,0,0,80,83,117,100,19,133.27,437,-77.00,-71.00,-918.00
2024-06-07 10:35:14.485102,-6,2,-9,0,0,0,80,83,118,100,19,133.25,437,-140.00,-26.00,-1026.00
2024-06-07 10:35:14.569180,-5,2,-9,0,0,0,80,83,119,100,19,133.27,437,-58.00,-80.00,-1007.00
2024-06-07 10:35:14.669484,-6,2,-9,0,0,0,80,83,121,110,19,133.33,438,-91.00,-40.00,-1104.00
2024-06-07 10:35:14.792786,-6,2,-9,0,0,0,80,83,122,110,19,133.23,438,-104.00,-68.00,-962.00
2024-06-07 10:35:14.873447,-6,3,-9,0,0,0,80,83,123,110,19,133.24,438,-68.00,-84.00,-948.00
2024-06-07 10:35:14.997510,-6,2,-9,0,0,0,80,83,124,110,19,133.28,438,-31.00,-62.00,-991.00
2024-06-07 10:35:15.077432,-6,3,-9,0,0,0,80,83,124,110,19,133.15,438,-171.00,5.00,-1048.00
2024-06-07 10:35:15.128349,-6,2,-9,0,0,0,80,83,126,110,19,133.28,438,-117.00,-2.00,-1025.00
2024-06-07 10:35:15.304237,-6,2,-9,0,0,0,80,83,126,110,19,133.31,438,-63.00,-81.00,-858.00
2024-06-07 10:35:15.383252,-7,1,-9,0,0,0,80,83,126,110,19,133.37,438,-174.00,-6.00,-875.00
2024-06-07 10:35:15.509558,-6,2,-9,0,0,0,80,83,128,110,19,133.17,438,-36.00,-68.00,-985.00
2024-06-07 10:35:15.587310,-6,2,-9,0,0,0,80,83,130,110,18,133.27,439,-46.00,-54.00,-1091.00
2024-06-07 10:35:15.713828,-6,1,-9,0,0,0,80,83,129,110,18,132.97,439,-126.00,-54.00,-1002.00
2024-06-07 10:35:15.791494,-7,0,-9,0,0,0,80,83,130,110,18,133.11,439,-53.00,-34.00,-1010.00
2024-06-07 10:35:15.843822,-7,0,-9,0,1,0,80,83,131,110,18,133.40,439,-122.00,-18.00,-847.00
2024-06-07 10:35:15.946437,-5,-1,-8,0,0,0,80,83,130,110,18,133.26,439,-102.00,-22.00,-955.00
2024-06-07 10:35:16.046422,-5,0,-8,0,0,0,80,83,129,110,18,133.37,439,-54.00,19.00,-952.00
2024-06-07 10:35:16.238725,-5,0,-9,0,0,0,80,83,129,110,18,133.35,439,-87.00,14.00,-1066.00
2024-06-07 10:35:16.253258,-5,0,-8,0,0,0,80,83,128,110,18,133.32,439,-196.00,14.00,-1023.00
2024-06-07 10:35:16.352129,-5,1,-9,0,0,0,81,83,130,110,18,133.33,439,-106.00,26.00,-1160.00
2024-06-07 10:35:16.533820,-4,0,-9,0,0,0,81,83,130,110,18,133.26,439,-90.00,-24.00,-1020.00
2024-06-07 10:35:16.556296,-3,1,-9,0,0,0,81,83,130,110,18,133.28,440,-101.00,6.00,-993.00
2024-06-07 10:35:16.738172,-3,0,-9,0,0,0,81,83,130,110,18,133.19,440,-132.00,34.00,-975.00
2024-06-07 10:35:16.765615,-3,0,-9,0,0,0,81,83,132,110,18,133.21,440,-102.00,23.00,-1005.00
2024-06-07 10:35:16.862306,-4,0,-9,0,0,0,81,83,132,110,18,133.19,440,-164.00,37.00,-996.00
2024-06-07 10:35:16.964284,-5,-1,-9,0,0,0,81,83,132,110,18,133.14,440,-35.00,-68.00,-905.00
2024-06-07 10:35:17.147566,-5,-1,-9,0,0,0,81,83,134,110,18,133.30,440,-11.00,-43.00,-1041.00
2024-06-07 10:35:17.168124,-5,0,-9,0,0,0,81,83,133,120,18,133.32,440,-26.00,-46.00,-979.00
2024-06-07 10:35:17.270279,-4,0,-9,0,0,0,81,83,133,120,18,133.33,440,-122.00,19.00,-866.00
2024-06-07 10:35:17.454805,-3,0,-9,0,0,0,80,83,132,120,18,133.29,440,-24.00,-50.00,-952.00
2024-06-07 10:35:17.474212,-3,0,-9,0,0,0,80,83,132,120,18,133.31,440,-75.00,-13.00,-927.00
2024-06-07 10:35:17.659387,-2,0,-9,0,0,0,80,83,133,120,18,133.36,441,-17.00,-54.00,-1014.00
2024-06-07 10:35:17.678754,-3,0,-9,0,0,0,80,83,131,110,18,133.25,441,17.00,-40.00,-884.00
2024-06-07 10:35:17.864277,-3,0,-9,0,0,0,80,83,130,110,18,133.31,441,-89.00,-1.00,-912.00
2024-06-07 10:35:17.882156,-3,-1,-8,0,0,0,80,83,129,110,18,133.31,441,-42.00,-2.00,-1102.00
2024-06-07 10:35:18.070073,-3,-1,-9,0,0,0,80,83,128,110,18,133.33,441,-54.00,-2.00,-1010.00
2024-06-07 10:35:18.086247,-3,0,-9,0,0,0,80,83,128,110,18,133.30,441,33.00,-13.00,-954.00
2024-06-07 10:35:18.376621,-2,0,-9,0,0,0,80,83,127,110,18,133.31,441,-19.00,-1.00,-1160.00
2024-06-07 10:35:18.376791,-3,0,-9,0,0,0,80,83,127,110,18,133.36,441,-57.00,0.00,-1033.00
2024-06-07 10:35:18.392188,-2,0,-9,0,0,0,80,83,127,110,18,133.33,441,-51.00,32.00,-851.00
2024-06-07 10:35:18.581407,-2,0,-9,0,0,0,80,83,127,110,18,133.38,441,-100.00,19.00,-938.00
2024-06-07 10:35:18.600598,-2,0,-9,0,0,0,80,83,127,110,18,133.40,442,-61.00,14.00,-977.00
2024-06-07 10:35:18.698722,-2,0,-8,0,0,0,80,83,127,110,18,133.36,442,-46.00,12.00,-859.00
2024-06-07 10:35:18.888294,-2,0,-9,0,0,0,80,83,126,110,18,133.40,442,-17.00,-11.00,-1051.00
2024-06-07 10:35:18.902038,-2,0,-9,0,0,0,80,83,127,110,18,133.35,442,-106.00,-3.00,-940.00
2024-06-07 10:35:19.093185,-2,0,-9,0,0,0,80,83,127,110,18,133.34,442,-6.00,-11.00,-954.00
2024-06-07 10:35:19.106092,-2,0,-9,0,0,0,80,83,127,110,18,133.44,442,-48.00,33.00,-1016.00
2024-06-07 10:35:19.297723,-2,0,-9,0,0,0,80,83,128,110,18,133.43,442,-115.00,32.00,-989.00
2024-06-07 10:35:19.310004,-2,0,-9,0,0,0,80,83,127,110,18,133.48,442,-52.00,-26.00,-947.00
2024-06-07 10:35:19.412184,-2,0,-9,0,0,0,80,83,127,110,18,133.53,442,16.00,-47.00,-943.00
2024-06-07 10:35:19.607614,-2,1,-9,0,0,0,80,83,127,110,18,133.50,442,-138.00,26.00,-962.00
2024-06-07 10:35:19.645967,-2,0,-9,0,0,0,80,83,128,110,18,133.50,443,-41.00,-14.00,-966.00
2024-06-07 10:35:19.718669,-2,0,-8,0,0,0,80,83,128,110,18,133.48,443,-90.00,5.00,-1032.00
2024-06-07 10:35:19.776881,-2,0,-8,0,0,0,80,83,128,110,18,133.49,443,-22.00,-13.00,-951.00
2024-06-07 10:35:19.871377,-2,0,-8,0,0,0,80,83,127,110,18,133.53,443,-77.00,10.00,-950.00
2024-06-07 10:35:19.973111,-2,0,-8,0,0,0,80,83,126,110,18,133.58,443,-72.00,-8.00,-977.00
2024-06-07 10:35:20.116948,-2,0,-9,0,0,0,80,83,126,110,18,133.56,443,-22.00,-40.00,-999.00
2024-06-07 10:35:20.177545,-1,0,-9,0,0,0,80,83,125,110,18,133.54,443,-45.00,-2.00,-1000.00
2024-06-07 10:35:20.322902,-1,0,-9,0,0,0,80,83,124,110,18,133.56,443,1.00,-50.00,-1073.00
2024-06-07 10:35:20.381241,-1,0,-9,0,0,0,81,82,124,110,18,133.53,443,-48.00,1.00,-895.00
2024-06-07 10:35:20.526631,-1,1,-9,0,0,0,81,82,125,110,17,133.58,443,4.00,-12.00,-1046.00
2024-06-07 10:35:20.584987,-1,1,-9,0,0,0,81,82,125,110,17,133.56,444,-55.00,-36.00,-1012.00
2024-06-07 10:35:20.692933,-1,1,-9,0,0,0,81,82,123,110,17,133.60,444,-69.00,0.00,-1023.00
2024-06-07 10:35:20.789040,-1,1,-9,0,0,0,81,82,123,110,17,133.55,444,-17.00,1.00,-922.00
