TS,pitch,roll,yaw,vgx,vgy,vgz,templ,temph,tof,h,bat,baro,time,agx,agy,agz
2024-05-17 17:17:13.988697,0,0,-45,0,0,0,75,77,10,0,73,192.04,170,-2.00,-2.00,-1001.00
2024-05-17 17:17:14.094893,0,0,-45,0,0,0,75,77,10,0,73,192.04,170,-2.00,-2.00,-1000.00
2024-05-17 17:17:14.192743,0,0,-45,0,0,0,75,77,10,0,73,192.02,170,-2.00,-3.00,-997.00
2024-05-17 17:17:14.304034,0,0,-45,0,0,0,75,77,10,0,73,192.06,170,-2.00,-3.00,-1000.00
2024-05-17 17:17:14.397186,0,0,-45,0,0,0,75,77,10,0,73,192.00,170,-3.00,-2.00,-1000.00
2024-05-17 17:17:14.507949,0,0,-45,0,0,0,75,77,10,0,73,192.04,170,-2.00,-3.00,-997.00
2024-05-17 17:17:14.600550,0,0,-45,0,0,0,75,77,10,0,73,192.04,170,-2.00,-4.00,-998.00
2024-05-17 17:17:14.709077,0,0,-45,0,0,0,75,77,10,0,73,192.06,170,-4.00,-2.00,-1002.00
2024-05-17 17:17:14.755606,0,0,-45,0,0,0,75,77,10,0,73,192.00,170,-1.00,-2.00,-1002.00
2024-05-17 17:17:14.914009,0,0,-45,0,0,0,76,78,10,0,73,191.99,170,-2.00,-3.00,-1000.00
2024-05-17 17:17:15.008630,0,0,-45,0,0,0,76,78,10,0,73,192.07,170,-2.00,-3.00,-999.00
2024-05-17 17:17:15.059621,0,0,-45,0,0,0,76,78,10,0,73,192.02,170,-4.00,-2.00,-1001.00
2024-05-17 17:17:15.221160,0,0,-45,0,0,0,76,78,10,0,73,192.03,170,-2.00,-3.00,-998.00
2024-05-17 17:17:15.263872,0,0,-45,0,0,0,76,78,10,0,73,192.03,170,-4.00,-3.00,-998.00
2024-05-17 17:17:15.426078,0,0,-45,0,0,0,76,78,10,0,73,192.01,170,-1.00,-2.00,-999.00
2024-05-17 17:17:15.467773,0,0,-45,0,0,0,76,78,10,0,73,192.05,170,-3.00,0.00,-1000.00
2024-05-17 17:17:15.630847,0,0,-45,0,0,0,76,78,10,0,73,192.00,170,-3.00,-1.00,-1000.00
2024-05-17 17:17:15.671622,0,0,-45,0,0,0,76,78,10,0,73,192.04,170,-3.00,-3.00,-997.00
2024-05-17 17:17:15.836062,0,0,-45,0,0,0,76,78,10,0,73,192.03,170,-2.00,-2.00,-998.00
2024-05-17 17:17:15.875634,0,0,-45,0,0,0,76,78,10,0,73,192.03,170,-2.00,-2.00,-1001.00
2024-05-17 17:17:16.040568,0,0,-45,0,0,0,76,78,10,0,73,192.07,170,-2.00,-1.00,-1000.00
2024-05-17 17:17:16.079677,0,0,-45,0,0,0,76,78,10,0,73,192.03,170,-1.00,-2.00,-1000.00
2024-05-17 17:17:16.245253,0,0,-45,0,0,0,76,78,10,0,73,192.02,170,-3.00,-2.00,-1000.00
2024-05-17 17:17:16.283657,0,0,-45,0,0,0,76,78,10,0,73,191.95,170,-1.00,-1.00,-998.00
2024-05-17 17:17:16.450200,0,0,-45,0,0,0,76,78,10,0,73,192.00,170,-2.00,-2.00,-996.00
2024-05-17 17:17:16.489480,0,0,-45,0,0,0,76,78,10,0,73,192.01,170,-4.00,-1.00,-1003.00
2024-05-17 17:17:16.589988,0,0,-45,0,0,0,76,78,10,0,73,192.03,170,-3.00,-4.00,-999.00
2024-05-17 17:17:16.757277,0,0,-45,0,0,0,76,78,10,0,73,191.97,170,-4.00,-1.00,-1001.00
2024-05-17 17:17:16.795305,0,0,-45,0,0,0,76,78,10,0,73,191.96,170,-3.00,-2.00,-999.00
2024-05-17 17:17:16.896679,0,0,-45,0,0,0,76,78,10,0,73,192.01,170,-3.00,-3.00,-1000.00
2024-05-17 17:17:16.997612,0,0,-45,0,0,0,76,78,10,0,73,192.01,170,-2.00,-4.00,-1000.00
2024-05-17 17:17:17.168670,0,0,-45,0,0,0,76,78,10,0,73,192.03,170,-3.00,-1.00,-999.00
2024-05-17 17:17:17.204988,0,0,-45,0,0,0,76,78,10,0,73,192.02,170,-2.00,-3.00,-999.00
2024-05-17 17:17:17.303613,0,0,-45,0,0,0,76,78,10,0,73,192.01,170,-1.00,-2.00,-1000.00
2024-05-17 17:17:17.425322,0,0,-45,0,0,0,76,78,10,0,73,192.01,170,-5.00,-2.00,-1000.00
2024-05-17 17:17:17.511353,0,0,-45,0,0,0,76,78,10,0,73,192.00,170,-2.00,-2.00,-1001.00
2024-05-17 17:17:17.609389,0,0,-45,0,0,0,76,78,10,0,73,192.00,170,2.00,-3.00,-1001.00
2024-05-17 17:17:17.781042,0,0,-45,0,0,0,76,78,10,0,73,192.00,170,1.00,-5.00,-1003.00
2024-05-17 17:17:17.813395,0,0,-44,0,0,0,76,78,10,0,73,192.00,170,10.00,19.00,-996.00
2024-05-17 17:17:17.985817,0,0,-43,0,0,0,76,78,10,0,73,192.00,170,-12.00,-1.00,-997.00
2024-05-17 17:17:18.017559,0,0,-41,0,0,0,76,78,10,0,73,192.00,170,-38.00,16.00,-912.00
2024-05-17 17:17:18.119695,0,0,-42,0,0,0,76,78,10,0,73,192.00,171,-48.00,42.00,-1084.00
2024-05-17 17:17:18.295808,0,0,-42,0,0,-1,76,78,10,0,73,192.00,171,-68.00,37.00,-1297.00
2024-05-17 17:17:18.295923,-1,0,-42,0,0,-4,76,78,10,0,73,192.00,171,-13.00,-7.00,-1285.00
2024-05-17 17:17:18.374347,-1,0,-42,0,0,-6,76,78,15,0,73,192.09,171,4.00,1.00,-1145.00
2024-05-17 17:17:18.497850,-1,0,-42,0,0,-7,76,78,26,10,73,192.40,171,35.00,-10.00,-1035.00
2024-05-17 17:17:18.578403,-1,0,-42,0,0,-8,76,78,35,20,73,192.53,171,-28.00,24.00,-978.00
2024-05-17 17:17:18.702539,-1,0,-42,0,0,-8,76,78,43,30,73,192.50,171,14.00,-24.00,-929.00
2024-05-17 17:17:18.783748,-1,0,-42,0,0,-7,76,78,50,30,73,192.58,171,30.00,-2.00,-877.00
2024-05-17 17:17:18.909834,0,0,-42,0,0,-6,76,78,56,40,73,192.74,171,5.00,3.00,-946.00
2024-05-17 17:17:18.986565,0,0,-42,0,-1,-5,76,78,57,50,73,192.73,171,11.00,-39.00,-906.00
2024-05-17 17:17:19.112297,1,1,-42,0,0,-4,76,78,62,50,73,192.81,172,65.00,-58.00,-892.00
2024-05-17 17:17:19.190354,0,0,-42,0,0,-3,76,78,64,50,73,192.81,172,4.00,-10.00,-828.00
2024-05-17 17:17:19.317159,0,0,-42,0,0,-1,76,78,65,60,73,192.89,172,34.00,-34.00,-941.00
2024-05-17 17:17:19.394354,-1,0,-42,0,0,-1,76,78,67,60,73,192.88,172,-53.00,10.00,-919.00
2024-05-17 17:17:19.525789,0,0,-42,0,0,0,76,78,67,60,73,192.83,172,-19.00,-1.00,-935.00
2024-05-17 17:17:19.598314,-1,0,-42,0,0,0,76,78,68,60,73,192.88,172,-2.00,6.00,-980.00
2024-05-17 17:17:19.726818,0,0,-42,0,0,0,76,78,68,60,73,192.85,172,-46.00,20.00,-936.00
2024-05-17 17:17:19.802653,0,0,-42,0,0,0,76,78,68,60,73,192.95,172,-43.00,20.00,-980.00
2024-05-17 17:17:19.904276,0,0,-42,0,0,0,76,78,68,60,73,192.86,172,37.00,-7.00,-1020.00
2024-05-17 17:17:20.006318,0,0,-42,0,0,0,76,78,70,60,73,192.96,172,-3.00,10.00,-963.00
2024-05-17 17:17:20.137564,0,0,-42,0,0,0,76,78,71,60,73,192.92,173,9.00,-21.00,-1031.00
2024-05-17 17:17:20.210179,-1,0,-42,0,0,-1,76,78,73,60,73,192.99,173,-11.00,8.00,-975.00
2024-05-17 17:17:20.345024,-1,0,-42,0,0,-1,76,78,75,60,73,192.92,173,50.00,-32.00,-1007.00
2024-05-17 17:17:20.414167,-1,0,-42,0,0,-1,76,78,76,60,73,193.02,173,10.00,-15.00,-948.00
2024-05-17 17:17:20.545849,-1,0,-42,0,0,-1,76,78,77,60,73,193.00,173,-27.00,43.00,-935.00
2024-05-17 17:17:20.618902,0,0,-42,0,0,-1,76,78,80,60,73,192.98,173,5.00,0.00,-1038.00
2024-05-17 17:17:20.750647,0,0,-42,0,0,-1,76,78,81,60,73,192.99,173,-19.00,0.00,-922.00
2024-05-17 17:17:20.824018,0,0,-42,0,0,0,76,78,83,70,73,193.04,173,14.00,-12.00,-968.00
2024-05-17 17:17:20.924571,0,0,-42,0,0,0,76,78,83,70,73,193.05,173,-5.00,-23.00,-1012.00
2024-05-17 17:17:21.026267,0,0,-42,0,0,0,76,78,84,70,73,193.02,173,-64.00,19.00,-968.00
2024-05-17 17:17:21.128659,0,0,-42,0,0,0,76,78,85,70,73,193.08,174,33.00,-13.00,-895.00
2024-05-17 17:17:21.232519,0,0,-42,0,0,0,76,78,85,70,73,193.09,174,-19.00,-7.00,-1002.00
2024-05-17 17:17:21.332275,0,0,-42,0,0,0,76,78,85,70,73,193.11,174,63.00,-57.00,-1023.00
2024-05-17 17:17:21.470696,0,0,-42,0,0,0,76,78,85,70,73,193.08,174,122.00,-62.00,-1047.00
2024-05-17 17:17:21.536392,0,0,-42,0,0,0,76,78,84,70,73,193.08,174,-24.00,9.00,-1052.00
2024-05-17 17:17:21.672300,0,0,-42,0,0,0,76,78,83,70,73,193.02,174,-36.00,6.00,-990.00
2024-05-17 17:17:21.746066,0,0,-42,0,0,0,76,78,84,70,73,193.04,174,58.00,-50.00,-1037.00
2024-05-17 17:17:21.842138,0,0,-42,0,0,0,76,78,83,70,73,192.96,174,16.00,-25.00,-1009.00
2024-05-17 17:17:21.981663,0,0,-42,0,0,0,75,78,82,70,73,192.99,174,-25.00,45.00,-1030.00
2024-05-17 17:17:22.046575,-1,0,-42,0,0,0,75,78,82,70,73,193.05,174,16.00,-10.00,-1032.00
2024-05-17 17:17:22.184112,-1,0,-42,0,0,0,75,78,81,70,73,193.12,175,19.00,-7.00,-1048.00
2024-05-17 17:17:22.253178,-1,0,-42,0,0,0,75,78,81,70,73,193.10,175,64.00,-36.00,-1018.00
2024-05-17 17:17:22.301181,-1,0,-42,0,0,0,75,78,81,70,73,193.07,175,0.00,12.00,-1051.00
2024-05-17 17:17:22.495557,0,0,-42,0,0,0,75,78,81,70,73,193.08,175,-9.00,17.00,-1002.00
2024-05-17 17:17:22.505153,-1,0,-42,0,0,0,75,78,81,70,73,193.07,175,9.00,7.00,-976.00
2024-05-17 17:17:22.696235,-1,0,-42,0,0,0,75,78,81,70,73,193.11,175,-19.00,7.00,-998.00
2024-05-17 17:17:22.709141,-1,0,-42,0,0,0,75,78,81,70,73,193.06,175,15.00,-9.00,-984.00
2024-05-17 17:17:22.901020,0,0,-42,0,0,0,75,78,82,70,73,193.06,175,26.00,-19.00,-925.00
2024-05-17 17:17:22.913146,0,0,-42,0,0,0,76,78,83,70,73,193.11,175,-39.00,23.00,-926.00
2024-05-17 17:17:23.016181,0,0,-42,0,0,0,76,78,83,70,73,193.05,176,27.00,7.00,-1041.00
2024-05-17 17:17:23.212291,0,0,-42,0,0,0,76,78,84,70,73,193.05,176,19.00,21.00,-1098.00
2024-05-17 17:17:23.236004,0,0,-42,0,0,0,76,78,84,70,73,193.12,176,-17.00,27.00,-973.00
2024-05-17 17:17:23.321141,-1,0,-42,0,0,0,76,78,85,70,73,193.11,176,-45.00,30.00,-868.00
2024-05-17 17:17:23.425175,-1,0,-42,0,0,0,76,78,85,70,73,193.06,176,92.00,-34.00,-1090.00
2024-05-17 17:17:23.525480,0,0,-42,0,0,0,76,78,85,70,73,193.06,176,3.00,45.00,-1041.00
2024-05-17 17:17:23.720236,-1,0,-42,0,0,0,76,78,85,70,73,193.02,176,38.00,-15.00,-1062.00
2024-05-17 17:17:23.729041,-1,0,-42,0,0,0,76,78,85,70,73,193.05,176,114.00,-51.00,-1081.00
2024-05-17 17:17:23.831987,-1,0,-42,0,0,0,76,78,85,70,73,193.08,176,26.00,1.00,-1094.00
2024-05-17 17:17:24.027793,-1,0,-42,0,0,0,75,77,85,70,73,193.04,176,-11.00,13.00,-1024.00
2024-05-17 17:17:24.036219,-1,0,-42,0,0,0,75,77,85,70,73,193.12,177,-37.00,40.00,-995.00
2024-05-17 17:17:24.142488,-1,0,-42,0,0,0,75,77,86,70,73,193.08,177,94.00,-35.00,-1010.00
2024-05-17 17:17:24.240139,-1,0,-42,0,0,0,75,77,85,70,73,193.14,177,57.00,-10.00,-989.00
2024-05-17 17:17:24.437405,0,0,-42,0,0,0,75,77,85,70,73,193.10,177,22.00,0.00,-935.00
2024-05-17 17:17:24.447115,0,0,-42,0,0,0,75,77,85,70,73,193.15,177,90.00,-35.00,-940.00
2024-05-17 17:17:24.546304,0,0,-42,0,0,0,75,77,84,70,73,193.06,177,1.00,-9.00,-996.00
2024-05-17 17:17:24.744402,-1,0,-42,0,0,0,75,77,83,70,73,193.04,177,-38.00,23.00,-1058.00
2024-05-17 17:17:24.750371,-1,0,-42,0,0,0,75,77,82,70,73,193.12,177,51.00,-11.00,-1020.00
2024-05-17 17:17:24.949239,-2,0,-42,0,0,0,75,77,82,70,73,193.04,177,0.00,14.00,-1033.00
2024-05-17 17:17:24.954172,-2,0,-42,0,0,0,75,77,82,70,73,193.14,177,-4.00,11.00,-1017.00
2024-05-17 17:17:25.056199,-1,0,-42,0,0,0,75,77,82,70,73,193.07,178,-46.00,32.00,-1068.00
2024-05-17 17:17:25.256353,-1,0,-42,0,0,0,75,77,81,70,73,193.03,178,55.00,8.00,-1075.00
2024-05-17 17:17:25.260031,-1,0,-42,0,0,0,75,77,81,70,73,193.07,178,51.00,-11.00,-1090.00
2024-05-17 17:17:25.362103,-1,0,-42,0,0,0,75,77,82,70,73,193.04,178,-6.00,38.00,-1025.00
2024-05-17 17:17:25.464186,-1,0,-42,0,0,0,75,77,82,70,73,193.09,178,52.00,-19.00,-1015.00
2024-05-17 17:17:25.566391,-2,0,-42,0,0,0,75,77,83,70,73,193.00,178,-19.00,25.00,-1023.00
2024-05-17 17:17:25.668047,-2,-1,-42,0,0,0,75,77,84,70,73,193.03,178,-28.00,16.00,-948.00
2024-05-17 17:17:25.770209,-1,0,-42,0,0,0,75,77,84,70,73,193.07,178,0.00,45.00,-909.00
2024-05-17 17:17:25.823066,-1,0,-42,0,0,0,75,77,84,70,73,193.06,178,-14.00,33.00,-1018.00
2024-05-17 17:17:25.974017,-1,0,-42,0,0,0,75,77,85,70,73,193.03,178,-83.00,32.00,-1053.00
2024-05-17 17:17:26.177787,-1,0,-42,0,0,0,75,77,85,70,73,193.08,179,-5.00,34.00,-978.00
2024-05-17 17:17:26.177975,-2,0,-42,0,0,-1,75,77,87,70,73,193.07,179,-18.00,33.00,-1178.00
2024-05-17 17:17:26.280572,-2,0,-42,0,0,-2,75,77,89,70,73,193.11,179,63.00,-38.00,-1057.00
2024-05-17 17:17:26.382575,-1,-1,-42,0,0,-3,75,77,94,80,73,193.13,179,13.00,21.00,-1186.00
2024-05-17 17:17:26.485770,-2,0,-42,0,0,-4,75,77,98,80,73,193.15,179,-51.00,32.00,-1055.00
2024-05-17 17:17:26.535030,-2,-1,-42,0,0,-4,75,77,104,80,73,193.23,179,-23.00,51.00,-1011.00
2024-05-17 17:17:26.689836,-2,0,-42,0,0,-5,75,77,109,90,73,193.19,179,49.00,-3.00,-1058.00
2024-05-17 17:17:26.738902,-2,0,-42,0,0,-5,75,77,115,100,73,193.30,179,-29.00,28.00,-1039.00
2024-05-17 17:17:26.894573,-2,0,-42,0,0,-5,75,77,121,100,73,193.30,179,-93.00,27.00,-969.00
2024-05-17 17:17:26.946789,-2,0,-42,0,0,-5,75,77,127,110,73,193.43,179,-33.00,26.00,-1025.00
2024-05-17 17:17:27.044878,-2,0,-42,0,0,-5,75,77,134,110,73,193.48,180,-15.00,9.00,-979.00
2024-05-17 17:17:27.201778,-1,0,-42,0,0,-5,75,77,140,120,73,193.49,180,-79.00,36.00,-1018.00
2024-05-17 17:17:27.248967,-1,0,-42,0,0,-5,75,77,146,120,73,193.58,180,-18.00,40.00,-972.00
2024-05-17 17:17:27.406548,-1,0,-42,0,0,-5,75,77,152,130,73,193.62,180,52.00,-31.00,-996.00
2024-05-17 17:17:27.452866,-1,0,-42,0,0,-4,75,77,157,130,73,193.70,180,46.00,-45.00,-883.00
2024-05-17 17:17:27.611333,-1,0,-42,0,0,-4,75,77,162,140,73,193.65,180,-7.00,1.00,-1015.00
2024-05-17 17:17:27.661530,-1,0,-42,0,0,-4,75,77,167,140,73,193.81,180,-39.00,44.00,-977.00
2024-05-17 17:17:27.758892,-1,0,-42,0,0,-3,75,77,170,150,73,193.89,180,-13.00,-3.00,-935.00
2024-05-17 17:17:27.918567,-1,0,-42,0,0,-3,75,77,174,150,73,193.90,180,25.00,-8.00,-945.00
2024-05-17 17:17:27.963160,-1,0,-42,0,0,-3,75,77,177,160,73,193.96,180,22.00,-36.00,-908.00
2024-05-17 17:17:28.065318,-1,0,-42,0,0,-2,75,77,180,160,73,193.98,181,2.00,6.00,-1008.00
2024-05-17 17:17:28.225823,-1,0,-42,0,0,-2,75,77,182,160,73,193.95,181,-42.00,59.00,-860.00
2024-05-17 17:17:28.271435,-1,0,-42,0,0,-1,75,77,184,160,73,193.90,181,-28.00,36.00,-920.00
2024-05-17 17:17:28.371121,-1,0,-42,0,0,-1,75,77,185,170,73,193.98,181,67.00,-5.00,-972.00
2024-05-17 17:17:28.473317,-1,-1,-42,0,0,0,75,77,187,170,73,193.94,181,51.00,-6.00,-956.00
2024-05-17 17:17:28.575480,-1,0,-42,0,0,0,75,77,187,170,73,193.98,181,31.00,1.00,-902.00
2024-05-17 17:17:28.677938,-1,0,-42,0,0,0,75,77,187,170,73,193.99,181,-33.00,48.00,-1011.00
2024-05-17 17:17:28.840477,-1,0,-42,0,0,0,75,77,187,170,73,193.96,181,-99.00,43.00,-1005.00
2024-05-17 17:17:28.880928,-1,0,-42,0,0,0,75,77,187,170,73,193.92,181,-39.00,37.00,-951.00
2024-05-17 17:17:29.045243,-1,0,-42,0,0,0,75,76,187,170,73,194.01,181,26.00,35.00,-912.00
2024-05-17 17:17:29.086010,-2,0,-42,0,0,0,75,76,187,170,73,193.99,182,-48.00,51.00,-1056.00
2024-05-17 17:17:29.249836,-2,0,-42,0,0,0,75,76,186,170,73,193.96,182,-47.00,36.00,-1005.00
2024-05-17 17:17:29.290011,-1,0,-42,1,0,0,75,76,187,170,73,193.93,182,23.00,0.00,-1015.00
2024-05-17 17:17:29.454828,-1,0,-42,1,0,0,75,76,187,170,73,194.03,182,-38.00,49.00,-976.00
2024-05-17 17:17:29.494377,-1,0,-42,0,0,0,75,76,186,170,73,193.95,182,-36.00,39.00,-901.00
2024-05-17 17:17:29.661208,0,0,-42,0,0,0,75,76,187,170,73,193.94,182,-18.00,14.00,-927.00
2024-05-17 17:17:29.698027,-1,0,-42,0,0,0,75,76,186,170,73,193.93,182,64.00,-21.00,-1168.00
2024-05-17 17:17:29.866654,-1,0,-42,0,0,0,75,76,186,170,73,193.94,182,36.00,-13.00,-973.00
2024-05-17 17:17:29.904121,-1,0,-42,0,0,0,75,76,186,170,73,193.97,182,52.00,-12.00,-999.00
2024-05-17 17:17:30.003933,0,0,-42,1,0,0,74,76,185,170,73,193.99,182,-30.00,32.00,-1000.00
2024-05-17 17:17:30.107474,-1,0,-42,0,0,0,74,76,185,170,73,193.99,183,-16.00,-1.00,-999.00
2024-05-17 17:17:30.208815,-2,0,-42,0,0,0,74,76,185,170,73,193.96,183,-30.00,57.00,-1026.00
2024-05-17 17:17:30.309715,-1,0,-42,0,0,0,74,76,184,170,73,193.95,183,-1.00,-3.00,-972.00
2024-05-17 17:17:30.481785,-1,0,-42,0,0,0,74,76,184,170,73,193.89,183,52.00,8.00,-1079.00
2024-05-17 17:17:30.481964,-1,0,-42,0,0,0,74,76,183,170,73,193.93,183,-38.00,50.00,-1027.00
2024-05-17 17:17:30.568669,-1,0,-42,0,0,1,74,76,182,170,73,193.90,183,8.00,37.00,-972.00
2024-05-17 17:17:30.666729,-2,0,-42,0,0,1,74,76,181,170,73,193.92,183,-35.00,27.00,-1012.00
2024-05-17 17:17:30.769068,-2,-1,-42,0,0,2,74,76,179,160,73,193.87,183,-65.00,27.00,-905.00
2024-05-17 17:17:30.871800,-2,0,-42,0,0,2,74,76,177,160,73,193.88,183,49.00,-19.00,-938.00
2024-05-17 17:17:30.972958,-1,0,-42,0,-1,2,75,77,174,160,73,193.90,183,18.00,7.00,-1019.00
2024-05-17 17:17:31.077203,0,1,-42,0,-1,2,75,77,174,160,73,193.85,184,-13.00,24.00,-1000.00
2024-05-17 17:17:31.177032,0,0,-42,0,0,2,75,77,170,150,73,193.86,184,33.00,-24.00,-1000.00
2024-05-17 17:17:31.297706,0,0,-42,0,0,3,75,77,167,150,73,193.88,184,93.00,-41.00,-1044.00
2024-05-17 17:17:31.380686,0,1,-42,0,-1,2,75,77,166,150,73,193.85,184,77.00,-45.00,-1001.00
2024-05-17 17:17:31.502556,0,1,-42,0,-1,2,75,77,164,150,73,193.87,184,25.00,-15.00,-999.00
2024-05-17 17:17:31.584679,0,1,-42,0,0,2,75,77,162,140,73,193.76,184,-34.00,44.00,-1057.00
2024-05-17 17:17:31.707912,0,1,-42,0,0,2,75,77,159,140,73,193.72,184,-6.00,12.00,-1005.00
2024-05-17 17:17:31.789148,-1,0,-42,0,0,1,75,77,155,140,73,193.75,184,24.00,-15.00,-1014.00
2024-05-17 17:17:31.891326,-1,0,-42,0,0,2,75,77,153,140,73,193.69,184,5.00,-19.00,-1028.00
2024-05-17 17:17:32.014655,-1,0,-42,0,0,1,74,77,151,140,73,193.76,184,6.00,-23.00,-1056.00
2024-05-17 17:17:32.096552,-1,0,-42,0,0,1,74,77,150,130,73,193.67,185,39.00,0.00,-992.00
2024-05-17 17:17:32.197216,-1,0,-42,0,0,1,74,77,148,130,73,193.65,185,20.00,-29.00,-935.00
2024-05-17 17:17:32.298836,-1,0,-42,0,0,1,74,77,147,130,73,193.63,185,43.00,0.00,-1054.00
2024-05-17 17:17:32.424321,-1,0,-42,0,0,1,74,77,146,130,73,193.64,185,-30.00,30.00,-991.00
2024-05-17 17:17:32.502602,-1,0,-42,0,0,0,74,77,144,130,73,193.57,185,-21.00,23.00,-1030.00
2024-05-17 17:17:32.628896,0,0,-42,0,0,0,74,77,144,130,73,193.59,185,30.00,-15.00,-1049.00
2024-05-17 17:17:32.706579,0,0,-42,0,0,0,74,77,143,130,73,193.50,185,-17.00,9.00,-983.00
2024-05-17 17:17:32.833689,-1,0,-42,0,0,0,74,77,140,130,73,193.61,185,80.00,-35.00,-1018.00
2024-05-17 17:17:32.911375,0,0,-42,0,0,1,74,77,140,130,73,193.51,185,106.00,-63.00,-1083.00
2024-05-17 17:17:33.038576,0,0,-42,0,0,0,74,76,139,120,73,193.54,185,-50.00,19.00,-1001.00
2024-05-17 17:17:33.114798,0,0,-42,0,0,0,74,76,138,120,73,193.59,186,-25.00,5.00,-1035.00
2024-05-17 17:17:33.243707,0,1,-42,0,0,0,74,76,137,120,73,193.46,186,-68.00,49.00,-978.00
2024-05-17 17:17:33.319066,-1,0,-42,0,0,0,74,76,135,120,73,193.52,186,55.00,-52.00,-966.00
2024-05-17 17:17:33.448235,-1,0,-42,0,0,0,74,76,133,120,73,193.50,186,0.00,24.00,-1022.00
2024-05-17 17:17:33.522706,-1,0,-42,0,0,0,74,76,132,120,73,193.47,186,6.00,-4.00,-1004.00
2024-05-17 17:17:33.652882,-2,0,-42,0,0,0,74,76,131,120,73,193.50,186,9.00,10.00,-1073.00
2024-05-17 17:17:33.676196,-1,0,-42,0,0,0,74,76,131,120,73,193.50,186,48.00,-6.00,-1046.00
2024-05-17 17:17:33.858117,-1,0,-42,0,0,0,74,76,130,120,73,193.39,186,9.00,-1.00,-980.00
2024-05-17 17:17:33.879607,-1,0,-42,0,0,0,74,76,130,120,73,193.45,186,7.00,-2.00,-1039.00
2024-05-17 17:17:34.064635,-1,0,-42,0,0,0,74,76,130,120,73,193.46,186,4.00,4.00,-1002.00
2024-05-17 17:17:34.083678,-1,0,-42,0,0,0,74,76,130,120,73,193.43,187,-59.00,46.00,-1037.00
2024-05-17 17:17:34.267550,-2,0,-42,0,0,0,74,76,131,120,73,193.48,187,-15.00,-4.00,-1044.00
2024-05-17 17:17:34.287648,-2,0,-42,0,0,0,74,76,131,120,73,193.42,187,-43.00,11.00,-939.00
2024-05-17 17:17:34.472227,-1,0,-42,0,0,0,74,76,131,120,73,193.49,187,4.00,0.00,-968.00
2024-05-17 17:17:34.491600,-1,0,-42,0,0,0,74,76,131,120,73,193.49,187,-70.00,21.00,-893.00
2024-05-17 17:17:34.677194,-1,0,-42,0,0,0,74,76,131,120,73,193.51,187,-3.00,4.00,-1035.00
2024-05-17 17:17:34.695633,-1,0,-42,0,0,0,74,76,131,120,73,193.48,187,23.00,-18.00,-1031.00
2024-05-17 17:17:34.797665,-1,0,-42,0,0,0,74,76,132,120,73,193.50,187,-24.00,-20.00,-1163.00
2024-05-17 17:17:34.986553,-1,0,-42,0,0,0,74,76,132,120,73,193.46,187,-4.00,29.00,-1070.00
2024-05-17 17:17:35.001602,-1,0,-42,0,0,0,74,76,133,120,73,193.50,187,-6.00,8.00,-1025.00
2024-05-17 17:17:35.103502,-1,0,-42,0,0,0,74,76,132,120,73,193.46,188,-17.00,28.00,-929.00
2024-05-17 17:17:35.295434,-1,0,-42,0,0,0,74,76,133,120,73,193.48,188,13.00,20.00,-964.00
2024-05-17 17:17:35.308542,-2,0,-42,0,0,0,74,76,133,120,73,193.50,188,60.00,-44.00,-1064.00
2024-05-17 17:17:35.500258,-7,0,-42,0,0,0,74,76,135,120,73,193.48,188,3.00,25.00,-929.00
2024-05-17 17:17:35.511462,-8,0,-42,1,-2,0,74,76,135,120,73,193.50,188,38.00,-64.00,-1034.00
2024-05-17 17:17:35.705347,-8,0,-42,3,-3,0,74,76,136,120,73,193.45,188,-49.00,30.00,-949.00
2024-05-17 17:17:35.715496,-8,0,-42,3,-3,0,74,76,135,120,73,193.43,188,-50.00,22.00,-1024.00
2024-05-17 17:17:35.817426,-7,0,-42,4,-4,0,74,76,130,120,73,193.53,188,-11.00,44.00,-821.00
2024-05-17 17:17:36.012216,-6,0,-42,5,-4,0,74,76,134,120,73,193.44,188,-95.00,9.00,-914.00
2024-05-17 17:17:36.022172,-6,0,-42,5,-4,0,74,76,134,120,73,193.34,188,-3.00,-39.00,-991.00
2024-05-17 17:17:36.215438,-5,0,-42,5,-4,0,74,76,134,120,73,193.40,189,-58.00,-27.00,-1033.00
2024-05-17 17:17:36.225597,-1,0,-42,5,-4,0,74,76,134,120,73,193.32,189,-8.00,-5.00,-1028.00
2024-05-17 17:17:36.421760,0,0,-42,4,-4,0,74,76,136,120,73,193.38,189,-18.00,-10.00,-919.00
2024-05-17 17:17:36.430049,2,0,-42,4,-3,0,74,76,136,120,73,193.43,189,-38.00,33.00,-987.00
2024-05-17 17:17:36.625456,3,0,-42,3,-3,0,74,76,136,120,73,193.46,189,-65.00,74.00,-957.00
2024-05-17 17:17:36.633586,1,0,-42,2,-2,0,74,76,137,120,73,193.47,189,9.00,5.00,-950.00
2024-05-17 17:17:36.736850,0,0,-42,2,-2,0,74,76,135,120,73,193.52,189,-63.00,41.00,-1013.00
2024-05-17 17:17:36.837401,0,0,-42,2,-1,0,74,76,135,120,73,193.46,189,-17.00,2.00,-932.00
2024-05-17 17:17:37.037791,-1,0,-42,2,-1,0,74,76,135,120,73,193.52,189,67.00,-28.00,-1044.00
2024-05-17 17:17:37.043223,-1,0,-42,2,-1,0,74,76,135,120,73,193.52,189,-9.00,-9.00,-987.00
2024-05-17 17:17:37.143977,0,0,-42,2,-1,0,74,76,135,120,73,193.52,190,38.00,-24.00,-997.00
2024-05-17 17:17:37.340307,0,0,-42,2,-1,0,74,76,135,120,73,193.44,190,-15.00,32.00,-952.00
2024-05-17 17:17:37.352461,-1,0,-42,2,-1,0,74,76,135,120,73,193.48,190,-56.00,42.00,-971.00
2024-05-17 17:17:37.449368,-1,0,-42,1,-1,0,74,76,136,120,73,193.42,190,-60.00,24.00,-948.00
2024-05-17 17:17:37.751450,-1,0,-42,1,-1,0,74,76,136,120,73,193.50,190,13.00,11.00,-969.00
2024-05-17 17:17:37.751511,-1,0,-42,1,-1,0,74,76,136,120,73,193.44,190,-51.00,47.00,-1016.00
2024-05-17 17:17:37.751755,-2,-1,-42,1,-1,0,74,76,136,120,73,193.43,190,1.00,-13.00,-899.00
2024-05-17 17:17:37.806977,-2,0,-42,1,-1,0,74,76,135,120,73,193.45,190,52.00,6.00,-1073.00
2024-05-17 17:17:37.909552,-1,0,-42,1,-1,0,74,76,136,120,73,193.43,190,-16.00,26.00,-1016.00
2024-05-17 17:17:38.013347,0,3,-42,2,-1,0,74,76,137,120,73,193.48,191,11.00,-14.00,-989.00
2024-05-17 17:17:38.115274,2,0,-42,2,0,0,74,76,137,120,73,193.54,191,30.00,19.00,-999.00
2024-05-17 17:17:38.215064,3,-3,-42,1,0,0,74,76,137,120,73,193.53,191,26.00,-60.00,-1052.00
2024-05-17 17:17:38.365066,0,-1,-42,0,0,0,74,76,137,120,73,193.51,191,-71.00,59.00,-898.00
2024-05-17 17:17:38.421394,0,0,-42,0,0,0,74,76,136,120,73,193.46,191,3.00,3.00,-983.00
2024-05-17 17:17:38.521497,-1,0,-42,0,0,0,74,76,135,120,73,193.44,191,-99.00,78.00,-829.00
2024-05-17 17:17:38.623734,-1,0,-42,0,0,0,74,76,136,120,73,193.50,191,30.00,-15.00,-952.00
2024-05-17 17:17:38.772984,0,0,-42,0,0,0,74,76,136,120,73,193.58,191,65.00,-15.00,-1077.00
2024-05-17 17:17:38.827604,0,0,-42,0,0,0,74,76,137,120,73,193.50,191,75.00,-27.00,-1167.00
2024-05-17 17:17:38.978208,0,0,-42,0,0,0,74,76,139,120,73,193.41,191,-4.00,-3.00,-994.00
2024-05-17 17:17:39.031844,0,0,-42,0,0,0,75,76,139,120,73,193.48,192,-33.00,44.00,-913.00
2024-05-17 17:17:39.182741,0,0,-42,0,0,0,75,76,139,120,73,193.48,192,74.00,-22.00,-998.00
2024-05-17 17:17:39.235482,-1,0,-42,0,0,0,75,76,139,120,73,193.54,192,146.00,-51.00,-1059.00
2024-05-17 17:17:39.388091,-1,0,-42,0,0,0,75,76,139,120,73,193.49,192,-16.00,11.00,-927.00
2024-05-17 17:17:39.439581,-1,0,-42,0,0,0,75,76,140,120,73,193.59,192,90.00,-37.00,-943.00
2024-05-17 17:17:39.593442,-1,0,-42,0,0,0,75,76,140,120,73,193.52,192,14.00,12.00,-965.00
2024-05-17 17:17:39.643362,-1,0,-42,0,0,0,75,76,140,120,73,193.48,192,52.00,-6.00,-1012.00
2024-05-17 17:17:39.796958,-1,0,-42,0,0,0,75,76,139,120,73,193.57,192,-37.00,28.00,-927.00
2024-05-17 17:17:39.848185,-1,0,-42,0,0,0,75,76,139,120,73,193.55,192,75.00,-16.00,-954.00
2024-05-17 17:17:39.950048,-1,0,-42,0,0,0,75,76,138,120,73,193.51,192,-34.00,26.00,-973.00
2024-05-17 17:17:40.106095,-1,0,-42,0,0,0,73,76,138,120,73,193.51,193,-48.00,35.00,-893.00
2024-05-17 17:17:40.153427,-1,0,-42,0,0,0,73,76,138,120,73,193.53,193,-23.00,23.00,-937.00
2024-05-17 17:17:40.309075,-1,0,-42,0,0,0,73,76,137,120,73,193.58,193,77.00,-4.00,-1037.00
2024-05-17 17:17:40.361120,-1,0,-42,0,0,0,73,76,137,120,73,193.51,193,39.00,-10.00,-1120.00
2024-05-17 17:17:40.463392,-1,0,-42,0,0,0,73,76,137,120,73,193.59,193,67.00,-35.00,-927.00
2024-05-17 17:17:40.564170,3,0,-42,0,0,0,73,76,137,120,73,193.53,193,15.00,23.00,-920.00
2024-05-17 17:17:40.663317,9,0,-42,0,0,0,73,76,140,120,73,193.55,193,-68.00,36.00,-1061.00
2024-05-17 17:17:40.821194,8,0,-42,-1,1,0,73,76,140,120,73,193.49,193,17.00,19.00,-1061.00
2024-05-17 17:17:40.867585,7,0,-42,-3,3,0,73,76,139,120,73,193.52,193,-33.00,26.00,-930.00
2024-05-17 17:17:41.025642,6,0,-42,-4,3,0,73,76,137,120,73,193.54,193,90.00,-26.00,-1078.00
2024-05-17 17:17:41.071263,6,0,-42,-4,3,0,73,76,136,120,73,193.62,194,73.00,-11.00,-948.00
2024-05-17 17:17:41.230408,6,1,-42,-5,3,0,73,76,135,120,73,193.53,194,69.00,-23.00,-1018.00
2024-05-17 17:17:41.275264,5,2,-42,-5,4,0,73,76,133,120,73,193.48,194,14.00,49.00,-1003.00
2024-05-17 17:17:41.435254,2,1,-42,-5,5,0,73,76,135,120,73,193.38,194,71.00,9.00,-1088.00
2024-05-17 17:17:41.479215,0,0,-42,-5,5,0,73,76,133,120,73,193.51,194,115.00,-29.00,-1002.00
2024-05-17 17:17:41.642245,-2,0,-42,-4,4,0,73,76,132,120,73,193.46,194,82.00,-17.00,-977.00
2024-05-17 17:17:41.685715,-4,0,-42,-3,3,0,73,76,132,120,73,193.41,194,70.00,-53.00,-953.00
2024-05-17 17:17:41.734175,-3,0,-42,-3,2,0,73,76,131,120,73,193.45,194,140.00,-69.00,-1085.00
2024-05-17 17:17:41.839812,-1,0,-42,-2,2,0,73,76,132,120,73,193.40,194,9.00,52.00,-1034.00
2024-05-17 17:17:41.938007,0,0,-42,-2,2,0,73,76,131,120,73,193.43,194,32.00,-5.00,-1005.00
2024-05-17 17:17:42.050023,0,0,-42,-2,2,0,74,76,130,120,73,193.45,195,25.00,0.00,-929.00
2024-05-17 17:17:42.145866,0,0,-42,-2,2,0,74,76,129,120,73,193.40,195,9.00,13.00,-1039.00
2024-05-17 17:17:42.244138,0,0,-42,-1,2,0,74,76,127,120,73,193.38,195,74.00,-4.00,-1059.00
2024-05-17 17:17:42.459299,0,0,-42,-1,2,0,74,76,126,120,73,193.41,195,-5.00,44.00,-888.00
2024-05-17 17:17:42.459375,0,0,-42,-1,1,0,74,76,125,120,73,193.40,195,66.00,-53.00,-975.00
2024-05-17 17:17:42.550120,-4,0,-42,-1,1,0,74,76,125,120,73,193.48,195,54.00,2.00,-1015.00
2024-05-17 17:17:42.664062,-5,0,-42,0,1,0,74,76,125,110,73,193.42,195,31.00,-19.00,-1011.00
2024-05-17 17:17:42.754215,-2,0,-42,0,0,0,74,76,123,110,73,193.36,195,93.00,-4.00,-1040.00
2024-05-17 17:17:42.868958,-1,0,-42,0,0,0,74,76,123,110,73,193.42,195,67.00,-24.00,-989.00
2024-05-17 17:17:42.959700,0,0,-42,0,0,0,74,76,123,120,73,193.39,195,40.00,-10.00,-1028.00
2024-05-17 17:17:43.060423,-1,0,-42,0,0,0,74,75,124,120,73,193.33,196,93.00,-52.00,-1045.00
2024-05-17 17:17:43.162274,-1,0,-42,0,0,0,74,75,124,120,73,193.37,196,17.00,0.00,-1013.00
2024-05-17 17:17:43.279576,-1,0,-42,0,0,0,74,75,124,120,73,193.36,196,25.00,0.00,-1055.00
2024-05-17 17:17:43.368716,-1,0,-42,0,0,0,74,75,124,120,73,193.50,196,-85.00,94.00,-862.00
2024-05-17 17:17:43.468225,0,0,-42,0,0,0,74,75,123,120,73,193.35,196,31.00,-34.00,-972.00
2024-05-17 17:17:43.585969,0,0,-42,0,0,0,74,75,124,120,73,193.43,196,34.00,-16.00,-997.00
2024-05-17 17:17:43.673388,0,0,-42,0,0,0,74,75,124,120,73,193.40,196,-2.00,16.00,-985.00
2024-05-17 17:17:43.790868,0,0,-42,0,0,0,74,75,124,110,73,193.46,196,41.00,-14.00,-984.00
2024-05-17 17:17:43.879508,0,0,-42,0,0,0,74,75,124,110,73,193.45,196,-31.00,3.00,-983.00
2024-05-17 17:17:43.979868,0,0,-42,0,0,0,74,75,125,110,73,193.38,196,23.00,-21.00,-984.00
2024-05-17 17:17:44.080472,0,0,-42,0,0,0,73,76,125,110,73,193.48,197,39.00,5.00,-1048.00
2024-05-17 17:17:44.200217,0,0,-42,0,0,0,73,76,126,110,73,193.45,197,-1.00,0.00,-940.00
2024-05-17 17:17:44.284256,0,0,-42,0,0,0,73,76,127,120,73,193.51,197,-18.00,20.00,-1003.00
2024-05-17 17:17:44.405332,0,0,-42,0,0,0,73,76,128,120,73,193.52,197,-9.00,10.00,-911.00
2024-05-17 17:17:44.488378,0,0,-42,0,0,0,73,76,130,120,73,193.46,197,-41.00,35.00,-1002.00
2024-05-17 17:17:44.612516,0,0,-42,0,0,0,73,76,130,120,73,193.45,197,51.00,-38.00,-1074.00
2024-05-17 17:17:44.693496,0,0,-42,0,0,0,73,76,130,120,73,193.45,197,-22.00,11.00,-989.00
2024-05-17 17:17:44.793974,0,0,-42,0,0,0,73,76,131,120,73,193.44,197,-5.00,6.00,-1052.00
2024-05-17 17:17:44.917418,0,-1,-42,0,0,0,73,76,133,120,73,193.45,197,43.00,13.00,-923.00
2024-05-17 17:17:44.997955,1,-8,-42,0,-1,0,73,76,134,120,73,193.44,197,13.00,-5.00,-1071.00
2024-05-17 17:17:45.102837,1,-7,-42,-1,-1,0,73,76,134,120,73,193.52,198,-1.00,-3.00,-992.00
2024-05-17 17:17:45.203202,0,-4,-42,-2,-2,0,73,76,133,120,73,193.49,198,58.00,21.00,-1034.00
2024-05-17 17:17:45.304910,0,-2,-42,-2,-2,0,73,76,134,120,73,193.45,198,-35.00,31.00,-924.00
2024-05-17 17:17:45.406085,0,0,-42,-2,-2,0,73,76,134,120,73,193.54,198,18.00,24.00,-997.00
2024-05-17 17:17:45.457118,0,1,-42,-2,-2,0,73,76,134,120,73,193.44,198,62.00,-1.00,-1043.00
2024-05-17 17:17:45.634149,0,0,-42,-1,-1,0,73,76,135,120,73,193.43,198,-5.00,27.00,-976.00
2024-05-17 17:17:45.661045,0,-1,-42,-1,-1,0,73,76,136,120,73,193.42,198,-68.00,41.00,-911.00
2024-05-17 17:17:45.839123,0,-1,-42,-1,-1,0,73,76,136,120,73,193.46,198,10.00,0.00,-985.00
2024-05-17 17:17:45.865083,0,-1,-42,-1,-1,0,73,76,135,120,73,193.47,198,-11.00,30.00,-959.00
2024-05-17 17:17:46.046652,0,-1,-42,-1,-1,0,73,76,135,120,73,193.49,198,86.00,41.00,-995.00
2024-05-17 17:17:46.120972,-1,-1,-42,-1,-1,0,74,76,135,120,73,193.47,199,-12.00,-13.00,-997.00
2024-05-17 17:17:46.170858,-1,-1,-42,-1,-1,0,74,76,134,120,73,193.48,199,-7.00,51.00,-977.00
2024-05-17 17:17:46.350470,-1,-1,-42,-1,-1,0,74,76,134,120,73,193.48,199,17.00,-23.00,-995.00
2024-05-17 17:17:46.377302,-1,-1,-42,-1,-1,0,74,76,133,120,73,193.51,199,-81.00,52.00,-983.00
2024-05-17 17:17:46.477216,-1,-1,-42,-1,-1,0,74,76,134,120,72,193.48,199,0.00,11.00,-1056.00
2024-05-17 17:17:46.659160,-2,0,-42,-1,-1,0,74,76,133,120,72,193.46,199,-52.00,51.00,-1066.00
2024-05-17 17:17:46.680897,-3,0,-42,0,-2,0,74,76,134,120,72,193.44,199,4.00,47.00,-971.00
2024-05-17 17:17:46.862295,0,2,-42,0,-1,0,74,76,133,120,72,193.50,199,-24.00,20.00,-1011.00
2024-05-17 17:17:46.885674,2,3,-42,0,-1,0,74,76,133,120,72,193.48,199,60.00,0.00,-963.00
2024-05-17 17:17:46.987025,0,1,-42,0,0,0,74,76,133,120,72,193.45,199,8.00,29.00,-955.00
2024-05-17 17:17:47.089039,0,0,-42,0,0,0,73,76,130,120,72,193.48,200,-1.00,12.00,-982.00
2024-05-17 17:17:47.272053,0,0,-42,0,0,0,73,76,130,120,72,193.47,200,-33.00,22.00,-987.00
2024-05-17 17:17:47.293055,0,0,-42,0,0,0,73,76,130,120,72,193.51,200,4.00,27.00,-1001.00
2024-05-17 17:17:47.476752,0,0,-42,0,0,0,73,76,131,120,72,193.48,200,-54.00,63.00,-976.00
2024-05-17 17:17:47.496885,0,0,-42,0,0,0,73,76,132,120,72,193.46,200,2.00,-1.00,-997.00
2024-05-17 17:17:47.681637,0,0,-42,0,0,0,73,76,132,120,72,193.43,200,-29.00,35.00,-1033.00
2024-05-17 17:17:47.700976,0,0,-42,0,0,0,73,76,131,120,72,193.44,200,-78.00,30.00,-1003.00
2024-05-17 17:17:47.887699,0,0,-42,0,0,0,73,76,132,120,72,193.47,200,27.00,-29.00,-986.00
2024-05-17 17:17:47.904905,0,0,-42,0,0,0,73,76,132,120,72,193.46,200,-10.00,16.00,-990.00
2024-05-17 17:17:48.091612,0,0,-42,0,0,0,73,76,133,120,72,193.46,200,30.00,-13.00,-955.00
2024-05-17 17:17:48.108782,0,0,-42,0,0,0,72,75,133,120,72,193.44,201,-48.00,26.00,-981.00
2024-05-17 17:17:48.296237,0,0,-42,0,0,0,72,75,134,120,72,193.47,201,18.00,13.00,-925.00
2024-05-17 17:17:48.314100,0,0,-42,0,0,0,72,75,134,120,72,193.52,201,-39.00,52.00,-1025.00
2024-05-17 17:17:48.415066,0,0,-42,0,0,0,72,75,135,120,72,193.48,201,12.00,-7.00,-992.00
2024-05-17 17:17:48.603317,0,0,-42,0,0,0,72,75,135,120,72,193.51,201,-41.00,29.00,-926.00
2024-05-17 17:17:48.620328,0,0,-42,0,0,0,72,75,135,120,72,193.52,201,-19.00,23.00,-981.00
2024-05-17 17:17:48.808101,0,0,-42,0,0,0,72,75,136,120,72,193.47,201,10.00,-15.00,-947.00
2024-05-17 17:17:48.823072,0,0,-42,0,0,0,72,75,136,120,72,193.45,201,1.00,-4.00,-1010.00
2024-05-17 17:17:48.939504,0,0,-42,0,0,0,72,75,136,120,72,193.55,201,34.00,8.00,-1003.00
2024-05-17 17:17:48.976294,0,0,-42,0,0,0,72,75,136,120,72,193.49,201,-52.00,55.00,-953.00
2024-05-17 17:17:49.129119,0,0,-42,0,0,0,73,75,135,120,72,193.54,202,4.00,11.00,-1009.00
2024-05-17 17:17:49.320314,0,4,-42,0,0,0,73,75,136,120,72,193.53,202,47.00,1.00,-954.00
2024-05-17 17:17:49.320378,0,8,-41,1,1,0,73,75,135,120,72,193.53,202,-22.00,25.00,-973.00
2024-05-17 17:17:49.384604,0,5,-41,2,2,0,73,75,134,120,72,193.47,202,-16.00,34.00,-1018.00
2024-05-17 17:17:49.524891,0,2,-41,3,2,0,73,75,135,120,72,193.49,202,-28.00,28.00,-976.00
2024-05-17 17:17:49.591552,0,0,-41,3,2,0,73,75,133,120,72,193.48,202,48.00,-35.00,-1087.00
2024-05-17 17:17:49.689772,0,-1,-41,2,2,0,73,75,132,120,72,193.45,202,-56.00,41.00,-1042.00
2024-05-17 17:17:49.833039,0,-1,-41,1,2,0,73,75,130,120,72,193.47,202,36.00,-37.00,-1006.00
2024-05-17 17:17:49.893741,0,0,-42,1,2,0,73,75,130,120,72,193.46,202,-59.00,66.00,-1024.00
2024-05-17 17:17:50.036833,-1,0,-42,1,2,0,73,75,129,120,72,193.43,202,26.00,-7.00,-1053.00
2024-05-17 17:17:50.097832,-2,0,-42,1,2,0,73,76,129,120,72,193.41,203,14.00,-16.00,-1011.00
2024-05-17 17:17:50.241546,-2,0,-42,1,2,0,73,76,129,120,72,193.46,203,-38.00,16.00,-1030.00
2024-05-17 17:17:50.301811,-2,0,-42,1,2,0,73,76,129,120,72,193.45,203,-52.00,14.00,-974.00
2024-05-17 17:17:50.446535,-1,0,-42,2,2,0,73,76,129,120,72,193.39,203,49.00,-39.00,-1006.00
2024-05-17 17:17:50.505744,-1,0,-42,2,1,0,73,76,128,120,71,193.40,203,-55.00,32.00,-899.00
2024-05-17 17:17:50.651160,1,0,-42,2,1,0,73,76,130,120,71,193.47,203,-66.00,34.00,-1004.00
2024-05-17 17:17:50.712754,2,0,-42,1,1,0,73,76,128,120,71,193.47,203,16.00,0.00,-1016.00
2024-05-17 17:17:50.811570,2,0,-42,1,1,0,73,76,128,120,71,193.40,203,10.00,-28.00,-1029.00
2024-05-17 17:17:50.958344,1,-1,-42,0,2,0,73,76,127,120,71,193.38,203,14.00,-25.00,-1078.00
2024-05-17 17:17:51.016177,-4,-4,-42,0,1,0,73,76,128,120,71,193.41,203,-82.00,50.00,-1008.00
2024-05-17 17:17:51.118791,-2,-2,-42,0,0,0,73,75,128,120,71,193.41,204,-27.00,25.00,-1041.00
2024-05-17 17:17:51.265822,-1,0,-42,0,0,0,73,75,128,120,71,193.42,204,-2.00,4.00,-1117.00
2024-05-17 17:17:51.324244,-1,0,-42,0,0,0,73,75,129,120,71,193.42,204,-35.00,44.00,-1075.00
2024-05-17 17:17:51.425086,0,0,-42,0,0,0,73,75,129,120,71,193.42,204,-85.00,69.00,-927.00
2024-05-17 17:17:51.573295,0,-1,-42,0,0,0,73,75,131,120,71,193.46,204,13.00,31.00,-1045.00
2024-05-17 17:17:51.628861,-1,-1,-42,0,0,0,73,75,132,120,71,193.38,204,49.00,-38.00,-1061.00
2024-05-17 17:17:51.777857,-1,-2,-42,0,0,0,73,75,132,120,71,193.41,204,-54.00,73.00,-946.00
2024-05-17 17:17:51.836641,-1,-1,-42,0,0,0,73,75,133,120,71,193.48,204,27.00,-21.00,-1031.00
2024-05-17 17:17:51.935185,-1,-1,-42,0,0,0,73,75,133,120,71,193.47,204,-42.00,28.00,-964.00
2024-05-17 17:17:52.084707,-1,0,-42,0,0,0,73,75,133,120,71,193.52,204,-81.00,53.00,-1016.00
2024-05-17 17:17:52.138771,0,0,-42,0,0,0,74,76,134,120,71,193.47,205,14.00,24.00,-1092.00
2024-05-17 17:17:52.289585,0,0,-42,0,0,0,74,76,135,120,71,193.52,205,52.00,-45.00,-975.00
2024-05-17 17:17:52.342679,0,0,-42,0,0,0,74,76,135,120,71,193.52,205,-24.00,21.00,-957.00
2024-05-17 17:17:52.494387,0,0,-42,0,0,0,74,76,136,120,71,193.51,205,-29.00,48.00,-1025.00
2024-05-17 17:17:52.549303,0,0,-42,0,0,0,74,76,136,120,71,193.49,205,8.00,3.00,-1015.00
2024-05-17 17:17:52.648674,0,0,-42,0,0,0,74,76,136,120,71,193.51,205,-50.00,53.00,-960.00
2024-05-17 17:17:52.750936,-1,0,-42,0,0,0,74,76,137,120,71,193.42,205,-33.00,29.00,-961.00
2024-05-17 17:17:52.904348,0,0,-42,0,0,0,74,76,137,120,71,193.58,205,-13.00,31.00,-979.00
2024-05-17 17:17:52.954776,0,0,-42,0,0,0,74,76,137,120,71,193.55,205,-68.00,62.00,-1009.00
2024-05-17 17:17:53.070080,0,0,-42,0,0,0,74,76,138,120,71,193.49,206,-4.00,9.00,-984.00
2024-05-17 17:17:53.158696,-1,-1,-42,0,0,0,73,76,138,120,71,193.46,206,-18.00,28.00,-967.00
2024-05-17 17:17:53.313584,0,-1,-37,0,0,0,73,76,138,120,71,193.48,206,-38.00,0.00,-956.00
2024-05-17 17:17:53.313672,0,0,-31,0,0,0,73,76,138,120,71,193.53,206,-13.00,32.00,-1006.00
2024-05-17 17:17:53.413521,0,0,-25,0,0,0,73,76,137,120,71,193.45,206,32.00,-5.00,-1074.00
2024-05-17 17:17:53.518342,0,0,-18,0,0,0,73,76,137,120,71,193.46,206,30.00,7.00,-953.00
2024-05-17 17:17:53.617717,0,0,-12,0,0,0,73,76,139,120,71,193.47,206,53.00,-2.00,-997.00
2024-05-17 17:17:53.723115,0,1,-6,0,0,0,73,76,139,120,71,193.49,206,40.00,-34.00,-1008.00
2024-05-17 17:17:53.826494,1,1,0,0,0,0,73,76,139,120,71,193.43,206,48.00,-28.00,-1020.00
2024-05-17 17:17:53.928161,0,1,6,0,0,0,73,76,139,120,71,193.45,206,74.00,-51.00,-1027.00
2024-05-17 17:17:54.027838,0,1,12,0,0,0,73,76,138,120,71,193.52,207,9.00,-2.00,-988.00
2024-05-17 17:17:54.129240,0,0,17,0,0,0,73,75,140,120,71,193.52,207,-32.00,13.00,-1014.00
2024-05-17 17:17:54.229800,0,-1,23,0,0,0,73,75,139,120,71,193.47,207,23.00,-23.00,-986.00
2024-05-17 17:17:54.337729,0,-1,29,0,0,0,73,75,139,120,71,193.54,207,10.00,-20.00,-980.00
2024-05-17 17:17:54.433606,0,-1,34,0,0,0,73,75,139,120,71,193.57,207,47.00,-54.00,-1075.00
2024-05-17 17:17:54.542307,0,-1,39,0,0,0,73,75,140,120,70,193.49,207,-61.00,46.00,-842.00
2024-05-17 17:17:54.637473,0,-1,45,0,0,0,73,75,141,120,70,193.46,207,66.00,-26.00,-1022.00
2024-05-17 17:17:54.747131,0,0,50,0,0,0,73,75,141,120,70,193.54,207,-21.00,-17.00,-926.00
2024-05-17 17:17:54.841503,0,0,55,0,0,0,73,75,142,120,70,193.47,207,27.00,-23.00,-986.00
2024-05-17 17:17:54.951929,0,0,61,0,0,0,73,75,142,130,70,193.48,207,-29.00,-13.00,-1026.00
2024-05-17 17:17:55.045498,0,0,66,0,0,0,73,75,143,130,70,193.52,208,25.00,-23.00,-1026.00
2024-05-17 17:17:55.148379,0,0,72,0,0,0,73,76,143,130,70,193.59,208,-10.00,-22.00,-948.00
2024-05-17 17:17:55.259752,1,0,77,0,0,0,73,76,143,130,70,193.55,208,-36.00,-2.00,-1042.00
2024-05-17 17:17:55.351653,1,0,83,0,0,0,73,76,144,130,70,193.58,208,15.00,31.00,-976.00
2024-05-17 17:17:55.464023,0,0,88,0,0,0,73,76,143,130,70,193.57,208,78.00,-75.00,-894.00
2024-05-17 17:17:55.555640,0,0,94,0,0,0,73,76,143,120,70,193.49,208,-7.00,11.00,-981.00
2024-05-17 17:17:55.657659,0,0,100,0,0,0,73,76,143,120,70,193.53,208,-114.00,30.00,-1013.00
2024-05-17 17:17:55.759940,0,0,105,0,0,0,73,76,143,120,70,193.44,208,-16.00,18.00,-1017.00
2024-05-17 17:17:55.862712,0,0,111,0,0,0,73,76,141,120,70,193.43,208,-89.00,38.00,-1018.00
2024-05-17 17:17:55.964639,1,0,117,0,0,0,73,76,140,120,70,193.49,208,44.00,-26.00,-958.00
2024-05-17 17:17:56.066621,1,0,123,0,0,0,73,76,140,120,70,193.53,209,11.00,-4.00,-961.00
2024-05-17 17:17:56.167660,0,0,129,0,0,0,73,76,140,120,70,193.50,209,74.00,-27.00,-955.00
2024-05-17 17:17:56.269957,0,0,135,0,0,0,73,76,140,120,70,193.53,209,14.00,-6.00,-1040.00
2024-05-17 17:17:56.371380,0,1,141,0,0,0,73,76,140,120,70,193.53,209,11.00,3.00,-1001.00
2024-05-17 17:17:56.487946,0,1,147,0,0,0,73,76,140,120,70,193.48,209,-29.00,-8.00,-1029.00
2024-05-17 17:17:56.575549,0,1,152,0,0,0,73,76,139,120,70,193.50,209,-65.00,35.00,-923.00
2024-05-17 17:17:56.693238,0,1,158,0,0,0,73,76,140,120,70,193.54,209,27.00,36.00,-896.00
2024-05-17 17:17:56.779350,0,1,164,0,0,0,73,76,139,120,70,193.58,209,-36.00,18.00,-1045.00
2024-05-17 17:17:56.897701,0,1,170,0,0,0,73,76,138,120,70,193.52,209,28.00,-2.00,-983.00
2024-05-17 17:17:56.983362,0,1,175,0,0,0,73,76,138,120,70,193.47,209,-55.00,39.00,-954.00
2024-05-17 17:17:57.104421,0,1,-178,0,0,0,73,76,136,120,70,193.49,210,-53.00,18.00,-986.00
2024-05-17 17:17:57.187384,0,1,-172,0,0,0,73,76,136,120,70,193.52,210,-12.00,-12.00,-979.00
2024-05-17 17:17:57.307018,0,1,-166,0,0,0,73,76,135,120,70,193.41,210,17.00,-3.00,-1075.00
2024-05-17 17:17:57.391354,0,1,-160,0,0,0,73,76,134,120,70,193.46,210,40.00,-34.00,-1014.00
2024-05-17 17:17:57.443556,0,1,-153,0,0,0,73,76,134,120,70,193.40,210,22.00,-29.00,-1015.00
2024-05-17 17:17:57.614285,0,1,-147,0,0,0,73,76,133,120,70,193.39,210,5.00,-16.00,-1044.00
2024-05-17 17:17:57.648888,0,1,-141,0,0,0,73,76,133,120,70,193.41,210,-33.00,6.00,-1002.00
2024-05-17 17:17:57.749642,0,1,-134,0,0,0,73,76,132,120,70,193.43,210,69.00,-57.00,-1110.00
2024-05-17 17:17:57.850648,0,1,-128,0,0,0,73,76,131,120,70,193.38,210,-38.00,13.00,-1005.00
2024-05-17 17:17:58.023969,0,1,-121,0,0,0,73,76,132,120,70,193.41,210,-14.00,-17.00,-996.00
2024-05-17 17:17:58.054450,0,1,-115,0,0,0,73,76,133,120,70,193.30,211,-19.00,-8.00,-970.00
2024-05-17 17:17:58.159579,0,1,-108,0,0,0,73,75,132,120,70,193.39,211,23.00,-11.00,-1028.00
2024-05-17 17:17:58.258424,0,1,-102,0,0,0,73,75,132,120,70,193.36,211,36.00,-31.00,-1045.00
2024-05-17 17:17:58.435367,-1,0,-95,0,0,0,73,75,129,120,70,193.39,211,-59.00,30.00,-1049.00
2024-05-17 17:17:58.462407,0,0,-89,0,0,0,73,75,128,120,70,193.37,211,-13.00,-9.00,-1039.00
2024-05-17 17:17:58.638277,-1,0,-82,0,0,0,73,75,128,120,70,193.41,211,-94.00,62.00,-1001.00
2024-05-17 17:17:58.666368,-1,0,-76,0,0,0,73,75,127,120,70,193.35,211,-67.00,28.00,-983.00
2024-05-17 17:17:58.843359,-1,0,-69,0,0,0,73,75,128,120,70,193.36,211,23.00,5.00,-1035.00
2024-05-17 17:17:58.870352,0,0,-63,0,0,0,73,75,128,120,70,193.41,211,-28.00,5.00,-989.00
2024-05-17 17:17:59.049964,-1,0,-57,0,0,0,73,75,127,120,70,193.37,211,-17.00,37.00,-1060.00
2024-05-17 17:17:59.074366,-1,0,-53,0,0,0,73,75,127,120,70,193.38,212,-74.00,67.00,-976.00
2024-05-17 17:17:59.252692,-1,0,-50,0,0,0,73,76,127,120,70,193.38,212,-9.00,19.00,-1062.00
2024-05-17 17:17:59.281773,-1,0,-48,0,0,0,73,76,127,120,70,193.37,212,20.00,10.00,-1058.00
2024-05-17 17:17:59.380347,-1,-1,-46,0,0,0,73,76,127,120,70,193.41,212,-9.00,-3.00,-958.00
2024-05-17 17:17:59.559789,0,0,-45,0,0,0,73,76,127,120,69,193.40,212,-9.00,5.00,-1027.00
2024-05-17 17:17:59.585840,0,0,-44,0,0,0,73,76,128,120,69,193.41,212,-55.00,21.00,-1060.00
2024-05-17 17:17:59.689572,0,0,-43,0,0,0,73,76,129,120,69,193.43,212,15.00,-12.00,-1047.00
2024-05-17 17:17:59.788655,0,0,-43,0,0,0,73,76,129,120,69,193.42,212,-21.00,22.00,-966.00
2024-05-17 17:17:59.969574,-1,0,-43,0,0,0,73,76,130,120,69,193.39,212,18.00,-4.00,-1021.00
2024-05-17 17:17:59.995314,-1,0,-43,0,0,0,73,76,130,120,69,193.39,212,26.00,-27.00,-1061.00
2024-05-17 17:18:00.094540,-1,0,-43,0,0,0,73,76,131,120,69,193.39,213,47.00,-22.00,-992.00
2024-05-17 17:18:00.276704,0,0,-43,0,0,0,73,76,132,120,69,193.48,213,-12.00,8.00,-917.00
2024-05-17 17:18:00.298270,0,0,-44,0,0,0,73,76,132,120,69,193.43,213,-106.00,44.00,-872.00
2024-05-17 17:18:00.482502,0,0,-43,0,0,0,73,76,132,120,69,193.42,213,64.00,-27.00,-1001.00
2024-05-17 17:18:00.502410,0,-1,-44,0,0,0,73,76,133,120,69,193.39,213,-55.00,38.00,-955.00
2024-05-17 17:18:00.686348,0,-1,-44,0,0,0,73,76,133,120,69,193.43,213,-54.00,20.00,-1011.00
2024-05-17 17:18:00.706286,0,0,-44,0,0,0,73,76,133,120,69,193.40,213,-28.00,18.00,-1025.00
2024-05-17 17:18:00.892169,0,0,-44,0,0,0,73,76,134,120,69,193.39,213,8.00,10.00,-1049.00
2024-05-17 17:18:00.910274,0,0,-44,0,0,0,73,76,134,120,69,193.45,213,-107.00,35.00,-1069.00
2024-05-17 17:18:00.961239,0,0,-44,0,0,0,73,76,135,120,69,193.44,213,7.00,-9.00,-991.00
2024-05-17 17:18:01.096389,0,0,-44,0,0,0,73,76,135,120,69,193.45,214,-26.00,17.00,-1006.00
2024-05-17 17:18:01.300806,0,0,-44,0,0,0,73,75,135,120,69,193.46,214,-60.00,30.00,-1014.00
2024-05-17 17:18:01.318384,0,0,-44,0,0,0,73,75,136,120,69,193.47,214,-40.00,5.00,-1013.00
2024-05-17 17:18:01.510000,0,0,-44,0,0,0,73,75,137,120,69,193.43,214,-18.00,-13.00,-955.00
2024-05-17 17:18:01.510178,-1,0,-44,0,0,0,73,75,137,120,69,193.48,214,-9.00,-56.00,-1049.00
2024-05-17 17:18:01.573199,0,0,-44,0,0,0,73,75,137,120,69,193.46,214,-8.00,32.00,-1049.00
2024-05-17 17:18:01.675775,0,0,-44,0,0,0,73,75,137,120,69,193.46,214,-67.00,35.00,-1057.00
2024-05-17 17:18:01.813612,0,0,-44,0,0,0,73,75,137,120,69,193.45,214,-42.00,43.00,-1041.00
2024-05-17 17:18:01.879352,0,0,-50,0,0,0,73,75,136,120,69,193.47,214,-64.00,56.00,-929.00
2024-05-17 17:18:02.017652,0,0,-56,0,0,0,73,75,136,120,69,193.40,214,-66.00,61.00,-966.00
2024-05-17 17:18:02.083258,-1,0,-63,0,0,0,73,75,135,120,69,193.42,215,71.00,-33.00,-980.00
2024-05-17 17:18:02.222443,-1,0,-70,0,0,0,73,76,134,120,69,193.48,215,-35.00,46.00,-981.00
2024-05-17 17:18:02.287410,-1,0,-76,0,0,0,73,76,134,120,69,193.39,215,-23.00,18.00,-1074.00
2024-05-17 17:18:02.427284,-1,0,-82,0,0,0,73,76,133,120,69,193.31,215,98.00,-62.00,-1157.00
2024-05-17 17:18:02.491549,-1,0,-88,0,0,0,73,76,132,120,69,193.39,215,-52.00,14.00,-963.00
2024-05-17 17:18:02.642479,-1,0,-94,0,0,0,73,76,131,120,69,193.37,215,7.00,-10.00,-987.00
2024-05-17 17:18:02.697299,-1,0,-100,0,0,0,73,76,131,120,69,193.34,215,-40.00,14.00,-1019.00
2024-05-17 17:18:02.797821,-1,0,-105,0,0,0,73,76,131,120,69,193.39,215,-75.00,33.00,-967.00
2024-05-17 17:18:02.899245,-1,0,-111,0,0,0,73,76,130,120,69,193.39,215,-73.00,36.00,-1013.00
2024-05-17 17:18:03.043555,-1,0,-116,0,0,0,73,76,129,120,69,193.42,215,40.00,-31.00,-1048.00
2024-05-17 17:18:03.103081,-1,0,-121,0,0,0,73,76,129,120,69,193.39,216,-98.00,37.00,-969.00
2024-05-17 17:18:03.248373,-2,0,-126,0,0,0,73,75,129,120,69,193.38,216,-45.00,18.00,-1030.00
2024-05-17 17:18:03.307012,-2,0,-131,0,0,0,73,75,129,120,69,193.42,216,60.00,-58.00,-991.00
2024-05-17 17:18:03.451677,-1,0,-136,0,0,0,73,75,131,120,69,193.35,216,19.00,-28.00,-1000.00
2024-05-17 17:18:03.511041,0,1,-141,0,0,0,73,75,131,120,69,193.41,216,-8.00,-22.00,-961.00
2024-05-17 17:18:03.613008,0,1,-146,0,0,0,73,75,130,120,69,193.40,216,-26.00,18.00,-987.00
2024-05-17 17:18:03.715347,0,0,-151,0,0,0,73,75,131,120,69,193.36,216,35.00,-20.00,-1007.00
2024-05-17 17:18:03.817074,0,0,-157,0,0,0,73,75,131,120,69,193.35,216,13.00,0.00,-1028.00
2024-05-17 17:18:03.963243,0,0,-163,0,0,0,73,75,131,120,69,193.43,216,-11.00,-2.00,-1003.00
2024-05-17 17:18:04.020986,0,0,-169,0,0,0,73,75,131,120,69,193.43,216,-36.00,18.00,-1006.00
2024-05-17 17:18:04.167819,0,0,-175,0,0,0,73,75,132,120,69,193.36,217,-13.00,16.00,-931.00
2024-05-17 17:18:04.225487,0,0,178,0,0,0,72,75,132,120,69,193.34,217,-52.00,30.00,-1040.00
2024-05-17 17:18:04.372904,0,0,171,0,0,0,72,75,132,120,69,193.40,217,-48.00,36.00,-997.00
2024-05-17 17:18:04.429163,0,0,165,0,0,0,72,75,133,120,69,193.49,217,-45.00,27.00,-973.00
2024-05-17 17:18:04.577322,0,0,159,0,0,0,72,75,133,120,69,193.43,217,0.00,-10.00,-1001.00
2024-05-17 17:18:04.632982,0,0,153,0,0,0,72,75,134,120,69,193.38,217,-31.00,20.00,-1013.00
2024-05-17 17:18:04.782395,0,0,146,0,0,0,72,75,135,120,69,193.40,217,-9.00,5.00,-1070.00
2024-05-17 17:18:04.842083,0,0,140,0,0,0,72,75,136,120,69,193.42,217,-37.00,35.00,-1036.00
2024-05-17 17:18:04.939113,0,0,133,0,0,0,72,75,137,120,69,193.43,217,-69.00,38.00,-879.00
2024-05-17 17:18:05.094954,0,0,126,0,0,0,72,75,137,120,69,193.46,217,-74.00,27.00,-976.00
2024-05-17 17:18:05.148478,0,0,120,0,0,0,72,75,138,120,69,193.45,218,28.00,-14.00,-1035.00
2024-05-17 17:18:05.244946,0,0,114,0,0,0,73,75,139,120,69,193.41,218,58.00,-28.00,-1047.00
2024-05-17 17:18:05.396962,0,0,107,0,0,0,73,75,139,120,69,193.45,218,57.00,-42.00,-949.00
2024-05-17 17:18:05.448901,0,0,101,0,0,0,73,75,139,120,69,193.47,218,-53.00,41.00,-960.00
2024-05-17 17:18:05.601364,0,0,95,0,0,0,73,75,139,120,68,193.46,218,-50.00,63.00,-955.00
2024-05-17 17:18:05.602096,0,0,89,0,0,0,73,75,139,120,68,193.47,218,47.00,-31.00,-990.00
2024-05-17 17:18:05.703921,0,0,83,0,0,0,73,75,139,120,68,193.42,218,-40.00,44.00,-1025.00
2024-05-17 17:18:05.806365,0,0,77,0,0,0,73,75,138,120,68,193.45,218,-11.00,-9.00,-996.00
2024-05-17 17:18:05.908857,0,0,71,0,0,0,73,75,137,120,68,193.46,218,-5.00,-3.00,-1015.00
2024-05-17 17:18:06.011156,0,0,65,0,0,0,73,75,136,120,68,193.44,218,47.00,8.00,-1126.00
2024-05-17 17:18:06.114050,0,0,59,0,0,0,73,75,134,120,68,193.43,219,-5.00,18.00,-1135.00
2024-05-17 17:18:06.213980,0,-1,46,0,0,0,74,76,134,120,68,193.35,219,-104.00,58.00,-927.00
2024-05-17 17:18:06.318453,0,-1,40,0,0,0,74,76,133,120,68,193.34,219,-61.00,20.00,-969.00
2024-05-17 17:18:06.418120,0,-1,34,0,0,0,74,76,132,120,68,193.37,219,92.00,-41.00,-1092.00
2024-05-17 17:18:06.523550,0,-1,28,0,0,0,74,76,132,120,68,193.29,219,12.00,-3.00,-994.00
2024-05-17 17:18:06.622603,0,-1,22,0,0,0,74,76,132,120,68,193.35,219,-47.00,13.00,-1037.00
2024-05-17 17:18:06.728156,0,0,16,0,0,0,74,76,131,120,68,193.35,219,-25.00,24.00,-1027.00
2024-05-17 17:18:06.826090,0,0,10,0,0,0,74,76,132,120,68,193.39,219,-22.00,7.00,-1016.00
2024-05-17 17:18:06.936488,0,0,4,0,0,0,74,76,133,120,68,193.34,219,8.00,22.00,-1125.00
2024-05-17 17:18:07.030076,0,0,-1,0,0,0,74,76,133,120,68,193.39,220,-85.00,66.00,-967.00
2024-05-17 17:18:07.142457,0,-1,-7,0,0,0,74,76,134,120,68,193.33,220,-56.00,23.00,-946.00
2024-05-17 17:18:07.234101,0,-1,-14,0,0,0,73,76,135,120,68,193.41,220,22.00,1.00,-1001.00
2024-05-17 17:18:07.342356,0,-1,-20,0,0,0,73,76,135,120,68,193.34,220,-54.00,29.00,-1024.00
2024-05-17 17:18:07.439302,0,-1,-26,0,0,0,73,76,135,120,68,193.41,220,-32.00,15.00,-1007.00
2024-05-17 17:18:07.539952,0,0,-30,0,0,0,73,76,136,120,68,193.36,220,-13.00,-16.00,-1004.00
2024-05-17 17:18:07.649368,0,-1,-34,0,0,0,73,76,137,120,68,193.36,220,44.00,-49.00,-993.00
2024-05-17 17:18:07.743736,0,0,-36,0,0,0,73,76,137,120,68,193.43,220,32.00,-10.00,-962.00
2024-05-17 17:18:07.845799,0,0,-38,0,0,0,73,76,137,120,68,193.42,220,61.00,-2.00,-1138.00
2024-05-17 17:18:07.956628,0,0,-40,0,0,0,73,76,136,120,68,193.37,220,-33.00,31.00,-961.00
2024-05-17 17:18:08.049920,0,0,-41,0,0,0,73,76,137,120,68,193.41,221,-27.00,3.00,-1006.00
2024-05-17 17:18:08.152145,0,0,-41,0,0,0,73,76,136,120,68,193.41,221,40.00,-29.00,-1045.00
2024-05-17 17:18:08.254944,0,0,-42,0,0,0,73,75,137,120,68,193.36,221,-3.00,18.00,-1099.00
2024-05-17 17:18:08.366336,0,0,-42,0,0,0,73,75,136,120,68,193.43,221,-34.00,33.00,-946.00
2024-05-17 17:18:08.458052,0,0,-42,0,0,0,73,75,136,120,68,193.40,221,-17.00,23.00,-965.00
2024-05-17 17:18:08.571120,0,0,-42,0,0,0,73,75,136,120,68,193.46,221,-61.00,2.00,-979.00
2024-05-17 17:18:08.662323,0,0,-42,0,0,0,73,75,136,120,68,193.49,221,1.00,-7.00,-965.00
2024-05-17 17:18:08.778351,0,0,-42,0,0,0,73,75,136,120,68,193.47,221,-22.00,-16.00,-1134.00
2024-05-17 17:18:08.870167,0,0,-42,0,0,0,73,75,136,120,68,193.45,221,-28.00,13.00,-1015.00
2024-05-17 17:18:08.925563,0,0,-42,0,0,0,73,75,135,120,68,193.40,221,-6.00,36.00,-946.00
2024-05-17 17:18:09.019447,0,0,-42,0,0,0,73,75,135,120,68,193.43,222,-25.00,14.00,-1018.00
2024-05-17 17:18:09.190481,0,0,-42,0,0,0,73,75,135,120,68,193.45,222,-2.00,-2.00,-976.00
2024-05-17 17:18:09.224598,0,0,-42,0,0,0,73,76,134,120,68,193.39,222,-29.00,46.00,-1071.00
2024-05-17 17:18:09.325130,0,0,-42,0,0,0,73,76,134,120,68,193.41,222,-38.00,48.00,-1030.00
2024-05-17 17:18:09.427230,0,0,-42,0,0,0,73,76,133,120,68,193.40,222,-62.00,24.00,-1013.00
2024-05-17 17:18:09.529797,0,0,-42,0,0,0,73,76,134,120,68,193.46,222,25.00,-2.00,-1021.00
2024-05-17 17:18:09.630755,0,0,-42,0,0,0,73,76,133,120,68,193.42,222,-25.00,31.00,-1081.00
2024-05-17 17:18:09.799824,0,0,-42,0,0,0,73,76,133,120,68,193.40,222,-37.00,50.00,-866.00
2024-05-17 17:18:09.834947,0,0,-42,0,0,0,73,76,133,120,68,193.39,222,-1.00,-32.00,-967.00
2024-05-17 17:18:10.004666,0,0,-42,0,0,0,73,76,132,120,68,193.40,222,51.00,-13.00,-965.00
2024-05-17 17:18:10.039032,0,0,-42,0,0,0,73,76,132,120,68,193.43,223,-21.00,-3.00,-1009.00
2024-05-17 17:18:10.143587,0,0,-42,0,0,0,73,76,132,120,68,193.46,223,-8.00,0.00,-1074.00
2024-05-17 17:18:10.242670,0,0,-42,0,0,0,73,75,133,120,68,193.40,223,-77.00,63.00,-1038.00
2024-05-17 17:18:10.344865,0,0,-42,0,0,-1,73,75,135,120,68,193.54,223,-5.00,-2.00,-1242.00
2024-05-17 17:18:10.516527,0,0,-42,0,0,-7,73,75,142,120,68,193.66,223,95.00,-111.00,-1698.00
2024-05-17 17:18:10.549071,0,-40,-42,0,0,-12,73,75,232,130,68,193.75,223,-1.00,182.00,-1161.00
2024-05-17 17:18:10.721346,0,-160,-41,-5,-5,-5,73,75,174,140,68,193.77,223,-27.00,639.00,-943.00
2024-05-17 17:18:10.754360,1,75,-43,-4,-4,9,73,75,341,140,68,193.94,223,24.00,524.00,-884.00
2024-05-17 17:18:10.854744,0,-3,-43,0,0,11,73,75,145,130,68,193.55,223,-34.00,71.00,-1543.00
2024-05-17 17:18:11.029394,0,0,-41,-1,0,8,73,75,135,120,68,193.51,223,0.00,33.00,-1411.00
2024-05-17 17:18:11.058608,0,3,-40,0,0,3,73,75,131,120,68,193.50,224,-25.00,35.00,-1464.00
2024-05-17 17:18:11.160655,0,1,-41,0,0,0,73,75,129,110,68,193.32,224,11.00,-5.00,-1265.00
2024-05-17 17:18:11.336187,0,0,-42,0,0,0,73,76,127,110,68,193.41,224,70.00,80.00,-1411.00
2024-05-17 17:18:11.365449,0,0,-42,0,0,-1,73,76,128,110,68,193.33,224,-21.00,75.00,-1167.00
2024-05-17 17:18:11.541991,0,0,-42,0,0,-1,73,76,130,120,68,193.37,224,65.00,-44.00,-1066.00
2024-05-17 17:18:11.568924,0,1,-42,0,-1,-1,73,76,131,120,67,193.38,224,-8.00,1.00,-1018.00
2024-05-17 17:18:11.745310,1,2,-42,0,-1,-1,73,76,132,120,67,193.39,224,-38.00,28.00,-1036.00
2024-05-17 17:18:11.773819,1,2,-42,0,0,0,73,76,132,120,67,193.36,224,46.00,17.00,-984.00
2024-05-17 17:18:11.874668,1,2,-42,0,0,0,73,76,132,120,67,193.39,224,-28.00,51.00,-798.00
2024-05-17 17:18:12.052510,1,1,-42,0,0,0,73,76,133,120,67,193.38,224,45.00,-40.00,-948.00
2024-05-17 17:18:12.078528,1,1,-42,0,0,0,73,76,133,120,67,193.43,225,-38.00,64.00,-874.00
2024-05-17 17:18:12.180596,1,0,-42,0,0,0,73,76,131,120,67,193.35,225,15.00,0.00,-990.00
2024-05-17 17:18:12.359718,1,0,-42,0,0,0,73,76,132,120,67,193.39,225,-14.00,-1.00,-1002.00
2024-05-17 17:18:12.386422,0,0,-42,0,0,0,73,76,132,120,67,193.36,225,-90.00,46.00,-938.00
2024-05-17 17:18:12.486677,1,0,-42,0,0,0,73,76,131,120,67,193.40,225,-34.00,35.00,-958.00
2024-05-17 17:18:12.666944,1,0,-42,0,0,0,73,76,131,120,67,193.35,225,-59.00,56.00,-936.00
2024-05-17 17:18:12.690520,1,0,-42,0,0,0,73,76,130,120,67,193.38,225,-54.00,17.00,-1012.00
2024-05-17 17:18:12.741678,0,0,-42,0,1,0,73,76,128,120,67,193.30,225,18.00,4.00,-984.00
2024-05-17 17:18:12.843567,0,0,-42,0,1,0,73,76,128,120,67,193.33,225,39.00,-23.00,-1037.00
2024-05-17 17:18:12.974196,0,0,-42,0,0,0,73,76,127,110,67,193.32,225,74.00,-29.00,-1049.00
2024-05-17 17:18:13.047560,0,0,-42,0,0,0,73,76,127,110,67,193.39,226,31.00,10.00,-980.00
2024-05-17 17:18:13.179062,0,0,-42,0,0,0,73,76,128,110,67,193.33,226,12.00,7.00,-1017.00
2024-05-17 17:18:13.251671,1,0,-42,0,0,0,73,75,128,110,67,193.36,226,0.00,21.00,-953.00
2024-05-17 17:18:13.384696,0,0,-42,0,0,0,73,75,127,110,67,193.37,226,33.00,2.00,-1002.00
2024-05-17 17:18:13.455568,1,0,-42,0,0,0,73,75,127,110,66,193.32,226,-96.00,74.00,-968.00
2024-05-17 17:18:13.588430,0,0,-42,0,0,0,73,75,126,110,66,193.33,226,18.00,15.00,-1007.00
2024-05-17 17:18:13.659590,0,0,-42,0,1,0,73,75,126,110,66,193.31,226,-23.00,27.00,-943.00
2024-05-17 17:18:13.793333,0,0,-42,0,1,0,73,75,127,110,66,193.33,226,52.00,-2.00,-937.00
2024-05-17 17:18:13.863776,0,0,-42,0,0,0,73,75,127,110,66,193.27,226,45.00,7.00,-1155.00
2024-05-17 17:18:14.002236,0,0,-42,0,0,0,73,75,127,110,66,193.44,226,-28.00,47.00,-996.00
2024-05-17 17:18:14.067736,0,0,-42,0,0,0,73,75,127,110,66,193.36,227,-21.00,28.00,-1020.00
2024-05-17 17:18:14.203254,0,0,-42,0,0,0,73,75,128,110,66,193.33,227,-45.00,49.00,-976.00
2024-05-17 17:18:14.272451,0,0,-42,0,0,0,73,75,128,110,66,193.39,227,-45.00,49.00,-996.00
2024-05-17 17:18:14.407701,0,0,-42,0,0,0,73,75,128,110,66,193.46,227,56.00,-42.00,-1055.00
2024-05-17 17:18:14.478201,0,0,-42,0,0,0,73,75,129,110,66,193.39,227,-34.00,20.00,-964.00
2024-05-17 17:18:14.579271,0,0,-42,0,0,0,73,75,129,110,66,193.45,227,-23.00,17.00,-1028.00
2024-05-17 17:18:14.680575,0,0,-42,0,0,0,73,75,130,110,66,193.34,227,54.00,-21.00,-1088.00
2024-05-17 17:18:14.817599,0,0,-42,0,0,0,73,75,130,110,66,193.39,227,-69.00,64.00,-913.00
2024-05-17 17:18:14.884574,0,0,-42,0,0,0,73,75,130,110,66,193.41,227,-27.00,1.00,-980.00
2024-05-17 17:18:15.022603,0,0,-42,0,0,0,73,75,131,120,66,193.41,227,-20.00,0.00,-937.00
2024-05-17 17:18:15.088680,0,0,-42,0,0,0,73,75,132,120,66,193.45,228,41.00,-1.00,-1034.00
2024-05-17 17:18:15.190510,0,0,-42,0,0,0,73,75,132,120,66,193.44,228,-68.00,59.00,-948.00
2024-05-17 17:18:15.331224,0,0,-42,0,0,0,74,76,133,120,66,193.40,228,92.00,-58.00,-1016.00
2024-05-17 17:18:15.394384,0,0,-42,0,0,0,74,76,132,120,66,193.44,228,0.00,21.00,-1034.00
2024-05-17 17:18:15.534083,0,0,-42,0,0,0,74,76,133,120,66,193.44,228,2.00,3.00,-948.00
2024-05-17 17:18:15.598392,0,0,-42,0,0,0,74,76,133,120,66,193.41,228,53.00,-20.00,-1041.00
2024-05-17 17:18:15.741568,0,0,-42,0,0,0,74,76,133,120,66,193.41,228,24.00,22.00,-981.00
2024-05-17 17:18:15.802666,0,0,-42,0,0,0,74,76,134,120,66,193.41,228,-52.00,43.00,-1005.00
2024-05-17 17:18:15.943796,0,0,-42,0,0,0,74,76,134,120,66,193.48,228,-7.00,22.00,-972.00
2024-05-17 17:18:16.006431,0,0,-42,0,0,0,74,76,134,120,66,193.41,228,-1.00,-15.00,-1052.00
2024-05-17 17:18:16.149815,0,0,-42,0,0,0,74,76,135,120,66,193.45,229,11.00,-17.00,-989.00
2024-05-17 17:18:16.210368,0,0,-42,0,0,0,74,76,136,120,66,193.46,229,-96.00,80.00,-837.00
2024-05-17 17:18:16.353701,0,0,-42,0,0,0,73,75,136,120,66,193.46,229,-30.00,22.00,-960.00
2024-05-17 17:18:16.414629,0,0,-42,0,0,0,73,75,136,120,66,193.48,229,41.00,1.00,-1067.00
2024-05-17 17:18:16.558749,0,0,-42,0,0,0,73,75,136,120,66,193.49,229,-1.00,1.00,-1022.00
2024-05-17 17:18:16.618557,0,0,-42,0,0,0,73,75,136,120,66,193.53,229,51.00,2.00,-949.00
2024-05-17 17:18:16.762989,0,0,-42,0,0,0,73,75,137,120,66,193.47,229,-22.00,35.00,-1015.00
2024-05-17 17:18:16.823562,0,0,-42,0,0,0,73,75,137,120,66,193.50,229,17.00,-8.00,-1115.00
2024-05-17 17:18:16.873488,0,0,-42,0,0,0,73,75,137,120,66,193.58,229,-6.00,-8.00,-930.00
2024-05-17 17:18:17.072455,0,0,-42,0,0,0,73,75,138,120,66,193.64,229,4.00,-20.00,-1463.00
2024-05-17 17:18:17.077410,0,0,-42,0,0,-5,73,75,143,120,66,193.75,230,24.00,81.00,-1695.00
2024-05-17 17:18:17.279797,0,18,-42,0,1,-12,73,75,168,130,66,193.84,230,-51.00,116.00,-1751.00
2024-05-17 17:18:17.281501,0,120,-42,5,7,-10,73,75,172,140,66,193.97,230,-105.00,899.00,-1126.00
2024-05-17 17:18:17.481639,2,-110,-42,5,7,5,73,75,315,150,66,193.97,230,24.00,776.00,-788.00
2024-05-17 17:18:17.485497,0,-9,-39,1,2,11,73,75,155,140,66,193.66,230,27.00,472.00,-868.00
2024-05-17 17:18:17.685029,0,1,-39,2,3,9,73,75,145,130,66,193.61,230,13.00,-91.00,-1481.00
2024-05-17 17:18:17.689478,0,-3,-40,2,2,4,73,75,139,120,66,193.46,230,128.00,-24.00,-1192.00
2024-05-17 17:18:17.889638,0,-3,-42,1,2,1,73,75,136,120,66,193.46,230,-7.00,2.00,-1210.00
2024-05-17 17:18:17.894633,0,-1,-42,1,1,0,73,75,135,120,66,193.45,230,-38.00,40.00,-1083.00
2024-05-17 17:18:17.995417,0,-1,-42,1,1,0,73,75,135,120,66,193.45,230,37.00,-29.00,-1007.00
2024-05-17 17:18:18.197403,0,-1,-42,0,1,-1,73,75,136,120,66,193.46,231,33.00,-10.00,-977.00
2024-05-17 17:18:18.199361,0,-1,-42,0,0,-1,73,75,136,120,66,193.50,231,-35.00,43.00,-902.00
2024-05-17 17:18:18.301358,0,-1,-42,0,0,0,73,75,137,120,66,193.46,231,-31.00,17.00,-976.00
2024-05-17 17:18:18.404463,0,-2,-42,0,0,0,73,75,137,120,66,193.51,231,1.00,-6.00,-1049.00
2024-05-17 17:18:18.506766,0,-1,-42,0,0,0,73,75,136,120,66,193.44,231,18.00,-5.00,-934.00
2024-05-17 17:18:18.607333,0,0,-42,0,0,0,73,75,136,120,66,193.54,231,-43.00,16.00,-992.00
2024-05-17 17:18:18.810864,0,0,-42,0,0,0,73,75,136,120,66,193.51,231,11.00,-5.00,-1018.00
2024-05-17 17:18:18.811109,0,0,-42,0,0,0,73,75,136,120,66,193.46,231,13.00,5.00,-1029.00
2024-05-17 17:18:18.913739,0,0,-42,0,0,0,73,75,136,120,66,193.45,231,32.00,0.00,-1011.00
2024-05-17 17:18:19.015823,0,0,-42,0,0,0,73,75,136,120,66,193.41,231,-51.00,35.00,-963.00
2024-05-17 17:18:19.118731,0,-1,-42,0,0,0,73,75,136,120,66,193.47,232,59.00,-22.00,-977.00
2024-05-17 17:18:19.220144,0,0,-42,0,0,0,73,75,136,120,66,193.50,232,-24.00,33.00,-1040.00
2024-05-17 17:18:19.323064,0,-1,-42,0,0,0,73,75,136,120,66,193.43,232,-69.00,34.00,-938.00
2024-05-17 17:18:19.423512,0,-1,-42,0,0,0,73,75,136,120,66,193.48,232,31.00,6.00,-1008.00
2024-05-17 17:18:19.525618,0,0,-42,0,0,0,73,75,137,120,65,193.50,232,10.00,0.00,-981.00
2024-05-17 17:18:19.628067,0,0,-42,0,0,0,73,75,137,120,65,193.42,232,-31.00,39.00,-929.00
2024-05-17 17:18:19.732418,0,-1,-42,0,0,0,73,75,138,120,65,193.51,232,-83.00,49.00,-903.00
2024-05-17 17:18:19.834585,0,-1,-42,0,0,0,73,75,138,120,65,193.48,232,-12.00,20.00,-1003.00
2024-05-17 17:18:19.933314,0,-1,-42,0,0,0,73,75,138,120,65,193.44,232,61.00,-29.00,-1098.00
