TS,pitch,roll,yaw,vgx,vgy,vgz,templ,temph,tof,h,bat,baro,time,agx,agy,agz
2024-05-17 17:19:04.173667,0,0,-54,0,0,0,77,78,10,0,62,191.87,254,-2.00,-4.00,-1000.00
2024-05-17 17:19:04.255105,0,0,-54,0,0,0,77,78,10,0,62,191.84,254,-1.00,-3.00,-999.00
2024-05-17 17:19:04.357079,0,0,-54,0,0,0,77,78,10,0,62,191.85,254,0.00,-4.00,-1001.00
2024-05-17 17:19:04.480862,0,0,-54,0,0,0,77,78,10,0,62,191.81,254,-1.00,-3.00,-1002.00
2024-05-17 17:19:04.562860,0,0,-54,0,0,0,77,78,10,0,62,191.85,254,-1.00,-3.00,-998.00
2024-05-17 17:19:04.662958,0,0,-54,0,0,0,77,78,10,0,62,191.86,254,-2.00,-3.00,-999.00
2024-05-17 17:19:04.787813,0,0,-54,0,0,0,77,78,10,0,62,191.79,254,-1.00,-4.00,-1001.00
2024-05-17 17:19:04.867623,0,0,-54,0,0,0,77,78,10,0,62,191.86,254,-2.00,-3.00,-1000.00
2024-05-17 17:19:04.993834,0,0,-54,0,0,0,77,78,10,0,62,191.83,254,-1.00,-3.00,-999.00
2024-05-17 17:19:05.072711,0,0,-54,0,0,0,77,78,10,0,62,191.82,254,-2.00,-2.00,-999.00
2024-05-17 17:19:05.173731,0,0,-54,0,0,0,77,78,10,0,62,191.83,254,-1.00,-3.00,-998.00
2024-05-17 17:19:05.300031,0,0,-54,0,0,0,77,78,10,0,62,191.80,254,-1.00,-4.00,-1001.00
2024-05-17 17:19:05.377372,0,0,-54,0,0,0,77,78,10,0,62,191.87,254,-2.00,-3.00,-1001.00
2024-05-17 17:19:05.505125,0,0,-54,0,0,0,77,78,10,0,62,191.83,254,-1.00,-3.00,-998.00
2024-05-17 17:19:05.581097,0,0,-54,0,0,0,76,80,10,0,62,191.85,254,-1.00,-2.00,-1001.00
2024-05-17 17:19:05.709704,0,0,-54,0,0,0,76,80,10,0,62,191.82,254,-1.00,-2.00,-999.00
2024-05-17 17:19:05.789458,0,0,-54,0,0,0,76,80,10,0,62,191.83,254,0.00,-1.00,-1001.00
2024-05-17 17:19:05.887201,0,0,-54,0,0,0,76,80,10,0,62,191.83,254,-2.00,-4.00,-1000.00
2024-05-17 17:19:06.017021,0,0,-54,0,0,0,76,80,10,0,62,191.81,254,-2.00,-5.00,-998.00
2024-05-17 17:19:06.091147,0,0,-54,0,0,0,76,80,10,0,62,191.87,254,-1.00,-2.00,-999.00
2024-05-17 17:19:06.221672,0,0,-54,0,0,0,76,80,10,0,62,191.87,254,-2.00,-2.00,-1000.00
2024-05-17 17:19:06.295120,0,0,-54,0,0,0,76,80,10,0,62,191.83,254,-2.00,-3.00,-998.00
2024-05-17 17:19:06.427372,0,0,-54,0,0,0,76,80,10,0,62,191.87,254,-1.00,-3.00,-999.00
2024-05-17 17:19:06.499061,0,0,-54,0,0,0,76,80,10,0,62,191.81,254,-2.00,-2.00,-999.00
2024-05-17 17:19:06.631252,0,0,-54,0,0,0,77,79,10,0,62,191.88,254,-2.00,-1.00,-1001.00
2024-05-17 17:19:06.703029,0,0,-54,0,0,0,77,79,10,0,62,191.87,254,0.00,-3.00,-999.00
2024-05-17 17:19:06.835990,0,0,-54,0,0,0,77,79,10,0,62,191.88,254,-1.00,-3.00,-997.00
2024-05-17 17:19:06.907268,0,0,-54,0,0,0,77,79,10,0,62,191.84,254,0.00,-2.00,-1002.00
2024-05-17 17:19:06.957778,0,0,-54,0,0,0,77,79,10,0,62,191.85,254,-1.00,-3.00,-1000.00
2024-05-17 17:19:07.133499,0,0,-54,0,0,0,77,79,10,0,62,191.82,254,0.00,-2.00,-1000.00
2024-05-17 17:19:07.161661,0,0,-54,0,0,0,77,79,10,0,62,191.79,254,-2.00,-3.00,-1002.00
2024-05-17 17:19:07.348390,0,0,-54,0,0,0,77,79,10,0,62,191.79,254,-2.00,-7.00,-998.00
2024-05-17 17:19:07.365659,0,0,-54,0,0,0,77,79,10,0,62,191.79,254,1.00,-11.00,-996.00
2024-05-17 17:19:07.467762,0,0,-54,0,0,0,77,79,10,0,62,191.79,254,1.00,-50.00,-983.00
2024-05-17 17:19:07.655315,0,0,-53,0,0,0,77,79,10,0,62,191.79,254,22.00,0.00,-994.00
2024-05-17 17:19:07.671538,0,0,-51,0,0,0,77,79,10,0,62,191.79,254,63.00,-30.00,-1022.00
2024-05-17 17:19:07.860074,0,0,-50,0,0,0,77,79,10,0,62,191.79,254,-21.00,35.00,-979.00
2024-05-17 17:19:07.875620,0,0,-51,0,0,0,77,79,10,0,62,191.79,254,32.00,-34.00,-1203.00
2024-05-17 17:19:08.064731,0,0,-51,0,0,-2,77,79,10,0,62,191.79,254,45.00,-48.00,-1215.00
2024-05-17 17:19:08.079613,-1,0,-51,0,0,-5,77,79,12,0,62,191.94,254,-21.00,-5.00,-1153.00
2024-05-17 17:19:08.271425,0,0,-51,0,0,-6,77,79,23,0,62,192.23,254,7.00,-38.00,-1116.00
2024-05-17 17:19:08.283725,-1,0,-51,0,0,-7,77,79,33,0,62,192.30,255,24.00,0.00,-1050.00
2024-05-17 17:19:08.385579,0,1,-51,0,0,-7,77,79,42,10,62,192.38,255,66.00,-36.00,-1047.00
2024-05-17 17:19:08.576945,0,0,-51,0,0,-7,77,79,53,10,62,192.48,255,-73.00,40.00,-881.00
2024-05-17 17:19:08.589574,0,0,-51,0,0,-6,77,80,58,20,62,192.60,255,57.00,-52.00,-946.00
2024-05-17 17:19:08.786073,0,0,-51,0,0,-5,77,80,64,30,62,192.62,255,58.00,-14.00,-1063.00
2024-05-17 17:19:08.793585,0,0,-51,0,0,-4,77,80,72,30,62,192.70,255,-13.00,3.00,-889.00
2024-05-17 17:19:08.987447,0,0,-51,0,0,-3,77,80,78,40,62,192.79,255,19.00,-24.00,-869.00
2024-05-17 17:19:08.997540,0,0,-51,0,0,-2,77,80,84,40,62,192.78,255,-84.00,48.00,-844.00
2024-05-17 17:19:09.099593,0,1,-51,0,0,-1,77,80,87,40,62,192.89,255,84.00,-62.00,-898.00
2024-05-17 17:19:09.201888,0,0,-51,0,0,0,77,80,90,40,62,192.89,255,78.00,-61.00,-912.00
2024-05-17 17:19:09.396333,0,0,-51,0,0,0,77,80,92,50,62,193.02,256,-11.00,-2.00,-899.00
2024-05-17 17:19:09.406765,0,0,-51,0,0,0,77,80,92,50,62,192.94,256,37.00,-22.00,-1020.00
2024-05-17 17:19:09.600769,0,0,-51,0,0,0,77,80,92,50,62,192.90,256,3.00,-8.00,-973.00
2024-05-17 17:19:09.610708,0,0,-51,0,0,1,77,79,93,50,62,192.94,256,-34.00,26.00,-919.00
2024-05-17 17:19:09.712642,0,0,-51,0,0,1,77,79,92,50,62,192.91,256,56.00,-40.00,-1126.00
2024-05-17 17:19:09.814746,0,0,-51,0,0,0,77,79,92,50,62,192.98,256,-88.00,49.00,-943.00
2024-05-17 17:19:10.010180,0,0,-51,0,0,1,77,79,91,50,62,192.91,256,22.00,-9.00,-1009.00
2024-05-17 17:19:10.018709,0,0,-51,0,0,1,77,79,90,50,62,192.91,256,-44.00,39.00,-1002.00
2024-05-17 17:19:10.215132,0,0,-51,0,0,1,77,79,88,50,62,192.91,256,-40.00,8.00,-939.00
2024-05-17 17:19:10.222772,0,0,-51,0,0,1,77,79,87,50,62,192.94,256,21.00,-11.00,-1002.00
2024-05-17 17:19:10.421863,-1,0,-51,0,0,1,77,79,86,50,62,192.90,257,-15.00,-16.00,-960.00
2024-05-17 17:19:10.422203,-1,0,-51,0,0,1,77,79,85,50,62,192.90,257,44.00,-6.00,-1177.00
2024-05-17 17:19:10.477455,0,0,-51,0,0,0,77,79,83,50,62,192.86,257,11.00,8.00,-1007.00
2024-05-17 17:19:10.624656,0,0,-51,0,0,0,77,79,82,40,62,192.86,257,32.00,-21.00,-900.00
2024-05-17 17:19:10.681978,0,0,-51,0,0,0,77,79,81,40,62,192.82,257,33.00,1.00,-1056.00
2024-05-17 17:19:10.829458,0,0,-51,0,0,0,77,79,80,40,62,192.94,257,-3.00,24.00,-1017.00
2024-05-17 17:19:10.885444,0,0,-51,0,0,0,77,79,79,40,62,192.89,257,-42.00,22.00,-1098.00
2024-05-17 17:19:11.034410,0,0,-51,0,0,0,77,79,79,40,62,192.86,257,8.00,0.00,-1077.00
2024-05-17 17:19:11.089488,0,0,-51,0,0,0,77,79,79,40,62,192.87,257,9.00,15.00,-1105.00
2024-05-17 17:19:11.239173,-1,0,-51,0,0,0,77,79,77,40,62,192.86,257,-55.00,37.00,-1063.00
2024-05-17 17:19:11.298359,-1,0,-51,0,0,0,77,79,77,40,62,192.90,258,-16.00,19.00,-1030.00
2024-05-17 17:19:11.399267,-1,0,-51,0,0,0,77,79,76,40,62,192.90,258,-14.00,11.00,-958.00
2024-05-17 17:19:11.497410,-1,0,-51,0,0,0,77,79,77,40,62,192.91,258,78.00,-43.00,-1017.00
2024-05-17 17:19:11.648751,0,0,-51,0,0,0,76,78,75,40,62,192.89,258,13.00,-1.00,-1007.00
2024-05-17 17:19:11.701408,0,0,-51,0,0,0,76,78,76,40,62,192.89,258,-17.00,-17.00,-1013.00
2024-05-17 17:19:11.803443,-1,0,-51,0,0,0,76,78,77,40,62,192.89,258,-50.00,20.00,-1016.00
2024-05-17 17:19:11.955842,-1,0,-51,0,0,0,76,78,77,40,62,192.85,258,-19.00,15.00,-949.00
2024-05-17 17:19:12.007390,-1,0,-51,0,0,0,76,78,76,40,62,192.80,258,-16.00,19.00,-1122.00
2024-05-17 17:19:12.109320,-1,0,-51,0,0,0,76,78,77,40,62,192.86,258,66.00,-11.00,-875.00
2024-05-17 17:19:12.262988,-1,0,-51,0,0,0,76,78,77,40,62,192.83,258,-57.00,20.00,-1069.00
2024-05-17 17:19:12.313412,0,0,-51,0,0,0,76,78,76,40,62,192.86,259,2.00,-16.00,-1009.00
2024-05-17 17:19:12.467945,0,0,-51,0,0,0,76,78,77,40,62,192.83,259,-27.00,-6.00,-921.00
2024-05-17 17:19:12.517661,0,0,-51,0,0,0,76,78,78,40,62,192.85,259,9.00,4.00,-1007.00
2024-05-17 17:19:12.672717,-1,0,-51,0,0,0,77,79,78,40,62,192.86,259,46.00,-5.00,-952.00
2024-05-17 17:19:12.721485,-1,0,-51,0,0,0,77,79,78,40,62,192.90,259,-18.00,-19.00,-904.00
2024-05-17 17:19:12.877847,-1,0,-51,0,0,0,77,79,78,40,62,192.92,259,12.00,21.00,-998.00
2024-05-17 17:19:12.925425,-1,0,-51,0,0,0,77,79,78,40,62,192.90,259,30.00,-24.00,-1008.00
2024-05-17 17:19:13.082398,-1,0,-51,0,0,0,77,79,79,40,62,192.91,259,-80.00,59.00,-958.00
2024-05-17 17:19:13.130466,-1,0,-51,0,0,0,77,79,79,40,62,192.88,259,-9.00,14.00,-1014.00
2024-05-17 17:19:13.287190,-1,0,-51,0,0,0,77,79,78,40,62,192.97,259,16.00,30.00,-1062.00
2024-05-17 17:19:13.334084,-1,0,-51,0,0,0,77,79,78,40,62,192.90,260,32.00,-8.00,-979.00
2024-05-17 17:19:13.492133,-1,0,-51,0,0,0,77,79,78,40,62,192.88,260,-8.00,14.00,-1002.00
2024-05-17 17:19:13.537524,-1,0,-51,0,0,0,77,79,78,40,62,192.88,260,-46.00,60.00,-1016.00
2024-05-17 17:19:13.696827,-1,0,-51,0,0,0,76,79,78,40,62,192.88,260,65.00,-43.00,-1127.00
2024-05-17 17:19:13.741562,-1,0,-51,0,0,0,76,79,77,40,62,192.90,260,16.00,-5.00,-1004.00
2024-05-17 17:19:13.843294,-2,0,-51,0,0,0,76,79,77,40,62,192.94,260,-67.00,37.00,-881.00
2024-05-17 17:19:14.004441,-2,0,-51,0,0,0,76,79,76,40,62,192.85,260,41.00,-8.00,-988.00
2024-05-17 17:19:14.047265,-1,0,-51,0,0,0,76,79,75,40,62,192.82,260,-58.00,6.00,-921.00
2024-05-17 17:19:14.208713,-1,0,-51,0,0,0,76,79,74,40,62,192.89,260,-27.00,33.00,-956.00
2024-05-17 17:19:14.251377,-1,0,-51,0,0,0,76,79,74,40,62,192.84,261,-12.00,-5.00,-1051.00
2024-05-17 17:19:14.353358,-2,0,-51,0,0,0,76,79,73,40,62,192.85,261,-60.00,29.00,-955.00
2024-05-17 17:19:14.515774,-1,0,-51,0,0,0,76,79,72,40,62,192.85,261,-66.00,19.00,-954.00
2024-05-17 17:19:14.557191,-1,0,-51,0,0,0,76,79,72,40,62,192.85,261,43.00,-8.00,-1045.00
2024-05-17 17:19:14.721319,-1,0,-51,0,0,-1,75,78,72,40,62,192.81,261,-4.00,4.00,-1017.00
2024-05-17 17:19:14.721499,0,0,-51,0,0,-2,75,78,73,40,62,192.90,261,2.00,5.00,-1136.00
2024-05-17 17:19:14.815292,0,0,-51,0,0,-3,75,78,76,40,62,192.89,261,2.00,-7.00,-1058.00
2024-05-17 17:19:14.915705,-1,0,-51,0,0,-3,75,78,80,40,62,192.91,261,44.00,-21.00,-1099.00
2024-05-17 17:19:15.016803,-1,0,-51,0,0,-4,75,78,83,50,62,192.93,261,4.00,5.00,-1078.00
2024-05-17 17:19:15.118569,-1,0,-51,0,0,-4,75,78,88,50,62,193.00,261,2.00,-13.00,-1030.00
2024-05-17 17:19:15.232643,-1,0,-51,0,0,-5,75,78,93,60,62,193.04,262,-39.00,19.00,-992.00
2024-05-17 17:19:15.322872,-1,0,-51,0,0,-5,75,78,99,60,62,193.06,262,36.00,5.00,-944.00
2024-05-17 17:19:15.437530,-1,0,-51,0,0,-5,75,78,104,70,62,193.12,262,-27.00,32.00,-963.00
2024-05-17 17:19:15.529381,0,0,-51,0,0,-5,75,78,110,70,62,193.19,262,11.00,3.00,-1121.00
2024-05-17 17:19:15.630819,0,0,-51,0,0,-5,76,78,116,80,62,193.27,262,4.00,0.00,-1030.00
2024-05-17 17:19:15.730508,0,0,-51,0,0,-5,76,78,122,80,62,193.25,262,-54.00,19.00,-951.00
2024-05-17 17:19:15.832416,-1,0,-51,0,0,-4,76,78,127,90,62,193.39,262,11.00,-14.00,-901.00
2024-05-17 17:19:15.951166,-1,0,-51,0,0,-4,76,78,132,90,62,193.42,262,70.00,-18.00,-1070.00
2024-05-17 17:19:16.036532,-1,0,-51,0,0,-4,76,78,137,100,62,193.41,262,6.00,36.00,-964.00
2024-05-17 17:19:16.154698,-2,0,-51,0,0,-4,76,78,141,100,62,193.45,262,42.00,-11.00,-974.00
2024-05-17 17:19:16.240419,-2,0,-51,0,0,-3,76,78,147,110,62,193.53,263,46.00,-42.00,-941.00
2024-05-17 17:19:16.359201,-1,0,-51,0,0,-3,76,78,150,110,62,193.55,263,-10.00,6.00,-975.00
2024-05-17 17:19:16.444414,-1,0,-51,0,0,-3,76,78,154,110,62,193.60,263,-18.00,52.00,-912.00
2024-05-17 17:19:16.564209,-1,0,-51,0,0,-2,76,78,157,120,62,193.59,263,26.00,34.00,-1004.00
2024-05-17 17:19:16.650577,-1,0,-51,0,0,-2,76,77,162,120,62,193.65,263,62.00,-30.00,-989.00
2024-05-17 17:19:16.750460,-1,0,-51,0,0,-2,76,77,164,120,62,193.62,263,-99.00,80.00,-927.00
2024-05-17 17:19:16.871007,-1,0,-51,0,0,-1,76,77,166,120,62,193.68,263,-4.00,-3.00,-998.00
2024-05-17 17:19:16.954509,-1,0,-51,0,0,-1,76,77,168,130,62,193.70,263,91.00,-89.00,-1044.00
2024-05-17 17:19:17.084934,-1,0,-51,0,0,-1,76,77,170,130,62,193.70,263,53.00,-27.00,-1030.00
2024-05-17 17:19:17.158321,-1,0,-51,0,0,-1,76,77,170,130,62,193.73,263,-12.00,23.00,-1007.00
2024-05-17 17:19:17.281031,-1,0,-51,0,0,-1,76,77,172,130,62,193.71,264,-8.00,-25.00,-953.00
2024-05-17 17:19:17.362914,-1,0,-51,0,0,-1,76,77,174,130,62,193.73,264,-59.00,37.00,-935.00
2024-05-17 17:19:17.488256,-1,0,-51,0,0,0,76,77,174,130,62,193.76,264,11.00,25.00,-988.00
2024-05-17 17:19:17.566384,0,0,-51,0,0,0,76,77,174,130,62,193.82,264,37.00,16.00,-1039.00
2024-05-17 17:19:17.691009,-1,0,-51,0,0,0,76,77,175,130,62,193.76,264,34.00,-20.00,-1002.00
2024-05-17 17:19:17.771230,-1,0,-51,0,0,0,76,77,175,130,62,193.83,264,8.00,25.00,-924.00
2024-05-17 17:19:17.895849,0,0,-51,0,0,0,76,77,175,130,62,193.78,264,-3.00,32.00,-965.00
2024-05-17 17:19:17.976362,0,0,-51,0,0,0,76,77,175,130,62,193.73,264,-9.00,18.00,-961.00
2024-05-17 17:19:18.076802,-1,0,-51,0,0,0,76,77,176,130,62,193.76,264,-70.00,61.00,-902.00
2024-05-17 17:19:18.207357,-1,0,-51,0,0,0,76,77,177,130,62,193.77,264,-16.00,23.00,-1001.00
2024-05-17 17:19:18.280592,-1,0,-51,0,0,0,76,77,177,130,62,193.80,265,52.00,-22.00,-966.00
2024-05-17 17:19:18.382438,-1,0,-51,0,0,0,76,77,177,140,62,193.84,265,54.00,-14.00,-976.00
2024-05-17 17:19:18.433162,-1,0,-51,0,0,0,76,77,177,140,62,193.86,265,-17.00,13.00,-931.00
2024-05-17 17:19:18.612888,-1,0,-51,0,0,0,76,77,178,140,62,193.83,265,13.00,9.00,-972.00
2024-05-17 17:19:18.637071,-1,0,-51,0,0,0,75,77,179,140,62,193.89,265,75.00,-28.00,-1085.00
2024-05-17 17:19:18.817374,-1,0,-51,0,0,0,75,77,180,140,62,193.87,265,-19.00,10.00,-989.00
2024-05-17 17:19:18.841079,-1,0,-51,0,0,0,75,77,179,140,62,193.84,265,7.00,18.00,-1043.00
2024-05-17 17:19:19.022562,-1,0,-51,0,0,0,75,77,180,140,62,193.80,265,73.00,-47.00,-1040.00
2024-05-17 17:19:19.045574,-1,0,-51,0,0,0,75,77,180,140,62,193.81,265,0.00,2.00,-1007.00
2024-05-17 17:19:19.226494,-1,0,-51,0,0,0,75,77,180,140,62,193.87,265,22.00,-20.00,-946.00
2024-05-17 17:19:19.249442,-1,0,-51,0,0,0,75,77,180,140,62,193.82,266,-10.00,6.00,-977.00
2024-05-17 17:19:19.351524,-1,0,-51,0,0,0,75,77,180,140,62,193.83,266,-22.00,45.00,-1023.00
2024-05-17 17:19:19.535950,-1,0,-51,0,0,0,75,77,181,140,62,193.79,266,-13.00,2.00,-944.00
2024-05-17 17:19:19.558892,-1,0,-51,0,0,0,75,77,181,140,62,193.82,266,85.00,-51.00,-994.00
2024-05-17 17:19:19.657042,-1,0,-51,0,0,1,75,77,180,140,62,193.81,266,-16.00,19.00,-919.00
2024-05-17 17:19:19.842564,-2,0,-51,0,0,1,75,77,178,140,62,193.76,266,18.00,-25.00,-1055.00
2024-05-17 17:19:19.860909,-2,0,-51,0,0,1,75,77,177,140,62,193.78,266,-66.00,48.00,-999.00
2024-05-17 17:19:20.047917,-2,0,-51,0,0,2,75,77,175,130,62,193.74,266,28.00,-21.00,-940.00
2024-05-17 17:19:20.065670,-1,0,-51,0,0,2,75,77,172,130,62,193.73,266,11.00,-42.00,-950.00
2024-05-17 17:19:20.250158,-2,0,-51,0,0,2,75,77,169,130,62,193.71,266,-42.00,49.00,-1003.00
2024-05-17 17:19:20.268915,-2,0,-51,0,0,2,75,77,166,130,62,193.70,267,-7.00,3.00,-1093.00
2024-05-17 17:19:20.457936,-1,0,-51,0,0,2,75,77,164,120,62,193.71,267,-15.00,1.00,-960.00
2024-05-17 17:19:20.474251,-1,0,-51,0,0,2,75,77,161,120,62,193.61,267,-9.00,8.00,-950.00
2024-05-17 17:19:20.576234,-1,0,-51,0,0,2,75,77,159,120,62,193.56,267,-48.00,46.00,-964.00
2024-05-17 17:19:20.764708,-1,0,-51,0,0,2,75,77,156,120,62,193.53,267,-93.00,71.00,-1009.00
2024-05-17 17:19:20.781830,-1,0,-51,0,0,2,75,77,153,110,62,193.54,267,-35.00,0.00,-952.00
2024-05-17 17:19:20.882339,-1,0,-51,0,0,2,75,77,150,110,62,193.54,267,2.00,20.00,-1046.00
2024-05-17 17:19:21.071484,-1,0,-51,0,0,2,75,77,148,110,62,193.49,267,-14.00,4.00,-1039.00
2024-05-17 17:19:21.086270,-2,0,-51,0,0,2,75,77,145,110,62,193.49,267,-28.00,18.00,-953.00
2024-05-17 17:19:21.188922,-2,0,-51,0,0,2,75,77,143,100,62,193.42,267,15.00,-8.00,-979.00
2024-05-17 17:19:21.376550,-1,0,-51,0,0,1,75,77,141,100,62,193.51,268,68.00,-31.00,-929.00
2024-05-17 17:19:21.392122,-1,0,-51,0,0,1,75,77,138,100,62,193.42,268,-18.00,2.00,-988.00
2024-05-17 17:19:21.581354,-1,0,-51,0,0,1,75,77,137,100,62,193.37,268,3.00,-30.00,-1016.00
2024-05-17 17:19:21.596182,-1,0,-51,0,0,1,75,77,136,100,62,193.36,268,14.00,-21.00,-1023.00
2024-05-17 17:19:21.786175,-2,0,-51,0,0,1,75,77,134,100,62,193.38,268,-75.00,47.00,-1022.00
2024-05-17 17:19:21.799811,-1,0,-51,0,0,1,75,77,133,90,62,193.42,268,-18.00,6.00,-997.00
2024-05-17 17:19:21.991142,-2,0,-51,0,0,1,75,77,132,90,62,193.39,268,4.00,-5.00,-1024.00
2024-05-17 17:19:22.006651,-2,0,-51,0,0,0,75,77,131,90,62,193.37,268,0.00,7.00,-995.00
2024-05-17 17:19:22.106666,-2,0,-51,0,0,0,75,77,131,90,62,193.43,268,83.00,-19.00,-1041.00
2024-05-17 17:19:22.298202,-2,0,-51,0,0,0,75,77,131,90,62,193.33,268,-33.00,32.00,-1061.00
2024-05-17 17:19:22.310094,-2,0,-51,0,0,0,75,77,131,90,62,193.33,269,-123.00,67.00,-995.00
2024-05-17 17:19:22.412453,-2,0,-51,0,0,0,75,77,131,90,62,193.41,269,61.00,-9.00,-1028.00
2024-05-17 17:19:22.605525,-2,0,-51,0,0,0,75,77,132,90,62,193.43,269,-11.00,55.00,-999.00
2024-05-17 17:19:22.605716,-2,0,-51,0,0,0,75,77,132,90,62,193.39,269,-45.00,25.00,-987.00
2024-05-17 17:19:22.718245,-2,0,-51,0,0,0,75,77,133,90,62,193.37,269,31.00,-36.00,-946.00
2024-05-17 17:19:22.819932,-2,0,-51,0,0,0,75,77,133,90,62,193.38,269,19.00,-34.00,-903.00
2024-05-17 17:19:22.922470,-2,0,-51,0,0,0,75,77,133,90,62,193.31,269,9.00,-28.00,-931.00
2024-05-17 17:19:22.973328,-2,0,-51,0,0,0,75,77,133,90,62,193.32,269,2.00,39.00,-1089.00
2024-05-17 17:19:23.121411,-2,0,-51,0,0,0,75,77,134,90,62,193.31,269,-68.00,38.00,-942.00
2024-05-17 17:19:23.176924,-1,0,-51,0,0,0,75,77,134,90,62,193.38,269,-48.00,40.00,-921.00
2024-05-17 17:19:23.322824,-1,0,-51,0,0,0,75,77,134,90,62,193.35,270,-24.00,7.00,-1017.00
2024-05-17 17:19:23.381194,-1,0,-51,0,0,0,75,77,135,90,62,193.40,270,-39.00,32.00,-923.00
2024-05-17 17:19:23.527200,-2,0,-51,0,0,0,75,77,135,90,62,193.31,270,-6.00,-9.00,-988.00
2024-05-17 17:19:23.584892,-2,0,-51,0,0,0,75,77,135,90,62,193.41,270,-3.00,-3.00,-951.00
2024-05-17 17:19:23.733543,-2,0,-51,0,0,0,75,77,135,90,62,193.40,270,53.00,-61.00,-1137.00
2024-05-17 17:19:23.789767,-1,0,-51,0,0,0,75,77,135,90,62,193.41,270,-10.00,3.00,-1051.00
2024-05-17 17:19:23.893848,-2,0,-51,0,0,0,75,77,135,90,62,193.42,270,-2.00,7.00,-1026.00
2024-05-17 17:19:23.994273,-1,0,-51,0,0,0,75,77,135,90,62,193.32,270,76.00,-25.00,-998.00
2024-05-17 17:19:24.142868,-5,0,-51,0,0,0,75,77,136,90,62,193.38,270,32.00,-10.00,-1010.00
2024-05-17 17:19:24.198067,-8,0,-51,1,-1,0,75,77,137,90,62,193.41,270,-58.00,30.00,-977.00
2024-05-17 17:19:24.346109,-8,0,-51,1,-2,0,75,77,137,90,62,193.41,271,-26.00,14.00,-1137.00
2024-05-17 17:19:24.406038,-8,0,-51,2,-3,0,75,77,137,90,62,193.38,271,-70.00,57.00,-883.00
2024-05-17 17:19:24.503990,-8,0,-51,3,-4,0,75,77,136,90,62,193.28,271,-25.00,-20.00,-1114.00
2024-05-17 17:19:24.653298,-8,0,-51,3,-4,0,75,77,136,90,62,193.27,271,-107.00,68.00,-997.00
2024-05-17 17:19:24.707672,-8,0,-51,4,-5,0,74,77,134,90,62,193.23,271,12.00,-26.00,-881.00
2024-05-17 17:19:24.858099,-7,0,-51,4,-5,0,74,77,132,90,62,193.38,271,-35.00,3.00,-1056.00
2024-05-17 17:19:24.911960,-5,0,-51,4,-6,0,74,77,132,90,62,193.26,271,-40.00,-6.00,-1082.00
2024-05-17 17:19:25.063942,-2,0,-51,4,-6,0,74,77,131,90,62,193.20,271,-54.00,53.00,-873.00
2024-05-17 17:19:25.116005,0,0,-51,4,-5,0,74,77,132,90,62,193.31,271,-37.00,18.00,-969.00
2024-05-17 17:19:25.267622,2,0,-51,4,-4,0,74,77,131,90,62,193.27,271,-6.00,-34.00,-984.00
2024-05-17 17:19:25.319567,3,0,-51,3,-3,0,74,77,130,90,62,193.35,272,-129.00,13.00,-1007.00
2024-05-17 17:19:25.422108,1,0,-51,2,-3,0,74,77,129,90,62,193.35,272,-2.00,-7.00,-942.00
2024-05-17 17:19:25.575256,0,0,-51,2,-2,0,74,77,128,90,62,193.27,272,-22.00,7.00,-1028.00
2024-05-17 17:19:25.626867,0,0,-51,1,-2,0,74,77,127,90,62,193.37,272,-156.00,68.00,-911.00
2024-05-17 17:19:25.779742,-1,0,-51,1,-2,0,76,77,127,90,62,193.35,272,42.00,-31.00,-1118.00
2024-05-17 17:19:25.830009,-1,0,-51,1,-2,0,76,77,126,90,62,193.27,272,-72.00,55.00,-1057.00
2024-05-17 17:19:25.984499,-1,0,-51,1,-1,0,76,77,126,90,62,193.26,272,17.00,-3.00,-1027.00
2024-05-17 17:19:26.033931,-1,0,-51,2,-1,0,76,77,126,90,62,193.28,272,-67.00,31.00,-985.00
2024-05-17 17:19:26.189302,-2,-1,-51,1,-1,0,76,77,127,90,62,193.24,272,-24.00,37.00,-1113.00
2024-05-17 17:19:26.237950,-2,-1,-51,1,-1,0,76,77,127,90,62,193.32,272,2.00,-11.00,-1015.00
2024-05-17 17:19:26.395156,-2,-1,-51,1,-1,0,76,77,127,90,62,193.32,273,68.00,-8.00,-1032.00
2024-05-17 17:19:26.441900,-3,0,-51,1,-1,0,76,77,128,90,62,193.37,273,49.00,-21.00,-1017.00
2024-05-17 17:19:26.600726,-2,0,-51,1,-1,0,76,77,129,90,62,193.37,273,-10.00,-15.00,-1012.00
2024-05-17 17:19:26.646533,-2,0,-51,1,-1,0,76,77,129,90,62,193.37,273,114.00,-53.00,-1024.00
2024-05-17 17:19:26.803770,-2,0,-51,1,-1,0,74,76,129,90,62,193.40,273,63.00,-28.00,-1088.00
2024-05-17 17:19:26.851793,-2,-1,-51,1,-1,0,74,76,130,90,62,193.35,273,-19.00,18.00,-1008.00
2024-05-17 17:19:26.951766,-1,-2,-51,1,-1,0,74,76,130,90,62,193.40,273,-17.00,31.00,-962.00
2024-05-17 17:19:27.057988,0,-3,-51,0,-1,0,74,76,130,90,62,193.29,273,-36.00,6.00,-965.00
2024-05-17 17:19:27.155899,3,1,-51,0,-1,0,74,76,131,90,62,193.30,273,-106.00,79.00,-874.00
2024-05-17 17:19:27.206518,1,1,-51,0,0,0,74,76,132,90,62,193.33,274,48.00,-40.00,-1062.00
2024-05-17 17:19:27.315721,-1,2,-51,0,0,0,74,76,131,90,62,193.31,274,-26.00,3.00,-998.00
2024-05-17 17:19:27.410930,-3,3,-51,0,0,0,74,76,130,90,62,193.28,274,-22.00,25.00,-967.00
2024-05-17 17:19:27.524294,-3,1,-51,1,0,0,74,76,132,90,62,193.36,274,-15.00,22.00,-958.00
2024-05-17 17:19:27.614605,0,-1,-51,1,0,0,74,76,131,90,62,193.40,274,77.00,14.00,-990.00
2024-05-17 17:19:27.725302,0,-4,-51,1,0,0,74,77,131,90,62,193.38,274,-6.00,-9.00,-1015.00
2024-05-17 17:19:27.818521,-2,-3,-51,0,-1,0,74,77,130,90,62,193.34,274,-7.00,5.00,-961.00
2024-05-17 17:19:27.920727,0,0,-51,0,-1,0,74,77,132,90,62,193.38,274,-7.00,15.00,-972.00
2024-05-17 17:19:28.032616,1,2,-51,0,-1,0,74,77,134,90,62,193.37,274,8.00,19.00,-1074.00
2024-05-17 17:19:28.124716,0,1,-51,0,0,0,74,77,133,90,62,193.41,274,-19.00,0.00,-974.00
2024-05-17 17:19:28.237810,0,0,-51,0,0,0,74,77,133,90,62,193.34,275,29.00,8.00,-1004.00
2024-05-17 17:19:28.328995,-1,0,-51,0,0,0,74,77,130,90,62,193.36,275,19.00,-14.00,-1022.00
2024-05-17 17:19:28.430784,-1,0,-51,0,0,0,74,77,131,90,62,193.38,275,-69.00,17.00,-1054.00
2024-05-17 17:19:28.544549,-1,-1,-51,0,0,0,74,77,130,90,62,193.38,275,-19.00,17.00,-1007.00
2024-05-17 17:19:28.634697,-1,-1,-51,0,0,0,74,77,130,90,62,193.36,275,22.00,21.00,-1001.00
2024-05-17 17:19:28.736696,-1,0,-51,0,0,0,75,76,130,90,62,193.37,275,-113.00,52.00,-936.00
2024-05-17 17:19:28.847292,-1,0,-51,0,0,0,75,76,128,90,62,193.33,275,-17.00,38.00,-1087.00
2024-05-17 17:19:28.940515,-1,0,-51,0,0,0,75,76,127,90,62,193.35,275,82.00,6.00,-1060.00
2024-05-17 17:19:29.056596,-1,0,-51,0,0,0,75,76,128,90,62,193.32,275,5.00,25.00,-1048.00
2024-05-17 17:19:29.144605,-1,0,-51,0,0,0,75,76,127,90,62,193.33,275,61.00,8.00,-1034.00
2024-05-17 17:19:29.261986,-1,0,-51,0,0,0,75,76,127,90,62,193.37,276,66.00,14.00,-1011.00
2024-05-17 17:19:29.348665,-1,0,-51,0,0,0,75,76,127,90,62,193.29,276,30.00,-8.00,-975.00
2024-05-17 17:19:29.453093,-1,0,-51,0,0,0,75,76,127,90,62,193.35,276,-46.00,41.00,-1023.00
2024-05-17 17:19:29.552747,0,0,-51,0,0,0,75,76,127,90,62,193.27,276,108.00,-70.00,-1099.00
2024-05-17 17:19:29.671139,0,0,-51,0,0,0,75,76,127,90,62,193.29,276,2.00,21.00,-1078.00
2024-05-17 17:19:29.756670,0,0,-51,0,0,0,74,76,127,90,62,193.39,276,7.00,-32.00,-1025.00
2024-05-17 17:19:29.873075,0,0,-51,0,0,0,74,76,127,90,62,193.35,276,-7.00,20.00,-1036.00
2024-05-17 17:19:29.961589,-1,0,-51,0,0,0,74,76,127,90,62,193.32,276,-4.00,7.00,-968.00
2024-05-17 17:19:30.080477,1,0,-51,0,0,0,74,76,129,90,62,193.34,276,-9.00,13.00,-876.00
2024-05-17 17:19:30.165449,7,0,-51,0,0,0,74,76,130,90,62,193.32,276,16.00,-50.00,-953.00
2024-05-17 17:19:30.285282,8,0,-51,-1,1,0,74,76,130,90,62,193.39,277,81.00,-48.00,-1222.00
2024-05-17 17:19:30.369415,8,0,-51,-2,3,0,74,76,131,90,62,193.36,277,16.00,25.00,-1132.00
2024-05-17 17:19:30.490057,6,0,-51,-3,4,0,74,76,130,90,62,193.38,277,-8.00,-4.00,-1024.00
2024-05-17 17:19:30.574313,5,0,-51,-3,4,0,74,76,128,90,62,193.38,277,-30.00,26.00,-972.00
2024-05-17 17:19:30.695176,4,0,-51,-4,5,0,74,76,129,90,62,193.38,277,51.00,-2.00,-1032.00
2024-05-17 17:19:30.777403,4,0,-51,-4,5,0,74,76,130,90,62,193.41,277,115.00,-61.00,-1092.00
2024-05-17 17:19:30.900285,2,0,-51,-4,5,0,74,76,131,90,62,193.32,277,69.00,15.00,-1063.00
2024-05-17 17:19:30.981791,0,0,-51,-4,5,0,74,76,130,90,62,193.34,277,86.00,19.00,-927.00
2024-05-17 17:19:31.104426,-3,0,-51,-3,4,0,74,76,130,90,62,193.42,277,59.00,10.00,-1002.00
2024-05-17 17:19:31.185704,-4,0,-51,-3,4,0,74,76,131,90,62,193.41,277,43.00,-35.00,-1040.00
2024-05-17 17:19:31.236771,-3,0,-51,-2,3,0,74,76,131,90,62,193.35,278,23.00,14.00,-956.00
2024-05-17 17:19:31.411555,-2,0,-51,-2,2,0,74,76,133,90,62,193.44,278,49.00,-8.00,-1056.00
2024-05-17 17:19:31.440931,-1,1,-51,-2,2,0,74,76,133,90,62,193.45,278,68.00,-17.00,-929.00
2024-05-17 17:19:31.543965,0,1,-51,-2,2,0,74,76,134,90,61,193.41,278,12.00,-21.00,-1002.00
2024-05-17 17:19:31.645775,0,1,-51,-1,2,0,74,76,133,90,61,193.37,278,50.00,-22.00,-970.00
2024-05-17 17:19:31.821250,0,1,-50,-1,2,0,75,77,134,90,61,193.47,278,-29.00,14.00,-941.00
2024-05-17 17:19:31.848375,-1,0,-50,-1,2,0,75,77,132,90,61,193.47,278,48.00,-32.00,-996.00
2024-05-17 17:19:32.026055,-1,1,-50,-1,2,0,75,77,132,90,61,193.42,278,49.00,-27.00,-962.00
2024-05-17 17:19:32.052353,-2,3,-50,-1,2,0,75,77,132,90,61,193.46,278,-66.00,58.00,-961.00
2024-05-17 17:19:32.230814,-5,-1,-50,0,2,0,75,77,132,90,61,193.48,278,58.00,-45.00,-930.00
2024-05-17 17:19:32.257224,-3,-1,-50,0,0,0,75,77,132,90,61,193.44,279,-80.00,32.00,-980.00
2024-05-17 17:19:32.358512,-1,0,-51,0,0,0,75,77,131,90,61,193.38,279,64.00,-52.00,-1028.00
2024-05-17 17:19:32.460427,-1,0,-51,0,0,0,75,77,132,90,61,193.39,279,33.00,-21.00,-1073.00
2024-05-17 17:19:32.641353,0,1,-51,0,0,0,75,77,132,90,61,193.36,279,26.00,-24.00,-1042.00
2024-05-17 17:19:32.664411,-1,0,-51,0,0,0,75,77,133,90,61,193.43,279,-5.00,18.00,-973.00
2024-05-17 17:19:32.845795,-2,0,-51,0,0,0,75,77,133,90,61,193.47,279,82.00,-44.00,-1002.00
2024-05-17 17:19:32.869129,-2,0,-51,0,0,0,75,77,133,90,61,193.46,279,-3.00,24.00,-961.00
2024-05-17 17:19:33.050286,-2,0,-51,0,0,0,75,77,133,90,61,193.37,279,-26.00,0.00,-1060.00
2024-05-17 17:19:33.074091,-2,0,-51,0,0,0,75,77,133,90,61,193.43,279,5.00,-12.00,-1016.00
2024-05-17 17:19:33.174591,-2,0,-51,0,0,0,75,77,133,90,61,193.48,279,10.00,-18.00,-942.00
2024-05-17 17:19:33.276398,-2,0,-51,0,0,0,75,77,134,90,61,193.39,280,14.00,-19.00,-992.00
2024-05-17 17:19:33.459739,-1,0,-51,0,0,0,75,77,135,90,61,193.41,280,-56.00,6.00,-925.00
2024-05-17 17:19:33.480355,-2,0,-51,0,0,0,75,77,135,90,61,193.39,280,45.00,-44.00,-1040.00
2024-05-17 17:19:33.665000,-2,0,-51,0,0,0,75,77,135,90,61,193.40,280,-35.00,0.00,-973.00
2024-05-17 17:19:33.684315,-1,0,-51,0,0,0,75,77,135,90,61,193.36,280,-19.00,2.00,-951.00
2024-05-17 17:19:33.872643,-1,0,-51,0,0,0,75,76,134,90,61,193.44,280,-5.00,-20.00,-914.00
2024-05-17 17:19:33.888332,0,0,-51,0,0,0,75,76,134,90,61,193.41,280,-49.00,34.00,-993.00
2024-05-17 17:19:34.074508,0,0,-51,0,0,0,75,76,134,90,61,193.37,280,38.00,-33.00,-1038.00
2024-05-17 17:19:34.092456,-1,0,-51,0,0,0,75,76,134,90,61,193.35,280,-50.00,26.00,-1006.00
2024-05-17 17:19:34.262732,-1,0,-51,0,0,0,75,76,132,90,61,193.38,280,33.00,-51.00,-993.00
2024-05-17 17:19:34.296236,-1,0,-51,0,0,0,75,76,131,90,61,193.30,281,12.00,-11.00,-981.00
2024-05-17 17:19:34.483628,-1,0,-51,0,0,0,75,76,130,90,61,193.36,281,-94.00,49.00,-909.00
2024-05-17 17:19:34.500401,0,-4,-51,0,0,0,75,76,129,90,60,193.37,281,-88.00,39.00,-1036.00
2024-05-17 17:19:34.688414,0,-8,-51,0,0,0,75,76,132,90,60,193.32,281,-10.00,-6.00,-1106.00
2024-05-17 17:19:34.705105,-1,-6,-51,-2,-1,0,75,76,130,90,60,193.30,281,0.00,16.00,-1070.00
2024-05-17 17:19:34.893188,-1,-3,-51,-3,-2,0,75,76,129,90,60,193.37,281,-46.00,19.00,-1020.00
2024-05-17 17:19:34.911533,-1,0,-51,-3,-2,0,75,76,129,90,60,193.36,281,70.00,-35.00,-1016.00
2024-05-17 17:19:35.010509,0,1,-51,-2,-2,0,75,76,129,90,60,193.34,281,31.00,6.00,-1009.00
2024-05-17 17:19:35.200660,0,1,-51,-2,-2,0,75,76,130,90,60,193.39,281,-32.00,9.00,-885.00
2024-05-17 17:19:35.214230,0,0,-51,-1,-1,0,75,76,130,90,60,193.42,281,-29.00,28.00,-960.00
2024-05-17 17:19:35.405573,0,0,-51,-1,-1,0,75,76,129,90,60,193.39,282,13.00,-3.00,-997.00
2024-05-17 17:19:35.405628,0,-1,-51,-1,-1,0,75,76,129,90,60,193.39,282,-7.00,-18.00,-1041.00
2024-05-17 17:19:35.469013,0,-1,-51,-1,-1,0,75,76,129,90,60,193.35,282,55.00,-28.00,-1022.00
2024-05-17 17:19:35.609970,0,0,-51,-2,-1,0,75,76,129,90,60,193.39,282,-1.00,38.00,-1077.00
2024-05-17 17:19:35.673252,-1,0,-51,-2,-1,0,75,76,129,90,60,193.35,282,12.00,-1.00,-992.00
2024-05-17 17:19:35.815195,-1,0,-50,-1,-1,0,74,76,128,90,60,193.35,282,-37.00,63.00,-1019.00
2024-05-17 17:19:35.877105,-1,0,-50,-1,-1,0,74,76,128,90,60,193.36,282,-45.00,75.00,-1036.00
2024-05-17 17:19:36.019564,0,-1,-50,-1,-1,0,74,76,128,90,60,193.47,282,19.00,-2.00,-976.00
2024-05-17 17:19:36.081240,0,0,-50,-1,-1,0,74,76,127,90,60,193.48,282,2.00,-17.00,-910.00
2024-05-17 17:19:36.226293,1,0,-50,-2,-1,0,74,76,130,90,60,193.53,282,-25.00,13.00,-1032.00
2024-05-17 17:19:36.285417,0,4,-50,-2,-1,0,74,76,128,90,60,193.43,283,-28.00,75.00,-969.00
2024-05-17 17:19:36.429603,-1,5,-50,-1,0,0,74,76,128,90,60,193.48,283,36.00,-15.00,-1080.00
2024-05-17 17:19:36.491237,-1,2,-50,0,0,0,74,76,128,90,60,193.49,283,0.00,-21.00,-1015.00
2024-05-17 17:19:36.634024,-1,1,-50,0,0,0,74,76,128,90,60,193.37,283,13.00,-22.00,-1085.00
2024-05-17 17:19:36.693248,0,0,-50,0,0,0,74,76,129,90,60,193.36,283,-38.00,10.00,-977.00
2024-05-17 17:19:36.795363,0,1,-50,0,0,0,75,75,130,90,60,193.53,283,17.00,-46.00,-999.00
2024-05-17 17:19:36.941501,0,1,-51,0,0,0,75,75,130,90,60,193.36,283,55.00,-40.00,-1058.00
2024-05-17 17:19:36.999208,0,1,-51,0,0,0,75,75,130,90,60,193.46,283,-1.00,-10.00,-972.00
2024-05-17 17:19:37.146419,0,1,-51,0,0,0,75,75,130,90,60,193.36,283,15.00,-51.00,-931.00
2024-05-17 17:19:37.208557,0,1,-51,0,0,0,75,75,128,90,60,193.38,283,79.00,-54.00,-940.00
2024-05-17 17:19:37.305295,0,1,-50,0,0,0,75,75,129,90,60,193.43,284,4.00,-13.00,-983.00
2024-05-17 17:19:37.454106,0,0,-51,0,0,0,75,75,129,90,60,193.33,284,7.00,-37.00,-984.00
2024-05-17 17:19:37.522793,-1,0,-51,0,0,0,75,75,129,90,60,193.43,284,-59.00,15.00,-1039.00
2024-05-17 17:19:37.611468,-1,0,-51,0,0,0,75,75,129,90,60,193.34,284,-65.00,11.00,-980.00
2024-05-17 17:19:37.763881,-1,0,-51,0,0,0,75,75,130,90,60,193.39,284,27.00,-43.00,-1062.00
2024-05-17 17:19:37.819803,-1,0,-51,0,0,0,73,76,128,90,60,193.33,284,15.00,-18.00,-982.00
2024-05-17 17:19:37.917431,0,0,-51,0,0,0,73,76,128,90,60,193.38,284,-5.00,-36.00,-978.00
2024-05-17 17:19:38.068980,-1,0,-51,0,0,0,73,76,129,90,60,193.31,284,1.00,-31.00,-950.00
2024-05-17 17:19:38.123497,-1,0,-51,0,0,0,73,76,129,90,60,193.35,284,-42.00,-28.00,-932.00
2024-05-17 17:19:38.223702,-1,0,-51,0,0,0,73,76,127,90,60,193.31,284,-25.00,-8.00,-933.00
2024-05-17 17:19:38.374974,-2,0,-51,0,0,0,73,76,127,90,60,193.27,285,8.00,-15.00,-999.00
2024-05-17 17:19:38.427477,-1,0,-51,0,0,0,73,76,129,90,60,193.33,285,2.00,-33.00,-951.00
2024-05-17 17:19:38.531080,-2,0,-51,0,0,0,73,76,128,90,59,193.24,285,50.00,-31.00,-1072.00
2024-05-17 17:19:38.631525,-1,0,-51,0,0,0,73,76,127,90,59,193.26,285,-34.00,-28.00,-1013.00
2024-05-17 17:19:38.733092,0,7,-51,0,0,0,73,76,129,90,59,193.31,285,-25.00,12.00,-978.00
2024-05-17 17:19:38.886698,0,9,-51,1,0,0,74,76,129,90,59,193.36,285,61.00,-35.00,-1119.00
2024-05-17 17:19:38.937574,0,6,-51,2,1,0,74,76,129,90,59,193.40,285,87.00,-78.00,-1083.00
2024-05-17 17:19:39.092813,0,4,-51,3,2,0,74,76,130,90,59,193.35,285,-41.00,-3.00,-1038.00
2024-05-17 17:19:39.092944,-1,0,-51,3,2,0,74,76,130,90,59,193.35,285,-33.00,-21.00,-968.00
2024-05-17 17:19:39.194523,-1,-1,-51,2,2,0,74,76,130,90,59,193.37,285,-49.00,-22.00,-964.00
2024-05-17 17:19:39.293944,-1,0,-51,2,1,0,74,76,131,90,59,193.34,286,2.00,-44.00,-933.00
2024-05-17 17:19:39.400293,0,0,-51,1,1,0,74,76,131,90,59,193.39,286,75.00,-90.00,-1006.00
2024-05-17 17:19:39.502761,0,1,-51,1,1,0,74,76,131,90,59,193.42,286,-113.00,2.00,-967.00
2024-05-17 17:19:39.606957,-1,1,-51,1,1,0,74,76,131,90,59,193.39,286,-57.00,-8.00,-975.00
2024-05-17 17:19:39.701901,-2,1,-51,1,2,0,74,76,132,90,59,193.40,286,-32.00,-28.00,-976.00
2024-05-17 17:19:39.817719,-3,0,-51,2,2,0,74,76,131,90,59,193.41,286,-20.00,-43.00,-1032.00
2024-05-17 17:19:39.905961,-3,0,-51,2,1,0,74,76,130,90,59,193.33,286,-79.00,17.00,-889.00
2024-05-17 17:19:40.014086,-3,0,-51,2,1,0,74,76,130,90,59,193.34,286,-33.00,2.00,-916.00
2024-05-17 17:19:40.118471,-3,0,-51,2,0,0,74,76,129,90,59,193.41,286,96.00,-59.00,-1035.00
2024-05-17 17:19:40.212181,0,-3,-51,2,0,0,74,76,129,90,59,193.38,286,37.00,-28.00,-1080.00
2024-05-17 17:19:40.320460,0,-4,-51,1,0,0,74,76,129,90,59,193.35,287,4.00,-7.00,-973.00
2024-05-17 17:19:40.416316,0,-1,-51,0,0,0,74,76,126,90,59,193.35,287,-19.00,8.00,-1017.00
2024-05-17 17:19:40.526173,0,0,-51,0,0,0,74,76,125,90,59,193.37,287,-13.00,4.00,-981.00
2024-05-17 17:19:40.619933,-1,0,-51,0,0,0,74,76,126,90,59,193.30,287,11.00,-18.00,-970.00
2024-05-17 17:19:40.730530,-1,0,-51,0,0,0,74,76,124,90,59,193.33,287,-43.00,11.00,-909.00
2024-05-17 17:19:40.824218,0,-1,-51,0,0,0,74,76,123,90,59,193.37,287,-34.00,-17.00,-984.00
2024-05-17 17:19:40.935549,0,-1,-51,0,0,0,74,76,123,90,59,193.36,287,18.00,-29.00,-1100.00
2024-05-17 17:19:41.027975,0,-1,-51,0,0,0,74,76,122,90,59,193.30,287,-9.00,-3.00,-960.00
2024-05-17 17:19:41.140084,0,0,-51,0,0,0,74,76,121,90,59,193.29,287,-27.00,29.00,-1027.00
2024-05-17 17:19:41.231928,0,0,-51,0,0,0,74,76,120,90,59,193.33,288,77.00,-21.00,-1007.00
2024-05-17 17:19:41.335154,0,0,-51,0,0,0,74,76,120,90,59,193.25,288,20.00,-14.00,-982.00
2024-05-17 17:19:41.437362,0,0,-51,0,0,0,74,76,119,80,59,193.25,288,-5.00,-52.00,-1058.00
2024-05-17 17:19:41.549196,0,0,-51,0,0,0,74,76,119,80,58,193.24,288,-70.00,-4.00,-886.00
2024-05-17 17:19:41.640721,-1,0,-51,0,0,0,74,76,120,80,58,193.26,288,31.00,-8.00,-1055.00
2024-05-17 17:19:41.754029,-1,0,-51,0,0,0,74,76,120,80,58,193.27,288,-42.00,33.00,-1089.00
2024-05-17 17:19:41.843839,-1,0,-51,0,0,0,74,77,120,80,58,193.30,288,20.00,-13.00,-991.00
2024-05-17 17:19:41.958844,-1,0,-51,0,0,0,74,77,121,80,58,193.36,288,-41.00,18.00,-966.00
2024-05-17 17:19:42.054298,-1,0,-51,0,0,0,74,77,121,80,58,193.28,288,-18.00,30.00,-1086.00
2024-05-17 17:19:42.150063,-1,0,-51,0,0,0,74,77,122,90,58,193.28,288,-64.00,1.00,-981.00
2024-05-17 17:19:42.251967,-1,0,-51,0,0,0,74,77,123,90,58,193.31,289,20.00,-34.00,-1044.00
2024-05-17 17:19:42.353781,-1,0,-51,0,0,0,74,77,123,90,58,193.37,289,-120.00,37.00,-993.00
2024-05-17 17:19:42.455813,-1,0,-50,0,0,0,74,77,123,90,58,193.33,289,-47.00,20.00,-1017.00
2024-05-17 17:19:42.573071,-1,0,-44,0,0,0,74,77,124,90,58,193.32,289,29.00,0.00,-1048.00
2024-05-17 17:19:42.608736,-1,0,-38,0,0,0,74,77,124,90,58,193.28,289,-87.00,74.00,-1045.00
2024-05-17 17:19:42.777853,-1,-1,-33,0,0,0,74,77,124,90,58,193.33,289,29.00,-13.00,-1003.00
2024-05-17 17:19:42.863679,0,0,-26,0,0,0,73,76,124,90,58,193.44,289,-27.00,-28.00,-1046.00
2024-05-17 17:19:42.915825,0,0,-20,0,0,0,73,76,124,90,58,193.41,289,-7.00,9.00,-1022.00
2024-05-17 17:19:43.087649,0,0,-14,0,0,0,73,76,125,90,58,193.34,289,-21.00,8.00,-955.00
2024-05-17 17:19:43.118745,0,0,-8,0,0,0,73,76,125,90,58,193.34,289,-38.00,19.00,-1093.00
2024-05-17 17:19:43.294388,-1,0,-2,0,0,0,73,76,126,90,58,193.36,290,-100.00,97.00,-861.00
2024-05-17 17:19:43.323799,-1,-1,4,0,0,0,73,76,127,90,58,193.30,290,14.00,-18.00,-981.00
2024-05-17 17:19:43.496241,-1,0,10,0,0,0,73,76,128,90,58,193.31,290,-101.00,55.00,-888.00
2024-05-17 17:19:43.530294,-1,0,16,0,0,0,73,76,129,90,58,193.31,290,-32.00,14.00,-1055.00
2024-05-17 17:19:43.630237,-1,0,22,0,0,0,73,76,130,90,58,193.37,290,-32.00,10.00,-928.00
2024-05-17 17:19:43.730678,-1,0,29,0,0,0,73,76,130,90,58,193.40,290,10.00,-26.00,-1053.00
2024-05-17 17:19:43.832668,-1,0,35,0,0,0,75,76,131,90,58,193.39,290,-54.00,30.00,-985.00
2024-05-17 17:19:44.008979,-1,0,42,0,0,0,75,76,131,90,58,193.43,290,-89.00,71.00,-955.00
2024-05-17 17:19:44.036644,-1,0,48,0,0,0,75,76,131,90,58,193.42,290,-49.00,41.00,-1005.00
2024-05-17 17:19:44.139678,0,0,55,0,0,0,75,76,133,90,58,193.47,290,-35.00,13.00,-950.00
2024-05-17 17:19:44.240727,0,0,61,0,0,0,75,76,134,90,58,193.43,291,-12.00,-4.00,-958.00
2024-05-17 17:19:44.417206,0,0,67,0,0,0,75,76,136,90,58,193.41,291,57.00,-56.00,-1019.00
2024-05-17 17:19:44.445299,0,0,73,0,0,0,75,76,136,90,58,193.42,291,-11.00,7.00,-1043.00
2024-05-17 17:19:44.547123,0,0,79,0,0,0,75,76,135,90,57,193.34,291,-22.00,42.00,-977.00
2024-05-17 17:19:44.648680,0,0,85,0,0,0,75,76,134,90,57,193.36,291,9.00,14.00,-1071.00
2024-05-17 17:19:44.825797,0,0,91,0,0,0,75,76,135,90,57,193.45,291,79.00,-22.00,-1036.00
2024-05-17 17:19:44.852962,0,0,97,0,0,0,74,77,135,90,57,193.35,291,-20.00,9.00,-1022.00
2024-05-17 17:19:45.030635,0,0,104,0,0,0,74,77,134,90,57,193.42,291,14.00,-26.00,-936.00
2024-05-17 17:19:45.056631,0,0,110,0,0,0,74,77,135,90,57,193.40,291,-2.00,6.00,-1011.00
2024-05-17 17:19:45.235608,0,0,116,0,0,0,74,77,135,90,57,193.42,291,39.00,-3.00,-1019.00
2024-05-17 17:19:45.260745,0,0,122,0,0,0,74,77,135,90,57,193.40,292,-1.00,1.00,-923.00
2024-05-17 17:19:45.440226,0,0,128,0,0,0,74,77,135,90,57,193.40,292,2.00,-1.00,-986.00
2024-05-17 17:19:45.464516,1,1,134,0,0,0,74,77,135,90,57,193.37,292,49.00,-6.00,-981.00
2024-05-17 17:19:45.645012,1,1,140,0,0,0,74,77,135,90,57,193.43,292,-87.00,64.00,-915.00
2024-05-17 17:19:45.668511,0,0,146,0,0,0,74,77,134,90,57,193.42,292,25.00,7.00,-929.00
2024-05-17 17:19:45.851871,0,0,152,0,0,0,74,77,134,90,57,193.42,292,-22.00,29.00,-971.00
2024-05-17 17:19:45.874367,0,0,158,0,0,0,74,76,134,90,57,193.36,292,27.00,20.00,-911.00
2024-05-17 17:19:45.974708,0,0,164,0,0,0,74,76,134,90,57,193.38,292,-17.00,21.00,-946.00
2024-05-17 17:19:46.157022,0,0,170,0,0,0,74,76,134,90,57,193.32,292,53.00,-17.00,-990.00
2024-05-17 17:19:46.178966,0,0,176,0,0,0,74,76,134,90,57,193.45,292,47.00,-16.00,-1062.00
2024-05-17 17:19:46.280536,0,1,-177,0,0,0,74,76,135,90,57,193.43,293,-80.00,52.00,-954.00
2024-05-17 17:19:46.464271,0,1,-171,0,0,0,74,76,135,90,57,193.41,293,5.00,1.00,-992.00
2024-05-17 17:19:46.484834,0,1,-165,0,0,0,74,76,135,90,57,193.36,293,28.00,-16.00,-1014.00
2024-05-17 17:19:46.535780,0,1,-159,0,0,0,74,76,135,90,57,193.38,293,-13.00,21.00,-1042.00
2024-05-17 17:19:46.637922,0,1,-153,0,0,0,74,76,136,90,57,193.39,293,-56.00,16.00,-927.00
2024-05-17 17:19:46.771437,0,1,-147,0,0,0,74,76,137,90,57,193.35,293,-92.00,73.00,-966.00
2024-05-17 17:19:46.893070,0,1,-140,0,0,0,74,76,138,90,57,193.42,293,44.00,-23.00,-1017.00
2024-05-17 17:19:47.078815,0,1,-134,0,0,0,74,76,137,90,57,193.42,293,-31.00,22.00,-985.00
2024-05-17 17:19:47.105273,0,1,-128,0,0,0,74,76,138,90,57,193.40,293,24.00,-44.00,-974.00
2024-05-17 17:19:47.198671,0,1,-122,0,0,0,74,76,140,90,57,193.33,293,-11.00,1.00,-1098.00
2024-05-17 17:19:47.252303,0,1,-116,0,0,0,74,76,138,90,57,193.45,294,83.00,-66.00,-1047.00
2024-05-17 17:19:47.353473,0,1,-110,0,0,0,74,76,140,90,57,193.34,294,39.00,-36.00,-1107.00
2024-05-17 17:19:47.455806,0,1,-104,0,0,0,74,76,139,90,57,193.42,294,6.00,-14.00,-1027.00
2024-05-17 17:19:47.555527,0,0,-98,0,0,0,74,76,137,90,57,193.38,294,-16.00,23.00,-1016.00
2024-05-17 17:19:47.693047,0,0,-92,0,0,0,74,76,137,90,57,193.37,294,-51.00,36.00,-970.00
2024-05-17 17:19:47.760309,0,0,-86,0,0,0,74,76,137,90,57,193.45,294,-5.00,-17.00,-937.00
2024-05-17 17:19:47.900597,0,1,-81,0,0,0,74,76,137,90,57,193.34,294,17.00,-20.00,-994.00
2024-05-17 17:19:47.967190,0,1,-75,0,0,0,74,76,136,90,57,193.39,294,-20.00,5.00,-919.00
2024-05-17 17:19:48.068187,-1,0,-70,0,0,0,74,76,135,90,57,193.44,294,-20.00,-7.00,-975.00
2024-05-17 17:19:48.168425,0,0,-66,0,0,0,74,76,134,90,57,193.45,294,26.00,-4.00,-984.00
2024-05-17 17:19:48.313099,0,0,-63,0,0,0,74,76,134,90,57,193.36,295,8.00,25.00,-1000.00
2024-05-17 17:19:48.372436,0,0,-61,0,0,0,74,76,134,90,57,193.40,295,-99.00,20.00,-913.00
2024-05-17 17:19:48.474402,0,0,-59,0,0,0,74,76,134,90,57,193.36,295,41.00,-15.00,-1093.00
2024-05-17 17:19:48.614449,0,0,-57,0,0,0,74,76,133,90,57,193.44,295,-88.00,-26.00,-975.00
2024-05-17 17:19:48.678407,0,0,-56,0,0,0,74,76,132,90,57,193.39,295,7.00,-6.00,-1060.00
2024-05-17 17:19:48.819341,0,0,-55,0,0,0,74,76,132,90,57,193.40,295,57.00,-32.00,-968.00
2024-05-17 17:19:48.882434,0,0,-54,0,0,0,75,76,132,90,57,193.40,295,-2.00,6.00,-1036.00
2024-05-17 17:19:49.025496,0,0,-54,0,0,0,75,76,132,90,57,193.36,295,0.00,-3.00,-993.00
2024-05-17 17:19:49.086489,0,1,-53,0,0,0,75,76,132,90,57,193.36,295,69.00,-29.00,-1115.00
2024-05-17 17:19:49.231106,0,1,-53,0,0,0,75,76,131,90,57,193.41,295,24.00,4.00,-916.00
2024-05-17 17:19:49.290391,0,0,-53,0,0,0,75,76,130,90,57,193.34,296,-25.00,-2.00,-992.00
2024-05-17 17:19:49.435611,0,0,-53,0,0,0,75,76,130,90,57,193.38,296,38.00,-7.00,-1075.00
2024-05-17 17:19:49.495867,0,0,-53,0,0,0,75,76,129,90,57,193.32,296,-91.00,15.00,-1025.00
2024-05-17 17:19:49.596673,0,0,-53,0,0,0,75,76,129,90,57,193.32,296,19.00,-14.00,-1029.00
2024-05-17 17:19:49.698397,0,0,-53,0,0,0,75,76,128,90,57,193.29,296,89.00,-41.00,-1059.00
2024-05-17 17:19:49.800425,0,0,-53,0,0,0,75,76,128,90,57,193.29,296,-28.00,25.00,-994.00
2024-05-17 17:19:49.946310,0,0,-52,0,0,0,74,75,128,90,57,193.28,296,31.00,-35.00,-1039.00
2024-05-17 17:19:50.004447,0,0,-52,0,0,0,74,75,128,90,57,193.33,296,-16.00,-20.00,-943.00
2024-05-17 17:19:50.150737,0,0,-52,0,0,0,74,75,128,90,57,193.29,296,19.00,-28.00,-988.00
2024-05-17 17:19:50.208444,0,0,-52,0,0,0,74,75,128,90,57,193.30,296,24.00,-56.00,-1008.00
2024-05-17 17:19:50.365685,0,1,-52,0,0,0,74,75,128,90,57,193.35,297,-60.00,10.00,-963.00
2024-05-17 17:19:50.419302,0,1,-52,0,0,0,74,75,129,90,57,193.41,297,-42.00,-16.00,-1040.00
2024-05-17 17:19:50.517645,-1,0,-52,0,0,0,74,75,129,90,57,193.35,297,18.00,-15.00,-1046.00
2024-05-17 17:19:50.616416,-1,0,-53,0,0,0,74,75,128,90,57,193.29,297,26.00,-30.00,-909.00
2024-05-17 17:19:50.765280,-1,0,-53,0,0,0,74,75,129,90,57,193.38,297,54.00,-51.00,-1073.00
2024-05-17 17:19:50.769527,0,0,-53,0,0,0,74,75,131,90,57,193.34,297,-31.00,-24.00,-992.00
2024-05-17 17:19:50.871676,0,0,-53,0,0,0,74,76,131,90,57,193.34,297,-19.00,-11.00,-979.00
2024-05-17 17:19:50.973557,0,0,-53,0,0,0,74,76,132,90,57,193.37,297,-19.00,-32.00,-1013.00
2024-05-17 17:19:51.075447,0,0,-53,0,0,0,74,76,133,90,57,193.40,297,4.00,-31.00,-971.00
2024-05-17 17:19:51.177494,-1,0,-53,0,0,0,74,76,133,90,57,193.35,297,9.00,-5.00,-1052.00
2024-05-17 17:19:51.279299,-1,0,-53,0,0,0,74,76,134,90,57,193.32,298,-3.00,-21.00,-1045.00
2024-05-17 17:19:51.381313,-1,0,-53,0,0,0,74,76,136,90,57,193.38,298,-75.00,22.00,-975.00
2024-05-17 17:19:51.483306,0,1,-59,0,0,0,74,76,137,90,57,193.37,298,-36.00,14.00,-968.00
2024-05-17 17:19:51.686587,0,1,-64,0,0,0,74,76,138,90,57,193.33,298,-13.00,10.00,-1054.00
2024-05-17 17:19:51.690794,0,0,-70,0,0,0,74,76,137,90,57,193.41,298,28.00,-54.00,-876.00
2024-05-17 17:19:51.789640,0,1,-76,0,0,0,74,76,136,100,57,193.37,298,-31.00,0.00,-961.00
2024-05-17 17:19:51.891620,0,0,-82,0,0,0,74,76,137,100,57,193.42,298,24.00,-52.00,-1025.00
2024-05-17 17:19:51.993871,0,0,-88,0,0,0,74,76,137,100,57,193.34,298,-79.00,30.00,-927.00
2024-05-17 17:19:52.096416,0,0,-94,0,0,0,74,76,136,100,57,193.44,298,48.00,-22.00,-980.00
2024-05-17 17:19:52.198554,0,0,-100,0,0,0,74,76,135,100,57,193.38,298,-5.00,16.00,-991.00
2024-05-17 17:19:52.301281,0,0,-105,0,0,0,74,76,135,100,57,193.39,299,11.00,-7.00,-1011.00
2024-05-17 17:19:52.401210,0,0,-111,0,0,0,74,76,136,100,57,193.43,299,65.00,-44.00,-965.00
2024-05-17 17:19:52.503237,1,-1,-117,0,0,0,74,76,136,100,56,193.41,299,-73.00,60.00,-969.00
2024-05-17 17:19:52.608164,1,-1,-123,0,0,0,74,76,136,90,56,193.44,299,41.00,5.00,-1010.00
2024-05-17 17:19:52.707184,0,-1,-129,0,0,0,74,76,135,90,56,193.47,299,31.00,-12.00,-924.00
2024-05-17 17:19:52.812982,1,-1,-134,0,0,0,74,76,134,90,56,193.38,299,30.00,-37.00,-1003.00
2024-05-17 17:19:52.911296,0,0,-140,0,0,0,73,76,134,90,56,193.40,299,94.00,-21.00,-1104.00
2024-05-17 17:19:53.017833,1,0,-145,0,0,0,73,76,133,90,56,193.43,299,43.00,-31.00,-995.00
2024-05-17 17:19:53.115223,1,0,-151,0,0,0,73,76,133,90,56,193.37,299,-24.00,28.00,-966.00
2024-05-17 17:19:53.222553,1,0,-156,0,0,0,73,76,132,90,56,193.44,299,-15.00,14.00,-984.00
2024-05-17 17:19:53.319624,1,0,-162,0,0,0,73,76,131,90,56,193.39,300,-27.00,38.00,-1026.00
2024-05-17 17:19:53.428257,0,-1,-167,0,0,0,73,76,130,90,56,193.36,300,20.00,4.00,-1041.00
2024-05-17 17:19:53.523176,0,-1,-173,0,0,0,73,76,130,90,56,193.42,300,-12.00,36.00,-984.00
2024-05-17 17:19:53.632133,0,-1,-178,0,0,0,73,76,130,90,56,193.46,300,47.00,-28.00,-1045.00
2024-05-17 17:19:53.727152,0,0,175,0,0,0,73,76,129,90,56,193.40,300,23.00,-3.00,-1037.00
2024-05-17 17:19:53.829299,0,0,170,0,0,0,73,76,130,90,56,193.44,300,33.00,32.00,-979.00
2024-05-17 17:19:53.939240,1,0,164,0,0,0,74,77,131,90,56,193.35,300,-68.00,66.00,-1043.00
2024-05-17 17:19:54.035053,1,0,159,0,0,0,74,77,131,90,56,193.43,300,6.00,8.00,-1012.00
2024-05-17 17:19:54.135102,0,0,153,0,0,0,74,77,131,90,56,193.39,300,-25.00,32.00,-976.00
2024-05-17 17:19:54.246639,0,-1,147,0,0,0,74,77,131,90,56,193.39,300,28.00,15.00,-1068.00
2024-05-17 17:19:54.339109,0,-1,141,0,0,0,74,77,132,90,56,193.44,301,52.00,6.00,-1020.00
2024-05-17 17:19:54.451285,0,-1,135,0,0,0,74,77,132,90,56,193.34,301,-36.00,23.00,-944.00
2024-05-17 17:19:54.543073,0,-1,129,0,0,0,74,77,132,90,56,193.28,301,-11.00,21.00,-980.00
2024-05-17 17:19:54.656135,0,-1,124,0,0,0,74,77,132,90,56,193.36,301,32.00,-8.00,-996.00
2024-05-17 17:19:54.754344,0,-1,113,0,0,0,74,77,132,90,56,193.42,301,-2.00,19.00,-995.00
2024-05-17 17:19:54.849315,0,-1,107,0,0,0,74,77,131,90,56,193.40,301,-30.00,68.00,-991.00
2024-05-17 17:19:54.963677,0,0,102,0,0,0,74,77,129,90,56,193.39,301,-18.00,10.00,-1054.00
2024-05-17 17:19:55.053081,0,-1,96,0,0,0,74,77,128,90,56,193.32,301,-12.00,38.00,-1030.00
2024-05-17 17:19:55.168210,0,-1,90,0,0,0,74,77,128,90,56,193.34,301,-51.00,25.00,-1020.00
2024-05-17 17:19:55.206361,0,-1,85,0,0,0,74,77,128,90,56,193.31,302,-15.00,-19.00,-1014.00
2024-05-17 17:19:55.308039,0,-1,79,0,0,0,74,77,127,90,56,193.34,302,-63.00,68.00,-1022.00
2024-05-17 17:19:55.476157,0,-1,74,0,0,0,74,77,127,90,56,193.34,302,-13.00,33.00,-1058.00
2024-05-17 17:19:55.512214,0,0,68,0,0,0,74,77,127,90,55,193.32,302,-37.00,29.00,-1006.00
2024-05-17 17:19:55.680909,0,0,62,0,0,0,74,77,126,90,55,193.25,302,-29.00,50.00,-1025.00
2024-05-17 17:19:55.716067,0,0,56,0,0,0,74,77,126,90,55,193.31,302,-66.00,43.00,-951.00
2024-05-17 17:19:55.818056,0,0,50,0,0,0,74,77,126,90,55,193.28,302,-5.00,1.00,-962.00
2024-05-17 17:19:55.987578,0,0,44,0,0,0,73,76,127,90,55,193.27,302,-1.00,5.00,-1006.00
2024-05-17 17:19:56.022089,0,0,38,0,0,0,73,76,127,90,55,193.26,302,-11.00,-22.00,-1004.00
2024-05-17 17:19:56.192204,0,-1,32,0,0,0,73,76,127,90,55,193.29,302,13.00,-23.00,-995.00
2024-05-17 17:19:56.227913,0,-1,25,0,0,0,73,76,128,90,55,193.31,303,-26.00,11.00,-1097.00
2024-05-17 17:19:56.328272,-1,0,19,0,0,0,73,76,129,90,55,193.24,303,-66.00,19.00,-1003.00
2024-05-17 17:19:56.499355,-1,0,13,0,0,0,73,76,129,90,55,193.32,303,61.00,-53.00,-1000.00
2024-05-17 17:19:56.532064,0,0,6,0,0,0,73,76,130,90,55,193.30,303,-52.00,7.00,-958.00
2024-05-17 17:19:56.704674,0,0,0,0,0,0,73,76,131,90,55,193.29,303,17.00,-4.00,-1002.00
2024-05-17 17:19:56.736042,-1,-1,-5,0,0,0,73,76,131,90,55,193.32,303,-23.00,23.00,-1041.00
2024-05-17 17:19:56.911790,-1,-1,-12,0,0,0,73,76,132,90,55,193.32,303,51.00,-34.00,-978.00
2024-05-17 17:19:56.940019,-1,-1,-18,0,0,0,73,76,133,90,55,193.28,303,-9.00,40.00,-1064.00
2024-05-17 17:19:57.113732,-1,-1,-24,0,0,0,73,76,133,90,55,193.31,303,-23.00,12.00,-963.00
2024-05-17 17:19:57.144432,0,0,-31,0,0,0,73,76,133,90,55,193.32,303,-81.00,50.00,-887.00
2024-05-17 17:19:57.318612,0,0,-36,0,0,0,73,76,133,90,55,193.28,304,-38.00,8.00,-970.00
2024-05-17 17:19:57.348119,0,0,-41,0,0,0,73,76,134,90,55,193.35,304,10.00,8.00,-1051.00
2024-05-17 17:19:57.532341,0,-1,-44,0,0,0,73,76,134,90,55,193.30,304,32.00,-52.00,-972.00
2024-05-17 17:19:57.563699,0,-1,-47,0,0,0,73,76,136,90,55,193.37,304,-104.00,76.00,-850.00
2024-05-17 17:19:57.654012,0,-1,-49,0,0,0,73,76,137,100,55,193.39,304,-35.00,10.00,-972.00
2024-05-17 17:19:57.831588,0,-1,-50,0,0,0,73,76,137,100,55,193.32,304,34.00,-25.00,-906.00
2024-05-17 17:19:57.858006,0,-1,-51,0,0,0,73,76,137,100,55,193.38,304,-49.00,20.00,-999.00
2024-05-17 17:19:58.035489,0,-1,-52,0,0,0,74,76,136,100,55,193.34,304,-109.00,55.00,-1047.00
2024-05-17 17:19:58.062138,0,-1,-52,0,0,0,74,76,136,100,55,193.35,304,3.00,6.00,-1018.00
2024-05-17 17:19:58.240351,0,0,-53,0,0,0,74,76,136,100,55,193.33,304,-30.00,0.00,-1074.00
2024-05-17 17:19:58.266099,0,0,-53,0,0,0,74,76,135,100,55,193.36,305,8.00,-15.00,-983.00
2024-05-17 17:19:58.445456,0,0,-54,0,0,0,74,76,135,100,55,193.32,305,70.00,-43.00,-974.00
2024-05-17 17:19:58.470036,0,0,-54,0,0,0,74,76,134,90,55,193.37,305,-69.00,11.00,-993.00
2024-05-17 17:19:58.572571,0,0,-55,0,0,0,74,76,133,90,55,193.36,305,-149.00,91.00,-929.00
2024-05-17 17:19:58.756664,0,0,-55,0,0,0,74,76,132,90,55,193.33,305,69.00,-26.00,-938.00
2024-05-17 17:19:58.776187,0,0,-55,0,0,0,74,76,132,90,55,193.37,305,14.00,-13.00,-980.00
2024-05-17 17:19:58.960949,0,0,-55,0,0,0,74,76,131,90,55,193.31,305,35.00,-9.00,-1032.00
2024-05-17 17:19:58.980065,0,0,-55,0,0,0,73,76,131,90,55,193.28,305,119.00,-73.00,-1125.00
2024-05-17 17:19:59.031064,0,0,-55,0,0,0,73,76,130,90,55,193.37,305,6.00,5.00,-998.00
2024-05-17 17:19:59.166250,0,0,-55,0,0,0,73,76,130,90,55,193.38,305,-100.00,57.00,-995.00
2024-05-17 17:19:59.235074,0,0,-55,0,0,0,73,76,130,90,55,193.28,306,21.00,-19.00,-919.00
2024-05-17 17:19:59.368277,0,0,-55,0,0,0,73,76,130,90,55,193.35,306,-36.00,23.00,-1029.00
2024-05-17 17:19:59.439445,0,0,-55,0,0,0,73,76,130,90,55,193.30,306,105.00,-61.00,-1062.00
2024-05-17 17:19:59.541054,0,0,-55,0,0,0,73,76,130,90,55,193.26,306,-16.00,-4.00,-963.00
2024-05-17 17:19:59.674252,0,0,-55,0,0,0,73,76,131,90,55,193.26,306,21.00,4.00,-1011.00
2024-05-17 17:19:59.745193,0,0,-55,0,0,0,73,76,132,90,55,193.32,306,-41.00,-5.00,-935.00
2024-05-17 17:19:59.851528,0,0,-55,0,0,0,73,76,131,90,55,193.31,306,-11.00,-11.00,-1039.00
2024-05-17 17:19:59.948931,0,0,-55,0,0,0,73,76,132,90,55,193.41,306,-116.00,94.00,-885.00
2024-05-17 17:20:00.086133,0,0,-55,0,0,-4,73,76,135,90,55,193.42,306,34.00,-6.00,-1517.00
2024-05-17 17:20:00.154468,0,-9,-55,0,0,-10,73,76,150,100,55,193.47,306,-55.00,45.00,-1391.00
2024-05-17 17:20:00.254989,0,-97,-55,-4,-2,-10,73,76,281,110,55,193.66,307,49.00,470.00,-962.00
2024-05-17 17:20:00.356822,1,137,-54,-8,-5,3,73,76,292,120,55,193.59,307,-71.00,605.00,-939.00
2024-05-17 17:20:00.459104,1,25,-57,-3,-2,13,73,76,152,110,55,193.83,307,62.00,364.00,-1244.00
2024-05-17 17:20:00.595265,1,-6,-56,-3,-1,11,73,76,134,100,54,193.24,307,-45.00,-159.00,-1575.00
2024-05-17 17:20:00.663066,-1,2,-53,-3,-1,7,73,76,123,90,54,193.32,307,56.00,47.00,-1485.00
2024-05-17 17:20:00.801169,0,4,-54,-2,-1,3,73,76,118,80,54,193.25,307,76.00,-21.00,-1326.00
2024-05-17 17:20:00.866808,0,2,-55,-1,-1,0,73,76,115,80,54,193.23,307,81.00,-16.00,-1143.00
2024-05-17 17:20:01.004870,1,1,-55,-1,-1,0,73,76,117,80,54,193.12,307,10.00,32.00,-1109.00
2024-05-17 17:20:01.072160,0,0,-55,0,0,-2,73,76,116,80,54,193.14,307,68.00,-32.00,-1053.00
2024-05-17 17:20:01.172713,0,0,-55,0,0,-2,73,76,117,80,54,193.15,307,-9.00,-45.00,-946.00
2024-05-17 17:20:01.312056,0,0,-55,0,0,-2,73,76,119,80,54,193.12,308,9.00,4.00,-851.00
2024-05-17 17:20:01.376754,0,1,-55,0,0,-1,73,76,122,80,54,193.14,308,-11.00,38.00,-1007.00
2024-05-17 17:20:01.516842,0,2,-55,0,0,-1,73,76,124,90,54,193.12,308,-74.00,25.00,-876.00
2024-05-17 17:20:01.580850,-1,0,-55,0,0,0,73,76,122,90,54,193.21,308,-64.00,50.00,-873.00
2024-05-17 17:20:01.724839,0,0,-55,0,0,0,73,76,122,90,54,193.20,308,8.00,24.00,-921.00
2024-05-17 17:20:01.791571,0,0,-55,0,0,0,73,76,122,90,54,193.20,308,14.00,-17.00,-1077.00
2024-05-17 17:20:01.887295,0,0,-55,0,0,0,73,76,122,90,54,193.11,308,-7.00,-1.00,-1034.00
2024-05-17 17:20:02.036385,0,1,-55,0,0,0,73,76,122,90,54,193.24,308,-1.00,-7.00,-954.00
2024-05-17 17:20:02.090783,0,1,-55,0,0,0,73,76,122,90,54,193.17,308,9.00,5.00,-947.00
2024-05-17 17:20:02.192805,0,1,-55,0,0,0,73,76,121,90,54,193.19,308,32.00,-17.00,-996.00
2024-05-17 17:20:02.336089,0,0,-55,0,0,0,73,76,121,90,54,193.21,309,-20.00,29.00,-1053.00
2024-05-17 17:20:02.397586,0,0,-55,0,0,0,73,76,121,90,54,193.14,309,33.00,-14.00,-968.00
2024-05-17 17:20:02.542785,0,0,-55,0,0,0,73,76,121,90,54,193.15,309,67.00,-31.00,-1103.00
2024-05-17 17:20:02.550727,0,0,-55,0,0,0,73,76,123,80,54,193.22,309,11.00,-29.00,-1023.00
2024-05-17 17:20:02.745739,1,1,-55,0,0,0,73,76,123,80,54,193.17,309,11.00,8.00,-1037.00
2024-05-17 17:20:02.760151,0,1,-55,0,0,0,73,76,123,80,54,193.21,309,30.00,-7.00,-979.00
2024-05-17 17:20:02.857243,0,0,-55,0,0,0,73,76,124,90,54,193.14,309,19.00,-28.00,-951.00
2024-05-17 17:20:03.052920,0,0,-55,0,0,0,73,75,124,90,54,193.18,309,63.00,-55.00,-1041.00
2024-05-17 17:20:03.069211,0,0,-55,0,0,0,73,75,123,90,54,193.23,309,-4.00,19.00,-1042.00
2024-05-17 17:20:03.169173,0,0,-55,0,0,0,73,75,123,90,54,193.25,309,7.00,9.00,-999.00
2024-05-17 17:20:03.269596,0,0,-55,0,0,0,73,75,122,80,54,193.23,310,8.00,-25.00,-908.00
2024-05-17 17:20:03.370755,0,0,-55,0,0,0,73,75,122,80,54,193.20,310,-43.00,13.00,-1047.00
2024-05-17 17:20:03.468883,0,0,-55,0,0,0,73,75,122,80,54,193.23,310,6.00,-25.00,-916.00
2024-05-17 17:20:03.570869,-1,0,-55,0,0,0,73,75,122,80,54,193.14,310,6.00,-19.00,-1141.00
2024-05-17 17:20:03.769998,-1,0,-55,0,0,0,73,75,121,80,54,193.22,310,-37.00,4.00,-1080.00
2024-05-17 17:20:03.775045,-1,0,-55,0,0,0,73,75,121,80,54,193.24,310,62.00,-59.00,-1103.00
2024-05-17 17:20:03.975121,-1,0,-55,0,0,0,73,75,121,80,54,193.22,310,4.00,-27.00,-989.00
2024-05-17 17:20:03.978841,-1,0,-55,0,0,0,73,76,122,80,54,193.25,310,-101.00,33.00,-1056.00
2024-05-17 17:20:04.180578,0,0,-55,0,0,0,73,76,122,80,54,193.17,310,-19.00,-4.00,-994.00
2024-05-17 17:20:04.182779,0,0,-55,0,0,0,73,76,122,80,54,193.19,310,12.00,-3.00,-1133.00
2024-05-17 17:20:04.284907,0,0,-55,0,0,0,73,76,122,80,54,193.22,311,3.00,-3.00,-1038.00
2024-05-17 17:20:04.386977,0,0,-55,0,0,0,73,76,122,80,54,193.16,311,88.00,-78.00,-1040.00
2024-05-17 17:20:04.489277,0,0,-55,0,0,0,73,76,121,80,53,193.20,311,-27.00,4.00,-1016.00
2024-05-17 17:20:04.590783,0,0,-55,0,0,0,73,76,121,80,53,193.20,311,-58.00,51.00,-1037.00
2024-05-17 17:20:04.793916,0,0,-55,0,0,0,73,76,120,80,53,193.26,311,-70.00,33.00,-1024.00
2024-05-17 17:20:04.794654,0,0,-55,0,0,0,73,76,119,80,53,193.15,311,9.00,-17.00,-973.00
2024-05-17 17:20:04.896997,0,0,-55,0,0,0,73,76,119,80,53,193.18,311,-7.00,-26.00,-1030.00
2024-05-17 17:20:04.998932,0,0,-55,0,0,0,73,76,118,80,53,193.15,311,-25.00,3.00,-997.00
2024-05-17 17:20:05.101367,0,0,-55,0,0,0,73,76,118,80,53,193.12,311,-36.00,59.00,-870.00
2024-05-17 17:20:05.203612,0,0,-55,0,0,0,73,76,117,80,53,193.16,311,8.00,-1.00,-1150.00
2024-05-17 17:20:05.305696,0,0,-55,0,0,0,73,76,116,80,53,193.12,312,5.00,-29.00,-1118.00
2024-05-17 17:20:05.408117,0,0,-55,0,0,0,73,76,115,80,53,193.11,312,-49.00,26.00,-1038.00
2024-05-17 17:20:05.511143,0,0,-55,0,0,0,73,76,115,80,53,193.15,312,-1.00,8.00,-1048.00
2024-05-17 17:20:05.610933,0,0,-55,0,0,0,73,76,114,80,53,193.13,312,-66.00,38.00,-975.00
2024-05-17 17:20:05.715355,0,0,-55,0,0,0,73,76,114,80,53,193.07,312,-39.00,26.00,-1030.00
2024-05-17 17:20:05.814774,0,0,-55,0,0,0,73,76,114,80,53,193.05,312,23.00,-14.00,-1006.00
2024-05-17 17:20:05.921706,0,0,-55,0,0,0,73,76,114,80,53,192.97,312,-16.00,17.00,-949.00
2024-05-17 17:20:06.018732,0,0,-55,0,0,0,73,76,113,80,53,193.00,312,-8.00,0.00,-1046.00
2024-05-17 17:20:06.125023,0,0,-55,0,0,0,73,76,112,80,53,192.98,312,-35.00,8.00,-996.00
2024-05-17 17:20:06.222676,0,0,-55,0,0,0,73,76,113,80,53,193.04,312,-48.00,16.00,-1034.00
2024-05-17 17:20:06.329734,-1,0,-55,0,0,0,73,76,113,80,53,193.05,313,-12.00,2.00,-1056.00
2024-05-17 17:20:06.376795,-1,-1,-55,0,0,0,73,76,113,80,53,193.06,313,-21.00,-26.00,-992.00
2024-05-17 17:20:06.477951,0,0,-55,0,0,0,73,76,114,80,53,193.12,313,-27.00,-3.00,-961.00
2024-05-17 17:20:06.636869,0,0,-55,0,0,0,73,76,115,80,53,193.19,313,-34.00,113.00,-1455.00
2024-05-17 17:20:06.681644,0,0,-53,0,0,-4,73,76,122,80,53,193.24,313,-74.00,56.00,-1673.00
2024-05-17 17:20:06.783561,0,6,-49,0,0,-10,73,76,159,90,53,193.37,313,-89.00,-61.00,-1752.00
2024-05-17 17:20:06.944039,-8,79,-52,3,3,-12,73,76,220,100,53,193.48,313,100.00,732.00,-1226.00
2024-05-17 17:20:06.987538,5,-151,-64,7,7,0,73,75,295,110,53,193.45,313,131.00,878.00,-911.00
2024-05-17 17:20:07.148876,6,-32,-44,2,3,11,73,75,126,100,53,193.45,313,144.00,593.00,-941.00
2024-05-17 17:20:07.191520,-2,11,-42,2,3,11,73,75,114,90,53,193.05,313,21.00,26.00,-1309.00
2024-05-17 17:20:07.353868,0,-2,-42,3,4,6,73,75,105,80,53,193.16,314,194.00,-188.00,-1446.00
2024-05-17 17:20:07.395503,0,-6,-45,2,3,3,73,75,101,70,53,193.05,314,-12.00,5.00,-1262.00
2024-05-17 17:20:07.558862,-1,-4,-53,1,2,0,73,75,101,70,53,192.97,314,65.00,-53.00,-1282.00
2024-05-17 17:20:07.599493,-1,-1,-55,1,1,-1,73,75,101,70,53,192.98,314,-95.00,22.00,-1080.00
2024-05-17 17:20:07.763216,0,0,-56,0,1,-1,73,75,102,70,53,193.02,314,-64.00,21.00,-1057.00
2024-05-17 17:20:07.803417,0,0,-56,1,1,-2,73,75,103,80,53,192.97,314,-17.00,14.00,-949.00
2024-05-17 17:20:07.967941,0,0,-56,1,1,-2,73,75,103,80,53,193.00,314,-35.00,16.00,-870.00
2024-05-17 17:20:08.007861,0,0,-56,0,0,-1,73,75,103,80,53,192.96,314,-28.00,1.00,-994.00
2024-05-17 17:20:08.172853,0,-2,-56,0,0,-1,73,75,104,80,53,192.92,314,70.00,-57.00,-963.00
2024-05-17 17:20:08.211449,0,-1,-56,0,0,-1,73,75,104,80,53,193.01,314,2.00,-23.00,-1001.00
2024-05-17 17:20:08.314948,0,0,-56,0,0,0,73,75,105,80,53,193.04,315,-58.00,17.00,-921.00
2024-05-17 17:20:08.419192,0,0,-56,0,0,0,73,75,106,90,53,193.13,315,24.00,0.00,-1002.00
2024-05-17 17:20:08.520853,0,0,-55,0,0,0,73,75,105,90,53,193.10,315,-28.00,16.00,-938.00
2024-05-17 17:20:08.620440,0,-1,-55,0,0,0,73,75,105,90,53,193.16,315,-37.00,43.00,-1014.00
2024-05-17 17:20:08.722358,0,-1,-55,0,0,0,73,75,106,90,53,193.08,315,-39.00,28.00,-992.00
2024-05-17 17:20:08.826528,0,-2,-55,0,0,-1,73,75,106,90,53,192.99,315,-45.00,25.00,-1008.00
2024-05-17 17:20:08.929039,0,-1,-55,0,0,0,73,75,106,90,53,193.08,315,2.00,-10.00,-1025.00
2024-05-17 17:20:09.028533,0,-1,-55,0,0,0,74,76,106,90,53,193.03,315,-24.00,0.00,-970.00
2024-05-17 17:20:09.197175,0,-1,-55,0,0,0,74,76,106,90,53,193.01,315,-23.00,12.00,-997.00
2024-05-17 17:20:09.232410,0,-1,-55,0,0,0,74,76,106,90,53,193.02,315,-54.00,43.00,-1001.00
2024-05-17 17:20:09.401667,0,-1,-55,0,0,0,74,76,106,90,53,193.02,316,22.00,-12.00,-934.00
2024-05-17 17:20:09.437684,0,-1,-55,0,0,0,74,76,107,90,53,193.09,316,6.00,15.00,-975.00
2024-05-17 17:20:09.538351,0,-1,-55,0,0,0,74,76,107,90,52,193.04,316,-70.00,51.00,-924.00
2024-05-17 17:20:09.709996,0,-1,-55,0,0,0,74,76,108,90,52,193.09,316,-19.00,-28.00,-1001.00
2024-05-17 17:20:09.742347,0,-1,-55,0,0,0,74,76,109,90,52,193.17,316,-95.00,109.00,-998.00
2024-05-17 17:20:09.844345,0,-1,-55,0,0,0,74,76,111,90,52,193.12,316,31.00,-29.00,-996.00
2024-05-17 17:20:09.895509,-1,-2,-55,0,0,0,74,76,113,90,52,193.13,316,-107.00,105.00,-907.00
2024-05-17 17:20:10.048574,0,-1,-55,0,0,0,73,75,114,90,52,193.14,316,11.00,1.00,-1015.00
2024-05-17 17:20:10.150937,0,-1,-55,0,0,0,73,75,116,90,52,193.20,316,64.00,-37.00,-1022.00
2024-05-17 17:20:10.323622,0,-1,-55,0,0,0,73,75,118,100,52,193.14,317,-52.00,56.00,-930.00
2024-05-17 17:20:10.354381,0,0,-55,0,0,0,73,75,119,100,52,193.14,317,-11.00,0.00,-1019.00
2024-05-17 17:20:10.405950,0,0,-55,0,0,0,73,75,121,100,52,193.11,317,31.00,19.00,-1018.00
2024-05-17 17:20:10.534114,0,-1,-55,0,0,0,73,75,122,100,52,193.11,317,-36.00,29.00,-1002.00
