TS,pitch,roll,yaw,vgx,vgy,vgz,templ,temph,tof,h,bat,baro,time,agx,agy,agz
2024-05-17 17:20:56.915149,0,0,-53,0,0,0,78,80,10,0,49,191.77,333,-5.00,-3.00,-998.00
2024-05-17 17:20:56.969935,0,0,-53,0,0,0,78,80,10,0,49,191.78,333,-2.00,-3.00,-1000.00
2024-05-17 17:20:57.119613,0,0,-53,0,0,0,78,80,10,0,49,191.73,333,-3.00,-3.00,-999.00
2024-05-17 17:20:57.178518,0,0,-53,0,0,0,78,80,10,0,49,191.74,333,-2.00,-3.00,-1000.00
2024-05-17 17:20:57.275823,0,0,-53,0,0,0,78,80,10,0,49,191.75,333,-2.00,-3.00,-997.00
2024-05-17 17:20:57.426660,0,0,-53,0,0,0,78,80,10,0,49,191.75,333,-2.00,-1.00,-1000.00
2024-05-17 17:20:57.479899,0,0,-53,0,0,0,78,80,10,0,49,191.79,333,-3.00,-4.00,-1000.00
2024-05-17 17:20:57.631650,0,0,-53,0,0,0,78,80,10,0,49,191.76,333,-2.00,-3.00,-998.00
2024-05-17 17:20:57.683922,0,0,-53,0,0,0,78,80,10,0,49,191.82,333,-2.00,-2.00,-1002.00
2024-05-17 17:20:57.842422,0,0,-53,0,0,0,78,80,10,0,49,191.76,333,-1.00,-3.00,-1000.00
2024-05-17 17:20:57.894524,0,0,-53,0,0,0,78,80,10,0,49,191.77,333,-4.00,-4.00,-1000.00
2024-05-17 17:20:57.989840,0,0,-53,0,0,0,78,80,10,0,49,191.72,333,-2.00,-3.00,-998.00
2024-05-17 17:20:58.091924,0,0,-53,0,0,0,78,80,10,0,49,191.74,333,-2.00,-2.00,-999.00
2024-05-17 17:20:58.245973,0,0,-53,0,0,0,78,80,10,0,49,191.77,333,-4.00,-1.00,-1001.00
2024-05-17 17:20:58.295862,0,0,-53,0,0,0,78,80,10,0,49,191.73,333,-2.00,-3.00,-999.00
2024-05-17 17:20:58.457449,0,0,-53,0,0,0,78,80,10,0,49,191.75,333,-2.00,-3.00,-994.00
2024-05-17 17:20:58.499848,0,0,-53,0,0,0,78,80,10,0,49,191.77,333,-2.00,-3.00,-1001.00
2024-05-17 17:20:58.655558,0,0,-53,0,0,0,78,80,10,0,49,191.74,333,-2.00,-3.00,-1000.00
2024-05-17 17:20:58.703813,0,0,-53,0,0,0,78,80,10,0,49,191.73,333,-3.00,-2.00,-1000.00
2024-05-17 17:20:58.806776,0,0,-53,0,0,0,78,80,10,0,49,191.73,333,-1.00,-2.00,-997.00
2024-05-17 17:20:58.907873,0,0,-53,0,0,0,78,80,10,0,49,191.75,333,-3.00,-3.00,-999.00
2024-05-17 17:20:59.065307,0,0,-53,0,0,0,78,80,10,0,49,191.76,333,-4.00,-1.00,-997.00
2024-05-17 17:20:59.116528,0,0,-53,0,0,0,78,80,10,0,49,191.75,333,-2.00,-3.00,-999.00
2024-05-17 17:20:59.213883,0,0,-53,0,0,0,78,80,10,0,49,191.73,333,-1.00,-4.00,-1000.00
2024-05-17 17:20:59.372386,0,0,-53,0,0,0,78,80,10,0,49,191.78,333,-1.00,-2.00,-998.00
2024-05-17 17:20:59.418349,0,0,-53,0,0,0,78,80,10,0,49,191.77,333,-3.00,-3.00,-999.00
2024-05-17 17:20:59.537639,0,0,-53,0,0,0,78,80,10,0,49,191.76,333,-2.00,-2.00,-1000.00
2024-05-17 17:20:59.622393,0,0,-53,0,0,0,78,80,10,0,49,191.72,333,-3.00,-2.00,-1001.00
2024-05-17 17:20:59.723674,0,0,-53,0,0,0,78,80,10,0,49,191.72,333,-1.00,0.00,-1004.00
2024-05-17 17:20:59.825665,0,0,-53,0,0,0,78,80,10,0,49,191.72,334,-5.00,-11.00,-992.00
2024-05-17 17:20:59.989226,0,0,-53,0,0,0,78,80,10,0,49,191.72,334,16.00,10.00,-1002.00
2024-05-17 17:20:59.989460,0,0,-52,0,0,0,78,80,10,0,49,191.72,334,-60.00,2.00,-981.00
2024-05-17 17:21:00.080801,0,0,-51,0,0,0,78,80,10,0,49,191.72,334,-23.00,-58.00,-1017.00
2024-05-17 17:21:00.191386,0,0,-50,0,0,0,78,80,10,0,49,191.72,334,-5.00,50.00,-1041.00
2024-05-17 17:21:00.284649,0,0,-50,0,0,0,78,80,10,0,49,191.72,334,-45.00,38.00,-1217.00
2024-05-17 17:21:00.396423,0,0,-50,0,0,-1,78,80,10,0,49,191.72,334,33.00,2.00,-1295.00
2024-05-17 17:21:00.488675,0,0,-50,0,0,-4,78,80,13,0,49,191.72,334,2.00,-8.00,-1219.00
2024-05-17 17:21:00.601109,0,0,-50,0,0,-6,78,80,23,0,49,192.05,334,-23.00,1.00,-1154.00
2024-05-17 17:21:00.692565,0,1,-50,0,0,-6,78,80,32,0,49,192.18,334,75.00,-29.00,-1184.00
2024-05-17 17:21:00.805801,0,1,-50,0,0,-6,78,80,40,0,49,192.21,335,9.00,6.00,-993.00
2024-05-17 17:21:00.896578,0,0,-50,0,0,-6,78,80,49,10,49,192.32,335,-6.00,-13.00,-905.00
2024-05-17 17:21:01.010666,0,0,-50,0,0,-6,78,80,57,10,49,192.41,335,-47.00,43.00,-954.00
2024-05-17 17:21:01.101289,0,0,-50,0,0,-5,78,80,59,20,49,192.49,335,-72.00,37.00,-902.00
2024-05-17 17:21:01.220922,-1,0,-50,0,0,-4,78,80,67,30,49,192.56,335,29.00,9.00,-889.00
2024-05-17 17:21:01.305364,0,0,-50,0,0,-3,79,81,70,30,49,192.58,335,-23.00,-5.00,-842.00
2024-05-17 17:21:01.420267,0,0,-50,0,0,-2,79,81,73,30,49,192.68,335,-56.00,62.00,-848.00
2024-05-17 17:21:01.508561,-1,0,-50,0,0,-1,79,81,76,30,49,192.67,335,12.00,-19.00,-919.00
2024-05-17 17:21:01.627803,-1,0,-50,0,0,0,79,81,78,40,49,192.67,335,59.00,-32.00,-907.00
2024-05-17 17:21:01.712577,-1,0,-50,0,0,0,79,81,80,40,49,192.70,335,-37.00,39.00,-1015.00
2024-05-17 17:21:01.814680,-1,0,-50,0,0,0,79,81,81,40,49,192.74,336,-55.00,-1.00,-992.00
2024-05-17 17:21:01.932132,-1,0,-50,0,0,0,79,81,83,40,49,192.82,336,80.00,-34.00,-940.00
2024-05-17 17:21:02.018552,-1,0,-50,0,0,0,79,81,85,40,49,192.75,336,-47.00,22.00,-1066.00
2024-05-17 17:21:02.137037,-1,0,-50,0,0,0,79,81,85,40,49,192.76,336,-21.00,-5.00,-929.00
2024-05-17 17:21:02.224672,-1,0,-50,0,0,0,79,81,86,40,49,192.70,336,-25.00,16.00,-947.00
2024-05-17 17:21:02.326037,-1,0,-50,0,0,0,79,81,87,40,49,192.75,336,-29.00,2.00,-1003.00
2024-05-17 17:21:02.427058,-1,0,-50,0,0,0,79,81,88,40,49,192.75,336,-30.00,-13.00,-1014.00
2024-05-17 17:21:02.528505,-1,0,-50,0,0,0,79,81,89,40,49,192.82,336,-30.00,6.00,-934.00
2024-05-17 17:21:02.648983,-1,0,-50,0,0,0,79,81,90,40,49,192.81,336,-14.00,-14.00,-952.00
2024-05-17 17:21:02.732666,-1,0,-50,0,0,0,79,81,90,50,49,192.83,336,-37.00,18.00,-1007.00
2024-05-17 17:21:02.854032,-1,1,-50,0,0,0,79,81,90,50,49,192.77,337,42.00,-12.00,-1066.00
2024-05-17 17:21:02.936481,-1,1,-50,0,0,0,79,81,88,50,49,192.74,337,27.00,-23.00,-967.00
2024-05-17 17:21:03.058788,-1,0,-50,0,0,0,79,81,88,50,49,192.79,337,87.00,-51.00,-1001.00
2024-05-17 17:21:03.140594,-1,0,-50,0,0,0,79,81,86,50,49,192.76,337,-37.00,23.00,-1046.00
2024-05-17 17:21:03.191456,-1,0,-50,0,0,0,79,81,85,50,49,192.78,337,-46.00,39.00,-1012.00
2024-05-17 17:21:03.367098,-2,0,-50,0,0,0,78,80,85,50,49,192.77,337,-16.00,-11.00,-971.00
2024-05-17 17:21:03.446475,-1,0,-50,0,0,0,78,80,84,40,49,192.74,337,23.00,-16.00,-1041.00
2024-05-17 17:21:03.574505,-1,1,-50,0,0,0,78,80,84,40,49,192.68,337,58.00,-45.00,-1004.00
2024-05-17 17:21:03.660705,-1,1,-50,0,0,0,78,80,84,40,49,192.76,337,-4.00,-1.00,-888.00
2024-05-17 17:21:03.752481,-1,1,-50,0,0,0,78,80,82,40,49,192.74,338,-11.00,-10.00,-980.00
2024-05-17 17:21:03.877794,0,1,-50,0,0,0,78,80,81,40,49,192.74,338,-37.00,17.00,-929.00
2024-05-17 17:21:03.905736,0,1,-50,0,0,0,78,80,80,40,49,192.74,338,13.00,-30.00,-1008.00
2024-05-17 17:21:04.007953,-1,0,-50,0,0,0,78,80,79,40,49,192.71,338,3.00,-12.00,-995.00
2024-05-17 17:21:04.184966,0,1,-50,0,0,0,78,80,79,40,49,192.74,338,-86.00,49.00,-1009.00
2024-05-17 17:21:04.214838,0,0,-50,0,0,0,78,80,78,40,49,192.68,338,5.00,-3.00,-1107.00
2024-05-17 17:21:04.313409,-1,0,-50,0,0,0,77,80,78,40,49,192.75,338,-9.00,-12.00,-938.00
2024-05-17 17:21:04.492119,-1,0,-50,0,0,0,77,80,77,40,49,192.71,338,-10.00,-3.00,-999.00
2024-05-17 17:21:04.517399,-1,0,-50,0,0,0,77,80,76,40,49,192.74,338,0.00,10.00,-979.00
2024-05-17 17:21:04.696954,-1,0,-50,0,0,0,77,80,76,40,49,192.64,338,-36.00,7.00,-990.00
2024-05-17 17:21:04.721777,-1,0,-50,0,0,0,77,80,75,40,49,192.75,339,-51.00,-7.00,-1030.00
2024-05-17 17:21:04.901683,-2,0,-50,0,0,0,77,80,74,40,49,192.64,339,13.00,22.00,-1079.00
2024-05-17 17:21:04.925527,-1,0,-50,0,0,0,77,80,74,40,49,192.76,339,2.00,22.00,-1068.00
2024-05-17 17:21:05.106570,-1,0,-50,0,0,0,77,80,74,40,49,192.73,339,-51.00,7.00,-962.00
2024-05-17 17:21:05.129332,-1,0,-50,0,0,0,77,80,74,40,49,192.73,339,-29.00,0.00,-960.00
2024-05-17 17:21:05.311399,-1,0,-50,0,0,0,77,80,74,40,49,192.71,339,-87.00,35.00,-974.00
2024-05-17 17:21:05.340017,-1,0,-50,0,0,0,77,79,74,40,49,192.79,339,-1.00,-2.00,-1071.00
2024-05-17 17:21:05.436572,-2,0,-50,0,0,0,77,79,75,40,49,192.79,339,13.00,-12.00,-967.00
2024-05-17 17:21:05.622374,-1,0,-50,0,0,0,77,79,76,40,49,192.74,339,-32.00,9.00,-969.00
2024-05-17 17:21:05.650522,-1,0,-50,0,0,0,77,79,77,40,49,192.71,339,-54.00,39.00,-956.00
2024-05-17 17:21:05.742587,-1,0,-50,0,0,0,77,79,77,40,49,192.75,340,-61.00,37.00,-928.00
2024-05-17 17:21:05.844617,0,0,-50,0,0,0,77,79,78,40,49,192.80,340,-14.00,2.00,-943.00
2024-05-17 17:21:06.028361,0,0,-50,0,0,0,77,79,79,40,49,192.82,340,17.00,-30.00,-909.00
2024-05-17 17:21:06.048561,-1,0,-50,0,0,0,77,79,79,40,49,192.78,340,5.00,-1.00,-963.00
2024-05-17 17:21:06.233330,-1,0,-50,0,0,0,77,79,79,40,49,192.80,340,47.00,-13.00,-996.00
2024-05-17 17:21:06.252362,-1,0,-50,0,0,0,77,79,79,40,49,192.79,340,-72.00,14.00,-1002.00
2024-05-17 17:21:06.438441,-1,0,-50,0,0,0,77,80,80,40,49,192.79,340,-17.00,31.00,-1026.00
2024-05-17 17:21:06.456405,-1,0,-50,0,0,0,77,80,79,40,49,192.71,340,-42.00,24.00,-943.00
2024-05-17 17:21:06.642802,-1,0,-50,0,0,0,77,80,79,40,49,192.74,340,7.00,-18.00,-999.00
2024-05-17 17:21:06.660396,-1,0,-50,0,0,0,77,80,79,40,49,192.79,340,-16.00,3.00,-975.00
2024-05-17 17:21:06.847579,0,0,-50,0,0,0,77,80,79,40,49,192.79,341,-60.00,37.00,-1000.00
2024-05-17 17:21:06.864293,-1,0,-50,0,0,0,77,80,79,40,49,192.80,341,-41.00,13.00,-991.00
2024-05-17 17:21:07.052496,-1,0,-50,0,0,0,77,80,79,40,49,192.73,341,45.00,-4.00,-1069.00
2024-05-17 17:21:07.068352,-1,0,-50,0,0,0,77,80,78,40,49,192.76,341,-72.00,46.00,-913.00
2024-05-17 17:21:07.257098,-1,0,-50,0,0,0,77,80,78,40,49,192.78,341,39.00,-45.00,-995.00
2024-05-17 17:21:07.272379,-1,0,-50,0,0,0,77,80,78,40,49,192.76,341,-26.00,30.00,-1014.00
2024-05-17 17:21:07.374332,-1,0,-50,0,0,0,77,78,77,40,49,192.66,341,39.00,-24.00,-1045.00
2024-05-17 17:21:07.564190,0,0,-50,0,0,0,77,78,77,40,49,192.74,341,64.00,-57.00,-987.00
2024-05-17 17:21:07.564233,0,0,-50,0,0,0,77,78,77,40,49,192.69,341,12.00,-8.00,-1096.00
2024-05-17 17:21:07.629339,0,0,-50,0,0,-1,77,78,77,40,49,192.69,341,14.00,14.00,-1195.00
2024-05-17 17:21:07.731183,-1,0,-50,0,0,-2,77,78,78,40,49,192.83,342,-22.00,21.00,-1054.00
2024-05-17 17:21:07.833243,-1,0,-50,0,0,-3,77,78,80,40,49,192.88,342,14.00,-12.00,-1130.00
2024-05-17 17:21:07.973789,-1,0,-50,0,0,-3,77,78,84,50,49,192.85,342,-12.00,4.00,-1192.00
2024-05-17 17:21:08.049303,-1,0,-50,0,0,-4,77,78,88,50,49,192.87,342,58.00,-20.00,-1109.00
2024-05-17 17:21:08.139203,-1,0,-50,0,0,-4,77,78,93,50,49,192.96,342,-2.00,-17.00,-1073.00
2024-05-17 17:21:08.280997,-1,0,-50,0,0,-5,77,78,98,60,49,192.95,342,55.00,-27.00,-1083.00
2024-05-17 17:21:08.343322,-1,0,-50,0,0,-5,77,78,104,60,49,192.95,342,24.00,-11.00,-969.00
2024-05-17 17:21:08.445575,-1,0,-50,0,0,-5,77,78,110,70,49,193.06,342,71.00,-40.00,-1080.00
2024-05-17 17:21:08.588217,-1,0,-50,0,0,-5,77,78,115,80,49,193.12,342,-9.00,-9.00,-970.00
2024-05-17 17:21:08.649267,-1,0,-50,0,0,-5,77,78,121,80,49,193.19,342,-63.00,39.00,-892.00
2024-05-17 17:21:08.751269,-1,0,-50,0,0,-5,77,78,127,90,49,193.16,343,-6.00,-3.00,-1021.00
2024-05-17 17:21:08.853272,-1,0,-50,0,0,-5,77,78,133,90,49,193.22,343,44.00,-43.00,-1148.00
2024-05-17 17:21:08.956208,-1,0,-50,0,0,-5,77,78,138,100,49,193.24,343,-68.00,114.00,-900.00
2024-05-17 17:21:09.057217,-1,0,-50,0,0,-4,77,78,143,100,49,193.31,343,137.00,-52.00,-1040.00
2024-05-17 17:21:09.204624,-1,0,-50,0,0,-4,77,78,147,110,49,193.39,343,-52.00,44.00,-982.00
2024-05-17 17:21:09.261214,-2,0,-50,0,0,-3,77,78,151,110,49,193.40,343,43.00,-33.00,-1043.00
2024-05-17 17:21:09.408051,-2,0,-50,0,0,-3,77,79,155,110,49,193.45,343,5.00,-1.00,-942.00
2024-05-17 17:21:09.465322,-1,0,-50,0,0,-3,77,79,158,120,49,193.50,343,-54.00,48.00,-977.00
2024-05-17 17:21:09.612335,-1,0,-50,0,0,-3,77,79,161,120,49,193.55,343,-8.00,-18.00,-904.00
2024-05-17 17:21:09.669279,-1,0,-50,0,0,-2,77,79,164,120,49,193.52,343,8.00,-1.00,-1010.00
2024-05-17 17:21:09.816892,-1,0,-50,0,0,-2,77,79,167,130,49,193.58,344,-77.00,36.00,-981.00
2024-05-17 17:21:09.875419,-1,0,-50,0,0,-2,77,79,170,130,49,193.55,344,0.00,-30.00,-930.00
2024-05-17 17:21:09.977651,-1,0,-50,0,0,-1,77,79,172,130,49,193.51,344,-65.00,83.00,-925.00
2024-05-17 17:21:10.078771,-2,0,-50,1,0,-1,77,79,173,130,49,193.59,344,-26.00,8.00,-933.00
2024-05-17 17:21:10.180320,-1,-2,-50,1,0,-1,77,79,175,130,49,193.62,344,20.00,27.00,-838.00
2024-05-17 17:21:10.329114,-2,-1,-50,1,0,-1,77,79,177,140,49,193.60,344,8.00,38.00,-923.00
2024-05-17 17:21:10.384775,-1,0,-50,0,0,0,76,78,178,140,49,193.60,344,12.00,4.00,-995.00
2024-05-17 17:21:10.535959,-1,0,-50,0,0,0,76,78,178,140,49,193.62,344,-10.00,36.00,-955.00
2024-05-17 17:21:10.588156,-1,0,-50,0,0,0,76,78,179,140,49,193.67,344,78.00,-73.00,-974.00
2024-05-17 17:21:10.738658,-1,1,-50,0,0,0,76,78,180,140,49,193.68,344,-75.00,26.00,-970.00
2024-05-17 17:21:10.792125,-1,0,-50,0,0,0,76,78,180,140,49,193.60,345,-26.00,10.00,-990.00
2024-05-17 17:21:10.944833,-1,0,-50,0,0,0,76,78,178,140,49,193.65,345,-28.00,46.00,-1003.00
2024-05-17 17:21:10.996212,-1,0,-50,0,0,0,76,78,179,140,49,193.66,345,44.00,-29.00,-909.00
2024-05-17 17:21:11.047478,-2,0,-50,0,0,0,76,78,178,140,49,193.63,345,35.00,-42.00,-985.00
2024-05-17 17:21:11.150032,-1,0,-50,0,0,0,76,78,177,140,49,193.66,345,-34.00,14.00,-994.00
2024-05-17 17:21:11.353005,-1,0,-50,0,0,0,76,78,177,140,49,193.72,345,-17.00,27.00,-1038.00
2024-05-17 17:21:11.353273,-1,0,-50,0,0,0,77,78,176,140,49,193.69,345,-8.00,33.00,-984.00
2024-05-17 17:21:11.455692,-1,0,-50,0,0,0,77,78,176,140,49,193.65,345,-20.00,34.00,-1016.00
2024-05-17 17:21:11.558337,-2,0,-50,0,0,0,77,78,175,140,49,193.69,345,-22.00,36.00,-1010.00
2024-05-17 17:21:11.660349,-2,0,-50,0,0,0,77,78,175,140,49,193.59,345,-30.00,44.00,-973.00
2024-05-17 17:21:11.762453,-1,0,-50,0,0,0,77,78,175,140,49,193.65,346,-71.00,54.00,-996.00
2024-05-17 17:21:11.865071,-1,0,-50,0,0,0,77,78,175,140,49,193.66,346,-47.00,42.00,-1017.00
2024-05-17 17:21:11.965526,-1,0,-50,0,0,0,77,78,176,130,49,193.65,346,76.00,-44.00,-1052.00
2024-05-17 17:21:12.067267,-1,0,-50,0,0,0,77,78,177,140,49,193.66,346,9.00,17.00,-1042.00
2024-05-17 17:21:12.169040,0,1,-50,0,0,0,77,78,179,140,49,193.63,346,15.00,-23.00,-968.00
2024-05-17 17:21:12.275497,0,0,-50,0,0,0,77,78,180,140,49,193.66,346,-43.00,47.00,-909.00
2024-05-17 17:21:12.373734,-1,0,-50,0,0,0,76,78,180,140,49,193.70,346,17.00,-14.00,-973.00
2024-05-17 17:21:12.484877,-1,0,-50,0,0,0,76,78,180,140,49,193.61,346,20.00,-7.00,-880.00
2024-05-17 17:21:12.577103,-1,0,-50,0,0,0,76,78,180,140,49,193.63,346,-13.00,24.00,-1005.00
2024-05-17 17:21:12.684162,-1,0,-50,0,0,0,76,78,180,140,49,193.61,346,-70.00,48.00,-959.00
2024-05-17 17:21:12.781033,-1,0,-50,1,0,1,76,78,179,140,49,193.58,347,49.00,-31.00,-918.00
2024-05-17 17:21:12.888916,0,0,-50,1,0,1,76,78,178,140,49,193.60,347,22.00,-27.00,-939.00
2024-05-17 17:21:12.985332,0,0,-50,1,-1,2,76,78,177,130,49,193.58,347,-37.00,30.00,-911.00
2024-05-17 17:21:13.093755,0,0,-50,0,0,2,76,78,175,130,49,193.58,347,-87.00,41.00,-1042.00
2024-05-17 17:21:13.189032,0,0,-50,0,0,2,76,78,172,130,49,193.55,347,46.00,-7.00,-1016.00
2024-05-17 17:21:13.298529,-1,0,-50,0,0,2,76,78,169,130,49,193.54,347,30.00,10.00,-951.00
2024-05-17 17:21:13.393041,-1,0,-50,0,0,2,76,79,166,130,49,193.47,347,46.00,-4.00,-963.00
2024-05-17 17:21:13.503328,-1,0,-50,0,0,2,76,79,164,120,49,193.52,347,11.00,2.00,-954.00
2024-05-17 17:21:13.597755,-1,0,-50,0,0,2,76,79,160,120,49,193.51,347,79.00,-53.00,-1069.00
2024-05-17 17:21:13.711181,-1,0,-50,0,0,2,76,79,157,120,49,193.47,347,-3.00,25.00,-979.00
2024-05-17 17:21:13.802391,-1,0,-50,0,0,2,76,79,154,110,49,193.42,348,0.00,24.00,-1058.00
2024-05-17 17:21:13.913916,0,0,-50,0,0,2,76,79,151,110,49,193.35,348,45.00,-12.00,-942.00
2024-05-17 17:21:14.007117,-1,0,-50,0,0,2,76,79,148,110,49,193.39,348,75.00,-40.00,-1034.00
2024-05-17 17:21:14.107630,-1,0,-50,0,0,2,76,79,146,110,49,193.41,348,-111.00,74.00,-951.00
2024-05-17 17:21:14.209524,0,0,-50,0,0,2,76,79,144,100,49,193.38,348,25.00,-26.00,-1026.00
2024-05-17 17:21:14.310935,0,0,-50,0,0,2,76,79,143,100,49,193.28,348,18.00,-16.00,-1063.00
2024-05-17 17:21:14.424925,0,0,-50,0,0,2,76,77,140,100,49,193.37,348,-47.00,34.00,-1063.00
2024-05-17 17:21:14.515528,-1,0,-50,0,0,1,76,77,139,100,49,193.29,348,-12.00,34.00,-1049.00
2024-05-17 17:21:14.629756,-1,0,-50,0,0,1,76,77,139,100,49,193.29,348,27.00,-17.00,-1037.00
2024-05-17 17:21:14.719950,-1,0,-50,0,0,1,76,77,139,100,49,193.24,348,47.00,-8.00,-974.00
2024-05-17 17:21:14.834539,-1,-1,-50,0,0,0,76,77,138,100,49,193.20,349,-28.00,28.00,-926.00
2024-05-17 17:21:14.871899,0,0,-50,0,0,0,76,77,138,100,49,193.27,349,-3.00,17.00,-996.00
2024-05-17 17:21:15.039338,0,0,-50,0,0,0,76,77,137,100,49,193.25,349,-21.00,25.00,-976.00
2024-05-17 17:21:15.075971,-1,0,-50,0,0,0,76,77,137,90,49,193.24,349,44.00,-31.00,-932.00
2024-05-17 17:21:15.244134,-1,0,-50,0,0,0,76,77,137,90,49,193.26,349,44.00,-3.00,-1143.00
2024-05-17 17:21:15.279933,0,0,-50,0,0,0,76,77,137,90,49,193.27,349,19.00,-19.00,-1012.00
2024-05-17 17:21:15.449027,0,0,-50,0,0,0,75,77,137,90,49,193.27,349,24.00,19.00,-942.00
2024-05-17 17:21:15.483971,0,0,-50,0,0,0,75,77,137,90,49,193.22,349,33.00,22.00,-1041.00
2024-05-17 17:21:15.653695,0,0,-50,0,0,0,75,77,138,90,49,193.27,349,0.00,13.00,-992.00
2024-05-17 17:21:15.689086,0,0,-50,0,0,0,75,77,138,90,49,193.28,349,0.00,27.00,-1010.00
2024-05-17 17:21:15.790190,0,0,-50,0,0,0,75,77,138,90,49,193.25,350,-2.00,3.00,-920.00
2024-05-17 17:21:15.961285,0,0,-50,0,0,0,75,77,137,90,49,193.25,350,34.00,-16.00,-940.00
2024-05-17 17:21:15.993921,-1,0,-50,0,0,0,75,77,137,90,49,193.25,350,50.00,-29.00,-968.00
2024-05-17 17:21:16.166574,-1,0,-50,0,0,0,75,77,136,90,49,193.21,350,14.00,-4.00,-987.00
2024-05-17 17:21:16.198385,0,0,-50,0,0,0,75,77,136,90,49,193.32,350,68.00,-31.00,-999.00
2024-05-17 17:21:16.370622,0,0,-50,0,0,0,75,77,135,90,49,193.25,350,49.00,-33.00,-997.00
2024-05-17 17:21:16.403087,0,0,-50,0,0,0,76,78,136,90,49,193.28,350,14.00,10.00,-1015.00
2024-05-17 17:21:16.575533,0,0,-50,0,0,0,76,78,135,90,49,193.21,350,-5.00,11.00,-1008.00
2024-05-17 17:21:16.605811,0,0,-50,0,0,0,76,78,135,90,49,193.22,350,45.00,22.00,-1108.00
2024-05-17 17:21:16.780388,0,0,-50,0,0,0,76,78,135,90,49,193.23,350,34.00,-19.00,-1043.00
2024-05-17 17:21:16.810351,0,0,-50,0,0,0,76,78,135,90,49,193.24,351,17.00,-1.00,-918.00
2024-05-17 17:21:16.988054,-1,0,-50,0,0,0,76,78,135,90,49,193.19,351,-65.00,41.00,-970.00
2024-05-17 17:21:17.013980,-1,0,-50,0,0,0,76,78,135,90,49,193.22,351,41.00,-29.00,-939.00
2024-05-17 17:21:17.190141,-1,0,-50,0,0,0,76,78,136,90,49,193.26,351,-27.00,35.00,-1046.00
2024-05-17 17:21:17.218400,-1,0,-50,0,0,0,76,78,136,90,49,193.24,351,16.00,-1.00,-1120.00
2024-05-17 17:21:17.394613,-1,0,-50,0,0,0,76,78,136,90,49,193.20,351,19.00,-18.00,-984.00
2024-05-17 17:21:17.421814,-1,0,-50,0,0,0,76,78,136,90,49,193.32,351,-25.00,-19.00,-1018.00
2024-05-17 17:21:17.601435,0,0,-50,0,0,0,76,78,136,100,49,193.22,351,72.00,-20.00,-954.00
2024-05-17 17:21:17.625854,0,0,-50,0,0,0,76,78,136,100,49,193.20,351,0.00,29.00,-1016.00
2024-05-17 17:21:17.743170,-1,0,-50,0,0,0,76,78,135,100,49,193.24,351,-43.00,51.00,-1075.00
2024-05-17 17:21:17.829703,-1,0,-50,0,0,0,76,78,135,100,49,193.22,352,49.00,-25.00,-993.00
2024-05-17 17:21:18.008873,-1,0,-50,0,0,0,76,78,135,100,49,193.23,352,78.00,-34.00,-969.00
2024-05-17 17:21:18.033824,-3,0,-50,0,0,0,76,78,135,100,49,193.25,352,-1.00,22.00,-1016.00
2024-05-17 17:21:18.213838,-8,0,-50,0,0,0,76,78,136,90,49,193.27,352,-7.00,0.00,-1029.00
2024-05-17 17:21:18.238002,-8,0,-50,1,-1,0,76,78,134,90,49,193.19,352,-104.00,66.00,-839.00
2024-05-17 17:21:18.418418,-8,0,-50,2,-2,0,76,78,135,90,49,193.16,352,-37.00,22.00,-1048.00
2024-05-17 17:21:18.441732,-8,0,-50,3,-4,0,75,78,134,90,49,193.19,352,-36.00,13.00,-1126.00
2024-05-17 17:21:18.623222,-7,0,-50,4,-5,0,75,78,134,90,49,193.18,352,-3.00,25.00,-970.00
2024-05-17 17:21:18.645726,-6,0,-50,4,-5,0,75,78,133,90,49,193.25,352,-45.00,21.00,-1021.00
2024-05-17 17:21:18.747713,-5,0,-50,5,-6,0,75,78,133,90,49,193.22,353,-15.00,0.00,-1042.00
2024-05-17 17:21:18.936106,-3,0,-50,5,-6,0,75,78,133,90,49,193.10,353,-10.00,23.00,-1093.00
2024-05-17 17:21:18.936197,0,0,-50,5,-5,0,75,78,132,90,49,193.10,353,-112.00,69.00,-888.00
2024-05-17 17:21:19.002686,1,0,-50,4,-5,0,75,78,134,90,49,193.16,353,-27.00,15.00,-943.00
2024-05-17 17:21:19.135282,3,-1,-50,4,-4,0,75,78,134,90,49,193.17,353,-49.00,35.00,-863.00
2024-05-17 17:21:19.206733,3,-1,-50,3,-3,0,75,78,134,90,49,193.17,353,-32.00,-17.00,-966.00
2024-05-17 17:21:19.346998,1,-1,-50,2,-2,0,75,78,134,90,49,193.17,353,28.00,8.00,-1153.00
2024-05-17 17:21:19.410697,0,0,-50,1,-2,0,75,77,133,90,49,193.11,353,-51.00,44.00,-883.00
2024-05-17 17:21:19.546566,0,0,-50,1,-2,0,75,77,132,90,49,193.25,353,-163.00,77.00,-913.00
2024-05-17 17:21:19.614691,-1,0,-50,1,-2,0,75,77,132,90,49,193.17,353,-109.00,30.00,-924.00
2024-05-17 17:21:19.749960,0,0,-50,2,-2,0,75,77,132,90,49,193.22,354,34.00,-15.00,-1049.00
2024-05-17 17:21:19.818684,0,0,-50,2,-2,0,75,77,132,90,49,193.12,354,71.00,-34.00,-988.00
2024-05-17 17:21:19.948660,0,0,-50,1,-1,0,75,77,132,90,49,193.22,354,-27.00,27.00,-1057.00
2024-05-17 17:21:20.022676,-1,0,-50,1,-1,0,75,77,131,90,49,193.26,354,-49.00,21.00,-1010.00
2024-05-17 17:21:20.160163,-1,0,-50,1,-1,0,75,77,132,90,49,193.18,354,45.00,3.00,-1019.00
2024-05-17 17:21:20.227021,-1,0,-50,1,-1,0,75,77,133,90,49,193.23,354,-21.00,8.00,-1028.00
2024-05-17 17:21:20.364489,-1,0,-50,1,-1,0,75,77,134,90,49,193.19,354,-89.00,79.00,-928.00
2024-05-17 17:21:20.430633,-1,0,-50,2,-1,0,75,78,134,90,49,193.17,354,7.00,-3.00,-1070.00
2024-05-17 17:21:20.569487,-1,-1,-50,2,-1,0,75,78,133,90,49,193.16,354,-46.00,48.00,-1027.00
2024-05-17 17:21:20.634753,3,-1,-50,1,-1,0,75,78,135,90,49,193.16,354,32.00,0.00,-954.00
2024-05-17 17:21:20.775824,3,-2,-50,0,0,0,75,78,135,90,49,193.22,355,25.00,-35.00,-941.00
2024-05-17 17:21:20.839207,1,0,-50,0,0,0,75,78,135,90,49,193.16,355,-1.00,28.00,-1046.00
2024-05-17 17:21:20.940896,0,0,-50,0,0,0,75,78,134,90,49,193.20,355,-46.00,48.00,-884.00
2024-05-17 17:21:21.081036,0,0,-50,0,0,0,75,78,134,90,49,193.19,355,-11.00,30.00,-1002.00
2024-05-17 17:21:21.145399,0,0,-50,0,0,0,75,78,134,90,49,193.26,355,-14.00,25.00,-1010.00
2024-05-17 17:21:21.246904,0,0,-50,0,0,0,75,78,134,100,49,193.14,355,79.00,-44.00,-1024.00
2024-05-17 17:21:21.388149,0,0,-50,0,0,0,75,78,134,100,49,193.20,355,63.00,-6.00,-1015.00
2024-05-17 17:21:21.450850,0,0,-50,0,0,0,75,77,134,100,49,193.16,355,64.00,-25.00,-977.00
2024-05-17 17:21:21.593011,0,0,-50,0,0,0,75,77,134,100,49,193.24,355,27.00,-23.00,-952.00
2024-05-17 17:21:21.655408,-1,0,-50,0,0,0,75,77,133,100,49,193.16,355,-79.00,28.00,-925.00
2024-05-17 17:21:21.757659,-1,0,-50,0,0,0,75,77,133,90,49,193.19,356,-22.00,32.00,-933.00
2024-05-17 17:21:21.900222,-1,0,-50,0,0,0,75,77,133,90,49,193.17,356,43.00,-12.00,-957.00
2024-05-17 17:21:21.960870,-1,0,-50,0,0,0,75,77,133,90,49,193.22,356,16.00,25.00,-1024.00
2024-05-17 17:21:22.106977,-1,0,-50,0,0,0,75,77,133,90,49,193.18,356,-26.00,23.00,-1003.00
2024-05-17 17:21:22.164688,-1,0,-50,0,0,0,75,77,134,90,49,193.21,356,66.00,-36.00,-983.00
2024-05-17 17:21:22.309942,-1,0,-50,0,0,0,75,77,134,90,49,193.29,356,33.00,-6.00,-1059.00
2024-05-17 17:21:22.372764,-1,0,-50,0,0,0,75,77,135,90,49,193.21,356,-1.00,8.00,-1132.00
2024-05-17 17:21:22.472627,-1,0,-50,0,0,0,75,77,136,90,49,193.28,356,-59.00,46.00,-1026.00
2024-05-17 17:21:22.572674,-1,0,-50,0,0,0,75,77,136,100,49,193.26,356,21.00,21.00,-1079.00
2024-05-17 17:21:22.719909,-1,0,-50,0,0,0,75,77,137,100,49,193.24,356,0.00,8.00,-914.00
2024-05-17 17:21:22.726552,0,0,-50,0,0,0,75,77,137,100,49,193.28,357,49.00,0.00,-1031.00
2024-05-17 17:21:22.827425,0,0,-50,0,0,0,75,77,137,100,49,193.33,357,-23.00,29.00,-1017.00
2024-05-17 17:21:22.929499,0,0,-50,0,0,0,75,77,138,100,49,193.31,357,45.00,-31.00,-937.00
2024-05-17 17:21:23.129148,7,0,-50,0,0,0,75,77,139,100,49,193.28,357,40.00,-17.00,-1030.00
2024-05-17 17:21:23.133669,8,0,-50,-1,1,0,75,77,139,100,49,193.27,357,26.00,-13.00,-1019.00
2024-05-17 17:21:23.333615,8,0,-50,-2,2,0,75,77,138,100,49,193.22,357,-39.00,42.00,-1025.00
2024-05-17 17:21:23.337466,7,0,-50,-3,3,0,75,77,138,100,49,193.20,357,-6.00,34.00,-988.00
2024-05-17 17:21:23.538359,6,0,-50,-3,4,0,75,77,136,100,49,193.21,357,-5.00,21.00,-991.00
2024-05-17 17:21:23.541523,5,0,-50,-4,5,0,75,77,135,90,49,193.27,357,64.00,27.00,-1026.00
2024-05-17 17:21:23.643506,5,0,-50,-4,5,0,75,77,135,90,49,193.28,357,23.00,28.00,-984.00
2024-05-17 17:21:23.745719,4,0,-50,-4,5,0,75,77,135,100,49,193.27,358,101.00,-34.00,-1008.00
2024-05-17 17:21:23.848480,1,0,-50,-4,5,0,75,77,134,100,49,193.21,358,28.00,6.00,-990.00
2024-05-17 17:21:23.950559,-1,0,-50,-4,5,0,75,77,133,100,49,193.16,358,122.00,-64.00,-1076.00
2024-05-17 17:21:24.059469,-3,0,-50,-3,4,0,75,77,132,90,49,193.24,358,17.00,32.00,-1024.00
2024-05-17 17:21:24.154475,-4,0,-50,-3,3,0,75,77,132,90,49,193.20,358,58.00,4.00,-869.00
2024-05-17 17:21:24.256660,-1,0,-50,-2,2,0,75,77,134,90,49,193.24,358,22.00,39.00,-1029.00
2024-05-17 17:21:24.360592,0,1,-50,-2,2,0,75,77,133,90,49,193.20,358,110.00,-38.00,-1107.00
2024-05-17 17:21:24.460419,0,1,-50,-2,2,0,74,78,133,90,49,193.21,358,-40.00,41.00,-1063.00
2024-05-17 17:21:24.562630,0,1,-50,-1,2,0,74,78,134,90,49,193.13,358,-34.00,8.00,-953.00
2024-05-17 17:21:24.666662,0,1,-50,-1,2,0,74,78,133,90,49,193.19,358,61.00,-40.00,-1079.00
2024-05-17 17:21:24.768969,0,0,-50,-1,3,0,74,78,132,90,49,193.14,359,-10.00,-4.00,-921.00
2024-05-17 17:21:24.869276,-1,0,-50,-1,3,0,74,78,134,90,49,193.16,359,31.00,14.00,-986.00
2024-05-17 17:21:24.971716,-5,0,-50,-1,2,0,74,78,131,90,49,193.22,359,34.00,-2.00,-994.00
2024-05-17 17:21:25.074358,-5,-1,-50,0,1,0,74,78,134,90,49,193.25,359,13.00,-1.00,-1030.00
2024-05-17 17:21:25.174439,-3,0,-50,0,1,0,74,78,132,90,49,193.22,359,-21.00,44.00,-1021.00
2024-05-17 17:21:25.283000,-2,0,-50,0,0,0,74,78,133,90,49,193.18,359,-6.00,32.00,-986.00
2024-05-17 17:21:25.378495,-1,0,-50,0,0,0,74,78,133,90,49,193.17,359,-37.00,22.00,-1036.00
2024-05-17 17:21:25.484111,-1,0,-50,0,0,0,75,77,134,90,48,193.19,359,30.00,-26.00,-1025.00
2024-05-17 17:21:25.582553,-1,0,-50,0,0,0,75,77,133,90,48,193.24,359,-48.00,46.00,-952.00
2024-05-17 17:21:25.689202,-1,0,-50,0,0,0,75,77,133,90,48,193.24,359,20.00,2.00,-908.00
2024-05-17 17:21:25.786741,-1,0,-50,0,0,0,75,77,133,90,48,193.22,360,-3.00,5.00,-941.00
2024-05-17 17:21:25.894253,-1,0,-50,0,0,0,75,77,133,90,48,193.20,360,-16.00,16.00,-983.00
2024-05-17 17:21:25.990859,-1,-1,-50,0,0,0,75,77,132,90,48,193.21,360,-5.00,1.00,-1092.00
2024-05-17 17:21:26.092514,-1,0,-50,0,0,0,75,77,132,90,48,193.23,360,33.00,-3.00,-1043.00
2024-05-17 17:21:26.200879,-1,0,-50,0,0,0,75,77,131,90,48,193.26,360,-129.00,79.00,-846.00
2024-05-17 17:21:26.296360,-1,0,-50,0,0,0,75,77,131,90,48,193.30,360,-60.00,8.00,-1013.00
2024-05-17 17:21:26.347557,-1,0,-50,0,0,0,75,77,130,90,48,193.26,360,33.00,-23.00,-1091.00
2024-05-17 17:21:26.508149,-1,0,-50,0,0,0,75,77,130,90,48,193.18,360,20.00,-18.00,-987.00
2024-05-17 17:21:26.551523,-1,-1,-50,0,0,0,75,77,130,90,48,193.21,360,-132.00,70.00,-932.00
2024-05-17 17:21:26.712959,-1,-1,-50,0,0,0,75,77,130,90,48,193.20,360,3.00,36.00,-1111.00
2024-05-17 17:21:26.755692,-1,-1,-50,0,0,0,75,77,130,90,48,193.22,361,31.00,-11.00,-1032.00
2024-05-17 17:21:26.918793,-1,-1,-50,0,0,0,75,77,130,90,48,193.20,361,35.00,-3.00,-1029.00
2024-05-17 17:21:26.959646,-1,0,-50,0,0,0,75,77,130,90,48,193.17,361,-26.00,7.00,-950.00
2024-05-17 17:21:27.125457,-1,0,-50,0,0,0,75,77,130,90,48,193.14,361,-17.00,47.00,-1048.00
2024-05-17 17:21:27.163564,0,0,-50,0,0,0,75,77,130,90,48,193.13,361,60.00,-43.00,-957.00
2024-05-17 17:21:27.265224,-1,0,-50,0,0,0,75,77,131,90,48,193.14,361,-27.00,16.00,-1019.00
2024-05-17 17:21:27.429594,0,-3,-50,0,0,0,75,77,132,90,48,193.15,361,61.00,19.00,-897.00
2024-05-17 17:21:27.472548,0,-8,-50,0,0,0,75,77,134,90,47,193.16,361,-21.00,29.00,-978.00
2024-05-17 17:21:27.573028,0,-7,-50,-1,-1,0,75,77,134,90,47,193.14,361,-33.00,61.00,-959.00
2024-05-17 17:21:27.674217,-1,-5,-50,-2,-2,0,75,77,132,90,47,193.15,361,73.00,-34.00,-1105.00
2024-05-17 17:21:27.777780,-1,-2,-50,-3,-2,0,75,77,133,90,47,193.12,362,28.00,-24.00,-1070.00
2024-05-17 17:21:27.879477,0,0,-50,-3,-2,0,75,77,133,90,47,193.20,362,27.00,-34.00,-973.00
2024-05-17 17:21:27.983091,-1,0,-50,-2,-1,0,75,77,134,90,47,193.17,362,8.00,39.00,-943.00
2024-05-17 17:21:28.084299,-1,0,-50,-1,-1,0,75,77,132,90,47,193.12,362,14.00,22.00,-1028.00
2024-05-17 17:21:28.183233,-1,-1,-50,-1,-1,0,75,77,132,90,47,193.21,362,-55.00,26.00,-906.00
2024-05-17 17:21:28.354464,-1,-1,-50,-1,-1,0,75,77,132,90,47,193.06,362,-75.00,74.00,-1006.00
2024-05-17 17:21:28.387205,0,-1,-50,-1,-1,0,75,77,131,90,47,193.14,362,-15.00,13.00,-972.00
2024-05-17 17:21:28.555964,0,-1,-50,-1,-2,0,74,77,130,90,47,193.14,362,-53.00,62.00,-966.00
2024-05-17 17:21:28.591190,0,0,-50,-1,-2,0,74,77,129,90,47,193.11,362,-38.00,61.00,-964.00
2024-05-17 17:21:28.760800,0,0,-50,-1,-1,0,74,77,128,90,47,193.09,362,-6.00,65.00,-1132.00
2024-05-17 17:21:28.795088,0,0,-50,-1,-1,0,74,77,128,90,47,193.11,363,30.00,15.00,-1086.00
2024-05-17 17:21:28.897114,0,0,-50,-1,-1,0,74,77,128,90,47,193.13,363,1.00,28.00,-1004.00
2024-05-17 17:21:28.999099,0,-1,-50,-1,-1,0,74,77,128,90,47,193.12,363,20.00,16.00,-1052.00
2024-05-17 17:21:29.101104,0,0,-50,-1,-1,0,74,77,130,90,47,193.13,363,61.00,4.00,-994.00
2024-05-17 17:21:29.273112,0,5,-50,-1,-1,0,74,77,130,90,47,193.10,363,43.00,16.00,-994.00
2024-05-17 17:21:29.306052,0,2,-50,0,0,0,74,77,129,90,47,193.07,363,-11.00,34.00,-1155.00
2024-05-17 17:21:29.477768,0,0,-50,0,0,0,74,77,131,90,47,193.09,363,82.00,-6.00,-1119.00
2024-05-17 17:21:29.509579,0,0,-50,0,0,0,74,77,131,90,47,193.11,363,39.00,17.00,-1004.00
2024-05-17 17:21:29.686317,0,-1,-50,0,0,0,74,77,133,90,47,193.17,363,-23.00,3.00,-1029.00
2024-05-17 17:21:29.714801,0,0,-50,0,0,0,74,77,134,90,47,193.13,363,16.00,4.00,-937.00
2024-05-17 17:21:29.815211,0,0,-50,0,0,0,74,77,136,90,47,193.12,364,-14.00,2.00,-1039.00
2024-05-17 17:21:29.868435,0,0,-50,0,0,0,74,77,139,90,47,193.13,364,8.00,23.00,-1032.00
2024-05-17 17:21:29.968614,0,0,-50,0,0,0,74,77,140,100,47,193.16,364,11.00,-19.00,-1008.00
2024-05-17 17:21:30.097343,0,0,-50,0,0,0,74,77,140,100,47,193.24,364,16.00,30.00,-1057.00
2024-05-17 17:21:30.172274,0,0,-50,0,0,0,74,77,141,100,47,193.17,364,10.00,21.00,-973.00
2024-05-17 17:21:30.297354,0,0,-50,0,0,0,74,77,142,100,47,193.21,364,16.00,20.00,-1023.00
2024-05-17 17:21:30.377402,0,0,-50,0,0,0,74,77,142,100,47,193.17,364,10.00,-9.00,-967.00
2024-05-17 17:21:30.479157,0,0,-50,0,0,0,75,77,143,100,47,193.31,364,-14.00,20.00,-997.00
2024-05-17 17:21:30.580308,0,0,-50,0,0,0,75,77,144,100,47,193.28,364,-28.00,18.00,-906.00
2024-05-17 17:21:30.706396,0,0,-50,0,0,0,75,77,143,100,47,193.31,364,58.00,-17.00,-1059.00
2024-05-17 17:21:30.784574,0,0,-50,0,0,0,75,77,144,100,47,193.32,365,27.00,-11.00,-961.00
2024-05-17 17:21:30.918650,0,0,-50,0,0,0,75,77,144,100,47,193.29,365,12.00,0.00,-999.00
2024-05-17 17:21:30.988244,0,0,-50,0,0,0,75,77,145,100,47,193.20,365,-65.00,41.00,-917.00
2024-05-17 17:21:31.115989,0,0,-50,0,0,0,75,77,144,100,47,193.18,365,29.00,9.00,-956.00
2024-05-17 17:21:31.192302,0,0,-50,0,0,0,75,77,144,100,47,193.23,365,-22.00,-4.00,-1034.00
2024-05-17 17:21:31.293921,0,0,-50,0,0,0,75,77,142,100,47,193.19,365,-15.00,16.00,-973.00
2024-05-17 17:21:31.423049,0,0,-50,0,0,0,75,77,141,100,47,193.23,365,13.00,-10.00,-974.00
2024-05-17 17:21:31.497996,0,1,-50,0,0,0,75,77,140,100,46,193.16,365,38.00,-14.00,-973.00
2024-05-17 17:21:31.627895,0,7,-50,0,0,0,75,77,141,100,46,193.19,365,20.00,-16.00,-947.00
2024-05-17 17:21:31.702635,0,6,-50,1,0,0,75,77,138,100,46,193.24,365,-7.00,-14.00,-990.00
2024-05-17 17:21:31.804981,0,5,-50,2,1,0,75,77,139,100,46,193.19,366,20.00,10.00,-1009.00
2024-05-17 17:21:31.937780,1,2,-50,3,1,0,75,77,139,100,46,193.20,366,13.00,-3.00,-1092.00
2024-05-17 17:21:32.008950,1,0,-50,3,2,0,75,77,138,100,46,193.24,366,22.00,-35.00,-1002.00
2024-05-17 17:21:32.140156,1,-1,-50,2,2,0,75,77,137,100,46,193.16,366,11.00,-25.00,-951.00
2024-05-17 17:21:32.213001,0,-1,-50,2,2,0,75,77,137,100,46,193.18,366,-66.00,25.00,-994.00
2024-05-17 17:21:32.344819,-1,0,-50,1,2,0,75,77,138,100,46,193.11,366,-18.00,0.00,-1069.00
2024-05-17 17:21:32.417010,-2,0,-50,1,2,0,75,77,137,100,46,193.15,366,13.00,-37.00,-999.00
2024-05-17 17:21:32.551119,-2,0,-50,1,1,0,75,77,139,100,46,193.15,366,-39.00,12.00,-1076.00
2024-05-17 17:21:32.621798,-2,0,-50,2,1,0,75,77,139,100,46,193.15,366,30.00,-48.00,-1095.00
2024-05-17 17:21:32.755810,-1,0,-50,2,1,0,75,77,139,100,46,193.12,366,-27.00,-19.00,-1049.00
2024-05-17 17:21:32.824976,-1,0,-50,2,1,0,75,77,138,100,46,193.19,367,20.00,-8.00,-1078.00
2024-05-17 17:21:32.962701,-3,-1,-50,2,1,0,75,77,138,100,46,193.17,367,-7.00,-20.00,-959.00
2024-05-17 17:21:33.029539,-2,-1,-50,2,1,0,75,77,138,100,46,193.25,367,-49.00,4.00,-891.00
2024-05-17 17:21:33.165763,0,-4,-50,2,0,0,75,77,137,100,46,193.12,367,-60.00,10.00,-1128.00
2024-05-17 17:21:33.233018,0,-3,-50,1,0,0,75,77,137,100,46,193.13,367,25.00,-45.00,-989.00
2024-05-17 17:21:33.375559,0,-2,-50,0,0,0,75,77,135,100,46,193.11,367,26.00,-35.00,-1000.00
2024-05-17 17:21:33.437178,0,-1,-50,0,0,0,75,77,134,100,46,193.05,367,2.00,-29.00,-996.00
2024-05-17 17:21:33.541330,-1,0,-50,0,0,0,75,76,134,100,46,193.11,367,18.00,1.00,-991.00
2024-05-17 17:21:33.641376,-1,0,-50,0,0,0,75,76,133,100,46,193.07,367,13.00,-27.00,-890.00
2024-05-17 17:21:33.779570,-1,-1,-50,0,0,0,75,76,132,100,46,193.05,368,22.00,-37.00,-1004.00
2024-05-17 17:21:33.846247,0,-1,-50,0,0,0,75,76,132,90,46,193.09,368,21.00,0.00,-936.00
2024-05-17 17:21:33.983236,0,-1,-50,0,0,0,75,76,131,90,46,193.18,368,-45.00,5.00,-1035.00
2024-05-17 17:21:34.050009,0,0,-50,0,0,0,75,76,130,90,46,193.12,368,-44.00,26.00,-1036.00
2024-05-17 17:21:34.100959,0,0,-50,0,0,0,75,76,129,90,46,193.09,368,-11.00,-2.00,-935.00
2024-05-17 17:21:34.290972,0,0,-50,0,0,0,75,76,129,90,46,193.10,368,-113.00,71.00,-889.00
2024-05-17 17:21:34.304924,0,0,-50,0,0,0,75,76,129,90,46,193.06,368,53.00,-23.00,-1042.00
2024-05-17 17:21:34.495252,0,0,-50,0,0,0,75,76,128,90,46,193.02,368,-12.00,16.00,-966.00
2024-05-17 17:21:34.509937,0,0,-50,0,0,0,74,76,128,90,45,193.02,368,0.00,12.00,-1030.00
2024-05-17 17:21:34.702539,0,0,-50,0,0,0,74,76,128,90,45,192.99,368,-11.00,-16.00,-963.00
2024-05-17 17:21:34.712877,-1,0,-50,0,0,0,74,76,129,90,45,193.01,369,46.00,-8.00,-1114.00
2024-05-17 17:21:34.815273,-1,0,-50,0,0,0,74,76,129,90,45,193.07,369,-11.00,9.00,-895.00
2024-05-17 17:21:35.009453,-1,0,-50,0,0,0,74,76,129,90,45,192.99,369,-60.00,18.00,-972.00
2024-05-17 17:21:35.018813,-1,0,-50,0,0,0,74,76,129,90,45,193.00,369,41.00,-45.00,-1035.00
2024-05-17 17:21:35.185327,0,0,-50,0,0,0,74,76,130,90,45,193.01,369,-11.00,-16.00,-966.00
2024-05-17 17:21:35.222803,0,0,-50,0,0,0,74,76,130,90,45,193.08,369,-35.00,16.00,-992.00
2024-05-17 17:21:35.418675,0,0,-48,0,0,0,74,76,130,90,45,193.05,369,-14.00,-22.00,-939.00
2024-05-17 17:21:35.430812,0,0,-42,0,0,0,74,76,131,90,45,193.08,369,0.00,-36.00,-996.00
2024-05-17 17:21:35.528774,0,0,-37,0,0,0,75,77,132,90,45,193.05,369,13.00,-11.00,-1030.00
2024-05-17 17:21:35.727691,0,0,-31,0,0,0,75,77,133,90,45,193.05,369,-23.00,32.00,-990.00
2024-05-17 17:21:35.732821,0,0,-25,0,0,0,75,77,133,90,45,193.10,370,53.00,-69.00,-974.00
2024-05-17 17:21:35.834836,0,0,-19,0,0,0,75,77,132,90,45,193.11,370,77.00,-51.00,-1149.00
2024-05-17 17:21:36.034290,0,0,-13,0,0,0,75,77,133,90,45,193.13,370,-3.00,-31.00,-1111.00
2024-05-17 17:21:36.038876,0,0,-7,0,0,0,75,77,133,90,45,193.11,370,-44.00,17.00,-998.00
2024-05-17 17:21:36.240439,0,0,-1,0,0,0,75,77,133,100,45,193.16,370,-21.00,42.00,-957.00
2024-05-17 17:21:36.242744,0,0,3,0,0,0,75,77,134,100,45,193.14,370,-28.00,15.00,-925.00
2024-05-17 17:21:36.344759,0,0,9,0,0,0,75,77,134,100,45,193.08,370,75.00,-60.00,-1022.00
2024-05-17 17:21:36.446738,0,0,15,0,0,0,75,77,134,100,45,193.10,370,-26.00,0.00,-981.00
2024-05-17 17:21:36.549085,0,0,21,0,0,0,76,77,133,100,45,193.05,370,-3.00,-69.00,-1038.00
2024-05-17 17:21:36.650717,0,0,27,0,0,0,76,77,133,90,45,193.06,370,63.00,10.00,-929.00
2024-05-17 17:21:36.851393,0,0,32,0,0,0,76,77,132,90,45,193.12,371,10.00,-43.00,-950.00
2024-05-17 17:21:36.854818,0,0,38,0,0,0,76,77,131,90,45,193.11,371,-30.00,29.00,-920.00
2024-05-17 17:21:36.956695,0,0,44,0,0,0,76,77,131,90,45,193.02,371,-10.00,24.00,-888.00
2024-05-17 17:21:37.058718,0,0,50,0,0,0,76,77,130,90,45,193.11,371,-48.00,39.00,-1011.00
2024-05-17 17:21:37.160733,0,0,56,0,0,0,76,77,129,90,45,193.08,371,-54.00,-8.00,-962.00
2024-05-17 17:21:37.262709,0,0,62,0,0,0,76,77,129,90,45,193.00,371,-1.00,0.00,-1093.00
2024-05-17 17:21:37.364732,0,0,68,0,0,0,76,77,129,90,45,192.99,371,-88.00,58.00,-1053.00
2024-05-17 17:21:37.467371,0,0,74,0,0,0,76,77,128,90,45,193.07,371,-13.00,22.00,-946.00
2024-05-17 17:21:37.671244,0,0,80,0,0,0,75,77,128,90,45,193.13,371,-34.00,-46.00,-1029.00
2024-05-17 17:21:37.671781,0,0,86,0,0,0,75,77,128,90,45,193.06,371,-73.00,25.00,-1024.00
2024-05-17 17:21:37.774750,0,0,92,0,0,0,75,77,128,90,45,193.10,372,-9.00,-68.00,-1055.00
2024-05-17 17:21:37.825716,0,0,98,0,0,0,75,77,129,90,45,193.02,372,-2.00,-18.00,-1022.00
2024-05-17 17:21:37.977250,0,0,104,0,0,0,75,77,128,90,45,193.08,372,-58.00,29.00,-992.00
2024-05-17 17:21:38.029688,0,0,110,0,0,0,75,77,129,90,45,193.09,372,-84.00,49.00,-1006.00
2024-05-17 17:21:38.181450,0,0,116,0,0,0,75,77,130,90,45,193.07,372,-65.00,30.00,-1088.00
2024-05-17 17:21:38.233653,0,0,122,0,0,0,75,77,130,90,45,193.10,372,-8.00,3.00,-978.00
2024-05-17 17:21:38.391125,0,0,128,0,0,0,75,77,130,90,45,193.09,372,53.00,-75.00,-995.00
2024-05-17 17:21:38.437655,0,0,134,0,0,0,75,77,130,90,45,193.06,372,25.00,25.00,-863.00
2024-05-17 17:21:38.592399,0,0,140,0,0,0,74,76,130,90,44,193.13,372,-25.00,-16.00,-988.00
2024-05-17 17:21:38.642291,0,1,146,0,0,0,74,76,132,90,44,193.12,372,45.00,-57.00,-1087.00
2024-05-17 17:21:38.797162,0,1,152,0,0,0,74,76,132,90,44,193.04,373,-26.00,-15.00,-998.00
2024-05-17 17:21:38.845697,0,1,158,0,0,0,74,76,133,90,44,193.05,373,20.00,-16.00,-929.00
2024-05-17 17:21:38.947659,0,1,164,0,0,0,74,76,132,90,44,193.07,373,26.00,-69.00,-1070.00
2024-05-17 17:21:39.053785,0,0,170,0,0,0,74,76,132,90,44,193.07,373,-35.00,26.00,-1037.00
2024-05-17 17:21:39.153894,0,0,176,0,0,0,74,76,131,90,44,193.15,373,-37.00,56.00,-973.00
2024-05-17 17:21:39.253649,0,0,-177,0,0,0,74,76,131,90,44,193.05,373,-21.00,8.00,-995.00
2024-05-17 17:21:39.411232,0,0,-171,0,0,0,74,76,131,90,44,193.07,373,-13.00,-22.00,-1059.00
2024-05-17 17:21:39.459385,0,0,-165,0,0,0,74,76,131,90,44,193.09,373,27.00,-57.00,-1145.00
2024-05-17 17:21:39.559732,0,0,-159,0,0,0,75,76,131,100,44,193.13,373,-43.00,-23.00,-894.00
2024-05-17 17:21:39.663819,0,0,-153,0,0,0,75,76,131,100,44,193.09,373,-29.00,-17.00,-980.00
2024-05-17 17:21:39.766186,0,0,-147,0,0,0,75,76,131,100,44,193.14,374,-37.00,-20.00,-938.00
2024-05-17 17:21:39.868753,0,0,-141,0,0,0,75,76,130,100,44,193.00,374,100.00,-62.00,-971.00
2024-05-17 17:21:39.967595,0,0,-135,0,0,0,75,76,130,100,44,193.05,374,-38.00,15.00,-967.00
2024-05-17 17:21:40.127034,0,0,-129,0,0,0,75,76,129,100,44,192.96,374,30.00,5.00,-1069.00
2024-05-17 17:21:40.171591,0,0,-123,0,0,0,75,76,129,90,44,193.01,374,-60.00,30.00,-1068.00
2024-05-17 17:21:40.331773,0,1,-116,0,0,0,75,76,128,90,44,193.04,374,-7.00,8.00,-1021.00
2024-05-17 17:21:40.375776,0,1,-110,0,0,0,75,76,129,90,44,193.05,374,28.00,-3.00,-907.00
2024-05-17 17:21:40.537007,0,1,-104,0,0,0,75,76,128,90,44,193.06,374,9.00,2.00,-1031.00
2024-05-17 17:21:40.583703,0,1,-98,0,0,0,74,77,127,90,44,193.09,374,-70.00,34.00,-933.00
2024-05-17 17:21:40.681602,0,0,-91,0,0,0,74,77,126,90,44,193.08,374,31.00,0.00,-1008.00
2024-05-17 17:21:40.843790,0,0,-85,0,0,0,74,77,125,90,44,193.04,375,86.00,-58.00,-996.00
2024-05-17 17:21:40.885483,0,0,-79,0,0,0,74,77,126,90,44,193.12,375,-12.00,12.00,-992.00
2024-05-17 17:21:41.049810,0,0,-72,0,0,0,74,77,127,90,44,193.07,375,-18.00,26.00,-915.00
2024-05-17 17:21:41.089473,0,0,-67,0,0,0,74,77,127,90,44,193.05,375,49.00,-50.00,-994.00
2024-05-17 17:21:41.192962,0,0,-62,0,0,0,74,77,127,90,44,193.07,375,32.00,3.00,-1095.00
2024-05-17 17:21:41.297636,0,0,-59,0,0,0,74,77,128,90,44,193.00,375,-11.00,10.00,-1012.00
2024-05-17 17:21:41.396246,0,0,-56,0,0,0,74,77,128,90,44,193.01,375,-46.00,67.00,-1050.00
2024-05-17 17:21:41.498739,0,0,-55,0,0,0,74,77,128,90,44,193.08,375,-13.00,-15.00,-948.00
2024-05-17 17:21:41.599395,0,1,-53,0,0,0,75,77,130,90,44,193.02,375,-77.00,63.00,-949.00
2024-05-17 17:21:41.701549,0,1,-52,0,0,0,75,77,130,90,44,193.03,375,13.00,-37.00,-955.00
2024-05-17 17:21:41.803832,0,0,-52,0,0,0,75,77,131,90,44,193.04,376,32.00,10.00,-1045.00
2024-05-17 17:21:41.973565,0,0,-52,0,0,0,75,77,130,90,44,193.08,376,-13.00,29.00,-954.00
2024-05-17 17:21:41.973743,0,0,-52,0,0,0,75,77,129,90,44,193.10,376,-65.00,46.00,-1015.00
2024-05-17 17:21:42.058704,0,0,-52,0,0,0,75,77,129,90,44,193.12,376,-14.00,17.00,-1055.00
2024-05-17 17:21:42.175323,0,0,-51,0,0,0,75,77,129,90,44,193.12,376,-46.00,28.00,-933.00
2024-05-17 17:21:42.262543,0,0,-51,0,0,0,75,77,129,90,44,193.15,376,16.00,15.00,-940.00
2024-05-17 17:21:42.379966,0,0,-51,0,0,0,75,77,129,90,44,193.15,376,-4.00,-5.00,-1040.00
2024-05-17 17:21:42.467528,0,0,-51,0,0,0,75,77,129,90,44,193.09,376,-1.00,30.00,-1037.00
2024-05-17 17:21:42.584885,0,0,-51,0,0,0,74,77,129,90,44,193.18,376,24.00,-2.00,-990.00
2024-05-17 17:21:42.670533,1,0,-51,0,0,0,74,77,130,90,44,193.13,376,10.00,6.00,-986.00
2024-05-17 17:21:42.789805,1,0,-51,0,0,0,74,77,130,90,44,193.07,377,-26.00,43.00,-996.00
2024-05-17 17:21:42.876206,1,0,-51,0,0,0,74,77,130,90,44,193.09,377,-37.00,36.00,-986.00
2024-05-17 17:21:42.994543,0,0,-51,0,0,0,74,77,130,90,44,193.09,377,12.00,14.00,-1051.00
2024-05-17 17:21:43.080213,0,0,-51,0,0,0,74,77,130,90,44,193.08,377,83.00,-22.00,-1094.00
2024-05-17 17:21:43.199134,0,0,-51,0,0,0,74,77,130,90,44,193.05,377,13.00,10.00,-973.00
2024-05-17 17:21:43.283627,1,0,-51,0,0,0,74,77,131,90,44,193.09,377,-23.00,40.00,-1015.00
2024-05-17 17:21:43.403887,1,0,-51,0,0,0,74,77,131,90,44,193.10,377,13.00,26.00,-1012.00
2024-05-17 17:21:43.488798,1,0,-51,0,0,0,74,77,131,90,43,193.04,377,-30.00,44.00,-982.00
2024-05-17 17:21:43.618108,1,0,-51,0,0,0,75,76,131,90,43,193.07,377,8.00,16.00,-997.00
2024-05-17 17:21:43.691704,1,0,-52,0,0,0,75,76,131,90,43,193.05,377,112.00,-60.00,-1053.00
2024-05-17 17:21:43.793823,1,0,-51,0,0,0,75,76,131,90,43,193.03,378,12.00,1.00,-964.00
2024-05-17 17:21:43.895323,1,0,-52,0,0,0,75,76,131,90,43,193.07,378,-28.00,-10.00,-980.00
2024-05-17 17:21:44.018673,1,0,-58,0,0,0,75,76,130,90,43,192.98,378,35.00,18.00,-1001.00
2024-05-17 17:21:44.099303,1,0,-64,0,0,0,75,76,130,90,43,193.00,378,-19.00,14.00,-944.00
2024-05-17 17:21:44.225275,1,0,-70,0,0,0,75,76,130,90,43,193.04,378,14.00,-28.00,-952.00
2024-05-17 17:21:44.303643,1,0,-76,0,0,0,75,76,130,90,43,193.09,378,49.00,-8.00,-1056.00
2024-05-17 17:21:44.427758,0,0,-82,0,0,0,75,76,129,90,43,193.04,378,-17.00,16.00,-1031.00
2024-05-17 17:21:44.507366,0,0,-89,0,0,0,75,76,129,90,43,193.08,378,-25.00,25.00,-1020.00
2024-05-17 17:21:44.632840,0,-1,-95,0,0,0,74,76,131,90,43,193.05,378,110.00,-55.00,-1099.00
2024-05-17 17:21:44.711305,0,0,-102,0,0,0,74,76,132,90,43,193.09,378,-48.00,44.00,-1058.00
2024-05-17 17:21:44.815558,0,0,-108,0,0,0,74,76,133,90,43,193.05,379,6.00,3.00,-1003.00
2024-05-17 17:21:44.916540,0,0,-115,0,0,0,74,76,134,90,43,193.02,379,3.00,-6.00,-966.00
2024-05-17 17:21:45.017327,0,0,-121,0,0,0,74,76,135,90,43,193.14,379,-24.00,32.00,-1002.00
2024-05-17 17:21:45.144622,0,0,-128,0,0,0,74,76,136,100,43,193.08,379,-21.00,10.00,-897.00
2024-05-17 17:21:45.176856,0,0,-134,0,0,0,74,76,136,100,43,193.06,379,3.00,1.00,-979.00
2024-05-17 17:21:45.273992,0,0,-141,0,0,0,74,76,137,100,43,193.13,379,-52.00,15.00,-892.00
2024-05-17 17:21:45.374458,-1,0,-147,0,0,0,74,76,137,100,43,193.02,379,26.00,-8.00,-909.00
2024-05-17 17:21:45.557374,0,0,-153,0,0,0,74,76,136,100,42,193.05,379,-3.00,1.00,-1029.00
2024-05-17 17:21:45.630048,0,0,-160,0,0,0,73,76,137,100,42,193.22,379,19.00,3.00,-1003.00
2024-05-17 17:21:45.680357,0,0,-166,0,0,0,73,76,136,100,42,193.08,379,23.00,10.00,-1088.00
2024-05-17 17:21:45.862017,0,0,-173,0,0,0,73,76,136,100,42,192.96,380,-49.00,40.00,-998.00
2024-05-17 17:21:45.885289,0,0,-179,0,0,0,73,76,137,100,42,193.10,380,-6.00,-11.00,-969.00
2024-05-17 17:21:46.067219,0,0,174,0,0,0,73,76,136,100,42,193.07,380,-45.00,14.00,-948.00
2024-05-17 17:21:46.090218,0,0,167,0,0,0,73,76,136,100,42,193.01,380,-48.00,33.00,-1002.00
2024-05-17 17:21:46.276916,0,0,161,0,0,0,73,76,135,100,42,193.10,380,-34.00,-9.00,-984.00
2024-05-17 17:21:46.296670,0,0,155,0,0,0,73,76,136,100,42,193.06,380,2.00,-27.00,-917.00
2024-05-17 17:21:46.397041,0,0,149,0,0,0,73,76,136,100,42,192.98,380,-90.00,24.00,-987.00
2024-05-17 17:21:46.498242,0,0,143,0,0,0,73,76,135,100,42,193.07,380,31.00,-34.00,-1025.00
2024-05-17 17:21:46.599596,0,0,137,0,0,0,75,76,134,100,42,193.14,380,-19.00,14.00,-1053.00
2024-05-17 17:21:46.782972,0,0,131,0,0,0,75,76,134,90,42,193.06,380,-79.00,45.00,-996.00
2024-05-17 17:21:46.805026,0,0,125,0,0,0,75,76,134,90,42,193.02,381,-73.00,30.00,-962.00
2024-05-17 17:21:46.905263,0,0,118,0,0,0,75,76,134,90,42,193.00,381,19.00,-51.00,-1001.00
2024-05-17 17:21:47.007246,0,0,112,0,0,0,75,76,134,90,42,193.03,381,28.00,-54.00,-1022.00
2024-05-17 17:21:47.193364,0,0,106,0,0,0,75,76,134,90,42,193.01,381,-66.00,17.00,-954.00
2024-05-17 17:21:47.211235,0,0,100,0,0,0,75,76,134,90,42,193.00,381,19.00,-27.00,-1045.00
2024-05-17 17:21:47.397963,0,0,94,0,0,0,75,76,134,90,42,193.03,381,2.00,-4.00,-980.00
2024-05-17 17:21:47.415226,0,0,88,0,0,0,75,76,134,90,42,193.08,381,-8.00,-21.00,-971.00
2024-05-17 17:21:47.603567,0,0,82,0,0,0,75,76,134,90,42,193.01,381,-10.00,-34.00,-912.00
2024-05-17 17:21:47.619236,0,0,76,0,0,0,75,77,135,90,42,193.03,381,-42.00,4.00,-1041.00
2024-05-17 17:21:47.808304,0,0,70,0,0,0,75,77,135,90,42,193.08,381,52.00,-60.00,-1009.00
2024-05-17 17:21:47.823334,0,1,64,0,0,0,75,77,134,90,42,193.06,382,-64.00,5.00,-949.00
2024-05-17 17:21:48.011753,0,1,58,0,0,0,75,77,136,90,42,193.05,382,6.00,-33.00,-1027.00
2024-05-17 17:21:48.027075,0,0,52,0,0,0,75,77,134,90,42,193.06,382,-35.00,2.00,-935.00
2024-05-17 17:21:48.216565,0,0,46,0,0,0,75,77,133,90,42,193.03,382,47.00,-50.00,-1000.00
2024-05-17 17:21:48.231799,1,1,40,0,0,0,75,77,135,90,42,193.05,382,-5.00,-6.00,-1091.00
2024-05-17 17:21:48.421626,1,0,34,0,0,0,75,77,134,90,42,193.08,382,14.00,-19.00,-1001.00
2024-05-17 17:21:48.438877,0,0,28,0,0,0,75,77,135,90,42,192.97,382,-18.00,4.00,-973.00
2024-05-17 17:21:48.538563,1,0,22,0,0,0,75,77,134,90,42,193.06,382,-34.00,18.00,-963.00
2024-05-17 17:21:48.728944,0,0,10,0,0,0,74,76,133,100,42,193.11,382,-26.00,28.00,-997.00
2024-05-17 17:21:48.741120,0,0,5,0,0,0,74,76,133,90,42,192.96,383,5.00,15.00,-1026.00
2024-05-17 17:21:48.843422,0,0,0,0,0,0,74,76,133,90,42,193.09,383,-18.00,-1.00,-946.00
2024-05-17 17:21:49.037374,1,0,-5,0,0,0,74,76,134,90,42,193.11,383,-31.00,16.00,-959.00
2024-05-17 17:21:49.047316,1,0,-11,0,0,0,74,76,135,90,42,193.11,383,27.00,-8.00,-996.00
2024-05-17 17:21:49.240538,2,0,-16,0,0,0,74,76,134,90,42,193.11,383,19.00,17.00,-1062.00
2024-05-17 17:21:49.241179,2,0,-22,0,0,0,74,76,133,90,42,193.14,383,-11.00,2.00,-973.00
2024-05-17 17:21:49.302437,2,0,-27,0,0,0,74,76,133,90,42,193.07,383,-3.00,25.00,-976.00
2024-05-17 17:21:49.445389,1,0,-32,0,0,0,74,76,132,90,42,193.12,383,20.00,18.00,-961.00
2024-05-17 17:21:49.506120,0,-1,-36,0,0,0,74,76,132,90,42,193.10,383,-17.00,65.00,-1074.00
2024-05-17 17:21:49.650391,0,-1,-39,0,0,0,74,76,130,90,42,193.05,383,-17.00,65.00,-1047.00
2024-05-17 17:21:49.710099,0,-2,-42,0,0,0,74,76,130,90,42,192.97,384,30.00,-10.00,-1075.00
2024-05-17 17:21:49.812546,0,-1,-44,0,0,0,74,76,130,90,42,192.98,384,7.00,58.00,-1054.00
2024-05-17 17:21:49.957811,0,-1,-45,0,0,0,74,76,130,90,42,192.97,384,33.00,-9.00,-962.00
2024-05-17 17:21:50.015990,0,-1,-46,0,0,0,74,76,130,90,42,193.04,384,-71.00,55.00,-913.00
2024-05-17 17:21:50.163393,0,-1,-47,0,0,0,74,76,131,90,42,193.04,384,56.00,-24.00,-1056.00
2024-05-17 17:21:50.220403,1,-1,-48,0,0,0,74,76,132,90,42,193.12,384,44.00,-17.00,-1005.00
2024-05-17 17:21:50.367352,1,-1,-49,0,0,0,74,76,133,90,42,193.04,384,-10.00,53.00,-982.00
2024-05-17 17:21:50.424128,1,-1,-50,0,0,0,74,76,132,90,42,193.06,384,62.00,14.00,-1044.00
2024-05-17 17:21:50.572542,1,-1,-50,0,0,0,74,76,133,90,41,193.11,384,-7.00,29.00,-1046.00
2024-05-17 17:21:50.633475,1,-1,-50,0,0,0,75,76,133,90,41,193.06,384,7.00,24.00,-1022.00
2024-05-17 17:21:50.730510,0,-1,-50,0,0,0,75,76,134,90,41,193.01,385,94.00,-48.00,-983.00
2024-05-17 17:21:50.879634,0,-1,-50,0,0,0,75,76,133,90,41,193.06,385,108.00,-19.00,-1074.00
2024-05-17 17:21:50.934150,1,-1,-50,0,0,0,75,76,134,90,41,193.03,385,-31.00,58.00,-982.00
2024-05-17 17:21:51.083939,1,0,-50,0,0,0,75,76,134,90,41,192.98,385,25.00,-7.00,-979.00
2024-05-17 17:21:51.138219,1,0,-50,0,0,0,75,76,133,90,41,193.03,385,4.00,40.00,-962.00
2024-05-17 17:21:51.289281,2,0,-50,0,0,0,75,76,133,90,41,193.01,385,47.00,-6.00,-972.00
2024-05-17 17:21:51.342102,2,0,-50,0,0,0,75,76,132,90,41,193.05,385,41.00,-10.00,-969.00
2024-05-17 17:21:51.501549,1,0,-50,0,0,0,75,76,132,90,41,193.07,385,-25.00,54.00,-963.00
2024-05-17 17:21:51.546386,0,-1,-50,0,0,0,75,76,131,90,41,193.01,385,78.00,-41.00,-976.00
2024-05-17 17:21:51.698265,0,-1,-50,0,0,0,75,76,129,90,41,192.97,385,51.00,10.00,-1055.00
2024-05-17 17:21:51.750162,0,-1,-50,0,0,0,75,76,129,90,41,192.98,386,-1.00,30.00,-1005.00
2024-05-17 17:21:51.852476,0,-1,-50,0,0,0,75,76,128,90,41,192.99,386,30.00,25.00,-960.00
2024-05-17 17:21:52.005453,0,0,-50,0,0,0,75,76,127,90,41,193.01,386,-18.00,12.00,-948.00
2024-05-17 17:21:52.055974,1,0,-50,0,0,0,75,76,128,90,41,193.08,386,-33.00,79.00,-960.00
2024-05-17 17:21:52.211123,1,0,-50,0,0,0,75,76,127,90,41,192.98,386,-17.00,44.00,-872.00
2024-05-17 17:21:52.260253,0,0,-50,0,0,0,75,76,128,90,41,193.01,386,-17.00,48.00,-1024.00
2024-05-17 17:21:52.377473,0,-1,-50,0,0,0,75,76,129,90,41,192.93,386,0.00,28.00,-1071.00
2024-05-17 17:21:52.464017,0,-1,-50,0,0,0,75,76,129,90,41,192.95,386,61.00,-13.00,-1019.00
2024-05-17 17:21:52.619776,0,-1,-50,0,0,0,75,76,129,90,41,192.93,386,73.00,-19.00,-1034.00
2024-05-17 17:21:52.667955,1,0,-50,0,0,0,75,76,130,90,41,193.03,386,-10.00,30.00,-1038.00
2024-05-17 17:21:52.825933,0,0,-50,0,0,0,75,76,130,90,41,193.00,387,23.00,7.00,-985.00
2024-05-17 17:21:52.872620,1,0,-50,0,0,0,75,76,132,90,41,192.99,387,58.00,12.00,-1084.00
2024-05-17 17:21:52.974106,0,0,-50,0,0,0,75,76,133,90,41,193.04,387,30.00,47.00,-1002.00
2024-05-17 17:21:53.024923,0,-1,-50,0,0,0,75,76,135,90,41,193.03,387,57.00,-28.00,-1010.00
2024-05-17 17:21:53.135637,1,0,-50,0,0,0,75,76,135,90,41,193.03,387,-12.00,26.00,-892.00
2024-05-17 17:21:53.229012,1,0,-50,0,0,0,75,76,136,90,41,193.02,387,-7.00,60.00,-968.00
2024-05-17 17:21:53.337588,1,-1,-50,0,0,0,75,76,138,90,41,193.05,387,27.00,17.00,-983.00
2024-05-17 17:21:53.433012,0,-2,-50,0,1,0,75,76,138,100,41,193.08,387,19.00,23.00,-1048.00
2024-05-17 17:21:53.541780,0,-2,-50,0,0,0,75,76,139,100,41,193.10,387,-42.00,54.00,-904.00
2024-05-17 17:21:53.637041,-1,-2,-50,0,0,0,73,75,139,100,41,193.07,387,-14.00,46.00,-1090.00
2024-05-17 17:21:53.746423,-1,-3,-50,0,0,0,73,75,140,100,41,193.13,388,-22.00,64.00,-959.00
2024-05-17 17:21:53.841878,-1,-3,-50,0,0,0,73,75,140,100,41,193.12,388,-62.00,72.00,-936.00
2024-05-17 17:21:53.953045,0,-2,-50,0,0,0,73,75,140,100,41,193.14,388,15.00,3.00,-1015.00
2024-05-17 17:21:54.046090,0,-1,-50,0,0,0,73,75,141,100,41,193.03,388,36.00,28.00,-922.00
2024-05-17 17:21:54.155887,1,-1,-50,0,0,0,73,75,141,100,41,193.07,388,19.00,28.00,-983.00
2024-05-17 17:21:54.250035,1,0,-50,0,0,0,73,75,140,100,41,193.06,388,93.00,-7.00,-1037.00
2024-05-17 17:21:54.361549,1,0,-50,0,0,0,73,75,140,100,41,193.13,388,49.00,24.00,-1112.00
2024-05-17 17:21:54.453997,1,-1,-50,0,0,0,73,75,140,100,41,193.12,388,0.00,28.00,-1017.00
2024-05-17 17:21:54.566890,0,-1,-50,0,0,0,73,75,138,100,40,193.09,388,-24.00,47.00,-1008.00
2024-05-17 17:21:54.658468,0,-1,-50,0,0,0,74,77,138,100,40,193.01,388,1.00,21.00,-1024.00
2024-05-17 17:21:54.770251,0,-1,-50,0,0,0,74,77,138,100,40,193.03,389,-7.00,35.00,-994.00
2024-05-17 17:21:54.863490,0,-1,-50,0,0,0,74,77,138,100,40,193.06,389,0.00,-9.00,-1012.00
2024-05-17 17:21:54.963847,0,0,-50,0,0,0,74,77,137,100,40,193.01,389,20.00,-3.00,-1028.00
2024-05-17 17:21:55.077830,1,0,-50,0,0,0,74,77,137,100,40,192.99,389,-27.00,53.00,-997.00
2024-05-17 17:21:55.167836,0,0,-50,0,0,0,74,77,137,100,40,193.04,389,-28.00,57.00,-1072.00
2024-05-17 17:21:55.270053,0,0,-50,0,0,0,74,77,137,100,40,193.04,389,-67.00,111.00,-919.00
2024-05-17 17:21:55.371984,0,-1,-50,0,0,0,74,77,138,100,40,193.00,389,7.00,0.00,-982.00
2024-05-17 17:21:55.474118,0,-1,-50,0,0,0,74,77,138,100,40,192.98,389,-1.00,17.00,-1056.00
2024-05-17 17:21:55.589570,0,-1,-50,0,0,0,74,77,138,100,40,193.09,389,-42.00,46.00,-976.00
2024-05-17 17:21:55.678658,0,-1,-50,0,0,0,73,76,139,100,40,193.09,389,15.00,3.00,-994.00
2024-05-17 17:21:55.794434,0,-1,-50,0,0,0,73,76,140,100,40,193.09,390,26.00,16.00,-1052.00
2024-05-17 17:21:55.885688,0,-1,-50,0,0,0,73,76,140,100,40,193.07,390,61.00,4.00,-1061.00
2024-05-17 17:21:55.985648,0,-1,-50,0,0,0,73,76,141,100,40,193.10,390,70.00,2.00,-1026.00
2024-05-17 17:21:56.101528,0,-1,-50,0,0,0,73,76,142,100,40,193.08,390,-16.00,30.00,-963.00
2024-05-17 17:21:56.190283,0,-1,-50,0,0,0,73,76,143,100,40,193.16,390,19.00,33.00,-1066.00
2024-05-17 17:21:56.291106,0,-1,-50,0,0,0,73,76,143,100,40,193.06,390,-40.00,30.00,-906.00
2024-05-17 17:21:56.408619,0,-1,-50,0,0,0,73,76,144,100,40,193.05,390,-66.00,38.00,-928.00
2024-05-17 17:21:56.443860,0,-1,-50,0,0,0,73,76,145,100,40,193.06,390,-18.00,15.00,-890.00
2024-05-17 17:21:56.613276,0,-1,-50,0,0,0,73,76,146,100,40,193.16,390,58.00,-9.00,-933.00
2024-05-17 17:21:56.698849,0,-1,-50,0,0,0,74,76,146,100,40,193.11,390,-8.00,21.00,-985.00
2024-05-17 17:21:56.812945,0,-1,-50,0,0,0,74,76,147,100,40,193.13,391,-10.00,20.00,-939.00
2024-05-17 17:21:56.903077,0,0,-50,0,0,0,74,76,147,100,40,193.21,391,24.00,12.00,-955.00
2024-05-17 17:21:57.025538,1,0,-50,0,0,0,74,76,146,100,40,193.08,391,46.00,-17.00,-1033.00
2024-05-17 17:21:57.107506,1,0,-50,0,0,0,74,76,146,100,40,193.12,391,60.00,0.00,-1054.00
2024-05-17 17:21:57.158324,0,0,-49,0,0,0,74,76,146,100,40,193.12,391,-11.00,28.00,-960.00
2024-05-17 17:21:57.259888,0,0,-49,0,0,0,74,76,145,100,40,193.22,391,23.00,9.00,-962.00
2024-05-17 17:21:57.433239,0,-1,-50,0,0,0,74,76,144,100,40,193.16,391,23.00,0.00,-1018.00
2024-05-17 17:21:57.463672,0,-1,-50,0,0,0,74,76,143,100,40,193.24,391,29.00,-34.00,-898.00
2024-05-17 17:21:57.637371,0,-1,-49,0,0,0,74,76,143,100,40,193.13,391,6.00,-16.00,-997.00
2024-05-17 17:21:57.668087,0,-1,-49,0,0,0,74,76,141,100,40,193.11,391,19.00,6.00,-991.00
2024-05-17 17:21:57.848226,0,-1,-49,0,0,0,74,76,140,100,40,193.13,392,-113.00,98.00,-976.00
2024-05-17 17:21:57.875703,0,-1,-49,0,0,0,74,76,138,100,40,193.09,392,77.00,-12.00,-1052.00
2024-05-17 17:21:57.973936,0,-1,-49,0,0,0,74,76,138,100,40,193.02,392,4.00,46.00,-1012.00
2024-05-17 17:21:58.149300,0,-1,-49,0,0,0,74,76,136,100,40,193.03,392,25.00,51.00,-1033.00
2024-05-17 17:21:58.177704,0,-1,-49,0,0,0,74,76,136,100,40,193.02,392,38.00,-58.00,-1039.00
2024-05-17 17:21:58.354550,0,-1,-49,0,0,0,74,76,135,100,40,193.08,392,39.00,-43.00,-1018.00
2024-05-17 17:21:58.382883,0,-1,-49,0,0,0,74,76,134,90,40,193.15,392,43.00,-40.00,-1056.00
2024-05-17 17:21:58.483766,0,-1,-49,0,0,0,74,76,134,90,40,193.12,392,93.00,-48.00,-1068.00
2024-05-17 17:21:58.661349,0,-1,-49,0,0,0,74,76,134,90,40,193.06,392,45.00,8.00,-1022.00
2024-05-17 17:21:58.687627,0,0,-49,0,0,0,74,76,133,90,40,193.00,392,8.00,-6.00,-1090.00
2024-05-17 17:21:58.866164,0,0,-50,0,0,0,74,76,133,90,40,193.13,393,-8.00,59.00,-958.00
2024-05-17 17:21:58.891738,1,0,-50,0,-1,0,74,76,134,90,40,193.06,393,8.00,46.00,-1036.00
2024-05-17 17:21:59.071187,1,0,-50,0,0,0,74,76,134,90,40,193.05,393,-25.00,57.00,-1020.00
2024-05-17 17:21:59.095562,1,0,-50,0,0,0,74,76,134,90,40,193.05,393,-17.00,88.00,-1000.00
2024-05-17 17:21:59.276249,1,-1,-50,0,0,0,74,76,135,90,40,193.01,393,-75.00,87.00,-929.00
2024-05-17 17:21:59.300254,1,-1,-50,0,0,0,74,76,136,90,40,193.02,393,18.00,32.00,-1004.00
2024-05-17 17:21:59.480722,1,-1,-50,0,0,0,74,76,137,90,40,193.05,393,35.00,-8.00,-1007.00
2024-05-17 17:21:59.503607,2,0,-50,0,-1,0,74,76,137,90,39,193.05,393,47.00,8.00,-974.00
2024-05-17 17:21:59.685336,2,0,-50,0,0,0,74,76,138,100,39,193.13,393,57.00,16.00,-1017.00
2024-05-17 17:21:59.708342,3,0,-50,0,0,0,73,76,139,100,39,193.02,393,-1.00,23.00,-964.00
2024-05-17 17:21:59.809749,3,0,-50,0,0,0,73,76,140,100,39,193.00,394,27.00,0.00,-996.00
2024-05-17 17:21:59.918737,4,0,-50,0,0,0,73,76,139,100,39,193.07,394,59.00,-27.00,-946.00
2024-05-17 17:22:00.013676,3,0,-50,0,0,0,73,76,139,100,39,193.07,394,-14.00,39.00,-968.00
2024-05-17 17:22:00.200319,2,0,-50,0,0,0,73,76,139,100,39,193.05,394,55.00,9.00,-979.00
2024-05-17 17:22:00.223151,2,-1,-50,0,0,0,73,76,138,100,39,193.07,394,3.00,59.00,-1017.00
2024-05-17 17:22:00.268658,3,0,-50,0,0,0,73,76,138,100,39,192.99,394,-44.00,21.00,-1026.00
2024-05-17 17:22:00.402964,2,0,-50,0,0,0,73,76,137,100,39,193.00,394,7.00,36.00,-1024.00
2024-05-17 17:22:00.472795,2,0,-50,0,0,0,73,76,137,100,39,193.07,394,71.00,-30.00,-999.00
2024-05-17 17:22:00.606883,1,0,-50,0,0,0,73,76,136,100,39,193.03,394,-31.00,52.00,-980.00
2024-05-17 17:22:00.729431,1,-1,-50,0,0,0,74,76,136,100,39,192.99,394,82.00,-33.00,-1041.00
2024-05-17 17:22:00.830068,1,-1,-50,0,0,0,74,76,136,100,39,193.01,395,52.00,-14.00,-1033.00
2024-05-17 17:22:00.880611,2,0,-50,0,0,0,74,76,135,90,39,192.95,395,66.00,-18.00,-1000.00
2024-05-17 17:22:01.019388,2,0,-50,0,0,0,74,76,135,90,39,193.04,395,-16.00,48.00,-1074.00
2024-05-17 17:22:01.085286,2,0,-50,0,0,0,74,76,136,90,39,192.97,395,-16.00,24.00,-965.00
2024-05-17 17:22:01.221291,1,-1,-50,0,0,0,74,76,136,90,39,193.04,395,10.00,0.00,-902.00
2024-05-17 17:22:01.288597,1,-1,-50,0,0,0,74,76,136,100,39,192.94,395,33.00,19.00,-990.00
2024-05-17 17:22:01.426215,0,-1,-50,0,0,0,74,76,136,100,39,193.08,395,47.00,-18.00,-948.00
2024-05-17 17:22:01.492543,1,-1,-50,0,0,0,74,76,136,100,38,193.07,395,68.00,-39.00,-978.00
2024-05-17 17:22:01.636668,1,0,-50,0,0,0,74,76,136,100,38,193.02,395,56.00,-15.00,-1089.00
2024-05-17 17:22:01.696442,2,0,-50,0,0,0,74,76,137,100,38,192.98,395,-10.00,39.00,-968.00
2024-05-17 17:22:01.798499,1,-1,-50,0,0,0,74,76,136,100,38,193.03,396,-34.00,52.00,-846.00
2024-05-17 17:22:01.900527,0,-1,-50,0,0,0,74,76,136,100,38,193.04,396,59.00,0.00,-1071.00
2024-05-17 17:22:02.040994,0,-1,-50,0,0,0,74,76,137,100,38,192.99,396,18.00,-5.00,-980.00
2024-05-17 17:22:02.113287,0,-1,-50,0,0,0,74,76,137,100,38,193.14,396,41.00,1.00,-999.00
2024-05-17 17:22:02.206627,1,0,-50,0,0,0,74,76,138,100,38,193.13,396,42.00,-25.00,-1046.00
2024-05-17 17:22:02.308665,2,0,-50,0,0,0,74,76,140,100,38,193.10,396,26.00,16.00,-950.00
2024-05-17 17:22:02.450260,2,0,-50,0,0,0,74,76,141,100,38,193.10,396,56.00,-11.00,-1060.00
2024-05-17 17:22:02.514332,2,0,-50,0,0,0,74,76,141,100,38,193.03,396,-65.00,84.00,-951.00
2024-05-17 17:22:02.614676,1,-1,-50,0,0,0,74,76,141,100,38,193.05,396,73.00,-40.00,-991.00
2024-05-17 17:22:02.717493,0,-1,-50,0,0,0,74,76,141,100,38,192.98,396,-17.00,24.00,-979.00
2024-05-17 17:22:02.859705,0,-2,-50,0,0,0,74,76,142,100,38,193.11,397,19.00,8.00,-1035.00
2024-05-17 17:22:02.920678,0,-2,-50,0,0,0,74,76,142,100,38,193.03,397,-7.00,29.00,-984.00
2024-05-17 17:22:03.064489,0,-2,-50,0,0,0,74,76,142,100,38,193.00,397,27.00,0.00,-949.00
2024-05-17 17:22:03.124489,0,-2,-50,0,0,0,74,76,142,100,38,193.07,397,14.00,-43.00,-960.00
2024-05-17 17:22:03.272596,1,-1,-50,0,0,0,74,76,140,100,38,193.11,397,-10.00,30.00,-932.00
