TS,pitch,roll,yaw,vgx,vgy,vgz,templ,temph,tof,h,bat,baro,time,agx,agy,agz
2024-05-19 09:33:26.349723,0,0,-1,0,0,0,68,70,10,0,100,131.51,0,1.00,4.00,-1001.00
2024-05-19 09:33:26.389649,0,0,-1,0,0,0,68,70,10,0,100,131.44,0,1.00,4.00,-998.00
2024-05-19 09:33:26.440972,0,0,-1,0,0,0,68,70,10,0,100,131.46,0,1.00,5.00,-998.00
2024-05-19 09:33:26.543032,0,0,-1,0,0,0,68,70,10,0,100,131.50,0,1.00,4.00,-999.00
2024-05-19 09:33:26.656987,0,0,-1,0,0,0,68,70,10,0,100,131.49,0,1.00,3.00,-1001.00
2024-05-19 09:33:26.746952,0,0,-1,0,0,0,68,70,10,0,100,131.50,0,1.00,6.00,-999.00
2024-05-19 09:33:26.861585,0,0,-1,0,0,0,68,70,10,0,100,131.45,0,1.00,5.00,-996.00
2024-05-19 09:33:26.950738,0,0,-1,0,0,0,68,70,10,0,100,131.47,0,-1.00,5.00,-997.00
2024-05-19 09:33:27.053604,0,0,-1,0,0,0,68,70,10,0,100,131.49,0,1.00,4.00,-997.00
2024-05-19 09:33:27.155097,0,0,-1,0,0,0,68,70,10,0,100,131.52,0,0.00,5.00,-999.00
2024-05-19 09:33:27.271246,0,0,-1,0,0,0,68,70,10,0,100,131.53,0,0.00,4.00,-1001.00
2024-05-19 09:33:27.359405,0,0,-1,0,0,0,68,70,10,0,100,131.52,0,0.00,5.00,-999.00
2024-05-19 09:33:27.475997,0,0,-1,0,0,0,68,70,10,0,100,131.53,0,1.00,5.00,-1000.00
2024-05-19 09:33:27.563101,0,0,-1,0,0,0,68,70,10,0,100,131.50,0,1.00,5.00,-1004.00
2024-05-19 09:33:27.680864,0,0,-1,0,0,0,69,70,10,0,100,131.57,0,0.00,5.00,-1001.00
2024-05-19 09:33:27.767094,0,0,-1,0,0,0,69,70,10,0,100,131.56,0,3.00,5.00,-1000.00
2024-05-19 09:33:27.885566,0,0,-1,0,0,0,69,70,10,0,100,131.49,0,0.00,4.00,-1001.00
2024-05-19 09:33:27.970918,0,0,-1,0,0,0,69,70,10,0,100,131.50,0,1.00,4.00,-1001.00
2024-05-19 09:33:28.072786,0,0,-1,0,0,0,69,70,10,0,100,131.49,0,1.00,5.00,-1000.00
2024-05-19 09:33:28.192831,0,0,-1,0,0,0,69,70,10,0,100,131.54,0,0.00,6.00,-1000.00
2024-05-19 09:33:28.276816,0,0,-1,0,0,0,69,70,10,0,100,131.55,0,2.00,5.00,-1000.00
2024-05-19 09:33:28.397403,0,0,-1,0,0,0,69,70,10,0,100,131.51,0,1.00,6.00,-999.00
2024-05-19 09:33:28.480882,0,0,-1,0,0,0,69,70,10,0,100,131.54,0,2.00,5.00,-1000.00
2024-05-19 09:33:28.582837,0,0,-1,0,0,0,69,70,10,0,100,131.58,0,0.00,5.00,-1001.00
2024-05-19 09:33:28.704708,0,0,-1,0,0,0,69,71,10,0,100,131.55,0,1.00,6.00,-998.00
2024-05-19 09:33:28.786871,0,0,-1,0,0,0,69,71,10,0,100,131.49,0,1.00,5.00,-1000.00
2024-05-19 09:33:28.909554,0,0,-1,0,0,0,69,71,10,0,100,131.56,0,1.00,4.00,-1001.00
2024-05-19 09:33:28.939658,0,0,-1,0,0,0,69,71,10,0,100,131.52,0,0.00,5.00,-999.00
2024-05-19 09:33:29.114352,0,0,-1,0,0,0,69,71,10,0,100,131.50,0,1.00,5.00,-997.00
2024-05-19 09:33:29.143715,0,0,-1,0,0,0,69,71,10,0,100,131.52,0,1.00,4.00,-1002.00
2024-05-19 09:33:29.319187,0,0,-1,0,0,0,69,71,10,0,100,131.51,0,0.00,5.00,-998.00
2024-05-19 09:33:29.347677,0,0,-1,0,0,0,69,71,10,0,100,131.60,0,0.00,6.00,-1000.00
2024-05-19 09:33:29.524249,0,0,-1,0,0,0,69,71,10,0,100,131.52,0,2.00,4.00,-998.00
2024-05-19 09:33:29.551527,0,0,-1,0,0,0,69,71,10,0,100,131.52,0,1.00,6.00,-999.00
2024-05-19 09:33:29.728769,0,0,-1,0,0,0,69,70,10,0,100,131.57,0,0.00,5.00,-998.00
2024-05-19 09:33:29.755553,0,0,-1,0,0,0,69,70,10,0,100,131.55,0,3.00,4.00,-1000.00
2024-05-19 09:33:29.933620,0,0,-1,0,0,0,69,70,10,0,100,131.55,0,0.00,6.00,-999.00
2024-05-19 09:33:29.959552,0,0,-1,0,0,0,69,70,10,0,100,131.58,0,1.00,6.00,-998.00
2024-05-19 09:33:30.138511,0,0,-1,0,0,0,69,70,10,0,100,131.51,0,1.00,5.00,-999.00
2024-05-19 09:33:30.163635,0,0,-1,0,0,0,69,70,10,0,100,131.55,0,0.00,5.00,-1000.00
2024-05-19 09:33:30.343215,0,0,-1,0,0,0,69,70,10,0,100,131.54,0,1.00,5.00,-998.00
2024-05-19 09:33:30.367923,0,0,-1,0,0,0,69,70,10,0,100,131.54,0,0.00,5.00,-999.00
2024-05-19 09:33:30.547997,0,0,-1,0,0,0,69,70,10,0,100,131.52,0,0.00,5.00,-1000.00
2024-05-19 09:33:30.571541,0,0,-1,0,0,0,69,70,10,0,100,131.59,0,0.00,5.00,-1000.00
2024-05-19 09:33:30.753182,0,0,-1,0,0,0,69,71,10,0,100,131.56,0,0.00,4.00,-1000.00
2024-05-19 09:33:30.775622,0,0,-1,0,0,0,69,71,10,0,100,131.61,0,0.00,5.00,-1002.00
2024-05-19 09:33:30.957446,0,0,-1,0,0,0,69,71,10,0,100,131.61,0,0.00,6.00,-999.00
2024-05-19 09:33:30.979626,0,0,-1,0,0,0,69,71,10,0,100,131.59,0,0.00,6.00,-1000.00
2024-05-19 09:33:31.081682,0,0,-1,0,0,0,69,71,10,0,100,131.61,0,1.00,6.00,-997.00
2024-05-19 09:33:31.264835,0,0,-1,0,0,0,69,71,10,0,100,131.59,0,1.00,5.00,-1000.00
2024-05-19 09:33:31.285563,0,0,-1,0,0,0,69,71,10,0,100,131.56,0,1.00,6.00,-1001.00
2024-05-19 09:33:31.387522,0,0,-1,0,0,0,69,71,10,0,100,131.57,0,1.00,4.00,-1000.00
2024-05-19 09:33:31.571906,0,0,-1,0,0,0,69,71,10,0,100,131.54,0,0.00,4.00,-1000.00
2024-05-19 09:33:31.591364,0,0,-1,0,0,0,69,71,10,0,100,131.54,0,-1.00,13.00,-1003.00
2024-05-19 09:33:31.776692,0,0,-1,0,0,0,69,71,10,0,100,131.54,0,4.00,-6.00,-983.00
2024-05-19 09:33:31.795546,0,0,0,0,0,0,69,71,10,0,100,131.54,0,26.00,-30.00,-998.00
2024-05-19 09:33:31.981500,0,0,2,0,0,0,69,71,10,0,100,131.54,0,21.00,59.00,-1123.00
2024-05-19 09:33:31.999482,0,0,2,0,0,0,69,71,10,0,100,131.54,0,6.00,-5.00,-1083.00
2024-05-19 09:33:32.186645,0,0,2,0,0,-1,69,71,10,0,100,131.54,0,-16.00,25.00,-1247.00
2024-05-19 09:33:32.203459,0,0,2,0,0,-4,69,71,10,0,100,131.54,0,34.00,7.00,-1346.00
2024-05-19 09:33:32.254594,0,-1,2,0,0,-7,69,71,15,0,100,131.66,0,31.00,8.00,-1181.00
2024-05-19 09:33:32.391055,0,-1,2,0,0,-8,69,71,24,10,100,131.91,0,3.00,37.00,-1042.00
2024-05-19 09:33:32.460431,0,-1,2,0,0,-8,69,71,32,20,100,131.96,0,13.00,47.00,-1041.00
2024-05-19 09:33:32.560525,0,-2,2,0,0,-8,69,71,38,30,100,132.13,1,-27.00,33.00,-896.00
2024-05-19 09:33:32.700020,0,-2,2,0,0,-7,70,71,44,30,100,132.25,1,-44.00,66.00,-910.00
2024-05-19 09:33:32.764937,0,-2,2,0,0,-5,70,71,50,40,100,132.26,1,36.00,21.00,-911.00
2024-05-19 09:33:32.903073,0,-1,2,0,0,-4,70,71,55,40,100,132.37,1,-2.00,58.00,-913.00
2024-05-19 09:33:32.968616,0,-1,2,0,0,-3,70,71,59,50,100,132.42,1,-60.00,89.00,-903.00
2024-05-19 09:33:33.109705,0,-1,2,0,0,-2,70,71,62,50,100,132.48,1,-4.00,42.00,-872.00
2024-05-19 09:33:33.172560,0,-1,2,0,0,-1,70,71,64,50,100,132.33,1,29.00,29.00,-958.00
2024-05-19 09:33:33.316018,0,-1,2,0,0,-1,70,71,66,50,100,132.40,1,45.00,18.00,-961.00
2024-05-19 09:33:33.376597,0,-2,2,0,0,0,70,71,67,50,100,132.42,1,20.00,33.00,-1000.00
2024-05-19 09:33:33.525069,0,-2,2,0,0,0,70,71,68,50,100,132.47,1,40.00,36.00,-994.00
2024-05-19 09:33:33.580449,0,-1,2,0,0,0,70,71,69,50,100,132.48,2,-39.00,52.00,-981.00
2024-05-19 09:33:33.722266,0,-1,2,0,0,-1,70,71,70,50,100,132.48,2,49.00,29.00,-1022.00
2024-05-19 09:33:33.784527,0,-1,2,0,0,-1,70,71,72,50,100,132.50,2,69.00,7.00,-923.00
2024-05-19 09:33:33.927224,0,-1,2,0,0,-1,70,71,74,60,100,132.43,2,25.00,24.00,-1021.00
2024-05-19 09:33:33.988595,0,-1,2,0,0,-1,70,71,75,60,100,132.44,2,4.00,19.00,-1037.00
2024-05-19 09:33:34.092686,0,-1,2,0,0,-1,70,71,76,60,100,132.53,2,61.00,15.00,-1062.00
2024-05-19 09:33:34.192475,0,-2,2,0,0,0,70,71,78,60,100,132.57,2,9.00,48.00,-980.00
2024-05-19 09:33:34.336648,0,-2,3,0,0,0,70,71,79,60,100,132.57,2,23.00,25.00,-994.00
2024-05-19 09:33:34.396515,0,-1,3,0,0,0,70,71,80,60,100,132.52,2,12.00,29.00,-989.00
2024-05-19 09:33:34.541526,0,-1,2,0,0,0,70,71,81,60,100,132.61,2,20.00,6.00,-953.00
2024-05-19 09:33:34.600492,0,-1,2,0,0,0,70,71,82,60,100,132.55,3,-21.00,26.00,-985.00
2024-05-19 09:33:34.746304,-1,-1,2,0,0,0,70,72,83,60,100,132.56,3,-40.00,23.00,-975.00
2024-05-19 09:33:34.804683,-2,-1,2,0,0,0,70,72,84,60,100,132.59,3,53.00,4.00,-926.00
2024-05-19 09:33:34.951008,-1,0,2,0,0,0,70,72,84,60,100,132.61,3,22.00,33.00,-1036.00
2024-05-19 09:33:35.008541,0,0,2,0,0,0,70,72,85,70,100,132.55,3,23.00,35.00,-1013.00
2024-05-19 09:33:35.156117,0,0,2,0,0,0,70,72,86,70,100,132.58,3,-21.00,19.00,-1009.00
2024-05-19 09:33:35.212445,0,0,2,0,0,0,70,72,87,70,100,132.59,3,6.00,25.00,-1051.00
2024-05-19 09:33:35.360842,0,0,2,0,0,0,70,72,87,70,100,132.54,3,-48.00,62.00,-1015.00
2024-05-19 09:33:35.416411,0,0,2,0,0,0,70,72,88,70,100,132.59,3,-40.00,37.00,-1012.00
2024-05-19 09:33:35.568943,0,-1,2,0,0,0,70,72,89,70,100,132.60,3,-15.00,25.00,-982.00
2024-05-19 09:33:35.620387,-1,-1,2,0,0,0,70,72,89,70,100,132.66,4,-16.00,41.00,-1003.00
2024-05-19 09:33:35.770318,-1,-1,2,0,0,0,70,72,89,70,100,132.63,4,54.00,-10.00,-965.00
2024-05-19 09:33:35.824436,0,0,2,0,0,0,70,72,90,70,100,132.70,4,-42.00,25.00,-1048.00
2024-05-19 09:33:35.975002,0,0,2,0,0,0,70,72,90,70,100,132.64,4,49.00,-17.00,-977.00
2024-05-19 09:33:36.028353,0,0,2,0,0,0,70,72,90,70,100,132.66,4,70.00,-5.00,-913.00
2024-05-19 09:33:36.179828,0,0,2,0,0,0,70,72,91,70,100,132.68,4,2.00,52.00,-1020.00
2024-05-19 09:33:36.232531,0,0,2,0,0,0,70,72,91,70,100,132.71,4,69.00,-6.00,-906.00
2024-05-19 09:33:36.283217,0,0,2,0,0,0,70,72,91,70,100,132.71,4,-32.00,43.00,-974.00
2024-05-19 09:33:36.487093,0,0,2,0,0,0,70,72,92,70,100,132.67,4,66.00,-33.00,-931.00
2024-05-19 09:33:36.487261,0,0,2,0,0,0,70,72,92,70,100,132.64,4,-28.00,47.00,-1012.00
2024-05-19 09:33:36.589482,0,0,2,0,0,0,70,72,91,70,100,132.66,5,-29.00,31.00,-978.00
2024-05-19 09:33:36.691522,0,0,2,0,0,0,70,72,91,70,100,132.67,5,55.00,29.00,-1018.00
2024-05-19 09:33:36.794248,0,-1,2,0,0,0,70,72,91,70,100,132.66,5,-11.00,23.00,-1013.00
2024-05-19 09:33:36.896659,0,-1,2,0,0,0,70,72,91,70,100,132.64,5,89.00,-18.00,-1017.00
2024-05-19 09:33:36.999003,0,-2,2,0,0,0,70,72,91,70,100,132.62,5,27.00,8.00,-1012.00
2024-05-19 09:33:37.101103,0,-1,2,0,0,0,70,72,91,70,100,132.65,5,67.00,14.00,-981.00
2024-05-19 09:33:37.203823,0,-2,2,0,0,0,70,72,91,70,100,132.63,5,55.00,46.00,-997.00
2024-05-19 09:33:37.306210,0,-2,2,0,0,0,70,72,90,70,100,132.64,5,72.00,9.00,-1080.00
2024-05-19 09:33:37.408935,0,-2,2,0,0,0,70,72,90,70,100,132.73,5,-23.00,77.00,-991.00
2024-05-19 09:33:37.508437,0,-1,2,0,0,0,70,72,89,70,100,132.64,5,78.00,7.00,-1033.00
2024-05-19 09:33:37.616849,0,-1,2,0,0,0,70,72,88,70,100,132.69,6,0.00,48.00,-871.00
2024-05-19 09:33:37.717801,0,0,2,0,0,1,70,72,86,70,100,132.58,6,21.00,23.00,-982.00
2024-05-19 09:33:37.814324,0,0,2,0,0,1,70,72,85,70,100,132.50,6,29.00,52.00,-1041.00
2024-05-19 09:33:37.924676,0,-1,2,0,0,0,70,72,84,70,100,132.62,6,5.00,35.00,-984.00
2024-05-19 09:33:38.018296,0,-2,2,0,0,0,70,72,84,70,100,132.61,6,16.00,27.00,-1049.00
2024-05-19 09:33:38.125379,0,-1,2,0,0,0,70,72,83,70,100,132.65,6,-17.00,22.00,-996.00
2024-05-19 09:33:38.222289,-1,0,2,0,0,0,70,72,83,70,100,132.61,6,-36.00,18.00,-950.00
2024-05-19 09:33:38.330155,-1,0,2,0,0,0,70,72,82,60,100,132.66,6,-2.00,38.00,-959.00
2024-05-19 09:33:38.426314,-1,0,2,0,0,0,70,72,82,60,100,132.64,6,27.00,21.00,-989.00
2024-05-19 09:33:38.535001,-1,-1,2,0,0,0,70,72,82,60,100,132.61,6,-40.00,27.00,-986.00
2024-05-19 09:33:38.630185,-1,0,2,0,0,0,70,72,81,60,100,132.57,7,19.00,37.00,-1026.00
2024-05-19 09:33:38.741652,0,0,2,0,0,0,70,73,82,60,100,132.50,7,67.00,-1.00,-985.00
2024-05-19 09:33:38.834436,-1,0,2,0,0,0,70,73,82,60,100,132.51,7,14.00,18.00,-1077.00
2024-05-19 09:33:38.939595,-1,0,2,0,0,0,70,73,81,60,100,132.59,7,52.00,-2.00,-1026.00
2024-05-19 09:33:39.038328,-1,-1,2,0,0,0,70,73,81,60,100,132.58,7,61.00,-17.00,-981.00
2024-05-19 09:33:39.140321,-1,0,2,0,0,0,70,73,81,60,100,132.50,7,10.00,36.00,-861.00
2024-05-19 09:33:39.251849,-1,0,2,0,0,0,70,73,81,60,100,132.63,7,57.00,45.00,-1022.00
2024-05-19 09:33:39.344284,-1,0,2,0,0,0,70,73,81,60,100,132.52,7,-4.00,23.00,-1068.00
2024-05-19 09:33:39.456580,-1,0,2,0,0,0,70,73,81,60,100,132.59,7,19.00,18.00,-962.00
2024-05-19 09:33:39.548358,-2,0,2,0,0,0,70,73,81,60,100,132.52,7,5.00,22.00,-959.00
2024-05-19 09:33:39.661383,-2,-1,2,0,0,0,70,73,81,60,100,132.53,8,-15.00,20.00,-938.00
2024-05-19 09:33:39.753360,-2,0,2,0,0,0,70,72,81,60,100,132.60,8,-20.00,50.00,-975.00
2024-05-19 09:33:39.854213,-1,0,2,0,0,0,70,72,82,60,100,132.56,8,21.00,30.00,-957.00
2024-05-19 09:33:39.956194,-1,-1,2,0,0,0,70,72,82,60,100,132.53,8,4.00,24.00,-949.00
2024-05-19 09:33:40.058253,-1,-2,2,0,0,0,70,72,82,60,100,132.55,8,-45.00,92.00,-1083.00
2024-05-19 09:33:40.173421,-1,-2,2,1,0,0,70,72,82,60,100,132.62,8,2.00,65.00,-1062.00
2024-05-19 09:33:40.263672,-1,-1,2,1,0,0,70,72,82,60,100,132.59,8,1.00,43.00,-1007.00
2024-05-19 09:33:40.313127,0,0,2,1,0,0,70,72,83,60,100,132.50,8,102.00,25.00,-988.00
2024-05-19 09:33:40.482890,0,0,2,1,0,0,70,72,83,60,100,132.63,8,31.00,26.00,-1091.00
2024-05-19 09:33:40.517093,0,-1,2,1,0,0,70,72,82,60,100,132.58,9,6.00,8.00,-938.00
2024-05-19 09:33:40.619191,0,0,2,0,0,0,70,72,82,60,100,132.60,9,36.00,33.00,-1018.00
2024-05-19 09:33:40.790197,0,0,2,0,0,0,71,72,82,60,100,132.54,9,-22.00,44.00,-1010.00
2024-05-19 09:33:40.823073,-1,-1,2,0,0,0,71,72,81,60,100,132.53,9,44.00,18.00,-1015.00
2024-05-19 09:33:40.995970,-1,-1,2,0,0,0,71,72,81,60,100,132.59,9,-55.00,63.00,-1006.00
2024-05-19 09:33:41.027049,-1,-2,2,0,0,0,71,72,80,60,100,132.60,9,-2.00,59.00,-899.00
2024-05-19 09:33:41.129248,-2,-1,2,0,0,0,71,72,80,60,100,132.61,9,-26.00,40.00,-958.00
2024-05-19 09:33:41.303286,-2,-1,2,0,0,0,71,72,79,60,100,132.56,9,38.00,-4.00,-951.00
2024-05-19 09:33:41.334406,-2,-1,2,0,0,0,71,72,80,60,100,132.57,9,24.00,23.00,-1070.00
2024-05-19 09:33:41.506872,-1,0,2,1,0,0,71,72,80,60,100,132.54,9,-13.00,39.00,-976.00
2024-05-19 09:33:41.537070,-1,0,2,0,0,0,71,72,80,60,100,132.57,10,15.00,15.00,-1034.00
2024-05-19 09:33:41.717963,-1,-1,2,0,0,0,71,72,80,60,100,132.56,10,-9.00,58.00,-969.00
2024-05-19 09:33:41.740996,-2,-1,2,0,0,0,71,73,80,60,100,132.53,10,36.00,-22.00,-947.00
2024-05-19 09:33:41.917605,-2,-1,2,0,0,0,71,73,81,60,100,132.57,10,-17.00,20.00,-913.00
2024-05-19 09:33:41.944927,-2,-1,2,0,0,0,71,73,81,60,100,132.46,10,-3.00,18.00,-986.00
2024-05-19 09:33:42.047714,-1,0,2,0,0,0,71,73,80,60,100,132.46,10,45.00,31.00,-935.00
2024-05-19 09:33:42.221389,-1,0,2,0,0,0,71,73,80,60,100,132.54,10,-1.00,37.00,-1020.00
2024-05-19 09:33:42.251238,-1,0,2,0,0,0,71,73,80,60,100,132.55,10,-36.00,47.00,-1119.00
2024-05-19 09:33:42.426122,-1,0,2,0,0,-1,71,73,81,60,100,132.57,10,19.00,13.00,-1157.00
2024-05-19 09:33:42.455400,-1,-1,2,0,0,-2,71,73,83,70,100,132.66,10,18.00,22.00,-1167.00
2024-05-19 09:33:42.631763,-1,-1,2,0,0,-3,71,73,86,70,100,132.62,11,-37.00,27.00,-1158.00
2024-05-19 09:33:42.658824,-1,0,2,0,0,-4,71,73,89,70,100,132.57,11,-2.00,33.00,-1051.00
2024-05-19 09:33:42.839568,-1,0,2,1,0,-4,71,73,97,80,100,132.71,11,9.00,26.00,-871.00
2024-05-19 09:33:42.862933,-1,-1,2,1,0,-5,71,73,102,80,100,132.81,11,-84.00,70.00,-822.00
2024-05-19 09:33:43.041192,-1,-1,3,0,0,-5,71,73,108,90,100,132.80,11,21.00,32.00,-1108.00
2024-05-19 09:33:43.067089,-1,-1,3,0,0,-5,71,73,113,90,100,132.86,11,39.00,-34.00,-983.00
2024-05-19 09:33:43.248442,-1,0,2,0,0,-5,71,73,119,100,100,132.89,11,11.00,21.00,-1032.00
2024-05-19 09:33:43.272636,-2,0,2,0,0,-5,71,73,125,100,100,132.91,11,2.00,14.00,-960.00
2024-05-19 09:33:43.373170,-2,0,2,0,0,-5,71,73,130,110,100,132.97,11,23.00,28.00,-1039.00
2024-05-19 09:33:43.552515,-1,0,2,0,0,-5,71,73,135,120,100,133.02,11,15.00,-4.00,-903.00
2024-05-19 09:33:43.579837,-1,0,2,1,0,-4,71,73,141,120,100,133.04,12,-9.00,9.00,-968.00
2024-05-19 09:33:43.679267,0,0,2,1,0,-4,71,73,145,130,100,133.15,12,71.00,-27.00,-966.00
2024-05-19 09:33:43.859736,0,0,2,0,0,-4,71,73,149,130,100,133.18,12,-34.00,22.00,-1085.00
2024-05-19 09:33:43.883104,-1,0,2,0,0,-3,71,73,152,130,100,133.17,12,38.00,-28.00,-946.00
2024-05-19 09:33:44.064538,-1,0,2,0,0,-3,71,73,157,140,100,133.15,12,-12.00,-9.00,-946.00
2024-05-19 09:33:44.086835,-2,1,2,0,0,-3,71,73,160,140,100,133.22,12,35.00,-10.00,-953.00
2024-05-19 09:33:44.269355,-1,1,2,0,0,-2,71,73,163,140,100,133.16,12,15.00,0.00,-1035.00
2024-05-19 09:33:44.269407,-1,2,2,0,0,-2,71,73,165,150,100,133.31,12,65.00,-82.00,-925.00
2024-05-19 09:33:44.342016,-1,2,2,0,0,-2,71,73,169,150,100,133.26,12,27.00,-50.00,-957.00
2024-05-19 09:33:44.474140,-1,1,2,0,0,-2,71,73,171,150,100,133.33,12,-30.00,-14.00,-908.00
2024-05-19 09:33:44.546721,-1,1,2,0,0,-2,71,73,173,150,100,133.39,13,13.00,-10.00,-1068.00
2024-05-19 09:33:44.648023,-2,1,2,0,0,-1,71,73,174,160,100,133.34,13,7.00,-20.00,-962.00
2024-05-19 09:33:44.789606,-2,1,3,0,0,-1,71,73,175,160,100,133.36,13,-13.00,8.00,-996.00
2024-05-19 09:33:44.852153,-2,1,3,0,0,-1,71,73,176,160,100,133.34,13,3.00,0.00,-1008.00
2024-05-19 09:33:44.986269,-2,1,2,0,0,0,71,73,177,160,100,133.44,13,-18.00,-7.00,-940.00
2024-05-19 09:33:45.056070,-3,1,2,0,0,0,71,73,176,160,100,133.48,13,-46.00,-10.00,-901.00
2024-05-19 09:33:45.158092,-3,0,2,0,0,0,71,73,177,160,100,133.40,13,-55.00,11.00,-1074.00
2024-05-19 09:33:45.301928,-3,1,2,0,0,0,71,73,178,160,100,133.41,13,-10.00,-24.00,-1051.00
2024-05-19 09:33:45.362100,-2,2,2,1,0,0,71,73,178,160,100,133.36,13,16.00,-29.00,-1058.00
2024-05-19 09:33:45.501305,0,3,3,1,0,0,71,73,178,160,100,133.42,13,21.00,-21.00,-1015.00
2024-05-19 09:33:45.566801,0,3,3,1,0,0,71,73,178,160,100,133.39,14,-38.00,-12.00,-940.00
2024-05-19 09:33:45.704820,0,2,3,1,0,0,71,73,177,160,100,133.35,14,26.00,-67.00,-1002.00
2024-05-19 09:33:45.770832,-1,1,3,0,0,0,72,73,177,160,100,133.39,14,-11.00,-41.00,-995.00
2024-05-19 09:33:45.916420,-2,1,3,0,0,0,72,73,176,160,100,133.39,14,14.00,-41.00,-1036.00
2024-05-19 09:33:45.974774,-2,1,3,0,0,0,72,73,176,160,100,133.29,14,-10.00,-18.00,-1008.00
2024-05-19 09:33:46.077215,-2,2,2,0,0,0,72,73,176,160,100,133.28,14,-18.00,-45.00,-1004.00
2024-05-19 09:33:46.214936,-2,2,2,0,0,0,72,73,175,160,100,133.37,14,34.00,-57.00,-1024.00
2024-05-19 09:33:46.280812,-2,2,2,0,0,0,72,73,175,160,100,133.45,14,-108.00,11.00,-1019.00
2024-05-19 09:33:46.420079,-3,1,2,0,0,0,72,73,175,160,100,133.38,14,-27.00,5.00,-1008.00
2024-05-19 09:33:46.484889,-3,1,2,0,0,0,72,73,173,160,100,133.36,14,-5.00,-52.00,-1016.00
2024-05-19 09:33:46.625456,-3,1,2,0,0,0,72,73,173,160,100,133.29,15,-39.00,-35.00,-963.00
2024-05-19 09:33:46.688807,-3,1,2,0,0,0,72,73,173,160,100,133.28,15,-48.00,-13.00,-968.00
2024-05-19 09:33:46.829735,-3,1,2,0,0,0,71,74,172,160,100,133.24,15,19.00,-56.00,-1040.00
2024-05-19 09:33:46.893326,-2,1,2,1,0,0,71,74,172,160,100,133.31,15,3.00,-31.00,-974.00
2024-05-19 09:33:47.034102,-2,1,2,0,0,0,71,74,171,160,100,133.32,15,19.00,-35.00,-976.00
2024-05-19 09:33:47.097020,-2,1,2,0,0,0,71,74,172,160,100,133.28,15,-113.00,-4.00,-888.00
2024-05-19 09:33:47.246836,-3,1,2,0,0,0,71,74,171,160,100,133.25,15,-23.00,-16.00,-948.00
2024-05-19 09:33:47.300802,-3,1,2,0,0,1,71,74,169,150,100,133.17,15,-97.00,16.00,-959.00
2024-05-19 09:33:47.444070,-3,1,2,0,0,1,71,74,168,150,100,133.22,15,-33.00,-30.00,-960.00
2024-05-19 09:33:47.504724,-2,1,2,1,0,1,71,74,166,150,100,133.18,15,-96.00,-5.00,-926.00
2024-05-19 09:33:47.606712,-2,1,2,1,0,2,71,74,164,150,100,133.16,16,2.00,-57.00,-907.00
2024-05-19 09:33:47.657790,-2,2,2,0,0,2,71,74,162,150,100,133.12,16,-11.00,-19.00,-1024.00
2024-05-19 09:33:47.853351,-2,1,2,0,0,2,71,73,159,140,100,133.17,16,13.00,-49.00,-992.00
2024-05-19 09:33:47.912651,-2,1,2,0,0,2,71,73,156,140,100,133.09,16,10.00,-65.00,-999.00
2024-05-19 09:33:48.058070,-3,1,2,0,0,2,71,73,154,140,100,133.10,16,-28.00,-32.00,-1003.00
2024-05-19 09:33:48.116623,-2,2,2,0,0,2,71,73,151,140,100,133.05,16,-53.00,8.00,-1071.00
2024-05-19 09:33:48.262871,-2,2,2,0,0,2,71,73,148,130,100,133.01,16,15.00,-55.00,-970.00
2024-05-19 09:33:48.320585,-3,2,2,0,0,2,71,73,145,130,100,133.03,16,-22.00,-27.00,-1056.00
2024-05-19 09:33:48.468801,-2,1,2,0,0,2,71,73,142,130,100,132.95,16,-29.00,-20.00,-1021.00
2024-05-19 09:33:48.474537,-2,1,2,0,0,2,71,73,139,120,100,132.97,16,15.00,-49.00,-1055.00
2024-05-19 09:33:48.679163,-2,1,2,0,0,2,71,73,137,120,100,132.92,17,-74.00,-7.00,-996.00
2024-05-19 09:33:48.679749,-3,1,2,0,0,2,71,73,134,120,100,132.85,17,-15.00,-9.00,-1034.00
2024-05-19 09:33:48.779749,-3,1,2,0,0,2,72,74,129,120,100,132.86,17,-23.00,-12.00,-1026.00
2024-05-19 09:33:48.881685,-4,1,2,0,0,2,72,74,127,110,100,132.85,17,27.00,-25.00,-1152.00
2024-05-19 09:33:48.984070,-4,1,2,0,0,2,72,74,124,110,100,132.88,17,-75.00,0.00,-1003.00
2024-05-19 09:33:49.086598,-3,1,2,1,0,1,72,74,123,110,100,132.89,17,23.00,-31.00,-1117.00
2024-05-19 09:33:49.187767,-2,1,2,1,0,1,72,74,121,110,100,132.86,17,37.00,-76.00,-1027.00
2024-05-19 09:33:49.290464,-1,2,2,1,0,1,72,74,120,110,100,132.86,17,-10.00,-38.00,-1027.00
2024-05-19 09:33:49.392411,-1,2,2,1,0,0,72,74,120,110,100,132.81,17,51.00,-60.00,-954.00
2024-05-19 09:33:49.495424,-1,2,2,1,0,0,72,74,120,100,100,132.85,17,4.00,-51.00,-900.00
2024-05-19 09:33:49.597805,-1,2,2,1,0,0,72,74,120,100,100,132.79,18,-24.00,-8.00,-1075.00
2024-05-19 09:33:49.699778,-1,1,2,1,0,0,72,74,120,100,100,132.79,18,-78.00,-6.00,-950.00
2024-05-19 09:33:49.803858,-1,1,2,1,0,0,72,74,120,100,100,132.82,18,-33.00,-1.00,-1018.00
2024-05-19 09:33:49.905819,-2,1,2,1,0,0,72,74,120,100,100,132.83,18,10.00,-35.00,-996.00
2024-05-19 09:33:50.007144,-2,1,2,1,0,0,72,74,120,100,100,132.79,18,-28.00,-6.00,-978.00
2024-05-19 09:33:50.111412,-1,1,2,1,0,0,72,74,120,100,100,132.78,18,-5.00,-6.00,-1025.00
2024-05-19 09:33:50.209217,-1,2,2,1,0,0,72,74,121,100,100,132.79,18,23.00,-43.00,-934.00
2024-05-19 09:33:50.310560,0,2,2,1,0,0,72,74,120,100,100,132.83,18,-91.00,0.00,-1045.00
2024-05-19 09:33:50.420486,0,2,2,1,0,0,72,74,120,100,100,132.77,18,-66.00,-19.00,-936.00
2024-05-19 09:33:50.517465,0,2,2,0,0,0,72,74,121,100,100,132.75,18,-7.00,2.00,-928.00
2024-05-19 09:33:50.621509,-1,2,2,0,0,0,72,74,120,100,100,132.86,19,22.00,-58.00,-899.00
2024-05-19 09:33:50.722392,-1,1,2,0,0,0,72,74,120,100,100,132.68,19,-33.00,-1.00,-1010.00
2024-05-19 09:33:50.826368,-2,1,2,0,0,0,72,75,121,100,100,132.81,19,-49.00,-13.00,-1004.00
2024-05-19 09:33:50.927311,-2,1,2,0,0,0,72,75,121,100,100,132.73,19,-91.00,19.00,-890.00
2024-05-19 09:33:51.023618,-1,1,2,0,0,0,72,75,121,100,100,132.83,19,-72.00,40.00,-907.00
2024-05-19 09:33:51.125802,-2,1,2,0,0,0,72,75,121,100,100,132.88,19,-120.00,24.00,-991.00
2024-05-19 09:33:51.234334,-2,0,2,0,0,0,72,75,120,100,100,132.79,19,6.00,-43.00,-1095.00
2024-05-19 09:33:51.329620,-7,0,2,0,0,0,72,75,121,100,100,132.82,19,-50.00,24.00,-983.00
2024-05-19 09:33:51.437479,-8,0,2,1,0,0,72,75,120,100,100,132.82,19,-30.00,-11.00,-986.00
2024-05-19 09:33:51.533793,-8,0,2,3,0,0,72,75,119,100,100,132.71,19,0.00,9.00,-1031.00
2024-05-19 09:33:51.635669,-8,1,2,4,0,0,72,75,119,100,100,132.71,20,20.00,-66.00,-1050.00
2024-05-19 09:33:51.737945,-8,1,2,5,0,0,72,75,119,100,100,132.65,20,-24.00,-27.00,-893.00
2024-05-19 09:33:51.839710,-8,1,2,6,0,0,72,75,119,100,100,132.74,20,-96.00,35.00,-971.00
2024-05-19 09:33:51.954798,-8,1,2,7,0,0,72,75,120,100,100,132.75,20,-32.00,-28.00,-987.00
2024-05-19 09:33:52.044079,-6,1,2,7,0,0,72,75,119,100,100,132.66,20,-99.00,-17.00,-920.00
2024-05-19 09:33:52.145724,-5,1,2,7,0,0,72,75,120,100,100,132.63,20,-143.00,29.00,-875.00
2024-05-19 09:33:52.196377,-2,1,2,7,0,0,72,75,120,100,100,132.53,20,-63.00,-20.00,-1043.00
2024-05-19 09:33:52.367255,0,1,2,7,0,0,72,75,120,100,100,132.60,20,-103.00,-34.00,-902.00
2024-05-19 09:33:52.400505,2,0,2,5,0,0,72,75,121,100,100,132.73,20,-38.00,-29.00,-968.00
2024-05-19 09:33:52.567915,2,0,2,4,0,0,72,75,122,100,100,132.73,20,-75.00,-29.00,-1077.00
2024-05-19 09:33:52.604710,0,0,2,3,0,0,72,75,122,100,100,132.69,21,-51.00,9.00,-1105.00
2024-05-19 09:33:52.768436,-1,1,2,3,0,0,72,75,122,100,100,132.73,21,-46.00,9.00,-1003.00
2024-05-19 09:33:52.808401,-2,1,2,2,0,0,73,74,123,100,100,132.75,21,-70.00,-3.00,-997.00
2024-05-19 09:33:52.974390,-2,1,2,2,0,0,73,74,124,100,100,132.77,21,-25.00,-16.00,-954.00
2024-05-19 09:33:53.012380,-1,1,2,3,0,0,73,74,124,100,100,132.77,21,-81.00,40.00,-1086.00
2024-05-19 09:33:53.114250,-1,1,2,2,0,0,73,74,125,100,100,132.75,21,-43.00,7.00,-1056.00
2024-05-19 09:33:53.280466,-1,0,2,2,0,0,73,74,125,100,100,132.83,21,-88.00,6.00,-967.00
2024-05-19 09:33:53.318339,-1,0,2,2,0,0,73,74,127,100,100,132.85,21,-83.00,26.00,-813.00
2024-05-19 09:33:53.485355,-1,0,2,2,0,0,73,74,127,100,100,132.87,21,-58.00,13.00,-910.00
2024-05-19 09:33:53.522321,-1,0,2,2,0,0,73,74,128,110,100,132.87,21,50.00,-61.00,-859.00
2024-05-19 09:33:53.624301,-1,0,2,2,0,0,73,74,128,110,100,132.83,22,-20.00,-10.00,-912.00
2024-05-19 09:33:53.794752,-1,0,2,2,0,0,73,74,128,110,100,132.85,22,24.00,-44.00,-1086.00
2024-05-19 09:33:53.831370,0,0,2,1,0,0,73,75,129,110,100,132.86,22,-50.00,11.00,-940.00
2024-05-19 09:33:53.930361,2,0,2,1,0,0,73,75,129,110,100,132.86,22,-15.00,15.00,-1033.00
2024-05-19 09:33:54.106907,0,0,2,0,0,0,73,75,128,110,100,132.87,22,-63.00,13.00,-1032.00
2024-05-19 09:33:54.134467,0,0,2,0,0,0,73,75,128,110,100,132.86,22,-103.00,27.00,-1012.00
2024-05-19 09:33:54.306840,-1,0,2,0,0,0,73,75,127,110,100,132.93,22,15.00,-19.00,-1055.00
2024-05-19 09:33:54.338391,-1,0,2,0,0,0,73,75,127,110,100,132.90,22,-1.00,-20.00,-977.00
2024-05-19 09:33:54.509313,-2,1,2,0,0,0,73,75,126,110,100,132.83,22,-91.00,23.00,-1043.00
2024-05-19 09:33:54.542805,-2,1,2,0,0,0,73,75,127,110,100,132.86,23,11.00,-36.00,-950.00
2024-05-19 09:33:54.644375,-1,1,2,0,0,0,73,75,126,110,100,132.93,23,-7.00,-19.00,-1044.00
2024-05-19 09:33:54.817724,-2,1,2,0,0,0,73,75,127,110,100,132.97,23,6.00,5.00,-987.00
2024-05-19 09:33:54.848389,-1,1,2,0,0,0,73,75,127,110,100,132.91,23,-58.00,-41.00,-982.00
2024-05-19 09:33:55.026619,-1,1,2,0,0,0,73,75,128,110,100,132.92,23,5.00,-20.00,-1063.00
2024-05-19 09:33:55.052312,-1,2,2,0,0,0,73,75,128,110,100,132.89,23,-50.00,-1.00,-1020.00
2024-05-19 09:33:55.154305,-1,2,2,0,0,0,73,75,129,110,100,132.90,23,42.00,-52.00,-989.00
2024-05-19 09:33:55.328575,-2,2,2,0,0,0,73,75,129,110,100,132.89,23,-27.00,-40.00,-968.00
2024-05-19 09:33:55.358250,-2,2,2,0,0,0,73,75,129,110,100,132.92,23,13.00,-41.00,-1091.00
2024-05-19 09:33:55.533275,-2,2,2,0,0,0,73,75,129,110,100,132.95,23,-102.00,6.00,-847.00
2024-05-19 09:33:55.562287,-1,3,2,0,0,0,73,75,129,110,100,132.88,24,-35.00,-18.00,-936.00
2024-05-19 09:33:55.664453,-1,2,2,0,0,0,73,75,129,110,100,132.89,24,-14.00,-38.00,-940.00
2024-05-19 09:33:55.840515,-1,2,2,0,0,0,73,75,129,110,100,132.94,24,-37.00,-14.00,-981.00
2024-05-19 09:33:55.868538,-1,2,2,0,0,0,73,76,129,110,100,132.93,24,33.00,-33.00,-1018.00
2024-05-19 09:33:55.976685,-1,2,2,0,0,0,73,76,128,110,100,132.97,24,-75.00,-9.00,-876.00
2024-05-19 09:33:56.072212,-1,2,2,0,0,0,73,76,128,110,100,132.93,24,6.00,-67.00,-1002.00
2024-05-19 09:33:56.174402,-1,2,2,0,0,0,73,76,128,110,100,132.90,24,-6.00,-27.00,-1016.00
2024-05-19 09:33:56.352422,0,2,2,0,0,0,73,76,128,110,100,132.86,24,35.00,-29.00,-1001.00
2024-05-19 09:33:56.379784,6,1,2,0,0,0,73,76,129,110,100,132.95,24,-25.00,-34.00,-1072.00
2024-05-19 09:33:56.480433,8,1,2,-1,0,0,73,76,129,110,100,132.90,24,56.00,-51.00,-888.00
2024-05-19 09:33:56.531390,8,2,2,-2,0,0,73,76,128,110,100,132.95,25,-12.00,-9.00,-1037.00
2024-05-19 09:33:56.633426,7,2,2,-4,0,0,73,76,127,110,100,132.99,25,-14.00,-26.00,-1028.00
2024-05-19 09:33:56.762018,6,2,2,-5,0,0,73,76,127,110,100,132.99,25,24.00,-5.00,-1028.00
2024-05-19 09:33:56.837341,5,2,2,-6,0,0,73,76,126,110,100,132.99,25,53.00,-34.00,-1059.00
2024-05-19 09:33:56.968334,4,1,2,-6,0,0,73,76,124,110,100,132.89,25,75.00,-82.00,-956.00
2024-05-19 09:33:57.041381,4,1,2,-7,0,0,73,76,123,110,100,133.00,25,51.00,-47.00,-1105.00
2024-05-19 09:33:57.143382,2,1,3,-7,0,0,73,76,123,110,100,132.99,25,-1.00,-43.00,-971.00
2024-05-19 09:33:57.277421,0,1,3,-7,0,0,73,76,122,110,100,132.97,25,0.00,-60.00,-1063.00
2024-05-19 09:33:57.347376,-3,1,3,-6,0,0,73,76,120,110,100,133.00,25,14.00,-73.00,-1021.00
2024-05-19 09:33:57.482205,-5,1,2,-5,0,0,73,76,120,110,100,132.92,25,-5.00,-45.00,-979.00
2024-05-19 09:33:57.552194,-5,1,2,-4,0,0,73,76,119,100,100,132.89,26,-74.00,7.00,-959.00
2024-05-19 09:33:57.653310,-4,2,2,-4,0,0,73,76,117,100,100,132.82,26,-7.00,-35.00,-981.00
2024-05-19 09:33:57.791359,-3,2,2,-3,0,0,73,76,117,100,100,132.82,26,28.00,-69.00,-979.00
2024-05-19 09:33:57.857364,-2,3,2,-3,0,0,74,76,116,100,100,132.81,26,55.00,-39.00,-1060.00
2024-05-19 09:33:57.998655,-1,3,2,-3,0,0,74,76,115,100,100,132.84,26,13.00,-28.00,-1114.00
2024-05-19 09:33:58.061415,-1,3,2,-2,0,0,74,76,114,100,100,132.91,26,64.00,-47.00,-937.00
2024-05-19 09:33:58.198459,-1,2,2,-2,0,0,74,76,114,100,100,132.82,26,-9.00,-46.00,-1038.00
2024-05-19 09:33:58.265526,-2,2,2,-2,0,0,74,76,114,100,100,132.82,26,47.00,-48.00,-996.00
2024-05-19 09:33:58.406030,-5,2,2,-2,0,0,74,76,114,100,100,132.88,26,36.00,-52.00,-1080.00
2024-05-19 09:33:58.469515,-4,2,2,-1,0,0,74,76,114,100,100,132.83,26,23.00,-61.00,-864.00
2024-05-19 09:33:58.571554,-2,2,2,0,0,0,74,76,114,100,100,132.86,27,-14.00,-50.00,-959.00
2024-05-19 09:33:58.673450,-1,2,2,0,0,0,74,76,115,100,100,132.81,27,-19.00,-40.00,-1127.00
2024-05-19 09:33:58.810422,0,2,2,0,0,0,74,76,115,100,100,132.88,27,-6.00,-49.00,-940.00
2024-05-19 09:33:58.877356,0,3,2,0,0,0,75,76,116,100,100,132.87,27,-5.00,-13.00,-1020.00
2024-05-19 09:33:59.022682,0,3,2,0,0,0,75,76,116,100,100,132.89,27,-67.00,5.00,-1110.00
2024-05-19 09:33:59.081289,0,2,2,0,0,0,75,76,117,100,100,132.91,27,22.00,-59.00,-1114.00
2024-05-19 09:33:59.225335,0,2,2,0,0,0,75,76,117,100,100,132.91,27,48.00,-52.00,-1121.00
2024-05-19 09:33:59.285734,0,2,2,0,0,0,75,76,117,100,100,132.80,27,-15.00,-41.00,-1085.00
2024-05-19 09:33:59.427781,-1,2,2,0,0,0,75,76,118,100,100,132.86,27,-54.00,-35.00,-1094.00
2024-05-19 09:33:59.489997,-1,2,2,0,0,0,75,76,118,100,100,132.94,27,-12.00,-57.00,-963.00
2024-05-19 09:33:59.632687,-1,3,2,0,0,0,75,76,118,100,100,132.84,28,-21.00,-48.00,-997.00
2024-05-19 09:33:59.693310,-1,3,2,0,0,0,75,76,118,100,100,132.83,28,34.00,-42.00,-1091.00
2024-05-19 09:33:59.744065,-1,2,2,0,0,0,75,76,118,100,100,132.89,28,-1.00,-65.00,-878.00
2024-05-19 09:33:59.936555,-2,2,2,0,0,0,74,76,118,100,100,132.95,28,38.00,-64.00,-1009.00
2024-05-19 09:33:59.999161,-2,2,2,0,0,0,74,76,118,100,100,132.83,28,-29.00,-34.00,-929.00
2024-05-19 09:34:00.143721,-2,2,2,0,0,0,74,76,118,100,100,132.90,28,-68.00,2.00,-929.00
2024-05-19 09:34:00.203423,-2,1,2,0,0,0,74,76,119,100,100,132.81,28,-34.00,-29.00,-924.00
2024-05-19 09:34:00.254071,-2,1,2,0,0,0,74,76,119,100,100,132.83,28,-60.00,-62.00,-983.00
2024-05-19 09:34:00.449076,-2,2,2,0,0,0,74,76,119,100,100,132.71,28,-28.00,-73.00,-996.00
2024-05-19 09:34:00.458032,-3,2,2,0,0,0,74,76,120,100,100,132.89,28,52.00,-72.00,-1059.00
2024-05-19 09:34:00.559970,-2,2,2,0,0,0,74,76,120,100,100,132.95,29,7.00,-41.00,-1079.00
2024-05-19 09:34:00.661983,-2,1,2,0,0,0,74,76,120,100,100,132.87,29,37.00,5.00,-967.00
2024-05-19 09:34:00.763891,0,-5,2,0,0,0,74,76,121,100,100,132.92,29,-7.00,-49.00,-1042.00
2024-05-19 09:34:00.865964,0,-5,2,0,-2,0,75,76,121,100,100,132.93,29,-32.00,-32.00,-1078.00
2024-05-19 09:34:00.968528,0,-2,2,0,-3,0,75,76,120,100,100,132.92,29,-66.00,11.00,-1084.00
2024-05-19 09:34:01.070864,-1,0,2,0,-4,0,75,76,121,100,100,132.88,29,22.00,-53.00,-995.00
2024-05-19 09:34:01.171973,-1,3,2,0,-4,0,75,76,121,100,100,132.86,29,40.00,-50.00,-1002.00
2024-05-19 09:34:01.373348,-1,4,2,0,-3,0,75,76,121,100,100,132.96,29,-44.00,-28.00,-948.00
2024-05-19 09:34:01.375841,-1,3,2,0,-3,0,75,76,122,100,100,132.84,29,-46.00,-16.00,-849.00
2024-05-19 09:34:01.477921,-1,2,2,0,-2,0,75,76,122,100,100,132.91,29,-8.00,-24.00,-1017.00
2024-05-19 09:34:01.677059,-1,1,2,0,-2,0,75,76,122,100,100,132.91,30,0.00,-49.00,-1001.00
2024-05-19 09:34:01.681886,-1,2,2,0,-2,0,75,76,122,100,100,132.96,30,-1.00,-43.00,-938.00
2024-05-19 09:34:01.784072,-1,2,2,0,-2,0,75,76,122,100,100,132.85,30,52.00,-40.00,-1147.00
2024-05-19 09:34:01.987753,-1,2,2,0,-2,0,75,77,123,110,100,132.97,30,-42.00,-27.00,-907.00
2024-05-19 09:34:01.987839,0,2,2,0,-2,0,75,77,122,110,100,133.02,30,-54.00,-27.00,-910.00
2024-05-19 09:34:02.090083,0,3,2,0,-2,0,75,77,122,110,100,132.90,30,-72.00,-9.00,-875.00
2024-05-19 09:34:02.192763,0,4,2,0,-2,0,75,77,122,110,100,132.87,30,-38.00,-27.00,-953.00
2024-05-19 09:34:02.295259,-1,7,2,0,-2,0,75,77,122,110,100,132.90,30,57.00,-62.00,-904.00
2024-05-19 09:34:02.396355,-1,6,2,0,-1,0,75,77,122,110,100,132.93,30,7.00,-41.00,-953.00
2024-05-19 09:34:02.499706,-1,4,2,0,0,0,75,77,122,110,100,132.82,30,56.00,-58.00,-927.00
2024-05-19 09:34:02.602939,0,3,2,0,0,0,75,77,121,100,100,132.82,31,-14.00,-18.00,-1082.00
2024-05-19 09:34:02.702897,0,3,2,0,0,0,75,77,121,100,100,132.87,31,36.00,-113.00,-919.00
2024-05-19 09:34:02.807249,0,4,2,0,-1,0,75,77,120,100,100,132.86,31,-27.00,-70.00,-844.00
2024-05-19 09:34:02.907921,-1,4,2,0,0,0,75,77,119,100,100,132.79,31,-9.00,-50.00,-1066.00
2024-05-19 09:34:03.012900,-1,4,2,0,0,0,75,77,119,100,100,132.93,31,-93.00,-28.00,-989.00
2024-05-19 09:34:03.114512,-1,4,2,0,0,0,75,77,118,100,100,132.92,31,-24.00,-55.00,-929.00
2024-05-19 09:34:03.215430,-1,4,2,0,0,0,75,77,117,100,100,132.96,31,-27.00,-42.00,-959.00
2024-05-19 09:34:03.319520,-1,4,2,0,0,0,75,77,117,100,100,132.89,31,-23.00,-35.00,-1066.00
2024-05-19 09:34:03.421942,-1,4,2,0,0,0,75,77,117,100,100,132.92,31,4.00,-65.00,-895.00
2024-05-19 09:34:03.517914,-1,3,2,0,0,0,75,77,117,100,100,132.87,31,-23.00,-27.00,-1034.00
2024-05-19 09:34:03.626307,0,3,2,0,0,0,75,77,116,100,100,132.90,32,5.00,-57.00,-1002.00
2024-05-19 09:34:03.721980,0,3,2,0,0,0,75,77,116,100,100,132.73,32,-88.00,-13.00,-940.00
2024-05-19 09:34:03.833212,-1,3,2,0,0,0,75,77,117,100,100,132.82,32,-54.00,-14.00,-977.00
2024-05-19 09:34:03.926060,-1,2,2,0,0,0,75,76,117,100,100,132.81,32,-11.00,-27.00,-1158.00
2024-05-19 09:34:04.032450,-1,2,2,0,0,0,75,76,117,100,100,132.78,32,44.00,-60.00,-1082.00
2024-05-19 09:34:04.132298,-1,2,2,0,0,0,75,76,117,100,100,132.90,32,-12.00,-19.00,-1052.00
2024-05-19 09:34:04.180995,-1,2,2,0,0,0,75,76,117,100,100,132.85,32,24.00,-49.00,-1100.00
2024-05-19 09:34:04.341468,-1,2,2,0,0,0,75,76,117,100,100,132.83,32,43.00,-73.00,-1027.00
2024-05-19 09:34:04.385005,-1,2,2,0,0,0,75,76,117,100,100,132.90,32,28.00,-57.00,-976.00
2024-05-19 09:34:04.486925,-1,2,2,0,0,0,75,76,117,100,100,132.89,32,18.00,-70.00,-1089.00
2024-05-19 09:34:04.646664,-1,3,2,0,0,0,75,76,117,100,100,132.86,33,-13.00,-31.00,-1020.00
2024-05-19 09:34:04.690940,0,8,2,0,1,0,75,76,118,100,100,132.80,33,14.00,-30.00,-1008.00
2024-05-19 09:34:04.853559,-1,8,2,0,2,0,75,76,118,100,100,132.77,33,-27.00,-24.00,-1034.00
2024-05-19 09:34:04.894996,-1,6,2,0,3,0,75,77,119,100,100,132.78,33,43.00,-56.00,-1013.00
2024-05-19 09:34:05.056270,0,3,2,0,4,0,75,77,119,100,100,132.85,33,95.00,-63.00,-1117.00
2024-05-19 09:34:05.099228,0,0,2,0,4,0,75,77,120,100,100,132.84,33,-72.00,-22.00,-971.00
2024-05-19 09:34:05.267041,0,0,2,0,3,0,75,77,120,100,100,132.90,33,-57.00,-41.00,-972.00
2024-05-19 09:34:05.303047,0,1,2,0,3,0,75,77,121,100,100,132.86,33,-14.00,-68.00,-994.00
2024-05-19 09:34:05.465863,0,1,2,0,2,0,75,77,123,100,100,132.84,33,83.00,-89.00,-1029.00
2024-05-19 09:34:05.506990,0,2,2,0,2,0,75,77,123,100,100,132.90,33,54.00,-63.00,-1154.00
2024-05-19 09:34:05.676122,0,2,2,0,2,0,75,77,124,100,100,132.90,34,-8.00,-68.00,-915.00
2024-05-19 09:34:05.710960,0,2,2,0,2,0,75,77,124,100,100,132.97,34,0.00,-53.00,-1043.00
2024-05-19 09:34:05.882032,0,2,2,0,2,0,75,77,125,100,100,132.96,34,-69.00,-39.00,-1112.00
2024-05-19 09:34:05.914920,0,2,2,0,2,0,75,78,125,100,100,132.90,34,73.00,-82.00,-882.00
2024-05-19 09:34:06.093659,0,2,2,0,2,0,75,78,126,100,100,132.90,34,-23.00,-32.00,-849.00
2024-05-19 09:34:06.118788,0,2,2,0,2,0,75,78,127,110,100,132.99,34,54.00,-65.00,-1102.00
2024-05-19 09:34:06.291416,0,1,2,0,2,0,75,78,126,110,100,132.99,34,37.00,-54.00,-928.00
2024-05-19 09:34:06.322850,0,1,2,0,1,0,75,78,126,110,100,132.91,34,51.00,-26.00,-1047.00
2024-05-19 09:34:06.493873,0,0,2,0,1,0,75,78,127,110,100,132.91,34,-36.00,-10.00,-1136.00
2024-05-19 09:34:06.527552,0,0,2,0,0,0,75,78,127,110,100,132.91,34,38.00,-50.00,-1012.00
2024-05-19 09:34:06.698703,0,1,2,0,0,0,75,78,127,110,100,132.89,35,-57.00,3.00,-1006.00
2024-05-19 09:34:06.731644,0,1,2,0,0,0,75,78,128,110,100,132.94,35,76.00,-58.00,-922.00
2024-05-19 09:34:06.903274,0,1,2,0,0,0,75,78,128,110,100,132.94,35,2.00,27.00,-974.00
2024-05-19 09:34:06.935773,0,1,2,0,0,0,75,77,127,110,100,132.94,35,63.00,-93.00,-900.00
2024-05-19 09:34:07.108049,0,1,2,0,0,0,75,77,126,110,100,132.98,35,-9.00,-54.00,-924.00
2024-05-19 09:34:07.139813,0,2,2,0,0,0,75,77,127,110,100,132.94,35,36.00,-67.00,-963.00
2024-05-19 09:34:07.317204,0,2,2,0,0,0,75,77,126,110,100,132.90,35,-9.00,0.00,-1094.00
2024-05-19 09:34:07.343670,0,2,2,0,0,0,75,77,126,110,100,132.99,35,45.00,-35.00,-891.00
2024-05-19 09:34:07.516123,0,2,2,0,0,0,75,77,125,110,100,132.94,35,-13.00,-22.00,-1087.00
2024-05-19 09:34:07.547508,0,2,2,0,0,0,75,77,125,110,100,132.90,35,1.00,-78.00,-884.00
2024-05-19 09:34:07.724247,0,2,2,0,0,0,75,77,125,110,100,132.90,36,-19.00,-47.00,-952.00
2024-05-19 09:34:07.724464,0,2,2,0,0,0,75,77,125,110,100,132.85,36,23.00,-46.00,-1008.00
2024-05-19 09:34:07.803096,0,2,2,0,0,0,75,77,124,110,100,132.96,36,4.00,-47.00,-1020.00
2024-05-19 09:34:07.955720,0,3,2,0,0,0,75,78,124,110,100,132.90,36,20.00,-34.00,-1103.00
2024-05-19 09:34:08.135302,0,3,2,0,0,0,75,78,124,110,100,132.86,36,37.00,-49.00,-975.00
2024-05-19 09:34:08.135444,0,2,2,0,0,0,75,78,124,100,100,132.91,36,-10.00,-40.00,-1068.00
2024-05-19 09:34:08.210828,0,2,2,0,0,0,75,78,123,100,100,132.90,36,20.00,-34.00,-1067.00
2024-05-19 09:34:08.340653,0,2,2,0,0,0,75,78,122,100,100,132.92,36,-6.00,-24.00,-972.00
2024-05-19 09:34:08.414867,0,2,2,0,0,0,75,78,123,100,100,132.88,36,-10.00,-65.00,-1031.00
2024-05-19 09:34:08.532342,0,2,2,0,0,0,75,78,123,100,100,132.91,37,-51.00,-26.00,-1001.00
2024-05-19 09:34:08.618728,1,3,3,0,0,0,75,78,123,100,100,132.90,37,71.00,-73.00,-958.00
2024-05-19 09:34:08.742684,0,3,9,0,0,0,75,78,122,100,100,132.92,37,20.00,-57.00,-1025.00
2024-05-19 09:34:08.822744,0,3,15,0,0,0,75,78,122,100,100,132.92,37,10.00,-52.00,-979.00
2024-05-19 09:34:08.951090,0,3,21,0,0,0,76,78,122,100,100,132.89,37,52.00,-55.00,-986.00
2024-05-19 09:34:09.026841,-1,2,27,0,0,0,76,78,122,100,100,132.91,37,7.00,-59.00,-1034.00
2024-05-19 09:34:09.128798,-1,2,33,0,0,0,76,78,123,100,100,132.91,37,-11.00,-60.00,-991.00
2024-05-19 09:34:09.231393,-1,2,39,0,0,0,76,78,123,100,100,132.96,37,-36.00,-48.00,-898.00
2024-05-19 09:34:09.357445,-1,2,45,0,0,0,76,78,123,100,100,132.92,37,-53.00,-13.00,-1030.00
2024-05-19 09:34:09.434792,-1,2,50,0,0,0,76,78,123,100,100,132.91,37,0.00,-33.00,-1028.00
2024-05-19 09:34:09.561837,-2,2,56,0,0,0,76,78,123,100,100,132.86,38,23.00,-51.00,-1081.00
2024-05-19 09:34:09.638766,-2,2,62,0,0,0,76,78,123,110,100,132.81,38,-82.00,-30.00,-925.00
2024-05-19 09:34:09.766616,-2,2,69,0,0,0,76,78,123,110,100,132.75,38,-59.00,-60.00,-1014.00
2024-05-19 09:34:09.842950,-3,1,75,0,0,0,76,78,123,100,100,132.87,38,-99.00,-15.00,-1039.00
2024-05-19 09:34:09.971452,-3,1,80,0,0,0,75,78,123,100,100,132.85,38,-27.00,-50.00,-1068.00
2024-05-19 09:34:10.046862,-4,0,86,0,0,0,75,78,122,100,100,132.89,38,-61.00,-30.00,-981.00
2024-05-19 09:34:10.176281,-4,0,92,0,0,0,75,78,122,100,100,132.79,38,-45.00,-44.00,-1139.00
2024-05-19 09:34:10.250675,-4,0,98,0,0,0,75,78,122,100,100,132.80,38,-110.00,2.00,-1137.00
2024-05-19 09:34:10.352711,-4,0,104,0,0,0,75,78,121,100,100,132.77,38,-68.00,-9.00,-898.00
2024-05-19 09:34:10.487013,-3,0,110,0,0,0,75,78,121,100,100,132.81,38,25.00,-82.00,-956.00
2024-05-19 09:34:10.556632,-3,-1,116,0,0,0,75,78,121,100,100,132.74,39,-21.00,0.00,-1256.00
2024-05-19 09:34:10.658693,-3,-1,122,0,0,0,75,78,120,100,100,132.70,39,-77.00,16.00,-1087.00
2024-05-19 09:34:10.760885,-3,-1,128,0,0,0,75,78,120,100,100,132.79,39,-7.00,-33.00,-987.00
2024-05-19 09:34:10.895327,-3,-1,134,0,0,0,75,78,119,100,100,132.72,39,-98.00,30.00,-977.00
2024-05-19 09:34:10.964867,-3,-2,140,0,0,0,77,78,118,100,100,132.88,39,4.00,4.00,-1107.00
2024-05-19 09:34:11.097836,-2,-2,147,0,0,0,77,78,117,100,100,132.96,39,-114.00,61.00,-986.00
2024-05-19 09:34:11.168708,-2,-2,153,0,0,0,77,78,116,100,100,132.96,39,-57.00,79.00,-799.00
2024-05-19 09:34:11.302613,-1,-3,159,0,0,0,77,78,116,100,100,132.98,39,34.00,52.00,-1184.00
2024-05-19 09:34:11.372712,-1,-3,165,0,0,0,77,78,116,100,100,132.94,39,1.00,65.00,-961.00
2024-05-19 09:34:11.474907,0,-4,171,0,0,0,77,78,115,100,100,132.98,39,-16.00,54.00,-994.00
2024-05-19 09:34:11.609855,0,-4,177,0,0,0,77,78,116,100,100,132.94,40,-21.00,67.00,-978.00
2024-05-19 09:34:11.678700,0,-3,-176,0,0,0,77,78,116,100,100,133.00,40,-10.00,43.00,-921.00
2024-05-19 09:34:11.729399,0,-4,-170,0,0,0,77,78,117,100,100,133.00,40,-70.00,75.00,-984.00
2024-05-19 09:34:11.917275,1,-3,-164,0,0,0,77,78,118,100,100,132.99,40,-71.00,66.00,-910.00
2024-05-19 09:34:11.986850,1,-3,-158,0,0,0,76,78,120,100,100,133.02,40,3.00,30.00,-982.00
2024-05-19 09:34:12.035379,1,-3,-152,0,0,0,76,78,120,100,100,133.02,40,7.00,63.00,-1131.00
2024-05-19 09:34:12.224288,1,-3,-146,0,0,0,76,78,122,100,100,133.00,40,-19.00,111.00,-1066.00
2024-05-19 09:34:12.239295,1,-2,-140,0,0,0,76,78,124,100,100,133.08,40,80.00,46.00,-1145.00
2024-05-19 09:34:12.429003,2,-2,-134,0,0,0,76,78,125,100,100,132.98,40,55.00,55.00,-1027.00
2024-05-19 09:34:12.443331,2,-2,-128,0,0,0,76,78,126,110,100,133.04,40,-28.00,63.00,-993.00
2024-05-19 09:34:12.636603,2,-2,-121,0,0,0,76,78,128,110,100,132.94,41,-8.00,63.00,-985.00
2024-05-19 09:34:12.647962,2,-2,-115,0,0,0,76,78,130,110,100,133.03,41,22.00,50.00,-889.00
2024-05-19 09:34:12.842175,2,-3,-109,0,0,0,76,78,130,110,100,132.98,41,132.00,-8.00,-939.00
2024-05-19 09:34:12.851252,2,-2,-102,0,0,0,76,78,131,110,100,133.04,41,46.00,30.00,-984.00
2024-05-19 09:34:12.953332,3,-1,-96,0,0,0,76,78,131,110,100,132.92,41,60.00,25.00,-1011.00
2024-05-19 09:34:13.146212,4,0,-90,0,0,0,76,78,132,110,100,132.98,41,121.00,-41.00,-980.00
2024-05-19 09:34:13.157204,5,2,-84,0,0,0,76,78,132,110,100,133.02,41,106.00,-42.00,-990.00
2024-05-19 09:34:13.350497,4,3,-78,0,0,0,76,78,132,110,100,132.96,41,91.00,-18.00,-983.00
2024-05-19 09:34:13.361251,3,3,-72,0,0,0,76,78,131,110,100,132.94,41,50.00,17.00,-1018.00
2024-05-19 09:34:13.555268,2,2,-66,0,0,0,76,78,131,110,100,132.92,41,90.00,-50.00,-926.00
2024-05-19 09:34:13.565140,2,2,-61,0,0,0,76,78,130,110,100,132.89,42,45.00,-9.00,-849.00
2024-05-19 09:34:13.762474,2,2,-55,0,0,0,76,78,129,110,100,132.87,42,124.00,-48.00,-1044.00
2024-05-19 09:34:13.769161,2,3,-49,0,0,0,76,78,128,110,100,132.85,42,-17.00,-23.00,-866.00
2024-05-19 09:34:13.966863,1,3,-44,0,0,0,76,78,127,110,100,132.86,42,3.00,0.00,-1069.00
2024-05-19 09:34:13.973390,0,2,-38,0,0,0,76,79,126,110,100,132.88,42,-21.00,-35.00,-880.00
2024-05-19 09:34:14.169702,0,3,-32,0,0,0,76,79,125,110,100,132.83,42,-14.00,-23.00,-910.00
2024-05-19 09:34:14.177107,0,3,-26,0,0,0,76,79,124,110,100,132.86,42,19.00,-40.00,-950.00
2024-05-19 09:34:14.380311,0,3,-20,0,0,0,76,79,123,100,100,132.88,42,21.00,-39.00,-1141.00
2024-05-19 09:34:14.381081,0,3,-15,0,0,0,76,79,123,100,100,132.82,42,33.00,-48.00,-1100.00
2024-05-19 09:34:14.483133,0,3,-11,0,0,0,76,79,123,100,100,132.83,42,-29.00,-31.00,-1029.00
2024-05-19 09:34:14.585213,0,3,-8,0,0,0,76,79,123,100,100,132.83,43,-21.00,-5.00,-882.00
2024-05-19 09:34:14.687781,0,2,-5,0,0,0,76,79,123,100,100,132.86,43,16.00,-38.00,-1073.00
2024-05-19 09:34:14.789058,0,2,-4,0,0,0,76,79,123,100,100,132.89,43,13.00,-48.00,-1051.00
2024-05-19 09:34:14.891070,0,2,-2,0,0,0,76,79,124,100,100,132.84,43,7.00,-45.00,-1104.00
2024-05-19 09:34:15.094778,0,2,-1,0,0,0,76,78,125,100,100,132.79,43,-18.00,-4.00,-1139.00
2024-05-19 09:34:15.095178,0,2,0,0,0,0,76,78,125,100,100,132.89,43,-46.00,-43.00,-1032.00
2024-05-19 09:34:15.197133,0,2,0,0,0,0,76,78,126,100,100,132.86,43,32.00,-23.00,-1121.00
2024-05-19 09:34:15.299771,0,1,0,0,0,0,76,78,126,110,100,132.88,43,-63.00,-44.00,-941.00
2024-05-19 09:34:15.402592,0,1,1,0,0,0,76,78,127,110,100,132.88,43,-69.00,-26.00,-1116.00
2024-05-19 09:34:15.505193,0,1,1,0,0,0,76,78,128,110,100,132.89,43,-15.00,-50.00,-967.00
2024-05-19 09:34:15.605382,0,1,0,0,0,0,76,78,128,110,100,132.89,44,-29.00,-56.00,-990.00
2024-05-19 09:34:15.656673,0,1,1,0,0,0,76,78,128,110,100,132.94,44,-89.00,-40.00,-1005.00
2024-05-19 09:34:15.808213,0,2,0,0,0,0,76,78,128,110,100,132.94,44,15.00,-67.00,-929.00
2024-05-19 09:34:15.860545,0,2,0,0,0,0,76,78,129,110,100,132.91,44,-34.00,-48.00,-843.00
2024-05-19 09:34:16.013136,0,2,1,0,0,0,76,78,129,110,100,132.94,44,-4.00,-56.00,-961.00
2024-05-19 09:34:16.064447,0,2,1,0,0,0,76,78,128,110,100,132.95,44,-33.00,-66.00,-956.00
2024-05-19 09:34:16.218015,0,2,1,0,0,0,76,78,128,110,100,132.95,44,18.00,-64.00,-963.00
2024-05-19 09:34:16.268428,0,2,1,0,0,0,76,78,128,110,100,132.94,44,54.00,-45.00,-1241.00
2024-05-19 09:34:16.426217,0,2,1,0,0,0,76,78,127,110,100,132.89,44,-4.00,-56.00,-1017.00
2024-05-19 09:34:16.472522,0,2,1,0,0,0,76,78,126,110,100,132.89,44,-12.00,-40.00,-1076.00
2024-05-19 09:34:16.631520,0,3,1,0,0,0,76,78,125,110,100,132.94,45,-44.00,-32.00,-1056.00
2024-05-19 09:34:16.676595,0,3,1,0,0,0,76,78,125,110,100,132.97,45,-10.00,-56.00,-980.00
2024-05-19 09:34:16.835788,0,3,1,0,0,0,76,78,125,110,100,132.84,45,50.00,-102.00,-1079.00
2024-05-19 09:34:16.880415,0,3,1,0,0,0,76,78,124,100,100,132.89,45,67.00,-62.00,-1017.00
2024-05-19 09:34:17.040624,0,3,1,0,0,0,76,79,124,100,100,132.88,45,69.00,-77.00,-1031.00
2024-05-19 09:34:17.084753,0,3,1,0,0,0,76,79,125,100,100,132.86,45,4.00,-51.00,-1012.00
2024-05-19 09:34:17.245849,0,3,1,0,0,0,76,79,124,100,100,132.89,45,46.00,-100.00,-1033.00
2024-05-19 09:34:17.288120,0,3,1,0,0,0,76,79,126,100,100,133.00,45,-7.00,-43.00,-915.00
2024-05-19 09:34:17.449978,0,3,1,0,0,0,76,79,125,100,100,132.95,45,12.00,-48.00,-969.00
2024-05-19 09:34:17.492194,0,3,-3,0,0,0,76,79,126,110,100,132.91,45,-57.00,-10.00,-959.00
2024-05-19 09:34:17.654874,0,3,-9,0,0,0,76,79,127,110,100,132.94,46,19.00,-71.00,-1012.00
2024-05-19 09:34:17.696466,0,3,-15,0,0,0,76,79,127,110,100,132.99,46,46.00,-66.00,-1069.00
2024-05-19 09:34:17.856242,0,3,-21,0,0,0,76,79,127,110,100,132.94,46,60.00,-52.00,-994.00
2024-05-19 09:34:17.900178,0,2,-27,0,0,0,76,79,128,110,100,132.97,46,-14.00,-4.00,-1082.00
2024-05-19 09:34:18.064907,1,2,-33,0,0,0,77,79,129,110,100,132.93,46,47.00,-73.00,-905.00
2024-05-19 09:34:18.104422,2,2,-39,0,0,0,77,79,128,110,100,132.96,46,8.00,-20.00,-1076.00
2024-05-19 09:34:18.265619,3,2,-45,0,0,0,77,79,129,110,100,132.94,46,57.00,-40.00,-907.00
2024-05-19 09:34:18.308328,3,1,-51,0,0,0,77,79,128,110,100,132.87,46,67.00,-44.00,-989.00
2024-05-19 09:34:18.470424,3,1,-57,0,0,0,77,79,128,110,100,132.86,46,126.00,-45.00,-946.00
2024-05-19 09:34:18.512182,3,0,-63,0,0,0,77,79,127,110,100,132.90,46,82.00,-50.00,-938.00
2024-05-19 09:34:18.675208,3,0,-69,0,0,0,77,79,128,110,100,132.81,47,93.00,-46.00,-1019.00
2024-05-19 09:34:18.716093,4,0,-75,0,0,0,77,79,127,110,100,132.83,47,62.00,23.00,-1035.00
2024-05-19 09:34:18.880076,4,0,-81,0,0,0,77,79,126,110,100,132.72,47,85.00,18.00,-950.00
2024-05-19 09:34:18.920028,5,0,-87,0,0,0,77,79,126,110,100,132.90,47,-30.00,48.00,-921.00
2024-05-19 09:34:19.084787,5,0,-92,0,0,0,77,79,124,110,100,132.85,47,44.00,12.00,-1032.00
2024-05-19 09:34:19.124318,5,0,-97,0,0,0,77,79,124,110,100,132.86,47,-3.00,56.00,-940.00
2024-05-19 09:34:19.289729,4,0,-103,0,0,0,77,79,122,110,100,132.77,47,48.00,-20.00,-999.00
2024-05-19 09:34:19.328035,3,0,-109,0,0,0,77,79,122,110,100,132.86,47,62.00,33.00,-1013.00
2024-05-19 09:34:19.494536,4,0,-115,0,0,0,77,79,121,100,100,132.79,47,85.00,3.00,-1080.00
2024-05-19 09:34:19.532260,4,0,-120,0,0,0,77,79,120,100,100,132.72,47,24.00,40.00,-1018.00
2024-05-19 09:34:19.699317,4,0,-127,0,0,0,77,79,119,100,100,132.79,48,113.00,1.00,-1014.00
2024-05-19 09:34:19.736431,4,-1,-133,0,0,0,77,79,119,100,100,132.81,48,40.00,60.00,-958.00
2024-05-19 09:34:19.904189,4,-2,-139,0,0,0,77,79,118,100,100,132.76,48,-4.00,70.00,-898.00
2024-05-19 09:34:19.904246,4,-2,-144,0,0,0,77,79,117,100,100,132.83,48,13.00,63.00,-894.00
2024-05-19 09:34:20.109132,2,-3,-150,0,0,0,77,79,116,100,100,132.89,48,-17.00,67.00,-1061.00
2024-05-19 09:34:20.144567,1,-3,-156,0,0,0,77,79,115,100,100,132.79,48,23.00,54.00,-1033.00
2024-05-19 09:34:20.194952,0,-3,-162,0,0,0,77,79,115,100,100,132.88,48,-74.00,111.00,-1020.00
2024-05-19 09:34:20.313621,0,-3,-168,0,0,0,77,79,115,100,100,132.81,48,14.00,28.00,-977.00
2024-05-19 09:34:20.398916,0,-3,-174,0,0,0,77,79,115,100,100,132.78,48,60.00,43.00,-1075.00
2024-05-19 09:34:20.518503,0,-3,179,0,0,0,77,79,115,100,100,132.79,48,-37.00,99.00,-1047.00
2024-05-19 09:34:20.602947,0,-3,173,0,0,0,77,79,116,100,100,132.87,49,0.00,29.00,-1020.00
2024-05-19 09:34:20.704897,0,-3,167,0,0,0,77,79,116,100,100,132.83,49,25.00,34.00,-1014.00
2024-05-19 09:34:20.825938,0,-3,161,0,0,0,77,79,117,100,100,132.82,49,-80.00,83.00,-905.00
2024-05-19 09:34:20.909047,0,-2,155,0,0,0,77,79,118,100,100,132.76,49,-136.00,88.00,-885.00
2024-05-19 09:34:21.038889,-1,-2,148,0,0,0,77,79,119,100,100,132.71,49,5.00,32.00,-1122.00
2024-05-19 09:34:21.113318,-2,-2,142,0,0,0,77,79,120,100,100,132.61,49,-43.00,76.00,-1200.00
2024-05-19 09:34:21.240732,-2,-2,136,0,0,0,77,79,121,100,100,132.59,49,-38.00,14.00,-994.00
2024-05-19 09:34:21.316836,-2,-2,129,0,0,0,77,79,122,100,100,132.63,49,-158.00,41.00,-1156.00
2024-05-19 09:34:21.448887,-3,-1,123,0,0,0,77,79,123,100,100,132.57,49,-136.00,28.00,-805.00
2024-05-19 09:34:21.520850,-4,0,117,1,0,0,77,79,124,100,100,132.59,49,-128.00,45.00,-1118.00
2024-05-19 09:34:21.644906,-4,0,111,0,0,0,77,79,124,110,100,132.63,50,-107.00,3.00,-960.00
2024-05-19 09:34:21.724914,-4,0,104,0,0,0,77,79,124,110,100,132.62,50,-100.00,6.00,-1010.00
2024-05-19 09:34:21.849685,-4,0,98,0,0,0,77,79,124,110,100,132.73,50,-53.00,-18.00,-1077.00
2024-05-19 09:34:21.928855,-4,0,92,0,0,0,77,79,124,110,100,132.79,50,-41.00,-82.00,-1003.00
2024-05-19 09:34:22.054745,-4,2,80,1,0,0,77,80,124,110,100,132.84,50,-47.00,-71.00,-916.00
2024-05-19 09:34:22.132792,-3,3,75,0,0,0,77,80,124,110,100,132.72,50,-43.00,-98.00,-934.00
2024-05-19 09:34:22.263438,-3,3,69,0,0,0,77,80,124,110,100,132.80,50,-52.00,-82.00,-1014.00
2024-05-19 09:34:22.338208,-2,3,63,0,0,0,77,80,124,110,100,132.75,50,-27.00,-82.00,-932.00
2024-05-19 09:34:22.469126,-1,4,57,0,0,0,77,80,124,110,100,132.81,50,-62.00,-44.00,-1036.00
2024-05-19 09:34:22.540826,-1,4,51,0,0,0,77,80,124,100,100,132.80,51,-50.00,-61.00,-1019.00
2024-05-19 09:34:22.669041,-1,4,45,0,0,0,77,80,123,100,100,132.82,51,-80.00,-55.00,-925.00
2024-05-19 09:34:22.744689,0,4,39,0,0,0,77,80,124,100,100,132.89,51,-36.00,-86.00,-768.00
2024-05-19 09:34:22.846628,0,4,33,0,0,0,77,80,124,100,100,132.95,51,-27.00,-57.00,-1039.00
2024-05-19 09:34:22.981294,0,4,27,0,0,0,77,80,123,100,100,132.91,51,44.00,-70.00,-1098.00
2024-05-19 09:34:23.050651,1,4,21,0,0,0,77,79,124,100,100,132.93,51,-17.00,-73.00,-1146.00
2024-05-19 09:34:23.152667,1,3,16,0,0,0,77,79,124,100,100,133.03,51,10.00,-73.00,-902.00
2024-05-19 09:34:23.287948,2,3,12,0,0,0,77,79,125,100,100,132.96,51,39.00,-93.00,-980.00
2024-05-19 09:34:23.356632,2,3,9,0,0,0,77,79,125,110,100,132.98,51,70.00,-83.00,-991.00
2024-05-19 09:34:23.487946,2,2,7,0,0,0,77,79,126,110,100,132.91,51,0.00,-54.00,-997.00
2024-05-19 09:34:23.560767,2,2,5,0,0,0,77,79,126,110,100,132.93,52,0.00,-29.00,-1006.00
2024-05-19 09:34:23.698244,1,2,4,0,0,0,77,79,127,110,100,132.96,52,17.00,-36.00,-1017.00
2024-05-19 09:34:23.764648,1,2,3,0,0,0,77,79,127,110,100,132.91,52,2.00,-44.00,-1246.00
2024-05-19 09:34:23.866713,1,3,2,0,0,0,77,79,127,110,100,132.99,52,93.00,-81.00,-1040.00
2024-05-19 09:34:23.917817,2,3,2,0,0,0,77,79,127,110,100,132.97,52,38.00,-52.00,-1071.00
2024-05-19 09:34:24.106530,2,3,2,0,0,0,78,79,127,110,100,133.00,52,47.00,-82.00,-945.00
2024-05-19 09:34:24.122108,2,3,2,0,0,0,78,79,127,110,100,132.96,52,-26.00,-75.00,-965.00
2024-05-19 09:34:24.311186,2,3,2,0,0,0,78,79,127,110,100,132.97,52,49.00,-84.00,-995.00
2024-05-19 09:34:24.327606,2,3,2,0,0,0,78,79,127,110,100,132.98,52,6.00,-68.00,-942.00
2024-05-19 09:34:24.428134,2,3,2,0,0,0,78,79,128,110,100,132.96,52,90.00,-83.00,-997.00
2024-05-19 09:34:24.618410,1,3,2,0,0,0,78,79,127,110,100,132.93,53,127.00,-96.00,-1085.00
2024-05-19 09:34:24.632070,2,3,2,0,0,0,78,79,127,110,100,132.99,53,17.00,-59.00,-1048.00
2024-05-19 09:34:24.733921,2,3,2,0,0,0,78,79,127,110,100,132.98,53,41.00,-46.00,-1175.00
2024-05-19 09:34:24.925578,2,4,2,0,0,0,78,79,127,110,100,133.03,53,47.00,-74.00,-1073.00
2024-05-19 09:34:24.937922,2,3,2,0,0,0,78,79,127,110,100,133.06,53,27.00,-77.00,-1001.00
2024-05-19 09:34:25.126642,1,3,2,0,0,0,77,80,127,110,100,132.99,53,37.00,-37.00,-1077.00
2024-05-19 09:34:25.141931,1,3,2,0,0,0,77,80,128,110,100,132.99,53,-56.00,-77.00,-856.00
2024-05-19 09:34:25.331280,1,4,2,0,0,0,77,80,129,110,100,132.99,53,-8.00,-64.00,-793.00
2024-05-19 09:34:25.345791,1,4,2,0,0,0,77,80,130,110,100,133.02,53,13.00,-67.00,-1033.00
2024-05-19 09:34:25.536275,1,4,2,0,0,0,77,80,130,110,100,132.96,53,98.00,-98.00,-960.00
2024-05-19 09:34:25.549763,1,3,2,0,0,0,77,80,129,110,100,132.99,54,40.00,-91.00,-930.00
2024-05-19 09:34:25.744570,1,3,2,0,0,0,77,80,129,110,100,132.98,54,17.00,-67.00,-1013.00
2024-05-19 09:34:25.753788,1,4,2,0,0,0,77,80,130,110,100,133.01,54,29.00,-81.00,-923.00
2024-05-19 09:34:25.855618,2,3,2,0,0,0,77,80,129,110,100,133.06,54,-30.00,-61.00,-1004.00
2024-05-19 09:34:26.048202,2,1,2,0,0,0,77,80,129,110,100,133.18,54,51.00,-85.00,-1169.00
2024-05-19 09:34:26.059940,0,-2,2,0,-1,-5,79,80,133,110,100,133.20,54,-22.00,-11.00,-1995.00
2024-05-19 09:34:26.252851,0,-37,2,0,-3,-12,79,80,191,120,100,133.23,54,18.00,333.00,-1376.00
2024-05-19 09:34:26.263918,0,-150,4,1,-12,-6,79,80,489,130,100,133.25,54,-12.00,566.00,-1093.00
2024-05-19 09:34:26.460414,5,89,1,1,-12,8,79,80,354,130,100,133.21,54,56.00,492.00,-891.00
2024-05-19 09:34:26.467886,-1,-3,-3,2,-6,11,79,80,133,120,100,132.75,54,10.00,-124.00,-1719.00
2024-05-19 09:34:26.664326,-1,-6,-2,3,-9,7,79,80,122,110,100,132.89,55,51.00,-83.00,-1502.00
2024-05-19 09:34:26.671814,2,6,1,3,-9,3,79,80,115,100,100,132.86,55,19.00,26.00,-1243.00
2024-05-19 09:34:26.773831,3,8,3,3,-8,1,79,80,111,100,100,132.89,55,-1.00,-22.00,-1271.00
2024-05-19 09:34:26.879412,3,8,3,2,-7,0,79,80,109,100,100,132.95,55,26.00,-104.00,-1064.00
2024-05-19 09:34:26.977852,2,7,2,2,-5,0,79,80,107,100,100,132.81,55,0.00,-57.00,-1089.00
2024-05-19 09:34:27.180680,2,6,2,1,-4,-1,78,80,107,100,100,132.70,55,59.00,-58.00,-843.00
2024-05-19 09:34:27.181764,2,5,2,1,-4,-1,78,80,107,100,100,132.74,55,33.00,-45.00,-1069.00
2024-05-19 09:34:27.379252,2,4,2,1,-3,-1,78,80,107,100,100,132.71,55,52.00,-56.00,-1090.00
2024-05-19 09:34:27.385762,2,4,2,1,-3,-1,78,80,108,100,100,132.72,55,49.00,-46.00,-1033.00
2024-05-19 09:34:27.584488,2,4,2,1,-3,-1,78,80,108,100,100,132.66,55,45.00,-52.00,-966.00
2024-05-19 09:34:27.589682,2,4,2,1,-3,0,78,80,108,100,100,132.67,56,81.00,-75.00,-968.00
2024-05-19 09:34:27.692278,2,4,2,1,-2,-1,78,80,109,100,100,132.70,56,31.00,-98.00,-979.00
2024-05-19 09:34:27.793922,2,4,2,1,-2,-1,78,80,110,100,99,132.67,56,-24.00,-38.00,-895.00
2024-05-19 09:34:28.000386,2,4,2,0,-2,-1,78,80,111,100,99,132.77,56,-30.00,-49.00,-1015.00
2024-05-19 09:34:28.000441,1,4,2,0,-2,0,78,80,112,100,99,132.73,56,31.00,-66.00,-1123.00
2024-05-19 09:34:28.102245,1,4,2,0,-2,0,78,80,113,100,99,132.74,56,-18.00,-25.00,-1084.00
2024-05-19 09:34:28.203545,1,4,2,0,-2,-1,78,80,115,100,99,132.75,56,-28.00,-50.00,-937.00
2024-05-19 09:34:28.252443,1,5,2,0,-2,-1,78,80,115,100,99,132.72,56,-22.00,-89.00,-960.00
2024-05-19 09:34:28.406841,2,6,2,0,-1,0,78,80,117,100,99,132.73,56,3.00,-40.00,-1178.00
2024-05-19 09:34:28.456511,2,6,2,0,-1,-1,78,80,118,100,99,132.69,56,18.00,-82.00,-992.00
2024-05-19 09:34:28.607926,1,5,2,0,0,-1,78,80,120,100,99,132.71,57,63.00,-67.00,-1034.00
2024-05-19 09:34:28.660709,1,4,2,0,0,0,78,80,121,100,99,132.78,57,-13.00,-44.00,-1046.00
2024-05-19 09:34:28.762418,1,4,2,0,0,0,78,80,121,110,99,132.86,57,72.00,-81.00,-896.00
2024-05-19 09:34:28.915221,1,4,2,0,0,0,78,80,122,110,99,132.83,57,-1.00,-29.00,-1155.00
2024-05-19 09:34:28.966406,1,4,1,0,0,0,78,80,122,110,99,132.78,57,-34.00,-9.00,-985.00
2024-05-19 09:34:29.128968,1,5,1,0,0,0,78,81,122,110,99,132.78,57,61.00,-67.00,-1017.00
2024-05-19 09:34:29.175395,1,4,1,0,0,0,78,81,123,110,99,132.73,57,-50.00,7.00,-946.00
2024-05-19 09:34:29.272490,1,3,1,0,0,0,78,81,121,110,99,132.74,57,56.00,-29.00,-1054.00
2024-05-19 09:34:29.374437,1,3,2,0,0,0,78,81,121,110,99,132.68,57,40.00,-49.00,-1012.00
2024-05-19 09:34:29.476406,1,3,2,0,0,0,78,81,122,110,99,132.74,57,56.00,-56.00,-939.00
2024-05-19 09:34:29.638551,2,3,2,0,0,0,78,81,121,110,99,132.80,58,112.00,-75.00,-959.00
2024-05-19 09:34:29.680396,2,3,2,0,0,0,78,81,122,110,99,132.85,58,22.00,-40.00,-1051.00
2024-05-19 09:34:29.782377,2,3,2,0,0,0,78,81,121,110,98,132.78,58,51.00,-72.00,-996.00
2024-05-19 09:34:29.884441,2,4,2,0,0,0,78,81,121,110,98,132.77,58,59.00,-52.00,-978.00
2024-05-19 09:34:29.986630,1,3,2,0,0,0,78,81,121,110,98,132.86,58,82.00,-65.00,-909.00
2024-05-19 09:34:30.147854,2,3,2,0,0,0,78,80,120,110,98,132.79,58,-19.00,-32.00,-927.00
2024-05-19 09:34:30.190401,1,3,1,0,0,0,78,80,119,110,98,132.82,58,73.00,-97.00,-982.00
2024-05-19 09:34:30.352587,1,3,2,0,0,0,78,80,118,110,98,132.82,58,44.00,-38.00,-918.00
2024-05-19 09:34:30.399294,2,3,1,0,0,0,78,80,116,100,98,132.78,58,-15.00,-27.00,-904.00
2024-05-19 09:34:30.496260,2,4,2,0,0,0,78,80,115,100,98,132.73,58,-17.00,-47.00,-1047.00
2024-05-19 09:34:30.659974,1,4,2,0,0,0,78,80,115,100,98,132.76,59,-22.00,-6.00,-887.00
2024-05-19 09:34:30.700345,1,4,2,0,0,0,78,80,114,100,98,132.71,59,48.00,-91.00,-1026.00
2024-05-19 09:34:30.864540,2,4,2,0,0,0,78,80,114,100,98,132.74,59,145.00,-91.00,-886.00
2024-05-19 09:34:30.904330,2,4,2,0,0,0,78,80,115,100,98,132.80,59,-24.00,-47.00,-1086.00
2024-05-19 09:34:31.069299,2,4,2,0,0,0,78,80,115,100,98,132.77,59,30.00,-70.00,-966.00
2024-05-19 09:34:31.108602,1,3,2,0,0,0,79,81,116,100,98,132.84,59,32.00,-73.00,-869.00
2024-05-19 09:34:31.279672,0,4,2,0,0,0,79,81,117,100,98,132.83,59,50.00,-80.00,-999.00
2024-05-19 09:34:31.312477,0,4,2,0,0,0,79,81,118,100,98,132.78,59,25.00,-45.00,-1054.00
2024-05-19 09:34:31.475328,0,3,2,0,0,0,79,81,120,100,98,132.86,59,28.00,-85.00,-1007.00
2024-05-19 09:34:31.516313,0,4,2,0,0,0,79,81,121,100,98,132.80,59,-10.00,-62.00,-971.00
2024-05-19 09:34:31.683867,0,4,2,0,0,0,79,81,122,100,98,132.86,60,75.00,-100.00,-909.00
2024-05-19 09:34:31.720404,0,4,2,0,0,0,79,81,123,100,98,132.91,60,12.00,-68.00,-976.00
2024-05-19 09:34:31.888695,0,3,2,0,0,0,79,81,123,110,97,132.81,60,42.00,-46.00,-959.00
2024-05-19 09:34:31.924371,0,3,2,0,0,0,79,81,124,110,97,132.80,60,-18.00,-40.00,-943.00
2024-05-19 09:34:31.975410,0,3,2,0,0,0,79,81,125,110,97,132.75,60,1.00,-66.00,-944.00
2024-05-19 09:34:32.128665,0,3,2,0,0,0,79,80,125,110,97,132.77,60,-14.00,-45.00,-1001.00
2024-05-19 09:34:32.179561,0,3,2,0,0,0,79,80,126,110,97,132.87,60,-39.00,-32.00,-1056.00
2024-05-19 09:34:32.294829,0,3,2,0,0,0,79,80,125,110,97,132.74,60,-19.00,-29.00,-932.00
2024-05-19 09:34:32.383975,-1,3,2,0,0,0,79,80,126,110,97,132.77,60,37.00,-49.00,-969.00
2024-05-19 09:34:32.486278,-1,3,1,0,0,0,79,80,126,110,97,132.77,60,27.00,-65.00,-1050.00
2024-05-19 09:34:32.601624,0,3,1,0,0,0,79,80,127,110,97,132.89,61,93.00,-71.00,-1650.00
2024-05-19 09:34:32.690849,0,3,1,0,0,-5,79,80,135,110,97,132.95,61,10.00,-186.00,-1859.00
2024-05-19 09:34:32.791811,0,28,2,0,2,-13,79,80,364,120,97,133.06,61,40.00,301.00,-1524.00
2024-05-19 09:34:32.893516,0,134,2,0,10,-10,79,80,494,130,97,132.94,61,62.00,913.00,-1110.00
2024-05-19 09:34:33.015014,2,-93,3,0,9,5,79,80,177,140,97,133.17,61,-40.00,793.00,-1257.00
2024-05-19 09:34:33.100846,0,0,5,0,3,8,79,80,136,130,97,132.87,61,-36.00,111.00,-932.00
2024-05-19 09:34:33.199499,0,1,5,0,4,6,79,80,129,120,97,132.86,61,30.00,-152.00,-1439.00
2024-05-19 09:34:33.322096,0,-4,3,0,3,2,79,80,126,120,97,132.81,61,-14.00,-28.00,-1217.00
2024-05-19 09:34:33.404148,0,-2,2,0,2,0,79,80,124,110,97,132.78,61,-9.00,-59.00,-1059.00
2024-05-19 09:34:33.523125,0,0,1,0,1,0,79,80,123,110,97,132.80,61,-6.00,-91.00,-1120.00
