TS,pitch,roll,yaw,vgx,vgy,vgz,templ,temph,tof,h,bat,baro,time,agx,agy,agz
2024-05-19 09:35:18.066825,0,0,-3,0,0,0,82,84,10,0,91,131.52,79,1.00,6.00,-1000.00
2024-05-19 09:35:18.130852,0,0,-3,0,0,0,82,84,10,0,91,131.47,79,0.00,6.00,-997.00
2024-05-19 09:35:18.271655,0,0,-3,0,0,0,82,84,10,0,91,131.46,79,0.00,6.00,-1000.00
2024-05-19 09:35:18.334929,0,0,-3,0,0,0,82,84,10,0,91,131.42,79,0.00,4.00,-999.00
2024-05-19 09:35:18.476304,0,0,-3,0,0,0,82,84,10,0,91,131.42,79,0.00,6.00,-1001.00
2024-05-19 09:35:18.538853,0,0,-3,0,0,0,82,84,10,0,91,131.40,79,0.00,5.00,-997.00
2024-05-19 09:35:18.681092,0,0,-3,0,0,0,82,84,10,0,91,131.47,79,0.00,7.00,-997.00
2024-05-19 09:35:18.742922,0,0,-3,0,0,0,82,84,10,0,91,131.40,79,0.00,6.00,-999.00
2024-05-19 09:35:18.886050,0,0,-3,0,0,0,82,84,10,0,91,131.45,79,0.00,6.00,-997.00
2024-05-19 09:35:18.946797,0,0,-3,0,0,0,82,84,10,0,91,131.46,79,0.00,4.00,-997.00
2024-05-19 09:35:19.090916,0,0,-3,0,0,0,82,84,10,0,91,131.43,79,0.00,5.00,-999.00
2024-05-19 09:35:19.150831,0,0,-3,0,0,0,82,84,10,0,91,131.48,79,0.00,4.00,-1000.00
2024-05-19 09:35:19.295699,0,0,-3,0,0,0,82,84,10,0,91,131.46,79,0.00,6.00,-1000.00
2024-05-19 09:35:19.354917,0,0,-3,0,0,0,82,84,10,0,91,131.43,79,-1.00,5.00,-1000.00
2024-05-19 09:35:19.500105,0,0,-3,0,0,0,82,84,10,0,91,131.47,79,0.00,7.00,-999.00
2024-05-19 09:35:19.558738,0,0,-3,0,0,0,82,84,10,0,91,131.44,79,0.00,6.00,-1000.00
2024-05-19 09:35:19.705256,0,0,-3,0,0,0,82,84,10,0,91,131.43,79,0.00,6.00,-1002.00
2024-05-19 09:35:19.762891,0,0,-3,0,0,0,82,84,10,0,91,131.46,79,-1.00,6.00,-999.00
2024-05-19 09:35:19.910747,0,0,-3,0,0,0,82,84,10,0,91,131.40,79,0.00,6.00,-1001.00
2024-05-19 09:35:19.966877,0,0,-3,0,0,0,82,84,10,0,91,131.46,79,-1.00,6.00,-998.00
2024-05-19 09:35:20.114737,0,0,-3,0,0,0,82,84,10,0,91,131.40,79,0.00,6.00,-999.00
2024-05-19 09:35:20.170871,0,0,-3,0,0,0,82,84,10,0,91,131.42,79,0.00,6.00,-998.00
2024-05-19 09:35:20.319569,0,0,-3,0,0,0,82,84,10,0,91,131.39,79,1.00,7.00,-1001.00
2024-05-19 09:35:20.374755,0,0,-3,0,0,0,83,85,10,0,91,131.45,79,-1.00,6.00,-1000.00
2024-05-19 09:35:20.524217,0,0,-3,0,0,0,83,85,10,0,91,131.42,79,0.00,5.00,-999.00
2024-05-19 09:35:20.578779,0,0,-3,0,0,0,83,85,10,0,91,131.43,79,0.00,7.00,-998.00
2024-05-19 09:35:20.729146,0,0,-3,0,0,0,83,85,10,0,91,131.47,79,0.00,5.00,-999.00
2024-05-19 09:35:20.782566,0,0,-3,0,0,0,83,85,10,0,91,131.39,79,0.00,5.00,-1001.00
2024-05-19 09:35:20.884561,0,0,-3,0,0,0,83,85,10,0,91,131.41,79,0.00,7.00,-999.00
2024-05-19 09:35:20.935959,0,0,-3,0,0,0,83,85,10,0,91,131.41,79,-2.00,7.00,-1000.00
2024-05-19 09:35:21.037650,0,0,-3,0,0,0,83,85,10,0,91,131.41,79,-5.00,-8.00,-1009.00
2024-05-19 09:35:21.139862,0,0,-3,0,0,0,83,85,10,0,91,131.41,79,2.00,2.00,-989.00
2024-05-19 09:35:21.343370,0,0,-1,0,0,0,83,85,10,0,91,131.41,79,66.00,22.00,-981.00
2024-05-19 09:35:21.343553,0,0,0,0,0,0,82,85,10,0,91,131.41,79,-12.00,37.00,-964.00
2024-05-19 09:35:21.446010,0,0,1,0,0,0,82,85,10,0,91,131.41,79,27.00,-37.00,-1027.00
2024-05-19 09:35:21.548002,0,-1,1,0,0,-1,82,85,10,0,91,131.41,79,51.00,-34.00,-1313.00
2024-05-19 09:35:21.650542,0,0,1,0,0,-3,82,85,10,0,91,131.41,79,30.00,0.00,-1355.00
2024-05-19 09:35:21.752956,0,0,1,0,0,-6,82,85,12,0,91,131.41,79,12.00,3.00,-1067.00
2024-05-19 09:35:21.855258,0,0,1,0,0,-8,82,85,22,10,91,131.65,79,-5.00,-15.00,-1062.00
2024-05-19 09:35:21.955613,0,0,1,0,0,-8,82,85,31,20,91,131.77,80,-1.00,-25.00,-1008.00
2024-05-19 09:35:22.060301,0,0,1,0,0,-8,82,85,38,30,91,131.82,80,-10.00,17.00,-964.00
2024-05-19 09:35:22.159560,0,0,1,0,0,-7,82,85,42,40,91,131.98,80,-15.00,35.00,-972.00
2024-05-19 09:35:22.265072,0,0,1,0,0,-6,82,85,47,40,91,131.99,80,11.00,-24.00,-939.00
2024-05-19 09:35:22.363958,0,0,1,0,0,-5,84,85,53,50,91,132.05,80,-44.00,24.00,-887.00
2024-05-19 09:35:22.478778,0,0,1,0,0,-4,84,85,58,50,91,132.19,80,-21.00,14.00,-956.00
2024-05-19 09:35:22.567550,0,0,1,0,0,-3,84,85,61,50,91,132.25,80,-71.00,25.00,-915.00
2024-05-19 09:35:22.674739,0,0,1,0,0,-2,84,85,64,60,91,132.25,80,-8.00,-2.00,-934.00
2024-05-19 09:35:22.771533,0,0,1,0,0,-1,84,85,66,60,91,132.26,80,-98.00,44.00,-924.00
2024-05-19 09:35:22.880506,0,0,1,0,0,-1,84,85,68,60,91,132.27,80,-55.00,33.00,-988.00
2024-05-19 09:35:22.975473,-1,0,1,0,0,-1,84,85,68,60,91,132.29,81,12.00,-5.00,-999.00
2024-05-19 09:35:23.084093,-1,0,1,0,0,-1,84,85,70,60,91,132.34,81,18.00,12.00,-996.00
2024-05-19 09:35:23.179498,0,0,1,0,0,-1,84,85,71,60,91,132.26,81,-31.00,2.00,-1011.00
2024-05-19 09:35:23.291879,1,0,1,0,0,-1,84,85,72,60,91,132.32,81,0.00,11.00,-1020.00
2024-05-19 09:35:23.383494,1,0,1,0,0,-1,83,85,73,60,91,132.35,81,4.00,28.00,-1027.00
2024-05-19 09:35:23.493751,1,0,1,0,0,-1,83,85,74,60,91,132.42,81,3.00,19.00,-1045.00
2024-05-19 09:35:23.587510,0,0,1,0,0,-1,83,85,75,70,91,132.36,81,-57.00,30.00,-984.00
2024-05-19 09:35:23.698576,0,0,1,0,0,-1,83,85,75,70,91,132.45,81,-41.00,42.00,-959.00
2024-05-19 09:35:23.791420,0,0,1,0,0,0,83,85,76,70,91,132.33,81,-14.00,16.00,-961.00
2024-05-19 09:35:23.893476,0,0,1,0,0,0,83,85,76,70,91,132.39,81,-21.00,0.00,-1006.00
2024-05-19 09:35:24.005635,0,0,1,0,0,0,83,85,76,70,91,132.37,82,-16.00,21.00,-950.00
2024-05-19 09:35:24.097713,0,0,1,0,0,0,83,85,76,70,91,132.41,82,7.00,1.00,-1015.00
2024-05-19 09:35:24.199510,0,0,1,0,0,0,83,85,76,70,91,132.39,82,-31.00,45.00,-976.00
2024-05-19 09:35:24.313317,0,0,1,0,0,0,83,85,75,70,91,132.38,82,8.00,9.00,-1028.00
2024-05-19 09:35:24.403370,0,0,1,0,0,0,82,84,75,70,91,132.32,82,43.00,-3.00,-989.00
2024-05-19 09:35:24.518091,0,0,1,0,0,0,82,84,74,70,91,132.33,82,-27.00,19.00,-1047.00
2024-05-19 09:35:24.607533,0,0,1,0,0,0,82,84,74,70,91,132.31,82,-62.00,49.00,-988.00
2024-05-19 09:35:24.722461,0,0,1,0,0,0,82,84,74,70,91,132.35,82,-19.00,19.00,-1024.00
2024-05-19 09:35:24.811614,-1,0,1,0,0,0,82,84,74,70,91,132.27,82,7.00,0.00,-1002.00
2024-05-19 09:35:24.915179,-1,0,1,0,0,0,82,84,74,70,91,132.31,82,-29.00,15.00,-967.00
2024-05-19 09:35:25.015975,0,0,1,0,0,0,82,84,74,70,91,132.34,83,-120.00,36.00,-975.00
2024-05-19 09:35:25.067026,-1,0,1,0,0,0,82,84,74,70,91,132.38,83,-41.00,47.00,-1056.00
2024-05-19 09:35:25.234491,-2,0,1,0,0,0,82,84,75,70,91,132.30,83,53.00,-29.00,-1003.00
2024-05-19 09:35:25.271193,-1,0,1,0,0,0,82,84,76,70,91,132.36,83,-19.00,-15.00,-987.00
2024-05-19 09:35:25.439335,-1,0,1,0,0,0,82,84,77,70,91,132.38,83,-41.00,19.00,-1021.00
2024-05-19 09:35:25.475308,-1,0,1,0,0,0,82,84,79,70,91,132.39,83,-79.00,30.00,-1001.00
2024-05-19 09:35:25.644058,0,0,1,0,0,-1,82,84,80,70,91,132.39,83,-123.00,48.00,-957.00
2024-05-19 09:35:25.678341,0,0,1,0,0,0,82,84,80,70,91,132.39,83,41.00,-44.00,-1019.00
2024-05-19 09:35:25.848913,0,0,1,0,0,0,82,84,81,70,91,132.49,83,-19.00,0.00,-968.00
2024-05-19 09:35:25.882882,0,1,1,0,0,0,82,84,81,70,91,132.39,83,34.00,-42.00,-1004.00
2024-05-19 09:35:26.026394,0,1,1,0,0,0,82,84,81,70,91,132.36,84,3.00,-24.00,-950.00
2024-05-19 09:35:26.086385,0,1,1,0,0,0,82,84,80,70,91,132.33,84,13.00,-14.00,-984.00
2024-05-19 09:35:26.258521,0,1,1,0,0,0,82,84,79,70,91,132.38,84,6.00,-2.00,-961.00
2024-05-19 09:35:26.290456,0,1,1,0,0,0,82,84,79,70,91,132.41,84,39.00,-38.00,-1051.00
2024-05-19 09:35:26.463397,0,0,1,0,0,0,83,84,79,70,91,132.44,84,-44.00,-9.00,-994.00
2024-05-19 09:35:26.496597,-1,0,1,0,0,0,83,84,78,70,91,132.38,84,50.00,-33.00,-955.00
2024-05-19 09:35:26.596709,-1,0,1,0,0,0,83,84,77,70,91,132.37,84,-77.00,26.00,-971.00
2024-05-19 09:35:26.770532,0,1,1,0,0,0,83,84,77,70,91,132.44,84,-36.00,8.00,-1002.00
2024-05-19 09:35:26.800829,0,0,1,0,0,0,83,84,76,70,91,132.41,84,-12.00,0.00,-960.00
2024-05-19 09:35:26.902294,-1,0,1,0,0,0,83,84,75,70,91,132.42,84,-64.00,22.00,-990.00
2024-05-19 09:35:27.044527,-1,0,1,0,0,0,83,84,74,70,91,132.43,85,-35.00,7.00,-1025.00
2024-05-19 09:35:27.106764,-2,0,1,0,0,0,83,84,73,60,91,132.35,85,51.00,-37.00,-1030.00
2024-05-19 09:35:27.286342,-1,0,1,0,0,0,83,84,72,60,91,132.37,85,-11.00,-11.00,-1027.00
2024-05-19 09:35:27.310246,-1,1,1,0,0,0,83,84,73,60,91,132.40,85,-31.00,-4.00,-1097.00
2024-05-19 09:35:27.492768,-1,1,1,0,0,0,83,85,73,60,91,132.30,85,-23.00,13.00,-1078.00
2024-05-19 09:35:27.515502,-1,1,1,0,0,0,83,85,74,60,91,132.36,85,-78.00,10.00,-996.00
2024-05-19 09:35:27.701179,-2,0,1,0,0,0,83,85,75,60,91,132.36,85,5.00,-31.00,-1046.00
2024-05-19 09:35:27.719759,-3,0,1,0,0,0,83,85,76,70,91,132.36,85,-27.00,8.00,-954.00
2024-05-19 09:35:27.899669,-3,0,1,0,0,0,83,85,77,70,91,132.31,85,47.00,-62.00,-931.00
2024-05-19 09:35:27.924212,-2,1,1,0,0,0,83,85,78,70,91,132.41,85,16.00,-35.00,-897.00
2024-05-19 09:35:28.024614,-1,1,1,0,0,0,83,85,79,70,91,132.37,86,23.00,-49.00,-935.00
2024-05-19 09:35:28.126333,-1,1,1,0,0,0,83,85,79,70,91,132.39,86,39.00,-26.00,-1004.00
2024-05-19 09:35:28.228384,-1,2,1,0,0,0,83,85,80,70,91,132.41,86,-27.00,3.00,-973.00
2024-05-19 09:35:28.413162,-1,2,1,0,0,0,83,85,81,70,91,132.42,86,-30.00,-30.00,-891.00
2024-05-19 09:35:28.432242,-1,1,1,0,0,0,82,84,81,70,91,132.36,86,6.00,-61.00,-888.00
2024-05-19 09:35:28.613964,0,1,1,0,0,0,82,84,82,70,91,132.41,86,51.00,-30.00,-998.00
2024-05-19 09:35:28.636151,0,1,1,0,0,0,82,84,83,70,91,132.40,86,-7.00,-42.00,-959.00
2024-05-19 09:35:28.818513,0,1,1,0,0,0,82,84,84,70,91,132.34,86,71.00,-60.00,-1061.00
2024-05-19 09:35:28.818776,0,1,1,0,0,0,82,84,85,70,91,132.41,86,-23.00,-11.00,-928.00
2024-05-19 09:35:28.891522,-1,1,1,0,0,0,82,84,86,70,91,132.45,86,61.00,-23.00,-1012.00
2024-05-19 09:35:29.026622,-1,1,1,0,0,0,82,84,88,70,91,132.48,87,-9.00,-4.00,-1067.00
2024-05-19 09:35:29.095772,0,1,1,0,0,0,82,84,88,70,91,132.45,87,27.00,-28.00,-945.00
2024-05-19 09:35:29.228510,-1,1,1,0,0,0,82,84,88,80,91,132.42,87,11.00,-45.00,-879.00
2024-05-19 09:35:29.299339,-1,1,1,0,0,0,82,84,88,80,91,132.46,87,1.00,-53.00,-928.00
2024-05-19 09:35:29.433010,-2,1,1,0,0,0,81,84,88,80,91,132.43,87,24.00,-59.00,-936.00
2024-05-19 09:35:29.503263,-2,1,1,0,0,0,81,84,88,80,91,132.47,87,-4.00,3.00,-1196.00
2024-05-19 09:35:29.605698,-1,1,1,0,0,0,81,84,88,80,91,132.49,87,-58.00,-6.00,-956.00
2024-05-19 09:35:29.707426,-1,1,1,0,0,0,81,84,88,80,91,132.41,87,95.00,-43.00,-930.00
2024-05-19 09:35:29.842504,-1,1,1,0,0,0,81,84,87,80,91,132.47,87,-8.00,-42.00,-957.00
2024-05-19 09:35:29.911138,-1,1,1,0,0,0,81,84,87,80,91,132.50,87,-19.00,-22.00,-1238.00
2024-05-19 09:35:30.028687,-1,1,1,0,0,0,81,84,87,80,91,132.50,88,9.00,-17.00,-1108.00
2024-05-19 09:35:30.115722,-1,1,1,0,0,-1,81,84,89,80,91,132.51,88,3.00,-1.00,-1203.00
2024-05-19 09:35:30.251962,-1,1,1,0,0,-2,81,84,91,80,91,132.47,88,15.00,-33.00,-950.00
2024-05-19 09:35:30.319120,-2,0,1,0,0,-3,81,84,94,80,91,132.51,88,5.00,-14.00,-1129.00
2024-05-19 09:35:30.457121,-1,1,1,1,0,-4,82,84,98,90,91,132.52,88,-8.00,-8.00,-1076.00
2024-05-19 09:35:30.523211,0,1,1,1,0,-4,82,84,102,90,91,132.56,88,-83.00,-18.00,-1098.00
2024-05-19 09:35:30.661771,0,1,1,0,0,-4,82,84,107,100,91,132.60,88,-16.00,-10.00,-961.00
2024-05-19 09:35:30.727120,0,1,1,0,0,-5,82,84,112,100,91,132.67,88,-7.00,-2.00,-1184.00
2024-05-19 09:35:30.869149,0,1,1,1,0,-5,82,84,118,110,91,132.66,88,59.00,-7.00,-1121.00
2024-05-19 09:35:30.931129,0,1,1,1,0,-5,82,84,123,110,91,132.79,89,-10.00,0.00,-1174.00
2024-05-19 09:35:31.075455,0,1,1,1,0,-5,82,84,128,120,91,132.81,89,30.00,-42.00,-892.00
2024-05-19 09:35:31.135095,0,2,1,1,0,-5,82,84,134,130,91,132.85,89,11.00,-13.00,-1016.00
2024-05-19 09:35:31.276048,0,2,1,1,0,-4,82,84,138,130,91,132.88,89,74.00,-18.00,-923.00
2024-05-19 09:35:31.339188,0,1,1,0,0,-4,82,84,142,140,91,132.91,89,42.00,-50.00,-937.00
2024-05-19 09:35:31.481223,0,1,1,0,0,-4,82,84,146,140,91,132.94,89,32.00,-21.00,-959.00
2024-05-19 09:35:31.543055,0,2,1,0,0,-3,82,84,150,140,91,133.00,89,27.00,-41.00,-1031.00
2024-05-19 09:35:31.685968,0,2,1,0,0,-3,82,84,153,150,91,133.00,89,29.00,-60.00,-1036.00
2024-05-19 09:35:31.746979,0,2,1,1,0,-2,82,84,156,150,91,133.02,89,44.00,-19.00,-1001.00
2024-05-19 09:35:31.890427,0,2,1,1,0,-2,82,84,159,150,91,133.03,89,76.00,-87.00,-961.00
2024-05-19 09:35:31.951024,0,2,1,1,0,-2,82,84,162,150,91,133.10,90,38.00,-51.00,-955.00
2024-05-19 09:35:32.095247,1,2,1,0,0,-2,82,84,165,160,91,133.12,90,31.00,-30.00,-950.00
2024-05-19 09:35:32.155035,0,1,1,0,0,-2,82,84,167,160,91,133.14,90,3.00,-31.00,-1001.00
2024-05-19 09:35:32.300214,0,2,1,0,0,-2,82,84,170,160,91,133.24,90,20.00,-18.00,-1116.00
2024-05-19 09:35:32.359056,0,2,1,0,0,-2,82,84,172,160,91,133.19,90,9.00,-40.00,-1031.00
2024-05-19 09:35:32.505024,0,2,1,0,0,-1,82,84,175,170,91,133.17,90,17.00,-33.00,-943.00
2024-05-19 09:35:32.563099,0,2,1,0,0,-1,82,84,177,170,91,133.23,90,-5.00,-18.00,-997.00
2024-05-19 09:35:32.718743,0,2,1,0,0,-1,82,84,179,170,91,133.29,90,41.00,-7.00,-1075.00
2024-05-19 09:35:32.718823,0,2,1,0,0,-1,82,84,181,170,91,133.29,90,-17.00,-24.00,-877.00
2024-05-19 09:35:32.817974,0,2,1,0,0,-1,82,84,182,170,91,133.29,90,28.00,-28.00,-963.00
2024-05-19 09:35:32.923721,0,2,1,0,0,0,82,84,183,170,91,133.30,91,18.00,-29.00,-971.00
2024-05-19 09:35:33.025631,0,2,1,0,0,0,82,84,184,170,91,133.33,91,78.00,-61.00,-915.00
2024-05-19 09:35:33.123993,0,2,1,0,0,0,82,84,185,170,91,133.32,91,-45.00,-7.00,-956.00
2024-05-19 09:35:33.226250,0,2,1,0,0,0,82,84,185,170,91,133.34,91,36.00,-37.00,-1060.00
2024-05-19 09:35:33.328140,0,2,1,0,0,0,82,84,185,170,91,133.33,91,27.00,-42.00,-1117.00
2024-05-19 09:35:33.431748,0,2,1,0,0,0,82,84,184,170,91,133.35,91,31.00,-41.00,-1013.00
2024-05-19 09:35:33.532428,0,2,1,0,0,0,82,84,183,170,91,133.33,91,44.00,-27.00,-909.00
2024-05-19 09:35:33.634726,0,2,1,0,0,0,82,84,182,170,91,133.38,91,3.00,-9.00,-1239.00
2024-05-19 09:35:33.737814,0,2,1,0,0,0,82,84,181,170,91,133.30,91,43.00,-19.00,-1077.00
2024-05-19 09:35:33.838534,0,2,1,0,0,0,82,84,180,170,91,133.37,91,6.00,-48.00,-1048.00
2024-05-19 09:35:33.940227,0,2,1,0,0,0,82,84,178,170,91,133.28,92,30.00,-9.00,-1051.00
2024-05-19 09:35:34.041970,0,2,1,0,0,0,82,84,179,170,91,133.26,92,-34.00,-7.00,-1070.00
2024-05-19 09:35:34.143934,0,2,1,0,0,0,82,84,178,170,91,133.28,92,35.00,-36.00,-925.00
2024-05-19 09:35:34.246256,0,2,1,0,0,0,82,84,178,170,91,133.33,92,-21.00,8.00,-983.00
2024-05-19 09:35:34.348362,0,2,1,0,0,0,82,84,178,170,91,133.30,92,26.00,-22.00,-956.00
2024-05-19 09:35:34.453607,0,1,1,1,0,0,82,84,178,170,91,133.33,92,-13.00,11.00,-1020.00
2024-05-19 09:35:34.552926,0,1,1,1,0,0,82,84,177,170,91,133.34,92,-41.00,27.00,-978.00
2024-05-19 09:35:34.655710,0,0,1,0,0,0,82,84,178,170,91,133.25,92,27.00,-15.00,-1168.00
2024-05-19 09:35:34.757716,0,0,1,0,0,0,82,84,178,170,91,133.34,92,98.00,-55.00,-891.00
2024-05-19 09:35:34.869057,0,1,1,0,0,0,82,84,177,170,91,133.36,92,50.00,-24.00,-979.00
2024-05-19 09:35:34.962429,0,1,1,0,0,0,82,84,177,170,91,133.35,93,39.00,-31.00,-894.00
2024-05-19 09:35:35.061873,0,1,1,0,0,0,82,84,178,170,91,133.32,93,58.00,-49.00,-895.00
2024-05-19 09:35:35.163834,0,1,1,0,0,0,82,84,176,170,91,133.37,93,-32.00,-2.00,-905.00
2024-05-19 09:35:35.273958,0,0,1,0,0,1,82,84,175,170,91,133.26,93,22.00,20.00,-872.00
2024-05-19 09:35:35.367835,0,0,1,1,0,2,82,84,172,170,91,133.33,93,49.00,-16.00,-952.00
2024-05-19 09:35:35.474388,1,1,1,1,0,2,82,84,170,160,91,133.24,93,4.00,-6.00,-980.00
2024-05-19 09:35:35.571838,1,1,1,1,0,2,82,84,167,160,91,133.18,93,-28.00,19.00,-965.00
2024-05-19 09:35:35.679261,2,1,1,0,0,2,82,84,166,160,91,133.25,93,47.00,-65.00,-990.00
2024-05-19 09:35:35.775793,1,2,1,0,0,2,82,84,164,160,91,133.18,93,62.00,-16.00,-979.00
2024-05-19 09:35:35.883981,0,2,1,0,0,2,82,84,162,150,91,133.29,93,79.00,-33.00,-1186.00
2024-05-19 09:35:35.980324,0,2,1,0,0,2,82,84,159,150,91,133.14,94,37.00,-37.00,-857.00
2024-05-19 09:35:36.081797,1,2,1,1,0,2,82,84,156,150,91,133.12,94,68.00,-28.00,-1087.00
2024-05-19 09:35:36.191185,2,1,1,1,0,2,82,84,154,150,91,133.04,94,34.00,-65.00,-1009.00
2024-05-19 09:35:36.235609,2,2,1,0,0,2,82,84,152,140,91,133.14,94,27.00,-9.00,-920.00
2024-05-19 09:35:36.396031,2,2,1,0,0,1,82,84,151,140,91,133.15,94,23.00,-42.00,-960.00
2024-05-19 09:35:36.489832,2,2,1,0,0,1,83,84,150,140,91,133.10,94,5.00,-51.00,-994.00
2024-05-19 09:35:36.600809,1,2,1,0,0,1,83,84,149,140,91,133.12,94,7.00,-24.00,-946.00
2024-05-19 09:35:36.694098,1,3,1,0,0,1,83,84,147,140,91,133.21,94,24.00,-60.00,-1060.00
2024-05-19 09:35:36.744762,1,2,1,0,0,0,83,84,146,140,91,133.17,94,28.00,-43.00,-1088.00
2024-05-19 09:35:36.908474,2,3,1,0,0,0,83,84,146,140,91,133.20,94,70.00,-64.00,-996.00
2024-05-19 09:35:36.948746,2,3,1,0,0,0,83,84,145,130,91,133.14,95,104.00,7.00,-1079.00
2024-05-19 09:35:37.114136,3,2,1,1,0,0,83,84,144,130,91,133.15,95,127.00,-54.00,-985.00
2024-05-19 09:35:37.152769,4,1,1,1,0,0,83,84,144,130,91,133.14,95,106.00,7.00,-1010.00
2024-05-19 09:35:37.317781,4,1,1,0,1,0,83,84,142,130,91,132.98,95,66.00,-15.00,-1112.00
2024-05-19 09:35:37.356845,4,0,1,0,1,1,83,84,141,130,91,132.95,95,109.00,-19.00,-976.00
2024-05-19 09:35:37.522474,4,0,1,0,0,1,82,85,139,130,91,133.08,95,73.00,-23.00,-937.00
2024-05-19 09:35:37.560730,4,0,1,0,0,1,82,85,137,130,91,132.89,95,75.00,46.00,-1083.00
2024-05-19 09:35:37.727239,4,0,1,1,0,1,82,85,136,130,91,132.96,95,127.00,-48.00,-989.00
2024-05-19 09:35:37.764741,5,1,2,1,0,1,82,85,134,130,91,132.94,95,59.00,-31.00,-1026.00
2024-05-19 09:35:37.866869,5,2,2,0,0,1,82,85,132,120,91,133.04,95,-2.00,-7.00,-1014.00
2024-05-19 09:35:37.968843,5,2,1,0,0,0,82,85,131,120,91,132.90,96,73.00,-37.00,-1011.00
2024-05-19 09:35:38.141146,5,2,1,0,0,0,82,85,130,120,91,133.01,96,71.00,-23.00,-1237.00
2024-05-19 09:35:38.172828,4,2,1,0,0,0,82,85,129,120,91,132.94,96,139.00,-40.00,-874.00
2024-05-19 09:35:38.348010,4,1,1,0,0,0,82,85,129,120,91,132.89,96,172.00,-35.00,-909.00
2024-05-19 09:35:38.376701,4,1,1,0,0,0,82,85,128,120,91,132.80,96,83.00,-4.00,-1034.00
2024-05-19 09:35:38.550625,4,1,1,0,0,0,82,84,128,120,91,132.80,96,37.00,6.00,-1120.00
2024-05-19 09:35:38.580751,4,1,1,0,0,0,82,84,128,120,91,132.79,96,91.00,-38.00,-916.00
2024-05-19 09:35:38.769742,4,2,1,0,0,0,82,84,128,120,91,132.85,96,75.00,2.00,-1057.00
2024-05-19 09:35:38.784918,4,1,1,0,0,0,82,84,128,120,91,132.78,96,91.00,-25.00,-987.00
2024-05-19 09:35:38.962262,4,1,1,0,0,0,82,84,129,120,91,132.80,96,70.00,-40.00,-976.00
2024-05-19 09:35:38.988762,3,1,1,0,0,0,82,84,129,120,91,132.87,97,37.00,8.00,-1046.00
2024-05-19 09:35:39.090920,4,1,1,0,0,0,82,84,129,120,91,132.83,97,102.00,-28.00,-1017.00
2024-05-19 09:35:39.263318,4,1,1,0,0,0,82,84,129,120,91,132.85,97,114.00,-32.00,-957.00
2024-05-19 09:35:39.295712,4,1,1,0,0,0,82,84,130,120,91,132.79,97,72.00,-29.00,-985.00
2024-05-19 09:35:39.475418,4,2,1,0,0,0,82,84,130,120,91,132.83,97,-6.00,26.00,-1002.00
2024-05-19 09:35:39.499962,4,2,1,0,0,0,82,84,131,120,91,132.81,97,109.00,8.00,-1154.00
2024-05-19 09:35:39.675758,4,2,1,0,0,0,82,84,131,120,91,132.84,97,58.00,-26.00,-971.00
2024-05-19 09:35:39.703670,4,1,1,0,0,0,82,84,131,120,91,132.82,97,14.00,-1.00,-1005.00
2024-05-19 09:35:39.820539,3,1,1,0,0,0,82,84,130,120,91,132.77,97,35.00,-5.00,-1041.00
2024-05-19 09:35:39.907714,3,1,1,0,0,0,82,84,130,120,91,132.82,97,56.00,-31.00,-874.00
2024-05-19 09:35:40.093903,3,1,1,0,0,0,82,84,131,120,91,132.76,98,70.00,-3.00,-1112.00
2024-05-19 09:35:40.111656,-2,0,1,0,0,0,82,84,130,120,91,132.85,98,122.00,-64.00,-987.00
2024-05-19 09:35:40.295638,-5,0,1,1,0,0,82,84,129,120,91,132.88,98,73.00,-23.00,-1044.00
2024-05-19 09:35:40.296170,-5,0,1,3,0,0,82,84,129,120,91,132.83,98,57.00,-38.00,-983.00
2024-05-19 09:35:40.366585,-4,1,1,5,0,0,82,84,129,120,91,132.88,98,89.00,-36.00,-1065.00
2024-05-19 09:35:40.521259,-3,1,1,6,0,0,83,84,129,120,91,133.01,98,49.00,-23.00,-864.00
2024-05-19 09:35:40.621818,-2,1,1,6,0,0,83,84,128,120,91,132.97,98,16.00,-36.00,-924.00
2024-05-19 09:35:40.723668,-2,1,1,6,0,0,83,84,128,120,91,132.90,98,-36.00,10.00,-959.00
2024-05-19 09:35:40.902421,-2,1,1,7,0,0,83,84,127,120,91,132.88,98,0.00,-2.00,-1016.00
2024-05-19 09:35:40.902907,-1,1,1,7,0,0,83,84,127,120,91,132.90,98,-7.00,-12.00,-842.00
2024-05-19 09:35:40.978532,2,0,1,7,0,0,83,84,127,120,91,132.89,99,70.00,-24.00,-962.00
2024-05-19 09:35:41.106945,4,1,1,6,0,0,83,84,127,120,91,132.83,99,-36.00,-1.00,-1080.00
2024-05-19 09:35:41.182574,6,1,1,5,0,0,83,84,126,120,91,132.87,99,50.00,-13.00,-1040.00
2024-05-19 09:35:41.317872,6,0,1,4,0,0,83,84,126,120,91,132.90,99,47.00,3.00,-968.00
2024-05-19 09:35:41.386503,5,1,1,3,0,0,83,84,127,120,91,132.85,99,3.00,16.00,-1070.00
2024-05-19 09:35:41.516304,3,1,1,3,0,0,83,85,127,120,91,132.90,99,79.00,51.00,-1087.00
2024-05-19 09:35:41.590686,2,1,1,3,0,0,83,85,127,120,91,132.88,99,149.00,-41.00,-939.00
2024-05-19 09:35:41.729867,3,2,1,3,0,0,83,85,127,120,91,132.87,99,77.00,-19.00,-1081.00
2024-05-19 09:35:41.794588,3,1,1,3,0,0,83,85,129,120,91,132.94,99,156.00,-80.00,-948.00
2024-05-19 09:35:41.925591,3,1,1,3,0,0,83,85,129,120,91,132.88,99,52.00,-6.00,-1038.00
2024-05-19 09:35:41.999006,3,0,1,3,0,0,83,85,129,120,91,132.92,100,68.00,-36.00,-993.00
2024-05-19 09:35:42.104292,4,0,1,3,0,0,83,85,130,120,91,132.90,100,171.00,-64.00,-861.00
2024-05-19 09:35:42.202494,5,0,1,3,0,0,83,85,131,120,91,132.94,100,19.00,18.00,-961.00
2024-05-19 09:35:42.304550,6,1,1,2,0,0,83,85,132,120,91,132.90,100,74.00,-51.00,-907.00
2024-05-19 09:35:42.437525,6,1,1,1,0,0,83,85,133,120,91,132.95,100,-12.00,-9.00,-1008.00
2024-05-19 09:35:42.508579,6,0,1,1,0,0,83,84,134,120,91,132.97,100,41.00,-28.00,-1017.00
2024-05-19 09:35:42.642315,5,1,1,0,0,0,83,84,135,120,91,133.06,100,136.00,-63.00,-1053.00
2024-05-19 09:35:42.713630,4,4,1,0,0,0,83,84,135,120,91,133.15,100,141.00,-63.00,-878.00
2024-05-19 09:35:42.848022,4,6,1,0,0,0,83,84,137,130,91,133.07,100,75.00,-2.00,-1000.00
2024-05-19 09:35:42.916453,4,6,1,1,0,0,83,84,138,130,91,133.06,100,86.00,-25.00,-990.00
2024-05-19 09:35:43.020383,5,5,1,1,1,0,83,84,138,130,91,133.05,101,59.00,10.00,-737.00
2024-05-19 09:35:43.120825,6,-1,1,1,1,0,83,84,139,130,91,133.09,101,170.00,-82.00,-875.00
2024-05-19 09:35:43.256847,6,-1,1,0,0,0,83,84,138,130,91,133.03,101,104.00,-27.00,-861.00
2024-05-19 09:35:43.324522,5,0,1,0,0,0,83,84,140,130,91,133.08,101,124.00,-76.00,-949.00
2024-05-19 09:35:43.461641,5,1,1,0,0,0,83,84,139,130,91,133.11,101,97.00,-44.00,-1100.00
2024-05-19 09:35:43.528477,5,2,1,0,0,0,82,85,139,130,91,133.03,101,93.00,-71.00,-911.00
2024-05-19 09:35:43.630724,5,3,1,0,0,0,82,85,139,130,91,133.03,101,80.00,-46.00,-975.00
2024-05-19 09:35:43.768622,5,2,1,0,0,0,82,85,139,130,91,133.10,101,41.00,-1.00,-1000.00
2024-05-19 09:35:43.834437,5,2,1,0,0,0,82,85,141,130,91,132.89,101,21.00,28.00,-939.00
2024-05-19 09:35:43.973619,5,2,1,0,0,0,82,85,141,130,91,133.00,101,97.00,-46.00,-968.00
2024-05-19 09:35:44.038475,5,2,1,0,0,0,82,85,141,130,91,133.06,102,149.00,-90.00,-928.00
2024-05-19 09:35:44.178974,5,2,1,0,0,0,82,85,142,130,91,132.86,102,43.00,9.00,-894.00
2024-05-19 09:35:44.242726,5,3,1,0,0,0,82,85,142,130,91,133.01,102,52.00,-46.00,-949.00
2024-05-19 09:35:44.293476,5,2,1,0,0,0,82,85,141,130,91,132.90,102,36.00,-14.00,-1107.00
2024-05-19 09:35:44.395477,4,3,1,0,0,0,82,85,141,130,91,132.96,102,122.00,-24.00,-933.00
2024-05-19 09:35:44.587978,4,2,1,0,0,0,82,85,140,130,91,132.97,102,12.00,33.00,-1001.00
2024-05-19 09:35:44.599542,4,0,1,0,1,0,82,85,138,130,91,133.01,102,164.00,-51.00,-900.00
2024-05-19 09:35:44.701613,4,0,1,0,1,1,82,85,137,130,91,132.83,102,160.00,-25.00,-1006.00
2024-05-19 09:35:44.902728,5,0,1,0,0,1,82,85,137,130,90,132.81,102,113.00,-5.00,-977.00
2024-05-19 09:35:44.905404,5,0,1,0,0,1,82,85,136,120,90,132.84,102,233.00,-39.00,-882.00
2024-05-19 09:35:45.010789,5,0,1,0,0,0,82,85,135,120,90,132.84,103,76.00,-11.00,-918.00
2024-05-19 09:35:45.109205,5,0,1,0,0,0,82,85,135,120,90,132.88,103,90.00,-7.00,-1039.00
2024-05-19 09:35:45.307515,5,0,1,0,0,0,82,85,136,120,90,132.94,103,-9.00,62.00,-946.00
2024-05-19 09:35:45.313232,8,0,1,0,0,0,82,85,137,120,90,132.86,103,150.00,-25.00,-1012.00
2024-05-19 09:35:45.509525,9,0,1,-1,0,0,82,85,137,120,90,132.98,103,23.00,34.00,-1085.00
2024-05-19 09:35:45.517210,8,0,0,-3,1,0,83,85,137,120,90,133.01,103,77.00,39.00,-1012.00
2024-05-19 09:35:45.714503,8,0,0,-4,1,0,83,85,137,120,90,132.69,103,60.00,-6.00,-1018.00
2024-05-19 09:35:45.721319,8,-1,0,-4,1,0,83,85,137,120,90,132.59,103,100.00,33.00,-973.00
2024-05-19 09:35:45.919101,8,-2,1,-5,1,0,83,85,138,120,90,132.67,103,116.00,-3.00,-935.00
2024-05-19 09:35:45.925361,8,-3,1,-6,0,0,83,85,138,120,90,132.83,104,55.00,27.00,-972.00
2024-05-19 09:35:46.028430,7,-4,1,-7,0,0,83,85,138,120,90,132.67,104,172.00,-43.00,-905.00
2024-05-19 09:35:46.130625,6,-5,1,-7,0,0,83,85,138,120,90,132.73,104,188.00,30.00,-1011.00
2024-05-19 09:35:46.232776,2,-3,1,-6,-1,0,83,85,137,120,90,132.72,104,137.00,-21.00,-1037.00
2024-05-19 09:35:46.335576,0,0,1,-6,-1,0,83,85,136,120,90,132.84,104,160.00,-22.00,-1025.00
2024-05-19 09:35:46.436547,0,2,1,-5,-1,0,83,85,136,120,90,132.80,104,143.00,-5.00,-884.00
2024-05-19 09:35:46.638829,1,2,1,-3,0,0,83,85,137,130,90,132.77,104,119.00,2.00,-954.00
2024-05-19 09:35:46.643307,4,1,1,-2,0,0,83,85,137,130,90,132.72,104,70.00,-4.00,-1061.00
2024-05-19 09:35:46.742405,4,0,1,-2,0,0,83,85,138,130,90,132.84,104,111.00,-15.00,-1001.00
2024-05-19 09:35:46.943067,4,0,1,-3,0,0,83,85,139,130,90,132.77,104,43.00,10.00,-999.00
2024-05-19 09:35:46.946066,3,0,1,-3,0,0,83,85,139,130,90,132.83,105,54.00,12.00,-1017.00
2024-05-19 09:35:47.048640,2,-1,1,-3,0,0,83,85,139,130,90,132.83,105,67.00,38.00,-884.00
2024-05-19 09:35:47.152162,2,-1,1,-2,0,0,83,85,139,130,90,132.79,105,62.00,12.00,-896.00
2024-05-19 09:35:47.252195,3,-1,1,-2,-1,0,83,85,139,130,90,132.86,105,93.00,-30.00,-933.00
2024-05-19 09:35:47.461776,4,3,1,-1,-1,0,83,85,140,130,90,132.77,105,147.00,-32.00,-1098.00
2024-05-19 09:35:47.461859,5,3,1,-2,0,0,83,85,140,130,90,132.88,105,149.00,-22.00,-908.00
2024-05-19 09:35:47.558316,0,2,1,-2,0,0,84,85,140,130,90,132.83,105,99.00,-10.00,-1097.00
2024-05-19 09:35:47.660248,0,0,1,-1,0,0,84,85,140,130,90,132.82,105,164.00,-50.00,-950.00
2024-05-19 09:35:47.763619,1,0,1,0,0,0,84,85,140,130,90,132.86,105,51.00,4.00,-1035.00
2024-05-19 09:35:47.865632,2,0,1,0,0,0,84,85,140,130,90,132.93,105,103.00,-29.00,-921.00
2024-05-19 09:35:47.915295,4,0,1,0,0,0,84,85,141,130,90,132.92,106,52.00,0.00,-928.00
2024-05-19 09:35:48.017503,3,0,1,0,0,0,84,85,140,130,90,132.86,106,160.00,-18.00,-1014.00
2024-05-19 09:35:48.120975,3,0,1,0,0,0,84,85,140,130,90,132.88,106,130.00,-11.00,-979.00
2024-05-19 09:35:48.221372,2,0,1,0,0,0,84,85,139,130,90,132.82,106,67.00,-11.00,-1106.00
2024-05-19 09:35:48.376780,3,0,1,0,0,0,84,85,139,130,90,132.94,106,187.00,-32.00,-913.00
2024-05-19 09:35:48.425264,4,0,1,0,0,0,84,85,139,130,90,132.90,106,111.00,38.00,-1072.00
2024-05-19 09:35:48.581560,4,0,1,0,0,0,83,85,139,130,90,132.86,106,54.00,8.00,-1079.00
2024-05-19 09:35:48.629690,5,0,1,0,0,0,83,85,139,130,90,132.87,106,73.00,15.00,-982.00
2024-05-19 09:35:48.786627,4,0,1,0,0,0,83,85,140,130,90,132.90,106,46.00,8.00,-1045.00
2024-05-19 09:35:48.833141,3,0,1,0,0,0,83,85,140,130,90,133.01,106,66.00,14.00,-1000.00
2024-05-19 09:35:48.991570,2,0,1,0,0,0,83,85,140,130,90,132.94,107,97.00,-6.00,-997.00
2024-05-19 09:35:49.037146,3,0,1,0,0,0,83,85,139,130,90,132.85,107,9.00,16.00,-996.00
2024-05-19 09:35:49.139630,2,0,1,0,0,0,83,85,139,130,90,132.91,107,19.00,21.00,-994.00
2024-05-19 09:35:49.302507,3,0,1,0,0,0,83,85,140,130,90,132.93,107,70.00,10.00,-996.00
2024-05-19 09:35:49.343159,2,0,1,0,0,0,83,85,139,130,90,132.91,107,138.00,-39.00,-1014.00
2024-05-19 09:35:49.507672,3,0,1,0,0,0,83,85,138,130,90,132.90,107,21.00,39.00,-952.00
2024-05-19 09:35:49.547075,3,-1,1,0,0,0,82,85,138,130,90,132.89,107,42.00,16.00,-927.00
2024-05-19 09:35:49.663948,3,-1,1,0,0,0,82,85,137,130,90,132.87,107,79.00,7.00,-1040.00
2024-05-19 09:35:49.751106,3,-1,1,0,0,0,82,85,137,130,90,132.92,107,52.00,39.00,-997.00
2024-05-19 09:35:49.920016,4,-3,1,0,0,0,82,85,137,130,89,132.97,107,45.00,59.00,-973.00
2024-05-19 09:35:49.955960,4,-7,0,0,0,0,82,85,137,130,89,133.06,108,53.00,59.00,-861.00
2024-05-19 09:35:50.121742,4,-8,0,0,-1,0,82,85,138,120,89,133.09,108,20.00,43.00,-1046.00
2024-05-19 09:35:50.159202,4,-5,0,0,-3,1,82,85,134,120,89,132.98,108,23.00,58.00,-955.00
2024-05-19 09:35:50.322193,3,-2,0,-1,-3,1,82,85,134,120,89,132.97,108,14.00,-3.00,-931.00
2024-05-19 09:35:50.363006,0,0,0,-1,-2,1,82,85,133,120,89,132.99,108,-102.00,47.00,-1091.00
2024-05-19 09:35:50.530420,0,-1,1,-2,-1,0,82,85,132,120,89,132.98,108,9.00,0.00,-920.00
2024-05-19 09:35:50.568488,-1,-3,1,-1,0,0,83,86,133,120,89,132.96,108,-39.00,84.00,-1047.00
2024-05-19 09:35:50.733193,-2,-4,1,-1,0,0,83,86,133,120,89,132.83,108,42.00,64.00,-1080.00
2024-05-19 09:35:50.771179,-1,-4,1,0,-1,0,83,86,134,120,89,132.85,108,33.00,67.00,-993.00
2024-05-19 09:35:50.936598,0,-3,1,0,-1,-1,83,86,134,120,89,132.94,108,-41.00,73.00,-1072.00
2024-05-19 09:35:50.975348,0,-2,1,0,-2,0,83,86,136,120,89,133.00,109,-16.00,26.00,-964.00
2024-05-19 09:35:51.079683,-1,-2,2,0,-2,0,83,86,137,130,89,133.04,109,29.00,9.00,-996.00
2024-05-19 09:35:51.179166,-1,-1,2,0,-2,0,83,86,138,130,89,133.01,109,43.00,55.00,-1062.00
2024-05-19 09:35:51.346444,-1,-1,2,0,-2,0,83,86,138,130,89,132.95,109,26.00,-3.00,-1011.00
2024-05-19 09:35:51.383262,-1,0,2,0,-2,0,83,86,138,130,89,132.97,109,82.00,-13.00,-997.00
2024-05-19 09:35:51.436266,0,0,2,0,-2,0,83,86,138,130,89,132.97,109,21.00,16.00,-974.00
2024-05-19 09:35:51.586973,0,0,1,0,-1,0,83,86,138,130,89,132.89,109,29.00,33.00,-1048.00
2024-05-19 09:35:51.762393,0,0,1,1,-1,0,83,86,137,130,89,132.95,109,18.00,3.00,-922.00
2024-05-19 09:35:51.791010,0,0,1,1,-1,0,83,86,136,130,89,133.03,109,-79.00,74.00,-1011.00
2024-05-19 09:35:51.895950,0,0,1,0,-1,0,83,86,135,130,89,132.98,109,11.00,7.00,-1022.00
2024-05-19 09:35:51.994980,0,0,1,0,-1,1,83,86,134,120,89,133.04,110,-77.00,47.00,-1040.00
2024-05-19 09:35:52.165414,0,0,1,0,-1,1,83,86,132,120,89,132.92,110,-8.00,1.00,-1040.00
2024-05-19 09:35:52.165488,-1,0,1,0,-1,0,83,86,131,120,89,133.05,110,-31.00,38.00,-1006.00
2024-05-19 09:35:52.249875,-1,0,1,0,-1,0,83,86,130,120,89,133.03,110,7.00,15.00,-1266.00
2024-05-19 09:35:52.370368,-1,0,1,1,-1,0,83,86,130,120,89,133.05,110,-9.00,-11.00,-964.00
2024-05-19 09:35:52.453964,-2,0,1,0,-1,0,83,86,128,120,89,133.00,110,-62.00,21.00,-962.00
2024-05-19 09:35:52.575043,-2,1,1,0,-1,0,83,85,128,120,89,132.91,110,-19.00,-4.00,-955.00
2024-05-19 09:35:52.658091,-2,2,1,0,0,0,83,85,128,120,89,133.06,110,-25.00,43.00,-1011.00
2024-05-19 09:35:52.779824,-2,0,1,1,0,0,83,85,128,120,89,132.80,110,-70.00,64.00,-1010.00
2024-05-19 09:35:52.861959,-2,0,1,1,0,0,83,85,128,120,89,132.90,110,-33.00,9.00,-1078.00
2024-05-19 09:35:52.985579,-1,0,1,1,0,0,83,85,129,120,89,132.84,111,11.00,-18.00,-945.00
2024-05-19 09:35:53.065993,3,0,1,1,0,0,83,85,131,120,89,133.03,111,8.00,18.00,-974.00
2024-05-19 09:35:53.197969,3,1,1,0,0,0,83,85,132,120,89,133.03,111,47.00,43.00,-1028.00
2024-05-19 09:35:53.269972,1,1,1,0,0,-1,83,85,133,120,89,133.00,111,-15.00,37.00,-1091.00
2024-05-19 09:35:53.398846,0,0,1,0,0,-1,83,85,135,120,89,132.99,111,39.00,-6.00,-941.00
2024-05-19 09:35:53.474000,0,0,1,0,0,-1,83,85,136,120,89,133.15,111,-43.00,69.00,-1000.00
2024-05-19 09:35:53.603727,0,0,1,0,0,0,83,85,136,130,89,133.09,111,-17.00,-17.00,-1037.00
2024-05-19 09:35:53.678009,0,0,1,0,0,0,83,85,136,130,89,133.08,111,-10.00,24.00,-1119.00
2024-05-19 09:35:53.808179,0,0,1,0,0,0,83,85,136,130,88,133.17,111,21.00,20.00,-959.00
2024-05-19 09:35:53.882298,0,0,1,0,0,0,83,85,136,130,88,133.06,111,30.00,-12.00,-1037.00
2024-05-19 09:35:54.013364,0,0,1,0,0,0,83,85,136,130,88,132.94,112,67.00,7.00,-1187.00
2024-05-19 09:35:54.085834,0,0,1,0,0,0,83,85,135,130,88,133.08,112,82.00,-1.00,-1022.00
2024-05-19 09:35:54.213734,0,0,1,0,0,0,83,85,134,130,88,133.12,112,53.00,25.00,-1134.00
2024-05-19 09:35:54.291998,0,-1,1,0,0,0,83,85,134,120,88,133.09,112,-54.00,59.00,-915.00
2024-05-19 09:35:54.392084,0,0,1,0,0,0,83,85,134,120,88,133.02,112,28.00,42.00,-1185.00
2024-05-19 09:35:54.521618,0,0,1,0,0,0,83,85,133,120,88,133.08,112,62.00,2.00,-946.00
2024-05-19 09:35:54.595879,1,0,1,0,0,0,83,86,133,120,88,133.08,112,21.00,4.00,-1073.00
2024-05-19 09:35:54.725647,1,0,1,0,0,0,83,86,133,120,88,132.93,112,4.00,14.00,-1087.00
2024-05-19 09:35:54.799798,1,0,1,0,0,0,83,86,134,120,88,133.04,112,-44.00,57.00,-1065.00
2024-05-19 09:35:54.930568,1,0,1,0,0,0,83,86,134,120,88,133.06,112,43.00,40.00,-943.00
2024-05-19 09:35:55.003790,0,-1,1,0,0,0,83,86,134,120,88,133.03,113,59.00,-4.00,-999.00
2024-05-19 09:35:55.135440,0,-1,1,0,0,0,83,86,134,120,88,132.99,113,53.00,36.00,-936.00
2024-05-19 09:35:55.207768,1,-1,1,0,0,0,83,86,134,120,88,133.07,113,0.00,39.00,-931.00
2024-05-19 09:35:55.310097,2,0,1,0,0,0,83,86,134,120,88,133.15,113,-18.00,41.00,-980.00
2024-05-19 09:35:55.446907,1,-1,1,0,0,0,83,86,134,120,88,133.10,113,-5.00,83.00,-1003.00
2024-05-19 09:35:55.513739,1,4,1,0,1,0,83,86,134,120,88,133.07,113,116.00,-6.00,-899.00
2024-05-19 09:35:55.647984,1,5,1,0,2,0,83,85,133,120,88,133.07,113,41.00,70.00,-1167.00
2024-05-19 09:35:55.718065,1,2,1,0,3,0,83,85,133,120,88,133.12,113,77.00,21.00,-984.00
2024-05-19 09:35:55.768753,2,0,1,0,4,0,83,85,133,120,88,133.01,113,29.00,27.00,-942.00
2024-05-19 09:35:55.958551,2,-2,1,0,4,0,83,85,133,120,88,133.09,113,-5.00,46.00,-1008.00
2024-05-19 09:35:55.973762,2,-3,1,0,4,0,83,85,133,120,88,133.04,114,111.00,-31.00,-855.00
2024-05-19 09:35:56.162339,3,-2,1,0,3,0,83,85,132,120,88,132.97,114,44.00,27.00,-909.00
2024-05-19 09:35:56.177791,4,-2,1,0,3,0,83,85,132,120,88,133.04,114,77.00,-34.00,-944.00
2024-05-19 09:35:56.363767,5,-1,1,0,3,0,83,85,131,120,88,132.94,114,72.00,-2.00,-1040.00
2024-05-19 09:35:56.381692,3,-2,1,0,3,0,83,85,129,120,88,132.96,114,32.00,-2.00,-1056.00
2024-05-19 09:35:56.573759,0,-2,1,-1,3,0,83,85,129,120,88,132.94,114,-10.00,39.00,-1012.00
2024-05-19 09:35:56.585596,0,-1,1,0,2,0,84,85,127,120,88,132.98,114,89.00,-17.00,-915.00
2024-05-19 09:35:56.879952,1,-2,1,0,2,0,84,85,126,120,88,132.92,114,51.00,-51.00,-959.00
2024-05-19 09:35:56.880254,1,-7,1,0,2,0,84,85,125,120,88,132.99,114,126.00,-23.00,-1070.00
2024-05-19 09:35:56.891767,2,-5,1,0,1,0,84,85,124,120,88,132.97,114,62.00,19.00,-1017.00
2024-05-19 09:35:56.993974,2,-2,1,0,0,0,84,85,123,120,88,132.89,115,85.00,7.00,-1121.00
2024-05-19 09:35:57.096060,2,-1,1,0,0,0,84,85,124,120,88,132.91,115,62.00,-7.00,-996.00
2024-05-19 09:35:57.287242,3,-1,1,0,0,0,84,85,124,120,88,132.86,115,66.00,12.00,-1023.00
2024-05-19 09:35:57.299716,3,-1,1,0,0,0,84,85,124,120,88,132.90,115,-3.00,33.00,-1031.00
2024-05-19 09:35:57.477880,3,-2,1,0,0,0,84,85,124,120,88,133.01,115,115.00,-16.00,-892.00
2024-05-19 09:35:57.503707,3,-2,1,0,0,0,84,85,125,120,88,132.92,115,84.00,-27.00,-903.00
2024-05-19 09:35:57.695023,2,-2,1,0,0,0,83,85,125,120,88,132.94,115,43.00,53.00,-1074.00
2024-05-19 09:35:57.708151,2,-2,1,0,0,0,83,85,125,120,88,132.91,115,38.00,29.00,-959.00
2024-05-19 09:35:57.900011,2,-1,1,0,0,0,83,85,124,120,88,132.90,115,-38.00,89.00,-1046.00
2024-05-19 09:35:57.912024,2,-1,1,0,0,0,83,85,124,120,88,132.89,115,1.00,44.00,-1025.00
2024-05-19 09:35:58.013563,1,-2,1,0,0,0,83,85,123,120,88,132.93,116,29.00,64.00,-1054.00
2024-05-19 09:35:58.115649,2,-2,1,0,0,0,83,85,123,120,88,132.96,116,2.00,37.00,-1040.00
2024-05-19 09:35:58.309707,2,-2,1,0,0,0,83,85,122,120,88,132.93,116,33.00,33.00,-934.00
2024-05-19 09:35:58.319675,2,-2,1,0,0,0,83,85,122,120,88,132.99,116,-1.00,78.00,-1061.00
2024-05-19 09:35:58.514478,2,-2,1,0,0,0,83,85,121,120,88,132.99,116,65.00,54.00,-1048.00
2024-05-19 09:35:58.523723,2,-2,1,0,0,0,83,85,122,120,88,133.04,116,89.00,51.00,-1031.00
2024-05-19 09:35:58.625726,2,-3,1,0,0,0,82,85,122,120,88,133.13,116,90.00,18.00,-1010.00
2024-05-19 09:35:58.727688,2,-4,1,0,0,0,82,85,123,120,88,132.99,116,81.00,35.00,-1041.00
2024-05-19 09:35:58.930599,3,-3,2,0,0,0,82,85,124,120,87,133.18,116,80.00,12.00,-1026.00
2024-05-19 09:35:58.931624,2,-3,1,0,0,0,82,85,124,120,87,133.23,116,61.00,-15.00,-1033.00
2024-05-19 09:35:59.033890,4,-1,1,0,-1,0,82,85,125,120,87,133.17,117,84.00,-24.00,-1016.00
2024-05-19 09:35:59.135505,3,0,1,0,-1,0,82,85,125,120,87,133.04,117,131.00,-60.00,-1026.00
2024-05-19 09:35:59.237525,3,1,6,0,-1,0,82,85,125,120,87,132.87,117,108.00,27.00,-1084.00
2024-05-19 09:35:59.290934,3,1,12,0,0,0,82,85,126,120,87,132.99,117,89.00,-45.00,-943.00
2024-05-19 09:35:59.390553,4,0,17,0,0,0,82,85,127,120,87,132.98,117,71.00,-80.00,-998.00
2024-05-19 09:35:59.538783,5,1,23,0,0,0,82,85,127,120,87,132.97,117,58.00,-49.00,-944.00
2024-05-19 09:35:59.594508,4,3,28,0,-1,0,83,85,127,120,87,132.87,117,95.00,-55.00,-948.00
2024-05-19 09:35:59.746367,2,3,34,0,-1,0,83,85,128,120,87,132.93,117,56.00,-33.00,-963.00
2024-05-19 09:35:59.801511,1,2,41,0,0,0,83,85,128,120,87,132.99,117,37.00,10.00,-1031.00
2024-05-19 09:35:59.900544,1,2,47,0,0,0,83,85,128,120,87,132.95,117,96.00,-53.00,-964.00
2024-05-19 09:36:00.054962,1,3,53,0,0,0,83,85,127,120,87,132.94,118,26.00,0.00,-975.00
2024-05-19 09:36:00.104511,1,2,59,0,0,0,83,85,127,120,87,132.99,118,-32.00,-8.00,-898.00
2024-05-19 09:36:00.255357,0,2,64,-1,0,0,83,85,126,120,87,132.96,118,19.00,-40.00,-1008.00
2024-05-19 09:36:00.308467,0,1,70,-1,0,0,83,85,125,120,87,132.93,118,43.00,-74.00,-975.00
2024-05-19 09:36:00.466105,0,1,77,-1,0,0,83,85,125,120,87,132.88,118,18.00,5.00,-892.00
2024-05-19 09:36:00.512434,0,0,83,-1,0,0,83,85,125,120,87,132.90,118,-33.00,15.00,-1090.00
2024-05-19 09:36:00.673786,0,0,96,0,0,0,83,85,125,120,87,132.94,118,-48.00,-26.00,-920.00
2024-05-19 09:36:00.716514,-1,0,102,0,0,0,83,85,125,120,87,132.89,118,0.00,16.00,-1112.00
2024-05-19 09:36:00.873525,-1,0,108,0,0,0,83,85,126,120,87,132.91,118,6.00,-30.00,-997.00
2024-05-19 09:36:00.920473,0,0,114,0,0,0,83,85,127,120,87,132.85,119,38.00,-5.00,-1128.00
2024-05-19 09:36:01.023214,0,0,120,0,0,0,83,85,126,120,87,132.94,119,-51.00,22.00,-961.00
2024-05-19 09:36:01.124566,0,0,126,0,0,0,83,85,127,120,87,132.87,119,34.00,-23.00,-1116.00
2024-05-19 09:36:01.278948,0,0,131,0,0,0,83,85,127,120,87,132.90,119,-19.00,-8.00,-1041.00
2024-05-19 09:36:01.328435,0,0,137,0,0,0,83,85,128,120,87,132.92,119,-113.00,19.00,-1084.00
2024-05-19 09:36:01.492827,0,0,142,0,0,0,83,85,128,120,87,132.87,119,-41.00,42.00,-848.00
2024-05-19 09:36:01.532470,0,0,148,0,0,0,83,85,127,120,87,133.00,119,-60.00,-17.00,-1061.00
2024-05-19 09:36:01.691305,0,0,154,0,0,0,83,85,126,120,87,132.86,119,-11.00,-42.00,-1035.00
2024-05-19 09:36:01.736400,0,1,160,0,0,0,83,85,126,120,87,132.85,119,-40.00,5.00,-1052.00
2024-05-19 09:36:01.893274,0,1,167,0,0,0,83,85,125,120,87,132.75,119,-28.00,-6.00,-920.00
2024-05-19 09:36:01.940398,0,1,173,0,0,0,83,85,125,120,87,132.77,120,12.00,42.00,-1225.00
2024-05-19 09:36:02.042293,0,0,179,0,0,0,83,85,123,120,87,132.85,120,-52.00,40.00,-1154.00
2024-05-19 09:36:02.200472,-1,0,-174,0,0,0,83,85,123,120,87,132.90,120,-4.00,0.00,-992.00
2024-05-19 09:36:02.246367,-1,-1,-168,0,0,0,83,85,122,120,87,132.83,120,-22.00,21.00,-931.00
2024-05-19 09:36:02.405333,0,0,-162,0,0,0,83,85,122,120,87,132.87,120,-27.00,58.00,-1130.00
2024-05-19 09:36:02.450322,0,0,-155,0,0,0,83,85,122,110,87,132.97,120,-48.00,57.00,-964.00
2024-05-19 09:36:02.610320,0,0,-149,0,0,0,83,85,122,110,87,133.06,120,-30.00,68.00,-1055.00
2024-05-19 09:36:02.654594,0,0,-142,0,0,0,83,85,122,120,87,132.98,120,-164.00,119.00,-962.00
2024-05-19 09:36:02.819621,0,-2,-136,0,0,0,83,85,123,120,87,132.94,120,-1.00,55.00,-1096.00
2024-05-19 09:36:02.858499,-1,-2,-130,1,0,0,83,85,124,120,86,132.97,120,-102.00,83.00,-1215.00
2024-05-19 09:36:03.023954,-2,-2,-124,0,0,0,83,85,125,120,86,132.97,121,-71.00,69.00,-1016.00
2024-05-19 09:36:03.062364,-1,-2,-118,0,0,0,83,85,125,120,86,132.97,121,60.00,-8.00,-991.00
2024-05-19 09:36:03.113376,0,-3,-112,0,0,0,83,85,126,120,86,132.98,121,-9.00,49.00,-940.00
2024-05-19 09:36:03.224460,0,-3,-106,0,0,0,83,85,126,120,86,132.97,121,-49.00,59.00,-965.00
2024-05-19 09:36:03.317254,0,-2,-100,0,0,0,83,85,128,120,86,132.99,121,85.00,17.00,-938.00
2024-05-19 09:36:03.429281,0,-2,-94,0,0,0,83,85,129,120,86,133.05,121,-30.00,69.00,-754.00
2024-05-19 09:36:03.521325,0,-1,-88,0,0,0,83,85,129,120,86,133.07,121,-7.00,68.00,-988.00
2024-05-19 09:36:03.634064,0,-1,-82,0,0,0,83,85,131,120,86,133.04,121,-77.00,62.00,-934.00
2024-05-19 09:36:03.725402,0,-1,-76,0,0,0,83,85,132,120,86,132.98,121,29.00,-5.00,-1025.00
2024-05-19 09:36:03.838845,0,-2,-70,0,0,0,83,85,134,120,86,132.92,121,-43.00,51.00,-947.00
2024-05-19 09:36:03.929319,0,-2,-64,0,0,0,83,85,134,120,86,133.04,122,96.00,8.00,-992.00
2024-05-19 09:36:04.031270,1,-1,-58,0,0,0,83,85,135,120,86,132.99,122,4.00,28.00,-1005.00
2024-05-19 09:36:04.146084,1,-1,-52,0,0,0,83,85,135,120,86,133.09,122,-56.00,49.00,-1044.00
2024-05-19 09:36:04.236870,1,0,-46,0,0,0,83,85,135,120,86,132.99,122,-2.00,24.00,-1009.00
2024-05-19 09:36:04.337499,1,0,-40,0,0,0,83,85,135,120,86,133.07,122,19.00,21.00,-1026.00
2024-05-19 09:36:04.453256,1,-1,-33,0,0,0,83,85,135,120,86,133.04,122,59.00,0.00,-1141.00
2024-05-19 09:36:04.544184,2,0,-27,0,0,0,83,85,137,120,86,133.11,122,102.00,-31.00,-852.00
2024-05-19 09:36:04.643974,3,0,-21,0,0,0,83,86,136,120,86,133.08,122,25.00,-15.00,-993.00
2024-05-19 09:36:04.760460,3,0,-16,0,0,0,83,86,137,130,86,132.95,122,97.00,-20.00,-963.00
2024-05-19 09:36:04.847233,2,1,-12,0,0,0,83,86,138,130,86,132.99,122,3.00,24.00,-1044.00
2024-05-19 09:36:04.965243,2,1,-9,0,0,0,83,86,138,130,86,133.02,123,22.00,-42.00,-854.00
2024-05-19 09:36:05.051165,2,1,-6,0,0,0,83,86,137,130,86,133.03,123,88.00,-7.00,-1029.00
2024-05-19 09:36:05.154210,2,1,-4,0,0,0,83,86,137,130,86,132.95,123,-2.00,-5.00,-860.00
2024-05-19 09:36:05.272463,2,1,-3,0,0,0,83,86,138,130,86,133.04,123,-1.00,-22.00,-1009.00
2024-05-19 09:36:05.357257,2,2,-1,0,0,0,83,86,137,130,86,133.04,123,22.00,-72.00,-1015.00
2024-05-19 09:36:05.477522,2,2,0,0,0,0,83,86,137,130,86,133.01,123,6.00,-46.00,-1142.00
2024-05-19 09:36:05.561270,2,2,0,0,0,0,83,86,137,130,86,133.00,123,130.00,-50.00,-1024.00
2024-05-19 09:36:05.682031,3,2,0,0,0,0,83,85,137,130,86,133.08,123,81.00,-63.00,-1094.00
2024-05-19 09:36:05.765284,3,3,0,0,0,0,83,85,136,130,86,132.97,123,9.00,-37.00,-1049.00
2024-05-19 09:36:05.887250,4,3,0,0,0,0,83,85,138,130,86,133.07,123,154.00,-35.00,-935.00
2024-05-19 09:36:05.969367,4,2,0,0,0,0,83,85,137,130,86,132.95,124,-17.00,29.00,-1089.00
2024-05-19 09:36:06.071162,4,1,0,0,0,0,83,85,137,130,86,132.91,124,12.00,-12.00,-891.00
2024-05-19 09:36:06.194602,4,1,0,0,0,0,83,85,137,130,86,132.94,124,11.00,4.00,-1000.00
2024-05-19 09:36:06.275401,3,1,0,0,0,0,83,85,136,130,86,133.01,124,94.00,5.00,-796.00
2024-05-19 09:36:06.408303,3,1,0,0,0,0,83,85,135,130,86,132.94,124,78.00,-29.00,-909.00
2024-05-19 09:36:06.479220,3,0,0,0,0,0,83,85,134,130,86,132.94,124,0.00,10.00,-927.00
2024-05-19 09:36:06.613406,3,0,0,0,0,0,83,85,133,130,86,132.94,124,146.00,-37.00,-1088.00
2024-05-19 09:36:06.683249,3,0,0,0,0,0,83,86,132,120,86,132.93,124,-1.00,-4.00,-1075.00
2024-05-19 09:36:06.809328,3,0,0,0,0,0,83,86,131,120,86,132.87,124,80.00,-18.00,-961.00
2024-05-19 09:36:06.887558,3,0,0,0,0,0,83,86,130,120,86,132.79,124,103.00,-31.00,-975.00
2024-05-19 09:36:07.022853,3,0,0,0,0,0,83,86,130,120,86,132.93,125,64.00,-2.00,-990.00
2024-05-19 09:36:07.091336,3,0,0,0,0,0,83,86,129,120,86,132.83,125,19.00,40.00,-1023.00
2024-05-19 09:36:07.230787,3,-1,0,0,0,0,83,86,129,120,86,132.87,125,143.00,-25.00,-931.00
2024-05-19 09:36:07.247714,4,-1,0,0,0,0,83,86,129,120,86,132.87,125,65.00,24.00,-847.00
2024-05-19 09:36:07.348231,4,-1,0,0,0,0,83,86,129,120,86,132.84,125,103.00,6.00,-1097.00
2024-05-19 09:36:07.448224,5,-1,0,0,0,0,83,86,129,120,86,132.93,125,185.00,-39.00,-1074.00
2024-05-19 09:36:07.550549,5,-1,0,0,0,0,83,86,130,120,86,132.95,125,132.00,-31.00,-1010.00
2024-05-19 09:36:07.730019,6,0,-1,0,0,0,83,85,131,120,86,132.90,125,75.00,8.00,-989.00
2024-05-19 09:36:07.754304,6,0,-7,0,0,0,83,85,132,120,85,132.97,125,80.00,-4.00,-955.00
2024-05-19 09:36:07.934827,6,0,-13,0,0,0,83,85,134,120,85,132.90,125,67.00,59.00,-1005.00
2024-05-19 09:36:07.958351,4,0,-18,0,0,0,83,85,134,120,85,132.89,126,93.00,8.00,-984.00
2024-05-19 09:36:08.060164,4,-1,-24,0,0,0,83,85,135,120,85,132.89,126,0.00,83.00,-904.00
2024-05-19 09:36:08.242057,3,-1,-30,0,0,0,83,85,136,120,85,132.95,126,-14.00,60.00,-930.00
2024-05-19 09:36:08.264035,3,-2,-36,0,0,0,83,85,137,130,85,132.96,126,32.00,58.00,-1011.00
2024-05-19 09:36:08.446816,2,-2,-42,0,0,0,83,85,136,130,85,132.95,126,79.00,30.00,-837.00
2024-05-19 09:36:08.470716,3,-3,-48,0,0,0,83,85,137,130,85,132.97,126,45.00,33.00,-917.00
2024-05-19 09:36:08.570022,3,-3,-54,0,0,0,83,85,137,130,85,133.04,126,-15.00,81.00,-1014.00
2024-05-19 09:36:08.754017,2,-3,-59,0,0,0,84,86,137,130,85,132.95,126,29.00,54.00,-1020.00
2024-05-19 09:36:08.774144,1,-4,-65,0,0,0,84,86,136,130,85,133.01,126,27.00,76.00,-1036.00
2024-05-19 09:36:08.959212,0,-4,-71,0,0,0,84,86,137,130,85,133.00,126,31.00,91.00,-1134.00
2024-05-19 09:36:08.978167,0,-3,-77,0,0,0,84,86,136,130,85,133.03,127,76.00,30.00,-896.00
2024-05-19 09:36:09.079861,0,-3,-84,0,0,0,84,86,135,120,85,133.08,127,51.00,67.00,-1072.00
2024-05-19 09:36:09.266042,0,-3,-90,0,0,0,84,86,135,120,85,132.91,127,-34.00,83.00,-900.00
2024-05-19 09:36:09.283816,0,-3,-96,0,0,0,84,86,134,120,85,132.87,127,53.00,4.00,-963.00
2024-05-19 09:36:09.470798,-1,-3,-102,0,0,0,84,86,135,120,85,132.95,127,-27.00,60.00,-986.00
2024-05-19 09:36:09.487967,-1,-3,-108,0,0,0,84,86,134,120,85,132.86,127,-29.00,69.00,-995.00
2024-05-19 09:36:09.679945,-1,-3,-114,0,0,0,84,86,134,120,85,132.90,127,46.00,7.00,-814.00
2024-05-19 09:36:09.693372,-1,-2,-120,0,0,0,83,85,133,120,85,132.80,127,-34.00,54.00,-1068.00
2024-05-19 09:36:09.880543,-1,-2,-126,0,0,0,83,85,133,120,85,132.83,127,-58.00,33.00,-840.00
2024-05-19 09:36:09.896046,-2,-1,-132,0,0,0,83,85,133,120,85,132.92,127,-61.00,65.00,-907.00
2024-05-19 09:36:10.085160,-2,0,-138,0,0,0,83,85,133,120,85,132.78,128,-105.00,46.00,-903.00
2024-05-19 09:36:10.100960,-2,0,-144,0,0,0,83,85,133,120,85,132.75,128,-139.00,60.00,-1143.00
2024-05-19 09:36:10.289973,-3,0,-151,0,0,0,83,85,133,120,85,132.71,128,-29.00,-15.00,-1043.00
2024-05-19 09:36:10.305027,-2,0,-157,0,0,0,83,85,132,120,85,132.76,128,-48.00,8.00,-1007.00
2024-05-19 09:36:10.494788,-2,0,-163,0,0,0,83,85,132,120,85,132.70,128,-27.00,-26.00,-1066.00
2024-05-19 09:36:10.508867,-2,1,-169,0,0,0,83,85,133,120,85,132.75,128,-89.00,6.00,-990.00
2024-05-19 09:36:10.705321,-2,1,-176,0,0,0,83,85,132,120,85,132.84,128,-51.00,-32.00,-1142.00
2024-05-19 09:36:10.712859,-2,2,177,0,0,0,83,85,133,120,85,132.86,128,-15.00,-46.00,-1199.00
2024-05-19 09:36:10.814914,-1,2,171,0,0,0,83,85,132,120,85,132.89,128,-54.00,-32.00,-964.00
2024-05-19 09:36:11.109292,-2,2,165,0,0,0,83,85,132,120,85,132.95,128,-12.00,-47.00,-1045.00
2024-05-19 09:36:11.109366,-1,2,159,0,0,0,83,85,132,120,85,132.95,129,-52.00,-24.00,-1037.00
2024-05-19 09:36:11.120807,-1,3,153,0,0,0,83,85,132,120,85,132.94,129,-50.00,-32.00,-1095.00
2024-05-19 09:36:11.171848,0,3,148,0,0,0,83,85,131,120,85,132.92,129,29.00,-81.00,-1032.00
2024-05-19 09:36:11.314192,0,3,142,0,0,0,83,85,130,120,85,132.99,129,-15.00,-35.00,-1095.00
2024-05-19 09:36:11.375845,1,3,136,0,0,0,83,85,131,120,85,133.02,129,0.00,-87.00,-930.00
2024-05-19 09:36:11.518816,1,3,130,0,0,0,83,85,130,120,85,132.99,129,-9.00,-97.00,-1077.00
2024-05-19 09:36:11.579844,1,3,124,0,0,0,83,85,129,120,85,132.95,129,-6.00,-67.00,-1251.00
2024-05-19 09:36:11.723970,1,3,118,0,0,0,84,85,129,120,85,132.99,129,15.00,-71.00,-1067.00
2024-05-19 09:36:11.783853,1,3,113,0,0,0,84,85,130,120,85,132.93,129,-23.00,-37.00,-1176.00
2024-05-19 09:36:11.940520,1,2,107,0,0,0,84,85,129,120,85,132.94,129,28.00,-40.00,-991.00
2024-05-19 09:36:11.987863,1,2,101,0,0,0,84,85,130,120,85,132.92,130,56.00,-53.00,-920.00
2024-05-19 09:36:12.089859,1,2,95,0,0,0,84,85,130,120,85,133.02,130,-7.00,-10.00,-1219.00
2024-05-19 09:36:12.235685,1,2,89,0,0,0,84,85,130,120,85,132.95,130,36.00,-2.00,-978.00
2024-05-19 09:36:12.293964,1,1,83,0,0,0,84,85,130,120,85,132.87,130,20.00,-32.00,-1016.00
2024-05-19 09:36:12.440355,2,1,77,0,0,0,84,85,130,120,85,132.85,130,91.00,-43.00,-1212.00
2024-05-19 09:36:12.498078,3,1,71,0,0,0,84,85,129,120,85,132.91,130,100.00,-10.00,-1007.00
2024-05-19 09:36:12.645175,3,0,65,0,0,0,84,85,130,120,85,132.90,130,55.00,-3.00,-912.00
2024-05-19 09:36:12.701820,4,0,59,0,0,0,83,85,130,120,85,132.90,130,98.00,-38.00,-992.00
2024-05-19 09:36:12.850074,4,0,53,0,0,0,83,85,131,120,84,132.90,130,104.00,10.00,-1095.00
2024-05-19 09:36:12.905805,4,-1,47,0,0,0,83,85,131,120,84,132.89,130,13.00,45.00,-1002.00
2024-05-19 09:36:13.062425,3,-1,42,0,0,0,83,85,130,120,84,132.83,131,109.00,-15.00,-1039.00
2024-05-19 09:36:13.109864,2,-2,36,0,0,0,83,85,131,120,84,132.87,131,18.00,8.00,-1039.00
2024-05-19 09:36:13.260744,2,-1,30,0,0,0,83,85,130,120,84,132.90,131,6.00,61.00,-982.00
2024-05-19 09:36:13.314040,1,-1,25,0,0,0,83,85,129,120,84,132.87,131,40.00,31.00,-951.00
2024-05-19 09:36:13.473540,1,-1,19,0,0,0,83,85,128,120,84,132.90,131,14.00,32.00,-987.00
2024-05-19 09:36:13.517850,2,-1,14,0,0,0,83,85,128,120,84,132.86,131,5.00,57.00,-1106.00
2024-05-19 09:36:13.678424,2,-1,10,0,0,0,83,85,127,120,84,132.85,131,30.00,14.00,-977.00
2024-05-19 09:36:13.723019,1,-2,8,0,0,0,83,85,126,120,84,132.85,131,7.00,27.00,-1080.00
2024-05-19 09:36:13.873861,1,-2,5,0,0,0,83,85,125,120,84,132.88,131,5.00,64.00,-1134.00
2024-05-19 09:36:13.925735,0,-2,4,0,0,0,83,85,124,120,84,132.92,131,-97.00,104.00,-1120.00
2024-05-19 09:36:14.080772,0,-2,3,0,0,0,83,85,124,120,84,132.89,132,-9.00,40.00,-1033.00
2024-05-19 09:36:14.129812,0,-2,2,0,0,0,83,85,123,120,84,132.93,132,6.00,-19.00,-996.00
2024-05-19 09:36:14.283800,0,-1,1,0,-1,0,83,85,122,120,84,132.94,132,24.00,32.00,-1152.00
2024-05-19 09:36:14.333747,0,0,0,0,0,0,83,85,121,120,84,132.77,132,13.00,29.00,-1170.00
2024-05-19 09:36:14.488661,0,0,0,0,0,0,83,85,120,120,84,132.89,132,68.00,12.00,-1174.00
2024-05-19 09:36:14.537785,0,0,0,0,0,0,83,85,119,120,84,132.84,132,-80.00,46.00,-1038.00
2024-05-19 09:36:14.588767,0,-1,0,0,0,0,83,85,119,120,84,132.81,132,8.00,56.00,-1139.00
2024-05-19 09:36:14.742124,0,-1,0,0,0,0,83,86,118,120,84,132.83,132,28.00,8.00,-979.00
2024-05-19 09:36:14.792694,0,-1,0,0,0,0,83,86,116,120,84,132.80,132,-50.00,60.00,-1146.00
2024-05-19 09:36:14.901623,0,-1,0,0,0,0,83,86,116,120,84,132.86,132,-6.00,42.00,-898.00
2024-05-19 09:36:14.996828,0,0,0,0,0,0,83,86,116,120,84,132.88,133,-36.00,35.00,-986.00
2024-05-19 09:36:15.099017,0,-1,0,0,0,0,83,86,115,110,84,132.86,133,-9.00,17.00,-1033.00
2024-05-19 09:36:15.211869,1,0,0,0,0,0,83,86,115,110,84,132.89,133,49.00,20.00,-937.00
2024-05-19 09:36:15.303677,1,0,0,0,0,0,83,86,115,110,84,132.81,133,4.00,32.00,-1041.00
2024-05-19 09:36:15.411700,1,0,0,0,0,0,83,86,117,110,84,132.89,133,9.00,1.00,-1005.00
2024-05-19 09:36:15.506800,1,0,0,0,0,0,83,86,118,110,84,132.89,133,71.00,-7.00,-888.00
2024-05-19 09:36:15.614823,1,0,0,0,0,0,83,86,120,120,84,132.95,133,33.00,39.00,-1202.00
2024-05-19 09:36:15.710928,1,-1,0,0,0,0,83,85,121,120,84,133.04,133,33.00,54.00,-1013.00
2024-05-19 09:36:15.819705,1,-2,0,0,0,0,83,85,123,120,84,132.94,133,-35.00,44.00,-928.00
2024-05-19 09:36:15.914707,1,-1,0,0,0,-1,83,85,124,120,84,132.92,134,-61.00,83.00,-991.00
2024-05-19 09:36:16.024617,0,-1,0,0,0,-1,83,85,125,120,84,132.96,134,27.00,-8.00,-953.00
2024-05-19 09:36:16.118808,0,-1,0,0,0,0,83,85,127,120,84,132.99,134,-43.00,48.00,-955.00
2024-05-19 09:36:16.220943,0,0,0,0,0,0,83,85,127,120,84,132.99,134,-52.00,94.00,-1017.00
2024-05-19 09:36:16.331488,0,-1,0,0,0,-5,83,85,129,130,84,133.16,134,65.00,43.00,-1701.00
2024-05-19 09:36:16.424618,0,-21,0,0,0,-11,83,85,139,130,84,133.24,134,63.00,146.00,-1521.00
2024-05-19 09:36:16.536173,0,-128,0,0,-6,-9,83,85,320,150,84,133.21,134,-2.00,527.00,-998.00
2024-05-19 09:36:16.628618,0,104,0,0,-8,6,83,85,485,150,84,133.21,134,5.00,637.00,-1088.00
2024-05-19 09:36:16.743974,1,5,0,0,-1,11,84,86,187,140,84,133.51,134,-8.00,355.00,-1406.00
2024-05-19 09:36:16.832578,0,-2,1,0,-2,9,84,86,133,130,84,132.95,134,-32.00,-46.00,-1467.00
2024-05-19 09:36:16.950849,0,2,0,0,-2,5,84,86,123,120,84,133.02,135,-22.00,95.00,-1452.00
2024-05-19 09:36:17.036621,0,2,0,0,-1,2,84,86,118,120,84,132.91,135,38.00,-49.00,-1346.00
2024-05-19 09:36:17.138747,0,1,0,0,0,0,84,86,116,110,84,132.90,135,6.00,12.00,-1235.00
2024-05-19 09:36:17.257616,0,0,0,0,0,0,84,86,115,110,84,132.97,135,-76.00,20.00,-1261.00
2024-05-19 09:36:17.343277,0,0,0,0,0,-1,84,86,116,110,84,132.79,135,49.00,-11.00,-887.00
2024-05-19 09:36:17.462408,0,0,0,0,0,-1,84,86,116,120,84,132.96,135,62.00,-8.00,-1068.00
2024-05-19 09:36:17.547915,0,0,0,0,0,-1,84,86,117,120,84,133.00,135,-10.00,32.00,-986.00
2024-05-19 09:36:17.648728,0,0,0,0,0,-1,84,86,118,120,84,132.96,135,-32.00,25.00,-855.00
2024-05-19 09:36:17.751136,0,0,0,0,0,-1,83,86,119,120,84,132.98,135,-11.00,52.00,-951.00
2024-05-19 09:36:17.852551,0,0,0,0,0,0,83,86,120,120,84,132.95,135,2.00,16.00,-1012.00
2024-05-19 09:36:17.974430,1,0,0,0,0,0,83,86,119,120,84,132.94,136,-61.00,74.00,-831.00
2024-05-19 09:36:18.056801,0,0,0,0,0,0,83,86,119,120,84,132.92,136,54.00,20.00,-994.00
2024-05-19 09:36:18.179388,1,-1,0,0,0,0,83,86,118,120,84,132.97,136,61.00,35.00,-1142.00
2024-05-19 09:36:18.260552,0,-1,0,0,0,0,83,86,118,120,84,132.95,136,41.00,3.00,-962.00
2024-05-19 09:36:18.311556,0,-2,0,0,0,0,83,86,118,120,84,132.95,136,-56.00,129.00,-1015.00
2024-05-19 09:36:18.491223,0,-2,0,0,0,0,83,86,118,120,84,132.92,136,12.00,23.00,-1121.00
2024-05-19 09:36:18.515447,0,-2,0,0,0,0,83,86,119,110,84,132.91,136,25.00,-24.00,-936.00
2024-05-19 09:36:18.697475,0,-1,0,0,0,0,83,86,120,110,84,132.97,136,-22.00,52.00,-1161.00
2024-05-19 09:36:18.770475,1,-1,0,0,0,0,83,86,121,120,84,132.98,136,53.00,-12.00,-1017.00
2024-05-19 09:36:18.894438,1,-1,0,0,0,0,83,86,122,120,83,132.95,136,0.00,26.00,-1114.00
2024-05-19 09:36:18.923468,1,0,0,0,0,0,83,86,123,120,83,133.01,137,46.00,-20.00,-866.00
2024-05-19 09:36:19.096506,1,0,0,0,0,0,83,86,123,120,83,132.91,137,-30.00,55.00,-1022.00
2024-05-19 09:36:19.127509,1,0,0,0,0,0,83,86,126,120,83,132.93,137,64.00,8.00,-1114.00
2024-05-19 09:36:19.301094,0,0,0,0,0,0,83,86,126,120,83,132.92,137,60.00,-1.00,-983.00
2024-05-19 09:36:19.332714,0,-1,0,0,0,0,83,86,127,120,83,133.02,137,27.00,2.00,-852.00
2024-05-19 09:36:19.506776,0,-1,0,0,0,0,83,86,127,120,83,133.05,137,-60.00,40.00,-844.00
2024-05-19 09:36:19.535832,0,0,0,0,0,0,83,86,127,120,83,133.03,137,-5.00,-8.00,-976.00
2024-05-19 09:36:19.715221,1,0,0,0,0,0,83,86,126,120,83,133.00,137,7.00,-6.00,-970.00
2024-05-19 09:36:19.739928,0,0,0,0,0,0,84,85,125,120,83,133.02,137,-21.00,0.00,-894.00
2024-05-19 09:36:19.924616,1,0,0,0,0,0,84,85,124,120,83,133.00,137,-22.00,18.00,-1028.00
2024-05-19 09:36:19.945728,1,0,0,0,0,0,84,85,122,120,83,133.01,138,-59.00,30.00,-1023.00
2024-05-19 09:36:20.045865,0,0,0,0,0,1,84,85,120,120,83,132.93,138,-13.00,-4.00,-1088.00
2024-05-19 09:36:20.227740,0,0,0,0,0,1,84,85,120,120,83,132.97,138,49.00,-14.00,-1174.00
2024-05-19 09:36:20.249433,0,0,0,0,0,0,84,85,119,120,83,133.02,138,-3.00,50.00,-1023.00
2024-05-19 09:36:20.351503,1,0,0,0,0,0,84,85,118,110,83,132.99,138,23.00,-41.00,-1012.00
2024-05-19 09:36:20.538013,1,0,0,0,0,0,84,85,118,110,83,132.94,138,3.00,10.00,-742.00
2024-05-19 09:36:20.555334,1,1,0,0,0,0,84,85,117,110,83,132.92,138,-19.00,14.00,-1101.00
2024-05-19 09:36:20.744098,1,1,0,0,0,0,84,85,117,110,83,132.88,138,24.00,5.00,-1133.00
2024-05-19 09:36:20.759342,1,0,0,0,0,0,84,86,117,110,83,132.89,138,-3.00,6.00,-1215.00
2024-05-19 09:36:20.944070,1,0,0,0,0,0,84,86,118,110,83,132.94,138,14.00,5.00,-1007.00
2024-05-19 09:36:20.963413,1,0,0,0,0,0,84,86,118,110,83,133.02,139,84.00,-7.00,-1239.00
2024-05-19 09:36:21.149594,1,0,0,0,0,0,84,86,118,110,83,132.94,139,35.00,0.00,-1014.00
2024-05-19 09:36:21.168306,1,0,0,0,0,0,84,86,118,110,83,132.98,139,9.00,-4.00,-1021.00
2024-05-19 09:36:21.355712,1,0,0,0,0,0,84,86,119,110,83,132.94,139,47.00,-35.00,-895.00
2024-05-19 09:36:21.372370,1,0,0,0,0,0,84,86,120,110,83,132.95,139,11.00,-32.00,-940.00
2024-05-19 09:36:21.554288,0,0,0,0,0,0,84,86,120,110,83,132.92,139,-18.00,33.00,-1084.00
2024-05-19 09:36:21.576385,0,0,0,0,0,0,84,86,122,110,83,132.91,139,-56.00,31.00,-1012.00
2024-05-19 09:36:21.729151,0,0,0,0,0,0,84,86,122,110,83,132.98,139,-23.00,27.00,-1128.00
2024-05-19 09:36:21.780375,0,0,0,0,0,0,84,86,123,120,82,132.98,139,73.00,-16.00,-841.00
2024-05-19 09:36:21.964058,0,0,0,0,0,0,84,86,124,120,82,132.98,139,27.00,19.00,-1092.00
2024-05-19 09:36:21.984312,0,0,0,0,0,0,84,86,125,120,82,133.00,140,32.00,-12.00,-1003.00
2024-05-19 09:36:22.086316,1,0,0,0,0,0,84,86,126,120,82,133.02,140,75.00,0.00,-1089.00
2024-05-19 09:36:22.275718,0,0,0,0,0,0,84,86,126,120,82,133.09,140,43.00,-19.00,-1082.00
2024-05-19 09:36:22.290236,0,0,0,0,0,0,84,86,126,120,82,133.06,140,89.00,-15.00,-1108.00
2024-05-19 09:36:22.487432,1,0,0,0,0,0,84,86,127,120,82,133.06,140,82.00,-20.00,-958.00
2024-05-19 09:36:22.494354,0,0,0,0,0,0,84,86,127,120,82,133.00,140,-5.00,-26.00,-997.00
2024-05-19 09:36:22.682953,0,0,0,0,0,0,84,86,127,120,82,133.03,140,20.00,28.00,-1018.00
2024-05-19 09:36:22.687935,0,0,0,0,0,0,84,86,126,120,82,133.07,140,-35.00,58.00,-1032.00
2024-05-19 09:36:22.800297,0,-1,0,0,0,0,84,86,125,120,82,132.98,140,38.00,-37.00,-914.00
2024-05-19 09:36:22.854975,0,0,0,0,0,0,84,86,124,120,82,133.10,140,6.00,18.00,-1100.00
2024-05-19 09:36:22.953341,0,1,0,0,0,-3,84,86,125,120,82,133.26,141,19.00,85.00,-1708.00
2024-05-19 09:36:23.055444,0,7,1,0,0,-10,84,86,133,130,82,133.25,141,105.00,-76.00,-1739.00
2024-05-19 09:36:23.192201,-2,85,0,1,6,-12,84,86,417,140,82,133.42,141,-25.00,592.00,-1403.00
2024-05-19 09:36:23.260275,3,-147,-3,1,11,1,84,86,564,150,82,133.23,141,119.00,821.00,-893.00
2024-05-19 09:36:23.362478,3,-30,5,1,6,11,84,86,151,140,82,133.36,141,146.00,630.00,-1133.00
2024-05-19 09:36:23.499886,0,8,5,1,5,10,84,86,122,130,82,132.98,141,-65.00,66.00,-1201.00
2024-05-19 09:36:23.566338,0,-1,4,1,6,6,84,86,111,120,82,132.92,141,163.00,-90.00,-1382.00
2024-05-19 09:36:23.704610,0,-6,1,1,5,2,84,86,106,120,82,132.85,141,18.00,-23.00,-1327.00
2024-05-19 09:36:23.770362,0,-5,0,1,4,0,84,85,102,110,82,132.80,141,41.00,-28.00,-1162.00
2024-05-19 09:36:23.909462,0,-3,0,1,3,-1,84,85,101,110,82,132.89,141,12.00,-5.00,-1083.00
2024-05-19 09:36:23.974229,1,-2,0,1,2,-1,84,85,101,110,82,132.83,142,-14.00,69.00,-1000.00
2024-05-19 09:36:24.113978,0,-2,0,0,1,-1,84,85,103,110,82,132.86,142,-14.00,29.00,-1010.00
2024-05-19 09:36:24.178197,0,-1,0,0,1,-2,84,85,103,110,82,132.89,142,-11.00,8.00,-952.00
2024-05-19 09:36:24.318649,0,0,0,0,1,-1,84,85,104,110,82,132.84,142,85.00,-27.00,-1037.00
2024-05-19 09:36:24.382578,0,0,0,0,1,-1,84,85,105,110,82,132.83,142,27.00,19.00,-1060.00
2024-05-19 09:36:24.523853,0,0,0,0,1,-1,84,85,106,110,82,132.84,142,50.00,13.00,-1035.00
2024-05-19 09:36:24.586143,0,-1,0,0,1,-1,84,85,106,110,82,132.85,142,-16.00,45.00,-936.00
2024-05-19 09:36:24.731247,1,-3,0,0,0,-1,84,85,107,120,82,132.88,142,-16.00,33.00,-1062.00
2024-05-19 09:36:24.789942,1,-2,0,0,0,-1,84,86,108,120,82,132.80,142,11.00,5.00,-924.00
2024-05-19 09:36:24.936095,1,-1,0,0,0,-1,84,86,107,120,82,132.80,142,-10.00,21.00,-916.00
2024-05-19 09:36:24.994267,0,-1,0,0,0,0,84,86,107,120,82,132.84,143,5.00,25.00,-882.00
2024-05-19 09:36:25.096388,0,0,0,0,0,0,84,86,107,110,82,132.81,143,23.00,-24.00,-983.00
2024-05-19 09:36:25.243529,0,0,0,0,0,0,84,86,108,110,82,132.89,143,-72.00,60.00,-916.00
2024-05-19 09:36:25.299974,0,0,0,0,0,0,84,86,108,110,82,132.90,143,-36.00,31.00,-924.00
2024-05-19 09:36:25.448047,0,0,0,0,0,0,84,86,109,110,82,132.94,143,-19.00,6.00,-987.00
2024-05-19 09:36:25.504128,0,0,0,0,0,0,84,86,109,110,82,132.91,143,-16.00,50.00,-1189.00
