TS,pitch,roll,yaw,vgx,vgy,vgz,templ,temph,tof,h,bat,baro,time,agx,agy,agz
2024-05-19 09:37:06.404702,0,0,-1,0,0,0,85,88,10,0,78,131.71,164,-3.00,-8.00,-1001.00
2024-05-19 09:37:06.459972,0,0,-1,0,0,0,85,88,10,0,78,131.64,164,-4.00,-9.00,-999.00
2024-05-19 09:37:06.510951,0,0,-1,0,0,0,85,88,10,0,78,131.68,164,-3.00,-8.00,-998.00
2024-05-19 09:37:06.711849,0,0,-1,0,0,0,85,88,10,0,78,131.70,164,-2.00,-10.00,-998.00
2024-05-19 09:37:06.715054,0,0,-1,0,0,0,85,88,10,0,78,131.67,164,-2.00,-8.00,-998.00
2024-05-19 09:37:06.816792,0,0,-1,0,0,0,85,88,10,0,78,131.67,164,-3.00,-8.00,-1000.00
2024-05-19 09:37:06.918773,0,0,-1,0,0,0,85,88,10,0,78,131.72,164,-3.00,-9.00,-999.00
2024-05-19 09:37:07.020976,0,0,-1,0,0,0,86,88,10,0,78,131.72,164,-3.00,-8.00,-998.00
2024-05-19 09:37:07.122921,0,0,-1,0,0,0,86,88,10,0,78,131.66,164,-4.00,-8.00,-1000.00
2024-05-19 09:37:07.224996,0,0,-1,0,0,0,86,88,10,0,78,131.70,164,-2.00,-8.00,-997.00
2024-05-19 09:37:07.428932,0,0,-1,0,0,0,86,88,10,0,78,131.62,164,-4.00,-9.00,-1000.00
2024-05-19 09:37:07.429087,0,0,-1,0,0,0,86,88,10,0,78,131.65,164,-2.00,-8.00,-998.00
2024-05-19 09:37:07.530953,0,0,-1,0,0,0,86,88,10,0,78,131.71,164,-1.00,-8.00,-1001.00
2024-05-19 09:37:07.632901,0,0,-1,0,0,0,86,88,10,0,78,131.66,164,-2.00,-9.00,-998.00
2024-05-19 09:37:07.735822,0,0,-1,0,0,0,86,88,10,0,78,131.72,164,-4.00,-9.00,-1000.00
2024-05-19 09:37:07.838126,0,0,-1,0,0,0,86,88,10,0,78,131.72,164,-5.00,-10.00,-999.00
2024-05-19 09:37:07.940567,0,0,-1,0,0,0,86,88,10,0,78,131.69,164,-4.00,-8.00,-998.00
2024-05-19 09:37:08.040730,0,0,-1,0,0,0,86,89,10,0,78,131.71,164,-4.00,-8.00,-1000.00
2024-05-19 09:37:08.142923,0,0,-1,0,0,0,86,89,10,0,78,131.68,164,-4.00,-8.00,-1000.00
2024-05-19 09:37:08.244750,0,0,-1,0,0,0,86,89,10,0,78,131.62,164,-3.00,-8.00,-998.00
2024-05-19 09:37:08.350192,0,0,-1,0,0,0,86,89,10,0,78,131.72,164,-4.00,-8.00,-998.00
2024-05-19 09:37:08.448875,0,0,-1,0,0,0,86,89,10,0,78,131.66,164,-2.00,-7.00,-998.00
2024-05-19 09:37:08.555076,0,0,-1,0,0,0,86,89,10,0,78,131.71,164,-2.00,-9.00,-997.00
2024-05-19 09:37:08.652918,0,0,-1,0,0,0,86,89,10,0,78,131.67,164,-4.00,-8.00,-998.00
2024-05-19 09:37:08.759852,0,0,-1,0,0,0,86,89,10,0,78,131.71,164,-2.00,-8.00,-1001.00
2024-05-19 09:37:08.856889,0,0,-1,0,0,0,86,89,10,0,78,131.65,164,-2.00,-9.00,-999.00
2024-05-19 09:37:08.958882,0,0,-1,0,0,0,86,89,10,0,78,131.73,164,-3.00,-9.00,-1003.00
2024-05-19 09:37:09.066891,0,0,-1,0,0,0,86,89,10,0,78,131.73,164,-3.00,-22.00,-1000.00
2024-05-19 09:37:09.163769,0,0,-1,0,0,0,86,89,10,0,78,131.73,165,1.00,-7.00,-1009.00
2024-05-19 09:37:09.271993,0,0,-1,0,0,0,86,89,10,0,78,131.73,165,-37.00,17.00,-979.00
2024-05-19 09:37:09.367701,0,0,0,0,0,0,86,89,10,0,78,131.73,165,22.00,2.00,-1004.00
2024-05-19 09:37:09.476823,0,0,0,0,0,0,86,89,10,0,78,131.73,165,-5.00,-17.00,-1003.00
2024-05-19 09:37:09.571706,0,0,0,0,0,0,86,89,10,0,78,131.73,165,-71.00,40.00,-1161.00
2024-05-19 09:37:09.682628,0,-1,0,0,0,-1,86,89,10,0,78,131.73,165,36.00,17.00,-1241.00
2024-05-19 09:37:09.775661,0,0,0,0,0,-4,86,89,10,0,78,131.73,165,52.00,48.00,-1205.00
2024-05-19 09:37:09.886857,0,0,0,0,0,-6,86,89,19,0,78,131.77,165,-11.00,32.00,-1197.00
2024-05-19 09:37:09.979577,0,-1,0,0,0,-7,86,89,27,0,78,132.11,165,-70.00,57.00,-1081.00
2024-05-19 09:37:10.091820,0,-1,0,0,0,-7,86,90,37,10,78,132.20,165,7.00,45.00,-965.00
2024-05-19 09:37:10.183663,0,-1,0,0,0,-7,86,90,43,20,78,132.35,166,39.00,1.00,-1077.00
2024-05-19 09:37:10.295662,0,-2,0,0,0,-6,86,90,49,20,78,132.29,166,27.00,58.00,-1040.00
2024-05-19 09:37:10.387637,0,-2,0,0,0,-5,86,90,57,30,78,132.47,166,66.00,-12.00,-1179.00
2024-05-19 09:37:10.501289,1,-2,0,0,0,-4,86,90,64,30,78,132.51,166,13.00,43.00,-854.00
2024-05-19 09:37:10.540655,1,-2,0,0,0,-3,86,90,68,40,78,132.62,166,24.00,20.00,-915.00
2024-05-19 09:37:10.705267,0,-2,0,0,0,-2,86,90,73,40,78,132.60,166,14.00,52.00,-970.00
2024-05-19 09:37:10.744787,1,-2,0,0,0,-1,86,90,77,40,78,132.64,166,-33.00,68.00,-987.00
2024-05-19 09:37:10.910727,0,-2,0,0,0,-1,86,90,80,50,78,132.64,166,-29.00,47.00,-890.00
2024-05-19 09:37:10.948609,0,-1,0,0,0,0,86,90,82,50,78,132.61,166,78.00,42.00,-792.00
2024-05-19 09:37:11.114805,1,-1,0,0,0,0,86,89,84,50,78,132.72,166,24.00,42.00,-967.00
2024-05-19 09:37:11.152656,1,-1,0,0,0,0,86,89,85,50,78,132.70,167,44.00,10.00,-997.00
2024-05-19 09:37:11.254995,0,-2,0,0,0,0,86,89,86,50,78,132.71,167,14.00,30.00,-994.00
2024-05-19 09:37:11.422883,0,-2,0,0,0,0,86,89,87,50,78,132.71,167,-65.00,92.00,-928.00
2024-05-19 09:37:11.458616,0,-2,0,0,0,0,86,89,87,50,78,132.73,167,39.00,36.00,-1033.00
2024-05-19 09:37:11.562068,0,-2,0,0,0,0,86,89,87,50,78,132.71,167,32.00,11.00,-897.00
2024-05-19 09:37:11.663186,0,-1,0,0,0,0,86,89,88,50,78,132.69,167,36.00,36.00,-967.00
2024-05-19 09:37:11.831620,0,-1,0,0,0,0,86,89,87,50,78,132.69,167,84.00,-15.00,-973.00
2024-05-19 09:37:11.866570,0,-2,0,0,0,0,86,89,87,60,78,132.75,167,80.00,1.00,-846.00
2024-05-19 09:37:12.040776,0,-2,0,0,0,0,86,89,87,60,78,132.78,167,34.00,8.00,-931.00
2024-05-19 09:37:12.070483,0,-2,0,0,0,0,86,89,87,60,78,132.79,167,-33.00,36.00,-857.00
2024-05-19 09:37:12.242095,0,-2,0,0,0,0,86,89,86,60,78,132.77,168,25.00,70.00,-1114.00
2024-05-19 09:37:12.274575,0,-2,0,0,0,0,86,89,86,60,78,132.72,168,-36.00,64.00,-1121.00
2024-05-19 09:37:12.446462,0,-2,0,0,0,0,86,89,85,60,78,132.73,168,78.00,26.00,-977.00
2024-05-19 09:37:12.478588,0,-2,0,0,0,0,86,89,84,50,78,132.66,168,-74.00,107.00,-1064.00
2024-05-19 09:37:12.580922,0,-2,0,0,0,0,86,89,83,50,78,132.70,168,31.00,95.00,-1264.00
2024-05-19 09:37:12.754694,0,-2,0,0,0,0,86,89,81,50,78,132.66,168,-93.00,111.00,-1001.00
2024-05-19 09:37:12.784482,0,-2,0,0,0,0,86,89,79,50,78,132.60,168,43.00,92.00,-1187.00
2024-05-19 09:37:13.061167,0,-3,0,0,0,0,86,89,77,50,78,132.60,168,55.00,34.00,-977.00
2024-05-19 09:37:13.062032,0,-2,0,0,0,0,86,89,75,50,78,132.61,168,-110.00,114.00,-883.00
2024-05-19 09:37:13.090982,0,-2,0,0,0,0,86,88,73,50,78,132.61,168,-52.00,61.00,-1005.00
2024-05-19 09:37:13.266013,0,-2,0,0,0,0,86,88,70,50,78,132.58,169,-59.00,92.00,-1138.00
2024-05-19 09:37:13.295080,0,-2,0,0,0,0,86,88,68,50,78,132.52,169,-84.00,79.00,-1178.00
2024-05-19 09:37:13.470088,0,-2,0,0,0,0,86,88,66,40,78,132.55,169,19.00,27.00,-1079.00
2024-05-19 09:37:13.498573,0,-2,0,0,0,0,86,88,65,40,78,132.58,169,32.00,47.00,-1156.00
2024-05-19 09:37:13.674814,0,-2,0,0,0,0,86,88,64,40,78,132.52,169,1.00,50.00,-927.00
2024-05-19 09:37:13.702413,0,-2,0,0,0,0,86,88,63,40,78,132.61,169,5.00,76.00,-1102.00
2024-05-19 09:37:13.879622,0,-2,0,0,0,0,86,88,63,40,78,132.56,169,-126.00,93.00,-1092.00
2024-05-19 09:37:13.906748,0,-2,0,0,0,0,86,88,63,40,78,132.56,169,34.00,35.00,-1016.00
2024-05-19 09:37:14.085239,-1,-2,0,0,0,0,86,88,64,40,78,132.58,169,-45.00,62.00,-1047.00
2024-05-19 09:37:14.110483,-1,-2,0,0,0,-1,86,88,64,40,78,132.56,169,47.00,-21.00,-1053.00
2024-05-19 09:37:14.289211,-1,-2,0,0,0,-1,86,88,65,40,78,132.60,170,-28.00,59.00,-1256.00
2024-05-19 09:37:14.314464,-1,-2,0,0,0,-1,86,88,66,40,78,132.57,170,-6.00,76.00,-888.00
2024-05-19 09:37:14.366006,-1,-2,0,0,0,-1,86,88,67,40,78,132.74,170,-2.00,32.00,-1007.00
2024-05-19 09:37:14.495759,-1,-1,0,0,0,-1,86,88,68,40,78,132.64,170,81.00,10.00,-1028.00
2024-05-19 09:37:14.569407,-1,-1,0,0,0,-1,86,88,69,40,78,132.66,170,-11.00,57.00,-1016.00
2024-05-19 09:37:14.703461,-1,-1,0,0,0,-1,86,88,70,40,78,132.63,170,10.00,27.00,-934.00
2024-05-19 09:37:14.773535,0,-2,0,0,0,0,86,88,71,40,78,132.70,170,-1.00,76.00,-994.00
2024-05-19 09:37:14.911016,0,-2,0,0,0,-1,86,88,72,40,78,132.56,170,-12.00,51.00,-1128.00
2024-05-19 09:37:14.977603,0,-2,0,0,0,-1,86,88,72,50,78,132.62,170,81.00,-21.00,-990.00
2024-05-19 09:37:15.113656,-1,-2,0,0,0,0,86,88,73,50,78,132.56,170,84.00,56.00,-977.00
2024-05-19 09:37:15.182424,0,-2,0,0,0,0,86,88,73,50,78,132.59,171,-25.00,62.00,-1095.00
2024-05-19 09:37:15.322967,0,-2,0,0,0,0,86,88,74,50,78,132.61,171,-19.00,62.00,-1069.00
2024-05-19 09:37:15.386466,0,-1,0,0,0,0,86,88,75,50,78,132.58,171,41.00,48.00,-1164.00
2024-05-19 09:37:15.519275,0,-2,0,0,0,0,86,88,75,50,78,132.59,171,21.00,47.00,-1298.00
2024-05-19 09:37:15.590403,0,-2,0,0,0,0,86,88,76,50,78,132.57,171,6.00,48.00,-1087.00
2024-05-19 09:37:15.692376,0,-2,0,0,0,0,86,88,78,50,78,132.61,171,5.00,84.00,-928.00
2024-05-19 09:37:15.825365,0,-2,0,0,0,-1,86,88,78,50,78,132.63,171,-76.00,93.00,-856.00
2024-05-19 09:37:15.896423,0,-2,0,0,0,0,86,88,79,50,78,132.62,171,25.00,57.00,-906.00
2024-05-19 09:37:16.030632,0,-2,0,0,0,-1,86,88,80,50,78,132.66,171,0.00,79.00,-920.00
2024-05-19 09:37:16.100343,0,-2,0,0,0,0,86,88,79,50,78,132.57,171,109.00,0.00,-869.00
2024-05-19 09:37:16.337523,0,-2,0,0,0,0,86,88,79,50,78,132.56,172,-22.00,63.00,-781.00
2024-05-19 09:37:16.337748,0,-2,0,0,0,0,86,88,78,50,78,132.64,172,4.00,76.00,-1051.00
2024-05-19 09:37:16.406291,0,-2,0,0,0,0,86,88,78,50,78,132.58,172,16.00,57.00,-933.00
2024-05-19 09:37:16.550470,0,-2,0,0,0,0,86,88,78,50,78,132.63,172,-101.00,90.00,-968.00
2024-05-19 09:37:16.610246,0,-2,0,0,0,0,86,88,78,50,78,132.64,172,18.00,83.00,-868.00
2024-05-19 09:37:16.755500,0,-1,0,0,0,0,86,88,77,50,78,132.56,172,-4.00,50.00,-1092.00
2024-05-19 09:37:16.814455,0,-1,0,0,0,0,86,88,77,50,78,132.56,172,-52.00,47.00,-1061.00
2024-05-19 09:37:16.951566,0,-1,0,0,0,0,86,88,77,50,78,132.63,172,-84.00,132.00,-819.00
2024-05-19 09:37:17.020141,0,-1,0,0,0,0,86,88,77,50,78,132.65,172,47.00,29.00,-1115.00
2024-05-19 09:37:17.120813,0,-2,0,0,0,0,85,88,78,50,78,132.58,172,2.00,43.00,-932.00
2024-05-19 09:37:17.259215,0,-1,0,0,0,0,85,88,77,50,78,132.66,173,-1.00,84.00,-875.00
2024-05-19 09:37:17.325695,0,-1,0,0,0,0,85,88,78,50,78,132.64,173,36.00,47.00,-1309.00
2024-05-19 09:37:17.463701,0,-1,0,0,0,0,85,88,78,50,78,132.60,173,95.00,24.00,-1162.00
2024-05-19 09:37:17.529435,0,-1,0,0,0,0,85,88,78,50,78,132.63,173,-58.00,57.00,-980.00
2024-05-19 09:37:17.668414,0,-2,0,0,0,0,85,88,78,50,78,132.63,173,64.00,18.00,-988.00
2024-05-19 09:37:17.737642,-1,-1,0,0,0,0,85,88,78,50,78,132.65,173,2.00,39.00,-850.00
2024-05-19 09:37:17.784270,-1,-1,0,0,0,0,85,88,79,50,78,132.72,173,-51.00,66.00,-1108.00
2024-05-19 09:37:17.980243,0,-1,0,0,0,0,85,88,80,50,78,132.63,173,97.00,42.00,-1030.00
2024-05-19 09:37:17.988245,0,-1,0,0,0,0,85,88,81,50,78,132.60,173,33.00,12.00,-1009.00
2024-05-19 09:37:18.181245,0,-2,0,0,0,0,85,87,82,50,78,132.64,173,-21.00,56.00,-1062.00
2024-05-19 09:37:18.192482,0,-2,0,0,0,0,85,87,84,50,78,132.62,174,98.00,39.00,-980.00
2024-05-19 09:37:18.390280,0,-1,0,0,0,0,85,87,85,50,78,132.62,174,-48.00,36.00,-833.00
2024-05-19 09:37:18.396392,0,-2,0,0,0,0,85,87,86,50,78,132.65,174,0.00,55.00,-934.00
2024-05-19 09:37:18.590137,0,-2,0,0,0,0,85,87,87,50,78,132.75,174,27.00,44.00,-1157.00
2024-05-19 09:37:18.600162,0,-2,0,0,0,0,85,87,87,50,78,132.71,174,-44.00,58.00,-828.00
2024-05-19 09:37:18.796535,0,-2,0,0,0,0,85,87,87,60,78,132.75,174,-27.00,63.00,-1051.00
2024-05-19 09:37:18.804536,-1,-1,0,0,0,0,85,87,87,60,78,132.74,174,-67.00,60.00,-1043.00
2024-05-19 09:37:19.000682,0,-1,0,0,0,0,85,87,87,60,78,132.77,174,-40.00,48.00,-967.00
2024-05-19 09:37:19.008225,0,-1,0,0,0,0,85,87,87,60,78,132.71,174,-52.00,95.00,-946.00
2024-05-19 09:37:19.110307,0,-1,0,0,0,0,85,88,87,60,78,132.81,175,-41.00,25.00,-990.00
2024-05-19 09:37:19.261522,0,-1,0,0,0,0,85,88,87,60,78,132.72,175,1.00,48.00,-972.00
2024-05-19 09:37:19.314282,0,-2,0,0,0,0,85,88,86,60,78,132.69,175,3.00,42.00,-871.00
2024-05-19 09:37:19.512459,0,-2,0,0,0,0,85,88,86,60,78,132.74,175,-21.00,43.00,-964.00
2024-05-19 09:37:19.518086,0,-1,0,0,0,0,85,88,85,60,78,132.71,175,26.00,31.00,-1051.00
2024-05-19 09:37:19.716497,0,-1,0,0,0,-1,85,88,85,60,78,132.72,175,0.00,68.00,-1163.00
2024-05-19 09:37:19.722111,0,-1,0,0,0,-2,85,88,87,60,78,132.70,175,-43.00,38.00,-1116.00
2024-05-19 09:37:19.921318,0,-1,0,0,0,-3,85,88,90,60,78,132.77,175,-56.00,101.00,-1002.00
2024-05-19 09:37:19.926032,0,-1,0,0,0,-4,85,88,93,60,78,132.79,175,-2.00,53.00,-1259.00
2024-05-19 09:37:20.126295,0,-2,0,0,0,-4,85,88,98,70,78,132.86,175,7.00,40.00,-968.00
2024-05-19 09:37:20.130190,-1,-2,0,0,0,-5,85,87,102,70,78,132.87,176,-22.00,87.00,-996.00
2024-05-19 09:37:20.233810,-1,-3,0,0,0,-5,85,87,106,80,78,132.95,176,76.00,32.00,-1026.00
2024-05-19 09:37:20.334396,-1,-2,0,0,0,-5,85,87,112,80,78,132.94,176,15.00,33.00,-918.00
2024-05-19 09:37:20.436339,0,-2,0,0,0,-5,85,87,118,90,78,132.98,176,70.00,33.00,-995.00
2024-05-19 09:37:20.543183,0,-1,0,0,0,-5,85,87,123,90,78,133.02,176,64.00,25.00,-1011.00
2024-05-19 09:37:20.640012,0,-1,0,0,0,-5,85,87,128,100,78,133.10,176,-88.00,76.00,-736.00
2024-05-19 09:37:20.742326,0,-1,0,0,0,-5,85,87,133,110,78,133.17,176,-46.00,37.00,-857.00
2024-05-19 09:37:20.945900,0,-1,0,0,0,-4,85,87,137,110,78,133.20,176,-18.00,40.00,-903.00
2024-05-19 09:37:20.945951,-1,-1,0,0,0,-4,85,87,142,110,78,133.23,176,6.00,44.00,-982.00
2024-05-19 09:37:21.159793,0,-1,0,0,0,-3,85,87,145,120,78,133.27,176,3.00,11.00,-861.00
2024-05-19 09:37:21.159947,0,-1,0,0,0,-3,86,87,149,120,78,133.21,177,-44.00,62.00,-987.00
2024-05-19 09:37:21.260428,0,-1,0,0,0,-3,86,87,152,130,78,133.27,177,11.00,18.00,-877.00
2024-05-19 09:37:21.357904,0,-1,0,0,0,-3,86,87,156,130,78,133.37,177,57.00,19.00,-844.00
2024-05-19 09:37:21.459600,0,-1,0,0,0,-3,86,87,158,130,78,133.34,177,-28.00,70.00,-899.00
2024-05-19 09:37:21.560317,0,-1,0,0,0,-2,86,87,161,130,78,133.33,177,67.00,8.00,-984.00
2024-05-19 09:37:21.609015,0,-1,0,0,0,-2,86,87,163,140,78,133.38,177,53.00,55.00,-1077.00
2024-05-19 09:37:21.774339,0,-1,0,0,0,-1,86,87,165,140,78,133.35,177,-25.00,52.00,-953.00
2024-05-19 09:37:21.813089,0,-1,0,0,0,-1,86,87,167,140,78,133.40,177,-37.00,48.00,-977.00
2024-05-19 09:37:21.979086,0,-1,0,0,0,-1,86,87,169,140,78,133.46,177,-13.00,56.00,-1078.00
2024-05-19 09:37:22.017075,0,-1,0,0,0,-1,86,87,170,140,78,133.41,177,-43.00,44.00,-1070.00
2024-05-19 09:37:22.184490,0,-1,0,0,0,-1,85,87,173,140,78,133.43,178,26.00,29.00,-1148.00
2024-05-19 09:37:22.221943,0,-1,0,0,0,-1,85,87,176,140,78,133.40,178,16.00,36.00,-1058.00
2024-05-19 09:37:22.379565,0,-1,0,0,0,-1,85,87,178,150,78,133.51,178,-15.00,33.00,-937.00
2024-05-19 09:37:22.424997,0,-1,0,0,0,-1,85,87,180,150,78,133.53,178,92.00,-8.00,-883.00
2024-05-19 09:37:22.594644,0,-1,0,0,0,-1,85,87,183,150,78,133.53,178,50.00,27.00,-1016.00
2024-05-19 09:37:22.629117,-1,-1,0,0,0,-1,85,87,185,150,78,133.55,178,21.00,31.00,-945.00
2024-05-19 09:37:22.790189,0,-2,0,0,0,-1,85,87,187,150,78,133.56,178,8.00,30.00,-1022.00
2024-05-19 09:37:22.833076,0,-1,0,0,0,0,85,87,188,160,78,133.69,178,-53.00,71.00,-939.00
2024-05-19 09:37:22.996340,0,-1,0,0,0,-1,85,87,190,160,78,133.65,178,15.00,35.00,-999.00
2024-05-19 09:37:23.037009,0,-1,0,0,0,0,85,87,191,160,78,133.67,178,87.00,27.00,-948.00
2024-05-19 09:37:23.139708,0,-1,0,0,0,0,85,87,193,160,78,133.61,179,0.00,38.00,-958.00
2024-05-19 09:37:23.302172,0,-1,0,0,0,0,85,87,194,160,78,133.63,179,2.00,39.00,-991.00
2024-05-19 09:37:23.343004,0,-1,0,0,0,0,85,87,195,160,78,133.59,179,-45.00,57.00,-1117.00
2024-05-19 09:37:23.506265,-1,-1,0,0,0,0,85,87,194,160,78,133.65,179,79.00,-7.00,-932.00
2024-05-19 09:37:23.551137,0,-1,0,0,0,0,85,87,195,160,78,133.65,179,7.00,1.00,-1050.00
2024-05-19 09:37:23.649096,0,-2,0,0,0,0,85,87,195,160,78,133.63,179,19.00,37.00,-977.00
2024-05-19 09:37:23.815857,0,-2,0,0,0,0,85,87,194,160,78,133.61,179,86.00,-23.00,-906.00
2024-05-19 09:37:23.852992,0,-1,0,0,0,0,85,87,194,160,78,133.62,179,52.00,31.00,-834.00
2024-05-19 09:37:24.027078,0,-1,0,0,0,0,85,87,193,160,78,133.60,179,34.00,45.00,-904.00
2024-05-19 09:37:24.056957,0,-1,0,0,0,0,85,87,191,160,78,133.66,179,39.00,-2.00,-1108.00
2024-05-19 09:37:24.228960,-1,-1,0,0,0,0,85,87,189,160,78,133.60,180,-12.00,47.00,-1048.00
2024-05-19 09:37:24.260950,-1,-1,0,0,0,0,85,87,188,160,78,133.56,180,13.00,61.00,-1032.00
2024-05-19 09:37:24.431993,-1,-2,0,0,0,1,85,87,187,160,78,133.62,180,-66.00,55.00,-1080.00
2024-05-19 09:37:24.464954,0,-1,0,0,0,0,85,87,186,160,78,133.54,180,15.00,12.00,-912.00
2024-05-19 09:37:24.598617,0,-1,0,0,0,0,85,87,185,160,78,133.55,180,45.00,-9.00,-897.00
2024-05-19 09:37:24.668933,-1,-1,0,0,0,0,85,87,184,160,78,133.59,180,116.00,33.00,-982.00
2024-05-19 09:37:24.843283,0,-1,0,0,0,0,85,87,184,160,78,133.48,180,29.00,43.00,-1041.00
2024-05-19 09:37:24.872850,-1,-1,0,0,0,0,85,87,183,150,78,133.58,180,-45.00,45.00,-1088.00
2024-05-19 09:37:25.048293,-1,-1,0,0,0,1,85,87,183,150,78,133.53,180,-34.00,40.00,-965.00
2024-05-19 09:37:25.076831,-1,-1,0,0,0,1,85,87,180,150,78,133.52,180,10.00,32.00,-961.00
2024-05-19 09:37:25.249270,-1,-2,0,0,0,1,85,87,181,150,78,133.48,181,-17.00,13.00,-899.00
2024-05-19 09:37:25.280839,0,-2,0,0,0,1,85,87,180,150,78,133.46,181,0.00,0.00,-967.00
2024-05-19 09:37:25.451134,0,-2,0,0,0,2,85,87,178,150,78,133.47,181,56.00,32.00,-1004.00
2024-05-19 09:37:25.484776,-1,-2,0,0,0,2,85,87,175,150,78,133.46,181,20.00,51.00,-1183.00
2024-05-19 09:37:25.655484,-1,-2,0,0,0,2,85,87,174,140,78,133.45,181,17.00,13.00,-1087.00
2024-05-19 09:37:25.688648,-1,-1,0,0,0,2,85,87,171,140,78,133.45,181,-17.00,45.00,-1012.00
2024-05-19 09:37:25.739584,0,-1,0,0,0,2,85,87,170,140,78,133.38,181,-37.00,22.00,-912.00
2024-05-19 09:37:25.860317,0,-1,0,0,0,2,85,87,168,140,78,133.37,181,-59.00,75.00,-1154.00
2024-05-19 09:37:25.943709,0,-1,0,0,0,2,85,87,166,130,78,133.40,181,-84.00,76.00,-1003.00
2024-05-19 09:37:26.065656,0,-2,0,0,0,2,85,87,164,130,78,133.49,181,38.00,19.00,-1131.00
2024-05-19 09:37:26.147798,0,-2,0,0,0,2,85,87,164,130,78,133.43,182,-2.00,21.00,-954.00
2024-05-19 09:37:26.270935,0,-2,0,0,0,2,85,87,163,130,78,133.41,182,-73.00,74.00,-1027.00
2024-05-19 09:37:26.351688,-1,-1,0,0,0,1,85,87,161,130,78,133.39,182,-57.00,25.00,-1069.00
2024-05-19 09:37:26.475691,-1,-1,0,0,0,1,85,87,160,130,78,133.38,182,-58.00,78.00,-1118.00
2024-05-19 09:37:26.555805,-1,-1,0,0,0,1,85,87,160,130,78,133.36,182,-16.00,5.00,-917.00
2024-05-19 09:37:26.681077,0,-1,0,0,0,1,85,87,159,130,78,133.36,182,18.00,-4.00,-1069.00
2024-05-19 09:37:26.759730,0,0,0,0,0,1,85,87,158,120,78,133.37,182,21.00,65.00,-1095.00
2024-05-19 09:37:26.885382,0,-1,0,0,0,1,85,87,157,120,78,133.33,182,5.00,16.00,-1102.00
2024-05-19 09:37:26.963796,0,-1,0,0,0,1,85,87,156,120,78,133.25,182,10.00,45.00,-954.00
2024-05-19 09:37:27.089148,0,-1,0,0,0,1,85,87,155,120,78,133.30,182,72.00,-11.00,-1054.00
2024-05-19 09:37:27.168730,0,-2,0,0,0,1,84,87,155,120,78,133.27,183,74.00,35.00,-1062.00
2024-05-19 09:37:27.270742,0,-2,0,0,0,1,84,87,153,120,78,133.32,183,32.00,52.00,-1079.00
2024-05-19 09:37:27.396261,0,-1,0,0,0,1,84,87,152,120,78,133.28,183,46.00,24.00,-916.00
2024-05-19 09:37:27.474672,0,-1,0,0,0,1,84,87,151,120,78,133.35,183,4.00,73.00,-942.00
2024-05-19 09:37:27.601159,0,-1,0,0,0,0,84,87,150,120,78,133.27,183,95.00,5.00,-965.00
2024-05-19 09:37:27.678714,0,-1,0,0,0,0,84,87,149,120,78,133.30,183,-28.00,71.00,-1013.00
2024-05-19 09:37:27.806803,0,-2,0,0,0,0,84,87,149,120,78,133.24,183,110.00,-6.00,-1024.00
2024-05-19 09:37:27.882766,-1,-2,0,0,0,0,84,87,147,120,78,133.23,183,-41.00,58.00,-1154.00
2024-05-19 09:37:28.016594,0,-2,0,0,0,0,84,87,147,120,78,133.18,183,-23.00,48.00,-1047.00
2024-05-19 09:37:28.086669,0,-1,0,0,0,0,84,87,145,120,78,133.22,183,-106.00,56.00,-1067.00
2024-05-19 09:37:28.216540,0,-1,0,0,0,0,84,86,144,120,78,133.16,184,7.00,0.00,-992.00
2024-05-19 09:37:28.290734,-1,-1,0,0,0,0,84,86,142,110,78,133.16,184,83.00,-14.00,-961.00
2024-05-19 09:37:28.425329,0,-1,0,0,0,1,84,86,140,110,78,133.15,184,-33.00,47.00,-1067.00
2024-05-19 09:37:28.494873,0,-1,0,0,0,1,84,86,139,110,78,133.16,184,-7.00,39.00,-1151.00
2024-05-19 09:37:28.628696,0,-2,0,0,0,1,84,86,138,110,78,133.18,184,-43.00,49.00,-1117.00
2024-05-19 09:37:28.698826,0,-2,0,0,0,1,84,86,136,110,78,133.19,184,31.00,30.00,-933.00
2024-05-19 09:37:28.831733,0,-2,0,0,0,0,84,86,136,110,78,133.20,184,9.00,28.00,-965.00
2024-05-19 09:37:28.902592,-1,-2,0,0,0,0,84,86,136,110,78,133.14,184,-35.00,34.00,-991.00
2024-05-19 09:37:29.041865,-1,-2,0,0,0,0,84,86,136,110,78,133.14,184,18.00,27.00,-967.00
2024-05-19 09:37:29.106646,-1,-2,0,0,0,0,84,86,136,110,78,133.16,184,8.00,13.00,-950.00
2024-05-19 09:37:29.244620,0,-1,0,0,0,0,85,86,138,110,78,133.12,185,43.00,23.00,-1116.00
2024-05-19 09:37:29.310656,0,-1,0,1,0,0,85,86,138,110,78,133.17,185,-29.00,54.00,-919.00
2024-05-19 09:37:29.449677,0,-1,0,0,0,0,85,86,139,110,78,133.14,185,6.00,23.00,-918.00
2024-05-19 09:37:29.463749,0,-2,0,0,0,0,85,86,139,110,78,133.16,185,-47.00,27.00,-908.00
2024-05-19 09:37:29.637358,-1,-2,0,0,0,0,85,86,138,110,78,133.08,185,38.00,5.00,-954.00
2024-05-19 09:37:29.667660,0,-2,0,0,0,0,85,86,138,110,78,133.14,185,50.00,14.00,-978.00
2024-05-19 09:37:29.857884,0,-2,0,0,0,0,85,86,137,110,78,133.06,185,77.00,-31.00,-951.00
2024-05-19 09:37:29.871897,0,-2,0,0,0,0,85,86,137,110,78,133.13,185,66.00,41.00,-989.00
2024-05-19 09:37:30.060454,0,-1,0,0,0,0,85,86,135,110,78,133.12,185,21.00,15.00,-974.00
2024-05-19 09:37:30.075489,0,-1,0,0,0,0,85,86,134,110,78,133.10,185,-27.00,11.00,-852.00
2024-05-19 09:37:30.274086,0,-2,0,0,0,0,85,87,132,110,78,133.08,186,-35.00,51.00,-1080.00
2024-05-19 09:37:30.279637,0,-2,0,0,0,0,85,87,131,100,78,133.08,186,-80.00,81.00,-1025.00
2024-05-19 09:37:30.446826,0,-2,0,0,0,0,85,87,130,100,78,133.08,186,-28.00,69.00,-972.00
2024-05-19 09:37:30.483533,0,-2,0,0,0,0,85,87,129,100,78,133.10,186,54.00,17.00,-1018.00
2024-05-19 09:37:30.661152,0,-1,0,0,0,0,85,87,129,100,78,133.01,186,6.00,48.00,-1024.00
2024-05-19 09:37:30.687524,-3,-1,0,0,0,0,85,87,129,100,78,133.09,186,20.00,35.00,-1076.00
2024-05-19 09:37:30.885996,-8,-1,0,1,0,0,85,87,132,100,77,133.09,186,-7.00,37.00,-1090.00
2024-05-19 09:37:30.891547,-8,-1,0,3,0,0,85,87,132,100,77,133.11,186,36.00,43.00,-824.00
2024-05-19 09:37:31.082622,-8,-1,0,4,0,0,85,87,133,100,77,133.07,186,-24.00,19.00,-1159.00
2024-05-19 09:37:31.095731,-7,-1,0,5,0,0,85,87,133,100,77,133.07,186,29.00,16.00,-1042.00
2024-05-19 09:37:31.288332,-6,-1,0,6,0,0,84,86,134,100,77,133.08,187,-54.00,67.00,-1047.00
2024-05-19 09:37:31.300130,-6,-1,0,6,0,0,84,86,135,100,77,132.93,187,-96.00,74.00,-994.00
2024-05-19 09:37:31.500316,-5,-1,0,7,0,0,84,86,136,100,77,133.02,187,-79.00,57.00,-954.00
2024-05-19 09:37:31.503448,-5,-1,0,7,0,0,84,86,136,110,77,132.95,187,-103.00,30.00,-983.00
2024-05-19 09:37:31.635698,-2,-1,0,7,0,0,84,86,137,110,77,133.01,187,-64.00,41.00,-955.00
2024-05-19 09:37:31.707469,0,-2,0,6,0,0,84,86,138,110,77,133.04,187,-82.00,20.00,-928.00
2024-05-19 09:37:31.809537,2,-2,0,5,0,0,84,86,139,110,77,133.04,187,-3.00,33.00,-1006.00
2024-05-19 09:37:32.007741,3,-1,0,4,0,0,84,86,139,110,77,133.07,187,-20.00,43.00,-903.00
2024-05-19 09:37:32.013593,2,-1,0,4,0,0,84,86,139,110,77,133.13,187,-54.00,70.00,-796.00
2024-05-19 09:37:32.216155,1,-1,0,3,0,0,84,86,139,110,77,133.12,187,-44.00,25.00,-1132.00
2024-05-19 09:37:32.217435,0,-1,0,2,0,0,84,86,139,110,77,133.08,188,6.00,6.00,-1019.00
2024-05-19 09:37:32.319403,-1,-2,0,2,0,0,84,86,139,110,77,133.02,188,4.00,-12.00,-1081.00
2024-05-19 09:37:32.516286,-1,-2,0,2,0,0,84,86,140,110,77,133.08,188,-16.00,94.00,-1003.00
2024-05-19 09:37:32.523352,-1,-1,0,2,0,0,84,86,140,110,77,133.14,188,8.00,-1.00,-960.00
2024-05-19 09:37:32.722017,0,-1,0,3,0,0,84,86,140,110,77,133.19,188,37.00,-22.00,-983.00
2024-05-19 09:37:32.727812,0,0,0,2,0,0,84,86,140,110,77,133.19,188,-6.00,-11.00,-1081.00
2024-05-19 09:37:32.925786,0,0,0,2,0,0,84,86,140,110,77,133.10,188,7.00,5.00,-1044.00
2024-05-19 09:37:32.931472,0,0,0,1,0,0,84,86,139,110,77,133.01,188,-94.00,86.00,-967.00
2024-05-19 09:37:33.130671,0,1,0,1,0,0,84,86,139,110,77,133.09,188,-15.00,8.00,-929.00
2024-05-19 09:37:33.135367,-1,1,0,1,0,0,84,86,138,110,77,132.97,188,37.00,3.00,-976.00
2024-05-19 09:37:33.336457,-1,-3,0,1,0,0,84,86,138,110,77,133.12,189,9.00,2.00,-1068.00
2024-05-19 09:37:33.339880,0,-3,0,1,0,0,84,86,137,110,77,133.04,189,0.00,10.00,-1259.00
2024-05-19 09:37:33.540674,2,-2,0,1,0,0,84,86,137,110,77,133.04,189,-2.00,7.00,-1011.00
2024-05-19 09:37:33.541334,0,-1,0,0,0,0,84,86,137,110,77,133.13,189,77.00,-35.00,-848.00
2024-05-19 09:37:33.594712,0,0,0,0,0,0,84,86,136,110,77,133.02,189,-42.00,41.00,-1013.00
2024-05-19 09:37:33.748686,0,0,0,0,0,0,84,86,136,110,77,133.12,189,-24.00,-12.00,-961.00
2024-05-19 09:37:33.798579,0,0,0,0,0,0,84,86,135,110,77,133.01,189,-69.00,51.00,-982.00
2024-05-19 09:37:33.950609,0,-1,0,0,0,0,84,86,135,110,77,132.99,189,-9.00,21.00,-1090.00
2024-05-19 09:37:34.002362,0,-1,0,0,0,0,84,86,134,110,77,132.94,189,24.00,14.00,-1000.00
2024-05-19 09:37:34.154849,0,-1,0,0,0,0,84,86,134,100,77,133.12,189,-93.00,74.00,-1117.00
2024-05-19 09:37:34.206393,-1,-1,0,0,0,0,84,86,134,100,77,133.01,190,-42.00,11.00,-1033.00
2024-05-19 09:37:34.308455,-2,-2,0,0,0,0,84,86,135,100,77,133.01,190,-13.00,61.00,-1025.00
2024-05-19 09:37:34.462710,-2,-1,0,0,0,0,84,86,136,100,77,133.00,190,-24.00,13.00,-988.00
2024-05-19 09:37:34.512384,-1,0,0,0,0,0,84,86,137,110,77,133.02,190,13.00,9.00,-993.00
2024-05-19 09:37:34.637613,0,0,0,0,0,0,84,86,138,110,77,133.13,190,18.00,0.00,-967.00
2024-05-19 09:37:34.716530,0,0,0,0,0,0,84,86,138,110,77,133.10,190,-30.00,22.00,-950.00
2024-05-19 09:37:34.818426,-1,0,0,0,0,0,84,86,138,110,76,133.05,190,-61.00,31.00,-1032.00
2024-05-19 09:37:34.978985,-1,0,0,0,0,0,84,86,139,110,76,133.09,190,-44.00,37.00,-966.00
2024-05-19 09:37:35.022348,-2,-1,0,0,0,0,84,86,139,110,76,133.06,190,12.00,-27.00,-1079.00
2024-05-19 09:37:35.124414,-1,-1,0,0,0,0,84,86,139,110,76,133.06,191,-40.00,16.00,-929.00
2024-05-19 09:37:35.285572,-1,-1,0,0,0,0,84,86,140,110,76,133.15,191,-19.00,8.00,-1056.00
2024-05-19 09:37:35.328389,-1,-1,0,0,0,0,84,86,138,110,76,133.10,191,-27.00,-7.00,-1117.00
2024-05-19 09:37:35.487572,-1,-1,0,0,0,0,84,86,139,110,76,133.15,191,50.00,-39.00,-904.00
2024-05-19 09:37:35.532367,-1,-1,0,0,0,0,84,86,138,110,76,133.15,191,-3.00,-46.00,-1029.00
2024-05-19 09:37:35.634259,-1,-1,0,0,0,0,84,86,137,110,76,133.10,191,-28.00,8.00,-968.00
2024-05-19 09:37:35.796603,4,-1,0,0,0,0,84,86,136,110,76,133.07,191,-31.00,11.00,-838.00
2024-05-19 09:37:35.838261,8,-1,0,-1,0,0,84,86,136,110,76,133.18,191,-86.00,0.00,-963.00
2024-05-19 09:37:36.007751,8,-1,0,-3,0,0,84,86,136,110,76,133.15,191,-27.00,36.00,-1153.00
2024-05-19 09:37:36.042206,7,-1,0,-4,0,0,84,86,136,110,76,133.13,191,-55.00,113.00,-966.00
2024-05-19 09:37:36.202697,6,-1,0,-5,0,0,84,86,133,100,76,133.11,192,12.00,53.00,-945.00
2024-05-19 09:37:36.246225,5,-1,0,-6,0,0,85,86,132,100,76,133.09,192,5.00,68.00,-1086.00
2024-05-19 09:37:36.408897,5,-2,0,-6,0,0,85,86,132,100,76,133.16,192,16.00,46.00,-1036.00
2024-05-19 09:37:36.450185,4,-1,0,-7,0,0,85,86,133,100,76,133.11,192,18.00,14.00,-1040.00
2024-05-19 09:37:36.612201,2,-1,0,-7,0,0,85,86,131,100,76,133.10,192,-18.00,70.00,-1031.00
2024-05-19 09:37:36.654237,0,-2,0,-7,0,0,85,86,130,100,76,132.99,192,36.00,0.00,-1078.00
2024-05-19 09:37:36.818076,-2,-3,0,-6,0,0,85,86,130,100,76,133.03,192,97.00,37.00,-1065.00
2024-05-19 09:37:36.858208,-4,-2,0,-5,0,0,85,86,128,100,76,133.01,192,-6.00,23.00,-980.00
2024-05-19 09:37:37.021724,-3,-1,0,-3,0,0,85,86,127,100,76,133.05,192,23.00,3.00,-1005.00
2024-05-19 09:37:37.062217,-1,-1,0,-3,0,0,85,86,126,100,76,132.99,192,-19.00,31.00,-845.00
2024-05-19 09:37:37.233634,0,0,0,-2,0,0,85,86,125,100,76,133.06,193,10.00,16.00,-1007.00
2024-05-19 09:37:37.266318,0,0,0,-2,0,0,84,87,124,100,76,132.97,193,46.00,6.00,-975.00
2024-05-19 09:37:37.441345,0,0,0,-2,0,0,84,87,123,100,76,133.04,193,88.00,-5.00,-869.00
2024-05-19 09:37:37.471679,0,0,0,-2,0,0,84,87,123,100,76,133.00,193,118.00,-16.00,-1171.00
2024-05-19 09:37:37.637924,1,0,0,-2,0,0,84,87,122,100,76,132.96,193,23.00,37.00,-1008.00
2024-05-19 09:37:37.638113,1,0,0,-2,0,0,84,87,123,100,76,132.98,193,-38.00,30.00,-1082.00
2024-05-19 09:37:37.726721,1,0,0,-2,0,0,84,87,123,100,76,133.01,193,42.00,20.00,-936.00
2024-05-19 09:37:37.841403,1,0,0,-2,0,0,84,87,124,100,76,132.93,193,23.00,-9.00,-1096.00
2024-05-19 09:37:37.931679,1,0,0,-2,0,0,84,87,125,100,76,132.99,193,-10.00,18.00,-939.00
2024-05-19 09:37:38.032227,1,0,0,-2,0,0,84,87,125,100,76,132.96,193,-6.00,-25.00,-975.00
2024-05-19 09:37:38.134467,1,0,0,-2,0,0,84,87,126,100,76,133.07,194,103.00,-36.00,-765.00
2024-05-19 09:37:38.236757,-2,0,0,-1,0,0,85,87,126,100,76,133.08,194,56.00,-5.00,-1028.00
2024-05-19 09:37:38.338588,-4,0,0,0,0,0,85,87,127,100,76,133.09,194,-72.00,27.00,-1102.00
2024-05-19 09:37:38.455428,-1,0,0,0,0,0,85,87,127,100,76,133.10,194,4.00,-6.00,-1015.00
2024-05-19 09:37:38.542187,0,0,0,0,0,0,85,87,128,100,76,132.98,194,5.00,3.00,-1106.00
2024-05-19 09:37:38.660765,1,0,0,0,0,0,85,87,128,100,76,133.03,194,24.00,0.00,-1043.00
2024-05-19 09:37:38.746211,0,0,0,0,0,0,85,87,129,100,76,133.00,194,18.00,22.00,-1145.00
2024-05-19 09:37:38.868810,0,0,0,0,0,0,85,87,130,100,76,133.10,194,28.00,82.00,-953.00
2024-05-19 09:37:38.950265,0,0,0,0,0,0,85,87,130,100,76,133.05,194,110.00,-30.00,-967.00
2024-05-19 09:37:39.075465,0,0,0,0,0,0,85,87,131,100,76,133.06,194,38.00,-37.00,-868.00
2024-05-19 09:37:39.154129,0,0,0,0,0,0,85,87,131,100,76,133.18,195,-40.00,37.00,-909.00
2024-05-19 09:37:39.284514,1,0,0,0,0,0,85,86,131,100,76,133.10,195,34.00,10.00,-969.00
2024-05-19 09:37:39.358144,0,0,0,0,0,0,85,86,131,100,76,133.09,195,23.00,1.00,-1206.00
2024-05-19 09:37:39.479427,0,0,0,0,0,0,85,86,131,100,76,133.07,195,113.00,-36.00,-887.00
2024-05-19 09:37:39.562179,1,0,0,0,0,0,85,86,131,100,76,133.09,195,118.00,-37.00,-1024.00
2024-05-19 09:37:39.684205,1,0,0,0,0,0,85,86,130,100,76,133.10,195,91.00,-40.00,-967.00
2024-05-19 09:37:39.766253,1,0,0,0,0,0,85,86,129,100,75,133.14,195,10.00,7.00,-941.00
2024-05-19 09:37:39.892594,1,0,0,0,0,0,85,86,129,100,75,133.10,195,41.00,-21.00,-1080.00
2024-05-19 09:37:39.970088,1,0,0,0,0,0,85,86,128,100,75,133.01,195,-26.00,25.00,-934.00
2024-05-19 09:37:40.103737,1,0,0,0,0,0,85,86,128,100,75,133.03,195,-31.00,2.00,-1015.00
2024-05-19 09:37:40.174081,1,0,0,0,0,0,85,86,128,100,75,133.10,196,139.00,-76.00,-898.00
2024-05-19 09:37:40.303860,1,0,0,0,0,0,84,86,127,100,75,133.08,196,56.00,8.00,-1085.00
2024-05-19 09:37:40.378040,1,0,0,0,0,0,84,86,127,100,75,133.07,196,-91.00,82.00,-1003.00
2024-05-19 09:37:40.479878,1,0,0,0,0,0,84,86,127,100,75,133.11,196,53.00,3.00,-1019.00
2024-05-19 09:37:40.605692,1,0,0,0,0,0,84,86,127,100,75,133.09,196,-33.00,10.00,-860.00
2024-05-19 09:37:40.684123,0,-3,0,0,0,0,84,86,127,100,75,133.12,196,36.00,14.00,-958.00
2024-05-19 09:37:40.815458,0,-9,0,0,0,0,84,86,129,100,75,133.06,196,-16.00,6.00,-1006.00
2024-05-19 09:37:40.887804,0,-8,0,0,-2,0,84,86,131,100,75,133.02,196,40.00,20.00,-984.00
2024-05-19 09:37:41.015554,0,-5,0,0,-3,0,84,86,131,100,75,133.06,196,-27.00,35.00,-863.00
2024-05-19 09:37:41.091975,0,-2,0,0,-4,0,84,86,132,100,75,133.09,196,58.00,9.00,-979.00
2024-05-19 09:37:41.142964,0,0,0,0,-3,0,84,86,133,100,75,133.11,197,17.00,49.00,-809.00
2024-05-19 09:37:41.322887,0,0,0,0,-3,0,85,87,134,100,75,133.17,197,-27.00,63.00,-994.00
2024-05-19 09:37:41.398126,0,0,0,0,-2,0,85,87,134,100,75,133.14,197,-77.00,93.00,-992.00
2024-05-19 09:37:41.449253,0,-1,0,0,-1,0,85,87,136,100,75,133.15,197,-62.00,79.00,-996.00
2024-05-19 09:37:41.630202,0,-2,0,0,-1,0,85,87,137,100,75,133.10,197,-18.00,43.00,-1069.00
2024-05-19 09:37:41.653060,1,-3,0,0,-1,0,85,87,137,100,75,133.17,197,78.00,-9.00,-1014.00
2024-05-19 09:37:41.834517,1,-2,0,0,-2,0,85,87,137,110,75,133.27,197,27.00,5.00,-884.00
2024-05-19 09:37:41.856939,1,-1,0,0,-2,0,85,87,138,110,75,133.24,197,-67.00,59.00,-1049.00
2024-05-19 09:37:42.039807,1,-1,0,0,-2,0,85,87,139,110,75,133.24,197,-11.00,7.00,-1001.00
2024-05-19 09:37:42.060803,0,0,0,0,-2,0,85,87,139,110,75,133.16,197,-28.00,53.00,-826.00
2024-05-19 09:37:42.246180,0,0,0,0,-2,0,85,87,140,110,75,133.19,198,-40.00,43.00,-930.00
2024-05-19 09:37:42.264933,2,0,0,0,-2,0,84,87,140,110,75,133.19,198,34.00,-10.00,-913.00
2024-05-19 09:37:42.448805,4,1,0,0,-2,0,84,87,141,110,75,133.21,198,90.00,13.00,-738.00
2024-05-19 09:37:42.468854,4,2,0,0,-2,0,84,87,140,110,75,133.15,198,36.00,-3.00,-900.00
2024-05-19 09:37:42.653695,4,3,0,0,-1,0,84,87,141,110,75,133.14,198,-50.00,17.00,-798.00
2024-05-19 09:37:42.673078,3,2,0,-1,-1,0,84,87,140,110,75,133.12,198,-19.00,-3.00,-980.00
2024-05-19 09:37:42.858479,1,0,0,-1,0,0,84,87,140,110,75,133.14,198,62.00,-1.00,-1085.00
2024-05-19 09:37:42.876808,-4,0,0,-1,0,0,84,87,140,110,75,133.13,198,-19.00,-25.00,-924.00
2024-05-19 09:37:42.978794,-1,0,0,0,0,0,84,87,140,110,75,133.17,198,44.00,-10.00,-961.00
2024-05-19 09:37:43.167385,0,0,0,0,0,0,84,87,140,110,75,133.12,198,-28.00,7.00,-1205.00
2024-05-19 09:37:43.182909,1,0,0,0,0,0,84,87,140,110,75,133.08,199,84.00,-4.00,-1102.00
2024-05-19 09:37:43.374557,1,1,0,0,0,0,84,86,141,110,75,133.17,199,3.00,46.00,-999.00
2024-05-19 09:37:43.386869,1,1,0,0,0,0,84,86,140,110,75,133.09,199,88.00,-36.00,-868.00
2024-05-19 09:37:43.579032,2,1,0,0,0,0,84,86,141,110,75,133.17,199,23.00,12.00,-1041.00
2024-05-19 09:37:43.590805,1,0,0,0,0,0,84,86,142,110,75,133.08,199,-57.00,53.00,-1045.00
2024-05-19 09:37:43.693047,1,0,0,0,0,0,84,86,141,110,75,133.15,199,49.00,8.00,-991.00
2024-05-19 09:37:43.887539,1,0,0,0,0,0,84,86,141,110,74,133.07,199,55.00,-16.00,-946.00
2024-05-19 09:37:43.896933,1,0,0,0,0,0,84,86,141,110,74,133.08,199,-16.00,20.00,-1068.00
2024-05-19 09:37:44.097480,1,0,0,0,0,0,84,86,140,110,74,133.23,199,1.00,16.00,-876.00
2024-05-19 09:37:44.101230,1,0,0,0,0,0,84,86,138,110,74,133.23,199,87.00,-34.00,-984.00
2024-05-19 09:37:44.293020,1,0,0,0,0,0,84,86,139,110,74,133.14,200,37.00,17.00,-1280.00
2024-05-19 09:37:44.305080,1,0,0,0,0,0,85,87,137,110,74,133.14,200,-2.00,-16.00,-906.00
2024-05-19 09:37:44.508356,1,0,0,0,0,0,85,87,137,110,74,133.12,200,-1.00,9.00,-957.00
2024-05-19 09:37:44.508640,1,0,0,0,0,0,85,87,136,110,74,133.04,200,64.00,-10.00,-989.00
2024-05-19 09:37:44.709660,1,0,0,0,0,0,85,87,135,110,74,133.14,200,3.00,3.00,-1029.00
2024-05-19 09:37:44.712898,1,0,0,0,0,0,85,87,134,110,74,133.17,200,116.00,0.00,-1058.00
2024-05-19 09:37:44.814885,1,0,0,0,0,0,85,87,134,110,74,133.14,200,46.00,-16.00,-929.00
2024-05-19 09:37:44.931213,1,0,0,0,0,0,85,87,133,100,74,133.07,200,-37.00,50.00,-1112.00
2024-05-19 09:37:45.018786,1,0,0,0,0,0,85,87,134,100,74,133.11,200,30.00,14.00,-1029.00
2024-05-19 09:37:45.070029,1,0,0,0,0,0,85,87,133,100,74,133.16,200,26.00,-25.00,-1045.00
2024-05-19 09:37:45.213622,0,5,0,0,0,0,85,87,134,100,74,133.08,201,52.00,-9.00,-1010.00
2024-05-19 09:37:45.324679,0,7,0,0,1,0,84,86,133,100,74,133.14,201,99.00,-64.00,-900.00
2024-05-19 09:37:45.520983,1,5,0,0,3,0,84,86,134,100,74,133.09,201,48.00,-10.00,-1164.00
2024-05-19 09:37:45.521040,1,3,0,0,3,0,84,86,135,100,74,133.14,201,51.00,-59.00,-886.00
2024-05-19 09:37:45.579657,1,0,0,0,4,0,84,86,134,100,74,133.14,201,18.00,-39.00,-918.00
2024-05-19 09:37:45.726705,1,-1,0,0,3,0,84,86,134,100,74,133.10,201,105.00,-41.00,-1007.00
2024-05-19 09:37:45.783746,1,-1,0,0,3,0,84,86,134,100,74,133.18,201,-13.00,18.00,-1083.00
2024-05-19 09:37:45.931468,0,0,0,0,2,0,84,86,134,100,74,133.18,201,-6.00,-12.00,-1023.00
2024-05-19 09:37:45.987737,1,0,0,0,2,0,84,86,134,100,74,133.10,201,91.00,-7.00,-1003.00
2024-05-19 09:37:46.145216,1,0,0,0,2,0,84,86,134,100,74,133.03,201,7.00,19.00,-834.00
2024-05-19 09:37:46.191679,1,0,0,0,2,0,84,86,134,100,74,133.07,202,61.00,25.00,-1053.00
2024-05-19 09:37:46.355674,0,0,0,0,2,0,85,87,134,100,74,133.07,202,10.00,1.00,-1324.00
2024-05-19 09:37:46.395749,0,0,0,0,2,0,85,87,134,100,74,133.11,202,45.00,-14.00,-939.00
2024-05-19 09:37:46.548672,1,0,0,0,2,0,85,87,135,100,74,133.07,202,27.00,15.00,-776.00
2024-05-19 09:37:46.599676,1,0,0,0,2,0,85,87,136,100,74,133.16,202,33.00,15.00,-1102.00
2024-05-19 09:37:46.701886,0,0,0,0,2,0,85,87,137,100,74,133.16,202,-71.00,68.00,-1139.00
2024-05-19 09:37:46.852313,1,0,0,0,2,0,85,87,138,100,74,133.17,202,-21.00,40.00,-1115.00
2024-05-19 09:37:46.905636,1,-3,0,0,2,0,85,87,139,100,74,133.15,202,-34.00,44.00,-817.00
2024-05-19 09:37:47.056755,1,-4,0,0,1,0,85,87,140,110,74,133.13,202,-49.00,47.00,-1054.00
2024-05-19 09:37:47.109696,0,-2,0,0,0,0,85,87,141,110,74,133.09,202,8.00,3.00,-1013.00
2024-05-19 09:37:47.263421,0,-1,0,0,0,0,85,87,141,110,74,133.14,203,111.00,-7.00,-923.00
2024-05-19 09:37:47.314200,1,0,0,0,0,0,85,87,142,110,74,133.06,203,17.00,-45.00,-831.00
2024-05-19 09:37:47.474602,1,0,0,0,0,0,85,87,142,110,74,133.13,203,31.00,4.00,-983.00
2024-05-19 09:37:47.517657,1,0,0,0,0,0,85,87,143,110,74,133.06,203,121.00,0.00,-1013.00
2024-05-19 09:37:47.675005,1,0,0,0,0,0,85,87,143,110,74,133.08,203,17.00,-15.00,-1004.00
2024-05-19 09:37:47.721548,1,-1,0,0,0,0,85,87,143,110,74,133.11,203,-35.00,39.00,-1010.00
2024-05-19 09:37:47.876209,1,-1,0,0,0,0,85,87,142,110,74,133.17,203,49.00,6.00,-1149.00
2024-05-19 09:37:47.925569,1,-1,0,0,0,0,85,87,142,110,74,133.15,203,65.00,-9.00,-952.00
2024-05-19 09:37:48.080729,1,-1,0,0,0,0,85,87,141,110,74,133.05,203,-31.00,42.00,-1205.00
2024-05-19 09:37:48.129630,1,-1,0,0,0,0,85,87,140,110,74,133.17,203,40.00,3.00,-965.00
2024-05-19 09:37:48.290370,0,0,0,0,0,0,85,87,139,110,74,133.12,204,-13.00,-5.00,-939.00
2024-05-19 09:37:48.333624,1,0,0,0,0,0,84,86,137,110,74,133.14,204,14.00,1.00,-1031.00
2024-05-19 09:37:48.491179,1,0,0,0,0,1,84,86,136,110,74,133.13,204,-19.00,26.00,-900.00
2024-05-19 09:37:48.537531,1,0,0,0,0,0,84,86,135,110,74,133.08,204,-53.00,45.00,-1035.00
2024-05-19 09:37:48.696801,1,0,0,0,0,0,84,86,134,100,74,133.14,204,34.00,9.00,-1013.00
2024-05-19 09:37:48.741566,2,0,0,0,0,0,84,86,133,100,74,133.02,204,23.00,22.00,-1041.00
2024-05-19 09:37:48.903802,2,0,0,0,0,0,84,86,133,100,73,133.10,204,-28.00,9.00,-926.00
2024-05-19 09:37:48.945510,1,0,0,0,0,0,84,86,133,100,73,133.11,204,50.00,-13.00,-981.00
2024-05-19 09:37:49.061178,2,0,0,0,0,0,84,86,132,100,73,133.04,204,-20.00,48.00,-1015.00
2024-05-19 09:37:49.149520,2,0,0,0,0,0,84,86,132,100,73,133.06,205,9.00,-6.00,-920.00
2024-05-19 09:37:49.200553,1,0,3,0,0,0,84,86,132,100,73,133.08,205,79.00,-17.00,-1073.00
2024-05-19 09:37:49.353520,1,0,9,0,0,0,85,87,131,100,73,133.14,205,80.00,-25.00,-966.00
2024-05-19 09:37:49.404524,1,0,15,0,0,0,85,87,131,100,73,133.06,205,8.00,26.00,-976.00
2024-05-19 09:37:49.518399,1,0,21,0,0,0,85,87,130,100,73,132.98,205,-13.00,38.00,-801.00
2024-05-19 09:37:49.608550,1,0,27,0,0,0,85,87,130,100,73,132.99,205,97.00,1.00,-1114.00
2024-05-19 09:37:49.710506,1,1,33,0,0,0,85,87,130,100,73,133.07,205,78.00,-28.00,-951.00
2024-05-19 09:37:49.821949,1,1,39,0,0,0,85,87,128,100,73,133.08,205,53.00,1.00,-1176.00
2024-05-19 09:37:49.914533,0,1,45,0,0,0,85,87,127,100,73,133.03,205,12.00,-35.00,-969.00
2024-05-19 09:37:50.026566,0,1,52,0,0,0,85,87,126,100,73,133.04,205,1.00,-21.00,-984.00
2024-05-19 09:37:50.118599,0,1,58,0,0,0,85,87,126,100,73,132.97,206,-22.00,8.00,-1130.00
2024-05-19 09:37:50.232553,0,1,65,0,0,0,85,87,125,100,73,133.00,206,44.00,2.00,-1164.00
2024-05-19 09:37:50.322645,0,2,71,0,0,0,85,86,124,100,73,132.91,206,14.00,-46.00,-894.00
2024-05-19 09:37:50.435823,0,2,78,0,0,0,85,86,124,100,73,133.02,206,-14.00,9.00,-1137.00
2024-05-19 09:37:50.527348,0,2,84,0,0,0,85,86,123,100,73,133.02,206,-12.00,-27.00,-1072.00
2024-05-19 09:37:50.640866,-1,1,90,0,0,0,85,86,123,100,73,133.00,206,-15.00,-13.00,-890.00
2024-05-19 09:37:50.731761,0,1,96,0,0,0,85,86,123,100,73,133.02,206,24.00,-20.00,-1001.00
2024-05-19 09:37:50.845625,0,1,102,0,0,0,85,86,123,100,73,133.04,206,6.00,-17.00,-1151.00
2024-05-19 09:37:50.936323,0,1,108,0,0,0,85,86,123,100,73,132.97,206,-16.00,9.00,-901.00
2024-05-19 09:37:51.036724,0,1,114,0,0,0,85,86,122,100,73,132.95,206,-4.00,-57.00,-1105.00
2024-05-19 09:37:51.141148,0,1,120,0,0,0,85,86,122,100,73,132.97,207,4.00,-48.00,-941.00
2024-05-19 09:37:51.241512,-1,1,126,0,0,0,85,86,122,100,73,132.96,207,-100.00,40.00,-845.00
2024-05-19 09:37:51.342369,-1,1,132,0,0,0,85,87,122,100,73,132.94,207,-37.00,-23.00,-976.00
2024-05-19 09:37:51.462178,-1,1,138,0,0,0,85,87,123,100,73,133.07,207,-75.00,-18.00,-1031.00
2024-05-19 09:37:51.546342,-1,0,143,0,0,0,85,87,122,100,73,133.06,207,7.00,-21.00,-980.00
2024-05-19 09:37:51.664882,-1,0,149,0,0,0,85,87,123,100,73,133.09,207,56.00,-48.00,-1009.00
2024-05-19 09:37:51.750406,-1,0,155,0,0,0,85,87,124,100,73,132.98,207,-34.00,0.00,-1090.00
2024-05-19 09:37:51.869549,-1,0,161,0,0,0,85,87,124,100,73,133.02,207,4.00,0.00,-1110.00
2024-05-19 09:37:51.954401,-1,0,166,0,0,0,85,87,124,100,73,132.97,207,-63.00,45.00,-974.00
2024-05-19 09:37:52.077987,0,0,172,0,0,0,85,87,126,100,73,133.00,207,-48.00,58.00,-1121.00
2024-05-19 09:37:52.158442,0,0,177,0,0,0,85,87,127,100,73,132.97,208,-70.00,30.00,-1037.00
2024-05-19 09:37:52.279242,-1,0,-176,0,0,0,85,87,128,100,73,133.01,208,22.00,-7.00,-1019.00
2024-05-19 09:37:52.362667,0,0,-170,0,0,0,85,87,130,100,73,133.00,208,2.00,1.00,-1107.00
2024-05-19 09:37:52.485512,-1,0,-165,0,0,0,85,87,130,100,73,132.99,208,-22.00,36.00,-1086.00
2024-05-19 09:37:52.566316,-1,0,-160,0,0,0,85,87,131,100,73,133.05,208,14.00,37.00,-976.00
2024-05-19 09:37:52.668350,-1,0,-154,0,0,0,85,87,132,100,73,133.09,208,-116.00,35.00,-1016.00
2024-05-19 09:37:52.791425,-1,0,-149,0,0,0,85,87,133,100,73,133.06,208,20.00,9.00,-952.00
2024-05-19 09:37:52.872437,-1,0,-143,0,0,0,85,87,134,110,73,133.10,208,-81.00,27.00,-949.00
2024-05-19 09:37:52.923950,-1,1,-137,0,0,0,85,87,134,110,73,133.11,208,-51.00,1.00,-1013.00
2024-05-19 09:37:53.098644,-1,1,-132,0,0,0,85,87,134,110,73,133.04,208,38.00,-40.00,-910.00
2024-05-19 09:37:53.129973,-1,1,-126,0,0,0,85,87,134,110,73,132.99,209,63.00,-45.00,-947.00
2024-05-19 09:37:53.229330,-1,1,-120,0,0,0,85,87,134,110,73,133.06,209,-24.00,10.00,-1178.00
2024-05-19 09:37:53.405729,-1,2,-114,0,0,0,85,87,134,110,73,133.09,209,-49.00,12.00,-923.00
2024-05-19 09:37:53.433235,-1,1,-108,0,0,0,85,87,133,110,73,133.01,209,38.00,-8.00,-924.00
2024-05-19 09:37:53.610991,-2,1,-102,0,0,0,85,87,133,110,73,133.10,209,-30.00,21.00,-951.00
2024-05-19 09:37:53.637231,-2,0,-96,0,0,0,85,87,133,110,73,133.08,209,-51.00,12.00,-917.00
2024-05-19 09:37:53.816407,-2,0,-91,0,0,0,85,87,132,110,72,133.13,209,-1.00,-15.00,-1086.00
2024-05-19 09:37:53.841250,-1,0,-85,0,0,0,85,87,132,100,72,133.07,209,-22.00,11.00,-1124.00
2024-05-19 09:37:54.019852,-1,0,-79,0,0,0,85,87,132,100,72,133.11,209,-3.00,24.00,-833.00
2024-05-19 09:37:54.045819,-1,0,-73,0,0,0,85,87,132,100,72,133.15,209,-82.00,30.00,-962.00
2024-05-19 09:37:54.224686,-1,0,-67,0,0,0,85,87,132,100,72,133.17,210,-115.00,64.00,-1050.00
2024-05-19 09:37:54.249800,-2,0,-61,0,0,0,85,87,132,100,72,133.14,210,-89.00,46.00,-989.00
2024-05-19 09:37:54.351268,-2,-1,-54,0,0,0,85,87,133,100,72,133.13,210,71.00,-10.00,-1059.00
2024-05-19 09:37:54.532269,-1,-1,-48,0,0,0,85,87,133,100,72,133.13,210,27.00,20.00,-993.00
2024-05-19 09:37:54.555248,-1,-1,-42,0,0,0,85,87,133,100,72,133.19,210,18.00,-20.00,-1052.00
2024-05-19 09:37:54.736782,-1,-1,-35,0,0,0,85,87,133,100,72,133.13,210,-29.00,44.00,-1015.00
2024-05-19 09:37:54.759203,0,-1,-29,0,0,0,85,87,134,100,72,133.10,210,13.00,22.00,-1049.00
2024-05-19 09:37:54.951559,0,0,-23,0,0,0,85,87,134,100,72,133.13,210,-3.00,9.00,-952.00
2024-05-19 09:37:54.964697,0,0,-17,0,0,0,85,87,135,100,72,133.13,210,68.00,-2.00,-1035.00
2024-05-19 09:37:55.065242,0,0,-13,0,0,0,85,87,136,100,72,133.16,210,-27.00,40.00,-1112.00
2024-05-19 09:37:55.253999,0,0,-9,0,0,0,85,87,137,110,72,133.12,211,24.00,48.00,-858.00
2024-05-19 09:37:55.269142,0,0,-7,0,0,0,85,87,137,110,72,133.22,211,2.00,21.00,-1043.00
2024-05-19 09:37:55.371140,0,0,-5,0,0,0,86,87,137,110,72,133.09,211,2.00,52.00,-1062.00
2024-05-19 09:37:55.555769,1,0,-3,0,0,0,86,87,139,110,72,133.15,211,38.00,-31.00,-855.00
2024-05-19 09:37:55.575495,1,0,-2,0,0,0,86,87,139,110,72,133.17,211,6.00,67.00,-1140.00
2024-05-19 09:37:55.677181,0,0,-1,0,0,0,86,87,140,110,72,133.19,211,8.00,43.00,-958.00
2024-05-19 09:37:55.871270,1,0,0,0,0,0,86,87,140,110,72,133.20,211,-110.00,89.00,-896.00
2024-05-19 09:37:55.881149,0,-1,0,0,0,0,86,87,140,110,72,133.21,211,21.00,50.00,-949.00
2024-05-19 09:37:56.071733,0,-1,0,0,0,0,86,87,140,110,72,133.20,211,17.00,45.00,-958.00
2024-05-19 09:37:56.085128,0,-1,1,0,0,0,86,87,140,110,72,133.18,211,-39.00,7.00,-842.00
2024-05-19 09:37:56.277128,1,0,1,0,0,0,86,87,141,110,72,133.24,212,40.00,-4.00,-1091.00
2024-05-19 09:37:56.289540,1,0,2,0,0,0,86,87,142,110,72,133.24,212,-20.00,12.00,-918.00
2024-05-19 09:37:56.391212,1,0,2,0,0,0,85,87,143,110,72,133.21,212,120.00,-29.00,-1159.00
2024-05-19 09:37:56.580693,2,0,3,0,0,0,85,87,144,110,72,133.22,212,60.00,-16.00,-993.00
2024-05-19 09:37:56.595189,2,0,3,0,0,0,85,87,144,110,72,133.21,212,2.00,3.00,-998.00
2024-05-19 09:37:56.697192,2,0,3,0,0,0,85,87,146,110,72,133.19,212,22.00,11.00,-881.00
2024-05-19 09:37:56.748259,2,0,3,0,0,0,85,87,146,110,72,133.24,212,17.00,21.00,-1006.00
2024-05-19 09:37:56.890246,2,0,2,0,0,0,85,87,147,110,72,133.22,212,94.00,-61.00,-857.00
2024-05-19 09:37:56.952229,1,0,2,0,0,0,85,87,147,110,72,133.27,212,30.00,22.00,-973.00
2024-05-19 09:37:57.092994,1,0,2,0,0,0,85,87,148,110,72,133.25,212,67.00,-15.00,-808.00
2024-05-19 09:37:57.157238,1,0,2,0,0,0,85,87,147,110,72,133.33,213,95.00,-2.00,-959.00
2024-05-19 09:37:57.296956,1,0,3,0,0,0,85,87,149,110,72,133.25,213,-7.00,13.00,-865.00
2024-05-19 09:37:57.361270,1,0,3,0,0,0,84,87,149,110,72,133.23,213,1.00,-7.00,-1053.00
2024-05-19 09:37:57.502803,1,0,3,0,0,0,84,87,149,110,72,133.26,213,109.00,-11.00,-1032.00
2024-05-19 09:37:57.565359,1,0,3,0,0,0,84,87,148,110,72,133.20,213,43.00,-17.00,-955.00
2024-05-19 09:37:57.667082,1,0,2,0,0,0,84,87,148,110,72,133.14,213,-66.00,38.00,-973.00
2024-05-19 09:37:57.810084,0,0,0,0,0,0,84,87,147,110,72,133.24,213,24.00,14.00,-935.00
2024-05-19 09:37:57.873575,0,0,-5,0,0,0,84,87,146,110,72,133.14,213,-18.00,-5.00,-855.00
2024-05-19 09:37:57.972975,0,0,-12,0,0,0,84,87,145,110,72,133.20,213,10.00,3.00,-1066.00
2024-05-19 09:37:58.120228,0,0,-18,0,0,0,84,87,144,110,72,133.21,213,87.00,20.00,-886.00
2024-05-19 09:37:58.176990,0,0,-24,0,0,0,84,87,143,110,72,133.16,214,-37.00,27.00,-1092.00
2024-05-19 09:37:58.320998,0,0,-31,0,0,1,84,87,142,110,72,133.21,214,16.00,20.00,-1059.00
2024-05-19 09:37:58.381004,0,0,-38,0,0,0,85,87,142,110,72,133.18,214,5.00,16.00,-1097.00
2024-05-19 09:37:58.525474,0,0,-44,0,0,0,85,87,141,110,72,133.15,214,-44.00,24.00,-1099.00
2024-05-19 09:37:58.585039,-1,-1,-51,0,0,0,85,87,141,110,72,133.17,214,-60.00,50.00,-970.00
2024-05-19 09:37:58.687023,-1,0,-57,0,0,0,85,87,141,110,72,133.21,214,-21.00,4.00,-1042.00
2024-05-19 09:37:58.832639,0,0,-63,0,0,0,85,87,141,110,71,133.21,214,-56.00,54.00,-991.00
2024-05-19 09:37:58.891017,0,0,-70,0,0,0,85,87,141,110,71,133.20,214,-85.00,64.00,-1038.00
2024-05-19 09:37:59.037612,-1,0,-76,0,0,0,85,87,142,110,71,133.18,214,-39.00,4.00,-916.00
2024-05-19 09:37:59.095416,-1,0,-82,0,0,0,85,87,143,110,71,133.15,214,-36.00,-17.00,-972.00
2024-05-19 09:37:59.247679,-1,1,-88,0,0,0,85,87,144,110,71,133.17,215,49.00,-10.00,-953.00
2024-05-19 09:37:59.299819,-1,1,-93,0,0,0,85,87,144,110,71,133.21,215,-47.00,37.00,-933.00
2024-05-19 09:37:59.401036,-1,1,-99,0,0,0,85,87,143,110,71,133.27,215,-76.00,34.00,-967.00
2024-05-19 09:37:59.551536,-1,0,-104,0,0,0,85,87,144,110,71,133.25,215,8.00,33.00,-1173.00
2024-05-19 09:37:59.605010,-1,0,-110,0,0,0,85,87,143,110,71,133.24,215,-30.00,32.00,-960.00
2024-05-19 09:37:59.758687,-1,0,-116,0,0,0,85,87,142,110,71,133.18,215,14.00,-2.00,-955.00
2024-05-19 09:37:59.808916,0,0,-121,0,0,0,85,87,142,110,71,133.21,215,-47.00,40.00,-1093.00
2024-05-19 09:37:59.959699,0,0,-127,0,0,0,85,87,141,110,71,133.14,215,1.00,32.00,-1259.00
2024-05-19 09:38:00.013203,0,0,-133,0,0,0,85,87,140,110,71,133.26,215,0.00,-28.00,-1020.00
2024-05-19 09:38:00.163843,0,0,-139,0,0,0,85,87,139,110,71,133.21,215,-27.00,11.00,-922.00
2024-05-19 09:38:00.217284,0,0,-145,0,0,0,85,87,138,110,71,133.18,216,-54.00,11.00,-1102.00
2024-05-19 09:38:00.267828,0,0,-151,0,0,0,85,87,138,110,71,133.13,216,-22.00,30.00,-1107.00
2024-05-19 09:38:00.472283,0,0,-156,0,0,0,85,87,137,110,71,133.16,216,19.00,5.00,-1067.00
2024-05-19 09:38:00.523031,0,0,-162,0,0,0,85,87,137,110,71,133.13,216,62.00,-54.00,-962.00
2024-05-19 09:38:00.683135,0,0,-169,0,0,0,85,87,136,110,71,133.22,216,-68.00,34.00,-1072.00
2024-05-19 09:38:00.727093,0,0,-175,0,0,0,85,87,136,110,71,133.16,216,-21.00,13.00,-1070.00
2024-05-19 09:38:00.880583,0,0,178,0,0,0,85,87,136,110,71,133.29,216,22.00,-14.00,-999.00
2024-05-19 09:38:00.881238,0,0,172,0,0,0,85,87,136,110,71,133.12,216,-23.00,-7.00,-982.00
2024-05-19 09:38:00.982768,0,0,165,0,0,0,85,87,136,100,71,133.23,216,-33.00,30.00,-894.00
2024-05-19 09:38:01.090155,0,0,159,0,0,0,85,87,136,100,71,133.17,216,-18.00,9.00,-982.00
2024-05-19 09:38:01.185768,0,0,152,0,0,0,85,87,136,110,71,133.25,217,99.00,-46.00,-1068.00
2024-05-19 09:38:01.291138,0,0,146,0,0,0,85,87,136,110,71,133.12,217,-25.00,1.00,-985.00
2024-05-19 09:38:01.389866,0,0,140,0,0,0,85,87,136,110,71,133.12,217,-42.00,6.00,-1175.00
2024-05-19 09:38:01.506914,0,0,133,0,0,0,85,87,135,110,71,133.13,217,69.00,-35.00,-989.00
2024-05-19 09:38:01.593841,0,0,127,0,0,0,85,87,134,100,71,133.21,217,-41.00,-4.00,-916.00
2024-05-19 09:38:01.695863,0,0,121,0,0,0,85,87,135,100,71,133.22,217,79.00,-60.00,-939.00
2024-05-19 09:38:01.802548,0,0,115,0,0,0,85,87,135,100,71,133.20,217,14.00,-21.00,-983.00
2024-05-19 09:38:01.899997,0,1,108,0,0,0,85,87,135,100,71,133.17,217,25.00,-26.00,-1128.00
2024-05-19 09:38:02.007059,0,1,102,0,0,0,85,87,135,100,71,133.20,217,-39.00,10.00,-1125.00
2024-05-19 09:38:02.103760,0,1,96,0,0,0,85,87,134,110,71,133.12,217,0.00,-12.00,-965.00
2024-05-19 09:38:02.211720,0,1,90,0,0,0,85,87,134,110,71,133.11,218,71.00,-38.00,-886.00
2024-05-19 09:38:02.307808,0,1,83,0,0,0,85,87,134,110,71,133.19,218,46.00,-44.00,-1010.00
2024-05-19 09:38:02.409655,1,0,77,0,0,0,84,87,134,100,71,133.17,218,0.00,30.00,-907.00
2024-05-19 09:38:02.520334,1,0,71,0,0,0,84,87,135,100,71,133.19,218,-84.00,34.00,-989.00
2024-05-19 09:38:02.613812,1,0,65,0,0,0,84,87,135,100,71,133.21,218,-29.00,36.00,-870.00
2024-05-19 09:38:02.724570,0,0,59,0,0,0,84,87,135,100,71,133.14,218,84.00,-42.00,-963.00
2024-05-19 09:38:02.817776,0,0,52,0,0,0,84,87,136,100,71,133.18,218,-61.00,6.00,-1091.00
2024-05-19 09:38:02.929750,0,0,46,0,0,0,84,87,136,110,71,133.24,218,74.00,-14.00,-887.00
2024-05-19 09:38:03.022135,0,0,40,0,0,0,84,87,135,110,71,133.29,218,-7.00,28.00,-891.00
2024-05-19 09:38:03.124435,0,0,33,0,0,0,84,87,135,110,71,133.25,218,54.00,-8.00,-999.00
2024-05-19 09:38:03.236135,0,-1,27,0,0,0,84,87,135,110,71,133.16,219,-24.00,50.00,-928.00
2024-05-19 09:38:03.327714,0,-1,21,0,0,0,84,87,135,110,71,133.15,219,2.00,-9.00,-1120.00
2024-05-19 09:38:03.429718,0,0,12,0,0,0,86,87,135,100,71,133.18,219,21.00,-27.00,-927.00
2024-05-19 09:38:03.543023,0,0,9,0,0,0,86,87,135,100,71,133.20,219,17.00,35.00,-1050.00
2024-05-19 09:38:03.633735,0,0,8,0,0,0,86,87,136,100,71,133.18,219,22.00,-1.00,-877.00
2024-05-19 09:38:03.749460,0,-1,6,0,0,0,86,87,136,100,71,133.19,219,86.00,23.00,-980.00
2024-05-19 09:38:03.838575,0,-1,5,0,0,0,86,87,136,100,71,133.21,219,-48.00,50.00,-1084.00
2024-05-19 09:38:03.956612,0,-1,5,0,0,0,86,87,137,110,71,133.15,219,-10.00,40.00,-965.00
2024-05-19 09:38:04.043454,0,-1,4,0,0,0,86,87,139,110,71,133.12,219,75.00,-31.00,-791.00
2024-05-19 09:38:04.159547,0,-1,5,0,0,0,86,87,140,110,71,133.18,220,-81.00,68.00,-1016.00
2024-05-19 09:38:04.248303,0,-1,5,0,0,0,86,87,140,110,71,133.20,220,12.00,13.00,-1167.00
2024-05-19 09:38:04.349202,0,-1,5,0,0,0,86,87,141,110,71,133.17,220,-27.00,31.00,-967.00
2024-05-19 09:38:04.452312,0,-1,5,0,0,0,86,86,141,110,71,133.16,220,-72.00,49.00,-918.00
2024-05-19 09:38:04.553475,0,-1,5,0,0,0,86,86,141,110,71,133.28,220,47.00,-18.00,-917.00
2024-05-19 09:38:04.658713,0,-1,5,0,0,0,86,86,140,110,71,133.18,220,126.00,-17.00,-860.00
2024-05-19 09:38:04.756862,-1,-1,5,0,0,0,86,86,139,110,71,133.17,220,0.00,19.00,-1115.00
2024-05-19 09:38:04.807706,-1,-1,5,0,0,0,86,86,138,110,70,133.21,220,-18.00,37.00,-930.00
2024-05-19 09:38:04.977010,0,-1,5,0,0,0,86,86,138,110,70,133.19,220,59.00,-39.00,-890.00
2024-05-19 09:38:05.011772,0,-1,4,0,0,0,86,86,136,110,70,133.19,220,-34.00,15.00,-1049.00
2024-05-19 09:38:05.113700,0,-1,4,0,0,0,86,86,136,110,70,133.23,221,1.00,-12.00,-1068.00
2024-05-19 09:38:05.283919,-1,-1,5,0,0,0,86,86,135,110,70,133.15,221,-103.00,64.00,-1018.00
2024-05-19 09:38:05.318471,-1,-1,5,0,0,0,86,86,135,110,70,133.19,221,22.00,9.00,-973.00
2024-05-19 09:38:05.419658,-1,-1,5,0,0,0,85,87,134,110,70,133.16,221,-38.00,25.00,-1027.00
2024-05-19 09:38:05.521908,-1,-1,5,0,0,0,85,87,133,110,70,133.12,221,46.00,12.00,-1045.00
2024-05-19 09:38:05.696089,-1,-1,5,0,0,0,85,87,133,110,70,133.13,221,58.00,-23.00,-959.00
2024-05-19 09:38:05.725728,0,-1,5,0,0,0,85,87,133,110,70,133.15,221,-56.00,81.00,-844.00
2024-05-19 09:38:05.902199,0,-1,5,0,0,0,85,87,133,100,70,133.14,221,-47.00,53.00,-1126.00
2024-05-19 09:38:05.929607,0,-1,5,0,0,0,85,87,133,100,70,133.13,221,-13.00,14.00,-905.00
2024-05-19 09:38:06.044873,0,0,5,0,0,0,85,87,133,100,70,133.13,221,8.00,17.00,-999.00
2024-05-19 09:38:06.133613,0,0,5,0,0,0,85,87,132,100,70,133.22,222,28.00,-19.00,-1008.00
2024-05-19 09:38:06.308584,0,0,4,0,0,-3,85,87,136,110,70,133.32,222,63.00,5.00,-1524.00
2024-05-19 09:38:06.337669,0,-6,4,0,1,-10,85,87,147,110,70,133.30,222,42.00,494.00,-1679.00
2024-05-19 09:38:06.513813,0,-81,4,0,-2,-11,85,87,6553,120,70,133.37,222,26.00,-36.00,-1678.00
2024-05-19 09:38:06.541554,1,150,6,0,-8,0,85,87,505,130,70,133.48,222,-71.00,708.00,-1013.00
2024-05-19 09:38:06.717278,1,33,2,0,-3,12,85,87,165,120,70,133.63,222,-43.00,502.00,-1068.00
2024-05-19 09:38:06.748746,0,-7,3,0,-1,10,85,87,136,110,70,133.20,222,92.00,-161.00,-1705.00
2024-05-19 09:38:06.847754,0,2,3,0,-2,6,85,87,128,100,70,133.14,222,-40.00,68.00,-1370.00
2024-05-19 09:38:07.024484,0,3,4,0,-1,2,85,87,122,100,70,133.00,222,21.00,23.00,-1416.00
2024-05-19 09:38:07.051759,0,1,5,0,0,0,85,87,120,100,70,132.91,222,-6.00,13.00,-1238.00
2024-05-19 09:38:07.153596,1,0,5,0,0,-1,85,87,120,100,70,133.00,223,49.00,-1.00,-1067.00
2024-05-19 09:38:07.331788,1,0,5,0,0,-1,85,87,122,100,70,133.01,223,-30.00,60.00,-1101.00
2024-05-19 09:38:07.357614,1,1,5,0,0,-1,85,87,122,100,70,133.08,223,55.00,-9.00,-956.00
2024-05-19 09:38:07.538437,0,1,5,0,0,-1,85,87,123,100,70,133.07,223,-9.00,10.00,-1000.00
2024-05-19 09:38:07.562459,0,1,5,0,0,-1,85,87,124,100,70,133.10,223,30.00,34.00,-964.00
2024-05-19 09:38:07.742140,1,1,5,0,0,0,85,87,125,100,70,133.16,223,33.00,0.00,-1088.00
2024-05-19 09:38:07.766655,1,0,5,0,0,0,85,87,126,100,70,133.15,223,30.00,-5.00,-920.00
2024-05-19 09:38:07.947565,1,0,5,0,0,0,85,87,127,100,70,133.05,223,43.00,5.00,-1005.00
2024-05-19 09:38:07.970422,1,0,5,0,0,0,85,87,128,100,70,133.14,223,26.00,-38.00,-997.00
2024-05-19 09:38:08.152877,0,0,4,0,0,0,85,87,128,100,70,133.14,223,-21.00,35.00,-1070.00
2024-05-19 09:38:08.174495,0,0,4,0,0,0,85,87,129,100,70,133.10,224,47.00,2.00,-954.00
2024-05-19 09:38:08.357071,0,0,4,0,0,0,85,87,129,100,70,133.15,224,144.00,-40.00,-936.00
2024-05-19 09:38:08.357139,0,0,4,0,0,0,85,87,131,100,70,133.16,224,62.00,4.00,-774.00
2024-05-19 09:38:08.560549,0,0,4,0,0,0,85,86,132,100,70,133.15,224,-32.00,62.00,-839.00
2024-05-19 09:38:08.582549,0,0,4,0,0,0,85,86,133,110,70,133.17,224,15.00,29.00,-938.00
2024-05-19 09:38:08.765229,0,-1,4,0,0,0,85,86,134,110,70,133.20,224,8.00,13.00,-852.00
2024-05-19 09:38:08.786530,0,-1,4,0,0,0,85,86,135,110,69,133.18,224,16.00,6.00,-1032.00
2024-05-19 09:38:08.837386,0,-1,4,0,0,0,85,86,135,110,69,133.19,224,63.00,14.00,-998.00
2024-05-19 09:38:08.970208,0,0,4,0,0,0,85,86,136,110,69,133.13,224,72.00,-30.00,-906.00
2024-05-19 09:38:09.041635,1,0,4,0,0,0,85,86,137,110,69,133.18,224,-125.00,63.00,-929.00
2024-05-19 09:38:09.143529,1,0,4,0,0,0,85,86,137,110,69,133.22,225,26.00,15.00,-1122.00
2024-05-19 09:38:09.277370,1,0,4,0,0,0,85,86,138,110,69,133.20,225,-43.00,20.00,-911.00
2024-05-19 09:38:09.347552,1,0,5,0,0,0,85,86,137,110,69,133.20,225,110.00,-27.00,-1010.00
2024-05-19 09:38:09.482097,0,0,5,0,0,0,84,87,135,110,69,133.21,225,55.00,15.00,-1018.00
2024-05-19 09:38:09.551482,0,0,5,0,0,0,84,87,134,110,69,133.17,225,66.00,-1.00,-1191.00
2024-05-19 09:38:09.653552,0,0,5,0,0,0,84,87,134,110,69,133.15,225,5.00,1.00,-1038.00
2024-05-19 09:38:09.789491,0,0,5,0,0,0,84,87,133,110,69,133.14,225,58.00,25.00,-1031.00
2024-05-19 09:38:09.857617,1,0,5,0,0,0,84,87,132,110,69,133.13,225,-12.00,42.00,-1032.00
2024-05-19 09:38:09.995203,1,0,5,0,0,0,84,87,132,110,69,133.12,225,63.00,35.00,-1309.00
2024-05-19 09:38:10.061479,0,0,5,0,0,0,84,87,131,110,69,133.10,225,81.00,-34.00,-942.00
2024-05-19 09:38:10.199445,0,0,5,0,0,0,84,87,131,110,69,133.13,226,9.00,-5.00,-847.00
2024-05-19 09:38:10.265502,0,0,5,0,0,0,84,87,131,110,69,133.18,226,45.00,-5.00,-1036.00
2024-05-19 09:38:10.404033,0,0,5,0,0,0,84,87,131,110,69,133.19,226,-15.00,28.00,-869.00
2024-05-19 09:38:10.469482,1,-1,5,0,0,0,85,87,131,110,69,133.10,226,-39.00,41.00,-1104.00
2024-05-19 09:38:10.608658,1,-1,5,0,0,0,85,87,131,110,69,133.12,226,0.00,59.00,-1029.00
2024-05-19 09:38:10.673373,1,-1,5,0,0,0,85,87,130,110,69,133.12,226,-17.00,40.00,-1024.00
2024-05-19 09:38:10.813723,1,-1,5,0,0,0,85,87,130,110,69,133.12,226,92.00,-20.00,-909.00
2024-05-19 09:38:10.877602,1,-1,4,0,0,0,85,87,129,110,69,133.14,226,35.00,5.00,-914.00
2024-05-19 09:38:11.019722,0,0,4,0,0,0,85,87,128,110,69,133.16,226,-41.00,39.00,-854.00
2024-05-19 09:38:11.081717,1,-1,4,0,0,0,85,87,128,110,69,133.06,226,-12.00,20.00,-1172.00
2024-05-19 09:38:11.223000,1,-1,4,0,0,0,85,87,128,110,69,133.16,227,47.00,-9.00,-1020.00
2024-05-19 09:38:11.285431,1,-1,4,0,0,0,85,87,127,100,69,133.09,227,9.00,38.00,-1109.00
2024-05-19 09:38:11.428357,0,-1,4,0,0,0,85,87,126,100,69,133.04,227,40.00,23.00,-1090.00
2024-05-19 09:38:11.489419,0,-1,4,0,0,0,85,86,127,100,69,133.15,227,46.00,3.00,-920.00
2024-05-19 09:38:11.634836,0,-1,4,0,0,0,85,86,127,100,69,133.09,227,66.00,3.00,-907.00
2024-05-19 09:38:11.693359,0,0,4,0,0,0,85,86,127,100,69,133.13,227,13.00,37.00,-997.00
2024-05-19 09:38:11.838925,0,0,4,0,0,0,85,86,127,100,69,133.15,227,-33.00,35.00,-981.00
2024-05-19 09:38:11.897411,0,0,4,0,0,0,85,86,127,100,69,133.15,227,-2.00,36.00,-926.00
2024-05-19 09:38:12.042662,0,0,4,0,0,0,85,86,126,100,69,133.17,227,-17.00,30.00,-1006.00
2024-05-19 09:38:12.101732,0,0,4,0,0,0,85,86,127,100,69,133.17,227,84.00,-25.00,-1009.00
2024-05-19 09:38:12.248710,0,0,4,0,0,0,85,86,128,100,69,133.13,228,0.00,23.00,-966.00
2024-05-19 09:38:12.305357,0,0,4,0,0,0,85,86,128,100,69,133.15,228,-1.00,24.00,-1195.00
2024-05-19 09:38:12.407380,0,0,4,0,0,0,85,86,129,100,69,133.16,228,83.00,-13.00,-1106.00
2024-05-19 09:38:12.554543,0,0,4,0,0,0,85,87,130,100,69,133.18,228,-2.00,44.00,-1015.00
2024-05-19 09:38:12.611304,0,-1,4,0,0,0,85,87,131,100,69,133.15,228,33.00,38.00,-1014.00
2024-05-19 09:38:12.665802,0,-1,4,0,0,0,85,87,132,110,69,133.18,228,-61.00,71.00,-917.00
2024-05-19 09:38:12.764386,0,0,4,0,0,0,85,87,132,110,69,133.26,228,-35.00,19.00,-1405.00
2024-05-19 09:38:12.965425,0,1,4,0,0,-5,85,87,138,110,69,133.42,228,27.00,159.00,-1574.00
2024-05-19 09:38:12.968177,0,19,4,0,1,-11,85,87,162,120,69,133.53,228,26.00,35.00,-1869.00
2024-05-19 09:38:13.168634,0,121,4,-1,10,-9,85,87,521,130,69,133.56,228,48.00,816.00,-1173.00
2024-05-19 09:38:13.172219,3,-112,4,-1,11,6,85,87,6553,130,69,133.56,229,21.00,740.00,-827.00
2024-05-19 09:38:13.274348,0,-7,8,0,5,12,85,87,146,120,69,133.34,229,10.00,418.00,-963.00
2024-05-19 09:38:13.379124,0,8,8,0,7,10,85,87,137,110,69,133.14,229,36.00,32.00,-1483.00
2024-05-19 09:38:13.479507,0,-6,7,0,8,6,85,87,128,100,69,133.14,229,35.00,-54.00,-1488.00
