TS,pitch,roll,yaw,vgx,vgy,vgz,templ,temph,tof,h,bat,baro,time,agx,agy,agz
2024-05-19 09:38:57.916798,0,0,-3,0,0,0,88,89,10,0,65,131.68,252,-3.00,-7.00,-999.00
2024-05-19 09:38:57.950681,0,0,-3,0,0,0,88,89,10,0,65,131.73,252,-6.00,-9.00,-1000.00
2024-05-19 09:38:58.121599,0,0,-3,0,0,0,88,89,10,0,65,131.68,252,-4.00,-8.00,-998.00
2024-05-19 09:38:58.154665,0,0,-3,0,0,0,88,89,10,0,65,131.66,252,-4.00,-7.00,-1000.00
2024-05-19 09:38:58.326227,0,0,-3,0,0,0,88,89,10,0,65,131.67,252,-6.00,-10.00,-1000.00
2024-05-19 09:38:58.358588,0,0,-3,0,0,0,88,89,10,0,65,131.65,252,-5.00,-8.00,-1001.00
2024-05-19 09:38:58.531085,0,0,-3,0,0,0,88,89,10,0,65,131.66,252,-7.00,-9.00,-999.00
2024-05-19 09:38:58.562592,0,0,-3,0,0,0,88,89,10,0,65,131.68,252,-5.00,-7.00,-1001.00
2024-05-19 09:38:58.735976,0,0,-3,0,0,0,88,89,10,0,65,131.70,252,-4.00,-7.00,-1000.00
2024-05-19 09:38:58.766596,0,0,-3,0,0,0,87,90,10,0,65,131.71,252,-7.00,-9.00,-1001.00
2024-05-19 09:38:58.940487,0,0,-3,0,0,0,87,90,10,0,65,131.71,252,-3.00,-8.00,-999.00
2024-05-19 09:38:58.970594,0,0,-3,0,0,0,87,90,10,0,65,131.67,252,-4.00,-7.00,-1000.00
2024-05-19 09:38:59.145452,0,0,-3,0,0,0,87,90,10,0,65,131.66,252,-5.00,-8.00,-999.00
2024-05-19 09:38:59.174536,0,0,-3,0,0,0,87,90,10,0,65,131.58,252,-4.00,-9.00,-999.00
2024-05-19 09:38:59.350351,0,0,-3,0,0,0,87,90,10,0,65,131.61,252,-2.00,-9.00,-1002.00
2024-05-19 09:38:59.378471,0,0,-3,0,0,0,87,90,10,0,65,131.65,252,-6.00,-9.00,-1000.00
2024-05-19 09:38:59.555213,0,0,-3,0,0,0,87,90,10,0,65,131.63,252,-6.00,-9.00,-999.00
2024-05-19 09:38:59.582615,0,0,-3,0,0,0,87,90,10,0,65,131.73,252,-5.00,-8.00,-998.00
2024-05-19 09:38:59.633709,0,0,-3,0,0,0,87,90,10,0,65,131.65,252,-5.00,-7.00,-1002.00
2024-05-19 09:38:59.786518,0,0,-3,0,0,0,88,90,10,0,65,131.66,252,-5.00,-10.00,-1000.00
2024-05-19 09:38:59.888579,0,0,-3,0,0,0,88,90,10,0,65,131.67,252,-4.00,-9.00,-1002.00
2024-05-19 09:38:59.939633,0,0,-3,0,0,0,88,90,10,0,65,131.67,252,10.00,-10.00,-1003.00
2024-05-19 09:39:00.066948,0,0,-3,0,0,0,88,90,10,0,65,131.67,252,-17.00,-12.00,-1003.00
2024-05-19 09:39:00.143591,0,0,-3,0,0,0,88,90,10,0,65,131.67,252,-35.00,8.00,-991.00
2024-05-19 09:39:00.271783,0,0,-2,0,0,0,88,90,10,0,65,131.67,252,-83.00,52.00,-954.00
2024-05-19 09:39:00.347755,0,0,0,0,0,0,88,90,10,0,65,131.67,252,107.00,11.00,-1086.00
2024-05-19 09:39:00.476568,0,0,0,0,0,0,88,90,10,0,65,131.67,252,-35.00,26.00,-1118.00
2024-05-19 09:39:00.552421,0,-1,0,0,0,-1,88,90,10,0,65,131.67,252,-3.00,-17.00,-1245.00
2024-05-19 09:39:00.681333,0,0,0,0,0,-4,88,90,10,0,65,131.67,252,71.00,12.00,-1272.00
2024-05-19 09:39:00.756431,0,0,0,0,0,-6,88,90,14,0,65,131.83,252,-23.00,60.00,-1257.00
2024-05-19 09:39:00.886136,0,-1,0,0,0,-7,88,90,23,10,65,131.92,253,6.00,35.00,-1082.00
2024-05-19 09:39:00.960397,0,-1,0,0,0,-7,88,90,32,20,65,132.04,253,-23.00,-7.00,-996.00
2024-05-19 09:39:01.062471,0,0,0,0,0,-7,88,90,39,30,65,132.12,253,22.00,20.00,-913.00
2024-05-19 09:39:01.164385,0,0,0,0,0,-7,88,90,45,30,65,132.22,253,22.00,-46.00,-882.00
2024-05-19 09:39:01.298195,0,0,0,0,0,-6,88,90,48,40,65,132.36,253,70.00,-45.00,-819.00
2024-05-19 09:39:01.368571,0,0,0,0,0,-4,88,90,53,40,65,132.39,253,38.00,-24.00,-758.00
2024-05-19 09:39:01.500556,0,1,0,0,0,-3,88,90,57,50,65,132.33,253,49.00,-43.00,-966.00
2024-05-19 09:39:01.572338,1,1,0,0,0,-3,88,90,60,50,65,132.36,253,-15.00,60.00,-898.00
2024-05-19 09:39:01.705822,1,2,0,0,0,-2,88,90,63,50,65,132.54,253,32.00,8.00,-943.00
2024-05-19 09:39:01.777162,1,1,0,0,0,-1,88,90,64,50,65,132.40,253,44.00,-74.00,-985.00
2024-05-19 09:39:01.910121,1,1,0,0,0,-1,88,90,65,50,65,132.36,254,-57.00,20.00,-979.00
2024-05-19 09:39:01.980377,1,1,0,0,0,0,88,90,66,50,65,132.49,254,15.00,-35.00,-1021.00
2024-05-19 09:39:02.114933,1,2,0,0,0,0,88,90,67,50,65,132.42,254,-97.00,32.00,-945.00
2024-05-19 09:39:02.185090,1,1,0,0,0,-1,88,90,67,60,65,132.46,254,-10.00,22.00,-1027.00
2024-05-19 09:39:02.319754,1,1,0,0,0,-1,88,90,69,60,65,132.53,254,38.00,-8.00,-996.00
2024-05-19 09:39:02.388510,0,1,0,0,0,-1,88,90,69,60,65,132.59,254,55.00,-26.00,-1036.00
2024-05-19 09:39:02.524536,0,0,0,0,0,-1,88,90,70,60,65,132.57,254,8.00,-47.00,-905.00
2024-05-19 09:39:02.592312,0,0,0,0,0,-1,88,90,71,60,65,132.53,254,-68.00,9.00,-1049.00
2024-05-19 09:39:02.731722,0,1,0,0,0,-1,88,90,72,60,65,132.50,254,36.00,-65.00,-843.00
2024-05-19 09:39:02.796284,-1,1,0,0,0,0,88,90,72,60,65,132.52,254,-36.00,-44.00,-1007.00
2024-05-19 09:39:02.935902,-1,2,0,0,0,0,88,90,72,60,65,132.54,255,36.00,-41.00,-947.00
2024-05-19 09:39:03.000289,-1,2,0,0,0,0,88,90,73,60,65,132.59,255,-65.00,-6.00,-1192.00
2024-05-19 09:39:03.102401,0,2,0,0,0,0,88,90,74,60,65,132.59,255,-49.00,-38.00,-1040.00
2024-05-19 09:39:03.241301,0,2,0,0,0,-1,88,90,75,60,65,132.54,255,-58.00,-29.00,-988.00
2024-05-19 09:39:03.306278,-1,1,0,0,0,-1,88,90,75,60,65,132.59,255,-40.00,5.00,-980.00
2024-05-19 09:39:03.448079,-1,2,0,0,0,-1,88,90,76,60,65,132.58,255,-6.00,-23.00,-958.00
2024-05-19 09:39:03.459485,-1,2,0,0,0,0,88,90,76,60,65,132.56,255,-46.00,-10.00,-1001.00
2024-05-19 09:39:03.561943,-1,2,0,0,0,-1,88,90,77,60,65,132.52,255,-19.00,13.00,-777.00
2024-05-19 09:39:03.663392,0,2,0,0,0,0,88,90,77,60,65,132.56,255,-158.00,64.00,-977.00
2024-05-19 09:39:03.855708,0,2,0,0,0,0,88,90,78,60,65,132.50,255,6.00,-55.00,-955.00
2024-05-19 09:39:03.867538,0,2,0,0,0,0,88,90,78,70,65,132.50,256,5.00,-59.00,-869.00
2024-05-19 09:39:04.062290,0,2,0,0,0,0,88,90,79,70,65,132.55,256,-31.00,-54.00,-1116.00
2024-05-19 09:39:04.071490,0,3,0,0,0,0,88,90,78,60,65,132.58,256,127.00,-88.00,-952.00
2024-05-19 09:39:04.267900,0,3,0,0,0,0,88,90,78,60,65,132.50,256,-9.00,-13.00,-909.00
2024-05-19 09:39:04.275381,0,3,0,0,0,0,88,90,78,60,65,132.58,256,17.00,-38.00,-1067.00
2024-05-19 09:39:04.472526,0,3,0,0,0,0,88,90,77,60,65,132.55,256,-12.00,-41.00,-964.00
2024-05-19 09:39:04.479445,0,3,0,0,0,0,88,90,77,60,65,132.57,256,11.00,-41.00,-984.00
2024-05-19 09:39:04.581458,0,2,0,0,0,0,88,90,77,60,65,132.64,256,32.00,-35.00,-1064.00
2024-05-19 09:39:04.779603,0,2,0,0,0,0,88,90,76,60,65,132.57,256,-24.00,-28.00,-1215.00
2024-05-19 09:39:04.785483,0,2,0,0,0,0,88,89,76,60,65,132.55,256,12.00,-48.00,-828.00
2024-05-19 09:39:04.984407,0,2,0,0,0,0,88,89,76,60,65,132.63,257,-14.00,-10.00,-997.00
2024-05-19 09:39:04.990305,0,2,0,0,0,0,88,89,76,60,65,132.50,257,73.00,-21.00,-1104.00
2024-05-19 09:39:05.189635,0,2,0,0,0,0,88,89,77,60,65,132.63,257,-6.00,-72.00,-1030.00
2024-05-19 09:39:05.194286,0,2,0,0,0,0,88,89,77,60,65,132.62,257,3.00,-49.00,-876.00
2024-05-19 09:39:05.393683,0,2,0,0,0,0,88,89,78,60,65,132.56,257,31.00,-40.00,-984.00
2024-05-19 09:39:05.398288,-1,2,0,0,0,0,88,89,78,60,65,132.57,257,29.00,-47.00,-1283.00
2024-05-19 09:39:05.597281,-1,2,0,0,0,0,88,89,79,60,65,132.63,257,-84.00,-34.00,-1105.00
2024-05-19 09:39:05.602388,-1,2,0,0,0,0,88,89,79,60,65,132.58,257,52.00,-28.00,-854.00
2024-05-19 09:39:05.801912,0,2,0,0,0,0,88,89,79,60,65,132.63,257,-59.00,-33.00,-1080.00
2024-05-19 09:39:05.806224,0,2,0,0,0,0,88,90,79,60,65,132.63,257,-24.00,-21.00,-1037.00
2024-05-19 09:39:05.908385,0,1,0,0,0,0,88,90,79,60,65,132.57,258,-23.00,-56.00,-995.00
2024-05-19 09:39:06.113433,0,1,0,0,0,0,88,90,78,60,65,132.55,258,1.00,-57.00,-1058.00
2024-05-19 09:39:06.113686,-1,1,0,0,0,0,88,90,79,60,65,132.53,258,46.00,-100.00,-987.00
2024-05-19 09:39:06.314091,-1,1,0,0,0,0,88,90,78,60,65,132.61,258,30.00,-83.00,-978.00
2024-05-19 09:39:06.316301,-1,2,0,0,0,0,88,90,78,60,65,132.54,258,-7.00,-1.00,-779.00
2024-05-19 09:39:06.418358,-1,2,0,0,0,0,88,90,77,60,65,132.52,258,-31.00,-88.00,-1137.00
2024-05-19 09:39:06.520238,-1,2,0,0,0,0,88,90,77,60,65,132.47,258,23.00,-92.00,-906.00
2024-05-19 09:39:06.622282,0,3,0,0,0,0,88,90,77,60,65,132.54,258,-44.00,-35.00,-861.00
2024-05-19 09:39:06.825416,0,3,0,0,0,0,88,90,76,60,65,132.59,258,14.00,-69.00,-1070.00
2024-05-19 09:39:06.826266,0,3,0,0,0,0,87,89,76,60,65,132.57,258,12.00,-39.00,-977.00
2024-05-19 09:39:06.988065,0,3,0,0,0,0,87,89,76,60,65,132.63,259,-73.00,-11.00,-1003.00
2024-05-19 09:39:07.031792,-1,3,0,0,0,0,87,89,76,60,65,132.55,259,50.00,-51.00,-1001.00
2024-05-19 09:39:07.134625,0,3,0,0,0,0,87,89,76,60,65,132.57,259,-65.00,-28.00,-1073.00
2024-05-19 09:39:07.237356,0,3,0,0,0,0,87,89,76,60,65,132.55,259,75.00,-99.00,-1032.00
2024-05-19 09:39:07.285521,0,3,0,0,0,0,87,89,78,60,65,132.61,259,29.00,-53.00,-1064.00
2024-05-19 09:39:07.441769,0,3,0,0,0,-1,87,89,79,60,65,132.61,259,-17.00,-46.00,-1164.00
2024-05-19 09:39:07.489465,0,3,0,0,0,-2,87,89,82,70,65,132.62,259,-24.00,-38.00,-1148.00
2024-05-19 09:39:07.591441,0,2,0,0,0,-3,87,89,86,70,65,132.57,259,-52.00,-20.00,-1031.00
2024-05-19 09:39:07.693454,0,1,0,0,0,-3,87,89,90,70,65,132.65,259,12.00,-44.00,-949.00
2024-05-19 09:39:07.851217,0,2,0,0,0,-5,88,90,95,80,65,132.68,260,-72.00,-37.00,-973.00
2024-05-19 09:39:07.897605,0,3,0,0,0,-5,88,90,100,90,65,132.72,260,-69.00,-25.00,-1009.00
2024-05-19 09:39:08.056792,0,3,0,0,0,-5,88,90,105,90,65,132.84,260,-14.00,-71.00,-1052.00
2024-05-19 09:39:08.101391,0,3,0,0,0,-5,88,90,111,100,65,132.89,260,16.00,-54.00,-864.00
2024-05-19 09:39:08.261514,0,3,0,0,0,-5,88,90,117,100,65,132.94,260,0.00,-5.00,-861.00
2024-05-19 09:39:08.305343,0,3,0,0,0,-5,88,90,123,110,65,132.91,260,118.00,-63.00,-1002.00
2024-05-19 09:39:08.473027,1,2,0,0,0,-5,88,90,129,110,65,133.03,260,-53.00,-30.00,-757.00
2024-05-19 09:39:08.509525,0,2,0,0,0,-4,88,90,135,120,65,133.11,260,-11.00,-103.00,-994.00
2024-05-19 09:39:08.611432,0,4,0,0,0,-4,88,90,139,120,65,133.17,260,0.00,-85.00,-913.00
2024-05-19 09:39:08.770968,-1,4,0,0,0,-4,88,90,144,130,65,133.16,260,91.00,-60.00,-913.00
2024-05-19 09:39:08.815360,0,4,0,0,0,-4,87,90,148,130,65,133.09,261,7.00,-74.00,-935.00
2024-05-19 09:39:08.976581,0,4,0,0,0,-3,87,90,152,140,65,133.08,261,-36.00,-89.00,-1005.00
2024-05-19 09:39:09.019407,0,5,0,0,0,-3,87,90,155,140,65,133.08,261,34.00,-84.00,-960.00
2024-05-19 09:39:09.121351,0,4,0,0,0,-2,87,90,159,140,65,133.23,261,-26.00,-46.00,-899.00
2024-05-19 09:39:09.284860,-1,4,0,0,0,-2,87,90,161,150,65,133.22,261,-110.00,-17.00,-982.00
2024-05-19 09:39:09.325394,-1,4,0,0,0,-1,87,90,164,150,65,133.28,261,-70.00,-12.00,-963.00
2024-05-19 09:39:09.489627,-1,4,0,0,0,-1,87,90,165,150,65,133.26,261,29.00,-63.00,-696.00
2024-05-19 09:39:09.529485,0,4,0,0,0,-1,87,90,167,150,65,133.29,261,-96.00,-10.00,-1065.00
2024-05-19 09:39:09.631221,0,4,0,0,0,-1,87,90,169,150,65,133.27,261,-15.00,-32.00,-991.00
2024-05-19 09:39:09.795115,-1,4,0,0,0,-1,87,90,170,150,65,133.28,261,-116.00,0.00,-1085.00
2024-05-19 09:39:09.835136,-1,3,0,0,0,0,87,89,170,160,65,133.30,262,11.00,-37.00,-1028.00
2024-05-19 09:39:10.001666,-1,4,0,0,0,0,87,89,171,160,65,133.40,262,-4.00,-64.00,-1184.00
2024-05-19 09:39:10.039661,0,4,0,0,0,0,87,89,172,160,65,133.35,262,-88.00,-24.00,-932.00
2024-05-19 09:39:10.207016,0,4,0,0,0,0,87,89,171,160,65,133.37,262,68.00,-72.00,-1011.00
2024-05-19 09:39:10.245402,0,4,0,0,0,0,87,89,173,160,65,133.40,262,64.00,-100.00,-987.00
2024-05-19 09:39:10.345423,0,3,0,0,0,0,87,89,173,160,65,133.33,262,-22.00,-38.00,-1098.00
2024-05-19 09:39:10.513634,0,3,0,0,0,0,87,89,174,160,65,133.33,262,48.00,-79.00,-845.00
2024-05-19 09:39:10.549308,0,4,0,0,0,0,87,89,174,160,65,133.37,262,51.00,-118.00,-956.00
2024-05-19 09:39:10.718521,0,4,0,0,0,0,87,89,173,160,65,133.36,262,19.00,-84.00,-914.00
2024-05-19 09:39:10.753619,1,4,0,0,0,0,87,89,172,160,65,133.31,262,-29.00,-47.00,-905.00
2024-05-19 09:39:10.921635,1,4,0,0,0,0,87,89,172,160,65,133.33,263,-3.00,-58.00,-895.00
2024-05-19 09:39:10.957382,0,4,0,0,0,0,87,89,171,160,65,133.23,263,42.00,-73.00,-882.00
2024-05-19 09:39:11.127463,0,4,0,0,0,0,87,89,170,160,65,133.23,263,42.00,-7.00,-951.00
2024-05-19 09:39:11.161396,1,4,0,0,0,0,87,89,171,160,65,133.19,263,-45.00,-33.00,-1031.00
2024-05-19 09:39:11.331017,1,3,0,0,0,0,87,89,170,160,65,133.21,263,91.00,-71.00,-914.00
2024-05-19 09:39:11.332269,2,3,0,0,0,0,87,89,170,160,65,133.20,263,-42.00,-42.00,-1035.00
2024-05-19 09:39:11.416329,1,3,0,0,0,0,87,89,170,160,65,133.20,263,61.00,-27.00,-1157.00
2024-05-19 09:39:11.535798,0,3,0,0,0,0,87,89,169,160,65,133.20,263,-1.00,-55.00,-924.00
2024-05-19 09:39:11.620061,1,3,0,0,0,0,87,89,170,150,65,133.28,263,17.00,-71.00,-1077.00
2024-05-19 09:39:11.740673,1,3,0,0,0,0,87,89,170,150,65,133.32,263,14.00,-45.00,-1021.00
2024-05-19 09:39:11.823964,0,3,0,0,0,0,87,90,170,150,65,133.30,264,45.00,-78.00,-906.00
2024-05-19 09:39:11.945492,1,3,0,0,0,0,87,90,171,160,65,133.27,264,102.00,-116.00,-1014.00
2024-05-19 09:39:12.028640,1,4,0,0,0,0,87,90,172,160,65,133.30,264,10.00,-86.00,-1028.00
2024-05-19 09:39:12.150104,1,4,0,0,0,0,87,90,173,160,65,133.32,264,19.00,-60.00,-981.00
2024-05-19 09:39:12.231858,1,4,0,0,0,0,87,90,172,160,65,133.29,264,108.00,-79.00,-891.00
2024-05-19 09:39:12.367367,2,3,0,0,0,0,87,90,172,160,65,133.31,264,32.00,-65.00,-922.00
2024-05-19 09:39:12.435800,2,3,0,0,0,0,87,90,170,160,65,133.32,264,24.00,-59.00,-1168.00
2024-05-19 09:39:12.567678,1,3,0,0,0,1,87,90,170,150,65,133.29,264,6.00,-98.00,-864.00
2024-05-19 09:39:12.639853,1,4,0,0,0,1,87,90,168,150,65,133.23,264,31.00,-56.00,-849.00
2024-05-19 09:39:12.764479,1,4,0,0,0,2,87,90,166,150,65,133.23,264,35.00,-77.00,-1043.00
2024-05-19 09:39:12.843931,1,4,0,0,0,2,88,89,164,150,65,133.24,265,93.00,-64.00,-1001.00
2024-05-19 09:39:12.969552,1,5,0,0,0,2,88,89,160,150,65,133.18,265,8.00,-70.00,-983.00
2024-05-19 09:39:13.048116,1,5,0,0,0,3,88,89,158,140,65,133.14,265,0.00,-38.00,-1068.00
2024-05-19 09:39:13.174248,1,5,0,0,0,3,88,89,154,140,65,133.15,265,24.00,-90.00,-1018.00
2024-05-19 09:39:13.251886,1,5,0,0,0,2,88,89,150,140,65,133.16,265,43.00,-60.00,-986.00
2024-05-19 09:39:13.391037,1,5,0,0,0,2,88,89,148,130,65,133.10,265,-8.00,-61.00,-1079.00
2024-05-19 09:39:13.455856,1,5,0,0,0,2,88,89,144,130,65,133.04,265,12.00,-97.00,-1088.00
2024-05-19 09:39:13.586141,0,5,0,0,0,3,88,89,141,130,65,133.07,265,-7.00,-64.00,-1085.00
2024-05-19 09:39:13.659730,0,5,0,0,0,2,88,89,138,120,65,132.94,265,27.00,-75.00,-988.00
2024-05-19 09:39:13.791028,1,4,0,0,0,2,88,89,136,120,65,132.96,265,-56.00,-16.00,-1092.00
2024-05-19 09:39:13.864189,1,4,0,0,0,2,87,90,133,120,65,132.94,266,40.00,-70.00,-1065.00
2024-05-19 09:39:13.995752,0,4,0,0,0,2,87,90,131,120,65,132.89,266,36.00,-69.00,-1040.00
2024-05-19 09:39:14.068090,0,4,0,0,0,1,87,90,129,110,65,132.88,266,-6.00,-44.00,-1073.00
2024-05-19 09:39:14.200792,0,4,0,0,0,1,87,90,128,110,65,132.88,266,27.00,-88.00,-924.00
2024-05-19 09:39:14.271882,0,4,0,0,0,1,87,90,126,110,65,132.89,266,83.00,-104.00,-1039.00
2024-05-19 09:39:14.405391,0,4,0,0,0,1,87,90,126,110,65,132.73,266,-10.00,-73.00,-1111.00
2024-05-19 09:39:14.477146,0,3,0,0,0,0,87,90,126,110,65,132.77,266,42.00,-72.00,-1034.00
2024-05-19 09:39:14.611306,1,3,0,0,0,0,87,90,125,110,65,132.78,266,37.00,-46.00,-967.00
2024-05-19 09:39:14.680998,1,4,0,0,0,0,87,90,126,110,65,132.80,266,-9.00,-78.00,-855.00
2024-05-19 09:39:14.815090,1,3,0,0,0,0,87,90,126,110,65,132.77,266,39.00,-69.00,-933.00
2024-05-19 09:39:14.885091,0,2,0,0,0,0,87,90,126,110,65,132.77,267,20.00,-45.00,-874.00
2024-05-19 09:39:15.017356,0,3,0,0,0,0,87,90,126,110,65,132.78,267,-9.00,-81.00,-873.00
2024-05-19 09:39:15.089455,-1,4,0,0,0,0,87,90,127,110,65,132.84,267,-13.00,-62.00,-976.00
2024-05-19 09:39:15.224066,-1,3,0,0,0,0,87,90,127,110,65,132.74,267,-5.00,-67.00,-1023.00
2024-05-19 09:39:15.242843,-1,4,0,0,0,0,87,90,127,110,65,132.82,267,-22.00,-67.00,-916.00
2024-05-19 09:39:15.429304,-1,4,0,0,0,0,87,90,128,110,65,132.81,267,94.00,-102.00,-942.00
2024-05-19 09:39:15.446936,-1,4,0,0,0,0,87,90,129,110,65,132.76,267,-8.00,-51.00,-943.00
2024-05-19 09:39:15.633912,-1,4,0,0,0,0,87,90,130,110,65,132.83,267,-47.00,-53.00,-869.00
2024-05-19 09:39:15.650910,-1,4,0,0,0,0,87,90,130,110,65,132.89,267,26.00,-46.00,-1005.00
2024-05-19 09:39:15.838603,-1,4,0,0,0,0,87,90,130,110,65,132.82,267,10.00,-79.00,-1081.00
2024-05-19 09:39:15.855074,0,4,0,0,0,0,87,89,130,110,65,132.82,268,1.00,-78.00,-1127.00
2024-05-19 09:39:16.050734,0,3,0,0,0,0,87,89,130,110,65,132.85,268,-49.00,-58.00,-987.00
2024-05-19 09:39:16.058944,-1,4,0,0,0,0,87,89,130,110,65,132.83,268,-61.00,-52.00,-955.00
2024-05-19 09:39:16.214232,-1,5,0,0,0,0,87,89,130,110,65,132.90,268,-47.00,-61.00,-970.00
2024-05-19 09:39:16.262926,-1,5,0,0,0,0,87,89,130,110,65,132.86,268,72.00,-102.00,-953.00
2024-05-19 09:39:16.364764,0,5,0,0,0,0,87,89,131,110,65,132.82,268,30.00,-48.00,-1061.00
2024-05-19 09:39:16.553150,-1,4,0,0,0,0,87,89,131,110,65,132.82,268,-73.00,-13.00,-1035.00
2024-05-19 09:39:16.569089,-7,2,0,0,0,0,87,89,131,110,65,132.76,268,-36.00,-53.00,-968.00
2024-05-19 09:39:16.757942,-8,2,0,1,0,0,87,89,131,110,65,132.80,268,-2.00,-66.00,-980.00
2024-05-19 09:39:16.772827,-8,3,0,3,0,0,87,89,130,110,65,132.81,268,-28.00,-62.00,-983.00
2024-05-19 09:39:16.965264,-7,4,0,4,0,0,87,89,130,110,65,132.81,269,-4.00,-63.00,-1016.00
2024-05-19 09:39:16.976773,-7,4,0,5,0,0,87,89,129,110,65,132.81,269,-22.00,-39.00,-1094.00
2024-05-19 09:39:17.169944,-7,3,0,6,0,0,87,89,128,110,65,132.76,269,20.00,-79.00,-1049.00
2024-05-19 09:39:17.180710,-6,3,0,7,0,0,87,89,127,110,65,132.77,269,-28.00,-13.00,-1033.00
2024-05-19 09:39:17.283648,-5,3,0,7,0,0,87,89,127,110,65,132.73,269,-38.00,-22.00,-1244.00
2024-05-19 09:39:17.474693,-4,2,0,7,0,0,87,89,127,110,65,132.71,269,-48.00,-46.00,-997.00
2024-05-19 09:39:17.486826,-1,3,0,7,0,0,87,89,128,110,65,132.67,269,-47.00,-21.00,-932.00
2024-05-19 09:39:17.691839,1,3,0,6,0,0,87,89,129,110,65,132.70,269,-10.00,-46.00,-989.00
2024-05-19 09:39:17.692221,2,2,0,5,0,0,87,89,129,110,65,132.68,269,-70.00,-36.00,-924.00
2024-05-19 09:39:17.792725,2,2,0,4,0,0,87,89,128,110,65,132.74,269,-53.00,-38.00,-956.00
2024-05-19 09:39:17.894837,1,2,0,3,0,0,88,90,128,110,65,132.77,270,-95.00,-36.00,-1061.00
2024-05-19 09:39:18.090568,0,3,0,3,0,0,88,90,129,110,65,132.76,270,-35.00,-71.00,-920.00
2024-05-19 09:39:18.098689,0,4,0,3,0,0,88,90,129,110,65,132.83,270,-68.00,-45.00,-1113.00
2024-05-19 09:39:18.200811,0,5,0,3,0,0,88,90,129,110,65,132.77,270,1.00,-45.00,-1139.00
2024-05-19 09:39:18.302643,0,5,0,3,0,0,88,90,128,110,65,132.76,270,-42.00,-38.00,-911.00
2024-05-19 09:39:18.499531,0,3,0,2,1,0,88,90,127,110,65,132.75,270,-55.00,-23.00,-954.00
2024-05-19 09:39:18.506902,0,1,0,2,0,0,88,90,127,110,65,132.81,270,-93.00,-12.00,-1008.00
2024-05-19 09:39:18.703707,-1,1,0,2,0,0,88,90,126,110,65,132.81,270,6.00,-46.00,-1202.00
2024-05-19 09:39:18.710719,-1,2,0,2,0,0,88,90,125,110,65,132.82,270,-10.00,-52.00,-854.00
2024-05-19 09:39:18.812718,0,3,0,2,0,0,88,90,124,110,65,132.78,270,-30.00,-43.00,-1049.00
2024-05-19 09:39:18.915440,3,3,0,2,0,0,87,89,123,110,65,132.77,271,-30.00,-61.00,-1112.00
2024-05-19 09:39:19.113587,4,6,0,1,0,0,87,89,122,110,65,132.75,271,72.00,-54.00,-1053.00
2024-05-19 09:39:19.118690,2,8,0,1,0,0,87,89,121,110,65,132.71,271,-53.00,-1.00,-925.00
2024-05-19 09:39:19.220904,1,6,0,0,1,0,87,89,120,110,65,132.69,271,112.00,-45.00,-949.00
2024-05-19 09:39:19.323619,1,0,0,0,1,0,87,89,120,110,65,132.63,271,-17.00,-47.00,-1145.00
2024-05-19 09:39:19.375002,1,0,0,0,1,0,87,89,120,110,65,132.73,271,34.00,-47.00,-909.00
2024-05-19 09:39:19.476671,1,2,0,0,0,0,87,89,120,110,65,132.74,271,-1.00,-63.00,-1015.00
2024-05-19 09:39:19.629764,0,3,0,0,0,0,87,89,120,110,65,132.76,271,24.00,-43.00,-1031.00
2024-05-19 09:39:19.681202,0,3,0,0,0,0,87,89,120,110,65,132.72,271,-19.00,-42.00,-995.00
2024-05-19 09:39:19.830161,0,2,0,0,0,0,87,89,120,110,64,132.70,271,-69.00,-19.00,-1025.00
2024-05-19 09:39:19.884898,0,2,0,0,0,0,86,88,121,110,64,132.68,272,-23.00,-15.00,-999.00
2024-05-19 09:39:20.042264,0,2,0,0,0,0,86,88,121,110,64,132.69,272,-18.00,-32.00,-983.00
2024-05-19 09:39:20.088920,0,2,0,0,0,0,86,88,121,110,64,132.77,272,37.00,-65.00,-959.00
2024-05-19 09:39:20.217019,-1,2,0,0,0,0,86,88,121,110,64,132.79,272,101.00,-102.00,-917.00
2024-05-19 09:39:20.294691,-1,2,0,0,0,0,86,88,122,110,64,132.76,272,-18.00,-70.00,-1023.00
2024-05-19 09:39:20.395019,-1,2,0,0,0,0,86,88,122,110,64,132.73,272,-68.00,-4.00,-1093.00
2024-05-19 09:39:20.497479,-1,2,0,0,0,0,86,88,122,110,64,132.68,272,-60.00,-11.00,-1050.00
2024-05-19 09:39:20.649446,-1,2,0,0,0,0,86,88,121,110,64,132.72,272,80.00,-55.00,-956.00
2024-05-19 09:39:20.700654,-1,2,0,0,0,0,86,88,122,110,64,132.64,272,-86.00,-7.00,-927.00
2024-05-19 09:39:20.854117,-1,2,0,0,0,0,86,88,123,110,64,132.66,272,-64.00,-14.00,-878.00
2024-05-19 09:39:20.904722,-1,2,0,0,0,0,86,88,124,110,64,132.70,273,29.00,-61.00,-969.00
2024-05-19 09:39:21.058947,-1,2,0,0,0,0,86,88,124,110,64,132.69,273,6.00,-44.00,-860.00
2024-05-19 09:39:21.108956,0,2,0,0,0,0,86,88,124,110,64,132.68,273,-37.00,-12.00,-857.00
2024-05-19 09:39:21.263729,0,3,0,0,0,0,86,88,124,110,64,132.72,273,49.00,-48.00,-1012.00
2024-05-19 09:39:21.312816,0,3,0,0,0,0,86,88,124,110,64,132.64,273,-43.00,-29.00,-1002.00
2024-05-19 09:39:21.414629,0,3,0,0,0,0,86,88,124,110,64,132.67,273,-43.00,-23.00,-928.00
2024-05-19 09:39:21.573031,-1,2,0,0,0,0,86,88,124,110,64,132.69,273,8.00,-20.00,-991.00
2024-05-19 09:39:21.618922,2,1,0,0,0,0,86,88,125,110,64,132.75,273,-22.00,15.00,-1076.00
2024-05-19 09:39:21.775577,7,1,0,0,0,0,86,88,126,110,64,132.76,273,17.00,-97.00,-1044.00
2024-05-19 09:39:21.822721,8,2,0,-2,0,0,86,88,127,110,64,132.77,273,87.00,-42.00,-925.00
2024-05-19 09:39:21.980406,8,3,0,-4,0,0,87,89,128,110,64,132.81,274,79.00,-78.00,-825.00
2024-05-19 09:39:22.026655,7,3,0,-5,0,0,87,89,129,110,64,132.87,274,-25.00,-17.00,-1013.00
2024-05-19 09:39:22.185192,7,3,0,-5,0,0,87,89,129,110,64,132.83,274,89.00,-45.00,-944.00
2024-05-19 09:39:22.230612,7,2,0,-6,0,0,87,89,131,110,64,132.77,274,83.00,-55.00,-1049.00
2024-05-19 09:39:22.391248,6,1,0,-7,0,0,87,89,130,110,64,132.77,274,6.00,-28.00,-944.00
2024-05-19 09:39:22.434524,3,1,0,-7,0,0,87,89,131,110,64,132.73,274,22.00,-10.00,-1014.00
2024-05-19 09:39:22.597278,0,2,0,-7,0,0,87,89,131,110,64,132.80,274,0.00,-31.00,-945.00
2024-05-19 09:39:22.638582,-2,3,0,-6,0,0,87,89,129,110,64,132.76,274,84.00,-58.00,-1022.00
2024-05-19 09:39:22.802139,-4,3,0,-5,0,0,87,89,129,110,64,132.71,274,-24.00,-25.00,-1020.00
2024-05-19 09:39:22.842532,-4,3,0,-5,0,0,87,89,128,110,63,132.65,275,-2.00,-66.00,-882.00
2024-05-19 09:39:23.005958,-3,4,0,-3,0,0,87,90,126,110,63,132.70,275,75.00,-58.00,-1103.00
2024-05-19 09:39:23.046608,0,4,0,-2,0,0,87,90,124,110,63,132.66,275,99.00,-86.00,-952.00
2024-05-19 09:39:23.211747,0,4,0,-2,0,0,87,90,124,110,63,132.68,275,85.00,-85.00,-997.00
2024-05-19 09:39:23.211800,1,5,0,-2,0,0,87,90,123,110,63,132.73,275,-53.00,-35.00,-1112.00
2024-05-19 09:39:23.301278,1,6,0,-2,0,0,87,90,121,110,63,132.70,275,98.00,-119.00,-902.00
2024-05-19 09:39:23.414810,1,7,0,-2,0,0,87,90,121,110,63,132.72,275,-7.00,-56.00,-906.00
2024-05-19 09:39:23.505276,1,6,0,-2,0,0,87,90,119,110,63,132.61,275,56.00,-61.00,-934.00
2024-05-19 09:39:23.621966,0,4,0,-1,1,0,87,90,119,110,63,132.69,275,36.00,-62.00,-1092.00
2024-05-19 09:39:23.710565,1,3,0,-1,0,0,87,90,119,100,63,132.68,275,30.00,-26.00,-1071.00
2024-05-19 09:39:23.826137,2,4,0,-1,0,0,87,90,120,100,63,132.68,276,4.00,-78.00,-1132.00
2024-05-19 09:39:23.915009,2,5,0,-1,0,0,87,88,121,110,63,132.72,276,14.00,-70.00,-982.00
2024-05-19 09:39:24.141943,1,6,0,-1,0,0,87,88,121,110,63,132.73,276,143.00,-86.00,-838.00
2024-05-19 09:39:24.142007,-1,6,0,0,1,0,87,88,122,110,63,132.68,276,-6.00,-24.00,-1002.00
2024-05-19 09:39:24.222373,0,0,0,0,1,0,87,88,123,110,63,132.76,276,60.00,-51.00,-992.00
2024-05-19 09:39:24.322891,1,0,0,0,0,0,87,88,123,110,63,132.66,276,105.00,-107.00,-1164.00
2024-05-19 09:39:24.427073,1,2,0,0,0,0,87,88,125,110,63,132.75,276,24.00,-65.00,-991.00
2024-05-19 09:39:24.527503,1,3,0,0,0,0,87,88,126,110,63,132.70,276,-24.00,-40.00,-1236.00
2024-05-19 09:39:24.632124,0,3,0,0,0,0,87,88,126,110,63,132.68,276,50.00,-95.00,-1049.00
2024-05-19 09:39:24.730541,0,3,0,0,0,0,87,88,127,110,63,132.63,276,36.00,-62.00,-987.00
2024-05-19 09:39:24.849720,0,3,0,0,0,0,87,88,127,110,63,132.65,277,82.00,-47.00,-993.00
2024-05-19 09:39:24.934395,1,3,0,0,0,0,86,88,127,110,63,132.66,277,10.00,-20.00,-969.00
2024-05-19 09:39:25.053166,1,3,0,0,0,0,86,88,127,110,63,132.69,277,94.00,-60.00,-886.00
2024-05-19 09:39:25.138515,2,3,0,0,0,0,86,88,127,110,63,132.62,277,89.00,-87.00,-928.00
2024-05-19 09:39:25.260107,2,3,0,0,0,0,86,88,127,110,63,132.60,277,126.00,-51.00,-1220.00
2024-05-19 09:39:25.342838,2,3,0,0,0,0,86,88,126,110,63,132.63,277,57.00,-80.00,-828.00
2024-05-19 09:39:25.464691,2,3,0,0,0,0,86,88,125,110,63,132.67,277,94.00,-44.00,-1081.00
2024-05-19 09:39:25.546542,2,3,0,0,0,0,86,88,125,110,63,132.66,277,65.00,-51.00,-1216.00
2024-05-19 09:39:25.649113,2,3,0,0,0,0,86,88,124,110,63,132.58,277,121.00,-49.00,-1077.00
2024-05-19 09:39:25.774587,2,3,0,0,0,0,86,88,124,110,63,132.61,277,11.00,-31.00,-1101.00
2024-05-19 09:39:25.852466,2,3,0,0,0,0,86,88,125,110,62,132.61,278,14.00,-52.00,-922.00
2024-05-19 09:39:25.974589,2,3,0,0,0,0,86,89,125,110,62,132.54,278,87.00,-56.00,-1192.00
2024-05-19 09:39:26.056751,3,4,0,0,0,0,86,89,126,110,62,132.69,278,21.00,-54.00,-1051.00
2024-05-19 09:39:26.179394,3,4,0,0,0,0,86,89,127,110,62,132.68,278,112.00,-54.00,-1130.00
2024-05-19 09:39:26.260499,3,3,0,0,0,0,86,89,127,110,62,132.72,278,16.00,27.00,-1066.00
2024-05-19 09:39:26.376768,4,2,0,0,0,0,86,89,127,110,62,132.79,278,84.00,-79.00,-1024.00
2024-05-19 09:39:26.464359,5,2,0,0,0,0,86,89,127,110,62,132.74,278,0.00,-21.00,-1089.00
2024-05-19 09:39:26.517787,5,0,0,0,0,0,86,89,129,110,62,132.70,278,50.00,-33.00,-995.00
2024-05-19 09:39:26.618267,2,-6,0,0,0,0,86,89,128,110,62,132.73,278,84.00,-85.00,-925.00
2024-05-19 09:39:26.810849,3,-4,0,0,-2,0,86,89,128,110,62,132.63,278,85.00,-38.00,-864.00
2024-05-19 09:39:26.821123,3,0,0,1,-3,0,86,89,128,110,62,132.64,279,65.00,-56.00,-909.00
2024-05-19 09:39:27.001012,4,1,0,1,-4,0,87,89,128,110,62,132.59,279,170.00,-45.00,-1073.00
2024-05-19 09:39:27.025188,4,4,0,0,-3,0,87,89,130,110,62,132.59,279,35.00,-13.00,-786.00
2024-05-19 09:39:27.127247,5,5,0,0,-2,0,87,89,130,110,62,132.53,279,48.00,-22.00,-988.00
2024-05-19 09:39:27.309529,4,2,0,0,-2,0,87,89,130,110,62,132.59,279,140.00,-70.00,-938.00
2024-05-19 09:39:27.338539,3,1,0,0,-2,0,87,89,130,110,62,132.56,279,29.00,-27.00,-1024.00
2024-05-19 09:39:27.433088,2,1,0,0,-2,0,87,89,130,120,62,132.62,279,79.00,-50.00,-967.00
2024-05-19 09:39:27.614194,3,2,0,0,-2,0,87,89,130,120,62,132.63,279,49.00,-72.00,-917.00
2024-05-19 09:39:27.637605,3,3,0,0,-2,0,87,89,128,120,62,132.58,279,2.00,11.00,-730.00
2024-05-19 09:39:27.819149,3,3,0,0,-2,0,87,89,128,120,62,132.63,279,38.00,-39.00,-1020.00
2024-05-19 09:39:27.841124,3,3,0,0,-2,0,87,89,125,110,62,132.59,280,130.00,-45.00,-951.00
2024-05-19 09:39:28.021949,3,3,0,0,-2,1,87,89,124,110,62,132.52,280,69.00,-49.00,-1062.00
2024-05-19 09:39:28.045028,0,2,0,0,-2,0,87,89,122,110,62,132.55,280,24.00,-15.00,-1092.00
2024-05-19 09:39:28.228829,1,2,0,0,-2,0,87,89,120,110,62,132.59,280,59.00,-65.00,-952.00
2024-05-19 09:39:28.249799,2,5,0,0,-2,0,87,89,119,110,62,132.49,280,6.00,-19.00,-1003.00
2024-05-19 09:39:28.420541,3,8,0,0,-1,0,87,89,119,110,62,132.42,280,38.00,-25.00,-1105.00
2024-05-19 09:39:28.453075,3,6,0,0,0,0,87,89,117,110,62,132.42,280,83.00,-87.00,-958.00
2024-05-19 09:39:28.555109,3,4,0,0,0,0,87,89,117,100,62,132.48,280,120.00,-61.00,-993.00
2024-05-19 09:39:28.657112,2,4,0,0,0,0,87,89,116,100,62,132.53,280,43.00,-45.00,-1107.00
2024-05-19 09:39:28.841581,3,3,0,0,0,0,87,89,117,100,62,132.55,280,-9.00,-47.00,-1078.00
2024-05-19 09:39:28.861071,2,4,0,0,0,0,87,89,117,100,62,132.54,281,69.00,-87.00,-1079.00
2024-05-19 09:39:29.045974,2,4,0,0,0,0,86,88,118,100,62,132.49,281,20.00,-57.00,-976.00
2024-05-19 09:39:29.065064,2,4,0,0,0,0,86,88,119,110,62,132.56,281,74.00,-66.00,-1032.00
2024-05-19 09:39:29.231337,1,3,0,0,0,0,86,88,120,110,62,132.51,281,80.00,-61.00,-966.00
2024-05-19 09:39:29.268986,1,2,0,0,0,0,86,88,121,110,62,132.54,281,11.00,-46.00,-872.00
2024-05-19 09:39:29.455558,2,2,0,0,0,0,86,88,122,110,62,132.45,281,7.00,-64.00,-908.00
2024-05-19 09:39:29.473056,2,2,0,0,0,0,86,88,123,110,62,132.61,281,74.00,-44.00,-1140.00
2024-05-19 09:39:29.660373,2,2,0,0,0,0,86,88,124,110,62,132.50,281,113.00,-103.00,-988.00
2024-05-19 09:39:29.676929,2,3,0,0,0,0,86,88,124,110,62,132.47,281,79.00,-78.00,-940.00
2024-05-19 09:39:29.865629,2,3,0,0,0,0,86,88,124,110,62,132.49,281,1.00,-44.00,-892.00
2024-05-19 09:39:29.881704,3,2,0,0,0,0,86,88,124,110,62,132.52,282,67.00,-54.00,-1067.00
2024-05-19 09:39:30.071013,3,2,0,0,0,0,86,89,124,110,62,132.46,282,-2.00,-28.00,-894.00
2024-05-19 09:39:30.084896,3,2,0,0,0,0,86,89,125,110,62,132.47,282,108.00,-61.00,-948.00
2024-05-19 09:39:30.277394,3,2,0,0,0,0,86,89,125,110,62,132.50,282,44.00,-24.00,-1099.00
2024-05-19 09:39:30.288826,3,1,0,0,0,0,86,89,125,110,62,132.53,282,17.00,-33.00,-1080.00
2024-05-19 09:39:30.340299,3,1,0,0,0,0,86,89,125,110,62,132.61,282,102.00,-44.00,-1054.00
2024-05-19 09:39:30.481974,3,1,0,0,0,0,86,89,125,110,62,132.54,282,138.00,-48.00,-970.00
2024-05-19 09:39:30.544225,4,2,0,0,0,0,86,89,126,110,62,132.61,282,-19.00,-17.00,-903.00
2024-05-19 09:39:30.688132,4,2,0,0,0,0,86,89,125,110,62,132.54,282,32.00,-25.00,-1027.00
2024-05-19 09:39:30.748038,2,8,0,0,0,0,86,89,126,110,62,132.52,282,30.00,-23.00,-985.00
2024-05-19 09:39:30.891834,2,8,0,0,1,0,86,89,126,110,62,132.56,283,94.00,-42.00,-1009.00
2024-05-19 09:39:31.094154,3,8,0,0,2,0,86,89,126,110,62,132.52,283,86.00,-46.00,-1038.00
2024-05-19 09:39:31.096754,3,7,0,0,4,0,86,89,126,110,62,132.63,283,151.00,-109.00,-903.00
2024-05-19 09:39:31.156415,2,2,0,0,4,0,86,89,126,110,62,132.62,283,17.00,-70.00,-1034.00
2024-05-19 09:39:31.299202,2,0,0,0,4,0,86,89,126,110,62,132.55,283,-43.00,-34.00,-956.00
2024-05-19 09:39:31.360401,2,0,0,0,3,0,86,89,126,110,62,132.61,283,53.00,-37.00,-983.00
2024-05-19 09:39:31.492425,2,2,0,0,2,0,86,89,126,110,62,132.65,283,-35.00,0.00,-1043.00
2024-05-19 09:39:31.563921,1,2,0,0,2,0,86,89,127,110,62,132.64,283,3.00,-72.00,-939.00
2024-05-19 09:39:31.666008,1,3,0,0,3,0,86,89,127,110,62,132.57,283,-3.00,-46.00,-982.00
2024-05-19 09:39:31.813513,0,2,0,0,3,0,86,89,127,110,61,132.62,283,-60.00,-73.00,-906.00
2024-05-19 09:39:31.869911,0,2,0,0,3,0,86,89,128,110,61,132.63,284,60.00,-81.00,-968.00
2024-05-19 09:39:32.015711,0,2,0,0,3,0,86,89,127,110,61,132.63,284,-23.00,-35.00,-943.00
2024-05-19 09:39:32.073995,0,0,0,0,3,0,86,89,127,110,61,132.66,284,15.00,-26.00,-1061.00
2024-05-19 09:39:32.222542,0,-2,0,0,3,0,86,89,127,110,61,132.63,284,58.00,-24.00,-973.00
2024-05-19 09:39:32.277956,0,-3,0,0,2,0,86,89,126,110,61,132.63,284,47.00,-3.00,-1068.00
2024-05-19 09:39:32.428155,0,-1,0,0,1,0,86,89,126,110,61,132.57,284,-33.00,0.00,-1072.00
2024-05-19 09:39:32.481932,0,0,0,0,1,0,86,89,125,110,61,132.64,284,48.00,-24.00,-1002.00
2024-05-19 09:39:32.632906,-2,0,0,0,1,0,86,89,124,110,61,132.68,284,-1.00,-11.00,-1003.00
2024-05-19 09:39:32.685975,-2,0,0,0,1,0,86,89,123,110,61,132.57,284,50.00,-20.00,-1051.00
2024-05-19 09:39:32.837166,-1,-1,0,0,1,0,86,89,122,110,61,132.54,284,3.00,-47.00,-1020.00
2024-05-19 09:39:32.889929,0,-4,0,0,1,0,86,89,122,110,61,132.60,285,-19.00,-11.00,-1000.00
2024-05-19 09:39:33.041965,0,-3,0,0,0,0,87,89,122,110,61,132.65,285,87.00,-31.00,-1043.00
2024-05-19 09:39:33.094177,2,-2,0,0,0,0,87,89,122,110,61,132.63,285,-28.00,-7.00,-1044.00
2024-05-19 09:39:33.246949,3,-1,0,0,0,0,87,89,122,110,61,132.65,285,-46.00,-2.00,-1059.00
2024-05-19 09:39:33.297838,0,0,0,0,0,0,87,89,123,110,61,132.57,285,-7.00,-2.00,-1270.00
2024-05-19 09:39:33.400025,-3,0,0,0,0,0,87,89,123,110,61,132.66,285,27.00,-26.00,-931.00
2024-05-19 09:39:33.554617,-3,0,0,0,0,0,87,89,124,110,61,132.55,285,68.00,1.00,-1365.00
2024-05-19 09:39:33.604017,0,0,0,0,0,0,87,89,125,110,61,132.59,285,-23.00,-6.00,-957.00
2024-05-19 09:39:33.706047,0,0,0,0,0,0,87,89,125,110,61,132.58,285,-70.00,34.00,-1074.00
2024-05-19 09:39:33.859668,0,0,0,0,0,0,87,89,126,110,61,132.65,285,-30.00,57.00,-958.00
2024-05-19 09:39:33.909990,0,0,0,0,0,0,87,89,126,110,61,132.62,286,-5.00,-6.00,-1081.00
2024-05-19 09:39:34.066563,0,0,0,0,0,0,86,89,126,110,61,132.57,286,39.00,-21.00,-1026.00
2024-05-19 09:39:34.114070,1,2,0,0,0,0,86,89,125,110,61,132.58,286,31.00,-17.00,-846.00
2024-05-19 09:39:34.168012,0,1,0,0,0,0,86,89,124,110,61,132.57,286,33.00,16.00,-1174.00
2024-05-19 09:39:34.271098,0,0,0,0,0,0,86,89,123,110,61,132.53,286,-18.00,-16.00,-1001.00
2024-05-19 09:39:34.368757,0,0,0,0,0,0,86,89,123,110,61,132.56,286,-88.00,8.00,-1028.00
2024-05-19 09:39:34.475843,0,0,0,0,0,0,86,89,122,110,61,132.52,286,-3.00,1.00,-1161.00
2024-05-19 09:39:34.572752,0,0,0,0,0,0,86,89,121,110,61,132.59,286,15.00,-26.00,-1015.00
2024-05-19 09:39:34.674790,0,1,0,0,0,0,86,89,120,110,61,132.56,286,-30.00,-13.00,-967.00
2024-05-19 09:39:34.776760,0,1,0,0,0,0,86,89,120,110,61,132.50,286,-1.00,-4.00,-1033.00
2024-05-19 09:39:34.884969,0,0,0,0,0,0,86,89,119,110,61,132.50,287,-103.00,14.00,-1160.00
2024-05-19 09:39:34.980751,-1,0,0,0,0,0,87,88,118,110,61,132.54,287,-27.00,-9.00,-1037.00
2024-05-19 09:39:35.089809,-1,0,0,0,0,0,87,88,118,110,61,132.49,287,-72.00,24.00,-965.00
2024-05-19 09:39:35.184881,-1,0,0,0,0,0,87,88,119,110,61,132.41,287,-72.00,26.00,-836.00
2024-05-19 09:39:35.286865,0,0,0,0,0,0,87,88,119,110,61,132.46,287,12.00,-69.00,-1067.00
2024-05-19 09:39:35.388546,0,0,0,0,0,0,87,88,118,110,61,132.57,287,-71.00,9.00,-997.00
2024-05-19 09:39:35.496894,0,0,0,0,0,0,87,88,118,110,61,132.48,287,-17.00,-14.00,-1118.00
2024-05-19 09:39:35.592499,-1,0,3,0,0,0,87,88,117,110,61,132.42,287,-5.00,-1.00,-962.00
2024-05-19 09:39:35.698873,-1,0,9,0,0,0,87,88,116,110,61,132.47,287,5.00,-48.00,-948.00
2024-05-19 09:39:35.796490,-1,0,15,0,0,0,87,88,116,110,60,132.42,287,16.00,-40.00,-1185.00
2024-05-19 09:39:35.916047,0,0,21,0,0,0,87,88,115,110,60,132.33,288,5.00,-34.00,-1050.00
2024-05-19 09:39:36.000467,-1,0,27,0,0,0,86,89,115,100,60,132.44,288,-90.00,5.00,-1152.00
2024-05-19 09:39:36.113600,-1,0,33,0,0,0,86,89,114,100,60,132.37,288,1.00,-24.00,-1081.00
2024-05-19 09:39:36.204463,-1,0,39,0,0,0,86,89,114,100,60,132.36,288,-75.00,-4.00,-834.00
2024-05-19 09:39:36.316109,-1,0,45,0,0,0,86,89,114,100,60,132.39,288,-11.00,-36.00,-992.00
2024-05-19 09:39:36.408643,-1,1,51,0,0,0,86,89,114,100,60,132.36,288,86.00,-37.00,-1016.00
2024-05-19 09:39:36.522688,-1,0,57,0,0,0,86,89,114,100,60,132.34,288,-5.00,-15.00,-1031.00
2024-05-19 09:39:36.612474,-1,0,62,0,0,0,86,89,115,100,60,132.36,288,-110.00,44.00,-952.00
2024-05-19 09:39:36.714495,-1,0,68,0,0,0,86,89,115,100,60,132.39,288,-79.00,24.00,-890.00
2024-05-19 09:39:36.830175,-1,0,73,0,0,0,86,89,116,100,60,132.40,288,3.00,11.00,-996.00
2024-05-19 09:39:36.919568,-1,0,79,0,0,0,86,89,116,100,60,132.39,289,-80.00,20.00,-1005.00
2024-05-19 09:39:37.033248,-1,0,90,0,0,0,86,88,117,110,60,132.43,289,-87.00,8.00,-992.00
2024-05-19 09:39:37.125251,-1,0,96,0,0,0,86,88,117,110,60,132.50,289,6.00,0.00,-1051.00
2024-05-19 09:39:37.225687,-1,0,102,0,0,0,86,88,117,110,60,132.39,289,-64.00,27.00,-1027.00
2024-05-19 09:39:37.327116,-1,0,108,0,0,0,86,88,117,110,60,132.45,289,17.00,-27.00,-1030.00
2024-05-19 09:39:37.428559,-2,0,114,0,0,0,86,88,117,110,60,132.40,289,63.00,-16.00,-981.00
2024-05-19 09:39:37.530540,-2,0,120,0,0,0,86,88,118,110,60,132.46,289,-68.00,19.00,-1011.00
2024-05-19 09:39:37.649931,-2,0,126,0,0,0,86,88,117,110,60,132.55,289,-7.00,24.00,-1091.00
2024-05-19 09:39:37.735019,-2,-1,132,0,0,0,86,88,118,110,60,132.46,289,0.00,23.00,-1028.00
2024-05-19 09:39:37.854736,-2,-1,138,0,0,0,86,88,118,110,60,132.48,290,-120.00,57.00,-1088.00
2024-05-19 09:39:37.938398,-2,-1,143,0,0,0,86,88,118,110,60,132.40,290,22.00,-11.00,-960.00
2024-05-19 09:39:38.059608,-1,-1,149,0,0,0,86,89,118,110,60,132.44,290,-66.00,41.00,-974.00
2024-05-19 09:39:38.142598,-1,-1,154,0,0,0,86,89,118,110,60,132.44,290,-65.00,63.00,-1004.00
2024-05-19 09:39:38.244429,-2,-1,160,0,0,0,86,89,118,110,60,132.55,290,29.00,20.00,-1067.00
2024-05-19 09:39:38.366246,-1,-1,166,0,0,0,86,89,117,110,60,132.54,290,52.00,50.00,-839.00
2024-05-19 09:39:38.397585,-1,-1,172,0,0,0,86,89,117,110,60,132.54,290,-3.00,37.00,-1137.00
2024-05-19 09:39:38.572579,-1,-1,179,0,0,0,86,89,118,110,60,132.48,290,-7.00,23.00,-1065.00
2024-05-19 09:39:38.601943,-1,-1,-175,0,0,0,86,89,118,110,60,132.49,290,39.00,19.00,-994.00
2024-05-19 09:39:38.715162,-1,-2,-169,0,0,0,86,89,119,110,60,132.46,290,-34.00,59.00,-854.00
2024-05-19 09:39:38.805483,0,-2,-162,0,0,0,86,89,120,110,60,132.60,291,-47.00,53.00,-976.00
2024-05-19 09:39:38.978516,0,-2,-155,0,0,0,86,89,121,110,60,132.59,291,16.00,55.00,-1123.00
2024-05-19 09:39:39.009679,0,-3,-148,0,0,0,86,88,122,110,60,132.60,291,2.00,45.00,-955.00
2024-05-19 09:39:39.111888,0,-2,-141,0,0,0,86,88,123,110,60,132.57,291,42.00,38.00,-990.00
2024-05-19 09:39:39.285827,0,-2,-134,0,0,0,86,88,124,110,60,132.57,291,-20.00,65.00,-999.00
2024-05-19 09:39:39.316358,1,-1,-127,0,0,0,86,88,125,110,60,132.54,291,-11.00,31.00,-1065.00
2024-05-19 09:39:39.490982,1,-1,-120,0,0,0,86,88,127,110,60,132.68,291,85.00,7.00,-1061.00
2024-05-19 09:39:39.519715,2,-1,-113,0,0,0,86,88,128,110,60,132.47,291,53.00,21.00,-1044.00
2024-05-19 09:39:39.799813,3,0,-106,0,0,0,86,88,129,110,60,132.53,291,-21.00,72.00,-908.00
2024-05-19 09:39:39.800414,2,0,-99,0,0,0,86,88,129,110,60,132.56,291,80.00,6.00,-977.00
2024-05-19 09:39:39.825723,2,0,-91,0,0,0,86,88,130,110,60,132.61,292,63.00,-42.00,-1022.00
2024-05-19 09:39:40.002539,2,1,-84,-1,0,0,86,88,129,110,60,132.63,292,40.00,-16.00,-943.00
2024-05-19 09:39:40.029531,2,3,-77,-1,0,0,86,88,129,110,60,132.65,292,60.00,-60.00,-887.00
2024-05-19 09:39:40.310200,2,4,-70,0,0,0,86,88,129,110,60,132.62,292,25.00,-55.00,-1014.00
2024-05-19 09:39:40.310255,1,4,-64,0,0,0,86,88,127,110,60,132.63,292,36.00,-39.00,-983.00
2024-05-19 09:39:40.335598,0,4,-58,0,0,0,86,88,128,110,60,132.68,292,0.00,-59.00,-867.00
2024-05-19 09:39:40.514783,0,4,-52,0,0,0,86,88,128,110,60,132.62,292,38.00,-63.00,-1086.00
2024-05-19 09:39:40.539451,0,3,-45,0,0,0,86,88,127,110,60,132.59,292,19.00,-48.00,-959.00
2024-05-19 09:39:40.732000,0,3,-38,0,0,0,86,88,127,110,60,132.61,292,13.00,-52.00,-956.00
2024-05-19 09:39:40.743619,0,4,-31,0,0,0,86,88,127,110,60,132.55,292,-99.00,-28.00,-1010.00
2024-05-19 09:39:40.925002,-1,4,-24,0,0,0,86,88,127,110,60,132.61,293,-46.00,-58.00,-969.00
2024-05-19 09:39:40.947505,-3,4,-18,0,0,0,86,88,128,110,60,132.65,293,-18.00,-48.00,-1078.00
2024-05-19 09:39:41.138394,-2,3,-13,0,0,0,85,89,130,110,60,132.62,293,-41.00,-26.00,-1065.00
2024-05-19 09:39:41.151632,-2,2,-10,0,0,0,85,89,130,110,60,132.60,293,16.00,-60.00,-964.00
2024-05-19 09:39:41.253560,-1,2,-8,0,0,0,85,89,131,110,60,132.60,293,-27.00,-39.00,-998.00
2024-05-19 09:39:41.437887,-1,3,-6,0,0,0,85,89,132,110,60,132.55,293,28.00,-41.00,-890.00
2024-05-19 09:39:41.457831,-1,3,-5,0,0,0,85,89,132,110,60,132.64,293,8.00,-68.00,-1011.00
2024-05-19 09:39:41.640960,0,3,-3,0,0,0,85,89,133,110,60,132.62,293,-4.00,-32.00,-871.00
2024-05-19 09:39:41.661581,-1,2,-3,0,0,0,85,89,133,110,60,132.69,293,4.00,-72.00,-990.00
2024-05-19 09:39:41.764196,-1,2,-2,0,0,0,85,89,133,110,60,132.65,293,-33.00,-62.00,-950.00
2024-05-19 09:39:41.950774,0,2,-2,0,0,0,85,89,133,110,60,132.62,294,-72.00,0.00,-911.00
2024-05-19 09:39:41.950832,0,2,-2,0,0,0,85,89,133,110,60,132.60,294,-2.00,-28.00,-1079.00
2024-05-19 09:39:42.155472,0,1,-1,0,0,0,85,88,133,120,60,132.66,294,-65.00,3.00,-1142.00
2024-05-19 09:39:42.172147,0,2,-1,0,0,0,85,88,132,120,60,132.57,294,-14.00,-61.00,-1119.00
2024-05-19 09:39:42.223461,0,2,-1,0,0,0,85,88,131,120,60,132.62,294,-1.00,-41.00,-880.00
2024-05-19 09:39:42.360511,0,2,-1,0,0,0,85,88,131,110,60,132.68,294,-61.00,-48.00,-911.00
2024-05-19 09:39:42.427519,0,2,-1,0,0,0,85,88,130,110,60,132.61,294,-50.00,-42.00,-944.00
2024-05-19 09:39:42.565149,0,1,-1,0,0,0,85,88,129,110,60,132.56,294,23.00,-87.00,-914.00
2024-05-19 09:39:42.631437,0,1,-1,0,0,0,85,88,128,110,60,132.62,294,-50.00,-17.00,-968.00
2024-05-19 09:39:42.733402,0,1,-1,0,0,0,85,88,127,110,60,132.55,294,80.00,-81.00,-893.00
2024-05-19 09:39:42.870561,0,1,-1,0,0,0,85,88,126,110,59,132.49,295,-28.00,-27.00,-1094.00
2024-05-19 09:39:42.937687,0,2,-1,0,0,0,85,88,126,110,59,132.53,295,-24.00,-31.00,-1016.00
2024-05-19 09:39:43.077578,0,1,-1,0,0,0,87,88,125,110,59,132.52,295,15.00,-17.00,-1219.00
2024-05-19 09:39:43.141418,0,1,-1,0,0,0,87,88,124,110,59,132.47,295,6.00,-64.00,-1018.00
2024-05-19 09:39:43.282655,0,1,-1,0,0,0,87,88,124,110,59,132.51,295,112.00,-57.00,-1003.00
2024-05-19 09:39:43.345630,0,1,-1,0,0,0,87,88,124,110,59,132.52,295,30.00,-31.00,-1313.00
2024-05-19 09:39:43.486975,1,1,-1,0,0,0,87,88,123,110,59,132.52,295,54.00,-70.00,-967.00
2024-05-19 09:39:43.549260,0,1,-1,0,0,0,87,88,122,110,59,132.51,295,-79.00,16.00,-1007.00
2024-05-19 09:39:43.696602,0,2,-1,0,0,0,87,88,121,110,59,132.50,295,50.00,-79.00,-1058.00
2024-05-19 09:39:43.753485,0,2,-1,0,0,0,87,88,120,110,59,132.47,295,33.00,-39.00,-1174.00
2024-05-19 09:39:43.900481,0,2,-1,0,0,0,87,88,118,110,59,132.47,296,0.00,-67.00,-981.00
2024-05-19 09:39:43.957698,0,3,-1,0,0,0,87,88,117,110,59,132.52,296,-23.00,44.00,-1062.00
2024-05-19 09:39:44.105741,0,2,-1,0,0,0,86,88,116,110,59,132.51,296,8.00,-45.00,-963.00
2024-05-19 09:39:44.162112,0,2,-1,0,0,0,86,88,115,110,59,132.41,296,8.00,-56.00,-1005.00
2024-05-19 09:39:44.263341,0,2,-1,0,0,0,86,88,114,100,59,132.54,296,-16.00,-50.00,-1036.00
2024-05-19 09:39:44.419230,1,3,-5,0,0,0,86,88,114,100,59,132.44,296,66.00,-71.00,-911.00
2024-05-19 09:39:44.467352,2,3,-11,0,0,0,86,88,113,100,59,132.50,296,49.00,-62.00,-917.00
2024-05-19 09:39:44.617377,3,3,-17,0,0,0,86,88,113,100,59,132.46,296,-32.00,-43.00,-1165.00
2024-05-19 09:39:44.671440,2,3,-24,0,0,0,86,88,114,100,59,132.43,296,18.00,-27.00,-1024.00
2024-05-19 09:39:44.815280,2,2,-30,0,0,0,86,88,114,100,59,132.50,296,87.00,-29.00,-1100.00
2024-05-19 09:39:44.876309,4,1,-36,0,0,0,86,88,115,100,59,132.51,297,22.00,-12.00,-936.00
2024-05-19 09:39:45.020567,4,0,-42,0,0,0,86,88,117,100,59,132.54,297,1.00,-8.00,-1266.00
2024-05-19 09:39:45.079840,4,0,-47,0,0,-1,86,88,118,100,59,132.53,297,45.00,14.00,-1142.00
2024-05-19 09:39:45.225490,4,0,-53,0,0,-1,86,88,119,110,59,132.44,297,49.00,-5.00,-1117.00
2024-05-19 09:39:45.284169,3,0,-59,0,0,-1,86,88,121,110,59,132.47,297,91.00,-13.00,-945.00
2024-05-19 09:39:45.429728,3,0,-65,0,0,-1,86,88,121,110,59,132.42,297,-4.00,-7.00,-893.00
2024-05-19 09:39:45.488018,3,0,-70,0,0,0,86,88,121,110,59,132.49,297,99.00,-20.00,-977.00
2024-05-19 09:39:45.636645,4,0,-76,0,0,0,86,88,121,110,59,132.62,297,127.00,24.00,-1014.00
2024-05-19 09:39:45.691941,4,-1,-82,0,0,0,86,88,120,110,59,132.64,297,89.00,35.00,-948.00
2024-05-19 09:39:45.846132,5,-2,-88,0,-1,0,86,88,120,110,59,132.69,297,111.00,22.00,-1040.00
2024-05-19 09:39:45.896036,6,-2,-94,0,-1,0,86,88,121,110,59,132.70,298,28.00,73.00,-988.00
2024-05-19 09:39:46.045693,6,-3,-99,0,-1,0,86,88,119,110,59,132.66,298,49.00,113.00,-949.00
2024-05-19 09:39:46.100043,5,-3,-105,0,0,0,86,88,118,110,59,132.71,298,140.00,54.00,-994.00
2024-05-19 09:39:46.255093,4,-4,-111,0,0,0,86,88,119,100,59,132.72,298,126.00,36.00,-956.00
2024-05-19 09:39:46.303956,4,-4,-116,0,0,0,86,88,120,100,59,132.67,298,83.00,88.00,-979.00
2024-05-19 09:39:46.456417,4,-5,-122,0,0,0,86,88,121,100,59,132.69,298,85.00,85.00,-1022.00
2024-05-19 09:39:46.457408,4,-5,-128,0,0,0,86,88,122,110,59,132.73,298,52.00,76.00,-897.00
2024-05-19 09:39:46.559752,4,-5,-133,0,0,0,86,88,123,110,59,132.78,298,15.00,88.00,-978.00
2024-05-19 09:39:46.661759,4,-6,-139,0,0,0,86,88,125,110,59,132.76,298,33.00,93.00,-914.00
2024-05-19 09:39:46.766312,3,-5,-144,0,0,0,86,88,126,110,59,132.78,298,-55.00,160.00,-922.00
2024-05-19 09:39:46.867669,2,-6,-150,0,0,0,86,88,127,110,59,132.75,299,2.00,153.00,-942.00
2024-05-19 09:39:46.968509,0,-6,-156,0,0,0,86,88,128,110,59,132.75,299,41.00,99.00,-943.00
2024-05-19 09:39:47.069506,0,-6,-162,0,0,0,86,87,129,110,59,132.74,299,33.00,63.00,-936.00
2024-05-19 09:39:47.171427,0,-6,-168,0,0,0,86,87,130,110,59,132.71,299,-48.00,143.00,-1096.00
2024-05-19 09:39:47.273734,0,-6,-175,0,0,0,86,87,132,110,59,132.69,299,-54.00,104.00,-1073.00
2024-05-19 09:39:47.375533,-1,-6,178,0,0,0,86,87,132,110,59,132.66,299,50.00,59.00,-987.00
2024-05-19 09:39:47.477754,-2,-5,172,0,0,0,86,87,133,110,59,132.67,299,27.00,65.00,-941.00
2024-05-19 09:39:47.579690,-3,-5,165,0,0,0,86,87,133,110,59,132.67,299,-12.00,106.00,-940.00
2024-05-19 09:39:47.683053,-3,-4,159,0,0,0,86,87,133,120,59,132.67,299,-125.00,165.00,-928.00
2024-05-19 09:39:47.785383,-2,-4,152,0,0,0,86,87,132,120,58,132.64,299,-123.00,140.00,-1005.00
2024-05-19 09:39:47.887412,-2,-4,146,0,0,0,86,87,132,120,58,132.61,300,-59.00,51.00,-1053.00
2024-05-19 09:39:47.990168,-3,-3,139,0,0,0,86,87,132,110,58,132.61,300,-164.00,115.00,-1054.00
2024-05-19 09:39:48.090142,-4,-2,133,0,0,0,86,87,132,110,58,132.48,300,-74.00,50.00,-1018.00
2024-05-19 09:39:48.197336,-4,-1,126,0,0,0,86,87,130,110,58,132.49,300,-19.00,31.00,-890.00
2024-05-19 09:39:48.293896,-4,-1,120,0,0,0,86,87,131,110,58,132.46,300,-46.00,20.00,-926.00
2024-05-19 09:39:48.504410,-5,-1,114,0,0,0,86,87,130,110,58,132.41,300,-88.00,39.00,-1044.00
2024-05-19 09:39:48.504466,-5,0,108,0,0,0,86,87,130,110,58,132.39,300,-142.00,62.00,-1082.00
2024-05-19 09:39:48.600023,-5,0,101,0,0,0,86,87,129,110,58,132.23,300,-67.00,7.00,-995.00
2024-05-19 09:39:48.709112,-6,0,95,0,0,0,86,87,129,110,58,132.15,300,-135.00,9.00,-1022.00
2024-05-19 09:39:48.803919,-5,0,89,0,0,0,86,87,130,110,58,132.31,300,-111.00,-16.00,-993.00
2024-05-19 09:39:48.914002,-5,1,84,0,0,0,86,87,130,110,58,132.43,301,-147.00,19.00,-993.00
2024-05-19 09:39:49.007849,-4,2,78,0,0,0,86,87,131,110,58,132.42,301,-62.00,-31.00,-1110.00
2024-05-19 09:39:49.109878,-4,2,73,0,0,0,85,87,132,110,58,132.47,301,-65.00,-43.00,-937.00
2024-05-19 09:39:49.218768,-3,3,67,0,0,0,85,87,133,110,58,132.47,301,-49.00,-89.00,-906.00
2024-05-19 09:39:49.313875,-3,2,61,0,0,0,85,87,133,110,58,132.52,301,-62.00,-42.00,-1181.00
2024-05-19 09:39:49.415876,-4,2,56,0,0,0,85,87,132,110,58,132.52,301,-68.00,-36.00,-1015.00
2024-05-19 09:39:49.525971,-3,2,50,0,0,0,85,87,133,110,58,132.57,301,-78.00,-65.00,-882.00
2024-05-19 09:39:49.619823,-2,2,45,0,0,0,85,87,133,110,58,132.53,301,-66.00,-58.00,-836.00
2024-05-19 09:39:49.721830,-2,3,40,0,0,0,85,87,132,110,58,132.53,301,-129.00,-39.00,-1000.00
2024-05-19 09:39:49.835115,-2,3,34,0,0,0,85,87,132,110,58,132.57,301,-36.00,-59.00,-1091.00
2024-05-19 09:39:49.874778,-1,4,29,0,0,0,85,87,131,110,58,132.54,302,23.00,-92.00,-973.00
2024-05-19 09:39:50.038341,0,4,23,0,0,0,85,87,130,110,58,132.56,302,-19.00,-85.00,-864.00
2024-05-19 09:39:50.129815,0,4,18,0,0,1,85,87,129,110,58,132.58,302,-67.00,-19.00,-1084.00
2024-05-19 09:39:50.245597,0,4,13,0,0,0,85,87,128,110,58,132.56,302,48.00,-89.00,-981.00
2024-05-19 09:39:50.283534,0,3,10,0,0,0,85,87,128,110,58,132.58,302,-94.00,-17.00,-1067.00
2024-05-19 09:39:50.450011,0,3,7,0,0,0,85,87,127,110,58,132.64,302,50.00,-88.00,-823.00
2024-05-19 09:39:50.487859,0,3,5,0,0,0,85,87,126,110,58,132.58,302,34.00,-71.00,-958.00
2024-05-19 09:39:50.654957,0,3,3,0,0,0,85,87,125,110,58,132.62,302,39.00,-95.00,-985.00
2024-05-19 09:39:50.692623,1,3,2,0,0,0,85,87,125,110,58,132.58,302,-17.00,-94.00,-959.00
2024-05-19 09:39:50.793244,1,3,1,0,0,0,85,87,125,110,57,132.59,302,5.00,-35.00,-1129.00
2024-05-19 09:39:50.895627,1,3,0,0,0,0,85,87,124,110,57,132.60,303,38.00,-65.00,-1050.00
2024-05-19 09:39:51.064525,1,4,0,0,0,0,85,87,123,110,57,132.55,303,73.00,-76.00,-777.00
2024-05-19 09:39:51.103829,1,3,0,0,0,0,85,88,123,110,57,132.55,303,-34.00,-63.00,-970.00
2024-05-19 09:39:51.200850,1,3,0,0,0,0,85,88,122,110,57,132.54,303,29.00,-108.00,-1067.00
2024-05-19 09:39:51.371728,0,2,0,0,0,0,85,88,122,110,57,132.50,303,19.00,-56.00,-1073.00
2024-05-19 09:39:51.404752,0,3,0,0,0,0,85,88,123,110,57,132.51,303,29.00,-62.00,-1123.00
2024-05-19 09:39:51.583638,0,3,0,0,0,0,85,88,122,110,57,132.50,303,-3.00,-64.00,-990.00
2024-05-19 09:39:51.609048,0,3,0,0,0,0,85,88,122,110,57,132.54,303,1.00,-53.00,-1015.00
2024-05-19 09:39:51.781068,0,2,0,0,0,0,85,88,123,110,57,132.49,303,9.00,-71.00,-1079.00
2024-05-19 09:39:51.813152,0,3,0,0,0,0,85,88,123,110,57,132.54,304,30.00,-85.00,-987.00
2024-05-19 09:39:51.984753,0,2,0,0,0,0,85,88,123,110,57,132.44,304,-20.00,-22.00,-1116.00
2024-05-19 09:39:52.017150,0,2,0,0,0,0,85,88,123,110,57,132.53,304,32.00,-86.00,-815.00
2024-05-19 09:39:52.189762,0,2,0,0,0,0,86,87,123,110,57,132.56,304,25.00,-28.00,-958.00
2024-05-19 09:39:52.221044,0,2,0,0,0,0,86,87,123,110,57,132.60,304,-32.00,-63.00,-957.00
2024-05-19 09:39:52.393272,0,2,0,0,0,0,86,87,123,110,57,132.67,304,0.00,-45.00,-1279.00
2024-05-19 09:39:52.424753,0,2,0,0,0,0,86,87,124,110,57,132.61,304,0.00,-52.00,-855.00
2024-05-19 09:39:52.597730,0,2,0,0,0,0,86,87,124,110,57,132.65,304,-21.00,-31.00,-953.00
2024-05-19 09:39:52.628780,0,2,0,0,0,0,86,87,125,110,57,132.66,304,-44.00,-47.00,-922.00
2024-05-19 09:39:52.730783,-1,1,0,0,0,0,86,87,124,110,57,132.77,304,-20.00,-47.00,-887.00
2024-05-19 09:39:52.849550,-1,1,0,0,0,0,86,87,125,110,57,132.69,305,18.00,-75.00,-894.00
2024-05-19 09:39:52.934600,0,2,0,0,0,0,86,87,125,110,57,132.70,305,-76.00,-20.00,-1039.00
2024-05-19 09:39:53.109695,0,0,0,0,0,-2,86,87,125,110,57,132.83,305,11.00,14.00,-1340.00
2024-05-19 09:39:53.138600,0,-2,0,0,0,-8,85,87,130,120,57,132.90,305,-18.00,24.00,-1753.00
2024-05-19 09:39:53.248848,0,-45,1,0,-2,-12,85,87,147,130,57,133.00,305,-32.00,273.00,-1117.00
2024-05-19 09:39:53.342886,1,-166,1,0,-10,-4,85,87,6553,140,57,132.95,305,-27.00,762.00,-968.00
2024-05-19 09:39:53.521888,2,69,-1,0,-8,9,85,87,6553,130,57,133.07,305,-12.00,556.00,-847.00
2024-05-19 09:39:53.546624,1,-14,-2,0,-4,11,85,87,142,120,57,133.17,305,47.00,76.00,-1548.00
2024-05-19 09:39:53.726011,1,-4,-1,0,-8,9,85,87,135,110,57,132.87,305,-21.00,67.00,-1431.00
2024-05-19 09:39:53.750624,-1,7,0,0,-8,5,85,87,120,110,57,132.59,305,108.00,4.00,-1318.00
2024-05-19 09:39:53.801611,-1,8,0,0,-6,1,85,87,116,100,57,132.65,306,-6.00,-4.00,-1293.00
2024-05-19 09:39:53.931597,-1,6,0,0,-4,0,85,87,114,100,57,132.70,306,-18.00,-3.00,-1144.00
2024-05-19 09:39:54.005678,0,4,0,0,-3,-1,85,87,114,100,57,132.79,306,20.00,-37.00,-1013.00
2024-05-19 09:39:54.158901,0,3,0,0,-2,-1,85,87,114,100,57,132.70,306,56.00,-22.00,-801.00
2024-05-19 09:39:54.209536,0,2,0,0,-2,-1,85,87,116,100,57,132.60,306,22.00,-53.00,-965.00
2024-05-19 09:39:54.338904,0,2,0,0,-2,-1,85,87,117,100,57,132.66,306,41.00,-41.00,-1058.00
2024-05-19 09:39:54.413600,0,2,0,0,-2,-1,85,87,119,110,57,132.70,306,92.00,-37.00,-916.00
2024-05-19 09:39:54.543209,0,3,0,0,-2,-1,85,87,119,110,57,132.72,306,-81.00,-39.00,-928.00
2024-05-19 09:39:54.617594,0,2,0,0,-1,0,85,87,120,110,57,132.66,306,-58.00,-5.00,-923.00
2024-05-19 09:39:54.748272,0,4,0,0,-1,0,85,87,121,110,57,132.67,306,24.00,-35.00,-975.00
2024-05-19 09:39:54.821584,0,5,0,0,-1,0,85,87,121,110,57,132.72,307,70.00,-45.00,-1019.00
2024-05-19 09:39:54.952786,0,4,0,0,0,0,85,87,120,110,57,132.66,307,-1.00,-43.00,-1014.00
2024-05-19 09:39:55.025630,0,4,0,0,0,0,85,87,120,110,57,132.57,307,11.00,-72.00,-1077.00
2024-05-19 09:39:55.127448,0,3,0,0,0,0,86,88,120,110,57,132.64,307,69.00,-122.00,-955.00
2024-05-19 09:39:55.260219,0,4,0,0,0,0,86,88,120,110,57,132.66,307,36.00,-90.00,-953.00
2024-05-19 09:39:55.331621,0,4,0,0,0,0,86,88,120,110,57,132.72,307,-36.00,-27.00,-1058.00
2024-05-19 09:39:55.433558,0,4,0,0,0,0,86,88,120,110,57,132.69,307,116.00,-60.00,-1001.00
2024-05-19 09:39:55.567524,2,4,0,0,0,0,86,88,120,110,57,132.72,307,41.00,-60.00,-961.00
2024-05-19 09:39:55.637511,2,4,0,1,0,0,86,88,120,110,57,132.69,307,30.00,-28.00,-1074.00
2024-05-19 09:39:55.739560,3,4,0,1,0,0,86,88,121,110,57,132.73,307,4.00,2.00,-1029.00
2024-05-19 09:39:55.874417,3,3,0,0,0,0,86,88,121,110,56,132.70,308,98.00,-54.00,-1028.00
2024-05-19 09:39:55.943501,3,2,0,0,0,0,86,88,123,110,56,132.62,308,2.00,-55.00,-1093.00
2024-05-19 09:39:56.081339,3,2,0,0,0,0,86,88,123,110,56,132.66,308,92.00,-21.00,-1070.00
2024-05-19 09:39:56.147485,3,2,0,0,0,0,85,88,123,110,56,132.68,308,-9.00,-15.00,-968.00
2024-05-19 09:39:56.285423,3,2,0,0,0,0,85,88,123,110,56,132.63,308,40.00,-54.00,-958.00
2024-05-19 09:39:56.351549,3,2,0,0,0,0,85,88,123,110,56,132.62,308,1.00,-14.00,-1149.00
2024-05-19 09:39:56.453563,4,2,0,0,0,0,85,88,122,110,56,132.73,308,106.00,-60.00,-1171.00
2024-05-19 09:39:56.591153,4,2,0,0,0,0,85,88,122,110,56,132.73,308,25.00,-13.00,-1040.00
2024-05-19 09:39:56.657531,3,2,0,0,0,0,85,88,121,110,56,132.60,308,60.00,-50.00,-1162.00
2024-05-19 09:39:56.759553,4,2,0,0,0,0,85,88,120,110,56,132.66,308,39.00,-35.00,-868.00
2024-05-19 09:39:56.901227,4,2,0,0,0,0,85,88,119,110,56,132.62,309,106.00,-51.00,-983.00
2024-05-19 09:39:56.963560,4,2,0,0,0,0,85,88,118,110,56,132.65,309,150.00,-105.00,-868.00
2024-05-19 09:39:57.106324,4,2,0,0,0,0,85,88,117,110,56,132.60,309,76.00,-84.00,-1046.00
2024-05-19 09:39:57.168669,3,3,0,0,0,0,86,88,116,100,56,132.60,309,97.00,-60.00,-1035.00
2024-05-19 09:39:57.310869,3,2,0,0,0,0,86,88,116,100,56,132.64,309,54.00,-1.00,-1097.00
2024-05-19 09:39:57.372619,3,2,0,0,0,0,86,88,116,100,56,132.68,309,66.00,-65.00,-1067.00
2024-05-19 09:39:57.513727,4,2,0,0,0,0,86,88,117,100,56,132.70,309,86.00,-77.00,-938.00
2024-05-19 09:39:57.576406,4,2,0,0,0,0,86,88,118,100,56,132.68,309,24.00,-70.00,-1028.00
2024-05-19 09:39:57.719705,4,2,0,0,0,0,86,88,118,100,56,132.70,309,-32.00,-66.00,-1051.00
2024-05-19 09:39:57.780427,3,2,0,0,0,0,86,88,119,100,55,132.76,309,49.00,-55.00,-1116.00
2024-05-19 09:39:57.922407,2,2,0,0,0,0,86,88,119,110,55,132.76,310,116.00,-71.00,-942.00
2024-05-19 09:39:57.933489,3,3,0,0,0,0,86,88,119,110,55,132.68,310,92.00,-53.00,-1049.00
2024-05-19 09:39:58.133927,3,2,0,0,0,0,86,88,118,110,55,132.73,310,128.00,-102.00,-1002.00
2024-05-19 09:39:58.188759,3,2,0,0,0,0,85,88,118,110,55,132.68,310,84.00,-48.00,-929.00
2024-05-19 09:39:58.239579,4,2,0,0,0,0,85,88,117,110,55,132.68,310,31.00,-34.00,-1003.00
2024-05-19 09:39:58.437686,4,2,0,0,0,0,85,88,116,110,55,132.71,310,51.00,-70.00,-1126.00
2024-05-19 09:39:58.443386,4,2,0,0,0,0,85,88,115,100,55,132.73,310,40.00,-23.00,-1072.00
2024-05-19 09:39:58.642171,4,3,0,0,0,0,85,88,114,100,55,132.64,310,-29.00,-39.00,-940.00
2024-05-19 09:39:58.647451,3,3,0,0,0,0,85,88,113,100,55,132.65,310,-41.00,-35.00,-991.00
2024-05-19 09:39:58.749585,3,3,0,0,0,0,85,88,112,100,55,132.71,310,-51.00,-52.00,-1117.00
2024-05-19 09:39:58.851655,3,5,0,0,0,0,85,88,111,100,55,132.69,311,-6.00,-53.00,-1013.00
2024-05-19 09:39:59.051733,2,4,0,0,0,0,85,88,112,100,55,132.65,311,80.00,-63.00,-1164.00
2024-05-19 09:39:59.055433,2,5,0,0,0,0,85,88,113,100,55,132.65,311,16.00,-24.00,-987.00
2024-05-19 09:39:59.256396,3,4,0,0,0,0,86,88,114,100,55,132.74,311,28.00,-30.00,-1098.00
2024-05-19 09:39:59.260475,4,4,0,0,0,-1,86,88,116,100,55,132.76,311,-7.00,-39.00,-926.00
2024-05-19 09:39:59.406647,5,4,0,0,0,-1,86,88,117,100,55,132.83,311,46.00,-47.00,-1027.00
2024-05-19 09:39:59.464062,4,5,0,0,0,-1,86,88,117,100,55,132.84,311,-19.00,-82.00,-979.00
2024-05-19 09:39:59.663403,2,5,0,0,0,-1,86,88,118,100,55,132.89,311,56.00,-79.00,-1396.00
2024-05-19 09:39:59.667367,0,6,0,0,0,-4,86,88,121,110,55,132.81,311,29.00,-13.00,-1639.00
2024-05-19 09:39:59.769273,0,13,0,0,1,-10,86,88,137,110,55,132.86,311,97.00,-93.00,-1638.00
2024-05-19 09:39:59.970779,0,86,0,0,6,-11,86,88,6553,130,55,132.82,312,-31.00,656.00,-1110.00
2024-05-19 09:39:59.973301,0,-139,-1,0,10,2,86,88,496,130,55,132.65,312,50.00,1081.00,-1098.00
2024-05-19 09:40:00.075401,0,-13,5,0,3,9,86,88,133,120,55,132.81,312,-21.00,501.00,-914.00
2024-05-19 09:40:00.177414,-2,12,12,0,5,9,86,88,123,110,55,132.66,312,0.00,9.00,-1203.00
2024-05-19 09:40:00.279245,2,-7,23,0,6,5,86,88,113,110,55,132.72,312,17.00,-116.00,-1483.00
2024-05-19 09:40:00.484639,4,-5,34,0,3,2,86,88,108,100,55,132.53,312,13.00,-122.00,-1324.00
2024-05-19 09:40:00.484686,1,0,36,1,1,0,86,88,107,100,55,132.55,312,-135.00,45.00,-1065.00
2024-05-19 09:40:00.587900,0,2,32,0,1,-1,86,88,106,100,55,132.53,312,63.00,-189.00,-1050.00
2024-05-19 09:40:00.687537,0,2,21,0,0,-1,86,88,107,100,55,132.54,312,89.00,-121.00,-1042.00
2024-05-19 09:40:00.791833,0,2,9,1,0,-1,86,88,108,100,55,132.57,312,-8.00,-26.00,-965.00
2024-05-19 09:40:00.892496,0,2,0,1,0,-1,86,88,109,100,55,132.61,313,46.00,-49.00,-1115.00
2024-05-19 09:40:00.994222,3,0,-1,2,0,-1,86,88,109,100,55,132.55,313,35.00,-4.00,-926.00
2024-05-19 09:40:01.099608,4,0,-1,1,0,0,86,88,110,100,55,132.59,313,-18.00,-7.00,-944.00
2024-05-19 09:40:01.197150,4,0,-1,1,0,0,86,88,110,100,55,132.56,313,37.00,-90.00,-1075.00
2024-05-19 09:40:01.303875,4,1,0,0,0,0,86,88,110,100,55,132.52,313,76.00,-53.00,-998.00
2024-05-19 09:40:01.401256,3,2,-1,0,-1,0,86,88,110,100,55,132.56,313,59.00,-86.00,-953.00
2024-05-19 09:40:01.509187,3,3,0,0,-1,0,86,88,110,100,55,132.59,313,12.00,-10.00,-1038.00
2024-05-19 09:40:01.605283,3,3,-1,0,-1,0,86,88,110,100,55,132.56,313,-7.00,-34.00,-908.00
2024-05-19 09:40:01.656095,3,3,0,0,0,0,86,88,110,100,55,132.60,313,66.00,-55.00,-1000.00
2024-05-19 09:40:01.758219,3,3,0,0,0,0,86,88,110,100,54,132.54,313,51.00,-66.00,-983.00
2024-05-19 09:40:01.918887,3,3,0,0,0,0,86,88,110,100,54,132.71,314,-24.00,-45.00,-961.00
2024-05-19 09:40:01.962136,3,3,0,0,0,0,86,88,110,100,54,132.65,314,47.00,-77.00,-847.00
2024-05-19 09:40:02.123540,3,3,0,0,0,0,86,88,110,100,54,132.70,314,57.00,-52.00,-1126.00
2024-05-19 09:40:02.166117,3,3,0,0,0,0,86,88,110,100,54,132.58,314,-15.00,-14.00,-1163.00
2024-05-19 09:40:02.328091,2,3,0,0,0,0,86,88,109,100,54,132.62,314,63.00,-59.00,-992.00
2024-05-19 09:40:02.370101,2,3,0,0,0,0,86,88,109,100,54,132.57,314,53.00,-67.00,-1068.00
2024-05-19 09:40:02.533155,2,4,0,0,0,0,86,88,110,100,54,132.53,314,42.00,-74.00,-934.00
2024-05-19 09:40:02.574135,2,3,0,0,0,0,86,88,110,100,54,132.72,314,-7.00,-79.00,-950.00
2024-05-19 09:40:02.737463,3,3,0,0,0,0,86,88,111,100,54,132.71,314,5.00,-52.00,-1021.00
2024-05-19 09:40:02.778291,3,2,0,0,0,0,86,88,111,100,54,132.69,314,54.00,-88.00,-970.00
2024-05-19 09:40:02.942580,2,3,0,0,0,0,86,88,112,100,54,132.64,315,34.00,-16.00,-992.00
2024-05-19 09:40:02.982121,1,4,0,0,0,0,86,88,113,100,54,132.55,315,47.00,-39.00,-1011.00
2024-05-19 09:40:03.084800,1,3,0,0,0,0,86,88,113,100,54,132.52,315,-15.00,25.00,-1093.00
2024-05-19 09:40:03.247303,2,2,0,0,0,0,86,88,114,100,54,132.59,315,73.00,-51.00,-1054.00
2024-05-19 09:40:03.288811,2,1,0,0,0,0,86,88,115,100,54,132.54,315,77.00,-52.00,-1064.00
2024-05-19 09:40:03.453936,2,2,0,0,0,0,86,88,116,100,54,132.57,315,105.00,-61.00,-809.00
2024-05-19 09:40:03.492980,2,2,0,0,0,0,86,88,117,100,54,132.60,315,-6.00,-35.00,-990.00
2024-05-19 09:40:03.657391,2,1,0,0,0,0,86,88,119,100,54,132.56,315,-4.00,47.00,-938.00
2024-05-19 09:40:03.696045,2,1,0,0,0,0,86,88,120,100,54,132.61,315,-49.00,9.00,-1022.00
2024-05-19 09:40:03.798363,2,1,0,0,0,0,86,88,121,100,54,132.62,315,36.00,-39.00,-1014.00
2024-05-19 09:40:03.966629,1,1,0,0,0,0,86,88,123,100,54,132.77,316,0.00,-38.00,-937.00
2024-05-19 09:40:04.002051,1,1,0,0,0,0,86,88,124,110,54,132.70,316,0.00,19.00,-893.00
2024-05-19 09:40:04.104338,1,1,0,0,0,0,86,88,125,110,54,132.71,316,46.00,-39.00,-1111.00
2024-05-19 09:40:04.271918,1,0,0,0,0,0,86,88,126,110,54,132.78,316,8.00,-2.00,-1115.00
2024-05-19 09:40:04.308101,0,1,0,0,0,0,86,88,128,110,54,132.76,316,-35.00,17.00,-937.00
2024-05-19 09:40:04.476041,0,1,0,0,0,0,86,88,129,110,54,132.77,316,0.00,-64.00,-988.00
2024-05-19 09:40:04.512205,0,1,0,0,0,0,86,88,131,110,54,132.76,316,-8.00,-36.00,-986.00
2024-05-19 09:40:04.683496,0,1,0,0,0,0,86,88,132,110,54,132.84,316,1.00,-80.00,-967.00
