TS,pitch,roll,yaw,vgx,vgy,vgz,templ,temph,tof,h,bat,baro,time,agx,agy,agz
2024-05-17 15:29:59.571216,0,0,0,0,0,0,74,75,10,0,84,164.06,0,6.00,-5.00,-1000.00
2024-05-17 15:29:59.614941,0,0,0,0,0,0,74,75,10,0,84,163.89,0,5.00,-4.00,-999.00
2024-05-17 15:29:59.775612,0,0,0,0,0,0,74,75,10,0,84,163.77,0,6.00,-2.00,-999.00
2024-05-17 15:29:59.818930,0,0,0,0,0,0,74,75,10,0,84,163.92,0,7.00,-4.00,-1001.00
2024-05-17 15:29:59.980320,0,0,0,0,0,0,74,75,10,0,84,163.56,0,6.00,-5.00,-1001.00
2024-05-17 15:30:00.022748,0,0,0,0,0,0,74,76,10,0,84,163.77,0,5.00,-4.00,-1000.00
2024-05-17 15:30:00.185227,0,0,0,0,0,0,74,76,10,0,84,163.89,0,6.00,-5.00,-997.00
2024-05-17 15:30:00.227192,0,0,0,0,0,0,74,76,10,0,84,164.01,0,6.00,-4.00,-998.00
2024-05-17 15:30:00.390067,0,0,0,0,0,0,74,76,10,0,84,164.06,0,5.00,-3.00,-999.00
2024-05-17 15:30:00.390661,0,0,0,0,0,0,74,76,10,0,84,163.97,0,5.00,-3.00,-1000.00
2024-05-17 15:30:00.481897,0,0,0,0,0,0,74,76,10,0,84,163.86,0,6.00,-3.00,-999.00
2024-05-17 15:30:00.594831,0,0,0,0,0,0,74,76,10,0,84,164.14,0,6.00,-4.00,-999.00
2024-05-17 15:30:00.685849,0,0,0,0,0,0,74,76,10,0,84,163.88,0,7.00,-4.00,-1000.00
2024-05-17 15:30:00.799901,0,0,0,0,0,0,74,76,10,0,84,164.02,0,5.00,-4.00,-999.00
2024-05-17 15:30:00.889905,0,0,0,0,0,0,74,76,10,0,84,163.92,0,6.00,-4.00,-998.00
2024-05-17 15:30:00.991819,0,0,0,0,0,0,74,76,10,0,84,163.96,0,6.00,-3.00,-1003.00
2024-05-17 15:30:01.107349,0,0,0,0,0,0,74,76,10,0,84,164.27,0,6.00,-4.00,-999.00
2024-05-17 15:30:01.195879,0,0,0,0,0,0,74,76,10,0,84,164.13,0,5.00,-4.00,-1001.00
2024-05-17 15:30:01.311471,0,0,0,0,0,0,74,76,10,0,84,164.06,0,7.00,-5.00,-1000.00
2024-05-17 15:30:01.399862,0,0,0,0,0,0,74,76,10,0,84,164.09,0,5.00,-6.00,-999.00
2024-05-17 15:30:01.516884,0,0,0,0,0,0,74,76,10,0,84,163.89,0,5.00,-3.00,-1000.00
2024-05-17 15:30:01.603799,0,0,0,0,0,0,74,76,10,0,84,163.95,0,6.00,-4.00,-999.00
2024-05-17 15:30:01.721232,0,0,0,0,0,0,74,76,10,0,84,163.77,0,5.00,-4.00,-1002.00
2024-05-17 15:30:01.807867,0,0,0,0,0,0,74,76,10,0,84,164.26,0,5.00,-4.00,-1001.00
2024-05-17 15:30:01.925894,0,0,0,0,0,0,74,76,10,0,84,164.06,0,6.00,-3.00,-1001.00
2024-05-17 15:30:02.011886,0,0,0,0,0,0,74,77,10,0,84,164.08,0,7.00,-3.00,-1000.00
2024-05-17 15:30:02.130735,0,0,0,0,0,0,74,77,10,0,84,164.01,0,6.00,-3.00,-1000.00
2024-05-17 15:30:02.215844,0,0,0,0,0,0,74,77,10,0,84,163.94,0,5.00,-5.00,-1004.00
2024-05-17 15:30:02.335949,0,0,0,0,0,0,74,77,10,0,84,164.05,0,5.00,-3.00,-999.00
2024-05-17 15:30:02.419833,0,0,0,0,0,0,74,77,10,0,84,164.02,0,5.00,-4.00,-1001.00
2024-05-17 15:30:02.540411,0,0,0,0,0,0,74,77,10,0,84,163.77,0,6.00,-4.00,-999.00
2024-05-17 15:30:02.623726,0,0,0,0,0,0,74,77,10,0,84,164.19,0,6.00,-3.00,-999.00
2024-05-17 15:30:02.745252,0,0,0,0,0,0,74,77,10,0,84,163.80,0,6.00,-2.00,-999.00
2024-05-17 15:30:02.827729,0,0,0,0,0,0,74,77,10,0,84,164.31,0,6.00,-3.00,-999.00
2024-05-17 15:30:02.929746,0,0,0,0,0,0,74,77,10,0,84,164.16,0,5.00,-5.00,-1000.00
2024-05-17 15:30:03.031655,0,0,0,0,0,0,75,76,10,0,84,163.60,0,5.00,-4.00,-998.00
2024-05-17 15:30:03.133798,0,0,0,0,0,0,75,76,10,0,84,163.89,0,5.00,-5.00,-999.00
2024-05-17 15:30:03.235863,0,0,0,0,0,0,75,76,10,0,84,164.05,0,7.00,-5.00,-999.00
2024-05-17 15:30:03.337716,0,0,0,0,0,0,75,76,10,0,84,164.15,0,5.00,-2.00,-1000.00
2024-05-17 15:30:03.439842,0,0,0,0,0,0,75,76,10,0,84,163.90,0,5.00,-5.00,-1001.00
2024-05-17 15:30:03.541802,0,0,0,0,0,0,75,76,10,0,84,164.04,0,6.00,-4.00,-1000.00
2024-05-17 15:30:03.666833,0,0,0,0,0,0,75,76,10,0,84,163.47,0,7.00,-5.00,-1001.00
2024-05-17 15:30:03.745734,0,0,0,0,0,0,75,76,10,0,84,164.13,0,5.00,-4.00,-1001.00
2024-05-17 15:30:03.796753,0,0,0,0,0,0,75,76,10,0,84,163.84,0,7.00,-3.00,-1000.00
2024-05-17 15:30:03.899003,0,0,0,0,0,0,75,76,10,0,84,163.89,0,6.00,-4.00,-1000.00
2024-05-17 15:30:04.000658,0,0,0,0,0,0,74,76,10,0,84,163.84,0,6.00,-3.00,-1001.00
2024-05-17 15:30:04.178775,0,0,0,0,0,0,74,76,10,0,84,163.98,0,5.00,-4.00,-996.00
2024-05-17 15:30:04.204601,0,0,0,0,0,0,74,76,10,0,84,164.35,0,6.00,-5.00,-1000.00
2024-05-17 15:30:04.383909,0,0,0,0,0,0,74,76,10,0,84,164.07,0,6.00,-4.00,-997.00
2024-05-17 15:30:04.408555,0,0,0,0,0,0,74,76,10,0,84,164.22,0,5.00,-4.00,-1000.00
2024-05-17 15:30:04.588415,0,0,0,0,0,0,74,76,10,0,84,164.00,0,6.00,-4.00,-1000.00
2024-05-17 15:30:04.612670,0,0,0,0,0,0,74,76,10,0,84,164.10,0,5.00,-4.00,-998.00
2024-05-17 15:30:04.796320,0,0,0,0,0,0,74,76,10,0,84,163.53,0,5.00,-4.00,-1000.00
2024-05-17 15:30:04.816635,0,0,0,0,0,0,74,76,10,0,84,163.90,0,6.00,-4.00,-1001.00
2024-05-17 15:30:04.997998,0,0,0,0,0,0,74,76,10,0,84,164.21,0,5.00,-4.00,-999.00
2024-05-17 15:30:05.020627,0,0,0,0,0,0,74,77,10,0,84,163.84,0,6.00,-5.00,-1000.00
2024-05-17 15:30:05.202840,0,0,0,0,0,0,74,77,10,0,84,163.93,0,4.00,-4.00,-999.00
2024-05-17 15:30:05.224594,0,0,0,0,0,0,74,77,10,0,84,163.88,0,4.00,-4.00,-1000.00
2024-05-17 15:30:05.412812,0,0,0,0,0,0,74,77,10,0,84,163.88,0,6.00,-2.00,-998.00
2024-05-17 15:30:05.428576,0,0,0,0,0,0,74,77,10,0,84,163.83,0,4.00,-2.00,-1002.00
2024-05-17 15:30:05.530723,0,0,0,0,0,0,74,77,10,0,84,164.04,0,6.00,-3.00,-1001.00
2024-05-17 15:30:05.715039,0,0,0,0,0,0,74,77,10,0,84,163.96,0,6.00,-4.00,-997.00
2024-05-17 15:30:05.734562,0,0,0,0,0,0,74,77,10,0,84,164.04,0,6.00,-3.00,-1000.00
2024-05-17 15:30:05.919857,0,0,0,0,0,0,74,77,10,0,84,164.09,0,7.00,-3.00,-1002.00
2024-05-17 15:30:05.938468,0,0,0,0,0,0,74,77,10,0,84,163.93,0,5.00,-3.00,-1001.00
2024-05-17 15:30:06.040893,0,0,0,0,0,0,74,76,10,0,84,163.88,0,6.00,-4.00,-999.00
2024-05-17 15:30:06.226791,0,0,0,0,0,0,74,76,10,0,84,163.76,0,6.00,-4.00,-1001.00
2024-05-17 15:30:06.244815,0,0,0,0,0,0,74,76,10,0,84,163.89,0,6.00,-3.00,-1001.00
2024-05-17 15:30:06.432273,0,0,0,0,0,0,74,76,10,0,84,163.85,0,5.00,-4.00,-999.00
2024-05-17 15:30:06.448639,0,0,0,0,0,0,74,76,10,0,84,164.06,0,6.00,-4.00,-1001.00
2024-05-17 15:30:06.638949,0,0,0,0,0,0,74,76,10,0,84,163.72,0,5.00,-3.00,-998.00
2024-05-17 15:30:06.652572,0,0,0,0,0,0,74,76,10,0,84,163.75,0,5.00,-3.00,-1000.00
2024-05-17 15:30:06.841297,0,0,0,0,0,0,74,76,10,0,84,163.98,0,6.00,-3.00,-1000.00
2024-05-17 15:30:06.856638,0,0,0,0,0,0,74,76,10,0,84,163.81,0,6.00,-3.00,-999.00
2024-05-17 15:30:07.046223,0,0,0,0,0,0,74,76,10,0,84,164.05,0,5.00,-1.00,-999.00
2024-05-17 15:30:07.060474,0,0,0,0,0,0,73,76,10,0,84,164.04,0,6.00,-2.00,-1000.00
2024-05-17 15:30:07.250793,0,0,0,0,0,0,73,76,10,0,84,164.06,0,5.00,-3.00,-998.00
2024-05-17 15:30:07.264420,0,0,0,0,0,0,73,76,10,0,84,164.05,0,6.00,-4.00,-998.00
2024-05-17 15:30:07.315604,0,0,0,0,0,0,73,76,10,0,84,163.81,0,5.00,-3.00,-999.00
2024-05-17 15:30:07.455604,0,0,0,0,0,0,73,76,10,0,84,164.14,0,6.00,-4.00,-1001.00
2024-05-17 15:30:07.519912,0,0,0,0,0,0,73,76,10,0,84,163.86,0,7.00,-4.00,-1000.00
2024-05-17 15:30:07.660429,0,0,0,0,0,0,73,76,10,0,84,163.97,0,5.00,-5.00,-1001.00
2024-05-17 15:30:07.723354,0,0,0,0,0,0,73,76,10,0,84,163.83,0,6.00,-4.00,-1000.00
2024-05-17 15:30:07.865102,0,0,0,0,0,0,73,76,10,0,84,163.73,0,7.00,-4.00,-999.00
2024-05-17 15:30:07.927393,0,0,0,0,0,0,73,76,10,0,84,163.91,0,6.00,-2.00,-1000.00
2024-05-17 15:30:08.029485,0,0,0,0,0,0,74,77,10,0,84,163.91,0,7.00,-3.00,-999.00
2024-05-17 15:30:08.172434,0,0,0,0,0,0,74,77,10,0,84,163.90,0,5.00,-4.00,-1002.00
2024-05-17 15:30:08.233369,0,0,0,0,0,0,74,77,10,0,84,164.21,0,6.00,-4.00,-997.00
2024-05-17 15:30:08.377058,0,0,0,0,0,0,74,77,10,0,84,164.10,0,6.00,-3.00,-1000.00
2024-05-17 15:30:08.437298,0,0,0,0,0,0,74,77,10,0,84,163.98,0,5.00,-5.00,-1002.00
2024-05-17 15:30:08.582301,0,0,0,0,0,0,74,77,10,0,84,164.05,0,6.00,-5.00,-999.00
2024-05-17 15:30:08.642960,0,0,0,0,0,0,74,77,10,0,84,163.91,0,7.00,-4.00,-1001.00
2024-05-17 15:30:08.743500,0,0,0,0,0,0,74,77,10,0,84,164.08,0,6.00,-3.00,-1001.00
2024-05-17 15:30:08.846009,0,0,0,0,0,0,74,77,10,0,84,163.96,0,5.00,-4.00,-999.00
2024-05-17 15:30:08.947858,0,0,0,0,0,0,74,77,10,0,84,164.00,0,5.00,-3.00,-1002.00
2024-05-17 15:30:09.049468,0,0,0,0,0,0,75,77,10,0,84,163.94,0,5.00,-4.00,-999.00
2024-05-17 15:30:09.196201,0,0,0,0,0,0,75,77,10,0,84,163.93,0,4.00,-4.00,-1002.00
2024-05-17 15:30:09.253309,0,0,0,0,0,0,75,77,10,0,84,163.80,0,5.00,-2.00,-1002.00
2024-05-17 15:30:09.401743,0,0,0,0,0,0,75,77,10,0,84,163.99,0,6.00,-3.00,-998.00
2024-05-17 15:30:09.458793,0,0,0,0,0,0,75,77,10,0,84,163.97,0,6.00,-4.00,-999.00
2024-05-17 15:30:09.559395,0,0,0,0,0,0,75,77,10,0,84,163.98,0,8.00,-3.00,-996.00
2024-05-17 15:30:09.711350,0,0,0,0,0,0,75,77,10,0,84,163.79,0,6.00,-4.00,-1001.00
2024-05-17 15:30:09.763294,0,0,0,0,0,0,75,77,10,0,84,163.90,0,6.00,-5.00,-997.00
2024-05-17 15:30:09.913039,0,0,0,0,0,0,75,77,10,0,84,164.15,0,7.00,-5.00,-1000.00
2024-05-17 15:30:09.967326,0,0,0,0,0,0,75,77,10,0,84,163.95,0,5.00,-3.00,-998.00
2024-05-17 15:30:10.070189,0,0,0,0,0,0,74,76,10,0,84,163.92,0,5.00,-5.00,-998.00
2024-05-17 15:30:10.220281,0,0,0,0,0,0,74,76,10,0,84,163.91,0,5.00,-3.00,-1001.00
2024-05-17 15:30:10.274282,0,0,0,0,0,0,74,76,10,0,84,163.85,0,6.00,-3.00,-999.00
2024-05-17 15:30:10.425105,0,0,0,0,0,0,74,76,10,0,84,163.87,0,5.00,-3.00,-998.00
2024-05-17 15:30:10.478257,0,0,0,0,0,0,74,76,10,0,84,164.02,0,5.00,-3.00,-1000.00
2024-05-17 15:30:10.529177,0,0,0,0,0,0,74,76,10,0,84,164.02,0,7.00,-4.00,-999.00
2024-05-17 15:30:10.732230,0,0,0,0,0,0,74,76,10,0,84,164.08,0,6.00,-3.00,-999.00
2024-05-17 15:30:10.733168,0,0,0,0,0,0,74,76,10,0,84,163.93,0,6.00,-4.00,-1000.00
2024-05-17 15:30:10.937430,0,0,0,0,0,0,74,76,10,0,84,163.76,0,6.00,-2.00,-1000.00
2024-05-17 15:30:10.937630,0,0,0,0,0,0,74,76,10,0,84,163.80,0,6.00,-3.00,-999.00
2024-05-17 15:30:11.039315,0,0,0,0,0,0,75,77,10,0,84,163.73,0,6.00,-5.00,-1000.00
2024-05-17 15:30:11.244641,0,0,0,0,0,0,75,77,10,0,84,163.95,0,6.00,-5.00,-999.00
2024-05-17 15:30:11.244771,0,0,0,0,0,0,75,77,10,0,84,164.08,0,6.00,-2.00,-1000.00
2024-05-17 15:30:11.346375,0,0,0,0,0,0,75,77,10,0,84,164.09,0,5.00,-5.00,-1000.00
2024-05-17 15:30:11.449570,0,0,0,0,0,0,75,77,10,0,84,163.92,0,6.00,-3.00,-999.00
2024-05-17 15:30:11.549332,0,0,0,0,0,0,75,77,10,0,84,164.00,0,4.00,-3.00,-999.00
2024-05-17 15:30:11.653898,0,0,0,0,0,0,75,77,10,0,84,164.16,0,4.00,-3.00,-999.00
2024-05-17 15:30:11.753660,0,0,0,0,0,0,75,77,10,0,84,164.07,0,5.00,-5.00,-997.00
2024-05-17 15:30:11.859894,0,0,0,0,0,0,75,77,10,0,84,164.01,0,6.00,-5.00,-1000.00
2024-05-17 15:30:11.961626,0,0,0,0,0,0,75,77,10,0,84,164.06,0,6.00,-3.00,-996.00
2024-05-17 15:30:12.059307,0,0,0,0,0,0,75,77,10,0,84,163.73,0,6.00,-3.00,-1000.00
2024-05-17 15:30:12.166310,0,0,0,0,0,0,75,77,10,0,84,163.70,0,7.00,-4.00,-1001.00
2024-05-17 15:30:12.266326,0,0,0,0,0,0,75,77,10,0,84,163.85,0,5.00,-4.00,-1000.00
2024-05-17 15:30:12.365238,0,0,0,0,0,0,75,77,10,0,84,164.04,0,7.00,-3.00,-998.00
2024-05-17 15:30:12.473157,0,0,0,0,0,0,75,77,10,0,84,163.91,0,6.00,-3.00,-998.00
2024-05-17 15:30:12.569216,0,0,0,0,0,0,75,77,10,0,84,164.01,0,6.00,-5.00,-1000.00
2024-05-17 15:30:12.678683,0,0,0,0,0,0,75,77,10,0,84,163.95,0,5.00,-2.00,-1000.00
2024-05-17 15:30:12.773168,0,0,0,0,0,0,75,77,10,0,84,164.06,0,6.00,-3.00,-999.00
2024-05-17 15:30:12.882782,0,0,0,0,0,0,75,77,10,0,84,164.04,0,5.00,-4.00,-998.00
2024-05-17 15:30:12.977294,0,0,0,0,0,0,75,77,10,0,84,164.21,0,6.00,-3.00,-999.00
2024-05-17 15:30:13.090439,0,0,0,0,0,0,75,76,10,0,84,163.83,0,6.00,-3.00,-998.00
2024-05-17 15:30:13.181210,0,0,0,0,0,0,75,76,10,0,84,163.94,0,7.00,-5.00,-1001.00
2024-05-17 15:30:13.294107,0,0,0,0,0,0,75,76,10,0,84,164.00,0,5.00,-4.00,-1001.00
2024-05-17 15:30:13.385709,0,0,0,0,0,0,75,76,10,0,84,164.20,0,6.00,-3.00,-998.00
2024-05-17 15:30:13.497308,0,0,0,0,0,0,75,76,10,0,84,164.01,0,4.00,-4.00,-999.00
2024-05-17 15:30:13.589285,0,0,0,0,0,0,75,76,10,0,84,163.88,0,6.00,-3.00,-1001.00
2024-05-17 15:30:13.640106,0,0,0,0,0,0,75,76,10,0,84,163.94,0,7.00,-4.00,-999.00
2024-05-17 15:30:13.804316,0,0,0,0,0,0,75,76,10,0,84,163.94,0,5.00,-3.00,-1001.00
2024-05-17 15:30:13.844098,0,0,0,0,0,0,75,76,10,0,84,164.38,0,6.00,-4.00,-999.00
2024-05-17 15:30:14.009043,0,0,0,0,0,0,75,76,10,0,84,163.95,0,6.00,-4.00,-998.00
2024-05-17 15:30:14.099130,0,0,0,0,0,0,75,78,10,0,84,163.95,0,4.00,-3.00,-999.00
2024-05-17 15:30:14.213923,0,0,0,0,0,0,75,78,10,0,84,163.95,0,6.00,-4.00,-995.00
2024-05-17 15:30:14.252057,0,0,0,0,0,0,75,78,10,0,84,163.95,0,0.00,-11.00,-984.00
2024-05-17 15:30:14.418639,0,0,0,0,0,0,75,78,10,0,84,163.95,0,-19.00,0.00,-1028.00
2024-05-17 15:30:14.455937,1,0,0,0,0,0,75,78,10,0,84,163.95,0,1.00,2.00,-1228.00
2024-05-17 15:30:14.623428,0,0,0,0,0,-1,75,78,10,0,84,163.95,0,31.00,-47.00,-1341.00
2024-05-17 15:30:14.660403,0,0,0,0,0,-4,75,78,12,0,84,163.95,0,6.00,11.00,-1197.00
2024-05-17 15:30:14.761967,0,1,0,0,0,-6,75,78,18,0,84,164.56,0,-10.00,-15.00,-1076.00
2024-05-17 15:30:14.933073,0,0,0,0,0,-7,75,78,27,0,84,164.46,0,8.00,-5.00,-1019.00
2024-05-17 15:30:14.969290,0,0,0,0,0,-7,75,78,36,10,84,164.47,1,0.00,-4.00,-984.00
2024-05-17 15:30:15.068048,0,0,0,0,0,-7,76,77,51,20,84,164.47,1,-2.00,-11.00,-946.00
2024-05-17 15:30:15.237813,0,0,0,0,0,-6,76,77,59,20,84,164.81,1,-4.00,-9.00,-916.00
2024-05-17 15:30:15.271931,0,0,0,0,0,-5,76,77,62,30,84,164.98,1,1.00,-6.00,-903.00
2024-05-17 15:30:15.442624,0,0,0,0,0,-4,76,77,67,30,84,164.96,1,4.00,-11.00,-893.00
2024-05-17 15:30:15.475983,0,0,0,0,0,-3,76,77,73,40,84,164.83,1,7.00,-14.00,-890.00
2024-05-17 15:30:15.647547,0,0,0,0,0,-2,76,77,76,40,84,164.79,1,2.00,-11.00,-905.00
2024-05-17 15:30:15.680991,0,0,0,0,0,-1,76,77,79,40,84,164.84,1,7.00,-12.00,-919.00
2024-05-17 15:30:15.852514,0,0,0,0,0,-1,76,77,81,50,84,164.90,1,5.00,-4.00,-938.00
2024-05-17 15:30:15.884751,0,0,0,0,0,0,76,77,82,50,84,164.94,1,10.00,-1.00,-951.00
2024-05-17 15:30:16.057035,0,0,0,0,0,0,76,77,82,50,84,165.02,2,15.00,0.00,-958.00
2024-05-17 15:30:16.088956,0,0,0,0,0,0,76,77,83,50,84,164.80,2,-2.00,-9.00,-987.00
2024-05-17 15:30:16.261805,0,0,0,0,0,0,76,77,84,50,83,165.07,2,9.00,3.00,-1000.00
2024-05-17 15:30:16.293756,0,0,0,0,0,0,76,77,85,50,83,164.96,2,3.00,-3.00,-994.00
2024-05-17 15:30:16.467835,0,0,0,0,0,0,76,77,85,50,83,165.13,2,4.00,-6.00,-991.00
2024-05-17 15:30:16.496831,0,0,0,0,0,0,76,77,86,50,83,164.97,2,4.00,-4.00,-991.00
2024-05-17 15:30:16.671419,0,0,0,0,0,0,76,77,87,50,83,165.08,2,8.00,-7.00,-1002.00
2024-05-17 15:30:16.700828,0,0,0,0,0,0,76,77,86,50,83,164.89,2,16.00,-11.00,-993.00
2024-05-17 15:30:16.876654,0,0,0,0,0,0,76,77,87,50,83,165.12,2,14.00,-2.00,-990.00
2024-05-17 15:30:16.904906,0,0,0,0,0,0,76,77,87,50,83,164.83,2,7.00,0.00,-992.00
2024-05-17 15:30:17.080943,0,0,0,0,0,0,76,77,87,50,83,164.76,3,12.00,3.00,-984.00
2024-05-17 15:30:17.111226,0,0,0,0,0,0,75,77,88,50,83,165.01,3,16.00,-11.00,-987.00
2024-05-17 15:30:17.211128,0,0,0,0,0,0,75,77,88,50,83,164.90,3,17.00,1.00,-982.00
2024-05-17 15:30:17.313128,0,0,0,0,0,0,75,77,87,50,83,165.02,3,11.00,-5.00,-997.00
2024-05-17 15:30:17.490565,0,0,0,0,0,0,75,77,87,50,83,165.21,3,13.00,2.00,-992.00
2024-05-17 15:30:17.519477,0,0,0,0,0,0,75,77,87,50,83,165.06,3,26.00,0.00,-1001.00
2024-05-17 15:30:17.618891,0,0,0,0,0,0,75,77,86,50,83,165.06,3,18.00,-9.00,-995.00
2024-05-17 15:30:17.669853,0,0,0,0,0,0,75,77,86,50,83,165.34,3,17.00,-5.00,-1002.00
2024-05-17 15:30:17.798837,0,0,0,0,0,0,75,77,85,50,83,165.11,3,15.00,0.00,-1000.00
2024-05-17 15:30:17.875405,0,0,0,0,0,0,75,77,85,50,83,165.07,3,23.00,-6.00,-1004.00
2024-05-17 15:30:17.975944,0,0,0,0,0,0,75,77,84,50,83,165.02,4,12.00,0.00,-993.00
2024-05-17 15:30:18.077763,0,0,0,0,0,0,74,77,84,50,83,164.83,4,14.00,0.00,-1005.00
2024-05-17 15:30:18.182182,0,0,0,0,0,0,74,77,83,50,83,164.92,4,17.00,1.00,-1010.00
2024-05-17 15:30:18.282571,0,0,0,0,0,0,74,77,83,50,83,165.06,4,10.00,3.00,-996.00
2024-05-17 15:30:18.383810,0,0,0,0,0,0,74,77,82,50,83,165.00,4,12.00,2.00,-1002.00
2024-05-17 15:30:18.514434,0,0,0,0,0,0,74,77,82,50,83,165.10,4,19.00,-2.00,-1005.00
2024-05-17 15:30:18.587784,0,0,0,0,0,0,74,77,82,50,83,164.98,4,28.00,-9.00,-1001.00
2024-05-17 15:30:18.719364,0,0,0,0,0,0,74,77,81,50,83,165.19,4,17.00,-2.00,-990.00
2024-05-17 15:30:18.791771,0,0,0,0,0,0,74,77,81,50,83,165.12,4,18.00,-1.00,-1001.00
2024-05-17 15:30:18.924067,0,0,0,0,0,0,74,77,81,50,83,164.95,4,21.00,14.00,-995.00
2024-05-17 15:30:19.002803,0,0,0,0,0,0,74,77,80,50,83,165.02,5,15.00,0.00,-1001.00
2024-05-17 15:30:19.097667,0,0,0,0,0,0,74,76,80,50,83,164.86,5,15.00,5.00,-995.00
2024-05-17 15:30:19.231324,0,0,0,0,0,0,74,76,80,50,82,165.15,5,11.00,0.00,-997.00
2024-05-17 15:30:19.301686,0,0,0,0,0,0,74,76,80,50,82,165.07,5,7.00,3.00,-1002.00
2024-05-17 15:30:19.403792,0,0,0,0,0,0,74,76,80,50,82,164.79,5,15.00,0.00,-1005.00
2024-05-17 15:30:19.538993,0,0,0,0,0,0,74,76,80,50,82,164.85,5,4.00,9.00,-1003.00
2024-05-17 15:30:19.608670,0,0,0,0,0,0,74,76,80,50,82,165.06,5,6.00,5.00,-1008.00
2024-05-17 15:30:19.744262,0,0,0,0,0,0,74,76,80,50,82,165.22,5,5.00,5.00,-995.00
2024-05-17 15:30:19.812982,0,0,0,0,0,0,74,76,80,50,82,165.26,5,7.00,0.00,-1009.00
2024-05-17 15:30:19.948078,0,0,0,0,0,0,74,76,80,50,82,164.96,5,20.00,5.00,-1000.00
2024-05-17 15:30:20.016678,0,0,0,0,0,0,74,76,81,50,82,165.02,6,1.00,4.00,-1005.00
2024-05-17 15:30:20.152972,0,0,0,0,0,0,73,76,81,50,82,164.94,6,11.00,4.00,-991.00
2024-05-17 15:30:20.221095,0,0,0,0,0,0,73,76,80,50,82,164.85,6,10.00,7.00,-1002.00
2024-05-17 15:30:20.323278,0,0,0,0,0,0,73,76,81,50,82,164.71,6,5.00,0.00,-992.00
2024-05-17 15:30:20.460240,0,0,0,0,0,0,73,76,81,50,82,164.92,6,3.00,0.00,-1002.00
2024-05-17 15:30:20.526957,0,0,0,0,0,0,73,76,81,50,82,164.99,6,8.00,-4.00,-995.00
2024-05-17 15:30:20.665117,0,0,0,0,0,0,73,76,81,50,82,164.85,6,9.00,-1.00,-1003.00
2024-05-17 15:30:20.732008,0,0,0,0,0,0,73,76,81,50,82,164.71,6,13.00,1.00,-991.00
2024-05-17 15:30:20.870117,0,0,0,0,0,0,73,76,81,50,82,165.18,6,9.00,3.00,-990.00
2024-05-17 15:30:20.935710,0,0,0,0,0,0,73,76,81,50,82,164.82,7,12.00,0.00,-999.00
2024-05-17 15:30:21.075234,0,0,0,0,0,0,73,76,82,50,82,164.89,7,13.00,2.00,-999.00
2024-05-17 15:30:21.138805,0,0,0,0,0,0,74,76,82,50,82,165.09,7,16.00,-7.00,-1006.00
2024-05-17 15:30:21.240691,0,0,0,0,0,0,74,76,82,50,81,164.95,7,15.00,0.00,-994.00
2024-05-17 15:30:21.346671,0,0,0,0,0,0,74,76,81,50,81,164.90,7,3.00,-3.00,-1003.00
2024-05-17 15:30:21.444882,0,0,0,0,0,0,74,76,82,50,81,164.84,7,15.00,-8.00,-997.00
2024-05-17 15:30:21.496215,0,0,0,0,0,0,74,76,82,50,81,165.13,7,18.00,2.00,-993.00
2024-05-17 15:30:21.689151,0,0,0,0,0,0,74,76,82,50,81,164.87,7,19.00,-6.00,-986.00
2024-05-17 15:30:21.700301,0,0,0,0,0,0,74,76,82,50,81,164.92,7,5.00,-3.00,-987.00
2024-05-17 15:30:21.893748,0,0,0,0,0,0,74,76,82,50,81,164.72,7,17.00,-11.00,-997.00
2024-05-17 15:30:21.903712,0,0,0,0,0,0,74,76,82,50,81,164.98,8,11.00,3.00,-997.00
2024-05-17 15:30:22.099378,0,0,0,0,0,0,74,76,82,50,81,165.08,8,6.00,3.00,-997.00
2024-05-17 15:30:22.107599,0,0,0,0,0,0,74,76,82,50,81,165.06,8,12.00,-5.00,-996.00
2024-05-17 15:30:22.224150,0,0,0,0,0,0,74,76,82,50,81,164.68,8,8.00,4.00,-1010.00
2024-05-17 15:30:22.311605,0,0,0,0,0,0,74,76,82,50,81,164.94,8,18.00,0.00,-992.00
2024-05-17 15:30:22.508158,0,0,0,0,0,0,74,76,82,50,81,165.15,8,10.00,-2.00,-1087.00
2024-05-17 15:30:22.515483,0,0,0,0,0,-1,74,76,82,50,81,165.08,8,14.00,6.00,-1102.00
2024-05-17 15:30:22.712977,0,0,0,0,0,-2,74,76,84,50,81,165.03,8,2.00,1.00,-1084.00
2024-05-17 15:30:22.719682,0,0,0,0,0,-3,74,76,87,60,81,165.09,8,20.00,-1.00,-1085.00
2024-05-17 15:30:22.917752,0,0,0,0,0,-3,74,76,90,60,81,165.23,8,19.00,0.00,-1069.00
2024-05-17 15:30:22.924503,0,0,0,0,0,-4,74,76,95,60,81,165.12,9,20.00,-4.00,-1060.00
2024-05-17 15:30:23.123103,0,0,0,0,0,-5,74,76,100,70,81,165.36,9,19.00,-9.00,-1034.00
2024-05-17 15:30:23.127414,0,0,0,0,0,-5,74,76,107,70,81,165.42,9,17.00,11.00,-1020.00
2024-05-17 15:30:23.229403,0,0,0,0,0,-5,74,76,113,80,80,165.24,9,18.00,-1.00,-997.00
2024-05-17 15:30:23.429731,0,0,0,0,0,-5,74,76,119,80,80,165.28,9,7.00,-4.00,-995.00
2024-05-17 15:30:23.433396,0,0,0,0,0,-5,74,76,125,90,80,165.37,9,16.00,-1.00,-993.00
2024-05-17 15:30:23.535506,0,0,0,0,0,-5,74,76,131,100,80,165.98,9,16.00,-2.00,-983.00
2024-05-17 15:30:23.736951,0,0,0,0,0,-5,74,76,136,100,80,165.50,9,15.00,4.00,-976.00
2024-05-17 15:30:23.739369,0,0,0,0,0,-5,74,76,141,110,80,165.46,9,17.00,7.00,-974.00
2024-05-17 15:30:23.841464,0,0,0,0,0,-4,74,76,146,110,80,165.89,9,15.00,11.00,-962.00
2024-05-17 15:30:23.943543,0,0,0,0,0,-4,74,76,151,120,80,165.77,10,15.00,1.00,-971.00
2024-05-17 15:30:24.147413,0,0,0,0,0,-4,74,76,156,120,80,165.52,10,8.00,8.00,-969.00
2024-05-17 15:30:24.148535,0,0,0,0,0,-3,74,75,160,120,80,165.72,10,17.00,7.00,-966.00
2024-05-17 15:30:24.250507,1,0,0,0,0,-3,74,75,163,130,80,165.41,10,22.00,12.00,-970.00
2024-05-17 15:30:24.453756,1,0,0,0,0,-3,74,75,167,130,80,165.88,10,21.00,7.00,-959.00
2024-05-17 15:30:24.454536,1,0,0,0,0,-2,74,75,170,130,80,165.39,10,13.00,8.00,-964.00
2024-05-17 15:30:24.557415,1,0,0,0,0,-2,74,75,173,140,80,166.07,10,18.00,8.00,-981.00
2024-05-17 15:30:24.659868,1,0,0,0,0,-2,74,75,176,140,80,165.38,10,19.00,6.00,-964.00
2024-05-17 15:30:24.760590,1,0,0,0,0,-1,74,75,178,140,80,166.00,10,16.00,12.00,-969.00
2024-05-17 15:30:24.866689,1,0,0,0,0,-1,74,75,180,140,80,166.16,10,16.00,8.00,-973.00
2024-05-17 15:30:24.966814,1,0,0,0,0,-1,74,75,182,150,80,166.08,11,19.00,5.00,-947.00
2024-05-17 15:30:25.073076,1,0,0,0,0,0,74,75,183,150,80,165.94,11,13.00,6.00,-942.00
2024-05-17 15:30:25.168513,1,0,0,0,0,0,73,75,184,150,80,166.06,11,15.00,16.00,-965.00
2024-05-17 15:30:25.273044,1,0,0,0,0,0,73,75,185,150,79,166.09,11,22.00,2.00,-987.00
2024-05-17 15:30:25.372478,1,0,0,0,0,0,73,75,185,150,79,165.81,11,21.00,-4.00,-993.00
2024-05-17 15:30:25.423484,1,0,0,0,0,0,73,75,184,150,79,166.08,11,31.00,6.00,-989.00
2024-05-17 15:30:25.580613,1,0,0,0,0,0,73,75,185,150,79,165.82,11,19.00,0.00,-986.00
2024-05-17 15:30:25.627410,1,0,0,0,0,0,73,75,184,150,79,165.94,11,30.00,4.00,-987.00
2024-05-17 15:30:25.729690,1,0,0,0,0,0,73,75,184,150,79,166.06,11,23.00,7.00,-999.00
2024-05-17 15:30:25.891004,1,0,0,0,0,0,73,75,184,150,79,165.80,11,10.00,11.00,-993.00
2024-05-17 15:30:25.933436,1,0,0,0,0,0,73,75,184,150,79,166.15,12,8.00,10.00,-992.00
2024-05-17 15:30:26.092938,1,0,0,0,0,0,73,75,183,150,79,165.83,12,22.00,12.00,-1004.00
2024-05-17 15:30:26.137372,1,0,0,0,0,0,72,75,183,150,79,165.86,12,12.00,7.00,-990.00
2024-05-17 15:30:26.297002,1,0,0,0,0,0,72,75,184,150,79,165.66,12,29.00,0.00,-1009.00
2024-05-17 15:30:26.341494,1,0,0,0,0,0,72,75,183,150,79,165.93,12,18.00,6.00,-996.00
2024-05-17 15:30:26.505615,1,0,0,0,0,0,72,75,183,150,79,166.05,12,19.00,6.00,-996.00
2024-05-17 15:30:26.545349,1,0,0,0,0,0,72,75,184,150,79,166.04,12,22.00,10.00,-1000.00
2024-05-17 15:30:26.708217,1,0,0,0,0,0,72,75,184,150,79,166.00,12,16.00,2.00,-1006.00
2024-05-17 15:30:26.750708,1,0,0,0,0,0,72,75,184,150,79,166.21,12,14.00,5.00,-992.00
2024-05-17 15:30:26.852017,0,0,0,0,0,0,72,75,183,150,79,165.68,12,32.00,-3.00,-1000.00
2024-05-17 15:30:26.954445,0,0,0,0,0,0,72,75,184,150,79,166.05,13,19.00,0.00,-1007.00
2024-05-17 15:30:27.055213,0,0,0,0,0,0,72,75,183,150,79,166.02,13,20.00,4.00,-956.00
2024-05-17 15:30:27.218823,1,0,0,0,0,0,72,75,183,150,78,165.58,13,22.00,13.00,-941.00
2024-05-17 15:30:27.259916,0,0,0,0,0,1,72,75,182,150,78,165.59,13,14.00,-5.00,-938.00
2024-05-17 15:30:27.423251,1,0,0,0,0,1,72,75,181,150,78,166.09,13,11.00,-2.00,-954.00
2024-05-17 15:30:27.463546,1,0,0,0,0,1,72,75,179,150,78,165.67,13,11.00,2.00,-955.00
2024-05-17 15:30:27.565191,0,0,0,0,0,2,72,75,176,150,78,165.82,13,21.00,8.00,-964.00
2024-05-17 15:30:27.730784,0,0,0,0,0,2,72,75,174,140,78,165.90,13,14.00,0.00,-987.00
2024-05-17 15:30:27.769167,0,0,0,0,0,2,72,75,172,140,78,165.91,13,21.00,1.00,-985.00
2024-05-17 15:30:27.935251,1,0,0,0,0,2,72,75,169,140,78,165.65,13,17.00,-1.00,-1006.00
2024-05-17 15:30:27.973198,0,0,0,0,0,2,72,75,166,140,78,165.66,14,21.00,0.00,-992.00
2024-05-17 15:30:28.075185,0,0,0,0,0,2,72,75,163,130,78,165.90,14,13.00,3.00,-1023.00
2024-05-17 15:30:28.177642,0,0,0,0,0,2,73,75,160,130,78,165.64,14,22.00,13.00,-1002.00
2024-05-17 15:30:28.345162,0,0,0,0,0,2,73,75,158,130,78,166.03,14,21.00,0.00,-990.00
2024-05-17 15:30:28.382292,0,0,0,0,0,2,73,75,155,120,78,165.65,14,4.00,4.00,-1022.00
2024-05-17 15:30:28.483229,0,0,0,0,0,2,73,75,153,120,78,165.57,14,12.00,3.00,-1005.00
2024-05-17 15:30:28.586309,0,0,0,0,0,2,73,75,151,120,78,165.98,14,17.00,12.00,-1013.00
2024-05-17 15:30:28.754512,0,0,0,0,0,2,73,75,149,120,78,165.69,14,7.00,19.00,-1014.00
2024-05-17 15:30:28.789424,0,0,0,0,0,1,73,75,147,120,78,165.28,14,13.00,9.00,-1008.00
2024-05-17 15:30:28.959306,0,0,0,0,0,1,73,75,145,110,78,165.44,14,9.00,17.00,-1008.00
2024-05-17 15:30:28.993156,0,0,0,0,0,1,73,75,143,110,78,165.47,15,28.00,9.00,-1000.00
2024-05-17 15:30:29.095141,0,0,0,0,0,1,73,75,142,110,78,165.59,15,15.00,14.00,-999.00
2024-05-17 15:30:29.266515,0,0,0,0,0,1,72,75,140,110,77,165.46,15,2.00,20.00,-1032.00
2024-05-17 15:30:29.299140,0,0,0,0,0,1,72,75,140,110,77,165.40,15,10.00,5.00,-1003.00
2024-05-17 15:30:29.471299,0,0,0,0,0,0,72,75,139,110,77,165.67,15,19.00,14.00,-1012.00
2024-05-17 15:30:29.503387,0,0,0,0,0,0,72,75,138,110,77,165.41,15,10.00,7.00,-1008.00
2024-05-17 15:30:29.675961,0,0,0,0,0,0,72,75,137,110,77,165.51,15,18.00,12.00,-1013.00
2024-05-17 15:30:29.676185,0,0,0,0,0,0,72,75,136,110,77,165.10,15,15.00,7.00,-1011.00
2024-05-17 15:30:29.758213,0,0,0,0,0,0,72,75,136,100,77,165.40,15,18.00,8.00,-1024.00
2024-05-17 15:30:29.860104,0,0,0,0,0,0,72,75,135,100,77,165.27,15,26.00,10.00,-1012.00
2024-05-17 15:30:29.984084,0,0,0,0,0,0,72,75,134,100,77,165.39,16,20.00,7.00,-1012.00
2024-05-17 15:30:30.065295,0,0,0,0,0,0,72,75,134,100,77,165.42,16,10.00,0.00,-1014.00
2024-05-17 15:30:30.166337,0,0,0,0,0,0,72,75,134,100,77,164.94,16,10.00,0.00,-1003.00
2024-05-17 15:30:30.290531,0,0,0,0,0,0,72,75,134,100,77,165.38,16,17.00,11.00,-1007.00
2024-05-17 15:30:30.370277,0,0,0,0,0,0,72,75,134,100,77,165.30,16,25.00,20.00,-1004.00
2024-05-17 15:30:30.496553,0,0,0,0,0,0,72,75,134,100,77,165.94,16,12.00,22.00,-1000.00
2024-05-17 15:30:30.574164,0,0,0,0,0,0,72,75,134,100,77,165.48,16,2.00,8.00,-1001.00
2024-05-17 15:30:30.706283,0,0,0,0,0,0,72,75,134,100,77,165.60,16,5.00,4.00,-989.00
2024-05-17 15:30:30.778856,0,0,0,0,0,0,72,75,134,100,77,165.19,16,17.00,4.00,-992.00
2024-05-17 15:30:30.904966,0,0,0,0,0,0,72,75,134,100,77,165.53,16,8.00,7.00,-1002.00
2024-05-17 15:30:30.982573,0,0,0,0,0,0,72,75,134,100,77,165.61,17,9.00,1.00,-1003.00
2024-05-17 15:30:31.084139,0,0,0,0,0,0,72,75,135,100,77,165.41,17,13.00,7.00,-1009.00
2024-05-17 15:30:31.214343,0,0,0,0,0,0,72,74,134,100,76,165.29,17,23.00,11.00,-1001.00
2024-05-17 15:30:31.290503,0,0,0,0,0,0,72,74,135,100,76,165.52,17,7.00,16.00,-1003.00
2024-05-17 15:30:31.390437,0,0,0,0,0,0,72,74,135,100,76,165.74,17,14.00,9.00,-991.00
2024-05-17 15:30:31.519475,0,0,0,0,0,0,72,74,135,100,76,165.23,17,19.00,-2.00,-988.00
2024-05-17 15:30:31.594123,0,0,0,0,0,0,72,74,136,100,76,165.37,17,5.00,7.00,-997.00
2024-05-17 15:30:31.695976,0,0,0,0,0,0,72,74,136,100,76,165.52,17,18.00,10.00,-998.00
2024-05-17 15:30:31.826457,0,0,0,0,0,0,72,74,136,100,76,165.13,17,12.00,9.00,-997.00
2024-05-17 15:30:31.899935,0,0,0,0,0,0,72,74,139,100,76,165.71,17,27.00,11.00,-1006.00
2024-05-17 15:30:32.043127,-5,0,0,0,0,0,72,74,139,100,76,165.29,18,13.00,5.00,-993.00
2024-05-17 15:30:32.103896,-8,0,0,1,0,0,72,74,139,110,76,165.46,18,-6.00,10.00,-1011.00
2024-05-17 15:30:32.236000,-8,0,0,3,0,0,72,74,140,110,76,165.67,18,-2.00,1.00,-1005.00
2024-05-17 15:30:32.307965,-7,0,0,4,0,0,72,74,140,110,76,165.64,18,-22.00,1.00,-992.00
2024-05-17 15:30:32.441330,-6,0,0,5,0,0,72,74,139,110,76,165.64,18,-19.00,10.00,-1003.00
2024-05-17 15:30:32.511893,-6,0,0,6,0,0,72,74,138,110,76,165.64,18,-29.00,6.00,-1003.00
2024-05-17 15:30:32.645674,-5,0,0,6,0,0,72,74,139,110,76,165.52,18,-33.00,8.00,-1003.00
2024-05-17 15:30:32.715834,-5,0,0,7,0,0,72,74,139,110,76,165.67,18,-28.00,4.00,-996.00
2024-05-17 15:30:32.850671,-3,0,0,7,0,0,72,74,139,110,76,165.69,18,-26.00,8.00,-987.00
2024-05-17 15:30:32.920418,0,0,0,7,0,0,72,74,138,110,76,165.48,18,-45.00,0.00,-989.00
2024-05-17 15:30:33.055191,2,0,0,7,0,0,72,74,139,110,76,165.77,19,-26.00,13.00,-1003.00
2024-05-17 15:30:33.073810,4,0,0,6,0,0,72,74,140,110,76,165.52,19,-31.00,7.00,-1007.00
2024-05-17 15:30:33.260376,4,0,0,4,0,0,73,74,139,110,75,165.23,19,-19.00,13.00,-997.00
2024-05-17 15:30:33.329652,3,0,0,3,0,0,73,74,139,110,75,165.83,19,-34.00,8.00,-1008.00
2024-05-17 15:30:33.380670,1,0,0,3,0,0,73,74,138,110,75,165.97,19,-15.00,9.00,-994.00
2024-05-17 15:30:33.481267,1,0,0,3,0,0,73,74,138,110,75,165.52,19,-5.00,2.00,-994.00
2024-05-17 15:30:33.586971,0,0,0,3,0,0,73,74,138,110,75,165.33,19,-4.00,6.00,-997.00
2024-05-17 15:30:33.684940,0,0,0,3,0,0,73,74,138,110,75,165.52,19,-1.00,7.00,-993.00
2024-05-17 15:30:33.874453,0,0,0,2,0,0,73,74,138,110,75,165.72,19,-3.00,5.00,-1002.00
2024-05-17 15:30:33.888848,0,0,0,2,0,0,73,74,139,110,75,165.52,19,-9.00,-4.00,-994.00
2024-05-17 15:30:34.079248,0,0,0,2,0,0,73,74,138,110,75,165.31,20,2.00,5.00,-1005.00
2024-05-17 15:30:34.092861,0,0,0,2,0,0,73,74,138,110,75,165.61,20,0.00,5.00,-996.00
2024-05-17 15:30:34.283990,2,0,0,2,0,0,72,74,138,110,75,165.76,20,21.00,5.00,-980.00
2024-05-17 15:30:34.296829,5,0,0,1,0,0,72,74,140,110,75,165.57,20,-2.00,9.00,-1020.00
2024-05-17 15:30:34.488846,3,0,0,0,0,0,72,74,139,110,75,165.67,20,17.00,3.00,-991.00
2024-05-17 15:30:34.500786,1,0,0,0,0,0,72,74,138,110,75,165.57,20,10.00,0.00,-986.00
2024-05-17 15:30:34.694029,0,0,0,0,0,0,72,74,138,110,75,165.75,20,14.00,6.00,-991.00
2024-05-17 15:30:34.704905,1,0,0,0,0,0,72,74,139,110,75,165.58,20,20.00,6.00,-1000.00
2024-05-17 15:30:34.898632,1,0,0,0,0,0,72,74,138,110,75,165.70,20,9.00,3.00,-1008.00
2024-05-17 15:30:34.908872,1,0,0,0,0,0,72,74,138,110,75,165.40,21,25.00,8.00,-1000.00
2024-05-17 15:30:35.103346,0,0,0,0,0,0,72,74,139,110,75,165.38,21,23.00,-1.00,-1005.00
2024-05-17 15:30:35.116659,0,0,0,0,0,0,72,74,138,110,75,165.64,21,16.00,10.00,-987.00
2024-05-17 15:30:35.215665,0,0,0,0,0,0,72,73,138,110,74,165.50,21,23.00,-3.00,-1000.00
2024-05-17 15:30:35.410460,0,0,0,0,0,0,72,73,138,110,74,165.63,21,17.00,5.00,-995.00
2024-05-17 15:30:35.418928,0,0,0,0,0,0,72,73,138,110,74,165.29,21,10.00,-2.00,-998.00
2024-05-17 15:30:35.617326,0,0,0,0,0,0,72,73,139,110,74,165.44,21,24.00,-5.00,-991.00
2024-05-17 15:30:35.622753,0,0,0,0,0,0,72,73,139,110,74,165.47,21,16.00,-4.00,-1003.00
2024-05-17 15:30:35.819931,0,0,0,0,0,0,72,73,139,110,74,165.63,21,17.00,-3.00,-1011.00
2024-05-17 15:30:35.827930,0,0,0,0,0,0,72,73,139,110,74,165.19,21,30.00,-2.00,-1006.00
2024-05-17 15:30:36.026832,0,0,0,0,0,0,72,73,139,110,74,165.51,22,15.00,-2.00,-1011.00
2024-05-17 15:30:36.030807,0,0,0,0,0,0,72,73,138,110,74,165.51,22,22.00,2.00,-1003.00
2024-05-17 15:30:36.133002,0,0,0,0,0,0,72,73,139,110,74,165.54,22,13.00,3.00,-996.00
2024-05-17 15:30:36.334363,0,0,0,0,0,0,71,73,138,110,74,165.29,22,16.00,2.00,-992.00
2024-05-17 15:30:36.340317,0,0,0,0,0,0,71,73,138,110,74,165.76,22,27.00,6.00,-994.00
2024-05-17 15:30:36.439860,0,0,0,0,0,0,71,73,138,110,74,165.19,22,13.00,2.00,-999.00
2024-05-17 15:30:36.543198,0,0,0,0,0,0,71,73,138,110,74,165.64,22,24.00,-1.00,-1001.00
2024-05-17 15:30:36.643859,2,0,0,0,0,0,71,73,138,110,74,165.41,22,28.00,2.00,-963.00
2024-05-17 15:30:36.745573,8,0,0,0,0,0,71,73,139,110,74,165.68,22,1.00,2.00,-1018.00
2024-05-17 15:30:36.846711,8,0,0,-1,0,0,71,73,140,110,74,165.80,22,38.00,5.00,-994.00
2024-05-17 15:30:36.951475,8,0,0,-3,0,0,71,73,139,110,74,165.41,23,40.00,-3.00,-1004.00
2024-05-17 15:30:37.000027,8,0,0,-4,0,0,71,73,139,110,74,165.20,23,46.00,8.00,-1003.00
2024-05-17 15:30:37.103428,8,0,0,-5,0,0,71,73,139,110,74,165.65,23,56.00,9.00,-1006.00
2024-05-17 15:30:37.255538,8,0,0,-6,0,0,71,74,139,110,73,165.43,23,59.00,8.00,-1014.00
2024-05-17 15:30:37.458272,7,0,0,-6,0,0,71,74,138,110,73,165.49,23,68.00,3.00,-994.00
2024-05-17 15:30:37.460525,6,0,0,-7,0,0,71,74,136,100,73,165.21,23,75.00,2.00,-1006.00
2024-05-17 15:30:37.511379,4,0,0,-7,0,0,71,74,137,100,73,165.23,23,79.00,2.00,-1006.00
2024-05-17 15:30:37.612906,0,0,0,-7,0,0,71,74,136,100,73,165.53,23,82.00,0.00,-992.00
2024-05-17 15:30:37.715354,-1,0,0,-6,0,0,71,74,137,100,73,165.60,23,75.00,-6.00,-996.00
2024-05-17 15:30:37.817469,-3,0,0,-5,0,0,71,74,138,100,73,165.61,23,61.00,-1.00,-989.00
2024-05-17 15:30:37.918510,-2,0,0,-4,0,0,71,74,137,110,73,165.70,24,50.00,0.00,-1000.00
2024-05-17 15:30:38.074730,0,0,0,-3,0,0,71,74,136,110,73,165.47,24,54.00,-7.00,-1002.00
2024-05-17 15:30:38.121596,0,0,0,-3,0,0,71,74,136,110,73,165.22,24,47.00,0.00,-1007.00
2024-05-17 15:30:38.284827,0,0,0,-3,0,0,72,74,135,110,73,165.53,24,41.00,-2.00,-997.00
2024-05-17 15:30:38.325935,0,0,0,-3,0,0,72,74,135,100,73,165.55,24,47.00,-4.00,-1000.00
2024-05-17 15:30:38.482853,0,0,0,-3,0,0,72,74,135,100,73,165.66,24,37.00,0.00,-999.00
2024-05-17 15:30:38.530144,1,0,0,-2,0,0,72,74,135,100,73,165.40,24,42.00,3.00,-1007.00
2024-05-17 15:30:38.631814,1,0,0,-2,0,0,72,74,135,100,73,165.59,24,34.00,9.00,-1001.00
2024-05-17 15:30:38.793089,0,0,0,-2,0,0,72,74,135,100,73,165.36,24,25.00,-3.00,-1025.00
2024-05-17 15:30:38.835652,-4,0,0,-1,0,0,72,74,137,100,73,165.50,24,41.00,1.00,-984.00
2024-05-17 15:30:38.999656,-2,0,0,0,0,0,72,74,136,100,73,165.52,25,29.00,2.00,-1003.00
2024-05-17 15:30:39.049505,0,0,0,0,0,0,72,74,134,100,73,165.37,25,19.00,1.00,-1021.00
2024-05-17 15:30:39.145313,0,0,0,0,0,0,72,74,135,100,73,165.44,25,9.00,1.00,-997.00
2024-05-17 15:30:39.243931,0,0,0,0,0,0,72,73,135,100,72,165.56,25,16.00,5.00,-996.00
2024-05-17 15:30:39.407655,0,0,0,0,0,0,72,73,135,100,72,165.59,25,26.00,10.00,-1000.00
2024-05-17 15:30:39.447561,0,0,0,0,0,0,72,73,134,100,72,165.30,25,23.00,2.00,-1001.00
2024-05-17 15:30:39.549829,0,0,0,0,0,0,72,73,135,100,72,165.37,25,17.00,9.00,-996.00
2024-05-17 15:30:39.651613,0,0,0,0,0,0,72,73,134,100,72,165.67,25,7.00,3.00,-995.00
2024-05-17 15:30:39.814345,0,0,0,0,0,0,72,73,134,100,72,165.44,25,33.00,8.00,-1006.00
2024-05-17 15:30:39.855968,0,0,0,0,0,0,72,73,134,100,72,165.44,25,19.00,-4.00,-991.00
2024-05-17 15:30:40.019555,0,0,0,0,0,0,72,73,134,100,72,165.21,26,24.00,5.00,-1003.00
2024-05-17 15:30:40.059592,1,0,0,0,0,0,72,73,134,100,72,165.56,26,9.00,1.00,-981.00
2024-05-17 15:30:40.223248,1,0,0,0,0,0,72,73,134,100,72,165.38,26,0.00,1.00,-1011.00
2024-05-17 15:30:40.263600,1,0,0,0,0,0,72,73,134,100,72,165.41,26,17.00,8.00,-1005.00
2024-05-17 15:30:40.430463,1,0,0,0,0,0,72,73,134,100,72,165.74,26,21.00,11.00,-1003.00
2024-05-17 15:30:40.467691,1,0,0,0,0,0,72,73,135,100,72,165.33,26,14.00,6.00,-989.00
2024-05-17 15:30:40.735630,1,0,0,0,0,0,72,73,135,100,72,165.70,26,11.00,9.00,-990.00
2024-05-17 15:30:40.735811,1,0,0,0,0,0,72,73,135,100,72,165.41,26,28.00,-1.00,-998.00
2024-05-17 15:30:40.773622,1,0,0,0,0,0,72,73,135,100,72,165.39,26,21.00,8.00,-992.00
2024-05-17 15:30:40.940207,1,0,0,0,0,0,72,73,134,100,72,165.48,26,18.00,5.00,-1019.00
2024-05-17 15:30:40.977834,1,0,0,0,0,0,72,73,134,100,72,165.64,27,15.00,6.00,-1007.00
2024-05-17 15:30:41.028321,1,0,0,0,0,0,72,73,134,100,72,165.71,27,19.00,5.00,-1009.00
2024-05-17 15:30:41.130467,1,0,0,0,0,0,72,73,135,100,71,165.73,27,20.00,1.00,-1001.00
2024-05-17 15:30:41.283455,1,-7,0,0,0,0,72,74,137,100,71,165.58,27,23.00,-1.00,-1025.00
2024-05-17 15:30:41.334823,1,-8,0,0,-1,0,72,74,138,100,71,165.64,27,21.00,16.00,-1013.00
2024-05-17 15:30:41.439945,1,-5,0,0,-3,0,72,74,136,100,71,165.26,27,20.00,23.00,-981.00
2024-05-17 15:30:41.538400,1,-3,0,0,-3,0,72,74,136,100,71,165.59,27,32.00,24.00,-1003.00
2024-05-17 15:30:41.658443,1,0,0,0,-3,0,72,74,135,100,71,165.52,27,8.00,24.00,-985.00
2024-05-17 15:30:41.742454,1,0,0,0,-3,0,72,74,135,100,71,165.49,27,1.00,26.00,-995.00
2024-05-17 15:30:41.861502,1,0,0,0,-2,0,72,74,135,100,71,165.43,27,10.00,13.00,-993.00
2024-05-17 15:30:41.946373,1,-1,0,0,-2,0,72,74,137,100,71,165.41,28,26.00,11.00,-1010.00
2024-05-17 15:30:42.066815,1,-1,0,0,-2,0,72,74,136,100,71,165.59,28,6.00,14.00,-1002.00
2024-05-17 15:30:42.150493,1,-1,0,0,-2,0,72,74,137,100,71,165.54,28,24.00,9.00,-1004.00
2024-05-17 15:30:42.271776,1,0,0,0,-2,0,71,73,136,100,71,165.42,28,13.00,14.00,-1011.00
2024-05-17 15:30:42.354377,1,0,0,0,-2,0,71,73,135,100,71,165.74,28,17.00,25.00,-1004.00
2024-05-17 15:30:42.456300,1,0,0,0,-2,0,71,73,134,100,71,165.38,28,16.00,19.00,-989.00
2024-05-17 15:30:42.558796,1,0,0,0,-2,0,71,73,135,100,71,165.36,28,24.00,18.00,-998.00
2024-05-17 15:30:42.660319,1,0,0,0,-2,0,71,73,135,100,71,165.87,28,24.00,19.00,-1000.00
2024-05-17 15:30:42.763603,1,0,0,0,-2,0,71,73,134,100,71,165.58,28,20.00,17.00,-999.00
2024-05-17 15:30:42.864321,1,0,0,0,-2,0,71,73,136,100,71,165.53,28,22.00,14.00,-1008.00
2024-05-17 15:30:42.966210,1,2,0,0,-2,0,71,73,135,100,71,165.38,29,29.00,21.00,-975.00
2024-05-17 15:30:43.068406,1,3,0,0,-1,0,71,73,135,100,71,165.42,29,13.00,6.00,-1000.00
2024-05-17 15:30:43.170420,1,1,0,0,0,0,71,73,135,100,70,165.41,29,15.00,3.00,-1009.00
2024-05-17 15:30:43.297105,1,0,0,0,0,0,71,73,136,100,70,165.46,29,25.00,7.00,-1011.00
2024-05-17 15:30:43.374606,1,0,0,0,0,0,71,73,136,100,70,165.45,29,16.00,4.00,-995.00
2024-05-17 15:30:43.476630,1,0,0,0,0,0,71,73,136,100,70,166.05,29,20.00,2.00,-995.00
2024-05-17 15:30:43.603544,1,0,0,0,0,0,71,73,136,100,70,165.79,29,15.00,6.00,-993.00
2024-05-17 15:30:43.680444,1,0,0,0,0,0,71,73,137,100,70,165.48,29,18.00,-3.00,-995.00
2024-05-17 15:30:43.807866,1,0,0,0,0,0,71,73,137,100,70,165.66,29,16.00,-4.00,-999.00
2024-05-17 15:30:43.885896,1,0,0,0,0,0,71,73,137,100,70,165.18,29,20.00,-3.00,-993.00
2024-05-17 15:30:44.012563,1,0,0,0,0,0,71,73,136,100,70,165.41,30,16.00,0.00,-993.00
2024-05-17 15:30:44.088791,1,0,0,0,0,0,71,73,137,100,70,165.47,30,19.00,0.00,-992.00
2024-05-17 15:30:44.217449,1,0,0,0,0,0,71,73,137,100,70,165.54,30,24.00,6.00,-1000.00
2024-05-17 15:30:44.292569,1,0,0,0,0,0,72,73,136,100,70,165.42,30,20.00,0.00,-1005.00
2024-05-17 15:30:44.422152,1,0,0,0,0,0,72,73,136,110,70,165.68,30,28.00,-2.00,-993.00
2024-05-17 15:30:44.496358,1,0,0,0,0,0,72,73,136,110,70,165.28,30,11.00,4.00,-1012.00
2024-05-17 15:30:44.628461,1,0,0,0,0,0,72,73,136,110,70,165.43,30,34.00,-2.00,-1004.00
2024-05-17 15:30:44.700343,1,0,0,0,0,0,72,73,137,110,70,165.43,30,25.00,-5.00,-989.00
2024-05-17 15:30:44.831941,1,0,0,0,0,0,72,73,137,110,70,165.47,30,21.00,0.00,-991.00
2024-05-17 15:30:44.904372,1,0,0,0,0,0,72,73,137,110,70,165.63,30,27.00,-3.00,-998.00
2024-05-17 15:30:44.956467,1,0,0,0,0,0,72,73,137,110,70,165.48,31,28.00,-5.00,-993.00
2024-05-17 15:30:45.125017,1,0,0,0,0,0,72,73,137,110,70,165.37,31,14.00,-4.00,-987.00
2024-05-17 15:30:45.159159,1,0,0,0,0,0,72,73,137,110,69,165.24,31,28.00,0.00,-999.00
2024-05-17 15:30:45.345126,1,0,0,0,0,0,71,74,137,110,69,165.24,31,19.00,-6.00,-1010.00
2024-05-17 15:30:45.363179,1,5,0,0,0,0,71,74,139,110,69,165.62,31,35.00,14.00,-979.00
2024-05-17 15:30:45.553510,1,8,0,0,1,0,71,74,139,110,69,165.19,31,7.00,-13.00,-1006.00
2024-05-17 15:30:45.567193,1,5,0,0,3,0,71,74,138,110,69,165.63,31,23.00,-12.00,-1024.00
2024-05-17 15:30:45.752696,1,3,0,0,3,0,71,74,136,100,69,165.53,31,21.00,-14.00,-1007.00
2024-05-17 15:30:45.771360,1,0,0,0,3,0,71,74,136,100,69,165.45,31,25.00,-22.00,-1011.00
2024-05-17 15:30:45.957592,1,-1,0,0,3,0,71,74,136,100,69,165.51,31,25.00,-19.00,-1018.00
2024-05-17 15:30:45.975188,1,0,0,0,2,0,71,74,137,110,69,165.40,32,23.00,-4.00,-990.00
2024-05-17 15:30:46.163703,1,0,0,0,2,0,71,74,137,110,69,165.27,32,16.00,-12.00,-978.00
2024-05-17 15:30:46.183166,1,0,0,0,2,0,71,74,137,110,69,165.53,32,10.00,-18.00,-996.00
2024-05-17 15:30:46.281157,1,0,0,0,2,0,71,74,136,110,69,165.26,32,19.00,-15.00,-997.00
2024-05-17 15:30:46.470686,1,0,0,0,2,0,71,74,136,110,69,165.56,32,21.00,-9.00,-995.00
2024-05-17 15:30:46.485100,1,0,0,0,2,0,71,74,136,110,69,165.50,32,26.00,-17.00,-999.00
2024-05-17 15:30:46.675617,1,0,0,0,2,0,71,74,135,110,69,165.44,32,21.00,-21.00,-993.00
2024-05-17 15:30:46.689034,1,0,0,0,2,0,71,74,135,110,69,165.59,32,18.00,-18.00,-992.00
2024-05-17 15:30:46.880373,1,0,0,0,2,0,71,74,134,110,69,165.11,32,26.00,-18.00,-994.00
2024-05-17 15:30:46.893106,1,0,0,0,2,0,71,74,136,100,69,165.41,32,17.00,0.00,-1005.00
2024-05-17 15:30:46.996331,1,-3,0,0,2,0,71,74,135,100,69,165.65,33,10.00,-20.00,-1014.00
2024-05-17 15:30:47.103085,1,-4,0,0,1,0,71,74,135,100,69,165.43,33,9.00,-8.00,-999.00
2024-05-17 15:30:47.201246,1,-2,0,0,0,0,71,74,135,100,68,165.25,33,19.00,0.00,-1004.00
2024-05-17 15:30:47.301346,1,0,0,0,0,0,71,73,134,100,68,165.53,33,12.00,-10.00,-1001.00
2024-05-17 15:30:47.493873,1,0,0,0,0,0,71,73,133,100,68,165.41,33,17.00,-5.00,-1003.00
2024-05-17 15:30:47.506603,1,0,0,0,0,0,71,73,133,100,68,165.38,33,21.00,2.00,-1006.00
2024-05-17 15:30:47.607116,1,0,0,0,0,0,71,73,133,100,68,165.19,33,13.00,-9.00,-1012.00
2024-05-17 15:30:47.800846,1,0,0,0,0,0,71,73,133,100,68,165.36,33,27.00,11.00,-998.00
2024-05-17 15:30:47.811480,1,0,0,0,0,0,71,73,133,100,68,165.27,33,20.00,-9.00,-1010.00
2024-05-17 15:30:48.007262,1,0,0,0,0,0,71,73,133,100,68,165.50,33,22.00,4.00,-999.00
2024-05-17 15:30:48.015198,1,0,0,0,0,0,71,73,133,100,68,165.41,34,24.00,11.00,-1006.00
2024-05-17 15:30:48.210539,1,0,0,0,0,0,71,73,133,100,68,165.48,34,24.00,-1.00,-1008.00
2024-05-17 15:30:48.220086,1,0,0,0,0,0,71,73,133,100,68,165.39,34,14.00,3.00,-999.00
2024-05-17 15:30:48.416474,1,0,0,0,0,0,71,73,133,100,68,165.49,34,15.00,9.00,-998.00
2024-05-17 15:30:48.424056,1,0,0,0,0,0,71,73,133,100,68,165.35,34,30.00,0.00,-994.00
2024-05-17 15:30:48.621446,1,0,0,0,0,0,71,73,134,100,68,165.47,34,23.00,3.00,-986.00
2024-05-17 15:30:48.621665,1,0,0,0,0,0,71,73,133,100,68,165.46,34,21.00,4.00,-990.00
2024-05-17 15:30:48.679710,1,0,0,0,0,0,71,73,133,100,68,165.57,34,22.00,-2.00,-994.00
2024-05-17 15:30:48.824834,1,0,0,0,0,0,71,73,134,100,68,165.51,34,17.00,-5.00,-1006.00
2024-05-17 15:30:48.883704,1,0,0,0,0,0,71,73,134,100,68,165.26,34,26.00,0.00,-998.00
2024-05-17 15:30:48.985283,1,0,0,0,0,0,71,73,134,100,68,165.55,35,22.00,3.00,-998.00
2024-05-17 15:30:49.105360,1,0,0,0,0,0,71,73,134,100,68,165.49,35,22.00,5.00,-1001.00
2024-05-17 15:30:49.188998,1,0,0,0,0,0,71,73,134,100,67,165.51,35,29.00,2.00,-1002.00
2024-05-17 15:30:49.337406,1,0,1,0,0,0,70,73,134,100,67,165.63,35,36.00,4.00,-991.00
2024-05-17 15:30:49.393076,1,0,13,0,0,0,70,73,134,100,67,165.54,35,29.00,0.00,-1001.00
2024-05-17 15:30:49.542813,1,0,19,0,0,0,70,73,134,100,67,165.50,35,27.00,4.00,-998.00
2024-05-17 15:30:49.597204,1,0,25,0,0,0,70,73,135,100,67,165.31,35,27.00,-5.00,-995.00
2024-05-17 15:30:49.746305,1,0,31,0,0,0,70,73,135,100,67,165.41,35,24.00,-2.00,-996.00
2024-05-17 15:30:49.801722,1,0,37,0,0,0,70,73,135,100,67,165.62,35,21.00,-12.00,-994.00
2024-05-17 15:30:49.951610,1,0,43,0,0,0,70,73,135,100,67,165.30,36,23.00,-7.00,-986.00
2024-05-17 15:30:50.004967,1,0,49,0,0,0,70,73,135,100,67,165.57,36,18.00,-13.00,-1001.00
2024-05-17 15:30:50.156385,0,1,55,0,0,0,70,73,135,100,67,165.37,36,30.00,-17.00,-1000.00
2024-05-17 15:30:50.209211,0,1,61,0,0,0,70,73,135,100,67,165.57,36,23.00,-17.00,-996.00
2024-05-17 15:30:50.360714,0,1,67,0,0,0,71,73,135,100,67,165.75,36,11.00,-16.00,-1000.00
2024-05-17 15:30:50.413009,0,1,73,0,0,0,71,73,135,100,67,165.69,36,17.00,-16.00,-995.00
2024-05-17 15:30:50.565469,0,1,79,0,0,0,71,73,135,100,67,165.52,36,17.00,-13.00,-1002.00
2024-05-17 15:30:50.617131,0,1,85,0,0,0,71,73,135,100,67,165.80,36,18.00,-15.00,-1005.00
2024-05-17 15:30:50.719076,0,1,91,0,0,0,71,73,136,100,67,165.55,36,15.00,-19.00,-1013.00
2024-05-17 15:30:50.874331,0,1,97,0,0,0,71,73,136,100,67,165.47,36,3.00,-9.00,-1009.00
2024-05-17 15:30:50.922930,0,1,104,0,0,0,71,73,136,100,67,165.48,37,11.00,-14.00,-992.00
2024-05-17 15:30:51.077466,0,1,110,0,0,0,71,73,136,100,67,165.74,37,7.00,-9.00,-1007.00
2024-05-17 15:30:51.127123,0,1,116,0,0,0,71,73,136,100,67,165.70,37,5.00,-9.00,-985.00
2024-05-17 15:30:51.282323,0,1,122,0,0,0,71,73,135,100,66,165.43,37,11.00,-4.00,-1011.00
2024-05-17 15:30:51.330845,0,1,129,0,0,0,71,74,136,100,66,165.60,37,-2.00,-7.00,-1009.00
2024-05-17 15:30:51.487033,0,1,135,0,0,0,71,74,136,100,66,165.41,37,8.00,-5.00,-1000.00
2024-05-17 15:30:51.534982,0,1,141,0,0,0,71,74,136,100,66,165.65,37,0.00,-8.00,-985.00
2024-05-17 15:30:51.637022,0,1,148,0,0,0,71,74,135,100,66,165.35,37,-6.00,-14.00,-1005.00
2024-05-17 15:30:51.796581,0,1,154,0,0,0,71,74,136,100,66,165.55,37,3.00,-4.00,-997.00
2024-05-17 15:30:51.840841,0,0,160,0,0,0,71,74,136,100,66,165.26,37,0.00,-6.00,-1005.00
2024-05-17 15:30:51.999019,0,0,166,0,0,0,71,74,136,100,66,165.74,38,-12.00,-12.00,-1007.00
2024-05-17 15:30:52.045079,0,1,172,0,0,0,71,74,135,100,66,165.51,38,-7.00,3.00,-995.00
2024-05-17 15:30:52.096148,0,0,178,0,0,0,71,74,135,100,66,165.44,38,-7.00,2.00,-1002.00
2024-05-17 15:30:52.203816,0,0,-175,0,0,0,71,74,134,100,66,165.58,38,-13.00,0.00,-992.00
2024-05-17 15:30:52.352117,0,0,-169,0,0,0,71,73,134,100,66,165.47,38,-17.00,-2.00,-1003.00
2024-05-17 15:30:52.403621,0,0,-163,0,0,0,71,73,133,100,66,165.48,38,-9.00,-6.00,-1008.00
2024-05-17 15:30:52.503987,0,0,-157,0,0,0,71,73,133,100,66,165.80,38,1.00,-3.00,-997.00
2024-05-17 15:30:52.608443,0,0,-151,0,0,0,71,73,133,100,66,165.64,38,-18.00,4.00,-984.00
2024-05-17 15:30:52.708976,0,0,-145,0,0,0,71,73,133,100,66,165.49,38,-5.00,-4.00,-997.00
2024-05-17 15:30:52.813503,0,0,-139,0,0,0,71,73,132,100,66,165.64,38,-7.00,18.00,-997.00
2024-05-17 15:30:52.911785,0,0,-133,0,0,0,71,73,132,100,66,165.61,39,-2.00,17.00,-1001.00
2024-05-17 15:30:53.023400,0,0,-127,0,0,0,71,73,132,100,66,165.42,39,-3.00,6.00,-1016.00
2024-05-17 15:30:53.116550,0,0,-122,0,0,0,71,73,132,100,66,165.53,39,-1.00,9.00,-1007.00
2024-05-17 15:30:53.218764,0,0,-116,0,0,0,71,73,133,100,65,165.53,39,0.00,9.00,-1002.00
2024-05-17 15:30:53.319802,0,0,-110,0,0,0,71,73,133,100,65,165.62,39,-1.00,4.00,-991.00
2024-05-17 15:30:53.432950,0,0,-105,0,0,0,71,73,133,100,65,165.79,39,-4.00,-2.00,-988.00
2024-05-17 15:30:53.525669,0,0,-99,0,0,0,71,73,133,100,65,165.69,39,13.00,9.00,-999.00
2024-05-17 15:30:53.625695,0,0,-93,0,0,0,71,73,134,100,65,165.44,39,-3.00,19.00,-1002.00
2024-05-17 15:30:53.739920,0,0,-87,0,0,0,71,73,134,100,65,165.35,39,3.00,11.00,-1013.00
2024-05-17 15:30:53.829727,0,0,-82,0,0,0,71,73,135,100,65,165.50,39,19.00,0.00,-1001.00
2024-05-17 15:30:53.945025,0,0,-76,0,0,0,71,73,135,100,65,165.26,40,16.00,0.00,-982.00
2024-05-17 15:30:54.033741,0,0,-70,0,0,0,71,73,135,100,65,165.62,40,20.00,4.00,-997.00
2024-05-17 15:30:54.137050,0,0,-64,0,0,0,71,73,135,100,65,165.13,40,18.00,4.00,-988.00
2024-05-17 15:30:54.238520,0,0,-58,0,0,0,71,73,135,100,65,165.58,40,16.00,9.00,-994.00
2024-05-17 15:30:54.355635,0,0,-52,0,0,0,71,73,136,100,65,165.38,40,18.00,6.00,-999.00
2024-05-17 15:30:54.441658,0,0,-46,0,0,0,71,73,136,100,65,165.18,40,20.00,6.00,-997.00
2024-05-17 15:30:54.581006,0,0,-40,0,0,0,71,73,136,100,65,165.35,40,27.00,3.00,-998.00
2024-05-17 15:30:54.645703,0,0,-34,0,0,0,71,73,136,100,65,165.41,40,15.00,0.00,-1001.00
2024-05-17 15:30:54.765041,0,0,-28,0,0,0,71,73,136,100,65,165.59,40,15.00,7.00,-991.00
2024-05-17 15:30:54.849677,0,0,-22,0,0,0,71,73,136,100,65,165.56,40,15.00,6.00,-993.00
2024-05-17 15:30:54.976324,0,0,-17,0,0,0,71,73,136,100,65,165.68,41,13.00,9.00,-996.00
2024-05-17 15:30:55.053788,0,0,-12,0,0,0,71,73,137,100,65,165.59,41,20.00,3.00,-1000.00
2024-05-17 15:30:55.156387,0,0,-9,0,0,0,71,73,137,110,65,165.57,41,17.00,3.00,-988.00
2024-05-17 15:30:55.275839,1,0,-7,0,0,0,71,73,137,110,64,165.51,41,9.00,-4.00,-997.00
2024-05-17 15:30:55.359609,1,0,-5,0,0,0,71,73,137,110,64,165.37,41,21.00,-9.00,-998.00
2024-05-17 15:30:55.461644,1,0,-3,0,0,0,71,73,137,110,64,165.46,41,8.00,-9.00,-1002.00
2024-05-17 15:30:55.563730,1,0,-2,0,0,0,71,73,137,110,64,165.58,41,21.00,-3.00,-999.00
2024-05-17 15:30:55.685778,1,0,-2,0,0,0,71,73,137,110,64,165.41,41,24.00,0.00,-1002.00
2024-05-17 15:30:55.767724,1,0,-1,0,0,0,71,73,137,110,64,165.48,41,19.00,5.00,-1003.00
2024-05-17 15:30:55.818690,1,0,-1,0,0,0,71,73,137,110,64,165.61,41,20.00,-13.00,-1001.00
2024-05-17 15:30:55.993730,1,0,-1,0,0,0,71,73,137,110,64,165.65,42,21.00,-1.00,-1011.00
2024-05-17 15:30:56.022723,1,0,-1,0,0,0,71,73,136,110,64,165.51,42,21.00,10.00,-992.00
2024-05-17 15:30:56.198146,1,0,-1,0,0,0,71,73,136,110,64,165.57,42,16.00,-3.00,-997.00
2024-05-17 15:30:56.227130,1,0,-1,0,0,0,71,73,136,110,64,165.50,42,21.00,-2.00,-992.00
2024-05-17 15:30:56.328537,1,0,-1,0,0,0,71,72,136,110,64,165.58,42,21.00,3.00,-1003.00
2024-05-17 15:30:56.504960,1,0,-1,0,0,0,71,72,136,110,64,165.37,42,8.00,9.00,-1000.00
2024-05-17 15:30:56.534140,1,0,-1,0,0,0,71,72,135,100,64,165.44,42,10.00,0.00,-1005.00
2024-05-17 15:30:56.634840,1,0,-1,0,0,0,71,72,135,100,64,165.83,42,19.00,1.00,-996.00
2024-05-17 15:30:56.813580,1,0,-1,0,0,0,71,72,136,100,64,165.54,42,23.00,12.00,-1007.00
2024-05-17 15:30:56.839790,1,0,-1,0,0,0,71,72,136,100,64,165.75,42,15.00,-3.00,-995.00
2024-05-17 15:30:57.016645,0,0,-1,0,0,0,71,72,136,100,64,165.37,43,29.00,-11.00,-1010.00
2024-05-17 15:30:57.042720,1,0,-1,0,0,0,71,72,136,100,64,165.62,43,19.00,-1.00,-1006.00
2024-05-17 15:30:57.228381,1,0,-1,0,0,0,71,72,136,100,63,165.44,43,19.00,0.00,-1007.00
2024-05-17 15:30:57.248029,1,0,-1,0,0,0,71,72,136,100,63,165.70,43,20.00,-1.00,-996.00
2024-05-17 15:30:57.349419,1,0,-1,0,0,0,71,73,136,100,63,165.63,43,15.00,-3.00,-1012.00
2024-05-17 15:30:57.529674,1,0,-1,0,0,0,71,73,136,100,63,165.56,43,18.00,0.00,-998.00
2024-05-17 15:30:57.553283,0,0,-1,0,0,0,71,73,136,100,63,165.45,43,21.00,-4.00,-1006.00
2024-05-17 15:30:57.720664,0,0,-1,0,0,0,71,73,136,100,63,165.71,43,12.00,-3.00,-1014.00
2024-05-17 15:30:57.756846,0,0,-1,0,0,0,71,73,136,100,63,165.50,43,12.00,-4.00,-998.00
2024-05-17 15:30:57.858482,0,0,-2,0,0,0,71,73,136,100,63,165.60,43,33.00,9.00,-1008.00
2024-05-17 15:30:58.050613,0,0,-8,0,0,0,71,73,136,100,63,165.44,44,21.00,14.00,-996.00
2024-05-17 15:30:58.070731,0,0,-14,0,0,0,71,73,136,100,63,165.54,44,11.00,7.00,-996.00
2024-05-17 15:30:58.164520,0,0,-20,0,0,0,71,73,136,100,63,165.55,44,13.00,9.00,-1003.00
2024-05-17 15:30:58.348567,0,0,-26,0,0,0,71,73,136,100,63,165.62,44,13.00,3.00,-997.00
2024-05-17 15:30:58.368471,0,0,-32,0,0,0,71,73,136,100,63,165.55,44,5.00,8.00,-998.00
2024-05-17 15:30:58.552444,0,0,-38,0,0,0,71,73,136,100,63,165.82,44,9.00,2.00,-981.00
2024-05-17 15:30:58.572508,0,0,-44,0,0,0,71,73,137,100,63,165.61,44,5.00,7.00,-1005.00
2024-05-17 15:30:58.762495,0,0,-50,0,0,0,71,73,136,100,63,165.44,44,9.00,2.00,-1005.00
2024-05-17 15:30:58.776639,0,0,-56,0,0,0,71,73,136,100,63,165.54,44,13.00,9.00,-1005.00
2024-05-17 15:30:58.962566,0,0,-62,0,0,0,71,73,136,100,63,165.71,44,12.00,1.00,-990.00
2024-05-17 15:30:58.980602,0,0,-68,0,0,0,71,73,136,100,63,165.69,45,7.00,6.00,-994.00
2024-05-17 15:30:59.167022,0,0,-75,0,0,0,71,73,136,100,63,165.47,45,17.00,0.00,-1000.00
2024-05-17 15:30:59.184800,0,0,-81,0,0,0,71,73,136,100,62,165.67,45,4.00,0.00,-1000.00
2024-05-17 15:30:59.376817,0,0,-87,0,0,0,71,73,137,100,62,165.63,45,0.00,-4.00,-996.00
2024-05-17 15:30:59.396380,0,0,-93,0,0,0,71,73,137,100,62,165.38,45,-12.00,-3.00,-1002.00
2024-05-17 15:30:59.490461,0,0,-99,0,0,0,71,73,136,100,62,165.61,45,13.00,-4.00,-997.00
2024-05-17 15:30:59.592762,0,0,-105,0,0,0,71,73,137,100,62,165.52,45,4.00,11.00,-997.00
2024-05-17 15:30:59.781410,0,0,-111,0,0,0,71,73,136,100,62,165.32,45,-9.00,-7.00,-985.00
2024-05-17 15:30:59.802121,0,0,-117,0,0,0,71,73,137,100,62,165.69,45,3.00,12.00,-1009.00
2024-05-17 15:30:59.899803,0,0,-123,0,0,0,71,73,136,100,62,165.72,45,9.00,8.00,-1005.00
2024-05-17 15:31:00.091648,0,0,-129,0,0,0,71,73,136,100,62,165.40,46,-4.00,4.00,-998.00
2024-05-17 15:31:00.091857,0,0,-135,0,0,0,71,73,136,100,62,165.63,46,8.00,-1.00,-995.00
2024-05-17 15:31:00.153489,0,0,-140,0,0,0,71,73,136,100,62,165.33,46,-3.00,0.00,-988.00
2024-05-17 15:31:00.256797,0,0,-146,0,0,0,71,73,136,100,62,165.61,46,-1.00,5.00,-990.00
2024-05-17 15:31:00.357662,0,0,-152,0,0,0,71,73,136,100,62,165.31,46,-2.00,3.00,-992.00
2024-05-17 15:31:00.498199,0,0,-158,0,0,0,71,73,136,100,62,165.65,46,0.00,-5.00,-992.00
2024-05-17 15:31:00.564149,0,0,-164,0,0,0,71,73,136,100,62,165.68,46,-2.00,7.00,-1012.00
2024-05-17 15:31:00.663341,0,0,-171,0,0,0,71,73,137,100,62,165.76,46,7.00,-5.00,-992.00
2024-05-17 15:31:00.807854,0,0,-177,0,0,0,71,73,137,100,62,165.52,46,1.00,-1.00,-1001.00
2024-05-17 15:31:00.867312,0,0,176,0,0,0,71,73,138,100,62,165.60,46,0.00,-7.00,-1008.00
2024-05-17 15:31:01.011030,0,0,170,0,0,0,71,73,138,100,62,165.79,47,0.00,-7.00,-1000.00
2024-05-17 15:31:01.071320,0,0,163,0,0,0,71,73,138,100,62,165.52,47,7.00,-14.00,-993.00
2024-05-17 15:31:01.173456,0,0,157,0,0,0,71,73,138,100,61,165.78,47,4.00,-3.00,-997.00
2024-05-17 15:31:01.317377,0,0,151,0,0,0,71,73,138,100,61,165.74,47,7.00,-9.00,-998.00
2024-05-17 15:31:01.378313,0,0,145,0,0,0,71,73,137,110,61,165.48,47,11.00,-13.00,-992.00
2024-05-17 15:31:01.522171,0,0,139,0,0,0,71,73,137,110,61,165.13,47,21.00,-17.00,-991.00
2024-05-17 15:31:01.583076,0,0,132,0,0,0,71,73,137,110,61,165.64,47,22.00,-8.00,-996.00
2024-05-17 15:31:01.683463,1,0,126,0,0,0,71,73,137,110,61,165.65,47,15.00,-8.00,-1008.00
2024-05-17 15:31:01.785388,1,1,120,0,0,0,71,73,137,110,61,165.29,47,26.00,-3.00,-1004.00
2024-05-17 15:31:01.934242,1,0,114,0,0,0,71,73,137,110,61,165.62,47,18.00,-5.00,-1016.00
2024-05-17 15:31:01.989276,1,0,108,0,0,0,71,73,137,110,61,165.71,48,24.00,-1.00,-1009.00
2024-05-17 15:31:02.092077,1,0,102,0,0,0,71,73,137,110,61,165.83,48,21.00,-15.00,-1001.00
2024-05-17 15:31:02.193252,1,0,96,0,0,0,71,73,137,110,61,165.47,48,25.00,-3.00,-992.00
2024-05-17 15:31:02.341362,1,0,90,0,0,0,71,73,137,110,61,165.50,48,28.00,0.00,-1003.00
2024-05-17 15:31:02.397245,1,0,84,0,0,0,70,73,137,110,61,165.55,48,29.00,0.00,-997.00
2024-05-17 15:31:02.546328,1,0,78,0,0,0,70,73,136,110,61,165.36,48,23.00,0.00,-981.00
2024-05-17 15:31:02.601231,1,0,72,0,0,0,70,73,136,110,61,165.38,48,27.00,1.00,-992.00
2024-05-17 15:31:02.750964,1,0,66,0,0,0,70,73,136,110,61,165.78,48,32.00,5.00,-983.00
2024-05-17 15:31:02.805215,1,0,60,0,0,0,70,73,136,110,61,165.77,48,14.00,0.00,-996.00
2024-05-17 15:31:02.956108,1,0,55,0,0,0,70,73,136,110,61,165.68,48,14.00,3.00,-1006.00
2024-05-17 15:31:03.009244,1,0,49,0,0,0,70,73,136,110,61,165.42,49,33.00,5.00,-992.00
2024-05-17 15:31:03.160561,1,0,43,0,0,0,70,73,136,100,61,165.64,49,25.00,0.00,-996.00
2024-05-17 15:31:03.213818,1,0,37,0,0,0,70,73,136,100,61,165.54,49,27.00,12.00,-995.00
2024-05-17 15:31:03.365329,1,0,31,0,0,0,70,73,136,100,61,165.86,49,29.00,10.00,-1006.00
2024-05-17 15:31:03.417199,1,0,25,0,0,0,71,73,135,100,61,165.37,49,21.00,7.00,-1003.00
2024-05-17 15:31:03.570454,1,0,20,0,0,0,71,73,136,100,61,165.40,49,21.00,2.00,-1000.00
2024-05-17 15:31:03.571060,1,0,15,0,0,0,71,73,135,100,61,165.50,49,33.00,18.00,-1005.00
2024-05-17 15:31:03.672776,1,0,11,0,0,0,71,73,136,100,61,165.57,49,22.00,2.00,-1003.00
2024-05-17 15:31:03.775730,1,0,8,0,0,0,71,73,136,100,61,165.33,49,12.00,1.00,-997.00
2024-05-17 15:31:03.877021,1,0,5,0,0,0,71,73,135,100,61,165.79,49,28.00,0.00,-1004.00
2024-05-17 15:31:03.980453,1,0,4,0,0,0,71,73,135,100,61,165.40,50,25.00,3.00,-1004.00
2024-05-17 15:31:04.080336,1,0,2,0,0,0,71,73,135,100,61,165.58,50,29.00,13.00,-983.00
2024-05-17 15:31:04.182197,1,0,1,0,0,0,71,73,135,100,61,165.38,50,10.00,7.00,-1009.00
2024-05-17 15:31:04.286988,1,0,1,0,0,0,71,73,136,100,61,165.66,50,24.00,0.00,-1011.00
2024-05-17 15:31:04.387314,1,0,0,0,0,0,70,72,135,100,61,165.57,50,20.00,6.00,-994.00
2024-05-17 15:31:04.489273,1,0,0,0,0,0,70,72,135,100,61,165.37,50,19.00,3.00,-1008.00
2024-05-17 15:31:04.590190,1,0,0,0,0,0,70,72,135,100,61,165.69,50,19.00,0.00,-987.00
2024-05-17 15:31:04.696561,0,0,0,0,0,0,70,72,135,100,61,165.54,50,27.00,9.00,-992.00
2024-05-17 15:31:04.794167,0,0,0,0,0,0,70,72,135,100,61,165.53,50,27.00,5.00,-1007.00
2024-05-17 15:31:04.902418,0,0,0,0,0,0,70,72,135,100,61,165.53,50,17.00,7.00,-1002.00
2024-05-17 15:31:04.998160,0,0,0,0,0,0,70,72,135,100,61,165.75,51,21.00,-7.00,-995.00
2024-05-17 15:31:05.106678,0,0,0,0,0,0,70,72,135,100,61,165.63,51,11.00,7.00,-1000.00
2024-05-17 15:31:05.206702,0,0,0,0,0,0,70,72,135,100,61,166.02,51,11.00,3.00,-995.00
2024-05-17 15:31:05.304149,1,0,0,0,0,0,70,72,135,100,61,165.26,51,20.00,-3.00,-1011.00
2024-05-17 15:31:05.413442,1,0,0,0,0,0,70,73,135,100,61,165.72,51,17.00,1.00,-1012.00
2024-05-17 15:31:05.508654,1,0,0,0,0,0,70,73,135,100,61,165.37,51,19.00,6.00,-1001.00
2024-05-17 15:31:05.618087,0,0,0,0,0,0,70,73,135,100,61,165.67,51,18.00,-5.00,-996.00
2024-05-17 15:31:05.712063,1,0,0,0,0,0,70,73,135,100,61,165.38,51,21.00,3.00,-994.00
2024-05-17 15:31:05.823008,0,0,0,0,0,0,70,73,135,100,61,165.45,51,14.00,-2.00,-1006.00
2024-05-17 15:31:05.916634,0,0,0,0,0,0,70,73,135,100,61,165.81,52,18.00,0.00,-1003.00
2024-05-17 15:31:06.027864,1,0,0,0,0,0,70,73,135,100,61,165.76,52,22.00,7.00,-990.00
2024-05-17 15:31:06.120172,0,0,0,0,0,0,70,73,135,100,61,165.51,52,18.00,15.00,-995.00
2024-05-17 15:31:06.224994,0,0,0,0,0,0,70,73,135,100,61,165.05,52,17.00,10.00,-1005.00
2024-05-17 15:31:06.323982,0,0,0,0,0,0,70,73,135,100,61,165.34,52,19.00,3.00,-1008.00
2024-05-17 15:31:06.438514,0,0,0,0,0,0,71,72,135,100,61,165.52,52,12.00,7.00,-1003.00
2024-05-17 15:31:06.527968,0,0,0,0,0,0,71,72,135,100,61,165.38,52,20.00,1.00,-993.00
2024-05-17 15:31:06.629959,0,0,0,0,0,0,71,72,135,100,61,165.58,52,9.00,10.00,-1065.00
2024-05-17 15:31:06.745179,0,0,0,0,0,-3,71,72,136,110,61,165.72,52,29.00,430.00,-1676.00
2024-05-17 15:31:06.833986,0,-6,0,0,0,-10,71,72,142,110,61,165.63,52,19.00,102.00,-1370.00
2024-05-17 15:31:06.936172,0,-86,0,0,-3,-12,71,72,201,120,61,165.61,53,16.00,633.00,-1047.00
2024-05-17 15:31:07.038409,1,149,1,0,-9,0,71,72,176,130,61,165.93,53,0.00,494.00,-920.00
2024-05-17 15:31:07.154128,0,35,-1,0,-4,11,71,72,375,130,61,166.08,53,-9.00,262.00,-1430.00
2024-05-17 15:31:07.242013,0,0,-2,0,-2,10,71,72,149,110,61,165.76,53,-3.00,-66.00,-1402.00
2024-05-17 15:31:07.293451,0,1,-3,0,-2,6,71,72,139,110,61,165.74,53,-9.00,-21.00,-1379.00
2024-05-17 15:31:07.461311,0,3,-1,0,-2,3,70,72,133,100,61,165.53,53,0.00,12.00,-1230.00
2024-05-17 15:31:07.497249,0,2,0,0,-1,1,70,72,130,100,61,165.57,53,11.00,8.00,-1197.00
2024-05-17 15:31:07.666063,0,1,0,0,-1,0,70,72,129,100,61,165.42,53,5.00,0.00,-1099.00
2024-05-17 15:31:07.702401,0,1,0,0,-1,-1,70,72,130,100,61,165.69,53,4.00,-13.00,-1068.00
2024-05-17 15:31:07.803055,1,2,0,0,0,-1,70,72,129,100,61,165.72,53,17.00,6.00,-1001.00
2024-05-17 15:31:07.904840,1,1,0,0,0,-1,70,72,130,100,61,165.32,54,13.00,-2.00,-987.00
2024-05-17 15:31:08.007243,1,0,0,0,0,-1,70,72,131,100,61,165.43,54,23.00,-4.00,-968.00
2024-05-17 15:31:08.178364,1,0,0,0,0,0,70,72,133,100,61,165.63,54,19.00,5.00,-974.00
2024-05-17 15:31:08.210828,1,0,0,0,0,0,70,72,134,100,61,165.27,54,14.00,1.00,-992.00
2024-05-17 15:31:08.382852,1,0,0,0,0,0,70,72,135,110,61,165.44,54,5.00,0.00,-975.00
2024-05-17 15:31:08.416338,1,0,0,0,0,0,70,72,134,110,61,165.64,54,15.00,0.00,-984.00
2024-05-17 15:31:08.517534,1,0,0,0,0,0,70,72,134,110,61,165.35,54,6.00,0.00,-971.00
2024-05-17 15:31:08.619802,1,0,0,0,0,0,70,72,134,110,61,165.56,54,17.00,-2.00,-994.00
2024-05-17 15:31:08.721517,1,0,0,0,0,0,70,72,133,110,61,165.49,54,8.00,-5.00,-1006.00
2024-05-17 15:31:08.822766,1,0,0,0,0,0,70,72,134,100,61,165.50,54,11.00,4.00,-1001.00
2024-05-17 15:31:08.997370,1,0,0,0,0,0,70,72,133,100,61,165.49,55,15.00,0.00,-1001.00
2024-05-17 15:31:09.029288,1,0,0,0,0,0,70,72,133,100,61,165.59,55,13.00,0.00,-1003.00
2024-05-17 15:31:09.128818,1,0,0,0,0,0,70,72,133,100,61,165.74,55,21.00,2.00,-1014.00
2024-05-17 15:31:09.230685,1,0,0,0,0,0,70,72,133,100,60,165.68,55,19.00,3.00,-1000.00
2024-05-17 15:31:09.407369,1,0,0,0,0,0,70,72,134,100,60,165.50,55,12.00,6.00,-1006.00
