TS,pitch,roll,yaw,vgx,vgy,vgz,templ,temph,tof,h,bat,baro,time,agx,agy,agz
2024-06-06 23:45:51.312181,0,0,69,0,0,0,78,81,10,0,50,94.23,143,9.00,-2.00,-1001.00
2024-06-06 23:45:51.460901,0,0,69,0,0,0,78,81,10,0,50,94.19,143,8.00,0.00,-999.00
2024-06-06 23:45:51.516484,0,0,69,0,0,0,78,81,10,0,50,94.09,143,11.00,-2.00,-999.00
2024-06-06 23:45:51.665627,0,0,69,0,0,0,78,81,10,0,50,94.05,143,10.00,-1.00,-999.00
2024-06-06 23:45:51.722514,0,0,69,0,0,0,78,81,10,0,50,94.08,143,10.00,-1.00,-998.00
2024-06-06 23:45:51.821947,0,0,69,0,0,0,78,79,10,0,50,94.15,143,8.00,-2.00,-1001.00
2024-06-06 23:45:51.973401,0,0,69,0,0,0,78,79,10,0,50,94.03,143,9.00,0.00,-1001.00
2024-06-06 23:45:52.125424,0,0,69,0,0,0,78,79,10,0,50,94.08,143,9.00,-2.00,-1001.00
2024-06-06 23:45:52.128670,0,0,69,0,0,0,78,79,10,0,50,94.09,143,8.00,0.00,-998.00
2024-06-06 23:45:52.293097,0,0,69,0,0,0,78,79,10,0,50,94.26,143,9.00,0.00,-996.00
2024-06-06 23:45:52.393161,0,0,69,0,0,0,78,79,10,0,50,94.00,143,9.00,-3.00,-999.00
2024-06-06 23:45:52.472683,0,0,69,0,0,0,78,79,10,0,50,94.37,143,9.00,-2.00,-1000.00
2024-06-06 23:45:52.563828,0,0,69,0,0,0,78,79,10,0,50,94.07,143,8.00,0.00,-999.00
2024-06-06 23:45:52.637916,0,0,69,0,0,0,78,79,10,0,50,94.35,143,7.00,-1.00,-999.00
2024-06-06 23:45:52.755527,0,0,69,0,0,0,78,79,10,0,50,94.24,143,9.00,-1.00,-1000.00
2024-06-06 23:45:52.841925,0,0,69,0,0,0,80,81,10,0,50,94.28,143,10.00,-1.00,-998.00
2024-06-06 23:45:53.070062,0,0,69,0,0,0,80,81,10,0,50,94.11,143,10.00,-3.00,-999.00
2024-06-06 23:45:53.070586,0,0,69,0,0,0,80,81,10,0,50,94.22,143,10.00,-1.00,-1000.00
2024-06-06 23:45:53.147961,0,0,69,0,0,0,80,81,10,0,50,94.37,143,10.00,-2.00,-1001.00
2024-06-06 23:45:53.271183,0,0,69,0,0,0,80,81,10,0,50,93.79,143,10.00,-2.00,-1000.00
2024-06-06 23:45:53.351877,0,0,69,0,0,0,80,81,10,0,50,94.40,143,11.00,-1.00,-999.00
2024-06-06 23:45:53.519729,0,0,69,0,0,0,80,81,10,0,50,94.15,143,9.00,-2.00,-1000.00
2024-06-06 23:45:53.520432,0,0,69,0,0,0,80,81,10,0,50,94.16,143,11.00,-2.00,-1001.00
2024-06-06 23:45:53.662942,0,0,69,0,0,0,80,81,10,0,50,94.10,143,9.00,-1.00,-998.00
2024-06-06 23:45:53.708613,0,0,69,0,0,0,80,81,10,0,50,94.26,143,10.00,-2.00,-1000.00
2024-06-06 23:45:53.826708,0,0,69,0,0,0,79,81,10,0,50,94.26,143,9.00,-3.00,-1001.00
2024-06-06 23:45:53.970113,0,0,69,0,0,0,79,81,10,0,50,94.26,143,13.00,-6.00,-1002.00
2024-06-06 23:45:54.014767,0,0,69,0,0,0,79,81,10,0,50,94.26,143,3.00,-4.00,-1009.00
2024-06-06 23:45:54.133945,0,0,70,0,0,0,79,81,10,0,50,94.26,143,8.00,-2.00,-1027.00
2024-06-06 23:45:54.218664,0,0,70,0,0,0,79,81,10,0,50,94.26,143,-7.00,-2.00,-1024.00
2024-06-06 23:45:54.327921,-1,0,70,0,0,0,79,81,10,0,50,94.26,143,9.00,0.00,-1177.00
2024-06-06 23:45:54.423000,0,0,70,0,0,-2,79,81,10,0,50,94.26,143,15.00,1.00,-1316.00
2024-06-06 23:45:54.532563,0,0,70,0,0,-5,79,81,10,0,50,94.26,143,16.00,-3.00,-1232.00
2024-06-06 23:45:54.626874,1,0,70,0,0,-7,79,81,17,0,50,94.63,144,-2.00,-7.00,-1103.00
2024-06-06 23:45:54.737420,1,0,70,0,0,-7,79,81,26,10,50,94.54,144,10.00,-9.00,-1024.00
2024-06-06 23:45:54.831585,0,0,70,0,0,-8,79,82,34,20,50,94.79,144,11.00,-6.00,-974.00
2024-06-06 23:45:54.942124,0,0,70,0,0,-7,79,82,43,30,50,95.04,144,0.00,9.00,-938.00
2024-06-06 23:45:55.034625,0,0,70,0,0,-6,79,82,50,30,50,94.78,144,7.00,-4.00,-914.00
2024-06-06 23:45:55.147430,0,0,70,0,0,-5,79,82,57,40,50,95.13,144,1.00,9.00,-898.00
2024-06-06 23:45:55.238585,0,0,70,0,0,-4,79,82,63,40,50,94.84,144,3.00,-7.00,-894.00
2024-06-06 23:45:55.351775,0,0,70,0,0,-3,79,82,68,50,50,94.78,144,5.00,-3.00,-888.00
2024-06-06 23:45:55.442614,0,0,70,0,0,-2,79,82,71,50,50,95.19,144,3.00,-4.00,-907.00
2024-06-06 23:45:55.556747,0,0,70,0,0,-1,79,82,74,50,50,95.28,144,11.00,-12.00,-924.00
2024-06-06 23:45:55.646515,0,0,70,0,0,-1,79,82,76,50,50,94.98,145,0.00,-3.00,-955.00
2024-06-06 23:45:55.748553,0,0,70,0,0,0,79,82,78,50,50,94.79,145,2.00,10.00,-966.00
2024-06-06 23:45:55.863782,0,0,70,0,0,0,79,81,79,60,50,95.29,145,4.00,-8.00,-974.00
2024-06-06 23:45:55.952506,0,0,70,0,0,0,79,81,80,60,50,95.25,145,1.00,-2.00,-989.00
2024-06-06 23:45:56.054484,0,0,70,0,0,0,79,81,81,60,50,95.08,145,14.00,-8.00,-995.00
2024-06-06 23:45:56.171023,0,0,70,0,0,0,79,81,82,60,50,95.55,145,-3.00,14.00,-1005.00
2024-06-06 23:45:56.258850,0,0,70,0,0,0,79,81,83,60,50,94.99,145,5.00,-4.00,-982.00
2024-06-06 23:45:56.375808,0,0,70,0,0,0,79,81,84,60,50,95.07,145,12.00,-8.00,-990.00
2024-06-06 23:45:56.462540,0,0,70,0,0,0,79,81,85,60,50,94.92,145,9.00,3.00,-996.00
2024-06-06 23:45:56.581143,0,0,70,0,0,0,79,81,85,60,50,95.12,145,6.00,-9.00,-984.00
2024-06-06 23:45:56.666537,0,0,70,0,0,0,79,81,86,60,50,95.40,146,17.00,-13.00,-981.00
2024-06-06 23:45:56.768511,0,0,70,0,0,0,79,81,86,60,50,95.05,146,3.00,5.00,-1011.00
2024-06-06 23:45:56.888127,0,0,70,0,0,0,79,81,86,60,50,95.09,146,-3.00,-8.00,-976.00
2024-06-06 23:45:56.972527,0,0,70,0,0,0,79,81,86,60,50,94.87,146,8.00,-14.00,-1000.00
2024-06-06 23:45:57.074782,0,0,70,0,0,0,79,81,86,60,50,95.42,146,11.00,-13.00,-980.00
2024-06-06 23:45:57.195001,0,0,70,0,0,0,79,81,86,60,50,95.24,146,-3.00,3.00,-993.00
2024-06-06 23:45:57.278524,0,0,70,0,0,0,79,81,86,60,50,95.31,146,11.00,-10.00,-999.00
2024-06-06 23:45:57.329438,0,0,70,0,0,0,79,81,86,60,50,94.96,146,7.00,-11.00,-986.00
2024-06-06 23:45:57.502104,0,0,70,0,0,0,79,81,85,60,50,95.35,146,10.00,-4.00,-994.00
2024-06-06 23:45:57.533799,0,0,70,0,0,0,79,81,85,60,50,94.98,146,11.00,-1.00,-1005.00
2024-06-06 23:45:57.707925,0,0,70,0,0,0,79,81,85,60,50,95.18,147,18.00,-14.00,-983.00
2024-06-06 23:45:57.741671,0,0,70,0,0,0,79,81,84,60,50,95.04,147,16.00,-8.00,-992.00
2024-06-06 23:45:57.915091,0,0,70,0,0,0,79,81,84,60,50,95.01,147,-11.00,0.00,-990.00
2024-06-06 23:45:57.946724,0,0,70,0,0,0,79,81,83,60,50,95.42,147,-3.00,-8.00,-988.00
2024-06-06 23:45:58.043461,0,0,70,0,0,0,79,81,83,60,50,95.14,147,2.00,-3.00,-996.00
2024-06-06 23:45:58.218873,0,0,70,0,0,0,79,81,83,60,50,94.94,147,5.00,-3.00,-1011.00
2024-06-06 23:45:58.247279,0,0,70,0,0,0,79,81,82,60,50,95.02,147,0.00,-3.00,-1009.00
2024-06-06 23:45:58.423701,0,0,70,0,0,0,79,81,82,60,50,95.05,147,20.00,-16.00,-996.00
2024-06-06 23:45:58.451325,0,0,70,0,0,0,79,81,82,60,50,95.04,147,13.00,-14.00,-989.00
2024-06-06 23:45:58.628496,0,0,70,0,0,0,79,81,81,60,50,94.85,147,14.00,-9.00,-993.00
2024-06-06 23:45:58.655170,0,0,70,0,0,0,79,81,81,60,50,94.87,148,1.00,-7.00,-983.00
2024-06-06 23:45:58.757576,0,0,70,0,0,0,79,81,81,60,50,95.15,148,3.00,-1.00,-1000.00
2024-06-06 23:45:58.935733,0,0,70,0,0,0,79,80,81,60,50,95.07,148,12.00,-6.00,-1003.00
2024-06-06 23:45:58.961343,0,0,70,0,0,0,79,80,81,60,50,95.18,148,13.00,-12.00,-998.00
2024-06-06 23:45:59.063274,0,0,70,0,0,0,79,80,81,60,50,94.99,148,14.00,-2.00,-1005.00
2024-06-06 23:45:59.243148,0,0,70,0,0,0,79,80,80,60,50,95.02,148,7.00,-6.00,-995.00
2024-06-06 23:45:59.267428,0,0,70,0,0,0,79,80,80,60,50,94.92,148,-15.00,8.00,-989.00
2024-06-06 23:45:59.447690,0,0,70,0,0,0,79,80,80,60,50,95.33,148,4.00,-16.00,-985.00
2024-06-06 23:45:59.471287,0,0,70,0,0,0,79,80,80,60,50,94.96,148,9.00,-13.00,-1002.00
2024-06-06 23:45:59.575029,0,0,70,0,0,0,79,80,80,60,50,95.30,148,10.00,-8.00,-997.00
2024-06-06 23:45:59.675432,0,0,70,0,0,0,79,80,81,60,50,95.27,149,5.00,-10.00,-978.00
2024-06-06 23:45:59.779968,0,0,70,0,0,0,79,80,81,60,50,95.01,149,18.00,-18.00,-998.00
2024-06-06 23:45:59.880449,0,0,70,0,0,0,79,80,81,60,50,95.32,149,24.00,-7.00,-1012.00
2024-06-06 23:45:59.981117,0,0,70,0,0,0,79,80,81,60,50,94.97,149,11.00,-1.00,-997.00
2024-06-06 23:46:00.083377,0,0,70,0,0,0,79,80,81,60,50,95.11,149,10.00,1.00,-1006.00
2024-06-06 23:46:00.268980,0,0,70,0,0,0,79,80,81,60,50,94.89,149,5.00,-3.00,-988.00
2024-06-06 23:46:00.287310,0,0,70,0,0,0,79,80,81,60,50,95.06,149,-3.00,-1.00,-990.00
2024-06-06 23:46:00.471758,0,0,70,0,0,0,79,80,81,60,50,95.18,149,12.00,-17.00,-996.00
2024-06-06 23:46:00.491822,0,0,70,0,0,0,79,80,81,60,50,95.08,149,0.00,-6.00,-1001.00
2024-06-06 23:46:00.676565,0,0,70,0,0,0,79,80,81,60,50,95.01,149,0.00,-8.00,-983.00
2024-06-06 23:46:00.695324,0,0,70,0,0,0,79,80,81,60,50,95.26,150,11.00,-12.00,-978.00
2024-06-06 23:46:00.881346,0,0,70,0,0,0,79,80,81,60,50,95.34,150,11.00,-2.00,-1007.00
2024-06-06 23:46:00.899117,0,0,70,0,0,0,78,80,81,60,50,95.22,150,1.00,4.00,-1009.00
2024-06-06 23:46:01.086053,0,0,70,0,0,0,78,80,81,60,50,95.26,150,17.00,-1.00,-1011.00
2024-06-06 23:46:01.103104,0,0,70,0,0,0,78,80,81,60,50,94.93,150,8.00,6.00,-1001.00
2024-06-06 23:46:01.291104,0,0,70,0,0,0,78,80,81,60,50,95.17,150,22.00,-18.00,-991.00
2024-06-06 23:46:01.307096,0,0,70,0,0,0,78,80,81,60,50,95.05,150,0.00,3.00,-1003.00
2024-06-06 23:46:01.495693,0,0,70,0,0,0,78,80,81,60,50,95.28,150,-2.00,-2.00,-987.00
2024-06-06 23:46:01.495932,0,0,70,0,0,0,78,80,81,60,50,95.05,150,-5.00,0.00,-996.00
2024-06-06 23:46:01.562216,0,0,70,0,0,0,78,80,81,60,50,95.19,150,13.00,0.00,-1010.00
2024-06-06 23:46:01.700437,0,0,70,0,0,0,78,80,81,60,50,95.02,151,9.00,-12.00,-988.00
2024-06-06 23:46:01.766137,0,0,70,0,0,0,78,80,81,60,50,94.84,151,15.00,-1.00,-1004.00
2024-06-06 23:46:01.905237,0,0,70,0,0,0,78,81,81,60,50,95.29,151,15.00,-16.00,-981.00
2024-06-06 23:46:01.970010,0,0,70,0,0,0,78,81,81,60,50,95.09,151,8.00,-10.00,-983.00
2024-06-06 23:46:02.071875,0,0,70,0,0,0,78,81,81,60,50,95.01,151,17.00,-14.00,-1011.00
2024-06-06 23:46:02.213883,0,0,70,0,0,0,78,81,81,60,50,95.26,151,9.00,-4.00,-1065.00
2024-06-06 23:46:02.275932,0,0,70,0,0,0,78,81,81,60,50,95.05,151,22.00,-1.00,-1117.00
2024-06-06 23:46:02.417080,0,0,70,0,0,-1,78,81,83,60,50,95.16,151,15.00,-16.00,-1091.00
2024-06-06 23:46:02.479906,0,0,70,0,0,-2,78,81,85,60,50,94.87,151,16.00,1.00,-1099.00
2024-06-06 23:46:02.622322,0,0,70,0,0,-3,78,81,88,70,50,95.10,151,-3.00,-2.00,-1056.00
2024-06-06 23:46:02.683864,0,0,70,0,0,-4,78,81,92,70,50,95.54,152,9.00,-2.00,-1051.00
2024-06-06 23:46:02.785903,0,0,70,0,0,-4,78,81,97,70,50,95.36,152,17.00,-10.00,-1055.00
2024-06-06 23:46:02.887858,0,0,70,0,0,-5,78,80,105,80,50,95.52,152,-1.00,-9.00,-1018.00
2024-06-06 23:46:03.031453,0,0,70,0,0,-5,78,80,110,80,50,95.18,152,9.00,-8.00,-1021.00
2024-06-06 23:46:03.091957,0,0,70,0,0,-5,78,80,116,90,50,95.63,152,18.00,-17.00,-995.00
2024-06-06 23:46:03.196636,0,0,70,0,0,-5,78,80,121,100,50,95.71,152,24.00,-12.00,-990.00
2024-06-06 23:46:03.297912,0,0,70,0,0,-5,78,80,127,100,50,95.27,152,2.00,1.00,-972.00
2024-06-06 23:46:03.397858,0,0,70,0,0,-5,78,80,132,110,50,95.79,152,15.00,-14.00,-968.00
2024-06-06 23:46:03.544973,0,0,70,0,0,-5,78,80,137,110,50,95.33,152,9.00,-7.00,-963.00
2024-06-06 23:46:03.601897,0,0,70,0,0,-4,78,80,142,120,50,95.70,152,8.00,8.00,-970.00
2024-06-06 23:46:03.748579,0,0,70,0,0,-4,78,80,146,120,50,96.00,153,2.00,-3.00,-960.00
2024-06-06 23:46:03.805811,0,0,70,0,0,-4,78,80,151,130,50,95.81,153,-1.00,7.00,-976.00
2024-06-06 23:46:03.953876,0,0,70,0,0,-3,78,80,154,130,50,95.70,153,-4.00,-1.00,-968.00
2024-06-06 23:46:04.011382,0,0,70,0,0,-3,78,80,158,130,50,96.02,153,0.00,-6.00,-957.00
2024-06-06 23:46:04.111804,0,0,70,0,0,-3,78,80,161,140,50,95.87,153,5.00,-3.00,-972.00
2024-06-06 23:46:04.232789,0,0,70,0,0,-2,78,80,165,140,50,95.83,153,8.00,-12.00,-965.00
2024-06-06 23:46:04.315716,0,0,70,0,0,-2,78,80,167,140,50,95.83,153,7.00,-9.00,-967.00
2024-06-06 23:46:04.465954,0,0,70,0,0,-2,78,80,169,150,50,95.82,153,-1.00,0.00,-972.00
2024-06-06 23:46:04.520023,0,0,70,0,0,-2,78,80,172,150,50,95.82,153,2.00,-2.00,-987.00
2024-06-06 23:46:04.670730,0,0,70,0,0,-1,78,80,174,150,50,96.15,153,-8.00,-2.00,-982.00
2024-06-06 23:46:04.723696,0,0,70,0,0,-1,78,80,175,150,50,96.04,154,2.00,-15.00,-976.00
2024-06-06 23:46:04.875042,0,0,70,0,0,-1,78,80,176,150,50,96.13,154,11.00,-21.00,-968.00
2024-06-06 23:46:04.928030,0,0,70,0,0,-1,77,80,177,150,50,96.19,154,5.00,-14.00,-961.00
2024-06-06 23:46:05.095547,0,0,70,0,0,0,77,80,179,160,50,96.12,154,7.00,-14.00,-965.00
2024-06-06 23:46:05.132835,0,0,70,0,0,0,77,80,179,160,50,96.01,154,7.00,-2.00,-983.00
2024-06-06 23:46:05.285242,0,0,70,0,0,0,77,80,179,160,50,96.16,154,13.00,-11.00,-965.00
2024-06-06 23:46:05.285434,0,0,70,0,0,0,77,80,179,160,50,95.87,154,7.00,1.00,-997.00
2024-06-06 23:46:05.386963,0,0,70,0,0,0,77,80,179,160,50,96.04,154,7.00,-8.00,-999.00
2024-06-06 23:46:05.490936,0,0,70,0,0,0,77,80,181,160,50,95.92,154,12.00,-8.00,-992.00
2024-06-06 23:46:05.591597,0,0,70,0,0,0,77,80,180,160,50,96.04,154,3.00,-1.00,-997.00
2024-06-06 23:46:05.694171,0,0,70,0,0,0,77,80,179,160,50,96.21,155,6.00,-6.00,-1004.00
2024-06-06 23:46:05.795986,0,0,70,0,0,0,77,80,179,160,50,95.70,155,8.00,-10.00,-1006.00
2024-06-06 23:46:05.901133,0,0,70,0,0,0,77,80,179,160,50,96.07,155,16.00,-10.00,-1001.00
2024-06-06 23:46:05.998822,0,0,70,0,0,0,77,80,179,160,50,96.19,155,0.00,1.00,-1003.00
2024-06-06 23:46:06.100739,0,0,70,0,0,0,77,80,180,160,50,95.76,155,14.00,-7.00,-999.00
2024-06-06 23:46:06.207479,0,0,70,0,0,0,77,80,180,160,50,95.88,155,2.00,-9.00,-986.00
2024-06-06 23:46:06.304776,0,0,70,0,0,0,77,80,180,160,50,95.86,155,20.00,-7.00,-1000.00
2024-06-06 23:46:06.410511,0,0,70,0,0,0,77,80,179,160,50,95.72,155,0.00,1.00,-1007.00
2024-06-06 23:46:06.508706,0,0,70,0,0,0,77,80,180,160,50,95.87,155,16.00,-6.00,-1012.00
2024-06-06 23:46:06.617217,0,0,70,0,0,0,77,80,180,160,50,96.00,155,8.00,-13.00,-1003.00
2024-06-06 23:46:06.712719,0,0,70,0,0,0,77,80,180,160,50,95.80,156,9.00,-7.00,-1002.00
2024-06-06 23:46:06.820976,0,0,70,0,0,0,77,80,180,160,50,96.12,156,16.00,-12.00,-1001.00
2024-06-06 23:46:06.916673,0,0,70,0,0,0,78,79,180,160,50,95.96,156,2.00,-3.00,-997.00
2024-06-06 23:46:07.111191,0,0,70,0,0,0,78,79,179,160,50,96.05,156,4.00,-13.00,-996.00
2024-06-06 23:46:07.121646,0,0,70,0,0,0,78,79,180,160,50,95.33,156,9.00,-4.00,-962.00
2024-06-06 23:46:07.230577,0,0,70,0,0,0,78,79,179,160,50,96.05,156,5.00,-2.00,-945.00
2024-06-06 23:46:07.345824,0,0,70,0,0,1,78,79,178,160,50,96.06,156,7.00,0.00,-959.00
2024-06-06 23:46:07.432332,0,0,70,0,0,1,78,79,176,150,50,96.12,156,13.00,-4.00,-952.00
2024-06-06 23:46:07.532122,0,0,70,0,0,2,78,79,174,150,50,95.70,156,11.00,-7.00,-969.00
2024-06-06 23:46:07.712765,0,0,70,0,0,2,78,79,172,150,50,96.14,157,8.00,-2.00,-965.00
2024-06-06 23:46:07.732486,0,0,70,0,0,2,78,79,170,150,50,95.85,157,5.00,-9.00,-985.00
2024-06-06 23:46:07.837132,0,0,70,0,0,2,78,79,166,140,50,96.03,157,7.00,-1.00,-994.00
2024-06-06 23:46:08.039895,0,0,70,0,0,2,77,80,164,140,50,95.73,157,4.00,-14.00,-978.00
2024-06-06 23:46:08.039954,0,0,70,0,0,2,77,80,161,140,50,95.63,157,1.00,-9.00,-984.00
2024-06-06 23:46:08.140464,0,0,70,0,0,2,77,80,158,140,50,95.96,157,-8.00,-1.00,-998.00
2024-06-06 23:46:08.265878,0,0,70,0,0,2,77,80,156,130,50,95.75,157,2.00,0.00,-998.00
2024-06-06 23:46:08.409254,0,0,70,0,0,2,77,80,153,130,50,95.66,157,-2.00,7.00,-1004.00
2024-06-06 23:46:08.446436,0,0,70,0,0,2,77,80,150,130,50,95.76,157,0.00,-2.00,-1012.00
2024-06-06 23:46:08.572051,0,0,70,0,0,2,77,80,149,130,50,95.81,157,5.00,-11.00,-1018.00
2024-06-06 23:46:08.715103,0,0,70,0,0,2,77,80,146,120,50,95.39,158,4.00,-12.00,-995.00
2024-06-06 23:46:08.752378,0,0,70,0,0,1,77,80,144,120,50,95.76,158,4.00,0.00,-1030.00
2024-06-06 23:46:08.878926,0,0,70,0,0,1,77,80,142,120,50,95.51,158,12.00,-14.00,-1025.00
2024-06-06 23:46:09.036105,0,0,70,0,0,1,77,80,140,120,50,95.71,158,-1.00,-12.00,-999.00
2024-06-06 23:46:09.058326,0,0,70,0,0,1,77,80,139,120,50,95.59,158,17.00,-3.00,-1035.00
2024-06-06 23:46:09.171722,0,0,70,0,0,1,77,80,137,120,50,95.49,158,2.00,-5.00,-1024.00
2024-06-06 23:46:09.262499,0,0,70,0,0,1,77,80,137,110,50,95.58,158,-4.00,5.00,-1011.00
2024-06-06 23:46:09.380192,0,0,70,0,0,0,77,80,136,110,50,95.51,158,10.00,-4.00,-1019.00
2024-06-06 23:46:09.415293,0,0,70,0,0,0,77,80,135,110,50,95.64,158,-3.00,-2.00,-1006.00
2024-06-06 23:46:09.517918,0,0,70,0,0,0,77,80,134,110,50,95.38,158,21.00,-6.00,-1032.00
2024-06-06 23:46:09.687397,0,0,70,0,0,0,77,80,134,110,50,95.59,159,19.00,-17.00,-1003.00
2024-06-06 23:46:09.721326,0,0,70,0,0,0,77,80,133,110,50,95.73,159,-5.00,1.00,-1010.00
2024-06-06 23:46:09.892032,0,0,70,0,0,0,77,80,133,110,50,95.58,159,12.00,-8.00,-1014.00
2024-06-06 23:46:09.925421,0,0,70,0,0,0,77,80,132,110,50,95.66,159,0.00,-6.00,-1002.00
2024-06-06 23:46:10.097002,0,0,70,0,0,0,77,80,133,110,50,95.60,159,-6.00,2.00,-1007.00
2024-06-06 23:46:10.130423,0,0,70,0,0,0,77,80,133,110,50,95.57,159,0.00,-8.00,-1010.00
2024-06-06 23:46:10.302058,0,0,70,0,0,0,77,80,133,110,50,95.41,159,0.00,0.00,-995.00
2024-06-06 23:46:10.335094,0,0,70,0,0,0,77,80,134,110,50,95.63,159,18.00,-3.00,-1008.00
2024-06-06 23:46:10.506830,0,0,70,0,0,0,77,80,133,110,50,95.45,159,3.00,-8.00,-973.00
2024-06-06 23:46:10.538357,0,0,70,0,0,0,77,80,133,110,50,95.75,159,15.00,1.00,-1013.00
2024-06-06 23:46:10.711410,0,0,70,0,0,0,77,80,133,110,50,95.48,160,0.00,1.00,-1001.00
2024-06-06 23:46:10.742332,0,0,70,0,0,0,77,80,133,110,50,95.28,160,19.00,-16.00,-992.00
2024-06-06 23:46:10.844369,0,0,70,0,0,0,77,80,133,110,50,95.79,160,3.00,-10.00,-978.00
2024-06-06 23:46:10.946289,0,0,70,0,0,0,77,79,133,110,50,95.57,160,9.00,0.00,-1002.00
2024-06-06 23:46:11.070864,0,0,70,0,0,0,77,79,133,110,50,95.37,160,13.00,-12.00,-997.00
2024-06-06 23:46:11.150324,0,0,70,0,0,0,77,79,133,110,50,95.73,160,19.00,3.00,-1013.00
2024-06-06 23:46:11.326039,0,0,70,0,0,0,77,79,133,110,50,95.50,160,-3.00,-2.00,-986.00
2024-06-06 23:46:11.354139,0,0,70,0,0,0,77,79,133,110,50,95.48,160,16.00,-7.00,-1002.00
2024-06-06 23:46:11.469972,0,0,70,0,0,0,77,79,133,110,50,95.37,160,20.00,-10.00,-991.00
2024-06-06 23:46:11.558059,0,0,70,0,0,0,77,79,133,110,50,95.58,160,18.00,-4.00,-1010.00
2024-06-06 23:46:11.697968,-2,0,70,0,0,0,77,79,134,110,50,95.70,161,4.00,-10.00,-1009.00
2024-06-06 23:46:11.762513,-7,0,70,0,0,0,77,79,134,110,50,95.31,161,8.00,0.00,-991.00
2024-06-06 23:46:11.939911,-8,0,70,0,2,0,77,79,134,110,50,95.32,161,-4.00,-4.00,-995.00
2024-06-06 23:46:11.966790,-7,0,70,1,3,0,77,80,135,110,50,95.52,161,-6.00,-5.00,-1027.00
2024-06-06 23:46:12.146168,-6,0,70,1,5,0,77,80,134,110,50,95.51,161,-33.00,-6.00,-996.00
2024-06-06 23:46:12.170094,-6,0,70,2,5,0,77,80,134,110,50,95.49,161,-18.00,-11.00,-1006.00
2024-06-06 23:46:12.349492,-5,0,70,2,6,0,77,80,133,110,50,95.66,161,-24.00,-3.00,-1022.00
2024-06-06 23:46:12.374023,-5,0,70,2,6,0,77,80,133,110,50,95.56,161,-37.00,-13.00,-987.00
2024-06-06 23:46:12.554272,-3,0,70,2,7,0,77,80,134,110,50,95.34,161,-31.00,-19.00,-985.00
2024-06-06 23:46:12.577965,0,0,70,2,7,0,77,80,133,110,50,95.52,161,-31.00,-12.00,-1013.00
2024-06-06 23:46:12.629045,2,0,70,2,6,0,77,80,134,110,50,95.62,162,-33.00,-7.00,-1012.00
2024-06-06 23:46:12.759125,4,0,70,1,5,0,77,80,133,110,50,95.32,162,-54.00,-11.00,-1005.00
2024-06-06 23:46:12.833058,4,0,70,1,4,0,77,80,133,110,50,95.63,162,-48.00,0.00,-1002.00
2024-06-06 23:46:12.985961,2,0,70,1,3,0,76,80,134,110,50,95.19,162,-27.00,-19.00,-976.00
2024-06-06 23:46:13.087998,1,0,70,1,3,0,76,80,133,110,50,95.40,162,-15.00,-14.00,-994.00
2024-06-06 23:46:13.271487,0,0,70,1,3,0,76,80,133,110,50,95.53,162,-25.00,-11.00,-990.00
2024-06-06 23:46:13.271537,0,0,70,1,3,0,76,80,133,110,50,95.55,162,-34.00,-11.00,-1001.00
2024-06-06 23:46:13.345227,0,0,70,1,2,0,76,80,134,110,50,95.64,162,-26.00,-7.00,-993.00
2024-06-06 23:46:13.445072,0,1,70,0,2,0,76,80,134,110,50,95.32,162,-25.00,-3.00,-996.00
2024-06-06 23:46:13.549758,1,2,70,0,2,0,76,80,134,110,50,95.51,162,-11.00,-16.00,-987.00
2024-06-06 23:46:13.648944,1,1,70,0,2,0,76,80,133,110,50,95.51,163,-4.00,-24.00,-985.00
2024-06-06 23:46:13.783363,4,0,70,0,2,0,76,80,133,110,50,95.46,163,-15.00,-20.00,-989.00
2024-06-06 23:46:13.852914,4,0,70,0,1,0,76,80,133,110,50,95.78,163,-2.00,-16.00,-1021.00
2024-06-06 23:46:13.988363,2,0,70,0,0,0,77,80,133,110,50,95.36,163,-1.00,-17.00,-991.00
2024-06-06 23:46:14.057054,1,0,70,0,0,0,77,80,134,110,50,95.59,163,-8.00,-5.00,-991.00
2024-06-06 23:46:14.192810,1,0,70,0,0,0,77,80,133,110,50,95.68,163,16.00,-12.00,-1007.00
2024-06-06 23:46:14.260964,1,0,70,0,0,0,77,80,134,110,50,95.66,163,0.00,-4.00,-993.00
2024-06-06 23:46:14.397732,1,0,70,0,0,0,77,80,134,110,50,95.65,163,7.00,-4.00,-999.00
2024-06-06 23:46:14.464864,1,0,70,0,0,0,77,80,133,110,50,95.67,163,13.00,-15.00,-999.00
2024-06-06 23:46:14.602313,0,0,70,0,0,0,77,80,134,110,50,95.53,163,4.00,5.00,-1007.00
2024-06-06 23:46:14.668964,0,0,70,0,0,0,77,80,134,110,50,95.62,164,13.00,-9.00,-995.00
2024-06-06 23:46:14.770949,0,0,70,0,0,0,77,80,133,110,50,95.47,164,0.00,-6.00,-982.00
2024-06-06 23:46:14.909982,0,0,70,0,0,0,77,80,134,110,50,95.52,164,17.00,6.00,-1015.00
2024-06-06 23:46:14.974872,0,0,70,0,0,0,77,79,134,110,50,95.22,164,0.00,-10.00,-1000.00
2024-06-06 23:46:15.117875,0,0,70,0,0,0,77,79,133,110,50,95.66,164,14.00,-11.00,-991.00
2024-06-06 23:46:15.178916,0,0,70,0,0,0,77,79,134,110,50,95.30,164,7.00,-3.00,-1002.00
2024-06-06 23:46:15.319627,0,0,70,0,0,0,77,79,133,110,50,95.42,164,-2.00,-6.00,-998.00
2024-06-06 23:46:15.382835,0,0,70,0,0,0,77,79,134,110,50,95.44,164,18.00,-10.00,-995.00
2024-06-06 23:46:15.524201,0,0,70,0,0,0,77,79,134,110,50,95.59,164,1.00,-11.00,-993.00
2024-06-06 23:46:15.588712,0,0,70,0,0,0,77,79,135,110,50,95.30,164,1.00,-4.00,-990.00
2024-06-06 23:46:15.689681,0,0,70,0,0,0,77,79,134,110,50,95.65,165,11.00,-4.00,-1003.00
2024-06-06 23:46:15.831784,0,0,70,0,0,0,77,79,134,110,50,95.53,165,9.00,-8.00,-1000.00
2024-06-06 23:46:15.894364,0,0,70,0,0,0,77,79,134,110,50,95.80,165,1.00,6.00,-1012.00
2024-06-06 23:46:15.995157,0,0,70,0,0,0,76,79,134,110,50,95.57,165,19.00,-11.00,-999.00
2024-06-06 23:46:16.097693,0,0,70,0,0,0,76,79,134,110,50,95.66,165,0.00,-13.00,-988.00
2024-06-06 23:46:16.241007,1,0,70,0,0,0,76,79,135,110,50,95.69,165,4.00,-5.00,-1002.00
2024-06-06 23:46:16.300669,7,0,70,0,0,0,76,79,134,110,50,95.27,165,0.00,0.00,-1013.00
2024-06-06 23:46:16.447922,8,0,70,0,-1,0,76,79,136,110,50,95.53,165,25.00,-15.00,-989.00
2024-06-06 23:46:16.504645,8,0,70,-1,-3,0,76,79,136,110,50,95.51,165,30.00,-6.00,-1016.00
2024-06-06 23:46:16.650641,8,0,70,-1,-4,0,76,79,135,110,50,95.67,165,36.00,-5.00,-1003.00
2024-06-06 23:46:16.709537,7,0,70,-2,-5,0,76,79,136,110,50,95.32,166,39.00,4.00,-1000.00
2024-06-06 23:46:16.855243,7,0,70,-2,-6,0,76,79,135,110,50,95.45,166,61.00,-6.00,-991.00
2024-06-06 23:46:16.912655,6,0,70,-2,-6,0,76,79,134,110,50,95.25,166,60.00,-14.00,-1000.00
2024-06-06 23:46:17.059593,5,0,70,-2,-7,0,77,79,135,110,50,95.60,166,61.00,-4.00,-1006.00
2024-06-06 23:46:17.116609,2,0,70,-2,-7,0,77,79,134,110,50,95.64,166,82.00,-29.00,-994.00
2024-06-06 23:46:17.167598,0,0,70,-2,-6,0,77,79,135,110,50,95.45,166,62.00,1.00,-1017.00
2024-06-06 23:46:17.367566,-2,0,70,-2,-5,0,77,79,134,110,50,95.40,166,63.00,-18.00,-998.00
2024-06-06 23:46:17.371570,-3,0,70,-1,-4,0,77,79,135,110,50,95.44,166,43.00,-1.00,-984.00
2024-06-06 23:46:17.576034,-1,0,70,-1,-3,0,77,79,135,110,50,95.51,166,42.00,-12.00,-1011.00
2024-06-06 23:46:17.581729,0,0,70,-1,-3,0,77,79,134,110,50,95.35,166,38.00,-5.00,-996.00
2024-06-06 23:46:17.677802,0,0,70,-1,-2,0,77,79,134,110,50,95.09,167,33.00,-3.00,-998.00
2024-06-06 23:46:17.779903,0,0,70,-1,-2,0,77,79,133,110,50,95.72,167,27.00,12.00,-1010.00
2024-06-06 23:46:17.881420,0,0,70,0,-2,0,77,79,133,110,50,95.76,167,23.00,0.00,-1003.00
2024-06-06 23:46:18.086475,0,0,70,-1,-2,0,77,79,133,110,50,95.50,167,22.00,0.00,-982.00
2024-06-06 23:46:18.086877,0,-1,70,0,-2,0,77,79,134,110,50,95.65,167,26.00,4.00,-1020.00
2024-06-06 23:46:18.187697,0,-1,70,0,-2,0,77,79,133,110,50,95.49,167,23.00,12.00,-1011.00
2024-06-06 23:46:18.390771,0,0,70,0,-2,0,77,79,134,110,50,95.73,167,18.00,4.00,-1018.00
2024-06-06 23:46:18.391596,-1,0,70,0,-2,0,77,79,134,110,50,95.54,167,27.00,1.00,-1002.00
2024-06-06 23:46:18.493592,-3,1,70,0,-1,0,77,79,134,110,50,95.35,167,17.00,5.00,-993.00
2024-06-06 23:46:18.597670,-2,0,70,0,0,0,77,79,134,110,50,95.69,167,12.00,0.00,-999.00
2024-06-06 23:46:18.698133,0,0,70,0,0,0,77,79,134,110,50,95.45,168,23.00,-12.00,-997.00
2024-06-06 23:46:18.802059,0,0,70,0,0,0,77,79,134,110,50,95.26,168,9.00,-1.00,-997.00
2024-06-06 23:46:18.902728,0,0,70,0,0,0,77,79,134,110,50,95.59,168,6.00,-8.00,-996.00
2024-06-06 23:46:19.005728,0,0,70,0,0,0,76,79,134,110,50,95.59,168,23.00,-16.00,-1005.00
2024-06-06 23:46:19.107409,0,0,70,0,0,0,76,79,134,110,50,95.44,168,14.00,-1.00,-1004.00
2024-06-06 23:46:19.207731,0,0,70,0,0,0,76,79,134,110,50,95.34,168,1.00,2.00,-1007.00
2024-06-06 23:46:19.309722,0,0,70,0,0,0,76,79,134,110,50,95.20,168,12.00,-8.00,-992.00
2024-06-06 23:46:19.414796,0,0,70,0,0,0,76,79,135,110,50,95.34,168,7.00,0.00,-1000.00
2024-06-06 23:46:19.513567,0,0,70,0,0,0,76,79,135,110,50,95.59,168,12.00,-8.00,-1012.00
2024-06-06 23:46:19.619644,0,0,70,0,0,0,76,79,134,110,50,95.49,168,3.00,0.00,-995.00
2024-06-06 23:46:19.717504,0,0,70,0,0,0,76,79,134,110,50,95.45,169,11.00,-3.00,-990.00
2024-06-06 23:46:19.824731,0,0,70,0,0,0,76,79,135,110,50,95.33,169,2.00,2.00,-1002.00
2024-06-06 23:46:19.921449,1,0,70,0,0,0,76,79,134,110,50,95.81,169,0.00,1.00,-999.00
2024-06-06 23:46:20.029207,1,0,70,0,0,0,77,79,135,110,50,95.64,169,11.00,-2.00,-1004.00
2024-06-06 23:46:20.125414,1,0,70,0,0,0,77,79,134,110,50,95.80,169,3.00,3.00,-994.00
2024-06-06 23:46:20.233927,1,0,70,0,0,0,77,79,134,110,50,95.72,169,5.00,-10.00,-1006.00
2024-06-06 23:46:20.329545,1,0,70,0,0,0,77,79,134,110,50,95.22,169,-13.00,3.00,-982.00
2024-06-06 23:46:20.438803,1,0,70,0,0,0,77,79,134,110,50,95.55,169,6.00,0.00,-1009.00
2024-06-06 23:46:20.533459,1,0,70,0,0,0,77,79,134,110,50,95.76,169,0.00,1.00,-996.00
2024-06-06 23:46:20.635438,1,0,70,0,0,0,77,79,134,110,50,95.27,169,-3.00,-7.00,-994.00
2024-06-06 23:46:20.686267,1,0,70,0,0,0,77,79,134,110,50,95.48,170,5.00,1.00,-1008.00
2024-06-06 23:46:20.788242,0,0,70,0,0,0,77,79,134,110,50,95.70,170,15.00,11.00,-992.00
2024-06-06 23:46:20.950670,0,-7,70,0,0,0,77,79,136,110,50,95.30,170,12.00,-18.00,-1028.00
2024-06-06 23:46:21.043216,0,-4,70,3,-1,0,76,79,134,110,50,95.80,170,3.00,7.00,-1010.00
2024-06-06 23:46:21.094378,0,-2,70,3,-1,0,76,79,134,110,50,95.35,170,14.00,20.00,-1019.00
2024-06-06 23:46:21.257918,1,0,70,3,-1,0,76,79,133,110,50,95.63,170,-2.00,17.00,-999.00
2024-06-06 23:46:21.298490,0,1,70,3,-1,0,76,79,133,110,50,95.49,170,6.00,17.00,-994.00
2024-06-06 23:46:21.463316,0,0,70,2,-1,0,76,79,133,110,50,95.41,170,-1.00,23.00,-999.00
2024-06-06 23:46:21.502460,0,0,70,2,0,0,76,79,132,110,50,95.81,170,10.00,7.00,-1005.00
2024-06-06 23:46:21.667598,0,0,70,2,0,0,76,79,133,110,50,95.64,171,6.00,9.00,-1009.00
2024-06-06 23:46:21.706111,0,0,70,2,0,0,76,79,133,110,50,95.46,171,8.00,2.00,-993.00
2024-06-06 23:46:21.874266,0,0,70,2,-1,0,76,79,133,110,50,95.28,171,-2.00,7.00,-993.00
2024-06-06 23:46:21.910056,0,0,70,2,-1,0,76,79,132,110,50,95.37,171,9.00,1.00,-995.00
2024-06-06 23:46:22.179389,0,0,70,2,-1,0,77,79,132,110,50,95.55,171,16.00,8.00,-1012.00
2024-06-06 23:46:22.179861,0,0,70,2,-1,0,77,79,133,110,50,95.23,171,8.00,2.00,-1004.00
2024-06-06 23:46:22.262669,0,0,70,2,-1,0,77,79,132,110,50,95.52,171,7.00,13.00,-1013.00
2024-06-06 23:46:22.399295,-1,1,70,2,0,0,77,79,132,110,50,95.39,171,12.00,0.00,-1001.00
2024-06-06 23:46:22.448715,0,1,70,2,0,0,77,79,133,110,50,95.65,171,2.00,4.00,-1010.00
2024-06-06 23:46:22.521996,1,5,70,1,0,0,77,79,133,110,50,95.78,171,5.00,12.00,-991.00
2024-06-06 23:46:22.824027,1,3,70,0,0,0,77,79,132,110,50,95.65,172,0.00,0.00,-1009.00
2024-06-06 23:46:22.824464,1,1,70,0,0,0,77,79,132,110,50,95.36,172,0.00,19.00,-1002.00
2024-06-06 23:46:22.828163,0,0,70,0,0,0,77,79,132,110,50,95.65,172,8.00,-5.00,-1007.00
2024-06-06 23:46:23.009637,0,0,70,0,0,0,77,79,133,110,50,95.59,172,7.00,-7.00,-1007.00
2024-06-06 23:46:23.032102,0,0,70,0,0,0,78,80,134,110,50,95.47,172,7.00,-19.00,-995.00
2024-06-06 23:46:23.153148,0,1,70,0,0,0,78,80,134,110,50,95.73,172,4.00,-7.00,-995.00
2024-06-06 23:46:23.316666,0,1,70,0,0,0,78,80,133,110,50,95.85,172,8.00,-11.00,-988.00
2024-06-06 23:46:23.339836,0,1,70,0,0,0,78,80,133,110,50,95.05,172,4.00,-11.00,-1000.00
2024-06-06 23:46:23.460154,0,0,70,0,0,0,78,80,133,110,50,95.40,172,8.00,-23.00,-982.00
2024-06-06 23:46:23.624017,0,0,70,0,0,0,78,80,134,110,50,95.46,172,14.00,-13.00,-987.00
2024-06-06 23:46:23.645434,0,0,70,0,0,0,78,80,134,110,50,95.48,173,4.00,-10.00,-1009.00
2024-06-06 23:46:23.767319,0,0,70,0,0,0,78,80,134,110,50,95.46,173,-2.00,-14.00,-987.00
2024-06-06 23:46:23.931107,0,0,70,0,0,0,78,80,133,110,50,95.27,173,13.00,-13.00,-997.00
2024-06-06 23:46:23.951045,0,0,70,0,0,0,78,80,134,110,50,95.65,173,-1.00,-3.00,-1003.00
2024-06-06 23:46:24.075377,0,0,70,0,0,0,76,79,133,110,50,95.34,173,9.00,-16.00,-995.00
2024-06-06 23:46:24.238547,0,0,70,0,0,0,76,79,133,110,50,95.64,173,14.00,-11.00,-1007.00
2024-06-06 23:46:24.257258,0,0,70,0,0,0,76,79,133,110,49,95.30,173,-7.00,-15.00,-990.00
2024-06-06 23:46:24.381853,0,0,70,0,0,0,76,79,133,110,49,95.62,173,13.00,-12.00,-1007.00
2024-06-06 23:46:24.557502,0,0,70,0,0,0,76,79,134,110,49,95.49,173,5.00,-4.00,-1001.00
2024-06-06 23:46:24.563037,0,0,70,0,0,0,76,79,134,110,49,95.33,173,7.00,-11.00,-993.00
2024-06-06 23:46:24.710732,0,0,70,0,0,0,76,79,133,110,49,95.43,174,9.00,-10.00,-1000.00
2024-06-06 23:46:24.807461,0,0,70,0,0,0,76,79,134,110,49,95.31,174,15.00,-9.00,-1003.00
2024-06-06 23:46:24.823985,0,0,70,0,0,0,76,79,133,110,49,95.31,174,-12.00,-9.00,-996.00
2024-06-06 23:46:24.919842,0,0,70,0,0,0,76,79,134,110,49,95.57,174,-6.00,-4.00,-1002.00
2024-06-06 23:46:25.046442,0,6,70,0,0,0,76,78,134,110,49,95.30,174,-1.00,13.00,-973.00
2024-06-06 23:46:25.123859,0,8,70,-1,0,0,76,78,135,110,49,95.54,174,15.00,-13.00,-1006.00
2024-06-06 23:46:25.252240,0,6,70,-2,1,0,76,78,133,110,49,95.51,174,4.00,-17.00,-1009.00
2024-06-06 23:46:25.328029,0,3,70,-3,1,0,76,78,133,110,49,95.40,174,2.00,-26.00,-994.00
2024-06-06 23:46:25.456083,0,0,70,-3,1,0,76,78,134,110,49,95.55,174,0.00,-30.00,-1000.00
2024-06-06 23:46:25.532106,0,0,70,-3,1,0,76,78,133,110,49,95.88,174,12.00,-45.00,-988.00
2024-06-06 23:46:25.660793,0,0,70,-2,0,0,76,78,133,110,49,95.74,175,11.00,-24.00,-1006.00
2024-06-06 23:46:25.736768,0,0,70,-2,0,0,76,78,134,110,49,95.35,175,17.00,-47.00,-974.00
2024-06-06 23:46:25.865913,0,1,70,-2,0,0,76,78,134,110,49,95.41,175,4.00,-28.00,-1000.00
2024-06-06 23:46:25.940789,0,1,70,-2,0,0,76,78,133,110,49,95.38,175,11.00,-22.00,-988.00
2024-06-06 23:46:26.070547,0,1,70,-2,0,0,76,79,133,110,49,95.37,175,-1.00,-15.00,-996.00
2024-06-06 23:46:26.144749,0,1,70,-2,0,0,76,79,133,110,49,95.32,175,11.00,-28.00,-992.00
2024-06-06 23:46:26.275211,1,0,70,-2,0,0,76,79,133,110,49,95.45,175,12.00,-32.00,-988.00
2024-06-06 23:46:26.348860,2,0,70,-2,0,0,76,79,132,110,49,95.63,175,8.00,-23.00,-999.00
2024-06-06 23:46:26.480359,1,0,70,-2,0,0,76,79,133,110,49,95.73,175,11.00,-20.00,-991.00
2024-06-06 23:46:26.553069,0,0,70,-2,0,0,76,79,132,110,49,95.43,175,14.00,-19.00,-991.00
2024-06-06 23:46:26.684861,0,-1,70,-2,0,0,76,79,133,110,49,95.34,176,16.00,-12.00,-991.00
2024-06-06 23:46:26.756951,0,-4,70,-1,0,0,76,79,133,110,49,95.56,176,6.00,-20.00,-1009.00
2024-06-06 23:46:26.889681,0,-2,70,0,0,0,76,79,133,110,49,95.50,176,-3.00,0.00,-1008.00
2024-06-06 23:46:26.960970,0,0,70,0,0,0,76,79,132,110,49,95.34,176,16.00,-16.00,-997.00
2024-06-06 23:46:27.094631,0,0,70,0,0,0,76,79,132,110,49,95.38,176,11.00,-7.00,-991.00
2024-06-06 23:46:27.164798,0,0,70,0,0,0,76,79,133,110,49,95.17,176,27.00,-13.00,-1019.00
2024-06-06 23:46:27.266695,0,0,70,0,0,0,76,79,132,110,49,95.58,176,8.00,-6.00,-1000.00
2024-06-06 23:46:27.405775,0,0,70,0,0,0,76,79,133,110,49,95.50,176,21.00,-16.00,-1015.00
2024-06-06 23:46:27.470749,0,0,70,0,0,0,76,79,133,110,49,95.46,176,23.00,-10.00,-1004.00
2024-06-06 23:46:27.573004,0,0,70,0,0,0,76,79,133,110,49,95.70,176,4.00,-15.00,-977.00
2024-06-06 23:46:27.708999,0,0,70,0,0,0,76,79,133,110,49,95.34,177,6.00,-3.00,-999.00
2024-06-06 23:46:27.776868,0,0,70,0,0,0,76,79,133,110,49,95.36,177,2.00,-2.00,-996.00
2024-06-06 23:46:27.827682,0,0,70,0,0,0,76,79,133,110,49,95.51,177,9.00,-9.00,-984.00
2024-06-06 23:46:28.016626,0,0,70,0,0,0,76,79,133,110,49,95.49,177,6.00,-1.00,-992.00
2024-06-06 23:46:28.083082,0,0,70,0,0,0,76,78,133,110,49,95.45,177,0.00,2.00,-993.00
2024-06-06 23:46:28.220957,0,0,70,0,0,0,76,78,133,110,48,95.12,177,14.00,-4.00,-996.00
2024-06-06 23:46:28.286701,0,0,70,0,0,0,76,78,133,110,48,95.77,177,16.00,-11.00,-993.00
2024-06-06 23:46:28.338114,0,0,70,0,0,0,76,78,133,110,48,95.71,177,7.00,-4.00,-1002.00
2024-06-06 23:46:28.529690,0,0,70,0,0,0,76,78,133,110,48,95.57,177,10.00,-8.00,-991.00
2024-06-06 23:46:28.541533,0,0,70,0,0,0,76,78,133,110,48,95.47,177,-1.00,-4.00,-988.00
2024-06-06 23:46:28.732937,0,0,70,0,0,0,76,78,133,110,48,95.52,178,1.00,-3.00,-990.00
2024-06-06 23:46:28.745574,0,0,70,0,0,0,76,78,134,110,48,95.57,178,9.00,-13.00,-1005.00
2024-06-06 23:46:28.894307,0,0,70,0,0,0,76,78,133,110,48,95.22,178,-3.00,-7.00,-974.00
2024-06-06 23:46:28.949429,0,0,70,0,0,0,76,78,134,110,48,95.21,178,3.00,-2.00,-1009.00
2024-06-06 23:46:29.142332,0,0,71,0,0,0,77,79,134,110,48,95.22,178,49.00,-39.00,-1005.00
2024-06-06 23:46:29.153454,0,0,77,0,0,0,77,79,134,110,48,95.66,178,7.00,0.00,-992.00
2024-06-06 23:46:29.347138,0,0,83,0,0,0,77,79,133,110,48,95.49,178,-4.00,2.00,-987.00
2024-06-06 23:46:29.358249,0,0,89,0,0,0,77,79,133,110,48,95.49,178,4.00,-4.00,-1001.00
2024-06-06 23:46:29.551927,0,0,94,0,0,0,77,79,134,110,48,95.47,178,0.00,0.00,-1012.00
2024-06-06 23:46:29.561460,0,0,100,0,0,0,77,79,134,110,48,95.36,178,2.00,-3.00,-1000.00
2024-06-06 23:46:29.717812,0,0,106,0,0,0,77,79,134,110,48,95.34,179,-5.00,2.00,-1000.00
2024-06-06 23:46:29.765711,0,0,112,0,0,0,77,79,134,110,48,95.11,179,-4.00,-1.00,-977.00
2024-06-06 23:46:29.961514,0,0,118,0,0,0,77,79,134,110,48,95.43,179,-11.00,17.00,-1012.00
2024-06-06 23:46:29.969468,0,0,124,0,0,0,77,79,134,110,48,95.46,179,2.00,-3.00,-983.00
2024-06-06 23:46:30.166208,0,0,130,0,0,0,76,78,135,110,48,95.18,179,-8.00,9.00,-992.00
2024-06-06 23:46:30.174495,0,0,136,0,0,0,76,78,134,110,48,95.64,179,4.00,10.00,-989.00
2024-06-06 23:46:30.374978,0,0,142,0,0,0,76,78,134,110,48,95.81,179,0.00,-10.00,-980.00
2024-06-06 23:46:30.378511,0,0,148,0,0,0,76,78,134,110,48,95.41,179,3.00,6.00,-1002.00
2024-06-06 23:46:30.575891,0,0,153,0,0,0,76,78,134,110,48,95.47,179,7.00,13.00,-1002.00
2024-06-06 23:46:30.581411,0,0,159,0,0,0,76,78,134,110,48,95.40,179,-3.00,5.00,-999.00
2024-06-06 23:46:30.780625,0,0,165,0,0,0,76,78,135,110,48,95.12,180,-7.00,1.00,-1006.00
2024-06-06 23:46:30.785344,0,0,171,0,0,0,76,78,135,110,48,95.35,180,31.00,-6.00,-1003.00
2024-06-06 23:46:30.985492,0,0,177,0,0,0,76,78,134,110,48,95.28,180,5.00,-1.00,-998.00
2024-06-06 23:46:30.989338,0,0,-176,0,0,0,76,78,134,110,48,95.36,180,6.00,4.00,-1008.00
2024-06-06 23:46:31.091427,0,0,-170,0,0,0,75,79,134,110,48,95.63,180,16.00,3.00,-1000.00
2024-06-06 23:46:31.193437,0,0,-164,0,0,0,75,79,134,110,47,95.77,180,-1.00,1.00,-992.00
2024-06-06 23:46:31.295325,0,0,-158,0,0,0,75,79,133,110,47,95.07,180,-20.00,7.00,-970.00
2024-06-06 23:46:31.397386,0,0,-152,0,0,0,75,79,133,110,47,95.61,180,16.00,-5.00,-1005.00
2024-06-06 23:46:31.499269,0,0,-146,0,0,0,75,79,133,110,47,95.42,180,14.00,-5.00,-993.00
2024-06-06 23:46:31.601254,0,0,-140,0,0,0,75,79,133,110,47,95.33,180,-7.00,10.00,-1007.00
2024-06-06 23:46:31.804567,0,0,-134,0,0,0,75,79,132,110,47,95.47,181,9.00,0.00,-1027.00
2024-06-06 23:46:31.805374,0,0,-128,0,0,0,75,79,132,110,47,95.30,181,11.00,-2.00,-1009.00
2024-06-06 23:46:31.856196,0,0,-123,0,0,0,75,79,131,110,47,95.27,181,-1.00,1.00,-998.00
2024-06-06 23:46:32.009303,0,0,-117,0,0,0,75,79,131,110,47,95.62,181,6.00,0.00,-1000.00
2024-06-06 23:46:32.112234,0,0,-111,0,0,0,76,79,131,110,47,95.53,181,6.00,7.00,-1010.00
2024-06-06 23:46:32.162138,0,0,-105,0,0,0,76,79,132,110,47,95.28,181,21.00,-8.00,-1018.00
2024-06-06 23:46:32.316550,0,0,-99,0,0,0,76,79,131,110,47,95.46,181,13.00,0.00,-1009.00
2024-06-06 23:46:32.366132,0,0,-93,0,0,0,76,79,131,110,47,95.15,181,5.00,3.00,-995.00
2024-06-06 23:46:32.521365,0,0,-87,0,0,0,76,79,131,110,47,95.62,181,2.00,8.00,-1012.00
2024-06-06 23:46:32.570126,0,0,-81,0,0,0,76,79,130,110,47,95.24,181,5.00,-2.00,-993.00
2024-06-06 23:46:32.721141,0,0,-75,0,0,0,76,79,131,110,47,95.38,182,0.00,9.00,-1003.00
2024-06-06 23:46:32.774266,0,0,-69,0,0,0,76,79,131,110,47,95.72,182,-2.00,0.00,-982.00
2024-06-06 23:46:32.939142,0,0,-63,0,0,0,76,79,131,110,47,95.37,182,-3.00,11.00,-1013.00
2024-06-06 23:46:32.978291,0,0,-57,0,0,0,76,79,131,110,47,95.41,182,15.00,-1.00,-1009.00
2024-06-06 23:46:33.135752,0,0,-51,0,0,0,78,79,131,110,47,95.54,182,0.00,2.00,-999.00
2024-06-06 23:46:33.181994,0,0,-45,0,0,0,78,79,131,110,47,95.36,182,12.00,-4.00,-1020.00
2024-06-06 23:46:33.344768,0,0,-39,0,0,0,78,79,132,110,47,95.16,182,5.00,-5.00,-995.00
2024-06-06 23:46:33.386041,0,0,-33,0,0,0,78,79,132,110,47,95.10,182,17.00,-2.00,-992.00
2024-06-06 23:46:33.545295,0,0,-27,0,0,0,78,79,132,110,47,95.36,182,2.00,-1.00,-990.00
2024-06-06 23:46:33.591149,0,0,-21,0,0,0,78,79,132,110,47,95.44,182,10.00,-7.00,-999.00
2024-06-06 23:46:33.750554,0,0,-15,0,0,0,78,79,132,110,47,95.13,183,16.00,2.00,-998.00
2024-06-06 23:46:33.794282,0,0,-9,0,0,0,78,79,133,110,47,95.42,183,15.00,-18.00,-1005.00
2024-06-06 23:46:33.954893,0,0,-3,0,0,0,78,79,133,110,47,95.50,183,2.00,-2.00,-989.00
2024-06-06 23:46:33.998252,0,0,2,0,0,0,78,79,133,110,47,95.39,183,-9.00,-2.00,-982.00
2024-06-06 23:46:34.159665,0,0,8,0,0,0,77,79,134,110,47,95.35,183,0.00,6.00,-998.00
2024-06-06 23:46:34.202425,0,0,14,0,0,0,77,79,133,110,47,95.50,183,13.00,0.00,-1015.00
2024-06-06 23:46:34.364382,0,0,20,0,0,0,77,79,134,110,47,95.18,183,14.00,-4.00,-998.00
2024-06-06 23:46:34.405860,0,0,26,0,0,0,77,79,134,110,47,95.21,183,-4.00,-5.00,-980.00
2024-06-06 23:46:34.569350,0,0,32,0,0,0,77,79,134,110,47,95.54,183,7.00,-12.00,-989.00
2024-06-06 23:46:34.609895,0,0,38,0,0,0,77,79,134,110,47,95.42,183,5.00,4.00,-1016.00
2024-06-06 23:46:34.774109,0,0,44,0,0,0,77,79,135,110,47,95.32,184,20.00,-1.00,-998.00
2024-06-06 23:46:34.814089,0,0,50,0,0,0,77,79,135,110,47,95.34,184,-5.00,-5.00,-981.00
2024-06-06 23:46:34.979969,0,0,54,0,0,0,77,79,134,110,47,95.45,184,-2.00,3.00,-1011.00
2024-06-06 23:46:35.018056,0,0,58,0,0,0,77,79,135,110,47,95.30,184,8.00,0.00,-995.00
2024-06-06 23:46:35.183682,0,0,61,0,0,0,76,78,134,110,47,95.42,184,5.00,3.00,-1009.00
2024-06-06 23:46:35.222536,0,0,63,0,0,0,76,78,134,110,47,95.42,184,-12.00,0.00,-994.00
2024-06-06 23:46:35.389522,0,0,65,0,0,0,76,78,134,110,47,95.51,184,5.00,-5.00,-1004.00
2024-06-06 23:46:35.425945,0,0,66,0,0,0,76,78,134,110,47,95.40,184,7.00,-4.00,-1000.00
2024-06-06 23:46:35.593245,0,0,67,0,0,0,76,78,134,110,47,95.47,184,13.00,-6.00,-992.00
2024-06-06 23:46:35.629975,0,0,68,0,0,0,76,78,134,110,47,95.37,184,1.00,-13.00,-992.00
2024-06-06 23:46:35.681003,0,0,68,0,0,0,76,78,134,110,47,95.66,185,-11.00,2.00,-1006.00
2024-06-06 23:46:35.798228,0,0,68,0,0,0,76,78,134,110,47,95.58,185,10.00,-6.00,-1012.00
2024-06-06 23:46:35.885213,0,0,68,0,0,0,76,78,133,110,47,95.46,185,1.00,-2.00,-1016.00
2024-06-06 23:46:36.003092,0,0,68,0,0,0,76,78,135,110,47,95.31,185,1.00,-11.00,-983.00
2024-06-06 23:46:36.088957,0,0,68,0,0,0,76,79,134,110,47,95.51,185,1.00,2.00,-1006.00
2024-06-06 23:46:36.191204,0,0,68,0,0,0,76,79,135,110,46,95.14,185,-8.00,1.00,-991.00
2024-06-06 23:46:36.310108,0,0,68,0,0,0,76,79,135,110,46,95.34,185,1.00,-3.00,-1002.00
2024-06-06 23:46:36.394928,0,0,68,0,0,0,76,79,135,110,46,95.66,185,1.00,4.00,-1002.00
2024-06-06 23:46:36.515128,0,0,68,0,0,0,76,79,135,110,46,95.55,185,0.00,0.00,-979.00
2024-06-06 23:46:36.601449,0,0,68,0,0,0,76,79,135,110,46,95.42,185,4.00,0.00,-985.00
2024-06-06 23:46:36.701197,0,0,68,0,0,0,76,79,135,110,46,95.24,186,10.00,-10.00,-1001.00
2024-06-06 23:46:36.822042,0,0,68,0,0,0,76,79,135,110,46,95.61,186,11.00,-2.00,-1008.00
2024-06-06 23:46:36.904886,0,0,68,0,0,0,76,79,135,110,46,95.55,186,0.00,2.00,-993.00
2024-06-06 23:46:37.143473,0,0,68,0,0,0,76,79,135,110,46,95.67,186,4.00,-8.00,-1000.00
2024-06-06 23:46:37.143659,0,0,68,0,0,0,76,79,134,110,46,95.25,186,10.00,-14.00,-997.00
2024-06-06 23:46:37.285585,0,0,68,0,0,0,76,79,134,110,46,95.50,186,13.00,-16.00,-1001.00
2024-06-06 23:46:37.312643,0,0,68,0,0,0,76,79,134,110,46,95.39,186,21.00,-10.00,-995.00
2024-06-06 23:46:37.633605,0,0,68,0,0,0,76,79,134,110,46,95.50,186,-5.00,-2.00,-1006.00
2024-06-06 23:46:37.633981,0,0,68,0,0,0,76,79,134,110,46,95.37,186,11.00,-14.00,-1002.00
2024-06-06 23:46:37.634266,0,0,68,0,0,0,76,79,133,110,46,95.38,187,13.00,-8.00,-1019.00
2024-06-06 23:46:37.726841,0,0,68,0,0,0,76,79,133,110,46,95.49,187,-4.00,-6.00,-1004.00
2024-06-06 23:46:37.822708,0,0,63,0,0,0,76,79,134,110,46,95.35,187,3.00,5.00,-1009.00
2024-06-06 23:46:37.948730,0,0,57,0,0,0,76,79,134,110,46,95.18,187,14.00,-11.00,-1003.00
2024-06-06 23:46:38.050762,0,0,52,0,0,0,76,79,134,110,46,95.34,187,0.00,7.00,-996.00
2024-06-06 23:46:38.197475,0,0,46,0,0,0,76,78,134,110,46,95.25,187,10.00,-8.00,-986.00
2024-06-06 23:46:38.237285,0,0,40,0,0,0,76,78,134,110,46,95.47,187,11.00,-11.00,-989.00
2024-06-06 23:46:38.368789,0,0,34,0,0,0,76,78,134,110,46,95.48,187,9.00,0.00,-1016.00
2024-06-06 23:46:38.512213,0,0,28,0,0,0,76,78,134,110,46,95.50,187,14.00,-5.00,-994.00
2024-06-06 23:46:38.537641,0,0,22,0,0,0,76,78,134,110,46,95.54,187,7.00,-2.00,-998.00
2024-06-06 23:46:38.676248,0,0,16,0,0,0,76,78,135,110,46,95.21,188,12.00,-9.00,-998.00
2024-06-06 23:46:38.819543,0,0,10,0,0,0,76,78,134,110,46,95.65,188,-1.00,-15.00,-979.00
2024-06-06 23:46:38.843668,0,0,4,0,0,0,76,78,135,110,46,95.21,188,21.00,-7.00,-992.00
2024-06-06 23:46:38.983230,0,0,0,0,0,0,76,78,135,110,46,95.55,188,-4.00,13.00,-1000.00
2024-06-06 23:46:39.140217,0,0,-6,0,0,0,76,78,134,110,46,95.43,188,8.00,-8.00,-998.00
2024-06-06 23:46:39.149710,0,0,-12,0,0,0,76,78,134,110,46,95.40,188,9.00,-6.00,-997.00
2024-06-06 23:46:39.275709,0,0,-18,0,0,0,76,78,134,110,46,95.67,188,1.00,0.00,-999.00
2024-06-06 23:46:39.354162,0,0,-24,0,0,0,76,78,134,110,46,95.26,188,17.00,-5.00,-1019.00
2024-06-06 23:46:39.484781,0,0,-30,0,0,0,76,78,134,110,46,95.21,188,8.00,0.00,-995.00
2024-06-06 23:46:39.506758,0,0,-35,0,0,0,76,78,134,110,46,95.21,188,25.00,0.00,-997.00
2024-06-06 23:46:39.689067,0,0,-41,0,0,0,76,78,134,110,46,95.56,189,20.00,-1.00,-996.00
2024-06-06 23:46:39.710486,0,0,-47,0,0,0,76,78,133,110,46,95.20,189,10.00,-6.00,-998.00
2024-06-06 23:46:39.894167,0,0,-53,0,0,0,76,78,134,110,46,95.84,189,2.00,-7.00,-986.00
2024-06-06 23:46:39.914471,0,0,-59,0,0,0,76,78,134,110,46,95.23,189,10.00,7.00,-1008.00
2024-06-06 23:46:40.098752,0,0,-65,0,0,0,76,78,134,110,46,95.11,189,7.00,10.00,-1014.00
2024-06-06 23:46:40.118700,0,0,-71,0,0,0,77,79,134,110,46,95.66,189,10.00,-5.00,-993.00
2024-06-06 23:46:40.304053,0,0,-77,0,0,0,77,79,134,110,45,95.49,189,16.00,-5.00,-990.00
2024-06-06 23:46:40.322478,0,0,-82,0,0,0,77,79,134,110,45,95.18,189,3.00,0.00,-1000.00
2024-06-06 23:46:40.508773,0,0,-88,0,0,0,77,79,135,110,45,95.13,189,14.00,-10.00,-1008.00
2024-06-06 23:46:40.526582,0,0,-94,0,0,0,77,79,135,110,45,95.78,189,5.00,-1.00,-1002.00
2024-06-06 23:46:40.713540,0,0,-100,0,0,0,77,79,135,110,45,95.30,190,10.00,-7.00,-994.00
2024-06-06 23:46:40.730452,0,0,-106,0,0,0,77,79,135,110,45,95.41,190,8.00,-8.00,-993.00
2024-06-06 23:46:40.918059,0,0,-112,0,0,0,77,79,134,110,45,95.59,190,14.00,0.00,-999.00
2024-06-06 23:46:40.934559,0,0,-118,0,0,0,77,79,135,110,45,95.26,190,19.00,-4.00,-995.00
2024-06-06 23:46:41.126251,0,0,-124,0,0,0,77,79,135,110,45,95.19,190,11.00,0.00,-1002.00
2024-06-06 23:46:41.139402,0,0,-130,0,0,0,76,79,135,110,45,95.35,190,9.00,0.00,-998.00
2024-06-06 23:46:41.327390,0,0,-136,0,0,0,76,79,136,110,45,95.32,190,7.00,1.00,-989.00
2024-06-06 23:46:41.342255,0,0,-142,0,0,0,76,79,135,110,45,95.47,190,13.00,0.00,-1002.00
2024-06-06 23:46:41.532456,0,0,-148,0,0,0,76,79,135,110,45,95.36,190,2.00,6.00,-1010.00
2024-06-06 23:46:41.547851,0,0,-154,0,0,0,76,79,135,110,45,95.48,190,8.00,-1.00,-995.00
2024-06-06 23:46:41.648338,0,0,-160,0,0,0,76,79,135,110,45,95.76,191,14.00,-1.00,-1000.00
2024-06-06 23:46:41.841149,0,0,-166,0,0,0,76,79,135,110,45,95.40,191,14.00,-1.00,-992.00
2024-06-06 23:46:41.852280,0,0,-172,0,0,0,76,79,135,110,45,95.36,191,0.00,3.00,-986.00
2024-06-06 23:46:42.053594,0,0,-178,0,0,0,76,79,135,110,45,95.36,191,18.00,7.00,-1006.00
2024-06-06 23:46:42.056312,0,0,175,0,0,0,76,79,134,110,45,94.98,191,9.00,5.00,-1004.00
2024-06-06 23:46:42.258234,0,0,169,0,0,0,76,78,134,110,45,95.40,191,5.00,3.00,-997.00
2024-06-06 23:46:42.260407,0,0,163,0,0,0,76,78,135,110,45,95.08,191,7.00,14.00,-1015.00
2024-06-06 23:46:42.454149,0,0,157,0,0,0,76,78,134,110,45,95.28,191,11.00,-6.00,-994.00
2024-06-06 23:46:42.464522,0,0,151,0,0,0,76,78,134,110,45,95.75,191,16.00,1.00,-1010.00
2024-06-06 23:46:42.658534,0,0,145,0,0,0,76,78,134,110,45,95.30,191,9.00,0.00,-998.00
2024-06-06 23:46:42.668253,0,0,139,0,0,0,76,78,134,110,45,95.40,192,19.00,7.00,-1000.00
2024-06-06 23:46:42.863337,0,0,133,0,0,0,76,78,134,110,45,94.96,192,3.00,16.00,-1000.00
2024-06-06 23:46:42.872226,0,0,127,0,0,0,76,78,134,110,45,95.44,192,6.00,-5.00,-989.00
2024-06-06 23:46:42.923203,0,0,121,0,0,0,76,78,134,110,45,95.44,192,0.00,9.00,-996.00
2024-06-06 23:46:43.068952,0,0,115,0,0,0,76,78,133,110,45,95.45,192,4.00,5.00,-1007.00
2024-06-06 23:46:43.178312,0,0,109,0,0,0,76,79,134,110,45,95.42,192,-7.00,0.00,-993.00
2024-06-06 23:46:43.377235,0,0,103,0,0,0,76,79,133,110,45,95.58,192,3.00,15.00,-994.00
2024-06-06 23:46:43.383823,0,0,96,0,0,0,76,79,133,110,45,95.61,192,5.00,0.00,-998.00
2024-06-06 23:46:43.484231,0,0,90,0,0,0,76,79,133,110,45,95.42,192,3.00,4.00,-1000.00
2024-06-06 23:46:43.535380,0,0,85,0,0,0,76,79,133,110,45,95.08,192,0.00,-2.00,-998.00
2024-06-06 23:46:43.687449,0,0,81,0,0,0,76,79,133,110,45,95.17,193,9.00,-5.00,-1006.00
2024-06-06 23:46:43.739454,0,0,78,0,0,0,76,79,133,110,45,95.44,193,6.00,-3.00,-1007.00
2024-06-06 23:46:43.887305,0,0,76,0,0,0,76,79,133,110,45,95.40,193,3.00,-2.00,-1001.00
2024-06-06 23:46:43.943155,0,0,74,0,0,0,76,79,132,110,45,95.38,193,-6.00,10.00,-1006.00
2024-06-06 23:46:44.092073,0,0,72,0,0,0,76,79,132,110,45,95.23,193,9.00,1.00,-1007.00
2024-06-06 23:46:44.147695,0,0,71,0,0,0,76,78,133,110,45,95.27,193,6.00,-3.00,-1006.00
2024-06-06 23:46:44.296864,0,0,71,0,0,0,76,78,132,110,45,95.53,193,11.00,3.00,-1004.00
2024-06-06 23:46:44.351206,0,0,70,0,0,0,76,78,132,110,45,95.56,193,0.00,10.00,-1011.00
2024-06-06 23:46:44.501797,0,0,70,0,0,0,76,78,133,110,45,95.41,193,4.00,2.00,-996.00
2024-06-06 23:46:44.555184,0,0,70,0,0,0,76,78,132,110,45,95.27,193,9.00,-4.00,-1002.00
2024-06-06 23:46:44.706932,0,0,70,0,0,0,76,78,133,110,45,95.35,194,-5.00,-1.00,-1000.00
2024-06-06 23:46:44.759822,0,0,70,0,0,0,76,78,132,110,45,95.28,194,9.00,1.00,-998.00
2024-06-06 23:46:44.911264,0,0,70,0,0,0,76,78,132,110,45,95.29,194,9.00,3.00,-1008.00
2024-06-06 23:46:44.963403,0,0,70,0,0,0,76,78,133,110,45,95.41,194,-8.00,2.00,-985.00
2024-06-06 23:46:45.116550,0,0,70,0,0,0,76,78,133,110,45,95.55,194,-9.00,8.00,-1003.00
2024-06-06 23:46:45.167242,0,0,70,0,0,0,76,79,134,110,45,95.25,194,6.00,1.00,-999.00
2024-06-06 23:46:45.329743,0,0,70,0,0,0,76,79,133,110,45,95.66,194,4.00,-2.00,-988.00
2024-06-06 23:46:45.371604,0,0,70,0,0,0,76,79,133,110,45,95.43,194,8.00,-5.00,-995.00
2024-06-06 23:46:45.475252,0,0,70,0,0,0,76,79,134,110,45,95.63,194,-1.00,0.00,-997.00
2024-06-06 23:46:45.575566,0,0,70,0,0,0,76,79,134,110,45,95.15,194,8.00,1.00,-1000.00
2024-06-06 23:46:45.733442,0,0,70,0,0,0,76,79,134,110,45,95.29,195,-13.00,8.00,-1001.00
2024-06-06 23:46:45.779358,0,0,70,0,0,0,76,79,134,110,45,95.36,195,-1.00,-1.00,-995.00
2024-06-06 23:46:45.938525,0,0,70,0,0,0,76,79,133,110,45,95.43,195,3.00,1.00,-1001.00
2024-06-06 23:46:45.983115,0,0,70,0,0,0,76,79,134,110,45,95.28,195,0.00,0.00,-994.00
2024-06-06 23:46:46.140424,0,0,70,0,0,0,76,79,134,110,45,95.18,195,-6.00,4.00,-994.00
2024-06-06 23:46:46.187509,0,0,70,0,0,0,76,78,134,110,44,95.41,195,-11.00,4.00,-1002.00
2024-06-06 23:46:46.303338,0,0,70,0,0,0,76,78,134,110,44,95.43,195,2.00,-4.00,-1001.00
2024-06-06 23:46:46.391131,0,0,70,0,0,0,76,78,134,110,44,95.39,195,-5.00,-4.00,-995.00
2024-06-06 23:46:46.552290,0,0,70,0,0,0,76,78,134,110,44,95.49,195,0.00,-12.00,-985.00
2024-06-06 23:46:46.595912,0,0,70,0,0,0,76,78,133,110,44,95.47,195,10.00,-7.00,-989.00
2024-06-06 23:46:46.756886,0,0,70,0,0,0,76,78,134,110,44,95.49,196,0.00,5.00,-996.00
2024-06-06 23:46:46.798983,0,0,70,0,0,0,76,78,135,110,44,95.49,196,-5.00,2.00,-1003.00
2024-06-06 23:46:46.959301,0,0,70,0,0,0,76,78,134,110,44,95.25,196,-9.00,-1.00,-996.00
2024-06-06 23:46:47.003066,0,0,70,0,0,0,76,78,134,110,44,95.46,196,-6.00,-8.00,-994.00
2024-06-06 23:46:47.163986,0,0,70,0,0,0,76,78,134,110,44,95.23,196,4.00,0.00,-1018.00
2024-06-06 23:46:47.206921,0,0,70,0,0,0,75,79,133,110,44,95.33,196,-5.00,2.00,-999.00
2024-06-06 23:46:47.369737,0,0,70,0,0,0,75,79,134,110,44,95.55,196,-1.00,1.00,-1002.00
2024-06-06 23:46:47.369912,0,0,70,0,0,0,75,79,134,110,44,95.30,196,6.00,-12.00,-986.00
2024-06-06 23:46:47.461937,0,0,70,0,0,0,75,79,134,110,44,95.46,196,13.00,-12.00,-989.00
2024-06-06 23:46:47.565320,0,0,70,0,0,0,75,79,135,110,44,95.29,196,-3.00,-1.00,-1000.00
2024-06-06 23:46:47.677635,0,0,70,0,0,0,75,79,135,110,44,95.47,197,6.00,-12.00,-995.00
2024-06-06 23:46:47.768488,0,0,70,0,0,0,75,79,135,110,44,95.51,197,10.00,-13.00,-1006.00
2024-06-06 23:46:47.881184,0,0,70,0,0,0,75,79,135,110,44,95.50,197,1.00,-5.00,-1005.00
2024-06-06 23:46:47.971908,0,0,70,0,0,0,75,79,134,110,44,95.09,197,3.00,-1.00,-1010.00
2024-06-06 23:46:48.085602,0,0,70,0,0,0,75,79,135,110,44,95.04,197,4.00,4.00,-989.00
2024-06-06 23:46:48.176877,0,0,70,0,0,0,75,79,134,110,44,95.26,197,-2.00,0.00,-998.00
2024-06-06 23:46:48.290401,0,0,70,0,0,0,75,79,134,110,44,95.28,197,7.00,-14.00,-995.00
2024-06-06 23:46:48.380777,0,0,70,0,0,0,75,79,134,110,44,95.45,197,0.00,-7.00,-1002.00
2024-06-06 23:46:48.495582,0,0,70,0,0,0,75,79,135,110,44,95.43,197,6.00,-5.00,-986.00
2024-06-06 23:46:48.584805,0,0,70,0,0,0,75,79,134,110,44,95.49,197,-9.00,0.00,-1012.00
2024-06-06 23:46:48.701008,0,0,70,0,0,0,75,79,135,110,44,95.17,198,11.00,-15.00,-993.00
2024-06-06 23:46:48.788878,0,0,70,0,0,0,75,79,134,110,44,95.14,198,0.00,-3.00,-1001.00
2024-06-06 23:46:48.904886,0,0,70,0,0,0,75,79,135,110,44,95.51,198,4.00,-7.00,-1006.00
2024-06-06 23:46:48.993030,0,0,70,0,0,0,75,79,134,110,44,95.61,198,3.00,-8.00,-998.00
2024-06-06 23:46:49.110212,0,0,70,0,0,0,75,79,134,110,44,95.23,198,-1.00,-5.00,-1001.00
2024-06-06 23:46:49.196818,0,0,70,0,0,0,76,78,135,110,44,95.31,198,-3.00,-3.00,-1008.00
2024-06-06 23:46:49.315025,0,0,70,0,0,0,76,78,134,110,44,95.39,198,5.00,-6.00,-1001.00
2024-06-06 23:46:49.400787,0,0,70,0,0,0,76,78,134,110,44,95.29,198,-1.00,-8.00,-1016.00
2024-06-06 23:46:49.519208,0,0,70,0,0,0,76,78,134,110,44,95.29,198,4.00,-9.00,-991.00
2024-06-06 23:46:49.604739,0,0,70,0,0,0,76,78,134,110,44,95.40,198,13.00,-15.00,-988.00
2024-06-06 23:46:49.724240,0,0,70,0,0,0,76,78,134,110,44,95.69,199,0.00,-4.00,-1003.00
2024-06-06 23:46:49.809238,0,0,70,0,0,0,76,78,134,110,44,95.43,199,1.00,-1.00,-1002.00
2024-06-06 23:46:49.929100,0,0,70,0,0,0,76,78,134,110,44,95.28,199,10.00,-3.00,-1005.00
2024-06-06 23:46:50.013031,0,0,70,0,0,0,76,78,134,110,44,95.43,199,12.00,-15.00,-1000.00
2024-06-06 23:46:50.134251,0,0,70,0,0,0,76,78,134,110,44,95.28,199,13.00,-6.00,-1001.00
2024-06-06 23:46:50.216634,0,0,70,0,0,0,75,79,133,110,44,95.15,199,-6.00,2.00,-998.00
2024-06-06 23:46:50.338342,0,0,70,0,0,0,75,79,134,110,44,95.48,199,15.00,-12.00,-999.00
2024-06-06 23:46:50.420739,0,0,70,0,0,0,75,79,134,110,44,95.49,199,-3.00,4.00,-994.00
2024-06-06 23:46:50.544686,0,0,70,0,0,0,75,79,134,110,44,95.45,199,12.00,-8.00,-999.00
2024-06-06 23:46:50.626678,0,0,70,0,0,0,75,79,133,110,44,95.42,199,3.00,-16.00,-997.00
2024-06-06 23:46:50.726549,0,0,70,0,0,0,75,79,133,110,44,95.18,200,0.00,-3.00,-1012.00
2024-06-06 23:46:50.850553,0,0,70,0,0,0,75,79,133,110,44,95.45,200,9.00,-8.00,-999.00
2024-06-06 23:46:50.879522,0,0,70,0,0,0,75,79,134,110,44,95.41,200,2.00,-8.00,-1012.00
2024-06-06 23:46:51.055140,0,0,70,0,0,0,75,79,133,110,44,95.55,200,1.00,-13.00,-980.00
2024-06-06 23:46:51.084199,0,0,70,0,0,0,75,79,133,110,44,95.23,200,19.00,-15.00,-1015.00
2024-06-06 23:46:51.260706,0,0,70,0,0,0,75,77,133,110,44,95.54,200,-1.00,-3.00,-997.00
2024-06-06 23:46:51.287726,0,0,70,0,0,0,75,77,133,110,44,95.56,200,1.00,-13.00,-1003.00
2024-06-06 23:46:51.464545,0,0,70,0,0,0,75,77,133,110,44,95.14,200,10.00,-9.00,-1007.00
2024-06-06 23:46:51.491629,0,0,70,0,0,0,75,77,133,110,44,95.39,200,-1.00,0.00,-996.00
2024-06-06 23:46:51.669622,0,0,70,0,0,0,75,77,133,110,44,95.58,200,-4.00,-7.00,-1008.00
2024-06-06 23:46:51.696770,0,0,70,0,0,0,75,77,133,110,44,95.39,201,-4.00,-11.00,-991.00
2024-06-06 23:46:51.874243,0,0,70,0,0,0,75,77,133,110,44,95.49,201,6.00,-14.00,-993.00
2024-06-06 23:46:51.900451,0,0,70,0,0,0,75,77,133,110,44,95.33,201,13.00,-16.00,-1007.00
2024-06-06 23:46:52.079312,0,0,70,0,0,0,75,77,133,110,44,95.06,201,14.00,-22.00,-1010.00
2024-06-06 23:46:52.194992,0,0,70,0,0,0,75,77,134,110,44,95.46,201,8.00,-15.00,-995.00
2024-06-06 23:46:52.207420,0,0,70,0,0,0,75,78,133,110,44,95.54,201,5.00,-19.00,-985.00
2024-06-06 23:46:52.337579,0,0,70,0,0,0,75,78,135,110,44,95.46,201,-16.00,-10.00,-986.00
2024-06-06 23:46:52.440840,0,0,70,0,0,0,75,78,133,110,44,95.60,201,-1.00,-6.00,-986.00
2024-06-06 23:46:52.546176,0,0,70,0,0,0,75,78,134,110,44,95.26,201,-9.00,-11.00,-982.00
2024-06-06 23:46:52.616889,0,0,70,0,0,0,75,78,133,110,44,95.64,202,-5.00,-1.00,-996.00
2024-06-06 23:46:52.731805,0,0,70,0,0,0,75,78,134,110,44,95.45,202,1.00,2.00,-1009.00
2024-06-06 23:46:52.878269,0,0,70,0,0,0,75,78,134,110,44,95.52,202,-5.00,0.00,-1013.00
2024-06-06 23:46:52.950640,0,0,70,0,0,0,75,78,134,110,44,95.25,202,3.00,0.00,-1006.00
2024-06-06 23:46:53.114187,0,0,70,0,0,0,75,78,134,110,44,95.29,202,-10.00,14.00,-999.00
2024-06-06 23:46:53.124445,0,0,70,0,0,0,75,78,134,110,44,95.38,202,11.00,-4.00,-997.00
2024-06-06 23:46:53.226643,0,0,70,0,0,0,75,78,134,110,43,95.25,202,7.00,-9.00,-1004.00
2024-06-06 23:46:53.421150,0,0,70,0,0,0,75,78,133,110,43,95.74,202,7.00,-7.00,-997.00
2024-06-06 23:46:53.430288,0,0,70,0,0,0,75,78,134,110,43,95.67,202,-10.00,-3.00,-1009.00
2024-06-06 23:46:53.564361,0,0,70,0,0,0,75,78,133,110,43,95.35,202,0.00,0.00,-1001.00
2024-06-06 23:46:53.728471,0,0,70,0,0,0,75,78,133,110,43,95.45,203,-8.00,1.00,-1011.00
2024-06-06 23:46:53.737665,0,0,70,0,0,0,75,78,133,110,43,95.60,203,-3.00,-3.00,-1011.00
2024-06-06 23:46:53.871662,0,0,70,0,0,0,75,78,134,110,43,95.41,203,-5.00,-1.00,-991.00
2024-06-06 23:46:54.035654,0,0,70,0,0,0,75,78,133,110,43,95.51,203,-7.00,7.00,-1005.00
2024-06-06 23:46:54.042356,0,0,70,0,0,0,75,78,133,110,43,95.66,203,6.00,-6.00,-1005.00
2024-06-06 23:46:54.191801,0,0,70,0,0,0,75,78,133,110,43,95.46,203,5.00,0.00,-1006.00
2024-06-06 23:46:54.265805,0,0,70,0,0,0,76,78,133,110,43,95.34,203,0.00,-3.00,-995.00
2024-06-06 23:46:54.348224,0,0,70,0,0,0,76,78,133,110,43,95.27,203,2.00,4.00,-1009.00
2024-06-06 23:46:54.536593,0,0,70,0,0,0,76,78,133,110,43,95.35,203,17.00,-12.00,-1013.00
2024-06-06 23:46:54.553412,0,0,70,0,0,0,76,78,134,110,43,95.79,203,1.00,1.00,-996.00
2024-06-06 23:46:54.741318,0,0,70,0,0,0,76,78,133,110,43,95.50,204,5.00,-4.00,-1002.00
2024-06-06 23:46:54.741477,0,0,70,0,0,0,76,78,134,110,43,95.46,204,12.00,-11.00,-990.00
2024-06-06 23:46:54.807287,0,0,70,0,0,0,76,78,134,110,43,95.23,204,14.00,-11.00,-995.00
2024-06-06 23:46:54.946465,0,0,70,0,0,0,76,78,134,110,43,95.39,204,4.00,-13.00,-997.00
2024-06-06 23:46:55.011221,0,0,70,0,0,0,76,78,134,110,43,95.20,204,5.00,-11.00,-990.00
2024-06-06 23:46:55.151007,0,0,70,0,0,0,76,78,134,110,43,95.38,204,11.00,-14.00,-994.00
2024-06-06 23:46:55.215490,0,0,70,0,0,0,76,78,135,110,43,95.68,204,0.00,-5.00,-993.00
2024-06-06 23:46:55.355785,0,0,70,0,0,0,76,78,134,110,43,95.42,204,6.00,-16.00,-984.00
2024-06-06 23:46:55.419130,0,0,70,0,0,0,76,78,134,110,43,95.59,204,-5.00,3.00,-997.00
2024-06-06 23:46:55.560471,0,0,70,0,0,0,76,78,134,110,43,95.60,204,11.00,-7.00,-990.00
2024-06-06 23:46:55.623501,0,0,70,0,0,0,76,78,135,110,43,95.65,205,5.00,-18.00,-1005.00
2024-06-06 23:46:55.766094,0,0,70,0,0,0,76,78,134,110,43,95.45,205,3.00,6.00,-1007.00
2024-06-06 23:46:55.827426,0,0,70,0,0,0,76,78,134,110,43,95.39,205,2.00,-2.00,-997.00
2024-06-06 23:46:55.970981,0,0,70,0,0,0,76,78,135,110,43,95.54,205,0.00,-5.00,-1006.00
2024-06-06 23:46:56.031747,0,0,70,0,0,0,76,78,134,110,43,95.45,205,4.00,-4.00,-1007.00
2024-06-06 23:46:56.175275,0,0,70,0,0,0,76,78,134,110,43,95.43,205,-2.00,0.00,-1003.00
2024-06-06 23:46:56.235076,0,0,70,0,0,0,75,78,134,110,43,95.54,205,0.00,2.00,-1000.00
2024-06-06 23:46:56.383297,0,0,70,0,0,0,75,78,134,110,43,95.46,205,-4.00,-5.00,-1000.00
2024-06-06 23:46:56.439089,0,0,70,0,0,0,75,78,134,110,43,95.39,205,12.00,-13.00,-999.00
2024-06-06 23:46:56.584813,0,0,70,0,0,0,75,78,134,110,43,95.56,205,16.00,-14.00,-993.00
2024-06-06 23:46:56.643798,0,0,70,0,0,0,75,78,133,110,43,95.31,206,9.00,-17.00,-1000.00
2024-06-06 23:46:56.790062,0,0,70,0,0,0,75,78,134,110,43,95.58,206,0.00,-2.00,-999.00
2024-06-06 23:46:56.847408,0,0,70,0,0,0,75,78,134,110,43,95.60,206,6.00,-6.00,-996.00
2024-06-06 23:46:56.994339,0,0,70,0,0,0,75,78,133,110,43,95.63,206,12.00,-15.00,-994.00
2024-06-06 23:46:57.051348,0,0,70,0,0,0,75,78,133,110,43,95.56,206,10.00,-12.00,-995.00
2024-06-06 23:46:57.198837,0,0,70,0,0,0,75,78,133,110,43,95.34,206,4.00,-3.00,-992.00
2024-06-06 23:46:57.255418,0,0,70,0,0,0,75,78,133,110,42,95.30,206,7.00,-11.00,-1008.00
2024-06-06 23:46:57.403613,0,0,70,0,0,0,75,78,133,110,42,95.34,206,10.00,-15.00,-1003.00
2024-06-06 23:46:57.459593,0,0,70,0,0,0,75,78,133,110,42,95.37,206,5.00,-10.00,-989.00
2024-06-06 23:46:57.560980,0,0,70,0,0,0,75,78,133,110,42,95.05,206,4.00,0.00,-1008.00
2024-06-06 23:46:57.665931,0,0,70,0,0,0,75,78,133,110,42,95.32,207,8.00,-18.00,-997.00
2024-06-06 23:46:57.765779,0,0,70,0,0,0,75,78,133,110,42,95.49,207,5.00,-4.00,-1004.00
2024-06-06 23:46:57.868642,0,0,70,0,0,0,75,78,133,110,42,95.28,207,7.00,-3.00,-994.00
2024-06-06 23:46:57.968961,0,0,70,0,0,0,75,78,133,110,42,95.46,207,13.00,-5.00,-1006.00
2024-06-06 23:46:58.028392,0,0,70,0,0,0,75,78,133,110,42,95.24,207,3.00,4.00,-1006.00
2024-06-06 23:46:58.121900,0,0,70,0,0,0,75,78,133,110,42,95.34,207,8.00,-17.00,-992.00
2024-06-06 23:46:58.223859,0,0,70,0,0,0,76,78,133,110,42,95.45,207,0.00,-2.00,-1002.00
2024-06-06 23:46:58.326164,0,0,70,0,0,0,76,78,132,110,42,95.34,207,16.00,-18.00,-1001.00
2024-06-06 23:46:58.427795,0,0,70,0,0,0,76,78,132,110,42,95.59,207,9.00,-4.00,-1015.00
2024-06-06 23:46:58.530025,0,0,70,0,0,0,76,78,132,110,42,95.28,207,17.00,-8.00,-1002.00
2024-06-06 23:46:58.631948,0,0,70,0,0,0,76,78,133,110,42,95.36,208,1.00,10.00,-999.00
2024-06-06 23:46:58.734618,0,0,70,0,0,0,76,78,132,110,42,95.35,208,7.00,0.00,-1006.00
2024-06-06 23:46:58.839325,0,0,70,0,0,0,76,78,133,110,42,95.41,208,13.00,-1.00,-996.00
2024-06-06 23:46:58.939402,0,0,70,0,0,0,76,78,132,110,42,95.27,208,3.00,-8.00,-953.00
2024-06-06 23:46:59.039828,0,0,70,0,0,0,76,78,132,110,42,95.38,208,5.00,-13.00,-924.00
2024-06-06 23:46:59.141924,0,0,70,0,0,1,76,78,130,110,42,95.64,208,5.00,-5.00,-916.00
2024-06-06 23:46:59.243678,0,0,70,0,0,2,75,78,128,110,42,95.17,208,11.00,-13.00,-902.00
2024-06-06 23:46:59.348980,0,0,70,0,0,3,75,78,125,100,42,95.47,208,0.00,-10.00,-910.00
2024-06-06 23:46:59.447670,0,0,70,0,0,4,75,78,121,100,42,95.26,208,9.00,2.00,-905.00
2024-06-06 23:46:59.550410,0,0,70,0,0,5,75,78,115,100,42,95.04,208,3.00,-3.00,-899.00
2024-06-06 23:46:59.656166,0,0,70,0,0,6,75,78,109,90,42,95.18,209,7.00,-7.00,-905.00
2024-06-06 23:46:59.753638,0,0,70,0,0,7,75,78,102,80,42,94.87,209,5.00,-4.00,-943.00
