TS,pitch,roll,yaw,vgx,vgy,vgz,templ,temph,tof,h,bat,baro,time,agx,agy,agz
2024-06-06 23:48:09.775189,0,0,71,0,0,0,83,86,10,0,41,94.03,212,8.00,-2.00,-999.00
2024-06-06 23:48:09.899620,0,0,71,0,0,0,83,86,10,0,41,94.04,212,10.00,-1.00,-1000.00
2024-06-06 23:48:09.979238,0,0,71,0,0,0,83,86,10,0,41,94.15,212,8.00,-1.00,-998.00
2024-06-06 23:48:10.081313,0,0,71,0,0,0,83,86,10,0,41,94.15,212,9.00,-1.00,-998.00
2024-06-06 23:48:10.206625,0,0,71,0,0,0,83,86,10,0,41,93.93,212,9.00,-2.00,-1000.00
2024-06-06 23:48:10.285295,0,0,71,0,0,0,83,86,10,0,41,93.92,212,10.00,-2.00,-999.00
2024-06-06 23:48:10.387270,0,0,71,0,0,0,83,86,10,0,41,94.34,212,9.00,-1.00,-1001.00
2024-06-06 23:48:10.513913,0,0,71,0,0,0,83,86,10,0,41,93.99,212,10.00,-2.00,-999.00
2024-06-06 23:48:10.591430,0,0,71,0,0,0,84,85,10,0,41,94.18,212,9.00,-3.00,-1000.00
2024-06-06 23:48:10.718555,0,0,71,0,0,0,84,85,10,0,41,94.34,212,10.00,-2.00,-999.00
2024-06-06 23:48:10.795205,0,0,71,0,0,0,84,85,10,0,41,94.11,212,10.00,-2.00,-998.00
2024-06-06 23:48:10.923356,0,0,71,0,0,0,84,85,10,0,41,94.14,212,10.00,-1.00,-999.00
2024-06-06 23:48:10.999102,0,0,71,0,0,0,84,85,10,0,41,94.07,212,9.00,-2.00,-1002.00
2024-06-06 23:48:11.128186,0,0,71,0,0,0,84,85,10,0,41,94.21,212,9.00,-1.00,-999.00
2024-06-06 23:48:11.202950,0,0,71,0,0,0,84,85,10,0,41,94.41,212,9.00,0.00,-1000.00
2024-06-06 23:48:11.333104,0,0,71,0,0,0,84,85,10,0,41,94.36,212,9.00,-2.00,-1002.00
2024-06-06 23:48:11.407052,0,0,71,0,0,0,84,85,10,0,41,94.26,212,9.00,-2.00,-1001.00
2024-06-06 23:48:11.537719,0,0,71,0,0,0,84,85,10,0,41,94.17,212,10.00,-3.00,-998.00
2024-06-06 23:48:11.612369,0,0,71,0,0,0,83,85,10,0,41,94.26,212,8.00,-3.00,-997.00
2024-06-06 23:48:11.742720,0,0,71,0,0,0,83,85,10,0,41,94.21,212,11.00,-2.00,-1001.00
2024-06-06 23:48:11.817572,0,0,71,0,0,0,83,85,10,0,41,93.90,212,10.00,-1.00,-1000.00
2024-06-06 23:48:11.917028,0,0,71,0,0,0,83,85,10,0,41,93.83,212,9.00,-1.00,-998.00
2024-06-06 23:48:11.968316,0,0,71,0,0,0,83,85,10,0,41,94.36,212,8.00,-2.00,-1000.00
2024-06-06 23:48:12.069869,0,0,71,0,0,0,83,85,10,0,41,94.08,212,9.00,-2.00,-999.00
2024-06-06 23:48:12.254512,0,0,71,0,0,0,83,85,10,0,41,94.17,212,9.00,-3.00,-1000.00
2024-06-06 23:48:12.273911,0,0,71,0,0,0,83,85,10,0,41,94.17,212,9.00,0.00,-998.00
2024-06-06 23:48:12.459326,0,0,71,0,0,0,83,85,10,0,41,94.17,212,16.00,0.00,-999.00
2024-06-06 23:48:12.477960,0,0,71,0,0,0,83,85,10,0,41,94.17,212,4.00,-4.00,-1002.00
2024-06-06 23:48:12.664142,0,0,71,0,0,0,84,85,10,0,41,94.17,212,-6.00,1.00,-1001.00
2024-06-06 23:48:12.681826,0,0,71,0,0,0,84,85,10,0,41,94.17,212,17.00,-10.00,-1090.00
2024-06-06 23:48:12.869396,0,0,71,0,0,0,84,85,10,0,41,94.17,212,11.00,2.00,-1191.00
2024-06-06 23:48:12.885832,-1,0,71,0,0,-1,84,85,10,0,41,94.17,212,40.00,3.00,-1299.00
2024-06-06 23:48:13.002789,1,0,71,0,0,-4,84,85,17,0,41,94.23,213,14.00,0.00,-1200.00
2024-06-06 23:48:13.093864,1,0,71,0,0,-6,84,85,26,0,41,94.43,213,0.00,-9.00,-1086.00
2024-06-06 23:48:13.191834,1,0,71,0,0,-6,84,85,35,0,41,94.74,213,8.00,-4.00,-1036.00
2024-06-06 23:48:13.380895,0,0,71,0,0,-7,84,85,40,0,41,95.01,213,13.00,-7.00,-987.00
2024-06-06 23:48:13.395981,0,0,71,0,0,-6,84,85,49,10,41,94.52,213,5.00,-3.00,-958.00
2024-06-06 23:48:13.585751,0,0,71,0,0,-6,84,85,58,10,41,94.66,213,11.00,-6.00,-920.00
2024-06-06 23:48:13.599694,0,0,71,0,0,-5,83,86,64,20,41,94.76,213,7.00,-7.00,-903.00
2024-06-06 23:48:13.790811,0,0,71,0,0,-4,83,86,71,20,41,95.06,213,5.00,-2.00,-900.00
2024-06-06 23:48:13.803692,0,0,71,0,0,-3,83,86,78,30,41,94.83,213,3.00,2.00,-888.00
2024-06-06 23:48:13.995290,0,0,71,0,0,-2,83,86,82,30,41,95.16,213,3.00,-1.00,-904.00
2024-06-06 23:48:14.007763,0,0,71,0,0,-1,83,86,86,30,41,95.01,214,14.00,-2.00,-906.00
2024-06-06 23:48:14.200055,0,0,71,0,0,0,83,86,90,40,41,95.19,214,1.00,0.00,-922.00
2024-06-06 23:48:14.211682,0,0,71,0,0,0,83,86,93,40,41,95.06,214,13.00,-3.00,-941.00
2024-06-06 23:48:14.404980,0,0,71,0,0,0,83,86,95,40,41,95.03,214,-5.00,2.00,-957.00
2024-06-06 23:48:14.415696,0,0,71,0,0,0,83,86,97,40,41,95.46,214,16.00,-2.00,-963.00
2024-06-06 23:48:14.609697,0,0,71,0,0,0,83,86,98,40,41,95.53,214,8.00,-2.00,-964.00
2024-06-06 23:48:14.619669,0,0,71,0,0,0,83,86,99,40,41,95.34,214,0.00,1.00,-961.00
2024-06-06 23:48:14.814701,0,0,71,0,0,1,83,86,100,50,41,95.23,214,-4.00,9.00,-972.00
2024-06-06 23:48:14.823682,0,0,71,0,0,1,83,86,100,50,41,95.61,214,13.00,6.00,-981.00
2024-06-06 23:48:15.019237,0,0,71,0,0,1,83,86,100,50,41,94.98,215,21.00,-5.00,-975.00
2024-06-06 23:48:15.028162,0,0,71,0,0,1,83,86,100,50,41,95.27,215,4.00,-1.00,-970.00
2024-06-06 23:48:15.224044,0,0,71,0,0,1,83,86,99,50,41,94.98,215,-1.00,0.00,-968.00
2024-06-06 23:48:15.233008,0,0,71,0,0,1,83,86,98,50,41,95.36,215,7.00,2.00,-981.00
2024-06-06 23:48:15.428842,0,0,71,0,0,1,83,86,97,50,41,95.35,215,5.00,9.00,-977.00
2024-06-06 23:48:15.438729,0,0,71,0,0,1,83,86,96,50,41,95.16,215,5.00,1.00,-987.00
2024-06-06 23:48:15.487045,0,0,71,0,0,1,83,86,95,50,41,95.28,215,-3.00,3.00,-994.00
2024-06-06 23:48:15.639582,0,0,71,0,0,1,84,86,94,50,41,95.40,215,9.00,-5.00,-995.00
2024-06-06 23:48:15.838387,0,0,71,0,0,1,84,86,92,40,41,95.09,215,-5.00,-6.00,-986.00
2024-06-06 23:48:15.838445,0,0,71,0,0,1,84,86,90,40,41,95.21,215,-7.00,2.00,-999.00
2024-06-06 23:48:15.894701,0,0,71,0,0,1,84,86,88,40,41,95.54,216,9.00,-9.00,-992.00
2024-06-06 23:48:16.005814,0,0,71,0,0,1,84,86,87,40,41,95.18,216,2.00,1.00,-1009.00
2024-06-06 23:48:16.098595,0,0,71,0,0,1,84,86,85,40,41,95.13,216,12.00,-6.00,-1010.00
2024-06-06 23:48:16.247977,0,0,71,0,0,1,84,86,84,40,41,94.71,216,8.00,4.00,-1012.00
2024-06-06 23:48:16.302505,0,0,71,0,0,1,84,86,82,40,41,95.01,216,15.00,1.00,-1019.00
2024-06-06 23:48:16.452801,0,0,71,0,0,1,84,86,81,40,41,95.29,216,-3.00,-10.00,-996.00
2024-06-06 23:48:16.506469,0,0,71,0,0,0,84,86,79,40,41,95.05,216,3.00,-6.00,-1003.00
2024-06-06 23:48:16.657521,0,0,71,0,0,0,84,86,78,30,41,95.44,216,13.00,-4.00,-1024.00
2024-06-06 23:48:16.710535,0,0,71,0,0,0,84,86,77,30,41,94.99,216,1.00,0.00,-1013.00
2024-06-06 23:48:16.862323,0,0,71,0,0,0,84,86,76,30,41,95.11,216,10.00,-5.00,-1014.00
2024-06-06 23:48:16.914609,0,0,71,0,0,0,84,86,75,30,41,95.24,217,5.00,-7.00,-1011.00
2024-06-06 23:48:17.067056,0,0,71,0,0,0,84,86,74,30,41,94.77,217,1.00,2.00,-1010.00
2024-06-06 23:48:17.118551,0,0,71,0,0,0,84,86,73,30,41,94.99,217,10.00,-2.00,-1017.00
2024-06-06 23:48:17.275429,0,0,71,0,0,0,84,86,72,30,41,94.94,217,4.00,-2.00,-1008.00
2024-06-06 23:48:17.322539,0,0,71,0,0,0,84,86,72,30,41,95.09,217,3.00,0.00,-1013.00
2024-06-06 23:48:17.476704,0,0,71,0,0,0,84,86,71,30,41,94.87,217,9.00,-9.00,-1006.00
2024-06-06 23:48:17.526768,0,0,71,0,0,0,84,86,71,30,41,94.67,217,7.00,-1.00,-1004.00
2024-06-06 23:48:17.681493,0,0,71,0,0,0,83,85,71,30,41,94.85,217,14.00,-11.00,-1004.00
2024-06-06 23:48:17.733430,0,0,71,0,0,0,83,85,71,30,41,94.88,217,-5.00,3.00,-1015.00
2024-06-06 23:48:17.832381,0,0,71,0,0,0,83,85,70,30,41,94.94,217,8.00,-3.00,-1009.00
2024-06-06 23:48:17.988696,0,0,71,0,0,0,83,85,71,30,41,94.90,218,5.00,3.00,-1012.00
2024-06-06 23:48:18.037117,0,0,71,0,0,0,83,85,71,30,41,95.01,218,3.00,-8.00,-1013.00
2024-06-06 23:48:18.193478,0,0,71,0,0,0,83,85,71,30,41,95.00,218,-3.00,3.00,-996.00
2024-06-06 23:48:18.241136,0,0,71,0,0,0,83,85,71,30,41,94.93,218,7.00,-5.00,-1006.00
2024-06-06 23:48:18.398258,0,0,71,0,0,0,83,85,71,30,41,94.74,218,10.00,-2.00,-1012.00
2024-06-06 23:48:18.446066,0,0,71,0,0,0,83,85,71,30,41,95.22,218,14.00,-1.00,-1009.00
2024-06-06 23:48:18.547020,0,0,71,0,0,0,83,85,71,30,41,95.08,218,-4.00,11.00,-1007.00
2024-06-06 23:48:18.705523,0,0,71,0,0,0,82,85,72,30,41,94.89,218,-1.00,0.00,-997.00
2024-06-06 23:48:18.750945,0,0,71,0,0,0,82,85,72,30,41,95.00,218,11.00,0.00,-1001.00
2024-06-06 23:48:18.910254,0,0,71,0,0,0,82,85,72,30,41,95.03,218,20.00,-11.00,-1010.00
2024-06-06 23:48:18.954463,0,0,71,0,0,0,82,85,72,30,41,95.07,219,4.00,0.00,-1015.00
2024-06-06 23:48:19.057161,0,0,71,0,0,0,82,85,73,30,41,94.92,219,8.00,-5.00,-1002.00
2024-06-06 23:48:19.217438,0,0,71,0,0,0,82,85,73,30,41,95.00,219,7.00,-4.00,-996.00
2024-06-06 23:48:19.217497,0,0,71,0,0,0,82,85,73,30,41,95.32,219,23.00,-10.00,-988.00
2024-06-06 23:48:19.311251,0,0,71,0,0,0,82,85,74,30,41,94.89,219,10.00,-5.00,-995.00
2024-06-06 23:48:19.422948,0,0,71,0,0,0,82,85,74,30,41,94.95,219,10.00,-3.00,-1007.00
2024-06-06 23:48:19.515621,0,0,71,0,0,0,82,85,74,30,41,95.08,219,17.00,-6.00,-993.00
2024-06-06 23:48:19.627034,0,0,71,0,0,0,82,85,74,30,41,94.93,219,11.00,-6.00,-1005.00
2024-06-06 23:48:19.719243,0,0,71,0,0,0,82,85,75,30,41,95.17,219,18.00,-16.00,-992.00
2024-06-06 23:48:19.831844,0,0,71,0,0,0,82,85,75,30,41,95.04,219,10.00,-2.00,-995.00
2024-06-06 23:48:19.923206,0,0,71,0,0,0,82,85,75,30,41,95.17,220,8.00,-8.00,-994.00
2024-06-06 23:48:20.036520,0,0,71,0,0,0,82,85,75,30,41,95.30,220,5.00,6.00,-1000.00
2024-06-06 23:48:20.127218,0,0,71,0,0,0,82,85,75,30,41,94.82,220,5.00,-4.00,-996.00
2024-06-06 23:48:20.241784,0,0,71,0,0,0,82,85,75,30,41,95.43,220,14.00,-1.00,-992.00
2024-06-06 23:48:20.331082,0,0,71,0,0,0,82,85,75,30,41,95.06,220,4.00,-4.00,-985.00
2024-06-06 23:48:20.447044,0,0,71,0,0,0,82,85,75,30,41,94.81,220,-1.00,-1.00,-990.00
2024-06-06 23:48:20.535139,0,0,71,0,0,0,82,85,75,30,41,95.07,220,11.00,-4.00,-1000.00
2024-06-06 23:48:20.650920,0,0,71,0,0,0,82,84,75,30,41,95.09,220,11.00,-7.00,-1006.00
2024-06-06 23:48:20.739212,0,0,71,0,0,0,82,84,75,30,41,95.15,220,2.00,0.00,-1000.00
2024-06-06 23:48:20.858413,0,0,71,0,0,0,82,84,75,30,41,95.09,220,16.00,-4.00,-1008.00
2024-06-06 23:48:20.943213,0,0,71,0,0,0,82,84,75,30,41,95.26,221,10.00,-6.00,-1000.00
2024-06-06 23:48:21.060885,0,0,71,0,0,0,82,84,75,30,41,95.08,221,8.00,0.00,-999.00
2024-06-06 23:48:21.147249,0,0,71,0,0,0,82,84,74,30,41,95.11,221,10.00,-5.00,-1003.00
2024-06-06 23:48:21.265525,0,0,71,0,0,0,82,84,74,30,41,95.07,221,10.00,-3.00,-1006.00
2024-06-06 23:48:21.351292,0,0,71,0,0,0,82,84,75,30,41,95.25,221,6.00,-5.00,-993.00
2024-06-06 23:48:21.470923,0,0,71,0,0,0,82,84,74,30,41,95.18,221,6.00,-7.00,-1001.00
2024-06-06 23:48:21.555724,0,0,71,0,0,0,82,84,74,30,41,95.29,221,5.00,-5.00,-996.00
2024-06-06 23:48:21.675379,0,0,71,0,0,0,82,85,75,30,41,95.11,221,1.00,-6.00,-999.00
2024-06-06 23:48:21.759073,0,0,71,0,0,0,82,85,75,30,41,94.85,221,3.00,-3.00,-1001.00
2024-06-06 23:48:21.880413,0,0,71,0,0,0,82,85,75,30,41,94.93,221,11.00,-11.00,-997.00
2024-06-06 23:48:21.963121,0,0,71,0,0,0,82,85,75,30,41,95.12,222,23.00,-21.00,-1002.00
2024-06-06 23:48:22.065108,0,0,71,0,0,0,82,85,75,30,41,94.75,222,13.00,-1.00,-1003.00
2024-06-06 23:48:22.201249,0,0,71,0,0,0,82,85,75,30,41,95.12,222,2.00,-6.00,-973.00
2024-06-06 23:48:22.343549,0,0,71,0,0,0,82,85,75,30,41,95.08,222,10.00,-7.00,-997.00
2024-06-06 23:48:22.371008,0,0,71,0,0,0,82,85,75,30,41,95.01,222,5.00,-2.00,-1000.00
2024-06-06 23:48:22.475136,0,0,71,0,0,0,82,85,75,30,41,94.99,222,15.00,-17.00,-990.00
2024-06-06 23:48:22.634947,0,0,71,0,0,0,82,85,75,30,41,95.06,222,18.00,-2.00,-1005.00
2024-06-06 23:48:22.696377,0,0,71,0,0,0,82,84,75,30,41,94.85,222,6.00,-21.00,-989.00
2024-06-06 23:48:22.817918,0,0,71,0,0,0,82,84,75,30,41,95.01,222,4.00,-2.00,-997.00
2024-06-06 23:48:22.880933,0,0,71,0,0,0,82,84,75,30,41,94.93,222,-1.00,0.00,-1011.00
2024-06-06 23:48:22.940275,0,0,71,0,0,0,82,84,75,30,41,94.90,223,14.00,-9.00,-1062.00
2024-06-06 23:48:23.037279,0,0,71,0,0,-1,82,84,76,30,41,94.90,223,27.00,-12.00,-1081.00
2024-06-06 23:48:23.242083,0,0,71,0,0,-1,82,84,78,30,41,95.18,223,9.00,-3.00,-1093.00
2024-06-06 23:48:23.242152,1,0,71,0,0,-2,82,84,80,40,41,95.04,223,9.00,-14.00,-1062.00
2024-06-06 23:48:23.442569,0,0,71,0,0,-3,82,84,84,40,41,95.12,223,12.00,-2.00,-1081.00
2024-06-06 23:48:23.442887,0,0,71,0,0,-4,82,84,88,40,41,95.17,223,6.00,-9.00,-1058.00
2024-06-06 23:48:23.586103,0,0,71,0,0,-4,82,84,93,50,41,95.12,223,9.00,4.00,-1050.00
2024-06-06 23:48:23.734464,0,0,71,0,0,-5,82,84,98,50,41,95.35,223,6.00,0.00,-1028.00
2024-06-06 23:48:23.747961,0,0,71,0,0,-5,82,84,103,60,41,95.41,223,1.00,-7.00,-1017.00
2024-06-06 23:48:23.877831,0,0,71,0,0,-5,82,84,109,60,41,95.16,223,27.00,-21.00,-1012.00
2024-06-06 23:48:24.040913,0,0,71,0,0,-5,82,84,115,70,41,95.38,224,0.00,6.00,-997.00
2024-06-06 23:48:24.053858,0,0,71,0,0,-5,82,84,120,70,41,95.53,224,-9.00,1.00,-986.00
2024-06-06 23:48:24.196262,0,0,71,0,0,-5,82,84,125,80,41,95.82,224,4.00,-5.00,-972.00
2024-06-06 23:48:24.261870,0,0,71,0,0,-5,82,84,130,90,41,95.70,224,8.00,-6.00,-978.00
2024-06-06 23:48:24.359940,0,0,71,0,0,-4,82,84,136,90,41,95.50,224,15.00,1.00,-979.00
2024-06-06 23:48:24.542049,0,0,71,0,0,-4,82,84,140,90,41,95.62,224,1.00,3.00,-970.00
2024-06-06 23:48:24.564079,0,0,71,0,0,-4,82,84,145,100,41,95.85,224,6.00,-8.00,-960.00
2024-06-06 23:48:24.746792,0,0,71,0,0,-3,82,83,148,100,41,95.64,224,-2.00,5.00,-971.00
2024-06-06 23:48:24.767744,0,0,71,0,0,-3,82,83,152,110,41,95.84,224,1.00,-7.00,-958.00
2024-06-06 23:48:24.951623,0,0,71,0,0,-3,82,83,155,110,41,95.89,224,6.00,-10.00,-963.00
2024-06-06 23:48:24.971814,0,0,71,0,0,-2,82,83,158,110,41,95.78,225,6.00,-1.00,-983.00
2024-06-06 23:48:25.074462,0,0,71,0,0,-2,82,83,161,120,41,95.77,225,10.00,-6.00,-974.00
2024-06-06 23:48:25.258788,0,0,71,0,0,-2,82,83,162,120,41,95.69,225,6.00,-9.00,-986.00
2024-06-06 23:48:25.277801,0,0,71,0,0,-2,82,83,165,120,41,95.69,225,-9.00,20.00,-988.00
2024-06-06 23:48:25.463579,0,0,71,0,0,-1,82,83,166,120,41,95.77,225,1.00,-7.00,-968.00
2024-06-06 23:48:25.481748,0,0,71,0,0,-1,82,83,167,120,41,96.14,225,-8.00,9.00,-1001.00
2024-06-06 23:48:25.584248,0,0,71,0,0,-1,82,83,170,130,41,96.02,225,0.00,-9.00,-944.00
2024-06-06 23:48:25.771139,0,0,71,0,0,-1,81,83,171,130,41,96.04,225,-3.00,-1.00,-974.00
2024-06-06 23:48:25.787834,0,0,71,0,0,0,81,83,171,130,41,95.96,225,-4.00,8.00,-972.00
2024-06-06 23:48:25.976500,0,0,71,0,0,0,81,83,172,130,41,96.00,225,-1.00,3.00,-989.00
2024-06-06 23:48:25.991775,0,0,71,0,0,0,81,83,172,130,41,96.00,226,9.00,-4.00,-985.00
2024-06-06 23:48:26.180449,0,0,71,0,0,0,81,83,171,130,41,95.80,226,18.00,-4.00,-997.00
2024-06-06 23:48:26.195855,0,0,71,0,0,0,81,83,172,130,41,95.70,226,4.00,-4.00,-994.00
2024-06-06 23:48:26.385228,0,0,71,0,0,0,81,83,172,130,41,95.65,226,15.00,-4.00,-1003.00
2024-06-06 23:48:26.399615,0,0,71,0,0,0,81,83,170,130,41,96.33,226,5.00,5.00,-1001.00
2024-06-06 23:48:26.450959,0,0,71,0,0,0,81,83,171,130,41,95.56,226,15.00,-8.00,-1003.00
2024-06-06 23:48:26.590389,0,0,71,0,0,0,81,83,172,130,41,95.94,226,14.00,-13.00,-995.00
2024-06-06 23:48:26.705747,0,0,71,0,0,0,81,83,171,130,41,95.93,226,3.00,11.00,-1013.00
2024-06-06 23:48:26.756665,1,0,71,0,0,0,81,83,170,130,41,95.97,226,6.00,-7.00,-1000.00
2024-06-06 23:48:26.897948,0,0,71,0,0,0,81,83,172,130,41,95.87,226,25.00,-1.00,-1007.00
2024-06-06 23:48:26.960906,0,0,71,0,0,0,81,83,171,130,41,95.80,227,2.00,5.00,-999.00
2024-06-06 23:48:27.063816,0,0,71,0,0,0,81,83,171,130,41,95.96,227,2.00,-2.00,-990.00
2024-06-06 23:48:27.164597,0,0,71,0,0,0,81,83,172,130,41,95.96,227,21.00,-11.00,-1002.00
2024-06-06 23:48:27.267856,0,0,71,0,0,0,81,83,172,130,41,95.84,227,13.00,-1.00,-1000.00
2024-06-06 23:48:27.409174,0,0,71,0,0,0,81,83,173,130,41,95.79,227,0.00,1.00,-997.00
2024-06-06 23:48:27.470852,0,0,71,0,0,0,81,83,172,130,41,95.79,227,11.00,-14.00,-995.00
2024-06-06 23:48:27.572430,0,0,71,0,0,0,81,83,171,130,41,96.01,227,18.00,-15.00,-992.00
2024-06-06 23:48:27.716320,0,0,71,0,0,0,82,83,172,130,41,95.73,227,3.00,10.00,-991.00
2024-06-06 23:48:27.778085,0,0,71,0,0,0,82,83,170,130,41,95.75,227,1.00,7.00,-963.00
2024-06-06 23:48:27.878660,0,0,71,0,0,0,82,83,171,130,41,95.73,227,9.00,-6.00,-954.00
2024-06-06 23:48:28.015835,0,0,71,0,0,0,82,83,171,130,41,95.73,228,11.00,-4.00,-954.00
2024-06-06 23:48:28.082443,0,0,71,0,0,1,82,83,169,130,41,95.63,228,9.00,0.00,-964.00
2024-06-06 23:48:28.228182,0,0,71,0,0,1,82,83,167,120,41,95.58,228,7.00,0.00,-970.00
2024-06-06 23:48:28.286387,0,0,71,0,0,2,82,83,163,120,41,95.85,228,4.00,11.00,-982.00
2024-06-06 23:48:28.435283,0,0,71,0,0,2,82,83,162,120,41,95.76,228,-5.00,10.00,-975.00
2024-06-06 23:48:28.491313,0,0,71,0,0,2,82,83,159,120,41,95.91,228,17.00,-19.00,-987.00
2024-06-06 23:48:28.637797,0,0,71,0,0,2,82,83,156,110,41,95.81,228,-1.00,0.00,-1001.00
2024-06-06 23:48:28.694491,0,0,71,0,0,2,80,83,154,110,41,95.56,228,8.00,0.00,-1013.00
2024-06-06 23:48:28.842624,0,0,71,0,0,2,80,83,150,110,41,95.74,228,-8.00,6.00,-1011.00
2024-06-06 23:48:28.898677,0,0,71,0,0,2,80,83,148,110,41,95.77,228,4.00,-9.00,-1009.00
2024-06-06 23:48:29.047427,0,0,71,0,0,2,80,83,145,100,41,95.57,229,5.00,-9.00,-997.00
2024-06-06 23:48:29.107336,0,0,71,0,0,2,80,83,143,100,41,95.58,229,8.00,-8.00,-1019.00
2024-06-06 23:48:29.206977,0,0,71,0,0,2,80,83,140,100,41,95.49,229,9.00,-7.00,-1009.00
2024-06-06 23:48:29.307406,0,0,71,0,0,2,80,83,138,100,41,95.27,229,14.00,-8.00,-1011.00
2024-06-06 23:48:29.408530,0,0,71,0,0,2,80,83,136,90,41,95.23,229,12.00,-6.00,-1030.00
2024-06-06 23:48:29.515613,0,0,71,0,0,1,80,83,135,90,41,95.49,229,6.00,-10.00,-1017.00
2024-06-06 23:48:29.612353,0,0,71,0,0,1,80,83,132,90,41,95.59,229,1.00,-10.00,-1007.00
2024-06-06 23:48:29.764165,0,0,71,0,0,1,81,83,131,90,41,95.25,229,8.00,-12.00,-1016.00
2024-06-06 23:48:29.816615,0,0,71,0,0,1,81,83,130,90,41,95.66,229,3.00,-1.00,-1014.00
2024-06-06 23:48:29.968949,0,0,71,0,0,1,81,83,128,90,41,95.36,229,-5.00,-1.00,-1008.00
2024-06-06 23:48:30.020259,0,0,71,0,0,1,81,83,127,80,41,95.35,230,15.00,-13.00,-1007.00
2024-06-06 23:48:30.122449,0,0,71,0,0,1,81,83,126,80,41,95.23,230,16.00,-21.00,-1008.00
2024-06-06 23:48:30.276260,0,0,71,0,0,0,81,83,126,80,41,95.48,230,0.00,-11.00,-1015.00
2024-06-06 23:48:30.276393,0,0,71,0,0,0,81,83,126,80,41,95.70,230,10.00,-2.00,-1027.00
2024-06-06 23:48:30.378606,0,0,71,0,0,0,81,83,125,80,41,95.46,230,2.00,-11.00,-1008.00
2024-06-06 23:48:30.481465,0,0,71,0,0,0,81,83,125,80,41,95.51,230,9.00,-4.00,-1011.00
2024-06-06 23:48:30.581458,0,0,71,0,0,0,81,83,126,80,41,95.64,230,2.00,0.00,-997.00
2024-06-06 23:48:30.734216,0,0,71,0,0,0,81,83,125,80,41,95.51,230,5.00,-18.00,-984.00
2024-06-06 23:48:30.785394,0,0,71,0,0,0,81,83,125,80,41,95.28,230,14.00,-6.00,-1004.00
2024-06-06 23:48:30.891002,0,0,71,0,0,0,81,83,125,80,41,95.42,231,18.00,-10.00,-1007.00
2024-06-06 23:48:30.989415,0,0,71,0,0,0,81,83,125,80,41,95.34,231,1.00,5.00,-1001.00
2024-06-06 23:48:31.091445,0,0,71,0,0,0,81,83,125,80,41,95.36,231,12.00,-9.00,-994.00
2024-06-06 23:48:31.198004,0,0,71,0,0,0,81,83,126,80,41,95.34,231,0.00,2.00,-1002.00
2024-06-06 23:48:31.295875,0,0,71,0,0,0,81,83,126,80,41,95.30,231,2.00,1.00,-1003.00
2024-06-06 23:48:31.402635,0,0,71,0,0,0,81,83,126,80,41,95.48,231,0.00,-6.00,-980.00
2024-06-06 23:48:31.499945,0,0,71,0,0,0,81,83,126,80,41,95.55,231,4.00,-9.00,-1000.00
2024-06-06 23:48:31.607328,0,0,71,0,0,0,81,83,126,80,41,95.55,231,12.00,-9.00,-1002.00
2024-06-06 23:48:31.706850,0,0,71,0,0,0,81,82,126,80,41,95.45,231,0.00,6.00,-994.00
2024-06-06 23:48:31.805260,0,0,71,0,0,0,81,82,126,80,41,95.48,231,0.00,-3.00,-999.00
2024-06-06 23:48:31.914978,0,0,71,0,0,0,81,82,127,80,41,95.35,232,0.00,-13.00,-985.00
2024-06-06 23:48:32.009348,0,0,71,0,0,0,81,82,127,80,41,95.67,232,8.00,-11.00,-992.00
2024-06-06 23:48:32.111142,0,0,71,0,0,0,81,82,127,80,41,95.32,232,10.00,-5.00,-993.00
2024-06-06 23:48:32.221663,0,0,71,0,0,0,81,82,128,80,41,95.30,232,18.00,-9.00,-994.00
2024-06-06 23:48:32.315232,-6,0,71,0,0,0,81,82,128,80,41,95.19,232,5.00,-4.00,-1000.00
2024-06-06 23:48:32.426847,-6,0,71,0,1,0,81,82,129,80,41,95.71,232,-19.00,4.00,-1017.00
2024-06-06 23:48:32.519159,-6,0,71,1,2,0,81,82,128,80,41,95.42,232,12.00,-2.00,-977.00
2024-06-06 23:48:32.631254,-5,0,71,1,3,0,81,82,127,80,41,95.52,232,2.00,0.00,-996.00
2024-06-06 23:48:32.723408,-5,0,71,1,4,0,81,83,128,80,41,95.33,232,-27.00,2.00,-1008.00
2024-06-06 23:48:32.836035,-5,0,71,1,5,0,81,83,128,80,41,95.28,232,-34.00,-9.00,-1001.00
2024-06-06 23:48:32.927095,-4,0,71,2,5,0,81,83,128,80,41,95.25,233,-18.00,-7.00,-1018.00
2024-06-06 23:48:33.044824,-4,0,71,2,6,0,81,83,128,80,41,95.23,233,-37.00,0.00,-998.00
2024-06-06 23:48:33.130994,-4,0,71,2,6,0,81,83,128,80,41,95.12,233,-37.00,-1.00,-997.00
2024-06-06 23:48:33.245642,-1,0,71,2,6,0,81,83,128,80,41,95.51,233,-49.00,2.00,-998.00
2024-06-06 23:48:33.335067,1,0,71,2,6,0,81,83,128,80,41,95.18,233,-32.00,-14.00,-1001.00
2024-06-06 23:48:33.450402,2,0,71,1,5,0,81,83,128,80,41,95.16,233,-40.00,-5.00,-1007.00
2024-06-06 23:48:33.539066,3,0,71,1,4,0,81,83,127,80,41,95.33,233,-31.00,-4.00,-989.00
2024-06-06 23:48:33.655115,2,0,71,1,3,0,81,83,128,80,41,95.37,233,-21.00,-12.00,-1008.00
2024-06-06 23:48:33.743283,1,0,71,1,3,0,80,83,128,80,41,95.67,233,-12.00,-2.00,-998.00
2024-06-06 23:48:33.860304,1,0,71,0,3,0,80,83,128,80,41,95.51,233,-21.00,-4.00,-994.00
2024-06-06 23:48:33.947369,0,0,71,0,3,0,80,83,128,80,41,95.24,234,-10.00,-15.00,-976.00
2024-06-06 23:48:34.049083,0,0,71,0,3,0,80,83,128,80,41,95.42,234,-11.00,-14.00,-997.00
2024-06-06 23:48:34.167679,1,2,71,0,2,0,80,83,128,80,41,95.47,234,-20.00,2.00,-988.00
2024-06-06 23:48:34.253032,1,1,71,0,2,0,80,83,127,80,41,95.43,234,-3.00,-16.00,-1001.00
2024-06-06 23:48:34.303860,1,0,71,0,2,0,80,83,127,80,41,95.25,234,-15.00,-2.00,-993.00
2024-06-06 23:48:34.474360,4,0,71,0,2,0,80,83,127,80,41,95.13,234,-16.00,-16.00,-1005.00
2024-06-06 23:48:34.510718,4,0,71,0,1,0,80,83,128,80,41,95.58,234,-7.00,-5.00,-1028.00
2024-06-06 23:48:34.609827,2,0,71,0,0,0,80,83,127,80,41,95.21,234,10.00,-10.00,-990.00
2024-06-06 23:48:34.781629,1,0,71,0,0,0,80,83,126,80,41,95.30,234,1.00,0.00,-1004.00
2024-06-06 23:48:34.816092,0,0,71,0,0,0,80,83,127,80,41,95.26,234,-5.00,0.00,-1008.00
2024-06-06 23:48:34.915962,0,0,71,0,0,0,80,83,127,80,41,95.53,235,7.00,-9.00,-989.00
2024-06-06 23:48:35.088849,1,0,71,0,0,0,80,83,127,80,41,95.26,235,4.00,-12.00,-1008.00
2024-06-06 23:48:35.123763,1,0,71,0,0,0,80,83,127,80,41,95.24,235,17.00,-9.00,-1002.00
2024-06-06 23:48:35.223929,1,0,71,0,0,0,80,83,126,80,41,95.41,235,0.00,0.00,-1017.00
2024-06-06 23:48:35.324648,1,0,71,0,0,0,80,83,126,80,41,95.07,235,1.00,-11.00,-1000.00
2024-06-06 23:48:35.427790,0,0,71,0,0,0,80,83,126,80,41,95.39,235,6.00,-3.00,-991.00
2024-06-06 23:48:35.532980,0,0,71,0,0,0,80,83,127,80,41,95.42,235,-3.00,-5.00,-995.00
2024-06-06 23:48:35.630559,0,0,71,0,0,0,80,83,127,80,41,95.30,235,9.00,-1.00,-1007.00
2024-06-06 23:48:35.807593,0,0,71,0,0,0,80,82,127,80,41,95.28,235,2.00,0.00,-1003.00
2024-06-06 23:48:35.833611,0,0,71,0,0,0,80,82,127,80,41,95.19,235,1.00,0.00,-998.00
2024-06-06 23:48:36.010476,0,0,71,0,0,0,80,82,127,80,41,95.41,236,9.00,0.00,-995.00
2024-06-06 23:48:36.037762,0,0,71,0,0,0,80,82,127,80,41,95.37,236,13.00,-3.00,-992.00
2024-06-06 23:48:36.215220,0,0,71,0,0,0,80,82,128,80,41,95.18,236,7.00,0.00,-993.00
2024-06-06 23:48:36.241730,0,0,71,0,0,0,80,82,127,80,41,95.07,236,1.00,-1.00,-1006.00
2024-06-06 23:48:36.420366,0,0,71,0,0,0,80,82,127,80,41,95.26,236,0.00,-1.00,-991.00
2024-06-06 23:48:36.453755,0,0,71,0,0,0,80,82,127,80,41,95.45,236,16.00,1.00,-984.00
2024-06-06 23:48:36.547795,0,0,71,0,0,0,80,82,127,80,41,95.51,236,7.00,-10.00,-988.00
2024-06-06 23:48:36.727450,0,0,71,0,0,0,80,82,127,80,41,95.34,236,6.00,4.00,-1005.00
2024-06-06 23:48:36.751720,0,0,71,0,0,0,80,82,127,80,41,95.37,236,16.00,-9.00,-994.00
2024-06-06 23:48:36.854244,0,0,71,0,0,0,80,82,126,80,41,95.26,236,3.00,-2.00,-1002.00
2024-06-06 23:48:37.111721,0,0,71,0,0,0,80,82,127,80,41,95.63,237,15.00,0.00,-992.00
2024-06-06 23:48:37.111798,4,0,71,0,0,0,80,82,127,80,41,95.30,237,0.00,-7.00,-1000.00
2024-06-06 23:48:37.254061,6,0,71,0,-1,0,80,82,126,80,41,95.36,237,0.00,9.00,-1015.00
2024-06-06 23:48:37.261544,7,0,71,0,-2,0,80,82,126,80,41,95.37,237,24.00,-16.00,-997.00
2024-06-06 23:48:37.444327,7,0,71,-1,-3,0,80,82,125,80,41,95.16,237,27.00,-18.00,-1009.00
2024-06-06 23:48:37.527027,7,0,71,-1,-4,0,80,82,127,80,41,95.46,237,33.00,-10.00,-1006.00
2024-06-06 23:48:37.614045,6,0,71,-1,-4,0,80,82,126,80,41,95.53,237,39.00,-8.00,-1000.00
2024-06-06 23:48:37.704102,6,0,71,-1,-5,0,80,82,126,80,41,95.48,237,48.00,-7.00,-1002.00
2024-06-06 23:48:37.781087,6,0,71,-1,-6,0,80,82,127,80,41,95.19,237,46.00,-5.00,-997.00
2024-06-06 23:48:37.986788,5,0,71,-2,-6,0,80,82,126,80,41,95.39,237,59.00,-13.00,-987.00
2024-06-06 23:48:37.986864,4,0,71,-2,-6,0,80,82,126,80,41,95.10,238,56.00,-9.00,-1004.00
2024-06-06 23:48:38.187428,2,0,71,-2,-6,0,80,82,126,80,41,95.31,238,55.00,-8.00,-998.00
2024-06-06 23:48:38.187502,0,0,71,-2,-6,0,80,82,127,80,41,95.35,238,62.00,-3.00,-1005.00
2024-06-06 23:48:38.330910,-1,0,71,-1,-5,0,80,82,127,80,41,95.22,238,61.00,-15.00,-1001.00
2024-06-06 23:48:38.332640,-2,0,71,-1,-4,0,80,82,126,80,41,95.16,238,53.00,-16.00,-1001.00
2024-06-06 23:48:38.478621,-1,0,71,-1,-3,0,80,82,126,80,41,95.53,238,43.00,3.00,-1001.00
2024-06-06 23:48:38.621968,0,0,71,-1,-3,0,80,82,127,80,41,95.09,238,45.00,-7.00,-1007.00
2024-06-06 23:48:38.638558,0,0,71,-1,-3,0,80,82,126,80,41,95.09,238,31.00,-3.00,-1009.00
2024-06-06 23:48:38.785888,0,0,71,-1,-3,0,80,81,126,80,41,95.15,238,30.00,-6.00,-987.00
2024-06-06 23:48:38.941241,0,0,71,-1,-2,0,80,81,126,80,41,95.23,238,30.00,-5.00,-1007.00
2024-06-06 23:48:38.944517,0,0,71,-1,-2,0,80,81,127,80,41,95.27,239,30.00,-9.00,-984.00
2024-06-06 23:48:39.076268,0,-1,71,0,-2,0,80,81,127,80,41,95.38,239,26.00,-16.00,-1003.00
2024-06-06 23:48:39.148417,0,0,71,0,-2,0,80,81,127,80,41,95.26,239,22.00,7.00,-1004.00
2024-06-06 23:48:39.290008,-1,0,71,0,-2,0,80,81,127,80,41,94.94,239,19.00,1.00,-1009.00
2024-06-06 23:48:39.352496,-3,1,71,0,-1,0,80,81,127,80,41,95.34,239,24.00,-10.00,-969.00
2024-06-06 23:48:39.491698,-1,1,71,0,0,0,80,81,127,80,41,95.37,239,10.00,0.00,-1014.00
2024-06-06 23:48:39.556666,0,0,71,0,0,0,80,81,127,80,41,95.20,239,11.00,-6.00,-1003.00
2024-06-06 23:48:39.658600,0,0,71,0,0,0,80,81,127,80,41,95.34,239,3.00,-3.00,-997.00
2024-06-06 23:48:39.799072,0,0,71,0,0,0,79,82,127,80,41,95.45,239,15.00,-9.00,-998.00
2024-06-06 23:48:39.862641,0,0,71,0,0,0,79,82,127,80,41,95.20,239,9.00,-3.00,-997.00
2024-06-06 23:48:40.003736,0,0,71,0,0,0,79,82,127,80,41,94.97,240,10.00,-14.00,-983.00
2024-06-06 23:48:40.066585,0,0,71,0,0,0,79,82,127,80,41,95.27,240,15.00,-9.00,-991.00
2024-06-06 23:48:40.208683,0,0,71,0,0,0,79,82,128,80,40,95.39,240,-5.00,12.00,-1002.00
2024-06-06 23:48:40.270797,0,0,71,0,0,0,79,82,127,80,40,95.44,240,10.00,-9.00,-1004.00
2024-06-06 23:48:40.413850,0,0,71,0,0,0,79,82,127,80,40,95.34,240,14.00,-4.00,-1006.00
2024-06-06 23:48:40.474960,0,0,71,0,0,0,79,82,127,80,40,95.12,240,0.00,-9.00,-980.00
2024-06-06 23:48:40.578529,0,0,71,0,0,0,79,82,127,80,40,95.47,240,14.00,-5.00,-994.00
2024-06-06 23:48:40.678520,0,0,71,0,0,0,79,82,127,80,40,95.61,240,0.00,-3.00,-998.00
2024-06-06 23:48:40.822974,1,0,71,0,0,0,80,82,127,80,40,95.42,240,24.00,-10.00,-1005.00
2024-06-06 23:48:40.882612,0,0,71,0,0,0,80,82,127,80,40,95.24,240,6.00,-3.00,-1003.00
2024-06-06 23:48:41.027818,0,0,71,0,0,0,80,82,127,80,40,95.36,241,11.00,0.00,-1005.00
2024-06-06 23:48:41.086421,0,0,71,0,0,0,80,82,126,80,40,95.37,241,8.00,-1.00,-1002.00
2024-06-06 23:48:41.232722,0,0,71,0,0,0,80,82,126,80,40,95.11,241,13.00,-5.00,-996.00
2024-06-06 23:48:41.290743,0,0,71,0,0,0,80,82,126,80,40,95.58,241,0.00,-1.00,-999.00
2024-06-06 23:48:41.437738,0,0,71,0,0,0,80,82,126,80,40,95.39,241,8.00,1.00,-1002.00
2024-06-06 23:48:41.494381,0,0,71,0,0,0,80,82,126,80,40,95.06,241,20.00,-8.00,-1011.00
2024-06-06 23:48:41.611110,0,0,71,0,0,0,80,82,126,80,40,95.41,241,11.00,-8.00,-999.00
2024-06-06 23:48:41.647194,0,0,71,0,0,0,80,82,126,80,40,95.43,241,3.00,0.00,-996.00
2024-06-06 23:48:41.847171,0,0,71,0,0,0,79,82,125,80,40,95.66,241,2.00,2.00,-980.00
2024-06-06 23:48:41.902525,0,-5,71,0,0,0,79,82,127,80,40,95.20,241,11.00,-19.00,-1037.00
2024-06-06 23:48:41.953171,0,-7,71,1,0,0,79,82,125,80,40,95.24,242,14.00,-6.00,-1008.00
2024-06-06 23:48:42.154314,0,-5,71,2,0,0,79,82,125,80,40,95.17,242,3.00,15.00,-1015.00
2024-06-06 23:48:42.157230,0,-3,71,3,-1,0,79,82,125,80,39,95.33,242,9.00,7.00,-997.00
2024-06-06 23:48:42.259969,1,0,71,3,-1,0,79,82,125,80,39,95.37,242,14.00,21.00,-1002.00
2024-06-06 23:48:42.361116,1,0,71,3,-1,0,79,82,124,80,39,95.25,242,-1.00,18.00,-1006.00
2024-06-06 23:48:42.464450,0,0,71,2,0,0,79,82,125,80,39,95.17,242,10.00,11.00,-1002.00
2024-06-06 23:48:42.565020,0,0,71,2,0,0,79,82,125,80,39,95.48,242,17.00,5.00,-999.00
2024-06-06 23:48:42.768988,0,0,71,2,0,0,79,82,125,80,39,94.94,242,11.00,11.00,-1002.00
2024-06-06 23:48:42.769180,0,0,71,2,0,0,80,82,125,80,39,95.00,242,15.00,9.00,-1008.00
2024-06-06 23:48:42.871513,0,0,71,2,0,0,80,82,125,80,39,95.15,242,4.00,4.00,-995.00
2024-06-06 23:48:42.973384,1,0,71,2,0,0,80,82,125,80,39,95.39,243,3.00,10.00,-997.00
2024-06-06 23:48:43.075265,1,0,71,2,-1,0,80,82,125,80,39,95.11,243,11.00,-7.00,-987.00
2024-06-06 23:48:43.178442,1,0,71,2,-1,0,80,82,125,80,39,95.27,243,21.00,0.00,-989.00
2024-06-06 23:48:43.280576,0,0,71,2,-1,0,80,82,125,80,39,95.46,243,6.00,-2.00,-996.00
2024-06-06 23:48:43.381115,-1,0,71,2,0,0,80,82,126,80,39,95.21,243,12.00,8.00,-983.00
2024-06-06 23:48:43.483104,-1,0,71,2,0,0,80,82,126,80,39,95.44,243,5.00,10.00,-1002.00
2024-06-06 23:48:43.588376,0,2,71,2,0,0,80,82,126,80,39,95.25,243,15.00,1.00,-978.00
2024-06-06 23:48:43.687006,1,5,71,1,0,0,80,82,126,80,39,95.42,243,8.00,-4.00,-997.00
2024-06-06 23:48:43.793323,1,2,71,0,0,0,79,82,126,80,39,95.32,243,-2.00,-4.00,-1003.00
2024-06-06 23:48:43.891094,0,1,71,0,0,0,79,82,127,80,39,95.24,243,14.00,-6.00,-1002.00
2024-06-06 23:48:43.998100,0,0,71,0,0,0,79,82,127,80,39,95.19,244,8.00,-5.00,-997.00
2024-06-06 23:48:44.101959,0,0,71,0,0,0,79,82,127,80,39,95.19,244,8.00,-4.00,-1006.00
2024-06-06 23:48:44.197047,0,0,71,0,0,0,79,82,127,80,38,95.54,244,4.00,-1.00,-989.00
2024-06-06 23:48:44.304320,0,1,71,0,0,0,79,82,127,80,38,95.10,244,14.00,-4.00,-995.00
2024-06-06 23:48:44.402039,0,0,71,0,0,0,79,82,127,80,38,95.32,244,20.00,-14.00,-991.00
2024-06-06 23:48:44.509171,0,0,71,0,0,0,79,82,127,80,38,95.01,244,0.00,-4.00,-1002.00
2024-06-06 23:48:44.605152,0,0,71,0,0,0,79,82,127,80,38,95.38,244,21.00,-12.00,-997.00
2024-06-06 23:48:44.713927,0,0,71,0,0,0,79,82,127,80,38,95.37,244,21.00,-10.00,-1002.00
2024-06-06 23:48:44.809046,0,0,71,0,0,0,79,82,127,80,38,95.51,244,19.00,-11.00,-1004.00
2024-06-06 23:48:44.919543,0,0,71,0,0,0,79,82,127,80,38,95.21,244,5.00,-14.00,-1002.00
2024-06-06 23:48:45.013025,0,0,71,0,0,0,79,82,127,80,38,95.37,245,3.00,0.00,-1001.00
2024-06-06 23:48:45.123878,0,0,71,0,0,0,79,82,127,80,38,94.73,245,0.00,-8.00,-989.00
2024-06-06 23:48:45.217111,0,0,71,0,0,0,79,82,127,80,38,95.31,245,11.00,-12.00,-997.00
2024-06-06 23:48:45.329410,0,0,71,0,0,0,79,82,127,80,38,95.18,245,13.00,-8.00,-997.00
2024-06-06 23:48:45.421623,0,0,71,0,0,0,79,82,127,80,38,95.28,245,19.00,-8.00,-1010.00
2024-06-06 23:48:45.472012,0,0,71,0,0,0,79,82,126,80,38,95.20,245,23.00,-20.00,-1007.00
2024-06-06 23:48:45.574924,0,0,71,0,0,0,79,82,127,80,38,95.27,245,17.00,-7.00,-994.00
2024-06-06 23:48:45.738521,0,0,71,0,0,0,79,82,127,80,38,95.26,245,11.00,-14.00,-984.00
2024-06-06 23:48:45.779245,0,0,71,0,0,0,79,81,128,80,38,95.39,245,-5.00,0.00,-998.00
2024-06-06 23:48:45.880825,0,0,71,0,0,0,79,81,127,80,38,95.20,245,8.00,0.00,-998.00
2024-06-06 23:48:46.057153,0,0,71,0,0,0,79,81,127,80,38,95.21,246,3.00,-1.00,-1005.00
2024-06-06 23:48:46.084626,0,6,71,0,0,0,79,81,128,80,38,95.09,246,11.00,3.00,-1003.00
2024-06-06 23:48:46.249874,0,6,71,-1,0,0,79,81,127,80,38,95.31,246,12.00,-17.00,-996.00
2024-06-06 23:48:46.288715,0,5,71,-2,0,0,79,81,128,80,38,95.18,246,13.00,-20.00,-1005.00
2024-06-06 23:48:46.455134,0,4,71,-3,1,0,79,81,127,80,38,95.30,246,11.00,-36.00,-998.00
2024-06-06 23:48:46.492739,0,1,71,-3,1,0,79,81,128,80,38,95.36,246,10.00,-45.00,-1002.00
2024-06-06 23:48:46.594757,0,0,71,-3,1,0,79,81,127,80,38,95.33,246,0.00,-23.00,-996.00
2024-06-06 23:48:46.762045,0,0,71,-2,1,0,79,81,127,80,38,95.23,246,17.00,-19.00,-999.00
2024-06-06 23:48:46.798656,1,1,71,-2,0,0,79,81,127,80,38,95.21,246,12.00,-23.00,-993.00
2024-06-06 23:48:46.969270,0,1,71,-2,0,0,79,81,127,80,38,95.30,247,5.00,-19.00,-984.00
2024-06-06 23:48:47.003104,1,1,71,-2,0,0,79,81,127,80,38,95.38,247,4.00,-22.00,-991.00
2024-06-06 23:48:47.171333,1,0,71,-2,0,0,79,81,127,80,38,94.99,247,16.00,-23.00,-1004.00
2024-06-06 23:48:47.206606,2,0,71,-2,0,0,79,81,127,80,38,95.35,247,12.00,-22.00,-996.00
2024-06-06 23:48:47.376182,1,0,71,-2,0,0,79,81,126,80,38,95.47,247,5.00,-11.00,-990.00
2024-06-06 23:48:47.410642,1,0,71,-2,0,0,79,81,126,80,38,95.33,247,17.00,-29.00,-1012.00
2024-06-06 23:48:47.581395,1,0,71,-2,0,0,79,81,126,80,38,94.75,247,11.00,-24.00,-988.00
2024-06-06 23:48:47.614704,0,0,71,-2,0,0,79,81,126,80,38,94.94,247,24.00,-29.00,-988.00
2024-06-06 23:48:47.785957,0,-3,71,-2,0,0,79,81,125,80,38,95.08,247,16.00,-16.00,-1004.00
2024-06-06 23:48:47.818943,0,-3,71,-1,0,0,80,82,126,80,38,95.35,247,14.00,-17.00,-1013.00
2024-06-06 23:48:47.990550,0,-1,71,0,0,0,80,82,125,80,38,94.71,248,13.00,-5.00,-1003.00
2024-06-06 23:48:48.022779,0,0,71,0,0,0,80,82,125,80,38,95.24,248,16.00,-11.00,-1002.00
2024-06-06 23:48:48.195487,0,0,71,0,0,0,80,82,125,80,38,95.40,248,28.00,-12.00,-999.00
2024-06-06 23:48:48.226630,0,0,71,0,0,0,80,82,125,80,37,95.09,248,27.00,-33.00,-998.00
2024-06-06 23:48:48.328646,0,0,71,0,0,0,80,82,125,80,37,95.26,248,19.00,-8.00,-1006.00
2024-06-06 23:48:48.430700,0,0,71,0,0,0,80,82,125,80,37,95.22,248,12.00,-13.00,-1006.00
2024-06-06 23:48:48.532748,0,0,71,0,0,0,80,82,125,80,37,95.10,248,4.00,1.00,-1003.00
2024-06-06 23:48:48.635358,0,0,71,0,0,0,80,82,125,80,37,95.18,248,7.00,-13.00,-1002.00
2024-06-06 23:48:48.737285,0,0,71,0,0,0,80,82,125,80,37,95.16,248,4.00,5.00,-1008.00
2024-06-06 23:48:48.912888,0,0,71,0,0,0,79,81,125,80,37,95.10,248,-1.00,3.00,-1015.00
2024-06-06 23:48:48.940626,0,0,71,0,0,0,79,81,125,80,37,95.20,249,7.00,-10.00,-1002.00
2024-06-06 23:48:49.117413,0,0,71,0,0,0,79,81,125,80,37,95.29,249,-1.00,-4.00,-998.00
2024-06-06 23:48:49.144742,0,0,71,0,0,0,79,81,125,80,37,95.20,249,16.00,-7.00,-1006.00
2024-06-06 23:48:49.322402,0,0,71,0,0,0,79,81,125,80,37,95.34,249,18.00,-6.00,-986.00
2024-06-06 23:48:49.349765,0,0,71,0,0,0,79,81,125,80,37,95.41,249,10.00,-1.00,-996.00
2024-06-06 23:48:49.527351,0,0,71,0,0,0,79,81,126,80,37,95.39,249,25.00,-8.00,-997.00
2024-06-06 23:48:49.530420,0,0,71,0,0,0,79,81,125,80,37,95.21,249,20.00,-3.00,-989.00
2024-06-06 23:48:49.603685,0,0,71,0,0,0,79,81,125,80,37,95.42,249,28.00,-10.00,-994.00
2024-06-06 23:48:49.732817,0,0,71,0,0,0,79,81,124,80,37,95.30,249,11.00,-1.00,-987.00
2024-06-06 23:48:49.807735,0,0,71,0,0,0,79,81,125,80,37,95.27,249,6.00,7.00,-1011.00
2024-06-06 23:48:49.936391,0,0,71,0,0,0,79,81,125,80,37,95.06,250,2.00,7.00,-997.00
2024-06-06 23:48:50.013467,0,0,71,0,0,0,79,81,125,80,37,95.08,250,13.00,-6.00,-995.00
2024-06-06 23:48:50.113822,0,0,72,0,0,0,79,81,125,80,37,95.32,250,47.00,-31.00,-1005.00
2024-06-06 23:48:50.244257,0,0,78,0,0,0,79,81,125,80,37,95.49,250,11.00,-7.00,-987.00
2024-06-06 23:48:50.318121,0,0,84,0,0,0,79,81,125,80,37,95.22,250,13.00,0.00,-1019.00
2024-06-06 23:48:50.448232,0,0,90,0,0,0,79,81,125,80,37,95.06,250,13.00,-6.00,-1006.00
2024-06-06 23:48:50.523326,0,0,96,0,0,0,79,81,125,80,37,95.07,250,-8.00,11.00,-1013.00
2024-06-06 23:48:50.624221,0,0,102,0,0,0,79,81,125,80,37,95.10,250,17.00,-13.00,-1010.00
2024-06-06 23:48:50.725969,0,0,108,0,0,0,79,81,125,80,37,95.14,250,6.00,-3.00,-1001.00
2024-06-06 23:48:50.857546,0,0,114,0,0,0,79,81,125,80,37,95.35,250,5.00,0.00,-994.00
2024-06-06 23:48:50.929375,0,0,120,0,0,0,79,81,125,80,37,95.44,251,10.00,-1.00,-1004.00
2024-06-06 23:48:51.062450,0,0,127,0,0,0,79,81,125,80,37,95.52,251,9.00,-9.00,-988.00
2024-06-06 23:48:51.133816,0,0,133,0,0,0,79,81,125,80,37,95.42,251,-3.00,2.00,-1004.00
2024-06-06 23:48:51.267202,0,0,139,0,0,0,79,81,125,80,37,94.97,251,19.00,-7.00,-1006.00
2024-06-06 23:48:51.337437,0,0,145,0,0,0,79,81,125,80,37,95.32,251,-2.00,-5.00,-997.00
2024-06-06 23:48:51.472323,0,0,151,0,0,0,79,81,126,80,37,95.35,251,10.00,-5.00,-1004.00
2024-06-06 23:48:51.541809,0,0,157,0,0,0,79,81,126,80,37,95.42,251,3.00,0.00,-996.00
2024-06-06 23:48:51.676840,0,0,163,0,0,0,79,81,125,80,37,95.19,251,7.00,5.00,-1013.00
2024-06-06 23:48:51.746098,0,0,169,0,0,0,79,81,126,80,37,95.22,251,-2.00,-3.00,-978.00
2024-06-06 23:48:51.881618,0,0,175,0,0,0,79,82,125,80,37,95.31,251,14.00,-8.00,-1004.00
2024-06-06 23:48:51.950078,0,0,-178,0,0,0,79,82,125,80,37,95.27,252,6.00,-2.00,-999.00
2024-06-06 23:48:52.086660,0,0,-172,0,0,0,79,82,125,80,37,95.14,252,4.00,2.00,-1007.00
2024-06-06 23:48:52.179837,0,0,-166,0,0,0,79,82,125,80,36,95.39,252,-6.00,0.00,-994.00
2024-06-06 23:48:52.272050,0,0,-160,0,0,0,79,82,125,80,36,95.22,252,13.00,-7.00,-1002.00
2024-06-06 23:48:52.359977,0,0,-154,0,0,0,79,82,124,80,36,95.12,252,11.00,5.00,-1008.00
2024-06-06 23:48:52.460422,0,0,-148,0,0,0,79,82,125,80,36,95.19,252,0.00,0.00,-1001.00
2024-06-06 23:48:52.916530,0,0,-142,0,0,0,79,82,124,80,36,95.18,252,6.00,-8.00,-1006.00
2024-06-06 23:48:52.916742,0,0,-136,0,0,0,79,82,124,80,36,95.36,252,18.00,-5.00,-1005.00
2024-06-06 23:48:52.917209,0,0,-130,0,0,0,79,82,124,80,36,95.12,252,3.00,0.00,-1007.00
2024-06-06 23:48:52.917609,0,0,-124,0,0,0,79,81,124,80,36,95.17,252,13.00,0.00,-1004.00
2024-06-06 23:48:52.970422,0,0,-118,0,0,0,79,81,124,80,36,95.10,253,7.00,19.00,-1015.00
2024-06-06 23:48:53.110640,0,0,-112,0,0,0,79,81,124,80,36,95.39,253,-11.00,3.00,-993.00
2024-06-06 23:48:53.223688,0,0,-106,0,0,0,79,81,124,80,36,95.49,253,16.00,-9.00,-1009.00
2024-06-06 23:48:53.367370,0,0,-100,0,0,0,79,81,124,80,36,95.02,253,10.00,5.00,-1003.00
2024-06-06 23:48:53.378081,0,0,-94,0,0,0,79,81,124,80,36,95.05,253,-5.00,13.00,-1001.00
2024-06-06 23:48:53.530800,0,0,-88,0,0,0,79,81,124,80,36,95.44,253,15.00,3.00,-1009.00
2024-06-06 23:48:53.531574,0,0,-82,0,0,0,79,81,124,80,36,95.40,253,-7.00,8.00,-997.00
2024-06-06 23:48:53.674099,0,0,-75,0,0,0,79,81,124,80,36,95.45,253,7.00,-5.00,-1005.00
2024-06-06 23:48:53.837930,0,0,-69,0,0,0,79,81,124,80,36,95.14,253,-1.00,7.00,-1015.00
2024-06-06 23:48:53.838063,0,0,-63,0,0,0,79,81,124,80,36,94.87,253,0.00,-10.00,-984.00
2024-06-06 23:48:53.981663,0,0,-57,0,0,0,79,81,125,80,36,95.06,254,19.00,-5.00,-1009.00
2024-06-06 23:48:54.145125,0,0,-51,0,0,0,79,81,124,80,36,95.45,254,9.00,4.00,-1012.00
2024-06-06 23:48:54.145199,0,0,-45,0,0,0,79,81,125,80,36,95.14,254,7.00,-5.00,-1001.00
2024-06-06 23:48:54.288550,0,0,-39,0,0,0,79,81,125,80,36,95.06,254,8.00,1.00,-1004.00
2024-06-06 23:48:54.452637,0,0,-33,0,0,0,79,81,124,80,36,95.32,254,17.00,-2.00,-1002.00
2024-06-06 23:48:54.452951,0,0,-27,0,0,0,79,81,125,80,36,95.30,254,4.00,0.00,-1002.00
2024-06-06 23:48:54.595912,0,0,-21,0,0,0,79,81,125,80,36,95.41,254,12.00,0.00,-988.00
2024-06-06 23:48:54.760197,0,0,-15,0,0,0,79,81,125,80,36,95.08,254,7.00,0.00,-995.00
2024-06-06 23:48:54.760290,0,0,-9,0,0,0,79,81,125,80,36,95.19,254,9.00,11.00,-1001.00
2024-06-06 23:48:54.915184,0,0,-3,0,0,0,78,80,125,80,36,95.50,254,6.00,-2.00,-1004.00
2024-06-06 23:48:54.980374,0,0,2,0,0,0,78,80,126,80,36,95.20,255,7.00,4.00,-1001.00
2024-06-06 23:48:55.063235,0,0,8,0,0,0,78,80,125,80,36,95.36,255,14.00,3.00,-1006.00
2024-06-06 23:48:55.163041,0,0,14,0,0,0,78,80,125,80,35,95.18,255,15.00,-3.00,-1009.00
2024-06-06 23:48:55.363276,0,0,20,0,0,0,78,80,126,80,35,95.12,255,11.00,-8.00,-996.00
2024-06-06 23:48:55.367352,0,0,26,0,0,0,78,80,126,80,35,95.43,255,8.00,1.00,-1005.00
2024-06-06 23:48:55.469512,0,0,32,0,0,0,78,80,126,80,35,95.37,255,10.00,-9.00,-989.00
2024-06-06 23:48:55.571262,0,0,38,0,0,0,78,80,126,80,35,95.11,255,3.00,-1.00,-995.00
2024-06-06 23:48:55.673335,0,0,44,0,0,0,78,80,125,80,35,95.34,255,6.00,-7.00,-996.00
2024-06-06 23:48:55.775056,0,0,50,0,0,0,78,80,126,80,35,95.22,255,-4.00,-6.00,-994.00
2024-06-06 23:48:55.977415,0,0,55,0,0,0,78,80,126,80,35,95.21,255,1.00,-2.00,-992.00
2024-06-06 23:48:55.979045,0,0,59,0,0,0,78,80,126,80,35,95.30,256,9.00,-11.00,-990.00
2024-06-06 23:48:56.182220,0,0,62,0,0,0,78,80,125,80,35,95.23,256,6.00,7.00,-1002.00
2024-06-06 23:48:56.182975,0,0,64,0,0,0,78,80,126,80,35,94.67,256,1.00,-11.00,-992.00
2024-06-06 23:48:56.285003,0,0,66,0,0,0,78,80,125,80,35,95.02,256,6.00,4.00,-1015.00
2024-06-06 23:48:56.387168,0,0,67,0,0,0,78,80,126,80,35,95.13,256,7.00,-9.00,-1004.00
2024-06-06 23:48:56.489023,0,0,68,0,0,0,78,80,125,80,35,94.98,256,4.00,-10.00,-993.00
2024-06-06 23:48:56.592223,0,0,69,0,0,0,78,80,126,80,35,95.02,256,14.00,-9.00,-998.00
2024-06-06 23:48:56.694539,0,0,69,0,0,0,78,80,125,80,35,95.23,256,-2.00,1.00,-1015.00
2024-06-06 23:48:56.743870,0,0,69,0,0,0,78,80,125,80,35,95.15,256,15.00,-5.00,-1008.00
2024-06-06 23:48:56.899082,0,0,69,0,0,0,78,81,125,80,35,95.17,256,19.00,-11.00,-996.00
2024-06-06 23:48:56.998985,0,0,69,0,0,0,78,81,125,80,35,95.00,257,8.00,-19.00,-996.00
2024-06-06 23:48:57.049887,0,0,69,0,0,0,78,81,125,80,35,95.35,257,7.00,-6.00,-1013.00
2024-06-06 23:48:57.206285,0,0,69,0,0,0,78,81,125,80,35,94.96,257,3.00,1.00,-1002.00
2024-06-06 23:48:57.253815,0,0,69,0,0,0,78,81,125,80,35,95.48,257,-6.00,-7.00,-992.00
2024-06-06 23:48:57.410925,0,0,69,0,0,0,78,81,125,80,35,95.26,257,1.00,3.00,-1013.00
2024-06-06 23:48:57.457748,0,0,69,0,0,0,78,81,125,80,35,95.56,257,11.00,-9.00,-996.00
2024-06-06 23:48:57.560882,0,0,69,0,0,0,78,81,125,80,35,94.94,257,2.00,-7.00,-987.00
2024-06-06 23:48:57.719152,0,0,69,0,0,0,78,81,125,80,35,94.97,257,5.00,-2.00,-999.00
2024-06-06 23:48:57.765030,0,0,69,0,0,0,78,81,125,80,35,95.18,257,7.00,2.00,-998.00
2024-06-06 23:48:57.923492,0,0,69,0,0,0,79,81,125,80,35,95.27,257,16.00,-13.00,-999.00
2024-06-06 23:48:57.968897,0,0,69,0,0,0,79,81,125,80,35,94.85,258,3.00,-8.00,-989.00
2024-06-06 23:48:58.127778,0,0,69,0,0,0,79,81,125,80,35,95.38,258,6.00,-8.00,-997.00
2024-06-06 23:48:58.172852,0,0,69,0,0,0,79,81,125,80,35,95.31,258,17.00,-6.00,-1004.00
2024-06-06 23:48:58.333511,0,0,69,0,0,0,79,81,125,80,35,95.29,258,9.00,-12.00,-1002.00
2024-06-06 23:48:58.377296,0,0,69,0,0,0,79,81,125,80,35,94.97,258,15.00,-35.00,-977.00
2024-06-06 23:48:58.537716,0,0,69,0,0,0,79,81,125,80,35,94.99,258,1.00,2.00,-1004.00
2024-06-06 23:48:58.581247,0,0,69,0,0,0,79,81,126,80,35,95.14,258,0.00,8.00,-1005.00
2024-06-06 23:48:58.682819,0,0,69,0,0,0,79,81,125,80,35,95.06,258,22.00,-15.00,-999.00
2024-06-06 23:48:58.844521,0,0,68,0,0,0,79,81,126,80,35,95.33,258,9.00,-1.00,-1001.00
2024-06-06 23:48:58.886820,0,0,62,0,0,0,78,81,126,80,35,95.11,258,17.00,4.00,-999.00
2024-06-06 23:48:59.049331,0,0,57,0,0,0,78,81,126,80,35,95.49,259,11.00,-4.00,-996.00
2024-06-06 23:48:59.090686,0,0,51,0,0,0,78,81,125,80,35,95.27,259,10.00,-4.00,-1004.00
2024-06-06 23:48:59.254390,0,0,45,0,0,0,78,81,126,80,34,95.20,259,6.00,-6.00,-990.00
2024-06-06 23:48:59.294803,0,0,39,0,0,0,78,81,126,80,34,95.01,259,6.00,0.00,-994.00
2024-06-06 23:48:59.459154,0,0,33,0,0,0,78,81,126,80,34,95.23,259,9.00,-4.00,-990.00
2024-06-06 23:48:59.498702,0,0,27,0,0,0,78,81,125,80,34,94.98,259,23.00,-2.00,-1002.00
2024-06-06 23:48:59.600882,0,0,21,0,0,0,78,81,125,80,34,95.17,259,21.00,0.00,-1006.00
2024-06-06 23:48:59.765982,0,0,15,0,0,0,78,81,126,80,34,94.95,259,14.00,11.00,-1001.00
2024-06-06 23:48:59.804599,0,0,9,0,0,0,78,81,126,80,34,94.91,259,17.00,-1.00,-1001.00
2024-06-06 23:48:59.970860,0,0,3,0,0,0,79,80,126,80,34,95.11,259,11.00,-9.00,-992.00
2024-06-06 23:49:00.008683,0,0,-2,0,0,0,79,80,126,80,34,95.09,260,7.00,2.00,-1001.00
2024-06-06 23:49:00.175951,0,0,-8,0,0,0,79,80,127,80,34,95.12,260,15.00,4.00,-1011.00
2024-06-06 23:49:00.212793,0,0,-14,0,0,0,79,80,127,80,34,95.09,260,16.00,-5.00,-1003.00
2024-06-06 23:49:00.381216,1,0,-20,0,0,0,79,80,126,80,34,95.20,260,19.00,0.00,-1004.00
2024-06-06 23:49:00.416998,1,0,-26,0,0,0,79,80,126,80,34,95.11,260,18.00,3.00,-990.00
2024-06-06 23:49:00.586503,0,0,-32,0,0,0,79,80,126,80,34,95.29,260,19.00,-4.00,-988.00
2024-06-06 23:49:00.620838,0,0,-38,0,0,0,79,80,126,80,34,94.88,260,12.00,6.00,-998.00
2024-06-06 23:49:00.671429,0,0,-44,0,0,0,79,80,127,80,34,95.14,260,16.00,6.00,-1003.00
2024-06-06 23:49:00.790917,0,0,-50,0,0,0,79,80,127,80,34,95.31,260,15.00,3.00,-1000.00
2024-06-06 23:49:00.875465,0,0,-56,0,0,0,77,80,127,80,34,95.04,260,17.00,-2.00,-998.00
2024-06-06 23:49:00.994795,0,0,-62,0,0,0,77,80,126,80,34,95.07,261,13.00,-2.00,-999.00
2024-06-06 23:49:01.079483,1,0,-68,0,0,0,77,80,126,80,34,95.19,261,19.00,-2.00,-986.00
2024-06-06 23:49:01.200028,1,0,-74,0,0,0,77,80,126,80,34,95.18,261,8.00,8.00,-994.00
2024-06-06 23:49:01.283389,1,0,-80,0,0,0,77,80,127,80,34,95.02,261,15.00,6.00,-995.00
2024-06-06 23:49:01.404376,0,0,-86,0,0,0,77,80,127,80,34,94.80,261,1.00,13.00,-999.00
2024-06-06 23:49:01.487391,0,0,-92,0,0,0,77,80,126,80,34,95.20,261,8.00,4.00,-1003.00
2024-06-06 23:49:01.589622,0,0,-98,0,0,0,77,80,127,80,34,95.14,261,14.00,7.00,-1000.00
2024-06-06 23:49:01.711713,0,0,-104,0,0,0,77,80,127,80,34,95.17,261,19.00,-8.00,-999.00
2024-06-06 23:49:01.793276,0,0,-110,0,0,0,77,80,127,80,34,95.28,261,11.00,-6.00,-1006.00
2024-06-06 23:49:01.916332,0,0,-122,0,0,0,78,81,127,80,34,95.02,262,13.00,5.00,-1007.00
2024-06-06 23:49:01.997282,0,0,-128,0,0,0,78,81,127,80,34,95.08,262,8.00,12.00,-997.00
2024-06-06 23:49:02.121474,0,0,-134,0,0,0,78,81,127,80,34,95.20,262,1.00,10.00,-993.00
2024-06-06 23:49:02.201593,0,0,-140,0,0,0,78,81,127,80,33,95.39,262,16.00,-11.00,-987.00
2024-06-06 23:49:02.326854,0,0,-146,0,0,0,78,81,127,80,33,95.19,262,8.00,4.00,-991.00
2024-06-06 23:49:02.405249,0,0,-152,0,0,0,78,81,127,80,33,95.14,262,8.00,2.00,-1001.00
2024-06-06 23:49:02.507203,0,0,-158,0,0,0,78,81,127,80,33,94.92,262,-15.00,9.00,-997.00
2024-06-06 23:49:02.609278,0,0,-164,0,0,0,78,81,127,80,33,95.43,262,8.00,1.00,-999.00
2024-06-06 23:49:02.735543,0,0,-170,0,0,0,78,81,127,80,33,95.36,262,11.00,1.00,-1001.00
2024-06-06 23:49:02.813318,0,0,-176,0,0,0,78,81,127,80,33,95.10,262,9.00,3.00,-999.00
2024-06-06 23:49:02.940283,0,0,176,0,0,0,79,81,127,80,33,95.21,263,5.00,2.00,-1005.00
2024-06-06 23:49:03.017258,0,0,170,0,0,0,79,81,128,80,33,95.18,263,15.00,8.00,-1003.00
2024-06-06 23:49:03.145079,0,0,164,0,0,0,79,81,128,80,33,95.11,263,-6.00,2.00,-991.00
2024-06-06 23:49:03.221203,0,0,159,0,0,0,79,81,127,80,33,95.04,263,5.00,2.00,-1007.00
2024-06-06 23:49:03.349787,0,0,153,0,0,0,79,81,127,80,33,95.31,263,4.00,8.00,-1003.00
2024-06-06 23:49:03.425145,0,0,147,0,0,0,79,81,127,80,33,94.93,263,2.00,1.00,-989.00
2024-06-06 23:49:03.555423,0,0,141,0,0,0,79,81,127,80,33,95.08,263,12.00,2.00,-998.00
2024-06-06 23:49:03.629597,0,0,135,0,0,0,79,81,128,80,33,95.04,263,1.00,4.00,-992.00
2024-06-06 23:49:03.759473,0,0,129,0,0,0,79,81,127,80,33,95.49,263,7.00,-2.00,-998.00
2024-06-06 23:49:03.834550,0,0,123,0,0,0,79,81,127,80,33,94.75,263,10.00,-5.00,-987.00
2024-06-06 23:49:03.964259,0,0,117,0,0,0,78,80,127,80,33,95.06,264,11.00,-6.00,-996.00
2024-06-06 23:49:04.039355,0,0,111,0,0,0,78,80,127,80,33,95.44,264,5.00,6.00,-1008.00
2024-06-06 23:49:04.139065,0,0,105,0,0,0,78,80,127,80,33,94.94,264,-5.00,4.00,-997.00
2024-06-06 23:49:04.271462,0,0,99,0,0,0,78,80,127,80,33,95.17,264,22.00,-17.00,-998.00
2024-06-06 23:49:04.346813,0,0,93,0,0,0,78,80,126,80,33,95.18,264,6.00,1.00,-1001.00
2024-06-06 23:49:04.445067,0,0,88,0,0,0,78,80,126,80,33,95.14,264,10.00,-2.00,-1009.00
2024-06-06 23:49:04.547049,0,0,83,0,0,0,78,80,126,80,33,95.31,264,1.00,1.00,-996.00
2024-06-06 23:49:04.598928,0,0,80,0,0,0,78,80,126,80,33,95.25,264,7.00,-4.00,-1003.00
2024-06-06 23:49:04.700980,0,0,77,0,0,0,78,80,126,80,33,95.04,264,9.00,0.00,-999.00
2024-06-06 23:49:04.886066,0,0,76,0,0,0,78,80,126,80,33,95.26,264,0.00,2.00,-994.00
2024-06-06 23:49:04.904957,0,0,74,0,0,0,77,81,126,80,33,95.12,265,17.00,-6.00,-1004.00
2024-06-06 23:49:05.090603,0,0,73,0,0,0,77,81,126,80,33,94.99,265,25.00,-6.00,-1008.00
2024-06-06 23:49:05.109413,0,0,72,0,0,0,77,81,126,80,33,95.14,265,4.00,0.00,-1009.00
2024-06-06 23:49:05.295912,0,0,71,0,0,0,77,81,126,80,33,95.32,265,23.00,-15.00,-1006.00
2024-06-06 23:49:05.314705,0,0,71,0,0,0,77,81,126,80,33,94.92,265,23.00,-13.00,-1004.00
2024-06-06 23:49:05.415066,0,0,71,0,0,0,77,81,126,80,33,95.00,265,0.00,-3.00,-1001.00
2024-06-06 23:49:05.517319,0,0,71,0,0,0,77,81,126,80,33,95.05,265,16.00,-18.00,-996.00
2024-06-06 23:49:05.619048,0,0,71,0,0,0,77,81,126,80,33,95.16,265,6.00,-10.00,-1002.00
2024-06-06 23:49:05.807411,0,0,71,0,0,0,77,81,127,80,33,94.78,265,18.00,-15.00,-989.00
2024-06-06 23:49:05.822907,0,0,71,0,0,0,77,81,126,80,33,95.12,265,-1.00,0.00,-995.00
2024-06-06 23:49:06.012393,0,0,71,0,0,0,78,81,127,80,33,94.96,266,11.00,-19.00,-1000.00
2024-06-06 23:49:06.028701,0,0,71,0,0,0,78,81,126,80,33,95.11,266,16.00,-20.00,-983.00
2024-06-06 23:49:06.129238,0,0,71,0,0,0,78,81,126,80,33,95.49,266,9.00,-9.00,-1002.00
2024-06-06 23:49:06.319535,0,0,71,0,0,0,78,81,126,80,32,94.88,266,7.00,-13.00,-995.00
2024-06-06 23:49:06.333119,0,0,71,0,0,0,78,81,126,80,32,95.05,266,8.00,0.00,-1002.00
2024-06-06 23:49:06.435100,0,0,71,0,0,0,78,81,126,80,32,95.05,266,7.00,-7.00,-993.00
2024-06-06 23:49:06.626706,0,0,71,0,0,0,78,81,126,80,32,94.95,266,7.00,-5.00,-1001.00
2024-06-06 23:49:06.639540,0,0,71,0,0,0,78,81,126,80,32,95.32,266,-3.00,12.00,-1010.00
2024-06-06 23:49:06.831429,0,0,71,0,0,0,78,81,126,80,32,95.01,266,15.00,-10.00,-1000.00
2024-06-06 23:49:06.842839,0,0,71,0,0,0,78,81,126,80,32,95.35,266,8.00,-18.00,-1003.00
2024-06-06 23:49:07.138670,0,0,71,0,0,0,76,80,126,80,32,95.20,267,5.00,-7.00,-996.00
2024-06-06 23:49:07.138822,0,0,71,0,0,0,76,80,126,80,32,95.20,267,15.00,3.00,-1014.00
2024-06-06 23:49:07.148819,0,0,71,0,0,0,76,80,126,80,32,94.98,267,6.00,-13.00,-998.00
2024-06-06 23:49:07.356310,0,0,71,0,0,0,76,80,126,80,32,95.19,267,9.00,-10.00,-999.00
2024-06-06 23:49:07.356372,0,0,71,0,0,0,76,80,126,80,32,95.05,267,11.00,-9.00,-988.00
2024-06-06 23:49:07.455084,0,0,71,0,0,0,76,80,126,80,32,95.23,267,6.00,-9.00,-999.00
2024-06-06 23:49:07.557715,0,0,71,0,0,0,76,80,126,80,32,94.95,267,30.00,-24.00,-1002.00
2024-06-06 23:49:07.716706,0,0,71,0,0,0,76,80,126,80,32,95.10,267,1.00,-6.00,-996.00
2024-06-06 23:49:07.809814,0,0,71,0,0,0,76,80,126,80,32,95.22,267,5.00,-15.00,-1006.00
2024-06-06 23:49:07.903246,0,0,71,0,0,0,76,80,126,80,32,95.10,267,13.00,-8.00,-994.00
2024-06-06 23:49:07.964863,0,0,71,0,0,0,78,80,126,80,32,95.15,268,8.00,-8.00,-1000.00
2024-06-06 23:49:08.108766,0,0,71,0,0,0,78,80,126,80,32,95.28,268,3.00,-6.00,-1002.00
2024-06-06 23:49:08.171972,0,0,71,0,0,0,78,80,126,80,32,95.14,268,3.00,-5.00,-1007.00
2024-06-06 23:49:08.315385,0,0,71,0,0,0,78,80,126,80,32,95.00,268,1.00,-9.00,-1005.00
2024-06-06 23:49:08.458668,0,0,71,0,0,0,78,80,126,80,32,95.08,268,4.00,-4.00,-1006.00
2024-06-06 23:49:08.458794,0,0,71,0,0,0,78,80,126,80,32,94.96,268,1.00,-11.00,-990.00
2024-06-06 23:49:08.603611,0,0,71,0,0,0,78,80,126,80,32,95.07,268,2.00,-14.00,-987.00
2024-06-06 23:49:08.628167,0,0,71,0,0,0,78,80,126,80,32,94.93,268,18.00,-8.00,-1015.00
2024-06-06 23:49:08.745803,0,0,71,0,0,0,78,80,126,80,32,94.95,268,4.00,-10.00,-1000.00
2024-06-06 23:49:08.890229,0,0,71,0,0,0,78,80,126,80,32,95.25,268,2.00,-7.00,-998.00
2024-06-06 23:49:09.045512,0,0,71,0,0,0,78,80,126,80,32,94.92,269,11.00,-17.00,-995.00
2024-06-06 23:49:09.045740,0,0,71,0,0,0,78,80,126,80,32,95.04,269,0.00,-5.00,-999.00
2024-06-06 23:49:09.138473,0,0,71,0,0,0,78,80,126,80,31,94.98,269,7.00,-3.00,-1003.00
2024-06-06 23:49:09.288994,0,0,71,0,0,0,78,80,126,80,31,95.23,269,11.00,-16.00,-1004.00
2024-06-06 23:49:09.341848,0,0,71,0,0,0,78,80,126,80,31,95.06,269,5.00,-5.00,-1001.00
2024-06-06 23:49:09.493695,0,0,71,0,0,0,78,80,126,80,31,95.28,269,11.00,-13.00,-994.00
2024-06-06 23:49:09.546015,0,0,71,0,0,0,78,80,126,80,31,95.09,269,2.00,-8.00,-985.00
2024-06-06 23:49:09.647889,0,0,71,0,0,0,78,80,126,80,31,95.16,269,15.00,-6.00,-1004.00
2024-06-06 23:49:09.801019,0,0,71,0,0,0,78,80,127,80,31,95.22,269,11.00,-5.00,-1002.00
2024-06-06 23:49:09.851891,0,0,71,0,0,0,78,80,127,80,31,95.07,269,3.00,-13.00,-984.00
2024-06-06 23:49:10.006144,0,0,71,0,0,0,78,80,126,80,31,95.04,270,6.00,-7.00,-994.00
2024-06-06 23:49:10.055814,0,0,71,0,0,0,78,80,127,80,31,95.02,270,7.00,-14.00,-1004.00
2024-06-06 23:49:10.211017,0,0,71,0,0,0,78,80,126,80,31,95.00,270,1.00,-9.00,-994.00
2024-06-06 23:49:10.260221,0,0,71,0,0,0,78,80,126,80,31,95.14,270,0.00,4.00,-1007.00
2024-06-06 23:49:10.415666,0,0,71,0,0,0,78,80,126,80,31,95.23,270,-3.00,-7.00,-996.00
2024-06-06 23:49:10.463990,0,0,71,0,0,0,78,80,127,80,31,94.99,270,13.00,-10.00,-1008.00
2024-06-06 23:49:10.620003,0,0,71,0,0,0,78,80,126,80,31,95.00,270,11.00,-5.00,-1004.00
2024-06-06 23:49:10.668833,0,0,71,0,0,0,78,80,127,80,31,94.98,270,3.00,-13.00,-988.00
2024-06-06 23:49:10.825547,0,0,71,0,0,0,78,80,126,80,31,95.07,270,4.00,-10.00,-1003.00
2024-06-06 23:49:10.872605,0,0,71,0,0,0,78,80,126,80,31,95.09,270,6.00,-14.00,-1002.00
2024-06-06 23:49:10.975941,0,0,71,0,0,0,78,80,126,80,31,95.43,271,13.00,-2.00,-996.00
2024-06-06 23:49:11.132050,0,0,71,0,0,0,78,80,126,80,31,95.06,271,12.00,-6.00,-1012.00
2024-06-06 23:49:11.178764,0,0,71,0,0,0,78,80,126,80,31,95.28,271,7.00,-9.00,-1006.00
2024-06-06 23:49:11.336797,0,0,71,0,0,0,78,80,126,80,31,95.44,271,3.00,0.00,-1004.00
2024-06-06 23:49:11.382522,0,0,71,0,0,0,78,80,126,80,31,94.94,271,5.00,-9.00,-1014.00
2024-06-06 23:49:11.503433,0,0,71,0,0,0,78,80,126,80,31,95.26,271,3.00,-11.00,-1003.00
2024-06-06 23:49:11.587412,0,0,71,0,0,0,78,80,126,80,31,95.35,271,-9.00,0.00,-994.00
2024-06-06 23:49:11.746412,0,0,71,0,0,0,78,80,126,80,31,95.33,271,0.00,-1.00,-1009.00
2024-06-06 23:49:11.790453,0,0,71,0,0,0,78,80,126,80,31,95.07,271,10.00,-19.00,-988.00
2024-06-06 23:49:11.842340,0,0,71,0,0,0,78,80,126,80,31,95.01,271,12.00,-6.00,-1006.00
2024-06-06 23:49:11.994626,0,0,71,0,0,0,77,80,126,80,31,95.70,272,-3.00,-2.00,-1000.00
2024-06-06 23:49:12.156017,0,0,71,0,0,0,77,80,126,80,31,95.33,272,17.00,-20.00,-1005.00
2024-06-06 23:49:12.156194,0,0,71,0,0,0,77,80,126,80,31,95.29,272,14.00,-17.00,-992.00
2024-06-06 23:49:12.249696,0,0,71,0,0,0,77,80,126,80,31,95.01,272,8.00,-9.00,-1008.00
2024-06-06 23:49:12.362062,0,0,71,0,0,0,77,80,126,80,31,95.42,272,3.00,-5.00,-1009.00
2024-06-06 23:49:12.453812,0,0,71,0,0,0,77,80,126,80,31,95.02,272,-6.00,-6.00,-995.00
2024-06-06 23:49:12.566758,0,0,71,0,0,0,77,80,126,80,31,95.18,272,0.00,-18.00,-996.00
2024-06-06 23:49:12.658072,0,0,71,0,0,0,77,80,125,80,31,94.93,272,11.00,-7.00,-1001.00
2024-06-06 23:49:12.770353,0,0,71,0,0,0,77,80,126,80,31,95.35,272,17.00,-4.00,-1010.00
2024-06-06 23:49:12.861789,0,0,71,0,0,0,77,80,126,80,31,95.23,272,5.00,-9.00,-999.00
2024-06-06 23:49:12.985003,0,0,71,0,0,0,78,80,126,80,31,95.03,273,5.00,-13.00,-996.00
2024-06-06 23:49:13.069217,0,0,71,0,0,0,78,80,126,80,31,94.98,273,6.00,-8.00,-1004.00
2024-06-06 23:49:13.168207,0,0,71,0,0,0,78,80,126,80,30,95.29,273,12.00,-7.00,-1006.00
2024-06-06 23:49:13.282309,0,0,71,0,0,0,78,80,125,80,30,94.96,273,0.00,-18.00,-993.00
2024-06-06 23:49:13.371496,0,0,71,0,0,0,78,80,126,80,30,95.20,273,11.00,-14.00,-1005.00
2024-06-06 23:49:13.492957,0,0,71,0,0,0,78,80,125,80,30,95.05,273,2.00,0.00,-1001.00
2024-06-06 23:49:13.575633,0,0,71,0,0,0,78,80,125,80,30,94.83,273,-2.00,-1.00,-1006.00
2024-06-06 23:49:13.677519,0,0,71,0,0,0,78,80,126,80,30,95.30,273,1.00,-8.00,-992.00
2024-06-06 23:49:13.795470,0,0,71,0,0,0,78,80,125,80,30,95.08,273,-2.00,-5.00,-998.00
2024-06-06 23:49:13.882174,0,0,71,0,0,0,78,80,125,80,30,94.82,273,3.00,-8.00,-995.00
2024-06-06 23:49:14.000115,0,0,71,0,0,0,77,80,125,80,30,95.37,274,3.00,-8.00,-1003.00
2024-06-06 23:49:14.085440,0,0,71,0,0,0,77,80,125,80,30,95.04,274,10.00,-10.00,-993.00
2024-06-06 23:49:14.204165,0,0,71,0,0,0,77,80,125,80,30,95.09,274,4.00,-10.00,-993.00
2024-06-06 23:49:14.289493,0,0,71,0,0,0,77,80,125,80,30,95.20,274,4.00,-16.00,-997.00
2024-06-06 23:49:14.410131,0,0,71,0,0,0,77,80,125,80,30,95.05,274,5.00,-6.00,-1002.00
2024-06-06 23:49:14.493368,0,0,71,0,0,0,77,80,126,80,30,95.01,274,29.00,-25.00,-1004.00
2024-06-06 23:49:14.595458,0,0,71,0,0,0,77,80,125,80,30,94.93,274,0.00,-10.00,-1002.00
2024-06-06 23:49:14.715842,0,0,71,0,0,0,77,80,125,80,30,94.86,274,16.00,-17.00,-1010.00
2024-06-06 23:49:14.800168,0,0,71,0,0,0,77,80,125,80,30,95.17,274,-8.00,-8.00,-991.00
2024-06-06 23:49:14.920661,0,0,71,0,0,0,77,80,125,80,30,94.97,274,13.00,-11.00,-1014.00
2024-06-06 23:49:15.004170,0,0,71,0,0,0,77,80,125,80,30,95.16,275,-8.00,1.00,-994.00
2024-06-06 23:49:15.125979,0,0,71,0,0,0,77,80,125,80,30,95.22,275,12.00,-10.00,-1003.00
2024-06-06 23:49:15.208209,0,0,71,0,0,0,77,80,125,80,30,95.12,275,0.00,-6.00,-1002.00
2024-06-06 23:49:15.332568,0,0,71,0,0,0,77,80,125,80,30,95.01,275,0.00,-12.00,-1005.00
2024-06-06 23:49:15.412173,0,0,71,0,0,0,77,80,125,80,30,95.37,275,11.00,-15.00,-995.00
2024-06-06 23:49:15.539038,0,0,71,0,0,0,77,80,125,80,30,95.06,275,17.00,-9.00,-1009.00
2024-06-06 23:49:15.567615,0,0,71,0,0,0,77,80,125,80,30,95.13,275,-2.00,-9.00,-996.00
2024-06-06 23:49:15.668457,0,0,71,0,0,0,77,80,125,80,30,95.17,275,11.00,-15.00,-1000.00
2024-06-06 23:49:15.842447,0,0,71,0,0,0,77,80,125,80,30,95.00,275,7.00,-16.00,-1000.00
2024-06-06 23:49:15.872227,0,0,71,0,0,0,77,80,125,80,30,95.40,275,4.00,-15.00,-998.00
2024-06-06 23:49:16.046893,0,0,71,0,0,0,77,80,126,80,30,94.82,276,3.00,-9.00,-1004.00
2024-06-06 23:49:16.075995,0,0,71,0,0,0,77,80,125,80,30,94.84,276,0.00,-17.00,-998.00
2024-06-06 23:49:16.253807,0,0,71,0,0,0,77,80,125,80,29,94.95,276,7.00,-15.00,-1001.00
2024-06-06 23:49:16.282917,0,0,71,0,0,0,77,80,126,80,29,95.35,276,8.00,-11.00,-1006.00
2024-06-06 23:49:16.381987,0,0,71,0,0,0,77,80,126,80,29,94.81,276,-9.00,-5.00,-992.00
2024-06-06 23:49:16.494852,0,0,71,0,0,0,77,80,126,80,29,94.99,276,-7.00,-5.00,-998.00
2024-06-06 23:49:16.586025,0,0,71,0,0,0,77,80,126,80,29,94.68,276,1.00,-14.00,-1008.00
2024-06-06 23:49:16.690513,0,0,71,0,0,0,77,80,126,80,29,95.07,276,-6.00,-11.00,-992.00
2024-06-06 23:49:16.790022,0,0,71,0,0,0,77,80,125,80,29,95.12,276,11.00,-9.00,-998.00
2024-06-06 23:49:16.927205,0,0,71,0,0,0,77,80,126,80,29,94.90,276,7.00,-5.00,-996.00
2024-06-06 23:49:16.995429,0,0,71,0,0,0,77,80,126,80,29,95.10,277,1.00,-3.00,-1003.00
2024-06-06 23:49:17.095974,0,0,71,0,0,0,77,80,126,80,29,94.94,277,9.00,-17.00,-989.00
2024-06-06 23:49:17.276837,0,0,71,0,0,0,77,80,126,80,29,95.03,277,4.00,-11.00,-992.00
2024-06-06 23:49:17.300382,0,0,71,0,0,0,77,80,126,80,29,94.88,277,7.00,-13.00,-991.00
2024-06-06 23:49:17.483361,0,0,71,0,0,0,77,80,125,80,29,95.22,277,13.00,-5.00,-992.00
2024-06-06 23:49:17.503836,0,0,71,0,0,0,77,80,126,80,29,95.03,277,0.00,-1.00,-1012.00
2024-06-06 23:49:17.606016,0,0,71,0,0,0,77,80,126,80,29,94.90,277,6.00,-22.00,-993.00
2024-06-06 23:49:17.788099,0,0,71,0,0,0,77,80,125,80,29,95.13,277,-7.00,-7.00,-990.00
2024-06-06 23:49:17.809831,0,0,71,0,0,0,77,80,125,80,29,95.04,277,3.00,-17.00,-1004.00
2024-06-06 23:49:17.992502,0,0,71,0,0,0,77,80,125,80,29,95.08,277,12.00,0.00,-1002.00
2024-06-06 23:49:18.013670,0,0,71,0,0,0,77,80,125,80,29,95.49,278,-5.00,-8.00,-999.00
2024-06-06 23:49:18.197418,0,0,71,0,0,0,77,80,125,80,29,95.22,278,3.00,-3.00,-1014.00
2024-06-06 23:49:18.222562,0,0,71,0,0,0,77,80,125,80,29,95.28,278,-1.00,-12.00,-995.00
2024-06-06 23:49:18.322173,0,0,71,0,0,0,77,80,125,80,29,94.80,278,6.00,-6.00,-1009.00
2024-06-06 23:49:18.421899,0,0,71,0,0,0,77,80,125,80,29,95.15,278,6.00,-13.00,-990.00
2024-06-06 23:49:18.606922,0,0,71,0,0,0,77,80,125,80,29,95.11,278,5.00,-3.00,-1021.00
2024-06-06 23:49:18.625913,0,0,71,0,0,0,77,80,125,80,29,95.14,278,0.00,-4.00,-992.00
2024-06-06 23:49:18.817612,0,0,71,0,0,0,77,80,125,80,29,95.25,278,0.00,-1.00,-1007.00
2024-06-06 23:49:18.830675,0,0,71,0,0,0,77,80,125,80,29,95.00,278,-2.00,-8.00,-996.00
