TS,pitch,roll,yaw,vgx,vgy,vgz,templ,temph,tof,h,bat,baro,time,agx,agy,agz
2024-06-06 23:50:44.035604,0,0,-9,0,0,0,76,79,10,0,82,93.65,0,8.00,0.00,-1000.00
2024-06-06 23:50:44.201107,0,0,-9,0,0,0,76,79,10,0,82,93.56,0,7.00,-2.00,-997.00
2024-06-06 23:50:44.239601,0,0,-9,0,0,0,76,79,10,0,82,93.50,0,7.00,0.00,-1000.00
2024-06-06 23:50:44.406345,0,0,-9,0,0,0,78,78,10,0,82,93.65,0,8.00,0.00,-1000.00
2024-06-06 23:50:44.443619,0,0,-9,0,0,0,78,78,10,0,82,93.76,0,8.00,-2.00,-998.00
2024-06-06 23:50:44.545612,0,0,-9,0,0,0,78,78,10,0,82,93.50,0,8.00,-1.00,-1001.00
2024-06-06 23:50:44.713020,0,0,-9,0,0,0,78,78,10,0,82,93.73,0,8.00,-2.00,-1001.00
2024-06-06 23:50:44.749502,0,0,-9,0,0,0,78,78,10,0,82,93.80,0,8.00,-3.00,-1000.00
2024-06-06 23:50:44.917840,0,0,-9,0,0,0,78,78,10,0,82,93.86,0,8.00,-2.00,-1000.00
2024-06-06 23:50:44.953634,0,0,-9,0,0,0,78,78,10,0,82,93.89,0,9.00,-2.00,-1002.00
2024-06-06 23:50:45.122683,0,0,-9,0,0,0,78,78,10,0,82,93.63,0,8.00,0.00,-998.00
2024-06-06 23:50:45.157630,0,0,-9,0,0,0,78,78,10,0,82,93.72,0,9.00,-3.00,-998.00
2024-06-06 23:50:45.330047,0,0,-9,0,0,0,78,78,10,0,82,93.88,0,9.00,-2.00,-997.00
2024-06-06 23:50:45.363394,0,0,-9,0,0,0,77,79,10,0,82,93.66,0,7.00,-1.00,-1001.00
2024-06-06 23:50:45.463662,0,0,-9,0,0,0,77,79,10,0,82,93.94,0,9.00,-3.00,-999.00
2024-06-06 23:50:45.565690,0,0,-9,0,0,0,77,79,10,0,82,93.51,0,7.00,-1.00,-997.00
2024-06-06 23:50:45.667636,0,0,-9,0,0,0,77,79,10,0,82,93.44,0,8.00,-3.00,-1001.00
2024-06-06 23:50:45.839547,0,0,-9,0,0,0,77,79,10,0,82,93.53,0,7.00,0.00,-999.00
2024-06-06 23:50:45.871518,0,0,-9,0,0,0,77,79,10,0,82,93.75,0,9.00,-2.00,-996.00
2024-06-06 23:50:45.973753,0,0,-9,0,0,0,77,79,10,0,82,93.74,0,8.00,-1.00,-998.00
2024-06-06 23:50:46.146779,0,0,-9,0,0,0,77,79,10,0,82,93.75,0,7.00,-2.00,-1001.00
2024-06-06 23:50:46.177462,0,0,-9,0,0,0,77,79,10,0,82,93.61,0,9.00,-2.00,-999.00
2024-06-06 23:50:46.279563,0,0,-9,0,0,0,77,79,10,0,82,93.47,0,9.00,-2.00,-999.00
2024-06-06 23:50:46.381941,0,0,-9,0,0,0,77,79,10,0,82,93.45,0,9.00,-3.00,-1001.00
2024-06-06 23:50:46.484326,0,0,-9,0,0,0,77,79,10,0,82,93.82,0,8.00,0.00,-999.00
2024-06-06 23:50:46.586614,0,0,-9,0,0,0,77,79,10,0,82,93.91,0,7.00,0.00,-999.00
2024-06-06 23:50:46.688952,0,0,-9,0,0,0,77,79,10,0,82,93.38,0,9.00,-1.00,-998.00
2024-06-06 23:50:46.738945,0,0,-9,0,0,0,77,79,10,0,82,93.36,0,8.00,0.00,-998.00
2024-06-06 23:50:46.863268,0,0,-9,0,0,0,77,79,10,0,82,93.63,0,6.00,-2.00,-998.00
2024-06-06 23:50:46.942630,0,0,-9,0,0,0,77,79,10,0,82,93.46,0,9.00,-1.00,-1000.00
2024-06-06 23:50:47.068262,0,0,-9,0,0,0,77,79,10,0,82,93.66,0,9.00,-1.00,-1001.00
2024-06-06 23:50:47.146678,0,0,-9,0,0,0,77,79,10,0,82,93.83,0,9.00,-2.00,-997.00
2024-06-06 23:50:47.272879,0,0,-9,0,0,0,77,79,10,0,82,93.85,0,7.00,-2.00,-1000.00
2024-06-06 23:50:47.350846,0,0,-9,0,0,0,77,79,10,0,82,93.31,0,9.00,-3.00,-1000.00
2024-06-06 23:50:47.477833,0,0,-9,0,0,0,77,79,10,0,82,93.85,0,8.00,-2.00,-999.00
2024-06-06 23:50:47.554497,0,0,-9,0,0,0,77,79,10,0,82,93.89,0,9.00,-2.00,-1000.00
2024-06-06 23:50:47.682738,0,0,-9,0,0,0,77,79,10,0,82,93.84,0,8.00,-1.00,-999.00
2024-06-06 23:50:47.758519,0,0,-9,0,0,0,77,79,10,0,82,94.00,0,8.00,-2.00,-999.00
2024-06-06 23:50:47.887289,0,0,-9,0,0,0,77,79,10,0,82,93.50,0,8.00,-1.00,-1002.00
2024-06-06 23:50:47.962630,0,0,-9,0,0,0,77,79,10,0,82,93.86,0,8.00,-2.00,-1000.00
2024-06-06 23:50:48.092171,0,0,-9,0,0,0,77,79,10,0,82,93.66,0,8.00,0.00,-998.00
2024-06-06 23:50:48.166532,0,0,-9,0,0,0,77,79,10,0,82,93.66,0,8.00,-3.00,-997.00
2024-06-06 23:50:48.296713,0,0,-9,0,0,0,77,79,10,0,82,93.78,0,7.00,-1.00,-1000.00
2024-06-06 23:50:48.370479,0,0,-9,0,0,0,77,79,10,0,82,93.49,0,7.00,-2.00,-1002.00
2024-06-06 23:50:48.483614,0,0,-9,0,0,0,77,79,10,0,82,93.56,0,9.00,0.00,-998.00
2024-06-06 23:50:48.574618,0,0,-9,0,0,0,77,79,10,0,82,93.77,0,8.00,-2.00,-1002.00
2024-06-06 23:50:48.706561,0,0,-9,0,0,0,77,79,10,0,82,93.77,0,10.00,-2.00,-999.00
2024-06-06 23:50:48.791231,0,0,-9,0,0,0,77,79,10,0,82,93.69,0,8.00,-2.00,-1001.00
2024-06-06 23:50:48.881047,0,0,-9,0,0,0,77,79,10,0,82,93.74,0,9.00,-1.00,-998.00
2024-06-06 23:50:49.013810,0,0,-9,0,0,0,77,79,10,0,82,93.74,0,8.00,-2.00,-997.00
2024-06-06 23:50:49.084652,0,0,-9,0,0,0,77,79,10,0,82,93.78,0,9.00,0.00,-997.00
2024-06-06 23:50:49.220741,0,0,-9,0,0,0,77,79,10,0,82,93.87,0,8.00,-1.00,-1000.00
2024-06-06 23:50:49.288434,0,0,-9,0,0,0,77,79,10,0,82,93.56,0,8.00,-2.00,-1000.00
2024-06-06 23:50:49.390555,0,0,-9,0,0,0,77,79,10,0,82,93.83,0,8.00,-1.00,-1001.00
2024-06-06 23:50:49.525642,0,0,-9,0,0,0,77,79,10,0,82,93.87,0,8.00,-2.00,-1000.00
2024-06-06 23:50:49.594429,0,0,-9,0,0,0,77,79,10,0,82,93.85,0,10.00,-2.00,-1001.00
2024-06-06 23:50:49.730640,0,0,-9,0,0,0,77,79,10,0,82,93.67,0,5.00,-4.00,-1001.00
2024-06-06 23:50:49.798239,0,0,-9,0,0,0,77,79,10,0,82,93.67,0,7.00,-3.00,-1001.00
2024-06-06 23:50:49.935879,0,0,-9,0,0,0,77,79,10,0,82,93.67,0,13.00,-4.00,-996.00
2024-06-06 23:50:50.002669,0,0,-9,0,0,0,77,79,10,0,82,93.67,0,15.00,-17.00,-1011.00
2024-06-06 23:50:50.139953,0,0,-9,0,0,0,77,79,10,0,82,93.67,0,14.00,-5.00,-1057.00
2024-06-06 23:50:50.206189,0,0,-9,0,0,0,77,79,10,0,82,93.67,0,-2.00,-1.00,-1148.00
2024-06-06 23:50:50.344783,-1,0,-9,0,0,-1,77,79,10,0,82,93.67,0,14.00,4.00,-1332.00
2024-06-06 23:50:50.410158,0,0,-9,0,0,-3,78,80,10,0,82,93.67,0,20.00,1.00,-1247.00
2024-06-06 23:50:50.461176,1,0,-9,0,0,-6,78,80,18,0,82,93.97,0,3.00,3.00,-1111.00
2024-06-06 23:50:50.652145,1,0,-9,0,0,-7,78,80,26,0,82,93.94,0,1.00,1.00,-1049.00
2024-06-06 23:50:50.665167,1,0,-9,0,0,-7,78,80,34,10,82,94.16,1,6.00,-9.00,-1002.00
2024-06-06 23:50:50.861040,1,0,-9,0,0,-7,78,80,40,10,82,94.24,1,7.00,-3.00,-956.00
2024-06-06 23:50:50.871037,0,0,-9,0,0,-6,78,80,49,20,82,94.31,1,9.00,-4.00,-913.00
2024-06-06 23:50:50.971118,0,0,-9,0,0,-5,78,80,58,20,82,94.34,1,5.00,0.00,-903.00
2024-06-06 23:50:51.073374,0,0,-9,0,0,-4,78,80,64,30,82,94.33,1,10.00,1.00,-896.00
2024-06-06 23:50:51.266498,0,0,-9,0,0,-3,78,80,71,30,82,94.76,1,9.00,0.00,-895.00
2024-06-06 23:50:51.277874,0,0,-9,0,0,-2,78,80,76,40,82,94.78,1,7.00,-2.00,-899.00
2024-06-06 23:50:51.379129,0,0,-9,0,0,-1,78,80,82,40,82,94.82,1,10.00,-1.00,-920.00
2024-06-06 23:50:51.481135,0,0,-9,0,0,-1,78,80,85,40,82,94.72,1,13.00,-4.00,-935.00
2024-06-06 23:50:51.587601,0,0,-9,0,0,0,78,80,87,40,82,94.96,1,15.00,3.00,-949.00
2024-06-06 23:50:51.685199,0,0,-9,0,0,0,78,80,89,50,82,94.85,2,2.00,-6.00,-953.00
2024-06-06 23:50:51.880843,0,0,-9,0,0,0,78,80,91,50,82,94.67,2,16.00,-1.00,-977.00
2024-06-06 23:50:51.889085,0,0,-9,0,0,0,78,80,91,50,82,94.70,2,-4.00,0.00,-980.00
2024-06-06 23:50:52.188219,0,0,-9,0,0,0,78,80,92,50,82,95.18,2,7.00,-4.00,-976.00
2024-06-06 23:50:52.303540,0,0,-9,0,0,0,78,80,93,50,82,94.78,2,4.00,-3.00,-972.00
2024-06-06 23:50:52.303633,0,0,-9,0,0,0,78,80,93,50,82,94.59,2,12.00,-2.00,-979.00
2024-06-06 23:50:52.303932,0,0,-9,0,0,0,78,80,93,50,82,94.96,2,9.00,-6.00,-975.00
2024-06-06 23:50:52.415730,0,0,-9,0,0,0,77,79,93,50,82,94.84,2,9.00,0.00,-977.00
2024-06-06 23:50:52.602768,0,0,-9,0,0,0,77,79,93,50,82,94.92,2,11.00,-2.00,-984.00
2024-06-06 23:50:52.602953,0,0,-9,0,0,0,77,79,93,50,82,94.74,2,8.00,-4.00,-992.00
2024-06-06 23:50:52.763527,0,0,-9,0,0,0,77,79,92,50,82,94.60,3,15.00,-6.00,-993.00
2024-06-06 23:50:52.832483,0,0,-9,0,0,0,77,79,92,50,82,94.64,3,10.00,-3.00,-994.00
2024-06-06 23:50:52.945919,0,0,-9,0,0,1,77,79,91,50,82,94.96,3,1.00,12.00,-996.00
2024-06-06 23:50:53.010826,0,0,-9,0,0,1,77,79,90,50,82,94.73,3,15.00,1.00,-994.00
2024-06-06 23:50:53.113024,0,0,-9,0,0,1,77,79,89,50,82,94.59,3,4.00,-7.00,-990.00
2024-06-06 23:50:53.225898,0,0,-9,0,0,1,77,79,89,50,82,94.79,3,12.00,0.00,-1002.00
2024-06-06 23:50:53.318067,0,0,-9,0,0,1,77,79,88,50,82,94.66,3,11.00,-3.00,-996.00
2024-06-06 23:50:53.530209,0,0,-9,0,0,0,77,79,86,50,82,94.86,3,6.00,-5.00,-1002.00
2024-06-06 23:50:53.530375,0,0,-9,0,0,0,77,79,86,50,82,94.61,3,6.00,4.00,-1010.00
2024-06-06 23:50:53.673728,0,0,-9,0,0,0,77,79,84,50,82,94.85,3,11.00,-1.00,-1005.00
2024-06-06 23:50:53.837769,0,0,-9,0,0,0,77,79,83,50,82,94.58,4,6.00,-2.00,-1011.00
2024-06-06 23:50:53.838016,0,0,-9,0,0,0,77,79,82,50,82,94.45,4,8.00,-2.00,-1011.00
2024-06-06 23:50:53.980619,0,0,-9,0,0,0,77,79,82,50,82,94.86,4,7.00,-3.00,-1006.00
2024-06-06 23:50:54.030868,0,0,-9,0,0,0,77,79,80,50,82,94.75,4,5.00,-6.00,-1009.00
2024-06-06 23:50:54.147363,0,0,-9,0,0,0,77,79,80,50,82,94.55,4,19.00,3.00,-1008.00
2024-06-06 23:50:54.299738,0,0,-9,0,0,0,77,79,79,50,82,94.91,4,13.00,0.00,-1011.00
2024-06-06 23:50:54.300052,0,0,-9,0,0,0,77,79,79,40,82,94.60,4,16.00,-2.00,-1010.00
2024-06-06 23:50:54.389711,0,0,-9,0,0,0,76,79,78,40,82,94.61,4,10.00,-5.00,-1000.00
2024-06-06 23:50:54.489831,0,0,-9,0,0,0,76,79,77,40,82,94.50,4,10.00,4.00,-1010.00
2024-06-06 23:50:54.645366,0,0,-9,0,0,0,76,79,77,40,81,94.78,4,17.00,-6.00,-1005.00
2024-06-06 23:50:54.693885,0,0,-9,0,0,0,76,79,77,40,81,94.63,5,2.00,0.00,-1020.00
2024-06-06 23:50:54.850252,0,0,-9,0,0,0,76,79,75,40,81,94.64,5,5.00,-7.00,-1021.00
2024-06-06 23:50:54.898962,0,0,-9,0,0,0,76,79,75,40,81,94.92,5,10.00,0.00,-1013.00
2024-06-06 23:50:55.054920,0,0,-9,0,0,0,76,79,75,40,81,94.76,5,16.00,-20.00,-991.00
2024-06-06 23:50:55.104988,0,0,-9,0,0,0,76,79,76,40,81,94.67,5,15.00,-1.00,-996.00
2024-06-06 23:50:55.203847,0,0,-9,0,0,0,76,79,77,40,81,94.53,5,9.00,-3.00,-996.00
2024-06-06 23:50:55.362071,0,0,-9,0,0,0,76,79,77,40,81,94.71,5,5.00,-10.00,-992.00
2024-06-06 23:50:55.407712,0,0,-9,0,0,0,76,79,77,40,81,94.68,5,19.00,-26.00,-981.00
2024-06-06 23:50:55.567611,0,0,-9,0,0,0,76,79,77,40,81,94.71,5,8.00,-4.00,-993.00
2024-06-06 23:50:55.612602,0,0,-9,0,0,0,76,79,78,40,81,94.79,5,-1.00,2.00,-996.00
2024-06-06 23:50:55.773101,0,0,-9,0,0,0,76,79,77,40,81,94.53,6,12.00,-7.00,-1003.00
2024-06-06 23:50:55.822824,0,0,-9,0,0,0,76,79,77,40,81,94.75,6,17.00,-6.00,-991.00
2024-06-06 23:50:55.921896,0,0,-9,0,0,0,76,79,77,40,81,94.65,6,9.00,-8.00,-999.00
2024-06-06 23:50:56.020509,0,0,-9,0,0,0,76,79,78,40,81,94.83,6,10.00,-5.00,-995.00
2024-06-06 23:50:56.181512,0,0,-9,0,0,0,76,79,78,40,81,94.62,6,5.00,-2.00,-999.00
2024-06-06 23:50:56.225255,0,0,-9,0,0,0,76,79,78,40,81,94.45,6,6.00,0.00,-999.00
2024-06-06 23:50:56.386125,0,0,-9,0,0,0,76,79,78,40,81,94.44,6,11.00,-12.00,-991.00
2024-06-06 23:50:56.428811,0,0,-9,0,0,0,77,79,79,40,81,94.76,6,10.00,0.00,-995.00
2024-06-06 23:50:56.591098,0,0,-9,0,0,0,77,79,79,40,81,94.97,6,11.00,-3.00,-997.00
2024-06-06 23:50:56.632860,0,0,-9,0,0,0,77,79,79,40,80,94.87,7,5.00,6.00,-1008.00
2024-06-06 23:50:56.766908,0,0,-9,0,0,0,77,79,79,40,80,94.75,7,9.00,-14.00,-989.00
2024-06-06 23:50:56.838206,0,0,-9,0,0,0,77,79,79,40,80,94.40,7,3.00,3.00,-1002.00
2024-06-06 23:50:56.938690,0,0,-9,0,0,0,77,79,79,40,80,94.81,7,17.00,-9.00,-988.00
2024-06-06 23:50:57.040529,0,0,-9,0,0,0,77,79,79,40,80,94.92,7,17.00,-1.00,-1001.00
2024-06-06 23:50:57.206897,0,0,-9,0,0,0,77,79,80,40,80,94.83,7,6.00,-2.00,-998.00
2024-06-06 23:50:57.247901,0,0,-9,0,0,0,77,79,79,40,80,94.73,7,11.00,-9.00,-992.00
2024-06-06 23:50:57.346638,0,0,-9,0,0,0,77,79,79,40,80,94.99,7,9.00,0.00,-1002.00
2024-06-06 23:50:57.491578,0,0,-9,0,0,0,76,79,79,40,80,94.68,7,1.00,8.00,-1007.00
2024-06-06 23:50:57.550438,0,0,-9,0,0,0,76,79,80,40,80,94.71,7,4.00,-4.00,-993.00
2024-06-06 23:50:57.670968,0,0,-9,0,0,0,76,79,80,40,80,94.62,8,10.00,-4.00,-1003.00
2024-06-06 23:50:57.703705,0,0,-9,0,0,0,76,79,80,40,80,94.64,8,-3.00,5.00,-1057.00
2024-06-06 23:50:57.819941,0,0,-9,0,0,0,76,79,80,40,80,95.05,8,-5.00,0.00,-1093.00
2024-06-06 23:50:57.908461,0,0,-9,0,0,-1,76,79,81,50,80,94.70,8,16.00,-19.00,-1096.00
2024-06-06 23:50:58.024384,0,0,-9,0,0,-2,76,79,84,50,80,95.22,8,-3.00,9.00,-1092.00
2024-06-06 23:50:58.111421,0,0,-9,0,0,-3,76,79,87,50,80,94.47,8,3.00,-6.00,-1074.00
2024-06-06 23:50:58.229143,0,0,-9,0,0,-4,76,79,91,60,80,94.74,8,4.00,0.00,-1065.00
2024-06-06 23:50:58.315519,0,0,-9,0,0,-5,76,79,95,60,80,94.87,8,2.00,-1.00,-1054.00
2024-06-06 23:50:58.417440,0,0,-9,0,0,-5,76,78,101,70,80,95.02,8,2.00,0.00,-1021.00
2024-06-06 23:50:58.536325,0,0,-9,0,0,-5,76,78,107,70,80,95.07,8,9.00,-6.00,-1012.00
2024-06-06 23:50:58.622122,0,0,-9,0,0,-5,76,78,112,80,79,94.94,9,6.00,-6.00,-996.00
2024-06-06 23:50:58.748019,0,0,-9,0,0,-5,76,78,119,80,79,94.94,9,14.00,-7.00,-984.00
2024-06-06 23:50:58.825427,0,0,-9,0,0,-5,76,78,124,90,79,94.96,9,16.00,-8.00,-965.00
2024-06-06 23:50:58.947835,0,0,-9,0,0,-5,76,78,130,100,79,95.17,9,24.00,-8.00,-975.00
2024-06-06 23:50:59.029368,0,0,-9,0,0,-5,76,78,135,100,79,95.31,9,2.00,-2.00,-973.00
2024-06-06 23:50:59.156147,0,0,-9,0,0,-4,76,78,139,110,79,95.22,9,4.00,-13.00,-960.00
2024-06-06 23:50:59.244300,0,0,-9,0,0,-4,76,78,144,110,79,95.44,9,2.00,13.00,-988.00
2024-06-06 23:50:59.335371,0,0,-9,0,0,-4,76,78,148,110,79,95.37,9,14.00,-2.00,-955.00
2024-06-06 23:50:59.437421,0,0,-9,0,0,-3,76,78,154,120,79,95.17,9,14.00,-2.00,-974.00
2024-06-06 23:50:59.560301,0,0,-9,0,0,-3,76,78,158,120,79,95.50,9,11.00,-9.00,-953.00
2024-06-06 23:50:59.641388,0,0,-9,0,0,-3,76,78,160,120,79,95.67,10,2.00,8.00,-966.00
2024-06-06 23:50:59.765063,0,0,-9,0,0,-2,76,78,163,130,79,95.86,10,18.00,-4.00,-969.00
2024-06-06 23:50:59.845487,0,0,-9,0,0,-2,76,78,165,130,79,95.51,10,2.00,5.00,-969.00
2024-06-06 23:50:59.947331,0,0,-9,0,0,-2,76,78,166,130,79,95.49,10,15.00,-1.00,-976.00
2024-06-06 23:51:00.072298,0,0,-9,0,0,-1,76,78,169,130,79,95.56,10,9.00,-10.00,-959.00
2024-06-06 23:51:00.151380,0,0,-9,0,0,-1,76,78,171,140,79,95.64,10,11.00,1.00,-986.00
2024-06-06 23:51:00.278243,0,0,-9,0,0,-1,76,78,172,140,79,95.40,10,14.00,2.00,-974.00
2024-06-06 23:51:00.358693,0,0,-9,0,0,-1,76,78,173,140,79,95.85,10,8.00,0.00,-983.00
2024-06-06 23:51:00.457464,0,0,-9,0,0,0,76,79,174,140,79,95.50,10,21.00,4.00,-992.00
2024-06-06 23:51:00.560801,0,0,-9,0,0,0,76,79,176,140,79,95.82,10,5.00,2.00,-968.00
2024-06-06 23:51:00.686804,0,0,-9,0,0,0,76,79,176,140,78,95.68,11,12.00,-14.00,-978.00
2024-06-06 23:51:00.763364,0,0,-9,0,0,0,76,79,176,140,78,95.43,11,17.00,-10.00,-984.00
2024-06-06 23:51:00.892549,0,0,-9,0,0,0,76,79,176,140,78,95.46,11,11.00,-5.00,-986.00
2024-06-06 23:51:00.967710,0,0,-9,0,0,0,76,79,176,140,78,95.62,11,16.00,-9.00,-996.00
2024-06-06 23:51:01.096362,0,0,-9,0,0,0,76,79,176,140,78,95.76,11,20.00,-9.00,-986.00
2024-06-06 23:51:01.171362,0,0,-9,0,0,0,76,79,177,140,78,95.55,11,1.00,2.00,-993.00
2024-06-06 23:51:01.222376,0,0,-9,0,0,0,76,79,177,140,78,95.60,11,11.00,-11.00,-992.00
2024-06-06 23:51:01.403546,0,0,-9,0,0,0,76,79,176,140,78,95.67,11,14.00,0.00,-997.00
2024-06-06 23:51:01.477301,0,0,-9,0,0,0,76,78,175,140,78,95.62,11,6.00,2.00,-995.00
2024-06-06 23:51:01.536458,0,0,-9,0,0,0,76,78,176,140,78,95.51,11,8.00,0.00,-988.00
2024-06-06 23:51:01.629994,0,0,-9,0,0,0,76,78,175,140,78,95.36,12,15.00,-21.00,-988.00
2024-06-06 23:51:01.813564,0,0,-9,0,0,0,76,78,176,140,78,95.62,12,4.00,-6.00,-1006.00
2024-06-06 23:51:01.843502,0,0,-9,0,0,0,76,78,176,140,78,95.46,12,15.00,5.00,-1017.00
2024-06-06 23:51:01.936531,0,0,-9,0,0,0,76,78,176,140,78,95.64,12,24.00,-13.00,-997.00
2024-06-06 23:51:02.121549,0,0,-9,0,0,0,76,78,176,140,78,95.37,12,0.00,1.00,-1001.00
2024-06-06 23:51:02.150491,0,0,-9,0,0,0,76,78,176,140,78,95.43,12,11.00,-4.00,-1001.00
2024-06-06 23:51:02.253101,0,0,-9,0,0,0,76,78,176,140,78,95.69,12,0.00,-7.00,-981.00
2024-06-06 23:51:02.346672,0,0,-9,0,0,0,76,78,175,140,78,95.57,12,8.00,-12.00,-991.00
2024-06-06 23:51:02.446321,0,0,-9,0,0,0,76,78,176,140,78,95.63,12,5.00,-13.00,-984.00
2024-06-06 23:51:02.632143,0,0,-9,0,0,0,76,78,176,140,77,95.75,12,20.00,-12.00,-985.00
2024-06-06 23:51:02.653930,0,0,-9,0,0,0,76,78,176,140,77,95.70,13,5.00,2.00,-958.00
2024-06-06 23:51:02.751816,0,0,-9,0,0,0,76,78,175,140,77,95.86,13,10.00,8.00,-961.00
2024-06-06 23:51:02.939473,0,0,-9,0,0,1,76,78,174,140,77,95.53,13,16.00,3.00,-948.00
2024-06-06 23:51:02.955865,0,0,-9,0,0,1,76,78,172,140,77,95.34,13,15.00,-13.00,-946.00
2024-06-06 23:51:03.144514,0,0,-9,0,0,2,76,78,170,140,77,95.58,13,10.00,-4.00,-965.00
2024-06-06 23:51:03.159810,0,0,-9,0,0,2,76,78,168,130,77,95.43,13,1.00,6.00,-981.00
2024-06-06 23:51:03.354360,0,0,-9,0,0,2,76,78,165,130,77,95.58,13,-3.00,-1.00,-974.00
2024-06-06 23:51:03.363898,0,0,-9,0,0,2,76,78,163,130,77,95.43,13,11.00,0.00,-992.00
2024-06-06 23:51:03.498548,0,0,-9,0,0,2,76,77,159,130,77,95.60,13,18.00,-3.00,-997.00
2024-06-06 23:51:03.568192,0,0,-9,0,0,2,76,77,157,120,77,95.39,13,13.00,-10.00,-1002.00
2024-06-06 23:51:03.758602,0,0,-9,0,0,2,76,77,154,120,77,95.37,14,16.00,-13.00,-1002.00
2024-06-06 23:51:03.771628,0,0,-9,0,0,2,76,77,151,120,77,95.67,14,9.00,-3.00,-1005.00
2024-06-06 23:51:03.963398,0,0,-9,0,0,2,76,77,149,110,77,95.35,14,7.00,2.00,-1019.00
2024-06-06 23:51:03.981491,0,0,-9,0,0,2,76,77,146,110,77,95.67,14,23.00,7.00,-1032.00
2024-06-06 23:51:04.086178,0,0,-9,0,0,2,76,77,144,110,77,95.32,14,22.00,-17.00,-1008.00
2024-06-06 23:51:04.179775,0,0,-9,0,0,2,76,77,141,110,77,95.17,14,11.00,0.00,-1015.00
2024-06-06 23:51:04.372869,0,0,-9,0,0,1,76,77,140,110,77,95.26,14,9.00,-5.00,-1016.00
2024-06-06 23:51:04.384125,0,0,-9,0,0,1,76,77,138,100,77,95.33,14,9.00,-2.00,-1019.00
2024-06-06 23:51:04.486339,0,0,-9,0,0,1,75,77,136,100,77,95.04,14,10.00,3.00,-1023.00
2024-06-06 23:51:04.681075,0,0,-9,0,0,1,75,77,135,100,76,94.91,14,4.00,-17.00,-998.00
2024-06-06 23:51:04.689837,0,0,-9,0,0,1,75,77,134,100,76,95.00,15,13.00,12.00,-1023.00
2024-06-06 23:51:04.885290,0,0,-9,0,0,1,75,77,133,100,76,94.93,15,27.00,-21.00,-1014.00
2024-06-06 23:51:04.893744,0,0,-9,0,0,1,75,77,131,100,76,95.46,15,7.00,-9.00,-1003.00
2024-06-06 23:51:04.995752,0,0,-9,0,0,0,75,77,131,100,76,95.30,15,3.00,11.00,-1030.00
2024-06-06 23:51:05.051584,0,0,-9,0,0,0,75,77,129,100,76,95.13,15,13.00,1.00,-1006.00
2024-06-06 23:51:05.154706,0,0,-9,0,0,0,75,77,129,90,76,95.21,15,17.00,-8.00,-1013.00
2024-06-06 23:51:05.253293,0,0,-9,0,0,0,75,77,129,90,76,95.09,15,19.00,-11.00,-1017.00
2024-06-06 23:51:05.353413,0,0,-9,0,0,0,75,77,128,90,76,95.39,15,15.00,-12.00,-1012.00
2024-06-06 23:51:05.455460,0,0,-9,0,0,0,75,78,129,90,76,95.25,15,7.00,1.00,-1018.00
2024-06-06 23:51:05.604227,0,0,-9,0,0,0,75,78,129,90,76,95.14,15,17.00,-3.00,-1016.00
2024-06-06 23:51:05.658956,0,0,-9,0,0,0,75,78,129,90,76,95.17,16,7.00,0.00,-1004.00
2024-06-06 23:51:05.806609,0,0,-9,0,0,0,75,78,129,90,76,94.94,16,12.00,-1.00,-1016.00
2024-06-06 23:51:05.863271,0,0,-9,0,0,0,75,78,129,90,76,95.11,16,10.00,-9.00,-996.00
2024-06-06 23:51:05.972458,0,0,-9,0,0,0,75,78,129,90,76,95.34,16,8.00,-16.00,-991.00
2024-06-06 23:51:06.066841,0,0,-9,0,0,0,75,78,129,90,76,95.15,16,0.00,-5.00,-1006.00
2024-06-06 23:51:06.217946,0,0,-9,0,0,0,75,78,130,90,76,95.18,16,7.00,-6.00,-997.00
2024-06-06 23:51:06.271292,0,0,-9,0,0,0,75,78,130,90,76,95.09,16,4.00,-6.00,-998.00
2024-06-06 23:51:06.423028,0,0,-9,0,0,0,75,78,130,90,76,95.14,16,18.00,-5.00,-996.00
2024-06-06 23:51:06.474914,0,0,-9,0,0,0,75,77,130,90,76,95.01,16,10.00,0.00,-1000.00
2024-06-06 23:51:06.577385,0,0,-9,0,0,0,75,77,130,90,75,95.02,16,10.00,3.00,-1007.00
2024-06-06 23:51:06.728458,0,0,-9,0,0,0,75,77,129,100,75,94.80,17,13.00,-2.00,-1007.00
2024-06-06 23:51:06.780965,0,0,-9,0,0,0,75,77,130,100,75,95.15,17,8.00,2.00,-1000.00
2024-06-06 23:51:06.933078,0,0,-9,0,0,0,75,77,131,100,75,95.10,17,16.00,-5.00,-999.00
2024-06-06 23:51:06.985974,0,0,-9,0,0,0,75,77,130,100,75,95.26,17,2.00,-1.00,-999.00
2024-06-06 23:51:07.110430,0,0,-9,0,0,0,75,77,130,100,75,95.16,17,9.00,0.00,-1022.00
2024-06-06 23:51:07.190835,-1,0,-9,0,0,0,75,77,131,100,75,94.90,17,29.00,-11.00,-997.00
2024-06-06 23:51:07.355469,-6,0,-9,0,0,0,75,77,131,100,75,94.87,17,5.00,-3.00,-1002.00
2024-06-06 23:51:07.467637,-8,0,-9,2,0,0,75,77,131,100,75,95.08,17,0.00,-1.00,-1009.00
2024-06-06 23:51:07.522932,-8,0,-9,3,0,0,75,77,131,90,75,95.15,17,-12.00,-10.00,-1009.00
2024-06-06 23:51:07.632390,-7,0,-9,4,0,0,75,77,131,90,75,95.23,17,-7.00,-17.00,-1002.00
2024-06-06 23:51:07.700715,-6,0,-9,5,0,0,75,77,130,90,75,95.20,18,-34.00,-9.00,-994.00
2024-06-06 23:51:07.800651,-6,0,-9,6,-1,0,75,77,131,90,75,94.98,18,-26.00,-8.00,-1001.00
2024-06-06 23:51:08.059196,-5,0,-9,6,-1,0,75,77,131,90,75,95.21,18,-39.00,-1.00,-1007.00
2024-06-06 23:51:08.059787,-4,0,-9,7,-1,0,75,77,131,90,75,94.76,18,-45.00,-1.00,-997.00
2024-06-06 23:51:08.126049,-2,0,-9,7,-1,0,75,77,131,90,75,94.95,18,-36.00,-15.00,-990.00
2024-06-06 23:51:08.286296,0,0,-9,7,-1,0,75,77,131,90,75,94.89,18,-46.00,0.00,-992.00
2024-06-06 23:51:08.310544,3,0,-9,6,-1,0,75,77,131,90,75,94.95,18,-37.00,-13.00,-1001.00
2024-06-06 23:51:08.468658,4,0,-9,5,0,0,75,77,131,90,75,94.95,18,-30.00,-9.00,-998.00
2024-06-06 23:51:08.582171,3,0,-9,4,0,0,76,78,131,90,75,95.18,18,-30.00,-2.00,-1008.00
2024-06-06 23:51:08.725492,1,0,-9,3,0,0,76,78,131,100,74,95.09,18,-5.00,-11.00,-997.00
2024-06-06 23:51:08.725722,0,0,-9,3,0,0,76,78,131,100,74,94.93,19,-20.00,9.00,-992.00
2024-06-06 23:51:08.895731,0,0,-9,2,0,0,76,78,131,100,74,94.93,19,-20.00,-2.00,-1006.00
2024-06-06 23:51:09.039065,0,1,-9,2,0,0,76,78,131,100,74,95.18,19,-7.00,-9.00,-990.00
2024-06-06 23:51:09.039552,0,0,-9,2,0,0,76,78,131,100,74,95.15,19,-10.00,-8.00,-1005.00
2024-06-06 23:51:09.077710,0,0,-9,2,0,0,76,78,131,100,74,95.22,19,-10.00,-3.00,-992.00
2024-06-06 23:51:09.196431,0,0,-9,2,0,0,76,78,130,100,74,95.07,19,-17.00,-5.00,-1002.00
2024-06-06 23:51:09.339826,0,0,-9,2,0,0,76,78,130,100,74,95.14,19,-2.00,-19.00,-994.00
2024-06-06 23:51:09.384808,0,0,-9,2,0,0,76,78,131,100,74,95.13,19,-3.00,-12.00,-990.00
2024-06-06 23:51:09.518173,1,0,-9,2,0,0,75,77,131,100,74,94.96,19,-6.00,-2.00,-986.00
2024-06-06 23:51:09.585318,3,0,-9,1,0,0,75,77,130,100,74,95.27,19,-16.00,-6.00,-1024.00
2024-06-06 23:51:09.697543,3,0,-9,0,0,0,75,77,130,100,74,95.24,20,9.00,-20.00,-987.00
2024-06-06 23:51:09.789759,1,0,-9,0,0,0,75,77,130,100,74,94.83,20,25.00,-5.00,-1004.00
2024-06-06 23:51:09.903053,1,0,-9,0,0,0,75,77,130,90,74,95.10,20,14.00,0.00,-1005.00
2024-06-06 23:51:09.993595,0,0,-9,0,0,0,75,77,129,90,74,95.09,20,-1.00,6.00,-1019.00
2024-06-06 23:51:10.107431,0,0,-9,0,0,0,75,77,130,90,74,95.04,20,9.00,-13.00,-994.00
2024-06-06 23:51:10.202699,0,0,-9,0,0,0,75,77,129,90,74,94.98,20,14.00,-7.00,-1014.00
2024-06-06 23:51:10.299421,0,0,-9,0,0,0,75,77,130,90,74,95.00,20,0.00,0.00,-993.00
2024-06-06 23:51:10.414488,0,0,-9,0,0,0,75,77,130,90,74,95.21,20,9.00,-9.00,-1000.00
2024-06-06 23:51:10.506036,0,0,-9,0,0,0,74,77,130,90,74,94.94,20,14.00,-10.00,-1001.00
2024-06-06 23:51:10.605403,0,0,-9,0,0,0,74,77,130,90,73,95.11,20,22.00,-16.00,-993.00
2024-06-06 23:51:10.721693,0,0,-9,0,0,0,74,77,130,90,73,94.93,21,8.00,9.00,-1005.00
2024-06-06 23:51:10.809252,0,0,-9,0,0,0,74,77,130,90,73,95.01,21,7.00,0.00,-1002.00
2024-06-06 23:51:10.926254,0,0,-9,0,0,0,74,77,130,90,73,95.11,21,28.00,-16.00,-1007.00
2024-06-06 23:51:11.013254,0,0,-9,0,0,0,74,77,131,90,73,94.95,21,17.00,-3.00,-988.00
2024-06-06 23:51:11.132893,0,0,-9,0,0,0,74,77,130,90,73,95.16,21,2.00,-3.00,-991.00
2024-06-06 23:51:11.217294,0,0,-9,0,0,0,74,77,131,100,73,95.18,21,13.00,-11.00,-995.00
2024-06-06 23:51:11.335959,0,0,-9,0,0,0,74,77,130,100,73,95.21,21,25.00,-2.00,-1017.00
2024-06-06 23:51:11.422101,0,0,-9,0,0,0,74,77,130,100,73,94.99,21,12.00,-4.00,-1002.00
2024-06-06 23:51:11.523434,0,0,-9,0,0,0,75,77,130,100,73,94.85,21,-1.00,-1.00,-984.00
2024-06-06 23:51:11.643143,0,0,-9,0,0,0,75,77,131,100,73,95.05,21,18.00,-6.00,-984.00
2024-06-06 23:51:11.726979,0,0,-9,0,0,0,75,77,130,100,73,95.10,22,2.00,-5.00,-1010.00
2024-06-06 23:51:11.847774,0,0,-9,0,0,0,75,77,131,100,73,94.89,22,0.00,-6.00,-995.00
2024-06-06 23:51:11.931281,1,0,-9,0,0,0,75,77,130,100,73,94.96,22,0.00,-4.00,-1004.00
2024-06-06 23:51:12.052524,7,0,-9,0,0,0,75,77,130,100,73,94.96,22,0.00,-10.00,-1017.00
2024-06-06 23:51:12.135030,8,0,-9,-1,0,0,75,77,132,100,73,95.19,22,19.00,0.00,-1010.00
2024-06-06 23:51:12.186313,8,0,-9,-3,0,0,75,77,132,90,73,95.17,22,39.00,-5.00,-1006.00
2024-06-06 23:51:12.359833,8,0,-9,-4,0,0,75,77,131,90,73,95.05,22,34.00,-5.00,-1010.00
2024-06-06 23:51:12.391072,7,0,-9,-5,0,0,75,77,130,90,73,95.10,22,37.00,-6.00,-1002.00
2024-06-06 23:51:12.544641,5,0,-9,-7,1,0,75,77,130,90,73,95.03,22,39.00,-7.00,-1007.00
2024-06-06 23:51:12.667013,5,0,-9,-7,1,0,75,77,131,90,72,95.03,23,45.00,-1.00,-1012.00
2024-06-06 23:51:12.748326,2,0,-9,-7,1,0,75,77,130,90,72,95.16,23,49.00,2.00,-984.00
2024-06-06 23:51:12.799807,0,0,-9,-7,1,0,75,77,130,90,72,95.19,23,58.00,-1.00,-1015.00
2024-06-06 23:51:12.906142,-2,0,-9,-6,0,0,75,77,131,90,72,95.10,23,65.00,-5.00,-995.00
2024-06-06 23:51:13.006459,-3,0,-9,-5,0,0,75,77,131,90,72,94.84,23,59.00,-3.00,-995.00
2024-06-06 23:51:13.106782,-2,0,-9,-4,0,0,75,77,132,90,72,95.14,23,56.00,-7.00,-994.00
2024-06-06 23:51:13.209273,0,0,-9,-3,0,0,75,77,131,90,72,95.15,23,46.00,0.00,-1001.00
2024-06-06 23:51:13.312064,0,0,-9,-3,0,0,75,77,131,90,72,95.12,23,35.00,4.00,-1009.00
2024-06-06 23:51:13.415131,0,0,-9,-3,0,0,75,77,131,90,72,94.83,23,41.00,-9.00,-1007.00
2024-06-06 23:51:13.516541,0,0,-9,-3,0,0,75,77,131,90,72,95.11,23,27.00,-8.00,-997.00
2024-06-06 23:51:13.619044,0,0,-9,-3,0,0,75,77,131,90,72,95.02,24,28.00,0.00,-1012.00
2024-06-06 23:51:13.722757,0,0,-9,-2,0,0,75,77,132,100,72,95.03,24,27.00,-11.00,-997.00
2024-06-06 23:51:13.823694,0,0,-9,-2,0,0,75,77,131,100,72,95.03,24,38.00,-18.00,-989.00
2024-06-06 23:51:13.921231,-1,0,-9,-2,0,0,75,77,131,100,72,94.96,24,24.00,-5.00,-1003.00
2024-06-06 23:51:14.101939,-3,0,-9,-2,0,0,75,77,133,100,72,95.22,24,26.00,-6.00,-977.00
2024-06-06 23:51:14.125757,-3,0,-9,-1,0,0,75,77,132,100,72,95.07,24,5.00,12.00,-1007.00
2024-06-06 23:51:14.307073,-1,0,-9,0,0,0,75,77,133,100,72,95.17,24,10.00,0.00,-1012.00
2024-06-06 23:51:14.329465,0,0,-9,0,0,0,75,77,133,100,72,95.18,24,25.00,-17.00,-1003.00
2024-06-06 23:51:14.511868,0,0,-9,0,0,0,75,77,132,100,72,95.24,24,4.00,-7.00,-989.00
2024-06-06 23:51:14.532915,0,0,-9,0,0,0,74,76,132,100,72,95.00,24,13.00,-8.00,-1005.00
2024-06-06 23:51:14.716065,0,0,-9,0,0,0,74,76,133,100,71,95.44,25,11.00,-9.00,-998.00
2024-06-06 23:51:14.736888,0,0,-9,0,0,0,74,76,134,100,71,95.16,25,-10.00,8.00,-1001.00
2024-06-06 23:51:14.921183,0,0,-9,0,0,0,74,76,133,100,71,94.94,25,19.00,-14.00,-991.00
2024-06-06 23:51:14.941913,0,0,-9,0,0,0,74,76,134,100,71,94.97,25,9.00,1.00,-992.00
2024-06-06 23:51:15.043085,0,0,-9,0,0,0,74,76,134,100,71,95.30,25,3.00,-17.00,-988.00
2024-06-06 23:51:15.228477,0,0,-9,0,0,0,74,76,134,100,71,94.94,25,8.00,2.00,-996.00
2024-06-06 23:51:15.246914,0,0,-9,0,0,0,74,76,134,100,71,95.11,25,9.00,-8.00,-991.00
2024-06-06 23:51:15.437213,0,0,-9,0,0,0,74,76,133,100,71,95.25,25,-6.00,8.00,-993.00
2024-06-06 23:51:15.450839,0,0,-9,0,0,0,74,76,133,100,71,95.05,25,3.00,-4.00,-995.00
2024-06-06 23:51:15.553053,0,0,-9,0,0,0,75,77,133,100,71,95.05,25,-2.00,-6.00,-992.00
2024-06-06 23:51:15.744467,0,0,-9,0,0,0,75,77,133,100,71,94.96,26,2.00,6.00,-1012.00
2024-06-06 23:51:15.756781,0,0,-9,0,0,0,75,77,133,100,71,95.16,26,-2.00,1.00,-1004.00
2024-06-06 23:51:15.945361,0,0,-9,0,0,0,75,77,132,100,71,95.04,26,0.00,0.00,-1005.00
2024-06-06 23:51:15.960800,0,0,-9,0,0,0,75,77,132,100,71,95.22,26,1.00,-3.00,-1006.00
2024-06-06 23:51:16.151089,0,0,-9,0,0,0,75,77,131,100,71,95.22,26,-2.00,2.00,-1008.00
2024-06-06 23:51:16.164705,0,0,-9,0,0,0,75,77,131,100,71,95.13,26,-3.00,-7.00,-993.00
2024-06-06 23:51:16.218929,0,0,-9,0,0,0,75,77,131,100,71,95.32,26,1.00,-4.00,-1004.00
2024-06-06 23:51:16.317913,0,0,-9,0,0,0,75,77,131,100,71,95.09,26,1.00,-8.00,-1001.00
2024-06-06 23:51:16.457219,0,0,-9,0,0,0,75,77,130,100,71,95.09,26,1.00,8.00,-978.00
2024-06-06 23:51:16.524948,0,-6,-9,0,0,0,75,78,132,100,71,94.87,26,9.00,-11.00,-1015.00
2024-06-06 23:51:16.624075,0,-7,-9,0,-1,0,75,78,132,100,70,95.14,27,7.00,0.00,-1024.00
2024-06-06 23:51:16.771813,0,-5,-9,0,-3,0,75,78,131,90,70,95.17,27,1.00,15.00,-1009.00
2024-06-06 23:51:16.834092,0,-3,-9,0,-3,0,75,78,131,90,70,95.14,27,1.00,22.00,-1018.00
2024-06-06 23:51:16.929945,0,0,-9,0,-3,0,75,78,130,90,70,94.84,27,17.00,15.00,-996.00
2024-06-06 23:51:17.071228,0,1,-9,0,-3,0,75,78,130,90,70,95.03,27,12.00,7.00,-982.00
2024-06-06 23:51:17.133934,0,0,-9,0,-2,0,75,78,130,90,70,95.01,27,5.00,17.00,-1011.00
2024-06-06 23:51:17.275912,1,0,-9,0,-2,0,75,78,129,90,70,95.19,27,6.00,18.00,-1002.00
2024-06-06 23:51:17.346269,1,0,-9,0,-2,0,75,78,130,90,70,94.98,27,7.00,15.00,-1009.00
2024-06-06 23:51:17.440057,1,0,-9,0,-2,0,75,78,130,90,70,94.92,27,22.00,14.00,-1016.00
2024-06-06 23:51:17.582833,1,0,-9,0,-2,0,75,77,130,90,70,95.02,27,20.00,3.00,-1003.00
2024-06-06 23:51:17.644028,1,0,-9,0,-2,0,75,77,130,90,70,94.91,28,8.00,-1.00,-987.00
2024-06-06 23:51:17.787506,1,0,-9,0,-2,0,75,77,130,90,70,95.22,28,9.00,0.00,-986.00
2024-06-06 23:51:17.847919,1,0,-9,0,-2,0,75,77,130,90,70,95.21,28,17.00,-1.00,-997.00
2024-06-06 23:51:17.950083,1,0,-9,0,-2,0,75,77,130,90,70,94.87,28,9.00,16.00,-1006.00
2024-06-06 23:51:18.094081,0,0,-9,0,-2,0,75,77,131,90,70,94.96,28,16.00,9.00,-1030.00
2024-06-06 23:51:18.153878,-1,0,-9,0,-2,0,75,77,131,90,70,94.79,28,24.00,0.00,-974.00
2024-06-06 23:51:18.299285,0,3,-9,0,-2,0,75,77,130,100,70,95.21,28,2.00,1.00,-997.00
2024-06-06 23:51:18.357819,0,4,-9,0,-1,0,75,77,131,100,70,94.74,28,16.00,6.00,-988.00
2024-06-06 23:51:18.461864,1,2,-9,0,0,0,75,77,131,100,70,95.08,28,5.00,1.00,-1006.00
2024-06-06 23:51:18.566936,0,1,-9,0,0,0,75,76,131,100,69,94.80,28,11.00,-10.00,-986.00
2024-06-06 23:51:18.665324,0,0,-9,0,0,0,75,76,131,100,69,94.92,29,2.00,0.00,-998.00
2024-06-06 23:51:18.810885,0,0,-9,0,0,0,75,76,131,100,69,94.96,29,11.00,-12.00,-991.00
2024-06-06 23:51:18.868732,0,0,-9,0,0,0,75,76,131,100,69,95.24,29,0.00,-4.00,-984.00
2024-06-06 23:51:19.015885,0,1,-9,0,0,0,75,76,131,100,69,95.01,29,8.00,-12.00,-989.00
2024-06-06 23:51:19.072559,0,1,-9,0,0,0,75,76,131,100,69,94.99,29,10.00,-14.00,-997.00
2024-06-06 23:51:19.222060,0,1,-9,0,0,0,75,76,131,100,69,95.15,29,7.00,-9.00,-999.00
2024-06-06 23:51:19.278727,0,0,-9,0,0,0,75,76,131,100,69,94.67,29,9.00,-5.00,-1004.00
2024-06-06 23:51:19.378569,0,0,-9,0,0,0,75,76,131,100,69,95.23,29,2.00,-1.00,-1006.00
2024-06-06 23:51:19.483389,0,0,-9,0,0,0,75,76,131,100,69,95.00,29,2.00,-5.00,-996.00
2024-06-06 23:51:19.582671,0,0,-9,0,0,0,73,77,131,100,69,95.17,29,12.00,-2.00,-1009.00
2024-06-06 23:51:19.733589,0,0,-9,0,0,0,73,77,131,100,69,94.96,30,-3.00,-12.00,-988.00
2024-06-06 23:51:19.786439,0,0,-9,0,0,0,73,77,130,100,69,95.30,30,9.00,-3.00,-1008.00
2024-06-06 23:51:19.937226,0,0,-9,0,0,0,73,77,130,100,69,95.09,30,3.00,-6.00,-992.00
2024-06-06 23:51:19.940016,0,0,-9,0,0,0,73,77,130,100,69,95.21,30,10.00,-2.00,-992.00
2024-06-06 23:51:20.041715,0,0,-9,0,0,0,73,77,130,100,69,95.06,30,-10.00,-4.00,-996.00
2024-06-06 23:51:20.145538,0,0,-9,0,0,0,73,77,130,100,69,95.25,30,13.00,-17.00,-992.00
2024-06-06 23:51:20.245761,0,0,-9,0,0,0,73,77,131,100,69,94.84,30,6.00,-4.00,-1004.00
2024-06-06 23:51:20.411775,0,0,-9,0,0,0,73,77,130,100,69,94.98,30,15.00,-9.00,-994.00
2024-06-06 23:51:20.456397,0,0,-9,0,0,0,73,77,130,100,69,95.00,30,7.00,-9.00,-1000.00
2024-06-06 23:51:20.551541,0,0,-9,0,0,0,74,77,130,100,68,94.89,30,-4.00,-14.00,-1025.00
2024-06-06 23:51:20.653807,0,7,-9,0,0,0,74,77,130,100,68,95.23,31,19.00,-8.00,-990.00
2024-06-06 23:51:20.756192,0,8,-9,0,1,0,74,77,131,100,68,95.07,31,15.00,-10.00,-999.00
2024-06-06 23:51:20.858595,0,5,-9,0,3,0,74,77,130,100,68,95.18,31,8.00,-23.00,-1012.00
2024-06-06 23:51:20.960917,0,3,-9,0,3,0,74,77,130,90,68,94.92,31,6.00,-26.00,-1004.00
2024-06-06 23:51:21.063443,0,0,-9,0,3,0,74,77,130,90,68,95.21,31,17.00,-28.00,-1000.00
2024-06-06 23:51:21.163798,0,0,-9,0,3,0,74,77,131,90,68,94.92,31,17.00,-28.00,-1002.00
2024-06-06 23:51:21.265973,0,0,-9,0,2,0,74,77,131,100,68,95.07,31,-1.00,-15.00,-1008.00
2024-06-06 23:51:21.370758,0,0,-9,0,2,0,74,77,131,100,68,94.96,31,0.00,-20.00,-996.00
2024-06-06 23:51:21.470673,1,1,-9,0,2,0,74,77,131,100,68,94.96,31,10.00,-22.00,-997.00
2024-06-06 23:51:21.571739,1,1,-9,0,2,0,74,76,130,100,68,94.79,31,10.00,-26.00,-997.00
2024-06-06 23:51:21.673637,1,1,-9,0,2,0,74,76,130,100,68,94.91,32,9.00,-19.00,-1009.00
2024-06-06 23:51:21.776960,0,0,-9,0,2,0,74,76,130,100,68,95.19,32,5.00,-18.00,-1003.00
2024-06-06 23:51:21.879071,0,0,-9,0,2,0,74,76,130,100,68,94.96,32,10.00,-27.00,-989.00
2024-06-06 23:51:21.981580,0,0,-9,0,2,0,74,76,130,100,68,95.06,32,-1.00,-19.00,-987.00
2024-06-06 23:51:22.117876,0,0,-9,0,2,0,74,76,130,100,68,95.32,32,4.00,-8.00,-1002.00
2024-06-06 23:51:22.256966,0,0,-9,0,2,0,74,76,130,100,68,94.87,32,8.00,-14.00,-1004.00
2024-06-06 23:51:22.285655,0,-1,-9,0,2,0,74,76,130,100,68,94.85,32,22.00,-24.00,-999.00
2024-06-06 23:51:22.446884,0,-4,-9,0,1,0,74,76,130,100,68,95.08,32,4.00,-9.00,-997.00
2024-06-06 23:51:22.551951,0,-2,-9,0,0,0,74,76,130,100,68,95.04,32,19.00,-18.00,-1009.00
2024-06-06 23:51:22.591833,0,-1,-9,0,0,0,74,77,129,100,67,94.63,32,4.00,-16.00,-996.00
2024-06-06 23:51:22.732628,0,0,-9,0,0,0,74,77,129,90,67,95.01,33,8.00,-8.00,-999.00
2024-06-06 23:51:22.818830,0,0,-9,0,0,0,74,77,129,90,67,94.93,33,8.00,-3.00,-1007.00
2024-06-06 23:51:22.897271,0,0,-9,0,0,0,74,77,129,90,67,95.17,33,0.00,-1.00,-998.00
2024-06-06 23:51:23.047351,0,0,-9,0,0,0,74,77,129,90,67,94.81,33,-4.00,6.00,-1007.00
2024-06-06 23:51:23.104916,0,0,-9,0,0,0,74,77,129,90,67,94.88,33,3.00,-7.00,-1000.00
2024-06-06 23:51:23.203515,0,0,-9,0,0,0,74,77,129,90,67,94.96,33,3.00,-9.00,-995.00
2024-06-06 23:51:23.327909,0,0,-9,0,0,0,74,77,128,90,67,94.95,33,9.00,-2.00,-994.00
2024-06-06 23:51:23.470613,0,0,-9,0,0,0,74,77,129,90,67,95.15,33,10.00,-2.00,-1009.00
2024-06-06 23:51:23.470809,0,0,-9,0,0,0,74,77,128,90,67,94.89,33,10.00,-7.00,-991.00
2024-06-06 23:51:23.634923,0,0,-9,0,0,0,74,77,129,90,67,94.94,33,6.00,-7.00,-1000.00
2024-06-06 23:51:23.777648,0,0,-9,0,0,0,74,77,128,90,67,95.08,34,12.00,-13.00,-994.00
2024-06-06 23:51:23.777870,0,0,-9,0,0,0,74,77,130,90,67,94.81,34,12.00,-10.00,-996.00
2024-06-06 23:51:23.941648,0,0,-9,0,0,0,74,77,129,90,67,94.87,34,-7.00,0.00,-996.00
2024-06-06 23:51:24.095838,0,0,-9,0,0,0,74,77,129,90,67,95.00,34,2.00,-4.00,-1001.00
2024-06-06 23:51:24.095982,0,0,-9,0,0,0,74,77,129,90,67,95.01,34,9.00,-6.00,-996.00
2024-06-06 23:51:24.172116,0,0,-9,0,0,0,74,77,129,90,67,95.02,34,13.00,-17.00,-984.00
2024-06-06 23:51:24.352647,0,0,-9,0,0,0,74,77,129,90,67,94.94,34,11.00,-7.00,-1006.00
2024-06-06 23:51:24.376105,0,0,-9,0,0,0,74,77,129,90,67,95.13,34,9.00,-14.00,-993.00
2024-06-06 23:51:24.478196,0,0,-9,0,0,0,74,77,129,90,67,95.03,34,5.00,-2.00,-1004.00
2024-06-06 23:51:24.580007,0,0,-9,0,0,0,75,77,128,90,66,94.87,34,-1.00,-10.00,-989.00
2024-06-06 23:51:24.749781,0,0,-9,0,0,0,75,77,129,90,66,95.13,35,10.00,-19.00,-995.00
2024-06-06 23:51:24.783998,0,0,-4,0,0,0,75,77,129,90,66,94.96,35,6.00,-21.00,-991.00
2024-06-06 23:51:24.956731,0,0,1,0,0,0,75,77,128,90,66,94.84,35,10.00,-3.00,-1009.00
2024-06-06 23:51:24.997659,0,0,7,0,0,0,75,77,129,90,66,94.77,35,1.00,-7.00,-995.00
2024-06-06 23:51:25.089945,0,0,13,0,0,0,75,77,129,90,66,95.10,35,0.00,1.00,-1004.00
2024-06-06 23:51:25.261884,0,0,19,0,0,0,75,77,128,90,66,94.82,35,7.00,-7.00,-991.00
2024-06-06 23:51:25.294540,0,0,25,0,0,0,75,77,130,90,66,94.77,35,12.00,-11.00,-993.00
2024-06-06 23:51:25.467677,0,0,31,0,0,0,75,77,129,90,66,95.17,35,6.00,-11.00,-994.00
2024-06-06 23:51:25.498086,0,0,37,0,0,0,75,77,129,90,66,95.10,35,-8.00,2.00,-1001.00
2024-06-06 23:51:25.603850,0,0,43,0,0,0,74,77,129,90,66,94.84,35,-1.00,0.00,-992.00
2024-06-06 23:51:25.704242,0,0,49,0,0,0,74,77,129,90,66,94.95,36,8.00,-9.00,-999.00
2024-06-06 23:51:25.803855,0,0,55,0,0,0,74,77,129,90,66,95.01,36,1.00,4.00,-1007.00
2024-06-06 23:51:25.906355,0,0,61,0,0,0,74,77,129,90,66,95.10,36,12.00,-10.00,-991.00
2024-06-06 23:51:26.009030,0,0,67,0,0,0,74,77,129,90,66,95.17,36,12.00,-9.00,-1003.00
2024-06-06 23:51:26.111319,0,0,73,0,0,0,74,77,129,90,66,95.23,36,2.00,-3.00,-993.00
2024-06-06 23:51:26.213752,0,0,79,0,0,0,74,77,129,90,66,95.13,36,5.00,-4.00,-993.00
2024-06-06 23:51:26.316033,0,0,85,0,0,0,74,77,129,90,66,94.79,36,0.00,4.00,-1000.00
2024-06-06 23:51:26.418321,0,0,91,0,0,0,74,77,129,90,66,94.92,36,10.00,-10.00,-990.00
2024-06-06 23:51:26.520729,0,0,97,0,0,0,74,77,129,90,66,95.13,36,-10.00,7.00,-1000.00
2024-06-06 23:51:26.623344,0,0,103,0,0,0,75,77,129,90,65,94.71,36,7.00,-5.00,-998.00
2024-06-06 23:51:26.725556,0,0,109,0,0,0,75,77,129,90,65,94.93,37,-5.00,10.00,-1002.00
2024-06-06 23:51:26.828092,0,0,115,0,0,0,75,77,129,90,65,95.01,37,6.00,-3.00,-994.00
2024-06-06 23:51:26.930432,0,0,121,0,0,0,75,77,129,90,65,95.31,37,-16.00,21.00,-986.00
2024-06-06 23:51:27.027953,0,0,127,0,0,0,75,77,129,90,65,94.85,37,18.00,-13.00,-987.00
2024-06-06 23:51:27.129772,0,0,133,0,0,0,75,77,129,90,65,95.01,37,-6.00,0.00,-987.00
2024-06-06 23:51:27.309660,0,0,139,0,0,0,75,77,130,90,65,94.92,37,19.00,0.00,-1000.00
2024-06-06 23:51:27.333742,0,0,145,0,0,0,75,77,130,90,65,95.15,37,10.00,-10.00,-1003.00
2024-06-06 23:51:27.385010,0,0,150,0,0,0,75,77,130,90,65,95.10,37,5.00,-5.00,-998.00
2024-06-06 23:51:27.487016,0,0,156,0,0,0,75,77,129,90,65,95.04,37,5.00,0.00,-1003.00
2024-06-06 23:51:27.639707,0,0,168,0,0,0,75,77,129,90,65,95.09,38,3.00,-1.00,-1001.00
2024-06-06 23:51:27.821718,0,0,174,0,0,0,75,77,129,90,65,94.97,38,2.00,7.00,-1005.00
2024-06-06 23:51:27.843784,0,0,-179,0,0,0,75,77,130,90,65,95.13,38,0.00,2.00,-995.00
2024-06-06 23:51:27.895246,0,0,-173,0,0,0,75,77,129,90,65,95.15,38,8.00,9.00,-1024.00
2024-06-06 23:51:28.032177,0,0,-167,0,0,0,75,77,130,90,65,95.56,38,9.00,-3.00,-1002.00
2024-06-06 23:51:28.098945,0,0,-161,0,0,0,75,77,130,90,65,94.97,38,-1.00,1.00,-997.00
2024-06-06 23:51:28.200900,0,0,-155,0,0,0,75,77,130,90,65,95.02,38,11.00,-3.00,-997.00
2024-06-06 23:51:28.334219,0,0,-149,0,0,0,75,77,129,90,65,95.26,38,5.00,-10.00,-991.00
2024-06-06 23:51:28.404893,0,0,-144,0,0,0,75,77,129,90,65,94.88,38,9.00,-15.00,-1008.00
2024-06-06 23:51:28.506868,0,0,-138,0,0,0,75,77,129,90,65,94.75,38,3.00,5.00,-1009.00
2024-06-06 23:51:28.640821,0,0,-132,0,0,0,75,76,129,90,64,94.99,39,2.00,-10.00,-985.00
2024-06-06 23:51:28.711605,0,0,-126,0,0,0,75,76,129,90,64,94.58,39,-3.00,4.00,-1005.00
2024-06-06 23:51:28.849194,0,0,-120,0,0,0,75,76,129,90,64,94.83,39,-6.00,3.00,-998.00
2024-06-06 23:51:28.916148,0,0,-114,0,0,0,75,76,130,90,64,94.98,39,0.00,4.00,-1006.00
2024-06-06 23:51:29.050314,0,0,-108,0,0,0,75,76,130,90,64,95.11,39,3.00,-6.00,-983.00
2024-06-06 23:51:29.120759,0,0,-102,0,0,0,75,76,129,90,64,95.17,39,2.00,2.00,-1003.00
2024-06-06 23:51:29.221227,0,0,-96,0,0,0,75,76,129,90,64,95.10,39,1.00,-1.00,-1000.00
2024-06-06 23:51:29.323627,0,0,-90,0,0,0,75,76,130,90,64,95.05,39,12.00,-10.00,-999.00
2024-06-06 23:51:29.425956,0,0,-84,0,0,0,75,76,130,90,64,95.04,39,7.00,0.00,-1008.00
2024-06-06 23:51:29.527752,0,0,-78,0,0,0,75,76,129,90,64,95.04,39,5.00,-7.00,-1003.00
2024-06-06 23:51:29.664675,0,0,-72,0,0,0,74,76,129,90,64,94.96,40,0.00,2.00,-997.00
2024-06-06 23:51:29.730658,0,0,-66,0,0,0,74,76,129,90,64,94.86,40,9.00,-9.00,-998.00
2024-06-06 23:51:29.869424,0,0,-60,0,0,0,74,76,129,90,64,95.27,40,18.00,-10.00,-1013.00
2024-06-06 23:51:29.934696,0,0,-54,0,0,0,74,76,129,90,64,94.95,40,0.00,-12.00,-989.00
2024-06-06 23:51:30.075888,0,0,-48,0,0,0,74,76,129,90,64,95.10,40,10.00,-4.00,-1000.00
2024-06-06 23:51:30.138981,0,0,-42,0,0,0,74,76,130,90,64,94.76,40,1.00,-12.00,-979.00
2024-06-06 23:51:30.279917,0,0,-36,0,0,0,74,76,129,90,64,94.94,40,-4.00,6.00,-1005.00
2024-06-06 23:51:30.342746,0,0,-30,0,0,0,74,76,129,90,64,94.77,40,8.00,1.00,-1009.00
2024-06-06 23:51:30.483848,0,0,-25,0,0,0,74,76,130,90,64,94.86,40,-8.00,-3.00,-998.00
2024-06-06 23:51:30.547343,0,0,-21,0,0,0,74,76,130,90,64,94.82,40,0.00,-3.00,-999.00
2024-06-06 23:51:30.688587,0,0,-18,0,0,0,75,77,129,90,63,94.92,41,-4.00,-2.00,-989.00
2024-06-06 23:51:30.751338,0,0,-16,0,0,0,75,77,129,90,63,94.85,41,0.00,-7.00,-1001.00
2024-06-06 23:51:30.893373,0,0,-14,0,0,0,75,77,129,90,63,94.96,41,1.00,-6.00,-987.00
2024-06-06 23:51:30.955279,0,0,-13,0,0,0,75,77,129,90,63,95.14,41,4.00,-11.00,-990.00
2024-06-06 23:51:31.098270,0,0,-12,0,0,0,75,77,129,90,63,94.88,41,-12.00,2.00,-997.00
2024-06-06 23:51:31.162631,0,0,-11,0,0,0,75,77,129,90,63,94.80,41,15.00,-16.00,-984.00
2024-06-06 23:51:31.263039,0,0,-11,0,0,0,75,77,129,90,63,95.17,41,-9.00,-5.00,-992.00
2024-06-06 23:51:31.363369,0,0,-11,0,0,0,75,77,128,90,63,94.96,41,0.00,-6.00,-997.00
2024-06-06 23:51:31.414556,0,0,-11,0,0,0,75,77,129,90,63,94.80,41,6.00,-1.00,-1006.00
2024-06-06 23:51:31.518667,0,0,-11,0,0,0,75,77,129,90,63,94.72,41,-13.00,-5.00,-996.00
2024-06-06 23:51:31.712996,0,0,-11,0,0,0,75,77,129,90,63,94.90,42,-3.00,-1.00,-995.00
2024-06-06 23:51:31.720707,0,0,-11,0,0,0,75,77,129,90,63,95.09,42,10.00,-11.00,-1006.00
2024-06-06 23:51:31.917708,0,0,-11,0,0,0,75,77,130,90,63,95.18,42,0.00,9.00,-1008.00
2024-06-06 23:51:31.924907,0,0,-11,0,0,0,75,77,129,90,63,95.17,42,4.00,-5.00,-999.00
2024-06-06 23:51:32.122309,0,0,-11,0,0,0,75,77,129,90,63,94.87,42,1.00,-6.00,-990.00
2024-06-06 23:51:32.128635,0,0,-11,0,0,0,75,77,129,90,63,94.85,42,9.00,-7.00,-1007.00
2024-06-06 23:51:32.230682,0,0,-11,0,0,0,75,77,130,90,63,95.01,42,-5.00,-6.00,-986.00
2024-06-06 23:51:32.431536,0,0,-11,0,0,0,75,77,129,90,63,94.76,42,10.00,-8.00,-996.00
2024-06-06 23:51:32.435317,0,0,-11,0,0,0,75,77,130,90,63,95.17,42,-7.00,8.00,-994.00
2024-06-06 23:51:32.537719,0,0,-11,0,0,0,75,77,129,90,63,94.95,42,7.00,-18.00,-986.00
2024-06-06 23:51:32.639901,0,0,-11,0,0,0,75,77,129,90,62,94.98,43,-3.00,13.00,-1010.00
2024-06-06 23:51:32.740609,0,0,-11,0,0,0,75,77,130,90,62,94.91,43,12.00,-11.00,-985.00
2024-06-06 23:51:32.843169,0,0,-11,0,0,0,75,77,129,90,62,95.25,43,-2.00,0.00,-991.00
2024-06-06 23:51:32.944747,0,0,-11,0,0,0,75,77,130,90,62,95.02,43,6.00,-6.00,-998.00
2024-06-06 23:51:33.047011,0,0,-11,0,0,0,75,77,130,90,62,94.84,43,2.00,2.00,-1002.00
2024-06-06 23:51:33.148691,0,0,-11,0,0,0,75,77,130,90,62,94.83,43,16.00,-15.00,-1005.00
2024-06-06 23:51:33.250636,0,0,-11,0,0,0,75,77,130,90,62,94.88,43,1.00,3.00,-1007.00
2024-06-06 23:51:33.352438,0,0,-11,0,0,0,75,77,130,90,62,94.97,43,13.00,-9.00,-1001.00
2024-06-06 23:51:33.556618,0,0,-14,0,0,0,75,77,130,90,62,95.08,43,16.00,-11.00,-996.00
2024-06-06 23:51:33.557810,0,0,-20,0,0,0,75,77,130,90,62,95.13,43,0.00,6.00,-1002.00
2024-06-06 23:51:33.660460,0,0,-26,0,0,0,75,76,130,90,62,94.93,44,4.00,-2.00,-997.00
2024-06-06 23:51:33.760539,0,0,-32,0,0,0,75,76,130,90,62,95.15,44,2.00,3.00,-1011.00
2024-06-06 23:51:33.862943,0,0,-38,0,0,0,75,76,130,100,62,95.04,44,0.00,6.00,-994.00
2024-06-06 23:51:33.965017,0,0,-44,0,0,0,75,76,130,100,62,94.82,44,12.00,-2.00,-1010.00
2024-06-06 23:51:34.067751,0,0,-50,0,0,0,75,76,130,100,62,94.82,44,14.00,-6.00,-999.00
2024-06-06 23:51:34.168409,0,0,-56,0,0,0,75,76,130,100,62,94.79,44,11.00,-17.00,-1000.00
2024-06-06 23:51:34.269945,0,0,-62,0,0,0,75,76,131,100,62,94.95,44,2.00,-13.00,-997.00
2024-06-06 23:51:34.374820,0,0,-68,0,0,0,75,76,131,100,62,95.04,44,1.00,-6.00,-988.00
2024-06-06 23:51:34.473960,0,0,-74,0,0,0,75,76,130,100,62,95.13,44,15.00,-13.00,-992.00
2024-06-06 23:51:34.581556,0,0,-79,0,0,0,75,76,130,100,61,94.88,44,8.00,-6.00,-999.00
2024-06-06 23:51:34.678588,0,0,-85,0,0,0,74,76,130,100,61,94.89,45,10.00,-1.00,-999.00
2024-06-06 23:51:34.784499,0,0,-91,0,0,0,74,76,130,100,61,95.15,45,12.00,0.00,-1009.00
2024-06-06 23:51:34.884890,0,0,-97,0,0,0,74,76,130,90,61,95.04,45,5.00,4.00,-1009.00
2024-06-06 23:51:34.985163,0,0,-103,0,0,0,74,76,130,90,61,94.93,45,17.00,-11.00,-992.00
2024-06-06 23:51:35.086787,0,0,-108,0,0,0,74,76,129,90,61,95.11,45,10.00,0.00,-999.00
2024-06-06 23:51:35.137013,0,0,-114,0,0,0,74,76,130,90,61,94.72,45,14.00,-8.00,-1002.00
2024-06-06 23:51:35.296477,0,0,-120,0,0,0,74,76,131,90,61,95.02,45,1.00,-11.00,-990.00
2024-06-06 23:51:35.341144,0,0,-126,0,0,0,74,76,130,90,61,94.93,45,1.00,7.00,-1020.00
2024-06-06 23:51:35.501415,0,0,-132,0,0,0,74,76,131,100,61,95.09,45,16.00,0.00,-1005.00
2024-06-06 23:51:35.545031,0,0,-138,0,0,0,74,76,131,100,61,94.83,45,8.00,1.00,-995.00
2024-06-06 23:51:35.706072,0,0,-144,0,0,0,74,76,130,100,61,94.87,46,3.00,2.00,-986.00
2024-06-06 23:51:35.749131,0,0,-150,0,0,0,74,76,131,100,61,95.14,46,15.00,-16.00,-983.00
2024-06-06 23:51:35.910763,0,0,-156,0,0,0,74,76,131,100,61,95.13,46,5.00,-18.00,-988.00
2024-06-06 23:51:35.954034,0,0,-162,0,0,0,74,76,131,100,61,94.86,46,4.00,-11.00,-989.00
2024-06-06 23:51:36.115556,1,0,-168,0,0,0,74,76,131,100,61,95.06,46,14.00,-20.00,-984.00
2024-06-06 23:51:36.157585,1,0,-174,0,0,0,74,76,131,100,61,94.93,46,0.00,-5.00,-1000.00
2024-06-06 23:51:36.321992,1,0,179,0,0,0,74,76,130,100,61,94.90,46,4.00,-4.00,-994.00
2024-06-06 23:51:36.361246,1,0,174,0,0,0,74,76,131,100,61,94.93,46,13.00,-18.00,-990.00
2024-06-06 23:51:36.533504,1,0,168,0,0,0,74,76,130,100,61,95.05,46,3.00,-12.00,-987.00
2024-06-06 23:51:36.568033,1,0,162,0,0,0,74,76,130,100,60,95.09,46,6.00,6.00,-1003.00
2024-06-06 23:51:36.666874,0,0,156,0,0,0,74,76,130,100,60,94.90,47,4.00,1.00,-990.00
2024-06-06 23:51:36.832433,0,0,150,0,0,0,74,76,130,100,60,94.80,47,12.00,-19.00,-982.00
2024-06-06 23:51:36.871450,0,0,144,0,0,0,74,76,130,100,60,94.74,47,0.00,-5.00,-999.00
2024-06-06 23:51:37.038512,0,0,138,0,0,0,74,76,130,100,60,94.92,47,1.00,-3.00,-1002.00
2024-06-06 23:51:37.154422,0,0,132,0,0,0,74,76,131,100,60,94.96,47,14.00,-6.00,-996.00
2024-06-06 23:51:37.176935,0,0,126,0,0,0,74,76,131,100,60,94.99,47,11.00,-7.00,-1004.00
2024-06-06 23:51:37.297086,0,0,120,0,0,0,74,76,130,100,60,94.87,47,12.00,-4.00,-1000.00
2024-06-06 23:51:37.419435,0,0,114,0,0,0,74,76,130,100,60,94.86,47,13.00,-3.00,-997.00
2024-06-06 23:51:37.491776,0,0,108,0,0,0,74,76,130,100,60,95.00,47,11.00,-1.00,-1005.00
2024-06-06 23:51:37.595557,0,0,102,0,0,0,74,76,130,100,60,95.23,47,9.00,5.00,-1003.00
2024-06-06 23:51:37.687009,0,0,96,0,0,0,74,76,130,100,60,94.90,48,10.00,0.00,-993.00
2024-06-06 23:51:37.856453,0,0,90,0,0,0,74,76,130,100,60,94.85,48,5.00,0.00,-999.00
2024-06-06 23:51:37.940573,0,0,84,0,0,0,74,76,130,90,60,94.98,48,13.00,-5.00,-997.00
2024-06-06 23:51:38.095155,0,0,78,0,0,0,74,76,130,90,60,94.99,48,6.00,-1.00,-1000.00
2024-06-06 23:51:38.095678,0,0,72,0,0,0,74,76,129,90,60,94.67,48,11.00,0.00,-1002.00
2024-06-06 23:51:38.265984,0,0,66,0,0,0,74,76,130,90,60,95.10,48,17.00,-9.00,-998.00
2024-06-06 23:51:38.379102,0,0,60,0,0,0,74,76,129,90,60,94.97,48,6.00,7.00,-1004.00
2024-06-06 23:51:38.401511,0,0,54,0,0,0,74,76,130,90,60,94.92,48,17.00,-2.00,-997.00
2024-06-06 23:51:38.522574,0,0,48,0,0,0,74,76,129,90,60,94.98,48,-2.00,10.00,-1014.00
2024-06-06 23:51:38.686277,0,0,42,0,0,0,74,76,129,90,59,94.87,48,19.00,-6.00,-999.00
2024-06-06 23:51:38.707769,0,0,36,0,0,0,74,76,129,90,59,94.99,49,2.00,9.00,-1007.00
2024-06-06 23:51:38.830257,0,0,30,0,0,0,74,76,130,90,59,95.05,49,20.00,-7.00,-1004.00
2024-06-06 23:51:38.994704,0,0,24,0,0,0,74,76,130,90,59,95.07,49,3.00,6.00,-995.00
2024-06-06 23:51:39.017415,0,0,18,0,0,0,74,76,130,90,59,94.97,49,10.00,0.00,-1001.00
2024-06-06 23:51:39.147924,0,0,12,0,0,0,74,76,130,90,59,95.12,49,8.00,2.00,-994.00
2024-06-06 23:51:39.166762,0,0,7,0,0,0,74,76,130,90,59,94.85,49,-1.00,7.00,-995.00
2024-06-06 23:51:39.290026,0,0,2,0,0,0,74,76,130,90,59,94.98,49,8.00,-2.00,-994.00
2024-06-06 23:51:39.372796,0,0,0,0,0,0,74,76,130,90,59,95.03,49,10.00,-2.00,-999.00
2024-06-06 23:51:39.473277,0,0,-3,0,0,0,74,76,129,90,59,94.74,49,14.00,-4.00,-1006.00
2024-06-06 23:51:39.574749,0,0,-5,0,0,0,74,76,130,90,59,94.66,49,23.00,-18.00,-996.00
2024-06-06 23:51:39.699490,0,0,-6,0,0,0,74,77,130,90,59,94.61,50,24.00,0.00,-1010.00
2024-06-06 23:51:39.778555,0,0,-7,0,0,0,74,77,130,90,59,94.56,50,12.00,-15.00,-996.00
2024-06-06 23:51:39.917040,0,0,-8,0,0,0,74,77,130,90,59,94.70,50,10.00,-2.00,-987.00
2024-06-06 23:51:39.982841,0,0,-9,0,0,0,74,77,130,90,59,94.79,50,7.00,11.00,-1006.00
2024-06-06 23:51:40.109884,0,0,-9,0,0,0,74,77,129,90,59,95.03,50,19.00,-17.00,-984.00
2024-06-06 23:51:40.188916,0,0,-9,0,0,0,74,77,129,90,59,95.15,50,16.00,-1.00,-1001.00
2024-06-06 23:51:40.289113,0,0,-9,0,0,0,74,77,130,90,59,94.92,50,3.00,-1.00,-993.00
2024-06-06 23:51:40.416341,0,0,-9,0,0,0,74,77,130,90,59,94.67,50,1.00,5.00,-1002.00
2024-06-06 23:51:40.492908,0,0,-9,0,0,0,74,77,129,90,59,94.73,50,12.00,-9.00,-1012.00
2024-06-06 23:51:40.594648,0,0,-9,0,0,0,74,77,129,90,59,94.84,50,13.00,2.00,-1015.00
2024-06-06 23:51:40.723589,0,0,-9,0,0,0,74,76,130,90,59,95.31,51,16.00,-1.00,-1012.00
2024-06-06 23:51:40.798573,0,0,-9,0,0,0,74,76,129,90,59,94.78,51,4.00,-4.00,-1005.00
2024-06-06 23:51:40.928306,0,0,-9,0,0,0,74,76,129,90,59,95.04,51,13.00,-8.00,-1003.00
2024-06-06 23:51:41.002542,0,0,-9,0,0,0,74,76,129,90,59,95.01,51,-1.00,-2.00,-1001.00
2024-06-06 23:51:41.133182,0,0,-9,0,0,0,74,76,129,90,59,94.87,51,3.00,1.00,-1013.00
2024-06-06 23:51:41.207269,0,0,-9,0,0,0,74,76,129,90,59,94.77,51,7.00,-8.00,-999.00
2024-06-06 23:51:41.337893,0,0,-9,0,0,0,74,76,129,90,59,95.04,51,-1.00,-6.00,-997.00
2024-06-06 23:51:41.410401,0,0,-9,0,0,0,74,76,129,90,59,94.99,51,6.00,-8.00,-998.00
2024-06-06 23:51:41.513571,0,0,-9,0,0,0,74,76,130,90,59,94.76,51,1.00,-3.00,-1002.00
2024-06-06 23:51:41.614441,0,0,-9,0,0,0,74,76,129,90,59,95.01,51,14.00,-1.00,-1010.00
2024-06-06 23:51:41.719950,0,0,-9,0,0,0,74,76,129,90,59,94.88,52,1.00,1.00,-1012.00
2024-06-06 23:51:41.819001,0,0,-9,0,0,0,74,76,129,90,59,95.06,52,-2.00,-5.00,-995.00
2024-06-06 23:51:41.939703,0,0,-9,0,0,0,74,76,129,90,59,94.83,52,6.00,-3.00,-989.00
2024-06-06 23:51:42.023236,0,0,-9,0,0,0,74,76,129,90,59,95.05,52,7.00,0.00,-1004.00
2024-06-06 23:51:42.157002,0,0,-9,0,0,0,74,76,130,90,59,94.87,52,24.00,-17.00,-1563.00
2024-06-06 23:51:42.232919,0,0,-9,0,0,-4,74,76,137,100,59,95.24,52,5.00,3.00,-1749.00
2024-06-06 23:51:42.329914,0,-6,-9,0,0,-10,74,76,203,100,59,95.02,52,11.00,340.00,-1149.00
2024-06-06 23:51:42.430458,0,-88,-8,0,-4,-12,74,76,169,120,59,95.48,52,-8.00,572.00,-1073.00
2024-06-06 23:51:42.482207,0,147,-8,-1,-10,1,74,76,190,120,59,95.88,52,0.00,485.00,-819.00
2024-06-06 23:51:42.669866,0,33,-9,0,-5,11,74,76,143,120,59,95.06,52,9.00,-161.00,-1625.00
2024-06-06 23:51:42.736292,0,-1,-9,0,-3,10,73,76,134,110,59,95.34,53,8.00,-10.00,-1411.00
2024-06-06 23:51:42.787293,0,2,-9,0,-3,6,73,76,129,100,59,94.94,53,-1.00,4.00,-1314.00
2024-06-06 23:51:42.978262,0,2,-9,0,-2,3,73,76,127,90,59,94.77,53,-9.00,-5.00,-1183.00
2024-06-06 23:51:42.991620,0,1,-9,0,-2,1,73,76,127,90,59,94.60,53,-2.00,-3.00,-1138.00
2024-06-06 23:51:43.180972,0,1,-9,0,-1,0,73,76,127,90,59,95.02,53,-11.00,3.00,-1066.00
2024-06-06 23:51:43.197963,0,1,-9,0,-1,-1,73,76,129,90,59,94.94,53,18.00,-10.00,-1004.00
2024-06-06 23:51:43.297112,0,0,-9,0,-1,-1,73,76,130,90,59,95.03,53,-4.00,7.00,-995.00
2024-06-06 23:51:43.490292,0,1,-9,0,-1,-1,73,76,131,90,59,95.06,53,16.00,-5.00,-959.00
2024-06-06 23:51:43.502038,1,3,-9,0,0,0,73,76,133,90,59,95.00,53,11.00,-10.00,-979.00
2024-06-06 23:51:43.692802,1,2,-9,0,0,0,73,76,132,90,59,94.90,53,5.00,-12.00,-977.00
2024-06-06 23:51:43.705456,0,0,-9,0,0,0,74,76,133,100,59,94.86,54,-12.00,-5.00,-974.00
2024-06-06 23:51:43.897600,0,0,-9,0,0,0,74,76,133,100,59,94.90,54,0.00,1.00,-974.00
2024-06-06 23:51:43.909641,0,0,-9,0,0,0,74,76,133,100,59,95.13,54,10.00,-6.00,-974.00
2024-06-06 23:51:44.102405,0,0,-9,0,0,0,74,76,133,100,59,94.76,54,-7.00,5.00,-998.00
2024-06-06 23:51:44.113133,0,1,-9,0,0,0,74,76,132,100,59,94.80,54,-1.00,-7.00,-986.00
2024-06-06 23:51:44.307299,0,1,-9,0,0,0,74,76,132,90,59,94.75,54,9.00,-17.00,-995.00
2024-06-06 23:51:44.317172,0,1,-9,0,0,0,74,76,132,90,59,94.86,54,2.00,-6.00,-997.00
2024-06-06 23:51:44.470989,0,1,-9,0,0,0,74,76,131,90,59,94.84,54,-1.00,-1.00,-1016.00
2024-06-06 23:51:44.525724,0,1,-9,0,0,0,74,76,132,90,59,94.65,54,1.00,-4.00,-1011.00
2024-06-06 23:51:44.624601,0,1,-9,0,0,0,74,76,131,90,58,94.83,55,4.00,-11.00,-992.00
2024-06-06 23:51:44.727113,0,1,-9,0,0,0,73,76,131,90,58,94.86,55,6.00,-17.00,-1002.00
2024-06-06 23:51:44.827975,0,1,-9,0,0,0,73,76,130,90,58,94.97,55,-1.00,3.00,-1014.00
2024-06-06 23:51:44.928992,0,0,-9,0,0,0,73,76,130,90,58,94.76,55,15.00,-13.00,-1009.00
2024-06-06 23:51:45.134122,0,0,-9,0,0,0,73,76,131,90,58,94.86,55,3.00,-9.00,-1002.00
2024-06-06 23:51:45.134384,0,0,-9,0,0,0,73,76,130,90,58,95.25,55,20.00,-3.00,-1022.00
2024-06-06 23:51:45.235030,0,0,-9,0,0,0,73,76,130,90,58,94.98,55,11.00,-12.00,-1004.00
2024-06-06 23:51:45.433747,0,0,-9,0,0,0,73,76,130,90,58,94.98,55,9.00,-2.00,-1013.00
2024-06-06 23:51:45.439031,0,0,-9,0,0,0,73,76,130,90,58,94.90,55,8.00,-19.00,-986.00
2024-06-06 23:51:45.541940,0,0,-9,0,0,0,73,76,130,90,58,94.95,55,3.00,-1.00,-994.00
2024-06-06 23:51:45.740912,0,0,-9,0,0,0,73,76,130,90,58,94.61,56,6.00,-11.00,-1000.00
2024-06-06 23:51:45.745374,0,0,-9,0,0,0,73,76,130,90,58,94.94,56,21.00,-15.00,-1003.00
2024-06-06 23:51:45.945711,0,0,-9,0,0,0,73,76,129,90,58,94.78,56,13.00,-3.00,-1006.00
2024-06-06 23:51:45.948939,0,0,-9,0,0,0,73,76,129,90,58,94.73,56,0.00,-5.00,-1008.00
2024-06-06 23:51:46.051096,0,0,-9,0,0,0,73,76,130,90,58,94.67,56,16.00,-13.00,-1003.00
2024-06-06 23:51:46.152991,0,0,-9,0,0,0,73,76,129,90,58,94.90,56,4.00,-6.00,-994.00
2024-06-06 23:51:46.254967,0,0,-9,0,0,0,73,76,130,90,58,94.89,56,6.00,-12.00,-994.00
2024-06-06 23:51:46.357167,0,0,-9,0,0,0,73,76,130,90,58,95.08,56,21.00,-21.00,-1006.00
2024-06-06 23:51:46.459297,0,0,-9,0,0,0,73,76,130,90,58,94.89,56,15.00,-10.00,-1005.00
2024-06-06 23:51:46.560917,0,0,-9,0,0,0,73,76,130,90,58,95.07,56,-6.00,0.00,-991.00
2024-06-06 23:51:46.611902,0,0,-9,0,0,0,73,76,130,90,58,95.03,57,15.00,-10.00,-999.00
2024-06-06 23:51:46.764882,0,0,-9,0,0,0,74,76,130,90,58,94.94,57,17.00,-9.00,-1001.00
2024-06-06 23:51:46.815846,0,0,-9,0,0,0,74,76,130,90,58,95.02,57,13.00,-3.00,-999.00
2024-06-06 23:51:46.973691,0,0,-9,0,0,0,74,76,130,90,58,94.93,57,21.00,1.00,-1018.00
2024-06-06 23:51:47.020743,0,0,-9,0,0,0,74,76,130,90,58,94.91,57,11.00,-7.00,-996.00
2024-06-06 23:51:47.174308,0,0,-9,0,0,0,74,76,130,90,58,95.03,57,8.00,6.00,-1018.00
2024-06-06 23:51:47.224327,0,0,-9,0,0,0,74,76,131,90,58,94.88,57,6.00,0.00,-988.00
2024-06-06 23:51:47.381288,0,0,-9,0,0,0,74,76,131,90,58,94.87,57,0.00,-4.00,-998.00
2024-06-06 23:51:47.431448,0,0,-9,0,0,0,74,76,131,90,58,94.90,57,15.00,-5.00,-982.00
2024-06-06 23:51:47.531897,0,0,-9,0,0,0,74,76,130,90,58,95.00,57,6.00,0.00,-997.00
2024-06-06 23:51:47.632043,0,0,-9,0,0,0,74,76,130,90,58,94.81,58,-2.00,-8.00,-997.00
2024-06-06 23:51:47.788868,0,0,-9,0,0,0,75,76,131,90,58,94.91,58,12.00,-16.00,-996.00
2024-06-06 23:51:47.835965,0,0,-9,0,0,0,75,76,131,90,58,94.99,58,11.00,-9.00,-1001.00
2024-06-06 23:51:47.937869,0,0,-9,0,0,0,75,76,131,90,58,94.96,58,15.00,2.00,-1019.00
2024-06-06 23:51:48.096074,0,0,-9,0,0,0,75,76,130,90,58,94.94,58,5.00,0.00,-993.00
2024-06-06 23:51:48.144311,0,0,-9,0,0,0,75,76,130,90,58,95.05,58,9.00,-7.00,-1001.00
2024-06-06 23:51:48.243964,0,0,-9,0,0,0,75,76,130,90,58,94.99,58,14.00,-7.00,-996.00
2024-06-06 23:51:48.408751,0,0,-9,0,0,0,75,76,130,90,58,95.30,58,3.00,0.00,-1005.00
2024-06-06 23:51:48.448312,0,0,-9,0,0,0,75,76,130,90,58,95.00,58,13.00,-4.00,-1001.00
2024-06-06 23:51:48.552116,0,0,-9,0,0,0,75,76,130,90,58,94.85,58,2.00,-6.00,-992.00
2024-06-06 23:51:48.651778,0,0,-9,0,0,0,75,76,130,90,58,95.13,59,-4.00,0.00,-1460.00
2024-06-06 23:51:48.812695,0,0,-9,0,0,-6,75,76,136,100,58,95.37,59,15.00,3.00,-1751.00
2024-06-06 23:51:48.857222,0,27,-9,0,0,-13,75,76,178,110,58,95.05,59,-1.00,23.00,-1800.00
2024-06-06 23:51:48.957797,0,139,-10,2,9,-8,75,76,188,120,58,95.36,59,27.00,779.00,-1087.00
2024-06-06 23:51:49.120894,2,-99,-9,2,8,7,75,76,593,120,58,95.65,59,23.00,749.00,-779.00
2024-06-06 23:51:49.163035,0,-3,-7,1,3,11,75,76,145,110,58,95.16,59,-17.00,456.00,-965.00
2024-06-06 23:51:49.324660,0,1,-9,1,4,9,75,76,136,100,58,94.95,59,4.00,-27.00,-1433.00
2024-06-06 23:51:49.365674,0,-3,-9,1,3,5,75,76,129,90,58,94.99,59,-1.00,-34.00,-1342.00
2024-06-06 23:51:49.529433,0,-3,-9,1,3,2,75,76,126,90,58,95.08,59,-2.00,0.00,-1243.00
2024-06-06 23:51:49.570060,0,-2,-9,0,2,0,75,76,126,90,58,95.05,59,4.00,-13.00,-1145.00
2024-06-06 23:51:49.734507,0,-1,-9,0,1,0,75,76,126,90,58,94.90,60,1.00,-3.00,-1090.00
2024-06-06 23:51:49.773663,0,-1,-9,0,1,-1,74,76,127,90,58,95.02,60,7.00,-2.00,-1037.00
2024-06-06 23:51:49.939554,0,0,-9,0,1,-1,74,76,129,90,58,94.89,60,-5.00,3.00,-980.00
2024-06-06 23:51:49.977882,0,0,-9,0,0,-1,74,76,130,90,58,95.01,60,9.00,4.00,-979.00
2024-06-06 23:51:50.143848,1,-1,-9,0,0,0,74,76,131,90,58,95.13,60,-2.00,-11.00,-957.00
2024-06-06 23:51:50.181700,1,-2,-9,0,0,0,74,76,132,90,58,95.17,60,0.00,-14.00,-977.00
2024-06-06 23:51:50.232519,0,-1,-9,0,0,0,74,76,132,90,58,94.95,60,6.00,-1.00,-971.00
2024-06-06 23:51:50.348797,0,0,-9,0,0,0,74,76,133,90,58,94.96,60,-2.00,11.00,-996.00
2024-06-06 23:51:50.436459,0,0,-9,0,0,0,74,76,134,90,58,94.80,60,2.00,-2.00,-982.00
2024-06-06 23:51:50.538977,0,0,-9,0,0,0,74,76,134,90,58,94.99,60,-7.00,5.00,-979.00
2024-06-06 23:51:50.655670,0,0,-9,0,0,0,74,76,134,90,58,95.08,61,11.00,-8.00,-985.00
2024-06-06 23:51:50.743181,0,0,-9,0,0,0,73,76,134,90,58,95.11,61,-4.00,0.00,-1001.00
2024-06-06 23:51:50.861113,0,0,-9,0,0,0,73,76,134,90,58,94.96,61,6.00,-1.00,-992.00
2024-06-06 23:51:50.946446,0,0,-9,0,0,0,73,76,135,90,58,94.91,61,18.00,-5.00,-998.00
2024-06-06 23:51:51.065251,0,0,-9,0,0,0,73,76,134,90,58,95.21,61,4.00,-10.00,-990.00
2024-06-06 23:51:51.152472,0,0,-9,0,0,0,73,76,134,90,58,95.09,61,2.00,5.00,-986.00
2024-06-06 23:51:51.252825,0,0,-9,0,0,0,73,76,134,90,58,94.94,61,14.00,-1.00,-1019.00
2024-06-06 23:51:51.372735,0,0,-9,0,0,0,73,76,134,90,58,94.82,61,11.00,-11.00,-1003.00
2024-06-06 23:51:51.456908,0,0,-9,0,0,0,73,76,134,90,58,95.10,61,0.00,3.00,-1000.00
2024-06-06 23:51:51.559137,0,0,-9,0,0,0,73,76,134,90,57,94.98,61,-4.00,-2.00,-1009.00
2024-06-06 23:51:51.680039,0,0,-9,0,0,0,73,76,134,90,57,95.09,62,8.00,3.00,-996.00
2024-06-06 23:51:51.762346,0,0,-9,0,0,0,74,76,134,90,57,94.97,62,0.00,0.00,-1015.00
2024-06-06 23:51:51.884421,0,0,-9,0,0,0,74,76,134,90,57,94.89,62,0.00,7.00,-999.00
2024-06-06 23:51:51.966205,0,0,-9,0,0,0,74,76,135,90,57,95.20,62,7.00,-4.00,-1004.00
2024-06-06 23:51:52.086849,0,0,-9,0,0,0,74,76,134,90,57,94.94,62,0.00,3.00,-1001.00
2024-06-06 23:51:52.174584,0,0,-9,0,0,0,74,76,134,90,57,95.18,62,-2.00,5.00,-999.00
2024-06-06 23:51:52.279038,0,0,-9,0,0,0,74,76,134,90,57,95.07,62,14.00,-5.00,-995.00
2024-06-06 23:51:52.379494,0,0,-9,0,0,0,74,76,134,90,57,94.93,62,9.00,0.00,-997.00
2024-06-06 23:51:52.484916,0,0,-9,0,0,0,74,76,134,90,57,95.02,62,3.00,-1.00,-1002.00
2024-06-06 23:51:52.613763,0,0,-9,0,0,0,74,76,134,90,57,95.17,62,8.00,-5.00,-991.00
2024-06-06 23:51:52.680440,0,0,-9,0,0,0,74,76,134,90,57,94.89,63,9.00,-5.00,-993.00
2024-06-06 23:51:52.816955,0,0,-9,0,0,0,73,76,133,90,57,95.09,63,-10.00,0.00,-991.00
2024-06-06 23:51:52.884771,0,0,-9,0,0,0,73,76,134,90,57,94.78,63,13.00,-10.00,-983.00
2024-06-06 23:51:53.011703,0,0,-9,0,0,0,73,76,134,90,57,95.19,63,7.00,5.00,-992.00
2024-06-06 23:51:53.125844,0,0,-9,0,0,0,73,76,134,90,57,94.83,63,0.00,2.00,-1002.00
2024-06-06 23:51:53.268516,0,0,-9,0,0,0,73,76,134,90,57,95.21,63,-3.00,7.00,-987.00
2024-06-06 23:51:53.292308,0,0,-9,0,0,0,73,76,133,90,57,95.10,63,2.00,-8.00,-992.00
2024-06-06 23:51:53.435640,0,0,-9,0,0,0,73,76,134,90,57,94.91,63,-5.00,17.00,-1012.00
2024-06-06 23:51:53.574649,0,0,-9,0,0,0,73,76,134,90,57,95.01,63,1.00,-1.00,-1009.00
2024-06-06 23:51:53.598152,0,0,-9,0,0,0,73,76,134,90,57,95.21,63,9.00,-7.00,-1004.00
2024-06-06 23:51:53.738689,0,0,-9,0,0,0,73,76,134,90,57,95.01,64,7.00,-9.00,-988.00
2024-06-06 23:51:53.881887,0,0,-9,0,0,0,74,76,134,90,57,95.16,64,12.00,-9.00,-990.00
2024-06-06 23:51:53.905703,0,0,-9,0,0,0,74,76,135,90,57,95.20,64,21.00,-11.00,-1002.00
