TS,pitch,roll,yaw,vgx,vgy,vgz,templ,temph,tof,h,bat,baro,time,agx,agy,agz
2024-06-06 23:52:35.876278,0,0,-14,0,0,0,77,79,10,0,54,93.65,82,9.00,0.00,-1001.00
2024-06-06 23:52:36.018095,0,0,-14,0,0,0,76,78,10,0,54,93.50,82,9.00,0.00,-999.00
2024-06-06 23:52:36.080282,0,0,-14,0,0,0,76,78,10,0,54,93.34,82,9.00,0.00,-1002.00
2024-06-06 23:52:36.221701,0,0,-14,0,0,0,76,78,10,0,54,93.50,82,9.00,-1.00,-1000.00
2024-06-06 23:52:36.285635,0,0,-14,0,0,0,76,78,10,0,54,93.61,82,8.00,-1.00,-1000.00
2024-06-06 23:52:36.386051,0,0,-14,0,0,0,76,78,10,0,54,93.13,82,10.00,0.00,-1001.00
2024-06-06 23:52:36.528952,0,0,-14,0,0,0,76,78,10,0,54,93.35,82,10.00,-1.00,-998.00
2024-06-06 23:52:36.590021,0,0,-14,0,0,0,76,78,10,0,54,93.48,82,7.00,-1.00,-997.00
2024-06-06 23:52:36.692169,0,0,-14,0,0,0,76,78,10,0,54,93.45,82,7.00,0.00,-1000.00
2024-06-06 23:52:36.838002,0,0,-14,0,0,0,76,78,10,0,54,93.72,82,8.00,0.00,-1000.00
2024-06-06 23:52:36.896058,0,0,-14,0,0,0,76,78,10,0,54,93.51,82,8.00,-1.00,-1000.00
2024-06-06 23:52:37.142990,0,0,-14,0,0,0,76,80,10,0,54,93.43,82,8.00,0.00,-999.00
2024-06-06 23:52:37.143167,0,0,-14,0,0,0,76,80,10,0,54,93.58,82,7.00,1.00,-1000.00
2024-06-06 23:52:37.202255,0,0,-14,0,0,0,76,80,10,0,54,93.59,82,8.00,-2.00,-999.00
2024-06-06 23:52:37.361091,0,0,-14,0,0,0,76,80,10,0,54,93.53,82,8.00,-1.00,-1000.00
2024-06-06 23:52:37.450405,0,0,-14,0,0,0,76,80,10,0,54,93.58,82,10.00,-1.00,-1001.00
2024-06-06 23:52:37.524397,0,0,-14,0,0,0,76,80,10,0,54,93.37,82,9.00,-2.00,-1001.00
2024-06-06 23:52:37.635923,0,0,-14,0,0,0,76,80,10,0,54,93.66,82,9.00,-2.00,-1000.00
2024-06-06 23:52:37.712134,0,0,-14,0,0,0,76,80,10,0,54,93.34,82,9.00,-1.00,-1002.00
2024-06-06 23:52:37.822418,0,0,-14,0,0,0,76,80,10,0,54,93.59,82,8.00,-1.00,-1000.00
2024-06-06 23:52:37.968926,0,0,-14,0,0,0,76,80,10,0,54,93.42,82,9.00,0.00,-998.00
2024-06-06 23:52:38.123444,0,0,-14,0,0,0,77,78,10,0,54,93.57,82,7.00,-1.00,-999.00
2024-06-06 23:52:38.123642,0,0,-14,0,0,0,77,78,10,0,54,93.72,82,9.00,0.00,-1002.00
2024-06-06 23:52:38.328888,0,0,-14,0,0,0,77,78,10,0,54,93.55,82,10.00,-2.00,-999.00
2024-06-06 23:52:38.329136,0,0,-14,0,0,0,77,78,10,0,54,93.69,82,8.00,-1.00,-1000.00
2024-06-06 23:52:38.471951,0,0,-14,0,0,0,77,78,10,0,54,93.62,82,9.00,-1.00,-1000.00
2024-06-06 23:52:38.476993,0,0,-14,0,0,0,77,78,10,0,54,93.39,82,9.00,-2.00,-1001.00
2024-06-06 23:52:38.615371,0,0,-14,0,0,0,77,78,10,0,54,93.80,82,8.00,-2.00,-1001.00
2024-06-06 23:52:38.758934,0,0,-14,0,0,0,77,78,10,0,54,93.36,82,7.00,-1.00,-999.00
2024-06-06 23:52:38.902128,0,0,-14,0,0,0,77,78,10,0,54,93.60,82,9.00,-2.00,-1003.00
2024-06-06 23:52:38.902338,0,0,-14,0,0,0,77,78,10,0,54,93.52,82,8.00,-1.00,-1000.00
2024-06-06 23:52:39.053256,0,0,-14,0,0,0,77,79,10,0,54,93.36,82,8.00,-1.00,-999.00
2024-06-06 23:52:39.089037,0,0,-14,0,0,0,77,79,10,0,54,93.56,82,9.00,-2.00,-999.00
2024-06-06 23:52:39.191255,0,0,-14,0,0,0,77,79,10,0,54,93.47,82,8.00,-2.00,-1001.00
2024-06-06 23:52:39.293326,0,0,-14,0,0,0,77,79,10,0,54,93.52,82,7.00,-1.00,-999.00
2024-06-06 23:52:39.396142,0,0,-14,0,0,0,77,79,10,0,54,93.55,82,7.00,0.00,-998.00
2024-06-06 23:52:39.498358,0,0,-14,0,0,0,77,79,10,0,54,93.49,82,9.00,-2.00,-999.00
2024-06-06 23:52:39.600789,0,0,-14,0,0,0,77,79,10,0,54,93.41,82,7.00,0.00,-998.00
2024-06-06 23:52:39.703026,0,0,-14,0,0,0,77,79,10,0,54,93.35,82,9.00,-2.00,-999.00
2024-06-06 23:52:39.803104,0,0,-14,0,0,0,77,79,10,0,54,93.63,82,8.00,-2.00,-999.00
2024-06-06 23:52:39.908207,0,0,-14,0,0,0,77,79,10,0,54,93.70,82,8.00,-2.00,-1002.00
2024-06-06 23:52:40.007035,0,0,-14,0,0,0,77,79,10,0,54,93.59,82,8.00,-1.00,-999.00
2024-06-06 23:52:40.127375,0,0,-14,0,0,0,77,79,10,0,54,93.33,82,8.00,-1.00,-1001.00
2024-06-06 23:52:40.212560,0,0,-14,0,0,0,77,79,10,0,54,93.18,82,8.00,0.00,-1001.00
2024-06-06 23:52:40.313031,0,0,-14,0,0,0,77,79,10,0,54,93.54,82,10.00,-2.00,-999.00
2024-06-06 23:52:40.417720,0,0,-14,0,0,0,77,79,10,0,54,93.56,82,7.00,-1.00,-1000.00
2024-06-06 23:52:40.518674,0,0,-14,0,0,0,77,79,10,0,54,93.26,82,8.00,0.00,-1000.00
2024-06-06 23:52:40.621131,0,0,-14,0,0,0,77,79,10,0,54,93.43,82,10.00,-2.00,-999.00
2024-06-06 23:52:40.720921,0,0,-14,0,0,0,77,79,10,0,54,93.72,82,8.00,-1.00,-1002.00
2024-06-06 23:52:40.822702,0,0,-14,0,0,0,77,79,10,0,54,93.54,82,10.00,-1.00,-998.00
2024-06-06 23:52:41.034261,0,0,-14,0,0,0,77,79,10,0,54,93.65,82,9.00,0.00,-1000.00
2024-06-06 23:52:41.034323,0,0,-14,0,0,0,77,79,10,0,54,93.52,82,9.00,0.00,-1001.00
2024-06-06 23:52:41.128750,0,0,-14,0,0,0,77,79,10,0,54,93.52,82,8.00,-1.00,-999.00
2024-06-06 23:52:41.241384,0,0,-13,0,0,0,77,79,10,0,54,93.52,82,7.00,-1.00,-998.00
2024-06-06 23:52:41.336388,0,0,-13,0,0,0,77,79,10,0,54,93.52,82,8.00,0.00,-997.00
2024-06-06 23:52:41.434814,-1,0,-13,0,0,0,77,79,10,0,54,93.52,82,24.00,-14.00,-1148.00
2024-06-06 23:52:41.546139,-1,0,-13,0,0,-2,77,79,10,0,54,93.52,82,13.00,-10.00,-1367.00
2024-06-06 23:52:41.638803,1,0,-13,0,0,-5,77,79,10,0,54,93.52,82,-4.00,-5.00,-1258.00
2024-06-06 23:52:41.740806,2,0,-13,0,0,-7,77,79,17,0,54,93.73,83,-4.00,0.00,-1106.00
2024-06-06 23:52:41.844511,1,0,-13,0,0,-8,77,79,25,10,54,94.10,83,-5.00,-1.00,-1039.00
2024-06-06 23:52:41.894030,0,0,-13,0,0,-8,77,79,35,20,54,94.24,83,7.00,-7.00,-988.00
2024-06-06 23:52:42.059192,0,0,-13,0,0,-7,76,79,40,30,54,94.25,83,7.00,-14.00,-923.00
2024-06-06 23:52:42.100390,0,0,-13,0,0,-6,76,79,48,30,54,94.17,83,16.00,2.00,-902.00
2024-06-06 23:52:42.199646,0,0,-13,0,0,-5,76,79,55,40,54,94.37,83,10.00,-24.00,-877.00
2024-06-06 23:52:42.365345,0,0,-13,0,0,-4,76,79,61,40,54,94.50,83,10.00,0.00,-883.00
2024-06-06 23:52:42.403643,0,0,-13,0,0,-3,76,79,67,50,54,94.57,83,15.00,-18.00,-884.00
2024-06-06 23:52:42.570140,0,0,-13,0,0,-2,76,79,71,50,54,94.67,83,19.00,-13.00,-902.00
2024-06-06 23:52:42.607708,0,0,-13,0,0,-1,76,79,74,50,54,94.35,83,12.00,1.00,-933.00
2024-06-06 23:52:42.709748,0,0,-13,0,0,0,76,79,76,50,54,94.28,84,-2.00,4.00,-963.00
2024-06-06 23:52:42.877350,0,0,-13,0,0,0,76,79,78,50,54,94.39,84,17.00,-10.00,-968.00
2024-06-06 23:52:42.913693,0,0,-13,0,0,0,76,79,80,50,54,94.45,84,-1.00,2.00,-982.00
2024-06-06 23:52:43.082211,0,0,-13,0,0,0,78,81,81,60,54,94.46,84,10.00,-11.00,-990.00
2024-06-06 23:52:43.119994,0,0,-13,0,0,0,78,81,82,60,54,94.32,84,7.00,4.00,-990.00
2024-06-06 23:52:43.220455,0,0,-13,0,0,0,78,81,83,60,54,94.46,84,11.00,2.00,-1002.00
2024-06-06 23:52:43.321673,0,0,-13,0,0,0,78,81,84,60,54,94.66,84,5.00,-4.00,-987.00
2024-06-06 23:52:43.423509,0,0,-13,0,0,0,78,81,85,60,54,94.80,84,-1.00,-5.00,-990.00
2024-06-06 23:52:43.594070,0,0,-13,0,0,0,78,81,85,60,54,94.63,84,14.00,-7.00,-986.00
2024-06-06 23:52:43.627434,0,0,-13,0,0,0,78,81,86,60,54,94.60,84,13.00,-3.00,-989.00
2024-06-06 23:52:43.729509,0,0,-13,0,0,0,78,81,86,60,54,94.57,85,7.00,-8.00,-982.00
2024-06-06 23:52:43.831718,0,0,-13,0,0,0,78,81,86,60,54,94.60,85,5.00,-1.00,-986.00
2024-06-06 23:52:43.933619,0,0,-13,0,0,0,78,81,87,60,54,94.60,85,9.00,-5.00,-997.00
2024-06-06 23:52:44.108443,0,0,-13,0,0,0,77,79,87,60,54,94.64,85,0.00,-2.00,-998.00
2024-06-06 23:52:44.137605,0,0,-13,0,0,0,77,79,87,60,54,94.78,85,11.00,-12.00,-989.00
2024-06-06 23:52:44.314473,0,0,-13,0,0,0,77,79,86,60,54,94.78,85,1.00,-12.00,-985.00
2024-06-06 23:52:44.341984,0,0,-13,0,0,0,77,79,86,60,54,94.70,85,6.00,-6.00,-998.00
2024-06-06 23:52:44.443727,0,0,-13,0,0,0,77,79,86,60,54,94.45,85,8.00,-13.00,-985.00
2024-06-06 23:52:44.546108,0,0,-13,0,0,0,77,79,85,60,54,94.62,85,-2.00,0.00,-991.00
2024-06-06 23:52:44.648649,0,0,-13,0,0,0,77,79,85,60,54,94.67,85,8.00,-2.00,-996.00
2024-06-06 23:52:44.751230,0,0,-13,0,0,0,77,79,84,60,54,94.52,86,9.00,-4.00,-995.00
2024-06-06 23:52:44.853615,0,0,-13,0,0,0,77,79,84,60,54,94.55,86,8.00,-11.00,-1005.00
2024-06-06 23:52:44.954296,0,0,-13,0,0,0,77,79,84,60,54,94.56,86,5.00,-4.00,-999.00
2024-06-06 23:52:45.057946,0,0,-13,0,0,0,77,79,83,60,54,94.61,86,2.00,-2.00,-995.00
2024-06-06 23:52:45.160605,0,0,-13,0,0,0,77,79,83,60,54,94.85,86,-2.00,7.00,-998.00
2024-06-06 23:52:45.260056,0,0,-13,0,0,0,77,79,82,60,54,94.67,86,0.00,12.00,-1020.00
2024-06-06 23:52:45.437248,0,0,-13,0,0,0,77,79,82,60,54,94.41,86,-8.00,15.00,-1009.00
2024-06-06 23:52:45.463322,0,0,-13,0,0,0,77,79,81,60,54,94.47,86,-2.00,-1.00,-994.00
2024-06-06 23:52:45.665657,0,0,-13,0,0,0,77,79,81,60,54,94.44,86,14.00,-6.00,-1010.00
2024-06-06 23:52:45.667339,0,0,-13,0,0,0,77,79,81,60,54,94.56,86,13.00,-8.00,-1008.00
2024-06-06 23:52:45.720519,0,0,-13,0,0,0,77,79,81,60,54,94.62,87,0.00,-23.00,-978.00
2024-06-06 23:52:45.827528,0,0,-13,0,0,0,77,79,80,60,54,94.44,87,1.00,-8.00,-998.00
2024-06-06 23:52:45.923872,0,0,-13,0,0,0,77,79,80,60,54,94.55,87,4.00,-4.00,-1004.00
2024-06-06 23:52:46.075327,0,0,-13,0,0,0,78,79,80,60,54,94.48,87,-4.00,-12.00,-997.00
2024-06-06 23:52:46.126230,0,0,-13,0,0,0,78,79,80,60,54,94.65,87,-17.00,-6.00,-991.00
2024-06-06 23:52:46.228281,0,0,-13,0,0,0,78,79,79,60,54,94.60,87,-6.00,-1.00,-1007.00
2024-06-06 23:52:46.358754,0,0,-13,0,0,0,78,79,79,60,54,94.24,87,-11.00,0.00,-1011.00
2024-06-06 23:52:46.433122,0,0,-13,0,0,0,78,79,79,60,54,94.31,87,-5.00,-1.00,-1000.00
2024-06-06 23:52:46.534496,0,0,-13,0,0,0,78,79,79,60,54,94.32,87,-3.00,-2.00,-994.00
2024-06-06 23:52:46.665968,0,0,-13,0,0,0,78,79,79,60,54,94.41,87,7.00,-1.00,-1006.00
2024-06-06 23:52:46.738960,0,0,-13,0,0,0,78,79,79,60,54,94.38,88,15.00,-1.00,-1009.00
2024-06-06 23:52:46.870742,0,0,-13,0,0,0,78,79,79,60,54,94.73,88,2.00,5.00,-1000.00
2024-06-06 23:52:46.942224,0,0,-13,0,0,0,78,79,80,60,54,94.29,88,-14.00,14.00,-1008.00
2024-06-06 23:52:47.077367,0,0,-13,0,0,0,77,79,80,60,54,94.53,88,1.00,1.00,-1006.00
2024-06-06 23:52:47.146213,0,0,-13,0,0,0,77,79,80,60,54,94.55,88,7.00,-16.00,-991.00
2024-06-06 23:52:47.281437,0,0,-13,0,0,0,77,79,80,60,54,94.46,88,7.00,1.00,-1003.00
2024-06-06 23:52:47.350265,0,0,-13,0,0,0,77,79,80,60,54,94.67,88,12.00,-1.00,-1000.00
2024-06-06 23:52:47.485345,0,0,-13,0,0,0,77,79,81,60,54,94.53,88,0.00,-2.00,-999.00
2024-06-06 23:52:47.554272,0,0,-13,0,0,0,77,79,81,60,54,94.51,88,-5.00,1.00,-996.00
2024-06-06 23:52:47.691087,0,0,-13,0,0,0,77,79,81,60,54,94.75,88,5.00,-4.00,-1002.00
2024-06-06 23:52:47.758616,0,0,-13,0,0,0,77,79,81,60,54,94.54,89,7.00,-7.00,-991.00
2024-06-06 23:52:47.860295,0,0,-13,0,0,0,77,79,81,60,54,94.32,89,10.00,-11.00,-991.00
2024-06-06 23:52:47.967398,0,0,-13,0,0,0,77,79,81,60,54,94.43,89,12.00,-10.00,-998.00
2024-06-06 23:52:48.065808,0,0,-13,0,0,0,76,78,82,60,54,94.17,89,3.00,-11.00,-998.00
2024-06-06 23:52:48.166306,0,0,-13,0,0,0,76,78,81,60,54,94.75,89,3.00,-16.00,-991.00
2024-06-06 23:52:48.304263,0,0,-13,0,0,0,76,78,82,60,54,94.55,89,6.00,-7.00,-999.00
2024-06-06 23:52:48.371172,0,0,-13,0,0,0,76,78,82,60,54,94.69,89,1.00,-4.00,-999.00
2024-06-06 23:52:48.611553,0,0,-13,0,0,0,76,78,82,60,54,94.47,89,0.00,2.00,-996.00
2024-06-06 23:52:48.614132,0,0,-13,0,0,0,76,78,82,60,54,94.12,89,-1.00,-3.00,-998.00
2024-06-06 23:52:48.676101,0,0,-13,0,0,0,76,78,82,60,54,94.58,89,16.00,-7.00,-997.00
2024-06-06 23:52:48.816330,0,0,-13,0,0,0,76,78,82,60,54,94.73,90,15.00,-11.00,-1001.00
2024-06-06 23:52:48.880129,0,0,-13,0,0,0,76,78,82,60,54,94.64,90,7.00,-5.00,-997.00
2024-06-06 23:52:48.983481,0,0,-13,0,0,0,76,78,82,60,54,94.49,90,0.00,-2.00,-996.00
2024-06-06 23:52:49.083867,0,0,-13,0,0,0,76,78,82,60,54,94.24,90,5.00,-5.00,-998.00
2024-06-06 23:52:49.225736,0,0,-13,0,0,0,76,78,82,60,54,94.30,90,-6.00,10.00,-999.00
2024-06-06 23:52:49.236993,0,0,-13,0,0,-1,76,78,84,60,54,94.30,90,-17.00,2.00,-1057.00
2024-06-06 23:52:49.430514,0,0,-13,0,0,-2,76,78,87,60,54,94.88,90,-2.00,0.00,-1108.00
2024-06-06 23:52:49.441021,0,0,-13,0,0,-3,76,78,90,70,54,94.65,90,0.00,-1.00,-1099.00
2024-06-06 23:52:49.635420,0,0,-13,0,0,-4,76,78,94,70,54,94.95,90,14.00,-10.00,-1094.00
2024-06-06 23:52:49.644973,0,0,-13,0,0,-4,76,78,99,70,54,94.88,90,0.00,-7.00,-1072.00
2024-06-06 23:52:49.749279,0,0,-13,0,0,-5,76,78,105,80,54,94.80,91,14.00,-12.00,-1058.00
2024-06-06 23:52:49.849743,0,0,-13,0,0,-5,76,78,110,90,54,94.83,91,18.00,-9.00,-1045.00
2024-06-06 23:52:49.950967,0,0,-13,0,0,-5,76,78,116,90,54,95.09,91,7.00,-3.00,-1026.00
2024-06-06 23:52:50.147394,0,0,-13,0,0,-5,76,78,122,100,54,94.85,91,13.00,-15.00,-988.00
2024-06-06 23:52:50.161796,0,0,-13,0,0,-5,76,78,127,100,54,95.37,91,0.00,-2.00,-983.00
2024-06-06 23:52:50.257514,0,0,-13,0,0,-5,76,78,133,110,54,95.40,91,1.00,-1.00,-964.00
2024-06-06 23:52:50.454570,0,0,-13,0,0,-5,76,78,139,110,54,95.15,91,-4.00,-6.00,-967.00
2024-06-06 23:52:50.460855,0,0,-13,0,0,-4,76,78,143,120,54,95.09,91,3.00,0.00,-972.00
2024-06-06 23:52:50.761835,0,0,-13,0,0,-4,76,78,149,120,54,95.40,91,11.00,-4.00,-962.00
2024-06-06 23:52:50.762025,0,0,-13,0,0,-4,76,78,152,130,54,95.47,91,10.00,-9.00,-955.00
2024-06-06 23:52:50.767919,0,0,-13,0,0,-3,76,78,156,130,54,95.36,92,10.00,-11.00,-969.00
2024-06-06 23:52:50.868829,0,0,-13,0,0,-3,76,78,159,140,54,95.26,92,-12.00,0.00,-961.00
2024-06-06 23:52:51.069102,0,0,-13,0,0,-3,76,78,162,140,54,95.44,92,7.00,-11.00,-964.00
2024-06-06 23:52:51.074094,0,0,-13,0,0,-2,77,79,166,140,54,95.36,92,5.00,-6.00,-962.00
2024-06-06 23:52:51.176402,0,0,-13,0,0,-2,77,79,169,140,54,95.42,92,9.00,-11.00,-971.00
2024-06-06 23:52:51.276819,0,0,-13,0,0,-2,77,79,171,150,54,95.34,92,3.00,0.00,-982.00
2024-06-06 23:52:51.379208,0,0,-13,0,0,-1,77,79,172,150,54,95.38,92,2.00,-5.00,-982.00
2024-06-06 23:52:51.480716,0,0,-13,0,0,-1,77,79,174,150,54,95.52,92,10.00,-3.00,-975.00
2024-06-06 23:52:51.582719,0,0,-13,0,0,-1,77,79,175,150,54,95.27,92,9.00,-5.00,-973.00
2024-06-06 23:52:51.785613,0,0,-13,0,0,-1,77,79,176,150,54,95.48,92,11.00,-6.00,-991.00
2024-06-06 23:52:51.786818,0,0,-13,0,0,0,77,79,178,150,54,95.49,93,0.00,-3.00,-971.00
2024-06-06 23:52:51.990944,0,0,-13,0,0,0,77,79,178,160,54,95.55,93,10.00,1.00,-971.00
2024-06-06 23:52:51.991104,0,0,-13,0,0,0,77,79,178,160,54,95.41,93,9.00,-4.00,-986.00
2024-06-06 23:52:52.123436,0,0,-13,0,0,0,76,79,178,160,54,95.44,93,6.00,0.00,-986.00
2024-06-06 23:52:52.262421,0,0,-13,0,0,0,76,79,178,160,54,95.46,93,-3.00,-2.00,-992.00
2024-06-06 23:52:52.297698,0,0,-13,0,0,0,76,79,178,160,54,95.68,93,-8.00,-12.00,-972.00
2024-06-06 23:52:52.452187,0,0,-13,0,0,0,76,79,179,160,54,95.18,93,6.00,-5.00,-999.00
2024-06-06 23:52:52.542593,0,0,-13,0,0,0,76,79,179,160,54,95.46,93,8.00,-1.00,-1001.00
2024-06-06 23:52:52.602895,0,0,-13,0,0,0,76,79,179,160,54,95.78,93,9.00,-1.00,-1011.00
2024-06-06 23:52:52.723478,0,0,-13,0,0,0,76,79,179,160,54,95.45,93,8.00,-3.00,-1001.00
2024-06-06 23:52:52.806803,0,0,-13,0,0,0,76,79,179,160,54,95.48,94,20.00,-11.00,-1008.00
2024-06-06 23:52:52.909385,0,0,-13,0,0,0,76,79,179,160,54,95.50,94,3.00,0.00,-1009.00
2024-06-06 23:52:53.025776,0,0,-13,0,0,0,76,79,180,160,54,95.26,94,6.00,-2.00,-997.00
2024-06-06 23:52:53.113333,0,0,-13,0,0,0,76,79,180,160,54,95.61,94,-1.00,0.00,-998.00
2024-06-06 23:52:53.219384,0,0,-13,0,0,0,76,79,179,160,54,95.47,94,0.00,-5.00,-1003.00
2024-06-06 23:52:53.332817,0,0,-13,0,0,0,76,79,180,160,54,95.65,94,0.00,0.00,-992.00
2024-06-06 23:52:53.476144,0,0,-13,0,0,0,76,79,180,160,54,95.36,94,9.00,-19.00,-1003.00
2024-06-06 23:52:53.476335,0,0,-13,0,0,0,76,79,180,160,54,95.69,94,1.00,-4.00,-994.00
2024-06-06 23:52:53.640122,0,0,-13,0,0,0,76,79,179,160,54,95.69,94,9.00,-11.00,-998.00
2024-06-06 23:52:53.784180,0,0,-13,0,0,0,76,79,180,160,54,95.51,94,1.00,-18.00,-986.00
2024-06-06 23:52:53.784319,0,0,-13,0,0,0,76,79,181,160,54,95.62,95,0.00,0.00,-992.00
2024-06-06 23:52:53.946802,0,0,-13,0,0,0,76,79,180,160,54,95.30,95,-4.00,6.00,-1016.00
2024-06-06 23:52:54.101077,0,0,-13,0,0,0,76,79,181,160,54,95.37,95,2.00,-5.00,-960.00
2024-06-06 23:52:54.101275,0,0,-13,0,0,0,75,78,179,160,54,95.54,95,-2.00,-6.00,-948.00
2024-06-06 23:52:54.183480,0,0,-13,0,0,0,75,78,179,160,54,95.54,95,0.00,0.00,-956.00
2024-06-06 23:52:54.345572,0,0,-13,0,0,1,75,78,177,160,54,95.00,95,8.00,-11.00,-953.00
2024-06-06 23:52:54.387411,0,0,-13,0,0,1,75,78,175,150,54,95.36,95,6.00,-10.00,-955.00
2024-06-06 23:52:54.550270,0,0,-13,0,0,2,75,78,173,150,54,95.24,95,4.00,-8.00,-969.00
2024-06-06 23:52:54.591893,0,0,-13,0,0,2,75,78,171,150,54,95.19,95,9.00,-18.00,-974.00
2024-06-06 23:52:54.755043,0,0,-13,0,0,2,75,78,169,150,54,95.38,95,2.00,-11.00,-982.00
2024-06-06 23:52:54.795364,0,0,-13,0,0,2,75,78,165,140,54,95.48,96,7.00,-8.00,-998.00
2024-06-06 23:52:54.960347,0,0,-13,0,0,2,75,78,162,140,54,95.41,96,6.00,-3.00,-1009.00
2024-06-06 23:52:54.999347,0,0,-13,0,0,2,75,78,160,140,54,95.36,96,-1.00,0.00,-1007.00
2024-06-06 23:52:55.164656,0,0,-13,0,0,2,76,78,157,140,54,95.42,96,6.00,-3.00,-1024.00
2024-06-06 23:52:55.204465,0,0,-13,0,0,2,76,78,154,130,54,95.26,96,-5.00,4.00,-1014.00
2024-06-06 23:52:55.369442,0,0,-13,0,0,2,76,78,152,130,54,94.99,96,6.00,-16.00,-1015.00
2024-06-06 23:52:55.408090,0,0,-13,0,0,2,76,78,149,130,54,95.16,96,13.00,-5.00,-1027.00
2024-06-06 23:52:55.509761,0,0,-13,0,0,2,76,78,147,130,54,95.03,96,6.00,-9.00,-1025.00
2024-06-06 23:52:55.612209,0,0,-13,0,0,2,76,78,145,120,54,95.16,96,14.00,-13.00,-1011.00
2024-06-06 23:52:55.779139,0,0,-13,0,0,1,76,78,143,120,54,95.02,96,7.00,-10.00,-1019.00
2024-06-06 23:52:55.816962,0,0,-13,0,0,1,76,78,141,120,54,95.03,97,2.00,7.00,-1042.00
2024-06-06 23:52:55.917713,0,0,-13,0,0,1,76,78,140,120,54,95.09,97,1.00,-15.00,-1011.00
2024-06-06 23:52:56.019494,0,0,-13,0,0,1,76,78,139,120,54,94.83,97,9.00,-11.00,-1012.00
2024-06-06 23:52:56.121679,0,0,-13,0,0,1,76,78,137,110,54,95.15,97,2.00,-7.00,-1011.00
2024-06-06 23:52:56.294352,0,0,-13,0,0,1,76,78,137,110,54,95.02,97,6.00,-10.00,-1017.00
2024-06-06 23:52:56.325235,0,0,-13,0,0,0,76,78,136,110,54,95.23,97,-1.00,-3.00,-1003.00
2024-06-06 23:52:56.427544,0,0,-13,0,0,0,76,78,135,110,54,94.87,97,0.00,-8.00,-999.00
2024-06-06 23:52:56.603326,0,0,-13,0,0,0,76,78,134,110,54,95.29,97,13.00,-9.00,-1009.00
2024-06-06 23:52:56.631447,0,0,-13,0,0,0,76,78,134,110,54,94.94,97,6.00,-13.00,-1022.00
2024-06-06 23:52:56.789016,0,0,-13,0,0,0,76,78,133,110,54,95.16,98,6.00,-7.00,-1025.00
2024-06-06 23:52:56.838396,0,0,-13,0,0,0,76,78,134,110,54,94.99,98,1.00,-5.00,-1017.00
2024-06-06 23:52:56.886860,0,0,-13,0,0,0,76,78,133,110,54,94.99,98,16.00,-16.00,-1000.00
2024-06-06 23:52:57.010493,0,0,-13,0,0,0,76,78,133,110,54,94.91,98,1.00,-1.00,-1025.00
2024-06-06 23:52:57.092305,0,0,-13,0,0,0,76,78,133,110,54,95.16,98,8.00,-15.00,-990.00
2024-06-06 23:52:57.192505,0,0,-13,0,0,0,76,78,134,110,54,95.05,98,-6.00,-18.00,-993.00
2024-06-06 23:52:57.315229,0,0,-13,0,0,0,76,78,133,110,54,94.96,98,10.00,-10.00,-1003.00
2024-06-06 23:52:57.396451,0,0,-13,0,0,0,76,78,133,110,54,95.08,98,0.00,-9.00,-993.00
2024-06-06 23:52:57.520465,0,0,-13,0,0,0,76,78,133,110,54,95.01,98,10.00,-12.00,-995.00
2024-06-06 23:52:57.603343,0,0,-13,0,0,0,76,78,134,110,54,94.90,98,-8.00,2.00,-1011.00
2024-06-06 23:52:57.702513,0,0,-13,0,0,0,76,78,134,110,54,95.24,99,12.00,-13.00,-1003.00
2024-06-06 23:52:57.804747,0,0,-13,0,0,0,76,78,134,110,54,95.08,99,-3.00,1.00,-999.00
2024-06-06 23:52:57.929880,0,0,-13,0,0,0,76,78,135,110,54,94.68,99,-2.00,2.00,-1015.00
2024-06-06 23:52:58.008275,0,0,-13,0,0,0,76,78,134,110,54,94.74,99,1.00,-11.00,-1000.00
2024-06-06 23:52:58.139154,0,0,-13,0,0,0,75,78,135,110,54,94.78,99,0.00,-10.00,-990.00
2024-06-06 23:52:58.212423,0,0,-13,0,0,0,75,78,134,110,54,95.17,99,2.00,-2.00,-1012.00
2024-06-06 23:52:58.339473,0,0,-13,0,0,0,75,78,134,110,54,94.99,99,13.00,-11.00,-994.00
2024-06-06 23:52:58.416174,0,0,-13,0,0,0,75,78,134,110,54,95.19,99,3.00,-11.00,-996.00
2024-06-06 23:52:58.543820,0,0,-13,0,0,0,75,78,134,110,54,95.18,99,-13.00,-2.00,-1016.00
2024-06-06 23:52:58.620251,-6,0,-13,0,0,0,75,78,135,110,54,95.01,99,3.00,6.00,-996.00
2024-06-06 23:52:58.748832,-8,0,-13,1,0,0,75,78,135,110,54,95.17,100,-14.00,8.00,-1007.00
2024-06-06 23:52:58.827234,-8,0,-13,3,0,0,75,78,137,110,54,94.65,100,-19.00,-8.00,-1007.00
2024-06-06 23:52:58.926251,-7,0,-13,4,-1,0,75,78,136,110,54,94.80,100,-27.00,-8.00,-1011.00
2024-06-06 23:52:59.055805,-6,0,-13,5,-1,0,75,78,135,110,54,95.00,100,-40.00,-8.00,-1006.00
2024-06-06 23:52:59.133264,-6,0,-13,6,-1,0,76,78,135,110,54,94.97,100,-31.00,-4.00,-1004.00
2024-06-06 23:52:59.234955,-5,0,-13,7,-1,0,76,78,134,110,54,95.04,100,-34.00,-6.00,-1004.00
2024-06-06 23:52:59.336030,-4,0,-13,7,-1,0,76,78,136,110,54,94.93,100,-36.00,-4.00,-999.00
2024-06-06 23:52:59.436245,-2,0,-13,7,-1,0,76,78,134,110,54,94.84,100,-52.00,8.00,-1000.00
2024-06-06 23:52:59.567765,0,0,-13,7,-1,0,76,78,135,110,54,94.97,100,-48.00,0.00,-1000.00
2024-06-06 23:52:59.640359,2,0,-13,6,-1,0,76,78,134,110,54,94.81,100,-49.00,9.00,-1001.00
2024-06-06 23:52:59.772871,4,0,-13,5,-1,0,76,78,135,110,54,95.04,101,-35.00,-3.00,-1002.00
2024-06-06 23:52:59.845953,2,0,-13,4,0,0,76,78,135,110,54,94.92,101,-40.00,12.00,-1002.00
2024-06-06 23:52:59.948049,1,0,-13,3,0,0,76,78,135,110,54,94.68,101,-28.00,1.00,-998.00
2024-06-06 23:53:00.048520,0,0,-13,3,0,0,76,78,134,110,54,95.26,101,-20.00,0.00,-1000.00
2024-06-06 23:53:00.150628,0,0,-13,2,0,0,75,78,134,110,54,95.01,101,-25.00,2.00,-998.00
2024-06-06 23:53:00.252974,0,0,-13,3,0,0,75,78,135,110,54,95.14,101,-22.00,1.00,-991.00
2024-06-06 23:53:00.354072,0,0,-13,2,0,0,75,78,134,110,54,95.31,101,-15.00,-13.00,-995.00
2024-06-06 23:53:00.489194,0,1,-13,2,0,0,75,78,134,110,54,94.85,101,-5.00,10.00,-1000.00
2024-06-06 23:53:00.563869,0,0,-13,2,0,0,75,78,134,110,54,94.91,101,-13.00,1.00,-1008.00
2024-06-06 23:53:00.660520,1,0,-13,2,0,0,75,78,133,110,54,95.31,101,-18.00,-2.00,-1003.00
2024-06-06 23:53:00.711251,3,0,-13,2,0,0,75,78,134,110,54,94.86,102,-14.00,-9.00,-1002.00
2024-06-06 23:53:00.813215,4,0,-13,1,0,0,75,78,133,110,54,94.87,102,-11.00,2.00,-1012.00
2024-06-06 23:53:01.003012,2,0,-13,0,0,0,75,78,133,110,54,95.06,102,-4.00,9.00,-1005.00
2024-06-06 23:53:01.017643,1,0,-13,0,0,0,75,78,133,110,54,95.06,102,13.00,6.00,-1016.00
2024-06-06 23:53:01.206357,0,0,-13,0,0,0,76,78,133,110,54,95.12,102,11.00,-15.00,-999.00
2024-06-06 23:53:01.221117,0,0,-13,0,0,0,76,78,133,110,54,95.03,102,2.00,1.00,-1001.00
2024-06-06 23:53:01.513570,0,0,-13,0,0,0,76,78,134,110,54,94.91,102,8.00,-5.00,-1002.00
2024-06-06 23:53:01.513712,0,0,-13,0,0,0,76,78,133,110,54,95.01,102,-2.00,5.00,-998.00
2024-06-06 23:53:01.528044,0,0,-13,0,0,0,76,78,134,110,54,94.78,102,2.00,-7.00,-990.00
2024-06-06 23:53:01.721944,0,0,-13,0,0,0,76,78,135,110,54,94.83,102,-5.00,12.00,-998.00
2024-06-06 23:53:01.731223,0,0,-13,0,0,0,76,78,134,110,54,94.91,103,7.00,-2.00,-996.00
2024-06-06 23:53:01.924668,0,0,-13,0,0,0,76,78,134,110,54,95.13,103,5.00,10.00,-996.00
2024-06-06 23:53:01.934943,0,0,-13,0,0,0,76,78,135,110,54,95.06,103,2.00,2.00,-997.00
2024-06-06 23:53:02.128312,0,0,-13,0,0,0,76,78,134,110,54,95.17,103,8.00,-2.00,-995.00
2024-06-06 23:53:02.138959,0,0,-13,0,0,0,76,78,135,110,54,95.01,103,4.00,2.00,-994.00
2024-06-06 23:53:02.333960,0,0,-13,0,0,0,76,78,135,110,54,94.81,103,4.00,8.00,-1009.00
2024-06-06 23:53:02.342970,0,0,-13,0,0,0,76,78,134,110,54,94.85,103,11.00,2.00,-998.00
2024-06-06 23:53:02.537381,0,0,-13,0,0,0,76,78,134,110,54,95.04,103,13.00,-2.00,-1001.00
2024-06-06 23:53:02.547247,0,0,-13,0,0,0,76,78,135,110,54,94.84,103,11.00,-4.00,-993.00
2024-06-06 23:53:02.742276,0,0,-13,0,0,0,76,78,134,110,54,94.95,103,11.00,6.00,-1011.00
2024-06-06 23:53:02.753754,0,0,-13,0,0,0,76,78,134,110,54,94.96,104,11.00,-6.00,-989.00
2024-06-06 23:53:02.853362,0,0,-13,0,0,0,76,78,134,110,54,94.92,104,8.00,-2.00,-1000.00
2024-06-06 23:53:03.006317,0,0,-13,0,0,0,76,78,134,110,54,95.10,104,2.00,1.00,-1007.00
2024-06-06 23:53:03.056733,0,0,-13,0,0,0,76,78,133,110,54,95.06,104,1.00,-1.00,-994.00
2024-06-06 23:53:03.254051,0,0,-13,0,0,0,75,77,133,110,54,95.16,104,14.00,2.00,-974.00
2024-06-06 23:53:03.260689,6,0,-13,0,0,0,75,77,133,110,54,95.29,104,5.00,-9.00,-1014.00
2024-06-06 23:53:03.458785,8,0,-13,-1,0,0,75,77,133,110,54,95.09,104,22.00,-17.00,-1004.00
2024-06-06 23:53:03.468005,8,0,-13,-2,0,0,75,77,134,110,54,95.15,104,30.00,-4.00,-1027.00
2024-06-06 23:53:03.567178,8,0,-13,-4,0,0,75,77,135,110,54,94.94,104,41.00,-12.00,-1016.00
2024-06-06 23:53:03.668941,7,0,-13,-5,1,0,75,77,135,110,54,95.09,104,39.00,-11.00,-1019.00
2024-06-06 23:53:03.770725,7,0,-13,-6,1,0,75,77,133,110,54,95.33,105,35.00,-3.00,-1006.00
2024-06-06 23:53:03.971224,6,0,-13,-6,1,0,75,77,133,110,54,94.96,105,58.00,-5.00,-1003.00
2024-06-06 23:53:03.974657,5,0,-13,-7,1,0,75,77,134,110,54,94.94,105,48.00,-1.00,-1004.00
2024-06-06 23:53:04.077713,3,0,-13,-7,1,0,75,77,133,110,54,95.10,105,58.00,1.00,-999.00
2024-06-06 23:53:04.178645,0,0,-13,-7,1,0,75,78,133,110,54,94.86,105,71.00,-25.00,-973.00
2024-06-06 23:53:04.280650,-1,0,-13,-6,1,0,75,78,134,110,54,94.73,105,61.00,-10.00,-998.00
2024-06-06 23:53:04.334648,-3,0,-13,-5,1,0,75,78,133,110,54,94.78,105,62.00,-12.00,-1002.00
2024-06-06 23:53:04.433688,-3,0,-13,-4,1,0,75,78,134,110,54,95.24,105,48.00,-9.00,-1002.00
2024-06-06 23:53:04.586984,-1,0,-13,-3,0,0,75,78,133,110,54,94.90,105,34.00,-15.00,-995.00
2024-06-06 23:53:04.637565,0,0,-13,-3,0,0,75,78,133,110,54,94.90,105,24.00,-13.00,-1002.00
2024-06-06 23:53:04.790405,0,0,-13,-3,0,0,75,78,134,110,54,94.86,106,34.00,-5.00,-995.00
2024-06-06 23:53:04.841563,0,0,-13,-3,0,0,75,78,133,110,54,95.00,106,27.00,-6.00,-1005.00
2024-06-06 23:53:04.994720,0,0,-13,-3,0,0,75,78,133,110,54,94.87,106,28.00,-10.00,-997.00
2024-06-06 23:53:05.045525,0,-1,-13,-2,0,0,75,78,134,110,54,95.11,106,23.00,-20.00,-990.00
2024-06-06 23:53:05.199511,0,0,-13,-2,0,0,75,77,133,110,54,95.17,106,32.00,-13.00,-1006.00
2024-06-06 23:53:05.249671,-1,0,-13,-2,0,0,75,77,134,110,54,95.06,106,15.00,0.00,-1008.00
2024-06-06 23:53:05.404300,-4,1,-13,-2,0,0,75,77,134,110,54,95.18,106,19.00,-6.00,-985.00
2024-06-06 23:53:05.453473,-3,1,-13,-1,0,0,75,77,134,110,54,94.79,106,15.00,-3.00,-1013.00
2024-06-06 23:53:05.555798,-1,0,-13,0,0,0,75,77,134,110,54,94.97,106,30.00,-15.00,-992.00
2024-06-06 23:53:05.712498,0,0,-13,0,0,0,75,77,134,110,54,94.77,106,3.00,6.00,-1013.00
2024-06-06 23:53:05.759927,0,0,-13,0,0,0,75,77,134,110,54,95.08,107,1.00,1.00,-1014.00
2024-06-06 23:53:05.861787,0,0,-13,0,0,0,75,77,134,110,54,94.83,107,11.00,-7.00,-1000.00
2024-06-06 23:53:05.963666,0,0,-13,0,0,0,75,77,134,110,54,95.16,107,6.00,-11.00,-1001.00
2024-06-06 23:53:06.121246,0,0,-13,0,0,0,75,77,134,110,54,94.95,107,8.00,-12.00,-1001.00
2024-06-06 23:53:06.168136,0,0,-13,0,0,0,75,77,134,110,54,94.92,107,3.00,-6.00,-997.00
2024-06-06 23:53:06.326162,0,0,-13,0,0,0,75,77,134,110,54,94.95,107,21.00,-21.00,-1000.00
2024-06-06 23:53:06.371618,0,0,-13,0,0,0,75,77,134,110,54,95.07,107,1.00,-8.00,-1004.00
2024-06-06 23:53:06.530960,0,0,-13,0,0,0,75,77,133,110,54,95.00,107,-13.00,-8.00,-993.00
2024-06-06 23:53:06.575541,0,0,-13,0,0,0,75,77,134,110,54,94.64,107,8.00,-15.00,-998.00
2024-06-06 23:53:06.736013,0,0,-13,0,0,0,75,77,134,110,54,95.04,107,-3.00,-7.00,-994.00
2024-06-06 23:53:06.780236,0,0,-13,0,0,0,75,77,133,110,54,95.24,108,2.00,2.00,-1010.00
2024-06-06 23:53:06.940394,0,0,-13,0,0,0,75,77,133,110,54,94.95,108,-5.00,-5.00,-998.00
2024-06-06 23:53:06.986516,0,0,-13,0,0,0,75,77,133,110,54,95.24,108,6.00,-3.00,-1008.00
2024-06-06 23:53:07.106002,0,0,-13,0,0,0,75,77,134,110,54,94.89,108,12.00,-7.00,-997.00
2024-06-06 23:53:07.196723,0,0,-13,0,0,0,76,77,133,110,54,94.58,108,-9.00,5.00,-1014.00
2024-06-06 23:53:07.289554,0,0,-13,0,0,0,76,77,133,110,54,95.03,108,0.00,0.00,-1003.00
2024-06-06 23:53:07.557065,0,0,-13,0,0,0,76,77,133,110,54,94.77,108,-4.00,0.00,-1006.00
2024-06-06 23:53:07.558118,0,0,-13,0,0,0,76,77,133,110,54,95.20,108,1.00,-4.00,-993.00
2024-06-06 23:53:07.595288,0,0,-13,0,0,0,76,77,133,110,54,95.16,108,16.00,0.00,-1020.00
2024-06-06 23:53:07.756904,0,0,-13,0,0,0,76,77,132,110,54,94.87,108,-4.00,9.00,-967.00
2024-06-06 23:53:07.801210,0,-2,-13,0,0,0,76,77,133,110,54,94.94,109,1.00,-14.00,-1018.00
2024-06-06 23:53:07.953442,0,-8,-13,0,0,0,76,77,133,110,54,94.88,109,-1.00,-5.00,-1008.00
2024-06-06 23:53:07.953983,0,-6,-13,0,-2,0,76,77,133,110,54,94.80,109,3.00,14.00,-1020.00
2024-06-06 23:53:08.153926,0,-3,-13,0,-3,0,76,77,132,110,54,94.95,109,12.00,9.00,-1014.00
2024-06-06 23:53:08.208274,0,-1,-13,0,-4,0,75,78,133,110,54,94.78,109,2.00,8.00,-991.00
2024-06-06 23:53:08.259240,0,1,-13,0,-3,0,75,78,132,110,54,94.95,109,1.00,9.00,-996.00
2024-06-06 23:53:08.384629,0,1,-13,0,-3,0,75,78,132,110,54,95.04,109,12.00,7.00,-1006.00
2024-06-06 23:53:08.528196,0,0,-13,0,-2,0,75,78,132,110,54,95.16,109,9.00,3.00,-999.00
2024-06-06 23:53:08.565214,0,0,-13,0,-2,0,75,78,133,110,54,94.90,109,6.00,2.00,-997.00
2024-06-06 23:53:08.691813,0,0,-13,0,-2,0,75,78,133,110,54,95.26,109,7.00,0.00,-999.00
2024-06-06 23:53:08.835401,0,0,-13,0,-2,0,75,78,133,110,54,94.98,110,5.00,8.00,-1003.00
2024-06-06 23:53:08.875148,0,0,-13,0,-2,0,75,78,133,110,54,95.44,110,12.00,4.00,-1006.00
2024-06-06 23:53:08.998984,0,0,-13,0,-2,0,75,78,133,110,54,94.87,110,-3.00,14.00,-1016.00
2024-06-06 23:53:09.142359,0,0,-13,0,-2,0,75,78,133,110,54,94.86,110,15.00,4.00,-981.00
2024-06-06 23:53:09.178187,0,0,-13,0,-2,0,75,77,133,110,54,94.94,110,7.00,2.00,-994.00
2024-06-06 23:53:09.306157,0,0,-13,0,-2,0,75,77,133,110,54,95.22,110,15.00,5.00,-1008.00
2024-06-06 23:53:09.452769,0,1,-13,0,-2,0,75,77,133,110,54,95.15,110,8.00,5.00,-1000.00
2024-06-06 23:53:09.484152,1,3,-13,0,-1,0,75,77,134,110,54,94.87,110,5.00,6.00,-985.00
2024-06-06 23:53:09.637244,1,4,-13,0,-1,0,75,77,134,110,54,94.98,110,10.00,-7.00,-1003.00
2024-06-06 23:53:09.757408,0,2,-13,0,0,0,75,77,133,110,54,95.25,110,13.00,-12.00,-995.00
2024-06-06 23:53:09.797128,0,1,-13,0,0,0,75,77,134,110,54,94.84,111,15.00,0.00,-1014.00
2024-06-06 23:53:09.932017,0,0,-13,0,0,0,75,77,133,110,54,94.94,111,12.00,-3.00,-1002.00
2024-06-06 23:53:10.001987,0,0,-13,0,0,0,75,77,134,110,54,94.96,111,5.00,-2.00,-995.00
2024-06-06 23:53:10.096229,0,0,-13,0,0,0,75,77,134,110,54,94.64,111,11.00,-8.00,-999.00
2024-06-06 23:53:10.217687,0,0,-13,0,0,0,75,77,133,110,54,94.94,111,8.00,-11.00,-996.00
2024-06-06 23:53:10.303911,0,0,-13,0,0,0,75,77,134,110,54,94.92,111,12.00,-20.00,-990.00
2024-06-06 23:53:10.402803,0,0,-13,0,0,0,75,77,134,110,54,94.73,111,24.00,-11.00,-1008.00
2024-06-06 23:53:10.524202,0,0,-13,0,0,0,75,77,134,110,54,94.76,111,9.00,-2.00,-1000.00
2024-06-06 23:53:10.611431,0,0,-13,0,0,0,75,77,134,110,54,95.15,111,10.00,-3.00,-1007.00
2024-06-06 23:53:10.710381,0,0,-13,0,0,0,75,77,134,110,54,94.94,111,11.00,-8.00,-996.00
2024-06-06 23:53:10.810247,0,0,-13,0,0,0,75,77,135,110,54,95.21,112,9.00,-21.00,-982.00
2024-06-06 23:53:10.934042,0,0,-13,0,0,0,75,77,135,110,54,95.06,112,6.00,-18.00,-991.00
2024-06-06 23:53:11.017696,0,0,-13,0,0,0,75,77,135,110,54,95.02,112,16.00,-31.00,-991.00
2024-06-06 23:53:11.116559,0,0,-13,0,0,0,75,77,135,110,54,94.74,112,4.00,-1.00,-999.00
2024-06-06 23:53:11.241007,0,0,-13,0,0,0,75,78,135,110,54,94.95,112,8.00,-10.00,-992.00
2024-06-06 23:53:11.320161,0,0,-13,0,0,0,75,78,135,110,54,94.85,112,11.00,-8.00,-998.00
2024-06-06 23:53:11.445868,0,0,-13,0,0,0,75,78,135,110,54,94.90,112,14.00,-18.00,-998.00
2024-06-06 23:53:11.525311,0,0,-13,0,0,0,75,78,135,110,54,94.83,112,8.00,-6.00,-1001.00
2024-06-06 23:53:11.626158,0,0,-13,0,0,0,75,78,135,110,54,95.19,112,0.00,-2.00,-997.00
2024-06-06 23:53:11.680993,0,0,-13,0,0,0,75,78,135,110,54,94.80,112,14.00,-18.00,-989.00
2024-06-06 23:53:11.785022,0,0,-13,0,0,0,75,78,135,110,54,94.89,113,12.00,-14.00,-1039.00
2024-06-06 23:53:11.885816,0,4,-13,0,0,0,75,78,136,110,54,95.13,113,9.00,10.00,-972.00
2024-06-06 23:53:11.988249,0,8,-13,0,1,0,75,78,136,110,54,94.94,113,15.00,-17.00,-1005.00
2024-06-06 23:53:12.090487,0,7,-13,0,2,0,75,78,134,110,54,95.08,113,8.00,-25.00,-1013.00
2024-06-06 23:53:12.193256,0,1,-13,0,4,0,76,78,134,110,54,95.40,113,2.00,-24.00,-996.00
2024-06-06 23:53:12.295385,0,0,-13,0,3,0,76,78,134,110,54,94.87,113,0.00,-13.00,-1017.00
2024-06-06 23:53:12.391045,0,0,-13,0,3,0,76,78,134,110,54,94.83,113,16.00,-47.00,-1002.00
2024-06-06 23:53:12.572079,0,0,-13,0,2,0,76,78,135,110,54,94.97,113,0.00,-10.00,-1012.00
2024-06-06 23:53:12.594911,0,1,-13,0,2,0,76,78,134,110,54,95.30,113,11.00,-33.00,-991.00
2024-06-06 23:53:12.780132,0,1,-13,0,2,0,76,78,135,110,54,95.03,114,10.00,-19.00,-1003.00
2024-06-06 23:53:12.798923,0,1,-13,0,2,0,76,78,134,110,54,94.81,114,8.00,-32.00,-997.00
2024-06-06 23:53:12.983797,1,1,-13,0,2,0,76,78,134,110,54,94.91,114,4.00,-18.00,-997.00
2024-06-06 23:53:13.003031,1,0,-13,0,2,0,76,78,134,110,54,95.21,114,2.00,-27.00,-1016.00
2024-06-06 23:53:13.186460,1,0,-13,0,2,0,76,78,134,110,54,95.20,114,5.00,-24.00,-993.00
2024-06-06 23:53:13.206906,0,0,-13,0,2,0,76,78,134,110,54,95.31,114,0.00,-20.00,-1005.00
2024-06-06 23:53:13.394126,0,0,-13,0,2,0,76,78,134,110,54,95.26,114,-10.00,-15.00,-990.00
2024-06-06 23:53:13.410889,0,0,-13,0,2,0,76,78,134,110,54,95.04,114,3.00,-21.00,-1002.00
2024-06-06 23:53:13.596174,0,-3,-13,0,1,0,76,78,135,110,54,95.08,114,6.00,-32.00,-986.00
2024-06-06 23:53:13.614753,0,-2,-13,0,0,0,76,78,134,110,54,94.82,114,0.00,-27.00,-996.00
2024-06-06 23:53:13.717012,0,0,-13,0,0,0,76,78,134,110,54,95.18,115,5.00,-19.00,-1030.00
2024-06-06 23:53:13.819077,0,0,-13,0,0,0,76,78,134,110,54,95.09,115,10.00,-23.00,-998.00
2024-06-06 23:53:13.921041,0,0,-13,0,0,0,76,78,134,110,54,95.17,115,-10.00,-7.00,-1007.00
2024-06-06 23:53:14.108128,0,0,-13,0,0,0,76,78,134,110,54,94.82,115,-2.00,-2.00,-997.00
2024-06-06 23:53:14.124707,0,0,-13,0,0,0,76,78,134,110,54,95.05,115,9.00,-11.00,-997.00
2024-06-06 23:53:14.313011,0,0,-13,0,0,0,75,77,134,110,54,95.11,115,8.00,-15.00,-998.00
2024-06-06 23:53:14.328737,0,0,-13,0,0,0,75,77,134,110,54,94.84,115,0.00,-11.00,-989.00
2024-06-06 23:53:14.517715,0,0,-13,0,0,0,75,77,134,110,54,95.04,115,16.00,-14.00,-1007.00
2024-06-06 23:53:14.532759,0,0,-13,0,0,0,75,77,134,110,54,94.77,115,-1.00,-4.00,-1002.00
2024-06-06 23:53:14.722478,0,0,-13,0,0,0,75,77,134,110,54,95.06,115,0.00,-9.00,-997.00
2024-06-06 23:53:14.736917,0,0,-13,0,0,0,75,77,134,110,54,94.84,116,-1.00,0.00,-1004.00
2024-06-06 23:53:14.838834,0,0,-13,0,0,0,75,77,134,110,54,95.09,116,10.00,-16.00,-1003.00
2024-06-06 23:53:15.029786,0,0,-13,0,0,0,75,77,134,110,54,94.60,116,9.00,-14.00,-1000.00
2024-06-06 23:53:15.042784,0,0,-13,0,0,0,75,77,133,110,54,94.84,116,-8.00,4.00,-1004.00
2024-06-06 23:53:15.237799,0,0,-13,0,0,0,75,77,133,110,54,95.15,116,0.00,-7.00,-997.00
2024-06-06 23:53:15.246642,0,0,-13,0,0,0,75,77,133,110,54,95.05,116,7.00,-5.00,-1006.00
2024-06-06 23:53:15.439343,0,0,-13,0,0,0,75,77,133,110,54,95.01,116,14.00,-14.00,-999.00
2024-06-06 23:53:15.450501,0,0,-13,0,0,0,75,77,133,110,54,94.83,116,14.00,-22.00,-995.00
2024-06-06 23:53:15.644117,0,0,-13,0,0,0,75,77,133,110,54,94.97,116,6.00,-8.00,-1003.00
2024-06-06 23:53:15.654768,0,0,-13,0,0,0,75,77,133,110,54,94.84,116,6.00,-7.00,-997.00
2024-06-06 23:53:15.705582,0,0,-13,0,0,0,75,77,133,110,54,94.92,117,21.00,-6.00,-1016.00
2024-06-06 23:53:15.807678,0,0,-9,0,0,0,75,77,132,110,54,94.73,117,-1.00,-3.00,-996.00
2024-06-06 23:53:15.951439,0,0,-3,0,0,0,75,77,132,110,54,94.87,117,12.00,-5.00,-1008.00
2024-06-06 23:53:16.013583,0,0,2,0,0,0,75,77,132,110,54,94.50,117,4.00,0.00,-1009.00
2024-06-06 23:53:16.113613,0,0,8,0,0,0,75,77,132,110,54,95.08,117,3.00,1.00,-998.00
2024-06-06 23:53:16.258322,0,0,14,0,0,0,75,78,132,110,54,95.06,117,3.00,-1.00,-995.00
2024-06-06 23:53:16.317748,0,0,20,0,0,0,75,78,132,110,54,95.25,117,9.00,-4.00,-996.00
2024-06-06 23:53:16.463113,0,0,26,0,0,0,75,78,131,110,54,95.14,117,13.00,-3.00,-1011.00
2024-06-06 23:53:16.521551,0,0,32,0,0,0,75,78,132,110,54,94.87,117,3.00,-4.00,-996.00
2024-06-06 23:53:16.667904,0,0,39,0,0,0,75,78,132,110,54,94.85,117,11.00,-3.00,-1000.00
2024-06-06 23:53:16.726574,0,0,45,0,0,0,75,78,131,110,54,94.93,118,7.00,0.00,-1004.00
2024-06-06 23:53:16.827606,0,0,51,0,0,0,75,78,132,110,54,95.07,118,10.00,-4.00,-1000.00
2024-06-06 23:53:16.975787,0,0,57,0,0,0,75,78,132,110,54,95.02,118,-3.00,0.00,-1012.00
2024-06-06 23:53:17.031677,0,0,63,0,0,0,75,78,132,110,54,94.75,118,12.00,0.00,-1001.00
2024-06-06 23:53:17.179854,0,0,69,0,0,0,75,78,132,110,54,94.79,118,0.00,-2.00,-1007.00
2024-06-06 23:53:17.235656,0,0,76,0,0,0,75,77,132,110,54,94.87,118,-6.00,-7.00,-992.00
2024-06-06 23:53:17.384671,0,0,82,0,0,0,75,77,132,110,54,94.93,118,1.00,-1.00,-1003.00
2024-06-06 23:53:17.439532,0,0,88,0,0,0,75,77,133,110,54,94.80,118,9.00,-8.00,-1000.00
2024-06-06 23:53:17.589468,0,0,94,0,0,0,75,77,132,110,54,94.96,118,-4.00,3.00,-1000.00
2024-06-06 23:53:17.643482,0,0,100,0,0,0,75,77,133,110,54,95.02,118,-6.00,11.00,-999.00
2024-06-06 23:53:17.794288,0,0,106,0,0,0,75,77,133,110,54,95.11,119,-8.00,9.00,-997.00
2024-06-06 23:53:17.847379,0,0,112,0,0,0,75,77,133,110,54,95.13,119,9.00,-7.00,-989.00
2024-06-06 23:53:17.949484,0,0,118,0,0,0,75,77,133,110,54,94.79,119,13.00,-12.00,-996.00
2024-06-06 23:53:18.101360,0,0,124,0,0,0,75,77,133,110,54,94.79,119,24.00,-11.00,-1006.00
2024-06-06 23:53:18.156069,0,0,130,0,0,0,75,77,133,110,54,94.97,119,20.00,-5.00,-994.00
2024-06-06 23:53:18.256194,0,0,136,0,0,0,75,78,133,110,54,95.03,119,5.00,-7.00,-1000.00
2024-06-06 23:53:18.408598,0,0,142,0,0,0,75,78,134,110,54,94.76,119,4.00,-16.00,-988.00
2024-06-06 23:53:18.459436,0,0,148,0,0,0,75,78,134,110,54,94.97,119,10.00,-7.00,-1005.00
2024-06-06 23:53:18.614415,0,0,154,0,0,0,75,78,134,110,54,95.06,119,-2.00,4.00,-1008.00
2024-06-06 23:53:18.663490,0,0,160,0,0,0,75,78,134,110,54,94.80,119,4.00,0.00,-995.00
2024-06-06 23:53:18.820021,0,0,166,0,0,0,75,78,134,110,54,95.19,120,5.00,0.00,-1007.00
2024-06-06 23:53:18.870699,0,0,172,0,0,0,75,78,134,110,54,95.11,120,-8.00,13.00,-1001.00
2024-06-06 23:53:18.969473,0,0,178,0,0,0,75,78,134,110,54,94.96,120,0.00,2.00,-1005.00
2024-06-06 23:53:19.125405,0,0,-175,0,0,0,75,78,134,110,54,94.88,120,2.00,2.00,-1000.00
2024-06-06 23:53:19.125463,0,0,-169,0,0,0,75,78,134,110,54,94.78,120,4.00,2.00,-1004.00
2024-06-06 23:53:19.276994,0,0,-163,0,0,0,75,78,134,110,54,94.80,120,4.00,1.00,-998.00
2024-06-06 23:53:19.377447,0,0,-157,0,0,0,75,78,134,110,54,95.18,120,1.00,9.00,-1009.00
2024-06-06 23:53:19.429311,0,0,-151,0,0,0,75,78,134,110,54,95.17,120,17.00,0.00,-998.00
2024-06-06 23:53:19.535005,0,0,-144,0,0,0,75,78,134,110,54,94.78,120,7.00,-12.00,-992.00
2024-06-06 23:53:19.632262,0,0,-138,0,0,0,75,78,134,110,54,94.68,120,3.00,-3.00,-1003.00
2024-06-06 23:53:19.739770,0,0,-132,0,0,0,75,78,134,110,54,94.93,121,3.00,4.00,-1004.00
2024-06-06 23:53:19.836392,0,0,-126,0,0,0,75,78,134,110,54,94.97,121,10.00,3.00,-1001.00
2024-06-06 23:53:19.938910,0,0,-120,0,0,0,75,78,133,110,54,94.96,121,1.00,2.00,-994.00
2024-06-06 23:53:20.046935,0,0,-114,0,0,0,75,78,133,110,54,95.14,121,1.00,3.00,-999.00
2024-06-06 23:53:20.146468,0,0,-108,0,0,0,75,78,134,110,54,94.72,121,7.00,-1.00,-1012.00
2024-06-06 23:53:20.244209,0,0,-102,0,0,0,75,77,133,110,54,94.98,121,-12.00,15.00,-1000.00
2024-06-06 23:53:20.362757,0,0,-96,0,0,0,75,77,133,110,54,94.61,121,-2.00,10.00,-1019.00
2024-06-06 23:53:20.450586,0,0,-90,0,0,0,75,77,133,110,54,94.80,121,4.00,4.00,-993.00
2024-06-06 23:53:20.550218,0,0,-84,0,0,0,75,77,133,110,54,94.98,121,15.00,0.00,-1003.00
2024-06-06 23:53:20.663201,0,0,-78,0,0,0,75,77,133,110,54,94.79,121,8.00,6.00,-1006.00
2024-06-06 23:53:20.755268,0,0,-72,0,0,0,75,77,133,110,54,94.79,122,12.00,-5.00,-992.00
2024-06-06 23:53:20.856044,0,0,-66,0,0,0,75,77,133,110,54,94.89,122,1.00,5.00,-1004.00
2024-06-06 23:53:20.968507,0,0,-60,0,0,0,75,77,133,110,54,95.14,122,8.00,0.00,-1004.00
2024-06-06 23:53:21.068809,0,0,-54,0,0,0,75,77,133,110,54,94.90,122,0.00,15.00,-1002.00
2024-06-06 23:53:21.162527,0,0,-48,0,0,0,75,77,133,110,54,94.75,122,15.00,-5.00,-987.00
2024-06-06 23:53:21.276963,0,0,-42,0,0,0,75,78,133,110,54,94.58,122,-2.00,8.00,-1000.00
2024-06-06 23:53:21.370167,0,0,-36,0,0,0,75,78,133,110,54,94.71,122,17.00,-5.00,-996.00
2024-06-06 23:53:21.468163,0,0,-30,0,0,0,75,78,132,110,54,95.10,122,11.00,0.00,-1007.00
2024-06-06 23:53:21.582865,0,0,-26,0,0,0,75,78,132,110,54,94.94,122,-1.00,8.00,-1009.00
2024-06-06 23:53:21.674778,0,0,-23,0,0,0,75,78,133,110,54,94.96,122,10.00,4.00,-1009.00
2024-06-06 23:53:21.775077,0,0,-21,0,0,0,75,78,133,110,54,94.94,123,9.00,0.00,-1007.00
2024-06-06 23:53:21.876192,0,0,-19,0,0,0,75,78,133,110,54,95.04,123,8.00,11.00,-1003.00
2024-06-06 23:53:21.992777,0,0,-18,0,0,0,75,78,133,110,54,95.01,123,-6.00,16.00,-1005.00
2024-06-06 23:53:22.080075,0,0,-17,0,0,0,75,78,133,110,54,94.83,123,9.00,4.00,-1001.00
2024-06-06 23:53:22.210755,0,0,-16,0,0,0,75,78,133,110,54,94.86,123,4.00,15.00,-1017.00
2024-06-06 23:53:22.353620,0,0,-15,0,0,0,75,77,133,110,54,95.15,123,-3.00,16.00,-1003.00
2024-06-06 23:53:22.386175,0,0,-15,0,0,0,75,77,132,110,54,95.04,123,10.00,0.00,-1005.00
2024-06-06 23:53:22.710796,0,0,-15,0,0,0,75,77,132,110,54,95.07,123,7.00,-1.00,-995.00
2024-06-06 23:53:22.711096,0,0,-15,0,0,0,75,77,132,110,54,95.01,123,6.00,-1.00,-1001.00
2024-06-06 23:53:22.748436,1,0,-15,0,0,0,75,77,132,110,54,94.89,123,9.00,0.00,-1004.00
2024-06-06 23:53:22.828513,0,0,-15,0,0,0,75,77,132,110,54,95.08,124,11.00,3.00,-1004.00
2024-06-06 23:53:22.896285,0,0,-15,0,0,0,75,77,132,110,54,94.77,124,10.00,4.00,-999.00
2024-06-06 23:53:22.948027,0,0,-15,0,0,0,75,77,132,110,54,94.78,124,2.00,-9.00,-994.00
2024-06-06 23:53:23.129790,0,0,-15,0,0,0,75,77,132,110,54,95.02,124,16.00,0.00,-1005.00
2024-06-06 23:53:23.151361,0,0,-15,0,0,0,75,77,132,110,54,94.92,124,7.00,10.00,-1007.00
2024-06-06 23:53:23.317396,0,0,-15,0,0,0,76,78,133,110,54,95.07,124,-2.00,7.00,-1012.00
2024-06-06 23:53:23.355419,0,0,-15,0,0,0,76,78,132,110,54,94.89,124,12.00,-10.00,-986.00
2024-06-06 23:53:23.538459,0,0,-15,0,0,0,76,78,133,110,54,95.33,124,7.00,-7.00,-995.00
2024-06-06 23:53:23.559181,0,0,-15,0,0,0,76,78,133,110,54,95.16,124,17.00,-4.00,-1001.00
2024-06-06 23:53:23.744081,0,0,-15,0,0,0,76,78,132,110,54,94.68,124,16.00,3.00,-997.00
2024-06-06 23:53:23.763940,0,0,-15,0,0,0,76,78,133,110,54,94.93,125,3.00,6.00,-1008.00
2024-06-06 23:53:23.887834,0,0,-15,0,0,0,76,78,134,110,54,94.79,125,5.00,-6.00,-996.00
2024-06-06 23:53:24.051655,0,0,-15,0,0,0,76,78,134,110,54,95.04,125,12.00,4.00,-1010.00
2024-06-06 23:53:24.070989,0,0,-15,0,0,0,76,78,133,110,54,94.99,125,-4.00,6.00,-996.00
2024-06-06 23:53:24.194701,0,0,-15,0,0,0,76,78,133,110,54,94.78,125,10.00,-7.00,-988.00
2024-06-06 23:53:24.358409,0,0,-15,0,0,0,75,78,134,110,54,94.94,125,-5.00,0.00,-1001.00
2024-06-06 23:53:24.378371,0,0,-15,0,0,0,75,78,133,110,54,95.06,125,-14.00,13.00,-1008.00
2024-06-06 23:53:24.501767,0,0,-20,0,0,0,75,78,134,110,54,95.11,125,2.00,10.00,-1004.00
2024-06-06 23:53:24.665658,0,0,-26,0,0,0,75,78,133,110,54,94.96,125,15.00,-8.00,-1010.00
2024-06-06 23:53:24.680858,0,0,-32,0,0,0,75,78,133,110,54,94.89,125,6.00,-6.00,-995.00
2024-06-06 23:53:24.818737,0,0,-38,0,0,0,75,78,133,110,54,95.22,126,8.00,0.00,-1004.00
2024-06-06 23:53:24.903171,0,0,-44,0,0,0,75,78,133,110,54,94.76,126,7.00,-8.00,-1003.00
2024-06-06 23:53:24.992553,0,0,-50,0,0,0,75,78,134,110,54,95.04,126,2.00,-5.00,-1008.00
2024-06-06 23:53:25.088768,0,0,-56,0,0,0,75,78,134,110,54,94.76,126,0.00,18.00,-1018.00
2024-06-06 23:53:25.269116,0,0,-62,0,0,0,75,78,134,110,54,95.00,126,1.00,-2.00,-994.00
2024-06-06 23:53:25.303851,0,0,-68,0,0,0,75,78,134,110,54,95.09,126,-9.00,-1.00,-991.00
2024-06-06 23:53:25.404264,0,0,-75,0,0,0,75,78,134,110,54,94.86,126,1.00,-3.00,-1011.00
2024-06-06 23:53:25.497285,0,0,-81,0,0,0,75,78,135,110,54,94.96,126,3.00,-11.00,-996.00
2024-06-06 23:53:25.678712,0,0,-87,0,0,0,75,78,134,110,54,95.36,126,1.00,-11.00,-992.00
2024-06-06 23:53:25.709947,0,0,-93,0,0,0,75,78,134,110,54,94.75,126,11.00,-12.00,-987.00
2024-06-06 23:53:25.806922,0,0,-99,0,0,0,75,78,134,110,54,95.21,127,0.00,-4.00,-994.00
2024-06-06 23:53:25.904836,0,0,-106,0,0,0,75,78,135,110,54,94.68,127,7.00,-11.00,-996.00
2024-06-06 23:53:26.088293,0,0,-112,0,0,0,75,78,135,110,54,94.69,127,-2.00,-5.00,-994.00
2024-06-06 23:53:26.109719,0,0,-118,0,0,0,75,78,135,110,54,94.96,127,13.00,-2.00,-996.00
2024-06-06 23:53:26.293053,0,0,-124,0,0,0,75,78,135,110,54,95.12,127,21.00,-6.00,-1015.00
2024-06-06 23:53:26.314020,0,0,-130,0,0,0,75,77,135,110,54,94.82,127,14.00,-11.00,-999.00
2024-06-06 23:53:26.497870,0,0,-136,0,0,0,75,77,135,110,54,94.69,127,10.00,-6.00,-995.00
2024-06-06 23:53:26.517570,0,0,-142,0,0,0,75,77,135,110,54,94.64,127,11.00,-16.00,-993.00
2024-06-06 23:53:26.571170,1,0,-149,0,0,0,75,77,135,110,54,94.86,127,13.00,-5.00,-994.00
2024-06-06 23:53:26.673605,1,0,-155,0,0,0,75,77,135,110,54,95.14,127,18.00,-7.00,-1006.00
2024-06-06 23:53:26.772826,1,0,-161,0,0,0,75,77,135,110,54,94.86,128,13.00,-3.00,-986.00
2024-06-06 23:53:26.878425,1,0,-167,0,0,0,75,77,135,110,54,95.06,128,0.00,1.00,-987.00
2024-06-06 23:53:26.976593,1,0,-174,0,0,0,75,77,136,110,54,94.87,128,20.00,-16.00,-992.00
2024-06-06 23:53:27.112187,1,0,179,0,0,0,75,77,135,110,54,94.77,128,17.00,-7.00,-993.00
2024-06-06 23:53:27.185606,1,0,173,0,0,0,75,77,134,110,54,95.27,128,15.00,-7.00,-989.00
2024-06-06 23:53:27.286057,1,0,167,0,0,0,75,77,135,110,54,94.96,128,17.00,-12.00,-992.00
2024-06-06 23:53:27.384565,1,0,161,0,0,0,75,77,135,110,54,94.96,128,15.00,-9.00,-995.00
2024-06-06 23:53:27.521764,1,0,155,0,0,0,75,77,135,110,54,94.98,128,22.00,-9.00,-1004.00
2024-06-06 23:53:27.588533,1,0,149,0,0,0,75,77,134,110,54,95.14,128,5.00,0.00,-991.00
2024-06-06 23:53:27.726580,1,0,143,0,0,0,75,77,135,110,54,94.87,128,12.00,0.00,-1005.00
2024-06-06 23:53:27.792552,0,0,137,0,0,0,75,77,135,110,54,94.95,129,11.00,-7.00,-992.00
2024-06-06 23:53:27.898561,0,0,131,0,0,0,75,77,136,110,54,95.25,129,17.00,-11.00,-988.00
2024-06-06 23:53:27.996692,0,0,125,0,0,0,75,77,135,110,54,94.87,129,9.00,0.00,-992.00
2024-06-06 23:53:28.136195,0,0,118,0,0,0,75,77,135,110,54,95.14,129,-2.00,11.00,-996.00
2024-06-06 23:53:28.200517,0,0,112,0,0,0,75,77,135,110,54,95.16,129,7.00,0.00,-992.00
2024-06-06 23:53:28.342221,1,0,100,0,0,0,75,77,136,110,54,95.09,129,21.00,-3.00,-989.00
2024-06-06 23:53:28.405144,1,0,94,0,0,0,75,77,135,110,54,94.87,129,25.00,2.00,-991.00
2024-06-06 23:53:28.545739,0,0,88,0,0,0,75,77,136,110,54,94.80,129,9.00,19.00,-1004.00
2024-06-06 23:53:28.608373,0,0,82,0,0,0,75,77,135,110,54,94.99,129,8.00,9.00,-999.00
2024-06-06 23:53:28.750468,0,0,76,0,0,0,75,77,134,110,54,94.97,130,10.00,15.00,-997.00
2024-06-06 23:53:28.812669,0,0,70,0,0,0,75,77,135,110,54,94.83,130,0.00,14.00,-994.00
2024-06-06 23:53:28.955231,0,0,64,0,0,0,75,77,135,110,54,95.08,130,13.00,3.00,-983.00
2024-06-06 23:53:29.016432,0,0,57,0,0,0,75,77,135,110,54,94.80,130,7.00,1.00,-1000.00
2024-06-06 23:53:29.160109,0,0,51,0,0,0,75,77,134,110,54,94.95,130,8.00,2.00,-990.00
2024-06-06 23:53:29.221319,0,0,45,0,0,0,75,77,134,110,54,94.79,130,10.00,9.00,-996.00
2024-06-06 23:53:29.365741,0,0,39,0,0,0,75,78,133,110,54,94.83,130,9.00,9.00,-999.00
2024-06-06 23:53:29.425342,0,0,33,0,0,0,75,78,134,110,54,95.20,130,8.00,0.00,-1010.00
2024-06-06 23:53:29.569755,0,0,27,0,0,0,75,78,133,110,54,94.91,130,10.00,5.00,-993.00
2024-06-06 23:53:29.628335,0,0,21,0,0,0,75,78,133,110,54,95.10,130,-5.00,14.00,-1001.00
2024-06-06 23:53:29.774918,0,0,15,0,0,0,75,78,134,110,54,94.97,131,-5.00,7.00,-1002.00
2024-06-06 23:53:29.833334,0,0,9,0,0,0,75,78,134,110,54,95.07,131,6.00,1.00,-1014.00
2024-06-06 23:53:29.934382,0,0,3,0,0,0,75,78,134,110,54,94.82,131,0.00,15.00,-1014.00
2024-06-06 23:53:30.081672,0,0,0,0,0,0,75,78,133,110,54,94.89,131,-11.00,8.00,-993.00
2024-06-06 23:53:30.138252,0,0,-4,0,0,0,75,78,134,110,54,95.05,131,8.00,0.00,-990.00
2024-06-06 23:53:30.189315,0,0,-7,0,0,0,75,78,133,110,54,95.05,131,7.00,2.00,-1004.00
2024-06-06 23:53:30.389778,0,0,-9,0,0,0,75,77,134,110,54,94.92,131,1.00,-1.00,-992.00
2024-06-06 23:53:30.393062,0,0,-10,0,0,0,75,77,134,110,54,94.83,131,-2.00,7.00,-1019.00
2024-06-06 23:53:30.495209,0,0,-11,0,0,0,75,77,134,110,54,94.87,131,1.00,2.00,-995.00
2024-06-06 23:53:30.696246,0,0,-12,0,0,0,75,77,134,110,54,95.21,131,-8.00,4.00,-986.00
2024-06-06 23:53:30.699283,0,0,-13,0,0,0,75,77,135,110,54,95.05,132,-3.00,-9.00,-998.00
2024-06-06 23:53:30.801574,0,0,-13,0,0,0,75,77,135,110,54,95.01,132,-6.00,-3.00,-996.00
2024-06-06 23:53:30.903277,0,0,-13,0,0,0,75,77,135,110,54,94.87,132,-6.00,4.00,-998.00
2024-06-06 23:53:31.006169,0,0,-13,0,0,0,75,77,135,110,54,94.91,132,-3.00,-11.00,-997.00
2024-06-06 23:53:31.107282,0,0,-13,0,0,0,75,77,135,110,54,94.99,132,-6.00,0.00,-990.00
2024-06-06 23:53:31.310561,0,0,-13,0,0,0,75,77,135,110,54,94.62,132,0.00,-13.00,-994.00
2024-06-06 23:53:31.311145,0,0,-13,0,0,0,74,77,135,110,54,94.73,132,-1.00,10.00,-1016.00
2024-06-06 23:53:31.517241,0,0,-13,0,0,0,74,77,135,110,54,94.82,132,0.00,-11.00,-995.00
2024-06-06 23:53:31.517399,0,0,-13,0,0,0,74,77,135,110,54,94.86,132,2.00,-3.00,-995.00
2024-06-06 23:53:31.617394,0,0,-13,0,0,0,74,77,135,110,54,95.07,132,-4.00,2.00,-1002.00
2024-06-06 23:53:31.720238,0,0,-13,0,0,0,74,77,134,110,54,95.08,133,-2.00,-3.00,-986.00
2024-06-06 23:53:31.822880,0,0,-13,0,0,0,74,77,134,110,54,94.91,133,-6.00,1.00,-1005.00
2024-06-06 23:53:31.925031,0,0,-13,0,0,0,74,77,135,110,54,95.32,133,-3.00,3.00,-1009.00
2024-06-06 23:53:32.025242,0,0,-13,0,0,0,74,77,135,110,54,94.89,133,-10.00,-17.00,-987.00
2024-06-06 23:53:32.127161,0,0,-13,0,0,0,74,77,135,110,54,95.03,133,2.00,0.00,-1001.00
2024-06-06 23:53:32.232143,0,0,-13,0,0,0,74,77,134,110,54,94.83,133,-4.00,-7.00,-1011.00
2024-06-06 23:53:32.332289,0,0,-13,0,0,0,74,77,134,110,54,95.05,133,-2.00,-7.00,-998.00
2024-06-06 23:53:32.433878,0,0,-13,0,0,0,74,77,134,110,54,94.74,133,3.00,-9.00,-1003.00
2024-06-06 23:53:32.537193,0,0,-13,0,0,0,74,77,134,110,54,94.80,133,-4.00,-4.00,-1004.00
2024-06-06 23:53:32.641376,0,0,-13,0,0,0,74,77,134,110,54,94.89,133,7.00,-12.00,-1007.00
2024-06-06 23:53:32.739339,0,0,-13,0,0,0,74,77,134,110,54,94.90,134,4.00,-10.00,-992.00
2024-06-06 23:53:32.842233,0,0,-13,0,0,0,74,77,134,110,54,95.03,134,-12.00,1.00,-1009.00
2024-06-06 23:53:32.948756,0,0,-13,0,0,-2,74,77,136,110,54,95.09,134,15.00,-41.00,-1612.00
2024-06-06 23:53:33.045953,0,-1,-13,0,0,-9,74,77,144,120,54,95.15,134,-14.00,46.00,-1602.00
2024-06-06 23:53:33.156091,0,-58,-13,0,-2,-13,74,77,295,130,54,95.14,134,-6.00,476.00,-1016.00
2024-06-06 23:53:33.250085,0,178,-13,-2,-10,-3,74,77,159,140,54,95.39,134,-7.00,551.00,-982.00
2024-06-06 23:53:33.358337,0,59,-13,-1,-6,10,75,77,6553,140,54,95.42,134,0.00,430.00,-1166.00
2024-06-06 23:53:33.455522,0,-1,-12,0,-2,10,75,77,144,120,54,95.03,134,3.00,-180.00,-1471.00
2024-06-06 23:53:33.556054,0,1,-12,0,-3,7,75,77,137,110,54,95.25,134,-5.00,0.00,-1441.00
2024-06-06 23:53:33.665504,0,3,-13,0,-2,3,75,77,132,110,54,94.92,134,2.00,5.00,-1305.00
2024-06-06 23:53:33.760112,0,2,-13,0,-2,1,75,77,131,110,54,95.04,135,-1.00,-8.00,-1188.00
2024-06-06 23:53:33.867594,0,1,-13,0,-1,0,75,77,131,110,54,94.98,135,-2.00,0.00,-1114.00
2024-06-06 23:53:33.914897,0,1,-13,0,-1,-1,75,77,133,110,54,94.92,135,11.00,-4.00,-1045.00
2024-06-06 23:53:34.015290,0,0,-13,0,0,-1,75,77,134,110,54,95.03,135,9.00,-3.00,-1011.00
2024-06-06 23:53:34.117281,0,0,-13,0,0,-1,75,77,135,110,54,94.60,135,-4.00,-20.00,-995.00
2024-06-06 23:53:34.279927,0,2,-13,0,0,-1,75,77,136,110,54,94.74,135,16.00,-17.00,-940.00
2024-06-06 23:53:34.320988,0,1,-13,0,0,0,75,77,137,110,54,94.93,135,-2.00,-4.00,-967.00
2024-06-06 23:53:34.488337,0,1,-13,0,0,0,75,77,138,110,54,94.90,135,9.00,-12.00,-966.00
2024-06-06 23:53:34.524992,0,0,-13,0,0,0,75,77,138,110,54,95.04,135,-4.00,0.00,-985.00
2024-06-06 23:53:34.689732,0,0,-13,0,0,0,75,77,138,110,54,94.82,135,2.00,-3.00,-990.00
2024-06-06 23:53:34.728865,0,0,-13,0,0,0,75,77,138,110,54,94.92,136,1.00,-9.00,-981.00
2024-06-06 23:53:34.896349,0,0,-13,0,0,0,75,77,138,110,54,95.08,136,-1.00,10.00,-1004.00
2024-06-06 23:53:34.954004,0,0,-13,0,0,0,75,77,137,110,54,95.05,136,-12.00,0.00,-992.00
2024-06-06 23:53:35.034854,0,0,-13,0,0,0,75,77,137,110,54,95.02,136,0.00,-2.00,-997.00
2024-06-06 23:53:35.201492,0,0,-13,0,0,0,75,77,136,110,54,95.26,136,-5.00,-7.00,-993.00
2024-06-06 23:53:35.238863,0,0,-13,0,0,0,75,77,136,110,54,94.98,136,-4.00,-4.00,-1001.00
2024-06-06 23:53:35.406230,0,0,-13,0,0,0,75,77,136,110,54,94.82,136,0.00,0.00,-1012.00
2024-06-06 23:53:35.442866,0,0,-13,0,0,0,75,77,135,110,54,95.12,136,0.00,-9.00,-992.00
2024-06-06 23:53:35.611012,0,0,-13,0,0,0,75,77,135,110,53,94.93,136,-12.00,6.00,-1011.00
2024-06-06 23:53:35.650503,0,0,-13,0,0,0,75,77,135,110,53,94.98,136,9.00,-11.00,-1011.00
2024-06-06 23:53:35.750741,0,0,-13,0,0,0,75,77,134,110,53,95.00,137,-4.00,-4.00,-999.00
2024-06-06 23:53:35.850812,0,0,-13,0,0,0,75,77,134,110,53,94.55,137,0.00,-1.00,-1005.00
2024-06-06 23:53:35.952802,0,0,-13,0,0,0,75,77,134,110,53,95.16,137,5.00,-1.00,-1004.00
2024-06-06 23:53:36.122993,0,0,-13,0,0,0,75,77,134,110,53,94.72,137,11.00,-13.00,-999.00
2024-06-06 23:53:36.156728,0,0,-13,0,0,0,75,77,134,110,53,94.96,137,-7.00,7.00,-1007.00
2024-06-06 23:53:36.327862,0,0,-13,0,0,0,75,77,134,110,53,94.94,137,7.00,3.00,-998.00
2024-06-06 23:53:36.365311,0,0,-13,0,0,0,74,77,134,110,53,95.00,137,0.00,-1.00,-999.00
2024-06-06 23:53:36.462882,0,0,-13,0,0,0,74,77,134,110,53,95.27,137,19.00,-8.00,-1018.00
2024-06-06 23:53:36.637924,0,0,-13,0,0,0,74,77,135,110,53,94.87,137,3.00,-6.00,-991.00
2024-06-06 23:53:36.666630,0,0,-13,0,0,0,74,77,135,110,53,95.08,137,0.00,-13.00,-989.00
2024-06-06 23:53:36.839924,0,0,-13,0,0,0,74,77,135,110,53,94.83,138,-1.00,4.00,-1006.00
2024-06-06 23:53:36.870719,0,0,-13,0,0,0,74,77,135,110,53,94.86,138,0.00,7.00,-1007.00
2024-06-06 23:53:36.973168,0,0,-13,0,0,0,74,77,135,110,53,95.05,138,-3.00,0.00,-1004.00
2024-06-06 23:53:37.120880,0,0,-13,0,0,0,74,77,135,110,53,94.95,138,-2.00,-3.00,-1005.00
2024-06-06 23:53:37.128072,0,0,-13,0,0,0,74,77,135,110,53,95.13,138,2.00,0.00,-999.00
2024-06-06 23:53:37.265234,0,0,-13,0,0,0,74,77,135,110,53,94.87,138,0.00,-5.00,-990.00
2024-06-06 23:53:37.454230,0,0,-13,0,0,0,75,77,135,110,53,94.74,138,2.00,-7.00,-989.00
2024-06-06 23:53:37.454838,0,0,-13,0,0,0,75,77,135,110,53,94.84,138,-2.00,-2.00,-996.00
2024-06-06 23:53:37.761416,0,0,-13,0,0,0,75,77,135,110,53,95.13,138,0.00,0.00,-993.00
2024-06-06 23:53:37.761686,0,0,-13,0,0,0,75,77,136,110,53,95.23,138,3.00,-8.00,-998.00
2024-06-06 23:53:37.782493,0,0,-13,0,0,0,75,77,136,110,53,94.87,139,-1.00,6.00,-1003.00
2024-06-06 23:53:37.851159,0,0,-13,0,0,0,75,77,136,110,53,95.35,139,7.00,2.00,-1003.00
2024-06-06 23:53:38.004707,0,0,-13,0,0,0,75,77,135,110,53,94.97,139,10.00,-7.00,-988.00
2024-06-06 23:53:38.061598,0,0,-13,0,0,0,75,77,136,110,53,95.24,139,2.00,6.00,-997.00
2024-06-06 23:53:38.205800,0,0,-13,0,0,0,75,77,136,110,53,94.81,139,2.00,5.00,-999.00
2024-06-06 23:53:38.348901,0,0,-13,0,0,0,75,77,136,110,53,95.40,139,12.00,7.00,-1007.00
2024-06-06 23:53:38.349604,0,0,-13,0,0,0,74,77,136,110,53,95.24,139,2.00,12.00,-1002.00
2024-06-06 23:53:38.496075,0,0,-13,0,0,0,74,77,135,110,53,94.74,139,4.00,0.00,-999.00
2024-06-06 23:53:38.635286,0,0,-13,0,0,0,74,77,136,110,53,95.13,139,0.00,0.00,-994.00
2024-06-06 23:53:38.659686,0,0,-13,0,0,0,74,77,136,110,53,95.15,139,15.00,-2.00,-1014.00
2024-06-06 23:53:38.797328,0,0,-13,0,0,0,74,77,136,110,53,95.04,140,11.00,-5.00,-991.00
2024-06-06 23:53:38.950855,0,0,-13,0,0,0,74,77,136,110,53,94.75,140,18.00,-11.00,-993.00
2024-06-06 23:53:38.962548,0,0,-13,0,0,0,74,77,136,110,53,94.98,140,14.00,0.00,-996.00
2024-06-06 23:53:39.086293,0,0,-13,0,0,0,74,77,136,110,53,94.93,140,28.00,-10.00,-1001.00
2024-06-06 23:53:39.166422,0,0,-13,0,0,0,74,77,136,110,53,95.16,140,17.00,10.00,-1013.00
2024-06-06 23:53:39.297767,0,0,-13,0,0,0,74,77,136,110,53,95.00,140,5.00,7.00,-1000.00
2024-06-06 23:53:39.370930,0,0,-13,0,0,0,75,77,136,110,53,94.62,140,14.00,-8.00,-991.00
2024-06-06 23:53:39.502059,0,0,-13,0,0,0,75,77,135,110,53,95.11,140,22.00,5.00,-1452.00
2024-06-06 23:53:39.576854,0,0,-14,0,0,-3,75,77,138,110,52,95.21,140,19.00,-13.00,-1717.00
2024-06-06 23:53:39.678035,0,3,-14,0,0,-10,75,77,148,120,52,95.07,140,21.00,34.00,-1757.00
2024-06-06 23:53:39.780415,0,77,-14,1,4,-13,75,77,6553,130,52,95.33,141,5.00,766.00,-1120.00
2024-06-06 23:53:39.883784,1,-159,-15,3,9,0,75,77,175,140,52,95.00,141,18.00,731.00,-760.00
2024-06-06 23:53:39.982298,1,-43,-12,2,4,11,75,77,194,130,52,95.57,141,15.00,433.00,-953.00
2024-06-06 23:53:40.116426,0,5,-12,1,3,10,75,77,144,120,52,95.07,141,1.00,-34.00,-1440.00
2024-06-06 23:53:40.186280,0,-2,-12,1,3,7,75,77,136,110,52,95.05,141,0.00,-31.00,-1398.00
2024-06-06 23:53:40.321095,0,-3,-13,1,2,3,75,77,132,110,52,94.91,141,10.00,-17.00,-1284.00
2024-06-06 23:53:40.390244,0,-1,-13,1,1,0,75,77,130,110,52,95.18,141,9.00,-6.00,-1130.00
2024-06-06 23:53:40.525885,0,0,-13,1,1,0,75,77,130,110,52,95.06,141,0.00,4.00,-1083.00
2024-06-06 23:53:40.594358,0,0,-13,1,1,-1,75,77,132,110,52,94.91,141,13.00,-10.00,-1031.00
2024-06-06 23:53:40.730676,0,0,-13,0,1,-1,75,77,133,110,52,94.91,141,3.00,-5.00,-979.00
2024-06-06 23:53:40.801393,0,0,-13,0,0,-1,75,77,135,110,52,95.04,142,15.00,4.00,-921.00
2024-06-06 23:53:40.905610,0,-2,-13,0,0,-1,75,77,136,110,52,95.11,142,2.00,3.00,-990.00
2024-06-06 23:53:41.002214,0,-2,-13,0,0,0,75,77,137,110,52,95.11,142,2.00,0.00,-953.00
2024-06-06 23:53:41.056396,0,0,-13,0,0,0,75,77,136,110,52,94.95,142,1.00,1.00,-980.00
2024-06-06 23:53:41.157156,0,0,-13,0,0,0,75,77,136,110,52,95.20,142,-7.00,-3.00,-981.00
2024-06-06 23:53:41.258463,0,0,-13,0,0,0,75,77,137,110,52,95.09,142,0.00,0.00,-994.00
2024-06-06 23:53:41.447567,0,0,-13,0,0,0,75,77,136,110,52,94.84,142,-2.00,5.00,-1004.00
2024-06-06 23:53:41.461219,0,0,-13,0,0,0,75,77,136,110,52,94.81,142,-2.00,-6.00,-1006.00
2024-06-06 23:53:41.652243,0,0,-13,0,0,0,75,77,135,110,51,95.02,142,-3.00,9.00,-1013.00
2024-06-06 23:53:41.665209,0,0,-13,0,0,0,75,77,135,110,51,94.98,142,0.00,4.00,-997.00
2024-06-06 23:53:41.857433,0,0,-13,0,0,0,75,77,135,110,51,95.01,143,0.00,-8.00,-989.00
2024-06-06 23:53:41.871172,0,0,-13,0,0,0,75,77,135,110,51,95.30,143,10.00,-9.00,-999.00
2024-06-06 23:53:41.971144,0,0,-13,0,0,0,75,77,135,110,51,95.31,143,3.00,-11.00,-1002.00
2024-06-06 23:53:42.165491,0,0,-13,0,0,0,75,77,135,110,51,95.08,143,0.00,-6.00,-1012.00
2024-06-06 23:53:42.176015,0,0,-13,0,0,0,75,77,134,110,51,95.32,143,-11.00,3.00,-1011.00
2024-06-06 23:53:42.370824,0,0,-13,0,0,0,75,77,135,110,51,95.18,143,-3.00,-3.00,-1005.00
2024-06-06 23:53:42.379058,0,0,-13,0,0,0,75,77,135,110,51,95.07,143,11.00,-5.00,-1007.00
2024-06-06 23:53:42.573941,0,0,-13,0,0,0,75,77,135,110,51,95.10,143,1.00,2.00,-1004.00
2024-06-06 23:53:42.583021,0,0,-13,0,0,0,75,77,135,110,51,95.00,143,-4.00,-5.00,-1001.00
2024-06-06 23:53:42.779704,0,0,-13,0,0,0,75,77,135,110,51,94.90,143,11.00,-9.00,-998.00
2024-06-06 23:53:42.787006,0,0,-13,0,0,0,75,77,135,110,51,95.23,144,-2.00,-5.00,-1001.00
2024-06-06 23:53:42.889182,0,0,-13,0,0,0,75,77,135,110,51,94.90,144,0.00,0.00,-997.00
2024-06-06 23:53:43.085961,0,0,-13,0,0,0,75,77,135,110,51,95.22,144,10.00,-14.00,-997.00
2024-06-06 23:53:43.093648,0,0,-13,0,0,0,75,77,135,110,51,95.11,144,-5.00,2.00,-995.00
2024-06-06 23:53:43.294819,0,0,-13,0,0,0,75,77,135,110,51,94.95,144,1.00,-8.00,-989.00
2024-06-06 23:53:43.297619,0,0,-13,0,0,0,75,77,136,110,51,95.18,144,2.00,-2.00,-986.00
2024-06-06 23:53:43.498811,0,0,-13,0,0,0,75,77,136,110,51,95.33,144,0.00,-11.00,-994.00
2024-06-06 23:53:43.502937,0,0,-13,0,0,0,75,77,135,110,51,95.23,144,-10.00,6.00,-1001.00
2024-06-06 23:53:43.603383,0,0,-13,0,0,0,75,77,136,110,50,95.13,144,-1.00,-8.00,-994.00
2024-06-06 23:53:43.705177,0,0,-13,0,0,0,75,77,136,110,50,95.13,144,-1.00,6.00,-998.00
2024-06-06 23:53:43.807112,0,0,-13,0,0,0,75,77,137,110,50,95.02,145,-11.00,3.00,-997.00
2024-06-06 23:53:43.909513,0,0,-13,0,0,0,75,77,136,110,50,95.31,145,3.00,5.00,-1000.00
2024-06-06 23:53:44.113928,0,0,-13,0,0,0,75,77,136,110,50,95.35,145,-2.00,-4.00,-996.00
