TS,pitch,roll,yaw,vgx,vgy,vgz,templ,temph,tof,h,bat,baro,time,agx,agy,agz
2024-06-06 23:54:18.743682,0,0,-8,0,0,0,78,79,10,0,50,94.02,157,7.00,-1.00,-1000.00
2024-06-06 23:54:18.924237,0,0,-8,0,0,0,78,79,10,0,50,94.02,157,8.00,-1.00,-999.00
2024-06-06 23:54:18.948018,0,0,-8,0,0,0,78,79,10,0,50,93.94,157,8.00,-1.00,-999.00
2024-06-06 23:54:19.128973,0,0,-8,0,0,0,78,79,10,0,50,94.02,157,8.00,-1.00,-998.00
2024-06-06 23:54:19.151989,0,0,-8,0,0,0,78,79,10,0,50,94.11,157,9.00,-1.00,-997.00
2024-06-06 23:54:19.334023,0,0,-8,0,0,0,78,79,10,0,50,93.94,157,8.00,-1.00,-1001.00
2024-06-06 23:54:19.355535,0,0,-8,0,0,0,78,79,10,0,50,93.98,157,7.00,-2.00,-999.00
2024-06-06 23:54:19.538713,0,0,-8,0,0,0,78,79,10,0,50,93.83,157,7.00,0.00,-999.00
2024-06-06 23:54:19.559698,0,0,-8,0,0,0,78,80,10,0,50,94.10,157,10.00,0.00,-999.00
2024-06-06 23:54:19.743442,0,0,-8,0,0,0,78,80,10,0,50,94.18,157,7.00,-2.00,-999.00
2024-06-06 23:54:19.763715,0,0,-8,0,0,0,78,80,10,0,50,93.71,157,9.00,-1.00,-999.00
2024-06-06 23:54:19.948095,0,0,-8,0,0,0,78,80,10,0,50,93.73,157,8.00,0.00,-1001.00
2024-06-06 23:54:19.967946,0,0,-8,0,0,0,78,80,10,0,50,93.97,157,9.00,-1.00,-1001.00
2024-06-06 23:54:20.155548,0,0,-8,0,0,0,78,80,10,0,50,93.77,157,8.00,-1.00,-1001.00
2024-06-06 23:54:20.171604,0,0,-8,0,0,0,78,80,10,0,50,94.10,157,9.00,-2.00,-1001.00
2024-06-06 23:54:20.460295,0,0,-8,0,0,0,78,80,10,0,50,93.97,157,8.00,-1.00,-998.00
2024-06-06 23:54:20.460543,0,0,-8,0,0,0,78,80,10,0,50,93.91,157,10.00,0.00,-1004.00
2024-06-06 23:54:20.477585,0,0,-8,0,0,0,78,80,10,0,50,93.87,157,9.00,0.00,-997.00
2024-06-06 23:54:20.666175,0,0,-8,0,0,0,78,81,10,0,50,94.03,157,10.00,-1.00,-998.00
2024-06-06 23:54:20.681453,0,0,-8,0,0,0,78,81,10,0,50,93.92,157,8.00,-1.00,-1000.00
2024-06-06 23:54:20.783545,0,0,-8,0,0,0,78,81,10,0,50,93.84,157,10.00,-2.00,-999.00
2024-06-06 23:54:20.972622,0,0,-8,0,0,0,78,81,10,0,50,93.85,157,7.00,-1.00,-1000.00
2024-06-06 23:54:20.987464,0,0,-8,0,0,0,78,81,10,0,50,93.84,157,8.00,0.00,-999.00
2024-06-06 23:54:21.089447,0,0,-8,0,0,0,78,81,10,0,50,93.69,157,9.00,-1.00,-1000.00
2024-06-06 23:54:21.279410,0,0,-8,0,0,0,78,81,10,0,50,93.94,157,9.00,0.00,-1000.00
2024-06-06 23:54:21.293448,0,0,-8,0,0,0,78,81,10,0,50,93.90,157,8.00,0.00,-997.00
2024-06-06 23:54:21.344511,0,0,-8,0,0,0,78,81,10,0,50,94.15,157,8.00,0.00,-1001.00
2024-06-06 23:54:21.484141,0,0,-8,0,0,0,78,81,10,0,50,93.93,157,7.00,0.00,-1000.00
2024-06-06 23:54:21.599541,0,0,-8,0,0,0,78,80,10,0,50,94.09,157,8.00,-1.00,-996.00
2024-06-06 23:54:21.650340,0,0,-8,0,0,0,78,80,10,0,50,93.76,157,8.00,-2.00,-998.00
2024-06-06 23:54:21.773283,0,0,-8,0,0,0,78,80,10,0,50,94.03,157,10.00,0.00,-999.00
2024-06-06 23:54:21.854353,0,0,-8,0,0,0,78,80,10,0,50,94.09,157,9.00,0.00,-999.00
2024-06-06 23:54:21.956625,0,0,-8,0,0,0,78,80,10,0,50,93.97,157,8.00,2.00,-1000.00
2024-06-06 23:54:22.092479,0,0,-8,0,0,0,78,80,10,0,50,93.97,157,5.00,6.00,-993.00
2024-06-06 23:54:22.190635,0,0,-8,0,0,0,78,80,10,0,50,93.97,158,0.00,-2.00,-998.00
2024-06-06 23:54:22.271589,0,0,-8,0,0,0,78,80,10,0,50,93.97,158,12.00,-2.00,-1013.00
2024-06-06 23:54:22.367285,0,0,-8,0,0,0,78,80,10,0,50,93.97,158,16.00,-9.00,-1045.00
2024-06-06 23:54:22.466291,-1,0,-8,0,0,0,78,80,10,0,50,93.97,158,8.00,-9.00,-1188.00
2024-06-06 23:54:22.583022,-1,0,-8,0,0,-1,78,80,10,0,50,93.97,158,10.00,-7.00,-1330.00
2024-06-06 23:54:22.738819,0,0,-8,0,0,-4,78,80,15,0,50,93.97,158,-22.00,-3.00,-1205.00
2024-06-06 23:54:22.796452,1,0,-8,0,0,-5,78,80,23,0,50,94.12,158,12.00,-9.00,-1096.00
2024-06-06 23:54:22.878408,1,0,-8,0,0,-6,78,80,31,0,50,94.51,158,6.00,-3.00,-1036.00
2024-06-06 23:54:23.031181,1,0,-8,0,0,-6,78,80,37,0,50,94.44,158,19.00,-24.00,-1003.00
2024-06-06 23:54:23.174294,0,0,-8,0,0,-6,78,80,46,0,50,94.61,158,5.00,3.00,-957.00
2024-06-06 23:54:23.180343,0,0,-8,0,0,-5,78,80,55,10,50,94.93,159,5.00,-3.00,-936.00
2024-06-06 23:54:23.442028,0,0,-8,0,0,-5,78,80,62,10,50,94.76,159,2.00,-1.00,-916.00
2024-06-06 23:54:23.481504,0,0,-8,0,0,-4,78,80,70,10,50,94.73,159,23.00,-19.00,-893.00
2024-06-06 23:54:23.486273,0,0,-8,0,0,-3,78,80,77,20,50,94.96,159,7.00,-9.00,-901.00
2024-06-06 23:54:23.645303,0,0,-8,0,0,-2,79,80,82,20,50,94.86,159,6.00,-9.00,-913.00
2024-06-06 23:54:23.793549,0,0,-8,0,0,-1,79,80,87,20,50,95.17,159,24.00,-14.00,-917.00
2024-06-06 23:54:23.793594,0,0,-8,0,0,-1,79,80,91,30,50,94.87,159,5.00,0.00,-927.00
2024-06-06 23:54:23.960910,0,0,-8,0,0,0,79,80,95,30,50,94.96,159,6.00,-10.00,-934.00
2024-06-06 23:54:24.104090,0,0,-8,0,0,0,79,80,97,30,50,95.08,159,14.00,-12.00,-940.00
2024-06-06 23:54:24.104151,0,0,-8,0,0,0,79,80,100,30,50,95.03,159,3.00,-1.00,-939.00
2024-06-06 23:54:24.259664,0,0,-8,0,0,0,79,80,102,30,50,95.09,160,6.00,10.00,-968.00
2024-06-06 23:54:24.403032,0,0,-8,0,0,0,79,80,103,40,50,94.92,160,21.00,-13.00,-953.00
2024-06-06 23:54:24.404243,0,0,-8,0,0,1,79,80,104,40,50,95.27,160,0.00,-2.00,-951.00
2024-06-06 23:54:24.568138,0,0,-8,0,0,1,79,80,104,40,50,94.94,160,4.00,-1.00,-965.00
2024-06-06 23:54:24.721133,0,0,-8,0,0,1,79,80,105,40,50,94.85,160,2.00,-1.00,-955.00
2024-06-06 23:54:24.721312,0,0,-8,0,0,1,79,80,104,40,50,94.99,160,13.00,0.00,-971.00
2024-06-06 23:54:24.812227,0,0,-8,0,0,1,79,80,103,40,50,94.83,160,12.00,-14.00,-965.00
2024-06-06 23:54:24.966497,0,0,-8,0,0,1,79,80,103,40,50,95.02,160,5.00,-3.00,-966.00
2024-06-06 23:54:25.016199,0,0,-8,0,0,1,79,80,101,40,50,94.89,160,3.00,-7.00,-984.00
2024-06-06 23:54:25.170392,0,0,-8,0,0,1,79,80,100,40,50,94.87,160,1.00,0.00,-991.00
2024-06-06 23:54:25.170564,0,0,-8,0,0,2,79,80,99,40,50,95.15,161,8.00,-3.00,-980.00
2024-06-06 23:54:25.272501,0,0,-8,0,0,1,79,80,98,40,50,94.97,161,1.00,0.00,-989.00
2024-06-06 23:54:25.373336,0,0,-8,0,0,1,79,80,96,40,50,95.03,161,8.00,-1.00,-996.00
2024-06-06 23:54:25.475456,0,0,-8,0,0,1,79,80,94,40,50,94.82,161,7.00,2.00,-999.00
2024-06-06 23:54:25.579965,0,0,-8,0,0,1,79,80,92,40,50,95.09,161,13.00,-6.00,-997.00
2024-06-06 23:54:25.687057,0,0,-8,0,0,1,79,80,90,40,50,94.80,161,10.00,6.00,-1007.00
2024-06-06 23:54:25.782687,0,0,-8,0,0,1,79,80,88,30,50,94.81,161,18.00,-5.00,-1011.00
2024-06-06 23:54:25.884663,0,0,-8,0,0,1,79,80,86,30,50,94.89,161,2.00,-6.00,-1003.00
2024-06-06 23:54:25.990999,0,0,-8,0,0,1,79,80,85,30,50,94.76,161,4.00,1.00,-1013.00
2024-06-06 23:54:26.092780,0,0,-8,0,0,1,79,80,83,30,50,95.12,162,12.00,0.00,-1014.00
2024-06-06 23:54:26.189946,0,0,-8,0,0,1,79,80,81,30,50,94.70,162,7.00,-7.00,-1006.00
2024-06-06 23:54:26.296729,0,0,-8,0,0,1,79,80,80,30,50,94.64,162,9.00,0.00,-1020.00
2024-06-06 23:54:26.393990,0,0,-8,0,0,1,79,80,79,30,50,94.65,162,5.00,-1.00,-1006.00
2024-06-06 23:54:26.501509,0,0,-8,0,0,0,79,80,77,30,50,94.71,162,6.00,2.00,-998.00
2024-06-06 23:54:26.598085,0,0,-8,0,0,0,78,80,76,20,50,94.73,162,10.00,3.00,-1021.00
2024-06-06 23:54:26.708070,0,0,-8,0,0,0,78,80,75,20,50,94.69,162,4.00,2.00,-1018.00
2024-06-06 23:54:26.808263,0,0,-8,0,0,0,78,80,74,20,50,94.64,162,14.00,0.00,-1009.00
2024-06-06 23:54:26.903896,0,0,-8,0,0,0,78,80,74,20,50,94.68,162,0.00,6.00,-1003.00
2024-06-06 23:54:27.005931,0,0,-8,0,0,0,78,80,73,20,50,94.77,162,18.00,-3.00,-1020.00
2024-06-06 23:54:27.116906,0,0,-8,0,0,0,78,80,72,20,50,94.54,163,20.00,-7.00,-1023.00
2024-06-06 23:54:27.209850,0,0,-8,0,0,0,78,80,72,20,50,94.71,163,5.00,-8.00,-1006.00
2024-06-06 23:54:27.320735,0,0,-8,0,0,0,78,80,72,20,50,94.69,163,12.00,0.00,-1018.00
2024-06-06 23:54:27.413914,0,0,-8,0,0,0,78,80,71,20,50,94.82,163,13.00,-3.00,-1002.00
2024-06-06 23:54:27.526200,0,0,-8,0,0,0,78,80,71,20,50,94.64,163,2.00,-2.00,-1010.00
2024-06-06 23:54:27.617812,0,0,-8,0,0,0,78,80,71,20,50,94.76,163,15.00,-3.00,-1000.00
2024-06-06 23:54:27.730385,0,0,-8,0,0,0,78,80,71,20,50,94.71,163,18.00,-2.00,-1020.00
2024-06-06 23:54:27.821840,0,0,-8,0,0,0,78,80,71,20,50,94.80,163,4.00,9.00,-1013.00
2024-06-06 23:54:27.927189,0,0,-8,0,0,0,78,80,71,20,50,94.88,163,18.00,-9.00,-1012.00
2024-06-06 23:54:28.025811,0,0,-8,0,0,0,78,80,71,20,50,94.41,163,-5.00,14.00,-1013.00
2024-06-06 23:54:28.139745,0,0,-8,0,0,0,78,80,71,20,50,94.47,164,3.00,-6.00,-1001.00
2024-06-06 23:54:28.229949,0,0,-8,0,0,0,78,80,71,20,50,94.59,164,5.00,-8.00,-998.00
2024-06-06 23:54:28.344521,0,0,-8,0,0,0,78,80,71,20,50,94.77,164,16.00,3.00,-1017.00
2024-06-06 23:54:28.434109,0,0,-8,0,0,0,78,80,71,20,50,94.81,164,1.00,1.00,-1007.00
2024-06-06 23:54:28.550326,0,0,-8,0,0,0,78,80,71,20,50,94.63,164,2.00,1.00,-1000.00
2024-06-06 23:54:28.638664,0,0,-8,0,0,0,77,79,71,20,50,94.84,164,6.00,-4.00,-1008.00
2024-06-06 23:54:28.754014,0,0,-8,0,0,0,77,79,72,20,50,94.91,164,2.00,0.00,-998.00
2024-06-06 23:54:28.841797,0,0,-8,0,0,0,77,79,72,20,50,94.72,164,13.00,-2.00,-1002.00
2024-06-06 23:54:28.959804,0,0,-8,0,0,0,77,79,72,20,50,94.79,164,8.00,-11.00,-998.00
2024-06-06 23:54:29.051419,0,0,-8,0,0,0,77,79,73,20,50,94.67,164,9.00,-5.00,-992.00
2024-06-06 23:54:29.096828,0,0,-8,0,0,0,77,79,73,20,50,94.81,165,9.00,-1.00,-998.00
2024-06-06 23:54:29.272510,0,0,-8,0,0,0,77,79,73,20,50,94.75,165,19.00,-8.00,-1001.00
2024-06-06 23:54:29.305030,0,0,-8,0,0,0,77,79,74,20,50,94.73,165,9.00,0.00,-1014.00
2024-06-06 23:54:29.402689,0,0,-8,0,0,0,77,79,74,20,50,94.88,165,3.00,-4.00,-1001.00
2024-06-06 23:54:29.573351,0,0,-8,0,0,0,77,79,74,20,50,94.95,165,10.00,-2.00,-994.00
2024-06-06 23:54:29.606772,0,0,-8,0,0,0,77,79,74,20,50,94.56,165,16.00,-6.00,-986.00
2024-06-06 23:54:29.777996,0,0,-8,0,0,0,77,79,74,20,50,94.92,165,19.00,5.00,-1003.00
2024-06-06 23:54:29.810617,0,0,-8,0,0,0,77,79,74,20,50,94.79,165,-7.00,0.00,-991.00
2024-06-06 23:54:29.983860,0,0,-8,0,0,0,77,79,74,20,50,94.36,165,14.00,0.00,-1005.00
2024-06-06 23:54:30.014735,0,0,-8,0,0,0,77,79,74,20,50,94.74,165,18.00,-7.00,-993.00
2024-06-06 23:54:30.187681,0,0,-8,0,0,0,77,79,74,20,50,94.68,166,2.00,6.00,-987.00
2024-06-06 23:54:30.218498,0,0,-8,0,0,0,77,79,74,20,50,95.18,166,3.00,6.00,-1007.00
2024-06-06 23:54:30.320806,0,0,-8,0,0,0,77,79,74,20,50,94.78,166,7.00,7.00,-1005.00
2024-06-06 23:54:30.422706,0,0,-8,0,0,0,77,79,74,20,50,94.44,166,6.00,7.00,-1008.00
2024-06-06 23:54:30.525635,0,0,-8,0,0,0,77,79,73,20,50,94.64,166,22.00,-8.00,-997.00
2024-06-06 23:54:30.627170,0,0,-8,0,0,0,78,79,73,20,50,94.65,166,15.00,-5.00,-1001.00
2024-06-06 23:54:30.728632,0,0,-8,0,0,0,78,79,73,20,50,94.54,166,2.00,7.00,-1010.00
2024-06-06 23:54:30.904670,0,0,-8,0,0,0,78,79,73,20,50,94.96,166,15.00,-7.00,-1010.00
2024-06-06 23:54:30.933860,0,0,-8,0,0,0,78,79,74,20,50,94.82,166,13.00,-4.00,-1003.00
2024-06-06 23:54:31.034667,0,0,-8,0,0,0,78,79,73,20,50,94.81,166,7.00,-4.00,-1006.00
2024-06-06 23:54:31.211696,0,0,-8,0,0,0,78,79,73,20,50,95.03,167,2.00,6.00,-1006.00
2024-06-06 23:54:31.243229,0,0,-8,0,0,0,78,79,74,20,50,94.62,167,17.00,-8.00,-991.00
2024-06-06 23:54:31.340826,0,0,-8,0,0,0,78,79,73,20,50,94.77,167,13.00,-6.00,-1010.00
2024-06-06 23:54:31.520079,0,0,-8,0,0,0,78,79,73,20,50,95.01,167,11.00,-1.00,-993.00
2024-06-06 23:54:31.544652,0,0,-8,0,0,0,78,79,74,20,50,94.97,167,16.00,-6.00,-998.00
2024-06-06 23:54:31.725344,0,0,-8,0,0,0,78,79,74,20,50,94.51,167,0.00,2.00,-997.00
2024-06-06 23:54:31.748494,0,0,-8,0,0,0,78,79,74,20,50,95.14,167,-2.00,-3.00,-990.00
2024-06-06 23:54:31.929574,0,0,-8,0,0,0,78,79,74,20,50,94.92,167,11.00,0.00,-1004.00
2024-06-06 23:54:31.952508,0,0,-8,0,0,0,78,79,74,20,50,94.57,167,0.00,4.00,-991.00
2024-06-06 23:54:32.054526,0,0,-8,0,0,0,78,79,74,20,50,94.69,167,6.00,-13.00,-989.00
2024-06-06 23:54:32.236703,0,0,-8,0,0,0,78,79,74,20,50,94.47,168,14.00,-3.00,-1004.00
2024-06-06 23:54:32.258352,0,0,-8,0,0,0,78,79,74,20,50,94.70,168,7.00,-3.00,-1004.00
2024-06-06 23:54:32.441145,0,0,-8,0,0,0,78,79,74,20,50,94.48,168,0.00,2.00,-996.00
2024-06-06 23:54:32.462437,0,0,-8,0,0,0,78,79,75,20,50,94.87,168,20.00,0.00,-1010.00
2024-06-06 23:54:32.565214,0,0,-8,0,0,0,78,79,74,20,50,94.83,168,9.00,-11.00,-982.00
2024-06-06 23:54:32.747519,0,0,-8,0,0,0,76,79,74,20,50,94.75,168,5.00,-9.00,-1046.00
2024-06-06 23:54:32.768340,0,0,-8,0,0,0,76,79,75,20,50,94.72,168,17.00,-8.00,-1110.00
2024-06-06 23:54:32.952479,0,0,-8,0,0,-1,76,79,77,20,50,94.90,168,18.00,2.00,-1106.00
2024-06-06 23:54:32.952528,0,0,-8,0,0,-2,76,79,79,30,50,94.98,168,21.00,-11.00,-1096.00
2024-06-06 23:54:33.023555,0,0,-8,0,0,-3,76,79,83,30,50,94.87,168,10.00,6.00,-1088.00
2024-06-06 23:54:33.157745,0,0,-8,0,0,-4,76,79,88,30,50,94.69,169,-3.00,-7.00,-1048.00
2024-06-06 23:54:33.228015,0,0,-8,0,0,-5,76,79,92,40,50,94.92,169,4.00,4.00,-1058.00
2024-06-06 23:54:33.361922,0,0,-8,0,0,-5,76,79,97,40,50,94.75,169,8.00,-2.00,-1027.00
2024-06-06 23:54:33.431444,0,0,-8,0,0,-5,76,79,103,50,50,94.98,169,-7.00,5.00,-1002.00
2024-06-06 23:54:33.566810,0,0,-8,0,0,-5,76,79,108,50,50,95.20,169,24.00,-8.00,-1010.00
2024-06-06 23:54:33.635451,0,0,-8,0,0,-5,77,80,114,60,50,95.03,169,18.00,-3.00,-990.00
2024-06-06 23:54:33.771603,0,0,-8,0,0,-5,77,80,120,70,50,95.16,169,7.00,-14.00,-976.00
2024-06-06 23:54:33.839392,0,0,-8,0,0,-5,77,80,124,70,50,95.35,169,3.00,0.00,-979.00
2024-06-06 23:54:33.941385,0,0,-8,0,0,-5,77,80,129,80,50,95.48,169,7.00,-10.00,-967.00
2024-06-06 23:54:34.043379,0,0,-8,0,0,-4,77,80,135,80,50,95.23,169,2.00,-2.00,-979.00
2024-06-06 23:54:34.183447,0,0,-8,0,0,-4,77,80,140,90,50,95.55,170,2.00,-5.00,-957.00
2024-06-06 23:54:34.247309,0,0,-8,0,0,-4,77,80,142,90,50,95.29,170,10.00,-11.00,-966.00
2024-06-06 23:54:34.385930,0,0,-8,0,0,-3,77,80,146,90,50,95.54,170,-4.00,-1.00,-970.00
2024-06-06 23:54:34.455972,0,0,-8,0,0,-3,77,80,150,100,50,95.20,170,0.00,0.00,-968.00
2024-06-06 23:54:34.556470,0,0,-8,0,0,-3,77,80,152,100,50,95.66,170,11.00,-9.00,-952.00
2024-06-06 23:54:34.655377,0,0,-8,0,0,-2,77,79,156,100,50,95.28,170,18.00,-4.00,-973.00
2024-06-06 23:54:34.796371,0,0,-8,0,0,-2,77,79,158,110,50,95.36,170,-1.00,0.00,-971.00
2024-06-06 23:54:34.859246,0,0,-8,0,0,-2,77,79,161,110,50,95.30,170,-6.00,-1.00,-977.00
2024-06-06 23:54:35.001030,0,0,-8,0,0,-1,77,79,162,110,50,95.38,170,-15.00,3.00,-984.00
2024-06-06 23:54:35.063356,0,0,-8,0,0,-1,77,79,164,110,50,95.59,170,0.00,3.00,-982.00
2024-06-06 23:54:35.205148,0,0,-8,0,0,-1,77,79,166,110,50,95.80,171,0.00,-2.00,-976.00
2024-06-06 23:54:35.267478,0,0,-8,0,0,-1,77,79,166,110,50,95.71,171,-7.00,6.00,-979.00
2024-06-06 23:54:35.411243,0,0,-8,0,0,-1,77,79,168,120,50,95.57,171,-11.00,9.00,-991.00
2024-06-06 23:54:35.471430,0,0,-8,0,0,0,77,79,168,120,50,95.53,171,-4.00,1.00,-973.00
2024-06-06 23:54:35.614632,0,0,-8,0,0,0,77,79,170,120,50,95.59,171,-13.00,-5.00,-976.00
2024-06-06 23:54:35.675900,0,0,-8,0,0,0,77,79,171,120,50,95.67,171,-2.00,0.00,-972.00
2024-06-06 23:54:35.820785,0,0,-8,0,0,0,77,79,171,120,50,95.79,171,-5.00,5.00,-994.00
2024-06-06 23:54:35.879081,0,0,-8,0,0,0,77,79,171,120,50,95.52,171,7.00,-13.00,-988.00
2024-06-06 23:54:36.024564,0,0,-8,0,0,0,77,79,172,120,50,95.53,171,-3.00,0.00,-988.00
2024-06-06 23:54:36.083111,0,0,-8,0,0,0,77,79,173,120,50,95.42,171,-2.00,-16.00,-985.00
2024-06-06 23:54:36.229692,0,0,-8,0,0,0,77,79,172,120,50,95.67,172,0.00,-2.00,-1002.00
2024-06-06 23:54:36.287048,0,0,-8,0,0,0,77,79,172,120,50,95.46,172,0.00,-2.00,-989.00
2024-06-06 23:54:36.433939,0,0,-8,0,0,0,77,79,173,120,50,95.46,172,-3.00,-9.00,-985.00
2024-06-06 23:54:36.440452,0,0,-8,0,0,0,77,79,172,120,50,95.39,172,-3.00,-3.00,-1002.00
2024-06-06 23:54:36.638794,0,0,-8,0,0,0,77,79,172,120,50,95.56,172,-7.00,-4.00,-1003.00
2024-06-06 23:54:36.695451,0,0,-8,0,0,0,77,79,172,120,50,95.64,172,-12.00,5.00,-1007.00
2024-06-06 23:54:36.747488,0,0,-8,0,0,0,77,79,173,120,50,95.52,172,-4.00,-6.00,-997.00
2024-06-06 23:54:36.854489,0,0,-8,0,0,0,77,79,172,120,50,95.42,172,-4.00,-4.00,-993.00
2024-06-06 23:54:36.950133,0,0,-8,0,0,0,77,79,173,120,50,95.51,172,7.00,-19.00,-983.00
2024-06-06 23:54:37.052145,0,0,-8,0,0,0,77,79,173,120,50,95.52,172,4.00,-8.00,-993.00
2024-06-06 23:54:37.306346,0,0,-8,0,0,0,77,79,172,120,50,95.62,173,0.00,-13.00,-998.00
2024-06-06 23:54:37.307081,0,0,-8,0,0,0,77,79,172,120,50,95.68,173,-11.00,6.00,-1003.00
2024-06-06 23:54:37.418031,0,0,-8,0,0,0,77,79,172,120,50,95.64,173,-2.00,2.00,-1014.00
2024-06-06 23:54:37.516419,0,0,-8,0,0,0,77,79,171,120,50,95.40,173,9.00,-21.00,-989.00
2024-06-06 23:54:37.599480,0,0,-8,0,0,0,77,79,172,120,50,95.65,173,0.00,-9.00,-989.00
2024-06-06 23:54:37.705235,0,0,-8,0,0,0,77,79,172,120,50,95.26,173,-8.00,5.00,-963.00
2024-06-06 23:54:37.766227,0,0,-8,0,0,0,77,79,172,120,50,95.28,173,-1.00,-9.00,-939.00
2024-06-06 23:54:37.868152,0,0,-8,0,0,1,77,79,169,120,50,95.50,173,-12.00,1.00,-953.00
2024-06-06 23:54:38.097903,0,0,-8,0,0,1,77,79,168,120,50,95.52,173,-7.00,0.00,-952.00
2024-06-06 23:54:38.098169,0,0,-8,0,0,1,77,79,168,120,50,95.59,173,1.00,-3.00,-962.00
2024-06-06 23:54:38.175112,0,0,-8,0,0,2,77,79,165,110,50,95.29,174,0.00,-13.00,-972.00
2024-06-06 23:54:38.277852,0,0,-8,0,0,2,77,79,162,110,50,95.49,174,-8.00,-6.00,-973.00
2024-06-06 23:54:38.391726,0,0,-8,0,0,2,77,79,157,110,50,95.19,174,6.00,-5.00,-996.00
2024-06-06 23:54:38.533415,0,0,-8,0,0,2,77,79,156,110,50,95.54,174,-5.00,-4.00,-992.00
2024-06-06 23:54:38.584008,0,0,-8,0,0,2,77,79,153,100,50,95.49,174,13.00,-10.00,-993.00
2024-06-06 23:54:38.697190,0,0,-8,0,0,2,77,79,150,100,50,95.48,174,-1.00,2.00,-1030.00
2024-06-06 23:54:38.840556,0,0,-8,0,0,2,77,79,148,100,50,95.21,174,-2.00,-2.00,-1013.00
2024-06-06 23:54:38.891168,0,0,-8,0,0,2,77,79,145,90,50,95.24,174,7.00,-16.00,-1009.00
2024-06-06 23:54:39.004419,0,0,-8,0,0,2,77,79,141,90,50,95.32,174,4.00,-4.00,-1025.00
2024-06-06 23:54:39.147811,0,0,-8,0,0,2,77,79,140,90,50,95.14,174,-3.00,-10.00,-998.00
2024-06-06 23:54:39.200899,0,0,-8,0,0,2,77,79,138,90,50,95.39,175,-4.00,-10.00,-1015.00
2024-06-06 23:54:39.353188,0,0,-8,0,0,2,77,79,135,80,50,95.44,175,0.00,-19.00,-1024.00
2024-06-06 23:54:39.398663,0,0,-8,0,0,1,77,79,134,80,50,95.30,175,-9.00,-15.00,-1005.00
2024-06-06 23:54:39.505533,0,0,-8,0,0,1,77,79,132,80,50,95.22,175,-7.00,-1.00,-1025.00
2024-06-06 23:54:39.602711,0,0,-8,0,0,1,77,79,130,80,50,95.06,175,-1.00,-3.00,-1027.00
2024-06-06 23:54:39.710311,0,0,-8,0,0,1,77,79,130,80,50,95.06,175,15.00,-14.00,-1026.00
2024-06-06 23:54:39.812615,0,0,-8,0,0,1,77,79,128,80,50,95.16,175,-9.00,-11.00,-996.00
2024-06-06 23:54:39.916268,0,0,-8,0,0,1,77,79,127,70,50,95.14,175,2.00,0.00,-1032.00
2024-06-06 23:54:40.012598,0,0,-8,0,0,0,77,79,126,70,50,95.27,175,-2.00,-11.00,-1016.00
2024-06-06 23:54:40.112967,0,0,-8,0,0,0,77,79,126,70,50,95.28,175,1.00,-2.00,-1025.00
2024-06-06 23:54:40.164366,0,0,-8,0,0,0,77,79,125,70,50,95.42,176,3.00,-11.00,-1019.00
2024-06-06 23:54:40.326305,0,0,-8,0,0,0,77,79,126,70,50,95.19,176,-10.00,-2.00,-1001.00
2024-06-06 23:54:40.368579,0,0,-8,0,0,0,77,79,126,70,50,95.48,176,-7.00,-9.00,-991.00
2024-06-06 23:54:40.529783,0,0,-8,0,0,0,77,79,126,70,50,95.22,176,-3.00,-22.00,-995.00
2024-06-06 23:54:40.571963,0,0,-8,0,0,0,77,79,126,70,50,95.09,176,7.00,-9.00,-1009.00
2024-06-06 23:54:40.734396,0,0,-8,0,0,0,77,79,126,70,50,95.41,176,-9.00,-12.00,-996.00
2024-06-06 23:54:40.775729,0,0,-8,0,0,0,77,79,126,70,50,94.89,176,10.00,-11.00,-1006.00
2024-06-06 23:54:40.940153,0,0,-8,0,0,0,77,79,126,70,50,95.18,176,-2.00,-8.00,-995.00
2024-06-06 23:54:40.979626,0,0,-8,0,0,0,77,79,126,70,50,94.99,176,-6.00,-16.00,-996.00
2024-06-06 23:54:41.081614,0,0,-8,0,0,0,77,79,127,70,50,94.96,176,-5.00,-2.00,-1004.00
2024-06-06 23:54:41.246287,0,0,-8,0,0,0,77,79,127,70,50,95.11,177,-15.00,-4.00,-997.00
2024-06-06 23:54:41.285697,0,0,-8,0,0,0,77,79,126,70,50,95.19,177,-18.00,-5.00,-998.00
2024-06-06 23:54:41.451938,0,0,-8,0,0,0,77,79,127,70,50,95.02,177,4.00,-6.00,-991.00
2024-06-06 23:54:41.489916,0,0,-8,0,0,0,77,79,127,70,50,95.18,177,5.00,-10.00,-997.00
2024-06-06 23:54:41.657350,0,0,-8,0,0,0,77,79,126,70,50,95.06,177,6.00,-5.00,-1000.00
2024-06-06 23:54:41.693648,0,0,-8,0,0,0,77,79,127,70,50,95.12,177,12.00,-17.00,-996.00
2024-06-06 23:54:41.860766,0,0,-8,0,0,0,77,79,127,70,50,95.45,177,0.00,-2.00,-1000.00
2024-06-06 23:54:41.902275,0,0,-8,0,0,0,77,79,127,70,50,95.28,177,-9.00,-5.00,-999.00
2024-06-06 23:54:41.999448,0,0,-8,0,0,0,77,79,127,70,50,95.29,177,-7.00,-4.00,-989.00
2024-06-06 23:54:42.101495,-4,0,-8,0,0,0,77,79,126,70,50,95.30,178,1.00,-9.00,-1003.00
2024-06-06 23:54:42.284169,-8,0,-8,1,0,0,77,79,127,70,50,95.47,178,4.00,-5.00,-992.00
2024-06-06 23:54:42.310759,-8,0,-8,2,0,0,77,79,128,70,50,95.22,178,-28.00,21.00,-1020.00
2024-06-06 23:54:42.408882,-8,0,-8,4,0,0,77,79,128,70,50,95.08,178,-19.00,-9.00,-1012.00
2024-06-06 23:54:42.577499,-7,0,-8,5,0,0,77,79,127,70,50,95.12,178,-44.00,1.00,-1011.00
2024-06-06 23:54:42.622456,-6,0,-8,6,0,0,77,79,127,70,50,94.84,178,-19.00,-20.00,-994.00
2024-06-06 23:54:42.713817,-6,0,-8,6,-1,0,76,79,126,70,50,95.01,178,-38.00,-6.00,-1007.00
2024-06-06 23:54:42.886118,-5,0,-8,7,-1,0,76,79,127,70,50,94.85,178,-33.00,-11.00,-1005.00
2024-06-06 23:54:42.919422,-4,0,-8,7,-1,0,76,79,126,70,50,94.87,178,-33.00,-19.00,-990.00
2024-06-06 23:54:43.019939,-1,0,-8,7,-1,0,76,79,126,70,50,94.84,178,-45.00,-4.00,-1004.00
2024-06-06 23:54:43.122319,1,0,-8,6,-1,0,76,79,126,70,50,94.60,179,-39.00,-14.00,-991.00
2024-06-06 23:54:43.225135,3,0,-8,5,-1,0,76,79,127,70,50,94.86,179,-40.00,-6.00,-1007.00
2024-06-06 23:54:43.396635,3,0,-8,4,0,0,76,79,126,70,50,94.86,179,-49.00,-22.00,-976.00
2024-06-06 23:54:43.429979,2,0,-8,3,0,0,76,79,127,70,50,94.97,179,-43.00,-23.00,-978.00
2024-06-06 23:54:43.530429,0,1,-8,3,0,0,76,79,126,70,50,95.09,179,-49.00,-5.00,-1012.00
2024-06-06 23:54:43.586417,0,1,-8,3,0,0,76,79,127,70,50,95.23,179,-38.00,-15.00,-1010.00
2024-06-06 23:54:43.734315,0,0,-8,3,0,0,76,79,127,70,50,94.84,179,-22.00,-15.00,-994.00
2024-06-06 23:54:43.836873,0,0,-8,2,0,0,76,79,127,70,50,94.87,179,-22.00,-12.00,-1005.00
2024-06-06 23:54:43.893939,0,0,-8,2,0,0,76,79,126,70,50,95.35,179,-29.00,-10.00,-1002.00
2024-06-06 23:54:43.990737,0,0,-8,2,0,0,76,79,126,70,50,95.04,179,-7.00,-16.00,-1011.00
2024-06-06 23:54:44.095165,0,1,-8,2,0,0,76,79,126,70,50,95.05,180,-24.00,-15.00,-991.00
2024-06-06 23:54:44.194335,0,0,-8,2,0,0,76,79,126,70,50,95.39,180,-17.00,-15.00,-1002.00
2024-06-06 23:54:44.301829,4,0,-8,2,0,0,76,79,125,70,50,95.01,180,-23.00,-10.00,-1014.00
2024-06-06 23:54:44.398308,3,0,-8,1,0,0,76,79,125,70,50,94.93,180,-20.00,-13.00,-1024.00
2024-06-06 23:54:44.523281,1,0,-8,0,0,0,76,79,125,70,50,95.08,180,-3.00,-21.00,-1012.00
2024-06-06 23:54:44.602511,0,0,-8,0,0,0,76,79,125,70,50,95.01,180,-4.00,-12.00,-1010.00
2024-06-06 23:54:44.704353,0,0,-8,0,0,0,76,79,125,70,50,94.87,180,-16.00,-1.00,-996.00
2024-06-06 23:54:44.830322,0,0,-8,0,0,0,76,79,124,70,50,94.99,180,-9.00,-11.00,-1007.00
2024-06-06 23:54:44.908221,0,0,-8,0,0,0,76,79,125,70,50,94.81,180,-3.00,-8.00,-1014.00
2024-06-06 23:54:45.010213,0,0,-8,0,0,0,76,79,126,70,50,95.00,180,0.00,-15.00,-1006.00
2024-06-06 23:54:45.112253,0,0,-8,0,0,0,76,79,125,70,50,94.97,181,-1.00,-4.00,-1003.00
2024-06-06 23:54:45.239795,0,0,-8,0,0,0,76,79,125,70,50,94.76,181,-6.00,-9.00,-996.00
2024-06-06 23:54:45.316162,0,0,-8,0,0,0,76,79,125,70,50,95.08,181,-1.00,-11.00,-1002.00
2024-06-06 23:54:45.445428,0,0,-8,0,0,0,76,79,126,70,50,95.29,181,-16.00,-15.00,-986.00
2024-06-06 23:54:45.520413,0,0,-8,0,0,0,76,79,125,70,50,95.03,181,9.00,-18.00,-1008.00
2024-06-06 23:54:45.622705,0,0,-8,0,0,0,76,79,126,70,50,95.25,181,5.00,-18.00,-997.00
2024-06-06 23:54:45.725030,0,0,-8,0,0,0,76,78,126,70,50,94.80,181,4.00,-8.00,-990.00
2024-06-06 23:54:45.826465,0,0,-8,0,0,0,76,78,126,70,50,95.22,181,4.00,-15.00,-986.00
2024-06-06 23:54:45.929888,0,0,-8,0,0,0,76,78,126,70,50,94.99,181,-6.00,-6.00,-1005.00
2024-06-06 23:54:46.030670,0,0,-8,0,0,0,76,78,126,70,50,95.28,181,4.00,-17.00,-999.00
2024-06-06 23:54:46.134639,0,0,-8,0,0,0,76,78,126,70,50,94.80,182,11.00,-12.00,-1007.00
2024-06-06 23:54:46.237175,0,0,-8,0,0,0,76,78,126,70,50,94.98,182,6.00,-22.00,-991.00
2024-06-06 23:54:46.337606,0,0,-8,0,0,0,76,78,125,70,50,94.83,182,2.00,-13.00,-1010.00
2024-06-06 23:54:46.440557,0,0,-8,0,0,0,76,78,126,70,50,94.57,182,-11.00,1.00,-1002.00
2024-06-06 23:54:46.540009,0,0,-8,0,0,0,76,78,126,70,50,95.09,182,-6.00,-15.00,-1013.00
2024-06-06 23:54:46.673634,0,0,-8,0,0,0,76,78,126,70,50,94.93,182,-1.00,-12.00,-990.00
2024-06-06 23:54:46.744022,3,0,-8,0,0,0,77,78,126,70,50,94.87,182,-4.00,-13.00,-985.00
2024-06-06 23:54:46.879072,7,0,-8,-1,0,0,77,78,125,70,50,95.22,182,-16.00,0.00,-1021.00
2024-06-06 23:54:46.949350,8,0,-8,-2,0,0,77,78,126,70,50,94.98,182,18.00,-18.00,-1014.00
2024-06-06 23:54:47.082846,8,0,-8,-4,0,0,77,78,126,70,50,95.11,182,38.00,-7.00,-1028.00
2024-06-06 23:54:47.153994,7,0,-8,-5,0,0,77,78,126,70,50,95.18,183,32.00,-10.00,-1010.00
2024-06-06 23:54:47.254881,6,0,-8,-6,0,0,77,78,125,70,50,95.03,183,34.00,-2.00,-1007.00
2024-06-06 23:54:47.307031,6,0,-8,-6,0,0,77,78,126,70,50,94.90,183,23.00,1.00,-998.00
2024-06-06 23:54:47.407001,5,0,-8,-7,1,0,77,78,125,70,50,95.26,183,38.00,-1.00,-1006.00
2024-06-06 23:54:47.594848,4,0,-8,-7,1,0,77,78,126,70,50,94.65,183,57.00,-16.00,-998.00
2024-06-06 23:54:47.611351,1,0,-8,-7,1,0,77,78,126,70,50,95.04,183,47.00,-10.00,-994.00
2024-06-06 23:54:47.800818,-1,0,-8,-6,1,0,76,79,126,70,50,95.35,183,55.00,-14.00,-993.00
2024-06-06 23:54:47.816405,-3,0,-8,-5,0,0,76,79,127,70,50,95.18,183,55.00,-5.00,-994.00
2024-06-06 23:54:47.916903,-3,0,-8,-4,0,0,76,79,127,70,50,94.89,183,38.00,-22.00,-980.00
2024-06-06 23:54:48.107675,-2,0,-8,-3,0,0,76,79,127,70,50,95.26,183,30.00,-8.00,-997.00
2024-06-06 23:54:48.120805,-1,0,-8,-3,0,0,76,79,127,70,50,94.85,184,22.00,-12.00,-1004.00
2024-06-06 23:54:48.311776,0,0,-8,-3,0,0,76,79,127,70,50,94.80,184,18.00,1.00,-999.00
2024-06-06 23:54:48.326295,0,0,-8,-3,0,0,76,79,127,70,50,94.83,184,23.00,-11.00,-998.00
2024-06-06 23:54:48.427369,0,0,-8,-3,0,0,76,79,128,70,50,95.16,184,26.00,-2.00,-999.00
2024-06-06 23:54:48.620353,0,0,-8,-3,0,0,76,79,127,70,50,95.23,184,22.00,-4.00,-997.00
2024-06-06 23:54:48.631049,0,0,-8,-2,0,0,76,79,128,70,50,94.81,184,13.00,1.00,-993.00
2024-06-06 23:54:48.824496,0,0,-8,-2,0,0,77,78,128,70,50,95.08,184,31.00,-14.00,-1003.00
2024-06-06 23:54:48.834987,-1,0,-8,-2,0,0,77,78,128,70,50,95.04,184,10.00,3.00,-1013.00
2024-06-06 23:54:49.028384,-4,0,-8,-2,0,0,77,78,128,70,50,95.16,184,37.00,-6.00,-998.00
2024-06-06 23:54:49.038992,-3,0,-8,-1,0,0,77,78,128,70,50,94.87,184,14.00,0.00,-1001.00
2024-06-06 23:54:49.141040,-1,0,-8,0,0,0,77,78,128,70,50,94.83,185,0.00,-2.00,-1012.00
2024-06-06 23:54:49.243252,0,0,-8,0,0,0,77,78,128,70,50,94.98,185,14.00,-7.00,-1001.00
2024-06-06 23:54:49.439511,0,0,-8,0,0,0,77,78,128,70,50,94.98,185,-1.00,-15.00,-1010.00
2024-06-06 23:54:49.447310,0,0,-8,0,0,0,77,78,128,70,50,94.96,185,-3.00,-2.00,-1006.00
2024-06-06 23:54:49.643713,0,0,-8,0,0,0,77,78,128,70,50,95.20,185,-11.00,-2.00,-996.00
2024-06-06 23:54:49.650842,0,0,-8,0,0,0,77,78,128,70,50,95.14,185,-3.00,-10.00,-1002.00
2024-06-06 23:54:49.850907,0,0,-8,0,0,0,76,78,128,70,50,95.31,185,-8.00,-3.00,-998.00
2024-06-06 23:54:49.854900,0,0,-8,0,0,0,76,78,128,70,50,94.92,185,-7.00,-6.00,-989.00
2024-06-06 23:54:49.956866,0,0,-8,0,0,0,76,78,127,70,50,94.96,185,5.00,0.00,-998.00
2024-06-06 23:54:50.155237,0,0,-8,0,0,0,76,78,128,70,50,95.04,185,-3.00,-2.00,-998.00
2024-06-06 23:54:50.161321,0,0,-8,0,0,0,76,78,127,70,50,95.16,186,-5.00,0.00,-1004.00
2024-06-06 23:54:50.264543,0,0,-8,0,0,0,76,78,127,70,50,95.22,186,6.00,-22.00,-982.00
2024-06-06 23:54:50.463498,0,0,-8,0,0,0,76,78,128,70,50,94.89,186,5.00,-6.00,-996.00
2024-06-06 23:54:50.468580,0,0,-8,0,0,0,76,78,126,70,50,95.03,186,-8.00,-20.00,-985.00
2024-06-06 23:54:50.569413,0,0,-8,0,0,0,76,78,127,70,50,95.29,186,9.00,-8.00,-1009.00
2024-06-06 23:54:50.672096,0,0,-8,0,0,0,76,78,126,70,50,95.05,186,15.00,-17.00,-991.00
2024-06-06 23:54:50.773676,0,0,-8,0,0,0,76,78,127,70,50,95.03,186,-1.00,-16.00,-990.00
2024-06-06 23:54:50.874873,0,0,-8,0,0,0,76,78,126,70,50,95.04,186,-12.00,-8.00,-992.00
2024-06-06 23:54:50.926543,0,0,-8,0,0,0,76,78,127,70,50,95.19,186,1.00,-4.00,-1009.00
2024-06-06 23:54:51.076448,0,0,-8,0,0,0,76,78,126,70,50,95.01,186,16.00,-6.00,-1006.00
2024-06-06 23:54:51.133128,0,0,-8,0,0,0,76,78,125,70,50,94.89,187,5.00,-17.00,-1000.00
2024-06-06 23:54:51.231704,0,0,-8,0,0,0,76,78,125,70,50,94.94,187,-4.00,-3.00,-959.00
2024-06-06 23:54:51.383775,0,-6,-8,0,0,0,76,78,125,70,50,95.00,187,-3.00,-10.00,-1029.00
2024-06-06 23:54:51.436407,0,-7,-8,0,-1,0,76,78,126,70,50,95.19,187,-11.00,0.00,-1023.00
2024-06-06 23:54:51.588306,0,-4,-8,0,-3,0,76,78,126,70,50,95.23,187,-10.00,10.00,-997.00
2024-06-06 23:54:51.653819,0,-2,-8,0,-3,0,76,78,126,70,50,94.90,187,-2.00,6.00,-1002.00
2024-06-06 23:54:51.744146,0,0,-8,0,-4,0,76,79,126,70,50,95.29,187,10.00,7.00,-996.00
2024-06-06 23:54:51.843685,0,1,-8,0,-3,0,76,79,126,70,50,95.07,187,5.00,2.00,-1000.00
2024-06-06 23:54:51.945677,0,1,-8,0,-2,0,76,79,126,70,50,94.99,187,1.00,11.00,-1007.00
2024-06-06 23:54:52.101496,0,0,-8,0,-2,0,76,79,125,70,50,94.77,187,-8.00,11.00,-1000.00
2024-06-06 23:54:52.217202,0,0,-8,0,-2,0,76,79,126,70,50,94.74,188,-6.00,12.00,-1002.00
2024-06-06 23:54:52.359770,0,0,-8,0,-2,0,76,79,126,70,50,95.23,188,-5.00,-5.00,-1000.00
2024-06-06 23:54:52.359947,0,0,-8,0,-2,0,76,79,126,70,50,95.24,188,-12.00,11.00,-990.00
2024-06-06 23:54:52.474456,0,0,-8,0,-2,0,76,79,126,70,50,95.11,188,-13.00,10.00,-1001.00
2024-06-06 23:54:52.572701,0,0,-8,0,-2,0,76,79,126,70,50,95.28,188,10.00,-1.00,-1001.00
2024-06-06 23:54:52.659934,0,0,-8,0,-2,0,76,79,126,70,50,95.33,188,-7.00,10.00,-1006.00
2024-06-06 23:54:52.919541,0,0,-8,0,-2,0,76,78,126,70,50,95.10,188,12.00,-6.00,-990.00
2024-06-06 23:54:52.919620,0,1,-8,0,-2,0,76,78,126,70,50,95.09,188,-12.00,9.00,-1003.00
2024-06-06 23:54:53.076581,0,1,-8,0,-2,0,76,78,126,70,50,95.01,188,7.00,-12.00,-1008.00
2024-06-06 23:54:53.135818,0,3,-8,0,-1,0,76,78,126,70,50,95.42,188,-16.00,8.00,-992.00
2024-06-06 23:54:53.195085,0,4,-8,0,-1,0,76,78,127,70,50,94.89,189,-15.00,-4.00,-1000.00
2024-06-06 23:54:53.272737,0,2,-8,0,0,0,76,78,127,70,50,95.02,189,7.00,-17.00,-997.00
2024-06-06 23:54:53.444310,0,1,-8,0,0,0,76,78,127,70,50,95.04,189,0.00,-17.00,-994.00
2024-06-06 23:54:53.587757,0,1,-8,0,0,0,76,78,127,70,50,95.10,189,8.00,-22.00,-996.00
2024-06-06 23:54:53.587894,0,1,-8,0,0,0,76,78,126,70,49,95.15,189,-2.00,-12.00,-992.00
2024-06-06 23:54:53.793243,0,1,-8,0,0,0,76,78,126,70,49,95.17,189,-7.00,-3.00,-1005.00
2024-06-06 23:54:53.893389,0,1,-8,0,0,0,76,78,127,70,49,95.13,189,0.00,-8.00,-999.00
2024-06-06 23:54:53.893511,0,1,-8,0,0,0,76,78,127,70,49,94.97,189,-2.00,-14.00,-993.00
2024-06-06 23:54:54.057327,0,0,-8,0,0,0,76,78,127,70,49,95.35,189,1.00,-7.00,-992.00
2024-06-06 23:54:54.211860,0,0,-8,0,0,0,76,78,127,70,49,95.24,189,-7.00,-20.00,-998.00
2024-06-06 23:54:54.212062,0,0,-8,0,0,0,76,78,127,70,49,95.43,190,2.00,-15.00,-996.00
2024-06-06 23:54:54.292710,0,0,-8,0,0,0,76,78,127,70,49,95.00,190,8.00,-21.00,-986.00
2024-06-06 23:54:54.455577,0,0,-8,0,0,0,76,78,127,70,49,95.14,190,-2.00,-3.00,-1009.00
2024-06-06 23:54:54.496480,0,0,-8,0,0,0,76,78,127,70,49,95.17,190,-1.00,-13.00,-1000.00
2024-06-06 23:54:54.660341,0,0,-8,0,0,0,76,78,127,70,49,94.79,190,10.00,-19.00,-990.00
2024-06-06 23:54:54.701387,0,0,-8,0,0,0,76,78,127,70,49,95.30,190,-10.00,-8.00,-988.00
2024-06-06 23:54:54.865223,0,0,-8,0,0,0,75,78,127,70,49,95.07,190,12.00,-9.00,-1006.00
2024-06-06 23:54:54.904645,0,0,-8,0,0,0,75,78,126,70,49,95.08,190,9.00,-18.00,-1003.00
2024-06-06 23:54:55.069969,0,0,-8,0,0,0,75,78,126,70,49,95.35,190,6.00,-14.00,-995.00
2024-06-06 23:54:55.070973,0,0,-8,0,0,0,75,78,126,70,49,95.13,190,1.00,-7.00,-1016.00
2024-06-06 23:54:55.160993,0,0,-8,0,0,0,75,78,126,70,49,95.23,191,12.00,-6.00,-1010.00
2024-06-06 23:54:55.274472,0,0,-8,0,0,0,75,78,126,70,49,95.08,191,1.00,-5.00,-998.00
2024-06-06 23:54:55.363483,0,0,-8,0,0,0,75,78,126,70,49,95.05,191,12.00,-8.00,-1019.00
2024-06-06 23:54:55.479345,0,7,-8,0,0,0,75,78,127,70,49,95.07,191,0.00,0.00,-987.00
2024-06-06 23:54:55.567418,0,8,-8,0,1,0,75,78,126,70,49,94.90,191,-1.00,-9.00,-1001.00
2024-06-06 23:54:55.684837,0,5,-8,0,3,0,75,78,125,70,49,95.24,191,13.00,-30.00,-1012.00
2024-06-06 23:54:55.773764,0,3,-8,0,4,0,75,79,126,70,49,95.37,191,2.00,-27.00,-989.00
2024-06-06 23:54:55.873542,1,0,-8,0,4,0,75,79,126,70,49,94.87,191,4.00,-26.00,-1027.00
2024-06-06 23:54:55.991986,1,-1,-8,0,3,0,75,79,126,70,49,95.18,191,15.00,-27.00,-1001.00
2024-06-06 23:54:56.077755,0,0,-8,0,2,0,75,79,126,70,49,95.08,191,14.00,-29.00,-990.00
2024-06-06 23:54:56.179439,0,0,-8,0,2,0,75,79,127,70,49,95.36,192,25.00,-30.00,-1004.00
2024-06-06 23:54:56.298777,0,1,-8,0,2,0,75,79,126,70,49,95.10,192,23.00,-36.00,-978.00
2024-06-06 23:54:56.386271,0,1,-8,0,2,0,75,79,126,70,49,94.95,192,3.00,-21.00,-988.00
2024-06-06 23:54:56.485138,0,1,-8,0,2,0,75,79,126,70,49,95.24,192,5.00,-19.00,-991.00
2024-06-06 23:54:56.606354,0,0,-8,0,2,0,75,79,126,70,49,95.06,192,20.00,-37.00,-987.00
2024-06-06 23:54:56.689114,0,0,-8,0,2,0,75,79,126,70,49,94.91,192,13.00,-28.00,-992.00
2024-06-06 23:54:56.791120,0,0,-8,0,2,0,76,79,126,70,49,95.17,192,1.00,-17.00,-998.00
2024-06-06 23:54:56.912833,0,0,-8,0,2,0,76,79,125,70,49,95.01,192,17.00,-21.00,-1001.00
2024-06-06 23:54:56.995122,0,-4,-8,0,2,0,76,79,125,70,49,94.89,192,15.00,-15.00,-986.00
2024-06-06 23:54:57.117795,0,-3,-8,0,1,0,76,79,125,70,49,95.22,193,9.00,-40.00,-1030.00
2024-06-06 23:54:57.199493,0,-1,-8,0,0,0,76,79,125,70,49,95.19,193,-1.00,-2.00,-1009.00
2024-06-06 23:54:57.322909,0,0,-8,0,0,0,76,79,124,70,49,95.15,193,4.00,-9.00,-1006.00
2024-06-06 23:54:57.403453,0,0,-8,0,0,0,76,79,124,70,49,95.20,193,5.00,-11.00,-1006.00
2024-06-06 23:54:57.528197,0,0,-8,0,0,0,76,79,125,70,49,95.03,193,6.00,-13.00,-1004.00
2024-06-06 23:54:57.607286,0,0,-8,0,0,0,76,79,125,70,48,95.21,193,-5.00,-6.00,-1003.00
2024-06-06 23:54:57.733753,0,0,-8,0,0,0,76,79,125,70,48,95.40,193,-17.00,-1.00,-995.00
2024-06-06 23:54:57.811176,0,0,-8,0,0,0,76,78,125,70,48,95.28,193,-3.00,-11.00,-1000.00
2024-06-06 23:54:57.913181,0,0,-8,0,0,0,76,78,125,70,48,95.46,193,-5.00,7.00,-1006.00
2024-06-06 23:54:58.040229,0,0,-8,0,0,0,76,78,125,70,48,95.18,193,6.00,-9.00,-997.00
2024-06-06 23:54:58.117468,0,0,-8,0,0,0,76,78,125,70,48,95.18,194,-16.00,11.00,-995.00
2024-06-06 23:54:58.248328,0,0,-8,0,0,0,76,78,126,70,48,94.79,194,-9.00,3.00,-996.00
2024-06-06 23:54:58.321064,0,0,-8,0,0,0,76,78,125,70,48,95.25,194,-3.00,0.00,-999.00
2024-06-06 23:54:58.434786,0,0,-8,0,0,0,76,78,125,70,48,95.16,194,1.00,8.00,-999.00
2024-06-06 23:54:58.525136,0,0,-8,0,0,0,76,78,125,70,48,95.11,194,-1.00,2.00,-1004.00
2024-06-06 23:54:58.653994,0,0,-8,0,0,0,76,78,125,70,48,95.27,194,0.00,-1.00,-1007.00
2024-06-06 23:54:58.729503,0,0,-8,0,0,0,76,78,125,70,48,95.32,194,-2.00,11.00,-1008.00
2024-06-06 23:54:58.831221,0,0,-8,0,0,0,75,79,125,70,48,95.00,194,-6.00,10.00,-1010.00
2024-06-06 23:54:58.934832,0,0,-8,0,0,0,75,79,125,70,48,95.43,194,3.00,-3.00,-998.00
2024-06-06 23:54:59.036648,0,0,-8,0,0,0,75,79,125,70,48,95.07,194,-4.00,0.00,-995.00
2024-06-06 23:54:59.086568,0,0,-8,0,0,0,75,79,124,70,48,95.13,195,-7.00,1.00,-1007.00
2024-06-06 23:54:59.187988,0,0,-8,0,0,0,75,79,125,70,48,95.29,195,-1.00,-4.00,-1001.00
2024-06-06 23:54:59.289900,0,0,-8,0,0,0,75,79,125,70,48,95.23,195,27.00,-27.00,-990.00
2024-06-06 23:54:59.472816,0,0,-3,0,0,0,75,79,125,70,48,95.13,195,-11.00,1.00,-984.00
2024-06-06 23:54:59.494024,0,0,2,0,0,0,75,79,125,70,48,95.02,195,-4.00,13.00,-1015.00
2024-06-06 23:54:59.679984,0,0,8,0,0,0,75,79,125,70,48,95.32,195,4.00,-1.00,-999.00
2024-06-06 23:54:59.697885,0,0,14,0,0,0,75,79,125,70,48,95.30,195,-10.00,9.00,-987.00
2024-06-06 23:54:59.882390,0,0,20,0,0,0,76,78,125,70,48,95.11,195,9.00,4.00,-998.00
2024-06-06 23:54:59.902527,0,0,26,0,0,0,76,78,125,70,48,95.09,195,-3.00,15.00,-1014.00
2024-06-06 23:55:00.088701,0,0,32,0,0,0,76,78,125,70,48,95.16,195,8.00,3.00,-1004.00
2024-06-06 23:55:00.106085,0,0,38,0,0,0,76,78,125,70,48,95.21,196,0.00,8.00,-999.00
2024-06-06 23:55:00.292379,0,0,44,0,0,0,76,78,125,70,48,95.33,196,11.00,-11.00,-992.00
2024-06-06 23:55:00.312666,0,0,50,0,0,0,76,78,125,70,48,95.22,196,2.00,5.00,-994.00
2024-06-06 23:55:00.411800,0,0,56,0,0,0,76,78,125,70,48,95.13,196,-6.00,3.00,-987.00
2024-06-06 23:55:00.599419,0,0,62,0,0,0,76,78,126,70,48,94.99,196,5.00,3.00,-1004.00
2024-06-06 23:55:00.617209,0,0,68,0,0,0,76,78,126,70,47,95.14,196,7.00,17.00,-1008.00
2024-06-06 23:55:00.717755,0,0,74,0,0,0,76,78,125,70,47,95.10,196,11.00,0.00,-993.00
2024-06-06 23:55:00.906242,0,0,80,0,0,0,76,79,125,70,47,95.29,196,14.00,0.00,-997.00
2024-06-06 23:55:00.921803,0,0,86,0,0,0,76,79,126,70,47,95.24,196,7.00,7.00,-1004.00
2024-06-06 23:55:01.111422,0,0,92,0,0,0,76,79,126,70,47,95.13,196,14.00,6.00,-1005.00
2024-06-06 23:55:01.125821,0,0,98,0,0,0,76,79,126,70,47,95.04,197,8.00,8.00,-993.00
2024-06-06 23:55:01.315915,0,0,104,0,0,0,76,79,126,70,47,95.01,197,14.00,-13.00,-990.00
2024-06-06 23:55:01.332514,0,0,111,0,0,0,76,79,125,70,47,95.39,197,4.00,6.00,-997.00
2024-06-06 23:55:01.431822,0,0,117,0,0,0,76,79,126,70,47,95.31,197,13.00,-4.00,-991.00
2024-06-06 23:55:01.625036,0,0,123,0,0,0,76,79,125,70,47,95.14,197,16.00,6.00,-997.00
2024-06-06 23:55:01.637286,0,0,129,0,0,0,76,79,126,70,47,95.08,197,2.00,7.00,-1003.00
2024-06-06 23:55:01.737811,0,0,135,0,0,0,76,79,125,70,47,95.25,197,11.00,2.00,-996.00
2024-06-06 23:55:01.930316,0,0,141,0,0,0,76,78,126,70,47,95.19,197,20.00,-2.00,-994.00
2024-06-06 23:55:01.941836,0,0,148,0,0,0,76,78,126,70,47,94.86,197,21.00,-8.00,-990.00
2024-06-06 23:55:02.135893,0,0,154,0,0,0,76,78,126,70,47,95.06,197,21.00,-13.00,-993.00
2024-06-06 23:55:02.145605,0,1,160,0,0,0,76,78,126,70,47,95.00,198,12.00,-5.00,-992.00
2024-06-06 23:55:02.248432,0,1,166,0,0,0,76,78,126,70,47,95.33,198,15.00,-8.00,-988.00
2024-06-06 23:55:02.442255,0,1,172,0,0,0,76,78,126,70,47,95.28,198,9.00,-4.00,-999.00
2024-06-06 23:55:02.451736,0,1,178,0,0,0,76,78,126,70,47,95.24,198,14.00,-3.00,-1002.00
2024-06-06 23:55:02.648933,0,0,-175,0,0,0,76,78,125,70,47,95.30,198,6.00,0.00,-1007.00
2024-06-06 23:55:02.655617,0,1,-169,0,0,0,76,78,126,70,47,95.17,198,16.00,-11.00,-995.00
2024-06-06 23:55:02.706604,0,1,-163,0,0,0,76,78,126,70,47,95.08,198,4.00,5.00,-1015.00
2024-06-06 23:55:02.859688,0,1,-156,0,0,0,76,78,126,70,47,94.88,198,7.00,-8.00,-995.00
2024-06-06 23:55:03.056643,0,1,-150,0,0,0,76,78,125,70,47,95.23,198,26.00,-10.00,-1008.00
2024-06-06 23:55:03.063721,0,1,-144,0,0,0,76,78,125,70,47,94.89,198,9.00,-13.00,-1000.00
2024-06-06 23:55:03.165689,0,1,-138,0,0,0,76,78,125,70,47,95.28,199,10.00,-31.00,-997.00
2024-06-06 23:55:03.363816,0,1,-132,0,0,0,76,78,126,70,47,95.02,199,-4.00,-10.00,-990.00
2024-06-06 23:55:03.369903,0,1,-126,0,0,0,76,78,125,70,47,94.96,199,-5.00,-3.00,-997.00
2024-06-06 23:55:03.420994,0,1,-120,0,0,0,76,78,125,70,47,94.98,199,1.00,-11.00,-990.00
2024-06-06 23:55:03.568574,0,0,-114,0,0,0,76,78,125,70,47,95.22,199,-5.00,-18.00,-994.00
2024-06-06 23:55:03.626521,0,1,-108,0,0,0,76,78,126,70,47,95.32,199,-4.00,-9.00,-999.00
2024-06-06 23:55:03.726936,0,0,-101,0,0,0,76,78,126,70,47,94.96,199,-6.00,-18.00,-986.00
2024-06-06 23:55:03.828623,0,0,-95,0,0,0,76,78,126,70,47,95.26,199,2.00,-13.00,-998.00
2024-06-06 23:55:03.930536,0,0,-89,0,0,0,76,78,126,70,47,95.16,199,7.00,-11.00,-1007.00
2024-06-06 23:55:04.081052,0,0,-83,0,0,0,76,78,125,70,47,94.95,199,-2.00,-11.00,-1004.00
2024-06-06 23:55:04.145384,0,0,-77,0,0,0,76,78,126,70,47,95.10,200,15.00,-15.00,-995.00
2024-06-06 23:55:04.236465,0,0,-71,0,0,0,76,78,125,70,47,95.00,200,-10.00,7.00,-1010.00
2024-06-06 23:55:04.406869,0,0,-65,0,0,0,76,78,126,70,47,95.32,200,-3.00,-2.00,-997.00
2024-06-06 23:55:04.440275,0,0,-58,0,0,0,76,78,126,70,47,95.13,200,6.00,9.00,-1018.00
2024-06-06 23:55:04.595229,0,0,-52,0,0,0,76,78,126,70,46,95.17,200,9.00,-3.00,-993.00
2024-06-06 23:55:04.644275,0,0,-46,0,0,0,76,78,126,70,46,95.25,200,2.00,0.00,-999.00
2024-06-06 23:55:04.797220,0,0,-40,0,0,0,76,78,126,70,46,94.92,200,-1.00,10.00,-999.00
2024-06-06 23:55:04.853813,0,0,-34,0,0,0,76,78,126,70,46,95.12,200,6.00,16.00,-995.00
2024-06-06 23:55:04.951227,0,0,-28,0,0,0,76,78,125,70,46,94.98,200,8.00,0.00,-996.00
2024-06-06 23:55:05.104279,0,0,-23,0,0,0,76,78,126,70,46,95.44,200,4.00,-4.00,-992.00
2024-06-06 23:55:05.158381,0,0,-20,0,0,0,76,78,125,70,46,95.19,201,4.00,10.00,-997.00
2024-06-06 23:55:05.256243,0,0,-17,0,0,0,76,78,125,70,46,95.21,201,7.00,-1.00,-997.00
2024-06-06 23:55:05.411797,0,0,-15,0,0,0,76,78,126,70,46,94.92,201,23.00,-21.00,-992.00
2024-06-06 23:55:05.460320,0,0,-13,0,0,0,76,78,125,70,46,95.06,201,1.00,7.00,-1001.00
2024-06-06 23:55:05.618538,0,0,-12,0,0,0,76,78,125,70,46,95.20,201,15.00,15.00,-1015.00
2024-06-06 23:55:05.665574,0,0,-11,0,0,0,76,78,125,70,46,95.17,201,10.00,13.00,-1006.00
2024-06-06 23:55:05.822982,0,0,-10,0,0,0,76,78,124,70,46,95.31,201,7.00,5.00,-1003.00
2024-06-06 23:55:05.868784,0,0,-10,0,0,0,76,79,125,70,46,95.17,201,1.00,-8.00,-989.00
2024-06-06 23:55:05.970581,0,0,-10,0,0,0,76,79,125,70,46,95.14,201,17.00,-4.00,-1002.00
2024-06-06 23:55:06.128934,0,0,-10,0,0,0,76,79,125,70,46,94.96,201,-6.00,2.00,-1004.00
2024-06-06 23:55:06.174571,1,0,-10,0,0,0,76,79,124,70,46,95.23,202,15.00,1.00,-1003.00
2024-06-06 23:55:06.333900,1,0,-10,0,0,0,76,79,124,70,46,95.30,202,5.00,1.00,-1003.00
2024-06-06 23:55:06.378207,1,0,-10,0,0,0,76,79,125,70,46,95.26,202,19.00,-9.00,-993.00
2024-06-06 23:55:06.538203,1,0,-10,0,0,0,76,79,125,70,46,95.21,202,5.00,12.00,-1002.00
2024-06-06 23:55:06.582278,1,0,-10,0,0,0,76,79,125,70,46,95.31,202,19.00,-14.00,-989.00
2024-06-06 23:55:06.743127,1,0,-10,0,0,0,76,79,125,70,46,95.17,202,16.00,-4.00,-992.00
2024-06-06 23:55:06.786169,1,0,-10,0,0,0,76,79,125,70,46,95.23,202,30.00,-7.00,-995.00
2024-06-06 23:55:06.949811,1,0,-10,0,0,0,76,79,126,70,46,95.23,202,16.00,-11.00,-983.00
2024-06-06 23:55:06.990107,1,0,-10,0,0,0,76,79,126,70,46,95.31,202,14.00,0.00,-992.00
2024-06-06 23:55:07.118855,1,0,-10,0,0,0,76,79,126,70,46,95.10,202,13.00,0.00,-1014.00
2024-06-06 23:55:07.267816,1,0,-10,0,0,0,76,79,126,70,46,95.07,203,11.00,-1.00,-1002.00
2024-06-06 23:55:07.268019,1,0,-10,0,0,0,76,79,126,70,46,95.21,203,12.00,-12.00,-1000.00
2024-06-06 23:55:07.363602,0,0,-10,0,0,0,76,79,126,70,46,95.18,203,19.00,-4.00,-1003.00
2024-06-06 23:55:07.449771,1,0,-10,0,0,0,76,79,125,70,46,94.96,203,10.00,0.00,-1002.00
2024-06-06 23:55:07.767201,1,0,-10,0,0,0,76,79,126,70,46,95.41,203,24.00,9.00,-1015.00
2024-06-06 23:55:07.767363,0,0,-10,0,0,0,76,79,126,70,46,95.12,203,16.00,-5.00,-1005.00
2024-06-06 23:55:07.767759,0,0,-10,0,0,0,76,79,126,70,46,95.54,203,19.00,1.00,-993.00
2024-06-06 23:55:07.859317,0,0,-10,0,0,0,76,78,126,70,46,94.97,203,14.00,5.00,-996.00
2024-06-06 23:55:08.074054,0,0,-10,0,0,0,76,78,127,70,46,95.18,203,-9.00,23.00,-1021.00
2024-06-06 23:55:08.074258,0,0,-14,0,0,0,76,78,127,70,46,95.32,203,12.00,1.00,-992.00
2024-06-06 23:55:08.163305,1,0,-20,0,0,0,76,78,126,70,46,95.43,204,16.00,11.00,-1003.00
2024-06-06 23:55:08.284125,1,0,-26,0,0,0,76,78,126,70,46,95.13,204,15.00,4.00,-1001.00
2024-06-06 23:55:08.367307,1,0,-31,0,0,0,76,78,127,70,46,95.33,204,24.00,5.00,-1001.00
2024-06-06 23:55:08.494602,1,0,-37,0,0,0,76,78,126,70,46,95.37,204,15.00,10.00,-1002.00
2024-06-06 23:55:08.639071,1,0,-43,0,0,0,76,78,126,70,45,95.24,204,16.00,8.00,-998.00
2024-06-06 23:55:08.673170,1,0,-49,0,0,0,76,78,126,70,45,95.14,204,12.00,12.00,-1007.00
2024-06-06 23:55:08.801828,1,0,-55,0,0,0,76,78,127,70,45,95.37,204,20.00,13.00,-1010.00
2024-06-06 23:55:08.955865,1,0,-60,0,0,0,76,79,126,70,45,95.31,204,11.00,11.00,-1009.00
2024-06-06 23:55:08.979042,1,0,-66,0,0,0,76,79,126,70,45,95.12,204,13.00,17.00,-996.00
2024-06-06 23:55:09.102667,0,0,-72,0,0,0,76,79,126,70,45,95.41,204,16.00,22.00,-1006.00
2024-06-06 23:55:09.183176,0,0,-78,0,0,0,76,79,126,70,45,95.64,205,20.00,10.00,-998.00
2024-06-06 23:55:09.302942,0,0,-83,0,0,0,76,79,127,70,45,95.19,205,11.00,20.00,-1002.00
2024-06-06 23:55:09.389103,0,0,-89,0,0,0,76,79,127,70,45,95.20,205,14.00,17.00,-1002.00
2024-06-06 23:55:09.489549,0,0,-95,0,0,0,76,79,126,70,45,95.47,205,15.00,5.00,-1002.00
2024-06-06 23:55:09.591225,0,0,-100,0,0,0,76,79,126,70,45,95.14,205,16.00,14.00,-1007.00
2024-06-06 23:55:09.693363,0,0,-106,0,0,0,76,79,126,70,45,95.49,205,2.00,14.00,-1006.00
2024-06-06 23:55:09.814662,0,0,-111,0,0,0,76,79,126,70,45,95.09,205,13.00,10.00,-1001.00
2024-06-06 23:55:09.900914,0,0,-117,0,0,0,76,78,126,70,45,95.23,205,13.00,-4.00,-998.00
2024-06-06 23:55:10.000166,0,0,-123,0,0,0,76,78,126,70,45,95.59,205,10.00,7.00,-999.00
2024-06-06 23:55:10.106272,0,0,-129,0,0,0,76,78,126,70,45,95.30,205,0.00,16.00,-1005.00
2024-06-06 23:55:10.203952,0,0,-134,0,0,0,76,78,125,70,45,95.15,206,-1.00,17.00,-997.00
2024-06-06 23:55:10.326871,0,0,-140,0,0,0,76,78,126,70,45,95.46,206,-3.00,12.00,-1001.00
2024-06-06 23:55:10.407892,0,0,-146,0,0,0,76,78,126,70,45,95.32,206,-6.00,16.00,-1009.00
2024-06-06 23:55:10.531940,0,0,-152,0,0,0,76,78,125,70,45,95.43,206,9.00,19.00,-1008.00
2024-06-06 23:55:10.611839,0,0,-157,0,0,0,76,78,125,70,45,95.01,206,2.00,-4.00,-991.00
2024-06-06 23:55:10.664471,0,0,-163,0,0,0,76,78,125,70,45,95.13,206,-2.00,18.00,-995.00
2024-06-06 23:55:10.766928,0,0,-169,0,0,0,76,78,125,70,45,95.30,206,12.00,-16.00,-1002.00
2024-06-06 23:55:10.941242,0,0,179,0,0,0,76,77,125,70,45,95.03,206,8.00,6.00,-1003.00
2024-06-06 23:55:11.019906,0,0,173,0,0,0,76,77,125,70,45,95.23,206,7.00,-9.00,-995.00
2024-06-06 23:55:11.146370,0,0,168,0,0,0,76,77,125,70,45,95.20,207,0.00,-6.00,-1010.00
2024-06-06 23:55:11.176441,0,0,162,0,0,0,76,77,124,70,45,95.35,207,6.00,-5.00,-994.00
2024-06-06 23:55:11.274846,0,0,156,0,0,0,76,77,125,70,45,95.22,207,5.00,3.00,-1004.00
2024-06-06 23:55:11.454233,0,0,150,0,0,0,76,77,125,70,45,95.65,207,15.00,-28.00,-1005.00
2024-06-06 23:55:11.478861,0,0,144,0,0,0,76,77,125,70,45,95.57,207,14.00,-10.00,-1012.00
2024-06-06 23:55:11.657966,0,0,139,0,0,0,76,77,125,70,45,95.04,207,5.00,-14.00,-1002.00
2024-06-06 23:55:11.682837,0,0,133,0,0,0,76,77,125,70,45,95.31,207,6.00,-18.00,-998.00
2024-06-06 23:55:11.863032,1,0,127,0,0,0,76,77,125,70,45,95.27,207,0.00,-11.00,-995.00
2024-06-06 23:55:11.888082,1,0,121,0,0,0,75,78,126,70,45,95.00,207,20.00,-11.00,-1007.00
2024-06-06 23:55:12.067475,1,0,115,0,0,0,75,78,126,70,45,95.07,207,13.00,-5.00,-999.00
2024-06-06 23:55:12.091736,1,0,109,0,0,0,75,78,126,70,45,95.07,208,18.00,-5.00,-997.00
2024-06-06 23:55:12.194387,1,0,103,0,0,0,75,78,127,70,45,95.00,208,9.00,-5.00,-1001.00
2024-06-06 23:55:12.374518,1,0,96,0,0,0,75,78,127,70,45,94.99,208,19.00,-3.00,-1003.00
2024-06-06 23:55:12.397671,1,0,90,0,0,0,75,78,127,70,45,95.53,208,20.00,-9.00,-1001.00
2024-06-06 23:55:12.580305,1,0,84,0,0,0,75,78,128,70,45,95.34,208,21.00,5.00,-998.00
2024-06-06 23:55:12.601834,1,0,78,0,0,0,75,78,128,70,45,95.00,208,28.00,-4.00,-994.00
2024-06-06 23:55:12.784398,1,0,72,0,0,0,75,78,127,70,45,95.32,208,11.00,9.00,-989.00
2024-06-06 23:55:12.805642,1,0,66,0,0,0,75,78,127,70,45,95.23,208,15.00,-1.00,-991.00
2024-06-06 23:55:12.989094,1,0,60,0,0,0,76,78,128,70,45,95.31,208,18.00,4.00,-999.00
2024-06-06 23:55:13.009928,1,0,54,0,0,0,76,78,127,70,45,95.42,208,17.00,1.00,-994.00
2024-06-06 23:55:13.193689,0,0,48,0,0,0,76,78,127,70,45,95.25,209,12.00,18.00,-997.00
2024-06-06 23:55:13.213772,1,0,41,0,0,0,76,78,127,70,45,95.09,209,22.00,-6.00,-997.00
2024-06-06 23:55:13.398962,0,0,35,0,0,0,76,78,127,70,45,94.92,209,9.00,6.00,-999.00
2024-06-06 23:55:13.417565,0,0,29,0,0,0,76,78,127,70,45,95.34,209,11.00,14.00,-997.00
2024-06-06 23:55:13.604819,0,0,23,0,0,0,76,78,128,70,45,95.21,209,5.00,7.00,-993.00
2024-06-06 23:55:13.622455,0,0,16,0,0,0,76,78,127,70,45,95.18,209,3.00,16.00,-1002.00
2024-06-06 23:55:13.808374,0,0,10,0,0,0,76,78,127,70,45,95.30,209,7.00,3.00,-997.00
2024-06-06 23:55:13.825948,0,0,4,0,0,0,76,78,128,70,45,95.07,209,0.00,13.00,-1012.00
2024-06-06 23:55:13.927581,0,0,0,0,0,0,75,78,128,70,45,95.43,209,10.00,0.00,-993.00
2024-06-06 23:55:14.115278,0,0,-2,0,0,0,75,78,128,70,45,95.00,209,0.00,11.00,-994.00
2024-06-06 23:55:14.131593,0,0,-4,0,0,0,75,78,128,70,45,95.19,210,-8.00,12.00,-993.00
2024-06-06 23:55:14.233524,0,0,-6,0,0,0,75,78,127,70,45,95.37,210,-6.00,14.00,-1011.00
2024-06-06 23:55:14.423186,0,0,-7,0,0,0,75,78,127,70,45,95.63,210,-5.00,15.00,-1008.00
2024-06-06 23:55:14.437579,0,0,-8,0,0,0,75,78,128,70,45,95.24,210,0.00,7.00,-1002.00
2024-06-06 23:55:14.558836,0,0,-9,0,0,0,75,78,128,70,45,95.38,210,8.00,-11.00,-985.00
2024-06-06 23:55:14.591014,0,0,-9,0,0,0,75,78,127,70,44,95.26,210,3.00,-2.00,-1008.00
2024-06-06 23:55:14.729912,0,0,-9,0,0,0,75,78,127,70,44,95.25,210,0.00,7.00,-1008.00
2024-06-06 23:55:14.794755,0,0,-9,0,0,0,75,78,128,70,44,95.21,210,-2.00,1.00,-1009.00
2024-06-06 23:55:14.947606,0,0,-9,0,0,0,75,78,128,70,44,95.30,210,2.00,1.00,-996.00
2024-06-06 23:55:15.002929,0,0,-9,0,0,0,75,78,127,70,44,95.36,210,-2.00,2.00,-1006.00
2024-06-06 23:55:15.100844,0,0,-9,0,0,0,75,78,128,70,44,95.38,211,4.00,-16.00,-986.00
2024-06-06 23:55:15.202824,0,0,-9,0,0,0,75,78,128,70,44,95.14,211,0.00,-4.00,-989.00
2024-06-06 23:55:15.344585,0,0,-9,0,0,0,75,78,129,70,44,95.16,211,-8.00,4.00,-1000.00
2024-06-06 23:55:15.406660,0,0,-9,0,0,0,75,78,128,70,44,95.13,211,-12.00,9.00,-1000.00
2024-06-06 23:55:15.549319,0,0,-9,0,0,0,75,78,128,70,44,95.24,211,13.00,-5.00,-998.00
2024-06-06 23:55:15.610744,0,0,-9,0,0,0,75,78,128,70,44,95.15,211,-17.00,17.00,-994.00
2024-06-06 23:55:15.754173,0,0,-9,0,0,0,75,78,128,70,44,95.36,211,0.00,-3.00,-994.00
2024-06-06 23:55:15.817874,0,0,-9,0,0,0,75,78,129,70,44,95.27,211,-4.00,-9.00,-985.00
2024-06-06 23:55:15.916590,0,0,-9,0,0,0,75,78,128,70,44,95.18,211,-12.00,1.00,-998.00
2024-06-06 23:55:16.061677,0,0,-9,0,0,0,75,78,128,70,44,95.12,211,1.00,0.00,-1000.00
2024-06-06 23:55:16.120692,0,0,-9,0,0,0,75,78,128,70,44,95.45,212,6.00,5.00,-1002.00
2024-06-06 23:55:16.266523,0,0,-9,0,0,0,75,78,127,70,44,95.24,212,-10.00,2.00,-997.00
2024-06-06 23:55:16.326263,0,0,-9,0,0,0,75,78,127,70,44,95.38,212,-6.00,2.00,-999.00
2024-06-06 23:55:16.427647,0,0,-9,0,0,0,75,78,127,70,44,95.22,212,-5.00,2.00,-1009.00
2024-06-06 23:55:16.531695,0,0,-9,0,0,0,75,78,128,70,44,95.25,212,-8.00,0.00,-997.00
2024-06-06 23:55:16.632198,0,0,-9,0,0,0,75,78,127,70,44,95.19,212,-4.00,-4.00,-1001.00
2024-06-06 23:55:16.733549,0,0,-9,0,0,0,75,78,127,70,44,95.50,212,5.00,-5.00,-996.00
2024-06-06 23:55:16.882456,0,0,-9,0,0,0,75,78,127,70,44,95.15,212,0.00,-4.00,-1001.00
2024-06-06 23:55:16.937630,0,0,-9,0,0,0,76,77,127,70,44,95.36,212,-4.00,2.00,-1000.00
2024-06-06 23:55:17.087089,0,0,-9,0,0,0,76,77,127,70,44,95.29,212,-9.00,8.00,-1016.00
2024-06-06 23:55:17.141419,0,0,-9,0,0,0,76,77,127,70,44,95.15,213,0.00,-7.00,-1000.00
2024-06-06 23:55:17.243648,0,0,-9,0,0,0,76,77,127,70,44,95.33,213,-2.00,0.00,-993.00
2024-06-06 23:55:17.392605,0,0,-9,0,0,0,76,77,127,70,44,94.81,213,-11.00,0.00,-992.00
2024-06-06 23:55:17.447361,0,0,-9,0,0,0,76,77,127,70,44,95.14,213,0.00,-9.00,-997.00
2024-06-06 23:55:17.598943,0,0,-9,0,0,0,76,77,126,70,44,95.12,213,4.00,-12.00,-996.00
2024-06-06 23:55:17.651346,0,0,-9,0,0,0,76,77,127,70,44,95.44,213,9.00,-2.00,-1003.00
2024-06-06 23:55:17.802011,0,0,-9,0,0,0,76,77,127,70,44,95.26,213,-5.00,2.00,-1007.00
2024-06-06 23:55:17.855534,0,0,-9,0,0,0,76,77,127,70,44,95.44,213,11.00,-21.00,-1000.00
2024-06-06 23:55:17.957413,0,0,-9,0,0,0,76,77,127,70,44,95.37,213,-5.00,2.00,-998.00
2024-06-06 23:55:18.109282,0,0,-9,0,0,0,76,77,127,70,44,95.17,213,0.00,-6.00,-996.00
2024-06-06 23:55:18.161413,0,0,-9,0,0,0,76,77,126,70,44,95.17,214,0.00,-11.00,-1006.00
2024-06-06 23:55:18.315455,0,0,-9,0,0,0,76,77,126,70,44,95.27,214,1.00,5.00,-1004.00
2024-06-06 23:55:18.315614,0,0,-9,0,0,0,76,77,126,70,44,95.57,214,-6.00,0.00,-996.00
2024-06-06 23:55:18.416430,0,0,-9,0,0,0,76,77,127,70,44,95.41,214,2.00,-20.00,-990.00
2024-06-06 23:55:18.518801,0,0,-9,0,0,0,76,77,127,70,44,95.32,214,-1.00,-1.00,-1001.00
2024-06-06 23:55:18.620886,0,0,-9,0,0,0,76,77,127,70,44,95.28,214,5.00,-14.00,-1001.00
2024-06-06 23:55:18.724541,0,0,-9,0,0,0,76,77,126,70,44,95.34,214,0.00,-9.00,-988.00
2024-06-06 23:55:18.825729,0,0,-9,0,0,0,76,77,126,70,44,95.30,214,4.00,-3.00,-999.00
2024-06-06 23:55:18.928288,0,0,-9,0,0,0,75,77,126,70,44,95.05,214,-6.00,10.00,-1004.00
2024-06-06 23:55:19.030621,0,0,-9,0,0,0,75,77,126,70,44,95.23,214,2.00,6.00,-1006.00
2024-06-06 23:55:19.132922,0,0,-9,0,0,0,75,77,126,70,44,95.35,215,0.00,6.00,-999.00
2024-06-06 23:55:19.235422,0,0,-9,0,0,0,75,77,126,70,44,95.22,215,5.00,0.00,-1002.00
2024-06-06 23:55:19.338482,0,0,-9,0,0,0,75,77,127,70,44,95.37,215,0.00,-10.00,-996.00
2024-06-06 23:55:19.436263,0,0,-9,0,0,0,75,77,126,70,44,95.22,215,0.00,-3.00,-996.00
2024-06-06 23:55:19.538418,0,0,-9,0,0,0,75,77,127,70,44,95.03,215,-6.00,4.00,-1002.00
2024-06-06 23:55:19.645412,0,0,-9,0,0,0,75,77,127,70,44,95.32,215,1.00,-9.00,-992.00
2024-06-06 23:55:19.742327,0,0,-9,0,0,0,75,77,126,70,44,95.29,215,6.00,-12.00,-1007.00
2024-06-06 23:55:19.849596,0,0,-9,0,0,0,75,77,127,70,44,95.20,215,-4.00,-3.00,-999.00
2024-06-06 23:55:19.946153,0,0,-9,0,0,0,76,77,126,70,44,95.45,215,4.00,6.00,-1011.00
2024-06-06 23:55:20.048234,0,0,-9,0,0,0,76,77,126,70,44,95.20,215,1.00,-8.00,-996.00
2024-06-06 23:55:20.156727,0,0,-9,0,0,0,76,77,126,70,44,95.54,216,4.00,-11.00,-1004.00
2024-06-06 23:55:20.252253,0,0,-9,0,0,0,76,77,126,70,44,95.18,216,2.00,-2.00,-1001.00
2024-06-06 23:55:20.362035,0,0,-9,0,0,0,76,77,127,70,44,95.35,216,-5.00,-2.00,-1003.00
2024-06-06 23:55:20.456362,0,0,-9,0,0,0,76,77,126,70,44,95.42,216,-4.00,6.00,-997.00
2024-06-06 23:55:20.566845,0,0,-9,0,0,0,76,77,126,70,43,95.20,216,-3.00,9.00,-1010.00
2024-06-06 23:55:20.660443,0,0,-9,0,0,0,76,77,125,70,43,95.06,216,10.00,-13.00,-1005.00
2024-06-06 23:55:20.771623,0,0,-9,0,0,0,76,77,126,70,43,95.38,216,3.00,0.00,-1003.00
2024-06-06 23:55:20.864335,0,0,-9,0,0,0,76,77,126,70,43,95.21,216,10.00,-14.00,-993.00
2024-06-06 23:55:20.976414,0,0,-9,0,0,0,75,77,126,70,43,95.13,216,4.00,-12.00,-1000.00
2024-06-06 23:55:21.068136,0,0,-9,0,0,0,75,77,126,70,43,95.32,216,-4.00,-5.00,-998.00
2024-06-06 23:55:21.181107,0,0,-9,0,0,0,75,77,126,70,43,95.30,217,1.00,-7.00,-996.00
2024-06-06 23:55:21.272280,0,0,-9,0,0,0,75,77,126,70,43,95.40,217,-1.00,-4.00,-995.00
2024-06-06 23:55:21.385452,0,0,-9,0,0,0,75,77,126,70,43,95.30,217,0.00,14.00,-1015.00
2024-06-06 23:55:21.425328,0,0,-9,0,0,0,75,77,125,70,43,95.36,217,-6.00,-3.00,-997.00
2024-06-06 23:55:21.591306,0,0,-9,0,0,0,75,77,126,70,43,95.14,217,-4.00,-4.00,-1004.00
2024-06-06 23:55:21.630162,0,0,-9,0,0,0,75,77,126,70,43,95.52,217,-7.00,-2.00,-993.00
2024-06-06 23:55:21.795710,0,0,-9,0,0,0,75,77,126,70,43,95.39,217,-1.00,-12.00,-994.00
2024-06-06 23:55:21.833004,0,0,-9,0,0,0,75,77,126,70,43,95.49,217,-5.00,0.00,-997.00
2024-06-06 23:55:21.934980,0,0,-9,0,0,0,74,78,126,70,43,95.14,217,-6.00,-2.00,-1013.00
2024-06-06 23:55:22.120892,0,0,-9,0,0,0,74,78,126,70,43,95.12,217,-8.00,-12.00,-993.00
2024-06-06 23:55:22.138906,0,0,-9,0,0,0,74,78,125,70,43,95.25,218,-16.00,-1.00,-995.00
2024-06-06 23:55:22.321986,0,0,-9,0,0,0,74,78,125,70,43,95.18,218,6.00,-16.00,-993.00
2024-06-06 23:55:22.342953,0,0,-9,0,0,0,74,78,126,70,43,95.43,218,-8.00,-7.00,-1008.00
2024-06-06 23:55:22.489576,0,0,-9,0,0,0,74,78,126,70,43,95.32,218,-4.00,-8.00,-1008.00
2024-06-06 23:55:22.582848,0,0,-9,0,0,0,74,78,126,70,43,95.30,218,-5.00,-13.00,-1001.00
2024-06-06 23:55:22.652676,0,0,-9,0,0,0,74,78,125,70,43,95.40,218,-2.00,-6.00,-1001.00
2024-06-06 23:55:22.751397,0,0,-9,0,0,0,74,78,125,70,43,95.12,218,3.00,-13.00,-1000.00
2024-06-06 23:55:22.877333,0,0,-9,0,0,0,74,78,125,70,43,95.14,218,-3.00,-1.00,-1021.00
2024-06-06 23:55:23.074330,0,0,-9,0,0,0,75,78,125,70,43,95.33,218,-4.00,-5.00,-1003.00
2024-06-06 23:55:23.074529,0,0,-9,0,0,0,75,78,125,70,43,95.43,218,-8.00,-2.00,-1012.00
2024-06-06 23:55:23.165403,0,0,-9,0,0,0,75,78,126,70,43,95.36,219,-20.00,-3.00,-1005.00
2024-06-06 23:55:23.309206,0,0,-9,0,0,0,75,78,125,70,43,95.08,219,-29.00,-6.00,-994.00
2024-06-06 23:55:23.362883,0,0,-9,0,0,0,75,78,125,70,43,95.28,219,-2.00,-3.00,-992.00
2024-06-06 23:55:23.548620,0,0,-9,0,0,0,75,78,126,70,43,95.24,219,-9.00,0.00,-997.00
2024-06-06 23:55:23.566935,0,0,-9,0,0,0,75,78,126,70,43,95.29,219,-12.00,-11.00,-991.00
2024-06-06 23:55:23.692075,0,0,-9,0,0,0,75,78,125,70,43,95.42,219,-4.00,-15.00,-996.00
2024-06-06 23:55:23.854379,0,0,-9,0,0,0,75,78,126,70,43,95.37,219,-8.00,-16.00,-991.00
2024-06-06 23:55:23.873592,0,0,-9,0,0,0,75,78,126,70,43,95.48,219,-2.00,-13.00,-995.00
2024-06-06 23:55:23.997774,0,0,-9,0,0,0,75,78,126,70,43,95.22,219,-10.00,-10.00,-995.00
2024-06-06 23:55:24.161152,0,0,-9,0,0,0,75,78,126,70,43,95.33,219,0.00,-13.00,-991.00
2024-06-06 23:55:24.181295,0,0,-9,0,0,0,75,78,127,70,43,95.20,220,0.00,-9.00,-999.00
2024-06-06 23:55:24.291713,0,0,-9,0,0,0,75,78,126,70,43,95.29,220,-6.00,-10.00,-990.00
2024-06-06 23:55:24.385860,0,0,-9,0,0,0,75,78,126,70,43,95.25,220,-8.00,-13.00,-997.00
2024-06-06 23:55:24.488130,0,0,-9,0,0,0,75,78,126,70,43,95.37,220,-5.00,-12.00,-999.00
2024-06-06 23:55:24.590502,0,0,-9,0,0,0,75,78,126,70,42,95.16,220,-5.00,-15.00,-995.00
2024-06-06 23:55:24.689208,0,0,-9,0,0,0,75,78,126,70,42,95.42,220,-6.00,1.00,-1004.00
2024-06-06 23:55:24.868555,0,0,-9,0,0,0,75,78,126,70,42,95.18,220,-12.00,-9.00,-1000.00
2024-06-06 23:55:24.897569,0,0,-9,0,0,0,75,78,126,70,42,95.26,220,-5.00,-6.00,-1011.00
2024-06-06 23:55:24.996422,0,0,-9,0,0,0,75,78,125,70,42,95.03,220,-2.00,3.00,-1016.00
2024-06-06 23:55:25.096884,0,0,-9,0,0,0,75,78,126,70,42,95.20,220,5.00,-9.00,-1007.00
2024-06-06 23:55:25.198942,0,0,-9,0,0,0,75,78,126,70,42,95.07,221,-7.00,-14.00,-1003.00
2024-06-06 23:55:25.379468,0,0,-9,0,0,0,75,78,126,70,42,95.16,221,-18.00,-2.00,-999.00
2024-06-06 23:55:25.379630,0,0,-9,0,0,0,75,78,126,70,42,95.31,221,-13.00,-8.00,-995.00
2024-06-06 23:55:25.455298,0,0,-9,0,0,0,75,78,126,70,42,95.18,221,-11.00,0.00,-995.00
2024-06-06 23:55:25.558162,0,0,-9,0,0,0,75,78,126,70,42,95.43,221,0.00,-10.00,-1001.00
2024-06-06 23:55:25.658688,0,0,-9,0,0,0,75,78,126,70,42,95.43,221,-2.00,-11.00,-994.00
2024-06-06 23:55:25.760097,0,0,-9,0,0,0,75,78,126,70,42,95.43,221,-10.00,-18.00,-991.00
2024-06-06 23:55:25.891619,0,0,-9,0,0,0,75,78,126,70,42,95.36,221,-4.00,-12.00,-999.00
2024-06-06 23:55:25.963804,0,0,-9,0,0,0,76,78,127,70,42,95.40,221,-8.00,-9.00,-1002.00
2024-06-06 23:55:26.095650,0,0,-9,0,0,0,76,78,126,70,42,95.42,221,-3.00,-9.00,-1001.00
2024-06-06 23:55:26.167960,0,0,-9,0,0,0,76,78,127,70,42,95.33,222,-2.00,-17.00,-996.00
2024-06-06 23:55:26.300491,0,0,-9,0,0,0,76,78,126,70,42,95.28,222,-19.00,2.00,-997.00
2024-06-06 23:55:26.385474,0,0,-9,0,0,0,76,78,126,70,42,95.34,222,-11.00,-4.00,-997.00
2024-06-06 23:55:26.473723,0,0,-9,0,0,0,76,78,125,70,42,95.16,222,-2.00,-4.00,-1006.00
2024-06-06 23:55:26.607591,0,0,-9,0,0,0,76,78,126,70,42,95.26,222,-12.00,-15.00,-994.00
2024-06-06 23:55:26.677571,0,0,-9,0,0,0,76,78,126,70,42,95.32,222,-8.00,-9.00,-1002.00
2024-06-06 23:55:26.813176,0,0,-9,0,0,0,76,78,127,70,42,95.28,222,-4.00,-5.00,-997.00
2024-06-06 23:55:26.881745,0,0,-9,0,0,0,76,78,127,70,42,95.21,222,-3.00,-8.00,-997.00
2024-06-06 23:55:27.018017,0,0,-9,0,0,0,75,77,127,70,42,95.34,222,-7.00,-6.00,-997.00
2024-06-06 23:55:27.086260,0,0,-9,0,0,0,75,77,127,70,42,95.14,222,-6.00,-14.00,-1005.00
2024-06-06 23:55:27.222804,0,0,-9,0,0,0,75,77,127,70,42,95.38,223,-9.00,-6.00,-1002.00
2024-06-06 23:55:27.289849,0,0,-9,0,0,0,75,77,127,70,42,95.18,223,-6.00,-6.00,-989.00
2024-06-06 23:55:27.427946,0,0,-9,0,0,0,75,77,127,70,42,95.20,223,-10.00,-9.00,-996.00
2024-06-06 23:55:27.493856,0,0,-9,0,0,0,75,77,127,70,42,95.53,223,-12.00,7.00,-1002.00
2024-06-06 23:55:27.632107,0,0,-9,0,0,0,75,77,127,70,42,95.16,223,0.00,-5.00,-991.00
2024-06-06 23:55:27.697617,0,0,-9,0,0,0,75,77,127,70,42,95.21,223,-5.00,-20.00,-992.00
