TS,pitch,roll,yaw,vgx,vgy,vgz,templ,temph,tof,h,bat,baro,time,agx,agy,agz
2024-06-07 14:50:28.608704,1,0,0,0,0,0,61,63,10,0,79,132.42,0,25.00,-8.00,-996.00
2024-06-07 14:50:28.727014,1,0,0,0,0,0,61,63,10,0,79,132.66,0,23.00,-8.00,-1000.00
2024-06-07 14:50:28.812255,1,0,0,0,0,0,61,63,10,0,79,132.53,0,23.00,-7.00,-999.00
2024-06-07 14:50:28.915202,1,0,0,0,0,0,61,63,10,0,79,132.61,0,24.00,-8.00,-999.00
2024-06-07 14:50:29.069120,1,0,0,0,0,0,61,63,10,0,79,132.84,0,24.00,-8.00,-999.00
2024-06-07 14:50:29.211804,1,0,0,0,0,0,61,63,10,0,79,132.48,0,24.00,-9.00,-999.00
2024-06-07 14:50:29.220960,1,0,0,0,0,0,61,63,10,0,79,132.55,0,24.00,-8.00,-1000.00
2024-06-07 14:50:29.344867,1,0,0,0,0,0,61,63,10,0,79,132.69,0,24.00,-8.00,-996.00
2024-06-07 14:50:29.491846,1,0,0,0,0,0,61,63,10,0,79,132.63,0,24.00,-8.00,-1002.00
2024-06-07 14:50:29.526982,1,0,0,0,0,0,61,63,10,0,79,132.51,0,23.00,-8.00,-999.00
2024-06-07 14:50:29.662412,1,0,0,0,0,0,61,63,10,0,79,132.48,0,24.00,-7.00,-999.00
2024-06-07 14:50:29.795750,1,0,0,0,0,0,61,63,10,0,79,132.43,0,23.00,-9.00,-997.00
2024-06-07 14:50:29.832875,1,0,0,0,0,0,61,63,10,0,79,132.40,0,24.00,-8.00,-998.00
2024-06-07 14:50:29.969751,1,0,0,0,0,0,61,63,10,0,79,132.95,0,23.00,-8.00,-1000.00
2024-06-07 14:50:30.118170,1,0,0,0,0,0,61,63,10,0,79,132.68,0,23.00,-7.00,-1000.00
2024-06-07 14:50:30.138819,1,0,0,0,0,0,61,63,10,0,79,132.50,0,24.00,-8.00,-1001.00
2024-06-07 14:50:30.263991,1,0,0,0,0,0,61,63,10,0,79,132.53,0,22.00,-8.00,-998.00
2024-06-07 14:50:30.418834,1,0,0,0,0,0,61,63,10,0,79,132.43,0,23.00,-8.00,-998.00
2024-06-07 14:50:30.419816,1,0,0,0,0,0,61,63,10,0,79,132.71,0,24.00,-8.00,-997.00
2024-06-07 14:50:30.495977,1,0,0,0,0,0,61,63,10,0,79,132.63,0,23.00,-8.00,-998.00
2024-06-07 14:50:30.649412,1,0,0,0,0,0,61,63,10,0,79,132.58,0,24.00,-7.00,-999.00
2024-06-07 14:50:30.713717,1,0,0,0,0,0,61,63,10,0,79,132.41,0,25.00,-7.00,-997.00
2024-06-07 14:50:30.887914,1,0,0,0,0,0,61,63,10,0,79,132.70,0,24.00,-8.00,-999.00
2024-06-07 14:50:30.903955,1,0,0,0,0,0,61,63,10,0,79,132.83,0,22.00,-7.00,-998.00
2024-06-07 14:50:31.032379,1,0,0,0,0,0,61,63,10,0,79,132.67,0,22.00,-8.00,-998.00
2024-06-07 14:50:31.200940,1,0,0,0,0,0,61,63,10,0,79,132.57,0,23.00,-7.00,-1000.00
2024-06-07 14:50:31.210037,1,0,0,0,0,0,61,63,10,0,79,132.70,0,23.00,-8.00,-1000.00
2024-06-07 14:50:31.339217,1,0,0,0,0,0,61,63,10,0,79,132.60,0,22.00,-9.00,-1000.00
2024-06-07 14:50:31.502618,1,0,0,0,0,0,61,63,10,0,79,132.58,0,24.00,-9.00,-1000.00
2024-06-07 14:50:31.515938,1,0,0,0,0,0,61,63,10,0,79,132.58,0,20.00,-2.00,-1009.00
2024-06-07 14:50:31.659832,0,0,0,0,0,0,61,63,10,0,79,132.58,0,0.00,-11.00,-1003.00
2024-06-07 14:50:31.721302,0,0,0,0,0,0,61,63,10,0,79,132.58,0,1.00,-4.00,-993.00
2024-06-07 14:50:31.822892,0,1,0,0,0,0,61,63,10,0,79,132.58,0,1.00,-8.00,-1006.00
2024-06-07 14:50:32.003614,0,1,0,0,0,0,61,63,10,0,79,132.58,0,-1.00,4.00,-1070.00
2024-06-07 14:50:32.025815,0,0,0,0,0,-1,61,63,10,0,79,132.58,0,0.00,19.00,-1196.00
2024-06-07 14:50:32.208346,0,0,0,0,0,-3,61,63,11,0,79,132.58,0,10.00,48.00,-1318.00
2024-06-07 14:50:32.229951,0,-1,0,0,1,-6,61,63,11,0,79,132.58,0,2.00,73.00,-1159.00
2024-06-07 14:50:32.413216,1,-2,0,0,1,-7,61,63,14,10,79,132.93,0,0.00,75.00,-1077.00
2024-06-07 14:50:32.433833,1,-4,0,0,1,-7,61,63,22,20,79,133.18,1,10.00,69.00,-1012.00
2024-06-07 14:50:32.535629,0,-5,0,0,1,-7,62,64,30,30,79,133.06,1,13.00,61.00,-968.00
2024-06-07 14:50:32.639091,0,-4,0,0,1,-7,62,64,39,30,79,133.41,1,10.00,68.00,-926.00
2024-06-07 14:50:32.688599,0,-5,0,0,1,-6,62,64,47,40,79,133.36,1,11.00,67.00,-907.00
2024-06-07 14:50:32.822781,0,-5,0,0,1,-5,62,64,53,50,79,133.33,1,9.00,71.00,-871.00
2024-06-07 14:50:32.895358,0,-5,0,0,1,-4,62,64,59,50,79,133.36,1,-1.00,79.00,-887.00
2024-06-07 14:50:32.994603,0,-5,0,0,1,-3,62,64,64,50,79,133.72,1,-4.00,80.00,-891.00
2024-06-07 14:50:33.132587,0,-6,0,0,1,-2,62,64,68,60,79,133.35,1,1.00,89.00,-917.00
2024-06-07 14:50:33.198525,0,-6,0,0,0,-1,62,64,70,60,79,133.56,1,2.00,78.00,-927.00
2024-06-07 14:50:33.300762,0,-6,0,0,0,-1,62,64,72,60,79,133.42,1,0.00,87.00,-947.00
2024-06-07 14:50:33.402752,0,-6,0,0,0,-1,62,64,74,60,79,133.25,2,-3.00,80.00,-949.00
2024-06-07 14:50:33.504536,0,-6,0,0,0,0,62,65,75,60,79,133.61,2,-18.00,85.00,-969.00
2024-06-07 14:50:33.643275,0,-6,0,0,0,0,62,65,76,70,78,133.56,2,-9.00,90.00,-988.00
2024-06-07 14:50:33.708512,0,-6,0,0,0,0,62,65,77,70,78,133.65,2,-20.00,92.00,-1003.00
2024-06-07 14:50:33.846795,-1,-6,0,0,0,0,62,65,77,70,78,133.69,2,-23.00,84.00,-988.00
2024-06-07 14:50:33.912555,-1,-6,0,0,0,0,62,65,78,70,78,133.61,2,-17.00,76.00,-984.00
2024-06-07 14:50:34.051492,-1,-5,0,0,0,0,62,65,79,70,78,133.39,2,-22.00,92.00,-1000.00
2024-06-07 14:50:34.116532,-1,-5,0,0,0,0,62,65,79,70,78,133.62,2,-9.00,90.00,-1005.00
2024-06-07 14:50:34.219205,-1,-5,0,0,0,0,62,65,79,70,78,133.79,2,-15.00,91.00,-998.00
2024-06-07 14:50:34.358806,-1,-5,0,0,0,0,62,65,81,70,78,133.60,2,-24.00,88.00,-983.00
2024-06-07 14:50:34.422489,-1,-5,0,0,0,0,62,65,82,70,78,133.43,3,-22.00,84.00,-1001.00
2024-06-07 14:50:34.524467,-1,-5,0,0,0,0,63,64,82,70,78,133.53,3,-10.00,91.00,-984.00
2024-06-07 14:50:34.667731,-1,-5,0,0,0,0,63,64,82,70,78,133.34,3,-4.00,82.00,-981.00
2024-06-07 14:50:34.728451,-1,-5,0,0,0,0,63,64,83,70,78,133.82,3,-4.00,81.00,-986.00
2024-06-07 14:50:34.872824,-1,-5,0,0,0,0,63,64,84,70,78,133.31,3,-8.00,91.00,-999.00
2024-06-07 14:50:34.932837,-1,-5,0,0,0,0,63,64,83,70,78,133.28,3,-20.00,84.00,-985.00
2024-06-07 14:50:35.034490,-1,-5,0,0,0,0,63,64,83,70,78,133.41,3,-8.00,87.00,-989.00
2024-06-07 14:50:35.180277,0,-5,0,0,0,0,63,64,84,70,78,133.64,3,-7.00,73.00,-991.00
2024-06-07 14:50:35.238440,0,-5,0,0,0,0,63,64,84,70,78,133.59,3,-11.00,94.00,-995.00
2024-06-07 14:50:35.289682,-1,-4,0,0,0,0,63,64,84,70,78,133.70,3,5.00,94.00,-982.00
2024-06-07 14:50:35.391868,0,-5,0,0,0,0,63,64,84,70,78,133.37,4,-12.00,97.00,-988.00
2024-06-07 14:50:35.587462,0,-5,0,0,0,0,63,64,84,70,78,133.54,4,-7.00,90.00,-1017.00
2024-06-07 14:50:35.596905,0,-5,0,0,0,0,63,64,84,70,78,133.70,4,2.00,103.00,-979.00
2024-06-07 14:50:35.792490,0,-5,0,0,0,0,63,64,84,70,78,133.56,4,-12.00,104.00,-998.00
2024-06-07 14:50:35.801269,0,-5,0,0,0,0,63,64,83,70,78,133.32,4,-11.00,95.00,-999.00
2024-06-07 14:50:35.902986,0,-6,0,0,0,0,63,64,84,70,78,133.43,4,-24.00,84.00,-994.00
2024-06-07 14:50:36.004764,-1,-6,0,0,0,0,63,64,84,70,78,133.39,4,-19.00,68.00,-1001.00
2024-06-07 14:50:36.202396,-1,-4,0,0,0,0,63,64,83,70,78,133.41,4,-35.00,90.00,-986.00
2024-06-07 14:50:36.208586,-2,-4,0,0,0,0,63,64,83,70,78,133.39,4,-25.00,84.00,-1001.00
2024-06-07 14:50:36.332020,-2,-4,0,0,0,0,63,64,82,70,78,133.68,4,-20.00,91.00,-998.00
2024-06-07 14:50:36.414010,-2,-5,0,0,0,0,63,64,82,70,78,133.37,5,-18.00,90.00,-998.00
2024-06-07 14:50:36.514632,-1,-5,0,0,0,0,62,65,83,70,78,133.31,5,-7.00,101.00,-1003.00
2024-06-07 14:50:36.616857,-1,-5,0,0,0,0,62,65,83,70,77,133.46,5,-5.00,109.00,-989.00
2024-06-07 14:50:36.718844,-1,-5,0,0,0,0,62,65,82,70,77,133.39,5,-6.00,100.00,-996.00
2024-06-07 14:50:36.820515,-1,-6,0,0,0,0,62,65,82,70,77,133.19,5,-8.00,95.00,-1001.00
2024-06-07 14:50:37.021470,0,-6,0,0,0,0,62,65,82,70,77,133.12,5,-30.00,100.00,-985.00
2024-06-07 14:50:37.024414,-1,-6,0,0,0,0,62,65,82,70,77,133.40,5,-23.00,91.00,-984.00
2024-06-07 14:50:37.126831,-1,-5,0,0,0,0,62,65,83,70,77,133.38,5,-24.00,81.00,-983.00
2024-06-07 14:50:37.231869,-1,-5,0,0,0,0,62,65,83,70,77,133.40,5,-27.00,87.00,-989.00
2024-06-07 14:50:37.330673,-1,-4,0,0,0,0,62,65,83,70,77,133.31,5,-9.00,77.00,-997.00
2024-06-07 14:50:37.534929,-1,-4,0,0,0,0,62,65,84,70,77,133.40,6,-14.00,87.00,-997.00
2024-06-07 14:50:37.536536,-1,-5,0,0,0,0,62,65,84,70,77,133.38,6,-11.00,96.00,-982.00
2024-06-07 14:50:37.638731,-1,-5,0,0,0,0,62,65,84,70,77,133.38,6,-17.00,99.00,-992.00
2024-06-07 14:50:37.740053,0,-5,0,0,0,0,62,65,84,70,77,133.44,6,-13.00,100.00,-982.00
2024-06-07 14:50:37.841712,0,-5,0,0,0,0,62,65,84,70,77,133.64,6,-5.00,90.00,-978.00
2024-06-07 14:50:38.045141,-1,-5,0,0,0,0,62,65,85,70,77,133.50,6,-6.00,91.00,-1025.00
2024-06-07 14:50:38.045309,-1,-5,0,0,0,0,62,65,86,70,77,133.27,6,-13.00,98.00,-1080.00
2024-06-07 14:50:38.147771,0,-5,0,0,0,-1,62,65,88,80,77,133.52,6,-12.00,90.00,-1090.00
2024-06-07 14:50:38.249925,0,-5,0,0,0,-2,62,65,90,80,77,133.67,6,-33.00,99.00,-1093.00
2024-06-07 14:50:38.352299,-1,-5,0,0,0,-3,62,65,92,80,77,133.58,6,-31.00,91.00,-1073.00
2024-06-07 14:50:38.455193,-2,-5,0,0,0,-4,62,65,98,80,77,133.12,7,-34.00,85.00,-1059.00
2024-06-07 14:50:38.557368,-2,-5,0,0,0,-4,62,64,104,90,77,133.43,7,-21.00,87.00,-1046.00
2024-06-07 14:50:38.657561,-2,-5,0,0,0,-5,62,64,108,90,76,133.53,7,-5.00,91.00,-1013.00
2024-06-07 14:50:38.762043,-1,-5,0,0,0,-5,62,64,113,100,76,133.62,7,1.00,89.00,-1017.00
2024-06-07 14:50:38.861752,-1,-5,0,0,0,-5,62,64,119,110,76,133.83,7,-5.00,82.00,-1000.00
2024-06-07 14:50:38.963440,0,-5,0,0,0,-5,62,64,125,110,76,133.87,7,-22.00,84.00,-1002.00
2024-06-07 14:50:39.015429,0,-5,0,0,0,-5,62,64,131,120,76,133.55,7,-21.00,90.00,-989.00
2024-06-07 14:50:39.116328,-1,-5,0,0,0,-5,62,64,138,120,76,133.86,7,-26.00,86.00,-983.00
2024-06-07 14:50:39.218907,-2,-5,0,0,0,-5,62,64,143,130,76,133.82,7,-26.00,86.00,-959.00
2024-06-07 14:50:39.320371,-2,-5,0,0,0,-5,62,64,149,130,76,133.96,7,-31.00,88.00,-951.00
2024-06-07 14:50:39.422533,-2,-5,0,0,0,-4,62,64,153,140,76,133.53,8,-25.00,89.00,-957.00
2024-06-07 14:50:39.581279,-2,-5,0,0,0,-4,63,65,160,140,76,134.01,8,-38.00,79.00,-948.00
2024-06-07 14:50:39.626383,-2,-5,0,0,0,-4,63,65,163,150,76,134.18,8,-12.00,59.00,-959.00
2024-06-07 14:50:39.792839,-1,-5,0,0,0,-3,63,65,166,150,76,134.02,8,-40.00,76.00,-955.00
2024-06-07 14:50:39.830157,-2,-5,0,0,0,-3,63,65,170,160,76,134.08,8,-46.00,75.00,-964.00
2024-06-07 14:50:39.935921,-2,-4,0,0,0,-3,63,65,177,160,76,134.28,8,-39.00,78.00,-957.00
2024-06-07 14:50:40.034418,-2,-4,0,0,0,-2,63,65,178,160,76,134.07,8,-22.00,64.00,-958.00
2024-06-07 14:50:40.199910,-3,-4,0,0,0,-2,63,65,183,170,76,134.30,8,-33.00,81.00,-973.00
2024-06-07 14:50:40.238106,-3,-4,0,0,0,-2,63,65,182,170,76,134.13,8,-36.00,82.00,-970.00
2024-06-07 14:50:40.342056,-2,-4,0,0,0,-1,63,65,185,170,76,134.21,8,-18.00,67.00,-945.00
2024-06-07 14:50:40.444095,-2,-4,0,0,0,-1,63,65,185,170,76,134.38,9,-22.00,81.00,-953.00
2024-06-07 14:50:40.544234,-2,-4,0,0,0,0,63,65,186,170,75,134.01,9,-19.00,81.00,-958.00
2024-06-07 14:50:40.707474,-2,-4,0,0,0,0,63,65,187,170,75,134.05,9,-40.00,81.00,-950.00
2024-06-07 14:50:40.748287,-2,-5,0,0,0,0,63,65,188,180,75,134.10,9,-34.00,75.00,-986.00
2024-06-07 14:50:40.912433,-2,-4,0,0,0,0,63,65,189,180,75,134.17,9,-45.00,86.00,-985.00
2024-06-07 14:50:40.952304,-2,-4,0,0,0,0,63,65,189,180,75,134.26,9,-30.00,72.00,-975.00
2024-06-07 14:50:41.117445,-3,-4,0,0,0,0,63,65,187,180,75,134.44,9,-31.00,81.00,-1008.00
2024-06-07 14:50:41.156132,-3,-4,0,0,0,0,63,65,186,180,75,134.31,9,-24.00,72.00,-993.00
2024-06-07 14:50:41.324916,-2,-4,0,0,0,0,63,65,188,180,75,134.26,9,-49.00,82.00,-973.00
2024-06-07 14:50:41.361789,-2,-5,0,0,0,0,63,65,189,180,75,134.37,9,-49.00,72.00,-998.00
2024-06-07 14:50:41.462302,-2,-4,0,0,0,0,63,65,191,180,75,134.42,10,-36.00,63.00,-990.00
2024-06-07 14:50:41.629272,-2,-4,0,0,0,0,64,65,189,180,75,134.09,10,-39.00,73.00,-993.00
2024-06-07 14:50:41.666225,-3,-3,0,0,0,0,64,65,187,180,75,134.40,10,-41.00,69.00,-996.00
2024-06-07 14:50:41.835538,-2,-4,0,0,0,0,64,65,191,180,75,134.20,10,-24.00,65.00,-995.00
2024-06-07 14:50:41.870152,-2,-4,0,0,0,0,64,65,189,180,75,134.18,10,-36.00,75.00,-1008.00
2024-06-07 14:50:42.038897,-2,-4,0,0,0,0,64,65,190,180,75,134.31,10,-43.00,78.00,-975.00
2024-06-07 14:50:42.075546,-2,-4,0,0,0,0,64,65,191,180,75,134.11,10,-35.00,85.00,-990.00
2024-06-07 14:50:42.176437,-3,-4,0,0,0,0,64,65,189,180,75,134.19,10,-39.00,74.00,-985.00
2024-06-07 14:50:42.295959,-3,-4,0,0,0,0,64,65,190,180,75,134.16,10,-25.00,72.00,-996.00
2024-06-07 14:50:42.380468,-2,-4,0,0,0,0,64,65,190,180,75,134.19,10,-28.00,85.00,-980.00
2024-06-07 14:50:42.482125,-2,-4,0,0,0,0,64,65,190,180,75,134.57,11,-21.00,85.00,-968.00
2024-06-07 14:50:42.653086,-2,-4,0,0,0,0,63,65,189,180,74,134.26,11,-31.00,84.00,-942.00
2024-06-07 14:50:42.686018,-2,-4,0,0,0,0,63,65,188,180,74,134.20,11,-29.00,81.00,-930.00
2024-06-07 14:50:42.857888,-2,-4,0,0,0,1,63,65,187,180,74,134.39,11,-24.00,81.00,-956.00
2024-06-07 14:50:42.890068,-1,-5,0,0,0,1,63,65,185,170,74,134.24,11,-37.00,84.00,-966.00
2024-06-07 14:50:43.062701,-2,-5,0,0,0,2,63,65,183,170,74,134.71,11,-32.00,83.00,-954.00
2024-06-07 14:50:43.094232,-2,-5,0,0,0,2,63,65,184,170,74,134.26,11,-38.00,85.00,-961.00
2024-06-07 14:50:43.145238,-2,-5,0,0,0,2,63,65,179,170,74,134.03,11,-27.00,87.00,-985.00
2024-06-07 14:50:43.267494,-2,-5,0,0,0,2,63,65,178,170,74,134.14,11,-21.00,89.00,-1003.00
2024-06-07 14:50:43.349361,-2,-5,0,0,0,2,63,65,172,160,74,134.21,11,-32.00,74.00,-1008.00
2024-06-07 14:50:43.475048,-2,-5,0,0,0,2,63,65,171,160,74,134.29,12,-24.00,96.00,-996.00
2024-06-07 14:50:43.553546,-2,-5,0,0,0,2,64,66,166,160,74,134.12,12,-27.00,87.00,-1014.00
2024-06-07 14:50:43.677086,-2,-5,0,0,0,2,64,66,166,150,74,133.99,12,-15.00,88.00,-1002.00
2024-06-07 14:50:43.757218,-2,-5,0,0,0,2,64,66,162,150,74,133.90,12,-22.00,89.00,-1012.00
2024-06-07 14:50:43.881910,-2,-5,0,0,0,2,64,66,161,150,74,133.94,12,-23.00,84.00,-1013.00
2024-06-07 14:50:43.961156,-1,-5,0,0,0,2,64,66,156,150,74,133.93,12,-33.00,89.00,-1024.00
2024-06-07 14:50:44.086684,-1,-5,0,0,0,2,64,66,154,140,74,133.96,12,-39.00,95.00,-1014.00
2024-06-07 14:50:44.165156,-1,-4,0,0,0,2,64,66,153,140,74,134.10,12,-18.00,78.00,-1014.00
2024-06-07 14:50:44.291430,-2,-5,0,0,0,1,64,66,152,140,74,133.86,12,-25.00,87.00,-1014.00
2024-06-07 14:50:44.368904,-2,-4,0,0,0,1,64,66,149,140,74,134.01,12,-30.00,86.00,-1009.00
2024-06-07 14:50:44.598833,-2,-4,0,0,0,1,64,66,149,140,74,133.74,13,-32.00,74.00,-1007.00
2024-06-07 14:50:44.599292,-1,-5,0,0,0,1,64,66,147,140,73,133.88,13,-27.00,75.00,-1020.00
2024-06-07 14:50:44.675086,-1,-4,0,0,0,1,64,66,143,130,73,133.65,13,-35.00,86.00,-994.00
2024-06-07 14:50:44.778138,-1,-4,0,0,0,1,64,66,144,130,73,133.83,13,-28.00,80.00,-1016.00
2024-06-07 14:50:44.906928,-2,-4,0,0,0,1,64,66,142,130,73,133.65,13,-40.00,80.00,-1012.00
2024-06-07 14:50:44.981716,-2,-4,0,0,0,0,64,66,142,130,73,133.99,13,-22.00,91.00,-1029.00
2024-06-07 14:50:45.110758,-2,-4,0,0,0,0,64,66,140,130,73,133.94,13,-21.00,85.00,-1009.00
2024-06-07 14:50:45.186052,-2,-4,0,0,0,0,64,66,141,130,73,133.90,13,-15.00,94.00,-1020.00
2024-06-07 14:50:45.287167,-1,-5,0,0,0,0,64,66,141,130,73,133.84,13,3.00,72.00,-1017.00
2024-06-07 14:50:45.389205,-1,-5,0,0,0,0,64,66,141,130,73,133.98,13,0.00,63.00,-985.00
2024-06-07 14:50:45.493017,0,-4,0,0,0,0,64,66,139,130,73,133.78,14,-20.00,68.00,-1011.00
2024-06-07 14:50:45.593171,0,-4,0,0,0,0,64,66,141,130,73,133.79,14,-22.00,72.00,-1015.00
2024-06-07 14:50:45.695397,-1,-4,0,0,0,0,64,66,141,130,73,133.92,14,-34.00,65.00,-995.00
2024-06-07 14:50:45.827647,-1,-4,0,0,0,0,64,66,141,130,73,133.46,14,-39.00,62.00,-993.00
2024-06-07 14:50:45.899232,-1,-4,0,0,0,0,64,66,141,130,73,133.84,14,-39.00,64.00,-992.00
2024-06-07 14:50:46.034320,-1,-3,0,0,0,0,64,66,141,130,73,133.77,14,-38.00,68.00,-982.00
2024-06-07 14:50:46.103066,-2,-3,0,0,0,0,64,66,140,130,73,133.92,14,-37.00,62.00,-980.00
2024-06-07 14:50:46.237212,-2,-3,0,0,0,0,64,66,141,130,73,133.93,14,-32.00,72.00,-989.00
2024-06-07 14:50:46.307153,-2,-3,0,0,0,0,64,66,143,130,73,133.75,14,-26.00,68.00,-982.00
2024-06-07 14:50:46.409473,-2,-3,0,0,0,0,64,66,142,130,73,133.50,14,-25.00,77.00,-1008.00
2024-06-07 14:50:46.511234,-2,-3,0,0,0,0,64,66,143,130,73,133.78,15,-11.00,77.00,-977.00
2024-06-07 14:50:46.615889,-2,-3,0,0,0,0,65,66,141,130,72,133.84,15,-18.00,78.00,-1001.00
2024-06-07 14:50:46.715194,-1,-3,0,0,0,0,65,66,141,130,72,133.94,15,-6.00,75.00,-995.00
2024-06-07 14:50:46.853832,-1,-4,0,0,0,0,65,66,143,130,72,133.75,15,-30.00,67.00,-996.00
2024-06-07 14:50:46.867956,-1,-4,0,0,0,0,65,66,142,130,72,133.84,15,-30.00,68.00,-1013.00
2024-06-07 14:50:46.969706,-2,-3,0,0,0,0,65,66,141,130,72,133.83,15,-35.00,88.00,-1002.00
2024-06-07 14:50:47.071716,-2,-4,0,0,0,0,65,66,142,130,72,133.91,15,-24.00,68.00,-1007.00
2024-06-07 14:50:47.173747,-5,-4,0,0,0,0,65,66,142,130,72,133.94,15,-34.00,66.00,-988.00
2024-06-07 14:50:47.275784,-8,-3,0,1,0,0,65,66,143,130,72,133.92,15,-40.00,61.00,-999.00
2024-06-07 14:50:47.377746,-8,-3,0,2,0,0,65,66,143,130,72,133.91,15,-37.00,68.00,-1001.00
2024-06-07 14:50:47.568805,-8,-3,0,3,0,0,65,66,144,130,72,133.86,16,-32.00,77.00,-993.00
2024-06-07 14:50:47.581804,-7,-3,0,4,0,0,64,67,142,130,72,133.71,16,-37.00,49.00,-1008.00
2024-06-07 14:50:47.773009,-7,-4,0,4,0,0,64,67,143,130,72,133.47,16,-45.00,55.00,-992.00
2024-06-07 14:50:47.786924,-8,-4,0,5,0,0,64,67,143,130,72,133.74,16,-59.00,70.00,-989.00
2024-06-07 14:50:47.978344,-7,-4,0,6,0,0,64,67,143,130,72,133.88,16,-52.00,59.00,-1008.00
2024-06-07 14:50:47.989710,-7,-4,0,6,0,0,64,67,143,130,72,133.53,16,-61.00,65.00,-985.00
2024-06-07 14:50:48.091652,-7,-4,0,7,0,0,64,67,144,130,72,133.76,16,-62.00,59.00,-1012.00
2024-06-07 14:50:48.193710,-4,-6,0,7,0,0,64,67,140,130,72,133.92,16,-86.00,75.00,-1014.00
2024-06-07 14:50:48.389110,-1,-5,0,7,0,0,64,67,141,130,72,133.66,16,-70.00,68.00,-994.00
2024-06-07 14:50:48.397563,1,-4,0,6,0,0,64,67,141,130,72,133.53,16,-63.00,79.00,-1007.00
2024-06-07 14:50:48.502045,2,-2,0,5,0,0,64,67,141,130,72,133.68,17,-57.00,80.00,-982.00
2024-06-07 14:50:48.603836,0,-4,0,3,0,0,65,67,141,130,71,133.60,17,-46.00,74.00,-992.00
2024-06-07 14:50:48.703663,0,-4,0,3,0,0,65,67,141,130,71,133.90,17,-40.00,74.00,-1006.00
2024-06-07 14:50:48.899334,-1,-4,0,3,0,0,65,67,140,130,71,133.91,17,-46.00,67.00,-997.00
2024-06-07 14:50:48.908170,-1,-4,0,3,0,0,65,67,140,130,71,133.67,17,-44.00,75.00,-986.00
2024-06-07 14:50:49.104224,-1,-3,0,3,0,0,65,67,140,130,71,133.97,17,-25.00,77.00,-1006.00
2024-06-07 14:50:49.111791,-1,-4,0,3,0,0,65,67,140,130,71,133.72,17,-17.00,75.00,-993.00
2024-06-07 14:50:49.309322,0,-4,0,2,0,0,65,67,141,130,71,134.18,17,-12.00,67.00,-992.00
2024-06-07 14:50:49.315625,0,-5,0,2,0,0,65,67,140,130,71,133.90,17,-5.00,78.00,-992.00
2024-06-07 14:50:49.417762,1,-7,0,2,0,0,65,67,140,130,71,133.81,18,-5.00,74.00,-1012.00
2024-06-07 14:50:49.520468,2,-8,0,2,0,0,65,67,141,130,71,134.29,18,4.00,47.00,-1014.00
2024-06-07 14:50:49.718608,2,-1,0,1,-1,0,65,67,141,130,71,133.91,18,-2.00,102.00,-971.00
2024-06-07 14:50:49.726351,1,-2,0,1,0,0,65,67,140,130,71,133.92,18,7.00,92.00,-1003.00
2024-06-07 14:50:49.825844,1,-3,0,1,0,0,65,67,139,130,71,134.07,18,4.00,76.00,-987.00
2024-06-07 14:50:50.025985,0,-4,0,1,0,0,65,67,140,130,71,133.95,18,12.00,77.00,-1008.00
2024-06-07 14:50:50.029590,1,-4,0,1,0,0,65,67,140,130,71,133.86,18,15.00,67.00,-1009.00
2024-06-07 14:50:50.131737,1,-4,0,1,0,0,65,67,140,130,71,133.98,18,16.00,74.00,-1006.00
2024-06-07 14:50:50.333395,1,-3,0,0,0,0,65,67,141,130,71,133.55,18,16.00,76.00,-989.00
2024-06-07 14:50:50.335539,1,-4,0,0,0,0,65,67,140,130,71,133.85,18,27.00,69.00,-1000.00
2024-06-07 14:50:50.437657,1,-4,0,0,0,0,65,67,140,130,71,134.22,19,9.00,64.00,-1000.00
2024-06-07 14:50:50.539694,0,-4,0,0,0,0,65,67,141,130,71,134.02,19,17.00,60.00,-990.00
2024-06-07 14:50:50.742667,0,-4,0,0,0,0,65,67,141,130,70,133.77,19,20.00,64.00,-980.00
2024-06-07 14:50:50.743760,0,-4,0,0,0,0,65,67,140,130,70,133.83,19,12.00,63.00,-984.00
2024-06-07 14:50:50.949903,0,-4,0,0,0,0,65,67,140,130,70,133.97,19,-2.00,78.00,-988.00
2024-06-07 14:50:50.950010,0,-4,0,0,0,0,65,67,142,130,70,134.13,19,10.00,67.00,-996.00
2024-06-07 14:50:51.050664,0,-4,0,0,0,0,65,67,140,130,70,133.84,19,22.00,75.00,-992.00
2024-06-07 14:50:51.152699,0,-4,0,0,0,0,65,67,141,130,70,133.72,19,17.00,72.00,-992.00
2024-06-07 14:50:51.205112,0,-4,0,0,0,0,65,67,140,130,70,134.03,19,18.00,72.00,-994.00
2024-06-07 14:50:51.304946,0,-4,0,0,0,0,65,67,141,130,70,133.93,19,0.00,78.00,-984.00
2024-06-07 14:50:51.408370,0,-4,0,0,0,0,65,67,140,130,70,134.17,20,17.00,68.00,-987.00
2024-06-07 14:50:51.508720,0,-4,0,0,0,0,65,67,140,130,70,133.95,20,12.00,80.00,-1021.00
2024-06-07 14:50:51.612942,0,-4,0,0,0,0,65,67,140,130,70,133.74,20,15.00,72.00,-994.00
2024-06-07 14:50:51.712847,0,-4,0,0,0,0,65,67,142,130,70,133.65,20,10.00,85.00,-993.00
2024-06-07 14:50:51.814729,0,-4,0,0,0,0,65,67,141,130,70,133.61,20,-5.00,64.00,-1005.00
2024-06-07 14:50:51.917072,3,-4,0,0,0,0,65,67,140,130,70,134.04,20,0.00,87.00,-993.00
2024-06-07 14:50:52.018841,7,-4,0,-1,0,0,65,67,140,130,70,134.14,20,9.00,74.00,-1014.00
2024-06-07 14:50:52.177962,7,-4,0,-2,0,0,65,67,142,130,70,134.09,20,28.00,69.00,-997.00
2024-06-07 14:50:52.223343,7,-4,0,-3,0,0,65,67,142,130,70,134.10,20,30.00,72.00,-1000.00
2024-06-07 14:50:52.324792,7,-4,0,-4,0,0,65,67,142,130,70,134.03,20,39.00,79.00,-1008.00
2024-06-07 14:50:52.484906,7,-4,0,-5,0,0,65,67,140,130,70,133.97,21,38.00,73.00,-1005.00
2024-06-07 14:50:52.528654,7,-4,0,-6,0,0,65,67,142,130,70,133.99,21,42.00,67.00,-990.00
2024-06-07 14:50:52.633473,5,-5,0,-7,0,0,65,67,140,130,69,134.02,21,43.00,74.00,-1001.00
2024-06-07 14:50:52.737430,4,-4,0,-7,0,0,65,67,140,130,69,134.33,21,46.00,73.00,-1016.00
2024-06-07 14:50:52.835539,1,-4,0,-7,0,0,65,67,139,130,69,134.05,21,52.00,58.00,-994.00
2024-06-07 14:50:52.938267,-1,-4,0,-7,0,0,65,67,139,130,69,134.04,21,45.00,62.00,-1007.00
2024-06-07 14:50:53.039029,-3,-4,0,-6,0,0,65,67,139,130,69,133.81,21,39.00,67.00,-995.00
2024-06-07 14:50:53.200856,-4,-4,0,-5,0,0,65,67,140,130,69,133.97,21,45.00,59.00,-996.00
2024-06-07 14:50:53.242605,-3,-3,0,-4,0,0,65,67,140,130,69,134.14,21,30.00,56.00,-1010.00
2024-06-07 14:50:53.404926,-2,-3,0,-3,0,0,65,67,140,130,69,133.98,21,35.00,40.00,-1001.00
2024-06-07 14:50:53.450223,-1,-3,0,-3,0,0,65,67,140,130,69,133.90,22,24.00,60.00,-1014.00
2024-06-07 14:50:53.549142,-1,-3,0,-3,0,0,65,67,141,130,69,134.03,22,38.00,70.00,-1008.00
2024-06-07 14:50:53.817473,0,-3,0,-3,0,0,66,68,140,130,69,133.88,22,33.00,62.00,-995.00
2024-06-07 14:50:53.817521,-1,-3,0,-3,0,0,66,68,141,130,69,133.93,22,9.00,75.00,-995.00
2024-06-07 14:50:53.854590,-3,-4,0,-2,0,0,66,68,142,130,69,134.35,22,16.00,72.00,-993.00
2024-06-07 14:50:54.019390,-5,-4,0,-2,0,0,66,68,143,130,69,134.04,22,17.00,67.00,-998.00
2024-06-07 14:50:54.058696,-3,-4,0,-1,0,0,66,68,143,130,69,133.91,22,0.00,67.00,-995.00
2024-06-07 14:50:54.224191,-2,-4,0,0,0,0,66,68,144,130,69,133.89,22,6.00,70.00,-998.00
2024-06-07 14:50:54.264828,-1,-4,0,0,0,0,66,68,144,130,69,134.01,22,5.00,75.00,-997.00
2024-06-07 14:50:54.313457,-1,-4,0,0,0,0,66,68,143,130,69,133.68,22,-7.00,73.00,-988.00
2024-06-07 14:50:54.429137,-1,-5,0,0,0,0,66,68,143,130,69,133.84,23,1.00,63.00,-998.00
2024-06-07 14:50:54.517383,-1,-4,0,0,0,0,66,68,145,130,69,133.92,23,-5.00,72.00,-1003.00
2024-06-07 14:50:54.670361,-1,-4,0,0,0,0,66,67,145,130,68,133.85,23,-10.00,66.00,-1006.00
2024-06-07 14:50:54.840564,-1,-4,0,0,0,0,66,67,144,130,68,134.11,23,-13.00,65.00,-992.00
2024-06-07 14:50:54.875176,-1,-4,0,0,0,0,66,67,144,130,68,133.58,23,-21.00,67.00,-988.00
2024-06-07 14:50:54.926604,-1,-4,0,0,0,0,66,67,143,130,68,133.71,23,-14.00,96.00,-991.00
2024-06-07 14:50:55.027458,-1,-4,0,0,0,0,66,67,143,130,68,134.01,23,-17.00,89.00,-970.00
2024-06-07 14:50:55.145830,-1,-5,0,0,0,0,66,67,143,130,68,134.14,23,-11.00,75.00,-984.00
2024-06-07 14:50:55.231317,-1,-5,0,0,0,0,66,67,143,130,68,133.82,23,-4.00,73.00,-1007.00
2024-06-07 14:50:55.356088,0,-4,0,0,0,0,66,67,143,130,68,133.79,23,-5.00,80.00,-993.00
2024-06-07 14:50:55.435755,0,-4,0,0,0,0,66,67,142,130,68,134.13,24,-17.00,67.00,-1017.00
2024-06-07 14:50:55.537776,0,-4,0,0,0,0,66,67,141,130,68,133.72,24,-11.00,75.00,-1031.00
2024-06-07 14:50:55.659429,0,-4,0,0,0,0,65,68,141,130,68,134.14,24,-2.00,98.00,-1000.00
2024-06-07 14:50:55.741324,0,-4,0,0,0,0,65,68,141,130,68,134.05,24,0.00,86.00,-977.00
2024-06-07 14:50:55.862877,0,-5,0,0,0,0,65,68,141,130,68,133.85,24,-13.00,65.00,-1006.00
2024-06-07 14:50:55.953585,0,-5,0,0,0,0,65,68,142,130,68,133.85,24,-27.00,83.00,-997.00
2024-06-07 14:50:56.047408,0,-5,0,0,0,0,65,68,141,130,68,133.74,24,-27.00,74.00,-985.00
2024-06-07 14:50:56.149981,-1,-5,0,0,0,0,65,68,142,130,68,133.89,24,-9.00,65.00,-977.00
2024-06-07 14:50:56.272161,-1,-6,0,0,0,0,65,68,143,130,68,133.82,24,-11.00,44.00,-1015.00
2024-06-07 14:50:56.353720,0,-9,0,0,-1,0,65,68,141,130,68,133.77,24,-24.00,70.00,-1018.00
2024-06-07 14:50:56.476949,0,-9,0,0,-2,0,65,68,141,130,68,133.66,25,-30.00,80.00,-1017.00
2024-06-07 14:50:56.557210,-1,-8,0,0,-2,0,65,68,142,130,67,134.24,25,-9.00,84.00,-1027.00
2024-06-07 14:50:56.682060,-1,-7,0,0,-3,0,66,68,141,130,67,133.99,25,-13.00,103.00,-1019.00
2024-06-07 14:50:56.761163,0,-4,0,0,-3,0,66,68,142,130,67,134.17,25,-11.00,107.00,-984.00
2024-06-07 14:50:56.863216,0,-4,0,0,-2,0,66,68,142,130,67,133.76,25,-23.00,100.00,-981.00
2024-06-07 14:50:56.969708,0,-5,0,0,-2,0,66,68,141,130,67,133.73,25,-35.00,101.00,-986.00
2024-06-07 14:50:57.067257,-1,-5,0,0,-2,0,66,68,142,130,67,133.74,25,-32.00,98.00,-1006.00
2024-06-07 14:50:57.194021,-1,-5,0,0,-2,0,66,68,141,130,67,133.79,25,-31.00,94.00,-974.00
2024-06-07 14:50:57.271160,-1,-5,0,0,-2,0,66,68,141,130,67,134.19,25,-26.00,93.00,-995.00
2024-06-07 14:50:57.398728,-1,-5,0,0,-2,0,66,68,141,130,67,133.83,25,-15.00,99.00,-984.00
2024-06-07 14:50:57.475251,-1,-5,0,0,-2,0,66,68,140,130,67,134.09,26,-19.00,98.00,-1012.00
2024-06-07 14:50:57.603256,-1,-5,0,0,-2,0,66,68,140,130,67,133.69,26,-15.00,99.00,-1008.00
2024-06-07 14:50:57.679263,-1,-5,0,0,-2,0,66,68,140,130,67,133.82,26,-21.00,102.00,-1001.00
2024-06-07 14:50:57.808115,-1,-5,0,0,-2,0,66,68,140,130,67,133.74,26,-7.00,94.00,-999.00
2024-06-07 14:50:57.887282,0,-5,0,0,-2,0,66,68,141,130,67,134.10,26,-10.00,109.00,-992.00
2024-06-07 14:50:57.985255,0,-5,0,0,-2,0,66,68,139,130,67,133.93,26,-7.00,97.00,-1006.00
2024-06-07 14:50:58.118274,0,-4,0,0,-2,0,66,68,139,130,67,133.88,26,0.00,92.00,-993.00
2024-06-07 14:50:58.189101,0,-4,0,0,-2,0,66,68,141,130,67,133.89,26,-9.00,103.00,-990.00
2024-06-07 14:50:58.240074,0,-4,0,0,-1,0,66,68,140,130,67,133.73,26,-25.00,79.00,-991.00
2024-06-07 14:50:58.422522,0,-1,0,0,-1,0,66,68,139,130,67,133.80,26,-16.00,73.00,-989.00
2024-06-07 14:50:58.445166,0,-2,0,0,0,0,66,68,139,130,67,133.84,27,-30.00,65.00,-1011.00
2024-06-07 14:50:58.546184,0,-3,0,0,0,0,66,68,140,130,66,133.59,27,-25.00,69.00,-995.00
2024-06-07 14:50:58.729939,-1,-3,0,0,0,0,65,68,140,130,66,133.81,27,-19.00,70.00,-1010.00
2024-06-07 14:50:58.751240,-1,-3,0,0,0,0,65,68,138,130,66,133.79,27,-18.00,83.00,-1008.00
2024-06-07 14:50:58.934687,-1,-3,0,0,0,0,65,68,139,130,66,133.77,27,-11.00,68.00,-998.00
2024-06-07 14:50:58.954357,0,-3,0,0,0,0,65,68,139,130,66,133.83,27,0.00,62.00,-1006.00
2024-06-07 14:50:59.140210,0,-3,0,0,0,0,65,68,140,130,66,133.89,27,-10.00,66.00,-979.00
2024-06-07 14:50:59.158130,0,-4,0,0,0,0,65,68,138,130,66,133.86,27,-16.00,67.00,-981.00
2024-06-07 14:50:59.344169,0,-4,0,0,0,0,65,68,140,130,66,133.55,27,-9.00,63.00,-1007.00
2024-06-07 14:50:59.362100,0,-4,0,0,0,0,65,68,139,130,66,133.82,27,-12.00,76.00,-1004.00
2024-06-07 14:50:59.549201,0,-4,0,0,0,0,65,68,139,130,66,133.88,28,-15.00,70.00,-992.00
2024-06-07 14:50:59.566144,-1,-4,0,0,0,0,65,68,139,130,66,133.86,28,-30.00,78.00,-981.00
2024-06-07 14:50:59.753941,-1,-5,0,0,0,0,66,69,140,130,66,134.03,28,-10.00,73.00,-1011.00
2024-06-07 14:50:59.772976,-1,-5,0,0,0,0,66,69,139,130,66,133.82,28,-10.00,80.00,-1001.00
2024-06-07 14:50:59.872738,-1,-5,0,0,0,0,66,69,139,130,66,134.18,28,-5.00,80.00,-1005.00
2024-06-07 14:51:00.062080,-1,-5,0,0,0,0,66,69,138,130,66,133.73,28,-9.00,76.00,-983.00
2024-06-07 14:51:00.076374,0,-4,0,0,0,0,66,69,139,130,66,133.82,28,-11.00,85.00,-1010.00
2024-06-07 14:51:00.266846,0,-5,0,0,0,0,66,69,140,130,66,133.94,28,-18.00,73.00,-1001.00
2024-06-07 14:51:00.280519,0,-5,0,0,0,0,66,69,141,130,66,133.73,28,-9.00,70.00,-993.00
2024-06-07 14:51:00.382986,-1,-5,0,0,0,0,66,69,141,130,66,133.99,28,2.00,79.00,-1015.00
2024-06-07 14:51:00.487620,-1,-4,0,0,0,0,66,69,140,130,66,134.03,29,-10.00,93.00,-1006.00
2024-06-07 14:51:00.586285,0,-4,0,0,0,0,66,69,142,130,65,133.87,29,-13.00,64.00,-1025.00
2024-06-07 14:51:00.778341,0,-2,0,0,0,0,66,69,139,130,65,133.77,29,-4.00,88.00,-992.00
2024-06-07 14:51:00.790005,0,4,0,0,0,0,66,69,141,130,65,134.14,29,-13.00,71.00,-974.00
2024-06-07 14:51:00.982478,0,2,0,0,2,0,66,69,140,130,65,134.05,29,-6.00,47.00,-1019.00
2024-06-07 14:51:00.993917,0,0,0,0,3,0,66,69,141,130,65,133.76,29,-14.00,48.00,-995.00
2024-06-07 14:51:01.095866,0,-3,0,0,3,0,66,69,142,130,65,133.71,29,-16.00,55.00,-1012.00
2024-06-07 14:51:01.198616,0,-5,0,0,3,0,66,69,141,130,65,133.49,29,-27.00,62.00,-1004.00
2024-06-07 14:51:01.392265,0,-4,0,0,2,0,66,69,141,130,65,133.70,29,-8.00,46.00,-989.00
2024-06-07 14:51:01.401894,0,-3,0,0,2,0,66,69,142,130,65,133.66,29,-18.00,59.00,-989.00
2024-06-07 14:51:01.504217,0,-3,0,0,2,0,66,69,142,130,65,133.56,30,-19.00,61.00,-993.00
2024-06-07 14:51:01.699346,-1,-3,0,0,2,0,66,69,142,130,65,133.80,30,-9.00,63.00,-986.00
2024-06-07 14:51:01.708182,-1,-4,0,0,2,0,67,68,141,130,65,133.83,30,-16.00,61.00,-988.00
2024-06-07 14:51:01.809839,-1,-4,0,0,2,0,67,68,140,130,65,134.13,30,-15.00,66.00,-989.00
2024-06-07 14:51:01.912213,-1,-4,0,0,2,0,67,68,141,130,65,134.16,30,-9.00,59.00,-985.00
2024-06-07 14:51:02.086684,0,-4,0,0,2,0,67,68,142,130,65,133.86,30,-13.00,70.00,-995.00
2024-06-07 14:51:02.086726,0,-4,0,0,3,0,67,68,142,130,65,134.01,30,-6.00,69.00,-1014.00
2024-06-07 14:51:02.169029,0,-5,0,0,2,0,67,68,142,130,65,133.90,30,-29.00,88.00,-1016.00
2024-06-07 14:51:02.268862,0,-8,0,0,2,0,67,68,142,130,65,134.01,30,-19.00,76.00,-1025.00
2024-06-07 14:51:02.418529,-1,-8,0,0,1,0,67,68,142,130,65,133.99,30,-35.00,74.00,-1008.00
2024-06-07 14:51:02.476853,-1,-7,0,0,1,0,67,68,142,130,65,133.85,31,-19.00,88.00,-995.00
2024-06-07 14:51:02.575034,-1,-6,0,0,0,0,67,68,142,130,64,134.11,31,-7.00,80.00,-1000.00
2024-06-07 14:51:02.724278,-1,-5,0,0,0,0,67,69,143,130,64,133.75,31,-15.00,97.00,-993.00
2024-06-07 14:51:02.779077,-1,-5,0,0,0,0,67,69,142,130,64,133.83,31,-9.00,85.00,-1008.00
2024-06-07 14:51:02.930025,0,-6,0,0,0,0,67,69,144,130,64,134.18,31,3.00,72.00,-975.00
2024-06-07 14:51:02.982981,0,-6,0,0,0,0,67,69,144,130,64,133.96,31,-3.00,83.00,-991.00
2024-06-07 14:51:03.084936,0,-6,0,0,0,0,67,69,143,130,64,133.95,31,6.00,74.00,-989.00
2024-06-07 14:51:03.186906,0,-5,0,0,0,0,67,69,142,130,64,133.84,31,8.00,68.00,-995.00
2024-06-07 14:51:03.337835,0,-5,0,0,0,0,67,69,143,130,64,133.95,31,29.00,64.00,-979.00
2024-06-07 14:51:03.390945,0,-5,0,0,0,0,67,69,143,130,64,133.99,31,13.00,77.00,-960.00
2024-06-07 14:51:03.542673,0,-5,0,0,0,0,67,69,143,130,64,133.71,32,-18.00,66.00,-997.00
2024-06-07 14:51:03.595103,0,-4,0,0,0,0,67,69,144,130,64,134.09,32,-3.00,69.00,-975.00
2024-06-07 14:51:03.747495,0,-4,0,0,0,0,67,69,142,130,64,133.71,32,-20.00,86.00,-1016.00
2024-06-07 14:51:03.800912,0,-4,0,0,0,0,67,69,142,130,64,133.80,32,-9.00,78.00,-1006.00
2024-06-07 14:51:03.900947,0,-4,0,0,0,0,67,69,139,130,64,134.00,32,-2.00,65.00,-997.00
2024-06-07 14:51:04.002934,0,-4,0,0,0,0,67,69,139,130,64,133.81,32,-5.00,74.00,-1010.00
2024-06-07 14:51:04.105351,0,-4,0,0,0,0,67,69,141,130,64,133.83,32,-11.00,68.00,-1013.00
2024-06-07 14:51:04.259436,0,-3,0,0,0,0,67,69,141,130,64,133.95,32,-22.00,77.00,-1014.00
2024-06-07 14:51:04.310542,0,-3,0,0,0,0,67,69,140,130,64,133.90,32,0.00,65.00,-1009.00
2024-06-07 14:51:04.410870,0,-4,0,0,0,0,67,69,138,130,64,133.73,33,-15.00,74.00,-1005.00
2024-06-07 14:51:04.512802,-1,-4,0,0,0,0,67,69,140,130,64,134.06,33,-22.00,90.00,-1001.00
2024-06-07 14:51:04.668839,0,-4,4,0,0,0,67,69,141,130,63,133.89,33,-29.00,80.00,-1008.00
2024-06-07 14:51:04.716736,-1,-5,10,0,0,0,67,69,142,130,63,134.00,33,0.00,78.00,-1006.00
2024-06-07 14:51:04.818887,0,-5,15,0,0,0,67,69,143,130,63,133.85,33,3.00,83.00,-998.00
2024-06-07 14:51:04.921144,0,-5,21,0,0,0,67,69,141,130,63,133.81,33,23.00,70.00,-990.00
2024-06-07 14:51:05.022724,0,-4,27,0,0,0,67,69,141,130,63,133.91,33,29.00,66.00,-1011.00
2024-06-07 14:51:05.124696,0,-4,33,0,0,0,67,69,143,130,63,133.78,33,38.00,65.00,-1000.00
2024-06-07 14:51:05.285075,1,-3,39,0,0,0,67,69,142,130,63,134.08,33,52.00,60.00,-1012.00
2024-06-07 14:51:05.328660,1,-3,45,0,0,0,67,69,142,130,63,133.79,33,53.00,57.00,-998.00
2024-06-07 14:51:05.488318,2,-3,52,0,0,0,67,69,142,130,63,133.82,34,66.00,22.00,-991.00
2024-06-07 14:51:05.532736,3,-2,58,0,0,0,67,69,142,130,63,133.70,34,65.00,38.00,-997.00
2024-06-07 14:51:05.635974,3,-1,64,0,0,0,67,69,142,130,63,133.93,34,74.00,41.00,-996.00
2024-06-07 14:51:05.739737,4,-1,70,0,0,0,67,70,140,130,63,133.62,34,68.00,49.00,-1018.00
2024-06-07 14:51:05.841361,4,-1,76,0,0,0,67,70,141,130,63,133.71,34,90.00,26.00,-987.00
2024-06-07 14:51:05.941967,4,0,82,0,0,0,67,70,140,130,63,133.70,34,73.00,23.00,-993.00
2024-06-07 14:51:05.996327,4,0,88,0,0,0,67,70,141,130,63,133.74,34,82.00,19.00,-1004.00
2024-06-07 14:51:06.094631,4,0,94,0,0,0,67,70,139,130,63,133.54,34,80.00,13.00,-987.00
2024-06-07 14:51:06.204822,5,0,100,0,0,0,67,70,141,130,63,133.61,34,89.00,3.00,-1006.00
2024-06-07 14:51:06.298754,4,1,106,0,0,0,67,70,139,130,63,133.73,34,93.00,-12.00,-991.00
2024-06-07 14:51:06.410197,5,1,112,0,0,0,67,70,141,130,63,133.74,35,87.00,-13.00,-1011.00
2024-06-07 14:51:06.506881,4,2,118,0,0,0,67,70,142,130,63,133.53,35,91.00,-20.00,-1012.00
2024-06-07 14:51:06.605503,4,2,123,0,0,0,67,70,141,130,62,133.68,35,74.00,-24.00,-998.00
2024-06-07 14:51:06.706773,4,2,129,0,0,0,67,69,140,130,62,133.43,35,76.00,-42.00,-1001.00
2024-06-07 14:51:06.819233,4,3,135,0,0,0,67,69,139,130,62,133.47,35,57.00,-37.00,-990.00
2024-06-07 14:51:06.910919,3,3,141,0,0,0,67,69,141,130,62,133.42,35,53.00,-32.00,-992.00
2024-06-07 14:51:07.012632,3,3,147,0,0,0,67,69,140,130,62,133.67,35,57.00,-42.00,-1001.00
2024-06-07 14:51:07.126538,3,3,153,0,0,0,67,69,139,130,62,133.63,35,60.00,-55.00,-1011.00
2024-06-07 14:51:07.216711,2,4,159,0,0,0,67,69,140,130,62,133.86,35,49.00,-70.00,-989.00
2024-06-07 14:51:07.331236,2,4,165,0,0,0,67,69,140,130,62,133.96,35,38.00,-73.00,-986.00
2024-06-07 14:51:07.421797,2,4,171,0,0,0,67,69,140,130,62,133.63,36,38.00,-71.00,-998.00
2024-06-07 14:51:07.522872,1,4,177,0,0,0,67,69,142,130,62,133.71,36,22.00,-74.00,-996.00
2024-06-07 14:51:07.638419,0,4,-176,0,0,0,67,69,141,130,62,133.91,36,9.00,-64.00,-999.00
2024-06-07 14:51:07.726529,0,4,-170,0,0,0,68,70,139,130,62,133.99,36,-1.00,-70.00,-994.00
2024-06-07 14:51:07.843209,0,4,-164,0,0,0,68,70,142,130,62,133.69,36,-8.00,-57.00,-1002.00
2024-06-07 14:51:07.932080,0,4,-157,0,0,0,68,70,141,130,62,133.77,36,-5.00,-56.00,-993.00
2024-06-07 14:51:08.032499,0,4,-151,0,0,0,68,70,142,130,62,133.79,36,4.00,-65.00,-982.00
2024-06-07 14:51:08.150393,0,4,-145,0,0,0,68,70,142,130,62,133.76,36,-13.00,-63.00,-990.00
2024-06-07 14:51:08.238103,-1,3,-139,0,0,0,68,70,142,130,62,133.53,36,-22.00,-53.00,-990.00
2024-06-07 14:51:08.355391,-1,3,-133,0,0,0,68,70,141,130,62,133.77,36,-15.00,-56.00,-1004.00
2024-06-07 14:51:08.441990,-1,3,-127,0,0,0,68,70,142,130,62,133.66,37,-42.00,-41.00,-1011.00
2024-06-07 14:51:08.543208,-2,2,-121,0,0,0,68,70,140,130,62,133.80,37,-51.00,-49.00,-987.00
2024-06-07 14:51:08.645432,-2,2,-115,0,0,0,68,70,140,130,61,133.55,37,-53.00,-38.00,-1007.00
2024-06-07 14:51:08.764798,-3,2,-109,0,0,0,68,70,141,130,61,133.62,37,-57.00,-27.00,-993.00
2024-06-07 14:51:08.848493,-3,1,-103,0,0,0,68,70,140,130,61,133.73,37,-53.00,-29.00,-1000.00
2024-06-07 14:51:08.950609,-3,1,-97,0,0,0,68,70,139,130,61,133.48,37,-59.00,-20.00,-988.00
2024-06-07 14:51:09.071987,-3,0,-92,0,0,0,68,70,139,130,61,133.65,37,-71.00,-20.00,-985.00
2024-06-07 14:51:09.154486,-3,0,-86,0,0,0,68,70,140,130,61,133.68,37,-78.00,-6.00,-1005.00
2024-06-07 14:51:09.256646,-4,0,-80,0,0,0,68,70,139,130,61,133.33,37,-72.00,-3.00,-995.00
2024-06-07 14:51:09.379203,-4,0,-74,0,0,0,68,70,140,130,61,133.49,37,-87.00,11.00,-994.00
2024-06-07 14:51:09.409475,-4,0,-68,0,0,0,68,70,139,130,61,133.33,38,-76.00,11.00,-996.00
2024-06-07 14:51:09.512030,-4,-1,-62,0,0,0,68,70,139,130,61,133.56,38,-84.00,13.00,-1000.00
2024-06-07 14:51:09.686401,-4,-1,-56,0,0,0,68,70,138,130,61,133.75,38,-63.00,15.00,-1013.00
2024-06-07 14:51:09.716461,-4,-1,-50,0,0,0,68,70,138,130,61,133.54,38,-63.00,27.00,-996.00
2024-06-07 14:51:09.818721,-4,-1,-44,0,0,0,68,70,138,130,61,133.73,38,-58.00,27.00,-994.00
2024-06-07 14:51:09.993609,-3,-1,-38,0,0,0,68,70,139,130,61,133.55,38,-46.00,25.00,-985.00
2024-06-07 14:51:10.022418,-3,-2,-32,0,0,0,68,70,137,130,61,133.58,38,-54.00,42.00,-1002.00
2024-06-07 14:51:10.124422,-2,-2,-26,0,0,0,68,70,136,130,61,133.50,38,-31.00,53.00,-1024.00
2024-06-07 14:51:10.301264,-2,-2,-21,0,0,0,68,70,137,130,61,133.67,38,-41.00,59.00,-1016.00
2024-06-07 14:51:10.328438,-2,-3,-16,0,0,0,68,70,136,130,61,133.75,38,-35.00,61.00,-1001.00
2024-06-07 14:51:10.505572,-1,-3,-12,0,0,0,68,70,137,130,61,133.69,39,-24.00,55.00,-1003.00
2024-06-07 14:51:10.532627,-1,-3,-9,0,0,0,68,70,135,130,60,133.75,39,-20.00,55.00,-993.00
2024-06-07 14:51:10.634360,-1,-3,-7,0,0,0,68,70,136,130,60,133.87,39,-24.00,56.00,-1011.00
2024-06-07 14:51:10.736461,0,-3,-5,0,0,0,69,71,136,130,60,133.76,39,-23.00,50.00,-993.00
2024-06-07 14:51:10.838550,0,-3,-4,0,0,0,69,71,135,130,60,133.73,39,-9.00,60.00,-1015.00
2024-06-07 14:51:10.940358,0,-3,-3,0,0,0,69,71,136,130,60,133.54,39,-14.00,52.00,-993.00
2024-06-07 14:51:11.124971,0,-3,-2,0,0,0,69,71,136,130,60,133.73,39,-13.00,54.00,-1001.00
2024-06-07 14:51:11.145713,0,-3,-1,0,0,0,69,71,136,130,60,133.54,39,-16.00,55.00,-993.00
2024-06-07 14:51:11.326012,0,-3,-1,0,0,0,69,71,137,130,60,133.83,39,-22.00,68.00,-1008.00
2024-06-07 14:51:11.348342,0,-3,-1,0,0,0,69,71,136,130,60,133.81,39,-18.00,52.00,-998.00
2024-06-07 14:51:11.529677,0,-3,-1,0,0,0,69,71,136,130,60,133.85,40,-20.00,56.00,-1003.00
2024-06-07 14:51:11.553279,0,-3,-1,0,0,0,69,71,136,130,60,134.07,40,-29.00,76.00,-1011.00
2024-06-07 14:51:11.735279,-1,-3,-1,0,0,0,69,71,135,130,60,134.00,40,-21.00,78.00,-992.00
2024-06-07 14:51:11.757385,-1,-3,-1,0,0,0,69,71,136,130,60,133.86,40,-25.00,68.00,-993.00
2024-06-07 14:51:12.041902,-1,-4,-1,0,0,0,69,71,137,130,60,133.56,40,-19.00,66.00,-998.00
2024-06-07 14:51:12.042999,-1,-4,-1,0,0,0,69,71,137,130,60,133.87,40,-17.00,66.00,-1008.00
2024-06-07 14:51:12.063317,-1,-4,-1,0,0,0,69,71,137,130,60,133.66,40,-36.00,57.00,-1015.00
2024-06-07 14:51:12.246736,-1,-4,-1,0,0,0,69,71,137,130,60,133.81,40,-30.00,64.00,-988.00
2024-06-07 14:51:12.267398,-1,-3,-1,0,0,0,69,71,137,130,60,134.05,40,-28.00,69.00,-1000.00
2024-06-07 14:51:12.451276,-1,-3,-1,0,0,0,69,71,137,130,60,133.68,40,-19.00,77.00,-997.00
2024-06-07 14:51:12.471387,-1,-4,-1,0,0,0,69,71,137,130,60,133.78,41,-21.00,74.00,-995.00
2024-06-07 14:51:12.574112,-1,-4,-1,0,0,0,69,71,137,130,59,133.81,41,-18.00,75.00,-1008.00
2024-06-07 14:51:12.675291,-1,-4,-1,0,0,0,69,71,138,130,59,134.13,41,-9.00,73.00,-1012.00
2024-06-07 14:51:12.861079,-1,-4,-1,0,0,0,68,70,139,130,59,133.93,41,-9.00,66.00,-986.00
2024-06-07 14:51:12.879921,-1,-4,-1,0,0,0,68,70,138,130,59,133.75,41,-13.00,75.00,-981.00
2024-06-07 14:51:13.010936,-1,-4,-1,0,0,0,68,70,139,130,59,133.90,41,-31.00,78.00,-996.00
2024-06-07 14:51:13.083536,-1,-4,-1,0,0,0,68,70,139,130,59,133.62,41,-45.00,76.00,-995.00
2024-06-07 14:51:13.186972,-1,-4,-1,0,0,0,68,70,140,130,59,133.99,41,-29.00,74.00,-994.00
2024-06-07 14:51:13.287377,-1,-4,-1,0,0,0,68,70,140,130,59,133.94,41,-34.00,108.00,-1018.00
2024-06-07 14:51:13.475176,-2,-4,-6,0,0,0,68,70,140,130,59,133.94,41,-26.00,80.00,-988.00
2024-06-07 14:51:13.491199,-2,-4,-11,0,0,0,68,70,140,130,59,133.56,42,-50.00,75.00,-998.00
2024-06-07 14:51:13.542551,-2,-5,-17,0,0,0,68,70,139,130,59,133.79,42,-48.00,58.00,-993.00
2024-06-07 14:51:13.679960,-3,-4,-23,0,0,0,68,70,140,130,59,133.60,42,-43.00,73.00,-994.00
2024-06-07 14:51:13.746194,-3,-3,-29,0,0,0,68,71,139,130,59,133.75,42,-43.00,75.00,-1000.00
2024-06-07 14:51:13.848191,-3,-3,-35,0,0,0,68,71,141,130,59,133.68,42,-58.00,75.00,-1000.00
2024-06-07 14:51:13.987303,-3,-3,-41,0,0,0,68,71,139,130,59,133.93,42,-63.00,43.00,-978.00
2024-06-07 14:51:14.052192,-3,-3,-47,0,0,0,68,71,141,130,59,133.72,42,-74.00,36.00,-994.00
2024-06-07 14:51:14.154277,-3,-3,-53,0,0,0,68,71,139,130,59,133.43,42,-84.00,49.00,-994.00
2024-06-07 14:51:14.295306,-4,-2,-60,0,0,0,68,71,140,130,59,133.62,42,-95.00,41.00,-993.00
2024-06-07 14:51:14.358359,-4,-1,-66,0,0,0,68,71,140,130,59,133.62,42,-87.00,22.00,-988.00
2024-06-07 14:51:14.499070,-5,0,-72,0,0,0,68,71,140,130,59,133.62,43,-107.00,11.00,-994.00
2024-06-07 14:51:14.562384,-5,0,-78,0,0,0,68,71,139,130,58,133.58,43,-104.00,1.00,-986.00
2024-06-07 14:51:14.704776,-5,0,-84,0,0,0,68,71,141,130,58,133.45,43,-115.00,-13.00,-975.00
2024-06-07 14:51:14.766106,-5,0,-90,0,0,0,69,71,141,130,58,133.65,43,-99.00,-20.00,-988.00
2024-06-07 14:51:14.908759,-6,1,-96,0,0,0,69,71,139,130,58,133.72,43,-76.00,-40.00,-1002.00
2024-06-07 14:51:14.970218,-5,2,-102,0,0,0,69,71,141,130,58,133.59,43,-76.00,-40.00,-1012.00
2024-06-07 14:51:15.113535,-4,3,-107,0,0,0,69,71,141,130,58,133.74,43,-77.00,-43.00,-1000.00
2024-06-07 14:51:15.174292,-3,4,-113,0,0,0,69,71,140,130,58,133.72,43,-56.00,-50.00,-1014.00
2024-06-07 14:51:15.319571,-3,4,-119,0,0,0,69,71,141,130,58,133.85,43,-57.00,-61.00,-995.00
2024-06-07 14:51:15.378729,-2,4,-124,0,0,0,69,71,142,130,58,133.56,43,-53.00,-53.00,-991.00
2024-06-07 14:51:15.523139,-2,4,-130,0,0,0,69,71,141,130,58,133.80,44,-46.00,-72.00,-977.00
2024-06-07 14:51:15.582091,-1,4,-136,0,0,0,69,71,141,130,58,133.77,44,-34.00,-70.00,-992.00
2024-06-07 14:51:15.684592,0,5,-142,0,0,0,69,71,141,130,58,133.78,44,-26.00,-67.00,-1006.00
2024-06-07 14:51:15.834867,0,5,-147,0,0,0,70,71,141,130,58,134.00,44,-46.00,-57.00,-1005.00
2024-06-07 14:51:15.888184,0,4,-153,0,0,0,70,71,141,130,58,134.04,44,-19.00,-77.00,-999.00
2024-06-07 14:51:16.008940,0,4,-159,0,0,0,70,71,141,130,58,133.94,44,2.00,-88.00,-1004.00
2024-06-07 14:51:16.092120,0,5,-165,0,0,0,70,71,141,130,58,133.70,44,0.00,-79.00,-991.00
2024-06-07 14:51:16.239929,0,5,-171,0,0,0,70,71,141,130,58,133.95,44,6.00,-74.00,-994.00
2024-06-07 14:51:16.299550,1,5,-177,0,0,0,70,71,142,130,58,133.67,44,25.00,-78.00,-993.00
2024-06-07 14:51:16.398189,1,4,176,0,0,0,70,71,142,130,58,133.89,44,31.00,-72.00,-1003.00
2024-06-07 14:51:16.547751,2,4,170,0,0,0,70,71,142,130,58,133.95,45,52.00,-61.00,-1004.00
2024-06-07 14:51:16.601953,2,4,164,0,0,0,70,71,140,130,57,133.99,45,39.00,-51.00,-994.00
2024-06-07 14:51:16.705754,2,3,158,0,0,0,70,71,141,130,57,133.70,45,67.00,-49.00,-1001.00
2024-06-07 14:51:16.806109,3,3,152,0,0,0,69,71,142,130,57,133.93,45,55.00,-54.00,-1005.00
2024-06-07 14:51:16.956887,4,2,146,0,0,0,69,71,142,130,57,133.76,45,72.00,-48.00,-997.00
2024-06-07 14:51:17.010038,4,2,140,0,0,0,69,71,143,130,57,133.70,45,71.00,-42.00,-1000.00
2024-06-07 14:51:17.111978,5,1,133,0,0,0,69,71,144,130,57,133.79,45,89.00,-42.00,-989.00
2024-06-07 14:51:17.264066,5,1,127,0,0,0,69,71,142,130,57,133.61,45,101.00,-47.00,-1001.00
2024-06-07 14:51:17.318680,6,1,121,0,0,0,69,71,142,130,57,133.76,45,84.00,-18.00,-991.00
2024-06-07 14:51:17.366851,6,0,115,0,0,0,69,71,142,130,57,133.65,45,90.00,-24.00,-984.00
2024-06-07 14:51:17.468969,6,0,109,0,0,0,69,71,143,130,57,133.85,46,91.00,-8.00,-985.00
2024-06-07 14:51:17.577142,6,0,103,0,0,0,69,71,143,130,57,133.51,46,100.00,-9.00,-980.00
2024-06-07 14:51:17.673193,6,0,97,0,0,0,69,71,142,130,57,133.70,46,109.00,5.00,-993.00
2024-06-07 14:51:17.776026,6,-1,91,0,0,0,70,72,142,130,57,133.72,46,87.00,29.00,-1010.00
2024-06-07 14:51:17.878277,5,-2,85,0,0,0,70,72,143,130,57,133.93,46,78.00,40.00,-999.00
2024-06-07 14:51:17.980686,5,-1,79,0,0,0,70,72,142,130,57,133.69,46,88.00,42.00,-1005.00
2024-06-07 14:51:18.081088,5,-2,73,0,0,0,70,72,142,130,57,133.85,46,75.00,64.00,-1009.00
2024-06-07 14:51:18.185646,4,-2,68,0,0,0,70,72,142,130,57,133.62,46,60.00,62.00,-993.00
2024-06-07 14:51:18.285023,4,-3,62,0,0,0,70,72,139,130,57,133.76,46,55.00,58.00,-998.00
2024-06-07 14:51:18.390304,3,-3,56,0,0,0,70,72,141,130,57,133.95,46,65.00,61.00,-981.00
2024-06-07 14:51:18.488989,3,-3,50,0,0,0,70,72,140,130,57,133.97,47,47.00,81.00,-992.00
2024-06-07 14:51:18.590965,3,-3,44,0,0,0,70,72,140,130,56,133.67,47,44.00,83.00,-1009.00
2024-06-07 14:51:18.697675,2,-3,38,0,0,0,70,72,141,130,56,134.04,47,41.00,79.00,-1006.00
2024-06-07 14:51:18.794888,1,-4,27,0,0,0,70,71,140,130,56,133.95,47,13.00,101.00,-1010.00
2024-06-07 14:51:18.903068,1,-4,21,0,0,0,70,71,140,130,56,133.91,47,14.00,89.00,-1000.00
2024-06-07 14:51:18.998876,0,-4,16,0,0,0,70,71,139,130,56,133.96,47,1.00,87.00,-996.00
2024-06-07 14:51:19.100864,0,-4,11,0,0,0,70,71,140,130,56,133.83,47,-2.00,88.00,-982.00
2024-06-07 14:51:19.209442,0,-4,8,0,0,0,70,71,140,130,56,133.81,47,-2.00,94.00,-980.00
2024-06-07 14:51:19.306130,0,-5,5,0,0,0,70,71,139,130,56,133.78,47,-8.00,89.00,-998.00
2024-06-07 14:51:19.416181,0,-5,3,0,0,0,70,71,139,130,56,133.69,48,-19.00,90.00,-1001.00
2024-06-07 14:51:19.508875,-1,-4,2,0,0,0,70,71,139,130,56,133.51,48,-15.00,82.00,-991.00
2024-06-07 14:51:19.610834,-1,-4,0,0,0,0,70,71,140,130,56,133.82,48,-25.00,86.00,-1018.00
2024-06-07 14:51:19.714742,-1,-4,0,0,0,0,70,71,140,130,56,133.71,48,-21.00,81.00,-1001.00
2024-06-07 14:51:19.824624,-1,-4,0,0,0,0,69,72,139,130,56,134.07,48,-23.00,80.00,-998.00
2024-06-07 14:51:19.917046,-1,-4,0,0,0,0,69,72,139,130,56,133.78,48,-24.00,85.00,-1004.00
2024-06-07 14:51:20.019048,-1,-4,-1,0,0,0,69,72,139,130,56,133.92,48,-25.00,76.00,-992.00
2024-06-07 14:51:20.121044,-1,-4,-1,0,0,0,69,72,139,130,56,133.57,48,-9.00,64.00,-978.00
2024-06-07 14:51:20.233596,-1,-4,-1,0,0,0,69,72,139,130,56,133.66,48,-21.00,70.00,-983.00
2024-06-07 14:51:20.325047,-1,-4,0,0,0,0,69,72,138,130,56,133.97,48,-22.00,72.00,-997.00
2024-06-07 14:51:20.438749,-1,-4,0,0,0,0,69,72,140,130,56,133.62,49,-32.00,81.00,-1000.00
2024-06-07 14:51:20.528903,-1,-4,0,0,0,0,69,72,140,130,56,133.64,49,-27.00,74.00,-990.00
2024-06-07 14:51:20.633698,-1,-4,0,0,0,0,69,72,139,130,55,133.45,49,-27.00,64.00,-994.00
2024-06-07 14:51:20.734581,-1,-4,-1,0,0,0,69,72,140,130,55,133.46,49,-32.00,66.00,-988.00
2024-06-07 14:51:20.836340,-1,-4,0,0,0,0,70,72,139,130,55,133.70,49,-12.00,54.00,-984.00
2024-06-07 14:51:20.937006,-1,-3,0,0,0,0,70,72,140,130,55,133.75,49,-22.00,72.00,-1009.00
2024-06-07 14:51:21.053917,-1,-3,0,0,0,0,70,72,139,130,55,133.50,49,-42.00,70.00,-990.00
2024-06-07 14:51:21.142393,-1,-3,-1,0,0,0,70,72,139,130,55,134.04,49,-25.00,70.00,-1005.00
2024-06-07 14:51:21.191800,-1,-4,-1,0,0,0,70,72,140,130,55,133.82,49,-6.00,56.00,-1009.00
2024-06-07 14:51:21.362915,-1,-3,0,0,0,0,70,72,139,130,55,133.73,49,-27.00,72.00,-1008.00
2024-06-07 14:51:21.395791,-1,-3,-1,0,0,0,70,72,139,130,55,133.80,50,-24.00,71.00,-988.00
2024-06-07 14:51:21.565969,-1,-4,-1,0,0,0,70,72,138,130,55,133.64,50,-30.00,76.00,-1005.00
2024-06-07 14:51:21.599817,-1,-4,-1,0,0,0,70,72,138,130,55,134.04,50,-33.00,70.00,-1001.00
2024-06-07 14:51:21.701792,-1,-4,-1,0,0,0,70,72,138,130,55,133.75,50,-13.00,66.00,-993.00
2024-06-07 14:51:21.803836,0,-3,0,0,0,-1,70,71,139,130,55,134.05,50,-15.00,105.00,-1580.00
2024-06-07 14:51:21.974410,0,-3,0,0,0,-7,70,71,147,130,55,133.94,50,-17.00,95.00,-1752.00
2024-06-07 14:51:22.007708,0,-36,-1,0,0,-12,70,71,212,140,55,133.92,50,-15.00,340.00,-1118.00
2024-06-07 14:51:22.109667,0,-151,0,0,-8,-7,70,71,6553,160,55,134.01,50,-14.00,799.00,-1012.00
2024-06-07 14:51:22.212163,0,82,0,0,-7,8,70,71,363,150,55,133.76,50,-8.00,483.00,-1106.00
2024-06-07 14:51:22.388434,0,-3,1,0,0,11,70,71,151,140,55,134.11,50,38.00,-120.00,-1558.00
2024-06-07 14:51:22.415725,0,0,7,0,-2,9,70,71,139,130,55,133.93,51,-17.00,86.00,-1465.00
2024-06-07 14:51:22.588840,-1,3,12,0,0,4,70,71,133,130,55,133.78,51,30.00,94.00,-1405.00
2024-06-07 14:51:22.619647,0,0,12,0,0,1,70,71,130,120,54,133.73,51,17.00,96.00,-1255.00
2024-06-07 14:51:22.793622,1,-2,4,0,1,0,70,71,131,120,54,133.89,51,22.00,80.00,-1109.00
2024-06-07 14:51:22.824560,1,-3,-1,0,1,-1,70,73,132,120,54,133.85,51,0.00,65.00,-1047.00
2024-06-07 14:51:23.000906,0,-3,-2,0,0,-1,70,73,133,120,54,133.64,51,3.00,65.00,-1065.00
2024-06-07 14:51:23.027593,0,-2,-1,0,1,-1,70,73,135,130,54,133.82,51,1.00,43.00,-975.00
2024-06-07 14:51:23.203099,0,-3,-1,0,1,-1,70,73,136,130,54,133.90,51,2.00,55.00,-991.00
2024-06-07 14:51:23.231634,0,-3,-1,0,1,-1,70,73,138,130,54,134.05,51,-3.00,57.00,-967.00
2024-06-07 14:51:23.408018,0,-3,-1,0,1,-1,70,73,139,130,54,134.21,51,-2.00,48.00,-962.00
2024-06-07 14:51:23.435567,0,-3,-1,0,0,0,70,73,139,130,54,133.98,52,0.00,51.00,-974.00
2024-06-07 14:51:23.614490,0,-3,-1,0,0,0,70,73,142,130,54,134.15,52,-16.00,59.00,-973.00
2024-06-07 14:51:23.639928,0,-3,-1,0,0,0,70,73,141,130,54,133.74,52,3.00,49.00,-978.00
2024-06-07 14:51:23.741700,0,-3,-1,0,0,0,70,73,141,130,54,133.83,52,3.00,45.00,-990.00
2024-06-07 14:51:23.919870,0,-3,-1,0,0,0,69,72,141,130,54,133.96,52,-30.00,47.00,-979.00
2024-06-07 14:51:23.945630,0,-3,-1,0,0,0,69,72,141,130,54,133.93,52,8.00,45.00,-988.00
2024-06-07 14:51:24.124639,0,-3,-1,0,0,0,69,72,141,130,54,133.74,52,-7.00,51.00,-989.00
2024-06-07 14:51:24.151238,0,-3,-1,0,0,0,69,72,142,130,54,134.11,52,-6.00,45.00,-994.00
2024-06-07 14:51:24.252257,0,-3,-1,0,0,0,69,72,141,130,54,134.00,52,-12.00,37.00,-991.00
2024-06-07 14:51:24.353947,0,-2,-1,0,0,0,69,72,141,130,54,134.05,52,-25.00,62.00,-1006.00
2024-06-07 14:51:24.455683,-1,-2,-1,0,0,0,69,72,140,130,54,133.87,53,-13.00,46.00,-993.00
2024-06-07 14:51:24.636877,-1,-2,-1,0,0,0,69,72,141,130,54,133.99,53,-12.00,53.00,-1011.00
2024-06-07 14:51:24.637098,-1,-2,-1,0,0,0,69,72,141,130,53,133.98,53,-17.00,49.00,-991.00
2024-06-07 14:51:24.710581,-1,-2,-1,0,0,0,69,72,141,130,53,133.88,53,-41.00,46.00,-988.00
2024-06-07 14:51:24.863481,-1,-2,-1,0,0,0,69,72,141,130,53,134.06,53,-23.00,41.00,-1021.00
2024-06-07 14:51:24.915250,-1,-2,-1,0,0,0,69,72,140,130,53,133.82,53,-22.00,36.00,-998.00
2024-06-07 14:51:25.016602,-1,-1,-1,0,0,0,69,72,141,130,53,133.56,53,-20.00,49.00,-1015.00
2024-06-07 14:51:25.151459,-1,-1,-1,0,0,0,69,72,142,130,53,134.16,53,-41.00,49.00,-990.00
2024-06-07 14:51:25.221063,-1,-1,-1,0,0,0,69,72,140,130,53,133.83,53,-29.00,46.00,-1008.00
2024-06-07 14:51:25.355616,-1,-2,-1,0,0,0,69,72,140,130,53,133.77,53,-39.00,30.00,-987.00
2024-06-07 14:51:25.424804,-2,-2,-1,0,0,0,69,72,142,130,53,133.98,54,-49.00,47.00,-993.00
2024-06-07 14:51:25.558680,-3,-2,0,0,0,0,69,72,140,130,53,134.19,54,-42.00,45.00,-989.00
2024-06-07 14:51:25.628876,-3,-1,0,0,0,0,69,72,141,130,53,134.04,54,-31.00,47.00,-978.00
2024-06-07 14:51:25.764007,-3,-1,0,0,0,0,69,72,140,130,53,133.93,54,-30.00,53.00,-998.00
2024-06-07 14:51:25.832712,-2,-2,-1,0,0,0,71,73,140,130,53,133.95,54,-58.00,48.00,-1009.00
2024-06-07 14:51:25.967910,-2,-2,-1,0,0,0,71,73,139,130,53,133.80,54,-45.00,43.00,-1011.00
2024-06-07 14:51:26.036767,-2,-2,-1,0,0,0,71,73,142,130,53,133.71,54,-22.00,52.00,-995.00
2024-06-07 14:51:26.172829,-3,-2,0,0,0,0,71,73,141,130,53,133.84,54,-44.00,49.00,-988.00
2024-06-07 14:51:26.240555,-2,-2,0,0,0,0,71,73,140,130,53,133.84,54,-31.00,35.00,-1020.00
2024-06-07 14:51:26.377663,-2,-2,0,0,0,0,71,73,141,130,53,133.96,54,-30.00,26.00,-972.00
2024-06-07 14:51:26.444612,-2,-2,0,0,0,0,71,73,141,130,53,133.70,55,-32.00,44.00,-1008.00
2024-06-07 14:51:26.582303,-2,-2,0,0,0,0,71,73,140,130,52,133.98,55,-40.00,42.00,-989.00
2024-06-07 14:51:26.648550,-2,-2,0,0,0,0,71,73,141,130,52,133.81,55,-33.00,40.00,-994.00
2024-06-07 14:51:26.750829,-2,-2,0,0,0,0,71,73,141,130,52,134.02,55,-18.00,31.00,-996.00
2024-06-07 14:51:26.895553,-2,-2,0,0,0,0,70,72,142,130,52,134.06,55,-19.00,33.00,-982.00
2024-06-07 14:51:26.955570,-2,-1,0,0,0,0,70,72,141,130,52,133.90,55,-19.00,48.00,-994.00
2024-06-07 14:51:27.056878,-1,-1,0,0,0,0,70,72,142,130,52,133.93,55,-19.00,44.00,-990.00
2024-06-07 14:51:27.158504,-1,-2,0,0,0,0,70,72,142,130,52,134.15,55,6.00,42.00,-990.00
2024-06-07 14:51:27.306355,-1,-2,0,0,0,0,70,72,142,130,52,134.06,55,7.00,32.00,-984.00
2024-06-07 14:51:27.362508,0,-2,0,1,0,0,70,72,143,130,52,134.14,55,-4.00,48.00,-1001.00
2024-06-07 14:51:27.503932,0,-2,0,1,0,0,70,72,144,130,52,133.84,56,9.00,33.00,-1008.00
2024-06-07 14:51:27.566759,0,-2,0,1,0,0,70,72,143,130,52,134.05,56,1.00,39.00,-1007.00
2024-06-07 14:51:27.714104,0,-2,-1,0,0,0,70,72,143,130,52,133.95,56,6.00,28.00,-991.00
2024-06-07 14:51:27.770997,0,-2,-1,0,0,0,70,72,143,130,52,133.76,56,-6.00,41.00,-998.00
2024-06-07 14:51:27.913739,0,-2,-1,0,0,0,70,73,144,130,52,134.16,56,-27.00,56.00,-983.00
2024-06-07 14:51:27.974491,0,-2,-1,0,0,0,70,73,142,130,52,134.02,56,-13.00,44.00,-1001.00
2024-06-07 14:51:28.076555,0,-2,-1,0,0,0,70,73,142,130,52,133.80,56,-8.00,41.00,-995.00
2024-06-07 14:51:28.220809,0,-2,-1,0,0,0,70,73,143,130,52,134.23,56,-9.00,41.00,-1002.00
2024-06-07 14:51:28.281194,0,-2,-1,0,0,0,70,73,144,130,52,134.02,56,-2.00,35.00,-985.00
2024-06-07 14:51:28.382533,0,-1,-1,0,0,0,70,73,143,130,52,134.11,56,-13.00,63.00,-1462.00
2024-06-07 14:51:28.528035,0,1,-2,0,0,-3,70,73,145,130,52,134.11,57,3.00,48.00,-1636.00
2024-06-07 14:51:28.588297,0,3,-2,0,1,-9,70,73,154,140,51,134.31,57,-45.00,0.00,-1747.00
2024-06-07 14:51:28.688457,2,67,-3,0,5,-13,70,73,396,150,51,134.67,57,-31.00,720.00,-1123.00
2024-06-07 14:51:28.835244,0,-169,0,0,13,0,70,73,6553,160,51,134.13,57,-12.00,667.00,-813.00
2024-06-07 14:51:28.892325,0,-52,-1,0,8,11,70,73,235,160,51,134.24,57,-14.00,469.00,-1028.00
2024-06-07 14:51:29.041955,0,8,-2,0,5,11,70,73,154,140,51,134.42,57,-15.00,2.00,-1361.00
2024-06-07 14:51:29.046376,0,-1,-3,0,7,8,70,73,142,130,51,134.08,57,8.00,-20.00,-1435.00
2024-06-07 14:51:29.244596,0,-6,-2,0,6,4,70,73,140,130,51,133.94,57,-16.00,5.00,-1307.00
2024-06-07 14:51:29.249344,0,-4,-1,0,4,1,70,73,137,120,51,133.88,57,-2.00,9.00,-1177.00
2024-06-07 14:51:29.351481,0,-2,-1,0,3,0,70,73,136,120,51,133.94,57,1.00,7.00,-1107.00
2024-06-07 14:51:29.457542,0,-1,0,0,3,-1,70,73,138,120,51,133.84,58,-14.00,8.00,-1012.00
2024-06-07 14:51:29.555353,0,-1,0,0,2,-1,70,73,140,120,51,133.68,58,1.00,13.00,-989.00
2024-06-07 14:51:29.657329,0,-1,0,0,2,-1,70,73,142,130,51,133.99,58,0.00,-6.00,-957.00
2024-06-07 14:51:29.759797,0,-1,0,0,2,-1,70,73,143,130,51,133.78,58,2.00,12.00,-968.00
2024-06-07 14:51:29.866591,0,-1,0,0,2,-1,71,73,147,130,51,133.92,58,3.00,25.00,-965.00
2024-06-07 14:51:29.963251,0,-1,0,0,2,0,71,73,149,130,51,134.14,58,11.00,10.00,-960.00
2024-06-07 14:51:30.166169,0,-3,0,0,2,0,71,73,147,130,51,134.09,58,-13.00,10.00,-988.00
2024-06-07 14:51:30.167230,0,-5,0,0,1,0,71,73,147,130,51,133.84,58,-12.00,32.00,-980.00
2024-06-07 14:51:30.269447,0,-3,-1,0,0,0,71,73,148,130,51,134.15,58,1.00,27.00,-982.00
2024-06-07 14:51:30.371232,0,-2,-1,0,0,0,71,73,149,130,51,133.86,58,4.00,25.00,-981.00
2024-06-07 14:51:30.473724,0,-2,-1,0,0,0,71,73,147,130,51,134.03,59,-4.00,34.00,-993.00
2024-06-07 14:51:30.575404,0,-2,-1,0,0,0,71,73,147,130,50,134.41,59,-1.00,35.00,-995.00
2024-06-07 14:51:30.678195,0,-2,0,0,0,0,71,73,146,130,50,134.03,59,-4.00,44.00,-1003.00
2024-06-07 14:51:30.780778,0,-2,-1,0,0,0,71,73,146,130,50,133.94,59,4.00,48.00,-1009.00
2024-06-07 14:51:30.883732,0,-2,-1,0,0,0,71,73,145,130,50,133.87,59,-13.00,43.00,-997.00
2024-06-07 14:51:30.983212,0,-3,-1,0,0,0,71,73,144,130,50,133.87,59,2.00,30.00,-1003.00
2024-06-07 14:51:31.087731,0,-3,-1,0,0,0,71,73,144,130,50,134.09,59,-10.00,42.00,-1022.00
2024-06-07 14:51:31.188022,0,-2,-1,0,0,0,71,73,147,130,50,133.81,59,-4.00,30.00,-1012.00
2024-06-07 14:51:31.292566,0,-2,-1,0,0,0,71,73,144,130,50,134.02,59,0.00,33.00,-1018.00
2024-06-07 14:51:31.392068,0,-2,-1,0,0,0,71,73,145,130,50,134.03,59,-8.00,36.00,-1012.00
2024-06-07 14:51:31.493870,0,-2,-1,0,0,0,71,73,145,130,50,134.28,60,-4.00,38.00,-1004.00
2024-06-07 14:51:31.595194,0,-2,-1,0,0,0,71,73,146,130,50,134.03,60,-21.00,44.00,-994.00
2024-06-07 14:51:31.702226,0,-2,-1,0,0,0,71,73,144,130,50,134.09,60,-17.00,35.00,-996.00
2024-06-07 14:51:31.801570,0,-2,-1,0,0,0,71,73,145,130,50,134.28,60,-15.00,41.00,-995.00
2024-06-07 14:51:31.901654,0,-2,-1,0,0,0,71,72,145,130,50,134.04,60,-19.00,47.00,-1010.00
2024-06-07 14:51:32.004280,0,-2,-1,0,0,0,71,72,146,130,50,133.99,60,1.00,43.00,-1016.00
2024-06-07 14:51:32.105645,0,-2,-1,0,0,0,71,72,146,130,50,134.23,60,-3.00,45.00,-996.00
2024-06-07 14:51:32.208542,0,-2,-1,0,0,0,71,72,146,130,50,134.01,60,-6.00,41.00,-998.00
2024-06-07 14:51:32.309531,0,-2,-1,0,0,0,71,72,145,130,50,133.96,60,-3.00,41.00,-997.00
2024-06-07 14:51:32.419747,0,-2,-1,0,0,0,71,72,145,130,50,134.04,60,-4.00,35.00,-986.00
2024-06-07 14:51:32.515093,0,-2,-1,0,0,0,71,72,145,130,50,133.88,61,-15.00,35.00,-1005.00
2024-06-07 14:51:32.564474,0,-2,0,0,0,0,71,72,144,130,49,134.17,61,1.00,40.00,-1007.00
2024-06-07 14:51:32.669420,0,-2,0,0,0,0,71,72,146,130,49,134.16,61,-18.00,55.00,-1013.00
2024-06-07 14:51:32.769183,0,-2,0,0,0,0,71,72,146,130,49,133.87,61,-22.00,43.00,-1004.00
2024-06-07 14:51:32.870490,0,-2,0,0,0,0,71,73,146,130,49,134.05,61,5.00,31.00,-998.00
2024-06-07 14:51:32.974502,0,-2,-1,0,0,0,71,73,146,130,49,134.02,61,-6.00,48.00,-1005.00
2024-06-07 14:51:33.075144,0,-1,-1,0,0,0,71,73,146,130,49,133.88,61,-14.00,40.00,-986.00
2024-06-07 14:51:33.238948,0,-2,-1,0,0,0,71,73,144,130,49,133.98,61,-1.00,43.00,-985.00
2024-06-07 14:51:33.278408,0,-2,-1,0,0,0,71,73,145,130,49,134.02,61,-18.00,56.00,-1004.00
2024-06-07 14:51:33.443246,0,-2,-1,0,0,0,71,73,144,130,49,133.80,61,-21.00,49.00,-998.00
2024-06-07 14:51:33.482311,0,-2,-1,0,0,0,71,73,146,130,49,133.75,62,-23.00,57.00,-1015.00
2024-06-07 14:51:33.652046,-1,-3,-1,0,0,0,71,73,147,130,49,133.89,62,-18.00,51.00,-992.00
2024-06-07 14:51:33.686440,-1,-3,0,0,0,0,71,73,147,130,49,134.08,62,-14.00,65.00,-1007.00
2024-06-07 14:51:33.853413,-1,-3,0,0,0,0,71,73,146,130,49,133.83,62,-11.00,63.00,-989.00
2024-06-07 14:51:33.890911,-1,-4,0,0,0,0,71,72,146,130,49,134.07,62,-25.00,66.00,-989.00
2024-06-07 14:51:34.025978,-1,-4,0,0,0,0,71,72,146,130,49,134.02,62,-15.00,68.00,-993.00
2024-06-07 14:51:34.094244,0,-4,0,0,0,0,71,72,148,130,49,133.95,62,-16.00,58.00,-982.00
2024-06-07 14:51:34.264376,0,-3,-1,0,0,0,71,72,147,130,49,134.01,62,-16.00,68.00,-990.00
2024-06-07 14:51:34.298131,0,-3,-1,0,0,0,71,72,148,130,49,134.15,62,-11.00,71.00,-988.00
2024-06-07 14:51:34.401955,0,-4,-1,0,0,0,71,72,147,130,49,133.99,63,-12.00,64.00,-991.00
2024-06-07 14:51:34.502182,0,-4,-1,0,0,0,71,72,148,130,49,134.02,63,-15.00,56.00,-992.00
2024-06-07 14:51:34.671784,0,-4,-1,0,0,0,71,72,145,130,48,134.33,63,-15.00,67.00,-999.00
2024-06-07 14:51:34.709058,-1,-4,-1,0,0,0,71,72,146,130,48,134.00,63,-28.00,73.00,-1015.00
2024-06-07 14:51:34.814303,-1,-4,-1,0,0,0,71,72,145,130,48,134.02,63,-17.00,68.00,-997.00
2024-06-07 14:51:34.912946,-1,-4,-1,0,0,0,71,73,149,130,48,133.57,63,-29.00,58.00,-995.00
2024-06-07 14:51:35.016139,-1,-4,-1,0,0,0,71,73,145,130,48,133.83,63,-22.00,58.00,-1005.00
2024-06-07 14:51:35.115093,-1,-3,-1,0,0,0,71,73,147,130,48,134.21,63,-30.00,67.00,-1013.00
2024-06-07 14:51:35.287421,-1,-3,0,0,0,0,71,73,147,130,48,134.08,63,-8.00,64.00,-987.00
2024-06-07 14:51:35.323398,-1,-3,0,0,0,0,71,73,146,130,48,134.03,63,-6.00,64.00,-992.00
2024-06-07 14:51:35.421112,-1,-3,-1,0,0,0,71,73,145,130,48,133.91,64,-20.00,73.00,-1002.00
2024-06-07 14:51:35.594034,0,-3,-1,0,0,0,71,73,147,130,48,134.13,64,-24.00,67.00,-1007.00
2024-06-07 14:51:35.625016,0,-4,-1,0,0,0,71,73,147,130,48,134.36,64,-31.00,70.00,-977.00
2024-06-07 14:51:35.798498,-1,-4,-1,0,0,0,71,73,147,130,48,134.07,64,-14.00,81.00,-1005.00
2024-06-07 14:51:35.829025,-1,-4,0,0,0,0,71,73,147,130,48,133.90,64,-26.00,75.00,-989.00
