TS,pitch,roll,yaw,vgx,vgy,vgz,templ,temph,tof,h,bat,baro,time,agx,agy,agz
2024-06-07 14:52:09.387790,1,0,3,0,0,0,74,76,10,0,46,132.57,74,34.00,-4.00,-1000.00
2024-06-07 14:52:09.397904,1,0,3,0,0,0,74,76,10,0,46,132.65,74,33.00,-4.00,-1000.00
2024-06-07 14:52:09.491099,1,0,3,0,0,0,74,76,10,0,46,132.77,74,33.00,-6.00,-1000.00
2024-06-07 14:52:09.593052,1,0,3,0,0,0,74,76,10,0,46,132.83,74,35.00,-4.00,-998.00
2024-06-07 14:52:09.695378,1,0,3,0,0,0,74,76,10,0,46,132.53,74,33.00,-7.00,-1000.00
2024-06-07 14:52:09.797047,1,0,3,0,0,0,74,76,10,0,46,132.42,74,33.00,-5.00,-1000.00
2024-06-07 14:52:09.899049,1,0,3,0,0,0,74,76,10,0,46,132.63,74,34.00,-4.00,-1000.00
2024-06-07 14:52:10.001702,1,0,3,0,0,0,74,76,10,0,46,132.24,74,34.00,-4.00,-999.00
2024-06-07 14:52:10.103054,1,0,3,0,0,0,74,78,10,0,46,132.50,74,34.00,-3.00,-1001.00
2024-06-07 14:52:10.206950,1,0,3,0,0,0,74,78,10,0,46,132.53,74,33.00,-5.00,-999.00
2024-06-07 14:52:10.308361,1,0,3,0,0,0,74,78,10,0,46,132.48,74,33.00,-5.00,-999.00
2024-06-07 14:52:10.409013,1,0,3,0,0,0,74,78,10,0,46,132.60,74,35.00,-5.00,-1001.00
2024-06-07 14:52:10.512037,1,0,3,0,0,0,74,78,10,0,46,132.49,74,33.00,-4.00,-997.00
2024-06-07 14:52:10.615538,1,0,3,0,0,0,74,78,10,0,46,132.63,74,35.00,-5.00,-999.00
2024-06-07 14:52:10.716441,1,0,3,0,0,0,74,78,10,0,46,132.69,74,35.00,-3.00,-997.00
2024-06-07 14:52:10.765828,1,0,3,0,0,0,74,78,10,0,46,132.70,74,34.00,-5.00,-1000.00
2024-06-07 14:52:10.868095,1,0,3,0,0,0,74,78,10,0,46,132.57,74,34.00,-5.00,-1000.00
2024-06-07 14:52:10.969972,1,0,3,0,0,0,74,78,10,0,46,132.48,74,33.00,-5.00,-998.00
2024-06-07 14:52:11.128760,1,0,3,0,0,0,74,77,10,0,46,132.47,74,32.00,-4.00,-1000.00
2024-06-07 14:52:11.174018,1,0,3,0,0,0,74,77,10,0,46,132.54,74,34.00,-4.00,-1000.00
2024-06-07 14:52:11.275851,1,0,3,0,0,0,74,77,10,0,46,132.66,74,35.00,-5.00,-1001.00
2024-06-07 14:52:11.433610,1,0,3,0,0,0,74,77,10,0,46,132.63,74,33.00,-4.00,-997.00
2024-06-07 14:52:11.479834,1,0,3,0,0,0,74,77,10,0,46,132.52,74,33.00,-4.00,-998.00
2024-06-07 14:52:11.581861,1,0,3,0,0,0,74,77,10,0,46,132.58,74,33.00,-5.00,-1002.00
2024-06-07 14:52:11.684024,1,0,3,0,0,0,74,77,10,0,46,132.54,74,35.00,-4.00,-999.00
2024-06-07 14:52:11.785628,1,0,3,0,0,0,74,77,10,0,46,132.71,74,33.00,-5.00,-998.00
2024-06-07 14:52:11.887898,1,0,3,0,0,0,74,77,10,0,46,132.58,74,33.00,-5.00,-999.00
2024-06-07 14:52:12.047458,1,0,3,0,0,0,74,77,10,0,46,132.72,74,33.00,-4.00,-997.00
2024-06-07 14:52:12.091900,1,0,3,0,0,0,75,77,10,0,46,132.76,74,34.00,-5.00,-997.00
2024-06-07 14:52:12.252959,1,0,3,0,0,0,75,77,10,0,46,132.58,74,34.00,-4.00,-999.00
2024-06-07 14:52:12.295866,1,0,3,0,0,0,75,77,10,0,46,132.66,74,34.00,-5.00,-1000.00
2024-06-07 14:52:12.457789,1,0,3,0,0,0,75,77,10,0,46,132.92,74,33.00,-4.00,-996.00
2024-06-07 14:52:12.499781,1,0,3,0,0,0,75,77,10,0,46,132.33,74,33.00,-4.00,-998.00
2024-06-07 14:52:12.601926,1,0,3,0,0,0,75,77,10,0,46,132.60,74,35.00,-6.00,-1001.00
2024-06-07 14:52:12.703868,1,0,3,0,0,0,75,77,10,0,46,132.49,74,34.00,-5.00,-995.00
2024-06-07 14:52:12.866915,1,0,3,0,0,0,75,77,10,0,46,132.57,74,33.00,-8.00,-998.00
2024-06-07 14:52:12.909098,1,0,3,0,0,0,75,77,10,0,46,132.57,74,35.00,2.00,-999.00
2024-06-07 14:52:13.013470,1,0,3,0,0,0,75,77,10,0,46,132.57,74,38.00,-5.00,-1006.00
2024-06-07 14:52:13.112841,1,0,3,0,0,0,75,78,10,0,46,132.57,74,22.00,0.00,-1001.00
2024-06-07 14:52:13.276502,1,0,3,0,0,0,75,78,10,0,46,132.57,74,18.00,-5.00,-999.00
2024-06-07 14:52:13.317533,0,0,3,0,0,0,75,78,10,0,46,132.57,74,-6.00,-1.00,-1125.00
2024-06-07 14:52:13.481631,-1,0,3,0,0,-1,75,78,10,0,46,132.57,74,-27.00,-18.00,-1278.00
2024-06-07 14:52:13.520804,0,0,3,0,0,-4,75,78,10,0,46,132.57,74,-6.00,-19.00,-1284.00
2024-06-07 14:52:13.685771,0,0,3,0,0,-6,75,78,11,0,46,132.57,74,-22.00,-25.00,-1141.00
2024-06-07 14:52:13.724800,0,0,3,0,0,-7,75,78,18,10,46,132.98,75,-42.00,-4.00,-1056.00
2024-06-07 14:52:13.890554,-1,0,3,0,0,-7,75,78,27,20,46,133.25,75,-53.00,-8.00,-996.00
2024-06-07 14:52:13.930692,-1,0,3,0,0,-7,75,78,35,20,46,132.79,75,-28.00,-11.00,-970.00
2024-06-07 14:52:14.030673,-2,0,3,0,0,-7,75,78,43,30,46,133.10,75,-22.00,-12.00,-936.00
2024-06-07 14:52:14.198303,-2,1,3,0,0,-6,76,78,51,40,46,133.21,75,-26.00,-13.00,-886.00
2024-06-07 14:52:14.234689,-2,0,3,0,0,-5,76,78,57,40,46,133.29,75,-32.00,-8.00,-882.00
2024-06-07 14:52:14.403502,-2,0,3,0,0,-4,76,78,63,50,46,133.16,75,-39.00,0.00,-897.00
2024-06-07 14:52:14.403552,-2,0,3,0,0,-3,76,78,69,50,46,133.48,75,-20.00,-7.00,-907.00
2024-06-07 14:52:14.490717,-2,0,3,0,0,-2,76,78,71,50,46,133.50,75,-31.00,4.00,-902.00
2024-06-07 14:52:14.593501,-2,0,3,0,0,-1,76,78,74,60,46,133.22,75,-43.00,7.00,-933.00
2024-06-07 14:52:14.693646,-2,0,3,0,0,0,76,78,77,60,46,133.34,76,-29.00,5.00,-949.00
2024-06-07 14:52:14.795723,-2,0,3,0,0,0,76,78,78,60,46,133.47,76,-33.00,6.00,-970.00
2024-06-07 14:52:14.897812,-2,0,3,0,0,0,76,78,79,60,46,133.33,76,-43.00,19.00,-977.00
2024-06-07 14:52:14.999629,-2,0,3,0,0,0,76,78,80,60,46,133.56,76,-40.00,15.00,-986.00
2024-06-07 14:52:15.121306,-2,0,3,0,0,0,75,78,81,60,46,133.35,76,-45.00,14.00,-985.00
2024-06-07 14:52:15.205814,-3,-1,3,0,0,0,75,78,82,60,46,133.66,76,-41.00,10.00,-997.00
2024-06-07 14:52:15.305953,-3,-1,3,0,0,0,75,78,83,60,46,133.54,76,-34.00,12.00,-1000.00
2024-06-07 14:52:15.426601,-2,-1,3,0,0,0,75,78,83,60,46,133.45,76,-33.00,5.00,-1011.00
2024-06-07 14:52:15.509644,-2,-1,3,0,0,0,75,78,84,60,46,133.42,76,-41.00,5.00,-994.00
2024-06-07 14:52:15.631270,-2,0,3,0,0,0,75,78,84,60,46,133.58,76,-50.00,17.00,-989.00
2024-06-07 14:52:15.713685,-2,0,3,0,0,0,75,78,84,60,46,133.40,77,-45.00,24.00,-997.00
2024-06-07 14:52:15.815534,-3,-1,3,0,0,0,75,78,85,70,46,133.50,77,-42.00,7.00,-984.00
2024-06-07 14:52:15.917593,-3,-1,3,0,0,0,75,78,85,70,46,133.37,77,-41.00,9.00,-982.00
2024-06-07 14:52:16.040916,-2,0,3,0,0,0,75,78,85,70,46,133.86,77,-39.00,15.00,-970.00
2024-06-07 14:52:16.121654,-2,-1,3,0,0,0,75,78,85,70,46,133.27,77,-41.00,11.00,-991.00
2024-06-07 14:52:16.246482,-1,-1,3,0,0,0,75,78,84,70,46,133.49,77,-43.00,8.00,-994.00
2024-06-07 14:52:16.325534,-1,0,3,0,0,0,75,78,84,70,46,133.56,77,-34.00,-3.00,-998.00
2024-06-07 14:52:16.427529,-2,0,3,0,0,0,75,78,83,70,46,133.53,77,-34.00,9.00,-1000.00
2024-06-07 14:52:16.552848,-2,0,3,0,0,0,75,78,83,70,46,133.41,77,-49.00,10.00,-987.00
2024-06-07 14:52:16.632974,-2,0,3,0,0,0,75,78,83,70,46,133.48,77,-47.00,11.00,-995.00
2024-06-07 14:52:16.733602,-2,0,3,0,0,0,75,78,82,70,46,133.39,78,-30.00,3.00,-1004.00
2024-06-07 14:52:16.860044,-2,0,3,0,0,0,75,78,82,70,46,133.56,78,-46.00,10.00,-997.00
2024-06-07 14:52:16.938085,-2,0,3,0,0,0,75,78,82,60,46,133.37,78,-45.00,10.00,-982.00
2024-06-07 14:52:17.039554,-2,0,3,0,0,0,75,78,82,60,46,133.64,78,-38.00,10.00,-999.00
2024-06-07 14:52:17.167251,-2,0,3,0,0,0,75,78,82,60,46,133.42,78,-49.00,4.00,-1010.00
2024-06-07 14:52:17.243469,-2,0,3,0,0,0,75,78,81,60,46,133.37,78,-51.00,13.00,-1010.00
2024-06-07 14:52:17.373252,-2,0,3,0,0,0,75,78,82,60,46,133.20,78,-41.00,0.00,-995.00
2024-06-07 14:52:17.447975,-3,0,3,0,0,0,75,78,81,60,46,133.64,78,-35.00,0.00,-988.00
2024-06-07 14:52:17.549520,-3,0,3,0,0,0,75,78,81,60,46,133.45,78,-38.00,6.00,-1010.00
2024-06-07 14:52:17.651917,-2,0,3,0,0,0,75,78,81,60,46,133.50,78,-30.00,0.00,-1010.00
2024-06-07 14:52:17.781694,-2,0,3,0,0,0,75,78,81,60,46,133.87,79,-57.00,22.00,-1015.00
2024-06-07 14:52:17.857281,-2,0,3,0,0,0,75,78,81,60,46,133.21,79,-45.00,12.00,-1002.00
2024-06-07 14:52:17.906448,-2,0,3,0,0,0,75,78,80,60,46,133.77,79,-27.00,4.00,-1002.00
2024-06-07 14:52:18.008653,-2,0,3,0,0,0,75,78,81,60,46,133.46,79,-37.00,0.00,-980.00
2024-06-07 14:52:18.110739,-2,0,3,0,0,0,75,78,81,60,46,133.64,79,-35.00,5.00,-994.00
2024-06-07 14:52:18.293724,-1,0,3,0,0,0,75,78,81,60,46,133.44,79,-22.00,4.00,-1012.00
2024-06-07 14:52:18.366411,-2,0,3,0,0,0,75,78,80,60,46,133.64,79,-31.00,5.00,-998.00
2024-06-07 14:52:18.498554,-1,0,3,0,0,0,75,78,80,60,46,133.48,79,-37.00,-1.00,-992.00
2024-06-07 14:52:18.519737,-1,0,3,0,0,0,75,78,81,60,46,133.71,79,-32.00,1.00,-977.00
2024-06-07 14:52:18.620455,-1,0,3,0,0,0,75,78,80,60,46,133.57,79,-44.00,16.00,-1019.00
2024-06-07 14:52:18.806579,-1,0,3,0,0,0,75,78,81,60,46,133.70,80,-34.00,8.00,-1019.00
2024-06-07 14:52:18.824405,-2,0,3,0,0,0,75,78,80,60,46,133.53,80,-34.00,13.00,-982.00
2024-06-07 14:52:18.926587,-2,0,3,0,0,0,75,78,81,60,46,133.50,80,-46.00,15.00,-999.00
2024-06-07 14:52:19.114053,-2,0,3,0,0,0,75,78,81,60,46,133.72,80,-25.00,9.00,-980.00
2024-06-07 14:52:19.130603,-2,0,3,0,0,0,76,77,82,60,46,133.51,80,-36.00,17.00,-992.00
2024-06-07 14:52:19.317809,-1,0,3,0,0,0,76,77,81,60,46,133.29,80,-33.00,17.00,-974.00
2024-06-07 14:52:19.338787,-1,0,3,0,0,0,76,77,81,60,46,133.40,80,-37.00,14.00,-983.00
2024-06-07 14:52:19.436833,-2,-1,3,0,0,0,76,77,81,60,46,133.51,80,-47.00,22.00,-998.00
2024-06-07 14:52:19.538999,-2,-1,3,0,0,0,76,77,82,60,46,133.33,80,-34.00,18.00,-1021.00
2024-06-07 14:52:19.640552,-2,-1,3,0,0,0,76,77,82,60,46,133.57,80,-29.00,7.00,-992.00
2024-06-07 14:52:19.829903,-2,-1,3,0,0,0,76,77,82,60,46,133.38,81,-33.00,11.00,-1008.00
2024-06-07 14:52:19.844455,-1,-1,3,0,0,0,76,77,82,60,46,133.62,81,-42.00,27.00,-1004.00
2024-06-07 14:52:20.034655,-2,0,3,0,0,0,76,77,83,60,46,133.55,81,-34.00,20.00,-1002.00
2024-06-07 14:52:20.048402,-2,-1,3,0,0,0,76,77,83,60,46,133.31,81,-55.00,25.00,-999.00
2024-06-07 14:52:20.241582,-1,-1,3,0,0,0,75,78,83,60,46,133.43,81,-55.00,17.00,-991.00
2024-06-07 14:52:20.253019,-2,-1,3,0,0,0,75,78,83,60,46,133.73,81,-35.00,5.00,-982.00
2024-06-07 14:52:20.355515,-2,-1,3,0,0,0,75,78,84,60,46,133.62,81,-37.00,19.00,-1005.00
2024-06-07 14:52:20.462198,-2,0,3,0,0,0,75,78,84,70,46,133.65,81,-44.00,9.00,-989.00
2024-06-07 14:52:20.558389,-2,0,3,0,0,0,75,78,84,70,46,133.77,81,-48.00,9.00,-1001.00
2024-06-07 14:52:20.660644,-2,0,3,0,0,0,75,78,84,70,46,133.63,81,-45.00,10.00,-990.00
2024-06-07 14:52:20.855100,-2,0,3,0,0,0,75,78,85,70,46,133.58,82,-33.00,15.00,-1003.00
2024-06-07 14:52:20.868196,-2,0,3,0,0,0,75,78,85,70,46,133.55,82,-32.00,25.00,-985.00
2024-06-07 14:52:20.967018,-2,0,3,0,0,0,75,78,85,70,46,133.46,82,-24.00,25.00,-1013.00
2024-06-07 14:52:21.069253,-2,-1,3,0,0,0,75,78,85,70,46,133.49,82,-43.00,32.00,-1092.00
2024-06-07 14:52:21.170783,-2,-1,3,0,0,0,76,78,85,70,46,133.57,82,-45.00,25.00,-1086.00
2024-06-07 14:52:21.273733,-1,-1,3,0,0,-1,76,78,86,70,46,133.76,82,-38.00,14.00,-1091.00
2024-06-07 14:52:21.468722,-1,-1,3,0,0,-2,76,78,89,70,46,133.47,82,-31.00,24.00,-1091.00
2024-06-07 14:52:21.476289,-2,-1,3,0,0,-3,76,78,92,70,46,133.64,82,-34.00,21.00,-1072.00
2024-06-07 14:52:21.578623,-2,-1,3,0,0,-4,76,78,97,80,46,133.86,82,-19.00,25.00,-1076.00
2024-06-07 14:52:21.682022,-2,-1,3,0,0,-4,76,78,101,80,46,133.92,82,-40.00,36.00,-1038.00
2024-06-07 14:52:21.782315,-1,-1,3,0,0,-5,76,78,108,90,46,133.59,83,-22.00,17.00,-1014.00
2024-06-07 14:52:21.980102,-1,-1,3,0,0,-5,76,78,113,90,46,134.02,83,-13.00,12.00,-1020.00
2024-06-07 14:52:21.980262,-1,-1,3,0,0,-5,76,78,118,100,46,134.02,83,-13.00,19.00,-1013.00
2024-06-07 14:52:22.037359,-1,-1,3,0,0,-5,76,78,125,100,46,133.91,83,-20.00,8.00,-972.00
2024-06-07 14:52:22.190229,-1,0,3,0,0,-5,75,78,129,110,46,134.17,83,-25.00,12.00,-996.00
2024-06-07 14:52:22.241216,-1,0,3,0,0,-5,75,78,135,110,46,134.01,83,-20.00,11.00,-969.00
2024-06-07 14:52:22.389679,-1,0,3,0,0,-5,75,78,139,120,46,134.08,83,-31.00,2.00,-964.00
2024-06-07 14:52:22.445264,-1,0,3,0,0,-5,75,78,146,120,46,134.16,83,-39.00,11.00,-969.00
2024-06-07 14:52:22.594470,-1,0,3,0,0,-4,75,78,151,130,46,134.09,83,-31.00,11.00,-961.00
2024-06-07 14:52:22.652283,-1,0,3,0,0,-4,75,78,157,130,46,134.37,83,-41.00,5.00,-942.00
2024-06-07 14:52:22.754438,-1,0,3,0,0,-4,75,78,160,140,46,134.43,84,-22.00,-1.00,-970.00
2024-06-07 14:52:22.853215,-1,0,3,0,0,-3,75,78,162,140,46,133.93,84,-27.00,2.00,-981.00
2024-06-07 14:52:22.955204,-1,0,3,0,0,-3,75,78,167,150,46,134.34,84,-36.00,1.00,-952.00
2024-06-07 14:52:23.108935,-1,0,3,0,0,-3,75,78,171,150,46,134.04,84,-41.00,9.00,-962.00
2024-06-07 14:52:23.161795,-1,0,3,0,0,-2,75,77,176,150,46,134.43,84,-42.00,9.00,-964.00
2024-06-07 14:52:23.261174,-1,0,3,0,0,-2,75,77,177,160,46,134.43,84,-26.00,13.00,-970.00
2024-06-07 14:52:23.365246,-1,0,3,0,0,-1,75,77,179,160,46,134.23,84,-26.00,23.00,-965.00
2024-06-07 14:52:23.466236,-2,0,3,0,0,-1,75,77,180,160,46,134.61,84,-39.00,32.00,-963.00
2024-06-07 14:52:23.569485,-1,0,3,0,0,-1,75,77,181,160,46,134.66,84,-48.00,36.00,-958.00
2024-06-07 14:52:23.669190,-1,-1,3,0,0,-1,75,77,184,160,46,134.45,84,-20.00,24.00,-955.00
2024-06-07 14:52:23.824258,-1,-1,3,0,0,0,75,77,183,160,46,134.51,85,-20.00,22.00,-968.00
2024-06-07 14:52:23.883129,-1,-1,3,0,0,0,75,77,184,160,46,134.22,85,-24.00,31.00,-979.00
2024-06-07 14:52:23.976584,-1,-1,3,0,0,0,75,77,186,160,46,134.54,85,-10.00,32.00,-986.00
2024-06-07 14:52:24.078233,-1,-1,3,0,0,0,75,77,182,170,46,134.69,85,-24.00,45.00,-987.00
2024-06-07 14:52:24.233225,-1,-2,3,0,0,0,76,78,184,170,46,134.35,85,-18.00,33.00,-992.00
2024-06-07 14:52:24.282723,-1,-2,3,0,0,0,76,78,185,170,46,134.56,85,-19.00,34.00,-1004.00
2024-06-07 14:52:24.384620,-1,-2,3,0,0,0,76,78,184,170,46,134.44,85,-38.00,38.00,-990.00
2024-06-07 14:52:24.540253,-1,-2,3,0,0,0,76,78,187,170,46,134.67,85,-12.00,46.00,-997.00
2024-06-07 14:52:24.588993,-1,-2,3,0,0,0,76,78,184,170,46,134.36,85,-12.00,36.00,-987.00
2024-06-07 14:52:24.690248,0,-2,3,0,0,0,76,78,185,170,46,134.39,85,-23.00,52.00,-1014.00
2024-06-07 14:52:24.792601,-1,-2,3,0,0,0,76,78,182,170,46,134.69,86,-10.00,39.00,-992.00
2024-06-07 14:52:24.894828,-1,-2,3,0,0,0,76,78,183,170,46,134.50,86,-14.00,56.00,-999.00
2024-06-07 14:52:24.998754,0,-3,3,0,0,0,76,78,185,170,46,134.36,86,-31.00,50.00,-996.00
2024-06-07 14:52:25.098912,0,-3,3,0,0,0,76,78,186,170,46,134.57,86,-17.00,52.00,-1005.00
2024-06-07 14:52:25.200351,0,-3,3,0,0,0,76,77,187,170,46,134.67,86,-8.00,39.00,-1003.00
2024-06-07 14:52:25.302175,0,-3,3,0,0,0,76,77,185,170,46,134.61,86,-22.00,40.00,-989.00
2024-06-07 14:52:25.462013,0,-2,3,0,0,0,76,77,184,170,46,134.36,86,-21.00,44.00,-1000.00
2024-06-07 14:52:25.509103,0,-2,3,0,0,0,76,77,184,170,46,134.29,86,-16.00,50.00,-991.00
2024-06-07 14:52:25.608073,0,-2,3,0,0,0,76,77,184,170,46,134.57,86,-11.00,47.00,-985.00
2024-06-07 14:52:25.659664,0,-2,3,0,0,0,76,77,188,170,46,134.59,86,-7.00,42.00,-990.00
2024-06-07 14:52:25.770059,0,-3,3,0,0,0,76,77,185,170,46,134.30,87,-29.00,53.00,-970.00
2024-06-07 14:52:25.864804,0,-2,3,0,0,0,76,77,182,170,46,134.36,87,-19.00,38.00,-936.00
2024-06-07 14:52:25.965263,0,-2,3,0,0,1,76,77,183,160,46,134.40,87,-28.00,51.00,-955.00
2024-06-07 14:52:26.066990,0,-2,3,0,0,1,76,77,181,160,46,134.46,87,-34.00,47.00,-954.00
2024-06-07 14:52:26.178428,-1,-2,3,0,0,2,75,77,179,160,46,134.66,87,-27.00,44.00,-939.00
2024-06-07 14:52:26.273460,-1,-2,3,0,0,2,75,77,175,160,46,134.56,87,-32.00,38.00,-944.00
2024-06-07 14:52:26.373865,-1,-2,3,0,0,2,75,77,171,160,46,134.54,87,-14.00,27.00,-971.00
2024-06-07 14:52:26.474983,-1,-2,3,0,0,2,75,77,169,150,46,134.46,87,-18.00,49.00,-979.00
2024-06-07 14:52:26.576993,0,-2,3,0,0,2,75,77,168,150,46,134.56,87,2.00,40.00,-979.00
2024-06-07 14:52:26.690972,0,-2,3,0,0,2,75,77,164,150,46,134.46,87,-4.00,49.00,-995.00
2024-06-07 14:52:26.782979,0,-2,3,0,0,2,75,77,163,150,46,134.23,88,-5.00,40.00,-1000.00
2024-06-07 14:52:26.883002,0,-2,3,0,0,2,75,77,158,140,46,134.19,88,-19.00,50.00,-1009.00
2024-06-07 14:52:26.998242,0,-2,3,0,0,2,75,77,156,140,46,134.51,88,-8.00,48.00,-1008.00
2024-06-07 14:52:27.088687,0,-3,3,0,0,2,75,77,155,140,46,134.09,88,-26.00,51.00,-1004.00
2024-06-07 14:52:27.189678,0,-2,3,0,0,2,75,77,151,140,46,134.35,88,-11.00,36.00,-1012.00
2024-06-07 14:52:27.294025,0,-1,3,0,0,2,75,77,149,130,46,134.42,88,-10.00,34.00,-996.00
2024-06-07 14:52:27.392917,0,-1,3,0,0,2,75,77,148,130,46,134.00,88,-22.00,30.00,-1002.00
2024-06-07 14:52:27.494845,0,-2,3,0,0,2,75,77,146,130,46,134.20,88,-17.00,13.00,-989.00
2024-06-07 14:52:27.598874,0,-2,3,0,0,1,75,77,144,130,46,134.07,88,-30.00,6.00,-996.00
2024-06-07 14:52:27.701031,0,-2,3,0,0,1,75,77,141,130,46,134.41,88,-33.00,10.00,-1014.00
2024-06-07 14:52:27.804769,0,-1,3,0,0,1,75,77,140,120,46,134.15,89,-40.00,12.00,-1019.00
2024-06-07 14:52:27.902886,0,0,3,0,0,1,75,77,140,120,46,134.20,89,-32.00,7.00,-1017.00
2024-06-07 14:52:28.005154,-1,0,3,0,0,1,75,77,138,120,46,133.95,89,-33.00,26.00,-1046.00
2024-06-07 14:52:28.124183,-1,0,3,0,0,0,75,77,138,120,46,134.12,89,-54.00,22.00,-1016.00
2024-06-07 14:52:28.211388,-1,0,3,0,0,0,74,77,137,120,46,133.99,89,-45.00,35.00,-1020.00
2024-06-07 14:52:28.311059,-2,0,3,0,0,0,74,77,139,120,46,133.74,89,-44.00,21.00,-1019.00
2024-06-07 14:52:28.413335,-2,0,3,0,0,0,74,77,137,120,46,133.87,89,-40.00,31.00,-1010.00
2024-06-07 14:52:28.515061,-2,0,3,0,0,0,74,77,140,120,46,134.19,89,-31.00,30.00,-994.00
2024-06-07 14:52:28.636350,-2,-1,3,0,0,0,74,77,140,120,46,134.17,89,-16.00,44.00,-1003.00
2024-06-07 14:52:28.719053,-2,-1,3,0,0,0,74,77,137,120,46,134.20,90,-16.00,33.00,-986.00
2024-06-07 14:52:28.820928,-1,-1,3,0,0,0,74,77,139,120,46,134.02,90,-16.00,37.00,-994.00
2024-06-07 14:52:28.923563,-1,-2,3,0,0,0,74,77,138,120,46,134.50,90,-28.00,49.00,-979.00
2024-06-07 14:52:29.025338,-1,-2,3,0,0,0,74,77,139,120,46,134.29,90,-9.00,43.00,-998.00
2024-06-07 14:52:29.148165,0,-2,3,0,0,0,74,77,140,120,46,134.24,90,-18.00,38.00,-995.00
2024-06-07 14:52:29.231720,0,-2,3,0,0,0,75,77,138,120,46,133.95,90,-18.00,40.00,-988.00
2024-06-07 14:52:29.332490,0,-3,3,0,0,0,75,77,138,120,46,133.91,90,-22.00,38.00,-996.00
2024-06-07 14:52:29.437481,0,-2,3,0,0,0,75,77,138,120,46,134.12,90,-24.00,41.00,-1005.00
2024-06-07 14:52:29.483980,0,-2,3,0,0,0,75,77,140,120,46,133.86,90,-39.00,35.00,-977.00
2024-06-07 14:52:29.586385,-1,-2,3,0,0,0,75,77,137,120,46,134.15,90,-33.00,34.00,-999.00
2024-06-07 14:52:29.693849,-1,-2,3,0,0,0,75,77,138,120,46,134.11,91,-24.00,25.00,-1003.00
2024-06-07 14:52:29.790924,-1,-2,3,0,0,0,75,77,138,120,46,133.99,91,-36.00,40.00,-1011.00
2024-06-07 14:52:29.958872,-1,-2,3,0,0,0,75,77,139,120,46,134.30,91,-23.00,36.00,-1011.00
2024-06-07 14:52:29.994743,-1,-2,3,0,0,0,75,77,140,120,46,134.01,91,-39.00,39.00,-999.00
2024-06-07 14:52:30.096734,-3,-2,3,0,0,0,75,77,140,120,46,134.28,91,-35.00,28.00,-1009.00
2024-06-07 14:52:30.275244,-8,-1,3,0,0,0,76,78,141,120,46,134.06,91,-13.00,36.00,-946.00
2024-06-07 14:52:30.300732,-8,-1,3,1,0,0,76,78,142,120,46,134.03,91,-41.00,36.00,-991.00
2024-06-07 14:52:30.479376,-8,-2,3,2,0,0,76,78,143,120,46,133.97,91,-44.00,35.00,-986.00
2024-06-07 14:52:30.506984,-8,-2,3,3,0,0,76,78,143,120,46,134.04,91,-62.00,22.00,-990.00
2024-06-07 14:52:30.606734,-8,-1,4,4,0,0,76,78,140,120,46,133.83,91,-82.00,33.00,-1012.00
2024-06-07 14:52:30.786397,-8,-1,3,5,0,0,76,78,140,120,46,133.96,92,-101.00,41.00,-1005.00
2024-06-07 14:52:30.811055,-8,-2,3,5,0,0,76,78,139,120,46,133.81,92,-85.00,20.00,-979.00
2024-06-07 14:52:30.913059,-8,-2,3,5,0,0,76,78,140,120,46,133.68,92,-101.00,36.00,-981.00
2024-06-07 14:52:31.014744,-8,-2,3,6,0,0,76,78,140,120,46,134.09,92,-90.00,21.00,-1001.00
2024-06-07 14:52:31.195976,-6,-2,3,6,0,0,76,78,137,120,46,133.49,92,-121.00,29.00,-1002.00
2024-06-07 14:52:31.218691,-3,-1,3,6,0,0,75,77,138,120,46,133.90,92,-117.00,29.00,-1005.00
2024-06-07 14:52:31.401025,-1,-1,3,5,0,0,75,77,137,120,46,133.74,92,-111.00,16.00,-991.00
2024-06-07 14:52:31.423563,0,-1,3,4,0,0,75,77,135,120,46,133.85,92,-100.00,21.00,-1013.00
2024-06-07 14:52:31.606856,-1,-1,3,3,0,0,75,77,137,120,46,133.79,92,-88.00,38.00,-989.00
2024-06-07 14:52:31.633606,-2,0,3,3,0,0,75,77,136,120,46,134.00,92,-62.00,46.00,-970.00
2024-06-07 14:52:31.729084,-2,-1,3,3,0,0,75,77,135,120,46,133.56,93,-65.00,60.00,-996.00
2024-06-07 14:52:31.830680,-1,-2,3,3,0,0,75,77,135,120,46,134.22,93,-82.00,16.00,-1007.00
2024-06-07 14:52:32.015192,-2,-2,3,3,0,0,75,77,134,120,46,134.13,93,-51.00,36.00,-984.00
2024-06-07 14:52:32.034616,-1,-2,3,2,0,0,75,77,135,120,46,134.08,93,-83.00,45.00,-994.00
2024-06-07 14:52:32.223148,-2,-2,3,2,0,0,75,77,134,120,46,133.75,93,-73.00,23.00,-1000.00
2024-06-07 14:52:32.240967,-2,-2,3,2,0,0,75,77,134,120,46,133.88,93,-75.00,30.00,-1011.00
2024-06-07 14:52:32.340649,-2,-1,3,2,0,0,75,77,134,120,46,133.96,93,-52.00,33.00,-1017.00
2024-06-07 14:52:32.527054,-2,-1,3,2,0,0,75,77,133,120,46,133.92,93,-64.00,26.00,-1005.00
2024-06-07 14:52:32.544679,-2,-1,3,2,0,0,75,77,132,120,46,133.91,93,-68.00,36.00,-975.00
2024-06-07 14:52:32.732024,-1,-1,3,2,0,0,75,77,134,120,46,133.83,93,-71.00,28.00,-982.00
2024-06-07 14:52:32.749415,0,-2,3,1,0,0,75,77,134,120,46,133.77,94,-75.00,3.00,-974.00
2024-06-07 14:52:32.850593,0,-1,3,0,0,0,75,77,132,120,46,134.02,94,-66.00,11.00,-1001.00
2024-06-07 14:52:32.952667,-1,0,3,0,0,0,75,77,133,120,46,133.76,94,-55.00,18.00,-998.00
2024-06-07 14:52:33.003592,-2,0,3,0,0,0,75,77,134,120,46,133.74,94,-45.00,14.00,-1008.00
2024-06-07 14:52:33.141543,-2,2,3,0,0,0,75,77,135,120,46,133.96,94,-45.00,37.00,-999.00
2024-06-07 14:52:33.207802,-2,1,3,0,1,0,75,77,133,120,46,133.93,94,-35.00,49.00,-964.00
2024-06-07 14:52:33.310373,-1,-4,3,0,1,0,75,77,135,120,46,134.15,94,-34.00,25.00,-1024.00
2024-06-07 14:52:33.411691,-1,-3,3,0,0,0,75,77,136,120,46,134.25,94,-23.00,40.00,-999.00
2024-06-07 14:52:33.551530,0,-3,3,0,0,0,75,77,136,120,46,133.88,94,-51.00,37.00,-1003.00
2024-06-07 14:52:33.616544,-1,-2,3,0,0,0,75,77,136,120,46,134.27,94,-29.00,42.00,-1009.00
2024-06-07 14:52:33.757730,-1,-1,3,0,0,0,75,77,135,120,46,134.00,95,-31.00,45.00,-993.00
2024-06-07 14:52:33.820842,-1,-1,3,0,0,0,75,77,136,120,46,134.10,95,-35.00,45.00,-981.00
2024-06-07 14:52:33.961852,-1,-2,3,0,0,0,75,77,136,120,46,134.18,95,-48.00,37.00,-990.00
2024-06-07 14:52:34.023728,-1,-2,3,0,0,0,75,77,137,120,46,134.12,95,-38.00,46.00,-1000.00
2024-06-07 14:52:34.165699,-2,-2,3,0,0,0,75,77,136,120,46,134.20,95,-32.00,41.00,-988.00
2024-06-07 14:52:34.232181,-2,-2,3,0,0,0,74,77,136,120,46,134.10,95,-55.00,51.00,-1002.00
2024-06-07 14:52:34.329693,-1,-2,3,0,0,0,74,77,135,120,46,134.33,95,-22.00,34.00,-1003.00
2024-06-07 14:52:34.475016,-1,-2,3,0,0,0,74,77,136,120,46,133.93,95,-23.00,46.00,-993.00
2024-06-07 14:52:34.533714,-1,-2,3,0,0,0,74,77,137,120,46,133.91,95,-25.00,35.00,-988.00
2024-06-07 14:52:34.636672,-1,-2,3,0,0,0,74,77,135,120,46,133.84,95,-36.00,39.00,-1006.00
2024-06-07 14:52:34.782901,-1,-3,3,0,0,0,74,77,136,120,46,134.17,96,-36.00,35.00,-1009.00
2024-06-07 14:52:34.840815,-1,-2,3,0,0,0,74,77,136,120,46,134.08,96,-18.00,36.00,-1009.00
2024-06-07 14:52:34.941495,-1,-2,3,0,0,0,74,77,135,120,46,133.92,96,-26.00,48.00,-1009.00
2024-06-07 14:52:35.087850,-1,-2,3,0,0,0,74,77,137,120,46,134.15,96,-22.00,45.00,-995.00
2024-06-07 14:52:35.146706,-1,-2,3,0,0,0,74,77,136,120,46,134.10,96,-24.00,49.00,-992.00
2024-06-07 14:52:35.250520,-1,-2,3,0,0,0,75,77,137,120,46,134.02,96,-32.00,48.00,-988.00
2024-06-07 14:52:35.349520,0,-2,3,0,0,0,75,77,137,120,46,133.83,96,-31.00,52.00,-989.00
2024-06-07 14:52:35.496739,5,-1,3,0,0,0,75,77,137,120,46,134.34,96,-34.00,63.00,-1008.00
2024-06-07 14:52:35.558195,7,-1,3,-1,0,0,75,77,137,120,46,134.32,96,-5.00,59.00,-1017.00
2024-06-07 14:52:35.658842,6,-2,3,-3,0,0,75,77,138,120,46,134.06,96,-14.00,60.00,-1018.00
2024-06-07 14:52:35.758108,6,-3,3,-4,0,0,75,77,136,120,46,133.90,97,-2.00,47.00,-1012.00
2024-06-07 14:52:35.859372,5,-3,3,-5,0,0,75,77,137,120,46,134.14,97,-19.00,42.00,-1010.00
2024-06-07 14:52:36.008678,5,-2,3,-6,0,0,75,77,136,120,46,134.03,97,-12.00,48.00,-1024.00
2024-06-07 14:52:36.063437,4,-2,3,-7,0,0,75,77,136,120,46,134.25,97,-3.00,39.00,-1004.00
2024-06-07 14:52:36.214491,3,-1,3,-7,0,0,75,77,137,120,46,134.09,97,-2.00,44.00,-1020.00
2024-06-07 14:52:36.267349,0,-1,3,-8,0,0,75,77,138,120,46,134.12,97,10.00,47.00,-996.00
2024-06-07 14:52:36.369421,-2,-1,3,-8,0,0,75,77,138,120,46,134.51,97,5.00,30.00,-984.00
2024-06-07 14:52:36.473418,-4,-2,3,-7,0,0,75,77,138,120,46,134.26,97,3.00,36.00,-1001.00
2024-06-07 14:52:36.573558,-6,-2,3,-6,0,0,75,77,138,120,46,134.07,97,-7.00,32.00,-983.00
2024-06-07 14:52:36.740281,-6,-2,3,-5,0,0,75,77,139,120,46,134.14,97,-17.00,42.00,-1013.00
2024-06-07 14:52:36.740445,-5,-1,3,-4,0,0,75,77,138,120,46,134.09,98,-23.00,52.00,-996.00
2024-06-07 14:52:36.829077,-3,-1,3,-3,0,0,75,77,138,120,46,134.25,98,-9.00,45.00,-1014.00
2024-06-07 14:52:36.930337,-3,-2,3,-3,0,0,75,77,138,120,46,134.31,98,-18.00,36.00,-1007.00
2024-06-07 14:52:37.032716,-3,-2,3,-3,0,0,75,77,138,120,46,133.92,98,-35.00,37.00,-1003.00
2024-06-07 14:52:37.134875,-3,-2,3,-3,0,0,75,77,138,120,46,134.01,98,-59.00,29.00,-976.00
2024-06-07 14:52:37.242023,-4,-2,3,-3,0,0,75,77,139,120,46,134.29,98,-35.00,26.00,-1014.00
2024-06-07 14:52:37.341702,-7,-1,3,-2,0,0,75,77,140,120,46,134.08,98,-36.00,37.00,-1006.00
2024-06-07 14:52:37.442289,-6,-1,3,-1,0,0,75,77,141,120,46,134.21,98,-59.00,22.00,-1013.00
2024-06-07 14:52:37.544820,-4,-1,3,-1,0,0,75,77,138,120,46,133.92,98,-55.00,31.00,-1009.00
2024-06-07 14:52:37.645427,-4,-1,3,0,0,0,75,77,139,120,46,134.08,98,-63.00,30.00,-1006.00
2024-06-07 14:52:37.750220,-4,-2,3,0,0,0,75,77,139,120,46,134.08,99,-46.00,16.00,-994.00
2024-06-07 14:52:37.849297,-4,-1,3,0,0,0,75,77,140,120,46,134.19,99,-52.00,28.00,-998.00
2024-06-07 14:52:37.959728,-4,-1,3,0,0,0,75,77,140,120,46,134.18,99,-60.00,38.00,-998.00
2024-06-07 14:52:38.053648,-4,-1,3,0,0,0,75,77,140,120,46,134.08,99,-47.00,62.00,-1003.00
2024-06-07 14:52:38.155375,-3,-1,3,0,0,0,75,77,139,120,46,134.02,99,-29.00,61.00,-992.00
2024-06-07 14:52:38.261589,-3,-2,3,0,0,0,74,78,141,120,46,134.05,99,-47.00,53.00,-1000.00
2024-06-07 14:52:38.359552,-2,-3,3,0,0,0,74,78,141,120,46,133.87,99,-51.00,43.00,-999.00
2024-06-07 14:52:38.461197,-1,-3,3,0,0,0,74,78,141,120,46,134.17,99,-42.00,51.00,-997.00
2024-06-07 14:52:38.563452,-1,-3,3,0,0,0,74,78,139,120,46,133.87,99,-57.00,42.00,-985.00
2024-06-07 14:52:38.671765,-1,-2,3,0,0,0,74,78,140,120,46,134.23,99,-42.00,28.00,-994.00
2024-06-07 14:52:38.774916,-1,-1,3,0,0,0,74,78,140,120,46,133.94,100,-44.00,40.00,-997.00
2024-06-07 14:52:38.869543,-1,-2,3,0,0,0,74,78,140,120,46,134.16,100,-53.00,38.00,-1016.00
2024-06-07 14:52:38.971925,-1,-1,3,0,0,0,74,78,140,120,46,134.13,100,-14.00,41.00,-969.00
2024-06-07 14:52:39.084014,-1,-1,3,0,0,0,74,78,140,120,46,133.98,100,-12.00,44.00,-1031.00
2024-06-07 14:52:39.175486,-1,-3,3,0,0,0,74,78,140,120,46,134.18,100,-44.00,48.00,-1002.00
2024-06-07 14:52:39.287608,-1,-4,3,0,0,0,74,77,139,120,46,134.06,100,-45.00,36.00,-996.00
2024-06-07 14:52:39.379452,-1,-3,3,0,0,0,74,77,138,120,46,134.02,100,-49.00,15.00,-973.00
2024-06-07 14:52:39.481806,-1,-1,3,0,0,0,74,77,138,120,46,133.83,100,-37.00,39.00,-987.00
2024-06-07 14:52:39.583246,-1,-1,3,0,0,0,74,77,137,120,46,134.08,100,-49.00,31.00,-998.00
2024-06-07 14:52:39.685243,-1,-1,3,0,0,0,74,77,137,120,46,134.03,100,-43.00,52.00,-988.00
2024-06-07 14:52:39.797581,-2,-5,3,0,0,0,74,77,138,120,46,133.64,101,-35.00,19.00,-1015.00
2024-06-07 14:52:39.889388,-1,-8,3,0,0,0,74,77,139,120,46,134.14,101,-39.00,41.00,-996.00
2024-06-07 14:52:40.002286,-1,-8,3,0,-2,0,74,77,138,120,46,133.80,101,-41.00,56.00,-1016.00
2024-06-07 14:52:40.096006,-2,-7,3,0,-3,0,74,77,138,120,46,134.01,101,-43.00,61.00,-1011.00
2024-06-07 14:52:40.195207,-2,-4,3,0,-3,0,74,77,137,120,46,134.08,101,-34.00,80.00,-1007.00
2024-06-07 14:52:40.297136,-2,-2,3,0,-3,0,75,78,137,120,46,133.93,101,-37.00,76.00,-1002.00
2024-06-07 14:52:40.400543,-2,-2,3,0,-2,0,75,78,137,120,46,133.79,101,-58.00,61.00,-1000.00
2024-06-07 14:52:40.501482,-2,-3,3,0,-2,0,75,78,138,120,46,133.95,101,-63.00,62.00,-1002.00
2024-06-07 14:52:40.620440,-2,-3,3,0,-2,0,75,78,138,120,46,133.97,101,-37.00,54.00,-983.00
2024-06-07 14:52:40.654248,-2,-3,3,0,-2,0,75,78,138,120,46,133.71,101,-57.00,72.00,-1001.00
2024-06-07 14:52:40.821529,-2,-3,3,0,-2,0,75,78,138,120,46,134.20,102,-54.00,64.00,-1014.00
2024-06-07 14:52:40.858345,-2,-3,3,0,-2,0,75,78,137,120,46,134.14,102,-61.00,57.00,-988.00
2024-06-07 14:52:40.960150,-2,-3,3,0,-2,0,75,78,137,120,46,134.01,102,-67.00,71.00,-993.00
2024-06-07 14:52:41.129019,-3,-2,3,0,-2,0,75,78,139,120,46,134.17,102,-61.00,74.00,-990.00
2024-06-07 14:52:41.164249,-3,-3,3,0,-2,0,75,78,138,120,46,134.13,102,-65.00,78.00,-987.00
2024-06-07 14:52:41.334619,-3,-3,3,0,-2,0,76,77,137,120,46,133.71,102,-66.00,76.00,-1002.00
2024-06-07 14:52:41.368138,-2,-3,3,0,-2,0,76,77,138,120,46,134.02,102,-44.00,72.00,-1012.00
2024-06-07 14:52:41.532238,-3,-2,3,0,-2,0,76,77,138,120,46,134.30,102,-60.00,70.00,-989.00
2024-06-07 14:52:41.573034,-2,-2,3,0,-2,0,76,77,136,120,46,133.85,102,-47.00,60.00,-1009.00
2024-06-07 14:52:41.746002,-2,-1,3,0,-1,0,76,77,137,120,46,134.25,102,-48.00,62.00,-995.00
2024-06-07 14:52:41.777028,-2,1,3,0,-1,0,76,77,136,120,46,134.14,103,-53.00,61.00,-1022.00
2024-06-07 14:52:41.879067,-2,0,3,0,0,0,76,77,136,120,46,133.93,103,-45.00,52.00,-1006.00
2024-06-07 14:52:42.050479,-3,-1,3,0,0,0,76,77,137,120,46,134.23,103,-54.00,60.00,-1004.00
2024-06-07 14:52:42.083160,-2,-2,3,0,0,0,76,77,136,120,46,133.71,103,-60.00,54.00,-998.00
2024-06-07 14:52:42.185206,-2,-2,3,0,0,0,76,77,137,120,46,133.99,103,-52.00,38.00,-985.00
2024-06-07 14:52:42.360477,-2,-2,3,0,0,0,75,77,137,120,46,133.99,103,-46.00,37.00,-981.00
2024-06-07 14:52:42.389063,-2,-2,3,0,0,0,75,77,136,120,46,134.20,103,-60.00,46.00,-1009.00
2024-06-07 14:52:42.562971,-3,-2,3,0,0,0,75,77,138,120,46,134.04,103,-46.00,51.00,-1003.00
2024-06-07 14:52:42.593833,-2,-2,3,0,0,0,75,77,140,120,46,133.79,103,-52.00,60.00,-975.00
2024-06-07 14:52:42.768033,-2,-2,3,0,0,0,75,77,137,120,46,133.94,103,-46.00,45.00,-996.00
2024-06-07 14:52:42.797077,-2,-3,3,0,0,0,75,77,140,120,46,133.85,104,-45.00,62.00,-1019.00
2024-06-07 14:52:42.971992,-2,-3,3,0,0,0,75,77,140,120,46,134.20,104,-52.00,47.00,-984.00
2024-06-07 14:52:43.001014,-2,-3,3,0,0,0,75,77,139,120,46,134.25,104,-48.00,46.00,-980.00
2024-06-07 14:52:43.176812,-2,-3,3,0,0,0,75,77,141,120,46,133.83,104,-26.00,54.00,-975.00
2024-06-07 14:52:43.205099,-1,-4,3,0,0,0,75,77,140,120,46,134.09,104,-33.00,60.00,-980.00
2024-06-07 14:52:43.307208,-1,-3,3,0,0,0,74,77,140,120,46,133.71,104,-27.00,50.00,-1002.00
2024-06-07 14:52:43.484050,-1,-3,3,0,0,0,74,77,140,120,46,134.11,104,-15.00,63.00,-1001.00
2024-06-07 14:52:43.511126,-1,-3,3,0,0,0,74,77,140,120,46,133.94,104,-11.00,64.00,-1001.00
2024-06-07 14:52:43.616445,0,-4,3,0,0,0,74,77,141,120,46,134.17,104,-28.00,61.00,-1012.00
2024-06-07 14:52:43.715189,-1,-4,3,0,0,0,74,77,140,120,46,134.12,105,-21.00,58.00,-997.00
2024-06-07 14:52:43.831609,-1,-3,3,0,0,0,74,77,140,120,46,134.22,105,-25.00,60.00,-995.00
2024-06-07 14:52:43.919261,-1,-3,3,0,0,0,74,77,139,120,46,134.02,105,-17.00,63.00,-1000.00
2024-06-07 14:52:44.098256,-1,1,3,0,0,0,74,77,139,120,46,134.00,105,-17.00,73.00,-991.00
2024-06-07 14:52:44.125923,-1,5,3,0,1,0,74,77,140,120,46,134.11,105,-16.00,65.00,-977.00
2024-06-07 14:52:44.224910,-1,2,3,0,3,0,74,77,139,120,46,134.11,105,-37.00,59.00,-1008.00
2024-06-07 14:52:44.405465,0,0,3,0,3,0,75,78,141,120,46,134.01,105,-15.00,45.00,-1015.00
2024-06-07 14:52:44.429018,0,-2,3,0,3,0,75,78,139,120,46,134.12,105,-25.00,40.00,-1012.00
2024-06-07 14:52:44.530929,0,-4,3,0,3,0,75,78,137,120,46,133.85,105,-29.00,39.00,-1028.00
2024-06-07 14:52:44.581957,0,-3,3,0,2,0,75,78,138,120,46,134.21,105,-21.00,42.00,-1009.00
2024-06-07 14:52:44.713700,0,-2,3,0,2,0,75,78,138,120,46,134.05,106,-22.00,38.00,-998.00
2024-06-07 14:52:44.785934,-1,-2,3,0,2,0,75,78,139,120,46,133.93,106,-31.00,47.00,-1002.00
2024-06-07 14:52:44.888391,0,-2,3,0,3,0,75,78,137,120,46,134.11,106,-26.00,53.00,-1002.00
2024-06-07 14:52:45.021811,0,-3,3,0,3,0,75,78,139,120,46,134.12,106,-25.00,39.00,-998.00
2024-06-07 14:52:45.094321,0,-3,3,0,3,0,75,78,136,120,46,133.76,106,-46.00,54.00,-992.00
2024-06-07 14:52:45.194286,0,-3,3,0,3,0,75,78,136,120,46,133.92,106,-38.00,57.00,-1014.00
2024-06-07 14:52:45.327050,-3,-3,3,-1,3,0,75,77,136,120,46,133.97,106,-25.00,63.00,-996.00
2024-06-07 14:52:45.398205,-4,-4,3,0,3,0,75,77,138,120,46,134.11,106,-37.00,61.00,-991.00
2024-06-07 14:52:45.499892,-2,-6,3,0,2,0,75,77,138,120,46,134.26,106,-36.00,67.00,-996.00
2024-06-07 14:52:45.634298,-1,-8,3,0,2,0,75,77,138,120,46,134.38,106,-40.00,66.00,-1020.00
2024-06-07 14:52:45.703889,-1,-7,3,0,1,0,75,77,139,120,46,134.01,107,-41.00,61.00,-1004.00
2024-06-07 14:52:45.806063,-2,-6,3,0,1,0,75,77,138,120,46,134.16,107,-25.00,68.00,-984.00
2024-06-07 14:52:45.908059,-2,-5,3,0,1,0,75,77,138,120,46,134.30,107,-32.00,69.00,-993.00
2024-06-07 14:52:46.047515,-2,-5,3,0,1,0,75,77,138,120,46,134.05,107,-31.00,62.00,-995.00
2024-06-07 14:52:46.111981,-2,-5,3,0,0,0,75,77,138,120,46,134.20,107,-22.00,53.00,-998.00
2024-06-07 14:52:46.213947,-2,-5,3,0,0,0,75,77,138,120,46,134.10,107,-30.00,68.00,-993.00
2024-06-07 14:52:46.352898,-2,-5,3,0,0,0,75,77,139,120,46,134.15,107,-31.00,64.00,-994.00
2024-06-07 14:52:46.417953,-1,-4,3,0,0,0,75,77,139,120,46,134.15,107,-27.00,75.00,-1007.00
2024-06-07 14:52:46.519985,-1,-4,3,0,0,0,75,77,138,120,46,134.00,107,-34.00,73.00,-980.00
2024-06-07 14:52:46.659503,-1,-4,3,0,0,0,75,77,138,120,46,134.15,107,-37.00,62.00,-998.00
2024-06-07 14:52:46.723933,-1,-4,3,0,0,0,75,77,138,120,46,133.89,108,-26.00,53.00,-977.00
2024-06-07 14:52:46.863215,-2,-4,3,0,0,0,75,77,138,120,46,133.96,108,-42.00,77.00,-1024.00
2024-06-07 14:52:46.927878,-2,-4,3,0,0,0,75,77,139,120,46,134.22,108,-46.00,54.00,-958.00
2024-06-07 14:52:47.068426,-2,-3,3,0,0,0,75,77,138,120,46,133.70,108,-52.00,66.00,-1019.00
2024-06-07 14:52:47.131904,-2,-3,3,0,0,0,75,77,137,120,46,133.93,108,-51.00,86.00,-1003.00
2024-06-07 14:52:47.273172,-2,-3,3,0,0,0,75,77,138,120,46,133.88,108,-57.00,79.00,-1006.00
2024-06-07 14:52:47.335935,-2,-3,3,0,0,0,75,77,137,120,46,134.00,108,-28.00,88.00,-1010.00
2024-06-07 14:52:47.477803,-2,-3,4,0,0,0,75,77,136,120,46,134.46,108,-16.00,85.00,-986.00
2024-06-07 14:52:47.539773,-1,-3,4,0,0,0,75,77,138,120,46,134.39,108,-13.00,99.00,-998.00
2024-06-07 14:52:47.682490,-1,-4,3,0,0,0,75,77,137,120,46,134.08,108,-10.00,74.00,-985.00
2024-06-07 14:52:47.743845,0,-5,3,0,0,0,75,77,138,120,46,134.00,109,-29.00,77.00,-1003.00
2024-06-07 14:52:47.845863,0,-5,3,0,0,0,75,77,137,120,46,134.19,109,-12.00,69.00,-999.00
2024-06-07 14:52:47.897732,0,-4,6,0,0,0,75,77,137,120,46,133.98,109,-22.00,65.00,-976.00
2024-06-07 14:52:48.091819,0,-4,12,0,0,0,75,77,137,120,46,134.28,109,-25.00,60.00,-991.00
2024-06-07 14:52:48.101728,0,-3,19,0,0,0,75,77,136,120,46,134.47,109,-3.00,84.00,-997.00
2024-06-07 14:52:48.296607,0,-3,25,0,0,0,75,77,138,120,46,134.21,109,21.00,97.00,-983.00
2024-06-07 14:52:48.305714,1,-4,31,0,0,0,75,77,138,120,46,134.16,109,15.00,91.00,-1029.00
2024-06-07 14:52:48.510025,2,-4,37,0,0,0,75,77,140,120,46,134.17,109,22.00,90.00,-996.00
2024-06-07 14:52:48.510072,2,-4,43,0,0,0,75,77,138,120,46,134.34,109,38.00,70.00,-1006.00
2024-06-07 14:52:48.706242,2,-3,49,0,0,0,75,77,139,120,46,134.12,109,38.00,73.00,-1008.00
2024-06-07 14:52:48.719646,2,-3,55,0,0,0,75,77,139,120,46,134.28,110,51.00,66.00,-1001.00
2024-06-07 14:52:48.815733,3,-2,61,0,0,0,75,77,139,120,46,134.43,110,46.00,77.00,-991.00
2024-06-07 14:52:49.013819,3,-2,67,0,0,0,75,77,140,120,46,134.35,110,63.00,84.00,-997.00
2024-06-07 14:52:49.022283,3,-2,73,0,0,0,75,77,140,120,46,134.45,110,62.00,83.00,-984.00
2024-06-07 14:52:49.123065,3,-3,80,0,0,0,75,77,141,120,46,134.34,110,77.00,57.00,-1003.00
2024-06-07 14:52:49.223949,4,-2,86,0,0,0,75,77,140,120,46,134.21,110,87.00,47.00,-992.00
2024-06-07 14:52:49.326922,5,-1,92,0,0,0,74,77,140,120,46,134.05,110,89.00,32.00,-989.00
2024-06-07 14:52:49.428011,5,-1,98,0,0,0,74,77,141,120,46,134.03,110,92.00,31.00,-990.00
2024-06-07 14:52:49.631379,4,-1,104,0,0,0,74,77,139,120,46,134.00,110,97.00,19.00,-989.00
2024-06-07 14:52:49.631543,5,0,110,0,0,0,74,77,141,120,46,133.67,110,123.00,15.00,-985.00
2024-06-07 14:52:49.733644,5,0,116,0,0,0,74,77,140,120,46,133.89,111,140.00,-2.00,-963.00
2024-06-07 14:52:49.835760,7,0,122,0,0,0,74,77,141,120,46,133.94,111,124.00,3.00,-957.00
2024-06-07 14:52:49.937664,7,1,128,0,0,0,74,77,141,120,46,134.01,111,124.00,1.00,-984.00
2024-06-07 14:52:50.041118,7,2,134,0,0,0,74,77,141,120,46,134.19,111,126.00,-18.00,-972.00
2024-06-07 14:52:50.142915,7,2,140,0,0,0,74,77,141,120,46,133.88,111,127.00,-43.00,-1002.00
2024-06-07 14:52:50.245111,7,2,146,0,0,0,74,77,139,120,46,133.94,111,129.00,-54.00,-1028.00
2024-06-07 14:52:50.345727,6,3,152,0,0,0,74,77,138,120,46,134.08,111,105.00,-50.00,-1009.00
2024-06-07 14:52:50.549432,6,4,157,0,0,0,74,77,140,120,46,134.17,111,111.00,-59.00,-1010.00
2024-06-07 14:52:50.549867,6,5,163,0,0,0,74,77,140,120,46,134.31,111,101.00,-40.00,-1006.00
2024-06-07 14:52:50.652073,5,5,168,0,0,0,74,77,140,120,46,134.02,111,106.00,-56.00,-1000.00
2024-06-07 14:52:50.754157,5,5,173,0,0,0,74,77,140,120,46,134.12,112,77.00,-57.00,-989.00
2024-06-07 14:52:50.856546,6,4,179,0,0,0,74,77,139,120,46,134.28,112,63.00,-55.00,-969.00
2024-06-07 14:52:50.958692,4,5,-175,0,0,0,74,77,139,120,46,134.26,112,78.00,-76.00,-980.00
2024-06-07 14:52:51.063445,4,5,-170,0,0,0,74,77,140,120,46,134.04,112,62.00,-78.00,-1023.00
2024-06-07 14:52:51.161627,3,5,-165,0,0,0,74,77,140,120,46,133.83,112,62.00,-85.00,-1008.00
2024-06-07 14:52:51.267278,3,5,-159,0,0,0,74,77,138,120,46,133.99,112,32.00,-86.00,-988.00
2024-06-07 14:52:51.365529,2,4,-152,0,0,0,75,78,138,120,46,133.97,112,8.00,-88.00,-1008.00
2024-06-07 14:52:51.476385,1,5,-146,0,0,0,75,78,137,120,46,134.27,112,7.00,-87.00,-1006.00
2024-06-07 14:52:51.569507,0,5,-140,0,0,0,75,78,138,120,46,134.49,112,-12.00,-95.00,-1015.00
2024-06-07 14:52:51.620505,0,5,-133,0,0,0,75,78,139,120,46,134.27,112,-45.00,-92.00,-1001.00
2024-06-07 14:52:51.723616,0,5,-126,0,0,0,75,78,138,120,46,133.60,113,-74.00,-81.00,-983.00
2024-06-07 14:52:51.827928,-2,4,-120,0,0,0,75,78,138,120,46,134.02,113,-43.00,-84.00,-981.00
2024-06-07 14:52:51.926818,-3,4,-114,0,0,0,75,78,139,120,46,133.88,113,-53.00,-73.00,-997.00
2024-06-07 14:52:52.030791,-4,4,-108,0,0,0,75,78,139,120,46,133.83,113,-64.00,-66.00,-966.00
2024-06-07 14:52:52.130499,-4,4,-102,0,0,0,75,78,139,120,46,133.96,113,-64.00,-49.00,-963.00
2024-06-07 14:52:52.232663,-4,3,-97,0,0,0,75,78,139,120,46,133.81,113,-67.00,-53.00,-990.00
2024-06-07 14:52:52.334951,-4,2,-91,0,0,0,76,78,137,120,46,133.71,113,-61.00,-52.00,-1036.00
2024-06-07 14:52:52.498114,-3,2,-84,0,0,0,76,78,138,120,46,133.91,113,-58.00,-45.00,-988.00
2024-06-07 14:52:52.538496,-3,2,-78,0,0,0,76,78,138,120,46,134.01,113,-74.00,-15.00,-1013.00
2024-06-07 14:52:52.703064,-4,1,-72,0,0,0,76,78,137,120,46,133.78,113,-97.00,1.00,-977.00
2024-06-07 14:52:52.745048,-4,0,-66,0,0,0,76,78,138,120,46,133.91,114,-101.00,23.00,-967.00
2024-06-07 14:52:52.844720,-5,0,-60,0,0,0,76,78,138,120,46,133.84,114,-70.00,2.00,-1000.00
2024-06-07 14:52:52.946873,-4,-1,-54,0,0,0,76,78,138,120,46,133.42,114,-94.00,0.00,-1002.00
2024-06-07 14:52:53.111211,-4,-1,-48,0,0,0,76,78,137,120,46,133.75,114,-83.00,10.00,-997.00
2024-06-07 14:52:53.150432,-4,0,-42,0,0,0,76,78,136,120,46,133.96,114,-86.00,19.00,-979.00
2024-06-07 14:52:53.314326,-5,0,-37,0,0,0,76,78,137,120,46,133.76,114,-81.00,22.00,-990.00
2024-06-07 14:52:53.354421,-4,-1,-31,0,0,0,76,78,136,120,46,134.07,114,-55.00,20.00,-953.00
2024-06-07 14:52:53.519100,-4,-1,-25,0,0,0,76,78,135,120,46,133.63,114,-44.00,70.00,-988.00
2024-06-07 14:52:53.564349,-3,-1,-19,0,0,0,76,78,134,120,46,133.98,114,-69.00,62.00,-1037.00
2024-06-07 14:52:53.661179,-2,-3,-13,0,0,0,76,78,132,120,46,133.87,114,-73.00,40.00,-1007.00
2024-06-07 14:52:53.826173,-3,-3,-9,0,0,0,76,78,132,120,46,134.10,115,-50.00,62.00,-1001.00
2024-06-07 14:52:53.865501,-4,-2,-5,0,0,0,76,78,130,120,46,133.95,115,-37.00,81.00,-1016.00
2024-06-07 14:52:54.030901,-3,-2,-3,0,0,0,76,78,128,120,46,134.15,115,-56.00,59.00,-1039.00
2024-06-07 14:52:54.069377,-1,-3,-1,0,0,0,76,78,129,110,46,133.95,115,-62.00,72.00,-1064.00
2024-06-07 14:52:54.235706,-2,-3,0,0,0,0,76,78,130,110,46,133.99,115,-59.00,88.00,-1011.00
2024-06-07 14:52:54.273369,-2,-3,0,0,0,0,76,78,129,110,46,134.11,115,-25.00,94.00,-968.00
2024-06-07 14:52:54.440566,-3,-4,1,0,0,0,75,78,131,110,46,134.32,115,-33.00,71.00,-989.00
2024-06-07 14:52:54.477721,-2,-4,1,0,0,0,75,78,130,120,46,134.10,115,-34.00,68.00,-994.00
2024-06-07 14:52:54.645526,-2,-4,1,0,0,0,75,78,130,120,46,133.88,115,-28.00,45.00,-1004.00
2024-06-07 14:52:54.681960,-1,-4,1,0,0,0,75,78,130,120,46,133.76,115,-45.00,62.00,-1006.00
2024-06-07 14:52:54.851187,-2,-3,1,0,0,0,75,78,131,120,46,133.86,116,-45.00,59.00,-988.00
2024-06-07 14:52:54.886945,-2,-3,1,0,0,0,75,78,131,120,46,133.99,116,-37.00,65.00,-1002.00
2024-06-07 14:52:54.987506,-2,-3,1,0,0,0,75,78,131,120,46,134.22,116,-20.00,62.00,-993.00
2024-06-07 14:52:55.157388,-1,-3,1,0,0,0,75,78,132,120,46,133.80,116,-22.00,71.00,-981.00
2024-06-07 14:52:55.157487,-1,-3,1,0,0,0,75,78,132,120,46,134.17,116,-33.00,58.00,-965.00
2024-06-07 14:52:55.242396,0,-3,1,0,0,0,75,78,132,120,46,134.05,116,-34.00,66.00,-1010.00
2024-06-07 14:52:55.345503,-1,-2,1,0,0,0,75,78,134,120,46,134.00,116,-18.00,87.00,-1021.00
2024-06-07 14:52:55.446782,-1,-3,2,0,0,0,75,78,134,120,46,134.08,116,-24.00,86.00,-1002.00
2024-06-07 14:52:55.567522,-1,-3,1,0,0,0,75,78,136,120,46,133.67,116,-9.00,60.00,-985.00
2024-06-07 14:52:55.650853,0,-4,1,0,0,0,75,78,136,120,46,133.95,116,-21.00,68.00,-975.00
2024-06-07 14:52:55.754098,0,-4,1,0,0,0,75,78,136,120,46,134.32,117,-16.00,68.00,-961.00
2024-06-07 14:52:55.854610,0,-4,1,0,0,0,75,78,137,120,46,134.26,117,-21.00,71.00,-976.00
2024-06-07 14:52:55.976607,-1,-3,1,0,0,0,75,78,135,120,46,134.15,117,-22.00,69.00,-996.00
2024-06-07 14:52:56.058440,0,-3,1,0,0,0,75,78,136,120,46,133.74,117,-22.00,73.00,-1001.00
2024-06-07 14:52:56.181853,0,-3,1,0,0,0,75,78,136,120,46,134.33,117,-9.00,78.00,-1009.00
2024-06-07 14:52:56.262752,0,-4,1,0,0,0,75,78,136,120,46,134.27,117,-10.00,72.00,-1007.00
2024-06-07 14:52:56.386525,0,-4,1,0,0,0,75,77,136,120,46,133.86,117,-3.00,72.00,-995.00
2024-06-07 14:52:56.466222,0,-4,1,0,0,0,75,77,137,120,46,134.18,117,-2.00,83.00,-985.00
2024-06-07 14:52:56.590877,0,-3,1,0,0,0,75,77,135,120,46,134.05,117,-34.00,104.00,-1030.00
2024-06-07 14:52:56.670285,0,-4,-1,0,0,0,75,77,135,120,46,134.02,117,-7.00,79.00,-994.00
2024-06-07 14:52:56.795709,0,-4,-7,0,0,0,75,77,135,120,46,133.81,118,-12.00,75.00,-998.00
2024-06-07 14:52:56.877097,-1,-4,-13,0,0,0,75,77,136,120,46,133.93,118,-29.00,63.00,-1009.00
2024-06-07 14:52:56.976234,-1,-4,-19,0,0,0,75,77,137,120,46,133.71,118,-47.00,65.00,-1009.00
2024-06-07 14:52:57.078631,-2,-3,-24,0,0,0,75,77,136,120,46,133.84,118,-51.00,68.00,-1012.00
2024-06-07 14:52:57.181896,-2,-3,-30,0,0,0,75,77,137,120,46,133.81,118,-45.00,43.00,-1004.00
2024-06-07 14:52:57.282328,-2,-3,-36,0,0,0,75,77,137,120,46,133.92,118,-62.00,42.00,-998.00
2024-06-07 14:52:57.384215,-3,-3,-42,0,0,0,76,77,137,120,46,133.89,118,-72.00,41.00,-978.00
2024-06-07 14:52:57.512502,-3,-2,-48,0,0,0,76,77,138,120,46,134.10,118,-77.00,18.00,-988.00
2024-06-07 14:52:57.588119,-3,-1,-55,0,0,0,76,77,139,120,46,133.76,118,-87.00,13.00,-1004.00
2024-06-07 14:52:57.717692,-3,0,-61,0,0,0,76,77,137,120,46,133.93,118,-92.00,9.00,-974.00
2024-06-07 14:52:57.796992,-4,0,-67,0,0,0,76,77,138,120,46,134.01,119,-113.00,24.00,-975.00
2024-06-07 14:52:57.896082,-5,1,-72,0,0,0,76,77,138,120,46,133.84,119,-82.00,2.00,-998.00
2024-06-07 14:52:57.996393,-5,0,-78,0,0,0,76,77,138,120,46,134.11,119,-87.00,-30.00,-1024.00
2024-06-07 14:52:58.128251,-5,1,-84,0,0,0,76,77,137,120,46,133.64,119,-86.00,-9.00,-1003.00
2024-06-07 14:52:58.200121,-4,2,-90,0,0,0,76,77,138,120,46,133.85,119,-90.00,-28.00,-993.00
2024-06-07 14:52:58.302133,-4,2,-96,0,0,0,76,77,138,120,46,134.09,119,-69.00,-43.00,-1015.00
2024-06-07 14:52:58.434556,-4,3,-101,0,0,0,75,78,139,120,46,134.00,119,-61.00,-33.00,-1010.00
2024-06-07 14:52:58.506335,-3,3,-107,0,0,0,75,78,138,120,46,133.75,119,-76.00,-52.00,-1004.00
2024-06-07 14:52:58.639654,-3,4,-113,0,0,0,75,78,139,120,46,134.07,119,-67.00,-48.00,-996.00
2024-06-07 14:52:58.710151,-2,4,-119,0,0,0,75,78,138,120,46,133.77,119,-73.00,-57.00,-979.00
2024-06-07 14:52:58.762552,-2,5,-124,0,0,0,75,78,140,120,46,134.18,120,-62.00,-64.00,-1002.00
2024-06-07 14:52:58.863254,-2,4,-130,0,0,0,75,78,141,120,46,134.01,120,-73.00,-58.00,-979.00
2024-06-07 14:52:58.965842,-2,4,-136,0,0,0,75,78,140,120,46,133.99,120,-38.00,-80.00,-997.00
2024-06-07 14:52:59.068210,-1,5,-142,0,0,0,75,78,140,120,46,134.23,120,-40.00,-87.00,-990.00
2024-06-07 14:52:59.169110,-1,5,-148,0,0,0,75,78,140,120,46,134.11,120,-25.00,-69.00,-993.00
2024-06-07 14:52:59.314307,0,4,-154,0,0,0,75,78,140,120,46,134.10,120,-5.00,-89.00,-1002.00
2024-06-07 14:52:59.375262,0,5,-166,0,0,0,75,79,140,120,46,134.33,120,10.00,-83.00,-986.00
2024-06-07 14:52:59.475165,1,5,-172,0,0,0,75,79,140,120,46,134.04,120,15.00,-68.00,-998.00
2024-06-07 14:52:59.577100,1,4,-179,0,0,0,75,79,141,120,46,134.29,120,26.00,-56.00,-998.00
2024-06-07 14:52:59.765953,1,4,174,0,0,0,75,79,139,120,46,134.17,121,47.00,-63.00,-996.00
2024-06-07 14:52:59.781081,2,2,168,0,0,0,75,79,139,120,46,134.24,121,39.00,-43.00,-1006.00
2024-06-07 14:52:59.970578,3,2,162,0,0,0,75,79,141,120,46,134.23,121,42.00,-55.00,-993.00
2024-06-07 14:52:59.990278,3,2,156,0,0,0,75,79,139,120,46,134.27,121,45.00,-40.00,-992.00
2024-06-07 14:53:00.088062,2,2,150,0,0,0,75,79,140,120,46,133.87,121,51.00,-37.00,-994.00
2024-06-07 14:53:00.191009,2,2,145,0,0,0,75,79,140,120,46,133.81,121,66.00,-36.00,-997.00
2024-06-07 14:53:00.293403,3,1,139,0,0,0,75,79,138,120,46,134.21,121,62.00,-38.00,-997.00
2024-06-07 14:53:00.482110,3,1,133,0,0,0,76,78,138,120,46,133.68,121,81.00,-28.00,-1002.00
2024-06-07 14:53:00.495944,4,1,127,0,0,0,76,78,139,120,46,134.29,121,83.00,-19.00,-992.00
2024-06-07 14:53:00.686837,4,0,121,0,0,0,76,78,138,120,46,133.89,121,71.00,-19.00,-988.00
2024-06-07 14:53:00.699964,4,0,115,0,0,0,76,78,139,120,46,134.03,122,71.00,3.00,-996.00
2024-06-07 14:53:00.891579,4,0,109,0,0,0,76,78,139,120,46,133.90,122,82.00,-7.00,-997.00
2024-06-07 14:53:00.904232,4,0,103,0,0,0,76,78,139,120,46,133.87,122,75.00,-1.00,-995.00
2024-06-07 14:53:01.096530,4,0,97,0,0,0,76,78,139,120,46,134.10,122,73.00,23.00,-1009.00
2024-06-07 14:53:01.108004,4,0,91,0,0,0,76,78,138,120,46,134.25,122,68.00,25.00,-1004.00
2024-06-07 14:53:01.301289,4,0,85,0,0,0,76,78,138,120,46,133.65,122,80.00,33.00,-998.00
2024-06-07 14:53:01.313231,4,-2,79,0,0,0,76,78,137,120,46,133.74,122,53.00,37.00,-1000.00
2024-06-07 14:53:01.414221,3,-2,73,0,0,0,76,78,138,120,46,133.83,122,58.00,37.00,-985.00
2024-06-07 14:53:01.608527,3,-2,67,0,0,0,76,78,137,120,46,133.85,122,48.00,35.00,-997.00
2024-06-07 14:53:01.618020,2,-2,62,0,0,0,76,78,137,120,46,133.94,122,41.00,50.00,-1004.00
2024-06-07 14:53:01.813313,2,-2,56,0,0,0,76,78,137,120,46,133.99,123,43.00,53.00,-1007.00
2024-06-07 14:53:01.821870,2,-2,51,0,0,0,76,78,137,120,46,133.83,123,49.00,51.00,-1006.00
2024-06-07 14:53:01.926680,2,-2,45,0,0,0,76,78,135,120,46,134.30,123,59.00,54.00,-1006.00
2024-06-07 14:53:02.026292,2,-3,39,0,0,0,76,78,136,120,46,134.23,123,25.00,63.00,-1001.00
2024-06-07 14:53:02.128777,2,-3,33,0,0,0,76,78,137,120,46,134.12,123,35.00,54.00,-990.00
2024-06-07 14:53:02.230959,2,-3,27,0,0,0,76,78,134,120,46,134.23,123,30.00,59.00,-1008.00
2024-06-07 14:53:02.332049,1,-3,21,0,0,0,76,78,136,120,46,134.15,123,14.00,60.00,-987.00
2024-06-07 14:53:02.433837,0,-3,17,0,0,0,76,78,135,120,46,134.16,123,27.00,52.00,-990.00
2024-06-07 14:53:02.538413,0,-3,13,0,0,0,76,78,135,120,46,134.11,123,5.00,47.00,-981.00
2024-06-07 14:53:02.637818,0,-3,11,0,0,0,76,78,135,120,46,134.22,123,6.00,54.00,-1008.00
2024-06-07 14:53:02.837322,0,-2,9,0,0,0,76,78,134,120,46,134.21,124,18.00,53.00,-1011.00
2024-06-07 14:53:02.841912,0,-2,7,0,0,0,76,78,135,120,46,134.11,124,2.00,42.00,-990.00
2024-06-07 14:53:02.894192,0,-2,6,0,0,0,76,78,135,120,46,134.16,124,11.00,51.00,-1006.00
2024-06-07 14:53:03.042051,0,-2,4,0,0,0,76,78,135,120,46,134.04,124,-8.00,49.00,-997.00
2024-06-07 14:53:03.111033,0,-2,3,0,0,0,76,78,134,120,46,134.03,124,-2.00,39.00,-1002.00
2024-06-07 14:53:03.199928,0,-2,3,0,0,0,76,78,135,120,46,134.31,124,-15.00,25.00,-990.00
2024-06-07 14:53:03.349961,0,-1,3,0,0,0,76,78,133,120,46,134.08,124,-12.00,35.00,-991.00
2024-06-07 14:53:03.404419,0,-1,3,0,0,0,76,78,134,120,46,134.13,124,-5.00,31.00,-993.00
2024-06-07 14:53:03.554140,0,-1,3,0,0,0,76,78,134,120,46,134.18,124,-13.00,26.00,-998.00
2024-06-07 14:53:03.607885,-1,-1,2,0,0,0,76,78,134,120,46,134.01,124,-12.00,39.00,-1006.00
2024-06-07 14:53:03.758942,-1,-1,2,0,0,0,76,78,134,120,46,134.02,125,-26.00,34.00,-995.00
2024-06-07 14:53:03.812066,-1,-1,2,0,0,0,76,78,135,120,46,134.12,125,-15.00,35.00,-1000.00
2024-06-07 14:53:03.913899,-1,-2,3,0,0,0,76,78,135,120,46,134.26,125,-31.00,53.00,-1004.00
2024-06-07 14:53:04.066908,-1,-2,3,0,0,0,76,78,135,120,46,134.16,125,-25.00,51.00,-1012.00
2024-06-07 14:53:04.117960,-1,-2,3,0,0,0,76,78,133,120,46,134.03,125,-19.00,48.00,-1003.00
2024-06-07 14:53:04.270973,-1,-2,3,0,0,0,76,78,135,120,46,133.92,125,-13.00,43.00,-997.00
2024-06-07 14:53:04.321971,-1,-2,3,0,0,0,76,78,135,120,46,134.26,125,-24.00,53.00,-992.00
2024-06-07 14:53:04.476064,-1,-2,3,0,0,0,76,78,136,120,46,134.41,125,-11.00,43.00,-1003.00
2024-06-07 14:53:04.525784,-1,-2,3,0,0,0,76,78,136,120,46,134.01,125,-14.00,48.00,-1004.00
2024-06-07 14:53:04.680631,-1,-2,3,0,0,0,76,78,136,120,46,133.94,125,-16.00,30.00,-986.00
2024-06-07 14:53:04.729953,-1,-2,3,0,0,0,76,78,136,120,46,133.96,126,-18.00,40.00,-987.00
2024-06-07 14:53:04.885808,0,-2,3,0,0,0,76,78,134,120,46,133.99,126,-15.00,35.00,-994.00
2024-06-07 14:53:04.933968,0,-2,3,0,0,0,76,78,136,120,46,134.17,126,-29.00,41.00,-1001.00
2024-06-07 14:53:05.035738,-1,-2,3,0,0,0,76,78,136,120,46,134.19,126,-28.00,39.00,-1000.00
2024-06-07 14:53:05.137813,-1,-2,2,0,0,0,76,78,137,120,46,134.41,126,-24.00,30.00,-1011.00
2024-06-07 14:53:05.240037,-1,-2,3,0,0,0,76,78,137,120,46,134.24,126,-47.00,38.00,-1004.00
2024-06-07 14:53:05.341944,-1,-1,3,0,0,0,76,78,137,120,46,134.12,126,-26.00,39.00,-998.00
2024-06-07 14:53:05.499814,-1,-1,3,0,0,0,75,77,137,120,46,134.09,126,-32.00,45.00,-1012.00
2024-06-07 14:53:05.546208,-1,-1,3,0,0,0,75,77,136,120,46,133.99,126,-10.00,45.00,-1002.00
2024-06-07 14:53:05.705497,-1,-2,3,0,0,0,75,77,136,120,46,134.22,126,-25.00,45.00,-1003.00
2024-06-07 14:53:05.749912,-1,-2,3,0,0,0,75,77,138,120,46,134.34,127,-23.00,45.00,-1000.00
2024-06-07 14:53:05.909633,0,-2,3,0,0,0,75,77,136,120,46,134.34,127,-25.00,33.00,-998.00
2024-06-07 14:53:05.953747,0,-1,3,0,0,0,75,77,137,120,46,134.11,127,-16.00,41.00,-1004.00
2024-06-07 14:53:06.114895,0,-1,3,0,0,0,75,77,136,120,46,134.14,127,-15.00,48.00,-1001.00
2024-06-07 14:53:06.157763,-1,-1,3,0,0,0,75,77,138,120,46,134.18,127,-17.00,29.00,-1005.00
2024-06-07 14:53:06.319402,0,-2,3,0,0,0,75,77,138,120,46,134.22,127,-6.00,31.00,-1022.00
2024-06-07 14:53:06.362210,0,-1,3,0,0,0,75,77,138,120,46,134.40,127,-15.00,21.00,-1000.00
2024-06-07 14:53:06.525978,0,-1,3,0,0,0,76,78,137,120,46,134.19,127,-12.00,28.00,-1011.00
2024-06-07 14:53:06.566205,0,-1,3,0,0,0,76,78,138,120,46,134.10,127,-24.00,7.00,-998.00
2024-06-07 14:53:06.728495,-1,-1,3,0,0,0,76,78,137,120,46,134.18,127,-24.00,8.00,-977.00
2024-06-07 14:53:06.728677,-1,0,3,0,0,0,76,78,138,120,46,133.92,128,-18.00,9.00,-1001.00
2024-06-07 14:53:06.821002,-1,0,3,0,0,0,76,78,138,120,46,134.24,128,-17.00,7.00,-1009.00
2024-06-07 14:53:06.922725,0,0,3,0,0,0,76,78,137,120,46,134.17,128,-26.00,9.00,-996.00
2024-06-07 14:53:07.035751,0,0,3,0,0,0,76,78,138,120,46,134.22,128,-45.00,19.00,-998.00
2024-06-07 14:53:07.126655,-1,0,3,0,0,0,76,78,137,120,46,134.23,128,-43.00,17.00,-1003.00
2024-06-07 14:53:07.240597,-1,0,3,0,0,0,76,78,137,120,46,134.10,128,-32.00,22.00,-1013.00
2024-06-07 14:53:07.330968,-1,0,3,0,0,0,76,78,138,120,46,134.07,128,-24.00,13.00,-999.00
2024-06-07 14:53:07.445739,-1,0,3,0,0,0,76,77,138,120,46,134.28,128,-24.00,16.00,-997.00
2024-06-07 14:53:07.535002,-1,0,3,0,0,0,76,77,139,120,45,134.09,128,-36.00,6.00,-1000.00
2024-06-07 14:53:07.650165,-1,-1,3,0,0,0,76,77,137,120,45,134.34,128,-17.00,5.00,-988.00
2024-06-07 14:53:07.738581,-1,0,3,0,0,0,76,77,138,120,45,134.16,129,-20.00,9.00,-1000.00
2024-06-07 14:53:07.855022,-1,0,3,0,0,0,76,77,139,120,45,134.24,129,-26.00,15.00,-1000.00
2024-06-07 14:53:07.942765,-1,0,3,0,0,0,76,77,139,120,45,134.15,129,-23.00,21.00,-1001.00
2024-06-07 14:53:08.059889,-1,0,3,0,0,0,76,77,140,120,45,134.23,129,-29.00,16.00,-994.00
2024-06-07 14:53:08.146594,-1,0,3,0,0,0,76,77,139,120,45,134.29,129,-16.00,0.00,-992.00
2024-06-07 14:53:08.264546,-1,-1,3,0,0,0,76,77,139,120,45,134.24,129,-9.00,21.00,-1005.00
2024-06-07 14:53:08.354028,-1,0,3,0,0,0,76,77,138,120,45,134.31,129,0.00,15.00,-1013.00
2024-06-07 14:53:08.453698,0,0,3,0,0,0,76,78,138,120,45,134.40,129,5.00,24.00,-993.00
2024-06-07 14:53:08.571614,0,0,3,0,0,0,76,78,137,120,45,134.28,129,0.00,36.00,-993.00
2024-06-07 14:53:08.657609,0,-1,3,0,0,0,76,78,138,120,45,134.16,129,-5.00,34.00,-1010.00
2024-06-07 14:53:08.759492,0,-1,2,0,0,0,76,78,137,120,45,134.21,130,-5.00,31.00,-1003.00
2024-06-07 14:53:08.882152,0,-2,2,0,0,0,76,78,138,120,45,134.41,130,-15.00,44.00,-1015.00
2024-06-07 14:53:08.963743,0,-2,2,0,0,0,76,78,138,120,45,134.31,130,4.00,25.00,-996.00
2024-06-07 14:53:09.084032,0,-2,2,0,0,0,76,78,139,120,45,133.86,130,-24.00,39.00,-997.00
2024-06-07 14:53:09.167577,0,-2,2,0,0,0,76,78,138,120,45,134.05,130,4.00,22.00,-990.00
2024-06-07 14:53:09.288565,0,-2,2,0,0,0,76,78,139,120,45,134.29,130,-3.00,24.00,-992.00
2024-06-07 14:53:09.371709,0,-2,3,0,0,0,76,78,137,120,45,134.08,130,-9.00,29.00,-987.00
2024-06-07 14:53:09.473733,0,-2,3,0,0,0,75,78,138,120,45,134.29,130,-8.00,31.00,-988.00
2024-06-07 14:53:09.575586,0,-2,3,0,0,0,75,78,139,120,45,134.20,130,5.00,29.00,-1002.00
2024-06-07 14:53:09.677673,0,-1,3,0,0,0,75,78,140,120,45,134.11,130,5.00,27.00,-1000.00
2024-06-07 14:53:09.800594,0,-1,3,0,0,0,75,78,139,120,45,134.22,131,3.00,40.00,-1007.00
2024-06-07 14:53:09.881982,0,-1,3,0,0,0,75,78,139,120,45,134.19,131,-5.00,25.00,-997.00
2024-06-07 14:53:10.005365,0,-1,2,0,0,0,75,78,138,120,45,134.29,131,-8.00,26.00,-996.00
2024-06-07 14:53:10.036077,0,-1,2,0,0,0,75,78,140,120,45,134.35,131,-16.00,21.00,-974.00
2024-06-07 14:53:10.136920,0,-2,2,0,0,0,75,78,138,120,45,134.47,131,-9.00,16.00,-1011.00
2024-06-07 14:53:10.312982,0,-2,2,0,0,0,75,78,139,120,45,134.19,131,-9.00,33.00,-1003.00
2024-06-07 14:53:10.340533,0,-1,2,0,0,0,75,78,137,120,45,134.55,131,-8.00,36.00,-1005.00
2024-06-07 14:53:10.517562,0,-1,2,0,0,0,75,77,137,120,45,134.27,131,-19.00,31.00,-1003.00
2024-06-07 14:53:10.544542,0,-2,3,0,0,0,75,77,138,120,45,134.04,131,-3.00,27.00,-1007.00
2024-06-07 14:53:10.722201,0,-1,3,0,0,0,75,77,139,120,45,134.33,131,-7.00,31.00,-1006.00
2024-06-07 14:53:10.748569,-1,-1,3,0,0,0,75,77,139,120,45,134.21,132,-14.00,22.00,-999.00
2024-06-07 14:53:10.926926,-1,-1,3,0,0,0,75,77,140,120,45,134.37,132,-13.00,33.00,-989.00
2024-06-07 14:53:10.953912,-1,-1,3,0,0,0,75,77,139,120,45,134.32,132,-3.00,32.00,-1005.00
2024-06-07 14:53:11.131646,-1,-1,3,0,0,0,75,77,139,120,45,134.33,132,0.00,37.00,-986.00
2024-06-07 14:53:11.157449,0,-1,3,0,0,0,75,77,138,120,45,133.95,132,-7.00,23.00,-1003.00
2024-06-07 14:53:11.300783,0,-2,3,0,0,0,75,77,138,120,45,134.54,132,-11.00,27.00,-1010.00
2024-06-07 14:53:11.361668,0,-2,3,0,0,0,75,77,138,120,45,134.47,132,-3.00,15.00,-1009.00
2024-06-07 14:53:11.541568,0,-1,3,0,0,0,76,78,138,120,45,134.28,132,-7.00,23.00,-1002.00
2024-06-07 14:53:11.565367,0,-1,3,0,0,0,76,78,137,120,45,134.43,132,-16.00,24.00,-993.00
2024-06-07 14:53:11.746035,0,-1,2,0,0,0,76,78,136,120,45,134.28,132,-12.00,30.00,-1005.00
2024-06-07 14:53:11.771893,0,-1,2,0,0,0,76,78,138,120,45,134.34,133,-6.00,40.00,-1009.00
2024-06-07 14:53:11.872574,0,-1,2,0,0,0,76,78,136,120,45,134.54,133,0.00,36.00,-1009.00
2024-06-07 14:53:11.973365,0,-2,2,0,0,0,76,78,137,120,45,134.28,133,-16.00,48.00,-1026.00
2024-06-07 14:53:12.156097,0,-2,2,0,0,0,76,78,139,120,45,134.29,133,-2.00,48.00,-1038.00
2024-06-07 14:53:12.177587,0,-2,2,0,0,0,76,78,139,120,45,134.18,133,-10.00,42.00,-997.00
2024-06-07 14:53:12.361014,0,-2,2,0,0,0,76,78,139,120,45,134.08,133,-12.00,27.00,-985.00
2024-06-07 14:53:12.381468,0,-2,2,0,0,0,76,78,138,120,45,134.25,133,-22.00,39.00,-1013.00
2024-06-07 14:53:12.565812,0,-2,2,0,0,0,76,78,138,120,45,134.25,133,-20.00,26.00,-987.00
2024-06-07 14:53:12.585519,0,-2,2,0,0,0,76,78,139,120,45,134.10,133,-36.00,38.00,-1009.00
2024-06-07 14:53:12.687395,-1,-2,2,0,0,0,76,78,137,120,45,134.31,133,-22.00,30.00,-991.00
2024-06-07 14:53:12.872741,-2,-2,2,0,0,0,76,78,139,120,45,134.59,134,-37.00,31.00,-984.00
2024-06-07 14:53:12.891510,-2,-1,3,0,0,0,76,78,137,120,45,134.62,134,-35.00,44.00,-1015.00
2024-06-07 14:53:13.077557,-2,-2,3,0,0,0,76,78,139,120,45,134.41,134,-26.00,41.00,-1003.00
2024-06-07 14:53:13.095666,-2,-2,3,0,0,0,76,78,137,120,45,134.18,134,-21.00,48.00,-999.00
2024-06-07 14:53:13.198015,-2,-2,3,0,0,0,76,78,138,120,45,134.15,134,-20.00,34.00,-998.00
2024-06-07 14:53:13.301656,-2,-2,3,0,0,0,76,78,138,120,45,134.04,134,-25.00,45.00,-1008.00
2024-06-07 14:53:13.401452,-1,-2,3,0,0,0,76,78,137,120,45,134.19,134,-25.00,50.00,-1011.00
2024-06-07 14:53:13.597647,-2,-2,3,0,0,0,76,78,139,120,45,134.32,134,-16.00,27.00,-987.00
2024-06-07 14:53:13.605336,-2,-2,3,0,0,0,76,78,138,120,45,134.19,134,-31.00,37.00,-1003.00
2024-06-07 14:53:13.656332,-1,-2,3,0,0,0,76,78,138,120,45,134.13,134,-26.00,36.00,-1004.00
2024-06-07 14:53:13.759399,-1,-1,3,0,0,0,76,78,139,120,45,134.30,135,-15.00,35.00,-997.00
2024-06-07 14:53:13.860376,-1,-2,3,0,0,0,76,78,138,120,45,133.96,135,-22.00,35.00,-994.00
2024-06-07 14:53:13.963289,-1,-2,3,0,0,0,76,78,139,120,45,133.98,135,-22.00,47.00,-1009.00
2024-06-07 14:53:14.104053,-1,-2,3,0,0,0,76,78,140,120,45,134.32,135,-18.00,46.00,-1005.00
2024-06-07 14:53:14.167497,-1,-2,3,0,0,0,76,78,139,120,45,134.40,135,-24.00,46.00,-996.00
2024-06-07 14:53:14.268847,-1,-2,3,0,0,0,76,78,139,120,45,134.39,135,-18.00,37.00,-1000.00
2024-06-07 14:53:14.370345,-1,-2,3,0,0,0,76,78,138,120,45,134.20,135,-20.00,17.00,-980.00
2024-06-07 14:53:14.472417,-1,-2,3,0,0,0,76,78,139,120,45,133.89,135,-21.00,21.00,-977.00
2024-06-07 14:53:14.574218,-1,-2,3,0,0,0,76,78,139,120,45,134.34,135,-15.00,28.00,-1013.00
2024-06-07 14:53:14.715605,-1,-1,3,0,0,0,76,78,141,120,45,134.15,135,-19.00,35.00,-989.00
2024-06-07 14:53:14.778176,-1,-1,3,0,0,0,76,78,138,120,45,134.19,136,-24.00,30.00,-1003.00
2024-06-07 14:53:14.920421,-1,-2,3,0,0,0,76,78,137,120,45,134.02,136,-27.00,33.00,-988.00
2024-06-07 14:53:14.982222,-1,-2,3,0,0,0,76,78,138,120,45,134.28,136,-24.00,36.00,-1013.00
2024-06-07 14:53:15.125232,-1,-1,3,0,0,0,76,78,138,120,45,134.33,136,-9.00,38.00,-991.00
2024-06-07 14:53:15.186183,-1,-1,3,0,0,0,76,78,138,120,45,134.23,136,-17.00,35.00,-998.00
2024-06-07 14:53:15.330076,0,-1,3,0,0,0,76,78,139,120,45,134.12,136,-6.00,37.00,-1013.00
2024-06-07 14:53:15.390293,0,-1,3,0,0,0,76,78,138,120,45,134.14,136,-11.00,38.00,-1006.00
2024-06-07 14:53:15.534884,0,-2,3,0,0,0,76,79,137,120,45,133.89,136,-18.00,34.00,-1013.00
2024-06-07 14:53:15.595391,0,-2,3,0,0,0,76,79,137,120,45,134.02,136,-22.00,38.00,-1000.00
2024-06-07 14:53:15.739681,0,-2,3,0,0,0,76,79,138,120,45,134.31,136,-13.00,32.00,-996.00
2024-06-07 14:53:15.798297,-1,-2,3,0,0,0,76,79,138,120,45,134.16,137,-11.00,29.00,-1013.00
2024-06-07 14:53:15.944586,0,-2,3,0,0,0,76,79,137,120,45,134.42,137,-4.00,36.00,-1001.00
2024-06-07 14:53:16.004784,0,-2,3,0,0,0,76,79,138,120,45,134.25,137,-10.00,28.00,-1002.00
2024-06-07 14:53:16.104712,0,-1,3,0,0,0,76,79,136,120,45,134.05,137,-19.00,29.00,-987.00
