TS,pitch,roll,yaw,vgx,vgy,vgz,templ,temph,tof,h,bat,baro,time,agx,agy,agz
2024-06-07 14:53:52.672438,2,0,4,0,0,0,80,82,10,0,45,133.02,143,36.00,2.00,-999.00
2024-06-07 14:53:52.808290,2,0,4,0,0,0,80,82,10,0,45,132.93,143,37.00,2.00,-999.00
2024-06-07 14:53:52.876267,2,0,4,0,0,0,80,82,10,0,45,132.84,143,37.00,3.00,-999.00
2024-06-07 14:53:53.013595,2,0,4,0,0,0,80,82,10,0,45,132.73,143,37.00,2.00,-999.00
2024-06-07 14:53:53.080018,2,0,4,0,0,0,80,82,10,0,45,132.82,143,37.00,4.00,-998.00
2024-06-07 14:53:53.217556,2,0,4,0,0,0,80,82,10,0,45,132.81,143,36.00,2.00,-1000.00
2024-06-07 14:53:53.284101,2,0,4,0,0,0,80,82,10,0,45,132.82,143,36.00,3.00,-998.00
2024-06-07 14:53:53.385971,2,0,4,0,0,0,80,82,10,0,45,132.68,143,37.00,3.00,-999.00
2024-06-07 14:53:53.488074,2,0,4,0,0,0,80,82,10,0,45,132.78,143,37.00,3.00,-999.00
2024-06-07 14:53:53.627312,2,0,4,0,0,0,80,82,10,0,45,132.83,143,36.00,3.00,-1000.00
2024-06-07 14:53:53.692021,2,0,4,0,0,0,80,81,10,0,45,132.91,143,36.00,4.00,-996.00
2024-06-07 14:53:53.833469,2,0,4,0,0,0,80,81,10,0,45,132.74,143,36.00,3.00,-998.00
2024-06-07 14:53:53.845006,2,0,4,0,0,0,80,81,10,0,45,132.88,143,37.00,4.00,-998.00
2024-06-07 14:53:54.036971,2,0,4,0,0,0,80,81,10,0,45,132.72,143,35.00,3.00,-999.00
2024-06-07 14:53:54.049276,2,0,4,0,0,0,80,81,10,0,45,132.77,143,36.00,3.00,-998.00
2024-06-07 14:53:54.151097,2,0,4,0,0,0,80,81,10,0,45,132.73,143,37.00,3.00,-996.00
2024-06-07 14:53:54.252874,2,0,4,0,0,0,80,81,10,0,45,132.86,143,37.00,2.00,-998.00
2024-06-07 14:53:54.446554,2,0,4,0,0,0,80,81,10,0,45,132.89,143,36.00,4.00,-999.00
2024-06-07 14:53:54.457073,2,0,4,0,0,0,80,81,10,0,45,133.15,143,35.00,4.00,-1001.00
2024-06-07 14:53:54.558941,2,0,4,0,0,0,80,81,10,0,45,133.16,143,36.00,2.00,-1000.00
2024-06-07 14:53:54.753747,2,0,4,0,0,0,80,82,10,0,45,133.21,143,36.00,2.00,-1000.00
2024-06-07 14:53:54.763207,2,0,4,0,0,0,80,82,10,0,45,133.01,143,37.00,3.00,-998.00
2024-06-07 14:53:54.865060,2,0,4,0,0,0,80,82,10,0,45,132.83,143,37.00,1.00,-999.00
2024-06-07 14:53:54.967013,2,0,4,0,0,0,80,82,10,0,45,132.96,143,38.00,4.00,-1001.00
2024-06-07 14:53:55.068992,2,0,4,0,0,0,80,82,10,0,45,132.96,143,30.00,5.00,-999.00
2024-06-07 14:53:55.265615,2,0,4,0,0,0,80,82,10,0,45,132.96,143,35.00,0.00,-1001.00
2024-06-07 14:53:55.274071,2,0,4,0,0,0,80,82,10,0,45,132.96,143,32.00,5.00,-989.00
2024-06-07 14:53:55.375031,2,0,4,0,0,0,80,82,10,0,45,132.96,143,17.00,4.00,-1007.00
2024-06-07 14:53:55.478984,2,0,4,0,0,0,80,82,10,0,45,132.96,143,11.00,9.00,-1033.00
2024-06-07 14:53:55.581479,1,0,4,0,0,0,80,82,10,0,45,132.96,143,13.00,3.00,-1095.00
2024-06-07 14:53:55.680800,-1,0,4,0,0,0,80,82,10,0,45,132.96,143,13.00,20.00,-1191.00
2024-06-07 14:53:55.782802,0,1,4,0,0,-2,80,82,10,0,45,132.96,143,15.00,48.00,-1312.00
2024-06-07 14:53:55.983117,0,-1,4,0,1,-5,80,82,15,0,45,132.96,143,-17.00,68.00,-1161.00
2024-06-07 14:53:55.986836,1,-2,4,0,1,-6,80,82,23,0,45,133.41,143,-1.00,61.00,-1075.00
2024-06-07 14:53:56.088910,0,-4,4,0,1,-6,80,82,32,0,45,133.44,144,13.00,66.00,-1034.00
2024-06-07 14:53:56.290258,0,-4,4,0,1,-7,80,82,39,0,45,133.65,144,-5.00,74.00,-988.00
2024-06-07 14:53:56.292756,0,-4,4,0,1,-6,80,82,48,10,45,133.49,144,4.00,81.00,-951.00
2024-06-07 14:53:56.394713,0,-5,4,0,1,-6,80,82,57,10,45,133.64,144,-4.00,80.00,-929.00
2024-06-07 14:53:56.498735,0,-5,4,0,1,-5,80,82,65,20,45,133.54,144,19.00,63.00,-881.00
2024-06-07 14:53:56.598874,0,-5,4,0,1,-4,80,82,72,20,45,133.86,144,9.00,77.00,-895.00
2024-06-07 14:53:56.700825,0,-5,4,0,1,-3,81,82,78,30,45,133.87,144,15.00,74.00,-889.00
2024-06-07 14:53:56.903961,0,-6,4,0,0,-2,81,82,83,30,45,133.61,144,-3.00,87.00,-891.00
2024-06-07 14:53:56.904820,0,-5,4,0,0,-1,81,82,86,40,45,133.80,144,0.00,83.00,-887.00
2024-06-07 14:53:57.007508,0,-5,4,0,0,0,81,82,90,40,45,133.90,144,-13.00,82.00,-902.00
2024-06-07 14:53:57.063699,0,-5,4,0,0,0,81,82,91,40,45,134.00,145,-10.00,79.00,-925.00
2024-06-07 14:53:57.160706,0,-6,4,0,0,0,81,82,93,40,45,134.13,145,2.00,81.00,-923.00
2024-06-07 14:53:57.313552,0,-5,4,0,0,0,81,82,95,40,45,134.27,145,-6.00,83.00,-942.00
2024-06-07 14:53:57.364804,0,-4,4,0,0,0,81,82,97,40,45,134.11,145,-6.00,87.00,-945.00
2024-06-07 14:53:57.518350,0,-5,4,0,0,0,81,82,97,50,45,133.94,145,-3.00,86.00,-953.00
2024-06-07 14:53:57.568828,0,-5,4,0,0,0,81,82,98,50,45,134.21,145,14.00,89.00,-950.00
2024-06-07 14:53:57.724027,0,-5,4,0,0,0,80,82,98,50,45,134.08,145,10.00,85.00,-982.00
2024-06-07 14:53:57.775197,0,-5,4,0,0,1,80,82,98,50,45,133.90,145,11.00,67.00,-971.00
2024-06-07 14:53:57.874746,1,-4,4,0,0,1,80,82,98,50,45,133.98,145,0.00,68.00,-977.00
2024-06-07 14:53:58.030573,0,-4,4,0,0,1,80,82,96,50,45,134.27,146,15.00,72.00,-990.00
2024-06-07 14:53:58.079566,1,-4,4,0,0,1,80,82,96,50,45,134.38,146,0.00,69.00,-978.00
2024-06-07 14:53:58.235102,0,-4,4,0,0,1,80,82,96,50,45,133.97,146,-6.00,66.00,-973.00
2024-06-07 14:53:58.286018,0,-3,4,0,0,1,80,82,95,50,45,133.79,146,6.00,63.00,-985.00
2024-06-07 14:53:58.385594,0,-3,4,0,0,1,80,82,93,50,45,133.92,146,3.00,76.00,-996.00
2024-06-07 14:53:58.486688,0,-3,4,0,0,1,80,82,92,50,45,133.76,146,-1.00,57.00,-987.00
2024-06-07 14:53:58.591438,0,-3,4,0,0,1,80,82,91,50,45,134.00,146,0.00,72.00,-991.00
2024-06-07 14:53:58.693373,0,-3,4,0,0,1,79,82,90,50,45,133.98,146,0.00,66.00,-996.00
2024-06-07 14:53:58.792614,0,-4,4,0,0,1,79,82,88,50,45,133.91,146,7.00,76.00,-1008.00
2024-06-07 14:53:58.954389,0,-3,4,0,0,1,79,82,86,40,45,133.90,146,18.00,71.00,-992.00
2024-06-07 14:53:58.997549,0,-4,4,0,0,1,79,82,85,40,45,134.00,147,-8.00,86.00,-996.00
2024-06-07 14:53:59.105883,0,-4,4,0,0,1,79,82,84,40,45,133.81,147,-13.00,86.00,-992.00
2024-06-07 14:53:59.201640,0,-4,4,0,0,1,79,82,83,40,45,134.09,147,14.00,101.00,-990.00
2024-06-07 14:53:59.361511,0,-4,4,0,0,0,79,82,81,40,45,133.71,147,-3.00,104.00,-1014.00
2024-06-07 14:53:59.406142,0,-5,4,0,0,0,79,82,81,40,45,133.98,147,3.00,100.00,-1011.00
2024-06-07 14:53:59.507586,0,-6,4,0,0,0,79,82,79,40,45,133.80,147,-14.00,89.00,-998.00
2024-06-07 14:53:59.670351,0,-6,4,0,0,0,79,82,79,40,45,133.51,147,-19.00,98.00,-1006.00
2024-06-07 14:53:59.711683,0,-5,4,0,0,0,79,82,78,40,45,133.51,147,-7.00,87.00,-994.00
2024-06-07 14:53:59.874913,0,-5,4,0,0,0,79,82,78,40,45,133.92,147,-8.00,97.00,-994.00
2024-06-07 14:53:59.915425,0,-5,4,0,0,0,79,82,77,40,45,133.89,147,3.00,98.00,-1004.00
2024-06-07 14:54:00.018435,0,-6,4,0,0,0,79,82,77,40,45,133.80,148,-16.00,94.00,-999.00
2024-06-07 14:54:00.122098,0,-6,4,0,0,0,79,82,76,40,45,133.64,148,5.00,94.00,-1005.00
2024-06-07 14:54:00.221634,0,-5,4,0,0,0,79,82,75,30,45,133.45,148,-10.00,98.00,-1001.00
2024-06-07 14:54:00.385513,0,-5,4,0,0,0,79,82,74,30,45,133.80,148,2.00,95.00,-1007.00
2024-06-07 14:54:00.425510,0,-5,4,0,0,0,79,82,74,30,45,133.69,148,-13.00,94.00,-1015.00
2024-06-07 14:54:00.528024,0,-5,4,0,0,0,79,82,74,30,45,133.54,148,0.00,97.00,-1009.00
2024-06-07 14:54:00.692740,0,-5,4,0,0,0,79,82,74,30,45,133.47,148,-10.00,88.00,-1006.00
2024-06-07 14:54:00.731686,0,-5,4,0,0,0,79,82,74,30,45,133.69,148,3.00,87.00,-1017.00
2024-06-07 14:54:00.897441,0,-5,4,0,0,0,79,82,74,30,45,133.86,148,-9.00,96.00,-1001.00
2024-06-07 14:54:00.935447,0,-5,4,0,0,0,79,82,75,30,45,133.71,148,-22.00,83.00,-974.00
2024-06-07 14:54:01.102326,0,-4,4,0,0,0,79,82,75,30,45,133.52,149,-4.00,78.00,-1004.00
2024-06-07 14:54:01.139466,0,-4,4,0,0,0,79,82,75,30,45,133.72,149,-14.00,86.00,-993.00
2024-06-07 14:54:01.190555,0,-4,4,0,0,0,79,82,75,30,45,133.55,149,-5.00,86.00,-1005.00
2024-06-07 14:54:01.307273,0,-4,4,0,0,0,79,82,76,30,45,133.79,149,1.00,87.00,-996.00
2024-06-07 14:54:01.394595,0,-4,4,0,0,0,79,82,77,30,45,133.62,149,-4.00,92.00,-993.00
2024-06-07 14:54:01.496642,0,-4,4,0,0,0,79,82,76,30,45,133.82,149,-2.00,96.00,-1000.00
2024-06-07 14:54:01.598575,0,-4,4,0,0,0,79,82,77,40,45,133.72,149,9.00,87.00,-996.00
2024-06-07 14:54:01.720499,0,-4,4,0,0,0,79,80,77,40,45,133.68,149,0.00,85.00,-994.00
2024-06-07 14:54:01.802441,0,-5,4,0,0,0,79,80,78,40,45,133.74,149,4.00,92.00,-989.00
2024-06-07 14:54:01.921683,0,-5,4,0,0,0,79,80,78,40,45,133.71,149,2.00,84.00,-983.00
2024-06-07 14:54:02.006486,0,-5,4,0,0,0,79,80,79,40,45,133.62,150,0.00,90.00,-991.00
2024-06-07 14:54:02.113058,0,-5,4,0,0,0,79,80,79,40,45,133.51,150,4.00,93.00,-996.00
2024-06-07 14:54:02.210557,0,-4,4,0,0,0,79,80,79,40,45,133.80,150,21.00,77.00,-975.00
2024-06-07 14:54:02.332385,0,-4,4,0,0,0,79,80,79,40,45,133.63,150,-12.00,83.00,-994.00
2024-06-07 14:54:02.414443,0,-4,4,0,0,0,79,80,79,40,45,133.60,150,9.00,91.00,-1006.00
2024-06-07 14:54:02.535913,0,-4,4,0,0,0,79,80,79,40,45,133.61,150,14.00,72.00,-994.00
2024-06-07 14:54:02.619257,0,-4,4,0,0,0,79,80,80,40,45,133.63,150,-8.00,84.00,-990.00
2024-06-07 14:54:02.740707,0,-4,4,0,0,0,78,80,79,40,45,133.50,150,5.00,79.00,-1007.00
2024-06-07 14:54:02.824481,0,-4,4,0,0,0,78,80,80,40,45,133.49,150,22.00,68.00,-994.00
2024-06-07 14:54:02.924522,0,-4,4,0,0,0,78,80,80,40,45,133.68,150,3.00,78.00,-990.00
2024-06-07 14:54:03.048024,0,-4,4,0,0,0,78,80,80,40,45,133.46,151,21.00,64.00,-993.00
2024-06-07 14:54:03.128617,0,-4,4,0,0,0,78,80,80,40,45,133.80,151,4.00,87.00,-1000.00
2024-06-07 14:54:03.252944,1,-4,4,0,0,0,78,80,80,40,45,133.57,151,12.00,64.00,-997.00
2024-06-07 14:54:03.333879,1,-4,4,0,0,0,78,80,81,40,45,133.57,151,-1.00,78.00,-1004.00
2024-06-07 14:54:03.434340,1,-4,4,0,0,0,78,80,80,40,45,133.67,151,-13.00,88.00,-994.00
2024-06-07 14:54:03.536721,0,-4,4,0,0,0,78,80,81,40,45,133.70,151,-9.00,82.00,-996.00
2024-06-07 14:54:03.662655,0,-4,4,0,0,0,78,80,80,40,45,133.58,151,17.00,65.00,-983.00
2024-06-07 14:54:03.740815,0,-4,4,0,0,0,78,80,81,40,45,133.70,151,16.00,62.00,-998.00
2024-06-07 14:54:03.868074,0,-4,4,0,0,0,78,80,81,40,45,133.50,151,20.00,62.00,-992.00
2024-06-07 14:54:03.945091,0,-3,4,0,0,0,78,80,81,40,45,133.91,151,4.00,73.00,-999.00
2024-06-07 14:54:04.080682,0,-3,4,0,0,0,78,80,80,40,45,133.47,152,-10.00,80.00,-997.00
2024-06-07 14:54:04.149372,0,-4,4,0,0,0,78,80,81,40,45,133.73,152,4.00,87.00,-999.00
2024-06-07 14:54:04.281363,0,-5,4,0,0,0,78,80,80,40,45,133.84,152,11.00,78.00,-999.00
2024-06-07 14:54:04.353285,0,-4,4,0,0,0,78,80,80,40,45,133.69,152,10.00,75.00,-1011.00
2024-06-07 14:54:04.481621,0,-4,4,0,0,0,78,80,80,40,45,133.89,152,-3.00,81.00,-1002.00
2024-06-07 14:54:04.557594,0,-4,4,0,0,0,78,80,79,40,45,133.57,152,1.00,68.00,-981.00
2024-06-07 14:54:04.659474,0,-4,4,0,0,0,78,80,80,40,45,133.49,152,-4.00,78.00,-984.00
2024-06-07 14:54:04.788814,-1,-4,4,0,0,0,79,80,80,40,45,133.60,152,2.00,89.00,-1005.00
2024-06-07 14:54:04.863466,0,-4,4,0,0,0,79,80,79,40,45,133.58,152,-16.00,97.00,-1004.00
2024-06-07 14:54:04.965372,0,-4,4,0,0,0,79,80,79,40,45,133.58,152,-9.00,79.00,-1001.00
2024-06-07 14:54:05.096379,0,-5,4,0,0,0,79,80,79,40,45,133.64,153,-13.00,93.00,-999.00
2024-06-07 14:54:05.118648,0,-5,4,0,0,0,79,80,79,40,45,133.81,153,-22.00,84.00,-1000.00
2024-06-07 14:54:05.300874,0,-5,4,0,0,0,79,80,79,40,45,133.78,153,-5.00,71.00,-1001.00
2024-06-07 14:54:05.323151,0,-5,4,0,0,0,79,80,79,40,45,133.45,153,-18.00,69.00,-993.00
2024-06-07 14:54:05.488424,0,-4,4,0,0,0,79,80,78,40,45,133.43,153,-12.00,72.00,-1009.00
2024-06-07 14:54:05.526254,0,-4,4,0,0,0,79,80,79,40,45,133.63,153,-7.00,85.00,-1007.00
2024-06-07 14:54:05.710209,0,-3,4,0,0,0,79,80,79,40,45,133.63,153,-7.00,67.00,-1044.00
2024-06-07 14:54:05.731758,0,-4,4,0,0,0,78,81,78,40,45,133.39,153,-13.00,72.00,-1121.00
2024-06-07 14:54:05.832246,0,-3,4,0,0,-1,78,81,80,40,45,133.77,153,-25.00,79.00,-1120.00
2024-06-07 14:54:06.017474,0,-3,4,0,0,-2,78,81,82,40,45,133.74,153,-26.00,77.00,-1103.00
2024-06-07 14:54:06.036205,-1,-3,4,0,0,-3,78,81,85,40,45,133.78,154,-18.00,73.00,-1073.00
2024-06-07 14:54:06.138750,-1,-3,4,0,0,-3,78,81,89,50,45,133.77,154,-6.00,74.00,-1074.00
2024-06-07 14:54:06.240362,0,-3,4,0,0,-4,78,81,94,50,45,133.67,154,-3.00,59.00,-1052.00
2024-06-07 14:54:06.343379,0,-3,4,0,0,-5,78,81,99,50,45,133.75,154,-29.00,88.00,-1040.00
2024-06-07 14:54:06.444530,0,-3,4,0,0,-5,78,81,106,60,45,133.58,154,-35.00,82.00,-1017.00
2024-06-07 14:54:06.632051,-1,-3,4,0,0,-5,78,81,111,70,45,133.91,154,-32.00,72.00,-1002.00
2024-06-07 14:54:06.648445,-1,-3,4,0,0,-5,78,81,116,70,45,134.00,154,-23.00,68.00,-989.00
2024-06-07 14:54:06.836699,-1,-4,4,0,0,-5,79,81,122,80,45,133.81,154,-20.00,72.00,-977.00
2024-06-07 14:54:06.852224,-1,-4,4,0,0,-5,79,81,130,80,45,134.12,154,-20.00,75.00,-967.00
2024-06-07 14:54:06.954145,-1,-4,4,0,0,-5,79,81,133,90,45,133.88,154,-23.00,67.00,-977.00
2024-06-07 14:54:07.148177,-1,-4,4,0,0,-5,79,81,142,90,45,134.16,155,-31.00,71.00,-970.00
2024-06-07 14:54:07.158097,-1,-4,4,0,0,-4,79,81,145,100,45,133.90,155,-25.00,57.00,-971.00
2024-06-07 14:54:07.352543,-1,-4,4,0,0,-4,79,81,152,110,45,134.15,155,-39.00,48.00,-956.00
2024-06-07 14:54:07.362064,-1,-3,4,0,0,-4,79,81,157,110,45,134.36,155,-50.00,46.00,-956.00
2024-06-07 14:54:07.464357,-2,-3,4,0,0,-3,79,81,160,110,45,134.36,155,-47.00,69.00,-950.00
2024-06-07 14:54:07.601663,-2,-3,4,0,0,-3,79,81,163,120,45,134.15,155,-32.00,47.00,-954.00
2024-06-07 14:54:07.668325,-2,-3,4,0,0,-3,79,81,166,120,45,134.21,155,-51.00,44.00,-960.00
2024-06-07 14:54:07.863838,-2,-3,4,0,0,-2,78,81,170,130,45,134.20,155,-46.00,39.00,-950.00
2024-06-07 14:54:07.873451,-2,-2,4,0,0,-2,78,81,175,130,45,134.21,155,-42.00,49.00,-961.00
2024-06-07 14:54:07.974257,-2,-2,4,0,0,-2,78,81,176,130,45,134.41,155,-51.00,48.00,-961.00
2024-06-07 14:54:08.076365,-2,-2,4,0,0,-2,78,81,178,130,45,134.17,156,-42.00,50.00,-940.00
2024-06-07 14:54:08.178683,-2,-2,4,0,0,-1,78,81,179,140,45,134.45,156,-28.00,56.00,-943.00
2024-06-07 14:54:08.280459,-2,-2,4,0,0,0,78,81,181,140,45,134.35,156,-29.00,64.00,-955.00
2024-06-07 14:54:08.475245,-1,-2,4,0,0,0,78,81,181,140,45,134.27,156,-29.00,54.00,-956.00
2024-06-07 14:54:08.484925,-1,-3,4,0,0,0,78,81,180,140,45,134.24,156,-19.00,53.00,-976.00
2024-06-07 14:54:08.680330,-1,-2,4,0,0,0,78,81,180,140,45,134.36,156,-19.00,49.00,-985.00
2024-06-07 14:54:08.680953,-1,-3,4,0,0,0,78,81,181,140,45,134.09,156,-19.00,38.00,-993.00
2024-06-07 14:54:08.791020,-1,-3,4,0,0,0,78,80,180,140,45,134.21,156,-26.00,54.00,-1000.00
2024-06-07 14:54:08.892377,-1,-2,4,0,0,0,78,80,180,140,45,134.39,156,-17.00,42.00,-997.00
2024-06-07 14:54:08.943160,-1,-2,4,0,0,0,78,80,183,140,45,134.40,156,-22.00,53.00,-994.00
2024-06-07 14:54:09.089933,-1,-2,4,0,0,0,78,80,184,140,45,134.34,157,-42.00,80.00,-1000.00
2024-06-07 14:54:09.147255,-1,-3,4,0,0,0,78,80,181,140,45,134.44,157,-32.00,64.00,-1022.00
2024-06-07 14:54:09.249117,-1,-3,4,0,0,0,78,80,179,140,45,134.55,157,-43.00,64.00,-990.00
2024-06-07 14:54:09.396736,-1,-3,4,0,0,0,78,80,180,140,45,134.33,157,-28.00,51.00,-980.00
2024-06-07 14:54:09.453155,-1,-3,4,0,0,0,78,80,182,140,45,134.49,157,-36.00,63.00,-998.00
2024-06-07 14:54:09.605164,-1,-2,4,0,0,0,78,80,183,140,45,134.42,157,-27.00,57.00,-981.00
2024-06-07 14:54:09.657104,-1,-3,4,0,0,0,78,80,182,140,45,134.52,157,-30.00,64.00,-1000.00
2024-06-07 14:54:09.806369,-1,-4,4,0,0,0,78,80,182,140,45,134.23,157,-31.00,62.00,-1001.00
2024-06-07 14:54:09.861080,0,-3,4,0,0,0,78,80,183,140,45,134.38,157,-20.00,68.00,-994.00
2024-06-07 14:54:09.976420,0,-3,4,0,0,0,78,80,181,140,45,134.46,157,-25.00,69.00,-1013.00
2024-06-07 14:54:10.069752,-1,-3,4,0,0,0,78,80,182,140,45,134.44,158,-27.00,66.00,-996.00
2024-06-07 14:54:10.168197,-1,-3,4,0,0,0,78,80,183,140,45,134.55,158,-19.00,66.00,-964.00
2024-06-07 14:54:10.270088,-1,-4,4,0,0,0,78,80,183,140,45,134.43,158,-26.00,65.00,-949.00
2024-06-07 14:54:10.422575,0,-3,4,0,0,0,78,80,181,140,45,134.41,158,-19.00,71.00,-946.00
2024-06-07 14:54:10.474713,0,-3,4,0,0,1,78,80,179,140,45,134.30,158,-23.00,64.00,-952.00
2024-06-07 14:54:10.576191,0,-3,4,0,0,1,78,80,176,140,45,134.47,158,-21.00,63.00,-954.00
2024-06-07 14:54:10.678081,0,-4,4,0,0,2,78,80,175,130,45,134.63,158,-24.00,68.00,-971.00
2024-06-07 14:54:10.780017,-1,-3,4,0,0,2,79,80,171,130,45,134.48,158,-21.00,63.00,-959.00
2024-06-07 14:54:10.882341,-1,-3,4,0,0,2,79,80,169,130,45,134.56,158,-30.00,72.00,-975.00
2024-06-07 14:54:10.983913,-1,-3,4,0,0,2,79,80,168,130,45,134.15,158,-25.00,74.00,-985.00
2024-06-07 14:54:11.137435,-1,-4,4,0,0,2,79,80,163,120,45,134.20,159,-8.00,76.00,-988.00
2024-06-07 14:54:11.189710,-1,-4,4,0,0,2,79,80,162,120,45,134.46,159,-9.00,64.00,-998.00
2024-06-07 14:54:11.289872,0,-4,4,0,0,2,79,80,159,120,45,134.53,159,-6.00,74.00,-1008.00
2024-06-07 14:54:11.444615,0,-3,4,0,0,2,79,80,153,120,45,134.16,159,-15.00,68.00,-996.00
2024-06-07 14:54:11.499618,0,-4,4,0,0,2,79,80,152,110,45,134.10,159,-39.00,65.00,-1012.00
2024-06-07 14:54:11.598881,0,-3,3,0,0,2,79,80,151,110,45,133.89,159,-36.00,54.00,-988.00
2024-06-07 14:54:11.698094,0,-4,4,0,0,2,79,80,148,110,45,134.27,159,-28.00,60.00,-1034.00
2024-06-07 14:54:11.799994,-1,-3,4,0,0,2,78,81,146,110,45,134.05,159,-38.00,62.00,-1018.00
2024-06-07 14:54:11.901927,-1,-2,4,0,0,1,78,81,145,100,45,134.38,159,-24.00,62.00,-1015.00
2024-06-07 14:54:12.059905,0,-3,4,0,0,1,78,81,142,100,45,133.82,159,-31.00,88.00,-1006.00
2024-06-07 14:54:12.110121,0,-4,4,0,0,1,78,81,141,100,45,134.34,160,0.00,69.00,-997.00
2024-06-07 14:54:12.212143,0,-4,4,0,0,1,78,81,140,100,45,134.25,160,-24.00,79.00,-1016.00
2024-06-07 14:54:12.263798,0,-4,4,0,0,1,78,81,139,100,45,134.20,160,-24.00,76.00,-992.00
2024-06-07 14:54:12.360813,0,-4,4,0,0,1,78,81,136,100,45,133.87,160,-4.00,70.00,-1015.00
2024-06-07 14:54:12.462848,0,-4,4,0,0,1,78,81,137,100,45,134.18,160,-6.00,65.00,-1017.00
2024-06-07 14:54:12.570969,0,-3,4,0,0,0,78,81,138,90,45,133.99,160,-9.00,52.00,-1016.00
2024-06-07 14:54:12.667046,-1,-3,4,0,0,0,78,81,136,90,45,133.91,160,-14.00,55.00,-1000.00
2024-06-07 14:54:12.820102,0,-3,4,0,0,0,78,80,135,90,45,134.17,160,-10.00,66.00,-1007.00
2024-06-07 14:54:12.871252,0,-3,4,0,0,0,78,80,135,90,45,134.13,160,-29.00,56.00,-1008.00
2024-06-07 14:54:12.981011,0,-3,4,0,0,0,78,80,134,90,45,133.92,161,-14.00,49.00,-1000.00
2024-06-07 14:54:13.078963,0,-3,4,0,0,0,78,80,134,90,45,133.85,161,-22.00,60.00,-1014.00
2024-06-07 14:54:13.176965,0,-3,4,0,0,0,78,80,135,90,45,134.08,161,-21.00,54.00,-998.00
2024-06-07 14:54:13.289423,0,-3,4,0,0,0,78,80,134,90,45,133.90,161,-13.00,47.00,-1008.00
2024-06-07 14:54:13.381006,0,-2,4,0,0,0,78,80,134,90,45,133.92,161,-28.00,54.00,-996.00
2024-06-07 14:54:13.482904,-1,-2,4,0,0,0,78,80,134,90,45,133.99,161,-6.00,54.00,-992.00
2024-06-07 14:54:13.585001,-1,-2,4,0,0,0,78,80,136,90,45,133.98,161,-13.00,54.00,-1003.00
2024-06-07 14:54:13.686843,0,-2,4,0,0,0,78,80,135,90,45,134.28,161,-11.00,55.00,-992.00
2024-06-07 14:54:13.789352,0,-3,4,0,0,0,77,80,135,90,45,134.10,161,-11.00,52.00,-1000.00
2024-06-07 14:54:13.911601,0,-3,4,0,0,0,77,80,136,90,45,133.75,161,-22.00,59.00,-1016.00
2024-06-07 14:54:13.992884,-1,-2,4,0,0,0,77,80,134,90,45,134.11,162,-17.00,56.00,-996.00
2024-06-07 14:54:14.095087,-1,-2,4,0,0,0,77,80,134,90,45,133.90,162,-25.00,58.00,-1008.00
2024-06-07 14:54:14.198801,-1,-2,4,0,0,0,77,80,134,90,45,133.97,162,-13.00,63.00,-1009.00
2024-06-07 14:54:14.299248,-1,-2,4,0,0,0,77,80,134,90,45,133.71,162,-19.00,66.00,-997.00
2024-06-07 14:54:14.418919,-1,-3,4,0,0,0,77,80,134,90,45,134.06,162,-24.00,54.00,-982.00
2024-06-07 14:54:14.502811,0,-3,4,0,0,0,77,80,136,90,45,133.86,162,-28.00,53.00,-996.00
2024-06-07 14:54:14.619269,-1,-3,4,0,0,0,77,80,136,90,45,133.92,162,-15.00,48.00,-997.00
2024-06-07 14:54:14.706736,-1,-3,4,0,0,0,77,80,135,90,45,133.64,162,-38.00,53.00,-992.00
2024-06-07 14:54:14.823798,-5,-3,4,0,0,0,78,80,136,90,45,133.83,162,-10.00,46.00,-1000.00
2024-06-07 14:54:14.912687,-8,-3,4,1,0,0,78,80,137,90,45,133.87,162,-26.00,56.00,-997.00
2024-06-07 14:54:15.012703,-8,-3,4,2,0,0,78,80,136,90,45,133.90,163,-25.00,35.00,-989.00
2024-06-07 14:54:15.133026,-8,-2,4,3,0,0,78,80,136,90,45,133.83,163,-51.00,36.00,-1003.00
2024-06-07 14:54:15.217738,-7,-2,4,4,0,0,78,80,136,90,45,133.90,163,-59.00,18.00,-1001.00
2024-06-07 14:54:15.335801,-8,-2,4,4,0,0,78,80,135,90,45,134.19,163,-84.00,26.00,-1020.00
2024-06-07 14:54:15.422028,-8,-1,4,5,0,0,78,80,136,90,45,133.97,163,-78.00,38.00,-1019.00
2024-06-07 14:54:15.523870,-8,-1,4,6,0,0,78,80,136,90,45,133.99,163,-70.00,21.00,-982.00
2024-06-07 14:54:15.642966,-8,-1,4,7,0,0,78,80,137,90,45,133.86,163,-81.00,37.00,-1000.00
2024-06-07 14:54:15.727836,-6,0,4,7,0,0,78,80,136,90,45,133.87,163,-78.00,41.00,-975.00
2024-06-07 14:54:15.849311,-1,-1,4,7,0,0,77,80,135,90,45,133.78,163,-101.00,42.00,-980.00
2024-06-07 14:54:15.931763,0,-1,4,6,0,0,77,80,135,90,45,134.03,163,-100.00,50.00,-998.00
2024-06-07 14:54:16.052567,1,-1,4,5,0,0,77,80,135,90,45,133.95,164,-100.00,40.00,-996.00
2024-06-07 14:54:16.135713,1,-2,4,4,0,0,77,80,136,90,45,134.04,164,-61.00,48.00,-1004.00
2024-06-07 14:54:16.237754,0,-2,4,3,0,0,77,80,136,90,45,134.00,164,-71.00,58.00,-1000.00
2024-06-07 14:54:16.365613,0,-3,4,3,0,0,77,80,136,100,45,134.12,164,-64.00,56.00,-994.00
2024-06-07 14:54:16.390601,0,-4,4,3,0,0,77,80,136,100,45,134.05,164,-56.00,26.00,-991.00
2024-06-07 14:54:16.565075,-1,-3,4,3,0,0,77,80,134,100,45,134.29,164,-55.00,49.00,-989.00
2024-06-07 14:54:16.594600,-1,-2,4,3,0,0,77,80,135,100,45,133.85,164,-51.00,46.00,-998.00
2024-06-07 14:54:16.696573,-1,-2,4,2,0,0,77,80,133,90,45,134.09,164,-45.00,61.00,-989.00
2024-06-07 14:54:16.871777,0,-2,4,2,0,0,78,80,134,90,45,134.03,164,-34.00,47.00,-998.00
2024-06-07 14:54:16.901904,0,-3,4,2,0,0,78,80,134,90,45,133.94,164,-38.00,58.00,-994.00
2024-06-07 14:54:17.003703,1,-3,4,2,0,0,78,80,133,90,45,133.58,165,-34.00,55.00,-981.00
2024-06-07 14:54:17.179443,2,-2,4,1,0,0,78,80,133,90,45,133.83,165,-27.00,49.00,-983.00
2024-06-07 14:54:17.207990,1,-3,4,0,0,0,78,80,133,90,45,134.03,165,-48.00,44.00,-982.00
2024-06-07 14:54:17.383962,0,-2,4,0,0,0,78,80,133,90,45,133.87,165,-32.00,53.00,-989.00
2024-06-07 14:54:17.411808,0,-2,4,0,0,0,78,80,131,90,45,134.11,165,-30.00,50.00,-1036.00
2024-06-07 14:54:17.513995,0,-2,4,0,0,0,78,80,132,90,45,133.78,165,-55.00,47.00,-1010.00
2024-06-07 14:54:17.615775,0,-2,3,0,0,0,78,80,132,90,45,134.22,165,-51.00,36.00,-1020.00
2024-06-07 14:54:17.793735,-1,-2,4,0,0,0,78,80,132,90,45,133.71,165,-44.00,29.00,-996.00
2024-06-07 14:54:17.819709,-2,-2,4,0,0,0,78,80,132,90,45,133.87,165,-39.00,32.00,-1016.00
2024-06-07 14:54:17.998444,-2,-2,4,0,0,0,78,80,133,90,45,133.49,165,-49.00,17.00,-986.00
2024-06-07 14:54:18.026224,-2,-1,4,0,0,0,78,80,132,90,45,133.90,166,-45.00,28.00,-1000.00
2024-06-07 14:54:18.125911,-2,0,4,0,0,0,78,80,132,90,45,134.06,166,-42.00,19.00,-994.00
2024-06-07 14:54:18.227714,-2,0,4,0,0,0,78,80,133,90,45,134.05,166,-46.00,17.00,-1021.00
2024-06-07 14:54:18.413914,-2,0,4,0,0,0,78,80,133,90,45,133.97,166,-51.00,24.00,-1001.00
2024-06-07 14:54:18.431467,-3,0,4,0,0,0,78,80,133,90,45,134.20,166,-28.00,22.00,-991.00
2024-06-07 14:54:18.612966,-3,0,4,0,0,0,78,80,132,90,45,134.15,166,-29.00,39.00,-998.00
2024-06-07 14:54:18.635676,-2,0,4,0,0,0,78,80,134,90,45,134.19,166,-20.00,45.00,-999.00
2024-06-07 14:54:18.821971,-1,-1,4,0,0,0,78,80,134,90,45,134.02,166,-14.00,34.00,-995.00
2024-06-07 14:54:18.839667,-1,-1,4,0,0,0,77,80,135,90,45,134.00,166,-6.00,56.00,-1002.00
2024-06-07 14:54:18.941951,-1,-1,4,0,0,0,77,80,134,90,45,133.92,166,-8.00,40.00,-1009.00
2024-06-07 14:54:19.125574,-1,-2,4,0,0,0,77,80,135,90,45,134.11,167,-36.00,33.00,-983.00
2024-06-07 14:54:19.145661,0,-2,3,0,0,0,77,80,135,90,45,134.03,167,-39.00,43.00,-1048.00
2024-06-07 14:54:19.249845,-1,-3,3,0,0,0,77,80,134,90,45,133.99,167,-38.00,38.00,-1001.00
2024-06-07 14:54:19.349666,-1,-2,3,0,0,0,77,80,136,90,45,134.17,167,-34.00,29.00,-971.00
2024-06-07 14:54:19.451600,2,-3,4,0,0,0,77,80,135,90,45,134.25,167,-36.00,39.00,-991.00
2024-06-07 14:54:19.502485,6,-3,4,-1,0,0,77,80,135,90,45,133.91,167,-37.00,47.00,-1038.00
2024-06-07 14:54:19.604631,7,-2,4,-2,0,0,77,80,136,90,45,134.19,167,-40.00,41.00,-990.00
2024-06-07 14:54:19.707541,6,-2,4,-4,0,0,77,80,136,90,45,134.09,167,-17.00,55.00,-1003.00
2024-06-07 14:54:19.859930,5,-2,4,-5,0,0,78,81,135,90,45,133.97,167,2.00,42.00,-1028.00
2024-06-07 14:54:19.961349,5,-2,4,-5,0,0,78,81,134,90,45,133.94,167,17.00,47.00,-1010.00
2024-06-07 14:54:20.065287,4,-2,4,-6,0,0,78,81,134,90,45,134.07,168,21.00,52.00,-1020.00
2024-06-07 14:54:20.169144,4,-2,4,-7,0,0,78,81,134,90,45,133.86,168,-8.00,47.00,-983.00
2024-06-07 14:54:20.216466,3,-3,3,-7,0,0,78,81,135,90,45,133.89,168,-2.00,52.00,-990.00
2024-06-07 14:54:20.353293,0,-2,4,-8,0,0,78,81,134,90,45,133.71,168,15.00,66.00,-989.00
2024-06-07 14:54:20.420385,-3,-3,4,-7,0,0,78,81,135,90,45,133.86,168,-8.00,57.00,-982.00
2024-06-07 14:54:20.522438,-6,-1,4,-6,0,0,78,81,136,90,45,134.26,168,2.00,41.00,-996.00
2024-06-07 14:54:20.624303,-6,-2,4,-5,0,0,78,81,134,90,45,134.12,168,-4.00,45.00,-1031.00
2024-06-07 14:54:20.726403,-5,-3,4,-4,0,0,78,81,134,90,45,133.86,168,-20.00,52.00,-1029.00
2024-06-07 14:54:20.870696,-4,-2,4,-4,0,0,78,81,133,90,45,133.87,168,-22.00,42.00,-994.00
2024-06-07 14:54:20.930394,-3,-2,4,-4,0,0,78,81,133,90,45,134.05,168,-32.00,37.00,-1004.00
2024-06-07 14:54:21.071400,-3,-2,4,-3,0,0,78,81,134,90,45,134.19,169,-38.00,41.00,-1020.00
2024-06-07 14:54:21.135366,-4,-2,4,-3,0,0,78,81,134,90,45,133.80,169,-49.00,36.00,-994.00
2024-06-07 14:54:21.274908,-5,-2,4,-3,0,0,78,81,134,90,45,134.12,169,-22.00,38.00,-1013.00
2024-06-07 14:54:21.340035,-8,-2,4,-2,0,0,78,81,137,90,45,133.90,169,-34.00,39.00,-1010.00
2024-06-07 14:54:21.480797,-7,-2,4,-1,0,0,78,81,135,90,45,133.96,169,-54.00,38.00,-1016.00
2024-06-07 14:54:21.543388,-4,-2,4,0,0,0,78,81,135,90,45,133.89,169,-47.00,39.00,-1005.00
2024-06-07 14:54:21.645587,-3,-2,4,0,0,0,78,81,137,90,45,133.94,169,-50.00,46.00,-982.00
2024-06-07 14:54:21.788761,-3,-2,4,0,0,0,78,81,136,90,45,134.04,169,-40.00,40.00,-997.00
2024-06-07 14:54:21.849570,-3,-2,4,0,0,0,78,81,136,90,45,133.79,169,-30.00,46.00,-986.00
2024-06-07 14:54:21.993247,-2,-2,4,0,0,0,78,81,136,90,45,134.06,169,-29.00,43.00,-984.00
2024-06-07 14:54:22.056930,-2,-2,4,0,0,0,78,81,136,90,45,133.90,170,-34.00,40.00,-995.00
2024-06-07 14:54:22.155266,-2,-3,4,0,0,0,78,81,137,90,45,133.83,170,-46.00,54.00,-1000.00
2024-06-07 14:54:22.299201,-1,-2,4,0,0,0,78,81,136,90,45,133.86,170,-43.00,43.00,-983.00
2024-06-07 14:54:22.359392,-1,-2,4,0,0,0,78,81,136,90,45,133.67,170,-36.00,24.00,-971.00
2024-06-07 14:54:22.504994,-1,-2,4,0,0,0,78,81,137,90,45,134.26,170,-35.00,23.00,-990.00
2024-06-07 14:54:22.564474,0,-2,4,0,0,0,78,81,136,100,45,133.92,170,-63.00,19.00,-1006.00
2024-06-07 14:54:22.665603,0,-2,4,0,0,0,78,81,136,100,45,134.04,170,-71.00,21.00,-999.00
2024-06-07 14:54:22.812441,-1,-1,4,0,0,0,78,81,136,100,45,133.68,170,-54.00,1.00,-985.00
2024-06-07 14:54:22.869651,-2,-1,4,0,0,0,78,81,137,90,45,134.05,170,-68.00,14.00,-1015.00
2024-06-07 14:54:22.973053,-2,0,4,0,0,0,78,81,137,90,45,134.04,170,-79.00,27.00,-1003.00
2024-06-07 14:54:23.118423,-3,-1,4,0,0,0,78,81,138,90,45,134.00,171,-44.00,34.00,-978.00
2024-06-07 14:54:23.180477,-3,0,4,0,0,0,78,81,137,90,45,134.18,171,-46.00,40.00,-957.00
2024-06-07 14:54:23.280254,-2,0,4,0,0,0,78,81,137,90,45,134.14,171,-47.00,63.00,-978.00
2024-06-07 14:54:23.380870,-2,-1,4,0,0,0,78,81,135,90,45,134.15,171,-51.00,58.00,-1007.00
2024-06-07 14:54:23.527948,-2,-3,4,0,0,0,78,81,135,90,45,134.09,171,-39.00,38.00,-1021.00
2024-06-07 14:54:23.533905,-2,-3,4,0,0,0,78,81,134,90,45,133.68,171,-37.00,31.00,-1012.00
2024-06-07 14:54:23.635389,-1,-2,4,0,0,0,78,81,136,90,45,133.91,171,-46.00,33.00,-1013.00
2024-06-07 14:54:23.836018,-1,-2,4,0,0,0,78,81,133,90,45,133.86,171,-59.00,49.00,-984.00
2024-06-07 14:54:23.839749,-1,-8,4,0,0,0,78,80,137,90,45,133.75,171,-69.00,26.00,-1028.00
2024-06-07 14:54:24.039718,-2,-8,4,0,-1,0,78,80,136,90,45,133.96,171,-49.00,51.00,-1004.00
2024-06-07 14:54:24.043286,-3,-8,4,0,-2,0,78,80,136,90,45,133.81,172,-58.00,41.00,-1003.00
2024-06-07 14:54:24.147759,-2,-6,4,0,-3,0,78,80,134,90,45,133.96,172,-69.00,27.00,-1010.00
2024-06-07 14:54:24.251146,-2,-3,4,0,-4,0,78,80,134,90,45,133.90,172,-70.00,54.00,-988.00
2024-06-07 14:54:24.349904,-3,0,4,0,-3,0,78,80,134,90,45,133.98,172,-28.00,56.00,-995.00
2024-06-07 14:54:24.451221,-3,-1,4,0,-2,0,78,80,134,90,45,133.83,172,-40.00,54.00,-972.00
2024-06-07 14:54:24.654139,-2,-2,4,0,-2,0,78,80,136,90,44,133.82,172,-40.00,65.00,-1015.00
2024-06-07 14:54:24.655282,-1,-2,4,0,-2,0,78,80,133,90,44,133.51,172,-31.00,49.00,-1022.00
2024-06-07 14:54:24.858894,-2,-2,4,0,-2,0,78,80,135,90,44,134.07,172,-37.00,37.00,-1019.00
2024-06-07 14:54:24.859369,-1,-2,3,0,-2,0,77,81,134,90,44,133.95,172,-31.00,23.00,-993.00
2024-06-07 14:54:24.961202,-2,-2,3,0,-3,0,77,81,134,90,44,133.86,172,-56.00,22.00,-1025.00
2024-06-07 14:54:25.063434,-1,-2,3,0,-3,0,77,81,136,90,44,133.77,173,-39.00,6.00,-975.00
2024-06-07 14:54:25.166293,-1,-1,4,0,-3,0,77,81,135,90,44,133.90,173,-64.00,15.00,-988.00
2024-06-07 14:54:25.268197,-2,0,4,0,-3,0,77,81,136,90,44,133.77,173,-60.00,1.00,-985.00
2024-06-07 14:54:25.376215,-3,2,4,0,-3,0,77,81,135,90,44,133.75,173,-48.00,26.00,-977.00
2024-06-07 14:54:25.471206,-3,5,4,0,-2,0,77,81,134,90,44,134.04,173,-53.00,60.00,-974.00
2024-06-07 14:54:25.573342,-3,2,4,0,0,0,77,81,135,90,44,133.89,173,-35.00,49.00,-1007.00
2024-06-07 14:54:25.675750,-3,0,4,0,0,0,77,81,133,90,44,133.86,173,-46.00,42.00,-996.00
2024-06-07 14:54:25.777355,-2,-1,4,0,0,0,77,81,134,90,44,133.98,173,-53.00,31.00,-1002.00
2024-06-07 14:54:25.883036,-2,-2,4,0,0,0,79,80,134,90,44,133.83,173,-51.00,43.00,-1006.00
2024-06-07 14:54:25.981267,-2,-1,4,0,0,0,79,80,134,90,44,134.17,173,-47.00,46.00,-1009.00
2024-06-07 14:54:26.087722,-2,-1,4,0,0,0,79,80,135,90,44,133.84,174,-47.00,49.00,-980.00
2024-06-07 14:54:26.195190,-2,-2,4,0,0,0,79,80,135,90,44,133.85,174,-45.00,43.00,-996.00
2024-06-07 14:54:26.287385,-2,-2,4,0,0,0,79,80,134,90,44,133.75,174,-42.00,33.00,-990.00
2024-06-07 14:54:26.394964,-2,-2,4,0,0,0,79,80,133,90,44,133.89,174,-54.00,43.00,-1000.00
2024-06-07 14:54:26.491496,-2,-2,4,0,0,0,79,80,131,90,44,133.66,174,-58.00,48.00,-1013.00
2024-06-07 14:54:26.603484,-2,-2,4,0,0,0,79,80,132,90,44,133.80,174,-48.00,44.00,-1020.00
2024-06-07 14:54:26.695629,-2,-2,4,0,0,0,79,80,132,90,44,134.15,174,-53.00,50.00,-974.00
2024-06-07 14:54:26.804919,-2,-2,4,0,0,0,79,80,132,90,44,133.91,174,-68.00,54.00,-998.00
2024-06-07 14:54:26.899328,-3,-3,4,0,0,0,78,81,132,90,44,133.93,174,-72.00,55.00,-988.00
2024-06-07 14:54:27.010147,-3,-3,4,0,0,0,78,81,132,90,44,134.12,174,-65.00,62.00,-1004.00
2024-06-07 14:54:27.103312,-3,-3,4,0,0,0,78,81,132,90,44,134.08,175,-62.00,68.00,-1000.00
2024-06-07 14:54:27.154425,-3,-3,4,0,0,0,78,81,133,90,44,134.19,175,-68.00,65.00,-991.00
2024-06-07 14:54:27.256088,-3,-3,4,0,0,0,78,81,132,90,44,134.22,175,-80.00,82.00,-1015.00
2024-06-07 14:54:27.420455,-3,-4,4,0,0,0,78,81,131,90,44,133.60,175,-87.00,67.00,-1006.00
2024-06-07 14:54:27.460125,-3,-4,4,0,0,0,78,81,131,90,44,134.02,175,-55.00,56.00,-1013.00
2024-06-07 14:54:27.624276,-4,-4,4,0,0,0,78,81,131,90,43,133.98,175,-69.00,55.00,-1008.00
2024-06-07 14:54:27.664336,-4,-4,4,0,0,0,78,81,133,90,43,134.03,175,-75.00,35.00,-1007.00
2024-06-07 14:54:27.833906,-4,-3,4,0,0,0,78,81,134,90,43,133.74,175,-79.00,23.00,-1019.00
2024-06-07 14:54:27.869187,-4,0,4,0,0,0,78,80,134,90,43,134.28,175,-74.00,42.00,-1006.00
2024-06-07 14:54:28.034439,-4,6,4,0,0,0,78,80,135,90,43,133.82,175,-76.00,38.00,-1007.00
2024-06-07 14:54:28.071965,-4,4,4,0,2,0,78,80,136,90,43,134.01,176,-72.00,39.00,-963.00
2024-06-07 14:54:28.175353,-4,1,4,0,3,0,78,80,135,90,43,133.70,176,-92.00,15.00,-982.00
2024-06-07 14:54:28.342576,-4,0,4,0,3,0,78,80,136,90,43,133.67,176,-82.00,16.00,-994.00
2024-06-07 14:54:28.377944,-4,-2,4,0,2,0,78,80,135,90,43,133.68,176,-79.00,7.00,-990.00
2024-06-07 14:54:28.479883,-4,-1,4,0,2,0,78,80,135,90,43,133.84,176,-80.00,0.00,-1017.00
2024-06-07 14:54:28.647690,-4,0,4,0,1,0,78,80,135,90,43,133.62,176,-72.00,-14.00,-980.00
2024-06-07 14:54:28.685553,-4,0,4,0,2,0,78,80,136,90,43,133.87,176,-90.00,1.00,-984.00
2024-06-07 14:54:28.786228,-4,0,4,0,2,0,78,80,136,90,43,133.43,176,-87.00,6.00,-984.00
2024-06-07 14:54:28.955043,-4,0,4,0,2,0,78,80,136,90,43,133.50,176,-78.00,0.00,-999.00
2024-06-07 14:54:28.989909,-4,0,4,0,2,0,78,80,135,90,43,133.88,177,-65.00,1.00,-1022.00
2024-06-07 14:54:29.159675,-4,0,4,0,1,0,78,80,136,90,43,134.02,177,-55.00,-5.00,-984.00
2024-06-07 14:54:29.193881,-3,0,4,0,1,0,78,80,134,90,43,133.85,177,-49.00,-7.00,-1004.00
2024-06-07 14:54:29.365096,-3,0,4,0,1,0,78,80,135,90,43,133.77,177,-66.00,-3.00,-1004.00
2024-06-07 14:54:29.402463,-3,0,4,0,1,0,78,80,134,90,43,133.82,177,-66.00,-9.00,-1000.00
2024-06-07 14:54:29.499885,-3,0,4,0,2,0,78,80,135,90,43,133.79,177,-69.00,6.00,-1000.00
2024-06-07 14:54:29.673809,-3,0,4,0,2,0,78,80,135,90,42,133.76,177,-63.00,-4.00,-970.00
2024-06-07 14:54:29.703875,-3,0,4,0,1,0,78,80,134,90,42,133.65,177,-65.00,6.00,-1000.00
2024-06-07 14:54:29.878610,-3,0,4,0,2,0,78,80,132,90,42,133.77,177,-64.00,35.00,-978.00
2024-06-07 14:54:29.907775,-3,0,4,0,2,0,78,81,134,90,42,133.89,177,-69.00,38.00,-994.00
2024-06-07 14:54:30.081252,-2,-6,4,0,2,0,78,81,133,90,42,133.58,178,-53.00,18.00,-1031.00
2024-06-07 14:54:30.114850,-3,-7,4,0,1,0,78,81,133,90,42,133.58,178,-64.00,17.00,-1007.00
2024-06-07 14:54:30.213894,-3,-4,4,0,0,0,78,81,133,90,42,133.64,178,-42.00,37.00,-1002.00
2024-06-07 14:54:30.389103,-3,-3,4,0,0,0,78,81,133,90,42,133.76,178,-43.00,42.00,-1016.00
2024-06-07 14:54:30.417959,-2,-2,4,0,0,0,78,81,133,90,42,134.05,178,-49.00,48.00,-1011.00
2024-06-07 14:54:30.519887,-2,-3,4,0,0,0,78,81,133,90,42,134.02,178,-27.00,32.00,-999.00
2024-06-07 14:54:30.695712,-1,-4,4,0,0,0,78,81,133,90,42,134.20,178,-39.00,26.00,-1010.00
2024-06-07 14:54:30.723856,-1,-3,4,0,0,0,78,81,134,90,42,133.71,178,-44.00,33.00,-998.00
2024-06-07 14:54:30.902176,-1,-2,4,0,0,0,78,81,133,90,42,133.75,178,-56.00,28.00,-982.00
2024-06-07 14:54:30.927836,-1,-2,4,0,0,0,79,80,134,90,42,133.78,178,-59.00,22.00,-1009.00
2024-06-07 14:54:31.105847,-2,-2,4,0,0,0,79,80,136,90,42,133.54,179,-53.00,22.00,-986.00
2024-06-07 14:54:31.106028,-2,-1,4,0,0,0,79,80,135,90,42,133.73,179,-76.00,39.00,-990.00
2024-06-07 14:54:31.183370,-2,-1,4,0,0,0,79,80,134,90,42,134.08,179,-74.00,46.00,-986.00
2024-06-07 14:54:31.310133,-3,-1,4,0,0,0,79,80,135,90,42,133.45,179,-61.00,31.00,-994.00
2024-06-07 14:54:31.386964,-3,-1,4,0,0,0,79,80,135,90,42,133.27,179,-60.00,37.00,-999.00
2024-06-07 14:54:31.515040,-3,-1,4,0,0,0,79,80,135,90,42,133.70,179,-78.00,24.00,-989.00
2024-06-07 14:54:31.590863,-3,-1,4,0,0,0,79,80,135,90,42,133.88,179,-82.00,22.00,-1009.00
2024-06-07 14:54:31.723780,-4,0,4,0,0,0,79,80,136,90,42,133.73,179,-89.00,29.00,-989.00
2024-06-07 14:54:31.795748,-4,0,4,0,0,0,79,80,134,90,42,134.05,179,-93.00,27.00,-986.00
2024-06-07 14:54:31.898647,-4,-1,4,0,0,0,79,80,135,90,42,133.60,179,-92.00,23.00,-991.00
2024-06-07 14:54:31.999068,-4,-1,4,0,0,0,79,80,136,90,42,133.98,180,-77.00,27.00,-1000.00
2024-06-07 14:54:32.130068,-4,0,4,0,0,0,79,80,135,90,42,133.86,180,-87.00,42.00,-1002.00
2024-06-07 14:54:32.202976,-4,0,4,0,0,0,79,80,135,90,42,134.13,180,-64.00,44.00,-1000.00
2024-06-07 14:54:32.334998,-4,-1,5,0,0,0,79,80,137,90,42,134.19,180,-32.00,9.00,-1045.00
2024-06-07 14:54:32.407047,-3,-2,11,0,0,0,79,80,137,90,42,133.81,180,-61.00,44.00,-1003.00
2024-06-07 14:54:32.540727,-3,-3,17,0,0,0,79,80,137,90,42,133.83,180,-74.00,39.00,-989.00
2024-06-07 14:54:32.610808,-3,-3,24,0,0,0,79,80,136,90,42,133.92,180,-43.00,34.00,-953.00
2024-06-07 14:54:32.743554,-3,-3,30,0,0,0,79,80,138,90,42,133.86,180,-44.00,45.00,-999.00
2024-06-07 14:54:32.814782,-3,-3,36,0,0,0,79,80,136,90,42,134.00,180,-37.00,44.00,-962.00
2024-06-07 14:54:32.917558,-2,-3,42,0,0,0,79,80,136,90,42,133.89,180,-46.00,44.00,-988.00
2024-06-07 14:54:33.018871,-2,-3,48,0,0,0,79,80,135,90,42,133.74,181,-39.00,58.00,-995.00
2024-06-07 14:54:33.120762,-1,-3,54,0,0,0,79,80,135,90,42,133.89,181,-21.00,58.00,-999.00
2024-06-07 14:54:33.222935,-1,-2,61,0,0,0,79,80,134,90,42,134.20,181,4.00,70.00,-1006.00
2024-06-07 14:54:33.324708,-1,-3,67,0,0,0,79,80,134,90,42,133.92,181,43.00,86.00,-1012.00
2024-06-07 14:54:33.426916,0,-4,74,0,0,0,79,80,133,90,42,134.07,181,51.00,79.00,-1019.00
2024-06-07 14:54:33.563645,2,-4,81,0,1,0,79,80,132,90,42,134.02,181,43.00,72.00,-1029.00
2024-06-07 14:54:33.630774,3,-3,87,0,0,0,79,80,134,90,41,133.98,181,44.00,66.00,-1014.00
2024-06-07 14:54:33.732769,3,-2,93,0,0,0,79,80,132,90,41,133.93,181,48.00,73.00,-1010.00
2024-06-07 14:54:33.869988,2,-2,99,0,0,0,79,80,132,90,41,134.37,181,60.00,73.00,-985.00
2024-06-07 14:54:33.936853,3,-2,105,0,0,0,79,80,133,90,41,133.95,181,68.00,68.00,-979.00
2024-06-07 14:54:34.074797,4,-2,111,0,0,0,79,80,134,90,41,134.27,182,84.00,37.00,-1004.00
2024-06-07 14:54:34.140963,4,-2,117,0,0,0,79,80,134,90,41,133.93,182,90.00,25.00,-1012.00
2024-06-07 14:54:34.279628,5,0,124,0,0,0,79,80,134,90,41,134.03,182,91.00,10.00,-1016.00
2024-06-07 14:54:34.344807,5,0,130,0,0,0,79,80,132,90,41,133.97,182,89.00,18.00,-1000.00
2024-06-07 14:54:34.400458,5,0,137,0,0,0,79,80,135,90,41,134.03,182,89.00,0.00,-1005.00
2024-06-07 14:54:34.497899,5,1,143,0,0,0,79,80,134,90,41,133.53,182,89.00,-23.00,-1011.00
2024-06-07 14:54:34.694338,4,3,150,0,0,0,79,80,135,90,41,133.89,182,86.00,9.00,-989.00
2024-06-07 14:54:34.701606,4,2,157,0,0,0,79,80,135,90,41,133.93,182,105.00,-8.00,-995.00
2024-06-07 14:54:34.898346,5,2,163,0,0,0,79,80,136,90,41,133.91,182,75.00,11.00,-984.00
2024-06-07 14:54:34.905772,4,2,170,0,0,0,78,80,137,90,41,133.59,182,92.00,-28.00,-990.00
2024-06-07 14:54:35.098817,4,3,176,0,0,0,78,80,138,90,41,133.94,183,65.00,-6.00,-962.00
2024-06-07 14:54:35.109608,4,3,-178,0,0,0,78,80,137,90,41,133.99,183,62.00,-21.00,-996.00
2024-06-07 14:54:35.211513,4,2,-172,0,0,0,78,80,136,90,41,134.03,183,60.00,-29.00,-1001.00
2024-06-07 14:54:35.313516,4,3,-166,0,0,0,78,80,137,90,41,133.92,183,63.00,-45.00,-977.00
2024-06-07 14:54:35.508359,4,3,-160,0,0,0,78,80,137,90,41,133.87,183,48.00,-61.00,-984.00
2024-06-07 14:54:35.517475,3,3,-154,0,0,0,78,80,137,90,41,133.93,183,38.00,-65.00,-1003.00
2024-06-07 14:54:35.713216,2,4,-148,0,0,0,78,80,137,90,41,134.00,183,27.00,-65.00,-1012.00
2024-06-07 14:54:35.721809,1,4,-142,0,0,0,78,80,136,90,41,134.08,183,47.00,-60.00,-983.00
2024-06-07 14:54:35.918673,1,4,-137,0,0,0,78,80,136,90,41,134.12,183,17.00,-61.00,-989.00
2024-06-07 14:54:35.926075,1,4,-131,0,0,0,78,80,136,90,41,134.05,183,30.00,-65.00,-1008.00
2024-06-07 14:54:36.028980,1,4,-125,0,0,0,78,80,136,90,41,133.91,184,24.00,-53.00,-993.00
2024-06-07 14:54:36.129519,0,3,-119,0,0,0,78,80,136,90,41,133.97,184,26.00,-56.00,-1002.00
2024-06-07 14:54:36.232018,0,3,-113,0,0,0,78,80,135,90,41,134.25,184,-7.00,-57.00,-1001.00
2024-06-07 14:54:36.333501,1,2,-108,0,0,0,78,80,136,90,41,133.71,184,-18.00,-69.00,-1002.00
2024-06-07 14:54:36.435837,0,2,-103,0,0,0,78,80,135,90,41,133.87,184,-31.00,-56.00,-1018.00
2024-06-07 14:54:36.634779,-1,4,-97,0,0,0,78,80,136,90,40,134.07,184,-40.00,-39.00,-982.00
2024-06-07 14:54:36.639298,-2,3,-90,0,0,0,78,80,135,90,40,133.79,184,-55.00,-49.00,-995.00
2024-06-07 14:54:36.843695,-2,2,-84,0,0,0,78,80,135,90,40,133.85,184,-32.00,-39.00,-997.00
2024-06-07 14:54:36.843735,-2,2,-78,0,0,0,78,80,135,90,40,134.02,184,-37.00,-59.00,-975.00
2024-06-07 14:54:36.945750,-2,2,-72,0,0,0,78,81,134,90,40,134.10,184,-38.00,-13.00,-1001.00
2024-06-07 14:54:37.047440,-2,2,-66,0,0,0,78,81,135,90,40,133.87,185,-36.00,-24.00,-982.00
2024-06-07 14:54:37.151488,-2,0,-60,0,0,0,78,81,135,90,40,133.98,185,-39.00,-31.00,-985.00
2024-06-07 14:54:37.252940,-2,0,-54,0,0,0,78,81,133,90,40,133.89,185,-33.00,-23.00,-996.00
2024-06-07 14:54:37.358009,-2,1,-48,0,0,0,78,81,134,90,40,133.96,185,-53.00,-21.00,-986.00
2024-06-07 14:54:37.455290,-2,1,-42,0,0,0,78,81,134,90,40,133.96,185,-56.00,-21.00,-999.00
2024-06-07 14:54:37.658804,-2,0,-36,0,0,0,78,81,134,90,40,133.82,185,-45.00,-19.00,-1015.00
2024-06-07 14:54:37.659324,-2,0,-30,0,0,0,78,81,132,90,40,134.05,185,-45.00,-11.00,-1011.00
2024-06-07 14:54:37.763394,-3,0,-24,0,0,0,78,81,133,90,40,133.87,185,-50.00,3.00,-1001.00
2024-06-07 14:54:37.865806,-3,0,-18,0,0,0,78,81,132,90,40,133.85,185,-62.00,13.00,-1004.00
2024-06-07 14:54:37.969315,-3,0,-13,0,0,0,78,80,132,90,40,133.67,185,-53.00,9.00,-1026.00
2024-06-07 14:54:38.071255,-3,0,-9,0,0,0,78,80,132,90,40,133.61,186,-49.00,5.00,-1007.00
2024-06-07 14:54:38.170804,-3,0,-6,0,0,0,78,80,131,90,40,133.39,186,-39.00,10.00,-1022.00
2024-06-07 14:54:38.222156,-3,0,-3,0,0,0,78,80,131,90,40,133.73,186,-55.00,18.00,-1010.00
2024-06-07 14:54:38.322587,-2,0,-1,0,0,0,78,80,131,90,40,133.84,186,-62.00,18.00,-1001.00
2024-06-07 14:54:38.424477,-2,0,0,0,0,0,78,80,132,90,40,133.89,186,-46.00,13.00,-1004.00
2024-06-07 14:54:38.526977,-2,0,0,0,0,0,78,80,131,90,40,133.71,186,-53.00,10.00,-990.00
2024-06-07 14:54:38.628532,-2,0,1,0,0,0,78,80,131,90,40,134.25,186,-41.00,7.00,-988.00
2024-06-07 14:54:38.785371,-2,0,1,0,0,0,78,80,131,90,40,133.96,186,-69.00,20.00,-972.00
2024-06-07 14:54:38.837752,-2,0,2,0,0,0,78,80,131,90,40,134.09,186,-47.00,19.00,-1031.00
2024-06-07 14:54:38.934696,-2,0,2,0,0,0,79,81,130,90,40,133.86,186,-53.00,7.00,-1012.00
2024-06-07 14:54:39.094051,-2,0,2,0,0,0,79,81,131,90,40,133.64,187,-60.00,0.00,-992.00
2024-06-07 14:54:39.140852,-2,0,2,0,0,0,79,81,131,90,40,133.85,187,-58.00,3.00,-1008.00
2024-06-07 14:54:39.240541,-2,0,2,0,0,0,79,81,130,90,40,133.88,187,-61.00,-6.00,-999.00
2024-06-07 14:54:39.345387,-3,0,2,0,0,0,79,81,130,90,40,134.04,187,-72.00,5.00,-1013.00
2024-06-07 14:54:39.445733,-3,0,2,0,0,0,79,81,131,90,40,133.64,187,-51.00,8.00,-1003.00
2024-06-07 14:54:39.546669,-4,0,2,0,0,0,79,81,131,90,40,133.97,187,-47.00,-14.00,-997.00
2024-06-07 14:54:39.648857,-3,0,2,0,0,0,79,81,130,90,40,133.97,187,-65.00,11.00,-1010.00
2024-06-07 14:54:39.750820,-3,0,2,0,0,0,79,81,131,90,40,133.73,187,-53.00,7.00,-1008.00
2024-06-07 14:54:39.852993,-3,0,2,0,0,0,79,81,131,90,40,133.34,187,-51.00,11.00,-990.00
2024-06-07 14:54:40.014590,-3,0,2,0,0,0,78,81,130,90,40,133.90,187,-43.00,6.00,-1025.00
2024-06-07 14:54:40.056528,-2,0,2,0,0,0,78,81,130,90,40,133.66,188,-69.00,4.00,-978.00
2024-06-07 14:54:40.220768,-2,0,2,0,0,0,78,81,130,90,40,133.99,188,-58.00,2.00,-1015.00
2024-06-07 14:54:40.266056,-3,0,2,0,0,0,78,81,130,90,40,133.71,188,-59.00,8.00,-1002.00
2024-06-07 14:54:40.362736,-3,0,2,0,0,0,78,81,131,90,40,133.79,188,-38.00,0.00,-1010.00
2024-06-07 14:54:40.526094,-2,0,2,0,0,0,78,81,129,90,40,133.82,188,-33.00,-5.00,-1013.00
2024-06-07 14:54:40.566539,-2,0,2,0,0,0,78,81,129,90,40,133.75,188,-60.00,10.00,-1006.00
2024-06-07 14:54:40.730873,-2,0,2,0,0,0,78,81,129,90,40,133.91,188,-54.00,4.00,-998.00
2024-06-07 14:54:40.771101,-2,0,2,0,0,0,78,81,131,90,40,133.80,188,-58.00,4.00,-990.00
2024-06-07 14:54:40.872469,-2,0,2,0,0,0,78,81,130,90,40,133.73,188,-64.00,10.00,-997.00
2024-06-07 14:54:41.038960,-2,0,2,0,0,0,78,81,130,90,40,134.01,188,-120.00,52.00,-1010.00
2024-06-07 14:54:41.077229,-3,0,-2,0,0,0,78,81,131,90,40,133.50,189,-75.00,-7.00,-1012.00
2024-06-07 14:54:41.179198,-4,0,-8,0,0,0,78,81,132,90,40,133.73,189,-101.00,14.00,-983.00
2024-06-07 14:54:41.349254,-4,1,-13,0,0,0,78,81,132,90,40,133.67,189,-90.00,18.00,-990.00
2024-06-07 14:54:41.383190,-4,1,-19,0,0,0,78,81,131,90,40,133.73,189,-81.00,0.00,-1010.00
2024-06-07 14:54:41.552769,-4,0,-26,0,0,0,78,81,133,90,40,133.88,189,-75.00,-31.00,-1012.00
2024-06-07 14:54:41.587962,-4,0,-32,0,0,0,78,81,132,90,40,133.71,189,-97.00,-19.00,-986.00
2024-06-07 14:54:41.755189,-4,1,-38,0,0,0,78,81,134,90,40,133.54,189,-75.00,-13.00,-988.00
2024-06-07 14:54:41.755329,-3,3,-43,0,0,0,78,81,135,90,40,133.54,189,-74.00,-14.00,-984.00
2024-06-07 14:54:41.849306,-4,2,-49,0,0,0,78,81,134,90,40,133.76,189,-66.00,-31.00,-1000.00
2024-06-07 14:54:42.001776,-4,1,-55,0,0,0,79,81,133,90,40,133.99,189,-87.00,-16.00,-1001.00
2024-06-07 14:54:42.097174,-4,2,-60,0,0,0,79,81,135,90,40,133.70,190,-65.00,-30.00,-999.00
2024-06-07 14:54:42.269335,-4,3,-66,0,0,0,79,81,135,90,40,133.90,190,-66.00,-30.00,-983.00
2024-06-07 14:54:42.269775,-3,2,-72,0,0,0,79,81,133,90,40,134.01,190,-49.00,-57.00,-1005.00
2024-06-07 14:54:42.352232,-4,2,-78,0,0,0,79,81,134,90,40,134.06,190,-28.00,-62.00,-991.00
2024-06-07 14:54:42.472203,-3,3,-84,0,0,0,79,81,135,90,40,133.63,190,-18.00,-62.00,-1003.00
2024-06-07 14:54:42.556482,-2,4,-90,0,0,0,79,81,135,90,40,133.78,190,-44.00,-50.00,-1026.00
2024-06-07 14:54:42.679868,-1,4,-95,0,0,0,79,81,135,90,40,133.91,190,-26.00,-56.00,-1024.00
2024-06-07 14:54:42.765107,-1,3,-101,0,0,0,79,81,135,90,40,133.91,190,-15.00,-70.00,-999.00
2024-06-07 14:54:42.865046,-1,3,-107,0,0,0,79,81,135,90,40,134.03,190,-21.00,-71.00,-989.00
2024-06-07 14:54:42.964319,-1,3,-113,0,0,0,79,81,134,90,40,133.93,190,0.00,-82.00,-981.00
2024-06-07 14:54:43.088901,-1,3,-120,0,0,0,79,81,134,90,40,134.23,191,-10.00,-78.00,-994.00
2024-06-07 14:54:43.168648,0,4,-126,0,0,0,79,81,134,90,40,134.17,191,0.00,-75.00,-984.00
2024-06-07 14:54:43.293126,1,4,-132,0,0,0,79,81,133,90,40,134.13,191,3.00,-82.00,-1015.00
2024-06-07 14:54:43.372934,1,5,-138,0,0,0,79,81,134,90,40,133.88,191,20.00,-91.00,-1004.00
2024-06-07 14:54:43.495505,2,4,-143,0,0,0,79,81,134,90,40,133.95,191,43.00,-88.00,-989.00
2024-06-07 14:54:43.581012,3,4,-149,0,0,0,79,81,135,90,39,134.15,191,14.00,-92.00,-1018.00
2024-06-07 14:54:43.681522,1,5,-155,0,0,0,79,81,135,90,39,133.95,191,-1.00,-93.00,-1017.00
2024-06-07 14:54:43.780098,2,4,-161,0,0,0,79,81,134,90,39,134.06,191,54.00,-74.00,-1005.00
2024-06-07 14:54:43.905347,3,3,-167,0,0,0,79,81,136,90,39,134.08,191,71.00,-96.00,-1015.00
2024-06-07 14:54:43.984151,4,3,-173,0,0,0,78,81,136,90,39,134.18,191,104.00,-87.00,-999.00
2024-06-07 14:54:44.110058,6,4,179,0,0,0,78,81,136,90,39,134.34,192,102.00,-81.00,-977.00
2024-06-07 14:54:44.189294,7,4,173,0,0,0,78,81,137,90,39,133.92,192,103.00,-68.00,-985.00
2024-06-07 14:54:44.291501,7,3,167,0,0,0,78,81,137,90,39,133.90,192,117.00,-45.00,-966.00
2024-06-07 14:54:44.392150,7,1,161,0,0,0,78,81,135,90,39,134.00,192,134.00,-34.00,-989.00
2024-06-07 14:54:44.521951,8,0,155,0,0,0,78,81,138,90,39,134.10,192,147.00,-23.00,-1011.00
2024-06-07 14:54:44.596166,8,0,149,0,0,0,78,81,136,90,39,133.92,192,141.00,-20.00,-992.00
2024-06-07 14:54:44.698204,8,-1,143,0,0,0,78,81,138,90,39,134.24,192,140.00,17.00,-981.00
2024-06-07 14:54:44.826726,8,-2,138,0,0,0,78,81,139,90,39,133.82,192,146.00,25.00,-995.00
2024-06-07 14:54:44.902261,8,-3,132,0,0,0,78,81,137,90,39,134.01,192,127.00,37.00,-962.00
2024-06-07 14:54:45.004223,7,-4,120,0,0,0,79,81,138,90,39,133.89,193,110.00,66.00,-1001.00
2024-06-07 14:54:45.133952,6,-5,114,0,0,0,79,81,136,90,39,133.84,193,109.00,68.00,-988.00
2024-06-07 14:54:45.208223,6,-5,108,0,0,0,79,81,137,90,39,133.93,193,112.00,52.00,-984.00
2024-06-07 14:54:45.339244,5,-5,102,0,0,0,79,81,134,90,39,133.90,193,101.00,66.00,-1011.00
2024-06-07 14:54:45.418831,4,-4,96,0,0,0,79,81,135,90,39,133.93,193,104.00,86.00,-1007.00
2024-06-07 14:54:45.515407,5,-5,90,0,0,0,79,81,135,90,39,133.77,193,94.00,70.00,-1017.00
2024-06-07 14:54:45.645939,5,-5,84,1,0,0,79,81,133,90,38,133.90,193,63.00,72.00,-1004.00
2024-06-07 14:54:45.718915,4,-4,78,1,0,0,79,81,135,90,38,133.85,193,26.00,107.00,-991.00
2024-06-07 14:54:45.850677,3,-4,72,0,0,0,79,81,133,90,38,133.93,193,22.00,112.00,-997.00
2024-06-07 14:54:45.872121,1,-5,66,0,0,0,79,81,133,90,38,134.07,193,10.00,115.00,-995.00
2024-06-07 14:54:46.055443,0,-5,60,0,0,0,79,81,134,90,38,133.94,194,-9.00,109.00,-1001.00
2024-06-07 14:54:46.076200,0,-5,54,0,0,0,79,81,133,90,38,133.98,194,-12.00,103.00,-1003.00
2024-06-07 14:54:46.260460,0,-5,48,0,0,0,79,81,134,90,38,133.94,194,-8.00,101.00,-993.00
2024-06-07 14:54:46.280437,-1,-5,43,0,0,0,79,81,133,90,38,133.72,194,-20.00,94.00,-1014.00
2024-06-07 14:54:46.382053,-1,-4,37,0,0,0,79,81,134,90,38,133.91,194,-19.00,100.00,-992.00
2024-06-07 14:54:46.484011,-2,-4,32,0,0,0,79,81,133,90,38,134.30,194,10.00,88.00,-974.00
2024-06-07 14:54:46.586240,-1,-5,26,1,0,0,79,81,133,90,38,133.70,194,-30.00,63.00,-1025.00
2024-06-07 14:54:46.772301,0,-4,20,1,0,0,79,81,133,90,38,133.84,194,-63.00,79.00,-1010.00
2024-06-07 14:54:46.789922,-1,-2,15,0,0,0,79,81,133,90,38,133.71,194,-76.00,71.00,-971.00
2024-06-07 14:54:46.893565,-3,-2,11,0,0,0,79,81,134,90,38,133.44,194,-65.00,67.00,-1000.00
2024-06-07 14:54:46.993970,-4,-2,9,0,0,0,79,81,135,90,38,133.53,195,-52.00,64.00,-984.00
2024-06-07 14:54:47.181877,-3,-3,6,0,0,0,79,81,134,90,38,133.90,195,-77.00,59.00,-988.00
2024-06-07 14:54:47.198345,-3,-3,4,0,0,0,79,81,134,90,38,133.69,195,-82.00,40.00,-979.00
2024-06-07 14:54:47.300066,-3,-3,3,0,0,0,79,81,134,90,38,133.86,195,-81.00,36.00,-997.00
2024-06-07 14:54:47.402300,-4,-1,3,0,0,0,79,81,134,90,38,133.83,195,-68.00,37.00,-979.00
2024-06-07 14:54:47.597053,-4,-1,3,0,0,0,79,81,133,90,38,133.78,195,-77.00,52.00,-1004.00
2024-06-07 14:54:47.606288,-4,-1,3,0,0,0,79,81,133,90,38,133.74,195,-85.00,48.00,-993.00
2024-06-07 14:54:47.796485,-4,-1,3,0,0,0,79,81,134,90,38,133.79,195,-66.00,48.00,-982.00
2024-06-07 14:54:47.809988,-5,-2,3,0,0,0,79,81,134,90,38,133.65,195,-77.00,42.00,-1002.00
2024-06-07 14:54:47.913529,-4,-2,3,0,0,0,79,81,132,90,38,133.73,195,-70.00,35.00,-998.00
2024-06-07 14:54:48.103603,-4,-2,3,0,0,0,79,81,132,90,38,133.74,196,-80.00,25.00,-992.00
2024-06-07 14:54:48.115991,-4,-1,3,0,0,0,79,81,133,90,38,133.75,196,-51.00,54.00,-1001.00
2024-06-07 14:54:48.309218,-4,0,3,0,0,0,79,81,133,90,38,133.59,196,-64.00,73.00,-1022.00
2024-06-07 14:54:48.321143,-4,-2,3,0,0,0,79,81,134,90,38,133.73,196,-90.00,58.00,-1038.00
2024-06-07 14:54:48.513226,-4,-4,2,0,0,0,79,81,134,90,38,133.71,196,-100.00,29.00,-982.00
2024-06-07 14:54:48.524151,-4,-3,3,0,0,0,79,81,134,90,38,133.68,196,-92.00,58.00,-1033.00
2024-06-07 14:54:48.720627,-5,-2,3,0,0,0,79,81,134,90,38,133.95,196,-93.00,63.00,-982.00
2024-06-07 14:54:48.731971,-5,-2,3,0,0,0,79,81,133,90,38,133.47,196,-77.00,39.00,-977.00
2024-06-07 14:54:48.829886,-4,-2,3,0,0,0,79,81,135,90,38,134.00,196,-85.00,31.00,-995.00
2024-06-07 14:54:48.932019,-4,-2,3,0,0,0,79,81,134,90,38,133.68,196,-87.00,75.00,-989.00
2024-06-07 14:54:49.132908,-4,-3,3,0,0,0,78,81,134,90,38,133.73,197,-102.00,39.00,-1001.00
2024-06-07 14:54:49.136935,-5,-2,3,0,0,0,78,81,133,90,38,133.86,197,-68.00,41.00,-982.00
2024-06-07 14:54:49.238281,-4,-2,3,0,0,0,78,81,134,90,38,133.48,197,-62.00,60.00,-1001.00
2024-06-07 14:54:49.340072,-4,-2,3,0,0,0,78,81,135,90,38,133.70,197,-65.00,30.00,-1023.00
2024-06-07 14:54:49.442285,-3,-2,3,0,0,0,78,81,134,90,38,133.61,197,-66.00,28.00,-981.00
2024-06-07 14:54:49.543996,-4,-2,3,0,0,0,78,81,136,90,38,133.80,197,-64.00,44.00,-979.00
2024-06-07 14:54:49.595396,-4,-1,2,0,0,0,78,81,134,90,38,133.81,197,-57.00,39.00,-991.00
2024-06-07 14:54:49.696835,-3,-2,3,0,0,0,78,81,136,90,38,133.43,197,-68.00,41.00,-988.00
2024-06-07 14:54:49.847078,-3,-2,3,0,0,0,78,81,134,90,38,133.84,197,-82.00,59.00,-992.00
2024-06-07 14:54:49.900853,-3,-2,3,0,0,0,78,81,134,90,38,133.72,197,-70.00,52.00,-995.00
2024-06-07 14:54:50.056690,-3,-2,3,0,0,0,77,80,137,90,38,134.02,198,-64.00,57.00,-1015.00
2024-06-07 14:54:50.104714,-3,-2,3,0,0,0,77,80,136,90,38,134.02,198,-88.00,55.00,-999.00
2024-06-07 14:54:50.259098,-3,-2,3,0,0,0,77,80,135,90,38,133.85,198,-72.00,70.00,-996.00
2024-06-07 14:54:50.314208,-3,-2,3,0,0,0,77,80,134,90,38,134.07,198,-60.00,72.00,-1000.00
2024-06-07 14:54:50.411826,-3,-4,3,0,0,0,77,80,134,90,38,133.85,198,-68.00,57.00,-985.00
2024-06-07 14:54:50.513995,-3,-4,3,0,0,0,77,80,136,90,38,133.89,198,-68.00,60.00,-992.00
2024-06-07 14:54:50.616798,-3,-3,3,0,0,0,77,80,136,90,37,134.01,198,-64.00,70.00,-985.00
2024-06-07 14:54:50.718460,-3,-3,3,0,0,0,77,80,136,90,37,133.81,198,-45.00,70.00,-992.00
2024-06-07 14:54:50.819887,-3,-3,3,0,0,0,77,80,136,90,37,133.98,198,-38.00,64.00,-970.00
2024-06-07 14:54:50.923156,-2,-4,3,0,0,0,77,80,135,90,37,133.77,198,-40.00,64.00,-1025.00
2024-06-07 14:54:51.024655,-2,-4,3,0,0,0,78,81,136,90,37,133.81,199,-31.00,62.00,-1003.00
2024-06-07 14:54:51.125944,-2,-4,3,0,0,0,78,81,136,90,37,133.65,199,-42.00,44.00,-1010.00
2024-06-07 14:54:51.228143,-1,-4,3,0,0,0,78,81,136,90,37,134.00,199,-44.00,36.00,-1005.00
2024-06-07 14:54:51.380272,-1,-3,3,0,0,0,78,81,136,90,37,133.92,199,-50.00,60.00,-989.00
2024-06-07 14:54:51.432733,-1,-2,3,0,0,0,78,81,136,90,37,133.90,199,-68.00,51.00,-966.00
2024-06-07 14:54:51.585505,-1,-3,2,0,0,0,78,81,136,90,37,133.87,199,-82.00,18.00,-1012.00
2024-06-07 14:54:51.635940,-2,-3,2,0,0,0,78,81,137,90,37,134.03,199,-72.00,39.00,-995.00
2024-06-07 14:54:51.790917,-3,-2,3,0,0,0,78,81,138,90,37,133.95,199,-76.00,22.00,-980.00
2024-06-07 14:54:51.840836,-3,-1,3,0,0,0,78,81,136,100,37,134.02,199,-65.00,47.00,-1001.00
2024-06-07 14:54:51.984272,-3,0,3,0,0,0,78,81,137,100,37,133.70,199,-47.00,30.00,-1008.00
2024-06-07 14:54:52.043858,-3,-1,3,0,0,0,79,81,138,100,37,134.01,200,-61.00,37.00,-1002.00
2024-06-07 14:54:52.199588,-3,-1,3,0,0,0,79,81,136,100,37,133.81,200,-59.00,32.00,-982.00
2024-06-07 14:54:52.247881,-3,-1,3,0,0,0,79,81,138,100,37,134.15,200,-60.00,31.00,-988.00
2024-06-07 14:54:52.349747,-3,-1,3,0,0,0,79,81,138,100,37,133.77,200,-78.00,28.00,-977.00
2024-06-07 14:54:52.451806,-4,-1,3,0,0,0,79,81,137,100,37,133.86,200,-49.00,52.00,-981.00
2024-06-07 14:54:52.554749,-4,0,3,0,0,0,79,81,139,100,37,133.85,200,-26.00,64.00,-974.00
2024-06-07 14:54:52.655813,-4,-1,3,0,0,0,79,81,137,100,37,133.95,200,-42.00,65.00,-988.00
2024-06-07 14:54:52.757818,-3,-3,3,0,0,0,79,81,138,100,37,133.93,200,-64.00,50.00,-1014.00
2024-06-07 14:54:52.859933,-2,-3,3,0,0,0,79,81,138,100,37,133.93,200,-51.00,58.00,-1018.00
2024-06-07 14:54:52.968591,-2,-3,3,0,0,0,79,81,137,100,37,134.20,200,-70.00,70.00,-984.00
2024-06-07 14:54:53.068860,-3,-3,3,0,0,0,78,80,138,100,37,134.06,201,-53.00,52.00,-990.00
2024-06-07 14:54:53.165875,-3,-3,3,0,0,0,78,80,139,100,37,133.95,201,-31.00,57.00,-989.00
2024-06-07 14:54:53.270627,-3,-3,3,0,0,0,78,80,137,100,37,133.76,201,-31.00,66.00,-1003.00
2024-06-07 14:54:53.373127,-2,-3,3,0,0,0,78,80,137,90,37,133.82,201,-31.00,56.00,-995.00
2024-06-07 14:54:53.420648,-1,-4,3,0,0,0,78,80,137,90,37,133.45,201,-33.00,40.00,-1007.00
2024-06-07 14:54:53.530933,-1,-4,3,0,0,0,78,80,136,90,37,134.05,201,-47.00,38.00,-988.00
2024-06-07 14:54:53.624830,-1,-3,3,0,0,0,78,80,135,90,37,133.82,201,-47.00,38.00,-1006.00
2024-06-07 14:54:53.735903,-2,-3,3,0,0,0,78,80,136,90,37,133.93,201,-48.00,25.00,-1000.00
2024-06-07 14:54:53.828649,-1,-2,3,0,0,0,78,80,135,90,37,133.21,201,-42.00,29.00,-1011.00
2024-06-07 14:54:53.940359,-2,-2,2,0,0,0,78,80,135,90,37,133.88,201,-39.00,29.00,-997.00
2024-06-07 14:54:54.032560,-1,-2,2,0,0,0,78,81,134,90,37,133.58,202,-61.00,21.00,-1006.00
2024-06-07 14:54:54.134943,-2,-1,2,0,0,0,78,81,135,90,37,133.55,202,-57.00,19.00,-1008.00
2024-06-07 14:54:54.248131,-2,-1,2,0,0,0,78,81,135,90,37,133.94,202,-55.00,-3.00,-990.00
2024-06-07 14:54:54.340256,-2,-1,2,0,-1,0,78,81,135,90,37,133.75,202,-30.00,12.00,-1006.00
2024-06-07 14:54:54.440920,-2,0,3,0,0,0,78,81,135,90,37,134.26,202,-32.00,26.00,-1003.00
2024-06-07 14:54:54.555692,-2,0,3,0,0,0,78,81,137,90,37,133.92,202,-20.00,23.00,-996.00
2024-06-07 14:54:54.644539,-2,0,3,0,0,0,78,81,135,90,37,133.54,202,-22.00,40.00,-1002.00
2024-06-07 14:54:54.760320,-1,0,3,0,0,0,78,81,136,90,37,133.82,202,-16.00,39.00,-999.00
2024-06-07 14:54:54.848477,-1,-1,3,0,0,0,78,81,136,90,37,134.13,202,-22.00,44.00,-1002.00
2024-06-07 14:54:54.950561,0,-1,3,0,0,0,78,81,135,90,37,133.92,202,-19.00,50.00,-989.00
2024-06-07 14:54:55.052526,0,-1,3,0,0,0,78,80,135,90,37,133.79,203,-14.00,26.00,-981.00
2024-06-07 14:54:55.169152,0,-1,3,0,0,0,78,80,135,90,37,134.01,203,-18.00,29.00,-988.00
2024-06-07 14:54:55.257671,0,-1,3,0,0,0,78,80,136,90,37,133.91,203,-20.00,31.00,-1002.00
2024-06-07 14:54:55.359786,0,-1,3,0,0,0,78,80,136,90,37,133.84,203,-25.00,38.00,-1018.00
2024-06-07 14:54:55.476229,0,-1,3,0,0,0,78,80,135,90,37,134.17,203,-22.00,20.00,-989.00
2024-06-07 14:54:55.563637,0,-2,3,0,0,0,78,80,136,90,37,134.15,203,-18.00,33.00,-991.00
2024-06-07 14:54:55.681755,0,-1,3,0,0,0,78,80,135,90,37,133.76,203,-28.00,29.00,-1001.00
2024-06-07 14:54:55.768620,0,-1,3,0,0,0,78,80,135,90,37,134.20,203,-12.00,26.00,-994.00
2024-06-07 14:54:55.890600,0,-2,3,0,0,0,78,80,136,90,37,133.96,203,-4.00,25.00,-1018.00
2024-06-07 14:54:55.974682,0,-2,3,0,0,0,78,80,136,90,37,133.62,203,-29.00,37.00,-1008.00
2024-06-07 14:54:56.073769,-1,-1,3,0,0,0,78,80,135,90,37,133.69,204,-21.00,34.00,-996.00
2024-06-07 14:54:56.193071,-1,-2,3,0,0,0,78,80,137,90,37,133.97,204,-26.00,31.00,-988.00
2024-06-07 14:54:56.277650,-1,-2,3,0,0,0,78,80,137,90,37,134.06,204,-41.00,27.00,-1002.00
2024-06-07 14:54:56.397949,-1,-2,3,0,0,0,78,80,136,90,37,134.13,204,-44.00,21.00,-980.00
2024-06-07 14:54:56.481617,-1,-1,3,0,0,0,78,80,136,90,37,134.26,204,-30.00,31.00,-991.00
2024-06-07 14:54:56.602623,-1,-1,2,0,0,0,78,80,136,90,36,134.05,204,-38.00,33.00,-1004.00
2024-06-07 14:54:56.634406,-1,-2,2,0,0,0,78,80,136,90,36,134.16,204,-52.00,23.00,-1013.00
2024-06-07 14:54:56.807578,-2,-2,3,0,0,0,78,80,135,90,36,134.08,204,-40.00,18.00,-994.00
2024-06-07 14:54:56.838368,-2,-1,3,0,0,0,78,80,136,90,36,134.03,204,-33.00,41.00,-983.00
2024-06-07 14:54:56.940450,-2,-1,3,0,0,0,78,80,135,90,36,133.97,204,-47.00,24.00,-980.00
2024-06-07 14:54:57.115925,-2,-1,2,0,0,0,78,80,136,90,36,133.91,205,-56.00,13.00,-1020.00
2024-06-07 14:54:57.144338,-2,-2,2,0,0,0,78,80,135,90,36,134.29,205,-50.00,9.00,-982.00
2024-06-07 14:54:57.319724,-2,0,3,0,0,0,78,80,136,90,36,134.18,205,-55.00,50.00,-987.00
2024-06-07 14:54:57.348819,-3,0,3,0,0,0,78,80,135,90,36,134.04,205,-78.00,41.00,-993.00
2024-06-07 14:54:57.524343,-3,-1,3,0,0,0,78,80,135,90,36,133.91,205,-84.00,17.00,-1043.00
2024-06-07 14:54:57.552345,-4,-2,3,-1,0,0,78,80,136,90,36,134.26,205,-76.00,15.00,-989.00
2024-06-07 14:54:57.654227,-5,-1,3,0,0,0,78,80,136,90,36,133.93,205,-74.00,20.00,-994.00
2024-06-07 14:54:57.831522,-5,0,3,0,0,0,78,80,135,90,36,133.77,205,-67.00,6.00,-1020.00
2024-06-07 14:54:57.858263,-5,-1,2,0,0,0,78,80,135,90,36,133.58,205,-80.00,-14.00,-1009.00
2024-06-07 14:54:57.988681,-3,-1,3,0,0,0,78,80,135,90,36,133.76,205,-83.00,-12.00,-1009.00
2024-06-07 14:54:58.062324,-4,1,3,0,0,0,78,81,136,90,36,133.60,206,-73.00,-5.00,-985.00
2024-06-07 14:54:58.164380,-5,0,3,0,0,0,78,81,137,90,36,133.84,206,-70.00,-7.00,-979.00
2024-06-07 14:54:58.315555,-5,0,3,0,0,0,78,81,134,90,36,133.95,206,-77.00,-15.00,-999.00
2024-06-07 14:54:58.369473,-5,0,3,0,0,0,78,81,135,90,36,133.82,206,-75.00,13.00,-1002.00
2024-06-07 14:54:58.470308,-5,0,3,0,0,0,78,81,134,90,36,133.96,206,-64.00,11.00,-989.00
2024-06-07 14:54:58.657512,-4,0,3,0,0,0,78,81,135,90,36,133.81,206,-82.00,28.00,-995.00
2024-06-07 14:54:58.674221,-4,0,3,0,0,0,78,81,135,90,36,133.92,206,-63.00,-11.00,-1023.00
2024-06-07 14:54:58.776315,-4,0,3,0,0,0,78,81,136,90,36,133.67,206,-70.00,-24.00,-1005.00
2024-06-07 14:54:58.878367,-4,0,3,0,0,0,78,81,135,90,36,133.90,206,-83.00,-17.00,-983.00
2024-06-07 14:54:59.066668,-4,0,3,0,0,0,78,81,136,90,36,133.76,206,-82.00,-11.00,-980.00
2024-06-07 14:54:59.082293,-4,1,3,0,0,0,79,80,137,90,36,133.87,207,-94.00,-14.00,-961.00
2024-06-07 14:54:59.184814,-4,0,2,0,0,0,79,80,137,90,36,133.80,207,-87.00,-37.00,-970.00
2024-06-07 14:54:59.293209,-4,0,3,0,0,0,79,80,136,90,36,133.91,207,-96.00,-36.00,-985.00
2024-06-07 14:54:59.391523,-5,1,3,0,0,0,79,80,136,90,36,133.98,207,-108.00,-16.00,-1032.00
2024-06-07 14:54:59.490558,-5,2,3,0,0,0,79,80,137,90,36,133.85,207,-94.00,-23.00,-966.00
2024-06-07 14:54:59.675404,-5,1,3,0,0,0,79,80,137,90,36,133.92,207,-105.00,-18.00,-1030.00
2024-06-07 14:54:59.694176,-5,1,3,0,0,0,79,80,137,90,36,133.86,207,-95.00,-24.00,-1001.00
