TS,pitch,roll,yaw,vgx,vgy,vgz,templ,temph,tof,h,bat,baro,time,agx,agy,agz
2024-06-07 14:55:31.420027,1,0,0,0,0,0,81,83,10,0,35,132.59,212,30.00,-3.00,-997.00
2024-06-07 14:55:31.520875,1,0,0,0,0,0,81,83,10,0,35,132.88,212,31.00,-2.00,-997.00
2024-06-07 14:55:31.623728,1,0,0,0,0,0,81,83,10,0,35,133.17,212,32.00,-1.00,-1000.00
2024-06-07 14:55:31.723710,1,0,0,0,0,0,81,83,10,0,35,133.00,212,31.00,0.00,-999.00
2024-06-07 14:55:31.825382,1,0,0,0,0,0,81,83,10,0,35,132.80,212,31.00,0.00,-1000.00
2024-06-07 14:55:31.944790,1,0,0,0,0,0,81,83,10,0,35,132.99,212,28.00,-1.00,-998.00
2024-06-07 14:55:32.029569,1,0,0,0,0,0,81,83,10,0,35,132.65,212,31.00,0.00,-999.00
2024-06-07 14:55:32.135347,1,0,0,0,0,0,81,83,10,0,35,133.04,212,30.00,-2.00,-998.00
2024-06-07 14:55:32.233511,1,0,0,0,0,0,82,83,10,0,35,132.94,212,30.00,-2.00,-1000.00
2024-06-07 14:55:32.335918,1,0,0,0,0,0,82,83,10,0,35,132.56,212,29.00,-1.00,-1002.00
2024-06-07 14:55:32.437411,1,0,0,0,0,0,82,83,10,0,35,133.05,212,29.00,-1.00,-998.00
2024-06-07 14:55:32.544583,1,0,0,0,0,0,82,83,10,0,35,133.01,212,30.00,-1.00,-999.00
2024-06-07 14:55:32.641398,1,0,0,0,0,0,82,83,10,0,35,132.69,212,31.00,-3.00,-1003.00
2024-06-07 14:55:32.743279,1,0,0,0,0,0,82,83,10,0,35,133.12,212,31.00,-1.00,-996.00
2024-06-07 14:55:32.845504,1,0,0,0,0,0,82,83,10,0,35,132.65,212,29.00,0.00,-999.00
2024-06-07 14:55:32.947406,1,0,0,0,0,0,82,83,10,0,35,132.95,212,30.00,-2.00,-1000.00
2024-06-07 14:55:33.049389,1,0,0,0,0,0,82,83,10,0,35,132.90,212,30.00,-1.00,-1001.00
2024-06-07 14:55:33.159159,1,0,0,0,0,0,82,83,10,0,35,132.73,212,30.00,0.00,-999.00
2024-06-07 14:55:33.253550,1,0,0,0,0,0,82,84,10,0,35,133.02,212,30.00,-2.00,-996.00
2024-06-07 14:55:33.356489,1,0,0,0,0,0,82,84,10,0,35,132.67,212,31.00,-3.00,-999.00
2024-06-07 14:55:33.466229,1,0,0,0,0,0,82,84,10,0,35,132.90,212,31.00,-1.00,-999.00
2024-06-07 14:55:33.561835,1,0,0,0,0,0,82,84,10,0,35,132.90,212,31.00,0.00,-997.00
2024-06-07 14:55:33.661591,1,0,0,0,0,0,82,84,10,0,35,132.87,212,29.00,-1.00,-997.00
2024-06-07 14:55:33.763650,1,0,0,0,0,0,82,84,10,0,35,133.02,212,30.00,0.00,-997.00
2024-06-07 14:55:33.881603,1,0,0,0,0,0,82,84,10,0,35,133.03,212,32.00,0.00,-998.00
2024-06-07 14:55:33.967554,1,0,0,0,0,0,82,84,10,0,35,132.84,212,31.00,-1.00,-1002.00
2024-06-07 14:55:34.069479,1,0,0,0,0,0,82,84,10,0,35,132.97,212,32.00,0.00,-999.00
2024-06-07 14:55:34.182946,1,0,0,0,0,0,82,84,10,0,35,132.97,212,39.00,12.00,-1007.00
2024-06-07 14:55:34.273396,1,0,0,0,0,0,82,84,10,0,35,132.97,212,25.00,4.00,-1002.00
2024-06-07 14:55:34.375329,1,0,0,0,0,0,82,84,10,0,35,132.97,212,35.00,-2.00,-990.00
2024-06-07 14:55:34.490682,1,0,0,0,0,0,82,84,10,0,35,132.97,213,6.00,-17.00,-992.00
2024-06-07 14:55:34.579255,1,0,0,0,0,0,82,84,10,0,35,132.97,213,0.00,7.00,-1016.00
2024-06-07 14:55:34.630622,1,0,0,0,0,0,82,84,10,0,35,132.97,213,-33.00,-10.00,-1118.00
2024-06-07 14:55:34.797430,0,0,0,0,0,0,82,84,10,0,35,132.97,213,-6.00,9.00,-1168.00
2024-06-07 14:55:34.834065,0,0,0,0,0,-2,82,84,10,0,35,132.97,213,-20.00,22.00,-1298.00
2024-06-07 14:55:34.936082,-3,-1,0,-1,0,-5,82,84,10,0,35,132.97,213,-39.00,-5.00,-1151.00
2024-06-07 14:55:35.038073,-3,-1,0,0,0,-7,82,84,18,0,35,133.16,213,-51.00,-39.00,-1082.00
2024-06-07 14:55:35.211236,-2,0,0,0,0,-7,82,84,26,10,35,133.23,213,-84.00,-5.00,-1059.00
2024-06-07 14:55:35.241986,-2,1,0,-1,0,-8,81,84,38,20,35,133.19,213,-86.00,-21.00,-982.00
2024-06-07 14:55:35.411983,-3,0,0,-1,0,-8,81,84,47,30,35,133.46,213,-95.00,-46.00,-939.00
2024-06-07 14:55:35.446016,-4,0,0,-1,0,-7,81,84,55,30,35,133.85,214,-73.00,-54.00,-891.00
2024-06-07 14:55:35.616938,-6,2,0,-1,-1,-6,81,84,63,40,35,133.70,214,-68.00,-39.00,-878.00
2024-06-07 14:55:35.650653,-7,4,-1,-1,0,-5,81,84,68,40,35,133.51,214,-54.00,-25.00,-864.00
2024-06-07 14:55:35.822095,-6,2,-1,-1,0,-3,81,84,72,50,35,133.48,214,-49.00,-17.00,-900.00
2024-06-07 14:55:35.853978,-5,2,-1,0,0,-2,81,84,76,50,35,133.89,214,-90.00,-39.00,-920.00
2024-06-07 14:55:36.026178,-4,1,-1,0,0,-2,81,84,79,50,35,133.39,214,-101.00,-1.00,-945.00
2024-06-07 14:55:36.057982,-5,1,0,0,0,-1,81,84,81,60,35,133.78,214,-77.00,-8.00,-938.00
2024-06-07 14:55:36.161871,-6,2,0,0,0,-1,81,84,83,60,35,133.63,214,-80.00,21.00,-925.00
2024-06-07 14:55:36.262005,-6,1,0,0,0,0,82,84,85,60,35,133.60,214,-85.00,21.00,-930.00
2024-06-07 14:55:36.435937,-6,1,0,0,0,0,82,84,85,60,35,133.81,214,-86.00,16.00,-961.00
2024-06-07 14:55:36.467130,-5,-1,0,0,1,0,82,84,85,60,35,133.62,215,-110.00,-4.00,-998.00
2024-06-07 14:55:36.640792,-5,-1,0,0,0,0,82,84,85,60,35,133.44,215,-85.00,2.00,-983.00
2024-06-07 14:55:36.670062,-5,0,0,0,0,0,82,84,85,60,35,133.54,215,-89.00,-7.00,-1008.00
2024-06-07 14:55:36.845463,-6,0,0,0,0,0,82,84,85,60,35,133.74,215,-82.00,1.00,-999.00
2024-06-07 14:55:36.873956,-5,0,0,0,0,0,82,84,85,60,35,133.73,215,-51.00,0.00,-987.00
2024-06-07 14:55:37.050671,-5,0,-1,0,0,0,82,84,85,60,35,133.71,215,-71.00,14.00,-1002.00
2024-06-07 14:55:37.077891,-4,0,0,0,0,0,82,84,85,60,35,133.58,215,-67.00,9.00,-1002.00
2024-06-07 14:55:37.254998,-4,-1,0,0,0,0,82,84,86,60,35,133.60,215,-69.00,14.00,-993.00
2024-06-07 14:55:37.282514,-3,-1,0,0,0,0,82,84,86,60,35,133.66,215,-71.00,4.00,-954.00
2024-06-07 14:55:37.460007,-3,-1,0,0,0,0,82,84,86,60,35,133.34,215,-87.00,-19.00,-1000.00
2024-06-07 14:55:37.486109,-3,-1,0,0,0,0,82,84,85,60,35,133.71,216,-93.00,12.00,-1011.00
2024-06-07 14:55:37.664572,-4,0,0,0,0,0,82,84,85,60,35,133.19,216,-107.00,-2.00,-982.00
2024-06-07 14:55:37.689728,-4,0,0,0,0,0,82,84,85,60,35,133.52,216,-106.00,-6.00,-1040.00
2024-06-07 14:55:37.869667,-4,0,0,0,0,0,82,84,85,60,35,133.42,216,-93.00,-24.00,-1005.00
2024-06-07 14:55:37.893891,-5,0,0,0,0,0,82,84,86,60,35,133.41,216,-125.00,20.00,-986.00
2024-06-07 14:55:37.995914,-5,0,0,0,0,0,82,84,85,60,35,133.21,216,-102.00,-2.00,-954.00
2024-06-07 14:55:38.047054,-5,0,0,0,0,0,82,84,86,60,35,133.73,216,-120.00,-22.00,-991.00
2024-06-07 14:55:38.176579,-6,1,0,0,0,0,82,84,85,60,35,133.46,216,-101.00,9.00,-981.00
2024-06-07 14:55:38.301863,-6,1,0,0,0,0,82,84,85,60,35,133.15,216,-123.00,21.00,-969.00
2024-06-07 14:55:38.353443,-6,0,0,0,0,0,82,84,84,60,35,133.55,216,-109.00,3.00,-993.00
2024-06-07 14:55:38.455051,-5,-1,0,0,0,0,82,84,84,60,35,133.40,217,-99.00,2.00,-1015.00
2024-06-07 14:55:38.557271,-6,-1,0,0,0,0,82,84,83,60,35,133.36,217,-95.00,-4.00,-1010.00
2024-06-07 14:55:38.659183,-6,0,0,0,0,0,82,84,83,60,35,133.38,217,-89.00,22.00,-991.00
2024-06-07 14:55:38.790967,-6,0,0,0,0,0,82,84,83,60,35,133.31,217,-67.00,26.00,-1012.00
2024-06-07 14:55:38.863251,-4,0,0,0,0,0,82,84,83,60,35,133.63,217,-54.00,23.00,-998.00
2024-06-07 14:55:38.965048,-4,-1,0,0,0,0,82,84,83,60,35,133.63,217,-82.00,38.00,-1009.00
2024-06-07 14:55:39.098168,-4,-2,0,0,0,0,82,84,83,60,35,133.51,217,-90.00,20.00,-985.00
2024-06-07 14:55:39.169132,-4,-2,0,0,0,0,82,84,83,60,35,133.29,217,-99.00,-16.00,-982.00
2024-06-07 14:55:39.303432,-4,-2,0,0,0,0,81,83,81,60,35,133.33,217,-92.00,1.00,-972.00
2024-06-07 14:55:39.374459,-4,0,0,0,0,0,81,83,81,60,35,133.60,218,-81.00,10.00,-1008.00
2024-06-07 14:55:39.475232,-4,0,0,0,0,0,81,83,80,60,35,133.55,218,-65.00,28.00,-1000.00
2024-06-07 14:55:39.581105,-3,-2,0,0,0,0,81,83,80,60,35,133.36,218,-66.00,17.00,-1024.00
2024-06-07 14:55:39.678952,-2,-2,0,0,0,0,81,83,79,60,35,133.32,218,-64.00,-13.00,-1007.00
2024-06-07 14:55:39.823686,-2,-1,0,0,0,0,81,83,79,60,35,133.52,218,-85.00,6.00,-996.00
2024-06-07 14:55:39.883011,-2,0,0,0,0,0,81,83,79,60,35,133.55,218,-85.00,23.00,-993.00
2024-06-07 14:55:40.019947,-3,0,0,0,0,0,81,83,79,60,35,133.69,218,-62.00,10.00,-1005.00
2024-06-07 14:55:40.087023,-3,0,0,0,0,0,81,83,79,60,35,133.43,218,-69.00,0.00,-1008.00
2024-06-07 14:55:40.224693,-3,0,-1,0,0,0,81,83,79,60,35,133.44,218,-62.00,22.00,-1009.00
2024-06-07 14:55:40.290928,-3,0,-1,0,0,0,81,83,79,60,35,133.89,218,-75.00,6.00,-999.00
2024-06-07 14:55:40.434633,-3,0,-1,0,0,0,81,83,79,60,35,133.59,219,-62.00,0.00,-1004.00
2024-06-07 14:55:40.494962,-3,0,-1,0,0,0,81,83,79,60,35,133.47,219,-72.00,3.00,-1018.00
2024-06-07 14:55:40.634248,-3,0,-1,0,0,0,81,83,79,60,35,133.66,219,-74.00,5.00,-989.00
2024-06-07 14:55:40.699861,-3,0,0,0,0,0,81,83,79,60,35,133.46,219,-70.00,-8.00,-1003.00
2024-06-07 14:55:40.801142,-3,0,0,0,0,0,81,83,79,60,35,133.28,219,-74.00,-3.00,-995.00
2024-06-07 14:55:40.941906,-3,0,0,0,0,0,81,83,78,60,35,133.72,219,-79.00,-1.00,-999.00
2024-06-07 14:55:41.005833,-3,0,0,0,0,0,81,83,78,60,35,133.35,219,-73.00,-3.00,-1008.00
2024-06-07 14:55:41.147588,-4,0,0,0,0,0,81,83,78,60,35,133.26,219,-70.00,19.00,-1024.00
2024-06-07 14:55:41.209827,-4,0,0,0,0,0,81,83,78,60,35,133.42,219,-52.00,17.00,-998.00
2024-06-07 14:55:41.351166,-3,0,0,0,0,0,82,84,78,60,35,133.41,219,-50.00,24.00,-1008.00
2024-06-07 14:55:41.417286,-3,-1,0,0,0,0,82,84,77,60,35,133.54,220,-55.00,43.00,-1013.00
2024-06-07 14:55:41.515743,-2,-2,0,0,0,0,82,84,77,60,35,133.67,220,-48.00,30.00,-1009.00
2024-06-07 14:55:41.617798,-2,-2,0,0,0,0,82,84,78,60,35,133.65,220,-82.00,34.00,-1000.00
2024-06-07 14:55:41.760841,-3,-1,0,0,0,0,82,84,78,60,35,133.62,220,-94.00,53.00,-989.00
2024-06-07 14:55:41.822037,-3,-1,0,0,0,0,82,84,78,60,35,133.79,220,-67.00,48.00,-994.00
2024-06-07 14:55:41.965487,-4,-2,0,0,0,0,82,84,78,60,35,133.82,220,-67.00,43.00,-992.00
2024-06-07 14:55:41.975369,-3,-3,0,0,0,0,82,84,79,60,35,133.77,220,-84.00,27.00,-990.00
2024-06-07 14:55:42.077317,-3,-3,0,0,0,0,82,84,79,60,35,133.42,220,-89.00,17.00,-1013.00
2024-06-07 14:55:42.275661,-3,-2,0,0,0,0,82,84,79,60,35,133.28,220,-78.00,16.00,-998.00
2024-06-07 14:55:42.335728,-4,-1,0,0,0,0,82,83,79,60,35,133.40,220,-79.00,20.00,-1016.00
2024-06-07 14:55:42.435769,-4,-1,0,0,0,0,82,83,80,60,35,133.42,221,-59.00,5.00,-984.00
2024-06-07 14:55:42.484944,-4,-1,0,0,0,0,82,83,81,60,35,133.38,221,-87.00,6.00,-962.00
2024-06-07 14:55:42.683302,-4,-1,0,0,0,0,82,83,80,60,35,133.61,221,-64.00,7.00,-994.00
2024-06-07 14:55:42.694185,-3,0,0,0,0,0,82,83,81,60,35,133.34,221,-49.00,17.00,-1005.00
2024-06-07 14:55:42.790821,-3,0,0,0,0,0,82,83,81,60,35,133.31,221,-69.00,17.00,-994.00
2024-06-07 14:55:42.894477,-3,-1,0,0,0,0,82,83,81,60,35,133.71,221,-82.00,4.00,-1064.00
2024-06-07 14:55:42.994909,-3,0,0,0,0,-1,82,83,83,60,35,133.41,221,-67.00,16.00,-1097.00
2024-06-07 14:55:43.096816,-3,0,0,0,0,-2,82,83,85,60,35,133.62,221,-71.00,20.00,-1100.00
2024-06-07 14:55:43.296621,-3,0,0,0,0,-3,82,83,88,70,35,133.43,221,-69.00,7.00,-1084.00
2024-06-07 14:55:43.300925,-3,0,0,0,0,-3,82,83,92,70,35,133.71,221,-82.00,20.00,-1054.00
2024-06-07 14:55:43.405721,-3,0,0,0,0,-4,82,83,96,70,35,133.88,222,-84.00,13.00,-1066.00
2024-06-07 14:55:43.504835,-3,0,0,0,0,-4,82,83,101,80,35,133.58,222,-88.00,24.00,-1040.00
2024-06-07 14:55:43.606889,-3,0,0,0,0,-5,82,83,105,80,35,133.71,222,-64.00,16.00,-1012.00
2024-06-07 14:55:43.709023,-3,0,0,0,0,-5,82,83,111,90,35,133.96,222,-56.00,18.00,-996.00
2024-06-07 14:55:43.810794,-3,0,0,0,0,-5,82,83,117,90,35,134.10,222,-58.00,18.00,-1011.00
2024-06-07 14:55:43.912776,-2,0,0,0,0,-5,82,83,122,100,35,134.26,222,-50.00,59.00,-965.00
2024-06-07 14:55:44.018811,-2,-2,0,0,0,-5,82,83,127,110,35,133.64,222,-109.00,41.00,-1001.00
2024-06-07 14:55:44.116726,-3,-3,0,0,0,-5,82,83,133,110,35,134.12,222,-133.00,7.00,-976.00
2024-06-07 14:55:44.219635,-5,-2,0,-1,0,-4,82,83,141,120,35,134.22,222,-145.00,24.00,-989.00
2024-06-07 14:55:44.322717,-7,0,-1,-1,0,-4,81,83,145,120,35,134.31,222,-118.00,41.00,-985.00
2024-06-07 14:55:44.422893,-6,-1,0,-1,0,-4,81,83,148,130,35,134.51,223,-125.00,43.00,-995.00
2024-06-07 14:55:44.524994,-7,-1,0,-1,0,-4,81,83,155,130,35,134.37,223,-115.00,42.00,-936.00
2024-06-07 14:55:44.627930,-7,-2,0,0,0,-4,81,83,160,130,35,134.10,223,-110.00,55.00,-959.00
2024-06-07 14:55:44.730411,-7,-3,0,0,0,-3,81,83,164,140,35,134.47,223,-122.00,46.00,-962.00
2024-06-07 14:55:44.830922,-6,-2,0,0,0,-3,81,83,170,140,35,134.51,223,-110.00,50.00,-940.00
2024-06-07 14:55:44.936731,-6,-3,0,-1,0,-3,81,83,172,150,35,134.62,223,-140.00,88.00,-964.00
2024-06-07 14:55:45.034765,-8,-3,0,-1,0,-2,81,83,174,150,35,134.46,223,-86.00,75.00,-915.00
2024-06-07 14:55:45.140560,-8,-4,0,0,0,-2,81,83,179,150,35,134.24,223,-68.00,71.00,-951.00
2024-06-07 14:55:45.238727,-7,-4,0,0,0,-1,81,83,180,150,35,134.50,223,-68.00,56.00,-973.00
2024-06-07 14:55:45.342863,-5,-5,0,0,0,-1,80,83,180,160,35,134.55,223,-83.00,57.00,-963.00
2024-06-07 14:55:45.443038,-3,-4,0,0,0,-1,80,83,182,160,35,134.77,224,-103.00,47.00,-966.00
2024-06-07 14:55:45.553411,-3,-3,0,0,0,0,80,83,181,160,35,134.66,224,-78.00,47.00,-965.00
2024-06-07 14:55:45.646850,-4,-3,0,0,0,0,80,83,185,160,35,134.30,224,-68.00,51.00,-970.00
2024-06-07 14:55:45.698970,-4,-2,0,0,0,0,80,83,184,160,35,134.56,224,-54.00,65.00,-974.00
2024-06-07 14:55:45.856527,-3,-3,0,0,0,0,80,83,184,160,35,134.55,224,-56.00,59.00,-985.00
2024-06-07 14:55:45.952871,-2,-3,0,0,0,0,80,83,182,160,35,134.25,224,-73.00,59.00,-984.00
2024-06-07 14:55:46.061463,-2,-4,0,0,0,0,80,83,184,160,35,134.39,224,-67.00,34.00,-969.00
2024-06-07 14:55:46.156941,-2,-3,0,0,0,0,80,83,183,160,35,134.84,224,-104.00,71.00,-1007.00
2024-06-07 14:55:46.268245,-3,-2,0,0,0,0,80,83,183,160,35,134.64,224,-75.00,65.00,-977.00
2024-06-07 14:55:46.309438,-4,-2,0,0,0,0,81,83,183,160,35,134.39,224,-93.00,60.00,-996.00
2024-06-07 14:55:46.416582,-2,-3,0,0,0,0,81,83,181,160,35,134.41,225,-104.00,50.00,-1020.00
2024-06-07 14:55:46.513462,-3,-3,0,0,0,0,81,83,180,160,35,134.23,225,-94.00,34.00,-986.00
2024-06-07 14:55:46.676115,-4,-2,0,0,0,0,81,83,183,160,35,134.57,225,-91.00,31.00,-1003.00
2024-06-07 14:55:46.717463,-5,-2,0,0,0,0,81,83,184,160,35,134.79,225,-106.00,48.00,-986.00
2024-06-07 14:55:46.880950,-4,-3,0,0,0,0,81,83,181,160,35,134.37,225,-87.00,47.00,-1020.00
2024-06-07 14:55:46.921409,-5,-3,0,0,0,0,81,83,181,160,35,134.44,225,-92.00,51.00,-1006.00
2024-06-07 14:55:47.024007,-5,-2,0,0,0,0,81,83,184,160,35,134.26,225,-77.00,61.00,-984.00
2024-06-07 14:55:47.188269,-5,-1,0,0,0,0,81,83,182,160,35,134.27,225,-75.00,52.00,-985.00
2024-06-07 14:55:47.227390,-4,-3,0,0,0,0,81,83,183,160,35,134.34,225,-78.00,26.00,-1021.00
2024-06-07 14:55:47.329805,-4,-3,0,0,0,0,80,83,184,160,35,134.41,225,-92.00,42.00,-994.00
2024-06-07 14:55:47.432049,-4,-2,0,0,0,0,80,83,185,160,35,134.20,226,-81.00,14.00,-950.00
2024-06-07 14:55:47.598579,-3,-2,0,0,0,0,80,83,186,160,35,134.23,226,-81.00,4.00,-966.00
2024-06-07 14:55:47.635696,-4,0,0,0,-1,0,80,83,183,160,35,134.27,226,-88.00,19.00,-937.00
2024-06-07 14:55:47.802082,-4,0,0,0,0,0,80,83,183,160,35,134.05,226,-87.00,16.00,-946.00
2024-06-07 14:55:47.839253,-4,0,0,0,0,1,80,83,180,160,35,134.24,226,-87.00,7.00,-945.00
2024-06-07 14:55:48.008911,-4,0,0,0,0,1,80,83,179,160,35,134.27,226,-91.00,10.00,-945.00
2024-06-07 14:55:48.044908,-4,0,0,0,0,2,80,83,176,160,35,134.09,226,-90.00,19.00,-979.00
2024-06-07 14:55:48.145504,-4,0,0,0,0,2,80,83,174,150,35,134.32,226,-96.00,62.00,-946.00
2024-06-07 14:55:48.247322,-5,0,0,0,0,2,80,83,173,150,35,134.28,226,-96.00,37.00,-982.00
2024-06-07 14:55:48.349284,-4,-1,0,0,0,3,80,83,169,150,35,134.08,226,-103.00,24.00,-983.00
2024-06-07 14:55:48.451252,-4,-1,0,0,0,3,80,83,163,150,35,134.12,227,-84.00,5.00,-1006.00
2024-06-07 14:55:48.621308,-4,0,0,0,0,3,80,83,163,140,35,134.11,227,-88.00,19.00,-1002.00
2024-06-07 14:55:48.655247,-4,0,0,0,0,2,80,83,158,140,35,134.04,227,-75.00,9.00,-1014.00
2024-06-07 14:55:48.757775,-4,0,0,0,0,2,80,83,157,140,35,133.54,227,-95.00,0.00,-996.00
2024-06-07 14:55:48.928506,-4,0,0,0,0,2,80,83,152,130,35,133.76,227,-92.00,2.00,-1039.00
2024-06-07 14:55:48.961308,-3,0,0,0,0,2,80,83,151,130,35,133.72,227,-109.00,28.00,-997.00
2024-06-07 14:55:49.133298,-4,0,0,0,0,2,80,83,148,130,35,134.12,227,-94.00,11.00,-984.00
2024-06-07 14:55:49.165213,-4,0,0,0,0,2,80,83,148,130,35,133.81,227,-96.00,11.00,-1025.00
2024-06-07 14:55:49.338074,-5,0,0,0,0,1,80,83,146,130,35,133.61,227,-87.00,5.00,-1004.00
2024-06-07 14:55:49.369216,-4,-1,0,0,0,1,80,82,144,120,35,134.22,227,-100.00,0.00,-995.00
2024-06-07 14:55:49.471227,-4,0,0,0,0,1,80,82,144,120,35,134.12,228,-89.00,8.00,-1004.00
2024-06-07 14:55:49.645272,-4,0,0,0,0,1,80,82,139,120,35,133.88,228,-84.00,10.00,-1012.00
2024-06-07 14:55:49.675206,-4,0,0,0,0,1,80,82,139,120,35,133.89,228,-83.00,4.00,-1023.00
2024-06-07 14:55:49.850049,-4,0,0,0,0,1,80,82,138,120,35,133.76,228,-88.00,31.00,-995.00
2024-06-07 14:55:49.879225,-4,0,0,0,0,1,80,82,136,120,35,133.83,228,-95.00,39.00,-1012.00
2024-06-07 14:55:49.930950,-4,-2,0,0,0,1,80,82,136,120,35,133.62,228,-85.00,34.00,-1042.00
2024-06-07 14:55:50.060638,-4,-2,0,0,0,0,80,82,135,120,35,133.95,228,-73.00,26.00,-1021.00
2024-06-07 14:55:50.137444,-4,-2,0,0,0,0,80,82,135,110,35,133.55,228,-99.00,15.00,-1005.00
2024-06-07 14:55:50.237862,-4,-1,0,0,0,0,80,82,133,110,35,133.90,228,-79.00,30.00,-988.00
2024-06-07 14:55:50.338915,-4,0,0,0,0,0,79,82,134,110,35,133.81,228,-77.00,25.00,-995.00
2024-06-07 14:55:50.440565,-4,-1,0,0,0,0,79,82,134,110,35,133.73,229,-97.00,30.00,-1018.00
2024-06-07 14:55:50.566973,-4,-2,0,0,0,0,79,82,135,110,35,133.88,229,-76.00,22.00,-1020.00
2024-06-07 14:55:50.644326,-4,-2,0,0,0,0,79,82,134,110,35,133.75,229,-108.00,20.00,-984.00
2024-06-07 14:55:50.771783,-4,-2,0,0,0,0,79,82,135,110,35,133.94,229,-91.00,7.00,-964.00
2024-06-07 14:55:50.850419,-5,-1,0,0,0,0,79,82,135,110,35,134.00,229,-87.00,13.00,-999.00
2024-06-07 14:55:50.951501,-4,-1,0,0,0,0,79,82,135,120,35,133.81,229,-89.00,4.00,-969.00
2024-06-07 14:55:51.079946,-4,0,0,0,0,0,79,82,135,120,35,133.77,229,-96.00,-21.00,-985.00
2024-06-07 14:55:51.154340,-4,-1,0,0,0,0,79,82,136,120,35,134.02,229,-70.00,-17.00,-992.00
2024-06-07 14:55:51.256229,-4,0,0,0,0,0,79,82,135,110,35,133.83,229,-48.00,-3.00,-1024.00
2024-06-07 14:55:51.388014,-3,0,0,0,0,0,81,82,135,110,35,134.13,229,-64.00,-2.00,-980.00
2024-06-07 14:55:51.460897,-2,0,0,0,0,0,81,82,134,110,35,134.02,230,-74.00,0.00,-993.00
2024-06-07 14:55:51.590969,-2,0,0,0,0,0,81,82,135,110,35,134.39,230,-77.00,13.00,-1016.00
2024-06-07 14:55:51.664340,-3,0,0,0,0,0,81,82,134,110,35,133.92,230,-66.00,4.00,-1023.00
2024-06-07 14:55:51.798933,-3,0,0,0,0,0,81,82,135,110,35,133.87,230,-69.00,-2.00,-1010.00
2024-06-07 14:55:51.871103,-2,0,0,0,0,0,81,82,136,110,35,133.78,230,-68.00,5.00,-1008.00
2024-06-07 14:55:51.970478,-2,0,0,0,0,0,81,82,135,110,35,133.63,230,-52.00,-1.00,-996.00
2024-06-07 14:55:52.103402,-3,0,0,0,0,0,81,82,138,120,35,134.02,230,-42.00,4.00,-989.00
2024-06-07 14:55:52.177436,-8,0,0,0,0,0,81,82,138,120,35,133.79,230,-80.00,22.00,-1008.00
2024-06-07 14:55:52.276021,-8,0,0,2,0,0,81,82,136,120,35,133.69,230,-98.00,6.00,-991.00
2024-06-07 14:55:52.410489,-8,0,0,2,0,0,80,82,139,120,35,133.68,230,-95.00,8.00,-995.00
2024-06-07 14:55:52.482334,-8,0,0,3,0,0,80,82,139,120,35,134.01,231,-93.00,19.00,-1012.00
2024-06-07 14:55:52.582709,-8,0,0,3,0,0,80,82,139,120,35,134.14,231,-86.00,10.00,-985.00
2024-06-07 14:55:52.717868,-8,0,0,4,0,0,80,82,139,120,35,133.74,231,-107.00,-20.00,-983.00
2024-06-07 14:55:52.785991,-8,0,0,4,0,0,80,82,137,120,35,133.86,231,-99.00,-10.00,-972.00
2024-06-07 14:55:52.922033,-8,0,0,5,0,0,80,82,137,120,35,133.75,231,-84.00,-6.00,-999.00
2024-06-07 14:55:52.991036,-8,0,0,5,0,0,80,82,137,120,35,133.85,231,-78.00,-11.00,-988.00
2024-06-07 14:55:53.126837,-9,1,0,6,0,0,80,82,137,120,35,133.71,231,-85.00,-15.00,-973.00
2024-06-07 14:55:53.195246,-5,0,0,7,0,0,80,82,134,120,35,133.57,231,-87.00,-20.00,-979.00
2024-06-07 14:55:53.331685,-1,0,0,7,0,0,80,82,134,120,35,133.72,231,-93.00,2.00,-1003.00
2024-06-07 14:55:53.402731,1,0,0,6,0,0,80,82,134,120,35,133.96,231,-98.00,-10.00,-966.00
2024-06-07 14:55:53.503770,0,0,0,5,0,0,80,82,134,120,35,133.84,232,-94.00,-2.00,-1011.00
2024-06-07 14:55:53.602994,0,1,0,4,0,0,80,82,134,120,35,134.14,232,-77.00,-8.00,-1033.00
2024-06-07 14:55:53.654037,-1,2,0,3,0,0,80,82,133,120,35,134.07,232,-90.00,0.00,-1002.00
2024-06-07 14:55:53.843634,-1,1,0,3,0,0,80,82,132,110,35,133.60,232,-91.00,19.00,-1010.00
2024-06-07 14:55:53.858283,-2,0,0,3,0,0,80,82,132,110,35,133.70,232,-75.00,26.00,-1013.00
2024-06-07 14:55:54.049098,-2,0,0,3,0,0,80,82,134,110,35,133.81,232,-84.00,1.00,-1021.00
2024-06-07 14:55:54.062303,-2,-1,0,3,0,0,80,82,134,110,35,133.63,232,-95.00,13.00,-1018.00
2024-06-07 14:55:54.224222,-2,-2,0,2,0,0,80,82,132,120,35,133.55,232,-70.00,-3.00,-989.00
2024-06-07 14:55:54.267002,0,-1,0,2,0,0,80,82,132,120,35,133.79,232,-67.00,16.00,-989.00
2024-06-07 14:55:54.368400,0,0,0,1,0,0,81,82,132,120,35,133.99,233,-37.00,21.00,-970.00
2024-06-07 14:55:54.470895,-1,-1,0,1,0,0,81,82,131,110,35,134.12,233,-52.00,35.00,-1000.00
2024-06-07 14:55:54.663076,-1,-1,0,1,0,0,81,82,131,110,35,134.24,233,-37.00,25.00,-999.00
2024-06-07 14:55:54.673976,-1,-2,0,1,0,0,81,82,131,110,35,134.28,233,-53.00,34.00,-1013.00
2024-06-07 14:55:54.776001,0,-2,0,1,0,0,81,82,131,110,35,133.59,233,-67.00,22.00,-1031.00
2024-06-07 14:55:54.970232,0,-1,0,0,0,0,81,82,130,110,35,134.05,233,-93.00,0.00,-1000.00
2024-06-07 14:55:54.980666,-2,-1,0,0,0,0,81,82,132,110,35,133.94,233,-91.00,14.00,-973.00
2024-06-07 14:55:55.083187,-3,-1,0,0,0,0,81,82,131,110,35,134.05,233,-79.00,13.00,-998.00
2024-06-07 14:55:55.184990,-3,-1,0,0,0,0,81,82,131,110,35,134.12,233,-92.00,-2.00,-1033.00
2024-06-07 14:55:55.286064,-4,0,0,0,0,0,81,82,132,110,35,134.07,233,-91.00,19.00,-992.00
2024-06-07 14:55:55.482244,-5,0,0,0,0,0,80,82,131,110,35,133.56,234,-67.00,29.00,-978.00
2024-06-07 14:55:55.491046,-4,-1,0,0,0,0,80,82,132,110,35,134.25,234,-83.00,44.00,-976.00
2024-06-07 14:55:55.686898,-4,-2,0,0,0,0,80,82,132,110,35,133.96,234,-76.00,22.00,-989.00
2024-06-07 14:55:55.694371,-3,-3,0,0,0,0,80,82,131,110,35,133.96,234,-76.00,9.00,-1013.00
2024-06-07 14:55:55.891722,-4,0,0,0,0,0,80,82,132,110,35,134.09,234,-54.00,17.00,-1009.00
2024-06-07 14:55:55.897941,-4,0,0,0,0,0,80,82,132,110,35,133.97,234,-51.00,29.00,-1020.00
2024-06-07 14:55:56.099354,-3,0,0,0,0,0,80,82,131,110,35,133.86,234,-56.00,23.00,-1009.00
2024-06-07 14:55:56.102322,-2,0,0,0,0,0,80,82,132,110,35,133.88,234,-58.00,15.00,-989.00
2024-06-07 14:55:56.203937,-2,-1,0,0,0,0,80,82,132,110,35,134.25,234,-66.00,24.00,-1010.00
2024-06-07 14:55:56.404294,-3,-1,0,0,0,0,80,82,132,110,35,133.94,234,-70.00,26.00,-997.00
2024-06-07 14:55:56.407912,-3,-1,0,0,0,0,80,82,133,110,35,134.17,235,-60.00,9.00,-992.00
2024-06-07 14:55:56.509776,-2,0,0,0,0,0,80,82,133,110,35,134.20,235,-93.00,-9.00,-1011.00
2024-06-07 14:55:56.710819,-1,0,0,0,0,0,80,82,133,110,35,133.71,235,-75.00,-9.00,-969.00
2024-06-07 14:55:56.714036,3,0,0,-1,0,0,80,82,133,110,35,134.18,235,-67.00,-22.00,-991.00
2024-06-07 14:55:56.815771,4,0,0,-2,0,0,80,82,134,110,35,134.07,235,-60.00,-10.00,-999.00
2024-06-07 14:55:56.917794,4,0,0,-4,0,0,80,82,133,110,35,134.10,235,-53.00,-8.00,-1012.00
2024-06-07 14:55:57.019746,3,0,0,-5,0,0,80,82,133,110,35,134.18,235,-44.00,-1.00,-1002.00
2024-06-07 14:55:57.222929,3,0,0,-5,0,0,80,82,133,110,35,134.00,235,-18.00,-9.00,-1030.00
2024-06-07 14:55:57.224336,2,0,0,-6,0,0,80,82,134,110,35,133.69,235,-29.00,9.00,-1002.00
2024-06-07 14:55:57.326243,2,0,0,-6,0,0,80,82,135,110,35,134.02,235,-25.00,-15.00,-1003.00
2024-06-07 14:55:57.427876,2,0,0,-7,0,0,80,82,134,110,35,134.01,236,-29.00,0.00,-1017.00
2024-06-07 14:55:57.531724,0,1,0,-7,0,0,80,82,135,110,35,133.97,236,-7.00,7.00,-1003.00
2024-06-07 14:55:57.632089,-3,1,0,-7,0,0,80,82,136,110,35,134.27,236,0.00,0.00,-978.00
2024-06-07 14:55:57.734800,-6,1,0,-6,0,0,80,82,135,120,35,134.17,236,-21.00,14.00,-986.00
2024-06-07 14:55:57.836957,-7,0,0,-5,0,0,80,82,135,120,35,134.33,236,-7.00,0.00,-989.00
2024-06-07 14:55:57.946550,-6,0,0,-4,0,0,80,82,135,120,35,134.28,236,-42.00,-2.00,-1001.00
2024-06-07 14:55:57.988804,-5,0,0,-3,0,0,80,82,135,110,35,134.17,236,-56.00,36.00,-988.00
2024-06-07 14:55:58.092362,-4,0,0,-3,0,0,80,82,134,110,35,134.14,236,-44.00,27.00,-986.00
2024-06-07 14:55:58.192753,-4,0,0,-3,0,0,80,82,135,110,35,133.91,236,-38.00,31.00,-983.00
2024-06-07 14:55:58.294726,-3,-3,0,-3,0,0,80,82,133,110,35,133.89,236,-43.00,21.00,-1027.00
2024-06-07 14:55:58.396692,-3,-2,0,-3,0,0,80,82,133,110,35,134.11,237,-40.00,18.00,-1007.00
2024-06-07 14:55:58.498795,-3,-1,0,-2,0,0,80,82,131,110,35,133.99,237,-48.00,22.00,-1024.00
2024-06-07 14:55:58.660768,-3,-1,0,-2,0,0,80,82,132,110,35,134.15,237,-40.00,17.00,-1023.00
2024-06-07 14:55:58.703246,-4,-1,0,-2,0,0,80,82,134,110,35,134.12,237,-49.00,11.00,-1011.00
2024-06-07 14:55:58.805102,-5,-1,0,-2,0,0,80,82,135,110,35,134.51,237,-51.00,15.00,-1016.00
2024-06-07 14:55:58.908114,-7,0,-1,-1,0,0,80,82,135,110,35,134.15,237,-50.00,4.00,-976.00
2024-06-07 14:55:59.067675,-6,-1,-1,0,0,0,80,82,135,110,35,134.09,237,-74.00,-8.00,-991.00
2024-06-07 14:55:59.113650,-4,0,-1,0,0,0,80,82,135,110,35,134.22,237,-73.00,4.00,-993.00
2024-06-07 14:55:59.214272,-3,0,0,0,0,0,80,82,135,110,35,134.12,237,-58.00,23.00,-990.00
2024-06-07 14:55:59.317625,-4,0,0,0,0,0,80,82,136,110,35,134.18,237,-59.00,25.00,-984.00
2024-06-07 14:55:59.417806,-3,-1,0,0,0,0,80,82,137,110,35,134.02,238,-74.00,18.00,-986.00
2024-06-07 14:55:59.523395,-4,0,0,0,0,0,80,82,136,110,35,134.14,238,-71.00,27.00,-997.00
2024-06-07 14:55:59.622987,-3,0,0,0,0,0,80,82,138,120,35,134.13,238,-98.00,22.00,-1005.00
2024-06-07 14:55:59.723763,-3,-1,0,0,0,0,80,82,137,120,35,133.90,238,-85.00,40.00,-992.00
2024-06-07 14:55:59.885656,-4,-1,0,0,0,0,80,82,137,120,35,133.88,238,-92.00,25.00,-979.00
2024-06-07 14:55:59.927684,-4,-1,0,0,0,0,80,82,138,120,35,133.82,238,-84.00,8.00,-967.00
2024-06-07 14:56:00.090082,-4,-1,0,0,0,0,80,82,138,120,35,134.02,238,-95.00,13.00,-973.00
2024-06-07 14:56:00.131705,-4,-1,0,0,0,0,80,82,138,120,35,133.80,238,-103.00,3.00,-1004.00
2024-06-07 14:56:00.294922,-4,0,0,0,0,0,80,82,138,120,35,133.83,238,-82.00,5.00,-983.00
2024-06-07 14:56:00.336086,-4,0,0,0,0,0,80,82,137,120,35,133.74,238,-82.00,6.00,-983.00
2024-06-07 14:56:00.438543,-5,0,0,0,0,0,79,83,138,120,35,134.06,239,-89.00,2.00,-995.00
2024-06-07 14:56:00.602595,-5,0,0,0,0,0,79,83,138,120,34,134.03,239,-96.00,7.00,-986.00
2024-06-07 14:56:00.642023,-5,0,0,0,0,0,79,83,138,120,34,133.96,239,-103.00,4.00,-976.00
2024-06-07 14:56:00.806979,-5,0,0,0,0,0,79,83,139,120,34,134.04,239,-110.00,12.00,-1005.00
2024-06-07 14:56:00.845675,-5,0,0,0,0,0,79,83,139,120,34,133.76,239,-98.00,14.00,-999.00
2024-06-07 14:56:00.947639,-5,0,0,0,0,0,79,83,138,120,34,134.08,239,-105.00,31.00,-994.00
2024-06-07 14:56:01.074337,-5,0,0,0,0,0,79,83,137,120,34,133.95,239,-120.00,44.00,-988.00
2024-06-07 14:56:01.151500,-6,-1,0,0,0,0,79,83,138,120,34,134.03,239,-110.00,46.00,-994.00
2024-06-07 14:56:01.253441,-6,-2,0,0,0,0,79,83,137,120,34,134.14,239,-118.00,50.00,-983.00
2024-06-07 14:56:01.421113,-4,-7,0,0,0,0,79,83,138,120,34,134.01,239,-113.00,46.00,-1006.00
2024-06-07 14:56:01.458791,-4,-7,0,-1,0,0,80,82,138,120,34,133.92,240,-107.00,49.00,-986.00
2024-06-07 14:56:01.559466,-5,-7,0,-1,-1,0,80,82,137,120,34,134.15,240,-102.00,43.00,-1005.00
2024-06-07 14:56:01.731601,-6,-6,0,-1,-2,0,80,82,139,110,34,134.14,240,-88.00,49.00,-1024.00
2024-06-07 14:56:01.765516,-7,-4,0,0,-2,0,80,82,136,110,34,134.06,240,-75.00,71.00,-979.00
2024-06-07 14:56:01.814446,-6,-1,0,0,-2,0,80,82,135,110,34,134.00,240,-82.00,80.00,-1018.00
2024-06-07 14:56:01.935312,-6,-1,0,0,-1,0,80,82,135,110,34,134.26,240,-92.00,41.00,-997.00
2024-06-07 14:56:02.019743,-5,-3,0,0,-1,0,80,82,137,110,34,133.81,240,-93.00,39.00,-993.00
2024-06-07 14:56:02.138361,-4,-3,0,0,-2,0,80,82,137,110,34,133.87,240,-99.00,30.00,-963.00
2024-06-07 14:56:02.222449,-4,-3,0,0,-2,0,80,82,136,110,34,134.09,240,-94.00,36.00,-985.00
2024-06-07 14:56:02.342689,-4,-1,0,0,-2,0,80,82,136,110,34,134.01,240,-88.00,39.00,-978.00
2024-06-07 14:56:02.429739,-5,-1,0,0,-2,0,80,82,137,110,34,133.91,241,-101.00,25.00,-994.00
2024-06-07 14:56:02.528407,-5,-1,0,0,-2,0,80,82,136,110,34,133.92,241,-117.00,28.00,-998.00
2024-06-07 14:56:02.651010,-5,-1,0,0,-2,0,80,82,135,110,34,133.89,241,-100.00,44.00,-1001.00
2024-06-07 14:56:02.732452,-6,-1,0,0,-2,0,80,82,136,110,34,133.78,241,-99.00,52.00,-1003.00
2024-06-07 14:56:02.854663,-6,-2,0,0,-2,0,80,82,136,110,34,133.94,241,-86.00,27.00,-1017.00
2024-06-07 14:56:02.936419,-6,-2,0,0,-2,0,80,82,134,110,34,134.00,241,-81.00,28.00,-993.00
2024-06-07 14:56:03.059501,-4,-1,0,0,-2,0,80,82,136,110,34,133.90,241,-96.00,30.00,-1023.00
2024-06-07 14:56:03.140504,-3,-1,0,0,-2,0,80,82,136,110,34,133.86,241,-84.00,22.00,-984.00
2024-06-07 14:56:03.243207,-4,0,0,0,-2,0,80,82,135,120,34,134.17,241,-74.00,18.00,-1003.00
2024-06-07 14:56:03.344366,-4,0,0,0,-2,0,80,82,136,120,34,133.96,241,-64.00,8.00,-998.00
2024-06-07 14:56:03.446662,-4,2,0,0,-2,0,80,82,135,120,34,133.83,242,-74.00,26.00,-972.00
2024-06-07 14:56:03.571608,-4,3,0,0,-1,0,80,82,135,120,33,134.07,242,-63.00,30.00,-978.00
2024-06-07 14:56:03.650496,-4,1,0,0,0,0,80,82,136,120,33,133.97,242,-55.00,3.00,-999.00
2024-06-07 14:56:03.776395,-3,0,0,0,0,0,80,82,136,120,33,133.94,242,-47.00,28.00,-977.00
2024-06-07 14:56:03.854500,-3,0,0,0,0,0,80,82,135,110,33,133.71,242,-74.00,16.00,-1017.00
2024-06-07 14:56:03.981640,-3,0,0,0,0,0,80,82,135,110,33,134.01,242,-48.00,12.00,-1004.00
2024-06-07 14:56:04.060647,-3,0,0,0,0,0,80,82,135,120,33,133.69,242,-71.00,13.00,-998.00
2024-06-07 14:56:04.160425,-2,0,0,0,0,0,80,82,135,120,33,133.89,242,-90.00,18.00,-979.00
2024-06-07 14:56:04.262483,-2,0,0,0,0,0,80,82,135,120,33,133.90,242,-100.00,8.00,-998.00
2024-06-07 14:56:04.390873,-3,0,0,0,0,0,80,82,135,120,33,133.76,242,-109.00,37.00,-994.00
2024-06-07 14:56:04.466537,-4,0,0,0,0,0,80,82,136,120,33,133.82,243,-80.00,20.00,-963.00
2024-06-07 14:56:04.595805,-4,-1,0,0,0,0,80,82,135,120,33,133.91,243,-88.00,15.00,-977.00
2024-06-07 14:56:04.673592,-5,-1,0,0,0,0,80,82,137,120,33,133.59,243,-110.00,23.00,-988.00
2024-06-07 14:56:04.774916,-4,-1,0,0,0,0,80,82,136,120,33,133.76,243,-96.00,17.00,-969.00
2024-06-07 14:56:04.874913,-4,-1,0,0,0,0,80,82,136,120,33,133.92,243,-77.00,31.00,-974.00
2024-06-07 14:56:05.005255,-4,0,0,0,0,0,80,82,137,120,33,133.87,243,-94.00,35.00,-982.00
2024-06-07 14:56:05.086019,-4,-1,0,0,0,0,80,82,135,120,33,133.73,243,-71.00,28.00,-997.00
2024-06-07 14:56:05.130311,-4,-2,0,0,0,0,80,82,136,120,33,134.09,243,-89.00,49.00,-1000.00
2024-06-07 14:56:05.313316,-4,-2,0,0,0,0,80,82,135,120,33,133.91,243,-95.00,54.00,-991.00
2024-06-07 14:56:05.334385,-4,-2,0,0,0,0,80,82,136,120,33,133.77,243,-106.00,47.00,-963.00
2024-06-07 14:56:05.436878,-5,-3,0,0,0,0,80,83,137,120,33,133.86,244,-97.00,51.00,-958.00
2024-06-07 14:56:05.538837,-6,-3,0,0,0,0,80,83,135,120,32,134.01,244,-98.00,-17.00,-978.00
2024-06-07 14:56:05.640449,-5,-3,0,0,0,0,80,83,135,120,32,133.81,244,-104.00,-21.00,-1000.00
2024-06-07 14:56:05.825815,-5,-1,0,0,0,0,80,83,135,110,32,133.84,244,-110.00,-5.00,-1027.00
2024-06-07 14:56:05.844515,-5,5,0,0,0,0,80,83,134,110,32,133.91,244,-112.00,24.00,-959.00
2024-06-07 14:56:06.029426,-5,7,-1,0,0,0,80,83,134,110,32,133.84,244,-96.00,-33.00,-1047.00
2024-06-07 14:56:06.048275,-6,5,0,0,2,0,80,83,135,110,32,133.85,244,-93.00,-37.00,-1003.00
2024-06-07 14:56:06.234292,-6,3,0,0,2,0,80,83,134,110,32,133.79,244,-84.00,-23.00,-1053.00
2024-06-07 14:56:06.254188,-6,2,0,0,2,0,80,83,135,110,32,133.84,244,-101.00,-6.00,-999.00
2024-06-07 14:56:06.354228,-5,1,0,0,2,0,80,83,135,110,32,133.76,244,-119.00,16.00,-966.00
2024-06-07 14:56:06.512559,-6,0,0,0,2,0,80,82,137,110,32,133.78,245,-78.00,-42.00,-1003.00
2024-06-07 14:56:06.558313,-6,-1,0,0,2,0,80,82,136,120,32,134.00,245,-75.00,-45.00,-965.00
2024-06-07 14:56:06.746065,-5,1,0,0,1,0,80,82,137,120,32,134.12,245,-113.00,-26.00,-971.00
2024-06-07 14:56:06.767446,-4,2,0,0,1,0,80,82,137,120,32,134.40,245,-111.00,-50.00,-997.00
2024-06-07 14:56:06.864305,-4,2,0,0,1,0,80,82,138,120,32,133.71,245,-111.00,-29.00,-980.00
2024-06-07 14:56:07.053159,-5,2,0,0,1,0,80,82,137,120,32,133.63,245,-92.00,25.00,-958.00
2024-06-07 14:56:07.069642,-5,2,0,0,2,0,80,82,137,120,32,133.92,245,-93.00,6.00,-1004.00
2024-06-07 14:56:07.204061,-5,1,0,0,2,0,80,82,137,120,32,133.54,245,-122.00,24.00,-1014.00
2024-06-07 14:56:07.273589,-4,-1,-1,0,3,0,80,82,137,120,32,133.82,245,-106.00,25.00,-1031.00
2024-06-07 14:56:07.465666,-4,-1,0,0,3,0,80,82,137,120,32,133.77,245,-84.00,11.00,-979.00
2024-06-07 14:56:07.476188,-5,-2,0,0,2,0,80,83,137,120,32,133.66,246,-89.00,-27.00,-969.00
2024-06-07 14:56:07.674984,-6,0,0,0,2,0,80,83,137,120,31,133.86,246,-95.00,5.00,-983.00
2024-06-07 14:56:07.681198,-5,0,0,0,2,0,80,83,137,120,31,134.01,246,-120.00,28.00,-1000.00
2024-06-07 14:56:07.872759,-5,0,0,0,2,0,80,83,137,120,31,134.06,246,-122.00,2.00,-947.00
2024-06-07 14:56:07.884132,-5,-2,0,0,2,0,80,83,138,120,31,133.60,246,-81.00,7.00,-976.00
2024-06-07 14:56:08.077620,-6,-5,0,0,1,0,80,83,138,120,31,133.50,246,-106.00,-28.00,-1070.00
2024-06-07 14:56:08.088115,-8,-3,0,0,0,0,80,83,138,120,31,133.86,246,-131.00,34.00,-960.00
2024-06-07 14:56:08.285631,-8,0,0,0,0,0,80,83,137,120,31,133.93,246,-107.00,5.00,-1007.00
2024-06-07 14:56:08.297410,-8,-2,0,0,0,0,80,83,140,120,31,133.63,246,-125.00,-36.00,-1028.00
2024-06-07 14:56:08.394279,-8,-2,0,0,0,0,80,83,136,120,31,133.66,246,-136.00,23.00,-990.00
2024-06-07 14:56:08.496187,-2,-1,0,0,0,0,80,82,137,120,31,133.72,247,-104.00,15.00,-949.00
2024-06-07 14:56:08.692843,-3,-1,0,0,0,0,80,82,137,120,31,133.89,247,-130.00,13.00,-946.00
2024-06-07 14:56:08.700234,-7,0,0,-1,0,0,80,82,138,120,31,133.91,247,-118.00,30.00,-954.00
2024-06-07 14:56:08.751072,-8,0,0,0,0,0,80,82,138,120,31,133.89,247,-117.00,42.00,-1009.00
2024-06-07 14:56:08.896862,-7,-1,0,0,0,0,80,82,135,120,31,133.95,247,-110.00,40.00,-1043.00
2024-06-07 14:56:08.958797,-6,-2,0,0,0,0,80,82,136,120,31,133.87,247,-94.00,41.00,-1001.00
2024-06-07 14:56:09.057470,-5,-2,0,0,0,0,80,82,137,120,31,133.61,247,-109.00,38.00,-1018.00
2024-06-07 14:56:09.204000,-6,-2,0,0,0,0,80,82,136,120,31,133.71,247,-93.00,20.00,-1015.00
2024-06-07 14:56:09.261658,-6,-2,0,0,0,0,80,82,136,120,31,133.73,247,-109.00,13.00,-977.00
2024-06-07 14:56:09.413982,-6,-2,0,0,0,0,80,82,136,120,31,133.78,247,-95.00,13.00,-1014.00
2024-06-07 14:56:09.466321,-6,-2,0,0,0,0,80,82,137,120,31,133.39,248,-100.00,21.00,-970.00
2024-06-07 14:56:09.613294,-6,-1,0,0,0,0,80,82,135,120,31,133.81,248,-102.00,15.00,-979.00
2024-06-07 14:56:09.669947,-6,-1,0,0,0,0,80,82,136,110,31,133.47,248,-99.00,25.00,-995.00
2024-06-07 14:56:09.818049,-5,-1,0,0,0,0,80,82,133,110,31,133.93,248,-92.00,22.00,-998.00
2024-06-07 14:56:09.873175,-5,-1,0,0,0,0,80,82,133,110,31,133.89,248,-111.00,-6.00,-1001.00
2024-06-07 14:56:09.975230,-5,-1,0,0,0,0,80,82,134,110,31,133.77,248,-106.00,-33.00,-1024.00
2024-06-07 14:56:10.078661,-6,0,0,0,-1,0,80,82,133,110,31,133.80,248,-101.00,4.00,-1004.00
2024-06-07 14:56:10.180987,-6,0,0,0,0,0,80,82,131,110,31,133.69,248,-99.00,-9.00,-1019.00
2024-06-07 14:56:10.282124,-6,0,0,0,0,0,80,82,132,110,31,133.76,248,-112.00,-6.00,-1030.00
2024-06-07 14:56:10.432646,-5,0,0,0,0,0,80,82,132,110,31,133.72,249,-117.00,-6.00,-1007.00
2024-06-07 14:56:10.488080,-5,1,0,0,0,0,80,82,133,110,31,133.64,249,-138.00,40.00,-959.00
2024-06-07 14:56:10.586950,-6,1,1,0,0,0,80,82,132,110,31,133.62,249,-97.00,18.00,-975.00
2024-06-07 14:56:10.740275,-6,-1,7,0,0,0,80,82,133,110,31,133.66,249,-93.00,37.00,-979.00
2024-06-07 14:56:10.791019,-6,-2,13,0,0,0,80,82,132,110,31,133.79,249,-65.00,51.00,-1005.00
2024-06-07 14:56:10.945935,-5,-2,19,0,0,0,80,82,132,110,31,134.00,249,-92.00,55.00,-1033.00
2024-06-07 14:56:10.995243,-5,-2,25,0,0,0,80,82,131,110,31,133.95,249,-73.00,55.00,-987.00
2024-06-07 14:56:11.153039,-4,-3,31,0,0,0,80,82,132,110,31,133.88,249,-68.00,51.00,-1015.00
2024-06-07 14:56:11.198826,-3,-3,38,0,0,0,80,82,132,110,31,133.67,249,-59.00,83.00,-1002.00
2024-06-07 14:56:11.308511,-2,-3,45,0,0,0,80,82,131,110,31,133.64,249,-25.00,72.00,-1016.00
2024-06-07 14:56:11.402947,-2,-4,52,0,0,0,80,82,133,110,31,133.65,250,-19.00,62.00,-1007.00
2024-06-07 14:56:11.505079,0,-4,58,0,0,0,81,82,132,110,31,134.01,250,-6.00,92.00,-974.00
2024-06-07 14:56:11.661175,0,-4,65,0,0,0,81,82,132,110,31,133.97,250,15.00,91.00,-993.00
2024-06-07 14:56:11.708805,1,-4,71,0,1,0,81,82,132,110,31,134.01,250,19.00,88.00,-991.00
2024-06-07 14:56:11.867059,2,-3,77,0,0,0,81,82,133,110,31,134.07,250,-1.00,80.00,-984.00
2024-06-07 14:56:11.912976,2,-3,82,0,0,0,81,82,133,110,31,133.82,250,10.00,69.00,-990.00
2024-06-07 14:56:12.015958,2,-3,88,0,0,0,81,82,132,110,31,133.85,250,14.00,82.00,-973.00
2024-06-07 14:56:12.116882,2,-3,94,0,0,0,81,82,132,110,31,133.94,250,4.00,75.00,-968.00
2024-06-07 14:56:12.281129,2,-3,99,0,0,0,81,82,133,110,31,134.12,250,16.00,73.00,-997.00
2024-06-07 14:56:12.322609,2,-3,105,0,0,0,81,82,133,110,31,134.26,250,32.00,52.00,-987.00
2024-06-07 14:56:12.422954,2,-2,111,0,0,0,81,82,132,110,31,134.11,251,39.00,58.00,-1030.00
2024-06-07 14:56:12.524904,2,-1,118,0,0,0,80,82,132,110,31,133.87,251,32.00,58.00,-1027.00
2024-06-07 14:56:12.685095,2,-2,123,0,0,0,80,82,131,110,30,133.81,251,50.00,47.00,-978.00
2024-06-07 14:56:12.728879,2,-2,129,0,0,0,80,82,133,110,30,134.04,251,27.00,46.00,-981.00
2024-06-07 14:56:12.890219,2,-1,135,0,0,0,80,82,131,110,30,134.02,251,42.00,53.00,-991.00
2024-06-07 14:56:12.932890,2,-1,140,0,0,0,80,82,132,110,30,133.97,251,29.00,63.00,-993.00
2024-06-07 14:56:13.094664,2,-1,145,0,0,0,80,82,133,110,30,134.12,251,47.00,44.00,-1000.00
2024-06-07 14:56:13.094711,3,-2,150,0,0,0,80,82,133,110,30,133.86,251,49.00,27.00,-978.00
2024-06-07 14:56:13.189068,3,-1,155,0,0,0,80,82,133,110,30,133.91,251,35.00,47.00,-1000.00
2024-06-07 14:56:13.289921,2,-1,160,0,0,0,80,82,132,110,30,134.10,251,33.00,44.00,-1003.00
2024-06-07 14:56:13.401901,3,-1,166,0,0,0,80,82,133,110,30,133.74,252,66.00,15.00,-1007.00
2024-06-07 14:56:13.493838,3,-1,171,0,0,0,80,82,132,110,30,134.11,252,90.00,-4.00,-1019.00
2024-06-07 14:56:13.606868,4,0,177,0,0,0,80,82,133,110,30,134.08,252,80.00,-11.00,-992.00
2024-06-07 14:56:13.697843,4,0,-176,0,0,0,80,82,135,110,30,134.20,252,73.00,3.00,-990.00
2024-06-07 14:56:13.811423,4,0,-170,0,0,0,80,82,135,110,30,133.83,252,91.00,15.00,-980.00
2024-06-07 14:56:13.901801,4,0,-163,0,0,0,80,82,134,110,30,133.90,252,79.00,-30.00,-981.00
2024-06-07 14:56:14.017771,4,1,-157,0,0,0,80,82,135,110,30,133.82,252,82.00,-37.00,-995.00
2024-06-07 14:56:14.106682,4,2,-151,0,0,0,80,82,135,110,30,133.73,252,57.00,-45.00,-990.00
2024-06-07 14:56:14.221218,4,3,-145,0,0,0,80,82,134,110,30,134.29,252,61.00,-59.00,-976.00
2024-06-07 14:56:14.309745,3,3,-139,0,0,0,80,82,134,110,30,134.21,252,41.00,-80.00,-994.00
2024-06-07 14:56:14.425843,2,4,-133,0,0,0,80,82,135,110,30,133.88,253,30.00,-71.00,-991.00
2024-06-07 14:56:14.520554,1,5,-127,0,0,0,80,81,134,110,30,134.14,253,33.00,-85.00,-976.00
2024-06-07 14:56:14.615731,1,6,-121,0,0,0,80,81,135,110,30,134.12,253,30.00,-94.00,-998.00
2024-06-07 14:56:14.835950,1,6,-115,0,0,0,80,81,136,110,30,134.16,253,13.00,-93.00,-983.00
2024-06-07 14:56:14.837323,0,6,-109,0,0,0,80,81,135,110,30,134.25,253,17.00,-91.00,-1013.00
2024-06-07 14:56:14.921762,0,6,-103,0,0,0,80,81,134,110,30,134.09,253,20.00,-110.00,-994.00
2024-06-07 14:56:15.048262,-1,6,-97,0,0,0,80,81,136,110,30,134.00,253,9.00,-102.00,-1001.00
2024-06-07 14:56:15.131453,0,6,-90,0,0,0,80,81,134,110,30,134.03,253,-18.00,-90.00,-993.00
2024-06-07 14:56:15.227700,-1,6,-84,0,0,0,80,81,136,110,30,133.94,253,-46.00,-82.00,-995.00
2024-06-07 14:56:15.355547,-2,5,-78,0,0,0,80,81,136,110,30,134.04,253,-32.00,-91.00,-982.00
2024-06-07 14:56:15.436645,-3,4,-72,0,0,0,80,81,136,110,30,133.97,254,-28.00,-89.00,-982.00
2024-06-07 14:56:15.533722,-3,5,-65,0,0,0,79,82,137,110,30,133.78,254,-61.00,-63.00,-999.00
2024-06-07 14:56:15.659669,-3,5,-58,0,0,0,79,82,137,120,29,133.60,254,-45.00,-55.00,-1003.00
2024-06-07 14:56:15.737973,-4,4,-52,0,0,0,79,82,137,120,29,133.85,254,-68.00,-23.00,-990.00
2024-06-07 14:56:15.862513,-4,2,-45,0,0,0,79,82,137,120,29,134.07,254,-94.00,-13.00,-986.00
2024-06-07 14:56:15.942900,-4,1,-38,0,0,0,79,82,138,120,29,133.92,254,-82.00,-19.00,-1004.00
2024-06-07 14:56:16.073874,-4,0,-32,0,0,0,79,82,139,120,29,133.51,254,-101.00,-30.00,-1030.00
2024-06-07 14:56:16.147665,-5,0,-26,0,0,0,79,82,137,120,29,133.90,254,-89.00,-49.00,-973.00
2024-06-07 14:56:16.247639,-6,0,-20,0,0,0,79,82,139,120,29,133.96,254,-87.00,-43.00,-975.00
2024-06-07 14:56:16.371437,-5,0,-15,0,0,0,79,82,136,120,29,133.54,254,-97.00,-32.00,-988.00
2024-06-07 14:56:16.451638,-5,2,-12,0,0,0,79,82,137,120,29,133.99,255,-77.00,-46.00,-952.00
2024-06-07 14:56:16.580764,-4,0,-10,0,-1,0,80,82,134,120,29,133.79,255,-106.00,-61.00,-1024.00
2024-06-07 14:56:16.658326,-4,1,-8,0,-1,0,80,82,135,120,29,134.20,255,-87.00,-39.00,-1020.00
2024-06-07 14:56:16.758675,-5,2,-6,0,-1,0,80,82,134,120,29,133.70,255,-96.00,-39.00,-1016.00
2024-06-07 14:56:16.859880,-5,3,-4,0,-1,0,80,82,135,110,29,133.84,255,-74.00,14.00,-998.00
2024-06-07 14:56:16.911712,-5,3,-1,0,0,0,80,82,133,110,29,133.93,255,-66.00,11.00,-1000.00
2024-06-07 14:56:17.091980,-4,2,0,0,0,0,80,82,132,110,29,134.01,255,-61.00,38.00,-974.00
2024-06-07 14:56:17.115560,-3,0,0,0,0,0,80,82,132,110,29,133.49,255,-88.00,29.00,-1058.00
2024-06-07 14:56:17.217998,-3,-1,1,0,0,0,80,82,132,110,29,133.61,255,-85.00,39.00,-1024.00
2024-06-07 14:56:17.319690,-3,-1,1,0,0,0,80,82,132,110,29,133.70,255,-85.00,46.00,-997.00
2024-06-07 14:56:17.422824,-3,-1,1,0,0,0,80,82,132,110,29,133.57,256,-91.00,28.00,-992.00
2024-06-07 14:56:17.525171,-3,-1,1,0,0,0,80,82,132,110,28,133.90,256,-69.00,33.00,-974.00
2024-06-07 14:56:17.626101,-3,-1,1,0,0,0,80,82,133,120,28,133.82,256,-75.00,30.00,-986.00
2024-06-07 14:56:17.805678,-4,-1,1,0,0,0,80,82,133,120,28,133.85,256,-74.00,56.00,-962.00
2024-06-07 14:56:17.829596,-4,-2,1,0,0,0,80,82,133,120,28,134.11,256,-63.00,11.00,-975.00
2024-06-07 14:56:17.932288,-4,-3,1,0,0,0,80,82,133,110,28,133.73,256,-87.00,17.00,-997.00
2024-06-07 14:56:18.034111,-3,-2,1,0,0,0,80,82,133,110,28,133.94,256,-72.00,7.00,-973.00
2024-06-07 14:56:18.214950,-3,-1,1,0,0,0,80,82,132,110,28,133.94,256,-78.00,7.00,-1003.00
2024-06-07 14:56:18.237647,-3,-1,0,0,0,0,80,82,131,110,28,133.44,256,-72.00,-25.00,-1009.00
2024-06-07 14:56:18.423472,-4,0,0,0,0,0,80,82,130,110,28,133.65,256,-103.00,-26.00,-997.00
2024-06-07 14:56:18.441612,-4,0,0,0,0,0,80,82,131,110,28,133.43,257,-126.00,0.00,-1019.00
2024-06-07 14:56:18.543586,-4,1,0,0,0,0,80,82,131,110,28,133.57,257,-104.00,-3.00,-973.00
2024-06-07 14:56:18.727244,-5,0,0,0,0,0,80,82,131,110,28,133.84,257,-92.00,4.00,-1019.00
2024-06-07 14:56:18.747593,-5,0,0,0,0,0,80,82,131,110,28,133.79,257,-81.00,-2.00,-1014.00
2024-06-07 14:56:18.865354,-5,1,1,0,0,0,80,82,132,110,28,133.99,257,-104.00,-5.00,-1008.00
2024-06-07 14:56:18.951456,-5,1,1,0,0,0,80,82,133,110,28,133.98,257,-88.00,-12.00,-1013.00
2024-06-07 14:56:19.136449,-5,1,0,0,0,0,80,82,132,110,28,133.78,257,-81.00,-34.00,-976.00
2024-06-07 14:56:19.155488,-5,1,-5,0,0,0,80,82,134,110,28,134.00,257,-75.00,-32.00,-935.00
2024-06-07 14:56:19.260796,-5,3,-11,0,0,0,80,82,135,120,28,134.17,257,-93.00,-16.00,-964.00
2024-06-07 14:56:19.359544,-5,2,-17,0,0,0,80,82,135,120,28,133.94,257,-100.00,-50.00,-1016.00
2024-06-07 14:56:19.545794,-5,2,-23,0,0,0,80,82,135,120,28,133.92,258,-105.00,-53.00,-988.00
2024-06-07 14:56:19.563427,-4,3,-29,0,0,0,80,82,135,120,28,134.13,258,-91.00,-64.00,-1003.00
2024-06-07 14:56:19.665513,-4,4,-35,0,0,0,80,82,134,110,28,133.77,258,-76.00,-63.00,-968.00
2024-06-07 14:56:19.767424,-4,5,-41,0,0,0,80,82,134,110,28,134.07,258,-46.00,-83.00,-1005.00
2024-06-07 14:56:19.955471,-3,5,-47,0,0,0,80,82,133,110,28,134.19,258,-43.00,-101.00,-1000.00
2024-06-07 14:56:19.974216,-2,5,-52,0,0,0,80,82,133,110,28,133.97,258,-36.00,-109.00,-1012.00
2024-06-07 14:56:20.073378,-1,6,-58,0,0,0,80,82,134,110,28,134.12,258,-8.00,-116.00,-986.00
2024-06-07 14:56:20.127729,-1,6,-64,0,0,0,80,82,133,110,28,133.84,258,-29.00,-102.00,-999.00
2024-06-07 14:56:20.226583,0,7,-71,0,0,0,80,82,132,110,28,134.14,258,-17.00,-108.00,-1023.00
2024-06-07 14:56:20.369296,1,7,-78,0,0,0,80,82,133,110,28,133.93,258,-25.00,-95.00,-1001.00
2024-06-07 14:56:20.430467,0,6,-84,0,0,0,80,82,132,110,28,134.11,259,-23.00,-84.00,-978.00
2024-06-07 14:56:20.532434,0,5,-90,0,0,0,80,82,132,110,28,134.34,259,-7.00,-108.00,-1009.00
2024-06-07 14:56:20.677559,0,5,-96,0,0,0,80,82,133,110,28,134.20,259,23.00,-100.00,-1003.00
2024-06-07 14:56:20.742319,1,6,-102,0,0,0,80,82,134,110,28,134.35,259,37.00,-89.00,-1022.00
2024-06-07 14:56:20.838755,2,5,-108,0,0,0,80,82,133,110,28,133.92,259,48.00,-95.00,-1000.00
2024-06-07 14:56:20.940774,2,5,-115,0,0,0,80,82,135,110,28,134.13,259,73.00,-87.00,-992.00
2024-06-07 14:56:21.081663,3,5,-121,0,0,0,80,82,136,110,28,134.45,259,81.00,-66.00,-991.00
2024-06-07 14:56:21.144577,4,4,-127,0,0,0,80,82,134,110,28,133.95,259,75.00,-65.00,-996.00
2024-06-07 14:56:21.286791,5,3,-133,0,0,0,80,82,135,120,28,134.08,259,72.00,-41.00,-987.00
2024-06-07 14:56:21.350325,5,3,-139,0,0,0,80,82,135,120,28,134.16,259,77.00,-46.00,-974.00
2024-06-07 14:56:21.450520,5,2,-145,0,0,0,80,82,136,120,28,133.85,260,87.00,-20.00,-977.00
2024-06-07 14:56:21.554787,4,1,-150,0,0,0,80,83,135,120,28,133.88,260,107.00,-16.00,-981.00
2024-06-07 14:56:21.654237,5,0,-156,0,0,0,80,83,137,120,28,133.96,260,83.00,1.00,-980.00
2024-06-07 14:56:21.798771,5,0,-162,0,0,0,80,83,135,120,28,134.19,260,110.00,-13.00,-982.00
2024-06-07 14:56:21.862740,5,0,-168,0,0,0,80,83,135,120,28,133.89,260,88.00,5.00,-963.00
2024-06-07 14:56:21.963211,5,0,-173,0,0,0,80,83,135,120,28,134.05,260,101.00,-15.00,-1016.00
2024-06-07 14:56:22.064334,5,0,-179,0,0,0,80,83,134,110,28,134.08,260,85.00,-5.00,-1014.00
2024-06-07 14:56:22.164619,5,0,174,0,0,0,80,83,133,110,28,133.99,260,99.00,34.00,-1024.00
2024-06-07 14:56:22.266331,5,0,168,0,0,0,80,83,134,110,28,133.99,260,95.00,26.00,-999.00
2024-06-07 14:56:22.413090,5,-1,162,0,0,0,80,83,136,110,28,134.12,260,93.00,29.00,-992.00
2024-06-07 14:56:22.471255,5,-1,157,0,0,0,80,83,134,110,28,133.95,261,74.00,59.00,-968.00
2024-06-07 14:56:22.572490,5,-1,151,0,0,0,80,83,135,110,27,134.16,261,78.00,41.00,-1001.00
2024-06-07 14:56:22.679246,4,-2,145,0,0,0,80,83,134,110,27,133.79,261,69.00,35.00,-996.00
2024-06-07 14:56:22.776265,4,-1,139,0,0,0,80,83,133,110,27,133.83,261,54.00,51.00,-1000.00
2024-06-07 14:56:22.925001,4,-2,132,0,0,0,80,83,134,110,27,134.01,261,47.00,55.00,-994.00
2024-06-07 14:56:22.981411,3,-3,126,0,0,0,80,83,134,110,27,134.11,261,38.00,58.00,-996.00
2024-06-07 14:56:23.083193,2,-2,119,0,0,0,80,83,133,110,27,133.95,261,30.00,55.00,-994.00
2024-06-07 14:56:23.232160,1,-2,112,0,0,0,80,83,132,110,27,133.97,261,5.00,55.00,-997.00
2024-06-07 14:56:23.287333,1,-3,105,0,0,0,80,83,132,110,27,133.63,261,6.00,58.00,-1010.00
2024-06-07 14:56:23.436970,0,-3,97,0,0,0,80,83,133,110,27,134.47,261,-10.00,34.00,-984.00
2024-06-07 14:56:23.491723,0,-2,90,1,0,0,80,83,132,110,27,133.96,262,-1.00,42.00,-1008.00
2024-06-07 14:56:23.593260,0,-1,83,1,0,0,80,82,132,110,27,133.85,262,-10.00,14.00,-1005.00
2024-06-07 14:56:23.697645,0,0,76,1,0,0,80,82,133,110,27,133.96,262,-18.00,10.00,-997.00
2024-06-07 14:56:23.799784,0,0,70,1,0,0,80,82,133,110,27,134.16,262,-19.00,9.00,-1010.00
2024-06-07 14:56:23.848215,-1,1,63,1,0,0,80,82,133,110,27,133.98,262,-26.00,31.00,-1019.00
2024-06-07 14:56:23.953401,-1,1,57,0,0,0,80,82,134,110,27,133.92,262,-25.00,36.00,-1006.00
2024-06-07 14:56:24.052176,0,0,51,0,0,0,80,82,135,110,27,133.88,262,-39.00,40.00,-1008.00
2024-06-07 14:56:24.154423,0,0,45,0,0,0,80,82,134,110,27,134.16,262,-40.00,39.00,-992.00
2024-06-07 14:56:24.256553,-1,0,39,0,0,0,80,82,134,110,27,133.95,262,-42.00,37.00,-993.00
2024-06-07 14:56:24.358482,-1,-1,34,0,0,0,80,82,134,110,27,134.03,262,-36.00,6.00,-980.00
2024-06-07 14:56:24.460890,-1,0,28,0,0,0,80,82,135,120,27,134.32,263,-44.00,0.00,-973.00
2024-06-07 14:56:24.564696,-1,0,22,0,0,0,80,83,135,120,27,134.21,263,-35.00,11.00,-1003.00
2024-06-07 14:56:24.665416,-1,0,18,0,0,0,80,83,134,120,27,134.14,263,-25.00,6.00,-1004.00
2024-06-07 14:56:24.768144,-1,0,14,0,0,0,80,83,136,120,27,134.01,263,-21.00,12.00,-997.00
2024-06-07 14:56:24.868222,-1,0,12,0,0,0,80,83,136,120,27,133.86,263,-37.00,25.00,-980.00
2024-06-07 14:56:24.971090,-1,0,9,0,0,0,80,83,135,120,27,133.77,263,-53.00,0.00,-1011.00
2024-06-07 14:56:25.077947,-2,0,7,0,0,0,80,83,134,120,27,133.87,263,-70.00,-12.00,-981.00
2024-06-07 14:56:25.174122,-2,0,5,0,0,0,80,83,136,120,27,134.14,263,-55.00,-10.00,-1006.00
2024-06-07 14:56:25.276120,-3,0,4,0,0,0,80,83,136,120,27,134.05,263,-60.00,-23.00,-1007.00
2024-06-07 14:56:25.378108,-3,1,3,0,0,0,80,83,135,120,27,133.82,263,-62.00,-24.00,-1008.00
2024-06-07 14:56:25.489369,-3,2,3,0,0,0,80,83,136,120,27,133.71,264,-50.00,-30.00,-1041.00
2024-06-07 14:56:25.582197,-3,2,3,0,0,0,80,82,136,120,26,133.75,264,-49.00,-14.00,-1008.00
2024-06-07 14:56:25.689812,-3,1,3,0,0,0,80,82,136,120,26,133.95,264,-69.00,9.00,-1006.00
2024-06-07 14:56:25.786222,-3,1,3,0,0,0,80,82,135,120,26,134.04,264,-58.00,-7.00,-991.00
2024-06-07 14:56:25.895406,-3,0,3,0,0,0,80,82,137,120,26,133.86,264,-56.00,-34.00,-984.00
2024-06-07 14:56:25.991338,-3,0,3,0,0,0,80,82,135,120,26,133.97,264,-75.00,-23.00,-995.00
2024-06-07 14:56:26.102180,-3,1,3,0,0,0,80,82,135,120,26,133.91,264,-84.00,-8.00,-999.00
2024-06-07 14:56:26.194377,-4,2,3,0,0,0,80,82,133,110,26,133.67,264,-68.00,-5.00,-985.00
2024-06-07 14:56:26.304357,-4,2,3,0,0,0,80,82,134,110,26,133.53,264,-70.00,-7.00,-996.00
2024-06-07 14:56:26.398175,-4,1,3,0,0,0,80,82,134,110,26,133.80,264,-84.00,1.00,-986.00
2024-06-07 14:56:26.509189,-4,0,3,0,0,0,80,82,135,110,26,133.96,265,-94.00,6.00,-1012.00
2024-06-07 14:56:26.613000,-5,0,3,0,0,0,79,82,135,110,26,134.16,265,-95.00,0.00,-1005.00
2024-06-07 14:56:26.713884,-5,0,2,0,0,0,79,82,134,110,26,133.82,265,-97.00,8.00,-1002.00
2024-06-07 14:56:26.806995,-5,-1,2,0,0,0,79,82,135,110,26,133.59,265,-105.00,-21.00,-1009.00
2024-06-07 14:56:26.908126,-6,0,2,0,0,0,79,82,136,110,26,133.66,265,-103.00,-10.00,-1018.00
2024-06-07 14:56:27.021356,-6,0,2,0,0,0,79,82,135,110,26,133.70,265,-86.00,-1.00,-985.00
2024-06-07 14:56:27.116166,-5,0,3,0,0,0,79,82,135,110,26,133.74,265,-108.00,21.00,-999.00
2024-06-07 14:56:27.214116,-6,-1,3,0,0,0,79,82,136,110,26,133.90,265,-90.00,-4.00,-997.00
2024-06-07 14:56:27.265257,-6,0,3,0,0,0,79,82,135,110,26,134.23,265,-76.00,21.00,-989.00
2024-06-07 14:56:27.369369,-5,0,3,0,0,0,79,82,135,110,26,133.95,266,-72.00,2.00,-1010.00
2024-06-07 14:56:27.469134,-5,0,3,0,0,0,79,82,135,110,26,133.91,266,-93.00,-18.00,-972.00
2024-06-07 14:56:27.571187,-5,0,3,0,0,0,80,83,135,110,26,133.99,266,-64.00,-2.00,-998.00
2024-06-07 14:56:27.738458,-4,0,3,0,0,0,80,83,135,110,26,133.93,266,-84.00,30.00,-1015.00
2024-06-07 14:56:27.776057,-4,-1,3,0,0,0,80,83,135,110,26,133.71,266,-112.00,-17.00,-976.00
2024-06-07 14:56:27.943561,-5,-1,3,0,0,0,80,83,135,110,26,133.93,266,-97.00,-33.00,-998.00
2024-06-07 14:56:27.980844,-5,0,3,0,0,0,80,83,136,110,26,133.58,266,-96.00,-12.00,-1008.00
2024-06-07 14:56:28.081394,-5,1,3,0,0,0,80,83,135,120,26,133.60,266,-91.00,0.00,-992.00
2024-06-07 14:56:28.229056,-5,1,3,0,0,0,80,83,135,120,26,133.53,266,-122.00,-12.00,-990.00
2024-06-07 14:56:28.285182,-6,0,3,0,0,0,80,83,135,120,26,133.94,266,-95.00,-20.00,-1010.00
2024-06-07 14:56:28.387095,-6,0,3,0,0,0,80,83,136,120,26,133.90,267,-94.00,-6.00,-989.00
2024-06-07 14:56:28.561890,-6,0,3,0,0,0,80,83,136,110,26,133.63,267,-102.00,-9.00,-998.00
2024-06-07 14:56:28.594685,-5,0,3,0,0,0,81,82,135,110,25,133.38,267,-87.00,-10.00,-985.00
2024-06-07 14:56:28.693578,-5,0,3,0,0,0,81,82,136,110,25,133.83,267,-79.00,-26.00,-1001.00
2024-06-07 14:56:28.867177,-5,0,3,0,0,0,81,82,135,110,25,133.62,267,-92.00,-36.00,-1021.00
2024-06-07 14:56:28.897298,-5,1,3,0,0,0,81,82,134,110,25,133.90,267,-78.00,-24.00,-1005.00
2024-06-07 14:56:29.069024,-4,1,3,0,0,0,81,82,135,120,25,133.66,267,-89.00,-9.00,-993.00
2024-06-07 14:56:29.100977,-4,1,3,0,0,0,81,82,136,120,25,133.67,267,-94.00,15.00,-965.00
2024-06-07 14:56:29.203466,-4,0,3,0,0,0,81,82,135,120,25,133.87,267,-92.00,2.00,-992.00
2024-06-07 14:56:29.376362,-4,0,3,0,0,0,81,82,134,110,25,133.87,267,-93.00,-12.00,-1002.00
2024-06-07 14:56:29.407849,-5,0,3,0,0,0,81,82,134,110,25,133.83,268,-74.00,1.00,-967.00
2024-06-07 14:56:29.580969,-4,0,3,0,0,0,81,82,134,110,25,133.69,268,-91.00,4.00,-990.00
2024-06-07 14:56:29.611014,-4,0,3,0,0,0,80,82,133,110,25,133.74,268,-94.00,-25.00,-1018.00
2024-06-07 14:56:29.785907,-4,0,3,0,0,0,80,82,133,110,25,134.09,268,-81.00,-31.00,-1012.00
2024-06-07 14:56:29.814913,-4,1,3,0,0,0,80,82,133,110,25,134.12,268,-60.00,0.00,-1005.00
2024-06-07 14:56:29.990949,-3,1,3,0,0,0,80,82,134,110,25,133.55,268,-86.00,-9.00,-1013.00
2024-06-07 14:56:30.019573,-3,1,3,0,0,0,80,82,133,110,25,133.47,268,-77.00,-7.00,-1012.00
2024-06-07 14:56:30.196104,-4,0,3,0,0,0,80,82,133,110,25,133.89,268,-86.00,-9.00,-978.00
2024-06-07 14:56:30.224943,-4,0,3,0,0,0,80,82,133,110,25,133.91,268,-57.00,-10.00,-981.00
2024-06-07 14:56:30.325326,-3,0,2,0,0,0,80,82,132,110,25,133.60,268,-50.00,1.00,-998.00
2024-06-07 14:56:30.429453,-3,0,2,0,0,0,80,82,133,110,25,133.83,269,-59.00,-10.00,-999.00
2024-06-07 14:56:30.530059,-2,0,2,0,0,0,80,82,130,110,25,134.02,269,-61.00,-12.00,-998.00
2024-06-07 14:56:30.632037,-2,0,2,0,0,0,80,82,132,110,25,133.51,269,-42.00,-5.00,-1002.00
2024-06-07 14:56:30.810725,-2,0,2,0,0,0,80,82,132,110,25,134.02,269,-65.00,2.00,-1021.00
2024-06-07 14:56:30.835922,-2,0,2,0,0,0,80,82,132,110,25,134.02,269,-50.00,-4.00,-1019.00
2024-06-07 14:56:30.887787,-2,0,2,0,0,0,80,82,132,110,25,133.64,269,-43.00,-1.00,-1015.00
2024-06-07 14:56:31.014942,-3,0,2,0,0,0,80,82,131,110,25,133.91,269,-28.00,-7.00,-983.00
2024-06-07 14:56:31.095808,-2,0,3,0,0,0,80,82,130,110,25,133.98,269,-61.00,-12.00,-1000.00
2024-06-07 14:56:31.193099,-2,0,3,0,0,0,80,82,131,110,25,133.63,269,-54.00,-13.00,-997.00
2024-06-07 14:56:31.321826,-2,0,3,0,0,0,80,82,131,110,25,133.93,269,-48.00,-25.00,-989.00
2024-06-07 14:56:31.396897,-2,1,3,0,0,0,80,82,132,110,25,133.91,270,-52.00,-14.00,-1001.00
2024-06-07 14:56:31.527824,-1,1,3,0,0,0,80,82,132,110,25,133.90,270,-49.00,0.00,-1033.00
2024-06-07 14:56:31.602279,-1,1,3,0,0,0,80,82,132,110,24,133.69,270,-55.00,-1.00,-1004.00
2024-06-07 14:56:31.731282,-2,0,3,0,0,0,80,82,132,110,24,133.80,270,-37.00,-7.00,-1015.00
2024-06-07 14:56:31.805007,-2,0,3,0,0,0,80,82,131,110,24,133.72,270,-39.00,0.00,-1000.00
2024-06-07 14:56:31.936920,-2,0,3,0,0,0,80,82,132,110,24,133.84,270,-42.00,4.00,-996.00
2024-06-07 14:56:32.008981,-2,0,3,0,0,0,80,82,133,110,24,133.96,270,-38.00,-3.00,-998.00
2024-06-07 14:56:32.141639,-2,0,3,0,0,0,80,82,131,110,24,133.99,270,-53.00,18.00,-987.00
2024-06-07 14:56:32.212897,-2,0,3,0,0,0,80,82,133,110,24,134.01,270,-42.00,-7.00,-995.00
2024-06-07 14:56:32.345843,-2,0,3,0,0,0,80,82,133,110,24,134.03,270,-36.00,-6.00,-994.00
2024-06-07 14:56:32.417503,-2,0,3,0,0,0,80,82,132,110,24,133.92,271,-37.00,1.00,-986.00
2024-06-07 14:56:32.550548,-1,0,3,0,0,0,80,82,132,110,24,133.84,271,-37.00,-8.00,-1004.00
2024-06-07 14:56:32.621473,-1,0,3,0,0,0,80,82,132,110,24,134.07,271,-25.00,-13.00,-995.00
2024-06-07 14:56:32.722839,-1,0,3,0,0,0,80,82,133,110,24,134.15,271,-36.00,0.00,-997.00
2024-06-07 14:56:32.824815,-1,0,3,0,0,0,80,82,133,110,24,133.54,271,-38.00,-4.00,-1004.00
2024-06-07 14:56:32.926896,-1,0,3,0,0,0,80,82,131,110,24,133.91,271,-34.00,6.00,-1013.00
2024-06-07 14:56:33.028985,-1,0,3,0,0,0,80,82,131,110,24,133.76,271,-31.00,14.00,-1012.00
2024-06-07 14:56:33.268107,-1,0,3,0,0,0,80,82,133,110,24,133.78,271,-38.00,12.00,-1007.00
2024-06-07 14:56:33.268304,-1,0,3,0,0,0,80,82,133,110,24,133.91,271,-33.00,-5.00,-998.00
2024-06-07 14:56:33.334802,-1,0,3,0,0,0,80,82,132,110,24,133.84,271,-23.00,-10.00,-998.00
2024-06-07 14:56:33.436784,-1,0,3,0,0,0,80,82,133,110,24,133.80,272,-33.00,-9.00,-1008.00
2024-06-07 14:56:33.540899,-1,0,3,0,0,0,80,82,133,110,24,134.08,272,-36.00,-7.00,-996.00
2024-06-07 14:56:33.640813,-2,0,3,0,0,0,79,82,133,110,24,133.81,272,-30.00,-3.00,-1008.00
2024-06-07 14:56:33.779450,-1,0,2,0,0,0,79,82,133,110,24,133.71,272,-40.00,-6.00,-996.00
2024-06-07 14:56:33.844690,-2,0,3,0,0,0,79,82,133,110,24,134.12,272,-27.00,-6.00,-992.00
2024-06-07 14:56:33.984855,-2,0,3,0,0,0,79,82,132,110,24,134.07,272,-47.00,9.00,-1003.00
2024-06-07 14:56:34.051653,-2,0,3,0,0,0,79,82,135,110,24,134.17,272,-42.00,2.00,-988.00
2024-06-07 14:56:34.150906,-2,0,3,0,0,0,79,82,133,110,24,134.18,272,-36.00,2.00,-1017.00
2024-06-07 14:56:34.291314,-2,0,3,0,0,0,79,82,133,110,24,134.22,272,-37.00,1.00,-1000.00
2024-06-07 14:56:34.354958,-2,0,3,0,0,0,79,82,132,110,24,133.88,272,-67.00,6.00,-1001.00
2024-06-07 14:56:34.496230,-2,0,2,0,0,0,79,82,133,110,24,133.96,273,-43.00,-4.00,-1002.00
2024-06-07 14:56:34.507894,-2,0,3,0,0,0,79,82,133,110,23,133.97,273,-45.00,-11.00,-996.00
2024-06-07 14:56:34.701078,-2,0,3,0,0,0,80,82,133,110,23,133.83,273,-52.00,-2.00,-998.00
2024-06-07 14:56:34.711640,-2,0,3,0,0,0,80,82,133,110,23,134.36,273,-43.00,3.00,-982.00
2024-06-07 14:56:34.905873,-3,0,3,0,0,0,80,82,134,110,23,134.07,273,-23.00,0.00,-986.00
2024-06-07 14:56:34.915642,-3,0,3,0,0,0,80,82,134,110,23,134.04,273,-30.00,10.00,-1008.00
2024-06-07 14:56:35.110559,-2,0,3,0,0,0,80,82,132,110,23,133.95,273,-31.00,-10.00,-1009.00
2024-06-07 14:56:35.120849,-2,0,3,0,0,0,80,82,134,110,23,133.99,273,-42.00,9.00,-1005.00
2024-06-07 14:56:35.315485,-3,0,3,0,0,0,80,82,135,110,23,133.81,273,-37.00,9.00,-986.00
2024-06-07 14:56:35.323569,-3,0,2,0,0,0,80,82,135,120,23,133.85,273,-59.00,17.00,-986.00
2024-06-07 14:56:35.425928,-3,-1,3,0,0,0,80,82,135,120,23,134.04,274,-54.00,11.00,-982.00
2024-06-07 14:56:35.622796,-2,-1,3,0,0,0,80,82,136,120,23,134.19,274,-55.00,19.00,-985.00
2024-06-07 14:56:35.632499,-2,-1,3,0,0,0,80,82,136,120,23,134.06,274,-40.00,13.00,-990.00
2024-06-07 14:56:35.736755,-3,-1,3,0,0,0,80,82,135,120,23,133.77,274,-41.00,13.00,-1000.00
2024-06-07 14:56:35.834695,-2,0,3,0,0,0,80,82,136,120,23,133.96,274,-33.00,15.00,-1006.00
2024-06-07 14:56:36.032112,-2,-1,3,0,0,0,80,82,135,120,23,133.87,274,-50.00,12.00,-994.00
2024-06-07 14:56:36.040241,-2,-1,3,0,0,0,80,82,134,120,23,133.98,274,-43.00,11.00,-998.00
2024-06-07 14:56:36.140594,-2,-1,3,0,0,0,80,82,134,120,23,134.24,274,-36.00,8.00,-1011.00
2024-06-07 14:56:36.242696,-2,-1,3,0,0,0,80,82,134,120,23,133.66,274,-47.00,13.00,-990.00
2024-06-07 14:56:36.344955,-2,0,3,0,0,0,80,82,134,120,23,134.31,274,-30.00,24.00,-989.00
2024-06-07 14:56:36.453265,-2,-1,3,0,0,0,80,82,135,120,23,134.33,275,-41.00,19.00,-992.00
2024-06-07 14:56:36.550324,-1,-1,3,0,0,0,80,82,134,110,23,134.21,275,-35.00,20.00,-1019.00
2024-06-07 14:56:36.652009,-1,-1,3,0,0,0,79,82,133,110,23,134.00,275,-33.00,14.00,-1001.00
2024-06-07 14:56:36.851544,-1,-1,3,0,0,0,79,82,133,110,23,134.01,275,-32.00,13.00,-1009.00
2024-06-07 14:56:36.856308,-1,-1,3,0,0,0,79,82,134,110,23,134.24,275,-39.00,27.00,-1014.00
2024-06-07 14:56:36.959886,-2,-1,3,0,0,0,79,82,134,110,23,133.83,275,-32.00,23.00,-988.00
2024-06-07 14:56:37.059746,-2,-1,3,0,0,0,79,82,134,110,23,134.23,275,-31.00,36.00,-1001.00
2024-06-07 14:56:37.261791,-2,-1,3,0,0,0,79,82,134,110,23,133.84,275,-37.00,40.00,-1014.00
2024-06-07 14:56:37.272616,-2,-1,3,0,0,0,79,82,135,120,23,134.20,275,-48.00,40.00,-997.00
2024-06-07 14:56:37.365630,-2,-1,3,0,0,0,79,82,134,120,23,134.17,275,-40.00,35.00,-989.00
2024-06-07 14:56:37.467579,-2,-1,3,0,0,0,79,82,133,120,23,134.12,276,-44.00,35.00,-1004.00
2024-06-07 14:56:37.569585,-2,-1,3,0,0,0,79,82,134,120,23,133.95,276,-45.00,28.00,-991.00
2024-06-07 14:56:37.671658,-2,-1,3,0,0,0,80,82,134,120,23,134.29,276,-41.00,27.00,-993.00
2024-06-07 14:56:37.776149,-2,-1,3,0,0,0,80,82,135,110,23,134.47,276,-28.00,26.00,-1007.00
