TS,pitch,roll,yaw,vgx,vgy,vgz,templ,temph,tof,h,bat,baro,time,agx,agy,agz
2024-06-07 14:58:06.018167,1,0,21,0,0,0,76,78,10,0,100,132.99,0,28.00,-8.00,-999.00
2024-06-07 14:58:06.061751,1,0,21,0,0,0,76,78,10,0,100,132.86,0,29.00,-9.00,-998.00
2024-06-07 14:58:06.163594,1,0,21,0,0,0,76,78,10,0,100,132.80,0,29.00,-8.00,-1000.00
2024-06-07 14:58:06.325502,1,0,21,0,0,0,76,78,10,0,100,132.80,0,29.00,-9.00,-997.00
2024-06-07 14:58:06.367484,1,0,21,0,0,0,76,78,10,0,100,132.92,0,30.00,-9.00,-998.00
2024-06-07 14:58:06.530236,1,0,21,0,0,0,76,78,10,0,100,132.75,0,29.00,-9.00,-998.00
2024-06-07 14:58:06.571306,1,0,21,0,0,0,76,78,10,0,100,132.76,0,28.00,-8.00,-1000.00
2024-06-07 14:58:06.736950,1,0,21,0,0,0,76,78,10,0,100,132.93,0,30.00,-8.00,-999.00
2024-06-07 14:58:06.775564,1,0,21,0,0,0,76,78,10,0,100,132.63,0,28.00,-10.00,-1000.00
2024-06-07 14:58:06.939920,1,0,21,0,0,0,76,78,10,0,100,132.60,0,29.00,-9.00,-1001.00
2024-06-07 14:58:06.980680,1,0,21,0,0,0,76,78,10,0,100,132.76,0,30.00,-9.00,-1000.00
2024-06-07 14:58:07.144801,1,0,21,0,0,0,76,78,10,0,100,132.78,0,30.00,-10.00,-998.00
2024-06-07 14:58:07.184863,1,0,21,0,0,0,76,78,10,0,100,132.73,0,28.00,-9.00,-997.00
2024-06-07 14:58:07.349559,1,0,21,0,0,0,76,78,10,0,100,132.89,0,30.00,-9.00,-1000.00
2024-06-07 14:58:07.388774,1,0,21,0,0,0,76,78,10,0,100,132.67,0,29.00,-10.00,-1001.00
2024-06-07 14:58:07.554351,1,0,21,0,0,0,76,78,10,0,100,132.90,0,30.00,-10.00,-999.00
2024-06-07 14:58:07.592769,1,0,21,0,0,0,76,78,10,0,100,132.82,0,31.00,-8.00,-1003.00
2024-06-07 14:58:07.759238,1,0,21,0,0,0,76,78,10,0,100,133.07,0,29.00,-11.00,-1000.00
2024-06-07 14:58:07.796771,1,0,21,0,0,0,76,78,10,0,100,132.81,0,29.00,-10.00,-999.00
2024-06-07 14:58:07.963944,1,0,21,0,0,0,76,78,10,0,100,132.84,0,29.00,-9.00,-1000.00
2024-06-07 14:58:08.003910,1,0,21,0,0,0,76,78,10,0,100,132.92,0,30.00,-10.00,-1001.00
2024-06-07 14:58:08.102740,1,0,21,0,0,0,76,78,10,0,100,133.00,0,30.00,-9.00,-1000.00
2024-06-07 14:58:08.271213,1,0,21,0,0,0,76,78,10,0,100,132.94,0,29.00,-9.00,-1000.00
2024-06-07 14:58:08.307271,1,0,21,0,0,0,76,78,10,0,100,132.77,0,29.00,-10.00,-1001.00
2024-06-07 14:58:08.475842,1,0,21,0,0,0,76,78,10,0,100,132.80,0,31.00,-11.00,-999.00
2024-06-07 14:58:08.476347,1,0,21,0,0,0,76,78,10,0,100,132.73,0,29.00,-9.00,-998.00
2024-06-07 14:58:08.561463,1,0,21,0,0,0,76,78,10,0,100,132.96,0,30.00,-10.00,-1001.00
2024-06-07 14:58:08.663644,1,0,21,0,0,0,76,78,10,0,100,132.78,0,29.00,-10.00,-998.00
2024-06-07 14:58:08.765676,1,0,21,0,0,0,76,78,10,0,100,133.14,0,29.00,-10.00,-999.00
2024-06-07 14:58:08.867462,1,0,21,0,0,0,76,78,10,0,100,133.02,0,28.00,-9.00,-999.00
2024-06-07 14:58:08.970864,1,0,21,0,0,0,76,78,10,0,100,132.78,0,29.00,-10.00,-1000.00
2024-06-07 14:58:09.071368,1,0,21,0,0,0,76,78,10,0,100,132.84,0,28.00,-9.00,-1000.00
2024-06-07 14:58:09.194642,1,0,21,0,0,0,76,78,10,0,100,132.95,0,28.00,-10.00,-999.00
2024-06-07 14:58:09.275541,1,0,21,0,0,0,76,78,10,0,100,132.81,0,28.00,-10.00,-1001.00
2024-06-07 14:58:09.399052,1,0,21,0,0,0,76,78,10,0,100,132.99,0,30.00,-9.00,-1000.00
2024-06-07 14:58:09.479574,1,0,21,0,0,0,76,78,10,0,100,132.82,0,30.00,-9.00,-1001.00
2024-06-07 14:58:09.581313,1,0,21,0,0,0,76,78,10,0,100,132.88,0,30.00,-10.00,-1000.00
2024-06-07 14:58:09.704589,1,0,21,0,0,0,76,78,10,0,100,132.96,0,26.00,-10.00,-1000.00
2024-06-07 14:58:09.785225,1,0,21,0,0,0,76,78,10,0,100,132.89,0,34.00,-8.00,-999.00
2024-06-07 14:58:09.909328,1,0,21,0,0,0,76,78,10,0,100,132.89,0,32.00,0.00,-998.00
2024-06-07 14:58:09.989273,1,0,21,0,0,0,76,78,10,0,100,132.89,0,43.00,16.00,-1006.00
2024-06-07 14:58:10.114149,0,0,21,0,0,0,76,78,10,0,100,132.89,0,15.00,-6.00,-1081.00
2024-06-07 14:58:10.193296,-1,0,21,0,0,-1,76,78,10,0,100,132.89,0,2.00,0.00,-1199.00
2024-06-07 14:58:10.318939,0,0,21,0,0,-3,76,78,10,0,100,132.89,0,18.00,24.00,-1323.00
2024-06-07 14:58:10.397414,1,0,21,0,0,-6,77,79,13,0,100,132.89,0,22.00,12.00,-1178.00
2024-06-07 14:58:10.523874,2,-1,21,0,0,-7,77,79,21,10,100,132.98,0,13.00,28.00,-1070.00
2024-06-07 14:58:10.601536,1,-1,21,0,0,-8,77,79,29,20,100,133.53,0,15.00,23.00,-1016.00
2024-06-07 14:58:10.728614,1,-1,21,0,0,-8,77,79,37,20,100,133.62,1,18.00,23.00,-947.00
2024-06-07 14:58:10.805102,1,-1,21,0,0,-7,77,79,44,30,100,133.70,1,7.00,30.00,-914.00
2024-06-07 14:58:10.933534,0,-2,21,0,0,-6,77,79,52,40,100,133.83,1,13.00,25.00,-887.00
2024-06-07 14:58:11.009274,0,-2,21,0,0,-5,77,79,58,40,100,133.55,1,10.00,20.00,-880.00
2024-06-07 14:58:11.138145,0,-2,21,0,0,-4,77,79,63,50,100,133.70,1,10.00,20.00,-892.00
2024-06-07 14:58:11.213323,0,-2,21,0,0,-2,77,79,66,50,100,133.91,1,5.00,29.00,-903.00
2024-06-07 14:58:11.343233,0,-2,21,0,0,-2,77,79,69,50,100,134.00,1,13.00,31.00,-920.00
2024-06-07 14:58:11.417385,0,-2,21,0,0,-1,77,79,72,50,100,133.59,1,22.00,22.00,-915.00
2024-06-07 14:58:11.548105,0,-1,21,0,0,-1,77,79,73,60,100,133.98,1,14.00,21.00,-933.00
2024-06-07 14:58:11.622118,0,-1,21,0,0,0,77,79,75,60,100,133.60,1,24.00,23.00,-959.00
2024-06-07 14:58:11.672389,0,-1,21,0,0,0,77,79,76,60,100,133.78,2,8.00,35.00,-974.00
2024-06-07 14:58:11.854863,0,-1,21,0,0,0,77,79,77,60,100,133.98,2,22.00,31.00,-992.00
2024-06-07 14:58:11.876432,1,-1,21,0,0,0,77,79,79,60,100,133.82,2,24.00,20.00,-989.00
2024-06-07 14:58:11.978358,1,-1,21,0,0,0,77,79,80,60,100,133.96,2,20.00,24.00,-986.00
2024-06-07 14:58:12.080485,1,-1,21,0,0,0,77,79,80,60,100,133.58,2,25.00,26.00,-991.00
2024-06-07 14:58:12.208004,1,-1,21,0,0,0,77,79,81,60,100,133.84,2,27.00,21.00,-997.00
2024-06-07 14:58:12.285105,1,-1,21,0,0,0,77,79,82,60,100,133.71,2,21.00,26.00,-981.00
2024-06-07 14:58:12.469392,1,-1,21,0,0,0,77,79,83,60,100,134.01,2,27.00,23.00,-987.00
2024-06-07 14:58:12.488266,1,-1,21,0,0,0,77,79,83,70,100,133.93,2,29.00,25.00,-995.00
2024-06-07 14:58:12.674136,1,-1,21,0,0,0,77,79,84,70,100,133.72,2,18.00,31.00,-994.00
2024-06-07 14:58:12.692309,1,-1,21,0,0,0,77,79,84,70,100,133.78,3,23.00,28.00,-993.00
2024-06-07 14:58:12.879946,1,-1,21,0,0,0,77,79,84,70,100,134.01,3,23.00,40.00,-999.00
2024-06-07 14:58:12.896338,1,-1,21,0,0,0,77,79,85,70,100,133.63,3,20.00,32.00,-990.00
2024-06-07 14:58:12.998180,1,-1,21,0,0,0,77,79,85,70,100,133.80,3,23.00,26.00,-974.00
2024-06-07 14:58:13.106122,1,-1,21,0,0,0,77,79,85,70,100,133.89,3,15.00,34.00,-983.00
2024-06-07 14:58:13.202249,1,-1,21,0,0,0,77,79,85,70,100,133.56,3,20.00,39.00,-1003.00
2024-06-07 14:58:13.390880,1,-1,21,0,0,0,77,79,85,70,100,133.90,3,16.00,30.00,-986.00
2024-06-07 14:58:13.406602,1,-1,21,0,0,0,77,79,85,70,100,133.70,3,13.00,26.00,-982.00
2024-06-07 14:58:13.595734,1,-1,21,0,0,0,77,79,85,70,100,134.25,3,24.00,32.00,-996.00
2024-06-07 14:58:13.610317,0,-1,21,0,0,0,77,79,85,70,100,134.00,3,14.00,39.00,-995.00
2024-06-07 14:58:13.801347,1,-1,21,0,0,0,77,79,84,70,100,133.90,4,21.00,41.00,-1009.00
2024-06-07 14:58:13.814401,0,-1,21,0,0,0,77,79,84,70,100,134.17,4,26.00,31.00,-1002.00
2024-06-07 14:58:14.005329,0,-1,21,0,0,0,77,79,84,70,100,134.05,4,37.00,33.00,-1012.00
2024-06-07 14:58:14.018229,1,-1,21,0,0,0,77,79,84,70,100,133.87,4,31.00,36.00,-1005.00
2024-06-07 14:58:14.210129,1,-1,21,0,0,0,77,79,84,70,100,133.76,4,11.00,37.00,-989.00
2024-06-07 14:58:14.222238,0,-1,21,0,0,0,77,79,84,70,100,133.63,4,24.00,32.00,-1000.00
2024-06-07 14:58:14.414873,0,-1,21,0,0,0,77,79,83,70,100,133.82,4,11.00,40.00,-1014.00
2024-06-07 14:58:14.426434,0,-1,21,0,0,0,77,79,83,70,100,134.11,4,9.00,31.00,-987.00
2024-06-07 14:58:14.619992,0,-2,21,0,0,0,77,79,83,70,100,133.75,4,15.00,32.00,-1011.00
2024-06-07 14:58:14.630163,0,-1,21,0,0,0,77,79,83,70,100,133.82,4,4.00,39.00,-1001.00
2024-06-07 14:58:14.824536,0,-1,21,0,0,0,77,79,82,70,100,133.90,5,8.00,30.00,-1001.00
2024-06-07 14:58:14.834152,0,-1,21,0,0,0,77,79,82,70,100,133.73,5,-5.00,30.00,-988.00
2024-06-07 14:58:15.029297,0,-1,21,0,0,0,77,79,81,70,100,133.61,5,15.00,29.00,-1017.00
2024-06-07 14:58:15.038186,0,-1,21,0,0,0,77,79,83,70,100,133.81,5,8.00,40.00,-1003.00
2024-06-07 14:58:15.141150,0,-1,21,0,0,0,77,79,82,70,100,133.85,5,-2.00,34.00,-990.00
2024-06-07 14:58:15.336581,0,-1,21,0,0,0,77,79,83,70,100,133.71,5,2.00,30.00,-991.00
2024-06-07 14:58:15.344255,0,-1,21,0,0,0,77,79,82,70,100,133.85,5,3.00,24.00,-992.00
2024-06-07 14:58:15.447481,0,-1,21,0,0,0,76,78,82,70,100,133.74,5,7.00,31.00,-1001.00
2024-06-07 14:58:15.548322,0,-1,21,0,0,0,76,78,83,70,100,133.81,5,14.00,25.00,-995.00
2024-06-07 14:58:15.746352,0,-1,21,0,0,0,76,78,82,70,100,133.72,5,8.00,33.00,-994.00
2024-06-07 14:58:15.746392,0,-1,21,0,0,0,76,78,82,70,100,133.77,6,21.00,17.00,-992.00
2024-06-07 14:58:15.803079,0,-1,21,0,0,0,76,78,82,70,100,133.63,6,13.00,36.00,-1014.00
2024-06-07 14:58:15.951330,0,-1,21,0,0,0,76,78,83,70,100,134.24,6,12.00,21.00,-988.00
2024-06-07 14:58:16.006952,0,-1,21,0,0,0,76,78,82,70,100,133.83,6,6.00,39.00,-1011.00
2024-06-07 14:58:16.155798,0,-1,21,0,0,0,76,78,83,70,100,133.85,6,21.00,21.00,-991.00
2024-06-07 14:58:16.210968,0,-1,21,0,0,0,76,78,83,70,100,134.07,6,16.00,29.00,-987.00
2024-06-07 14:58:16.360505,0,-1,21,0,0,0,76,78,83,70,100,133.69,6,24.00,37.00,-1008.00
2024-06-07 14:58:16.415318,0,-1,21,0,0,0,76,79,83,70,100,133.89,6,13.00,39.00,-999.00
2024-06-07 14:58:16.565356,0,-1,21,0,0,0,76,79,83,70,100,133.96,6,20.00,38.00,-998.00
2024-06-07 14:58:16.618946,1,-1,21,0,0,0,76,79,83,70,100,133.94,6,10.00,43.00,-1018.00
2024-06-07 14:58:16.720909,1,-1,21,0,0,0,76,79,83,70,100,133.96,7,6.00,28.00,-985.00
2024-06-07 14:58:16.872591,0,-1,21,0,0,0,76,79,83,70,100,133.83,7,8.00,26.00,-985.00
2024-06-07 14:58:16.924901,0,-1,21,0,0,0,76,79,83,70,100,133.89,7,8.00,24.00,-984.00
2024-06-07 14:58:17.026848,0,-1,21,0,0,0,76,79,82,70,100,134.03,7,7.00,29.00,-995.00
2024-06-07 14:58:17.179755,0,-1,21,0,0,0,76,79,83,70,100,133.77,7,11.00,23.00,-995.00
2024-06-07 14:58:17.230968,0,-1,21,0,0,0,76,79,83,70,100,133.63,7,15.00,22.00,-1004.00
2024-06-07 14:58:17.384546,0,-1,21,0,0,0,76,79,82,70,100,133.99,7,18.00,30.00,-1004.00
2024-06-07 14:58:17.435139,0,-1,21,0,0,0,76,78,83,70,100,133.76,7,17.00,23.00,-993.00
2024-06-07 14:58:17.589334,0,-1,21,0,0,0,76,78,83,70,100,133.78,7,14.00,31.00,-985.00
2024-06-07 14:58:17.638841,0,-1,21,0,0,0,76,78,83,70,100,133.78,7,21.00,23.00,-992.00
2024-06-07 14:58:17.740973,0,-1,21,0,0,0,76,78,83,70,100,133.98,8,23.00,26.00,-993.00
2024-06-07 14:58:17.896432,0,-1,21,0,0,0,76,78,83,70,100,133.79,8,22.00,24.00,-996.00
2024-06-07 14:58:17.944831,1,-1,21,0,0,0,76,78,83,70,100,133.72,8,13.00,30.00,-989.00
2024-06-07 14:58:18.056525,1,-1,21,0,0,0,76,78,84,70,100,133.92,8,23.00,22.00,-992.00
2024-06-07 14:58:18.149000,1,-1,21,0,0,0,76,78,84,70,100,133.78,8,19.00,21.00,-989.00
2024-06-07 14:58:18.306037,1,-1,21,0,0,0,76,78,83,70,100,133.85,8,14.00,27.00,-996.00
2024-06-07 14:58:18.352904,1,-1,21,0,0,0,76,78,84,70,100,134.10,8,6.00,26.00,-986.00
2024-06-07 14:58:18.454908,1,-1,21,0,0,0,76,79,84,70,100,133.92,8,8.00,28.00,-985.00
2024-06-07 14:58:18.613395,1,-1,21,0,0,0,76,79,84,70,100,133.66,8,21.00,29.00,-996.00
2024-06-07 14:58:18.658966,1,-1,21,0,0,0,76,79,83,70,100,134.01,8,15.00,36.00,-992.00
2024-06-07 14:58:18.818305,1,-1,21,0,0,0,76,79,84,70,100,133.89,9,14.00,18.00,-979.00
2024-06-07 14:58:18.862890,1,-1,21,0,0,0,76,79,84,70,100,133.76,9,6.00,25.00,-978.00
2024-06-07 14:58:19.023085,1,-1,21,0,0,0,76,79,84,70,100,134.11,9,8.00,36.00,-985.00
2024-06-07 14:58:19.068145,1,-1,21,0,0,0,76,79,83,70,100,133.65,9,13.00,30.00,-992.00
2024-06-07 14:58:19.227733,1,-1,21,0,0,0,76,79,84,70,100,133.76,9,21.00,24.00,-1006.00
2024-06-07 14:58:19.272078,1,-1,21,0,0,0,76,79,84,70,100,133.79,9,24.00,25.00,-1008.00
2024-06-07 14:58:19.323425,1,-1,21,0,0,0,76,79,84,70,100,133.53,9,11.00,26.00,-997.00
2024-06-07 14:58:19.476170,1,-1,21,0,0,0,76,77,83,70,100,133.83,9,27.00,31.00,-1014.00
2024-06-07 14:58:19.638033,1,-1,21,0,0,0,76,77,84,70,100,133.75,9,28.00,24.00,-998.00
2024-06-07 14:58:19.638215,1,-1,21,0,0,0,76,77,84,70,100,134.03,9,24.00,26.00,-1007.00
2024-06-07 14:58:19.730988,1,-1,21,0,0,0,76,77,84,70,100,134.06,10,22.00,30.00,-995.00
2024-06-07 14:58:19.842677,1,-1,21,0,0,0,76,77,84,70,100,134.13,10,27.00,28.00,-983.00
2024-06-07 14:58:19.938510,1,-1,21,0,0,0,76,77,84,70,100,134.09,10,17.00,27.00,-991.00
2024-06-07 14:58:20.037216,1,-1,21,0,0,0,76,77,84,70,100,133.86,10,26.00,42.00,-1009.00
2024-06-07 14:58:20.149486,1,-1,21,0,0,0,76,77,84,70,100,133.82,10,30.00,26.00,-1005.00
2024-06-07 14:58:20.241534,1,-1,21,0,0,0,76,77,84,70,100,133.95,10,19.00,28.00,-994.00
2024-06-07 14:58:20.343234,1,-1,21,0,0,0,76,77,84,70,100,134.00,10,15.00,22.00,-996.00
2024-06-07 14:58:20.446726,1,-1,21,0,0,0,76,78,84,70,100,133.61,10,16.00,30.00,-1077.00
2024-06-07 14:58:20.548034,1,-1,21,0,0,-1,76,78,85,70,100,133.85,10,28.00,38.00,-1121.00
2024-06-07 14:58:20.652491,1,-1,21,0,0,-2,76,78,86,70,100,133.91,11,27.00,43.00,-1111.00
2024-06-07 14:58:20.750739,1,-1,21,0,0,-2,76,78,89,70,100,133.81,11,10.00,30.00,-1057.00
2024-06-07 14:58:20.866118,1,-2,21,0,0,-3,76,78,92,80,100,133.71,11,7.00,31.00,-1057.00
2024-06-07 14:58:20.954826,1,-2,21,0,0,-4,76,78,96,80,100,134.08,11,15.00,26.00,-1053.00
2024-06-07 14:58:21.061461,0,-1,21,0,0,-4,76,78,100,80,100,133.93,11,12.00,46.00,-1041.00
2024-06-07 14:58:21.158592,0,-1,21,0,0,-5,76,78,106,90,100,134.15,11,8.00,38.00,-1031.00
2024-06-07 14:58:21.277393,0,-2,21,0,0,-5,76,78,111,90,100,134.00,11,-4.00,41.00,-987.00
2024-06-07 14:58:21.362625,0,-2,21,0,0,-5,76,78,116,100,100,134.12,11,6.00,44.00,-1011.00
2024-06-07 14:58:21.464680,0,-2,21,0,0,-5,76,79,123,110,100,134.26,11,7.00,42.00,-988.00
2024-06-07 14:58:21.582842,0,-3,21,0,0,-5,76,79,131,110,100,134.14,11,-6.00,45.00,-987.00
2024-06-07 14:58:21.668619,0,-3,21,0,0,-5,76,79,135,120,100,134.18,12,-3.00,44.00,-967.00
2024-06-07 14:58:21.788535,0,-3,21,0,0,-5,76,79,141,120,100,134.43,12,5.00,49.00,-986.00
2024-06-07 14:58:21.872665,0,-3,21,0,0,-4,76,79,145,130,100,134.23,12,0.00,52.00,-989.00
2024-06-07 14:58:21.974553,0,-3,21,0,0,-4,76,79,151,130,100,134.57,12,3.00,44.00,-963.00
2024-06-07 14:58:22.076661,0,-3,21,0,0,-4,76,79,157,140,100,134.50,12,-2.00,59.00,-964.00
2024-06-07 14:58:22.197229,0,-3,21,0,0,-3,76,79,163,140,100,134.59,12,-9.00,39.00,-950.00
2024-06-07 14:58:22.280541,0,-3,21,0,0,-3,76,79,167,150,100,134.41,12,0.00,29.00,-950.00
2024-06-07 14:58:22.402031,0,-3,21,0,0,-3,76,79,168,150,100,134.91,12,0.00,48.00,-965.00
2024-06-07 14:58:22.485075,0,-2,21,0,0,-2,76,78,172,150,100,134.81,12,0.00,37.00,-954.00
2024-06-07 14:58:22.587199,0,-2,21,0,0,-2,76,78,175,160,100,134.63,12,9.00,48.00,-968.00
2024-06-07 14:58:22.688723,0,-2,21,0,0,-2,76,78,176,160,100,134.81,13,13.00,47.00,-970.00
2024-06-07 14:58:22.811806,0,-2,21,0,0,-1,76,78,177,160,100,134.69,13,0.00,51.00,-969.00
2024-06-07 14:58:22.892738,0,-2,21,0,0,-1,76,78,184,160,100,134.98,13,4.00,44.00,-966.00
2024-06-07 14:58:22.994582,0,-2,21,0,0,-1,76,78,181,160,100,134.73,13,-1.00,48.00,-940.00
2024-06-07 14:58:23.119054,0,-2,21,0,0,0,76,78,184,170,100,134.39,13,2.00,51.00,-962.00
2024-06-07 14:58:23.147960,0,-2,21,0,0,0,76,78,182,170,100,134.54,13,7.00,49.00,-973.00
2024-06-07 14:58:23.323821,0,-2,21,0,0,0,76,78,182,170,100,134.70,13,7.00,56.00,-981.00
2024-06-07 14:58:23.351871,0,-2,21,0,0,0,76,78,182,170,100,134.78,13,14.00,43.00,-995.00
2024-06-07 14:58:23.504690,0,-2,21,0,0,0,76,78,183,170,100,134.51,13,4.00,54.00,-1000.00
2024-06-07 14:58:23.630964,0,-2,21,0,0,0,76,78,184,170,100,134.82,13,-3.00,48.00,-979.00
2024-06-07 14:58:23.708709,0,-2,21,0,0,0,76,78,184,170,100,134.89,14,13.00,43.00,-1003.00
2024-06-07 14:58:23.759845,0,-2,21,0,0,0,76,78,182,170,100,134.49,14,12.00,45.00,-999.00
2024-06-07 14:58:23.938295,0,-2,21,0,0,0,76,78,183,170,100,134.51,14,6.00,43.00,-994.00
2024-06-07 14:58:23.963816,0,-2,21,0,0,0,76,78,182,170,100,134.69,14,3.00,48.00,-995.00
2024-06-07 14:58:24.065949,0,-2,21,0,0,0,76,78,182,170,100,134.60,14,0.00,52.00,-1002.00
2024-06-07 14:58:24.245890,0,-2,21,0,0,0,76,78,185,170,100,134.49,14,15.00,43.00,-995.00
2024-06-07 14:58:24.269746,0,-2,21,0,0,0,76,78,182,170,100,134.63,14,0.00,46.00,-995.00
2024-06-07 14:58:24.450629,0,-2,21,0,0,0,76,78,181,170,100,134.45,14,24.00,34.00,-1000.00
2024-06-07 14:58:24.473690,0,-2,21,0,0,0,76,78,184,170,100,134.57,14,10.00,48.00,-1003.00
2024-06-07 14:58:24.654961,0,-2,21,0,0,0,76,78,184,170,100,134.55,14,31.00,38.00,-1006.00
2024-06-07 14:58:24.677636,1,-2,21,0,0,0,76,78,182,170,100,134.83,15,15.00,44.00,-987.00
2024-06-07 14:58:24.859718,1,-2,21,0,0,0,76,78,184,170,100,134.55,15,19.00,37.00,-1000.00
2024-06-07 14:58:24.881652,1,-2,21,0,0,0,76,78,183,170,100,134.49,15,10.00,49.00,-994.00
2024-06-07 14:58:24.984302,1,-2,21,0,0,0,76,78,184,170,100,134.76,15,7.00,46.00,-999.00
2024-06-07 14:58:25.166812,1,-2,21,0,0,0,76,78,184,170,100,134.47,15,2.00,52.00,-955.00
2024-06-07 14:58:25.188385,1,-2,21,0,0,0,76,78,183,170,100,134.72,15,-9.00,49.00,-930.00
2024-06-07 14:58:25.290354,0,-2,21,0,0,1,76,78,182,170,100,134.67,15,4.00,48.00,-939.00
2024-06-07 14:58:25.474671,0,-2,21,0,0,1,76,78,182,160,100,134.61,15,1.00,37.00,-944.00
2024-06-07 14:58:25.494375,0,-2,21,0,0,2,77,78,177,160,100,134.64,15,0.00,58.00,-968.00
2024-06-07 14:58:25.678803,0,-2,21,0,0,2,77,78,177,160,100,134.61,15,1.00,49.00,-974.00
2024-06-07 14:58:25.698340,0,-2,21,0,0,2,77,78,174,160,100,134.89,16,14.00,41.00,-980.00
2024-06-07 14:58:25.886861,0,-2,21,0,0,2,77,78,170,160,100,134.50,16,6.00,24.00,-968.00
2024-06-07 14:58:25.902312,0,-2,21,0,0,2,77,78,167,150,100,134.46,16,-1.00,39.00,-976.00
2024-06-07 14:58:26.088389,0,-2,21,0,0,2,77,78,164,150,100,134.59,16,8.00,46.00,-1002.00
2024-06-07 14:58:26.106330,0,-2,21,0,0,2,77,78,161,150,100,134.48,16,13.00,43.00,-1012.00
2024-06-07 14:58:26.293195,0,-2,21,0,0,2,77,78,158,140,100,134.63,16,15.00,35.00,-1008.00
2024-06-07 14:58:26.310330,0,-2,21,0,0,2,77,78,158,140,100,134.59,16,2.00,43.00,-1006.00
2024-06-07 14:58:26.498007,0,-2,21,0,0,2,77,78,154,140,100,134.43,16,5.00,43.00,-1005.00
2024-06-07 14:58:26.514311,0,-2,21,0,0,2,76,77,153,140,100,134.38,16,17.00,35.00,-1013.00
2024-06-07 14:58:26.702878,1,-2,21,0,0,2,76,77,150,130,100,134.45,16,21.00,34.00,-1011.00
2024-06-07 14:58:26.718480,1,-2,21,0,0,1,76,77,147,130,100,134.35,17,11.00,61.00,-1017.00
2024-06-07 14:58:26.908212,1,-2,21,0,0,1,76,77,146,130,100,133.95,17,3.00,59.00,-1028.00
2024-06-07 14:58:26.922307,1,-2,21,0,0,1,76,77,144,130,100,134.54,17,16.00,43.00,-1018.00
2024-06-07 14:58:27.024312,1,-2,21,0,0,1,76,77,143,130,100,133.92,17,15.00,57.00,-1009.00
2024-06-07 14:58:27.128331,0,-2,21,0,0,1,76,77,143,130,100,134.33,17,11.00,45.00,-1003.00
2024-06-07 14:58:27.183267,1,-3,21,0,0,1,76,77,140,120,100,134.36,17,-3.00,59.00,-1000.00
2024-06-07 14:58:27.280013,1,-3,21,0,0,1,76,77,139,120,100,134.12,17,-8.00,63.00,-996.00
2024-06-07 14:58:27.419494,1,-3,21,0,0,0,76,77,139,120,100,134.24,17,-11.00,74.00,-1021.00
2024-06-07 14:58:27.483670,1,-3,21,0,0,0,76,78,138,120,100,134.11,17,11.00,59.00,-1010.00
2024-06-07 14:58:27.585935,0,-3,21,0,0,0,76,78,138,120,100,134.29,17,1.00,68.00,-1026.00
2024-06-07 14:58:27.732853,0,-3,21,0,0,0,76,78,137,120,100,134.48,18,-5.00,75.00,-1021.00
2024-06-07 14:58:27.789598,0,-3,21,0,0,0,76,78,137,120,100,134.33,18,3.00,48.00,-999.00
2024-06-07 14:58:27.931737,0,-4,21,0,0,0,76,78,136,120,100,134.39,18,-20.00,63.00,-989.00
2024-06-07 14:58:27.993801,0,-4,21,0,0,0,76,78,136,120,100,134.22,18,-20.00,66.00,-1001.00
2024-06-07 14:58:28.137564,0,-3,21,0,0,0,76,78,136,120,100,134.37,18,-19.00,58.00,-1005.00
2024-06-07 14:58:28.197675,0,-3,21,0,0,0,76,78,137,120,100,134.52,18,-16.00,58.00,-993.00
2024-06-07 14:58:28.341384,0,-4,21,0,0,0,76,78,136,120,100,134.14,18,-15.00,67.00,-1006.00
2024-06-07 14:58:28.401705,0,-4,21,0,0,0,76,78,138,120,100,134.33,18,-18.00,58.00,-993.00
2024-06-07 14:58:28.507918,0,-4,21,0,0,0,76,79,137,120,100,134.12,18,-14.00,60.00,-999.00
2024-06-07 14:58:28.605861,0,-3,21,0,0,0,76,79,138,120,100,134.49,18,-22.00,63.00,-1006.00
2024-06-07 14:58:28.750959,0,-3,21,0,0,0,76,79,138,120,100,134.21,19,-8.00,62.00,-981.00
2024-06-07 14:58:28.809689,-1,-3,21,0,0,0,76,79,138,120,100,134.40,19,-17.00,50.00,-1002.00
2024-06-07 14:58:28.962137,-1,-3,21,0,0,0,76,79,136,120,100,134.46,19,-1.00,51.00,-995.00
2024-06-07 14:58:29.013597,0,-3,21,0,0,0,76,79,137,120,100,134.27,19,-14.00,51.00,-1003.00
2024-06-07 14:58:29.160401,0,-3,21,0,0,0,76,79,136,120,100,134.23,19,-3.00,44.00,-994.00
2024-06-07 14:58:29.217726,0,-3,21,0,0,0,76,79,137,120,100,134.35,19,-15.00,44.00,-975.00
2024-06-07 14:58:29.365700,0,-2,21,0,0,0,76,79,137,120,100,134.07,19,-15.00,49.00,-988.00
2024-06-07 14:58:29.421537,0,-2,21,0,0,0,76,79,138,120,100,134.26,19,-14.00,58.00,-981.00
2024-06-07 14:58:29.523571,0,-2,21,0,0,0,76,78,137,120,100,134.43,19,-5.00,60.00,-991.00
2024-06-07 14:58:29.625554,0,-3,21,0,0,0,76,78,138,120,100,134.41,19,-4.00,44.00,-980.00
2024-06-07 14:58:29.774798,-1,-2,21,0,0,0,76,78,137,120,100,134.39,20,-1.00,52.00,-1000.00
2024-06-07 14:58:29.829631,-6,-2,21,0,0,0,76,78,141,120,100,134.22,20,0.00,51.00,-1001.00
2024-06-07 14:58:29.979494,-8,-2,21,1,0,0,76,78,140,120,100,134.11,20,-12.00,49.00,-993.00
2024-06-07 14:58:30.033293,-8,-2,21,3,1,0,76,78,140,120,100,133.97,20,-11.00,49.00,-1023.00
2024-06-07 14:58:30.136104,-7,-2,21,4,1,0,76,78,138,120,100,134.31,20,-31.00,55.00,-1017.00
2024-06-07 14:58:30.286710,-7,-2,21,5,2,0,76,78,138,120,100,134.18,20,-42.00,43.00,-981.00
2024-06-07 14:58:30.339334,-6,-2,21,6,2,0,76,78,139,120,100,134.28,20,-41.00,40.00,-1000.00
2024-06-07 14:58:30.491468,-5,-2,21,6,2,0,76,78,140,120,100,133.92,20,-38.00,52.00,-999.00
2024-06-07 14:58:30.543351,-5,-2,21,6,2,0,76,79,137,120,100,134.00,20,-55.00,59.00,-989.00
2024-06-07 14:58:30.645479,-2,-2,21,7,2,0,76,79,137,120,100,133.99,20,-40.00,42.00,-993.00
2024-06-07 14:58:30.798784,0,-2,21,6,2,0,76,79,136,120,100,134.26,21,-33.00,48.00,-988.00
2024-06-07 14:58:30.849288,3,-2,21,6,2,0,76,79,137,120,100,134.29,21,-39.00,57.00,-1006.00
2024-06-07 14:58:30.900850,4,-3,20,5,2,0,76,79,137,120,100,134.25,21,-40.00,51.00,-1027.00
2024-06-07 14:58:31.003341,3,-3,21,4,1,0,76,79,138,120,100,134.32,21,-33.00,46.00,-999.00
2024-06-07 14:58:31.104033,2,-3,21,3,1,0,76,79,135,120,100,134.18,21,-27.00,50.00,-986.00
2024-06-07 14:58:31.205956,1,-3,21,3,1,0,76,79,136,120,100,134.63,21,-30.00,43.00,-1000.00
2024-06-07 14:58:31.312225,0,-2,21,3,1,0,76,79,137,120,100,134.27,21,-14.00,35.00,-983.00
2024-06-07 14:58:31.413108,0,-2,21,2,0,0,76,79,136,120,100,134.47,21,-14.00,59.00,-983.00
2024-06-07 14:58:31.513136,0,-3,21,2,0,0,76,78,137,120,100,133.96,21,-27.00,50.00,-1009.00
2024-06-07 14:58:31.615461,0,-4,21,2,0,0,76,78,135,120,100,134.32,21,-15.00,47.00,-1002.00
2024-06-07 14:58:31.716264,1,-3,21,2,0,0,76,78,135,120,100,134.17,22,-14.00,41.00,-997.00
2024-06-07 14:58:31.818100,4,-1,21,1,0,0,76,78,137,120,100,134.42,22,-17.00,48.00,-1007.00
2024-06-07 14:58:31.925334,3,-1,21,0,0,0,76,78,135,120,100,134.07,22,-4.00,38.00,-1015.00
2024-06-07 14:58:32.022177,1,-2,21,0,0,0,76,78,136,120,100,134.44,22,-12.00,44.00,-1004.00
2024-06-07 14:58:32.124276,0,-2,21,0,0,0,76,78,135,120,100,134.19,22,-12.00,37.00,-997.00
2024-06-07 14:58:32.226269,0,-2,21,0,0,0,76,78,136,120,100,134.30,22,-12.00,42.00,-1006.00
2024-06-07 14:58:32.328037,0,-2,21,0,0,0,76,78,136,120,100,134.43,22,-13.00,45.00,-991.00
2024-06-07 14:58:32.430099,0,-2,21,0,0,0,76,78,136,120,100,134.21,22,-11.00,41.00,-999.00
2024-06-07 14:58:32.532134,0,-2,21,0,0,0,76,77,136,120,100,134.15,22,-12.00,41.00,-989.00
2024-06-07 14:58:32.642087,0,-2,21,0,0,0,76,77,136,120,100,134.30,22,-12.00,52.00,-992.00
2024-06-07 14:58:32.736065,0,-2,21,0,0,0,76,77,138,120,100,134.51,23,-25.00,47.00,-989.00
2024-06-07 14:58:32.841054,-1,-2,21,0,0,0,76,77,137,120,100,134.22,23,-27.00,49.00,-998.00
2024-06-07 14:58:32.940207,-1,-2,21,0,0,0,76,77,137,120,100,134.24,23,-22.00,52.00,-999.00
2024-06-07 14:58:33.042074,-1,-2,21,0,0,0,76,77,138,120,100,134.13,23,-20.00,51.00,-1006.00
2024-06-07 14:58:33.144040,-1,-2,21,0,0,0,76,77,137,120,100,134.12,23,-22.00,47.00,-988.00
2024-06-07 14:58:33.256530,-1,-2,21,0,0,0,76,77,137,120,100,134.51,23,-16.00,56.00,-1021.00
2024-06-07 14:58:33.348246,-1,-2,21,0,0,0,76,77,138,120,100,133.98,23,-18.00,42.00,-996.00
2024-06-07 14:58:33.461284,-1,-2,21,0,0,0,76,77,138,120,100,134.33,23,-17.00,47.00,-993.00
2024-06-07 14:58:33.553336,-1,-2,21,0,0,0,76,78,138,120,100,134.22,23,-15.00,45.00,-1001.00
2024-06-07 14:58:33.655290,-1,-2,21,0,0,0,76,78,136,120,100,134.15,23,-26.00,51.00,-986.00
2024-06-07 14:58:33.757879,-1,-2,21,0,0,0,76,78,137,120,100,134.34,24,-18.00,38.00,-988.00
2024-06-07 14:58:33.860340,-1,-2,21,0,0,0,76,78,137,120,100,134.10,24,-24.00,56.00,-986.00
2024-06-07 14:58:33.961198,-1,-2,21,0,0,0,76,78,136,120,100,134.21,24,-15.00,32.00,-982.00
2024-06-07 14:58:34.075486,-1,-2,21,0,0,0,76,78,138,120,100,134.23,24,-11.00,54.00,-1029.00
2024-06-07 14:58:34.166977,0,-2,21,0,0,0,76,78,137,120,100,134.40,24,-9.00,49.00,-995.00
2024-06-07 14:58:34.266935,6,-2,21,0,0,0,76,78,138,120,100,134.31,24,-9.00,50.00,-991.00
2024-06-07 14:58:34.382724,8,-2,21,-1,0,0,76,78,139,120,100,134.29,24,-5.00,55.00,-1015.00
2024-06-07 14:58:34.471074,8,-3,21,-3,0,0,76,78,138,120,100,134.01,24,-1.00,66.00,-1011.00
2024-06-07 14:58:34.572974,7,-3,21,-3,-1,0,77,78,138,120,100,134.25,24,23.00,55.00,-1013.00
2024-06-07 14:58:34.689955,7,-3,21,-4,-1,0,77,78,138,120,100,133.95,24,40.00,37.00,-996.00
2024-06-07 14:58:34.777473,6,-3,21,-5,-2,0,77,78,139,120,100,134.04,25,34.00,31.00,-1009.00
2024-06-07 14:58:34.827804,6,-2,21,-5,-2,0,77,78,137,120,100,134.16,25,34.00,37.00,-989.00
2024-06-07 14:58:34.997626,6,-2,21,-6,-2,0,77,78,139,120,100,134.63,25,29.00,44.00,-1000.00
2024-06-07 14:58:35.031792,5,-2,21,-6,-2,0,77,78,138,120,100,134.54,25,42.00,43.00,-997.00
2024-06-07 14:58:35.201943,2,-2,21,-7,-2,0,77,78,138,120,100,134.38,25,53.00,50.00,-994.00
2024-06-07 14:58:35.235771,0,-2,21,-6,-2,0,77,78,138,120,100,133.92,25,44.00,48.00,-983.00
2024-06-07 14:58:35.406695,-3,-2,21,-5,-2,0,77,78,137,120,100,134.30,25,38.00,53.00,-1003.00
2024-06-07 14:58:35.439881,-4,-2,21,-4,-2,0,77,78,139,120,100,133.93,25,11.00,62.00,-998.00
2024-06-07 14:58:35.541676,-1,-2,21,-3,-1,0,77,78,138,120,100,134.08,25,5.00,38.00,-1002.00
2024-06-07 14:58:35.713946,-1,-3,21,-3,-1,0,77,78,137,120,100,134.34,26,-16.00,39.00,-989.00
2024-06-07 14:58:35.745777,-1,-2,21,-3,-1,0,77,78,137,120,100,134.41,26,-5.00,30.00,-1006.00
2024-06-07 14:58:35.918697,-1,-2,21,-3,-1,0,77,78,137,120,100,134.00,26,-8.00,56.00,-1021.00
2024-06-07 14:58:35.949753,-1,-1,21,-3,-1,0,77,78,138,120,100,134.46,26,-7.00,38.00,-1024.00
2024-06-07 14:58:36.076254,-1,0,21,-3,0,0,77,78,137,120,100,134.57,26,-2.00,44.00,-987.00
2024-06-07 14:58:36.153732,-2,-1,21,-2,0,0,77,78,139,120,100,134.31,26,-5.00,39.00,-1005.00
2024-06-07 14:58:36.328348,-5,-3,21,-2,0,0,77,78,139,120,100,134.18,26,8.00,32.00,-993.00
2024-06-07 14:58:36.357698,-4,-3,21,-1,0,0,77,78,141,120,100,134.33,26,-22.00,41.00,-1006.00
2024-06-07 14:58:36.533012,-3,-3,21,0,0,0,77,78,141,120,100,134.48,26,-35.00,44.00,-984.00
2024-06-07 14:58:36.561825,-2,-2,21,0,0,0,76,78,141,120,100,133.91,26,-37.00,46.00,-982.00
2024-06-07 14:58:36.739021,-1,-2,21,0,0,0,76,78,141,120,100,134.35,27,-23.00,47.00,-986.00
2024-06-07 14:58:36.765865,-1,-2,21,0,0,0,76,78,141,120,100,133.89,27,-25.00,28.00,-973.00
2024-06-07 14:58:36.942929,-2,-2,21,0,0,0,76,78,141,120,100,134.17,27,-14.00,43.00,-989.00
2024-06-07 14:58:36.969856,-2,-2,21,0,0,0,76,78,142,120,100,134.45,27,-24.00,51.00,-998.00
2024-06-07 14:58:37.150811,-1,-3,21,0,0,0,76,78,142,120,100,134.20,27,-33.00,51.00,-979.00
2024-06-07 14:58:37.173760,-1,-3,21,0,0,0,76,78,142,120,100,134.42,27,-28.00,52.00,-1012.00
2024-06-07 14:58:37.352692,-1,-3,21,0,0,0,76,78,141,120,100,134.22,27,-23.00,25.00,-993.00
2024-06-07 14:58:37.377808,-1,-2,21,0,0,0,76,78,141,120,100,134.15,27,-39.00,37.00,-986.00
2024-06-07 14:58:37.557843,-1,-2,21,0,0,0,76,78,141,120,100,133.94,27,-38.00,47.00,-975.00
2024-06-07 14:58:37.582582,-1,-2,21,0,0,0,76,79,141,120,100,134.45,27,-34.00,47.00,-997.00
2024-06-07 14:58:37.762041,-1,-2,21,0,0,0,76,79,140,120,100,134.30,28,-30.00,46.00,-993.00
2024-06-07 14:58:37.785728,-1,-3,21,0,0,0,76,79,139,120,100,134.45,28,-33.00,51.00,-1001.00
2024-06-07 14:58:37.887782,-1,-3,21,0,0,0,76,79,139,120,100,134.14,28,-14.00,41.00,-997.00
2024-06-07 14:58:38.069594,0,-2,21,0,0,0,76,79,139,120,100,134.19,28,-24.00,50.00,-1008.00
2024-06-07 14:58:38.091752,0,-2,21,0,0,0,76,79,139,120,100,134.34,28,-22.00,59.00,-994.00
2024-06-07 14:58:38.278922,-1,-3,21,0,0,0,76,79,138,120,100,134.21,28,-45.00,54.00,-995.00
2024-06-07 14:58:38.295721,-1,-3,21,0,0,0,76,79,138,120,100,134.15,28,-25.00,45.00,-976.00
2024-06-07 14:58:38.349081,0,-3,21,0,0,0,76,79,139,120,100,134.16,28,-31.00,65.00,-995.00
2024-06-07 14:58:38.449242,0,-3,21,0,0,0,76,79,138,120,100,134.02,28,-19.00,56.00,-1003.00
2024-06-07 14:58:38.602157,0,-3,21,0,0,0,76,78,138,120,100,134.18,28,-22.00,60.00,-1007.00
2024-06-07 14:58:38.786193,0,-5,21,0,0,0,76,78,140,120,100,134.61,29,-32.00,58.00,-960.00
2024-06-07 14:58:38.805640,0,-9,21,0,0,0,76,78,139,120,100,134.19,29,-39.00,38.00,-998.00
2024-06-07 14:58:38.907878,-1,-8,21,0,-1,0,76,78,139,120,100,134.42,29,-33.00,66.00,-1009.00
2024-06-07 14:58:39.009616,-1,-8,21,0,-2,0,76,78,140,120,100,134.20,29,-40.00,82.00,-1008.00
2024-06-07 14:58:39.060893,-1,-6,21,1,-3,0,76,78,140,120,100,134.15,29,-27.00,60.00,-986.00
2024-06-07 14:58:39.162981,-1,-3,21,1,-3,0,76,78,136,120,100,134.38,29,-31.00,63.00,-988.00
2024-06-07 14:58:39.297936,-1,-2,21,0,-3,0,76,78,138,120,100,134.26,29,-40.00,69.00,-998.00
2024-06-07 14:58:39.366976,-1,-2,21,0,-2,0,76,78,138,120,100,134.56,29,-31.00,76.00,-985.00
2024-06-07 14:58:39.502609,-1,-3,21,0,-2,0,76,78,137,120,100,134.53,29,-19.00,77.00,-1020.00
2024-06-07 14:58:39.571537,-1,-4,21,0,-2,0,76,78,137,120,100,134.10,29,-14.00,58.00,-993.00
2024-06-07 14:58:39.709351,-1,-4,21,0,-2,0,76,78,137,120,100,134.19,30,-18.00,62.00,-988.00
2024-06-07 14:58:39.775597,0,-3,21,1,-2,0,76,78,137,120,100,134.34,30,-24.00,67.00,-992.00
2024-06-07 14:58:39.914472,0,-3,21,1,-2,0,76,78,137,120,100,134.21,30,-19.00,67.00,-999.00
2024-06-07 14:58:39.979565,0,-3,21,0,-2,0,76,78,138,120,100,134.02,30,-10.00,71.00,-1007.00
2024-06-07 14:58:40.117298,0,-3,21,0,-2,0,76,78,137,120,100,134.12,30,-22.00,75.00,-1001.00
2024-06-07 14:58:40.188576,1,-3,21,0,-2,0,76,78,136,120,100,134.37,30,-28.00,67.00,-1005.00
2024-06-07 14:58:40.285583,0,-3,21,0,-2,0,76,78,137,120,100,134.41,30,-22.00,62.00,-1003.00
2024-06-07 14:58:40.430953,0,-3,21,0,-2,0,76,78,137,120,100,134.17,30,-18.00,52.00,-1001.00
2024-06-07 14:58:40.489500,0,-2,21,0,-2,0,76,78,136,120,100,134.29,30,-18.00,65.00,-1008.00
2024-06-07 14:58:40.630838,-1,-1,21,0,-2,0,76,78,136,120,100,134.49,30,-31.00,50.00,-1020.00
2024-06-07 14:58:40.693515,-2,1,21,0,-1,0,76,78,136,120,100,134.20,31,-27.00,61.00,-980.00
2024-06-07 14:58:40.835802,-2,0,21,0,0,0,76,78,137,120,100,134.23,31,-22.00,44.00,-1009.00
2024-06-07 14:58:40.897732,-1,-1,21,0,0,0,76,78,137,120,100,133.96,31,-19.00,43.00,-999.00
2024-06-07 14:58:41.000159,-1,-1,21,0,0,0,76,78,136,120,100,134.53,31,-15.00,35.00,-1002.00
2024-06-07 14:58:41.141378,-1,-2,21,0,0,0,76,78,135,120,100,134.14,31,-15.00,37.00,-1013.00
2024-06-07 14:58:41.204766,-1,-2,21,0,0,0,76,78,135,120,100,134.31,31,-12.00,35.00,-1003.00
2024-06-07 14:58:41.345976,0,-1,21,0,0,0,76,78,136,120,100,134.10,31,-12.00,27.00,-996.00
2024-06-07 14:58:41.408653,0,-2,21,0,0,0,76,78,136,120,100,134.29,31,-22.00,22.00,-1007.00
2024-06-07 14:58:41.550881,0,-1,21,0,0,0,76,78,137,120,100,134.18,31,-20.00,30.00,-1000.00
2024-06-07 14:58:41.614093,0,-1,21,0,0,0,76,78,136,120,100,134.12,31,-37.00,39.00,-996.00
2024-06-07 14:58:41.714494,-1,-1,21,0,0,0,76,78,136,120,100,134.19,32,-20.00,35.00,-992.00
2024-06-07 14:58:41.817838,0,-2,21,0,0,0,76,78,135,120,100,134.43,32,3.00,30.00,-991.00
2024-06-07 14:58:41.917617,0,-2,21,0,0,0,76,78,136,120,100,134.25,32,-24.00,26.00,-987.00
2024-06-07 14:58:42.062846,0,-2,21,0,0,0,76,78,136,120,100,134.27,32,-25.00,38.00,-992.00
2024-06-07 14:58:42.121560,0,-2,21,0,0,0,76,78,135,120,100,134.30,32,5.00,29.00,-995.00
2024-06-07 14:58:42.268216,0,-2,21,0,0,0,76,78,135,120,100,134.43,32,-17.00,59.00,-1016.00
2024-06-07 14:58:42.325542,0,-2,21,0,0,0,76,78,136,120,100,134.48,32,-14.00,37.00,-1003.00
2024-06-07 14:58:42.472533,0,-2,21,0,0,0,76,78,135,120,100,133.97,32,-14.00,25.00,-986.00
2024-06-07 14:58:42.529614,0,-2,21,0,0,0,76,78,137,120,100,134.39,32,-37.00,38.00,-999.00
2024-06-07 14:58:42.682956,0,-2,21,0,0,0,76,78,136,120,100,134.15,32,-28.00,39.00,-990.00
2024-06-07 14:58:42.733503,0,-2,21,0,0,0,76,78,135,120,100,134.22,33,-3.00,34.00,-1009.00
2024-06-07 14:58:42.839264,0,-2,21,0,0,0,76,78,136,120,100,134.27,33,0.00,20.00,-994.00
2024-06-07 14:58:42.886886,0,-2,21,0,0,0,76,78,136,120,100,134.29,33,-1.00,27.00,-997.00
2024-06-07 14:58:42.988935,0,0,21,0,0,0,76,78,136,120,100,134.37,33,-3.00,54.00,-1004.00
2024-06-07 14:58:43.189103,-1,5,21,0,0,0,76,78,137,120,100,134.53,33,-12.00,39.00,-994.00
2024-06-07 14:58:43.192621,-1,4,21,0,2,0,76,78,136,120,100,134.34,33,-28.00,40.00,-1017.00
2024-06-07 14:58:43.294615,0,1,21,-1,3,0,76,78,136,120,100,134.07,33,0.00,17.00,-1009.00
2024-06-07 14:58:43.396342,0,0,21,-1,3,0,76,78,137,120,100,134.45,33,-19.00,28.00,-983.00
2024-06-07 14:58:43.498914,0,-2,21,-1,3,0,76,78,136,120,100,134.17,33,-12.00,2.00,-1004.00
2024-06-07 14:58:43.600629,0,-3,21,0,2,0,77,78,136,120,100,134.34,33,-12.00,6.00,-991.00
2024-06-07 14:58:43.803632,0,-2,21,0,2,0,77,78,135,120,100,134.04,34,0.00,9.00,-996.00
2024-06-07 14:58:43.804852,0,-1,21,0,2,0,77,78,136,120,100,134.34,34,-4.00,20.00,-992.00
2024-06-07 14:58:44.016087,0,-1,20,0,2,0,77,78,135,120,100,134.23,34,8.00,2.00,-993.00
2024-06-07 14:58:44.016121,0,-2,21,0,2,0,77,78,137,120,100,134.35,34,-14.00,0.00,-970.00
2024-06-07 14:58:44.110621,0,-1,21,0,2,0,77,78,136,120,100,134.16,34,-22.00,10.00,-1000.00
2024-06-07 14:58:44.214148,0,-1,21,0,2,0,77,78,136,120,100,134.10,34,-9.00,14.00,-1014.00
2024-06-07 14:58:44.315130,0,-1,21,-1,1,0,77,78,135,120,100,134.67,34,-25.00,7.00,-995.00
2024-06-07 14:58:44.417937,0,0,21,-1,1,0,77,78,135,120,100,134.24,34,-25.00,13.00,-1001.00
2024-06-07 14:58:44.520589,0,0,21,-1,1,0,77,78,135,120,100,134.24,34,0.00,9.00,-1039.00
2024-06-07 14:58:44.620779,0,0,21,-1,1,0,76,78,136,120,100,134.48,34,-19.00,7.00,-997.00
2024-06-07 14:58:44.725765,-2,-3,21,-1,1,0,76,78,137,120,100,134.35,35,-2.00,4.00,-1004.00
2024-06-07 14:58:44.825164,-1,-6,21,0,1,0,76,78,137,120,100,134.51,35,-12.00,26.00,-1018.00
2024-06-07 14:58:44.927609,0,-4,21,0,0,0,76,78,135,120,100,134.45,35,-20.00,23.00,-987.00
2024-06-07 14:58:45.033442,0,-3,21,0,0,0,76,78,137,120,100,134.74,35,-12.00,30.00,-1022.00
2024-06-07 14:58:45.132401,0,-2,21,0,0,0,76,78,136,120,100,134.52,35,-9.00,26.00,-1015.00
2024-06-07 14:58:45.232824,0,-2,21,0,0,0,76,78,137,120,100,134.37,35,-22.00,25.00,-997.00
2024-06-07 14:58:45.339551,0,-2,21,0,0,0,76,78,137,120,100,134.24,35,-22.00,22.00,-987.00
2024-06-07 14:58:45.436816,0,-2,21,0,0,0,76,78,138,120,100,134.39,35,-24.00,18.00,-999.00
2024-06-07 14:58:45.538556,0,-2,21,0,0,0,76,78,137,120,100,134.38,35,-24.00,4.00,-988.00
2024-06-07 14:58:45.640726,0,-1,21,0,0,0,76,77,136,120,100,134.25,35,-38.00,16.00,-984.00
2024-06-07 14:58:45.749631,-1,-1,21,0,0,0,76,77,137,120,100,134.27,36,-16.00,17.00,-991.00
2024-06-07 14:58:45.846388,-1,-1,21,0,0,0,76,77,137,120,100,134.23,36,-16.00,10.00,-990.00
2024-06-07 14:58:45.947937,-1,-1,21,0,0,0,76,77,137,120,100,134.18,36,-18.00,12.00,-1005.00
2024-06-07 14:58:46.048699,-1,0,21,0,0,0,76,77,136,120,100,134.21,36,-31.00,22.00,-1014.00
2024-06-07 14:58:46.150684,-1,0,21,0,0,0,76,77,136,120,100,134.40,36,-38.00,19.00,-990.00
2024-06-07 14:58:46.261200,-1,0,21,0,0,0,76,77,137,120,100,134.51,36,-25.00,10.00,-990.00
2024-06-07 14:58:46.355550,-1,0,21,0,0,0,76,77,136,120,100,134.31,36,-29.00,17.00,-996.00
2024-06-07 14:58:46.405348,-1,0,21,0,0,0,76,77,136,120,100,134.35,36,-27.00,16.00,-979.00
2024-06-07 14:58:46.568908,-1,0,21,0,0,0,76,77,137,120,100,134.33,36,-11.00,4.00,-987.00
2024-06-07 14:58:46.660943,-1,0,21,0,0,0,76,78,137,120,100,134.08,36,-17.00,17.00,-991.00
2024-06-07 14:58:46.773546,-1,0,21,0,0,0,76,78,136,120,100,134.50,37,-25.00,23.00,-998.00
2024-06-07 14:58:46.867827,-1,0,21,0,0,0,76,78,137,120,100,134.36,37,-21.00,29.00,-1012.00
2024-06-07 14:58:46.915207,0,-1,21,0,0,0,76,78,138,120,100,134.57,37,-14.00,28.00,-1005.00
2024-06-07 14:58:47.017231,0,-1,21,0,0,0,76,78,137,120,100,133.95,37,-15.00,38.00,-997.00
2024-06-07 14:58:47.182770,0,-1,27,0,0,0,76,78,136,120,100,134.47,37,-3.00,32.00,-987.00
2024-06-07 14:58:47.221158,0,-1,33,0,0,0,76,78,136,120,100,134.34,37,-11.00,42.00,-991.00
2024-06-07 14:58:47.387791,0,-1,40,0,0,0,76,78,137,120,100,133.96,37,4.00,40.00,-1002.00
2024-06-07 14:58:47.427545,0,-2,46,0,0,0,76,78,136,120,100,134.16,37,0.00,42.00,-997.00
2024-06-07 14:58:47.530020,0,-2,52,0,0,0,76,78,136,120,100,134.41,37,8.00,45.00,-1004.00
2024-06-07 14:58:47.630394,0,-2,57,0,0,0,76,78,136,120,100,134.19,37,6.00,47.00,-1005.00
2024-06-07 14:58:47.731128,0,-2,63,0,0,0,76,78,136,120,100,134.51,38,5.00,57.00,-999.00
2024-06-07 14:58:47.833122,1,-2,69,0,0,0,76,78,135,120,100,134.17,38,15.00,36.00,-988.00
2024-06-07 14:58:48.004025,1,-2,75,0,0,0,76,78,136,120,100,134.13,38,22.00,43.00,-1006.00
2024-06-07 14:58:48.037203,1,-2,81,0,0,0,76,78,135,120,100,134.23,38,20.00,46.00,-998.00
2024-06-07 14:58:48.206706,2,-2,87,0,0,0,76,78,135,120,100,133.87,38,18.00,40.00,-1001.00
2024-06-07 14:58:48.241083,2,-1,92,0,0,0,76,78,135,120,100,134.07,38,23.00,42.00,-1014.00
2024-06-07 14:58:48.412751,2,-1,98,0,0,0,76,78,135,120,100,134.57,38,15.00,47.00,-991.00
2024-06-07 14:58:48.445084,2,-1,105,0,0,0,76,78,136,120,100,134.08,38,29.00,40.00,-1005.00
2024-06-07 14:58:48.547048,3,-1,111,0,0,0,76,78,135,120,100,134.40,38,40.00,34.00,-1006.00
2024-06-07 14:58:48.720154,3,-1,117,0,0,0,77,78,137,120,100,134.59,38,46.00,21.00,-999.00
2024-06-07 14:58:48.751090,3,0,123,0,0,0,77,78,136,120,100,134.29,39,73.00,3.00,-1012.00
2024-06-07 14:58:48.923415,3,0,129,0,0,0,77,78,136,120,100,134.16,39,57.00,12.00,-999.00
2024-06-07 14:58:48.955192,3,0,135,0,0,0,77,78,136,120,100,134.26,39,61.00,-1.00,-992.00
2024-06-07 14:58:49.129680,3,0,141,0,0,0,77,78,137,120,100,134.36,39,57.00,0.00,-989.00
2024-06-07 14:58:49.160169,3,1,147,0,0,0,77,78,138,120,100,134.20,39,55.00,3.00,-988.00
2024-06-07 14:58:49.333037,3,1,153,0,0,0,77,78,137,120,100,134.38,39,58.00,-2.00,-1002.00
2024-06-07 14:58:49.364432,3,1,159,0,0,0,77,78,138,120,100,134.34,39,68.00,-27.00,-999.00
2024-06-07 14:58:49.537867,3,1,165,0,0,0,77,78,137,120,100,134.14,39,63.00,-34.00,-983.00
2024-06-07 14:58:49.568234,3,2,171,0,0,0,77,78,138,120,100,134.40,39,45.00,-30.00,-988.00
2024-06-07 14:58:49.745120,3,3,-176,0,0,0,77,79,140,120,100,134.41,40,61.00,-37.00,-992.00
2024-06-07 14:58:49.772324,2,3,-170,0,0,0,77,79,139,120,100,133.87,40,33.00,-28.00,-979.00
2024-06-07 14:58:49.947924,2,3,-164,0,0,0,77,79,138,120,100,134.38,40,54.00,-45.00,-1000.00
2024-06-07 14:58:49.976830,2,3,-157,0,0,0,77,79,138,120,100,134.62,40,46.00,-45.00,-1017.00
2024-06-07 14:58:50.164317,2,3,-151,0,0,0,77,79,138,120,100,134.63,40,27.00,-44.00,-998.00
2024-06-07 14:58:50.180283,1,3,-145,0,0,0,77,79,139,120,100,134.20,40,17.00,-36.00,-993.00
2024-06-07 14:58:50.459573,1,3,-139,0,0,0,77,79,138,120,100,134.62,40,19.00,-55.00,-1003.00
2024-06-07 14:58:50.459612,0,3,-133,0,0,0,77,79,138,120,100,134.37,40,1.00,-52.00,-999.00
2024-06-07 14:58:50.486218,0,3,-126,0,0,0,77,79,137,120,100,134.16,40,-7.00,-51.00,-1004.00
2024-06-07 14:58:50.537611,0,3,-120,0,0,0,77,79,137,120,100,134.30,40,-10.00,-51.00,-1006.00
2024-06-07 14:58:50.690343,-1,3,-114,0,0,0,76,79,138,120,100,134.22,41,-30.00,-47.00,-997.00
2024-06-07 14:58:50.740967,-1,3,-108,0,0,0,76,79,137,120,100,134.17,41,-27.00,-31.00,-1025.00
2024-06-07 14:58:50.871548,-2,2,-102,0,0,0,76,79,137,120,100,134.21,41,-34.00,-57.00,-991.00
2024-06-07 14:58:50.945018,-2,2,-96,0,0,0,76,79,135,120,100,134.35,41,-39.00,-53.00,-999.00
2024-06-07 14:58:51.075165,-2,2,-90,0,0,0,76,79,137,120,100,134.11,41,-29.00,-47.00,-1017.00
2024-06-07 14:58:51.148943,-2,2,-84,0,0,0,76,79,136,120,100,134.22,41,-47.00,-40.00,-998.00
2024-06-07 14:58:51.278885,-2,2,-78,0,0,0,76,79,137,120,100,134.13,41,-44.00,-35.00,-1001.00
2024-06-07 14:58:51.353688,-3,2,-72,0,0,0,76,79,135,120,100,134.21,41,-38.00,-42.00,-1005.00
2024-06-07 14:58:51.483402,-3,1,-66,0,0,0,76,79,135,120,100,134.12,41,-62.00,-35.00,-983.00
2024-06-07 14:58:51.559204,-3,1,-60,0,0,0,76,79,139,120,100,134.13,41,-59.00,-38.00,-984.00
2024-06-07 14:58:51.659463,-3,1,-55,0,0,0,76,79,136,120,100,134.12,42,-63.00,-15.00,-1001.00
2024-06-07 14:58:51.761084,-3,1,-49,0,0,0,76,79,136,120,100,134.28,42,-67.00,-27.00,-971.00
2024-06-07 14:58:51.862853,-3,1,-43,0,0,0,76,79,138,120,100,133.91,42,-57.00,-12.00,-981.00
2024-06-07 14:58:51.995404,-3,0,-37,0,0,0,76,79,137,120,100,134.31,42,-52.00,4.00,-1012.00
2024-06-07 14:58:52.066906,-3,0,-31,0,0,0,76,79,137,120,100,134.28,42,-57.00,2.00,-994.00
2024-06-07 14:58:52.209543,-3,0,-25,0,0,0,76,79,136,120,100,134.01,42,-64.00,16.00,-999.00
2024-06-07 14:58:52.270817,-3,0,-19,0,0,0,76,79,136,120,100,134.05,42,-63.00,21.00,-989.00
2024-06-07 14:58:52.407411,-3,0,-13,0,0,0,76,79,136,120,100,134.12,42,-60.00,30.00,-1005.00
2024-06-07 14:58:52.475177,-3,-1,-7,0,0,0,76,79,136,120,100,134.24,42,-46.00,35.00,-997.00
2024-06-07 14:58:52.576962,-2,-1,-1,0,0,0,76,79,135,120,100,134.38,42,-51.00,28.00,-980.00
2024-06-07 14:58:52.678836,-2,-1,3,0,0,0,77,79,134,120,100,134.07,43,-48.00,42.00,-1006.00
2024-06-07 14:58:52.814621,-2,-1,7,0,0,0,77,79,135,120,100,133.92,43,-34.00,39.00,-1008.00
2024-06-07 14:58:52.883413,-2,-1,10,0,0,0,77,79,135,120,100,134.17,43,-32.00,31.00,-983.00
2024-06-07 14:58:53.020608,-2,-1,13,0,0,0,77,79,134,120,100,134.27,43,-28.00,44.00,-1011.00
2024-06-07 14:58:53.086830,-1,-1,15,0,0,0,77,79,134,120,100,134.16,43,-38.00,45.00,-1018.00
2024-06-07 14:58:53.224530,-1,-1,16,0,0,0,77,79,134,120,100,133.87,43,-33.00,32.00,-994.00
2024-06-07 14:58:53.290883,-1,-1,17,0,0,0,77,79,132,120,100,134.30,43,-25.00,31.00,-1013.00
2024-06-07 14:58:53.430066,-1,-1,18,0,0,0,77,79,132,120,100,134.14,43,-6.00,30.00,-1015.00
2024-06-07 14:58:53.494792,0,-1,18,0,0,0,77,79,133,120,100,134.02,43,-23.00,24.00,-1012.00
2024-06-07 14:58:53.597222,-1,-1,19,0,0,0,77,79,134,120,100,134.30,43,-23.00,33.00,-986.00
2024-06-07 14:58:53.736843,-1,-1,19,0,0,0,77,79,131,120,100,133.99,44,-12.00,35.00,-1014.00
2024-06-07 14:58:53.800893,0,-1,19,0,0,0,77,79,131,120,100,134.29,44,-21.00,43.00,-996.00
2024-06-07 14:58:53.941226,0,-1,19,0,0,0,77,79,132,120,100,134.48,44,-12.00,21.00,-994.00
2024-06-07 14:58:54.004793,0,-1,19,0,0,0,77,79,131,120,100,134.28,44,-23.00,38.00,-1008.00
2024-06-07 14:58:54.145972,0,-1,19,0,0,0,77,79,132,120,100,134.05,44,-36.00,30.00,-990.00
2024-06-07 14:58:54.209011,0,-1,19,0,0,0,77,79,131,120,100,133.99,44,-34.00,42.00,-1003.00
2024-06-07 14:58:54.350877,-1,-1,19,0,0,0,77,79,132,120,100,134.11,44,-24.00,36.00,-996.00
2024-06-07 14:58:54.412854,-1,-1,19,0,0,0,77,79,133,120,100,134.05,44,-13.00,22.00,-986.00
2024-06-07 14:58:54.464164,-1,-1,19,0,0,0,77,79,132,120,100,133.93,44,-36.00,22.00,-979.00
2024-06-07 14:58:54.565942,-1,-1,19,0,0,0,77,79,132,120,100,134.18,44,-26.00,26.00,-986.00
2024-06-07 14:58:54.760350,-1,-1,19,0,0,0,77,79,133,120,100,134.34,45,-24.00,25.00,-1006.00
2024-06-07 14:58:54.769775,-1,-1,19,0,0,0,77,79,132,120,100,134.49,45,-35.00,24.00,-1005.00
2024-06-07 14:58:54.965103,-1,-1,19,0,0,0,77,79,132,120,100,134.06,45,-34.00,30.00,-1012.00
2024-06-07 14:58:54.974674,-1,-1,19,0,0,0,77,79,133,120,100,134.40,45,-34.00,44.00,-1016.00
2024-06-07 14:58:55.173951,-1,-1,19,0,0,0,77,79,133,120,100,134.34,45,-22.00,31.00,-1001.00
2024-06-07 14:58:55.178719,-1,-1,19,0,0,0,77,79,133,120,100,134.42,45,-27.00,39.00,-1005.00
2024-06-07 14:58:55.374705,-1,-1,19,0,0,0,77,79,134,120,100,134.19,45,-19.00,28.00,-995.00
2024-06-07 14:58:55.382722,-1,-1,19,0,0,0,77,79,133,120,100,134.40,45,-21.00,34.00,-1013.00
2024-06-07 14:58:55.557337,-1,-1,19,0,0,0,77,79,133,120,100,134.15,45,-23.00,25.00,-1013.00
2024-06-07 14:58:55.586689,-1,-1,19,0,0,0,77,79,134,120,100,134.27,45,-40.00,37.00,-989.00
2024-06-07 14:58:55.784579,-1,-1,17,0,0,0,77,79,134,120,100,134.39,46,-17.00,26.00,-990.00
2024-06-07 14:58:55.790723,-1,-1,12,0,0,0,77,79,134,120,100,134.22,46,-44.00,23.00,-982.00
2024-06-07 14:58:55.989441,-1,-1,6,0,0,0,77,79,135,120,100,134.03,46,-43.00,24.00,-981.00
2024-06-07 14:58:55.994641,-1,-1,0,0,0,0,77,79,134,120,100,134.10,46,-31.00,16.00,-1005.00
2024-06-07 14:58:56.193767,-2,0,-5,0,0,0,77,79,134,120,100,134.10,46,-49.00,25.00,-999.00
2024-06-07 14:58:56.198603,-2,0,-11,0,0,0,77,79,135,120,100,134.39,46,-44.00,9.00,-987.00
2024-06-07 14:58:56.300634,-2,0,-17,0,0,0,77,79,136,120,100,134.12,46,-31.00,8.00,-998.00
2024-06-07 14:58:56.501925,-2,0,-23,0,0,0,77,79,134,120,100,134.07,46,-34.00,12.00,-995.00
2024-06-07 14:58:56.504620,-2,0,-29,0,0,0,77,79,135,120,100,134.22,46,-41.00,0.00,-987.00
2024-06-07 14:58:56.606685,-2,0,-34,0,0,0,77,79,136,120,100,134.19,46,-46.00,-5.00,-992.00
2024-06-07 14:58:56.808306,-2,0,-40,0,0,0,77,80,135,120,100,134.12,47,-45.00,-4.00,-985.00
2024-06-07 14:58:56.810605,-2,0,-46,0,0,0,77,80,136,120,100,134.13,47,-44.00,-8.00,-986.00
2024-06-07 14:58:56.912575,-2,1,-52,0,0,0,77,80,135,120,100,134.12,47,-35.00,-8.00,-1003.00
2024-06-07 14:58:57.014632,-2,1,-58,0,0,0,77,80,135,120,100,134.27,47,-32.00,-16.00,-993.00
2024-06-07 14:58:57.116576,-2,1,-64,0,0,0,77,80,135,120,100,134.22,47,-35.00,-17.00,-1002.00
2024-06-07 14:58:57.218571,-2,1,-70,0,0,0,77,80,137,120,100,134.17,47,-29.00,-24.00,-997.00
2024-06-07 14:58:57.423982,-2,1,-76,0,0,0,77,80,136,120,100,134.27,47,-35.00,-25.00,-993.00
2024-06-07 14:58:57.424011,-2,1,-82,0,0,0,77,80,136,120,100,134.52,47,-40.00,-29.00,-985.00
2024-06-07 14:58:57.525489,-1,2,-88,0,0,0,77,80,137,120,100,134.27,47,-21.00,-32.00,-1002.00
2024-06-07 14:58:57.627030,-1,2,-94,0,0,0,77,80,136,120,99,134.52,47,-25.00,-40.00,-1000.00
2024-06-07 14:58:57.729747,0,2,-101,0,0,0,76,79,136,120,99,134.41,48,-16.00,-29.00,-999.00
2024-06-07 14:58:57.832418,0,2,-107,0,0,0,76,79,137,120,99,134.65,48,-10.00,-46.00,-982.00
2024-06-07 14:58:57.932581,0,2,-113,0,0,0,76,79,136,120,99,134.21,48,7.00,-39.00,-1011.00
2024-06-07 14:58:58.035196,0,2,-119,0,0,0,76,79,135,120,99,134.46,48,2.00,-42.00,-1000.00
2024-06-07 14:58:58.139263,0,2,-125,0,0,0,76,79,136,120,99,134.32,48,1.00,-40.00,-997.00
2024-06-07 14:58:58.238823,0,2,-131,0,0,0,76,79,136,120,99,134.35,48,3.00,-30.00,-996.00
2024-06-07 14:58:58.289517,0,2,-137,0,0,0,76,79,137,120,99,134.48,48,19.00,-43.00,-996.00
2024-06-07 14:58:58.446478,1,2,-143,0,0,0,76,79,136,120,99,134.20,48,4.00,-24.00,-994.00
2024-06-07 14:58:58.493501,1,2,-149,0,0,0,76,79,136,120,99,134.57,48,24.00,-37.00,-1005.00
2024-06-07 14:58:58.595415,1,1,-155,0,0,0,76,79,136,120,99,134.20,48,33.00,-41.00,-994.00
2024-06-07 14:58:58.765833,1,2,-161,0,0,0,77,79,137,120,99,134.33,49,30.00,-39.00,-994.00
2024-06-07 14:58:58.799302,2,2,-167,0,0,0,77,79,137,120,99,134.40,49,38.00,-40.00,-994.00
2024-06-07 14:58:58.966700,2,1,-173,0,0,0,77,79,136,120,99,134.12,49,45.00,-37.00,-993.00
2024-06-07 14:58:59.004096,2,1,-179,0,0,0,77,79,136,120,99,134.09,49,47.00,-24.00,-998.00
2024-06-07 14:58:59.163426,3,1,175,0,0,0,77,79,137,120,99,134.33,49,49.00,-28.00,-999.00
2024-06-07 14:58:59.207872,3,1,169,0,0,0,77,79,137,120,99,134.12,49,53.00,-16.00,-997.00
2024-06-07 14:58:59.368199,3,1,163,0,0,0,77,79,137,120,99,134.01,49,51.00,-12.00,-980.00
2024-06-07 14:58:59.411427,3,0,157,0,0,0,77,79,137,120,99,134.34,49,59.00,-2.00,-1010.00
2024-06-07 14:58:59.575101,3,0,151,0,0,0,77,79,136,120,99,134.08,49,47.00,17.00,-1013.00
2024-06-07 14:58:59.615771,3,0,145,0,0,0,77,79,136,120,98,134.40,49,43.00,-3.00,-995.00
2024-06-07 14:58:59.720072,3,0,139,0,0,0,76,79,135,120,98,134.17,50,51.00,0.00,-985.00
2024-06-07 14:58:59.820555,3,0,133,0,0,0,76,79,136,120,98,133.99,50,53.00,4.00,-1001.00
2024-06-07 14:58:59.982545,3,0,127,0,0,0,76,79,137,120,98,134.07,50,54.00,11.00,-1012.00
2024-06-07 14:59:00.023839,3,0,121,0,0,0,76,79,136,120,98,134.27,50,51.00,8.00,-989.00
2024-06-07 14:59:00.195338,3,0,115,0,0,0,76,79,136,120,98,134.27,50,47.00,32.00,-994.00
2024-06-07 14:59:00.227595,3,0,108,0,0,0,76,79,135,120,98,134.33,50,50.00,42.00,-1010.00
2024-06-07 14:59:00.394200,2,-1,102,0,0,0,76,79,135,120,98,134.40,50,38.00,47.00,-1019.00
2024-06-07 14:59:00.432701,2,-1,96,0,0,0,76,79,134,120,98,134.19,50,34.00,42.00,-991.00
2024-06-07 14:59:00.597040,2,-2,90,0,0,0,76,79,136,120,98,134.40,50,27.00,45.00,-997.00
2024-06-07 14:59:00.637188,1,-2,84,0,0,0,76,79,134,120,98,134.26,50,29.00,40.00,-1004.00
2024-06-07 14:59:00.739895,1,-2,78,0,0,0,77,80,134,120,98,134.43,51,33.00,46.00,-1012.00
2024-06-07 14:59:00.840262,1,-2,72,0,0,0,77,80,135,120,98,133.83,51,15.00,40.00,-996.00
2024-06-07 14:59:00.941388,0,-2,66,0,0,0,77,80,133,120,98,134.18,51,13.00,44.00,-998.00
2024-06-07 14:59:01.044156,0,-2,60,0,0,0,77,80,134,120,98,134.23,51,4.00,38.00,-1013.00
2024-06-07 14:59:01.218239,0,-1,54,0,0,0,77,80,133,120,98,134.26,51,1.00,35.00,-1009.00
2024-06-07 14:59:01.267457,0,-1,48,0,0,0,77,80,132,120,98,134.33,51,0.00,29.00,-1006.00
2024-06-07 14:59:01.349365,0,-1,42,0,0,0,77,80,132,120,98,134.34,51,-8.00,30.00,-1010.00
2024-06-07 14:59:01.518685,0,-1,37,0,0,0,77,80,133,120,98,134.46,51,-8.00,30.00,-1006.00
2024-06-07 14:59:01.553729,0,-1,33,0,0,0,77,80,132,120,98,134.31,51,-1.00,25.00,-984.00
2024-06-07 14:59:01.723274,0,-1,30,0,0,0,77,80,133,120,97,134.21,51,-8.00,34.00,-1013.00
2024-06-07 14:59:01.757331,0,-1,27,0,0,0,77,79,133,120,97,134.31,52,-7.00,28.00,-1001.00
2024-06-07 14:59:01.940167,0,-1,25,0,0,0,77,79,133,120,97,134.28,52,-24.00,46.00,-996.00
2024-06-07 14:59:01.961275,0,-1,24,0,0,0,77,79,133,120,97,134.14,52,-11.00,27.00,-1004.00
2024-06-07 14:59:02.132935,0,-1,23,0,0,0,77,79,132,120,97,134.19,52,-10.00,23.00,-998.00
2024-06-07 14:59:02.133111,0,-1,22,0,0,0,77,79,132,120,97,134.25,52,-20.00,27.00,-995.00
2024-06-07 14:59:02.216400,0,-1,21,0,0,0,77,79,133,120,97,134.03,52,-8.00,21.00,-1002.00
2024-06-07 14:59:02.337843,0,-1,20,0,0,0,77,79,134,120,97,134.29,52,-21.00,33.00,-1004.00
2024-06-07 14:59:02.420446,0,-1,20,0,0,0,77,79,134,120,97,134.15,52,0.00,2.00,-984.00
2024-06-07 14:59:02.542644,0,-1,20,0,0,0,77,79,135,120,97,134.31,52,-5.00,21.00,-1007.00
2024-06-07 14:59:02.624439,0,-1,20,0,0,0,77,79,135,120,97,134.39,52,0.00,22.00,-1003.00
2024-06-07 14:59:02.747384,0,-1,20,0,0,0,77,79,135,120,97,134.38,53,-25.00,34.00,-979.00
2024-06-07 14:59:02.828413,0,-1,20,0,0,0,77,79,135,120,97,134.26,53,-22.00,28.00,-988.00
2024-06-07 14:59:02.954324,0,-1,20,0,0,0,77,79,134,120,97,134.40,53,-11.00,14.00,-1001.00
2024-06-07 14:59:03.032211,0,-1,20,0,0,0,77,79,133,120,97,134.29,53,-5.00,14.00,-988.00
2024-06-07 14:59:03.157024,0,-1,20,0,0,0,77,79,134,120,97,134.31,53,-27.00,36.00,-980.00
2024-06-07 14:59:03.237121,0,-1,20,0,0,0,77,79,135,120,97,134.26,53,-20.00,26.00,-997.00
2024-06-07 14:59:03.367296,0,-1,20,0,0,0,77,79,134,120,97,134.10,53,-8.00,32.00,-994.00
2024-06-07 14:59:03.440309,0,-1,20,0,0,0,77,79,134,120,97,134.52,53,-14.00,30.00,-1004.00
2024-06-07 14:59:03.569149,0,-1,20,0,0,0,77,79,135,120,97,134.26,53,-8.00,15.00,-993.00
2024-06-07 14:59:03.645402,0,-1,20,0,0,0,77,79,134,120,96,134.24,53,-14.00,18.00,-997.00
2024-06-07 14:59:03.771488,0,-1,20,0,0,0,77,79,132,120,96,134.09,54,-10.00,19.00,-992.00
2024-06-07 14:59:03.849708,0,-1,20,0,0,0,77,79,133,120,96,134.18,54,-31.00,28.00,-1009.00
2024-06-07 14:59:03.951370,0,-1,20,0,0,0,77,79,135,120,96,134.09,54,-26.00,20.00,-1000.00
2024-06-07 14:59:04.078749,-1,-1,20,0,0,0,77,79,136,120,96,134.05,54,-22.00,20.00,-1003.00
2024-06-07 14:59:04.155321,-1,-1,20,0,0,0,77,79,136,120,96,134.03,54,-36.00,25.00,-998.00
2024-06-07 14:59:04.257076,-1,-1,20,0,0,0,77,79,136,120,96,134.34,54,-26.00,21.00,-1257.00
2024-06-07 14:59:04.386208,0,-1,20,0,0,0,77,79,139,120,96,134.34,54,-38.00,24.00,-1855.00
2024-06-07 14:59:04.461273,0,-1,20,0,0,-5,77,79,148,120,96,134.36,54,-62.00,456.00,-1389.00
2024-06-07 14:59:04.564270,0,-35,20,0,-1,-12,77,79,6553,130,96,134.56,54,-32.00,573.00,-1030.00
2024-06-07 14:59:04.665353,0,-146,20,2,-10,-8,77,79,6553,140,96,134.68,54,-9.00,497.00,-871.00
2024-06-07 14:59:04.768390,0,7,23,0,-3,10,77,79,184,130,96,134.85,55,0.00,-146.00,-1826.00
2024-06-07 14:59:04.870320,0,1,29,0,-3,6,77,79,147,130,96,134.29,55,-24.00,-1.00,-1408.00
2024-06-07 14:59:04.971404,0,1,29,0,-3,3,77,79,141,120,96,134.31,55,-37.00,29.00,-1195.00
2024-06-07 14:59:05.075407,-1,1,22,0,-2,2,77,79,137,120,96,134.59,55,41.00,-45.00,-1053.00
2024-06-07 14:59:05.175271,-1,1,20,0,-2,1,77,79,135,120,96,134.14,55,-15.00,21.00,-1117.00
2024-06-07 14:59:05.319435,-1,0,20,0,-2,0,77,79,134,120,96,134.16,55,-8.00,17.00,-1071.00
2024-06-07 14:59:05.379443,-1,0,20,0,0,0,77,79,134,120,96,134.12,55,-8.00,28.00,-1032.00
2024-06-07 14:59:05.512016,0,-1,20,0,0,0,77,79,133,120,96,134.15,55,-5.00,24.00,-1031.00
2024-06-07 14:59:05.583528,-1,-1,20,0,0,0,77,79,134,120,96,134.51,55,-28.00,23.00,-1080.00
2024-06-07 14:59:05.634108,-2,0,20,0,0,0,77,79,135,120,95,134.16,56,-23.00,41.00,-973.00
2024-06-07 14:59:05.819367,-2,0,20,0,0,0,76,80,135,120,95,134.37,56,-26.00,32.00,-996.00
2024-06-07 14:59:05.838073,-1,-1,20,0,0,0,76,80,135,120,95,134.30,56,-21.00,26.00,-989.00
2024-06-07 14:59:06.036711,-1,-1,20,0,0,0,76,80,136,120,95,134.27,56,-28.00,27.00,-1010.00
2024-06-07 14:59:06.043655,-1,-1,20,0,0,0,76,80,136,120,95,133.91,56,-20.00,25.00,-995.00
2024-06-07 14:59:06.144097,-1,-1,20,0,0,0,76,80,136,120,95,134.06,56,-25.00,28.00,-1000.00
2024-06-07 14:59:06.331283,-1,-1,20,0,0,0,76,80,135,120,95,134.43,56,-14.00,27.00,-1008.00
2024-06-07 14:59:06.347995,-1,-1,20,0,0,0,76,80,135,120,95,134.51,56,-17.00,22.00,-995.00
2024-06-07 14:59:06.535992,-1,-1,20,0,0,0,76,80,137,120,95,134.19,56,-26.00,29.00,-996.00
2024-06-07 14:59:06.551976,-1,-1,20,0,0,0,76,80,136,120,95,134.40,56,-44.00,26.00,-983.00
2024-06-07 14:59:06.740911,-1,-1,20,0,0,0,76,80,136,120,95,134.08,57,-47.00,24.00,-983.00
2024-06-07 14:59:06.756011,-1,-1,20,0,0,0,77,79,136,120,95,134.42,57,-32.00,18.00,-998.00
2024-06-07 14:59:06.945663,-1,0,20,0,0,0,77,79,136,120,95,134.20,57,-29.00,26.00,-995.00
2024-06-07 14:59:06.960888,-1,0,20,0,0,0,77,79,137,120,95,134.24,57,-20.00,21.00,-1000.00
2024-06-07 14:59:07.152381,-1,0,20,0,0,0,77,79,135,120,95,134.28,57,-27.00,22.00,-996.00
2024-06-07 14:59:07.164890,-1,0,20,0,0,0,77,79,137,120,95,134.32,57,-16.00,21.00,-989.00
2024-06-07 14:59:07.359798,-1,-1,20,0,0,0,77,79,137,120,95,134.19,57,-15.00,29.00,-983.00
2024-06-07 14:59:07.368961,-1,-1,20,0,0,0,77,79,137,120,95,133.96,57,-20.00,25.00,-998.00
2024-06-07 14:59:07.560163,-1,-1,20,0,0,0,77,79,137,120,95,134.41,57,-21.00,15.00,-997.00
2024-06-07 14:59:07.572997,-1,-1,20,0,0,0,77,79,136,120,95,134.38,57,-15.00,14.00,-1012.00
2024-06-07 14:59:07.764936,-1,-1,20,0,0,0,77,79,138,120,94,134.33,58,-29.00,24.00,-1002.00
2024-06-07 14:59:07.777461,-1,-1,20,0,0,0,77,80,138,120,94,134.29,58,-27.00,24.00,-1013.00
2024-06-07 14:59:07.969843,-1,-1,20,0,0,0,77,80,137,120,94,134.20,58,-33.00,16.00,-989.00
2024-06-07 14:59:07.980941,-1,-1,20,0,0,0,77,80,138,120,94,134.29,58,-41.00,26.00,-986.00
2024-06-07 14:59:08.174950,-1,-1,20,0,0,0,77,80,137,120,94,134.41,58,-37.00,18.00,-1011.00
2024-06-07 14:59:08.185099,-1,-1,20,0,0,0,77,80,138,120,94,134.45,58,-34.00,16.00,-998.00
2024-06-07 14:59:08.379304,-1,0,20,0,0,0,77,80,137,120,94,134.31,58,-53.00,29.00,-990.00
2024-06-07 14:59:08.389017,-1,0,20,0,0,0,77,80,139,120,94,134.20,58,-30.00,13.00,-1015.00
2024-06-07 14:59:08.584270,-1,-1,20,0,0,0,77,80,138,120,94,133.98,58,-27.00,27.00,-979.00
2024-06-07 14:59:08.592980,-1,-1,20,0,0,0,77,80,141,120,94,134.26,58,-31.00,5.00,-989.00
2024-06-07 14:59:08.791419,-1,0,20,0,0,0,77,80,139,120,94,134.05,59,-28.00,26.00,-1004.00
2024-06-07 14:59:08.796923,-1,-1,20,0,0,0,78,79,139,120,94,134.26,59,-35.00,23.00,-978.00
2024-06-07 14:59:08.993864,-1,0,20,0,0,0,78,79,139,120,94,134.37,59,-17.00,11.00,-991.00
2024-06-07 14:59:09.001010,-1,0,20,0,0,0,78,79,141,120,94,134.30,59,-38.00,18.00,-970.00
2024-06-07 14:59:09.198962,-1,0,20,0,0,0,78,79,140,120,94,134.47,59,-21.00,15.00,-999.00
2024-06-07 14:59:09.204985,-1,0,20,0,0,0,78,79,139,120,94,134.53,59,-32.00,26.00,-999.00
2024-06-07 14:59:09.403976,-1,-1,20,0,0,0,78,79,139,120,94,134.42,59,-24.00,23.00,-1004.00
2024-06-07 14:59:09.404141,-1,-1,20,0,0,0,78,79,139,120,94,134.33,59,-22.00,23.00,-1003.00
2024-06-07 14:59:09.460004,-1,-1,20,0,0,0,78,79,139,120,94,134.38,59,-11.00,19.00,-988.00
2024-06-07 14:59:09.608118,0,-1,20,0,0,0,78,79,139,120,94,134.19,59,-12.00,23.00,-1010.00
2024-06-07 14:59:09.663960,0,0,20,0,0,0,78,79,138,120,93,134.34,60,-7.00,12.00,-990.00
2024-06-07 14:59:09.766022,0,0,20,0,0,0,77,79,137,120,93,134.15,60,-7.00,26.00,-1023.00
2024-06-07 14:59:09.915375,0,0,20,0,0,0,77,79,137,120,93,134.28,60,-1.00,26.00,-1018.00
2024-06-07 14:59:09.969962,0,-1,20,0,0,0,77,79,136,120,93,134.41,60,-8.00,20.00,-1004.00
2024-06-07 14:59:10.120242,0,-1,20,0,0,0,77,79,136,120,93,134.44,60,0.00,20.00,-1007.00
2024-06-07 14:59:10.173858,0,-1,20,0,0,0,77,79,137,120,93,134.49,60,-10.00,21.00,-1001.00
2024-06-07 14:59:10.326118,0,0,20,0,0,0,77,79,137,120,93,134.10,60,10.00,9.00,-997.00
2024-06-07 14:59:10.377955,0,0,20,0,0,0,77,79,136,120,93,134.37,60,8.00,7.00,-990.00
2024-06-07 14:59:10.479947,0,0,20,0,0,0,77,79,138,120,93,134.51,60,11.00,7.00,-1000.00
2024-06-07 14:59:10.581953,0,0,20,0,0,0,77,79,137,120,93,134.07,60,12.00,15.00,-1024.00
2024-06-07 14:59:10.683817,0,0,20,0,0,0,77,79,136,120,93,134.10,61,13.00,14.00,-1010.00
2024-06-07 14:59:10.785843,0,0,20,0,0,0,76,79,137,120,93,134.34,61,0.00,12.00,-991.00
2024-06-07 14:59:10.939474,0,0,20,0,0,0,76,79,136,120,93,134.43,61,-20.00,-3.00,-1210.00
2024-06-07 14:59:10.989720,0,0,20,0,0,-4,76,79,140,120,93,134.73,61,16.00,3.00,-1803.00
2024-06-07 14:59:11.091859,0,20,20,0,0,-12,76,79,166,130,93,134.51,61,8.00,30.00,-1951.00
2024-06-07 14:59:11.246418,0,122,19,-3,9,-10,76,79,6553,140,93,134.72,61,14.00,707.00,-1214.00
2024-06-07 14:59:11.295746,1,-118,20,-3,10,5,76,79,6553,150,93,134.57,61,-5.00,749.00,-837.00
2024-06-07 14:59:11.451232,0,-16,20,-1,4,11,76,79,157,140,93,134.68,61,-37.00,516.00,-1024.00
2024-06-07 14:59:11.499665,0,-1,17,-1,3,8,76,79,142,130,93,134.15,61,-11.00,-18.00,-1524.00
2024-06-07 14:59:11.668184,0,-2,18,-1,3,4,76,79,140,120,93,134.30,61,-9.00,12.00,-1275.00
2024-06-07 14:59:11.703774,0,-1,20,-1,2,2,76,79,133,110,92,134.54,62,9.00,-16.00,-1187.00
2024-06-07 14:59:11.860797,0,-1,20,-1,2,0,77,80,132,110,92,134.28,62,-23.00,-6.00,-1072.00
2024-06-07 14:59:11.907710,0,0,20,0,1,0,77,80,133,110,92,134.07,62,-13.00,-12.00,-1044.00
2024-06-07 14:59:12.077734,0,0,20,0,1,0,77,80,132,110,92,134.22,62,1.00,-6.00,-1025.00
2024-06-07 14:59:12.111667,0,0,20,0,1,0,77,80,133,110,92,133.93,62,-1.00,-13.00,-992.00
2024-06-07 14:59:12.213920,0,0,20,0,1,0,77,80,135,110,92,134.23,62,-19.00,-8.00,-997.00
2024-06-07 14:59:12.315744,0,-1,20,0,1,0,77,80,136,110,92,134.43,62,-3.00,-16.00,-992.00
2024-06-07 14:59:12.417767,0,-3,20,0,0,0,77,80,137,110,92,134.41,62,-14.00,-9.00,-996.00
2024-06-07 14:59:12.585737,0,-2,20,0,0,0,77,80,138,110,92,134.52,62,0.00,0.00,-996.00
2024-06-07 14:59:12.621705,0,-1,20,0,0,0,77,80,137,120,92,134.20,62,-23.00,7.00,-984.00
2024-06-07 14:59:12.723589,0,0,20,0,0,0,77,80,139,120,92,134.34,63,-16.00,8.00,-981.00
