TS,pitch,roll,yaw,vgx,vgy,vgz,templ,temph,tof,h,bat,baro,time,agx,agy,agz
2024-05-17 15:32:25.015496,0,0,0,0,0,0,75,77,10,0,55,164.09,83,11.00,-11.00,-1001.00
2024-05-17 15:32:25.117585,0,0,0,0,0,0,75,77,10,0,55,164.09,83,11.00,-11.00,-999.00
2024-05-17 15:32:25.286348,0,0,0,0,0,0,75,77,10,0,55,164.44,83,11.00,-10.00,-999.00
2024-05-17 15:32:25.321824,0,0,0,0,0,0,75,77,10,0,55,164.33,83,8.00,-9.00,-999.00
2024-05-17 15:32:25.423458,0,0,0,0,0,0,75,77,10,0,55,164.51,83,11.00,-10.00,-997.00
2024-05-17 15:32:25.525458,0,0,0,0,0,0,75,77,10,0,55,164.20,83,11.00,-11.00,-1000.00
2024-05-17 15:32:25.629302,0,0,0,0,0,0,75,77,10,0,55,164.23,83,11.00,-11.00,-1001.00
2024-05-17 15:32:25.738585,0,0,0,0,0,0,75,77,10,0,55,164.28,83,11.00,-11.00,-999.00
2024-05-17 15:32:25.831609,0,0,0,0,0,0,75,77,10,0,55,164.30,83,10.00,-10.00,-998.00
2024-05-17 15:32:26.001359,0,0,0,0,0,0,75,77,10,0,55,164.30,83,10.00,-11.00,-1001.00
2024-05-17 15:32:26.035258,0,0,0,0,0,0,75,77,10,0,55,164.58,83,9.00,-10.00,-1000.00
2024-05-17 15:32:26.206228,0,0,0,0,0,0,75,77,10,0,55,164.11,83,10.00,-10.00,-998.00
2024-05-17 15:32:26.239545,0,0,0,0,0,0,75,77,10,0,55,164.60,83,9.00,-11.00,-1000.00
2024-05-17 15:32:26.411052,0,0,0,0,0,0,75,77,10,0,55,164.03,83,10.00,-10.00,-999.00
2024-05-17 15:32:26.443468,0,0,0,0,0,0,75,77,10,0,55,164.44,83,11.00,-9.00,-1000.00
2024-05-17 15:32:26.615740,0,0,0,0,0,0,75,77,10,0,55,164.34,83,10.00,-9.00,-999.00
2024-05-17 15:32:26.648479,0,0,0,0,0,0,75,77,10,0,55,164.11,83,10.00,-11.00,-998.00
2024-05-17 15:32:26.820586,0,0,0,0,0,0,75,77,10,0,55,164.41,83,9.00,-11.00,-999.00
2024-05-17 15:32:26.853321,0,0,0,0,0,0,76,78,10,0,55,164.01,83,11.00,-10.00,-1000.00
2024-05-17 15:32:26.953199,0,0,0,0,0,0,76,78,10,0,55,164.25,83,11.00,-10.00,-999.00
2024-05-17 15:32:27.055336,0,0,0,0,0,0,76,78,10,0,55,164.24,83,10.00,-10.00,-1000.00
2024-05-17 15:32:27.230129,0,0,0,0,0,0,76,78,10,0,55,164.56,83,11.00,-10.00,-1002.00
2024-05-17 15:32:27.230311,0,0,0,0,0,0,76,78,10,0,55,164.51,83,10.00,-10.00,-1000.00
2024-05-17 15:32:27.310343,0,0,0,0,0,0,76,78,10,0,55,164.09,83,8.00,-10.00,-998.00
2024-05-17 15:32:27.412288,0,0,0,0,0,0,76,78,10,0,55,164.22,83,10.00,-10.00,-1001.00
2024-05-17 15:32:27.540860,0,0,0,0,0,0,76,78,10,0,55,164.44,83,10.00,-12.00,-1000.00
2024-05-17 15:32:27.617465,0,0,0,0,0,0,76,78,10,0,55,164.33,83,9.00,-10.00,-1002.00
2024-05-17 15:32:27.742157,0,0,0,0,0,0,76,78,10,0,55,164.29,83,9.00,-9.00,-1000.00
2024-05-17 15:32:27.822552,0,0,0,0,0,0,76,78,10,0,55,164.30,83,11.00,-10.00,-1000.00
2024-05-17 15:32:27.947037,0,0,0,0,0,0,76,78,10,0,55,164.28,83,9.00,-10.00,-999.00
2024-05-17 15:32:28.025312,0,0,0,0,0,0,76,78,10,0,55,164.15,83,10.00,-8.00,-1000.00
2024-05-17 15:32:28.151767,0,0,0,0,0,0,76,78,10,0,55,164.19,83,12.00,-11.00,-999.00
2024-05-17 15:32:28.229425,0,0,0,0,0,0,76,78,10,0,55,164.41,83,10.00,-10.00,-1002.00
2024-05-17 15:32:28.356585,0,0,0,0,0,0,76,78,10,0,55,164.23,83,9.00,-9.00,-998.00
2024-05-17 15:32:28.433209,0,0,0,0,0,0,76,78,10,0,55,164.22,83,12.00,-10.00,-1000.00
2024-05-17 15:32:28.561398,0,0,0,0,0,0,76,78,10,0,55,164.28,83,11.00,-10.00,-1000.00
2024-05-17 15:32:28.637319,0,0,0,0,0,0,76,78,10,0,55,164.05,83,11.00,-10.00,-999.00
2024-05-17 15:32:28.766159,0,0,0,0,0,0,76,78,10,0,55,164.23,83,11.00,-11.00,-1001.00
2024-05-17 15:32:28.841402,0,0,0,0,0,0,76,77,10,0,55,164.52,83,9.00,-11.00,-998.00
2024-05-17 15:32:28.971081,0,0,0,0,0,0,76,77,10,0,55,164.07,83,10.00,-9.00,-1001.00
2024-05-17 15:32:29.045581,0,0,0,0,0,0,76,77,10,0,55,164.15,83,10.00,-10.00,-998.00
2024-05-17 15:32:29.177221,0,0,0,0,0,0,76,77,10,0,55,164.24,83,11.00,-10.00,-997.00
2024-05-17 15:32:29.250159,0,0,0,0,0,0,76,77,10,0,55,164.11,83,9.00,-10.00,-998.00
2024-05-17 15:32:29.380589,0,0,0,0,0,0,76,77,10,0,55,163.90,83,9.00,-10.00,-998.00
2024-05-17 15:32:29.453320,0,0,0,0,0,0,76,77,10,0,55,164.25,83,10.00,-12.00,-999.00
2024-05-17 15:32:29.555443,0,0,0,0,0,0,76,77,10,0,55,164.37,83,11.00,-10.00,-1001.00
2024-05-17 15:32:29.688897,0,0,0,0,0,0,76,77,10,0,55,164.20,83,10.00,-10.00,-1003.00
2024-05-17 15:32:29.759329,0,0,0,0,0,0,76,77,10,0,55,163.96,83,9.00,-10.00,-998.00
2024-05-17 15:32:29.892581,0,0,0,0,0,0,76,78,10,0,55,164.12,83,9.00,-9.00,-1001.00
2024-05-17 15:32:29.963337,0,0,0,0,0,0,76,78,10,0,55,164.42,83,10.00,-11.00,-1003.00
2024-05-17 15:32:30.097469,0,0,0,0,0,0,76,78,10,0,55,164.21,83,10.00,-11.00,-997.00
2024-05-17 15:32:30.167416,0,0,0,0,0,0,76,78,10,0,55,164.47,83,11.00,-10.00,-998.00
2024-05-17 15:32:30.302355,0,0,0,0,0,0,76,78,10,0,55,164.44,83,11.00,-10.00,-1000.00
2024-05-17 15:32:30.372691,0,0,0,0,0,0,76,78,10,0,55,164.66,83,9.00,-10.00,-999.00
2024-05-17 15:32:30.422261,0,0,0,0,0,0,76,78,10,0,55,164.38,83,11.00,-12.00,-1000.00
2024-05-17 15:32:30.609410,0,0,0,0,0,0,76,78,10,0,55,164.24,83,12.00,-10.00,-1000.00
2024-05-17 15:32:30.626061,0,0,0,0,0,0,76,78,10,0,55,164.19,83,11.00,-11.00,-1000.00
2024-05-17 15:32:30.729627,0,0,0,0,0,0,76,78,10,0,55,163.96,83,9.00,-10.00,-995.00
2024-05-17 15:32:30.830230,0,0,0,0,0,0,76,78,10,0,55,164.41,83,11.00,-9.00,-1002.00
2024-05-17 15:32:31.019228,0,0,0,0,0,0,76,78,10,0,55,164.60,83,10.00,-11.00,-998.00
2024-05-17 15:32:31.034729,0,0,0,0,0,0,76,78,10,0,55,164.08,83,11.00,-11.00,-1000.00
2024-05-17 15:32:31.223800,0,0,0,0,0,0,76,78,10,0,55,164.35,83,9.00,-8.00,-997.00
2024-05-17 15:32:31.238037,0,0,0,0,0,0,76,78,10,0,55,164.47,83,11.00,-9.00,-1004.00
2024-05-17 15:32:31.428908,0,0,0,0,0,0,76,78,10,0,55,163.79,83,11.00,-11.00,-997.00
2024-05-17 15:32:31.442151,0,0,0,0,0,0,76,78,10,0,55,164.42,83,9.00,-9.00,-998.00
2024-05-17 15:32:31.544110,0,0,0,0,0,0,76,78,10,0,55,164.39,83,10.00,-9.00,-1005.00
2024-05-17 15:32:31.735851,0,0,0,0,0,0,76,78,10,0,55,164.39,83,10.00,-10.00,-991.00
2024-05-17 15:32:31.748253,0,0,0,0,0,0,76,78,10,0,55,163.93,83,11.00,-10.00,-1003.00
2024-05-17 15:32:31.940623,0,0,0,0,0,0,76,77,10,0,55,164.18,83,11.00,-10.00,-993.00
2024-05-17 15:32:31.952179,0,0,0,0,0,0,76,77,10,0,55,164.33,83,9.00,-10.00,-1002.00
2024-05-17 15:32:32.054148,0,0,0,0,0,0,76,77,10,0,55,164.30,83,9.00,-10.00,-998.00
2024-05-17 15:32:32.247725,0,0,0,0,0,0,76,77,10,0,55,164.33,83,11.00,-10.00,-1003.00
2024-05-17 15:32:32.262143,0,0,0,0,0,0,76,77,10,0,55,164.23,83,9.00,-11.00,-1001.00
2024-05-17 15:32:32.360093,0,0,0,0,0,0,76,77,10,0,55,164.32,83,11.00,-9.00,-999.00
2024-05-17 15:32:32.462185,0,0,0,0,0,0,76,77,10,0,55,164.37,83,11.00,-10.00,-1002.00
2024-05-17 15:32:32.657791,0,0,0,0,0,0,76,77,10,0,55,164.24,83,10.00,-10.00,-997.00
2024-05-17 15:32:32.666097,0,0,0,0,0,0,76,77,10,0,55,164.21,83,10.00,-10.00,-1000.00
2024-05-17 15:32:32.862412,0,0,0,0,0,0,76,77,10,0,55,164.35,83,9.00,-10.00,-998.00
2024-05-17 15:32:32.870055,0,0,0,0,0,0,76,77,10,0,55,164.41,83,10.00,-12.00,-997.00
2024-05-17 15:32:33.066963,0,0,0,0,0,0,76,77,10,0,55,164.40,83,9.00,-10.00,-998.00
2024-05-17 15:32:33.075593,0,0,0,0,0,0,76,77,10,0,55,164.00,83,10.00,-11.00,-997.00
2024-05-17 15:32:33.176156,0,0,0,0,0,0,76,77,10,0,55,164.10,83,12.00,-9.00,-999.00
2024-05-17 15:32:33.278157,0,0,0,0,0,0,76,77,10,0,55,164.41,83,10.00,-10.00,-999.00
2024-05-17 15:32:33.476649,0,0,0,0,0,0,76,77,10,0,55,164.30,83,8.00,-10.00,-1005.00
2024-05-17 15:32:33.486832,0,0,0,0,0,0,76,77,10,0,55,164.33,83,-21.00,-52.00,-1001.00
2024-05-17 15:32:33.533243,0,0,0,0,0,0,76,77,10,0,55,164.46,83,10.00,-10.00,-1001.00
2024-05-17 15:32:33.681351,0,0,0,0,0,0,76,77,10,0,55,164.27,83,10.00,-7.00,-997.00
2024-05-17 15:32:33.737146,0,0,0,0,0,0,76,77,10,0,55,164.13,83,15.00,-7.00,-998.00
2024-05-17 15:32:33.890082,0,0,0,0,0,0,76,78,10,0,55,164.11,83,10.00,-10.00,-1001.00
2024-05-17 15:32:34.092661,0,0,0,0,0,0,76,78,10,0,55,164.48,83,-23.00,-103.00,-996.00
2024-05-17 15:32:34.092770,0,0,0,0,0,0,76,78,10,0,55,164.55,83,70.00,-480.00,-1213.00
2024-05-17 15:32:34.145058,0,1,2,0,-5,-1,76,78,10,0,55,164.44,83,-49.00,-208.00,-931.00
2024-05-17 15:32:34.295765,0,5,4,-1,-7,-1,76,78,10,0,55,164.31,83,-43.00,-93.00,-828.00
2024-05-17 15:32:34.348881,-2,8,3,-1,-7,0,76,78,10,0,55,164.48,83,-130.00,24.00,-966.00
2024-05-17 15:32:34.451416,-4,8,0,-1,-6,0,76,78,10,0,55,164.56,83,-113.00,97.00,-1005.00
2024-05-17 15:32:34.602858,-4,7,-1,0,-3,0,76,78,10,0,55,164.09,83,-51.00,248.00,-996.00
2024-05-17 15:32:34.661725,-4,4,0,0,0,0,76,78,10,0,55,164.39,83,-245.00,-29.00,-951.00
2024-05-17 15:32:34.757082,-4,2,1,0,0,1,76,78,10,0,55,164.35,83,176.00,-23.00,-941.00
2024-05-17 15:32:34.910292,0,0,0,0,0,0,77,78,10,0,55,164.25,83,10.00,-8.00,-1007.00
2024-05-17 15:32:34.960989,0,0,0,0,0,0,77,78,10,0,55,164.04,83,10.00,-8.00,-998.00
2024-05-17 15:32:35.114981,0,0,0,0,0,0,77,78,10,0,55,163.97,83,10.00,-8.00,-998.00
2024-05-17 15:32:35.165199,0,0,0,0,0,0,77,78,10,0,55,164.14,83,11.00,-8.00,-999.00
2024-05-17 15:32:35.319785,0,0,0,0,0,0,77,78,10,0,55,164.45,83,10.00,-7.00,-1001.00
2024-05-17 15:32:35.369484,0,0,0,0,0,0,77,78,10,0,55,163.88,83,10.00,-8.00,-998.00
2024-05-17 15:32:35.471205,0,0,0,0,0,0,77,78,10,0,55,164.37,83,9.00,-8.00,-1001.00
2024-05-17 15:32:35.627129,0,0,0,0,0,0,77,78,10,0,55,164.29,83,11.00,-8.00,-1005.00
2024-05-17 15:32:35.675000,0,0,0,0,0,0,77,78,10,0,55,164.39,83,11.00,-9.00,-1001.00
2024-05-17 15:32:35.831714,0,0,0,0,0,0,77,78,10,0,55,164.48,83,12.00,-8.00,-1002.00
2024-05-17 15:32:35.878913,0,0,0,0,0,0,76,78,10,0,55,164.38,83,10.00,-8.00,-1000.00
2024-05-17 15:32:36.036510,0,0,0,0,0,0,76,78,10,0,55,164.26,83,12.00,-8.00,-1002.00
2024-05-17 15:32:36.083068,0,0,0,0,0,0,76,78,10,0,55,164.18,83,9.00,-8.00,-1000.00
2024-05-17 15:32:36.241657,0,0,0,0,0,0,76,78,10,0,55,164.30,83,12.00,-8.00,-1000.00
2024-05-17 15:32:36.286908,0,0,0,0,0,0,76,78,10,0,55,164.53,83,10.00,-8.00,-999.00
2024-05-17 15:32:36.446149,0,0,0,0,0,0,76,78,10,0,55,164.27,83,12.00,-6.00,-1002.00
2024-05-17 15:32:36.490927,0,0,0,0,0,0,76,78,10,0,55,164.30,83,10.00,-7.00,-999.00
2024-05-17 15:32:36.650933,0,0,0,0,0,0,76,78,10,0,55,164.07,83,9.00,-7.00,-1002.00
2024-05-17 15:32:36.695242,0,0,0,0,0,0,76,78,10,0,55,164.49,83,10.00,-9.00,-996.00
2024-05-17 15:32:36.855696,0,0,0,0,0,0,76,78,10,0,55,164.23,83,10.00,-7.00,-999.00
2024-05-17 15:32:36.899181,0,0,0,0,0,0,75,79,10,0,55,164.27,83,11.00,-8.00,-1002.00
2024-05-17 15:32:37.060526,0,0,0,0,0,0,75,79,10,0,55,164.30,83,12.00,-9.00,-1000.00
2024-05-17 15:32:37.102831,0,0,0,0,0,0,75,79,10,0,55,164.32,83,10.00,-7.00,-1002.00
2024-05-17 15:32:37.153968,0,0,0,0,0,0,75,79,10,0,55,164.14,83,11.00,-7.00,-1000.00
2024-05-17 15:32:37.265504,0,0,0,0,0,0,75,79,10,0,55,164.58,83,10.00,-8.00,-999.00
2024-05-17 15:32:37.357718,0,0,0,0,0,0,75,79,10,0,55,163.82,83,10.00,-10.00,-1000.00
2024-05-17 15:32:37.459796,0,0,0,0,0,0,75,79,10,0,55,164.27,83,11.00,-9.00,-1002.00
2024-05-17 15:32:37.561721,0,0,0,0,0,0,75,79,10,0,55,164.06,83,10.00,-9.00,-1000.00
2024-05-17 15:32:37.674829,0,0,0,0,0,0,75,79,10,0,55,164.43,83,9.00,-7.00,-999.00
2024-05-17 15:32:37.765774,0,0,0,0,0,0,75,79,10,0,55,164.32,83,11.00,-7.00,-1001.00
2024-05-17 15:32:37.879855,0,0,0,0,0,0,76,78,10,0,55,164.01,83,11.00,-7.00,-998.00
2024-05-17 15:32:37.969880,0,0,0,0,0,0,76,78,10,0,55,164.23,83,10.00,-9.00,-1000.00
2024-05-17 15:32:38.085132,0,0,0,0,0,0,76,78,10,0,55,164.40,83,9.00,-6.00,-998.00
2024-05-17 15:32:38.174484,0,0,0,0,0,0,76,78,10,0,55,164.33,83,10.00,-7.00,-999.00
2024-05-17 15:32:38.275919,0,0,0,0,0,0,76,78,10,0,55,164.10,83,9.00,-10.00,-1001.00
2024-05-17 15:32:38.378503,0,0,0,0,0,0,76,78,10,0,55,163.98,83,9.00,-6.00,-1002.00
2024-05-17 15:32:38.479680,0,0,0,0,0,0,76,78,10,0,55,164.34,83,10.00,-7.00,-998.00
2024-05-17 15:32:38.596503,0,0,0,0,0,0,76,78,10,0,55,164.18,83,11.00,-9.00,-998.00
2024-05-17 15:32:38.683809,0,0,0,0,0,0,76,78,10,0,55,164.16,83,12.00,-9.00,-999.00
2024-05-17 15:32:38.801327,0,0,0,0,0,0,76,78,10,0,55,164.31,83,11.00,-6.00,-998.00
2024-05-17 15:32:38.887829,0,0,0,0,0,0,76,79,10,0,55,164.23,83,10.00,-7.00,-998.00
2024-05-17 15:32:39.006112,0,0,0,0,0,0,76,79,10,0,55,164.73,83,9.00,-9.00,-999.00
2024-05-17 15:32:39.091799,0,0,0,0,0,0,76,79,10,0,55,164.29,83,9.00,-8.00,-999.00
2024-05-17 15:32:39.210783,0,0,0,0,0,0,76,79,10,0,55,164.24,83,10.00,-9.00,-999.00
2024-05-17 15:32:39.296901,0,0,0,0,0,0,76,79,10,0,55,164.33,83,11.00,-8.00,-1000.00
2024-05-17 15:32:39.415729,0,0,0,0,0,0,76,79,10,0,55,164.18,83,10.00,-7.00,-998.00
2024-05-17 15:32:39.499811,0,0,0,0,0,0,76,79,10,0,55,164.35,83,10.00,-7.00,-1000.00
2024-05-17 15:32:39.620329,0,0,0,0,0,0,76,79,10,0,55,164.30,83,10.00,-8.00,-1001.00
2024-05-17 15:32:39.707660,0,0,0,0,0,0,76,79,10,0,55,164.30,83,11.00,-8.00,-1002.00
2024-05-17 15:32:39.806612,0,0,0,0,0,0,76,79,10,0,55,164.30,83,12.00,-9.00,-1002.00
2024-05-17 15:32:39.908562,0,0,0,0,0,0,76,78,10,0,55,164.30,83,26.00,-14.00,-993.00
2024-05-17 15:32:40.011036,0,0,0,0,0,0,76,78,10,0,55,164.30,83,-2.00,-20.00,-993.00
2024-05-17 15:32:40.112502,0,0,0,0,0,0,76,78,10,0,55,164.30,84,3.00,-4.00,-1079.00
2024-05-17 15:32:40.234694,0,0,0,0,0,0,76,78,10,0,55,164.30,84,16.00,-6.00,-1193.00
2024-05-17 15:32:40.318841,0,0,0,0,0,-1,76,78,10,0,55,164.30,84,19.00,-3.00,-1290.00
2024-05-17 15:32:40.367538,0,0,0,0,0,-4,76,78,13,0,55,164.38,84,8.00,-28.00,-1217.00
2024-05-17 15:32:40.469560,1,0,0,0,0,-6,76,78,21,0,55,164.78,84,-9.00,-10.00,-1087.00
2024-05-17 15:32:40.644298,0,0,0,0,0,-7,76,78,34,0,55,164.97,84,0.00,-3.00,-1043.00
2024-05-17 15:32:40.677783,0,0,0,0,0,-7,76,78,43,10,55,164.76,84,9.00,-5.00,-998.00
2024-05-17 15:32:40.778208,0,0,0,0,0,-7,76,78,50,10,55,165.12,84,12.00,-13.00,-950.00
2024-05-17 15:32:40.877514,0,0,0,0,0,-6,77,79,58,20,55,164.80,84,10.00,-2.00,-965.00
2024-05-17 15:32:41.053888,1,0,0,0,0,-5,77,79,62,20,55,165.17,84,3.00,-8.00,-931.00
2024-05-17 15:32:41.081502,0,0,0,0,0,-4,77,79,67,30,55,165.28,85,10.00,-4.00,-900.00
2024-05-17 15:32:41.258695,0,0,0,0,0,-3,77,79,73,30,55,164.98,85,10.00,-1.00,-891.00
2024-05-17 15:32:41.287124,0,0,0,0,0,-2,77,79,77,40,55,165.37,85,8.00,3.00,-881.00
2024-05-17 15:32:41.387645,0,0,0,0,0,-1,77,79,80,40,55,165.38,85,7.00,5.00,-889.00
2024-05-17 15:32:41.490515,0,0,0,0,0,0,77,79,83,40,55,165.08,85,1.00,9.00,-897.00
2024-05-17 15:32:41.668297,0,0,0,0,0,0,77,79,85,40,55,165.22,85,4.00,1.00,-938.00
2024-05-17 15:32:41.695439,0,0,0,0,0,0,77,79,87,40,55,165.31,85,11.00,5.00,-951.00
2024-05-17 15:32:41.873206,0,0,0,0,0,0,77,79,89,40,55,165.32,85,10.00,2.00,-966.00
2024-05-17 15:32:41.898596,0,0,0,0,0,0,76,79,90,50,55,165.55,85,2.00,13.00,-986.00
2024-05-17 15:32:42.077887,0,0,0,0,0,0,76,79,92,50,55,165.58,86,7.00,4.00,-975.00
2024-05-17 15:32:42.102400,0,0,0,0,0,0,76,79,93,50,55,165.38,86,10.00,11.00,-972.00
2024-05-17 15:32:42.282723,0,0,0,0,0,0,76,79,94,50,55,165.64,86,22.00,5.00,-973.00
2024-05-17 15:32:42.309245,0,0,0,0,0,0,76,79,94,50,55,165.52,86,14.00,0.00,-972.00
2024-05-17 15:32:42.408557,0,0,0,0,0,0,76,79,94,50,55,165.50,86,19.00,-6.00,-969.00
2024-05-17 15:32:42.511428,1,0,0,0,0,0,76,79,94,50,55,165.24,86,19.00,-11.00,-975.00
2024-05-17 15:32:42.692281,0,0,0,0,0,0,76,79,94,50,55,165.50,86,12.00,-10.00,-983.00
2024-05-17 15:32:42.715348,0,0,0,0,0,0,76,79,94,50,55,165.53,86,19.00,9.00,-976.00
2024-05-17 15:32:42.897212,0,0,0,0,0,1,76,79,93,50,55,165.49,86,14.00,-7.00,-976.00
2024-05-17 15:32:42.919382,0,0,0,0,0,1,76,78,93,50,55,165.32,86,9.00,0.00,-998.00
2024-05-17 15:32:43.101802,1,0,0,0,0,1,76,78,92,50,55,165.39,87,18.00,15.00,-993.00
2024-05-17 15:32:43.123417,1,0,0,0,0,1,76,78,91,50,55,165.49,87,10.00,-9.00,-986.00
2024-05-17 15:32:43.225332,0,0,0,0,0,1,76,78,90,50,55,165.24,87,9.00,3.00,-996.00
2024-05-17 15:32:43.411035,0,0,0,0,0,1,76,78,88,50,55,165.44,87,21.00,5.00,-1008.00
2024-05-17 15:32:43.431280,0,0,0,0,0,1,76,78,88,50,55,165.25,87,12.00,0.00,-979.00
2024-05-17 15:32:43.534216,0,0,0,0,0,1,76,78,87,50,55,165.54,87,9.00,10.00,-993.00
2024-05-17 15:32:43.633373,0,0,0,0,0,1,76,78,86,50,55,165.40,87,17.00,9.00,-1010.00
2024-05-17 15:32:43.818769,0,0,0,0,0,0,76,78,84,50,55,165.16,87,28.00,6.00,-1008.00
2024-05-17 15:32:43.837345,0,0,0,0,0,0,76,78,83,50,55,165.15,87,22.00,0.00,-1007.00
2024-05-17 15:32:44.023636,0,0,0,0,0,0,76,79,82,40,55,165.42,87,20.00,-7.00,-998.00
2024-05-17 15:32:44.041328,0,0,0,0,0,0,76,79,81,40,55,165.40,88,13.00,-5.00,-1013.00
2024-05-17 15:32:44.092386,0,0,0,0,0,0,76,79,80,40,55,165.12,88,24.00,1.00,-1005.00
2024-05-17 15:32:44.228281,0,0,0,0,0,0,76,79,79,40,55,165.43,88,16.00,3.00,-1013.00
2024-05-17 15:32:44.296295,0,0,0,0,0,0,76,79,79,40,55,165.37,88,16.00,-2.00,-1006.00
2024-05-17 15:32:44.433385,0,0,0,0,0,0,76,79,78,40,55,165.60,88,19.00,0.00,-1006.00
2024-05-17 15:32:44.500338,0,0,0,0,0,0,76,79,77,40,55,165.31,88,30.00,2.00,-1004.00
2024-05-17 15:32:44.637900,0,0,0,0,0,0,76,79,77,40,55,165.32,88,14.00,-1.00,-1005.00
2024-05-17 15:32:44.705532,0,0,0,0,0,0,76,79,76,40,55,165.19,88,17.00,5.00,-1008.00
2024-05-17 15:32:44.806344,0,0,0,0,0,0,76,79,75,40,55,165.16,88,14.00,3.00,-1008.00
2024-05-17 15:32:44.945097,0,0,0,0,0,0,76,78,76,40,55,165.21,88,11.00,4.00,-1001.00
2024-05-17 15:32:45.010450,0,0,0,0,0,0,76,78,76,40,55,165.32,89,24.00,9.00,-1007.00
2024-05-17 15:32:45.149875,0,0,0,0,0,0,76,78,76,40,55,165.64,89,29.00,4.00,-1003.00
2024-05-17 15:32:45.214247,1,0,0,0,0,0,76,78,75,40,55,165.20,89,25.00,8.00,-1004.00
2024-05-17 15:32:45.354580,1,0,0,0,0,0,76,78,75,40,55,165.22,89,18.00,-2.00,-995.00
2024-05-17 15:32:45.418262,1,0,0,0,0,0,76,78,75,40,55,165.00,89,18.00,11.00,-1001.00
2024-05-17 15:32:45.520520,1,0,0,0,0,0,76,78,75,40,55,165.44,89,25.00,5.00,-999.00
2024-05-17 15:32:45.662666,0,0,0,0,0,0,76,78,76,40,55,165.28,89,17.00,2.00,-1001.00
2024-05-17 15:32:45.724571,0,0,0,0,0,0,76,78,76,40,55,164.80,89,18.00,4.00,-998.00
2024-05-17 15:32:45.867229,0,0,0,0,0,0,76,78,76,40,55,165.18,89,30.00,-2.00,-991.00
2024-05-17 15:32:45.928307,0,0,0,0,0,0,75,77,76,40,55,165.10,89,19.00,7.00,-995.00
2024-05-17 15:32:46.030612,1,0,0,0,0,0,75,77,76,40,55,165.24,90,21.00,2.00,-991.00
2024-05-17 15:32:46.174049,0,0,0,0,0,0,75,77,76,40,55,165.07,90,23.00,-1.00,-1001.00
2024-05-17 15:32:46.234633,0,0,0,0,0,0,75,77,76,40,55,165.05,90,19.00,0.00,-1003.00
2024-05-17 15:32:46.378822,0,0,0,0,0,0,75,77,76,40,55,165.31,90,11.00,-7.00,-1014.00
2024-05-17 15:32:46.439644,0,0,0,0,0,0,75,77,76,40,55,165.28,90,13.00,0.00,-1004.00
2024-05-17 15:32:46.540401,0,0,0,0,0,0,75,77,76,40,55,165.37,90,16.00,4.00,-1006.00
2024-05-17 15:32:46.688572,0,0,0,0,0,0,75,77,76,40,55,165.34,90,16.00,4.00,-1004.00
2024-05-17 15:32:46.745404,0,0,0,0,0,0,75,77,76,40,55,165.10,90,8.00,3.00,-1005.00
2024-05-17 15:32:46.890825,0,0,0,0,0,0,75,77,76,40,55,165.08,90,22.00,-3.00,-998.00
2024-05-17 15:32:46.948451,0,0,0,0,0,0,75,77,77,40,55,165.15,90,16.00,-7.00,-1004.00
2024-05-17 15:32:47.095452,0,0,0,0,0,0,75,77,77,40,55,165.36,91,9.00,-2.00,-1001.00
2024-05-17 15:32:47.152281,0,0,0,0,0,0,75,77,77,40,55,165.11,91,16.00,2.00,-997.00
2024-05-17 15:32:47.300434,0,0,0,0,0,0,75,77,77,40,55,165.33,91,21.00,3.00,-1001.00
2024-05-17 15:32:47.356295,0,0,0,0,0,0,75,77,78,40,55,164.91,91,8.00,0.00,-995.00
2024-05-17 15:32:47.505023,0,0,0,0,0,0,75,77,78,40,55,165.23,91,18.00,8.00,-995.00
2024-05-17 15:32:47.560056,0,0,0,0,0,0,75,77,78,40,55,165.64,91,15.00,-4.00,-980.00
2024-05-17 15:32:47.611109,0,0,0,0,0,0,75,77,79,40,55,165.49,91,14.00,-5.00,-996.00
2024-05-17 15:32:47.715439,0,0,0,0,0,0,75,77,80,40,55,165.48,91,21.00,0.00,-1083.00
2024-05-17 15:32:47.815123,0,0,0,0,0,-1,75,77,80,40,55,165.29,91,13.00,-2.00,-1102.00
2024-05-17 15:32:47.917765,0,0,0,0,0,-2,75,77,82,40,55,164.90,91,19.00,0.00,-1092.00
2024-05-17 15:32:48.070254,0,0,0,0,0,-3,75,77,85,50,55,165.41,92,5.00,-1.00,-1086.00
2024-05-17 15:32:48.121062,0,0,0,0,0,-3,75,77,89,50,55,165.40,92,14.00,16.00,-1090.00
2024-05-17 15:32:48.324268,0,0,0,0,0,-4,75,77,94,50,55,165.81,92,17.00,-1.00,-1079.00
2024-05-17 15:32:48.325182,0,0,0,0,0,-5,75,77,99,60,55,165.60,92,6.00,0.00,-1064.00
2024-05-17 15:32:48.529369,0,0,0,0,0,-5,75,77,105,60,55,165.60,92,14.00,3.00,-1042.00
2024-05-17 15:32:48.529757,0,0,0,0,0,-5,75,77,110,70,55,165.36,92,21.00,2.00,-1032.00
2024-05-17 15:32:48.631062,0,0,0,0,0,-5,75,77,116,70,55,165.65,92,9.00,0.00,-1015.00
2024-05-17 15:32:48.733834,0,0,0,0,0,-5,75,77,121,80,55,165.65,92,11.00,0.00,-1001.00
2024-05-17 15:32:48.836209,0,0,0,0,0,-5,75,77,127,90,55,165.76,92,10.00,-3.00,-992.00
2024-05-17 15:32:48.938628,0,0,0,0,0,-5,75,77,132,90,55,165.85,92,8.00,-1.00,-987.00
2024-05-17 15:32:49.039096,0,0,0,0,0,-4,75,77,138,100,55,165.87,93,18.00,6.00,-962.00
2024-05-17 15:32:49.141048,0,0,0,0,0,-4,75,77,142,100,55,166.08,93,8.00,5.00,-970.00
2024-05-17 15:32:49.243798,0,0,0,0,0,-4,75,77,147,110,55,165.99,93,10.00,2.00,-963.00
2024-05-17 15:32:49.349910,0,0,0,0,0,-4,75,77,151,110,55,165.85,93,2.00,4.00,-967.00
2024-05-17 15:32:49.453533,0,0,0,0,0,-3,75,77,156,110,55,165.86,93,0.00,2.00,-964.00
2024-05-17 15:32:49.549001,0,0,0,0,0,-3,75,77,160,120,55,166.20,93,10.00,2.00,-965.00
2024-05-17 15:32:49.655340,0,0,0,0,0,-3,75,77,163,120,55,165.87,93,8.00,5.00,-969.00
2024-05-17 15:32:49.752993,0,0,0,0,0,-2,75,77,166,120,55,165.93,93,23.00,4.00,-960.00
2024-05-17 15:32:49.863789,0,0,0,0,0,-2,75,77,169,130,55,165.83,93,13.00,1.00,-964.00
2024-05-17 15:32:49.956918,0,0,0,0,0,-2,73,77,171,130,55,166.38,93,14.00,3.00,-979.00
2024-05-17 15:32:50.061359,0,0,0,0,0,-1,73,77,173,130,55,166.03,94,17.00,0.00,-971.00
2024-05-17 15:32:50.160969,1,0,0,0,0,-1,73,77,174,130,55,166.23,94,21.00,11.00,-973.00
2024-05-17 15:32:50.263125,1,0,0,0,0,-1,73,77,175,140,55,166.20,94,23.00,0.00,-956.00
2024-05-17 15:32:50.372304,1,0,0,0,0,-1,73,77,177,140,55,165.68,94,22.00,10.00,-956.00
2024-05-17 15:32:50.467365,1,0,0,0,0,0,73,77,178,140,55,165.83,94,20.00,7.00,-975.00
2024-05-17 15:32:50.577227,1,0,0,0,0,0,73,77,178,140,55,166.37,94,19.00,13.00,-976.00
2024-05-17 15:32:50.671719,1,0,0,0,0,0,73,77,178,140,55,166.38,94,9.00,-8.00,-967.00
2024-05-17 15:32:50.782037,1,0,1,0,0,0,73,77,178,140,55,166.43,94,21.00,-3.00,-985.00
2024-05-17 15:32:50.876148,1,0,1,0,0,0,73,77,179,140,55,166.25,94,9.00,17.00,-992.00
2024-05-17 15:32:50.986688,1,0,1,0,0,0,74,77,179,140,55,166.75,94,18.00,-2.00,-992.00
2024-05-17 15:32:51.079193,1,0,1,0,0,0,74,77,180,140,55,166.21,95,22.00,17.00,-1011.00
2024-05-17 15:32:51.195418,1,0,1,0,0,0,74,77,180,140,55,166.21,95,15.00,22.00,-1010.00
2024-05-17 15:32:51.283057,1,0,1,0,0,0,74,77,180,140,55,166.42,95,21.00,2.00,-1002.00
2024-05-17 15:32:51.397541,1,0,0,0,0,0,74,77,180,140,55,166.21,95,16.00,4.00,-996.00
2024-05-17 15:32:51.487063,1,0,0,0,0,0,74,77,180,140,55,166.15,95,21.00,9.00,-995.00
2024-05-17 15:32:51.611506,1,0,0,0,0,0,74,77,180,140,55,166.05,95,25.00,19.00,-995.00
2024-05-17 15:32:51.691546,1,0,0,0,0,0,74,77,180,140,55,166.13,95,23.00,7.00,-1007.00
2024-05-17 15:32:51.743103,1,-1,0,0,0,0,74,77,180,140,55,166.34,95,37.00,19.00,-1006.00
2024-05-17 15:32:51.844182,1,-1,0,0,0,0,74,77,181,140,55,166.42,95,14.00,12.00,-1001.00
2024-05-17 15:32:51.946121,1,-1,0,0,0,0,75,76,181,140,55,166.21,95,22.00,13.00,-999.00
2024-05-17 15:32:52.113515,1,-1,0,0,0,0,75,76,181,140,55,166.07,96,32.00,5.00,-1001.00
2024-05-17 15:32:52.150044,1,0,0,0,0,0,75,76,181,140,55,166.15,96,20.00,6.00,-1002.00
2024-05-17 15:32:52.252369,1,0,0,0,0,0,75,76,180,140,55,166.32,96,13.00,7.00,-1002.00
2024-05-17 15:32:52.353933,1,0,0,0,0,0,75,76,180,140,55,165.91,96,14.00,10.00,-961.00
2024-05-17 15:32:52.456188,1,0,0,0,0,0,75,76,180,140,55,166.25,96,23.00,14.00,-943.00
2024-05-17 15:32:52.558796,1,0,0,0,0,0,75,76,180,140,55,166.39,96,23.00,10.00,-951.00
2024-05-17 15:32:52.662913,1,0,0,0,0,1,75,76,179,140,55,165.95,96,18.00,7.00,-967.00
2024-05-17 15:32:52.762897,1,0,0,0,0,1,75,76,177,140,55,166.47,96,31.00,8.00,-951.00
2024-05-17 15:32:52.932581,1,0,0,0,0,2,75,76,174,140,55,165.80,96,19.00,9.00,-963.00
2024-05-17 15:32:52.966625,1,0,0,0,0,2,74,76,170,130,55,165.92,96,21.00,13.00,-979.00
2024-05-17 15:32:53.138020,1,0,0,0,0,2,74,76,167,130,55,165.90,97,16.00,19.00,-989.00
2024-05-17 15:32:53.172349,1,0,0,0,0,2,74,76,164,130,55,165.85,97,16.00,4.00,-978.00
2024-05-17 15:32:53.271745,1,0,0,0,0,2,74,76,162,130,55,166.12,97,17.00,3.00,-1000.00
2024-05-17 15:32:53.444206,1,0,0,0,0,2,74,76,158,120,55,165.99,97,29.00,15.00,-1005.00
2024-05-17 15:32:53.476250,1,0,0,0,0,2,74,76,156,120,55,166.02,97,12.00,11.00,-1008.00
2024-05-17 15:32:53.649881,1,0,0,0,0,2,74,76,152,120,55,165.91,97,14.00,14.00,-1017.00
2024-05-17 15:32:53.685886,1,0,0,0,0,2,74,76,151,110,55,165.98,97,16.00,14.00,-1027.00
2024-05-17 15:32:53.786294,1,0,0,0,0,2,74,76,148,110,55,165.85,97,24.00,16.00,-1020.00
2024-05-17 15:32:53.884726,1,0,0,0,0,2,74,76,145,110,55,166.01,97,12.00,1.00,-999.00
2024-05-17 15:32:54.061421,1,0,0,0,0,2,74,76,143,110,55,165.89,97,11.00,5.00,-1002.00
2024-05-17 15:32:54.088698,1,0,0,0,0,1,74,76,141,110,55,165.98,98,28.00,0.00,-1007.00
2024-05-17 15:32:54.191406,1,0,0,0,0,1,74,76,139,100,55,165.92,98,22.00,2.00,-1020.00
2024-05-17 15:32:54.365781,1,0,0,0,0,1,74,76,138,100,55,165.70,98,23.00,-6.00,-1002.00
2024-05-17 15:32:54.395318,1,0,0,0,0,1,74,76,137,100,55,165.91,98,40.00,6.00,-1015.00
2024-05-17 15:32:54.496931,1,0,0,0,0,1,74,76,135,100,55,165.54,98,24.00,0.00,-1007.00
2024-05-17 15:32:54.673308,1,0,0,0,0,1,74,76,134,100,55,165.59,98,23.00,6.00,-1016.00
2024-05-17 15:32:54.702345,1,0,0,0,0,1,74,76,133,100,55,165.81,98,19.00,3.00,-1012.00
2024-05-17 15:32:54.804201,1,0,0,0,0,0,74,76,132,100,55,165.65,98,22.00,-1.00,-1030.00
2024-05-17 15:32:54.904824,1,0,0,0,0,0,74,76,132,90,55,165.62,98,30.00,6.00,-1021.00
2024-05-17 15:32:55.084742,1,0,0,0,0,0,74,76,131,90,55,165.80,98,19.00,4.00,-1019.00
2024-05-17 15:32:55.108967,1,0,0,0,0,0,74,76,131,90,55,165.84,99,29.00,14.00,-1015.00
2024-05-17 15:32:55.287469,1,0,0,0,0,0,74,76,131,90,55,165.67,99,30.00,8.00,-999.00
2024-05-17 15:32:55.287668,1,0,0,0,0,0,74,76,131,90,55,165.67,99,20.00,2.00,-1000.00
2024-05-17 15:32:55.363847,1,0,0,0,0,0,74,76,131,90,55,165.49,99,25.00,0.00,-1007.00
2024-05-17 15:32:55.467397,1,0,0,0,0,0,74,76,131,90,55,165.49,99,26.00,7.00,-1004.00
2024-05-17 15:32:55.567974,1,0,0,0,0,0,74,76,131,90,55,165.82,99,23.00,1.00,-988.00
2024-05-17 15:32:55.697183,1,0,0,0,0,0,74,76,131,90,55,165.59,99,29.00,9.00,-999.00
2024-05-17 15:32:55.772359,1,0,0,0,0,0,74,76,132,90,55,165.80,99,29.00,3.00,-994.00
2024-05-17 15:32:55.902155,1,0,0,0,0,0,74,76,132,90,55,165.69,99,13.00,-6.00,-993.00
2024-05-17 15:32:55.976473,1,0,0,0,0,0,73,76,132,90,55,165.58,99,16.00,-6.00,-1002.00
2024-05-17 15:32:56.078649,1,0,0,0,0,0,73,76,132,90,55,165.78,100,24.00,-5.00,-1008.00
2024-05-17 15:32:56.209078,1,0,0,0,0,0,73,76,133,90,55,165.60,100,18.00,-3.00,-983.00
2024-05-17 15:32:56.284840,1,0,0,0,0,0,73,76,133,90,55,165.67,100,25.00,0.00,-997.00
2024-05-17 15:32:56.383833,1,0,0,0,0,0,73,76,133,90,55,165.81,100,14.00,-3.00,-993.00
2024-05-17 15:32:56.516726,1,0,0,0,0,0,73,76,133,90,55,165.85,100,12.00,-2.00,-1003.00
2024-05-17 15:32:56.590734,1,0,0,0,0,0,73,76,132,90,55,165.52,100,29.00,-6.00,-988.00
2024-05-17 15:32:56.689941,1,0,0,0,0,0,73,76,133,90,55,165.78,100,18.00,-3.00,-999.00
2024-05-17 15:32:56.791742,1,0,0,0,0,0,73,76,133,90,55,165.82,100,19.00,-5.00,-996.00
2024-05-17 15:32:56.925768,0,0,0,0,0,0,73,76,135,90,55,165.71,100,20.00,1.00,-1000.00
2024-05-17 15:32:56.995608,-5,0,0,0,0,0,73,76,135,90,55,165.74,100,12.00,5.00,-1019.00
2024-05-17 15:32:57.130547,-7,0,0,1,0,0,73,76,136,90,55,165.66,101,15.00,-1.00,-987.00
2024-05-17 15:32:57.201451,-7,0,0,3,0,0,73,76,135,90,55,165.97,101,21.00,-3.00,-997.00
2024-05-17 15:32:57.302092,-6,0,0,4,0,0,73,76,135,90,55,166.03,101,0.00,4.00,-1005.00
2024-05-17 15:32:57.406104,-6,0,0,5,0,0,73,76,134,90,55,165.74,101,-12.00,2.00,-1012.00
2024-05-17 15:32:57.509707,-5,0,0,6,0,0,73,76,134,90,55,165.93,101,-11.00,9.00,-1007.00
2024-05-17 15:32:57.608719,-5,0,0,6,0,0,73,76,131,90,55,165.73,101,-21.00,2.00,-1008.00
2024-05-17 15:32:57.712489,-4,0,0,7,0,0,73,76,132,90,55,165.84,101,-25.00,9.00,-1007.00
2024-05-17 15:32:57.811555,-4,0,0,7,0,0,73,76,135,90,55,165.35,101,-35.00,13.00,-1004.00
2024-05-17 15:32:57.949779,0,0,0,7,0,0,73,76,133,90,55,165.75,101,-41.00,-1.00,-992.00
2024-05-17 15:32:58.025579,3,0,0,5,0,0,74,76,133,90,55,165.85,102,-46.00,16.00,-997.00
2024-05-17 15:32:58.117552,4,0,0,4,0,0,74,76,133,90,55,165.58,102,-44.00,8.00,-1002.00
2024-05-17 15:32:58.257089,3,0,0,3,0,0,74,76,134,90,55,165.76,102,-21.00,-1.00,-1013.00
2024-05-17 15:32:58.321453,1,0,0,3,0,0,74,76,133,90,55,165.54,102,-18.00,0.00,-990.00
2024-05-17 15:32:58.461776,0,0,0,3,0,0,74,76,132,90,55,165.70,102,-27.00,7.00,-994.00
2024-05-17 15:32:58.529640,0,0,0,2,0,0,74,76,132,90,55,165.77,102,-17.00,8.00,-987.00
2024-05-17 15:32:58.627465,0,0,0,2,0,0,74,76,132,90,55,165.54,102,-20.00,11.00,-989.00
2024-05-17 15:32:58.769792,0,0,0,2,0,0,74,76,132,90,55,165.53,102,-2.00,9.00,-1000.00
2024-05-17 15:32:58.831928,0,0,0,2,0,0,74,76,132,90,55,166.03,102,-11.00,30.00,-1009.00
2024-05-17 15:32:58.973724,0,0,0,2,0,0,74,76,132,90,55,165.75,102,0.00,7.00,-1001.00
2024-05-17 15:32:59.036591,1,0,0,2,0,0,73,76,132,90,55,165.63,103,-5.00,0.00,-997.00
2024-05-17 15:32:59.087940,3,0,0,2,0,0,73,76,133,90,55,165.86,103,-1.00,9.00,-972.00
2024-05-17 15:32:59.289488,5,0,0,1,0,0,73,76,133,90,55,165.93,103,-15.00,3.00,-1015.00
2024-05-17 15:32:59.290418,2,0,0,0,0,0,73,76,133,90,55,165.97,103,4.00,5.00,-1005.00
2024-05-17 15:32:59.392715,1,0,0,0,0,0,73,76,133,90,55,165.60,103,-2.00,10.00,-1010.00
2024-05-17 15:32:59.588973,0,0,0,0,0,0,73,76,133,90,55,165.60,103,4.00,8.00,-998.00
2024-05-17 15:32:59.596487,0,0,0,0,0,0,73,76,132,90,55,165.39,103,0.00,7.00,-1014.00
2024-05-17 15:32:59.793181,1,0,0,0,0,0,73,76,132,90,55,165.89,103,15.00,0.00,-1016.00
2024-05-17 15:32:59.804914,1,0,0,0,0,0,73,76,132,90,55,165.85,103,7.00,6.00,-1005.00
2024-05-17 15:32:59.903722,1,0,0,0,0,0,73,76,132,90,55,165.93,103,11.00,-1.00,-994.00
2024-05-17 15:33:00.100313,0,0,0,0,0,0,74,75,132,90,55,165.60,104,3.00,10.00,-1003.00
2024-05-17 15:33:00.106577,0,0,0,0,0,0,74,75,132,90,55,165.83,104,17.00,4.00,-1005.00
2024-05-17 15:33:00.305103,0,0,0,0,0,0,74,75,133,90,55,165.50,104,4.00,8.00,-995.00
2024-05-17 15:33:00.310577,0,0,0,0,0,0,74,75,133,90,55,165.69,104,3.00,19.00,-982.00
2024-05-17 15:33:00.509987,0,0,0,0,0,0,74,75,133,90,55,165.65,104,20.00,-5.00,-988.00
2024-05-17 15:33:00.514585,0,0,0,0,0,0,74,75,133,100,55,165.93,104,0.00,7.00,-989.00
2024-05-17 15:33:00.718154,0,0,0,0,0,0,74,75,134,100,55,165.90,104,4.00,11.00,-1004.00
2024-05-17 15:33:00.718395,0,0,0,0,0,0,74,75,133,100,55,165.69,104,10.00,-2.00,-990.00
2024-05-17 15:33:00.822673,0,0,0,0,0,0,74,75,133,100,55,165.71,104,4.00,8.00,-1000.00
2024-05-17 15:33:00.922638,0,0,0,0,0,0,74,75,134,100,55,165.99,104,7.00,3.00,-1000.00
2024-05-17 15:33:01.024507,0,0,0,0,0,0,73,76,133,100,55,165.65,105,1.00,0.00,-1003.00
2024-05-17 15:33:01.126623,0,0,0,0,0,0,73,76,133,90,55,165.92,105,2.00,0.00,-991.00
2024-05-17 15:33:01.228551,0,0,0,0,0,0,73,76,133,90,55,165.74,105,0.00,1.00,-1007.00
2024-05-17 15:33:01.345477,0,0,0,0,0,0,73,76,133,90,55,165.81,105,0.00,0.00,-1007.00
2024-05-17 15:33:01.432636,0,0,0,0,0,0,73,76,133,90,55,165.88,105,-12.00,5.00,-1008.00
2024-05-17 15:33:01.534384,3,0,0,0,0,0,73,76,133,90,55,166.04,105,-13.00,5.00,-998.00
2024-05-17 15:33:01.636513,7,0,0,-1,0,0,73,76,134,90,55,166.24,105,-15.00,5.00,-1019.00
2024-05-17 15:33:01.738787,7,0,0,-3,0,0,73,76,134,90,55,165.80,105,0.00,13.00,-1023.00
2024-05-17 15:33:01.841020,7,0,0,-4,0,0,73,76,134,90,55,165.80,105,11.00,0.00,-1006.00
2024-05-17 15:33:01.943340,6,0,0,-5,0,0,73,76,132,90,55,165.89,105,27.00,8.00,-1014.00
2024-05-17 15:33:02.045772,6,0,0,-6,0,0,73,76,133,90,55,165.99,106,15.00,15.00,-1006.00
2024-05-17 15:33:02.149771,5,0,0,-6,0,0,73,76,134,90,55,165.62,106,41.00,11.00,-1003.00
2024-05-17 15:33:02.250880,5,0,0,-7,0,0,73,76,133,90,55,165.61,106,37.00,12.00,-1006.00
2024-05-17 15:33:02.355648,3,0,0,-7,0,0,73,76,133,90,55,165.54,106,55.00,17.00,-1006.00
2024-05-17 15:33:02.452512,0,0,1,-7,0,0,73,76,133,90,55,165.57,106,59.00,17.00,-1004.00
2024-05-17 15:33:02.554333,-2,0,1,-6,0,0,73,76,135,90,55,165.80,106,58.00,14.00,-989.00
2024-05-17 15:33:02.605459,-3,-1,1,-5,0,0,73,76,134,100,55,165.73,106,40.00,11.00,-1006.00
2024-05-17 15:33:02.762534,-3,-1,1,-4,0,0,73,76,135,100,55,165.70,106,41.00,8.00,-1001.00
2024-05-17 15:33:02.809628,-1,0,1,-3,0,0,73,76,134,100,55,165.62,106,29.00,9.00,-1000.00
2024-05-17 15:33:02.967362,0,0,1,-3,0,0,73,76,132,90,55,165.64,106,24.00,-2.00,-1005.00
2024-05-17 15:33:03.013262,0,0,1,-3,0,0,74,76,132,90,55,165.55,107,28.00,1.00,-1008.00
2024-05-17 15:33:03.172144,0,0,1,-3,0,0,74,76,132,90,55,165.88,107,24.00,8.00,-1011.00
2024-05-17 15:33:03.217279,0,0,1,-3,0,0,74,76,132,90,55,165.55,107,25.00,12.00,-1001.00
2024-05-17 15:33:03.319351,0,0,1,-2,0,0,74,76,133,90,55,165.74,107,26.00,2.00,-993.00
2024-05-17 15:33:03.479330,0,0,1,-2,0,0,74,76,132,90,55,166.06,107,26.00,1.00,-1004.00
2024-05-17 15:33:03.523257,0,0,1,-2,0,0,74,76,132,90,55,165.83,107,15.00,8.00,-1006.00
2024-05-17 15:33:03.684175,-3,0,1,-2,0,0,74,76,135,90,55,165.76,107,14.00,3.00,-991.00
2024-05-17 15:33:03.727253,-3,0,1,-1,0,0,74,76,135,90,55,165.85,107,21.00,2.00,-989.00
2024-05-17 15:33:03.829520,-1,0,1,0,0,0,74,76,132,90,55,165.91,107,9.00,5.00,-1006.00
2024-05-17 15:33:03.991616,0,0,0,0,0,0,74,76,132,90,55,165.81,107,12.00,3.00,-1001.00
2024-05-17 15:33:04.033461,0,0,0,0,0,0,73,75,131,90,55,165.65,108,18.00,-2.00,-1010.00
2024-05-17 15:33:04.196283,0,0,0,0,0,0,73,75,131,90,55,166.01,108,25.00,12.00,-1010.00
2024-05-17 15:33:04.237629,0,0,0,0,0,0,73,75,132,90,55,165.77,108,20.00,12.00,-1006.00
2024-05-17 15:33:04.400937,0,0,0,0,0,0,73,75,132,90,55,165.52,108,25.00,7.00,-1002.00
2024-05-17 15:33:04.441442,0,0,0,0,0,0,73,75,132,90,55,165.55,108,12.00,6.00,-1004.00
2024-05-17 15:33:04.543435,0,0,0,0,0,0,73,75,133,90,55,165.83,108,23.00,12.00,-1003.00
2024-05-17 15:33:04.645438,0,0,0,0,0,0,73,75,133,90,55,165.78,108,20.00,11.00,-1001.00
2024-05-17 15:33:04.810645,0,0,0,0,0,0,73,75,134,90,55,166.11,108,23.00,11.00,-998.00
2024-05-17 15:33:04.849488,1,0,0,0,0,0,73,75,133,100,55,165.53,108,9.00,-4.00,-994.00
2024-05-17 15:33:05.015892,1,0,0,0,0,0,73,75,134,100,55,165.85,108,15.00,10.00,-1005.00
2024-05-17 15:33:05.053391,1,0,0,0,0,0,73,75,134,100,55,165.63,109,19.00,5.00,-978.00
2024-05-17 15:33:05.156224,1,0,0,0,0,0,73,75,134,100,55,165.95,109,9.00,0.00,-1004.00
2024-05-17 15:33:05.322630,1,0,0,0,0,0,73,75,134,100,55,166.13,109,23.00,12.00,-995.00
2024-05-17 15:33:05.362415,1,0,0,0,0,0,73,75,134,100,55,165.96,109,13.00,8.00,-996.00
2024-05-17 15:33:05.461618,1,0,0,0,0,0,73,75,133,100,55,165.77,109,18.00,8.00,-994.00
2024-05-17 15:33:05.563351,1,0,0,0,0,0,73,75,133,100,55,165.55,109,23.00,9.00,-999.00
2024-05-17 15:33:05.732064,1,0,0,0,0,0,73,75,133,100,55,165.67,109,16.00,2.00,-992.00
2024-05-17 15:33:05.767344,1,0,0,0,0,0,73,75,133,90,55,165.72,109,17.00,5.00,-1002.00
2024-05-17 15:33:05.869335,1,0,0,0,0,0,73,75,133,90,55,165.59,109,20.00,11.00,-1004.00
2024-05-17 15:33:06.039261,0,-2,0,0,0,0,73,75,133,90,55,165.89,109,10.00,11.00,-1009.00
2024-05-17 15:33:06.073194,0,-8,0,0,0,0,73,75,136,90,55,165.59,110,11.00,1.00,-1019.00
2024-05-17 15:33:06.244053,0,-8,0,0,-2,0,73,75,135,90,55,165.68,110,23.00,20.00,-1006.00
2024-05-17 15:33:06.277202,0,-5,0,0,-3,0,73,75,132,90,55,165.69,110,6.00,23.00,-1006.00
2024-05-17 15:33:06.327929,1,-2,0,0,-3,0,73,75,133,90,55,165.73,110,18.00,30.00,-1002.00
2024-05-17 15:33:06.430285,1,0,0,0,-3,0,73,75,132,90,55,165.74,110,16.00,34.00,-990.00
2024-05-17 15:33:06.531973,1,0,0,0,-3,0,73,75,132,90,55,166.08,110,18.00,25.00,-1003.00
2024-05-17 15:33:06.634772,1,0,0,0,-2,0,73,75,133,90,55,165.84,110,22.00,16.00,-996.00
2024-05-17 15:33:06.736639,1,-1,0,0,-2,0,73,75,134,90,55,165.58,110,23.00,21.00,-996.00
2024-05-17 15:33:06.838023,1,-1,0,0,-2,0,73,75,134,90,55,165.88,110,19.00,26.00,-992.00
2024-05-17 15:33:06.940048,1,0,0,0,-2,0,73,75,133,90,55,165.65,110,27.00,22.00,-989.00
2024-05-17 15:33:07.063259,1,0,0,0,-2,0,73,75,132,90,55,165.79,111,22.00,17.00,-1005.00
2024-05-17 15:33:07.144092,1,0,0,0,-2,0,73,75,133,90,55,165.93,111,20.00,23.00,-998.00
2024-05-17 15:33:07.267983,1,0,0,0,-2,0,73,75,132,90,55,165.78,111,20.00,23.00,-987.00
2024-05-17 15:33:07.347914,2,0,0,0,-2,0,73,75,133,90,55,165.69,111,13.00,19.00,-1005.00
2024-05-17 15:33:07.473294,3,0,0,0,-2,0,73,75,133,90,55,165.52,111,17.00,11.00,-993.00
2024-05-17 15:33:07.551937,3,0,0,0,-2,0,73,75,133,90,55,165.87,111,25.00,20.00,-1007.00
2024-05-17 15:33:07.677644,3,0,0,0,-2,0,73,75,133,90,55,165.72,111,30.00,13.00,-1001.00
2024-05-17 15:33:07.755892,-1,0,0,0,-2,0,73,75,134,100,55,165.76,111,44.00,11.00,-984.00
2024-05-17 15:33:07.882860,0,0,0,0,-1,0,73,75,135,100,55,165.79,111,24.00,22.00,-1000.00
2024-05-17 15:33:07.962087,1,4,0,0,-1,0,73,75,134,100,55,165.67,111,29.00,20.00,-991.00
2024-05-17 15:33:08.061946,5,2,0,0,0,0,73,76,136,100,55,166.02,112,20.00,3.00,-1014.00
2024-05-17 15:33:08.189636,5,0,0,0,0,0,73,76,135,100,55,165.82,112,18.00,6.00,-1039.00
2024-05-17 15:33:08.266122,0,0,0,-1,0,0,73,76,134,100,55,165.81,112,58.00,2.00,-969.00
2024-05-17 15:33:08.368019,-2,0,0,-1,0,0,73,76,135,100,55,165.71,112,21.00,8.00,-996.00
2024-05-17 15:33:08.496940,0,0,0,0,0,0,73,76,134,100,55,165.90,112,17.00,8.00,-995.00
2024-05-17 15:33:08.572503,1,0,0,0,0,0,73,76,134,100,55,165.91,112,29.00,1.00,-996.00
2024-05-17 15:33:08.703406,1,0,0,0,0,0,73,76,134,100,55,165.96,112,29.00,5.00,-995.00
2024-05-17 15:33:08.776138,1,0,0,0,0,0,73,76,134,100,55,165.65,112,22.00,6.00,-990.00
2024-05-17 15:33:08.906536,1,0,0,0,0,0,73,76,133,100,55,165.98,112,14.00,3.00,-993.00
2024-05-17 15:33:08.980050,1,0,0,0,0,0,73,76,134,100,55,165.66,112,24.00,13.00,-998.00
2024-05-17 15:33:09.082505,1,0,0,0,0,0,73,75,134,100,55,165.97,113,19.00,4.00,-1008.00
2024-05-17 15:33:09.214575,1,0,0,0,0,0,73,75,134,100,55,165.75,113,20.00,0.00,-991.00
2024-05-17 15:33:09.286541,1,0,0,0,0,0,73,75,134,100,55,165.82,113,13.00,2.00,-1000.00
2024-05-17 15:33:09.418521,1,0,0,0,0,0,73,75,134,100,55,165.55,113,18.00,9.00,-1001.00
2024-05-17 15:33:09.490021,1,0,0,0,0,0,73,75,134,100,55,165.89,113,8.00,1.00,-1000.00
2024-05-17 15:33:09.591860,1,0,0,0,0,0,73,75,134,100,55,165.85,113,30.00,12.00,-1005.00
2024-05-17 15:33:09.725843,1,0,0,0,0,0,73,75,134,100,55,165.77,113,11.00,7.00,-1004.00
2024-05-17 15:33:09.796198,1,0,0,0,0,0,73,75,134,100,55,165.84,113,22.00,1.00,-988.00
2024-05-17 15:33:09.847004,1,0,0,0,0,0,73,75,134,100,55,165.76,113,32.00,4.00,-999.00
2024-05-17 15:33:10.033894,1,0,0,0,0,0,73,75,134,100,55,165.71,113,18.00,1.00,-989.00
2024-05-17 15:33:10.104290,1,0,0,0,0,0,73,74,134,100,55,165.81,114,10.00,2.00,-997.00
2024-05-17 15:33:10.154737,1,0,0,0,0,0,73,74,134,100,55,165.85,114,21.00,14.00,-993.00
2024-05-17 15:33:10.255297,1,0,0,0,0,0,73,74,134,100,55,165.95,114,17.00,1.00,-996.00
2024-05-17 15:33:10.356910,1,0,0,0,0,0,73,74,135,100,55,165.73,114,14.00,0.00,-1008.00
2024-05-17 15:33:10.544799,1,0,0,0,0,0,73,74,135,100,55,165.79,114,21.00,-10.00,-1021.00
2024-05-17 15:33:10.560812,0,5,0,0,0,0,73,74,136,100,55,165.66,114,18.00,11.00,-981.00
2024-05-17 15:33:10.749542,0,8,0,0,1,0,73,74,136,100,55,165.63,114,16.00,-2.00,-1007.00
2024-05-17 15:33:10.764990,0,5,0,0,2,0,73,74,135,100,55,165.63,114,18.00,-17.00,-1016.00
2024-05-17 15:33:10.954676,1,3,0,0,3,0,73,74,135,100,55,165.94,114,8.00,-9.00,-1006.00
2024-05-17 15:33:10.969079,1,0,0,0,3,0,73,74,135,100,55,165.84,114,12.00,-24.00,-1011.00
2024-05-17 15:33:11.163564,0,-1,0,0,3,0,73,74,135,100,55,165.59,115,9.00,-18.00,-1004.00
2024-05-17 15:33:11.172930,0,0,0,0,2,0,73,74,135,100,55,165.51,115,14.00,-13.00,-988.00
2024-05-17 15:33:11.364018,0,0,0,0,2,0,73,74,135,100,55,165.76,115,14.00,-2.00,-988.00
2024-05-17 15:33:11.376845,1,0,0,0,2,0,73,74,135,100,55,165.65,115,10.00,-13.00,-981.00
2024-05-17 15:33:11.568791,1,0,0,0,2,0,73,74,135,100,55,165.75,115,14.00,-1.00,-981.00
2024-05-17 15:33:11.581658,1,0,0,0,2,0,73,74,134,100,55,165.61,115,18.00,-7.00,-991.00
2024-05-17 15:33:11.773643,1,0,0,0,2,0,73,74,133,100,55,165.71,115,22.00,-11.00,-1007.00
2024-05-17 15:33:11.785699,0,0,0,0,2,0,73,74,133,100,55,165.71,115,14.00,-8.00,-1001.00
2024-05-17 15:33:11.988161,0,0,0,0,2,0,73,74,133,100,55,165.68,115,11.00,-17.00,-992.00
2024-05-17 15:33:11.990500,1,0,0,0,2,0,73,74,132,100,55,165.79,115,6.00,4.00,-1007.00
2024-05-17 15:33:12.092235,1,0,0,0,2,0,73,74,133,90,55,166.00,116,13.00,-9.00,-999.00
2024-05-17 15:33:12.285926,1,-1,0,0,2,0,73,74,133,90,55,165.84,116,17.00,-7.00,-999.00
2024-05-17 15:33:12.295777,1,-3,0,0,2,0,73,74,132,90,55,165.63,116,17.00,-10.00,-1014.00
2024-05-17 15:33:12.397748,1,-4,0,0,1,0,73,74,133,90,55,165.96,116,23.00,-6.00,-1000.00
2024-05-17 15:33:12.502180,0,-2,0,0,0,0,73,74,131,90,55,165.73,116,12.00,5.00,-987.00
2024-05-17 15:33:12.602320,0,-1,0,0,0,0,73,74,132,90,55,165.94,116,10.00,6.00,-997.00
2024-05-17 15:33:12.797779,0,0,0,0,0,0,73,74,132,90,55,165.61,116,19.00,0.00,-1009.00
2024-05-17 15:33:12.805866,0,-1,0,0,0,0,73,74,131,90,55,165.50,116,11.00,5.00,-1010.00
2024-05-17 15:33:13.002584,0,-1,0,0,0,0,73,74,132,90,55,165.71,116,4.00,12.00,-999.00
2024-05-17 15:33:13.010172,0,-1,0,0,0,0,73,74,132,90,55,165.71,116,18.00,8.00,-988.00
2024-05-17 15:33:13.207376,0,-1,0,0,0,0,72,75,133,90,55,165.33,117,13.00,9.00,-992.00
2024-05-17 15:33:13.213908,1,0,0,0,0,0,72,75,133,90,55,165.91,117,18.00,19.00,-995.00
2024-05-17 15:33:13.318372,1,0,0,0,0,0,72,75,133,90,55,165.87,117,4.00,13.00,-1008.00
2024-05-17 15:33:13.367335,1,0,0,0,0,0,72,75,133,90,55,166.06,117,4.00,10.00,-995.00
2024-05-17 15:33:13.514560,1,0,1,0,0,0,72,75,133,90,55,165.71,117,8.00,10.00,-994.00
2024-05-17 15:33:13.573110,1,0,0,0,0,0,72,75,133,90,55,165.78,117,15.00,7.00,-993.00
2024-05-17 15:33:13.673476,0,0,0,0,0,0,72,75,133,90,55,165.85,117,9.00,1.00,-988.00
2024-05-17 15:33:13.774939,0,0,1,0,0,0,72,75,133,90,55,165.90,117,7.00,20.00,-1007.00
2024-05-17 15:33:13.926164,0,0,1,0,0,0,72,75,133,90,55,165.62,117,8.00,11.00,-995.00
2024-05-17 15:33:13.980461,1,0,1,0,0,0,72,75,132,90,55,165.81,117,14.00,17.00,-1006.00
2024-05-17 15:33:14.080858,1,0,0,0,0,0,72,74,132,90,55,165.74,118,12.00,17.00,-1004.00
2024-05-17 15:33:14.231459,1,0,0,0,0,0,72,74,132,90,55,165.67,118,4.00,9.00,-1004.00
2024-05-17 15:33:14.284878,1,0,0,0,0,0,72,74,132,90,55,165.65,118,9.00,21.00,-997.00
2024-05-17 15:33:14.400838,1,-1,0,0,0,0,72,74,132,90,55,165.73,118,18.00,13.00,-1005.00
2024-05-17 15:33:14.489783,1,0,0,0,0,0,72,74,133,90,55,165.65,118,12.00,16.00,-1005.00
2024-05-17 15:33:14.591889,1,0,2,0,0,0,72,74,131,90,55,165.77,118,13.00,18.00,-1012.00
2024-05-17 15:33:14.693833,1,0,8,0,0,0,72,74,131,90,55,165.50,118,40.00,-15.00,-995.00
2024-05-17 15:33:14.795869,1,0,14,0,0,0,72,74,131,90,55,166.08,118,23.00,14.00,-1011.00
2024-05-17 15:33:14.953591,1,0,20,0,0,0,72,74,130,90,55,165.54,118,24.00,17.00,-994.00
2024-05-17 15:33:14.999886,1,0,26,0,0,0,72,74,130,90,55,165.68,118,17.00,3.00,-1017.00
2024-05-17 15:33:15.154378,1,0,38,0,0,0,73,74,131,90,55,165.91,119,26.00,-4.00,-994.00
2024-05-17 15:33:15.202657,1,0,44,0,0,0,73,74,131,90,55,165.94,119,29.00,0.00,-1002.00
2024-05-17 15:33:15.358664,1,0,50,0,0,0,73,74,131,90,55,165.60,119,28.00,0.00,-996.00
2024-05-17 15:33:15.406697,1,0,55,0,0,0,73,74,131,90,55,165.67,119,28.00,-7.00,-994.00
2024-05-17 15:33:15.567553,1,1,61,0,0,0,73,74,132,90,55,165.69,119,33.00,1.00,-1006.00
2024-05-17 15:33:15.610752,1,1,67,0,0,0,73,74,132,90,55,165.84,119,32.00,-10.00,-1005.00
2024-05-17 15:33:15.768714,1,1,73,0,0,0,73,74,132,90,55,165.82,119,14.00,-11.00,-1005.00
2024-05-17 15:33:15.814620,0,1,79,0,0,0,73,74,132,90,55,165.82,119,23.00,-6.00,-1001.00
2024-05-17 15:33:15.972040,0,1,85,0,0,0,73,74,132,90,55,165.58,119,24.00,-6.00,-999.00
2024-05-17 15:33:16.018543,0,1,91,0,0,0,73,74,132,90,55,165.80,120,25.00,-7.00,-1008.00
2024-05-17 15:33:16.176914,0,1,97,0,0,0,73,75,133,90,55,165.82,120,25.00,-16.00,-999.00
2024-05-17 15:33:16.222524,0,1,103,0,0,0,73,75,133,90,55,165.88,120,26.00,-11.00,-1000.00
2024-05-17 15:33:16.382302,0,1,109,0,0,0,73,75,133,90,55,165.47,120,12.00,-6.00,-997.00
2024-05-17 15:33:16.426507,0,1,115,0,0,0,73,75,133,90,55,165.74,120,19.00,-12.00,-1005.00
2024-05-17 15:33:16.587456,0,1,121,0,0,0,73,75,133,90,55,165.81,120,13.00,-19.00,-994.00
2024-05-17 15:33:16.630639,0,1,126,0,0,0,73,75,133,90,55,165.49,120,9.00,-13.00,-997.00
2024-05-17 15:33:16.898047,0,1,132,0,0,0,73,75,133,90,55,165.92,120,28.00,-17.00,-991.00
2024-05-17 15:33:16.898559,0,1,138,0,0,0,73,75,133,90,55,166.07,120,15.00,-16.00,-1000.00
2024-05-17 15:33:16.898887,0,1,144,0,0,0,73,75,134,90,55,165.87,120,11.00,-16.00,-997.00
2024-05-17 15:33:16.989030,0,1,150,0,0,0,73,75,134,90,55,166.25,121,3.00,-17.00,-995.00
2024-05-17 15:33:17.140594,0,1,156,0,0,0,73,74,134,100,55,166.17,121,11.00,0.00,-996.00
2024-05-17 15:33:17.192401,0,1,162,0,0,0,73,74,134,90,55,165.77,121,4.00,-18.00,-986.00
2024-05-17 15:33:17.304396,0,1,168,0,0,0,73,74,134,90,55,165.59,121,-8.00,-12.00,-1009.00
2024-05-17 15:33:17.395486,0,1,174,0,0,0,73,74,134,90,55,165.82,121,-3.00,-8.00,-1002.00
2024-05-17 15:33:17.510249,0,1,-179,0,0,0,73,74,134,90,55,165.72,121,-8.00,-20.00,-996.00
2024-05-17 15:33:17.599392,0,1,-173,0,0,0,73,74,135,100,55,165.76,121,7.00,-7.00,-999.00
2024-05-17 15:33:17.715409,0,1,-167,0,0,0,73,74,135,100,55,165.78,121,-6.00,-3.00,-990.00
2024-05-17 15:33:17.803875,0,0,-161,0,0,0,73,74,135,100,55,165.87,121,-1.00,-4.00,-993.00
2024-05-17 15:33:17.928662,0,0,-155,0,0,0,73,74,136,100,55,165.98,121,-2.00,-23.00,-988.00
2024-05-17 15:33:18.007417,0,0,-149,0,0,0,73,74,135,100,55,166.04,122,-11.00,-13.00,-991.00
2024-05-17 15:33:18.125628,0,0,-143,0,0,0,72,74,134,100,55,165.76,122,1.00,-13.00,-975.00
2024-05-17 15:33:18.211496,0,0,-137,0,0,0,72,74,134,100,55,165.57,122,-1.00,-9.00,-980.00
2024-05-17 15:33:18.328534,0,0,-131,0,0,0,72,74,134,100,55,166.02,122,2.00,-6.00,-1003.00
2024-05-17 15:33:18.417565,0,0,-126,0,0,0,72,74,134,100,55,165.67,122,-3.00,0.00,-993.00
2024-05-17 15:33:18.518931,0,0,-120,0,0,0,72,74,134,100,55,165.68,122,5.00,-12.00,-982.00
2024-05-17 15:33:18.619252,0,0,-114,0,0,0,72,74,134,90,55,165.71,122,2.00,-11.00,-999.00
2024-05-17 15:33:18.742132,0,0,-108,0,0,0,72,74,133,90,55,165.90,122,7.00,-12.00,-1000.00
2024-05-17 15:33:18.823313,0,0,-102,0,0,0,72,74,134,90,55,165.91,122,-1.00,-3.00,-1029.00
2024-05-17 15:33:18.945739,0,0,-96,0,0,0,72,74,135,90,55,165.81,122,3.00,-1.00,-1001.00
2024-05-17 15:33:19.027433,0,0,-90,0,0,0,72,74,135,90,55,165.75,123,0.00,5.00,-999.00
2024-05-17 15:33:19.148976,0,0,-84,0,0,0,72,75,133,90,55,165.69,123,-5.00,10.00,-998.00
2024-05-17 15:33:19.231300,0,0,-78,0,0,0,72,75,131,90,55,165.73,123,8.00,3.00,-1001.00
2024-05-17 15:33:19.356077,0,0,-72,0,0,0,72,75,131,90,55,166.01,123,-3.00,21.00,-1000.00
2024-05-17 15:33:19.435305,0,0,-66,0,0,0,72,75,131,90,55,165.71,123,7.00,7.00,-992.00
2024-05-17 15:33:19.539857,0,0,-61,0,0,0,72,75,131,90,55,165.93,123,4.00,24.00,-995.00
2024-05-17 15:33:19.639320,0,0,-55,0,0,0,72,75,131,90,55,166.16,123,5.00,24.00,-991.00
2024-05-17 15:33:19.741282,0,-1,-49,0,0,0,72,75,131,90,55,165.70,123,15.00,16.00,-999.00
2024-05-17 15:33:19.843258,0,-1,-43,0,0,0,72,75,131,90,55,165.87,123,15.00,18.00,-1012.00
2024-05-17 15:33:19.945334,0,-1,-37,0,0,0,72,75,132,90,55,165.76,123,12.00,21.00,-1019.00
2024-05-17 15:33:20.048648,1,-1,-32,0,0,0,72,75,132,90,55,165.64,124,23.00,22.00,-999.00
2024-05-17 15:33:20.149246,1,-1,-26,0,0,0,72,74,132,90,55,165.82,124,24.00,9.00,-995.00
2024-05-17 15:33:20.273051,1,0,-20,0,0,0,72,74,132,90,55,165.64,124,14.00,30.00,-1001.00
2024-05-17 15:33:20.353240,1,0,-16,0,0,0,72,74,132,90,55,165.93,124,26.00,11.00,-1008.00
2024-05-17 15:33:20.481885,1,0,-12,0,0,0,72,74,132,90,55,165.73,124,35.00,24.00,-993.00
2024-05-17 15:33:20.557262,1,0,-9,0,0,0,72,74,131,90,55,165.99,124,17.00,20.00,-1000.00
2024-05-17 15:33:20.608455,1,0,-7,0,0,0,72,74,131,90,55,165.66,124,29.00,11.00,-995.00
2024-05-17 15:33:20.784641,1,0,-6,0,0,0,72,74,132,90,55,166.05,124,14.00,10.00,-998.00
2024-05-17 15:33:20.812430,1,0,-4,0,0,0,72,74,132,90,55,166.06,124,27.00,0.00,-984.00
2024-05-17 15:33:20.991626,1,0,-3,0,0,0,72,74,132,90,55,165.66,124,13.00,10.00,-997.00
2024-05-17 15:33:21.018378,1,0,-2,0,0,0,72,74,132,90,55,165.84,125,21.00,-1.00,-1001.00
2024-05-17 15:33:21.194342,1,0,-2,0,0,0,72,74,132,90,55,165.66,125,14.00,8.00,-992.00
2024-05-17 15:33:21.220232,1,0,-1,0,0,0,72,74,132,90,55,165.80,125,29.00,2.00,-998.00
2024-05-17 15:33:21.324185,1,0,0,0,0,0,72,74,132,90,55,165.84,125,21.00,4.00,-996.00
2024-05-17 15:33:21.424517,1,0,0,0,0,0,72,74,132,90,55,165.60,125,28.00,0.00,-993.00
2024-05-17 15:33:21.526542,1,0,0,0,0,0,72,74,132,90,55,165.83,125,11.00,11.00,-1003.00
2024-05-17 15:33:21.707948,1,0,0,0,0,0,72,74,132,90,55,165.84,125,24.00,0.00,-987.00
2024-05-17 15:33:21.730296,1,0,0,0,0,0,72,74,132,90,55,165.76,125,7.00,-4.00,-1001.00
2024-05-17 15:33:21.912030,0,0,0,0,0,0,72,74,133,90,55,165.60,125,3.00,1.00,-1009.00
2024-05-17 15:33:21.934337,0,0,0,0,0,0,72,74,132,90,55,165.77,125,4.00,0.00,-1004.00
2024-05-17 15:33:22.116592,0,0,-1,0,0,0,72,74,133,90,55,165.84,126,-1.00,3.00,-997.00
2024-05-17 15:33:22.139115,0,0,-1,0,0,0,72,74,133,90,55,165.76,126,0.00,-8.00,-999.00
2024-05-17 15:33:22.322151,0,0,-1,0,0,0,72,74,133,100,55,165.71,126,4.00,0.00,-988.00
2024-05-17 15:33:22.342261,0,0,0,0,0,0,72,74,133,100,55,165.75,126,-2.00,-2.00,-997.00
2024-05-17 15:33:22.526552,0,0,0,0,0,0,72,74,133,90,55,165.78,126,-2.00,-5.00,-991.00
2024-05-17 15:33:22.546342,0,0,0,0,0,0,72,74,133,90,55,165.67,126,2.00,3.00,-987.00
2024-05-17 15:33:22.733596,0,0,0,0,0,0,72,74,132,90,55,165.62,126,2.00,-6.00,-996.00
2024-05-17 15:33:22.753338,0,0,0,0,0,0,72,74,132,90,55,165.77,126,-1.00,-8.00,-1010.00
2024-05-17 15:33:22.852333,0,0,0,0,0,0,72,74,132,90,55,166.09,126,9.00,-11.00,-999.00
2024-05-17 15:33:23.039723,0,0,0,0,0,0,72,74,132,90,55,165.75,126,5.00,-2.00,-990.00
2024-05-17 15:33:23.056268,0,0,0,0,0,0,72,74,133,90,55,165.86,127,8.00,-10.00,-1002.00
2024-05-17 15:33:23.243682,0,0,0,0,0,0,72,74,133,90,55,165.65,127,8.00,-7.00,-999.00
2024-05-17 15:33:23.260504,0,0,0,0,0,0,72,74,133,90,55,165.42,127,11.00,-8.00,-991.00
2024-05-17 15:33:23.362220,0,0,0,0,0,0,72,74,133,90,55,165.90,127,5.00,16.00,-1004.00
2024-05-17 15:33:23.552563,0,0,-3,0,0,0,72,74,133,90,55,165.61,127,27.00,1.00,-981.00
2024-05-17 15:33:23.566236,1,0,-8,0,0,0,72,74,133,90,55,165.81,127,26.00,14.00,-1001.00
2024-05-17 15:33:23.756027,1,0,-13,0,0,0,72,74,133,90,55,166.01,127,10.00,4.00,-998.00
2024-05-17 15:33:23.771318,1,0,-19,0,0,0,72,74,134,90,55,165.70,127,15.00,0.00,-1002.00
2024-05-17 15:33:23.959598,1,0,-25,0,0,0,72,74,134,90,55,165.92,127,14.00,3.00,-997.00
2024-05-17 15:33:23.976860,1,0,-30,0,0,0,72,74,133,90,55,165.84,127,25.00,12.00,-993.00
2024-05-17 15:33:24.076194,1,0,-36,0,0,0,72,74,134,90,55,165.90,128,29.00,20.00,-997.00
2024-05-17 15:33:24.267909,1,-1,-42,0,0,0,71,75,134,90,55,165.93,128,14.00,13.00,-995.00
2024-05-17 15:33:24.280094,1,-1,-48,0,0,0,71,75,133,90,55,165.86,128,14.00,15.00,-1007.00
2024-05-17 15:33:24.472619,1,-2,-54,0,0,0,71,75,133,90,55,165.84,128,8.00,15.00,-1003.00
2024-05-17 15:33:24.472654,1,-1,-60,0,0,0,71,75,133,90,55,165.81,128,10.00,16.00,-990.00
2024-05-17 15:33:24.534959,0,-1,-66,0,0,0,71,75,133,90,55,165.81,128,-1.00,24.00,-992.00
2024-05-17 15:33:24.636994,0,-1,-72,0,0,0,71,75,133,90,55,165.67,128,7.00,17.00,-1002.00
2024-05-17 15:33:24.790066,0,-1,-78,0,0,0,71,75,133,90,55,165.88,128,3.00,17.00,-1003.00
2024-05-17 15:33:24.840971,0,-1,-84,0,0,0,71,75,134,100,55,165.83,128,1.00,5.00,-995.00
2024-05-17 15:33:24.983042,0,-1,-90,0,0,0,71,75,134,100,55,165.85,128,-2.00,14.00,-983.00
2024-05-17 15:33:25.045080,0,-1,-96,0,0,0,71,75,134,100,55,165.67,129,-2.00,9.00,-991.00
2024-05-17 15:33:25.187932,0,0,-102,0,0,0,72,74,133,100,55,165.91,129,-4.00,7.00,-986.00
2024-05-17 15:33:25.249784,0,0,-108,0,0,0,72,74,133,90,55,165.95,129,-5.00,0.00,-997.00
2024-05-17 15:33:25.393282,0,0,-114,0,0,0,72,74,133,90,55,165.88,129,-4.00,0.00,-1003.00
2024-05-17 15:33:25.452963,0,0,-120,0,0,0,72,74,134,90,55,165.60,129,-1.00,4.00,-1003.00
2024-05-17 15:33:25.555237,0,0,-126,0,0,0,72,74,134,90,55,165.86,129,0.00,-2.00,-1002.00
2024-05-17 15:33:25.700896,0,0,-132,0,0,0,72,74,134,90,55,166.03,129,-1.00,7.00,-995.00
2024-05-17 15:33:25.759063,0,0,-138,0,0,0,72,74,135,90,55,165.68,129,-6.00,-5.00,-995.00
2024-05-17 15:33:25.904645,0,0,-145,0,0,0,72,74,135,90,55,165.74,129,-9.00,1.00,-999.00
2024-05-17 15:33:25.963789,0,0,-151,0,0,0,72,74,135,90,55,165.63,129,6.00,-5.00,-999.00
2024-05-17 15:33:26.109477,0,0,-157,0,0,0,72,74,136,100,55,165.89,130,5.00,-9.00,-997.00
2024-05-17 15:33:26.166918,0,0,-163,0,0,0,72,74,135,100,55,165.86,130,0.00,-6.00,-991.00
2024-05-17 15:33:26.314242,0,0,-170,0,0,0,72,74,134,100,55,165.91,130,-5.00,-13.00,-996.00
2024-05-17 15:33:26.370903,0,1,-176,0,0,0,72,74,134,100,55,165.52,130,4.00,-15.00,-996.00
2024-05-17 15:33:26.519074,0,1,177,0,0,0,72,74,134,100,55,165.90,130,6.00,-11.00,-1004.00
2024-05-17 15:33:26.575047,0,1,171,0,0,0,72,74,134,100,55,165.60,130,10.00,-11.00,-997.00
2024-05-17 15:33:26.724011,0,0,165,0,0,0,72,74,134,100,55,165.64,130,6.00,-15.00,-1007.00
2024-05-17 15:33:26.778992,0,0,159,0,0,0,72,74,133,90,55,165.63,130,4.00,-4.00,-987.00
2024-05-17 15:33:26.928621,0,0,153,0,0,0,72,74,133,90,55,165.67,130,16.00,-13.00,-1005.00
2024-05-17 15:33:26.982797,0,1,147,0,0,0,72,74,133,90,55,165.70,130,16.00,-11.00,-1000.00
2024-05-17 15:33:27.133469,0,1,141,0,0,0,72,74,133,90,55,165.81,131,6.00,-7.00,-1009.00
2024-05-17 15:33:27.186816,1,1,135,0,0,0,72,74,133,90,55,165.65,131,18.00,-11.00,-999.00
2024-05-17 15:33:27.342743,1,0,128,0,0,0,72,74,133,90,55,166.04,131,20.00,-13.00,-1013.00
2024-05-17 15:33:27.392683,1,0,122,0,0,0,72,74,132,90,55,165.67,131,11.00,-8.00,-1005.00
2024-05-17 15:33:27.493997,1,0,116,0,0,0,72,74,132,90,55,165.94,131,15.00,-7.00,-1001.00
2024-05-17 15:33:27.597382,1,0,110,0,0,0,72,74,132,90,55,165.84,131,23.00,-3.00,-992.00
2024-05-17 15:33:27.697495,1,0,104,0,0,0,72,74,132,90,55,165.88,131,15.00,-8.00,-997.00
2024-05-17 15:33:27.850368,1,0,98,0,0,0,72,74,132,90,55,165.53,131,27.00,0.00,-1002.00
2024-05-17 15:33:27.900719,1,0,91,0,0,0,72,74,132,90,55,165.83,131,25.00,1.00,-1012.00
2024-05-17 15:33:28.066023,1,0,85,0,0,0,72,74,132,90,55,165.86,131,20.00,0.00,-988.00
2024-05-17 15:33:28.106379,1,0,79,0,0,0,72,74,131,90,55,165.72,132,17.00,7.00,-1004.00
2024-05-17 15:33:28.206797,1,0,73,0,0,0,71,74,132,90,55,165.33,132,13.00,4.00,-1000.00
2024-05-17 15:33:28.362238,1,0,67,0,0,0,71,74,132,90,55,165.49,132,25.00,2.00,-1016.00
2024-05-17 15:33:28.410803,1,0,61,0,0,0,71,74,131,90,55,165.88,132,15.00,-1.00,-998.00
2024-05-17 15:33:28.567041,1,0,55,0,0,0,71,74,132,90,55,165.62,132,13.00,-2.00,-1003.00
2024-05-17 15:33:28.568342,1,0,49,0,0,0,71,74,131,90,55,165.67,132,28.00,-1.00,-995.00
2024-05-17 15:33:28.665972,1,0,43,0,0,0,71,74,132,90,55,165.74,132,15.00,6.00,-1012.00
2024-05-17 15:33:28.769013,1,0,37,0,0,0,71,74,131,90,55,165.77,132,14.00,1.00,-1004.00
2024-05-17 15:33:28.874260,1,0,31,0,0,0,71,74,131,90,55,165.83,132,20.00,10.00,-997.00
2024-05-17 15:33:28.972005,1,0,25,0,0,0,71,74,132,90,55,165.59,132,22.00,13.00,-1001.00
2024-05-17 15:33:29.079054,1,0,20,0,0,0,71,74,131,90,55,165.76,133,25.00,1.00,-1007.00
2024-05-17 15:33:29.175844,1,0,15,0,0,0,72,73,131,90,55,165.82,133,14.00,3.00,-996.00
2024-05-17 15:33:29.283890,1,0,11,0,0,0,72,73,131,90,55,165.55,133,18.00,3.00,-1002.00
2024-05-17 15:33:29.387812,1,0,9,0,0,0,72,73,131,90,55,165.56,133,16.00,4.00,-1007.00
2024-05-17 15:33:29.481814,1,0,7,0,0,0,72,73,131,90,55,165.94,133,21.00,6.00,-1001.00
2024-05-17 15:33:29.591297,1,0,5,0,0,0,72,73,131,90,55,166.04,133,11.00,4.00,-996.00
2024-05-17 15:33:29.685791,1,0,4,0,0,0,72,73,131,90,55,165.89,133,12.00,9.00,-1002.00
2024-05-17 15:33:29.795810,1,0,3,0,0,0,72,73,131,90,55,165.57,133,20.00,12.00,-997.00
2024-05-17 15:33:29.889757,1,0,2,0,0,0,72,73,131,90,55,165.76,133,29.00,8.00,-999.00
2024-05-17 15:33:30.000912,1,0,1,0,0,0,72,73,131,90,55,165.76,133,23.00,9.00,-1000.00
2024-05-17 15:33:30.095164,1,0,1,0,0,0,72,73,131,90,55,165.53,134,25.00,11.00,-994.00
2024-05-17 15:33:30.199688,1,0,1,0,0,0,72,74,131,90,55,165.83,134,18.00,11.00,-1003.00
2024-05-17 15:33:30.299558,1,0,1,0,0,0,72,74,131,90,55,165.92,134,5.00,0.00,-1001.00
2024-05-17 15:33:30.400003,1,0,1,0,0,0,72,74,131,90,55,165.70,134,24.00,2.00,-995.00
2024-05-17 15:33:30.504611,1,0,1,0,0,0,72,74,131,90,55,166.10,134,13.00,8.00,-995.00
2024-05-17 15:33:30.607244,1,0,1,0,0,0,72,74,132,90,55,165.46,134,20.00,11.00,-1020.00
2024-05-17 15:33:30.705997,1,0,1,0,0,0,72,74,132,90,55,165.61,134,27.00,16.00,-998.00
2024-05-17 15:33:30.819938,1,0,1,0,0,0,72,74,132,90,55,165.92,134,14.00,5.00,-987.00
2024-05-17 15:33:30.914280,1,0,1,0,0,0,72,74,132,90,55,165.65,134,18.00,9.00,-990.00
2024-05-17 15:33:31.011949,1,0,1,0,0,0,72,74,132,90,55,165.81,134,22.00,13.00,-1002.00
2024-05-17 15:33:31.129311,1,0,1,0,0,0,72,74,132,90,55,165.81,135,27.00,8.00,-999.00
2024-05-17 15:33:31.215835,1,0,1,0,0,0,72,74,132,90,55,165.97,135,16.00,10.00,-1002.00
2024-05-17 15:33:31.331973,1,-1,1,0,0,0,72,74,133,90,55,165.62,135,25.00,19.00,-1004.00
2024-05-17 15:33:31.419778,1,-1,1,0,0,0,72,74,133,90,55,165.80,135,13.00,20.00,-1009.00
2024-05-17 15:33:31.521845,1,-1,1,0,0,0,72,74,133,90,55,165.88,135,19.00,16.00,-1010.00
2024-05-17 15:33:31.623803,1,-1,1,0,0,0,72,74,133,90,55,165.89,135,23.00,16.00,-999.00
2024-05-17 15:33:31.741534,1,-1,1,0,0,0,72,74,133,90,55,165.82,135,5.00,12.00,-1001.00
2024-05-17 15:33:31.827954,1,0,1,0,0,0,72,74,133,90,55,165.56,135,13.00,6.00,-1004.00
2024-05-17 15:33:31.947375,0,0,1,0,0,0,72,74,133,90,55,165.78,135,7.00,13.00,-990.00
2024-05-17 15:33:31.982627,0,0,1,0,0,0,72,74,132,90,55,165.70,136,17.00,5.00,-984.00
2024-05-17 15:33:32.082474,0,0,1,0,0,0,72,74,132,90,55,165.75,136,14.00,15.00,-999.00
2024-05-17 15:33:32.253309,0,0,1,0,0,-1,72,75,131,90,55,165.61,136,15.00,25.00,-1526.00
2024-05-17 15:33:32.286515,0,0,1,0,0,-7,72,75,135,100,55,166.03,136,27.00,19.00,-1681.00
2024-05-17 15:33:32.460297,0,-39,2,0,0,-12,72,75,149,110,55,166.10,136,16.00,417.00,-1155.00
2024-05-17 15:33:32.490521,0,-155,2,0,-8,-6,72,75,212,120,55,166.19,136,-6.00,630.00,-1104.00
2024-05-17 15:33:32.592784,1,81,0,0,-7,8,72,75,255,120,55,165.99,136,-22.00,475.00,-924.00
2024-05-17 15:33:32.765420,0,0,0,0,-1,11,72,75,162,110,55,166.29,136,31.00,-204.00,-1560.00
2024-05-17 15:33:32.796508,0,1,0,1,-2,9,72,75,138,100,55,165.77,136,-12.00,21.00,-1437.00
2024-05-17 15:33:32.970190,0,3,0,1,-2,4,72,75,131,90,55,166.16,136,-11.00,26.00,-1324.00
2024-05-17 15:33:33.000539,0,1,0,0,-1,2,72,75,127,90,55,165.78,137,12.00,-2.00,-1241.00
2024-05-17 15:33:33.176401,0,0,0,0,-1,0,72,75,127,80,55,165.85,137,3.00,-4.00,-1155.00
2024-05-17 15:33:33.204530,0,0,1,0,-1,0,71,74,128,80,54,165.82,137,11.00,5.00,-1075.00
2024-05-17 15:33:33.379741,1,2,1,0,0,-1,71,74,130,90,54,165.83,137,17.00,1.00,-1036.00
2024-05-17 15:33:33.408495,1,0,1,0,0,-1,71,74,131,90,54,165.82,137,7.00,-9.00,-983.00
2024-05-17 15:33:33.584693,1,0,0,0,0,-1,71,74,133,90,54,165.85,137,2.00,-4.00,-972.00
2024-05-17 15:33:33.615539,0,-1,1,0,0,-1,71,74,136,90,54,165.70,137,25.00,0.00,-961.00
2024-05-17 15:33:33.716005,0,-1,0,0,0,-1,71,74,137,90,54,166.08,137,16.00,11.00,-964.00
2024-05-17 15:33:33.891804,0,-1,1,0,0,0,71,74,138,90,54,165.78,137,8.00,3.00,-944.00
2024-05-17 15:33:33.919521,0,0,1,0,0,0,71,74,140,90,54,165.65,137,5.00,17.00,-951.00
2024-05-17 15:33:34.096587,0,0,1,0,0,0,71,74,141,90,54,166.11,138,8.00,2.00,-973.00
2024-05-17 15:33:34.123497,0,0,1,0,0,0,71,74,141,100,54,165.72,138,5.00,5.00,-981.00
