TS,pitch,roll,yaw,vgx,vgy,vgz,templ,temph,tof,h,bat,baro,time,agx,agy,agz
2024-06-07 14:59:53.335406,1,0,29,0,0,0,80,83,10,0,89,132.60,85,28.00,-12.00,-1000.00
2024-06-07 14:59:53.426028,1,0,29,0,0,0,80,83,10,0,89,132.95,85,28.00,-11.00,-998.00
2024-06-07 14:59:53.541158,1,0,29,0,0,0,80,83,10,0,89,132.81,85,27.00,-11.00,-998.00
2024-06-07 14:59:53.629310,1,0,29,0,0,0,80,83,10,0,89,133.01,85,28.00,-12.00,-997.00
2024-06-07 14:59:53.742239,1,0,29,0,0,0,80,83,10,0,89,132.86,85,27.00,-13.00,-1000.00
2024-06-07 14:59:53.832148,1,0,29,0,0,0,80,83,10,0,89,132.93,85,27.00,-11.00,-999.00
2024-06-07 14:59:53.947392,1,0,29,0,0,0,80,83,10,0,89,133.15,85,29.00,-12.00,-999.00
2024-06-07 14:59:54.036287,1,0,29,0,0,0,80,82,10,0,89,133.07,85,29.00,-11.00,-998.00
2024-06-07 14:59:54.254595,1,0,29,0,0,0,80,82,10,0,89,132.82,85,29.00,-12.00,-1002.00
2024-06-07 14:59:54.254753,1,0,29,0,0,0,80,82,10,0,89,133.01,85,29.00,-12.00,-999.00
2024-06-07 14:59:54.342259,1,0,29,0,0,0,80,82,10,0,89,133.05,85,30.00,-11.00,-999.00
2024-06-07 14:59:54.444452,1,0,29,0,0,0,80,82,10,0,89,133.16,85,29.00,-11.00,-1000.00
2024-06-07 14:59:54.546432,1,0,29,0,0,0,80,82,10,0,89,132.67,85,29.00,-12.00,-999.00
2024-06-07 14:59:54.648257,1,0,29,0,0,0,80,82,10,0,89,132.70,85,29.00,-12.00,-996.00
2024-06-07 14:59:54.750426,1,0,29,0,0,0,80,82,10,0,89,132.73,85,29.00,-12.00,-1000.00
2024-06-07 14:59:54.854402,1,0,29,0,0,0,80,82,10,0,89,132.92,85,28.00,-11.00,-1000.00
2024-06-07 14:59:54.903318,1,0,29,0,0,0,80,82,10,0,89,133.02,85,27.00,-11.00,-1002.00
2024-06-07 14:59:55.056193,1,0,29,0,0,0,80,82,10,0,89,133.06,85,28.00,-12.00,-997.00
2024-06-07 14:59:55.179479,1,0,29,0,0,0,80,82,10,0,89,132.87,85,29.00,-13.00,-992.00
2024-06-07 14:59:55.260235,1,0,29,0,0,0,80,82,10,0,89,132.87,85,25.00,-18.00,-997.00
2024-06-07 14:59:55.385792,1,0,29,0,0,0,80,82,10,0,89,132.87,85,35.00,-16.00,-1002.00
2024-06-07 14:59:55.413172,1,0,29,0,0,0,80,82,10,0,89,132.87,85,23.00,1.00,-1001.00
2024-06-07 14:59:55.689134,1,0,29,0,0,0,80,82,10,0,89,132.87,85,13.00,-4.00,-1069.00
2024-06-07 14:59:55.689202,0,0,29,0,0,0,80,82,10,0,89,132.87,85,25.00,-7.00,-1207.00
2024-06-07 14:59:55.719340,-1,0,29,0,0,-1,80,82,10,0,89,132.87,85,17.00,5.00,-1400.00
2024-06-07 14:59:55.892280,0,0,29,0,0,-4,80,82,13,0,89,132.87,86,-8.00,13.00,-1234.00
2024-06-07 14:59:55.923052,1,0,29,0,0,-7,80,82,21,0,89,133.07,86,4.00,-2.00,-1055.00
2024-06-07 14:59:56.099243,1,0,29,0,0,-7,81,83,30,0,89,133.73,86,21.00,15.00,-1176.00
2024-06-07 14:59:56.126989,1,0,29,0,0,-7,81,83,37,10,89,133.28,86,13.00,2.00,-1045.00
2024-06-07 14:59:56.302804,1,0,29,0,0,-7,81,83,47,20,89,133.68,86,2.00,5.00,-983.00
2024-06-07 14:59:56.332536,1,0,29,0,0,-6,81,83,55,20,89,133.68,86,5.00,0.00,-945.00
2024-06-07 14:59:56.433037,0,0,29,0,0,-5,81,83,62,20,89,133.62,86,4.00,-4.00,-905.00
2024-06-07 14:59:56.610017,0,0,29,0,0,-4,81,83,68,30,89,133.78,86,5.00,4.00,-902.00
2024-06-07 14:59:56.636938,0,0,29,0,0,-3,81,83,73,30,89,133.84,86,14.00,3.00,-897.00
2024-06-07 14:59:56.919210,0,0,29,0,0,-2,81,83,77,40,89,133.69,86,12.00,-3.00,-894.00
2024-06-07 14:59:56.919453,0,0,29,0,0,-1,81,83,80,40,89,133.89,87,16.00,-13.00,-904.00
2024-06-07 14:59:56.947198,0,0,29,0,0,-1,81,83,83,40,89,133.78,87,10.00,-5.00,-932.00
2024-06-07 14:59:57.045098,0,0,29,0,0,0,81,83,86,40,89,133.84,87,8.00,-8.00,-957.00
2024-06-07 14:59:57.226115,0,0,29,0,0,0,81,83,88,40,89,133.57,87,6.00,-8.00,-976.00
2024-06-07 14:59:57.249005,0,0,29,0,0,0,81,83,90,50,89,133.54,87,5.00,-11.00,-963.00
2024-06-07 14:59:57.430232,0,0,29,0,0,0,81,83,91,50,89,133.95,87,-1.00,-4.00,-972.00
2024-06-07 14:59:57.453043,0,0,29,0,0,0,81,83,93,50,89,134.05,87,-2.00,-3.00,-968.00
2024-06-07 14:59:57.634192,0,0,29,0,0,0,81,83,94,50,89,133.86,87,7.00,-7.00,-975.00
2024-06-07 14:59:57.657019,0,0,29,0,0,0,81,83,95,50,89,134.01,87,0.00,0.00,-961.00
2024-06-07 14:59:57.758928,0,0,29,0,0,0,81,83,95,50,89,133.88,87,8.00,-12.00,-969.00
2024-06-07 14:59:57.952751,0,0,29,0,0,0,81,83,95,50,89,133.88,88,5.00,-9.00,-984.00
2024-06-07 14:59:57.963022,0,0,29,0,0,0,81,83,95,50,89,133.97,88,-1.00,-9.00,-973.00
2024-06-07 14:59:58.145835,0,0,29,0,0,1,82,82,96,50,89,133.93,88,3.00,-19.00,-971.00
2024-06-07 14:59:58.167032,0,0,29,0,0,1,82,82,95,50,89,133.96,88,-1.00,-11.00,-979.00
2024-06-07 14:59:58.352458,0,0,29,0,0,1,82,82,94,50,89,133.70,88,-5.00,-3.00,-985.00
2024-06-07 14:59:58.371046,0,0,29,0,0,1,82,82,93,50,89,134.09,88,-1.00,-10.00,-982.00
2024-06-07 14:59:58.554947,0,0,29,0,0,1,82,82,92,50,89,134.01,88,-4.00,-8.00,-979.00
2024-06-07 14:59:58.574969,0,0,29,0,0,1,82,82,91,50,89,133.92,88,3.00,-10.00,-997.00
2024-06-07 14:59:58.761954,0,0,29,0,0,1,82,82,90,50,89,134.11,88,4.00,-8.00,-1007.00
2024-06-07 14:59:58.778979,0,0,29,0,0,1,82,82,89,50,89,133.81,89,4.00,-2.00,-1002.00
2024-06-07 14:59:58.968284,0,0,29,0,0,1,82,82,88,50,89,133.50,89,-3.00,-10.00,-990.00
2024-06-07 14:59:58.968326,0,0,29,0,0,1,82,82,87,50,89,133.84,89,-1.00,-9.00,-1008.00
2024-06-07 14:59:59.169999,0,0,29,0,0,0,81,83,86,50,89,133.94,89,3.00,-15.00,-1007.00
2024-06-07 14:59:59.186975,0,0,29,0,0,0,81,83,85,50,89,133.91,89,-11.00,-10.00,-998.00
2024-06-07 14:59:59.238108,0,0,29,0,0,0,81,83,83,50,89,133.75,89,-10.00,-13.00,-1008.00
2024-06-07 14:59:59.379288,0,0,29,0,0,0,81,83,82,50,89,133.83,89,-5.00,-10.00,-998.00
2024-06-07 14:59:59.442630,0,0,29,0,0,0,81,83,82,50,89,133.73,89,-2.00,-7.00,-1022.00
2024-06-07 14:59:59.581126,0,0,29,0,0,0,81,83,81,50,89,133.95,89,-16.00,-2.00,-1008.00
2024-06-07 14:59:59.645969,0,0,29,0,0,0,81,83,80,40,89,133.73,89,-14.00,-7.00,-994.00
2024-06-07 14:59:59.785107,0,0,29,0,0,0,81,83,79,40,89,133.89,90,-6.00,-13.00,-1008.00
2024-06-07 14:59:59.849954,0,0,29,0,0,0,81,83,78,40,89,133.50,90,-1.00,-10.00,-1017.00
2024-06-07 14:59:59.990879,0,0,29,0,0,0,81,83,78,40,89,133.68,90,-11.00,-4.00,-1001.00
2024-06-07 15:00:00.054168,0,0,29,0,0,0,80,84,77,40,89,133.92,90,-6.00,-10.00,-1007.00
2024-06-07 15:00:00.193439,0,0,29,0,0,0,80,84,77,40,89,133.72,90,-7.00,-7.00,-1031.00
2024-06-07 15:00:00.257875,0,0,29,0,0,0,80,84,76,40,89,133.67,90,-14.00,-8.00,-1002.00
2024-06-07 15:00:00.400507,0,0,29,0,0,0,80,84,76,40,89,133.63,90,-2.00,-10.00,-1009.00
2024-06-07 15:00:00.461866,0,0,29,0,0,0,80,84,76,40,89,134.15,90,-5.00,-11.00,-981.00
2024-06-07 15:00:00.608850,0,0,29,0,0,0,80,84,75,40,89,133.80,90,-16.00,-6.00,-992.00
2024-06-07 15:00:00.665935,0,0,29,0,0,0,80,84,75,40,89,134.02,90,-5.00,-9.00,-1012.00
2024-06-07 15:00:00.768132,0,0,29,0,0,0,80,84,76,40,89,134.01,91,6.00,-7.00,-1005.00
2024-06-07 15:00:00.911259,0,0,29,0,0,0,80,84,76,40,89,133.87,91,0.00,-2.00,-1023.00
2024-06-07 15:00:00.972787,0,0,29,0,0,0,80,84,76,40,89,133.66,91,5.00,-14.00,-996.00
2024-06-07 15:00:01.123253,0,0,29,0,0,0,81,83,76,40,89,133.64,91,3.00,-13.00,-979.00
2024-06-07 15:00:01.177309,0,0,29,0,0,0,81,83,75,40,89,134.11,91,7.00,-12.00,-1028.00
2024-06-07 15:00:01.321506,0,0,29,0,0,0,81,83,76,40,89,133.71,91,-13.00,-2.00,-1009.00
2024-06-07 15:00:01.380969,-1,0,29,0,0,0,81,83,75,40,89,133.86,91,-11.00,-6.00,-986.00
2024-06-07 15:00:01.526998,-1,0,29,0,0,0,81,83,75,40,89,133.82,91,-3.00,-19.00,-1004.00
2024-06-07 15:00:01.585051,-1,0,29,0,0,0,81,83,75,40,89,133.83,91,-15.00,-10.00,-1032.00
2024-06-07 15:00:01.738293,0,0,29,0,0,0,81,83,76,40,89,133.69,91,-21.00,-16.00,-978.00
2024-06-07 15:00:01.788926,0,0,29,0,0,0,81,83,76,40,89,133.56,92,7.00,-15.00,-1022.00
2024-06-07 15:00:01.941976,0,0,29,0,0,0,81,83,76,40,89,133.62,92,-2.00,-12.00,-996.00
2024-06-07 15:00:01.992945,0,0,29,0,0,0,81,83,76,40,89,133.79,92,-11.00,-8.00,-995.00
2024-06-07 15:00:02.141937,0,0,29,0,0,0,80,83,76,40,89,134.17,92,1.00,-13.00,-1017.00
2024-06-07 15:00:02.196946,0,0,29,0,0,0,80,83,76,40,89,133.84,92,-7.00,-3.00,-989.00
2024-06-07 15:00:02.344643,0,0,29,0,0,0,80,83,76,40,89,133.91,92,-2.00,-3.00,-1005.00
2024-06-07 15:00:02.400947,0,0,29,0,0,0,80,83,77,40,89,133.88,92,-20.00,-9.00,-977.00
2024-06-07 15:00:02.652254,0,0,29,0,0,0,80,83,78,40,89,133.84,92,-7.00,-8.00,-984.00
2024-06-07 15:00:02.652460,0,0,29,0,0,0,80,83,77,40,89,133.87,92,-14.00,-1.00,-1013.00
2024-06-07 15:00:02.706982,0,0,29,0,0,0,80,83,78,40,89,134.03,92,-16.00,0.00,-965.00
2024-06-07 15:00:02.758061,0,0,29,0,0,0,80,83,77,40,89,133.72,93,2.00,-12.00,-985.00
2024-06-07 15:00:02.860046,0,0,29,0,0,0,80,83,78,40,89,134.09,93,-16.00,2.00,-1012.00
2024-06-07 15:00:02.962153,0,0,29,0,0,0,80,83,78,40,89,133.68,93,-18.00,8.00,-1008.00
2024-06-07 15:00:03.063683,0,0,29,0,0,0,80,82,77,40,89,133.73,93,-7.00,-5.00,-992.00
2024-06-07 15:00:03.165729,0,0,29,0,0,0,80,82,79,40,89,133.90,93,-19.00,0.00,-1084.00
2024-06-07 15:00:03.267739,0,0,29,0,0,-1,80,82,79,40,89,133.88,93,-9.00,-10.00,-1088.00
2024-06-07 15:00:03.380632,0,0,29,0,0,-2,80,82,81,40,89,133.73,93,-19.00,-16.00,-1072.00
2024-06-07 15:00:03.471847,0,0,29,0,0,-3,80,82,85,50,89,133.78,93,-8.00,-3.00,-1086.00
2024-06-07 15:00:03.677828,0,0,29,0,0,-3,80,82,88,50,89,134.08,93,-4.00,-2.00,-1090.00
2024-06-07 15:00:03.679270,0,0,29,0,0,-4,80,82,93,60,89,134.09,93,-7.00,-11.00,-1032.00
2024-06-07 15:00:03.777762,0,0,29,0,0,-5,80,82,99,60,89,134.35,94,-11.00,-13.00,-1032.00
2024-06-07 15:00:03.879877,0,0,29,0,0,-5,80,82,105,70,89,134.15,94,-17.00,0.00,-1029.00
2024-06-07 15:00:03.982421,0,0,29,0,0,-5,80,82,110,70,89,134.21,94,-11.00,-9.00,-1008.00
2024-06-07 15:00:04.084014,0,0,29,0,0,-5,80,82,116,80,89,134.25,94,0.00,-13.00,-994.00
2024-06-07 15:00:04.186392,0,0,29,0,0,-5,80,82,123,80,89,134.30,94,-18.00,-8.00,-989.00
2024-06-07 15:00:04.290064,0,0,29,0,0,-5,80,82,127,90,89,134.10,94,2.00,-3.00,-975.00
2024-06-07 15:00:04.391447,0,0,29,0,0,-5,80,82,134,90,89,134.28,94,-19.00,-5.00,-977.00
2024-06-07 15:00:04.493893,0,0,29,0,0,-5,80,82,139,100,89,134.56,94,-4.00,-8.00,-989.00
2024-06-07 15:00:04.596407,0,0,29,0,0,-4,80,82,144,100,89,134.42,94,-7.00,-11.00,-981.00
2024-06-07 15:00:04.696640,0,0,29,0,0,-4,80,82,149,110,89,134.43,94,-12.00,-11.00,-976.00
2024-06-07 15:00:04.797769,0,0,29,0,0,-4,80,82,152,110,89,134.75,95,-2.00,-20.00,-967.00
2024-06-07 15:00:04.905223,0,1,29,0,0,-3,80,82,157,120,89,134.51,95,-7.00,-7.00,-980.00
2024-06-07 15:00:05.001589,0,1,29,0,0,-3,80,82,159,120,89,134.41,95,0.00,-16.00,-979.00
2024-06-07 15:00:05.108273,0,1,29,0,0,-3,80,82,163,120,89,134.24,95,-6.00,-9.00,-967.00
2024-06-07 15:00:05.206686,0,1,29,0,0,-2,80,82,167,130,89,134.62,95,-3.00,-20.00,-954.00
2024-06-07 15:00:05.307991,0,1,29,0,0,-2,80,82,168,130,89,134.60,95,-15.00,-6.00,-968.00
2024-06-07 15:00:05.415794,0,1,29,0,0,-2,80,82,170,130,89,134.50,95,-8.00,-10.00,-973.00
2024-06-07 15:00:05.512417,0,1,29,0,0,-1,80,82,172,130,89,134.66,95,-8.00,-16.00,-967.00
2024-06-07 15:00:05.620290,0,1,29,0,0,-1,80,82,174,140,89,134.65,95,-10.00,-16.00,-973.00
2024-06-07 15:00:05.716464,0,1,29,0,0,-1,80,82,175,140,89,134.56,95,10.00,-20.00,-937.00
2024-06-07 15:00:05.820145,0,1,29,0,0,0,80,82,176,140,89,134.72,96,1.00,-14.00,-967.00
2024-06-07 15:00:05.922217,0,1,29,0,0,0,80,82,176,140,89,134.39,96,13.00,-21.00,-965.00
2024-06-07 15:00:06.024769,0,1,29,0,0,0,80,82,179,140,89,134.72,96,-5.00,-20.00,-987.00
2024-06-07 15:00:06.125822,0,1,29,0,0,0,80,83,178,140,89,134.74,96,-5.00,-23.00,-986.00
2024-06-07 15:00:06.226804,0,1,29,0,0,0,80,83,177,140,89,134.87,96,3.00,-26.00,-993.00
2024-06-07 15:00:06.337277,0,1,29,0,0,0,80,83,178,140,89,135.00,96,8.00,-24.00,-1006.00
2024-06-07 15:00:06.430020,0,1,29,0,0,0,80,83,178,140,89,134.79,96,-4.00,-21.00,-989.00
2024-06-07 15:00:06.480596,0,1,29,0,0,0,80,83,177,140,89,134.75,96,7.00,-20.00,-1005.00
2024-06-07 15:00:06.644421,0,1,29,0,0,0,80,83,176,140,89,134.64,96,15.00,-20.00,-998.00
2024-06-07 15:00:06.684714,0,1,29,0,0,0,80,83,176,140,89,134.73,96,17.00,-16.00,-1030.00
2024-06-07 15:00:06.786730,0,1,29,0,0,0,80,83,178,140,89,134.50,97,10.00,-20.00,-986.00
2024-06-07 15:00:06.955887,0,1,29,0,0,0,80,83,179,140,89,134.69,97,11.00,-23.00,-990.00
2024-06-07 15:00:06.990830,0,1,29,0,0,0,80,83,177,140,89,134.83,97,1.00,-18.00,-1004.00
2024-06-07 15:00:07.158126,0,0,29,0,0,0,80,82,177,140,89,134.84,97,-3.00,-14.00,-990.00
2024-06-07 15:00:07.195023,0,1,29,0,0,0,80,82,178,140,89,134.64,97,17.00,-23.00,-1005.00
2024-06-07 15:00:07.362634,0,1,29,0,0,0,80,82,176,140,89,134.43,97,9.00,-23.00,-977.00
2024-06-07 15:00:07.398535,1,1,29,0,0,0,80,82,177,140,89,134.74,97,6.00,-20.00,-1008.00
2024-06-07 15:00:07.623693,1,1,29,0,0,0,80,82,180,140,89,134.79,97,15.00,-19.00,-1026.00
2024-06-07 15:00:07.623885,0,1,29,0,0,0,80,82,176,140,89,135.04,97,29.00,-32.00,-999.00
2024-06-07 15:00:07.704493,1,1,29,0,0,0,80,82,179,140,89,134.80,97,15.00,-17.00,-1004.00
2024-06-07 15:00:07.807213,1,1,29,0,0,0,80,82,178,140,89,134.75,98,18.00,-10.00,-968.00
2024-06-07 15:00:07.976295,1,1,29,0,0,0,80,82,178,140,89,134.54,98,16.00,-19.00,-952.00
2024-06-07 15:00:08.010473,1,1,29,0,0,0,80,82,177,140,89,134.57,98,8.00,-25.00,-935.00
2024-06-07 15:00:08.180390,1,1,29,0,0,1,80,82,174,140,89,134.79,98,11.00,-20.00,-947.00
2024-06-07 15:00:08.214429,1,0,29,0,0,1,80,82,173,140,89,134.80,98,20.00,-13.00,-956.00
2024-06-07 15:00:08.385413,1,0,29,0,0,2,80,82,170,140,89,134.68,98,13.00,-12.00,-975.00
2024-06-07 15:00:08.418396,1,1,29,0,0,2,80,82,167,130,89,134.62,98,6.00,-24.00,-952.00
2024-06-07 15:00:08.590270,1,1,29,0,0,2,80,82,166,130,89,134.78,98,11.00,-24.00,-993.00
2024-06-07 15:00:08.622410,0,1,29,0,0,2,80,82,163,130,89,134.54,98,18.00,-24.00,-982.00
2024-06-07 15:00:08.724457,0,1,29,0,0,3,80,82,158,120,89,134.30,98,16.00,-12.00,-1003.00
2024-06-07 15:00:08.826357,0,1,29,0,0,3,80,82,156,120,89,134.16,99,3.00,-9.00,-1016.00
2024-06-07 15:00:08.999857,0,1,29,0,0,3,80,82,153,120,89,134.69,99,0.00,-5.00,-984.00
2024-06-07 15:00:09.030384,0,0,29,0,0,2,80,82,149,120,89,134.51,99,9.00,-7.00,-1014.00
2024-06-07 15:00:09.206901,0,0,29,0,0,2,80,83,148,110,89,134.45,99,5.00,-7.00,-1044.00
2024-06-07 15:00:09.234472,0,0,29,0,0,2,80,83,143,110,89,134.61,99,9.00,-12.00,-1027.00
2024-06-07 15:00:09.410148,0,0,29,0,0,2,80,83,142,110,89,134.24,99,15.00,-22.00,-1042.00
2024-06-07 15:00:09.438365,0,0,29,0,0,1,80,83,139,110,89,134.18,99,12.00,-20.00,-1008.00
2024-06-07 15:00:09.614355,0,0,29,0,0,1,80,83,138,100,89,134.21,99,15.00,-3.00,-1042.00
2024-06-07 15:00:09.642398,0,0,29,0,0,1,80,83,136,100,89,134.46,99,12.00,-16.00,-1018.00
2024-06-07 15:00:09.830768,0,0,29,0,0,1,80,83,135,100,89,134.39,99,23.00,-22.00,-1011.00
2024-06-07 15:00:09.846421,1,0,29,0,0,1,80,83,133,100,89,134.09,100,35.00,-13.00,-1016.00
2024-06-07 15:00:09.897337,1,0,29,0,0,1,80,83,132,100,89,134.59,100,14.00,-14.00,-1018.00
2024-06-07 15:00:10.023754,1,0,29,0,0,1,80,83,130,100,89,134.31,100,21.00,-24.00,-982.00
2024-06-07 15:00:10.101654,1,0,29,0,0,1,80,82,130,90,89,134.52,100,15.00,0.00,-1065.00
2024-06-07 15:00:10.229131,1,0,29,0,0,0,80,82,129,90,89,134.24,100,31.00,-16.00,-1027.00
2024-06-07 15:00:10.305678,1,0,29,0,0,0,80,82,129,90,89,134.41,100,14.00,-13.00,-1004.00
2024-06-07 15:00:10.434609,1,0,29,0,0,0,80,82,128,90,89,134.41,100,21.00,-8.00,-1024.00
2024-06-07 15:00:10.509437,1,0,29,0,0,0,80,82,128,90,89,134.66,100,34.00,-17.00,-1001.00
2024-06-07 15:00:10.637961,1,0,29,0,0,0,80,82,129,90,89,134.07,100,21.00,-22.00,-1006.00
2024-06-07 15:00:10.713952,1,0,29,0,0,0,80,82,127,90,89,134.19,100,34.00,-23.00,-1017.00
2024-06-07 15:00:10.815998,1,0,29,0,0,0,80,82,127,90,89,134.09,101,31.00,-24.00,-1018.00
2024-06-07 15:00:10.945750,1,0,29,0,0,0,80,82,127,90,89,134.12,101,22.00,-23.00,-988.00
2024-06-07 15:00:11.021078,1,0,29,0,0,0,80,82,128,90,89,134.53,101,34.00,-21.00,-979.00
2024-06-07 15:00:11.121532,2,0,29,0,0,0,79,83,129,90,89,133.93,101,33.00,-20.00,-1008.00
2024-06-07 15:00:11.224808,2,1,29,0,0,0,79,83,128,90,89,134.14,101,18.00,-21.00,-1004.00
2024-06-07 15:00:11.325525,1,1,29,0,0,0,79,83,128,90,89,134.49,101,26.00,-23.00,-1002.00
2024-06-07 15:00:11.457801,1,1,29,0,0,0,79,83,127,90,89,134.08,101,26.00,-26.00,-993.00
2024-06-07 15:00:11.529361,1,1,29,0,0,0,79,83,129,90,89,134.13,101,17.00,-8.00,-996.00
2024-06-07 15:00:11.661928,1,1,29,0,0,0,79,83,127,90,89,134.42,101,14.00,-26.00,-1002.00
2024-06-07 15:00:11.733378,1,1,29,0,0,0,79,83,128,90,89,134.24,101,24.00,-20.00,-997.00
2024-06-07 15:00:11.867681,1,1,29,0,0,0,79,83,128,90,89,134.23,102,29.00,-21.00,-982.00
2024-06-07 15:00:11.937440,1,1,29,0,0,0,79,83,128,90,89,134.34,102,20.00,-21.00,-993.00
2024-06-07 15:00:12.039866,1,1,29,0,0,0,79,83,129,90,89,134.30,102,16.00,-21.00,-1004.00
2024-06-07 15:00:12.173955,1,1,29,0,0,0,80,82,128,90,89,133.85,102,18.00,-22.00,-983.00
2024-06-07 15:00:12.243302,0,1,29,0,0,0,80,82,130,90,89,134.31,102,27.00,-9.00,-1011.00
2024-06-07 15:00:12.349020,-6,1,29,0,0,0,80,82,131,90,89,134.58,102,17.00,-14.00,-997.00
2024-06-07 15:00:12.450232,-7,1,29,1,0,0,80,82,131,90,89,134.11,102,0.00,-16.00,-1006.00
2024-06-07 15:00:12.551070,-7,1,29,3,1,0,80,82,129,90,89,134.34,102,1.00,-15.00,-1026.00
2024-06-07 15:00:12.652690,-6,1,29,4,2,0,80,82,129,90,89,134.23,102,-14.00,-20.00,-1017.00
2024-06-07 15:00:12.753933,-6,1,29,4,2,0,80,82,129,90,89,134.17,102,-17.00,-21.00,-1005.00
2024-06-07 15:00:12.855266,-6,1,29,5,3,0,80,82,130,90,89,133.81,103,-20.00,-25.00,-1006.00
2024-06-07 15:00:12.993417,-5,1,29,6,3,0,80,82,130,90,89,134.48,103,-29.00,-21.00,-1005.00
2024-06-07 15:00:13.059313,-4,1,29,6,3,0,80,82,128,90,89,134.10,103,-40.00,-25.00,-989.00
2024-06-07 15:00:13.161749,-2,1,29,6,3,0,80,83,128,90,89,133.98,103,-43.00,-18.00,-1001.00
2024-06-07 15:00:13.300258,0,1,29,6,3,0,80,83,127,90,89,134.41,103,-40.00,-21.00,-986.00
2024-06-07 15:00:13.365129,3,1,29,5,3,0,80,83,128,90,89,134.45,103,-36.00,-28.00,-998.00
2024-06-07 15:00:13.510444,5,1,29,4,2,0,80,83,126,90,89,134.37,103,-25.00,-15.00,-1012.00
2024-06-07 15:00:13.569535,4,0,29,4,2,0,80,83,128,90,89,134.18,103,-27.00,-18.00,-993.00
2024-06-07 15:00:13.671193,2,1,29,3,1,0,80,83,126,90,89,134.11,103,-11.00,-20.00,-982.00
2024-06-07 15:00:13.722549,2,1,29,3,1,0,80,83,126,90,89,134.30,103,0.00,-21.00,-986.00
2024-06-07 15:00:13.824100,1,1,29,3,1,0,80,83,126,90,89,134.27,104,-9.00,-16.00,-1012.00
2024-06-07 15:00:14.017060,1,1,29,3,1,0,80,83,126,90,89,134.46,104,-8.00,-17.00,-1013.00
2024-06-07 15:00:14.028066,1,1,29,2,1,0,80,83,126,90,89,134.27,104,-9.00,-13.00,-996.00
2024-06-07 15:00:14.221889,5,0,29,2,1,0,81,82,126,90,89,134.42,104,-11.00,-25.00,-1020.00
2024-06-07 15:00:14.232113,6,2,29,1,0,0,81,82,125,90,89,134.32,104,6.00,-15.00,-1015.00
2024-06-07 15:00:14.426663,3,1,29,0,0,0,81,82,126,90,89,134.45,104,10.00,-15.00,-1023.00
2024-06-07 15:00:14.436353,1,1,29,0,0,0,81,82,126,90,89,134.58,104,21.00,-9.00,-1026.00
2024-06-07 15:00:14.631641,1,0,29,0,0,0,81,82,126,90,89,134.65,104,17.00,-21.00,-1009.00
2024-06-07 15:00:14.640248,1,0,29,0,0,0,81,82,126,90,89,134.15,104,18.00,-26.00,-976.00
2024-06-07 15:00:14.742242,1,1,29,0,0,0,81,82,129,90,89,134.41,105,7.00,-19.00,-989.00
2024-06-07 15:00:14.844187,1,1,29,0,0,0,81,82,128,90,89,134.17,105,16.00,-12.00,-1010.00
2024-06-07 15:00:15.046223,1,1,29,0,0,0,81,82,127,90,89,134.52,105,32.00,-23.00,-999.00
2024-06-07 15:00:15.048087,1,1,29,0,0,0,81,82,128,90,89,134.42,105,16.00,-9.00,-1004.00
2024-06-07 15:00:15.250611,1,0,29,0,0,0,80,83,127,90,89,134.15,105,27.00,-20.00,-1018.00
2024-06-07 15:00:15.252217,1,0,29,0,0,0,80,83,128,90,89,134.41,105,16.00,-14.00,-988.00
2024-06-07 15:00:15.452972,1,0,29,0,0,0,80,83,128,90,89,134.05,105,10.00,-24.00,-993.00
2024-06-07 15:00:15.456219,1,0,29,0,0,0,80,83,128,90,89,134.39,105,31.00,-16.00,-1021.00
2024-06-07 15:00:15.658017,1,1,29,0,0,0,80,83,128,90,89,134.33,105,27.00,-20.00,-1005.00
2024-06-07 15:00:15.660149,1,1,29,0,0,0,80,83,128,90,89,134.28,105,9.00,-23.00,-982.00
2024-06-07 15:00:15.862172,1,1,29,0,0,0,80,83,127,90,89,134.38,106,12.00,-20.00,-989.00
2024-06-07 15:00:15.864139,1,1,29,0,0,0,80,83,129,90,89,133.96,106,18.00,-9.00,-1026.00
2024-06-07 15:00:16.068710,1,1,29,0,0,0,80,83,129,90,89,134.15,106,14.00,-17.00,-998.00
2024-06-07 15:00:16.068887,1,1,29,0,0,0,80,83,129,90,89,134.19,106,7.00,-20.00,-1004.00
2024-06-07 15:00:16.170189,0,1,29,0,0,0,80,83,129,90,89,134.39,106,25.00,-20.00,-1017.00
2024-06-07 15:00:16.272221,1,1,29,0,0,0,80,83,128,90,89,134.49,106,18.00,-19.00,-980.00
2024-06-07 15:00:16.374556,0,1,29,0,0,0,80,83,128,90,89,134.33,106,14.00,-29.00,-998.00
2024-06-07 15:00:16.477023,0,1,29,0,0,0,80,83,128,90,89,134.34,106,25.00,-26.00,-1010.00
2024-06-07 15:00:16.578178,1,1,29,0,0,0,80,83,129,90,89,134.54,106,25.00,-16.00,-980.00
2024-06-07 15:00:16.682343,7,1,29,0,0,0,80,83,129,90,89,134.51,106,-3.00,-16.00,-1005.00
2024-06-07 15:00:16.782181,8,0,29,-1,-1,0,80,83,129,90,89,134.28,107,10.00,-13.00,-1007.00
2024-06-07 15:00:16.884547,8,0,29,-3,-1,0,80,83,129,90,89,134.16,107,24.00,-20.00,-1019.00
2024-06-07 15:00:16.986514,8,0,29,-4,-2,0,80,83,130,90,89,134.23,107,34.00,-6.00,-1028.00
2024-06-07 15:00:17.090937,8,0,29,-4,-2,0,80,83,130,90,89,134.17,107,55.00,-16.00,-982.00
2024-06-07 15:00:17.191422,7,0,29,-5,-2,0,80,82,130,90,89,133.88,107,63.00,-22.00,-1006.00
2024-06-07 15:00:17.293469,7,0,29,-5,-3,0,80,82,130,90,89,134.03,107,77.00,-11.00,-1001.00
2024-06-07 15:00:17.396162,7,0,29,-6,-3,0,80,82,130,90,89,134.48,107,59.00,-19.00,-1002.00
2024-06-07 15:00:17.496181,5,0,29,-6,-3,0,80,82,130,90,89,134.41,107,69.00,-21.00,-1003.00
2024-06-07 15:00:17.601248,1,1,29,-6,-3,0,80,82,130,90,89,134.26,107,71.00,-18.00,-1009.00
2024-06-07 15:00:17.703767,-1,1,29,-5,-3,0,80,82,127,90,89,133.92,107,62.00,-26.00,-984.00
2024-06-07 15:00:17.806614,-2,1,29,-4,-3,0,80,82,130,90,89,134.21,108,61.00,-23.00,-1015.00
2024-06-07 15:00:17.903904,-2,1,29,-4,-2,0,80,82,130,90,89,134.29,108,45.00,-33.00,-994.00
2024-06-07 15:00:17.954893,-1,1,29,-3,-2,0,80,82,129,90,89,134.13,108,33.00,-27.00,-1004.00
2024-06-07 15:00:18.113811,0,1,29,-3,-2,0,80,82,128,90,89,134.57,108,34.00,-27.00,-1007.00
2024-06-07 15:00:18.159008,0,1,29,-2,-1,0,81,82,129,90,89,134.35,108,28.00,-31.00,-990.00
2024-06-07 15:00:18.317677,0,2,29,-2,-1,0,81,82,127,90,89,134.46,108,36.00,-25.00,-1017.00
2024-06-07 15:00:18.362834,0,2,29,-2,-1,0,81,82,129,90,89,134.20,108,26.00,-29.00,-997.00
2024-06-07 15:00:18.523418,0,2,29,-2,-1,0,81,82,130,90,89,134.09,108,26.00,-25.00,-1005.00
2024-06-07 15:00:18.567179,0,2,29,-2,-1,0,81,82,127,90,89,134.36,108,30.00,-39.00,-1013.00
2024-06-07 15:00:18.728213,0,3,29,-2,0,0,81,82,128,90,89,134.08,108,32.00,-30.00,-990.00
2024-06-07 15:00:18.770866,0,2,29,-2,0,0,81,82,128,90,89,134.26,109,20.00,-38.00,-998.00
2024-06-07 15:00:18.937134,-3,0,29,-1,0,0,81,82,128,90,89,134.24,109,18.00,-37.00,-988.00
2024-06-07 15:00:18.975086,-2,0,29,-1,0,0,81,82,129,90,89,134.26,109,16.00,-35.00,-1003.00
2024-06-07 15:00:19.076912,0,0,29,0,0,0,81,82,128,90,89,134.35,109,9.00,-30.00,-995.00
2024-06-07 15:00:19.242006,0,1,29,0,0,0,80,82,128,90,89,133.95,109,-13.00,-21.00,-986.00
2024-06-07 15:00:19.282835,0,1,29,0,0,0,80,82,128,90,89,133.94,109,10.00,-29.00,-1004.00
2024-06-07 15:00:19.382920,0,1,29,0,0,0,80,82,129,90,89,134.19,109,1.00,-24.00,-992.00
2024-06-07 15:00:19.547465,0,1,29,0,0,0,80,82,130,90,89,134.25,109,1.00,-27.00,-996.00
2024-06-07 15:00:19.586809,0,1,29,0,0,0,80,82,129,90,89,134.21,109,-6.00,-13.00,-1002.00
2024-06-07 15:00:19.753708,0,1,29,0,0,0,80,82,129,90,88,134.16,109,-4.00,-11.00,-1008.00
2024-06-07 15:00:19.791208,0,1,29,0,0,0,80,82,129,90,88,134.43,110,-7.00,-27.00,-988.00
2024-06-07 15:00:19.957027,0,1,29,0,0,0,80,82,130,90,88,134.44,110,1.00,-28.00,-999.00
2024-06-07 15:00:19.995007,0,1,29,0,0,0,80,82,128,90,88,134.57,110,-6.00,-25.00,-993.00
2024-06-07 15:00:20.161867,0,1,29,0,0,0,80,82,129,90,88,134.14,110,3.00,-24.00,-1000.00
2024-06-07 15:00:20.199071,0,1,29,0,0,0,79,81,130,90,88,134.32,110,9.00,-32.00,-977.00
2024-06-07 15:00:20.367001,0,1,29,0,0,0,79,81,131,90,88,134.29,110,10.00,-35.00,-994.00
2024-06-07 15:00:20.402945,0,1,29,0,0,0,79,81,129,90,88,134.31,110,-12.00,-36.00,-988.00
2024-06-07 15:00:20.573193,0,1,29,0,0,0,79,81,128,90,88,134.37,110,4.00,-29.00,-1006.00
2024-06-07 15:00:20.606942,0,1,29,0,0,0,79,81,130,90,88,134.43,110,4.00,-37.00,-1003.00
2024-06-07 15:00:20.776170,0,1,29,0,0,0,79,81,130,90,88,134.41,110,-8.00,-29.00,-991.00
2024-06-07 15:00:20.811144,0,1,29,0,0,0,79,81,130,90,88,134.31,111,-2.00,-29.00,-997.00
2024-06-07 15:00:20.988096,1,1,29,0,0,0,79,81,130,90,88,134.38,111,7.00,-29.00,-1009.00
2024-06-07 15:00:21.014821,1,1,29,0,0,0,79,81,130,90,88,134.35,111,16.00,-41.00,-1004.00
2024-06-07 15:00:21.116670,1,1,29,0,0,0,79,81,129,90,88,134.24,111,5.00,-25.00,-995.00
2024-06-07 15:00:21.288033,0,0,29,0,0,0,80,81,130,90,88,134.41,111,9.00,-23.00,-1007.00
2024-06-07 15:00:21.320691,0,-6,29,0,0,0,80,81,131,90,88,134.45,111,3.00,-36.00,-1011.00
2024-06-07 15:00:21.494147,0,-6,29,1,-1,0,80,81,130,90,88,133.98,111,-2.00,-8.00,-1010.00
2024-06-07 15:00:21.524680,1,-3,29,1,-3,0,80,81,131,90,88,134.29,111,0.00,-13.00,-985.00
2024-06-07 15:00:21.575689,1,0,29,1,-3,0,80,81,130,90,88,134.04,111,7.00,-13.00,-988.00
2024-06-07 15:00:21.697626,0,1,29,1,-3,0,80,81,131,90,88,134.48,111,1.00,-2.00,-979.00
2024-06-07 15:00:21.783337,0,2,29,1,-2,0,80,81,130,90,88,133.90,112,8.00,-14.00,-1000.00
2024-06-07 15:00:21.881675,0,1,29,1,-2,0,80,81,128,90,88,134.15,112,0.00,-13.00,-978.00
2024-06-07 15:00:22.006154,0,0,29,1,-2,0,80,81,129,90,88,134.34,112,0.00,-15.00,-1000.00
2024-06-07 15:00:22.086610,0,0,29,1,-2,0,80,81,129,90,88,134.44,112,6.00,-8.00,-1025.00
2024-06-07 15:00:22.314018,0,0,29,1,-2,0,80,82,130,90,88,134.26,112,12.00,-16.00,-992.00
2024-06-07 15:00:22.314059,0,1,29,1,-2,0,80,82,130,90,88,134.48,112,7.00,-11.00,-988.00
2024-06-07 15:00:22.391582,1,1,29,1,-2,0,80,82,129,90,88,134.22,112,8.00,-12.00,-1012.00
2024-06-07 15:00:22.520563,0,1,29,1,-2,0,80,82,130,90,88,134.47,112,10.00,-11.00,-1001.00
2024-06-07 15:00:22.595608,0,1,29,0,-2,0,80,82,129,90,88,134.25,112,19.00,-11.00,-1008.00
2024-06-07 15:00:22.726012,2,2,29,0,-2,0,80,82,131,90,88,134.06,112,1.00,-8.00,-1014.00
2024-06-07 15:00:22.799923,2,1,29,0,-2,0,80,82,131,90,88,134.16,113,22.00,-15.00,-1014.00
2024-06-07 15:00:22.927920,1,1,29,0,-2,0,80,82,131,90,88,134.10,113,8.00,-17.00,-1011.00
2024-06-07 15:00:23.003994,-1,5,29,0,-1,0,80,82,130,90,88,133.76,113,11.00,-5.00,-985.00
2024-06-07 15:00:23.133916,0,4,29,0,-1,0,80,82,132,90,88,134.57,113,7.00,-17.00,-1004.00
2024-06-07 15:00:23.208717,0,2,29,0,0,0,80,82,132,90,88,134.32,113,22.00,-26.00,-1000.00
2024-06-07 15:00:23.336361,0,2,29,0,0,0,80,82,133,90,88,134.15,113,13.00,-31.00,-988.00
2024-06-07 15:00:23.412697,1,1,29,0,0,0,80,82,132,90,88,134.58,113,26.00,-26.00,-1001.00
2024-06-07 15:00:23.516602,1,1,29,0,0,0,80,82,133,90,88,134.21,113,30.00,-21.00,-997.00
2024-06-07 15:00:23.616964,1,1,29,0,0,0,80,82,132,90,88,134.34,113,22.00,-36.00,-966.00
2024-06-07 15:00:23.718894,1,1,29,0,0,0,80,82,131,100,88,134.22,113,19.00,-30.00,-990.00
2024-06-07 15:00:23.821072,1,1,29,0,0,0,80,82,132,90,88,134.31,114,11.00,-26.00,-1013.00
2024-06-07 15:00:24.053333,1,1,29,0,0,0,80,82,132,90,88,134.41,114,23.00,-27.00,-1005.00
2024-06-07 15:00:24.053517,1,1,29,0,0,0,80,82,132,90,88,134.57,114,19.00,-27.00,-998.00
2024-06-07 15:00:24.130608,1,1,29,0,0,0,80,82,133,90,88,134.40,114,32.00,-35.00,-981.00
2024-06-07 15:00:24.230965,1,1,29,0,0,0,80,82,132,90,88,134.57,114,28.00,-27.00,-1006.00
2024-06-07 15:00:24.330690,1,1,29,0,0,0,80,82,132,90,88,134.25,114,27.00,-30.00,-1004.00
2024-06-07 15:00:24.463154,2,1,29,0,0,0,80,82,131,90,88,134.23,114,34.00,-40.00,-970.00
2024-06-07 15:00:24.534970,2,0,29,0,0,0,80,82,131,90,88,134.09,114,27.00,-30.00,-982.00
2024-06-07 15:00:24.675338,2,1,29,0,0,0,80,82,129,90,87,134.41,114,23.00,-34.00,-1025.00
2024-06-07 15:00:24.738789,2,1,29,0,0,0,80,82,129,90,87,133.84,114,21.00,-28.00,-1039.00
2024-06-07 15:00:24.840794,2,1,29,0,0,0,80,82,129,90,87,134.13,115,37.00,-47.00,-1009.00
2024-06-07 15:00:24.986458,2,1,29,0,0,0,80,82,129,90,87,134.36,115,25.00,-34.00,-1009.00
2024-06-07 15:00:25.044627,2,1,29,0,0,0,80,82,128,90,87,134.35,115,44.00,-34.00,-1006.00
2024-06-07 15:00:25.095527,2,2,29,0,0,0,80,82,129,90,87,134.21,115,49.00,-43.00,-1015.00
2024-06-07 15:00:25.282837,2,1,29,0,0,0,79,81,129,90,87,134.07,115,42.00,-30.00,-998.00
2024-06-07 15:00:25.300579,2,3,29,0,0,0,79,81,129,90,87,134.22,115,28.00,-32.00,-976.00
2024-06-07 15:00:25.485834,1,8,29,0,0,0,79,81,131,90,87,134.13,115,33.00,-44.00,-1001.00
2024-06-07 15:00:25.503419,1,8,29,0,1,0,79,81,130,90,87,134.22,115,39.00,-65.00,-1003.00
2024-06-07 15:00:25.690505,2,7,29,-1,2,0,79,81,131,90,87,134.30,115,38.00,-54.00,-986.00
2024-06-07 15:00:25.707426,2,5,29,-1,3,0,79,81,129,90,87,133.96,115,46.00,-57.00,-1001.00
2024-06-07 15:00:25.898843,2,2,29,-1,2,0,79,81,130,90,87,134.29,116,39.00,-59.00,-1016.00
2024-06-07 15:00:25.911345,2,1,29,-1,2,0,79,81,131,90,87,134.31,116,46.00,-57.00,-990.00
2024-06-07 15:00:26.100386,2,2,29,0,2,0,79,81,131,90,87,134.30,116,44.00,-54.00,-985.00
2024-06-07 15:00:26.115297,2,2,29,0,2,0,79,81,130,90,87,134.01,116,40.00,-58.00,-989.00
2024-06-07 15:00:26.305882,3,2,29,0,2,0,80,82,131,90,87,134.04,116,48.00,-56.00,-1003.00
2024-06-07 15:00:26.319396,3,2,29,-1,2,0,80,82,130,90,87,134.24,116,44.00,-59.00,-993.00
2024-06-07 15:00:26.421386,3,2,29,-1,2,0,80,82,131,90,87,134.08,116,26.00,-45.00,-989.00
2024-06-07 15:00:26.618266,3,2,29,-1,2,0,80,82,130,90,87,134.07,116,48.00,-45.00,-1016.00
2024-06-07 15:00:26.626423,3,2,29,-1,2,0,80,82,130,90,87,134.43,116,29.00,-50.00,-998.00
2024-06-07 15:00:26.818037,3,2,29,-1,2,0,80,82,129,90,87,134.23,116,37.00,-47.00,-1002.00
2024-06-07 15:00:26.829652,3,2,29,-1,1,0,80,82,130,90,87,134.19,117,32.00,-52.00,-991.00
2024-06-07 15:00:27.125150,3,2,29,-1,1,0,80,82,130,90,87,134.60,117,33.00,-62.00,-998.00
2024-06-07 15:00:27.125423,3,2,29,-1,1,0,80,82,129,90,87,134.13,117,52.00,-63.00,-996.00
2024-06-07 15:00:27.135250,3,2,29,-1,1,0,80,82,130,90,87,134.47,117,49.00,-38.00,-991.00
2024-06-07 15:00:27.443424,4,0,29,-1,1,0,80,82,129,90,87,134.03,117,38.00,-51.00,-1043.00
2024-06-07 15:00:27.443476,1,-1,29,-1,0,0,80,82,128,90,87,133.94,117,59.00,-44.00,-1019.00
2024-06-07 15:00:27.443726,-1,-1,29,-1,0,0,80,82,128,90,87,134.10,117,44.00,-40.00,-1005.00
2024-06-07 15:00:27.544485,0,0,29,0,0,0,80,82,129,90,87,133.93,117,38.00,-39.00,-1008.00
2024-06-07 15:00:27.646436,1,1,29,0,0,0,80,82,128,90,87,134.18,117,39.00,-47.00,-988.00
2024-06-07 15:00:27.840982,2,1,29,0,0,0,80,82,128,90,87,133.97,117,44.00,-39.00,-1019.00
2024-06-07 15:00:27.852085,2,1,29,0,0,0,80,82,127,90,87,134.07,118,27.00,-48.00,-975.00
2024-06-07 15:00:27.952546,1,1,29,0,0,0,80,82,129,90,87,134.35,118,22.00,-39.00,-990.00
2024-06-07 15:00:28.148197,1,1,29,0,0,0,80,82,128,90,87,134.12,118,39.00,-55.00,-997.00
2024-06-07 15:00:28.156438,1,2,29,0,0,0,80,82,128,90,87,134.02,118,14.00,-31.00,-998.00
2024-06-07 15:00:28.361304,1,2,29,0,0,0,80,82,129,90,87,134.30,118,27.00,-41.00,-1001.00
2024-06-07 15:00:28.361411,1,2,29,0,0,0,80,82,128,90,87,134.43,118,30.00,-47.00,-994.00
2024-06-07 15:00:28.465877,1,2,29,0,0,0,80,82,129,90,87,134.02,118,17.00,-42.00,-996.00
2024-06-07 15:00:28.564750,1,2,29,0,0,0,80,82,128,90,87,134.27,118,32.00,-47.00,-995.00
2024-06-07 15:00:28.615268,1,2,29,0,0,0,80,82,129,90,86,134.18,118,32.00,-47.00,-988.00
2024-06-07 15:00:28.762682,1,2,29,0,0,0,80,82,131,90,86,134.32,118,23.00,-39.00,-997.00
2024-06-07 15:00:28.819605,1,2,29,0,0,0,80,82,130,90,86,134.40,119,23.00,-33.00,-989.00
2024-06-07 15:00:28.967636,1,2,29,0,0,0,80,82,130,90,86,134.18,119,39.00,-42.00,-1012.00
2024-06-07 15:00:29.023326,2,2,29,0,0,0,80,82,130,90,86,133.89,119,34.00,-37.00,-992.00
2024-06-07 15:00:29.177487,2,2,29,0,0,0,80,82,130,90,86,134.19,119,27.00,-40.00,-1004.00
2024-06-07 15:00:29.227427,1,2,29,0,0,0,80,82,131,90,86,134.04,119,27.00,-57.00,-988.00
2024-06-07 15:00:29.371276,1,2,29,0,0,0,80,82,131,90,86,134.45,119,16.00,-50.00,-988.00
2024-06-07 15:00:29.431507,1,2,29,0,0,0,80,82,132,90,86,134.14,119,30.00,-57.00,-1014.00
2024-06-07 15:00:29.534410,1,3,29,0,0,0,80,82,131,90,86,134.01,119,41.00,-72.00,-1001.00
2024-06-07 15:00:29.684650,1,3,30,0,0,0,80,82,132,90,86,133.98,119,11.00,-43.00,-994.00
2024-06-07 15:00:29.737219,1,3,36,0,0,0,80,82,132,90,86,134.21,119,29.00,-53.00,-1003.00
2024-06-07 15:00:29.839633,0,3,42,0,0,0,80,82,131,90,86,134.28,120,27.00,-50.00,-1010.00
2024-06-07 15:00:29.993828,0,3,48,0,0,0,80,82,132,90,86,134.37,120,10.00,-35.00,-1012.00
2024-06-07 15:00:30.045542,0,3,54,0,0,0,80,82,133,90,86,134.29,120,-4.00,-48.00,-996.00
2024-06-07 15:00:30.147577,0,3,59,0,0,0,80,82,131,90,86,134.37,120,-15.00,-51.00,-981.00
2024-06-07 15:00:30.248001,0,2,71,0,0,0,79,82,131,90,86,134.09,120,-2.00,-46.00,-992.00
2024-06-07 15:00:30.408638,-1,2,77,0,0,0,79,82,130,90,86,134.29,120,-6.00,-47.00,-1009.00
2024-06-07 15:00:30.451176,-1,2,83,0,0,0,79,82,131,90,86,134.24,120,-15.00,-40.00,-996.00
2024-06-07 15:00:30.555399,-1,2,89,0,0,0,79,82,130,90,86,134.15,120,-22.00,-47.00,-995.00
2024-06-07 15:00:30.655186,-1,2,95,0,0,0,79,82,131,90,86,134.24,120,-27.00,-46.00,-1007.00
2024-06-07 15:00:30.813333,-2,2,101,0,0,0,79,82,130,90,86,134.24,121,-22.00,-42.00,-1011.00
2024-06-07 15:00:30.859172,-2,2,107,0,0,0,79,82,129,90,86,134.02,121,-41.00,-25.00,-1000.00
2024-06-07 15:00:31.028181,-2,1,113,0,0,0,79,82,129,90,86,134.22,121,-39.00,-23.00,-996.00
2024-06-07 15:00:31.063131,-2,1,118,0,0,0,79,82,129,90,86,134.23,121,-39.00,-23.00,-996.00
2024-06-07 15:00:31.165138,-2,1,124,0,0,0,79,82,129,90,86,134.13,121,-43.00,-11.00,-1001.00
2024-06-07 15:00:31.267444,-2,0,130,0,0,0,80,82,129,90,86,134.11,121,-47.00,-6.00,-986.00
2024-06-07 15:00:31.427528,-2,0,136,0,0,0,80,82,129,90,86,133.71,121,-57.00,9.00,-1002.00
2024-06-07 15:00:31.472195,-2,0,142,0,0,0,80,82,130,90,86,134.11,121,-49.00,3.00,-1000.00
2024-06-07 15:00:31.629622,-2,0,148,0,0,0,80,82,130,90,86,134.08,121,-30.00,2.00,-994.00
2024-06-07 15:00:31.675096,-2,0,154,0,0,0,80,82,129,90,86,133.92,121,-40.00,8.00,-1006.00
2024-06-07 15:00:31.834447,-2,0,160,0,0,0,80,82,130,90,86,133.96,122,-41.00,13.00,-1007.00
2024-06-07 15:00:31.879371,-2,0,166,0,0,0,80,82,131,90,86,134.57,122,-41.00,14.00,-1001.00
2024-06-07 15:00:32.041920,-2,0,171,0,0,0,80,82,129,90,86,134.20,122,-43.00,21.00,-987.00
2024-06-07 15:00:32.083162,-2,-1,177,0,0,0,80,82,128,90,86,134.30,122,-41.00,22.00,-992.00
2024-06-07 15:00:32.186788,-2,-1,-176,0,0,0,80,82,129,90,86,134.35,122,-36.00,25.00,-987.00
2024-06-07 15:00:32.291828,-2,-1,-170,0,0,0,80,83,129,90,86,134.24,122,-30.00,34.00,-1000.00
2024-06-07 15:00:32.389734,-1,-1,-164,0,0,0,80,83,129,90,86,134.11,122,-32.00,37.00,-996.00
2024-06-07 15:00:32.551485,-1,-1,-158,0,0,0,80,83,130,90,86,134.34,122,-21.00,46.00,-1005.00
2024-06-07 15:00:32.551518,-1,-1,-152,0,0,0,80,83,129,90,86,134.11,122,-15.00,46.00,-1004.00
2024-06-07 15:00:32.645345,-1,-2,-146,0,0,0,80,83,130,90,86,134.32,122,-4.00,43.00,-1013.00
2024-06-07 15:00:32.746427,0,-2,-140,0,0,0,80,83,129,90,86,134.15,123,-19.00,64.00,-1006.00
2024-06-07 15:00:32.853141,0,-2,-134,0,0,0,80,83,130,90,86,134.28,123,-19.00,62.00,-1016.00
2024-06-07 15:00:32.953451,0,-2,-129,0,0,0,80,83,129,90,86,134.34,123,1.00,41.00,-988.00
2024-06-07 15:00:33.057708,0,-2,-123,0,0,0,80,83,130,90,86,134.10,123,13.00,48.00,-1006.00
2024-06-07 15:00:33.156470,0,-2,-117,0,0,0,80,83,129,90,86,134.09,123,10.00,55.00,-984.00
2024-06-07 15:00:33.256040,0,-2,-111,0,0,0,80,82,128,90,86,134.02,123,21.00,44.00,-1007.00
2024-06-07 15:00:33.370892,1,-2,-105,0,0,0,80,82,130,90,86,134.16,123,39.00,46.00,-977.00
2024-06-07 15:00:33.459965,1,-1,-99,0,0,0,80,82,129,90,86,133.93,123,45.00,42.00,-1002.00
2024-06-07 15:00:33.563296,2,-1,-93,0,0,0,80,82,128,90,86,134.28,123,45.00,34.00,-1018.00
2024-06-07 15:00:33.663979,2,-1,-87,0,0,0,80,82,127,90,86,133.94,123,42.00,37.00,-982.00
2024-06-07 15:00:33.792404,2,-1,-80,0,0,0,80,82,127,90,86,134.48,124,51.00,34.00,-1011.00
2024-06-07 15:00:33.875028,2,-1,-74,0,0,0,80,82,127,90,86,134.35,124,54.00,25.00,-995.00
2024-06-07 15:00:33.969942,3,0,-68,0,0,0,80,82,128,90,86,134.25,124,63.00,16.00,-1004.00
2024-06-07 15:00:34.072001,3,0,-62,0,0,0,80,82,127,90,86,134.28,124,53.00,31.00,-1004.00
2024-06-07 15:00:34.201656,3,0,-56,0,0,0,80,82,128,90,86,134.29,124,58.00,27.00,-990.00
2024-06-07 15:00:34.275954,3,0,-50,0,0,0,80,81,128,90,86,134.54,124,60.00,9.00,-996.00
2024-06-07 15:00:34.395599,3,0,-44,0,0,0,80,81,129,90,86,134.21,124,59.00,14.00,-993.00
2024-06-07 15:00:34.479941,3,0,-38,0,0,0,80,81,128,90,86,134.00,124,74.00,-6.00,-1002.00
2024-06-07 15:00:34.581961,3,0,-32,0,0,0,80,81,129,90,86,134.41,124,67.00,-7.00,-996.00
2024-06-07 15:00:34.701579,3,1,-26,0,0,0,80,81,129,90,85,133.99,124,64.00,-2.00,-1005.00
2024-06-07 15:00:34.785914,3,1,-20,0,0,0,80,81,128,90,85,134.11,125,63.00,-23.00,-989.00
2024-06-07 15:00:34.887936,3,2,-15,0,0,0,80,81,131,90,85,133.79,125,47.00,-26.00,-997.00
2024-06-07 15:00:34.989970,3,2,-9,0,0,0,80,81,130,90,85,133.87,125,52.00,-28.00,-997.00
2024-06-07 15:00:35.111217,2,2,-3,0,0,0,80,81,129,90,85,134.17,125,44.00,-38.00,-987.00
2024-06-07 15:00:35.195362,2,2,2,0,0,0,80,81,131,90,85,134.04,125,52.00,-43.00,-1000.00
2024-06-07 15:00:35.295931,2,2,7,0,0,0,80,82,130,90,85,134.02,125,46.00,-44.00,-996.00
2024-06-07 15:00:35.398589,2,3,12,0,0,0,80,82,130,90,85,133.91,125,34.00,-41.00,-1024.00
2024-06-07 15:00:35.530062,1,3,16,0,0,0,80,82,130,90,85,134.43,125,31.00,-45.00,-997.00
2024-06-07 15:00:35.602719,1,3,19,0,0,0,80,82,130,90,85,134.17,125,26.00,-57.00,-987.00
2024-06-07 15:00:35.703861,1,3,22,0,0,0,80,82,130,90,85,134.12,125,24.00,-59.00,-994.00
2024-06-07 15:00:35.840846,1,3,24,0,0,0,80,82,131,90,85,134.23,126,22.00,-58.00,-1001.00
2024-06-07 15:00:35.907975,1,3,25,0,0,0,80,82,130,90,85,134.46,126,21.00,-54.00,-995.00
2024-06-07 15:00:35.958817,1,3,26,0,0,0,80,82,131,90,85,134.01,126,16.00,-53.00,-995.00
2024-06-07 15:00:36.239914,1,3,27,0,0,0,80,82,130,90,85,134.08,126,24.00,-55.00,-993.00
2024-06-07 15:00:36.240221,1,3,27,0,0,0,80,82,131,90,85,134.01,126,7.00,-51.00,-1000.00
2024-06-07 15:00:36.264882,1,3,27,0,0,0,80,82,131,90,85,134.05,126,19.00,-59.00,-979.00
2024-06-07 15:00:36.445571,1,3,27,0,0,0,80,82,131,90,85,134.11,126,13.00,-41.00,-1010.00
2024-06-07 15:00:36.468925,1,3,27,0,0,0,80,82,130,90,85,134.13,126,18.00,-44.00,-1007.00
2024-06-07 15:00:36.648299,1,3,27,0,0,0,80,82,131,90,85,134.15,126,17.00,-58.00,-975.00
2024-06-07 15:00:36.672834,1,3,27,0,0,0,80,82,130,90,85,134.07,126,16.00,-55.00,-984.00
2024-06-07 15:00:36.854380,1,3,27,0,0,0,80,82,130,90,85,134.00,127,13.00,-50.00,-990.00
2024-06-07 15:00:36.877663,1,2,27,0,0,0,80,82,130,90,85,134.24,127,29.00,-59.00,-1003.00
2024-06-07 15:00:37.059580,1,2,27,0,0,0,80,82,130,90,85,134.27,127,29.00,-53.00,-1000.00
2024-06-07 15:00:37.080682,1,2,27,0,0,0,80,82,130,90,85,134.48,127,17.00,-47.00,-999.00
2024-06-07 15:00:37.263297,1,2,27,0,0,0,80,82,132,90,85,133.95,127,27.00,-58.00,-1009.00
2024-06-07 15:00:37.284821,1,3,27,0,0,0,80,82,131,90,85,134.19,127,32.00,-63.00,-995.00
2024-06-07 15:00:37.466784,1,2,27,0,0,0,80,82,132,90,85,134.27,127,22.00,-49.00,-987.00
2024-06-07 15:00:37.488791,1,2,27,0,0,0,80,82,130,90,85,133.99,127,24.00,-51.00,-1005.00
2024-06-07 15:00:37.671532,1,2,27,0,0,0,80,82,131,90,85,134.14,127,7.00,-44.00,-996.00
2024-06-07 15:00:37.692831,1,2,27,0,0,0,80,82,132,90,85,134.23,127,13.00,-47.00,-1000.00
2024-06-07 15:00:37.877567,1,2,27,0,0,0,80,82,131,90,85,134.28,128,18.00,-59.00,-994.00
2024-06-07 15:00:37.896808,0,2,27,0,0,0,80,82,132,90,85,134.14,128,2.00,-40.00,-996.00
2024-06-07 15:00:38.083022,0,2,27,0,0,0,80,82,132,90,85,134.10,128,10.00,-47.00,-1002.00
2024-06-07 15:00:38.100817,0,2,27,0,0,0,80,82,131,90,85,134.30,128,16.00,-53.00,-998.00
2024-06-07 15:00:38.246189,0,2,27,0,0,0,80,82,131,90,85,134.06,128,-1.00,-46.00,-1002.00
2024-06-07 15:00:38.304721,0,2,27,0,0,0,80,82,132,90,85,133.97,128,-2.00,-46.00,-979.00
2024-06-07 15:00:38.406723,0,2,26,0,0,0,80,82,130,90,85,134.17,128,-2.00,-42.00,-1004.00
2024-06-07 15:00:38.696420,0,2,20,0,0,0,80,82,131,90,85,134.09,128,-4.00,-46.00,-973.00
2024-06-07 15:00:38.696454,0,2,15,0,0,0,80,82,132,90,85,134.18,128,12.00,-42.00,-1013.00
2024-06-07 15:00:38.712706,0,2,9,0,0,0,80,82,131,90,85,134.24,128,12.00,-46.00,-988.00
2024-06-07 15:00:38.901758,1,2,3,0,0,0,80,82,133,90,85,134.25,129,18.00,-58.00,-984.00
2024-06-07 15:00:38.916686,1,2,-2,0,0,0,80,82,129,90,85,134.45,129,19.00,-38.00,-1006.00
2024-06-07 15:00:39.018659,1,2,-8,0,0,0,80,82,130,90,85,134.15,129,28.00,-50.00,-994.00
2024-06-07 15:00:39.209074,1,2,-14,0,0,0,80,82,131,90,85,133.79,129,27.00,-36.00,-1001.00
2024-06-07 15:00:39.222640,2,2,-20,0,0,0,80,82,131,90,85,134.29,129,47.00,-31.00,-1004.00
2024-06-07 15:00:39.413336,2,2,-26,0,0,0,80,82,132,90,85,134.18,129,46.00,-33.00,-1007.00
2024-06-07 15:00:39.426644,2,1,-31,0,0,0,80,82,131,90,85,134.12,129,49.00,-37.00,-1008.00
2024-06-07 15:00:39.720608,2,1,-37,0,0,0,80,82,132,90,85,134.48,129,47.00,-21.00,-991.00
2024-06-07 15:00:39.720664,2,1,-43,0,0,0,80,82,132,90,85,134.32,129,53.00,-16.00,-996.00
2024-06-07 15:00:39.732612,3,1,-49,0,0,0,80,82,132,90,85,134.42,129,46.00,-11.00,-996.00
2024-06-07 15:00:39.928945,3,0,-55,0,0,0,80,82,131,90,85,134.26,130,69.00,-28.00,-997.00
2024-06-07 15:00:39.936571,3,0,-61,0,0,0,80,82,131,90,85,134.37,130,56.00,-13.00,-1001.00
2024-06-07 15:00:40.130414,3,0,-67,0,0,0,80,82,130,90,85,133.96,130,80.00,-9.00,-1002.00
2024-06-07 15:00:40.130456,3,0,-73,0,0,0,80,82,132,90,85,134.03,130,63.00,2.00,-997.00
2024-06-07 15:00:40.191936,3,0,-79,0,0,0,80,82,131,90,85,134.34,130,64.00,7.00,-995.00
2024-06-07 15:00:40.348928,3,0,-85,0,0,0,80,82,131,90,85,133.93,130,73.00,6.00,-998.00
2024-06-07 15:00:40.396044,3,-1,-91,0,0,0,80,82,131,90,85,134.15,130,65.00,33.00,-1020.00
2024-06-07 15:00:40.540845,3,-1,-96,0,0,0,80,82,131,90,85,133.84,130,64.00,34.00,-993.00
2024-06-07 15:00:40.599492,3,-2,-102,0,0,0,80,82,131,90,85,134.16,130,57.00,37.00,-995.00
2024-06-07 15:00:40.703546,3,-2,-108,0,0,0,80,82,130,90,85,134.07,130,47.00,38.00,-982.00
2024-06-07 15:00:40.803426,3,-2,-114,0,0,0,80,82,130,90,85,133.96,131,40.00,46.00,-1002.00
2024-06-07 15:00:40.905586,3,-2,-120,0,0,0,80,82,130,90,85,134.25,131,37.00,53.00,-1000.00
2024-06-07 15:00:41.007725,2,-3,-126,0,0,0,80,82,130,90,85,134.31,131,40.00,62.00,-1032.00
2024-06-07 15:00:41.155341,2,-3,-132,0,0,0,80,82,130,90,85,134.00,131,20.00,59.00,-990.00
2024-06-07 15:00:41.211432,1,-3,-138,0,0,0,80,82,131,90,85,134.20,131,11.00,65.00,-972.00
2024-06-07 15:00:41.364081,1,-3,-145,0,0,0,79,82,130,90,85,134.02,131,-1.00,68.00,-1020.00
2024-06-07 15:00:41.415423,0,-3,-151,0,0,0,79,82,128,90,85,134.14,131,0.00,70.00,-1013.00
2024-06-07 15:00:41.564732,0,-3,-157,0,0,0,79,82,128,90,85,134.28,131,0.00,53.00,-1007.00
2024-06-07 15:00:41.619347,0,-3,-163,0,0,0,79,82,129,90,85,133.91,131,-1.00,53.00,-1001.00
2024-06-07 15:00:41.770210,0,-2,-169,0,0,0,79,82,128,90,85,133.99,131,1.00,54.00,-1003.00
2024-06-07 15:00:41.823387,-1,-2,-175,0,0,0,79,82,128,90,85,133.89,132,-4.00,56.00,-1000.00
2024-06-07 15:00:41.925853,0,-2,179,0,0,0,79,82,128,90,85,134.07,132,-14.00,45.00,-1012.00
2024-06-07 15:00:42.076237,-1,-2,173,0,0,0,79,82,129,90,85,134.09,132,0.00,47.00,-1006.00
2024-06-07 15:00:42.129503,-1,-1,167,0,0,0,79,82,127,90,85,134.19,132,-5.00,39.00,-1002.00
2024-06-07 15:00:42.282094,-1,-1,161,0,0,0,79,82,128,90,85,134.31,132,-13.00,44.00,-1007.00
2024-06-07 15:00:42.333487,-1,-2,155,0,0,0,80,82,128,90,85,134.24,132,-22.00,53.00,-993.00
2024-06-07 15:00:42.484632,-1,-2,150,0,0,0,80,82,127,90,85,134.20,132,-10.00,50.00,-991.00
2024-06-07 15:00:42.537644,-1,-2,144,0,0,0,80,82,128,90,85,134.06,132,-17.00,48.00,-1020.00
2024-06-07 15:00:42.697330,-1,-2,138,0,0,0,80,82,128,90,84,134.07,132,-41.00,46.00,-1007.00
2024-06-07 15:00:42.741627,-1,-2,132,0,0,0,80,82,129,90,84,134.00,132,-44.00,22.00,-1009.00
2024-06-07 15:00:42.843643,-1,-1,126,0,0,0,80,82,128,90,84,134.06,133,-46.00,18.00,-1000.00
2024-06-07 15:00:43.004373,-1,-1,120,0,0,0,80,82,129,90,84,134.43,133,-50.00,16.00,-993.00
2024-06-07 15:00:43.047395,-1,0,114,0,0,0,80,82,128,90,84,133.85,133,-51.00,12.00,-1006.00
2024-06-07 15:00:43.149435,-2,0,109,0,0,0,80,82,128,90,84,133.96,133,-50.00,13.00,-991.00
2024-06-07 15:00:43.251360,-2,0,103,0,0,0,80,82,129,90,84,134.12,133,-48.00,4.00,-998.00
2024-06-07 15:00:43.353732,-2,0,97,0,0,0,80,82,129,90,84,134.08,133,-54.00,-10.00,-996.00
2024-06-07 15:00:43.455578,-2,0,91,0,0,0,80,82,129,90,84,133.61,133,-57.00,4.00,-1009.00
2024-06-07 15:00:43.557576,-2,0,85,0,0,0,80,82,128,90,84,133.96,133,-56.00,-23.00,-992.00
2024-06-07 15:00:43.609870,-2,1,78,0,0,0,80,82,129,90,84,134.16,133,-54.00,-20.00,-997.00
2024-06-07 15:00:43.710700,-2,2,72,0,0,0,80,82,129,90,84,134.54,133,-53.00,-34.00,-987.00
2024-06-07 15:00:43.816620,-2,2,66,0,0,0,80,82,129,90,84,134.26,134,-40.00,-35.00,-1020.00
2024-06-07 15:00:43.917540,-1,2,60,0,0,0,80,82,130,90,84,134.17,134,-39.00,-47.00,-1004.00
2024-06-07 15:00:44.016368,-1,3,54,0,0,0,80,82,129,90,84,134.13,134,-41.00,-46.00,-1006.00
2024-06-07 15:00:44.122630,-1,3,48,0,0,0,80,82,130,90,84,134.47,134,-14.00,-68.00,-995.00
2024-06-07 15:00:44.220349,-1,4,43,0,0,0,80,82,130,90,84,134.56,134,-11.00,-65.00,-1007.00
2024-06-07 15:00:44.328228,0,4,39,0,0,0,80,82,130,90,84,134.27,134,-18.00,-75.00,-958.00
2024-06-07 15:00:44.424413,0,4,37,0,0,0,80,82,130,90,84,134.25,134,-24.00,-66.00,-985.00
2024-06-07 15:00:44.526357,0,4,34,0,0,0,80,82,131,90,84,134.36,134,0.00,-66.00,-1017.00
2024-06-07 15:00:44.628346,0,4,33,0,0,0,80,82,130,90,84,134.34,134,6.00,-72.00,-1014.00
2024-06-07 15:00:44.730980,0,4,31,0,0,0,80,82,131,90,84,134.31,134,10.00,-75.00,-1009.00
2024-06-07 15:00:44.839772,0,5,30,0,0,0,80,82,131,90,84,134.26,135,1.00,-68.00,-1012.00
2024-06-07 15:00:44.935732,0,5,29,0,0,0,80,82,131,90,84,134.48,135,8.00,-63.00,-1012.00
2024-06-07 15:00:45.036777,1,4,29,0,0,0,80,82,130,90,84,134.41,135,15.00,-82.00,-982.00
2024-06-07 15:00:45.138662,1,4,28,0,0,0,80,82,131,90,84,134.63,135,10.00,-72.00,-1005.00
2024-06-07 15:00:45.249552,1,5,28,0,0,0,80,82,130,90,84,134.16,135,14.00,-63.00,-995.00
2024-06-07 15:00:45.342449,1,5,28,0,0,0,80,82,130,90,84,134.28,135,34.00,-81.00,-1001.00
2024-06-07 15:00:45.453646,1,4,28,0,0,0,80,82,130,90,84,134.40,135,33.00,-94.00,-983.00
2024-06-07 15:00:45.546854,2,4,28,0,0,0,80,82,131,90,84,134.34,135,14.00,-80.00,-998.00
2024-06-07 15:00:45.659057,2,5,28,0,0,0,80,82,130,90,84,134.24,135,31.00,-85.00,-1020.00
2024-06-07 15:00:45.752002,2,5,28,0,0,0,80,82,129,90,84,134.17,135,15.00,-112.00,-976.00
2024-06-07 15:00:45.852973,2,5,28,0,0,0,80,82,131,90,84,134.41,136,-13.00,-116.00,-1001.00
2024-06-07 15:00:45.955245,2,5,29,0,0,0,80,82,130,90,84,134.77,136,-9.00,-126.00,-1022.00
2024-06-07 15:00:46.056744,1,5,28,0,0,0,80,82,130,90,84,134.08,136,-32.00,-120.00,-991.00
2024-06-07 15:00:46.170834,0,6,28,0,-1,0,80,82,131,90,84,134.42,136,-19.00,-110.00,-1009.00
2024-06-07 15:00:46.260337,-1,6,28,0,0,0,80,82,131,90,84,134.81,136,-5.00,-115.00,-988.00
2024-06-07 15:00:46.384419,-1,6,28,0,0,0,80,82,130,90,84,134.57,136,21.00,-139.00,-971.00
2024-06-07 15:00:46.464409,0,7,28,0,0,0,80,82,131,90,84,134.66,136,23.00,-117.00,-969.00
2024-06-07 15:00:46.580722,0,7,28,0,0,0,80,82,132,90,84,134.27,136,15.00,-129.00,-987.00
2024-06-07 15:00:46.668764,1,7,28,0,0,0,80,82,132,90,84,134.40,136,36.00,-112.00,-987.00
2024-06-07 15:00:46.770314,1,7,28,0,0,0,80,82,132,90,84,134.37,137,29.00,-95.00,-1000.00
2024-06-07 15:00:46.873600,1,6,28,0,0,0,80,82,132,90,84,134.35,137,34.00,-95.00,-996.00
2024-06-07 15:00:46.975081,2,6,28,0,0,0,80,82,132,90,84,134.69,137,18.00,-99.00,-998.00
2024-06-07 15:00:47.077257,0,-2,28,0,0,-2,80,82,132,90,84,134.56,137,-6.00,-148.00,-1720.00
2024-06-07 15:00:47.129553,0,-12,28,2,-2,-10,80,82,139,100,84,134.56,137,-28.00,-24.00,-1514.00
2024-06-07 15:00:47.230106,0,-96,28,5,-10,-12,80,82,240,110,84,134.26,137,-47.00,543.00,-1128.00
2024-06-07 15:00:47.383211,-2,144,25,8,-15,1,80,82,6553,120,84,134.46,137,5.00,601.00,-873.00
2024-06-07 15:00:47.434195,-2,28,33,5,-10,11,80,82,369,110,84,134.33,137,7.00,340.00,-1660.00
2024-06-07 15:00:47.612567,5,-11,33,4,-10,8,80,82,150,100,84,134.34,137,-76.00,-153.00,-1556.00
2024-06-07 15:00:47.638426,-1,3,32,4,-13,5,80,82,140,100,83,134.18,137,-13.00,-27.00,-1203.00
2024-06-07 15:00:47.814639,-1,8,29,4,-12,2,80,82,134,90,83,134.00,138,12.00,-60.00,-1169.00
2024-06-07 15:00:47.842263,-2,9,28,4,-11,1,80,82,134,90,83,134.04,138,-4.00,-55.00,-1160.00
2024-06-07 15:00:47.944138,-1,9,28,4,-10,0,80,82,134,90,83,134.21,138,-23.00,-54.00,-1069.00
2024-06-07 15:00:48.117051,-1,9,28,3,-7,0,80,82,135,90,83,133.96,138,-20.00,-73.00,-1017.00
2024-06-07 15:00:48.148127,-1,9,28,2,-7,0,80,82,135,90,83,134.32,138,-5.00,-87.00,-995.00
2024-06-07 15:00:48.323814,-1,8,28,2,-6,0,80,82,137,90,83,133.64,138,-29.00,-70.00,-964.00
2024-06-07 15:00:48.352672,-1,7,28,2,-5,0,79,82,137,90,83,134.28,138,-11.00,-64.00,-1019.00
2024-06-07 15:00:48.525443,-1,7,28,2,-5,0,79,82,138,90,83,134.29,138,-28.00,-81.00,-971.00
2024-06-07 15:00:48.556158,-1,7,28,1,-4,0,79,82,138,100,83,134.24,138,-4.00,-86.00,-977.00
2024-06-07 15:00:48.730374,-1,7,28,1,-4,0,79,82,139,100,83,134.33,138,-18.00,-104.00,-976.00
2024-06-07 15:00:48.760210,-1,7,28,1,-4,0,79,82,140,100,83,134.59,139,-29.00,-97.00,-999.00
2024-06-07 15:00:48.935802,-1,7,28,1,-3,0,79,82,141,100,83,134.47,139,-7.00,-78.00,-986.00
2024-06-07 15:00:48.964344,0,7,28,1,-3,0,79,82,140,100,83,134.39,139,12.00,-89.00,-973.00
2024-06-07 15:00:49.140136,0,7,28,1,-3,0,79,82,141,100,83,134.72,139,13.00,-83.00,-988.00
2024-06-07 15:00:49.168086,0,7,28,1,-2,0,79,82,142,100,83,134.14,139,30.00,-79.00,-996.00
2024-06-07 15:00:49.344748,0,6,28,1,-2,0,79,82,141,100,83,134.37,139,12.00,-81.00,-952.00
2024-06-07 15:00:49.372072,1,6,28,1,-2,0,81,83,138,100,83,134.48,139,9.00,-103.00,-996.00
2024-06-07 15:00:49.549794,1,6,28,1,-2,0,81,83,138,100,83,134.57,139,-6.00,-88.00,-977.00
2024-06-07 15:00:49.576125,0,6,28,1,-2,0,81,83,139,100,83,134.24,139,-14.00,-93.00,-998.00
2024-06-07 15:00:49.755034,0,7,28,1,-2,0,81,83,138,100,82,134.09,139,-12.00,-105.00,-1014.00
2024-06-07 15:00:49.780350,0,8,28,0,-2,0,81,83,137,100,82,134.85,140,-10.00,-88.00,-1008.00
2024-06-07 15:00:49.972010,0,8,28,0,-1,0,81,83,138,100,82,134.50,140,-26.00,-93.00,-1007.00
2024-06-07 15:00:49.983993,0,7,28,0,-1,0,81,83,135,100,82,134.39,140,-4.00,-110.00,-1001.00
2024-06-07 15:00:50.163817,0,7,28,0,0,0,81,83,134,100,82,134.13,140,12.00,-117.00,-1001.00
2024-06-07 15:00:50.187984,0,7,28,0,0,0,81,83,135,100,82,134.32,140,-5.00,-113.00,-992.00
2024-06-07 15:00:50.368644,0,7,28,0,0,0,81,83,135,100,82,134.50,140,13.00,-108.00,-998.00
2024-06-07 15:00:50.391954,0,8,28,0,0,0,80,83,134,90,82,134.45,140,21.00,-89.00,-1003.00
2024-06-07 15:00:50.494179,0,6,28,0,0,0,80,83,134,90,82,134.01,140,19.00,-99.00,-1039.00
2024-06-07 15:00:50.676159,1,6,28,0,0,0,80,83,135,90,82,134.18,140,-14.00,-95.00,-1012.00
2024-06-07 15:00:50.697947,0,5,28,0,0,0,80,83,134,90,82,133.96,140,-3.00,-72.00,-995.00
2024-06-07 15:00:50.884378,0,4,28,0,0,0,80,83,132,90,82,134.27,141,-4.00,-114.00,-960.00
2024-06-07 15:00:50.884507,0,5,28,0,0,0,80,83,133,90,82,134.35,141,-22.00,-104.00,-979.00
2024-06-07 15:00:50.953324,0,6,28,0,0,0,80,83,133,90,82,134.41,141,-14.00,-103.00,-995.00
2024-06-07 15:00:51.088946,0,7,28,0,0,0,80,83,135,90,82,134.20,141,-18.00,-107.00,-989.00
2024-06-07 15:00:51.157319,0,6,28,0,0,0,80,83,135,90,82,133.99,141,-10.00,-110.00,-1001.00
2024-06-07 15:00:51.293296,0,6,28,0,0,0,80,83,135,90,82,134.44,141,-6.00,-111.00,-1001.00
2024-06-07 15:00:51.360960,0,5,28,0,0,0,81,82,134,90,82,134.56,141,3.00,-105.00,-995.00
2024-06-07 15:00:51.495319,0,5,28,0,0,0,81,82,134,90,82,134.22,141,-5.00,-102.00,-1003.00
2024-06-07 15:00:51.564959,0,5,28,0,0,0,81,82,135,90,82,134.47,141,29.00,-113.00,-982.00
2024-06-07 15:00:51.699879,0,5,28,0,0,0,81,82,134,100,82,134.49,141,24.00,-109.00,-993.00
2024-06-07 15:00:51.769877,0,6,28,0,0,0,81,82,135,100,82,134.13,142,27.00,-114.00,-991.00
2024-06-07 15:00:51.917264,1,5,28,0,0,0,81,82,134,100,82,134.37,142,30.00,-102.00,-985.00
2024-06-07 15:00:51.973225,1,5,28,0,0,0,81,82,134,100,82,134.15,142,10.00,-91.00,-983.00
2024-06-07 15:00:52.110996,1,5,28,0,0,0,81,82,135,100,82,134.44,142,22.00,-101.00,-1008.00
2024-06-07 15:00:52.177117,1,4,28,0,0,0,81,82,135,100,82,134.35,142,-5.00,-95.00,-1017.00
2024-06-07 15:00:52.316472,0,4,28,0,0,0,81,82,134,100,82,134.18,142,19.00,-92.00,-991.00
2024-06-07 15:00:52.386812,0,4,28,0,0,0,80,83,135,100,82,134.53,142,15.00,-109.00,-992.00
2024-06-07 15:00:52.485260,1,5,29,0,0,0,80,83,135,100,82,134.17,142,-18.00,-100.00,-1002.00
2024-06-07 15:00:52.584925,1,5,29,0,0,0,80,83,135,100,82,134.47,142,-2.00,-108.00,-994.00
2024-06-07 15:00:52.723989,0,5,28,0,0,0,80,83,137,100,82,134.18,142,-14.00,-109.00,-1002.00
2024-06-07 15:00:52.788986,0,5,28,0,0,0,80,83,136,100,82,134.41,143,2.00,-114.00,-989.00
2024-06-07 15:00:52.929678,0,6,28,0,0,0,80,83,139,100,82,134.53,143,18.00,-112.00,-1009.00
2024-06-07 15:00:52.992921,0,6,28,0,0,0,80,83,138,100,82,133.96,143,4.00,-100.00,-1007.00
2024-06-07 15:00:53.094988,0,5,28,0,0,0,80,83,138,100,82,134.03,143,8.00,-107.00,-1006.00
2024-06-07 15:00:53.237283,0,5,28,0,0,0,80,83,138,100,82,134.28,143,2.00,-111.00,-1001.00
2024-06-07 15:00:53.298990,0,5,28,0,0,0,80,83,139,100,82,134.37,143,-8.00,-116.00,-993.00
2024-06-07 15:00:53.400959,0,5,28,0,0,0,80,82,138,100,82,134.36,143,0.00,-114.00,-979.00
2024-06-07 15:00:53.502821,0,6,28,0,0,0,80,82,137,100,82,134.20,143,-13.00,-117.00,-980.00
2024-06-07 15:00:53.646229,0,6,28,0,0,0,80,82,140,100,82,134.23,143,11.00,-111.00,-984.00
2024-06-07 15:00:53.707195,0,6,28,0,0,-6,80,82,144,100,82,134.65,143,46.00,-225.00,-1782.00
2024-06-07 15:00:53.850808,0,39,28,0,1,-13,80,82,227,110,82,134.36,144,-12.00,517.00,-1251.00
2024-06-07 15:00:53.911929,0,155,27,-3,8,-6,80,82,6553,120,82,134.17,144,-16.00,859.00,-1036.00
2024-06-07 15:00:54.056729,1,-80,29,-2,5,9,80,82,344,120,82,134.38,144,13.00,678.00,-1196.00
2024-06-07 15:00:54.115752,0,6,30,0,0,10,80,82,147,110,82,134.52,144,-17.00,18.00,-1066.00
2024-06-07 15:00:54.259805,0,1,28,0,2,7,80,82,137,100,82,133.94,144,-9.00,-141.00,-1467.00
2024-06-07 15:00:54.319748,0,-5,28,0,0,3,80,82,134,100,82,134.37,144,-5.00,-113.00,-1222.00
2024-06-07 15:00:54.464722,0,0,28,0,-1,0,81,82,130,90,82,134.08,144,-1.00,-94.00,-1138.00
2024-06-07 15:00:54.523731,0,3,28,1,-1,0,81,82,129,90,82,133.99,144,-23.00,-83.00,-1051.00
2024-06-07 15:00:54.575084,0,5,28,1,-1,0,81,82,130,90,82,134.07,144,-26.00,-67.00,-1001.00
2024-06-07 15:00:54.771818,0,4,28,0,-1,-1,81,82,130,90,82,134.19,144,-22.00,-86.00,-1005.00
2024-06-07 15:00:54.780947,0,4,28,0,-1,-1,81,82,131,90,82,134.20,145,-27.00,-93.00,-966.00
2024-06-07 15:00:54.881037,0,4,28,0,-1,0,81,82,131,90,82,133.89,145,-16.00,-93.00,-984.00
2024-06-07 15:00:55.079176,-1,5,28,0,-1,0,81,82,132,90,82,134.10,145,-27.00,-89.00,-988.00
2024-06-07 15:00:55.084692,-1,6,28,0,-1,0,81,82,133,90,82,134.46,145,-39.00,-86.00,-977.00
2024-06-07 15:00:55.286247,-1,6,28,0,-1,0,81,82,132,90,82,134.25,145,-22.00,-94.00,-1002.00
2024-06-07 15:00:55.291413,-1,6,28,0,-1,0,81,82,132,90,82,134.34,145,-45.00,-97.00,-977.00
2024-06-07 15:00:55.390680,-1,6,28,0,-1,0,81,83,133,90,82,134.14,145,-20.00,-88.00,-994.00
2024-06-07 15:00:55.591475,-1,6,28,0,-1,0,81,83,133,90,82,134.41,145,-21.00,-95.00,-1011.00
2024-06-07 15:00:55.594773,-1,5,28,0,0,0,81,83,132,90,81,134.65,145,-23.00,-99.00,-993.00
2024-06-07 15:00:55.801179,-1,5,28,0,0,0,81,83,133,90,81,134.12,145,-7.00,-100.00,-1019.00
2024-06-07 15:00:55.803240,-1,6,28,0,0,0,81,83,132,90,81,134.23,146,-38.00,-96.00,-987.00
2024-06-07 15:00:55.900988,-1,6,28,0,0,0,81,83,135,90,81,134.21,146,-38.00,-91.00,-1007.00
2024-06-07 15:00:56.003677,-2,5,28,0,0,0,81,83,134,90,81,134.25,146,-12.00,-92.00,-1004.00
2024-06-07 15:00:56.105661,-2,5,28,0,0,0,81,83,134,90,81,134.06,146,-29.00,-107.00,-995.00
2024-06-07 15:00:56.207674,-1,4,28,0,0,0,81,83,135,90,81,134.19,146,-32.00,-105.00,-982.00
2024-06-07 15:00:56.309680,-2,5,28,0,0,0,81,83,135,90,81,134.31,146,-20.00,-113.00,-971.00
2024-06-07 15:00:56.411676,-2,5,28,0,0,0,81,83,134,90,81,134.49,146,-11.00,-108.00,-998.00
2024-06-07 15:00:56.615797,-1,5,28,0,0,0,81,83,135,90,81,134.66,146,0.00,-104.00,-984.00
2024-06-07 15:00:56.616009,-1,5,28,0,0,0,81,83,136,90,81,134.33,146,-11.00,-106.00,-973.00
2024-06-07 15:00:56.717703,0,5,28,0,0,0,81,83,135,90,81,134.27,146,9.00,-106.00,-965.00
2024-06-07 15:00:56.819741,0,5,28,0,0,0,81,83,136,90,81,134.38,147,2.00,-103.00,-989.00
2024-06-07 15:00:56.922319,0,4,28,0,0,0,81,83,136,90,81,134.70,147,1.00,-121.00,-1016.00
2024-06-07 15:00:57.025128,0,4,28,0,0,0,81,83,136,90,81,134.30,147,-12.00,-119.00,-979.00
2024-06-07 15:00:57.127051,0,5,28,0,0,0,81,83,136,90,81,134.41,147,0.00,-117.00,-988.00
2024-06-07 15:00:57.231316,0,6,28,0,0,0,81,83,136,90,81,134.17,147,4.00,-106.00,-1017.00
2024-06-07 15:00:57.329870,0,6,28,0,0,0,81,83,137,90,81,134.39,147,0.00,-113.00,-976.00
2024-06-07 15:00:57.437479,0,5,28,0,0,0,80,83,137,90,81,134.48,147,-19.00,-93.00,-976.00
2024-06-07 15:00:57.537457,0,5,28,0,0,0,80,83,137,90,81,134.37,147,-10.00,-106.00,-972.00
2024-06-07 15:00:57.636245,0,5,28,0,0,0,80,83,137,90,81,134.38,147,4.00,-95.00,-1005.00
2024-06-07 15:00:57.742661,0,5,28,0,0,0,80,83,137,90,81,134.35,147,-30.00,-108.00,-989.00
2024-06-07 15:00:57.839592,0,4,28,0,0,0,80,83,136,90,81,134.13,148,2.00,-121.00,-980.00
2024-06-07 15:00:57.941644,0,5,28,0,0,0,80,83,138,90,81,134.30,148,10.00,-116.00,-988.00
2024-06-07 15:00:57.992589,0,5,28,0,0,0,80,83,136,90,81,134.42,148,4.00,-114.00,-1015.00
2024-06-07 15:00:58.151038,0,6,28,0,0,0,80,83,137,90,81,134.81,148,24.00,-103.00,-1012.00
2024-06-07 15:00:58.196864,0,6,28,0,0,0,80,83,136,90,81,134.55,148,4.00,-105.00,-1021.00
2024-06-07 15:00:58.356436,1,6,28,0,0,0,80,83,136,90,81,134.52,148,17.00,-106.00,-972.00
2024-06-07 15:00:58.400727,0,5,28,0,0,0,80,82,136,90,81,134.30,148,24.00,-105.00,-1025.00
2024-06-07 15:00:58.563346,0,5,28,0,0,0,80,82,135,90,81,134.47,148,7.00,-98.00,-1004.00
2024-06-07 15:00:58.604966,1,5,28,0,0,0,80,82,136,90,81,133.86,148,-13.00,-89.00,-1005.00
2024-06-07 15:00:58.765654,1,5,29,0,0,0,80,82,134,90,81,134.01,148,-3.00,-97.00,-978.00
2024-06-07 15:00:58.808932,0,5,28,0,0,0,80,82,135,90,81,134.65,149,6.00,-106.00,-987.00
2024-06-07 15:00:58.971306,0,5,28,0,0,0,80,82,135,90,81,134.41,149,-6.00,-106.00,-969.00
2024-06-07 15:00:59.012887,0,5,28,0,0,0,80,82,135,90,81,134.35,149,-18.00,-101.00,-976.00
2024-06-07 15:00:59.175071,0,5,28,0,0,0,80,82,134,90,81,134.53,149,3.00,-94.00,-1030.00
2024-06-07 15:00:59.216594,0,5,28,0,0,0,80,82,136,90,81,134.28,149,18.00,-98.00,-1004.00
2024-06-07 15:00:59.379868,0,5,28,0,0,0,80,82,134,90,81,134.46,149,-3.00,-93.00,-990.00
2024-06-07 15:00:59.421434,0,5,28,0,0,0,80,82,135,90,81,134.47,149,6.00,-99.00,-1003.00
2024-06-07 15:00:59.586373,0,5,28,0,0,0,80,82,134,90,81,134.17,149,0.00,-95.00,-984.00
2024-06-07 15:00:59.626164,0,5,28,0,0,0,80,82,136,90,80,134.38,149,26.00,-93.00,-1009.00
2024-06-07 15:00:59.726502,0,5,28,0,0,0,80,82,136,90,80,134.00,149,0.00,-100.00,-993.00
2024-06-07 15:00:59.904411,0,5,28,0,0,0,80,82,137,90,80,134.34,150,12.00,-92.00,-1002.00
2024-06-07 15:00:59.931476,0,5,28,0,0,0,80,82,137,90,80,134.47,150,14.00,-103.00,-993.00
2024-06-07 15:01:00.032463,0,5,28,0,0,0,80,82,136,90,80,134.24,150,1.00,-84.00,-1013.00
2024-06-07 15:01:00.199760,0,5,28,0,0,0,80,82,136,90,80,134.39,150,-14.00,-56.00,-1067.00
2024-06-07 15:01:00.236655,-1,2,29,0,0,-1,80,82,140,90,80,134.29,150,-3.00,-125.00,-1774.00
2024-06-07 15:01:00.403772,-4,0,29,0,0,-8,80,82,166,100,80,134.20,150,-92.00,114.00,-1990.00
