TS,pitch,roll,yaw,vgx,vgy,vgz,templ,temph,tof,h,bat,baro,time,agx,agy,agz
2024-06-07 15:01:50.580255,0,1,22,0,0,0,81,83,10,0,78,132.74,168,13.00,-19.00,-999.00
2024-06-07 15:01:50.678672,0,1,22,0,0,0,80,84,10,0,78,132.72,168,12.00,-20.00,-999.00
2024-06-07 15:01:50.784254,0,0,22,0,0,0,80,84,10,0,78,132.72,168,14.00,-19.00,-1001.00
2024-06-07 15:01:50.882591,0,1,22,0,0,0,80,84,10,0,78,132.63,168,13.00,-16.00,-1000.00
2024-06-07 15:01:50.984510,0,1,22,0,0,0,80,84,10,0,78,132.74,168,11.00,-19.00,-1000.00
2024-06-07 15:01:51.195538,0,1,22,0,0,0,80,84,10,0,78,132.96,168,11.00,-20.00,-998.00
2024-06-07 15:01:51.196212,0,1,22,0,0,0,80,84,10,0,78,132.53,168,14.00,-18.00,-1000.00
2024-06-07 15:01:51.290877,0,1,22,0,0,0,80,84,10,0,78,132.61,168,12.00,-19.00,-1000.00
2024-06-07 15:01:51.401882,0,1,22,0,0,0,80,84,10,0,78,132.78,168,11.00,-19.00,-999.00
2024-06-07 15:01:51.495550,0,1,22,0,0,0,80,84,10,0,78,132.36,168,13.00,-20.00,-1000.00
2024-06-07 15:01:51.604518,0,1,22,0,0,0,80,84,10,0,78,132.47,168,12.00,-20.00,-1000.00
2024-06-07 15:01:51.698857,0,0,22,0,0,0,81,83,10,0,78,132.76,168,13.00,-18.00,-998.00
2024-06-07 15:01:51.809448,0,0,22,0,0,0,81,83,10,0,78,132.82,168,13.00,-18.00,-1001.00
2024-06-07 15:01:51.902588,0,0,22,0,0,0,81,83,10,0,78,132.90,168,13.00,-17.00,-1000.00
2024-06-07 15:01:52.013087,0,1,22,0,0,0,81,83,10,0,78,132.91,168,13.00,-20.00,-999.00
2024-06-07 15:01:52.109547,0,1,22,0,0,0,81,83,10,0,78,132.83,168,13.00,-19.00,-999.00
2024-06-07 15:01:52.157688,0,1,22,0,0,0,81,83,10,0,78,132.66,168,14.00,-17.00,-998.00
2024-06-07 15:01:52.320801,0,1,22,0,0,0,81,83,10,0,78,132.50,168,9.00,-18.00,-1002.00
2024-06-07 15:01:52.363210,0,1,22,0,0,0,81,83,10,0,78,133.11,168,9.00,-21.00,-999.00
2024-06-07 15:01:52.463732,0,1,22,0,0,0,81,83,10,0,78,132.93,168,13.00,-19.00,-1000.00
2024-06-07 15:01:52.640364,0,1,22,0,0,0,81,83,10,0,78,132.91,168,12.00,-18.00,-1001.00
2024-06-07 15:01:52.668990,0,1,22,0,0,0,81,83,10,0,78,132.81,168,12.00,-19.00,-999.00
2024-06-07 15:01:52.773361,0,1,22,0,0,0,81,83,10,0,78,132.65,168,11.00,-20.00,-999.00
2024-06-07 15:01:52.874235,0,1,22,0,0,0,81,83,10,0,78,132.84,168,0.00,-25.00,-1000.00
2024-06-07 15:01:52.976169,0,0,22,0,0,0,81,83,10,0,78,132.79,168,18.00,-8.00,-1004.00
2024-06-07 15:01:53.079246,0,0,22,0,0,0,81,83,10,0,78,132.79,168,8.00,-20.00,-1002.00
2024-06-07 15:01:53.177307,0,0,22,0,0,0,81,83,10,0,78,132.79,168,18.00,-16.00,-1017.00
2024-06-07 15:01:53.349084,1,0,22,0,0,0,81,83,10,0,78,132.79,168,12.00,-9.00,-1018.00
2024-06-07 15:01:53.381223,0,0,22,0,0,0,81,83,10,0,78,132.79,168,-7.00,-31.00,-1186.00
2024-06-07 15:01:53.550212,0,0,22,0,0,-1,81,83,10,0,78,132.79,168,-1.00,-57.00,-1352.00
2024-06-07 15:01:53.585279,0,0,22,0,-1,-4,81,83,10,0,78,132.79,168,-34.00,-93.00,-1192.00
2024-06-07 15:01:53.756542,0,3,22,0,-1,-7,81,83,15,10,78,133.13,168,-57.00,-106.00,-1105.00
2024-06-07 15:01:53.789196,0,5,22,0,-2,-7,81,83,23,10,78,133.37,168,-43.00,-92.00,-1006.00
2024-06-07 15:01:53.961760,-2,6,22,0,-2,-8,81,83,32,20,78,133.03,169,-52.00,-94.00,-955.00
2024-06-07 15:01:53.993528,-3,6,22,0,-2,-7,81,83,38,30,78,133.19,169,-36.00,-92.00,-960.00
2024-06-07 15:01:54.163259,-3,7,22,0,-2,-7,81,83,46,30,78,133.67,169,-35.00,-91.00,-906.00
2024-06-07 15:01:54.197304,-3,7,22,0,-1,-6,81,83,53,40,78,133.43,169,-44.00,-77.00,-899.00
2024-06-07 15:01:54.368647,-3,7,22,0,-1,-5,81,83,59,50,78,133.58,169,-37.00,-109.00,-869.00
2024-06-07 15:01:54.401415,-3,6,22,0,-1,-4,81,83,65,50,78,133.41,169,-21.00,-106.00,-895.00
2024-06-07 15:01:54.572796,-3,7,22,0,-1,-3,81,83,67,50,78,133.80,169,-41.00,-109.00,-913.00
2024-06-07 15:01:54.605305,-2,7,22,0,0,-2,81,83,71,60,78,133.69,169,-11.00,-101.00,-898.00
2024-06-07 15:01:54.777519,-2,7,22,0,0,-1,82,84,73,60,78,133.82,169,7.00,-116.00,-916.00
2024-06-07 15:01:54.809249,-1,6,22,0,0,0,82,84,74,60,78,133.68,169,-11.00,-128.00,-963.00
2024-06-07 15:01:54.982363,0,6,22,0,0,0,82,84,76,60,78,133.73,170,-26.00,-116.00,-1007.00
2024-06-07 15:01:55.013257,0,7,22,0,0,0,82,84,76,60,78,133.66,170,-48.00,-120.00,-973.00
2024-06-07 15:01:55.115259,0,8,22,0,0,0,82,84,77,60,78,133.69,170,-36.00,-114.00,-990.00
2024-06-07 15:01:55.290553,-2,7,22,0,0,0,82,84,78,60,78,133.92,170,-30.00,-114.00,-998.00
2024-06-07 15:01:55.319079,-2,7,22,0,0,0,82,84,79,70,78,133.78,170,-10.00,-128.00,-1011.00
2024-06-07 15:01:55.494377,-1,6,22,0,0,0,82,84,80,70,78,133.84,170,-57.00,-111.00,-987.00
2024-06-07 15:01:55.524902,0,7,22,0,0,0,82,84,81,70,78,133.57,170,-36.00,-122.00,-957.00
2024-06-07 15:01:55.625309,-1,8,22,0,0,0,82,84,82,70,78,133.64,170,-3.00,-134.00,-969.00
2024-06-07 15:01:55.802959,-1,7,22,0,0,0,82,84,82,70,78,133.77,170,-19.00,-135.00,-984.00
2024-06-07 15:01:55.829206,0,8,22,0,0,0,82,84,83,70,78,133.76,170,-31.00,-109.00,-994.00
2024-06-07 15:01:56.006271,0,7,22,0,0,0,82,84,83,70,78,133.73,171,-45.00,-99.00,-992.00
2024-06-07 15:01:56.033275,-1,6,22,0,0,0,82,84,83,70,78,133.80,171,-57.00,-96.00,-972.00
2024-06-07 15:01:56.135181,-2,6,22,0,0,0,82,84,84,70,78,133.77,171,-56.00,-94.00,-987.00
2024-06-07 15:01:56.313703,-2,5,22,0,0,0,82,84,85,70,78,133.28,171,-63.00,-97.00,-998.00
2024-06-07 15:01:56.339255,-3,5,22,0,0,0,82,84,85,70,78,133.74,171,-64.00,-106.00,-991.00
2024-06-07 15:01:56.390400,-3,5,22,0,0,0,82,84,85,70,78,133.74,171,-54.00,-94.00,-992.00
2024-06-07 15:01:56.518340,-4,5,22,0,0,0,82,84,85,70,78,133.97,171,-50.00,-94.00,-998.00
2024-06-07 15:01:56.595276,-3,5,22,0,0,0,82,84,84,70,78,133.53,171,-39.00,-96.00,-993.00
2024-06-07 15:01:56.724599,-3,4,22,0,0,0,81,84,84,70,78,133.53,171,-55.00,-110.00,-1010.00
2024-06-07 15:01:56.800033,-2,5,22,0,0,0,81,84,84,70,78,133.63,171,-92.00,-75.00,-1000.00
2024-06-07 15:01:56.900473,-2,5,22,0,0,0,81,84,85,70,78,133.78,172,-70.00,-101.00,-978.00
2024-06-07 15:01:57.002138,-3,4,22,0,0,0,81,84,85,70,78,133.65,172,-48.00,-115.00,-990.00
2024-06-07 15:01:57.125524,-4,4,22,0,0,0,81,84,85,70,78,133.80,172,-66.00,-109.00,-978.00
2024-06-07 15:01:57.207913,-3,5,22,0,0,0,81,84,84,70,78,133.95,172,-50.00,-106.00,-1004.00
2024-06-07 15:01:57.308362,-3,5,22,0,0,0,81,84,85,70,78,133.71,172,-70.00,-96.00,-998.00
2024-06-07 15:01:57.443202,-3,5,22,0,0,0,81,84,85,70,78,133.66,172,-62.00,-99.00,-988.00
2024-06-07 15:01:57.512103,-3,5,22,0,0,0,81,84,85,70,78,133.89,172,-66.00,-94.00,-992.00
2024-06-07 15:01:57.648027,-3,5,22,0,0,0,81,84,85,70,78,133.51,172,-94.00,-62.00,-980.00
2024-06-07 15:01:57.715941,-4,5,22,0,0,0,81,84,85,70,78,133.55,172,-72.00,-83.00,-976.00
2024-06-07 15:01:57.849523,-4,4,22,0,0,0,81,84,85,70,78,133.55,172,-96.00,-72.00,-991.00
2024-06-07 15:01:57.920064,-3,4,22,0,0,0,81,84,84,70,78,133.59,173,-101.00,-64.00,-990.00
2024-06-07 15:01:58.054463,-5,3,22,0,0,0,81,84,85,70,78,133.25,173,-85.00,-56.00,-989.00
2024-06-07 15:01:58.124092,-5,3,22,0,0,0,81,84,86,70,78,133.63,173,-67.00,-63.00,-1014.00
2024-06-07 15:01:58.262518,-5,3,22,0,0,0,81,84,85,70,78,133.51,173,-57.00,-68.00,-998.00
2024-06-07 15:01:58.328165,-4,2,22,0,0,0,81,84,85,70,78,133.45,173,-58.00,-70.00,-967.00
2024-06-07 15:01:58.463942,-3,2,22,0,0,0,81,84,86,70,78,133.46,173,-69.00,-76.00,-999.00
2024-06-07 15:01:58.532046,-2,3,22,0,0,0,81,84,86,70,78,133.88,173,-86.00,-69.00,-986.00
2024-06-07 15:01:58.670811,-3,3,22,0,0,0,81,84,86,70,78,133.31,173,-119.00,-66.00,-980.00
2024-06-07 15:01:58.736021,-4,2,22,0,0,0,81,84,87,70,78,133.69,173,-108.00,-83.00,-1023.00
2024-06-07 15:01:58.876457,-5,3,22,0,0,0,81,84,87,70,78,133.28,173,-90.00,-93.00,-959.00
2024-06-07 15:01:58.940194,-6,3,22,0,0,0,81,84,87,70,78,133.47,174,-113.00,-97.00,-984.00
2024-06-07 15:01:59.080055,-6,4,22,0,0,0,81,84,87,70,78,133.36,174,-110.00,-88.00,-992.00
2024-06-07 15:01:59.144977,-6,4,22,0,0,0,81,84,87,70,78,133.77,174,-111.00,-88.00,-970.00
2024-06-07 15:01:59.285791,-6,5,22,0,0,0,81,84,87,70,78,133.46,174,-123.00,-77.00,-1006.00
2024-06-07 15:01:59.348944,-6,4,22,0,0,0,81,84,88,70,78,133.41,174,-136.00,-84.00,-994.00
2024-06-07 15:01:59.491827,-7,5,22,0,0,0,81,84,88,70,78,133.11,174,-98.00,-79.00,-938.00
2024-06-07 15:01:59.553082,-8,4,22,0,0,0,81,84,87,70,78,133.38,174,-104.00,-64.00,-963.00
2024-06-07 15:01:59.696580,-8,4,22,0,0,0,81,84,87,70,78,133.10,174,-108.00,-79.00,-994.00
2024-06-07 15:01:59.757025,-6,4,22,0,0,0,82,84,87,70,78,133.21,174,-95.00,-68.00,-999.00
2024-06-07 15:02:00.001969,-6,4,22,0,0,0,82,84,86,70,78,133.43,174,-126.00,-83.00,-1034.00
2024-06-07 15:02:00.002017,-7,4,22,0,0,0,82,84,85,70,78,133.63,175,-98.00,-107.00,-944.00
2024-06-07 15:02:00.064112,-7,5,22,0,0,0,82,84,84,70,78,133.62,175,-103.00,-93.00,-964.00
2024-06-07 15:02:00.114074,-6,5,22,0,0,0,82,84,83,70,78,132.98,175,-97.00,-86.00,-980.00
2024-06-07 15:02:00.308945,-5,4,22,0,0,0,82,84,82,70,78,133.43,175,-109.00,-89.00,-987.00
2024-06-07 15:02:00.321762,-6,5,22,0,0,0,82,84,83,70,78,133.16,175,-103.00,-100.00,-1002.00
2024-06-07 15:02:00.419924,-6,5,22,0,0,0,82,84,81,70,78,133.12,175,-104.00,-96.00,-1001.00
2024-06-07 15:02:00.616091,-6,5,22,0,0,0,82,84,81,70,78,133.54,175,-109.00,-77.00,-990.00
2024-06-07 15:02:00.624044,-7,4,22,0,0,0,82,84,80,70,78,133.03,175,-138.00,-86.00,-986.00
2024-06-07 15:02:00.822464,-7,5,22,0,0,0,80,84,80,70,78,133.57,175,-134.00,-85.00,-1003.00
2024-06-07 15:02:00.828034,-7,5,22,0,0,0,80,84,80,70,78,133.38,176,-137.00,-88.00,-1011.00
2024-06-07 15:02:01.025303,-7,5,22,0,0,0,80,84,80,70,78,133.23,176,-137.00,-99.00,-983.00
2024-06-07 15:02:01.031938,-7,5,22,0,0,0,80,84,81,70,78,133.42,176,-136.00,-105.00,-978.00
2024-06-07 15:02:01.134558,-8,5,22,0,0,0,80,84,81,70,78,133.08,176,-128.00,-102.00,-956.00
2024-06-07 15:02:01.333876,-8,5,22,0,0,0,80,84,82,70,78,133.32,176,-110.00,-99.00,-951.00
2024-06-07 15:02:01.337926,-8,6,22,0,0,0,80,84,81,70,78,133.45,176,-121.00,-93.00,-957.00
2024-06-07 15:02:01.536077,-6,5,22,0,0,0,80,84,81,70,78,133.21,176,-138.00,-80.00,-1027.00
2024-06-07 15:02:01.542941,-7,5,22,0,0,0,80,84,80,70,78,133.43,176,-115.00,-79.00,-999.00
2024-06-07 15:02:01.743433,-6,4,22,0,0,0,80,84,80,70,78,133.30,176,-117.00,-66.00,-1009.00
2024-06-07 15:02:01.746929,-6,3,22,0,0,0,81,83,81,70,78,133.44,176,-122.00,-70.00,-1007.00
2024-06-07 15:02:01.949135,-6,3,22,0,0,0,81,83,81,70,78,133.68,177,-119.00,-55.00,-993.00
2024-06-07 15:02:01.950926,-6,3,22,0,0,0,81,83,82,70,78,133.16,177,-123.00,-75.00,-1012.00
2024-06-07 15:02:02.150366,-6,3,22,0,0,0,81,83,82,70,78,133.51,177,-131.00,-64.00,-983.00
2024-06-07 15:02:02.154872,-6,4,22,0,0,0,81,83,83,70,78,133.27,177,-142.00,-56.00,-985.00
2024-06-07 15:02:02.355090,-7,3,22,0,0,0,81,83,84,70,78,133.49,177,-111.00,-81.00,-973.00
2024-06-07 15:02:02.358904,-6,4,22,0,0,0,81,83,85,70,78,133.32,177,-126.00,-71.00,-1008.00
2024-06-07 15:02:02.560145,-6,3,22,0,0,0,81,83,85,70,78,133.18,177,-159.00,-84.00,-962.00
2024-06-07 15:02:02.562958,-7,4,22,0,0,0,81,83,86,70,78,133.10,177,-175.00,-87.00,-954.00
2024-06-07 15:02:02.664952,-7,4,22,0,0,0,81,83,86,70,78,133.15,177,-175.00,-95.00,-954.00
2024-06-07 15:02:02.768368,-8,3,22,0,0,0,81,83,85,70,78,133.25,177,-198.00,-87.00,-954.00
2024-06-07 15:02:02.870435,-7,3,22,-1,-1,0,81,83,86,70,78,133.32,178,-216.00,-73.00,-985.00
2024-06-07 15:02:02.971301,-7,3,22,-1,-1,0,81,83,85,70,78,132.84,178,-189.00,-91.00,-1006.00
2024-06-07 15:02:03.174686,-8,3,22,-2,-1,0,81,83,86,70,78,133.45,178,-189.00,-90.00,-967.00
2024-06-07 15:02:03.175157,-8,3,22,-2,-2,0,81,83,86,70,78,133.24,178,-201.00,-100.00,-971.00
2024-06-07 15:02:03.279587,-8,3,22,-2,-2,0,81,83,86,70,78,133.14,178,-165.00,-101.00,-983.00
2024-06-07 15:02:03.379335,-8,3,22,-2,-2,0,81,83,85,70,78,133.40,178,-163.00,-91.00,-996.00
2024-06-07 15:02:03.483331,-8,3,22,-2,-3,0,81,83,85,70,78,133.05,178,-154.00,-89.00,-986.00
2024-06-07 15:02:03.583505,-8,4,22,-2,-3,0,81,83,85,70,78,133.21,178,-139.00,-83.00,-982.00
2024-06-07 15:02:03.688946,-8,3,22,-1,-3,0,81,83,85,70,78,133.22,178,-124.00,-100.00,-1024.00
2024-06-07 15:02:03.790122,-7,3,22,-1,-3,0,80,84,85,70,78,133.05,178,-138.00,-109.00,-1096.00
2024-06-07 15:02:03.837792,-7,4,22,-1,-3,-1,80,84,85,70,78,133.19,179,-142.00,-107.00,-1086.00
2024-06-07 15:02:03.940686,-7,4,22,-1,-3,-2,80,84,88,70,78,133.13,179,-125.00,-97.00,-1104.00
2024-06-07 15:02:04.041904,-7,5,22,-1,-3,-3,80,84,90,80,78,133.41,179,-148.00,-79.00,-1073.00
2024-06-07 15:02:04.143723,-7,4,22,-1,-3,-4,80,84,94,80,78,133.38,179,-149.00,-105.00,-1053.00
2024-06-07 15:02:04.245673,-7,5,22,-1,-3,-4,80,84,99,80,78,133.39,179,-142.00,-101.00,-1027.00
2024-06-07 15:02:04.403069,-7,5,22,-1,-3,-5,80,84,103,90,78,133.55,179,-145.00,-79.00,-1024.00
2024-06-07 15:02:04.449681,-7,5,22,-1,-3,-5,80,84,108,90,78,133.55,179,-148.00,-80.00,-975.00
2024-06-07 15:02:04.607952,-7,5,22,-1,-3,-5,80,84,115,100,78,133.38,179,-125.00,-82.00,-987.00
2024-06-07 15:02:04.653769,-7,5,22,-1,-3,-5,80,84,119,110,78,133.38,179,-122.00,-64.00,-1026.00
2024-06-07 15:02:04.812751,-8,5,22,-2,-3,-5,81,84,129,110,78,133.62,179,-136.00,-72.00,-878.00
2024-06-07 15:02:04.857702,-7,4,22,-2,-3,-4,81,84,133,120,78,133.66,180,-177.00,-66.00,-945.00
2024-06-07 15:02:05.019870,-6,4,22,-2,-3,-4,81,84,137,120,78,133.33,180,-153.00,-61.00,-1025.00
2024-06-07 15:02:05.062665,-8,4,22,-3,-2,-4,81,84,141,120,78,133.79,180,-137.00,-22.00,-984.00
2024-06-07 15:02:05.164833,-8,4,22,-3,-2,-4,81,84,146,130,78,133.91,180,-101.00,-32.00,-1014.00
2024-06-07 15:02:05.328848,-7,4,22,-3,-1,-4,81,84,152,130,78,133.09,180,-130.00,2.00,-1039.00
2024-06-07 15:02:05.368609,-8,4,22,-3,-1,-4,81,84,155,140,78,133.32,180,-102.00,-21.00,-992.00
2024-06-07 15:02:05.529519,-8,3,22,-3,0,-4,81,84,159,140,78,133.18,180,-107.00,-17.00,-997.00
2024-06-07 15:02:05.574095,-8,3,22,-3,0,-4,81,84,164,150,78,133.61,180,-114.00,-30.00,-960.00
2024-06-07 15:02:05.734314,-9,2,22,-3,0,-3,81,84,169,150,78,133.69,180,-135.00,-34.00,-909.00
2024-06-07 15:02:05.776710,-9,1,22,-2,0,-3,81,83,173,150,78,133.75,180,-136.00,-80.00,-940.00
2024-06-07 15:02:05.940224,-10,2,22,-1,0,-2,81,83,174,160,78,134.16,181,-136.00,-95.00,-911.00
2024-06-07 15:02:05.981226,-10,3,22,-1,0,-1,81,83,178,160,78,133.79,181,-127.00,-103.00,-969.00
2024-06-07 15:02:06.147949,-11,4,22,0,0,-1,81,83,179,160,78,134.00,181,-94.00,-121.00,-877.00
2024-06-07 15:02:06.185192,-11,4,22,0,-1,0,81,83,180,160,78,134.03,181,-119.00,-125.00,-1001.00
2024-06-07 15:02:06.452296,-10,6,22,0,0,0,81,83,180,160,78,134.00,181,-164.00,-89.00,-1004.00
2024-06-07 15:02:06.452339,-11,6,22,0,0,0,81,83,182,160,78,134.40,181,-161.00,-93.00,-974.00
2024-06-07 15:02:06.490533,-12,6,21,0,0,0,81,83,183,160,78,134.41,181,-158.00,-93.00,-1005.00
2024-06-07 15:02:06.655837,-12,7,21,1,0,0,81,83,186,170,78,134.04,181,-149.00,-89.00,-953.00
2024-06-07 15:02:06.694691,-13,7,21,1,0,0,81,83,186,170,78,133.91,181,-134.00,-89.00,-961.00
2024-06-07 15:02:06.860806,-13,7,21,2,1,0,81,83,187,170,78,133.76,181,-148.00,-77.00,-979.00
2024-06-07 15:02:06.898831,-14,8,21,2,2,0,81,83,188,170,78,134.15,182,-144.00,-73.00,-945.00
2024-06-07 15:02:07.000639,-13,8,21,3,3,0,81,83,189,170,78,134.00,182,-149.00,-107.00,-990.00
2024-06-07 15:02:07.168183,-14,9,21,4,3,0,81,83,187,170,78,133.69,182,-178.00,-100.00,-961.00
2024-06-07 15:02:07.204750,-11,8,21,4,4,0,81,83,185,170,78,134.06,182,-177.00,-98.00,-998.00
2024-06-07 15:02:07.255657,-8,6,22,4,5,0,81,83,184,170,78,133.96,182,-183.00,-90.00,-1018.00
2024-06-07 15:02:07.372875,-7,4,22,4,5,0,81,83,182,170,78,133.64,182,-178.00,-97.00,-1006.00
2024-06-07 15:02:07.460275,-7,4,22,3,4,0,81,83,184,170,78,133.81,182,-165.00,-86.00,-949.00
2024-06-07 15:02:07.579910,-8,4,22,3,4,0,81,83,182,170,78,133.65,182,-144.00,-77.00,-962.00
2024-06-07 15:02:07.663791,-7,4,22,3,4,0,81,83,184,170,78,133.81,182,-155.00,-89.00,-957.00
2024-06-07 15:02:07.816671,-6,3,22,3,4,0,80,82,182,170,78,133.76,182,-178.00,-93.00,-991.00
2024-06-07 15:02:07.867598,-6,3,22,3,3,0,80,82,183,170,78,133.96,183,-137.00,-101.00,-1023.00
2024-06-07 15:02:07.990947,-6,3,22,3,3,0,80,82,182,170,78,133.60,183,-148.00,-100.00,-1004.00
2024-06-07 15:02:08.071706,-6,4,22,2,2,0,80,82,179,170,78,133.94,183,-155.00,-74.00,-911.00
2024-06-07 15:02:08.173965,-6,4,22,2,2,0,80,82,181,170,78,133.87,183,-168.00,-86.00,-1030.00
2024-06-07 15:02:08.294552,-5,4,22,2,2,0,80,82,179,170,78,133.62,183,-137.00,-94.00,-1041.00
2024-06-07 15:02:08.377647,-5,3,22,1,2,0,80,82,177,170,78,133.76,183,-133.00,-96.00,-991.00
2024-06-07 15:02:08.499317,-6,3,22,1,2,0,80,82,177,170,78,133.72,183,-132.00,-120.00,-1024.00
2024-06-07 15:02:08.582716,-5,3,22,1,1,0,80,82,176,170,78,133.68,183,-118.00,-100.00,-1041.00
2024-06-07 15:02:08.683430,-4,5,22,1,1,0,80,82,175,170,78,133.64,183,-164.00,-79.00,-989.00
2024-06-07 15:02:08.806223,-4,5,22,1,1,0,81,82,177,170,78,133.76,183,-143.00,-94.00,-935.00
2024-06-07 15:02:08.887681,-6,4,22,0,1,0,81,82,179,170,78,133.94,184,-104.00,-75.00,-911.00
2024-06-07 15:02:08.989419,-7,4,22,0,1,0,81,82,176,160,78,133.61,184,-108.00,-92.00,-942.00
2024-06-07 15:02:09.113462,-5,3,22,1,1,1,81,82,173,160,78,133.80,184,-111.00,-98.00,-966.00
2024-06-07 15:02:09.193475,-4,3,22,1,0,1,81,82,173,160,78,133.86,184,-119.00,-94.00,-955.00
2024-06-07 15:02:09.318447,-4,4,22,0,0,1,81,82,173,160,78,133.60,184,-129.00,-79.00,-955.00
2024-06-07 15:02:09.397526,-5,4,22,0,0,2,81,82,170,160,78,134.03,184,-118.00,-77.00,-970.00
2024-06-07 15:02:09.522975,-6,5,22,0,0,2,81,82,167,160,78,134.00,184,-141.00,-78.00,-954.00
2024-06-07 15:02:09.601475,-6,4,22,0,0,2,81,82,165,150,78,133.73,184,-133.00,-76.00,-1000.00
2024-06-07 15:02:09.729292,-7,4,22,0,0,2,81,82,161,150,78,133.57,184,-118.00,-75.00,-997.00
2024-06-07 15:02:09.806290,-6,4,22,0,0,2,81,82,157,150,78,133.75,184,-134.00,-83.00,-1082.00
2024-06-07 15:02:09.932961,-6,4,22,0,0,2,81,82,156,150,78,133.61,185,-119.00,-107.00,-1060.00
2024-06-07 15:02:10.010587,-6,4,22,0,0,1,81,82,154,140,78,133.66,185,-137.00,-101.00,-1057.00
2024-06-07 15:02:10.139024,-6,4,22,0,0,0,81,82,154,140,78,133.71,185,-145.00,-95.00,-1005.00
2024-06-07 15:02:10.213781,-8,5,22,0,0,0,81,82,155,140,78,133.53,185,-130.00,-90.00,-946.00
2024-06-07 15:02:10.342315,-8,6,22,0,0,0,81,82,153,140,78,133.76,185,-144.00,-85.00,-1005.00
2024-06-07 15:02:10.417798,-8,5,22,0,0,0,81,82,152,140,78,133.59,185,-147.00,-75.00,-1035.00
2024-06-07 15:02:10.548935,-7,4,22,0,0,0,81,82,152,140,78,133.64,185,-131.00,-88.00,-1025.00
2024-06-07 15:02:10.625484,-7,3,22,0,0,0,81,82,152,140,78,133.57,185,-140.00,-93.00,-992.00
2024-06-07 15:02:10.723858,-7,3,22,0,0,0,81,82,152,140,78,133.50,185,-130.00,-78.00,-978.00
2024-06-07 15:02:10.854338,-7,4,22,0,0,0,81,82,153,140,78,133.63,185,-147.00,-96.00,-950.00
2024-06-07 15:02:10.927582,-8,5,22,0,0,0,81,82,153,140,78,133.27,186,-140.00,-52.00,-968.00
2024-06-07 15:02:11.034202,-8,4,22,0,0,0,81,82,151,140,78,133.50,186,-138.00,-63.00,-1018.00
2024-06-07 15:02:11.131632,-8,3,22,0,0,0,81,82,151,140,78,133.49,186,-134.00,-64.00,-987.00
2024-06-07 15:02:11.265095,-8,2,22,0,0,0,81,82,153,140,78,133.79,186,-142.00,-53.00,-1000.00
2024-06-07 15:02:11.284359,-8,3,22,0,0,0,81,82,152,140,78,133.63,186,-131.00,-87.00,-938.00
2024-06-07 15:02:11.468727,-8,3,22,0,0,0,81,82,151,140,78,133.77,186,-161.00,-79.00,-982.00
2024-06-07 15:02:11.488283,-8,3,22,0,0,0,81,82,152,140,78,133.47,186,-141.00,-77.00,-999.00
2024-06-07 15:02:11.676027,-8,4,22,0,0,0,81,82,152,140,78,133.54,186,-150.00,-72.00,-951.00
2024-06-07 15:02:11.692547,-9,3,22,0,0,0,81,82,152,140,78,133.85,186,-150.00,-81.00,-1005.00
2024-06-07 15:02:11.794278,-9,3,22,0,0,0,80,82,152,140,78,133.51,186,-125.00,-86.00,-989.00
2024-06-07 15:02:11.980605,-9,3,22,0,0,0,80,82,153,140,78,133.65,187,-112.00,-86.00,-969.00
2024-06-07 15:02:11.998263,-12,4,22,0,0,0,80,82,155,140,78,133.62,187,-136.00,-74.00,-990.00
2024-06-07 15:02:12.185334,-15,5,22,1,0,0,80,82,156,140,78,133.63,187,-173.00,-50.00,-989.00
2024-06-07 15:02:12.202266,-16,4,22,2,1,0,80,82,157,140,78,133.59,187,-163.00,-79.00,-1003.00
2024-06-07 15:02:12.390192,-16,4,22,3,1,0,80,82,157,140,78,133.50,187,-162.00,-79.00,-989.00
2024-06-07 15:02:12.406236,-15,3,22,4,1,0,80,82,155,140,78,133.68,187,-147.00,-83.00,-978.00
2024-06-07 15:02:12.596279,-15,4,22,5,2,0,80,82,154,140,78,133.60,187,-152.00,-96.00,-963.00
2024-06-07 15:02:12.613785,-14,4,22,6,2,0,80,82,153,140,78,133.57,187,-151.00,-119.00,-956.00
2024-06-07 15:02:12.712380,-13,5,22,7,2,0,80,82,152,140,78,133.68,187,-134.00,-85.00,-1098.00
2024-06-07 15:02:12.814276,-10,7,22,7,2,0,80,82,148,140,78,133.24,187,-160.00,-6.00,-1060.00
2024-06-07 15:02:12.917030,-3,5,23,7,3,0,80,82,150,140,78,133.04,188,-200.00,-75.00,-1086.00
2024-06-07 15:02:13.018520,-2,1,23,5,3,-1,80,82,151,140,78,133.15,188,-170.00,-52.00,-950.00
2024-06-07 15:02:13.211656,-8,3,22,4,2,0,80,82,155,140,78,133.44,188,-163.00,-72.00,-881.00
2024-06-07 15:02:13.222366,-9,4,22,4,2,0,80,82,154,140,78,133.40,188,-164.00,-89.00,-949.00
2024-06-07 15:02:13.415569,-8,3,22,4,2,0,80,82,154,140,78,133.62,188,-196.00,-74.00,-932.00
2024-06-07 15:02:13.426239,-6,4,22,4,1,0,80,82,154,140,78,133.59,188,-170.00,-61.00,-956.00
2024-06-07 15:02:13.620821,-6,5,22,3,1,0,80,82,154,140,78,133.44,188,-149.00,-32.00,-1016.00
2024-06-07 15:02:13.630220,-6,4,22,3,2,0,80,82,149,140,78,133.45,188,-151.00,-64.00,-1045.00
2024-06-07 15:02:13.825188,-5,1,22,3,2,0,80,82,151,140,78,133.38,188,-168.00,-73.00,-1018.00
2024-06-07 15:02:13.834256,-5,2,22,3,1,0,80,82,152,140,78,133.30,188,-165.00,-58.00,-1025.00
2024-06-07 15:02:14.030560,-5,4,22,2,1,0,80,82,153,140,78,133.41,189,-141.00,-48.00,-951.00
2024-06-07 15:02:14.038222,-6,3,22,2,1,0,80,82,152,140,78,133.35,189,-131.00,-57.00,-942.00
2024-06-07 15:02:14.237269,-6,2,22,2,1,0,80,82,151,140,78,133.56,189,-141.00,-61.00,-1000.00
2024-06-07 15:02:14.242326,-5,2,22,2,1,0,80,82,153,140,78,133.52,189,-156.00,-52.00,-1033.00
2024-06-07 15:02:14.439942,-5,3,22,1,1,0,80,82,154,140,78,133.63,189,-127.00,-70.00,-852.00
2024-06-07 15:02:14.446232,-6,3,22,1,1,0,80,82,152,140,78,133.41,189,-125.00,-50.00,-969.00
2024-06-07 15:02:14.644792,-3,2,22,1,1,0,80,82,151,140,78,133.66,189,-133.00,-82.00,-1048.00
2024-06-07 15:02:14.651082,-2,2,22,0,0,0,80,82,152,140,78,133.51,189,-161.00,-28.00,-1031.00
2024-06-07 15:02:14.766932,-4,3,22,0,0,0,80,82,153,140,78,133.26,189,-102.00,-15.00,-962.00
2024-06-07 15:02:14.854103,-7,3,22,0,0,0,80,82,154,140,78,133.38,189,-153.00,-9.00,-974.00
2024-06-07 15:02:15.054122,-7,1,22,0,1,0,80,82,154,140,78,133.81,190,-114.00,-1.00,-955.00
2024-06-07 15:02:15.058043,-3,0,22,0,1,0,80,82,153,140,78,133.42,190,-106.00,-11.00,-971.00
2024-06-07 15:02:15.257404,2,0,22,0,0,0,80,82,152,140,78,133.68,190,-107.00,-37.00,-961.00
2024-06-07 15:02:15.258357,3,1,22,-2,-1,0,80,82,153,140,78,133.53,190,-116.00,-68.00,-997.00
2024-06-07 15:02:15.313101,1,3,22,-4,-2,0,80,82,153,140,78,133.61,190,-130.00,-66.00,-1017.00
2024-06-07 15:02:15.462138,0,3,22,-5,-2,0,80,82,152,140,78,133.74,190,-126.00,-76.00,-985.00
2024-06-07 15:02:15.517036,-1,4,22,-5,-2,0,80,82,152,140,78,133.69,190,-123.00,-82.00,-960.00
2024-06-07 15:02:15.667156,-2,3,22,-6,-2,0,80,82,151,140,78,133.47,190,-113.00,-59.00,-996.00
2024-06-07 15:02:15.721128,-1,3,23,-6,-2,0,80,82,152,140,78,133.82,190,-82.00,-60.00,-1001.00
2024-06-07 15:02:15.823194,-2,4,22,-7,-2,0,79,82,152,140,78,133.53,190,-106.00,-33.00,-1046.00
2024-06-07 15:02:15.977641,-5,2,22,-7,-2,0,79,82,153,140,78,133.91,191,-93.00,-56.00,-997.00
2024-06-07 15:02:16.027384,-8,1,22,-7,-2,0,79,82,154,140,78,133.77,191,-95.00,-48.00,-1011.00
2024-06-07 15:02:16.129259,-9,1,22,-6,-2,0,79,82,155,140,78,133.68,191,-88.00,-67.00,-1001.00
2024-06-07 15:02:16.283881,-9,2,22,-5,-2,0,79,82,155,140,78,133.91,191,-86.00,-51.00,-968.00
2024-06-07 15:02:16.333257,-8,4,22,-4,-2,0,79,82,156,140,78,134.00,191,-102.00,-62.00,-988.00
2024-06-07 15:02:16.486495,-9,3,22,-4,-2,0,79,82,156,140,78,133.69,191,-129.00,-36.00,-965.00
2024-06-07 15:02:16.537374,-8,3,22,-4,-1,0,79,82,155,140,78,133.78,191,-137.00,23.00,-953.00
2024-06-07 15:02:16.692523,-9,4,22,-4,-1,0,79,82,155,140,78,133.51,191,-122.00,0.00,-967.00
2024-06-07 15:02:16.741935,-10,2,22,-4,0,0,79,82,155,140,78,134.11,191,-105.00,-22.00,-997.00
2024-06-07 15:02:16.844208,-9,0,22,-2,0,0,80,82,155,140,78,133.77,192,-109.00,-33.00,-1026.00
2024-06-07 15:02:16.998303,-8,0,22,-2,0,0,80,82,152,140,78,133.58,192,-98.00,-47.00,-1011.00
2024-06-07 15:02:17.047456,-7,2,22,-1,0,0,80,82,152,140,78,133.79,192,-92.00,-41.00,-1038.00
2024-06-07 15:02:17.149079,-7,2,22,-1,0,0,80,82,154,140,78,133.51,192,-96.00,-35.00,-1005.00
2024-06-07 15:02:17.407954,-6,2,22,-1,0,0,80,82,155,140,78,133.74,192,-111.00,-38.00,-999.00
2024-06-07 15:02:17.408810,-7,2,22,-1,0,0,80,82,154,140,78,133.69,192,-90.00,-44.00,-973.00
2024-06-07 15:02:17.455016,-9,2,22,0,0,0,80,82,156,140,78,133.92,192,-99.00,-52.00,-991.00
2024-06-07 15:02:17.614717,-7,2,22,0,0,0,80,82,158,140,78,133.69,192,-133.00,-49.00,-1013.00
2024-06-07 15:02:17.659529,-6,2,22,0,0,0,80,82,157,140,77,133.84,192,-133.00,-52.00,-932.00
2024-06-07 15:02:17.761536,-7,2,22,0,0,0,80,82,156,140,77,133.59,192,-133.00,-46.00,-960.00
2024-06-07 15:02:17.863072,-8,2,22,0,0,0,78,82,158,140,77,133.62,193,-124.00,-39.00,-976.00
2024-06-07 15:02:18.025200,-7,-1,22,0,0,0,78,82,157,140,77,133.49,193,-130.00,-43.00,-989.00
2024-06-07 15:02:18.067010,-7,-6,23,0,-1,0,78,82,157,140,77,133.53,193,-152.00,-56.00,-1039.00
2024-06-07 15:02:18.229862,-7,-3,23,0,-2,0,78,82,157,140,77,133.64,193,-167.00,-1.00,-1004.00
2024-06-07 15:02:18.271111,-7,0,22,0,-2,0,78,82,154,140,77,133.44,193,-137.00,-27.00,-957.00
2024-06-07 15:02:18.436594,-8,0,22,0,-2,0,78,82,156,140,77,133.42,193,-147.00,-27.00,-976.00
2024-06-07 15:02:18.474921,-8,2,22,1,-2,0,78,82,156,140,77,133.76,193,-117.00,-37.00,-978.00
2024-06-07 15:02:18.637299,-7,2,22,1,-2,0,78,82,154,140,77,133.66,193,-130.00,-12.00,-991.00
2024-06-07 15:02:18.638366,-7,1,22,0,-2,0,78,82,155,140,77,133.53,193,-142.00,-13.00,-1012.00
2024-06-07 15:02:18.736168,-7,1,22,0,-2,0,78,82,155,140,77,133.49,193,-118.00,-44.00,-994.00
2024-06-07 15:02:18.884776,-7,2,22,1,-2,0,79,82,153,140,77,133.20,194,-112.00,-27.00,-1009.00
2024-06-07 15:02:18.987863,-7,3,22,1,-2,0,79,82,152,140,77,133.59,194,-94.00,-37.00,-1007.00
2024-06-07 15:02:19.038847,-6,3,22,1,-2,0,79,82,153,140,77,133.84,194,-106.00,-42.00,-993.00
2024-06-07 15:02:19.138896,-6,3,22,1,-1,0,79,82,153,140,77,133.61,194,-122.00,-44.00,-1016.00
2024-06-07 15:02:19.240136,-5,3,22,1,-1,0,79,82,151,140,77,133.45,194,-121.00,-51.00,-1005.00
2024-06-07 15:02:19.341952,-6,4,22,1,-1,0,79,82,152,140,77,133.68,194,-103.00,-51.00,-1020.00
2024-06-07 15:02:19.459059,-6,7,22,1,-1,0,79,82,153,140,77,133.71,194,-99.00,-44.00,-976.00
2024-06-07 15:02:19.545922,-6,7,22,0,0,0,79,82,152,140,77,133.67,194,-132.00,-25.00,-996.00
2024-06-07 15:02:19.665006,-6,5,22,0,0,0,79,82,149,140,77,133.43,194,-122.00,-33.00,-994.00
2024-06-07 15:02:19.749939,-6,3,22,0,0,0,79,82,150,140,77,133.68,194,-114.00,-42.00,-996.00
2024-06-07 15:02:19.868126,-6,3,22,0,0,0,80,82,148,140,77,133.62,195,-113.00,-49.00,-1042.00
2024-06-07 15:02:19.954728,-5,3,22,0,0,0,80,82,146,140,77,133.43,195,-105.00,-20.00,-986.00
2024-06-07 15:02:20.065021,-5,4,22,0,0,0,80,82,148,140,77,133.60,195,-93.00,-44.00,-993.00
2024-06-07 15:02:20.160701,-4,3,22,0,0,0,80,82,146,140,77,133.40,195,-109.00,-50.00,-986.00
2024-06-07 15:02:20.259851,-5,2,22,0,1,0,80,82,149,140,77,133.62,195,-102.00,-43.00,-985.00
2024-06-07 15:02:20.377905,-4,0,22,0,0,0,80,82,148,140,77,133.75,195,-92.00,-30.00,-1000.00
2024-06-07 15:02:20.464467,-4,1,22,0,0,0,80,82,146,140,77,133.49,195,-116.00,-24.00,-1045.00
2024-06-07 15:02:20.586804,-4,1,22,0,0,0,80,82,148,140,77,133.67,195,-101.00,-49.00,-983.00
2024-06-07 15:02:20.667854,-5,0,22,0,0,0,80,82,147,140,77,133.66,195,-94.00,-53.00,-1015.00
2024-06-07 15:02:20.790373,-5,2,22,0,0,0,80,82,149,140,77,133.58,195,-95.00,-34.00,-998.00
2024-06-07 15:02:20.872052,-5,1,22,0,0,0,80,82,150,140,77,133.63,196,-135.00,19.00,-990.00
2024-06-07 15:02:20.993827,-6,0,22,0,1,0,80,82,151,140,77,133.39,196,-117.00,-8.00,-968.00
2024-06-07 15:02:21.075753,-8,4,22,0,1,0,80,82,150,140,77,133.52,196,-116.00,-13.00,-955.00
2024-06-07 15:02:21.197413,-7,6,22,0,2,0,80,82,152,140,77,133.61,196,-111.00,-37.00,-993.00
2024-06-07 15:02:21.279716,-5,4,22,0,3,0,80,82,150,140,77,133.96,196,-112.00,-57.00,-1001.00
2024-06-07 15:02:21.381727,-4,4,22,0,3,0,80,82,151,140,77,133.87,196,-99.00,-65.00,-994.00
2024-06-07 15:02:21.503719,-5,3,22,-1,3,0,80,82,151,140,77,133.65,196,-83.00,-84.00,-985.00
2024-06-07 15:02:21.585860,-6,2,22,-1,2,0,80,82,152,140,77,134.06,196,-93.00,-84.00,-964.00
2024-06-07 15:02:21.710822,-6,3,22,0,2,0,80,82,150,140,76,134.03,196,-124.00,-40.00,-985.00
2024-06-07 15:02:21.789708,-4,4,22,0,2,0,80,82,150,140,76,133.93,196,-128.00,-35.00,-1019.00
2024-06-07 15:02:21.913271,-6,2,22,-1,3,0,79,82,149,140,76,133.91,197,-89.00,-38.00,-988.00
2024-06-07 15:02:21.993685,-5,1,22,-1,3,0,79,82,151,140,76,133.66,197,-100.00,-31.00,-1020.00
2024-06-07 15:02:22.118295,-5,1,22,-1,3,0,79,82,152,140,76,133.76,197,-70.00,-46.00,-981.00
2024-06-07 15:02:22.197677,-4,0,22,-1,3,0,79,82,152,140,76,133.73,197,-57.00,-61.00,-971.00
2024-06-07 15:02:22.426687,-3,0,22,0,2,0,79,82,150,140,76,133.82,197,-66.00,-61.00,-1032.00
2024-06-07 15:02:22.426768,-1,1,22,-1,2,0,79,82,150,140,76,133.88,197,-87.00,-40.00,-1012.00
2024-06-07 15:02:22.503744,-3,0,22,-1,1,0,79,82,150,140,76,133.83,197,-89.00,-51.00,-1000.00
2024-06-07 15:02:22.606008,-8,-2,22,0,1,0,79,82,154,140,76,133.57,197,-49.00,-67.00,-987.00
2024-06-07 15:02:22.658343,-6,0,22,0,0,0,79,82,151,140,76,133.93,197,-56.00,-68.00,-1010.00
2024-06-07 15:02:22.759048,-4,1,22,1,0,0,79,82,152,140,76,133.83,197,-80.00,-54.00,-980.00
2024-06-07 15:02:22.937673,-3,2,22,0,0,0,79,82,152,140,76,133.74,198,-102.00,-33.00,-998.00
2024-06-07 15:02:23.014911,-3,2,22,0,0,0,79,82,152,140,76,133.76,198,-75.00,-13.00,-995.00
2024-06-07 15:02:23.118366,-4,1,22,0,0,0,79,82,152,140,76,133.76,198,-72.00,-30.00,-968.00
2024-06-07 15:02:23.220100,-4,0,22,0,0,0,79,82,151,140,76,133.91,198,-89.00,-21.00,-970.00
2024-06-07 15:02:23.268822,-4,1,22,0,0,0,79,82,153,140,76,133.52,198,-75.00,21.00,-985.00
2024-06-07 15:02:23.370970,-3,1,22,0,0,0,79,82,151,140,76,133.72,198,-83.00,-1.00,-990.00
2024-06-07 15:02:23.553615,-3,-1,22,0,0,0,79,82,151,140,76,133.59,198,-50.00,-16.00,-1013.00
2024-06-07 15:02:23.575225,-3,0,22,0,0,0,79,82,151,140,76,133.88,198,-73.00,-23.00,-995.00
2024-06-07 15:02:23.757432,-3,1,22,0,0,0,79,82,154,140,76,134.04,198,-70.00,-16.00,-971.00
2024-06-07 15:02:23.778959,-3,1,22,0,0,0,79,82,152,140,76,133.58,198,-86.00,-16.00,-996.00
2024-06-07 15:02:24.063983,-4,0,22,0,0,0,79,82,152,140,76,133.81,199,-66.00,-33.00,-996.00
2024-06-07 15:02:24.064164,-4,0,22,0,0,0,79,82,153,140,76,133.45,199,-43.00,-16.00,-993.00
2024-06-07 15:02:24.084756,-3,0,22,0,0,0,79,82,152,140,76,134.03,199,-65.00,-1.00,-991.00
2024-06-07 15:02:24.371976,-2,0,22,0,0,0,79,82,153,140,76,133.83,199,-72.00,2.00,-1009.00
2024-06-07 15:02:24.372136,-2,0,22,0,0,0,79,82,150,140,76,134.10,199,-54.00,-18.00,-978.00
2024-06-07 15:02:24.391920,-2,0,22,0,0,0,79,82,152,140,76,133.71,199,-74.00,-49.00,-984.00
2024-06-07 15:02:24.578598,-3,0,22,0,0,0,79,82,151,140,76,133.50,199,-84.00,-39.00,-1052.00
2024-06-07 15:02:24.596271,-3,2,22,0,0,0,79,82,150,140,76,133.83,199,-94.00,-25.00,-984.00
2024-06-07 15:02:24.697962,-4,2,22,0,0,0,79,82,152,140,76,133.64,199,-84.00,-41.00,-983.00
2024-06-07 15:02:24.883442,-4,1,23,0,0,0,79,82,151,140,76,133.51,199,-91.00,-30.00,-964.00
2024-06-07 15:02:24.901541,-4,0,28,0,0,0,80,81,153,140,76,133.66,200,-115.00,-19.00,-1012.00
2024-06-07 15:02:25.006063,-4,0,34,0,0,0,80,81,152,140,76,133.63,200,-99.00,-31.00,-976.00
2024-06-07 15:02:25.105554,-5,0,40,0,0,0,80,81,154,140,76,133.45,200,-107.00,-15.00,-994.00
2024-06-07 15:02:25.207524,-6,0,46,0,-1,0,80,81,153,140,76,133.33,200,-97.00,-11.00,-1001.00
2024-06-07 15:02:25.395238,-6,0,51,0,0,0,80,81,155,140,76,133.43,200,-110.00,23.00,-994.00
2024-06-07 15:02:25.411680,-6,0,57,0,0,0,80,81,154,140,76,133.76,200,-99.00,17.00,-993.00
2024-06-07 15:02:25.599843,-6,-1,62,0,0,0,80,81,155,140,76,133.48,200,-104.00,32.00,-1006.00
2024-06-07 15:02:25.615335,-6,-2,68,0,0,0,80,81,153,140,76,134.26,200,-103.00,39.00,-980.00
2024-06-07 15:02:25.805451,-6,-2,73,0,0,0,80,81,155,140,76,133.75,200,-105.00,53.00,-977.00
2024-06-07 15:02:25.819957,-6,-3,79,0,0,0,80,81,153,140,76,133.92,200,-81.00,55.00,-1008.00
2024-06-07 15:02:26.012036,-5,-3,84,0,0,0,79,82,154,140,76,133.72,201,-94.00,57.00,-1016.00
2024-06-07 15:02:26.023264,-5,-4,89,0,0,0,79,82,155,140,76,134.00,201,-88.00,60.00,-1009.00
2024-06-07 15:02:26.125431,-5,-4,95,0,0,0,79,82,155,140,76,134.06,201,-67.00,65.00,-971.00
2024-06-07 15:02:26.227445,-4,-4,100,0,0,0,79,82,155,140,76,134.05,201,-75.00,78.00,-994.00
2024-06-07 15:02:26.419438,-4,-4,105,0,0,0,79,82,154,140,76,133.89,201,-68.00,79.00,-982.00
2024-06-07 15:02:26.431639,-3,-5,110,0,0,0,79,82,154,140,76,133.67,201,-66.00,87.00,-1012.00
2024-06-07 15:02:26.623663,-3,-5,116,0,0,0,79,82,153,140,76,134.09,201,-44.00,89.00,-1019.00
2024-06-07 15:02:26.635441,-2,-5,121,0,0,0,79,82,153,140,75,133.87,201,-68.00,83.00,-984.00
2024-06-07 15:02:26.828480,-2,-5,126,0,0,0,79,82,153,140,75,134.08,201,-32.00,98.00,-976.00
2024-06-07 15:02:26.828517,-2,-5,132,0,0,0,79,82,154,140,75,134.36,201,-5.00,104.00,-994.00
2024-06-07 15:02:26.890506,-1,-5,139,0,0,0,80,82,152,140,75,133.94,202,6.00,107.00,-991.00
2024-06-07 15:02:26.992928,0,-5,145,0,0,0,80,82,153,140,75,134.13,202,7.00,100.00,-992.00
2024-06-07 15:02:27.135644,1,-5,151,0,0,0,80,82,154,140,75,134.15,202,9.00,95.00,-1005.00
2024-06-07 15:02:27.196869,1,-5,157,0,0,0,80,82,152,140,75,134.04,202,35.00,101.00,-1020.00
2024-06-07 15:02:27.342475,1,-5,163,0,0,0,80,82,151,140,75,133.90,202,50.00,96.00,-1010.00
2024-06-07 15:02:27.400527,2,-4,170,0,0,0,80,82,153,140,75,134.09,202,80.00,56.00,-972.00
2024-06-07 15:02:27.546623,3,-3,176,0,0,0,80,82,153,140,75,134.12,202,77.00,63.00,-997.00
2024-06-07 15:02:27.604561,4,-2,-176,0,0,0,80,82,153,140,75,133.93,202,83.00,62.00,-979.00
2024-06-07 15:02:27.750049,5,-1,-170,0,0,0,80,82,151,140,75,134.18,202,86.00,71.00,-993.00
2024-06-07 15:02:27.808498,5,-1,-164,0,0,0,80,82,154,140,75,134.21,202,98.00,62.00,-1014.00
2024-06-07 15:02:27.955235,5,-1,-157,0,0,0,79,81,152,140,75,133.84,203,99.00,37.00,-993.00
2024-06-07 15:02:28.012550,6,-1,-151,0,0,0,79,81,152,140,75,134.04,203,103.00,33.00,-994.00
2024-06-07 15:02:28.160978,6,0,-145,0,0,0,79,81,153,140,75,133.97,203,102.00,21.00,-969.00
2024-06-07 15:02:28.216689,6,0,-138,0,0,0,79,81,151,140,75,134.15,203,117.00,27.00,-978.00
2024-06-07 15:02:28.365799,6,0,-132,0,0,0,79,81,153,140,75,133.96,203,113.00,13.00,-993.00
2024-06-07 15:02:28.420383,7,1,-126,0,0,0,79,81,153,140,75,133.83,203,115.00,-1.00,-993.00
2024-06-07 15:02:28.571658,7,1,-120,0,0,0,79,81,155,140,75,133.97,203,131.00,-39.00,-988.00
2024-06-07 15:02:28.624348,7,2,-114,0,0,0,79,81,156,140,75,134.19,203,128.00,-31.00,-1000.00
2024-06-07 15:02:28.774067,6,3,-109,0,0,0,79,81,154,140,75,134.04,203,107.00,-33.00,-983.00
2024-06-07 15:02:28.828491,6,3,-103,0,0,0,79,81,155,140,75,133.78,203,108.00,-43.00,-1007.00
2024-06-07 15:02:28.931429,6,3,-97,0,0,0,79,82,155,140,75,134.20,204,88.00,-77.00,-955.00
2024-06-07 15:02:29.072464,6,5,-91,0,0,0,79,82,153,140,75,133.86,204,120.00,-55.00,-991.00
2024-06-07 15:02:29.134366,5,6,-86,0,0,0,79,82,156,140,75,134.02,204,98.00,-52.00,-988.00
2024-06-07 15:02:29.236393,5,5,-80,0,0,0,79,82,155,140,75,133.95,204,67.00,-62.00,-1030.00
2024-06-07 15:02:29.400579,4,5,-74,0,0,0,79,82,152,140,75,134.12,204,74.00,-77.00,-1019.00
2024-06-07 15:02:29.440385,4,5,-68,0,0,0,79,82,154,140,75,134.15,204,63.00,-88.00,-987.00
2024-06-07 15:02:29.593190,3,5,-63,0,0,0,79,82,154,140,75,134.05,204,37.00,-91.00,-984.00
2024-06-07 15:02:29.644361,2,5,-57,0,0,0,79,82,155,140,75,134.24,204,10.00,-90.00,-965.00
2024-06-07 15:02:29.746350,1,6,-51,0,0,0,79,82,152,140,75,134.03,204,39.00,-101.00,-997.00
2024-06-07 15:02:29.848317,0,5,-46,0,0,0,79,82,153,140,75,134.15,204,38.00,-111.00,-994.00
2024-06-07 15:02:30.002811,0,5,-41,0,0,0,79,82,154,140,75,133.92,205,25.00,-91.00,-1025.00
2024-06-07 15:02:30.052327,0,5,-35,0,0,0,79,82,154,140,75,134.00,205,-4.00,-111.00,-981.00
2024-06-07 15:02:30.154459,0,5,-29,0,0,0,79,82,154,140,75,133.85,205,-11.00,-98.00,-988.00
2024-06-07 15:02:30.256379,0,5,-23,0,0,0,79,82,154,140,75,134.23,205,-34.00,-106.00,-976.00
2024-06-07 15:02:30.307259,-1,5,-17,0,0,0,79,82,152,140,75,133.93,205,-30.00,-87.00,-1022.00
2024-06-07 15:02:30.416766,-2,5,-10,0,0,0,79,82,153,140,75,133.83,205,-39.00,-83.00,-1008.00
2024-06-07 15:02:30.511234,-2,5,-4,0,0,0,79,82,153,140,75,133.94,205,-78.00,-83.00,-966.00
2024-06-07 15:02:30.617227,-3,5,1,0,0,0,79,82,152,140,74,133.69,205,-76.00,-66.00,-990.00
2024-06-07 15:02:30.715188,-3,4,6,0,0,0,79,82,153,140,74,133.93,205,-92.00,-65.00,-994.00
2024-06-07 15:02:30.823744,-4,3,11,0,0,0,79,82,154,140,74,133.66,205,-109.00,-80.00,-975.00
2024-06-07 15:02:30.919369,-4,4,14,0,0,0,79,82,153,140,74,134.18,206,-77.00,-82.00,-1007.00
2024-06-07 15:02:31.021141,-5,4,16,0,0,0,79,82,154,140,74,133.62,206,-111.00,-82.00,-958.00
2024-06-07 15:02:31.129196,-6,4,18,0,0,0,79,82,155,140,74,133.88,206,-113.00,-73.00,-987.00
2024-06-07 15:02:31.225423,-7,3,19,0,0,0,79,82,153,140,74,133.93,206,-104.00,-74.00,-955.00
2024-06-07 15:02:31.327468,-7,4,20,0,0,0,79,82,153,140,74,133.50,206,-132.00,-77.00,-990.00
2024-06-07 15:02:31.439009,-7,3,21,0,0,0,79,82,153,140,74,133.75,206,-118.00,-71.00,-993.00
2024-06-07 15:02:31.531946,-7,3,21,0,0,0,79,82,153,140,74,133.77,206,-110.00,-68.00,-986.00
2024-06-07 15:02:31.635586,-6,4,21,0,0,0,79,82,153,140,74,133.81,206,-112.00,-57.00,-991.00
2024-06-07 15:02:31.736852,-6,4,21,0,0,0,79,82,154,140,74,133.77,206,-120.00,-52.00,-980.00
2024-06-07 15:02:31.837531,-6,3,21,0,0,0,79,82,154,140,74,134.02,206,-115.00,-49.00,-1001.00
2024-06-07 15:02:31.950036,-7,3,21,0,0,0,80,82,153,140,74,133.87,207,-102.00,-66.00,-959.00
2024-06-07 15:02:32.041509,-6,2,21,0,0,0,80,82,154,140,74,133.83,207,-114.00,-62.00,-1029.00
2024-06-07 15:02:32.146724,-6,3,21,0,0,0,80,82,153,140,74,133.48,207,-134.00,-54.00,-1003.00
2024-06-07 15:02:32.246998,-7,3,21,0,0,0,80,82,154,140,74,134.03,207,-119.00,-73.00,-949.00
2024-06-07 15:02:32.358126,-7,2,21,0,0,0,80,82,155,140,74,133.67,207,-112.00,-86.00,-977.00
2024-06-07 15:02:32.449193,-7,3,21,0,0,0,80,82,154,140,74,133.81,207,-110.00,-92.00,-1006.00
2024-06-07 15:02:32.566600,-6,4,21,0,0,0,80,82,153,140,74,133.73,207,-103.00,-67.00,-1032.00
2024-06-07 15:02:32.653092,-6,5,21,0,0,0,80,82,153,140,74,133.87,207,-119.00,-78.00,-968.00
2024-06-07 15:02:32.755149,-6,5,21,0,0,0,80,82,152,140,74,133.86,207,-107.00,-84.00,-990.00
2024-06-07 15:02:32.870249,-6,4,21,0,0,0,80,82,154,140,74,133.62,208,-109.00,-71.00,-990.00
2024-06-07 15:02:32.959283,-6,4,21,0,0,0,79,82,154,140,74,133.81,208,-117.00,-84.00,-972.00
2024-06-07 15:02:33.061228,-6,4,21,0,0,0,79,82,154,140,74,133.73,208,-118.00,-74.00,-997.00
2024-06-07 15:02:33.163208,-6,5,21,0,0,0,79,82,154,140,74,133.66,208,-99.00,-78.00,-990.00
2024-06-07 15:02:33.265870,-6,4,21,0,0,0,79,82,154,140,74,133.62,208,-98.00,-75.00,-994.00
2024-06-07 15:02:33.367016,-5,4,21,0,0,0,79,82,154,140,74,133.78,208,-104.00,-67.00,-999.00
2024-06-07 15:02:33.487160,-4,4,16,0,0,0,79,82,153,140,74,133.62,208,-89.00,-85.00,-1031.00
2024-06-07 15:02:33.571246,-4,5,10,0,0,0,79,82,154,140,74,133.62,208,-74.00,-93.00,-1006.00
2024-06-07 15:02:33.690681,-4,6,5,0,0,0,79,82,153,140,74,133.83,208,-65.00,-104.00,-989.00
2024-06-07 15:02:33.774982,-3,6,0,0,0,0,79,82,154,140,74,133.71,208,-54.00,-110.00,-1005.00
2024-06-07 15:02:33.826200,-2,6,-5,0,0,0,79,82,153,140,74,133.83,209,-64.00,-109.00,-984.00
2024-06-07 15:02:33.997456,-1,6,-11,0,0,0,79,82,154,140,74,133.93,209,-47.00,-111.00,-986.00
2024-06-07 15:02:34.030154,0,6,-17,0,0,0,79,82,153,140,74,133.82,209,-29.00,-125.00,-981.00
2024-06-07 15:02:34.205134,0,7,-23,0,0,0,79,82,154,140,74,133.99,209,-5.00,-138.00,-992.00
2024-06-07 15:02:34.236097,1,7,-29,0,0,0,79,82,153,140,74,134.19,209,0.00,-137.00,-992.00
2024-06-07 15:02:34.337265,1,7,-34,0,0,0,79,82,154,140,74,133.98,209,3.00,-129.00,-1012.00
2024-06-07 15:02:34.508423,1,7,-41,0,0,0,79,82,153,140,74,133.98,209,38.00,-118.00,-982.00
2024-06-07 15:02:34.540235,2,7,-47,0,0,0,79,82,151,140,74,133.98,209,49.00,-103.00,-977.00
2024-06-07 15:02:34.716566,3,5,-53,0,0,0,79,82,152,140,74,134.28,209,84.00,-110.00,-1013.00
2024-06-07 15:02:34.744018,4,5,-59,0,0,0,79,82,151,140,74,133.98,209,66.00,-106.00,-1005.00
2024-06-07 15:02:34.918155,5,4,-66,0,0,0,79,82,153,140,74,134.22,210,81.00,-100.00,-1020.00
2024-06-07 15:02:34.948377,5,4,-72,0,0,0,80,81,152,140,74,133.96,210,99.00,-82.00,-990.00
2024-06-07 15:02:35.078026,6,4,-78,0,0,0,80,81,152,140,74,133.94,210,96.00,-79.00,-1012.00
2024-06-07 15:02:35.152034,7,3,-84,0,0,0,80,81,152,140,74,134.08,210,96.00,-85.00,-976.00
2024-06-07 15:02:35.254009,7,3,-91,0,0,0,80,81,154,140,74,134.21,210,96.00,-62.00,-963.00
2024-06-07 15:02:35.433533,7,2,-97,0,0,0,80,81,154,140,74,133.91,210,124.00,-64.00,-1010.00
2024-06-07 15:02:35.459440,7,2,-104,0,0,0,80,81,155,140,74,133.84,210,106.00,-30.00,-973.00
2024-06-07 15:02:35.637327,6,2,-110,0,0,0,80,81,154,140,74,133.93,210,130.00,-13.00,-962.00
2024-06-07 15:02:35.662050,7,1,-116,0,0,0,80,81,155,140,73,133.52,210,136.00,3.00,-999.00
2024-06-07 15:02:35.839491,6,-1,-122,0,0,0,80,81,155,140,73,133.77,210,115.00,18.00,-1008.00
2024-06-07 15:02:35.866040,6,-1,-128,0,0,0,80,81,154,140,73,133.77,211,123.00,29.00,-1003.00
2024-06-07 15:02:36.044379,6,-1,-134,0,0,0,79,82,155,140,73,133.73,211,121.00,20.00,-971.00
2024-06-07 15:02:36.070017,6,-2,-140,0,0,0,79,82,152,140,73,134.12,211,110.00,46.00,-996.00
2024-06-07 15:02:36.249171,6,-2,-146,0,0,0,79,82,152,140,73,134.04,211,102.00,53.00,-978.00
2024-06-07 15:02:36.274081,5,-3,-152,0,0,0,79,82,153,140,73,133.91,211,107.00,58.00,-971.00
2024-06-07 15:02:36.375962,5,-3,-158,0,0,0,79,82,152,140,73,133.97,211,103.00,70.00,-999.00
2024-06-07 15:02:36.556829,4,-4,-164,0,0,0,79,82,153,140,73,133.71,211,104.00,85.00,-1001.00
2024-06-07 15:02:36.579896,5,-5,-170,0,0,0,79,82,152,140,73,133.96,211,78.00,103.00,-990.00
2024-06-07 15:02:36.761179,4,-5,-175,0,0,0,79,82,154,140,73,134.09,211,95.00,93.00,-985.00
2024-06-07 15:02:36.784709,4,-6,178,0,0,0,79,82,153,140,73,134.05,211,70.00,104.00,-992.00
2024-06-07 15:02:36.966001,3,-6,172,0,0,0,79,82,153,140,73,133.61,212,62.00,113.00,-1000.00
2024-06-07 15:02:36.987892,3,-6,166,0,0,0,80,82,152,140,73,134.15,212,47.00,113.00,-992.00
2024-06-07 15:02:37.172521,2,-6,160,0,0,0,80,82,152,140,73,134.15,212,24.00,117.00,-978.00
2024-06-07 15:02:37.192021,1,-6,154,0,0,0,80,82,152,140,73,134.05,212,21.00,105.00,-992.00
2024-06-07 15:02:37.294331,0,-6,148,0,0,0,80,82,151,140,73,133.89,212,-3.00,120.00,-1013.00
2024-06-07 15:02:37.477953,0,-6,142,0,0,0,80,82,152,140,73,134.04,212,-17.00,119.00,-1010.00
2024-06-07 15:02:37.498604,0,-6,136,0,0,0,80,82,150,140,73,133.81,212,-23.00,100.00,-986.00
2024-06-07 15:02:37.548773,-1,-5,130,0,0,0,80,82,150,140,73,133.94,212,-33.00,87.00,-1013.00
2024-06-07 15:02:37.682744,-2,-5,123,0,0,0,80,82,152,140,73,133.68,212,-47.00,90.00,-997.00
2024-06-07 15:02:37.752744,-2,-4,117,0,0,0,80,82,150,140,73,133.58,212,-57.00,94.00,-982.00
2024-06-07 15:02:37.887423,-3,-4,110,0,0,0,80,82,151,140,73,133.91,213,-55.00,76.00,-999.00
2024-06-07 15:02:37.956728,-3,-3,104,0,0,0,79,81,151,140,73,133.70,213,-68.00,71.00,-992.00
2024-06-07 15:02:38.081083,-4,-3,97,0,0,0,79,81,152,140,73,133.64,213,-82.00,63.00,-991.00
2024-06-07 15:02:38.165825,-4,-2,91,0,0,0,79,81,152,140,73,133.65,213,-70.00,58.00,-989.00
2024-06-07 15:02:38.262747,-4,-2,85,0,0,0,79,81,153,140,73,133.56,213,-78.00,46.00,-1001.00
2024-06-07 15:02:38.403224,-4,-1,79,0,0,0,79,81,153,140,73,133.91,213,-90.00,49.00,-1008.00
2024-06-07 15:02:38.466729,-4,-1,73,0,0,0,79,81,153,140,73,133.55,213,-87.00,13.00,-988.00
2024-06-07 15:02:38.606587,-4,0,66,0,0,0,79,81,150,140,73,133.63,213,-93.00,11.00,-999.00
2024-06-07 15:02:38.670877,-3,0,60,0,0,0,79,81,151,140,73,133.40,213,-92.00,9.00,-977.00
2024-06-07 15:02:38.813084,-4,0,54,0,0,0,79,81,155,140,73,133.55,213,-107.00,-3.00,-961.00
2024-06-07 15:02:38.875412,-4,0,48,0,0,0,79,81,154,140,73,133.32,214,-79.00,-8.00,-984.00
2024-06-07 15:02:39.015514,-5,1,42,0,0,0,80,81,155,140,73,133.54,214,-118.00,-17.00,-1007.00
2024-06-07 15:02:39.079878,-5,1,38,0,0,0,80,81,154,140,73,133.66,214,-75.00,-49.00,-975.00
2024-06-07 15:02:39.218742,-4,1,34,0,0,0,80,81,156,140,73,133.59,214,-81.00,-48.00,-994.00
2024-06-07 15:02:39.283763,-4,2,31,0,0,0,80,81,153,140,73,133.74,214,-48.00,-60.00,-985.00
2024-06-07 15:02:39.385855,-3,3,29,0,0,0,80,81,154,140,73,133.53,214,-76.00,-42.00,-991.00
2024-06-07 15:02:39.526899,-3,3,28,0,0,0,80,81,153,140,73,134.04,214,-51.00,-55.00,-997.00
2024-06-07 15:02:39.590488,-3,3,27,0,0,0,80,81,153,140,73,133.80,214,-92.00,-37.00,-1007.00
2024-06-07 15:02:39.730854,-2,3,26,0,0,0,80,81,152,140,73,133.68,214,-131.00,-40.00,-1033.00
2024-06-07 15:02:39.794959,-3,2,25,0,0,0,80,81,154,140,73,133.62,214,-122.00,-57.00,-979.00
2024-06-07 15:02:39.937464,-5,2,24,-1,0,0,80,81,153,140,73,133.92,215,-89.00,-51.00,-991.00
2024-06-07 15:02:39.997813,-6,3,23,0,0,0,79,82,154,140,73,133.86,215,-104.00,-57.00,-961.00
2024-06-07 15:02:40.140889,-6,3,23,0,0,0,79,82,155,140,73,133.91,215,-96.00,-73.00,-1003.00
2024-06-07 15:02:40.201977,-6,2,22,0,0,0,79,82,154,140,73,134.13,215,-107.00,-43.00,-962.00
2024-06-07 15:02:40.303896,-5,3,23,0,0,0,79,82,155,140,73,133.90,215,-108.00,-61.00,-994.00
2024-06-07 15:02:40.447943,-5,3,22,0,0,0,79,82,154,140,73,133.70,215,-110.00,-71.00,-985.00
2024-06-07 15:02:40.507909,-5,4,22,0,0,0,79,82,157,140,73,133.91,215,-106.00,-55.00,-1006.00
2024-06-07 15:02:40.654753,-6,4,22,0,0,0,79,82,156,140,72,133.86,215,-128.00,-47.00,-988.00
2024-06-07 15:02:40.711740,-6,4,22,0,0,0,79,82,154,140,72,133.76,215,-107.00,-60.00,-1015.00
2024-06-07 15:02:40.857291,-6,3,22,0,0,0,79,82,155,140,72,133.93,215,-108.00,-45.00,-1026.00
2024-06-07 15:02:40.915781,-6,3,22,0,0,0,79,82,155,140,72,133.81,216,-109.00,-55.00,-1000.00
2024-06-07 15:02:41.017798,-6,3,23,0,0,0,80,82,156,140,72,133.49,216,-78.00,-70.00,-984.00
2024-06-07 15:02:41.119722,-6,3,22,0,0,0,80,82,156,140,72,133.92,216,-106.00,-61.00,-989.00
2024-06-07 15:02:41.266750,-5,3,22,0,0,0,80,82,155,140,72,133.82,216,-100.00,-54.00,-985.00
2024-06-07 15:02:41.323776,-6,3,22,0,0,0,80,82,156,140,72,133.72,216,-93.00,-66.00,-991.00
2024-06-07 15:02:41.375332,-6,3,22,0,0,0,80,82,157,140,72,133.58,216,-91.00,-61.00,-979.00
2024-06-07 15:02:41.476763,-6,3,22,0,0,0,80,82,156,140,72,133.76,216,-89.00,-78.00,-999.00
2024-06-07 15:02:41.578646,-5,3,22,0,0,0,80,82,155,140,72,134.13,216,-86.00,-79.00,-1001.00
2024-06-07 15:02:41.681021,-5,3,22,0,0,0,80,82,154,140,72,134.00,216,-88.00,-69.00,-1016.00
2024-06-07 15:02:41.782681,-5,4,22,0,0,0,80,82,158,140,72,133.98,216,-101.00,-52.00,-995.00
2024-06-07 15:02:41.983912,-5,4,22,0,0,0,80,82,154,140,72,134.08,217,-91.00,-58.00,-973.00
2024-06-07 15:02:41.986990,-5,3,23,0,0,0,80,82,157,140,72,133.83,217,-82.00,-54.00,-997.00
2024-06-07 15:02:42.088646,-5,3,23,0,0,0,80,82,154,140,72,133.86,217,-70.00,-46.00,-998.00
2024-06-07 15:02:42.190813,-5,3,22,0,0,0,80,82,154,140,72,134.11,217,-98.00,-42.00,-1004.00
2024-06-07 15:02:42.292635,-3,1,23,0,0,0,80,82,154,140,72,134.05,217,-126.00,-82.00,-1634.00
2024-06-07 15:02:42.394903,0,-3,23,0,0,-4,80,82,158,140,72,133.78,217,-106.00,-45.00,-1680.00
2024-06-07 15:02:42.598245,0,-22,23,0,-3,-11,80,82,194,150,72,134.15,217,-94.00,435.00,-1165.00
2024-06-07 15:02:42.598746,0,-125,23,3,-11,-9,80,82,6553,160,72,134.09,217,-41.00,606.00,-1020.00
2024-06-07 15:02:42.701308,-3,112,22,3,-14,6,80,82,6553,170,72,133.97,217,-26.00,500.00,-1328.00
2024-06-07 15:02:42.808187,-1,12,30,0,-7,12,80,82,171,160,72,134.07,217,-163.00,-132.00,-1611.00
2024-06-07 15:02:42.907822,0,1,31,-1,-7,8,80,82,157,140,72,134.28,218,-93.00,1.00,-1392.00
2024-06-07 15:02:43.007464,-4,3,28,-2,-7,5,79,82,153,140,72,134.08,218,-44.00,-29.00,-1217.00
2024-06-07 15:02:43.109851,-6,3,23,-2,-6,3,79,82,149,130,72,133.87,218,-32.00,-6.00,-1185.00
2024-06-07 15:02:43.212788,-5,2,22,-2,-6,1,79,82,148,130,72,133.91,218,-45.00,-35.00,-1105.00
2024-06-07 15:02:43.314746,-4,2,22,-1,-4,0,79,82,146,130,72,134.15,218,-40.00,-20.00,-1077.00
2024-06-07 15:02:43.414415,-3,1,22,-1,-4,0,79,82,147,130,72,134.07,218,-41.00,-20.00,-1081.00
2024-06-07 15:02:43.516434,-3,1,22,-1,-3,0,79,82,149,130,72,134.00,218,-53.00,-17.00,-1010.00
2024-06-07 15:02:43.623393,-3,2,22,-1,-3,-1,79,82,150,130,72,133.69,218,-58.00,-14.00,-986.00
2024-06-07 15:02:43.720351,-3,2,22,-1,-3,-1,79,82,153,130,72,134.12,218,-43.00,-21.00,-978.00
2024-06-07 15:02:43.837451,-3,2,22,-1,-3,0,79,82,154,130,72,133.98,218,-52.00,-20.00,-981.00
2024-06-07 15:02:43.924402,-3,1,22,-1,-2,0,79,82,156,130,72,133.87,219,-43.00,-18.00,-988.00
2024-06-07 15:02:44.031377,-3,2,22,0,-2,0,79,82,154,130,72,134.10,219,-39.00,-13.00,-985.00
2024-06-07 15:02:44.130024,-3,2,22,0,-2,0,79,82,155,130,72,134.34,219,-38.00,-31.00,-973.00
2024-06-07 15:02:44.230900,-3,2,22,0,-2,0,79,82,156,140,72,134.23,219,-60.00,-13.00,-984.00
2024-06-07 15:02:44.332486,-3,2,22,0,-2,0,79,82,155,140,72,133.96,219,-62.00,-11.00,-1002.00
2024-06-07 15:02:44.442922,-3,2,23,0,-2,0,79,82,155,140,72,134.17,219,-65.00,-16.00,-985.00
2024-06-07 15:02:44.538402,-3,3,23,0,-1,0,79,82,157,140,72,133.92,219,-58.00,-6.00,-980.00
2024-06-07 15:02:44.638365,-4,4,22,0,-1,0,79,82,157,130,71,134.12,219,-59.00,-14.00,-1004.00
2024-06-07 15:02:44.748575,-4,3,22,0,0,0,79,82,155,130,71,134.08,219,-77.00,-1.00,-1006.00
2024-06-07 15:02:44.791432,-4,2,22,0,0,0,79,82,154,130,71,134.23,219,-61.00,-16.00,-1003.00
2024-06-07 15:02:44.953134,-3,1,22,0,0,0,79,82,154,130,71,133.77,220,-59.00,-34.00,-990.00
2024-06-07 15:02:45.046727,-3,1,22,0,0,0,79,81,155,130,71,134.08,220,-51.00,-33.00,-1005.00
2024-06-07 15:02:45.157868,-3,2,23,0,0,0,79,81,154,130,71,134.00,220,-73.00,-32.00,-995.00
2024-06-07 15:02:45.252039,-2,2,23,0,0,0,79,81,154,130,71,133.85,220,-56.00,-23.00,-1011.00
2024-06-07 15:02:45.301544,-2,2,23,0,0,0,79,81,155,130,71,134.08,220,-44.00,-34.00,-1011.00
2024-06-07 15:02:45.466594,-2,2,23,0,0,0,79,81,152,130,71,133.97,220,-35.00,-34.00,-1016.00
2024-06-07 15:02:45.505471,-2,2,23,0,0,0,79,81,153,130,71,133.88,220,-58.00,-27.00,-985.00
2024-06-07 15:02:45.670562,-2,2,23,0,0,0,79,81,154,130,71,134.11,220,-56.00,-29.00,-1009.00
2024-06-07 15:02:45.709445,-2,1,23,0,0,0,79,81,156,130,71,133.95,220,-68.00,-34.00,-981.00
2024-06-07 15:02:45.811525,-2,2,23,0,0,0,79,81,154,130,71,133.90,220,-62.00,-32.00,-1002.00
2024-06-07 15:02:45.977433,-2,1,23,0,0,0,79,81,154,130,71,133.83,221,-61.00,-35.00,-1001.00
2024-06-07 15:02:46.015952,-2,2,23,0,0,0,80,83,153,130,71,133.97,221,-55.00,-36.00,-1011.00
2024-06-07 15:02:46.185938,-2,2,23,0,0,0,80,83,154,130,71,134.03,221,-60.00,-45.00,-986.00
2024-06-07 15:02:46.219465,-2,2,23,0,0,0,80,83,155,130,71,133.83,221,-48.00,-49.00,-1006.00
2024-06-07 15:02:46.321965,-2,2,23,0,0,0,80,83,155,130,71,134.22,221,-46.00,-53.00,-1003.00
2024-06-07 15:02:46.492950,-2,3,23,0,0,0,80,83,155,130,71,133.93,221,-45.00,-53.00,-983.00
2024-06-07 15:02:46.525465,-2,3,22,0,0,0,80,83,156,130,71,133.92,221,-48.00,-52.00,-974.00
2024-06-07 15:02:46.694971,-2,2,22,0,0,0,80,83,154,130,71,133.93,221,-54.00,-55.00,-976.00
2024-06-07 15:02:46.731241,-2,2,22,0,0,0,80,83,153,130,71,133.73,221,-51.00,-49.00,-1002.00
2024-06-07 15:02:46.831708,-2,2,23,0,0,0,80,83,154,130,71,133.81,221,-53.00,-50.00,-995.00
2024-06-07 15:02:47.003145,-2,3,23,0,0,0,80,83,154,130,71,134.05,222,-55.00,-52.00,-1000.00
2024-06-07 15:02:47.035542,-2,2,23,0,0,0,79,82,154,130,71,133.70,222,-34.00,-53.00,-993.00
2024-06-07 15:02:47.137951,-2,3,23,0,0,0,79,82,154,130,71,134.06,222,-38.00,-52.00,-985.00
2024-06-07 15:02:47.309948,-2,2,23,0,0,0,79,82,154,130,71,133.71,222,-57.00,-40.00,-1013.00
2024-06-07 15:02:47.341439,-2,2,23,0,0,0,79,82,155,130,71,133.68,222,-60.00,-34.00,-992.00
2024-06-07 15:02:47.515095,-3,2,23,0,0,0,79,82,156,130,71,134.07,222,-73.00,-36.00,-992.00
2024-06-07 15:02:47.545366,-3,1,23,0,0,0,79,82,154,130,71,133.96,222,-81.00,-16.00,-978.00
2024-06-07 15:02:47.664163,-3,1,23,0,0,0,79,82,153,130,71,134.29,222,-70.00,-37.00,-983.00
2024-06-07 15:02:47.749493,-3,2,23,0,0,0,79,82,154,130,71,133.98,222,-65.00,-60.00,-987.00
2024-06-07 15:02:47.928337,-3,2,22,0,0,0,79,82,152,130,71,134.07,222,-64.00,-48.00,-968.00
2024-06-07 15:02:47.953346,-3,2,22,0,0,0,79,82,153,130,71,133.60,223,-49.00,-44.00,-1005.00
2024-06-07 15:02:48.130908,-2,2,23,0,0,0,80,82,153,130,71,134.11,223,-61.00,-58.00,-1000.00
2024-06-07 15:02:48.157869,-3,2,22,0,0,0,80,82,153,130,71,133.98,223,-51.00,-46.00,-1019.00
2024-06-07 15:02:48.334567,-3,2,22,0,0,0,80,82,151,130,71,133.89,223,-40.00,-60.00,-1013.00
2024-06-07 15:02:48.361601,-3,3,22,0,0,0,80,82,152,130,71,134.00,223,-42.00,-61.00,-1002.00
2024-06-07 15:02:48.538579,-2,3,22,0,0,0,80,82,152,130,71,133.98,223,-43.00,-61.00,-1001.00
2024-06-07 15:02:48.565628,-2,3,22,0,0,0,80,82,150,130,71,133.96,223,-69.00,-59.00,-1013.00
2024-06-07 15:02:48.743959,-2,3,23,0,0,0,80,82,150,130,70,133.87,223,-79.00,-39.00,-1005.00
2024-06-07 15:02:48.744106,-3,3,23,0,0,0,80,82,152,130,70,134.13,223,-62.00,-48.00,-998.00
2024-06-07 15:02:48.820088,-2,2,22,0,0,0,80,82,153,130,70,133.98,224,-48.00,-71.00,-1042.00
2024-06-07 15:02:48.946644,0,3,22,0,0,-4,80,82,153,130,70,133.91,224,-89.00,-70.00,-1718.00
2024-06-07 15:02:49.024182,0,13,22,-1,0,-11,78,82,162,140,70,134.20,224,-84.00,-165.00,-1716.00
2024-06-07 15:02:49.156956,1,100,22,-4,5,-11,78,82,277,150,70,134.54,224,-86.00,567.00,-1173.00
2024-06-07 15:02:49.228404,0,-131,23,-6,7,3,78,82,6553,160,70,134.05,224,-86.00,796.00,-941.00
2024-06-07 15:02:49.331512,-1,-20,16,-3,0,11,78,82,297,150,70,133.77,224,-125.00,556.00,-1109.00
2024-06-07 15:02:49.435114,2,0,7,-4,0,8,78,82,165,140,70,134.43,224,-127.00,12.00,-1320.00
2024-06-07 15:02:49.535459,-3,-2,-5,-5,-1,4,78,82,157,130,70,134.35,224,18.00,-120.00,-1305.00
2024-06-07 15:02:49.636210,-5,2,-13,-4,-2,2,78,82,153,130,70,133.97,224,2.00,-89.00,-1166.00
2024-06-07 15:02:49.738729,-3,4,-12,-4,-2,0,78,82,149,130,70,133.85,224,17.00,-108.00,-1086.00
2024-06-07 15:02:49.868408,-4,5,-1,-3,-2,0,78,82,148,130,70,134.02,225,-25.00,-66.00,-1060.00
2024-06-07 15:02:49.942038,-4,4,10,-3,-1,0,78,82,149,130,70,133.91,225,-48.00,-61.00,-1055.00
2024-06-07 15:02:50.079045,-4,2,21,-2,-2,0,79,82,149,130,70,133.96,225,-92.00,-5.00,-1078.00
2024-06-07 15:02:50.146084,-4,2,24,-2,-2,-1,79,82,151,130,70,134.10,225,-74.00,-50.00,-999.00
2024-06-07 15:02:50.278416,-5,3,24,-2,-2,-1,79,82,151,130,70,134.20,225,-65.00,-47.00,-941.00
2024-06-07 15:02:50.349942,-5,3,23,-2,-2,0,79,82,153,130,70,134.19,225,-51.00,-52.00,-967.00
2024-06-07 15:02:50.484904,-5,3,23,-2,-1,0,79,82,151,130,70,134.09,225,-91.00,-37.00,-970.00
2024-06-07 15:02:50.554021,-5,3,23,-2,-1,0,79,82,152,130,70,134.04,225,-92.00,-39.00,-971.00
2024-06-07 15:02:50.655995,-5,2,23,-2,-1,0,79,82,152,130,70,134.01,225,-71.00,-61.00,-966.00
2024-06-07 15:02:50.795356,-5,2,23,-1,-1,0,79,82,150,130,70,134.34,225,-79.00,-59.00,-1007.00
2024-06-07 15:02:50.859977,-5,2,23,-1,-1,0,79,82,151,130,70,134.10,226,-79.00,-54.00,-998.00
2024-06-07 15:02:50.996279,-4,3,23,-1,-1,0,79,82,151,130,70,134.07,226,-76.00,-69.00,-1001.00
2024-06-07 15:02:51.064009,-6,3,23,-1,-1,0,80,82,152,130,70,133.92,226,-81.00,-53.00,-1016.00
2024-06-07 15:02:51.201128,-5,3,23,0,-1,0,80,82,152,120,70,133.98,226,-63.00,-68.00,-1009.00
2024-06-07 15:02:51.271033,-5,3,23,0,-1,0,80,82,153,120,70,133.62,226,-55.00,-65.00,-999.00
2024-06-07 15:02:51.370395,-4,3,23,0,0,0,80,82,152,120,70,134.52,226,-69.00,-66.00,-993.00
2024-06-07 15:02:51.506957,-4,3,23,0,0,0,80,82,152,130,70,133.92,226,-79.00,-51.00,-1011.00
2024-06-07 15:02:51.574264,-4,3,23,0,0,0,80,82,152,120,70,133.80,226,-49.00,-69.00,-1008.00
2024-06-07 15:02:51.714938,-4,3,23,0,0,0,80,82,153,130,69,133.59,226,-38.00,-67.00,-994.00
2024-06-07 15:02:51.778022,-3,3,23,0,0,0,80,82,152,130,69,133.90,226,-63.00,-56.00,-996.00
2024-06-07 15:02:51.919219,-3,3,23,0,0,0,80,82,152,130,69,133.94,227,-47.00,-75.00,-976.00
2024-06-07 15:02:51.981942,-2,3,23,0,0,0,80,82,153,130,69,133.96,227,-52.00,-70.00,-991.00
2024-06-07 15:02:52.121372,-2,3,23,0,0,0,80,82,152,130,69,134.08,227,-69.00,-66.00,-1004.00
2024-06-07 15:02:52.186590,-2,4,23,0,0,0,80,82,151,130,69,134.10,227,-70.00,-50.00,-1008.00
2024-06-07 15:02:52.330006,-2,3,23,0,0,0,80,82,153,130,69,133.99,227,-71.00,-49.00,-982.00
2024-06-07 15:02:52.390554,-2,2,23,0,0,0,80,82,153,130,69,134.10,227,-79.00,-51.00,-992.00
2024-06-07 15:02:52.535373,-2,2,23,0,0,0,80,82,154,130,69,134.00,227,-65.00,-54.00,-974.00
2024-06-07 15:02:52.543217,-2,1,23,0,0,0,80,82,153,130,69,134.04,227,-48.00,-64.00,-988.00
2024-06-07 15:02:52.739664,-2,2,23,0,0,0,80,82,154,130,69,133.96,227,-70.00,-46.00,-995.00
2024-06-07 15:02:52.749303,-2,2,23,0,0,0,80,82,155,130,69,134.05,227,-70.00,-59.00,-1005.00
2024-06-07 15:02:52.849151,-2,3,23,0,0,0,80,82,153,130,69,133.87,228,-62.00,-52.00,-1000.00
2024-06-07 15:02:53.045052,-2,3,23,0,0,0,80,82,153,130,69,134.38,228,-60.00,-41.00,-997.00
2024-06-07 15:02:53.052992,-2,2,23,0,0,0,80,82,153,130,69,134.24,228,-63.00,-54.00,-981.00
2024-06-07 15:02:53.155060,-3,2,23,0,0,0,80,82,153,130,69,134.07,228,-56.00,-62.00,-982.00
2024-06-07 15:02:53.349897,-3,2,23,0,0,0,80,82,153,130,69,134.06,228,-29.00,-69.00,-993.00
2024-06-07 15:02:53.359468,-2,2,23,0,0,0,80,82,152,130,69,133.99,228,-26.00,-57.00,-996.00
2024-06-07 15:02:53.557899,-2,3,23,0,0,0,80,82,153,130,69,133.89,228,-26.00,-70.00,-978.00
2024-06-07 15:02:53.563150,-1,3,23,0,0,0,80,82,152,130,69,133.99,228,-7.00,-62.00,-1009.00
2024-06-07 15:02:53.762898,-1,3,23,0,0,0,80,82,153,130,69,134.31,228,-33.00,-50.00,-1010.00
2024-06-07 15:02:53.767205,-1,3,23,0,0,0,80,82,152,130,69,134.05,228,-27.00,-55.00,-988.00
2024-06-07 15:02:53.869121,-1,2,23,0,0,0,80,82,151,130,69,133.78,229,-34.00,-44.00,-1011.00
2024-06-07 15:02:54.071067,-1,2,23,0,0,0,80,82,152,130,69,134.13,229,-26.00,-58.00,-1025.00
2024-06-07 15:02:54.073080,-1,2,23,0,0,0,80,82,152,130,69,134.01,229,-48.00,-75.00,-994.00
2024-06-07 15:02:54.175134,-1,3,23,0,0,0,80,82,151,130,69,134.00,229,-35.00,-47.00,-1012.00
2024-06-07 15:02:54.376534,-1,3,23,0,0,0,80,82,153,130,69,134.02,229,-30.00,-54.00,-974.00
2024-06-07 15:02:54.379846,0,2,22,0,0,0,80,82,153,130,69,134.02,229,-29.00,-71.00,-993.00
2024-06-07 15:02:54.578954,-1,2,22,0,0,0,80,82,151,130,69,134.49,229,6.00,-72.00,-1008.00
2024-06-07 15:02:54.583882,-1,3,22,0,0,0,80,82,152,130,69,134.58,229,-6.00,-91.00,-952.00
2024-06-07 15:02:54.890735,0,4,23,0,0,0,80,82,152,130,69,134.25,229,-47.00,-96.00,-966.00
2024-06-07 15:02:54.894862,0,4,23,0,-1,0,80,82,152,130,69,134.23,229,-29.00,-111.00,-994.00
2024-06-07 15:02:54.894963,-1,5,22,0,-1,0,80,82,152,130,69,134.26,230,-19.00,-114.00,-987.00
2024-06-07 15:02:54.991886,-2,5,22,0,-1,0,80,82,151,130,69,134.29,230,-21.00,-133.00,-969.00
2024-06-07 15:02:55.094059,-1,6,23,0,-1,0,81,82,152,130,69,134.20,230,-23.00,-112.00,-972.00
2024-06-07 15:02:55.300007,-1,7,23,0,-1,0,81,82,150,120,69,134.34,230,-16.00,-127.00,-1001.00
2024-06-07 15:02:55.300164,0,8,23,0,-1,0,81,82,149,120,69,134.35,230,-17.00,-137.00,-995.00
2024-06-07 15:02:55.399830,0,8,23,0,-1,0,81,82,150,120,69,134.28,230,-44.00,-132.00,-1013.00
2024-06-07 15:02:55.502507,-3,5,23,0,-1,0,81,82,150,120,69,134.70,230,-60.00,-103.00,-1012.00
