TS,pitch,roll,yaw,vgx,vgy,vgz,templ,temph,tof,h,bat,baro,time,agx,agy,agz
2024-06-07 15:03:34.105405,1,0,17,0,0,0,81,83,10,0,67,132.86,248,26.00,-1.00,-1000.00
2024-06-07 15:03:34.163198,1,0,17,0,0,0,81,83,10,0,67,132.80,248,25.00,0.00,-1000.00
2024-06-07 15:03:34.310451,1,0,17,0,0,0,81,84,10,0,67,133.18,248,25.00,-1.00,-997.00
2024-06-07 15:03:34.367099,1,0,17,0,0,0,81,84,10,0,67,132.80,248,24.00,0.00,-996.00
2024-06-07 15:03:34.468931,1,0,17,0,0,0,81,84,10,0,67,132.70,248,26.00,0.00,-1000.00
2024-06-07 15:03:34.619838,1,0,17,0,0,0,81,84,10,0,67,132.93,248,26.00,0.00,-1000.00
2024-06-07 15:03:34.672632,1,0,17,0,0,0,81,84,10,0,67,133.01,248,24.00,-1.00,-999.00
2024-06-07 15:03:34.825895,1,0,17,0,0,0,81,84,10,0,67,132.84,248,24.00,-1.00,-999.00
2024-06-07 15:03:34.876665,1,0,17,0,0,0,81,84,10,0,67,132.90,248,26.00,0.00,-1001.00
2024-06-07 15:03:34.978788,1,0,17,0,0,0,81,84,10,0,67,132.92,248,25.00,-1.00,-999.00
2024-06-07 15:03:35.134297,1,0,17,0,0,0,81,84,10,0,67,132.82,248,25.00,0.00,-999.00
2024-06-07 15:03:35.182789,1,0,17,0,0,0,81,84,10,0,67,132.73,248,26.00,0.00,-1001.00
2024-06-07 15:03:35.335356,1,0,17,0,0,0,82,83,10,0,67,132.88,248,27.00,-1.00,-998.00
2024-06-07 15:03:35.386793,1,0,17,0,0,0,82,83,10,0,67,133.06,248,28.00,-1.00,-997.00
2024-06-07 15:03:35.488681,1,0,17,0,0,0,82,83,10,0,67,132.81,248,26.00,0.00,-1005.00
2024-06-07 15:03:35.590812,1,0,17,0,0,0,82,83,10,0,67,132.94,248,28.00,-1.00,-1000.00
2024-06-07 15:03:35.743312,1,0,17,0,0,0,82,83,10,0,67,132.56,248,26.00,0.00,-999.00
2024-06-07 15:03:35.794945,1,0,17,0,0,0,82,83,10,0,67,133.18,248,24.00,-1.00,-1001.00
2024-06-07 15:03:35.950007,1,0,17,0,0,0,82,83,10,0,67,133.00,248,25.00,0.00,-998.00
2024-06-07 15:03:35.998806,1,0,17,0,0,0,82,83,10,0,67,133.04,248,27.00,0.00,-999.00
2024-06-07 15:03:36.100551,1,0,17,0,0,0,82,83,10,0,67,132.76,248,25.00,-1.00,-1000.00
2024-06-07 15:03:36.255424,1,0,17,0,0,0,82,83,10,0,67,132.79,248,5.00,-13.00,-1016.00
2024-06-07 15:03:36.312100,1,0,17,0,0,0,81,84,10,0,67,132.79,248,24.00,-2.00,-1002.00
2024-06-07 15:03:36.406984,1,0,17,0,0,0,81,84,10,0,67,132.79,248,42.00,-20.00,-1002.00
2024-06-07 15:03:36.564135,1,0,18,0,0,0,81,84,10,0,67,132.79,248,56.00,11.00,-1001.00
2024-06-07 15:03:36.611153,1,0,18,0,0,0,81,84,10,0,67,132.79,248,-5.00,-7.00,-1010.00
2024-06-07 15:03:36.768040,1,0,18,0,0,0,81,84,10,0,67,132.79,248,-21.00,-5.00,-1144.00
2024-06-07 15:03:36.814536,0,0,18,0,0,-1,81,84,10,0,67,132.79,249,-18.00,-37.00,-1370.00
2024-06-07 15:03:36.865291,0,0,18,0,0,-3,81,84,10,0,67,132.79,249,-31.00,-34.00,-1296.00
2024-06-07 15:03:36.974578,-1,0,18,0,0,-6,81,84,13,0,67,132.97,249,-63.00,-33.00,-1118.00
2024-06-07 15:03:37.069564,-1,1,18,0,0,-7,81,84,21,10,67,133.23,249,-31.00,-32.00,-1065.00
2024-06-07 15:03:37.176548,-2,1,17,0,0,-8,81,84,30,10,67,133.21,249,-32.00,-22.00,-1002.00
2024-06-07 15:03:37.274313,-2,2,18,0,0,-8,82,84,38,20,67,133.64,249,-54.00,-12.00,-929.00
2024-06-07 15:03:37.386444,-2,1,18,0,0,-7,82,84,47,30,67,133.69,249,-61.00,-26.00,-899.00
2024-06-07 15:03:37.479120,-3,1,18,0,0,-6,82,84,55,40,67,133.93,249,-55.00,-6.00,-891.00
2024-06-07 15:03:37.581915,-4,1,17,-1,0,-5,82,84,63,40,67,133.57,249,-48.00,-8.00,-840.00
2024-06-07 15:03:37.681650,-5,0,17,-1,0,-4,82,84,69,50,67,133.71,249,-57.00,-9.00,-890.00
2024-06-07 15:03:37.793324,-4,0,18,0,0,-3,82,84,73,50,67,133.76,250,-45.00,-7.00,-897.00
2024-06-07 15:03:37.885456,-4,0,18,0,0,-2,82,84,77,60,67,133.79,250,-58.00,-31.00,-900.00
2024-06-07 15:03:37.987495,-3,1,18,0,0,-1,82,84,80,60,67,133.94,250,-59.00,7.00,-924.00
2024-06-07 15:03:38.090345,-3,1,18,0,0,0,82,84,82,60,67,134.10,250,-66.00,28.00,-945.00
2024-06-07 15:03:38.192848,-3,0,18,0,0,0,82,84,82,60,67,133.52,250,-79.00,9.00,-1009.00
2024-06-07 15:03:38.298194,-3,0,18,0,0,0,83,84,84,60,67,133.46,250,-102.00,18.00,-986.00
2024-06-07 15:03:38.398393,-4,0,18,-1,0,0,83,84,85,60,67,133.94,250,-79.00,-13.00,-959.00
2024-06-07 15:03:38.500394,-5,-1,18,0,0,0,83,84,86,60,67,133.62,250,-40.00,-19.00,-979.00
2024-06-07 15:03:38.602587,-5,0,18,0,0,0,83,84,85,60,67,133.83,250,-50.00,-3.00,-1031.00
2024-06-07 15:03:38.701255,-4,0,18,0,0,0,83,84,86,60,67,133.70,250,-73.00,0.00,-999.00
2024-06-07 15:03:38.803202,-3,0,17,0,0,0,83,84,86,60,67,133.67,251,-64.00,-9.00,-1001.00
2024-06-07 15:03:38.905174,-4,0,17,0,0,0,83,84,86,70,67,133.92,251,-55.00,-22.00,-960.00
2024-06-07 15:03:39.007291,-4,0,17,0,0,0,83,84,87,70,67,133.79,251,-49.00,-36.00,-968.00
2024-06-07 15:03:39.109184,-3,0,17,0,0,0,83,84,86,70,67,134.24,251,-51.00,-38.00,-982.00
2024-06-07 15:03:39.211258,-3,1,17,0,0,0,83,84,86,70,67,133.83,251,-57.00,-26.00,-960.00
2024-06-07 15:03:39.313177,-3,2,18,0,0,0,82,84,85,70,67,133.48,251,-58.00,-20.00,-975.00
2024-06-07 15:03:39.415095,-2,3,18,0,0,0,82,84,84,70,67,133.91,251,-70.00,14.00,-1002.00
2024-06-07 15:03:39.517121,-3,2,18,0,0,0,82,84,83,70,67,133.43,251,-61.00,-3.00,-1004.00
2024-06-07 15:03:39.619205,-3,0,18,0,0,0,82,84,83,70,67,133.74,251,-71.00,-2.00,-1000.00
2024-06-07 15:03:39.741474,-4,0,18,0,0,0,82,84,83,70,67,133.91,251,-47.00,-5.00,-1021.00
2024-06-07 15:03:39.823141,-3,0,18,0,0,0,82,84,82,60,67,133.58,252,-84.00,-11.00,-1001.00
2024-06-07 15:03:39.925153,-3,0,17,0,0,0,82,84,82,60,67,133.76,252,-57.00,-25.00,-973.00
2024-06-07 15:03:40.044375,-3,1,18,0,0,0,82,84,81,60,67,133.58,252,-49.00,-10.00,-995.00
2024-06-07 15:03:40.129269,-3,1,18,0,0,0,82,84,81,60,67,133.88,252,-40.00,-14.00,-1043.00
2024-06-07 15:03:40.250512,-3,1,18,0,0,0,82,84,80,60,67,133.52,252,-74.00,-23.00,-993.00
2024-06-07 15:03:40.333146,-2,1,18,0,0,0,82,83,80,60,67,133.38,252,-65.00,-7.00,-1002.00
2024-06-07 15:03:40.455479,-2,1,18,0,0,0,82,83,79,60,67,133.70,252,-92.00,-10.00,-1018.00
2024-06-07 15:03:40.537032,-3,0,18,0,0,0,82,83,80,60,67,133.65,252,-92.00,-28.00,-1003.00
2024-06-07 15:03:40.588341,-4,0,18,0,0,0,82,83,79,60,67,133.91,252,-74.00,-52.00,-999.00
2024-06-07 15:03:40.761046,-5,1,18,0,0,0,82,83,80,60,67,133.67,252,-73.00,-23.00,-1009.00
2024-06-07 15:03:40.792345,-5,1,18,0,0,0,82,83,79,60,67,133.62,253,-93.00,-41.00,-1008.00
2024-06-07 15:03:40.913558,-5,1,18,0,0,0,82,83,79,60,67,133.68,253,-90.00,-38.00,-989.00
2024-06-07 15:03:40.996371,-5,2,18,0,0,0,82,83,79,60,67,133.91,253,-69.00,-37.00,-997.00
2024-06-07 15:03:41.274615,-5,2,18,0,0,0,82,83,80,60,67,133.69,253,-56.00,-40.00,-1000.00
2024-06-07 15:03:41.274655,-5,2,18,0,0,0,82,83,79,60,67,133.69,253,-51.00,-49.00,-1003.00
2024-06-07 15:03:41.302353,-4,2,18,0,0,0,81,84,80,60,67,133.58,253,-75.00,-47.00,-983.00
2024-06-07 15:03:41.479250,-4,2,18,0,0,0,81,84,79,60,67,133.74,253,-65.00,-51.00,-1002.00
2024-06-07 15:03:41.506294,-4,2,18,0,0,0,81,84,80,60,67,133.67,253,-64.00,-52.00,-1011.00
2024-06-07 15:03:41.610178,-4,3,18,0,0,0,81,84,80,60,67,133.82,253,-65.00,-58.00,-1011.00
2024-06-07 15:03:41.710493,-3,3,18,0,0,0,81,84,80,60,67,133.57,253,-67.00,-59.00,-1021.00
2024-06-07 15:03:41.887504,-3,4,18,0,0,0,81,84,80,60,67,133.77,254,-70.00,-55.00,-990.00
2024-06-07 15:03:41.914356,-4,3,18,0,0,0,81,84,80,60,67,133.85,254,-76.00,-69.00,-995.00
2024-06-07 15:03:42.092393,-4,3,18,0,0,0,81,84,80,60,67,133.59,254,-86.00,-59.00,-986.00
2024-06-07 15:03:42.118370,-4,4,18,0,0,0,81,84,79,60,67,133.76,254,-90.00,-55.00,-967.00
2024-06-07 15:03:42.297132,-4,4,18,0,0,0,81,84,80,60,67,134.02,254,-63.00,-31.00,-996.00
2024-06-07 15:03:42.322322,-4,4,18,0,0,0,82,84,80,60,67,133.63,254,-71.00,0.00,-1012.00
2024-06-07 15:03:42.504491,-4,4,18,0,0,0,82,84,80,60,67,133.33,254,-59.00,-36.00,-997.00
2024-06-07 15:03:42.528112,-4,1,18,0,1,0,82,84,79,60,67,133.78,254,-63.00,-30.00,-1003.00
2024-06-07 15:03:42.628654,-4,0,18,0,1,0,82,84,80,60,67,133.56,254,-63.00,-16.00,-996.00
2024-06-07 15:03:42.730343,-4,0,18,0,1,0,82,84,80,60,67,133.50,254,-76.00,-1.00,-1009.00
2024-06-07 15:03:42.911535,-4,0,18,0,1,0,82,84,80,60,67,133.56,255,-64.00,0.00,-981.00
2024-06-07 15:03:42.934356,-3,0,18,0,1,0,82,84,79,60,67,133.57,255,-57.00,-17.00,-1007.00
2024-06-07 15:03:43.118259,-3,0,18,0,1,0,82,84,80,60,67,133.64,255,-64.00,12.00,-1011.00
2024-06-07 15:03:43.138036,-3,0,18,0,1,0,82,84,80,60,67,133.66,255,-75.00,32.00,-990.00
2024-06-07 15:03:43.321125,-3,-1,18,0,1,0,82,84,80,60,67,133.67,255,-61.00,14.00,-996.00
2024-06-07 15:03:43.342174,-3,-1,18,0,1,0,81,83,81,60,67,133.63,255,-51.00,14.00,-993.00
2024-06-07 15:03:43.526145,-3,-2,18,0,1,0,81,83,81,60,67,133.65,255,-56.00,21.00,-996.00
2024-06-07 15:03:43.546192,-2,-2,18,0,1,0,81,83,80,60,67,133.33,255,-67.00,32.00,-1023.00
2024-06-07 15:03:43.648247,-2,-2,17,0,0,0,81,83,81,60,67,133.83,255,-84.00,29.00,-984.00
2024-06-07 15:03:43.832643,-3,-2,18,0,0,0,81,83,81,60,67,133.71,255,-63.00,28.00,-1016.00
2024-06-07 15:03:43.852115,-3,-2,17,0,0,0,81,83,82,60,67,133.69,256,-71.00,21.00,-978.00
2024-06-07 15:03:44.037936,-3,-1,18,0,0,-1,81,83,83,60,67,133.72,256,-77.00,3.00,-1084.00
2024-06-07 15:03:44.056152,-3,0,18,0,0,-2,81,83,86,60,67,133.75,256,-83.00,17.00,-1122.00
2024-06-07 15:03:44.244683,-3,-1,18,0,0,-3,81,83,90,70,67,133.58,256,-69.00,28.00,-1106.00
2024-06-07 15:03:44.244726,-3,-2,18,0,0,-3,81,83,94,70,67,133.94,256,-54.00,9.00,-1079.00
2024-06-07 15:03:44.446815,-3,0,17,0,0,-4,82,84,99,80,67,133.62,256,-53.00,-3.00,-1020.00
2024-06-07 15:03:44.464213,-2,0,17,0,0,-5,82,84,104,90,67,134.09,256,-45.00,-26.00,-1043.00
2024-06-07 15:03:44.566101,-2,0,17,0,0,-5,82,84,109,90,67,133.92,256,-58.00,-25.00,-1032.00
2024-06-07 15:03:44.756172,-3,0,17,0,0,-5,82,84,115,100,67,133.82,256,-82.00,-16.00,-966.00
2024-06-07 15:03:44.770058,-3,0,18,0,-1,-5,82,84,122,100,67,134.13,257,-79.00,-32.00,-989.00
2024-06-07 15:03:44.820853,-4,1,18,0,-1,-5,82,84,126,110,67,133.86,257,-41.00,-55.00,-993.00
2024-06-07 15:03:44.959031,-4,2,17,0,-1,-5,82,84,132,110,67,134.05,257,-66.00,-54.00,-963.00
2024-06-07 15:03:45.024770,-3,3,18,0,0,-4,82,84,136,120,67,134.18,257,-52.00,-27.00,-960.00
2024-06-07 15:03:45.166935,-3,3,18,0,0,-4,82,84,142,120,67,134.43,257,-60.00,-13.00,-967.00
2024-06-07 15:03:45.228868,-3,1,18,0,0,-4,82,84,146,130,67,134.19,257,-64.00,-19.00,-952.00
2024-06-07 15:03:45.369288,-4,1,18,0,0,-3,81,83,152,130,67,134.42,257,-55.00,-3.00,-998.00
2024-06-07 15:03:45.433090,-3,1,18,0,0,-3,81,83,155,140,67,134.27,257,-82.00,17.00,-1002.00
2024-06-07 15:03:45.575370,-4,0,18,0,0,-3,81,83,158,140,67,134.62,257,-81.00,7.00,-950.00
2024-06-07 15:03:45.636827,-4,0,18,0,0,-3,81,83,161,140,67,134.49,257,-79.00,12.00,-964.00
2024-06-07 15:03:45.780287,-4,0,18,0,0,-2,81,83,166,150,67,134.52,258,-73.00,16.00,-947.00
2024-06-07 15:03:45.840723,-4,0,18,0,0,-2,81,83,169,150,67,134.72,258,-70.00,22.00,-990.00
2024-06-07 15:03:45.942750,-3,0,18,0,0,-2,81,83,171,150,67,134.29,258,-64.00,-6.00,-974.00
2024-06-07 15:03:46.087713,-3,-1,17,0,0,-2,81,83,173,150,67,134.46,258,-76.00,-39.00,-952.00
2024-06-07 15:03:46.146895,-3,0,18,0,0,-1,81,83,176,160,67,134.38,258,-64.00,-41.00,-974.00
2024-06-07 15:03:46.292662,-4,0,18,0,0,-1,81,83,178,160,67,134.25,258,-70.00,-15.00,-956.00
2024-06-07 15:03:46.350915,-4,2,18,0,0,-1,81,84,181,160,67,134.54,258,-82.00,22.00,-948.00
2024-06-07 15:03:46.495816,-4,1,18,0,0,0,81,84,180,160,67,134.18,258,-75.00,2.00,-965.00
2024-06-07 15:03:46.554813,-4,0,18,0,0,0,81,84,180,160,67,134.50,258,-84.00,0.00,-986.00
2024-06-07 15:03:46.700299,-5,0,18,0,0,0,81,84,180,160,67,134.64,258,-68.00,2.00,-948.00
2024-06-07 15:03:46.758894,-4,0,18,0,0,0,81,84,181,160,67,134.76,259,-71.00,21.00,-961.00
2024-06-07 15:03:46.905060,-4,0,18,0,0,0,81,84,182,160,67,134.42,259,-72.00,-2.00,-994.00
2024-06-07 15:03:46.963471,-4,0,18,0,0,0,81,84,181,160,67,134.35,259,-75.00,4.00,-1012.00
2024-06-07 15:03:47.109971,-4,0,18,0,0,0,81,84,182,160,67,134.40,259,-55.00,-3.00,-1024.00
2024-06-07 15:03:47.166992,-4,0,18,0,0,0,81,84,180,160,67,134.54,259,-62.00,1.00,-971.00
2024-06-07 15:03:47.314624,-3,0,18,0,0,0,81,84,181,160,67,134.76,259,-60.00,-9.00,-990.00
2024-06-07 15:03:47.370926,-3,0,17,0,0,0,81,84,178,160,67,134.57,259,-76.00,-50.00,-1006.00
2024-06-07 15:03:47.472999,-3,0,18,0,0,0,81,84,178,160,67,134.44,259,-76.00,-43.00,-1005.00
2024-06-07 15:03:47.574907,-4,2,18,0,0,0,81,84,179,160,67,134.86,259,-75.00,-38.00,-995.00
2024-06-07 15:03:47.724476,-4,2,18,0,0,0,81,84,181,160,67,134.56,259,-81.00,0.00,-1004.00
2024-06-07 15:03:47.778850,-4,1,18,0,0,0,81,84,179,160,67,134.31,260,-88.00,2.00,-1004.00
2024-06-07 15:03:47.829938,-4,0,18,0,0,0,81,84,181,160,67,134.39,260,-77.00,-7.00,-1004.00
2024-06-07 15:03:48.033605,-4,0,18,0,0,0,81,84,182,160,67,134.38,260,-65.00,-12.00,-1003.00
2024-06-07 15:03:48.034042,-4,0,18,0,0,0,81,84,179,160,67,134.37,260,-75.00,-14.00,-976.00
2024-06-07 15:03:48.136062,-4,0,17,0,0,0,81,84,178,160,67,134.66,260,-43.00,-20.00,-991.00
2024-06-07 15:03:48.238630,-3,0,18,0,0,0,81,84,180,160,67,134.63,260,-55.00,-32.00,-996.00
2024-06-07 15:03:48.390717,-3,1,18,0,0,0,81,83,179,160,67,134.52,260,-53.00,-32.00,-1024.00
2024-06-07 15:03:48.447409,-3,2,18,0,0,0,81,83,181,160,67,134.78,260,-64.00,-23.00,-949.00
2024-06-07 15:03:48.544933,-3,2,17,0,0,0,81,83,180,160,67,134.34,260,-55.00,-24.00,-928.00
2024-06-07 15:03:48.647097,-3,1,17,0,0,0,81,83,179,160,67,134.38,260,-72.00,-42.00,-967.00
2024-06-07 15:03:48.749892,-4,1,18,0,0,1,81,83,177,160,67,134.23,261,-86.00,1.00,-922.00
2024-06-07 15:03:48.851551,-3,2,18,0,0,1,81,83,175,160,67,134.27,261,-91.00,-6.00,-960.00
2024-06-07 15:03:48.954116,-4,1,18,0,0,2,81,83,172,160,67,134.25,261,-93.00,-16.00,-964.00
2024-06-07 15:03:49.055145,-5,0,18,0,0,2,81,83,170,150,67,134.42,261,-77.00,-24.00,-988.00
2024-06-07 15:03:49.158023,-5,1,18,0,0,2,81,83,169,150,67,134.23,261,-66.00,-9.00,-991.00
2024-06-07 15:03:49.257922,-4,1,18,0,0,2,81,83,166,150,67,134.30,261,-71.00,-23.00,-1009.00
2024-06-07 15:03:49.364209,-4,1,18,0,0,2,82,83,161,140,67,134.39,261,-69.00,-7.00,-1004.00
2024-06-07 15:03:49.462506,-4,1,18,0,0,2,82,83,159,140,67,134.28,261,-82.00,-10.00,-1005.00
2024-06-07 15:03:49.567238,-5,0,18,0,0,2,82,83,157,140,67,134.47,261,-96.00,-16.00,-1004.00
2024-06-07 15:03:49.666758,-5,0,18,0,0,2,82,83,155,140,67,134.25,261,-78.00,-20.00,-1000.00
2024-06-07 15:03:49.773761,-5,0,18,0,0,2,82,83,150,130,67,134.32,262,-77.00,-16.00,-1033.00
2024-06-07 15:03:49.870563,-5,1,17,0,0,2,82,83,150,130,67,134.09,262,-70.00,-4.00,-978.00
2024-06-07 15:03:49.978541,-4,0,17,0,0,2,82,83,149,130,67,134.21,262,-60.00,-23.00,-1041.00
2024-06-07 15:03:50.074575,-4,0,18,0,0,1,82,83,144,130,67,134.17,262,-83.00,-13.00,-978.00
2024-06-07 15:03:50.176432,-3,1,18,0,0,1,82,83,143,130,67,134.00,262,-89.00,-2.00,-1011.00
2024-06-07 15:03:50.278521,-4,0,18,0,0,1,82,83,142,120,67,133.82,262,-92.00,8.00,-1007.00
2024-06-07 15:03:50.386695,-4,0,18,0,0,1,80,82,141,120,67,134.12,262,-95.00,-19.00,-1001.00
2024-06-07 15:03:50.482697,-4,0,18,0,0,1,80,82,140,120,67,134.12,262,-85.00,-7.00,-1022.00
2024-06-07 15:03:50.584509,-4,0,18,0,0,0,80,82,140,120,67,134.11,262,-87.00,-3.00,-1040.00
2024-06-07 15:03:50.693842,-5,0,18,0,0,0,80,82,138,120,67,134.38,262,-73.00,-13.00,-982.00
2024-06-07 15:03:50.788539,-4,0,18,0,0,0,80,82,137,120,67,134.49,263,-80.00,6.00,-1001.00
2024-06-07 15:03:50.898612,-4,0,18,0,0,0,80,82,137,120,67,133.89,263,-70.00,-2.00,-986.00
2024-06-07 15:03:50.992603,-4,0,18,0,0,0,80,82,135,120,67,134.24,263,-77.00,-9.00,-960.00
2024-06-07 15:03:51.103395,-3,0,18,0,0,0,80,82,135,120,67,134.17,263,-64.00,-14.00,-985.00
2024-06-07 15:03:51.200767,-3,0,18,0,0,0,80,82,134,120,67,133.70,263,-81.00,-27.00,-990.00
2024-06-07 15:03:51.300185,-3,0,17,0,0,0,80,82,132,110,67,134.19,263,-79.00,-29.00,-1027.00
2024-06-07 15:03:51.410900,-4,1,17,0,0,0,80,83,133,110,67,134.04,263,-63.00,-34.00,-1012.00
2024-06-07 15:03:51.504849,-4,0,17,0,0,0,80,83,132,110,67,133.94,263,-72.00,-22.00,-1004.00
2024-06-07 15:03:51.606997,-4,0,18,0,0,0,80,83,132,110,67,134.45,263,-79.00,-8.00,-1018.00
2024-06-07 15:03:51.709928,-4,0,18,0,0,0,80,83,133,110,67,134.01,263,-84.00,-11.00,-1006.00
2024-06-07 15:03:51.757872,-3,1,18,0,0,0,80,83,132,110,67,134.14,264,-82.00,-6.00,-1010.00
2024-06-07 15:03:51.922793,-3,0,18,0,0,0,80,83,134,110,67,134.46,264,-62.00,-2.00,-1015.00
2024-06-07 15:03:51.961872,-3,0,18,0,0,0,80,83,133,110,67,134.31,264,-65.00,-3.00,-1006.00
2024-06-07 15:03:52.127483,-3,0,18,0,0,0,80,83,133,110,67,134.46,264,-43.00,-15.00,-1006.00
2024-06-07 15:03:52.165788,-3,0,18,0,0,0,80,83,134,110,67,134.01,264,-59.00,-7.00,-992.00
2024-06-07 15:03:52.332764,-3,0,18,0,0,0,80,83,132,120,67,134.10,264,-76.00,20.00,-981.00
2024-06-07 15:03:52.369828,-3,0,18,0,0,0,81,83,134,120,67,134.00,264,-62.00,10.00,-980.00
2024-06-07 15:03:52.539086,-3,0,18,0,0,0,81,83,133,120,67,134.11,264,-68.00,19.00,-998.00
2024-06-07 15:03:52.574088,-3,0,18,0,0,0,81,83,133,120,67,134.30,264,-67.00,6.00,-984.00
2024-06-07 15:03:52.741912,-3,-1,17,0,0,0,81,83,132,110,67,134.12,264,-61.00,-19.00,-988.00
2024-06-07 15:03:52.777506,-4,-1,18,0,0,0,81,83,133,110,67,134.19,265,-62.00,0.00,-972.00
2024-06-07 15:03:52.946725,-3,0,18,0,0,0,81,83,131,110,67,134.28,265,-74.00,-1.00,-997.00
2024-06-07 15:03:52.981668,-3,0,18,0,0,0,81,83,131,110,67,134.22,265,-54.00,3.00,-1021.00
2024-06-07 15:03:53.148512,-3,0,18,0,0,0,81,83,132,110,67,134.28,265,-43.00,34.00,-989.00
2024-06-07 15:03:53.185352,-3,0,18,0,0,0,81,83,130,110,67,134.09,265,-72.00,25.00,-1012.00
2024-06-07 15:03:53.356166,-3,-1,18,0,0,0,81,83,130,110,67,133.82,265,-69.00,9.00,-1052.00
2024-06-07 15:03:53.389757,-7,0,18,0,0,0,81,83,133,110,67,134.34,265,-53.00,9.00,-937.00
2024-06-07 15:03:53.496746,-9,0,18,1,0,0,81,83,132,110,67,134.26,265,-61.00,2.00,-1004.00
2024-06-07 15:03:53.595454,-8,-1,18,2,1,0,81,83,131,110,67,134.11,265,-74.00,-4.00,-1008.00
2024-06-07 15:03:53.695907,-8,-1,18,2,1,0,81,83,132,110,67,134.11,265,-79.00,-19.00,-1016.00
2024-06-07 15:03:53.868109,-9,0,18,3,0,0,81,83,132,110,67,134.01,266,-72.00,-19.00,-1025.00
2024-06-07 15:03:53.899626,-8,0,18,4,1,0,81,83,132,110,67,134.25,266,-82.00,-20.00,-1009.00
2024-06-07 15:03:54.072818,-8,0,18,4,1,0,81,83,132,110,67,133.88,266,-98.00,-3.00,-994.00
2024-06-07 15:03:54.103511,-8,0,18,5,1,0,81,83,132,110,67,134.05,266,-80.00,-8.00,-1011.00
2024-06-07 15:03:54.277242,-8,0,17,5,1,0,81,83,132,110,67,134.18,266,-80.00,-19.00,-998.00
2024-06-07 15:03:54.307258,-8,0,17,6,1,0,81,83,132,110,67,134.19,266,-111.00,-24.00,-998.00
2024-06-07 15:03:54.482577,-7,0,17,6,1,0,81,83,132,110,67,133.70,266,-115.00,-17.00,-996.00
2024-06-07 15:03:54.511304,-3,1,18,6,1,0,81,83,130,110,67,134.00,266,-146.00,-2.00,-990.00
2024-06-07 15:03:54.686760,0,2,18,5,1,0,81,83,130,110,67,134.06,266,-125.00,9.00,-997.00
2024-06-07 15:03:54.715201,0,1,18,4,1,0,81,83,130,110,67,134.03,266,-121.00,14.00,-982.00
2024-06-07 15:03:54.892159,-2,0,18,3,1,0,81,83,130,110,67,133.63,267,-115.00,15.00,-994.00
2024-06-07 15:03:54.919257,-3,-1,18,2,1,0,81,83,131,110,67,134.00,267,-107.00,13.00,-1026.00
2024-06-07 15:03:55.021493,-4,-1,18,2,1,0,81,83,132,110,67,133.90,267,-118.00,10.00,-997.00
2024-06-07 15:03:55.199238,-4,0,18,2,0,0,81,83,131,110,67,134.04,267,-109.00,4.00,-983.00
2024-06-07 15:03:55.225492,-4,0,18,2,0,0,81,83,132,110,67,133.77,267,-108.00,-12.00,-975.00
2024-06-07 15:03:55.403994,-5,0,18,2,0,0,81,83,132,110,67,133.67,267,-106.00,-8.00,-991.00
2024-06-07 15:03:55.429463,-5,0,18,2,0,0,80,83,133,110,67,133.92,267,-104.00,-2.00,-999.00
2024-06-07 15:03:55.531234,-4,-1,18,2,0,0,80,83,131,110,67,134.11,267,-110.00,20.00,-997.00
2024-06-07 15:03:55.710962,-4,0,18,2,0,0,80,83,131,110,67,134.13,267,-93.00,13.00,-1011.00
2024-06-07 15:03:55.711315,-4,0,18,2,0,0,80,83,132,110,67,133.78,267,-113.00,3.00,-1023.00
2024-06-07 15:03:55.786458,-4,0,18,2,0,0,80,83,133,110,67,133.83,268,-92.00,-1.00,-1010.00
2024-06-07 15:03:55.916181,-4,0,18,2,0,0,80,83,131,110,67,134.15,268,-69.00,-14.00,-985.00
2024-06-07 15:03:55.990233,0,1,18,1,0,0,80,83,132,110,67,134.08,268,-84.00,-13.00,-983.00
2024-06-07 15:03:56.121113,0,0,17,1,0,0,80,83,130,110,67,133.67,268,-83.00,-19.00,-1003.00
2024-06-07 15:03:56.194262,-2,0,18,0,0,0,80,83,131,110,67,133.96,268,-73.00,-14.00,-1014.00
2024-06-07 15:03:56.296432,-3,1,18,0,0,0,80,83,132,110,67,133.86,268,-80.00,-5.00,-982.00
2024-06-07 15:03:56.427702,-3,1,18,0,0,0,81,82,131,110,67,134.17,268,-77.00,-22.00,-989.00
2024-06-07 15:03:56.500376,-3,0,18,0,0,0,81,82,132,110,67,133.91,268,-77.00,-11.00,-1005.00
2024-06-07 15:03:56.633322,-3,1,18,0,0,0,81,82,132,110,67,133.83,268,-67.00,-12.00,-998.00
2024-06-07 15:03:56.704738,-3,1,17,0,0,0,81,82,131,110,67,133.67,268,-92.00,1.00,-1005.00
2024-06-07 15:03:56.838231,-3,0,17,0,0,0,81,82,132,110,67,133.75,269,-63.00,-3.00,-1008.00
2024-06-07 15:03:56.908226,-4,0,17,0,0,0,81,82,134,110,67,133.72,269,-76.00,-22.00,-971.00
2024-06-07 15:03:57.010242,-3,0,17,0,0,0,81,82,134,110,67,133.79,269,-82.00,-21.00,-970.00
2024-06-07 15:03:57.112435,-4,0,18,0,0,0,81,82,134,110,67,133.93,269,-73.00,-14.00,-1013.00
2024-06-07 15:03:57.247480,-4,1,18,0,0,0,81,82,134,110,67,134.16,269,-72.00,-6.00,-986.00
2024-06-07 15:03:57.320087,-4,1,18,0,0,0,81,82,135,110,67,133.78,269,-69.00,-2.00,-973.00
2024-06-07 15:03:57.418563,-4,0,18,0,0,0,80,82,135,110,67,133.86,269,-77.00,6.00,-987.00
2024-06-07 15:03:57.520279,-4,0,18,0,0,0,80,82,133,120,67,134.00,269,-70.00,-4.00,-984.00
2024-06-07 15:03:57.657044,-4,0,18,0,0,0,80,82,136,120,66,134.01,269,-67.00,-3.00,-982.00
2024-06-07 15:03:57.724242,-4,0,18,0,0,0,80,82,135,120,66,134.34,269,-83.00,-4.00,-985.00
2024-06-07 15:03:57.861894,-4,0,18,0,0,0,80,82,136,120,66,133.97,270,-85.00,3.00,-989.00
2024-06-07 15:03:57.928162,-4,0,18,0,0,0,80,82,136,120,66,134.17,270,-72.00,1.00,-1000.00
2024-06-07 15:03:58.030708,-5,0,18,0,0,0,80,82,136,120,66,134.08,270,-73.00,-8.00,-971.00
2024-06-07 15:03:58.132130,-5,0,18,0,0,0,80,82,136,120,66,133.89,270,-95.00,12.00,-990.00
2024-06-07 15:03:58.271189,-4,0,18,0,0,0,80,82,135,120,66,133.90,270,-89.00,0.00,-984.00
2024-06-07 15:03:58.336081,-3,0,18,0,0,0,80,82,134,120,66,134.03,270,-90.00,12.00,-990.00
2024-06-07 15:03:58.476262,2,0,18,0,0,0,81,82,136,120,66,134.51,270,-87.00,-4.00,-978.00
2024-06-07 15:03:58.540240,4,0,18,-2,0,0,81,82,133,120,66,134.42,270,-59.00,4.00,-1000.00
2024-06-07 15:03:58.642290,3,0,18,-3,0,0,81,82,134,120,66,134.38,270,-74.00,8.00,-983.00
2024-06-07 15:03:58.782724,3,0,18,-4,-1,0,81,82,134,120,66,134.29,270,-25.00,12.00,-1008.00
2024-06-07 15:03:58.846210,2,0,18,-5,-1,0,81,82,133,110,66,134.01,271,-29.00,13.00,-1004.00
2024-06-07 15:03:58.988254,2,-1,18,-6,-1,0,81,82,132,110,66,134.44,271,-21.00,13.00,-1009.00
2024-06-07 15:03:59.051281,1,-1,18,-6,-1,0,81,82,132,110,66,134.24,271,-26.00,24.00,-1030.00
2024-06-07 15:03:59.192492,1,-1,18,-6,-2,0,81,82,131,110,66,134.52,271,-17.00,16.00,-1015.00
2024-06-07 15:03:59.204000,-1,-1,18,-6,-2,0,81,82,133,110,66,134.39,271,-7.00,16.00,-1008.00
2024-06-07 15:03:59.397768,-4,0,18,-6,-2,0,81,82,133,110,66,134.61,271,-15.00,18.00,-1001.00
2024-06-07 15:03:59.459265,-7,-1,18,-4,-1,0,81,83,133,110,66,134.85,271,-4.00,13.00,-1012.00
2024-06-07 15:03:59.561064,-6,-1,18,-3,-1,0,81,83,133,110,66,134.43,271,-28.00,10.00,-991.00
2024-06-07 15:03:59.705035,-5,-1,18,-3,-1,0,81,83,133,110,66,134.64,271,-38.00,-3.00,-979.00
2024-06-07 15:03:59.765084,-4,-1,18,-2,-1,0,81,83,131,110,66,134.28,272,-32.00,-18.00,-1021.00
2024-06-07 15:03:59.815910,-3,0,18,-2,-1,0,81,83,131,110,66,134.09,272,-24.00,-11.00,-1001.00
2024-06-07 15:04:00.012138,-3,0,18,-2,-1,0,81,83,131,110,66,134.26,272,-48.00,-14.00,-995.00
2024-06-07 15:04:00.019881,-3,0,18,-2,-1,0,81,83,131,110,66,134.36,272,-50.00,-12.00,-1003.00
2024-06-07 15:04:00.221658,-2,0,18,-2,-1,0,81,83,131,110,66,134.54,272,-35.00,-12.00,-1008.00
2024-06-07 15:04:00.224030,-2,0,18,-2,-1,0,81,83,132,110,66,134.40,272,-38.00,-19.00,-990.00
2024-06-07 15:04:00.330084,-2,0,18,-1,-1,0,81,83,134,110,66,134.32,272,-49.00,-8.00,-1006.00
2024-06-07 15:04:00.427965,-2,2,18,-1,-1,0,81,83,133,110,66,134.64,272,-27.00,0.00,-998.00
2024-06-07 15:04:00.530000,-2,2,18,-1,0,0,81,83,134,110,66,134.28,272,-28.00,0.00,-1010.00
2024-06-07 15:04:00.732443,-2,1,18,-1,0,0,81,83,135,110,66,134.36,272,-41.00,5.00,-1017.00
2024-06-07 15:04:00.734042,-6,0,18,-1,0,0,81,83,136,110,66,134.09,273,-36.00,2.00,-980.00
2024-06-07 15:04:00.936417,-6,0,18,0,0,0,81,83,136,120,66,134.39,273,-48.00,8.00,-997.00
2024-06-07 15:04:00.938012,-4,0,17,0,0,0,81,83,136,120,66,134.47,273,-53.00,-6.00,-988.00
2024-06-07 15:04:01.138685,-3,0,18,0,0,0,81,83,138,120,66,134.28,273,-62.00,-13.00,-984.00
2024-06-07 15:04:01.143480,-3,0,18,0,0,0,81,83,136,120,66,134.13,273,-71.00,-14.00,-983.00
2024-06-07 15:04:01.343653,-3,0,18,0,0,0,81,83,135,120,66,134.23,273,-61.00,-3.00,-998.00
2024-06-07 15:04:01.346102,-3,0,18,0,0,0,81,83,136,120,66,134.14,273,-82.00,-9.00,-990.00
2024-06-07 15:04:01.448363,-3,0,18,0,0,0,80,83,136,120,66,134.44,273,-60.00,7.00,-1004.00
2024-06-07 15:04:01.549983,-3,0,18,0,0,0,80,83,136,120,66,134.17,273,-56.00,-9.00,-989.00
2024-06-07 15:04:01.652075,-3,0,18,0,0,0,80,83,138,120,65,134.26,273,-58.00,-12.00,-997.00
2024-06-07 15:04:01.753984,-3,0,18,0,0,0,80,83,137,120,65,134.34,274,-77.00,4.00,-984.00
2024-06-07 15:04:01.957898,-3,0,18,0,0,0,80,83,138,120,65,134.09,274,-73.00,8.00,-995.00
2024-06-07 15:04:01.958071,-3,0,18,0,0,0,80,83,138,120,65,134.47,274,-72.00,8.00,-981.00
2024-06-07 15:04:02.162799,-3,0,18,0,0,0,80,83,136,120,65,134.24,274,-60.00,18.00,-982.00
2024-06-07 15:04:02.162950,-3,0,18,0,0,0,80,83,136,120,65,134.26,274,-75.00,17.00,-984.00
2024-06-07 15:04:02.264645,-3,0,18,0,0,0,80,83,138,120,65,134.29,274,-53.00,3.00,-1023.00
2024-06-07 15:04:02.367213,-3,0,18,0,0,0,80,83,136,120,65,134.27,274,-72.00,13.00,-1002.00
2024-06-07 15:04:02.469512,-3,0,18,0,0,0,80,82,135,120,65,134.29,274,-60.00,13.00,-1001.00
2024-06-07 15:04:02.569918,-3,0,18,0,0,0,80,82,134,120,65,134.40,274,-73.00,21.00,-1020.00
2024-06-07 15:04:02.674689,-3,0,18,0,0,0,80,82,134,120,65,134.30,274,-74.00,28.00,-999.00
2024-06-07 15:04:02.773963,-3,0,18,0,0,0,80,82,135,120,65,134.38,275,-47.00,6.00,-990.00
2024-06-07 15:04:02.879370,-3,-1,18,0,0,0,80,82,134,120,65,134.45,275,-78.00,10.00,-989.00
2024-06-07 15:04:02.977816,-3,-1,18,0,0,0,80,82,132,110,65,134.15,275,-82.00,6.00,-991.00
2024-06-07 15:04:03.084131,-3,-1,18,0,0,0,80,82,133,110,65,134.35,275,-68.00,11.00,-967.00
2024-06-07 15:04:03.181841,-3,-6,18,0,0,0,80,82,134,110,65,134.20,275,-68.00,4.00,-1011.00
2024-06-07 15:04:03.288980,-3,-7,18,0,-1,0,80,82,135,110,65,134.13,275,-59.00,-3.00,-1032.00
2024-06-07 15:04:03.386045,-3,-5,18,1,-2,0,80,82,133,110,65,134.27,275,-57.00,6.00,-999.00
2024-06-07 15:04:03.493814,-2,-2,18,1,-3,0,80,83,131,110,65,134.38,275,-70.00,26.00,-1026.00
2024-06-07 15:04:03.591218,-3,-1,18,1,-3,0,80,83,132,110,65,134.23,275,-58.00,23.00,-983.00
2024-06-07 15:04:03.693052,-3,0,18,0,-2,0,80,83,132,110,65,134.44,275,-51.00,23.00,-992.00
2024-06-07 15:04:03.742785,-3,0,18,0,-2,0,80,83,132,110,65,134.24,276,-63.00,9.00,-1001.00
2024-06-07 15:04:03.904391,-3,0,18,0,-2,0,80,83,133,110,65,134.23,276,-67.00,11.00,-981.00
2024-06-07 15:04:03.952664,-3,0,18,0,-2,0,80,83,133,110,65,134.07,276,-72.00,25.00,-993.00
2024-06-07 15:04:04.050670,-3,0,18,0,-2,0,80,83,134,110,65,134.25,276,-63.00,20.00,-986.00
2024-06-07 15:04:04.150649,-3,-1,18,0,-2,0,80,83,132,110,65,134.20,276,-81.00,20.00,-995.00
2024-06-07 15:04:04.313021,-3,0,18,0,-2,0,80,83,133,110,65,134.58,276,-65.00,25.00,-984.00
2024-06-07 15:04:04.354722,-2,0,18,0,-2,0,80,83,133,110,65,134.29,276,-68.00,25.00,-1012.00
2024-06-07 15:04:04.457168,-2,0,18,0,-2,0,81,82,132,110,65,134.53,276,-47.00,50.00,-999.00
2024-06-07 15:04:04.560683,-2,-1,17,0,-1,0,81,82,132,110,65,134.22,276,-45.00,46.00,-992.00
2024-06-07 15:04:04.661060,-2,-2,17,0,-1,0,81,82,134,110,65,134.44,276,-56.00,15.00,-1019.00
2024-06-07 15:04:04.825308,-2,-2,17,0,-2,0,81,82,132,110,65,134.18,277,-62.00,34.00,-1030.00
2024-06-07 15:04:04.864696,-3,-1,18,0,-2,0,81,82,134,110,65,134.28,277,-61.00,45.00,-995.00
2024-06-07 15:04:04.967237,-3,0,18,0,-1,0,81,82,133,110,65,134.07,277,-47.00,39.00,-1004.00
2024-06-07 15:04:05.134044,-4,3,18,0,-1,0,81,82,134,110,65,134.24,277,-49.00,64.00,-972.00
2024-06-07 15:04:05.170624,-3,1,18,0,0,0,81,82,133,110,65,134.28,277,-62.00,39.00,-1021.00
2024-06-07 15:04:05.337146,-3,-1,18,0,0,0,81,82,134,110,65,134.17,277,-78.00,19.00,-987.00
2024-06-07 15:04:05.374735,-3,-1,18,0,0,0,81,82,134,110,65,134.32,277,-65.00,18.00,-989.00
2024-06-07 15:04:05.542032,-3,-1,17,0,0,0,80,82,132,110,65,134.07,277,-74.00,25.00,-1004.00
2024-06-07 15:04:05.578646,-3,-1,17,0,0,0,80,82,133,110,65,134.30,277,-61.00,24.00,-1000.00
2024-06-07 15:04:05.746831,-4,-1,18,0,0,0,80,82,133,110,65,134.43,277,-65.00,20.00,-1013.00
2024-06-07 15:04:05.782559,-3,-1,18,0,0,0,80,82,133,110,65,134.29,278,-66.00,18.00,-1005.00
2024-06-07 15:04:05.951534,-3,-1,18,0,0,0,80,82,134,110,65,134.16,278,-69.00,20.00,-1003.00
2024-06-07 15:04:05.986577,-3,-1,18,0,0,0,80,82,134,110,65,134.22,278,-68.00,9.00,-995.00
2024-06-07 15:04:06.156837,-3,0,18,0,0,0,80,82,134,110,65,134.32,278,-62.00,25.00,-1019.00
2024-06-07 15:04:06.190720,-3,0,18,0,0,0,80,82,135,110,65,134.09,278,-58.00,12.00,-1000.00
2024-06-07 15:04:06.363538,-3,0,18,0,0,0,80,82,134,110,65,134.17,278,-65.00,31.00,-986.00
2024-06-07 15:04:06.395033,-3,0,18,0,0,0,80,82,135,120,65,134.11,278,-74.00,36.00,-1012.00
2024-06-07 15:04:06.566036,-3,-1,18,0,0,0,80,82,135,120,65,134.31,278,-57.00,32.00,-1017.00
2024-06-07 15:04:06.598968,-3,-1,18,0,0,0,80,82,136,120,65,134.32,278,-63.00,33.00,-1001.00
2024-06-07 15:04:06.770780,-3,-2,18,0,0,0,80,82,137,120,65,134.23,278,-68.00,25.00,-990.00
2024-06-07 15:04:06.802669,-3,-2,18,0,0,0,80,82,136,120,65,134.71,279,-74.00,34.00,-997.00
2024-06-07 15:04:06.975520,-3,-1,18,0,0,0,80,82,135,120,65,134.63,279,-68.00,20.00,-983.00
2024-06-07 15:04:07.006611,-3,-1,18,0,0,0,80,82,134,120,65,134.29,279,-47.00,25.00,-1018.00
2024-06-07 15:04:07.057746,-3,-2,18,0,0,0,80,82,135,120,65,134.13,279,-58.00,34.00,-978.00
2024-06-07 15:04:07.174719,-3,-2,18,0,0,0,80,82,136,120,65,134.02,279,-48.00,27.00,-987.00
2024-06-07 15:04:07.261546,-2,-2,18,0,0,0,80,82,136,120,65,134.23,279,-59.00,38.00,-988.00
2024-06-07 15:04:07.386844,-3,2,18,0,0,0,80,82,135,120,65,134.32,279,-55.00,27.00,-997.00
2024-06-07 15:04:07.465811,-3,6,18,0,1,0,80,82,135,120,65,134.15,279,-60.00,31.00,-1012.00
2024-06-07 15:04:07.567465,-3,3,18,0,3,0,80,82,135,120,64,134.47,279,-55.00,6.00,-994.00
2024-06-07 15:04:07.691985,-3,1,17,-1,3,0,80,82,134,120,64,133.96,279,-63.00,0.00,-1014.00
2024-06-07 15:04:07.771466,-3,0,18,-1,3,0,80,82,134,110,64,134.16,280,-66.00,2.00,-1013.00
2024-06-07 15:04:07.897011,-3,-1,18,-1,3,0,80,82,134,110,64,134.14,280,-72.00,3.00,-993.00
2024-06-07 15:04:07.975891,-3,-1,18,-1,2,0,80,82,134,110,64,134.32,280,-57.00,5.00,-1008.00
2024-06-07 15:04:08.102154,-3,0,18,0,2,0,80,82,133,110,64,134.20,280,-39.00,7.00,-1003.00
2024-06-07 15:04:08.180003,-3,0,18,0,2,0,80,82,133,110,64,134.32,280,-50.00,25.00,-1040.00
2024-06-07 15:04:08.308227,-3,0,18,0,2,0,80,82,133,110,64,134.47,280,-60.00,20.00,-1025.00
2024-06-07 15:04:08.385471,-2,-1,18,0,2,0,80,82,132,110,64,134.39,280,-74.00,11.00,-1004.00
2024-06-07 15:04:08.486261,-2,-1,18,-1,2,0,80,83,132,110,64,134.30,280,-72.00,1.00,-984.00
2024-06-07 15:04:08.587511,-3,-1,18,-1,2,0,80,83,131,110,64,134.35,280,-84.00,29.00,-1004.00
2024-06-07 15:04:08.716217,-4,-1,18,-1,2,0,80,83,133,110,64,134.47,280,-71.00,13.00,-984.00
2024-06-07 15:04:08.791405,-6,-1,18,0,2,0,80,83,133,110,64,134.34,281,-67.00,2.00,-976.00
2024-06-07 15:04:08.921214,-4,-2,18,0,2,0,80,83,131,110,64,134.24,281,-85.00,-3.00,-995.00
2024-06-07 15:04:08.995510,-2,-6,18,0,1,0,80,83,132,110,64,134.26,281,-87.00,-4.00,-1023.00
2024-06-07 15:04:09.125848,-2,-4,18,0,0,0,80,83,131,110,64,134.10,281,-71.00,20.00,-990.00
2024-06-07 15:04:09.199588,-3,-2,18,0,0,0,80,83,130,110,64,134.29,281,-65.00,16.00,-984.00
2024-06-07 15:04:09.330725,-4,-1,18,0,0,0,80,83,130,110,64,134.35,281,-54.00,5.00,-998.00
2024-06-07 15:04:09.403539,-3,-1,18,0,0,0,80,83,131,110,64,134.16,281,-67.00,-1.00,-1006.00
2024-06-07 15:04:09.535049,-3,-1,18,0,0,0,81,82,130,110,64,134.29,281,-56.00,11.00,-996.00
2024-06-07 15:04:09.607519,-3,-1,18,0,0,0,81,82,131,110,64,134.56,281,-49.00,0.00,-991.00
2024-06-07 15:04:09.740689,-3,-1,18,0,0,0,81,82,129,110,64,134.32,281,-49.00,5.00,-1001.00
2024-06-07 15:04:09.811482,-3,0,18,0,0,0,81,82,130,110,64,134.09,282,-49.00,17.00,-1004.00
2024-06-07 15:04:09.913951,-2,0,18,0,0,0,81,82,129,110,64,134.18,282,-58.00,6.00,-1008.00
2024-06-07 15:04:10.047643,-2,0,18,0,0,0,81,82,131,110,64,134.11,282,-54.00,8.00,-996.00
2024-06-07 15:04:10.117835,-2,0,18,0,0,0,81,82,130,110,64,134.23,282,-54.00,23.00,-998.00
2024-06-07 15:04:10.252697,-2,0,18,0,0,0,81,82,130,110,64,134.30,282,-46.00,22.00,-994.00
2024-06-07 15:04:10.324192,-2,0,18,0,0,0,81,82,131,110,64,134.29,282,-44.00,22.00,-1012.00
2024-06-07 15:04:10.423484,-2,-1,18,0,0,0,81,82,131,110,64,134.61,282,-53.00,20.00,-984.00
2024-06-07 15:04:10.559665,-2,-1,18,0,0,0,80,82,131,110,64,134.14,282,-50.00,20.00,-993.00
2024-06-07 15:04:10.627428,-2,-1,18,0,0,0,80,82,131,110,64,134.34,282,-53.00,26.00,-1005.00
2024-06-07 15:04:10.764733,-2,-1,18,0,0,0,80,82,131,110,64,134.05,282,-51.00,17.00,-974.00
2024-06-07 15:04:10.831470,-2,-1,17,0,0,0,80,82,133,110,64,134.38,283,-33.00,11.00,-1017.00
2024-06-07 15:04:10.882434,-2,-1,18,0,0,0,80,82,132,110,64,134.53,283,-32.00,13.00,-980.00
2024-06-07 15:04:10.984427,-2,-1,18,0,0,0,80,82,131,110,64,134.32,283,-53.00,15.00,-989.00
2024-06-07 15:04:11.129439,-2,-1,18,0,0,0,80,82,131,110,64,134.41,283,-46.00,22.00,-994.00
2024-06-07 15:04:11.188597,-2,-1,18,0,0,0,80,82,131,110,64,134.31,283,-41.00,22.00,-993.00
2024-06-07 15:04:11.378547,-2,-1,19,0,0,0,80,82,131,110,64,134.09,283,-45.00,29.00,-1023.00
2024-06-07 15:04:11.392287,-2,-1,25,0,0,0,80,82,132,110,64,134.43,283,-41.00,37.00,-1004.00
2024-06-07 15:04:11.584529,-2,-2,31,0,0,0,80,82,132,110,64,134.24,283,-28.00,38.00,-997.00
2024-06-07 15:04:11.596249,-2,-2,37,0,0,0,80,82,131,110,63,134.62,283,-27.00,31.00,-973.00
2024-06-07 15:04:11.793247,-2,-1,43,0,0,0,80,82,130,110,63,134.44,283,-27.00,58.00,-991.00
2024-06-07 15:04:11.800321,-1,-2,49,0,0,0,80,82,130,110,63,134.13,284,-20.00,65.00,-1012.00
2024-06-07 15:04:11.992887,0,-2,55,0,0,0,80,82,130,110,63,134.55,284,-8.00,59.00,-996.00
2024-06-07 15:04:12.004267,0,-3,61,0,0,0,80,82,130,110,63,134.80,284,-3.00,59.00,-983.00
2024-06-07 15:04:12.197472,0,-3,67,0,0,0,80,82,131,110,63,134.43,284,-14.00,75.00,-1023.00
2024-06-07 15:04:12.208210,0,-4,73,0,0,0,80,82,130,110,63,134.55,284,5.00,55.00,-999.00
2024-06-07 15:04:12.310233,0,-3,79,0,0,0,80,82,130,110,63,134.35,284,19.00,61.00,-1012.00
2024-06-07 15:04:12.505062,0,-2,85,0,0,0,80,82,130,110,63,134.52,284,23.00,59.00,-986.00
2024-06-07 15:04:12.514322,1,-2,92,0,0,0,80,82,131,110,63,134.47,284,26.00,57.00,-998.00
2024-06-07 15:04:12.709850,1,-2,98,0,0,0,80,82,130,110,63,134.35,284,37.00,49.00,-992.00
2024-06-07 15:04:12.719223,2,-2,104,0,0,0,80,82,131,110,63,134.19,284,59.00,43.00,-1024.00
2024-06-07 15:04:12.916496,3,-2,111,0,0,0,80,82,132,110,63,134.75,285,70.00,25.00,-998.00
2024-06-07 15:04:12.923228,3,-1,117,0,0,0,80,82,132,110,63,134.50,285,48.00,54.00,-992.00
2024-06-07 15:04:13.118600,4,0,123,0,0,0,80,82,132,110,63,134.44,285,76.00,-3.00,-980.00
2024-06-07 15:04:13.129243,4,0,129,0,0,0,80,82,133,110,63,134.24,285,59.00,20.00,-1015.00
2024-06-07 15:04:13.229232,4,0,135,0,0,0,80,82,133,110,63,134.57,285,74.00,2.00,-998.00
2024-06-07 15:04:13.425815,4,0,141,0,0,0,80,82,133,110,63,134.38,285,73.00,-1.00,-984.00
2024-06-07 15:04:13.433254,4,1,146,0,0,0,80,82,134,110,63,134.38,285,59.00,-3.00,-983.00
2024-06-07 15:04:13.631733,3,1,152,0,0,0,80,83,132,110,63,134.34,285,77.00,-13.00,-978.00
2024-06-07 15:04:13.637155,3,2,158,0,0,0,80,83,133,110,63,134.04,285,69.00,-19.00,-989.00
2024-06-07 15:04:13.835329,3,2,164,0,0,0,80,83,134,110,63,134.51,285,70.00,-14.00,-985.00
2024-06-07 15:04:13.841125,3,2,170,0,0,0,80,83,133,110,63,134.55,286,69.00,-14.00,-988.00
2024-06-07 15:04:14.040166,3,2,176,0,0,0,80,83,134,110,63,134.56,286,72.00,-1.00,-1025.00
2024-06-07 15:04:14.045276,3,2,-177,0,0,0,80,83,133,110,63,134.26,286,66.00,-23.00,-979.00
2024-06-07 15:04:14.147233,3,2,-171,0,0,0,80,83,133,110,63,134.31,286,60.00,-28.00,-983.00
2024-06-07 15:04:14.347689,3,2,-165,0,0,0,80,83,133,110,63,134.40,286,67.00,-44.00,-1013.00
2024-06-07 15:04:14.351123,3,2,-159,0,0,0,80,83,134,110,63,134.58,286,66.00,-46.00,-992.00
2024-06-07 15:04:14.552981,3,2,-153,0,0,0,80,83,134,110,63,134.50,286,48.00,-47.00,-1020.00
2024-06-07 15:04:14.555330,3,3,-147,0,0,0,80,82,134,110,63,134.78,286,62.00,-53.00,-1000.00
2024-06-07 15:04:14.657136,2,3,-141,0,0,0,80,82,134,110,63,134.62,286,32.00,-50.00,-1006.00
2024-06-07 15:04:14.708075,1,4,-135,0,0,0,80,82,133,110,63,134.64,286,30.00,-53.00,-1016.00
2024-06-07 15:04:14.810089,1,3,-129,0,0,0,80,82,134,110,63,134.52,287,30.00,-44.00,-992.00
2024-06-07 15:04:14.912055,0,3,-122,0,0,0,80,82,134,110,63,134.44,287,8.00,-50.00,-1009.00
2024-06-07 15:04:15.014189,0,3,-116,0,0,0,80,82,134,110,63,134.53,287,6.00,-64.00,-1002.00
2024-06-07 15:04:15.117653,0,3,-110,0,0,0,80,82,133,110,63,134.48,287,-1.00,-56.00,-986.00
2024-06-07 15:04:15.218053,0,3,-104,0,0,0,80,82,135,110,63,134.56,287,-8.00,-56.00,-1007.00
2024-06-07 15:04:15.320365,0,3,-98,0,0,0,80,82,134,110,63,134.15,287,-25.00,-55.00,-977.00
2024-06-07 15:04:15.473697,-1,3,-93,0,0,0,80,82,134,110,63,134.38,287,-39.00,-50.00,-1004.00
2024-06-07 15:04:15.524890,-2,2,-81,0,0,0,80,82,135,110,63,134.42,287,-31.00,-58.00,-982.00
2024-06-07 15:04:15.678561,-2,2,-75,0,0,0,80,82,133,120,63,134.63,287,-58.00,-39.00,-970.00
2024-06-07 15:04:15.728691,-2,2,-68,0,0,0,80,82,133,110,63,134.23,288,-34.00,-31.00,-1005.00
2024-06-07 15:04:15.884207,-2,2,-62,0,0,0,80,82,134,110,63,134.59,288,-43.00,-18.00,-999.00
2024-06-07 15:04:15.932136,-2,1,-56,0,0,0,80,82,135,120,63,134.38,288,-50.00,-25.00,-1007.00
2024-06-07 15:04:16.034037,-2,0,-50,0,0,0,80,82,134,120,63,134.32,288,-42.00,-29.00,-1015.00
2024-06-07 15:04:16.193294,-2,0,-44,0,0,0,80,82,133,120,63,134.56,288,-56.00,-23.00,-992.00
2024-06-07 15:04:16.238007,-3,0,-38,0,0,0,80,82,134,120,63,134.15,288,-57.00,-7.00,-998.00
2024-06-07 15:04:16.396158,-3,0,-32,0,0,0,80,82,134,120,63,134.57,288,-62.00,-23.00,-988.00
2024-06-07 15:04:16.452241,-3,0,-27,0,0,0,80,82,135,120,63,134.23,288,-43.00,-8.00,-1007.00
2024-06-07 15:04:16.544567,-2,0,-21,0,0,0,80,82,134,120,63,134.14,288,-42.00,0.00,-1016.00
2024-06-07 15:04:16.705566,-2,0,-16,0,0,0,80,82,132,120,63,134.43,288,-65.00,-4.00,-999.00
2024-06-07 15:04:16.747863,-2,0,-10,0,0,0,80,82,133,110,63,134.10,289,-47.00,5.00,-1007.00
2024-06-07 15:04:16.908279,-3,0,-4,0,0,0,80,82,132,110,63,134.41,289,-59.00,24.00,-1018.00
2024-06-07 15:04:16.952436,-3,0,0,0,0,0,80,82,133,110,63,134.20,289,-71.00,22.00,-991.00
2024-06-07 15:04:17.113086,-3,0,4,0,0,0,80,82,132,110,63,134.45,289,-50.00,27.00,-1008.00
2024-06-07 15:04:17.155969,-3,-1,8,0,0,0,80,82,132,110,63,134.26,289,-68.00,27.00,-1011.00
2024-06-07 15:04:17.317640,-3,-1,10,0,0,0,80,82,131,110,63,134.36,289,-60.00,32.00,-995.00
2024-06-07 15:04:17.360111,-3,-1,12,0,0,0,80,82,130,110,63,134.04,289,-54.00,31.00,-1006.00
2024-06-07 15:04:17.522386,-3,-1,13,0,0,0,80,82,131,110,63,134.23,289,-63.00,29.00,-992.00
2024-06-07 15:04:17.564642,-2,-1,15,0,0,0,79,82,131,110,63,134.28,289,-59.00,38.00,-992.00
2024-06-07 15:04:17.733615,-2,-1,16,0,0,0,79,82,130,110,62,134.40,289,-38.00,29.00,-1011.00
2024-06-07 15:04:17.767997,-2,-2,16,0,0,0,79,82,130,110,62,134.33,290,-58.00,33.00,-1017.00
2024-06-07 15:04:17.932663,-2,-1,16,0,0,0,79,82,129,110,62,134.30,290,-55.00,26.00,-1001.00
2024-06-07 15:04:17.971983,-2,-1,16,0,0,0,79,82,130,110,62,134.61,290,-46.00,9.00,-1009.00
2024-06-07 15:04:18.137104,-3,0,16,0,0,0,79,82,129,110,62,134.13,290,-51.00,19.00,-994.00
2024-06-07 15:04:18.175977,-2,0,16,0,0,0,79,82,129,110,62,134.30,290,-28.00,16.00,-997.00
2024-06-07 15:04:18.342193,-2,-1,16,0,0,0,79,82,129,110,62,134.34,290,-52.00,26.00,-999.00
2024-06-07 15:04:18.379986,-2,-1,16,0,0,0,79,82,128,110,62,134.27,290,-43.00,25.00,-1003.00
2024-06-07 15:04:18.546885,-2,-1,16,0,0,0,79,82,129,110,62,134.51,290,-36.00,24.00,-1004.00
2024-06-07 15:04:18.583933,-2,-1,16,0,0,0,80,82,129,110,62,134.08,290,-46.00,25.00,-1002.00
2024-06-07 15:04:18.751579,-2,-1,16,0,0,0,80,82,130,110,62,134.21,290,-61.00,33.00,-1007.00
2024-06-07 15:04:18.788017,-2,-1,16,0,0,0,80,82,130,110,62,134.37,291,-44.00,7.00,-996.00
2024-06-07 15:04:18.956882,-2,-1,16,0,0,0,80,82,129,110,62,134.14,291,-60.00,21.00,-993.00
2024-06-07 15:04:18.957000,-2,0,16,0,0,0,80,82,130,110,62,134.29,291,-61.00,15.00,-994.00
2024-06-07 15:04:19.043024,-2,0,16,0,0,0,80,82,129,110,62,134.64,291,-59.00,17.00,-1006.00
2024-06-07 15:04:19.160647,-3,0,16,0,0,0,80,82,130,110,62,134.50,291,-38.00,19.00,-987.00
2024-06-07 15:04:19.246912,-2,0,16,0,0,0,80,82,130,110,62,134.34,291,-28.00,7.00,-986.00
2024-06-07 15:04:19.365970,-2,0,16,0,0,0,80,82,130,110,62,134.32,291,-39.00,20.00,-998.00
2024-06-07 15:04:19.450896,-2,0,16,0,0,0,80,82,130,110,62,134.35,291,-28.00,35.00,-1013.00
2024-06-07 15:04:19.571191,-1,0,16,0,0,0,80,82,130,110,62,133.93,291,-44.00,28.00,-999.00
2024-06-07 15:04:19.654956,-1,0,16,0,0,0,80,82,130,110,62,134.20,291,-35.00,21.00,-1008.00
2024-06-07 15:04:19.756822,-1,-1,16,0,0,0,80,82,129,110,62,134.01,292,-49.00,24.00,-995.00
2024-06-07 15:04:19.877737,-2,0,15,0,0,0,80,82,131,110,62,134.23,292,-52.00,45.00,-1003.00
2024-06-07 15:04:19.960797,-1,0,9,0,0,0,80,82,130,110,62,134.34,292,-59.00,30.00,-1010.00
2024-06-07 15:04:20.082575,-2,-1,3,0,0,0,80,82,129,110,62,134.20,292,-58.00,12.00,-988.00
2024-06-07 15:04:20.164961,-2,0,-2,0,0,0,80,82,130,110,62,134.27,292,-44.00,-3.00,-983.00
2024-06-07 15:04:20.287365,-2,0,-7,0,0,0,80,82,129,110,62,134.10,292,-68.00,5.00,-988.00
2024-06-07 15:04:20.368757,-2,0,-13,0,0,0,80,82,129,110,62,134.38,292,-60.00,4.00,-1008.00
2024-06-07 15:04:20.493997,-2,0,-19,0,0,0,80,82,129,110,62,134.22,292,-55.00,-13.00,-1012.00
2024-06-07 15:04:20.572712,-3,0,-25,0,0,0,80,82,129,110,62,134.29,292,-55.00,-17.00,-992.00
2024-06-07 15:04:20.697053,-2,1,-30,0,0,0,80,82,129,110,62,134.51,292,-47.00,-15.00,-1017.00
2024-06-07 15:04:20.776771,-2,1,-36,0,0,0,80,82,130,110,62,134.34,293,-52.00,-12.00,-1007.00
2024-06-07 15:04:20.901181,-2,2,-41,0,0,0,80,82,131,110,62,134.18,293,-54.00,-23.00,-998.00
2024-06-07 15:04:20.980700,-2,2,-46,0,0,0,80,82,129,110,62,134.37,293,-51.00,-21.00,-1003.00
2024-06-07 15:04:21.083027,-2,2,-52,0,0,0,80,82,131,110,62,134.35,293,-37.00,-33.00,-989.00
2024-06-07 15:04:21.208993,-2,2,-57,0,0,0,80,82,131,110,62,134.58,293,-38.00,-28.00,-998.00
2024-06-07 15:04:21.287877,-1,2,-63,0,0,0,80,82,131,110,62,134.32,293,-40.00,-19.00,-1015.00
2024-06-07 15:04:21.413841,-1,2,-69,0,0,0,80,82,131,110,62,134.22,293,-36.00,-43.00,-997.00
2024-06-07 15:04:21.492663,-1,2,-75,0,0,0,80,82,133,110,62,134.27,293,-39.00,-42.00,-997.00
2024-06-07 15:04:21.595209,-1,3,-81,0,0,0,79,82,133,110,62,134.55,293,-30.00,-38.00,-988.00
2024-06-07 15:04:21.697430,-1,3,-87,0,0,0,79,82,134,110,62,134.58,293,-18.00,-41.00,-979.00
2024-06-07 15:04:21.798049,-1,3,-93,0,0,0,79,82,133,110,62,134.45,294,-28.00,-44.00,-974.00
2024-06-07 15:04:21.898682,0,3,-98,0,0,0,79,82,134,110,62,134.50,294,0.00,-48.00,-1012.00
2024-06-07 15:04:22.000764,0,2,-104,0,0,0,79,82,134,110,62,134.69,294,-1.00,-51.00,-990.00
2024-06-07 15:04:22.129680,0,2,-110,0,0,0,79,82,133,110,62,134.41,294,6.00,-46.00,-999.00
2024-06-07 15:04:22.204812,0,3,-116,0,0,0,79,82,134,120,62,134.47,294,15.00,-56.00,-996.00
2024-06-07 15:04:22.334506,0,3,-121,0,0,0,79,82,135,120,62,134.37,294,9.00,-47.00,-1006.00
2024-06-07 15:04:22.408671,1,2,-127,0,0,0,79,82,133,120,62,134.36,294,18.00,-53.00,-998.00
2024-06-07 15:04:22.540501,1,3,-133,0,0,0,79,82,134,120,62,134.54,294,30.00,-44.00,-1005.00
2024-06-07 15:04:22.612624,1,3,-139,0,0,0,80,82,134,120,62,134.58,294,32.00,-38.00,-994.00
2024-06-07 15:04:22.714650,2,2,-145,0,0,0,80,82,135,120,62,134.28,294,32.00,-43.00,-997.00
2024-06-07 15:04:22.765630,2,2,-151,0,0,0,80,82,136,120,62,134.26,295,55.00,-41.00,-1004.00
2024-06-07 15:04:22.949805,2,2,-157,0,0,0,80,82,134,120,62,134.76,295,46.00,-44.00,-964.00
2024-06-07 15:04:22.970096,3,2,-163,0,0,0,80,82,134,120,62,134.39,295,65.00,-29.00,-997.00
2024-06-07 15:04:23.153761,3,1,-169,0,0,0,80,82,134,110,62,134.39,295,65.00,-30.00,-998.00
2024-06-07 15:04:23.173631,4,1,-175,0,0,0,80,82,133,110,62,134.24,295,75.00,-22.00,-989.00
2024-06-07 15:04:23.359124,4,1,177,0,0,0,80,82,134,110,62,134.58,295,72.00,1.00,-1006.00
2024-06-07 15:04:23.380286,4,0,171,0,0,0,80,82,134,110,62,134.29,295,75.00,6.00,-981.00
2024-06-07 15:04:23.479522,4,0,165,0,0,0,80,82,133,110,62,134.21,295,97.00,1.00,-1005.00
2024-06-07 15:04:23.665746,4,0,159,0,0,0,80,82,134,110,61,134.48,295,79.00,20.00,-1008.00
2024-06-07 15:04:23.683671,4,-1,153,0,0,0,80,82,133,110,61,134.55,295,83.00,11.00,-1005.00
2024-06-07 15:04:23.870690,4,-1,147,0,0,0,80,82,134,110,61,134.47,296,86.00,6.00,-1014.00
2024-06-07 15:04:23.887492,4,-1,141,0,0,0,80,82,135,110,61,134.70,296,67.00,31.00,-994.00
2024-06-07 15:04:24.075301,5,-1,135,0,0,0,80,82,134,110,61,134.65,296,42.00,42.00,-979.00
2024-06-07 15:04:24.091596,4,-1,129,0,0,0,80,82,132,110,61,134.46,296,39.00,54.00,-998.00
2024-06-07 15:04:24.280382,3,-2,123,0,0,0,80,82,133,110,61,134.19,296,33.00,51.00,-988.00
2024-06-07 15:04:24.295503,2,-3,117,0,0,0,80,82,132,110,61,134.25,296,52.00,47.00,-1013.00
2024-06-07 15:04:24.485831,2,-3,111,0,0,0,80,82,133,110,61,134.26,296,47.00,45.00,-1010.00
2024-06-07 15:04:24.499449,2,-2,105,0,0,0,80,82,133,110,61,134.34,296,50.00,44.00,-999.00
2024-06-07 15:04:24.601641,2,-2,99,0,0,0,81,82,131,110,61,134.29,296,25.00,67.00,-1002.00
2024-06-07 15:04:24.703535,2,-2,93,0,0,0,81,82,132,110,61,134.45,296,28.00,60.00,-1002.00
2024-06-07 15:04:24.895941,1,-2,87,0,0,0,81,82,130,110,61,134.55,297,32.00,41.00,-1010.00
2024-06-07 15:04:24.907522,1,-3,82,0,0,0,81,82,130,110,61,134.41,297,28.00,55.00,-1007.00
2024-06-07 15:04:25.009484,1,-2,76,0,0,0,81,82,131,110,61,134.40,297,16.00,62.00,-982.00
2024-06-07 15:04:25.202543,1,-2,70,0,0,0,81,82,130,110,61,134.57,297,11.00,51.00,-992.00
2024-06-07 15:04:25.213403,1,-2,64,0,0,0,81,82,130,110,61,134.26,297,13.00,54.00,-1008.00
2024-06-07 15:04:25.407453,1,-2,58,0,0,0,81,82,130,110,61,134.45,297,12.00,32.00,-996.00
2024-06-07 15:04:25.417430,1,-2,53,0,0,0,81,82,129,110,61,134.30,297,3.00,45.00,-991.00
2024-06-07 15:04:25.611335,0,-2,47,0,0,0,81,82,129,110,61,134.61,297,-2.00,46.00,-980.00
2024-06-07 15:04:25.621465,0,-2,41,0,0,0,80,82,131,110,61,134.35,297,-12.00,46.00,-995.00
2024-06-07 15:04:25.723461,0,-2,36,0,0,0,80,82,129,110,61,134.17,297,-10.00,36.00,-990.00
2024-06-07 15:04:25.919478,0,-2,31,0,0,0,80,82,131,110,61,134.38,298,-5.00,43.00,-1003.00
2024-06-07 15:04:25.927470,0,-2,28,0,0,0,80,82,130,110,61,134.38,298,-10.00,42.00,-1014.00
2024-06-07 15:04:26.124214,0,-2,25,0,0,0,80,82,130,110,61,134.39,298,-27.00,34.00,-990.00
2024-06-07 15:04:26.131343,0,-2,23,0,0,0,80,82,131,110,61,134.61,298,-26.00,40.00,-975.00
2024-06-07 15:04:26.182436,0,-2,21,0,0,0,80,82,130,110,61,134.54,298,-29.00,41.00,-984.00
2024-06-07 15:04:26.284775,-1,-2,20,0,0,0,80,82,130,110,61,134.26,298,-38.00,39.00,-994.00
2024-06-07 15:04:26.431568,-1,-2,18,0,0,0,80,82,131,110,61,134.36,298,-27.00,39.00,-1001.00
2024-06-07 15:04:26.489690,-1,-2,17,0,0,0,80,82,130,110,61,134.10,298,-27.00,42.00,-1001.00
2024-06-07 15:04:26.636394,-1,-2,17,0,0,0,80,83,132,110,61,134.20,298,-27.00,32.00,-1007.00
2024-06-07 15:04:26.693530,-1,-2,17,0,0,0,80,83,131,110,61,134.54,298,-40.00,28.00,-1003.00
2024-06-07 15:04:26.841253,-1,-1,16,0,0,0,80,83,133,110,61,134.68,299,-30.00,22.00,-1002.00
2024-06-07 15:04:26.900696,-1,-1,16,0,0,0,80,83,131,110,61,134.50,299,-41.00,20.00,-987.00
2024-06-07 15:04:26.999558,-2,-1,16,0,0,0,80,83,130,110,61,134.72,299,-37.00,30.00,-997.00
2024-06-07 15:04:27.148441,-2,-1,16,0,0,0,80,83,133,110,61,134.50,299,-32.00,16.00,-994.00
2024-06-07 15:04:27.203426,-2,-1,16,0,0,0,80,83,133,110,61,134.60,299,-36.00,27.00,-1021.00
2024-06-07 15:04:27.353357,-2,-1,16,0,0,0,80,83,133,110,61,134.41,299,-39.00,20.00,-1000.00
2024-06-07 15:04:27.407476,-2,-1,16,0,0,0,80,83,133,110,61,134.26,299,-38.00,26.00,-985.00
2024-06-07 15:04:27.557971,-2,-1,16,0,0,0,80,83,133,110,61,134.29,299,-31.00,42.00,-1003.00
2024-06-07 15:04:27.611281,-1,-1,16,0,0,0,79,81,133,110,61,134.54,299,-51.00,35.00,-982.00
2024-06-07 15:04:27.762684,-1,-1,16,0,0,0,79,81,133,110,61,134.67,299,-27.00,34.00,-1025.00
2024-06-07 15:04:27.815349,-2,-2,16,0,0,0,79,81,132,110,61,134.70,300,-35.00,24.00,-998.00
2024-06-07 15:04:27.966679,-2,-2,16,0,0,0,79,81,134,110,61,134.34,300,-48.00,38.00,-989.00
2024-06-07 15:04:28.019588,-2,-2,16,0,0,0,79,81,133,110,61,134.04,300,-42.00,29.00,-1012.00
2024-06-07 15:04:28.121447,-2,-1,16,0,0,0,79,81,133,110,61,134.29,300,-32.00,17.00,-1005.00
2024-06-07 15:04:28.274708,-2,-2,16,0,0,0,79,81,134,110,61,134.48,300,-43.00,25.00,-1017.00
2024-06-07 15:04:28.325433,-2,-1,16,0,0,0,79,81,134,110,61,134.71,300,-46.00,12.00,-984.00
2024-06-07 15:04:28.434715,-2,-1,16,0,0,0,79,81,133,110,61,134.31,300,-54.00,8.00,-983.00
2024-06-07 15:04:28.529288,-3,-1,16,0,0,0,79,81,135,110,61,134.25,300,-55.00,12.00,-994.00
2024-06-07 15:04:28.631246,-2,-1,16,0,0,0,80,81,136,110,61,134.46,300,-62.00,25.00,-1648.00
2024-06-07 15:04:28.733180,0,-2,16,0,0,-5,80,81,144,120,61,134.42,300,-100.00,53.00,-1675.00
2024-06-07 15:04:28.835202,0,-17,16,0,-1,-12,80,81,300,130,61,134.68,301,-39.00,555.00,-1066.00
2024-06-07 15:04:28.991191,0,-117,16,0,-8,-10,80,81,6553,140,61,134.72,301,-28.00,601.00,-1049.00
2024-06-07 15:04:29.040265,-2,120,16,0,-10,4,80,81,264,140,61,135.08,301,-26.00,504.00,-1190.00
2024-06-07 15:04:29.142256,-1,15,22,-1,-4,12,80,81,148,130,61,134.23,301,-90.00,-129.00,-1637.00
2024-06-07 15:04:29.300132,0,2,27,-2,-4,9,80,81,141,120,61,134.63,301,-61.00,62.00,-1391.00
2024-06-07 15:04:29.346241,-3,2,30,-3,-3,5,80,81,138,110,61,134.52,301,-78.00,43.00,-1262.00
2024-06-07 15:04:29.448248,-3,0,26,-3,-2,2,80,81,138,110,61,134.60,301,-53.00,22.00,-1160.00
2024-06-07 15:04:29.550228,-4,0,17,-3,-2,1,80,81,136,110,61,134.33,301,-36.00,28.00,-1113.00
2024-06-07 15:04:29.652220,-4,0,15,-2,-2,0,80,81,137,110,61,134.79,301,-13.00,-21.00,-1131.00
2024-06-07 15:04:29.810118,-3,0,15,-2,-1,0,80,81,139,110,61,134.55,301,-55.00,12.00,-1078.00
2024-06-07 15:04:29.810429,-3,0,16,-2,-1,0,80,81,142,110,61,134.94,302,-40.00,21.00,-1035.00
2024-06-07 15:04:29.907246,-3,0,16,-2,-1,0,80,81,142,110,61,134.41,302,-40.00,18.00,-1003.00
2024-06-07 15:04:30.014511,-3,-1,16,-1,-1,0,80,81,144,110,61,134.37,302,-33.00,15.00,-963.00
2024-06-07 15:04:30.112193,-2,0,16,-1,-1,0,80,81,144,110,61,134.72,302,-29.00,10.00,-961.00
2024-06-07 15:04:30.220164,-3,0,16,-1,-1,0,80,81,146,110,61,134.27,302,-58.00,28.00,-949.00
2024-06-07 15:04:30.315184,-4,0,16,-1,-1,0,80,81,144,110,61,134.60,302,-35.00,7.00,-952.00
2024-06-07 15:04:30.424747,-5,0,16,-1,0,0,80,81,146,110,61,134.44,302,-38.00,18.00,-955.00
2024-06-07 15:04:30.519411,-4,0,16,-1,0,0,80,81,147,110,61,134.41,302,-38.00,13.00,-943.00
2024-06-07 15:04:30.624362,-3,0,16,0,0,0,80,82,145,110,60,134.52,302,-50.00,22.00,-1013.00
2024-06-07 15:04:30.723210,-3,0,16,0,0,0,80,82,144,110,60,134.61,303,-41.00,21.00,-1013.00
2024-06-07 15:04:30.826198,-3,0,16,0,0,0,80,82,146,110,60,134.63,303,-49.00,22.00,-996.00
2024-06-07 15:04:30.927813,-3,0,16,0,0,0,80,82,144,110,60,134.49,303,-46.00,3.00,-990.00
2024-06-07 15:04:31.029148,-3,0,16,0,0,0,80,82,143,110,60,134.52,303,-50.00,16.00,-984.00
2024-06-07 15:04:31.141803,-3,0,16,0,0,0,80,82,143,110,60,134.55,303,-45.00,6.00,-1005.00
2024-06-07 15:04:31.236665,-3,0,16,0,0,0,80,82,142,110,60,134.43,303,-58.00,11.00,-1020.00
2024-06-07 15:04:31.335842,-3,0,16,0,0,0,80,82,141,110,60,134.11,303,-46.00,12.00,-1016.00
2024-06-07 15:04:31.437169,-3,0,16,0,0,0,80,82,141,110,60,134.46,303,-61.00,8.00,-1007.00
2024-06-07 15:04:31.552001,-3,0,16,0,0,0,80,82,141,110,60,134.23,303,-74.00,10.00,-994.00
2024-06-07 15:04:31.641093,-3,0,16,0,0,0,79,82,141,110,60,134.18,303,-51.00,19.00,-1025.00
2024-06-07 15:04:31.743264,-3,0,16,0,0,0,79,82,142,110,60,134.26,304,-70.00,14.00,-987.00
2024-06-07 15:04:31.858617,-3,0,16,0,0,0,79,82,141,110,60,134.42,304,-54.00,21.00,-1013.00
2024-06-07 15:04:31.947090,-3,0,16,0,0,0,79,82,142,110,60,134.69,304,-49.00,14.00,-1003.00
2024-06-07 15:04:32.063535,-3,0,16,0,0,0,79,82,143,110,60,134.49,304,-57.00,13.00,-989.00
2024-06-07 15:04:32.151236,-2,0,16,0,0,0,79,82,143,110,60,134.42,304,-51.00,9.00,-989.00
2024-06-07 15:04:32.268009,-2,0,16,0,0,0,79,82,143,110,60,134.39,304,-53.00,15.00,-995.00
2024-06-07 15:04:32.355500,-2,0,16,0,0,0,79,82,143,110,60,134.69,304,-56.00,16.00,-987.00
2024-06-07 15:04:32.472351,-2,0,16,0,0,0,79,82,143,110,60,134.53,304,-58.00,12.00,-994.00
2024-06-07 15:04:32.559055,-2,0,16,0,0,0,79,82,143,110,60,134.57,304,-53.00,6.00,-995.00
2024-06-07 15:04:32.661241,-2,0,16,0,0,0,79,82,143,110,59,134.71,304,-47.00,5.00,-995.00
2024-06-07 15:04:32.779334,-2,0,16,0,0,0,79,82,144,110,59,134.68,305,-52.00,7.00,-988.00
2024-06-07 15:04:32.865144,-2,0,16,0,0,0,79,82,144,110,59,134.44,305,-41.00,11.00,-1003.00
2024-06-07 15:04:32.968256,-2,0,16,0,0,0,79,82,143,110,59,134.55,305,-45.00,12.00,-996.00
2024-06-07 15:04:33.087488,-2,0,16,0,0,0,79,82,142,120,59,134.69,305,-54.00,12.00,-1012.00
2024-06-07 15:04:33.171310,-2,0,16,0,0,0,79,82,144,110,59,134.68,305,-59.00,0.00,-985.00
2024-06-07 15:04:33.291268,-2,0,16,0,0,0,79,82,143,110,59,134.46,305,-56.00,-5.00,-984.00
2024-06-07 15:04:33.375091,-2,0,16,0,0,0,79,82,143,110,59,134.21,305,-43.00,-17.00,-1014.00
2024-06-07 15:04:33.426191,-2,0,16,0,0,0,79,82,142,110,59,134.23,305,-45.00,-5.00,-987.00
2024-06-07 15:04:33.598620,-2,0,16,0,0,0,79,82,141,110,59,134.70,305,-58.00,-16.00,-1017.00
2024-06-07 15:04:33.681170,-2,1,16,0,0,0,80,82,141,110,59,134.54,305,-49.00,-16.00,-1016.00
2024-06-07 15:04:33.804326,-2,1,16,0,0,0,80,82,140,110,59,134.62,306,-48.00,-12.00,-1019.00
2024-06-07 15:04:33.885089,-2,1,16,0,0,0,80,82,141,110,59,134.33,306,-43.00,-12.00,-1000.00
2024-06-07 15:04:34.009041,-2,1,16,0,0,0,80,82,142,110,59,134.72,306,-29.00,-14.00,-1009.00
2024-06-07 15:04:34.038283,-1,1,16,0,0,0,80,82,139,110,59,134.56,306,-48.00,-6.00,-974.00
2024-06-07 15:04:34.214190,-1,0,16,0,0,0,80,82,139,110,59,134.27,306,-22.00,-3.00,-1014.00
2024-06-07 15:04:34.242035,-1,0,16,0,0,0,80,82,140,110,59,134.76,306,-23.00,-1.00,-1009.00
2024-06-07 15:04:34.417953,-1,0,16,0,0,0,80,82,141,110,59,134.39,306,-42.00,4.00,-1003.00
2024-06-07 15:04:34.446105,-1,0,16,0,0,0,80,82,139,110,59,134.29,306,-39.00,0.00,-984.00
2024-06-07 15:04:34.622621,-1,0,16,0,0,0,80,82,140,110,59,134.49,306,-36.00,-4.00,-980.00
2024-06-07 15:04:34.649934,-1,0,16,0,0,0,79,82,140,110,59,134.49,306,-43.00,6.00,-1009.00
2024-06-07 15:04:34.752105,-1,0,16,0,0,0,79,82,140,110,59,134.85,307,-35.00,0.00,-1019.00
2024-06-07 15:04:34.931028,-1,0,16,0,0,0,79,82,140,110,59,134.48,307,-23.00,-18.00,-1026.00
2024-06-07 15:04:34.956894,-1,0,16,0,0,0,79,82,140,110,59,134.54,307,-31.00,-9.00,-1022.00
2024-06-07 15:04:35.068051,-1,1,16,0,0,0,79,82,141,110,59,134.46,307,-27.00,-6.00,-975.00
2024-06-07 15:04:35.160953,-1,1,16,0,0,0,79,82,141,110,59,134.89,307,-37.00,-8.00,-1024.00
2024-06-07 15:04:35.262933,0,1,16,0,0,-3,79,82,144,110,59,134.41,307,-35.00,28.00,-1715.00
2024-06-07 15:04:35.441507,0,7,15,0,1,-10,79,82,155,120,59,134.94,307,-46.00,-66.00,-1704.00
2024-06-07 15:04:35.466877,3,90,15,-2,6,-12,79,82,6553,130,59,134.79,307,-73.00,553.00,-1297.00
2024-06-07 15:04:35.647762,0,-146,19,-3,11,1,79,82,6553,140,59,134.84,307,-57.00,673.00,-832.00
2024-06-07 15:04:35.670843,-1,-32,13,-2,5,11,80,82,178,130,59,135.12,307,-65.00,635.00,-1103.00
2024-06-07 15:04:35.851175,2,5,11,-2,5,10,80,82,149,120,59,134.81,308,-76.00,139.00,-1135.00
2024-06-07 15:04:35.874851,-1,-4,8,-3,5,6,80,82,142,110,59,134.43,308,-34.00,-15.00,-1458.00
2024-06-07 15:04:36.057073,-3,-5,9,-3,4,3,80,82,138,110,59,134.49,308,-5.00,-39.00,-1257.00
2024-06-07 15:04:36.078781,-2,-3,16,-2,3,1,80,82,137,100,59,134.58,308,-66.00,34.00,-1130.00
2024-06-07 15:04:36.261747,-2,-2,17,-2,2,0,80,82,136,100,59,134.57,308,-38.00,7.00,-1128.00
2024-06-07 15:04:36.282830,-2,-1,17,-1,2,0,80,82,137,100,59,134.45,308,-30.00,8.00,-1058.00
2024-06-07 15:04:36.466627,-1,-1,17,-1,2,-1,80,82,139,100,59,134.70,308,-42.00,1.00,-981.00
2024-06-07 15:04:36.486892,-1,-1,17,-1,1,-1,80,82,141,110,59,134.37,308,-38.00,5.00,-983.00
2024-06-07 15:04:36.671424,-2,-1,17,-1,1,0,80,82,142,110,59,134.69,308,-41.00,17.00,-970.00
2024-06-07 15:04:36.691970,-1,0,17,-1,1,0,79,82,142,110,59,134.58,308,-36.00,15.00,-973.00
2024-06-07 15:04:36.876218,-1,-1,17,-1,1,0,79,82,145,110,59,134.78,309,-32.00,16.00,-974.00
2024-06-07 15:04:36.895802,-2,-2,17,-1,1,0,79,82,143,110,59,134.40,309,-21.00,12.00,-970.00
2024-06-07 15:04:36.947024,-2,-3,17,0,0,0,79,82,144,110,59,134.68,309,-37.00,20.00,-1000.00
2024-06-07 15:04:37.049017,-2,-2,17,0,0,0,79,82,145,110,59,134.38,309,-34.00,22.00,-980.00
2024-06-07 15:04:37.183283,-2,-2,17,0,0,0,79,82,145,110,59,134.78,309,-21.00,15.00,-986.00
2024-06-07 15:04:37.252920,-1,-2,17,0,0,0,79,82,145,110,59,134.36,309,-29.00,22.00,-991.00
2024-06-07 15:04:37.387357,-1,-2,17,0,0,0,79,82,143,110,59,134.73,309,-36.00,20.00,-1002.00
2024-06-07 15:04:37.456812,-1,-2,17,0,0,0,79,82,141,110,59,134.35,309,-35.00,18.00,-990.00
2024-06-07 15:04:37.592819,-2,-2,17,0,0,0,79,82,142,110,59,134.63,309,-42.00,24.00,-1000.00
2024-06-07 15:04:37.660786,-2,-1,17,0,0,0,79,82,140,110,58,134.58,309,-33.00,17.00,-1004.00
2024-06-07 15:04:37.763084,-2,-1,17,0,0,0,79,82,142,110,58,134.62,310,-29.00,23.00,-1014.00
2024-06-07 15:04:37.899709,-2,-1,17,0,0,0,79,82,139,110,58,134.52,310,-35.00,21.00,-1017.00
2024-06-07 15:04:37.966660,-1,-1,17,0,0,0,79,82,139,110,58,134.49,310,-37.00,28.00,-1010.00
2024-06-07 15:04:38.103851,-1,-1,17,0,0,0,79,82,140,100,58,134.76,310,-45.00,43.00,-1025.00
2024-06-07 15:04:38.170652,-1,-1,17,0,0,0,79,82,139,100,58,134.68,310,-23.00,20.00,-1001.00
2024-06-07 15:04:38.309778,-1,-2,17,0,0,0,79,82,140,100,58,134.59,310,-31.00,22.00,-990.00
2024-06-07 15:04:38.374748,-1,-2,17,0,0,0,79,82,141,100,58,134.86,310,-19.00,29.00,-1013.00
2024-06-07 15:04:38.513692,-1,-1,17,0,0,0,79,82,140,110,58,134.45,310,-33.00,35.00,-1007.00
2024-06-07 15:04:38.578773,-1,-1,17,0,0,0,79,82,140,110,58,134.66,310,-31.00,39.00,-998.00
2024-06-07 15:04:38.680793,-1,-2,17,0,0,0,80,82,139,110,58,134.58,310,-41.00,23.00,-986.00
2024-06-07 15:04:38.822018,-1,-2,17,0,0,0,80,82,140,110,58,134.77,311,-30.00,32.00,-995.00
2024-06-07 15:04:38.884876,-1,-2,17,0,0,0,80,82,139,110,58,134.40,311,-29.00,35.00,-995.00
2024-06-07 15:04:38.986899,-1,-2,16,0,0,0,80,82,138,110,58,134.46,311,-38.00,31.00,-999.00
2024-06-07 15:04:39.088905,-1,-1,16,0,0,0,80,82,141,110,58,134.76,311,-38.00,27.00,-979.00
2024-06-07 15:04:39.231473,-1,-2,16,0,0,0,80,82,141,110,58,134.57,311,-37.00,24.00,-974.00
2024-06-07 15:04:39.292847,-1,-2,16,0,0,0,80,82,140,110,58,134.56,311,-36.00,28.00,-1015.00
2024-06-07 15:04:39.396167,-1,-1,16,0,0,0,80,82,141,110,58,134.52,311,-39.00,35.00,-1012.00
2024-06-07 15:04:39.497633,-1,-1,17,0,0,0,80,82,141,110,58,134.54,311,-34.00,41.00,-1005.00
2024-06-07 15:04:39.598788,-1,-1,16,0,0,0,80,82,140,110,58,134.48,311,-33.00,42.00,-1004.00
2024-06-07 15:04:39.743468,-1,-2,16,0,0,0,80,82,140,110,58,134.96,311,-36.00,35.00,-993.00
