TS,pitch,roll,yaw,vgx,vgy,vgz,templ,temph,tof,h,bat,baro,time,agx,agy,agz
2024-05-17 15:34:46.747353,0,0,-4,0,0,0,77,78,10,0,48,164.48,163,13.00,-4.00,-1000.00
2024-05-17 15:34:46.849403,0,0,-4,0,0,0,77,78,10,0,48,164.69,163,10.00,-4.00,-1002.00
2024-05-17 15:34:47.005135,0,0,-4,0,0,0,77,78,10,0,48,164.62,163,11.00,-4.00,-1000.00
2024-05-17 15:34:47.053363,0,0,-4,0,0,0,77,78,10,0,48,164.30,163,12.00,-4.00,-1000.00
2024-05-17 15:34:47.209512,0,0,-4,0,0,0,77,78,10,0,48,164.43,163,12.00,-4.00,-1000.00
2024-05-17 15:34:47.257214,0,0,-4,0,0,0,77,78,10,0,48,164.37,163,11.00,-4.00,-1001.00
2024-05-17 15:34:47.414454,0,0,-4,0,0,0,77,78,10,0,48,164.53,163,12.00,-4.00,-998.00
2024-05-17 15:34:47.461423,0,0,-4,0,0,0,77,78,10,0,48,164.60,163,11.00,-5.00,-999.00
2024-05-17 15:34:47.619244,0,0,-4,0,0,0,77,79,10,0,48,164.30,163,10.00,-4.00,-999.00
2024-05-17 15:34:47.665623,0,0,-4,0,0,0,77,79,10,0,48,164.30,163,12.00,-4.00,-997.00
2024-05-17 15:34:47.826768,0,0,-4,0,0,0,77,79,10,0,48,164.72,163,11.00,-4.00,-997.00
2024-05-17 15:34:47.869642,0,0,-4,0,0,0,77,79,10,0,48,164.60,163,12.00,-4.00,-997.00
2024-05-17 15:34:48.028787,0,0,-4,0,0,0,77,79,10,0,48,164.79,163,12.00,-2.00,-1000.00
2024-05-17 15:34:48.074390,0,0,-4,0,0,0,77,79,10,0,48,164.42,163,12.00,-4.00,-1001.00
2024-05-17 15:34:48.175370,0,0,-4,0,0,0,77,79,10,0,48,164.69,163,11.00,-3.00,-1000.00
2024-05-17 15:34:48.277350,0,0,-4,0,0,0,77,79,10,0,48,164.61,163,12.00,-4.00,-999.00
2024-05-17 15:34:48.438438,0,0,-4,0,0,0,77,79,10,0,48,164.49,163,11.00,-4.00,-999.00
2024-05-17 15:34:48.482078,0,0,-4,0,0,0,77,79,10,0,48,164.57,163,12.00,-4.00,-1002.00
2024-05-17 15:34:48.643228,0,0,-4,0,0,0,77,79,10,0,48,164.75,163,12.00,-4.00,-998.00
2024-05-17 15:34:48.687618,0,0,-4,0,0,0,77,79,10,0,48,164.44,163,12.00,-5.00,-998.00
2024-05-17 15:34:48.788394,0,0,-4,0,0,0,77,79,10,0,48,164.68,163,11.00,-2.00,-998.00
2024-05-17 15:34:48.890639,0,0,-4,0,0,0,77,79,10,0,48,164.56,163,12.00,-4.00,-999.00
2024-05-17 15:34:49.055295,0,0,-4,0,0,0,77,79,10,0,48,164.55,163,11.00,-5.00,-1002.00
2024-05-17 15:34:49.093296,0,0,-4,0,0,0,77,79,10,0,48,164.53,163,11.00,-4.00,-1001.00
2024-05-17 15:34:49.257630,0,0,-4,0,0,0,77,79,10,0,48,164.82,163,11.00,-6.00,-1001.00
2024-05-17 15:34:49.298052,0,0,-4,0,0,0,77,79,10,0,48,164.45,163,11.00,-4.00,-1000.00
2024-05-17 15:34:49.462395,0,0,-4,0,0,0,77,79,10,0,48,164.48,163,12.00,-5.00,-1000.00
2024-05-17 15:34:49.501629,0,0,-4,0,0,0,77,79,10,0,48,164.60,163,12.00,-5.00,-1001.00
2024-05-17 15:34:49.604364,0,0,-4,0,0,0,77,78,10,0,48,164.58,163,10.00,-5.00,-1002.00
2024-05-17 15:34:49.769821,0,0,-4,0,0,0,77,78,10,0,48,164.65,163,12.00,-5.00,-1001.00
2024-05-17 15:34:49.808324,0,0,-4,0,0,0,77,78,10,0,48,164.44,163,11.00,-4.00,-1001.00
2024-05-17 15:34:49.974406,0,0,-4,0,0,0,77,78,10,0,48,164.35,163,13.00,-4.00,-1001.00
2024-05-17 15:34:49.974686,0,0,-4,0,0,0,77,78,10,0,48,164.38,163,12.00,-3.00,-1003.00
2024-05-17 15:34:50.063496,0,0,-4,0,0,0,77,78,10,0,48,164.38,163,11.00,-4.00,-999.00
2024-05-17 15:34:50.165538,0,0,-4,0,0,0,77,78,10,0,48,164.46,163,11.00,-4.00,-1001.00
2024-05-17 15:34:50.267534,0,0,-4,0,0,0,77,78,10,0,48,164.86,163,12.00,-3.00,-999.00
2024-05-17 15:34:50.369542,0,0,-4,0,0,0,77,78,10,0,48,164.41,163,11.00,-3.00,-997.00
2024-05-17 15:34:50.471115,0,0,-4,0,0,0,77,78,10,0,48,164.68,163,13.00,-4.00,-998.00
2024-05-17 15:34:50.588630,0,0,-4,0,0,0,76,79,10,0,48,164.58,163,12.00,-4.00,-1001.00
2024-05-17 15:34:50.675043,0,0,-4,0,0,0,76,79,10,0,48,164.58,163,10.00,-5.00,-1000.00
2024-05-17 15:34:50.793415,0,0,-4,0,0,0,76,79,10,0,48,164.58,163,10.00,-3.00,-1000.00
2024-05-17 15:34:50.879061,0,0,-4,0,0,0,76,79,10,0,48,164.58,164,2.00,8.00,-1006.00
2024-05-17 15:34:50.998214,0,0,-4,0,0,0,76,79,10,0,48,164.58,164,22.00,-3.00,-983.00
2024-05-17 15:34:51.083289,0,0,-4,0,0,0,76,79,10,0,48,164.58,164,17.00,-10.00,-1145.00
2024-05-17 15:34:51.203053,0,0,-5,0,0,-1,76,79,10,0,48,164.58,164,12.00,-4.00,-1320.00
2024-05-17 15:34:51.287330,0,0,-5,0,0,-3,76,79,10,0,48,164.58,164,24.00,-40.00,-1261.00
2024-05-17 15:34:51.388969,0,0,-5,0,0,-6,76,79,19,0,48,164.95,164,18.00,-42.00,-1297.00
2024-05-17 15:34:51.491430,1,1,-5,0,0,-7,76,79,27,10,48,165.03,164,10.00,-18.00,-1179.00
2024-05-17 15:34:51.592986,1,0,-5,0,0,-7,77,79,35,20,48,164.95,164,3.00,-21.00,-982.00
2024-05-17 15:34:51.715275,0,1,-5,0,0,-7,77,79,44,30,48,165.26,164,2.00,-12.00,-941.00
2024-05-17 15:34:51.797246,0,1,-5,0,0,-6,77,79,52,30,48,165.09,165,3.00,-8.00,-903.00
2024-05-17 15:34:51.898998,0,0,-5,0,0,-5,77,79,58,40,48,165.07,165,8.00,-7.00,-888.00
2024-05-17 15:34:52.022887,0,0,-5,0,0,-4,77,79,63,40,48,165.42,165,4.00,-7.00,-887.00
2024-05-17 15:34:52.103325,0,0,-5,0,0,-3,77,79,69,50,48,165.17,165,6.00,-11.00,-896.00
2024-05-17 15:34:52.228273,0,0,-5,0,0,-2,77,79,73,50,48,165.36,165,6.00,-10.00,-906.00
2024-05-17 15:34:52.309447,0,0,-5,0,0,-1,77,79,75,50,48,165.48,165,9.00,-15.00,-930.00
2024-05-17 15:34:52.409112,0,0,-5,0,0,0,77,79,78,50,48,165.58,165,3.00,-10.00,-936.00
2024-05-17 15:34:52.511368,0,0,-5,0,0,0,77,79,79,60,48,165.66,165,10.00,0.00,-962.00
2024-05-17 15:34:52.612914,0,0,-5,0,0,0,77,80,80,60,48,165.21,165,11.00,-2.00,-975.00
2024-05-17 15:34:52.739659,0,0,-5,0,0,0,77,80,80,60,48,165.32,165,17.00,-12.00,-985.00
2024-05-17 15:34:52.816899,0,0,-5,0,0,0,77,80,80,60,48,165.56,166,8.00,-5.00,-977.00
2024-05-17 15:34:52.944586,0,0,-5,0,0,0,77,80,81,60,48,165.64,166,9.00,-9.00,-995.00
2024-05-17 15:34:53.021879,0,0,-5,0,0,0,77,80,81,60,48,165.58,166,9.00,-5.00,-996.00
2024-05-17 15:34:53.148599,0,0,-5,0,0,0,77,80,81,60,48,165.41,166,21.00,-14.00,-1000.00
2024-05-17 15:34:53.224856,0,0,-5,0,0,0,77,80,82,60,48,165.49,166,18.00,0.00,-991.00
2024-05-17 15:34:53.328045,0,0,-5,0,0,0,77,80,82,60,48,165.49,166,11.00,-4.00,-988.00
2024-05-17 15:34:53.429288,0,0,-5,0,0,0,77,80,82,60,48,165.39,166,10.00,-1.00,-986.00
2024-05-17 15:34:53.480122,0,0,-5,0,0,0,77,80,82,60,48,165.31,166,4.00,-9.00,-992.00
2024-05-17 15:34:53.668302,0,0,-5,0,0,0,77,80,82,60,48,165.59,166,21.00,-11.00,-981.00
2024-05-17 15:34:53.683870,0,0,-5,0,0,0,77,80,82,60,48,165.37,166,16.00,4.00,-989.00
2024-05-17 15:34:53.870857,0,0,-5,0,0,0,77,80,81,60,48,165.19,167,17.00,-5.00,-1000.00
2024-05-17 15:34:53.888106,0,0,-5,0,0,0,77,80,81,60,48,165.64,167,14.00,-9.00,-994.00
2024-05-17 15:34:54.071034,0,0,-5,0,0,0,77,80,81,60,48,165.47,167,7.00,-3.00,-998.00
2024-05-17 15:34:54.093427,0,0,-5,0,0,0,77,80,80,60,48,165.35,167,8.00,-4.00,-994.00
2024-05-17 15:34:54.195565,0,0,-5,0,0,0,77,80,80,60,48,165.49,167,21.00,-6.00,-989.00
2024-05-17 15:34:54.295980,0,0,-5,0,0,0,77,80,79,60,48,165.10,167,8.00,5.00,-997.00
2024-05-17 15:34:54.479879,0,0,-5,0,0,0,77,80,79,60,48,165.39,167,11.00,-2.00,-998.00
2024-05-17 15:34:54.499930,0,0,-5,0,0,0,77,80,79,60,48,165.49,167,13.00,0.00,-1000.00
2024-05-17 15:34:54.687196,0,0,-5,0,0,0,76,79,79,60,48,165.51,167,12.00,3.00,-998.00
2024-05-17 15:34:54.704663,0,0,-5,0,0,0,76,79,78,60,48,165.20,167,9.00,1.00,-1007.00
2024-05-17 15:34:54.890872,1,0,-5,0,0,0,76,79,78,60,48,165.38,168,9.00,4.00,-1023.00
2024-05-17 15:34:54.908015,1,0,-5,0,0,0,76,79,78,60,48,165.53,168,14.00,-1.00,-1010.00
2024-05-17 15:34:55.096313,1,0,-5,0,0,0,76,79,78,60,48,165.41,168,14.00,10.00,-989.00
2024-05-17 15:34:55.111861,1,0,-5,0,0,0,76,79,78,60,48,165.80,168,22.00,8.00,-1008.00
2024-05-17 15:34:55.299239,1,0,-5,0,0,0,76,79,78,60,48,165.37,168,15.00,0.00,-992.00
2024-05-17 15:34:55.315917,1,0,-5,0,0,0,76,79,77,60,48,165.47,168,22.00,8.00,-999.00
2024-05-17 15:34:55.504152,1,0,-5,0,0,0,76,79,78,60,48,165.58,168,24.00,1.00,-1005.00
2024-05-17 15:34:55.519928,1,0,-5,0,0,0,76,79,77,60,48,165.46,168,15.00,1.00,-1002.00
2024-05-17 15:34:55.708722,1,0,-5,0,0,0,76,79,77,60,48,165.46,168,15.00,2.00,-1002.00
2024-05-17 15:34:55.723871,1,0,-5,0,0,0,76,79,78,60,48,165.60,168,16.00,-5.00,-994.00
2024-05-17 15:34:55.913533,1,0,-5,0,0,0,76,79,78,60,48,165.54,169,20.00,1.00,-999.00
2024-05-17 15:34:55.927792,1,0,-5,0,0,0,76,79,78,60,48,165.29,169,18.00,-5.00,-991.00
2024-05-17 15:34:56.030246,1,0,-5,0,0,0,76,79,78,60,48,165.35,169,26.00,7.00,-998.00
2024-05-17 15:34:56.131944,1,0,-5,0,0,0,76,79,78,60,48,165.55,169,22.00,-7.00,-1001.00
2024-05-17 15:34:56.322977,1,0,-5,0,0,0,76,79,78,60,48,165.67,169,24.00,0.00,-1031.00
2024-05-17 15:34:56.335757,1,0,-5,0,0,0,76,79,79,60,48,165.67,169,23.00,2.00,-1105.00
2024-05-17 15:34:56.527784,1,0,-5,0,0,-1,76,79,81,60,48,165.29,169,30.00,4.00,-1102.00
2024-05-17 15:34:56.539897,1,0,-5,0,0,-2,76,79,83,60,48,165.57,169,17.00,2.00,-1091.00
2024-05-17 15:34:56.732883,1,0,-5,0,0,-3,76,78,86,60,48,165.37,169,29.00,-10.00,-1081.00
2024-05-17 15:34:56.744043,1,0,-5,0,0,-4,76,78,91,70,48,165.70,169,13.00,2.00,-1058.00
2024-05-17 15:34:56.937365,1,0,-5,0,0,-4,76,78,95,70,48,165.72,170,24.00,-2.00,-1047.00
2024-05-17 15:34:56.947722,1,0,-5,0,0,-5,76,78,100,80,48,165.95,170,21.00,0.00,-1021.00
2024-05-17 15:34:57.146408,1,0,-5,0,0,-5,76,78,106,80,48,165.62,170,33.00,5.00,-1017.00
2024-05-17 15:34:57.146487,1,0,-5,0,0,-5,76,78,111,90,48,165.88,170,23.00,8.00,-1008.00
2024-05-17 15:34:57.203174,1,0,-5,0,0,-5,76,78,117,90,48,165.65,170,23.00,4.00,-1000.00
2024-05-17 15:34:57.347771,1,0,-5,0,0,-5,76,78,123,100,48,165.77,170,18.00,6.00,-988.00
2024-05-17 15:34:57.408385,1,0,-5,0,0,-5,76,78,129,110,48,165.83,170,16.00,2.00,-976.00
2024-05-17 15:34:57.509836,1,0,-5,0,0,-5,76,78,134,110,48,166.05,170,19.00,8.00,-975.00
2024-05-17 15:34:57.655214,1,0,-5,0,0,-4,76,78,140,120,48,166.05,170,11.00,9.00,-980.00
2024-05-17 15:34:57.712635,1,0,-5,0,0,-4,76,78,145,120,48,166.00,170,13.00,7.00,-964.00
2024-05-17 15:34:57.866025,1,0,-5,0,0,-4,76,78,150,130,48,166.18,171,20.00,-2.00,-951.00
2024-05-17 15:34:57.916623,1,0,-5,0,0,-4,76,78,154,130,48,166.41,171,16.00,7.00,-962.00
2024-05-17 15:34:58.064808,1,0,-5,0,0,-3,76,78,158,130,48,166.25,171,16.00,0.00,-966.00
2024-05-17 15:34:58.120575,1,0,-5,0,0,-3,76,78,162,140,48,166.15,171,23.00,-3.00,-957.00
2024-05-17 15:34:58.268554,1,0,-5,0,0,-3,76,78,165,140,48,166.69,171,16.00,1.00,-961.00
2024-05-17 15:34:58.324766,1,0,-5,0,0,-2,76,78,168,140,48,166.45,171,0.00,4.00,-975.00
2024-05-17 15:34:58.473441,1,0,-5,0,0,-2,76,78,170,150,48,166.12,171,14.00,4.00,-975.00
2024-05-17 15:34:58.529146,1,0,-5,0,0,-2,76,78,173,150,48,166.49,171,25.00,-2.00,-970.00
2024-05-17 15:34:58.682739,1,0,-5,0,0,-1,76,77,174,150,48,166.29,171,22.00,0.00,-968.00
2024-05-17 15:34:58.732612,1,0,-5,0,0,-1,76,77,176,150,48,166.56,171,20.00,1.00,-977.00
2024-05-17 15:34:58.834684,1,0,-5,0,0,-1,76,77,178,150,48,166.25,172,22.00,1.00,-975.00
2024-05-17 15:34:58.991335,1,0,-5,0,0,-1,76,77,179,160,48,166.39,172,19.00,-2.00,-973.00
2024-05-17 15:34:59.040813,1,0,-5,0,0,0,76,77,180,160,48,166.73,172,16.00,-7.00,-961.00
2024-05-17 15:34:59.141629,1,0,-4,0,0,0,76,77,180,160,48,166.25,172,16.00,-1.00,-956.00
2024-05-17 15:34:59.242911,1,0,-4,0,0,0,76,77,181,160,48,166.59,172,24.00,2.00,-975.00
2024-05-17 15:34:59.399618,1,0,-4,0,0,0,76,77,181,160,48,166.35,172,19.00,-3.00,-978.00
2024-05-17 15:34:59.446655,1,0,-4,0,0,0,76,77,181,160,48,166.67,172,24.00,-5.00,-976.00
2024-05-17 15:34:59.549617,1,0,-4,0,0,0,76,77,181,160,48,166.30,172,28.00,2.00,-992.00
2024-05-17 15:34:59.702308,2,0,-4,0,0,0,75,78,181,160,48,166.26,172,32.00,0.00,-982.00
2024-05-17 15:34:59.755822,2,0,-4,0,0,0,75,78,181,160,48,166.42,172,35.00,4.00,-1001.00
2024-05-17 15:34:59.855975,2,0,-4,0,0,0,75,78,181,160,48,166.35,173,22.00,3.00,-996.00
2024-05-17 15:34:59.957920,2,0,-4,0,0,0,75,78,181,160,48,166.80,173,24.00,3.00,-995.00
2024-05-17 15:35:00.059156,2,0,-4,0,0,0,75,78,181,160,48,166.63,173,24.00,8.00,-997.00
2024-05-17 15:35:00.160612,2,0,-4,0,0,0,75,78,180,160,48,166.24,173,34.00,17.00,-1000.00
2024-05-17 15:35:00.316809,2,0,-4,0,0,0,75,78,180,160,48,166.46,173,27.00,5.00,-1006.00
2024-05-17 15:35:00.364827,2,0,-4,0,0,0,75,78,180,160,48,166.55,173,22.00,1.00,-991.00
2024-05-17 15:35:00.521714,2,0,-4,0,0,0,75,78,180,160,48,166.34,173,37.00,13.00,-992.00
2024-05-17 15:35:00.568529,2,0,-4,0,0,0,75,78,180,160,48,166.47,173,26.00,2.00,-996.00
2024-05-17 15:35:00.726563,2,0,-4,0,0,0,75,77,180,160,48,166.33,173,38.00,7.00,-999.00
2024-05-17 15:35:00.772603,2,0,-5,0,0,0,75,77,180,160,48,166.31,173,40.00,7.00,-1002.00
2024-05-17 15:35:00.823372,2,0,-5,0,0,0,75,77,179,160,48,166.46,174,31.00,6.00,-1008.00
2024-05-17 15:35:00.925428,2,0,-5,0,0,0,75,77,179,160,48,166.58,174,29.00,5.00,-966.00
2024-05-17 15:35:01.035774,2,0,-5,0,0,0,75,77,178,160,48,166.45,174,40.00,-1.00,-950.00
2024-05-17 15:35:01.129459,2,0,-5,0,0,0,75,77,178,160,48,166.29,174,31.00,9.00,-956.00
2024-05-17 15:35:01.244344,2,0,-5,0,0,1,75,77,176,160,48,166.11,174,17.00,2.00,-964.00
2024-05-17 15:35:01.333456,2,0,-5,0,0,1,75,77,175,150,48,166.60,174,28.00,1.00,-969.00
2024-05-17 15:35:01.444312,2,0,-5,0,0,2,75,77,173,150,48,166.09,174,29.00,0.00,-968.00
2024-05-17 15:35:01.537355,2,0,-5,0,0,2,75,77,170,150,48,166.21,174,21.00,0.00,-986.00
2024-05-17 15:35:01.648201,2,0,-5,0,0,2,75,77,167,150,48,166.29,174,25.00,2.00,-986.00
2024-05-17 15:35:01.741803,1,0,-5,0,0,2,75,77,165,140,48,166.29,174,30.00,6.00,-999.00
2024-05-17 15:35:01.857152,1,0,-5,0,0,2,75,77,162,140,48,166.36,175,31.00,11.00,-987.00
2024-05-17 15:35:01.945736,1,0,-5,0,0,2,75,77,159,140,48,166.13,175,39.00,2.00,-1007.00
2024-05-17 15:35:02.047366,1,0,-5,0,0,2,75,77,156,140,48,166.19,175,21.00,5.00,-1002.00
2024-05-17 15:35:02.149776,1,0,-5,0,0,2,75,77,154,130,48,166.34,175,29.00,7.00,-1008.00
2024-05-17 15:35:02.262108,1,0,-5,0,0,2,75,77,151,130,48,166.05,175,20.00,13.00,-1015.00
2024-05-17 15:35:02.357720,1,0,-5,0,0,2,75,77,148,130,48,166.19,175,30.00,11.00,-1017.00
2024-05-17 15:35:02.455380,1,0,-5,0,0,2,75,77,146,130,48,165.96,175,18.00,0.00,-1021.00
2024-05-17 15:35:02.569896,1,0,-5,0,0,2,75,77,144,120,48,166.18,175,22.00,1.00,-1006.00
2024-05-17 15:35:02.659397,1,0,-5,0,0,1,75,77,142,120,48,165.95,175,29.00,14.00,-1011.00
2024-05-17 15:35:02.774118,1,0,-5,0,0,1,75,77,140,120,48,165.94,175,25.00,9.00,-1011.00
2024-05-17 15:35:02.863362,1,0,-5,0,0,1,75,77,139,120,48,166.16,176,17.00,16.00,-1011.00
2024-05-17 15:35:02.967627,1,0,-5,0,0,1,75,77,137,120,48,165.82,176,24.00,13.00,-1015.00
2024-05-17 15:35:03.067358,1,0,-5,0,0,1,75,77,137,120,48,166.11,176,17.00,10.00,-1009.00
2024-05-17 15:35:03.183723,1,0,-5,0,0,1,75,77,136,110,48,165.92,176,13.00,15.00,-1002.00
2024-05-17 15:35:03.273175,1,0,-5,0,0,1,75,77,135,110,48,165.97,176,13.00,8.00,-1019.00
2024-05-17 15:35:03.373438,1,0,-5,0,0,0,75,77,134,110,48,165.83,176,20.00,12.00,-1007.00
2024-05-17 15:35:03.495207,1,0,-5,0,0,0,75,77,133,110,48,166.04,176,14.00,14.00,-1032.00
2024-05-17 15:35:03.577455,1,0,-5,0,0,0,75,77,132,110,48,166.06,176,32.00,12.00,-1021.00
2024-05-17 15:35:03.700029,1,0,-5,0,0,0,75,77,132,110,48,165.67,176,17.00,18.00,-1018.00
2024-05-17 15:35:03.781405,1,0,-5,0,0,0,75,77,132,110,48,165.73,176,9.00,7.00,-1016.00
2024-05-17 15:35:03.883710,1,0,-5,0,0,0,75,77,132,110,48,165.90,177,17.00,16.00,-996.00
2024-05-17 15:35:03.985625,1,0,-5,0,0,0,75,77,132,110,48,165.60,177,14.00,7.00,-998.00
2024-05-17 15:35:04.109946,1,0,-5,0,0,0,75,77,132,110,48,166.07,177,14.00,12.00,-997.00
2024-05-17 15:35:04.189633,1,0,-5,0,0,0,75,77,132,110,48,165.83,177,19.00,14.00,-1008.00
2024-05-17 15:35:04.291435,1,0,-5,0,0,0,75,77,132,110,48,165.90,177,10.00,11.00,-993.00
2024-05-17 15:35:04.393424,1,0,-5,0,0,0,75,77,132,110,48,166.06,177,24.00,15.00,-997.00
2024-05-17 15:35:04.496388,1,0,-5,0,0,0,75,77,132,110,48,165.87,177,8.00,2.00,-995.00
2024-05-17 15:35:04.546767,1,0,-5,0,0,0,75,77,132,110,48,166.16,177,9.00,10.00,-991.00
2024-05-17 15:35:04.720615,1,0,-5,0,0,0,74,76,132,110,48,166.12,177,12.00,10.00,-1007.00
2024-05-17 15:35:04.801530,1,0,-5,0,0,0,74,76,132,110,48,165.64,177,17.00,17.00,-991.00
2024-05-17 15:35:04.854624,1,0,-5,0,0,0,74,76,132,110,48,165.82,178,18.00,6.00,-1010.00
2024-05-17 15:35:04.954401,1,0,-5,0,0,0,74,76,132,110,48,166.15,178,20.00,15.00,-1009.00
2024-05-17 15:35:05.131798,1,0,-5,0,0,0,74,76,132,110,48,165.92,178,16.00,4.00,-1006.00
2024-05-17 15:35:05.158645,0,0,-5,0,0,0,74,76,132,110,48,166.15,178,9.00,12.00,-997.00
2024-05-17 15:35:05.325188,0,0,-5,0,0,0,74,76,132,110,48,165.85,178,9.00,13.00,-1006.00
2024-05-17 15:35:05.362561,0,0,-5,0,0,0,74,76,132,110,48,165.96,178,0.00,12.00,-991.00
2024-05-17 15:35:05.540327,0,0,-5,0,0,0,74,76,132,110,48,166.11,178,13.00,6.00,-1008.00
2024-05-17 15:35:05.566311,-2,0,-5,0,0,0,74,76,135,110,48,166.12,178,11.00,7.00,-985.00
2024-05-17 15:35:05.744488,-7,0,-5,0,0,0,74,77,136,110,48,165.68,178,8.00,15.00,-1012.00
2024-05-17 15:35:05.770175,-8,0,-5,2,0,0,74,77,136,110,48,165.84,178,0.00,8.00,-1015.00
2024-05-17 15:35:05.950463,-7,0,-5,3,0,0,74,77,135,110,48,165.77,179,-29.00,8.00,-1019.00
2024-05-17 15:35:05.974252,-6,0,-5,4,0,0,74,77,135,110,48,165.92,179,-20.00,1.00,-1001.00
2024-05-17 15:35:06.159650,-6,0,-5,5,0,0,74,77,135,110,48,166.06,179,-15.00,-3.00,-993.00
2024-05-17 15:35:06.178144,-6,0,-5,6,0,0,74,77,135,110,48,166.05,179,-16.00,5.00,-991.00
2024-05-17 15:35:06.358082,-5,0,-5,6,0,0,74,77,134,110,48,166.03,179,-31.00,0.00,-1000.00
2024-05-17 15:35:06.385186,-4,0,-5,7,0,0,74,77,136,110,48,165.84,179,-41.00,14.00,-991.00
2024-05-17 15:35:06.484288,-1,0,-5,7,0,0,74,77,133,110,48,166.18,179,-36.00,-5.00,-994.00
2024-05-17 15:35:06.665278,1,0,-5,7,0,0,74,77,134,110,48,166.06,179,-38.00,15.00,-981.00
2024-05-17 15:35:06.693750,4,0,-5,6,0,0,75,76,135,110,48,166.00,179,-22.00,1.00,-1006.00
2024-05-17 15:35:06.790091,5,0,-5,5,0,0,75,76,135,110,48,166.13,179,-19.00,0.00,-1007.00
2024-05-17 15:35:06.974309,4,0,-5,4,0,0,75,76,133,110,48,165.96,180,-17.00,-5.00,-999.00
2024-05-17 15:35:06.994095,2,0,-5,3,0,0,75,76,133,110,48,165.98,180,-12.00,0.00,-1007.00
2024-05-17 15:35:07.177257,1,0,-5,3,0,0,75,76,133,110,48,165.70,180,-19.00,-8.00,-993.00
2024-05-17 15:35:07.198112,1,0,-5,3,0,0,75,76,133,110,48,166.02,180,-15.00,2.00,-993.00
2024-05-17 15:35:07.383654,1,0,-5,2,0,0,75,76,133,110,48,165.65,180,-11.00,1.00,-995.00
2024-05-17 15:35:07.402622,0,0,-4,2,0,0,75,76,134,110,48,166.12,180,-12.00,9.00,-998.00
2024-05-17 15:35:07.587245,0,0,-4,2,0,0,75,76,133,110,48,165.98,180,-10.00,2.00,-994.00
2024-05-17 15:35:07.611268,0,0,-4,2,0,0,75,76,133,110,48,166.01,180,-9.00,14.00,-986.00
2024-05-17 15:35:07.708092,1,0,-4,2,0,0,74,77,133,110,48,166.11,180,-15.00,7.00,-985.00
2024-05-17 15:35:07.894064,3,0,-4,2,0,0,74,77,134,110,48,165.92,180,-5.00,5.00,-984.00
2024-05-17 15:35:07.912046,5,0,-4,1,0,0,74,77,135,110,48,165.89,181,6.00,6.00,-981.00
2024-05-17 15:35:08.099038,2,0,-5,0,0,0,74,77,134,110,48,165.95,181,-15.00,8.00,-1015.00
2024-05-17 15:35:08.099267,1,0,-5,0,0,0,74,77,133,110,48,166.16,181,13.00,2.00,-1001.00
2024-05-17 15:35:08.167113,1,0,-5,0,0,0,74,77,133,110,48,165.92,181,17.00,22.00,-1003.00
2024-05-17 15:35:08.303852,1,0,-5,0,0,0,74,77,134,110,48,165.82,181,17.00,14.00,-995.00
2024-05-17 15:35:08.371536,1,0,-5,0,0,0,74,77,134,110,48,166.30,181,7.00,1.00,-1005.00
2024-05-17 15:35:08.508624,1,0,-5,0,0,0,74,77,134,110,48,166.02,181,3.00,16.00,-1020.00
2024-05-17 15:35:08.577632,0,0,-5,0,0,0,74,77,134,110,48,165.86,181,14.00,2.00,-1001.00
2024-05-17 15:35:08.728868,0,0,-5,0,0,0,74,76,134,110,48,166.23,181,11.00,-3.00,-997.00
2024-05-17 15:35:08.779041,0,0,-5,0,0,0,74,76,135,110,48,165.87,182,25.00,4.00,-1002.00
2024-05-17 15:35:08.918630,0,0,-5,0,0,0,74,76,135,110,48,166.04,182,6.00,10.00,-1005.00
2024-05-17 15:35:08.983195,0,0,-5,0,0,0,74,76,135,110,48,165.96,182,26.00,6.00,-998.00
2024-05-17 15:35:09.123865,0,0,-5,0,0,0,74,76,135,110,48,165.93,182,14.00,6.00,-989.00
2024-05-17 15:35:09.187360,0,0,-4,0,0,0,74,76,135,110,48,165.93,182,17.00,15.00,-990.00
2024-05-17 15:35:09.329692,0,0,-5,0,0,0,74,76,135,110,48,165.82,182,17.00,1.00,-981.00
2024-05-17 15:35:09.391039,0,0,-5,0,0,0,74,76,135,110,48,166.23,182,11.00,0.00,-991.00
2024-05-17 15:35:09.532818,0,0,-5,0,0,0,74,76,134,110,48,166.13,182,7.00,-6.00,-993.00
2024-05-17 15:35:09.594951,0,0,-5,0,0,0,74,76,134,110,48,165.97,182,9.00,0.00,-991.00
2024-05-17 15:35:09.737323,0,0,-4,0,0,0,74,76,134,110,48,166.39,182,10.00,0.00,-1026.00
2024-05-17 15:35:09.799062,0,0,-4,0,0,0,74,76,134,110,48,166.18,183,3.00,-2.00,-1005.00
2024-05-17 15:35:09.916437,0,0,-4,0,0,0,74,76,134,110,48,166.31,183,15.00,17.00,-990.00
2024-05-17 15:35:10.003940,0,0,-4,0,0,0,74,76,134,110,48,166.27,183,17.00,0.00,-989.00
2024-05-17 15:35:10.151420,5,0,-4,0,0,0,74,76,134,110,48,166.17,183,13.00,9.00,-1008.00
2024-05-17 15:35:10.207962,8,0,-4,-1,0,0,74,76,136,110,48,166.00,183,9.00,9.00,-1024.00
2024-05-17 15:35:10.351641,8,0,-4,-2,0,0,74,76,136,110,48,165.98,183,38.00,8.00,-1026.00
2024-05-17 15:35:10.411878,8,0,-4,-4,0,0,74,76,135,110,48,165.99,183,61.00,8.00,-1018.00
2024-05-17 15:35:10.559723,8,0,-4,-5,0,0,74,76,136,110,48,166.48,183,40.00,-10.00,-1001.00
2024-05-17 15:35:10.615899,8,0,-4,-6,0,0,74,76,135,110,48,166.25,183,57.00,-8.00,-1010.00
2024-05-17 15:35:10.769003,7,0,-5,-6,0,0,74,77,136,110,48,166.16,183,62.00,0.00,-1009.00
2024-05-17 15:35:10.819983,6,0,-5,-7,0,0,74,77,133,110,48,165.84,184,71.00,-5.00,-985.00
2024-05-17 15:35:10.922211,5,0,-5,-7,0,0,74,77,134,110,48,165.98,184,61.00,-3.00,-1000.00
2024-05-17 15:35:11.069792,2,0,-5,-7,0,0,74,77,134,110,48,165.87,184,71.00,-4.00,-998.00
2024-05-17 15:35:11.125906,0,0,-5,-6,0,0,74,77,133,110,48,165.85,184,63.00,-2.00,-989.00
2024-05-17 15:35:11.279259,-2,-1,-5,-6,0,0,74,77,136,110,48,165.92,184,64.00,-2.00,-1010.00
2024-05-17 15:35:11.329823,-2,0,-5,-4,0,0,74,77,136,110,48,166.17,184,62.00,3.00,-998.00
2024-05-17 15:35:11.478025,-1,0,-5,-4,0,0,74,77,133,110,48,166.08,184,59.00,5.00,-992.00
2024-05-17 15:35:11.533877,0,0,-5,-3,0,0,74,77,133,110,48,166.42,184,50.00,0.00,-999.00
2024-05-17 15:35:11.584908,0,0,-5,-3,0,0,74,77,133,110,48,165.77,184,34.00,-6.00,-1003.00
2024-05-17 15:35:11.785245,0,0,-5,-3,0,0,74,77,133,110,48,166.19,184,56.00,3.00,-993.00
2024-05-17 15:35:11.842156,0,0,-5,-3,0,0,74,77,133,110,48,165.92,185,18.00,0.00,-1008.00
2024-05-17 15:35:11.944678,0,0,-5,-3,0,0,74,77,133,110,48,166.00,185,43.00,2.00,-1000.00
2024-05-17 15:35:12.045429,0,0,-5,-2,0,0,74,77,133,110,48,165.93,185,17.00,-3.00,-1002.00
2024-05-17 15:35:12.097335,-1,0,-5,-2,0,0,74,77,133,110,48,166.00,185,31.00,5.00,-1002.00
2024-05-17 15:35:12.197513,-3,0,-5,-1,0,0,74,77,135,110,48,165.96,185,27.00,-7.00,-1006.00
2024-05-17 15:35:12.298850,-2,0,-5,-1,0,0,74,77,134,110,48,166.07,185,15.00,0.00,-1006.00
2024-05-17 15:35:12.502621,0,0,-5,0,0,0,74,77,134,110,48,166.15,185,17.00,-5.00,-1003.00
2024-05-17 15:35:12.502795,0,0,-5,0,0,0,74,77,133,110,48,166.11,185,9.00,0.00,-1011.00
2024-05-17 15:35:12.707436,0,0,-5,0,0,0,74,77,134,110,48,166.02,185,7.00,0.00,-1001.00
2024-05-17 15:35:12.707637,0,0,-5,0,0,0,74,75,134,110,48,166.03,185,15.00,-5.00,-1004.00
2024-05-17 15:35:12.809355,0,0,-5,0,0,0,74,75,134,110,48,165.94,186,5.00,2.00,-1012.00
2024-05-17 15:35:12.911860,0,0,-5,0,0,0,74,75,134,110,48,166.21,186,7.00,-4.00,-999.00
2024-05-17 15:35:13.014712,0,0,-5,0,0,0,74,75,134,110,48,165.90,186,16.00,0.00,-994.00
2024-05-17 15:35:13.117514,0,0,-5,0,0,0,74,75,134,110,48,166.00,186,0.00,-8.00,-992.00
2024-05-17 15:35:13.219036,0,0,-5,0,0,0,74,75,134,110,48,165.73,186,10.00,-4.00,-1010.00
2024-05-17 15:35:13.318890,0,0,-5,0,0,0,74,75,134,110,48,166.13,186,7.00,4.00,-994.00
2024-05-17 15:35:13.421641,0,0,-5,0,0,0,74,75,134,110,48,165.72,186,12.00,3.00,-1011.00
2024-05-17 15:35:13.522809,0,0,-5,0,0,0,74,75,134,110,48,165.91,186,6.00,3.00,-992.00
2024-05-17 15:35:13.628551,0,0,-5,0,0,0,74,75,134,110,48,166.16,186,16.00,0.00,-995.00
2024-05-17 15:35:13.728597,0,0,-5,0,0,0,73,76,134,110,48,165.79,186,-2.00,2.00,-1013.00
2024-05-17 15:35:13.828894,0,0,-5,0,0,0,73,76,133,110,48,166.19,187,8.00,10.00,-997.00
2024-05-17 15:35:13.937025,0,0,-5,0,0,0,73,76,133,110,48,165.98,187,-1.00,2.00,-997.00
2024-05-17 15:35:14.032830,0,0,-5,0,0,0,73,76,133,110,48,165.71,187,10.00,7.00,-998.00
2024-05-17 15:35:14.140554,0,0,-5,0,0,0,73,76,133,110,48,166.01,187,-2.00,-3.00,-1001.00
2024-05-17 15:35:14.237026,0,0,-5,0,0,0,73,76,133,110,48,165.87,187,12.00,12.00,-1008.00
2024-05-17 15:35:14.346448,0,0,-5,0,0,0,73,76,133,110,48,166.26,187,9.00,-6.00,-1000.00
2024-05-17 15:35:14.440881,0,0,-5,0,0,0,73,76,133,110,48,166.27,187,7.00,9.00,-1001.00
2024-05-17 15:35:14.542665,0,0,-5,0,0,0,73,76,133,110,48,165.91,187,10.00,14.00,-994.00
2024-05-17 15:35:14.654359,0,0,-5,0,0,0,73,76,132,110,48,166.01,187,3.00,4.00,-986.00
2024-05-17 15:35:14.747910,0,-6,-5,0,0,0,74,75,134,110,48,166.04,187,7.00,2.00,-996.00
2024-05-17 15:35:14.857207,0,-8,-5,0,-1,0,74,75,134,110,48,166.12,188,12.00,12.00,-978.00
2024-05-17 15:35:14.955530,0,-6,-5,0,-2,0,74,75,132,110,48,165.88,188,10.00,-7.00,-1035.00
2024-05-17 15:35:15.053053,0,-3,-5,0,-3,0,74,75,133,110,48,166.03,188,7.00,9.00,-1014.00
2024-05-17 15:35:15.164492,0,-1,-5,0,-3,0,74,75,131,110,48,165.79,188,10.00,19.00,-998.00
2024-05-17 15:35:15.257647,0,0,-5,0,-3,0,74,75,132,110,48,165.90,188,6.00,22.00,-1011.00
2024-05-17 15:35:15.369244,0,0,-5,0,-2,0,74,75,131,110,48,165.94,188,4.00,25.00,-1005.00
2024-05-17 15:35:15.461251,0,0,-5,0,-2,0,74,75,131,110,48,166.06,188,6.00,17.00,-1001.00
2024-05-17 15:35:15.573996,0,0,-5,0,-2,0,74,75,131,110,48,165.98,188,8.00,15.00,-1012.00
2024-05-17 15:35:15.664668,0,0,-5,0,-2,0,74,75,131,110,48,165.95,188,21.00,20.00,-995.00
2024-05-17 15:35:15.778730,0,0,-5,0,-2,0,73,76,131,110,48,166.02,188,20.00,20.00,-1005.00
2024-05-17 15:35:15.873878,1,0,-5,0,-2,0,73,76,130,110,48,165.80,189,13.00,23.00,-1011.00
2024-05-17 15:35:15.923069,2,0,-5,0,-2,0,73,76,131,110,48,165.93,189,24.00,10.00,-1011.00
2024-05-17 15:35:16.023066,2,0,-5,0,-2,0,73,76,131,110,48,166.10,189,15.00,5.00,-1004.00
2024-05-17 15:35:16.123583,0,0,-5,0,-2,0,73,76,131,110,48,165.90,189,28.00,12.00,-990.00
2024-05-17 15:35:16.290801,0,0,-5,0,-2,0,73,76,132,110,48,166.02,189,19.00,5.00,-1000.00
2024-05-17 15:35:16.328908,0,0,-5,0,-2,0,73,76,132,110,48,165.96,189,18.00,13.00,-994.00
2024-05-17 15:35:16.429571,1,1,-5,0,-2,0,73,76,131,110,48,165.86,189,13.00,-6.00,-1005.00
2024-05-17 15:35:16.597984,1,3,-5,0,-1,0,73,76,132,110,48,166.48,189,17.00,19.00,-996.00
2024-05-17 15:35:16.633581,1,3,-5,0,-1,0,73,76,132,110,48,165.81,189,25.00,1.00,-1015.00
2024-05-17 15:35:16.735716,1,1,-5,0,0,0,73,75,131,110,48,165.95,189,28.00,17.00,-1009.00
2024-05-17 15:35:16.905626,1,0,-5,0,0,0,73,75,132,110,48,166.05,190,35.00,4.00,-1006.00
2024-05-17 15:35:16.939573,1,0,-5,0,0,0,73,75,133,110,48,166.20,190,27.00,-11.00,-992.00
2024-05-17 15:35:17.110343,1,0,-5,0,0,0,73,75,133,110,48,165.95,190,12.00,2.00,-1020.00
2024-05-17 15:35:17.143580,1,0,-5,0,0,0,73,75,133,110,48,165.98,190,19.00,-7.00,-992.00
2024-05-17 15:35:17.314981,1,0,-5,0,0,0,73,75,133,110,48,165.90,190,22.00,-4.00,-997.00
2024-05-17 15:35:17.347812,1,0,-5,0,0,0,73,75,133,110,48,165.95,190,21.00,-7.00,-1009.00
2024-05-17 15:35:17.519642,1,0,-5,0,0,0,73,75,133,110,48,165.92,190,27.00,-8.00,-996.00
2024-05-17 15:35:17.552156,1,0,-5,0,0,0,73,75,133,110,48,166.07,190,33.00,2.00,-1003.00
2024-05-17 15:35:17.724464,1,0,-5,0,0,0,73,75,133,110,48,165.91,190,19.00,3.00,-998.00
2024-05-17 15:35:17.755477,1,0,-5,0,0,0,72,75,134,110,48,166.10,190,6.00,0.00,-1002.00
2024-05-17 15:35:17.858156,1,0,-5,0,0,0,72,75,134,110,48,165.85,191,14.00,1.00,-993.00
2024-05-17 15:35:17.961242,1,0,-5,0,0,0,72,75,133,110,48,165.94,191,22.00,2.00,-1000.00
2024-05-17 15:35:18.062096,1,0,-5,0,0,0,72,75,133,110,48,165.96,191,26.00,9.00,-1004.00
2024-05-17 15:35:18.163740,1,0,-5,0,0,0,72,75,133,110,48,166.05,191,28.00,3.00,-991.00
2024-05-17 15:35:18.338918,1,0,-5,0,0,0,72,75,133,110,48,165.88,191,21.00,-4.00,-999.00
2024-05-17 15:35:18.367605,1,0,-5,0,0,0,72,75,132,110,48,166.53,191,20.00,4.00,-996.00
2024-05-17 15:35:18.543723,1,0,-5,0,0,0,72,75,132,110,48,166.29,191,17.00,14.00,-997.00
2024-05-17 15:35:18.572313,1,0,-5,0,0,0,72,75,133,110,48,165.98,191,18.00,4.00,-999.00
2024-05-17 15:35:18.688805,1,0,-5,0,0,0,72,75,133,110,48,166.08,191,19.00,5.00,-999.00
2024-05-17 15:35:18.776319,1,0,-5,0,0,0,74,76,132,110,48,166.10,191,20.00,4.00,-990.00
2024-05-17 15:35:18.953119,1,0,-5,0,0,0,74,76,133,110,48,165.82,192,17.00,2.00,-1012.00
2024-05-17 15:35:18.979387,1,7,-4,0,0,0,74,76,134,110,48,166.23,192,20.00,14.00,-987.00
2024-05-17 15:35:19.157945,1,7,-4,0,1,0,74,76,135,110,48,165.79,192,30.00,-1.00,-1008.00
2024-05-17 15:35:19.183391,1,4,-4,0,3,0,74,76,134,110,48,165.59,192,17.00,-15.00,-1007.00
2024-05-17 15:35:19.362777,1,2,-5,0,3,0,74,76,133,110,48,165.85,192,12.00,-20.00,-1000.00
2024-05-17 15:35:19.387373,1,0,-5,0,3,0,74,76,132,110,48,166.15,192,13.00,-16.00,-1004.00
2024-05-17 15:35:19.491223,1,-1,-5,0,3,0,74,76,133,110,48,165.94,192,19.00,-21.00,-994.00
2024-05-17 15:35:19.540406,1,0,-5,0,2,0,74,76,133,110,48,165.77,192,8.00,-19.00,-1006.00
2024-05-17 15:35:19.642763,1,0,-5,0,2,0,74,76,134,110,48,165.81,192,21.00,-13.00,-1000.00
2024-05-17 15:35:19.776961,1,0,-5,0,2,0,73,75,134,110,48,166.06,192,4.00,-8.00,-1001.00
2024-05-17 15:35:19.846464,1,0,-5,0,2,0,73,75,134,110,48,165.77,193,15.00,-18.00,-993.00
2024-05-17 15:35:19.948898,1,0,-5,0,2,0,73,75,134,110,48,166.01,193,13.00,-16.00,-1004.00
2024-05-17 15:35:20.079545,1,0,-5,0,2,0,73,75,133,110,48,166.28,193,8.00,-9.00,-990.00
2024-05-17 15:35:20.153498,1,0,-5,0,2,0,73,75,133,110,48,165.58,193,8.00,-3.00,-1002.00
2024-05-17 15:35:20.284339,1,0,-5,0,2,0,73,75,132,110,48,166.16,193,7.00,1.00,-1002.00
2024-05-17 15:35:20.358125,0,0,-5,0,2,0,73,75,133,110,48,165.82,193,19.00,0.00,-1003.00
2024-05-17 15:35:20.458450,0,-1,-5,0,2,0,73,75,133,110,48,166.24,193,28.00,4.00,-998.00
2024-05-17 15:35:20.560346,0,-4,-4,0,2,0,73,75,133,110,48,166.10,193,13.00,-8.00,-1015.00
2024-05-17 15:35:20.694137,0,-4,-4,0,1,0,73,75,132,110,48,166.14,193,10.00,3.00,-1004.00
2024-05-17 15:35:20.764663,0,-1,-4,0,0,0,73,75,132,110,48,166.05,193,16.00,21.00,-1010.00
2024-05-17 15:35:20.898837,0,-1,-5,0,0,0,73,75,132,110,48,166.04,194,4.00,-1.00,-1003.00
2024-05-17 15:35:20.968408,1,-1,-5,0,0,0,73,75,132,110,48,165.94,194,15.00,12.00,-999.00
2024-05-17 15:35:21.104430,0,-1,-5,0,0,0,73,75,131,110,48,166.27,194,8.00,0.00,-998.00
2024-05-17 15:35:21.172619,0,-1,-5,0,0,0,73,75,131,110,48,166.46,194,8.00,2.00,-1013.00
2024-05-17 15:35:21.308468,0,-1,-5,0,0,0,73,75,132,110,48,165.88,194,13.00,2.00,-994.00
2024-05-17 15:35:21.378434,0,-1,-5,0,0,0,73,75,132,110,48,165.97,194,22.00,12.00,-1006.00
2024-05-17 15:35:21.478917,0,0,-5,0,0,0,73,75,133,110,48,165.75,194,2.00,14.00,-1013.00
2024-05-17 15:35:21.581423,1,-1,-5,0,0,0,73,75,133,110,48,166.04,194,15.00,19.00,-1005.00
2024-05-17 15:35:21.685025,1,-1,-5,0,0,0,73,75,133,110,48,166.22,194,15.00,5.00,-1000.00
2024-05-17 15:35:21.787418,1,-1,-5,0,0,0,73,75,133,110,48,166.15,194,9.00,7.00,-994.00
2024-05-17 15:35:21.886460,1,0,-5,0,0,0,73,75,133,110,48,166.05,195,9.00,8.00,-997.00
2024-05-17 15:35:21.988276,1,0,-5,0,0,0,73,75,132,110,48,165.89,195,15.00,10.00,-996.00
2024-05-17 15:35:22.127628,1,0,-5,0,0,0,73,75,132,110,48,165.84,195,15.00,12.00,-1002.00
2024-05-17 15:35:22.192392,1,0,-5,0,0,0,73,75,133,110,48,165.81,195,21.00,5.00,-990.00
2024-05-17 15:35:22.332444,1,0,-5,0,0,0,73,75,133,110,48,166.12,195,13.00,11.00,-1002.00
2024-05-17 15:35:22.396392,1,0,-5,0,0,0,73,75,133,110,48,165.90,195,11.00,12.00,-1001.00
2024-05-17 15:35:22.537308,1,0,-5,0,0,0,73,75,132,110,48,165.76,195,13.00,12.00,-993.00
2024-05-17 15:35:22.602313,1,0,-5,0,0,0,73,75,132,110,48,165.80,195,11.00,15.00,-993.00
2024-05-17 15:35:22.702404,1,0,-5,0,0,0,73,75,133,110,48,165.97,195,16.00,14.00,-994.00
2024-05-17 15:35:22.844332,1,0,-5,0,0,0,73,75,133,110,48,166.13,195,16.00,18.00,-1005.00
2024-05-17 15:35:22.906229,1,0,-3,0,0,0,73,75,133,110,48,166.11,196,18.00,7.00,-983.00
2024-05-17 15:35:22.957336,1,0,1,0,0,0,73,75,133,110,48,166.11,196,16.00,15.00,-996.00
2024-05-17 15:35:23.059342,1,0,6,0,0,0,73,75,133,110,48,165.96,196,26.00,10.00,-1008.00
2024-05-17 15:35:23.253906,1,0,12,0,0,0,73,75,133,110,47,165.99,196,27.00,10.00,-994.00
2024-05-17 15:35:23.263173,1,0,18,0,0,0,73,75,133,110,47,166.24,196,30.00,10.00,-1004.00
2024-05-17 15:35:23.458704,1,0,23,0,0,0,73,75,133,110,47,166.20,196,22.00,14.00,-998.00
2024-05-17 15:35:23.469562,1,0,29,0,0,0,73,75,133,110,47,165.96,196,29.00,12.00,-1002.00
2024-05-17 15:35:23.569379,0,0,35,0,0,0,73,75,132,110,47,166.23,196,23.00,-1.00,-991.00
2024-05-17 15:35:23.766032,1,0,41,0,0,0,73,75,132,110,47,165.85,196,21.00,1.00,-1001.00
2024-05-17 15:35:23.773162,1,0,47,0,0,0,73,75,132,110,47,166.18,196,32.00,0.00,-992.00
2024-05-17 15:35:23.970743,1,0,53,0,0,0,73,75,132,110,47,165.81,197,34.00,-1.00,-996.00
2024-05-17 15:35:23.977116,1,0,59,0,0,0,73,75,132,110,47,166.19,197,29.00,1.00,-1004.00
2024-05-17 15:35:24.175534,1,0,65,0,0,0,73,75,132,110,47,165.99,197,38.00,-7.00,-992.00
2024-05-17 15:35:24.181230,1,0,71,0,0,0,73,75,132,110,47,166.06,197,19.00,-5.00,-1005.00
2024-05-17 15:35:24.380406,1,0,77,0,0,0,73,75,132,110,47,165.76,197,18.00,-5.00,-995.00
2024-05-17 15:35:24.385099,1,1,83,0,0,0,73,75,132,110,47,165.93,197,18.00,-5.00,-1011.00
2024-05-17 15:35:24.585118,1,1,89,0,0,0,73,75,132,110,47,165.85,197,21.00,-9.00,-1002.00
2024-05-17 15:35:24.589948,1,1,94,0,0,0,73,75,131,110,47,165.97,197,17.00,-13.00,-993.00
2024-05-17 15:35:24.789911,0,1,100,0,0,0,73,75,131,110,47,166.20,197,20.00,-15.00,-1001.00
2024-05-17 15:35:24.793051,0,1,112,0,0,0,73,75,132,110,47,165.99,198,18.00,-7.00,-1005.00
2024-05-17 15:35:24.895443,0,1,118,0,0,0,73,75,131,110,47,165.94,198,20.00,-14.00,-997.00
2024-05-17 15:35:24.998112,0,1,124,0,0,0,73,75,131,110,47,165.98,198,17.00,-27.00,-999.00
2024-05-17 15:35:25.100177,0,1,131,0,0,0,73,75,131,110,47,166.08,198,22.00,-12.00,-1012.00
2024-05-17 15:35:25.201629,0,1,137,0,0,0,73,75,132,110,47,165.82,198,0.00,-21.00,-1005.00
2024-05-17 15:35:25.303055,0,1,143,0,0,0,73,75,132,110,47,166.01,198,11.00,-14.00,-989.00
2024-05-17 15:35:25.506694,0,1,148,0,0,0,73,75,133,110,47,165.95,198,20.00,-28.00,-989.00
2024-05-17 15:35:25.508096,0,1,155,0,0,0,73,75,133,110,47,166.17,198,2.00,-20.00,-1011.00
2024-05-17 15:35:25.609059,0,1,161,0,0,0,73,75,133,110,47,166.17,198,-3.00,-21.00,-997.00
2024-05-17 15:35:25.711504,0,1,167,0,0,0,73,75,134,110,47,165.90,198,0.00,-16.00,-998.00
2024-05-17 15:35:25.813860,0,1,173,0,0,0,73,76,135,110,47,165.99,199,0.00,-7.00,-992.00
2024-05-17 15:35:25.916457,0,0,179,0,0,0,73,76,135,110,47,165.83,199,4.00,-20.00,-996.00
2024-05-17 15:35:26.018949,0,0,-174,0,0,0,73,76,135,110,47,166.05,199,0.00,-6.00,-987.00
2024-05-17 15:35:26.118961,0,0,-168,0,0,0,73,76,135,110,47,166.30,199,5.00,-8.00,-984.00
2024-05-17 15:35:26.223460,0,0,-162,0,0,0,73,76,136,110,46,166.19,199,0.00,-2.00,-990.00
2024-05-17 15:35:26.322986,0,0,-156,0,0,0,73,76,135,110,46,166.13,199,-2.00,-12.00,-992.00
2024-05-17 15:35:26.428965,0,0,-150,0,0,0,73,76,135,110,46,165.72,199,-6.00,0.00,-997.00
2024-05-17 15:35:26.526956,0,0,-144,0,0,0,73,76,135,110,46,166.26,199,6.00,-3.00,-1001.00
2024-05-17 15:35:26.633148,0,0,-138,0,0,0,73,76,135,110,46,165.97,199,-8.00,2.00,-1001.00
2024-05-17 15:35:26.679987,0,0,-132,0,0,0,73,76,135,110,46,166.12,199,-2.00,-6.00,-992.00
2024-05-17 15:35:26.837917,0,0,-126,0,0,0,73,76,135,110,46,166.14,200,-8.00,0.00,-997.00
2024-05-17 15:35:26.884322,0,0,-120,0,0,0,73,76,134,110,46,165.90,200,-4.00,-2.00,-1002.00
2024-05-17 15:35:26.985859,0,0,-113,0,0,0,73,76,133,110,46,165.92,200,0.00,3.00,-1001.00
2024-05-17 15:35:27.146612,0,0,-107,0,0,0,73,76,133,110,46,165.92,200,1.00,7.00,-989.00
2024-05-17 15:35:27.189943,0,0,-101,0,0,0,73,76,132,110,46,165.94,200,8.00,1.00,-1011.00
2024-05-17 15:35:27.356384,0,0,-95,0,0,0,73,76,132,110,46,166.09,200,6.00,0.00,-1003.00
2024-05-17 15:35:27.393953,0,0,-89,0,0,0,73,76,132,110,46,166.21,200,5.00,1.00,-994.00
2024-05-17 15:35:27.496300,0,0,-83,0,0,0,73,76,131,110,46,166.11,200,1.00,8.00,-1000.00
2024-05-17 15:35:27.598037,0,0,-77,0,0,0,73,76,130,110,46,165.92,200,4.00,0.00,-996.00
2024-05-17 15:35:27.759467,0,0,-71,0,0,0,73,76,130,110,46,165.83,200,9.00,10.00,-1002.00
2024-05-17 15:35:27.802039,0,0,-65,0,0,0,72,75,130,110,46,166.14,201,6.00,1.00,-1015.00
2024-05-17 15:35:27.968967,0,0,-59,0,0,0,72,75,130,110,46,165.81,201,20.00,2.00,-1001.00
2024-05-17 15:35:28.006821,1,0,-52,0,0,0,72,75,130,110,46,165.99,201,12.00,6.00,-1005.00
2024-05-17 15:35:28.108094,0,0,-46,0,0,0,72,75,130,110,46,165.99,201,16.00,3.00,-1006.00
2024-05-17 15:35:28.272782,1,0,-40,0,0,0,72,75,130,110,46,165.81,201,15.00,-6.00,-1013.00
2024-05-17 15:35:28.311921,1,0,-34,0,0,0,72,75,130,110,46,165.72,201,34.00,-9.00,-1006.00
2024-05-17 15:35:28.476260,1,0,-28,0,0,0,72,75,130,110,46,166.04,201,11.00,-1.00,-1006.00
2024-05-17 15:35:28.515868,1,0,-23,0,0,0,72,75,130,110,46,166.19,201,3.00,13.00,-1008.00
2024-05-17 15:35:28.681057,1,0,-18,0,0,0,72,75,130,110,46,165.91,201,10.00,-9.00,-1001.00
2024-05-17 15:35:28.719894,1,0,-15,0,0,0,72,75,131,110,46,166.10,201,1.00,0.00,-1000.00
2024-05-17 15:35:28.885967,1,0,-13,0,0,0,73,75,131,110,46,165.90,202,15.00,0.00,-1006.00
2024-05-17 15:35:28.923876,1,0,-11,0,0,0,73,75,131,110,46,165.99,202,6.00,-7.00,-995.00
2024-05-17 15:35:29.090663,1,0,-10,0,0,0,73,75,130,110,46,165.78,202,11.00,0.00,-1002.00
2024-05-17 15:35:29.127861,1,0,-8,0,0,0,73,75,130,110,46,166.02,202,15.00,9.00,-1000.00
2024-05-17 15:35:29.299664,1,0,-8,0,0,0,73,75,130,110,45,166.16,202,-2.00,-1.00,-1007.00
2024-05-17 15:35:29.342084,1,0,-7,0,0,0,73,75,130,110,45,165.99,202,16.00,-8.00,-991.00
2024-05-17 15:35:29.433978,1,0,-6,0,0,0,73,75,130,110,45,166.02,202,8.00,-3.00,-1002.00
2024-05-17 15:35:29.536694,0,0,-6,0,0,0,73,75,130,110,45,166.01,202,10.00,-4.00,-999.00
2024-05-17 15:35:29.638521,0,0,-5,0,0,0,73,75,130,110,45,166.01,202,2.00,-2.00,-988.00
2024-05-17 15:35:29.807888,0,0,-4,0,0,0,73,75,130,110,45,166.08,202,0.00,0.00,-981.00
2024-05-17 15:35:29.843790,0,0,-3,0,0,0,73,75,130,110,45,166.06,203,3.00,14.00,-997.00
2024-05-17 15:35:29.944242,0,0,-3,0,0,0,73,75,130,110,45,166.60,203,0.00,12.00,-987.00
2024-05-17 15:35:30.045907,0,0,-2,0,0,0,73,75,130,110,45,166.19,203,-8.00,0.00,-1014.00
2024-05-17 15:35:30.217306,0,0,-1,0,0,0,73,75,130,110,45,166.04,203,-6.00,20.00,-1002.00
2024-05-17 15:35:30.250042,0,0,0,0,0,0,73,75,130,110,45,166.10,203,7.00,6.00,-1001.00
2024-05-17 15:35:30.422057,0,0,0,0,0,0,73,75,130,110,45,165.98,203,-1.00,7.00,-997.00
2024-05-17 15:35:30.453793,0,0,0,0,0,0,73,75,130,110,45,165.93,203,12.00,20.00,-989.00
2024-05-17 15:35:30.504895,0,0,0,0,0,0,73,75,130,110,45,166.11,203,2.00,5.00,-1010.00
2024-05-17 15:35:30.606967,0,0,0,0,0,0,73,75,130,110,45,166.11,203,0.00,8.00,-998.00
2024-05-17 15:35:30.739872,0,0,0,0,0,0,73,75,130,110,45,166.22,203,16.00,1.00,-995.00
2024-05-17 15:35:30.934636,0,0,0,0,0,0,73,75,130,110,45,166.10,204,9.00,3.00,-1003.00
2024-05-17 15:35:30.934817,0,0,0,0,0,0,73,75,130,110,45,166.10,204,7.00,7.00,-996.00
2024-05-17 15:35:31.014965,0,0,0,0,0,0,73,75,131,110,45,165.88,204,14.00,7.00,-1002.00
2024-05-17 15:35:31.116887,0,0,0,0,0,0,73,75,131,110,45,166.03,204,9.00,9.00,-998.00
2024-05-17 15:35:31.219681,0,0,0,0,0,0,73,75,130,110,45,165.71,204,13.00,0.00,-996.00
2024-05-17 15:35:31.356183,0,0,0,0,0,0,73,75,131,110,45,165.96,204,15.00,5.00,-1000.00
2024-05-17 15:35:31.422688,0,0,0,0,0,0,73,75,132,110,45,166.08,204,21.00,13.00,-1005.00
2024-05-17 15:35:31.524717,0,0,-3,0,0,0,73,75,132,110,45,166.02,204,13.00,7.00,-1000.00
2024-05-17 15:35:31.650639,1,0,-9,0,0,0,73,75,133,110,45,166.20,204,-31.00,39.00,-1010.00
2024-05-17 15:35:31.728712,1,-1,-16,0,0,0,73,75,133,110,45,166.26,204,22.00,6.00,-986.00
2024-05-17 15:35:31.855819,0,-1,-22,0,0,0,72,75,133,110,45,166.13,205,5.00,18.00,-990.00
2024-05-17 15:35:31.934612,0,-1,-29,0,0,0,72,75,133,110,45,166.05,205,5.00,14.00,-1001.00
2024-05-17 15:35:32.034779,0,-1,-35,0,0,0,72,75,133,110,45,166.21,205,-2.00,14.00,-993.00
2024-05-17 15:35:32.162623,0,-1,-41,0,0,0,72,75,133,110,45,166.22,205,-9.00,17.00,-1004.00
2024-05-17 15:35:32.238660,0,-1,-48,0,0,0,72,75,133,110,45,166.22,205,12.00,9.00,-990.00
2024-05-17 15:35:32.367405,0,0,-54,0,0,0,72,75,133,110,45,166.14,205,4.00,12.00,-1000.00
2024-05-17 15:35:32.442792,0,0,-60,0,0,0,72,75,133,110,45,166.05,205,-3.00,10.00,-1006.00
2024-05-17 15:35:32.675981,0,0,-66,0,0,0,72,75,133,110,45,166.05,205,-5.00,8.00,-1003.00
2024-05-17 15:35:32.676162,0,0,-72,0,0,0,72,75,132,110,45,166.22,205,1.00,0.00,-996.00
2024-05-17 15:35:32.748620,0,0,-79,0,0,0,72,75,132,110,45,166.17,205,0.00,7.00,-1004.00
2024-05-17 15:35:32.879447,0,0,-85,0,0,0,72,75,133,110,45,166.15,206,-5.00,5.00,-1003.00
2024-05-17 15:35:32.952699,0,0,-91,0,0,0,72,75,134,110,45,166.40,206,-4.00,-5.00,-990.00
2024-05-17 15:35:33.054605,0,0,-97,0,0,0,72,75,134,110,45,166.03,206,6.00,10.00,-997.00
2024-05-17 15:35:33.187045,0,0,-103,0,0,0,72,75,135,110,44,165.63,206,1.00,11.00,-981.00
2024-05-17 15:35:33.258659,0,0,-109,0,0,0,72,75,134,110,44,166.12,206,1.00,0.00,-996.00
2024-05-17 15:35:33.391412,0,0,-115,0,0,0,72,75,134,110,44,166.09,206,5.00,4.00,-1002.00
2024-05-17 15:35:33.462579,0,0,-121,0,0,0,72,75,134,110,44,166.18,206,-5.00,6.00,-1006.00
2024-05-17 15:35:33.596206,0,0,-128,0,0,0,72,75,133,110,44,166.09,206,-6.00,2.00,-1004.00
2024-05-17 15:35:33.666567,0,0,-134,0,0,0,72,75,134,110,44,166.57,206,-2.00,-7.00,-1001.00
2024-05-17 15:35:33.768674,0,0,-140,0,0,0,72,75,133,110,44,165.72,206,1.00,-7.00,-994.00
2024-05-17 15:35:33.871012,0,0,-146,0,0,0,72,75,133,110,44,165.92,207,1.00,-4.00,-1010.00
2024-05-17 15:35:33.972674,0,0,-152,0,0,0,72,75,133,110,44,165.83,207,3.00,-10.00,-991.00
2024-05-17 15:35:34.075382,0,0,-158,0,0,0,72,75,133,110,44,166.04,207,2.00,-2.00,-997.00
2024-05-17 15:35:34.177497,0,0,-163,0,0,0,72,75,133,110,44,166.06,207,-2.00,-13.00,-1006.00
2024-05-17 15:35:34.312999,0,0,-169,0,0,0,72,75,133,110,44,166.07,207,6.00,-14.00,-990.00
2024-05-17 15:35:34.382548,0,0,-175,0,0,0,72,75,133,110,44,165.84,207,4.00,0.00,-998.00
2024-05-17 15:35:34.482492,0,0,178,0,0,0,72,75,134,110,44,165.82,207,13.00,-6.00,-990.00
2024-05-17 15:35:34.533518,0,0,173,0,0,0,72,75,134,110,44,166.16,207,3.00,-7.00,-990.00
2024-05-17 15:35:34.635628,0,0,167,0,0,0,72,75,133,110,44,165.98,207,19.00,-7.00,-1003.00
2024-05-17 15:35:34.825207,0,0,162,0,0,0,72,75,133,110,44,166.20,207,-5.00,-11.00,-1005.00
2024-05-17 15:35:34.839657,0,0,156,0,0,0,73,75,133,110,44,166.11,208,6.00,-4.00,-987.00
2024-05-17 15:35:35.029818,0,0,151,0,0,0,73,75,133,110,44,166.16,208,2.00,-10.00,-994.00
2024-05-17 15:35:35.043471,0,1,145,0,0,0,73,75,134,110,44,165.96,208,2.00,-13.00,-1001.00
2024-05-17 15:35:35.145518,0,1,140,0,0,0,73,75,133,110,44,166.20,208,1.00,-11.00,-997.00
2024-05-17 15:35:35.247620,0,1,135,0,0,0,73,75,133,110,44,166.40,208,12.00,-21.00,-997.00
2024-05-17 15:35:35.349928,0,1,129,0,0,0,73,75,134,110,44,166.09,208,22.00,-12.00,-988.00
2024-05-17 15:35:35.452482,1,1,123,0,0,0,73,75,134,110,44,166.27,208,25.00,-8.00,-993.00
2024-05-17 15:35:35.554383,1,1,118,0,0,0,73,75,133,110,44,165.81,208,29.00,-10.00,-996.00
2024-05-17 15:35:35.746790,1,0,112,0,0,0,73,75,133,110,44,165.83,208,16.00,0.00,-1009.00
2024-05-17 15:35:35.761131,1,0,106,0,0,0,73,75,133,110,44,165.78,208,20.00,-15.00,-996.00
2024-05-17 15:35:35.864710,1,1,100,0,0,0,73,74,134,110,44,166.05,209,32.00,-9.00,-998.00
2024-05-17 15:35:35.961708,1,1,94,0,0,0,73,74,134,110,44,166.06,209,22.00,-1.00,-1010.00
2024-05-17 15:35:36.068359,1,1,88,0,0,0,73,74,134,110,44,166.07,209,35.00,-11.00,-1004.00
2024-05-17 15:35:36.171326,1,0,82,0,0,0,73,74,133,110,44,166.15,209,35.00,-9.00,-992.00
2024-05-17 15:35:36.267446,1,0,76,0,0,0,73,74,132,110,44,165.98,209,29.00,-14.00,-994.00
2024-05-17 15:35:36.463994,2,0,70,0,0,0,73,74,133,110,44,165.99,209,18.00,-13.00,-1000.00
2024-05-17 15:35:36.471850,2,0,63,0,0,0,73,74,133,110,44,165.98,209,27.00,-9.00,-1003.00
2024-05-17 15:35:36.668385,1,0,57,0,0,0,73,74,133,110,44,166.09,209,35.00,-3.00,-997.00
2024-05-17 15:35:36.680575,1,0,51,0,0,0,73,74,133,110,44,166.10,209,28.00,-3.00,-994.00
2024-05-17 15:35:36.777401,2,0,44,0,0,0,73,74,133,110,44,165.95,209,32.00,0.00,-999.00
2024-05-17 15:35:36.975924,2,0,38,0,0,0,72,74,133,110,44,166.06,210,25.00,-6.00,-995.00
2024-05-17 15:35:36.981678,2,0,31,0,0,0,72,74,133,110,44,166.00,210,41.00,0.00,-991.00
2024-05-17 15:35:37.180482,2,0,25,0,0,0,72,74,133,110,44,165.70,210,30.00,1.00,-998.00
2024-05-17 15:35:37.185368,1,0,18,0,0,0,72,74,133,110,43,165.98,210,39.00,1.00,-1000.00
2024-05-17 15:35:37.390482,1,0,13,0,0,0,72,74,132,110,43,166.28,210,35.00,7.00,-983.00
2024-05-17 15:35:37.390560,1,0,9,0,0,0,72,74,132,110,43,166.26,210,30.00,-1.00,-1004.00
2024-05-17 15:35:37.589880,2,0,7,0,0,0,72,74,132,110,43,165.99,210,29.00,-4.00,-1005.00
2024-05-17 15:35:37.593503,1,0,4,0,0,0,72,74,132,110,43,165.97,210,16.00,0.00,-997.00
2024-05-17 15:35:37.695361,1,0,3,0,0,0,72,74,131,110,43,165.90,210,27.00,1.00,-1007.00
2024-05-17 15:35:37.799442,1,0,2,0,0,0,72,74,131,110,43,166.10,210,20.00,-5.00,-1017.00
2024-05-17 15:35:37.899481,1,0,1,0,0,0,72,75,131,110,43,165.82,211,24.00,3.00,-999.00
2024-05-17 15:35:38.001629,1,0,1,0,0,0,72,75,131,110,43,166.03,211,16.00,2.00,-1007.00
2024-05-17 15:35:38.103552,1,0,1,0,0,0,72,75,132,110,43,166.02,211,16.00,1.00,-1012.00
2024-05-17 15:35:38.306911,1,0,0,0,0,0,72,75,132,110,43,166.01,211,27.00,-6.00,-1000.00
2024-05-17 15:35:38.307107,1,0,1,0,0,0,72,75,132,110,43,165.86,211,28.00,6.00,-987.00
2024-05-17 15:35:38.358555,1,0,1,0,0,0,72,75,133,110,43,166.20,211,26.00,2.00,-1002.00
2024-05-17 15:35:38.511588,1,0,1,0,0,0,72,75,133,110,43,165.95,211,24.00,-1.00,-1014.00
2024-05-17 15:35:38.562461,1,0,1,0,0,0,72,75,133,110,43,165.88,211,20.00,-8.00,-1010.00
2024-05-17 15:35:38.716450,0,0,1,0,0,0,72,75,133,110,43,166.10,211,18.00,-2.00,-1014.00
2024-05-17 15:35:38.766622,0,0,1,0,0,0,72,75,133,110,43,166.00,211,12.00,0.00,-1009.00
2024-05-17 15:35:38.921224,0,0,1,0,0,0,72,74,133,110,43,166.09,212,19.00,-7.00,-996.00
2024-05-17 15:35:38.971358,0,0,1,0,0,0,72,74,133,110,43,165.98,212,12.00,-1.00,-978.00
2024-05-17 15:35:39.125948,0,0,1,0,0,0,72,74,133,110,43,166.11,212,15.00,1.00,-1003.00
2024-05-17 15:35:39.175611,0,0,1,0,0,0,72,74,133,110,43,166.09,212,10.00,-5.00,-990.00
2024-05-17 15:35:39.337731,0,0,1,0,0,0,72,74,132,110,43,165.92,212,22.00,-2.00,-1005.00
2024-05-17 15:35:39.384944,0,0,1,0,0,0,72,74,132,110,43,166.08,212,4.00,-12.00,-1000.00
2024-05-17 15:35:39.482074,0,0,1,0,0,0,72,74,132,110,43,166.01,212,22.00,-4.00,-998.00
2024-05-17 15:35:39.637941,0,0,1,0,0,0,72,74,133,110,43,165.95,212,5.00,-8.00,-1007.00
2024-05-17 15:35:39.685428,0,0,1,0,0,0,72,74,132,110,43,166.00,212,2.00,-12.00,-1007.00
2024-05-17 15:35:39.788077,0,0,1,0,0,0,72,74,132,110,43,165.97,212,7.00,-7.00,-1002.00
2024-05-17 15:35:39.945504,0,0,1,0,0,0,72,74,132,110,43,166.06,213,24.00,-8.00,-1011.00
2024-05-17 15:35:39.995421,0,0,1,0,0,0,72,74,132,110,43,166.08,213,19.00,-2.00,-991.00
2024-05-17 15:35:40.094438,0,0,1,0,0,0,72,74,132,110,43,166.09,213,9.00,-1.00,-994.00
2024-05-17 15:35:40.252399,0,0,1,0,0,0,72,74,131,110,42,166.35,213,16.00,-6.00,-999.00
2024-05-17 15:35:40.298328,0,0,1,0,0,0,72,74,131,110,42,166.24,213,8.00,-11.00,-987.00
2024-05-17 15:35:40.457234,0,0,1,0,0,0,72,74,131,110,42,165.96,213,8.00,-13.00,-994.00
2024-05-17 15:35:40.503718,0,0,1,0,0,0,72,74,131,110,42,165.97,213,13.00,-8.00,-1010.00
2024-05-17 15:35:40.661928,0,0,1,0,0,0,72,74,131,110,42,166.23,213,6.00,-4.00,-1000.00
2024-05-17 15:35:40.706369,0,0,1,0,0,0,72,74,130,110,42,166.08,213,12.00,-7.00,-1003.00
2024-05-17 15:35:40.808905,0,0,1,0,0,0,72,74,130,110,42,165.82,213,17.00,-1.00,-990.00
2024-05-17 15:35:40.970170,0,0,1,0,0,0,72,75,130,110,42,166.20,214,8.00,-2.00,-1004.00
2024-05-17 15:35:41.012300,0,0,1,0,0,0,72,75,130,110,42,166.31,214,19.00,-2.00,-994.00
2024-05-17 15:35:41.174076,0,0,1,0,0,0,72,75,130,110,42,166.03,214,10.00,-2.00,-982.00
2024-05-17 15:35:41.216256,0,0,1,0,0,0,72,75,131,110,42,166.25,214,8.00,12.00,-1007.00
2024-05-17 15:35:41.378727,0,0,1,0,0,0,72,75,130,110,42,165.99,214,0.00,9.00,-1007.00
2024-05-17 15:35:41.421018,0,0,1,0,0,0,72,75,130,110,42,165.85,214,9.00,5.00,-986.00
2024-05-17 15:35:41.522381,0,0,1,0,0,0,72,75,130,110,42,166.28,214,11.00,7.00,-992.00
2024-05-17 15:35:41.685940,0,0,1,0,0,0,72,75,130,110,42,166.26,214,5.00,2.00,-983.00
2024-05-17 15:35:41.729551,0,0,1,0,0,0,72,75,130,110,42,166.07,214,6.00,8.00,-996.00
2024-05-17 15:35:41.777241,0,0,1,0,0,0,72,75,130,110,42,165.88,215,13.00,6.00,-1001.00
2024-05-17 15:35:41.890771,0,0,1,0,0,0,72,74,130,110,42,165.95,215,13.00,0.00,-1010.00
2024-05-17 15:35:41.982112,0,0,1,0,0,0,72,74,130,110,42,166.01,215,-5.00,-1.00,-994.00
2024-05-17 15:35:42.097397,0,0,1,0,0,0,72,74,130,110,42,166.11,215,21.00,9.00,-1007.00
2024-05-17 15:35:42.185265,0,0,1,0,0,0,72,74,130,110,42,165.82,215,10.00,9.00,-1011.00
2024-05-17 15:35:42.301507,0,0,0,0,0,0,72,74,131,110,42,165.96,215,25.00,12.00,-1000.00
2024-05-17 15:35:42.389629,1,0,0,0,0,0,72,74,131,110,42,165.97,215,21.00,11.00,-1007.00
2024-05-17 15:35:42.505312,1,0,0,0,0,0,72,74,131,110,42,166.27,215,11.00,-3.00,-992.00
2024-05-17 15:35:42.597451,1,0,0,0,0,0,72,74,131,110,42,166.03,215,28.00,11.00,-998.00
2024-05-17 15:35:42.695106,1,0,0,0,0,0,72,74,131,110,42,166.01,215,20.00,7.00,-996.00
2024-05-17 15:35:42.799843,1,0,0,0,0,0,72,74,131,110,42,166.07,216,17.00,16.00,-1000.00
2024-05-17 15:35:42.899207,1,0,0,0,0,0,72,75,131,110,42,166.20,216,10.00,11.00,-998.00
2024-05-17 15:35:43.017236,1,0,0,0,0,0,72,75,131,110,42,166.13,216,20.00,11.00,-990.00
2024-05-17 15:35:43.105239,1,0,0,0,0,0,72,75,131,110,42,166.02,216,9.00,10.00,-995.00
2024-05-17 15:35:43.205096,1,0,0,0,0,0,72,75,131,110,42,166.20,216,15.00,9.00,-990.00
2024-05-17 15:35:43.324277,1,0,0,0,0,0,72,75,131,110,42,166.15,216,18.00,5.00,-986.00
2024-05-17 15:35:43.412808,1,0,0,0,0,0,72,75,131,110,42,165.97,216,13.00,-10.00,-1000.00
2024-05-17 15:35:43.512046,1,0,0,0,0,0,72,75,131,110,42,165.99,216,25.00,2.00,-1003.00
2024-05-17 15:35:43.613119,1,0,1,0,0,0,72,75,131,110,42,166.13,216,16.00,-2.00,-994.00
2024-05-17 15:35:43.715099,1,0,1,0,0,0,72,75,131,110,42,166.21,216,13.00,-11.00,-1012.00
2024-05-17 15:35:43.817285,1,0,1,0,0,0,72,75,131,110,42,166.12,217,16.00,-13.00,-999.00
2024-05-17 15:35:43.919298,0,0,1,0,0,0,72,74,131,110,42,165.87,217,14.00,0.00,-1011.00
2024-05-17 15:35:44.021030,0,0,1,0,0,0,72,74,132,110,42,166.06,217,11.00,0.00,-996.00
2024-05-17 15:35:44.143717,0,0,1,0,0,0,72,74,132,110,42,166.02,217,6.00,-7.00,-990.00
2024-05-17 15:35:44.225701,0,0,1,0,0,0,72,74,132,110,42,166.01,217,19.00,-5.00,-1009.00
2024-05-17 15:35:44.348243,0,0,1,0,0,0,72,74,133,110,42,166.26,217,14.00,-5.00,-1006.00
2024-05-17 15:35:44.429141,0,0,1,0,0,0,72,74,133,110,42,165.98,217,-1.00,-2.00,-1007.00
2024-05-17 15:35:44.553004,0,0,1,0,0,0,72,74,133,110,42,166.10,217,10.00,-9.00,-983.00
2024-05-17 15:35:44.633049,0,0,1,0,0,0,72,74,133,110,42,165.87,217,19.00,-11.00,-1004.00
2024-05-17 15:35:44.757920,0,0,1,0,0,0,72,74,132,110,42,166.17,217,11.00,0.00,-992.00
2024-05-17 15:35:44.838949,0,0,1,0,0,0,72,74,132,110,42,165.92,218,18.00,5.00,-996.00
2024-05-17 15:35:44.939025,0,0,1,0,0,0,72,75,132,110,42,165.98,218,24.00,-11.00,-985.00
2024-05-17 15:35:45.040988,0,0,1,0,0,0,72,75,131,110,42,165.82,218,16.00,8.00,-986.00
2024-05-17 15:35:45.167567,0,0,1,0,0,0,72,75,131,110,42,166.01,218,8.00,14.00,-994.00
2024-05-17 15:35:45.245102,1,0,1,0,0,0,72,75,131,110,42,165.93,218,28.00,-4.00,-1005.00
2024-05-17 15:35:45.378579,1,0,1,0,0,0,72,75,131,110,42,166.22,218,23.00,0.00,-1000.00
2024-05-17 15:35:45.398281,1,0,1,0,0,0,72,75,132,110,42,165.90,218,24.00,0.00,-1006.00
2024-05-17 15:35:45.501186,1,-1,0,0,0,0,72,75,132,110,42,166.01,218,21.00,0.00,-1010.00
2024-05-17 15:35:45.679670,1,-1,0,0,0,0,72,75,133,110,42,166.00,218,24.00,14.00,-1007.00
2024-05-17 15:35:45.704004,1,-1,0,0,0,0,72,75,133,110,42,165.99,218,29.00,-6.00,-1008.00
2024-05-17 15:35:45.805983,1,0,0,0,0,0,72,75,132,110,42,165.96,219,26.00,6.00,-990.00
2024-05-17 15:35:45.908637,1,0,0,0,0,0,73,73,132,110,42,165.97,219,33.00,7.00,-989.00
2024-05-17 15:35:46.089876,2,0,0,0,0,0,73,73,132,110,42,165.87,219,21.00,2.00,-995.00
2024-05-17 15:35:46.111753,1,0,0,0,0,0,73,73,133,110,42,166.10,219,23.00,7.00,-995.00
2024-05-17 15:35:46.293825,1,0,0,0,0,0,73,73,133,110,41,165.95,219,27.00,8.00,-998.00
2024-05-17 15:35:46.317278,1,0,0,0,0,0,73,73,133,110,41,165.93,219,36.00,9.00,-991.00
2024-05-17 15:35:46.504332,1,0,0,0,0,0,73,73,133,110,41,165.79,219,17.00,4.00,-1007.00
2024-05-17 15:35:46.521327,1,0,0,0,0,0,73,73,134,110,41,166.16,219,27.00,9.00,-998.00
2024-05-17 15:35:46.703437,1,0,0,0,0,0,73,73,133,110,41,165.98,219,29.00,12.00,-1004.00
2024-05-17 15:35:46.724054,1,0,0,0,0,0,73,73,133,110,41,165.77,219,24.00,7.00,-998.00
2024-05-17 15:35:46.908159,1,0,0,0,0,0,73,73,133,110,41,166.09,220,23.00,8.00,-992.00
2024-05-17 15:35:46.928752,1,0,0,0,0,0,72,74,133,110,41,166.05,220,35.00,0.00,-995.00
2024-05-17 15:35:47.030556,1,0,0,0,0,0,72,74,133,110,41,166.24,220,25.00,4.00,-1007.00
2024-05-17 15:35:47.215430,1,0,0,0,0,0,72,74,133,110,41,166.01,220,28.00,15.00,-999.00
2024-05-17 15:35:47.234006,1,0,0,0,0,0,72,74,132,110,41,166.22,220,17.00,1.00,-989.00
2024-05-17 15:35:47.420223,1,0,0,0,0,0,72,74,132,110,41,166.01,220,35.00,7.00,-1013.00
2024-05-17 15:35:47.440517,1,0,0,0,0,0,72,74,132,110,41,165.88,220,27.00,7.00,-1010.00
2024-05-17 15:35:47.540339,1,0,0,0,0,0,72,74,132,110,41,166.13,220,21.00,6.00,-999.00
2024-05-17 15:35:47.727317,1,0,0,0,0,0,72,74,131,110,41,165.65,220,31.00,5.00,-998.00
2024-05-17 15:35:47.743897,1,0,0,0,0,0,72,74,132,110,41,166.00,220,28.00,5.00,-1004.00
2024-05-17 15:35:47.845931,1,0,0,0,0,0,72,74,132,110,41,166.21,221,21.00,14.00,-1006.00
2024-05-17 15:35:47.984637,1,0,0,0,0,0,72,74,132,110,41,166.10,221,21.00,10.00,-999.00
2024-05-17 15:35:48.049887,1,0,0,0,0,0,72,74,132,110,41,166.09,221,27.00,8.00,-998.00
2024-05-17 15:35:48.153771,1,0,0,0,0,0,72,74,132,110,41,166.18,221,20.00,15.00,-1013.00
2024-05-17 15:35:48.254340,1,0,0,0,0,0,72,74,132,110,41,166.04,221,8.00,9.00,-1013.00
2024-05-17 15:35:48.446611,1,0,0,0,0,0,72,74,132,110,41,166.17,221,17.00,4.00,-991.00
2024-05-17 15:35:48.458438,1,0,0,0,0,0,72,74,132,110,41,166.07,221,13.00,9.00,-1008.00
2024-05-17 15:35:48.650353,1,0,0,0,0,0,72,74,132,110,41,165.77,221,26.00,15.00,-994.00
2024-05-17 15:35:48.666725,1,0,0,0,0,0,72,74,132,110,41,166.10,221,20.00,-1.00,-992.00
2024-05-17 15:35:48.765100,1,0,0,0,0,0,72,74,132,110,41,166.24,221,26.00,11.00,-998.00
2024-05-17 15:35:48.867887,1,0,0,0,0,0,72,74,132,110,41,165.89,222,25.00,17.00,-994.00
2024-05-17 15:35:48.967795,1,0,0,0,0,0,71,75,132,110,41,166.19,222,23.00,5.00,-1001.00
2024-05-17 15:35:49.069854,1,0,0,0,0,0,71,75,133,110,41,166.29,222,27.00,20.00,-1006.00
2024-05-17 15:35:49.123550,1,0,1,0,0,0,71,75,132,110,40,166.11,222,18.00,0.00,-1008.00
2024-05-17 15:35:49.223685,1,0,1,0,0,0,71,75,133,110,40,165.80,222,14.00,0.00,-1012.00
2024-05-17 15:35:49.365873,0,0,1,0,0,0,71,75,132,110,40,166.07,222,13.00,8.00,-1000.00
2024-05-17 15:35:49.426820,0,0,1,0,0,0,71,75,132,110,40,166.26,222,20.00,4.00,-1010.00
2024-05-17 15:35:49.528929,1,0,0,0,0,0,71,75,132,110,40,166.06,222,21.00,13.00,-992.00
2024-05-17 15:35:49.673240,1,0,1,0,0,0,71,75,132,110,40,165.89,222,34.00,8.00,-1005.00
2024-05-17 15:35:49.734634,1,0,1,0,0,0,71,75,132,110,40,165.99,222,10.00,7.00,-1001.00
2024-05-17 15:35:49.835127,1,0,1,0,0,0,71,75,132,110,40,166.15,223,24.00,12.00,-1004.00
2024-05-17 15:35:49.936807,1,0,1,0,0,0,71,74,132,110,40,165.94,223,25.00,-2.00,-1000.00
2024-05-17 15:35:50.041576,1,0,1,0,0,0,71,74,132,110,40,166.27,223,23.00,-6.00,-985.00
2024-05-17 15:35:50.140918,1,0,1,0,0,0,71,74,132,110,40,166.04,223,20.00,11.00,-1003.00
2024-05-17 15:35:50.243129,0,0,1,0,0,0,71,74,133,110,40,166.03,223,9.00,2.00,-992.00
2024-05-17 15:35:50.390040,0,0,1,0,0,0,71,74,132,110,40,166.03,223,12.00,1.00,-995.00
2024-05-17 15:35:50.447879,0,0,1,0,0,0,71,74,132,110,40,166.08,223,20.00,9.00,-997.00
2024-05-17 15:35:50.594528,0,0,1,0,0,0,71,74,132,110,40,166.15,223,18.00,11.00,-1006.00
2024-05-17 15:35:50.650764,1,0,1,0,0,0,71,74,133,110,40,166.36,223,0.00,5.00,-997.00
2024-05-17 15:35:50.799434,1,0,1,0,0,0,71,74,133,110,40,166.14,223,13.00,18.00,-1002.00
2024-05-17 15:35:50.854778,0,0,1,0,0,0,71,74,133,110,40,166.10,224,11.00,7.00,-995.00
2024-05-17 15:35:51.004198,0,0,1,0,0,0,72,74,133,110,40,165.99,224,1.00,-3.00,-986.00
2024-05-17 15:35:51.058835,0,0,0,0,0,0,72,74,133,110,40,166.22,224,14.00,0.00,-990.00
2024-05-17 15:35:51.209046,0,0,0,0,0,0,72,74,133,110,40,166.00,224,0.00,-2.00,-1016.00
2024-05-17 15:35:51.264031,0,0,0,0,0,0,72,74,133,110,40,166.02,224,8.00,0.00,-1011.00
2024-05-17 15:35:51.413787,0,0,1,0,0,0,72,74,133,110,40,166.41,224,11.00,6.00,-989.00
2024-05-17 15:35:51.466779,0,0,1,0,0,0,72,74,133,110,40,165.90,224,15.00,1.00,-991.00
2024-05-17 15:35:51.619066,0,0,1,0,0,0,72,74,134,110,40,166.10,224,3.00,5.00,-1001.00
2024-05-17 15:35:51.672447,0,0,1,0,0,0,72,74,134,110,40,166.04,224,7.00,14.00,-1004.00
2024-05-17 15:35:51.773736,0,0,1,0,0,0,72,74,134,110,40,166.09,224,7.00,5.00,-989.00
2024-05-17 15:35:51.876637,0,0,1,0,0,0,72,74,134,110,40,166.12,225,10.00,6.00,-991.00
2024-05-17 15:35:51.976551,0,0,1,0,0,0,72,73,134,110,40,166.17,225,12.00,8.00,-995.00
2024-05-17 15:35:52.081333,0,0,1,0,0,0,72,73,134,110,40,165.87,225,0.00,-1.00,-1001.00
2024-05-17 15:35:52.180640,0,0,1,0,0,0,72,73,133,110,40,166.31,225,-2.00,2.00,-1008.00
2024-05-17 15:35:52.335238,0,0,1,0,0,0,72,73,133,110,40,165.98,225,5.00,8.00,-996.00
2024-05-17 15:35:52.384540,0,0,1,0,0,0,72,73,133,110,40,165.86,225,13.00,10.00,-974.00
2024-05-17 15:35:52.542099,0,0,1,0,0,0,72,73,133,110,40,165.78,225,4.00,4.00,-967.00
2024-05-17 15:35:52.588688,0,0,0,0,0,0,72,73,131,110,40,166.04,225,2.00,5.00,-935.00
2024-05-17 15:35:52.744829,0,0,0,0,0,1,72,73,130,110,40,166.03,225,1.00,5.00,-925.00
2024-05-17 15:35:52.744872,0,0,0,0,0,2,72,73,127,110,40,165.97,225,11.00,0.00,-910.00
2024-05-17 15:35:52.843520,0,0,0,0,0,3,72,73,123,110,40,165.78,226,7.00,5.00,-904.00
2024-05-17 15:35:52.950947,0,0,0,0,0,4,72,74,118,100,40,166.11,226,3.00,8.00,-896.00
2024-05-17 15:35:53.053375,0,0,0,0,0,5,72,74,113,100,40,165.63,226,3.00,8.00,-895.00
2024-05-17 15:35:53.149483,0,0,0,0,0,6,72,74,107,90,40,165.65,226,2.00,7.00,-924.00
2024-05-17 15:35:53.256823,0,0,1,0,0,7,72,74,99,90,40,165.82,226,14.00,16.00,-953.00
2024-05-17 15:35:53.354944,0,0,1,0,0,7,72,74,91,80,40,165.78,226,7.00,6.00,-991.00
2024-05-17 15:35:53.456316,0,0,1,0,0,7,72,74,84,70,40,165.82,226,4.00,18.00,-1028.00
2024-05-17 15:35:53.560452,0,0,1,0,0,7,72,74,76,60,40,165.65,226,-24.00,6.00,-1039.00
2024-05-17 15:35:53.659552,0,0,1,0,0,6,72,74,70,60,40,165.81,226,10.00,2.00,-1036.00
2024-05-17 15:35:53.771182,0,0,1,0,0,6,72,74,65,50,40,165.39,226,7.00,10.00,-1035.00
2024-05-17 15:35:53.865706,0,0,1,0,0,6,72,74,58,40,40,165.45,227,14.00,3.00,-1039.00
2024-05-17 15:35:53.966033,0,0,1,0,0,5,71,73,52,40,40,165.50,227,5.00,5.00,-1032.00
2024-05-17 15:35:54.067608,0,0,1,0,0,5,71,73,47,30,40,165.70,227,0.00,14.00,-1016.00
2024-05-17 15:35:54.179924,0,0,1,0,0,4,71,73,42,30,40,165.17,227,17.00,13.00,-1038.00
2024-05-17 15:35:54.272565,0,0,1,0,0,4,71,73,41,20,40,165.10,227,0.00,10.00,-1019.00
2024-05-17 15:35:54.383215,0,0,1,0,0,4,71,73,36,20,40,165.42,227,16.00,7.00,-1025.00
2024-05-17 15:35:54.475407,0,0,1,0,0,4,71,73,33,10,40,165.24,227,29.00,7.00,-999.00
2024-05-17 15:35:54.588241,0,0,1,0,0,4,71,73,29,10,40,165.12,227,33.00,3.00,-1007.00
2024-05-17 15:35:54.682178,0,0,1,0,0,4,71,73,25,0,40,165.02,227,16.00,8.00,-1000.00
