TS,pitch,roll,yaw,vgx,vgy,vgz,templ,temph,tof,h,bat,baro,time,agx,agy,agz
2024-05-17 15:36:43.698911,0,0,-4,0,0,0,77,79,10,0,38,165.15,229,9.00,-4.00,-1001.00
2024-05-17 15:36:43.798859,0,0,-4,0,0,0,77,79,10,0,38,165.00,229,10.00,-5.00,-999.00
2024-05-17 15:36:43.899199,0,0,-4,0,0,0,77,79,10,0,38,164.77,229,10.00,-4.00,-996.00
2024-05-17 15:36:44.000202,0,0,-4,0,0,0,77,79,10,0,38,165.16,229,11.00,-3.00,-1001.00
2024-05-17 15:36:44.100651,0,0,-4,0,0,0,77,79,10,0,38,165.07,229,9.00,-4.00,-999.00
2024-05-17 15:36:44.199958,0,0,-4,0,0,0,77,79,10,0,38,164.87,229,11.00,-4.00,-999.00
2024-05-17 15:36:44.300688,0,0,-4,0,0,0,77,79,10,0,38,164.97,229,11.00,-5.00,-999.00
2024-05-17 15:36:44.401682,0,0,-4,0,0,0,77,79,10,0,38,165.04,229,11.00,-5.00,-1000.00
2024-05-17 15:36:44.560062,0,0,-4,0,0,0,77,79,10,0,38,164.88,229,10.00,-4.00,-998.00
2024-05-17 15:36:44.617607,0,0,-4,0,0,0,77,79,10,0,38,164.91,229,9.00,-5.00,-999.00
2024-05-17 15:36:44.707667,0,0,-4,0,0,0,77,79,10,0,38,164.94,229,9.00,-3.00,-999.00
2024-05-17 15:36:44.868882,0,0,-4,0,0,0,77,79,10,0,38,165.16,229,11.00,-4.00,-1000.00
2024-05-17 15:36:44.913520,0,0,-4,0,0,0,77,79,10,0,38,164.81,229,12.00,-2.00,-998.00
2024-05-17 15:36:45.014094,0,0,-4,0,0,0,77,79,10,0,38,164.94,229,12.00,-5.00,-1000.00
2024-05-17 15:36:45.120625,0,0,-4,0,0,0,77,79,10,0,38,164.70,229,11.00,-5.00,-999.00
2024-05-17 15:36:45.222648,0,0,-4,0,0,0,77,79,10,0,38,164.94,229,10.00,-4.00,-999.00
2024-05-17 15:36:45.323279,0,0,-4,0,0,0,77,79,10,0,38,164.74,229,10.00,-5.00,-997.00
2024-05-17 15:36:45.423733,0,0,-4,0,0,0,77,79,10,0,38,164.72,229,12.00,-4.00,-1000.00
2024-05-17 15:36:45.531629,0,0,-4,0,0,0,77,79,10,0,38,164.95,229,10.00,-3.00,-1000.00
2024-05-17 15:36:45.625608,0,0,-4,0,0,0,77,79,10,0,38,164.94,229,10.00,-4.00,-997.00
2024-05-17 15:36:45.787951,0,0,-4,0,0,0,77,79,10,0,38,164.63,229,11.00,-4.00,-999.00
2024-05-17 15:36:45.834321,0,0,-4,0,0,0,77,79,10,0,38,165.01,229,11.00,-3.00,-999.00
2024-05-17 15:36:45.933242,0,0,-4,0,0,0,77,79,10,0,38,164.75,229,11.00,-2.00,-999.00
2024-05-17 15:36:46.033880,0,0,-4,0,0,0,77,79,10,0,38,164.97,229,10.00,-4.00,-1001.00
2024-05-17 15:36:46.149195,0,0,-4,0,0,0,77,79,10,0,38,164.91,229,11.00,-7.00,-999.00
2024-05-17 15:36:46.239321,0,0,-4,0,0,0,77,80,10,0,38,164.97,229,11.00,-3.00,-1000.00
2024-05-17 15:36:46.339651,0,0,-4,0,0,0,77,80,10,0,38,165.07,229,11.00,-5.00,-1000.00
2024-05-17 15:36:46.504656,0,0,-4,0,0,0,77,80,10,0,38,165.00,229,10.00,-3.00,-1000.00
2024-05-17 15:36:46.548551,0,0,-4,0,0,0,77,80,10,0,38,164.90,229,10.00,-3.00,-998.00
2024-05-17 15:36:46.598002,0,0,-4,0,0,0,77,80,10,0,38,164.77,229,10.00,-4.00,-1001.00
2024-05-17 15:36:46.696655,0,0,-4,0,0,0,77,80,10,0,38,164.85,229,11.00,-4.00,-999.00
2024-05-17 15:36:46.798891,0,0,-4,0,0,0,77,80,10,0,38,165.16,229,12.00,-4.00,-999.00
2024-05-17 15:36:46.919798,0,0,-4,0,0,0,77,80,10,0,38,164.84,229,9.00,-7.00,-1002.00
2024-05-17 15:36:47.009151,0,0,-4,0,0,0,77,80,10,0,38,164.84,229,10.00,-2.00,-997.00
2024-05-17 15:36:47.109670,0,0,-4,0,0,0,77,80,10,0,38,164.84,230,11.00,1.00,-996.00
2024-05-17 15:36:47.218693,0,0,-4,0,0,0,78,80,10,0,38,164.84,230,6.00,-3.00,-1015.00
2024-05-17 15:36:47.308585,0,0,-4,0,0,0,78,80,10,0,38,164.84,230,17.00,0.00,-1012.00
2024-05-17 15:36:47.428197,0,0,-4,0,0,0,78,80,10,0,38,164.84,230,15.00,-9.00,-1186.00
2024-05-17 15:36:47.512614,0,0,-4,0,0,-1,78,80,10,0,38,164.84,230,29.00,-18.00,-1333.00
2024-05-17 15:36:47.630810,0,0,-4,0,0,-4,78,80,13,0,38,164.84,230,10.00,-3.00,-1225.00
2024-05-17 15:36:47.716445,1,2,-4,0,0,-6,78,80,20,0,38,165.03,230,2.00,-7.00,-1106.00
2024-05-17 15:36:47.835564,0,1,-4,0,0,-6,78,80,28,0,38,165.43,230,10.00,-8.00,-1044.00
2024-05-17 15:36:47.920392,0,0,-4,0,0,-6,78,80,38,0,38,165.37,230,3.00,-12.00,-1010.00
2024-05-17 15:36:48.022512,0,0,-4,0,0,-6,78,80,48,10,38,165.40,230,19.00,-10.00,-966.00
2024-05-17 15:36:48.124729,0,0,-4,0,0,-6,78,80,55,20,38,165.47,231,12.00,-9.00,-941.00
2024-05-17 15:36:48.227279,1,0,-4,0,0,-5,79,80,60,20,38,165.42,231,12.00,-5.00,-953.00
2024-05-17 15:36:48.328385,0,0,-4,0,0,-4,79,80,67,30,38,165.53,231,15.00,-19.00,-925.00
2024-05-17 15:36:48.430359,0,0,-4,0,0,-3,79,80,73,30,38,165.76,231,3.00,-7.00,-904.00
2024-05-17 15:36:48.534806,0,0,-4,0,0,-2,79,80,77,30,38,165.75,231,20.00,-8.00,-903.00
2024-05-17 15:36:48.634243,0,0,-4,0,0,-1,79,80,81,40,38,166.16,231,6.00,-2.00,-903.00
2024-05-17 15:36:48.736338,0,0,-4,0,0,-1,79,80,84,40,38,165.87,231,17.00,-8.00,-912.00
2024-05-17 15:36:48.861893,0,0,-4,0,0,0,79,80,87,40,38,166.05,231,14.00,-1.00,-923.00
2024-05-17 15:36:48.940491,0,0,-4,0,0,0,79,80,89,40,38,166.16,231,7.00,-8.00,-927.00
2024-05-17 15:36:49.069969,0,0,-4,0,0,0,79,80,91,40,38,165.78,231,24.00,-4.00,-936.00
2024-05-17 15:36:49.145648,0,0,-4,0,0,0,79,80,91,40,38,165.77,232,15.00,0.00,-956.00
2024-05-17 15:36:49.248343,0,0,-4,0,0,0,78,80,92,40,38,165.65,232,19.00,-7.00,-998.00
2024-05-17 15:36:49.348693,0,0,-4,0,0,0,78,80,92,40,38,166.27,232,16.00,-2.00,-982.00
2024-05-17 15:36:49.474129,0,0,-4,0,0,0,78,80,93,50,38,165.95,232,13.00,2.00,-982.00
2024-05-17 15:36:49.552311,0,0,-4,0,0,0,78,80,94,50,38,166.31,232,13.00,1.00,-986.00
2024-05-17 15:36:49.678684,0,0,-4,0,0,0,78,80,94,50,38,165.81,232,6.00,0.00,-983.00
2024-05-17 15:36:49.757615,0,0,-4,0,0,0,78,80,94,50,38,165.74,232,0.00,-5.00,-980.00
2024-05-17 15:36:49.858999,0,0,-4,0,0,0,78,80,94,50,38,165.85,232,3.00,-3.00,-970.00
2024-05-17 15:36:49.960394,0,0,-4,0,0,0,78,80,94,50,38,165.98,232,8.00,5.00,-973.00
2024-05-17 15:36:50.064050,0,0,-4,0,0,0,78,80,93,50,38,165.93,232,10.00,-7.00,-990.00
2024-05-17 15:36:50.164622,0,0,-4,0,0,1,78,80,92,50,38,166.05,233,10.00,-4.00,-985.00
2024-05-17 15:36:50.266415,0,0,-4,0,0,1,78,80,92,50,38,166.10,233,16.00,6.00,-978.00
2024-05-17 15:36:50.318038,0,0,-4,0,0,1,78,80,91,50,38,166.10,233,14.00,4.00,-991.00
2024-05-17 15:36:50.419296,0,0,-4,0,0,1,78,80,90,50,38,165.99,233,15.00,1.00,-994.00
2024-05-17 15:36:50.601615,0,0,-4,0,0,1,78,80,89,50,38,165.94,233,17.00,1.00,-990.00
2024-05-17 15:36:50.623896,0,0,-4,0,0,1,78,80,88,50,38,165.93,233,10.00,6.00,-1004.00
2024-05-17 15:36:50.805104,0,0,-4,0,0,0,78,80,87,50,38,165.98,233,11.00,0.00,-1000.00
2024-05-17 15:36:50.828629,0,0,-4,0,0,0,78,80,86,50,38,165.92,233,21.00,-7.00,-989.00
2024-05-17 15:36:50.931921,0,0,-4,0,0,1,78,80,85,40,38,165.91,233,19.00,-1.00,-997.00
2024-05-17 15:36:51.033030,0,0,-4,0,0,0,78,80,84,40,38,165.87,233,11.00,8.00,-1008.00
2024-05-17 15:36:51.134514,0,0,-4,0,0,0,78,80,83,40,38,165.75,234,14.00,-3.00,-996.00
2024-05-17 15:36:51.235462,0,0,-4,0,0,0,76,80,82,40,38,166.02,234,16.00,-4.00,-1005.00
2024-05-17 15:36:51.431517,0,0,-4,0,0,0,76,80,81,40,38,165.69,234,17.00,1.00,-996.00
2024-05-17 15:36:51.448123,0,0,-4,0,0,0,76,80,80,40,38,165.79,234,5.00,-1.00,-1007.00
2024-05-17 15:36:51.551032,0,0,-4,0,0,0,76,80,79,40,38,165.90,234,15.00,8.00,-1016.00
2024-05-17 15:36:51.647330,1,0,-4,0,0,0,76,80,78,40,38,165.90,234,18.00,-4.00,-998.00
2024-05-17 15:36:51.745852,0,0,-4,0,0,0,76,80,78,40,38,166.00,234,13.00,0.00,-1006.00
2024-05-17 15:36:51.849924,0,0,-4,0,0,0,76,80,77,40,38,165.81,234,11.00,12.00,-1018.00
2024-05-17 15:36:51.953501,0,0,-4,0,0,0,76,80,77,40,38,165.64,234,9.00,-3.00,-1008.00
2024-05-17 15:36:52.051027,1,0,-4,0,0,0,76,80,76,40,38,165.86,234,11.00,7.00,-991.00
2024-05-17 15:36:52.238703,0,0,-4,0,0,0,76,80,76,40,38,165.89,235,12.00,1.00,-1012.00
2024-05-17 15:36:52.255744,0,0,-4,0,0,0,77,79,75,40,38,166.00,235,16.00,13.00,-1004.00
2024-05-17 15:36:52.451310,0,0,-4,0,0,0,77,79,76,40,38,165.93,235,5.00,-4.00,-1006.00
2024-05-17 15:36:52.459715,0,0,-4,0,0,0,77,79,76,40,38,165.60,235,14.00,5.00,-998.00
2024-05-17 15:36:52.648255,0,0,-4,0,0,0,77,79,76,40,38,165.87,235,11.00,2.00,-1004.00
2024-05-17 15:36:52.663154,0,0,-4,0,0,0,77,79,76,40,38,166.04,235,14.00,8.00,-996.00
2024-05-17 15:36:52.853092,1,0,-4,0,0,0,77,79,76,40,38,165.81,235,8.00,-8.00,-989.00
2024-05-17 15:36:52.867029,1,0,-4,0,0,0,77,79,76,40,38,166.15,235,12.00,2.00,-1004.00
2024-05-17 15:36:53.060100,1,0,-4,0,0,0,77,79,76,40,38,165.97,235,15.00,9.00,-999.00
2024-05-17 15:36:53.072048,1,0,-4,0,0,0,77,79,76,40,38,165.85,235,13.00,3.00,-1001.00
2024-05-17 15:36:53.263429,1,0,-4,0,0,0,77,79,76,40,38,165.73,236,12.00,3.00,-992.00
2024-05-17 15:36:53.276264,1,0,-4,0,0,0,77,79,76,40,38,165.90,236,10.00,7.00,-994.00
2024-05-17 15:36:53.467620,1,0,-4,0,0,0,77,79,76,40,38,166.19,236,15.00,6.00,-1004.00
2024-05-17 15:36:53.481086,1,0,-4,0,0,0,77,79,76,40,38,165.87,236,3.00,6.00,-1001.00
2024-05-17 15:36:53.675581,1,0,-4,0,0,0,77,79,76,40,38,165.75,236,5.00,8.00,-1000.00
2024-05-17 15:36:53.684088,1,0,-4,0,0,0,77,79,76,40,38,166.15,236,10.00,8.00,-987.00
2024-05-17 15:36:53.877384,1,0,-4,0,0,0,77,79,77,40,38,165.97,236,15.00,2.00,-1000.00
2024-05-17 15:36:53.888119,1,0,-4,0,0,0,77,79,77,40,38,165.81,236,21.00,7.00,-995.00
2024-05-17 15:36:53.939361,1,0,-4,0,0,0,77,79,77,40,38,165.76,236,8.00,11.00,-1001.00
2024-05-17 15:36:54.082529,1,0,-4,0,0,0,77,79,77,40,38,165.69,236,15.00,15.00,-1004.00
2024-05-17 15:36:54.143607,1,0,-4,0,0,0,77,79,77,40,38,165.99,237,8.00,0.00,-1009.00
2024-05-17 15:36:54.389181,1,0,-4,0,0,0,77,79,77,40,38,165.55,237,19.00,4.00,-1006.00
2024-05-17 15:36:54.389355,1,0,-4,0,0,0,77,79,77,40,38,166.06,237,7.00,5.00,-1006.00
2024-05-17 15:36:54.448993,1,0,-4,0,0,0,77,79,77,40,38,165.91,237,14.00,9.00,-1002.00
2024-05-17 15:36:54.595799,1,0,-4,0,0,0,77,79,77,40,38,165.68,237,11.00,12.00,-999.00
2024-05-17 15:36:54.653255,1,0,-4,0,0,0,77,79,77,40,38,165.67,237,13.00,14.00,-1008.00
2024-05-17 15:36:54.800403,1,0,-4,0,0,0,77,79,77,40,38,166.01,237,22.00,11.00,-1005.00
2024-05-17 15:36:54.857569,1,0,-4,0,0,0,77,79,77,40,38,165.58,237,14.00,16.00,-1012.00
2024-05-17 15:36:54.994737,1,0,-4,0,0,0,77,79,77,40,38,166.03,237,7.00,8.00,-996.00
2024-05-17 15:36:55.060974,1,0,-4,0,0,0,77,79,77,40,38,166.09,237,15.00,-2.00,-994.00
2024-05-17 15:36:55.163824,1,0,-4,0,0,0,77,79,78,40,38,165.92,238,13.00,2.00,-1041.00
2024-05-17 15:36:55.264930,1,0,-4,0,0,0,76,77,78,40,38,166.34,238,23.00,5.00,-1095.00
2024-05-17 15:36:55.413603,1,0,-4,0,0,-1,76,77,80,40,38,165.65,238,14.00,12.00,-1096.00
2024-05-17 15:36:55.468920,1,0,-4,0,0,-2,76,77,83,40,38,165.95,238,16.00,0.00,-1096.00
2024-05-17 15:36:55.617809,1,0,-4,0,0,-3,76,77,87,40,38,165.96,238,5.00,20.00,-1064.00
2024-05-17 15:36:55.673787,1,0,-4,0,0,-3,76,77,92,50,38,166.00,238,6.00,1.00,-1064.00
2024-05-17 15:36:55.822636,1,0,-4,0,0,-4,76,77,97,50,38,165.85,238,14.00,-4.00,-1041.00
2024-05-17 15:36:55.876831,0,0,-4,0,0,-5,76,77,102,60,38,166.05,238,3.00,-7.00,-1034.00
2024-05-17 15:36:56.027647,0,0,-4,0,0,-5,76,77,107,60,38,165.96,238,7.00,-2.00,-1029.00
2024-05-17 15:36:56.080952,0,0,-4,0,0,-5,76,77,113,70,38,166.25,238,1.00,12.00,-1003.00
2024-05-17 15:36:56.232213,0,0,-4,0,0,-5,76,77,119,70,38,166.18,239,12.00,5.00,-1006.00
2024-05-17 15:36:56.284828,0,0,-4,0,0,-5,76,78,125,80,38,166.20,239,16.00,5.00,-998.00
2024-05-17 15:36:56.438318,0,0,-4,0,0,-5,76,78,131,80,38,166.61,239,10.00,5.00,-968.00
2024-05-17 15:36:56.489963,0,0,-4,0,0,-5,76,78,137,90,38,166.27,239,11.00,4.00,-966.00
2024-05-17 15:36:56.642461,0,0,-4,0,0,-5,76,78,142,90,38,166.44,239,10.00,-2.00,-968.00
2024-05-17 15:36:56.697919,1,0,-4,0,0,-4,76,78,147,100,38,166.56,239,16.00,4.00,-954.00
2024-05-17 15:36:56.794917,1,0,-4,0,0,-4,76,78,151,100,38,166.10,239,20.00,2.00,-962.00
2024-05-17 15:36:56.949105,1,0,-4,0,0,-4,76,78,156,110,38,166.43,239,24.00,7.00,-962.00
2024-05-17 15:36:57.000278,1,0,-4,0,0,-3,76,78,159,110,38,166.74,239,14.00,6.00,-968.00
2024-05-17 15:36:57.154157,1,0,-4,0,0,-3,76,78,163,120,38,167.00,239,18.00,9.00,-957.00
2024-05-17 15:36:57.217054,1,0,-4,0,0,-3,76,78,167,120,38,166.49,240,21.00,-4.00,-953.00
2024-05-17 15:36:57.304860,1,0,-4,0,0,-2,75,77,169,120,38,166.68,240,25.00,7.00,-971.00
2024-05-17 15:36:57.462013,1,0,-4,0,0,-2,75,77,171,130,38,166.77,240,8.00,11.00,-959.00
2024-05-17 15:36:57.508840,1,0,-4,0,0,-2,75,77,174,130,38,166.92,240,27.00,3.00,-973.00
2024-05-17 15:36:57.559667,1,0,-4,0,0,-1,75,77,175,130,38,166.65,240,26.00,3.00,-956.00
2024-05-17 15:36:57.662071,1,0,-4,0,0,-1,75,77,177,130,38,166.73,240,15.00,6.00,-976.00
2024-05-17 15:36:57.768737,1,0,-4,0,0,-1,75,77,178,130,38,166.74,240,25.00,-3.00,-983.00
2024-05-17 15:36:57.866224,1,0,-4,0,0,0,75,77,179,130,38,166.72,240,25.00,12.00,-955.00
2024-05-17 15:36:57.973692,2,0,-4,0,0,0,75,77,180,140,38,166.69,240,15.00,12.00,-951.00
2024-05-17 15:36:58.069939,2,0,-4,0,0,0,75,77,180,140,38,166.70,240,18.00,0.00,-970.00
2024-05-17 15:36:58.178230,2,0,-4,0,0,0,75,77,180,140,38,166.93,241,22.00,6.00,-978.00
2024-05-17 15:36:58.275000,2,0,-4,0,0,0,76,77,180,140,38,166.95,241,18.00,12.00,-995.00
2024-05-17 15:36:58.382779,2,0,-4,0,0,0,76,77,180,140,38,166.52,241,17.00,13.00,-994.00
2024-05-17 15:36:58.477933,1,0,-4,0,0,0,76,77,180,140,38,166.89,241,19.00,1.00,-994.00
2024-05-17 15:36:58.588472,2,0,-4,0,0,0,76,77,180,140,38,167.08,241,25.00,7.00,-1006.00
2024-05-17 15:36:58.681854,2,0,-4,0,0,0,76,77,180,140,38,166.44,241,17.00,4.00,-1014.00
2024-05-17 15:36:58.792361,2,0,-4,0,0,0,76,77,180,140,38,167.06,241,17.00,1.00,-999.00
2024-05-17 15:36:58.885908,1,0,-4,0,0,0,76,77,180,140,38,166.80,241,18.00,10.00,-999.00
2024-05-17 15:36:59.012487,1,0,-4,0,0,0,76,77,179,140,38,166.80,241,18.00,7.00,-1000.00
2024-05-17 15:36:59.090407,1,0,-4,0,0,0,76,77,179,140,38,166.98,242,24.00,4.00,-1003.00
2024-05-17 15:36:59.202007,1,0,-4,0,0,0,76,77,179,140,38,166.80,242,21.00,8.00,-998.00
2024-05-17 15:36:59.295695,1,0,-4,0,0,0,76,77,179,140,38,166.70,242,27.00,5.00,-989.00
2024-05-17 15:36:59.396713,1,0,-4,0,0,0,76,77,179,140,38,166.97,242,26.00,8.00,-991.00
2024-05-17 15:36:59.510068,2,0,-4,0,0,0,76,77,179,140,38,166.54,242,19.00,7.00,-1000.00
2024-05-17 15:36:59.608723,1,0,-4,0,0,0,76,77,180,140,38,166.95,242,22.00,11.00,-1005.00
2024-05-17 15:36:59.702697,1,0,-4,0,0,0,76,77,179,140,38,166.78,242,26.00,9.00,-997.00
2024-05-17 15:36:59.816321,1,0,-4,0,0,0,76,77,179,140,38,166.96,242,23.00,12.00,-962.00
2024-05-17 15:36:59.915221,1,0,-4,0,0,0,76,77,179,140,38,166.99,242,27.00,4.00,-952.00
2024-05-17 15:37:00.008691,1,0,-4,0,0,1,76,77,178,140,38,167.06,242,33.00,0.00,-954.00
2024-05-17 15:37:00.123458,1,0,-4,0,0,1,76,77,177,130,38,166.61,243,26.00,2.00,-950.00
2024-05-17 15:37:00.212706,1,0,-4,0,0,1,76,77,175,130,38,166.79,243,14.00,-1.00,-965.00
2024-05-17 15:37:00.315305,1,0,-4,0,0,2,76,78,173,130,38,166.98,243,21.00,5.00,-966.00
2024-05-17 15:37:00.418065,1,0,-4,0,0,2,76,78,171,130,38,166.76,243,17.00,5.00,-976.00
2024-05-17 15:37:00.519093,1,0,-4,0,0,2,76,78,168,130,38,166.53,243,16.00,9.00,-993.00
2024-05-17 15:37:00.635683,1,0,-4,0,0,2,76,78,165,120,38,166.37,243,18.00,-2.00,-998.00
2024-05-17 15:37:00.722674,1,0,-4,0,0,2,76,78,162,120,38,166.58,243,28.00,2.00,-1000.00
2024-05-17 15:37:00.827084,1,0,-4,0,0,2,76,78,160,120,38,166.53,243,16.00,-2.00,-995.00
2024-05-17 15:37:00.928106,1,0,-4,0,0,2,76,78,157,120,38,166.38,243,25.00,10.00,-1011.00
2024-05-17 15:37:01.028617,1,0,-4,0,0,2,76,78,154,110,38,166.43,243,13.00,6.00,-1017.00
2024-05-17 15:37:01.079568,1,0,-4,0,0,2,76,78,151,110,38,166.52,244,32.00,3.00,-1025.00
2024-05-17 15:37:01.249872,1,0,-4,0,0,2,76,78,148,110,38,166.56,244,18.00,8.00,-1014.00
2024-05-17 15:37:01.335368,1,0,-4,0,0,2,74,78,145,110,38,166.46,244,24.00,0.00,-1023.00
2024-05-17 15:37:01.436554,1,0,-4,0,0,2,74,78,142,100,38,166.39,244,8.00,8.00,-1012.00
2024-05-17 15:37:01.487930,1,0,-4,0,0,1,74,78,141,100,38,166.19,244,16.00,1.00,-1020.00
2024-05-17 15:37:01.659444,1,0,-4,0,0,1,74,78,139,100,38,166.61,244,31.00,-1.00,-1009.00
2024-05-17 15:37:01.693244,1,0,-4,0,0,1,74,78,137,100,38,166.26,244,14.00,4.00,-1003.00
2024-05-17 15:37:01.793630,1,0,-4,0,0,1,74,78,135,100,38,166.24,244,17.00,0.00,-1024.00
2024-05-17 15:37:01.897269,1,0,-4,0,0,1,74,78,134,90,38,166.06,244,21.00,8.00,-1017.00
2024-05-17 15:37:01.997729,1,0,-4,0,0,1,74,78,133,90,38,166.17,244,14.00,3.00,-1006.00
2024-05-17 15:37:02.171601,1,0,-4,0,0,1,74,78,132,90,38,166.32,245,21.00,-2.00,-1020.00
2024-05-17 15:37:02.202705,1,0,-4,0,0,0,74,78,131,90,38,166.11,245,19.00,10.00,-1030.00
2024-05-17 15:37:02.376311,1,0,-4,0,0,0,75,77,130,90,38,166.06,245,16.00,2.00,-1019.00
2024-05-17 15:37:02.405592,1,0,-4,0,0,0,75,77,129,90,38,166.18,245,18.00,5.00,-1015.00
2024-05-17 15:37:02.581645,1,0,-4,0,0,0,75,77,129,90,38,166.33,245,13.00,8.00,-1005.00
2024-05-17 15:37:02.610507,1,0,-4,0,0,0,75,77,129,90,38,166.29,245,25.00,1.00,-1017.00
2024-05-17 15:37:02.785923,1,0,-4,0,0,0,75,77,129,90,38,166.35,245,14.00,-4.00,-1003.00
2024-05-17 15:37:02.813746,1,0,-4,0,0,0,75,77,129,90,38,166.49,245,12.00,3.00,-999.00
2024-05-17 15:37:02.990737,1,0,-4,0,0,0,75,77,129,90,38,166.17,245,11.00,3.00,-1000.00
2024-05-17 15:37:03.017539,1,0,-4,0,0,0,75,77,129,90,38,166.44,245,13.00,5.00,-998.00
2024-05-17 15:37:03.196539,1,0,-4,0,0,0,75,77,129,90,38,166.34,246,22.00,-6.00,-1004.00
2024-05-17 15:37:03.221870,1,0,-4,0,0,0,75,77,129,90,38,166.17,246,0.00,5.00,-1007.00
2024-05-17 15:37:03.404536,1,0,-4,0,0,0,75,77,129,90,38,166.61,246,21.00,10.00,-990.00
2024-05-17 15:37:03.425508,1,0,-4,0,0,0,75,77,129,90,38,166.34,246,12.00,-1.00,-1000.00
2024-05-17 15:37:03.527379,1,0,-4,0,0,0,75,77,129,90,38,166.34,246,10.00,-1.00,-1013.00
2024-05-17 15:37:03.707901,1,0,-4,0,0,0,75,77,130,90,38,166.35,246,13.00,19.00,-999.00
2024-05-17 15:37:03.731471,1,0,-4,0,0,0,75,77,130,90,38,166.26,246,18.00,-5.00,-984.00
2024-05-17 15:37:03.912292,1,0,-4,0,0,0,75,77,130,90,38,166.21,246,10.00,0.00,-994.00
2024-05-17 15:37:03.935555,1,0,-4,0,0,0,75,77,130,90,38,166.25,246,2.00,-3.00,-999.00
2024-05-17 15:37:04.118549,1,0,-4,0,0,0,75,77,130,90,38,166.24,246,21.00,7.00,-1013.00
2024-05-17 15:37:04.139383,1,0,-4,0,0,0,75,77,131,90,38,166.26,247,11.00,-8.00,-1006.00
2024-05-17 15:37:04.243982,1,0,-4,0,0,0,75,77,130,90,38,166.23,247,10.00,0.00,-984.00
2024-05-17 15:37:04.343401,0,0,-4,0,0,0,75,77,131,90,38,166.23,247,24.00,9.00,-993.00
2024-05-17 15:37:04.526526,-5,0,-4,0,0,0,75,77,132,90,38,166.06,247,21.00,2.00,-993.00
2024-05-17 15:37:04.547498,-7,0,-4,1,0,0,75,77,134,90,38,166.50,247,5.00,0.00,-1016.00
2024-05-17 15:37:04.731415,-7,0,-4,3,0,0,75,77,133,90,38,166.11,247,18.00,2.00,-1000.00
2024-05-17 15:37:04.751501,-6,0,-4,4,0,0,75,77,133,90,38,166.41,247,4.00,0.00,-1006.00
2024-05-17 15:37:04.936224,-5,0,-4,5,0,0,75,77,132,90,38,166.13,247,-5.00,3.00,-997.00
2024-05-17 15:37:04.955690,-5,0,-4,5,0,0,75,77,133,90,38,166.35,247,-16.00,14.00,-998.00
2024-05-17 15:37:05.006943,-5,0,-4,6,0,0,75,77,131,90,38,166.56,247,-14.00,13.00,-1018.00
2024-05-17 15:37:05.143440,-4,0,-4,7,0,0,75,77,129,90,38,166.07,248,-19.00,16.00,-1010.00
2024-05-17 15:37:05.211391,-3,0,-4,7,0,0,75,77,133,90,38,166.32,248,-21.00,3.00,-1010.00
2024-05-17 15:37:05.363382,0,0,-4,7,0,0,75,77,132,90,38,166.14,248,-58.00,15.00,-989.00
2024-05-17 15:37:05.414437,2,0,-4,6,0,0,75,77,131,90,38,166.42,248,-47.00,-3.00,-1012.00
2024-05-17 15:37:05.517531,4,0,-4,5,0,0,75,77,132,90,38,166.32,248,-41.00,-3.00,-1010.00
2024-05-17 15:37:05.654045,4,0,-4,4,0,0,75,77,132,90,38,166.37,248,-42.00,14.00,-998.00
2024-05-17 15:37:05.723255,2,0,-4,3,0,0,75,77,131,90,38,166.50,248,-27.00,7.00,-1010.00
2024-05-17 15:37:05.822374,1,0,-4,3,0,0,75,77,132,90,38,166.13,248,-24.00,13.00,-1012.00
2024-05-17 15:37:05.960289,0,-1,-4,3,0,0,75,77,132,90,38,166.49,248,-38.00,7.00,-996.00
2024-05-17 15:37:06.026365,0,0,-4,2,0,0,75,77,131,90,38,166.46,248,-27.00,18.00,-999.00
2024-05-17 15:37:06.166244,0,0,-4,2,0,0,75,77,131,90,38,166.02,249,-18.00,20.00,-990.00
2024-05-17 15:37:06.235789,0,0,-4,2,0,0,75,77,131,90,38,166.19,249,-5.00,25.00,-997.00
2024-05-17 15:37:06.332353,0,0,-4,2,0,0,75,77,131,90,38,166.33,249,-23.00,14.00,-993.00
2024-05-17 15:37:06.479852,1,-3,-4,2,0,0,75,77,131,90,38,166.44,249,-5.00,20.00,-1015.00
2024-05-17 15:37:06.536311,1,-5,-4,1,0,0,75,77,130,90,38,166.06,249,-9.00,7.00,-994.00
2024-05-17 15:37:06.638289,1,-2,-4,1,-1,0,75,77,131,90,38,166.51,249,0.00,23.00,-969.00
2024-05-17 15:37:06.779394,4,2,-4,1,0,0,75,77,132,90,38,166.55,249,-7.00,20.00,-999.00
2024-05-17 15:37:06.842443,2,0,-4,0,0,0,75,77,131,90,38,166.69,249,9.00,4.00,-991.00
2024-05-17 15:37:06.984313,1,0,-4,0,0,0,75,77,131,90,38,166.34,249,8.00,11.00,-1003.00
2024-05-17 15:37:07.046531,0,0,-4,0,0,0,75,77,131,90,38,166.12,249,3.00,16.00,-1006.00
2024-05-17 15:37:07.189176,0,-1,-4,0,0,0,75,77,130,90,38,166.33,250,12.00,18.00,-1001.00
2024-05-17 15:37:07.251087,0,-1,-4,0,0,0,75,77,131,90,38,166.33,250,-4.00,10.00,-1005.00
2024-05-17 15:37:07.393956,0,0,-4,0,0,0,74,77,131,90,38,166.40,250,12.00,16.00,-998.00
2024-05-17 15:37:07.455230,0,0,-4,0,0,0,74,77,132,90,38,166.55,250,22.00,24.00,-998.00
2024-05-17 15:37:07.598547,1,0,-4,0,0,0,74,77,132,90,38,166.58,250,11.00,4.00,-979.00
2024-05-17 15:37:07.658282,1,-1,-4,0,0,0,74,77,131,90,38,166.12,250,22.00,11.00,-1004.00
2024-05-17 15:37:07.803665,1,-1,-4,0,0,0,74,77,131,90,38,166.34,250,8.00,6.00,-998.00
2024-05-17 15:37:07.862336,1,-1,-4,0,0,0,74,77,132,90,38,166.11,250,25.00,11.00,-1004.00
2024-05-17 15:37:08.008329,1,0,-4,0,0,0,74,77,132,90,38,166.47,250,8.00,7.00,-1002.00
2024-05-17 15:37:08.066388,1,0,-4,0,0,0,74,77,131,90,38,166.29,250,23.00,21.00,-1009.00
2024-05-17 15:37:08.213102,0,0,-4,0,0,0,74,77,131,90,38,166.07,251,13.00,19.00,-1016.00
2024-05-17 15:37:08.270518,0,0,-4,0,0,0,74,77,132,90,38,166.06,251,18.00,7.00,-1000.00
2024-05-17 15:37:08.417902,0,0,-4,0,0,0,74,77,132,90,38,166.13,251,22.00,15.00,-984.00
2024-05-17 15:37:08.474448,0,0,-4,0,0,0,74,77,133,90,38,166.23,251,24.00,12.00,-990.00
2024-05-17 15:37:08.622588,1,0,-4,0,0,0,74,77,133,90,38,166.35,251,14.00,11.00,-985.00
2024-05-17 15:37:08.678346,1,0,-4,0,0,0,74,77,134,90,38,166.21,251,18.00,11.00,-995.00
2024-05-17 15:37:08.827609,1,0,-4,0,0,0,74,77,134,90,38,166.45,251,24.00,17.00,-999.00
2024-05-17 15:37:08.884738,1,0,-4,0,0,0,74,77,134,90,38,166.31,251,17.00,11.00,-994.00
2024-05-17 15:37:08.935138,1,0,-4,0,0,0,74,77,134,90,38,166.22,251,24.00,10.00,-969.00
2024-05-17 15:37:09.035842,3,0,-4,0,0,0,74,77,134,90,38,166.46,251,21.00,17.00,-990.00
2024-05-17 15:37:09.138409,8,0,-4,0,0,0,74,77,135,90,38,166.38,252,24.00,2.00,-1012.00
2024-05-17 15:37:09.240594,8,0,-4,-2,0,0,74,77,135,90,38,166.39,252,26.00,0.00,-1007.00
2024-05-17 15:37:09.342962,8,0,-4,-3,0,0,74,76,135,90,38,166.60,252,50.00,10.00,-1003.00
2024-05-17 15:37:09.443141,8,0,-4,-4,0,0,74,76,135,90,38,166.45,252,48.00,-6.00,-998.00
2024-05-17 15:37:09.545251,8,0,-4,-5,0,0,74,76,135,90,38,166.23,252,58.00,2.00,-1011.00
2024-05-17 15:37:09.752919,8,0,-4,-6,0,0,74,76,136,90,38,166.21,252,73.00,2.00,-1006.00
2024-05-17 15:37:09.753137,7,0,-4,-6,0,0,74,76,135,90,38,166.30,252,61.00,-3.00,-1003.00
2024-05-17 15:37:09.851388,7,0,-4,-7,0,0,74,76,134,90,38,166.26,252,69.00,-2.00,-1005.00
2024-05-17 15:37:09.954475,4,0,-4,-7,0,0,74,76,133,90,38,166.28,252,77.00,8.00,-993.00
2024-05-17 15:37:10.056925,1,0,-4,-7,0,0,74,76,133,90,38,166.32,252,71.00,9.00,-989.00
2024-05-17 15:37:10.158207,-1,0,-4,-6,0,0,74,76,137,90,38,166.20,253,62.00,7.00,-1007.00
2024-05-17 15:37:10.261480,-3,-1,-4,-5,0,0,74,76,136,90,38,166.36,253,59.00,19.00,-995.00
2024-05-17 15:37:10.363610,-2,0,-4,-4,0,0,74,76,135,90,38,166.31,253,45.00,10.00,-1007.00
2024-05-17 15:37:10.463223,0,0,-4,-3,0,0,74,76,134,90,38,166.23,253,39.00,8.00,-990.00
2024-05-17 15:37:10.571787,0,0,-4,-3,0,0,74,76,134,90,38,166.28,253,40.00,11.00,-999.00
2024-05-17 15:37:10.667074,0,0,-4,-3,0,0,74,76,134,90,38,166.22,253,44.00,0.00,-1000.00
2024-05-17 15:37:10.772934,0,0,-4,-3,0,0,74,76,134,90,38,166.29,253,39.00,-4.00,-996.00
2024-05-17 15:37:10.871100,0,0,-4,-2,0,0,74,76,134,90,38,165.99,253,35.00,2.00,-994.00
2024-05-17 15:37:10.980238,0,0,-4,-2,0,0,74,76,133,90,38,166.15,253,33.00,5.00,-1002.00
2024-05-17 15:37:11.075176,0,0,-4,-2,0,0,74,76,133,90,38,166.29,253,26.00,5.00,-992.00
2024-05-17 15:37:11.182533,0,0,-4,-2,0,0,74,76,134,90,38,166.50,254,35.00,3.00,-1015.00
2024-05-17 15:37:11.280940,-2,0,-4,-1,0,0,74,76,135,90,38,166.36,254,33.00,4.00,-987.00
2024-05-17 15:37:11.382024,-1,0,-4,-1,0,0,74,76,133,90,38,166.48,254,38.00,-1.00,-998.00
2024-05-17 15:37:11.490137,0,0,-4,0,0,0,74,76,133,90,38,165.78,254,11.00,-1.00,-997.00
2024-05-17 15:37:11.588355,0,0,-4,0,0,0,74,76,133,90,38,166.28,254,27.00,0.00,-1004.00
2024-05-17 15:37:11.688490,0,0,-4,0,0,0,74,76,133,90,38,166.34,254,20.00,1.00,-1004.00
2024-05-17 15:37:11.797326,0,0,-4,0,0,0,74,76,133,90,38,166.47,254,19.00,3.00,-1004.00
2024-05-17 15:37:11.894766,0,0,-4,0,0,0,74,76,134,90,38,166.38,254,20.00,2.00,-1010.00
2024-05-17 15:37:11.997136,0,0,-4,0,0,0,74,76,134,90,38,166.16,254,19.00,-7.00,-1000.00
2024-05-17 15:37:12.099772,0,0,-4,0,0,0,74,76,133,90,38,166.05,254,14.00,3.00,-1001.00
2024-05-17 15:37:12.200771,1,0,-4,0,0,0,74,76,133,90,37,166.45,255,24.00,0.00,-1000.00
2024-05-17 15:37:12.249309,1,0,-4,0,0,0,74,76,134,90,37,166.38,255,26.00,-5.00,-997.00
2024-05-17 15:37:12.411375,1,0,-4,0,0,0,74,76,134,90,37,166.13,255,23.00,2.00,-996.00
2024-05-17 15:37:12.454104,1,0,-4,0,0,0,74,76,133,90,37,166.45,255,26.00,-1.00,-989.00
2024-05-17 15:37:12.617395,1,0,-4,0,0,0,74,76,134,90,37,166.26,255,16.00,1.00,-991.00
2024-05-17 15:37:12.658330,1,0,-4,0,0,0,74,76,133,90,37,166.33,255,16.00,4.00,-996.00
2024-05-17 15:37:12.824943,1,0,-4,0,0,0,74,76,133,90,37,166.04,255,16.00,5.00,-1002.00
2024-05-17 15:37:12.864655,1,0,-4,0,0,0,74,76,133,90,37,166.45,255,17.00,9.00,-1003.00
2024-05-17 15:37:12.964048,1,0,-4,0,0,0,74,76,133,90,37,166.37,255,13.00,1.00,-990.00
2024-05-17 15:37:13.066391,1,0,-4,0,0,0,74,76,133,90,37,166.19,255,18.00,9.00,-1001.00
2024-05-17 15:37:13.231011,1,0,-4,0,0,0,74,76,132,90,37,166.25,256,19.00,2.00,-999.00
2024-05-17 15:37:13.270284,1,0,-4,0,0,0,74,76,132,90,37,166.46,256,23.00,5.00,-1006.00
2024-05-17 15:37:13.372042,1,0,-4,0,0,0,73,76,132,90,37,166.10,256,22.00,6.00,-1001.00
2024-05-17 15:37:13.476380,1,0,-4,0,0,0,73,76,132,90,37,166.54,256,13.00,0.00,-1006.00
2024-05-17 15:37:13.576717,1,0,-4,0,0,0,73,76,133,90,37,166.34,256,28.00,8.00,-1007.00
2024-05-17 15:37:13.677860,0,-7,-4,0,0,0,73,76,135,90,37,166.40,256,20.00,18.00,-962.00
2024-05-17 15:37:13.781812,0,-8,-4,0,-1,0,73,76,133,90,37,166.21,256,23.00,2.00,-1018.00
2024-05-17 15:37:13.881931,1,-5,-4,0,-3,0,73,76,133,90,37,166.44,256,18.00,10.00,-1026.00
2024-05-17 15:37:14.051702,1,-3,-4,0,-3,0,73,76,131,90,37,166.10,256,24.00,24.00,-1012.00
2024-05-17 15:37:14.085847,1,0,-4,0,-3,0,73,76,131,90,37,166.27,256,13.00,31.00,-1020.00
2024-05-17 15:37:14.256041,1,0,-4,0,-3,0,73,76,130,90,36,166.12,257,15.00,31.00,-991.00
2024-05-17 15:37:14.289842,1,0,-4,0,-2,0,73,76,132,90,36,166.18,257,12.00,31.00,-1001.00
2024-05-17 15:37:14.392090,0,-1,-4,0,-2,0,75,76,132,90,36,166.43,257,20.00,18.00,-988.00
2024-05-17 15:37:14.496803,0,-1,-4,0,-2,0,75,76,131,90,36,166.04,257,10.00,19.00,-997.00
2024-05-17 15:37:14.595722,0,0,-4,0,-2,0,75,76,131,90,36,166.11,257,2.00,22.00,-984.00
2024-05-17 15:37:14.768633,0,0,-4,0,-2,0,75,76,131,90,36,166.49,257,15.00,21.00,-1004.00
2024-05-17 15:37:14.799923,0,0,-4,0,-2,0,75,76,130,90,36,166.33,257,10.00,20.00,-997.00
2024-05-17 15:37:14.902296,0,0,-4,0,-2,0,75,76,130,90,36,166.34,257,2.00,22.00,-1000.00
2024-05-17 15:37:15.074690,0,0,-4,0,-2,0,75,76,130,90,36,166.23,257,-3.00,21.00,-998.00
2024-05-17 15:37:15.106712,0,0,-4,0,-2,0,75,76,130,90,36,166.06,258,12.00,10.00,-1000.00
2024-05-17 15:37:15.280212,0,0,-4,0,-2,0,75,76,131,90,36,166.37,258,11.00,14.00,-1003.00
2024-05-17 15:37:15.309739,0,0,-4,0,-2,0,75,76,132,90,36,166.63,258,16.00,13.00,-995.00
2024-05-17 15:37:15.484852,0,2,-4,0,-1,0,74,76,131,90,36,166.31,258,14.00,6.00,-995.00
2024-05-17 15:37:15.516074,0,3,-4,0,-1,0,74,76,131,90,36,166.15,258,-2.00,26.00,-1000.00
2024-05-17 15:37:15.615892,0,1,-4,0,0,0,74,76,130,90,36,166.50,258,17.00,4.00,-1016.00
2024-05-17 15:37:15.791539,0,0,-4,0,0,0,74,76,131,90,36,166.28,258,12.00,5.00,-1000.00
2024-05-17 15:37:15.820851,0,0,-4,0,0,0,74,76,132,90,36,166.43,258,6.00,9.00,-1009.00
2024-05-17 15:37:15.996376,0,0,-4,0,0,0,74,76,132,90,36,166.00,258,-4.00,2.00,-1012.00
2024-05-17 15:37:15.998339,0,0,-4,0,0,0,74,76,132,90,36,166.29,258,3.00,-5.00,-999.00
2024-05-17 15:37:16.074976,0,0,-4,0,0,0,74,76,132,90,36,166.47,259,17.00,4.00,-999.00
2024-05-17 15:37:16.304536,0,0,-4,0,0,0,74,76,132,90,35,166.45,259,6.00,2.00,-1005.00
2024-05-17 15:37:16.305916,0,0,-4,0,0,0,74,76,131,90,35,166.13,259,17.00,2.00,-990.00
2024-05-17 15:37:16.382124,0,0,-4,0,0,0,74,76,131,90,35,166.33,259,11.00,10.00,-997.00
2024-05-17 15:37:16.507744,1,0,-4,0,0,0,74,76,131,90,35,166.18,259,20.00,5.00,-999.00
2024-05-17 15:37:16.585844,0,0,-4,0,0,0,74,76,131,90,35,166.64,259,16.00,4.00,-991.00
2024-05-17 15:37:16.712728,1,0,-4,0,0,0,74,76,131,90,35,166.24,259,14.00,18.00,-1001.00
2024-05-17 15:37:16.792854,0,0,-4,0,0,0,74,76,131,90,35,166.29,259,8.00,-4.00,-1000.00
2024-05-17 15:37:16.891896,0,0,-4,0,0,0,74,76,131,90,35,166.24,259,6.00,0.00,-989.00
2024-05-17 15:37:16.994813,0,0,-4,0,0,0,74,76,131,90,35,166.37,259,7.00,5.00,-996.00
2024-05-17 15:37:17.095916,1,0,-4,0,0,0,74,76,132,90,35,166.26,260,20.00,11.00,-983.00
2024-05-17 15:37:17.198109,1,0,-4,0,0,0,74,76,131,90,35,166.52,260,28.00,7.00,-990.00
2024-05-17 15:37:17.299993,1,0,-4,0,0,0,74,76,131,90,35,166.15,260,14.00,12.00,-989.00
2024-05-17 15:37:17.401840,1,0,-4,0,0,0,73,75,131,90,35,166.51,260,27.00,3.00,-987.00
2024-05-17 15:37:17.506090,1,0,-4,0,0,0,73,75,131,90,35,166.46,260,23.00,4.00,-986.00
2024-05-17 15:37:17.605637,1,0,-4,0,0,0,73,75,131,90,35,166.37,260,16.00,9.00,-999.00
2024-05-17 15:37:17.707558,1,0,-4,0,0,0,73,75,130,90,35,166.25,260,23.00,1.00,-1005.00
2024-05-17 15:37:17.838478,1,4,-4,0,0,0,73,75,132,90,35,166.03,260,20.00,10.00,-1011.00
2024-05-17 15:37:17.912484,1,8,-4,0,1,0,73,75,133,90,35,166.04,260,16.00,24.00,-990.00
2024-05-17 15:37:18.013657,1,6,-4,0,2,0,73,75,132,90,35,166.34,260,21.00,-12.00,-1006.00
2024-05-17 15:37:18.149091,1,3,-4,0,3,0,73,75,131,90,35,166.35,261,22.00,-2.00,-1023.00
2024-05-17 15:37:18.217681,1,0,-4,0,3,0,73,75,132,90,34,166.40,261,8.00,-4.00,-998.00
2024-05-17 15:37:18.319663,1,-1,-4,0,3,0,73,75,132,90,34,166.22,261,9.00,-13.00,-1005.00
2024-05-17 15:37:18.452817,1,-1,-4,0,3,0,73,76,132,90,34,166.42,261,17.00,-9.00,-1002.00
2024-05-17 15:37:18.524006,0,0,-4,0,2,0,73,76,131,90,34,166.40,261,9.00,-1.00,-1007.00
2024-05-17 15:37:18.657719,0,0,-4,0,2,0,73,76,131,90,34,166.24,261,10.00,-2.00,-982.00
2024-05-17 15:37:18.727657,1,0,-4,0,2,0,73,76,132,90,34,166.47,261,19.00,-9.00,-993.00
2024-05-17 15:37:18.831470,1,0,-4,0,2,0,73,76,132,90,34,166.62,261,17.00,-17.00,-981.00
2024-05-17 15:37:18.932554,1,0,-4,0,2,0,73,76,132,90,34,166.34,261,18.00,0.00,-988.00
2024-05-17 15:37:19.035889,1,0,-4,0,2,0,73,76,132,90,34,166.09,261,20.00,-4.00,-994.00
2024-05-17 15:37:19.136265,1,0,-4,0,2,0,73,76,131,90,34,166.33,262,15.00,-8.00,-998.00
2024-05-17 15:37:19.237857,1,0,-4,0,2,0,73,76,131,90,34,166.51,262,14.00,-7.00,-993.00
2024-05-17 15:37:19.339623,0,0,-4,0,2,0,73,76,131,90,34,166.49,262,1.00,-1.00,-993.00
2024-05-17 15:37:19.482484,0,-2,-4,0,2,0,74,75,132,90,34,166.39,262,9.00,2.00,-973.00
2024-05-17 15:37:19.543602,0,-5,-4,0,1,0,74,75,131,90,34,166.27,262,18.00,-30.00,-1019.00
2024-05-17 15:37:19.645567,0,-3,-4,0,0,0,74,75,132,90,34,166.40,262,6.00,2.00,-987.00
2024-05-17 15:37:19.697373,0,-1,-4,0,0,0,74,75,131,90,34,166.28,262,2.00,7.00,-1002.00
2024-05-17 15:37:19.886516,0,0,-4,0,0,0,74,75,132,90,34,166.44,262,25.00,5.00,-1000.00
2024-05-17 15:37:19.901799,0,0,-4,0,0,0,74,75,132,90,34,166.26,262,3.00,7.00,-1015.00
2024-05-17 15:37:20.091451,0,0,-4,0,0,0,74,75,132,90,34,166.32,262,20.00,0.00,-1000.00
2024-05-17 15:37:20.108006,0,-1,-4,0,0,0,74,75,132,90,34,166.11,263,21.00,3.00,-1000.00
2024-05-17 15:37:20.208392,0,0,-4,0,0,0,74,75,132,90,33,166.26,263,17.00,1.00,-1005.00
2024-05-17 15:37:20.309170,1,0,-4,0,0,0,74,75,132,90,33,166.42,263,10.00,7.00,-1007.00
2024-05-17 15:37:20.501944,0,0,-4,0,0,0,73,75,132,90,33,166.22,263,-2.00,5.00,-995.00
2024-05-17 15:37:20.517707,0,0,-4,0,0,0,73,75,132,90,33,166.41,263,2.00,3.00,-1008.00
2024-05-17 15:37:20.618325,0,0,-4,0,0,0,73,75,132,90,33,166.38,263,8.00,10.00,-996.00
2024-05-17 15:37:20.716608,0,0,-4,0,0,0,73,75,132,90,33,166.34,263,18.00,11.00,-997.00
2024-05-17 15:37:20.911189,0,0,-4,0,0,0,73,75,132,90,33,166.39,263,14.00,8.00,-993.00
2024-05-17 15:37:20.920581,0,0,-4,0,0,0,73,75,131,90,33,166.27,263,12.00,11.00,-1004.00
2024-05-17 15:37:21.117944,0,0,-4,0,0,0,73,75,131,90,33,166.38,263,8.00,7.00,-994.00
2024-05-17 15:37:21.124636,0,0,-4,0,0,0,73,75,132,90,33,166.28,264,10.00,9.00,-997.00
2024-05-17 15:37:21.320598,0,0,-4,0,0,0,73,75,131,90,33,166.33,264,15.00,13.00,-993.00
2024-05-17 15:37:21.328420,0,0,-4,0,0,0,73,75,131,90,33,166.64,264,13.00,8.00,-996.00
2024-05-17 15:37:21.525270,0,0,-4,0,0,0,73,75,131,90,33,166.38,264,23.00,0.00,-994.00
2024-05-17 15:37:21.532495,0,0,-4,0,0,0,73,75,132,90,33,166.21,264,15.00,12.00,-1002.00
2024-05-17 15:37:21.634592,0,0,-4,0,0,0,73,75,132,90,33,166.19,264,24.00,17.00,-995.00
2024-05-17 15:37:21.834042,0,0,-3,0,0,0,73,75,132,90,33,166.06,264,1.00,12.00,-989.00
2024-05-17 15:37:21.838426,0,0,1,0,0,0,73,75,131,90,33,166.46,264,7.00,12.00,-991.00
2024-05-17 15:37:22.036822,0,0,7,0,0,0,73,75,131,90,33,166.38,264,18.00,8.00,-981.00
2024-05-17 15:37:22.044105,0,0,13,0,0,0,73,75,131,90,33,166.43,264,10.00,-2.00,-992.00
2024-05-17 15:37:22.145157,0,0,20,0,0,0,73,75,131,90,32,166.37,265,22.00,9.00,-998.00
2024-05-17 15:37:22.246417,0,0,26,0,0,0,73,75,131,90,32,166.13,265,22.00,3.00,-995.00
2024-05-17 15:37:22.350896,0,0,32,0,0,0,73,75,131,90,32,166.36,265,17.00,-1.00,-1000.00
2024-05-17 15:37:22.450576,0,0,39,0,0,0,73,75,131,90,32,166.20,265,24.00,4.00,-1011.00
2024-05-17 15:37:22.651259,0,0,45,0,0,0,73,75,131,90,32,166.20,265,18.00,1.00,-1001.00
2024-05-17 15:37:22.657292,0,0,51,0,0,0,73,75,131,90,32,166.14,265,19.00,4.00,-1000.00
2024-05-17 15:37:22.756447,0,0,58,0,0,0,73,75,131,90,32,166.20,265,28.00,8.00,-1000.00
2024-05-17 15:37:22.859661,0,0,64,0,0,0,73,75,131,90,32,166.43,265,23.00,4.00,-1000.00
2024-05-17 15:37:22.960766,0,0,70,0,0,0,73,75,131,90,32,166.24,265,22.00,-5.00,-993.00
2024-05-17 15:37:23.062593,0,0,77,0,0,0,73,75,131,90,32,166.35,265,19.00,0.00,-999.00
2024-05-17 15:37:23.113466,0,0,83,0,0,0,73,75,132,90,32,166.45,266,18.00,0.00,-989.00
2024-05-17 15:37:23.265704,0,0,89,0,0,0,73,75,132,90,32,166.21,266,18.00,-3.00,-1002.00
2024-05-17 15:37:23.317340,0,0,95,0,0,0,73,75,132,90,32,166.36,266,11.00,-14.00,-1004.00
2024-05-17 15:37:23.470486,0,0,102,0,0,0,73,75,131,90,32,166.58,266,9.00,-5.00,-1016.00
2024-05-17 15:37:23.521333,0,0,108,0,0,0,73,75,132,90,32,166.34,266,11.00,-2.00,-1003.00
2024-05-17 15:37:23.675176,0,0,114,0,0,0,73,75,132,90,32,166.46,266,19.00,-10.00,-994.00
2024-05-17 15:37:23.727679,0,0,120,0,0,0,73,75,132,90,32,166.35,266,9.00,-5.00,-1001.00
2024-05-17 15:37:23.827435,0,0,126,0,0,0,73,75,132,90,32,166.47,266,9.00,-6.00,-998.00
2024-05-17 15:37:23.930395,0,0,132,0,0,0,73,75,132,90,32,166.31,266,0.00,-5.00,-1000.00
2024-05-17 15:37:24.032358,0,0,138,0,0,0,73,75,132,90,32,166.56,266,1.00,-8.00,-1007.00
2024-05-17 15:37:24.134252,0,0,144,0,0,0,73,75,132,90,32,166.57,267,13.00,-1.00,-990.00
2024-05-17 15:37:24.235416,0,0,151,0,0,0,73,75,132,90,32,166.23,267,-1.00,-8.00,-1001.00
2024-05-17 15:37:24.338456,0,0,157,0,0,0,73,75,132,90,32,166.28,267,10.00,3.00,-1002.00
2024-05-17 15:37:24.494604,0,0,163,0,0,0,73,76,132,90,32,166.22,267,-3.00,0.00,-998.00
2024-05-17 15:37:24.542235,0,0,169,0,0,0,73,76,132,90,32,166.45,267,-6.00,0.00,-985.00
2024-05-17 15:37:24.699208,0,0,175,0,0,0,73,76,131,90,32,166.45,267,4.00,12.00,-1007.00
2024-05-17 15:37:24.745254,0,0,-178,0,0,0,73,76,131,90,32,166.59,267,-1.00,0.00,-1004.00
2024-05-17 15:37:24.906601,0,0,-172,0,0,0,73,76,131,90,32,166.13,267,-3.00,4.00,-1006.00
2024-05-17 15:37:24.949515,0,0,-167,0,0,0,73,76,131,90,32,166.42,267,1.00,7.00,-1002.00
2024-05-17 15:37:25.108811,0,0,-161,0,0,0,73,76,131,90,32,166.30,267,-3.00,1.00,-1001.00
2024-05-17 15:37:25.153292,0,0,-155,0,0,0,73,76,131,90,31,166.27,268,-2.00,4.00,-989.00
2024-05-17 15:37:25.255344,0,0,-149,0,0,0,73,76,132,90,31,166.31,268,-1.00,4.00,-1003.00
2024-05-17 15:37:25.357229,0,0,-143,0,0,0,73,76,131,90,31,166.38,268,-1.00,3.00,-1013.00
2024-05-17 15:37:25.518404,0,0,-138,0,0,0,74,76,130,90,31,166.34,268,-2.00,0.00,-1004.00
2024-05-17 15:37:25.561644,0,0,-132,0,0,0,74,76,130,90,31,166.12,268,1.00,10.00,-995.00
2024-05-17 15:37:25.723221,0,0,-126,0,0,0,74,76,130,90,31,166.42,268,-7.00,3.00,-998.00
2024-05-17 15:37:25.765137,0,0,-120,0,0,0,74,76,131,90,31,166.13,268,0.00,6.00,-1012.00
2024-05-17 15:37:25.927935,0,0,-114,0,0,0,74,76,130,90,31,166.44,268,12.00,4.00,-1010.00
2024-05-17 15:37:25.972138,0,0,-108,0,0,0,74,76,131,90,31,166.34,268,13.00,5.00,-1010.00
2024-05-17 15:37:26.071213,0,0,-102,0,0,0,74,76,131,90,31,166.12,268,-1.00,1.00,-1008.00
2024-05-17 15:37:26.173183,0,0,-96,0,0,0,74,76,131,90,31,166.23,269,-2.00,1.00,-1004.00
2024-05-17 15:37:26.337774,0,0,-90,0,0,0,74,76,130,90,31,166.06,269,4.00,-8.00,-996.00
2024-05-17 15:37:26.377136,0,0,-84,0,0,0,74,76,130,90,31,166.19,269,14.00,8.00,-987.00
2024-05-17 15:37:26.479180,0,0,-78,0,0,0,73,76,131,90,31,166.21,269,11.00,10.00,-989.00
2024-05-17 15:37:26.581343,0,0,-72,0,0,0,73,76,131,90,31,166.55,269,18.00,8.00,-995.00
2024-05-17 15:37:26.747679,0,0,-67,0,0,0,73,76,131,90,31,166.44,269,19.00,7.00,-1006.00
2024-05-17 15:37:26.785222,0,0,-61,0,0,0,73,76,130,90,31,165.99,269,8.00,7.00,-1003.00
2024-05-17 15:37:26.952423,0,0,-55,0,0,0,73,76,130,90,31,166.39,269,9.00,-1.00,-997.00
2024-05-17 15:37:26.989179,0,0,-48,0,0,0,73,76,131,90,31,165.96,269,13.00,4.00,-1006.00
2024-05-17 15:37:27.091330,0,0,-42,0,0,0,73,76,131,90,31,166.48,269,8.00,8.00,-1014.00
2024-05-17 15:37:27.193254,0,0,-36,0,0,0,73,76,131,90,31,166.34,270,15.00,7.00,-1001.00
2024-05-17 15:37:27.260636,0,0,-30,0,0,0,73,76,131,90,31,166.33,270,17.00,16.00,-995.00
2024-05-17 15:37:27.346046,0,0,-24,0,0,0,73,76,131,90,31,166.37,270,3.00,5.00,-995.00
2024-05-17 15:37:27.465753,0,0,-19,0,0,0,73,75,131,90,31,166.19,270,15.00,9.00,-996.00
2024-05-17 15:37:27.550288,0,0,-16,0,0,0,73,75,131,90,31,166.50,270,11.00,7.00,-999.00
2024-05-17 15:37:27.653042,0,0,-13,0,0,0,73,75,131,90,31,166.40,270,9.00,16.00,-1006.00
2024-05-17 15:37:27.758467,1,0,-11,0,0,0,73,75,131,90,31,166.28,270,14.00,-1.00,-995.00
2024-05-17 15:37:27.857405,1,0,-9,0,0,0,73,75,131,90,31,166.46,270,18.00,7.00,-990.00
2024-05-17 15:37:27.958118,1,0,-8,0,0,0,73,75,131,90,31,166.19,270,19.00,-1.00,-998.00
2024-05-17 15:37:28.060035,1,0,-7,0,0,0,73,75,131,90,31,166.43,270,12.00,0.00,-1000.00
2024-05-17 15:37:28.162700,1,0,-6,0,0,0,73,75,131,90,31,166.39,271,12.00,6.00,-995.00
2024-05-17 15:37:28.264203,1,0,-6,0,0,0,73,75,131,90,31,166.12,271,12.00,8.00,-1011.00
2024-05-17 15:37:28.366206,1,0,-6,0,0,0,73,75,131,90,31,166.04,271,22.00,10.00,-995.00
2024-05-17 15:37:28.468153,1,0,-6,0,0,0,73,75,131,90,31,166.20,271,10.00,-6.00,-1010.00
2024-05-17 15:37:28.590550,1,0,-6,0,0,0,73,75,131,90,31,166.37,271,22.00,6.00,-1011.00
2024-05-17 15:37:28.672064,1,0,-6,0,0,0,73,75,131,90,31,166.19,271,23.00,5.00,-987.00
2024-05-17 15:37:28.802604,1,0,-6,0,0,0,73,75,131,90,31,166.30,271,13.00,3.00,-999.00
2024-05-17 15:37:28.876564,1,0,-6,0,0,0,73,75,131,90,31,166.24,271,22.00,6.00,-989.00
2024-05-17 15:37:29.002748,1,0,-6,0,0,0,73,75,131,90,31,166.25,271,16.00,1.00,-990.00
2024-05-17 15:37:29.082247,1,0,-6,0,0,0,73,75,131,90,31,166.59,271,5.00,-1.00,-1004.00
2024-05-17 15:37:29.182114,1,0,-6,0,0,0,73,75,131,90,30,166.54,272,13.00,5.00,-989.00
2024-05-17 15:37:29.307665,1,0,-6,0,0,0,73,75,131,90,30,166.49,272,16.00,-2.00,-994.00
2024-05-17 15:37:29.387822,1,0,-6,0,0,0,73,75,131,90,30,166.52,272,24.00,-1.00,-1005.00
2024-05-17 15:37:29.488428,1,0,-6,0,0,0,73,75,131,90,30,166.27,272,15.00,4.00,-995.00
2024-05-17 15:37:29.590621,1,0,-6,0,0,0,73,75,131,90,30,166.50,272,27.00,5.00,-996.00
2024-05-17 15:37:29.716955,1,0,-6,0,0,0,73,75,130,90,30,166.13,272,11.00,0.00,-990.00
2024-05-17 15:37:29.794686,0,0,-6,0,0,0,73,75,131,90,30,166.37,272,22.00,5.00,-1010.00
2024-05-17 15:37:29.901654,0,0,-6,0,0,0,73,75,130,90,30,166.38,272,10.00,5.00,-1011.00
2024-05-17 15:37:29.998126,1,0,-6,0,0,0,73,75,131,90,30,166.18,272,18.00,3.00,-1002.00
2024-05-17 15:37:30.126858,0,0,-6,0,0,0,73,75,131,90,30,166.18,272,18.00,2.00,-1008.00
2024-05-17 15:37:30.203715,1,0,-6,0,0,0,73,75,131,90,30,166.05,273,21.00,6.00,-991.00
2024-05-17 15:37:30.303915,1,0,-6,0,0,0,73,75,131,90,30,166.20,273,13.00,11.00,-998.00
2024-05-17 15:37:30.405940,0,0,-8,0,0,0,73,75,131,90,30,166.47,273,31.00,-3.00,-993.00
2024-05-17 15:37:30.508244,0,0,-20,0,0,0,72,75,131,90,30,166.43,273,20.00,11.00,-1012.00
2024-05-17 15:37:30.638405,0,0,-26,0,0,0,72,75,131,90,30,166.30,273,19.00,2.00,-992.00
2024-05-17 15:37:30.712512,0,0,-33,0,0,0,72,75,131,90,30,166.29,273,20.00,3.00,-995.00
2024-05-17 15:37:30.848256,0,0,-39,0,0,0,72,75,131,90,30,166.39,273,19.00,7.00,-1000.00
2024-05-17 15:37:30.917183,0,0,-45,0,0,0,72,75,131,90,30,166.05,273,9.00,6.00,-1010.00
2024-05-17 15:37:31.047897,0,0,-51,0,0,0,72,75,131,90,30,166.22,273,16.00,9.00,-999.00
2024-05-17 15:37:31.070315,0,0,-57,0,0,0,72,75,131,90,30,166.38,274,19.00,6.00,-1002.00
2024-05-17 15:37:31.252768,0,0,-63,0,0,0,72,75,131,90,30,166.31,274,7.00,12.00,-1004.00
2024-05-17 15:37:31.272875,0,0,-69,0,0,0,72,75,131,90,30,166.48,274,9.00,7.00,-1002.00
2024-05-17 15:37:31.374884,0,0,-75,0,0,0,72,75,131,90,30,166.25,274,8.00,2.00,-996.00
2024-05-17 15:37:31.560052,0,0,-81,0,0,0,73,75,131,90,30,166.32,274,15.00,7.00,-1004.00
2024-05-17 15:37:31.578830,0,0,-87,0,0,0,73,75,131,90,30,166.17,274,20.00,7.00,-1000.00
2024-05-17 15:37:31.680880,0,0,-93,0,0,0,73,75,131,90,30,166.66,274,3.00,5.00,-998.00
2024-05-17 15:37:31.867139,0,0,-99,0,0,0,73,75,131,90,30,166.43,274,1.00,4.00,-997.00
2024-05-17 15:37:31.884908,0,0,-105,0,0,0,73,75,131,90,30,166.45,274,9.00,8.00,-999.00
2024-05-17 15:37:32.075900,0,0,-111,0,0,0,73,75,131,90,30,166.22,274,1.00,5.00,-999.00
2024-05-17 15:37:32.088852,0,0,-117,0,0,0,73,75,131,90,30,166.49,275,0.00,4.00,-1000.00
2024-05-17 15:37:32.276678,0,0,-123,0,0,0,73,75,131,90,29,166.43,275,12.00,9.00,-998.00
2024-05-17 15:37:32.293010,0,0,-129,0,0,0,73,75,131,90,29,166.18,275,13.00,2.00,-998.00
2024-05-17 15:37:32.481518,0,0,-135,0,0,0,73,75,131,90,29,166.30,275,-5.00,0.00,-1011.00
2024-05-17 15:37:32.496835,0,0,-141,0,0,0,72,75,131,90,29,166.27,275,3.00,7.00,-992.00
2024-05-17 15:37:32.686337,0,0,-147,0,0,0,72,75,131,90,29,166.25,275,6.00,2.00,-992.00
2024-05-17 15:37:32.700918,0,0,-153,0,0,0,72,75,131,90,29,166.18,275,-3.00,4.00,-1004.00
2024-05-17 15:37:32.891450,0,0,-159,0,0,0,72,75,131,90,29,166.37,275,1.00,1.00,-990.00
2024-05-17 15:37:32.904786,0,0,-165,0,0,0,72,75,131,90,29,166.43,275,2.00,-2.00,-1007.00
2024-05-17 15:37:33.096093,0,0,-171,0,0,0,72,75,130,90,29,166.43,275,1.00,-5.00,-1000.00
2024-05-17 15:37:33.108695,0,0,-177,0,0,0,72,75,131,90,29,166.23,276,0.00,-9.00,-1010.00
2024-05-17 15:37:33.300809,0,0,176,0,0,0,72,75,131,90,29,166.27,276,6.00,-3.00,-1000.00
2024-05-17 15:37:33.313056,0,0,170,0,0,0,72,75,132,90,29,166.26,276,6.00,1.00,-1006.00
2024-05-17 15:37:33.505540,0,0,164,0,0,0,72,75,132,90,29,166.34,276,3.00,-7.00,-998.00
2024-05-17 15:37:33.518486,0,0,158,0,0,0,73,75,132,90,29,166.18,276,8.00,-18.00,-992.00
2024-05-17 15:37:33.618893,0,1,152,0,0,0,73,75,132,90,29,166.29,276,13.00,-4.00,-1000.00
2024-05-17 15:37:33.814569,0,0,147,0,0,0,73,75,131,90,29,166.43,276,11.00,-15.00,-989.00
2024-05-17 15:37:33.825203,1,0,141,0,0,0,73,75,131,90,29,166.52,276,15.00,-7.00,-989.00
2024-05-17 15:37:33.925869,1,0,136,0,0,0,73,75,131,90,29,166.24,276,14.00,-18.00,-1012.00
2024-05-17 15:37:34.026763,1,0,130,0,0,0,73,75,131,90,29,166.15,276,0.00,-19.00,-1009.00
2024-05-17 15:37:34.222343,1,0,124,0,0,0,73,75,131,90,29,166.16,277,14.00,-30.00,-1006.00
2024-05-17 15:37:34.230778,1,1,118,0,0,0,73,75,131,90,28,166.24,277,21.00,-12.00,-995.00
2024-05-17 15:37:34.429611,1,1,112,0,0,0,73,75,130,90,28,166.77,277,27.00,-22.00,-990.00
2024-05-17 15:37:34.437388,1,1,106,0,0,0,73,75,131,90,28,166.26,277,16.00,-9.00,-999.00
2024-05-17 15:37:34.536716,1,0,100,0,0,0,73,75,131,90,28,166.00,277,31.00,-18.00,-997.00
2024-05-17 15:37:34.734310,1,0,94,0,0,0,73,75,131,90,28,166.33,277,18.00,-12.00,-1012.00
2024-05-17 15:37:34.740565,2,0,88,0,0,0,73,75,131,90,28,166.41,277,18.00,-9.00,-1009.00
2024-05-17 15:37:34.939209,1,0,82,0,0,0,73,75,131,90,28,166.04,277,25.00,-7.00,-1016.00
2024-05-17 15:37:34.939254,1,0,76,0,0,0,73,75,131,90,28,166.27,277,28.00,-8.00,-1001.00
2024-05-17 15:37:34.998448,1,0,69,0,0,0,73,75,131,90,28,166.15,277,32.00,-5.00,-991.00
2024-05-17 15:37:35.097891,1,0,63,0,0,0,73,75,131,90,28,166.16,278,22.00,0.00,-992.00
2024-05-17 15:37:35.246643,2,0,56,0,0,0,73,75,132,90,28,166.20,278,21.00,8.00,-1000.00
2024-05-17 15:37:35.305492,2,0,50,0,0,0,73,75,132,90,28,166.11,278,25.00,4.00,-1004.00
2024-05-17 15:37:35.403652,1,0,44,0,0,0,73,75,132,90,28,166.33,278,30.00,2.00,-998.00
2024-05-17 15:37:35.505580,1,0,37,0,0,0,73,75,132,90,28,166.68,278,29.00,7.00,-992.00
2024-05-17 15:37:35.655864,1,0,31,0,0,0,73,75,132,90,28,166.26,278,26.00,1.00,-990.00
2024-05-17 15:37:35.709623,1,0,24,0,0,0,73,75,132,90,28,166.61,278,33.00,7.00,-1000.00
2024-05-17 15:37:35.860878,1,0,18,0,0,0,73,75,132,90,28,166.56,278,36.00,6.00,-1010.00
2024-05-17 15:37:35.914114,1,-1,12,0,0,0,73,75,133,90,28,166.42,278,22.00,9.00,-992.00
2024-05-17 15:37:36.065503,1,-1,7,0,0,0,73,75,133,90,28,166.31,278,25.00,16.00,-989.00
2024-05-17 15:37:36.118464,1,0,3,0,0,0,73,75,131,90,28,166.41,279,26.00,12.00,-1007.00
2024-05-17 15:37:36.270301,1,0,1,0,0,0,73,75,130,90,28,166.50,279,22.00,11.00,-993.00
2024-05-17 15:37:36.324117,1,0,0,0,0,0,73,75,130,90,28,166.46,279,22.00,3.00,-997.00
2024-05-17 15:37:36.425236,1,0,-2,0,0,0,73,75,130,90,28,166.28,279,22.00,16.00,-1011.00
2024-05-17 15:37:36.526158,0,0,-3,0,0,0,72,75,131,90,28,166.53,279,20.00,14.00,-1001.00
2024-05-17 15:37:36.688163,0,0,-4,0,0,0,72,75,131,90,28,166.42,279,25.00,9.00,-1001.00
2024-05-17 15:37:36.729668,0,0,-4,0,0,0,72,75,130,90,28,166.24,279,15.00,11.00,-1004.00
2024-05-17 15:37:36.884802,0,0,-4,0,0,0,72,75,130,90,28,166.41,279,11.00,15.00,-1006.00
2024-05-17 15:37:36.933826,0,0,-5,0,0,0,72,75,130,90,28,166.56,279,12.00,7.00,-999.00
2024-05-17 15:37:37.089685,0,0,-5,0,0,0,72,75,130,90,28,166.37,279,23.00,-4.00,-987.00
2024-05-17 15:37:37.137647,0,0,-5,0,0,0,72,75,130,90,28,166.41,280,19.00,8.00,-1000.00
2024-05-17 15:37:37.239716,0,0,-5,0,0,0,72,75,130,90,28,166.29,280,17.00,-2.00,-999.00
2024-05-17 15:37:37.398798,0,0,-5,0,0,0,72,75,130,90,28,166.25,280,16.00,3.00,-1005.00
2024-05-17 15:37:37.443628,0,0,-5,0,0,0,72,75,130,90,28,166.22,280,25.00,12.00,-1003.00
2024-05-17 15:37:37.545523,0,0,-5,0,0,0,72,75,130,90,28,166.59,280,21.00,2.00,-1000.00
2024-05-17 15:37:37.647968,0,0,-5,0,0,0,72,75,130,90,28,166.32,280,22.00,0.00,-997.00
2024-05-17 15:37:37.806262,0,0,-5,0,0,0,72,75,131,90,28,166.48,280,0.00,12.00,-994.00
2024-05-17 15:37:37.851715,0,0,-5,0,0,0,72,75,131,90,28,166.60,280,22.00,-9.00,-989.00
2024-05-17 15:37:38.012038,0,0,-5,0,0,0,72,75,131,90,28,166.27,280,19.00,-1.00,-1008.00
2024-05-17 15:37:38.055670,0,0,-5,0,0,0,72,75,131,90,28,166.33,280,5.00,12.00,-1003.00
2024-05-17 15:37:38.216033,0,0,-5,0,0,0,72,75,131,90,27,166.19,281,17.00,2.00,-994.00
2024-05-17 15:37:38.259692,0,0,-5,0,0,0,72,75,132,90,27,166.39,281,4.00,3.00,-996.00
2024-05-17 15:37:38.361678,0,0,-5,0,0,0,72,75,131,90,27,166.31,281,13.00,14.00,-996.00
2024-05-17 15:37:38.524544,0,0,-5,0,0,0,72,75,131,90,27,166.49,281,14.00,9.00,-998.00
2024-05-17 15:37:38.565632,0,0,-5,0,0,0,73,74,131,90,27,166.49,281,9.00,8.00,-1000.00
2024-05-17 15:37:38.619967,0,0,-5,0,0,0,73,74,131,90,27,166.04,281,14.00,9.00,-1005.00
2024-05-17 15:37:38.728834,1,0,-5,0,0,0,73,74,131,90,27,166.48,281,20.00,7.00,-997.00
2024-05-17 15:37:38.820600,1,0,-5,0,0,0,73,74,131,90,27,166.08,281,24.00,4.00,-986.00
2024-05-17 15:37:38.932739,0,0,-5,0,0,0,73,74,131,90,27,166.10,281,22.00,2.00,-996.00
2024-05-17 15:37:39.024637,0,0,-5,0,0,0,73,74,131,90,27,166.60,281,22.00,3.00,-993.00
2024-05-17 15:37:39.137651,0,0,-5,0,0,0,73,74,131,90,27,166.39,282,25.00,14.00,-1000.00
2024-05-17 15:37:39.228836,0,0,-5,0,0,0,73,74,131,90,27,166.07,282,16.00,14.00,-1000.00
2024-05-17 15:37:39.332464,0,0,-5,0,0,0,73,74,131,90,27,166.50,282,13.00,9.00,-1007.00
2024-05-17 15:37:39.433415,0,0,-5,0,0,0,73,74,130,90,27,166.24,282,12.00,1.00,-994.00
2024-05-17 15:37:39.536534,0,0,-5,0,0,0,72,75,130,90,27,166.13,282,22.00,7.00,-999.00
2024-05-17 15:37:39.636950,0,0,-5,0,0,0,72,75,130,90,27,166.47,282,18.00,8.00,-1001.00
2024-05-17 15:37:39.738832,0,0,-5,0,0,0,72,75,130,90,27,166.40,282,18.00,6.00,-1006.00
2024-05-17 15:37:39.854370,1,0,-5,0,0,0,72,75,130,90,27,166.22,282,28.00,1.00,-1000.00
2024-05-17 15:37:39.942523,1,0,-5,0,0,0,72,75,130,90,27,166.39,282,20.00,4.00,-997.00
2024-05-17 15:37:40.060427,1,0,-5,0,0,0,72,75,130,90,27,166.25,282,18.00,1.00,-1006.00
2024-05-17 15:37:40.150028,1,0,-5,0,0,0,72,75,130,90,27,166.44,283,13.00,2.00,-1007.00
2024-05-17 15:37:40.259772,1,0,-5,0,0,0,72,75,130,90,27,165.98,283,14.00,7.00,-1004.00
2024-05-17 15:37:40.354667,1,0,-5,0,0,0,72,75,130,90,27,166.36,283,18.00,6.00,-1000.00
2024-05-17 15:37:40.457538,1,0,-5,0,0,0,72,75,130,90,27,166.16,283,6.00,6.00,-996.00
2024-05-17 15:37:40.554675,1,0,-5,0,0,0,73,75,130,90,27,166.02,283,21.00,2.00,-996.00
2024-05-17 15:37:40.656789,1,0,-5,0,0,0,73,75,130,90,27,166.19,283,10.00,5.00,-1000.00
2024-05-17 15:37:40.758591,0,0,-5,0,0,0,73,75,130,90,27,166.52,283,18.00,3.00,-1008.00
2024-05-17 15:37:40.878443,0,0,-5,0,0,0,73,75,130,90,27,165.94,283,13.00,13.00,-1012.00
2024-05-17 15:37:40.962499,0,0,-5,0,0,0,73,75,130,90,27,166.22,283,5.00,2.00,-997.00
2024-05-17 15:37:41.064553,0,0,-5,0,0,0,73,75,130,90,27,166.01,283,19.00,6.00,-1005.00
2024-05-17 15:37:41.185587,0,0,-5,0,0,0,73,75,130,90,27,166.41,284,8.00,-3.00,-991.00
2024-05-17 15:37:41.268378,0,0,-5,0,0,0,73,75,130,90,27,166.12,284,13.00,-3.00,-1002.00
2024-05-17 15:37:41.370472,0,0,-5,0,0,0,73,75,130,90,27,166.23,284,13.00,1.00,-995.00
2024-05-17 15:37:41.472418,0,0,-5,0,0,0,73,75,130,90,27,166.38,284,8.00,2.00,-998.00
2024-05-17 15:37:41.595098,1,0,-5,0,0,0,73,74,130,90,27,166.43,284,10.00,0.00,-997.00
2024-05-17 15:37:41.676368,0,0,-5,0,0,0,73,74,130,90,27,166.48,284,9.00,3.00,-990.00
2024-05-17 15:37:41.778739,0,0,-5,0,0,0,73,74,130,90,27,166.22,284,25.00,3.00,-997.00
2024-05-17 15:37:41.902369,0,0,-5,0,0,0,73,74,131,90,27,166.27,284,18.00,13.00,-998.00
2024-05-17 15:37:41.982358,0,0,-4,0,0,0,73,74,130,90,27,166.64,284,17.00,1.00,-1001.00
2024-05-17 15:37:42.107112,0,0,-4,0,0,0,73,74,131,90,27,166.43,284,10.00,9.00,-1006.00
2024-05-17 15:37:42.186589,0,0,-5,0,0,0,73,74,131,90,26,166.19,285,15.00,7.00,-1009.00
2024-05-17 15:37:42.311897,0,0,-5,0,0,0,73,74,131,90,26,166.47,285,18.00,10.00,-1009.00
2024-05-17 15:37:42.396209,1,0,-5,0,0,0,73,74,131,90,26,166.73,285,17.00,5.00,-1004.00
2024-05-17 15:37:42.441263,1,0,-5,0,0,0,73,74,131,90,26,166.46,285,8.00,9.00,-1002.00
2024-05-17 15:37:42.620917,0,0,-5,0,0,0,72,74,131,90,26,166.13,285,26.00,4.00,-986.00
2024-05-17 15:37:42.697563,0,0,-5,0,0,0,72,74,131,90,26,166.28,285,25.00,2.00,-990.00
2024-05-17 15:37:42.747261,1,0,-5,0,0,0,72,74,131,90,26,166.33,285,12.00,-1.00,-1000.00
2024-05-17 15:37:42.926414,1,0,-4,0,0,0,72,74,131,90,26,166.33,285,18.00,9.00,-1018.00
2024-05-17 15:37:42.951665,1,0,-4,0,0,0,72,74,131,90,26,166.46,285,15.00,3.00,-997.00
2024-05-17 15:37:43.131541,0,0,-4,0,0,0,72,74,131,90,26,166.19,285,28.00,2.00,-995.00
2024-05-17 15:37:43.155633,1,0,-4,0,0,0,72,74,131,90,26,166.12,286,11.00,0.00,-1001.00
2024-05-17 15:37:43.257387,0,0,-5,0,0,0,72,74,131,90,26,166.33,286,15.00,16.00,-1002.00
2024-05-17 15:37:43.438743,1,0,-5,0,0,0,72,74,131,90,26,166.40,286,16.00,6.00,-1006.00
2024-05-17 15:37:43.461309,1,0,-5,0,0,0,72,74,131,90,26,166.27,286,25.00,3.00,-1000.00
2024-05-17 15:37:43.564283,1,0,-5,0,0,0,72,75,131,90,26,166.37,286,20.00,7.00,-1001.00
2024-05-17 15:37:43.666518,1,0,-5,0,0,0,72,75,131,90,26,166.46,286,17.00,7.00,-1006.00
2024-05-17 15:37:43.851274,1,0,-5,0,0,0,72,75,131,90,26,166.13,286,19.00,-1.00,-1005.00
2024-05-17 15:37:43.870143,1,0,-5,0,0,0,72,75,131,90,26,166.08,286,18.00,4.00,-1016.00
2024-05-17 15:37:44.053359,1,0,-5,0,0,0,72,75,130,90,26,166.45,286,18.00,5.00,-1003.00
2024-05-17 15:37:44.074234,0,0,-5,0,0,0,72,75,131,90,26,166.36,286,22.00,15.00,-997.00
2024-05-17 15:37:44.260918,0,0,-5,0,0,0,72,75,131,90,26,166.22,287,16.00,12.00,-991.00
2024-05-17 15:37:44.278284,0,0,-5,0,0,0,72,75,131,90,26,166.46,287,14.00,5.00,-1007.00
2024-05-17 15:37:44.380417,0,0,-5,0,0,0,72,75,131,90,26,166.30,287,13.00,9.00,-997.00
2024-05-17 15:37:44.571445,0,0,-5,0,0,0,72,75,131,90,26,166.38,287,21.00,11.00,-1008.00
2024-05-17 15:37:44.584481,0,0,-5,0,0,0,72,74,131,90,26,166.40,287,20.00,7.00,-1002.00
2024-05-17 15:37:44.770151,1,0,-5,0,0,0,72,74,131,90,26,166.38,287,25.00,-1.00,-1000.00
2024-05-17 15:37:44.788256,1,0,-5,0,0,0,72,74,131,90,26,166.25,287,16.00,16.00,-1009.00
2024-05-17 15:37:44.890923,1,0,-4,0,0,0,72,74,131,90,26,166.17,287,22.00,6.00,-1001.00
2024-05-17 15:37:44.992303,0,0,-5,0,0,0,72,74,131,90,26,166.22,287,20.00,6.00,-1001.00
2024-05-17 15:37:45.180885,0,0,-5,0,0,0,72,74,131,90,26,166.32,287,19.00,7.00,-997.00
2024-05-17 15:37:45.196267,0,0,-5,0,0,0,72,74,131,90,25,166.46,288,22.00,5.00,-988.00
2024-05-17 15:37:45.384469,1,0,-5,0,0,0,72,74,131,90,25,166.32,288,18.00,10.00,-1000.00
2024-05-17 15:37:45.400106,1,0,-5,0,0,0,72,74,131,90,25,166.35,288,23.00,10.00,-1012.00
2024-05-17 15:37:45.502197,1,0,-5,0,0,0,72,74,131,90,25,166.53,288,17.00,4.00,-1013.00
2024-05-17 15:37:45.691347,1,0,-5,0,0,0,72,74,131,90,25,166.55,288,22.00,20.00,-1007.00
2024-05-17 15:37:45.708241,1,0,-5,0,0,0,72,74,131,90,25,166.30,288,9.00,18.00,-1005.00
2024-05-17 15:37:45.757220,1,0,-5,0,0,0,72,74,132,90,25,166.07,288,11.00,9.00,-995.00
2024-05-17 15:37:45.905259,1,0,-5,0,0,0,72,74,131,90,25,166.19,288,13.00,19.00,-1010.00
2024-05-17 15:37:45.968424,1,0,-5,0,0,0,72,74,131,90,25,166.41,288,15.00,24.00,-1000.00
2024-05-17 15:37:46.063626,1,0,-5,0,0,0,72,74,131,90,25,166.26,288,11.00,16.00,-1011.00
2024-05-17 15:37:46.203374,1,0,-5,0,0,0,72,74,131,90,25,166.58,289,14.00,15.00,-1005.00
2024-05-17 15:37:46.267593,1,0,-5,0,0,0,72,74,131,90,25,166.34,289,14.00,4.00,-997.00
2024-05-17 15:37:46.408118,1,0,-5,0,0,0,72,74,131,90,25,166.27,289,19.00,8.00,-997.00
2024-05-17 15:37:46.471230,1,0,-5,0,0,0,72,74,131,90,25,166.58,289,24.00,18.00,-1007.00
2024-05-17 15:37:46.612833,1,0,-5,0,0,0,72,74,131,90,25,166.10,289,22.00,10.00,-999.00
2024-05-17 15:37:46.675097,1,0,-5,0,0,0,72,74,132,90,25,166.50,289,16.00,16.00,-998.00
2024-05-17 15:37:46.819636,1,0,-5,0,0,0,72,74,132,90,25,166.78,289,12.00,9.00,-999.00
2024-05-17 15:37:46.879664,1,0,-5,0,0,0,72,74,131,90,25,166.45,289,26.00,5.00,-991.00
2024-05-17 15:37:47.025286,1,0,-5,0,0,0,72,74,132,90,25,166.41,289,16.00,9.00,-1000.00
2024-05-17 15:37:47.083121,1,0,-5,0,0,0,72,74,132,90,25,166.32,290,14.00,9.00,-998.00
2024-05-17 15:37:47.185065,1,0,-5,0,0,0,72,74,132,90,25,166.39,290,31.00,7.00,-1009.00
2024-05-17 15:37:47.287210,1,0,-5,0,0,0,72,74,132,90,25,166.34,290,28.00,8.00,-986.00
2024-05-17 15:37:47.399484,1,0,-5,0,0,0,72,74,131,90,25,166.62,290,24.00,2.00,-989.00
2024-05-17 15:37:47.493056,1,0,-5,0,0,0,72,74,132,90,25,166.32,290,14.00,3.00,-1000.00
2024-05-17 15:37:47.593414,1,0,-5,0,0,0,72,74,132,90,25,166.23,290,12.00,2.00,-996.00
2024-05-17 15:37:47.742769,1,0,-5,0,0,0,72,74,132,90,25,166.22,290,27.00,11.00,-1004.00
2024-05-17 15:37:47.796944,1,0,-5,0,0,0,72,74,132,90,25,166.30,290,24.00,5.00,-989.00
2024-05-17 15:37:47.945646,1,0,-5,0,0,0,72,74,132,90,25,166.41,290,18.00,8.00,-999.00
2024-05-17 15:37:48.001110,1,0,-5,0,0,0,72,74,132,90,25,166.42,290,23.00,7.00,-998.00
2024-05-17 15:37:48.148695,1,0,-5,0,0,0,72,74,132,90,25,166.46,291,29.00,6.00,-1002.00
2024-05-17 15:37:48.205875,1,0,-5,0,0,0,72,74,132,90,24,166.45,291,19.00,4.00,-983.00
2024-05-17 15:37:48.353582,1,0,-5,0,0,0,72,74,133,90,24,166.24,291,7.00,11.00,-992.00
2024-05-17 15:37:48.412026,0,0,-5,0,0,0,72,74,133,90,24,166.26,291,12.00,13.00,-991.00
2024-05-17 15:37:48.510978,0,0,-5,0,0,0,72,74,132,90,24,166.42,291,31.00,21.00,-995.00
2024-05-17 15:37:48.661627,0,0,-5,0,0,0,72,75,133,90,24,166.55,291,16.00,5.00,-1005.00
2024-05-17 15:37:48.714988,0,0,-5,0,0,0,72,75,133,90,24,166.20,291,12.00,21.00,-1001.00
2024-05-17 15:37:48.867343,0,0,-5,0,0,0,72,75,133,90,24,166.34,291,24.00,7.00,-996.00
2024-05-17 15:37:48.919060,0,0,-5,0,0,0,72,75,133,90,24,166.37,291,19.00,25.00,-991.00
2024-05-17 15:37:49.070288,0,0,-5,0,0,0,72,75,132,90,24,166.17,291,26.00,12.00,-989.00
2024-05-17 15:37:49.123029,0,0,-5,0,0,0,72,75,133,90,24,166.25,292,24.00,8.00,-979.00
2024-05-17 15:37:49.275661,0,0,-5,0,0,0,72,75,133,90,24,166.42,292,14.00,5.00,-1006.00
2024-05-17 15:37:49.327135,0,0,-5,0,0,0,72,75,133,90,24,166.07,292,16.00,13.00,-991.00
2024-05-17 15:37:49.379023,0,0,-5,0,0,0,72,75,133,90,24,166.12,292,16.00,15.00,-992.00
2024-05-17 15:37:49.582423,0,0,-5,0,0,0,72,75,133,90,24,166.42,292,6.00,6.00,-1001.00
2024-05-17 15:37:49.633873,0,0,-5,0,0,0,72,74,133,90,24,166.56,292,16.00,4.00,-996.00
2024-05-17 15:37:49.787558,0,0,-5,0,0,0,72,74,133,90,24,166.71,292,27.00,10.00,-998.00
2024-05-17 15:37:49.787701,0,0,-5,0,0,0,72,74,133,90,24,166.38,292,20.00,13.00,-1004.00
2024-05-17 15:37:49.891220,0,0,-5,0,0,0,72,74,133,90,24,166.57,292,22.00,-1.00,-989.00
2024-05-17 15:37:49.991661,0,0,-5,0,0,0,72,74,133,90,24,166.18,292,21.00,2.00,-997.00
2024-05-17 15:37:50.094644,0,0,-5,0,0,0,72,74,133,90,24,166.38,293,9.00,19.00,-988.00
2024-05-17 15:37:50.196348,0,0,-5,0,0,0,72,74,133,90,24,166.55,293,12.00,14.00,-1006.00
2024-05-17 15:37:50.296902,0,0,-5,0,0,0,72,74,133,90,24,166.48,293,5.00,4.00,-999.00
2024-05-17 15:37:50.399636,0,0,-5,0,0,0,72,74,133,90,24,166.31,293,3.00,18.00,-999.00
2024-05-17 15:37:50.503886,0,0,-5,0,0,0,72,74,133,90,24,166.33,293,25.00,13.00,-996.00
2024-05-17 15:37:50.602894,0,0,-5,0,0,0,72,73,133,90,24,166.29,293,6.00,10.00,-1009.00
2024-05-17 15:37:50.708642,0,0,-5,0,0,0,72,73,133,90,24,166.58,293,22.00,5.00,-1007.00
2024-05-17 15:37:50.806825,0,0,-5,0,0,0,72,73,133,90,24,166.14,293,17.00,0.00,-996.00
2024-05-17 15:37:50.913369,0,0,-5,0,0,0,72,73,132,90,24,166.55,293,15.00,7.00,-999.00
2024-05-17 15:37:51.011124,0,0,-5,0,0,0,72,73,133,90,24,166.51,293,9.00,0.00,-988.00
2024-05-17 15:37:51.118069,0,0,-5,0,0,0,72,73,132,90,24,166.28,294,18.00,9.00,-1005.00
2024-05-17 15:37:51.214773,0,0,-4,0,0,0,72,73,132,90,23,166.27,294,16.00,0.00,-993.00
2024-05-17 15:37:51.323020,0,0,-4,0,0,0,72,73,132,90,23,166.02,294,17.00,10.00,-961.00
2024-05-17 15:37:51.419472,0,0,-4,0,0,0,72,73,132,90,23,166.49,294,15.00,-1.00,-948.00
2024-05-17 15:37:51.521932,0,0,-4,0,0,1,72,73,131,90,23,166.45,294,9.00,2.00,-936.00
2024-05-17 15:37:51.630201,0,0,-5,0,0,1,72,74,129,90,23,166.34,294,4.00,9.00,-919.00
2024-05-17 15:37:51.724811,0,0,-5,0,0,2,72,74,127,90,23,165.98,294,2.00,0.00,-905.00
2024-05-17 15:37:51.835293,0,0,-5,0,0,3,72,74,123,80,23,166.29,294,8.00,6.00,-892.00
2024-05-17 15:37:51.928823,0,0,-5,0,0,4,72,74,118,80,23,166.34,294,6.00,13.00,-888.00
2024-05-17 15:37:52.039791,0,0,-5,0,0,5,72,74,113,70,23,166.26,294,13.00,2.00,-886.00
2024-05-17 15:37:52.132752,0,0,-5,0,0,6,72,74,106,70,23,166.12,295,6.00,9.00,-928.00
