TS,pitch,roll,yaw,vgx,vgy,vgz,templ,temph,tof,h,bat,baro,time,agx,agy,agz
2024-05-17 15:38:19.994869,0,0,-3,0,0,0,75,77,10,0,23,164.97,298,10.00,-4.00,-997.00
2024-05-17 15:38:20.030929,0,0,-3,0,0,0,75,77,10,0,23,164.69,298,7.00,-4.00,-998.00
2024-05-17 15:38:20.199576,0,0,-3,0,0,0,75,77,10,0,23,165.04,298,10.00,-5.00,-999.00
2024-05-17 15:38:20.234071,0,0,-3,0,0,0,75,77,10,0,23,165.26,298,11.00,-4.00,-997.00
2024-05-17 15:38:20.405086,0,0,-3,0,0,0,75,77,10,0,23,165.00,298,10.00,-4.00,-999.00
2024-05-17 15:38:20.438868,0,0,-3,0,0,0,75,77,10,0,23,164.97,298,10.00,-4.00,-1000.00
2024-05-17 15:38:20.609237,0,0,-3,0,0,0,75,77,10,0,23,164.68,298,9.00,-4.00,-1000.00
2024-05-17 15:38:20.642629,0,0,-3,0,0,0,75,77,10,0,23,165.19,298,10.00,-3.00,-1001.00
2024-05-17 15:38:20.813792,0,0,-3,0,0,0,75,78,10,0,23,165.04,298,9.00,-4.00,-1003.00
2024-05-17 15:38:20.846142,0,0,-3,0,0,0,75,78,10,0,23,165.09,298,10.00,-5.00,-1000.00
2024-05-17 15:38:21.022120,0,0,-3,0,0,0,75,78,10,0,23,165.06,298,10.00,-4.00,-999.00
2024-05-17 15:38:21.050168,0,0,-3,0,0,0,75,78,10,0,23,165.33,298,11.00,-3.00,-1001.00
2024-05-17 15:38:21.223582,0,0,-3,0,0,0,75,78,10,0,23,165.10,298,9.00,-4.00,-999.00
2024-05-17 15:38:21.254311,0,0,-3,0,0,0,75,78,10,0,23,164.92,298,10.00,-4.00,-998.00
2024-05-17 15:38:21.428330,0,0,-3,0,0,0,75,78,10,0,23,165.08,298,8.00,-3.00,-998.00
2024-05-17 15:38:21.458136,0,0,-3,0,0,0,75,78,10,0,23,164.94,298,10.00,-5.00,-998.00
2024-05-17 15:38:21.633135,0,0,-3,0,0,0,75,78,10,0,23,164.90,298,9.00,-3.00,-1001.00
2024-05-17 15:38:21.662124,0,0,-3,0,0,0,75,78,10,0,23,165.01,298,9.00,-2.00,-999.00
2024-05-17 15:38:21.837886,0,0,-3,0,0,0,75,77,10,0,23,165.03,298,11.00,-3.00,-1000.00
2024-05-17 15:38:21.866148,0,0,-3,0,0,0,75,77,10,0,23,165.18,298,10.00,-3.00,-999.00
2024-05-17 15:38:22.042809,0,0,-3,0,0,0,75,77,10,0,23,165.05,298,9.00,-3.00,-998.00
2024-05-17 15:38:22.073470,0,0,-3,0,0,0,75,77,10,0,23,165.20,298,10.00,-4.00,-1000.00
2024-05-17 15:38:22.172169,0,0,-3,0,0,0,75,77,10,0,23,164.97,298,10.00,-2.00,-1001.00
2024-05-17 15:38:22.349828,0,0,-3,0,0,0,75,77,10,0,23,164.98,298,9.00,-5.00,-998.00
2024-05-17 15:38:22.376171,0,0,-3,0,0,0,75,77,10,0,23,165.06,298,11.00,-5.00,-999.00
2024-05-17 15:38:22.554746,0,0,-3,0,0,0,75,77,10,0,23,164.83,298,10.00,-5.00,-1000.00
2024-05-17 15:38:22.580012,0,0,-3,0,0,0,75,77,10,0,23,164.77,298,10.00,-2.00,-997.00
2024-05-17 15:38:22.759618,0,0,-3,0,0,0,75,77,10,0,23,165.08,298,9.00,-4.00,-999.00
2024-05-17 15:38:22.784029,0,0,-3,0,0,0,75,77,10,0,23,165.07,298,9.00,-3.00,-999.00
2024-05-17 15:38:22.835719,0,0,-3,0,0,0,75,77,10,0,23,165.34,298,9.00,-3.00,-1000.00
2024-05-17 15:38:22.964339,0,0,-3,0,0,0,75,77,10,0,23,164.64,298,11.00,-4.00,-998.00
2024-05-17 15:38:23.040790,0,0,-3,0,0,0,75,77,10,0,23,165.30,298,10.00,-4.00,-999.00
2024-05-17 15:38:23.141702,0,0,-3,0,0,0,75,77,10,0,23,164.96,298,9.00,-3.00,-998.00
2024-05-17 15:38:23.243582,0,0,-3,0,0,0,75,77,10,0,23,165.23,298,9.00,-4.00,-1000.00
2024-05-17 15:38:23.345369,0,0,-3,0,0,0,75,77,10,0,23,165.04,298,9.00,-3.00,-1003.00
2024-05-17 15:38:23.446978,0,0,-3,0,0,0,75,77,10,0,23,164.98,298,8.00,-3.00,-999.00
2024-05-17 15:38:23.548933,0,0,-3,0,0,0,75,77,10,0,23,164.96,298,9.00,-3.00,-1001.00
2024-05-17 15:38:23.681037,0,0,-3,0,0,0,75,77,10,0,23,164.96,298,10.00,-1.00,-1001.00
2024-05-17 15:38:23.752910,0,0,-3,0,0,0,75,78,10,0,23,164.96,298,5.00,0.00,-1000.00
2024-05-17 15:38:23.886056,0,0,-3,0,0,0,75,78,10,0,23,164.96,298,4.00,-15.00,-1007.00
2024-05-17 15:38:23.956877,0,0,-3,0,0,0,75,78,10,0,23,164.96,298,15.00,-3.00,-999.00
2024-05-17 15:38:24.090637,0,0,-3,0,0,0,75,78,10,0,23,164.96,298,8.00,-3.00,-1017.00
2024-05-17 15:38:24.160867,0,0,-3,0,0,0,75,78,10,0,23,164.96,298,7.00,-18.00,-1180.00
2024-05-17 15:38:24.295419,0,0,-3,0,0,-1,75,78,10,0,23,164.96,298,20.00,-6.00,-1350.00
2024-05-17 15:38:24.365861,0,0,-3,0,0,-4,75,78,13,0,23,164.96,298,2.00,10.00,-1206.00
2024-05-17 15:38:24.500284,1,0,-3,0,0,-6,75,78,21,0,23,165.25,298,1.00,-9.00,-1101.00
2024-05-17 15:38:24.569622,0,0,-3,0,0,-6,75,78,33,0,23,165.46,299,-6.00,0.00,-1048.00
2024-05-17 15:38:24.705284,0,0,-3,0,0,-7,75,78,43,0,23,165.76,299,-2.00,-4.00,-1013.00
2024-05-17 15:38:24.773495,0,0,-3,0,0,-7,76,77,51,10,23,165.60,299,3.00,4.00,-963.00
2024-05-17 15:38:24.909824,0,0,-3,0,0,-6,76,77,59,20,23,165.87,299,-8.00,-9.00,-932.00
2024-05-17 15:38:24.976827,0,0,-3,0,0,-6,76,77,64,20,23,165.94,299,-14.00,5.00,-903.00
2024-05-17 15:38:25.079029,0,0,-3,0,0,-5,76,77,69,30,23,165.96,299,-1.00,0.00,-866.00
2024-05-17 15:38:25.218045,-1,0,-3,0,0,-3,76,77,75,30,23,165.93,299,0.00,-3.00,-883.00
2024-05-17 15:38:25.282846,0,0,-3,0,0,-2,76,77,78,30,23,166.24,299,1.00,-5.00,-889.00
2024-05-17 15:38:25.421831,0,0,-3,0,0,-1,76,77,82,40,23,166.15,299,1.00,-11.00,-914.00
2024-05-17 15:38:25.486847,0,0,-3,0,0,0,76,77,86,40,23,166.14,299,10.00,-4.00,-927.00
2024-05-17 15:38:25.626602,0,0,-3,0,0,0,76,77,89,40,23,165.97,300,9.00,-6.00,-944.00
2024-05-17 15:38:25.691891,0,0,-3,0,0,0,76,77,90,40,23,166.47,300,1.00,0.00,-961.00
2024-05-17 15:38:25.831438,0,0,-3,0,0,0,76,78,91,40,23,166.25,300,13.00,-3.00,-968.00
2024-05-17 15:38:25.895787,0,0,-3,0,0,0,76,78,93,40,23,166.04,300,13.00,0.00,-978.00
2024-05-17 15:38:26.036370,0,0,-3,0,0,0,76,78,93,40,23,166.42,300,17.00,2.00,-976.00
2024-05-17 15:38:26.099819,0,0,-3,0,0,0,76,78,94,50,23,166.41,300,10.00,-3.00,-983.00
2024-05-17 15:38:26.150909,0,0,-3,0,0,0,76,78,94,50,23,166.29,300,15.00,-5.00,-977.00
2024-05-17 15:38:26.344651,0,0,-3,0,0,0,76,78,94,50,23,166.02,300,9.00,1.00,-990.00
2024-05-17 15:38:26.354704,0,0,-3,0,0,0,76,78,93,50,23,166.32,300,13.00,-5.00,-984.00
2024-05-17 15:38:26.548262,0,0,-3,0,0,0,76,78,93,50,23,166.06,300,17.00,3.00,-976.00
2024-05-17 15:38:26.558724,0,0,-3,0,0,0,76,78,92,50,23,166.06,301,9.00,0.00,-984.00
2024-05-17 15:38:26.753016,0,0,-3,0,0,0,76,78,92,50,23,166.06,301,9.00,-3.00,-991.00
2024-05-17 15:38:26.813796,0,0,-3,0,0,1,76,78,91,50,23,166.34,301,20.00,0.00,-987.00
2024-05-17 15:38:26.865523,0,0,-3,0,0,1,76,78,90,50,23,165.94,301,20.00,0.00,-993.00
2024-05-17 15:38:27.060131,0,0,-3,0,0,1,76,78,89,50,23,165.89,301,11.00,-10.00,-998.00
2024-05-17 15:38:27.069384,0,0,-3,0,0,1,76,78,88,50,23,165.87,301,7.00,-7.00,-993.00
2024-05-17 15:38:27.264941,0,0,-3,0,0,1,76,78,87,50,23,166.33,301,4.00,1.00,-996.00
2024-05-17 15:38:27.274060,0,0,-3,0,0,0,76,78,86,50,23,166.04,301,14.00,0.00,-1008.00
2024-05-17 15:38:27.470940,0,0,-3,0,0,0,76,78,85,40,23,165.88,301,12.00,-8.00,-1012.00
2024-05-17 15:38:27.478821,0,0,-3,0,0,0,76,78,84,40,23,166.21,302,19.00,-12.00,-1006.00
2024-05-17 15:38:27.578661,0,0,-3,0,0,0,76,78,83,40,23,166.20,302,14.00,-5.00,-1002.00
2024-05-17 15:38:27.777175,0,0,-3,0,0,0,76,78,82,40,23,165.88,302,20.00,-6.00,-1000.00
2024-05-17 15:38:27.782674,0,0,-3,0,0,0,76,78,81,40,23,166.07,302,25.00,-6.00,-1000.00
2024-05-17 15:38:27.884915,1,0,-3,0,0,0,76,78,80,40,23,166.25,302,36.00,0.00,-1006.00
2024-05-17 15:38:27.986617,1,0,-3,0,0,0,76,78,79,40,23,166.08,302,30.00,-13.00,-1004.00
2024-05-17 15:38:28.088646,1,0,-3,0,0,0,76,78,78,40,23,166.20,302,23.00,-10.00,-999.00
2024-05-17 15:38:28.288844,1,0,-3,0,0,0,76,78,77,40,23,165.97,302,24.00,0.00,-1010.00
2024-05-17 15:38:28.292613,1,0,-3,0,0,0,76,78,77,40,23,166.20,302,30.00,-10.00,-1011.00
2024-05-17 15:38:28.394601,1,0,-3,0,0,0,76,78,76,40,23,165.93,302,18.00,-6.00,-1010.00
2024-05-17 15:38:28.497219,1,0,-3,0,0,0,76,78,76,40,23,165.93,303,17.00,-6.00,-1009.00
2024-05-17 15:38:28.598998,0,0,-3,0,0,0,76,78,76,40,23,165.99,303,26.00,3.00,-1012.00
2024-05-17 15:38:28.700672,0,0,-3,0,0,0,76,78,76,40,23,165.67,303,34.00,-11.00,-1007.00
2024-05-17 15:38:28.803973,0,0,-3,0,0,0,76,78,75,40,23,166.20,303,19.00,-4.00,-1005.00
2024-05-17 15:38:28.904924,0,0,-3,0,0,0,76,78,75,40,23,166.00,303,19.00,2.00,-1010.00
2024-05-17 15:38:29.108805,0,0,-3,0,0,0,76,78,75,40,23,166.07,303,21.00,-8.00,-999.00
2024-05-17 15:38:29.111440,0,0,-3,0,0,0,76,78,75,40,23,166.20,303,36.00,-11.00,-999.00
2024-05-17 15:38:29.211226,0,0,-3,0,0,0,76,78,75,40,23,166.19,303,24.00,5.00,-1005.00
2024-05-17 15:38:29.313469,0,0,-3,0,0,0,76,78,75,40,23,166.26,303,38.00,0.00,-1007.00
2024-05-17 15:38:29.414972,0,0,-3,0,0,0,76,78,74,40,23,166.11,303,22.00,-15.00,-1000.00
2024-05-17 15:38:29.518122,1,0,-3,0,0,0,76,78,74,40,23,166.13,304,25.00,4.00,-998.00
2024-05-17 15:38:29.619791,0,0,-3,0,0,0,76,78,74,40,23,165.93,304,20.00,-3.00,-1004.00
2024-05-17 15:38:29.722611,0,0,-3,0,0,0,76,78,74,40,23,166.11,304,11.00,-5.00,-991.00
2024-05-17 15:38:29.823041,0,0,-3,0,0,0,75,78,75,40,23,166.06,304,24.00,-8.00,-1011.00
2024-05-17 15:38:29.924570,0,0,-3,0,0,0,75,78,75,40,23,165.92,304,22.00,-13.00,-997.00
2024-05-17 15:38:30.029702,0,0,-3,0,0,0,75,78,75,40,23,166.05,304,18.00,-6.00,-1007.00
2024-05-17 15:38:30.128471,0,0,-3,0,0,0,75,78,75,40,23,165.99,304,24.00,0.00,-994.00
2024-05-17 15:38:30.234586,0,0,-3,0,0,0,75,78,75,40,23,165.96,304,12.00,-2.00,-997.00
2024-05-17 15:38:30.332501,0,0,-3,0,0,0,75,78,75,40,23,165.72,304,22.00,-14.00,-1002.00
2024-05-17 15:38:30.384606,0,0,-3,0,0,0,75,78,76,40,23,165.72,304,33.00,-1.00,-1000.00
2024-05-17 15:38:30.546543,0,0,-3,0,0,0,75,78,76,40,23,165.95,305,26.00,-9.00,-990.00
2024-05-17 15:38:30.587775,1,0,-3,0,0,0,75,78,76,40,23,165.99,305,20.00,0.00,-1002.00
2024-05-17 15:38:30.748937,1,0,-3,0,0,0,75,78,76,40,23,166.13,305,18.00,5.00,-1003.00
2024-05-17 15:38:30.791705,1,0,-3,0,0,0,75,77,76,40,23,165.98,305,23.00,7.00,-998.00
2024-05-17 15:38:30.952888,1,0,-3,0,0,0,75,77,76,40,23,165.92,305,11.00,1.00,-1008.00
2024-05-17 15:38:30.995508,1,0,-3,0,0,0,75,77,76,40,23,166.28,305,38.00,6.00,-992.00
2024-05-17 15:38:31.158932,1,0,-3,0,0,0,75,77,76,40,23,165.87,305,17.00,2.00,-998.00
2024-05-17 15:38:31.199525,1,0,-3,0,0,0,75,77,76,40,23,166.29,305,12.00,-1.00,-1000.00
2024-05-17 15:38:31.362555,1,0,-3,0,0,0,75,77,77,40,23,165.72,305,12.00,4.00,-990.00
2024-05-17 15:38:31.404858,1,0,-3,0,0,0,75,77,77,40,23,165.94,305,9.00,2.00,-1003.00
2024-05-17 15:38:31.506022,0,0,-3,0,0,0,75,77,77,40,23,166.23,306,35.00,6.00,-1000.00
2024-05-17 15:38:31.669359,1,0,-3,0,0,0,75,77,77,40,23,165.96,306,17.00,1.00,-997.00
2024-05-17 15:38:31.710414,1,0,-3,0,0,0,75,77,77,40,23,165.99,306,25.00,3.00,-1003.00
2024-05-17 15:38:31.874001,0,0,-3,0,0,0,75,77,78,40,23,165.81,306,15.00,6.00,-1015.00
2024-05-17 15:38:31.926666,0,0,-3,0,0,0,75,77,78,40,23,166.13,306,25.00,-1.00,-1000.00
2024-05-17 15:38:32.015523,0,0,-3,0,0,0,75,77,78,40,23,165.90,306,12.00,6.00,-1005.00
2024-05-17 15:38:32.117549,0,0,-3,0,0,0,75,77,78,40,23,165.94,306,18.00,9.00,-997.00
2024-05-17 15:38:32.219604,0,0,-3,0,0,0,75,77,78,40,23,166.38,306,17.00,13.00,-1001.00
2024-05-17 15:38:32.385688,0,0,-3,0,0,0,75,77,78,40,23,165.95,306,15.00,9.00,-1001.00
2024-05-17 15:38:32.423661,0,0,-3,0,0,0,75,77,78,40,23,166.12,306,25.00,6.00,-1010.00
2024-05-17 15:38:32.525476,0,0,-3,0,0,0,75,77,78,40,23,166.11,307,10.00,10.00,-1013.00
2024-05-17 15:38:32.628466,0,0,-3,0,0,0,75,77,78,40,23,166.08,307,27.00,1.00,-994.00
2024-05-17 15:38:32.729615,0,0,-3,0,0,0,75,77,78,40,23,165.98,307,13.00,6.00,-1008.00
2024-05-17 15:38:32.831548,0,0,-3,0,0,0,74,77,78,40,23,165.74,307,6.00,1.00,-992.00
2024-05-17 15:38:32.933524,0,0,-3,0,0,0,74,77,78,40,23,165.60,307,25.00,11.00,-991.00
2024-05-17 15:38:33.103364,0,0,-3,0,0,0,74,77,78,40,23,166.26,307,9.00,14.00,-1015.00
2024-05-17 15:38:33.140447,0,0,-3,0,0,0,74,77,77,40,23,166.00,307,22.00,2.00,-1003.00
2024-05-17 15:38:33.239641,0,0,-3,0,0,0,74,77,77,40,23,166.04,307,10.00,3.00,-989.00
2024-05-17 15:38:33.410233,0,0,-3,0,0,0,74,77,77,40,23,165.91,307,21.00,8.00,-996.00
2024-05-17 15:38:33.444040,0,0,-3,0,0,0,74,77,78,40,23,166.00,307,18.00,0.00,-997.00
2024-05-17 15:38:33.545336,0,0,-3,0,0,0,74,77,78,40,23,166.08,308,19.00,11.00,-996.00
2024-05-17 15:38:33.647568,0,0,-3,0,0,0,74,77,78,40,23,165.99,308,14.00,7.00,-998.00
2024-05-17 15:38:33.819828,0,0,-3,0,0,0,74,77,78,40,23,165.97,308,19.00,7.00,-993.00
2024-05-17 15:38:33.852183,0,0,-3,0,0,0,75,77,78,40,23,165.73,308,9.00,10.00,-994.00
2024-05-17 15:38:34.024279,0,0,-3,0,0,0,75,77,78,40,23,166.19,308,8.00,6.00,-1011.00
2024-05-17 15:38:34.024519,0,0,-3,0,0,0,75,77,78,40,23,165.91,308,18.00,8.00,-999.00
2024-05-17 15:38:34.106399,0,0,-3,0,0,0,75,77,78,40,23,166.11,308,18.00,2.00,-987.00
2024-05-17 15:38:34.208249,0,0,-3,0,0,0,75,77,78,40,23,166.07,308,24.00,10.00,-1008.00
2024-05-17 15:38:34.331215,0,0,-3,0,0,0,75,77,78,40,23,166.22,308,15.00,6.00,-989.00
2024-05-17 15:38:34.412295,0,0,-3,0,0,0,75,77,79,40,23,166.06,308,12.00,10.00,-996.00
2024-05-17 15:38:34.536320,0,0,-3,0,0,-1,75,77,80,40,23,166.10,309,18.00,5.00,-1054.00
2024-05-17 15:38:34.616301,0,-1,-3,0,0,-2,75,77,82,40,23,166.13,309,17.00,16.00,-1100.00
2024-05-17 15:38:34.740139,0,-1,-3,0,0,-3,75,77,86,40,23,166.01,309,19.00,18.00,-1093.00
2024-05-17 15:38:34.820295,0,-1,-3,0,0,-4,74,76,90,50,23,166.00,309,16.00,19.00,-1062.00
2024-05-17 15:38:34.945624,0,-1,-3,0,0,-4,74,76,95,50,23,166.29,309,19.00,8.00,-1042.00
2024-05-17 15:38:35.024468,0,0,-3,0,0,-5,74,76,101,60,23,166.21,309,16.00,10.00,-1041.00
2024-05-17 15:38:35.151055,0,0,-3,0,0,-5,74,76,106,60,23,166.08,309,32.00,14.00,-1018.00
2024-05-17 15:38:35.232101,0,0,-3,0,0,-5,74,76,112,70,23,166.46,309,17.00,10.00,-1005.00
2024-05-17 15:38:35.330375,0,0,-3,0,0,-5,74,76,118,70,23,166.22,309,23.00,4.00,-981.00
2024-05-17 15:38:35.432234,0,0,-3,0,0,-5,74,76,124,80,23,166.54,309,13.00,2.00,-974.00
2024-05-17 15:38:35.534498,0,0,-3,0,0,-5,74,76,130,90,23,166.46,310,18.00,6.00,-976.00
2024-05-17 15:38:35.662540,0,0,-3,0,0,-5,74,76,136,90,23,166.44,310,18.00,8.00,-973.00
2024-05-17 15:38:35.738216,0,0,-3,0,0,-5,74,76,141,100,23,166.42,310,18.00,1.00,-960.00
2024-05-17 15:38:35.866639,0,0,-3,0,0,-4,74,76,146,100,23,166.30,310,11.00,8.00,-960.00
2024-05-17 15:38:35.943570,0,0,-3,0,0,-4,74,76,151,110,23,166.62,310,10.00,-1.00,-956.00
2024-05-17 15:38:36.047174,0,0,-3,0,0,-4,74,76,155,110,23,166.89,310,6.00,-1.00,-958.00
2024-05-17 15:38:36.146256,0,0,-3,0,0,-3,74,76,159,110,23,166.55,310,12.00,6.00,-958.00
2024-05-17 15:38:36.248167,0,0,-3,0,0,-3,74,76,163,120,23,166.85,310,15.00,6.00,-967.00
2024-05-17 15:38:36.379285,0,0,-3,0,0,-2,74,76,166,120,23,166.78,310,14.00,-1.00,-979.00
2024-05-17 15:38:36.454256,0,0,-3,0,0,-2,74,76,169,120,23,166.91,310,20.00,1.00,-974.00
2024-05-17 15:38:36.554188,0,0,-3,0,0,-2,74,76,172,130,23,166.98,311,22.00,4.00,-969.00
2024-05-17 15:38:36.687034,1,0,-3,0,0,-2,74,76,174,130,23,166.93,311,26.00,-5.00,-974.00
2024-05-17 15:38:36.759844,1,0,-3,0,0,-1,74,76,176,130,23,166.85,311,27.00,-3.00,-976.00
2024-05-17 15:38:36.890543,1,0,-3,0,0,-1,75,76,178,130,23,166.93,311,31.00,5.00,-940.00
2024-05-17 15:38:36.963926,1,0,-3,0,0,-1,75,76,179,140,23,166.81,311,11.00,5.00,-946.00
2024-05-17 15:38:37.099745,1,0,-3,0,0,0,75,76,180,140,23,166.73,311,17.00,0.00,-964.00
2024-05-17 15:38:37.168071,1,0,-3,0,0,0,75,76,181,140,23,166.74,311,32.00,0.00,-963.00
2024-05-17 15:38:37.300141,1,0,-3,0,0,0,75,76,181,140,23,167.15,311,35.00,0.00,-984.00
2024-05-17 15:38:37.371348,1,0,-3,0,0,0,75,76,182,140,23,166.79,311,23.00,0.00,-989.00
2024-05-17 15:38:37.505173,1,0,-3,0,0,0,75,76,182,140,23,166.98,311,28.00,3.00,-995.00
2024-05-17 15:38:37.578426,1,0,-3,0,0,0,75,76,182,140,23,167.07,312,23.00,10.00,-984.00
2024-05-17 15:38:37.677616,1,0,-3,0,0,0,75,76,182,140,23,166.60,312,18.00,4.00,-991.00
2024-05-17 15:38:37.729718,1,0,-3,0,0,0,75,76,182,140,23,166.87,312,24.00,3.00,-1002.00
2024-05-17 15:38:37.914935,1,0,-3,0,0,0,73,76,183,140,23,166.95,312,27.00,6.00,-995.00
2024-05-17 15:38:37.993699,1,0,-3,0,0,0,73,76,182,140,23,167.14,312,27.00,4.00,-993.00
2024-05-17 15:38:38.034229,1,0,-3,0,0,0,73,76,182,140,23,167.06,312,30.00,-3.00,-1001.00
2024-05-17 15:38:38.228512,1,0,-3,0,0,0,73,76,182,140,23,166.89,312,28.00,0.00,-1001.00
2024-05-17 15:38:38.238556,1,0,-3,0,0,0,73,76,182,140,23,166.82,312,23.00,8.00,-994.00
2024-05-17 15:38:38.428520,1,0,-3,0,0,0,73,76,182,140,23,167.12,312,17.00,8.00,-992.00
2024-05-17 15:38:38.442298,1,0,-3,0,0,0,73,76,181,140,23,166.91,312,15.00,3.00,-997.00
2024-05-17 15:38:38.547342,1,0,-3,0,0,0,73,76,181,140,23,166.89,313,11.00,-10.00,-994.00
2024-05-17 15:38:38.646171,1,0,-3,0,0,0,73,76,181,140,23,166.97,313,10.00,-1.00,-1009.00
2024-05-17 15:38:38.766521,0,0,-3,0,0,0,73,76,181,140,23,166.82,313,8.00,16.00,-1003.00
2024-05-17 15:38:38.852513,0,0,-3,0,0,0,73,76,181,140,23,167.06,313,24.00,7.00,-996.00
2024-05-17 15:38:38.952897,0,0,-3,0,0,0,73,76,181,140,23,167.13,313,24.00,4.00,-964.00
2024-05-17 15:38:39.054204,0,0,-3,0,0,0,73,76,181,140,23,166.89,313,15.00,-3.00,-941.00
2024-05-17 15:38:39.155860,0,0,-3,0,0,0,73,76,180,140,23,166.78,313,17.00,6.00,-947.00
2024-05-17 15:38:39.348035,0,0,-3,0,0,1,73,76,178,140,23,167.19,313,19.00,3.00,-952.00
2024-05-17 15:38:39.359982,0,0,-3,0,0,1,73,76,176,140,23,166.65,313,23.00,1.00,-965.00
2024-05-17 15:38:39.556198,0,0,-3,0,0,2,73,76,174,130,23,167.09,313,23.00,9.00,-974.00
2024-05-17 15:38:39.563868,0,0,-3,0,0,2,73,76,171,130,23,166.69,314,14.00,-1.00,-972.00
2024-05-17 15:38:39.758648,0,0,-3,0,0,2,73,76,169,130,23,166.66,314,9.00,1.00,-993.00
2024-05-17 15:38:39.767869,0,0,-3,0,0,2,73,76,166,130,23,166.62,314,8.00,0.00,-1001.00
2024-05-17 15:38:39.962439,0,0,-3,0,0,2,74,76,163,120,23,166.61,314,18.00,3.00,-1002.00
2024-05-17 15:38:39.971837,0,0,-3,0,0,2,74,76,160,120,23,166.75,314,9.00,-8.00,-1005.00
2024-05-17 15:38:40.167863,0,0,-3,0,0,2,74,76,158,120,23,166.81,314,26.00,3.00,-1008.00
2024-05-17 15:38:40.178064,0,0,-3,0,0,2,74,76,155,120,23,166.60,314,22.00,0.00,-1013.00
2024-05-17 15:38:40.277894,0,0,-3,0,0,2,74,76,152,110,23,166.59,314,25.00,13.00,-1010.00
2024-05-17 15:38:40.491706,0,0,-3,0,0,2,74,76,149,110,23,166.30,314,17.00,0.00,-1022.00
2024-05-17 15:38:40.491860,0,0,-3,0,0,2,74,76,147,110,23,166.69,314,21.00,1.00,-1012.00
2024-05-17 15:38:40.583811,0,0,-3,0,0,2,74,76,145,110,23,166.55,315,18.00,-10.00,-1013.00
2024-05-17 15:38:40.781991,0,0,-3,0,0,2,74,76,142,100,23,166.54,315,17.00,-6.00,-1017.00
2024-05-17 15:38:40.787794,0,0,-3,0,0,1,74,76,140,100,23,166.48,315,7.00,-11.00,-1025.00
2024-05-17 15:38:40.987717,0,0,-3,0,0,1,74,76,139,100,23,166.63,315,7.00,-2.00,-1011.00
2024-05-17 15:38:40.996972,0,0,-3,0,0,1,74,76,137,100,23,166.40,315,29.00,2.00,-1011.00
2024-05-17 15:38:41.093970,0,0,-3,0,0,1,74,76,135,100,23,166.53,315,13.00,1.00,-1024.00
2024-05-17 15:38:41.296232,0,0,-3,0,0,1,74,76,134,100,23,166.39,315,26.00,-3.00,-1026.00
2024-05-17 15:38:41.297831,0,0,-3,0,0,1,74,76,133,90,23,166.25,315,15.00,3.00,-1013.00
2024-05-17 15:38:41.349573,0,0,-3,0,0,1,74,76,131,90,23,166.76,315,16.00,10.00,-1031.00
2024-05-17 15:38:41.510563,0,0,-3,0,0,0,74,76,131,90,23,166.49,315,17.00,3.00,-1031.00
2024-05-17 15:38:41.581203,0,0,-3,0,0,0,74,76,130,90,23,166.35,316,7.00,1.00,-1024.00
2024-05-17 15:38:41.655108,0,0,-3,0,0,0,74,76,130,90,23,166.39,316,17.00,-5.00,-1010.00
2024-05-17 15:38:41.811742,0,0,-3,0,0,0,74,76,129,90,23,166.70,316,13.00,-8.00,-1014.00
2024-05-17 15:38:41.861608,0,0,-3,0,0,0,73,76,129,90,23,166.25,316,11.00,0.00,-1014.00
2024-05-17 15:38:41.961964,0,0,-3,0,0,0,73,76,129,90,23,166.38,316,20.00,-1.00,-1012.00
2024-05-17 15:38:42.063128,0,0,-3,0,0,0,73,76,129,90,23,166.49,316,27.00,3.00,-1016.00
2024-05-17 15:38:42.165121,0,0,-3,0,0,0,73,76,129,90,23,166.82,316,1.00,-5.00,-1016.00
2024-05-17 15:38:42.267076,0,0,-3,0,0,0,73,76,129,90,23,166.61,316,6.00,0.00,-1002.00
2024-05-17 15:38:42.421972,0,0,-3,0,0,0,73,76,129,90,23,166.45,316,3.00,-4.00,-995.00
2024-05-17 15:38:42.471471,0,0,-3,0,0,0,73,76,129,90,23,166.67,316,14.00,-2.00,-1003.00
2024-05-17 15:38:42.583276,0,0,-3,0,0,0,73,76,129,90,23,166.59,317,28.00,3.00,-990.00
2024-05-17 15:38:42.677560,0,0,-3,0,0,0,73,76,130,90,23,166.43,317,8.00,5.00,-1012.00
2024-05-17 15:38:42.777608,0,0,-3,0,0,0,73,76,130,90,23,166.36,317,18.00,-3.00,-1006.00
2024-05-17 15:38:42.932123,0,0,-3,0,0,0,74,75,130,90,23,166.43,317,15.00,-6.00,-1008.00
2024-05-17 15:38:42.984178,0,0,-3,0,0,0,74,75,130,90,23,166.54,317,12.00,-2.00,-994.00
2024-05-17 15:38:43.084858,0,0,-3,0,0,0,74,75,130,90,23,166.41,317,22.00,3.00,-1000.00
2024-05-17 15:38:43.185987,0,0,-3,0,0,0,74,75,130,90,23,166.51,317,20.00,0.00,-1003.00
2024-05-17 15:38:43.287262,0,0,-3,0,0,0,74,75,130,90,23,166.63,317,22.00,7.00,-999.00
2024-05-17 15:38:43.392956,0,0,-3,0,0,0,74,75,131,90,23,166.29,317,5.00,3.00,-991.00
2024-05-17 15:38:43.491288,-3,0,-3,0,0,0,74,75,131,90,23,166.25,318,24.00,4.00,-1000.00
2024-05-17 15:38:43.592848,-7,0,-3,1,0,0,74,75,131,90,23,166.44,318,10.00,-5.00,-1007.00
2024-05-17 15:38:43.751209,-8,0,-3,2,0,0,74,75,133,90,23,166.47,318,5.00,0.00,-995.00
2024-05-17 15:38:43.797196,-7,0,-3,4,0,0,74,75,132,90,23,166.46,318,3.00,5.00,-1002.00
2024-05-17 15:38:43.958691,-5,1,-3,5,0,0,73,76,132,90,23,166.43,318,-17.00,5.00,-1005.00
2024-05-17 15:38:44.000821,-5,0,-3,6,0,0,73,76,129,90,23,166.12,318,-8.00,2.00,-1009.00
2024-05-17 15:38:44.160943,-5,0,-3,6,0,0,73,76,129,90,23,166.47,318,-21.00,16.00,-1012.00
2024-05-17 15:38:44.207298,-4,0,-3,7,0,0,73,76,132,90,23,166.32,318,-28.00,9.00,-1009.00
2024-05-17 15:38:44.307668,-4,-1,-3,7,0,0,73,76,129,90,23,166.53,318,-36.00,0.00,-1013.00
2024-05-17 15:38:44.410304,0,-2,-3,7,0,0,73,76,133,90,23,166.41,318,-32.00,12.00,-1001.00
2024-05-17 15:38:44.512291,2,0,-3,7,0,0,73,76,131,90,23,166.63,319,-35.00,5.00,-1004.00
2024-05-17 15:38:44.614915,4,0,-3,6,0,0,73,76,132,90,23,166.52,319,-33.00,11.00,-980.00
2024-05-17 15:38:44.715965,5,0,-3,5,0,0,73,76,132,90,23,166.53,319,-25.00,8.00,-1002.00
2024-05-17 15:38:44.817673,3,0,-3,4,0,0,73,76,132,90,23,166.48,319,-3.00,12.00,-1008.00
2024-05-17 15:38:44.979898,2,0,-3,3,0,0,73,76,133,90,23,166.72,319,-5.00,8.00,-997.00
2024-05-17 15:38:45.020777,1,-1,-3,3,0,0,73,76,133,90,23,166.35,319,-3.00,8.00,-995.00
2024-05-17 15:38:45.071652,1,-2,-3,3,0,0,73,76,131,90,23,166.40,319,-6.00,6.00,-1014.00
2024-05-17 15:38:45.184775,1,-2,-3,3,0,0,73,76,132,90,23,166.41,319,1.00,8.00,-988.00
2024-05-17 15:38:45.275951,1,-2,-3,2,0,0,73,76,132,90,23,166.52,319,0.00,17.00,-1003.00
2024-05-17 15:38:45.390070,1,0,-3,2,0,0,73,76,132,90,23,166.38,319,-1.00,5.00,-1014.00
2024-05-17 15:38:45.479944,1,1,-3,2,0,0,73,76,132,90,23,166.63,320,6.00,29.00,-980.00
2024-05-17 15:38:45.581879,2,0,-3,2,0,0,73,76,131,90,23,166.51,320,13.00,11.00,-1002.00
2024-05-17 15:38:45.697899,5,0,-3,2,0,0,73,76,132,90,23,166.43,320,9.00,7.00,-1004.00
2024-05-17 15:38:45.785576,4,-1,-3,1,0,0,73,76,132,90,23,166.26,320,7.00,-5.00,-1016.00
2024-05-17 15:38:45.904761,2,0,-3,0,0,0,73,75,133,90,23,166.62,320,20.00,5.00,-1001.00
2024-05-17 15:38:45.989831,2,0,-3,0,0,0,73,75,132,90,23,166.84,320,24.00,6.00,-1005.00
2024-05-17 15:38:46.106577,1,0,-3,0,0,0,73,75,131,90,23,166.41,320,25.00,5.00,-1004.00
2024-05-17 15:38:46.193886,1,0,-3,0,0,0,73,75,131,90,22,166.59,320,17.00,10.00,-990.00
2024-05-17 15:38:46.311817,1,0,-3,0,0,0,73,75,131,90,22,166.42,320,15.00,10.00,-993.00
2024-05-17 15:38:46.400327,1,0,-3,0,0,0,73,75,132,90,22,166.59,320,24.00,7.00,-1016.00
2024-05-17 15:38:46.499687,1,0,-3,0,0,0,73,75,133,90,22,166.64,321,19.00,19.00,-1003.00
2024-05-17 15:38:46.602734,1,0,-3,0,0,0,73,75,132,90,22,166.38,321,29.00,8.00,-1005.00
2024-05-17 15:38:46.721282,1,0,-3,0,0,0,73,75,133,90,22,166.30,321,21.00,2.00,-1008.00
2024-05-17 15:38:46.805543,1,0,-3,0,0,0,73,75,133,90,22,166.26,321,23.00,11.00,-990.00
2024-05-17 15:38:46.908535,1,0,-3,0,0,0,73,76,132,90,22,166.33,321,33.00,8.00,-991.00
2024-05-17 15:38:47.010748,1,0,-3,0,0,0,73,76,133,90,22,166.49,321,19.00,14.00,-996.00
2024-05-17 15:38:47.112149,0,0,-3,0,0,0,73,76,133,90,22,166.52,321,26.00,10.00,-986.00
2024-05-17 15:38:47.215696,0,0,-3,0,0,0,73,76,133,90,22,166.60,321,28.00,6.00,-996.00
2024-05-17 15:38:47.320649,0,0,-3,0,0,0,73,76,133,90,22,166.44,321,40.00,0.00,-1002.00
2024-05-17 15:38:47.424633,0,0,-3,0,0,0,73,76,133,90,22,166.70,321,30.00,6.00,-994.00
2024-05-17 15:38:47.519697,0,0,-3,0,0,0,73,76,133,90,22,166.46,322,38.00,11.00,-999.00
2024-05-17 15:38:47.621585,0,0,-3,0,0,0,73,76,133,90,22,166.25,322,33.00,-3.00,-1000.00
2024-05-17 15:38:47.745531,0,0,-3,0,0,0,73,76,133,90,22,166.36,322,30.00,-1.00,-1002.00
2024-05-17 15:38:47.825722,0,0,-3,0,0,0,73,76,132,90,22,166.51,322,26.00,5.00,-1001.00
2024-05-17 15:38:47.927611,0,0,-3,0,0,0,73,75,132,90,22,166.33,322,21.00,6.00,-997.00
2024-05-17 15:38:48.051955,0,0,-3,0,0,0,73,75,133,90,22,166.46,322,12.00,3.00,-993.00
2024-05-17 15:38:48.131535,5,0,-3,0,0,0,73,75,133,90,22,166.36,322,20.00,10.00,-991.00
2024-05-17 15:38:48.256668,8,0,-3,-1,0,0,73,75,135,90,21,166.56,322,20.00,0.00,-1012.00
2024-05-17 15:38:48.335489,8,0,-3,-2,0,0,73,75,135,90,21,166.30,322,24.00,1.00,-1011.00
2024-05-17 15:38:48.461969,8,0,-3,-4,0,0,73,75,135,90,21,166.38,322,31.00,-6.00,-1011.00
2024-05-17 15:38:48.539493,7,0,-3,-5,0,0,73,75,135,90,21,166.70,323,54.00,5.00,-991.00
2024-05-17 15:38:48.590621,7,0,-3,-5,0,0,73,75,135,90,21,166.49,323,55.00,-6.00,-995.00
2024-05-17 15:38:48.769799,7,0,-3,-6,0,0,73,75,135,90,21,166.49,323,59.00,1.00,-1006.00
2024-05-17 15:38:48.794659,7,0,-3,-6,0,0,73,75,135,90,21,166.43,323,59.00,0.00,-984.00
2024-05-17 15:38:48.976418,5,-1,-3,-7,0,0,74,75,135,90,21,166.30,323,74.00,-12.00,-986.00
2024-05-17 15:38:49.049649,2,0,-3,-7,0,0,74,75,134,90,21,166.33,323,58.00,-14.00,-1025.00
2024-05-17 15:38:49.100564,0,0,-3,-6,0,0,74,75,133,90,21,166.51,323,79.00,10.00,-998.00
2024-05-17 15:38:49.280835,-2,0,-3,-5,0,0,74,75,135,90,21,166.32,323,78.00,7.00,-988.00
2024-05-17 15:38:49.308355,-2,0,-3,-4,0,0,74,75,135,90,21,166.26,323,74.00,5.00,-992.00
2024-05-17 15:38:49.406599,-1,0,-3,-3,0,0,74,75,133,90,21,166.78,323,68.00,-2.00,-996.00
2024-05-17 15:38:49.508734,0,0,-3,-3,0,0,74,75,134,90,21,166.39,324,41.00,-2.00,-989.00
2024-05-17 15:38:49.610829,0,0,-3,-3,0,0,74,75,134,90,21,166.34,324,45.00,4.00,-996.00
2024-05-17 15:38:49.795848,0,0,-3,-3,0,0,74,75,134,90,21,166.29,324,41.00,10.00,-994.00
2024-05-17 15:38:49.815050,0,0,-3,-3,0,0,74,75,133,90,21,166.41,324,42.00,4.00,-1005.00
2024-05-17 15:38:49.997616,0,0,-3,-3,0,0,73,75,133,90,21,166.33,324,43.00,4.00,-996.00
2024-05-17 15:38:50.020871,0,0,-3,-2,0,0,73,75,133,90,21,166.23,324,33.00,12.00,-997.00
2024-05-17 15:38:50.121262,0,0,-3,-2,0,0,73,75,133,90,20,166.48,324,32.00,14.00,-1001.00
2024-05-17 15:38:50.223223,-1,0,-3,-2,0,0,73,75,134,90,20,166.80,324,27.00,7.00,-994.00
2024-05-17 15:38:50.325536,-2,0,-3,-1,0,0,73,75,136,90,20,166.34,324,26.00,9.00,-997.00
2024-05-17 15:38:50.433481,-2,0,-3,-1,0,0,73,75,134,90,20,166.40,324,19.00,16.00,-1010.00
2024-05-17 15:38:50.528689,0,0,-3,0,0,0,73,75,133,90,20,166.70,325,31.00,10.00,-1004.00
2024-05-17 15:38:50.632322,0,0,-3,0,0,0,73,75,132,90,20,166.34,325,21.00,9.00,-1015.00
2024-05-17 15:38:50.732728,0,0,-3,0,0,0,73,75,133,90,20,166.39,325,12.00,17.00,-1001.00
2024-05-17 15:38:50.921206,0,0,-3,0,0,0,73,75,133,90,20,166.54,325,20.00,3.00,-1003.00
2024-05-17 15:38:50.937094,0,0,-3,0,0,0,73,75,133,90,20,166.44,325,11.00,16.00,-1008.00
2024-05-17 15:38:51.038634,0,0,-3,0,0,0,73,75,134,90,20,166.56,325,0.00,11.00,-987.00
2024-05-17 15:38:51.228211,0,0,-3,0,0,0,73,75,133,90,20,166.44,325,28.00,13.00,-1000.00
2024-05-17 15:38:51.242554,0,0,-3,0,0,0,73,75,134,90,20,166.71,325,6.00,12.00,-996.00
2024-05-17 15:38:51.431690,0,0,-3,0,0,0,73,75,134,90,20,166.47,325,17.00,6.00,-985.00
2024-05-17 15:38:51.446807,0,0,-3,0,0,0,73,75,134,90,20,166.29,325,9.00,11.00,-992.00
2024-05-17 15:38:51.635900,0,0,-3,0,0,0,73,75,134,90,20,166.39,326,11.00,7.00,-1002.00
2024-05-17 15:38:51.650926,0,0,-3,0,0,0,73,75,134,90,20,166.63,326,7.00,7.00,-999.00
2024-05-17 15:38:51.840916,0,0,-3,0,0,0,73,75,134,90,20,166.37,326,5.00,12.00,-995.00
2024-05-17 15:38:51.854508,0,0,-3,0,0,0,73,75,134,90,20,166.41,326,11.00,10.00,-1002.00
2024-05-17 15:38:52.046494,0,0,-3,0,0,0,72,75,134,90,20,166.34,326,3.00,2.00,-995.00
2024-05-17 15:38:52.058800,0,0,-3,0,0,0,72,75,134,90,20,166.54,326,6.00,5.00,-998.00
2024-05-17 15:38:52.250526,0,0,-3,0,0,0,72,75,134,90,19,166.33,326,14.00,0.00,-996.00
2024-05-17 15:38:52.262494,0,0,-3,0,0,0,72,75,134,90,19,166.38,326,8.00,7.00,-1000.00
2024-05-17 15:38:52.455694,1,0,-3,0,0,0,72,75,133,90,19,166.44,326,22.00,3.00,-1000.00
2024-05-17 15:38:52.468126,1,0,-3,0,0,0,72,75,133,90,19,166.51,326,3.00,3.00,-1014.00
2024-05-17 15:38:52.568406,1,0,-3,0,0,0,72,75,133,90,19,166.54,327,6.00,-1.00,-1005.00
2024-05-17 15:38:52.762827,1,0,-3,0,0,0,72,75,133,90,19,166.38,327,21.00,12.00,-988.00
2024-05-17 15:38:52.764365,0,-7,-3,0,0,0,72,75,136,90,19,166.54,327,15.00,2.00,-1013.00
2024-05-17 15:38:52.823192,0,-8,-3,0,-1,0,72,75,135,90,19,166.42,327,18.00,15.00,-1020.00
2024-05-17 15:38:52.976361,0,-5,-3,0,-3,0,73,75,134,90,19,166.39,327,18.00,30.00,-984.00
2024-05-17 15:38:53.027307,0,-3,-3,0,-3,0,73,75,134,90,19,166.52,327,22.00,23.00,-991.00
2024-05-17 15:38:53.171845,1,0,-3,0,-3,0,73,75,132,90,19,166.34,327,10.00,25.00,-995.00
2024-05-17 15:38:53.231284,1,0,-3,0,-3,0,73,75,133,90,19,166.29,327,17.00,21.00,-999.00
2024-05-17 15:38:53.376729,2,0,-3,0,-2,0,73,75,132,90,19,166.25,327,18.00,27.00,-998.00
2024-05-17 15:38:53.435137,2,0,-3,0,-2,0,73,75,133,90,19,166.49,327,17.00,18.00,-1004.00
2024-05-17 15:38:53.537444,1,-1,-3,0,-2,0,73,75,133,90,19,166.64,328,34.00,31.00,-1001.00
2024-05-17 15:38:53.639422,1,-1,-3,0,-2,0,73,75,133,90,19,166.52,328,26.00,22.00,-1006.00
2024-05-17 15:38:53.786301,2,0,-3,0,-2,0,73,75,132,90,19,166.33,328,20.00,22.00,-1005.00
2024-05-17 15:38:53.843233,2,0,-3,0,-2,0,73,75,132,90,19,166.40,328,17.00,20.00,-994.00
2024-05-17 15:38:53.991091,2,0,-3,0,-2,0,73,74,132,90,19,166.58,328,29.00,23.00,-1014.00
2024-05-17 15:38:54.047255,2,0,-3,0,-2,0,73,74,131,90,19,166.20,328,32.00,18.00,-1018.00
2024-05-17 15:38:54.198411,0,0,-3,0,-2,0,73,74,131,90,19,166.41,328,29.00,21.00,-991.00
2024-05-17 15:38:54.258801,0,0,-3,0,-2,0,73,74,132,90,19,166.29,328,29.00,23.00,-1000.00
2024-05-17 15:38:54.353066,1,0,-3,0,-2,0,73,74,131,90,19,166.17,328,10.00,14.00,-1014.00
2024-05-17 15:38:54.455092,2,3,-3,0,-1,0,73,74,133,90,19,166.49,328,19.00,26.00,-981.00
2024-05-17 15:38:54.707923,5,2,-3,0,-1,0,73,74,133,90,19,166.23,329,25.00,4.00,-1033.00
2024-05-17 15:38:54.708377,4,1,-3,0,0,0,73,74,133,90,19,166.42,329,28.00,1.00,-1022.00
2024-05-17 15:38:54.762145,-1,0,-3,0,0,0,73,74,133,90,19,166.27,329,35.00,12.00,-989.00
2024-05-17 15:38:54.864357,0,0,-3,0,0,0,73,74,133,90,19,166.61,329,21.00,12.00,-1002.00
2024-05-17 15:38:55.015644,0,0,-3,0,0,0,73,75,132,90,19,166.60,329,21.00,-2.00,-1009.00
2024-05-17 15:38:55.067176,1,0,-3,0,0,0,73,75,132,90,19,166.34,329,29.00,9.00,-998.00
2024-05-17 15:38:55.219996,1,0,-3,0,0,0,73,75,132,90,18,166.47,329,23.00,10.00,-1011.00
2024-05-17 15:38:55.271308,1,0,-3,0,0,0,73,75,132,90,18,166.44,329,15.00,0.00,-1007.00
2024-05-17 15:38:55.424899,1,0,-3,0,0,0,73,75,132,90,18,166.28,329,17.00,9.00,-996.00
2024-05-17 15:38:55.475375,1,0,-3,0,0,0,73,75,132,90,18,166.49,329,24.00,-3.00,-987.00
2024-05-17 15:38:55.577514,1,0,-3,0,0,0,73,75,132,90,18,166.26,330,22.00,-4.00,-990.00
2024-05-17 15:38:55.732699,1,0,-3,0,0,0,73,75,132,90,18,166.07,330,27.00,7.00,-993.00
2024-05-17 15:38:55.782665,1,0,-3,0,0,0,73,75,132,90,18,166.64,330,20.00,2.00,-984.00
2024-05-17 15:38:55.936883,1,0,-3,0,0,0,73,75,132,90,18,166.55,330,12.00,-11.00,-992.00
2024-05-17 15:38:55.986488,1,0,-3,0,0,0,73,74,132,90,18,166.30,330,25.00,1.00,-991.00
2024-05-17 15:38:56.142081,1,0,-3,0,0,0,73,74,133,90,18,166.00,330,25.00,-2.00,-989.00
2024-05-17 15:38:56.190285,1,0,-3,0,0,0,73,74,133,90,18,166.40,330,25.00,8.00,-1002.00
2024-05-17 15:38:56.346391,1,0,-3,0,0,0,73,74,132,90,18,166.41,330,19.00,-5.00,-995.00
2024-05-17 15:38:56.394951,1,0,-3,0,0,0,73,74,132,90,18,166.11,330,12.00,-3.00,-989.00
2024-05-17 15:38:56.445305,1,0,-3,0,0,0,73,74,131,90,18,166.43,330,20.00,0.00,-1002.00
2024-05-17 15:38:56.551171,1,0,-3,0,0,0,73,74,131,90,18,166.45,331,24.00,-5.00,-999.00
2024-05-17 15:38:56.649223,1,0,-3,0,0,0,73,74,132,90,18,166.09,331,26.00,1.00,-1001.00
2024-05-17 15:38:56.755995,1,0,-3,0,0,0,73,74,132,90,18,166.16,331,20.00,-3.00,-993.00
2024-05-17 15:38:56.853138,1,0,-3,0,0,0,73,74,132,90,18,166.42,331,22.00,6.00,-995.00
2024-05-17 15:38:56.960757,1,0,-3,0,0,0,72,75,132,90,18,166.46,331,23.00,-21.00,-1021.00
2024-05-17 15:38:57.056936,1,4,-3,0,0,0,72,75,135,90,18,166.42,331,19.00,0.00,-967.00
2024-05-17 15:38:57.165721,1,8,-3,0,1,0,72,75,135,90,18,166.71,331,16.00,-3.00,-1012.00
2024-05-17 15:38:57.261155,1,6,-3,0,2,0,72,75,134,90,18,166.25,331,18.00,-17.00,-1008.00
2024-05-17 15:38:57.372270,1,3,-3,0,3,0,72,75,132,90,18,166.27,331,26.00,-10.00,-989.00
2024-05-17 15:38:57.465614,1,1,-3,0,3,0,72,75,132,90,18,166.42,331,21.00,-34.00,-997.00
2024-05-17 15:38:57.575212,1,0,-3,0,3,0,72,75,132,90,18,166.24,332,29.00,-31.00,-1000.00
2024-05-17 15:38:57.669045,1,0,-3,0,2,0,72,75,133,90,18,166.41,332,25.00,-15.00,-1007.00
2024-05-17 15:38:57.779788,1,0,-3,0,2,0,72,75,134,90,18,166.40,332,17.00,-22.00,-988.00
2024-05-17 15:38:57.872816,1,0,-3,0,2,0,72,75,134,90,18,166.45,332,9.00,-15.00,-993.00
2024-05-17 15:38:57.984672,0,0,-3,0,2,0,72,74,134,90,18,166.57,332,12.00,-25.00,-996.00
2024-05-17 15:38:58.076885,0,0,-3,0,2,0,72,74,134,90,18,166.60,332,7.00,-11.00,-1000.00
2024-05-17 15:38:58.200984,0,0,-3,0,2,0,72,74,134,90,17,166.31,332,4.00,-23.00,-991.00
2024-05-17 15:38:58.280808,0,0,-3,0,2,0,72,74,133,90,17,166.37,332,7.00,-16.00,-991.00
2024-05-17 15:38:58.396320,-1,0,-3,0,2,0,72,74,133,90,17,166.30,332,9.00,-17.00,-1000.00
2024-05-17 15:38:58.485541,-1,0,-3,0,2,0,72,74,132,90,17,166.42,332,2.00,-23.00,-1002.00
2024-05-17 15:38:58.587398,-1,0,-3,0,2,0,72,74,133,90,17,166.43,333,9.00,-19.00,-995.00
2024-05-17 15:38:58.688950,1,0,-3,0,2,0,72,74,133,90,17,166.48,333,6.00,-10.00,-1010.00
2024-05-17 15:38:58.790872,3,0,-3,0,2,0,72,74,131,90,17,166.67,333,6.00,-6.00,-992.00
2024-05-17 15:38:58.906271,1,-1,-3,0,2,0,72,74,132,90,17,166.50,333,-3.00,-15.00,-1012.00
2024-05-17 15:38:58.997265,0,-2,-3,0,0,0,72,75,132,90,17,166.24,333,6.00,0.00,-1002.00
2024-05-17 15:38:59.097638,0,-1,-3,0,0,0,72,75,131,90,17,166.30,333,10.00,8.00,-995.00
2024-05-17 15:38:59.199612,0,0,-3,0,0,0,72,75,130,90,17,166.58,333,16.00,3.00,-1016.00
2024-05-17 15:38:59.315962,0,0,-3,0,0,0,72,75,130,90,17,166.33,333,13.00,-5.00,-1012.00
2024-05-17 15:38:59.402978,1,0,-3,0,0,0,72,75,130,90,17,166.70,333,12.00,15.00,-999.00
2024-05-17 15:38:59.504883,1,0,-3,0,0,0,72,75,130,90,17,166.38,334,18.00,-5.00,-1015.00
2024-05-17 15:38:59.626750,1,0,-3,0,0,0,72,75,130,90,17,166.43,334,21.00,7.00,-1001.00
2024-05-17 15:38:59.709082,1,0,-3,0,0,0,72,75,129,90,17,166.47,334,12.00,6.00,-1009.00
2024-05-17 15:38:59.810870,1,0,-3,0,0,0,72,75,130,90,17,166.63,334,21.00,10.00,-1009.00
2024-05-17 15:38:59.862086,0,0,-3,0,0,0,72,75,130,90,17,166.46,334,3.00,5.00,-987.00
2024-05-17 15:39:00.034330,0,0,-3,0,0,0,73,75,130,90,17,166.39,334,16.00,9.00,-997.00
2024-05-17 15:39:00.117399,0,0,-3,0,0,0,73,75,130,90,17,166.33,334,18.00,11.00,-997.00
2024-05-17 15:39:00.171491,0,0,-3,0,0,0,73,75,131,90,17,166.34,334,11.00,7.00,-1010.00
2024-05-17 15:39:00.270031,0,0,-3,0,0,0,73,75,131,90,17,166.43,334,16.00,13.00,-998.00
2024-05-17 15:39:00.372014,1,0,-3,0,0,0,73,75,131,90,17,166.59,334,14.00,18.00,-1002.00
2024-05-17 15:39:00.545137,1,0,-3,0,0,0,73,75,131,90,17,166.06,335,10.00,1.00,-1007.00
2024-05-17 15:39:00.576263,1,0,-3,0,0,0,73,75,130,90,17,166.07,335,8.00,6.00,-988.00
2024-05-17 15:39:00.679223,0,0,-3,0,0,0,73,75,130,90,17,166.39,335,9.00,12.00,-974.00
2024-05-17 15:39:00.780087,0,0,-3,0,0,0,73,75,130,90,17,166.26,335,18.00,14.00,-993.00
2024-05-17 15:39:00.954580,0,0,-3,0,0,0,73,75,130,90,17,166.47,335,19.00,9.00,-1004.00
2024-05-17 15:39:00.988691,0,0,-3,0,0,0,72,75,130,90,17,166.46,335,16.00,9.00,-1001.00
2024-05-17 15:39:01.092199,0,0,-3,0,0,0,72,75,130,90,17,166.56,335,12.00,8.00,-993.00
2024-05-17 15:39:01.187954,1,0,1,0,0,0,72,75,129,90,16,166.27,335,21.00,6.00,-982.00
2024-05-17 15:39:01.363751,1,0,7,0,0,0,72,75,130,90,16,166.32,335,21.00,13.00,-999.00
2024-05-17 15:39:01.391884,1,0,12,0,0,0,72,75,130,90,16,166.07,335,15.00,9.00,-993.00
2024-05-17 15:39:01.494804,0,0,18,0,0,0,72,75,130,90,16,166.21,336,31.00,1.00,-995.00
2024-05-17 15:39:01.672953,0,0,24,0,0,0,72,75,130,90,16,166.36,336,20.00,4.00,-1003.00
2024-05-17 15:39:01.703836,0,0,30,0,0,0,72,75,130,90,16,166.30,336,23.00,12.00,-1008.00
2024-05-17 15:39:01.800658,0,0,36,0,0,0,72,75,131,90,16,166.14,336,25.00,12.00,-996.00
2024-05-17 15:39:01.978243,0,0,42,0,0,0,72,75,131,90,16,166.36,336,23.00,3.00,-999.00
2024-05-17 15:39:02.004670,1,0,48,0,0,0,72,75,131,90,16,166.26,336,15.00,2.00,-994.00
2024-05-17 15:39:02.185713,1,0,53,0,0,0,72,75,131,90,16,166.45,336,22.00,1.00,-994.00
2024-05-17 15:39:02.209037,0,0,59,0,0,0,72,75,131,90,16,166.48,336,22.00,5.00,-999.00
2024-05-17 15:39:02.393295,0,0,65,0,0,0,72,75,132,90,16,166.46,336,13.00,5.00,-1012.00
2024-05-17 15:39:02.421412,0,0,71,0,0,0,72,75,132,90,16,166.43,336,15.00,7.00,-1013.00
2024-05-17 15:39:02.514636,1,0,77,0,0,0,72,75,132,90,16,166.37,337,27.00,-5.00,-995.00
2024-05-17 15:39:02.700457,1,0,83,0,0,0,72,75,132,90,16,166.31,337,29.00,-4.00,-997.00
2024-05-17 15:39:02.718637,1,0,89,0,0,0,72,75,132,90,16,166.42,337,21.00,-9.00,-993.00
2024-05-17 15:39:02.902792,0,0,96,0,0,0,72,75,132,90,16,166.47,337,20.00,-3.00,-981.00
2024-05-17 15:39:02.922626,0,0,102,0,0,0,72,75,132,90,16,166.60,337,34.00,-9.00,-1003.00
2024-05-17 15:39:03.104670,0,1,108,0,0,0,73,75,132,90,16,166.45,337,18.00,-12.00,-995.00
2024-05-17 15:39:03.126528,0,1,114,0,0,0,73,75,132,90,16,166.23,337,20.00,-9.00,-1001.00
2024-05-17 15:39:03.309626,0,1,120,0,0,0,73,75,132,90,16,166.58,337,11.00,-15.00,-996.00
2024-05-17 15:39:03.330567,0,1,126,0,0,0,73,75,131,90,16,166.48,337,21.00,-8.00,-1001.00
2024-05-17 15:39:03.516397,0,1,132,0,0,0,73,75,131,90,16,166.46,337,5.00,-14.00,-1002.00
2024-05-17 15:39:03.534756,0,1,138,0,0,0,73,75,131,90,16,166.36,338,20.00,-16.00,-1007.00
2024-05-17 15:39:03.636574,0,1,144,0,0,0,73,75,131,90,16,166.25,338,10.00,-12.00,-1005.00
2024-05-17 15:39:03.687930,0,1,150,0,0,0,73,75,132,90,16,166.63,338,12.00,-4.00,-1000.00
2024-05-17 15:39:03.790029,0,1,156,0,0,0,73,75,132,90,16,166.55,338,0.00,-7.00,-1009.00
2024-05-17 15:39:03.891813,0,1,162,0,0,0,73,75,132,90,16,166.48,338,-5.00,-15.00,-1009.00
2024-05-17 15:39:04.026225,0,1,168,0,0,0,73,75,132,90,16,166.42,338,-7.00,-10.00,-1002.00
2024-05-17 15:39:04.096777,0,1,174,0,0,0,73,75,133,90,16,166.52,338,-2.00,-14.00,-1000.00
2024-05-17 15:39:04.231004,0,0,-179,0,0,0,73,75,134,90,16,166.22,338,1.00,-8.00,-1003.00
2024-05-17 15:39:04.301191,0,0,-173,0,0,0,73,75,135,90,16,166.22,338,-6.00,-9.00,-989.00
2024-05-17 15:39:04.401948,0,0,-168,0,0,0,73,75,134,90,16,166.36,338,4.00,-10.00,-994.00
2024-05-17 15:39:04.506681,0,0,-162,0,0,0,73,75,134,90,16,166.55,339,0.00,-11.00,-988.00
2024-05-17 15:39:04.608958,0,0,-156,0,0,0,73,75,135,90,16,166.45,339,-6.00,-16.00,-1011.00
2024-05-17 15:39:04.707731,0,0,-151,0,0,0,73,75,134,90,16,166.35,339,8.00,-11.00,-1001.00
2024-05-17 15:39:04.845409,0,0,-145,0,0,0,73,75,134,90,16,166.27,339,2.00,-17.00,-998.00
2024-05-17 15:39:04.911913,0,0,-139,0,0,0,73,75,134,90,16,166.21,339,-2.00,-17.00,-986.00
2024-05-17 15:39:05.050213,0,0,-133,0,0,0,73,75,135,90,16,166.49,339,-6.00,-1.00,-1013.00
2024-05-17 15:39:05.115833,0,0,-127,0,0,0,73,75,134,90,16,166.13,339,-14.00,3.00,-1010.00
2024-05-17 15:39:05.256138,0,0,-121,0,0,0,73,75,134,90,16,166.44,339,-16.00,-6.00,-998.00
2024-05-17 15:39:05.319758,0,0,-116,0,0,0,73,75,133,90,16,166.14,339,-17.00,-2.00,-1014.00
2024-05-17 15:39:05.459808,0,0,-110,0,0,0,73,75,133,90,16,166.32,339,-2.00,1.00,-1002.00
2024-05-17 15:39:05.523809,0,0,-104,0,0,0,73,75,133,90,16,166.14,340,7.00,1.00,-1001.00
2024-05-17 15:39:05.665458,0,0,-98,0,0,0,73,75,133,90,16,166.42,340,2.00,0.00,-992.00
2024-05-17 15:39:05.727799,0,0,-92,0,0,0,73,75,132,90,16,166.26,340,-4.00,-7.00,-979.00
2024-05-17 15:39:05.870616,0,0,-86,0,0,0,73,75,132,90,16,166.29,340,-7.00,2.00,-1000.00
2024-05-17 15:39:05.931625,0,0,-80,0,0,0,73,75,132,90,16,166.48,340,0.00,0.00,-994.00
2024-05-17 15:39:06.074184,0,0,-74,0,0,0,73,75,132,90,16,166.63,340,-3.00,10.00,-991.00
2024-05-17 15:39:06.140413,0,0,-68,0,0,0,73,75,132,90,15,166.25,340,-2.00,3.00,-989.00
2024-05-17 15:39:06.240743,0,0,-62,0,0,0,73,75,133,90,15,166.37,340,-3.00,13.00,-991.00
2024-05-17 15:39:06.339617,0,0,-56,0,0,0,73,75,132,90,15,166.63,340,-9.00,4.00,-1005.00
2024-05-17 15:39:06.484877,0,0,-50,0,0,0,73,75,132,90,15,166.62,340,19.00,16.00,-1005.00
2024-05-17 15:39:06.543599,0,0,-44,0,0,0,73,75,132,90,15,166.43,341,14.00,-4.00,-999.00
2024-05-17 15:39:06.645766,0,0,-38,0,0,0,73,75,133,90,15,166.39,341,9.00,1.00,-998.00
2024-05-17 15:39:06.791237,0,0,-32,0,0,0,73,75,133,90,15,166.28,341,27.00,8.00,-996.00
2024-05-17 15:39:06.849656,0,0,-26,0,0,0,73,75,133,90,15,166.45,341,4.00,23.00,-1002.00
2024-05-17 15:39:06.997870,0,0,-21,0,0,0,73,75,133,90,15,166.55,341,2.00,7.00,-997.00
2024-05-17 15:39:07.053675,0,0,-17,0,0,0,73,75,132,90,15,166.47,341,14.00,16.00,-995.00
2024-05-17 15:39:07.200624,0,0,-14,0,0,0,73,75,132,90,15,166.15,341,12.00,15.00,-999.00
2024-05-17 15:39:07.259043,1,0,-11,0,0,0,73,75,132,90,15,166.39,341,8.00,10.00,-1001.00
2024-05-17 15:39:07.405712,1,0,-10,0,0,0,73,75,131,90,15,166.12,341,4.00,17.00,-987.00
2024-05-17 15:39:07.463809,1,0,-8,0,0,0,73,75,131,90,15,166.33,341,19.00,1.00,-1005.00
2024-05-17 15:39:07.512405,1,0,-7,0,0,0,73,75,131,90,15,166.53,342,11.00,12.00,-1008.00
2024-05-17 15:39:07.724845,1,0,-6,0,0,0,73,75,131,90,15,166.39,342,9.00,4.00,-1000.00
2024-05-17 15:39:07.725052,1,0,-5,0,0,0,73,75,130,90,15,166.29,342,21.00,2.00,-1012.00
2024-05-17 15:39:07.822227,1,0,-5,0,0,0,73,75,130,90,15,166.29,342,32.00,-1.00,-1003.00
2024-05-17 15:39:07.920565,1,0,-5,0,0,0,73,75,130,90,15,166.26,342,15.00,5.00,-985.00
2024-05-17 15:39:08.023016,1,0,-5,0,0,0,72,75,130,90,15,166.50,342,11.00,7.00,-1002.00
2024-05-17 15:39:08.124541,1,0,-5,0,0,0,72,75,130,90,15,166.51,342,16.00,0.00,-981.00
2024-05-17 15:39:08.226623,1,0,-5,0,0,0,72,75,130,90,15,166.47,342,7.00,7.00,-1010.00
2024-05-17 15:39:08.429623,1,0,-5,0,0,0,72,75,130,90,15,166.41,342,20.00,-3.00,-1002.00
2024-05-17 15:39:08.431841,1,0,-5,0,0,0,72,75,130,90,15,166.12,342,17.00,6.00,-999.00
2024-05-17 15:39:08.532459,1,0,-5,0,0,0,72,75,129,90,15,166.51,343,18.00,3.00,-1011.00
2024-05-17 15:39:08.635127,1,0,-5,0,0,0,72,75,130,90,15,166.46,343,9.00,-6.00,-994.00
2024-05-17 15:39:08.736463,1,0,-5,0,0,0,72,75,129,90,15,166.28,343,21.00,-5.00,-993.00
2024-05-17 15:39:08.839103,1,0,-5,0,0,0,72,75,129,90,15,166.52,343,14.00,4.00,-1010.00
2024-05-17 15:39:08.941622,0,0,-5,0,0,0,72,75,129,90,15,166.17,343,19.00,-2.00,-1007.00
2024-05-17 15:39:09.046695,0,0,-5,0,0,0,73,75,129,90,15,166.54,343,10.00,11.00,-1005.00
2024-05-17 15:39:09.144444,0,0,-5,0,0,0,73,75,129,90,15,166.55,343,21.00,13.00,-993.00
2024-05-17 15:39:09.248814,0,0,-5,0,0,0,73,75,130,90,15,166.08,343,15.00,16.00,-1004.00
2024-05-17 15:39:09.348810,0,0,-5,0,0,0,73,75,130,90,15,166.72,343,21.00,1.00,-997.00
2024-05-17 15:39:09.453575,0,0,-5,0,0,0,73,75,130,90,15,166.43,343,25.00,1.00,-993.00
2024-05-17 15:39:09.554139,0,0,-5,0,0,0,73,75,130,90,15,166.51,344,21.00,9.00,-1001.00
2024-05-17 15:39:09.654338,0,0,-5,0,0,0,73,75,130,90,15,166.18,344,12.00,4.00,-1004.00
2024-05-17 15:39:09.760896,0,0,-5,0,0,0,73,75,130,90,15,166.46,344,20.00,4.00,-1009.00
2024-05-17 15:39:09.858365,0,0,-5,0,0,0,73,75,131,90,15,166.54,344,17.00,6.00,-1007.00
2024-05-17 15:39:09.965349,0,0,-6,0,0,0,73,75,131,90,15,166.38,344,6.00,1.00,-990.00
2024-05-17 15:39:10.062435,0,0,-12,0,0,0,72,75,131,90,15,166.55,344,15.00,3.00,-1002.00
2024-05-17 15:39:10.170196,0,0,-18,0,0,0,72,75,131,90,14,166.56,344,23.00,17.00,-1000.00
2024-05-17 15:39:10.266353,0,0,-24,0,0,0,72,75,132,90,14,166.65,344,17.00,16.00,-998.00
2024-05-17 15:39:10.375002,0,0,-30,0,0,0,72,75,132,90,14,166.74,344,14.00,8.00,-993.00
2024-05-17 15:39:10.478299,0,0,-36,0,0,0,72,75,132,90,14,166.27,344,8.00,17.00,-997.00
2024-05-17 15:39:10.576107,0,0,-42,0,0,0,72,75,132,90,14,166.30,345,4.00,18.00,-1006.00
2024-05-17 15:39:10.675828,0,0,-48,0,0,0,72,75,132,90,14,166.37,345,6.00,8.00,-998.00
2024-05-17 15:39:10.776271,0,0,-54,0,0,0,72,75,132,90,14,166.37,345,0.00,17.00,-1011.00
2024-05-17 15:39:10.878210,0,0,-60,0,0,0,72,75,132,90,14,166.51,345,6.00,13.00,-996.00
2024-05-17 15:39:10.990392,0,0,-66,0,0,0,72,75,132,90,14,166.23,345,11.00,13.00,-1010.00
2024-05-17 15:39:11.082190,0,0,-71,0,0,0,72,75,131,90,14,166.48,345,9.00,15.00,-1005.00
2024-05-17 15:39:11.196987,0,0,-77,0,0,0,72,75,132,90,14,166.50,345,-4.00,11.00,-1003.00
2024-05-17 15:39:11.286151,0,0,-83,0,0,0,72,75,132,90,14,166.56,345,0.00,14.00,-994.00
2024-05-17 15:39:11.388588,0,0,-89,0,0,0,72,75,132,90,14,166.29,345,-3.00,2.00,-1005.00
2024-05-17 15:39:11.439600,0,0,-94,0,0,0,72,75,132,90,14,166.54,345,2.00,-5.00,-1003.00
2024-05-17 15:39:11.542036,0,0,-100,0,0,0,72,75,133,90,14,166.57,346,-1.00,4.00,-1013.00
2024-05-17 15:39:11.644682,0,0,-106,0,0,0,72,75,133,90,14,166.39,346,2.00,2.00,-1004.00
2024-05-17 15:39:11.746563,0,0,-111,0,0,0,72,75,134,90,14,166.32,346,-5.00,0.00,-990.00
2024-05-17 15:39:11.851887,0,0,-117,0,0,0,72,75,133,90,14,166.32,346,-8.00,3.00,-988.00
2024-05-17 15:39:11.951690,0,0,-123,0,0,0,72,75,133,90,14,166.48,346,0.00,-1.00,-997.00
2024-05-17 15:39:12.053273,0,0,-128,0,0,0,73,74,133,90,14,166.64,346,-6.00,0.00,-1007.00
2024-05-17 15:39:12.155614,0,0,-134,0,0,0,73,74,133,90,14,166.64,346,-2.00,-1.00,-1000.00
2024-05-17 15:39:12.256130,0,0,-140,0,0,0,73,74,133,90,14,166.57,346,14.00,-4.00,-993.00
2024-05-17 15:39:12.427238,0,0,-146,0,0,0,73,74,134,90,14,166.68,346,10.00,0.00,-987.00
2024-05-17 15:39:12.460108,0,0,-152,0,0,0,73,74,134,90,14,166.50,346,12.00,-3.00,-994.00
2024-05-17 15:39:12.562232,0,0,-157,0,0,0,73,74,134,90,14,166.04,347,10.00,5.00,-1004.00
2024-05-17 15:39:12.664100,0,0,-163,0,0,0,73,74,134,90,14,166.34,347,0.00,1.00,-1005.00
2024-05-17 15:39:12.832592,0,0,-169,0,0,0,73,74,134,90,14,166.58,347,2.00,-2.00,-994.00
2024-05-17 15:39:12.868986,0,0,-175,0,0,0,73,74,134,90,14,166.49,347,0.00,-4.00,-1004.00
2024-05-17 15:39:13.037354,0,0,178,0,0,0,73,74,134,90,14,166.46,347,-1.00,-10.00,-1012.00
2024-05-17 15:39:13.072077,0,0,172,0,0,0,72,75,134,90,14,166.52,347,8.00,-15.00,-994.00
2024-05-17 15:39:13.244712,0,0,167,0,0,0,72,75,134,90,14,166.50,347,15.00,-9.00,-997.00
2024-05-17 15:39:13.279049,0,0,161,0,0,0,72,75,134,90,14,166.44,347,17.00,-4.00,-999.00
2024-05-17 15:39:13.378075,0,0,155,0,0,0,72,75,134,90,14,166.28,347,11.00,-11.00,-999.00
2024-05-17 15:39:13.550821,0,0,149,0,0,0,72,75,134,90,14,166.29,347,23.00,-3.00,-999.00
2024-05-17 15:39:13.585407,1,0,144,0,0,0,72,75,134,90,14,166.68,348,11.00,-8.00,-993.00
2024-05-17 15:39:13.685975,1,0,138,0,0,0,72,75,134,90,14,166.44,348,6.00,-2.00,-1000.00
2024-05-17 15:39:13.873589,1,0,132,0,0,0,72,75,134,90,14,166.27,348,24.00,-6.00,-1000.00
2024-05-17 15:39:13.889287,1,0,126,0,0,0,72,75,133,90,14,166.22,348,14.00,-8.00,-1000.00
2024-05-17 15:39:14.063228,1,0,120,0,0,0,72,75,134,90,14,166.48,348,18.00,-10.00,-1006.00
2024-05-17 15:39:14.093298,1,0,108,0,0,0,72,74,133,90,14,166.48,348,10.00,-8.00,-1004.00
2024-05-17 15:39:14.266222,1,0,102,0,0,0,72,74,133,90,14,166.45,348,25.00,-8.00,-999.00
2024-05-17 15:39:14.298712,1,0,96,0,0,0,72,74,133,90,14,166.47,348,19.00,-2.00,-994.00
2024-05-17 15:39:14.399443,1,0,90,0,0,0,72,74,133,90,14,166.64,348,23.00,0.00,-1010.00
2024-05-17 15:39:14.573545,1,0,84,0,0,0,72,74,133,90,14,166.69,349,10.00,-5.00,-985.00
2024-05-17 15:39:14.604141,1,0,78,0,0,0,72,74,133,90,14,166.40,349,25.00,-6.00,-993.00
2024-05-17 15:39:14.705871,1,0,73,0,0,0,72,74,133,90,14,166.07,349,24.00,1.00,-989.00
2024-05-17 15:39:14.880947,1,0,67,0,0,0,72,74,133,90,14,166.73,349,17.00,4.00,-992.00
2024-05-17 15:39:14.909395,1,0,61,0,0,0,72,74,133,90,14,166.58,349,21.00,-1.00,-998.00
2024-05-17 15:39:15.085396,1,0,55,0,0,0,72,74,133,90,14,166.53,349,23.00,11.00,-996.00
2024-05-17 15:39:15.113252,1,0,50,0,0,0,72,75,133,90,14,166.50,349,22.00,1.00,-993.00
2024-05-17 15:39:15.290126,1,0,44,0,0,0,72,75,132,90,14,166.52,349,27.00,1.00,-999.00
2024-05-17 15:39:15.290679,1,0,38,0,0,0,72,75,132,90,14,166.11,349,37.00,13.00,-996.00
2024-05-17 15:39:15.368025,1,0,33,0,0,0,72,75,132,90,14,166.23,349,37.00,5.00,-998.00
2024-05-17 15:39:15.499365,2,0,27,0,0,0,72,75,132,90,14,166.30,350,33.00,2.00,-991.00
2024-05-17 15:39:15.577444,2,0,21,0,0,0,72,75,132,90,14,166.43,350,41.00,4.00,-1005.00
2024-05-17 15:39:15.673888,1,0,15,0,0,0,72,75,131,90,14,166.49,350,38.00,11.00,-1002.00
2024-05-17 15:39:15.802293,1,0,10,0,0,0,72,75,131,90,14,166.54,350,33.00,5.00,-992.00
2024-05-17 15:39:15.877935,1,0,6,0,0,0,72,75,131,90,14,166.70,350,43.00,9.00,-998.00
2024-05-17 15:39:16.008540,1,0,3,0,0,0,72,75,131,90,14,166.43,350,27.00,7.00,-995.00
2024-05-17 15:39:16.081934,1,0,0,0,0,0,71,75,130,90,14,166.42,350,23.00,14.00,-997.00
2024-05-17 15:39:16.183866,1,0,0,0,0,0,71,75,131,90,14,166.36,350,20.00,6.00,-997.00
2024-05-17 15:39:16.286999,1,0,-2,0,0,0,71,75,130,90,14,166.42,350,24.00,11.00,-1000.00
2024-05-17 15:39:16.388551,1,0,-3,0,0,0,71,75,130,90,14,166.30,350,20.00,6.00,-995.00
2024-05-17 15:39:16.491710,1,0,-3,0,0,0,71,75,131,90,14,166.30,351,23.00,5.00,-1000.00
2024-05-17 15:39:16.593330,1,0,-4,0,0,0,71,75,130,90,14,166.27,351,25.00,6.00,-992.00
2024-05-17 15:39:16.695627,1,0,-4,0,0,0,71,75,130,90,14,166.33,351,22.00,6.00,-990.00
2024-05-17 15:39:16.796335,1,0,-5,0,0,0,71,75,130,90,14,166.53,351,37.00,6.00,-993.00
2024-05-17 15:39:16.904682,1,0,-5,0,0,0,71,75,130,90,14,166.33,351,35.00,-7.00,-990.00
2024-05-17 15:39:16.999934,1,0,-5,0,0,0,71,75,130,90,14,166.39,351,28.00,11.00,-1001.00
2024-05-17 15:39:17.135679,1,0,-6,0,0,0,72,75,130,90,14,166.31,351,22.00,5.00,-994.00
2024-05-17 15:39:17.203892,1,0,-6,0,0,0,72,75,131,90,13,166.32,351,30.00,2.00,-997.00
2024-05-17 15:39:17.338234,1,0,-6,0,0,0,72,75,131,90,13,166.22,351,18.00,2.00,-993.00
2024-05-17 15:39:17.412181,1,0,-7,0,0,0,72,75,131,90,13,166.52,351,24.00,3.00,-988.00
2024-05-17 15:39:17.510876,1,0,-7,0,0,0,72,75,131,90,13,166.16,352,18.00,-5.00,-982.00
2024-05-17 15:39:17.645814,1,0,-7,0,0,0,72,75,131,90,13,166.58,352,16.00,4.00,-997.00
2024-05-17 15:39:17.715713,1,0,-7,0,0,0,72,75,131,90,13,166.65,352,25.00,10.00,-997.00
2024-05-17 15:39:17.816180,1,0,-7,0,0,0,72,75,131,90,13,166.57,352,13.00,1.00,-997.00
2024-05-17 15:39:17.917885,1,0,-7,0,0,0,72,75,132,90,13,166.26,352,16.00,-2.00,-985.00
2024-05-17 15:39:18.055672,1,0,-7,0,0,0,72,75,132,90,13,166.19,352,23.00,4.00,-988.00
2024-05-17 15:39:18.124128,1,0,-7,0,0,0,72,74,132,90,13,166.61,352,17.00,15.00,-1000.00
2024-05-17 15:39:18.224818,1,0,-7,0,0,0,72,74,132,90,13,166.52,352,11.00,-2.00,-989.00
2024-05-17 15:39:18.325949,1,0,-7,0,0,0,72,74,132,90,13,166.29,352,13.00,5.00,-992.00
2024-05-17 15:39:18.450214,1,0,-7,0,0,0,72,74,133,90,13,166.47,352,14.00,10.00,-1001.00
2024-05-17 15:39:18.529942,0,0,-7,0,0,0,72,74,132,90,13,166.61,353,8.00,-6.00,-985.00
2024-05-17 15:39:18.671637,1,0,-7,0,0,0,72,74,132,90,13,166.25,353,12.00,-2.00,-1010.00
2024-05-17 15:39:18.733813,1,0,-7,0,0,0,72,74,132,90,13,166.38,353,22.00,0.00,-994.00
2024-05-17 15:39:18.874667,1,0,-7,0,0,0,72,74,132,90,13,166.65,353,19.00,7.00,-1005.00
2024-05-17 15:39:18.887115,1,0,-7,0,0,0,72,74,132,90,13,166.55,353,18.00,1.00,-1010.00
2024-05-17 15:39:19.080511,1,0,-7,0,0,0,72,74,132,90,13,166.30,353,7.00,-9.00,-1002.00
2024-05-17 15:39:19.091124,1,0,-7,0,0,0,73,74,132,90,13,166.30,353,15.00,-3.00,-993.00
2024-05-17 15:39:19.283819,1,0,-7,0,0,0,73,74,132,90,13,166.19,353,16.00,5.00,-988.00
2024-05-17 15:39:19.295081,1,0,-7,0,0,0,73,74,131,90,13,166.31,353,13.00,6.00,-1005.00
2024-05-17 15:39:19.489801,1,0,-7,0,0,0,73,74,131,90,13,166.65,353,15.00,5.00,-1001.00
2024-05-17 15:39:19.498890,0,0,-7,0,0,0,73,74,132,90,13,166.42,354,23.00,-3.00,-1001.00
2024-05-17 15:39:19.601196,0,0,-7,0,0,0,73,74,131,90,13,166.48,354,27.00,0.00,-994.00
2024-05-17 15:39:19.703031,0,0,-7,0,0,0,73,74,131,90,13,166.39,354,15.00,0.00,-989.00
2024-05-17 15:39:19.898262,0,0,-7,0,0,0,73,74,131,90,13,166.26,354,24.00,6.00,-999.00
2024-05-17 15:39:19.906835,0,0,-7,0,0,0,73,74,132,90,13,166.73,354,17.00,0.00,-998.00
2024-05-17 15:39:20.103198,0,0,-7,0,0,0,73,74,132,90,13,166.62,354,10.00,-6.00,-997.00
2024-05-17 15:39:20.111613,0,0,-7,0,0,0,72,75,131,90,13,166.39,354,21.00,7.00,-1009.00
2024-05-17 15:39:20.307821,0,0,-7,0,0,0,72,75,131,90,13,166.31,354,24.00,7.00,-990.00
2024-05-17 15:39:20.315457,1,0,-7,0,0,0,72,75,131,90,13,166.38,354,11.00,-2.00,-1003.00
2024-05-17 15:39:20.512982,1,0,-7,0,0,0,72,75,131,90,13,166.44,354,19.00,11.00,-1015.00
2024-05-17 15:39:20.519385,1,0,-7,0,0,0,72,75,131,90,13,166.48,355,30.00,2.00,-996.00
2024-05-17 15:39:20.717442,1,0,-7,0,0,0,72,75,131,90,13,166.44,355,15.00,3.00,-994.00
2024-05-17 15:39:20.722886,0,0,-7,0,0,0,72,75,132,90,13,166.60,355,15.00,8.00,-984.00
2024-05-17 15:39:20.923504,0,0,-7,0,0,0,72,75,132,90,13,166.56,355,29.00,-1.00,-1006.00
2024-05-17 15:39:20.926809,0,0,-7,0,0,0,72,75,131,90,13,166.34,355,27.00,-1.00,-995.00
2024-05-17 15:39:21.032109,1,0,-7,0,0,0,72,75,131,90,13,166.53,355,22.00,9.00,-1005.00
2024-05-17 15:39:21.130847,1,0,-7,0,0,0,71,74,131,90,13,166.34,355,25.00,6.00,-1009.00
2024-05-17 15:39:21.233800,1,0,-7,0,0,0,71,74,131,90,13,166.38,355,19.00,0.00,-996.00
2024-05-17 15:39:21.335207,1,0,-7,0,0,0,71,74,131,90,13,166.44,355,20.00,11.00,-1003.00
2024-05-17 15:39:21.436917,1,0,-7,0,0,0,71,74,131,90,13,166.35,355,21.00,2.00,-1001.00
2024-05-17 15:39:21.538940,1,0,-7,0,0,0,71,74,131,90,13,166.53,356,23.00,1.00,-997.00
2024-05-17 15:39:21.750729,1,0,-7,0,0,0,71,74,131,90,13,166.33,356,28.00,-3.00,-998.00
2024-05-17 15:39:21.750933,1,0,-7,0,0,0,71,74,131,90,13,166.46,356,15.00,4.00,-1011.00
2024-05-17 15:39:21.844988,1,0,-7,0,0,0,71,74,131,90,13,166.57,356,21.00,0.00,-998.00
2024-05-17 15:39:22.048541,1,0,-7,0,0,0,71,74,130,90,13,166.55,356,22.00,3.00,-994.00
2024-05-17 15:39:22.048803,1,0,-7,0,0,0,71,74,130,90,13,166.59,356,17.00,3.00,-1005.00
2024-05-17 15:39:22.151119,0,0,-7,0,0,0,72,74,131,90,13,166.10,356,1.00,5.00,-1001.00
2024-05-17 15:39:22.255340,0,0,-7,0,0,0,72,74,130,90,13,166.25,356,10.00,0.00,-1016.00
2024-05-17 15:39:22.355615,0,0,-7,0,0,0,72,74,131,90,13,166.15,356,9.00,11.00,-1009.00
2024-05-17 15:39:22.563730,1,0,-7,0,0,0,72,74,131,90,13,166.39,356,14.00,8.00,-1005.00
2024-05-17 15:39:22.563925,0,0,-7,0,0,0,72,74,131,90,13,166.57,357,21.00,0.00,-1012.00
2024-05-17 15:39:22.609704,0,0,-7,0,0,0,72,74,131,90,13,166.37,357,11.00,2.00,-1007.00
2024-05-17 15:39:22.711571,0,0,-7,0,0,0,72,74,131,90,13,166.66,357,10.00,0.00,-994.00
2024-05-17 15:39:22.867720,0,0,-7,0,0,0,72,74,131,90,13,166.25,357,11.00,-8.00,-999.00
2024-05-17 15:39:22.915545,0,0,-7,0,0,0,72,74,131,90,13,166.50,357,11.00,5.00,-993.00
2024-05-17 15:39:23.017512,1,0,-7,0,0,0,72,74,131,90,13,166.93,357,21.00,3.00,-995.00
2024-05-17 15:39:23.174882,1,0,-7,0,0,0,71,74,130,90,13,166.56,357,30.00,6.00,-1005.00
2024-05-17 15:39:23.221523,1,0,-7,0,0,0,71,74,130,90,13,166.39,357,14.00,4.00,-1000.00
2024-05-17 15:39:23.379709,1,0,-7,0,0,0,71,74,130,90,13,166.39,357,20.00,4.00,-1001.00
2024-05-17 15:39:23.425539,1,0,-7,0,0,0,71,74,130,90,13,166.47,357,12.00,-5.00,-1018.00
2024-05-17 15:39:23.527472,1,0,-7,0,0,0,71,74,130,90,13,166.57,358,19.00,-6.00,-998.00
2024-05-17 15:39:23.686893,1,0,-7,0,0,0,71,74,130,90,13,166.27,358,29.00,0.00,-1008.00
2024-05-17 15:39:23.733538,1,0,-7,0,0,0,71,74,130,90,13,166.47,358,20.00,5.00,-981.00
2024-05-17 15:39:23.833843,1,0,-7,0,0,0,71,74,130,90,13,166.48,358,16.00,0.00,-1001.00
2024-05-17 15:39:24.003262,1,0,-7,0,0,0,71,74,130,90,13,166.72,358,9.00,2.00,-993.00
2024-05-17 15:39:24.042097,1,0,-7,0,0,0,71,74,130,90,13,166.45,358,17.00,-1.00,-1017.00
2024-05-17 15:39:24.142413,1,0,-7,0,0,0,71,74,130,90,13,166.30,358,30.00,0.00,-995.00
2024-05-17 15:39:24.250970,1,0,-7,0,0,0,71,74,130,90,13,166.51,358,13.00,0.00,-1009.00
2024-05-17 15:39:24.345885,1,0,-7,0,0,0,71,74,130,90,13,166.59,358,26.00,4.00,-1000.00
2024-05-17 15:39:24.447672,1,0,-7,0,0,0,71,74,130,90,13,166.42,358,20.00,-2.00,-1000.00
2024-05-17 15:39:24.548002,1,0,-7,0,0,0,71,74,130,90,13,166.19,359,21.00,0.00,-995.00
2024-05-17 15:39:24.727264,1,0,-7,0,0,0,71,74,130,90,13,166.31,359,14.00,1.00,-990.00
2024-05-17 15:39:24.751354,1,0,-7,0,0,0,71,74,131,90,13,166.38,359,33.00,7.00,-998.00
2024-05-17 15:39:24.859607,1,0,-7,0,0,0,71,74,131,90,13,166.32,359,23.00,0.00,-997.00
2024-05-17 15:39:24.965694,1,0,-7,0,0,0,71,74,131,90,13,166.38,359,22.00,3.00,-998.00
2024-05-17 15:39:25.058389,1,0,-7,0,0,0,71,74,131,90,13,166.45,359,20.00,-3.00,-1001.00
2024-05-17 15:39:25.224040,1,0,-7,0,0,0,72,75,131,90,13,166.68,359,26.00,7.00,-1003.00
2024-05-17 15:39:25.261832,1,0,-7,0,0,0,72,75,131,90,13,166.47,359,18.00,-8.00,-995.00
2024-05-17 15:39:25.365859,1,0,-7,0,0,0,72,75,131,90,13,166.23,359,15.00,3.00,-1013.00
2024-05-17 15:39:25.470891,1,0,-7,0,0,0,72,75,131,90,13,166.79,359,28.00,-3.00,-1013.00
2024-05-17 15:39:25.567432,1,0,-7,0,0,0,72,75,131,90,13,166.23,360,9.00,2.00,-989.00
2024-05-17 15:39:25.742426,1,0,-7,0,0,0,72,75,131,90,13,166.34,360,22.00,-2.00,-1005.00
2024-05-17 15:39:25.771556,1,0,-7,0,0,0,72,75,131,90,13,166.16,360,23.00,0.00,-1008.00
2024-05-17 15:39:25.941877,1,0,-7,0,0,0,72,75,131,90,13,166.34,360,20.00,1.00,-992.00
2024-05-17 15:39:26.004071,1,0,-7,0,0,0,72,75,131,90,13,166.49,360,17.00,0.00,-1016.00
2024-05-17 15:39:26.026601,1,0,-7,0,0,0,72,75,131,90,13,166.69,360,33.00,-1.00,-992.00
2024-05-17 15:39:26.180447,1,0,-7,0,0,0,72,73,131,90,13,166.50,360,23.00,2.00,-1004.00
2024-05-17 15:39:26.282678,1,0,-7,0,0,0,72,73,130,90,13,166.29,360,22.00,-5.00,-998.00
2024-05-17 15:39:26.350003,1,0,-7,0,0,0,72,73,131,90,13,166.25,360,30.00,-2.00,-1008.00
2024-05-17 15:39:26.438554,1,0,-7,0,0,0,72,73,131,90,13,166.29,360,21.00,0.00,-995.00
2024-05-17 15:39:26.538981,1,0,-7,0,0,0,72,73,131,90,13,166.66,361,25.00,-1.00,-1002.00
2024-05-17 15:39:26.638804,1,0,-7,0,0,0,72,73,131,90,13,166.68,361,20.00,1.00,-1005.00
2024-05-17 15:39:26.740591,1,0,-7,0,0,0,72,73,131,90,13,166.46,361,20.00,2.00,-1006.00
2024-05-17 15:39:26.842577,1,0,-7,0,0,0,72,73,131,90,13,166.31,361,21.00,-2.00,-992.00
2024-05-17 15:39:26.969740,1,0,-7,0,0,0,72,73,131,90,13,166.37,361,17.00,3.00,-1000.00
2024-05-17 15:39:27.046721,1,0,-7,0,0,0,72,73,131,90,13,166.52,361,14.00,-4.00,-999.00
2024-05-17 15:39:27.170895,1,0,-7,0,0,0,71,73,131,90,13,166.46,361,23.00,-6.00,-995.00
2024-05-17 15:39:27.251343,1,0,-7,0,0,0,71,73,131,90,13,166.60,361,18.00,5.00,-993.00
2024-05-17 15:39:27.373406,1,0,-7,0,0,0,71,73,131,90,13,166.55,361,19.00,0.00,-990.00
2024-05-17 15:39:27.455459,1,0,-7,0,0,0,71,73,131,90,13,166.35,361,16.00,3.00,-1005.00
2024-05-17 15:39:27.558403,1,0,-7,0,0,0,71,73,131,90,13,166.36,362,17.00,0.00,-991.00
2024-05-17 15:39:27.659382,1,0,-7,0,0,0,71,73,131,90,13,166.39,362,12.00,-11.00,-1003.00
2024-05-17 15:39:27.761343,1,0,-7,0,0,0,71,73,131,90,13,166.57,362,23.00,9.00,-1012.00
2024-05-17 15:39:27.885326,0,0,-7,0,0,0,71,73,131,90,13,166.32,362,12.00,10.00,-989.00
2024-05-17 15:39:27.965787,1,0,-7,0,0,0,71,73,131,90,13,166.37,362,28.00,8.00,-1006.00
2024-05-17 15:39:28.094970,0,0,-7,0,0,0,71,73,131,90,13,166.52,362,25.00,8.00,-999.00
2024-05-17 15:39:28.170688,0,0,-7,0,0,0,71,74,131,90,12,166.69,362,13.00,0.00,-993.00
2024-05-17 15:39:28.297098,0,0,-7,0,0,0,71,74,130,90,12,166.63,362,21.00,8.00,-1007.00
