TS,pitch,roll,yaw,vgx,vgy,vgz,templ,temph,tof,h,bat,baro,time,agx,agy,agz
2024-05-19 08:09:05.207342,1,0,0,0,0,0,54,56,10,0,86,108.00,0,33.00,-7.00,-1001.00
2024-05-19 08:09:05.292933,1,0,0,0,0,0,54,56,10,0,86,108.35,0,32.00,-6.00,-1000.00
2024-05-19 08:09:05.411988,1,0,0,0,0,0,54,56,10,0,86,108.21,0,31.00,-6.00,-998.00
2024-05-19 08:09:05.497322,1,0,0,0,0,0,54,56,10,0,86,108.42,0,32.00,-6.00,-999.00
2024-05-19 08:09:05.616849,1,0,0,0,0,0,54,56,10,0,86,108.31,0,32.00,-6.00,-999.00
2024-05-19 08:09:05.701069,1,0,0,0,0,0,54,56,10,0,86,108.23,0,32.00,-6.00,-999.00
2024-05-19 08:09:05.803143,1,0,0,0,0,0,54,56,10,0,86,108.28,0,31.00,-6.00,-998.00
2024-05-19 08:09:05.924380,1,0,0,0,0,0,53,56,10,0,86,108.21,0,33.00,-5.00,-996.00
2024-05-19 08:09:06.006939,1,0,0,0,0,0,53,56,10,0,86,108.18,0,31.00,-6.00,-1000.00
2024-05-19 08:09:06.129002,1,0,0,0,0,0,53,56,10,0,86,108.02,0,32.00,-7.00,-1000.00
2024-05-19 08:09:06.210865,1,0,0,0,0,0,53,56,10,0,86,108.18,0,33.00,-6.00,-998.00
2024-05-19 08:09:06.333744,1,0,0,0,0,0,53,56,10,0,86,108.02,0,33.00,-6.00,-1000.00
2024-05-19 08:09:06.414930,1,0,0,0,0,0,53,56,10,0,86,108.39,0,32.00,-6.00,-999.00
2024-05-19 08:09:06.516981,1,0,0,0,0,0,53,56,10,0,86,108.39,0,34.00,-5.00,-1001.00
2024-05-19 08:09:06.618895,1,0,0,0,0,0,53,56,10,0,86,108.40,0,33.00,-5.00,-998.00
2024-05-19 08:09:06.743399,1,0,0,0,0,0,53,56,10,0,86,108.24,0,33.00,-5.00,-999.00
2024-05-19 08:09:06.822904,1,0,0,0,0,0,53,56,10,0,86,108.21,0,32.00,-5.00,-999.00
2024-05-19 08:09:06.924896,1,0,0,0,0,0,54,56,10,0,86,108.30,0,32.00,-6.00,-1001.00
2024-05-19 08:09:07.050563,1,0,0,0,0,0,54,56,10,0,86,108.33,0,31.00,-6.00,-1001.00
2024-05-19 08:09:07.129103,1,0,0,0,0,0,54,56,10,0,86,108.41,0,33.00,-4.00,-999.00
2024-05-19 08:09:07.255385,1,0,0,0,0,0,54,56,10,0,86,108.12,0,32.00,-7.00,-999.00
2024-05-19 08:09:07.332780,1,0,0,0,0,0,54,56,10,0,86,108.02,0,32.00,-5.00,-998.00
2024-05-19 08:09:07.460116,1,0,0,0,0,0,54,56,10,0,86,108.21,0,33.00,-5.00,-1001.00
2024-05-19 08:09:07.537261,1,0,0,0,0,0,54,56,10,0,86,108.16,0,34.00,-6.00,-998.00
2024-05-19 08:09:07.664866,1,0,0,0,0,0,54,56,10,0,86,108.20,0,32.00,-6.00,-997.00
2024-05-19 08:09:07.689833,1,0,0,0,0,0,54,56,10,0,86,108.36,0,31.00,-6.00,-1000.00
2024-05-19 08:09:07.869725,1,0,0,0,0,0,54,56,10,0,86,108.08,0,31.00,-5.00,-1000.00
2024-05-19 08:09:07.894026,1,0,0,0,0,0,54,56,10,0,86,108.31,0,31.00,-4.00,-1001.00
2024-05-19 08:09:08.074776,1,0,0,0,0,0,54,56,10,0,86,108.51,0,32.00,-6.00,-998.00
2024-05-19 08:09:08.097745,1,0,0,0,0,0,54,56,10,0,86,108.07,0,32.00,-5.00,-998.00
2024-05-19 08:09:08.279465,1,0,0,0,0,0,54,56,10,0,86,108.00,0,34.00,-6.00,-999.00
2024-05-19 08:09:08.301681,1,0,0,0,0,0,54,56,10,0,86,108.39,0,32.00,-6.00,-999.00
2024-05-19 08:09:08.403767,1,0,0,0,0,0,54,56,10,0,86,108.28,0,32.00,-5.00,-999.00
2024-05-19 08:09:08.505770,1,0,0,0,0,0,54,56,10,0,86,108.54,0,33.00,-6.00,-998.00
2024-05-19 08:09:08.687239,1,0,0,0,0,0,54,56,10,0,86,108.07,0,32.00,-7.00,-999.00
2024-05-19 08:09:08.709706,1,0,0,0,0,0,54,56,10,0,86,108.36,0,32.00,-6.00,-999.00
2024-05-19 08:09:08.895655,1,0,0,0,0,0,54,56,10,0,86,108.14,0,33.00,-5.00,-1000.00
2024-05-19 08:09:08.913863,1,0,0,0,0,0,55,57,10,0,86,108.32,0,31.00,-5.00,-998.00
2024-05-19 08:09:09.096303,1,0,0,0,0,0,55,57,10,0,86,108.42,0,33.00,-5.00,-999.00
2024-05-19 08:09:09.117750,1,0,0,0,0,0,55,57,10,0,86,108.09,0,33.00,-6.00,-1000.00
2024-05-19 08:09:09.303427,1,0,0,0,0,0,55,57,10,0,86,108.24,0,31.00,-5.00,-998.00
2024-05-19 08:09:09.321801,1,0,0,0,0,0,55,57,10,0,86,108.17,0,32.00,-6.00,-998.00
2024-05-19 08:09:09.508169,1,0,0,0,0,0,55,57,10,0,86,108.16,0,31.00,-5.00,-1000.00
2024-05-19 08:09:09.526389,1,0,0,0,0,0,55,57,10,0,86,108.18,0,33.00,-6.00,-1002.00
2024-05-19 08:09:09.712946,1,0,0,0,0,0,55,57,10,0,86,108.31,0,33.00,-6.00,-997.00
2024-05-19 08:09:09.729594,1,0,0,0,0,0,55,57,10,0,86,107.84,0,33.00,-5.00,-1000.00
2024-05-19 08:09:09.917560,1,0,0,0,0,0,55,57,10,0,86,108.25,0,33.00,-4.00,-1000.00
2024-05-19 08:09:09.933589,1,0,0,0,0,0,55,57,10,0,86,107.94,0,31.00,-5.00,-998.00
2024-05-19 08:09:10.080980,1,0,0,0,0,0,55,57,10,0,86,108.02,0,31.00,-6.00,-999.00
2024-05-19 08:09:10.137665,1,0,0,0,0,0,55,57,10,0,85,108.33,0,32.00,-5.00,-999.00
2024-05-19 08:09:10.325076,1,0,0,0,0,0,55,57,10,0,85,108.06,0,32.00,-5.00,-1000.00
2024-05-19 08:09:10.342267,1,0,0,0,0,0,55,57,10,0,85,108.21,0,32.00,-4.00,-997.00
2024-05-19 08:09:10.529847,1,0,0,0,0,0,55,57,10,0,85,108.14,0,31.00,-7.00,-999.00
2024-05-19 08:09:10.545547,1,0,0,0,0,0,55,57,10,0,85,108.23,0,31.00,-6.00,-1000.00
2024-05-19 08:09:10.737020,1,0,0,0,0,0,55,57,10,0,85,108.10,0,31.00,-4.00,-1001.00
2024-05-19 08:09:10.749583,1,0,0,0,0,0,55,57,10,0,85,108.16,0,33.00,-6.00,-1001.00
2024-05-19 08:09:10.851765,1,0,0,0,0,0,55,57,10,0,85,107.95,0,31.00,-6.00,-998.00
2024-05-19 08:09:10.953619,1,0,0,0,0,0,55,58,10,0,85,108.42,0,32.00,-3.00,-997.00
2024-05-19 08:09:11.146481,1,0,0,0,0,0,55,58,10,0,85,108.20,0,31.00,-5.00,-998.00
2024-05-19 08:09:11.157574,1,0,0,0,0,0,55,58,10,0,85,108.43,0,32.00,-6.00,-1001.00
2024-05-19 08:09:11.208593,1,0,0,0,0,0,55,58,10,0,85,108.42,0,31.00,-5.00,-998.00
2024-05-19 08:09:11.351433,1,0,0,0,0,0,55,58,10,0,85,108.13,0,33.00,-5.00,-998.00
2024-05-19 08:09:11.412489,1,0,0,0,0,0,55,58,10,0,85,107.90,0,34.00,-5.00,-999.00
2024-05-19 08:09:11.555955,1,0,0,0,0,0,55,58,10,0,85,107.97,0,31.00,-4.00,-998.00
2024-05-19 08:09:11.616567,1,0,0,0,0,0,55,58,10,0,85,108.15,0,32.00,-6.00,-998.00
2024-05-19 08:09:11.758649,1,0,0,0,0,0,55,58,10,0,85,107.83,0,32.00,-5.00,-999.00
2024-05-19 08:09:11.820523,1,0,0,0,0,0,55,58,10,0,85,107.92,0,32.00,-7.00,-999.00
2024-05-19 08:09:11.963875,1,0,0,0,0,0,55,58,10,0,85,108.11,0,32.00,-7.00,-999.00
2024-05-19 08:09:12.024559,1,0,0,0,0,0,55,58,10,0,85,107.97,0,33.00,-6.00,-999.00
2024-05-19 08:09:12.168309,1,0,0,0,0,0,55,58,10,0,85,108.06,0,31.00,-4.00,-1001.00
2024-05-19 08:09:12.228988,1,0,0,0,0,0,55,58,10,0,85,108.11,0,31.00,-6.00,-998.00
2024-05-19 08:09:12.372996,1,0,0,0,0,0,55,58,10,0,85,108.13,0,33.00,-5.00,-1000.00
2024-05-19 08:09:12.432443,1,0,0,0,0,0,55,58,10,0,85,108.09,0,30.00,-6.00,-999.00
2024-05-19 08:09:12.536959,1,0,0,0,0,0,55,58,10,0,85,108.12,0,33.00,-7.00,-999.00
2024-05-19 08:09:12.636557,1,0,0,0,0,0,55,58,10,0,85,108.14,0,32.00,-7.00,-999.00
2024-05-19 08:09:12.738702,1,0,0,0,0,0,55,58,10,0,85,108.02,0,28.00,-10.00,-992.00
2024-05-19 08:09:12.887328,1,0,0,0,0,0,55,58,10,0,85,108.02,0,31.00,-7.00,-1007.00
2024-05-19 08:09:12.942488,1,0,0,0,0,0,56,58,10,0,85,108.02,0,34.00,-2.00,-1006.00
2024-05-19 08:09:13.084256,1,0,0,0,0,0,56,58,10,0,85,108.02,0,3.00,-12.00,-997.00
2024-05-19 08:09:13.146418,0,0,0,0,0,0,56,58,10,0,85,108.02,0,18.00,0.00,-1048.00
2024-05-19 08:09:13.296872,-1,0,0,0,0,0,56,58,10,0,85,108.02,0,18.00,-5.00,-1167.00
2024-05-19 08:09:13.350402,-1,0,0,0,0,-2,56,58,19,0,85,108.02,0,12.00,-49.00,-1349.00
2024-05-19 08:09:13.501906,1,0,0,0,0,-5,56,58,19,10,85,108.02,0,-42.00,-33.00,-1212.00
2024-05-19 08:09:13.554726,2,1,0,0,0,-7,56,58,22,10,85,108.35,0,-60.00,-41.00,-1070.00
2024-05-19 08:09:13.706476,0,2,0,0,0,-8,56,58,31,20,85,108.18,0,-58.00,-33.00,-1010.00
2024-05-19 08:09:13.758676,-2,2,0,-1,0,-9,56,58,38,30,85,108.53,1,-52.00,-14.00,-952.00
2024-05-19 08:09:13.911269,-3,2,0,-1,0,-8,56,58,46,40,85,108.82,1,-46.00,-25.00,-896.00
2024-05-19 08:09:13.962396,-3,2,0,-1,0,-7,56,57,53,50,85,108.52,1,-42.00,-20.00,-888.00
2024-05-19 08:09:14.116010,-4,1,0,-1,0,-6,56,57,59,60,85,108.41,1,-43.00,-23.00,-868.00
2024-05-19 08:09:14.166719,-4,1,0,-1,0,-5,56,57,63,60,85,108.81,1,-50.00,-21.00,-863.00
2024-05-19 08:09:14.318537,-4,1,0,-1,0,-3,56,57,66,70,85,108.65,1,-51.00,-34.00,-887.00
2024-05-19 08:09:14.371145,-4,1,0,0,0,-2,56,57,68,70,85,108.63,1,-55.00,-25.00,-906.00
2024-05-19 08:09:14.472845,-4,2,0,0,0,-1,56,57,69,70,85,108.78,1,-54.00,-22.00,-937.00
2024-05-19 08:09:14.535400,-4,2,0,0,0,-1,56,57,70,70,85,109.04,1,-60.00,-15.00,-958.00
2024-05-19 08:09:14.625384,-4,1,0,0,0,0,56,57,70,70,85,108.97,1,-52.00,-15.00,-991.00
2024-05-19 08:09:14.734238,-4,1,0,0,0,0,56,57,70,70,85,108.59,2,-45.00,-11.00,-987.00
2024-05-19 08:09:14.833011,-3,0,0,0,0,0,56,57,70,70,85,108.64,2,-64.00,-20.00,-1020.00
2024-05-19 08:09:14.935325,-3,0,0,0,0,0,56,59,70,70,85,108.52,2,-51.00,-9.00,-1013.00
2024-05-19 08:09:15.033229,-3,0,0,0,0,0,56,59,71,70,85,108.98,2,-48.00,-11.00,-1018.00
2024-05-19 08:09:15.140741,-4,0,0,0,0,0,56,59,71,70,84,108.49,2,-56.00,-24.00,-1022.00
2024-05-19 08:09:15.237338,-3,0,0,0,0,0,56,59,72,70,84,108.72,2,-56.00,-23.00,-1011.00
2024-05-19 08:09:15.344922,-3,0,0,0,0,0,56,59,72,70,84,108.52,2,-56.00,-18.00,-1014.00
2024-05-19 08:09:15.441402,-3,1,0,0,0,0,56,59,73,70,84,108.76,2,-63.00,-33.00,-1006.00
2024-05-19 08:09:15.549788,-4,1,0,0,0,0,56,59,74,80,84,108.75,2,-71.00,-21.00,-993.00
2024-05-19 08:09:15.645272,-4,1,0,0,0,-1,56,59,75,80,84,108.60,2,-65.00,-18.00,-1027.00
2024-05-19 08:09:15.754510,-4,0,0,0,0,-1,56,59,76,80,84,108.78,3,-76.00,-14.00,-980.00
2024-05-19 08:09:15.849339,-5,1,0,0,0,0,56,59,77,80,84,108.49,3,-85.00,-20.00,-1002.00
2024-05-19 08:09:15.951380,-5,1,0,0,0,0,56,59,77,80,84,108.46,3,-83.00,-26.00,-1004.00
2024-05-19 08:09:16.061636,-5,1,0,0,0,0,56,59,78,80,84,108.34,3,-94.00,-17.00,-998.00
2024-05-19 08:09:16.155288,-5,1,0,0,0,0,56,59,79,80,84,108.32,3,-86.00,-16.00,-989.00
2024-05-19 08:09:16.266479,-5,1,0,0,0,0,56,59,80,80,84,108.30,3,-94.00,-13.00,-989.00
2024-05-19 08:09:16.359518,-5,0,0,0,0,0,56,59,80,80,84,108.47,3,-87.00,-7.00,-997.00
2024-05-19 08:09:16.471164,-5,0,0,0,0,0,56,59,81,80,84,108.70,3,-102.00,-10.00,-1003.00
2024-05-19 08:09:16.563254,-6,0,0,0,0,0,56,59,82,80,84,108.59,3,-101.00,-6.00,-977.00
2024-05-19 08:09:16.675994,-6,0,0,0,0,0,56,59,82,80,84,108.97,4,-97.00,-2.00,-986.00
2024-05-19 08:09:16.767273,-6,1,0,0,0,0,56,59,83,80,84,108.93,4,-97.00,17.00,-961.00
2024-05-19 08:09:16.880813,-6,0,0,0,0,0,56,59,83,80,84,108.92,4,-100.00,4.00,-987.00
2024-05-19 08:09:16.971422,-6,0,0,0,0,0,58,60,83,80,84,108.71,4,-84.00,-1.00,-986.00
2024-05-19 08:09:17.085593,-6,-1,0,0,0,0,58,60,83,80,84,108.59,4,-91.00,5.00,-981.00
2024-05-19 08:09:17.175562,-5,-1,0,0,0,0,58,60,83,80,83,108.70,4,-91.00,0.00,-1000.00
2024-05-19 08:09:17.289345,-5,0,0,0,0,0,58,60,83,80,83,108.57,4,-84.00,11.00,-989.00
2024-05-19 08:09:17.379193,-5,0,0,0,0,0,58,60,82,80,83,108.51,4,-104.00,-5.00,-1004.00
2024-05-19 08:09:17.481175,-5,0,0,0,0,0,58,60,82,80,83,108.83,4,-97.00,-9.00,-1006.00
2024-05-19 08:09:17.597785,-5,0,0,0,0,0,58,60,82,80,83,108.78,4,-109.00,-5.00,-1019.00
2024-05-19 08:09:17.685479,-5,0,0,0,0,0,58,60,82,80,83,108.62,5,-94.00,-3.00,-1023.00
2024-05-19 08:09:17.802489,-6,0,0,0,0,0,58,60,82,80,83,108.65,5,-81.00,-7.00,-973.00
2024-05-19 08:09:17.889261,-5,0,0,0,0,0,58,60,82,80,83,108.57,5,-84.00,-38.00,-1020.00
2024-05-19 08:09:17.991562,-5,0,0,0,0,0,58,59,82,80,83,108.60,5,-92.00,-34.00,-1012.00
2024-05-19 08:09:18.109943,-5,1,0,0,0,0,58,59,82,80,83,108.70,5,-88.00,-38.00,-991.00
2024-05-19 08:09:18.195235,-5,1,0,0,0,0,58,59,82,80,83,108.66,5,-59.00,-31.00,-988.00
2024-05-19 08:09:18.314715,-5,1,0,0,0,0,58,59,82,80,83,108.87,5,-53.00,-38.00,-984.00
2024-05-19 08:09:18.399391,-4,2,0,1,0,0,58,59,82,80,83,108.83,5,-55.00,-32.00,-1020.00
2024-05-19 08:09:18.450598,-3,2,0,1,0,0,58,59,81,80,83,108.79,5,-53.00,-39.00,-1000.00
2024-05-19 08:09:18.619999,-3,2,0,1,0,0,58,59,81,80,83,109.08,5,-45.00,-35.00,-1006.00
2024-05-19 08:09:18.654177,-3,3,0,1,0,0,58,59,81,80,83,109.05,6,-47.00,-19.00,-998.00
2024-05-19 08:09:18.826540,-2,2,-1,1,0,0,58,59,81,80,83,108.50,6,-57.00,-37.00,-998.00
2024-05-19 08:09:18.858431,-2,2,0,0,0,0,58,59,81,80,83,108.94,6,-54.00,-36.00,-1001.00
2024-05-19 08:09:19.029328,-3,2,0,0,0,0,58,61,80,80,83,108.71,6,-45.00,-37.00,-992.00
2024-05-19 08:09:19.062054,-3,2,0,1,0,0,58,61,80,80,83,108.84,6,-44.00,-25.00,-1000.00
2024-05-19 08:09:19.164235,-2,2,0,1,0,0,58,61,80,80,82,108.80,6,-52.00,-18.00,-1001.00
2024-05-19 08:09:19.338557,-2,1,0,0,0,0,58,61,80,80,82,108.74,6,-54.00,-16.00,-1003.00
2024-05-19 08:09:19.368111,-2,1,0,0,0,0,58,61,80,80,82,108.53,6,-49.00,-5.00,-1012.00
2024-05-19 08:09:19.543506,-2,1,0,0,0,0,58,61,80,80,82,108.86,6,-59.00,20.00,-1006.00
2024-05-19 08:09:19.572084,-2,1,0,0,0,0,58,61,80,80,82,108.88,6,-62.00,11.00,-1013.00
2024-05-19 08:09:19.675751,-3,0,0,0,0,0,58,61,81,80,82,108.77,7,-52.00,0.00,-997.00
2024-05-19 08:09:19.776413,-3,0,0,0,0,0,58,61,81,80,82,108.94,7,-57.00,-11.00,-1069.00
2024-05-19 08:09:19.880064,-3,0,0,0,0,-1,58,61,82,80,82,108.73,7,-56.00,-7.00,-1095.00
2024-05-19 08:09:19.979939,-3,0,0,0,0,-2,58,60,85,80,82,108.70,7,-50.00,-7.00,-1117.00
2024-05-19 08:09:20.155288,-3,0,0,0,0,-3,58,60,88,90,82,108.79,7,-43.00,-1.00,-1074.00
2024-05-19 08:09:20.183952,-2,0,0,0,0,-4,58,60,92,90,82,108.83,7,-48.00,-7.00,-1074.00
2024-05-19 08:09:20.360590,-2,0,0,0,0,-4,58,60,97,90,82,109.00,7,-42.00,-13.00,-1058.00
2024-05-19 08:09:20.387917,-2,0,0,0,0,-5,58,60,102,100,82,109.15,7,-53.00,-5.00,-1038.00
2024-05-19 08:09:20.489991,-2,0,0,0,0,-5,58,60,108,110,82,109.01,7,-44.00,-1.00,-1015.00
2024-05-19 08:09:20.667268,-2,0,0,0,0,-5,58,60,114,110,82,109.04,7,-49.00,-9.00,-1009.00
2024-05-19 08:09:20.694352,-2,0,0,0,0,-5,58,60,120,120,82,109.26,8,-42.00,-2.00,-992.00
2024-05-19 08:09:20.875218,-2,0,0,0,0,-5,58,60,126,120,82,108.93,8,-40.00,4.00,-984.00
2024-05-19 08:09:20.897910,-2,0,0,0,0,-5,58,60,131,130,82,109.15,8,-43.00,-1.00,-981.00
2024-05-19 08:09:20.999978,-2,0,0,0,0,-5,58,61,137,130,82,109.12,8,-44.00,1.00,-964.00
2024-05-19 08:09:21.181511,-2,0,0,0,0,-5,58,61,142,140,82,109.00,8,-51.00,3.00,-969.00
2024-05-19 08:09:21.203978,-2,0,0,0,0,-4,58,61,147,140,81,109.38,8,-54.00,-2.00,-962.00
2024-05-19 08:09:21.386323,-3,0,0,0,0,-4,58,61,152,150,81,109.32,8,-58.00,4.00,-960.00
2024-05-19 08:09:21.407895,-3,0,0,0,0,-4,58,61,156,150,81,109.36,8,-64.00,5.00,-960.00
2024-05-19 08:09:21.588854,-3,0,0,0,0,-3,58,61,160,160,81,109.42,8,-52.00,-8.00,-967.00
2024-05-19 08:09:21.612193,-3,0,0,0,0,-3,58,61,163,160,81,109.22,8,-60.00,-2.00,-955.00
2024-05-19 08:09:21.714141,-3,0,0,0,0,-2,58,61,166,160,81,109.57,9,-70.00,-10.00,-964.00
2024-05-19 08:09:21.898416,-3,0,0,0,0,-2,58,61,168,170,81,109.60,9,-79.00,-4.00,-967.00
2024-05-19 08:09:21.917815,-4,0,0,0,0,-2,58,61,171,170,81,109.30,9,-59.00,-7.00,-950.00
2024-05-19 08:09:22.093593,-4,0,0,0,0,-1,59,61,173,170,81,109.36,9,-62.00,-12.00,-963.00
2024-05-19 08:09:22.121917,-4,0,0,0,0,-1,59,61,174,170,81,109.33,9,-74.00,-9.00,-976.00
2024-05-19 08:09:22.226575,-4,1,0,0,0,-1,59,61,176,170,81,109.59,9,-77.00,-14.00,-957.00
2024-05-19 08:09:22.326628,-4,1,0,0,0,-1,59,61,176,180,81,109.33,9,-57.00,-7.00,-942.00
2024-05-19 08:09:22.512982,-4,1,0,0,0,0,59,61,178,180,81,109.51,9,-65.00,-19.00,-976.00
2024-05-19 08:09:22.529929,-4,0,0,0,0,0,59,61,177,180,81,109.52,9,-84.00,-18.00,-991.00
2024-05-19 08:09:22.717638,-4,0,0,0,0,0,59,61,177,180,81,109.30,9,-98.00,1.00,-958.00
2024-05-19 08:09:22.717703,-5,0,0,0,0,0,59,61,176,180,81,109.09,10,-69.00,2.00,-977.00
2024-05-19 08:09:22.784995,-5,0,0,0,0,0,59,61,178,180,81,109.78,10,-74.00,20.00,-984.00
2024-05-19 08:09:22.886845,-5,0,0,0,0,0,59,61,177,180,81,109.39,10,-93.00,-10.00,-1016.00
2024-05-19 08:09:22.988885,-5,0,0,0,0,0,59,62,177,180,81,109.38,10,-78.00,-22.00,-1012.00
2024-05-19 08:09:23.091306,-5,0,0,0,0,0,59,62,176,180,80,109.46,10,-81.00,-28.00,-1020.00
2024-05-19 08:09:23.229908,-5,0,0,0,0,0,59,62,176,180,80,109.53,10,-71.00,-30.00,-1008.00
2024-05-19 08:09:23.295017,-5,1,0,0,0,0,59,62,176,180,80,109.62,10,-79.00,-35.00,-1005.00
2024-05-19 08:09:23.434542,-5,1,0,0,0,0,59,62,177,180,80,109.37,10,-54.00,-35.00,-993.00
2024-05-19 08:09:23.498899,-5,1,0,0,0,0,59,62,177,180,80,109.50,10,-45.00,-35.00,-1001.00
2024-05-19 08:09:23.638150,-4,2,0,0,0,0,59,62,176,180,80,109.65,10,-48.00,-40.00,-999.00
2024-05-19 08:09:23.702907,-3,2,0,1,0,0,59,62,177,180,80,109.61,11,-39.00,-41.00,-1006.00
2024-05-19 08:09:23.842440,-3,2,0,0,0,0,59,62,179,180,80,109.73,11,-51.00,-40.00,-994.00
2024-05-19 08:09:23.906802,-3,2,0,0,0,0,59,62,179,180,80,109.69,11,-51.00,-35.00,-1001.00
2024-05-19 08:09:24.008877,-3,2,0,0,0,0,59,62,177,180,80,109.69,11,-49.00,-23.00,-986.00
2024-05-19 08:09:24.150969,-3,2,0,0,0,0,59,62,179,180,80,109.60,11,-52.00,-27.00,-988.00
2024-05-19 08:09:24.213365,-3,2,0,0,0,0,59,62,180,180,80,109.72,11,-46.00,-23.00,-985.00
2024-05-19 08:09:24.314802,-2,1,0,0,0,0,59,62,180,180,80,109.73,11,-49.00,-19.00,-993.00
2024-05-19 08:09:24.458326,-2,1,0,0,0,0,59,62,180,180,80,109.63,11,-45.00,-17.00,-955.00
2024-05-19 08:09:24.518778,-2,1,0,0,0,0,59,62,179,180,80,109.63,11,-51.00,-22.00,-946.00
2024-05-19 08:09:24.663422,-2,1,0,0,0,0,59,62,178,180,80,109.57,11,-53.00,-24.00,-950.00
2024-05-19 08:09:24.722766,-2,1,0,0,0,1,59,62,176,180,80,109.26,12,-44.00,-33.00,-946.00
2024-05-19 08:09:24.867908,-2,1,0,0,0,1,59,62,175,180,80,109.88,12,-29.00,-45.00,-959.00
2024-05-19 08:09:24.927310,-2,1,0,0,0,2,59,62,172,170,80,109.71,12,-29.00,-38.00,-967.00
2024-05-19 08:09:25.072775,-2,2,0,0,0,2,59,62,169,170,80,109.67,12,-27.00,-36.00,-982.00
2024-05-19 08:09:25.132080,-2,2,0,0,0,2,59,62,168,170,79,109.62,12,-41.00,-18.00,-983.00
2024-05-19 08:09:25.277483,-2,1,0,0,0,2,59,62,164,170,79,109.58,12,-42.00,-15.00,-1013.00
2024-05-19 08:09:25.336686,-2,1,0,0,0,2,59,62,161,160,79,109.63,12,-36.00,0.00,-1000.00
2024-05-19 08:09:25.482590,-2,1,0,0,0,3,59,62,159,160,79,109.61,12,-43.00,-18.00,-1023.00
2024-05-19 08:09:25.539718,-2,0,0,0,0,2,59,62,156,160,79,109.36,12,-43.00,-7.00,-1016.00
2024-05-19 08:09:25.687142,-2,0,0,0,0,2,59,62,153,150,79,109.39,12,-35.00,3.00,-982.00
2024-05-19 08:09:25.743669,-2,0,-1,0,0,2,59,62,150,150,79,109.11,13,-30.00,-30.00,-1002.00
2024-05-19 08:09:25.889538,-2,0,-1,0,0,2,59,62,148,150,79,109.53,13,-24.00,-13.00,-1001.00
2024-05-19 08:09:25.947857,-2,0,0,0,0,2,59,62,145,150,79,109.32,13,-28.00,-16.00,-1007.00
2024-05-19 08:09:26.094395,-1,0,0,0,0,2,60,62,143,140,79,109.20,13,-33.00,-19.00,-1018.00
2024-05-19 08:09:26.151657,-1,0,0,0,0,2,60,62,141,140,79,109.38,13,-27.00,-14.00,-1025.00
2024-05-19 08:09:26.301713,-2,0,0,0,0,1,60,62,139,140,79,109.32,13,-36.00,-10.00,-999.00
2024-05-19 08:09:26.355691,-1,0,0,0,0,1,60,62,137,140,79,109.30,13,-13.00,-32.00,-1016.00
2024-05-19 08:09:26.406661,-1,0,0,0,0,1,60,62,136,140,79,109.61,13,-15.00,-29.00,-1010.00
2024-05-19 08:09:26.508669,-1,1,-1,0,0,1,60,62,135,140,79,109.39,13,-4.00,-45.00,-984.00
2024-05-19 08:09:26.612240,0,0,-1,0,0,1,60,62,134,130,79,109.63,13,-4.00,-45.00,-1010.00
2024-05-19 08:09:26.712837,0,1,-1,0,0,1,60,62,132,130,79,109.62,14,-4.00,-45.00,-1022.00
2024-05-19 08:09:26.913658,0,1,0,0,0,0,60,62,132,130,79,109.50,14,-11.00,-51.00,-1021.00
2024-05-19 08:09:26.918633,0,2,0,0,0,0,60,62,130,130,79,109.71,14,4.00,-85.00,-1050.00
2024-05-19 08:09:27.018804,0,3,0,0,0,0,60,62,130,130,79,109.48,14,-17.00,-67.00,-1057.00
2024-05-19 08:09:27.120845,-1,3,0,0,-1,0,60,62,130,130,78,109.63,14,-15.00,-59.00,-996.00
2024-05-19 08:09:27.223221,0,3,0,0,-1,0,60,62,131,130,78,109.59,14,-8.00,-78.00,-1018.00
2024-05-19 08:09:27.325591,0,4,0,0,-1,0,60,62,130,130,78,109.24,14,-20.00,-57.00,-1002.00
2024-05-19 08:09:27.429580,0,5,0,0,0,0,60,62,132,130,78,109.39,14,-23.00,-47.00,-996.00
2024-05-19 08:09:27.530391,0,4,0,0,0,0,60,62,131,130,78,109.37,14,-37.00,-38.00,-984.00
2024-05-19 08:09:27.633281,-1,3,0,0,0,0,60,62,132,130,78,109.59,14,-17.00,-59.00,-993.00
2024-05-19 08:09:27.736924,-2,2,0,0,0,0,60,62,133,130,78,109.40,15,-15.00,-45.00,-994.00
2024-05-19 08:09:27.834994,-2,3,0,0,0,0,60,62,132,130,78,109.73,15,-17.00,-38.00,-989.00
2024-05-19 08:09:27.937888,-1,3,0,0,0,0,60,62,133,130,78,109.52,15,-22.00,-29.00,-1000.00
2024-05-19 08:09:28.039851,0,3,0,0,0,0,60,62,133,130,78,109.35,15,-21.00,-19.00,-1013.00
2024-05-19 08:09:28.140754,0,2,0,0,0,0,60,62,133,130,78,109.01,15,-48.00,-30.00,-991.00
2024-05-19 08:09:28.247576,-1,1,0,0,0,0,60,62,134,130,78,109.09,15,-41.00,-44.00,-1014.00
2024-05-19 08:09:28.344682,-2,1,0,0,0,0,60,62,133,130,78,108.89,15,-50.00,-9.00,-963.00
2024-05-19 08:09:28.449675,-3,2,0,0,0,0,60,62,133,130,78,109.30,15,-52.00,-15.00,-987.00
2024-05-19 08:09:28.548575,-3,1,0,0,0,0,60,62,133,130,78,109.09,15,-54.00,-4.00,-1005.00
2024-05-19 08:09:28.650653,-3,0,0,0,1,0,60,62,133,130,78,109.11,15,-70.00,20.00,-977.00
2024-05-19 08:09:28.759210,-4,0,0,0,1,0,60,62,132,130,78,109.07,16,-39.00,42.00,-983.00
2024-05-19 08:09:28.854417,-8,0,0,0,1,0,60,62,133,130,78,108.90,16,-38.00,35.00,-1006.00
2024-05-19 08:09:28.961637,-8,-1,0,0,2,0,60,62,133,130,78,109.05,16,-52.00,45.00,-1026.00
2024-05-19 08:09:29.058543,-8,-2,0,1,2,0,61,62,133,130,78,109.17,16,-48.00,44.00,-1000.00
2024-05-19 08:09:29.168724,-8,-3,0,2,2,0,61,62,133,130,77,108.97,16,-69.00,32.00,-1021.00
2024-05-19 08:09:29.262430,-7,-3,0,3,2,0,61,62,132,130,77,109.00,16,-83.00,19.00,-1006.00
2024-05-19 08:09:29.371072,-8,-3,0,3,1,0,61,62,133,130,77,109.15,16,-90.00,29.00,-1005.00
2024-05-19 08:09:29.466409,-8,-2,0,3,1,0,61,62,132,130,77,109.45,16,-98.00,56.00,-945.00
2024-05-19 08:09:29.575954,-8,-2,0,4,1,0,61,62,132,130,77,109.43,16,-140.00,57.00,-996.00
2024-05-19 08:09:29.670740,-7,-2,0,4,1,0,61,62,131,130,77,109.11,16,-140.00,62.00,-974.00
2024-05-19 08:09:29.783920,-7,-3,0,4,2,0,61,62,130,130,77,109.46,17,-162.00,76.00,-980.00
2024-05-19 08:09:29.901182,-7,-4,0,3,2,0,61,62,130,130,77,109.47,17,-152.00,67.00,-983.00
2024-05-19 08:09:29.925535,-7,-4,0,3,2,0,61,62,131,130,77,109.47,17,-151.00,68.00,-992.00
2024-05-19 08:09:30.045297,-6,-5,0,3,2,0,61,63,130,130,77,109.43,17,-151.00,76.00,-988.00
2024-05-19 08:09:30.192852,-7,-5,0,2,1,0,61,63,130,130,77,108.92,17,-144.00,68.00,-988.00
2024-05-19 08:09:30.337941,-6,-5,0,2,1,0,61,63,129,130,77,109.28,17,-140.00,72.00,-962.00
2024-05-19 08:09:30.338120,-6,-6,0,2,1,0,61,63,129,130,77,109.43,17,-150.00,89.00,-984.00
2024-05-19 08:09:30.511315,-5,-6,0,1,1,0,61,63,129,130,77,109.34,17,-154.00,97.00,-978.00
2024-05-19 08:09:30.646353,-5,-6,0,1,1,0,61,63,129,130,77,109.17,17,-137.00,102.00,-1013.00
2024-05-19 08:09:30.646523,-5,-6,0,0,1,0,61,63,128,130,77,109.05,17,-128.00,111.00,-969.00
2024-05-19 08:09:30.818235,-5,-6,0,0,1,0,61,63,128,130,77,109.47,18,-134.00,106.00,-984.00
2024-05-19 08:09:30.843471,-5,-6,0,0,1,0,61,63,128,130,77,109.34,18,-112.00,94.00,-1013.00
2024-05-19 08:09:30.965721,-6,-6,0,0,1,0,61,63,128,130,77,109.31,18,-114.00,105.00,-946.00
2024-05-19 08:09:31.114891,-5,-6,0,0,1,0,60,63,128,130,77,109.20,18,-123.00,127.00,-999.00
2024-05-19 08:09:31.267844,-5,-6,0,0,2,0,60,63,128,130,76,108.93,18,-120.00,119.00,-1030.00
2024-05-19 08:09:31.267911,-5,-6,0,0,2,0,60,63,128,130,76,109.02,18,-96.00,125.00,-983.00
2024-05-19 08:09:31.353369,-6,-6,0,0,2,0,60,63,129,130,76,109.31,18,-91.00,134.00,-943.00
2024-05-19 08:09:31.484965,-5,-6,0,0,2,0,60,63,129,130,76,109.36,18,-115.00,136.00,-969.00
2024-05-19 08:09:31.557256,-5,-6,0,0,2,0,60,63,129,130,76,109.18,18,-100.00,126.00,-1006.00
2024-05-19 08:09:31.737830,-5,-6,0,0,3,0,60,63,129,130,76,109.11,19,-101.00,124.00,-987.00
2024-05-19 08:09:31.761595,-5,-7,0,-1,3,0,60,63,129,130,76,109.54,19,-91.00,113.00,-997.00
2024-05-19 08:09:31.880610,-5,-7,0,-1,3,0,60,63,130,130,76,109.32,19,-58.00,126.00,-979.00
2024-05-19 08:09:32.045192,-5,-7,0,0,3,0,60,63,130,130,76,109.14,19,-51.00,142.00,-973.00
2024-05-19 08:09:32.067328,-5,-7,0,0,3,0,61,64,130,130,76,109.36,19,-41.00,135.00,-1005.00
2024-05-19 08:09:32.187773,-4,-7,0,0,3,0,61,64,130,130,76,109.35,19,-42.00,131.00,-973.00
2024-05-19 08:09:32.352431,-3,-7,0,0,3,0,61,64,131,130,76,109.25,19,-57.00,139.00,-997.00
2024-05-19 08:09:32.373382,-3,-8,0,0,3,0,61,64,130,130,76,109.34,19,-54.00,135.00,-986.00
2024-05-19 08:09:32.495654,-3,-8,0,0,3,0,61,64,132,130,76,109.32,19,-62.00,127.00,-992.00
2024-05-19 08:09:32.659667,-3,-8,0,0,3,0,61,64,132,130,76,109.15,19,-83.00,115.00,-980.00
2024-05-19 08:09:32.680435,-4,-8,0,0,3,0,61,64,133,130,76,109.01,20,-70.00,121.00,-984.00
2024-05-19 08:09:32.816520,-4,-8,0,0,3,0,61,64,132,130,76,109.14,20,-55.00,111.00,-968.00
2024-05-19 08:09:32.889873,-4,-8,0,0,3,0,61,64,132,130,76,108.98,20,-54.00,108.00,-981.00
2024-05-19 08:09:32.985341,-4,-8,0,0,2,0,61,64,132,130,76,109.02,20,-44.00,103.00,-1003.00
2024-05-19 08:09:33.162468,-3,-8,0,0,2,0,62,64,131,130,76,109.04,20,-40.00,112.00,-1015.00
2024-05-19 08:09:33.189289,-3,-8,0,0,2,0,62,64,132,130,75,108.87,20,-48.00,96.00,-1002.00
2024-05-19 08:09:33.367361,-3,-8,0,0,2,0,62,64,132,130,75,109.20,20,-55.00,98.00,-997.00
2024-05-19 08:09:33.393704,-4,-8,0,0,1,0,62,64,133,130,75,109.01,20,-49.00,99.00,-967.00
2024-05-19 08:09:33.569665,-3,-8,0,0,1,0,62,64,133,130,75,109.16,20,-49.00,97.00,-999.00
2024-05-19 08:09:33.597274,-4,-8,0,0,1,0,62,64,134,130,75,109.32,20,-61.00,101.00,-997.00
2024-05-19 08:09:33.774340,-4,-7,0,0,0,0,62,64,134,130,75,109.26,21,-64.00,104.00,-973.00
2024-05-19 08:09:33.776833,-3,-7,0,0,0,0,62,64,134,130,75,109.11,21,-66.00,96.00,-992.00
2024-05-19 08:09:33.852141,-4,-7,0,0,0,0,62,64,134,130,75,109.42,21,-69.00,96.00,-1005.00
2024-05-19 08:09:33.979009,-5,-7,0,0,0,0,62,64,134,130,75,109.13,21,-78.00,97.00,-1002.00
2024-05-19 08:09:34.107239,-4,-7,0,0,0,0,61,65,135,130,75,109.45,21,-64.00,92.00,-1006.00
2024-05-19 08:09:34.286226,-5,-6,0,0,0,0,61,65,136,130,75,109.35,21,-56.00,104.00,-984.00
2024-05-19 08:09:34.311087,-5,-6,0,0,0,0,61,65,135,130,75,109.16,21,-43.00,111.00,-999.00
2024-05-19 08:09:34.362189,-5,-7,0,0,0,0,61,65,137,130,75,109.25,21,-21.00,116.00,-959.00
2024-05-19 08:09:34.493392,-4,-7,0,1,0,0,61,65,137,130,75,109.23,21,-30.00,117.00,-973.00
2024-05-19 08:09:34.566108,-3,-8,0,1,0,0,61,65,136,130,75,109.34,21,-22.00,108.00,-999.00
2024-05-19 08:09:34.695821,-2,-8,0,1,-1,0,61,65,136,130,75,109.19,22,-17.00,117.00,-1003.00
2024-05-19 08:09:34.770400,-2,-8,0,1,-1,0,61,65,136,130,75,108.91,22,-67.00,107.00,-1012.00
2024-05-19 08:09:34.900615,-3,-7,0,1,-1,0,61,65,136,130,75,109.06,22,-39.00,116.00,-993.00
2024-05-19 08:09:34.974380,-2,-6,0,1,-1,0,61,65,135,130,75,109.05,22,-53.00,112.00,-1000.00
2024-05-19 08:09:35.105413,-3,-6,0,1,-1,0,62,65,135,130,75,109.20,22,-34.00,109.00,-993.00
2024-05-19 08:09:35.178146,-3,-6,0,1,-1,0,62,65,134,130,74,109.38,22,-41.00,112.00,-984.00
2024-05-19 08:09:35.310235,-2,-6,0,1,-1,0,62,65,135,130,74,109.57,22,-38.00,104.00,-990.00
2024-05-19 08:09:35.382049,-2,-6,0,1,-1,0,62,65,135,130,74,109.25,22,-36.00,91.00,-1009.00
2024-05-19 08:09:35.515019,-3,-5,0,1,-2,0,62,65,135,130,74,109.19,22,-15.00,100.00,-986.00
2024-05-19 08:09:35.586030,-2,-6,0,2,-2,0,62,65,135,130,74,109.14,22,-18.00,87.00,-993.00
2024-05-19 08:09:35.719784,-1,-5,0,2,-2,0,62,65,134,130,74,109.23,23,-19.00,113.00,-977.00
2024-05-19 08:09:35.790476,-1,-6,0,2,-2,0,62,65,134,130,74,109.16,23,-6.00,105.00,-989.00
2024-05-19 08:09:35.892223,-1,-6,0,2,-2,0,62,65,133,130,74,109.16,23,-16.00,98.00,-990.00
2024-05-19 08:09:36.030122,-1,-5,0,2,-2,0,62,65,133,130,74,109.25,23,-12.00,98.00,-985.00
2024-05-19 08:09:36.096380,0,-5,0,2,-2,0,62,64,132,130,74,109.18,23,-36.00,93.00,-999.00
2024-05-19 08:09:36.231850,0,-6,0,1,-2,0,62,64,132,130,74,109.12,23,-26.00,75.00,-1033.00
2024-05-19 08:09:36.300028,-1,-5,0,1,-2,0,62,64,131,130,74,109.07,23,-30.00,68.00,-1017.00
2024-05-19 08:09:36.402136,-1,-3,0,1,-3,0,62,64,131,130,74,109.01,23,-29.00,64.00,-987.00
2024-05-19 08:09:36.504006,-1,-3,0,1,-3,0,62,64,131,130,74,109.19,23,-41.00,45.00,-1001.00
2024-05-19 08:09:36.641438,-1,-3,0,1,-3,0,62,64,132,130,74,109.19,23,-45.00,44.00,-990.00
2024-05-19 08:09:36.708011,-2,-3,0,1,-3,0,62,64,132,130,74,108.98,24,-60.00,68.00,-1007.00
2024-05-19 08:09:36.846251,-2,-3,0,0,-3,0,62,64,132,130,74,108.97,24,-73.00,62.00,-984.00
2024-05-19 08:09:36.911937,-3,-3,0,0,-3,0,62,64,132,130,74,109.52,24,-75.00,46.00,-1004.00
2024-05-19 08:09:37.015055,-4,-2,0,0,-3,0,62,64,133,130,74,109.19,24,-84.00,83.00,-988.00
2024-05-19 08:09:37.155992,-3,-2,0,0,-3,0,63,64,132,130,73,109.10,24,-72.00,47.00,-996.00
2024-05-19 08:09:37.219089,-4,-3,0,0,-3,0,63,64,134,130,73,109.23,24,-93.00,69.00,-985.00
2024-05-19 08:09:37.358257,-5,-2,0,0,-3,0,63,64,134,130,73,109.36,24,-97.00,49.00,-964.00
2024-05-19 08:09:37.423072,-6,-3,0,0,-3,0,63,64,135,130,73,109.48,24,-76.00,53.00,-989.00
2024-05-19 08:09:37.563143,-6,-2,0,0,-3,0,63,64,135,130,73,109.21,24,-75.00,56.00,-1004.00
2024-05-19 08:09:37.627988,-6,-2,0,0,-2,0,63,64,134,130,73,109.30,24,-77.00,47.00,-997.00
2024-05-19 08:09:37.767914,-5,-2,0,0,-2,0,63,64,134,130,73,109.59,25,-70.00,68.00,-967.00
2024-05-19 08:09:37.831012,-5,-2,0,0,-2,0,63,64,134,130,73,109.18,25,-62.00,59.00,-1008.00
2024-05-19 08:09:37.882155,-5,-3,0,0,-2,0,63,64,135,130,73,109.36,25,-63.00,59.00,-995.00
2024-05-19 08:09:38.077684,-5,-3,0,1,-2,0,63,64,134,130,73,109.27,25,-63.00,52.00,-996.00
2024-05-19 08:09:38.087282,-5,-3,0,1,-2,0,62,65,133,130,73,109.43,25,-62.00,66.00,-988.00
2024-05-19 08:09:38.279912,-4,-2,0,1,-2,0,62,65,133,130,73,109.21,25,-54.00,59.00,-995.00
2024-05-19 08:09:38.290227,-4,-2,0,1,-2,0,62,65,133,130,73,109.41,25,-65.00,60.00,-1018.00
2024-05-19 08:09:38.484725,-3,-3,0,1,-2,0,62,65,132,130,73,109.33,25,-59.00,57.00,-1014.00
2024-05-19 08:09:38.494039,-4,-3,0,1,-2,0,62,65,132,130,73,109.31,25,-60.00,52.00,-1000.00
2024-05-19 08:09:38.689449,-4,-3,0,1,-2,0,62,65,132,130,73,109.41,25,-67.00,45.00,-978.00
2024-05-19 08:09:38.698102,-4,-2,0,1,-2,0,62,65,132,130,73,109.32,26,-53.00,53.00,-993.00
2024-05-19 08:09:38.894268,-3,-3,0,1,-2,0,62,65,132,130,73,109.25,26,-69.00,41.00,-982.00
2024-05-19 08:09:38.903431,-3,-3,0,1,-2,0,62,65,132,130,73,109.41,26,-73.00,49.00,-1009.00
2024-05-19 08:09:39.004921,-4,-3,0,1,-2,0,62,65,132,130,73,109.36,26,-63.00,50.00,-991.00
2024-05-19 08:09:39.201511,-4,-2,0,1,-2,0,62,65,131,130,72,109.52,26,-47.00,67.00,-982.00
2024-05-19 08:09:39.208686,-4,-1,0,1,-2,0,62,65,131,130,72,109.46,26,-37.00,57.00,-1006.00
2024-05-19 08:09:39.406313,-3,-2,0,2,-1,0,62,65,131,130,72,109.25,26,-47.00,53.00,-1009.00
2024-05-19 08:09:39.411818,-2,-3,0,2,-2,0,62,65,130,130,72,109.29,26,-74.00,54.00,-1021.00
2024-05-19 08:09:39.611182,-2,-3,0,1,-2,0,62,65,131,130,72,109.55,26,-81.00,57.00,-1027.00
2024-05-19 08:09:39.615958,-3,-3,0,1,-2,0,62,65,131,130,72,109.43,26,-83.00,65.00,-980.00
2024-05-19 08:09:39.815809,-5,-3,0,1,-1,0,62,65,131,130,72,109.08,27,-90.00,57.00,-981.00
2024-05-19 08:09:39.819756,-5,-2,0,1,-1,0,62,65,131,130,72,109.26,27,-94.00,61.00,-1021.00
2024-05-19 08:09:40.020661,-5,-2,0,1,-1,0,62,65,131,130,72,109.37,27,-83.00,68.00,-976.00
2024-05-19 08:09:40.024333,-5,-3,0,1,-1,0,62,65,132,130,72,109.33,27,-87.00,72.00,-977.00
2024-05-19 08:09:40.125775,-5,-4,0,1,-1,0,63,65,131,130,72,109.49,27,-86.00,66.00,-989.00
2024-05-19 08:09:40.227875,-5,-3,0,1,-1,0,63,65,132,130,72,109.22,27,-97.00,70.00,-969.00
2024-05-19 08:09:40.331361,-5,0,0,1,0,0,63,65,131,130,72,109.51,27,-68.00,69.00,-983.00
2024-05-19 08:09:40.432723,-1,-2,0,1,0,0,63,65,130,130,72,109.66,27,-86.00,70.00,-1030.00
2024-05-19 08:09:40.535089,-1,-2,0,0,0,0,63,65,130,130,72,109.32,27,-60.00,77.00,-979.00
2024-05-19 08:09:40.637912,-3,-3,0,0,0,0,63,65,130,130,72,109.37,27,-76.00,73.00,-962.00
2024-05-19 08:09:40.740001,-4,-4,0,0,0,0,63,65,131,130,72,109.10,28,-76.00,46.00,-1007.00
2024-05-19 08:09:40.839876,-3,-4,0,0,0,0,63,65,130,130,72,109.24,28,-72.00,56.00,-1000.00
2024-05-19 08:09:40.942279,-3,-3,0,0,0,0,63,65,130,130,72,109.25,28,-52.00,64.00,-991.00
2024-05-19 08:09:41.044267,-3,-2,0,0,0,0,63,65,130,130,72,109.18,28,-62.00,65.00,-1005.00
2024-05-19 08:09:41.147398,-3,-3,0,0,0,0,62,65,129,130,71,109.47,28,-56.00,56.00,-1016.00
2024-05-19 08:09:41.249266,-3,-4,0,0,0,0,62,65,130,130,71,109.35,28,-65.00,66.00,-1014.00
2024-05-19 08:09:41.350024,-3,-5,0,0,0,0,62,65,129,130,71,109.25,28,-82.00,51.00,-996.00
2024-05-19 08:09:41.451826,-3,-4,0,0,0,0,62,65,129,130,71,109.05,28,-69.00,55.00,-986.00
2024-05-19 08:09:41.556620,-4,-3,0,0,0,0,62,65,130,130,71,109.26,28,-47.00,62.00,-980.00
2024-05-19 08:09:41.655893,-4,-2,0,0,0,0,62,65,130,130,71,109.38,28,-33.00,72.00,-974.00
2024-05-19 08:09:41.706805,-3,-3,0,0,0,0,62,65,129,130,71,109.09,29,-61.00,67.00,-999.00
2024-05-19 08:09:41.863876,-2,-4,0,0,0,0,62,65,130,130,71,109.15,29,-35.00,55.00,-1002.00
2024-05-19 08:09:41.910770,-3,-4,0,0,0,0,62,65,130,130,71,109.50,29,-5.00,83.00,-976.00
2024-05-19 08:09:42.071425,-3,-3,0,0,0,0,62,65,129,130,71,109.47,29,-3.00,92.00,-975.00
2024-05-19 08:09:42.114778,-2,-3,0,0,0,0,64,65,130,130,71,109.61,29,-8.00,83.00,-1004.00
2024-05-19 08:09:42.273310,-1,-4,0,1,0,0,64,65,128,130,71,109.27,29,1.00,86.00,-1000.00
2024-05-19 08:09:42.318722,0,-5,0,1,0,0,64,65,128,130,71,109.28,29,1.00,89.00,-999.00
2024-05-19 08:09:42.478212,0,-5,0,1,0,0,64,65,128,130,71,109.12,29,13.00,92.00,-1004.00
2024-05-19 08:09:42.522740,0,-5,0,1,0,0,64,65,129,130,71,109.45,29,-8.00,88.00,-983.00
2024-05-19 08:09:42.624768,1,-5,0,1,0,0,64,65,128,130,71,109.40,29,-2.00,75.00,-1004.00
2024-05-19 08:09:42.785442,1,-5,0,0,0,0,64,65,129,130,71,109.22,30,-6.00,69.00,-999.00
2024-05-19 08:09:42.828742,5,-4,0,0,0,0,64,65,129,130,71,109.51,30,-5.00,65.00,-1001.00
2024-05-19 08:09:42.990222,7,-4,0,0,0,0,64,65,130,130,71,109.65,30,5.00,64.00,-1014.00
2024-05-19 08:09:43.033150,7,-4,0,-2,0,0,64,65,129,130,71,109.41,30,28.00,63.00,-988.00
2024-05-19 08:09:43.195036,7,-4,0,-3,0,0,63,65,130,130,70,109.49,30,47.00,60.00,-1000.00
2024-05-19 08:09:43.236661,7,-3,0,-3,0,0,63,65,130,130,70,109.55,30,62.00,52.00,-986.00
2024-05-19 08:09:43.400360,7,-3,0,-4,0,0,63,65,130,130,70,109.45,30,53.00,61.00,-1004.00
2024-05-19 08:09:43.440661,7,-3,0,-5,0,0,63,65,131,130,70,109.63,30,54.00,66.00,-1004.00
2024-05-19 08:09:43.604702,7,-3,0,-6,0,0,63,65,131,130,70,109.34,30,80.00,64.00,-1004.00
2024-05-19 08:09:43.644627,6,-3,0,-6,0,0,63,65,131,130,70,109.80,30,73.00,78.00,-994.00
2024-05-19 08:09:43.811946,4,-3,0,-6,0,0,63,65,132,130,70,109.68,31,90.00,82.00,-996.00
2024-05-19 08:09:43.848783,2,-3,0,-6,0,0,63,65,131,130,70,109.75,31,107.00,63.00,-1001.00
2024-05-19 08:09:44.014197,0,-4,0,-5,0,0,63,65,132,130,70,109.38,31,71.00,76.00,-980.00
2024-05-19 08:09:44.052681,-1,-3,0,-4,0,0,63,65,132,130,70,109.51,31,66.00,78.00,-975.00
2024-05-19 08:09:44.218958,-2,-4,0,-3,0,0,64,66,133,130,70,109.64,31,77.00,71.00,-1014.00
2024-05-19 08:09:44.256614,-1,-4,0,-2,0,0,64,66,133,130,70,109.51,31,86.00,68.00,-999.00
2024-05-19 08:09:44.423793,0,-4,0,-2,0,0,64,66,133,130,70,109.49,31,76.00,71.00,-994.00
2024-05-19 08:09:44.460590,1,-4,0,-1,0,0,64,66,134,130,70,109.50,31,64.00,81.00,-1006.00
2024-05-19 08:09:44.628537,2,-4,0,-1,0,0,64,66,133,130,70,109.65,31,63.00,86.00,-988.00
2024-05-19 08:09:44.664761,2,-4,0,-1,0,0,64,66,134,130,70,109.43,31,66.00,79.00,-995.00
2024-05-19 08:09:44.833464,2,-5,0,-1,0,0,64,66,133,130,70,109.50,32,80.00,72.00,-1006.00
2024-05-19 08:09:44.868608,1,-5,0,-1,0,0,64,66,134,130,70,109.59,32,80.00,64.00,-997.00
2024-05-19 08:09:45.038134,2,-4,0,0,0,0,64,66,134,130,70,109.70,32,83.00,70.00,-990.00
2024-05-19 08:09:45.040686,4,-4,0,0,0,0,64,66,134,130,70,109.54,32,75.00,78.00,-1001.00
2024-05-19 08:09:45.243011,4,-4,0,0,0,0,64,66,134,130,69,109.44,32,85.00,59.00,-994.00
2024-05-19 08:09:45.276448,4,-4,0,0,0,0,64,66,135,130,69,109.79,32,84.00,79.00,-981.00
2024-05-19 08:09:45.327590,4,-5,0,0,0,0,64,66,134,130,69,109.74,32,86.00,72.00,-989.00
2024-05-19 08:09:45.447850,4,-4,0,0,0,0,64,66,134,130,69,109.49,32,76.00,63.00,-996.00
2024-05-19 08:09:45.531671,4,-2,0,0,0,0,64,66,135,130,69,109.68,32,82.00,58.00,-1000.00
2024-05-19 08:09:45.652569,4,-3,0,0,0,0,64,66,135,130,69,109.49,32,83.00,71.00,-996.00
2024-05-19 08:09:45.735603,4,-3,0,0,0,0,64,66,135,130,69,109.51,33,75.00,67.00,-1003.00
2024-05-19 08:09:45.857309,4,-3,0,0,0,0,64,66,135,130,69,109.76,33,88.00,63.00,-989.00
2024-05-19 08:09:45.939435,4,-3,0,0,0,0,64,66,135,130,69,109.57,33,75.00,72.00,-978.00
2024-05-19 08:09:46.062298,5,-4,0,0,0,0,64,66,135,130,69,109.61,33,78.00,77.00,-968.00
2024-05-19 08:09:46.143383,4,-4,0,-1,0,0,63,66,135,130,69,109.69,33,70.00,54.00,-999.00
2024-05-19 08:09:46.270774,3,-4,0,-1,0,0,63,66,134,130,69,109.62,33,62.00,63.00,-995.00
2024-05-19 08:09:46.347862,3,-3,0,-1,0,0,63,66,133,130,69,109.18,33,62.00,65.00,-982.00
2024-05-19 08:09:46.471773,3,-3,0,-1,0,0,63,66,134,130,69,109.70,33,56.00,70.00,-984.00
2024-05-19 08:09:46.552415,3,-3,0,-1,0,0,63,66,133,130,69,109.56,33,63.00,66.00,-1017.00
2024-05-19 08:09:46.676575,2,-3,0,-1,0,0,63,66,133,130,69,109.43,34,64.00,69.00,-1002.00
2024-05-19 08:09:46.756498,2,-4,0,-1,0,0,63,66,132,130,69,109.61,34,56.00,74.00,-1019.00
2024-05-19 08:09:46.881351,2,-3,0,-1,0,0,63,66,133,130,69,109.83,34,27.00,87.00,-1043.00
2024-05-19 08:09:46.960532,-1,-4,0,0,0,0,63,66,133,130,69,109.50,34,65.00,87.00,-962.00
2024-05-19 08:09:47.062492,0,-7,0,0,0,0,63,66,133,130,69,109.42,34,50.00,85.00,-1010.00
2024-05-19 08:09:47.164760,1,-8,0,0,0,0,65,67,134,130,68,109.26,34,51.00,91.00,-1013.00
2024-05-19 08:09:47.266733,2,-5,0,0,0,0,65,67,133,130,68,109.44,34,34.00,89.00,-995.00
2024-05-19 08:09:47.368914,1,-1,0,0,0,0,65,67,132,130,68,109.55,34,31.00,102.00,-977.00
2024-05-19 08:09:47.495901,1,-3,0,0,0,0,65,67,133,130,68,109.55,34,32.00,84.00,-1010.00
2024-05-19 08:09:47.573916,1,-4,0,0,0,0,65,67,133,130,68,109.80,34,36.00,80.00,-1026.00
2024-05-19 08:09:47.675702,1,-6,0,0,0,0,65,67,134,130,68,109.43,35,60.00,29.00,-1012.00
2024-05-19 08:09:47.777659,1,-4,0,0,0,0,65,67,133,130,68,109.18,35,57.00,46.00,-1024.00
2024-05-19 08:09:47.905431,2,-2,0,1,0,0,65,67,133,130,68,109.58,35,62.00,48.00,-999.00
2024-05-19 08:09:47.981473,3,-2,0,1,0,0,65,67,134,130,68,109.64,35,66.00,56.00,-993.00
2024-05-19 08:09:48.083737,3,-2,0,1,0,0,65,67,135,130,68,109.37,35,88.00,52.00,-1020.00
2024-05-19 08:09:48.212651,4,-2,0,1,0,0,65,66,135,130,68,109.52,35,105.00,42.00,-937.00
2024-05-19 08:09:48.287462,5,-2,0,1,0,0,65,66,135,130,68,109.44,35,81.00,66.00,-974.00
2024-05-19 08:09:48.417456,6,-3,0,1,0,0,65,66,135,130,68,109.82,35,77.00,60.00,-1004.00
2024-05-19 08:09:48.491373,6,-3,0,1,0,0,65,66,136,130,68,109.22,35,86.00,64.00,-1000.00
2024-05-19 08:09:48.622134,6,-3,-1,1,0,0,65,66,135,130,68,109.70,35,86.00,55.00,-974.00
2024-05-19 08:09:48.695442,6,-3,0,0,0,0,65,66,135,130,68,109.27,36,73.00,55.00,-1004.00
2024-05-19 08:09:48.827019,5,-3,0,0,0,0,65,66,134,130,68,109.36,36,68.00,45.00,-990.00
2024-05-19 08:09:48.899398,5,-2,0,0,0,0,65,66,134,130,68,109.33,36,71.00,31.00,-978.00
2024-05-19 08:09:48.950448,5,-2,0,0,0,0,65,66,134,130,68,109.02,36,50.00,50.00,-999.00
2024-05-19 08:09:49.137294,4,-3,0,0,0,0,65,66,133,130,68,109.31,36,71.00,27.00,-992.00
2024-05-19 08:09:49.205525,4,-3,0,0,0,0,65,66,132,130,67,109.17,36,57.00,31.00,-998.00
2024-05-19 08:09:49.339839,4,-2,0,0,0,0,65,66,131,130,67,109.38,36,57.00,35.00,-1006.00
2024-05-19 08:09:49.409474,3,-2,0,0,0,0,65,66,131,130,67,109.54,36,62.00,22.00,-1015.00
2024-05-19 08:09:49.460336,3,-2,0,0,0,0,65,66,130,130,67,109.45,36,63.00,5.00,-1016.00
2024-05-19 08:09:49.646107,1,-7,0,0,-1,0,65,66,130,130,67,109.53,36,40.00,19.00,-989.00
2024-05-19 08:09:49.664308,1,-8,0,0,-2,0,65,66,129,130,67,109.70,37,13.00,33.00,-1004.00
2024-05-19 08:09:49.850974,0,-7,0,0,-3,0,65,66,130,130,67,109.53,37,25.00,37.00,-1019.00
2024-05-19 08:09:49.868347,0,-4,0,0,-3,0,65,66,129,130,67,109.66,37,37.00,53.00,-1011.00
2024-05-19 08:09:50.055755,0,-3,0,0,-3,0,65,66,128,130,67,109.45,37,47.00,49.00,-1004.00
2024-05-19 08:09:50.072353,1,-2,0,0,-3,0,65,66,128,130,67,109.70,37,57.00,55.00,-1009.00
2024-05-19 08:09:50.174298,1,-1,0,0,-3,0,64,66,129,130,67,109.73,37,51.00,49.00,-989.00
2024-05-19 08:09:50.363022,1,-1,0,0,-3,0,64,66,128,130,67,109.32,37,52.00,67.00,-1021.00
2024-05-19 08:09:50.378189,1,-2,-1,0,-2,0,64,66,129,130,67,109.28,37,22.00,59.00,-1007.00
2024-05-19 08:09:50.480293,0,-3,-1,0,-2,0,64,66,129,130,67,109.65,37,13.00,57.00,-992.00
2024-05-19 08:09:50.670166,0,-2,0,0,-3,0,64,66,129,130,67,109.36,37,0.00,58.00,-1012.00
2024-05-19 08:09:50.684833,0,-2,0,0,-2,0,64,66,130,130,67,109.38,38,26.00,49.00,-990.00
2024-05-19 08:09:50.874984,0,-2,0,0,-2,0,64,66,131,130,67,109.20,38,31.00,44.00,-984.00
2024-05-19 08:09:50.888205,0,-2,0,0,-2,0,64,66,130,130,67,109.19,38,23.00,45.00,-1002.00
2024-05-19 08:09:51.079713,3,-1,0,0,-2,0,64,66,130,130,67,109.68,38,27.00,48.00,-1011.00
2024-05-19 08:09:51.092160,3,0,0,0,-2,0,64,66,132,130,67,109.26,38,29.00,47.00,-979.00
2024-05-19 08:09:51.284447,2,2,0,0,-1,0,65,67,132,130,66,109.41,38,45.00,36.00,-983.00
2024-05-19 08:09:51.296346,1,0,0,0,-1,0,65,67,132,130,66,109.42,38,36.00,24.00,-1008.00
2024-05-19 08:09:51.489378,2,0,0,0,0,0,65,67,132,130,66,109.37,38,43.00,20.00,-1001.00
2024-05-19 08:09:51.500315,2,-1,0,0,0,0,65,67,132,130,66,109.57,38,28.00,17.00,-987.00
2024-05-19 08:09:51.602484,2,-1,0,0,-1,0,65,67,132,130,66,109.35,38,43.00,29.00,-1006.00
2024-05-19 08:09:51.796639,2,0,0,0,0,0,65,67,132,130,66,109.47,39,29.00,24.00,-989.00
2024-05-19 08:09:51.806204,2,0,0,0,0,0,65,67,132,130,66,109.34,39,36.00,39.00,-982.00
2024-05-19 08:09:51.908396,2,0,0,0,0,0,65,67,132,130,66,109.32,39,37.00,64.00,-980.00
2024-05-19 08:09:52.103759,2,-1,0,0,0,0,65,67,132,130,66,109.36,39,36.00,43.00,-1013.00
2024-05-19 08:09:52.112170,2,-1,0,0,0,0,65,67,133,130,66,109.48,39,38.00,67.00,-979.00
2024-05-19 08:09:52.214246,1,-2,0,0,0,0,65,67,132,130,66,109.65,39,40.00,59.00,-1009.00
2024-05-19 08:09:52.410946,2,-3,0,0,0,0,65,67,133,130,66,109.19,39,71.00,64.00,-996.00
2024-05-19 08:09:52.420317,1,-4,0,0,0,0,65,67,132,130,66,109.26,39,46.00,52.00,-1008.00
2024-05-19 08:09:52.520674,2,-4,0,0,0,0,65,67,132,130,66,109.32,39,38.00,67.00,-993.00
2024-05-19 08:09:52.718169,3,-3,0,0,0,0,65,67,132,130,66,109.42,39,34.00,78.00,-972.00
2024-05-19 08:09:52.724193,2,-3,0,0,0,0,65,67,133,130,66,109.82,40,70.00,86.00,-987.00
2024-05-19 08:09:52.868556,2,-5,0,0,0,0,65,67,132,130,66,109.49,40,69.00,64.00,-975.00
2024-05-19 08:09:52.928012,3,-5,0,0,0,0,65,67,131,130,66,109.85,40,51.00,82.00,-988.00
2024-05-19 08:09:53.129478,3,-5,0,0,0,0,65,67,132,130,66,109.65,40,62.00,79.00,-1000.00
2024-05-19 08:09:53.131140,3,-5,0,0,0,0,65,67,131,130,65,109.58,40,51.00,68.00,-997.00
2024-05-19 08:09:53.299777,3,-5,-1,0,0,0,66,67,132,130,65,109.40,40,33.00,61.00,-1010.00
2024-05-19 08:09:53.300026,3,-5,-1,0,0,0,66,67,130,130,65,109.63,40,21.00,58.00,-999.00
2024-05-19 08:09:53.387065,3,-5,0,0,0,0,66,67,131,130,65,109.20,40,37.00,40.00,-1038.00
2024-05-19 08:09:53.537628,1,0,0,0,0,0,66,67,130,130,65,109.45,40,38.00,60.00,-968.00
2024-05-19 08:09:53.591011,1,5,0,0,1,0,66,67,130,130,65,109.20,40,39.00,31.00,-1025.00
2024-05-19 08:09:53.742009,2,3,0,0,2,0,66,67,130,130,65,109.23,41,29.00,28.00,-1015.00
2024-05-19 08:09:53.795871,2,0,0,0,3,0,66,67,130,130,65,109.54,41,30.00,39.00,-1002.00
2024-05-19 08:09:53.946897,2,-1,0,0,3,0,66,67,130,130,65,109.24,41,19.00,38.00,-990.00
2024-05-19 08:09:53.999018,1,-4,0,0,3,0,66,67,131,130,65,109.50,41,21.00,44.00,-1024.00
2024-05-19 08:09:54.101185,1,-3,0,0,2,0,66,67,131,130,65,109.35,41,12.00,40.00,-996.00
2024-05-19 08:09:54.254011,1,-3,0,0,2,0,65,67,130,130,65,109.11,41,13.00,44.00,-1006.00
2024-05-19 08:09:54.306875,1,-2,0,0,2,0,65,67,130,130,65,109.04,41,19.00,37.00,-990.00
2024-05-19 08:09:54.406954,0,-3,0,0,2,0,65,67,131,130,65,109.47,41,11.00,18.00,-986.00
2024-05-19 08:09:54.509062,0,-3,0,0,2,0,65,67,131,130,65,109.58,41,15.00,33.00,-1022.00
2024-05-19 08:09:54.663872,0,-3,0,0,2,0,65,67,130,130,65,109.40,41,29.00,34.00,-1019.00
2024-05-19 08:09:54.712964,-1,-2,0,0,2,0,65,67,132,130,65,109.35,42,8.00,45.00,-983.00
2024-05-19 08:09:54.868489,-2,-3,0,0,2,0,65,67,131,130,65,109.31,42,10.00,31.00,-987.00
2024-05-19 08:09:54.917018,-2,-4,0,0,2,0,65,67,131,130,65,109.20,42,20.00,37.00,-1012.00
2024-05-19 08:09:55.073305,-1,-4,0,0,2,0,65,67,131,130,65,108.98,42,1.00,45.00,-985.00
2024-05-19 08:09:55.121041,-1,-3,0,1,1,0,65,67,131,130,64,109.29,42,26.00,58.00,-938.00
2024-05-19 08:09:55.278246,3,-6,-1,1,1,0,65,67,131,130,64,109.18,42,-15.00,41.00,-1025.00
2024-05-19 08:09:55.325040,4,-6,-1,0,1,0,65,67,130,130,64,109.36,42,18.00,57.00,-997.00
2024-05-19 08:09:55.482991,1,-5,0,0,0,0,65,67,130,130,64,109.50,42,11.00,56.00,-1015.00
2024-05-19 08:09:55.529094,0,-4,0,0,0,0,65,67,130,130,64,109.17,42,10.00,56.00,-1018.00
2024-05-19 08:09:55.687847,0,-4,0,0,0,0,65,67,130,130,64,109.50,42,6.00,57.00,-1023.00
2024-05-19 08:09:55.733216,0,-4,0,0,0,0,65,67,130,130,64,109.57,43,-1.00,54.00,-986.00
2024-05-19 08:09:55.869368,1,-4,0,0,0,0,65,67,129,130,64,109.57,43,6.00,53.00,-991.00
2024-05-19 08:09:55.937045,0,-3,0,0,0,0,65,67,129,130,64,109.36,43,15.00,52.00,-993.00
2024-05-19 08:09:56.097276,0,-4,0,0,0,0,65,67,130,130,64,109.35,43,15.00,50.00,-1000.00
2024-05-19 08:09:56.140997,0,-3,0,0,0,0,65,67,130,130,64,109.04,43,19.00,33.00,-1000.00
2024-05-19 08:09:56.302099,0,-3,0,0,0,0,65,68,130,130,64,109.40,43,-1.00,39.00,-970.00
2024-05-19 08:09:56.344891,0,-3,0,0,0,0,65,68,129,130,64,109.49,43,-5.00,37.00,-981.00
2024-05-19 08:09:56.506879,0,-2,0,0,0,0,65,68,129,130,64,109.14,43,-18.00,50.00,-1018.00
2024-05-19 08:09:56.548966,0,-2,0,0,0,0,65,68,129,130,64,109.44,43,-21.00,54.00,-1013.00
2024-05-19 08:09:56.711616,-1,-2,0,0,0,0,65,68,129,130,64,109.40,43,-11.00,53.00,-1012.00
2024-05-19 08:09:56.752909,-1,-1,0,0,0,0,65,68,129,130,64,109.08,44,-43.00,65.00,-999.00
2024-05-19 08:09:56.916456,-1,-2,0,0,0,0,65,68,129,130,64,109.23,44,-35.00,58.00,-1018.00
2024-05-19 08:09:56.916597,-1,-3,0,0,0,0,65,68,129,130,64,109.39,44,-34.00,52.00,-989.00
2024-05-19 08:09:57.007937,-2,-3,0,-1,0,0,65,68,130,130,64,109.24,44,-12.00,65.00,-1004.00
2024-05-19 08:09:57.109868,-3,-3,0,0,0,0,65,68,130,130,63,109.15,44,-25.00,68.00,-993.00
2024-05-19 08:09:57.223952,-2,-3,0,0,0,0,66,68,129,130,63,109.21,44,-58.00,33.00,-971.00
2024-05-19 08:09:57.313812,-2,-4,-1,0,0,0,66,68,130,130,63,109.47,44,-70.00,27.00,-985.00
2024-05-19 08:09:57.415848,-3,-2,-1,-1,0,0,66,68,129,130,63,109.46,44,-55.00,32.00,-1002.00
2024-05-19 08:09:57.530781,-4,-2,0,-1,0,0,66,68,130,130,63,109.22,44,-83.00,13.00,-1037.00
2024-05-19 08:09:57.619880,-4,-3,5,-1,0,0,66,68,130,130,63,109.10,44,-57.00,16.00,-1013.00
2024-05-19 08:09:57.735908,-5,-2,10,-1,0,0,66,68,130,130,63,109.45,45,-59.00,34.00,-1016.00
2024-05-19 08:09:57.823805,-5,-2,16,0,0,0,66,68,131,130,63,109.28,45,-62.00,36.00,-1019.00
2024-05-19 08:09:57.940286,-4,-2,22,0,0,0,66,68,132,130,63,109.28,45,-67.00,39.00,-1022.00
2024-05-19 08:09:58.027847,-4,-2,28,0,0,0,66,68,132,130,63,109.40,45,-45.00,45.00,-1010.00
2024-05-19 08:09:58.129781,-4,-3,34,0,0,0,66,68,132,130,63,109.03,45,-35.00,54.00,-997.00
2024-05-19 08:09:58.247986,-4,-2,40,0,0,0,66,68,132,130,63,109.13,45,-21.00,63.00,-964.00
2024-05-19 08:09:58.333729,-2,-4,46,0,0,0,66,68,133,130,63,109.27,45,-21.00,62.00,-985.00
2024-05-19 08:09:58.452316,-2,-5,52,0,0,0,66,68,133,130,63,109.27,45,-17.00,65.00,-996.00
2024-05-19 08:09:58.538817,-1,-4,59,0,0,0,66,68,133,130,63,109.48,45,9.00,57.00,-1007.00
2024-05-19 08:09:58.657260,0,-4,65,0,0,0,66,68,134,130,63,109.33,45,17.00,72.00,-981.00
2024-05-19 08:09:58.742652,0,-3,71,0,0,0,66,68,134,130,63,109.51,46,3.00,73.00,-977.00
2024-05-19 08:09:58.861948,0,-3,76,0,0,0,66,68,133,130,63,108.99,46,0.00,72.00,-1001.00
2024-05-19 08:09:58.946688,0,-3,82,0,0,0,66,68,134,130,63,109.52,46,16.00,82.00,-1009.00
2024-05-19 08:09:59.066666,1,-4,88,0,0,0,66,68,133,130,63,109.50,46,25.00,81.00,-1012.00
2024-05-19 08:09:59.151363,1,-4,94,0,0,0,66,68,133,130,62,109.40,46,62.00,81.00,-993.00
2024-05-19 08:09:59.271678,1,-4,101,0,0,0,66,68,133,130,62,109.33,46,84.00,75.00,-997.00
2024-05-19 08:09:59.354764,3,-3,107,0,0,0,66,68,132,130,62,109.39,46,72.00,76.00,-990.00
2024-05-19 08:09:59.476472,5,-3,113,0,0,0,66,68,132,130,62,109.21,46,92.00,79.00,-988.00
2024-05-19 08:09:59.558697,6,-2,120,0,0,0,66,68,133,130,62,109.40,46,79.00,77.00,-1000.00
2024-05-19 08:09:59.681278,6,-3,126,0,0,0,66,68,132,130,62,109.32,46,87.00,87.00,-1005.00
2024-05-19 08:09:59.762944,6,-2,133,0,0,0,66,68,132,130,62,109.33,47,97.00,76.00,-986.00
2024-05-19 08:09:59.886383,7,-2,140,0,0,0,66,68,132,130,62,109.13,47,113.00,59.00,-999.00
2024-05-19 08:09:59.966727,7,-1,146,0,0,0,66,68,132,130,62,109.25,47,133.00,58.00,-1002.00
2024-05-19 08:10:00.090810,8,0,153,0,0,0,66,68,133,130,62,109.30,47,136.00,39.00,-996.00
2024-05-19 08:10:00.170729,8,0,159,0,0,0,66,68,132,130,62,109.33,47,141.00,42.00,-976.00
2024-05-19 08:10:00.295622,8,0,166,0,0,0,66,69,132,130,62,109.21,47,152.00,19.00,-975.00
2024-05-19 08:10:00.374691,8,0,172,0,0,0,66,69,132,130,62,108.89,47,142.00,-1.00,-997.00
2024-05-19 08:10:00.426243,8,2,178,0,0,0,66,69,132,130,62,109.51,47,158.00,-35.00,-988.00
2024-05-19 08:10:00.527749,8,3,-175,0,0,0,66,69,132,130,62,108.99,47,136.00,-27.00,-978.00
2024-05-19 08:10:00.705264,7,4,-170,0,0,0,66,69,131,130,62,109.29,47,139.00,-51.00,-971.00
2024-05-19 08:10:00.731683,6,5,-164,0,0,0,66,69,131,130,62,109.37,48,121.00,-59.00,-985.00
2024-05-19 08:10:00.910021,6,5,-158,0,0,0,66,69,131,130,62,109.12,48,123.00,-92.00,-1011.00
2024-05-19 08:10:00.935659,5,6,-152,0,0,0,66,69,132,130,62,109.48,48,129.00,-109.00,-1021.00
2024-05-19 08:10:01.114825,5,6,-146,-1,0,0,66,69,132,130,62,109.46,48,101.00,-101.00,-975.00
2024-05-19 08:10:01.139641,4,7,-140,-1,0,0,66,69,132,130,61,109.36,48,94.00,-113.00,-967.00
2024-05-19 08:10:01.241655,3,8,-128,-1,0,0,66,69,133,130,61,109.47,48,60.00,-149.00,-975.00
2024-05-19 08:10:01.343675,2,8,-122,-1,0,0,66,69,133,130,61,109.37,48,46.00,-162.00,-980.00
2024-05-19 08:10:01.446297,1,8,-116,-1,0,0,66,69,133,130,61,109.07,48,13.00,-158.00,-992.00
2024-05-19 08:10:01.626722,0,8,-110,-1,1,0,66,69,133,130,61,109.41,48,3.00,-153.00,-997.00
2024-05-19 08:10:01.655883,0,8,-104,-2,1,0,66,69,133,130,61,109.34,49,-9.00,-160.00,-983.00
2024-05-19 08:10:01.751809,-2,8,-98,-2,1,0,66,69,133,130,61,109.17,49,-6.00,-155.00,-991.00
2024-05-19 08:10:01.875945,-2,8,-91,-2,1,0,66,69,134,130,61,109.28,49,-46.00,-138.00,-1008.00
2024-05-19 08:10:01.955536,-3,8,-85,-2,1,0,66,69,134,130,61,108.96,49,-48.00,-129.00,-1011.00
2024-05-19 08:10:02.138792,-4,7,-79,-2,1,0,66,69,134,130,61,109.11,49,-61.00,-121.00,-984.00
2024-05-19 08:10:02.159704,-5,7,-72,-2,1,0,66,69,134,130,61,108.93,49,-106.00,-114.00,-977.00
2024-05-19 08:10:02.343591,-6,6,-66,-2,1,0,67,69,134,130,61,109.13,49,-102.00,-96.00,-995.00
2024-05-19 08:10:02.363537,-7,5,-59,-2,1,0,67,69,135,130,61,108.79,49,-108.00,-97.00,-993.00
2024-05-19 08:10:02.551118,-7,4,-53,-2,1,0,67,69,135,130,61,108.99,49,-123.00,-83.00,-975.00
2024-05-19 08:10:02.567611,-8,3,-46,-2,1,0,67,69,136,130,61,108.77,49,-120.00,-80.00,-974.00
2024-05-19 08:10:02.753455,-8,2,-40,-2,1,0,67,69,135,130,61,108.68,50,-141.00,-64.00,-967.00
2024-05-19 08:10:02.771399,-8,2,-34,-2,1,0,67,69,136,130,61,109.00,50,-155.00,-59.00,-966.00
2024-05-19 08:10:02.957990,-8,1,-28,-2,0,0,67,69,134,130,61,108.52,50,-141.00,-39.00,-980.00
2024-05-19 08:10:03.078044,-8,0,-22,-3,0,0,67,69,134,130,61,108.66,50,-158.00,-18.00,-1002.00
2024-05-19 08:10:03.078119,-8,0,-17,-3,0,0,67,69,133,130,61,108.80,50,-163.00,0.00,-991.00
2024-05-19 08:10:03.221437,-8,0,-13,-3,1,0,67,69,134,130,60,108.69,50,-145.00,26.00,-1007.00
2024-05-19 08:10:03.381342,-8,0,-11,-3,1,0,67,69,133,130,60,108.51,50,-126.00,39.00,-1016.00
2024-05-19 08:10:03.384283,-8,-1,-9,-2,1,0,67,69,134,130,60,109.15,50,-141.00,58.00,-996.00
2024-05-19 08:10:03.516984,-8,-1,-7,-2,1,0,67,69,134,130,60,108.91,50,-137.00,64.00,-983.00
2024-05-19 08:10:03.688676,-8,-2,-5,-2,2,0,67,69,135,130,60,108.59,50,-137.00,61.00,-960.00
2024-05-19 08:10:03.689487,-8,-2,-4,-2,2,0,67,69,134,130,60,108.27,51,-160.00,66.00,-975.00
2024-05-19 08:10:03.835734,-7,-2,-4,-2,2,0,67,69,135,130,60,108.79,51,-176.00,80.00,-999.00
2024-05-19 08:10:03.984981,-8,-2,-3,-3,3,0,67,69,135,130,60,108.84,51,-145.00,125.00,-953.00
2024-05-19 08:10:03.995510,-7,-3,-3,-3,3,0,67,69,136,130,60,108.66,51,-169.00,91.00,-984.00
2024-05-19 08:10:04.128804,-8,-3,-2,-3,3,0,67,69,135,130,60,108.62,51,-166.00,88.00,-986.00
2024-05-19 08:10:04.148542,-8,-3,-2,-3,4,0,67,69,135,130,60,108.74,51,-133.00,119.00,-976.00
2024-05-19 08:10:04.301736,-8,-4,-2,-3,4,0,67,70,134,130,60,108.99,51,-145.00,138.00,-903.00
2024-05-19 08:10:04.494442,-7,-4,-2,-3,5,0,67,70,134,130,60,108.62,51,-145.00,107.00,-997.00
2024-05-19 08:10:04.608630,-7,-4,-3,-3,5,0,67,70,133,130,60,108.78,51,-146.00,110.00,-1000.00
2024-05-19 08:10:04.609374,-7,-5,-3,-4,6,0,67,70,133,130,60,108.72,51,-156.00,125.00,-1002.00
2024-05-19 08:10:04.750799,-7,-5,-2,-4,6,0,67,70,133,130,60,108.41,52,-137.00,123.00,-1007.00
2024-05-19 08:10:04.760875,-7,-5,-2,-4,7,0,67,70,133,130,60,108.63,52,-155.00,107.00,-975.00
2024-05-19 08:10:04.917098,-7,-5,-2,-5,7,0,67,70,132,130,60,109.08,52,-159.00,122.00,-996.00
2024-05-19 08:10:05.096869,-7,-5,-2,-5,7,0,67,70,133,130,60,108.45,52,-149.00,114.00,-997.00
2024-05-19 08:10:05.097207,-7,-5,-2,-5,7,0,67,70,134,130,60,108.46,52,-137.00,115.00,-999.00
2024-05-19 08:10:05.221753,-7,-5,-2,-5,7,0,67,70,134,130,59,109.03,52,-141.00,103.00,-974.00
2024-05-19 08:10:05.364997,-7,-5,-2,-5,8,0,67,70,134,130,59,108.74,52,-128.00,118.00,-987.00
2024-05-19 08:10:05.372468,-7,-5,-2,-5,8,0,67,70,134,130,59,108.67,52,-120.00,111.00,-1004.00
2024-05-19 08:10:05.529510,-7,-5,-2,-6,8,0,67,70,135,130,59,108.90,52,-150.00,121.00,-999.00
2024-05-19 08:10:05.672288,-7,-5,-2,-6,8,0,67,70,135,130,59,108.63,52,-124.00,123.00,-983.00
2024-05-19 08:10:05.678448,-7,-6,-2,-6,9,0,67,70,134,130,59,108.56,53,-133.00,113.00,-967.00
2024-05-19 08:10:05.836146,-7,-6,-2,-6,9,0,67,70,135,130,59,108.85,53,-110.00,100.00,-976.00
2024-05-19 08:10:05.979539,-6,-5,-2,-6,9,0,67,70,134,130,59,108.57,53,-102.00,105.00,-1040.00
2024-05-19 08:10:05.984519,-6,-6,-2,-6,9,0,67,70,135,130,59,108.87,53,-126.00,98.00,-1044.00
2024-05-19 08:10:06.144600,-6,-5,-2,-7,9,0,67,70,135,130,59,108.53,53,-97.00,93.00,-1001.00
2024-05-19 08:10:06.286579,-6,-5,-8,-7,9,0,67,70,137,130,59,108.67,53,-121.00,97.00,-998.00
2024-05-19 08:10:06.290322,-7,-4,-13,-7,9,0,67,70,139,130,59,108.42,53,-134.00,100.00,-965.00
2024-05-19 08:10:06.450491,-7,-3,-19,-7,9,0,67,70,141,130,59,108.57,53,-159.00,86.00,-955.00
2024-05-19 08:10:06.593806,-8,-3,-25,-7,10,0,67,70,141,130,59,108.44,53,-175.00,79.00,-958.00
2024-05-19 08:10:06.596312,-8,-2,-31,-7,10,0,67,70,143,130,59,108.90,53,-188.00,63.00,-980.00
2024-05-19 08:10:06.757656,-7,-2,-37,-8,11,0,67,70,144,130,59,107.98,54,-207.00,16.00,-1021.00
2024-05-19 08:10:06.914970,-7,-1,-43,-9,11,0,67,70,145,130,59,108.09,54,-202.00,23.00,-977.00
2024-05-19 08:10:06.915020,-9,0,-49,-9,12,0,67,70,145,130,59,108.36,54,-177.00,26.00,-897.00
2024-05-19 08:10:07.004320,-9,0,-55,-9,12,0,67,70,146,130,59,108.31,54,-175.00,0.00,-920.00
2024-05-19 08:10:07.159348,-9,0,-61,-9,12,0,67,70,146,130,59,108.59,54,-151.00,-41.00,-993.00
2024-05-19 08:10:07.209253,-9,2,-66,-9,12,0,67,70,146,130,58,108.20,54,-159.00,-40.00,-977.00
2024-05-19 08:10:07.310165,-8,3,-72,-9,12,0,68,70,146,130,58,108.66,54,-156.00,-52.00,-973.00
2024-05-19 08:10:07.463478,-7,4,-77,-10,13,0,68,70,146,130,58,108.21,54,-144.00,-63.00,-1016.00
2024-05-19 08:10:07.514127,-7,4,-83,-10,13,0,68,70,146,130,58,108.60,54,-138.00,-70.00,-955.00
2024-05-19 08:10:07.668266,-8,5,-88,-10,13,0,68,70,145,130,58,108.71,54,-128.00,-89.00,-969.00
2024-05-19 08:10:07.718314,-7,6,-94,-10,13,0,68,70,144,130,58,108.65,55,-101.00,-97.00,-1009.00
2024-05-19 08:10:07.873059,-7,7,-99,-9,13,0,68,70,145,130,58,108.77,55,-107.00,-106.00,-995.00
2024-05-19 08:10:07.922101,-6,8,-105,-9,13,0,68,70,145,130,58,108.59,55,-102.00,-100.00,-991.00
2024-05-19 08:10:08.077867,-5,10,-111,-9,12,0,68,70,146,130,58,108.71,55,-61.00,-89.00,-981.00
2024-05-19 08:10:08.126171,-5,11,-116,-8,12,0,68,70,146,130,58,108.26,55,-43.00,-92.00,-1005.00
2024-05-19 08:10:08.290622,-4,12,-123,-8,11,0,68,70,145,130,58,108.72,55,-31.00,-102.00,-995.00
2024-05-19 08:10:08.330867,-2,12,-129,-7,10,0,67,70,145,130,58,108.62,55,11.00,-144.00,-1051.00
2024-05-19 08:10:08.487794,-2,13,-134,-7,10,0,67,70,146,130,58,108.66,55,-17.00,-178.00,-1029.00
2024-05-19 08:10:08.534215,0,13,-140,-7,9,0,67,70,146,130,58,108.90,55,-9.00,-178.00,-993.00
2024-05-19 08:10:08.585097,1,13,-145,-6,9,0,67,70,148,130,58,108.96,55,13.00,-176.00,-1004.00
2024-05-19 08:10:08.692337,2,14,-151,-6,9,0,67,70,149,130,58,109.03,56,15.00,-177.00,-1007.00
2024-05-19 08:10:08.789223,3,13,-156,-5,8,0,67,70,151,130,58,109.08,56,30.00,-173.00,-1002.00
2024-05-19 08:10:08.897143,5,15,-162,-5,8,0,67,70,152,130,58,108.92,56,65.00,-133.00,-929.00
2024-05-19 08:10:08.993105,7,15,-167,-4,7,0,67,70,154,130,58,108.89,56,78.00,-132.00,-990.00
2024-05-19 08:10:09.095323,8,14,-173,-4,6,0,67,70,154,130,58,108.93,56,104.00,-149.00,-1020.00
2024-05-19 08:10:09.204295,8,14,-174,-3,5,0,67,70,155,140,58,108.59,56,73.00,-120.00,-991.00
2024-05-19 08:10:09.299170,9,14,-174,-2,4,0,67,70,156,140,58,108.88,56,81.00,-120.00,-990.00
2024-05-19 08:10:09.402363,10,15,-174,-1,3,0,67,70,157,140,58,108.61,56,103.00,-117.00,-997.00
2024-05-19 08:10:09.503194,11,16,-174,-1,2,0,67,70,158,140,58,108.43,56,97.00,-128.00,-967.00
2024-05-19 08:10:09.613858,11,16,-174,0,1,0,67,70,159,140,58,108.66,56,117.00,-145.00,-1004.00
2024-05-19 08:10:09.707061,11,16,-174,0,0,0,67,70,159,140,58,108.86,57,125.00,-138.00,-971.00
2024-05-19 08:10:09.818804,11,16,-174,1,-1,0,67,70,160,140,58,108.41,57,118.00,-162.00,-977.00
2024-05-19 08:10:09.911065,12,16,-174,2,-2,0,67,70,158,140,58,108.50,57,128.00,-159.00,-1014.00
2024-05-19 08:10:10.023619,11,17,-174,3,-3,0,67,70,161,140,58,108.74,57,131.00,-156.00,-960.00
2024-05-19 08:10:10.115393,13,17,-173,4,-4,0,67,70,160,140,58,108.63,57,75.00,-188.00,-1038.00
2024-05-19 08:10:10.228312,13,18,-173,5,-5,0,67,70,161,140,58,108.67,57,91.00,-161.00,-969.00
2024-05-19 08:10:10.319015,13,19,-173,6,-6,0,68,71,162,140,58,108.70,57,110.00,-186.00,-994.00
2024-05-19 08:10:10.433012,13,19,-173,8,-7,1,68,71,160,140,58,108.76,57,150.00,-191.00,-998.00
2024-05-19 08:10:10.523156,12,19,-173,9,-9,0,68,71,158,140,58,108.38,57,146.00,-192.00,-1024.00
2024-05-19 08:10:10.637801,13,20,-173,10,-10,0,68,71,159,140,58,108.76,57,149.00,-205.00,-969.00
2024-05-19 08:10:10.727143,13,20,-173,10,-11,0,68,71,159,140,58,108.72,58,163.00,-183.00,-967.00
2024-05-19 08:10:10.843154,14,21,-173,11,-13,0,68,71,159,140,58,108.58,58,198.00,-179.00,-939.00
2024-05-19 08:10:10.931046,14,20,-173,12,-14,1,68,71,156,140,58,108.54,58,196.00,-216.00,-991.00
2024-05-19 08:10:11.047439,14,20,-173,12,-15,0,68,71,154,140,58,108.46,58,205.00,-247.00,-1041.00
2024-05-19 08:10:11.136012,14,19,-173,12,-16,0,68,71,152,140,57,108.69,58,200.00,-211.00,-959.00
2024-05-19 08:10:11.252268,15,19,-173,13,-17,0,68,71,152,140,57,108.60,58,210.00,-238.00,-994.00
2024-05-19 08:10:11.339996,15,19,-173,13,-17,0,68,70,152,140,57,108.69,58,207.00,-206.00,-963.00
2024-05-19 08:10:11.441957,15,19,-173,14,-18,0,68,70,149,140,57,108.76,58,198.00,-240.00,-912.00
2024-05-19 08:10:11.559516,16,19,-172,14,-18,0,68,70,152,140,57,108.59,58,219.00,-240.00,-961.00
2024-05-19 08:10:11.646039,15,19,-173,14,-18,0,68,70,149,140,57,108.65,58,229.00,-246.00,-907.00
2024-05-19 08:10:11.748494,16,19,-172,14,-19,0,68,70,148,140,57,108.77,59,230.00,-254.00,-914.00
2024-05-19 08:10:11.866698,16,18,-172,15,-19,0,68,70,146,140,57,108.52,59,253.00,-275.00,-942.00
2024-05-19 08:10:11.952083,16,18,-173,15,-19,0,68,70,144,140,57,108.79,59,275.00,-281.00,-912.00
2024-05-19 08:10:12.071421,16,18,-172,15,-19,0,68,70,142,140,57,108.71,59,265.00,-309.00,-902.00
2024-05-19 08:10:12.105264,16,18,-173,15,-19,0,68,70,140,130,57,108.60,59,265.00,-315.00,-866.00
2024-05-19 08:10:12.276714,16,18,-173,16,-19,0,68,70,137,130,57,108.90,59,244.00,-335.00,-900.00
