TS,pitch,roll,yaw,vgx,vgy,vgz,templ,temph,tof,h,bat,baro,time,agx,agy,agz
2024-05-19 08:11:18.835801,-1,0,172,0,0,0,77,79,10,0,55,108.10,75,-18.00,12.00,-995.00
2024-05-19 08:11:18.835998,-1,0,172,0,0,0,77,79,10,0,55,108.07,75,-16.00,13.00,-1002.00
2024-05-19 08:11:18.864152,-1,0,172,0,0,0,77,79,10,0,55,108.18,75,-17.00,13.00,-1001.00
2024-05-19 08:11:18.966213,-1,0,172,0,0,0,77,79,10,0,55,107.82,75,-18.00,13.00,-1000.00
2024-05-19 08:11:19.142889,-1,0,172,0,0,0,77,79,10,0,55,108.05,75,-18.00,13.00,-998.00
2024-05-19 08:11:19.170055,-1,0,172,0,0,0,77,79,10,0,55,107.73,75,-16.00,14.00,-998.00
2024-05-19 08:11:19.347469,-1,0,172,0,0,0,77,79,10,0,55,107.76,75,-18.00,12.00,-998.00
2024-05-19 08:11:19.374283,-1,0,172,0,0,0,77,79,10,0,55,107.81,75,-17.00,11.00,-997.00
2024-05-19 08:11:19.552558,-1,0,172,0,0,0,77,79,10,0,55,107.94,75,-17.00,12.00,-1000.00
2024-05-19 08:11:19.578127,-1,0,172,0,0,0,77,79,10,0,55,107.99,75,-19.00,13.00,-997.00
2024-05-19 08:11:19.757257,-1,0,172,0,0,0,77,79,10,0,55,107.69,75,-18.00,13.00,-998.00
2024-05-19 08:11:19.782136,-1,0,172,0,0,0,77,79,10,0,55,107.84,75,-16.00,12.00,-1003.00
2024-05-19 08:11:19.962137,-1,0,172,0,0,0,77,79,10,0,55,107.92,75,-19.00,13.00,-998.00
2024-05-19 08:11:19.986246,-1,0,172,0,0,0,77,79,10,0,55,107.47,75,-18.00,12.00,-999.00
2024-05-19 08:11:20.166818,-1,0,172,0,0,0,77,79,10,0,55,107.64,75,-19.00,13.00,-999.00
2024-05-19 08:11:20.190008,-1,0,172,0,0,0,77,79,10,0,55,107.92,75,-17.00,11.00,-998.00
2024-05-19 08:11:20.371504,-1,0,172,0,0,0,77,79,10,0,55,107.78,75,-17.00,15.00,-998.00
2024-05-19 08:11:20.394013,-1,0,172,0,0,0,77,79,10,0,55,107.86,75,-19.00,14.00,-995.00
2024-05-19 08:11:20.496113,-1,0,172,0,0,0,77,79,10,0,55,107.68,75,-19.00,13.00,-999.00
2024-05-19 08:11:20.678873,-1,0,172,0,0,0,77,79,10,0,55,107.85,75,-18.00,12.00,-997.00
2024-05-19 08:11:20.700073,-1,0,172,0,0,0,77,79,10,0,55,107.66,75,-18.00,14.00,-998.00
2024-05-19 08:11:20.883575,-1,0,172,0,0,0,77,79,10,0,55,107.84,75,-18.00,12.00,-999.00
2024-05-19 08:11:20.903891,-1,0,172,0,0,0,77,79,10,0,55,107.75,75,-18.00,13.00,-997.00
2024-05-19 08:11:21.088472,-1,0,172,0,0,0,77,79,10,0,55,107.33,75,-19.00,12.00,-999.00
2024-05-19 08:11:21.107879,-1,0,172,0,0,0,77,79,10,0,55,107.63,75,-17.00,13.00,-999.00
2024-05-19 08:11:21.293237,-1,0,172,0,0,0,77,79,10,0,55,107.60,75,-19.00,12.00,-997.00
2024-05-19 08:11:21.311830,-1,0,172,0,0,0,77,79,10,0,55,107.76,75,-17.00,12.00,-997.00
2024-05-19 08:11:21.413862,-1,0,172,0,0,0,77,79,10,0,55,107.49,75,-17.00,12.00,-1000.00
2024-05-19 08:11:21.464891,0,0,172,0,0,0,77,79,10,0,55,107.61,75,-17.00,13.00,-998.00
2024-05-19 08:11:21.566993,-1,0,172,0,0,0,77,79,10,0,55,107.53,75,-11.00,14.00,-1005.00
2024-05-19 08:11:21.720105,-1,0,172,0,0,0,78,79,10,0,55,107.53,75,-25.00,11.00,-998.00
2024-05-19 08:11:21.821854,-1,0,172,0,0,0,78,79,10,0,55,107.53,75,-25.00,11.00,-1007.00
2024-05-19 08:11:21.923914,-1,0,172,0,0,0,78,79,10,0,55,107.53,75,-22.00,13.00,-1041.00
2024-05-19 08:11:22.112456,-1,-1,172,0,0,0,78,79,10,0,55,107.53,76,-25.00,25.00,-1071.00
2024-05-19 08:11:22.112576,-1,-2,172,0,0,0,78,79,10,0,55,107.53,76,8.00,-4.00,-1249.00
2024-05-19 08:11:22.179190,0,0,172,0,0,-2,78,79,10,0,55,107.53,76,-10.00,-8.00,-1380.00
2024-05-19 08:11:22.317062,0,1,172,0,0,-5,78,79,12,0,55,107.53,76,-36.00,16.00,-1182.00
2024-05-19 08:11:22.383003,0,0,172,0,0,-7,78,79,19,10,55,107.99,76,-31.00,-4.00,-1073.00
2024-05-19 08:11:22.484807,0,0,172,0,0,-8,78,79,28,10,55,108.19,76,-47.00,6.00,-1034.00
2024-05-19 08:11:22.624259,-1,0,172,0,0,-8,78,79,34,20,55,108.10,76,-45.00,-15.00,-988.00
2024-05-19 08:11:22.688799,-2,0,172,1,0,-8,78,79,44,30,55,108.28,76,-49.00,-5.00,-928.00
2024-05-19 08:11:22.829051,-2,0,172,1,0,-8,78,79,53,40,55,108.24,76,-36.00,8.00,-880.00
2024-05-19 08:11:22.892797,-3,0,172,0,0,-6,78,79,61,40,55,108.16,76,-40.00,-8.00,-874.00
2024-05-19 08:11:23.033852,-2,0,172,0,0,-5,78,79,67,50,55,108.42,77,-39.00,-1.00,-860.00
2024-05-19 08:11:23.096778,-2,0,172,0,0,-4,78,79,73,60,55,108.34,77,-38.00,-14.00,-866.00
2024-05-19 08:11:23.238626,-2,0,172,0,0,-2,78,79,77,60,55,108.31,77,-42.00,0.00,-891.00
2024-05-19 08:11:23.300884,-2,0,172,0,0,-1,78,79,80,60,55,108.31,77,-41.00,-18.00,-896.00
2024-05-19 08:11:23.443482,-2,0,172,0,0,0,78,79,82,60,55,108.90,77,-38.00,-18.00,-936.00
2024-05-19 08:11:23.504710,-2,0,172,0,0,0,78,79,83,60,55,108.66,77,-21.00,0.00,-977.00
2024-05-19 08:11:23.648268,-2,1,172,0,0,0,78,79,83,70,55,108.46,77,-27.00,-16.00,-984.00
2024-05-19 08:11:23.708712,-2,1,172,0,0,0,77,80,83,70,55,108.32,77,-41.00,-21.00,-990.00
2024-05-19 08:11:23.853061,-2,1,172,0,0,0,77,80,84,70,55,108.57,77,-31.00,-20.00,-970.00
2024-05-19 08:11:23.912719,-2,1,172,0,0,0,77,80,84,70,55,108.88,77,-25.00,-20.00,-984.00
2024-05-19 08:11:24.057842,-2,1,172,0,0,0,77,80,84,70,55,108.79,78,-27.00,-26.00,-1004.00
2024-05-19 08:11:24.116679,-2,1,172,0,0,0,77,80,83,70,55,108.55,78,-34.00,-9.00,-997.00
2024-05-19 08:11:24.262628,-2,1,172,0,0,0,77,80,84,70,55,108.44,78,-35.00,2.00,-1010.00
2024-05-19 08:11:24.320731,-1,1,172,0,0,0,77,80,84,70,55,108.51,78,-35.00,-6.00,-994.00
2024-05-19 08:11:24.467437,-1,0,172,0,0,0,77,80,84,70,55,108.92,78,-36.00,-9.00,-999.00
2024-05-19 08:11:24.524760,-1,0,172,0,0,0,77,80,84,70,55,108.72,78,-45.00,-12.00,-999.00
2024-05-19 08:11:24.672249,-2,0,172,0,0,0,77,80,84,70,55,108.51,78,-40.00,-6.00,-996.00
2024-05-19 08:11:24.728666,-2,0,172,0,0,0,77,80,84,70,55,108.50,78,-31.00,-1.00,-1019.00
2024-05-19 08:11:24.877021,-2,0,172,0,0,0,77,80,84,70,55,108.81,78,-50.00,-1.00,-1005.00
2024-05-19 08:11:24.932662,-2,0,172,0,0,0,77,80,84,70,55,108.50,78,-43.00,-6.00,-1015.00
2024-05-19 08:11:25.081823,-2,0,172,0,0,0,77,80,84,70,55,108.60,79,-43.00,-12.00,-990.00
2024-05-19 08:11:25.136611,-2,0,172,0,0,0,77,80,83,70,55,108.35,79,-45.00,-10.00,-994.00
2024-05-19 08:11:25.286621,-2,0,172,0,0,0,77,80,83,70,55,108.54,79,-45.00,-25.00,-997.00
2024-05-19 08:11:25.340913,-2,0,171,0,0,0,77,80,83,70,55,108.41,79,-43.00,-27.00,-1002.00
2024-05-19 08:11:25.491422,-2,0,171,0,0,0,77,80,83,70,55,108.43,79,-47.00,-29.00,-987.00
2024-05-19 08:11:25.544612,-2,1,172,0,0,0,77,80,82,70,55,108.28,79,-58.00,-33.00,-997.00
2024-05-19 08:11:25.597816,-2,1,172,0,0,0,77,80,82,70,55,108.68,79,-45.00,-28.00,-992.00
2024-05-19 08:11:25.798622,-2,1,172,0,0,0,78,80,81,70,55,108.84,79,-39.00,-27.00,-991.00
2024-05-19 08:11:25.850583,-3,1,172,0,0,0,78,80,81,70,55,108.74,79,-26.00,-31.00,-995.00
2024-05-19 08:11:25.901703,-2,0,172,0,0,0,78,80,80,70,55,108.61,79,-28.00,-45.00,-985.00
2024-05-19 08:11:26.003807,-2,1,172,0,0,0,78,80,80,70,55,108.89,80,-26.00,-38.00,-1018.00
2024-05-19 08:11:26.106066,-2,2,172,0,0,0,78,80,80,60,55,108.84,80,-26.00,-53.00,-1012.00
2024-05-19 08:11:26.208189,-2,3,172,0,0,0,78,80,79,60,55,108.43,80,-42.00,-50.00,-1003.00
2024-05-19 08:11:26.310771,-2,3,172,0,0,0,78,80,79,60,55,108.31,80,-55.00,-52.00,-1012.00
2024-05-19 08:11:26.413259,-1,3,172,0,0,0,78,80,79,60,55,108.54,80,-44.00,-59.00,-1004.00
2024-05-19 08:11:26.513569,-2,3,172,0,0,0,78,80,79,60,55,108.40,80,-56.00,-55.00,-983.00
2024-05-19 08:11:26.617800,-2,3,172,0,0,0,78,80,80,60,55,108.49,80,-35.00,-30.00,-990.00
2024-05-19 08:11:26.717664,-2,2,172,0,0,0,78,78,80,60,55,108.26,80,-55.00,-55.00,-1005.00
2024-05-19 08:11:26.822600,-1,2,172,0,0,0,78,78,80,60,55,108.43,80,-71.00,-27.00,-1031.00
2024-05-19 08:11:26.921572,-2,4,172,0,0,0,78,78,80,60,55,108.29,80,-55.00,-17.00,-997.00
2024-05-19 08:11:27.027422,-2,3,172,0,0,0,78,78,81,60,55,108.05,81,-80.00,-29.00,-1004.00
2024-05-19 08:11:27.125589,-3,2,172,0,0,0,78,78,82,60,55,108.51,81,-74.00,-33.00,-994.00
2024-05-19 08:11:27.227691,-4,1,172,0,0,0,78,78,82,60,55,108.50,81,-46.00,-87.00,-980.00
2024-05-19 08:11:27.334994,-4,0,172,0,0,0,78,78,82,60,55,108.65,81,-26.00,-80.00,-999.00
2024-05-19 08:11:27.431623,-3,3,172,0,0,0,78,78,82,70,55,108.84,81,-45.00,-70.00,-1002.00
2024-05-19 08:11:27.539576,-2,5,172,0,0,0,78,78,83,70,55,108.79,81,-40.00,-76.00,-1011.00
2024-05-19 08:11:27.635661,-3,4,172,0,0,0,78,78,83,70,55,108.81,81,-21.00,-67.00,-965.00
2024-05-19 08:11:27.744357,-2,4,172,0,0,0,77,79,83,70,55,108.85,81,-51.00,-70.00,-990.00
2024-05-19 08:11:27.839649,-2,5,172,0,0,0,77,79,83,70,55,108.70,81,-45.00,-75.00,-981.00
2024-05-19 08:11:27.941632,-1,4,172,0,0,0,77,79,83,70,55,108.85,81,-69.00,-61.00,-1001.00
2024-05-19 08:11:28.051543,-2,4,172,0,0,0,77,79,84,70,55,108.62,82,-16.00,-96.00,-993.00
2024-05-19 08:11:28.145594,-3,4,172,0,0,0,77,79,83,70,55,108.65,82,-31.00,-90.00,-984.00
2024-05-19 08:11:28.256382,-2,4,172,0,0,0,77,79,83,70,55,108.56,82,-60.00,-77.00,-991.00
2024-05-19 08:11:28.349893,-2,5,172,0,0,0,77,79,82,70,55,108.68,82,-23.00,-94.00,-959.00
2024-05-19 08:11:28.451770,-3,4,172,0,0,0,77,79,82,70,55,108.58,82,-31.00,-109.00,-1027.00
2024-05-19 08:11:28.563574,-2,4,172,0,0,0,77,79,81,70,55,108.49,82,-28.00,-95.00,-1019.00
2024-05-19 08:11:28.656768,-1,5,172,0,0,0,77,79,81,70,55,108.88,82,-22.00,-119.00,-993.00
2024-05-19 08:11:28.768427,-1,6,172,0,0,0,77,79,81,60,55,108.40,82,-57.00,-81.00,-1018.00
2024-05-19 08:11:28.860672,0,8,173,0,0,0,77,79,81,60,55,108.15,82,-40.00,-69.00,-1005.00
2024-05-19 08:11:28.973229,-1,6,173,0,0,0,77,79,82,60,55,108.68,82,-44.00,-121.00,-964.00
2024-05-19 08:11:29.064659,-4,5,172,0,0,0,77,79,82,70,55,108.44,83,-31.00,-111.00,-923.00
2024-05-19 08:11:29.178010,-3,5,171,0,0,0,77,79,81,70,55,108.88,83,22.00,-125.00,-973.00
2024-05-19 08:11:29.217514,-1,5,172,-1,0,0,77,79,80,60,55,108.91,83,4.00,-138.00,-1005.00
2024-05-19 08:11:29.383305,1,8,172,-1,1,0,77,79,80,60,55,108.90,83,95.00,-129.00,-1022.00
2024-05-19 08:11:29.422712,0,10,171,-1,0,0,77,79,80,60,55,108.67,83,107.00,-143.00,-1125.00
2024-05-19 08:11:29.587489,2,7,171,-2,0,0,77,79,82,60,55,108.64,83,119.00,-134.00,-1133.00
2024-05-19 08:11:29.626516,5,8,172,-3,0,-1,77,79,84,70,55,108.35,83,77.00,-131.00,-1093.00
2024-05-19 08:11:29.792302,7,7,172,-2,0,-2,77,79,88,70,55,108.57,83,87.00,-137.00,-1085.00
2024-05-19 08:11:29.830748,6,7,172,-1,0,-3,77,79,92,70,55,108.80,83,50.00,-120.00,-1111.00
2024-05-19 08:11:29.997085,5,7,172,-1,0,-4,77,79,96,70,55,108.74,83,64.00,-127.00,-1106.00
2024-05-19 08:11:30.034491,5,7,172,-1,0,-5,77,79,102,80,55,108.52,84,73.00,-124.00,-1056.00
2024-05-19 08:11:30.201903,5,7,172,-1,0,-5,77,79,108,80,55,108.73,84,62.00,-121.00,-1028.00
2024-05-19 08:11:30.238525,5,6,171,0,0,-5,77,79,114,90,55,108.54,84,43.00,-124.00,-1036.00
2024-05-19 08:11:30.406876,3,6,172,0,0,-5,77,79,119,100,55,108.64,84,52.00,-112.00,-1031.00
2024-05-19 08:11:30.442652,3,6,172,0,0,-6,77,79,125,100,55,108.72,84,55.00,-108.00,-964.00
2024-05-19 08:11:30.611527,4,5,172,0,0,-6,77,79,132,110,55,108.89,84,57.00,-91.00,-1005.00
2024-05-19 08:11:30.646635,4,4,172,0,0,-5,77,79,137,110,55,109.26,84,58.00,-99.00,-956.00
2024-05-19 08:11:30.816291,3,6,172,0,0,-4,77,79,142,130,55,109.30,84,10.00,-79.00,-943.00
2024-05-19 08:11:30.852474,1,5,172,1,0,-4,77,79,146,130,55,109.02,84,-11.00,-84.00,-967.00
2024-05-19 08:11:30.953665,0,4,171,1,0,-4,77,79,151,130,55,109.27,85,38.00,-109.00,-947.00
2024-05-19 08:11:31.123494,0,5,172,0,0,-3,77,79,155,140,55,109.02,85,22.00,-100.00,-953.00
2024-05-19 08:11:31.158185,1,5,172,0,0,-3,77,79,158,140,55,109.11,85,-29.00,-105.00,-982.00
2024-05-19 08:11:31.258705,0,5,172,1,0,-3,77,79,160,140,55,108.95,85,-20.00,-89.00,-990.00
2024-05-19 08:11:31.360916,0,5,172,1,0,-2,77,79,164,150,55,109.11,85,-13.00,-101.00,-969.00
2024-05-19 08:11:31.462435,-1,5,172,1,0,-2,77,79,168,150,55,109.03,85,-23.00,-95.00,-943.00
2024-05-19 08:11:31.564402,-1,5,172,1,0,-2,77,79,169,150,55,108.95,85,-27.00,-119.00,-956.00
2024-05-19 08:11:31.737890,-1,6,172,1,0,-1,77,79,171,150,55,109.31,85,-27.00,-105.00,-930.00
2024-05-19 08:11:31.768346,-1,6,172,1,0,-1,76,80,174,160,55,109.10,85,-24.00,-81.00,-982.00
2024-05-19 08:11:31.870859,-1,4,172,0,0,0,76,80,175,160,55,109.50,85,-12.00,-108.00,-988.00
2024-05-19 08:11:32.045110,-1,4,172,0,0,-1,76,80,175,160,55,109.16,86,-28.00,-118.00,-984.00
2024-05-19 08:11:32.074317,-1,6,172,1,0,0,76,80,178,160,55,109.48,86,-36.00,-101.00,-975.00
2024-05-19 08:11:32.176457,-2,6,172,0,0,0,76,80,179,160,55,109.35,86,-1.00,-83.00,-930.00
2024-05-19 08:11:32.352383,-1,5,172,0,0,0,76,80,178,160,55,109.16,86,-10.00,-98.00,-989.00
2024-05-19 08:11:32.380397,-1,5,172,0,0,0,76,80,180,160,55,109.47,86,-9.00,-98.00,-979.00
2024-05-19 08:11:32.482566,0,5,172,0,0,0,76,80,181,160,55,109.54,86,-30.00,-100.00,-968.00
2024-05-19 08:11:32.659617,0,5,172,0,0,0,76,80,180,160,55,109.19,86,-38.00,-96.00,-993.00
2024-05-19 08:11:32.686521,-1,5,172,0,0,0,76,80,180,160,55,109.27,86,-29.00,-91.00,-974.00
2024-05-19 08:11:32.864303,-1,5,172,0,0,0,77,80,180,160,55,109.33,86,-34.00,-100.00,-975.00
2024-05-19 08:11:32.890334,-1,5,172,0,0,0,77,80,181,160,55,109.19,86,-24.00,-89.00,-988.00
2024-05-19 08:11:33.028578,0,5,172,0,0,0,77,80,181,160,55,109.15,87,-46.00,-97.00,-1015.00
2024-05-19 08:11:33.043338,-1,5,172,0,0,0,77,80,181,160,55,109.42,87,-17.00,-114.00,-999.00
2024-05-19 08:11:33.171471,-1,5,172,0,0,0,77,80,182,160,55,109.17,87,-14.00,-129.00,-979.00
2024-05-19 08:11:33.247373,0,6,173,0,0,0,77,80,183,160,55,109.04,87,-71.00,-89.00,-925.00
2024-05-19 08:11:33.376505,-1,6,172,0,0,0,77,80,182,160,55,109.12,87,-14.00,-97.00,-991.00
2024-05-19 08:11:33.455713,-2,4,171,0,0,0,77,80,181,160,55,109.25,87,-1.00,-134.00,-1014.00
2024-05-19 08:11:33.553267,-2,6,172,0,0,0,77,80,182,160,55,109.18,87,17.00,-123.00,-990.00
2024-05-19 08:11:33.684253,0,7,172,0,0,0,77,80,183,160,55,108.93,87,-37.00,-98.00,-1017.00
2024-05-19 08:11:33.757442,0,6,172,0,0,0,77,79,180,160,55,109.37,87,-16.00,-121.00,-1002.00
2024-05-19 08:11:33.888388,-1,5,172,0,0,0,77,79,181,160,55,109.50,87,-4.00,-127.00,-983.00
2024-05-19 08:11:33.961384,0,6,172,0,0,0,77,79,181,160,55,109.40,88,-30.00,-106.00,-992.00
2024-05-19 08:11:34.093125,0,7,172,0,0,0,77,79,180,160,55,109.60,88,-41.00,-107.00,-992.00
2024-05-19 08:11:34.165227,0,7,172,0,0,0,77,79,182,160,55,109.28,88,-48.00,-96.00,-989.00
2024-05-19 08:11:34.297757,-1,6,172,0,0,0,77,79,183,160,55,109.19,88,-52.00,-106.00,-968.00
2024-05-19 08:11:34.369518,-2,6,172,0,0,0,77,79,182,160,55,109.19,88,-23.00,-111.00,-951.00
2024-05-19 08:11:34.471096,-1,6,172,0,0,0,77,79,181,160,55,109.15,88,-25.00,-116.00,-944.00
2024-05-19 08:11:34.604958,-1,6,172,0,0,0,77,79,180,160,55,109.37,88,-10.00,-125.00,-943.00
2024-05-19 08:11:34.675082,0,7,172,0,0,1,77,79,179,160,55,109.38,88,-18.00,-106.00,-922.00
2024-05-19 08:11:34.809747,0,7,172,0,0,1,77,80,178,160,55,109.44,88,-73.00,-93.00,-953.00
2024-05-19 08:11:34.879083,-1,6,172,1,0,1,77,80,175,160,55,109.41,88,-68.00,-89.00,-949.00
2024-05-19 08:11:35.014541,-3,4,172,1,0,2,77,80,175,160,55,109.50,89,-71.00,-116.00,-982.00
2024-05-19 08:11:35.083368,-4,5,172,1,0,2,77,80,171,150,55,109.13,89,-62.00,-125.00,-970.00
2024-05-19 08:11:35.219348,-4,6,172,0,0,2,77,80,168,150,55,109.24,89,-78.00,-75.00,-982.00
2024-05-19 08:11:35.287078,-4,6,172,0,0,2,77,80,166,150,55,109.15,89,-36.00,-96.00,-987.00
2024-05-19 08:11:35.389069,-3,5,172,0,0,2,77,80,164,150,55,109.35,89,-12.00,-94.00,-1006.00
2024-05-19 08:11:35.491829,-2,5,172,0,0,2,77,80,160,140,55,109.11,89,0.00,-106.00,-1006.00
2024-05-19 08:11:35.628935,-2,5,172,0,0,2,77,80,157,140,55,109.43,89,22.00,-125.00,-1004.00
2024-05-19 08:11:35.695044,0,5,172,0,0,2,77,80,155,140,55,109.20,89,7.00,-120.00,-1035.00
2024-05-19 08:11:35.833729,1,6,172,0,0,2,76,79,152,130,55,109.06,89,-57.00,-118.00,-1022.00
2024-05-19 08:11:35.899023,0,6,172,0,0,2,76,79,149,130,55,109.05,89,-20.00,-140.00,-1026.00
2024-05-19 08:11:36.038532,-1,6,172,0,0,2,76,79,147,130,55,109.14,90,-30.00,-139.00,-961.00
2024-05-19 08:11:36.103271,-2,7,172,0,0,2,76,79,144,130,55,108.99,90,0.00,-119.00,-1002.00
2024-05-19 08:11:36.243347,-1,7,172,0,0,2,76,79,143,130,55,108.89,90,-19.00,-127.00,-1003.00
2024-05-19 08:11:36.306994,0,7,172,0,0,2,76,79,140,120,55,109.30,90,-2.00,-139.00,-1037.00
2024-05-19 08:11:36.409333,0,6,172,0,0,1,76,79,138,120,55,109.19,90,2.00,-124.00,-1010.00
2024-05-19 08:11:36.460691,1,7,172,0,0,1,76,79,137,120,55,109.11,90,-18.00,-137.00,-1004.00
2024-05-19 08:11:36.652922,1,7,172,0,0,1,76,79,137,120,55,108.57,90,-27.00,-119.00,-1042.00
2024-05-19 08:11:36.663976,0,8,172,0,0,1,76,79,135,120,55,108.75,90,13.00,-147.00,-1007.00
2024-05-19 08:11:36.857953,0,7,172,0,0,0,78,79,134,120,55,108.91,90,5.00,-126.00,-1017.00
2024-05-19 08:11:36.868380,0,7,172,0,0,0,78,79,134,120,55,108.90,90,-10.00,-129.00,-1013.00
2024-05-19 08:11:37.063244,0,7,172,0,0,0,78,79,133,120,55,108.94,91,13.00,-130.00,-1029.00
2024-05-19 08:11:37.072472,1,7,172,0,0,0,78,79,133,120,55,108.86,91,-2.00,-120.00,-1016.00
2024-05-19 08:11:37.267552,0,7,172,0,0,0,78,79,133,120,55,108.96,91,7.00,-122.00,-972.00
2024-05-19 08:11:37.278791,0,7,172,0,0,0,78,79,133,120,55,108.94,91,-3.00,-106.00,-1007.00
2024-05-19 08:11:37.378710,0,6,172,0,0,0,78,79,134,120,55,109.11,91,26.00,-122.00,-1001.00
2024-05-19 08:11:37.574599,0,7,171,0,0,0,78,79,134,120,55,108.67,91,48.00,-85.00,-1023.00
2024-05-19 08:11:37.582043,1,6,172,-1,0,0,78,79,135,120,55,108.61,91,64.00,-71.00,-1001.00
2024-05-19 08:11:37.779446,3,4,172,-1,-1,0,78,79,135,120,55,108.91,91,69.00,-73.00,-981.00
2024-05-19 08:11:37.786438,4,3,172,-1,0,0,78,80,135,120,55,108.86,91,49.00,-81.00,-977.00
2024-05-19 08:11:37.984333,5,3,172,-1,0,0,78,80,136,120,55,108.94,91,69.00,-80.00,-1007.00
2024-05-19 08:11:37.990050,5,4,172,0,0,0,78,80,136,120,55,108.92,92,23.00,-84.00,-981.00
2024-05-19 08:11:38.093488,5,4,172,0,0,0,78,80,136,120,55,108.54,92,3.00,-78.00,-987.00
2024-05-19 08:11:38.194116,4,5,172,0,0,0,78,80,136,120,55,108.53,92,0.00,-56.00,-1000.00
2024-05-19 08:11:38.296050,2,4,172,0,0,0,78,80,135,120,55,108.81,92,24.00,-76.00,-974.00
2024-05-19 08:11:38.398084,1,3,172,0,-1,0,78,80,135,120,55,108.49,92,45.00,-61.00,-989.00
2024-05-19 08:11:38.500498,1,2,171,0,-1,0,78,80,133,120,55,108.55,92,71.00,-56.00,-991.00
2024-05-19 08:11:38.602961,2,2,171,0,0,0,78,80,134,120,55,109.16,92,56.00,-41.00,-1000.00
2024-05-19 08:11:38.705060,3,2,171,0,0,0,78,80,133,120,55,108.74,92,80.00,-54.00,-1000.00
2024-05-19 08:11:38.807404,3,2,172,0,0,0,76,79,134,120,55,108.55,92,61.00,-63.00,-1021.00
2024-05-19 08:11:38.910201,-4,2,172,0,0,0,76,79,133,120,55,108.54,92,55.00,-69.00,-997.00
2024-05-19 08:11:39.012460,-6,3,171,-2,0,0,76,79,133,120,55,108.69,93,34.00,-75.00,-1018.00
2024-05-19 08:11:39.111756,-6,3,172,-4,0,0,76,79,133,120,55,109.10,93,27.00,-67.00,-1007.00
2024-05-19 08:11:39.315295,-5,3,172,-5,0,0,76,79,133,120,55,108.86,93,29.00,-75.00,-990.00
2024-05-19 08:11:39.315816,-4,3,172,-6,0,0,76,79,132,120,55,108.85,93,18.00,-94.00,-989.00
2024-05-19 08:11:39.418027,-3,3,172,-7,1,0,76,79,133,120,55,108.74,93,22.00,-87.00,-1014.00
2024-05-19 08:11:39.520105,-2,3,172,-7,1,0,76,79,133,120,55,108.69,93,9.00,-70.00,-1027.00
2024-05-19 08:11:39.622480,0,4,172,-8,1,0,76,79,134,120,55,108.29,93,1.00,-63.00,-1000.00
2024-05-19 08:11:39.724901,2,4,172,-8,1,0,76,79,134,120,55,108.51,93,-11.00,-59.00,-1018.00
2024-05-19 08:11:39.827381,5,4,173,-7,1,0,77,80,135,120,55,108.66,93,-18.00,-83.00,-1000.00
2024-05-19 08:11:39.927874,6,3,172,-5,0,0,77,80,135,120,55,108.68,93,-1.00,-86.00,-1017.00
2024-05-19 08:11:40.030257,5,4,172,-4,0,0,77,80,135,120,55,108.73,94,28.00,-69.00,-1020.00
2024-05-19 08:11:40.131906,4,4,172,-4,1,0,77,80,134,120,55,108.66,94,27.00,-51.00,-1002.00
2024-05-19 08:11:40.236916,3,5,172,-4,0,0,77,80,134,120,55,108.59,94,24.00,-50.00,-971.00
2024-05-19 08:11:40.284673,3,4,172,-4,0,0,77,80,134,120,55,108.71,94,48.00,-58.00,-1002.00
2024-05-19 08:11:40.442156,3,2,172,-4,0,0,77,80,134,120,55,108.68,94,48.00,-63.00,-1000.00
2024-05-19 08:11:40.489795,7,4,172,-3,0,0,77,80,135,120,55,108.80,94,58.00,-46.00,-985.00
2024-05-19 08:11:40.646512,8,3,172,-3,0,0,77,80,136,120,55,108.70,94,56.00,-67.00,-1020.00
2024-05-19 08:11:40.693824,7,4,172,-2,0,0,77,80,135,120,55,108.60,94,55.00,-45.00,-973.00
2024-05-19 08:11:40.795899,5,4,172,-1,0,0,76,79,135,120,55,108.65,94,52.00,-53.00,-1001.00
2024-05-19 08:11:40.953862,4,3,172,-1,0,0,76,79,134,120,55,108.82,94,51.00,-57.00,-993.00
2024-05-19 08:11:40.999856,4,3,172,-1,0,0,76,79,133,120,55,108.55,95,62.00,-47.00,-1006.00
2024-05-19 08:11:41.158700,3,3,172,-1,0,0,76,79,134,120,55,108.82,95,61.00,-56.00,-991.00
2024-05-19 08:11:41.203798,4,3,172,-1,0,0,76,79,133,120,55,108.88,95,64.00,-64.00,-1000.00
2024-05-19 08:11:41.363421,4,3,172,-1,0,0,76,79,134,120,55,108.56,95,62.00,-60.00,-988.00
2024-05-19 08:11:41.407869,4,2,172,-1,0,0,76,79,133,120,55,108.64,95,61.00,-66.00,-987.00
2024-05-19 08:11:41.568219,5,2,172,0,0,0,76,79,133,120,55,108.47,95,52.00,-65.00,-1011.00
2024-05-19 08:11:41.611801,4,2,172,0,0,0,76,79,134,120,55,108.94,95,50.00,-53.00,-997.00
2024-05-19 08:11:41.772969,3,3,172,0,0,0,76,79,134,120,55,108.60,95,64.00,-54.00,-1001.00
2024-05-19 08:11:41.815778,3,3,172,0,0,0,77,80,133,120,55,108.48,95,44.00,-53.00,-991.00
2024-05-19 08:11:41.977778,3,2,172,0,0,0,77,80,133,120,55,108.76,95,35.00,-72.00,-993.00
2024-05-19 08:11:42.019932,3,2,172,0,0,0,77,80,133,120,55,108.92,96,40.00,-80.00,-1002.00
2024-05-19 08:11:42.182653,2,3,172,0,0,0,77,80,133,120,55,108.75,96,49.00,-93.00,-1009.00
2024-05-19 08:11:42.224496,2,3,172,0,0,0,77,80,133,120,55,108.84,96,61.00,-102.00,-973.00
2024-05-19 08:11:42.387442,2,4,172,0,0,0,77,80,133,120,55,108.86,96,9.00,-101.00,-976.00
2024-05-19 08:11:42.427823,2,5,172,0,0,0,77,80,133,120,55,108.77,96,-23.00,-68.00,-1011.00
2024-05-19 08:11:42.592079,2,6,172,1,0,0,77,80,132,120,55,108.66,96,-33.00,-46.00,-1010.00
2024-05-19 08:11:42.631716,0,5,172,1,0,0,77,80,131,110,55,108.58,96,1.00,-71.00,-1005.00
2024-05-19 08:11:42.748169,-2,2,172,1,0,0,77,80,130,110,55,108.76,96,10.00,-93.00,-1018.00
2024-05-19 08:11:42.835735,-1,2,172,1,0,0,77,79,130,110,55,108.58,96,11.00,-73.00,-1023.00
2024-05-19 08:11:43.001698,0,4,172,0,0,0,77,79,131,110,55,108.50,96,9.00,-45.00,-997.00
2024-05-19 08:11:43.039576,6,5,172,0,0,0,77,79,133,110,55,108.68,97,-33.00,-37.00,-1025.00
2024-05-19 08:11:43.206385,9,4,172,2,0,0,77,79,132,110,55,108.66,97,-4.00,-43.00,-1023.00
2024-05-19 08:11:43.243491,8,2,172,4,-1,0,77,79,131,110,55,108.31,97,13.00,-43.00,-990.00
2024-05-19 08:11:43.411250,6,2,172,5,-1,0,77,79,130,110,55,108.63,97,28.00,-69.00,-1009.00
2024-05-19 08:11:43.447653,5,2,172,6,-1,0,77,79,131,110,55,108.63,97,36.00,-62.00,-992.00
2024-05-19 08:11:43.616015,5,2,172,6,-1,0,77,79,130,110,55,108.67,97,35.00,-70.00,-997.00
2024-05-19 08:11:43.651592,6,2,172,7,0,0,77,79,131,110,55,108.71,97,29.00,-70.00,-1022.00
2024-05-19 08:11:43.820846,3,3,172,8,0,0,77,79,130,110,55,108.58,97,52.00,-57.00,-1016.00
2024-05-19 08:11:43.855755,0,4,172,8,-1,0,78,79,129,110,55,108.98,97,54.00,-51.00,-1010.00
2024-05-19 08:11:44.025645,-3,3,172,7,-1,0,78,79,129,110,55,108.52,97,54.00,-49.00,-1006.00
2024-05-19 08:11:44.059591,-4,2,172,6,-1,0,78,79,130,110,55,108.57,98,46.00,-59.00,-998.00
2024-05-19 08:11:44.230441,-3,2,172,4,0,0,78,79,129,110,55,108.70,98,30.00,-49.00,-1016.00
2024-05-19 08:11:44.263615,-1,3,172,4,0,0,78,79,129,110,55,108.89,98,28.00,-59.00,-999.00
2024-05-19 08:11:44.314550,-1,3,172,3,0,0,78,79,130,110,55,108.65,98,44.00,-51.00,-1021.00
2024-05-19 08:11:44.416524,0,3,172,3,0,0,78,79,130,110,55,108.82,98,27.00,-47.00,-996.00
2024-05-19 08:11:44.518826,0,3,172,3,0,0,78,79,130,110,55,108.42,98,16.00,-16.00,-993.00
2024-05-19 08:11:44.640031,0,3,172,3,0,0,78,79,130,110,55,108.57,98,-3.00,-28.00,-995.00
2024-05-19 08:11:44.722676,-3,2,172,3,0,0,78,79,131,110,55,108.80,98,45.00,-39.00,-984.00
2024-05-19 08:11:44.844838,-6,3,172,2,0,0,76,79,131,110,55,108.92,98,32.00,-36.00,-982.00
2024-05-19 08:11:44.926572,-2,2,172,0,0,0,76,79,130,110,55,108.69,98,-9.00,-63.00,-1006.00
2024-05-19 08:11:45.049851,-1,2,172,0,0,0,76,79,131,110,55,109.06,99,18.00,-54.00,-990.00
2024-05-19 08:11:45.130802,0,2,172,0,0,0,76,79,131,110,55,108.52,99,-4.00,-47.00,-1002.00
2024-05-19 08:11:45.254540,0,3,172,0,0,0,76,79,131,110,55,108.59,99,-11.00,-52.00,-1014.00
2024-05-19 08:11:45.334559,0,3,172,0,0,0,76,79,130,110,55,108.86,99,10.00,-41.00,-997.00
2024-05-19 08:11:45.436599,0,2,172,0,0,0,76,79,131,110,55,109.03,99,1.00,-27.00,-1001.00
2024-05-19 08:11:45.561826,0,2,172,0,0,0,76,79,131,110,55,108.76,99,10.00,-18.00,-1016.00
2024-05-19 08:11:45.640606,0,2,172,0,0,0,76,79,130,110,55,108.90,99,9.00,-40.00,-992.00
2024-05-19 08:11:45.766745,0,0,172,0,0,0,76,79,131,110,55,108.95,99,17.00,-24.00,-1001.00
2024-05-19 08:11:45.844656,0,1,172,0,0,0,76,79,131,110,55,108.85,99,-17.00,-51.00,-1010.00
2024-05-19 08:11:45.971990,1,0,172,0,0,0,76,79,132,120,55,108.71,99,-31.00,-43.00,-1001.00
2024-05-19 08:11:46.048594,0,0,172,0,0,0,76,79,132,120,55,108.94,100,7.00,-45.00,-973.00
2024-05-19 08:11:46.180618,0,2,172,0,0,0,76,79,133,120,55,108.75,100,-10.00,-56.00,-1008.00
2024-05-19 08:11:46.252680,0,2,172,0,0,0,76,79,133,120,55,109.02,100,5.00,-46.00,-923.00
2024-05-19 08:11:46.381133,0,3,172,0,0,0,76,79,134,120,55,108.64,100,11.00,-39.00,-981.00
2024-05-19 08:11:46.456943,0,2,172,0,0,0,76,79,132,120,55,109.21,100,21.00,-34.00,-979.00
2024-05-19 08:11:46.585917,0,2,172,0,0,0,76,79,133,120,55,108.92,100,5.00,-12.00,-973.00
2024-05-19 08:11:46.660644,1,2,172,0,0,0,76,79,132,120,55,108.99,100,-2.00,-24.00,-1000.00
2024-05-19 08:11:46.790833,1,0,173,0,0,0,76,79,134,120,55,108.96,100,22.00,-61.00,-1011.00
2024-05-19 08:11:46.864565,1,1,172,0,0,0,76,79,132,120,55,109.23,100,1.00,-19.00,-1034.00
2024-05-19 08:11:46.966479,1,2,172,0,0,0,76,79,131,120,55,108.88,101,-35.00,8.00,-995.00
2024-05-19 08:11:47.097718,0,0,172,0,0,0,76,79,132,120,55,108.80,101,-22.00,24.00,-983.00
2024-05-19 08:11:47.170556,-1,-7,172,1,0,0,76,79,132,120,55,108.77,101,-56.00,-7.00,-1026.00
2024-05-19 08:11:47.302520,-2,-7,172,1,1,0,76,79,133,120,55,109.10,101,-65.00,14.00,-1020.00
2024-05-19 08:11:47.374469,-3,-5,172,1,2,0,76,79,132,120,55,108.58,101,-60.00,5.00,-1017.00
2024-05-19 08:11:47.507357,-3,-1,172,1,2,0,76,79,133,120,55,109.05,101,-62.00,19.00,-990.00
2024-05-19 08:11:47.578431,-3,0,171,1,2,0,76,79,132,120,55,108.90,101,-41.00,-5.00,-969.00
2024-05-19 08:11:47.712049,-2,1,171,0,2,0,76,79,132,120,55,108.89,101,-52.00,-21.00,-991.00
2024-05-19 08:11:47.782745,-2,0,171,0,2,0,76,79,132,120,55,108.92,101,-38.00,-32.00,-997.00
2024-05-19 08:11:47.916922,-2,0,171,0,2,0,77,79,132,120,55,108.86,101,-26.00,-35.00,-1022.00
2024-05-19 08:11:47.986440,-2,1,172,0,2,0,77,79,133,120,55,108.86,102,-20.00,-27.00,-1016.00
2024-05-19 08:11:48.121706,-1,2,172,0,2,0,77,79,132,120,55,108.88,102,-30.00,-26.00,-1010.00
2024-05-19 08:11:48.139414,-1,2,172,0,2,0,77,79,132,120,55,109.07,102,-29.00,-41.00,-983.00
2024-05-19 08:11:48.326540,-1,1,172,0,2,0,77,79,133,120,55,109.03,102,-28.00,-30.00,-987.00
2024-05-19 08:11:48.343388,-1,2,173,0,2,0,77,79,132,120,55,108.80,102,-11.00,-20.00,-1014.00
2024-05-19 08:11:48.445710,-1,2,173,0,2,0,77,79,132,120,55,109.04,102,-34.00,0.00,-976.00
2024-05-19 08:11:48.634050,0,1,173,0,2,0,77,79,132,120,55,109.14,102,-11.00,5.00,-970.00
2024-05-19 08:11:48.649348,0,1,173,0,1,0,77,79,132,120,55,109.22,102,0.00,8.00,-974.00
2024-05-19 08:11:48.838506,0,0,173,0,1,0,77,79,130,120,55,109.04,102,-6.00,16.00,-1013.00
2024-05-19 08:11:48.853482,0,0,173,0,1,0,77,79,130,110,55,109.13,102,0.00,20.00,-998.00
2024-05-19 08:11:49.043322,0,-1,173,0,1,0,77,79,130,110,55,109.06,103,3.00,-12.00,-1016.00
2024-05-19 08:11:49.057424,0,-1,173,0,1,0,77,79,129,110,55,108.90,103,-9.00,-19.00,-1057.00
2024-05-19 08:11:49.248011,0,0,173,0,2,0,77,79,129,110,55,109.25,103,-20.00,-2.00,-1044.00
2024-05-19 08:11:49.261299,0,0,172,0,2,0,77,79,130,110,55,109.12,103,2.00,-19.00,-987.00
2024-05-19 08:11:49.363403,1,4,172,0,2,0,77,79,129,110,55,109.14,103,5.00,-26.00,-1058.00
2024-05-19 08:11:49.465837,0,6,172,0,0,0,77,79,131,110,55,108.88,103,18.00,-30.00,-1012.00
2024-05-19 08:11:49.657697,0,3,172,0,0,0,77,79,130,110,55,108.90,103,12.00,-37.00,-1025.00
2024-05-19 08:11:49.670659,1,2,172,0,0,0,77,79,130,110,55,109.26,103,4.00,-1.00,-990.00
2024-05-19 08:11:49.773885,1,1,172,0,0,0,77,79,132,120,55,109.06,103,32.00,-37.00,-1022.00
2024-05-19 08:11:49.873696,1,0,172,0,0,0,77,79,131,120,55,108.88,103,9.00,-18.00,-989.00
2024-05-19 08:11:50.067289,1,2,171,0,0,0,77,79,131,120,55,108.91,104,12.00,-12.00,-982.00
2024-05-19 08:11:50.077308,1,2,171,0,0,0,77,79,132,120,55,109.16,104,11.00,-1.00,-986.00
2024-05-19 08:11:50.272147,0,2,171,0,0,0,77,79,133,120,55,108.61,104,12.00,-3.00,-1005.00
2024-05-19 08:11:50.281461,1,0,171,0,0,0,77,79,132,120,55,108.87,104,5.00,-22.00,-1016.00
2024-05-19 08:11:50.476996,1,0,171,0,0,0,77,79,133,120,55,108.78,104,11.00,-12.00,-1004.00
2024-05-19 08:11:50.485572,1,0,171,0,0,0,77,79,132,120,55,109.13,104,17.00,-15.00,-958.00
2024-05-19 08:11:50.681917,2,0,171,0,0,0,77,79,133,120,55,109.33,104,12.00,-25.00,-985.00
2024-05-19 08:11:50.689245,2,0,170,0,0,0,77,79,132,120,55,108.88,104,-3.00,-36.00,-982.00
2024-05-19 08:11:50.886403,1,0,171,0,0,0,77,79,131,120,55,109.12,104,-1.00,-25.00,-980.00
2024-05-19 08:11:50.893441,0,2,171,0,0,0,77,79,131,120,55,108.92,104,-24.00,-16.00,-1035.00
2024-05-19 08:11:51.091482,0,1,171,0,0,0,77,79,131,110,55,108.95,105,-21.00,-19.00,-992.00
2024-05-19 08:11:51.097370,0,0,171,0,0,0,77,79,130,110,55,108.90,105,-23.00,-28.00,-1016.00
2024-05-19 08:11:51.296302,-1,0,171,0,0,0,77,79,130,110,55,108.77,105,-32.00,-30.00,-1027.00
2024-05-19 08:11:51.301345,-1,0,171,0,0,0,77,79,130,110,55,108.84,105,-30.00,-57.00,-989.00
2024-05-19 08:11:51.403403,-1,1,171,1,0,0,77,79,130,110,55,108.95,105,-33.00,-58.00,-980.00
2024-05-19 08:11:51.603535,-2,3,172,1,0,0,77,79,132,110,55,108.83,105,-56.00,-42.00,-994.00
2024-05-19 08:11:51.603779,-2,3,172,1,0,0,77,79,131,120,55,108.85,105,-36.00,-48.00,-1000.00
2024-05-19 08:11:51.658305,-2,1,172,0,0,0,77,79,131,120,55,108.67,105,-32.00,-58.00,-1007.00
2024-05-19 08:11:51.760107,-1,2,172,0,0,0,77,79,130,120,55,108.60,105,-48.00,-79.00,-1064.00
2024-05-19 08:11:51.910808,-1,9,172,1,0,0,75,79,133,120,55,108.84,105,-66.00,-50.00,-959.00
2024-05-19 08:11:51.964078,-1,8,172,1,0,0,75,79,134,120,55,108.68,106,-69.00,-53.00,-1033.00
2024-05-19 08:11:52.115182,-3,8,172,1,-1,0,75,79,134,120,55,109.06,106,-68.00,-51.00,-982.00
2024-05-19 08:11:52.168078,-4,7,172,1,-2,0,75,79,135,120,55,109.20,106,-89.00,-75.00,-994.00
2024-05-19 08:11:52.319945,-5,5,172,1,-2,0,75,79,135,120,55,109.33,106,-79.00,-83.00,-952.00
2024-05-19 08:11:52.372063,-6,3,172,1,-2,0,75,79,135,120,55,108.68,106,-73.00,-94.00,-997.00
2024-05-19 08:11:52.474056,-5,4,172,0,-1,0,75,79,135,120,55,108.77,106,-105.00,-75.00,-992.00
2024-05-19 08:11:52.627377,-5,4,172,0,-1,0,75,79,135,120,55,109.01,106,-92.00,-99.00,-969.00
2024-05-19 08:11:52.678047,-5,4,172,0,-1,0,75,79,135,120,55,109.06,106,-83.00,-104.00,-987.00
2024-05-19 08:11:52.831980,-5,5,172,0,-1,0,75,79,135,120,55,108.78,106,-83.00,-102.00,-979.00
2024-05-19 08:11:52.883075,-5,5,172,0,-1,0,76,79,135,120,55,108.81,106,-92.00,-94.00,-972.00
2024-05-19 08:11:53.036919,-5,5,172,0,-1,0,76,79,134,120,55,108.89,107,-89.00,-102.00,-988.00
2024-05-19 08:11:53.086129,-5,5,172,0,-1,0,76,79,134,120,55,108.70,107,-88.00,-98.00,-1000.00
2024-05-19 08:11:53.245869,-5,4,172,0,-1,0,76,79,135,120,55,108.84,107,-88.00,-111.00,-994.00
2024-05-19 08:11:53.290071,-5,4,172,0,-1,0,76,79,134,120,55,108.93,107,-74.00,-119.00,-1000.00
2024-05-19 08:11:53.446329,-5,5,172,0,-1,0,76,79,134,120,55,109.01,107,-104.00,-108.00,-993.00
2024-05-19 08:11:53.494053,-5,6,172,0,0,0,76,79,134,120,55,108.97,107,-100.00,-113.00,-989.00
2024-05-19 08:11:53.651161,-5,6,172,0,-1,0,76,79,134,120,55,108.89,107,-105.00,-103.00,-983.00
2024-05-19 08:11:53.698068,-5,6,172,0,-1,0,76,79,133,120,55,108.91,107,-101.00,-99.00,-998.00
2024-05-19 08:11:53.855938,-5,5,172,0,-1,0,76,79,133,120,55,108.68,107,-111.00,-106.00,-1002.00
2024-05-19 08:11:53.902117,-5,5,172,0,-1,0,77,80,135,120,55,108.97,107,-102.00,-94.00,-988.00
2024-05-19 08:11:54.060757,-5,5,172,0,-1,0,77,80,133,120,55,108.76,108,-83.00,-94.00,-958.00
2024-05-19 08:11:54.105959,-5,5,172,0,-1,0,77,80,134,120,55,109.19,108,-95.00,-104.00,-991.00
2024-05-19 08:11:54.265511,-4,5,172,0,-1,0,77,80,134,120,55,108.81,108,-72.00,-111.00,-984.00
2024-05-19 08:11:54.309968,-3,5,172,0,-1,0,77,80,133,120,55,109.18,108,-109.00,-101.00,-1025.00
2024-05-19 08:11:54.412009,-4,5,172,0,-1,0,77,80,134,120,55,108.34,108,-88.00,-115.00,-1002.00
2024-05-19 08:11:54.513955,-5,6,172,0,-1,0,77,80,135,120,55,108.62,108,-109.00,-122.00,-968.00
2024-05-19 08:11:54.675180,-5,6,172,0,0,0,77,80,135,120,55,108.84,108,-101.00,-121.00,-973.00
2024-05-19 08:11:54.717968,-5,6,172,0,0,0,77,80,135,120,55,109.06,108,-112.00,-128.00,-974.00
2024-05-19 08:11:54.879894,-5,6,172,0,0,0,77,80,135,120,55,108.87,108,-125.00,-123.00,-976.00
2024-05-19 08:11:54.922095,-5,7,172,0,0,0,77,80,135,120,55,108.53,108,-120.00,-122.00,-978.00
2024-05-19 08:11:55.084760,-5,7,172,0,0,0,77,80,134,120,55,108.95,109,-145.00,-106.00,-942.00
2024-05-19 08:11:55.125916,-6,6,172,0,-1,0,77,80,135,120,55,108.86,109,-145.00,-106.00,-969.00
2024-05-19 08:11:55.289547,-6,6,172,0,-1,0,77,80,135,120,55,108.87,109,-135.00,-102.00,-981.00
2024-05-19 08:11:55.289695,-6,6,171,0,-1,0,77,80,134,120,55,108.89,109,-110.00,-128.00,-994.00
2024-05-19 08:11:55.380873,-7,5,172,0,0,0,77,80,135,120,55,108.64,109,-112.00,-127.00,-988.00
2024-05-19 08:11:55.482897,-4,6,172,0,0,0,77,80,133,120,55,108.74,109,-135.00,-102.00,-1049.00
2024-05-19 08:11:55.598257,-2,7,172,0,0,0,77,80,132,120,55,108.56,109,-115.00,-92.00,-950.00
2024-05-19 08:11:55.686994,-6,4,172,1,-1,0,77,80,133,120,55,108.57,109,-86.00,-116.00,-1031.00
2024-05-19 08:11:55.801554,-9,1,172,0,0,0,77,80,134,120,55,108.65,109,-123.00,-93.00,-976.00
2024-05-19 08:11:55.890923,-8,4,172,0,0,0,77,79,134,120,55,109.07,109,-118.00,-97.00,-976.00
2024-05-19 08:11:56.006350,-8,4,172,0,0,0,77,79,132,120,55,108.80,110,-133.00,-86.00,-1010.00
2024-05-19 08:11:56.094876,-6,5,172,0,0,0,77,79,133,110,55,108.67,110,-130.00,-88.00,-1008.00
2024-05-19 08:11:56.211383,-3,4,172,0,0,0,77,79,132,110,55,108.78,110,-78.00,-86.00,-992.00
2024-05-19 08:11:56.299114,-4,4,172,0,0,0,77,79,132,110,55,108.90,110,-82.00,-68.00,-990.00
2024-05-19 08:11:56.416124,-5,4,172,0,0,0,77,79,133,110,55,108.91,110,-86.00,-114.00,-1019.00
2024-05-19 08:11:56.503038,-4,3,172,0,0,0,77,79,132,120,55,108.73,110,-96.00,-103.00,-988.00
2024-05-19 08:11:56.605297,-4,5,172,0,0,0,77,79,133,120,55,108.98,110,-59.00,-94.00,-979.00
2024-05-19 08:11:56.723564,-4,6,172,0,0,0,77,79,134,120,55,108.56,110,-81.00,-83.00,-990.00
2024-05-19 08:11:56.808955,-4,5,172,0,0,0,77,79,133,120,55,108.87,110,-95.00,-84.00,-983.00
2024-05-19 08:11:56.928181,-3,5,172,0,0,0,77,79,133,120,55,108.70,110,-87.00,-102.00,-996.00
2024-05-19 08:11:57.013053,-3,4,172,0,0,0,77,79,133,120,55,108.80,111,-99.00,-95.00,-986.00
2024-05-19 08:11:57.132905,-4,6,172,0,0,0,77,79,133,120,55,108.90,111,-104.00,-85.00,-974.00
2024-05-19 08:11:57.217272,-5,6,172,0,0,0,77,79,134,120,55,108.63,111,-106.00,-83.00,-1007.00
2024-05-19 08:11:57.337781,-4,6,172,0,0,0,77,79,134,120,55,108.60,111,-106.00,-93.00,-1000.00
2024-05-19 08:11:57.422007,-4,5,172,0,0,0,77,79,134,120,55,108.93,111,-122.00,-97.00,-968.00
2024-05-19 08:11:57.542567,-5,5,172,0,0,0,77,79,135,120,55,108.44,111,-120.00,-102.00,-984.00
2024-05-19 08:11:57.626078,-6,6,172,1,0,0,77,79,134,120,55,108.44,111,-137.00,-98.00,-973.00
2024-05-19 08:11:57.747330,-6,6,172,1,0,0,77,79,134,120,55,108.64,111,-122.00,-115.00,-967.00
2024-05-19 08:11:57.833924,-7,5,172,1,0,0,77,79,136,120,55,108.88,111,-98.00,-132.00,-989.00
2024-05-19 08:11:57.932005,-6,5,172,1,0,0,77,79,134,120,55,108.64,111,-112.00,-114.00,-966.00
2024-05-19 08:11:58.054567,-6,6,172,1,0,0,77,79,134,120,55,108.86,112,-115.00,-124.00,-1021.00
2024-05-19 08:11:58.136002,-6,6,172,1,0,0,77,79,133,120,55,108.77,112,-107.00,-120.00,-980.00
2024-05-19 08:11:58.237828,-5,6,172,1,0,0,77,79,132,110,55,108.58,112,-115.00,-108.00,-1008.00
2024-05-19 08:11:58.361631,-5,7,172,1,0,0,77,79,132,110,55,109.01,112,-75.00,-150.00,-989.00
2024-05-19 08:11:58.443102,-6,6,175,1,0,0,77,79,132,110,55,108.60,112,-119.00,-92.00,-976.00
2024-05-19 08:11:58.543877,-7,5,-178,1,0,0,77,79,132,110,55,108.43,112,-139.00,-84.00,-1050.00
2024-05-19 08:11:58.668822,-6,4,-172,1,0,0,77,79,132,110,55,108.46,112,-161.00,-49.00,-1034.00
2024-05-19 08:11:58.747866,-7,4,-165,1,0,0,77,79,133,110,55,108.37,112,-134.00,-47.00,-1008.00
2024-05-19 08:11:58.798799,-8,2,-159,1,0,0,77,79,134,110,55,108.54,112,-141.00,-34.00,-1003.00
2024-05-19 08:11:58.951877,-8,1,-154,1,0,0,77,79,136,120,55,107.97,112,-120.00,-24.00,-953.00
2024-05-19 08:11:59.078401,-8,0,-148,1,0,0,77,79,136,120,55,108.48,113,-129.00,-21.00,-960.00
2024-05-19 08:11:59.104865,-9,0,-142,1,0,0,77,79,137,120,55,108.79,113,-140.00,-36.00,-935.00
2024-05-19 08:11:59.206790,-9,0,-136,0,0,0,77,79,136,120,55,108.40,113,-155.00,21.00,-920.00
2024-05-19 08:11:59.385608,-9,0,-130,0,0,0,77,79,135,120,55,108.65,113,-171.00,55.00,-999.00
2024-05-19 08:11:59.411074,-8,0,-125,1,0,0,77,79,134,120,55,108.50,113,-166.00,67.00,-1047.00
2024-05-19 08:11:59.590423,-7,-2,-120,1,0,0,77,79,134,120,55,108.77,113,-159.00,116.00,-1020.00
2024-05-19 08:11:59.614877,-7,-3,-115,2,0,0,77,79,134,120,55,108.63,113,-122.00,93.00,-972.00
2024-05-19 08:11:59.795235,-7,-4,-109,2,0,0,77,79,134,120,55,108.61,113,-117.00,81.00,-962.00
2024-05-19 08:11:59.818779,-7,-5,-104,2,0,0,77,79,134,120,55,108.53,113,-114.00,105.00,-973.00
2024-05-19 08:11:59.920779,-6,-6,-99,1,0,0,77,79,134,120,55,108.58,113,-100.00,111.00,-962.00
2024-05-19 08:12:00.102417,-5,-7,-93,1,0,0,77,79,134,120,55,108.61,114,-90.00,117.00,-984.00
2024-05-19 08:12:00.124752,-5,-7,-88,1,0,0,77,79,131,110,55,108.64,114,-62.00,127.00,-995.00
2024-05-19 08:12:00.307328,-3,-7,-82,1,0,0,77,79,132,110,55,108.64,114,-63.00,157.00,-1058.00
2024-05-19 08:12:00.328738,-2,-6,-76,1,0,0,77,79,132,110,55,109.20,114,-37.00,126.00,-1017.00
2024-05-19 08:12:00.512025,-2,-8,-71,1,0,0,77,79,132,110,55,108.66,114,-34.00,137.00,-980.00
2024-05-19 08:12:00.532862,-2,-8,-65,1,0,0,77,79,132,110,55,108.74,114,-6.00,169.00,-984.00
2024-05-19 08:12:00.716804,-1,-8,-59,1,0,0,77,79,133,110,55,109.01,114,15.00,163.00,-991.00
2024-05-19 08:12:00.737153,0,-8,-53,2,0,0,77,79,134,110,55,108.72,114,-14.00,169.00,-977.00
2024-05-19 08:12:00.921600,2,-8,-48,1,0,0,77,79,133,120,55,108.89,114,19.00,151.00,-961.00
2024-05-19 08:12:00.940722,1,-8,-42,1,0,0,77,79,133,120,55,108.75,114,18.00,152.00,-981.00
2024-05-19 08:12:01.126380,2,-8,-37,1,0,0,77,79,133,120,55,108.94,115,48.00,130.00,-966.00
2024-05-19 08:12:01.144833,2,-8,-31,1,0,0,77,79,133,120,55,109.12,115,38.00,137.00,-995.00
2024-05-19 08:12:01.331189,4,-8,-26,1,0,0,77,79,134,120,55,108.93,115,21.00,160.00,-963.00
2024-05-19 08:12:01.348842,5,-8,-21,1,1,0,77,79,133,120,55,108.90,115,47.00,135.00,-979.00
2024-05-19 08:12:01.536184,5,-7,-15,0,1,0,77,79,133,120,55,108.91,115,62.00,130.00,-988.00
2024-05-19 08:12:01.553530,5,-7,-9,0,1,0,77,79,132,120,55,108.47,115,68.00,108.00,-1017.00
2024-05-19 08:12:01.740693,5,-6,-3,0,1,0,77,79,132,120,55,108.35,115,86.00,118.00,-1007.00
2024-05-19 08:12:01.756702,6,-6,2,0,1,0,77,79,133,120,55,108.83,115,105.00,105.00,-991.00
2024-05-19 08:12:01.892423,6,-5,8,0,1,0,77,79,133,120,55,108.86,115,133.00,96.00,-999.00
2024-05-19 08:12:01.960597,7,-4,15,0,1,0,77,78,133,120,55,108.44,115,109.00,101.00,-968.00
2024-05-19 08:12:02.150280,8,-4,21,0,0,0,77,78,133,120,55,108.85,116,123.00,87.00,-984.00
2024-05-19 08:12:02.164582,9,-3,28,0,0,0,77,78,134,120,55,108.27,116,158.00,61.00,-994.00
2024-05-19 08:12:02.355088,10,-2,34,0,0,0,77,78,135,120,55,108.48,116,149.00,29.00,-984.00
2024-05-19 08:12:02.368528,10,-1,41,-1,0,0,77,78,136,120,55,108.50,116,143.00,19.00,-991.00
2024-05-19 08:12:02.420479,11,0,43,-1,0,0,77,78,136,120,55,108.59,116,127.00,9.00,-970.00
2024-05-19 08:12:02.559983,12,0,43,-2,-1,0,77,78,136,120,55,108.00,116,130.00,17.00,-993.00
2024-05-19 08:12:02.623648,12,0,43,-2,-1,0,77,78,137,120,55,108.35,116,172.00,-26.00,-992.00
2024-05-19 08:12:02.764840,10,0,43,-2,-2,0,77,78,136,120,55,108.34,116,144.00,-2.00,-1007.00
2024-05-19 08:12:02.827708,9,0,43,-3,-2,0,77,78,137,120,55,108.15,116,139.00,-5.00,-1014.00
2024-05-19 08:12:03.072018,7,0,43,-3,-2,0,77,78,136,120,55,108.55,117,136.00,-3.00,-988.00
2024-05-19 08:12:03.085490,6,-1,43,-3,-2,0,77,78,136,120,55,108.15,117,131.00,-14.00,-966.00
2024-05-19 08:12:03.185008,6,0,43,-2,-2,0,77,78,137,120,55,108.54,117,130.00,-20.00,-965.00
2024-05-19 08:12:03.235931,5,0,43,-2,-2,0,77,78,138,120,55,108.78,117,141.00,-22.00,-1004.00
2024-05-19 08:12:03.379208,5,0,43,-1,-2,0,77,78,138,120,55,108.36,117,138.00,-26.00,-1013.00
2024-05-19 08:12:03.441076,5,1,43,-1,-1,0,77,78,138,120,55,108.40,117,159.00,-6.00,-982.00
2024-05-19 08:12:03.541612,6,0,43,-1,-1,0,77,78,138,120,55,108.52,117,161.00,-37.00,-982.00
2024-05-19 08:12:03.686419,7,0,43,0,-1,0,77,78,139,120,55,108.46,117,160.00,-39.00,-971.00
2024-05-19 08:12:03.745792,7,1,43,0,-1,0,77,78,140,120,55,108.59,117,142.00,-40.00,-1007.00
2024-05-19 08:12:03.891191,7,2,43,0,-1,0,77,78,139,120,55,108.19,117,142.00,-13.00,-956.00
2024-05-19 08:12:03.949517,7,2,43,0,-1,0,76,79,140,120,55,108.31,118,146.00,-18.00,-968.00
2024-05-19 08:12:04.096379,7,1,43,0,0,0,76,79,140,120,55,108.50,118,167.00,-18.00,-973.00
2024-05-19 08:12:04.153502,7,0,43,0,0,0,76,79,140,120,55,109.08,118,152.00,-46.00,-1002.00
2024-05-19 08:12:04.300739,7,1,43,0,-1,0,76,79,140,120,55,108.90,118,134.00,-55.00,-996.00
2024-05-19 08:12:04.357756,7,3,43,0,-1,0,76,79,140,120,55,108.52,118,152.00,-31.00,-976.00
2024-05-19 08:12:04.506106,7,2,42,0,0,0,76,79,139,120,55,108.70,118,108.00,-23.00,-974.00
2024-05-19 08:12:04.561665,7,1,36,0,0,0,76,79,139,120,55,108.12,118,129.00,-26.00,-991.00
2024-05-19 08:12:04.710293,7,0,30,0,0,0,76,79,138,120,55,108.29,118,154.00,-24.00,-990.00
2024-05-19 08:12:04.765470,7,1,24,0,0,0,76,79,139,120,55,108.25,118,152.00,26.00,-968.00
2024-05-19 08:12:04.914998,8,0,18,0,0,0,76,79,138,120,55,108.39,118,138.00,33.00,-975.00
2024-05-19 08:12:04.969332,7,-1,13,0,0,0,76,79,138,120,55,108.50,119,157.00,28.00,-1016.00
2024-05-19 08:12:05.119866,7,-3,7,0,0,0,76,79,138,120,55,108.50,119,150.00,36.00,-967.00
2024-05-19 08:12:05.173695,7,-2,2,0,0,0,76,79,138,120,55,108.63,119,152.00,59.00,-1018.00
2024-05-19 08:12:05.324646,6,-3,-3,0,0,0,76,79,137,120,55,108.50,119,182.00,77.00,-1011.00
2024-05-19 08:12:05.377315,8,-3,-9,1,0,0,76,79,138,120,55,108.69,119,125.00,101.00,-952.00
2024-05-19 08:12:05.479307,7,-4,-14,1,0,0,76,79,136,120,55,108.44,119,113.00,101.00,-959.00
2024-05-19 08:12:05.631867,6,-5,-20,0,0,0,76,79,136,120,55,108.55,119,136.00,109.00,-1009.00
2024-05-19 08:12:05.683304,5,-6,-26,1,0,0,76,79,136,120,55,108.73,119,119.00,120.00,-974.00
2024-05-19 08:12:05.836749,5,-7,-31,1,0,0,76,79,135,120,55,108.81,119,98.00,112.00,-986.00
2024-05-19 08:12:05.887463,4,-7,-37,1,0,0,76,79,133,120,55,109.08,119,97.00,125.00,-988.00
2024-05-19 08:12:06.041447,4,-8,-43,1,0,0,77,79,133,120,55,108.69,120,57.00,119.00,-958.00
2024-05-19 08:12:06.091267,3,-8,-49,1,0,0,77,79,132,110,55,108.73,120,55.00,154.00,-1027.00
2024-05-19 08:12:06.246239,2,-8,-54,1,0,0,77,79,132,110,55,108.78,120,27.00,149.00,-991.00
2024-05-19 08:12:06.295274,1,-8,-60,1,0,0,77,79,132,110,55,108.96,120,12.00,168.00,-1014.00
2024-05-19 08:12:06.397455,0,-8,-66,0,0,0,77,79,131,110,55,108.90,120,22.00,154.00,-997.00
2024-05-19 08:12:06.499256,-1,-8,-71,1,0,0,77,79,130,110,55,108.95,120,-10.00,157.00,-987.00
2024-05-19 08:12:06.655860,-1,-8,-77,0,0,0,77,79,130,110,55,108.42,120,-39.00,142.00,-1024.00
2024-05-19 08:12:06.655947,-2,-9,-83,0,0,0,77,79,130,110,55,108.80,120,-33.00,118.00,-1004.00
2024-05-19 08:12:06.754293,-3,-7,-88,0,0,0,77,79,130,110,55,108.98,120,-44.00,130.00,-1019.00
2024-05-19 08:12:06.860641,-4,-7,-95,0,0,0,77,79,131,110,55,108.56,120,-67.00,114.00,-1020.00
2024-05-19 08:12:06.960358,-5,-6,-101,0,0,0,76,78,131,110,55,108.50,121,-96.00,111.00,-1015.00
2024-05-19 08:12:07.060308,-6,-5,-108,0,0,0,76,78,132,110,55,108.71,121,-101.00,118.00,-965.00
2024-05-19 08:12:07.168536,-7,-5,-114,0,0,0,76,78,132,110,55,108.61,121,-105.00,89.00,-981.00
2024-05-19 08:12:07.264257,-7,-4,-120,0,0,0,76,78,133,110,55,108.57,121,-133.00,60.00,-991.00
2024-05-19 08:12:07.366175,-8,-3,-127,0,0,0,76,78,133,110,55,108.26,121,-128.00,28.00,-963.00
2024-05-19 08:12:07.475518,-9,-2,-133,0,0,0,76,78,133,110,55,108.49,121,-142.00,22.00,-969.00
2024-05-19 08:12:07.570178,-9,0,-139,0,0,0,76,78,134,120,55,108.51,121,-139.00,8.00,-962.00
2024-05-19 08:12:07.679829,-8,1,-146,0,0,0,76,78,134,110,55,108.10,121,-148.00,-5.00,-985.00
2024-05-19 08:12:07.774170,-8,2,-151,0,0,0,76,78,134,110,55,108.21,121,-151.00,-19.00,-1010.00
2024-05-19 08:12:07.884629,-7,3,-157,0,0,0,76,78,134,110,55,108.27,121,-159.00,-14.00,-1014.00
2024-05-19 08:12:07.978154,-7,3,-163,0,0,0,76,78,135,120,55,108.26,122,-124.00,-27.00,-1017.00
2024-05-19 08:12:08.090705,-7,3,-168,0,0,0,76,78,135,120,55,108.33,122,-135.00,-39.00,-1009.00
2024-05-19 08:12:08.182171,-7,4,-174,0,0,0,76,78,136,120,55,108.53,122,-141.00,-63.00,-1008.00
2024-05-19 08:12:08.294230,-6,4,-179,0,0,0,76,78,136,120,55,108.31,122,-121.00,-82.00,-973.00
2024-05-19 08:12:08.386254,-6,5,174,0,0,0,76,78,137,120,55,108.37,122,-88.00,-120.00,-967.00
2024-05-19 08:12:08.488187,-5,5,169,0,0,0,76,78,137,120,55,108.46,122,-98.00,-120.00,-1014.00
2024-05-19 08:12:08.601415,-3,7,163,0,0,0,76,78,137,120,55,108.43,122,-102.00,-110.00,-947.00
2024-05-19 08:12:08.696686,-3,8,158,0,0,0,76,78,139,120,55,108.58,122,-91.00,-125.00,-978.00
2024-05-19 08:12:08.797158,-3,7,152,0,0,0,76,78,138,120,55,108.66,122,-55.00,-154.00,-979.00
2024-05-19 08:12:08.901153,-3,8,146,0,0,0,76,78,137,120,55,108.61,122,-35.00,-148.00,-969.00
2024-05-19 08:12:09.001628,-1,8,141,0,0,0,76,79,137,120,55,108.70,123,-42.00,-154.00,-967.00
2024-05-19 08:12:09.102715,0,8,135,0,0,0,76,79,137,120,55,108.85,123,14.00,-184.00,-990.00
2024-05-19 08:12:09.203218,0,8,129,0,0,0,76,79,135,120,55,109.00,123,28.00,-179.00,-976.00
2024-05-19 08:12:09.305442,0,8,123,0,1,0,76,79,136,120,55,108.87,123,53.00,-151.00,-1031.00
2024-05-19 08:12:09.406092,1,8,117,0,1,0,76,79,136,120,55,108.65,123,84.00,-139.00,-1006.00
2024-05-19 08:12:09.509517,3,7,110,0,1,0,76,79,135,120,55,108.70,123,87.00,-126.00,-989.00
2024-05-19 08:12:09.634718,4,7,104,0,2,0,76,79,135,120,55,108.90,123,132.00,-120.00,-1009.00
2024-05-19 08:12:09.720604,5,6,98,0,2,0,76,79,135,120,55,108.63,123,152.00,-116.00,-985.00
2024-05-19 08:12:09.814066,7,5,91,0,2,0,76,79,136,120,55,108.53,123,129.00,-92.00,-987.00
2024-05-19 08:12:09.932610,7,4,84,0,2,0,76,79,136,120,55,108.68,123,139.00,-79.00,-978.00
2024-05-19 08:12:10.018233,8,3,78,0,2,0,76,78,135,120,55,109.06,124,139.00,-61.00,-976.00
2024-05-19 08:12:10.137402,8,2,71,0,2,0,76,78,136,120,55,108.69,124,144.00,-55.00,-981.00
2024-05-19 08:12:10.222079,8,1,65,0,2,0,76,78,136,120,55,108.74,124,146.00,-63.00,-983.00
2024-05-19 08:12:10.342213,8,0,59,1,2,0,76,78,136,120,55,108.46,124,155.00,-33.00,-979.00
2024-05-19 08:12:10.426101,8,0,55,1,2,0,76,78,136,120,55,108.41,124,139.00,-20.00,-979.00
2024-05-19 08:12:10.527997,8,0,52,1,2,0,76,78,136,120,55,108.37,124,138.00,-18.00,-979.00
2024-05-19 08:12:10.581540,8,0,49,1,1,0,76,78,135,120,55,108.33,124,134.00,-21.00,-988.00
2024-05-19 08:12:10.681323,8,0,48,1,1,0,76,78,135,120,55,108.19,124,141.00,-15.00,-985.00
2024-05-19 08:12:10.854225,8,0,47,1,1,0,76,78,136,120,55,108.36,124,153.00,0.00,-976.00
2024-05-19 08:12:10.885147,8,0,46,1,1,0,76,78,135,120,55,108.26,124,149.00,9.00,-995.00
2024-05-19 08:12:11.059495,8,0,45,1,1,0,76,79,135,120,55,108.25,125,161.00,-4.00,-976.00
2024-05-19 08:12:11.089035,8,0,45,1,1,0,76,79,135,120,55,108.24,125,163.00,3.00,-987.00
2024-05-19 08:12:11.263980,8,0,45,2,1,0,76,79,135,120,55,108.38,125,159.00,17.00,-996.00
2024-05-19 08:12:11.293307,9,0,45,2,1,0,76,79,135,120,55,108.43,125,130.00,24.00,-975.00
2024-05-19 08:12:11.468802,9,0,45,1,1,0,76,79,135,120,55,108.29,125,142.00,26.00,-981.00
2024-05-19 08:12:11.497645,8,0,45,1,1,0,76,79,135,120,55,108.01,125,143.00,23.00,-1010.00
2024-05-19 08:12:11.673536,8,-1,45,1,1,0,76,79,134,120,55,108.18,125,150.00,2.00,-988.00
2024-05-19 08:12:11.702785,8,-1,45,1,0,0,76,79,134,120,55,107.91,125,146.00,13.00,-992.00
2024-05-19 08:12:11.803290,8,0,45,1,0,0,76,79,134,120,55,108.50,125,139.00,35.00,-958.00
2024-05-19 08:12:11.905567,10,0,45,1,1,0,76,79,133,120,55,108.57,125,139.00,16.00,-998.00
2024-05-19 08:12:12.083145,9,0,45,0,0,0,76,79,133,120,55,108.05,126,149.00,10.00,-998.00
2024-05-19 08:12:12.109381,8,-1,45,0,0,0,76,79,132,120,55,108.45,126,157.00,6.00,-990.00
2024-05-19 08:12:12.288003,8,-1,45,0,0,0,76,79,132,110,55,108.65,126,156.00,18.00,-987.00
2024-05-19 08:12:12.313072,10,0,45,1,0,0,76,79,132,110,55,108.47,126,160.00,12.00,-992.00
2024-05-19 08:12:12.492875,10,-1,45,0,0,0,76,79,132,110,55,108.52,126,143.00,31.00,-990.00
2024-05-19 08:12:12.518841,10,0,45,0,0,0,76,79,132,110,55,108.71,126,129.00,30.00,-1004.00
2024-05-19 08:12:12.619174,11,0,45,0,0,0,76,79,132,110,55,108.67,126,129.00,41.00,-990.00
2024-05-19 08:12:12.800038,12,0,45,0,0,0,76,79,132,110,55,108.46,126,149.00,55.00,-1002.00
2024-05-19 08:12:12.823001,12,-1,45,-1,0,0,76,79,132,110,55,108.68,126,109.00,64.00,-988.00
2024-05-19 08:12:13.004663,13,-2,45,-2,-1,0,76,79,132,110,55,108.60,126,117.00,54.00,-1004.00
2024-05-19 08:12:13.027186,13,-3,45,-3,-2,0,77,79,133,110,55,108.37,127,110.00,70.00,-1009.00
2024-05-19 08:12:13.129116,12,-4,45,-3,-2,0,77,79,134,110,55,108.47,127,116.00,56.00,-1024.00
2024-05-19 08:12:13.313254,10,-5,45,-4,-3,0,77,79,132,110,55,108.41,127,145.00,39.00,-991.00
2024-05-19 08:12:13.332976,7,-4,45,-3,-4,0,77,79,132,110,55,108.20,127,123.00,39.00,-982.00
2024-05-19 08:12:13.518152,6,-3,45,-3,-4,0,77,79,132,110,55,108.33,127,101.00,42.00,-974.00
2024-05-19 08:12:13.536953,5,-2,45,-3,-4,0,77,79,131,110,55,108.47,127,123.00,43.00,-981.00
2024-05-19 08:12:13.721544,4,-2,45,-3,-4,0,77,79,132,110,55,108.48,127,106.00,31.00,-1004.00
2024-05-19 08:12:13.740945,4,-2,45,-3,-3,0,77,79,131,120,55,108.43,127,113.00,40.00,-990.00
2024-05-19 08:12:13.927464,4,-2,45,-2,-3,0,77,79,132,120,55,108.26,127,114.00,-1.00,-993.00
2024-05-19 08:12:13.945592,4,-3,45,-2,-3,0,77,79,132,120,55,108.37,127,91.00,10.00,-1002.00
2024-05-19 08:12:14.131371,3,0,45,-1,-3,0,77,79,130,120,55,108.27,128,88.00,21.00,-993.00
2024-05-19 08:12:14.148763,3,0,45,-1,-3,0,77,79,132,120,55,108.45,128,104.00,9.00,-996.00
2024-05-19 08:12:14.251920,3,0,45,-1,-3,0,77,79,132,120,55,108.50,128,53.00,45.00,-977.00
2024-05-19 08:12:14.438308,2,0,45,-1,-2,0,77,79,131,120,55,108.37,128,67.00,28.00,-993.00
2024-05-19 08:12:14.454942,1,-1,45,-1,-2,0,77,79,132,110,55,108.49,128,78.00,5.00,-1044.00
2024-05-19 08:12:14.643118,1,-1,45,-1,-2,0,77,79,132,110,55,108.49,128,96.00,-5.00,-1006.00
2024-05-19 08:12:14.658980,2,0,45,0,-2,0,77,79,132,110,55,108.28,128,85.00,0.00,-1008.00
2024-05-19 08:12:14.709956,2,0,45,0,-2,0,77,79,133,120,55,108.37,128,81.00,2.00,-996.00
2024-05-19 08:12:14.848050,3,1,45,0,-1,0,77,79,134,120,55,108.39,128,85.00,-11.00,-984.00
2024-05-19 08:12:14.914030,3,0,45,0,-1,0,77,79,134,120,55,108.45,128,83.00,-22.00,-988.00
2024-05-19 08:12:15.052787,3,0,45,0,-1,0,76,79,135,120,55,108.05,129,77.00,-28.00,-997.00
2024-05-19 08:12:15.118103,3,1,45,0,-1,0,76,79,136,120,55,108.34,129,103.00,-16.00,-982.00
2024-05-19 08:12:15.257626,4,1,45,0,-1,0,76,79,135,120,55,108.52,129,83.00,-11.00,-981.00
2024-05-19 08:12:15.321958,4,1,45,0,0,0,76,79,136,120,55,108.43,129,91.00,-8.00,-994.00
2024-05-19 08:12:15.462323,4,1,45,0,0,0,76,79,136,120,55,108.32,129,91.00,-4.00,-1015.00
2024-05-19 08:12:15.525940,4,1,45,0,0,0,76,79,135,120,55,108.15,129,106.00,-8.00,-994.00
2024-05-19 08:12:15.667153,5,1,45,0,0,0,76,79,136,120,55,108.74,129,101.00,-20.00,-1001.00
2024-05-19 08:12:15.730348,5,0,45,0,0,0,76,79,137,120,55,108.46,129,126.00,-15.00,-997.00
2024-05-19 08:12:15.876732,6,1,45,0,0,0,76,79,137,120,55,108.41,129,134.00,-17.00,-986.00
2024-05-19 08:12:15.933975,7,1,45,0,0,0,76,79,137,120,55,108.42,129,103.00,-39.00,-982.00
2024-05-19 08:12:16.076841,7,1,45,0,0,0,76,79,138,120,55,108.54,130,125.00,-27.00,-982.00
2024-05-19 08:12:16.137797,8,1,45,0,0,0,76,79,138,120,55,108.59,130,123.00,-44.00,-966.00
2024-05-19 08:12:16.281444,8,2,46,0,0,0,76,79,137,120,55,108.68,130,127.00,-26.00,-956.00
2024-05-19 08:12:16.341851,2,6,45,0,1,-1,76,79,140,120,55,108.65,130,133.00,-49.00,-1044.00
2024-05-19 08:12:16.486386,0,7,45,0,3,-7,76,79,160,120,55,109.00,130,160.00,0.00,-1542.00
2024-05-19 08:12:16.545768,0,47,46,0,6,-12,76,79,6553,130,55,108.86,130,165.00,-10.00,-1659.00
2024-05-19 08:12:16.691036,0,168,43,-5,13,-3,76,79,6553,140,55,108.61,130,159.00,97.00,-1505.00
2024-05-19 08:12:16.749978,6,-66,50,-1,10,10,76,79,155,140,55,108.85,130,130.00,894.00,-1170.00
2024-05-19 08:12:16.895905,-4,9,61,1,8,11,76,79,141,130,55,108.80,130,159.00,794.00,-1226.00
2024-05-19 08:12:16.953921,0,-1,68,0,11,9,76,79,132,120,55,108.86,130,172.00,218.00,-914.00
2024-05-19 08:12:17.100926,9,1,83,3,9,2,76,79,128,110,55,108.72,131,25.00,-61.00,-1258.00
2024-05-19 08:12:17.158123,7,3,80,3,7,0,76,79,125,100,55,108.45,131,-10.00,-54.00,-1196.00
2024-05-19 08:12:17.305609,7,2,69,3,6,0,76,79,126,100,55,108.58,131,56.00,-65.00,-1107.00
2024-05-19 08:12:17.361839,7,2,57,3,5,-1,76,79,126,110,55,108.62,131,86.00,-46.00,-1072.00
2024-05-19 08:12:17.510631,7,2,46,3,4,-2,76,79,129,110,55,108.31,131,104.00,-60.00,-1001.00
2024-05-19 08:12:17.565901,7,2,44,3,4,-2,76,79,131,110,55,108.66,131,76.00,-20.00,-961.00
2024-05-19 08:12:17.715217,7,2,44,3,4,-1,76,79,134,110,55,108.73,131,70.00,-13.00,-959.00
2024-05-19 08:12:17.773382,7,1,45,2,4,-1,76,79,135,110,55,108.66,131,84.00,-28.00,-957.00
2024-05-19 08:12:17.871890,7,0,45,2,3,0,76,79,137,110,55,108.67,131,78.00,-24.00,-959.00
2024-05-19 08:12:17.974035,7,1,45,2,3,0,76,79,138,110,55,108.34,132,97.00,-29.00,-977.00
2024-05-19 08:12:18.124799,7,1,45,2,2,0,76,79,137,110,55,108.73,132,85.00,-32.00,-977.00
2024-05-19 08:12:18.178549,7,1,45,2,2,0,76,79,138,110,55,108.51,132,90.00,-8.00,-978.00
2024-05-19 08:12:18.329569,6,0,45,1,2,0,76,79,138,110,55,108.52,132,83.00,-25.00,-985.00
2024-05-19 08:12:18.381825,6,0,45,1,2,0,76,79,139,110,55,108.50,132,82.00,-40.00,-974.00
2024-05-19 08:12:18.485627,6,0,45,1,2,0,76,79,139,110,55,108.66,132,91.00,-29.00,-1001.00
2024-05-19 08:12:18.586264,6,1,45,1,1,0,76,79,139,110,55,108.58,132,82.00,-2.00,-1001.00
2024-05-19 08:12:18.637884,6,0,45,1,2,0,76,79,139,110,55,108.64,132,109.00,-7.00,-1010.00
2024-05-19 08:12:18.738888,6,0,45,1,2,0,76,79,139,110,55,108.55,132,110.00,-8.00,-999.00
2024-05-19 08:12:18.841530,7,0,45,1,2,0,76,79,140,110,55,108.88,132,136.00,0.00,-983.00
2024-05-19 08:12:18.943902,8,-1,45,1,2,0,76,79,140,120,55,108.67,133,145.00,5.00,-982.00
2024-05-19 08:12:19.049882,8,-1,45,1,2,0,77,80,141,120,55,108.47,133,126.00,-4.00,-983.00
2024-05-19 08:12:19.148752,8,0,45,1,2,0,77,80,141,120,54,108.33,133,145.00,20.00,-972.00
2024-05-19 08:12:19.248827,8,-1,45,1,2,0,77,80,143,120,54,108.26,133,163.00,-10.00,-1017.00
2024-05-19 08:12:19.353505,9,0,45,1,2,0,77,80,142,120,54,108.95,133,158.00,37.00,-928.00
2024-05-19 08:12:19.452687,8,0,45,1,2,0,77,80,142,120,54,108.87,133,165.00,77.00,-981.00
2024-05-19 08:12:19.554759,7,-1,45,0,3,0,77,80,141,120,54,109.00,133,167.00,66.00,-1005.00
2024-05-19 08:12:19.660769,7,-2,45,0,3,0,77,80,141,120,54,108.76,133,167.00,40.00,-994.00
2024-05-19 08:12:19.758764,7,-4,45,1,3,0,77,80,142,120,54,108.65,133,157.00,18.00,-1013.00
2024-05-19 08:12:19.865440,-2,-2,45,2,3,-2,77,80,142,120,54,108.79,133,220.00,62.00,-1431.00
2024-05-19 08:12:19.962643,-7,0,45,4,6,-8,77,80,145,120,54,108.97,134,135.00,78.00,-1753.00
2024-05-19 08:12:20.070258,-57,2,43,7,10,-12,76,79,171,130,54,109.25,134,399.00,32.00,-1663.00
2024-05-19 08:12:20.166588,-3,179,-130,13,17,-2,76,79,6553,140,54,109.64,134,690.00,96.00,-957.00
2024-05-19 08:12:20.277001,66,-14,30,11,16,11,76,79,6553,140,54,109.11,134,698.00,112.00,-1155.00
2024-05-19 08:12:20.370533,-29,10,35,8,13,13,76,79,154,130,54,108.79,134,572.00,130.00,-1157.00
2024-05-19 08:12:20.472599,-54,31,23,13,21,16,76,79,281,110,54,109.11,134,89.00,85.00,-809.00
2024-05-19 08:12:20.582202,0,3,37,16,28,16,76,79,139,90,54,108.99,134,-15.00,16.00,-1459.00
2024-05-19 08:12:20.676549,12,-8,25,14,25,14,76,79,113,80,54,109.50,134,-71.00,-88.00,-1504.00
2024-05-19 08:12:20.787000,5,-9,12,13,21,9,76,79,98,70,54,108.90,134,54.00,-73.00,-1529.00
2024-05-19 08:12:20.880768,3,-7,-2,13,18,5,76,79,88,60,54,108.73,134,47.00,-21.00,-1400.00
2024-05-19 08:12:20.982559,2,-7,-14,12,16,1,76,79,83,60,54,108.23,135,59.00,-11.00,-1275.00
2024-05-19 08:12:21.094192,2,-7,-22,12,14,0,76,79,82,60,54,108.56,135,40.00,-11.00,-1146.00
2024-05-19 08:12:21.187545,2,-7,-27,10,13,-1,76,79,83,60,53,108.18,135,0.00,-8.00,-1109.00
2024-05-19 08:12:21.288638,1,-7,-26,9,12,-1,76,79,85,60,53,108.36,135,17.00,23.00,-1012.00
2024-05-19 08:12:21.401382,3,-6,-15,8,11,-1,76,79,87,60,53,108.32,135,40.00,48.00,-997.00
2024-05-19 08:12:21.492614,5,-6,1,8,11,-1,76,79,90,60,53,108.42,135,43.00,49.00,-1000.00
2024-05-19 08:12:21.610349,6,-5,17,7,10,-1,76,79,91,60,53,108.27,135,79.00,42.00,-991.00
2024-05-19 08:12:21.696636,8,-3,33,7,10,-1,76,79,92,60,53,108.41,135,103.00,48.00,-956.00
2024-05-19 08:12:21.811207,8,-1,46,7,9,-1,76,79,93,70,53,108.73,135,81.00,55.00,-973.00
2024-05-19 08:12:21.900694,8,0,49,6,9,0,76,79,93,70,53,108.22,135,45.00,43.00,-966.00
2024-05-19 08:12:22.015800,8,-1,47,6,9,0,76,79,94,70,53,108.38,136,76.00,6.00,-929.00
2024-05-19 08:12:22.104916,9,-1,47,5,8,0,77,79,93,70,53,108.64,136,84.00,7.00,-967.00
2024-05-19 08:12:22.220581,9,-1,47,5,7,0,77,79,91,70,53,108.35,136,71.00,6.00,-977.00
2024-05-19 08:12:22.259513,9,-1,47,5,7,1,77,79,90,60,53,108.30,136,87.00,8.00,-997.00
2024-05-19 08:12:22.359412,9,-1,47,4,6,1,77,79,88,60,53,108.27,136,71.00,29.00,-1007.00
2024-05-19 08:12:22.528502,9,0,47,4,6,1,77,79,86,60,53,108.21,136,69.00,13.00,-1023.00
2024-05-19 08:12:22.563477,8,-1,47,3,5,1,77,79,85,60,53,108.07,136,74.00,0.00,-1056.00
2024-05-19 08:12:22.732603,8,-1,46,3,5,0,77,79,84,60,53,108.01,136,138.00,-13.00,-1019.00
2024-05-19 08:12:22.767859,8,-1,46,3,5,0,77,79,84,60,53,108.35,136,145.00,11.00,-948.00
2024-05-19 08:12:22.937383,8,0,46,3,5,0,77,79,83,60,53,108.37,136,151.00,58.00,-972.00
2024-05-19 08:12:22.971991,8,0,46,3,5,0,77,79,82,60,53,108.15,137,170.00,64.00,-978.00
2024-05-19 08:12:23.142117,8,0,46,3,6,0,76,79,81,60,53,108.20,137,129.00,53.00,-1014.00
2024-05-19 08:12:23.175592,8,-1,46,2,6,0,76,79,81,60,52,108.49,137,105.00,57.00,-1025.00
2024-05-19 08:12:23.277980,8,-3,46,2,6,0,76,79,80,60,52,108.12,137,127.00,23.00,-1040.00
2024-05-19 08:12:23.382556,5,-3,46,2,5,0,76,79,80,50,52,107.83,137,114.00,42.00,-985.00
2024-05-19 08:12:23.481550,8,-2,46,3,6,0,76,79,81,50,52,108.32,137,173.00,98.00,-926.00
2024-05-19 08:12:23.654514,9,-1,46,3,7,0,76,79,81,50,52,108.00,137,170.00,112.00,-983.00
2024-05-19 08:12:23.685471,8,-2,46,2,7,0,76,79,81,50,52,107.94,137,167.00,122.00,-994.00
2024-05-19 08:12:23.859041,8,-3,46,2,8,0,76,79,80,50,52,108.62,137,174.00,85.00,-984.00
2024-05-19 08:12:23.889443,8,-3,46,2,8,0,76,79,80,50,52,108.36,137,142.00,93.00,-991.00
2024-05-19 08:12:23.991533,8,-3,46,1,8,0,76,79,80,50,52,107.77,138,161.00,70.00,-1001.00
2024-05-19 08:12:24.166491,8,-4,46,1,8,0,77,79,79,50,52,108.18,138,130.00,78.00,-998.00
2024-05-19 08:12:24.195574,8,-4,45,1,8,0,77,79,79,50,52,108.18,138,121.00,68.00,-997.00
