TS,pitch,roll,yaw,vgx,vgy,vgz,templ,temph,tof,h,bat,baro,time,agx,agy,agz
2024-05-19 08:14:08.613297,-1,1,-11,0,0,0,85,88,10,0,48,107.13,152,-23.00,-23.00,-998.00
2024-05-19 08:14:08.695409,-1,1,-11,0,0,0,85,88,10,0,48,107.26,152,-23.00,-26.00,-999.00
2024-05-19 08:14:08.818062,-1,1,-11,0,0,0,85,88,10,0,48,107.41,152,-25.00,-25.00,-997.00
2024-05-19 08:14:08.899188,-1,1,-11,0,0,0,85,88,10,0,48,107.46,152,-25.00,-23.00,-997.00
2024-05-19 08:14:09.022743,-1,1,-11,0,0,0,85,88,10,0,48,107.20,152,-22.00,-24.00,-998.00
2024-05-19 08:14:09.103149,-1,1,-11,0,0,0,85,88,10,0,48,107.27,152,-24.00,-25.00,-1001.00
2024-05-19 08:14:09.205676,-1,1,-11,0,0,0,85,88,10,0,48,107.68,152,-24.00,-24.00,-998.00
2024-05-19 08:14:09.307269,-1,1,-11,0,0,0,85,88,10,0,48,107.59,152,-24.00,-25.00,-1001.00
2024-05-19 08:14:09.432442,-1,1,-11,0,0,0,85,88,10,0,48,107.28,152,-22.00,-25.00,-997.00
2024-05-19 08:14:09.511461,-1,1,-11,0,0,0,85,88,10,0,48,107.64,152,-23.00,-24.00,-998.00
2024-05-19 08:14:09.637197,-1,1,-11,0,0,0,86,88,10,0,48,107.45,152,-24.00,-26.00,-1002.00
2024-05-19 08:14:09.715217,-1,1,-11,0,0,0,86,88,10,0,48,107.30,152,-24.00,-24.00,-1000.00
2024-05-19 08:14:09.841887,-1,1,-11,0,0,0,86,88,10,0,48,107.49,152,-23.00,-25.00,-1002.00
2024-05-19 08:14:09.919253,-1,1,-11,0,0,0,86,88,10,0,48,107.62,152,-24.00,-26.00,-999.00
2024-05-19 08:14:10.046772,-1,1,-11,0,0,0,86,88,10,0,48,107.32,152,-21.00,-27.00,-998.00
2024-05-19 08:14:10.123170,-1,1,-11,0,0,0,86,88,10,0,48,107.32,152,-23.00,-25.00,-999.00
2024-05-19 08:14:10.174655,-1,1,-11,0,0,0,86,88,10,0,48,107.56,152,-24.00,-25.00,-996.00
2024-05-19 08:14:10.353929,-1,1,-11,0,0,0,86,88,10,0,48,107.15,152,-24.00,-24.00,-1000.00
2024-05-19 08:14:10.378374,-1,1,-11,0,0,0,86,88,10,0,48,107.31,152,-24.00,-25.00,-997.00
2024-05-19 08:14:10.480071,-1,1,-11,0,0,0,86,88,10,0,48,107.40,152,-22.00,-24.00,-1001.00
2024-05-19 08:14:10.661082,-1,1,-11,0,0,0,86,88,10,0,48,107.60,152,-23.00,-24.00,-999.00
2024-05-19 08:14:10.684031,-1,1,-11,0,0,0,86,88,10,0,48,107.29,152,-22.00,-24.00,-1000.00
2024-05-19 08:14:10.866057,-1,1,-11,0,0,0,86,88,10,0,48,107.37,152,-23.00,-23.00,-1001.00
2024-05-19 08:14:10.888098,-1,1,-11,0,0,0,86,88,10,0,48,107.37,152,-24.00,-24.00,-998.00
2024-05-19 08:14:11.070794,-1,1,-11,0,0,0,86,88,10,0,48,107.47,152,-24.00,-24.00,-999.00
2024-05-19 08:14:11.092185,-1,1,-11,0,0,0,86,88,10,0,48,107.77,152,-23.00,-25.00,-998.00
2024-05-19 08:14:11.275697,-1,1,-11,0,0,0,86,88,10,0,48,107.59,152,-23.00,-24.00,-999.00
2024-05-19 08:14:11.296095,-1,1,-11,0,0,0,86,88,10,0,48,107.18,152,-24.00,-24.00,-999.00
2024-05-19 08:14:11.480489,-1,1,-11,0,0,0,86,88,10,0,48,107.32,152,-24.00,-25.00,-998.00
2024-05-19 08:14:11.500021,-1,1,-11,0,0,0,86,88,10,0,48,107.31,152,-24.00,-25.00,-998.00
2024-05-19 08:14:11.685264,-1,1,-11,0,0,0,86,88,10,0,48,107.36,152,-24.00,-25.00,-999.00
2024-05-19 08:14:11.704082,-1,1,-11,0,0,0,86,88,10,0,48,107.47,152,-23.00,-24.00,-1000.00
2024-05-19 08:14:11.890045,-1,1,-11,0,0,0,86,88,10,0,48,107.70,152,-23.00,-25.00,-1000.00
2024-05-19 08:14:11.908873,-1,1,-11,0,0,0,86,88,10,0,48,107.28,152,-24.00,-24.00,-1001.00
2024-05-19 08:14:12.010260,-1,1,-11,0,0,0,86,88,10,0,48,107.31,152,-24.00,-24.00,-998.00
2024-05-19 08:14:12.197147,-1,1,-11,0,0,0,86,88,10,0,48,107.38,152,-24.00,-23.00,-1002.00
2024-05-19 08:14:12.214283,-1,1,-11,0,0,0,86,88,10,0,48,107.73,152,-24.00,-25.00,-998.00
2024-05-19 08:14:12.401845,-1,1,-11,0,0,0,86,88,10,0,48,107.65,152,-23.00,-25.00,-1002.00
2024-05-19 08:14:12.418049,-1,1,-11,0,0,0,86,88,10,0,48,107.72,152,-24.00,-23.00,-999.00
2024-05-19 08:14:12.606871,-1,1,-11,0,0,0,86,88,10,0,48,107.43,152,-23.00,-24.00,-998.00
2024-05-19 08:14:12.621948,-1,1,-11,0,0,0,86,88,10,0,48,107.31,152,-23.00,-24.00,-999.00
2024-05-19 08:14:12.811666,-1,1,-11,0,0,0,86,88,10,0,48,107.58,152,-23.00,-25.00,-997.00
2024-05-19 08:14:12.825917,-1,1,-11,0,0,0,86,88,10,0,48,107.29,152,-25.00,-24.00,-1000.00
2024-05-19 08:14:12.932803,-1,1,-11,0,0,0,86,88,10,0,48,107.50,152,-23.00,-24.00,-998.00
2024-05-19 08:14:13.030234,-1,1,-11,0,0,0,86,88,10,0,48,107.47,152,-24.00,-24.00,-999.00
2024-05-19 08:14:13.221237,-1,1,-11,0,0,0,86,88,10,0,48,107.20,152,-25.00,-25.00,-999.00
2024-05-19 08:14:13.234301,-1,1,-11,0,0,0,86,88,10,0,48,107.47,152,-25.00,-24.00,-998.00
2024-05-19 08:14:13.426020,-1,1,-11,0,0,0,86,88,10,0,48,107.47,152,-26.00,-24.00,-999.00
2024-05-19 08:14:13.438006,-1,1,-11,0,0,0,86,88,10,0,48,107.27,152,-24.00,-24.00,-998.00
2024-05-19 08:14:13.630886,-1,1,-11,0,0,0,86,88,10,0,48,107.25,152,-24.00,-25.00,-999.00
2024-05-19 08:14:13.642007,-1,1,-11,0,0,0,86,88,10,0,48,107.58,152,-24.00,-25.00,-999.00
2024-05-19 08:14:13.835802,-1,1,-11,0,0,0,86,88,10,0,48,107.39,152,-24.00,-24.00,-996.00
2024-05-19 08:14:13.836029,-1,1,-11,0,0,0,86,88,10,0,48,107.22,152,-23.00,-25.00,-997.00
2024-05-19 08:14:13.897052,-1,1,-11,0,0,0,86,88,10,0,48,107.38,152,-24.00,-26.00,-1000.00
2024-05-19 08:14:14.040541,-1,1,-11,0,0,0,86,88,10,0,48,107.08,152,-24.00,-24.00,-999.00
2024-05-19 08:14:14.100988,-1,1,-11,0,0,0,86,88,10,0,48,107.41,152,-24.00,-24.00,-1002.00
2024-05-19 08:14:14.245271,-1,1,-11,0,0,0,86,88,10,0,48,107.41,152,-24.00,-25.00,-1002.00
2024-05-19 08:14:14.305063,-1,1,-11,0,0,0,86,88,10,0,48,107.67,152,-25.00,-24.00,-997.00
2024-05-19 08:14:14.450042,-1,1,-11,0,0,0,86,88,10,0,48,107.26,152,-25.00,-24.00,-1000.00
2024-05-19 08:14:14.509103,-1,1,-11,0,0,0,86,88,10,0,48,107.32,152,-25.00,-26.00,-1000.00
2024-05-19 08:14:14.654827,-1,1,-11,0,0,0,86,88,10,0,48,107.62,152,-24.00,-25.00,-1001.00
2024-05-19 08:14:14.713004,-1,1,-11,0,0,0,86,88,10,0,48,107.04,152,-25.00,-25.00,-998.00
2024-05-19 08:14:14.859683,-1,1,-11,0,0,0,86,88,10,0,48,107.23,152,-24.00,-26.00,-1000.00
2024-05-19 08:14:14.916980,-1,1,-11,0,0,0,86,88,10,0,48,107.66,152,-24.00,-24.00,-1001.00
2024-05-19 08:14:15.018926,-1,1,-11,0,0,0,86,88,10,0,48,107.55,152,27.00,3.00,-959.00
2024-05-19 08:14:15.166735,-1,1,-11,0,0,0,86,88,10,0,48,107.55,152,-24.00,-15.00,-984.00
2024-05-19 08:14:15.222907,-1,1,-11,0,0,0,86,88,10,0,48,107.55,152,-8.00,-35.00,-1007.00
2024-05-19 08:14:15.371563,-1,1,-11,0,0,0,86,88,10,0,48,107.55,152,-19.00,-31.00,-991.00
2024-05-19 08:14:15.427707,-1,1,-11,0,0,0,86,88,10,0,48,107.55,152,-32.00,-40.00,-1034.00
2024-05-19 08:14:15.528946,-1,1,-11,0,0,0,86,88,10,0,48,107.55,152,-4.00,-14.00,-1087.00
2024-05-19 08:14:15.678729,0,0,-12,0,0,0,87,89,10,0,48,107.55,153,-3.00,-7.00,-1203.00
2024-05-19 08:14:15.732849,1,-2,-12,0,0,-2,87,89,10,0,48,107.55,153,14.00,-14.00,-1304.00
2024-05-19 08:14:15.883505,0,1,-12,0,0,-5,87,89,15,0,48,107.55,153,11.00,-44.00,-1195.00
2024-05-19 08:14:15.936829,0,2,-12,0,0,-7,87,89,24,0,48,107.98,153,-21.00,-46.00,-1093.00
2024-05-19 08:14:16.088270,0,2,-12,0,0,-8,87,89,28,10,48,108.01,153,-37.00,-47.00,-1042.00
2024-05-19 08:14:16.140827,0,3,-12,0,0,-8,87,89,38,20,48,108.51,153,-41.00,-21.00,-986.00
2024-05-19 08:14:16.293121,-1,3,-12,0,0,-8,87,89,47,30,48,108.30,153,-23.00,-52.00,-933.00
2024-05-19 08:14:16.344884,-1,2,-12,0,0,-7,87,89,54,30,48,108.26,153,-24.00,-66.00,-891.00
2024-05-19 08:14:16.497932,-1,2,-12,0,0,-6,87,89,62,40,48,108.03,153,-34.00,-61.00,-850.00
2024-05-19 08:14:16.549868,-1,3,-12,0,0,-5,87,89,68,50,48,108.19,153,-36.00,-69.00,-867.00
2024-05-19 08:14:16.702738,-1,4,-12,0,0,-4,86,89,72,50,48,108.24,154,-97.00,-41.00,-859.00
2024-05-19 08:14:16.754192,-2,4,-12,-1,0,-2,86,89,76,50,48,108.39,154,-85.00,-55.00,-860.00
2024-05-19 08:14:16.909306,-4,3,-12,-1,0,-1,86,89,79,60,48,108.20,154,-83.00,-59.00,-889.00
2024-05-19 08:14:16.957813,-5,3,-12,-1,0,0,86,89,80,60,48,108.30,154,-89.00,-49.00,-950.00
2024-05-19 08:14:17.009565,-5,3,-12,-1,0,0,86,89,82,60,48,108.54,154,-80.00,-38.00,-952.00
2024-05-19 08:14:17.112300,-5,3,-12,-1,0,0,86,89,82,60,48,108.32,154,-82.00,-61.00,-1004.00
2024-05-19 08:14:17.212924,-6,3,-12,-1,0,0,86,89,83,60,48,108.67,154,-99.00,-61.00,-993.00
2024-05-19 08:14:17.314805,-6,4,-12,-1,0,0,86,89,84,60,48,108.65,154,-115.00,-75.00,-979.00
2024-05-19 08:14:17.419549,-6,4,-12,-1,0,0,86,89,85,60,48,108.31,154,-123.00,-60.00,-997.00
2024-05-19 08:14:17.518757,-7,4,-12,-1,0,0,86,89,85,60,48,108.38,154,-124.00,-62.00,-986.00
2024-05-19 08:14:17.624244,-8,3,-12,-1,0,0,86,89,86,60,48,108.46,155,-124.00,-60.00,-987.00
2024-05-19 08:14:17.722776,-8,4,-12,-1,0,0,86,89,87,60,48,108.29,155,-124.00,-73.00,-974.00
2024-05-19 08:14:17.829104,-7,4,-12,0,0,0,86,89,88,60,48,108.27,155,-113.00,-66.00,-1013.00
2024-05-19 08:14:17.926728,-7,4,-12,0,0,0,86,89,87,70,48,108.53,155,-124.00,-52.00,-1022.00
2024-05-19 08:14:18.028724,-7,3,-12,0,0,0,86,89,88,70,48,108.37,155,-130.00,-39.00,-1001.00
2024-05-19 08:14:18.130834,-7,2,-12,0,0,0,86,89,88,70,48,108.18,155,-118.00,-38.00,-954.00
2024-05-19 08:14:18.238689,-7,2,-12,0,0,0,86,89,88,70,48,108.30,155,-131.00,-64.00,-967.00
2024-05-19 08:14:18.334724,-7,3,-12,0,0,0,86,89,88,70,48,108.71,155,-103.00,-62.00,-978.00
2024-05-19 08:14:18.443657,-6,3,-13,0,0,0,86,89,87,70,48,108.49,155,-92.00,-63.00,-975.00
2024-05-19 08:14:18.538719,-5,3,-12,0,0,0,86,89,86,70,48,108.51,155,-85.00,-62.00,-952.00
2024-05-19 08:14:18.648345,-5,3,-12,1,0,0,86,89,85,70,48,108.57,156,-84.00,-77.00,-1002.00
2024-05-19 08:14:18.742646,-4,3,-12,1,0,0,86,89,84,70,48,108.37,156,-95.00,-60.00,-997.00
2024-05-19 08:14:18.853281,-3,3,-12,0,0,0,86,89,82,60,48,108.34,156,-114.00,-88.00,-1031.00
2024-05-19 08:14:18.946799,-4,4,-12,0,0,0,86,89,82,60,48,108.29,156,-133.00,-67.00,-972.00
2024-05-19 08:14:19.057832,-6,3,-12,0,0,0,86,89,82,60,48,108.33,156,-116.00,-83.00,-1008.00
2024-05-19 08:14:19.150679,-6,4,-12,0,0,0,86,89,81,60,48,108.36,156,-123.00,-78.00,-987.00
2024-05-19 08:14:19.252728,-6,4,-12,0,0,0,86,89,80,60,48,108.32,156,-103.00,-92.00,-1005.00
2024-05-19 08:14:19.354703,-5,5,-12,0,0,0,86,89,80,60,48,108.55,156,-85.00,-78.00,-991.00
2024-05-19 08:14:19.467539,-5,5,-12,0,0,0,86,89,80,60,48,108.25,156,-76.00,-74.00,-1004.00
2024-05-19 08:14:19.558708,-5,5,-12,0,0,0,86,89,79,60,48,108.50,157,-91.00,-72.00,-1010.00
2024-05-19 08:14:19.672280,-4,4,-12,0,0,0,87,88,79,60,48,108.39,157,-81.00,-70.00,-1014.00
2024-05-19 08:14:19.762623,-4,4,-12,0,0,0,87,88,79,60,48,108.23,157,-103.00,-78.00,-963.00
2024-05-19 08:14:19.865159,-5,4,-12,0,0,0,87,88,78,60,48,108.37,157,-90.00,-66.00,-992.00
2024-05-19 08:14:19.966624,-4,3,-12,0,0,0,87,88,79,60,48,108.25,157,-93.00,-67.00,-1003.00
2024-05-19 08:14:20.081903,-4,3,-12,0,0,0,87,88,79,60,48,108.12,157,-104.00,-71.00,-1033.00
2024-05-19 08:14:20.170560,-5,3,-12,0,0,0,87,88,79,60,48,107.98,157,-98.00,-64.00,-1019.00
2024-05-19 08:14:20.286720,-5,3,-12,0,0,0,87,88,78,60,48,108.30,157,-102.00,-56.00,-1024.00
2024-05-19 08:14:20.374595,-5,3,-12,0,0,0,87,88,79,60,48,108.24,157,-92.00,-64.00,-1002.00
2024-05-19 08:14:20.476625,-5,3,-12,0,0,0,87,88,79,60,48,108.21,157,-91.00,-63.00,-984.00
2024-05-19 08:14:20.578912,-4,3,-12,0,0,0,87,88,79,60,48,108.48,158,-97.00,-59.00,-992.00
2024-05-19 08:14:20.680789,-4,2,-12,0,0,0,86,88,78,60,48,108.21,158,-118.00,-68.00,-1024.00
2024-05-19 08:14:20.798705,-4,3,-12,0,0,0,86,88,79,60,48,108.46,158,-116.00,-66.00,-983.00
2024-05-19 08:14:20.884725,-5,3,-12,0,0,0,86,88,79,60,48,108.24,158,-106.00,-65.00,-990.00
2024-05-19 08:14:20.936277,-6,3,-12,0,0,0,86,88,79,60,48,108.23,158,-110.00,-61.00,-999.00
2024-05-19 08:14:21.106127,-6,3,-12,0,0,0,86,88,79,60,48,108.18,158,-108.00,-77.00,-982.00
2024-05-19 08:14:21.139675,-5,3,-12,0,0,0,86,88,79,60,48,108.33,158,-110.00,-52.00,-999.00
2024-05-19 08:14:21.241693,-5,3,-12,0,0,0,86,88,79,60,48,108.17,158,-102.00,-57.00,-1001.00
2024-05-19 08:14:21.343693,-5,3,-12,0,0,0,86,88,79,60,48,108.26,158,-105.00,-43.00,-988.00
2024-05-19 08:14:21.515739,-6,3,-12,0,0,0,86,88,79,60,48,108.22,158,-106.00,-59.00,-995.00
2024-05-19 08:14:21.547564,-6,2,-12,0,0,0,86,88,79,60,48,107.96,159,-111.00,-49.00,-970.00
2024-05-19 08:14:21.720328,-6,2,-12,0,0,0,85,88,79,60,48,108.08,159,-117.00,-35.00,-949.00
2024-05-19 08:14:21.751515,-7,2,-12,0,0,0,85,88,79,60,48,107.87,159,-92.00,-40.00,-992.00
2024-05-19 08:14:21.925277,-6,2,-12,0,0,0,85,88,79,60,48,108.42,159,-97.00,-43.00,-1007.00
2024-05-19 08:14:21.955532,-5,1,-12,0,0,0,85,88,78,60,48,108.00,159,-125.00,-66.00,-1007.00
2024-05-19 08:14:22.130968,-5,2,-12,0,0,0,85,88,78,60,48,108.30,159,-120.00,-66.00,-987.00
2024-05-19 08:14:22.159538,-6,3,-12,0,0,0,85,88,78,60,48,108.19,159,-130.00,-44.00,-998.00
2024-05-19 08:14:22.261561,-7,3,-12,0,0,0,85,88,78,60,48,108.09,159,-121.00,-38.00,-999.00
2024-05-19 08:14:22.437562,-7,2,-12,0,0,0,85,88,79,60,48,108.17,159,-147.00,-55.00,-1023.00
2024-05-19 08:14:22.465407,-7,2,-12,0,0,0,85,88,79,60,48,107.95,159,-141.00,-60.00,-978.00
2024-05-19 08:14:22.567447,-7,2,-12,0,0,0,85,88,79,60,48,108.01,160,-132.00,-56.00,-967.00
2024-05-19 08:14:22.744315,-8,3,-12,0,0,0,85,88,79,60,48,108.11,160,-135.00,-39.00,-1014.00
2024-05-19 08:14:22.771382,-7,2,-12,0,0,0,85,88,79,60,48,108.29,160,-123.00,-53.00,-1070.00
2024-05-19 08:14:22.949281,-7,2,-12,0,0,-1,85,88,80,60,48,108.31,160,-120.00,-69.00,-1077.00
2024-05-19 08:14:22.975460,-7,2,-12,0,0,-2,85,88,83,60,48,107.90,160,-113.00,-61.00,-1091.00
2024-05-19 08:14:23.153858,-6,2,-12,0,0,-3,85,88,86,70,48,108.08,160,-125.00,-91.00,-1065.00
2024-05-19 08:14:23.179544,-5,3,-12,0,0,-3,85,88,90,70,48,108.16,160,-117.00,-78.00,-1074.00
2024-05-19 08:14:23.358679,-5,4,-12,0,0,-4,85,88,95,70,48,108.24,160,-142.00,-56.00,-1079.00
2024-05-19 08:14:23.383776,-6,4,-12,0,0,-5,85,88,100,80,48,108.39,160,-133.00,-53.00,-1073.00
2024-05-19 08:14:23.563508,-6,4,-12,0,0,-5,85,88,106,80,48,108.49,160,-137.00,-39.00,-992.00
2024-05-19 08:14:23.587423,-6,3,-12,0,0,-5,85,88,113,90,48,108.29,161,-123.00,-47.00,-986.00
2024-05-19 08:14:23.768259,-6,3,-12,0,0,-5,85,88,118,100,48,108.55,161,-115.00,-29.00,-978.00
2024-05-19 08:14:23.791311,-6,1,-12,0,0,-5,85,88,124,100,48,108.30,161,-123.00,-41.00,-989.00
2024-05-19 08:14:23.893797,-5,1,-12,0,0,-5,85,88,131,110,48,108.38,161,-127.00,-59.00,-990.00
2024-05-19 08:14:24.075472,-6,2,-12,0,0,-5,85,88,135,110,48,108.44,161,-155.00,-59.00,-903.00
2024-05-19 08:14:24.097461,-7,2,-12,0,0,-5,85,88,141,120,48,108.28,161,-153.00,-77.00,-971.00
2024-05-19 08:14:24.280240,-7,2,-12,0,0,-5,85,88,148,120,48,108.96,161,-154.00,-97.00,-967.00
2024-05-19 08:14:24.301321,-6,3,-12,-1,0,-5,85,88,154,130,48,108.56,161,-179.00,-82.00,-968.00
2024-05-19 08:14:24.352434,-7,4,-12,-1,0,-4,85,88,158,130,48,108.63,161,-219.00,-11.00,-925.00
2024-05-19 08:14:24.455056,-8,3,-12,-2,0,-4,85,88,164,140,48,108.80,161,-198.00,-26.00,-928.00
2024-05-19 08:14:24.556323,-9,1,-12,-2,0,-3,85,88,166,140,48,108.81,162,-171.00,-72.00,-925.00
2024-05-19 08:14:24.689804,-9,2,-12,-2,0,-2,85,87,170,150,48,109.10,162,-165.00,-63.00,-953.00
2024-05-19 08:14:24.760349,-8,2,-12,-2,0,-2,85,87,172,150,48,108.51,162,-143.00,-75.00,-927.00
2024-05-19 08:14:24.895121,-8,2,-12,-3,0,-2,85,87,174,150,48,109.05,162,-146.00,-69.00,-951.00
2024-05-19 08:14:24.964328,-8,3,-12,-3,0,-1,85,87,175,150,48,108.90,162,-154.00,-75.00,-973.00
2024-05-19 08:14:25.099622,-8,3,-12,-3,0,-1,85,87,178,150,48,108.76,162,-148.00,-82.00,-973.00
2024-05-19 08:14:25.168405,-8,3,-12,-3,0,-1,85,87,179,160,48,108.96,162,-148.00,-58.00,-940.00
2024-05-19 08:14:25.304347,-7,3,-12,-3,0,-1,85,87,181,160,48,108.81,162,-147.00,-70.00,-978.00
2024-05-19 08:14:25.372394,-7,3,-12,-3,0,0,85,87,181,160,48,108.71,162,-158.00,-61.00,-952.00
2024-05-19 08:14:25.509097,-8,3,-12,-3,0,0,85,87,184,160,48,109.07,162,-153.00,-59.00,-969.00
2024-05-19 08:14:25.576212,-8,3,-12,-3,0,0,85,87,183,160,48,108.62,163,-162.00,-47.00,-953.00
2024-05-19 08:14:25.713820,-7,3,-12,-3,0,0,86,87,183,160,48,108.77,163,-164.00,-67.00,-967.00
2024-05-19 08:14:25.780448,-8,3,-12,-4,0,0,86,87,185,160,48,108.64,163,-150.00,-77.00,-941.00
2024-05-19 08:14:25.919201,-8,3,-12,-4,-1,0,86,87,184,160,48,109.02,163,-144.00,-69.00,-994.00
2024-05-19 08:14:25.984349,-8,3,-12,-4,-1,0,86,87,183,160,48,108.77,163,-159.00,-61.00,-1004.00
2024-05-19 08:14:26.123611,-7,3,-12,-4,-1,0,86,87,184,160,48,108.77,163,-180.00,-60.00,-991.00
2024-05-19 08:14:26.188372,-7,4,-12,-4,-1,0,86,87,182,160,48,108.73,163,-172.00,-67.00,-995.00
2024-05-19 08:14:26.328424,-7,3,-12,-4,-1,0,86,87,181,160,48,108.72,163,-187.00,-74.00,-986.00
2024-05-19 08:14:26.392398,-8,3,-12,-5,-1,0,86,87,181,160,48,108.54,163,-168.00,-44.00,-996.00
2024-05-19 08:14:26.494642,-7,3,-12,-5,-1,0,86,87,182,160,48,108.74,163,-137.00,-67.00,-1001.00
2024-05-19 08:14:26.635652,-7,3,-12,-5,-1,0,86,87,180,160,48,108.39,164,-171.00,-34.00,-1076.00
2024-05-19 08:14:26.698433,-5,2,-12,-6,0,0,85,87,182,160,48,108.43,164,-136.00,-28.00,-989.00
2024-05-19 08:14:26.840376,-8,3,-12,-6,0,0,85,87,184,160,48,108.80,164,-161.00,-51.00,-919.00
2024-05-19 08:14:26.902374,-9,3,-12,-6,0,0,85,87,186,160,48,108.95,164,-162.00,-87.00,-921.00
2024-05-19 08:14:27.045166,-9,3,-12,-6,-1,0,85,87,185,160,48,108.81,164,-155.00,-79.00,-980.00
2024-05-19 08:14:27.106283,-8,3,-12,-6,-1,0,85,87,185,160,48,108.77,164,-166.00,-65.00,-974.00
2024-05-19 08:14:27.249775,-7,3,-12,-6,-1,0,85,87,185,160,48,108.70,164,-171.00,-69.00,-971.00
2024-05-19 08:14:27.310162,-9,4,-12,-6,-1,0,85,87,184,160,48,109.10,164,-129.00,-79.00,-920.00
2024-05-19 08:14:27.412567,-9,4,-12,-6,-1,1,85,87,183,160,48,108.75,164,-123.00,-53.00,-970.00
2024-05-19 08:14:27.557106,-8,4,-12,-6,-1,1,85,87,182,160,48,108.93,164,-139.00,-31.00,-923.00
2024-05-19 08:14:27.617080,-8,5,-12,-5,0,2,85,87,183,160,48,108.96,165,-140.00,15.00,-968.00
2024-05-19 08:14:27.761806,-8,4,-13,-5,0,2,84,86,178,150,48,108.50,165,-134.00,-26.00,-992.00
2024-05-19 08:14:27.820216,-8,2,-13,-5,0,2,84,86,174,150,48,108.77,165,-114.00,-65.00,-986.00
2024-05-19 08:14:27.922308,-8,2,-12,-5,0,2,84,86,172,150,48,108.38,165,-132.00,-22.00,-976.00
2024-05-19 08:14:28.024183,-8,3,-12,-5,0,2,84,86,169,150,48,108.67,165,-125.00,-32.00,-974.00
2024-05-19 08:14:28.171414,-7,2,-12,-5,0,3,84,86,166,140,48,108.66,165,-142.00,-72.00,-1035.00
2024-05-19 08:14:28.177922,-7,2,-12,-5,0,2,84,86,165,140,48,108.59,165,-161.00,-55.00,-965.00
2024-05-19 08:14:28.280045,-8,3,-12,-5,0,2,84,86,163,140,48,108.45,165,-144.00,-57.00,-985.00
2024-05-19 08:14:28.478600,-9,3,-12,-5,0,2,84,86,161,140,48,108.61,165,-144.00,-48.00,-1011.00
2024-05-19 08:14:28.484911,-9,3,-12,-4,0,2,84,86,158,130,48,108.32,165,-157.00,-64.00,-1028.00
2024-05-19 08:14:28.585386,-10,4,-12,-4,0,2,84,86,158,130,48,108.82,166,-144.00,-67.00,-935.00
2024-05-19 08:14:28.687147,-12,4,-13,-4,0,2,84,87,156,130,48,108.80,166,-146.00,-46.00,-965.00
2024-05-19 08:14:28.888218,-12,5,-13,-3,0,2,84,87,154,130,48,108.59,166,-152.00,2.00,-1009.00
2024-05-19 08:14:28.891756,-12,5,-13,-2,0,2,84,87,151,120,48,108.46,166,-151.00,-3.00,-1061.00
2024-05-19 08:14:28.993706,-12,3,-13,-1,1,2,84,87,149,120,48,108.46,166,-141.00,-28.00,-1047.00
2024-05-19 08:14:29.095215,-13,3,-13,0,1,2,84,87,147,120,48,108.75,166,-160.00,-21.00,-1052.00
2024-05-19 08:14:29.197234,-13,4,-12,0,1,1,84,87,147,120,48,108.78,166,-152.00,-50.00,-1051.00
2024-05-19 08:14:29.400316,-14,3,-13,1,1,0,84,87,145,120,48,108.86,166,-154.00,-53.00,-1047.00
2024-05-19 08:14:29.400943,-14,3,-13,2,1,0,84,87,147,120,48,108.54,166,-147.00,-49.00,-1031.00
2024-05-19 08:14:29.605338,-15,4,-13,3,1,0,84,87,147,120,48,108.97,166,-144.00,-53.00,-935.00
2024-05-19 08:14:29.605469,-16,4,-13,5,1,0,84,87,148,120,48,108.68,167,-176.00,-81.00,-1000.00
2024-05-19 08:14:29.707825,-16,4,-13,6,1,0,84,87,146,120,48,108.69,167,-166.00,-70.00,-982.00
2024-05-19 08:14:29.809637,-16,4,-13,7,1,0,84,87,146,120,48,108.40,167,-152.00,-68.00,-1053.00
2024-05-19 08:14:29.912554,-17,5,-13,9,1,0,84,87,145,120,48,108.32,167,-168.00,-69.00,-878.00
2024-05-19 08:14:30.015021,-17,5,-13,10,1,1,84,87,144,120,48,108.46,167,-209.00,-90.00,-1076.00
2024-05-19 08:14:30.115477,-16,5,-13,11,0,0,84,87,143,120,48,108.44,167,-191.00,-69.00,-1008.00
2024-05-19 08:14:30.217150,-13,5,-12,12,0,0,84,87,139,110,48,108.17,167,-217.00,-68.00,-1015.00
2024-05-19 08:14:30.319629,-8,3,-12,11,1,0,84,87,136,110,48,108.22,167,-245.00,-65.00,-1035.00
2024-05-19 08:14:30.421189,-8,2,-12,10,1,0,84,87,136,120,48,108.53,167,-243.00,-57.00,-908.00
2024-05-19 08:14:30.526742,-9,2,-12,9,1,0,84,87,138,120,48,108.18,167,-184.00,-57.00,-996.00
2024-05-19 08:14:30.625191,-10,2,-12,9,1,0,84,87,137,120,48,108.24,168,-188.00,-30.00,-944.00
2024-05-19 08:14:30.731610,-8,2,-12,9,1,0,84,86,134,120,48,107.88,168,-195.00,-23.00,-939.00
2024-05-19 08:14:30.829488,-7,1,-12,8,1,0,84,86,134,120,48,108.41,168,-192.00,-33.00,-1021.00
2024-05-19 08:14:30.931103,-6,0,-12,8,1,0,84,86,134,120,48,108.03,168,-158.00,-39.00,-997.00
2024-05-19 08:14:31.033211,-6,0,-12,7,1,0,84,86,133,120,48,108.06,168,-134.00,-27.00,-976.00
2024-05-19 08:14:31.141207,-6,0,-12,7,0,0,84,86,132,120,48,108.14,168,-180.00,-9.00,-972.00
2024-05-19 08:14:31.236969,-4,0,-12,6,1,0,84,86,131,120,48,108.32,168,-195.00,-42.00,-989.00
2024-05-19 08:14:31.345779,-2,-1,-12,5,1,0,84,86,130,120,48,107.94,168,-167.00,-33.00,-1037.00
2024-05-19 08:14:31.440935,0,-3,-12,4,0,0,84,86,131,120,48,108.39,168,-163.00,-66.00,-1025.00
2024-05-19 08:14:31.550673,-9,-1,-12,3,0,0,84,86,134,120,48,108.20,168,-163.00,-31.00,-1029.00
2024-05-19 08:14:31.644951,-13,0,-12,3,0,0,84,86,135,110,48,107.88,169,-157.00,3.00,-998.00
2024-05-19 08:14:31.755370,-14,2,-12,5,0,0,83,86,136,110,48,108.11,169,-155.00,26.00,-1017.00
2024-05-19 08:14:31.848968,-15,0,-12,6,0,0,83,86,135,120,48,108.13,169,-163.00,-2.00,-955.00
2024-05-19 08:14:31.950965,-12,-3,-12,7,0,0,83,86,133,120,48,108.13,169,-155.00,-19.00,-1019.00
2024-05-19 08:14:32.062539,-7,-2,-12,7,-1,0,83,86,131,120,48,108.21,169,-157.00,-40.00,-1014.00
2024-05-19 08:14:32.103957,-3,-1,-12,6,-2,0,83,86,132,120,48,108.15,169,-175.00,-9.00,-960.00
2024-05-19 08:14:32.206761,-2,1,-12,5,-2,0,83,86,133,120,48,107.93,169,-123.00,-27.00,-978.00
2024-05-19 08:14:32.370079,-3,2,-12,4,-1,0,83,86,132,120,48,108.05,169,-101.00,-8.00,-966.00
2024-05-19 08:14:32.410261,-4,1,-12,4,-1,0,83,86,132,120,48,108.10,169,-111.00,-39.00,-1009.00
2024-05-19 08:14:32.574822,-3,1,-12,3,-1,0,83,86,131,110,48,108.08,169,-114.00,-33.00,-1013.00
2024-05-19 08:14:32.614038,-3,1,-12,3,-1,0,83,86,131,110,48,108.15,170,-94.00,-21.00,-1005.00
2024-05-19 08:14:32.779535,-3,2,-12,3,-1,0,83,85,131,110,48,107.97,170,-111.00,-30.00,-1018.00
2024-05-19 08:14:32.823378,-3,2,-12,3,-1,0,83,85,131,110,48,108.33,170,-101.00,-12.00,-987.00
2024-05-19 08:14:32.920015,-3,2,-12,2,-1,0,83,85,131,110,48,108.28,170,-87.00,-55.00,-1020.00
2024-05-19 08:14:33.086765,-3,1,-12,2,-1,0,83,85,132,110,48,108.24,170,-110.00,-72.00,-1049.00
2024-05-19 08:14:33.123986,-3,1,-12,2,-1,0,83,85,133,110,48,108.24,170,-86.00,-55.00,-990.00
2024-05-19 08:14:33.291485,-4,4,-12,1,-1,0,83,85,133,110,48,108.49,170,-101.00,-28.00,-976.00
2024-05-19 08:14:33.327948,-3,4,-12,1,-1,0,83,85,134,110,48,108.38,170,-126.00,-47.00,-1033.00
2024-05-19 08:14:33.496798,-3,1,-12,1,0,0,83,85,135,120,48,108.52,170,-117.00,-48.00,-1034.00
2024-05-19 08:14:33.531941,-3,3,-12,0,0,-1,83,85,136,120,48,108.39,170,-107.00,-46.00,-976.00
2024-05-19 08:14:33.701157,-4,3,-12,0,0,0,83,85,138,120,48,108.60,171,-121.00,-48.00,-943.00
2024-05-19 08:14:33.735856,-5,4,-12,0,0,0,83,86,139,120,48,108.63,171,-116.00,-39.00,-978.00
2024-05-19 08:14:33.906624,-6,3,-12,0,0,0,83,86,139,120,48,108.45,171,-118.00,-24.00,-933.00
2024-05-19 08:14:33.940320,-6,2,-12,0,0,0,83,86,139,120,48,108.65,171,-98.00,-24.00,-951.00
2024-05-19 08:14:34.110660,-6,1,-12,0,0,0,83,86,140,120,48,108.70,171,-119.00,-43.00,-1005.00
2024-05-19 08:14:34.144027,-6,1,-12,0,0,0,83,86,140,120,48,108.49,171,-109.00,-43.00,-980.00
2024-05-19 08:14:34.245811,-6,1,-12,0,0,0,83,86,140,120,48,108.45,171,-123.00,-25.00,-995.00
2024-05-19 08:14:34.417758,-7,1,-12,0,0,0,83,86,140,120,48,108.64,171,-128.00,-44.00,-1017.00
2024-05-19 08:14:34.450099,-3,2,-12,-1,0,0,83,86,139,120,48,108.55,171,-137.00,-39.00,-988.00
2024-05-19 08:14:34.622548,0,2,-12,-2,0,0,83,86,140,120,48,108.83,171,-143.00,-43.00,-981.00
2024-05-19 08:14:34.653823,1,1,-12,-3,0,0,83,86,140,120,48,108.86,172,-127.00,-45.00,-954.00
2024-05-19 08:14:34.827344,0,1,-12,-4,0,0,83,85,140,120,48,108.68,172,-92.00,-56.00,-998.00
2024-05-19 08:14:34.857706,0,2,-12,-5,0,0,83,85,140,120,48,108.79,172,-95.00,-61.00,-984.00
2024-05-19 08:14:34.959885,0,3,-12,-6,0,0,83,85,139,120,48,108.97,172,-119.00,-52.00,-985.00
2024-05-19 08:14:35.134538,-1,4,-12,-7,0,0,83,85,140,120,48,108.52,172,-140.00,-25.00,-1004.00
2024-05-19 08:14:35.163743,-1,5,-12,-8,1,0,83,85,139,120,48,108.47,172,-126.00,-28.00,-950.00
2024-05-19 08:14:35.339351,-6,3,-12,-8,2,0,83,85,140,120,48,108.44,172,-134.00,-33.00,-1007.00
2024-05-19 08:14:35.339385,-7,1,-12,-9,2,0,83,85,139,120,48,108.81,172,-128.00,-26.00,-990.00
2024-05-19 08:14:35.418738,-8,1,-12,-9,2,0,83,85,139,120,48,108.08,172,-126.00,-34.00,-1019.00
2024-05-19 08:14:35.520745,-8,1,-12,-8,2,0,83,85,139,120,48,108.45,172,-130.00,-36.00,-957.00
2024-05-19 08:14:35.646569,-9,1,-12,-8,2,0,83,85,139,120,48,108.54,173,-119.00,-39.00,-1005.00
2024-05-19 08:14:35.775740,-9,1,-12,-8,1,0,83,85,139,120,48,108.60,173,-125.00,-23.00,-978.00
2024-05-19 08:14:35.953734,-8,1,-12,-8,1,0,83,85,139,120,48,108.20,173,-144.00,-15.00,-978.00
2024-05-19 08:14:35.954078,-9,1,-12,-8,1,0,83,85,139,120,48,108.49,173,-121.00,-42.00,-971.00
2024-05-19 08:14:36.030882,-8,1,-12,-8,1,0,83,85,138,120,48,108.47,173,-112.00,-33.00,-1023.00
2024-05-19 08:14:36.158539,-8,1,-12,-7,1,0,83,85,139,120,48,108.69,173,-121.00,-28.00,-1016.00
2024-05-19 08:14:36.234668,-8,0,-12,-7,0,0,83,85,139,120,48,108.59,173,-121.00,-44.00,-996.00
2024-05-19 08:14:36.363366,-7,1,-12,-7,0,0,83,85,138,120,48,108.31,173,-137.00,-33.00,-1006.00
2024-05-19 08:14:36.439116,-8,1,-12,-7,0,0,83,85,139,120,48,108.47,173,-131.00,-38.00,-971.00
2024-05-19 08:14:36.568148,-8,1,-12,-7,0,0,83,85,141,120,48,108.59,174,-137.00,-36.00,-999.00
2024-05-19 08:14:36.643763,-8,0,-12,-7,0,0,83,85,140,120,48,108.23,174,-139.00,-29.00,-1019.00
2024-05-19 08:14:36.772932,-8,1,-12,-7,0,0,83,85,140,120,48,108.18,174,-128.00,-4.00,-980.00
2024-05-19 08:14:36.847674,-8,2,-12,-6,0,0,83,85,141,120,48,108.72,174,-129.00,29.00,-981.00
2024-05-19 08:14:36.949651,-9,1,-12,-6,1,0,83,85,142,120,48,108.27,174,-94.00,-13.00,-998.00
2024-05-19 08:14:37.080127,-8,0,-12,-5,1,0,83,85,142,120,48,108.24,174,-105.00,2.00,-1007.00
2024-05-19 08:14:37.153791,-8,0,-12,-5,1,0,83,85,142,120,48,108.10,174,-108.00,12.00,-964.00
2024-05-19 08:14:37.285473,-8,0,-12,-4,1,0,83,85,142,120,48,107.97,174,-117.00,7.00,-973.00
2024-05-19 08:14:37.357765,-8,0,-12,-4,1,0,83,85,143,120,48,108.33,174,-123.00,-4.00,-976.00
2024-05-19 08:14:37.489854,-8,0,-12,-4,1,0,83,85,142,120,48,108.26,174,-100.00,18.00,-994.00
2024-05-19 08:14:37.561770,-8,0,-12,-3,1,0,83,85,143,120,48,108.52,175,-118.00,33.00,-1004.00
2024-05-19 08:14:37.694685,-8,0,-12,-3,1,0,83,85,143,120,48,108.21,175,-111.00,9.00,-978.00
2024-05-19 08:14:37.765697,-9,0,-12,-3,1,0,83,85,143,120,48,108.17,175,-127.00,4.00,-986.00
2024-05-19 08:14:37.899413,-9,0,-12,-2,1,0,83,85,144,120,48,108.17,175,-132.00,15.00,-1012.00
2024-05-19 08:14:37.969717,-9,0,-12,-2,1,0,83,85,142,120,48,108.12,175,-118.00,22.00,-996.00
2024-05-19 08:14:38.104350,-8,-1,-12,-1,1,0,83,85,141,120,48,108.34,175,-99.00,-7.00,-1005.00
2024-05-19 08:14:38.173617,-8,-1,-12,-1,1,0,83,85,141,120,48,108.26,175,-126.00,-13.00,-997.00
2024-05-19 08:14:38.309000,-9,-1,-12,-1,1,0,83,85,140,120,48,108.03,175,-119.00,-19.00,-983.00
2024-05-19 08:14:38.377648,-8,0,-12,0,0,0,83,85,141,120,48,108.21,175,-136.00,9.00,-1014.00
2024-05-19 08:14:38.479734,-9,0,-12,0,1,0,83,85,139,120,48,107.88,175,-122.00,0.00,-1008.00
2024-05-19 08:14:38.616232,-8,-1,-12,0,0,0,83,85,140,120,48,108.12,176,-117.00,5.00,-997.00
2024-05-19 08:14:38.683691,-7,0,-12,0,0,0,83,85,139,120,48,107.80,176,-105.00,16.00,-993.00
2024-05-19 08:14:38.820999,-6,0,-12,0,0,0,81,84,138,120,48,107.96,176,-115.00,12.00,-1010.00
2024-05-19 08:14:38.887761,-5,-1,-12,0,0,0,81,84,138,120,48,108.03,176,-113.00,0.00,-971.00
2024-05-19 08:14:39.026067,-5,-1,-12,0,0,0,81,84,138,120,48,108.13,176,-99.00,9.00,-984.00
2024-05-19 08:14:39.091768,-4,0,-12,0,0,0,81,84,137,120,48,107.96,176,-108.00,20.00,-974.00
2024-05-19 08:14:39.193564,-4,-1,-12,0,0,0,81,84,137,120,48,107.84,176,-97.00,24.00,-1010.00
2024-05-19 08:14:39.332924,-4,-3,-12,0,0,0,81,84,138,120,48,107.86,176,-97.00,39.00,-974.00
2024-05-19 08:14:39.347656,-4,-8,-12,0,0,0,81,84,140,120,48,108.00,176,-100.00,27.00,-1020.00
2024-05-19 08:14:39.537764,-3,-8,-12,0,-1,0,81,84,139,120,48,108.26,176,-100.00,26.00,-993.00
2024-05-19 08:14:39.550772,-4,-6,-12,0,-2,0,81,84,138,120,48,108.14,177,-97.00,32.00,-978.00
2024-05-19 08:14:39.652870,-3,-3,-12,0,-3,0,81,84,138,120,48,108.11,177,-67.00,37.00,-989.00
2024-05-19 08:14:39.844958,-3,-1,-12,0,-2,0,82,85,136,120,48,108.15,177,-68.00,21.00,-956.00
2024-05-19 08:14:39.856412,-2,-1,-12,0,-2,0,82,85,136,120,48,108.15,177,-97.00,27.00,-997.00
2024-05-19 08:14:39.958576,-3,0,-12,0,-2,0,82,85,135,120,48,108.02,177,-73.00,12.00,-987.00
2024-05-19 08:14:40.152105,-3,0,-12,0,-2,0,82,85,134,120,48,107.80,177,-83.00,21.00,-988.00
2024-05-19 08:14:40.162966,-3,0,-12,0,-2,0,82,85,134,120,48,107.98,177,-80.00,8.00,-1036.00
2024-05-19 08:14:40.357442,-3,0,-12,0,-2,0,82,85,134,120,48,108.37,177,-63.00,37.00,-1006.00
2024-05-19 08:14:40.366421,-3,0,-12,0,-2,0,82,85,134,120,48,108.25,177,-44.00,43.00,-977.00
2024-05-19 08:14:40.468549,-3,0,-12,0,-1,0,82,85,133,120,48,108.27,177,-34.00,25.00,-1024.00
2024-05-19 08:14:40.664233,-2,0,-12,0,-1,0,82,85,134,120,48,108.08,178,-44.00,23.00,-1037.00
2024-05-19 08:14:40.673076,-1,0,-12,0,-1,0,82,85,134,120,48,108.10,178,-46.00,33.00,-1024.00
2024-05-19 08:14:40.869110,-2,1,-12,0,-1,0,82,84,133,120,48,108.12,178,-57.00,19.00,-996.00
2024-05-19 08:14:40.876583,-2,3,-12,1,0,0,82,84,134,120,48,108.10,178,-40.00,29.00,-981.00
2024-05-19 08:14:40.978507,-2,0,-12,1,0,0,82,84,133,120,48,108.21,178,-53.00,12.00,-1005.00
2024-05-19 08:14:41.176248,-1,0,-12,1,0,0,82,84,133,120,48,108.33,178,-60.00,27.00,-1015.00
2024-05-19 08:14:41.182439,-1,-1,-12,0,0,0,82,84,133,120,48,108.11,178,-59.00,14.00,-1001.00
2024-05-19 08:14:41.285094,-1,0,-12,0,0,0,82,84,134,120,48,108.18,178,-72.00,21.00,-970.00
2024-05-19 08:14:41.387521,-2,0,-12,0,0,0,82,84,134,120,48,108.45,178,-63.00,9.00,-992.00
2024-05-19 08:14:41.489533,-2,-1,-12,0,0,0,82,84,135,120,48,108.23,178,-81.00,8.00,-1000.00
2024-05-19 08:14:41.590637,-2,-1,-12,0,0,0,82,84,134,120,48,108.43,179,-78.00,3.00,-1004.00
2024-05-19 08:14:41.692929,-2,-1,-12,0,0,0,82,84,135,120,48,108.35,179,-71.00,-1.00,-1000.00
2024-05-19 08:14:41.794549,-3,0,-12,0,0,0,83,84,135,120,48,108.11,179,-42.00,35.00,-979.00
2024-05-19 08:14:41.995579,-2,0,-12,0,0,0,83,84,135,120,48,108.07,179,-50.00,14.00,-983.00
2024-05-19 08:14:41.998489,-2,-2,-12,0,0,0,83,84,135,120,48,108.01,179,-56.00,-7.00,-1023.00
2024-05-19 08:14:42.100518,-1,-3,-13,0,0,0,83,84,135,120,48,108.04,179,-68.00,-19.00,-1023.00
2024-05-19 08:14:42.202329,-2,-1,-13,0,0,0,83,84,135,120,48,108.23,179,-71.00,-18.00,-995.00
2024-05-19 08:14:42.304335,-2,0,-12,0,0,0,83,84,136,120,48,107.76,179,-68.00,14.00,-1045.00
2024-05-19 08:14:42.507253,-5,6,-12,0,0,0,83,84,137,120,48,108.47,179,-64.00,32.00,-986.00
2024-05-19 08:14:42.508407,-4,8,-12,0,1,0,83,84,138,120,48,108.02,179,-50.00,33.00,-994.00
2024-05-19 08:14:42.712123,-4,5,-12,1,3,0,83,84,137,120,48,108.23,180,-57.00,-9.00,-1009.00
2024-05-19 08:14:42.712698,-2,1,-12,1,4,0,83,84,137,120,48,108.28,180,-54.00,-7.00,-997.00
2024-05-19 08:14:42.814457,-2,0,-12,1,3,0,82,84,136,120,48,108.64,180,-50.00,-16.00,-997.00
2024-05-19 08:14:42.917248,-2,-1,-12,1,3,0,82,84,138,120,48,108.03,180,-45.00,6.00,-1002.00
2024-05-19 08:14:43.018927,-1,0,-12,1,2,0,82,84,136,120,48,108.31,180,-43.00,8.00,-998.00
2024-05-19 08:14:43.069266,-2,0,-12,1,3,0,82,84,138,120,48,108.36,180,-41.00,23.00,-967.00
2024-05-19 08:14:43.224066,-2,0,-12,1,3,0,82,84,138,120,48,108.52,180,-37.00,22.00,-1007.00
2024-05-19 08:14:43.273262,-2,-2,-12,1,3,0,82,84,139,120,48,108.37,180,-57.00,3.00,-1007.00
2024-05-19 08:14:43.428859,-1,-2,-12,1,3,0,82,84,138,120,48,108.24,180,-49.00,-14.00,-1009.00
2024-05-19 08:14:43.477266,-2,-2,-12,0,2,0,82,84,139,120,48,108.24,180,-43.00,-11.00,-996.00
2024-05-19 08:14:43.579291,-2,-1,-12,0,2,0,82,84,138,120,48,108.18,181,-40.00,-33.00,-1006.00
2024-05-19 08:14:43.736021,-1,-1,-12,0,1,0,82,84,139,120,48,108.08,181,-47.00,-24.00,-993.00
2024-05-19 08:14:43.783291,1,0,-12,0,1,0,82,85,138,120,48,108.33,181,-64.00,20.00,-1019.00
2024-05-19 08:14:43.940865,2,-1,-12,0,1,0,82,85,138,120,48,108.02,181,-95.00,-8.00,-991.00
2024-05-19 08:14:43.987210,1,-3,-12,-1,1,0,82,85,139,120,48,108.25,181,-105.00,-13.00,-987.00
2024-05-19 08:14:44.145656,-3,-3,-12,-2,1,0,82,85,140,120,48,108.30,181,-68.00,-16.00,-952.00
2024-05-19 08:14:44.191200,-9,0,-12,-2,0,0,82,85,143,120,48,108.16,181,-101.00,-7.00,-957.00
2024-05-19 08:14:44.350587,-9,0,-12,-1,0,0,82,85,141,120,48,108.34,181,-100.00,-10.00,-1003.00
2024-05-19 08:14:44.396381,-7,0,-12,-1,0,0,82,85,141,120,48,108.11,181,-111.00,-16.00,-1002.00
2024-05-19 08:14:44.498314,-6,0,-12,-1,0,0,82,85,140,120,48,108.03,181,-109.00,-23.00,-976.00
2024-05-19 08:14:44.657710,-6,0,-12,-1,0,0,82,85,139,120,48,108.23,182,-98.00,-23.00,-977.00
2024-05-19 08:14:44.702361,-6,0,-12,-1,0,0,82,85,139,120,48,108.40,182,-108.00,-21.00,-1014.00
2024-05-19 08:14:44.862573,-7,1,-12,-1,0,0,82,84,139,120,48,108.23,182,-112.00,-23.00,-1009.00
2024-05-19 08:14:44.906384,-7,1,-12,0,0,0,82,84,139,120,48,108.15,182,-98.00,-27.00,-979.00
2024-05-19 08:14:45.067714,-6,1,-12,0,0,0,82,84,138,120,48,108.33,182,-105.00,-22.00,-1009.00
2024-05-19 08:14:45.110295,-6,1,-12,0,0,0,82,84,139,120,48,108.47,182,-121.00,-28.00,-976.00
2024-05-19 08:14:45.272193,-6,1,-12,0,0,0,82,84,138,120,48,108.55,182,-107.00,-15.00,-1015.00
2024-05-19 08:14:45.314123,-6,2,-12,0,0,0,82,84,138,120,48,108.22,182,-106.00,-20.00,-976.00
2024-05-19 08:14:45.479199,-6,2,-12,0,0,0,82,84,139,120,48,108.35,182,-111.00,-27.00,-990.00
2024-05-19 08:14:45.518057,-6,1,-12,0,0,0,82,84,139,120,48,108.40,182,-105.00,-31.00,-987.00
2024-05-19 08:14:45.681677,-5,1,-12,0,0,0,82,84,139,120,48,108.46,183,-125.00,-6.00,-1000.00
2024-05-19 08:14:45.722089,-5,3,-12,0,0,0,82,84,138,120,48,108.46,183,-134.00,19.00,-1021.00
2024-05-19 08:14:45.886437,-5,2,-12,0,0,0,82,84,139,120,48,108.30,183,-120.00,-19.00,-1025.00
2024-05-19 08:14:45.926330,-6,-1,-12,0,0,0,82,84,140,120,48,108.28,183,-107.00,-37.00,-1010.00
2024-05-19 08:14:46.028079,-6,0,-12,0,0,0,82,84,140,120,48,107.95,183,-112.00,-15.00,-966.00
2024-05-19 08:14:46.193580,-6,1,-12,0,0,0,82,84,141,120,48,108.08,183,-106.00,0.00,-987.00
2024-05-19 08:14:46.232120,-5,1,-12,0,0,0,82,84,141,120,48,108.70,183,-95.00,24.00,-969.00
2024-05-19 08:14:46.353875,-6,0,-12,0,0,0,82,84,141,120,48,108.42,183,-106.00,17.00,-975.00
2024-05-19 08:14:46.435967,-5,0,-12,0,0,0,82,84,141,120,48,108.24,183,-107.00,10.00,-1008.00
2024-05-19 08:14:46.538074,-5,-1,-12,0,0,0,82,84,141,120,48,108.40,183,-111.00,12.00,-974.00
2024-05-19 08:14:46.705701,-5,-1,-6,0,0,0,82,84,142,120,48,108.49,184,-88.00,18.00,-954.00
2024-05-19 08:14:46.705768,-5,-2,-1,0,0,0,82,84,141,120,48,108.45,184,-103.00,29.00,-1009.00
2024-05-19 08:14:46.844082,-4,-2,5,0,0,0,82,84,141,120,48,108.40,184,-107.00,67.00,-1038.00
2024-05-19 08:14:46.895054,-4,-2,11,0,0,0,82,84,140,120,48,108.11,184,-112.00,62.00,-1011.00
2024-05-19 08:14:46.998333,-4,-4,17,0,0,0,82,84,140,120,48,108.77,184,-92.00,59.00,-986.00
2024-05-19 08:14:47.099092,-5,-5,23,0,0,0,82,84,141,120,48,108.55,184,-111.00,64.00,-948.00
2024-05-19 08:14:47.217684,-5,-5,29,0,0,0,82,84,140,120,48,108.34,184,-98.00,61.00,-958.00
2024-05-19 08:14:47.304886,-5,-5,35,0,0,0,82,84,140,120,48,108.18,184,-81.00,97.00,-965.00
2024-05-19 08:14:47.405319,-4,-4,41,0,0,0,82,84,139,120,48,108.06,184,-77.00,105.00,-1008.00
2024-05-19 08:14:47.508642,-3,-5,47,0,0,0,82,84,138,120,48,108.43,184,-26.00,101.00,-971.00
2024-05-19 08:14:47.610745,-3,-6,53,0,0,0,82,84,139,120,48,108.59,185,-8.00,112.00,-980.00
2024-05-19 08:14:47.711045,-1,-6,59,0,0,0,82,84,137,120,48,108.39,185,-21.00,108.00,-1010.00
2024-05-19 08:14:47.832276,0,-6,65,0,0,0,82,83,136,120,48,108.31,185,-10.00,107.00,-1000.00
2024-05-19 08:14:47.915046,0,-5,71,0,0,0,82,83,136,120,48,108.68,185,38.00,109.00,-1017.00
2024-05-19 08:14:48.036871,0,-5,77,0,0,0,82,83,136,120,48,108.57,185,32.00,100.00,-1020.00
2024-05-19 08:14:48.118948,1,-5,83,0,0,0,82,83,135,120,48,108.52,185,15.00,111.00,-1016.00
2024-05-19 08:14:48.241612,2,-5,89,0,0,0,82,83,135,120,48,108.53,185,50.00,84.00,-1007.00
2024-05-19 08:14:48.323124,2,-4,95,0,0,0,82,83,134,120,48,108.72,185,-2.00,86.00,-992.00
2024-05-19 08:14:48.446428,2,-3,100,0,0,0,82,83,134,120,48,108.49,185,-7.00,82.00,-993.00
2024-05-19 08:14:48.527076,1,-3,106,0,0,0,82,83,133,120,48,108.49,185,37.00,93.00,-1013.00
2024-05-19 08:14:48.651243,0,-3,112,0,0,0,82,83,134,120,48,108.66,186,37.00,86.00,-986.00
2024-05-19 08:14:48.732055,1,-3,118,0,0,0,82,83,134,120,48,108.32,186,55.00,88.00,-1008.00
2024-05-19 08:14:48.855967,1,-4,125,0,0,0,81,83,136,120,48,108.58,186,78.00,75.00,-993.00
2024-05-19 08:14:48.934963,2,-3,131,0,0,0,81,83,136,120,48,108.41,186,73.00,54.00,-985.00
2024-05-19 08:14:49.036944,3,-3,136,0,0,0,81,83,136,120,48,108.35,186,84.00,38.00,-993.00
2024-05-19 08:14:49.163227,3,-2,142,0,0,0,81,83,136,120,48,108.49,186,56.00,38.00,-1000.00
2024-05-19 08:14:49.240993,3,-1,148,0,0,0,81,83,136,120,48,108.22,186,60.00,30.00,-999.00
2024-05-19 08:14:49.368676,2,0,154,0,0,0,81,83,136,120,48,108.55,186,68.00,35.00,-980.00
2024-05-19 08:14:49.444894,3,-1,160,0,0,0,81,83,136,120,48,108.42,186,77.00,24.00,-983.00
2024-05-19 08:14:49.572830,3,-1,166,0,0,0,81,83,136,120,48,108.44,186,84.00,6.00,-1027.00
2024-05-19 08:14:49.649471,3,-1,172,0,0,0,81,83,136,120,48,108.30,187,97.00,-13.00,-992.00
2024-05-19 08:14:49.777613,3,0,179,0,0,0,81,83,136,120,48,108.37,187,75.00,2.00,-994.00
2024-05-19 08:14:49.852942,4,0,-174,0,0,0,81,83,137,120,48,107.99,187,87.00,7.00,-984.00
2024-05-19 08:14:49.982385,4,1,-167,0,0,0,81,83,137,120,48,108.35,187,74.00,-4.00,-1003.00
2024-05-19 08:14:50.056817,3,1,-161,0,0,0,81,83,136,120,48,108.54,187,71.00,-2.00,-1002.00
2024-05-19 08:14:50.158974,3,0,-155,0,0,0,81,83,138,120,48,108.41,187,60.00,-4.00,-1011.00
2024-05-19 08:14:50.209872,3,1,-149,0,0,0,81,83,136,120,48,108.37,187,74.00,-16.00,-998.00
2024-05-19 08:14:50.392035,2,1,-143,0,0,0,81,83,136,120,48,108.60,187,56.00,-41.00,-973.00
2024-05-19 08:14:50.414142,2,2,-137,0,0,0,81,83,136,120,48,108.42,187,50.00,-39.00,-1002.00
2024-05-19 08:14:50.596821,2,3,-131,0,0,0,81,83,136,120,48,108.34,187,36.00,-41.00,-983.00
2024-05-19 08:14:50.617864,1,3,-125,0,0,0,81,83,135,120,48,108.25,188,45.00,-43.00,-989.00
2024-05-19 08:14:50.802354,1,3,-119,0,0,0,81,83,135,120,48,108.24,188,31.00,-46.00,-990.00
2024-05-19 08:14:50.872838,1,3,-108,0,0,0,81,83,135,120,48,108.54,188,69.00,-51.00,-1011.00
2024-05-19 08:14:50.974951,2,3,-102,0,0,0,81,83,135,120,48,108.54,188,28.00,-70.00,-1011.00
2024-05-19 08:14:51.025742,1,3,-95,0,0,0,81,83,135,120,48,108.76,188,6.00,-56.00,-1001.00
2024-05-19 08:14:51.212337,1,3,-88,0,0,0,81,83,135,120,48,108.62,188,34.00,-55.00,-1029.00
2024-05-19 08:14:51.229637,0,3,-82,0,0,0,81,83,137,120,48,108.51,188,59.00,-57.00,-1006.00
2024-05-19 08:14:51.415988,1,3,-76,0,0,0,81,83,137,120,48,108.53,188,40.00,-58.00,-979.00
2024-05-19 08:14:51.433717,2,4,-70,0,0,0,81,83,137,120,48,108.55,188,7.00,-54.00,-995.00
2024-05-19 08:14:51.620801,1,3,-65,0,0,0,81,83,138,120,48,108.74,189,20.00,-72.00,-987.00
2024-05-19 08:14:51.637670,0,4,-58,0,0,0,81,83,138,120,48,108.35,189,27.00,-52.00,-966.00
2024-05-19 08:14:51.825605,0,3,-52,0,0,0,81,83,138,120,48,108.64,189,-12.00,-65.00,-1009.00
2024-05-19 08:14:51.841760,1,4,-45,0,0,0,81,84,138,120,48,108.60,189,-19.00,-40.00,-1002.00
2024-05-19 08:14:51.945377,0,3,-39,0,0,0,81,84,138,120,48,108.47,189,-27.00,-47.00,-996.00
2024-05-19 08:14:52.132729,-1,3,-33,0,0,0,81,84,138,120,48,108.26,189,-20.00,-53.00,-1014.00
2024-05-19 08:14:52.148682,-1,3,-29,0,0,0,81,84,139,120,48,108.61,189,-32.00,-21.00,-990.00
2024-05-19 08:14:52.337580,-1,2,-25,0,0,0,81,84,138,120,48,108.65,189,-34.00,-22.00,-996.00
2024-05-19 08:14:52.352767,-1,2,-22,0,0,0,81,84,138,120,48,108.38,189,-43.00,-24.00,-1004.00
2024-05-19 08:14:52.455011,-1,1,-20,0,0,0,81,84,138,120,48,108.37,189,-49.00,-21.00,-990.00
2024-05-19 08:14:52.644762,-2,2,-18,0,0,0,81,84,137,120,48,108.30,190,-58.00,11.00,-986.00
2024-05-19 08:14:52.658706,-2,0,-17,0,1,0,81,84,138,120,48,108.29,190,-47.00,9.00,-985.00
2024-05-19 08:14:52.849589,-2,0,-16,0,1,0,81,84,139,120,48,108.32,190,-40.00,20.00,-990.00
2024-05-19 08:14:52.862655,-2,0,-15,0,1,0,82,83,138,120,48,108.34,190,-31.00,17.00,-986.00
2024-05-19 08:14:53.054535,-1,-1,-14,0,1,0,82,83,137,120,48,108.39,190,-29.00,24.00,-994.00
2024-05-19 08:14:53.066678,-1,-1,-13,0,1,0,82,83,138,120,48,108.80,190,-27.00,17.00,-1028.00
2024-05-19 08:14:53.259614,-1,-1,-13,0,1,0,82,83,137,120,48,108.39,190,-13.00,32.00,-986.00
2024-05-19 08:14:53.270677,-1,-1,-12,0,1,0,82,83,138,120,48,108.80,190,0.00,26.00,-984.00
2024-05-19 08:14:53.464071,0,-2,-12,0,1,0,82,83,136,120,48,108.48,190,-31.00,28.00,-995.00
2024-05-19 08:14:53.474677,0,-3,-12,0,0,0,82,83,136,120,48,108.66,190,-2.00,25.00,-992.00
2024-05-19 08:14:53.668931,0,-3,-12,0,0,0,82,83,137,120,48,108.48,191,-14.00,27.00,-1018.00
2024-05-19 08:14:53.678724,0,-2,-12,0,0,0,82,83,136,120,48,108.34,191,1.00,22.00,-1028.00
2024-05-19 08:14:53.873698,0,-1,-12,0,0,0,82,83,136,120,48,108.54,191,17.00,43.00,-996.00
2024-05-19 08:14:53.882710,0,-2,-12,0,0,0,81,83,135,120,48,108.83,191,4.00,38.00,-987.00
2024-05-19 08:14:53.984923,0,-2,-12,0,0,0,81,83,136,120,48,108.31,191,6.00,37.00,-982.00
2024-05-19 08:14:54.180924,1,-3,-12,0,0,0,81,83,136,120,48,108.28,191,12.00,40.00,-1007.00
2024-05-19 08:14:54.188627,1,-3,-13,0,0,0,81,83,135,120,48,108.30,191,24.00,34.00,-990.00
2024-05-19 08:14:54.385748,1,-4,-12,0,0,0,81,83,136,120,48,108.52,191,17.00,14.00,-984.00
2024-05-19 08:14:54.392734,1,-2,-12,0,0,0,81,83,136,120,48,108.49,191,28.00,12.00,-989.00
2024-05-19 08:14:54.494797,1,-1,-12,0,0,0,81,83,134,120,48,108.54,191,11.00,17.00,-1022.00
2024-05-19 08:14:54.545720,2,-1,-12,0,0,0,81,83,135,120,48,108.61,192,11.00,26.00,-1009.00
2024-05-19 08:14:54.692885,1,0,-12,0,0,0,81,83,135,120,48,108.47,192,20.00,16.00,-1005.00
2024-05-19 08:14:54.749761,1,-1,-12,0,0,0,81,83,135,120,48,108.80,192,1.00,8.00,-983.00
2024-05-19 08:14:54.897748,1,-1,-12,0,0,0,80,83,134,120,48,108.34,192,25.00,10.00,-1001.00
2024-05-19 08:14:54.953884,1,0,-12,0,0,0,80,83,134,120,48,108.87,192,37.00,17.00,-1011.00
2024-05-19 08:14:55.058517,1,0,-12,0,0,0,80,83,135,120,48,108.77,192,30.00,16.00,-1016.00
2024-05-19 08:14:55.157569,1,0,-13,0,0,0,80,83,135,120,48,108.34,192,-7.00,26.00,-994.00
2024-05-19 08:14:55.307099,2,0,-19,0,0,0,80,83,137,120,48,108.77,192,28.00,5.00,-995.00
2024-05-19 08:14:55.361567,2,0,-26,0,0,0,80,83,136,120,48,108.49,192,43.00,-10.00,-992.00
2024-05-19 08:14:55.511962,2,0,-33,0,-1,0,80,83,136,120,48,108.57,192,44.00,-2.00,-967.00
2024-05-19 08:14:55.565525,2,0,-39,0,-1,0,80,83,136,120,48,108.55,193,53.00,-4.00,-982.00
2024-05-19 08:14:55.716799,2,0,-46,0,0,0,80,83,136,120,48,108.58,193,45.00,-5.00,-1002.00
2024-05-19 08:14:55.770846,2,0,-51,0,0,0,80,83,136,120,48,108.69,193,39.00,-9.00,-999.00
2024-05-19 08:14:55.921560,3,0,-57,0,0,0,81,83,137,120,48,108.54,193,40.00,5.00,-997.00
2024-05-19 08:14:55.973820,3,0,-63,0,0,0,81,83,137,120,48,108.61,193,52.00,-11.00,-1020.00
2024-05-19 08:14:56.126279,3,0,-69,0,0,0,81,83,137,120,48,108.74,193,48.00,-9.00,-1009.00
2024-05-19 08:14:56.177639,3,0,-75,0,0,0,81,83,136,120,48,108.53,193,38.00,-11.00,-990.00
2024-05-19 08:14:56.331200,3,0,-81,0,0,0,81,83,136,120,48,108.59,193,37.00,5.00,-1003.00
2024-05-19 08:14:56.381498,2,0,-87,0,0,0,81,83,137,120,48,108.79,193,47.00,9.00,-996.00
2024-05-19 08:14:56.483575,2,0,-93,0,0,0,81,83,137,120,48,108.61,193,50.00,11.00,-1005.00
2024-05-19 08:14:56.638335,2,0,-99,0,0,0,81,83,137,120,48,108.76,194,53.00,9.00,-990.00
2024-05-19 08:14:56.687440,3,0,-104,0,0,0,81,83,137,120,48,108.40,194,48.00,20.00,-1005.00
2024-05-19 08:14:56.789495,3,0,-110,0,0,0,81,83,136,120,48,108.43,194,45.00,9.00,-990.00
2024-05-19 08:14:56.945465,3,-1,-116,0,0,0,81,83,138,120,48,108.72,194,38.00,25.00,-1011.00
2024-05-19 08:14:56.993552,2,0,-121,0,0,0,81,83,137,120,48,108.72,194,36.00,2.00,-999.00
2024-05-19 08:14:57.150340,2,0,-128,0,0,0,81,83,138,120,48,108.43,194,28.00,7.00,-1013.00
2024-05-19 08:14:57.197447,2,0,-134,0,0,0,81,83,137,120,48,108.63,194,49.00,19.00,-1011.00
2024-05-19 08:14:57.355190,1,0,-140,0,0,0,81,83,137,120,48,108.83,194,31.00,15.00,-974.00
2024-05-19 08:14:57.401413,2,0,-146,0,0,0,81,83,137,120,48,108.56,194,18.00,11.00,-995.00
2024-05-19 08:14:57.560214,1,0,-151,0,0,0,81,83,136,120,48,108.49,194,14.00,9.00,-988.00
2024-05-19 08:14:57.605427,0,0,-157,0,0,0,81,83,136,120,48,108.61,195,13.00,5.00,-1002.00
2024-05-19 08:14:57.764903,0,0,-163,0,1,0,81,83,136,120,48,108.46,195,20.00,-6.00,-1011.00
2024-05-19 08:14:57.809410,0,0,-168,0,1,0,81,83,136,120,48,108.47,195,2.00,-22.00,-1016.00
2024-05-19 08:14:57.969967,1,1,-174,0,1,0,81,83,135,120,48,108.72,195,14.00,3.00,-1002.00
2024-05-19 08:14:58.013446,1,2,-179,0,1,0,81,83,135,120,48,108.70,195,9.00,-3.00,-989.00
2024-05-19 08:14:58.174335,1,1,174,0,1,0,81,83,135,120,48,108.43,195,7.00,-2.00,-992.00
2024-05-19 08:14:58.217412,1,1,168,0,0,0,81,83,135,120,48,108.46,195,15.00,-9.00,-1022.00
2024-05-19 08:14:58.268353,1,1,163,0,0,0,81,83,134,120,48,108.49,195,8.00,-13.00,-994.00
2024-05-19 08:14:58.379128,1,1,157,0,0,0,81,83,134,120,48,108.58,195,15.00,-13.00,-1017.00
2024-05-19 08:14:58.472382,2,2,152,0,0,0,81,83,134,120,48,108.60,195,19.00,-11.00,-994.00
2024-05-19 08:14:58.583921,1,1,146,0,0,0,81,83,133,120,48,108.66,196,10.00,-3.00,-986.00
2024-05-19 08:14:58.676404,1,0,141,0,0,0,81,83,134,120,48,108.30,196,13.00,-15.00,-1013.00
2024-05-19 08:14:58.788725,0,1,135,0,0,0,81,83,134,120,48,108.74,196,24.00,-20.00,-987.00
2024-05-19 08:14:58.881727,0,2,130,0,0,0,81,83,133,120,48,108.52,196,7.00,-21.00,-981.00
2024-05-19 08:14:58.994192,0,1,124,0,0,0,81,83,133,120,48,108.36,196,22.00,-23.00,-1000.00
2024-05-19 08:14:59.084341,0,1,118,0,0,0,81,83,131,110,48,108.61,196,11.00,-25.00,-1031.00
2024-05-19 08:14:59.198342,1,2,112,0,0,0,81,83,132,110,48,108.81,196,34.00,-15.00,-1016.00
2024-05-19 08:14:59.288362,1,2,106,0,0,0,81,83,131,110,48,108.70,196,20.00,-19.00,-992.00
2024-05-19 08:14:59.402984,1,1,99,0,0,0,81,83,131,110,48,108.47,196,18.00,-15.00,-1022.00
2024-05-19 08:14:59.492368,1,2,93,0,0,0,81,83,131,110,48,108.57,196,26.00,-4.00,-1020.00
2024-05-19 08:14:59.609263,1,2,86,0,0,0,81,83,131,110,48,108.50,197,30.00,4.00,-1017.00
2024-05-19 08:14:59.696405,1,1,79,0,0,0,81,83,132,110,48,108.38,197,33.00,13.00,-1024.00
2024-05-19 08:14:59.813174,2,1,71,0,0,0,81,83,131,110,48,108.81,197,21.00,17.00,-973.00
2024-05-19 08:14:59.900306,1,0,63,0,0,0,81,83,132,110,48,108.72,197,26.00,20.00,-963.00
2024-05-19 08:15:00.002787,1,0,56,0,0,0,81,83,132,110,48,108.29,197,7.00,17.00,-1002.00
2024-05-19 08:15:00.119896,1,-1,49,0,0,0,81,83,131,110,48,108.70,197,-2.00,31.00,-1023.00
2024-05-19 08:15:00.206450,0,-2,42,0,0,0,81,83,133,110,48,108.45,197,7.00,22.00,-1009.00
2024-05-19 08:15:00.324718,0,-2,36,0,0,0,81,83,133,110,48,108.33,197,10.00,26.00,-1027.00
2024-05-19 08:15:00.410420,0,-1,30,0,0,0,81,83,133,110,48,108.62,197,4.00,22.00,-1006.00
2024-05-19 08:15:00.529519,0,-1,24,0,0,0,81,83,133,110,48,108.64,197,2.00,27.00,-989.00
2024-05-19 08:15:00.614274,0,-1,18,0,0,0,81,83,133,120,48,108.66,198,13.00,16.00,-974.00
2024-05-19 08:15:00.734314,0,-1,13,0,0,0,81,83,135,120,48,108.31,198,5.00,21.00,-986.00
2024-05-19 08:15:00.818279,0,0,7,0,0,0,81,83,135,120,48,108.20,198,20.00,15.00,-983.00
2024-05-19 08:15:00.939152,0,-1,2,0,0,0,81,83,135,120,48,108.63,198,22.00,30.00,-1006.00
2024-05-19 08:15:01.022257,0,-1,-1,0,0,0,81,83,135,120,48,108.30,198,30.00,33.00,-1004.00
2024-05-19 08:15:01.143948,0,-1,-4,0,0,0,81,83,136,120,48,108.51,198,30.00,16.00,-983.00
2024-05-19 08:15:01.226238,0,0,-7,0,0,0,81,83,136,120,48,108.57,198,7.00,21.00,-994.00
2024-05-19 08:15:01.348729,1,0,-9,0,0,0,81,83,136,120,48,108.55,198,24.00,35.00,-956.00
2024-05-19 08:15:01.430538,0,0,-11,0,0,0,81,83,136,120,48,108.51,198,19.00,8.00,-990.00
2024-05-19 08:15:01.553632,0,-1,-12,0,0,0,81,83,136,120,48,108.69,198,9.00,6.00,-976.00
2024-05-19 08:15:01.635246,0,-2,-14,0,0,0,81,83,135,120,48,108.61,199,10.00,-7.00,-1021.00
2024-05-19 08:15:01.736255,1,-1,-19,0,0,0,81,83,135,120,48,108.70,199,-17.00,4.00,-984.00
2024-05-19 08:15:01.860754,0,0,-30,0,-1,0,81,83,134,120,48,108.49,199,7.00,-33.00,-977.00
2024-05-19 08:15:01.941196,2,-2,-49,0,-1,0,81,83,133,120,48,108.79,199,41.00,-28.00,-954.00
2024-05-19 08:15:02.042408,2,1,-72,-1,-1,0,81,83,133,110,48,108.62,199,26.00,0.00,-1009.00
2024-05-19 08:15:02.168091,1,2,-95,-1,-1,0,81,83,132,110,48,108.52,199,72.00,-25.00,-1033.00
2024-05-19 08:15:02.195327,3,4,-115,0,-1,0,81,83,132,110,48,108.65,199,43.00,-8.00,-1074.00
2024-05-19 08:15:02.372870,3,1,-132,0,-1,0,81,83,132,110,48,108.39,199,83.00,-5.00,-1049.00
2024-05-19 08:15:02.399237,2,0,-143,0,-1,0,81,83,133,110,48,108.77,199,73.00,2.00,-973.00
2024-05-19 08:15:02.501568,3,-2,-148,0,-1,0,81,83,133,110,48,108.47,199,73.00,3.00,-947.00
2024-05-19 08:15:02.679992,4,-2,-145,0,-1,0,81,83,134,120,48,108.55,200,41.00,23.00,-993.00
2024-05-19 08:15:02.705168,5,-2,-139,0,0,0,81,83,133,120,48,108.49,200,58.00,0.00,-1017.00
2024-05-19 08:15:02.884878,5,-1,-138,-1,0,0,81,83,133,120,48,108.46,200,71.00,-37.00,-1035.00
2024-05-19 08:15:02.909184,5,0,-138,-1,0,0,81,82,134,120,48,108.68,200,77.00,-34.00,-985.00
2024-05-19 08:15:03.011326,4,1,-139,-1,0,0,81,82,136,120,48,108.46,200,90.00,-55.00,-1011.00
2024-05-19 08:15:03.192297,4,2,-139,-1,0,0,81,82,136,120,48,108.55,200,78.00,-20.00,-999.00
2024-05-19 08:15:03.215137,5,3,-139,-1,0,0,81,82,137,120,48,108.49,200,78.00,-21.00,-976.00
2024-05-19 08:15:03.352409,5,2,-139,0,0,0,81,82,137,120,48,108.54,200,77.00,-27.00,-994.00
2024-05-19 08:15:03.419202,5,2,-140,0,0,0,81,82,138,120,48,108.56,200,83.00,-19.00,-955.00
2024-05-19 08:15:03.601604,5,2,-139,0,0,0,81,82,137,120,48,108.57,200,80.00,-23.00,-966.00
2024-05-19 08:15:03.623131,5,1,-140,0,0,0,81,82,139,120,48,108.41,201,61.00,-48.00,-959.00
2024-05-19 08:15:03.806546,5,1,-140,0,0,0,81,82,136,120,48,108.51,201,70.00,-43.00,-995.00
2024-05-19 08:15:03.827212,4,3,-140,0,0,0,81,82,136,120,48,108.50,201,101.00,-39.00,-999.00
2024-05-19 08:15:04.011255,3,3,-140,0,0,0,80,83,136,120,48,108.44,201,95.00,-42.00,-990.00
2024-05-19 08:15:04.031211,5,3,-140,0,0,0,80,83,135,120,48,108.48,201,76.00,-42.00,-1016.00
2024-05-19 08:15:04.216033,5,2,-140,0,0,0,80,83,135,120,48,108.37,201,65.00,-63.00,-1017.00
2024-05-19 08:15:04.235015,4,1,-140,0,0,0,80,83,134,120,48,108.51,201,93.00,-54.00,-1029.00
2024-05-19 08:15:04.337135,3,3,-141,0,0,0,80,83,135,120,48,108.42,201,94.00,-68.00,-1021.00
2024-05-19 08:15:04.523222,4,4,-141,0,0,0,80,83,136,120,48,108.48,201,85.00,-68.00,-989.00
2024-05-19 08:15:04.541097,5,3,-141,0,0,0,80,83,136,120,48,108.53,201,47.00,-85.00,-983.00
2024-05-19 08:15:04.728038,5,3,-141,0,0,0,80,83,136,120,48,108.63,202,59.00,-119.00,-985.00
2024-05-19 08:15:04.744961,4,4,-141,0,1,0,80,83,136,120,48,108.83,202,45.00,-105.00,-967.00
2024-05-19 08:15:04.933020,3,5,-141,0,1,0,80,83,136,120,48,108.53,202,47.00,-98.00,-974.00
2024-05-19 08:15:04.949121,2,6,-141,0,1,0,80,82,136,120,48,108.50,202,56.00,-95.00,-976.00
2024-05-19 08:15:05.051233,2,6,-141,0,1,0,80,82,135,120,48,108.78,202,52.00,-109.00,-1001.00
2024-05-19 08:15:05.239952,1,7,-141,0,1,0,80,82,135,120,48,108.91,202,23.00,-109.00,-981.00
2024-05-19 08:15:05.255040,1,7,-141,0,0,0,80,82,134,120,48,108.55,202,55.00,-97.00,-977.00
2024-05-19 08:15:05.445374,2,6,-141,0,0,0,80,82,134,110,48,108.58,202,80.00,-94.00,-978.00
2024-05-19 08:15:05.458977,2,5,-141,0,0,0,80,82,134,110,48,108.62,202,63.00,-60.00,-1016.00
2024-05-19 08:15:05.510161,3,4,-141,0,0,0,80,82,134,110,48,108.30,202,72.00,-60.00,-1034.00
2024-05-19 08:15:05.649565,3,3,-141,0,0,0,80,82,136,110,48,108.74,203,67.00,-65.00,-1019.00
2024-05-19 08:15:05.713951,3,3,-141,0,0,0,80,82,137,120,48,108.87,203,62.00,-98.00,-999.00
2024-05-19 08:15:05.854285,3,5,-141,0,1,0,80,82,137,120,48,108.56,203,29.00,-118.00,-977.00
2024-05-19 08:15:05.969518,0,7,-141,0,0,0,80,83,138,120,48,108.48,203,40.00,-81.00,-965.00
2024-05-19 08:15:06.161570,0,6,-142,0,0,0,80,83,138,120,48,108.32,203,42.00,-74.00,-1006.00
2024-05-19 08:15:06.172802,1,6,-142,0,0,0,80,83,140,120,48,108.66,203,68.00,-61.00,-990.00
2024-05-19 08:15:06.224014,1,4,-142,0,0,0,80,83,139,120,48,108.53,203,52.00,-62.00,-967.00
2024-05-19 08:15:06.366238,2,2,-142,0,0,0,80,83,140,120,48,108.32,203,51.00,-84.00,-1032.00
2024-05-19 08:15:06.428170,2,4,-142,0,0,0,80,83,139,120,48,108.75,203,84.00,-70.00,-972.00
2024-05-19 08:15:06.571476,3,3,-142,0,0,0,80,83,140,120,48,108.36,204,58.00,-95.00,-968.00
2024-05-19 08:15:06.631920,3,4,-142,0,0,0,80,83,139,120,48,108.62,204,74.00,-82.00,-973.00
2024-05-19 08:15:06.775862,2,4,-142,0,0,0,80,83,138,120,48,108.70,204,88.00,-83.00,-1080.00
2024-05-19 08:15:06.835947,2,3,-142,0,0,0,80,83,138,120,48,108.66,204,80.00,-72.00,-997.00
2024-05-19 08:15:06.981436,4,3,-141,0,-1,0,81,83,139,120,48,108.58,204,76.00,-74.00,-1003.00
2024-05-19 08:15:07.040084,4,3,-141,0,-1,0,81,83,138,120,48,108.45,204,76.00,-75.00,-1020.00
2024-05-19 08:15:07.185631,5,3,-142,0,0,0,81,83,138,120,48,108.64,204,75.00,-59.00,-1006.00
2024-05-19 08:15:07.243931,4,4,-142,0,0,0,81,83,139,120,48,108.38,204,81.00,-41.00,-980.00
2024-05-19 08:15:07.390391,5,3,-142,0,-1,0,81,83,140,120,48,108.72,204,68.00,-45.00,-993.00
2024-05-19 08:15:07.448044,4,3,-142,0,-1,0,81,83,140,120,48,108.65,204,99.00,-34.00,-984.00
2024-05-19 08:15:07.550404,4,2,-142,0,-1,0,81,83,140,120,48,108.40,205,92.00,-12.00,-986.00
2024-05-19 08:15:07.697625,6,1,-142,0,-1,0,81,83,140,120,48,108.40,205,109.00,-40.00,-963.00
2024-05-19 08:15:07.753987,7,0,-142,0,-1,0,81,83,139,120,48,108.17,205,81.00,-57.00,-956.00
2024-05-19 08:15:07.902341,7,0,-142,0,0,0,81,83,139,120,48,108.67,205,82.00,-69.00,-1002.00
2024-05-19 08:15:07.957921,5,2,-142,0,0,0,81,84,137,120,48,108.37,205,98.00,-48.00,-1008.00
2024-05-19 08:15:08.060009,5,3,-142,0,0,0,81,84,137,120,48,108.58,205,96.00,-44.00,-1021.00
2024-05-19 08:15:08.209871,5,2,-142,0,0,0,81,84,137,120,48,108.27,205,100.00,-41.00,-1007.00
2024-05-19 08:15:08.263800,5,0,-142,0,0,0,81,84,136,120,48,108.55,205,86.00,-52.00,-1036.00
2024-05-19 08:15:08.414542,5,1,-142,0,0,0,81,84,136,120,48,108.46,205,102.00,-42.00,-1011.00
2024-05-19 08:15:08.467997,4,2,-142,0,0,0,81,84,136,120,48,108.35,205,95.00,-35.00,-987.00
2024-05-19 08:15:08.621574,4,2,-142,0,0,0,81,84,136,120,48,108.48,206,83.00,-41.00,-989.00
2024-05-19 08:15:08.671797,4,2,-142,0,0,0,81,84,136,120,48,108.12,206,77.00,-39.00,-990.00
2024-05-19 08:15:08.823964,4,1,-142,0,0,0,81,84,136,120,48,108.38,206,80.00,-36.00,-1002.00
2024-05-19 08:15:08.875952,4,1,-142,0,0,0,81,84,135,120,48,108.14,206,71.00,-43.00,-999.00
2024-05-19 08:15:08.978171,3,2,-142,0,0,0,81,83,135,120,48,108.37,206,72.00,-31.00,-1018.00
2024-05-19 08:15:09.131381,3,2,-142,0,0,0,81,83,135,120,48,108.23,206,73.00,-34.00,-1000.00
2024-05-19 08:15:09.181979,3,1,-142,0,0,0,81,83,135,120,48,108.28,206,78.00,-34.00,-1003.00
2024-05-19 08:15:09.336026,4,1,-142,0,0,0,81,83,135,120,48,108.01,206,75.00,-45.00,-988.00
2024-05-19 08:15:09.336206,4,1,-142,0,0,0,81,83,135,120,48,108.43,206,76.00,-62.00,-996.00
2024-05-19 08:15:09.438025,3,2,-142,0,0,0,81,83,135,120,48,108.36,206,57.00,-71.00,-997.00
2024-05-19 08:15:09.540763,3,4,-142,0,0,0,81,83,135,120,48,108.32,207,75.00,-60.00,-958.00
2024-05-19 08:15:09.640983,3,4,-142,0,0,0,81,83,133,120,48,108.36,207,53.00,-61.00,-1001.00
2024-05-19 08:15:09.742861,3,3,-142,0,0,0,81,83,134,120,48,108.19,207,52.00,-55.00,-1008.00
2024-05-19 08:15:09.848045,2,3,-142,0,0,0,81,83,133,110,48,108.54,207,58.00,-68.00,-1010.00
2024-05-19 08:15:09.946894,2,3,-142,0,0,0,81,83,134,110,48,108.36,207,68.00,-62.00,-1020.00
2024-05-19 08:15:10.048948,3,4,-142,0,0,0,81,83,134,120,48,108.34,207,54.00,-62.00,-979.00
2024-05-19 08:15:10.150940,3,3,-142,0,0,0,81,83,134,120,47,108.47,207,59.00,-73.00,-994.00
2024-05-19 08:15:10.257993,3,4,-142,0,0,0,81,83,135,120,47,108.48,207,49.00,-89.00,-988.00
2024-05-19 08:15:10.354987,3,5,-142,0,0,0,81,83,135,120,47,108.08,207,71.00,-67.00,-997.00
2024-05-19 08:15:10.462627,1,5,-142,0,0,0,81,83,136,120,47,108.05,207,81.00,-68.00,-1021.00
2024-05-19 08:15:10.559791,2,4,-142,0,0,0,81,83,136,120,47,108.29,208,82.00,-71.00,-978.00
2024-05-19 08:15:10.667224,4,3,-142,0,0,0,81,83,136,120,47,108.57,208,68.00,-69.00,-981.00
2024-05-19 08:15:10.763772,4,4,-142,0,0,0,81,83,137,120,47,108.23,208,65.00,-75.00,-982.00
2024-05-19 08:15:10.871993,3,4,-142,0,0,0,81,83,137,120,47,108.36,208,84.00,-79.00,-988.00
2024-05-19 08:15:10.968017,3,5,-142,0,0,0,80,83,137,120,47,108.37,208,71.00,-69.00,-972.00
2024-05-19 08:15:11.069753,3,5,-142,0,0,0,80,83,137,120,47,108.42,208,89.00,-67.00,-972.00
2024-05-19 08:15:11.179145,4,5,-142,0,0,0,80,83,136,120,47,108.26,208,104.00,-67.00,-979.00
2024-05-19 08:15:11.273890,5,4,-142,0,0,0,80,83,137,120,47,108.25,208,99.00,-73.00,-993.00
2024-05-19 08:15:11.387284,5,4,-142,0,0,0,80,83,137,120,47,108.46,208,107.00,-81.00,-1003.00
2024-05-19 08:15:11.478302,5,3,-142,0,0,0,80,83,137,120,47,108.37,208,93.00,-77.00,-1016.00
2024-05-19 08:15:11.588834,5,4,-142,0,0,0,80,83,136,120,47,108.59,209,96.00,-79.00,-989.00
2024-05-19 08:15:11.681821,5,4,-142,0,0,0,80,83,137,120,47,108.02,209,105.00,-76.00,-993.00
2024-05-19 08:15:11.793579,5,5,-142,0,0,0,80,83,137,120,47,108.58,209,104.00,-94.00,-972.00
2024-05-19 08:15:11.885667,6,4,-142,0,0,0,80,83,137,120,47,108.22,209,102.00,-75.00,-994.00
2024-05-19 08:15:11.998430,6,4,-142,0,0,0,81,83,137,120,47,108.46,209,113.00,-71.00,-965.00
2024-05-19 08:15:12.089866,6,4,-142,0,0,0,81,83,137,120,47,108.35,209,111.00,-80.00,-985.00
2024-05-19 08:15:12.203691,6,4,-142,0,0,0,81,83,137,120,47,108.43,209,98.00,-74.00,-1027.00
2024-05-19 08:15:12.293853,6,4,-142,0,0,0,81,83,138,120,47,108.47,209,99.00,-70.00,-986.00
2024-05-19 08:15:12.396531,6,3,-142,0,0,0,81,83,137,120,47,108.20,209,100.00,-94.00,-1007.00
2024-05-19 08:15:12.501810,5,4,-142,0,0,0,81,83,138,120,47,108.39,209,107.00,-93.00,-991.00
2024-05-19 08:15:12.599756,5,4,-142,0,0,0,81,83,137,120,47,108.35,210,80.00,-103.00,-981.00
2024-05-19 08:15:12.703015,5,5,-142,0,0,0,81,83,137,120,47,108.33,210,125.00,-99.00,-993.00
2024-05-19 08:15:12.752970,5,6,-142,0,0,0,81,83,138,120,47,108.47,210,102.00,-88.00,-968.00
2024-05-19 08:15:12.919845,6,5,-142,0,0,0,81,83,137,120,47,108.18,210,102.00,-90.00,-981.00
2024-05-19 08:15:13.007652,6,6,-142,0,0,0,82,84,137,120,47,108.46,210,112.00,-77.00,-995.00
2024-05-19 08:15:13.124883,6,5,-142,0,0,0,82,84,137,120,47,108.26,210,116.00,-64.00,-1011.00
2024-05-19 08:15:13.211695,6,4,-142,0,0,0,82,84,137,120,47,108.32,210,105.00,-75.00,-981.00
2024-05-19 08:15:13.329574,6,4,-142,0,0,0,82,84,137,120,47,108.17,210,89.00,-65.00,-1018.00
2024-05-19 08:15:13.364644,5,4,-142,0,0,0,82,84,137,120,47,108.43,210,118.00,-67.00,-1002.00
2024-05-19 08:15:13.534542,5,4,-142,0,0,0,82,84,137,120,47,108.23,210,114.00,-74.00,-993.00
