TS,pitch,roll,yaw,vgx,vgy,vgz,templ,temph,tof,h,bat,baro,time,agx,agy,agz
2024-06-06 23:44:07.379382,0,0,67,0,0,0,76,78,10,0,50,94.60,74,14.00,-1.00,-998.00
2024-06-06 23:44:07.426996,0,0,67,0,0,0,76,78,10,0,50,94.56,74,15.00,-1.00,-1001.00
2024-06-06 23:44:07.576688,0,0,67,0,0,0,76,78,10,0,50,94.31,74,15.00,0.00,-999.00
2024-06-06 23:44:07.682526,0,0,67,0,0,0,76,78,10,0,50,94.57,74,15.00,-2.00,-1001.00
2024-06-06 23:44:07.733882,0,0,67,0,0,0,76,78,10,0,50,94.43,74,15.00,0.00,-1001.00
2024-06-06 23:44:07.874771,0,0,67,0,0,0,76,78,10,0,50,94.68,74,15.00,0.00,-998.00
2024-06-06 23:44:07.939130,0,0,67,0,0,0,76,78,10,0,50,94.42,74,14.00,-2.00,-998.00
2024-06-06 23:44:08.039110,0,0,67,0,0,0,76,78,10,0,50,94.48,74,13.00,0.00,-999.00
2024-06-06 23:44:08.154885,0,0,67,0,0,0,76,78,10,0,50,94.65,74,15.00,-1.00,-1001.00
2024-06-06 23:44:08.242823,0,0,67,0,0,0,76,77,10,0,50,94.77,74,16.00,0.00,-998.00
2024-06-06 23:44:08.348886,0,0,67,0,0,0,76,77,10,0,50,94.38,74,15.00,-1.00,-999.00
2024-06-06 23:44:08.461916,0,0,67,0,0,0,76,77,10,0,50,94.62,74,15.00,-1.00,-999.00
2024-06-06 23:44:08.605575,0,0,67,0,0,0,76,77,10,0,50,94.79,74,14.00,-1.00,-1000.00
2024-06-06 23:44:08.650678,0,0,67,0,0,0,76,77,10,0,50,94.68,74,16.00,0.00,-1000.00
2024-06-06 23:44:08.769304,0,0,67,0,0,0,76,77,10,0,50,94.67,74,14.00,0.00,-999.00
2024-06-06 23:44:08.912258,0,0,67,0,0,0,76,77,10,0,50,94.48,74,15.00,0.00,-998.00
2024-06-06 23:44:08.957399,0,0,67,0,0,0,76,77,10,0,50,94.73,74,15.00,-1.00,-1001.00
2024-06-06 23:44:09.076143,0,0,67,0,0,0,76,77,10,0,50,94.74,74,15.00,0.00,-999.00
2024-06-06 23:44:09.219647,0,0,67,0,0,0,76,77,10,0,50,94.62,74,15.00,-1.00,-999.00
2024-06-06 23:44:09.219915,0,0,67,0,0,0,75,78,10,0,50,94.65,74,14.00,0.00,-999.00
2024-06-06 23:44:09.383529,0,0,67,0,0,0,75,78,10,0,50,94.72,74,15.00,-1.00,-1000.00
2024-06-06 23:44:09.445558,0,0,67,0,0,0,75,78,10,0,50,94.79,74,15.00,0.00,-998.00
2024-06-06 23:44:09.519567,0,0,67,0,0,0,75,78,10,0,50,94.67,74,14.00,0.00,-1002.00
2024-06-06 23:44:09.679807,0,0,67,0,0,0,75,78,10,0,50,94.86,74,15.00,-2.00,-1000.00
2024-06-06 23:44:09.723716,0,0,67,0,0,0,75,78,10,0,50,94.56,74,15.00,0.00,-998.00
2024-06-06 23:44:09.884503,0,0,67,0,0,0,75,78,10,0,50,94.17,74,14.00,-1.00,-1000.00
2024-06-06 23:44:09.927466,0,0,67,0,0,0,75,78,10,0,50,94.39,74,14.00,0.00,-1000.00
2024-06-06 23:44:10.089343,0,0,67,0,0,0,75,78,10,0,50,94.58,74,14.00,-1.00,-1000.00
2024-06-06 23:44:10.131422,0,0,67,0,0,0,75,78,10,0,50,94.54,74,13.00,-1.00,-1001.00
2024-06-06 23:44:10.294306,0,0,67,0,0,0,76,79,10,0,50,94.75,74,16.00,-1.00,-1000.00
2024-06-06 23:44:10.336636,0,0,67,0,0,0,76,79,10,0,50,94.69,74,14.00,0.00,-998.00
2024-06-06 23:44:10.499271,0,0,67,0,0,0,76,79,10,0,50,94.51,74,13.00,-1.00,-1000.00
2024-06-06 23:44:10.539370,0,0,67,0,0,0,76,79,10,0,50,94.35,74,15.00,0.00,-998.00
2024-06-06 23:44:10.703684,0,0,67,0,0,0,76,79,10,0,50,94.62,74,15.00,0.00,-1000.00
2024-06-06 23:44:10.743358,0,0,67,0,0,0,76,79,10,0,50,94.99,74,15.00,-1.00,-998.00
2024-06-06 23:44:10.908892,0,0,67,0,0,0,76,79,10,0,50,94.72,74,14.00,0.00,-998.00
2024-06-06 23:44:10.947369,0,0,67,0,0,0,76,79,10,0,50,94.60,74,15.00,0.00,-999.00
2024-06-06 23:44:11.113493,0,0,67,0,0,0,76,79,10,0,50,94.38,74,15.00,-2.00,-999.00
2024-06-06 23:44:11.151311,0,0,67,0,0,0,76,79,10,0,50,94.53,74,15.00,0.00,-998.00
2024-06-06 23:44:11.319719,0,0,67,0,0,0,76,79,10,0,50,94.49,74,15.00,-1.00,-998.00
2024-06-06 23:44:11.355302,0,0,67,0,0,0,76,79,10,0,50,94.59,74,14.00,0.00,-999.00
2024-06-06 23:44:11.457484,0,0,67,0,0,0,76,79,10,0,50,94.71,74,15.00,0.00,-998.00
2024-06-06 23:44:11.559277,0,0,67,0,0,0,76,79,10,0,50,94.53,74,15.00,0.00,-998.00
2024-06-06 23:44:11.727769,0,0,67,0,0,0,76,79,10,0,50,94.63,74,14.00,-1.00,-1000.00
2024-06-06 23:44:11.763212,0,0,67,0,0,0,76,79,10,0,50,94.55,74,15.00,-1.00,-999.00
2024-06-06 23:44:11.933579,0,0,67,0,0,0,76,79,10,0,50,94.38,74,16.00,-1.00,-999.00
2024-06-06 23:44:11.967257,0,0,67,0,0,0,76,79,10,0,50,94.25,74,15.00,-1.00,-1002.00
2024-06-06 23:44:12.137317,0,0,67,0,0,0,76,79,10,0,50,94.49,74,15.00,-1.00,-1000.00
2024-06-06 23:44:12.137526,0,0,67,0,0,0,76,79,10,0,50,94.76,74,15.00,0.00,-1002.00
2024-06-06 23:44:12.273222,0,0,67,0,0,0,76,78,10,0,50,94.21,74,15.00,-1.00,-1000.00
2024-06-06 23:44:12.411291,0,0,67,0,0,0,76,78,10,0,50,94.32,74,14.00,-1.00,-1000.00
2024-06-06 23:44:12.426267,0,0,67,0,0,0,76,78,10,0,50,94.68,74,14.00,0.00,-998.00
2024-06-06 23:44:12.547049,0,0,67,0,0,0,76,78,10,0,50,94.57,74,13.00,0.00,-1000.00
2024-06-06 23:44:12.630417,0,0,67,0,0,0,76,78,10,0,50,94.62,74,15.00,0.00,-997.00
2024-06-06 23:44:12.732268,0,0,67,0,0,0,76,78,10,0,50,94.66,74,12.00,0.00,-1001.00
2024-06-06 23:44:12.854304,0,0,67,0,0,0,76,78,10,0,50,94.66,74,13.00,0.00,-1008.00
2024-06-06 23:44:12.936382,0,0,67,0,0,0,76,78,10,0,50,94.66,74,11.00,1.00,-1000.00
2024-06-06 23:44:13.058700,0,0,67,0,0,0,76,78,10,0,50,94.66,74,12.00,9.00,-996.00
2024-06-06 23:44:13.140249,0,0,67,0,0,0,76,78,10,0,50,94.66,74,15.00,15.00,-986.00
2024-06-06 23:44:13.263842,0,0,67,0,0,0,76,79,10,0,50,94.66,74,1.00,2.00,-1028.00
2024-06-06 23:44:13.344267,-1,0,67,0,0,0,76,79,10,0,50,94.66,74,-1.00,4.00,-1126.00
2024-06-06 23:44:13.468222,-1,0,67,0,0,-2,76,79,10,0,50,94.66,75,22.00,3.00,-1300.00
2024-06-06 23:44:13.548339,1,0,67,0,0,-5,76,79,12,0,50,94.66,75,19.00,-10.00,-1236.00
2024-06-06 23:44:13.674550,1,0,67,0,0,-6,76,79,21,0,50,94.88,75,14.00,-10.00,-1115.00
2024-06-06 23:44:13.752292,1,0,67,0,0,-7,76,79,29,0,50,95.13,75,1.00,-9.00,-1043.00
2024-06-06 23:44:13.877844,1,0,67,0,0,-7,76,79,36,10,50,95.08,75,3.00,-6.00,-989.00
2024-06-06 23:44:13.956131,1,0,67,0,0,-7,76,79,43,10,50,94.98,75,5.00,-8.00,-955.00
2024-06-06 23:44:14.083485,0,0,67,0,0,-6,76,79,52,20,50,95.22,75,5.00,1.00,-923.00
2024-06-06 23:44:14.160082,0,0,67,0,0,-5,76,79,58,20,50,95.07,75,8.00,-2.00,-906.00
2024-06-06 23:44:14.287635,0,0,67,0,0,-4,76,79,65,30,50,95.26,75,6.00,0.00,-903.00
2024-06-06 23:44:14.364092,0,0,67,0,0,-3,76,79,71,30,50,94.94,75,8.00,-2.00,-894.00
2024-06-06 23:44:14.493557,0,0,67,0,0,-2,76,79,76,40,50,95.44,76,7.00,-5.00,-901.00
2024-06-06 23:44:14.573070,0,0,67,0,0,-1,76,79,79,40,50,95.69,76,0.00,-1.00,-919.00
2024-06-06 23:44:14.670272,0,0,67,0,0,-1,76,79,83,40,50,95.50,76,6.00,0.00,-928.00
2024-06-06 23:44:14.800429,0,0,67,0,0,0,76,79,85,40,50,95.50,76,4.00,0.00,-947.00
2024-06-06 23:44:14.874093,0,0,67,0,0,0,76,79,87,40,50,95.74,76,8.00,3.00,-957.00
2024-06-06 23:44:15.004469,0,0,67,0,0,0,76,79,89,50,50,95.72,76,4.00,-6.00,-976.00
2024-06-06 23:44:15.078073,0,0,67,0,0,0,76,79,90,50,50,95.55,76,-2.00,-5.00,-974.00
2024-06-06 23:44:15.209852,0,0,67,0,0,0,76,79,91,50,50,95.31,76,0.00,-3.00,-971.00
2024-06-06 23:44:15.282035,0,0,67,0,0,0,76,79,92,50,50,95.89,76,5.00,-2.00,-976.00
2024-06-06 23:44:15.413776,0,0,67,0,0,0,76,79,93,50,50,95.44,76,14.00,-10.00,-971.00
2024-06-06 23:44:15.485969,0,0,67,0,0,0,76,79,93,50,50,95.60,77,9.00,0.00,-979.00
2024-06-06 23:44:15.588369,0,0,67,0,0,0,76,79,93,50,50,95.42,77,9.00,-9.00,-974.00
2024-06-06 23:44:15.720937,0,0,67,0,0,0,76,79,93,50,50,95.34,77,5.00,-4.00,-971.00
2024-06-06 23:44:15.793770,0,0,67,0,0,0,76,79,93,50,50,95.33,77,6.00,-1.00,-991.00
2024-06-06 23:44:15.894212,0,0,67,0,0,0,76,79,93,50,50,95.68,77,3.00,-7.00,-976.00
2024-06-06 23:44:15.995924,0,0,67,0,0,0,76,79,92,50,50,95.58,77,2.00,-8.00,-981.00
2024-06-06 23:44:16.131035,0,0,67,0,0,1,76,79,91,50,50,95.69,77,-5.00,-3.00,-992.00
2024-06-06 23:44:16.148686,0,0,67,0,0,1,76,79,90,50,50,95.58,77,3.00,-5.00,-997.00
2024-06-06 23:44:16.335330,0,0,67,0,0,1,76,78,90,50,50,95.68,77,-3.00,4.00,-1003.00
2024-06-06 23:44:16.352766,0,0,67,0,0,1,76,78,89,50,50,95.45,77,-3.00,7.00,-986.00
2024-06-06 23:44:16.540039,0,0,67,0,0,1,76,78,88,50,50,95.41,78,-3.00,-8.00,-983.00
2024-06-06 23:44:16.556645,0,0,67,0,0,1,76,78,87,50,50,95.51,78,9.00,-17.00,-1000.00
2024-06-06 23:44:16.745238,0,0,67,0,0,0,76,78,86,50,50,95.55,78,11.00,-11.00,-1009.00
2024-06-06 23:44:16.764078,0,0,67,0,0,0,76,78,84,50,50,95.35,78,9.00,-2.00,-1004.00
2024-06-06 23:44:16.862652,0,0,67,0,0,0,76,78,84,50,50,95.43,78,15.00,-13.00,-1008.00
2024-06-06 23:44:17.052517,0,0,67,0,0,0,76,78,82,50,50,95.69,78,17.00,-2.00,-1008.00
2024-06-06 23:44:17.068980,0,0,67,0,0,0,76,78,82,50,50,95.51,78,0.00,2.00,-1006.00
2024-06-06 23:44:17.168620,0,0,67,0,0,0,76,78,80,50,50,95.48,78,-3.00,-5.00,-1002.00
2024-06-06 23:44:17.359287,0,0,67,0,0,0,76,78,80,50,50,95.34,78,10.00,-10.00,-1016.00
2024-06-06 23:44:17.372608,0,0,67,0,0,0,76,78,79,40,50,95.37,78,8.00,-3.00,-1012.00
2024-06-06 23:44:17.564051,0,0,67,0,0,0,76,78,78,40,50,95.51,79,-1.00,-6.00,-998.00
2024-06-06 23:44:17.578071,0,0,67,0,0,0,76,78,78,40,50,95.43,79,8.00,-7.00,-1011.00
2024-06-06 23:44:17.678586,0,0,67,0,0,0,76,78,77,40,50,95.38,79,14.00,-1.00,-1007.00
2024-06-06 23:44:17.871262,0,0,67,0,0,0,76,78,77,40,50,95.60,79,-4.00,-2.00,-1006.00
2024-06-06 23:44:17.882535,0,0,67,0,0,0,76,78,77,40,50,95.33,79,8.00,-7.00,-1015.00
2024-06-06 23:44:18.075989,0,0,67,0,0,0,76,78,76,40,50,95.40,79,9.00,-11.00,-1004.00
2024-06-06 23:44:18.086594,0,0,67,0,0,0,76,78,76,40,50,95.46,79,6.00,-5.00,-1005.00
2024-06-06 23:44:18.280849,0,0,67,0,0,0,76,78,76,40,50,95.66,79,3.00,-6.00,-1011.00
2024-06-06 23:44:18.290468,0,0,67,0,0,0,76,78,76,40,50,95.42,79,7.00,2.00,-1007.00
2024-06-06 23:44:18.414623,0,0,67,0,0,0,76,78,76,40,50,95.30,79,5.00,-8.00,-1009.00
2024-06-06 23:44:18.494475,0,0,67,0,0,0,76,78,76,40,50,95.20,80,8.00,-5.00,-996.00
2024-06-06 23:44:18.596492,0,0,67,0,0,0,76,78,76,40,50,95.37,80,8.00,-12.00,-1003.00
2024-06-06 23:44:18.699210,0,0,67,0,0,0,76,78,76,40,50,95.45,80,10.00,-7.00,-990.00
2024-06-06 23:44:18.895732,0,0,67,0,0,0,76,78,76,40,50,95.57,80,5.00,-10.00,-999.00
2024-06-06 23:44:18.902775,0,0,67,0,0,0,76,78,76,40,50,95.43,80,8.00,0.00,-1006.00
2024-06-06 23:44:19.100177,0,0,67,0,0,0,76,78,76,40,50,95.51,80,-6.00,-5.00,-992.00
2024-06-06 23:44:19.107199,0,0,67,0,0,0,76,78,76,40,50,95.44,80,8.00,-3.00,-1000.00
2024-06-06 23:44:19.304968,0,0,67,0,0,0,76,78,76,40,50,95.46,80,18.00,-2.00,-1002.00
2024-06-06 23:44:19.310548,0,0,67,0,0,0,75,78,77,40,50,95.69,80,20.00,-15.00,-991.00
2024-06-06 23:44:19.509972,0,0,67,0,0,0,75,78,77,40,50,95.55,80,1.00,-6.00,-986.00
2024-06-06 23:44:19.516175,0,0,67,0,0,0,75,78,77,40,50,95.18,81,13.00,-1.00,-1000.00
2024-06-06 23:44:19.616596,0,0,67,0,0,0,75,78,77,40,50,95.65,81,-2.00,-11.00,-989.00
2024-06-06 23:44:19.816863,0,0,67,0,0,0,75,78,77,40,50,95.55,81,8.00,-4.00,-1003.00
2024-06-06 23:44:19.817055,0,0,67,0,0,0,75,78,77,40,50,95.68,81,0.00,0.00,-991.00
2024-06-06 23:44:19.871757,0,0,67,0,0,0,75,78,77,40,50,95.64,81,4.00,-1.00,-994.00
2024-06-06 23:44:20.021879,0,0,67,0,0,0,75,78,77,40,50,95.50,81,11.00,-4.00,-1003.00
2024-06-06 23:44:20.075676,0,0,67,0,0,0,75,78,77,40,50,95.75,81,0.00,2.00,-1004.00
2024-06-06 23:44:20.228904,0,0,67,0,0,0,75,78,78,40,50,95.35,81,7.00,-12.00,-1002.00
2024-06-06 23:44:20.279837,0,0,67,0,0,0,75,78,78,40,50,95.20,81,9.00,-2.00,-1006.00
2024-06-06 23:44:20.431673,0,0,67,0,0,0,75,78,78,40,50,95.51,81,8.00,-9.00,-1016.00
2024-06-06 23:44:20.485261,0,0,67,0,0,0,75,78,78,40,50,95.42,82,5.00,-14.00,-980.00
2024-06-06 23:44:20.636171,0,0,67,0,0,0,75,78,78,40,50,95.30,82,3.00,-1.00,-1007.00
2024-06-06 23:44:20.687618,0,0,67,0,0,0,75,78,78,40,50,95.77,82,8.00,-7.00,-990.00
2024-06-06 23:44:20.789536,0,0,67,0,0,0,75,78,78,40,50,95.54,82,3.00,-11.00,-1037.00
2024-06-06 23:44:20.943189,0,0,67,0,0,0,75,78,79,40,50,95.65,82,12.00,-21.00,-1093.00
2024-06-06 23:44:20.993460,0,0,67,0,0,-1,75,78,80,40,50,95.31,82,-4.00,-9.00,-1093.00
2024-06-06 23:44:21.147955,0,0,67,0,0,-2,75,78,83,50,50,95.59,82,-8.00,-5.00,-1084.00
2024-06-06 23:44:21.197502,0,0,67,0,0,-3,75,78,86,50,50,95.54,82,7.00,-1.00,-1109.00
2024-06-06 23:44:21.352794,0,0,67,0,0,-3,76,78,91,50,50,95.39,82,4.00,-10.00,-1067.00
2024-06-06 23:44:21.401687,0,0,67,0,0,-4,76,78,96,60,50,95.79,82,-5.00,2.00,-1044.00
2024-06-06 23:44:21.503621,0,0,67,0,0,-5,76,78,101,60,50,96.02,83,16.00,-12.00,-1023.00
2024-06-06 23:44:21.659934,0,0,67,0,0,-5,76,78,106,70,50,95.76,83,0.00,0.00,-1013.00
2024-06-06 23:44:21.708482,0,0,67,0,0,-5,76,78,112,70,50,95.59,83,3.00,-3.00,-999.00
2024-06-06 23:44:21.865188,0,0,67,0,0,-5,76,78,118,80,50,95.94,83,-11.00,-2.00,-985.00
2024-06-06 23:44:21.912232,0,0,67,0,0,-5,76,78,123,80,50,96.24,83,7.00,-10.00,-985.00
2024-06-06 23:44:22.116001,0,0,67,0,0,-5,76,78,129,90,50,96.13,83,8.00,-7.00,-978.00
2024-06-06 23:44:22.116512,0,0,67,0,0,-5,76,78,134,90,50,95.89,83,7.00,-7.00,-971.00
2024-06-06 23:44:22.287447,0,0,67,0,0,-5,76,78,138,100,50,96.18,83,5.00,-11.00,-957.00
2024-06-06 23:44:22.371334,0,0,67,0,0,-4,76,79,144,100,50,96.24,83,3.00,1.00,-968.00
2024-06-06 23:44:22.449745,0,0,67,0,0,-4,76,79,147,110,50,96.12,83,3.00,-9.00,-959.00
2024-06-06 23:44:22.554002,0,0,67,0,0,-3,76,79,151,110,50,96.49,84,6.00,-10.00,-973.00
2024-06-06 23:44:22.626688,0,0,67,0,0,-3,76,79,155,120,50,95.97,84,13.00,0.00,-962.00
2024-06-06 23:44:22.742645,0,0,67,0,0,-3,76,79,158,120,50,96.20,84,6.00,-15.00,-966.00
2024-06-06 23:44:22.830078,0,0,67,0,0,-2,76,79,161,120,50,96.46,84,13.00,0.00,-972.00
2024-06-06 23:44:23.096766,0,0,67,0,0,-2,76,79,163,130,50,96.60,84,8.00,-2.00,-969.00
2024-06-06 23:44:23.209916,0,0,67,0,0,-2,76,79,166,130,50,96.33,84,7.00,-10.00,-969.00
2024-06-06 23:44:23.210141,0,0,67,0,0,-2,76,79,168,130,50,96.33,84,9.00,-5.00,-985.00
2024-06-06 23:44:23.252683,0,0,67,0,0,-1,76,79,170,130,50,96.17,84,20.00,-6.00,-983.00
2024-06-06 23:44:23.340526,0,0,67,0,0,-1,76,77,172,130,50,96.23,84,6.00,5.00,-980.00
2024-06-06 23:44:23.674074,0,0,67,0,0,-1,76,77,172,140,50,96.04,84,19.00,-13.00,-961.00
2024-06-06 23:44:23.675287,0,0,67,0,0,-1,76,77,173,140,50,96.48,85,0.00,7.00,-992.00
2024-06-06 23:44:23.677995,0,0,67,0,0,0,76,77,174,140,50,96.00,85,9.00,-13.00,-964.00
2024-06-06 23:44:23.698241,0,0,67,0,0,0,76,77,175,140,50,96.24,85,8.00,-8.00,-973.00
2024-06-06 23:44:23.964684,0,0,67,0,0,0,76,77,175,140,50,96.57,85,5.00,-3.00,-982.00
2024-06-06 23:44:23.964831,0,0,67,0,0,0,76,77,177,140,50,96.65,85,12.00,0.00,-989.00
2024-06-06 23:44:24.004962,0,0,67,0,0,0,76,77,177,140,50,96.35,85,10.00,7.00,-1008.00
2024-06-06 23:44:24.128434,0,0,67,0,0,0,76,77,176,140,50,96.39,85,24.00,-14.00,-994.00
2024-06-06 23:44:24.284779,0,0,67,0,0,0,76,77,177,140,50,96.52,85,13.00,-3.00,-1003.00
2024-06-06 23:44:24.312119,0,0,67,0,0,0,75,77,176,140,50,96.51,85,10.00,0.00,-999.00
2024-06-06 23:44:24.411296,0,0,67,0,0,0,75,77,177,140,50,96.47,85,13.00,-7.00,-995.00
2024-06-06 23:44:24.513274,0,0,67,0,0,0,75,77,176,140,50,96.26,86,-4.00,1.00,-1000.00
2024-06-06 23:44:24.629650,0,0,67,0,0,0,75,77,177,140,50,96.20,86,4.00,-3.00,-990.00
2024-06-06 23:44:24.718564,0,0,67,0,0,0,75,77,177,140,50,96.59,86,5.00,-15.00,-981.00
2024-06-06 23:44:24.834198,0,0,67,0,0,0,75,77,176,140,50,96.14,86,10.00,-1.00,-999.00
2024-06-06 23:44:24.921988,1,0,67,0,0,0,75,77,176,140,50,96.42,86,20.00,-12.00,-990.00
2024-06-06 23:44:25.039042,1,0,67,0,0,0,75,77,176,140,50,96.38,86,8.00,-4.00,-1002.00
2024-06-06 23:44:25.125395,1,0,67,0,0,0,75,77,178,140,50,96.08,86,6.00,-1.00,-1008.00
2024-06-06 23:44:25.244787,1,0,67,0,0,0,75,77,176,140,50,96.43,86,10.00,2.00,-994.00
2024-06-06 23:44:25.329165,1,0,67,0,0,0,75,77,177,140,50,96.60,86,9.00,1.00,-991.00
2024-06-06 23:44:25.449021,1,0,67,0,0,0,75,77,176,140,50,96.44,87,17.00,-22.00,-993.00
2024-06-06 23:44:25.533314,1,0,67,0,0,0,75,77,177,140,50,96.45,87,15.00,-3.00,-1005.00
2024-06-06 23:44:25.653559,1,0,67,0,0,0,75,77,177,140,50,96.40,87,19.00,-5.00,-1001.00
2024-06-06 23:44:25.737561,1,0,67,0,0,0,75,77,175,140,50,96.51,87,17.00,-14.00,-992.00
2024-06-06 23:44:25.858070,1,0,67,0,0,0,75,77,177,140,50,96.38,87,13.00,-3.00,-997.00
2024-06-06 23:44:25.942242,0,0,67,0,0,0,75,77,176,140,50,96.06,87,14.00,-13.00,-951.00
2024-06-06 23:44:26.062867,1,0,67,0,0,1,75,77,176,140,50,96.43,87,8.00,-2.00,-948.00
2024-06-06 23:44:26.145868,1,0,67,0,0,1,75,77,174,140,50,96.18,87,8.00,-10.00,-949.00
2024-06-06 23:44:26.270637,1,0,67,0,0,1,75,77,172,140,50,96.39,87,11.00,-8.00,-956.00
2024-06-06 23:44:26.349751,1,0,67,0,0,2,76,77,171,130,50,96.15,87,13.00,-9.00,-955.00
2024-06-06 23:44:26.472821,1,0,67,0,0,2,76,77,167,130,50,95.97,88,12.00,-5.00,-967.00
2024-06-06 23:44:26.553746,0,0,67,0,0,2,76,77,165,130,50,96.39,88,14.00,-1.00,-967.00
2024-06-06 23:44:26.656044,0,0,67,0,0,2,76,77,163,130,50,96.38,88,4.00,0.00,-986.00
2024-06-06 23:44:26.759613,0,0,67,0,0,2,76,77,160,120,50,96.21,88,3.00,4.00,-985.00
2024-06-06 23:44:26.859668,0,0,67,0,0,2,76,77,157,120,50,96.14,88,17.00,-13.00,-989.00
2024-06-06 23:44:26.984789,0,0,67,0,0,2,76,77,155,120,50,95.91,88,5.00,1.00,-1001.00
2024-06-06 23:44:27.013309,0,0,67,0,0,2,76,77,152,120,50,95.86,88,-3.00,12.00,-1012.00
2024-06-06 23:44:27.189266,0,0,67,0,0,2,76,77,150,110,50,95.95,88,10.00,1.00,-1005.00
2024-06-06 23:44:27.216911,0,0,67,0,0,2,76,77,147,110,50,96.03,88,5.00,4.00,-1015.00
2024-06-06 23:44:27.393955,0,0,67,0,0,2,75,77,145,110,50,96.01,88,-4.00,-7.00,-1008.00
2024-06-06 23:44:27.471773,0,0,67,0,0,1,75,77,143,110,50,96.01,89,7.00,2.00,-1012.00
2024-06-06 23:44:27.523088,0,0,67,0,0,1,75,77,141,100,50,95.69,89,4.00,0.00,-1011.00
2024-06-06 23:44:27.701164,0,0,67,0,0,1,75,77,140,100,50,95.87,89,6.00,1.00,-1020.00
2024-06-06 23:44:27.727079,0,0,67,0,0,1,75,77,139,100,50,95.75,89,0.00,2.00,-1017.00
2024-06-06 23:44:27.905977,0,0,67,0,0,1,75,77,137,100,50,96.10,89,9.00,-8.00,-1005.00
2024-06-06 23:44:27.931826,0,0,67,0,0,1,75,77,135,100,50,95.70,89,3.00,-9.00,-1000.00
2024-06-06 23:44:28.110745,0,0,67,0,0,1,75,77,135,100,50,95.58,89,2.00,5.00,-1003.00
2024-06-06 23:44:28.134881,0,0,67,0,0,0,75,77,133,100,50,95.99,89,6.00,2.00,-996.00
2024-06-06 23:44:28.315630,0,0,67,0,0,0,75,77,132,100,50,95.73,89,-4.00,7.00,-1015.00
2024-06-06 23:44:28.339990,0,0,67,0,0,0,74,77,132,100,50,95.96,89,18.00,0.00,-1014.00
2024-06-06 23:44:28.520845,0,0,67,0,0,0,74,77,131,100,50,95.83,90,9.00,-4.00,-1006.00
2024-06-06 23:44:28.542873,0,0,67,0,0,0,74,77,130,90,50,96.00,90,14.00,-8.00,-1015.00
2024-06-06 23:44:28.725574,0,0,67,0,0,0,74,77,130,90,50,95.90,90,18.00,-1.00,-1017.00
2024-06-06 23:44:28.747223,0,0,67,0,0,0,74,77,130,90,50,95.84,90,5.00,2.00,-1020.00
2024-06-06 23:44:28.929999,0,0,67,0,0,0,74,77,130,90,50,95.84,90,5.00,19.00,-1011.00
2024-06-06 23:44:28.951415,0,0,67,0,0,0,74,77,130,90,50,95.88,90,11.00,-9.00,-1001.00
2024-06-06 23:44:29.134936,0,0,67,0,0,0,74,77,130,90,50,95.80,90,21.00,-18.00,-993.00
2024-06-06 23:44:29.160119,0,0,67,0,0,0,74,77,130,90,50,95.90,90,8.00,-3.00,-1006.00
2024-06-06 23:44:29.261329,0,0,67,0,0,0,74,77,130,90,50,95.99,90,4.00,0.00,-997.00
2024-06-06 23:44:29.358858,0,0,67,0,0,0,75,77,130,90,50,95.82,90,11.00,0.00,-994.00
2024-06-06 23:44:29.544478,0,0,67,0,0,0,75,77,131,90,50,95.69,91,-2.00,7.00,-1000.00
2024-06-06 23:44:29.562779,0,0,67,0,0,0,75,77,131,90,50,96.03,91,20.00,-1.00,-990.00
2024-06-06 23:44:29.749379,0,0,67,0,0,0,75,77,131,90,50,95.73,91,6.00,-6.00,-997.00
2024-06-06 23:44:29.766767,0,0,67,0,0,0,75,77,131,90,50,95.92,91,7.00,4.00,-998.00
2024-06-06 23:44:29.954023,0,0,67,0,0,0,75,77,131,90,50,96.04,91,15.00,0.00,-991.00
2024-06-06 23:44:29.970779,0,0,67,0,0,0,75,77,131,100,50,95.76,91,8.00,-2.00,-991.00
2024-06-06 23:44:30.158990,0,0,67,0,0,0,75,77,131,100,50,95.50,91,5.00,-1.00,-996.00
2024-06-06 23:44:30.175666,0,0,67,0,0,0,75,77,131,100,50,95.88,91,9.00,5.00,-993.00
2024-06-06 23:44:30.364928,0,0,67,0,0,0,75,77,132,100,50,95.74,91,5.00,6.00,-1005.00
2024-06-06 23:44:30.379893,1,0,67,0,0,0,75,77,132,100,50,95.77,91,28.00,-19.00,-999.00
2024-06-06 23:44:30.482514,1,0,67,0,0,0,75,77,132,100,50,95.77,92,3.00,7.00,-992.00
2024-06-06 23:44:30.584896,1,0,67,0,0,0,75,77,132,100,50,96.19,92,1.00,5.00,-992.00
2024-06-06 23:44:30.633696,0,0,67,0,0,0,75,77,132,100,50,96.14,92,-2.00,-6.00,-1031.00
2024-06-06 23:44:30.773613,-5,0,67,0,0,0,75,77,133,100,50,96.18,92,16.00,14.00,-999.00
2024-06-06 23:44:30.837360,-8,0,67,0,1,0,75,77,133,90,50,96.03,92,21.00,-1.00,-1002.00
2024-06-06 23:44:30.980830,-8,0,67,1,3,0,75,77,134,90,50,95.96,92,-19.00,10.00,-1008.00
2024-06-06 23:44:31.041469,-7,0,67,1,4,0,75,77,133,90,50,95.91,92,-19.00,6.00,-1012.00
2024-06-06 23:44:31.182750,-6,0,67,2,5,0,75,77,131,90,50,95.88,92,-19.00,0.00,-1010.00
2024-06-06 23:44:31.245478,-5,0,67,2,6,0,75,77,131,90,50,96.03,92,-25.00,0.00,-1009.00
2024-06-06 23:44:31.387555,-4,0,67,2,6,0,75,77,132,90,50,95.92,92,-29.00,-11.00,-1006.00
2024-06-06 23:44:31.449360,-4,0,67,2,6,0,75,77,132,90,50,95.77,93,-29.00,5.00,-999.00
2024-06-06 23:44:31.592578,-1,0,67,2,6,0,75,77,132,90,50,95.89,93,-34.00,-4.00,-995.00
2024-06-06 23:44:31.653708,1,0,67,2,6,0,75,77,132,90,50,95.83,93,-45.00,-2.00,-1000.00
2024-06-06 23:44:31.797514,3,0,67,2,5,0,75,77,132,100,50,95.75,93,-46.00,9.00,-1017.00
2024-06-06 23:44:31.857313,4,0,67,1,4,0,75,77,132,100,50,95.83,93,-33.00,-2.00,-1019.00
2024-06-06 23:44:32.002340,3,0,67,1,3,0,75,77,132,100,50,95.89,93,-35.00,0.00,-991.00
2024-06-06 23:44:32.061292,1,0,67,1,3,0,75,77,132,100,50,96.28,93,-33.00,9.00,-1012.00
2024-06-06 23:44:32.207303,0,0,67,1,2,0,75,77,133,100,50,95.71,93,-16.00,-4.00,-998.00
2024-06-06 23:44:32.265558,0,0,67,1,2,0,75,77,132,100,50,95.66,93,-35.00,-1.00,-987.00
2024-06-06 23:44:32.411454,0,0,67,1,2,0,75,77,132,100,50,95.83,93,-24.00,11.00,-1010.00
2024-06-06 23:44:32.469231,0,0,67,1,2,0,75,77,132,100,50,95.71,94,-2.00,-6.00,-993.00
2024-06-06 23:44:32.616715,0,1,67,1,2,0,75,77,132,100,50,95.77,94,-22.00,-1.00,-989.00
2024-06-06 23:44:32.673177,1,2,67,0,2,0,75,77,131,100,50,95.71,94,-8.00,3.00,-1001.00
2024-06-06 23:44:32.775210,4,0,67,0,2,0,75,77,131,100,50,96.05,94,-21.00,6.00,-1011.00
2024-06-06 23:44:32.923419,5,-1,67,0,1,0,75,77,131,100,50,95.81,94,-12.00,-2.00,-1022.00
2024-06-06 23:44:32.979473,2,0,67,0,0,0,75,77,130,90,50,95.87,94,2.00,-5.00,-1002.00
2024-06-06 23:44:33.129122,1,0,67,0,0,0,75,77,130,90,50,95.79,94,21.00,-8.00,-1010.00
2024-06-06 23:44:33.186596,1,0,67,0,0,0,75,77,130,90,50,95.77,94,4.00,-2.00,-1005.00
2024-06-06 23:44:33.285464,0,0,67,0,0,0,75,77,130,90,50,95.90,94,11.00,10.00,-1018.00
2024-06-06 23:44:33.426377,1,0,67,0,0,0,75,77,130,90,50,95.99,94,1.00,-6.00,-996.00
2024-06-06 23:44:33.489372,1,0,67,0,0,0,75,77,130,90,50,96.04,95,0.00,-3.00,-995.00
2024-06-06 23:44:33.591259,1,0,67,0,0,0,75,77,130,90,50,95.81,95,18.00,-14.00,-981.00
2024-06-06 23:44:33.745049,1,0,67,0,0,0,75,77,130,90,50,95.87,95,-9.00,10.00,-1017.00
2024-06-06 23:44:33.795820,1,0,67,0,0,0,75,77,130,90,50,96.03,95,18.00,-17.00,-1003.00
2024-06-06 23:44:33.947489,0,0,67,0,0,0,75,77,130,90,50,95.70,95,0.00,-4.00,-997.00
2024-06-06 23:44:34.001188,0,0,67,0,0,0,75,77,130,90,50,95.81,95,8.00,-8.00,-1001.00
2024-06-06 23:44:34.101209,0,0,67,0,0,0,75,77,130,90,50,95.67,95,8.00,0.00,-996.00
2024-06-06 23:44:34.254724,0,0,67,0,0,0,75,77,130,90,50,95.85,95,0.00,0.00,-990.00
2024-06-06 23:44:34.305586,0,0,67,0,0,0,75,77,131,90,50,95.83,95,12.00,-5.00,-998.00
2024-06-06 23:44:34.459673,0,0,67,0,0,0,74,77,130,90,50,95.70,95,9.00,-14.00,-988.00
2024-06-06 23:44:34.509116,0,0,67,0,0,0,74,77,131,90,50,96.16,96,-2.00,-3.00,-999.00
2024-06-06 23:44:34.664303,0,0,67,0,0,0,74,77,131,90,50,95.91,96,5.00,2.00,-1002.00
2024-06-06 23:44:34.713082,0,0,67,0,0,0,74,77,130,90,50,95.74,96,5.00,-11.00,-987.00
2024-06-06 23:44:34.815165,0,0,67,0,0,0,74,77,130,90,50,95.75,96,23.00,-6.00,-1005.00
2024-06-06 23:44:34.866464,0,0,67,0,0,0,74,77,131,90,50,95.86,96,16.00,-12.00,-1003.00
2024-06-06 23:44:34.968345,0,0,67,0,0,0,74,77,131,90,50,95.76,96,11.00,-7.00,-986.00
2024-06-06 23:44:35.073809,0,0,67,0,0,0,74,77,131,90,50,96.00,96,19.00,7.00,-997.00
2024-06-06 23:44:35.172306,5,0,67,0,0,0,74,77,131,90,50,96.00,96,10.00,-5.00,-1007.00
2024-06-06 23:44:35.278577,8,0,67,0,-1,0,74,77,132,90,50,96.33,96,30.00,-11.00,-991.00
2024-06-06 23:44:35.376636,8,0,67,-1,-2,0,74,77,131,90,50,95.98,96,25.00,0.00,-1017.00
2024-06-06 23:44:35.483343,8,0,67,-1,-3,0,74,77,132,90,50,95.75,97,47.00,8.00,-1013.00
2024-06-06 23:44:35.580254,8,0,67,-2,-4,0,74,77,132,90,50,95.93,97,33.00,-6.00,-990.00
2024-06-06 23:44:35.688128,7,0,67,-2,-5,0,74,77,131,90,50,95.89,97,47.00,-2.00,-1015.00
2024-06-06 23:44:35.784154,6,0,67,-2,-6,0,74,77,132,90,50,95.90,97,60.00,-6.00,-994.00
2024-06-06 23:44:35.892948,6,0,67,-2,-6,0,74,77,131,90,50,95.83,97,44.00,0.00,-1009.00
2024-06-06 23:44:35.988115,4,0,67,-2,-7,0,74,77,131,90,50,95.89,97,52.00,3.00,-997.00
2024-06-06 23:44:36.097727,0,0,67,-2,-6,0,74,77,131,90,50,95.78,97,61.00,-1.00,-982.00
2024-06-06 23:44:36.192181,-1,0,67,-2,-6,0,74,77,131,90,50,95.75,97,58.00,8.00,-1001.00
2024-06-06 23:44:36.302838,-3,0,67,-2,-5,0,74,77,131,90,50,95.87,97,48.00,4.00,-998.00
2024-06-06 23:44:36.396084,-2,0,67,-1,-4,0,74,77,131,90,50,95.77,97,45.00,-1.00,-997.00
2024-06-06 23:44:36.498088,0,0,67,-1,-3,0,74,77,131,90,50,95.83,98,41.00,-5.00,-1006.00
2024-06-06 23:44:36.611406,0,0,67,-1,-2,0,74,77,131,90,50,95.88,98,30.00,-3.00,-998.00
2024-06-06 23:44:36.702308,0,0,67,-1,-2,0,74,77,131,90,50,95.65,98,41.00,-11.00,-996.00
2024-06-06 23:44:36.804116,0,0,67,-1,-2,0,74,77,131,90,50,95.84,98,39.00,-3.00,-1004.00
2024-06-06 23:44:36.916880,0,0,67,-1,-2,0,74,77,131,90,50,96.10,98,30.00,6.00,-1004.00
2024-06-06 23:44:37.112860,0,0,67,-1,-2,0,74,77,131,90,50,95.90,98,32.00,2.00,-986.00
2024-06-06 23:44:37.112916,0,-1,67,-1,-2,0,74,77,131,100,50,95.72,98,32.00,-9.00,-1016.00
2024-06-06 23:44:37.212164,0,-1,67,0,-2,0,74,77,132,100,50,96.07,98,29.00,2.00,-1000.00
2024-06-06 23:44:37.339531,0,-1,67,0,-2,0,74,77,131,100,50,95.93,98,31.00,-7.00,-1003.00
2024-06-06 23:44:37.422909,0,0,67,0,-2,0,75,77,131,100,50,95.73,98,32.00,7.00,-1000.00
2024-06-06 23:44:37.518094,-3,1,67,0,-1,0,75,77,131,100,50,95.90,99,22.00,-6.00,-978.00
2024-06-06 23:44:37.620079,-2,1,67,0,0,0,75,77,131,90,50,95.63,99,22.00,-7.00,-1008.00
2024-06-06 23:44:37.791687,0,0,67,0,0,0,75,77,131,90,50,95.78,99,10.00,1.00,-1006.00
2024-06-06 23:44:37.823985,0,0,67,0,0,0,75,77,131,90,50,95.94,99,1.00,3.00,-1008.00
2024-06-06 23:44:37.926141,0,0,67,0,0,0,75,77,131,90,50,95.79,99,12.00,-9.00,-1014.00
2024-06-06 23:44:38.124664,0,0,67,0,0,0,75,77,131,90,50,95.68,99,15.00,-6.00,-997.00
2024-06-06 23:44:38.134075,0,0,67,0,0,0,75,77,130,90,50,95.67,99,4.00,1.00,-1004.00
2024-06-06 23:44:38.321162,0,0,67,0,0,0,75,77,131,90,50,95.99,99,10.00,3.00,-1000.00
2024-06-06 23:44:38.334067,0,0,67,0,0,0,75,77,131,90,50,95.82,99,5.00,-6.00,-987.00
2024-06-06 23:44:38.453718,0,0,67,0,0,0,75,76,130,90,50,96.33,99,14.00,-9.00,-984.00
2024-06-06 23:44:38.566163,0,0,67,0,0,0,75,76,131,90,50,95.99,100,9.00,0.00,-1001.00
2024-06-06 23:44:38.588797,0,0,67,0,0,0,75,76,131,90,50,96.10,100,4.00,0.00,-1004.00
2024-06-06 23:44:38.710019,0,0,67,0,0,0,75,76,130,90,50,96.15,100,5.00,2.00,-995.00
2024-06-06 23:44:38.873609,0,0,67,0,0,0,75,76,130,90,50,96.29,100,0.00,6.00,-1004.00
2024-06-06 23:44:38.894790,0,0,67,0,0,0,75,76,131,90,50,96.07,100,8.00,0.00,-993.00
2024-06-06 23:44:39.016659,0,0,67,0,0,0,75,76,130,90,50,95.85,100,20.00,-9.00,-995.00
2024-06-06 23:44:39.181203,0,0,67,0,0,0,75,76,129,90,50,95.56,100,10.00,-3.00,-989.00
2024-06-06 23:44:39.201138,1,0,67,0,0,0,75,76,130,90,50,95.78,100,7.00,-2.00,-1001.00
2024-06-06 23:44:39.307174,0,0,67,0,0,0,75,76,130,90,50,95.86,100,6.00,-9.00,-986.00
2024-06-06 23:44:39.405252,0,0,67,0,0,0,75,77,130,90,50,95.82,100,14.00,-3.00,-1003.00
2024-06-06 23:44:39.506793,0,0,67,0,0,0,75,77,129,90,50,95.89,101,3.00,-6.00,-990.00
2024-06-06 23:44:39.608738,0,0,67,0,0,0,75,77,129,90,50,96.06,101,2.00,-2.00,-1008.00
2024-06-06 23:44:39.783904,0,0,67,0,0,0,75,77,129,90,50,95.97,101,0.00,2.00,-995.00
2024-06-06 23:44:39.812527,0,0,67,0,0,0,75,77,129,90,50,95.85,101,12.00,6.00,-996.00
2024-06-06 23:44:39.989039,0,-7,67,0,0,0,75,77,130,90,50,95.98,101,5.00,-12.00,-1017.00
2024-06-06 23:44:40.016508,0,-8,67,1,0,0,75,77,131,90,50,96.18,101,10.00,1.00,-1014.00
2024-06-06 23:44:40.193496,0,-5,67,2,-1,0,75,77,129,90,50,95.64,101,7.00,16.00,-1002.00
2024-06-06 23:44:40.220542,0,-2,67,3,-1,0,75,77,129,90,50,95.67,101,17.00,15.00,-1001.00
2024-06-06 23:44:40.398292,0,0,67,3,-1,0,75,77,129,90,50,95.63,101,1.00,36.00,-987.00
2024-06-06 23:44:40.425014,0,1,67,3,-1,0,74,77,129,90,50,95.69,101,18.00,19.00,-1010.00
2024-06-06 23:44:40.604367,0,0,67,2,-1,0,74,77,129,90,50,95.63,102,16.00,15.00,-1004.00
2024-06-06 23:44:40.628453,0,0,67,2,0,0,74,77,130,90,50,95.96,102,11.00,7.00,-990.00
2024-06-06 23:44:40.810452,0,-1,67,2,0,0,74,77,129,90,50,95.87,102,14.00,3.00,-992.00
2024-06-06 23:44:40.832533,0,0,67,2,-1,0,74,77,129,90,50,95.59,102,29.00,-3.00,-1005.00
2024-06-06 23:44:41.012630,0,0,67,2,-1,0,74,77,129,90,50,96.05,102,20.00,8.00,-1001.00
2024-06-06 23:44:41.036452,0,0,67,2,-1,0,74,77,129,90,50,95.70,102,16.00,12.00,-999.00
2024-06-06 23:44:41.217480,1,0,67,2,-1,0,74,77,129,90,50,95.62,102,12.00,11.00,-992.00
2024-06-06 23:44:41.240375,1,0,67,2,-1,0,74,77,129,90,50,95.62,102,5.00,8.00,-993.00
2024-06-06 23:44:41.422243,1,0,67,2,-1,0,74,77,129,90,50,95.74,102,24.00,1.00,-1016.00
2024-06-06 23:44:41.444552,0,0,67,2,0,0,75,77,129,90,50,95.91,103,26.00,15.00,-988.00
2024-06-06 23:44:41.627118,1,4,67,2,0,0,75,77,129,90,50,95.92,103,12.00,-3.00,-1023.00
2024-06-06 23:44:41.649175,1,3,67,1,0,0,75,77,129,90,50,95.82,103,28.00,7.00,-987.00
2024-06-06 23:44:41.750787,1,1,67,0,0,0,75,77,128,90,50,95.80,103,16.00,-3.00,-1013.00
2024-06-06 23:44:41.934377,0,0,67,0,0,0,75,77,129,90,50,95.83,103,17.00,-5.00,-1001.00
2024-06-06 23:44:41.954431,0,0,67,0,0,0,75,77,128,90,50,95.76,103,-4.00,-3.00,-1003.00
2024-06-06 23:44:42.141705,0,0,67,0,0,0,75,77,129,90,50,95.75,103,10.00,-6.00,-1004.00
2024-06-06 23:44:42.141954,0,0,67,0,0,0,75,77,129,90,50,95.90,103,9.00,-4.00,-1004.00
2024-06-06 23:44:42.210792,0,1,67,0,0,0,75,77,129,90,50,95.64,103,12.00,6.00,-1008.00
2024-06-06 23:44:42.344973,1,0,67,0,0,0,75,77,129,90,50,95.72,103,9.00,-5.00,-1002.00
2024-06-06 23:44:42.413895,0,0,67,0,0,0,75,77,129,90,50,95.87,104,1.00,1.00,-990.00
2024-06-06 23:44:42.548874,0,0,67,0,0,0,75,77,129,90,50,96.01,104,19.00,-16.00,-988.00
2024-06-06 23:44:42.618086,0,0,67,0,0,0,75,77,129,90,50,96.02,104,5.00,-7.00,-993.00
2024-06-06 23:44:42.753619,0,0,67,0,0,0,75,77,130,90,50,95.86,104,22.00,-25.00,-991.00
2024-06-06 23:44:42.821615,1,0,67,0,0,0,75,77,130,90,50,95.97,104,10.00,-4.00,-997.00
2024-06-06 23:44:42.958364,1,0,67,0,0,0,75,77,130,90,50,95.81,104,-4.00,-4.00,-990.00
2024-06-06 23:44:43.025957,1,0,67,0,0,0,75,77,130,90,50,96.05,104,25.00,-20.00,-997.00
2024-06-06 23:44:43.166024,1,0,67,0,0,0,75,77,129,90,50,96.08,104,20.00,0.00,-999.00
2024-06-06 23:44:43.229570,1,0,67,0,0,0,75,77,130,90,50,95.78,104,5.00,5.00,-1004.00
2024-06-06 23:44:43.367792,1,0,67,0,0,0,75,77,130,90,50,96.00,104,8.00,-5.00,-999.00
2024-06-06 23:44:43.433952,0,0,67,0,0,0,74,77,130,90,50,95.75,105,10.00,-6.00,-1003.00
2024-06-06 23:44:43.573119,0,0,67,0,0,0,74,77,131,90,50,95.92,105,16.00,-3.00,-1003.00
2024-06-06 23:44:43.637495,1,0,67,0,0,0,74,77,130,90,50,95.80,105,9.00,-2.00,-991.00
2024-06-06 23:44:43.739513,1,0,67,0,0,0,74,77,130,90,50,95.63,105,14.00,-5.00,-996.00
2024-06-06 23:44:43.841536,0,0,67,0,0,0,74,77,131,90,50,96.07,105,21.00,-27.00,-1045.00
2024-06-06 23:44:43.982525,0,7,67,0,0,0,74,77,130,90,50,95.80,105,16.00,9.00,-973.00
2024-06-06 23:44:44.045490,0,8,67,-1,0,0,74,77,131,90,50,95.80,105,9.00,0.00,-999.00
2024-06-06 23:44:44.186972,0,5,67,-2,1,0,74,77,131,90,50,95.98,105,12.00,-14.00,-1020.00
2024-06-06 23:44:44.249528,0,2,67,-3,1,0,74,77,130,90,50,95.73,105,8.00,-28.00,-999.00
2024-06-06 23:44:44.391773,0,0,67,-3,1,0,74,77,130,90,50,95.93,105,18.00,-31.00,-1008.00
2024-06-06 23:44:44.453354,0,-1,67,-3,1,0,75,77,130,90,50,95.58,106,1.00,-25.00,-1004.00
2024-06-06 23:44:44.596551,0,0,67,-2,1,0,75,77,130,90,50,95.85,106,6.00,-21.00,-993.00
2024-06-06 23:44:44.657383,0,0,67,-2,0,0,75,77,130,90,50,95.78,106,-2.00,-15.00,-995.00
2024-06-06 23:44:44.802168,0,1,67,-2,0,0,75,77,129,90,50,95.67,106,2.00,-20.00,-998.00
2024-06-06 23:44:44.861422,0,1,67,-2,0,0,75,77,130,90,50,95.68,106,7.00,-12.00,-983.00
2024-06-06 23:44:45.006027,0,1,67,-2,0,0,75,77,131,90,50,95.83,106,16.00,-18.00,-984.00
2024-06-06 23:44:45.065599,0,0,67,-2,1,0,75,77,129,90,50,95.74,106,10.00,-21.00,-1004.00
2024-06-06 23:44:45.210928,0,0,67,-2,1,0,75,77,130,90,50,95.62,106,13.00,-12.00,-1007.00
2024-06-06 23:44:45.269388,0,0,67,-2,1,0,75,77,130,90,50,95.63,106,-4.00,-15.00,-1000.00
2024-06-06 23:44:45.415718,1,0,67,-2,1,0,75,77,129,90,50,96.01,106,6.00,-21.00,-989.00
2024-06-06 23:44:45.477784,2,0,67,-2,0,0,75,77,128,90,50,95.84,107,-2.00,-14.00,-1006.00
2024-06-06 23:44:45.575370,0,-2,67,-2,0,0,75,77,129,90,50,95.69,107,6.00,-7.00,-998.00
2024-06-06 23:44:45.722915,0,-4,67,-1,0,0,75,77,129,90,50,95.69,107,16.00,-26.00,-1014.00
2024-06-06 23:44:45.779410,0,-1,67,0,0,0,75,77,128,90,50,95.71,107,3.00,-9.00,-992.00
2024-06-06 23:44:45.831061,0,0,67,0,0,0,75,77,129,90,50,96.14,107,7.00,-11.00,-1000.00
2024-06-06 23:44:46.030155,0,0,67,0,0,0,75,77,128,90,50,95.89,107,6.00,0.00,-1002.00
2024-06-06 23:44:46.034069,0,0,67,0,0,0,75,77,128,90,50,95.83,107,8.00,-5.00,-1004.00
2024-06-06 23:44:46.235049,0,0,67,0,0,0,75,77,128,90,50,95.74,107,14.00,-4.00,-1004.00
2024-06-06 23:44:46.238039,0,0,67,0,0,0,75,77,128,90,50,95.88,107,16.00,-9.00,-1012.00
2024-06-06 23:44:46.340645,0,0,67,0,0,0,75,77,127,90,50,96.11,107,6.00,-9.00,-1003.00
2024-06-06 23:44:46.442102,0,0,67,0,0,0,74,77,128,90,50,95.91,108,19.00,-11.00,-1010.00
2024-06-06 23:44:46.544409,0,0,67,0,0,0,74,77,128,90,50,95.86,108,12.00,-13.00,-1006.00
2024-06-06 23:44:46.646039,0,0,67,0,0,0,74,77,128,90,50,95.93,108,8.00,2.00,-1003.00
2024-06-06 23:44:46.849575,0,0,67,0,0,0,74,77,128,90,50,95.99,108,8.00,-8.00,-999.00
2024-06-06 23:44:46.850241,0,0,67,0,0,0,74,77,128,90,50,95.82,108,2.00,-5.00,-1008.00
2024-06-06 23:44:46.952045,0,0,67,0,0,0,74,77,129,90,50,95.37,108,11.00,0.00,-1008.00
2024-06-06 23:44:47.054410,0,0,67,0,0,0,74,77,129,90,50,95.62,108,-3.00,-5.00,-1003.00
2024-06-06 23:44:47.156548,0,0,67,0,0,0,74,77,129,90,50,95.92,108,9.00,-14.00,-994.00
2024-06-06 23:44:47.258938,0,0,67,0,0,0,74,77,129,90,50,95.96,108,12.00,-9.00,-990.00
2024-06-06 23:44:47.364716,0,0,67,0,0,0,74,77,129,90,50,95.60,108,21.00,-16.00,-987.00
2024-06-06 23:44:47.461927,0,0,67,0,0,0,75,77,130,90,50,95.91,109,8.00,-9.00,-985.00
2024-06-06 23:44:47.564225,0,0,67,0,0,0,75,77,130,90,50,95.70,109,6.00,-6.00,-996.00
2024-06-06 23:44:47.668466,0,0,67,0,0,0,75,77,129,90,50,95.69,109,11.00,-17.00,-999.00
2024-06-06 23:44:47.767902,0,0,67,0,0,0,75,77,129,90,50,95.85,109,13.00,-9.00,-994.00
2024-06-06 23:44:47.873246,0,0,68,0,0,0,75,77,130,90,50,96.01,109,52.00,-39.00,-1004.00
2024-06-06 23:44:47.971882,0,0,73,0,0,0,75,77,130,90,50,95.81,109,21.00,-14.00,-986.00
2024-06-06 23:44:48.078633,0,0,79,0,0,0,75,77,130,90,50,95.71,109,1.00,-5.00,-1003.00
2024-06-06 23:44:48.175832,0,0,85,0,0,0,75,77,130,90,50,95.86,109,7.00,-2.00,-993.00
2024-06-06 23:44:48.283714,0,0,91,0,0,0,75,77,129,90,50,95.65,109,0.00,-8.00,-990.00
2024-06-06 23:44:48.379815,0,0,98,0,0,0,75,77,130,90,50,95.71,109,6.00,-1.00,-990.00
2024-06-06 23:44:48.487581,0,0,104,0,0,0,75,77,130,90,50,95.72,110,5.00,-7.00,-1000.00
2024-06-06 23:44:48.584059,0,0,110,0,0,0,75,77,130,90,50,95.68,110,5.00,-4.00,-999.00
2024-06-06 23:44:48.692399,0,0,116,0,0,0,75,77,130,90,50,95.74,110,15.00,-10.00,-999.00
2024-06-06 23:44:48.794545,0,0,122,0,0,0,75,77,129,90,50,95.97,110,2.00,2.00,-1000.00
2024-06-06 23:44:48.889738,0,0,128,0,0,0,75,77,130,90,50,95.86,110,6.00,1.00,-1009.00
2024-06-06 23:44:48.999565,0,0,134,0,0,0,75,77,129,90,50,95.77,110,7.00,-12.00,-1003.00
2024-06-06 23:44:49.093751,0,0,140,0,0,0,75,77,130,90,50,95.62,110,1.00,-5.00,-990.00
2024-06-06 23:44:49.204359,0,0,146,0,0,0,75,77,130,90,50,95.85,110,8.00,1.00,-994.00
2024-06-06 23:44:49.297733,0,0,152,0,0,0,75,77,130,90,50,95.64,110,4.00,1.00,-995.00
2024-06-06 23:44:49.409185,0,0,158,0,0,0,75,77,129,90,50,95.77,110,9.00,-9.00,-997.00
2024-06-06 23:44:49.501784,0,0,164,0,0,0,75,76,129,90,50,95.72,111,6.00,0.00,-1002.00
2024-06-06 23:44:49.613950,0,0,170,0,0,0,75,76,130,90,50,96.23,111,8.00,-9.00,-999.00
2024-06-06 23:44:49.655804,0,0,176,0,0,0,75,76,130,90,50,95.85,111,6.00,-6.00,-1004.00
2024-06-06 23:44:49.819424,0,0,-177,0,0,0,75,76,130,90,50,95.91,111,0.00,13.00,-1000.00
2024-06-06 23:44:49.861730,0,0,-171,0,0,0,75,76,130,90,50,95.47,111,0.00,2.00,-1005.00
2024-06-06 23:44:49.961994,0,0,-165,0,0,0,75,76,130,90,50,95.84,111,18.00,-3.00,-987.00
2024-06-06 23:44:50.125987,0,0,-159,0,0,0,75,76,130,90,50,95.89,111,9.00,-8.00,-994.00
2024-06-06 23:44:50.165590,0,0,-153,0,0,0,75,76,130,90,50,95.60,111,6.00,0.00,-996.00
2024-06-06 23:44:50.331042,0,0,-147,0,0,0,75,76,130,90,50,95.49,111,4.00,5.00,-999.00
2024-06-06 23:44:50.370800,0,0,-141,0,0,0,75,76,131,90,50,95.93,111,0.00,0.00,-1003.00
2024-06-06 23:44:50.536115,0,0,-135,0,0,0,75,77,130,90,50,95.76,112,-1.00,-3.00,-1003.00
2024-06-06 23:44:50.573658,0,0,-129,0,0,0,75,77,130,90,50,95.93,112,3.00,4.00,-998.00
2024-06-06 23:44:50.740281,0,0,-123,0,0,0,75,77,131,90,50,95.90,112,-2.00,2.00,-1000.00
2024-06-06 23:44:50.782062,0,0,-117,0,0,0,75,77,130,90,50,95.99,112,7.00,-1.00,-1003.00
2024-06-06 23:44:50.879536,0,0,-111,0,0,0,75,77,131,90,50,95.59,112,7.00,-5.00,-992.00
2024-06-06 23:44:51.048304,0,0,-106,0,0,0,75,77,131,90,50,96.02,112,7.00,-3.00,-988.00
2024-06-06 23:44:51.083701,0,0,-100,0,0,0,75,77,131,90,50,95.84,112,15.00,-13.00,-1006.00
2024-06-06 23:44:51.189503,0,0,-94,0,0,0,75,77,131,90,50,95.69,112,-7.00,-6.00,-993.00
2024-06-06 23:44:51.287463,0,0,-88,0,0,0,75,77,131,90,50,95.90,112,-8.00,1.00,-995.00
2024-06-06 23:44:51.456995,0,0,-82,0,0,0,75,77,131,90,50,96.09,112,0.00,12.00,-1003.00
2024-06-06 23:44:51.491335,0,0,-76,0,0,0,75,77,131,90,50,95.70,113,0.00,2.00,-997.00
2024-06-06 23:44:51.593513,0,0,-70,0,0,0,75,77,131,90,50,95.84,113,-4.00,7.00,-997.00
2024-06-06 23:44:51.764195,0,0,-64,0,0,0,75,77,131,90,50,95.58,113,10.00,-3.00,-992.00
2024-06-06 23:44:51.798404,0,0,-58,0,0,0,75,77,132,90,50,95.72,113,5.00,5.00,-1006.00
2024-06-06 23:44:51.968932,0,0,-52,0,0,0,75,77,132,90,50,95.85,113,12.00,6.00,-993.00
2024-06-06 23:44:52.115339,0,0,-46,0,0,0,75,77,131,90,50,95.62,113,10.00,-4.00,-993.00
2024-06-06 23:44:52.115592,0,0,-40,0,0,0,75,77,132,100,50,95.67,113,18.00,13.00,-1003.00
2024-06-06 23:44:52.276505,0,0,-34,0,0,0,75,77,132,100,50,95.87,113,13.00,-13.00,-986.00
2024-06-06 23:44:52.343669,0,0,-28,0,0,0,75,77,132,100,50,95.70,113,-3.00,-1.00,-985.00
2024-06-06 23:44:52.446384,0,0,-22,0,0,0,75,77,131,100,50,95.68,113,-1.00,12.00,-1004.00
2024-06-06 23:44:52.531358,0,0,-16,0,0,0,75,76,131,100,50,95.63,114,5.00,7.00,-1014.00
2024-06-06 23:44:52.625916,0,0,-10,0,0,0,75,76,131,90,50,95.75,114,-7.00,14.00,-1000.00
2024-06-06 23:44:52.717793,0,0,-4,0,0,0,75,76,132,90,50,95.78,114,2.00,6.00,-1008.00
2024-06-06 23:44:52.817465,0,0,1,0,0,0,75,76,131,90,50,95.94,114,18.00,7.00,-1001.00
2024-06-06 23:44:53.004669,0,0,7,0,0,0,75,76,131,90,50,95.67,114,9.00,-4.00,-997.00
2024-06-06 23:44:53.023710,0,0,13,0,0,0,75,76,131,90,50,95.95,114,20.00,12.00,-1010.00
2024-06-06 23:44:53.123908,0,0,20,0,0,0,75,76,131,90,50,95.88,114,32.00,-14.00,-1009.00
2024-06-06 23:44:53.311057,0,0,26,0,0,0,75,76,131,90,50,95.88,114,-1.00,0.00,-1008.00
2024-06-06 23:44:53.311134,0,0,32,0,0,0,75,76,131,90,50,95.87,114,2.00,-2.00,-988.00
2024-06-06 23:44:53.454348,0,0,38,0,0,0,75,76,132,90,50,95.90,114,-2.00,10.00,-1006.00
2024-06-06 23:44:53.618188,0,0,44,0,0,0,75,78,131,90,50,95.79,115,28.00,-9.00,-1002.00
2024-06-06 23:44:53.634912,0,0,49,0,0,0,75,78,131,90,50,95.70,115,6.00,0.00,-990.00
2024-06-06 23:44:53.761983,0,0,54,0,0,0,75,78,131,90,50,95.82,115,-5.00,10.00,-1010.00
2024-06-06 23:44:53.787090,0,0,57,0,0,0,75,78,131,90,50,95.89,115,-5.00,8.00,-998.00
2024-06-06 23:44:53.926310,0,0,59,0,0,0,75,78,131,90,50,95.53,115,9.00,18.00,-1017.00
2024-06-06 23:44:54.081770,0,0,61,0,0,0,75,78,131,90,50,95.64,115,6.00,5.00,-998.00
2024-06-06 23:44:54.092942,0,0,63,0,0,0,75,78,130,90,50,95.61,115,3.00,2.00,-984.00
2024-06-06 23:44:54.196474,0,0,64,0,0,0,75,78,131,90,50,95.66,115,15.00,2.00,-997.00
2024-06-06 23:44:54.296238,0,0,65,0,0,0,75,78,131,90,50,95.78,115,-10.00,16.00,-1003.00
2024-06-06 23:44:54.398752,0,0,65,0,0,0,75,78,130,90,50,95.73,115,0.00,2.00,-989.00
2024-06-06 23:44:54.529415,0,0,65,0,0,0,75,77,130,90,50,95.64,116,-3.00,-4.00,-987.00
2024-06-06 23:44:54.602748,0,0,65,0,0,0,75,77,130,90,50,95.53,116,7.00,-2.00,-991.00
2024-06-06 23:44:54.733845,0,0,65,0,0,0,75,77,130,90,50,95.93,116,18.00,-2.00,-1004.00
2024-06-06 23:44:54.806821,0,0,65,0,0,0,75,77,130,90,50,95.82,116,2.00,1.00,-1001.00
2024-06-06 23:44:54.938632,0,0,65,0,0,0,75,77,130,90,50,95.64,116,5.00,-2.00,-998.00
2024-06-06 23:44:55.010215,0,0,65,0,0,0,75,77,130,90,50,95.66,116,7.00,-5.00,-1006.00
2024-06-06 23:44:55.143755,0,0,65,0,0,0,75,77,130,90,50,95.54,116,13.00,-1.00,-995.00
2024-06-06 23:44:55.216212,0,0,65,0,0,0,75,77,130,90,50,95.54,116,5.00,-13.00,-1003.00
2024-06-06 23:44:55.316254,0,0,65,0,0,0,75,77,130,90,50,95.76,116,4.00,10.00,-1006.00
2024-06-06 23:44:55.451241,0,0,65,0,0,0,75,77,130,90,50,95.90,116,20.00,-17.00,-1006.00
2024-06-06 23:44:55.520331,0,0,65,0,0,0,75,77,130,90,50,95.96,117,12.00,1.00,-999.00
2024-06-06 23:44:55.655624,0,0,65,0,0,0,75,77,130,90,50,95.85,117,8.00,-7.00,-994.00
2024-06-06 23:44:55.724466,0,0,65,0,0,0,75,77,130,90,50,95.61,117,10.00,-5.00,-994.00
2024-06-06 23:44:55.860462,0,0,65,0,0,0,75,77,130,90,50,95.75,117,10.00,-4.00,-1005.00
2024-06-06 23:44:55.928265,0,0,65,0,0,0,75,77,130,90,50,95.64,117,7.00,0.00,-997.00
2024-06-06 23:44:56.065108,0,0,65,0,0,0,75,77,129,90,50,95.75,117,10.00,-10.00,-996.00
2024-06-06 23:44:56.132086,0,0,65,0,0,0,75,77,130,90,50,95.63,117,17.00,-9.00,-999.00
2024-06-06 23:44:56.269802,0,0,65,0,0,0,75,77,130,90,50,95.60,117,4.00,-3.00,-995.00
2024-06-06 23:44:56.337550,0,0,65,0,0,0,75,77,129,90,50,95.79,117,24.00,-8.00,-1008.00
2024-06-06 23:44:56.438381,0,0,65,0,0,0,75,77,129,90,50,95.79,117,3.00,4.00,-1003.00
2024-06-06 23:44:56.576853,0,0,60,0,0,0,74,77,129,90,50,95.89,118,1.00,4.00,-1010.00
2024-06-06 23:44:56.642338,0,0,55,0,0,0,74,77,129,90,50,95.67,118,13.00,7.00,-994.00
2024-06-06 23:44:56.781624,0,0,48,0,0,0,74,77,129,90,50,95.88,118,11.00,-3.00,-999.00
2024-06-06 23:44:56.846293,0,0,42,0,0,0,74,77,129,90,50,96.05,118,18.00,4.00,-1003.00
2024-06-06 23:44:56.986445,0,0,36,0,0,0,74,77,130,90,50,95.78,118,15.00,17.00,-1014.00
2024-06-06 23:44:57.050219,0,0,30,0,0,0,74,77,130,90,50,95.74,118,6.00,2.00,-1004.00
2024-06-06 23:44:57.191235,0,0,24,0,0,0,74,77,130,90,50,95.71,118,16.00,-14.00,-999.00
2024-06-06 23:44:57.254082,0,0,18,0,0,0,74,77,130,90,50,95.71,118,21.00,-5.00,-993.00
2024-06-06 23:44:57.304939,0,0,12,0,0,0,74,77,129,90,50,95.97,118,2.00,14.00,-994.00
2024-06-06 23:44:57.498965,0,0,6,0,0,0,74,77,129,90,50,95.99,119,10.00,6.00,-1009.00
2024-06-06 23:44:57.512221,0,0,0,0,0,0,75,76,130,90,50,95.79,119,15.00,-7.00,-1003.00
2024-06-06 23:44:57.610996,0,0,-4,0,0,0,75,76,130,90,50,95.63,119,25.00,-13.00,-996.00
2024-06-06 23:44:57.790624,0,0,-10,0,0,0,75,76,130,90,50,95.53,119,16.00,-3.00,-1002.00
2024-06-06 23:44:57.815558,0,0,-16,0,0,0,75,76,130,90,50,95.76,119,12.00,11.00,-1004.00
2024-06-06 23:44:58.010375,0,0,-22,0,0,0,75,76,130,90,50,95.68,119,13.00,-1.00,-1003.00
2024-06-06 23:44:58.018996,0,0,-28,0,0,0,75,76,130,90,50,95.65,119,17.00,-6.00,-996.00
2024-06-06 23:44:58.215108,0,0,-34,0,0,0,75,76,130,90,50,95.65,119,16.00,-8.00,-995.00
2024-06-06 23:44:58.222906,0,0,-40,0,0,0,75,76,130,90,50,95.71,119,15.00,-1.00,-993.00
2024-06-06 23:44:58.419884,0,0,-46,0,0,0,75,76,130,90,50,95.72,119,14.00,-6.00,-996.00
2024-06-06 23:44:58.426829,0,0,-52,0,0,0,75,76,131,90,50,95.78,120,6.00,-1.00,-995.00
2024-06-06 23:44:58.624765,0,0,-58,0,0,0,75,77,130,90,50,95.74,120,12.00,1.00,-987.00
2024-06-06 23:44:58.632081,0,0,-64,0,0,0,75,77,131,90,50,95.78,120,1.00,4.00,-1000.00
2024-06-06 23:44:58.829824,0,0,-70,0,0,0,75,77,130,90,50,95.87,120,15.00,-11.00,-989.00
2024-06-06 23:44:58.835671,0,0,-76,0,0,0,75,77,130,90,50,95.74,120,2.00,-1.00,-1000.00
2024-06-06 23:44:59.034284,0,0,-82,0,0,0,75,77,129,90,50,95.43,120,13.00,1.00,-997.00
2024-06-06 23:44:59.038826,0,0,-88,0,0,0,75,77,130,90,50,95.77,120,12.00,-1.00,-996.00
2024-06-06 23:44:59.239073,0,0,-94,0,0,0,75,77,130,90,50,95.73,120,15.00,-1.00,-994.00
2024-06-06 23:44:59.243009,0,0,-100,0,0,0,75,77,129,90,50,95.72,120,13.00,2.00,-994.00
2024-06-06 23:44:59.443810,0,0,-106,0,0,0,75,77,130,90,50,95.98,120,12.00,-4.00,-995.00
2024-06-06 23:44:59.446690,0,0,-112,0,0,0,75,77,129,90,50,95.77,121,13.00,3.00,-1007.00
2024-06-06 23:44:59.548956,0,0,-119,0,0,0,75,77,129,90,50,95.99,121,12.00,2.00,-1001.00
2024-06-06 23:44:59.650712,1,0,-125,0,0,0,75,77,129,90,50,95.60,121,10.00,-2.00,-997.00
2024-06-06 23:44:59.754149,1,0,-131,0,0,0,75,77,129,90,50,96.03,121,11.00,-3.00,-997.00
2024-06-06 23:44:59.855604,1,0,-137,0,0,0,75,77,129,90,50,95.60,121,12.00,1.00,-989.00
2024-06-06 23:44:59.957824,1,0,-143,0,0,0,75,77,129,90,50,96.06,121,2.00,8.00,-993.00
2024-06-06 23:45:00.163983,0,0,-149,0,0,0,75,77,129,90,50,95.62,121,4.00,11.00,-1014.00
2024-06-06 23:45:00.164047,0,0,-155,0,0,0,75,77,129,90,50,95.76,121,19.00,1.00,-988.00
2024-06-06 23:45:00.263579,1,0,-161,0,0,0,75,77,129,90,50,95.53,121,10.00,1.00,-994.00
2024-06-06 23:45:00.365941,1,0,-167,0,0,0,75,77,129,90,50,95.54,121,18.00,-2.00,-1003.00
2024-06-06 23:45:00.468096,1,0,-173,0,0,0,75,77,129,90,50,95.45,122,14.00,4.00,-1007.00
2024-06-06 23:45:00.570196,1,0,-179,0,0,0,74,77,129,90,50,95.75,122,6.00,0.00,-1019.00
2024-06-06 23:45:00.672582,0,0,174,0,0,0,74,77,128,90,50,95.53,122,23.00,-3.00,-990.00
2024-06-06 23:45:00.774964,0,0,168,0,0,0,74,77,129,90,50,95.87,122,13.00,22.00,-1017.00
2024-06-06 23:45:00.877545,0,0,162,0,0,0,74,77,128,90,50,95.75,122,9.00,0.00,-1000.00
2024-06-06 23:45:00.926617,0,0,156,0,0,0,74,77,128,90,50,95.94,122,10.00,5.00,-1005.00
2024-06-06 23:45:01.082216,0,0,150,0,0,0,74,77,129,90,50,95.73,122,14.00,-1.00,-993.00
2024-06-06 23:45:01.131191,0,0,144,0,0,0,74,77,128,90,50,95.82,122,8.00,-1.00,-1009.00
2024-06-06 23:45:01.286968,0,0,138,0,0,0,74,77,128,90,50,95.55,122,-1.00,8.00,-995.00
2024-06-06 23:45:01.334600,0,0,131,0,0,0,74,77,128,90,50,95.74,122,11.00,8.00,-996.00
2024-06-06 23:45:01.491783,0,0,125,0,0,0,74,77,128,90,50,95.40,123,0.00,10.00,-1001.00
2024-06-06 23:45:01.539595,0,0,119,0,0,0,74,77,128,90,50,95.94,123,2.00,10.00,-1016.00
2024-06-06 23:45:01.698337,0,0,113,0,0,0,74,77,128,90,50,95.69,123,9.00,6.00,-1010.00
2024-06-06 23:45:01.743821,0,0,107,0,0,0,74,77,128,90,50,95.67,123,26.00,-7.00,-1016.00
2024-06-06 23:45:01.901361,0,0,101,0,0,0,74,77,128,90,50,95.34,123,6.00,6.00,-1002.00
2024-06-06 23:45:01.947517,0,0,95,0,0,0,74,77,128,90,50,95.78,123,4.00,7.00,-996.00
2024-06-06 23:45:02.106465,0,0,89,0,0,0,74,77,128,90,50,95.74,123,-5.00,10.00,-998.00
2024-06-06 23:45:02.151465,0,0,84,0,0,0,74,77,128,90,50,95.79,123,7.00,-5.00,-1000.00
2024-06-06 23:45:02.310965,0,0,79,0,0,0,74,77,128,90,50,95.93,123,13.00,-1.00,-1009.00
2024-06-06 23:45:02.355553,0,0,76,0,0,0,74,77,128,90,50,95.78,123,13.00,-2.00,-1014.00
2024-06-06 23:45:02.515856,0,0,73,0,0,0,74,77,128,90,50,95.66,124,5.00,-2.00,-1002.00
2024-06-06 23:45:02.566038,0,0,71,0,0,0,74,77,128,90,50,95.70,124,-4.00,7.00,-998.00
2024-06-06 23:45:02.661346,0,0,70,0,0,0,74,77,129,90,50,95.68,124,16.00,-10.00,-1004.00
2024-06-06 23:45:02.823650,0,0,69,0,0,0,74,77,129,90,50,95.83,124,6.00,4.00,-1006.00
2024-06-06 23:45:02.865427,0,0,68,0,0,0,74,77,129,90,50,95.72,124,12.00,-10.00,-1003.00
2024-06-06 23:45:03.031929,0,0,67,0,0,0,74,77,130,90,50,95.54,124,18.00,-11.00,-995.00
2024-06-06 23:45:03.074777,0,0,67,0,0,0,74,77,130,90,50,95.70,124,18.00,-16.00,-981.00
2024-06-06 23:45:03.171977,0,0,67,0,0,0,74,77,130,90,50,95.83,124,11.00,0.00,-985.00
2024-06-06 23:45:03.335257,0,0,67,0,0,0,74,77,130,90,50,95.68,124,20.00,0.00,-1006.00
2024-06-06 23:45:03.375550,0,0,67,0,0,0,74,77,130,90,50,96.02,124,8.00,0.00,-997.00
2024-06-06 23:45:03.539741,0,0,67,0,0,0,74,77,130,90,50,95.77,125,-2.00,9.00,-992.00
2024-06-06 23:45:03.579584,0,0,67,0,0,0,75,77,130,90,50,95.72,125,-6.00,-4.00,-992.00
2024-06-06 23:45:03.745220,0,0,67,0,0,0,75,77,130,90,50,95.73,125,6.00,-8.00,-997.00
2024-06-06 23:45:03.783342,0,0,67,0,0,0,75,77,130,90,50,95.68,125,6.00,-4.00,-1001.00
2024-06-06 23:45:03.885420,0,0,67,0,0,0,75,77,131,90,50,95.56,125,2.00,-2.00,-998.00
2024-06-06 23:45:03.998758,0,0,67,0,0,0,75,77,131,90,50,95.90,125,3.00,-9.00,-980.00
2024-06-06 23:45:04.089461,0,0,67,0,0,0,75,77,131,90,50,95.86,125,12.00,-4.00,-985.00
2024-06-06 23:45:04.256584,0,0,67,0,0,0,75,77,131,90,50,95.58,125,-10.00,9.00,-986.00
2024-06-06 23:45:04.294903,0,0,67,0,0,0,75,77,130,90,50,95.53,125,9.00,-6.00,-986.00
2024-06-06 23:45:04.344481,0,0,67,0,0,0,75,77,131,90,50,95.80,125,2.00,-3.00,-995.00
2024-06-06 23:45:04.463284,0,0,67,0,0,0,75,77,131,90,50,95.65,126,0.00,5.00,-1007.00
2024-06-06 23:45:04.666204,0,0,67,0,0,0,74,77,131,90,50,95.51,126,7.00,-5.00,-995.00
2024-06-06 23:45:04.666366,0,0,67,0,0,0,74,77,131,90,50,95.59,126,-2.00,6.00,-997.00
2024-06-06 23:45:04.752463,0,0,67,0,0,0,74,77,131,90,50,95.55,126,-1.00,25.00,-1019.00
2024-06-06 23:45:04.871367,0,0,67,0,0,0,74,77,131,90,50,95.92,126,7.00,-4.00,-987.00
2024-06-06 23:45:04.956358,0,0,67,0,0,0,74,77,131,90,50,95.96,126,6.00,-13.00,-994.00
2024-06-06 23:45:05.059547,0,0,67,0,0,0,74,77,131,90,50,95.58,126,-5.00,0.00,-993.00
2024-06-06 23:45:05.178128,0,0,67,0,0,0,74,77,130,90,50,95.54,126,14.00,-3.00,-996.00
2024-06-06 23:45:05.262705,0,0,67,0,0,0,74,77,131,90,50,95.67,126,8.00,-5.00,-1001.00
2024-06-06 23:45:05.383015,0,0,67,0,0,0,74,77,131,90,50,95.79,126,4.00,0.00,-1005.00
2024-06-06 23:45:05.466689,0,0,67,0,0,0,74,77,131,90,50,95.82,127,0.00,-2.00,-996.00
2024-06-06 23:45:05.568578,0,0,67,0,0,0,75,76,131,90,50,95.96,127,5.00,-4.00,-1003.00
2024-06-06 23:45:05.690151,0,0,67,0,0,0,75,76,131,90,50,95.63,127,8.00,-8.00,-1006.00
2024-06-06 23:45:05.772341,0,0,67,0,0,0,75,76,131,90,50,95.87,127,7.00,0.00,-1010.00
2024-06-06 23:45:05.874309,0,0,67,0,0,0,75,76,131,90,50,95.84,127,18.00,-6.00,-1009.00
2024-06-06 23:45:05.997450,0,0,67,0,0,0,75,76,131,90,50,95.95,127,13.00,0.00,-1005.00
2024-06-06 23:45:06.078341,0,0,67,0,0,0,75,76,131,90,50,95.73,127,18.00,-16.00,-996.00
2024-06-06 23:45:06.202841,0,0,67,0,0,0,75,76,131,90,50,95.54,127,2.00,3.00,-991.00
2024-06-06 23:45:06.282424,0,0,67,0,0,0,75,76,131,90,50,95.59,127,11.00,-8.00,-994.00
2024-06-06 23:45:06.406884,0,0,67,0,0,0,75,76,131,90,50,95.65,127,2.00,0.00,-992.00
2024-06-06 23:45:06.486341,0,0,67,0,0,0,75,76,131,90,50,95.68,128,1.00,9.00,-1012.00
2024-06-06 23:45:06.612063,0,0,67,0,0,0,75,77,132,90,50,95.81,128,5.00,5.00,-1010.00
2024-06-06 23:45:06.690121,0,0,67,0,0,0,75,77,131,90,50,95.67,128,10.00,11.00,-1009.00
2024-06-06 23:45:06.795404,0,0,67,0,0,0,75,77,131,90,50,95.66,128,3.00,-6.00,-995.00
2024-06-06 23:45:06.894206,0,0,67,0,0,0,75,77,131,90,50,95.77,128,12.00,-5.00,-1003.00
2024-06-06 23:45:07.021444,0,0,67,0,0,0,75,77,131,90,50,95.87,128,10.00,0.00,-1003.00
2024-06-06 23:45:07.328871,0,0,67,0,0,0,75,77,131,90,50,95.76,128,19.00,-18.00,-987.00
2024-06-06 23:45:07.385103,0,0,67,0,0,0,75,77,131,90,50,95.28,128,5.00,-2.00,-982.00
2024-06-06 23:45:07.385396,0,0,67,0,0,0,75,77,131,90,50,95.45,128,1.00,9.00,-1010.00
2024-06-06 23:45:07.404219,0,0,67,0,0,0,75,77,130,90,50,95.52,128,4.00,11.00,-1002.00
2024-06-06 23:45:07.526291,0,0,67,0,0,0,75,77,130,90,50,95.60,129,15.00,-7.00,-991.00
2024-06-06 23:45:07.608187,0,0,67,0,0,0,73,76,131,90,50,95.76,129,2.00,2.00,-1006.00
2024-06-06 23:45:07.752319,0,0,67,0,0,0,73,76,131,90,50,95.89,129,12.00,-10.00,-992.00
2024-06-06 23:45:07.812201,0,0,67,0,0,0,73,76,131,90,50,95.52,129,0.00,17.00,-1006.00
2024-06-06 23:45:07.913996,0,0,67,0,0,0,73,76,130,90,50,95.72,129,-4.00,5.00,-1002.00
2024-06-06 23:45:08.057649,0,0,67,0,0,0,73,76,130,90,50,95.67,129,12.00,2.00,-1010.00
2024-06-06 23:45:08.201030,0,0,67,0,0,0,73,76,131,90,50,95.55,129,11.00,-4.00,-996.00
2024-06-06 23:45:08.201205,0,0,67,0,0,0,73,76,130,90,50,95.78,129,21.00,-8.00,-1010.00
2024-06-06 23:45:08.363312,0,0,67,0,0,0,73,76,130,90,50,95.64,129,11.00,-6.00,-998.00
2024-06-06 23:45:08.373031,0,0,67,0,0,0,73,76,130,90,50,95.71,129,17.00,-8.00,-1013.00
2024-06-06 23:45:08.506670,0,0,67,0,0,0,73,76,130,90,50,95.68,130,17.00,-11.00,-998.00
2024-06-06 23:45:08.673397,0,0,67,0,0,0,74,77,130,90,50,95.68,130,12.00,-1.00,-998.00
2024-06-06 23:45:08.678955,0,0,67,0,0,0,74,77,130,90,50,95.63,130,5.00,0.00,-1013.00
2024-06-06 23:45:08.816674,0,0,67,0,0,0,74,77,131,90,50,95.73,130,5.00,-2.00,-1003.00
2024-06-06 23:45:08.977628,0,0,67,0,0,0,74,77,131,90,50,95.86,130,-5.00,0.00,-994.00
2024-06-06 23:45:08.985028,0,0,67,0,0,0,74,77,131,90,50,95.97,130,7.00,-12.00,-997.00
2024-06-06 23:45:09.120942,0,0,67,0,0,0,74,77,131,90,50,95.65,130,7.00,-20.00,-986.00
2024-06-06 23:45:09.285205,0,0,67,0,0,0,74,77,130,90,50,95.99,130,15.00,-21.00,-999.00
2024-06-06 23:45:09.290876,0,0,67,0,0,0,74,77,131,90,50,95.80,130,14.00,-5.00,-1010.00
2024-06-06 23:45:09.428184,0,0,67,0,0,0,74,77,131,90,50,95.77,130,19.00,-11.00,-995.00
2024-06-06 23:45:09.592131,0,0,67,0,0,0,74,77,131,90,50,95.73,131,6.00,5.00,-1012.00
2024-06-06 23:45:09.597349,0,0,67,0,0,0,74,77,131,90,50,95.70,131,-1.00,5.00,-985.00
2024-06-06 23:45:09.748402,0,0,67,0,0,0,74,77,131,90,50,95.60,131,9.00,-9.00,-999.00
2024-06-06 23:45:09.823359,0,0,67,0,0,0,74,77,131,90,50,95.69,131,7.00,-8.00,-991.00
2024-06-06 23:45:09.904790,0,0,67,0,0,0,74,77,131,90,50,95.73,131,12.00,-10.00,-992.00
2024-06-06 23:45:10.006594,0,0,67,0,0,0,74,77,131,90,50,95.53,131,0.00,1.00,-1013.00
2024-06-06 23:45:10.107529,0,0,67,0,0,0,74,77,131,90,50,95.65,131,-2.00,2.00,-993.00
2024-06-06 23:45:10.298185,0,0,67,0,0,0,74,77,131,90,50,95.84,131,13.00,-19.00,-1008.00
2024-06-06 23:45:10.311323,0,0,67,0,0,0,74,77,131,90,50,95.75,131,16.00,-13.00,-998.00
2024-06-06 23:45:10.502859,0,0,67,0,0,0,74,77,131,90,50,95.78,131,12.00,-6.00,-1002.00
2024-06-06 23:45:10.515296,0,0,67,0,0,0,74,77,131,90,50,95.71,132,3.00,-12.00,-986.00
2024-06-06 23:45:10.707613,0,0,67,0,0,0,75,76,131,90,50,95.70,132,23.00,-2.00,-1018.00
2024-06-06 23:45:10.720701,0,0,67,0,0,0,75,76,131,90,50,95.62,132,-2.00,-2.00,-988.00
2024-06-06 23:45:10.820800,0,0,67,0,0,0,75,76,131,90,50,95.50,132,16.00,-8.00,-999.00
2024-06-06 23:45:10.922984,0,0,67,0,0,0,75,76,131,90,50,95.88,132,8.00,-2.00,-1013.00
2024-06-06 23:45:11.071270,0,0,67,0,0,0,75,76,131,90,50,95.73,132,-3.00,-6.00,-983.00
2024-06-06 23:45:11.126837,0,0,67,0,0,0,75,76,131,90,50,95.66,132,4.00,4.00,-1001.00
2024-06-06 23:45:11.323126,0,0,67,0,0,0,75,76,130,90,50,95.68,132,14.00,-10.00,-992.00
2024-06-06 23:45:11.330754,0,0,67,0,0,0,75,76,131,90,50,95.51,132,0.00,3.00,-1017.00
2024-06-06 23:45:11.526768,0,0,67,0,0,0,75,76,131,90,50,95.52,132,-9.00,-9.00,-987.00
2024-06-06 23:45:11.534863,0,0,67,0,0,0,75,76,131,90,50,95.58,133,17.00,-12.00,-1004.00
2024-06-06 23:45:11.731443,0,0,67,0,0,0,73,76,130,90,50,95.61,133,11.00,-12.00,-985.00
2024-06-06 23:45:11.738946,0,0,67,0,0,0,73,76,130,90,50,95.68,133,19.00,-15.00,-1005.00
2024-06-06 23:45:11.936792,0,0,67,0,0,0,73,76,130,90,50,95.70,133,0.00,-3.00,-997.00
2024-06-06 23:45:11.943970,0,0,67,0,0,0,73,76,130,90,50,95.46,133,0.00,-4.00,-996.00
2024-06-06 23:45:11.993814,0,0,67,0,0,0,73,76,130,90,50,95.87,133,0.00,-3.00,-995.00
2024-06-06 23:45:12.141995,0,0,67,0,0,0,73,76,130,90,50,95.83,133,9.00,-2.00,-1008.00
2024-06-06 23:45:12.197800,0,0,67,0,0,0,73,76,131,90,50,95.53,133,1.00,-9.00,-1005.00
2024-06-06 23:45:12.345949,0,0,67,0,0,0,73,76,131,90,50,95.81,133,0.00,-2.00,-999.00
2024-06-06 23:45:12.404371,0,0,67,0,0,0,73,76,130,90,50,95.64,133,2.00,3.00,-1009.00
2024-06-06 23:45:12.503668,0,0,67,0,0,0,73,76,130,90,50,95.65,134,2.00,4.00,-1008.00
2024-06-06 23:45:12.654104,0,0,67,0,0,0,74,77,130,90,50,95.82,134,0.00,0.00,-1006.00
2024-06-06 23:45:12.707678,0,0,67,0,0,0,74,77,130,90,50,95.64,134,1.00,-1.00,-1006.00
2024-06-06 23:45:12.809585,0,0,67,0,0,0,74,77,130,90,50,95.80,134,-4.00,7.00,-997.00
2024-06-06 23:45:12.911664,0,0,67,0,0,0,74,77,130,90,50,95.82,134,4.00,1.00,-992.00
2024-06-06 23:45:13.062978,0,0,67,0,0,0,74,77,130,90,50,95.79,134,14.00,-7.00,-995.00
2024-06-06 23:45:13.115582,0,0,67,0,0,0,74,77,131,90,50,95.86,134,14.00,-10.00,-1022.00
2024-06-06 23:45:13.268239,0,0,67,0,0,0,74,77,130,90,50,95.67,134,12.00,-13.00,-998.00
2024-06-06 23:45:13.319603,0,0,67,0,0,0,74,77,130,90,50,95.52,134,7.00,-7.00,-1003.00
2024-06-06 23:45:13.474014,0,0,67,0,0,0,74,77,130,90,50,95.89,135,4.00,-2.00,-1000.00
2024-06-06 23:45:13.523688,0,0,67,0,0,0,74,77,130,90,50,95.40,135,3.00,-12.00,-983.00
2024-06-06 23:45:13.677719,0,0,67,0,0,0,74,77,130,90,50,95.83,135,11.00,-15.00,-989.00
2024-06-06 23:45:13.727505,0,0,67,0,0,0,74,77,131,90,50,95.58,135,3.00,-6.00,-996.00
2024-06-06 23:45:13.882932,0,0,67,0,0,0,74,77,130,90,50,95.73,135,13.00,-9.00,-1003.00
2024-06-06 23:45:13.931908,0,0,67,0,0,0,74,77,130,90,50,95.54,135,19.00,-13.00,-1004.00
2024-06-06 23:45:14.079293,0,0,67,0,0,0,74,77,130,90,50,95.75,135,-3.00,-7.00,-1002.00
2024-06-06 23:45:14.139533,0,0,67,0,0,0,74,77,130,90,50,95.74,135,1.00,5.00,-1007.00
2024-06-06 23:45:14.237872,0,0,67,0,0,0,74,77,130,90,50,95.61,135,-4.00,2.00,-992.00
2024-06-06 23:45:14.394032,0,0,67,0,0,0,74,77,129,90,50,95.57,135,2.00,3.00,-992.00
2024-06-06 23:45:14.442617,0,0,67,0,0,0,74,77,130,90,50,95.85,136,11.00,-9.00,-992.00
2024-06-06 23:45:14.598902,0,0,67,0,0,0,74,77,129,90,50,95.76,136,-1.00,1.00,-992.00
2024-06-06 23:45:14.647652,0,0,67,0,0,0,75,77,129,90,50,95.41,136,3.00,-4.00,-1003.00
2024-06-06 23:45:14.747362,0,0,67,0,0,0,75,77,129,90,50,95.74,136,5.00,-10.00,-1000.00
2024-06-06 23:45:14.905686,0,0,67,0,0,0,75,77,130,90,50,95.71,136,10.00,-15.00,-998.00
2024-06-06 23:45:14.951441,0,0,67,0,0,0,75,77,130,90,50,95.42,136,3.00,-11.00,-995.00
2024-06-06 23:45:15.113694,0,0,67,0,0,0,75,77,130,90,50,95.80,136,4.00,-11.00,-998.00
2024-06-06 23:45:15.156247,0,0,67,0,0,0,75,77,130,90,50,95.52,136,4.00,-7.00,-995.00
2024-06-06 23:45:15.315259,0,0,67,0,0,0,75,77,130,90,50,95.73,136,1.00,-10.00,-988.00
2024-06-06 23:45:15.359390,0,0,67,0,0,0,75,77,130,90,50,95.70,136,10.00,-13.00,-997.00
2024-06-06 23:45:15.520060,0,0,67,0,0,0,75,77,130,90,50,95.62,137,4.00,-12.00,-1000.00
2024-06-06 23:45:15.520482,0,0,67,0,0,0,75,77,130,90,50,95.77,137,12.00,-8.00,-989.00
2024-06-06 23:45:15.666471,0,0,67,0,0,0,74,77,130,90,50,95.74,137,16.00,-21.00,-997.00
2024-06-06 23:45:15.800878,0,0,67,0,0,0,74,77,130,90,50,95.51,137,10.00,-6.00,-994.00
2024-06-06 23:45:15.870236,0,0,67,0,0,0,74,77,131,90,50,95.67,137,1.00,-4.00,-996.00
2024-06-06 23:45:15.920284,0,0,67,0,0,0,74,77,130,90,50,95.52,137,17.00,0.00,-1019.00
2024-06-06 23:45:16.032478,0,0,67,0,0,0,74,77,130,90,50,95.43,137,10.00,-18.00,-1009.00
2024-06-06 23:45:16.124351,0,0,67,0,0,0,74,77,130,90,50,95.80,137,13.00,-10.00,-1000.00
2024-06-06 23:45:16.237246,0,0,67,0,0,0,74,77,130,90,50,95.48,137,-2.00,-3.00,-994.00
2024-06-06 23:45:16.328574,0,0,67,0,0,0,74,77,130,90,50,95.60,137,9.00,-9.00,-992.00
2024-06-06 23:45:16.442031,0,0,67,0,0,0,74,77,130,90,50,95.71,138,-2.00,-14.00,-996.00
2024-06-06 23:45:16.535035,0,0,67,0,0,0,74,77,130,90,50,95.80,138,7.00,6.00,-1010.00
2024-06-06 23:45:16.634234,0,0,67,0,0,0,75,77,129,90,50,95.60,138,2.00,-13.00,-997.00
2024-06-06 23:45:16.739678,0,0,67,0,0,0,75,77,130,90,50,95.07,138,10.00,-1.00,-1011.00
