TS,pitch,roll,yaw,vgx,vgy,vgz,templ,temph,tof,h,bat,baro,time,agx,agy,agz
2025-08-06T18:46:24.889782,-2,-1,67,0,0,0,73,76,10,0,51,152.09,0,-50.00,19.00,-999.00
2025-08-06T18:46:24.992898,-2,-1,67,0,0,0,74,76,10,0,51,152.07,0,-50.00,18.00,-1001.00
2025-08-06T18:46:25.099830,-2,-1,67,0,0,0,74,76,10,0,51,151.94,0,-50.00,17.00,-1000.00
2025-08-06T18:46:25.194961,-2,-1,67,0,0,0,74,76,10,0,51,152.06,0,-48.00,19.00,-1001.00
2025-08-06T18:46:25.296955,-2,-1,67,0,0,0,74,76,10,0,51,152.14,0,-49.00,19.00,-1000.00
2025-08-06T18:46:25.399656,-2,-1,67,0,0,0,74,76,10,0,51,151.87,0,-49.00,18.00,-1001.00
2025-08-06T18:46:25.500982,-2,-1,67,0,0,0,74,76,10,0,51,151.97,0,-48.00,18.00,-998.00
2025-08-06T18:46:25.603671,-2,-1,67,0,0,0,74,76,10,0,51,152.02,0,-49.00,17.00,-998.00
2025-08-06T18:46:25.654054,-2,-1,67,0,0,0,74,76,10,0,51,151.92,0,-49.00,19.00,-999.00
2025-08-06T18:46:25.756401,-2,-1,67,0,0,0,74,76,10,0,51,151.67,0,-49.00,17.00,-995.00
2025-08-06T18:46:25.858371,-2,-1,67,0,0,0,74,76,10,0,51,152.19,0,-48.00,20.00,-997.00
2025-08-06T18:46:25.960284,-2,-1,67,0,0,0,74,76,10,0,51,152.12,0,-47.00,17.00,-997.00
2025-08-06T18:46:26.062031,-2,-1,67,0,0,0,74,76,10,0,51,151.70,0,-48.00,18.00,-999.00
2025-08-06T18:46:26.176389,-2,-1,67,0,0,0,74,76,10,0,51,152.02,0,-50.00,19.00,-1001.00
2025-08-06T18:46:26.269982,-2,-1,67,0,0,0,74,76,10,0,51,152.06,0,-49.00,17.00,-999.00
2025-08-06T18:46:26.367783,-2,-1,67,0,0,0,74,76,10,0,51,152.07,0,-49.00,19.00,-1001.00
2025-08-06T18:46:26.470103,-2,-1,67,0,0,0,74,76,10,0,51,152.19,0,-49.00,20.00,-999.00
2025-08-06T18:46:26.571892,-2,-1,67,0,0,0,74,76,10,0,51,152.03,0,-48.00,17.00,-999.00
2025-08-06T18:46:26.679187,-2,-1,67,0,0,0,74,76,10,0,51,152.11,0,-48.00,17.00,-999.00
2025-08-06T18:46:26.775627,-2,-1,67,0,0,0,74,76,10,0,51,152.19,0,-48.00,18.00,-998.00
2025-08-06T18:46:26.877570,-2,-1,67,0,0,0,74,76,10,0,51,152.29,0,-48.00,17.00,-998.00
2025-08-06T18:46:26.979595,-2,-1,67,0,0,0,74,76,10,0,51,152.13,0,-48.00,18.00,-996.00
2025-08-06T18:46:27.081668,-2,-1,67,0,0,0,74,76,10,0,51,152.21,0,-49.00,20.00,-1000.00
2025-08-06T18:46:27.183576,-2,-1,67,0,0,0,74,76,10,0,51,151.96,0,-47.00,18.00,-998.00
2025-08-06T18:46:27.287020,-2,-1,67,0,0,0,74,76,10,0,51,152.10,0,-50.00,18.00,-997.00
2025-08-06T18:46:27.387531,-2,-1,67,0,0,0,74,76,10,0,51,152.30,0,-48.00,17.00,-997.00
2025-08-06T18:46:27.490296,-2,-1,67,0,0,0,74,76,10,0,51,152.02,0,-48.00,20.00,-999.00
2025-08-06T18:46:27.592386,-2,-1,67,0,0,0,74,76,10,0,51,151.92,0,-49.00,20.00,-999.00
2025-08-06T18:46:27.693706,-2,-1,67,0,0,0,74,76,10,0,51,152.33,0,-48.00,17.00,-1000.00
2025-08-06T18:46:27.796383,-2,-1,67,0,0,0,74,76,10,0,51,151.79,0,-52.00,21.00,-998.00
2025-08-06T18:46:27.899839,-2,-1,67,0,0,0,74,76,10,0,51,151.83,0,-45.00,18.00,-982.00
2025-08-06T18:46:28.009052,-1,1,70,0,0,0,74,76,10,0,51,152.19,0,181.00,38.00,-1173.00
2025-08-06T18:46:28.101725,0,3,63,0,2,-3,74,76,10,0,51,151.75,0,375.00,102.00,-1039.00
2025-08-06T18:46:28.205617,-5,2,59,-1,5,-3,74,76,10,0,51,151.97,0,178.00,114.00,-951.00
2025-08-06T18:46:28.305433,-9,1,56,0,8,0,74,76,46,0,51,152.11,0,-100.00,40.00,-750.00
2025-08-06T18:46:28.407240,-6,0,55,0,9,1,74,76,86,0,51,152.18,0,-185.00,-121.00,-809.00
2025-08-06T18:46:28.509252,-2,2,50,0,8,3,74,76,82,0,51,152.01,0,-130.00,-102.00,-931.00
2025-08-06T18:46:28.611155,1,9,44,-1,7,4,74,76,64,0,51,151.78,0,-56.00,-174.00,-907.00
2025-08-06T18:46:28.713142,1,8,44,-1,6,4,74,76,57,0,51,152.23,0,86.00,-226.00,-910.00
2025-08-06T18:46:28.764197,0,3,49,0,4,4,74,76,73,0,51,152.03,0,-2.00,-188.00,-838.00
2025-08-06T18:46:28.866124,1,1,53,0,3,6,74,76,67,0,51,152.15,0,-98.00,-87.00,-919.00
2025-08-06T18:46:29.019120,2,0,59,0,2,6,75,77,61,-10,51,151.79,0,149.00,-168.00,-1016.00
2025-08-06T18:46:29.121364,5,-2,66,1,2,5,75,77,55,-10,51,151.89,0,283.00,-120.00,-1045.00
2025-08-06T18:46:29.223552,7,-2,74,2,2,4,75,77,50,-20,51,151.76,0,216.00,49.00,-1050.00
2025-08-06T18:46:29.274139,10,-2,79,2,3,3,75,77,48,-20,51,151.78,0,318.00,57.00,-1080.00
2025-08-06T18:46:29.377395,12,0,84,2,4,2,75,77,45,-20,51,151.71,0,293.00,26.00,-1002.00
2025-08-06T18:46:29.478160,15,1,87,2,4,1,75,77,44,-20,51,151.62,0,329.00,-26.00,-979.00
2025-08-06T18:46:29.580158,17,2,91,1,4,1,75,77,43,-30,51,151.47,0,264.00,-9.00,-1006.00
2025-08-06T18:46:29.682186,20,4,96,1,3,0,75,77,43,0,51,151.54,0,143.00,36.00,-1070.00
2025-08-06T18:46:29.784078,21,2,98,0,0,0,75,77,43,0,51,151.50,0,-33.00,91.00,-1181.00
2025-08-06T18:46:29.898372,21,0,91,0,-3,0,75,77,44,0,51,151.59,0,80.00,71.00,-1172.00
2025-08-06T18:46:29.988141,24,-4,77,-1,-6,-2,75,77,48,0,51,151.74,0,356.00,191.00,-1278.00
2025-08-06T18:46:30.090247,20,0,66,0,0,-4,75,77,51,0,51,151.65,0,341.00,315.00,-1082.00
2025-08-06T18:46:30.192089,8,0,57,0,0,-5,75,77,54,0,51,152.06,0,463.00,184.00,-796.00
2025-08-06T18:46:30.294066,10,-9,53,0,0,-5,75,77,61,0,51,152.11,0,134.00,123.00,-1252.00
2025-08-06T18:46:30.396167,6,-10,47,0,0,-5,75,77,65,10,51,151.61,0,133.00,59.00,-840.00
2025-08-06T18:46:30.498651,5,-5,35,0,0,-2,75,77,69,10,51,151.83,0,346.00,-158.00,-735.00
2025-08-06T18:46:30.600085,8,-3,38,0,0,-1,75,77,72,10,51,151.93,0,192.00,-13.00,-837.00
2025-08-06T18:46:30.703159,5,-4,38,0,0,0,75,77,72,10,51,151.72,0,78.00,-101.00,-1266.00
2025-08-06T18:46:30.804215,-3,4,35,0,0,1,75,77,72,10,51,152.17,0,170.00,100.00,-951.00
2025-08-06T18:46:30.905977,-7,1,25,0,0,0,75,77,71,10,51,151.93,0,-218.00,-1.00,-1302.00
2025-08-06T18:46:31.008277,-9,0,23,0,0,-1,75,77,73,0,51,151.96,0,-159.00,-131.00,-1112.00
2025-08-06T18:46:31.110063,-3,2,19,0,0,-3,75,77,76,0,51,151.84,0,-343.00,132.00,-1114.00
2025-08-06T18:46:31.212066,-4,7,12,0,0,-3,75,77,68,0,51,152.06,0,-261.00,112.00,-1036.00
2025-08-06T18:46:31.315709,-3,7,3,0,0,-3,75,77,10,0,51,151.96,0,-350.00,61.00,-868.00
2025-08-06T18:46:31.416053,-3,6,-7,0,0,-2,75,77,60,0,51,151.94,0,-186.00,-21.00,-911.00
2025-08-06T18:46:31.517930,-2,5,-23,0,0,-1,75,77,71,0,51,152.37,0,-160.00,63.00,-945.00
2025-08-06T18:46:31.620019,-4,7,-41,0,0,0,75,77,31,0,51,152.02,0,2.00,100.00,-899.00
2025-08-06T18:46:31.722001,-6,6,-60,0,0,0,75,77,87,0,51,151.93,0,26.00,58.00,-1038.00
2025-08-06T18:46:31.824236,-5,4,-73,0,0,1,75,77,42,0,51,152.18,0,13.00,80.00,-824.00
2025-08-06T18:46:31.926068,0,2,-83,0,0,3,75,77,35,0,51,152.04,0,34.00,34.00,-754.00
2025-08-06T18:46:32.027906,2,3,-92,0,0,4,75,77,30,0,51,151.48,0,58.00,-95.00,-987.00
2025-08-06T18:46:32.130270,0,2,-94,0,0,4,75,77,10,0,51,151.99,0,204.00,130.00,-986.00
2025-08-06T18:46:32.231996,-3,0,-95,0,0,2,75,77,10,0,51,151.97,0,284.00,411.00,-1173.00
2025-08-06T18:46:32.283158,-2,-1,-93,0,0,0,75,77,10,0,51,151.85,0,244.00,211.00,-1214.00
2025-08-06T18:46:32.385174,1,-2,-88,0,0,-2,75,77,10,0,51,152.11,0,150.00,142.00,-1257.00
2025-08-06T18:46:32.487295,4,-1,-82,0,0,-3,75,77,31,0,51,151.86,0,94.00,153.00,-1175.00
2025-08-06T18:46:32.589598,5,1,-76,0,0,-3,75,77,34,0,51,151.97,0,35.00,71.00,-1055.00
2025-08-06T18:46:32.692520,6,2,-71,0,0,-2,75,77,36,0,51,152.04,0,116.00,35.00,-994.00
2025-08-06T18:46:32.792902,7,4,-67,0,0,-1,75,77,43,0,51,152.01,0,85.00,-71.00,-934.00
2025-08-06T18:46:32.895201,8,4,-69,0,0,0,75,77,74,0,51,152.32,0,130.00,-134.00,-920.00
2025-08-06T18:46:32.996874,5,5,-69,0,0,0,75,77,82,0,51,152.34,0,-27.00,-57.00,-931.00
2025-08-06T18:46:33.098894,5,4,-70,0,0,0,75,77,85,0,51,152.22,0,-6.00,-8.00,-914.00
2025-08-06T18:46:33.201207,5,3,-69,0,0,1,75,77,84,0,51,152.33,0,-82.00,66.00,-978.00
2025-08-06T18:46:33.305223,3,1,-70,0,0,2,75,77,61,0,51,152.13,0,36.00,18.00,-1075.00
2025-08-06T18:46:33.404926,3,1,-69,0,0,1,75,77,39,0,51,152.07,0,48.00,50.00,-1146.00
2025-08-06T18:46:33.506761,0,0,-67,0,2,0,75,77,33,0,51,152.36,0,19.00,9.00,-1208.00
2025-08-06T18:46:33.608804,-1,2,-77,0,2,-1,75,77,33,0,51,152.05,0,108.00,-21.00,-1133.00
2025-08-06T18:46:33.710867,0,5,-89,0,0,-3,75,77,36,0,51,151.96,0,57.00,-22.00,-1048.00
2025-08-06T18:46:33.813525,1,7,-95,0,0,-3,75,77,39,0,51,151.92,0,97.00,-201.00,-938.00
2025-08-06T18:46:33.915059,4,9,-93,0,0,-3,75,77,43,0,51,152.12,0,74.00,-176.00,-797.00
2025-08-06T18:46:34.018535,3,8,-85,0,0,-1,76,77,44,0,51,152.38,0,22.00,-216.00,-698.00
2025-08-06T18:46:34.118786,4,9,-77,0,0,0,76,77,44,0,51,151.94,0,-13.00,-198.00,-801.00
2025-08-06T18:46:34.220677,5,6,-73,0,0,2,76,77,40,0,51,152.02,0,-16.00,-219.00,-912.00
2025-08-06T18:46:34.322628,2,4,-74,0,0,3,76,77,37,0,51,151.94,0,-27.00,-52.00,-956.00
2025-08-06T18:46:34.424845,0,0,-76,0,0,3,76,77,33,0,51,151.78,0,133.00,-210.00,-997.00
2025-08-06T18:46:34.527927,1,0,-77,0,0,2,76,77,30,0,51,152.06,0,-488.00,-99.00,-890.00
2025-08-06T18:46:34.628755,-3,-4,-94,0,0,2,76,77,10,0,51,151.84,0,-81.00,-4.00,-1075.00
2025-08-06T18:46:34.730626,-3,-2,-83,0,0,1,76,77,10,0,51,152.04,0,-142.00,339.00,-1107.00
2025-08-06T18:46:34.832766,-6,-2,-92,0,0,1,76,77,10,0,51,151.96,0,-54.00,12.00,-1111.00
2025-08-06T18:46:34.935233,-4,-2,-93,0,0,0,76,77,10,0,51,151.75,0,-114.00,7.00,-1169.00
2025-08-06T18:46:35.037519,-5,1,-87,0,0,-1,76,78,10,0,51,151.90,0,-189.00,83.00,-1064.00
2025-08-06T18:46:35.139924,-6,3,-84,0,0,-2,76,78,10,0,51,151.97,0,-134.00,4.00,-1017.00
2025-08-06T18:46:35.243084,-1,1,-89,0,0,-2,76,78,32,0,51,151.87,0,73.00,-63.00,-1059.00
2025-08-06T18:46:35.344747,1,1,-92,0,0,-2,76,78,35,0,51,151.98,0,49.00,-21.00,-907.00
2025-08-06T18:46:35.447254,2,3,-91,0,0,-2,76,78,37,0,51,152.25,0,67.00,-54.00,-795.00
2025-08-06T18:46:35.546728,1,3,-91,0,0,0,76,78,38,0,51,152.17,0,5.00,-91.00,-812.00
2025-08-06T18:46:35.597499,0,2,-90,0,0,1,76,78,37,0,51,151.95,0,6.00,-70.00,-904.00
2025-08-06T18:46:35.699917,-1,0,-90,0,0,2,76,78,35,0,51,152.17,0,18.00,-113.00,-920.00
2025-08-06T18:46:35.801723,-1,0,-91,0,0,3,76,78,32,0,51,151.86,0,-11.00,-45.00,-1036.00
2025-08-06T18:46:35.903540,-3,1,-93,0,0,3,76,78,10,0,51,151.93,0,-51.00,101.00,-1092.00
2025-08-06T18:46:36.005543,-5,0,-104,0,0,2,76,77,10,0,51,152.01,0,-71.00,-89.00,-1229.00
2025-08-06T18:46:36.107421,-8,0,-109,0,0,0,76,77,10,0,51,151.85,0,-128.00,-25.00,-1086.00
2025-08-06T18:46:36.209536,-8,2,-103,0,0,0,76,77,10,0,51,152.00,0,-202.00,178.00,-832.00
2025-08-06T18:46:36.311495,-8,-1,-89,0,0,0,76,77,10,0,51,151.90,0,-248.00,-92.00,-1122.00
2025-08-06T18:46:36.413569,-11,-3,-82,0,0,0,76,77,10,0,51,152.11,0,-219.00,8.00,-933.00
2025-08-06T18:46:36.515406,-7,-3,-75,0,0,0,76,77,10,0,51,152.17,0,-146.00,109.00,-944.00
2025-08-06T18:46:36.617571,-6,-4,-69,0,0,0,76,77,10,0,51,151.83,0,-203.00,93.00,-1029.00
2025-08-06T18:46:36.719454,-13,-3,-69,0,0,0,76,77,10,0,51,151.92,0,-86.00,228.00,-969.00
2025-08-06T18:46:36.821524,-12,-4,-77,0,0,0,76,77,10,0,51,151.81,0,70.00,59.00,-1320.00
2025-08-06T18:46:36.923992,-8,-4,-79,0,0,-2,76,77,10,0,51,152.06,0,34.00,132.00,-1121.00
2025-08-06T18:46:37.025467,-6,-2,-72,0,0,-3,76,77,10,0,51,151.82,0,7.00,93.00,-895.00
2025-08-06T18:46:37.127707,-3,0,-69,0,0,-3,76,77,32,0,51,152.02,0,-24.00,20.00,-936.00
2025-08-06T18:46:37.229939,-3,1,-64,0,0,-3,76,77,70,0,51,152.36,0,-78.00,11.00,-906.00
2025-08-06T18:46:37.331399,-2,1,-58,0,0,-2,76,77,85,0,51,151.95,0,-74.00,49.00,-894.00
2025-08-06T18:46:37.434630,-4,2,-52,0,0,-1,76,77,10,0,51,151.86,0,-43.00,0.00,-1092.00
2025-08-06T18:46:37.535321,-6,6,-45,0,0,-1,76,77,10,0,51,152.53,0,-128.00,-43.00,-1034.00
2025-08-06T18:46:37.637441,-6,11,-36,0,0,-1,76,77,10,0,51,151.94,0,-102.00,-74.00,-977.00
2025-08-06T18:46:37.739502,-4,11,-29,0,0,-1,76,77,10,0,51,152.21,0,-139.00,-126.00,-953.00
2025-08-06T18:46:37.841550,-3,10,-21,0,0,-1,76,77,10,0,51,152.29,0,-159.00,-137.00,-938.00
2025-08-06T18:46:37.943256,-3,7,-13,0,0,0,76,77,10,0,51,152.03,0,-171.00,-50.00,-1054.00
2025-08-06T18:46:38.045648,-4,5,-7,0,0,0,75,78,10,0,51,152.24,0,-151.00,-61.00,-976.00
2025-08-06T18:46:38.147343,-4,4,-2,0,0,0,75,78,10,0,51,152.10,0,-145.00,-38.00,-982.00
2025-08-06T18:46:38.249297,-5,4,0,0,0,0,75,78,31,0,51,151.91,0,-149.00,-36.00,-979.00
2025-08-06T18:46:38.351411,-4,4,3,0,0,0,75,78,31,0,51,152.04,0,-100.00,-39.00,-1006.00
2025-08-06T18:46:38.453352,-4,2,6,0,0,0,75,78,35,0,51,151.82,0,-70.00,-41.00,-992.00
2025-08-06T18:46:38.555360,-4,2,8,0,0,0,75,78,58,0,51,152.18,0,-95.00,-19.00,-956.00
2025-08-06T18:46:38.657822,-4,2,11,0,0,0,75,78,77,0,51,152.19,0,-117.00,-48.00,-965.00
2025-08-06T18:46:38.759970,-4,2,14,0,0,0,75,78,83,0,51,152.24,0,-173.00,-41.00,-1004.00
2025-08-06T18:46:38.861803,-5,1,16,0,0,0,75,78,85,0,51,152.13,0,-205.00,-53.00,-1032.00
2025-08-06T18:46:38.912232,-6,2,18,0,0,0,75,78,87,0,51,152.47,0,-148.00,-65.00,-1028.00
2025-08-06T18:46:39.065445,-6,2,18,0,0,0,76,78,89,0,51,152.14,0,-170.00,-94.00,-1104.00
2025-08-06T18:46:39.169490,-4,2,18,0,-1,-1,76,78,91,0,51,152.07,0,-91.00,-87.00,-934.00
2025-08-06T18:46:39.218142,-3,5,17,0,-1,-1,76,78,91,0,51,151.90,0,-39.00,26.00,-793.00
2025-08-06T18:46:39.320309,-4,5,17,0,0,0,76,78,91,0,51,152.40,0,-78.00,-96.00,-1011.00
2025-08-06T18:46:39.422362,-4,3,17,0,0,0,76,78,90,0,51,152.33,0,-206.00,-132.00,-1045.00
2025-08-06T18:46:39.527152,-5,2,17,0,0,0,76,78,88,0,51,152.03,0,-132.00,-72.00,-1011.00
2025-08-06T18:46:39.626643,-6,3,16,0,-1,0,76,78,83,0,51,152.45,0,-171.00,-18.00,-1081.00
2025-08-06T18:46:39.728210,-6,3,16,-1,0,0,76,78,81,0,51,152.02,0,-309.00,-121.00,-1065.00
2025-08-06T18:46:39.830699,-4,2,14,-2,-1,-1,76,78,63,0,51,151.91,0,-313.00,-7.00,-923.00
2025-08-06T18:46:39.932085,-4,4,11,-5,-1,-1,76,78,36,0,51,152.25,0,-203.00,11.00,-986.00
2025-08-06T18:46:40.035027,-5,5,4,-6,-1,0,76,78,10,0,51,152.15,0,-177.00,32.00,-917.00
2025-08-06T18:46:40.136346,-5,5,-3,-8,0,0,76,78,10,0,51,152.10,0,-134.00,-68.00,-974.00
2025-08-06T18:46:40.238735,-6,6,-13,-8,0,0,76,78,10,0,51,152.28,0,-86.00,13.00,-987.00
2025-08-06T18:46:40.343886,-6,7,-24,0,0,0,76,78,10,0,51,152.37,0,-159.00,-88.00,-1062.00
2025-08-06T18:46:40.442283,-7,7,-36,0,0,-1,76,78,10,0,51,152.24,0,-226.00,2.00,-928.00
2025-08-06T18:46:40.546673,-7,8,-45,0,0,0,76,78,46,0,51,152.24,0,-135.00,-96.00,-1020.00
2025-08-06T18:46:40.646175,-9,3,-49,0,0,0,76,78,75,0,51,152.04,0,-153.00,115.00,-922.00
2025-08-06T18:46:40.748150,-8,3,-55,0,0,0,76,78,51,0,51,152.09,0,-88.00,75.00,-792.00
2025-08-06T18:46:40.850417,-11,3,-65,0,0,2,76,78,47,0,51,151.87,0,-284.00,182.00,-779.00
2025-08-06T18:46:40.952177,-11,0,-71,0,0,3,76,78,44,0,51,152.03,0,-93.00,180.00,-930.00
2025-08-06T18:46:41.053966,-16,-2,-76,0,0,4,76,78,40,0,51,151.93,0,-159.00,151.00,-982.00
2025-08-06T18:46:41.156170,-17,-4,-81,0,0,4,76,78,37,0,51,152.03,0,-131.00,179.00,-1132.00
2025-08-06T18:46:41.258008,-16,-6,-86,0,0,3,76,78,33,0,51,152.16,0,-74.00,86.00,-1137.00
2025-08-06T18:46:41.360026,-11,-4,-88,0,0,2,76,78,30,0,51,151.88,0,-97.00,164.00,-1199.00
2025-08-06T18:46:41.463143,-9,-4,-96,0,0,0,76,78,30,0,51,152.14,0,172.00,267.00,-1239.00
2025-08-06T18:46:41.564215,-5,-6,-108,0,0,-1,76,78,32,0,51,151.77,0,116.00,188.00,-1213.00
2025-08-06T18:46:41.666251,0,-5,-102,0,0,-2,76,78,35,0,51,152.10,0,55.00,256.00,-980.00
2025-08-06T18:46:41.768100,0,-2,-95,0,0,-2,76,78,38,0,51,152.20,0,1.00,102.00,-1031.00
2025-08-06T18:46:41.872760,-1,2,-87,0,0,-2,76,78,41,0,51,151.99,0,55.00,97.00,-980.00
2025-08-06T18:46:41.975161,-3,4,-77,0,0,-2,76,78,45,0,51,152.28,0,17.00,146.00,-931.00
2025-08-06T18:46:42.073981,-5,5,-60,0,0,-1,76,77,91,0,51,152.36,0,-146.00,-23.00,-879.00
2025-08-06T18:46:42.176186,-5,4,-48,0,0,0,76,77,10,0,51,152.22,0,-242.00,-106.00,-855.00
2025-08-06T18:46:42.278163,-7,4,-40,0,0,0,76,77,10,0,51,152.40,0,-267.00,-129.00,-970.00
2025-08-06T18:46:42.379829,-6,4,-31,0,0,0,76,77,10,0,51,152.34,0,-177.00,-65.00,-859.00
2025-08-06T18:46:42.430943,-7,4,-25,0,0,1,76,77,10,0,51,152.01,0,-235.00,-42.00,-938.00
2025-08-06T18:46:42.533039,-7,5,-22,0,0,0,76,77,10,0,51,151.90,0,-185.00,-79.00,-1077.00
2025-08-06T18:46:42.640902,-6,4,-15,0,0,0,76,77,10,0,51,151.84,0,-167.00,-59.00,-1054.00
2025-08-06T18:46:42.736916,-8,5,-8,0,0,0,76,77,10,0,51,152.25,0,-172.00,-43.00,-941.00
2025-08-06T18:46:42.839250,-7,3,0,0,0,0,76,77,10,0,51,152.18,0,-142.00,-6.00,-985.00
2025-08-06T18:46:42.940816,-7,3,6,0,0,0,76,77,35,0,51,152.08,0,-132.00,-40.00,-975.00
2025-08-06T18:46:43.042915,-4,1,12,0,0,0,76,78,35,0,51,152.40,0,-186.00,-23.00,-1028.00
2025-08-06T18:46:43.144857,-3,2,19,0,0,0,76,78,68,0,51,151.94,0,-179.00,-12.00,-979.00
2025-08-06T18:46:43.246935,-2,4,27,0,0,0,76,78,89,0,51,152.13,0,-105.00,-30.00,-942.00
2025-08-06T18:46:43.348962,0,4,35,0,0,0,76,78,89,0,51,151.75,0,-116.00,-51.00,-993.00
2025-08-06T18:46:43.451113,-3,4,44,0,0,0,76,78,88,0,51,152.16,0,-64.00,-53.00,-1049.00
2025-08-06T18:46:43.553169,-4,2,48,0,0,1,76,78,88,0,51,151.97,0,-122.00,-77.00,-1007.00
2025-08-06T18:46:43.654860,-2,-1,46,0,0,0,76,78,87,0,51,152.37,0,-121.00,-32.00,-883.00
2025-08-06T18:46:43.757847,-1,-1,39,0,0,0,76,78,86,0,51,151.90,0,-137.00,37.00,-955.00
2025-08-06T18:46:43.858909,-3,0,34,0,0,-1,76,78,87,0,51,151.92,0,-270.00,45.00,-1072.00
2025-08-06T18:46:43.960735,-4,1,26,-5,-3,-1,76,78,88,0,51,151.73,0,-309.00,7.00,-1121.00
2025-08-06T18:46:44.063236,-4,2,18,-7,-3,-1,76,79,71,0,51,152.12,0,-166.00,131.00,-1027.00
2025-08-06T18:46:44.165108,-4,4,9,-8,-1,-1,76,79,30,0,51,151.97,0,-122.00,141.00,-950.00
2025-08-06T18:46:44.266797,-5,6,0,0,0,0,76,79,10,0,51,151.87,0,-75.00,84.00,-896.00
2025-08-06T18:46:44.368815,-5,5,-9,0,0,0,76,79,10,0,51,152.13,0,-56.00,-21.00,-925.00
2025-08-06T18:46:44.470709,-4,5,-17,0,0,0,76,79,10,0,51,152.41,0,-91.00,7.00,-921.00
2025-08-06T18:46:44.573311,-3,4,-26,0,0,1,76,79,10,0,51,152.05,0,-85.00,-17.00,-909.00
2025-08-06T18:46:44.675044,-4,3,-36,0,0,1,76,79,10,0,51,152.18,0,-6.00,40.00,-1012.00
2025-08-06T18:46:44.777417,-6,1,-45,0,0,1,76,79,10,0,51,152.06,0,-16.00,23.00,-1167.00
2025-08-06T18:46:44.879909,-4,0,-56,0,0,0,76,79,90,0,51,151.93,0,-213.00,39.00,-943.00
2025-08-06T18:46:44.980605,-3,0,-70,0,0,0,76,79,47,0,51,151.95,0,-132.00,35.00,-948.00
2025-08-06T18:46:45.082683,-4,1,-84,0,0,1,77,79,41,0,51,151.57,0,-20.00,95.00,-832.00
2025-08-06T18:46:45.184615,-6,0,-96,0,0,2,77,79,39,0,51,152.09,0,10.00,49.00,-933.00
2025-08-06T18:46:45.287052,-7,-2,-105,0,0,2,77,79,37,0,51,151.87,0,-89.00,203.00,-1033.00
2025-08-06T18:46:45.388785,-5,-2,-113,0,0,1,77,79,34,0,51,152.01,0,-221.00,329.00,-1081.00
2025-08-06T18:46:45.490857,-6,-1,-118,0,0,0,77,79,33,0,51,152.13,0,-160.00,16.00,-1010.00
2025-08-06T18:46:45.541875,-9,0,-119,0,0,0,77,79,33,0,51,152.11,0,6.00,61.00,-1094.00
2025-08-06T18:46:45.643604,-6,0,-122,0,0,0,77,79,33,0,51,151.91,0,73.00,174.00,-1124.00
2025-08-06T18:46:45.745644,-3,0,-123,0,0,-1,77,79,34,0,51,152.03,0,181.00,278.00,-1058.00
2025-08-06T18:46:45.848171,-1,0,-119,0,0,-2,77,79,36,0,51,151.95,0,127.00,177.00,-1027.00
2025-08-06T18:46:45.950252,-1,1,-110,0,0,-2,77,79,38,0,51,152.10,0,25.00,125.00,-997.00
2025-08-06T18:46:46.052973,-2,4,-104,0,0,-2,77,79,41,0,51,152.24,0,87.00,32.00,-976.00
2025-08-06T18:46:46.155743,-3,7,-95,0,0,-2,77,79,43,0,51,151.83,0,-57.00,71.00,-930.00
2025-08-06T18:46:46.256184,-4,6,-85,0,0,-1,77,79,45,0,51,152.16,0,-168.00,-115.00,-1000.00
2025-08-06T18:46:46.357529,-5,2,-77,0,0,-1,77,79,47,0,51,152.41,0,-52.00,-68.00,-1027.00
2025-08-06T18:46:46.461916,-5,0,-69,0,0,-1,77,79,57,0,51,151.99,0,-129.00,22.00,-916.00
2025-08-06T18:46:46.561475,-3,-2,-61,0,0,-1,77,79,97,0,51,152.24,0,-46.00,118.00,-1011.00
2025-08-06T18:46:46.663681,-5,0,-55,0,0,-1,77,79,10,0,51,152.34,0,-112.00,118.00,-934.00
2025-08-06T18:46:46.770831,-7,1,-47,0,0,0,77,79,10,0,51,151.93,0,-86.00,75.00,-979.00
2025-08-06T18:46:46.871689,-6,1,-38,0,0,0,77,79,10,0,51,152.07,0,-139.00,65.00,-946.00
2025-08-06T18:46:46.969818,-6,2,-28,0,0,0,77,79,10,0,51,152.30,0,-156.00,101.00,-951.00
2025-08-06T18:46:47.071417,-8,4,-18,0,0,0,76,80,10,0,51,152.00,0,-273.00,20.00,-927.00
2025-08-06T18:46:47.173987,-9,4,-9,0,0,1,76,80,10,0,51,151.83,0,-281.00,1.00,-869.00
2025-08-06T18:46:47.275429,-8,1,0,0,0,1,76,80,43,0,51,152.06,0,-266.00,-21.00,-968.00
2025-08-06T18:46:47.378282,-10,1,4,0,0,1,76,80,71,0,51,152.04,0,-126.00,-32.00,-1025.00
2025-08-06T18:46:47.479435,-12,0,11,0,0,1,76,80,93,0,51,152.25,0,-210.00,-42.00,-1013.00
2025-08-06T18:46:47.581486,-10,1,15,0,0,1,76,80,93,0,51,152.31,0,-231.00,-8.00,-987.00
2025-08-06T18:46:47.684802,-7,3,17,0,0,1,76,80,75,0,51,152.10,0,-456.00,-142.00,-868.00
2025-08-06T18:46:47.786874,-5,1,15,0,0,0,76,80,38,0,51,152.37,0,-422.00,-60.00,-990.00
2025-08-06T18:46:47.888367,-2,3,8,0,0,0,76,80,47,0,51,152.16,0,-487.00,30.00,-1090.00
2025-08-06T18:46:47.989348,-6,3,7,0,0,-1,76,80,52,0,51,152.06,0,-366.00,-83.00,-1200.00
2025-08-06T18:46:48.091423,-3,5,4,0,0,-3,77,78,66,0,51,152.05,0,-262.00,-4.00,-1097.00
2025-08-06T18:46:48.193306,-2,6,3,0,0,-3,77,78,96,0,51,152.10,0,-187.00,-9.00,-949.00
2025-08-06T18:46:48.295371,-3,7,1,0,0,-3,77,78,101,0,51,152.20,0,-206.00,34.00,-933.00
2025-08-06T18:46:48.398119,-2,9,-1,0,0,-3,77,78,106,0,51,152.15,0,-168.00,5.00,-874.00
2025-08-06T18:46:48.499723,0,9,-5,-8,2,-1,77,78,108,0,51,152.35,0,-40.00,-22.00,-811.00
2025-08-06T18:46:48.602233,-1,8,-9,-9,3,0,77,78,33,0,51,152.18,0,21.00,-55.00,-809.00
2025-08-06T18:46:48.704690,-2,5,-16,-9,3,1,77,78,32,0,51,152.13,0,-57.00,-90.00,-919.00
2025-08-06T18:46:48.806697,-5,2,-26,-9,4,1,77,78,32,0,51,152.09,0,-89.00,-23.00,-1022.00
2025-08-06T18:46:48.858498,-5,1,-38,-8,4,1,77,78,37,0,51,152.15,0,-174.00,-21.00,-1053.00
2025-08-06T18:46:48.958303,-4,2,-53,-9,4,0,77,78,79,0,51,152.13,0,-131.00,19.00,-1088.00
2025-08-06T18:46:49.111246,-3,3,-71,-9,5,0,76,79,68,0,51,152.24,0,-130.00,96.00,-937.00
2025-08-06T18:46:49.162386,-1,3,-88,-8,6,1,76,79,51,0,51,151.98,0,-140.00,27.00,-935.00
2025-08-06T18:46:49.264317,-3,3,-104,-7,7,1,76,79,50,0,51,152.06,0,-173.00,39.00,-1061.00
2025-08-06T18:46:49.366230,-3,4,-118,-5,8,1,76,79,48,0,51,152.07,0,-237.00,151.00,-1075.00
2025-08-06T18:46:49.475670,-3,3,-132,-2,9,0,76,79,49,0,51,151.98,0,-320.00,29.00,-1363.00
2025-08-06T18:46:49.570248,-6,6,-147,0,10,-4,76,79,48,0,51,152.17,0,-457.00,169.00,-1396.00
2025-08-06T18:46:49.672626,-3,9,-161,4,8,-6,76,79,10,0,51,152.21,0,-346.00,197.00,-1083.00
2025-08-06T18:46:49.774724,0,10,-173,0,0,-5,76,79,112,10,51,152.34,0,-415.00,147.00,-592.00
2025-08-06T18:46:49.879336,0,10,173,0,0,-1,76,79,116,10,51,152.16,0,-148.00,23.00,-632.00
2025-08-06T18:46:49.979040,1,7,161,0,0,2,76,79,113,10,51,152.26,0,-148.00,0.00,-808.00
2025-08-06T18:46:50.080111,-1,5,150,0,0,3,77,78,109,0,51,152.22,0,75.00,345.00,-1023.00
2025-08-06T18:46:50.182074,-1,0,141,0,0,3,77,78,106,0,51,151.72,0,231.00,400.00,-1035.00
2025-08-06T18:46:50.284291,0,-6,138,0,0,3,77,78,104,0,51,151.93,0,292.00,387.00,-1260.00
2025-08-06T18:46:50.386303,1,-6,141,0,0,0,77,78,105,0,51,152.30,0,377.00,572.00,-1279.00
2025-08-06T18:46:50.488258,6,-5,149,0,0,-2,77,78,110,0,51,152.26,0,222.00,664.00,-1096.00
2025-08-06T18:46:50.590357,8,-3,162,-9,-7,-3,77,78,115,0,51,152.20,0,27.00,444.00,-1029.00
2025-08-06T18:46:50.692169,8,3,177,-9,-11,-3,77,78,119,0,51,152.38,0,-107.00,355.00,-852.00
2025-08-06T18:46:50.794208,3,7,-166,-6,-15,-1,77,78,10,0,51,152.27,0,-30.00,282.00,-800.00
2025-08-06T18:46:50.900629,0,14,-145,0,0,1,77,78,74,0,51,152.26,0,-370.00,372.00,-740.00
2025-08-06T18:46:50.998060,-3,13,-121,0,0,5,77,78,71,0,51,152.33,0,-450.00,172.00,-757.00
2025-08-06T18:46:51.100532,-2,2,-96,0,0,5,77,79,64,0,51,152.32,0,-394.00,183.00,-1061.00
2025-08-06T18:46:51.202235,-4,2,-75,0,0,4,77,79,93,0,51,152.37,0,-219.00,390.00,-1177.00
2025-08-06T18:46:51.304028,-4,0,-56,0,0,3,77,79,32,-10,51,152.29,0,-442.00,162.00,-1045.00
2025-08-06T18:46:51.406269,-10,0,-38,0,0,2,77,79,10,-10,51,151.97,0,-308.00,308.00,-1004.00
2025-08-06T18:46:51.508577,-9,-1,-24,0,0,1,77,79,10,-10,51,151.81,0,-281.00,223.00,-968.00
2025-08-06T18:46:51.610173,-8,-2,-12,0,0,1,77,79,10,-10,51,152.24,0,-228.00,205.00,-960.00
2025-08-06T18:46:51.712027,-6,-1,-3,0,0,1,77,79,10,0,51,152.14,0,-249.00,32.00,-928.00
2025-08-06T18:46:51.814164,-5,1,3,0,0,2,77,79,82,0,51,152.31,0,-220.00,11.00,-875.00
2025-08-06T18:46:51.916010,-3,5,8,0,0,3,77,79,85,0,51,152.27,0,-204.00,-177.00,-934.00
2025-08-06T18:46:52.017946,-3,5,12,0,0,4,77,79,82,0,51,151.91,0,-267.00,-246.00,-979.00
2025-08-06T18:46:52.120203,-5,6,15,0,0,3,78,80,78,0,51,152.01,0,-202.00,8.00,-1014.00
2025-08-06T18:46:52.221898,-3,4,17,0,0,1,78,80,71,0,51,151.95,0,-101.00,332.00,-1300.00
2025-08-06T18:46:52.324081,-3,1,25,0,0,0,78,80,52,0,51,151.94,0,-43.00,306.00,-1116.00
2025-08-06T18:46:52.426052,0,-1,34,0,0,0,78,80,72,0,51,151.98,0,-73.00,169.00,-888.00
2025-08-06T18:46:52.476974,4,0,44,0,0,1,78,80,74,0,51,151.93,0,-143.00,57.00,-702.00
2025-08-06T18:46:52.578963,3,-3,52,0,0,3,78,80,69,0,51,151.56,0,-24.00,7.00,-941.00
2025-08-06T18:46:52.682807,2,-9,59,0,0,3,78,80,64,0,51,151.38,0,-121.00,-36.00,-1176.00
2025-08-06T18:46:52.782864,2,-11,62,0,0,2,78,80,60,0,51,151.83,0,-88.00,100.00,-1321.00
2025-08-06T18:46:52.885248,3,-12,63,0,0,0,78,80,59,0,51,151.53,0,-177.00,113.00,-1470.00
2025-08-06T18:46:52.986806,2,-10,60,0,0,-3,78,80,60,0,51,151.27,0,-177.00,96.00,-1147.00
2025-08-06T18:46:53.088820,3,-6,57,0,0,-4,77,80,64,0,51,151.84,0,-281.00,114.00,-1443.00
2025-08-06T18:46:53.191032,4,-3,51,0,-6,-5,77,80,69,0,51,152.04,0,-63.00,-89.00,-1041.00
2025-08-06T18:46:53.293014,4,2,44,0,-7,-4,77,80,72,0,51,151.77,0,-15.00,-77.00,-825.00
2025-08-06T18:46:53.394890,3,4,35,0,-9,-1,77,80,51,0,51,151.97,0,113.00,-57.00,-820.00
2025-08-06T18:46:53.497646,3,2,28,0,0,1,77,80,35,0,51,151.88,0,-61.00,-52.00,-686.00
2025-08-06T18:46:53.598889,0,0,23,0,0,3,77,80,40,0,51,151.81,0,99.00,148.00,-891.00
2025-08-06T18:46:53.703501,0,-2,18,0,0,5,77,80,46,0,51,151.78,0,-165.00,88.00,-881.00
2025-08-06T18:46:53.802770,0,-1,14,0,0,5,77,80,54,0,51,151.49,0,-76.00,91.00,-1157.00
2025-08-06T18:46:53.905552,0,0,9,0,0,4,77,80,54,-10,51,151.38,0,-62.00,76.00,-1178.00
2025-08-06T18:46:54.009845,-3,0,5,0,0,2,77,80,52,-10,51,151.79,0,31.00,223.00,-1177.00
2025-08-06T18:46:54.108895,-5,-2,4,0,0,0,77,80,49,-20,51,151.49,0,84.00,195.00,-1279.00
2025-08-06T18:46:54.210673,-2,-3,3,0,0,-2,77,80,49,-20,51,151.69,0,8.00,130.00,-1193.00
2025-08-06T18:46:54.312716,2,0,6,0,0,-3,77,80,46,-10,51,151.85,0,9.00,-10.00,-1117.00
2025-08-06T18:46:54.414817,6,2,7,0,3,-4,77,80,41,0,51,151.54,0,109.00,52.00,-1149.00
2025-08-06T18:46:54.516781,8,1,7,-1,4,-4,77,80,30,0,51,151.83,0,125.00,24.00,-1001.00
2025-08-06T18:46:54.618839,6,2,14,0,0,-3,77,80,45,0,51,151.97,0,56.00,-45.00,-960.00
2025-08-06T18:46:54.721558,8,0,17,0,0,-3,77,80,54,0,51,151.67,0,45.00,-112.00,-1059.00
2025-08-06T18:46:54.822717,6,0,18,0,0,-2,77,80,76,0,51,151.65,0,75.00,0.00,-1022.00
2025-08-06T18:46:54.924783,5,-1,16,0,0,-2,77,80,83,0,51,152.08,0,27.00,70.00,-904.00
2025-08-06T18:46:55.026759,4,-5,9,0,0,-2,77,80,44,0,51,151.97,0,70.00,68.00,-986.00
2025-08-06T18:46:55.129017,3,-4,0,0,0,-2,77,80,10,0,51,151.73,0,12.00,149.00,-961.00
2025-08-06T18:46:55.230748,2,-3,-9,0,0,-1,77,80,35,0,51,151.96,0,60.00,126.00,-955.00
2025-08-06T18:46:55.332896,1,-1,-23,0,0,-1,77,80,81,0,51,152.15,0,26.00,28.00,-947.00
2025-08-06T18:46:55.434679,0,1,-35,0,0,0,77,80,40,0,51,152.14,0,-22.00,37.00,-974.00
2025-08-06T18:46:55.536768,0,2,-48,0,0,0,77,80,37,0,51,152.21,0,-28.00,0.00,-994.00
2025-08-06T18:46:55.638662,0,3,-62,0,0,0,77,80,85,0,51,152.12,0,-135.00,-42.00,-1050.00
2025-08-06T18:46:55.740614,1,5,-75,0,0,0,77,80,55,0,51,152.05,0,-131.00,94.00,-1043.00
2025-08-06T18:46:55.791577,1,7,-87,0,0,0,77,80,49,0,51,151.68,0,-52.00,115.00,-1073.00
2025-08-06T18:46:55.894480,0,5,-97,0,0,0,77,80,51,0,51,152.21,0,-35.00,71.00,-1234.00
2025-08-06T18:46:55.996681,2,3,-109,0,0,-2,77,80,55,0,51,152.30,0,-44.00,205.00,-1272.00
2025-08-06T18:46:56.098654,3,9,-123,0,0,-4,78,80,61,0,51,151.93,0,11.00,142.00,-1024.00
2025-08-06T18:46:56.200520,3,13,-135,0,0,-4,78,80,35,0,51,152.16,0,31.00,26.00,-778.00
2025-08-06T18:46:56.302601,3,12,-147,0,0,-1,78,80,10,0,51,152.26,0,51.00,30.00,-727.00
2025-08-06T18:46:56.404714,2,8,-159,0,0,0,78,80,116,0,51,152.49,0,42.00,17.00,-864.00
2025-08-06T18:46:56.506585,0,5,-169,0,0,2,78,80,114,0,51,151.99,0,271.00,199.00,-981.00
2025-08-06T18:46:56.608615,0,2,-176,0,0,1,78,80,112,0,51,152.08,0,478.00,343.00,-1138.00
2025-08-06T18:46:56.710637,2,1,-174,0,0,0,78,80,112,0,51,152.34,0,425.00,296.00,-1214.00
2025-08-06T18:46:56.812649,2,3,-166,0,0,0,78,80,114,0,51,152.23,0,265.00,343.00,-1021.00
2025-08-06T18:46:56.914722,2,6,-151,0,0,0,78,80,10,0,51,151.89,0,50.00,232.00,-862.00
2025-08-06T18:46:57.016589,3,7,-135,0,0,0,78,80,50,0,51,152.35,0,0.00,91.00,-913.00
2025-08-06T18:46:57.120831,6,6,-122,0,0,1,78,79,68,0,51,152.23,0,3.00,53.00,-1015.00
2025-08-06T18:46:57.220429,7,3,-107,0,0,1,78,79,66,0,51,152.36,0,192.00,265.00,-1000.00
2025-08-06T18:46:57.322548,3,5,-92,0,0,1,78,79,66,0,51,152.34,0,243.00,247.00,-934.00
2025-08-06T18:46:57.424543,5,2,-76,0,0,2,78,79,109,0,51,152.29,0,-24.00,340.00,-1088.00
2025-08-06T18:46:57.526560,5,2,-60,0,0,3,78,79,30,0,51,152.15,0,118.00,299.00,-958.00
2025-08-06T18:46:57.628623,6,0,-44,0,0,3,78,79,10,0,51,152.18,0,33.00,298.00,-966.00
2025-08-06T18:46:57.730541,5,0,-29,0,0,4,78,79,10,0,51,151.97,0,-73.00,476.00,-950.00
2025-08-06T18:46:57.832507,3,-1,-13,0,0,5,78,79,10,0,51,152.02,0,-160.00,255.00,-1087.00
2025-08-06T18:46:57.934466,3,-4,-1,0,0,4,78,79,10,0,51,151.78,0,-116.00,71.00,-1055.00
2025-08-06T18:46:58.036574,3,-2,6,0,0,3,78,79,81,-10,51,152.28,0,-133.00,187.00,-961.00
2025-08-06T18:46:58.138716,7,1,9,0,0,2,77,80,79,-10,51,151.88,0,-63.00,58.00,-1010.00
2025-08-06T18:46:58.240434,9,0,15,0,0,2,77,80,75,-10,51,151.67,0,-40.00,97.00,-1049.00
2025-08-06T18:46:58.342466,9,0,21,0,0,2,77,80,73,0,51,151.63,0,-158.00,104.00,-1180.00
2025-08-06T18:46:58.447489,9,-3,25,0,0,0,77,80,72,0,51,151.79,0,-314.00,-94.00,-1411.00
2025-08-06T18:46:58.546338,8,-2,30,0,0,-2,77,80,76,0,51,151.86,0,-454.00,149.00,-1399.00
2025-08-06T18:46:58.648420,10,0,25,0,0,-6,77,80,84,0,51,151.83,0,-356.00,-42.00,-953.00
2025-08-06T18:46:58.750398,12,-1,12,0,0,-5,77,80,67,0,51,151.80,0,-169.00,92.00,-729.00
2025-08-06T18:46:58.852362,10,-4,-8,0,0,-2,77,80,31,10,51,151.79,0,60.00,129.00,-820.00
2025-08-06T18:46:58.954285,10,0,-25,0,0,0,77,80,10,10,51,152.06,0,333.00,450.00,-680.00
2025-08-06T18:46:59.056456,5,1,-40,0,0,2,77,80,10,10,51,151.77,0,338.00,735.00,-1140.00
2025-08-06T18:46:59.158257,0,0,-43,0,0,2,78,80,10,10,51,152.02,0,-412.00,73.00,-932.00
2025-08-06T18:46:59.260414,8,-1,-42,0,0,1,78,80,10,0,51,151.86,0,189.00,468.00,-868.00
2025-08-06T18:46:59.311638,9,-1,-42,0,0,0,78,80,10,0,51,151.93,0,192.00,-29.00,-969.00
2025-08-06T18:46:59.413313,7,0,-42,0,0,0,78,80,10,0,51,151.62,0,124.00,-37.00,-1015.00
2025-08-06T18:46:59.515350,3,3,-42,0,0,0,78,80,10,0,51,151.88,0,56.00,-112.00,-950.00
2025-08-06T18:46:59.617664,2,4,-42,0,0,0,78,80,10,0,51,151.97,0,48.00,-118.00,-967.00
2025-08-06T18:46:59.720010,4,2,-42,0,0,0,78,80,10,0,51,151.91,0,104.00,-62.00,-1018.00
2025-08-06T18:46:59.821343,6,1,-42,0,0,0,78,80,10,0,51,151.93,0,130.00,-44.00,-1006.00
2025-08-06T18:46:59.923721,6,1,-42,0,0,0,78,80,10,0,51,151.88,0,107.00,-61.00,-995.00
2025-08-06T18:47:00.025195,4,3,-42,0,0,0,78,80,10,0,51,151.94,0,62.00,-103.00,-978.00
2025-08-06T18:47:00.127376,2,4,-42,0,0,0,78,80,10,0,51,151.80,0,50.00,-115.00,-985.00
2025-08-06T18:47:00.230381,3,4,-42,0,0,0,78,80,10,0,51,151.71,0,77.00,-91.00,-999.00
2025-08-06T18:47:00.333578,5,2,-42,0,0,0,78,80,10,0,51,151.76,0,111.00,-58.00,-997.00
2025-08-06T18:47:00.435468,6,2,-42,0,0,0,78,80,10,0,51,152.18,0,112.00,-57.00,-994.00
2025-08-06T18:47:00.537931,5,3,-42,0,0,0,78,80,10,0,51,151.77,0,79.00,-81.00,-982.00
2025-08-06T18:47:00.638585,3,4,-42,0,0,0,78,80,10,0,51,151.61,0,63.00,-104.00,-978.00
2025-08-06T18:47:00.740955,3,4,-42,0,0,0,78,80,10,0,51,151.86,0,77.00,-94.00,-996.00
2025-08-06T18:47:00.843243,4,3,-42,0,0,0,78,80,10,0,51,151.71,0,95.00,-74.00,-999.00
2025-08-06T18:47:00.944485,5,3,-42,0,0,0,78,80,10,0,51,151.73,0,99.00,-71.00,-999.00
2025-08-06T18:47:01.046473,4,3,-42,0,0,0,78,80,10,0,51,151.86,0,82.00,-83.00,-991.00
2025-08-06T18:47:01.148985,4,4,-42,0,0,0,78,80,10,0,51,151.75,0,70.00,-94.00,-991.00
