TS,pitch,roll,yaw,vgx,vgy,vgz,templ,temph,tof,h,bat,baro,time,agx,agy,agz
2025-08-06T12:38:08.814503,0,0,76,0,0,0,69,72,10,0,33,157.40,0,14.00,4.00,-1005.00
2025-08-06T12:38:08.958719,0,0,76,0,0,0,70,72,10,0,33,157.28,0,12.00,1.00,-995.00
2025-08-06T12:38:09.018151,0,0,76,0,0,0,70,72,10,0,33,157.25,0,12.00,2.00,-994.00
2025-08-06T12:38:09.163768,0,0,76,0,0,0,70,72,10,0,33,157.13,0,13.00,3.00,-1000.00
2025-08-06T12:38:09.222068,0,0,76,0,0,0,70,72,10,0,33,157.04,0,13.00,3.00,-1001.00
2025-08-06T12:38:09.324298,0,0,76,0,0,0,70,72,10,0,33,157.67,0,13.00,3.00,-1000.00
2025-08-06T12:38:09.472616,0,0,76,0,0,0,70,72,10,0,33,157.36,0,12.00,2.00,-978.00
2025-08-06T12:38:09.529014,0,0,76,0,0,0,70,72,10,0,33,157.32,0,11.00,2.00,-995.00
2025-08-06T12:38:09.675349,0,0,76,0,0,0,70,72,10,0,33,157.28,0,14.00,2.00,-1000.00
2025-08-06T12:38:09.732485,0,0,76,0,0,0,70,72,10,0,33,157.34,0,11.00,2.00,-1003.00
2025-08-06T12:38:09.880073,0,0,76,0,0,0,70,72,10,0,33,157.21,0,13.00,1.00,-1003.00
2025-08-06T12:38:09.936135,0,0,76,0,0,0,70,72,10,0,33,157.17,0,14.00,2.00,-996.00
2025-08-06T12:38:10.038131,0,0,76,0,0,0,70,72,10,0,33,157.21,0,11.00,4.00,-993.00
2025-08-06T12:38:10.140258,0,0,76,0,0,0,70,72,10,0,33,157.06,0,12.00,3.00,-997.00
2025-08-06T12:38:10.289584,0,0,76,0,0,0,70,72,10,0,33,157.29,0,13.00,3.00,-1006.00
2025-08-06T12:38:10.344046,0,0,76,0,0,0,70,72,10,0,33,157.37,0,14.00,1.00,-1038.00
2025-08-06T12:38:10.495316,0,0,76,0,0,0,70,72,10,0,33,157.19,0,13.00,4.00,-1008.00
2025-08-06T12:38:10.548500,0,0,76,0,0,0,70,72,10,0,33,157.05,0,13.00,4.00,-999.00
2025-08-06T12:38:10.649979,0,0,76,0,0,0,70,72,10,0,33,157.12,0,12.00,4.00,-993.00
2025-08-06T12:38:10.801440,0,0,76,0,0,0,70,72,10,0,33,157.38,0,13.00,3.00,-1021.00
2025-08-06T12:38:10.853827,0,0,76,0,0,0,70,72,10,0,33,157.13,0,12.00,0.00,-1000.00
2025-08-06T12:38:11.006237,0,0,76,0,0,0,70,72,10,0,33,157.27,0,14.00,2.00,-995.00
2025-08-06T12:38:11.006774,0,0,76,0,0,0,70,72,10,0,33,157.31,0,13.00,4.00,-994.00
2025-08-06T12:38:11.211208,0,0,76,0,0,0,70,72,10,0,33,157.07,0,13.00,4.00,-1001.00
2025-08-06T12:38:11.211404,0,0,76,0,0,0,70,72,10,0,33,157.26,0,18.00,6.00,-984.00
2025-08-06T12:38:11.312918,0,0,76,0,0,0,70,72,10,0,33,157.36,0,14.00,6.00,-1006.00
2025-08-06T12:38:11.416290,0,0,76,0,0,0,70,72,10,0,33,157.27,0,-69.00,75.00,-1013.00
2025-08-06T12:38:11.520226,0,0,76,0,0,0,70,72,10,0,33,157.24,0,15.00,-8.00,-997.00
2025-08-06T12:38:11.621588,0,0,74,0,0,0,70,72,10,0,33,156.94,0,138.00,18.00,-1477.00
2025-08-06T12:38:11.720917,-1,3,74,-1,0,-3,70,72,10,0,33,157.37,0,-234.00,338.00,-992.00
2025-08-06T12:38:11.825251,9,2,75,-5,0,-4,70,72,10,0,33,157.44,0,-140.00,139.00,-684.00
2025-08-06T12:38:11.929130,17,-5,80,-8,-3,-1,70,73,10,0,33,157.66,0,-25.00,-32.00,-681.00
2025-08-06T12:38:12.026792,21,-11,83,-7,-5,2,70,73,37,0,33,157.36,0,49.00,-39.00,-776.00
2025-08-06T12:38:12.132136,12,-13,82,-5,-6,6,70,73,10,0,33,156.95,0,309.00,59.00,-862.00
2025-08-06T12:38:12.230490,2,-18,78,-2,-4,7,70,73,10,0,33,157.29,0,153.00,234.00,-1104.00
2025-08-06T12:38:12.332554,-1,-22,73,0,-3,6,70,73,10,-10,33,157.03,0,61.00,402.00,-836.00
2025-08-06T12:38:12.434460,-3,-23,65,0,-1,7,70,73,10,-20,33,157.30,0,126.00,597.00,-991.00
2025-08-06T12:38:12.539872,-4,-22,61,1,0,6,70,73,56,-20,33,157.18,0,-86.00,406.00,-1067.00
2025-08-06T12:38:12.638771,-6,-19,54,2,0,6,70,73,50,-30,33,157.08,0,-327.00,261.00,-1000.00
2025-08-06T12:38:12.740598,-9,-17,47,1,0,5,70,73,45,-40,33,156.99,0,-101.00,358.00,-1056.00
2025-08-06T12:38:12.851256,-11,-17,48,0,1,3,70,73,42,-40,33,157.02,0,-312.00,275.00,-992.00
2025-08-06T12:38:12.945229,-12,-17,44,0,0,3,70,72,40,-40,33,156.80,0,-177.00,305.00,-1023.00
2025-08-06T12:38:13.047377,-14,-19,37,0,0,1,70,72,39,-50,33,157.08,0,-253.00,330.00,-1116.00
2025-08-06T12:38:13.148533,-13,-16,32,1,0,0,70,72,39,-50,33,156.61,0,-287.00,332.00,-979.00
2025-08-06T12:38:13.258542,-20,-16,23,0,0,0,70,72,47,-50,33,156.90,0,-720.00,463.00,-628.00
2025-08-06T12:38:13.352284,-42,-22,8,0,0,0,70,72,66,0,33,156.85,0,-528.00,194.00,-803.00
2025-08-06T12:38:13.454254,-48,-31,13,0,0,-1,70,72,68,0,33,156.84,0,-683.00,424.00,-563.00
2025-08-06T12:38:13.556638,-43,-32,12,1,0,-1,70,72,64,0,33,156.62,0,-758.00,484.00,-738.00
2025-08-06T12:38:13.668110,-36,-36,14,1,1,-2,70,72,54,0,33,156.65,0,-619.00,516.00,-748.00
2025-08-06T12:38:13.760350,-29,-37,16,1,0,-3,70,72,40,0,33,157.22,0,-513.00,635.00,-672.00
2025-08-06T12:38:13.862289,-26,-40,18,0,0,-4,70,72,10,0,33,157.21,0,-454.00,653.00,-689.00
2025-08-06T12:38:13.978507,-22,-43,23,0,0,-4,70,72,10,0,33,156.94,0,-353.00,623.00,-639.00
2025-08-06T12:38:14.067016,-11,-42,32,0,0,-4,70,72,10,0,33,157.03,0,-205.00,687.00,-738.00
2025-08-06T12:38:14.180513,-9,-40,32,0,0,-4,70,72,10,0,33,157.22,0,-85.00,507.00,-618.00
2025-08-06T12:38:14.271278,-8,-38,32,0,0,-2,70,72,10,0,33,157.43,0,-93.00,343.00,-664.00
2025-08-06T12:38:14.321193,-7,-36,35,0,0,0,70,72,10,0,33,157.03,0,-41.00,380.00,-680.00
2025-08-06T12:38:14.487361,-8,-35,35,0,0,2,70,72,10,0,33,157.32,0,16.00,430.00,-542.00
2025-08-06T12:38:14.525462,-9,-38,30,0,0,5,70,72,10,0,33,156.90,0,-117.00,510.00,-799.00
2025-08-06T12:38:14.692078,-12,-38,24,0,0,6,70,72,10,0,33,156.95,0,-257.00,942.00,-733.00
2025-08-06T12:38:14.729283,-12,-36,22,0,0,5,70,72,46,-10,33,156.85,0,-327.00,673.00,-824.00
2025-08-06T12:38:14.900456,-13,-35,18,0,0,4,70,72,47,-10,33,156.86,0,-400.00,574.00,-948.00
2025-08-06T12:38:14.933271,-14,-29,17,0,0,2,70,73,44,-20,33,156.85,0,-221.00,567.00,-911.00
2025-08-06T12:38:15.035181,-12,-24,24,0,0,1,70,73,41,-20,33,156.87,0,-295.00,387.00,-1064.00
2025-08-06T12:38:15.203953,-11,-23,25,0,0,0,70,73,40,-20,33,156.73,0,-136.00,217.00,-919.00
2025-08-06T12:38:15.239174,-10,-21,30,0,0,1,70,73,37,-20,33,156.94,0,-258.00,378.00,-865.00
2025-08-06T12:38:15.408901,-10,-17,35,0,0,1,70,73,35,0,33,156.75,0,-68.00,326.00,-911.00
2025-08-06T12:38:15.443187,-9,-16,42,0,0,1,70,73,33,0,33,156.85,0,-109.00,277.00,-939.00
2025-08-06T12:38:15.545532,-3,-15,45,0,0,1,70,73,31,0,33,156.77,0,37.00,275.00,-998.00
2025-08-06T12:38:15.647669,0,-15,43,0,0,1,70,73,10,0,33,156.80,0,106.00,256.00,-939.00
2025-08-06T12:38:15.818509,0,-15,45,0,0,1,70,73,10,0,33,156.80,0,68.00,313.00,-937.00
2025-08-06T12:38:15.851478,1,-16,47,0,0,1,70,73,10,0,33,156.79,0,-17.00,323.00,-984.00
2025-08-06T12:38:16.023100,0,-18,41,0,0,1,71,73,10,0,33,156.53,0,-53.00,305.00,-988.00
2025-08-06T12:38:16.055081,-1,-20,39,0,0,0,71,73,10,0,33,157.00,0,-103.00,340.00,-976.00
2025-08-06T12:38:16.157072,-4,-21,40,0,0,0,71,73,10,0,33,156.80,0,-138.00,365.00,-962.00
2025-08-06T12:38:16.331840,-10,-22,38,0,0,0,71,73,10,0,33,156.81,0,-57.00,322.00,-989.00
2025-08-06T12:38:16.361079,-12,-22,38,0,0,0,71,73,10,0,33,156.78,0,-13.00,334.00,-985.00
2025-08-06T12:38:16.535261,-6,-20,39,0,0,0,71,73,10,0,33,156.73,0,236.00,207.00,-1278.00
2025-08-06T12:38:16.565138,12,-8,44,0,0,-2,71,73,10,0,33,157.06,0,-411.00,477.00,-739.00
2025-08-06T12:38:16.667492,5,-12,44,0,0,0,71,73,10,0,33,156.72,0,184.00,-20.00,-1115.00
2025-08-06T12:38:16.842516,-4,-15,41,0,0,-1,71,73,10,0,33,156.85,0,-96.00,414.00,-1182.00
2025-08-06T12:38:16.871672,-11,-20,33,0,0,-2,71,73,36,0,33,156.71,0,-247.00,550.00,-1196.00
2025-08-06T12:38:16.974748,-27,-26,22,0,0,-4,71,73,49,0,33,156.94,0,-727.00,269.00,-880.00
2025-08-06T12:38:17.076197,-35,-30,21,0,0,-6,71,73,64,0,33,157.02,0,-695.00,582.00,-679.00
2025-08-06T12:38:17.177815,-41,-34,20,0,0,-6,71,73,10,10,33,157.11,0,-707.00,485.00,-638.00
2025-08-06T12:38:17.280636,-41,-41,21,0,0,-7,71,73,10,10,33,157.20,0,-697.00,531.00,-434.00
2025-08-06T12:38:17.329956,-36,-48,30,0,0,-7,71,73,10,20,33,157.34,0,-519.00,498.00,-401.00
2025-08-06T12:38:17.431894,-27,-49,36,0,0,-5,71,73,10,30,33,157.04,0,-304.00,437.00,-538.00
2025-08-06T12:38:17.534643,-19,-42,44,0,0,-2,71,73,10,30,33,157.16,0,-456.00,401.00,-550.00
2025-08-06T12:38:17.635859,-13,-39,45,0,0,0,71,73,10,30,33,157.19,0,-597.00,459.00,-704.00
2025-08-06T12:38:17.739005,-16,-37,39,0,0,0,71,73,10,30,33,157.07,0,-331.00,471.00,-699.00
2025-08-06T12:38:17.840198,-21,-41,37,0,0,1,71,73,34,30,33,157.23,0,-348.00,459.00,-563.00
2025-08-06T12:38:17.969392,-18,-34,36,0,0,5,72,73,66,0,33,157.25,0,-12.00,550.00,-703.00
2025-08-06T12:38:18.043947,4,-33,44,0,0,4,72,73,69,0,33,156.96,0,-1.00,820.00,-1017.00
2025-08-06T12:38:18.153408,5,-28,45,0,0,3,72,73,60,-10,33,156.89,0,160.00,906.00,-1189.00
2025-08-06T12:38:18.251289,6,-30,51,0,0,3,72,73,55,-10,33,156.95,0,207.00,721.00,-902.00
2025-08-06T12:38:18.350028,6,-31,54,0,0,4,72,73,52,-20,33,157.26,0,133.00,577.00,-825.00
2025-08-06T12:38:18.451893,-2,-30,40,0,0,4,72,73,45,-20,33,157.18,0,-7.00,634.00,-921.00
2025-08-06T12:38:18.583662,-19,-30,28,0,0,3,72,73,41,0,33,156.93,0,-255.00,674.00,-996.00
2025-08-06T12:38:18.655896,-19,-25,31,0,0,3,72,73,38,0,33,156.99,0,-335.00,500.00,-890.00
2025-08-06T12:38:18.788011,-12,-21,28,0,0,2,72,73,33,0,33,156.91,0,-399.00,520.00,-929.00
2025-08-06T12:38:18.860130,-19,-14,17,0,0,2,72,73,10,0,33,156.68,0,-249.00,433.00,-979.00
2025-08-06T12:38:18.993715,-20,-11,16,0,0,1,72,74,10,0,33,156.48,0,-265.00,243.00,-1194.00
2025-08-06T12:38:19.063968,-18,-7,18,0,0,1,72,74,10,0,33,156.61,0,-304.00,180.00,-945.00
2025-08-06T12:38:19.165796,-16,-7,16,0,0,0,72,74,10,0,33,156.64,0,-398.00,173.00,-994.00
2025-08-06T12:38:19.268276,-15,-10,15,0,0,0,72,74,10,0,33,156.78,0,-363.00,207.00,-991.00
2025-08-06T12:38:19.371249,-11,-12,14,0,0,-1,72,74,10,0,33,156.80,0,-248.00,192.00,-1030.00
2025-08-06T12:38:19.471760,-8,-13,26,0,0,-1,72,74,10,0,33,157.04,0,-145.00,203.00,-1062.00
2025-08-06T12:38:19.607797,-10,-17,27,0,0,-1,72,74,10,0,33,156.89,0,-240.00,253.00,-987.00
2025-08-06T12:38:19.675743,-16,-20,17,0,0,-2,72,74,32,0,33,156.96,0,-255.00,145.00,-954.00
2025-08-06T12:38:19.778179,-27,-24,11,0,0,-4,72,74,40,0,33,157.18,0,-189.00,139.00,-1015.00
2025-08-06T12:38:19.879775,-32,-22,7,0,0,-6,72,74,49,0,33,157.01,0,-398.00,367.00,-1062.00
2025-08-06T12:38:19.982897,-35,-19,6,0,0,-7,71,74,60,0,33,156.90,0,-701.00,533.00,-781.00
2025-08-06T12:38:20.083723,-36,-19,5,0,0,-8,71,74,70,10,33,157.17,0,-549.00,424.00,-608.00
2025-08-06T12:38:20.221772,-36,-22,6,0,0,-7,71,74,69,20,33,156.99,0,-351.00,297.00,-530.00
2025-08-06T12:38:20.287847,-29,-25,14,0,0,-5,71,74,34,30,33,157.21,0,-105.00,244.00,-748.00
2025-08-06T12:38:20.426319,-15,-23,22,0,0,-3,71,74,35,30,33,157.26,0,-290.00,470.00,-759.00
2025-08-06T12:38:20.491758,-7,-23,32,0,0,-3,71,74,34,40,33,157.21,0,-106.00,430.00,-813.00
2025-08-06T12:38:20.632443,-2,-23,40,0,0,-2,71,74,10,40,33,157.45,0,-83.00,365.00,-846.00
2025-08-06T12:38:20.697878,2,-23,48,0,0,-1,71,74,10,40,33,157.36,0,-79.00,353.00,-912.00
2025-08-06T12:38:20.746655,4,-23,56,0,0,-1,71,74,10,0,33,157.11,0,-137.00,337.00,-924.00
2025-08-06T12:38:20.849601,6,-22,60,0,0,-1,71,74,10,0,33,157.18,0,-143.00,343.00,-898.00
2025-08-06T12:38:21.040710,7,-22,61,0,0,0,71,75,10,0,33,157.40,0,-103.00,328.00,-886.00
2025-08-06T12:38:21.053626,6,-23,59,0,0,0,71,75,10,0,33,157.12,0,-117.00,333.00,-953.00
2025-08-06T12:38:21.245527,4,-22,56,0,0,0,71,75,10,0,33,157.26,0,-12.00,417.00,-937.00
2025-08-06T12:38:21.257807,1,-24,52,0,0,1,71,75,10,0,33,157.50,0,-325.00,307.00,-874.00
2025-08-06T12:38:21.450330,-4,-26,43,0,0,2,71,75,10,0,33,157.22,0,-94.00,387.00,-810.00
2025-08-06T12:38:21.461558,-12,-28,30,0,0,3,71,75,30,0,33,157.38,0,-197.00,435.00,-727.00
2025-08-06T12:38:21.655179,-22,-25,20,0,0,5,71,75,40,0,33,157.37,0,-54.00,390.00,-733.00
2025-08-06T12:38:21.665589,-25,-22,12,0,0,7,71,75,76,0,33,157.37,0,-233.00,484.00,-845.00
2025-08-06T12:38:21.862739,-25,-17,4,0,0,6,71,75,67,-10,33,156.99,0,-289.00,525.00,-1044.00
2025-08-06T12:38:21.870551,-19,-21,8,0,0,5,71,75,58,-20,33,156.94,0,-115.00,512.00,-1030.00
2025-08-06T12:38:22.064585,-12,-21,10,0,0,4,72,74,50,-20,33,156.71,0,-153.00,481.00,-1027.00
2025-08-06T12:38:22.073476,-6,-18,6,0,0,3,72,74,43,-30,33,156.80,0,-255.00,264.00,-973.00
2025-08-06T12:38:22.269639,-3,-18,7,0,0,3,72,74,39,-30,33,156.53,0,-209.00,314.00,-962.00
2025-08-06T12:38:22.278543,-5,-17,6,0,0,3,72,74,35,-30,33,156.62,0,-164.00,332.00,-1060.00
2025-08-06T12:38:22.379413,-7,-14,5,0,0,2,72,74,32,-40,33,156.73,0,-86.00,207.00,-1120.00
2025-08-06T12:38:22.481456,-3,-8,4,0,0,3,72,74,10,0,33,156.54,0,-231.00,298.00,-958.00
2025-08-06T12:38:22.583541,-4,-7,2,0,0,2,72,74,10,0,33,156.64,0,-10.00,-13.00,-1157.00
2025-08-06T12:38:22.781556,-4,-8,1,0,0,0,72,74,10,0,33,156.90,0,22.00,16.00,-1163.00
2025-08-06T12:38:22.788216,-3,-10,0,0,0,0,72,74,10,0,33,156.72,0,-9.00,125.00,-1080.00
2025-08-06T12:38:22.889369,-3,-15,-5,0,0,-1,72,74,10,0,33,156.61,0,-27.00,224.00,-1063.00
2025-08-06T12:38:22.991422,-3,-24,0,0,0,-2,72,75,30,0,33,156.80,0,5.00,496.00,-968.00
2025-08-06T12:38:23.192220,1,-25,2,0,0,-3,72,75,35,0,33,156.96,0,30.00,453.00,-961.00
2025-08-06T12:38:23.195445,4,-22,4,0,0,-3,72,75,39,0,33,156.81,0,46.00,421.00,-1051.00
2025-08-06T12:38:23.297437,5,-18,9,0,0,-4,72,75,44,0,33,157.00,0,86.00,390.00,-1015.00
2025-08-06T12:38:23.498193,3,-19,17,0,0,-4,72,75,51,0,33,156.91,0,201.00,578.00,-982.00
2025-08-06T12:38:23.501947,1,-25,17,1,1,-5,72,75,62,0,33,157.13,0,241.00,607.00,-929.00
2025-08-06T12:38:23.603349,0,-34,18,1,2,-5,72,75,49,10,33,157.05,0,168.00,616.00,-1014.00
2025-08-06T12:38:23.705648,-2,-38,31,2,4,-4,72,75,30,10,33,156.99,0,250.00,643.00,-535.00
2025-08-06T12:38:23.807425,1,-39,37,4,6,-3,72,75,10,20,33,157.28,0,164.00,560.00,-517.00
2025-08-06T12:38:23.914872,11,-39,48,4,5,-1,72,75,10,20,33,157.39,0,175.00,266.00,-582.00
2025-08-06T12:38:24.011228,14,-27,64,0,0,2,72,74,10,20,33,157.18,0,-121.00,88.00,-798.00
2025-08-06T12:38:24.216935,10,-13,72,0,0,4,72,74,10,20,33,157.29,0,68.00,301.00,-680.00
2025-08-06T12:38:24.217231,10,-13,72,0,0,6,72,74,10,10,33,157.03,0,-83.00,221.00,-777.00
2025-08-06T12:38:24.266482,-8,-3,62,0,0,6,72,74,62,10,33,157.12,0,62.00,36.00,-403.00
2025-08-06T12:38:24.368269,-11,-10,68,0,0,5,72,74,60,0,33,157.14,0,-82.00,242.00,-1539.00
2025-08-06T12:38:24.522200,-22,-8,64,0,0,1,72,74,63,0,33,156.99,0,-275.00,-103.00,-893.00
2025-08-06T12:38:24.572308,-19,-14,58,0,0,2,72,74,61,0,33,156.97,0,-387.00,118.00,-759.00
2025-08-06T12:38:24.726952,-18,-19,48,0,0,3,72,74,59,0,33,156.94,0,-127.00,324.00,-697.00
2025-08-06T12:38:24.776211,-14,-24,44,0,0,4,72,74,56,0,33,156.89,0,-233.00,118.00,-896.00
2025-08-06T12:38:24.931951,-17,-24,43,0,0,5,72,74,52,0,33,156.95,0,-177.00,251.00,-879.00
2025-08-06T12:38:24.980223,-17,-17,41,0,0,4,72,75,45,0,33,156.75,0,-407.00,550.00,-883.00
2025-08-06T12:38:25.136362,-14,-7,36,0,0,3,72,75,39,-10,33,156.89,0,-359.00,152.00,-993.00
2025-08-06T12:38:25.184245,-12,-6,31,0,0,3,72,75,36,-10,33,156.98,0,-297.00,130.00,-1066.00
2025-08-06T12:38:25.286627,-11,-6,24,0,0,2,72,75,33,-10,33,156.76,0,-368.00,142.00,-1045.00
2025-08-06T12:38:25.388129,-2,-9,16,0,0,1,72,75,32,-10,33,156.89,0,-50.00,215.00,-1346.00
2025-08-06T12:38:25.490204,-4,-8,21,0,0,0,72,75,31,0,33,156.73,0,53.00,47.00,-917.00
2025-08-06T12:38:25.592285,1,-9,31,0,-1,0,72,75,31,0,33,156.98,0,-10.00,318.00,-1027.00
2025-08-06T12:38:25.751223,3,-10,30,0,0,0,72,75,31,0,33,156.75,0,130.00,99.00,-1186.00
2025-08-06T12:38:25.796233,2,-9,31,0,0,0,72,75,31,0,33,156.46,0,124.00,152.00,-1044.00
2025-08-06T12:38:25.898087,0,-10,36,0,0,0,72,75,32,0,33,156.83,0,159.00,303.00,-1049.00
2025-08-06T12:38:26.057925,0,-10,32,1,0,-2,73,75,34,0,33,156.81,0,15.00,320.00,-1007.00
2025-08-06T12:38:26.102103,0,-17,27,2,0,-3,73,75,39,0,33,156.67,0,55.00,430.00,-1018.00
2025-08-06T12:38:26.269468,0,-27,14,1,0,-4,73,75,49,0,33,156.94,0,-72.00,474.00,-1051.00
2025-08-06T12:38:26.306265,-2,-38,8,0,0,-5,73,75,63,0,33,156.88,0,-85.00,537.00,-813.00
2025-08-06T12:38:26.467695,-2,-43,9,0,0,-5,73,75,76,10,33,156.85,0,-12.00,714.00,-732.00
2025-08-06T12:38:26.510144,-1,-43,10,-1,-1,-5,73,75,35,10,33,157.39,0,-154.00,669.00,-692.00
2025-08-06T12:38:26.672779,9,-33,19,-2,-1,-5,73,75,33,20,33,157.35,0,92.00,678.00,-830.00
2025-08-06T12:38:26.714072,18,-10,36,-2,0,-5,73,75,70,30,33,157.18,0,228.00,339.00,-826.00
2025-08-06T12:38:26.816052,22,-1,42,-2,0,-3,73,75,80,30,33,157.30,0,379.00,-203.00,-786.00
2025-08-06T12:38:26.918084,21,7,48,-1,-1,-2,73,75,83,30,33,157.01,0,383.00,-40.00,-633.00
2025-08-06T12:38:27.019949,18,7,52,0,-1,-1,73,75,81,40,33,157.21,0,269.00,-113.00,-767.00
2025-08-06T12:38:27.184417,10,-3,47,0,-1,0,73,75,51,40,33,157.21,0,365.00,45.00,-879.00
2025-08-06T12:38:27.224126,10,-18,33,0,-1,0,73,75,10,40,33,157.18,0,391.00,303.00,-549.00
2025-08-06T12:38:27.326103,13,-33,26,0,0,0,73,75,10,0,33,157.32,0,262.00,388.00,-971.00
2025-08-06T12:38:27.376897,15,-33,27,0,0,0,73,75,10,0,33,157.30,0,278.00,434.00,-935.00
2025-08-06T12:38:27.478986,14,-27,29,0,0,0,73,75,10,0,33,157.06,0,246.00,393.00,-755.00
2025-08-06T12:38:27.581004,13,-25,28,0,0,0,73,75,10,0,33,157.16,0,308.00,448.00,-823.00
2025-08-06T12:38:27.683107,14,-28,29,0,0,0,73,75,10,0,33,157.06,0,84.00,470.00,-948.00
2025-08-06T12:38:27.798854,7,-30,28,0,0,0,73,75,10,0,33,157.13,0,174.00,478.00,-844.00
2025-08-06T12:38:27.887472,2,-32,27,0,0,-1,73,75,10,0,33,157.17,0,74.00,596.00,-875.00
2025-08-06T12:38:28.003555,3,-30,34,0,0,-1,73,75,10,0,33,157.27,0,209.00,344.00,-862.00
2025-08-06T12:38:28.091351,12,-29,34,0,0,-1,73,75,10,0,33,156.90,0,312.00,373.00,-879.00
2025-08-06T12:38:28.193440,20,-29,38,0,0,0,73,75,10,0,33,157.07,0,236.00,324.00,-742.00
2025-08-06T12:38:28.295008,25,-34,34,0,0,0,73,75,10,0,33,157.09,0,404.00,505.00,-777.00
2025-08-06T12:38:28.396966,20,-32,32,0,0,0,73,75,10,0,33,157.22,0,68.00,483.00,-803.00
2025-08-06T12:38:28.499668,8,-25,33,0,0,2,73,75,10,0,33,157.26,0,45.00,263.00,-732.00
2025-08-06T12:38:28.601962,-2,-22,34,0,0,4,73,75,31,0,33,157.24,0,26.00,257.00,-675.00
2025-08-06T12:38:28.725257,-14,-29,21,0,0,6,73,75,10,0,33,157.24,0,49.00,283.00,-1031.00
2025-08-06T12:38:28.805237,-20,-26,8,0,0,9,73,75,69,-10,33,157.09,0,-128.00,566.00,-817.00
2025-08-06T12:38:28.906946,-20,-17,0,0,0,8,73,75,55,-20,33,156.82,0,-233.00,522.00,-993.00
2025-08-06T12:38:29.027584,-14,-8,0,0,0,7,73,75,43,-30,33,156.51,0,-549.00,404.00,-1212.00
2025-08-06T12:38:29.110870,-10,-9,-4,0,0,5,73,75,37,-30,33,156.67,0,-181.00,345.00,-1097.00
2025-08-06T12:38:29.212910,-12,-12,-6,0,0,4,73,75,33,-40,33,156.89,0,-184.00,210.00,-1038.00
2025-08-06T12:38:29.314747,-10,-13,-5,0,0,4,73,75,10,-40,33,156.58,0,-260.00,140.00,-1038.00
2025-08-06T12:38:29.416984,-11,-15,-3,0,0,3,73,75,10,-50,33,156.96,0,-222.00,226.00,-1042.00
2025-08-06T12:38:29.519003,-11,-16,-2,0,0,2,73,75,10,-50,33,156.69,0,-197.00,312.00,-1034.00
2025-08-06T12:38:29.620882,-12,-18,-1,0,0,1,73,75,10,-50,33,156.48,0,-215.00,474.00,-1083.00
2025-08-06T12:38:29.744328,-15,-24,0,0,0,0,73,75,10,0,33,156.76,0,-308.00,410.00,-1149.00
2025-08-06T12:38:29.825017,-24,-32,-2,0,0,-1,73,75,30,0,33,156.67,0,-372.00,330.00,-914.00
2025-08-06T12:38:29.926883,-28,-29,-8,0,0,-1,73,75,31,0,33,156.44,0,-475.00,292.00,-864.00
2025-08-06T12:38:30.028724,-27,-27,-5,0,0,-3,72,75,33,0,33,156.90,0,-313.00,168.00,-856.00
2025-08-06T12:38:30.130898,-28,-26,-2,0,0,-6,72,75,42,0,33,156.88,0,-524.00,705.00,-912.00
2025-08-06T12:38:30.232709,-35,-29,-1,0,0,-8,72,75,60,10,33,157.03,0,-542.00,608.00,-722.00
2025-08-06T12:38:30.335036,-43,-39,9,1,2,-10,72,75,30,20,33,156.84,0,-425.00,547.00,-434.00
2025-08-06T12:38:30.461135,-37,-56,25,1,3,-10,72,75,10,30,33,156.92,0,-404.00,827.00,-387.00
2025-08-06T12:38:30.487669,-28,-63,32,0,0,-9,72,75,10,40,33,157.15,0,-176.00,541.00,-298.00
2025-08-06T12:38:30.589696,-10,-61,38,0,0,-6,72,75,10,50,33,157.09,0,-18.00,492.00,-350.00
2025-08-06T12:38:30.777259,-2,-50,45,0,0,-2,72,75,31,50,33,157.25,0,108.00,336.00,-454.00
2025-08-06T12:38:30.793787,1,-37,49,0,0,1,72,75,10,50,33,157.07,0,-125.00,410.00,-742.00
2025-08-06T12:38:30.973176,-1,-27,56,0,0,3,72,75,10,50,33,156.88,0,-192.00,447.00,-535.00
2025-08-06T12:38:30.997707,-7,-28,59,0,0,5,72,75,10,40,33,157.06,0,70.00,602.00,-590.00
2025-08-06T12:38:31.177959,-13,-35,59,0,0,5,72,75,10,40,33,156.89,0,-140.00,765.00,-490.00
2025-08-06T12:38:31.206574,-21,-38,55,0,0,6,72,75,10,30,33,156.84,0,-337.00,654.00,-916.00
2025-08-06T12:38:31.303630,-27,-37,46,0,0,6,72,75,62,20,33,156.61,0,-298.00,403.00,-833.00
2025-08-06T12:38:31.485676,-28,-30,34,0,0,6,72,75,48,20,33,156.92,0,-513.00,655.00,-745.00
2025-08-06T12:38:31.507660,-24,-20,30,0,0,4,72,75,41,10,33,157.06,0,-462.00,492.00,-576.00
2025-08-06T12:38:31.689820,-18,-16,33,0,0,2,72,75,35,10,33,156.71,0,-592.00,597.00,-802.00
2025-08-06T12:38:31.711760,-16,-16,35,0,0,0,72,75,35,0,33,156.83,0,-427.00,370.00,-1052.00
2025-08-06T12:38:31.814085,-20,-20,34,0,0,-2,72,75,38,0,33,156.95,0,-421.00,245.00,-1166.00
2025-08-06T12:38:31.916195,-28,-26,32,0,0,-5,72,75,49,10,33,156.84,0,-310.00,294.00,-1219.00
2025-08-06T12:38:32.099767,-36,-34,33,0,0,-7,73,75,64,10,33,157.26,0,-727.00,517.00,-643.00
2025-08-06T12:38:32.119716,-39,-41,48,0,0,-8,73,75,10,20,33,156.72,0,-367.00,886.00,-545.00
2025-08-06T12:38:32.221965,-34,-50,62,0,0,-9,73,75,10,30,33,157.22,0,-191.00,641.00,-872.00
2025-08-06T12:38:32.326463,-22,-54,67,0,0,-9,73,75,10,40,33,156.90,0,95.00,510.00,-752.00
2025-08-06T12:38:32.426878,-4,-43,71,0,0,-7,73,75,30,50,33,157.15,0,151.00,271.00,-783.00
2025-08-06T12:38:32.528005,5,-23,76,0,0,-4,73,75,34,50,33,157.11,0,69.00,93.00,-595.00
2025-08-06T12:38:32.629608,9,-10,79,0,0,0,73,75,39,60,33,157.42,0,-621.00,431.00,-736.00
2025-08-06T12:38:32.731926,8,-3,79,0,0,2,73,75,10,50,33,157.23,0,4.00,457.00,-1163.00
2025-08-06T12:38:32.918626,4,-3,80,0,0,1,73,75,10,50,33,157.34,0,100.00,310.00,-1064.00
2025-08-06T12:38:32.935543,1,-2,81,0,0,1,73,75,10,50,33,157.03,0,-314.00,-135.00,-1465.00
2025-08-06T12:38:33.123270,0,0,75,0,0,0,73,76,10,0,33,157.11,0,-125.00,109.00,-997.00
2025-08-06T12:38:33.139428,0,0,74,0,0,0,73,76,10,0,33,157.11,0,10.00,6.00,-994.00
2025-08-06T12:38:33.242315,0,0,74,0,0,0,73,76,10,0,33,157.27,0,12.00,3.00,-994.00
2025-08-06T12:38:33.346328,0,0,74,0,0,0,73,76,10,0,33,157.15,0,13.00,1.00,-999.00
2025-08-06T12:38:33.445808,0,0,74,0,0,0,73,76,10,0,33,157.06,0,12.00,2.00,-1001.00
2025-08-06T12:38:33.547776,0,0,74,0,0,0,73,76,10,0,33,157.45,0,11.00,5.00,-965.00
2025-08-06T12:38:33.649486,0,0,74,0,0,0,73,76,10,0,33,157.37,0,12.00,3.00,-981.00
2025-08-06T12:38:33.840213,0,0,74,0,0,0,73,76,10,0,33,157.22,0,12.00,4.00,-1000.00
2025-08-06T12:38:33.853499,0,0,74,0,0,0,73,76,10,0,33,157.12,0,15.00,3.00,-1003.00
2025-08-06T12:38:33.905247,0,0,74,0,0,0,73,76,10,0,33,157.37,0,12.00,3.00,-1000.00
2025-08-06T12:38:34.059551,0,0,74,0,0,0,74,75,10,0,33,157.16,0,12.00,3.00,-993.00
2025-08-06T12:38:34.109267,0,0,74,0,0,0,74,75,10,0,33,157.10,0,11.00,3.00,-996.00
2025-08-06T12:38:34.249666,0,0,74,0,0,0,74,75,10,0,33,156.99,0,13.00,2.00,-1008.00
2025-08-06T12:38:34.313257,0,0,74,0,0,0,74,75,10,0,33,156.99,0,14.00,1.00,-1003.00
2025-08-06T12:38:34.415272,0,0,74,0,0,0,74,75,10,0,33,157.26,0,13.00,2.00,-995.00
2025-08-06T12:38:34.517299,0,0,74,0,0,0,74,75,10,0,33,157.18,0,13.00,2.00,-1002.00
2025-08-06T12:38:34.660425,0,0,74,0,0,0,74,75,10,0,33,157.05,0,14.00,3.00,-1001.00
2025-08-06T12:38:34.721939,0,0,74,0,0,0,74,75,10,0,33,157.26,0,14.00,1.00,-1004.00
2025-08-06T12:38:34.864854,0,0,74,0,0,0,74,75,10,0,33,157.01,0,13.00,2.00,-1001.00
2025-08-06T12:38:34.927159,0,0,74,0,0,0,74,75,10,0,33,157.09,0,13.00,3.00,-996.00
2025-08-06T12:38:35.070184,0,0,74,0,0,0,73,76,10,0,33,157.20,0,13.00,3.00,-993.00
2025-08-06T12:38:35.129667,0,0,74,0,0,0,73,76,10,0,33,157.03,0,13.00,4.00,-996.00
2025-08-06T12:38:35.274199,0,0,74,0,0,0,73,76,10,0,33,157.25,0,11.00,3.00,-995.00
2025-08-06T12:38:35.333455,0,0,74,0,0,0,73,76,10,0,33,157.12,0,13.00,3.00,-998.00
2025-08-06T12:38:35.478841,0,0,74,0,0,0,73,76,10,0,33,157.07,0,12.00,4.00,-996.00
2025-08-06T12:38:35.537533,0,0,74,0,0,0,73,76,10,0,33,156.94,0,13.00,3.00,-1000.00
