TS,pitch,roll,yaw,vgx,vgy,vgz,templ,temph,tof,h,bat,baro,time,agx,agy,agz
2025-08-06T12:42:08.357157,0,0,68,0,0,0,91,92,10,0,27,156.95,0,11.00,3.00,-991.00
2025-08-06T12:42:08.457306,0,0,68,0,0,0,91,92,10,0,27,156.92,0,10.00,2.00,-1009.00
2025-08-06T12:42:08.559368,0,0,68,0,0,0,91,92,10,0,27,157.10,0,12.00,2.00,-998.00
2025-08-06T12:42:08.667926,0,0,68,0,0,0,91,92,10,0,27,156.95,0,11.00,3.00,-1001.00
2025-08-06T12:42:08.763998,0,0,68,0,0,0,91,92,10,0,27,156.83,0,12.00,5.00,-994.00
2025-08-06T12:42:08.872990,0,0,68,0,0,0,91,92,10,0,27,157.20,0,11.00,2.00,-996.00
2025-08-06T12:42:08.916558,0,0,68,0,0,0,91,92,10,0,27,157.12,0,11.00,2.00,-997.00
2025-08-06T12:42:09.077783,0,0,68,0,0,0,91,93,10,0,27,157.11,0,12.00,2.00,-1011.00
2025-08-06T12:42:09.120307,0,0,68,0,0,0,91,93,10,0,27,156.99,0,11.00,2.00,-1001.00
2025-08-06T12:42:09.282335,0,0,68,0,0,0,91,93,10,0,27,157.31,0,12.00,1.00,-1005.00
2025-08-06T12:42:09.325996,0,0,68,0,0,0,91,93,10,0,27,156.99,0,13.00,1.00,-1002.00
2025-08-06T12:42:09.487232,0,0,68,0,0,0,91,93,10,0,27,157.03,0,11.00,2.00,-1001.00
2025-08-06T12:42:09.528540,0,0,68,0,0,0,91,93,10,0,27,157.13,0,10.00,1.00,-997.00
2025-08-06T12:42:09.691786,0,0,68,0,0,0,91,93,10,0,27,157.10,0,12.00,3.00,-998.00
2025-08-06T12:42:09.733969,0,0,68,0,0,0,91,93,10,0,27,157.13,0,11.00,1.00,-998.00
2025-08-06T12:42:09.834131,0,0,68,0,0,0,91,93,10,0,27,157.10,0,12.00,3.00,-1000.00
2025-08-06T12:42:09.999145,0,0,68,0,0,0,91,93,10,0,27,157.05,0,10.00,2.00,-998.00
2025-08-06T12:42:10.038174,0,0,68,0,0,0,91,93,10,0,27,157.05,0,11.00,2.00,-1005.00
2025-08-06T12:42:10.140722,0,0,68,0,0,0,91,93,10,0,27,157.12,0,9.00,4.00,-999.00
2025-08-06T12:42:10.306163,0,0,68,0,0,0,91,93,10,0,27,157.23,0,11.00,3.00,-1005.00
2025-08-06T12:42:10.343964,0,0,68,0,0,0,91,93,10,0,27,156.78,0,13.00,3.00,-998.00
2025-08-06T12:42:10.510919,0,0,68,0,0,0,91,93,10,0,27,157.15,0,11.00,3.00,-999.00
2025-08-06T12:42:10.548319,0,0,68,0,0,0,91,93,10,0,27,157.08,0,9.00,4.00,-982.00
2025-08-06T12:42:10.649928,0,0,68,0,0,0,91,93,10,0,27,157.14,0,12.00,1.00,-997.00
2025-08-06T12:42:10.751863,0,0,68,0,0,0,91,93,10,0,27,156.97,0,10.00,2.00,-1003.00
2025-08-06T12:42:10.920624,0,0,68,0,0,0,91,93,10,0,27,157.27,0,9.00,4.00,-982.00
2025-08-06T12:42:10.955919,0,0,68,0,0,0,91,93,10,0,27,157.13,0,10.00,3.00,-999.00
2025-08-06T12:42:11.126242,0,0,68,0,0,0,91,93,10,0,27,156.92,0,10.00,4.00,-1000.00
2025-08-06T12:42:11.160016,0,0,68,0,0,0,91,93,10,0,27,157.18,0,9.00,3.00,-999.00
2025-08-06T12:42:11.262704,0,0,68,0,0,0,91,93,10,0,27,157.09,0,9.00,3.00,-998.00
2025-08-06T12:42:11.432733,0,0,68,0,0,0,91,93,10,0,27,156.83,0,11.00,3.00,-998.00
2025-08-06T12:42:11.466026,0,0,68,0,0,0,91,93,10,0,27,156.91,0,11.00,3.00,-1001.00
2025-08-06T12:42:11.567995,0,0,68,0,0,0,91,93,10,0,27,157.10,0,11.00,3.00,-999.00
2025-08-06T12:42:11.739768,0,0,68,0,0,0,91,93,10,0,27,157.10,0,11.00,4.00,-996.00
2025-08-06T12:42:11.771842,0,0,68,0,0,0,91,93,10,0,27,157.15,0,9.00,4.00,-998.00
2025-08-06T12:42:11.944291,0,0,68,0,0,0,91,93,10,0,27,157.04,0,12.00,3.00,-999.00
2025-08-06T12:42:11.975485,0,0,68,0,0,0,91,93,10,0,27,157.01,0,10.00,3.00,-1002.00
2025-08-06T12:42:12.150045,0,0,68,0,0,0,91,94,10,0,27,157.04,0,11.00,3.00,-999.00
2025-08-06T12:42:12.179496,0,0,68,0,0,0,91,94,10,0,27,157.21,0,7.00,1.00,-998.00
2025-08-06T12:42:12.353803,0,0,68,0,0,0,91,94,10,0,27,157.15,0,10.00,3.00,-999.00
2025-08-06T12:42:12.384195,0,0,68,0,0,0,91,94,10,0,27,157.39,0,13.00,2.00,-998.00
2025-08-06T12:42:12.434617,0,0,68,0,0,0,91,94,10,0,27,157.26,0,9.00,4.00,-1000.00
2025-08-06T12:42:12.558656,0,0,68,0,0,0,91,94,10,0,27,157.43,0,11.00,1.00,-1001.00
2025-08-06T12:42:12.639060,0,0,68,0,0,0,91,94,10,0,27,157.17,0,11.00,3.00,-999.00
2025-08-06T12:42:12.740634,0,0,68,0,0,0,91,94,10,0,27,157.27,0,10.00,3.00,-1001.00
2025-08-06T12:42:12.843551,0,0,68,0,0,0,91,94,10,0,27,156.94,0,10.00,2.00,-999.00
2025-08-06T12:42:12.968111,0,0,68,0,0,0,91,94,10,0,27,157.10,0,9.00,4.00,-999.00
2025-08-06T12:42:13.048621,0,0,68,0,0,0,91,93,10,0,27,157.33,0,9.00,8.00,-998.00
2025-08-06T12:42:13.148765,0,0,68,0,0,0,91,93,10,0,27,157.09,0,12.00,7.00,-1041.00
2025-08-06T12:42:13.253656,0,-3,64,-1,-1,0,91,93,10,0,27,157.23,0,59.00,240.00,-1245.00
2025-08-06T12:42:13.353979,3,-5,59,-2,0,-3,91,93,10,0,27,157.40,0,-30.00,357.00,-1116.00
2025-08-06T12:42:13.454415,8,-6,58,-5,0,-3,91,93,10,0,27,157.33,0,-175.00,334.00,-918.00
2025-08-06T12:42:13.583409,9,-9,60,-9,-1,-2,91,93,10,0,27,157.41,0,-2.00,174.00,-779.00
2025-08-06T12:42:13.659121,7,-10,70,-9,-3,0,91,93,62,0,27,157.19,0,36.00,-143.00,-858.00
2025-08-06T12:42:13.797257,2,-9,80,-6,-4,1,91,93,36,0,27,156.94,0,59.00,-143.00,-865.00
2025-08-06T12:42:13.862938,0,-15,81,-4,-5,2,91,93,10,0,27,157.26,0,17.00,44.00,-839.00
2025-08-06T12:42:13.993033,2,-20,76,-2,-6,3,91,93,10,0,27,157.28,0,-167.00,291.00,-969.00
2025-08-06T12:42:14.066344,0,-22,67,-3,-8,3,92,93,10,0,27,157.29,0,-143.00,637.00,-996.00
2025-08-06T12:42:14.197166,-9,-30,45,-5,-8,2,92,93,35,0,27,156.95,0,-99.00,572.00,-922.00
2025-08-06T12:42:14.270368,-24,-32,29,-3,-7,3,92,93,38,0,27,156.91,0,21.00,383.00,-666.00
2025-08-06T12:42:14.403608,-25,-28,20,-1,-6,5,92,93,80,0,27,157.11,0,-240.00,615.00,-665.00
2025-08-06T12:42:14.475977,-20,-26,16,0,-2,5,92,93,75,0,27,156.84,0,-209.00,815.00,-722.00
2025-08-06T12:42:14.576255,-13,-34,24,0,0,5,92,93,71,-10,27,156.94,0,-14.00,638.00,-926.00
2025-08-06T12:42:14.678412,-11,-28,18,3,0,4,92,93,60,-20,27,156.90,0,-93.00,623.00,-955.00
2025-08-06T12:42:14.785246,-8,-23,15,3,0,3,92,93,51,-20,27,156.93,0,-164.00,456.00,-891.00
2025-08-06T12:42:14.882204,-10,-20,9,3,1,3,92,93,46,-20,27,156.77,0,-272.00,375.00,-890.00
2025-08-06T12:42:15.016194,-12,-18,5,1,1,3,92,93,42,-30,27,156.63,0,-326.00,260.00,-862.00
2025-08-06T12:42:15.087150,-12,-19,6,1,0,3,92,93,37,-30,27,156.67,0,-265.00,292.00,-990.00
2025-08-06T12:42:15.220876,-11,-20,6,0,1,2,92,93,34,0,27,156.54,0,-342.00,361.00,-955.00
2025-08-06T12:42:15.290147,-12,-20,2,0,0,2,92,93,32,0,27,156.49,0,-306.00,393.00,-956.00
2025-08-06T12:42:15.425744,-14,-20,1,0,0,1,92,93,30,0,27,156.67,0,-256.00,300.00,-950.00
2025-08-06T12:42:15.494319,-14,-19,0,0,0,1,92,93,10,0,27,156.83,0,-279.00,394.00,-980.00
2025-08-06T12:42:15.596073,-14,-20,-2,-1,0,0,92,93,10,0,27,156.63,0,-264.00,385.00,-1014.00
2025-08-06T12:42:15.647200,-14,-21,-4,0,0,0,92,93,30,0,27,156.54,0,-264.00,306.00,-1023.00
2025-08-06T12:42:15.835853,-14,-21,-7,-1,0,-1,92,93,32,0,27,156.30,0,-265.00,358.00,-973.00
2025-08-06T12:42:15.851169,-13,-21,-6,0,0,-2,92,93,34,0,27,156.69,0,-160.00,394.00,-1009.00
2025-08-06T12:42:16.041963,-12,-22,-3,0,0,-3,92,93,38,0,27,156.63,0,-189.00,444.00,-1098.00
2025-08-06T12:42:16.055737,-11,-21,-2,0,-1,-5,92,94,44,0,27,156.91,0,-253.00,284.00,-1078.00
2025-08-06T12:42:16.244941,-5,-20,-10,0,-3,-6,92,94,49,0,27,156.84,0,-172.00,326.00,-1222.00
2025-08-06T12:42:16.259181,-1,-20,-18,0,-4,-10,92,94,60,10,27,156.83,0,97.00,423.00,-1383.00
2025-08-06T12:42:16.449728,1,-21,-21,0,-5,-13,92,94,74,20,27,156.65,0,32.00,480.00,-1261.00
2025-08-06T12:42:16.463155,11,-13,-19,0,-3,-16,92,94,92,40,27,157.16,0,76.00,707.00,-843.00
2025-08-06T12:42:16.664627,14,-7,-12,1,2,-14,92,94,108,50,27,157.41,0,326.00,587.00,-549.00
2025-08-06T12:42:16.667099,19,-9,2,3,7,-11,92,94,68,70,27,157.22,0,358.00,461.00,-446.00
2025-08-06T12:42:16.862464,27,-8,19,4,10,-6,92,94,75,80,27,157.62,0,177.00,298.00,-376.00
2025-08-06T12:42:16.872709,25,-5,34,4,12,0,92,94,138,80,27,157.43,0,144.00,145.00,-478.00
2025-08-06T12:42:16.973174,22,-3,45,2,12,3,92,94,89,80,27,157.33,0,104.00,148.00,-804.00
2025-08-06T12:42:17.079351,11,0,58,0,11,5,91,94,66,70,27,157.45,0,111.00,14.00,-908.00
2025-08-06T12:42:17.178434,3,3,77,-1,10,6,91,94,58,70,27,157.42,0,2.00,56.00,-977.00
2025-08-06T12:42:17.279070,-1,3,94,-1,8,6,91,94,47,60,27,157.44,0,-193.00,-74.00,-1015.00
2025-08-06T12:42:17.473965,-3,1,107,-1,7,6,91,94,42,50,27,157.15,0,-67.00,50.00,-987.00
2025-08-06T12:42:17.483057,-2,0,112,0,5,5,91,94,42,50,27,157.17,0,-246.00,131.00,-1153.00
2025-08-06T12:42:17.584954,-3,-2,110,0,2,3,91,94,38,40,27,157.21,0,-375.00,222.00,-1347.00
2025-08-06T12:42:17.686964,0,-4,107,-1,-1,0,91,94,37,40,27,157.21,0,-300.00,158.00,-1174.00
2025-08-06T12:42:17.884254,1,-3,100,-1,-2,0,91,94,34,40,27,157.05,0,-76.00,154.00,-1066.00
2025-08-06T12:42:17.893926,2,0,92,-2,-3,0,91,94,31,40,27,157.55,0,-100.00,206.00,-631.00
2025-08-06T12:42:17.992921,-1,-6,85,-3,-5,3,91,94,10,0,27,157.16,0,-429.00,37.00,-758.00
2025-08-06T12:42:18.095271,-10,-17,85,-5,-7,3,92,93,33,0,27,156.90,0,-103.00,130.00,-916.00
2025-08-06T12:42:18.197051,-14,-26,68,-4,-8,3,92,93,87,0,27,157.27,0,3.00,329.00,-787.00
2025-08-06T12:42:18.396292,-19,-27,51,-3,-6,4,92,93,85,0,27,157.05,0,-190.00,355.00,-772.00
2025-08-06T12:42:18.400917,-19,-25,37,-2,-5,6,92,93,76,0,27,156.82,0,-268.00,442.00,-814.00
2025-08-06T12:42:18.600139,-23,-24,29,-2,-3,7,92,93,70,-10,27,156.73,0,-206.00,761.00,-770.00
2025-08-06T12:42:18.604873,-21,-23,17,-2,0,6,92,93,61,-10,27,156.67,0,-312.00,607.00,-963.00
2025-08-06T12:42:18.805117,-18,-25,12,0,2,5,92,93,54,-20,27,156.68,0,-156.00,511.00,-933.00
2025-08-06T12:42:18.809964,-13,-24,5,0,2,4,92,93,46,-30,27,156.47,0,-308.00,445.00,-973.00
2025-08-06T12:42:19.009594,-11,-24,-4,0,2,4,92,93,39,-30,27,156.89,0,-434.00,562.00,-1037.00
2025-08-06T12:42:19.009686,-10,-23,-6,-1,3,4,92,93,34,-30,27,156.65,0,-188.00,494.00,-1017.00
2025-08-06T12:42:19.114855,-8,-19,-6,-1,3,2,92,93,10,-40,27,156.73,0,-147.00,468.00,-1041.00
2025-08-06T12:42:19.165816,-9,-20,-7,-1,3,1,92,93,10,-40,27,156.60,0,-161.00,430.00,-1040.00
2025-08-06T12:42:19.267781,-12,-16,-11,-1,3,0,92,93,10,-40,27,156.79,0,-235.00,329.00,-998.00
2025-08-06T12:42:19.420726,-10,-18,-16,0,2,0,92,93,10,0,27,156.74,0,-165.00,313.00,-1046.00
2025-08-06T12:42:19.471864,-8,-18,-19,-1,2,0,92,93,10,0,27,156.64,0,-163.00,184.00,-990.00
2025-08-06T12:42:19.624449,-10,-16,-24,-1,1,-1,92,93,10,0,27,156.65,0,-192.00,171.00,-1048.00
2025-08-06T12:42:19.675861,-11,-16,-26,-2,0,-2,92,93,10,0,27,156.39,0,-300.00,129.00,-1005.00
2025-08-06T12:42:19.828849,-12,-15,-27,-3,-1,-3,92,93,31,0,27,156.51,0,-169.00,243.00,-1104.00
2025-08-06T12:42:19.879767,-7,-14,-37,-3,-1,-4,92,93,35,0,27,156.76,0,-73.00,227.00,-1115.00
2025-08-06T12:42:20.034241,-2,-16,-48,-2,-3,-6,92,93,40,0,27,156.76,0,181.00,411.00,-1352.00
2025-08-06T12:42:20.084591,7,-20,-61,0,-4,-10,92,93,53,10,27,156.52,0,177.00,256.00,-1234.00
2025-08-06T12:42:20.185680,19,-34,-72,0,0,-13,92,93,84,20,27,157.06,0,252.00,429.00,-1338.00
2025-08-06T12:42:20.340867,31,-51,-75,0,0,-15,92,93,65,30,27,157.09,0,298.00,559.00,-1209.00
2025-08-06T12:42:20.399641,44,-51,-65,0,0,-15,92,93,55,50,27,157.03,0,190.00,896.00,-820.00
2025-08-06T12:42:20.491859,56,-39,-41,0,0,-11,92,93,10,60,27,157.46,0,77.00,982.00,-257.00
2025-08-06T12:42:20.593704,60,-15,-7,0,0,-5,92,93,46,70,27,157.56,0,215.00,769.00,-35.00
2025-08-06T12:42:20.751076,60,-19,4,0,0,-1,92,93,43,70,27,157.21,0,348.00,460.00,-253.00
2025-08-06T12:42:20.798254,53,-13,19,0,0,2,92,93,6553,70,27,157.18,0,343.00,178.00,-433.00
2025-08-06T12:42:20.955386,36,0,39,0,0,5,92,93,137,70,27,157.27,0,338.00,50.00,-491.00
2025-08-06T12:42:21.001745,21,6,54,0,0,6,92,93,66,60,27,157.37,0,449.00,23.00,-607.00
2025-08-06T12:42:21.166025,12,0,64,0,0,7,92,94,41,50,27,157.22,0,-54.00,-258.00,-1133.00
2025-08-06T12:42:21.205621,8,-5,70,0,0,6,92,94,36,40,27,156.92,0,-60.00,71.00,-1051.00
2025-08-06T12:42:21.364701,4,-2,80,0,0,7,92,94,10,40,27,157.03,0,-78.00,113.00,-1327.00
2025-08-06T12:42:21.409575,2,-3,86,0,0,4,92,94,10,30,27,157.21,0,-106.00,248.00,-1475.00
2025-08-06T12:42:21.569624,10,-2,90,0,0,0,92,94,10,30,27,156.89,0,-22.00,171.00,-1093.00
2025-08-06T12:42:21.615088,10,-1,92,0,0,-1,92,94,10,30,27,157.21,0,-48.00,206.00,-720.00
2025-08-06T12:42:21.774191,11,-5,91,0,0,0,92,94,10,30,27,157.03,0,80.00,130.00,-814.00
2025-08-06T12:42:21.817821,8,-14,82,0,0,2,92,94,30,30,27,157.36,0,-110.00,410.00,-852.00
2025-08-06T12:42:21.919532,0,-19,68,0,0,3,92,94,76,0,27,156.94,0,104.00,410.00,-731.00
2025-08-06T12:42:22.084065,-6,-24,56,0,0,4,92,94,77,0,27,156.92,0,-99.00,543.00,-944.00
2025-08-06T12:42:22.123769,-12,-28,46,0,0,6,91,93,74,0,27,157.17,0,-137.00,491.00,-938.00
2025-08-06T12:42:22.286249,-16,-29,35,0,0,6,91,93,67,-10,27,156.94,0,-264.00,594.00,-887.00
2025-08-06T12:42:22.327500,-21,-28,23,0,0,6,91,93,58,-10,27,156.77,0,-280.00,706.00,-1073.00
2025-08-06T12:42:22.491377,-25,-26,14,0,0,5,91,93,52,-20,27,156.54,0,-315.00,702.00,-874.00
2025-08-06T12:42:22.531745,-23,-27,12,0,0,4,91,93,46,-20,27,156.76,0,-452.00,640.00,-852.00
2025-08-06T12:42:22.582782,-22,-18,3,0,0,3,91,93,38,-30,27,156.82,0,-404.00,170.00,-869.00
2025-08-06T12:42:22.684614,-22,-17,-5,0,0,2,91,93,35,-30,27,156.96,0,-523.00,210.00,-976.00
2025-08-06T12:42:22.786826,-20,-17,-6,0,0,1,91,93,33,-30,27,156.58,0,-445.00,226.00,-1030.00
2025-08-06T12:42:22.891594,-19,-17,-8,0,0,0,91,93,31,-30,27,156.43,0,-406.00,296.00,-931.00
2025-08-06T12:42:22.993635,-17,-18,-16,0,0,0,91,93,32,0,27,156.83,0,-306.00,363.00,-955.00
2025-08-06T12:42:23.092649,-17,-21,-25,0,0,0,92,94,33,0,27,156.77,0,-318.00,287.00,-961.00
2025-08-06T12:42:23.208016,-14,-23,-36,-1,-1,-1,92,94,34,0,27,156.57,0,-178.00,411.00,-1017.00
2025-08-06T12:42:23.296382,-10,-27,-47,-1,-2,-2,92,94,41,0,27,156.45,0,319.00,675.00,-1049.00
2025-08-06T12:42:23.412705,0,-42,-75,-1,-5,-4,92,94,61,0,27,156.80,0,389.00,652.00,-1000.00
2025-08-06T12:42:23.500457,9,-56,-105,-3,-6,-5,92,94,107,0,27,156.86,0,126.00,1191.00,-509.00
2025-08-06T12:42:23.603251,16,-68,-117,0,0,-8,92,94,214,10,27,156.83,0,40.00,1288.00,-264.00
2025-08-06T12:42:23.704480,23,-81,-122,0,0,-9,92,94,130,10,27,156.81,0,262.00,1130.00,-123.00
2025-08-06T12:42:23.806752,33,-94,-120,0,0,-11,92,94,79,20,27,156.99,0,593.00,1049.00,-41.00
2025-08-06T12:42:23.926547,40,-107,-121,0,0,-12,92,94,38,40,27,157.39,0,478.00,802.00,42.00
2025-08-06T12:42:24.011050,49,-119,-126,0,0,-11,92,94,640,50,27,157.39,0,417.00,527.00,176.00
2025-08-06T12:42:24.112445,68,-130,-132,0,0,-7,92,94,500,60,27,157.42,0,453.00,407.00,96.00
2025-08-06T12:42:24.214392,82,-111,-102,0,0,-3,92,94,44,60,27,157.19,0,783.00,30.00,-112.00
2025-08-06T12:42:24.344846,75,-5,15,0,0,-1,92,94,47,70,27,157.24,0,784.00,-27.00,-288.00
2025-08-06T12:42:24.418346,62,3,34,0,0,0,92,94,144,70,27,157.52,0,722.00,-67.00,-610.00
2025-08-06T12:42:24.520424,44,6,43,0,0,0,92,94,141,70,27,157.37,0,570.00,-82.00,-712.00
2025-08-06T12:42:24.622196,31,7,53,0,0,0,92,94,103,70,27,157.37,0,342.00,-218.00,-924.00
2025-08-06T12:42:24.724403,20,5,60,0,0,1,92,94,60,0,27,157.48,0,231.00,-160.00,-922.00
2025-08-06T12:42:24.827917,10,4,68,0,0,1,92,94,60,0,27,157.25,0,97.00,-69.00,-1033.00
2025-08-06T12:42:24.928374,0,7,76,0,0,1,92,94,104,0,27,157.57,0,-120.00,-238.00,-972.00
2025-08-06T12:42:25.030283,-9,12,82,0,0,1,92,94,80,0,27,157.11,0,-376.00,-317.00,-909.00
2025-08-06T12:42:25.154797,-18,18,88,0,0,1,92,94,56,0,27,157.43,0,-469.00,-252.00,-1063.00
2025-08-06T12:42:25.234260,-29,14,88,0,0,0,92,94,66,0,27,157.40,0,-531.00,108.00,-984.00
2025-08-06T12:42:25.336818,-25,-4,84,0,0,-2,92,94,73,0,27,157.34,0,-664.00,152.00,-958.00
2025-08-06T12:42:25.460939,-16,-17,85,0,0,-3,92,94,61,0,27,157.55,0,-418.00,272.00,-1025.00
2025-08-06T12:42:25.540315,-10,-18,84,0,0,-4,92,94,64,0,27,157.45,0,-533.00,385.00,-880.00
2025-08-06T12:42:25.642136,-6,-13,82,0,0,-4,92,94,69,0,27,157.83,0,-326.00,277.00,-1091.00
2025-08-06T12:42:25.744224,3,-9,78,0,0,-5,92,94,80,0,27,157.65,0,-117.00,193.00,-986.00
2025-08-06T12:42:25.871590,16,0,77,0,0,-5,92,94,135,10,27,157.55,0,172.00,3.00,-785.00
2025-08-06T12:42:25.897164,26,8,74,0,0,-3,92,94,152,10,27,157.77,0,203.00,-82.00,-663.00
2025-08-06T12:42:26.075216,28,13,70,0,0,0,92,94,131,10,27,157.58,0,405.00,-50.00,-666.00
2025-08-06T12:42:26.103793,27,10,57,0,0,3,92,95,72,10,27,157.69,0,378.00,12.00,-543.00
2025-08-06T12:42:26.203423,30,4,38,0,0,5,92,95,60,0,27,157.56,0,385.00,57.00,-428.00
2025-08-06T12:42:26.387605,35,-3,16,0,0,9,92,95,54,0,27,157.68,0,356.00,284.00,-610.00
2025-08-06T12:42:26.408552,32,-6,-8,0,0,12,92,95,106,0,27,156.98,0,432.00,614.00,-733.00
2025-08-06T12:42:26.586980,27,-7,-27,0,0,14,92,95,98,-20,27,157.27,0,165.00,716.00,-762.00
2025-08-06T12:42:26.611153,23,-6,-36,0,0,15,92,95,75,-30,27,156.66,0,371.00,387.00,-1210.00
2025-08-06T12:42:26.793427,14,-3,-30,0,0,12,92,95,60,-40,27,156.99,0,432.00,324.00,-1235.00
2025-08-06T12:42:26.815056,9,-5,-21,0,0,8,92,95,53,-50,27,156.74,0,340.00,318.00,-1278.00
2025-08-06T12:42:26.996684,5,-12,-8,0,0,5,92,95,49,-60,27,156.96,0,223.00,-15.00,-1357.00
2025-08-06T12:42:27.019076,5,-19,6,0,0,3,92,95,46,-70,27,157.15,0,45.00,338.00,-1061.00
2025-08-06T12:42:27.201387,5,-21,19,0,0,2,92,94,45,-70,27,156.47,0,326.00,371.00,-1292.00
2025-08-06T12:42:27.223687,7,-30,25,0,0,0,92,94,53,-70,27,156.73,0,125.00,472.00,-1265.00
2025-08-06T12:42:27.407429,10,-35,21,0,0,-3,92,94,64,-70,27,156.87,0,247.00,717.00,-1015.00
2025-08-06T12:42:27.428127,14,-41,22,0,0,-6,92,94,35,-60,27,156.97,0,114.00,617.00,-821.00
2025-08-06T12:42:27.610933,15,-44,29,0,0,-6,92,94,10,-60,27,157.24,0,160.00,880.00,-482.00
2025-08-06T12:42:27.632723,17,-51,31,0,0,-6,92,94,10,-50,27,157.39,0,303.00,843.00,-362.00
2025-08-06T12:42:27.733543,25,-64,38,0,0,-6,92,94,10,-40,27,157.06,0,407.00,600.00,-481.00
2025-08-06T12:42:27.834930,31,-67,48,0,0,-4,92,94,10,-40,27,157.21,0,544.00,578.00,-204.00
2025-08-06T12:42:27.936930,38,-62,59,0,0,-2,92,94,10,-30,27,157.27,0,501.00,485.00,-253.00
2025-08-06T12:42:28.126456,37,-51,80,0,0,0,92,94,10,-30,27,157.12,0,705.00,443.00,-693.00
2025-08-06T12:42:28.141047,33,-39,99,0,0,0,92,94,10,-30,27,156.71,0,618.00,401.00,-845.00
2025-08-06T12:42:28.327719,21,-20,117,0,0,-2,92,94,10,0,27,156.94,0,333.00,443.00,-945.00
2025-08-06T12:42:28.345501,16,-19,115,0,0,-3,92,94,33,0,27,157.33,0,275.00,426.00,-1106.00
2025-08-06T12:42:28.532944,16,-15,119,0,0,-2,92,94,39,0,27,157.41,0,16.00,-1.00,-962.00
2025-08-06T12:42:28.554627,13,-8,113,0,0,0,92,94,10,0,27,157.16,0,114.00,117.00,-914.00
2025-08-06T12:42:28.650910,14,-2,100,0,0,0,92,94,10,0,27,157.03,0,282.00,349.00,-954.00
2025-08-06T12:42:28.839616,10,0,89,0,0,2,92,94,10,0,27,157.08,0,108.00,391.00,-788.00
2025-08-06T12:42:28.857369,1,0,82,0,0,1,92,94,10,0,27,157.11,0,369.00,481.00,-1138.00
2025-08-06T12:42:28.956840,-2,-1,67,0,0,1,92,94,10,0,27,157.25,0,30.00,468.00,-919.00
2025-08-06T12:42:29.147188,0,0,63,0,0,0,92,94,10,0,27,157.20,0,-43.00,-116.00,-1398.00
2025-08-06T12:42:29.160865,0,0,64,0,0,0,92,94,10,0,27,157.34,0,-70.00,73.00,-1025.00
2025-08-06T12:42:29.262919,0,0,64,0,0,0,92,94,10,0,27,157.20,0,10.00,2.00,-1003.00
2025-08-06T12:42:29.364823,0,0,64,0,0,0,92,94,10,0,27,157.10,0,10.00,3.00,-1002.00
2025-08-06T12:42:29.556996,0,0,64,0,0,0,92,94,10,0,27,157.06,0,10.00,2.00,-999.00
2025-08-06T12:42:29.557204,0,0,64,0,0,0,92,94,10,0,27,157.18,0,20.00,0.00,-1135.00
2025-08-06T12:42:29.619780,0,0,64,0,0,0,92,94,10,0,27,157.05,0,14.00,2.00,-1045.00
2025-08-06T12:42:29.761242,0,0,64,0,0,0,92,94,10,0,27,156.86,0,12.00,3.00,-998.00
2025-08-06T12:42:29.823733,0,0,64,0,0,0,92,94,10,0,27,157.18,0,11.00,2.00,-969.00
2025-08-06T12:42:29.965903,0,0,64,0,0,0,92,94,10,0,27,157.06,0,11.00,3.00,-999.00
2025-08-06T12:42:30.027897,0,0,64,0,0,0,92,94,10,0,27,157.19,0,10.00,1.00,-1013.00
2025-08-06T12:42:30.171048,0,0,64,0,0,0,92,94,10,0,27,157.28,0,12.00,1.00,-989.00
2025-08-06T12:42:30.232069,0,0,64,0,0,0,92,94,10,0,27,157.21,0,10.00,4.00,-983.00
2025-08-06T12:42:30.336919,0,0,64,0,0,0,92,94,10,0,27,157.24,0,10.00,1.00,-992.00
2025-08-06T12:42:30.436084,0,0,64,0,0,0,92,94,10,0,27,156.97,0,10.00,2.00,-999.00
2025-08-06T12:42:30.582747,0,0,64,0,0,0,92,94,10,0,27,157.36,0,11.00,2.00,-1001.00
2025-08-06T12:42:30.640233,0,0,64,0,0,0,92,94,10,0,27,157.37,0,12.00,2.00,-1001.00
2025-08-06T12:42:30.785863,0,0,64,0,0,0,92,94,10,0,27,157.26,0,10.00,2.00,-994.00
