TS,pitch,roll,yaw,vgx,vgy,vgz,templ,temph,tof,h,bat,baro,time,agx,agy,agz
2024-05-17 17:23:51.789790,0,0,0,0,0,0,58,61,10,0,87,189.17,0,3.00,4.00,-1001.00
2024-05-17 17:23:51.891728,0,0,0,0,0,0,58,61,10,0,87,189.23,0,1.00,7.00,-999.00
2024-05-17 17:23:51.943712,0,0,0,0,0,0,58,61,10,0,87,189.20,0,3.00,5.00,-1000.00
2024-05-17 17:23:52.062012,0,0,0,0,0,0,58,61,10,0,87,189.18,0,3.00,6.00,-998.00
2024-05-17 17:23:52.148441,0,0,0,0,0,0,59,61,10,0,87,189.18,0,3.00,6.00,-1000.00
2024-05-17 17:23:52.266676,0,0,0,0,0,0,59,61,10,0,87,189.15,0,2.00,6.00,-1000.00
2024-05-17 17:23:52.351625,0,0,0,0,0,0,59,61,10,0,87,189.16,0,2.00,5.00,-999.00
2024-05-17 17:23:52.471603,0,0,0,0,0,0,59,61,10,0,87,189.19,0,2.00,5.00,-1002.00
2024-05-17 17:23:52.555675,0,0,0,0,0,0,59,61,10,0,87,189.18,0,4.00,7.00,-1001.00
2024-05-17 17:23:52.676308,0,0,0,0,0,0,59,61,10,0,87,189.16,0,3.00,5.00,-999.00
2024-05-17 17:23:52.759820,0,0,0,0,0,0,59,61,10,0,87,189.12,0,3.00,6.00,-1000.00
2024-05-17 17:23:52.881057,0,0,0,0,0,0,59,61,10,0,87,189.23,0,4.00,5.00,-998.00
2024-05-17 17:23:52.964000,0,0,0,0,0,0,59,61,10,0,87,189.14,0,1.00,5.00,-999.00
2024-05-17 17:23:53.086175,0,0,0,0,0,0,59,61,10,0,87,189.15,0,2.00,6.00,-1000.00
2024-05-17 17:23:53.167683,0,0,0,0,0,0,58,61,10,0,87,189.18,0,3.00,6.00,-999.00
2024-05-17 17:23:53.290733,0,0,0,0,0,0,58,61,10,0,87,189.17,0,2.00,7.00,-1000.00
2024-05-17 17:23:53.371685,0,0,0,0,0,0,58,61,10,0,87,189.21,0,3.00,7.00,-998.00
2024-05-17 17:23:53.475245,0,0,0,0,0,0,58,61,10,0,87,189.19,0,2.00,7.00,-999.00
2024-05-17 17:23:53.575836,0,0,0,0,0,0,58,61,10,0,87,189.19,0,2.00,7.00,-997.00
2024-05-17 17:23:53.802716,0,0,0,0,0,0,58,61,10,0,87,189.18,0,3.00,6.00,-997.00
2024-05-17 17:23:53.802964,0,0,0,0,0,0,58,61,10,0,87,189.17,0,3.00,5.00,-1000.00
2024-05-17 17:23:53.883064,0,0,0,0,0,0,58,61,10,0,87,189.18,0,3.00,7.00,-998.00
2024-05-17 17:23:53.983667,0,0,0,0,0,0,58,61,10,0,87,189.23,0,3.00,6.00,-996.00
2024-05-17 17:23:54.109895,0,0,0,0,0,0,58,61,10,0,87,189.20,0,2.00,6.00,-999.00
2024-05-17 17:23:54.187700,0,0,0,0,0,0,59,61,10,0,87,189.17,0,2.00,4.00,-999.00
2024-05-17 17:23:54.315775,0,0,0,0,0,0,59,61,10,0,87,189.17,0,1.00,6.00,-998.00
2024-05-17 17:23:54.391705,0,0,0,0,0,0,59,61,10,0,87,189.14,0,3.00,7.00,-1001.00
2024-05-17 17:23:54.519813,0,0,0,0,0,0,59,61,10,0,87,189.18,0,3.00,6.00,-1001.00
2024-05-17 17:23:54.595891,0,0,0,0,0,0,59,61,10,0,87,189.16,0,1.00,4.00,-1001.00
2024-05-17 17:23:54.724361,0,0,0,0,0,0,59,61,10,0,87,189.13,0,3.00,6.00,-1002.00
2024-05-17 17:23:54.799644,0,0,0,0,0,0,59,61,10,0,87,189.15,0,2.00,5.00,-997.00
2024-05-17 17:23:54.929223,0,0,0,0,0,0,59,61,10,0,87,189.21,0,4.00,6.00,-1001.00
2024-05-17 17:23:55.003885,0,0,0,0,0,0,59,61,10,0,87,189.19,0,2.00,5.00,-999.00
2024-05-17 17:23:55.133986,0,0,0,0,0,0,59,61,10,0,87,189.18,0,2.00,6.00,-997.00
2024-05-17 17:23:55.210670,0,0,0,0,0,0,58,61,10,0,87,189.18,0,2.00,6.00,-998.00
2024-05-17 17:23:55.309667,0,0,0,0,0,0,58,61,10,0,87,189.20,0,3.00,7.00,-1002.00
2024-05-17 17:23:55.367109,0,0,0,0,0,0,58,61,10,0,87,189.19,0,3.00,6.00,-998.00
2024-05-17 17:23:55.463354,0,0,0,0,0,0,58,61,10,0,87,189.20,0,2.00,5.00,-1000.00
2024-05-17 17:23:55.564668,0,0,0,0,0,0,58,61,10,0,87,189.15,0,2.00,6.00,-998.00
2024-05-17 17:23:55.748183,0,0,0,0,0,0,58,61,10,0,87,189.16,0,3.00,5.00,-998.00
2024-05-17 17:23:55.768717,0,0,0,0,0,0,58,61,10,0,87,189.16,0,3.00,7.00,-999.00
2024-05-17 17:23:55.974768,0,0,0,0,0,0,58,61,10,0,87,189.16,0,0.00,7.00,-996.00
2024-05-17 17:23:55.974998,0,0,0,0,0,0,58,61,10,0,87,189.16,0,0.00,9.00,-999.00
2024-05-17 17:23:56.074604,0,0,0,0,0,0,58,61,10,0,87,189.16,0,0.00,23.00,-997.00
2024-05-17 17:23:56.260188,0,0,0,0,0,-1,59,61,14,0,87,189.16,0,-36.00,14.00,-1198.00
2024-05-17 17:23:56.278805,0,0,0,0,0,-4,59,61,13,0,87,189.16,0,17.00,20.00,-1333.00
2024-05-17 17:23:56.380577,0,0,0,0,0,-7,59,61,10,10,87,189.16,0,-13.00,-6.00,-1198.00
2024-05-17 17:23:56.482353,0,0,0,0,0,-8,59,61,16,20,87,189.46,0,-26.00,10.00,-1043.00
2024-05-17 17:23:56.670274,0,0,0,0,0,-8,59,61,25,30,87,189.60,0,-9.00,5.00,-1006.00
2024-05-17 17:23:56.686308,0,0,0,0,0,-8,59,61,33,30,87,189.69,1,-7.00,11.00,-966.00
2024-05-17 17:23:56.788313,0,0,0,0,0,-7,59,61,40,40,87,189.72,1,8.00,3.00,-922.00
2024-05-17 17:23:56.893448,0,0,0,0,0,-7,59,61,47,50,87,189.78,1,1.00,9.00,-891.00
2024-05-17 17:23:56.992330,0,0,0,0,0,-5,59,61,52,60,87,189.86,1,-4.00,3.00,-882.00
2024-05-17 17:23:57.183261,0,0,0,0,0,-4,59,61,56,60,87,189.91,1,-10.00,26.00,-879.00
2024-05-17 17:23:57.196801,0,0,0,0,0,-3,60,62,60,70,87,190.00,1,11.00,5.00,-897.00
2024-05-17 17:23:57.387396,0,0,0,0,0,-2,60,62,63,70,87,190.01,1,-29.00,16.00,-913.00
2024-05-17 17:23:57.400593,0,0,0,0,0,-1,60,62,64,70,87,190.04,1,-15.00,22.00,-955.00
2024-05-17 17:23:57.595403,0,0,0,0,0,-1,60,62,66,70,87,190.10,1,-1.00,16.00,-971.00
2024-05-17 17:23:57.605291,0,0,0,0,0,-1,60,62,64,70,87,190.05,1,7.00,10.00,-988.00
2024-05-17 17:23:57.797477,0,0,0,0,0,-1,60,62,65,70,87,190.03,2,0.00,16.00,-996.00
2024-05-17 17:23:57.808717,0,0,0,0,0,-1,60,62,65,70,87,190.09,2,0.00,17.00,-1017.00
2024-05-17 17:23:58.001018,0,0,0,0,0,-1,60,62,66,70,87,190.13,2,-14.00,15.00,-1011.00
2024-05-17 17:23:58.012673,0,0,0,0,0,-1,60,62,67,70,87,190.15,2,-17.00,9.00,-1006.00
2024-05-17 17:23:58.205752,0,0,0,0,0,-1,60,62,68,80,87,190.08,2,-3.00,10.00,-1008.00
2024-05-17 17:23:58.216610,0,0,0,0,0,-1,60,62,70,80,87,190.09,2,5.00,18.00,-1019.00
2024-05-17 17:23:58.410611,0,0,0,0,0,-1,60,62,71,80,87,190.14,2,6.00,10.00,-996.00
2024-05-17 17:23:58.420240,0,0,0,0,0,-1,60,62,73,80,87,190.22,2,3.00,-3.00,-985.00
2024-05-17 17:23:58.522584,0,0,0,0,0,-1,60,62,74,80,87,190.19,2,-5.00,14.00,-1002.00
2024-05-17 17:23:58.624263,0,0,0,0,0,-1,60,62,75,80,87,190.17,2,19.00,0.00,-1010.00
2024-05-17 17:23:58.726249,0,0,0,0,0,-1,60,62,77,80,87,190.25,3,-3.00,13.00,-991.00
2024-05-17 17:23:58.922978,0,0,0,0,0,-1,60,62,78,80,87,190.28,3,12.00,0.00,-968.00
2024-05-17 17:23:58.931227,0,0,0,0,0,-1,60,62,79,80,87,190.24,3,-18.00,21.00,-982.00
2024-05-17 17:23:59.032220,0,0,0,0,0,0,60,62,80,80,87,190.23,3,0.00,5.00,-989.00
2024-05-17 17:23:59.229785,0,0,0,0,0,0,60,62,81,90,87,190.29,3,-10.00,7.00,-982.00
2024-05-17 17:23:59.236702,0,0,0,0,0,0,60,62,82,90,87,190.21,3,-2.00,11.00,-1001.00
2024-05-17 17:23:59.339118,0,0,0,0,0,0,60,62,82,90,87,190.32,3,10.00,6.00,-1014.00
2024-05-17 17:23:59.441720,0,0,0,0,0,0,60,62,83,90,87,190.33,3,2.00,12.00,-986.00
2024-05-17 17:23:59.543775,0,0,0,0,0,0,60,62,84,90,87,190.30,3,-18.00,22.00,-978.00
2024-05-17 17:23:59.646326,0,0,0,0,0,0,60,62,84,90,87,190.30,3,9.00,18.00,-996.00
2024-05-17 17:23:59.695137,0,0,0,0,0,0,60,62,85,90,87,190.29,4,-1.00,3.00,-983.00
2024-05-17 17:23:59.844676,0,0,0,0,0,0,60,62,85,90,87,190.32,4,-5.00,14.00,-994.00
2024-05-17 17:23:59.903616,0,0,0,0,0,0,60,62,85,90,87,190.32,4,18.00,9.00,-1004.00
2024-05-17 17:24:00.001242,0,0,0,0,0,0,60,62,85,90,87,190.24,4,8.00,16.00,-987.00
2024-05-17 17:24:00.151280,0,0,0,0,0,0,60,62,85,90,87,190.31,4,7.00,-3.00,-996.00
2024-05-17 17:24:00.205165,0,0,0,0,0,0,60,62,85,90,87,190.25,4,4.00,14.00,-993.00
2024-05-17 17:24:00.356116,0,0,0,0,0,0,60,62,85,90,87,190.39,4,3.00,8.00,-993.00
2024-05-17 17:24:00.409108,0,0,0,0,0,0,60,62,85,90,87,190.30,4,14.00,18.00,-990.00
2024-05-17 17:24:00.561482,0,0,0,0,0,0,60,62,86,90,87,190.24,4,6.00,12.00,-1007.00
2024-05-17 17:24:00.623129,0,0,0,0,0,0,60,62,86,90,87,190.32,4,-19.00,27.00,-1009.00
2024-05-17 17:24:00.715189,0,0,0,0,0,0,60,62,86,90,87,190.25,5,12.00,5.00,-990.00
2024-05-17 17:24:00.817129,0,0,0,0,0,0,60,62,86,90,87,190.26,5,14.00,6.00,-1003.00
2024-05-17 17:24:00.919150,0,0,0,0,0,0,60,62,86,90,87,190.31,5,-1.00,39.00,-1016.00
2024-05-17 17:24:01.021134,0,0,0,0,0,0,60,62,86,90,87,190.33,5,2.00,12.00,-996.00
2024-05-17 17:24:01.175311,0,0,0,0,0,0,60,62,86,90,87,190.30,5,22.00,5.00,-981.00
2024-05-17 17:24:01.225049,0,0,0,0,0,0,60,62,86,90,87,190.33,5,0.00,13.00,-992.00
2024-05-17 17:24:01.381255,0,0,0,0,0,0,60,62,86,90,87,190.36,5,-2.00,21.00,-1003.00
2024-05-17 17:24:01.429366,0,0,0,0,0,0,60,62,86,90,87,190.26,5,9.00,11.00,-1010.00
2024-05-17 17:24:01.585204,0,0,0,0,0,0,60,62,86,90,87,190.31,5,7.00,23.00,-993.00
2024-05-17 17:24:01.633177,0,0,0,0,0,0,60,62,86,90,87,190.30,5,-13.00,36.00,-1001.00
2024-05-17 17:24:01.789671,0,0,0,0,0,0,60,62,86,90,87,190.30,6,18.00,0.00,-999.00
2024-05-17 17:24:01.837125,0,0,0,0,0,0,60,62,86,90,87,190.32,6,-2.00,19.00,-999.00
2024-05-17 17:24:01.939536,0,0,0,0,0,0,60,62,86,90,87,190.35,6,8.00,6.00,-1004.00
2024-05-17 17:24:02.041256,0,0,0,0,0,0,60,62,86,90,87,190.31,6,12.00,18.00,-1001.00
2024-05-17 17:24:02.199286,0,0,0,0,0,0,60,62,86,90,87,190.33,6,5.00,12.00,-1000.00
2024-05-17 17:24:02.245080,0,0,0,0,0,0,60,62,86,90,87,190.27,6,4.00,12.00,-1003.00
2024-05-17 17:24:02.404156,0,0,0,0,0,0,60,62,86,90,87,190.31,6,7.00,15.00,-988.00
2024-05-17 17:24:02.449622,0,0,0,0,0,0,60,62,86,90,87,190.32,6,2.00,15.00,-994.00
2024-05-17 17:24:02.609611,0,0,0,0,0,0,60,62,85,90,87,190.32,6,-2.00,15.00,-996.00
2024-05-17 17:24:02.653072,0,0,0,0,0,0,60,62,85,90,87,190.26,6,8.00,-11.00,-986.00
2024-05-17 17:24:02.813770,0,0,0,0,0,0,60,62,86,90,87,190.27,7,12.00,15.00,-1001.00
2024-05-17 17:24:02.857070,0,0,0,0,0,0,60,62,85,90,87,190.29,7,-1.00,28.00,-991.00
2024-05-17 17:24:03.019373,0,0,0,0,0,0,60,62,85,90,87,190.31,7,1.00,19.00,-978.00
2024-05-17 17:24:03.061893,0,0,0,0,0,0,60,62,85,90,87,190.34,7,-10.00,20.00,-990.00
2024-05-17 17:24:03.229335,0,0,0,0,0,0,60,62,85,90,87,190.36,7,11.00,5.00,-985.00
2024-05-17 17:24:03.264977,0,0,0,0,0,0,60,63,85,90,87,190.34,7,-3.00,12.00,-999.00
2024-05-17 17:24:03.428199,0,0,0,0,0,0,60,63,85,90,87,190.32,7,24.00,2.00,-1005.00
2024-05-17 17:24:03.469048,0,0,0,0,0,0,60,63,85,90,87,190.27,7,10.00,14.00,-1013.00
2024-05-17 17:24:03.519913,0,0,0,0,0,0,60,63,85,90,87,190.32,7,9.00,8.00,-1009.00
2024-05-17 17:24:03.632875,0,0,0,0,0,0,60,63,85,90,87,190.31,7,3.00,-1.00,-1011.00
2024-05-17 17:24:03.731701,0,0,0,0,0,0,60,63,85,90,87,190.38,8,5.00,22.00,-1012.00
2024-05-17 17:24:03.825988,0,0,0,0,0,0,60,63,85,90,87,190.31,8,3.00,11.00,-995.00
2024-05-17 17:24:03.948364,0,0,0,0,0,0,60,63,85,90,87,190.34,8,14.00,3.00,-996.00
2024-05-17 17:24:04.047041,0,0,0,0,0,0,60,63,85,90,87,190.31,8,-16.00,19.00,-1000.00
2024-05-17 17:24:04.133033,0,0,0,0,0,0,60,63,85,90,87,190.35,8,-8.00,16.00,-992.00
2024-05-17 17:24:04.247304,0,0,0,0,0,0,60,63,86,90,87,190.34,8,6.00,7.00,-991.00
2024-05-17 17:24:04.336051,0,0,0,0,0,0,60,63,86,90,87,190.27,8,11.00,11.00,-1002.00
2024-05-17 17:24:04.452530,0,0,0,0,0,0,60,63,86,90,87,190.32,8,-8.00,3.00,-988.00
2024-05-17 17:24:04.540486,0,0,0,0,0,0,60,63,86,90,87,190.40,8,8.00,9.00,-1003.00
2024-05-17 17:24:04.657093,0,0,0,0,0,0,60,63,86,90,87,190.36,8,10.00,0.00,-991.00
2024-05-17 17:24:04.749505,0,0,0,0,0,0,60,63,86,90,87,190.31,9,6.00,4.00,-1011.00
2024-05-17 17:24:04.849897,0,0,0,0,0,0,60,63,86,90,87,190.31,9,-3.00,11.00,-990.00
2024-05-17 17:24:04.954777,0,0,0,0,0,0,60,63,86,90,87,190.28,9,-8.00,19.00,-998.00
2024-05-17 17:24:05.058176,0,0,0,0,0,0,60,63,86,90,87,190.33,9,15.00,8.00,-1010.00
2024-05-17 17:24:05.152097,0,0,0,0,0,0,60,63,85,90,87,190.34,9,-5.00,18.00,-992.00
2024-05-17 17:24:05.271530,0,0,0,0,0,0,60,62,85,90,87,190.33,9,6.00,21.00,-1004.00
2024-05-17 17:24:05.357055,0,0,0,0,0,0,60,62,85,90,87,190.34,9,0.00,8.00,-995.00
2024-05-17 17:24:05.458496,0,0,0,0,0,0,60,62,85,90,87,190.41,9,8.00,16.00,-1023.00
2024-05-17 17:24:05.578634,0,0,0,0,0,0,60,62,85,90,87,190.35,9,4.00,0.00,-988.00
2024-05-17 17:24:05.662019,0,0,0,0,0,0,60,62,85,90,87,190.30,9,0.00,19.00,-1003.00
2024-05-17 17:24:05.785370,0,0,0,0,0,0,60,62,85,90,87,190.35,10,-26.00,29.00,-984.00
2024-05-17 17:24:05.872798,0,0,0,0,0,0,60,62,85,90,87,190.36,10,-13.00,22.00,-1003.00
2024-05-17 17:24:05.968065,0,0,0,0,0,0,60,62,85,90,87,190.25,10,2.00,9.00,-1001.00
2024-05-17 17:24:06.070596,0,0,0,0,0,0,60,62,85,90,87,190.32,10,13.00,6.00,-993.00
2024-05-17 17:24:06.172055,0,0,0,0,0,0,60,62,85,90,87,190.31,10,14.00,-2.00,-991.00
2024-05-17 17:24:06.290900,0,0,0,0,0,0,60,62,86,90,87,190.32,10,3.00,8.00,-998.00
2024-05-17 17:24:06.375880,0,0,0,0,0,0,60,62,86,90,87,190.28,10,9.00,20.00,-1015.00
2024-05-17 17:24:06.500087,0,0,0,0,0,0,60,62,86,90,87,190.32,10,10.00,7.00,-1067.00
2024-05-17 17:24:06.580585,0,0,0,0,0,0,60,62,87,90,87,190.35,10,-9.00,20.00,-1100.00
2024-05-17 17:24:06.682481,0,0,0,0,0,-1,60,62,89,90,87,190.42,10,-3.00,3.00,-1068.00
2024-05-17 17:24:06.807290,0,0,0,0,0,-2,60,62,92,90,87,190.38,11,-6.00,26.00,-1096.00
2024-05-17 17:24:06.885839,0,0,0,0,0,-3,60,62,96,100,87,190.46,11,-16.00,26.00,-1075.00
2024-05-17 17:24:07.012093,0,0,0,0,0,-4,60,62,100,100,87,190.48,11,-14.00,23.00,-1059.00
2024-05-17 17:24:07.089848,0,0,0,0,0,-4,60,62,105,100,87,190.52,11,9.00,17.00,-1033.00
2024-05-17 17:24:07.141887,0,0,0,0,0,-5,60,62,110,110,87,190.61,11,0.00,17.00,-1028.00
2024-05-17 17:24:07.321259,0,0,0,0,0,-5,60,63,118,110,87,190.59,11,13.00,1.00,-1010.00
2024-05-17 17:24:07.344862,0,0,0,0,0,-5,60,63,124,120,87,190.69,11,12.00,10.00,-996.00
2024-05-17 17:24:07.447054,0,0,0,0,0,-5,60,63,130,130,87,190.76,11,-8.00,18.00,-980.00
2024-05-17 17:24:07.551110,0,0,0,0,0,-5,60,63,136,130,87,190.86,11,0.00,27.00,-978.00
2024-05-17 17:24:07.650811,0,0,0,0,0,-5,60,63,141,140,87,190.87,11,-6.00,30.00,-964.00
2024-05-17 17:24:07.752838,0,0,0,0,0,-5,60,63,146,140,87,190.94,12,34.00,15.00,-985.00
2024-05-17 17:24:07.936294,0,0,0,0,0,-4,60,63,151,150,87,190.99,12,26.00,5.00,-974.00
2024-05-17 17:24:07.956800,0,0,0,0,0,-4,60,63,156,150,87,191.04,12,4.00,22.00,-956.00
2024-05-17 17:24:08.062666,0,0,0,0,0,-4,60,63,160,160,87,191.03,12,16.00,12.00,-976.00
2024-05-17 17:24:08.160828,0,0,0,0,0,-3,60,63,164,160,87,191.15,12,-1.00,33.00,-957.00
2024-05-17 17:24:08.344799,0,0,0,0,0,-3,61,63,167,170,87,191.15,12,10.00,29.00,-964.00
2024-05-17 17:24:08.364761,0,0,0,0,0,-2,61,63,170,170,87,191.15,12,-1.00,27.00,-946.00
2024-05-17 17:24:08.550041,0,0,0,0,0,-2,61,63,174,170,87,191.17,12,0.00,24.00,-963.00
2024-05-17 17:24:08.570014,0,0,0,0,0,-2,61,63,176,180,87,191.25,12,13.00,23.00,-963.00
2024-05-17 17:24:08.755707,0,0,0,0,0,-1,61,63,178,180,87,191.20,13,-4.00,35.00,-981.00
2024-05-17 17:24:08.772697,0,0,0,0,0,-1,61,63,180,180,87,191.20,13,-11.00,35.00,-978.00
2024-05-17 17:24:08.960322,0,0,0,0,0,-1,61,63,182,180,87,191.24,13,2.00,35.00,-980.00
2024-05-17 17:24:08.976708,0,0,0,0,0,-1,61,63,183,180,87,191.25,13,24.00,14.00,-964.00
2024-05-17 17:24:09.163810,0,0,0,0,0,0,61,63,185,190,87,191.25,13,0.00,29.00,-974.00
2024-05-17 17:24:09.180843,0,0,0,0,0,0,61,63,186,190,87,191.27,13,7.00,14.00,-958.00
2024-05-17 17:24:09.283062,0,0,0,0,0,0,60,63,187,190,87,191.20,13,-8.00,32.00,-955.00
2024-05-17 17:24:09.385036,0,0,0,0,0,0,60,63,187,190,87,191.28,13,14.00,20.00,-972.00
2024-05-17 17:24:09.490884,0,0,0,0,0,0,60,63,188,190,87,191.27,13,6.00,20.00,-981.00
2024-05-17 17:24:09.588826,0,0,0,0,0,0,60,63,188,190,87,191.33,13,20.00,14.00,-995.00
2024-05-17 17:24:09.779787,0,0,0,0,0,0,60,63,188,190,87,191.33,14,10.00,12.00,-975.00
2024-05-17 17:24:09.794171,0,0,0,0,0,0,60,63,188,190,87,191.29,14,18.00,7.00,-986.00
2024-05-17 17:24:09.991549,0,0,0,0,0,0,60,63,188,190,87,191.30,14,9.00,24.00,-1005.00
2024-05-17 17:24:09.999940,0,0,0,0,0,0,60,63,188,190,87,191.22,14,10.00,12.00,-981.00
2024-05-17 17:24:10.099705,0,0,0,0,0,0,60,63,188,190,87,191.31,14,-9.00,13.00,-990.00
2024-05-17 17:24:10.201004,0,0,0,0,0,0,60,63,189,190,87,191.35,14,9.00,27.00,-1007.00
2024-05-17 17:24:10.393558,0,0,0,0,0,0,60,63,188,190,87,191.32,14,-18.00,34.00,-990.00
2024-05-17 17:24:10.404797,0,0,0,0,0,0,60,63,188,190,87,191.27,14,9.00,26.00,-1008.00
2024-05-17 17:24:10.700167,0,0,0,0,0,0,60,63,189,190,87,191.30,14,15.00,17.00,-991.00
2024-05-17 17:24:10.700849,0,0,0,0,0,0,60,63,188,190,87,191.35,14,-2.00,30.00,-990.00
2024-05-17 17:24:10.710800,0,0,0,0,0,0,60,63,188,190,87,191.37,15,21.00,21.00,-1013.00
2024-05-17 17:24:10.812818,0,0,0,0,0,0,60,63,188,190,87,191.28,15,-2.00,31.00,-983.00
2024-05-17 17:24:10.980655,0,-1,0,0,0,0,60,63,188,190,87,191.27,15,7.00,28.00,-990.00
2024-05-17 17:24:11.017021,0,-1,0,0,0,0,60,63,188,190,87,191.35,15,19.00,13.00,-991.00
2024-05-17 17:24:11.070263,0,-1,0,0,0,0,60,63,188,190,87,191.32,15,0.00,15.00,-972.00
2024-05-17 17:24:11.170381,0,-1,0,0,0,0,60,63,189,190,87,191.29,15,13.00,17.00,-961.00
2024-05-17 17:24:11.322620,0,-1,0,0,0,0,61,64,188,190,87,191.37,15,24.00,27.00,-976.00
2024-05-17 17:24:11.424644,0,-1,0,0,0,1,61,64,186,190,87,191.26,15,31.00,12.00,-972.00
2024-05-17 17:24:11.526592,0,-1,0,0,0,1,61,64,184,190,87,191.32,15,10.00,21.00,-969.00
2024-05-17 17:24:11.578051,0,-1,0,0,0,2,61,64,183,190,87,191.29,15,13.00,18.00,-966.00
2024-05-17 17:24:11.725592,0,0,0,0,0,2,61,64,181,180,87,191.27,16,10.00,8.00,-948.00
2024-05-17 17:24:11.781662,0,0,0,0,0,2,61,64,178,180,87,191.28,16,13.00,24.00,-992.00
2024-05-17 17:24:11.928158,0,0,0,0,0,2,61,64,175,180,87,191.18,16,3.00,24.00,-971.00
2024-05-17 17:24:11.993621,0,-1,0,0,0,2,61,64,172,180,87,191.13,16,9.00,20.00,-994.00
2024-05-17 17:24:12.088708,0,-1,0,0,0,2,61,64,169,170,87,191.09,16,6.00,26.00,-1017.00
2024-05-17 17:24:12.190398,0,-1,0,0,0,2,61,64,167,170,87,191.15,16,-16.00,39.00,-1002.00
2024-05-17 17:24:12.341131,0,-1,0,0,0,2,62,64,164,170,87,191.10,16,-19.00,37.00,-1013.00
2024-05-17 17:24:12.393928,0,-1,0,0,0,2,62,64,161,170,87,191.05,16,-2.00,24.00,-1008.00
2024-05-17 17:24:12.541804,-1,-1,0,0,0,2,62,64,159,160,87,191.05,16,0.00,17.00,-1007.00
2024-05-17 17:24:12.598561,0,-1,0,0,0,2,62,64,156,160,87,190.99,16,-1.00,2.00,-987.00
2024-05-17 17:24:12.747651,0,0,0,0,0,2,62,64,154,160,87,190.98,17,-1.00,23.00,-1007.00
2024-05-17 17:24:12.804389,0,0,0,0,0,2,62,64,152,160,87,191.05,17,1.00,22.00,-1027.00
2024-05-17 17:24:12.905519,0,0,0,0,0,1,62,64,150,150,87,190.94,17,7.00,13.00,-1008.00
2024-05-17 17:24:13.008827,0,0,0,0,0,1,62,64,148,150,87,190.98,17,-11.00,10.00,-994.00
2024-05-17 17:24:13.107555,0,0,0,0,0,1,62,64,146,150,87,190.93,17,-11.00,26.00,-1019.00
2024-05-17 17:24:13.258456,0,0,0,0,0,1,62,64,144,150,87,190.86,17,0.00,5.00,-998.00
2024-05-17 17:24:13.314727,0,0,0,0,0,1,62,64,143,150,87,190.89,17,-8.00,19.00,-1011.00
2024-05-17 17:24:13.413491,0,0,0,0,0,1,62,64,141,150,87,190.86,17,16.00,23.00,-1036.00
2024-05-17 17:24:13.566238,0,0,0,0,0,1,62,64,140,150,87,190.90,17,9.00,10.00,-1015.00
2024-05-17 17:24:13.617623,0,0,0,0,0,0,62,64,140,140,87,190.85,17,1.00,12.00,-1009.00
2024-05-17 17:24:13.770578,0,0,0,0,0,0,62,64,139,140,87,190.87,18,-9.00,27.00,-1021.00
2024-05-17 17:24:13.821567,0,0,0,0,0,0,62,64,139,140,87,190.89,18,-16.00,29.00,-1019.00
2024-05-17 17:24:13.923675,0,-1,0,0,0,0,62,64,139,140,87,190.85,18,-17.00,30.00,-1017.00
2024-05-17 17:24:14.077932,0,-1,0,0,0,0,62,64,138,140,87,190.86,18,-22.00,17.00,-997.00
2024-05-17 17:24:14.128454,0,0,0,0,0,0,62,64,139,140,87,190.86,18,-4.00,29.00,-1018.00
2024-05-17 17:24:14.282631,0,0,0,0,0,0,62,64,139,140,87,190.88,18,5.00,3.00,-981.00
2024-05-17 17:24:14.333643,0,-1,0,0,0,0,61,64,139,140,87,190.84,18,0.00,18.00,-994.00
2024-05-17 17:24:14.434053,0,-1,0,0,0,0,61,64,140,140,87,190.87,18,0.00,34.00,-1027.00
2024-05-17 17:24:14.536197,0,0,0,0,0,0,61,64,140,140,87,190.94,18,4.00,19.00,-990.00
2024-05-17 17:24:14.638578,0,0,0,0,0,0,61,64,140,140,87,190.90,18,0.00,31.00,-1003.00
2024-05-17 17:24:14.740561,0,0,0,0,0,0,61,64,140,140,87,190.91,19,12.00,11.00,-1003.00
2024-05-17 17:24:14.843665,0,0,0,0,0,0,61,64,141,140,87,190.88,19,0.00,29.00,-1016.00
2024-05-17 17:24:14.943600,0,0,0,0,0,0,61,64,141,140,87,190.83,19,-8.00,12.00,-979.00
2024-05-17 17:24:14.994796,0,-1,0,0,0,0,61,64,141,140,87,190.87,19,12.00,23.00,-994.00
2024-05-17 17:24:15.097365,0,0,0,0,0,0,61,64,141,140,87,190.87,19,0.00,13.00,-1003.00
2024-05-17 17:24:15.200960,0,0,0,0,0,0,61,64,141,140,87,190.84,19,4.00,9.00,-1000.00
2024-05-17 17:24:15.303622,0,0,0,0,0,0,62,64,141,140,87,190.88,19,17.00,20.00,-1010.00
2024-05-17 17:24:15.406567,0,0,0,0,0,0,62,64,141,140,87,190.91,19,-6.00,36.00,-1010.00
2024-05-17 17:24:15.511107,0,0,0,0,0,0,62,64,141,140,87,190.88,19,4.00,26.00,-995.00
2024-05-17 17:24:15.610146,0,0,0,0,0,0,62,64,141,140,87,190.89,19,7.00,9.00,-984.00
2024-05-17 17:24:15.708417,0,0,0,0,0,0,62,64,141,140,87,190.90,20,5.00,16.00,-1014.00
2024-05-17 17:24:15.818420,-5,-1,0,0,0,0,62,64,140,140,87,190.85,20,17.00,2.00,-995.00
2024-05-17 17:24:15.912584,-8,0,0,1,0,0,62,64,143,140,87,190.82,20,20.00,7.00,-995.00
2024-05-17 17:24:16.024188,-8,0,0,3,0,0,62,64,143,140,87,190.81,20,-6.00,19.00,-1004.00
2024-05-17 17:24:16.118029,-8,0,0,4,0,0,62,64,142,140,86,190.83,20,-5.00,12.00,-1013.00
2024-05-17 17:24:16.218310,-7,0,0,5,0,0,62,64,142,140,86,190.88,20,-12.00,38.00,-1004.00
2024-05-17 17:24:16.330534,-6,0,0,6,0,0,62,64,141,140,86,190.83,20,-19.00,20.00,-1007.00
2024-05-17 17:24:16.422355,-5,-1,0,7,0,0,62,64,140,140,86,190.89,20,-38.00,30.00,-1003.00
2024-05-17 17:24:16.538298,-5,-1,0,7,0,0,62,64,140,140,86,190.85,20,-29.00,15.00,-991.00
2024-05-17 17:24:16.626341,-2,-1,0,8,0,0,62,64,141,140,86,190.76,20,-35.00,33.00,-998.00
2024-05-17 17:24:16.740436,0,-1,0,7,0,0,62,64,141,140,86,190.86,21,-56.00,40.00,-1012.00
2024-05-17 17:24:16.830365,2,-1,0,7,0,0,62,64,141,140,86,190.82,21,-29.00,34.00,-1024.00
2024-05-17 17:24:16.945604,4,-1,0,5,0,0,62,64,141,140,86,190.81,21,-32.00,29.00,-1010.00
2024-05-17 17:24:17.035264,3,-1,0,4,0,0,62,64,141,140,86,190.90,21,-27.00,33.00,-1000.00
2024-05-17 17:24:17.153687,2,-1,0,3,0,0,62,64,141,140,86,190.91,21,-27.00,40.00,-1010.00
2024-05-17 17:24:17.238328,0,-1,0,3,0,0,62,64,140,140,86,190.91,21,-14.00,28.00,-991.00
2024-05-17 17:24:17.354464,0,0,0,2,0,0,61,64,140,140,86,190.84,21,-30.00,39.00,-987.00
2024-05-17 17:24:17.442923,0,-1,0,2,0,0,61,64,140,140,86,190.89,21,-3.00,21.00,-989.00
2024-05-17 17:24:17.561651,0,-1,0,2,0,0,61,64,140,140,86,190.88,21,-13.00,23.00,-1008.00
2024-05-17 17:24:17.646296,0,-1,0,2,0,0,61,64,140,140,86,190.88,21,-29.00,30.00,-994.00
2024-05-17 17:24:17.763976,0,-1,0,2,0,0,61,64,140,140,86,190.88,22,-18.00,13.00,-1003.00
2024-05-17 17:24:17.853186,-1,-1,0,2,0,0,61,64,140,140,86,190.90,22,-14.00,17.00,-980.00
2024-05-17 17:24:17.952302,-1,-1,0,2,0,0,61,64,141,140,86,190.88,22,-16.00,21.00,-988.00
2024-05-17 17:24:18.054452,0,-1,0,2,0,0,61,64,140,140,86,190.85,22,-33.00,35.00,-990.00
2024-05-17 17:24:18.173645,0,0,0,2,0,0,61,64,140,140,85,190.90,22,1.00,27.00,-1003.00
2024-05-17 17:24:18.258435,0,0,0,1,0,0,61,64,141,140,85,190.83,22,0.00,20.00,-988.00
2024-05-17 17:24:18.378383,3,0,0,1,0,0,62,65,140,140,85,190.87,22,-3.00,13.00,-999.00
2024-05-17 17:24:18.462626,2,0,0,0,0,0,62,65,141,140,85,190.89,22,7.00,18.00,-1013.00
2024-05-17 17:24:18.584005,1,0,0,0,0,0,62,65,140,140,85,190.87,22,5.00,18.00,-993.00
2024-05-17 17:24:18.666396,0,0,0,0,0,0,62,65,140,140,85,190.86,22,9.00,21.00,-998.00
2024-05-17 17:24:18.790538,0,0,0,0,0,0,62,65,140,140,85,190.85,23,-3.00,20.00,-986.00
2024-05-17 17:24:18.870737,0,0,0,0,0,0,62,65,140,140,85,190.88,23,3.00,28.00,-991.00
2024-05-17 17:24:18.995848,0,0,0,0,0,0,62,65,140,140,85,190.84,23,12.00,28.00,-1007.00
2024-05-17 17:24:19.074357,0,-1,0,0,0,0,62,65,140,140,85,190.91,23,-8.00,38.00,-1014.00
2024-05-17 17:24:19.125302,0,-1,0,0,0,0,62,65,141,140,85,190.83,23,13.00,21.00,-1015.00
2024-05-17 17:24:19.229442,0,-1,0,0,0,0,62,65,141,140,85,190.93,23,19.00,5.00,-982.00
2024-05-17 17:24:19.402555,0,0,0,0,0,0,62,64,141,140,85,190.83,23,11.00,31.00,-998.00
2024-05-17 17:24:19.482271,0,0,0,0,0,0,62,64,141,140,85,190.89,23,14.00,12.00,-987.00
2024-05-17 17:24:19.607541,0,0,0,0,0,0,62,64,141,140,85,190.82,23,0.00,29.00,-989.00
2024-05-17 17:24:19.637787,0,0,0,0,0,0,62,64,141,140,85,190.84,23,13.00,21.00,-1007.00
2024-05-17 17:24:19.738309,0,0,0,0,0,0,62,64,142,140,85,190.93,24,-5.00,24.00,-995.00
2024-05-17 17:24:19.839358,0,0,0,0,0,0,62,64,142,140,85,190.79,24,-2.00,30.00,-996.00
2024-05-17 17:24:20.017369,0,0,0,0,0,0,62,64,141,140,85,190.85,24,2.00,20.00,-994.00
2024-05-17 17:24:20.043967,0,0,0,0,0,0,62,64,141,140,85,190.83,24,7.00,14.00,-997.00
2024-05-17 17:24:20.223210,0,0,0,0,0,0,62,64,142,140,85,190.93,24,-4.00,32.00,-991.00
2024-05-17 17:24:20.249021,0,0,0,0,0,0,62,64,142,140,85,190.91,24,5.00,15.00,-988.00
2024-05-17 17:24:20.349434,0,0,0,0,0,0,62,65,142,140,85,190.92,24,6.00,15.00,-984.00
2024-05-17 17:24:20.453223,0,-1,0,0,0,0,62,65,142,140,85,191.01,24,0.00,24.00,-989.00
2024-05-17 17:24:20.554558,0,-1,0,0,0,0,62,65,142,140,85,190.92,24,3.00,26.00,-1010.00
2024-05-17 17:24:20.733570,0,-1,0,0,0,0,62,65,143,140,85,190.89,24,13.00,19.00,-980.00
2024-05-17 17:24:20.757256,6,-1,0,0,0,0,62,65,144,140,85,190.86,25,-1.00,9.00,-997.00
2024-05-17 17:24:20.938368,8,-1,0,-1,0,0,62,65,144,140,85,190.93,25,10.00,32.00,-1016.00
2024-05-17 17:24:20.961219,8,-1,0,-3,0,0,62,65,144,140,85,190.85,25,32.00,7.00,-1014.00
2024-05-17 17:24:21.063165,8,0,0,-4,0,0,62,65,144,140,85,190.92,25,40.00,7.00,-997.00
2024-05-17 17:24:21.245790,7,0,0,-5,0,0,62,65,143,140,84,190.86,25,45.00,30.00,-1029.00
2024-05-17 17:24:21.267271,6,0,0,-6,0,0,62,65,143,140,84,190.90,25,34.00,33.00,-1008.00
2024-05-17 17:24:21.452308,5,0,0,-7,0,0,63,65,142,140,84,190.85,25,64.00,13.00,-993.00
2024-05-17 17:24:21.471137,5,-1,0,-7,0,0,63,65,143,140,84,190.90,25,56.00,6.00,-999.00
2024-05-17 17:24:21.573799,2,-1,0,-7,0,0,63,65,143,150,84,190.84,25,69.00,17.00,-983.00
2024-05-17 17:24:21.757543,0,-1,0,-7,0,0,63,65,143,150,84,190.85,25,47.00,22.00,-961.00
2024-05-17 17:24:21.777507,-3,-1,0,-6,0,0,63,65,143,150,84,190.87,26,42.00,33.00,-988.00
2024-05-17 17:24:21.962373,-4,0,0,-5,0,0,63,65,142,150,84,190.83,26,49.00,9.00,-986.00
2024-05-17 17:24:21.981518,-3,0,0,-4,0,0,63,65,143,150,84,190.88,26,16.00,41.00,-1001.00
2024-05-17 17:24:22.082994,-2,0,0,-3,0,0,63,65,143,150,84,190.85,26,37.00,7.00,-999.00
2024-05-17 17:24:22.271066,-1,0,0,-3,0,0,63,65,142,150,84,190.91,26,28.00,10.00,-963.00
2024-05-17 17:24:22.287058,0,-1,0,-3,0,0,63,65,141,150,84,190.97,26,45.00,0.00,-1006.00
2024-05-17 17:24:22.474375,0,0,0,-2,0,0,63,65,141,140,84,190.95,26,21.00,12.00,-1001.00
2024-05-17 17:24:22.491721,-1,0,0,-2,0,0,63,65,142,140,84,190.92,26,35.00,22.00,-1010.00
2024-05-17 17:24:22.593156,-2,0,0,-2,0,0,63,65,142,140,84,190.97,26,-6.00,36.00,-997.00
2024-05-17 17:24:22.781548,-4,0,0,-1,0,0,63,65,142,140,84,190.88,27,20.00,15.00,-1027.00
2024-05-17 17:24:22.797579,-3,0,0,0,0,0,63,65,141,140,84,190.82,27,23.00,-2.00,-973.00
2024-05-17 17:24:22.986283,-1,0,0,0,0,0,63,65,141,140,84,190.87,27,-5.00,19.00,-1010.00
2024-05-17 17:24:23.001160,0,1,0,0,0,0,63,65,140,140,84,190.92,27,6.00,4.00,-1020.00
2024-05-17 17:24:23.052344,0,3,0,0,0,0,63,65,141,140,84,190.90,27,-1.00,19.00,-991.00
2024-05-17 17:24:23.192585,0,3,0,0,1,0,63,65,140,140,84,190.84,27,-2.00,13.00,-1000.00
2024-05-17 17:24:23.257112,0,1,0,0,1,0,63,65,140,140,84,190.90,27,16.00,13.00,-985.00
2024-05-17 17:24:23.397074,0,-5,0,0,1,0,63,65,140,140,84,190.93,27,4.00,5.00,-997.00
2024-05-17 17:24:23.460150,0,-3,0,0,0,0,63,65,140,140,84,190.84,27,2.00,7.00,-1023.00
2024-05-17 17:24:23.600863,0,-2,0,0,0,0,63,65,140,140,84,190.87,27,0.00,33.00,-1015.00
2024-05-17 17:24:23.664229,0,-1,0,0,0,0,63,65,139,140,84,190.94,28,4.00,27.00,-1010.00
2024-05-17 17:24:23.766405,0,-1,0,0,0,0,63,65,139,140,84,190.88,28,21.00,9.00,-989.00
2024-05-17 17:24:23.911254,0,0,0,0,0,0,63,65,139,140,84,190.88,28,11.00,4.00,-980.00
2024-05-17 17:24:23.970361,0,0,0,0,0,0,63,65,139,140,84,190.85,28,2.00,26.00,-988.00
2024-05-17 17:24:24.073097,0,0,0,0,0,0,63,65,139,140,84,190.85,28,5.00,41.00,-1010.00
2024-05-17 17:24:24.217494,0,-1,0,0,0,0,63,65,138,140,84,190.77,28,18.00,5.00,-983.00
2024-05-17 17:24:24.276057,0,-1,0,0,0,0,63,65,138,140,84,190.90,28,1.00,32.00,-992.00
2024-05-17 17:24:24.420790,0,-1,0,0,0,0,63,65,137,140,84,190.90,28,3.00,35.00,-998.00
2024-05-17 17:24:24.480016,0,-1,0,0,0,0,63,65,137,140,84,190.92,28,7.00,38.00,-990.00
2024-05-17 17:24:24.628527,0,-1,0,0,0,0,63,65,137,140,84,190.86,28,14.00,18.00,-1008.00
2024-05-17 17:24:24.684045,0,0,0,0,0,0,63,65,137,140,84,190.91,29,-4.00,35.00,-1006.00
2024-05-17 17:24:24.830274,0,0,0,0,0,0,63,65,136,140,84,190.81,29,-12.00,19.00,-985.00
2024-05-17 17:24:24.888879,0,0,0,0,0,0,63,65,136,140,84,190.89,29,-4.00,30.00,-999.00
2024-05-17 17:24:25.043139,0,0,0,0,0,0,63,65,136,140,84,190.90,29,0.00,44.00,-1003.00
2024-05-17 17:24:25.092319,0,-1,0,0,0,0,63,65,136,140,84,190.90,29,0.00,10.00,-987.00
2024-05-17 17:24:25.239563,0,-1,0,0,0,0,63,65,136,140,83,190.90,29,-10.00,35.00,-1005.00
2024-05-17 17:24:25.295854,0,-1,0,0,0,0,63,65,137,140,83,190.89,29,11.00,42.00,-1024.00
2024-05-17 17:24:25.398067,0,-1,0,0,0,0,63,65,137,140,83,190.89,29,1.00,55.00,-960.00
2024-05-17 17:24:25.546368,0,-8,0,0,0,0,63,65,139,140,83,190.84,29,-4.00,5.00,-1032.00
2024-05-17 17:24:25.601932,0,-8,0,0,-1,0,63,65,139,140,83,190.86,29,6.00,43.00,-1022.00
2024-05-17 17:24:25.751134,0,-8,0,0,-2,0,63,65,140,140,83,190.85,30,3.00,30.00,-1015.00
2024-05-17 17:24:25.805916,0,-5,0,0,-3,0,63,65,139,140,83,190.86,30,13.00,40.00,-1009.00
2024-05-17 17:24:25.955953,0,-1,0,0,-4,0,63,65,139,140,83,190.94,30,2.00,44.00,-975.00
2024-05-17 17:24:26.010557,0,0,0,0,-3,0,63,65,139,140,83,190.86,30,-13.00,55.00,-977.00
2024-05-17 17:24:26.112756,0,0,0,0,-3,0,63,65,139,150,83,190.88,30,-2.00,24.00,-971.00
2024-05-17 17:24:26.263119,0,0,0,0,-2,0,63,65,140,150,83,190.89,30,-14.00,53.00,-978.00
2024-05-17 17:24:26.319622,0,-1,0,0,-2,0,63,65,139,140,83,190.86,30,1.00,42.00,-991.00
2024-05-17 17:24:26.419682,0,-1,0,0,-2,0,64,66,139,140,83,190.87,30,-17.00,36.00,-998.00
2024-05-17 17:24:26.520079,0,-1,0,0,-2,0,64,66,139,140,83,190.86,30,3.00,30.00,-1005.00
2024-05-17 17:24:26.621852,0,-1,0,0,-2,0,64,66,139,140,83,190.85,30,-8.00,32.00,-1000.00
2024-05-17 17:24:26.775110,0,-1,0,0,-2,0,64,66,139,140,83,190.85,31,-12.00,32.00,-992.00
2024-05-17 17:24:26.826564,0,-1,0,0,-2,0,64,66,139,140,83,190.91,31,32.00,36.00,-1034.00
2024-05-17 17:24:26.979882,0,-1,0,0,-2,0,64,66,139,140,83,190.85,31,11.00,36.00,-1019.00
2024-05-17 17:24:27.029978,0,0,0,0,-2,0,64,66,139,140,83,190.91,31,16.00,20.00,-984.00
2024-05-17 17:24:27.081918,0,2,0,0,-2,0,64,66,140,140,83,190.89,31,23.00,22.00,-1014.00
2024-05-17 17:24:27.182825,0,3,0,0,-1,0,64,66,140,140,83,190.91,31,10.00,26.00,-982.00
2024-05-17 17:24:27.289918,0,1,0,0,0,0,64,66,140,140,83,190.91,31,-3.00,21.00,-993.00
2024-05-17 17:24:27.391540,0,0,0,0,0,0,63,66,140,140,83,190.89,31,6.00,15.00,-1001.00
2024-05-17 17:24:27.488915,0,0,0,0,0,0,63,66,140,140,83,190.90,31,0.00,14.00,-1017.00
2024-05-17 17:24:27.595064,0,0,0,0,0,0,63,66,141,140,83,190.91,31,30.00,0.00,-996.00
2024-05-17 17:24:27.693501,0,0,0,0,0,0,63,66,141,140,83,190.87,32,-3.00,19.00,-994.00
2024-05-17 17:24:27.799464,0,0,0,0,0,0,63,66,141,140,83,190.89,32,-3.00,13.00,-981.00
2024-05-17 17:24:27.897601,0,0,0,0,0,0,63,66,141,140,83,190.95,32,9.00,13.00,-1000.00
2024-05-17 17:24:28.000583,0,0,0,0,0,0,63,66,141,140,83,190.85,32,-3.00,21.00,-995.00
2024-05-17 17:24:28.101543,0,0,0,0,0,0,63,66,142,140,83,190.93,32,17.00,18.00,-1006.00
2024-05-17 17:24:28.204363,0,0,0,0,0,0,63,66,142,140,83,190.96,32,24.00,7.00,-1003.00
2024-05-17 17:24:28.309157,0,0,0,0,0,0,63,66,142,140,83,190.94,32,-11.00,31.00,-975.00
2024-05-17 17:24:28.410248,0,0,0,0,0,0,64,65,142,150,83,190.85,32,17.00,2.00,-986.00
2024-05-17 17:24:28.514068,0,0,0,0,0,0,64,65,142,150,83,190.94,32,2.00,17.00,-976.00
2024-05-17 17:24:28.611237,0,0,0,0,0,0,64,65,143,150,83,190.95,32,0.00,18.00,-995.00
2024-05-17 17:24:28.721250,0,0,0,0,0,0,64,65,143,150,83,190.91,33,15.00,11.00,-1007.00
2024-05-17 17:24:28.814823,0,0,0,0,0,0,64,65,142,150,83,190.93,33,4.00,7.00,-985.00
2024-05-17 17:24:28.925617,0,0,0,0,0,0,64,65,142,150,83,190.87,33,-1.00,22.00,-1003.00
2024-05-17 17:24:29.019725,0,0,0,0,0,0,64,65,142,140,83,190.89,33,7.00,14.00,-1000.00
2024-05-17 17:24:29.120730,0,0,0,0,0,0,64,65,142,140,82,190.88,33,8.00,18.00,-1012.00
2024-05-17 17:24:29.233557,0,0,0,0,0,0,64,65,142,140,82,190.90,33,20.00,-1.00,-1006.00
2024-05-17 17:24:29.324763,1,0,0,0,0,0,64,65,142,140,82,190.90,33,30.00,-10.00,-983.00
2024-05-17 17:24:29.438183,0,0,0,0,0,0,63,66,142,140,82,190.85,33,15.00,7.00,-1000.00
2024-05-17 17:24:29.528835,0,5,0,0,0,0,63,66,140,140,82,190.91,33,28.00,16.00,-996.00
2024-05-17 17:24:29.647221,0,7,0,0,1,0,63,66,142,140,82,190.86,33,17.00,1.00,-1002.00
2024-05-17 17:24:29.732728,0,5,0,0,2,0,63,66,140,140,82,190.81,34,8.00,8.00,-1005.00
2024-05-17 17:24:29.834767,0,3,0,0,3,0,63,66,142,140,82,190.84,34,-14.00,18.00,-1011.00
2024-05-17 17:24:29.937144,0,0,0,0,3,0,63,66,140,140,82,190.85,34,0.00,1.00,-984.00
2024-05-17 17:24:30.039777,0,-1,0,0,3,0,63,66,140,140,82,190.88,34,16.00,-15.00,-1014.00
2024-05-17 17:24:30.141346,0,-1,0,0,3,0,63,66,140,140,82,190.91,34,10.00,-3.00,-1012.00
2024-05-17 17:24:30.256732,0,-1,0,0,3,0,63,66,141,140,82,190.93,34,-3.00,-8.00,-994.00
2024-05-17 17:24:30.347391,0,0,0,0,2,0,63,66,140,140,82,190.85,34,4.00,3.00,-1015.00
2024-05-17 17:24:30.448641,0,0,0,0,2,0,64,65,140,140,82,190.85,34,0.00,13.00,-1007.00
2024-05-17 17:24:30.548675,0,0,0,0,2,0,64,65,140,140,82,190.83,34,-13.00,-3.00,-1026.00
2024-05-17 17:24:30.666333,0,0,0,0,2,0,64,65,139,140,82,190.87,34,-24.00,20.00,-994.00
2024-05-17 17:24:30.757513,0,0,0,0,2,0,64,65,140,140,82,190.83,35,6.00,-6.00,-1005.00
2024-05-17 17:24:30.803715,0,0,0,0,2,0,64,65,139,140,82,190.94,35,7.00,3.00,-997.00
2024-05-17 17:24:30.976862,0,0,0,0,2,0,64,65,140,140,82,190.87,35,-14.00,11.00,-1012.00
2024-05-17 17:24:31.007723,0,0,0,0,2,0,64,65,140,140,82,190.83,35,-10.00,-5.00,-999.00
2024-05-17 17:24:31.109667,0,0,0,0,2,0,64,65,140,140,82,190.88,35,9.00,-21.00,-988.00
2024-05-17 17:24:31.280992,0,-2,0,0,2,0,64,65,140,140,82,190.92,35,-16.00,9.00,-984.00
2024-05-17 17:24:31.316347,0,-5,0,0,1,0,64,65,141,140,82,190.89,35,-1.00,-4.00,-1015.00
2024-05-17 17:24:31.418536,0,-3,0,0,1,0,65,66,141,140,82,190.95,35,-6.00,8.00,-1007.00
2024-05-17 17:24:31.518152,0,-2,0,0,0,0,65,66,141,140,82,190.91,35,-23.00,34.00,-995.00
2024-05-17 17:24:31.693295,0,-1,0,0,0,0,65,66,141,140,82,190.89,35,-8.00,25.00,-1010.00
2024-05-17 17:24:31.721856,0,-1,0,0,0,0,65,66,142,140,82,190.86,36,-5.00,21.00,-1028.00
2024-05-17 17:24:31.895086,0,-1,0,0,0,0,65,66,142,140,82,190.80,36,15.00,12.00,-1004.00
2024-05-17 17:24:31.925699,0,-1,0,0,0,0,65,66,142,140,82,190.86,36,19.00,5.00,-997.00
2024-05-17 17:24:32.032668,0,-1,0,0,0,0,65,66,143,140,82,190.93,36,22.00,-4.00,-982.00
2024-05-17 17:24:32.129634,0,-1,0,0,0,0,65,66,143,140,82,190.89,36,4.00,39.00,-996.00
2024-05-17 17:24:32.304790,0,-1,0,0,0,0,65,66,143,150,82,190.95,36,8.00,20.00,-1002.00
2024-05-17 17:24:32.333649,0,-1,0,0,0,0,65,66,144,150,82,190.93,36,17.00,49.00,-1001.00
2024-05-17 17:24:32.509890,1,-1,0,0,0,0,63,66,144,150,82,190.94,36,24.00,15.00,-998.00
2024-05-17 17:24:32.537556,1,-1,0,0,0,0,63,66,144,150,82,190.85,36,-1.00,33.00,-985.00
2024-05-17 17:24:32.716100,1,-1,0,0,0,0,63,66,144,150,82,190.84,36,0.00,38.00,-989.00
2024-05-17 17:24:32.742058,1,-1,0,0,0,0,63,66,144,150,82,190.84,37,9.00,34.00,-1006.00
2024-05-17 17:24:32.919866,1,-1,0,0,0,0,63,66,144,150,82,190.88,37,4.00,31.00,-990.00
2024-05-17 17:24:32.945801,1,-1,0,0,0,0,63,66,144,150,82,190.90,37,5.00,26.00,-986.00
2024-05-17 17:24:33.126175,1,-1,0,0,0,0,63,66,143,150,82,190.87,37,2.00,41.00,-1005.00
2024-05-17 17:24:33.149613,0,-1,0,0,0,0,63,66,143,150,82,190.91,37,25.00,17.00,-1000.00
2024-05-17 17:24:33.251897,0,-1,0,0,0,0,63,66,143,150,82,190.90,37,5.00,28.00,-987.00
2024-05-17 17:24:33.422677,0,-1,0,0,0,0,63,66,143,150,82,190.90,37,-4.00,36.00,-999.00
2024-05-17 17:24:33.455518,0,-1,0,0,0,0,63,66,142,150,82,190.82,37,3.00,24.00,-991.00
2024-05-17 17:24:33.635761,0,-1,0,0,0,0,63,66,142,150,82,190.85,37,55.00,-3.00,-1051.00
2024-05-17 17:24:33.660122,0,-1,3,0,0,0,63,66,142,150,82,190.87,37,11.00,29.00,-1012.00
2024-05-17 17:24:33.840635,1,-1,8,0,0,0,63,66,141,150,82,190.88,38,27.00,8.00,-976.00
2024-05-17 17:24:33.867677,1,-1,14,0,0,0,63,66,142,150,82,190.86,38,32.00,15.00,-989.00
2024-05-17 17:24:33.965576,1,-1,19,0,0,0,63,66,141,150,82,190.84,38,9.00,11.00,-1003.00
2024-05-17 17:24:34.149007,1,0,25,0,0,0,63,66,141,140,82,190.82,38,0.00,28.00,-993.00
2024-05-17 17:24:34.169539,0,0,31,0,0,0,63,66,140,140,81,190.77,38,11.00,23.00,-1003.00
2024-05-17 17:24:34.355347,0,-1,37,0,0,0,63,66,140,140,81,190.79,38,11.00,17.00,-994.00
2024-05-17 17:24:34.355993,0,-1,42,0,0,0,63,66,140,140,81,190.81,38,-1.00,37.00,-1023.00
2024-05-17 17:24:34.558582,0,0,48,0,0,0,65,66,140,140,81,190.74,38,22.00,18.00,-1001.00
2024-05-17 17:24:34.577515,0,0,54,0,0,0,65,66,139,140,81,190.87,38,15.00,-18.00,-946.00
2024-05-17 17:24:34.762481,0,0,60,0,0,0,65,66,139,140,81,190.92,38,15.00,23.00,-1000.00
2024-05-17 17:24:34.783654,0,0,66,0,0,0,65,66,139,140,81,190.91,39,7.00,25.00,-1016.00
2024-05-17 17:24:34.883450,0,0,72,0,0,0,65,66,139,140,81,190.85,39,9.00,17.00,-992.00
2024-05-17 17:24:34.934945,0,0,78,0,0,0,65,66,138,140,81,190.82,39,1.00,9.00,-994.00
2024-05-17 17:24:35.069714,0,0,84,0,0,0,65,66,138,140,81,190.79,39,9.00,9.00,-1007.00
2024-05-17 17:24:35.138431,0,0,90,0,0,0,65,66,138,140,81,190.83,39,5.00,27.00,-1026.00
2024-05-17 17:24:35.274452,0,0,95,0,0,0,65,66,138,140,81,190.75,39,8.00,14.00,-1030.00
2024-05-17 17:24:35.342436,0,0,101,0,0,0,65,66,138,140,81,190.80,39,11.00,-2.00,-996.00
2024-05-17 17:24:35.479877,0,0,107,0,0,0,64,67,139,140,81,190.78,39,8.00,14.00,-1007.00
2024-05-17 17:24:35.546442,0,0,112,0,0,0,64,67,138,140,81,190.80,39,1.00,5.00,-1003.00
2024-05-17 17:24:35.683811,0,0,118,0,0,0,64,67,139,140,81,190.78,39,30.00,-9.00,-997.00
2024-05-17 17:24:35.750421,0,0,124,0,0,0,64,67,139,140,81,190.80,40,1.00,12.00,-1000.00
2024-05-17 17:24:35.889013,0,0,129,0,0,0,64,67,139,140,81,190.75,40,1.00,-11.00,-985.00
2024-05-17 17:24:35.954390,0,1,135,0,0,0,64,67,139,140,81,190.78,40,-23.00,10.00,-966.00
2024-05-17 17:24:36.093494,0,1,140,0,0,0,64,67,138,140,81,190.72,40,13.00,3.00,-1006.00
2024-05-17 17:24:36.162750,0,1,146,0,0,0,64,67,138,140,81,190.83,40,21.00,-1.00,-1033.00
2024-05-17 17:24:36.262103,0,0,151,0,0,0,64,67,138,140,81,190.84,40,-5.00,12.00,-1010.00
2024-05-17 17:24:36.362558,0,0,157,0,0,0,64,67,138,140,81,190.81,40,17.00,0.00,-1043.00
2024-05-17 17:24:36.503320,0,0,162,0,0,0,65,67,138,140,81,190.80,40,12.00,5.00,-1000.00
2024-05-17 17:24:36.566440,0,0,168,0,0,0,65,67,137,140,81,190.81,40,7.00,14.00,-1042.00
2024-05-17 17:24:36.707844,0,0,173,0,0,0,65,67,137,140,81,190.84,40,17.00,2.00,-1058.00
2024-05-17 17:24:36.770422,0,0,179,0,0,0,65,67,137,140,81,190.79,41,-15.00,0.00,-994.00
2024-05-17 17:24:36.912711,0,0,-174,0,0,0,65,67,136,140,81,190.75,41,-32.00,2.00,-979.00
2024-05-17 17:24:36.974507,0,0,-168,0,0,0,65,67,136,140,81,190.71,41,-22.00,8.00,-1041.00
2024-05-17 17:24:37.117457,-1,0,-163,0,0,0,65,67,136,140,81,190.75,41,-6.00,1.00,-1014.00
2024-05-17 17:24:37.178331,-1,0,-157,0,0,0,65,67,136,140,81,190.75,41,10.00,0.00,-1019.00
2024-05-17 17:24:37.322567,-1,0,-151,0,0,0,65,67,136,140,81,190.74,41,-10.00,-20.00,-984.00
2024-05-17 17:24:37.382340,-1,0,-145,0,0,0,65,67,136,140,81,190.73,41,-2.00,-3.00,-1013.00
2024-05-17 17:24:37.484323,-1,1,-133,0,0,0,65,67,136,140,81,190.71,41,-9.00,0.00,-1009.00
2024-05-17 17:24:37.629532,-1,0,-127,0,0,0,65,67,136,140,81,190.75,41,-35.00,2.00,-989.00
2024-05-17 17:24:37.688328,-1,0,-121,0,0,0,65,67,137,140,81,190.74,42,-4.00,-2.00,-1009.00
2024-05-17 17:24:37.834273,-1,0,-115,0,0,0,65,67,137,140,81,190.77,42,-25.00,-1.00,-1008.00
2024-05-17 17:24:37.892430,-1,0,-109,0,0,0,65,67,137,140,81,190.64,42,-23.00,10.00,-1002.00
2024-05-17 17:24:38.039206,-1,0,-103,0,0,0,65,67,138,140,81,190.74,42,-10.00,9.00,-1011.00
2024-05-17 17:24:38.103367,-1,0,-97,0,0,0,65,67,138,140,81,190.66,42,-20.00,3.00,-998.00
2024-05-17 17:24:38.200159,-1,0,-92,0,0,0,65,67,139,140,81,190.76,42,-26.00,8.00,-963.00
2024-05-17 17:24:38.346244,-1,0,-86,0,0,0,65,67,140,140,81,190.72,42,-25.00,13.00,-986.00
2024-05-17 17:24:38.352260,-1,0,-80,0,0,0,65,67,140,140,81,190.75,42,-31.00,13.00,-957.00
2024-05-17 17:24:38.507024,-1,0,-74,0,0,0,65,67,141,140,81,190.75,42,-16.00,4.00,-982.00
2024-05-17 17:24:38.556398,-1,0,-69,0,0,0,65,67,141,140,81,190.74,42,3.00,-11.00,-921.00
2024-05-17 17:24:38.756605,-1,0,-63,0,0,0,65,67,141,140,81,190.79,43,-25.00,14.00,-993.00
2024-05-17 17:24:38.760626,-1,0,-57,0,0,0,65,67,142,150,81,190.70,43,-4.00,15.00,-1005.00
2024-05-17 17:24:38.960649,-1,0,-51,0,0,0,65,67,141,150,81,190.76,43,-13.00,-8.00,-957.00
2024-05-17 17:24:38.966134,-1,0,-45,0,0,0,65,67,142,150,81,190.74,43,-26.00,7.00,-981.00
2024-05-17 17:24:39.068239,-1,0,-39,0,0,0,65,67,143,150,81,190.80,43,-20.00,20.00,-984.00
2024-05-17 17:24:39.168429,-1,0,-33,0,0,0,65,67,143,150,81,190.74,43,5.00,6.00,-1002.00
2024-05-17 17:24:39.273683,-1,0,-27,0,0,0,65,67,143,150,81,190.80,43,-16.00,28.00,-1005.00
2024-05-17 17:24:39.372360,-1,-1,-21,0,0,0,65,67,143,150,81,190.67,43,-7.00,6.00,-977.00
2024-05-17 17:24:39.474239,0,0,-16,0,0,0,65,67,144,150,81,190.79,43,-39.00,12.00,-978.00
2024-05-17 17:24:39.677427,-1,0,-12,0,0,0,65,67,144,150,81,190.76,43,-11.00,23.00,-1008.00
2024-05-17 17:24:39.678204,-1,-1,-9,0,0,0,65,67,144,150,81,190.79,44,-11.00,28.00,-1001.00
2024-05-17 17:24:39.780346,0,0,-7,0,0,0,65,67,145,150,81,190.86,44,-18.00,26.00,-1002.00
2024-05-17 17:24:39.882254,0,0,-5,0,0,0,65,67,144,150,81,190.84,44,-22.00,33.00,-988.00
2024-05-17 17:24:39.984656,0,-1,-4,0,0,0,65,67,143,150,81,190.83,44,28.00,11.00,-1028.00
2024-05-17 17:24:40.087376,0,-1,-3,0,0,0,65,67,143,150,81,190.76,44,6.00,32.00,-1000.00
2024-05-17 17:24:40.190041,0,-1,-2,0,0,0,65,67,142,150,81,190.87,44,-8.00,18.00,-969.00
2024-05-17 17:24:40.292073,0,-1,-1,0,0,0,65,67,142,150,81,190.84,44,-4.00,40.00,-1030.00
2024-05-17 17:24:40.392708,0,-1,-1,0,0,0,65,67,141,150,81,190.81,44,0.00,18.00,-966.00
2024-05-17 17:24:40.496750,0,-1,-1,0,0,0,66,67,140,140,81,190.80,44,-19.00,48.00,-1013.00
2024-05-17 17:24:40.596610,0,-1,-1,0,0,0,66,67,140,140,81,190.85,44,14.00,47.00,-1072.00
2024-05-17 17:24:40.698386,0,-1,-1,0,0,0,66,67,139,140,81,190.78,45,-3.00,37.00,-1006.00
2024-05-17 17:24:40.803927,0,-1,-1,0,0,0,66,67,139,140,81,190.78,45,-19.00,56.00,-1029.00
2024-05-17 17:24:40.903258,0,-1,-1,0,0,0,66,67,139,140,81,190.81,45,11.00,28.00,-1006.00
2024-05-17 17:24:41.008791,0,-1,-1,0,0,0,66,67,139,140,81,190.88,45,-25.00,42.00,-999.00
2024-05-17 17:24:41.108728,0,-1,-1,0,0,0,66,67,139,140,81,190.79,45,-18.00,20.00,-1013.00
2024-05-17 17:24:41.208515,0,-1,-1,0,0,0,66,67,139,140,81,190.76,45,10.00,28.00,-1025.00
2024-05-17 17:24:41.321551,0,-1,-2,0,0,0,66,67,139,140,81,190.75,45,-15.00,26.00,-956.00
2024-05-17 17:24:41.414017,0,-1,-2,0,0,0,66,67,139,140,81,190.72,45,12.00,19.00,-1012.00
2024-05-17 17:24:41.516466,0,-1,-2,0,0,0,65,67,139,140,81,190.75,45,7.00,28.00,-988.00
2024-05-17 17:24:41.618590,0,-1,-2,0,0,0,65,67,139,140,81,190.83,45,-11.00,38.00,-964.00
2024-05-17 17:24:41.718159,0,-1,-2,0,0,0,65,67,138,140,81,190.79,46,15.00,16.00,-1000.00
2024-05-17 17:24:41.830027,0,-1,-2,0,0,0,65,67,138,140,81,190.72,46,10.00,34.00,-983.00
2024-05-17 17:24:41.922197,0,-2,-1,0,0,0,65,67,138,140,81,190.82,46,-6.00,30.00,-982.00
2024-05-17 17:24:42.032767,0,-2,-1,0,0,0,65,67,137,140,81,190.82,46,15.00,20.00,-1006.00
2024-05-17 17:24:42.126213,0,-1,-1,0,0,0,65,67,137,140,81,190.79,46,44.00,5.00,-1020.00
2024-05-17 17:24:42.228290,0,-1,-1,0,0,0,65,67,136,140,80,190.73,46,11.00,27.00,-1014.00
2024-05-17 17:24:42.342725,0,-1,-2,0,0,0,65,67,136,140,80,190.75,46,-14.00,49.00,-1015.00
2024-05-17 17:24:42.381095,0,-1,-7,0,0,0,65,67,135,140,80,190.72,46,12.00,15.00,-999.00
2024-05-17 17:24:42.544642,0,-1,-12,0,0,0,65,67,135,140,80,190.70,46,-9.00,36.00,-1022.00
2024-05-17 17:24:42.585089,0,-1,-18,0,0,0,65,67,134,140,80,190.69,46,-1.00,19.00,-1004.00
2024-05-17 17:24:42.749423,0,-1,-24,0,0,0,65,67,135,140,80,190.76,47,13.00,21.00,-1026.00
2024-05-17 17:24:42.793033,0,-1,-30,0,0,0,65,67,135,140,80,190.76,47,-9.00,32.00,-1014.00
2024-05-17 17:24:42.892376,0,-1,-36,0,0,0,65,67,134,140,80,190.79,47,-15.00,25.00,-1006.00
2024-05-17 17:24:43.059019,0,-1,-41,0,0,0,65,67,134,140,80,190.73,47,-3.00,8.00,-1009.00
2024-05-17 17:24:43.096651,0,-1,-47,0,0,0,65,67,134,140,80,190.75,47,-7.00,19.00,-1000.00
2024-05-17 17:24:43.197122,0,-1,-53,0,0,0,65,67,134,140,80,190.65,47,-8.00,29.00,-992.00
2024-05-17 17:24:43.363760,0,-1,-59,0,0,0,65,67,134,140,80,190.77,47,-29.00,41.00,-1020.00
2024-05-17 17:24:43.401180,0,0,-65,0,0,0,65,67,134,140,80,190.69,47,9.00,0.00,-1010.00
2024-05-17 17:24:43.568602,0,0,-70,0,0,0,65,67,135,140,80,190.69,47,-12.00,20.00,-1018.00
2024-05-17 17:24:43.605039,0,0,-76,0,0,0,65,67,135,140,80,190.69,47,-17.00,22.00,-1023.00
2024-05-17 17:24:43.773655,0,0,-82,0,0,0,65,67,134,140,80,190.71,48,23.00,-4.00,-1006.00
2024-05-17 17:24:43.809373,0,0,-88,0,0,0,65,67,134,140,80,190.76,48,-28.00,28.00,-989.00
2024-05-17 17:24:43.978742,0,0,-93,0,0,0,65,67,135,140,80,190.75,48,6.00,14.00,-1001.00
2024-05-17 17:24:44.013157,0,-1,-99,0,0,0,65,67,135,140,80,190.76,48,-2.00,-11.00,-971.00
2024-05-17 17:24:44.183201,0,0,-105,0,0,0,65,67,136,140,80,190.77,48,1.00,15.00,-1019.00
2024-05-17 17:24:44.223568,0,0,-111,0,0,0,65,67,136,140,80,190.77,48,25.00,17.00,-1012.00
2024-05-17 17:24:44.321827,0,0,-117,0,0,0,65,67,136,140,80,190.70,48,0.00,27.00,-1014.00
2024-05-17 17:24:44.423429,0,0,-123,0,0,0,65,67,136,140,80,190.70,48,-10.00,4.00,-1001.00
2024-05-17 17:24:44.525526,0,0,-129,0,0,0,65,68,136,140,80,190.76,48,-13.00,34.00,-1015.00
2024-05-17 17:24:44.625184,0,0,-134,0,0,0,65,68,137,140,80,190.77,48,-5.00,24.00,-1014.00
2024-05-17 17:24:44.797373,0,-1,-140,0,0,0,65,68,137,140,80,190.73,49,-21.00,35.00,-1002.00
2024-05-17 17:24:44.829119,-1,0,-146,0,0,0,65,68,138,140,80,190.68,49,3.00,3.00,-984.00
2024-05-17 17:24:45.002270,-1,0,-152,0,0,0,65,68,137,140,80,190.71,49,-35.00,21.00,-987.00
2024-05-17 17:24:45.032990,0,0,-158,0,0,0,65,68,138,140,80,190.71,49,1.00,-6.00,-970.00
2024-05-17 17:24:45.135583,0,0,-165,0,0,0,65,68,138,140,80,190.72,49,3.00,0.00,-984.00
2024-05-17 17:24:45.309897,0,0,-171,0,0,0,65,68,138,140,80,190.73,49,-5.00,4.00,-991.00
2024-05-17 17:24:45.339486,0,0,-177,0,0,0,65,68,139,140,80,190.71,49,-8.00,-8.00,-987.00
2024-05-17 17:24:45.515157,0,0,176,0,0,0,65,68,139,140,80,190.73,49,-10.00,19.00,-998.00
2024-05-17 17:24:45.542930,0,0,170,0,0,0,66,67,138,140,80,190.76,49,13.00,-27.00,-974.00
2024-05-17 17:24:45.645410,0,0,164,0,0,0,66,67,139,140,80,190.81,49,-13.00,15.00,-986.00
2024-05-17 17:24:45.747574,0,0,158,0,0,0,66,67,139,140,80,190.68,50,3.00,-12.00,-1004.00
2024-05-17 17:24:45.923993,0,0,152,0,0,0,66,67,139,140,80,190.73,50,-16.00,24.00,-1008.00
2024-05-17 17:24:45.952051,0,0,146,0,0,0,66,67,139,140,80,190.70,50,-8.00,16.00,-1005.00
2024-05-17 17:24:46.054322,0,0,140,0,0,0,66,67,139,140,80,190.80,50,-1.00,2.00,-978.00
2024-05-17 17:24:46.156758,0,0,134,0,0,0,66,67,139,140,80,190.71,50,-1.00,4.00,-981.00
2024-05-17 17:24:46.257253,0,0,127,0,0,0,66,67,139,140,80,190.73,50,-3.00,0.00,-987.00
2024-05-17 17:24:46.361438,0,0,121,0,0,0,66,67,139,140,80,190.74,50,-22.00,17.00,-990.00
2024-05-17 17:24:46.461960,0,0,115,0,0,0,66,67,140,140,80,190.67,50,-2.00,-10.00,-976.00
2024-05-17 17:24:46.566496,0,0,109,0,0,0,66,68,139,140,80,190.73,50,32.00,26.00,-1055.00
2024-05-17 17:24:46.664943,0,0,102,0,0,0,66,68,139,140,80,190.75,50,-10.00,20.00,-993.00
2024-05-17 17:24:46.849465,0,0,96,0,0,0,66,68,140,140,80,190.75,51,11.00,3.00,-978.00
2024-05-17 17:24:46.850003,0,0,90,0,0,0,66,68,140,140,80,190.70,51,11.00,5.00,-990.00
2024-05-17 17:24:46.925889,0,0,84,0,0,0,66,68,140,140,80,190.78,51,21.00,-14.00,-991.00
2024-05-17 17:24:47.021839,0,0,78,0,0,0,66,68,140,140,80,190.72,51,-18.00,30.00,-1014.00
2024-05-17 17:24:47.154500,0,0,71,0,0,0,66,68,140,140,80,190.75,51,-11.00,21.00,-980.00
2024-05-17 17:24:47.225798,0,0,65,0,0,0,66,68,140,140,80,190.79,51,24.00,3.00,-999.00
2024-05-17 17:24:47.359429,0,0,59,0,0,0,66,68,140,140,80,190.77,51,4.00,13.00,-999.00
2024-05-17 17:24:47.430690,0,0,52,0,0,0,66,68,140,140,80,190.77,51,-15.00,39.00,-1011.00
2024-05-17 17:24:47.562199,0,0,46,0,0,0,66,68,140,140,80,190.73,51,-1.00,21.00,-996.00
2024-05-17 17:24:47.635638,0,0,40,0,0,0,66,68,141,140,80,190.73,51,-61.00,47.00,-975.00
2024-05-17 17:24:47.767530,0,0,33,0,0,0,66,68,141,140,80,190.76,52,7.00,9.00,-968.00
2024-05-17 17:24:47.838789,0,0,27,0,0,0,66,68,141,140,80,190.75,52,-3.00,21.00,-1004.00
2024-05-17 17:24:47.971731,0,0,21,0,0,0,66,68,141,140,80,190.74,52,37.00,-4.00,-1008.00
2024-05-17 17:24:48.042853,0,0,15,0,0,0,66,68,141,140,80,190.77,52,5.00,21.00,-991.00
2024-05-17 17:24:48.144810,0,0,11,0,0,0,66,68,141,140,80,190.71,52,-25.00,17.00,-958.00
2024-05-17 17:24:48.278996,0,0,7,0,0,0,66,68,141,140,80,190.68,52,-16.00,25.00,-1026.00
2024-05-17 17:24:48.348808,0,0,5,0,0,0,66,68,141,140,80,190.73,52,0.00,15.00,-981.00
2024-05-17 17:24:48.483674,0,0,3,0,0,0,66,68,141,140,80,190.72,52,-6.00,23.00,-1007.00
2024-05-17 17:24:48.552783,0,0,1,0,0,0,65,69,141,140,80,190.69,52,-30.00,34.00,-1013.00
2024-05-17 17:24:48.689047,0,0,0,0,0,0,65,69,141,140,80,190.73,52,-15.00,19.00,-997.00
2024-05-17 17:24:48.757135,0,0,0,0,0,0,65,69,140,140,80,190.70,53,-15.00,13.00,-973.00
2024-05-17 17:24:48.895261,-1,0,0,0,0,0,65,69,140,140,80,190.72,53,-13.00,7.00,-985.00
2024-05-17 17:24:48.961334,-1,0,0,0,0,0,65,69,139,140,80,190.64,53,9.00,10.00,-1011.00
2024-05-17 17:24:49.098510,0,0,0,0,0,0,65,69,139,140,80,190.64,53,1.00,12.00,-1003.00
2024-05-17 17:24:49.164811,0,0,0,0,0,0,65,69,139,140,80,190.69,53,-25.00,25.00,-993.00
2024-05-17 17:24:49.303560,0,0,0,0,0,0,65,69,139,140,80,190.70,53,-3.00,31.00,-1021.00
2024-05-17 17:24:49.369532,0,0,0,0,0,0,65,69,140,140,80,190.71,53,-1.00,8.00,-970.00
2024-05-17 17:24:49.470916,0,0,0,0,0,0,65,69,140,140,80,190.68,53,3.00,11.00,-980.00
2024-05-17 17:24:49.610265,0,-1,0,0,0,0,66,68,139,140,80,190.74,53,-10.00,27.00,-995.00
2024-05-17 17:24:49.674764,0,-1,0,0,0,0,66,68,139,140,80,190.70,53,-3.00,29.00,-1029.00
2024-05-17 17:24:49.917481,0,-1,0,0,0,0,66,68,139,140,80,190.76,54,-11.00,13.00,-986.00
2024-05-17 17:24:49.917661,0,-1,0,0,0,0,66,68,139,140,80,190.79,54,-18.00,24.00,-1002.00
2024-05-17 17:24:49.980899,0,-1,0,0,0,0,66,68,138,140,80,190.71,54,-18.00,31.00,-998.00
2024-05-17 17:24:50.125779,0,-1,0,0,0,0,66,68,138,140,80,190.70,54,-24.00,32.00,-1012.00
2024-05-17 17:24:50.184820,0,-1,0,0,0,0,66,68,138,140,80,190.73,54,-11.00,20.00,-1006.00
2024-05-17 17:24:50.327886,0,-1,0,0,0,0,66,68,138,140,80,190.73,54,-20.00,-3.00,-978.00
2024-05-17 17:24:50.389101,0,-1,0,0,0,0,66,68,138,140,80,190.67,54,7.00,5.00,-1008.00
2024-05-17 17:24:50.531829,0,-1,0,0,0,0,66,68,138,140,80,190.68,54,12.00,11.00,-1006.00
2024-05-17 17:24:50.593137,0,-1,0,0,0,0,66,68,137,140,80,190.72,54,-8.00,5.00,-1003.00
2024-05-17 17:24:50.644663,0,-1,0,0,0,0,66,68,137,140,80,190.74,54,-9.00,18.00,-1002.00
2024-05-17 17:24:50.746142,0,-1,0,0,0,0,66,68,136,140,80,190.76,55,-20.00,37.00,-986.00
2024-05-17 17:24:50.941428,0,-1,0,0,0,0,66,68,138,140,80,190.75,55,-20.00,34.00,-1659.00
2024-05-17 17:24:50.953381,0,0,0,0,0,-5,66,68,146,140,80,190.88,55,-11.00,94.00,-1580.00
2024-05-17 17:24:51.054684,0,-22,0,0,0,-11,66,68,298,150,80,190.98,55,-16.00,494.00,-1075.00
2024-05-17 17:24:51.153651,0,-127,0,0,-7,-9,66,68,170,160,80,191.00,55,-20.00,576.00,-997.00
2024-05-17 17:24:51.350992,1,111,0,0,-9,6,66,68,220,170,80,191.34,55,4.00,409.00,-1342.00
2024-05-17 17:24:51.357610,0,11,-2,0,-3,12,66,68,146,160,80,190.78,55,20.00,-145.00,-1492.00
2024-05-17 17:24:51.459594,0,0,-3,0,-2,9,66,68,137,150,80,190.72,55,-3.00,15.00,-1450.00
2024-05-17 17:24:51.658165,0,1,0,0,-1,2,66,67,133,130,80,190.64,55,7.00,10.00,-1188.00
2024-05-17 17:24:51.663921,0,0,0,0,-1,0,66,67,133,130,80,190.60,56,1.00,37.00,-1188.00
2024-05-17 17:24:51.862915,0,0,0,0,0,0,66,67,133,130,80,190.57,56,-6.00,21.00,-1076.00
2024-05-17 17:24:51.867650,1,1,0,0,0,-1,66,67,134,130,80,190.67,56,11.00,10.00,-1056.00
2024-05-17 17:24:52.069177,1,1,0,0,0,-1,66,67,136,140,80,190.64,56,17.00,25.00,-990.00
2024-05-17 17:24:52.073372,1,0,0,0,0,0,66,67,137,140,80,190.68,56,3.00,10.00,-962.00
2024-05-17 17:24:52.175845,1,0,0,0,0,0,66,67,138,140,80,190.73,56,9.00,26.00,-974.00
2024-05-17 17:24:52.275656,0,-1,0,0,0,0,66,67,139,140,80,190.69,56,7.00,41.00,-993.00
2024-05-17 17:24:52.377654,0,0,0,0,0,0,66,67,140,140,80,190.80,56,-12.00,34.00,-981.00
2024-05-17 17:24:52.479576,0,0,0,0,0,0,66,67,140,140,80,190.76,56,4.00,16.00,-958.00
2024-05-17 17:24:52.589788,1,0,0,0,0,0,66,68,140,140,80,190.71,56,8.00,31.00,-986.00
2024-05-17 17:24:52.687930,1,0,0,0,0,0,66,68,141,140,80,190.82,57,9.00,17.00,-981.00
2024-05-17 17:24:52.790693,1,0,0,0,0,0,66,68,140,140,80,190.69,57,6.00,36.00,-994.00
2024-05-17 17:24:52.887591,1,0,0,0,0,0,66,68,140,140,80,190.71,57,5.00,31.00,-1000.00
2024-05-17 17:24:52.989561,1,0,0,0,0,0,66,68,140,140,80,190.73,57,12.00,9.00,-1002.00
2024-05-17 17:24:53.092024,1,0,0,0,0,0,66,68,140,140,80,190.72,57,1.00,24.00,-992.00
2024-05-17 17:24:53.194601,1,0,0,0,0,0,66,68,140,140,79,190.74,57,-11.00,28.00,-990.00
2024-05-17 17:24:53.296788,1,0,0,0,0,0,66,68,140,140,79,190.69,57,-9.00,38.00,-1002.00
2024-05-17 17:24:53.398892,1,0,0,0,0,0,66,68,140,140,79,190.74,57,20.00,15.00,-997.00
2024-05-17 17:24:53.499665,1,0,0,0,0,1,66,68,140,140,79,190.68,57,14.00,34.00,-1002.00
2024-05-17 17:24:53.601560,1,0,0,0,0,0,66,68,140,130,79,190.66,57,28.00,15.00,-1030.00
2024-05-17 17:24:53.706754,1,0,0,0,0,0,66,68,140,130,79,190.70,58,7.00,28.00,-1039.00
2024-05-17 17:24:53.805547,1,0,0,0,0,0,66,68,141,130,79,190.69,58,18.00,11.00,-1016.00
2024-05-17 17:24:53.910950,1,0,0,0,0,0,66,68,142,140,79,190.70,58,8.00,12.00,-1007.00
2024-05-17 17:24:53.958910,1,0,0,0,0,0,66,68,143,140,79,190.72,58,29.00,4.00,-1002.00
2024-05-17 17:24:54.115811,0,0,0,0,0,0,66,68,144,140,79,190.73,58,35.00,8.00,-1006.00
2024-05-17 17:24:54.165875,0,0,0,0,0,0,66,68,144,140,79,190.73,58,0.00,27.00,-1010.00
2024-05-17 17:24:54.265358,0,0,0,0,0,0,66,68,146,140,79,190.73,58,6.00,24.00,-985.00
2024-05-17 17:24:54.423400,0,0,0,0,0,0,66,68,147,140,79,190.80,58,18.00,19.00,-975.00
2024-05-17 17:24:54.470409,0,0,0,0,0,0,66,68,147,140,79,190.85,58,-1.00,21.00,-993.00
2024-05-17 17:24:54.627770,0,0,0,0,0,0,66,69,148,140,79,190.80,58,-3.00,26.00,-975.00
2024-05-17 17:24:54.675459,0,0,0,0,0,0,66,69,148,140,79,190.73,59,14.00,28.00,-1012.00
2024-05-17 17:24:54.775538,0,0,0,0,0,0,66,69,149,140,79,190.79,59,5.00,8.00,-991.00
2024-05-17 17:24:54.936709,0,0,0,0,0,0,66,69,149,150,79,190.74,59,13.00,19.00,-986.00
2024-05-17 17:24:54.979615,0,0,0,0,0,0,66,69,149,150,79,190.83,59,11.00,11.00,-993.00
2024-05-17 17:24:55.144575,0,0,0,0,0,0,66,69,150,150,79,190.84,59,15.00,5.00,-984.00
2024-05-17 17:24:55.183682,0,0,0,0,0,0,66,69,150,150,78,190.82,59,5.00,30.00,-980.00
2024-05-17 17:24:55.345853,0,0,0,0,0,0,66,69,150,150,78,190.83,59,0.00,30.00,-971.00
2024-05-17 17:24:55.387404,0,0,0,0,0,0,66,69,149,150,78,190.78,59,3.00,28.00,-977.00
2024-05-17 17:24:55.489506,0,0,0,0,1,0,66,69,148,150,78,190.84,59,-11.00,21.00,-959.00
2024-05-17 17:24:55.651891,0,0,0,0,1,0,66,68,148,150,78,190.82,59,-14.00,37.00,-979.00
2024-05-17 17:24:55.693580,0,0,0,0,1,0,66,68,147,150,78,190.80,60,-11.00,25.00,-987.00
2024-05-17 17:24:55.856646,0,-1,0,0,1,0,66,68,146,150,78,190.79,60,-1.00,14.00,-991.00
2024-05-17 17:24:55.897545,0,-1,0,0,1,0,66,68,144,150,78,190.72,60,-5.00,38.00,-1009.00
2024-05-17 17:24:56.061531,0,-1,0,0,0,0,66,68,143,150,78,190.79,60,19.00,1.00,-1010.00
2024-05-17 17:24:56.101432,0,-1,0,0,0,0,66,68,142,150,78,190.75,60,9.00,9.00,-1002.00
2024-05-17 17:24:56.203391,0,-1,0,0,0,0,66,68,141,140,78,190.75,60,-9.00,31.00,-1006.00
2024-05-17 17:24:56.368617,0,-1,0,0,0,0,66,68,140,140,78,190.75,60,-3.00,20.00,-980.00
2024-05-17 17:24:56.407521,0,-1,0,0,0,0,66,68,139,140,78,190.77,60,7.00,17.00,-1008.00
2024-05-17 17:24:56.573633,0,-1,0,0,0,0,66,68,138,140,78,190.77,60,9.00,7.00,-995.00
2024-05-17 17:24:56.611621,0,-1,0,0,0,0,66,68,138,140,78,190.80,60,14.00,29.00,-1006.00
2024-05-17 17:24:56.778535,0,-1,0,0,0,0,66,68,137,140,78,190.77,61,-2.00,13.00,-1007.00
2024-05-17 17:24:56.833906,0,-1,0,0,0,0,66,68,137,140,78,190.69,61,2.00,26.00,-1002.00
2024-05-17 17:24:56.919605,0,0,0,0,0,0,66,68,136,140,78,190.69,61,10.00,24.00,-1014.00
2024-05-17 17:24:57.019563,1,0,0,0,0,0,66,68,135,140,78,190.70,61,-9.00,36.00,-998.00
2024-05-17 17:24:57.187681,0,0,0,0,0,0,66,68,135,140,78,190.73,61,3.00,29.00,-1015.00
2024-05-17 17:24:57.223482,0,0,0,0,0,0,66,68,135,140,78,190.69,61,-2.00,25.00,-1016.00
2024-05-17 17:24:57.325349,0,0,0,0,0,0,66,68,135,140,78,190.72,61,-4.00,30.00,-1019.00
2024-05-17 17:24:57.494943,0,0,0,0,0,0,66,68,134,140,78,190.81,61,6.00,38.00,-1333.00
2024-05-17 17:24:57.529363,0,1,0,0,0,-5,66,68,140,140,78,190.84,61,25.00,13.00,-1788.00
2024-05-17 17:24:57.702109,-1,29,1,0,2,-12,67,69,173,150,78,191.06,61,11.00,77.00,-1857.00
2024-05-17 17:24:57.702319,-3,139,-4,0,11,-7,67,69,188,160,78,191.16,62,44.00,778.00,-1108.00
2024-05-17 17:24:57.785035,4,-100,-1,0,10,8,67,69,295,160,78,191.14,62,38.00,780.00,-831.00
2024-05-17 17:24:57.904496,0,-4,2,0,4,12,67,69,146,150,78,190.96,62,30.00,455.00,-1027.00
2024-05-17 17:24:57.988292,0,0,1,0,5,8,67,69,137,140,78,190.68,62,-6.00,20.00,-1386.00
2024-05-17 17:24:58.109312,0,-4,0,0,5,4,67,69,132,130,78,190.66,62,9.00,-10.00,-1347.00
2024-05-17 17:24:58.192293,0,-4,0,0,4,1,67,69,129,130,78,190.59,62,-11.00,7.00,-1203.00
2024-05-17 17:24:58.314084,0,-2,0,0,3,0,67,69,128,130,78,190.65,62,9.00,24.00,-1165.00
2024-05-17 17:24:58.396300,0,-2,0,0,3,-1,67,69,129,130,78,190.64,62,-16.00,16.00,-1081.00
2024-05-17 17:24:58.518889,0,-2,-1,0,2,-1,67,69,131,130,78,190.62,62,14.00,7.00,-1009.00
2024-05-17 17:24:58.600447,0,-1,-1,0,2,-1,67,69,131,130,78,190.64,62,-7.00,11.00,-986.00
2024-05-17 17:24:58.702325,0,-1,-1,0,2,-1,67,69,132,140,78,190.62,63,-15.00,24.00,-971.00
2024-05-17 17:24:58.827708,0,-1,-1,0,2,-1,67,69,132,140,78,190.64,63,-4.00,8.00,-975.00
2024-05-17 17:24:58.906294,0,-1,0,0,2,0,67,69,132,140,78,190.67,63,10.00,12.00,-979.00
2024-05-17 17:24:59.032469,0,-2,0,0,1,0,67,69,132,140,78,190.57,63,4.00,12.00,-945.00
2024-05-17 17:24:59.110304,0,-4,0,0,1,0,67,69,133,140,78,190.64,63,-1.00,9.00,-1003.00
2024-05-17 17:24:59.212220,0,-4,0,0,1,0,67,69,133,140,78,190.66,63,-23.00,14.00,-983.00
2024-05-17 17:24:59.340104,0,-3,0,0,0,0,67,69,132,140,78,190.68,63,17.00,5.00,-1022.00
2024-05-17 17:24:59.416369,0,-2,0,0,0,0,67,69,131,140,78,190.59,63,-8.00,29.00,-1011.00
2024-05-17 17:24:59.542888,0,-2,-1,0,0,0,67,69,132,140,78,190.56,63,-9.00,23.00,-1010.00
2024-05-17 17:24:59.635832,0,-2,-1,0,0,0,67,69,132,140,78,190.56,63,-20.00,27.00,-988.00
2024-05-17 17:24:59.732907,-1,-3,-1,0,0,0,67,69,132,140,78,190.62,64,-16.00,30.00,-1023.00
2024-05-17 17:24:59.824241,0,-2,-1,0,0,0,67,69,132,140,78,190.57,64,-21.00,30.00,-996.00
2024-05-17 17:24:59.952832,0,-2,-1,0,0,0,67,69,132,140,78,190.56,64,-1.00,16.00,-981.00
2024-05-17 17:25:00.028212,0,-2,-1,0,0,0,67,69,133,140,78,190.53,64,-12.00,19.00,-980.00
2024-05-17 17:25:00.157268,0,-2,0,0,0,0,67,69,133,140,77,190.54,64,-20.00,30.00,-1016.00
2024-05-17 17:25:00.232304,0,-2,0,0,0,0,67,69,133,140,77,190.60,64,-5.00,20.00,-990.00
2024-05-17 17:25:00.338000,0,-2,0,0,0,0,67,69,133,140,77,190.58,64,10.00,11.00,-1023.00
2024-05-17 17:25:00.436182,0,-2,0,0,0,0,67,69,132,140,77,190.64,64,-7.00,21.00,-955.00
2024-05-17 17:25:00.567917,0,-2,0,0,0,0,67,69,132,140,77,190.69,64,1.00,41.00,-1023.00
2024-05-17 17:25:00.640551,0,-1,0,0,0,0,67,69,132,140,77,190.65,64,2.00,4.00,-969.00
2024-05-17 17:25:00.772860,0,-1,0,0,0,0,67,69,132,140,77,190.61,65,6.00,17.00,-980.00
