TS,pitch,roll,yaw,vgx,vgy,vgz,templ,temph,tof,h,bat,baro,time,agx,agy,agz
2024-05-19 09:50:32.616540,0,0,-5,0,0,0,89,92,10,0,53,127.95,322,-4.00,9.00,-999.00
2024-05-19 09:50:32.714067,0,0,-5,0,0,0,89,92,10,0,53,127.91,322,-5.00,9.00,-1002.00
2024-05-19 09:50:32.821409,0,0,-5,0,0,0,89,92,10,0,53,127.91,322,-4.00,10.00,-999.00
2024-05-19 09:50:32.918154,0,0,-5,0,0,0,89,92,10,0,53,127.93,322,-7.00,10.00,-1002.00
2024-05-19 09:50:33.026057,0,0,-5,0,0,0,89,92,10,0,53,127.97,322,-5.00,10.00,-997.00
2024-05-19 09:50:33.121991,0,0,-5,0,0,0,89,92,10,0,53,127.94,322,-5.00,9.00,-1001.00
2024-05-19 09:50:33.230870,0,0,-5,0,0,0,89,92,10,0,53,127.94,322,-4.00,10.00,-1000.00
2024-05-19 09:50:33.325929,0,0,-5,0,0,0,89,92,10,0,53,127.96,322,-4.00,9.00,-1000.00
2024-05-19 09:50:33.435774,0,0,-5,0,0,0,89,92,10,0,53,127.98,322,-5.00,9.00,-999.00
2024-05-19 09:50:33.530342,0,0,-5,0,0,0,89,92,10,0,53,127.97,322,-4.00,8.00,-1001.00
2024-05-19 09:50:33.640572,0,0,-5,0,0,0,89,91,10,0,53,127.90,322,-5.00,9.00,-998.00
2024-05-19 09:50:33.733971,0,0,-5,0,0,0,89,91,10,0,53,127.98,322,-6.00,10.00,-999.00
2024-05-19 09:50:33.845385,0,0,-5,0,0,0,89,91,10,0,53,127.96,322,-6.00,10.00,-1000.00
2024-05-19 09:50:33.937904,0,0,-5,0,0,0,89,91,10,0,53,127.93,322,-6.00,11.00,-1000.00
2024-05-19 09:50:34.050228,0,0,-5,0,0,0,89,91,10,0,53,127.94,322,-6.00,9.00,-996.00
2024-05-19 09:50:34.142173,0,0,-5,0,0,0,89,91,10,0,53,127.90,322,-6.00,9.00,-1002.00
2024-05-19 09:50:34.255367,0,0,-5,0,0,0,89,91,10,0,53,127.92,322,-6.00,10.00,-1000.00
2024-05-19 09:50:34.345982,0,0,-5,0,0,0,89,91,10,0,53,127.88,322,-4.00,9.00,-1002.00
2024-05-19 09:50:34.447983,0,0,-5,0,0,0,89,91,10,0,53,127.95,322,-3.00,11.00,-1001.00
2024-05-19 09:50:34.562153,0,0,-5,0,0,0,89,91,10,0,53,127.96,322,-6.00,8.00,-998.00
2024-05-19 09:50:34.651950,0,0,-5,0,0,0,89,92,10,0,53,127.93,322,-4.00,9.00,-999.00
2024-05-19 09:50:34.767061,0,0,-5,0,0,0,89,92,10,0,53,127.92,322,-5.00,10.00,-998.00
2024-05-19 09:50:34.855986,0,0,-5,0,0,0,89,92,10,0,53,127.92,322,-5.00,10.00,-1000.00
2024-05-19 09:50:34.971821,0,0,-5,0,0,0,89,92,10,0,53,127.96,322,-6.00,10.00,-997.00
2024-05-19 09:50:35.059940,0,0,-5,0,0,0,89,92,10,0,53,127.95,322,-5.00,7.00,-1001.00
2024-05-19 09:50:35.161742,0,0,-5,0,0,0,89,92,10,0,53,127.95,322,-5.00,9.00,-997.00
2024-05-19 09:50:35.278765,0,0,-5,0,0,0,89,92,10,0,53,127.95,322,-2.00,12.00,-999.00
2024-05-19 09:50:35.314726,0,0,-5,0,0,0,89,92,10,0,53,127.95,322,-9.00,6.00,-1000.00
2024-05-19 09:50:35.417205,0,0,-5,0,0,0,89,92,10,0,53,127.95,322,3.00,14.00,-995.00
2024-05-19 09:50:35.585987,0,0,-5,0,0,0,89,92,10,0,53,127.95,322,36.00,21.00,-1005.00
2024-05-19 09:50:35.620804,0,0,-4,0,0,0,89,92,10,0,53,127.95,322,9.00,-3.00,-973.00
2024-05-19 09:50:35.722775,0,0,-4,0,0,0,89,92,10,0,53,127.95,322,-12.00,7.00,-1034.00
2024-05-19 09:50:35.893284,-1,0,-3,0,0,-1,89,92,10,0,53,127.95,322,-6.00,16.00,-1158.00
2024-05-19 09:50:35.927500,-1,0,-3,0,0,-3,89,92,10,0,53,127.95,322,39.00,23.00,-1350.00
2024-05-19 09:50:36.098055,1,0,-3,0,0,-6,89,92,10,0,53,127.95,323,-10.00,5.00,-1301.00
2024-05-19 09:50:36.130993,1,0,-4,0,0,-7,89,92,18,10,53,128.19,323,-11.00,12.00,-1108.00
2024-05-19 09:50:36.302874,0,0,-4,0,0,-8,89,92,26,20,53,128.35,323,-4.00,20.00,-1090.00
2024-05-19 09:50:36.334778,0,0,-4,0,0,-8,89,92,35,20,53,128.38,323,-24.00,19.00,-954.00
2024-05-19 09:50:36.436771,0,0,-4,0,0,-7,89,92,42,30,53,128.54,323,5.00,19.00,-895.00
2024-05-19 09:50:36.610065,0,-1,-3,0,0,-6,89,92,50,40,53,128.69,323,27.00,35.00,-915.00
2024-05-19 09:50:36.640743,0,-2,-3,0,0,-5,90,92,57,50,53,128.65,323,31.00,16.00,-838.00
2024-05-19 09:50:36.814847,0,-3,-3,0,0,-4,90,92,63,50,53,128.72,323,10.00,-3.00,-871.00
2024-05-19 09:50:36.844744,1,-1,-3,0,0,-3,90,92,69,50,53,128.78,323,16.00,11.00,-881.00
2024-05-19 09:50:37.019994,0,-1,-3,0,0,-2,90,92,71,60,53,128.82,323,-3.00,11.00,-896.00
2024-05-19 09:50:37.048702,0,-1,-3,0,0,-1,90,92,74,60,53,128.83,324,-8.00,18.00,-891.00
2024-05-19 09:50:37.225214,0,-1,-3,0,0,0,90,92,76,60,53,128.84,324,15.00,7.00,-885.00
2024-05-19 09:50:37.252810,0,-1,-3,0,0,0,90,92,78,60,53,128.88,324,8.00,22.00,-905.00
2024-05-19 09:50:37.429486,0,-1,-3,0,0,0,90,92,79,60,53,128.91,324,7.00,34.00,-977.00
2024-05-19 09:50:37.456682,0,-1,-3,0,0,0,90,92,79,60,53,128.90,324,-10.00,23.00,-1039.00
2024-05-19 09:50:37.634046,0,-1,-3,0,0,0,90,92,80,60,53,128.81,324,14.00,21.00,-974.00
2024-05-19 09:50:37.660687,0,-1,-3,0,0,0,90,92,80,60,53,128.84,324,12.00,18.00,-976.00
2024-05-19 09:50:37.838969,0,-1,-3,0,0,0,90,92,81,60,53,128.92,324,18.00,23.00,-1034.00
2024-05-19 09:50:37.864672,0,-1,-3,0,0,0,90,92,81,70,53,128.86,324,6.00,33.00,-1007.00
2024-05-19 09:50:38.043510,0,-1,-3,0,0,0,90,92,81,70,53,128.93,324,6.00,37.00,-1030.00
2024-05-19 09:50:38.069133,0,-1,-3,0,0,0,90,92,82,70,53,128.91,325,17.00,19.00,-985.00
2024-05-19 09:50:38.170795,0,-1,-3,0,0,0,90,92,82,70,53,128.94,325,-17.00,43.00,-1018.00
2024-05-19 09:50:38.350758,0,-1,-3,0,0,0,90,92,82,70,53,128.84,325,42.00,29.00,-963.00
2024-05-19 09:50:38.375478,0,-1,-3,0,0,0,90,92,82,70,53,128.86,325,26.00,20.00,-964.00
2024-05-19 09:50:38.555597,0,-2,-4,0,0,0,90,92,82,70,53,128.87,325,44.00,36.00,-955.00
2024-05-19 09:50:38.578623,0,-2,-4,0,0,0,90,92,82,70,53,128.92,325,5.00,32.00,-1051.00
2024-05-19 09:50:38.760650,0,-2,-4,0,0,0,89,91,82,70,53,128.90,325,8.00,29.00,-1005.00
2024-05-19 09:50:38.782618,0,-2,-4,0,0,0,89,91,82,70,53,128.91,325,15.00,41.00,-1013.00
2024-05-19 09:50:38.965238,0,-1,-4,0,0,0,89,91,82,70,53,128.91,325,-4.00,26.00,-991.00
2024-05-19 09:50:38.965419,0,-2,-3,0,0,0,89,91,81,70,53,128.88,325,-4.00,40.00,-1041.00
2024-05-19 09:50:39.037693,0,-2,-3,0,0,0,89,91,81,70,53,128.86,326,-27.00,35.00,-1011.00
2024-05-19 09:50:39.170406,0,-2,-3,0,0,0,89,91,80,70,53,128.91,326,0.00,40.00,-1029.00
2024-05-19 09:50:39.241705,0,-2,-3,0,0,0,89,91,80,70,53,128.88,326,23.00,45.00,-1014.00
2024-05-19 09:50:39.374934,0,-2,-3,0,0,0,89,91,80,70,53,128.96,326,1.00,38.00,-1024.00
2024-05-19 09:50:39.445698,0,-1,-3,0,0,0,89,91,80,70,53,128.89,326,-36.00,33.00,-1084.00
2024-05-19 09:50:39.579798,0,-1,-4,0,0,0,89,91,80,70,53,128.89,326,-9.00,38.00,-1063.00
2024-05-19 09:50:39.649688,-1,-2,-4,0,0,0,90,92,80,70,53,128.86,326,-31.00,31.00,-1030.00
2024-05-19 09:50:39.784543,-1,-2,-4,0,0,0,90,92,80,70,53,128.86,326,-33.00,50.00,-1058.00
2024-05-19 09:50:39.853839,-1,-2,-4,0,0,0,90,92,79,70,53,128.89,326,-3.00,32.00,-982.00
2024-05-19 09:50:39.989791,-1,-2,-4,0,0,0,90,92,79,70,53,128.86,326,-14.00,30.00,-966.00
2024-05-19 09:50:40.060256,-1,-1,-4,0,0,0,90,92,78,70,53,128.87,327,-20.00,27.00,-960.00
2024-05-19 09:50:40.160885,-2,-1,-4,0,0,0,90,92,77,70,53,128.88,327,-33.00,41.00,-1016.00
2024-05-19 09:50:40.296547,-2,-1,-4,0,0,0,90,92,77,60,53,128.79,327,-38.00,27.00,-1030.00
2024-05-19 09:50:40.363936,-2,-1,-3,0,0,0,90,92,76,60,53,128.88,327,-3.00,45.00,-1003.00
2024-05-19 09:50:40.501357,-2,-1,-4,0,0,0,90,92,76,60,53,128.84,327,13.00,32.00,-961.00
2024-05-19 09:50:40.568656,-2,-1,-4,0,0,0,90,92,75,60,53,128.80,327,-33.00,28.00,-1015.00
2024-05-19 09:50:40.706137,-2,-1,-4,0,0,0,89,92,75,60,53,128.77,327,3.00,27.00,-960.00
2024-05-19 09:50:40.772626,-2,-1,-4,0,0,0,89,92,75,60,53,128.84,327,-27.00,31.00,-989.00
2024-05-19 09:50:40.910963,-2,-1,-4,0,0,0,89,92,75,60,53,128.82,327,-17.00,9.00,-990.00
2024-05-19 09:50:40.976500,-2,-1,-4,0,0,0,89,92,76,60,53,128.82,327,-22.00,52.00,-1003.00
2024-05-19 09:50:41.115711,-2,-1,-4,0,0,0,89,92,76,60,53,128.84,328,-60.00,42.00,-1097.00
2024-05-19 09:50:41.180624,-2,-1,-3,0,0,0,89,92,76,60,53,128.88,328,-20.00,20.00,-1018.00
2024-05-19 09:50:41.320355,-2,-1,-3,0,0,-1,89,92,77,60,53,128.89,328,-33.00,42.00,-1077.00
2024-05-19 09:50:41.384440,-2,-2,-3,0,0,-2,89,92,79,70,53,128.94,328,-41.00,32.00,-1140.00
2024-05-19 09:50:41.525148,-2,-1,-3,0,0,-2,89,92,82,70,53,128.87,328,-9.00,36.00,-1052.00
2024-05-19 09:50:41.588402,-2,-1,-3,0,0,-3,89,92,86,70,53,128.90,328,-33.00,41.00,-1057.00
2024-05-19 09:50:41.729948,-2,-1,-3,0,0,-4,89,91,91,70,53,128.94,328,-45.00,34.00,-1076.00
2024-05-19 09:50:41.792356,-3,-1,-3,0,0,-4,89,91,96,80,53,129.07,328,-26.00,34.00,-1018.00
2024-05-19 09:50:41.934713,-2,-1,-3,0,0,-5,89,91,102,90,53,129.13,328,-34.00,28.00,-969.00
2024-05-19 09:50:41.996398,-2,-1,-3,0,0,-5,89,91,108,90,53,129.12,328,-29.00,37.00,-992.00
2024-05-19 09:50:42.139459,-2,-2,-3,0,0,-5,89,91,114,100,53,129.19,329,-17.00,37.00,-949.00
2024-05-19 09:50:42.200379,-2,-2,-3,0,0,-5,89,91,121,100,53,129.27,329,-18.00,32.00,-950.00
2024-05-19 09:50:42.344463,-2,-2,-3,0,0,-5,89,91,128,110,53,129.32,329,-17.00,39.00,-1009.00
2024-05-19 09:50:42.404502,-1,-2,-3,0,0,-5,89,91,134,110,53,129.36,329,-31.00,22.00,-952.00
2024-05-19 09:50:42.549115,-1,-2,-3,0,0,-5,89,91,140,120,53,129.41,329,-35.00,47.00,-1029.00
2024-05-19 09:50:42.611020,-1,-2,-3,0,0,-5,89,91,147,130,53,129.53,329,-21.00,38.00,-977.00
2024-05-19 09:50:42.711547,-1,-2,-3,0,0,-5,89,91,152,130,53,129.59,329,-38.00,34.00,-997.00
2024-05-19 09:50:42.856316,-1,-1,-3,0,0,-4,89,91,157,140,53,129.53,329,-22.00,22.00,-954.00
2024-05-19 09:50:42.915559,-1,-1,-3,0,0,-4,89,91,162,140,53,129.63,329,-33.00,28.00,-978.00
2024-05-19 09:50:43.061076,-1,-1,-3,0,0,-3,89,91,166,150,53,129.75,329,-14.00,26.00,-957.00
2024-05-19 09:50:43.119320,-1,-1,-3,0,0,-3,89,91,169,150,53,129.76,330,-1.00,23.00,-926.00
2024-05-19 09:50:43.221333,-1,-1,-3,0,0,-2,89,91,173,150,53,129.74,330,-5.00,14.00,-943.00
2024-05-19 09:50:43.272460,-1,-1,-3,0,0,-2,89,91,174,160,53,129.74,330,-22.00,16.00,-944.00
2024-05-19 09:50:43.374539,-1,-1,-3,0,0,-2,89,91,177,160,53,129.73,330,-27.00,31.00,-953.00
2024-05-19 09:50:43.573271,-1,-1,-3,0,0,-1,89,91,179,160,53,129.78,330,-17.00,23.00,-946.00
2024-05-19 09:50:43.578537,-1,0,-3,0,0,0,89,91,179,160,53,129.81,330,-10.00,25.00,-928.00
2024-05-19 09:50:43.778271,-1,0,-3,0,0,0,88,91,179,160,53,129.72,330,-6.00,16.00,-981.00
2024-05-19 09:50:43.782578,-1,0,-3,0,0,0,88,91,178,160,53,129.77,330,-31.00,26.00,-1013.00
2024-05-19 09:50:43.982928,-1,0,-3,0,0,0,88,91,179,160,53,129.71,330,-8.00,21.00,-996.00
2024-05-19 09:50:43.986585,-1,0,-3,0,0,0,88,91,179,160,53,129.72,330,-5.00,13.00,-988.00
2024-05-19 09:50:44.088641,-1,0,-3,0,0,0,88,91,179,160,53,129.76,331,-26.00,16.00,-1028.00
2024-05-19 09:50:44.190353,-1,0,-3,0,0,0,88,91,179,160,53,129.72,331,-26.00,26.00,-1089.00
2024-05-19 09:50:44.292486,-1,0,-3,0,0,0,88,91,178,160,53,129.81,331,-24.00,27.00,-1008.00
2024-05-19 09:50:44.394582,-1,0,-3,0,0,0,88,91,177,160,53,129.74,331,0.00,11.00,-945.00
2024-05-19 09:50:44.496376,-1,0,-3,0,0,0,88,91,177,160,53,129.77,331,-11.00,15.00,-1013.00
2024-05-19 09:50:44.700038,-1,0,-3,0,0,0,88,91,177,160,53,129.85,331,-2.00,2.00,-920.00
2024-05-19 09:50:44.700241,-1,0,-3,0,0,0,89,91,177,160,53,129.78,331,5.00,14.00,-982.00
2024-05-19 09:50:44.904559,-1,0,-3,0,0,0,89,91,177,160,53,129.82,331,6.00,20.00,-1011.00
2024-05-19 09:50:44.904926,-1,0,-3,0,0,0,89,91,177,160,53,129.78,331,-4.00,26.00,-997.00
2024-05-19 09:50:45.007213,-1,-1,-3,0,0,0,89,91,177,160,53,129.81,331,-5.00,30.00,-1032.00
2024-05-19 09:50:45.108919,-1,-1,-3,0,0,0,89,91,177,160,53,129.79,332,4.00,13.00,-982.00
2024-05-19 09:50:45.211962,-1,0,-3,0,0,0,89,91,178,160,53,129.77,332,-1.00,0.00,-947.00
2024-05-19 09:50:45.312297,-1,0,-3,0,0,0,89,91,177,160,53,129.83,332,-8.00,12.00,-943.00
2024-05-19 09:50:45.414202,-1,0,-3,0,0,0,89,91,177,160,53,129.83,332,11.00,12.00,-988.00
2024-05-19 09:50:45.518714,-1,0,-3,0,0,0,89,91,177,160,53,129.74,332,-8.00,17.00,-1010.00
2024-05-19 09:50:45.618203,-1,0,-3,0,0,0,89,91,177,160,53,129.79,332,19.00,13.00,-946.00
2024-05-19 09:50:45.723487,-1,0,-3,0,0,0,88,91,177,160,53,129.81,332,-23.00,25.00,-968.00
2024-05-19 09:50:45.822294,-1,-1,-3,0,0,1,88,91,175,160,53,129.70,332,9.00,9.00,-919.00
2024-05-19 09:50:45.928317,-1,-1,-3,0,0,1,88,91,174,160,53,129.69,332,-4.00,13.00,-938.00
2024-05-19 09:50:46.026230,-1,-1,-3,0,0,1,88,91,172,160,53,129.74,332,7.00,12.00,-952.00
2024-05-19 09:50:46.133073,-1,-1,-3,0,0,2,88,91,170,160,53,129.74,333,-19.00,1.00,-960.00
2024-05-19 09:50:46.230365,-1,0,-4,0,0,2,88,91,167,150,53,129.61,333,-12.00,10.00,-981.00
2024-05-19 09:50:46.337893,-1,0,-4,0,0,2,88,91,165,150,53,129.72,333,-21.00,13.00,-981.00
2024-05-19 09:50:46.434196,-1,0,-4,0,0,2,88,91,161,150,53,129.59,333,-20.00,-5.00,-932.00
2024-05-19 09:50:46.542700,-2,0,-4,0,0,3,88,91,158,150,53,129.60,333,-9.00,20.00,-1005.00
2024-05-19 09:50:46.638364,-1,0,-4,0,0,3,88,91,154,140,53,129.53,333,-26.00,18.00,-1046.00
2024-05-19 09:50:46.747539,-1,0,-4,0,0,3,89,90,150,140,53,129.54,333,-16.00,18.00,-1024.00
2024-05-19 09:50:46.842259,-2,0,-4,0,0,3,89,90,146,140,53,129.52,333,-19.00,9.00,-986.00
2024-05-19 09:50:46.952328,-2,0,-4,0,0,3,89,90,144,130,53,129.37,333,18.00,-28.00,-928.00
2024-05-19 09:50:46.995138,-2,0,-4,0,0,2,89,90,140,130,53,129.44,333,-20.00,58.00,-1007.00
2024-05-19 09:50:47.157150,-2,0,-4,0,0,2,89,90,138,130,53,129.41,334,-20.00,-34.00,-1022.00
2024-05-19 09:50:47.199527,-3,0,-4,0,0,2,89,90,135,120,53,129.37,334,-11.00,-55.00,-978.00
2024-05-19 09:50:47.361966,-3,0,-4,0,0,2,89,90,134,120,53,129.29,334,-43.00,30.00,-1036.00
2024-05-19 09:50:47.403334,-3,0,-4,0,0,1,89,90,132,120,53,129.35,334,-46.00,37.00,-1049.00
2024-05-19 09:50:47.566908,-3,0,-3,0,0,1,89,90,130,120,53,129.31,334,-49.00,19.00,-1034.00
2024-05-19 09:50:47.608206,-3,0,-3,0,0,1,89,90,129,120,53,129.22,334,-20.00,14.00,-1029.00
2024-05-19 09:50:47.710253,-3,0,-3,0,0,0,88,91,128,110,53,129.26,334,-35.00,-2.00,-940.00
2024-05-19 09:50:47.874100,-3,0,-3,0,0,0,88,91,127,110,53,129.22,334,-24.00,3.00,-1054.00
2024-05-19 09:50:47.914189,-3,0,-3,0,0,0,88,91,126,110,53,129.34,334,-28.00,-9.00,-969.00
2024-05-19 09:50:48.078982,-2,0,-3,0,0,0,88,91,126,110,53,129.23,335,-40.00,-1.00,-1036.00
2024-05-19 09:50:48.118217,-2,0,-3,0,0,0,88,91,125,110,53,129.25,335,-40.00,6.00,-1043.00
2024-05-19 09:50:48.220118,-2,0,-3,0,0,0,88,91,125,110,53,129.29,335,-37.00,0.00,-983.00
2024-05-19 09:50:48.386081,-2,0,-3,0,0,0,88,91,124,110,53,129.16,335,-23.00,11.00,-1010.00
2024-05-19 09:50:48.424253,-2,0,-3,0,0,0,88,91,123,110,53,129.21,335,-47.00,30.00,-1017.00
2024-05-19 09:50:48.526213,-2,0,-3,0,0,0,88,91,122,110,53,129.24,335,-23.00,31.00,-1002.00
2024-05-19 09:50:48.693585,-3,-1,-3,0,0,0,88,91,121,110,53,129.13,335,-41.00,30.00,-1014.00
2024-05-19 09:50:48.730175,-3,-1,-3,0,0,0,89,91,120,110,53,129.25,335,-28.00,28.00,-1028.00
2024-05-19 09:50:48.832126,-3,-1,-3,0,0,0,89,91,120,110,53,129.17,335,-51.00,39.00,-1006.00
2024-05-19 09:50:48.934204,-3,-1,-3,0,0,0,89,91,119,110,53,129.08,335,-52.00,37.00,-988.00
2024-05-19 09:50:49.102911,-4,-2,-3,0,0,0,89,91,119,110,53,129.07,336,-29.00,34.00,-1005.00
2024-05-19 09:50:49.138629,-3,-2,-3,0,0,0,89,91,119,110,53,129.08,336,-49.00,23.00,-1024.00
2024-05-19 09:50:49.240059,-3,-2,-3,0,0,0,89,91,119,110,53,129.05,336,-33.00,29.00,-1050.00
2024-05-19 09:50:49.410125,-3,-2,-3,0,0,0,89,91,120,110,53,129.08,336,-43.00,39.00,-1034.00
2024-05-19 09:50:49.444126,-3,-1,-3,0,0,0,89,91,121,110,53,129.10,336,-56.00,45.00,-1026.00
2024-05-19 09:50:49.568819,-3,-1,-3,0,0,0,89,91,122,110,53,129.04,336,-34.00,14.00,-968.00
2024-05-19 09:50:49.648082,-3,-1,-3,0,0,0,89,91,123,110,53,129.08,336,-41.00,33.00,-1000.00
2024-05-19 09:50:49.819465,-3,-1,-3,0,0,0,89,90,124,110,53,129.12,336,-62.00,30.00,-990.00
2024-05-19 09:50:49.852016,-8,-1,-3,0,0,0,89,90,124,110,53,129.14,336,-9.00,27.00,-953.00
2024-05-19 09:50:50.024222,-8,-1,-3,1,0,0,89,90,126,110,53,129.13,336,-43.00,35.00,-1002.00
2024-05-19 09:50:50.055945,-8,-2,-3,2,0,0,89,90,126,110,53,129.13,337,-35.00,38.00,-986.00
2024-05-19 09:50:50.229084,-8,-2,-3,3,0,0,89,90,126,110,53,129.10,337,-73.00,47.00,-1011.00
2024-05-19 09:50:50.261105,-8,-2,-3,4,0,0,89,90,127,110,53,129.16,337,-64.00,38.00,-1019.00
2024-05-19 09:50:50.433841,-8,-2,-3,5,0,0,89,90,127,110,53,129.18,337,-66.00,12.00,-982.00
2024-05-19 09:50:50.466010,-8,-2,-3,6,0,0,89,90,128,110,53,129.15,337,-57.00,20.00,-958.00
2024-05-19 09:50:50.638685,-8,-2,-3,6,0,0,89,90,127,110,53,129.16,337,-55.00,32.00,-1003.00
2024-05-19 09:50:50.638744,-8,-3,-3,7,0,0,89,90,128,110,53,129.14,337,-70.00,48.00,-1042.00
2024-05-19 09:50:50.772094,-5,-3,-3,7,0,0,89,91,128,110,53,129.04,337,-81.00,16.00,-992.00
2024-05-19 09:50:50.945831,-1,-2,-3,7,0,0,89,91,129,110,53,129.00,337,-73.00,32.00,-1043.00
2024-05-19 09:50:50.976070,0,-1,-3,7,-1,0,89,91,130,110,53,129.07,337,-82.00,8.00,-998.00
2024-05-19 09:50:51.150712,2,0,-3,6,-1,0,89,91,131,110,53,129.06,338,-61.00,23.00,-1023.00
2024-05-19 09:50:51.179804,2,0,-3,4,-1,0,89,91,131,110,53,129.10,338,-87.00,12.00,-1053.00
2024-05-19 09:50:51.230990,0,0,-3,3,0,0,89,91,131,120,53,129.19,338,-33.00,38.00,-1075.00
2024-05-19 09:50:51.355725,0,0,-3,3,0,0,89,91,132,120,53,129.28,338,-34.00,29.00,-983.00
2024-05-19 09:50:51.434911,-1,0,-3,3,0,0,89,91,132,120,53,129.31,338,-39.00,20.00,-972.00
2024-05-19 09:50:51.560236,-1,-1,-3,2,0,0,89,91,133,120,53,129.31,338,-20.00,22.00,-1019.00
2024-05-19 09:50:51.639170,-2,-1,-3,2,0,0,89,91,133,120,53,129.34,338,-37.00,28.00,-1019.00
2024-05-19 09:50:51.765007,-2,0,-3,2,0,0,88,90,133,120,53,129.36,338,-24.00,25.00,-984.00
2024-05-19 09:50:51.844026,-2,-1,-3,2,0,0,88,90,133,120,53,129.30,338,-15.00,15.00,-1007.00
2024-05-19 09:50:51.969911,-1,-1,-3,2,0,0,88,90,133,120,53,129.28,338,-30.00,21.00,-1001.00
2024-05-19 09:50:52.047559,0,-1,-3,2,0,0,88,90,132,120,53,129.25,339,-34.00,26.00,-1039.00
2024-05-19 09:50:52.174673,0,-1,-3,2,0,0,88,90,133,120,53,129.32,339,-26.00,19.00,-1006.00
2024-05-19 09:50:52.253941,0,-1,-3,1,0,0,88,90,132,120,53,129.32,339,-48.00,18.00,-997.00
2024-05-19 09:50:52.352809,1,-1,-3,1,0,0,88,90,133,120,53,129.30,339,-22.00,26.00,-999.00
2024-05-19 09:50:52.454797,0,-1,-3,0,0,0,88,90,133,120,53,129.28,339,-30.00,25.00,-988.00
2024-05-19 09:50:52.584336,0,-1,-3,0,0,0,88,90,133,120,53,129.35,339,-18.00,22.00,-1040.00
2024-05-19 09:50:52.659205,-1,-1,-3,0,0,0,88,90,133,120,53,129.28,339,-14.00,13.00,-946.00
2024-05-19 09:50:52.789101,-1,-1,-3,0,0,0,88,90,134,120,53,129.48,339,-4.00,31.00,-995.00
2024-05-19 09:50:52.863018,-1,-1,-3,0,0,0,88,90,133,120,53,129.41,339,-6.00,17.00,-994.00
2024-05-19 09:50:52.993986,-1,-2,-3,0,0,0,88,90,134,120,53,129.41,339,-14.00,22.00,-986.00
2024-05-19 09:50:53.066925,-1,-2,-3,0,0,0,88,90,134,120,53,129.44,340,4.00,-1.00,-965.00
2024-05-19 09:50:53.198622,-1,-2,-3,0,0,0,88,90,133,120,53,129.44,340,-44.00,56.00,-997.00
2024-05-19 09:50:53.271037,-2,-1,-3,0,0,0,88,90,133,120,53,129.39,340,-1.00,6.00,-994.00
2024-05-19 09:50:53.403681,-1,-1,-3,0,0,0,88,90,133,120,53,129.38,340,-11.00,21.00,-980.00
2024-05-19 09:50:53.474964,-1,-1,-3,0,0,0,88,90,132,120,53,129.37,340,-35.00,32.00,-1010.00
2024-05-19 09:50:53.608352,-2,-1,-3,0,0,0,88,90,132,120,53,129.31,340,-25.00,-1.00,-979.00
2024-05-19 09:50:53.679058,-1,0,-3,0,0,0,88,90,132,120,53,129.36,340,9.00,3.00,-1044.00
2024-05-19 09:50:53.813180,-1,0,-3,0,0,0,88,89,132,120,53,129.29,340,-12.00,9.00,-1009.00
2024-05-19 09:50:53.883535,-1,0,-3,0,0,0,88,89,132,120,53,129.35,340,7.00,4.00,-987.00
2024-05-19 09:50:54.017943,-1,0,-3,0,0,0,88,89,132,120,53,129.37,340,0.00,1.00,-977.00
2024-05-19 09:50:54.088480,0,0,-3,0,0,0,88,89,132,120,53,129.38,341,10.00,1.00,-1039.00
2024-05-19 09:50:54.222771,0,0,-3,0,0,0,88,89,132,120,53,129.40,341,-13.00,6.00,-982.00
2024-05-19 09:50:54.291077,0,0,-3,0,0,0,88,89,132,120,53,129.38,341,7.00,-2.00,-1023.00
2024-05-19 09:50:54.427750,0,0,-3,0,0,0,88,89,132,120,53,129.33,341,-3.00,22.00,-1016.00
2024-05-19 09:50:54.495745,-1,0,-3,0,0,0,88,89,131,120,53,129.30,341,-11.00,-8.00,-985.00
2024-05-19 09:50:54.632265,0,0,-3,0,0,0,88,89,131,120,53,129.35,341,12.00,5.00,-1001.00
2024-05-19 09:50:54.700023,3,0,-3,0,0,0,88,89,131,110,53,129.36,341,-4.00,-1.00,-1017.00
2024-05-19 09:50:54.801898,7,0,-3,0,0,0,87,90,132,110,53,129.31,341,-2.00,8.00,-1011.00
2024-05-19 09:50:54.939746,8,0,-3,-2,0,0,87,90,132,110,53,129.33,341,1.00,-8.00,-1017.00
2024-05-19 09:50:54.954719,7,0,-3,-3,0,0,87,90,132,110,53,129.28,341,20.00,-11.00,-1025.00
2024-05-19 09:50:55.144222,6,0,-4,-5,0,0,87,90,131,110,53,129.40,342,17.00,-4.00,-1023.00
2024-05-19 09:50:55.158811,5,1,-4,-6,0,0,87,90,131,110,53,129.39,342,31.00,3.00,-1019.00
2024-05-19 09:50:55.349059,4,1,-4,-7,0,0,87,90,130,110,53,129.35,342,30.00,6.00,-1018.00
2024-05-19 09:50:55.363648,3,0,-4,-7,0,0,87,90,131,120,53,129.35,342,19.00,-9.00,-973.00
2024-05-19 09:50:55.553897,2,0,-4,-8,0,0,87,90,131,120,53,129.28,342,36.00,-12.00,-981.00
2024-05-19 09:50:55.567715,-1,0,-4,-8,0,0,87,90,131,120,53,129.34,342,36.00,-2.00,-981.00
2024-05-19 09:50:55.758671,-4,0,-4,-7,0,0,87,90,131,120,53,129.35,342,10.00,0.00,-1062.00
2024-05-19 09:50:55.771716,-6,-1,-3,-6,0,0,87,90,131,120,53,129.39,342,42.00,-20.00,-949.00
2024-05-19 09:50:55.963449,-6,-1,-3,-5,0,0,87,90,132,120,53,129.42,342,47.00,-1.00,-995.00
2024-05-19 09:50:55.975725,-4,0,-3,-4,0,0,87,90,132,120,53,129.41,342,15.00,7.00,-982.00
2024-05-19 09:50:56.168264,-3,0,-3,-3,0,0,87,90,132,120,53,129.37,343,17.00,11.00,-996.00
2024-05-19 09:50:56.179678,-2,0,-3,-3,0,0,87,90,132,120,53,129.33,343,0.00,4.00,-966.00
2024-05-19 09:50:56.372952,-2,0,-3,-2,0,0,87,90,132,120,53,129.34,343,-7.00,25.00,-996.00
2024-05-19 09:50:56.383850,-1,1,-3,-2,0,0,87,90,132,120,53,129.37,343,0.00,18.00,-1020.00
2024-05-19 09:50:56.577864,-2,3,-3,-2,0,0,87,90,133,120,53,129.35,343,-22.00,14.00,-994.00
2024-05-19 09:50:56.587671,-2,3,-3,-2,0,0,87,90,132,120,53,129.39,343,-25.00,7.00,-970.00
2024-05-19 09:50:56.782789,-5,-2,-3,-1,0,0,87,90,132,120,53,129.45,343,1.00,-26.00,-1013.00
2024-05-19 09:50:56.791899,-4,-2,-3,-1,0,0,87,90,132,120,53,129.35,343,-5.00,10.00,-996.00
2024-05-19 09:50:56.987660,-3,0,-3,0,0,0,87,90,131,120,53,129.28,343,-15.00,-6.00,-1014.00
2024-05-19 09:50:56.995765,-2,0,-3,0,0,0,87,90,131,120,53,129.34,343,-23.00,1.00,-1044.00
2024-05-19 09:50:57.192384,-1,0,-4,0,0,0,87,90,131,120,52,129.41,344,-25.00,2.00,-1002.00
2024-05-19 09:50:57.199960,-1,0,-4,0,0,0,87,90,131,120,52,129.31,344,-21.00,-7.00,-950.00
2024-05-19 09:50:57.397580,-1,0,-4,0,0,0,87,90,130,120,52,129.38,344,-18.00,15.00,-1058.00
2024-05-19 09:50:57.403764,-2,0,-4,0,0,0,87,90,130,120,52,129.41,344,5.00,0.00,-938.00
2024-05-19 09:50:57.601906,-2,0,-4,0,0,0,87,90,130,120,52,129.33,344,-28.00,5.00,-981.00
2024-05-19 09:50:57.607858,-1,0,-4,0,0,0,87,90,131,120,52,129.26,344,-34.00,18.00,-1008.00
2024-05-19 09:50:57.806715,-1,0,-4,0,0,0,87,90,130,120,52,129.31,344,1.00,8.00,-1003.00
2024-05-19 09:50:57.811766,-1,0,-4,0,0,0,87,89,131,120,52,129.32,344,0.00,7.00,-997.00
2024-05-19 09:50:58.011728,-1,0,-4,0,0,0,87,89,131,120,52,129.35,344,-32.00,6.00,-965.00
2024-05-19 09:50:58.015663,-1,0,-4,0,0,0,87,89,131,120,52,129.36,344,-15.00,-12.00,-964.00
2024-05-19 09:50:58.216389,-1,0,-4,0,0,0,87,89,131,120,52,129.33,345,-15.00,-14.00,-984.00
2024-05-19 09:50:58.219962,-1,0,-4,0,0,0,87,89,131,120,52,129.41,345,-9.00,-2.00,-1009.00
2024-05-19 09:50:58.321836,-1,0,-4,0,0,0,87,89,131,120,52,129.29,345,-3.00,0.00,-1015.00
2024-05-19 09:50:58.423687,-1,0,-4,0,0,0,87,89,131,120,52,129.35,345,-28.00,0.00,-996.00
2024-05-19 09:50:58.525775,0,0,-4,0,0,0,87,89,131,120,52,129.45,345,12.00,4.00,-1029.00
2024-05-19 09:50:58.629091,0,0,-4,0,0,0,87,89,131,120,52,129.34,345,-1.00,-17.00,-952.00
2024-05-19 09:50:58.729768,0,0,-4,0,0,0,87,89,130,120,52,129.30,345,8.00,-16.00,-963.00
2024-05-19 09:50:58.831612,0,0,-4,0,0,0,88,89,130,120,52,129.29,345,5.00,-7.00,-969.00
2024-05-19 09:50:59.039178,0,0,-4,0,0,0,88,89,130,120,52,129.31,345,-4.00,-9.00,-970.00
2024-05-19 09:50:59.039239,0,0,-4,0,0,0,88,89,131,110,52,129.30,345,-21.00,-9.00,-1057.00
2024-05-19 09:50:59.086556,-1,-7,-3,0,-1,0,88,89,132,110,51,129.27,346,-38.00,-22.00,-1069.00
2024-05-19 09:50:59.243757,-1,-6,-3,0,-2,0,88,89,132,110,51,129.22,346,-17.00,13.00,-1023.00
2024-05-19 09:50:59.290622,-1,-4,-3,0,-3,0,88,89,133,120,51,129.23,346,-22.00,9.00,-1001.00
2024-05-19 09:50:59.445028,-1,-2,-3,0,-4,0,88,89,133,120,51,129.29,346,-4.00,13.00,-957.00
2024-05-19 09:50:59.494568,0,0,-3,0,-3,0,88,89,132,120,51,129.35,346,-7.00,6.00,-960.00
2024-05-19 09:50:59.649808,0,1,-3,0,-3,0,88,89,132,120,51,129.26,346,-10.00,11.00,-969.00
2024-05-19 09:50:59.698587,0,0,-3,0,-3,0,88,89,132,120,51,129.21,346,1.00,16.00,-1047.00
2024-05-19 09:50:59.854641,0,0,-3,0,-2,0,87,90,131,120,51,129.27,346,10.00,2.00,-1015.00
2024-05-19 09:50:59.902760,-1,0,-3,0,-2,0,87,90,131,120,51,129.24,346,0.00,-5.00,-939.00
2024-05-19 09:51:00.059382,-1,0,-3,0,-2,0,87,90,130,110,51,129.30,346,-9.00,-3.00,-1037.00
2024-05-19 09:51:00.111674,0,0,-3,0,-2,0,87,90,130,110,51,129.29,347,-1.00,-1.00,-1009.00
2024-05-19 09:51:00.211048,0,0,-3,0,-2,0,87,90,130,110,51,129.26,347,6.00,2.00,-978.00
2024-05-19 09:51:00.311726,0,0,-3,0,-2,0,87,90,129,110,51,129.27,347,-7.00,8.00,-1043.00
2024-05-19 09:51:00.412454,0,0,-3,0,-2,0,87,90,128,110,51,129.35,347,-3.00,-3.00,-972.00
2024-05-19 09:51:00.571368,0,1,-3,0,-2,0,87,90,127,110,51,129.22,347,-18.00,-11.00,-965.00
2024-05-19 09:51:00.616491,0,1,-3,0,-2,0,87,90,126,110,51,129.28,347,3.00,-16.00,-952.00
2024-05-19 09:51:00.776201,0,2,-3,0,-2,0,87,90,125,110,51,129.30,347,-10.00,-11.00,-1034.00
2024-05-19 09:51:00.820475,0,4,-3,0,-1,0,88,89,125,110,51,129.24,347,4.00,-3.00,-1040.00
2024-05-19 09:51:00.980975,0,3,-3,0,-1,0,88,89,124,110,51,129.24,347,-11.00,-1.00,-1011.00
2024-05-19 09:51:01.024504,0,2,-3,0,0,0,88,89,123,110,51,129.26,347,7.00,-19.00,-959.00
2024-05-19 09:51:01.185922,0,1,-3,0,0,0,88,89,122,110,51,129.26,348,11.00,-22.00,-992.00
2024-05-19 09:51:01.228761,0,1,-3,0,0,0,88,89,122,110,51,129.24,348,9.00,-13.00,-1005.00
2024-05-19 09:51:01.390631,0,0,-3,0,0,0,88,89,122,110,51,129.30,348,-6.00,-18.00,-1004.00
2024-05-19 09:51:01.432568,0,0,-3,0,0,0,88,89,123,110,51,129.21,348,16.00,-8.00,-1021.00
2024-05-19 09:51:01.595748,0,0,-3,0,0,0,88,89,123,110,51,129.23,348,11.00,1.00,-1027.00
2024-05-19 09:51:01.636469,0,0,-3,0,0,0,88,89,123,110,51,129.30,348,-26.00,-7.00,-1012.00
2024-05-19 09:51:01.800211,-1,0,-3,0,0,0,88,89,123,110,51,129.27,348,-46.00,-5.00,-1074.00
2024-05-19 09:51:01.840700,-1,0,-3,0,0,0,87,90,124,110,51,129.24,348,18.00,-23.00,-1027.00
2024-05-19 09:51:02.006060,-1,0,-3,0,0,0,87,90,125,110,51,129.21,348,-22.00,-12.00,-944.00
2024-05-19 09:51:02.044508,-1,0,-3,0,0,0,87,90,125,110,51,129.16,348,-16.00,-7.00,-1029.00
2024-05-19 09:51:02.210041,-1,0,-3,0,0,0,87,90,125,110,51,129.22,349,-27.00,-29.00,-928.00
2024-05-19 09:51:02.248438,-1,0,-3,0,0,0,87,90,125,110,51,129.27,349,-19.00,-18.00,-977.00
2024-05-19 09:51:02.299415,-1,1,-3,0,0,0,87,90,125,110,51,129.28,349,-2.00,-20.00,-1002.00
2024-05-19 09:51:02.415099,-1,1,-3,0,0,0,87,90,125,110,51,129.34,349,-27.00,8.00,-1037.00
2024-05-19 09:51:02.505659,-1,1,-4,0,0,0,87,90,125,110,51,129.27,349,0.00,-25.00,-1040.00
2024-05-19 09:51:02.605792,-1,1,-4,0,0,0,87,90,125,110,51,129.33,349,-1.00,-32.00,-1014.00
2024-05-19 09:51:02.721883,-1,1,-4,0,0,0,87,90,125,110,51,129.29,349,-48.00,-41.00,-991.00
2024-05-19 09:51:02.860312,-1,1,-3,0,0,0,88,89,124,110,51,129.27,349,7.00,-35.00,-921.00
2024-05-19 09:51:02.913811,0,1,-3,0,0,0,88,89,124,110,51,129.19,349,-25.00,-21.00,-1028.00
2024-05-19 09:51:03.013396,-1,1,-3,0,0,0,88,89,124,110,51,129.14,350,-10.00,-26.00,-998.00
2024-05-19 09:51:03.131339,0,3,-3,0,0,0,88,89,124,110,50,129.11,350,-5.00,-47.00,-972.00
2024-05-19 09:51:03.217545,0,9,-3,0,0,0,88,89,125,110,50,129.23,350,-28.00,2.00,-955.00
2024-05-19 09:51:03.336169,0,8,-3,0,1,0,88,89,126,110,50,129.25,350,-22.00,-29.00,-1018.00
2024-05-19 09:51:03.421324,0,6,-3,0,3,0,88,89,125,110,50,129.26,350,-50.00,-30.00,-1025.00
2024-05-19 09:51:03.540941,-1,3,-3,0,3,0,88,89,124,110,50,129.25,350,-23.00,-38.00,-955.00
2024-05-19 09:51:03.625377,-1,0,-3,0,3,0,88,89,124,110,50,129.20,350,-13.00,-48.00,-1046.00
2024-05-19 09:51:03.745819,-2,0,-3,0,3,0,88,89,124,110,50,129.17,350,-20.00,-53.00,-1034.00
2024-05-19 09:51:03.829338,-1,0,-3,0,3,0,87,90,125,110,50,129.18,350,-23.00,-46.00,-972.00
2024-05-19 09:51:03.950597,-1,0,-3,0,2,0,87,90,125,110,50,129.22,350,-25.00,-47.00,-1007.00
2024-05-19 09:51:04.033369,-2,1,-3,0,2,0,87,90,125,110,50,129.27,351,-21.00,-54.00,-1016.00
2024-05-19 09:51:04.155437,-2,2,-3,0,2,0,87,90,126,110,50,129.34,351,-11.00,-35.00,-1078.00
2024-05-19 09:51:04.237232,-2,2,-3,0,1,0,87,90,126,110,50,129.36,351,-17.00,-63.00,-941.00
2024-05-19 09:51:04.360168,-2,2,-3,0,1,0,87,90,126,110,50,129.29,351,-3.00,-51.00,-1012.00
2024-05-19 09:51:04.441377,-2,2,-3,0,1,0,87,90,126,110,50,129.26,351,-43.00,-58.00,-997.00
2024-05-19 09:51:04.564933,-2,3,-3,0,1,0,87,90,127,110,50,129.30,351,-20.00,-56.00,-976.00
2024-05-19 09:51:04.645307,0,2,-3,0,1,0,87,90,127,110,50,129.29,351,-43.00,-65.00,-989.00
2024-05-19 09:51:04.769742,0,3,-3,0,1,0,87,90,126,110,50,129.29,351,-9.00,-47.00,-1027.00
2024-05-19 09:51:04.849252,0,3,-3,0,1,0,87,90,126,110,50,129.33,351,-4.00,-56.00,-1009.00
2024-05-19 09:51:04.974551,0,2,-3,0,1,0,87,90,126,110,50,129.28,351,-11.00,-62.00,-961.00
2024-05-19 09:51:05.054012,-1,2,-3,0,1,0,87,90,126,110,50,129.26,352,-30.00,-52.00,-1070.00
2024-05-19 09:51:05.179297,-1,1,-3,0,1,0,87,90,127,110,50,129.28,352,-27.00,-53.00,-979.00
2024-05-19 09:51:05.257584,-2,-2,-3,0,1,0,87,90,127,110,50,129.26,352,-27.00,-54.00,-1032.00
2024-05-19 09:51:05.384116,-1,0,-3,0,0,0,87,90,127,110,50,129.22,352,-24.00,-47.00,-969.00
2024-05-19 09:51:05.462723,-3,1,-3,0,0,0,87,90,128,110,50,129.25,352,-14.00,-49.00,-1009.00
2024-05-19 09:51:05.588852,-5,1,-4,0,0,0,87,90,129,110,50,129.29,352,-8.00,-40.00,-1022.00
2024-05-19 09:51:05.665486,-4,2,-4,0,0,0,87,90,129,110,50,129.29,352,-16.00,-47.00,-957.00
2024-05-19 09:51:05.793750,-3,2,-4,1,0,0,87,90,131,110,50,129.21,352,-16.00,-38.00,-970.00
2024-05-19 09:51:05.869293,2,2,-3,1,0,0,88,90,133,120,50,129.31,352,-36.00,-48.00,-1033.00
2024-05-19 09:51:05.998668,0,2,-3,0,0,0,88,90,134,120,50,129.31,352,1.00,-53.00,-969.00
2024-05-19 09:51:06.073348,0,2,-4,0,0,0,88,90,135,120,50,129.35,353,-14.00,-59.00,-1002.00
2024-05-19 09:51:06.203390,0,2,-3,0,0,0,88,90,137,120,50,129.31,353,-4.00,-34.00,-1074.00
2024-05-19 09:51:06.277211,0,2,-3,0,0,0,88,90,139,120,50,129.34,353,8.00,-54.00,-914.00
2024-05-19 09:51:06.408222,0,2,-3,0,0,0,88,90,140,120,50,129.40,353,-9.00,-25.00,-975.00
2024-05-19 09:51:06.430224,0,2,-3,0,0,0,88,90,141,120,50,129.34,353,-19.00,-43.00,-1044.00
2024-05-19 09:51:06.613235,-1,2,-3,0,0,0,88,90,142,120,50,129.36,353,-3.00,-43.00,-1009.00
2024-05-19 09:51:06.634283,-1,2,-3,0,0,0,88,90,142,120,50,129.43,353,22.00,-46.00,-948.00
2024-05-19 09:51:06.817822,0,2,-3,0,0,0,88,90,143,120,50,129.37,353,-3.00,-60.00,-965.00
2024-05-19 09:51:06.838309,0,3,-3,0,0,0,87,89,142,120,50,129.39,353,12.00,-47.00,-929.00
2024-05-19 09:51:07.022650,0,2,-3,0,0,0,87,89,143,120,50,129.40,353,-11.00,-57.00,-978.00
2024-05-19 09:51:07.042286,0,3,-3,0,0,0,87,89,142,120,50,129.42,354,-19.00,-44.00,-925.00
2024-05-19 09:51:07.227488,0,2,-3,0,0,0,87,89,141,120,50,129.43,354,-14.00,-55.00,-1012.00
2024-05-19 09:51:07.246363,0,2,-3,0,0,0,87,89,140,120,50,129.41,354,-1.00,-62.00,-952.00
2024-05-19 09:51:07.432199,0,3,-3,0,0,0,87,89,138,120,50,129.38,354,8.00,-53.00,-1012.00
2024-05-19 09:51:07.450172,0,3,-3,0,0,1,87,89,137,120,50,129.35,354,-2.00,-57.00,-978.00
2024-05-19 09:51:07.637064,0,3,-3,0,0,1,87,89,135,120,50,129.33,354,-6.00,-60.00,-964.00
2024-05-19 09:51:07.654127,0,3,-3,0,0,0,87,89,133,120,50,129.32,354,-7.00,-57.00,-1012.00
2024-05-19 09:51:07.796986,0,2,-3,0,0,1,87,89,131,120,50,129.31,354,6.00,-61.00,-952.00
2024-05-19 09:51:07.858217,0,3,-4,0,0,0,88,89,130,120,50,129.31,354,-3.00,-58.00,-1050.00
2024-05-19 09:51:08.046499,0,2,-1,0,0,0,88,89,129,110,50,129.19,354,6.00,-68.00,-1073.00
2024-05-19 09:51:08.062282,0,3,3,0,0,0,88,89,127,110,50,129.22,355,-8.00,-54.00,-941.00
2024-05-19 09:51:08.251314,0,3,9,0,0,0,88,89,126,110,49,129.28,355,27.00,-53.00,-980.00
2024-05-19 09:51:08.266086,0,3,15,0,0,0,88,89,124,110,49,129.18,355,-2.00,-57.00,-973.00
2024-05-19 09:51:08.456115,-1,2,21,0,0,0,88,89,123,110,49,129.16,355,-20.00,-49.00,-1058.00
2024-05-19 09:51:08.470089,-1,2,27,0,0,0,88,89,123,110,49,129.18,355,-21.00,-42.00,-948.00
2024-05-19 09:51:08.660911,-1,1,33,0,0,0,88,89,123,110,49,129.23,355,-7.00,-44.00,-1036.00
2024-05-19 09:51:08.674134,-2,1,39,0,0,0,88,89,122,110,49,129.05,355,-49.00,-72.00,-1042.00
2024-05-19 09:51:08.865622,-2,2,45,0,0,0,88,89,122,110,49,129.12,355,-31.00,-70.00,-992.00
2024-05-19 09:51:08.878016,-3,2,51,0,0,0,88,90,123,110,49,129.03,355,-28.00,-51.00,-1025.00
2024-05-19 09:51:09.070525,-3,2,57,0,0,0,88,90,123,110,49,129.08,355,-51.00,-67.00,-963.00
2024-05-19 09:51:09.082229,-4,2,64,0,0,0,88,90,124,110,49,129.04,356,-68.00,-48.00,-1032.00
2024-05-19 09:51:09.275309,-5,2,70,0,0,0,88,90,124,110,49,128.90,356,-77.00,-50.00,-1008.00
2024-05-19 09:51:09.285967,-5,1,76,0,0,0,88,90,124,110,49,128.98,356,-70.00,-40.00,-883.00
2024-05-19 09:51:09.480110,-4,1,83,0,0,0,88,90,124,110,49,128.95,356,-58.00,-6.00,-1036.00
2024-05-19 09:51:09.489987,-4,0,89,0,0,0,88,90,124,110,49,128.94,356,-84.00,-1.00,-1003.00
2024-05-19 09:51:09.684914,-4,0,95,0,0,0,88,90,124,110,49,128.89,356,-93.00,18.00,-1011.00
2024-05-19 09:51:09.693941,-4,0,101,0,0,0,88,90,124,110,49,128.99,356,-66.00,2.00,-958.00
2024-05-19 09:51:09.889590,-4,0,107,0,0,0,88,90,124,110,49,129.15,356,-86.00,-1.00,-1058.00
2024-05-19 09:51:09.898041,-4,0,113,0,0,0,88,90,125,110,49,128.98,356,-90.00,25.00,-1024.00
2024-05-19 09:51:10.094506,-4,0,119,0,0,0,88,90,126,110,49,129.05,356,-94.00,45.00,-1013.00
2024-05-19 09:51:10.102080,-4,-1,125,0,0,0,88,90,127,110,49,129.08,357,-87.00,42.00,-1015.00
2024-05-19 09:51:10.299438,-4,-3,130,0,0,0,88,90,128,110,49,129.09,357,-83.00,45.00,-976.00
2024-05-19 09:51:10.305956,-4,-2,136,0,0,0,88,90,129,110,49,129.20,357,-54.00,78.00,-1002.00
2024-05-19 09:51:10.357059,-4,-3,142,0,0,0,88,90,131,110,49,129.30,357,-88.00,60.00,-971.00
2024-05-19 09:51:10.459031,-4,-3,147,0,0,0,88,90,131,110,49,129.36,357,-74.00,86.00,-965.00
2024-05-19 09:51:10.606516,-4,-3,153,0,0,0,88,90,132,120,49,129.32,357,-73.00,99.00,-961.00
2024-05-19 09:51:10.663039,-4,-4,158,0,0,0,88,90,132,120,49,129.46,357,-58.00,105.00,-944.00
2024-05-19 09:51:10.813240,-3,-5,164,0,0,0,88,90,133,120,49,129.43,357,-63.00,105.00,-979.00
2024-05-19 09:51:10.866994,-2,-5,169,0,0,0,87,90,133,120,49,129.51,357,-53.00,107.00,-958.00
2024-05-19 09:51:11.015913,-2,-6,175,0,0,0,87,90,132,120,49,129.42,357,-33.00,123.00,-997.00
2024-05-19 09:51:11.070970,-1,-6,-178,0,0,0,87,90,132,120,49,129.40,358,-7.00,119.00,-1033.00
2024-05-19 09:51:11.221222,0,-6,-172,0,0,0,87,90,133,120,49,129.42,358,15.00,129.00,-1016.00
2024-05-19 09:51:11.275019,0,-6,-166,0,0,0,87,90,132,120,49,129.47,358,63.00,116.00,-943.00
2024-05-19 09:51:11.425683,1,-5,-160,0,0,0,87,90,131,120,49,129.27,358,57.00,114.00,-1021.00
2024-05-19 09:51:11.478890,2,-4,-154,-1,0,0,87,90,130,120,49,129.29,358,55.00,115.00,-1005.00
2024-05-19 09:51:11.630468,3,-4,-148,0,0,0,87,90,130,110,49,129.31,358,55.00,127.00,-1003.00
2024-05-19 09:51:11.682951,4,-4,-141,0,0,0,87,90,129,110,49,129.27,358,46.00,104.00,-1042.00
2024-05-19 09:51:11.835367,4,-4,-135,0,0,0,87,90,129,110,49,129.28,358,80.00,108.00,-1024.00
2024-05-19 09:51:11.887007,5,-4,-129,0,0,0,87,90,129,110,49,129.22,358,95.00,56.00,-981.00
2024-05-19 09:51:12.039962,5,-3,-122,0,0,0,87,90,128,110,49,129.26,358,111.00,99.00,-1023.00
2024-05-19 09:51:12.090851,5,-2,-116,0,0,0,87,90,129,110,49,129.18,359,144.00,45.00,-984.00
2024-05-19 09:51:12.244848,6,-1,-109,0,0,0,87,90,129,110,49,129.16,359,137.00,38.00,-1034.00
2024-05-19 09:51:12.294949,7,0,-103,0,0,0,87,90,129,110,49,129.08,359,115.00,30.00,-998.00
2024-05-19 09:51:12.449800,6,1,-97,0,0,0,87,90,129,110,49,129.02,359,81.00,38.00,-1045.00
2024-05-19 09:51:12.498883,5,0,-91,0,0,0,87,90,129,110,49,128.98,359,78.00,26.00,-979.00
2024-05-19 09:51:12.654670,5,0,-84,0,0,0,87,90,129,110,49,129.05,359,91.00,3.00,-995.00
2024-05-19 09:51:12.703106,5,1,-79,0,0,0,87,90,129,110,49,129.06,359,63.00,-19.00,-1024.00
2024-05-19 09:51:12.859260,4,2,-73,0,0,0,87,90,130,110,49,129.00,359,90.00,-7.00,-943.00
2024-05-19 09:51:12.907944,3,2,-68,0,0,0,87,89,130,110,49,129.10,359,90.00,-21.00,-1018.00
2024-05-19 09:51:13.064068,3,2,-62,0,0,0,87,89,130,110,49,129.09,359,105.00,-18.00,-952.00
2024-05-19 09:51:13.111842,3,1,-56,0,0,0,87,89,130,110,49,129.19,360,88.00,-39.00,-1078.00
2024-05-19 09:51:13.268849,2,1,-50,0,0,0,87,89,131,110,49,129.16,360,89.00,-63.00,-986.00
2024-05-19 09:51:13.314883,3,2,-44,0,0,0,87,89,131,110,49,129.21,360,61.00,-80.00,-949.00
2024-05-19 09:51:13.473629,3,3,-38,0,0,0,87,89,131,110,49,129.25,360,43.00,-68.00,-951.00
2024-05-19 09:51:13.522689,2,4,-32,0,0,0,87,89,131,120,49,129.23,360,78.00,-64.00,-948.00
2024-05-19 09:51:13.620801,1,5,-27,0,0,0,87,89,131,120,49,129.29,360,42.00,-71.00,-1028.00
2024-05-19 09:51:13.780875,1,4,-21,0,0,0,87,89,131,120,49,129.34,360,48.00,-72.00,-1010.00
2024-05-19 09:51:13.824836,1,5,-17,0,0,0,87,89,131,120,49,129.27,360,59.00,-81.00,-954.00
2024-05-19 09:51:13.985653,1,4,-14,0,0,0,88,90,131,120,49,129.30,360,-2.00,-110.00,-1029.00
2024-05-19 09:51:14.028917,1,5,-11,0,0,0,88,90,131,120,49,129.24,360,12.00,-116.00,-1006.00
2024-05-19 09:51:14.190408,0,6,-9,0,0,0,88,90,131,120,48,129.34,361,15.00,-109.00,-931.00
2024-05-19 09:51:14.232880,0,6,-8,0,0,0,88,90,130,110,48,129.27,361,10.00,-94.00,-1006.00
2024-05-19 09:51:14.395238,0,6,-7,0,0,0,88,90,129,110,48,129.26,361,11.00,-81.00,-976.00
2024-05-19 09:51:14.395896,0,6,-5,0,0,0,88,90,129,110,48,129.23,361,-19.00,-70.00,-1032.00
2024-05-19 09:51:14.487904,0,6,-5,0,0,0,88,90,129,110,48,129.22,361,-19.00,-65.00,-961.00
2024-05-19 09:51:14.600128,0,5,-4,0,0,0,88,90,128,110,48,129.13,361,-32.00,-69.00,-1034.00
2024-05-19 09:51:14.692010,-1,5,-4,0,0,0,88,90,128,110,48,129.09,361,-38.00,-49.00,-1019.00
2024-05-19 09:51:14.804964,-1,4,-3,0,0,0,88,90,128,110,48,129.09,361,-57.00,-55.00,-993.00
2024-05-19 09:51:14.895801,-1,3,-2,0,1,0,87,89,128,110,48,129.07,361,-19.00,-46.00,-1052.00
2024-05-19 09:51:15.009750,-2,2,-1,0,1,0,87,89,128,110,48,129.23,361,-26.00,-66.00,-983.00
2024-05-19 09:51:15.099915,-2,1,0,0,0,0,87,89,129,110,48,129.21,362,-21.00,-70.00,-1019.00
2024-05-19 09:51:15.214603,-2,3,0,0,0,0,87,89,128,110,48,129.26,362,-8.00,-97.00,-963.00
2024-05-19 09:51:15.303770,-1,4,0,0,0,0,87,89,129,110,48,129.30,362,-14.00,-83.00,-1033.00
2024-05-19 09:51:15.419316,0,4,0,0,0,0,87,89,129,110,48,129.24,362,-8.00,-98.00,-1016.00
2024-05-19 09:51:15.507781,0,5,0,0,0,0,87,89,129,110,48,129.25,362,-3.00,-93.00,-1017.00
2024-05-19 09:51:15.624023,0,5,0,0,0,0,87,89,130,110,48,129.33,362,-1.00,-99.00,-1031.00
2024-05-19 09:51:15.711808,0,5,0,0,0,0,87,89,130,110,48,129.35,362,-11.00,-103.00,-988.00
2024-05-19 09:51:15.828970,0,5,0,0,0,0,87,89,130,110,48,129.32,362,20.00,-105.00,-953.00
2024-05-19 09:51:15.915800,0,6,0,0,0,0,86,89,131,110,48,129.33,362,0.00,-99.00,-1036.00
2024-05-19 09:51:16.033784,0,6,0,0,0,0,86,89,132,110,48,129.37,362,15.00,-95.00,-984.00
2024-05-19 09:51:16.119759,1,5,0,1,0,0,86,89,132,110,48,129.37,363,23.00,-92.00,-952.00
2024-05-19 09:51:16.238809,2,5,0,0,0,0,86,89,132,110,48,129.35,363,24.00,-101.00,-999.00
2024-05-19 09:51:16.323780,2,6,0,0,0,0,86,89,134,110,48,129.31,363,35.00,-100.00,-1016.00
2024-05-19 09:51:16.425939,2,6,0,0,0,0,86,89,134,120,48,129.34,363,25.00,-121.00,-920.00
2024-05-19 09:51:16.545601,1,6,0,0,0,0,86,89,134,120,48,129.40,363,26.00,-106.00,-1024.00
2024-05-19 09:51:16.629652,3,5,-2,0,0,0,86,89,134,120,48,129.38,363,38.00,-99.00,-971.00
2024-05-19 09:51:16.750613,3,5,-8,0,0,0,86,89,134,120,48,129.37,363,-2.00,-87.00,-983.00
2024-05-19 09:51:16.837827,3,5,-14,0,0,0,86,89,134,120,48,129.30,363,39.00,-92.00,-990.00
2024-05-19 09:51:16.935679,4,5,-20,0,0,0,87,90,134,120,48,129.27,363,78.00,-93.00,-952.00
2024-05-19 09:51:17.059543,5,4,-26,0,0,0,87,90,133,120,48,129.23,363,78.00,-84.00,-977.00
2024-05-19 09:51:17.139677,6,3,-33,0,0,0,87,90,132,120,48,129.28,364,88.00,-76.00,-978.00
2024-05-19 09:51:17.264311,7,2,-39,0,0,0,87,90,132,120,48,129.21,364,97.00,-69.00,-989.00
2024-05-19 09:51:17.344650,7,1,-45,0,0,0,87,90,132,110,48,129.21,364,86.00,-67.00,-1010.00
2024-05-19 09:51:17.468697,7,1,-52,0,0,0,87,90,131,110,48,129.20,364,88.00,-36.00,-1004.00
2024-05-19 09:51:17.548625,7,0,-58,0,0,0,87,90,130,110,48,129.04,364,119.00,-21.00,-1013.00
2024-05-19 09:51:17.599640,7,0,-64,0,0,0,87,90,130,110,48,129.05,364,108.00,-18.00,-986.00
2024-05-19 09:51:17.774353,6,0,-71,0,0,0,87,90,129,110,48,128.91,364,103.00,-11.00,-997.00
2024-05-19 09:51:17.803636,6,0,-77,0,0,0,87,90,129,110,48,129.04,364,95.00,6.00,-1002.00
2024-05-19 09:51:17.979205,6,-2,-88,0,0,0,87,90,129,110,48,129.03,364,99.00,26.00,-961.00
2024-05-19 09:51:18.058651,6,-2,-94,0,0,0,87,90,129,110,48,129.03,365,104.00,40.00,-979.00
2024-05-19 09:51:18.184030,5,-2,-100,0,0,0,87,90,129,110,47,129.02,365,100.00,54.00,-1011.00
2024-05-19 09:51:18.211446,5,-3,-105,0,0,0,87,90,130,110,47,129.08,365,97.00,73.00,-1050.00
2024-05-19 09:51:18.313534,4,-3,-111,0,0,0,87,90,131,110,47,129.07,365,99.00,66.00,-974.00
2024-05-19 09:51:18.415549,4,-3,-117,0,0,0,87,90,131,110,47,129.08,365,89.00,67.00,-1021.00
2024-05-19 09:51:18.593626,4,-3,-123,0,0,0,87,90,131,110,47,129.13,365,88.00,76.00,-990.00
2024-05-19 09:51:18.619543,4,-4,-128,0,0,0,87,90,131,110,47,129.14,365,67.00,75.00,-1008.00
2024-05-19 09:51:18.798409,3,-3,-134,0,0,0,87,90,131,120,47,129.19,365,51.00,65.00,-982.00
2024-05-19 09:51:18.823569,3,-3,-140,0,0,0,87,90,131,120,47,129.10,365,43.00,74.00,-989.00
2024-05-19 09:51:19.003189,2,-3,-145,0,0,0,88,90,132,120,47,129.14,365,70.00,80.00,-1021.00
2024-05-19 09:51:19.027455,2,-3,-151,0,0,0,88,90,132,120,47,129.15,366,42.00,93.00,-1000.00
2024-05-19 09:51:19.207962,2,-4,-157,0,0,0,88,90,132,120,47,129.21,366,25.00,122.00,-987.00
2024-05-19 09:51:19.231454,1,-4,-163,0,0,0,88,90,132,120,47,129.16,366,10.00,115.00,-994.00
2024-05-19 09:51:19.333468,1,-5,-170,0,0,0,88,90,132,120,47,129.12,366,-1.00,124.00,-1002.00
2024-05-19 09:51:19.515174,0,-5,-176,0,0,0,88,90,131,120,47,129.10,366,5.00,100.00,-964.00
2024-05-19 09:51:19.537448,0,-5,177,0,0,0,88,90,131,120,47,129.18,366,-13.00,108.00,-1032.00
2024-05-19 09:51:19.719833,-1,-5,171,0,0,0,88,90,130,110,47,129.12,366,-25.00,106.00,-1002.00
2024-05-19 09:51:19.742014,-1,-5,165,0,0,0,88,90,130,110,47,129.12,366,-31.00,94.00,-1026.00
2024-05-19 09:51:19.924791,-2,-4,158,0,0,0,88,90,130,110,47,129.08,366,-46.00,91.00,-1054.00
2024-05-19 09:51:19.945463,-3,-3,152,0,0,0,87,90,131,110,47,129.03,366,-75.00,74.00,-1004.00
2024-05-19 09:51:20.129590,-3,-2,146,0,0,0,87,90,131,120,47,129.01,367,-48.00,64.00,-970.00
2024-05-19 09:51:20.149475,-3,-2,140,0,0,0,87,90,130,120,47,129.00,367,-60.00,53.00,-966.00
2024-05-19 09:51:20.334389,-3,-2,133,0,0,0,87,90,131,120,47,128.88,367,-57.00,46.00,-984.00
2024-05-19 09:51:20.353383,-3,-1,127,0,0,0,87,90,130,120,47,128.88,367,-55.00,41.00,-962.00
2024-05-19 09:51:20.455470,-3,-1,121,0,0,0,87,90,130,120,47,128.87,367,-51.00,49.00,-983.00
2024-05-19 09:51:20.641593,-3,-1,115,0,0,0,87,90,130,120,47,128.78,367,-73.00,23.00,-929.00
2024-05-19 09:51:20.659473,-3,0,109,0,0,0,87,90,130,110,47,128.77,367,-80.00,28.00,-1011.00
2024-05-19 09:51:20.846705,-3,0,103,0,0,0,87,90,129,110,47,128.89,367,-76.00,20.00,-980.00
2024-05-19 09:51:20.863554,-4,0,97,0,0,0,87,90,129,110,47,128.90,367,-52.00,9.00,-946.00
2024-05-19 09:51:21.051160,-4,0,91,0,0,0,87,89,128,110,47,128.75,367,-91.00,-1.00,-981.00
2024-05-19 09:51:21.067449,-4,0,85,0,0,0,87,89,128,110,47,128.79,368,-80.00,2.00,-994.00
2024-05-19 09:51:21.255991,-4,0,79,0,0,0,87,89,128,110,47,128.90,368,-84.00,-8.00,-975.00
2024-05-19 09:51:21.271530,-4,1,72,0,0,0,87,89,128,110,47,128.93,368,-76.00,-1.00,-1010.00
2024-05-19 09:51:21.460796,-4,0,67,0,0,0,87,89,128,110,47,128.92,368,-66.00,0.00,-1007.00
2024-05-19 09:51:21.475405,-4,1,61,0,0,0,87,89,128,110,47,129.00,368,-31.00,-23.00,-1046.00
2024-05-19 09:51:21.665815,-3,1,55,0,0,0,87,89,127,110,47,129.08,368,-43.00,-21.00,-991.00
2024-05-19 09:51:21.679363,-2,2,49,0,0,0,87,89,127,110,47,129.06,368,-42.00,-30.00,-959.00
2024-05-19 09:51:21.870347,-2,2,43,0,0,0,87,89,127,110,47,128.99,368,-59.00,-31.00,-1025.00
2024-05-19 09:51:21.883373,-1,2,37,0,0,0,87,89,127,110,47,129.05,368,-61.00,-33.00,-962.00
2024-05-19 09:51:22.075169,-1,2,31,0,0,0,88,90,127,110,47,129.04,368,-27.00,-31.00,-922.00
2024-05-19 09:51:22.075221,-1,1,25,0,0,0,88,90,126,110,47,129.08,369,-29.00,-31.00,-1030.00
2024-05-19 09:51:22.138412,0,1,19,0,0,0,88,90,126,110,47,129.03,369,-10.00,-59.00,-970.00
2024-05-19 09:51:22.279975,0,2,14,0,0,0,88,90,125,110,47,129.11,369,-8.00,-47.00,-1040.00
2024-05-19 09:51:22.342376,0,2,11,0,0,0,88,90,125,110,47,129.12,369,-13.00,-51.00,-933.00
2024-05-19 09:51:22.444335,0,2,8,0,0,0,88,90,125,110,47,129.13,369,16.00,-41.00,-1038.00
2024-05-19 09:51:22.587157,0,3,6,0,0,0,88,90,126,110,47,129.15,369,-34.00,-49.00,-1046.00
2024-05-19 09:51:22.648230,0,4,5,0,0,0,88,90,126,110,47,129.14,369,1.00,-54.00,-961.00
2024-05-19 09:51:22.791946,0,3,4,0,0,0,88,90,126,110,47,129.16,369,-17.00,-42.00,-972.00
2024-05-19 09:51:22.852389,0,3,3,0,0,0,88,90,127,110,47,129.20,369,4.00,-32.00,-992.00
2024-05-19 09:51:22.996629,0,2,2,0,0,0,88,89,126,110,47,129.14,369,10.00,-42.00,-978.00
2024-05-19 09:51:23.056329,0,3,2,0,0,0,88,89,126,110,47,129.11,370,14.00,-37.00,-981.00
2024-05-19 09:51:23.158384,0,3,1,0,0,0,88,89,126,110,47,129.15,370,-13.00,-70.00,-926.00
2024-05-19 09:51:23.304256,0,3,1,0,0,0,88,89,125,110,47,129.20,370,2.00,-67.00,-944.00
2024-05-19 09:51:23.362533,0,3,1,0,0,0,88,89,125,110,47,129.20,370,-4.00,-64.00,-973.00
2024-05-19 09:51:23.508925,0,4,1,0,0,0,88,89,125,110,47,129.19,370,21.00,-49.00,-1010.00
2024-05-19 09:51:23.566314,0,4,1,0,0,0,88,89,125,110,47,129.15,370,48.00,-51.00,-945.00
2024-05-19 09:51:23.713599,0,4,1,0,0,0,88,89,124,110,47,129.24,370,7.00,-72.00,-1011.00
2024-05-19 09:51:23.773590,0,3,1,0,0,0,88,89,125,110,47,129.14,370,1.00,-54.00,-1047.00
2024-05-19 09:51:23.872450,0,3,1,0,0,0,88,89,125,110,47,129.08,370,11.00,-39.00,-1055.00
2024-05-19 09:51:24.020986,-1,3,1,0,0,0,87,89,125,110,47,129.16,370,-36.00,-53.00,-1019.00
2024-05-19 09:51:24.076349,-1,3,1,0,0,0,87,89,127,110,46,129.19,371,1.00,-54.00,-1039.00
2024-05-19 09:51:24.225669,-1,2,1,0,0,0,87,89,127,110,46,129.25,371,-24.00,-57.00,-1019.00
2024-05-19 09:51:24.280559,-1,3,1,0,0,0,87,89,128,110,46,129.24,371,5.00,-67.00,-976.00
2024-05-19 09:51:24.382785,0,3,1,0,0,0,87,89,128,110,46,129.18,371,-8.00,-60.00,-965.00
2024-05-19 09:51:24.532789,0,3,1,0,0,0,87,89,128,110,46,129.24,371,-9.00,-57.00,-920.00
2024-05-19 09:51:24.586344,0,3,1,0,0,0,87,89,128,110,46,129.26,371,-8.00,-46.00,-940.00
2024-05-19 09:51:24.737549,0,3,1,0,0,0,87,89,128,110,46,129.30,371,32.00,-63.00,-1016.00
2024-05-19 09:51:24.790279,0,3,1,0,0,0,87,89,128,110,46,129.21,371,7.00,-56.00,-988.00
2024-05-19 09:51:24.942638,0,3,1,0,0,0,87,89,128,110,46,129.30,371,-4.00,-44.00,-1051.00
2024-05-19 09:51:24.994832,0,3,1,0,0,0,87,90,128,110,46,129.23,371,12.00,-64.00,-977.00
2024-05-19 09:51:25.110705,0,3,1,0,0,0,87,90,128,110,46,129.31,372,21.00,-58.00,-926.00
2024-05-19 09:51:25.198178,0,3,1,0,0,0,87,90,128,110,46,129.24,372,-5.00,-53.00,-1063.00
2024-05-19 09:51:25.352533,0,3,1,0,0,0,87,90,128,110,46,129.27,372,7.00,-57.00,-1014.00
2024-05-19 09:51:25.402353,0,3,1,0,0,0,87,90,128,110,46,129.30,372,5.00,-52.00,-1090.00
2024-05-19 09:51:25.556876,0,3,1,0,0,0,87,90,129,110,46,129.28,372,2.00,-60.00,-984.00
2024-05-19 09:51:25.606206,0,3,1,0,0,0,87,90,129,110,46,129.27,372,12.00,-60.00,-1029.00
2024-05-19 09:51:25.761648,0,3,1,0,0,0,87,90,130,110,46,129.28,372,-1.00,-50.00,-1015.00
2024-05-19 09:51:25.810478,0,3,1,0,0,0,87,90,130,110,46,129.27,372,6.00,-57.00,-997.00
2024-05-19 09:51:25.966393,0,3,1,0,0,0,87,90,130,110,46,129.33,372,20.00,-60.00,-926.00
2024-05-19 09:51:26.014250,0,3,1,0,0,0,87,89,130,110,46,129.26,372,15.00,-64.00,-954.00
2024-05-19 09:51:26.171134,1,3,1,0,0,0,87,89,130,110,46,129.25,373,-6.00,-52.00,-983.00
2024-05-19 09:51:26.220101,1,3,1,0,0,0,87,89,129,110,46,129.23,373,15.00,-65.00,-960.00
2024-05-19 09:51:26.269425,0,3,1,0,0,0,87,89,128,110,46,129.32,373,13.00,-48.00,-948.00
2024-05-19 09:51:26.376388,0,3,1,0,0,0,87,89,127,110,46,129.32,373,-7.00,-53.00,-1010.00
2024-05-19 09:51:26.473265,0,3,1,0,0,0,87,89,127,110,46,129.30,373,21.00,-51.00,-972.00
2024-05-19 09:51:26.580838,0,3,1,0,0,0,87,89,127,110,46,129.20,373,9.00,-44.00,-1017.00
2024-05-19 09:51:26.677317,1,2,1,0,0,0,87,89,126,110,46,129.15,373,17.00,-37.00,-1072.00
2024-05-19 09:51:26.786116,1,2,1,0,0,0,87,89,127,110,46,129.12,373,12.00,-52.00,-1078.00
2024-05-19 09:51:26.881716,0,2,1,0,0,0,87,89,127,110,46,129.19,373,31.00,-47.00,-998.00
2024-05-19 09:51:26.993227,0,3,1,0,0,0,88,90,127,110,46,129.18,373,10.00,-42.00,-1043.00
2024-05-19 09:51:27.085186,0,2,1,0,0,0,88,90,127,110,46,129.20,374,6.00,-50.00,-990.00
2024-05-19 09:51:27.195164,0,2,1,0,0,0,88,90,127,110,46,129.16,374,34.00,-44.00,-992.00
2024-05-19 09:51:27.291098,0,2,1,0,0,0,88,90,126,110,46,129.14,374,32.00,-38.00,-946.00
2024-05-19 09:51:27.391816,1,2,1,0,0,0,88,90,126,110,46,129.12,374,28.00,-48.00,-973.00
2024-05-19 09:51:27.493450,1,2,1,0,0,0,88,90,125,110,46,129.18,374,21.00,-45.00,-1017.00
2024-05-19 09:51:27.604820,1,2,1,0,0,0,88,90,125,110,46,129.15,374,9.00,-56.00,-964.00
2024-05-19 09:51:27.699690,1,2,1,0,0,0,88,90,125,110,46,129.15,374,19.00,-46.00,-988.00
2024-05-19 09:51:27.799325,1,2,1,0,0,0,88,90,125,110,46,129.22,374,17.00,-31.00,-1023.00
2024-05-19 09:51:27.912382,1,2,1,0,0,0,88,90,124,110,46,129.17,374,0.00,-52.00,-1038.00
2024-05-19 09:51:28.003203,1,2,1,0,0,0,87,89,125,110,46,129.19,374,34.00,-45.00,-956.00
2024-05-19 09:51:28.116901,1,2,1,0,0,0,87,89,126,110,45,129.20,375,45.00,-36.00,-1033.00
2024-05-19 09:51:28.207160,1,2,1,0,0,0,87,89,126,110,45,129.20,375,38.00,-42.00,-1035.00
2024-05-19 09:51:28.321772,2,2,1,0,0,0,87,89,128,110,45,129.40,375,41.00,-34.00,-1060.00
2024-05-19 09:51:28.412301,2,2,1,0,0,0,87,89,129,110,45,129.31,375,36.00,-57.00,-978.00
2024-05-19 09:51:28.526411,1,2,1,0,0,0,87,89,131,110,45,129.33,375,55.00,-50.00,-984.00
2024-05-19 09:51:28.616400,1,2,1,0,0,0,87,89,132,110,45,129.41,375,41.00,-48.00,-959.00
2024-05-19 09:51:28.731564,1,2,1,0,0,0,87,89,133,120,45,129.35,375,35.00,-48.00,-892.00
2024-05-19 09:51:28.819121,2,2,1,0,0,0,87,89,133,120,45,129.37,375,42.00,-48.00,-1004.00
2024-05-19 09:51:28.935930,2,2,1,0,0,0,87,89,134,120,45,129.46,375,59.00,-63.00,-972.00
2024-05-19 09:51:29.023093,2,3,1,0,0,0,87,89,135,120,45,129.40,375,55.00,-56.00,-963.00
2024-05-19 09:51:29.140710,2,3,1,0,0,0,87,89,135,120,45,129.39,376,54.00,-56.00,-984.00
2024-05-19 09:51:29.227628,2,3,1,0,0,0,87,89,136,120,45,129.40,376,49.00,-43.00,-1024.00
2024-05-19 09:51:29.329141,3,3,1,0,0,0,87,89,136,120,45,129.45,376,68.00,-43.00,-927.00
2024-05-19 09:51:29.447995,3,2,1,0,0,0,87,89,136,120,45,129.47,376,53.00,-52.00,-988.00
2024-05-19 09:51:29.533073,3,2,1,0,0,0,87,89,136,120,45,129.44,376,60.00,-51.00,-982.00
2024-05-19 09:51:29.652777,3,2,1,0,0,0,87,89,137,120,45,129.43,376,64.00,-56.00,-932.00
2024-05-19 09:51:29.737001,3,3,1,0,0,0,87,89,136,120,45,129.48,376,48.00,-33.00,-1008.00
2024-05-19 09:51:29.788087,3,2,1,0,0,0,87,89,137,120,45,129.37,376,37.00,-47.00,-1006.00
2024-05-19 09:51:29.959937,3,2,1,0,0,0,87,89,137,120,45,129.33,376,99.00,-8.00,-918.00
2024-05-19 09:51:29.992004,2,2,1,0,0,0,87,89,136,120,45,129.47,376,61.00,-14.00,-1003.00
2024-05-19 09:51:30.164765,3,1,1,0,0,0,87,89,137,120,45,129.40,377,53.00,-10.00,-988.00
2024-05-19 09:51:30.196040,4,0,1,0,0,0,87,89,137,120,45,129.44,377,51.00,-34.00,-967.00
2024-05-19 09:51:30.369720,5,0,1,0,0,0,87,89,135,120,45,129.32,377,37.00,-34.00,-954.00
2024-05-19 09:51:30.400208,4,1,1,0,0,0,87,89,135,120,45,129.41,377,63.00,-31.00,-1043.00
2024-05-19 09:51:30.574307,4,1,1,0,0,0,87,89,134,120,45,129.35,377,74.00,-24.00,-970.00
2024-05-19 09:51:30.603917,4,2,1,0,0,0,87,89,133,120,45,129.38,377,67.00,-30.00,-1000.00
2024-05-19 09:51:30.779165,4,2,1,0,0,0,87,89,132,120,45,129.30,377,68.00,-29.00,-1002.00
2024-05-19 09:51:30.808042,4,1,1,0,0,0,87,89,132,120,45,129.37,377,83.00,-13.00,-1009.00
2024-05-19 09:51:30.983971,4,0,1,0,0,0,87,89,131,120,45,129.38,377,57.00,-50.00,-990.00
2024-05-19 09:51:31.011997,3,0,1,0,0,0,87,89,130,110,45,129.31,377,55.00,-14.00,-1002.00
2024-05-19 09:51:31.160311,3,1,1,0,0,0,87,89,129,110,45,129.27,378,68.00,-40.00,-970.00
2024-05-19 09:51:31.217196,3,1,1,0,0,0,87,89,129,110,45,129.39,378,12.00,-33.00,-1027.00
2024-05-19 09:51:31.393517,2,3,1,-1,0,0,87,89,129,110,45,129.39,378,37.00,-61.00,-1008.00
2024-05-19 09:51:31.421149,0,3,1,-1,0,0,87,89,128,110,45,129.41,378,6.00,-41.00,-1014.00
2024-05-19 09:51:31.598384,0,3,1,-1,0,0,87,89,128,110,45,129.44,378,38.00,-53.00,-951.00
2024-05-19 09:51:31.623918,0,3,1,-1,0,0,87,89,127,110,45,129.39,378,34.00,-59.00,-926.00
2024-05-19 09:51:31.803519,0,3,1,-1,0,0,87,89,126,110,45,129.26,378,19.00,-63.00,-998.00
2024-05-19 09:51:31.827922,0,3,1,0,0,0,87,89,125,110,45,129.31,378,28.00,-42.00,-970.00
2024-05-19 09:51:32.007926,0,2,1,0,0,0,87,89,124,110,45,129.20,378,26.00,-57.00,-968.00
2024-05-19 09:51:32.031955,1,2,1,0,0,0,87,90,124,110,45,129.31,379,28.00,-19.00,-1032.00
2024-05-19 09:51:32.212576,2,2,1,0,0,0,87,90,124,110,45,129.27,379,44.00,-43.00,-965.00
2024-05-19 09:51:32.236065,2,1,2,0,0,0,87,90,125,110,45,129.25,379,29.00,-16.00,-1007.00
2024-05-19 09:51:32.337895,2,1,2,0,0,0,87,90,125,110,45,129.15,379,57.00,-32.00,-1021.00
2024-05-19 09:51:32.439890,2,1,2,0,0,0,87,90,126,110,45,129.27,379,37.00,-12.00,-997.00
2024-05-19 09:51:32.622450,1,1,2,0,0,0,87,90,126,110,45,129.23,379,18.00,-12.00,-990.00
2024-05-19 09:51:32.644008,1,1,1,0,0,0,87,90,127,110,45,129.30,379,35.00,-25.00,-1027.00
2024-05-19 09:51:32.827136,1,1,1,0,0,0,87,90,128,110,45,129.35,379,22.00,-23.00,-997.00
2024-05-19 09:51:32.847893,1,1,1,0,0,0,87,90,128,110,45,129.26,379,32.00,-26.00,-982.00
2024-05-19 09:51:33.032101,1,1,1,0,0,0,87,90,129,110,45,129.31,379,31.00,-26.00,-951.00
2024-05-19 09:51:33.051832,1,1,1,0,0,0,87,90,129,110,45,129.36,380,12.00,-19.00,-1029.00
2024-05-19 09:51:33.236870,1,1,1,0,0,0,87,90,129,110,45,129.36,380,32.00,-24.00,-977.00
2024-05-19 09:51:33.255905,1,1,1,0,0,0,87,90,129,110,45,129.40,380,28.00,-27.00,-1009.00
2024-05-19 09:51:33.357786,1,1,1,0,0,0,87,90,129,110,45,129.39,380,6.00,-22.00,-1026.00
2024-05-19 09:51:33.543999,1,1,1,0,0,0,87,90,129,120,45,129.28,380,33.00,-11.00,-969.00
2024-05-19 09:51:33.561869,1,0,1,0,0,0,87,90,128,110,45,129.30,380,23.00,-12.00,-1010.00
2024-05-19 09:51:33.748857,1,0,1,0,0,0,87,90,128,110,45,129.18,380,-14.00,-16.00,-1019.00
2024-05-19 09:51:33.749033,0,0,2,0,0,0,87,90,126,110,45,129.23,380,1.00,-14.00,-996.00
2024-05-19 09:51:33.817013,0,0,2,0,0,0,87,90,125,110,45,129.39,380,13.00,-19.00,-958.00
2024-05-19 09:51:33.953758,0,1,2,0,0,1,87,90,124,110,45,129.37,380,-35.00,6.00,-980.00
2024-05-19 09:51:34.021046,0,2,2,0,0,1,87,90,122,110,45,129.26,381,-13.00,0.00,-984.00
2024-05-19 09:51:34.158302,0,1,2,0,0,1,87,90,121,110,45,129.35,381,-3.00,8.00,-1021.00
2024-05-19 09:51:34.224868,0,1,2,0,0,0,87,90,119,110,45,129.27,381,11.00,-22.00,-1066.00
2024-05-19 09:51:34.363717,0,0,2,0,0,0,87,90,119,110,45,129.32,381,-2.00,11.00,-1074.00
2024-05-19 09:51:34.430065,0,0,2,0,0,0,87,90,118,110,45,129.32,381,-8.00,9.00,-1045.00
2024-05-19 09:51:34.567901,0,0,2,0,0,0,87,90,119,110,45,129.33,381,-2.00,-9.00,-1040.00
2024-05-19 09:51:34.633898,-1,0,1,0,0,0,87,90,120,110,45,129.28,381,-10.00,8.00,-1022.00
2024-05-19 09:51:34.773055,0,0,1,0,0,-1,87,90,121,110,45,129.30,381,4.00,9.00,-1040.00
2024-05-19 09:51:34.837792,0,0,2,0,0,-1,87,90,122,110,45,129.34,381,8.00,2.00,-1014.00
2024-05-19 09:51:34.977506,0,-1,2,0,0,-1,87,90,123,110,45,129.45,381,-7.00,16.00,-1012.00
2024-05-19 09:51:35.041917,0,-1,2,0,0,-1,87,89,124,110,45,129.47,382,-6.00,19.00,-967.00
2024-05-19 09:51:35.182253,0,-1,2,0,0,0,87,89,126,110,45,129.54,382,-10.00,16.00,-940.00
2024-05-19 09:51:35.245687,0,0,2,0,0,0,87,89,126,110,45,129.59,382,4.00,17.00,-955.00
2024-05-19 09:51:35.347755,0,0,2,0,0,0,87,89,126,110,45,129.64,382,1.00,17.00,-973.00
2024-05-19 09:51:35.489604,0,-1,2,0,0,0,87,89,125,110,45,129.53,382,21.00,19.00,-994.00
2024-05-19 09:51:35.551662,0,-1,2,0,0,0,87,89,124,110,45,129.48,382,31.00,1.00,-1016.00
2024-05-19 09:51:35.694696,0,-1,2,0,0,0,87,89,124,110,45,129.57,382,4.00,17.00,-1022.00
2024-05-19 09:51:35.755855,0,-1,1,0,0,0,87,89,124,110,45,129.46,382,23.00,10.00,-1028.00
2024-05-19 09:51:35.899057,1,-1,1,0,0,0,87,89,124,110,45,129.43,382,27.00,1.00,-1015.00
2024-05-19 09:51:35.959752,1,0,1,0,0,0,87,89,124,110,45,129.54,382,-2.00,22.00,-995.00
2024-05-19 09:51:36.103902,1,0,1,0,0,0,86,89,125,110,45,129.53,383,10.00,32.00,-1039.00
2024-05-19 09:51:36.163812,1,0,2,0,0,0,86,89,126,110,44,129.58,383,6.00,14.00,-980.00
2024-05-19 09:51:36.308946,0,0,2,0,0,0,86,89,126,110,44,129.56,383,11.00,-2.00,-962.00
2024-05-19 09:51:36.367712,0,-1,1,0,0,0,86,89,126,110,44,129.48,383,30.00,-12.00,-999.00
2024-05-19 09:51:36.513620,0,-1,1,0,0,0,86,89,126,110,44,129.58,383,24.00,-32.00,-1013.00
2024-05-19 09:51:36.571766,1,1,1,0,-1,0,86,89,126,110,44,129.33,383,23.00,-14.00,-997.00
2024-05-19 09:51:36.718743,1,2,1,0,-1,0,86,89,127,110,44,129.34,383,36.00,-28.00,-1018.00
2024-05-19 09:51:36.775810,1,2,1,0,0,0,86,89,127,110,44,129.43,383,44.00,-12.00,-1028.00
2024-05-19 09:51:36.923319,2,2,1,0,0,0,86,89,128,110,44,129.43,383,27.00,0.00,-974.00
2024-05-19 09:51:36.979677,2,1,1,0,0,0,86,89,128,110,44,129.46,383,37.00,-11.00,-934.00
2024-05-19 09:51:37.127880,3,1,1,0,0,0,87,89,128,110,44,129.60,384,40.00,-12.00,-972.00
2024-05-19 09:51:37.183573,3,1,1,0,0,0,87,89,128,110,44,129.49,384,26.00,-6.00,-975.00
2024-05-19 09:51:37.332588,2,0,1,0,0,0,87,89,128,110,44,129.58,384,25.00,13.00,-1019.00
2024-05-19 09:51:37.336791,2,0,1,0,0,0,87,89,128,110,44,129.50,384,8.00,4.00,-1001.00
2024-05-19 09:51:37.537378,2,0,1,0,0,0,87,89,127,110,44,129.46,384,11.00,10.00,-993.00
2024-05-19 09:51:37.540632,1,0,1,0,0,0,87,89,127,110,44,129.59,384,27.00,-7.00,-944.00
2024-05-19 09:51:37.642585,1,0,0,0,0,0,87,89,127,110,44,129.63,384,-4.00,6.00,-1011.00
2024-05-19 09:51:37.744539,1,0,0,0,0,0,87,89,127,110,44,129.57,384,13.00,6.00,-967.00
2024-05-19 09:51:37.846535,0,0,0,0,0,1,87,89,126,110,44,129.66,384,-2.00,9.00,-998.00
2024-05-19 09:51:38.049479,0,0,0,0,0,1,87,89,124,110,44,129.43,384,19.00,17.00,-934.00
2024-05-19 09:51:38.050544,0,0,0,0,0,2,87,89,121,110,44,129.55,385,13.00,11.00,-870.00
2024-05-19 09:51:38.152653,1,-2,0,0,0,3,87,89,118,110,44,129.43,385,26.00,12.00,-854.00
2024-05-19 09:51:38.254544,0,-2,1,0,0,4,87,89,113,100,44,129.38,385,27.00,27.00,-938.00
2024-05-19 09:51:38.356591,0,-2,1,0,0,5,87,89,108,100,44,129.30,385,20.00,20.00,-942.00
2024-05-19 09:51:38.458949,0,-2,1,0,0,6,87,89,101,90,44,129.24,385,20.00,33.00,-889.00
2024-05-19 09:51:38.561235,0,-2,1,0,0,6,87,89,94,80,44,129.14,385,25.00,37.00,-911.00
2024-05-19 09:51:38.664294,1,-1,1,0,0,6,87,89,87,80,44,129.24,385,11.00,13.00,-892.00
2024-05-19 09:51:38.764507,0,0,1,0,0,6,87,89,80,70,44,129.18,385,21.00,0.00,-1007.00
2024-05-19 09:51:38.868567,0,0,0,0,0,6,87,89,72,60,44,129.01,385,-5.00,-5.00,-968.00
2024-05-19 09:51:38.968524,0,0,0,0,0,6,87,89,65,60,44,129.05,385,24.00,33.00,-987.00
2024-05-19 09:51:39.073374,0,0,0,0,0,6,87,89,59,50,44,129.00,386,-22.00,-32.00,-1044.00
2024-05-19 09:51:39.172496,0,0,1,0,0,5,87,89,53,40,44,128.85,386,-12.00,6.00,-1017.00
