TS,pitch,roll,yaw,vgx,vgy,vgz,templ,temph,tof,h,bat,baro,time,agx,agy,agz
2024-06-07 01:40:29.071710,0,0,27,0,0,0,69,72,10,0,86,122.63,0,1.00,10.00,-997.00
2024-06-07 01:40:29.172066,0,0,27,0,0,0,70,72,10,0,86,122.66,0,0.00,9.00,-1003.00
2024-06-07 01:40:29.274295,0,0,27,0,0,0,70,72,10,0,86,122.64,0,1.00,8.00,-1000.00
2024-06-07 01:40:29.446784,0,0,27,0,0,0,70,72,10,0,86,122.62,0,1.00,8.00,-998.00
2024-06-07 01:40:29.477888,0,0,27,0,0,0,70,72,10,0,86,122.60,0,0.00,8.00,-1001.00
2024-06-07 01:40:29.579800,0,0,27,0,0,0,70,72,10,0,86,122.62,0,0.00,8.00,-1001.00
2024-06-07 01:40:29.754474,0,0,27,0,0,0,70,72,10,0,86,122.64,0,0.00,8.00,-1000.00
2024-06-07 01:40:29.784033,0,0,27,0,0,0,70,72,10,0,86,122.64,0,0.00,8.00,-1000.00
2024-06-07 01:40:29.958584,0,0,27,0,0,0,70,72,10,0,86,122.59,0,0.00,9.00,-998.00
2024-06-07 01:40:29.987717,0,0,27,0,0,0,70,72,10,0,86,122.64,0,1.00,8.00,-1001.00
2024-06-07 01:40:30.089973,0,0,27,0,0,0,70,72,10,0,86,122.67,0,0.00,6.00,-998.00
2024-06-07 01:40:30.265960,0,0,27,0,0,0,71,73,10,0,86,122.56,0,1.00,7.00,-999.00
2024-06-07 01:40:30.294065,0,0,27,0,0,0,71,73,10,0,86,122.62,0,0.00,9.00,-995.00
2024-06-07 01:40:30.470603,0,0,27,0,0,0,71,73,10,0,86,122.64,0,0.00,7.00,-999.00
2024-06-07 01:40:30.497659,0,0,27,0,0,0,71,73,10,0,86,122.61,0,0.00,8.00,-1001.00
2024-06-07 01:40:30.599852,0,0,27,0,0,0,71,73,10,0,86,122.63,0,1.00,7.00,-999.00
2024-06-07 01:40:30.650575,0,0,27,0,0,0,71,73,10,0,86,122.60,0,0.00,7.00,-1001.00
2024-06-07 01:40:30.778014,0,0,27,0,0,0,71,73,10,0,86,122.63,0,1.00,8.00,-1001.00
2024-06-07 01:40:30.854778,0,0,27,0,0,0,71,73,10,0,86,122.61,0,0.00,9.00,-999.00
2024-06-07 01:40:30.956778,0,0,27,0,0,0,71,73,10,0,86,122.64,0,1.00,7.00,-1001.00
2024-06-07 01:40:31.085691,0,0,27,0,0,0,71,73,10,0,86,122.62,0,1.00,10.00,-998.00
2024-06-07 01:40:31.160855,0,0,27,0,0,0,71,73,10,0,86,122.64,0,1.00,10.00,-999.00
2024-06-07 01:40:31.289781,0,0,27,0,0,0,71,73,10,0,86,122.56,0,1.00,8.00,-999.00
2024-06-07 01:40:31.364756,0,0,27,0,0,0,71,73,10,0,86,122.61,0,-1.00,8.00,-999.00
2024-06-07 01:40:31.495572,0,0,27,0,0,0,71,73,10,0,86,122.61,0,0.00,8.00,-1001.00
2024-06-07 01:40:31.568677,0,0,27,0,0,0,71,73,10,0,86,122.65,0,-1.00,9.00,-1000.00
2024-06-07 01:40:31.699956,0,0,27,0,0,0,71,73,10,0,86,122.59,0,0.00,9.00,-1001.00
2024-06-07 01:40:31.772677,0,0,27,0,0,0,71,73,10,0,86,122.60,0,0.00,8.00,-1002.00
2024-06-07 01:40:31.904185,0,0,27,0,0,0,71,73,10,0,86,122.60,0,1.00,7.00,-999.00
2024-06-07 01:40:31.976694,0,0,27,0,0,0,71,73,10,0,86,122.61,0,0.00,8.00,-999.00
2024-06-07 01:40:32.108951,0,0,27,0,0,0,71,73,10,0,86,122.56,0,0.00,9.00,-999.00
2024-06-07 01:40:32.180705,0,0,27,0,0,0,70,72,10,0,86,122.59,0,0.00,8.00,-1000.00
2024-06-07 01:40:32.313793,0,0,27,0,0,0,70,72,10,0,86,122.57,0,1.00,7.00,-1001.00
2024-06-07 01:40:32.386695,0,0,27,0,0,0,70,72,10,0,86,122.56,0,0.00,8.00,-999.00
2024-06-07 01:40:32.486468,0,0,27,0,0,0,70,72,10,0,86,122.60,0,1.00,8.00,-997.00
2024-06-07 01:40:32.620780,0,0,27,0,0,0,70,72,10,0,86,122.58,0,0.00,8.00,-999.00
2024-06-07 01:40:32.690442,0,0,27,0,0,0,70,72,10,0,86,122.58,0,3.00,9.00,-1000.00
2024-06-07 01:40:32.825950,0,0,27,0,0,0,70,72,10,0,86,122.58,0,-4.00,22.00,-1008.00
2024-06-07 01:40:32.894443,0,0,27,0,0,0,70,72,10,0,86,122.58,0,-9.00,23.00,-999.00
2024-06-07 01:40:33.030277,0,0,26,0,0,0,70,72,10,0,86,122.58,0,6.00,26.00,-1027.00
2024-06-07 01:40:33.098761,0,0,26,0,0,0,70,72,10,0,86,122.58,0,-9.00,-3.00,-1111.00
2024-06-07 01:40:33.235157,-1,0,25,0,0,-1,71,73,10,0,86,122.58,0,0.00,-3.00,-1182.00
2024-06-07 01:40:33.302425,0,0,25,0,0,-3,71,73,10,0,86,122.58,0,-3.00,21.00,-1334.00
2024-06-07 01:40:33.440479,1,0,25,0,0,-6,71,73,17,0,86,122.79,0,-25.00,0.00,-1168.00
2024-06-07 01:40:33.506361,1,0,25,0,0,-8,71,73,25,10,86,122.93,0,9.00,0.00,-1034.00
2024-06-07 01:40:33.645338,0,0,25,0,0,-8,71,73,34,20,86,122.97,0,0.00,4.00,-998.00
2024-06-07 01:40:33.710335,0,0,25,0,0,-8,71,73,40,20,86,123.12,1,10.00,2.00,-944.00
2024-06-07 01:40:33.849445,0,0,25,0,0,-7,71,73,48,30,86,123.17,1,10.00,-11.00,-904.00
2024-06-07 01:40:33.914369,0,0,25,0,0,-6,71,73,55,40,86,123.29,1,10.00,2.00,-886.00
2024-06-07 01:40:34.016350,0,0,25,0,0,-5,71,73,61,40,86,123.38,1,-19.00,28.00,-861.00
2024-06-07 01:40:34.067859,0,0,25,0,0,-4,71,73,66,50,86,123.43,1,-6.00,-2.00,-896.00
2024-06-07 01:40:34.259787,0,0,25,0,0,-3,71,73,70,50,86,123.40,1,-34.00,16.00,-892.00
2024-06-07 01:40:34.271509,0,0,25,0,0,-2,71,73,73,50,86,123.46,1,0.00,7.00,-923.00
2024-06-07 01:40:34.373437,0,0,25,0,0,-1,71,73,75,60,86,123.55,1,21.00,-7.00,-930.00
2024-06-07 01:40:34.669047,0,0,25,0,0,-1,71,73,77,60,86,123.53,1,-9.00,5.00,-968.00
2024-06-07 01:40:34.669133,0,0,25,0,0,0,71,73,78,60,86,123.50,1,-3.00,11.00,-976.00
2024-06-07 01:40:34.679389,0,0,25,0,0,0,71,73,79,60,86,123.55,2,0.00,7.00,-988.00
2024-06-07 01:40:34.873895,0,0,25,0,0,0,71,73,80,60,86,123.53,2,-1.00,9.00,-998.00
2024-06-07 01:40:34.883478,0,0,25,0,0,0,71,73,80,60,86,123.56,2,-1.00,8.00,-1001.00
2024-06-07 01:40:35.080340,0,0,25,0,0,0,71,73,81,60,86,123.57,2,-6.00,-1.00,-999.00
2024-06-07 01:40:35.087502,0,0,25,0,0,0,71,73,82,60,86,123.60,2,-3.00,4.00,-993.00
2024-06-07 01:40:35.284926,0,0,25,0,0,0,71,73,83,60,86,123.67,2,-8.00,0.00,-996.00
2024-06-07 01:40:35.291316,0,0,25,0,0,0,71,73,84,70,86,123.63,2,-3.00,6.00,-979.00
2024-06-07 01:40:35.490117,0,0,25,0,0,0,71,73,84,70,86,123.62,2,-10.00,15.00,-1001.00
2024-06-07 01:40:35.500927,0,0,25,0,0,0,71,73,85,70,86,123.60,2,-10.00,9.00,-979.00
2024-06-07 01:40:35.597328,0,0,25,0,0,0,71,73,86,70,86,123.65,2,-9.00,4.00,-995.00
2024-06-07 01:40:35.699271,0,0,25,0,0,0,71,73,86,70,86,123.61,3,-17.00,16.00,-972.00
2024-06-07 01:40:35.801256,0,0,25,0,0,0,71,73,86,70,86,123.64,3,0.00,6.00,-987.00
2024-06-07 01:40:36.001375,0,0,25,0,0,0,71,73,86,70,86,123.67,3,12.00,-4.00,-988.00
2024-06-07 01:40:36.005340,0,0,25,0,0,0,71,73,86,70,86,123.64,3,-5.00,7.00,-998.00
2024-06-07 01:40:36.108350,0,0,25,0,0,0,71,73,86,70,86,123.71,3,-10.00,11.00,-983.00
2024-06-07 01:40:36.307054,0,0,25,0,0,0,72,73,86,70,86,123.61,3,7.00,2.00,-989.00
2024-06-07 01:40:36.311288,0,0,25,0,0,0,72,73,86,70,86,123.64,3,-3.00,17.00,-1014.00
2024-06-07 01:40:36.512924,0,0,25,0,0,0,72,73,86,70,86,123.65,3,22.00,5.00,-1021.00
2024-06-07 01:40:36.515333,0,0,25,0,0,0,72,73,86,70,86,123.65,3,0.00,-6.00,-978.00
2024-06-07 01:40:36.617279,0,0,25,0,0,0,72,73,85,70,86,123.59,4,-12.00,3.00,-980.00
2024-06-07 01:40:36.719304,0,0,25,0,0,0,72,73,85,70,86,123.63,4,6.00,10.00,-1005.00
2024-06-07 01:40:36.821183,0,0,25,0,0,0,72,73,85,70,86,123.63,4,16.00,4.00,-1014.00
2024-06-07 01:40:36.923230,0,0,25,0,0,0,72,73,85,70,86,123.60,4,3.00,6.00,-997.00
2024-06-07 01:40:37.126121,0,0,25,0,0,0,72,73,84,70,86,123.68,4,3.00,9.00,-1002.00
2024-06-07 01:40:37.127267,0,0,25,0,0,0,72,73,84,70,86,123.62,4,-6.00,11.00,-998.00
2024-06-07 01:40:37.229213,0,0,25,0,0,0,71,73,84,70,86,123.63,4,-7.00,9.00,-1001.00
2024-06-07 01:40:37.331177,0,0,25,0,0,0,71,73,83,70,86,123.58,4,-23.00,18.00,-986.00
2024-06-07 01:40:37.433366,0,0,25,0,0,0,71,73,83,70,86,123.61,4,2.00,9.00,-1011.00
2024-06-07 01:40:37.536345,0,0,25,0,0,0,71,73,83,70,86,123.61,4,30.00,2.00,-1002.00
2024-06-07 01:40:37.639929,0,0,25,0,0,0,71,73,82,70,86,123.57,5,8.00,0.00,-1000.00
2024-06-07 01:40:37.741101,0,0,25,0,0,0,71,73,82,70,86,123.64,5,-19.00,10.00,-1005.00
2024-06-07 01:40:37.842849,0,0,25,0,0,0,71,73,82,70,86,123.64,5,-9.00,11.00,-1005.00
2024-06-07 01:40:37.943648,0,0,25,0,0,0,71,73,82,70,86,123.71,5,-2.00,8.00,-998.00
2024-06-07 01:40:37.996158,0,0,25,0,0,0,71,73,81,70,86,123.65,5,2.00,-1.00,-989.00
2024-06-07 01:40:38.098550,0,0,25,0,0,0,71,73,81,70,86,123.60,5,-20.00,13.00,-992.00
2024-06-07 01:40:38.201113,0,0,25,0,0,0,71,73,81,70,86,123.65,5,2.00,18.00,-1038.00
2024-06-07 01:40:38.300298,0,0,25,0,0,0,71,73,81,70,86,123.62,5,-2.00,14.00,-1010.00
2024-06-07 01:40:38.457422,0,0,25,0,0,0,71,73,81,70,86,123.57,5,7.00,9.00,-1002.00
2024-06-07 01:40:38.504017,0,0,25,0,0,0,71,73,81,70,86,123.61,5,-13.00,17.00,-985.00
2024-06-07 01:40:38.605919,0,0,25,0,0,0,71,73,81,70,86,123.60,6,1.00,-11.00,-986.00
2024-06-07 01:40:38.708166,0,0,25,0,0,0,71,73,81,70,86,123.58,6,-16.00,18.00,-1004.00
2024-06-07 01:40:38.809939,0,0,25,0,0,0,71,73,81,70,86,123.56,6,1.00,6.00,-982.00
2024-06-07 01:40:38.913496,0,0,25,0,0,0,71,73,81,70,86,123.65,6,-5.00,14.00,-998.00
2024-06-07 01:40:39.013932,0,0,25,0,0,0,71,73,81,70,86,123.61,6,1.00,12.00,-1011.00
2024-06-07 01:40:39.118515,0,0,25,0,0,0,71,73,81,70,86,123.61,6,15.00,-6.00,-991.00
2024-06-07 01:40:39.217896,0,0,25,0,0,0,71,73,81,70,86,123.62,6,-3.00,8.00,-982.00
2024-06-07 01:40:39.380132,0,0,25,0,0,0,71,73,81,70,86,123.65,6,-7.00,16.00,-988.00
2024-06-07 01:40:39.421891,0,0,25,0,0,0,71,73,81,70,86,123.62,6,-3.00,15.00,-994.00
2024-06-07 01:40:39.584328,0,0,25,0,0,0,71,73,81,70,86,123.65,6,-14.00,10.00,-979.00
2024-06-07 01:40:39.625964,0,0,25,0,0,0,71,73,81,70,86,123.60,7,21.00,-9.00,-1016.00
2024-06-07 01:40:39.727973,0,0,25,0,0,0,71,73,81,70,86,123.60,7,-18.00,19.00,-1000.00
2024-06-07 01:40:39.892171,0,0,25,0,0,0,71,73,81,70,86,123.59,7,-8.00,11.00,-991.00
2024-06-07 01:40:39.932141,0,0,25,0,0,0,71,73,81,70,86,123.62,7,0.00,9.00,-995.00
2024-06-07 01:40:40.095746,0,0,25,0,0,0,71,73,81,70,86,123.62,7,4.00,-4.00,-964.00
2024-06-07 01:40:40.135995,0,0,25,0,0,0,71,73,81,70,86,123.61,7,-1.00,14.00,-988.00
2024-06-07 01:40:40.300883,0,0,25,0,0,0,71,73,81,70,86,123.61,7,12.00,6.00,-989.00
2024-06-07 01:40:40.340114,0,0,25,0,0,0,71,73,81,70,86,123.59,7,4.00,15.00,-1026.00
2024-06-07 01:40:40.505569,0,0,25,0,0,0,71,73,81,70,86,123.63,7,2.00,13.00,-1007.00
2024-06-07 01:40:40.543924,0,0,25,0,0,0,71,73,81,70,86,123.59,7,1.00,11.00,-992.00
2024-06-07 01:40:40.710208,0,0,25,0,0,0,71,73,81,70,86,123.61,8,-3.00,10.00,-972.00
2024-06-07 01:40:40.748018,0,0,25,0,0,0,71,73,81,70,86,123.60,8,-26.00,16.00,-1009.00
2024-06-07 01:40:40.850873,0,0,25,0,0,0,71,73,81,70,86,123.61,8,-13.00,18.00,-986.00
2024-06-07 01:40:40.951784,0,0,25,0,0,0,71,73,81,70,86,123.63,8,-10.00,2.00,-988.00
2024-06-07 01:40:41.324931,0,0,25,0,0,0,71,73,81,70,86,123.57,8,0.00,17.00,-997.00
2024-06-07 01:40:41.444757,0,0,25,0,0,0,71,73,82,70,86,123.61,8,3.00,19.00,-1035.00
2024-06-07 01:40:41.444930,0,0,25,0,0,0,72,73,82,70,86,123.59,8,12.00,-4.00,-991.00
2024-06-07 01:40:41.447312,0,0,25,0,0,0,72,73,82,70,86,123.65,8,2.00,9.00,-1004.00
2024-06-07 01:40:41.464315,0,0,25,0,0,0,72,73,82,70,86,123.57,8,7.00,10.00,-1006.00
2024-06-07 01:40:41.565683,0,0,25,0,0,0,72,73,82,70,86,123.59,8,-30.00,12.00,-1002.00
2024-06-07 01:40:41.702656,0,0,25,0,0,0,72,73,82,70,86,123.62,9,0.00,13.00,-992.00
2024-06-07 01:40:41.788910,0,0,25,0,0,0,72,73,82,70,86,123.55,9,-28.00,8.00,-993.00
2024-06-07 01:40:41.879812,0,0,25,0,0,0,72,73,82,70,86,123.59,9,-7.00,9.00,-1083.00
2024-06-07 01:40:41.984854,0,0,25,0,0,-1,72,73,84,70,86,123.67,9,6.00,7.00,-1101.00
2024-06-07 01:40:42.073762,0,0,25,0,0,-2,72,73,86,70,86,123.66,9,-14.00,7.00,-1075.00
2024-06-07 01:40:42.175765,0,0,25,0,0,-3,72,73,90,70,86,123.72,9,8.00,11.00,-1089.00
2024-06-07 01:40:42.360108,0,0,25,0,0,-4,71,73,94,80,86,123.76,9,9.00,7.00,-1079.00
2024-06-07 01:40:42.360162,0,0,25,0,0,-4,71,73,98,80,86,123.82,9,20.00,17.00,-1077.00
2024-06-07 01:40:42.506437,0,0,25,0,0,-5,71,73,104,90,86,123.86,9,3.00,9.00,-1027.00
2024-06-07 01:40:42.535919,0,0,25,0,0,-5,71,73,109,90,86,123.83,9,-1.00,11.00,-1022.00
2024-06-07 01:40:42.666662,0,0,25,0,0,-5,71,73,115,100,86,123.91,10,9.00,2.00,-1009.00
2024-06-07 01:40:42.809767,0,0,25,0,0,-5,71,73,121,100,86,124.03,10,-1.00,17.00,-997.00
2024-06-07 01:40:42.860851,0,0,25,0,0,-5,71,73,126,110,86,124.02,10,20.00,-1.00,-990.00
2024-06-07 01:40:42.973713,0,0,25,0,0,-5,71,73,131,110,86,124.13,10,0.00,10.00,-976.00
2024-06-07 01:40:43.117053,0,0,25,0,0,-5,71,73,136,120,86,124.08,10,7.00,15.00,-977.00
2024-06-07 01:40:43.145415,0,0,25,0,0,-4,71,73,142,120,86,124.19,10,-10.00,9.00,-965.00
2024-06-07 01:40:43.287310,0,0,25,0,0,-4,72,74,147,130,86,124.24,10,5.00,0.00,-976.00
2024-06-07 01:40:43.442993,0,0,25,0,0,-4,72,74,151,130,86,124.26,10,-22.00,16.00,-953.00
2024-06-07 01:40:43.450683,0,0,25,0,0,-3,72,74,155,140,86,124.32,10,1.00,9.00,-978.00
2024-06-07 01:40:43.578035,0,0,25,0,0,-3,72,74,158,140,86,124.32,10,-13.00,14.00,-959.00
2024-06-07 01:40:43.654724,0,0,25,0,0,-3,72,74,163,140,86,124.37,11,-1.00,13.00,-958.00
2024-06-07 01:40:43.756585,0,0,25,0,0,-2,72,74,165,150,86,124.37,11,-6.00,17.00,-971.00
2024-06-07 01:40:43.884378,0,0,25,0,0,-2,72,74,167,150,86,124.42,11,-9.00,19.00,-968.00
2024-06-07 01:40:43.960616,0,0,25,0,0,-2,72,74,171,150,86,124.42,11,13.00,12.00,-975.00
2024-06-07 01:40:44.089107,0,0,25,0,0,-2,72,74,171,150,86,124.42,11,5.00,14.00,-984.00
2024-06-07 01:40:44.164573,0,0,25,0,0,-1,72,74,173,160,86,124.41,11,12.00,0.00,-967.00
2024-06-07 01:40:44.295323,0,0,25,0,0,-1,71,74,176,160,86,124.51,11,2.00,3.00,-977.00
2024-06-07 01:40:44.369267,0,0,25,0,0,-1,71,74,177,160,86,124.47,11,-5.00,14.00,-979.00
2024-06-07 01:40:44.470977,0,0,25,0,0,-1,71,74,178,160,86,124.49,11,7.00,3.00,-985.00
2024-06-07 01:40:44.602724,0,0,25,0,0,0,71,74,180,160,86,124.47,11,1.00,23.00,-998.00
2024-06-07 01:40:44.674793,0,0,25,0,0,0,71,74,181,160,86,124.50,12,-5.00,13.00,-974.00
2024-06-07 01:40:44.808246,0,0,25,0,0,0,71,74,182,160,86,124.47,12,-7.00,-4.00,-969.00
2024-06-07 01:40:44.879981,0,0,25,0,0,0,71,74,181,160,86,124.51,12,-1.00,32.00,-993.00
2024-06-07 01:40:45.012639,0,0,25,0,0,0,71,74,181,160,86,124.46,12,-8.00,11.00,-990.00
2024-06-07 01:40:45.083828,0,0,25,0,0,0,71,74,182,160,86,124.50,12,-1.00,5.00,-998.00
2024-06-07 01:40:45.184690,0,0,25,0,0,0,71,74,182,160,86,124.51,12,-9.00,3.00,-979.00
2024-06-07 01:40:45.318047,0,0,25,0,0,0,71,73,182,160,86,124.46,12,-1.00,9.00,-1005.00
2024-06-07 01:40:45.388701,0,0,25,0,0,0,71,73,181,160,86,124.44,12,1.00,15.00,-997.00
2024-06-07 01:40:45.523464,0,0,25,0,0,0,71,73,182,160,86,124.50,12,-18.00,23.00,-991.00
2024-06-07 01:40:45.592584,0,0,25,0,0,0,71,73,182,160,86,124.43,12,4.00,19.00,-1004.00
2024-06-07 01:40:45.694523,0,0,25,0,0,0,71,73,182,160,86,124.43,13,12.00,-5.00,-1008.00
2024-06-07 01:40:45.830068,0,0,25,0,0,0,71,73,180,160,86,124.47,13,-19.00,10.00,-991.00
2024-06-07 01:40:45.847420,0,0,25,0,0,0,71,73,182,160,86,124.48,13,7.00,20.00,-1013.00
2024-06-07 01:40:46.035419,0,0,25,0,0,0,71,73,182,160,86,124.44,13,-10.00,3.00,-1018.00
2024-06-07 01:40:46.051648,0,0,25,0,0,0,71,73,182,160,86,124.48,13,-1.00,12.00,-996.00
2024-06-07 01:40:46.153548,0,0,25,0,0,0,71,73,182,160,86,124.45,13,2.00,0.00,-1002.00
2024-06-07 01:40:46.257328,0,0,25,0,0,0,72,74,181,160,86,124.47,13,0.00,18.00,-975.00
2024-06-07 01:40:46.359395,0,0,25,0,0,0,72,74,182,160,86,124.48,13,3.00,9.00,-1002.00
2024-06-07 01:40:46.460068,0,0,25,0,0,0,72,74,182,160,86,124.43,13,20.00,4.00,-1016.00
2024-06-07 01:40:46.561717,0,0,25,0,0,0,72,74,182,160,86,124.47,13,-20.00,18.00,-1003.00
2024-06-07 01:40:46.719130,0,0,25,0,0,0,72,74,182,160,86,124.46,14,-10.00,-5.00,-955.00
2024-06-07 01:40:46.765319,0,0,25,0,0,0,72,74,181,160,86,124.41,14,-9.00,15.00,-938.00
2024-06-07 01:40:46.958480,0,0,25,0,0,1,72,74,180,160,86,124.44,14,1.00,1.00,-932.00
2024-06-07 01:40:46.973903,0,0,25,0,0,1,72,74,179,160,86,124.38,14,10.00,-7.00,-941.00
2024-06-07 01:40:47.074036,0,0,25,0,0,2,72,74,175,160,86,124.32,14,5.00,4.00,-983.00
2024-06-07 01:40:47.176935,0,0,25,0,0,2,72,74,173,160,86,124.37,14,-32.00,26.00,-974.00
2024-06-07 01:40:47.275920,0,0,25,0,0,2,71,74,171,160,86,124.31,14,-8.00,14.00,-987.00
2024-06-07 01:40:47.468903,0,0,25,0,0,2,71,74,169,150,86,124.32,14,0.00,4.00,-989.00
2024-06-07 01:40:47.483941,0,0,25,0,0,2,71,74,165,150,86,124.32,14,-10.00,17.00,-1003.00
2024-06-07 01:40:47.581300,0,0,25,0,0,2,71,74,163,150,86,124.28,14,2.00,18.00,-1022.00
2024-06-07 01:40:47.775557,0,0,25,0,0,2,71,74,160,150,86,124.24,15,-32.00,19.00,-1005.00
2024-06-07 01:40:47.786552,0,-1,25,0,0,2,71,74,158,140,86,124.17,15,1.00,19.00,-1017.00
2024-06-07 01:40:47.888749,0,-1,25,0,0,2,71,74,156,140,86,124.23,15,2.00,16.00,-1003.00
2024-06-07 01:40:47.989242,0,0,25,0,0,2,71,74,153,140,86,124.15,15,-3.00,6.00,-1030.00
2024-06-07 01:40:48.185003,0,0,25,0,0,2,71,74,151,140,86,124.14,15,-5.00,7.00,-1022.00
2024-06-07 01:40:48.193173,0,0,25,0,0,2,71,74,149,130,86,124.15,15,-11.00,3.00,-989.00
2024-06-07 01:40:48.390148,0,0,25,0,0,1,72,74,147,130,86,124.09,15,4.00,11.00,-1026.00
2024-06-07 01:40:48.397169,0,0,25,0,0,1,72,74,145,130,86,124.12,15,3.00,12.00,-1014.00
2024-06-07 01:40:48.594540,0,0,25,0,0,1,72,74,143,130,86,124.13,15,-18.00,18.00,-1007.00
2024-06-07 01:40:48.601159,0,0,25,0,0,1,72,74,142,130,86,124.05,15,8.00,3.00,-1021.00
2024-06-07 01:40:48.799383,0,0,25,0,0,1,72,74,141,130,86,124.09,16,-20.00,21.00,-1021.00
2024-06-07 01:40:48.805058,0,-1,25,0,0,1,72,74,139,120,86,124.00,16,-5.00,19.00,-1009.00
2024-06-07 01:40:49.004120,0,-1,25,0,0,1,72,74,138,120,86,124.05,16,-8.00,11.00,-1000.00
2024-06-07 01:40:49.009977,0,-1,25,0,0,1,72,74,137,120,86,124.10,16,-10.00,11.00,-1008.00
2024-06-07 01:40:49.111151,0,0,25,0,0,0,72,74,136,120,86,124.05,16,11.00,1.00,-1016.00
2024-06-07 01:40:49.213177,0,0,25,0,0,0,72,74,135,120,86,124.00,16,8.00,5.00,-995.00
2024-06-07 01:40:49.331206,0,0,25,0,0,0,71,74,134,120,86,123.97,16,4.00,7.00,-1028.00
2024-06-07 01:40:49.418747,0,0,25,0,0,0,71,74,134,120,86,123.98,16,0.00,7.00,-1012.00
2024-06-07 01:40:49.523634,0,0,25,0,0,0,71,74,134,120,86,124.01,16,18.00,10.00,-1008.00
2024-06-07 01:40:49.570477,0,0,25,0,0,0,71,74,134,120,86,123.98,16,-9.00,13.00,-1009.00
2024-06-07 01:40:49.721071,0,0,25,0,0,0,71,74,133,120,86,124.10,17,4.00,4.00,-1008.00
2024-06-07 01:40:49.774276,0,0,25,0,0,0,71,74,134,120,86,123.99,17,0.00,7.00,-998.00
2024-06-07 01:40:49.928965,0,0,25,0,0,0,71,74,134,120,86,124.02,17,8.00,14.00,-1008.00
2024-06-07 01:40:49.978409,0,0,25,0,0,0,71,74,134,120,86,124.01,17,27.00,4.00,-995.00
2024-06-07 01:40:50.131254,0,0,25,0,0,0,71,74,134,120,86,124.04,17,-5.00,5.00,-1012.00
2024-06-07 01:40:50.182206,0,0,25,0,0,0,71,74,134,120,86,123.97,17,-3.00,13.00,-983.00
2024-06-07 01:40:50.284383,0,0,25,0,0,0,71,74,134,120,86,123.98,17,2.00,18.00,-1005.00
2024-06-07 01:40:50.386391,0,0,25,0,0,0,71,74,134,120,86,124.03,17,0.00,9.00,-1001.00
2024-06-07 01:40:50.489065,0,0,25,0,0,0,71,74,135,120,86,123.95,17,9.00,4.00,-979.00
2024-06-07 01:40:50.642726,0,0,25,0,0,0,71,74,135,120,86,123.99,17,13.00,5.00,-1008.00
2024-06-07 01:40:50.693434,0,0,25,0,0,0,71,74,134,120,86,123.97,18,-10.00,13.00,-1001.00
2024-06-07 01:40:50.794480,0,0,25,0,0,0,71,74,135,120,86,123.96,18,-9.00,12.00,-987.00
2024-06-07 01:40:50.952717,0,0,25,0,0,0,71,74,135,120,86,123.99,18,4.00,7.00,-995.00
2024-06-07 01:40:50.998122,0,0,25,0,0,0,71,74,134,120,86,123.99,18,-8.00,5.00,-1008.00
2024-06-07 01:40:51.154553,0,0,25,0,0,0,71,74,134,120,86,124.04,18,-19.00,19.00,-1009.00
2024-06-07 01:40:51.202022,0,0,25,0,0,0,71,74,134,120,86,124.05,18,-13.00,11.00,-1029.00
2024-06-07 01:40:51.359418,-2,0,25,0,0,0,72,73,134,120,86,123.99,18,-11.00,4.00,-990.00
2024-06-07 01:40:51.406070,-7,0,25,0,0,0,72,73,134,120,86,124.00,18,-9.00,5.00,-997.00
2024-06-07 01:40:51.508102,-8,0,25,1,0,0,72,73,136,120,86,124.03,18,-5.00,6.00,-1003.00
2024-06-07 01:40:51.610080,-8,0,25,3,1,0,72,73,136,120,86,123.99,19,9.00,14.00,-1002.00
2024-06-07 01:40:51.712211,-8,0,25,4,2,0,72,73,137,120,86,123.99,19,-7.00,5.00,-1008.00
2024-06-07 01:40:51.814049,-7,0,25,5,2,0,72,73,136,120,86,123.95,19,-20.00,4.00,-1002.00
2024-06-07 01:40:51.916094,-6,0,25,6,2,0,72,73,138,120,86,123.94,19,-35.00,7.00,-1011.00
2024-06-07 01:40:52.017999,-5,0,25,6,3,0,72,73,137,120,86,124.00,19,-23.00,0.00,-1001.00
2024-06-07 01:40:52.178426,-4,0,25,7,3,0,72,73,137,120,86,123.93,19,-45.00,8.00,-995.00
2024-06-07 01:40:52.221954,-1,0,25,7,3,0,72,73,139,120,86,123.92,19,-48.00,7.00,-1008.00
2024-06-07 01:40:52.333903,1,0,25,6,3,0,72,74,140,120,86,123.96,19,-57.00,13.00,-1013.00
2024-06-07 01:40:52.426001,3,0,25,5,2,0,72,74,141,120,86,123.98,19,-51.00,-2.00,-994.00
2024-06-07 01:40:52.588321,4,0,25,5,2,0,72,74,141,120,86,123.97,19,-40.00,-10.00,-969.00
2024-06-07 01:40:52.630004,3,0,25,4,1,0,72,74,141,120,86,124.04,20,-16.00,6.00,-1026.00
2024-06-07 01:40:52.792815,1,0,25,3,1,0,72,74,142,120,86,123.98,20,-19.00,14.00,-990.00
2024-06-07 01:40:52.834108,0,0,25,3,1,0,72,74,143,120,86,123.97,20,-16.00,5.00,-981.00
2024-06-07 01:40:52.997469,0,0,25,2,1,0,72,74,143,120,86,124.02,20,-24.00,11.00,-970.00
2024-06-07 01:40:53.038028,0,0,25,2,1,0,72,74,144,120,86,124.05,20,-10.00,9.00,-997.00
2024-06-07 01:40:53.202374,0,0,25,2,1,0,72,74,143,120,86,124.02,20,0.00,-9.00,-977.00
2024-06-07 01:40:53.246944,0,-1,25,2,1,0,72,74,143,120,86,124.01,20,-11.00,11.00,-950.00
2024-06-07 01:40:53.344006,0,-3,25,2,0,0,72,75,143,120,86,124.04,20,-18.00,1.00,-999.00
2024-06-07 01:40:53.509381,1,-1,25,2,0,0,72,75,143,120,86,124.05,20,9.00,-6.00,-978.00
2024-06-07 01:40:53.547900,4,1,25,1,0,0,72,75,143,120,86,124.10,20,-23.00,15.00,-1014.00
2024-06-07 01:40:53.714281,2,0,25,0,0,0,72,75,142,120,86,124.08,21,23.00,6.00,-1020.00
2024-06-07 01:40:53.752031,1,0,25,0,0,0,72,75,141,120,86,124.09,21,-13.00,3.00,-986.00
2024-06-07 01:40:53.919273,0,0,25,0,0,0,72,75,139,120,86,124.05,21,-3.00,15.00,-1002.00
2024-06-07 01:40:53.919481,0,0,25,0,0,0,72,75,139,120,86,123.99,21,17.00,0.00,-1004.00
2024-06-07 01:40:54.006810,0,0,25,0,0,0,72,75,137,120,86,124.08,21,-16.00,18.00,-1002.00
2024-06-07 01:40:54.124428,0,0,25,0,0,0,72,75,136,120,86,123.98,21,4.00,13.00,-996.00
2024-06-07 01:40:54.210847,0,0,25,0,0,0,72,75,136,120,86,123.94,21,-8.00,24.00,-1028.00
2024-06-07 01:40:54.329144,0,0,25,0,0,0,73,75,134,120,86,124.00,21,-3.00,3.00,-1000.00
2024-06-07 01:40:54.414800,0,0,25,0,0,0,73,75,133,120,86,124.01,21,-12.00,0.00,-1002.00
2024-06-07 01:40:54.533881,0,0,25,0,0,0,73,75,132,120,86,123.98,21,-35.00,24.00,-1005.00
2024-06-07 01:40:54.622024,0,0,25,0,0,0,73,75,131,120,86,123.97,22,6.00,-9.00,-975.00
2024-06-07 01:40:54.720768,0,0,25,0,0,0,73,75,131,120,86,123.97,22,-18.00,21.00,-1036.00
2024-06-07 01:40:54.841139,0,0,25,0,0,0,73,75,130,120,86,123.95,22,-9.00,17.00,-1035.00
2024-06-07 01:40:54.924778,0,0,25,0,0,0,73,75,131,120,86,124.03,22,4.00,0.00,-999.00
2024-06-07 01:40:55.045847,0,0,25,0,0,0,73,75,130,120,86,123.98,22,10.00,4.00,-1008.00
2024-06-07 01:40:55.128672,0,0,25,0,0,0,73,75,131,120,86,124.04,22,-22.00,11.00,-1021.00
2024-06-07 01:40:55.250273,0,0,25,0,0,0,73,75,130,120,86,123.98,22,-16.00,22.00,-1016.00
2024-06-07 01:40:55.332781,0,0,25,0,0,0,72,74,131,120,86,123.98,22,-1.00,2.00,-999.00
2024-06-07 01:40:55.455231,0,0,25,0,0,0,72,74,131,120,86,123.98,22,-2.00,3.00,-985.00
2024-06-07 01:40:55.537097,0,0,25,0,0,0,72,74,131,120,86,123.98,22,6.00,13.00,-1011.00
2024-06-07 01:40:55.660113,0,0,25,0,0,0,72,74,133,120,86,124.04,23,-8.00,2.00,-991.00
2024-06-07 01:40:55.740520,0,0,25,0,0,0,72,74,133,120,86,124.01,23,-9.00,11.00,-987.00
2024-06-07 01:40:55.864723,0,0,25,0,0,0,72,74,134,120,86,123.99,23,15.00,6.00,-979.00
2024-06-07 01:40:55.945571,4,0,25,0,0,0,72,74,135,120,86,124.03,23,15.00,7.00,-994.00
2024-06-07 01:40:56.069978,8,0,25,-1,0,0,72,74,137,120,86,124.00,23,-7.00,14.00,-1001.00
2024-06-07 01:40:56.186175,8,0,25,-2,-1,0,72,74,136,120,86,124.09,23,16.00,0.00,-983.00
2024-06-07 01:40:56.329484,8,0,25,-3,-1,0,72,74,137,120,86,124.07,23,14.00,13.00,-1020.00
2024-06-07 01:40:56.352700,7,0,25,-4,-2,0,73,74,137,120,86,124.03,23,36.00,9.00,-1015.00
2024-06-07 01:40:56.505829,6,0,25,-5,-2,0,73,74,137,120,86,124.08,23,43.00,9.00,-1007.00
2024-06-07 01:40:56.615313,5,0,25,-6,-3,0,73,74,137,120,86,124.04,23,26.00,14.00,-1029.00
2024-06-07 01:40:56.658570,5,0,25,-6,-3,0,73,74,137,120,86,124.03,24,36.00,7.00,-996.00
2024-06-07 01:40:56.829421,3,0,25,-7,-3,0,73,74,137,120,86,123.93,24,42.00,12.00,-991.00
2024-06-07 01:40:56.875463,0,0,25,-7,-3,0,73,74,137,120,86,123.93,24,47.00,4.00,-998.00
2024-06-07 01:40:56.980875,-2,0,25,-6,-3,0,73,74,137,120,86,124.00,24,51.00,-3.00,-1010.00
2024-06-07 01:40:57.066323,-4,0,25,-5,-2,0,73,74,137,120,86,123.98,24,25.00,10.00,-988.00
2024-06-07 01:40:57.217981,-4,0,25,-4,-2,0,73,74,137,120,86,123.99,24,18.00,21.00,-1034.00
2024-06-07 01:40:57.270530,-3,0,25,-3,-2,0,73,74,137,120,86,123.94,24,23.00,5.00,-999.00
2024-06-07 01:40:57.413076,-1,0,25,-3,-1,0,72,75,137,120,86,123.95,24,-5.00,14.00,-986.00
2024-06-07 01:40:57.556425,-1,0,25,-2,-1,0,72,75,138,120,86,123.99,24,9.00,2.00,-982.00
2024-06-07 01:40:57.576557,0,0,25,-2,-1,0,72,75,138,120,86,124.05,24,26.00,14.00,-999.00
2024-06-07 01:40:57.718538,0,0,25,-2,-1,0,72,75,138,120,86,124.02,25,5.00,14.00,-996.00
2024-06-07 01:40:57.729440,0,0,25,-2,-1,0,72,75,139,120,86,124.01,25,8.00,0.00,-1016.00
2024-06-07 01:40:57.861820,0,2,25,-2,0,0,72,75,138,120,86,124.03,25,26.00,13.00,-968.00
2024-06-07 01:40:58.025863,-1,0,25,-2,0,0,72,75,138,120,86,123.92,25,14.00,13.00,-1030.00
2024-06-07 01:40:58.039443,-4,-2,25,-1,0,0,72,75,139,120,86,123.99,25,36.00,-13.00,-968.00
2024-06-07 01:40:58.169344,-2,-1,25,0,0,0,72,75,139,120,86,124.00,25,10.00,2.00,-1009.00
2024-06-07 01:40:58.333070,-1,0,25,0,0,0,72,75,139,120,86,124.06,25,5.00,3.00,-1004.00
2024-06-07 01:40:58.342306,0,0,25,0,0,0,71,75,139,120,86,124.03,25,-5.00,28.00,-1015.00
2024-06-07 01:40:58.527007,0,0,25,0,0,0,71,75,140,120,86,124.05,25,10.00,9.00,-1009.00
2024-06-07 01:40:58.547214,0,0,25,0,0,0,71,75,141,120,86,124.06,25,-3.00,17.00,-988.00
2024-06-07 01:40:58.731974,0,0,25,0,0,0,71,75,140,120,86,124.03,26,-7.00,10.00,-973.00
2024-06-07 01:40:58.750301,0,0,25,0,0,0,71,75,141,120,86,124.10,26,-28.00,21.00,-993.00
2024-06-07 01:40:58.937205,0,-1,25,0,0,0,71,75,141,120,86,124.11,26,-6.00,7.00,-979.00
2024-06-07 01:40:58.954545,0,0,25,0,0,0,71,75,141,120,86,124.10,26,14.00,-2.00,-961.00
2024-06-07 01:40:59.141597,0,-1,25,0,0,0,71,75,140,120,86,124.09,26,-1.00,12.00,-999.00
2024-06-07 01:40:59.158537,0,0,25,0,0,0,71,75,140,120,86,124.08,26,0.00,16.00,-1011.00
2024-06-07 01:40:59.346152,0,0,25,0,0,0,71,75,139,120,86,124.10,26,2.00,6.00,-978.00
2024-06-07 01:40:59.362320,0,0,25,0,0,0,73,74,139,120,86,124.07,26,0.00,11.00,-1007.00
2024-06-07 01:40:59.550947,0,0,25,0,0,0,73,74,139,120,86,123.99,26,-6.00,11.00,-1000.00
2024-06-07 01:40:59.566220,0,0,25,0,0,0,73,74,138,120,86,124.05,26,-8.00,22.00,-1005.00
2024-06-07 01:40:59.756453,0,0,25,0,0,0,73,74,138,120,86,124.06,27,-9.00,6.00,-998.00
2024-06-07 01:40:59.770353,0,0,25,0,0,0,73,74,138,120,86,123.97,27,8.00,-3.00,-1005.00
2024-06-07 01:40:59.961526,0,0,25,0,0,0,73,74,137,120,86,123.99,27,-1.00,19.00,-996.00
2024-06-07 01:40:59.974197,0,0,25,0,0,0,73,74,137,120,86,124.02,27,-8.00,23.00,-1035.00
2024-06-07 01:41:00.168663,0,0,25,0,0,0,73,74,137,120,86,124.00,27,-11.00,9.00,-1002.00
2024-06-07 01:41:00.178785,0,0,25,0,0,0,73,74,136,120,86,124.00,27,-7.00,-6.00,-978.00
2024-06-07 01:41:00.370080,0,0,25,0,0,0,73,74,136,120,86,124.04,27,-6.00,3.00,-981.00
2024-06-07 01:41:00.382481,0,-2,25,0,0,0,72,75,136,120,86,124.01,27,15.00,5.00,-1013.00
2024-06-07 01:41:00.575504,0,-8,25,0,0,0,72,75,137,120,86,124.00,27,1.00,0.00,-1022.00
2024-06-07 01:41:00.586225,0,-7,25,1,-1,0,72,75,135,120,86,124.00,27,-6.00,28.00,-1011.00
2024-06-07 01:41:00.779552,0,-5,25,1,-2,0,72,75,135,120,86,124.11,28,-8.00,22.00,-997.00
2024-06-07 01:41:00.789945,0,-3,25,1,-3,0,72,75,134,120,86,124.06,28,21.00,19.00,-1014.00
2024-06-07 01:41:00.984401,0,0,25,1,-3,0,72,75,134,120,86,124.02,28,-29.00,46.00,-992.00
2024-06-07 01:41:00.994050,0,0,25,1,-3,0,72,75,134,120,86,124.02,28,-9.00,21.00,-975.00
2024-06-07 01:41:01.189136,0,0,25,1,-2,0,72,75,134,120,86,124.04,28,17.00,31.00,-1009.00
2024-06-07 01:41:01.198345,0,0,25,1,-2,0,72,75,134,120,86,124.03,28,-22.00,29.00,-998.00
2024-06-07 01:41:01.411431,0,-1,25,1,-2,0,72,75,134,120,86,123.99,28,11.00,24.00,-1025.00
2024-06-07 01:41:01.411600,0,-1,25,1,-2,0,72,75,134,120,86,124.00,28,9.00,34.00,-1014.00
2024-06-07 01:41:01.504017,0,-1,25,1,-2,0,72,75,134,120,86,124.02,28,-14.00,26.00,-992.00
2024-06-07 01:41:01.701094,0,-1,25,1,-2,0,72,75,134,120,86,124.03,28,-7.00,29.00,-1008.00
2024-06-07 01:41:01.701331,0,-1,25,0,-2,0,72,75,135,120,86,124.06,29,7.00,17.00,-1015.00
2024-06-07 01:41:01.769848,0,-1,25,0,-2,0,72,75,134,120,86,124.01,29,-11.00,28.00,-984.00
2024-06-07 01:41:01.861084,0,0,25,1,-2,0,72,75,135,120,86,124.02,29,-3.00,35.00,-1005.00
2024-06-07 01:41:01.963193,2,0,25,0,-2,0,72,75,135,120,86,123.99,29,-11.00,20.00,-986.00
2024-06-07 01:41:02.065221,1,0,25,0,-2,0,72,75,134,120,86,123.93,29,16.00,3.00,-1006.00
2024-06-07 01:41:02.167432,0,2,25,0,-1,0,72,75,134,120,86,123.97,29,8.00,22.00,-968.00
2024-06-07 01:41:02.316378,-1,3,25,0,-1,0,72,75,133,120,86,124.00,29,21.00,8.00,-1021.00
2024-06-07 01:41:02.371754,0,1,25,0,0,0,73,75,132,120,86,123.95,29,0.00,15.00,-998.00
2024-06-07 01:41:02.520579,0,0,25,0,0,0,73,75,132,120,86,123.93,29,6.00,12.00,-992.00
2024-06-07 01:41:02.575334,0,0,25,0,0,0,73,75,131,120,86,123.95,29,-17.00,21.00,-986.00
2024-06-07 01:41:02.677346,0,0,25,0,0,0,73,75,130,120,86,123.90,30,9.00,-2.00,-1014.00
2024-06-07 01:41:02.828565,0,0,25,0,0,0,73,75,130,120,86,123.97,30,5.00,-1.00,-1020.00
2024-06-07 01:41:02.881318,0,0,25,0,0,0,73,75,130,120,86,123.96,30,-4.00,20.00,-1014.00
2024-06-07 01:41:03.033371,0,0,25,0,0,0,73,75,130,120,86,123.93,30,3.00,4.00,-1021.00
2024-06-07 01:41:03.085926,0,0,25,0,0,0,73,75,129,120,86,123.96,30,4.00,8.00,-1008.00
2024-06-07 01:41:03.237319,0,0,25,0,0,0,73,75,130,120,86,123.94,30,-7.00,8.00,-1013.00
2024-06-07 01:41:03.290047,0,0,25,0,0,0,73,75,130,120,86,123.95,30,3.00,0.00,-994.00
2024-06-07 01:41:03.441956,0,0,25,0,0,0,73,75,130,120,86,123.97,30,-18.00,8.00,-998.00
2024-06-07 01:41:03.493214,0,0,25,0,0,0,73,75,130,120,86,123.95,30,-5.00,0.00,-989.00
2024-06-07 01:41:03.595591,0,0,25,0,0,0,73,75,130,120,86,123.96,30,16.00,9.00,-993.00
2024-06-07 01:41:03.697829,0,0,25,0,0,0,73,75,131,120,86,123.90,31,-19.00,9.00,-987.00
2024-06-07 01:41:03.800655,0,0,25,0,0,0,73,75,131,120,86,123.97,31,-13.00,14.00,-1018.00
2024-06-07 01:41:03.901140,0,0,25,0,0,0,73,75,131,120,86,123.95,31,-10.00,-3.00,-1002.00
2024-06-07 01:41:04.003270,0,0,25,0,0,0,73,75,132,120,86,123.96,31,-12.00,12.00,-997.00
2024-06-07 01:41:04.105238,0,0,25,0,0,0,73,75,132,120,86,124.00,31,4.00,-4.00,-992.00
2024-06-07 01:41:04.207598,0,0,25,0,0,0,73,75,133,120,86,123.97,31,-23.00,18.00,-984.00
2024-06-07 01:41:04.322819,0,0,25,0,0,0,73,75,133,120,86,124.05,31,-5.00,7.00,-996.00
2024-06-07 01:41:04.410969,0,0,25,0,0,0,73,75,133,120,86,124.03,31,17.00,1.00,-989.00
2024-06-07 01:41:04.569829,0,0,25,0,0,0,73,75,134,120,86,124.07,31,-15.00,-4.00,-1054.00
2024-06-07 01:41:04.614906,0,4,25,0,0,0,73,75,137,120,86,123.97,31,9.00,14.00,-957.00
2024-06-07 01:41:04.716966,0,8,25,0,1,0,73,75,136,120,86,124.08,32,5.00,1.00,-1005.00
2024-06-07 01:41:04.818871,0,6,25,-1,2,0,73,75,134,120,86,124.06,32,-4.00,-14.00,-1014.00
2024-06-07 01:41:04.920968,0,3,25,-1,3,0,73,75,133,120,86,124.12,32,11.00,-5.00,-974.00
2024-06-07 01:41:05.022864,0,0,25,-1,3,0,73,75,134,120,86,124.03,32,-1.00,-24.00,-996.00
2024-06-07 01:41:05.073681,0,-1,25,-1,3,0,73,75,133,120,86,123.98,32,3.00,-15.00,-1024.00
2024-06-07 01:41:05.176433,0,-1,25,-1,2,0,73,75,133,120,86,124.02,32,20.00,-21.00,-1012.00
2024-06-07 01:41:05.277929,0,0,25,-1,2,0,73,75,133,120,86,124.00,32,0.00,-16.00,-989.00
2024-06-07 01:41:05.430786,0,0,25,-1,2,0,73,75,133,120,86,123.99,32,8.00,-12.00,-1012.00
2024-06-07 01:41:05.593576,0,0,25,-1,2,0,73,75,133,120,86,124.01,32,0.00,-9.00,-991.00
2024-06-07 01:41:05.635386,0,0,25,-1,2,0,73,75,134,120,86,124.00,33,2.00,-13.00,-991.00
2024-06-07 01:41:05.737057,0,0,25,-1,2,0,73,75,134,120,86,124.04,33,3.00,-12.00,-989.00
2024-06-07 01:41:05.899411,-2,0,25,-1,2,0,73,75,135,120,86,124.10,33,3.00,-10.00,-1031.00
2024-06-07 01:41:05.899872,-2,0,25,0,2,0,73,75,135,120,86,124.02,33,-15.00,-7.00,-1003.00
2024-06-07 01:41:05.991696,-1,0,25,0,2,0,73,75,136,120,86,124.03,33,5.00,-21.00,-991.00
2024-06-07 01:41:06.104341,1,-4,25,0,2,0,73,75,137,120,86,124.08,33,-9.00,5.00,-1018.00
2024-06-07 01:41:06.196558,1,-5,25,0,1,0,73,75,138,120,86,124.03,33,-4.00,-5.00,-987.00
2024-06-07 01:41:06.309165,0,-3,25,0,0,0,73,75,138,120,86,124.04,33,-20.00,-4.00,-992.00
2024-06-07 01:41:06.399849,0,-1,25,0,0,0,73,75,136,120,86,123.97,33,9.00,-7.00,-1032.00
2024-06-07 01:41:06.514001,0,0,25,0,0,0,73,75,136,120,86,124.06,33,8.00,4.00,-1001.00
2024-06-07 01:41:06.603701,0,0,25,0,0,0,73,75,137,120,86,124.05,34,-4.00,2.00,-988.00
2024-06-07 01:41:06.718449,0,0,25,0,0,0,73,75,136,120,86,124.06,34,-30.00,1.00,-958.00
2024-06-07 01:41:06.807721,0,-1,25,0,0,0,73,75,137,120,86,124.03,34,-12.00,26.00,-1012.00
2024-06-07 01:41:06.923639,0,-1,25,0,0,0,73,75,136,120,86,124.02,34,-12.00,0.00,-978.00
2024-06-07 01:41:07.011597,0,-1,25,0,0,0,73,75,136,120,86,123.95,34,6.00,16.00,-1000.00
2024-06-07 01:41:07.126562,0,0,25,0,0,0,73,75,135,120,86,124.05,34,-14.00,2.00,-985.00
2024-06-07 01:41:07.216429,0,0,25,0,0,0,73,75,135,120,86,124.01,34,-8.00,6.00,-990.00
2024-06-07 01:41:07.337300,0,0,25,0,0,0,73,75,135,120,86,124.02,34,-1.00,14.00,-1017.00
2024-06-07 01:41:07.419727,0,0,25,0,0,0,73,75,135,120,85,124.04,34,-3.00,0.00,-997.00
2024-06-07 01:41:07.539873,0,0,25,0,0,0,73,75,134,120,85,124.03,34,6.00,4.00,-989.00
2024-06-07 01:41:07.623719,0,0,25,0,0,0,73,75,134,120,85,123.97,35,-2.00,8.00,-1040.00
2024-06-07 01:41:07.725579,0,0,25,0,0,0,73,75,135,120,85,123.98,35,14.00,1.00,-1002.00
2024-06-07 01:41:07.828411,0,0,25,0,0,0,73,75,136,120,85,124.04,35,18.00,9.00,-1024.00
2024-06-07 01:41:07.949516,0,0,25,0,0,0,73,75,136,120,85,123.98,35,-1.00,0.00,-998.00
2024-06-07 01:41:08.031640,0,0,25,0,0,0,73,75,137,120,85,123.98,35,0.00,-3.00,-969.00
2024-06-07 01:41:08.152272,0,0,25,0,0,0,73,75,138,120,85,124.05,35,6.00,-3.00,-989.00
2024-06-07 01:41:08.236000,0,0,25,0,0,0,73,75,138,120,85,124.05,35,19.00,3.00,-1015.00
2024-06-07 01:41:08.337940,0,0,25,0,0,0,73,75,140,120,85,124.05,35,-6.00,4.00,-989.00
2024-06-07 01:41:08.439512,0,0,26,0,0,0,73,75,140,120,85,124.04,35,16.00,-10.00,-981.00
2024-06-07 01:41:08.562021,0,0,31,0,0,0,73,75,141,120,85,124.05,35,-4.00,9.00,-971.00
2024-06-07 01:41:08.647111,0,-1,37,0,0,0,73,75,141,120,85,124.01,36,12.00,-9.00,-987.00
2024-06-07 01:41:08.746033,0,-1,43,0,0,0,73,75,141,120,85,124.04,36,-4.00,13.00,-997.00
2024-06-07 01:41:08.848518,0,-1,49,0,0,0,73,75,142,120,85,124.05,36,-11.00,15.00,-977.00
2024-06-07 01:41:08.971241,0,-1,55,0,0,0,73,75,141,120,85,124.09,36,-12.00,21.00,-983.00
2024-06-07 01:41:09.052359,0,-1,61,0,0,0,73,75,141,120,85,124.05,36,9.00,22.00,-1010.00
2024-06-07 01:41:09.180914,0,-1,67,0,0,0,73,75,140,120,85,124.06,36,-10.00,18.00,-962.00
2024-06-07 01:41:09.255358,0,-1,73,0,0,0,73,75,139,120,85,124.05,36,-6.00,14.00,-989.00
2024-06-07 01:41:09.357495,0,-1,79,0,0,0,73,75,138,120,85,124.04,36,3.00,22.00,-1014.00
2024-06-07 01:41:09.483972,0,0,85,0,0,0,74,75,137,120,85,124.02,36,-3.00,15.00,-968.00
2024-06-07 01:41:09.561389,0,0,91,0,0,0,74,75,136,120,85,124.01,36,1.00,18.00,-1001.00
2024-06-07 01:41:09.690234,0,0,97,0,0,0,74,75,136,120,85,124.01,37,-21.00,28.00,-996.00
2024-06-07 01:41:09.714564,0,0,103,0,0,0,74,75,134,120,85,123.97,37,-12.00,16.00,-1011.00
2024-06-07 01:41:09.893090,0,0,109,0,0,0,74,75,134,120,85,123.96,37,6.00,14.00,-1026.00
2024-06-07 01:41:09.918558,0,0,115,0,0,0,74,75,133,120,85,123.96,37,12.00,27.00,-1056.00
2024-06-07 01:41:10.100178,0,0,121,0,0,0,74,75,133,120,85,124.01,37,-5.00,22.00,-1015.00
2024-06-07 01:41:10.122410,0,0,127,0,0,0,74,75,132,120,85,124.00,37,-7.00,21.00,-1013.00
2024-06-07 01:41:10.224441,0,0,133,0,0,0,74,75,130,120,85,124.02,37,-5.00,7.00,-1004.00
2024-06-07 01:41:10.406890,0,0,139,0,0,0,74,75,131,120,85,123.99,37,33.00,6.00,-1034.00
2024-06-07 01:41:10.428430,0,0,145,0,0,0,75,76,130,120,85,124.03,37,4.00,15.00,-999.00
2024-06-07 01:41:10.611611,0,0,151,0,0,0,75,76,130,120,85,124.07,37,-27.00,16.00,-970.00
2024-06-07 01:41:10.632604,0,0,157,0,0,0,75,76,130,120,85,124.02,38,-2.00,12.00,-1011.00
2024-06-07 01:41:10.814704,0,0,163,0,0,0,75,76,130,120,85,123.97,38,-11.00,11.00,-999.00
2024-06-07 01:41:10.836535,0,0,169,0,0,0,75,76,130,120,85,123.94,38,-6.00,14.00,-1015.00
2024-06-07 01:41:11.121457,0,0,175,0,0,0,75,76,130,120,85,123.98,38,1.00,1.00,-994.00
2024-06-07 01:41:11.121532,0,0,-178,0,0,0,75,76,130,120,85,124.01,38,12.00,11.00,-1030.00
2024-06-07 01:41:11.253764,0,0,-171,0,0,0,75,76,130,120,85,124.00,38,-2.00,17.00,-996.00
2024-06-07 01:41:11.255254,0,0,-165,0,0,0,75,76,130,120,85,124.00,38,8.00,15.00,-1009.00
2024-06-07 01:41:11.374513,0,0,-159,0,0,0,75,76,131,120,85,124.05,38,-1.00,1.00,-990.00
2024-06-07 01:41:11.545636,0,0,-153,0,0,0,74,76,131,120,85,124.01,38,-4.00,13.00,-1004.00
2024-06-07 01:41:11.550285,0,0,-147,0,0,0,74,76,132,120,85,124.03,38,-19.00,18.00,-1013.00
2024-06-07 01:41:11.723894,0,0,-141,0,0,0,74,76,133,120,85,124.08,39,21.00,9.00,-1012.00
2024-06-07 01:41:11.768922,0,0,-135,0,0,0,74,76,133,120,85,123.98,39,19.00,-3.00,-981.00
2024-06-07 01:41:11.860224,0,0,-129,0,0,0,74,76,135,120,85,124.04,39,-11.00,11.00,-980.00
2024-06-07 01:41:11.958260,0,0,-122,0,0,0,74,76,136,120,85,124.00,39,2.00,13.00,-1009.00
2024-06-07 01:41:12.162202,0,0,-116,0,0,0,74,76,136,120,85,124.05,39,-5.00,12.00,-1014.00
2024-06-07 01:41:12.162414,0,0,-110,0,0,0,74,76,137,120,85,124.03,39,-24.00,20.00,-972.00
2024-06-07 01:41:12.306874,0,0,-104,0,0,0,74,76,137,120,85,124.04,39,-12.00,22.00,-985.00
2024-06-07 01:41:12.463495,0,0,-98,0,0,0,74,76,137,120,84,124.05,39,-2.00,-6.00,-964.00
2024-06-07 01:41:12.468319,0,0,-92,0,0,0,73,75,138,120,84,124.03,39,-1.00,6.00,-1004.00
2024-06-07 01:41:12.606937,0,0,-86,0,0,0,73,75,138,120,84,124.03,39,-2.00,9.00,-977.00
2024-06-07 01:41:12.771915,0,0,-80,0,0,0,73,75,138,120,84,124.01,40,-20.00,20.00,-1009.00
2024-06-07 01:41:12.774267,0,0,-74,0,0,0,73,75,138,120,84,124.04,40,3.00,10.00,-990.00
2024-06-07 01:41:12.915619,0,0,-67,0,0,0,73,75,137,120,84,124.04,40,-3.00,20.00,-993.00
2024-06-07 01:41:13.077908,0,0,-61,0,0,0,73,75,136,120,84,124.03,40,-4.00,13.00,-989.00
2024-06-07 01:41:13.080988,0,0,-55,0,0,0,73,75,136,120,84,124.05,40,0.00,13.00,-1008.00
2024-06-07 01:41:13.271804,0,0,-49,0,0,0,73,75,136,120,84,124.07,40,-2.00,0.00,-999.00
2024-06-07 01:41:13.272153,0,0,-43,0,0,0,73,75,136,120,84,124.06,40,-6.00,9.00,-995.00
2024-06-07 01:41:13.335027,0,0,-37,0,0,0,73,75,136,120,84,124.03,40,-11.00,12.00,-1001.00
2024-06-07 01:41:13.488222,0,0,-31,0,0,0,73,76,136,120,84,123.99,40,-8.00,13.00,-1011.00
2024-06-07 01:41:13.681693,0,0,-25,0,0,0,73,76,136,120,84,123.99,40,3.00,6.00,-978.00
2024-06-07 01:41:13.692256,0,0,-19,0,0,0,73,76,136,120,84,124.05,41,-13.00,12.00,-993.00
2024-06-07 01:41:13.886210,0,0,-13,0,0,0,73,76,136,120,84,124.02,41,6.00,1.00,-1011.00
2024-06-07 01:41:13.896124,0,0,-7,0,0,0,73,76,137,120,84,123.96,41,-7.00,26.00,-1002.00
2024-06-07 01:41:13.948821,0,0,0,0,0,0,73,76,136,120,84,123.99,41,-17.00,26.00,-1026.00
2024-06-07 01:41:14.048950,0,0,5,0,0,0,73,76,136,120,84,123.98,41,-8.00,12.00,-997.00
2024-06-07 01:41:14.194593,0,0,9,0,0,0,73,76,137,120,84,123.99,41,-7.00,3.00,-986.00
2024-06-07 01:41:14.253007,0,0,13,0,0,0,73,76,137,120,84,124.00,41,-9.00,7.00,-985.00
2024-06-07 01:41:14.398160,0,0,16,0,0,0,73,76,137,120,84,123.99,41,-16.00,25.00,-994.00
2024-06-07 01:41:14.457074,0,0,18,0,0,0,75,76,137,120,84,123.96,41,-9.00,15.00,-1001.00
2024-06-07 01:41:14.603393,0,0,20,0,0,0,75,76,137,120,84,123.99,41,14.00,-3.00,-970.00
2024-06-07 01:41:14.660886,0,0,21,0,0,0,75,76,136,120,84,124.04,42,-12.00,16.00,-1000.00
2024-06-07 01:41:14.807750,0,0,22,0,0,0,75,76,136,120,84,124.00,42,2.00,24.00,-1012.00
2024-06-07 01:41:14.864897,0,0,23,0,0,0,75,76,136,120,84,123.95,42,-5.00,3.00,-992.00
2024-06-07 01:41:14.967276,0,0,23,0,0,0,75,76,135,120,84,124.02,42,-5.00,14.00,-1001.00
2024-06-07 01:41:15.069411,0,0,23,0,0,0,75,76,135,120,84,123.95,42,-5.00,8.00,-991.00
2024-06-07 01:41:15.217523,0,0,23,0,0,0,75,76,135,120,84,123.93,42,-15.00,14.00,-997.00
2024-06-07 01:41:15.272918,0,0,23,0,0,0,75,76,134,120,84,123.98,42,-19.00,20.00,-1033.00
2024-06-07 01:41:15.423181,0,0,23,0,0,0,75,76,134,120,84,123.95,42,-6.00,7.00,-1007.00
2024-06-07 01:41:15.477079,0,0,23,0,0,0,73,77,133,120,84,123.96,42,2.00,5.00,-1023.00
2024-06-07 01:41:15.627073,0,0,23,0,0,0,73,77,133,120,84,123.91,42,12.00,3.00,-986.00
2024-06-07 01:41:15.681463,0,0,23,0,0,0,73,77,133,120,84,123.97,43,-1.00,10.00,-1027.00
2024-06-07 01:41:15.783319,0,0,23,0,0,0,73,77,132,120,84,123.94,43,3.00,-2.00,-1002.00
2024-06-07 01:41:15.934498,0,0,23,0,0,0,73,77,132,120,84,123.99,43,14.00,-1.00,-1007.00
2024-06-07 01:41:15.987002,0,0,23,0,0,0,73,77,132,120,84,123.99,43,0.00,6.00,-1004.00
2024-06-07 01:41:16.139103,0,0,23,0,0,0,73,77,132,120,84,124.05,43,-8.00,8.00,-995.00
2024-06-07 01:41:16.190938,0,0,23,0,0,0,73,77,132,120,84,123.97,43,-3.00,15.00,-1018.00
2024-06-07 01:41:16.347525,0,0,23,0,0,0,73,77,133,120,84,123.98,43,2.00,7.00,-979.00
2024-06-07 01:41:16.395139,0,0,23,0,0,0,73,77,132,120,84,123.97,43,-16.00,11.00,-999.00
2024-06-07 01:41:16.497463,0,0,23,0,0,0,74,76,133,120,84,123.94,43,-6.00,6.00,-979.00
2024-06-07 01:41:16.600332,0,0,23,0,0,0,74,76,133,120,84,123.95,43,7.00,-4.00,-1004.00
2024-06-07 01:41:16.702440,0,0,23,0,0,0,74,76,133,120,84,123.98,44,-3.00,5.00,-1001.00
2024-06-07 01:41:16.804308,0,0,23,0,0,0,74,76,132,120,84,123.98,44,-14.00,20.00,-1009.00
2024-06-07 01:41:16.906744,0,0,23,0,0,0,74,76,133,120,84,124.00,44,1.00,9.00,-1010.00
2024-06-07 01:41:17.006705,0,0,23,0,0,0,74,76,133,120,84,124.02,44,-23.00,1.00,-974.00
2024-06-07 01:41:17.163115,0,0,21,0,0,0,74,76,133,120,84,124.01,44,0.00,18.00,-999.00
2024-06-07 01:41:17.210675,0,0,15,0,0,0,74,76,133,120,84,123.94,44,-5.00,10.00,-1007.00
2024-06-07 01:41:17.312656,0,0,9,0,0,0,74,76,133,120,84,123.97,44,-8.00,9.00,-989.00
2024-06-07 01:41:17.363866,0,0,3,0,0,0,74,76,133,120,84,123.99,44,-8.00,8.00,-989.00
2024-06-07 01:41:17.572474,0,0,-2,0,0,0,74,76,133,120,84,123.96,44,-15.00,19.00,-994.00
2024-06-07 01:41:17.572553,0,0,-8,0,0,0,74,76,133,120,84,123.96,44,1.00,19.00,-1017.00
2024-06-07 01:41:17.670465,0,0,-14,0,0,0,74,76,134,120,84,123.95,45,26.00,0.00,-1006.00
2024-06-07 01:41:17.771919,0,0,-20,0,0,0,74,76,133,120,84,123.96,45,7.00,5.00,-1007.00
2024-06-07 01:41:17.875359,0,0,-26,0,0,0,74,76,133,120,84,123.93,45,12.00,5.00,-999.00
2024-06-07 01:41:17.975953,0,0,-32,0,0,0,74,76,134,120,84,123.97,45,-13.00,17.00,-1005.00
2024-06-07 01:41:18.084394,0,0,-38,0,0,0,74,76,134,120,84,123.91,45,24.00,4.00,-1022.00
2024-06-07 01:41:18.180187,0,0,-45,0,0,0,74,76,134,120,84,123.94,45,2.00,3.00,-993.00
2024-06-07 01:41:18.282720,0,0,-51,0,0,0,74,76,134,120,84,123.96,45,7.00,14.00,-1020.00
2024-06-07 01:41:18.391690,0,0,-57,0,0,0,74,76,134,120,84,123.93,45,2.00,12.00,-1002.00
2024-06-07 01:41:18.485884,0,0,-63,0,0,0,73,76,133,120,84,123.95,45,8.00,2.00,-984.00
2024-06-07 01:41:18.600928,0,0,-69,0,0,0,73,76,134,120,84,124.00,45,3.00,11.00,-985.00
2024-06-07 01:41:18.689752,0,0,-75,0,0,0,73,76,134,120,84,123.94,46,-11.00,9.00,-991.00
2024-06-07 01:41:18.801114,0,0,-81,0,0,0,73,76,134,120,84,123.99,46,9.00,15.00,-990.00
2024-06-07 01:41:18.895152,0,0,-87,0,0,0,73,76,134,120,84,123.96,46,-5.00,17.00,-1016.00
2024-06-07 01:41:19.006135,0,0,-93,0,0,0,73,76,134,120,84,123.98,46,17.00,6.00,-996.00
2024-06-07 01:41:19.098866,0,0,-99,0,0,0,73,76,134,120,84,123.98,46,3.00,13.00,-1015.00
2024-06-07 01:41:19.210670,0,0,-105,0,0,0,73,76,136,120,84,124.00,46,25.00,12.00,-1023.00
2024-06-07 01:41:19.301813,0,0,-111,0,0,0,73,76,136,120,84,124.08,46,10.00,17.00,-1007.00
2024-06-07 01:41:19.415653,0,0,-118,0,0,0,73,76,137,120,83,123.97,46,31.00,5.00,-991.00
2024-06-07 01:41:19.505825,0,0,-130,0,0,0,75,76,136,120,83,124.03,46,13.00,16.00,-990.00
2024-06-07 01:41:19.621555,0,0,-136,0,0,0,75,76,136,120,83,124.04,47,-9.00,20.00,-992.00
2024-06-07 01:41:19.711990,0,0,-142,0,0,0,75,76,136,120,83,124.01,47,2.00,15.00,-1004.00
2024-06-07 01:41:19.811683,0,0,-148,0,0,0,75,76,137,120,83,123.99,47,-10.00,11.00,-998.00
2024-06-07 01:41:19.927502,0,0,-154,0,0,0,75,76,135,120,83,123.97,47,-4.00,25.00,-1010.00
2024-06-07 01:41:20.015743,0,0,-160,0,0,0,75,76,136,120,83,123.96,47,-9.00,21.00,-1014.00
2024-06-07 01:41:20.119044,0,0,-166,0,0,0,75,76,136,120,83,124.04,47,0.00,12.00,-990.00
2024-06-07 01:41:20.219761,0,0,-173,0,0,0,75,76,136,120,83,123.99,47,24.00,13.00,-1022.00
2024-06-07 01:41:20.337642,0,0,-179,0,0,0,75,76,136,120,83,123.94,47,-6.00,18.00,-1023.00
2024-06-07 01:41:20.423635,0,0,174,0,0,0,75,76,136,120,83,124.01,47,-8.00,16.00,-976.00
2024-06-07 01:41:20.541955,0,0,168,0,0,0,74,76,136,120,83,123.93,47,-26.00,16.00,-977.00
2024-06-07 01:41:20.630613,0,0,163,0,0,0,74,76,137,120,83,123.97,48,-4.00,19.00,-1004.00
2024-06-07 01:41:20.729584,0,0,157,0,0,0,74,76,137,120,83,124.03,48,-4.00,17.00,-989.00
2024-06-07 01:41:20.849157,0,0,151,0,0,0,74,76,137,120,83,123.96,48,-3.00,10.00,-996.00
2024-06-07 01:41:20.934513,0,0,145,0,0,0,74,76,137,120,83,123.98,48,9.00,-1.00,-987.00
2024-06-07 01:41:21.054147,0,0,138,0,0,0,74,76,138,120,83,124.01,48,5.00,14.00,-1008.00
2024-06-07 01:41:21.137696,0,0,132,0,0,0,74,76,137,120,83,124.01,48,-9.00,20.00,-990.00
2024-06-07 01:41:21.188239,0,0,126,0,0,0,74,76,136,120,83,124.01,48,12.00,1.00,-983.00
2024-06-07 01:41:21.296020,0,0,120,0,0,0,74,76,135,120,83,123.96,48,7.00,16.00,-1016.00
2024-06-07 01:41:21.393908,0,0,114,0,0,0,74,76,135,120,83,123.99,48,5.00,8.00,-991.00
2024-06-07 01:41:21.494308,0,0,108,0,0,0,73,76,135,120,83,123.95,48,-6.00,9.00,-998.00
2024-06-07 01:41:21.668247,0,0,102,0,0,0,73,76,134,120,83,123.91,49,12.00,7.00,-1023.00
2024-06-07 01:41:21.698299,0,0,96,0,0,0,73,76,134,120,83,123.99,49,-6.00,15.00,-1007.00
2024-06-07 01:41:21.878109,0,0,90,0,0,0,73,76,133,120,83,123.99,49,-4.00,13.00,-1003.00
2024-06-07 01:41:21.902369,0,0,84,0,0,0,73,76,133,120,83,124.04,49,4.00,0.00,-1013.00
2024-06-07 01:41:22.004257,0,0,78,0,0,0,73,76,133,120,83,123.89,49,0.00,12.00,-1009.00
2024-06-07 01:41:22.182680,0,0,72,0,0,0,73,76,134,120,83,123.95,49,5.00,5.00,-995.00
2024-06-07 01:41:22.209880,0,0,66,0,0,0,73,76,135,120,83,123.95,49,0.00,-2.00,-1006.00
2024-06-07 01:41:22.310543,0,0,60,0,0,0,73,76,135,120,83,123.97,49,5.00,6.00,-991.00
2024-06-07 01:41:22.487665,0,0,54,0,0,0,73,76,136,120,83,123.96,49,-6.00,18.00,-1005.00
2024-06-07 01:41:22.514201,0,0,48,0,0,0,74,76,137,120,83,123.96,49,-10.00,25.00,-1001.00
2024-06-07 01:41:22.692515,0,0,42,0,0,0,74,76,137,120,83,123.98,50,14.00,10.00,-990.00
2024-06-07 01:41:22.718123,0,0,38,0,0,0,74,76,137,120,83,124.01,50,1.00,20.00,-988.00
2024-06-07 01:41:22.897097,0,0,35,0,0,0,74,76,137,120,83,124.01,50,8.00,4.00,-983.00
2024-06-07 01:41:22.922631,0,0,32,0,0,0,74,76,137,120,83,123.99,50,-10.00,22.00,-996.00
2024-06-07 01:41:23.101930,0,0,30,0,0,0,74,76,136,120,83,123.95,50,6.00,2.00,-990.00
2024-06-07 01:41:23.126003,0,0,29,0,0,0,74,76,137,120,83,123.96,50,2.00,28.00,-1011.00
2024-06-07 01:41:23.306643,0,0,27,0,0,0,74,76,136,120,83,123.96,50,-3.00,26.00,-990.00
2024-06-07 01:41:23.330096,0,0,27,0,0,0,74,76,136,120,83,124.00,50,19.00,0.00,-1009.00
2024-06-07 01:41:23.516325,0,0,26,0,0,0,74,76,136,120,83,124.05,50,31.00,1.00,-1010.00
2024-06-07 01:41:23.534582,0,0,26,0,0,0,74,76,135,120,83,123.99,50,17.00,3.00,-988.00
2024-06-07 01:41:23.639147,0,0,25,0,0,0,74,76,134,120,83,123.92,51,7.00,12.00,-1004.00
2024-06-07 01:41:23.739935,0,0,25,0,0,0,74,76,134,120,83,123.96,51,11.00,20.00,-995.00
2024-06-07 01:41:23.922532,0,0,25,0,0,0,74,76,134,120,83,123.88,51,22.00,0.00,-1020.00
2024-06-07 01:41:23.943425,0,0,25,0,0,0,74,76,134,120,83,123.94,51,7.00,2.00,-1006.00
2024-06-07 01:41:24.126014,0,0,25,0,0,0,74,76,133,120,83,123.93,51,-8.00,5.00,-999.00
2024-06-07 01:41:24.150925,0,0,25,0,0,0,74,76,133,120,83,123.93,51,-8.00,23.00,-1034.00
2024-06-07 01:41:24.249914,0,0,25,0,0,0,74,76,133,120,83,123.92,51,1.00,19.00,-1002.00
2024-06-07 01:41:24.433926,0,0,25,0,0,0,74,76,133,120,83,123.95,51,-4.00,-5.00,-1005.00
2024-06-07 01:41:24.454813,0,0,25,0,0,0,74,76,133,120,83,123.96,51,9.00,-6.00,-995.00
2024-06-07 01:41:24.637979,0,0,25,0,0,0,75,76,132,120,83,123.98,51,0.00,6.00,-1007.00
2024-06-07 01:41:24.659752,0,0,25,0,0,0,75,76,132,120,83,123.94,52,0.00,9.00,-986.00
2024-06-07 01:41:24.759413,0,0,25,0,0,0,75,76,132,120,83,123.93,52,0.00,9.00,-1010.00
2024-06-07 01:41:24.900999,0,0,25,0,0,0,75,76,132,120,83,123.91,52,-2.00,9.00,-996.00
2024-06-07 01:41:24.963394,0,0,25,0,0,0,75,76,131,120,83,123.91,52,-14.00,9.00,-999.00
2024-06-07 01:41:25.152797,0,0,25,0,0,0,75,76,132,120,83,123.92,52,-12.00,11.00,-1019.00
2024-06-07 01:41:25.167369,0,0,25,0,0,0,75,76,131,120,83,123.95,52,18.00,-1.00,-1010.00
2024-06-07 01:41:25.269787,0,0,25,0,0,0,75,76,132,120,83,124.01,52,-14.00,6.00,-1003.00
2024-06-07 01:41:25.320246,0,0,25,0,0,0,75,76,132,120,83,124.00,52,-7.00,11.00,-1010.00
2024-06-07 01:41:25.457000,0,0,25,0,0,0,75,76,132,120,83,124.01,52,-7.00,6.00,-986.00
2024-06-07 01:41:25.524933,0,0,25,0,0,0,74,77,132,120,83,123.89,52,-5.00,17.00,-1018.00
2024-06-07 01:41:25.625921,0,0,25,0,0,0,74,77,133,120,83,123.91,53,9.00,0.00,-975.00
2024-06-07 01:41:25.727880,0,0,25,0,0,0,74,77,134,120,83,124.08,53,2.00,-2.00,-1440.00
2024-06-07 01:41:25.866513,0,0,25,0,0,-7,74,77,140,120,83,124.04,53,12.00,26.00,-1821.00
2024-06-07 01:41:25.932975,0,-46,25,0,-1,-12,74,77,261,130,83,124.27,53,-10.00,362.00,-1234.00
2024-06-07 01:41:26.110874,0,-163,27,4,-9,-5,74,77,161,140,83,124.38,53,-36.00,565.00,-1023.00
2024-06-07 01:41:26.136014,1,76,25,4,-7,9,74,77,230,140,83,124.58,53,-14.00,483.00,-916.00
2024-06-07 01:41:26.290926,0,0,24,1,-2,11,74,77,145,130,83,124.04,53,34.00,-161.00,-1629.00
2024-06-07 01:41:26.411545,0,0,25,1,-2,8,74,77,136,120,82,124.04,53,-13.00,-18.00,-1537.00
2024-06-07 01:41:26.463362,0,1,25,1,-2,4,74,77,132,110,82,123.91,53,9.00,29.00,-1315.00
2024-06-07 01:41:26.566046,0,1,25,1,-2,1,74,76,130,110,82,123.97,53,2.00,20.00,-1248.00
2024-06-07 01:41:26.742462,0,1,25,1,-1,0,74,76,130,110,82,123.94,54,5.00,34.00,-1146.00
2024-06-07 01:41:26.749044,0,0,25,0,-1,0,74,76,132,110,82,123.98,54,19.00,14.00,-1070.00
2024-06-07 01:41:26.895835,0,0,25,0,-1,-1,74,76,134,110,82,124.02,54,2.00,17.00,-1020.00
2024-06-07 01:41:26.979393,0,0,25,0,-1,-1,74,76,137,110,82,124.06,54,-7.00,27.00,-990.00
2024-06-07 01:41:27.055043,0,2,25,0,0,0,74,76,138,110,82,124.03,54,-2.00,38.00,-991.00
2024-06-07 01:41:27.209393,0,2,25,0,0,0,74,76,139,110,82,123.97,54,11.00,15.00,-975.00
2024-06-07 01:41:27.358407,0,1,25,0,0,0,74,76,141,110,82,124.07,54,0.00,38.00,-970.00
2024-06-07 01:41:27.360914,0,0,25,0,0,0,74,76,142,110,82,124.06,54,-13.00,24.00,-986.00
2024-06-07 01:41:27.515682,0,0,25,0,0,0,74,76,142,110,82,124.02,54,6.00,0.00,-957.00
2024-06-07 01:41:27.658950,0,0,25,0,0,0,75,76,143,110,82,124.02,54,-3.00,11.00,-972.00
2024-06-07 01:41:27.667081,0,0,25,0,0,0,75,76,144,110,82,123.99,55,-8.00,8.00,-971.00
2024-06-07 01:41:27.823054,0,0,25,0,0,0,75,76,143,120,82,124.05,55,-5.00,1.00,-973.00
2024-06-07 01:41:27.966529,0,0,25,0,0,0,75,76,143,120,82,124.03,55,-6.00,10.00,-1013.00
2024-06-07 01:41:27.973176,0,1,25,0,0,0,75,76,143,120,82,124.06,55,9.00,-9.00,-991.00
2024-06-07 01:41:28.130040,0,1,25,0,0,0,75,76,143,120,82,124.01,55,9.00,10.00,-1003.00
2024-06-07 01:41:28.197261,0,0,25,0,0,0,75,76,143,120,82,124.02,55,3.00,6.00,-981.00
2024-06-07 01:41:28.279043,0,0,25,0,0,0,75,76,143,120,82,123.98,55,-5.00,5.00,-994.00
2024-06-07 01:41:28.329794,0,0,25,0,0,0,75,76,142,120,81,123.96,55,20.00,-4.00,-1016.00
2024-06-07 01:41:28.431698,0,0,25,0,0,0,75,76,142,120,81,123.97,55,0.00,4.00,-1010.00
2024-06-07 01:41:28.631493,0,1,25,0,0,0,74,77,142,120,81,124.00,55,20.00,-11.00,-1001.00
2024-06-07 01:41:28.686932,0,1,25,0,0,0,74,77,141,120,81,123.98,56,2.00,9.00,-996.00
2024-06-07 01:41:28.788973,0,1,25,0,0,0,74,77,142,120,81,123.96,56,-10.00,13.00,-993.00
2024-06-07 01:41:28.938382,0,1,25,0,0,0,74,77,141,120,81,124.01,56,13.00,-9.00,-981.00
2024-06-07 01:41:28.993155,0,0,25,0,0,0,74,77,141,120,81,123.95,56,5.00,2.00,-1009.00
2024-06-07 01:41:29.094920,0,0,25,0,0,0,74,77,140,120,81,124.03,56,1.00,2.00,-1023.00
2024-06-07 01:41:29.196973,0,0,25,0,0,0,74,77,141,120,81,123.98,56,-8.00,22.00,-1017.00
2024-06-07 01:41:29.248986,0,0,25,0,0,0,74,77,140,120,81,123.97,56,3.00,8.00,-983.00
2024-06-07 01:41:29.349735,0,0,25,0,0,0,74,77,140,120,81,124.02,56,1.00,9.00,-1020.00
2024-06-07 01:41:29.552902,0,0,25,0,0,0,74,77,140,120,81,123.97,56,7.00,0.00,-987.00
2024-06-07 01:41:29.553646,0,0,25,0,0,0,75,76,139,110,81,123.96,56,-12.00,10.00,-1009.00
2024-06-07 01:41:29.758219,0,0,25,0,0,0,75,76,139,110,81,123.97,57,-8.00,3.00,-996.00
2024-06-07 01:41:29.759006,0,0,25,0,0,0,75,76,139,110,81,123.97,57,10.00,2.00,-1007.00
2024-06-07 01:41:29.861306,0,0,25,0,0,0,75,76,139,110,81,123.92,57,4.00,2.00,-1008.00
2024-06-07 01:41:30.064772,0,0,25,0,0,0,75,76,139,110,81,124.01,57,-1.00,2.00,-1001.00
2024-06-07 01:41:30.064974,0,0,25,0,0,0,75,76,139,110,81,123.99,57,0.00,6.00,-1023.00
2024-06-07 01:41:30.167782,0,0,25,0,0,0,75,76,139,110,81,123.93,57,22.00,-5.00,-1018.00
2024-06-07 01:41:30.270313,0,0,25,0,0,0,75,76,140,110,81,124.01,57,36.00,-4.00,-993.00
2024-06-07 01:41:30.372816,0,0,25,0,0,0,75,76,140,110,81,123.96,57,10.00,-13.00,-1003.00
2024-06-07 01:41:30.475178,0,0,25,0,0,0,75,76,141,120,81,123.96,57,0.00,-6.00,-991.00
2024-06-07 01:41:30.575073,0,0,25,0,0,0,75,77,141,120,81,123.94,57,-5.00,7.00,-999.00
2024-06-07 01:41:30.677106,0,0,25,0,0,0,75,77,142,120,81,124.04,58,16.00,1.00,-1002.00
2024-06-07 01:41:30.781556,0,0,25,0,0,0,75,77,142,120,81,123.99,58,2.00,-9.00,-970.00
2024-06-07 01:41:30.887661,0,0,25,0,0,0,75,77,142,120,81,124.06,58,-6.00,0.00,-975.00
2024-06-07 01:41:30.982945,0,0,25,0,0,0,75,77,143,120,81,124.01,58,-20.00,9.00,-981.00
2024-06-07 01:41:31.084922,0,0,25,0,0,0,75,77,141,120,81,124.02,58,-9.00,5.00,-987.00
2024-06-07 01:41:31.186848,0,0,25,0,0,0,75,77,142,120,81,123.99,58,-13.00,8.00,-996.00
2024-06-07 01:41:31.288811,0,0,25,0,0,0,75,77,141,120,81,123.96,58,2.00,11.00,-1001.00
2024-06-07 01:41:31.396055,0,0,25,0,0,0,75,77,142,120,81,123.92,58,-15.00,9.00,-991.00
2024-06-07 01:41:31.492901,0,0,25,0,0,0,75,77,141,120,81,124.01,58,15.00,0.00,-1022.00
2024-06-07 01:41:31.602911,0,0,25,0,0,0,75,77,141,120,81,123.97,58,4.00,-5.00,-1005.00
2024-06-07 01:41:31.696730,0,0,25,0,0,0,75,77,142,120,81,123.94,59,25.00,-4.00,-982.00
2024-06-07 01:41:31.798834,0,0,25,0,0,0,75,77,141,120,81,123.93,59,-8.00,14.00,-1013.00
2024-06-07 01:41:31.913631,0,0,25,0,0,0,75,77,140,120,81,123.95,59,13.00,7.00,-1015.00
2024-06-07 01:41:32.002821,0,0,25,0,0,0,75,77,141,120,81,123.98,59,0.00,6.00,-1008.00
2024-06-07 01:41:32.112785,0,0,25,0,0,0,75,77,140,120,81,123.98,59,16.00,-4.00,-998.00
2024-06-07 01:41:32.206721,0,0,25,0,0,0,75,77,140,120,81,123.98,59,-3.00,7.00,-993.00
2024-06-07 01:41:32.308749,0,0,25,0,0,0,75,77,139,120,81,124.00,59,-6.00,13.00,-1002.00
2024-06-07 01:41:32.419786,0,0,25,0,0,0,75,77,141,120,81,124.09,59,-2.00,-5.00,-1703.00
2024-06-07 01:41:32.512645,0,0,25,0,0,-6,75,77,151,120,81,124.12,59,-7.00,-74.00,-1809.00
2024-06-07 01:41:32.625074,0,31,25,0,1,-13,75,76,195,130,81,124.28,59,0.00,512.00,-1378.00
2024-06-07 01:41:32.717404,0,144,25,-4,9,-7,75,76,186,140,81,124.37,60,28.00,745.00,-889.00
2024-06-07 01:41:32.830000,0,-95,25,-3,7,7,75,76,186,140,81,124.70,60,32.00,714.00,-1094.00
2024-06-07 01:41:32.869407,0,-2,26,-1,3,11,75,76,145,130,81,124.04,60,-2.00,155.00,-1115.00
2024-06-07 01:41:33.034126,0,1,26,-2,4,7,75,76,137,120,81,123.95,60,-8.00,-1.00,-1484.00
2024-06-07 01:41:33.073444,0,-3,26,-1,3,4,75,76,134,110,81,123.97,60,7.00,9.00,-1231.00
2024-06-07 01:41:33.238867,0,-3,25,-1,3,1,75,76,132,110,81,123.89,60,-10.00,20.00,-1153.00
2024-06-07 01:41:33.277612,0,-2,25,-1,2,0,75,76,131,110,81,123.85,60,-8.00,6.00,-1083.00
2024-06-07 01:41:33.444250,0,-2,25,-1,2,0,75,76,132,110,80,123.99,60,-7.00,-3.00,-1026.00
2024-06-07 01:41:33.481240,0,-1,25,0,1,-1,75,76,132,110,80,123.87,60,24.00,-1.00,-1000.00
2024-06-07 01:41:33.583811,0,-1,25,0,1,-1,75,77,134,110,80,123.91,60,1.00,-10.00,-986.00
2024-06-07 01:41:33.686796,0,-1,25,0,1,-1,75,77,135,110,80,123.98,61,10.00,-10.00,-965.00
2024-06-07 01:41:33.787529,0,-3,25,0,1,0,75,77,135,110,80,123.92,61,5.00,-1.00,-992.00
2024-06-07 01:41:33.906793,0,-3,25,0,0,0,75,77,136,110,80,123.92,61,13.00,-9.00,-989.00
2024-06-07 01:41:33.991374,0,-2,25,0,0,0,75,77,136,110,80,123.90,61,10.00,-13.00,-974.00
2024-06-07 01:41:34.163319,0,-1,25,0,0,0,75,77,136,110,80,123.92,61,-6.00,2.00,-993.00
2024-06-07 01:41:34.198072,0,-1,25,0,0,0,75,77,136,110,80,123.93,61,-10.00,10.00,-1019.00
2024-06-07 01:41:34.299746,0,-1,25,0,0,0,75,77,136,110,80,123.88,61,0.00,-6.00,-1003.00
2024-06-07 01:41:34.400352,0,-1,25,0,0,0,75,77,136,110,80,123.92,61,-15.00,9.00,-997.00
2024-06-07 01:41:34.503683,0,-1,25,0,0,0,75,77,136,110,80,123.89,61,-5.00,11.00,-1024.00
2024-06-07 01:41:34.603229,0,-1,25,0,0,0,75,77,137,110,80,123.94,62,9.00,-1.00,-990.00
2024-06-07 01:41:34.776586,0,-2,25,0,0,0,75,77,137,110,80,123.90,62,12.00,0.00,-992.00
2024-06-07 01:41:34.807220,0,-1,25,0,0,0,75,77,137,110,80,123.89,62,-11.00,12.00,-1003.00
2024-06-07 01:41:34.979714,0,-1,25,0,0,0,75,77,137,110,80,123.92,62,6.00,-2.00,-1001.00
2024-06-07 01:41:35.011184,0,-1,25,0,0,0,75,77,137,110,80,123.90,62,-15.00,15.00,-977.00
2024-06-07 01:41:35.184521,0,-1,25,0,0,0,75,77,137,110,80,123.90,62,12.00,8.00,-988.00
2024-06-07 01:41:35.215311,0,-1,25,0,0,0,75,77,137,110,80,123.88,62,17.00,11.00,-1011.00
2024-06-07 01:41:35.317183,0,-1,25,0,0,0,75,77,136,110,80,123.88,62,6.00,0.00,-983.00
2024-06-07 01:41:35.419169,0,-1,25,0,0,0,75,77,137,110,79,123.92,62,19.00,0.00,-1016.00
2024-06-07 01:41:35.594147,0,-1,25,0,0,0,75,77,136,110,79,123.95,62,32.00,2.00,-1009.00
2024-06-07 01:41:35.623085,0,-1,25,0,0,0,75,77,136,110,79,123.92,63,23.00,14.00,-1045.00
2024-06-07 01:41:35.725240,0,-1,25,0,0,0,75,77,136,110,79,124.02,63,7.00,11.00,-986.00
2024-06-07 01:41:35.827118,0,-1,25,0,0,0,75,77,137,110,79,123.96,63,0.00,15.00,-1006.00
2024-06-07 01:41:36.003844,0,-1,25,0,0,0,75,77,137,110,79,123.96,63,5.00,26.00,-1034.00
2024-06-07 01:41:36.031112,0,-1,25,0,0,0,75,77,138,110,79,123.91,63,10.00,4.00,-974.00
2024-06-07 01:41:36.208611,0,-1,25,0,0,0,75,77,138,110,79,123.94,63,17.00,3.00,-997.00
2024-06-07 01:41:36.235927,0,-1,25,0,0,0,75,77,139,110,79,123.94,63,-2.00,15.00,-995.00
2024-06-07 01:41:36.337127,0,-1,25,0,0,0,75,77,139,110,79,123.94,63,-10.00,20.00,-980.00
2024-06-07 01:41:36.439218,0,-1,25,0,0,0,75,77,139,120,79,123.91,63,-11.00,18.00,-999.00
2024-06-07 01:41:36.618200,0,-1,25,0,0,0,75,77,139,120,79,123.93,63,36.00,9.00,-1011.00
2024-06-07 01:41:36.643133,0,-1,25,0,0,0,75,77,140,120,79,123.95,64,13.00,5.00,-973.00
2024-06-07 01:41:36.823035,0,-1,25,0,0,0,75,77,140,120,79,123.98,64,1.00,18.00,-1007.00
2024-06-07 01:41:36.847151,0,-1,25,0,0,0,75,77,140,120,79,123.97,64,-1.00,14.00,-990.00
2024-06-07 01:41:36.950845,0,-1,25,0,0,0,75,77,140,120,79,123.99,64,6.00,22.00,-1013.00
2024-06-07 01:41:37.051590,0,-1,25,0,0,0,75,77,140,120,79,123.93,64,1.00,25.00,-1009.00
2024-06-07 01:41:37.232744,0,-1,25,0,0,0,75,77,139,120,79,123.90,64,5.00,19.00,-980.00
2024-06-07 01:41:37.232921,0,-1,25,0,0,0,75,77,140,120,79,123.91,64,5.00,6.00,-985.00
2024-06-07 01:41:37.308790,0,0,25,0,0,0,75,77,139,120,79,123.87,64,-22.00,14.00,-988.00
2024-06-07 01:41:37.408494,0,0,25,0,0,0,75,77,139,120,79,124.00,64,6.00,7.00,-1006.00
2024-06-07 01:41:37.540229,0,0,25,0,0,0,75,77,139,120,79,123.92,64,3.00,13.00,-1022.00
2024-06-07 01:41:37.612514,0,0,25,0,0,0,76,78,139,120,79,124.04,65,6.00,13.00,-983.00
