TS,pitch,roll,yaw,vgx,vgy,vgz,templ,temph,tof,h,bat,baro,time,agx,agy,agz
2024-06-07 01:42:10.717775,0,0,19,0,0,0,78,80,10,0,77,122.39,83,0.00,9.00,-1003.00
2024-06-07 01:42:10.820507,0,0,19,0,0,0,79,80,10,0,77,122.42,83,0.00,9.00,-1000.00
2024-06-07 01:42:10.915562,0,0,19,0,0,0,79,80,10,0,77,122.38,83,0.00,9.00,-1000.00
2024-06-07 01:42:11.024973,0,0,19,0,0,0,79,80,10,0,77,122.47,83,0.00,9.00,-1001.00
2024-06-07 01:42:11.139936,0,0,19,0,0,0,79,80,10,0,77,122.42,83,0.00,7.00,-1000.00
2024-06-07 01:42:11.284005,0,0,19,0,0,0,79,80,10,0,77,122.39,83,0.00,8.00,-998.00
2024-06-07 01:42:11.322870,0,0,19,0,0,0,79,80,10,0,77,122.42,83,0.00,10.00,-1000.00
2024-06-07 01:42:11.425900,0,0,19,0,0,0,79,80,10,0,77,122.37,83,0.00,8.00,-1001.00
2024-06-07 01:42:11.594524,0,0,19,0,0,0,79,80,10,0,77,122.45,83,0.00,9.00,-998.00
2024-06-07 01:42:11.629241,0,0,19,0,0,0,79,80,10,0,77,122.44,83,0.00,8.00,-999.00
2024-06-07 01:42:11.782425,0,0,19,0,0,0,79,80,10,0,77,122.40,83,0.00,9.00,-1000.00
2024-06-07 01:42:11.841912,0,0,19,0,0,0,79,80,10,0,77,122.36,83,1.00,9.00,-1002.00
2024-06-07 01:42:11.935477,0,0,19,0,0,0,79,80,10,0,77,122.41,83,0.00,9.00,-999.00
2024-06-07 01:42:12.096846,0,0,19,0,0,0,79,80,10,0,77,122.43,83,0.00,9.00,-998.00
2024-06-07 01:42:12.239819,0,0,19,0,0,0,79,80,10,0,77,122.44,83,0.00,7.00,-998.00
2024-06-07 01:42:12.241445,0,0,19,0,0,0,79,80,10,0,77,122.38,83,-1.00,8.00,-1000.00
2024-06-07 01:42:12.383129,0,0,19,0,0,0,79,80,10,0,77,122.47,83,2.00,10.00,-999.00
2024-06-07 01:42:12.526578,0,0,19,0,0,0,79,80,10,0,77,122.45,83,0.00,8.00,-999.00
2024-06-07 01:42:12.546850,0,0,19,0,0,0,79,80,10,0,77,122.39,83,0.00,8.00,-999.00
2024-06-07 01:42:12.672325,0,0,19,0,0,0,79,80,10,0,77,122.42,83,0.00,9.00,-999.00
2024-06-07 01:42:12.815563,0,0,19,0,0,0,79,80,10,0,77,122.37,83,0.00,10.00,-1000.00
2024-06-07 01:42:12.858375,0,0,19,0,0,0,79,81,10,0,77,122.42,83,3.00,6.00,-999.00
2024-06-07 01:42:12.979269,0,0,19,0,0,0,79,81,10,0,77,122.42,83,-1.00,6.00,-998.00
2024-06-07 01:42:13.056829,0,0,19,0,0,0,79,81,10,0,77,122.42,83,13.00,16.00,-1004.00
2024-06-07 01:42:13.173170,0,0,19,0,0,0,79,81,10,0,77,122.42,83,-16.00,13.00,-995.00
2024-06-07 01:42:13.260850,0,0,18,0,0,0,79,81,10,0,77,122.42,83,-16.00,22.00,-1018.00
2024-06-07 01:42:13.377898,0,0,18,0,0,0,79,81,10,0,77,122.42,83,-4.00,13.00,-1110.00
2024-06-07 01:42:13.464922,-1,0,18,0,0,-1,79,81,10,0,77,122.42,83,38.00,-15.00,-1262.00
2024-06-07 01:42:13.585362,0,0,18,0,0,-4,79,81,10,0,77,122.42,83,30.00,8.00,-1295.00
2024-06-07 01:42:13.668811,1,0,18,0,0,-7,79,81,17,0,77,122.65,83,1.00,-2.00,-1156.00
2024-06-07 01:42:13.787533,1,0,18,0,0,-7,79,81,26,10,77,122.85,83,-3.00,3.00,-1045.00
2024-06-07 01:42:13.873081,1,0,18,0,0,-8,78,81,34,20,77,122.89,84,25.00,2.00,-1027.00
2024-06-07 01:42:13.923765,1,0,18,0,0,-7,78,81,41,30,77,122.99,84,-2.00,19.00,-992.00
2024-06-07 01:42:14.094778,1,0,18,0,0,-7,78,81,49,30,77,123.02,84,21.00,-6.00,-909.00
2024-06-07 01:42:14.127771,1,0,18,0,0,-6,78,81,57,40,77,123.15,84,3.00,1.00,-890.00
2024-06-07 01:42:14.299505,0,0,18,0,0,-5,78,81,61,50,77,123.11,84,11.00,-13.00,-863.00
2024-06-07 01:42:14.331848,0,0,18,0,0,-3,78,81,67,50,77,123.21,84,-3.00,19.00,-887.00
2024-06-07 01:42:14.434532,0,0,18,0,0,-2,78,81,70,50,77,123.27,84,-17.00,14.00,-906.00
2024-06-07 01:42:14.607802,0,0,18,0,0,-1,78,81,74,60,77,123.32,84,-6.00,19.00,-926.00
2024-06-07 01:42:14.637742,0,0,18,0,0,-1,78,81,76,60,77,123.25,84,-12.00,0.00,-914.00
2024-06-07 01:42:14.811506,0,0,18,0,0,0,78,81,77,60,77,123.28,84,-8.00,-6.00,-965.00
2024-06-07 01:42:14.841715,0,0,18,0,0,0,79,81,78,60,77,123.32,85,-4.00,18.00,-964.00
2024-06-07 01:42:15.016277,0,0,18,0,0,0,79,81,79,60,77,123.32,85,-4.00,9.00,-984.00
2024-06-07 01:42:15.045670,0,0,18,0,0,0,79,81,80,60,77,123.33,85,-5.00,20.00,-1026.00
2024-06-07 01:42:15.221543,0,0,18,0,0,0,79,81,80,60,77,123.32,85,7.00,-13.00,-980.00
2024-06-07 01:42:15.249640,0,0,18,0,0,0,79,81,81,60,77,123.38,85,15.00,-3.00,-991.00
2024-06-07 01:42:15.425859,0,0,18,0,0,0,79,81,82,60,77,123.34,85,4.00,4.00,-988.00
2024-06-07 01:42:15.453642,0,0,18,0,0,0,79,81,83,60,77,123.32,85,4.00,1.00,-998.00
2024-06-07 01:42:15.632665,0,0,18,0,0,0,79,81,83,60,77,123.35,85,-18.00,15.00,-985.00
2024-06-07 01:42:15.658262,0,0,18,0,0,0,79,81,83,70,77,123.39,85,-5.00,10.00,-993.00
2024-06-07 01:42:15.835488,0,0,18,0,0,0,79,81,84,70,77,123.35,85,2.00,12.00,-996.00
2024-06-07 01:42:15.861680,0,0,18,0,0,0,79,81,84,70,77,123.32,86,5.00,-6.00,-977.00
2024-06-07 01:42:16.040672,0,0,18,0,0,0,79,81,83,70,77,123.40,86,4.00,17.00,-1006.00
2024-06-07 01:42:16.065566,0,0,18,0,0,0,79,81,83,70,77,123.36,86,8.00,12.00,-979.00
2024-06-07 01:42:16.245024,0,0,18,0,0,0,79,81,83,70,77,123.30,86,-9.00,26.00,-1015.00
2024-06-07 01:42:16.269573,0,0,18,0,0,0,79,81,83,70,77,123.43,86,-9.00,22.00,-1007.00
2024-06-07 01:42:16.449833,0,0,18,0,0,0,79,81,83,70,77,123.39,86,0.00,-10.00,-975.00
2024-06-07 01:42:16.474590,0,0,18,0,0,0,79,81,83,70,77,123.42,86,0.00,21.00,-1012.00
2024-06-07 01:42:16.654590,0,0,18,0,0,0,79,81,83,70,77,123.44,86,-6.00,9.00,-995.00
2024-06-07 01:42:16.678842,0,0,18,0,0,0,79,81,82,70,77,123.39,86,-8.00,22.00,-999.00
2024-06-07 01:42:16.859825,0,0,18,0,0,0,79,81,82,70,77,123.44,86,-1.00,14.00,-995.00
2024-06-07 01:42:16.882469,0,0,18,0,0,0,79,81,82,70,77,123.43,87,2.00,30.00,-1008.00
2024-06-07 01:42:17.064316,0,0,18,0,0,0,79,81,82,70,77,123.42,87,-10.00,12.00,-1001.00
2024-06-07 01:42:17.086545,0,0,18,0,0,0,79,81,81,70,77,123.50,87,-33.00,9.00,-976.00
2024-06-07 01:42:17.269003,0,0,18,0,0,0,79,81,81,70,77,123.41,87,0.00,17.00,-1003.00
2024-06-07 01:42:17.290530,0,0,18,0,0,0,79,81,81,70,77,123.38,87,4.00,7.00,-1008.00
2024-06-07 01:42:17.473758,0,0,18,0,0,0,79,81,81,70,77,123.40,87,-3.00,18.00,-988.00
2024-06-07 01:42:17.494510,0,0,18,0,0,0,79,81,81,70,77,123.43,87,0.00,7.00,-1001.00
2024-06-07 01:42:17.545476,0,0,18,0,0,0,79,81,81,70,77,123.41,87,4.00,4.00,-1015.00
2024-06-07 01:42:17.679230,0,0,18,0,0,0,79,81,81,70,77,123.39,87,0.00,10.00,-998.00
2024-06-07 01:42:17.749443,0,0,18,0,0,0,79,81,80,70,77,123.37,87,-3.00,19.00,-1012.00
2024-06-07 01:42:17.883389,0,0,18,0,0,0,79,81,80,60,77,123.37,88,9.00,-4.00,-971.00
2024-06-07 01:42:17.953437,0,-1,18,0,0,0,79,81,80,60,77,123.35,88,8.00,-2.00,-992.00
2024-06-07 01:42:18.088161,0,0,18,0,0,0,79,81,80,60,77,123.39,88,-15.00,22.00,-1015.00
2024-06-07 01:42:18.157364,0,0,18,0,0,0,79,81,80,60,77,123.44,88,0.00,12.00,-985.00
2024-06-07 01:42:18.292937,0,0,18,0,0,0,79,81,80,60,77,123.35,88,-11.00,17.00,-992.00
2024-06-07 01:42:18.361414,0,-1,18,0,0,0,79,81,80,60,77,123.43,88,-11.00,18.00,-1013.00
2024-06-07 01:42:18.463400,0,-1,18,0,0,0,79,81,80,60,77,123.39,88,5.00,-4.00,-992.00
2024-06-07 01:42:18.600134,0,-1,18,0,0,0,79,81,80,60,77,123.36,88,-3.00,23.00,-1008.00
2024-06-07 01:42:18.667510,0,-1,18,0,0,0,79,81,80,60,77,123.34,88,-19.00,19.00,-1000.00
2024-06-07 01:42:18.805113,0,0,18,0,0,0,79,81,80,60,77,123.38,88,13.00,13.00,-990.00
2024-06-07 01:42:18.871727,0,0,18,0,0,0,78,81,80,60,77,123.32,89,-13.00,16.00,-1005.00
2024-06-07 01:42:19.010073,0,0,18,0,0,0,78,81,80,60,77,123.32,89,9.00,20.00,-1017.00
2024-06-07 01:42:19.075558,0,0,18,0,0,0,78,81,80,60,77,123.31,89,0.00,-4.00,-994.00
2024-06-07 01:42:19.214579,0,0,18,0,0,0,78,81,80,60,77,123.25,89,-9.00,21.00,-988.00
2024-06-07 01:42:19.279489,0,0,18,0,0,0,78,81,80,60,77,123.29,89,9.00,1.00,-996.00
2024-06-07 01:42:19.419451,0,0,18,0,0,0,78,81,80,60,77,123.29,89,-2.00,13.00,-994.00
2024-06-07 01:42:19.483382,0,0,18,0,0,0,78,81,79,60,77,123.29,89,0.00,15.00,-1018.00
2024-06-07 01:42:19.632581,0,0,18,0,0,0,78,81,79,60,77,123.37,89,-4.00,5.00,-998.00
2024-06-07 01:42:19.687885,0,0,18,0,0,0,78,81,79,60,77,123.31,89,-16.00,28.00,-1011.00
2024-06-07 01:42:19.829768,0,0,18,0,0,0,78,81,79,60,77,123.34,89,-7.00,18.00,-1015.00
2024-06-07 01:42:19.894267,0,0,18,0,0,0,78,81,79,60,77,123.33,90,3.00,12.00,-992.00
2024-06-07 01:42:19.993771,0,0,18,0,0,0,78,81,79,60,77,123.28,90,7.00,7.00,-997.00
2024-06-07 01:42:20.137328,0,0,18,0,0,0,78,81,79,60,77,123.36,90,-18.00,27.00,-1027.00
2024-06-07 01:42:20.197471,0,0,18,0,0,0,78,81,79,60,77,123.34,90,-10.00,19.00,-1005.00
2024-06-07 01:42:20.344363,0,0,18,0,0,0,78,81,79,60,77,123.29,90,1.00,8.00,-1000.00
2024-06-07 01:42:20.402479,0,0,18,0,0,0,78,81,79,60,77,123.32,90,-1.00,15.00,-1006.00
2024-06-07 01:42:20.504131,0,0,18,0,0,0,78,81,80,60,77,123.31,90,5.00,2.00,-989.00
2024-06-07 01:42:20.605784,0,0,18,0,0,0,78,81,80,60,77,123.32,90,-2.00,10.00,-1005.00
2024-06-07 01:42:20.707272,0,0,18,0,0,0,78,81,80,60,77,123.33,90,-10.00,8.00,-1005.00
2024-06-07 01:42:20.810130,0,0,18,0,0,0,78,81,80,60,77,123.35,90,-4.00,2.00,-1011.00
2024-06-07 01:42:20.911421,0,0,18,0,0,0,79,80,80,60,77,123.38,91,2.00,4.00,-1100.00
2024-06-07 01:42:21.057907,0,0,18,0,0,-1,79,80,82,70,77,123.33,91,14.00,-6.00,-1081.00
2024-06-07 01:42:21.115242,0,0,18,0,0,-2,79,80,85,70,77,123.42,91,5.00,9.00,-1111.00
2024-06-07 01:42:21.275111,0,0,18,0,0,-3,79,80,89,70,77,123.44,91,4.00,-3.00,-1095.00
2024-06-07 01:42:21.275157,0,0,18,0,0,-3,79,80,93,70,77,123.48,91,-7.00,17.00,-1080.00
2024-06-07 01:42:21.370214,0,0,18,0,0,-4,79,80,99,80,77,123.52,91,12.00,11.00,-1067.00
2024-06-07 01:42:21.472270,0,0,18,0,0,-5,79,80,104,80,77,123.55,91,12.00,4.00,-1026.00
2024-06-07 01:42:21.671940,0,0,18,0,0,-5,79,80,110,90,77,123.64,91,21.00,10.00,-1033.00
2024-06-07 01:42:21.677728,0,0,18,0,0,-5,79,80,117,90,77,123.64,91,-8.00,18.00,-977.00
2024-06-07 01:42:21.779721,0,-1,18,0,0,-5,79,80,123,100,77,123.75,91,19.00,1.00,-971.00
2024-06-07 01:42:21.880276,0,-1,18,0,0,-5,79,80,128,110,77,123.79,92,-5.00,3.00,-967.00
2024-06-07 01:42:21.982334,0,0,18,0,0,-5,79,80,133,120,77,123.80,92,6.00,16.00,-980.00
2024-06-07 01:42:22.084183,0,0,18,0,0,-4,79,80,139,120,77,123.92,92,10.00,15.00,-947.00
2024-06-07 01:42:22.188722,0,0,18,0,0,-4,79,80,143,130,77,123.85,92,-5.00,23.00,-956.00
2024-06-07 01:42:22.291622,0,0,18,0,0,-4,79,80,147,130,77,123.94,92,-7.00,23.00,-982.00
2024-06-07 01:42:22.391944,0,0,18,0,0,-3,79,80,151,140,77,123.93,92,3.00,3.00,-961.00
2024-06-07 01:42:22.493118,0,0,18,0,0,-3,79,80,155,140,77,123.98,92,2.00,14.00,-967.00
2024-06-07 01:42:22.697906,0,0,18,0,0,-2,79,80,158,140,77,124.05,92,18.00,9.00,-963.00
2024-06-07 01:42:22.698081,0,0,18,0,0,-2,79,80,161,150,77,123.98,92,1.00,14.00,-981.00
2024-06-07 01:42:22.801540,0,0,18,0,0,-2,79,80,164,150,77,124.10,93,-30.00,20.00,-952.00
2024-06-07 01:42:22.905025,0,0,18,0,0,-2,78,81,167,150,77,124.07,93,2.00,13.00,-976.00
2024-06-07 01:42:23.004812,0,0,18,0,0,-2,78,81,169,150,77,124.16,93,15.00,12.00,-989.00
2024-06-07 01:42:23.105760,0,0,18,0,0,-1,78,81,171,150,77,124.16,93,19.00,1.00,-976.00
2024-06-07 01:42:23.211128,0,0,18,0,0,-1,78,81,172,160,77,124.13,93,12.00,12.00,-976.00
2024-06-07 01:42:23.313537,0,0,18,0,0,-1,78,81,174,160,77,124.16,93,27.00,0.00,-957.00
2024-06-07 01:42:23.415901,0,0,18,0,0,-1,78,81,175,160,77,124.18,93,2.00,17.00,-967.00
2024-06-07 01:42:23.513189,0,-1,18,0,0,0,78,81,176,160,77,124.15,93,19.00,3.00,-986.00
2024-06-07 01:42:23.622064,0,-1,18,0,0,0,78,81,178,160,77,124.20,93,-8.00,19.00,-934.00
2024-06-07 01:42:23.717021,0,-1,18,0,0,0,78,81,178,160,77,124.23,93,7.00,9.00,-965.00
2024-06-07 01:42:23.824918,0,0,18,0,0,0,78,81,179,160,77,124.23,94,1.00,32.00,-1022.00
2024-06-07 01:42:23.920969,0,0,18,0,0,0,78,80,179,160,77,124.19,94,0.00,19.00,-989.00
2024-06-07 01:42:24.028975,0,0,18,0,0,0,78,80,180,160,77,124.24,94,12.00,17.00,-1011.00
2024-06-07 01:42:24.125721,0,0,18,0,0,0,78,80,179,160,77,124.19,94,6.00,7.00,-977.00
2024-06-07 01:42:24.228240,0,0,18,0,0,0,78,80,179,160,77,124.24,94,16.00,15.00,-1003.00
2024-06-07 01:42:24.330500,0,0,18,0,0,0,78,80,180,160,77,124.20,94,-7.00,18.00,-1005.00
2024-06-07 01:42:24.442560,0,0,18,0,0,0,78,80,179,160,77,124.20,94,7.00,18.00,-994.00
2024-06-07 01:42:24.533147,0,0,18,0,0,0,78,80,179,160,77,124.22,94,-4.00,14.00,-986.00
2024-06-07 01:42:24.654345,0,0,18,0,0,0,78,80,178,160,77,124.20,94,0.00,20.00,-989.00
2024-06-07 01:42:24.737248,0,0,18,0,0,0,78,80,177,160,77,124.20,94,2.00,18.00,-1001.00
2024-06-07 01:42:24.787956,0,0,18,0,0,0,78,80,176,160,77,124.16,95,14.00,-2.00,-1004.00
2024-06-07 01:42:25.055830,0,0,18,0,0,0,78,80,176,160,77,124.19,95,22.00,16.00,-1018.00
2024-06-07 01:42:25.056062,0,0,18,0,0,0,78,80,175,160,77,124.18,95,3.00,17.00,-997.00
2024-06-07 01:42:25.147433,0,0,18,0,0,0,78,80,175,160,77,124.23,95,7.00,5.00,-1006.00
2024-06-07 01:42:25.246943,0,0,18,0,0,0,78,80,176,160,77,124.20,95,0.00,28.00,-1011.00
2024-06-07 01:42:25.297753,0,0,18,0,0,0,78,80,176,160,77,124.18,95,19.00,5.00,-998.00
2024-06-07 01:42:25.418689,0,0,18,0,0,0,78,80,177,160,77,124.19,95,8.00,7.00,-999.00
2024-06-07 01:42:25.504060,0,0,18,0,0,0,78,80,177,160,77,124.17,95,17.00,-8.00,-977.00
2024-06-07 01:42:25.606441,0,0,18,0,0,0,78,80,178,160,77,124.19,95,4.00,13.00,-958.00
2024-06-07 01:42:25.706650,0,0,18,0,0,0,78,80,179,160,77,124.24,95,14.00,4.00,-935.00
2024-06-07 01:42:25.870616,0,0,18,0,0,0,78,80,178,160,77,124.25,96,0.00,2.00,-955.00
2024-06-07 01:42:25.909763,0,-1,18,0,0,1,78,80,178,160,77,124.20,96,-2.00,14.00,-931.00
2024-06-07 01:42:26.075323,0,-1,18,0,0,1,78,80,179,160,77,124.18,96,23.00,6.00,-947.00
2024-06-07 01:42:26.190957,0,-1,18,0,0,1,78,80,176,160,77,124.16,96,-1.00,17.00,-975.00
2024-06-07 01:42:26.215696,0,-1,18,0,0,2,78,80,173,160,77,124.12,96,21.00,6.00,-976.00
2024-06-07 01:42:26.333821,0,-1,18,0,0,2,78,80,172,150,77,124.10,96,-2.00,24.00,-984.00
2024-06-07 01:42:26.482820,0,-1,18,0,0,2,78,80,169,150,77,124.10,96,0.00,0.00,-956.00
2024-06-07 01:42:26.531248,0,0,18,0,0,2,78,80,166,150,77,124.13,96,0.00,32.00,-987.00
2024-06-07 01:42:26.649188,0,0,18,0,0,2,78,80,163,150,77,124.01,96,12.00,11.00,-983.00
2024-06-07 01:42:26.725999,0,-1,18,0,0,2,78,80,161,140,77,123.99,96,14.00,11.00,-1008.00
2024-06-07 01:42:26.974315,0,-1,18,0,0,2,78,80,157,140,77,124.00,97,4.00,6.00,-998.00
2024-06-07 01:42:26.974489,0,0,18,0,0,2,79,80,154,140,77,123.96,97,17.00,6.00,-1024.00
2024-06-07 01:42:27.062250,0,0,18,0,0,2,79,80,151,140,77,123.88,97,12.00,4.00,-1009.00
2024-06-07 01:42:27.133699,0,0,18,0,0,2,79,80,148,130,77,123.91,97,14.00,21.00,-1003.00
2024-06-07 01:42:27.304060,0,0,18,0,0,2,79,80,145,130,77,123.95,97,12.00,9.00,-1018.00
2024-06-07 01:42:27.417058,0,0,18,0,0,2,79,80,143,130,77,123.84,97,-2.00,9.00,-1030.00
2024-06-07 01:42:27.440457,0,0,18,0,0,2,79,80,140,120,77,123.84,97,12.00,16.00,-1002.00
2024-06-07 01:42:27.560560,0,0,18,0,0,2,79,80,137,120,77,123.83,97,9.00,15.00,-1023.00
2024-06-07 01:42:27.724165,0,0,18,0,0,2,79,80,135,120,77,123.80,97,4.00,8.00,-1015.00
2024-06-07 01:42:27.748784,0,0,18,0,0,1,79,80,133,120,77,123.75,97,-4.00,18.00,-1024.00
2024-06-07 01:42:27.867778,0,0,18,0,0,1,79,80,132,120,77,123.82,98,8.00,-2.00,-997.00
2024-06-07 01:42:28.031379,0,0,18,0,0,1,78,81,130,110,77,123.67,98,16.00,27.00,-1044.00
2024-06-07 01:42:28.051751,0,-1,18,0,0,1,78,81,129,110,77,123.71,98,15.00,7.00,-1018.00
2024-06-07 01:42:28.174933,0,-1,18,0,0,0,78,81,127,110,77,123.70,98,-1.00,13.00,-1055.00
2024-06-07 01:42:28.338859,0,-1,18,0,0,0,78,81,127,110,77,123.71,98,8.00,6.00,-1001.00
2024-06-07 01:42:28.357676,0,0,18,0,0,0,78,81,126,110,77,123.65,98,7.00,21.00,-1033.00
2024-06-07 01:42:28.500243,0,0,18,0,0,0,78,81,126,110,77,123.68,98,-12.00,28.00,-1034.00
2024-06-07 01:42:28.570476,0,0,18,0,0,0,78,81,126,110,77,123.71,98,15.00,3.00,-998.00
2024-06-07 01:42:28.663629,0,0,18,0,0,0,78,81,126,110,77,123.71,98,17.00,2.00,-998.00
2024-06-07 01:42:28.840381,0,0,18,0,0,0,78,81,127,110,77,123.79,98,-6.00,23.00,-997.00
2024-06-07 01:42:28.840588,0,0,18,0,0,0,78,81,127,110,77,123.73,99,20.00,9.00,-985.00
2024-06-07 01:42:28.969547,0,0,18,0,0,0,77,80,127,110,77,123.74,99,-11.00,28.00,-1018.00
2024-06-07 01:42:29.152239,0,0,18,0,0,0,77,80,127,110,77,123.66,99,9.00,19.00,-995.00
2024-06-07 01:42:29.152466,0,0,18,0,0,0,77,80,128,110,77,123.73,99,2.00,12.00,-1002.00
2024-06-07 01:42:29.224747,0,0,18,0,0,0,77,80,127,110,77,123.66,99,6.00,12.00,-1000.00
2024-06-07 01:42:29.357692,0,0,18,0,0,0,77,80,127,110,77,123.79,99,0.00,23.00,-1009.00
2024-06-07 01:42:29.429528,0,0,18,0,0,0,77,80,127,110,77,123.75,99,6.00,5.00,-980.00
2024-06-07 01:42:29.530709,0,0,18,0,0,0,77,80,128,110,77,123.68,99,3.00,11.00,-995.00
2024-06-07 01:42:29.660762,0,0,18,0,0,0,77,80,128,110,77,123.69,99,3.00,4.00,-1013.00
2024-06-07 01:42:29.734623,0,0,18,0,0,0,77,80,127,110,77,123.73,99,7.00,16.00,-1004.00
2024-06-07 01:42:29.864686,0,0,18,0,0,0,77,80,128,110,77,123.77,100,5.00,10.00,-984.00
2024-06-07 01:42:29.938617,0,0,18,0,0,0,78,80,127,110,77,123.78,100,5.00,19.00,-1022.00
2024-06-07 01:42:30.042386,0,0,18,0,0,0,78,80,127,110,77,123.72,100,7.00,14.00,-987.00
2024-06-07 01:42:30.142530,0,0,18,0,0,0,78,80,127,110,77,123.71,100,-9.00,15.00,-998.00
2024-06-07 01:42:30.244452,-2,0,18,0,0,0,78,80,127,110,77,123.71,100,5.00,9.00,-1005.00
2024-06-07 01:42:30.375609,-7,0,18,0,0,0,78,80,128,110,77,123.74,100,11.00,12.00,-996.00
2024-06-07 01:42:30.448606,-8,0,18,2,0,0,78,80,129,110,77,123.71,100,-3.00,24.00,-1021.00
2024-06-07 01:42:30.581542,-8,-1,18,3,1,0,78,80,129,110,77,123.73,100,3.00,12.00,-1011.00
2024-06-07 01:42:30.657017,-7,-1,18,5,1,0,78,80,129,110,77,123.73,100,-30.00,31.00,-1027.00
2024-06-07 01:42:30.754372,-6,-1,18,5,2,0,78,80,129,110,77,123.72,100,-19.00,0.00,-1004.00
2024-06-07 01:42:30.888848,-5,-1,18,6,2,0,78,80,128,110,77,123.77,101,-18.00,12.00,-1011.00
2024-06-07 01:42:30.958411,-4,0,18,7,2,0,77,80,128,110,77,123.78,101,-22.00,13.00,-1012.00
2024-06-07 01:42:31.093271,-3,0,18,7,2,0,77,80,128,110,77,123.78,101,-30.00,14.00,-1012.00
2024-06-07 01:42:31.162454,0,0,18,7,2,0,77,80,128,110,77,123.68,101,-47.00,22.00,-977.00
2024-06-07 01:42:31.299037,1,0,18,7,2,0,77,80,128,110,77,123.74,101,-43.00,14.00,-981.00
2024-06-07 01:42:31.369725,4,0,18,6,1,0,77,80,129,110,77,123.72,101,-26.00,3.00,-992.00
2024-06-07 01:42:31.468385,5,0,18,5,1,0,77,80,129,110,77,123.75,101,-42.00,-2.00,-961.00
2024-06-07 01:42:31.604856,3,0,18,4,1,0,77,80,128,110,77,123.68,101,-31.00,4.00,-1020.00
2024-06-07 01:42:31.672579,2,0,18,3,1,0,77,80,129,110,77,123.70,101,-40.00,16.00,-1035.00
2024-06-07 01:42:31.809155,1,0,18,3,0,0,77,80,129,110,77,123.72,101,-24.00,19.00,-1001.00
2024-06-07 01:42:31.876189,0,0,18,2,0,0,77,80,129,110,77,123.72,102,-35.00,25.00,-997.00
2024-06-07 01:42:32.017343,0,0,18,2,0,0,77,80,130,110,77,123.71,102,-32.00,10.00,-933.00
2024-06-07 01:42:32.080192,0,-2,18,2,0,0,77,80,129,110,77,123.75,102,-22.00,2.00,-1013.00
2024-06-07 01:42:32.218891,0,-2,18,2,0,0,77,80,129,110,77,123.72,102,-6.00,13.00,-991.00
2024-06-07 01:42:32.285225,0,-1,18,2,0,0,77,80,130,110,77,123.71,102,6.00,0.00,-980.00
2024-06-07 01:42:32.424288,4,0,18,2,0,0,77,80,130,110,77,123.66,102,-11.00,8.00,-997.00
2024-06-07 01:42:32.490575,4,0,18,1,0,0,77,80,130,110,77,123.76,102,5.00,5.00,-1001.00
2024-06-07 01:42:32.590562,2,0,18,0,0,0,77,80,129,110,77,123.72,102,6.00,5.00,-966.00
2024-06-07 01:42:32.702745,1,0,18,0,0,0,77,80,129,110,77,123.83,102,0.00,2.00,-970.00
2024-06-07 01:42:32.794372,0,0,18,0,0,0,77,80,129,110,77,123.69,102,-2.00,5.00,-988.00
2024-06-07 01:42:32.935701,0,0,18,0,0,0,77,80,128,110,77,123.70,103,12.00,0.00,-989.00
2024-06-07 01:42:32.998188,0,0,18,0,0,0,78,80,128,110,77,123.72,103,-4.00,11.00,-995.00
2024-06-07 01:42:33.141651,0,0,18,0,0,0,78,80,127,110,77,123.69,103,-17.00,7.00,-1013.00
2024-06-07 01:42:33.202255,0,0,18,0,0,0,78,80,128,110,77,123.73,103,-4.00,8.00,-1005.00
2024-06-07 01:42:33.345237,0,-1,18,0,0,0,78,80,128,110,77,123.75,103,32.00,11.00,-1041.00
2024-06-07 01:42:33.355426,0,-1,18,0,0,0,78,80,128,110,76,123.70,103,-11.00,9.00,-1006.00
2024-06-07 01:42:33.551949,0,-1,18,0,0,0,78,80,128,110,76,123.75,103,-2.00,2.00,-969.00
2024-06-07 01:42:33.559499,0,-1,18,0,0,0,78,80,128,110,76,123.72,103,-7.00,20.00,-984.00
2024-06-07 01:42:33.755501,0,0,18,0,0,0,78,80,128,110,76,123.71,103,4.00,15.00,-1017.00
2024-06-07 01:42:33.763119,0,0,18,0,0,0,78,80,129,110,76,123.69,103,-15.00,10.00,-981.00
2024-06-07 01:42:33.962568,0,0,18,0,0,0,78,80,129,110,76,123.70,104,2.00,20.00,-999.00
2024-06-07 01:42:33.967423,0,0,18,0,0,0,77,80,129,110,76,123.71,104,-4.00,13.00,-977.00
2024-06-07 01:42:34.164533,0,-1,18,0,0,0,77,80,128,110,76,123.73,104,0.00,20.00,-1003.00
2024-06-07 01:42:34.171216,0,0,18,0,0,0,77,80,127,110,76,123.67,104,0.00,15.00,-1010.00
2024-06-07 01:42:34.369159,0,0,18,0,0,0,77,80,127,110,76,123.73,104,-2.00,13.00,-988.00
2024-06-07 01:42:34.375235,0,0,18,0,0,0,77,80,126,110,76,123.73,104,8.00,12.00,-1016.00
2024-06-07 01:42:34.477108,0,0,18,0,0,0,77,80,126,110,76,123.67,104,6.00,21.00,-1002.00
2024-06-07 01:42:34.579010,0,0,18,0,0,0,77,80,125,110,76,123.62,104,0.00,9.00,-1005.00
2024-06-07 01:42:34.778626,0,0,18,0,0,0,77,80,125,110,76,123.66,104,-8.00,21.00,-980.00
2024-06-07 01:42:34.785138,5,0,18,0,0,0,77,80,125,110,76,123.68,104,-5.00,7.00,-1005.00
2024-06-07 01:42:34.884917,8,0,18,-1,0,0,77,80,126,110,76,123.64,105,29.00,3.00,-1056.00
2024-06-07 01:42:35.085825,8,0,18,-2,-1,0,77,80,125,110,76,123.68,105,-1.00,16.00,-1014.00
2024-06-07 01:42:35.088979,8,0,18,-4,-1,0,77,80,124,110,76,123.62,105,23.00,14.00,-1021.00
2024-06-07 01:42:35.191406,7,0,18,-5,-1,0,77,80,124,110,76,123.65,105,48.00,18.00,-1019.00
2024-06-07 01:42:35.293463,6,0,18,-6,-2,0,77,80,122,110,76,123.69,105,39.00,16.00,-1013.00
2024-06-07 01:42:35.394978,5,0,18,-6,-2,0,77,80,123,110,76,123.61,105,70.00,3.00,-987.00
2024-06-07 01:42:35.496984,5,0,18,-7,-2,0,77,80,122,110,76,123.57,105,56.00,-4.00,-1001.00
2024-06-07 01:42:35.599358,2,0,18,-7,-2,0,77,80,122,110,76,123.62,105,56.00,6.00,-971.00
2024-06-07 01:42:35.705025,0,0,18,-7,-2,0,77,80,122,110,76,123.63,105,52.00,5.00,-977.00
2024-06-07 01:42:35.802925,-2,0,18,-6,-1,0,77,80,122,110,76,123.60,105,73.00,-1.00,-984.00
2024-06-07 01:42:35.904953,-4,-1,18,-5,-1,0,77,80,121,110,76,123.50,106,52.00,22.00,-1023.00
2024-06-07 01:42:36.007028,-2,0,18,-3,-1,0,78,80,121,110,76,123.63,106,41.00,6.00,-1015.00
2024-06-07 01:42:36.109742,0,0,18,-3,-1,0,78,80,121,110,76,123.62,106,9.00,17.00,-992.00
2024-06-07 01:42:36.212378,0,0,18,-3,-1,0,78,80,121,110,76,123.62,106,12.00,9.00,-1002.00
2024-06-07 01:42:36.312977,0,1,18,-2,0,0,78,80,121,110,76,123.62,106,37.00,7.00,-1011.00
2024-06-07 01:42:36.417011,0,0,18,-2,0,0,78,80,121,110,75,123.66,106,14.00,9.00,-1008.00
2024-06-07 01:42:36.516907,0,0,18,-2,0,0,78,80,122,110,75,123.65,106,32.00,5.00,-1016.00
2024-06-07 01:42:36.621804,-2,-1,18,-2,0,0,78,80,123,110,75,123.70,106,36.00,-2.00,-1000.00
2024-06-07 01:42:36.720885,-4,-2,18,-1,0,0,78,80,123,110,75,123.61,106,13.00,10.00,-1010.00
2024-06-07 01:42:36.824004,-2,-1,18,0,0,0,78,80,124,110,75,123.61,107,20.00,-4.00,-997.00
2024-06-07 01:42:36.925049,-1,-1,18,0,0,0,78,80,125,110,75,123.63,107,25.00,5.00,-992.00
2024-06-07 01:42:37.026959,0,0,18,0,0,0,78,80,126,110,75,123.61,107,1.00,5.00,-998.00
2024-06-07 01:42:37.128991,0,0,18,0,0,0,78,80,126,110,75,123.65,107,-18.00,22.00,-992.00
2024-06-07 01:42:37.236832,0,0,18,0,0,0,78,80,128,110,75,123.68,107,-24.00,5.00,-970.00
2024-06-07 01:42:37.282005,0,0,18,0,0,0,78,80,128,110,75,123.68,107,-4.00,23.00,-987.00
2024-06-07 01:42:37.384484,0,0,18,0,0,0,78,80,128,110,75,123.76,107,-5.00,16.00,-971.00
2024-06-07 01:42:37.486466,0,0,18,0,0,0,78,80,129,110,75,123.73,107,2.00,-2.00,-962.00
2024-06-07 01:42:37.588028,0,0,18,0,0,0,78,80,128,110,75,123.77,107,-5.00,10.00,-993.00
2024-06-07 01:42:37.690254,0,0,18,0,0,0,78,80,129,110,75,123.76,107,-2.00,8.00,-1003.00
2024-06-07 01:42:37.792268,0,0,18,0,0,0,78,80,129,110,75,123.74,108,2.00,16.00,-1023.00
2024-06-07 01:42:37.953471,0,0,18,0,0,0,78,80,130,110,75,123.73,108,11.00,-2.00,-1006.00
2024-06-07 01:42:37.996203,0,0,18,0,0,0,77,80,129,110,75,123.71,108,14.00,13.00,-1004.00
2024-06-07 01:42:38.158227,0,0,18,0,0,0,77,80,130,110,75,123.77,108,10.00,-1.00,-974.00
2024-06-07 01:42:38.203496,0,0,18,0,0,0,77,80,130,110,75,123.80,108,0.00,11.00,-988.00
2024-06-07 01:42:38.301950,0,0,18,0,0,0,77,80,130,110,75,123.77,108,-2.00,-3.00,-970.00
2024-06-07 01:42:38.465204,0,0,18,0,0,0,77,80,131,110,75,123.71,108,11.00,3.00,-1010.00
2024-06-07 01:42:38.505902,0,0,18,0,0,0,77,80,130,110,75,123.72,108,19.00,16.00,-1027.00
2024-06-07 01:42:38.607740,0,0,18,0,0,0,77,80,130,110,75,123.71,108,8.00,0.00,-962.00
2024-06-07 01:42:38.772365,0,0,18,0,0,0,77,80,130,110,75,123.78,108,-12.00,17.00,-979.00
2024-06-07 01:42:38.811765,0,-1,18,0,0,0,77,80,129,110,75,123.74,109,-5.00,17.00,-989.00
2024-06-07 01:42:38.913628,0,-1,18,0,0,0,77,80,129,110,75,123.77,109,-21.00,22.00,-978.00
2024-06-07 01:42:39.079235,0,-1,18,0,0,0,77,80,128,110,75,123.73,109,0.00,28.00,-967.00
2024-06-07 01:42:39.117620,0,-8,18,0,0,0,77,80,129,110,75,123.69,109,-7.00,-7.00,-1031.00
2024-06-07 01:42:39.284568,0,-8,18,0,-1,0,77,80,129,110,75,123.73,109,32.00,23.00,-1079.00
2024-06-07 01:42:39.321647,0,-6,18,0,-2,0,77,80,128,110,75,123.72,109,-11.00,33.00,-1001.00
2024-06-07 01:42:39.489388,0,-4,18,0,-3,0,77,80,128,110,74,123.76,109,-18.00,26.00,-980.00
2024-06-07 01:42:39.527411,0,0,18,1,-3,0,77,80,127,110,74,123.70,109,-19.00,36.00,-989.00
2024-06-07 01:42:39.628125,0,0,18,1,-3,0,77,80,127,110,74,123.71,109,-2.00,28.00,-978.00
2024-06-07 01:42:39.729754,0,0,18,0,-2,0,77,80,126,110,74,123.79,109,-30.00,28.00,-971.00
2024-06-07 01:42:39.831573,0,0,18,0,-2,0,77,80,127,110,74,123.73,110,-7.00,25.00,-997.00
2024-06-07 01:42:40.000926,0,-1,18,0,-2,0,77,80,126,110,74,123.72,110,-4.00,19.00,-993.00
2024-06-07 01:42:40.041671,0,-1,18,1,-2,0,78,80,127,110,74,123.76,110,-13.00,27.00,-1005.00
2024-06-07 01:42:40.137689,0,-1,18,0,-2,0,78,80,127,110,74,123.77,110,-2.00,22.00,-1019.00
2024-06-07 01:42:40.320695,1,0,18,0,-2,0,78,80,127,110,74,123.74,110,-24.00,36.00,-985.00
2024-06-07 01:42:40.341685,1,0,18,0,-2,0,78,80,128,110,74,123.70,110,0.00,15.00,-1000.00
2024-06-07 01:42:40.513423,0,0,18,0,-2,0,78,80,128,110,74,123.71,110,8.00,15.00,-1005.00
2024-06-07 01:42:40.545501,0,0,18,0,-2,0,78,80,127,110,74,123.75,110,8.00,28.00,-1020.00
2024-06-07 01:42:40.717590,0,0,18,0,-2,0,78,80,128,110,74,123.70,110,-6.00,32.00,-1004.00
2024-06-07 01:42:40.749729,0,1,18,0,-2,0,78,80,128,110,74,123.73,110,7.00,3.00,-1017.00
2024-06-07 01:42:40.894635,-1,4,18,0,-1,0,78,80,128,110,74,123.69,111,12.00,24.00,-960.00
2024-06-07 01:42:40.953836,0,2,18,0,0,0,78,80,128,110,74,123.66,111,3.00,13.00,-1030.00
2024-06-07 01:42:41.116253,0,0,18,0,0,0,79,80,128,110,74,123.69,111,-2.00,8.00,-1008.00
2024-06-07 01:42:41.258543,0,0,18,0,0,0,79,80,127,110,74,123.69,111,-19.00,17.00,-988.00
2024-06-07 01:42:41.259484,0,0,18,0,0,0,79,80,127,110,74,123.68,111,-3.00,13.00,-1006.00
2024-06-07 01:42:41.367137,0,0,18,0,0,0,79,80,127,110,74,123.71,111,-13.00,11.00,-993.00
2024-06-07 01:42:41.533118,0,0,18,0,0,0,79,80,127,110,74,123.65,111,35.00,2.00,-1031.00
2024-06-07 01:42:41.533473,0,0,18,0,0,0,79,80,128,110,74,123.69,111,-4.00,8.00,-998.00
2024-06-07 01:42:41.709759,0,0,18,0,0,0,79,80,128,110,74,123.68,111,-11.00,9.00,-1001.00
2024-06-07 01:42:41.718522,0,0,18,0,0,0,79,80,128,110,74,123.73,111,-24.00,17.00,-997.00
2024-06-07 01:42:41.858731,0,0,18,0,0,0,79,80,128,110,74,123.65,112,-4.00,12.00,-1013.00
2024-06-07 01:42:41.926237,0,0,18,0,0,0,79,80,128,110,74,123.74,112,8.00,3.00,-992.00
2024-06-07 01:42:42.024585,0,0,18,0,0,0,78,80,128,110,74,123.71,112,-9.00,11.00,-1001.00
2024-06-07 01:42:42.217101,0,0,18,0,0,0,78,80,128,110,74,123.66,112,9.00,16.00,-1021.00
2024-06-07 01:42:42.228502,0,0,18,0,0,0,78,80,128,110,74,123.73,112,-4.00,11.00,-1002.00
2024-06-07 01:42:42.356166,0,0,18,0,0,0,78,80,128,110,74,123.70,112,1.00,-1.00,-985.00
2024-06-07 01:42:42.470388,0,0,18,0,0,0,78,80,127,110,74,123.71,112,26.00,3.00,-980.00
2024-06-07 01:42:42.612894,0,0,18,0,0,0,78,80,127,110,74,123.71,112,-6.00,15.00,-983.00
2024-06-07 01:42:42.636599,0,0,18,0,0,0,78,80,127,110,74,123.69,112,2.00,12.00,-1005.00
2024-06-07 01:42:42.776428,0,0,18,0,0,0,78,80,126,110,74,123.72,112,-15.00,18.00,-985.00
2024-06-07 01:42:42.919765,0,0,18,0,0,0,78,80,125,110,74,123.75,113,-8.00,7.00,-1006.00
2024-06-07 01:42:42.942237,0,0,18,0,0,0,78,80,125,110,74,123.64,113,-5.00,7.00,-1038.00
2024-06-07 01:42:43.083572,0,0,18,0,0,0,78,80,124,110,74,123.70,113,3.00,0.00,-997.00
2024-06-07 01:42:43.226930,0,4,18,0,0,0,78,80,125,110,74,123.67,113,-1.00,10.00,-991.00
2024-06-07 01:42:43.248223,0,8,18,0,1,0,78,80,126,110,74,123.70,113,-1.00,9.00,-1005.00
2024-06-07 01:42:43.390774,0,6,18,0,2,0,78,80,126,110,73,123.70,113,9.00,-11.00,-1045.00
2024-06-07 01:42:43.549146,0,3,18,-1,3,0,78,80,125,110,73,123.67,113,-18.00,5.00,-1042.00
2024-06-07 01:42:43.554397,0,0,18,-1,3,0,78,80,125,110,73,123.71,113,-11.00,-8.00,-997.00
2024-06-07 01:42:43.687170,0,-1,18,-1,3,0,78,80,126,110,73,123.74,113,25.00,-19.00,-1019.00
2024-06-07 01:42:43.758260,0,-1,18,-1,3,0,78,80,127,110,73,123.78,113,-28.00,7.00,-974.00
2024-06-07 01:42:43.892559,0,-1,18,-1,3,0,78,80,128,110,73,123.76,114,-3.00,-9.00,-1005.00
2024-06-07 01:42:43.962257,0,-1,18,0,2,0,78,80,128,110,73,123.72,114,3.00,-11.00,-995.00
2024-06-07 01:42:44.096606,0,0,18,0,2,0,78,80,129,110,73,123.77,114,8.00,-9.00,-977.00
2024-06-07 01:42:44.166258,0,0,18,0,2,0,78,80,129,110,73,123.76,114,13.00,-9.00,-1001.00
2024-06-07 01:42:44.269478,1,0,18,0,2,0,78,80,129,110,73,123.77,114,19.00,2.00,-1012.00
2024-06-07 01:42:44.370193,1,0,18,0,2,0,78,80,130,110,73,123.76,114,24.00,-6.00,-980.00
2024-06-07 01:42:44.506282,1,0,18,-1,2,0,78,80,130,110,73,123.79,114,2.00,0.00,-996.00
2024-06-07 01:42:44.574336,0,0,18,-1,2,0,78,80,130,110,73,123.75,114,4.00,6.00,-1020.00
2024-06-07 01:42:44.711535,-3,-1,18,-1,2,0,78,80,130,110,73,123.78,114,9.00,10.00,-987.00
2024-06-07 01:42:44.779140,0,-5,18,0,2,0,78,80,130,110,73,123.77,114,3.00,4.00,-980.00
2024-06-07 01:42:44.880333,0,-4,18,0,1,0,78,80,128,110,73,123.74,115,0.00,24.00,-1004.00
2024-06-07 01:42:44.983856,0,-2,18,0,0,0,78,80,128,110,73,123.69,115,-11.00,3.00,-1024.00
2024-06-07 01:42:45.084297,0,-1,18,0,0,0,78,80,128,110,73,123.76,115,23.00,21.00,-1022.00
2024-06-07 01:42:45.223092,0,0,18,0,0,0,78,80,127,110,73,123.77,115,3.00,7.00,-999.00
2024-06-07 01:42:45.288235,0,0,18,0,0,0,78,80,127,110,73,123.71,115,6.00,8.00,-999.00
2024-06-07 01:42:45.429151,0,0,18,0,0,0,78,80,126,110,73,123.75,115,-4.00,25.00,-1033.00
2024-06-07 01:42:45.445119,0,0,18,0,0,0,78,80,126,110,73,123.76,115,6.00,8.00,-999.00
2024-06-07 01:42:45.543120,0,0,18,0,0,0,78,80,125,110,73,123.76,115,6.00,20.00,-1011.00
2024-06-07 01:42:45.735253,0,0,18,0,0,0,78,80,125,110,73,123.80,115,11.00,10.00,-981.00
2024-06-07 01:42:45.747160,0,0,18,0,0,0,78,80,125,110,73,123.75,115,-2.00,18.00,-1024.00
2024-06-07 01:42:45.939886,0,0,18,0,0,0,78,80,124,110,73,123.69,116,4.00,10.00,-989.00
2024-06-07 01:42:45.951094,0,0,18,0,0,0,78,80,125,110,73,123.76,116,0.00,9.00,-989.00
2024-06-07 01:42:46.144621,0,0,18,0,0,0,78,80,124,110,73,123.68,116,-6.00,34.00,-1026.00
2024-06-07 01:42:46.154939,0,0,18,0,0,0,78,80,125,110,73,123.77,116,0.00,5.00,-971.00
2024-06-07 01:42:46.451834,0,0,18,0,0,0,78,80,125,110,73,123.76,116,5.00,5.00,-974.00
2024-06-07 01:42:46.452087,0,0,18,0,0,0,78,80,124,110,73,123.70,116,-9.00,15.00,-1006.00
2024-06-07 01:42:46.461199,0,0,18,0,0,0,78,80,125,110,73,123.78,116,-12.00,15.00,-1025.00
2024-06-07 01:42:46.656668,0,0,18,0,0,0,78,80,126,110,73,123.81,116,-13.00,5.00,-1003.00
2024-06-07 01:42:46.665081,0,0,18,0,0,0,78,80,126,110,73,123.77,116,2.00,18.00,-1002.00
2024-06-07 01:42:46.832458,0,0,18,0,0,0,78,80,126,110,73,123.76,116,2.00,9.00,-965.00
2024-06-07 01:42:46.869102,0,0,18,0,0,0,78,80,125,110,73,123.77,117,29.00,9.00,-985.00
2024-06-07 01:42:47.066015,0,0,18,0,0,0,78,80,125,110,73,123.79,117,23.00,-18.00,-1019.00
2024-06-07 01:42:47.072890,0,0,22,0,0,0,77,80,126,110,73,123.76,117,-3.00,10.00,-988.00
2024-06-07 01:42:47.270885,0,0,28,0,0,0,77,80,125,110,73,123.72,117,-17.00,12.00,-960.00
2024-06-07 01:42:47.276889,0,0,34,0,0,0,77,80,124,110,73,123.75,117,-13.00,13.00,-985.00
2024-06-07 01:42:47.478796,0,0,40,0,0,0,77,80,124,110,73,123.78,117,4.00,13.00,-1018.00
2024-06-07 01:42:47.480879,0,0,46,0,0,0,77,80,124,110,73,123.75,117,22.00,9.00,-1038.00
2024-06-07 01:42:47.582896,0,0,52,0,0,0,77,80,124,110,73,123.78,117,1.00,5.00,-996.00
2024-06-07 01:42:47.684875,0,0,58,0,0,0,77,80,124,110,73,123.81,117,14.00,-1.00,-998.00
2024-06-07 01:42:47.885244,0,0,64,0,0,0,77,80,124,110,73,123.71,117,6.00,0.00,-993.00
2024-06-07 01:42:47.889901,0,0,70,0,0,0,77,80,124,110,73,123.71,118,-4.00,25.00,-1044.00
2024-06-07 01:42:47.990955,0,0,76,0,0,0,77,80,124,110,73,123.73,118,-8.00,15.00,-988.00
2024-06-07 01:42:48.192541,0,0,83,0,0,0,77,80,124,110,73,123.71,118,-10.00,10.00,-1001.00
2024-06-07 01:42:48.194828,0,0,89,0,0,0,77,80,126,110,73,123.73,118,-7.00,25.00,-1031.00
2024-06-07 01:42:48.299968,0,0,95,0,0,0,77,80,126,110,73,123.73,118,14.00,2.00,-1014.00
2024-06-07 01:42:48.398880,0,0,101,0,0,0,77,80,127,110,72,123.76,118,-6.00,17.00,-993.00
2024-06-07 01:42:48.601889,0,0,107,0,0,0,77,80,128,110,72,123.79,118,-3.00,13.00,-982.00
2024-06-07 01:42:48.602794,0,0,113,0,0,0,77,80,128,110,72,123.84,118,-14.00,25.00,-1019.00
2024-06-07 01:42:48.807263,0,0,119,0,0,0,77,80,128,110,72,123.80,118,-8.00,27.00,-997.00
2024-06-07 01:42:48.808260,0,0,125,0,0,0,77,80,129,110,72,123.78,118,-1.00,15.00,-997.00
2024-06-07 01:42:48.858638,0,0,131,0,0,0,77,80,129,110,72,123.82,119,-4.00,9.00,-974.00
2024-06-07 01:42:48.959778,0,0,137,0,0,0,77,80,128,110,72,123.75,119,-7.00,18.00,-1000.00
2024-06-07 01:42:49.113936,0,0,143,0,0,0,78,80,128,110,72,123.83,119,7.00,5.00,-976.00
2024-06-07 01:42:49.165949,0,0,149,0,0,0,78,80,127,110,72,123.77,119,6.00,11.00,-986.00
2024-06-07 01:42:49.265815,0,0,155,0,0,0,78,80,126,110,72,123.76,119,5.00,15.00,-1018.00
2024-06-07 01:42:49.367722,0,0,161,0,0,0,78,80,126,110,72,123.65,119,-4.00,12.00,-974.00
2024-06-07 01:42:49.469704,0,0,167,0,0,0,78,80,124,110,72,123.75,119,27.00,16.00,-1067.00
2024-06-07 01:42:49.572965,-1,0,172,0,0,0,78,80,122,110,72,123.70,119,8.00,10.00,-1033.00
2024-06-07 01:42:49.728632,-1,0,178,0,0,0,78,80,122,110,72,123.77,119,-4.00,11.00,-1023.00
2024-06-07 01:42:49.776735,-1,0,-175,0,0,0,78,80,121,110,72,123.71,119,0.00,21.00,-1047.00
2024-06-07 01:42:49.878701,-1,0,-169,0,0,0,78,80,121,110,72,123.76,120,5.00,8.00,-1005.00
2024-06-07 01:42:50.035840,0,0,-164,0,0,0,78,80,120,110,72,123.77,120,-9.00,14.00,-1020.00
2024-06-07 01:42:50.082623,0,0,-152,0,0,0,78,80,121,110,72,123.79,120,-14.00,17.00,-1059.00
2024-06-07 01:42:50.240425,0,0,-146,0,0,0,78,80,121,110,72,123.74,120,-24.00,14.00,-989.00
2024-06-07 01:42:50.286655,0,0,-141,0,0,0,78,80,122,110,72,123.77,120,-13.00,12.00,-998.00
2024-06-07 01:42:50.445610,0,0,-135,0,0,0,78,80,122,110,72,123.71,120,-2.00,25.00,-1012.00
2024-06-07 01:42:50.491030,0,0,-129,0,0,0,78,80,122,110,72,123.71,120,-13.00,18.00,-1006.00
2024-06-07 01:42:50.592649,0,0,-123,0,0,0,78,80,123,110,72,123.69,120,-5.00,10.00,-1008.00
2024-06-07 01:42:50.752405,0,0,-117,0,0,0,78,80,124,110,72,123.76,120,-1.00,9.00,-1010.00
2024-06-07 01:42:50.796705,0,0,-111,0,0,0,78,80,124,110,72,123.75,121,8.00,3.00,-976.00
2024-06-07 01:42:50.899661,0,0,-106,0,0,0,78,80,124,110,72,123.76,121,-1.00,17.00,-1051.00
2024-06-07 01:42:51.000667,0,0,-100,0,0,0,78,80,125,110,72,123.81,121,-6.00,24.00,-1014.00
2024-06-07 01:42:51.161968,0,0,-94,0,0,0,78,80,126,110,72,123.82,121,-1.00,-2.00,-952.00
2024-06-07 01:42:51.204707,0,0,-88,0,0,0,78,80,126,110,72,123.80,121,0.00,3.00,-978.00
2024-06-07 01:42:51.367081,0,0,-82,0,0,0,78,80,127,110,72,123.86,121,-4.00,6.00,-971.00
2024-06-07 01:42:51.409190,0,0,-76,0,0,0,78,80,126,110,72,123.79,121,12.00,9.00,-997.00
2024-06-07 01:42:51.571750,0,0,-70,0,0,0,78,80,127,110,72,123.93,121,8.00,2.00,-995.00
2024-06-07 01:42:51.612601,0,0,-64,0,0,0,78,80,127,110,72,123.85,121,-2.00,19.00,-1054.00
2024-06-07 01:42:51.714592,0,0,-58,0,0,0,78,80,128,110,72,123.82,121,19.00,9.00,-1022.00
2024-06-07 01:42:51.878763,0,0,-52,0,0,0,78,80,129,110,72,123.70,122,-5.00,11.00,-999.00
2024-06-07 01:42:51.918622,0,0,-46,0,0,0,78,80,130,110,72,123.73,122,0.00,10.00,-992.00
2024-06-07 01:42:52.083538,0,0,-40,0,0,0,78,80,131,110,72,123.85,122,-27.00,20.00,-1012.00
2024-06-07 01:42:52.122545,0,0,-34,0,0,0,78,80,132,110,72,123.87,122,-4.00,7.00,-967.00
2024-06-07 01:42:52.289124,0,0,-28,0,0,0,78,80,132,110,72,123.96,122,-2.00,10.00,-958.00
2024-06-07 01:42:52.327331,0,0,-22,0,0,0,78,80,132,110,72,123.82,122,15.00,1.00,-995.00
2024-06-07 01:42:52.429055,0,0,-16,0,0,0,78,80,132,110,71,123.83,122,11.00,6.00,-986.00
2024-06-07 01:42:52.531494,0,0,-10,0,0,0,78,80,133,110,71,123.94,122,4.00,18.00,-998.00
2024-06-07 01:42:52.633851,0,0,-4,0,0,0,78,80,133,110,71,123.88,122,0.00,20.00,-1000.00
2024-06-07 01:42:52.735951,0,0,1,0,0,0,78,80,132,110,71,123.90,122,-6.00,8.00,-969.00
2024-06-07 01:42:52.785506,0,0,5,0,0,0,78,80,132,110,71,123.92,123,0.00,27.00,-1028.00
2024-06-07 01:42:52.887465,0,0,8,0,0,0,78,80,132,110,71,123.89,123,-28.00,20.00,-980.00
2024-06-07 01:42:53.005080,0,0,10,0,0,0,78,80,132,110,71,123.86,123,2.00,21.00,-1011.00
2024-06-07 01:42:53.142843,0,0,12,0,0,0,78,81,131,110,71,123.86,123,-7.00,18.00,-1041.00
2024-06-07 01:42:53.245012,0,-1,13,0,0,0,78,81,131,110,71,123.81,123,12.00,9.00,-1009.00
2024-06-07 01:42:53.414646,0,0,14,0,0,0,78,81,130,110,71,123.79,123,0.00,9.00,-995.00
2024-06-07 01:42:53.414702,0,0,15,0,0,0,78,81,130,110,71,123.84,123,6.00,8.00,-1004.00
2024-06-07 01:42:53.499670,0,0,15,0,0,0,78,81,130,110,71,123.90,123,-9.00,23.00,-1021.00
2024-06-07 01:42:53.601563,0,0,16,0,0,0,78,81,129,110,71,123.92,123,-11.00,19.00,-999.00
2024-06-07 01:42:53.703487,0,0,16,0,0,0,78,81,129,110,71,123.83,123,30.00,2.00,-973.00
2024-06-07 01:42:53.824528,0,0,16,0,0,0,78,81,129,110,71,123.87,124,-11.00,26.00,-1019.00
2024-06-07 01:42:53.908239,0,0,16,0,0,0,78,81,129,110,71,123.89,124,4.00,28.00,-1052.00
2024-06-07 01:42:54.030018,0,-1,16,0,0,0,78,81,128,110,71,123.89,124,3.00,12.00,-1007.00
2024-06-07 01:42:54.112298,0,0,16,0,0,0,79,81,127,110,71,123.93,124,-3.00,4.00,-984.00
2024-06-07 01:42:54.233903,0,0,16,0,0,0,79,81,127,110,71,123.87,124,1.00,10.00,-1024.00
2024-06-07 01:42:54.316878,0,0,16,0,0,0,79,81,127,110,71,123.86,124,-4.00,13.00,-993.00
2024-06-07 01:42:54.438791,0,0,16,0,0,0,79,81,127,110,71,123.88,124,-2.00,16.00,-998.00
2024-06-07 01:42:54.521642,0,0,16,0,0,0,79,81,126,110,71,123.88,124,-5.00,20.00,-1013.00
2024-06-07 01:42:54.622392,0,0,16,0,0,0,79,81,127,110,71,123.80,124,-15.00,17.00,-985.00
2024-06-07 01:42:54.723664,0,-1,16,0,0,0,79,81,127,110,71,123.80,124,-3.00,13.00,-983.00
2024-06-07 01:42:54.825483,0,-1,16,0,0,0,79,81,127,110,71,123.87,125,0.00,15.00,-1033.00
2024-06-07 01:42:54.950761,0,0,16,0,0,0,79,81,127,110,71,123.79,125,-16.00,23.00,-1020.00
2024-06-07 01:42:55.030219,0,0,16,0,0,0,79,81,127,110,71,123.89,125,-12.00,19.00,-983.00
2024-06-07 01:42:55.155560,0,-1,16,0,0,0,78,80,127,110,71,123.79,125,-6.00,31.00,-1032.00
2024-06-07 01:42:55.233341,0,-1,16,0,0,0,78,80,128,110,71,123.78,125,-7.00,22.00,-997.00
2024-06-07 01:42:55.362020,0,-1,16,0,0,0,78,80,129,110,71,123.82,125,6.00,14.00,-970.00
2024-06-07 01:42:55.437822,0,-1,16,0,0,0,78,80,128,110,71,123.83,125,8.00,6.00,-968.00
2024-06-07 01:42:55.539429,0,0,16,0,0,0,78,80,128,110,71,123.77,125,1.00,8.00,-1019.00
2024-06-07 01:42:55.641304,0,0,16,0,0,0,78,80,128,110,71,123.84,125,5.00,1.00,-1014.00
2024-06-07 01:42:55.769760,0,0,14,0,0,0,78,80,127,110,71,123.78,125,5.00,12.00,-1001.00
2024-06-07 01:42:55.846190,0,0,8,0,0,0,78,80,127,110,71,123.77,126,-1.00,23.00,-1004.00
2024-06-07 01:42:55.974482,0,0,2,0,0,0,78,80,127,110,71,123.76,126,2.00,16.00,-1020.00
2024-06-07 01:42:56.107783,0,0,-3,0,0,0,78,80,128,110,71,123.70,126,6.00,2.00,-996.00
2024-06-07 01:42:56.166359,0,0,-9,0,0,0,78,80,128,110,71,123.76,126,-6.00,20.00,-1001.00
2024-06-07 01:42:56.271667,0,0,-15,0,0,0,78,80,128,110,71,123.85,126,-13.00,14.00,-975.00
2024-06-07 01:42:56.448475,0,-1,-21,0,0,0,78,80,129,110,71,123.91,126,-7.00,15.00,-999.00
2024-06-07 01:42:56.458184,0,-1,-27,0,0,0,78,80,130,110,71,123.80,126,7.00,5.00,-996.00
2024-06-07 01:42:56.604441,0,-1,-33,0,0,0,78,80,131,110,71,123.88,126,3.00,18.00,-1007.00
2024-06-07 01:42:56.671360,0,-1,-38,0,0,0,78,80,132,110,71,123.81,126,-6.00,8.00,-961.00
2024-06-07 01:42:56.767156,0,-1,-44,0,0,0,78,80,132,110,71,123.85,126,3.00,13.00,-1010.00
2024-06-07 01:42:56.921182,0,0,-50,0,0,0,78,80,133,110,71,123.85,127,9.00,7.00,-987.00
2024-06-07 01:42:56.921263,0,0,-56,0,0,0,78,80,133,110,71,123.85,127,-9.00,11.00,-973.00
2024-06-07 01:42:57.076507,0,0,-62,0,0,0,78,80,134,120,71,123.85,127,-17.00,24.00,-977.00
2024-06-07 01:42:57.219990,0,0,-67,0,0,0,78,80,135,120,71,123.86,127,1.00,13.00,-988.00
2024-06-07 01:42:57.223243,0,0,-73,0,0,0,78,80,134,120,71,123.87,127,-17.00,24.00,-968.00
2024-06-07 01:42:57.363246,0,0,-79,0,0,0,78,80,134,120,71,123.83,127,-1.00,19.00,-999.00
2024-06-07 01:42:57.521503,0,0,-85,0,0,0,78,80,134,120,71,123.90,127,1.00,13.00,-977.00
2024-06-07 01:42:57.529585,0,0,-91,0,0,0,78,80,134,120,71,123.89,127,-8.00,19.00,-996.00
2024-06-07 01:42:57.664757,0,0,-97,0,0,0,78,80,133,120,71,123.84,127,-5.00,24.00,-985.00
2024-06-07 01:42:57.828568,0,0,-103,0,0,0,78,80,133,120,71,123.86,127,-12.00,14.00,-994.00
2024-06-07 01:42:57.835019,0,0,-108,0,0,0,78,80,133,110,71,123.86,128,-21.00,11.00,-980.00
2024-06-07 01:42:57.971874,0,0,-114,0,0,0,78,80,131,110,71,123.88,128,-4.00,15.00,-1009.00
2024-06-07 01:42:58.135678,0,0,-120,0,0,0,78,80,132,110,71,123.85,128,-8.00,14.00,-1003.00
2024-06-07 01:42:58.140954,0,0,-126,0,0,0,78,80,132,110,71,123.82,128,-21.00,26.00,-1009.00
2024-06-07 01:42:58.279097,0,0,-132,0,0,0,78,80,131,110,71,123.78,128,-12.00,8.00,-1008.00
2024-06-07 01:42:58.443365,0,0,-138,0,0,0,78,80,131,110,70,123.82,128,-9.00,0.00,-977.00
2024-06-07 01:42:58.446947,0,0,-144,0,0,0,78,80,131,110,70,123.83,128,7.00,5.00,-1006.00
2024-06-07 01:42:58.587000,0,0,-150,0,0,0,78,80,131,110,70,123.82,128,11.00,-10.00,-1017.00
2024-06-07 01:42:58.750019,0,0,-155,0,0,0,78,80,131,110,70,123.86,128,-10.00,6.00,-982.00
2024-06-07 01:42:58.752924,0,0,-161,0,0,0,78,80,130,110,70,123.88,128,-4.00,5.00,-1015.00
2024-06-07 01:42:58.943927,0,0,-167,0,0,0,78,80,130,110,70,123.81,129,-8.00,2.00,-986.00
2024-06-07 01:42:58.956950,0,0,-173,0,0,0,78,80,130,110,70,123.83,129,-13.00,9.00,-971.00
2024-06-07 01:42:59.148750,0,0,-179,0,0,0,78,80,130,110,70,123.81,129,2.00,8.00,-1004.00
2024-06-07 01:42:59.160926,0,0,174,0,0,0,78,80,129,110,70,123.85,129,-20.00,15.00,-1013.00
2024-06-07 01:42:59.353494,0,0,168,0,0,0,78,80,128,110,70,123.77,129,9.00,0.00,-1000.00
2024-06-07 01:42:59.364866,0,0,162,0,0,0,78,80,128,110,70,123.90,129,15.00,5.00,-980.00
2024-06-07 01:42:59.542003,0,0,156,0,0,0,78,80,128,110,70,123.78,129,4.00,3.00,-1017.00
2024-06-07 01:42:59.568952,0,0,149,0,0,0,78,80,128,110,70,123.89,129,4.00,-5.00,-989.00
2024-06-07 01:42:59.764405,0,0,143,0,0,0,78,80,128,110,70,123.87,129,1.00,8.00,-1013.00
2024-06-07 01:42:59.772873,0,0,137,0,0,0,78,80,128,110,70,123.79,129,25.00,-8.00,-1014.00
2024-06-07 01:42:59.967924,0,0,131,0,0,0,78,80,126,110,70,123.81,130,12.00,10.00,-1003.00
2024-06-07 01:42:59.976879,0,0,125,0,0,0,78,80,127,110,70,123.82,130,-5.00,12.00,-992.00
2024-06-07 01:43:00.172700,0,0,119,0,0,0,78,80,127,110,70,123.83,130,-4.00,0.00,-997.00
2024-06-07 01:43:00.181154,0,0,113,0,0,0,78,81,127,110,70,123.82,130,20.00,10.00,-991.00
2024-06-07 01:43:00.282784,0,0,107,0,0,0,78,81,126,110,70,123.74,130,-3.00,9.00,-994.00
2024-06-07 01:43:00.384796,0,0,101,0,0,0,78,81,125,110,70,123.75,130,23.00,3.00,-1000.00
2024-06-07 01:43:00.486772,0,0,95,0,0,0,78,81,125,110,70,123.83,130,5.00,30.00,-1027.00
2024-06-07 01:43:00.588779,0,0,89,0,0,0,78,81,125,110,70,123.82,130,13.00,7.00,-995.00
2024-06-07 01:43:00.787084,0,0,83,0,0,0,78,81,124,110,70,123.73,130,6.00,-3.00,-974.00
2024-06-07 01:43:00.797647,0,0,77,0,0,0,78,81,124,110,70,123.75,130,8.00,13.00,-1001.00
2024-06-07 01:43:00.897686,0,0,71,0,0,0,78,81,124,110,70,123.79,131,-10.00,34.00,-997.00
2024-06-07 01:43:00.996767,0,0,65,0,0,0,78,81,124,110,70,123.78,131,17.00,9.00,-1002.00
2024-06-07 01:43:01.047924,0,0,59,0,0,0,78,81,125,110,70,123.82,131,15.00,24.00,-1048.00
2024-06-07 01:43:01.200693,0,0,53,0,0,0,77,80,125,110,70,123.80,131,11.00,22.00,-1003.00
2024-06-07 01:43:01.401457,0,0,47,0,0,0,77,80,125,110,70,123.80,131,11.00,19.00,-1021.00
2024-06-07 01:43:01.401546,0,0,41,0,0,0,77,80,126,110,70,123.83,131,3.00,21.00,-986.00
2024-06-07 01:43:01.456372,0,0,36,0,0,0,77,80,127,110,70,123.78,131,-5.00,21.00,-993.00
2024-06-07 01:43:01.557762,0,0,31,0,0,0,77,80,126,110,70,123.84,131,11.00,15.00,-1019.00
2024-06-07 01:43:01.711393,0,0,28,0,0,0,77,80,128,110,70,123.85,131,-9.00,23.00,-993.00
2024-06-07 01:43:01.761776,0,0,25,0,0,0,77,80,128,110,70,123.88,131,16.00,16.00,-995.00
2024-06-07 01:43:01.916005,0,0,23,0,0,0,77,80,128,110,70,123.85,132,2.00,24.00,-1000.00
2024-06-07 01:43:01.965669,0,0,21,0,0,0,77,80,128,110,70,123.81,132,-5.00,22.00,-981.00
2024-06-07 01:43:02.067829,0,0,20,0,0,0,77,80,128,110,70,123.84,132,10.00,7.00,-982.00
2024-06-07 01:43:02.220573,0,0,19,0,0,0,77,81,128,110,70,123.84,132,-3.00,7.00,-999.00
2024-06-07 01:43:02.276329,0,0,19,0,0,0,77,81,128,110,70,123.88,132,-4.00,7.00,-1011.00
2024-06-07 01:43:02.374925,0,0,18,0,0,0,77,81,128,110,70,123.82,132,0.00,15.00,-979.00
2024-06-07 01:43:02.527968,0,0,18,0,0,0,77,81,128,110,70,123.88,132,5.00,16.00,-1008.00
2024-06-07 01:43:02.577748,0,0,18,0,0,0,77,81,128,110,70,123.86,132,4.00,15.00,-1015.00
2024-06-07 01:43:02.733305,0,0,18,0,0,0,77,81,128,110,70,123.83,132,23.00,18.00,-1021.00
2024-06-07 01:43:02.781717,0,0,18,0,0,0,77,81,128,110,70,123.88,132,10.00,13.00,-1000.00
2024-06-07 01:43:02.937562,0,0,18,0,0,0,77,81,128,110,70,123.75,133,-9.00,15.00,-996.00
2024-06-07 01:43:02.985695,0,0,18,0,0,0,77,81,128,110,70,123.85,133,16.00,2.00,-1004.00
2024-06-07 01:43:03.146052,0,0,18,0,0,0,77,81,128,110,70,123.79,133,2.00,4.00,-985.00
2024-06-07 01:43:03.189730,0,0,18,0,0,0,78,80,128,110,70,123.84,133,11.00,7.00,-992.00
2024-06-07 01:43:03.347378,0,0,18,0,0,0,78,80,128,110,70,123.87,133,-9.00,15.00,-1004.00
2024-06-07 01:43:03.393854,0,0,18,0,0,0,78,80,127,110,70,123.82,133,23.00,-6.00,-1005.00
2024-06-07 01:43:03.552496,0,0,18,0,0,0,78,80,128,110,70,123.90,133,14.00,15.00,-1009.00
2024-06-07 01:43:03.597696,0,0,18,0,0,0,78,80,127,110,70,123.81,133,8.00,-3.00,-972.00
2024-06-07 01:43:03.699714,0,0,18,0,0,0,78,80,128,110,70,123.82,133,3.00,14.00,-997.00
2024-06-07 01:43:03.801714,0,0,18,0,0,0,78,80,128,110,70,123.91,133,19.00,7.00,-1029.00
2024-06-07 01:43:03.907752,0,0,18,0,0,0,78,80,128,110,70,123.88,134,-8.00,25.00,-1008.00
2024-06-07 01:43:04.005607,0,0,18,0,0,0,78,80,127,110,70,123.84,134,16.00,13.00,-1007.00
2024-06-07 01:43:04.107918,0,0,18,0,0,0,78,80,127,110,70,123.89,134,9.00,20.00,-997.00
2024-06-07 01:43:04.209933,0,0,18,0,0,0,78,80,127,110,70,123.87,134,8.00,5.00,-993.00
2024-06-07 01:43:04.328859,0,0,18,0,0,0,78,80,128,110,70,123.82,134,6.00,15.00,-1011.00
2024-06-07 01:43:04.413447,0,0,18,0,0,0,78,80,128,110,69,123.79,134,-6.00,27.00,-1009.00
2024-06-07 01:43:04.515490,0,0,18,0,0,-3,78,80,128,110,69,123.92,134,26.00,29.00,-1401.00
2024-06-07 01:43:04.678104,0,-6,18,0,0,-10,78,80,133,120,69,123.99,134,29.00,31.00,-1775.00
2024-06-07 01:43:04.719445,0,-87,18,1,-4,-12,78,80,195,130,69,124.23,134,-27.00,375.00,-1214.00
2024-06-07 01:43:04.882896,1,147,19,3,-9,1,78,80,178,140,69,124.27,135,0.00,590.00,-1056.00
2024-06-07 01:43:04.882977,1,33,15,2,-4,12,78,80,186,130,69,124.43,135,-16.00,470.00,-848.00
2024-06-07 01:43:04.974382,0,-2,14,1,-2,10,78,80,138,120,69,123.96,135,27.00,-120.00,-1593.00
2024-06-07 01:43:05.087903,0,1,13,1,-2,7,78,80,129,110,69,123.78,135,-18.00,1.00,-1411.00
2024-06-07 01:43:05.178360,0,2,15,1,-1,3,78,80,123,100,69,123.75,135,-20.00,-1.00,-1405.00
2024-06-07 01:43:05.299569,0,0,18,1,-1,1,78,80,120,100,69,123.79,135,-27.00,46.00,-1191.00
2024-06-07 01:43:05.382280,0,0,18,0,-1,0,78,80,119,100,69,123.79,135,-8.00,8.00,-1199.00
2024-06-07 01:43:05.497191,0,0,18,0,0,-1,78,80,121,100,69,123.77,135,-5.00,14.00,-1104.00
2024-06-07 01:43:05.590166,0,0,18,0,0,-1,78,80,123,100,69,123.85,135,20.00,15.00,-1070.00
2024-06-07 01:43:05.688356,0,1,18,0,0,-1,78,80,125,100,69,123.81,135,11.00,-2.00,-1010.00
2024-06-07 01:43:05.804471,0,2,18,0,0,-1,78,80,128,100,69,123.76,136,0.00,11.00,-946.00
2024-06-07 01:43:05.892451,0,1,18,0,0,0,78,80,129,110,69,123.84,136,-14.00,21.00,-950.00
2024-06-07 01:43:06.009681,0,0,18,0,0,0,78,80,131,110,69,123.84,136,-5.00,23.00,-983.00
2024-06-07 01:43:06.096333,0,0,18,0,0,0,78,80,131,110,69,123.90,136,11.00,13.00,-974.00
2024-06-07 01:43:06.214143,0,0,18,0,0,0,78,80,132,110,69,123.82,136,0.00,22.00,-974.00
2024-06-07 01:43:06.300363,0,0,18,0,0,0,78,80,132,110,69,123.93,136,11.00,-3.00,-936.00
2024-06-07 01:43:06.418925,0,0,18,0,0,0,78,80,132,110,69,123.90,136,7.00,18.00,-995.00
2024-06-07 01:43:06.504287,0,0,18,0,0,0,78,80,132,110,69,123.91,136,18.00,1.00,-979.00
2024-06-07 01:43:06.606252,0,0,18,0,0,0,78,80,131,110,69,123.88,136,-3.00,20.00,-989.00
2024-06-07 01:43:06.713926,0,0,18,0,0,0,78,80,130,110,69,123.87,136,6.00,17.00,-999.00
2024-06-07 01:43:06.810328,0,0,18,0,0,0,78,80,130,110,69,123.87,137,10.00,18.00,-1008.00
2024-06-07 01:43:06.930955,0,0,18,0,0,0,78,80,129,110,69,123.78,137,-10.00,16.00,-984.00
2024-06-07 01:43:07.014868,0,0,18,0,0,0,78,80,129,110,69,123.84,137,-5.00,23.00,-995.00
2024-06-07 01:43:07.116403,0,0,18,0,0,0,78,80,128,110,69,123.81,137,-9.00,26.00,-1016.00
2024-06-07 01:43:07.238015,0,0,18,0,0,0,77,81,128,110,69,123.79,137,4.00,12.00,-998.00
2024-06-07 01:43:07.321270,0,0,18,0,0,0,77,81,128,110,69,123.81,137,-14.00,26.00,-1028.00
2024-06-07 01:43:07.442776,0,0,18,0,0,0,77,81,127,110,68,123.86,137,17.00,9.00,-1004.00
2024-06-07 01:43:07.525613,0,0,18,0,0,0,77,81,128,110,68,123.77,137,4.00,14.00,-988.00
2024-06-07 01:43:07.647643,0,0,18,0,0,0,77,81,127,110,68,123.79,137,-15.00,2.00,-984.00
2024-06-07 01:43:07.730861,0,0,18,0,0,0,77,81,127,110,68,123.74,137,-4.00,10.00,-1007.00
2024-06-07 01:43:07.832056,0,0,18,0,0,0,77,81,127,110,68,123.75,138,-11.00,15.00,-1033.00
2024-06-07 01:43:07.933442,0,0,18,0,0,0,77,81,127,110,68,123.81,138,2.00,20.00,-1007.00
2024-06-07 01:43:07.984243,0,0,18,0,0,0,77,81,127,110,68,123.84,138,5.00,0.00,-991.00
2024-06-07 01:43:08.160606,0,0,18,0,0,0,77,81,127,110,68,123.86,138,-5.00,9.00,-991.00
2024-06-07 01:43:08.239279,0,0,18,0,0,0,78,80,128,110,68,123.84,138,7.00,1.00,-993.00
2024-06-07 01:43:08.341263,0,0,18,0,0,0,78,80,127,110,68,123.85,138,12.00,2.00,-1016.00
2024-06-07 01:43:08.443278,0,0,18,0,0,0,78,80,128,110,68,123.88,138,-4.00,12.00,-1004.00
2024-06-07 01:43:08.569332,0,0,18,0,0,0,78,80,128,110,68,123.84,138,-5.00,7.00,-1000.00
2024-06-07 01:43:08.598119,0,0,18,0,0,0,78,80,128,110,68,123.85,138,-13.00,2.00,-975.00
2024-06-07 01:43:08.698155,0,0,18,0,0,0,78,80,128,110,68,123.85,138,-11.00,21.00,-1013.00
2024-06-07 01:43:08.800209,0,0,18,0,0,0,78,80,128,110,68,123.81,139,-17.00,13.00,-993.00
2024-06-07 01:43:08.902232,0,0,18,0,0,0,78,80,129,110,68,123.84,139,9.00,15.00,-1001.00
2024-06-07 01:43:09.004198,0,0,18,0,0,0,78,80,129,110,68,123.89,139,-13.00,12.00,-993.00
2024-06-07 01:43:09.184005,0,0,18,0,0,0,78,80,128,110,68,123.87,139,6.00,9.00,-991.00
2024-06-07 01:43:09.208328,0,0,18,0,0,0,79,80,129,110,68,123.87,139,-4.00,5.00,-968.00
2024-06-07 01:43:09.310084,0,0,18,0,0,0,79,80,129,110,68,123.89,139,-6.00,12.00,-1009.00
2024-06-07 01:43:09.493891,0,0,18,0,0,0,79,80,129,110,68,123.85,139,-6.00,13.00,-1014.00
2024-06-07 01:43:09.514118,0,0,18,0,0,0,79,80,129,110,68,123.84,139,-2.00,13.00,-1008.00
2024-06-07 01:43:09.616255,0,0,18,0,0,0,79,80,129,110,68,123.86,139,0.00,19.00,-998.00
2024-06-07 01:43:09.718243,0,0,18,0,0,0,79,80,130,110,68,123.84,139,6.00,10.00,-1014.00
2024-06-07 01:43:09.900439,0,0,18,0,0,0,79,80,130,110,68,123.88,140,-7.00,-1.00,-980.00
2024-06-07 01:43:09.923345,0,0,18,0,0,0,79,80,131,110,68,123.83,140,3.00,8.00,-1007.00
2024-06-07 01:43:10.106091,0,0,18,0,0,0,79,80,130,110,68,123.84,140,15.00,-9.00,-993.00
2024-06-07 01:43:10.125994,0,0,18,0,0,0,79,80,130,110,68,123.81,140,14.00,13.00,-991.00
2024-06-07 01:43:10.310180,0,0,18,0,0,0,79,81,130,110,68,123.83,140,0.00,20.00,-1003.00
2024-06-07 01:43:10.330072,0,0,18,0,0,0,79,81,130,110,68,123.83,140,9.00,-4.00,-982.00
2024-06-07 01:43:10.515276,0,0,18,0,0,0,79,81,130,110,68,123.83,140,20.00,4.00,-1013.00
2024-06-07 01:43:10.534338,0,0,18,0,0,0,79,81,130,110,68,123.83,140,7.00,13.00,-1010.00
2024-06-07 01:43:10.719855,0,0,18,0,0,0,79,81,129,110,68,123.82,140,10.00,6.00,-993.00
2024-06-07 01:43:10.738004,0,0,18,0,0,0,79,81,129,110,68,123.79,140,23.00,7.00,-1017.00
2024-06-07 01:43:10.885477,0,0,18,0,0,0,79,81,129,110,68,123.82,141,2.00,5.00,-994.00
2024-06-07 01:43:10.942308,0,0,18,0,0,0,79,81,128,110,68,123.81,141,19.00,-8.00,-1000.00
2024-06-07 01:43:11.111176,0,0,18,0,0,0,79,81,127,110,68,123.85,141,8.00,3.00,-1471.00
2024-06-07 01:43:11.145881,0,0,18,0,0,-6,79,81,133,110,68,123.93,141,-9.00,19.00,-1801.00
2024-06-07 01:43:11.346890,0,22,18,0,1,-12,78,80,169,120,68,123.98,141,7.00,5.00,-1741.00
2024-06-07 01:43:11.349825,0,129,17,-2,8,-9,78,80,217,130,68,124.21,141,10.00,752.00,-1128.00
2024-06-07 01:43:11.461559,0,-106,18,-2,8,6,78,80,732,130,68,124.26,141,13.00,735.00,-810.00
2024-06-07 01:43:11.623208,0,-6,19,0,3,10,78,80,141,130,68,124.07,141,31.00,498.00,-1010.00
2024-06-07 01:43:11.672648,0,3,19,-1,4,8,78,80,130,120,68,123.77,141,-5.00,-1.00,-1415.00
2024-06-07 01:43:11.797588,0,-4,18,-1,5,4,78,80,125,110,68,123.79,141,-11.00,-16.00,-1338.00
2024-06-07 01:43:11.859896,0,-4,18,0,3,1,78,80,121,100,68,123.73,142,15.00,11.00,-1203.00
2024-06-07 01:43:12.153023,0,-3,18,0,3,0,78,80,119,100,68,123.75,142,19.00,3.00,-1098.00
2024-06-07 01:43:12.153659,0,-2,18,0,2,0,78,80,120,100,68,123.76,142,-13.00,7.00,-1059.00
2024-06-07 01:43:12.154068,0,-2,18,0,1,-1,78,80,121,100,68,123.72,142,-3.00,0.00,-1047.00
2024-06-07 01:43:12.288486,0,-1,18,0,1,-1,78,80,122,100,68,123.80,142,3.00,1.00,-994.00
2024-06-07 01:43:12.433679,0,-1,18,0,1,-1,78,80,123,100,68,123.87,142,7.00,-7.00,-981.00
2024-06-07 01:43:12.433847,0,0,18,0,1,-1,78,80,125,110,68,123.84,142,7.00,4.00,-976.00
2024-06-07 01:43:12.578780,0,-2,18,0,1,0,78,80,125,110,68,123.82,142,24.00,-1.00,-980.00
2024-06-07 01:43:12.721973,0,-4,18,0,1,0,78,80,126,110,68,123.83,142,19.00,-15.00,-953.00
2024-06-07 01:43:12.726950,0,-3,18,0,0,0,78,80,127,110,68,123.75,142,1.00,13.00,-1016.00
2024-06-07 01:43:12.883869,0,-2,18,0,0,0,78,80,127,110,68,123.78,143,-6.00,16.00,-1009.00
2024-06-07 01:43:12.947872,0,-2,18,0,0,0,78,80,128,110,68,123.79,143,14.00,-6.00,-986.00
2024-06-07 01:43:13.032771,0,-2,18,0,0,0,78,80,128,110,68,123.81,143,-8.00,18.00,-988.00
2024-06-07 01:43:13.177040,0,-1,18,0,0,0,78,80,128,110,68,123.87,143,8.00,0.00,-990.00
2024-06-07 01:43:13.236745,0,-1,18,0,0,0,78,80,129,110,68,123.85,143,6.00,21.00,-1006.00
2024-06-07 01:43:13.383201,0,-2,18,0,0,0,78,80,129,110,67,123.79,143,-13.00,11.00,-1014.00
2024-06-07 01:43:13.440770,0,-2,18,0,0,0,78,80,130,110,67,123.82,143,6.00,-1.00,-991.00
2024-06-07 01:43:13.542905,0,-2,18,0,0,0,78,80,131,110,67,123.80,143,16.00,12.00,-1027.00
2024-06-07 01:43:13.690301,0,-2,18,0,0,0,78,80,131,110,67,123.76,143,-12.00,3.00,-975.00
2024-06-07 01:43:13.746822,0,-2,18,0,0,0,78,80,133,110,67,123.87,143,12.00,2.00,-979.00
2024-06-07 01:43:13.893875,0,-2,18,0,0,0,78,80,132,110,67,123.83,144,10.00,0.00,-943.00
2024-06-07 01:43:13.950717,0,-2,18,0,0,0,78,80,133,110,67,123.84,144,2.00,14.00,-979.00
2024-06-07 01:43:14.052691,0,-2,18,0,0,0,78,80,133,110,67,123.79,144,9.00,22.00,-1010.00
2024-06-07 01:43:14.202190,0,-2,18,0,0,0,78,80,133,110,67,123.88,144,-16.00,23.00,-1003.00
2024-06-07 01:43:14.257038,0,-2,18,0,0,0,77,80,133,110,67,123.84,144,0.00,22.00,-991.00
2024-06-07 01:43:14.405736,0,-2,18,0,0,0,77,80,133,110,67,123.83,144,9.00,8.00,-990.00
2024-06-07 01:43:14.460610,0,-2,18,0,0,0,77,80,133,110,67,123.85,144,19.00,5.00,-1003.00
2024-06-07 01:43:14.562747,0,-1,18,0,0,0,77,80,133,110,67,123.79,144,3.00,30.00,-1006.00
2024-06-07 01:43:14.713050,0,-1,18,0,0,0,77,80,132,110,67,123.80,144,-9.00,19.00,-996.00
2024-06-07 01:43:14.766850,0,-1,18,0,0,0,77,80,132,110,67,123.82,144,10.00,16.00,-976.00
2024-06-07 01:43:14.917912,0,-1,18,0,0,0,77,80,131,110,67,123.81,145,-13.00,29.00,-1012.00
2024-06-07 01:43:14.971022,0,-1,18,0,0,0,77,80,131,110,67,123.75,145,-7.00,20.00,-1022.00
2024-06-07 01:43:15.122560,0,-1,18,0,0,0,77,80,131,110,67,123.85,145,3.00,8.00,-990.00
2024-06-07 01:43:15.174657,0,0,18,0,0,0,77,80,131,110,67,123.82,145,0.00,18.00,-1021.00
2024-06-07 01:43:15.327391,0,0,18,0,0,0,78,80,130,110,67,123.76,145,1.00,8.00,-992.00
2024-06-07 01:43:15.384074,0,0,18,0,0,0,78,80,131,110,66,123.80,145,12.00,8.00,-993.00
2024-06-07 01:43:15.482161,0,0,18,0,0,0,78,80,130,110,66,123.77,145,-28.00,24.00,-991.00
2024-06-07 01:43:15.584222,0,0,18,0,0,0,78,80,130,110,66,123.79,145,9.00,8.00,-982.00
2024-06-07 01:43:15.686740,0,0,18,0,0,0,78,80,130,110,66,123.76,145,3.00,6.00,-1006.00
2024-06-07 01:43:15.789367,0,0,18,0,0,0,78,80,130,110,66,123.76,145,5.00,17.00,-1009.00
2024-06-07 01:43:15.837511,0,0,18,0,0,0,78,80,130,110,66,123.78,146,-12.00,20.00,-999.00
2024-06-07 01:43:15.941760,0,0,18,0,0,0,78,80,130,110,66,123.84,146,-1.00,5.00,-998.00
2024-06-07 01:43:16.041569,0,0,18,0,0,0,78,80,130,110,66,123.78,146,-31.00,19.00,-979.00
2024-06-07 01:43:16.152899,0,0,18,0,0,0,78,80,130,110,66,123.80,146,-4.00,27.00,-1043.00
2024-06-07 01:43:16.245573,0,0,18,0,0,0,77,81,130,110,66,123.79,146,0.00,12.00,-997.00
2024-06-07 01:43:16.347716,0,0,18,0,0,0,77,81,129,110,66,123.83,146,-3.00,12.00,-993.00
2024-06-07 01:43:16.449625,0,0,18,0,0,0,77,81,130,110,66,123.79,146,-25.00,12.00,-1011.00
2024-06-07 01:43:16.551972,0,0,18,0,0,0,77,81,130,110,66,123.85,146,-6.00,21.00,-1006.00
2024-06-07 01:43:16.653562,0,0,18,0,0,0,77,81,129,110,66,123.77,146,-24.00,22.00,-977.00
2024-06-07 01:43:16.755983,0,0,18,0,0,0,77,81,130,110,66,123.86,146,-5.00,13.00,-1027.00
2024-06-07 01:43:16.865549,0,0,18,0,0,0,77,81,129,110,66,123.78,147,1.00,8.00,-986.00
2024-06-07 01:43:16.959966,0,0,18,0,0,0,77,81,129,110,66,123.78,147,-16.00,14.00,-978.00
2024-06-07 01:43:17.073306,0,0,18,0,0,0,77,81,129,110,66,123.78,147,-19.00,12.00,-1009.00
2024-06-07 01:43:17.164090,0,0,18,0,0,0,77,81,129,110,66,123.76,147,4.00,10.00,-1004.00
2024-06-07 01:43:17.273043,0,0,18,0,0,0,78,80,130,110,66,123.80,147,-12.00,22.00,-1034.00
2024-06-07 01:43:17.367574,0,0,18,0,0,0,78,80,130,110,66,123.77,147,-11.00,17.00,-986.00
2024-06-07 01:43:17.479577,0,0,18,0,0,0,78,80,130,110,66,123.81,147,0.00,7.00,-989.00
2024-06-07 01:43:17.571878,0,0,18,0,0,0,78,80,130,110,66,123.78,147,3.00,-2.00,-1003.00
2024-06-07 01:43:17.682570,0,0,18,0,0,0,78,80,132,110,66,123.95,147,3.00,16.00,-1501.00
2024-06-07 01:43:17.775877,0,0,18,0,0,-3,78,80,137,110,66,124.03,147,6.00,28.00,-1774.00
2024-06-07 01:43:17.887191,-6,0,18,0,0,-10,78,80,209,120,66,124.28,148,122.00,2.00,-1725.00
2024-06-07 01:43:17.979366,-86,1,16,5,2,-12,78,80,174,130,66,124.14,148,708.00,32.00,-1082.00
2024-06-07 01:43:18.091979,31,-179,-161,10,3,0,78,80,351,140,66,123.78,148,656.00,25.00,-869.00
2024-06-07 01:43:18.183332,32,0,17,4,2,12,78,80,147,130,66,123.92,148,457.00,29.00,-1082.00
2024-06-07 01:43:18.300015,-18,0,17,4,2,11,77,80,134,120,66,123.72,148,-12.00,-4.00,-1455.00
2024-06-07 01:43:18.387322,2,0,17,7,3,7,77,80,130,110,66,123.96,148,-21.00,-2.00,-1423.00
