TS,pitch,roll,yaw,vgx,vgy,vgz,templ,temph,tof,h,bat,baro,time,agx,agy,agz
2024-06-07 01:43:51.474364,0,0,18,0,0,0,82,83,10,0,64,122.35,164,0.00,9.00,-1001.00
2024-06-07 01:43:51.540842,0,0,18,0,0,0,82,83,10,0,64,122.36,164,0.00,9.00,-1000.00
2024-06-07 01:43:51.678359,0,0,18,0,0,0,82,83,10,0,64,122.33,164,0.00,10.00,-1000.00
2024-06-07 01:43:51.744554,0,0,18,0,0,0,82,83,10,0,64,122.29,164,0.00,9.00,-1001.00
2024-06-07 01:43:51.883118,0,0,18,0,0,0,82,83,10,0,64,122.34,164,0.00,8.00,-1001.00
2024-06-07 01:43:51.948395,0,0,18,0,0,0,82,83,10,0,64,122.29,164,0.00,10.00,-1000.00
2024-06-07 01:43:52.087403,0,0,18,0,0,0,82,83,10,0,64,122.30,164,0.00,8.00,-1003.00
2024-06-07 01:43:52.152454,0,0,18,0,0,0,82,83,10,0,64,122.32,164,0.00,8.00,-998.00
2024-06-07 01:43:52.292167,0,0,18,0,0,0,82,83,10,0,64,122.34,164,-1.00,9.00,-997.00
2024-06-07 01:43:52.357005,0,0,18,0,0,0,82,83,10,0,64,122.35,164,0.00,8.00,-998.00
2024-06-07 01:43:52.458535,0,0,18,0,0,0,81,82,10,0,64,122.32,164,1.00,8.00,-999.00
2024-06-07 01:43:52.601156,0,0,18,0,0,0,81,82,10,0,64,122.30,164,0.00,8.00,-1000.00
2024-06-07 01:43:52.662510,0,0,18,0,0,0,81,82,10,0,64,122.33,164,0.00,9.00,-1002.00
2024-06-07 01:43:52.805934,0,0,18,0,0,0,81,82,10,0,64,122.32,164,0.00,8.00,-998.00
2024-06-07 01:43:52.866456,0,0,18,0,0,0,81,82,10,0,64,122.32,164,0.00,9.00,-999.00
2024-06-07 01:43:52.968353,0,0,18,0,0,0,81,82,10,0,64,122.30,164,0.00,9.00,-1002.00
2024-06-07 01:43:53.070132,0,0,18,0,0,0,81,82,10,0,64,122.30,164,0.00,7.00,-1001.00
2024-06-07 01:43:53.218774,0,0,18,0,0,0,81,82,10,0,64,122.30,164,2.00,13.00,-1001.00
2024-06-07 01:43:53.274105,0,0,18,0,0,0,81,82,10,0,64,122.30,164,7.00,10.00,-993.00
2024-06-07 01:43:53.376193,0,0,18,0,0,0,81,82,10,0,64,122.30,164,4.00,-7.00,-979.00
2024-06-07 01:43:53.523153,0,0,17,0,0,0,81,84,10,0,64,122.30,164,-8.00,12.00,-1039.00
2024-06-07 01:43:53.580302,-1,0,17,0,0,0,81,84,10,0,64,122.30,164,27.00,0.00,-1160.00
2024-06-07 01:43:53.682153,-1,0,17,0,0,-1,81,84,10,0,64,122.30,165,1.00,20.00,-1389.00
2024-06-07 01:43:53.827914,0,0,17,0,0,-4,81,84,12,0,64,122.30,165,9.00,23.00,-1253.00
2024-06-07 01:43:53.886093,1,0,17,0,0,-6,81,84,20,0,64,122.61,165,10.00,-2.00,-1056.00
2024-06-07 01:43:54.032782,1,0,17,0,0,-7,81,84,28,10,64,122.67,165,-9.00,8.00,-978.00
2024-06-07 01:43:54.092411,0,0,17,0,0,-8,81,84,37,20,64,122.76,165,12.00,5.00,-990.00
2024-06-07 01:43:54.192170,0,0,17,0,0,-7,81,84,42,30,64,122.84,165,-6.00,1.00,-916.00
2024-06-07 01:43:54.294080,0,0,17,0,0,-7,81,84,50,30,64,122.88,165,5.00,-3.00,-909.00
2024-06-07 01:43:54.442319,0,0,17,0,0,-6,81,84,57,40,64,122.98,165,-4.00,4.00,-892.00
2024-06-07 01:43:54.498091,0,0,17,0,0,-5,82,83,61,50,64,123.07,165,19.00,-10.00,-892.00
2024-06-07 01:43:54.647123,0,-1,17,0,0,-4,82,83,67,50,64,123.16,165,-4.00,11.00,-905.00
2024-06-07 01:43:54.702268,0,0,17,0,0,-3,82,83,71,50,64,123.13,166,0.00,12.00,-905.00
2024-06-07 01:43:54.753165,0,0,17,0,0,-2,82,83,73,60,64,123.20,166,-5.00,2.00,-916.00
2024-06-07 01:43:54.857033,0,0,17,0,0,-1,82,83,75,60,64,123.18,166,-13.00,21.00,-940.00
2024-06-07 01:43:54.957511,0,0,17,0,0,0,82,83,77,60,64,123.22,166,-10.00,7.00,-936.00
2024-06-07 01:43:55.059145,0,0,17,0,0,0,82,83,78,60,64,123.27,166,-8.00,16.00,-982.00
2024-06-07 01:43:55.161254,0,0,17,0,0,0,82,83,79,60,64,123.20,166,2.00,10.00,-999.00
2024-06-07 01:43:55.263587,0,0,17,0,0,0,82,83,79,60,64,123.24,166,16.00,9.00,-992.00
2024-06-07 01:43:55.365109,0,0,17,0,0,0,82,83,80,60,64,123.23,166,-14.00,0.00,-949.00
2024-06-07 01:43:55.471966,0,0,17,0,0,0,81,84,80,60,64,123.31,166,-2.00,9.00,-997.00
2024-06-07 01:43:55.569143,0,0,17,0,0,0,81,84,81,60,64,123.27,166,36.00,14.00,-1037.00
2024-06-07 01:43:55.671297,0,0,17,0,0,0,81,84,81,70,64,123.26,167,-4.00,16.00,-991.00
2024-06-07 01:43:55.773626,0,0,17,0,0,0,81,84,82,70,64,123.25,167,-14.00,15.00,-996.00
2024-06-07 01:43:55.875916,0,0,17,0,0,0,81,84,83,70,64,123.24,167,4.00,8.00,-978.00
2024-06-07 01:43:55.978410,0,0,17,0,0,0,81,84,82,70,64,123.30,167,-23.00,5.00,-969.00
2024-06-07 01:43:56.080964,0,0,17,0,0,0,81,84,82,70,64,123.23,167,6.00,24.00,-1006.00
2024-06-07 01:43:56.196594,0,0,17,0,0,0,81,84,82,70,64,123.22,167,-4.00,21.00,-984.00
2024-06-07 01:43:56.341307,0,-1,17,0,0,0,81,84,82,70,64,123.27,167,-7.00,15.00,-983.00
2024-06-07 01:43:56.384962,0,-1,17,0,0,0,81,84,82,70,64,123.28,167,-13.00,18.00,-1016.00
2024-06-07 01:43:56.486981,0,-1,17,0,0,0,82,84,81,70,64,123.20,167,3.00,18.00,-1037.00
2024-06-07 01:43:56.654932,0,0,17,0,0,0,82,84,80,70,64,123.27,168,-7.00,16.00,-1007.00
2024-06-07 01:43:56.691207,0,0,17,0,0,0,82,84,80,70,64,123.26,168,7.00,12.00,-964.00
2024-06-07 01:43:56.838291,0,0,17,0,0,0,82,84,79,70,64,123.21,168,-6.00,14.00,-973.00
2024-06-07 01:43:56.895200,0,0,17,0,0,0,82,84,78,60,64,123.23,168,-3.00,11.00,-1003.00
2024-06-07 01:43:57.003101,0,0,17,0,0,0,82,84,79,60,64,123.26,168,0.00,8.00,-1045.00
2024-06-07 01:43:57.154127,0,0,17,0,0,0,82,84,78,60,64,123.23,168,11.00,17.00,-1010.00
2024-06-07 01:43:57.201087,0,0,17,0,0,0,82,84,79,60,64,123.16,168,-19.00,16.00,-1023.00
2024-06-07 01:43:57.309805,0,-1,17,0,0,0,82,84,79,60,64,123.23,168,-8.00,22.00,-1031.00
2024-06-07 01:43:57.422960,0,-1,17,0,0,0,82,84,79,60,64,123.28,168,0.00,10.00,-999.00
2024-06-07 01:43:57.566167,0,0,17,0,0,0,82,83,80,70,64,123.21,168,12.00,7.00,-971.00
2024-06-07 01:43:57.610619,0,0,17,0,0,0,82,83,80,70,64,123.24,169,7.00,6.00,-962.00
2024-06-07 01:43:57.733251,0,0,17,0,0,0,82,83,81,70,64,123.29,169,30.00,2.00,-998.00
2024-06-07 01:43:57.876249,0,0,17,0,0,0,82,83,81,70,64,123.30,169,2.00,11.00,-970.00
2024-06-07 01:43:57.914881,0,0,17,0,0,0,82,83,81,70,64,123.22,169,16.00,20.00,-1047.00
2024-06-07 01:43:58.037156,0,0,17,0,0,0,82,83,82,70,64,123.35,169,-2.00,12.00,-980.00
2024-06-07 01:43:58.194532,0,0,17,0,0,0,82,83,82,70,64,123.34,169,22.00,0.00,-1001.00
2024-06-07 01:43:58.221140,0,0,17,0,0,0,82,83,82,70,64,123.32,169,-5.00,15.00,-978.00
2024-06-07 01:43:58.272111,0,-1,17,0,0,0,82,83,83,70,64,123.32,169,-10.00,15.00,-1023.00
2024-06-07 01:43:58.441194,-1,-1,17,0,0,0,82,83,84,70,64,123.32,169,-13.00,12.00,-1006.00
2024-06-07 01:43:58.526987,-1,-1,17,0,0,0,81,83,84,70,64,123.33,169,-13.00,32.00,-1027.00
2024-06-07 01:43:58.579221,0,-1,17,0,0,0,81,83,85,70,64,123.32,170,6.00,17.00,-987.00
2024-06-07 01:43:58.681617,0,-1,17,0,0,0,81,83,86,70,64,123.22,170,-12.00,13.00,-982.00
2024-06-07 01:43:58.781835,0,-1,17,0,0,0,81,83,86,70,64,123.33,170,0.00,13.00,-971.00
2024-06-07 01:43:58.884071,0,-1,17,0,0,0,81,83,86,70,64,123.21,170,10.00,2.00,-966.00
2024-06-07 01:43:58.985801,0,-1,17,0,0,0,81,83,86,70,64,123.20,170,-11.00,17.00,-973.00
2024-06-07 01:43:59.089288,0,0,17,0,0,0,81,83,86,70,64,123.29,170,9.00,13.00,-1113.00
2024-06-07 01:43:59.191572,0,0,17,0,0,-1,81,83,87,70,64,123.30,170,8.00,14.00,-1105.00
2024-06-07 01:43:59.294462,0,0,17,0,0,-2,81,83,89,70,64,123.30,170,-13.00,-1.00,-1074.00
2024-06-07 01:43:59.393855,0,0,17,0,0,-3,81,83,92,80,64,123.35,170,2.00,20.00,-1138.00
2024-06-07 01:43:59.562164,0,0,17,0,0,-4,81,83,96,80,64,123.41,170,8.00,19.00,-1079.00
2024-06-07 01:43:59.597760,0,0,17,0,0,-4,81,83,100,90,64,123.43,171,-14.00,16.00,-1091.00
2024-06-07 01:43:59.700068,0,0,17,0,0,-5,81,83,105,90,64,123.47,171,-19.00,15.00,-1046.00
2024-06-07 01:43:59.870851,0,0,17,0,0,-5,81,83,110,100,64,123.48,171,-17.00,5.00,-1019.00
2024-06-07 01:43:59.903746,0,0,17,0,0,-5,81,83,116,100,64,123.64,171,-20.00,15.00,-1048.00
2024-06-07 01:44:00.007141,0,0,17,0,0,-5,81,83,121,110,64,123.67,171,-7.00,17.00,-1001.00
2024-06-07 01:44:00.107729,0,0,17,0,0,-5,81,83,127,110,64,123.69,171,-6.00,14.00,-982.00
2024-06-07 01:44:00.278930,0,0,17,0,0,-5,81,83,132,120,64,123.71,171,-1.00,9.00,-999.00
2024-06-07 01:44:00.311734,0,0,17,0,0,-5,81,83,137,120,64,123.72,171,-9.00,9.00,-953.00
2024-06-07 01:44:00.484530,0,0,17,0,0,-4,81,83,142,130,64,123.78,171,11.00,21.00,-984.00
2024-06-07 01:44:00.515680,0,0,17,0,0,-4,81,83,149,130,64,123.87,171,-19.00,15.00,-966.00
2024-06-07 01:44:00.688699,0,0,17,0,0,-3,81,83,152,140,64,123.86,172,-8.00,14.00,-987.00
2024-06-07 01:44:00.720441,0,0,17,0,0,-3,81,83,156,140,64,123.95,172,30.00,-1.00,-982.00
2024-06-07 01:44:00.893900,0,0,17,0,0,-3,81,83,160,140,64,123.94,172,-1.00,2.00,-967.00
2024-06-07 01:44:00.924633,0,0,17,0,0,-3,81,83,164,150,64,124.00,172,-5.00,18.00,-996.00
2024-06-07 01:44:01.098114,0,0,17,0,0,-2,81,83,166,150,64,123.97,172,4.00,1.00,-966.00
2024-06-07 01:44:01.128591,0,0,17,0,0,-2,81,83,168,150,64,124.03,172,-17.00,7.00,-972.00
2024-06-07 01:44:01.230946,0,0,17,0,0,-2,81,83,172,160,64,124.04,172,-6.00,8.00,-976.00
2024-06-07 01:44:01.405193,0,0,17,0,0,-2,81,83,173,160,64,124.05,172,14.00,-12.00,-960.00
2024-06-07 01:44:01.434588,0,0,17,0,0,-1,81,83,175,160,64,124.08,172,-11.00,11.00,-976.00
2024-06-07 01:44:01.537820,0,0,17,0,0,-1,81,83,177,160,64,124.07,172,-9.00,1.00,-954.00
2024-06-07 01:44:01.713282,0,0,17,0,0,-1,81,83,178,160,64,124.11,173,-28.00,25.00,-986.00
2024-06-07 01:44:01.740528,0,0,17,0,0,-1,81,83,178,160,64,124.11,173,-2.00,11.00,-1021.00
2024-06-07 01:44:01.917264,0,0,17,0,0,0,81,83,180,160,64,124.03,173,3.00,8.00,-994.00
2024-06-07 01:44:01.944697,0,0,17,0,0,0,81,83,180,170,64,124.06,173,-9.00,13.00,-1012.00
2024-06-07 01:44:02.124690,0,0,17,0,0,0,81,83,180,170,64,124.11,173,2.00,7.00,-961.00
2024-06-07 01:44:02.148626,0,0,17,0,0,0,81,83,181,170,64,124.09,173,-8.00,9.00,-986.00
2024-06-07 01:44:02.199498,0,0,17,0,0,0,81,83,181,170,64,124.08,173,10.00,1.00,-970.00
2024-06-07 01:44:02.327178,0,0,17,0,0,0,81,83,182,170,64,124.10,173,-3.00,5.00,-1016.00
2024-06-07 01:44:02.403649,0,0,17,0,0,0,81,83,181,170,64,124.11,173,-21.00,11.00,-996.00
2024-06-07 01:44:02.557080,0,0,17,0,0,0,81,83,181,170,64,124.17,173,-9.00,4.00,-975.00
2024-06-07 01:44:02.607622,0,0,17,0,0,0,81,83,180,170,64,124.17,174,0.00,3.00,-1002.00
2024-06-07 01:44:02.737066,0,0,17,0,0,0,81,83,182,170,64,124.07,174,3.00,-9.00,-965.00
2024-06-07 01:44:02.811434,0,0,17,0,0,0,81,83,181,170,64,124.11,174,-11.00,10.00,-1015.00
2024-06-07 01:44:02.941299,0,0,17,0,0,0,81,83,180,170,64,124.10,174,0.00,-2.00,-977.00
2024-06-07 01:44:03.015597,0,0,17,0,0,0,81,83,180,170,64,124.09,174,-23.00,15.00,-1025.00
2024-06-07 01:44:03.146129,0,0,17,0,0,0,81,83,181,170,64,124.09,174,-8.00,6.00,-977.00
2024-06-07 01:44:03.219619,0,0,17,0,0,0,81,83,181,170,64,124.07,174,12.00,-8.00,-983.00
2024-06-07 01:44:03.351053,0,0,17,0,0,0,81,83,180,170,64,124.12,174,-5.00,15.00,-1020.00
2024-06-07 01:44:03.423619,0,0,17,0,0,0,81,83,180,170,64,124.09,174,-25.00,4.00,-956.00
2024-06-07 01:44:03.555753,0,0,17,0,0,0,80,83,180,170,64,124.09,174,-4.00,1.00,-995.00
2024-06-07 01:44:03.627660,0,0,17,0,0,0,80,83,178,170,64,124.12,175,-21.00,6.00,-1000.00
2024-06-07 01:44:03.760685,0,0,17,0,0,0,80,83,179,170,64,124.05,175,20.00,2.00,-1031.00
2024-06-07 01:44:03.832432,0,0,17,0,0,0,80,83,179,170,64,124.06,175,-1.00,0.00,-1002.00
2024-06-07 01:44:03.946976,0,0,17,0,0,0,80,83,179,170,64,124.10,175,-20.00,20.00,-1035.00
2024-06-07 01:44:04.036364,0,0,17,0,0,0,80,83,179,170,64,124.09,175,-14.00,8.00,-1013.00
2024-06-07 01:44:04.169979,0,0,17,0,0,0,80,83,179,170,64,124.07,175,-15.00,7.00,-956.00
2024-06-07 01:44:04.240893,0,0,17,0,0,0,80,83,178,170,64,124.10,175,-15.00,15.00,-940.00
2024-06-07 01:44:04.374759,0,0,17,0,0,0,80,83,177,160,64,124.06,175,0.00,2.00,-939.00
2024-06-07 01:44:04.444309,0,0,17,0,0,1,80,83,176,160,64,124.04,175,-19.00,14.00,-964.00
2024-06-07 01:44:04.579543,0,0,17,0,0,1,80,82,174,160,64,124.06,175,-11.00,15.00,-973.00
2024-06-07 01:44:04.648321,0,0,17,0,0,2,80,82,173,160,64,124.09,176,-19.00,0.00,-944.00
2024-06-07 01:44:04.750255,0,0,17,0,0,2,80,82,170,160,64,123.99,176,0.00,0.00,-959.00
2024-06-07 01:44:04.862522,0,0,17,0,0,2,80,82,168,150,64,123.94,176,10.00,13.00,-1014.00
2024-06-07 01:44:04.954276,0,0,17,0,0,2,80,82,165,150,64,123.93,176,0.00,-2.00,-981.00
2024-06-07 01:44:05.056398,0,0,17,0,0,2,80,82,162,150,64,123.90,176,-14.00,18.00,-1026.00
2024-06-07 01:44:05.193913,0,0,17,0,0,2,80,82,159,150,64,123.89,176,-5.00,10.00,-1009.00
2024-06-07 01:44:05.260429,0,0,17,0,0,2,80,82,157,140,64,123.96,176,-2.00,0.00,-988.00
2024-06-07 01:44:05.401954,0,0,17,0,0,2,80,82,155,140,64,123.89,176,0.00,2.00,-1006.00
2024-06-07 01:44:05.464262,0,0,17,0,0,2,80,82,153,140,64,123.85,176,-19.00,9.00,-1000.00
2024-06-07 01:44:05.603519,0,0,17,0,0,2,80,82,151,140,64,123.83,176,3.00,2.00,-1031.00
2024-06-07 01:44:05.668913,0,0,17,0,0,2,80,82,149,130,64,123.84,177,-3.00,2.00,-1012.00
2024-06-07 01:44:05.770092,0,0,17,0,0,1,80,82,147,130,64,123.78,177,5.00,7.00,-1047.00
2024-06-07 01:44:05.910640,0,0,17,0,0,1,80,82,145,130,64,123.76,177,-3.00,15.00,-998.00
2024-06-07 01:44:05.974046,0,0,17,0,0,1,80,82,143,130,64,123.80,177,12.00,6.00,-1019.00
2024-06-07 01:44:06.115379,0,0,17,0,0,1,80,82,142,130,64,123.77,177,-10.00,12.00,-1011.00
2024-06-07 01:44:06.178040,0,0,17,0,0,1,80,82,141,130,64,123.76,177,-9.00,3.00,-1013.00
2024-06-07 01:44:06.229303,0,0,17,0,0,1,80,82,140,120,64,123.72,177,12.00,-10.00,-976.00
2024-06-07 01:44:06.422636,0,0,17,0,0,1,80,82,138,120,64,123.76,177,0.00,3.00,-1008.00
2024-06-07 01:44:06.433123,0,0,17,0,0,1,80,82,137,120,64,123.68,177,-12.00,3.00,-1002.00
2024-06-07 01:44:06.535182,0,0,17,0,0,0,81,82,136,120,64,123.74,177,-7.00,8.00,-1008.00
2024-06-07 01:44:06.730067,0,0,17,0,0,0,81,82,135,120,64,123.68,178,15.00,-3.00,-996.00
2024-06-07 01:44:06.739347,0,0,17,0,0,0,81,82,134,120,64,123.69,178,-22.00,11.00,-1030.00
2024-06-07 01:44:06.934731,0,0,17,0,0,0,81,82,134,120,64,123.69,178,-19.00,30.00,-1069.00
2024-06-07 01:44:06.943048,0,0,17,0,0,0,81,82,134,120,64,123.68,178,-5.00,-1.00,-1008.00
2024-06-07 01:44:07.139434,0,0,17,0,0,0,81,82,133,120,64,123.65,178,3.00,0.00,-1003.00
2024-06-07 01:44:07.147143,0,0,17,0,0,0,81,82,134,120,64,123.68,178,-26.00,22.00,-1015.00
2024-06-07 01:44:07.344467,0,0,17,0,0,0,81,82,134,120,64,123.71,178,-5.00,11.00,-1004.00
2024-06-07 01:44:07.351136,0,0,17,0,0,0,81,82,134,120,64,123.70,178,-3.00,7.00,-1007.00
2024-06-07 01:44:07.549121,0,0,17,0,0,0,81,82,134,120,64,123.70,178,-13.00,12.00,-995.00
2024-06-07 01:44:07.555220,0,0,17,0,0,0,80,82,134,120,64,123.73,178,-19.00,22.00,-1011.00
2024-06-07 01:44:07.754889,0,0,17,0,0,0,80,82,135,120,64,123.72,179,-1.00,13.00,-998.00
2024-06-07 01:44:07.759154,0,0,17,0,0,0,80,82,135,120,64,123.64,179,-4.00,15.00,-1012.00
2024-06-07 01:44:07.959094,0,0,17,0,0,0,80,82,135,120,64,123.72,179,-1.00,0.00,-985.00
2024-06-07 01:44:07.963877,0,0,17,0,0,0,80,82,135,120,64,123.68,179,-35.00,18.00,-970.00
2024-06-07 01:44:08.065708,0,0,17,0,0,0,80,82,136,120,64,123.67,179,-12.00,8.00,-996.00
2024-06-07 01:44:08.266145,0,0,17,0,0,0,80,82,135,120,64,123.72,179,-16.00,18.00,-1010.00
2024-06-07 01:44:08.269062,0,0,17,0,0,0,80,82,135,120,64,123.69,179,3.00,2.00,-992.00
2024-06-07 01:44:08.371059,0,0,17,0,0,0,80,82,135,120,64,123.68,179,-4.00,6.00,-974.00
2024-06-07 01:44:08.473255,0,0,17,0,0,0,80,82,134,120,64,123.66,179,2.00,4.00,-1006.00
2024-06-07 01:44:08.575246,0,0,17,0,0,0,80,83,134,120,64,123.68,179,7.00,-4.00,-988.00
2024-06-07 01:44:08.678245,0,0,17,0,0,0,80,83,135,120,64,123.61,180,-4.00,1.00,-1020.00
2024-06-07 01:44:08.778970,0,0,17,0,0,0,80,83,134,120,64,123.75,180,-6.00,16.00,-1011.00
2024-06-07 01:44:08.985268,0,0,17,0,0,0,80,83,134,120,64,123.64,180,-13.00,6.00,-1008.00
2024-06-07 01:44:08.985311,-2,0,17,0,0,0,80,83,133,120,64,123.68,180,2.00,-2.00,-948.00
2024-06-07 01:44:09.087919,-8,0,17,0,0,0,80,83,135,120,64,123.65,180,3.00,7.00,-1009.00
2024-06-07 01:44:09.187004,-8,0,17,2,0,0,80,83,135,120,64,123.71,180,-21.00,6.00,-1037.00
2024-06-07 01:44:09.289394,-8,0,17,3,1,0,80,83,135,120,64,123.61,180,-54.00,2.00,-988.00
2024-06-07 01:44:09.392171,-8,0,17,4,1,0,80,83,134,120,64,123.67,180,-28.00,11.00,-1021.00
2024-06-07 01:44:09.494146,-7,0,17,5,1,0,80,83,135,120,64,123.64,180,-49.00,14.00,-1005.00
2024-06-07 01:44:09.594816,-6,0,17,6,2,0,79,82,134,120,64,123.65,180,-54.00,18.00,-980.00
2024-06-07 01:44:09.696931,-5,0,17,7,2,0,79,82,134,120,64,123.58,181,-49.00,17.00,-994.00
2024-06-07 01:44:09.798923,-4,0,17,7,2,0,79,82,134,120,64,123.53,181,-56.00,7.00,-974.00
2024-06-07 01:44:09.900924,-1,0,17,7,2,0,79,82,134,120,64,123.54,181,-73.00,17.00,-963.00
2024-06-07 01:44:10.002894,1,0,17,7,2,0,79,82,135,120,64,123.64,181,-47.00,21.00,-988.00
2024-06-07 01:44:10.053836,3,0,17,6,2,0,79,82,135,120,64,123.61,181,-64.00,15.00,-1010.00
2024-06-07 01:44:10.215685,4,-1,17,5,1,0,79,82,135,120,64,123.60,181,-39.00,11.00,-990.00
2024-06-07 01:44:10.257898,3,0,17,4,1,0,79,82,134,120,64,123.62,181,-36.00,12.00,-1006.00
2024-06-07 01:44:10.416557,1,0,17,3,0,0,79,82,134,120,64,123.64,181,-13.00,8.00,-1028.00
2024-06-07 01:44:10.462054,0,0,17,3,0,0,79,82,135,120,64,123.64,181,-37.00,17.00,-984.00
2024-06-07 01:44:10.620889,0,0,17,3,0,0,80,82,135,120,64,123.66,181,-34.00,19.00,-995.00
2024-06-07 01:44:10.665812,0,0,17,2,1,0,80,82,135,120,64,123.68,182,-27.00,5.00,-980.00
2024-06-07 01:44:10.767616,0,-3,17,2,1,0,80,82,134,120,64,123.67,182,-49.00,16.00,-965.00
2024-06-07 01:44:10.869798,0,-2,17,2,0,0,80,82,134,120,64,123.63,182,7.00,-5.00,-1001.00
2024-06-07 01:44:11.133142,1,-1,17,2,0,0,80,82,134,120,64,123.63,182,-35.00,14.00,-986.00
2024-06-07 01:44:11.165887,5,0,17,1,0,0,80,82,134,120,64,123.70,182,-20.00,6.00,-1010.00
2024-06-07 01:44:11.175741,2,0,17,0,0,0,80,82,133,120,64,123.68,182,14.00,13.00,-1047.00
2024-06-07 01:44:11.296643,1,0,17,0,0,0,80,82,134,120,64,123.66,182,-6.00,5.00,-991.00
2024-06-07 01:44:11.426015,0,0,17,0,0,0,80,82,133,120,64,123.62,182,17.00,-2.00,-1012.00
2024-06-07 01:44:11.482099,0,0,17,0,0,0,80,82,134,120,64,123.66,182,5.00,15.00,-1043.00
2024-06-07 01:44:11.583832,0,-1,17,0,0,0,81,82,133,120,64,123.69,183,-3.00,3.00,-983.00
2024-06-07 01:44:11.685847,0,0,17,0,0,0,81,82,134,120,64,123.66,183,26.00,5.00,-1013.00
2024-06-07 01:44:11.788117,0,0,17,0,0,0,81,82,134,120,64,123.70,183,-14.00,15.00,-1005.00
2024-06-07 01:44:11.934894,0,0,17,0,0,0,81,82,134,120,64,123.73,183,4.00,13.00,-1018.00
2024-06-07 01:44:11.991920,0,0,17,0,0,0,81,82,134,120,64,123.71,183,11.00,20.00,-1043.00
2024-06-07 01:44:12.169177,0,-1,17,0,0,0,81,82,134,120,64,123.69,183,-21.00,21.00,-994.00
2024-06-07 01:44:12.311126,0,-1,17,0,0,0,81,82,134,120,64,123.64,183,-15.00,13.00,-995.00
2024-06-07 01:44:12.311257,0,-1,17,0,0,0,81,82,134,120,64,123.66,183,4.00,19.00,-1014.00
2024-06-07 01:44:12.475242,0,-1,17,0,0,0,81,82,133,120,64,123.67,183,-1.00,4.00,-981.00
2024-06-07 01:44:12.502836,0,0,17,0,0,0,81,82,133,120,64,123.64,183,-17.00,14.00,-956.00
2024-06-07 01:44:12.619102,0,0,17,0,0,0,80,82,132,120,64,123.73,184,-9.00,10.00,-1004.00
2024-06-07 01:44:12.782040,0,0,17,0,0,0,80,82,132,120,64,123.69,184,0.00,18.00,-1018.00
2024-06-07 01:44:12.808052,0,0,17,0,0,0,80,82,132,120,64,123.70,184,4.00,23.00,-1035.00
2024-06-07 01:44:12.926013,0,0,17,0,0,0,80,82,132,120,64,123.69,184,-16.00,10.00,-972.00
2024-06-07 01:44:13.089420,0,0,17,0,0,0,80,82,132,120,64,123.66,184,1.00,8.00,-976.00
2024-06-07 01:44:13.113636,0,0,17,0,0,0,80,82,131,120,64,123.65,184,-2.00,11.00,-999.00
2024-06-07 01:44:13.232744,0,0,17,0,0,0,80,82,131,120,64,123.65,184,-1.00,12.00,-971.00
2024-06-07 01:44:13.396772,0,0,17,0,0,0,80,82,131,120,64,123.67,184,4.00,0.00,-973.00
2024-06-07 01:44:13.420871,2,0,17,0,0,0,80,82,132,120,64,123.68,184,9.00,11.00,-988.00
2024-06-07 01:44:13.539829,8,0,17,0,0,0,80,82,132,120,64,123.69,184,-3.00,9.00,-990.00
2024-06-07 01:44:13.703653,8,0,17,-2,0,0,80,82,134,120,64,123.65,185,-19.00,11.00,-1024.00
2024-06-07 01:44:13.728506,8,0,17,-3,-1,0,80,82,134,120,64,123.70,185,18.00,23.00,-1029.00
2024-06-07 01:44:13.859948,7,0,17,-4,-1,0,80,82,133,120,64,123.71,185,21.00,-2.00,-956.00
2024-06-07 01:44:13.878499,6,0,17,-6,-1,0,80,82,133,120,64,123.69,185,28.00,9.00,-1000.00
2024-06-07 01:44:13.980538,6,0,17,-6,-1,0,80,82,133,120,64,123.68,185,50.00,4.00,-982.00
2024-06-07 01:44:14.102347,5,0,17,-7,-2,0,80,82,132,120,64,123.64,185,38.00,8.00,-1006.00
2024-06-07 01:44:14.188126,4,-1,17,-7,-2,0,80,82,132,120,64,123.73,185,38.00,17.00,-1012.00
2024-06-07 01:44:14.288107,1,-1,17,-7,-2,0,80,82,132,120,64,123.69,185,50.00,11.00,-1000.00
2024-06-07 01:44:14.388692,-1,-1,17,-7,-2,0,80,82,132,120,63,123.71,185,54.00,8.00,-995.00
2024-06-07 01:44:14.490495,-4,-1,17,-6,-1,0,80,82,131,120,63,123.64,185,37.00,25.00,-1017.00
2024-06-07 01:44:14.614338,-4,0,17,-5,-1,0,80,82,131,120,63,123.67,186,51.00,2.00,-998.00
2024-06-07 01:44:14.694428,-3,0,17,-4,-1,0,80,82,132,120,63,123.62,186,20.00,16.00,-991.00
2024-06-07 01:44:14.796466,-2,0,17,-3,-1,0,80,82,131,120,63,123.65,186,14.00,-2.00,-1007.00
2024-06-07 01:44:14.921449,-1,0,17,-3,-1,0,80,82,131,120,63,123.65,186,30.00,-1.00,-977.00
2024-06-07 01:44:15.000431,0,1,17,-2,-1,0,80,82,131,120,63,123.71,186,-6.00,9.00,-1024.00
2024-06-07 01:44:15.126212,0,1,17,-2,0,0,80,82,131,120,63,123.64,186,-3.00,11.00,-1022.00
2024-06-07 01:44:15.204583,0,0,17,-2,0,0,80,82,131,120,63,123.66,186,4.00,18.00,-985.00
2024-06-07 01:44:15.331491,0,0,17,-2,0,0,80,82,131,120,63,123.67,186,12.00,11.00,-991.00
2024-06-07 01:44:15.409228,-2,0,17,-2,0,0,80,82,132,120,63,123.70,186,6.00,-8.00,-987.00
2024-06-07 01:44:15.537465,-4,-1,17,-1,0,0,80,82,133,120,63,123.69,186,4.00,7.00,-1014.00
2024-06-07 01:44:15.612489,-2,-1,17,0,0,0,80,82,133,120,63,123.62,187,19.00,1.00,-1001.00
2024-06-07 01:44:15.714572,-1,0,17,0,0,0,80,82,133,120,63,123.63,187,-13.00,22.00,-1021.00
2024-06-07 01:44:15.816537,0,0,17,0,0,0,80,82,134,120,63,123.70,187,-4.00,0.00,-992.00
2024-06-07 01:44:15.947018,0,0,17,0,0,0,80,82,135,120,63,123.68,187,-5.00,6.00,-1008.00
2024-06-07 01:44:16.020919,0,0,17,0,0,0,80,82,135,120,63,123.74,187,-12.00,8.00,-999.00
2024-06-07 01:44:16.150252,0,0,17,0,0,0,80,82,136,120,63,123.79,187,-2.00,5.00,-976.00
2024-06-07 01:44:16.227699,0,0,17,0,0,0,80,82,137,120,63,123.73,187,-9.00,-2.00,-947.00
2024-06-07 01:44:16.326517,0,0,17,0,0,0,80,82,137,120,63,123.71,187,-7.00,15.00,-1012.00
2024-06-07 01:44:16.461218,0,0,17,0,0,0,80,82,137,120,63,123.70,187,-9.00,1.00,-983.00
2024-06-07 01:44:16.530461,0,0,17,0,0,0,80,82,138,120,63,123.76,187,-20.00,16.00,-1002.00
2024-06-07 01:44:16.662341,0,0,17,0,0,0,80,82,138,120,63,123.73,188,-9.00,8.00,-1009.00
2024-06-07 01:44:16.735072,0,0,17,0,0,0,80,82,138,120,63,123.78,188,-11.00,11.00,-1015.00
2024-06-07 01:44:16.867029,0,0,17,0,0,0,80,82,139,120,63,123.74,188,-9.00,11.00,-1013.00
2024-06-07 01:44:16.938467,0,0,17,0,0,0,80,82,139,120,63,123.74,188,-9.00,7.00,-975.00
2024-06-07 01:44:17.071816,0,0,17,0,0,0,80,82,140,120,63,123.79,188,8.00,-4.00,-978.00
2024-06-07 01:44:17.142376,0,0,17,0,0,0,80,82,139,120,63,123.80,188,-1.00,8.00,-1007.00
2024-06-07 01:44:17.280237,0,0,17,0,0,0,80,82,140,120,63,123.80,188,-4.00,0.00,-967.00
2024-06-07 01:44:17.346335,0,0,17,0,0,0,80,82,139,120,63,123.76,188,-9.00,0.00,-996.00
2024-06-07 01:44:17.398648,0,0,17,0,0,0,80,82,139,120,62,123.78,188,-7.00,2.00,-981.00
2024-06-07 01:44:17.499450,0,0,17,0,0,0,80,82,139,120,62,123.79,188,-13.00,10.00,-974.00
2024-06-07 01:44:17.669459,0,0,17,0,0,0,80,82,139,120,62,123.71,189,-2.00,8.00,-990.00
2024-06-07 01:44:17.754269,0,0,17,0,0,0,80,82,138,120,62,123.74,189,-3.00,-4.00,-982.00
2024-06-07 01:44:17.805304,0,-1,17,0,0,0,80,82,138,120,62,123.75,189,-5.00,36.00,-962.00
2024-06-07 01:44:17.993272,-1,-8,17,0,0,0,80,82,139,120,62,123.74,189,2.00,-5.00,-1043.00
2024-06-07 01:44:18.009080,0,-8,17,0,-1,0,80,82,138,120,62,123.77,189,0.00,18.00,-1030.00
2024-06-07 01:44:18.198013,0,-6,17,0,-2,0,80,82,137,120,62,123.79,189,0.00,25.00,-1020.00
2024-06-07 01:44:18.213019,0,-4,17,1,-3,0,80,82,137,120,62,123.76,189,8.00,22.00,-1021.00
2024-06-07 01:44:18.402796,0,0,17,1,-4,0,80,82,136,120,62,123.73,189,-2.00,26.00,-985.00
2024-06-07 01:44:18.417950,0,1,17,1,-3,0,80,82,135,120,62,123.72,189,10.00,27.00,-989.00
2024-06-07 01:44:18.609808,0,0,17,0,-3,0,80,82,135,120,62,123.74,189,-3.00,32.00,-1000.00
2024-06-07 01:44:18.621377,0,0,17,0,-2,0,80,82,135,120,62,123.69,190,16.00,12.00,-990.00
2024-06-07 01:44:18.812423,0,0,17,0,-2,0,80,82,135,120,62,123.72,190,-14.00,23.00,-968.00
2024-06-07 01:44:18.825041,0,-1,17,0,-2,0,80,82,134,120,62,123.72,190,4.00,29.00,-1015.00
2024-06-07 01:44:19.017221,0,-1,17,0,-2,0,80,82,134,120,62,123.66,190,-1.00,19.00,-1032.00
2024-06-07 01:44:19.028978,0,-1,17,0,-2,0,80,82,134,120,62,123.67,190,3.00,23.00,-1000.00
2024-06-07 01:44:19.131012,1,0,17,0,-2,0,80,82,134,120,62,123.69,190,-7.00,25.00,-1018.00
2024-06-07 01:44:19.324433,1,0,17,0,-2,0,80,82,133,120,62,123.68,190,7.00,8.00,-995.00
2024-06-07 01:44:19.335222,0,0,17,0,-2,0,80,82,133,120,62,123.71,190,-2.00,7.00,-1006.00
2024-06-07 01:44:19.529458,0,0,17,0,-2,0,80,82,132,120,62,123.71,190,0.00,18.00,-1017.00
2024-06-07 01:44:19.539125,0,0,17,0,-2,0,80,82,132,120,62,123.74,190,8.00,6.00,-1015.00
2024-06-07 01:44:19.734165,-1,3,17,0,-1,0,80,82,132,120,62,123.67,191,-4.00,41.00,-1004.00
2024-06-07 01:44:19.742927,-1,3,17,0,0,0,80,82,132,120,62,123.69,191,-3.00,16.00,-1001.00
2024-06-07 01:44:19.938865,0,1,17,0,0,0,80,82,131,120,62,123.69,191,0.00,19.00,-1028.00
2024-06-07 01:44:19.947074,0,0,17,0,0,0,80,82,131,120,62,123.71,191,9.00,1.00,-1019.00
2024-06-07 01:44:20.143627,0,0,17,0,0,0,80,82,131,120,62,123.65,191,-7.00,10.00,-1012.00
2024-06-07 01:44:20.151158,0,0,17,0,0,0,80,82,130,120,62,123.62,191,-10.00,-1.00,-1005.00
2024-06-07 01:44:20.355321,0,0,17,0,0,0,80,82,131,120,62,123.64,191,18.00,-8.00,-989.00
2024-06-07 01:44:20.355576,0,0,17,0,0,0,80,82,131,120,62,123.61,191,-7.00,7.00,-1004.00
2024-06-07 01:44:20.554636,0,0,17,0,0,0,80,82,130,120,62,123.66,191,-4.00,13.00,-1004.00
2024-06-07 01:44:20.559189,0,0,17,0,0,0,80,82,131,120,62,123.67,191,-18.00,-3.00,-1005.00
2024-06-07 01:44:20.758102,0,0,17,0,0,0,79,81,130,120,62,123.64,192,-13.00,2.00,-1008.00
2024-06-07 01:44:20.763108,0,0,17,0,0,0,79,81,131,120,62,123.61,192,16.00,-13.00,-988.00
2024-06-07 01:44:20.962882,0,0,17,0,0,0,79,81,130,120,62,123.67,192,-17.00,10.00,-1003.00
2024-06-07 01:44:20.968191,0,0,17,0,0,0,79,81,131,120,62,123.67,192,-4.00,6.00,-1014.00
2024-06-07 01:44:21.017924,0,0,17,0,0,0,79,81,131,120,62,123.61,192,-1.00,-6.00,-992.00
2024-06-07 01:44:21.168364,0,0,17,0,0,0,79,81,131,120,62,123.62,192,7.00,-16.00,-979.00
2024-06-07 01:44:21.222005,0,0,17,0,0,0,79,81,132,120,62,123.58,192,-2.00,9.00,-1016.00
2024-06-07 01:44:21.372760,0,0,17,0,0,0,79,81,132,120,62,123.67,192,-7.00,-1.00,-989.00
2024-06-07 01:44:21.426021,0,0,17,0,0,0,79,81,131,120,62,123.65,192,4.00,2.00,-985.00
2024-06-07 01:44:21.578135,0,0,17,0,0,0,79,81,132,120,62,123.63,192,-11.00,15.00,-996.00
2024-06-07 01:44:21.630316,0,0,17,0,0,0,79,82,132,120,62,123.63,193,-5.00,-14.00,-985.00
2024-06-07 01:44:21.746796,0,0,17,0,0,0,79,82,132,120,62,123.62,193,2.00,16.00,-1048.00
2024-06-07 01:44:21.836165,0,0,17,0,0,0,79,82,132,120,62,123.64,193,-3.00,-5.00,-972.00
2024-06-07 01:44:21.937056,0,1,17,0,0,0,79,82,133,120,62,123.61,193,-3.00,-7.00,-1067.00
2024-06-07 01:44:22.039267,0,8,17,0,0,0,79,82,134,120,62,123.69,193,0.00,14.00,-976.00
2024-06-07 01:44:22.141669,0,7,17,0,2,0,79,82,134,120,62,123.66,193,8.00,-3.00,-1039.00
2024-06-07 01:44:22.241736,0,4,17,0,3,0,79,82,133,120,62,123.68,193,-10.00,-16.00,-962.00
2024-06-07 01:44:22.343723,0,2,17,-1,3,0,79,82,133,120,61,123.67,193,-18.00,-16.00,-978.00
2024-06-07 01:44:22.498673,0,0,17,-1,3,0,79,82,132,120,61,123.65,193,-15.00,-12.00,-1030.00
2024-06-07 01:44:22.547815,0,-1,17,-1,3,0,79,82,133,120,61,123.75,193,-3.00,-4.00,-1012.00
2024-06-07 01:44:22.703548,0,-1,17,-1,3,0,80,82,133,120,61,123.73,194,6.00,-10.00,-1009.00
2024-06-07 01:44:22.751809,0,0,17,0,2,0,80,82,133,120,61,123.68,194,10.00,-13.00,-1029.00
2024-06-07 01:44:22.908596,0,0,17,0,2,0,80,82,133,120,61,123.70,194,7.00,0.00,-1039.00
2024-06-07 01:44:22.955758,0,0,17,0,2,0,80,82,134,120,61,123.66,194,3.00,-4.00,-1020.00
2024-06-07 01:44:23.113058,0,0,17,0,2,0,80,82,134,120,61,123.70,194,-17.00,5.00,-987.00
2024-06-07 01:44:23.159775,-1,0,17,0,2,0,80,82,134,120,61,123.78,194,-3.00,-6.00,-993.00
2024-06-07 01:44:23.320172,-2,0,17,0,2,0,80,82,134,120,61,123.70,194,-7.00,1.00,-1004.00
2024-06-07 01:44:23.364480,-1,0,17,0,2,0,80,82,134,120,61,123.70,194,10.00,0.00,-997.00
2024-06-07 01:44:23.465718,0,0,17,0,2,0,80,82,134,120,61,123.74,194,-29.00,7.00,-1019.00
2024-06-07 01:44:23.628289,0,-2,17,0,2,0,80,82,135,120,61,123.72,194,0.00,-1.00,-1019.00
2024-06-07 01:44:23.669674,0,-5,17,0,1,0,80,81,135,120,61,123.66,195,-8.00,2.00,-1010.00
2024-06-07 01:44:23.771836,0,-3,17,0,1,0,80,81,134,120,61,123.69,195,8.00,-14.00,-1012.00
2024-06-07 01:44:23.933131,0,-2,17,0,0,0,80,81,132,120,61,123.65,195,7.00,-9.00,-1000.00
2024-06-07 01:44:23.975713,0,-1,17,0,0,0,80,81,133,120,61,123.66,195,-19.00,2.00,-976.00
2024-06-07 01:44:24.077585,0,0,17,0,0,0,80,81,133,120,61,123.64,195,-10.00,6.00,-1017.00
2024-06-07 01:44:24.179758,0,0,17,0,0,0,80,81,133,120,61,123.64,195,-9.00,0.00,-997.00
2024-06-07 01:44:24.341964,0,0,17,0,0,0,80,81,133,120,61,123.68,195,-4.00,10.00,-1059.00
2024-06-07 01:44:24.389080,0,0,17,0,0,0,80,81,134,120,61,123.66,195,3.00,-1.00,-968.00
2024-06-07 01:44:24.487558,0,0,17,0,0,0,80,81,134,120,61,123.67,195,5.00,-2.00,-1014.00
2024-06-07 01:44:24.536766,0,0,17,0,0,0,80,81,134,120,61,123.75,195,-22.00,7.00,-993.00
2024-06-07 01:44:24.689760,0,0,17,0,0,0,80,82,135,120,61,123.67,196,-1.00,13.00,-1038.00
2024-06-07 01:44:24.854072,0,0,17,0,0,0,80,82,135,120,61,123.71,196,6.00,15.00,-1024.00
2024-06-07 01:44:24.893636,0,-1,17,0,0,0,80,82,137,120,61,123.68,196,-4.00,-3.00,-980.00
2024-06-07 01:44:24.995710,0,-1,17,0,0,0,80,82,137,120,61,123.65,196,-15.00,14.00,-990.00
2024-06-07 01:44:25.046595,0,0,17,0,0,0,80,82,136,120,61,123.63,196,2.00,15.00,-993.00
2024-06-07 01:44:25.161110,0,0,17,0,0,0,80,82,136,120,61,123.73,196,-16.00,19.00,-987.00
2024-06-07 01:44:25.250643,0,0,17,0,0,0,80,82,136,120,61,123.66,196,20.00,9.00,-985.00
2024-06-07 01:44:25.352714,0,0,17,0,0,0,80,82,135,120,61,123.67,196,-16.00,11.00,-974.00
2024-06-07 01:44:25.454624,0,0,17,0,0,0,80,82,135,120,61,123.72,196,-8.00,10.00,-1014.00
2024-06-07 01:44:25.556650,0,0,17,0,0,0,80,82,134,120,61,123.66,196,2.00,1.00,-1001.00
2024-06-07 01:44:25.658731,0,0,17,0,0,0,79,82,134,120,61,123.69,197,4.00,0.00,-980.00
2024-06-07 01:44:25.760931,0,0,17,0,0,0,79,82,133,120,61,123.73,197,6.00,10.00,-1011.00
2024-06-07 01:44:25.877958,0,0,17,0,0,0,79,82,134,120,61,123.65,197,31.00,-23.00,-998.00
2024-06-07 01:44:25.964487,0,0,20,0,0,0,79,82,133,120,61,123.72,197,12.00,5.00,-942.00
2024-06-07 01:44:26.111494,0,0,26,0,0,0,79,82,133,120,61,123.69,197,25.00,14.00,-1043.00
2024-06-07 01:44:26.169777,0,0,32,0,0,0,79,82,133,120,61,123.62,197,-6.00,7.00,-975.00
2024-06-07 01:44:26.300577,0,-1,38,0,0,0,79,82,133,120,61,123.64,197,-10.00,16.00,-994.00
2024-06-07 01:44:26.425738,0,-1,44,0,0,0,79,82,133,120,60,123.67,197,-10.00,14.00,-1005.00
2024-06-07 01:44:26.482285,0,-1,50,0,0,0,79,82,133,120,60,123.60,197,-14.00,11.00,-953.00
2024-06-07 01:44:26.607096,0,-1,56,0,0,0,79,82,132,120,60,123.67,197,0.00,13.00,-1005.00
2024-06-07 01:44:26.678287,0,-1,62,0,0,0,79,82,133,120,60,123.67,198,-9.00,0.00,-943.00
2024-06-07 01:44:26.780981,0,-1,68,0,0,0,79,82,133,120,60,123.65,198,19.00,14.00,-1022.00
2024-06-07 01:44:26.932583,0,0,74,0,0,0,79,82,133,120,60,123.67,198,2.00,13.00,-991.00
2024-06-07 01:44:27.021902,0,0,80,0,0,0,79,82,133,120,60,123.71,198,-15.00,22.00,-978.00
2024-06-07 01:44:27.098939,0,0,86,0,0,0,79,82,132,120,60,123.63,198,-16.00,32.00,-1010.00
2024-06-07 01:44:27.280839,0,0,92,0,0,0,79,82,132,120,60,123.66,198,-17.00,24.00,-991.00
2024-06-07 01:44:27.290307,0,0,98,0,0,0,79,82,132,120,60,123.67,198,-1.00,23.00,-997.00
2024-06-07 01:44:27.527120,0,0,104,0,0,0,79,82,132,120,60,123.66,198,-12.00,29.00,-1012.00
2024-06-07 01:44:27.527188,0,0,110,0,0,0,79,82,131,120,60,123.66,198,0.00,21.00,-994.00
2024-06-07 01:44:27.670366,0,0,116,0,0,0,79,82,131,120,60,123.64,198,0.00,19.00,-1004.00
2024-06-07 01:44:27.698245,0,0,127,0,0,0,79,82,130,120,60,123.67,199,10.00,22.00,-1005.00
2024-06-07 01:44:27.834334,0,0,133,0,0,0,79,82,129,120,60,123.65,199,3.00,24.00,-1007.00
2024-06-07 01:44:27.978390,0,0,139,0,0,0,79,82,129,120,60,123.66,199,3.00,12.00,-989.00
2024-06-07 01:44:28.004408,0,0,146,0,0,0,79,82,128,120,60,123.71,199,6.00,10.00,-1007.00
2024-06-07 01:44:28.144481,0,0,151,0,0,0,79,82,128,120,60,123.71,199,35.00,9.00,-1001.00
2024-06-07 01:44:28.297589,0,0,158,0,0,0,79,82,127,110,60,123.63,199,11.00,15.00,-1023.00
2024-06-07 01:44:28.310188,0,0,164,0,0,0,79,82,127,110,60,123.69,199,10.00,9.00,-1025.00
2024-06-07 01:44:28.412215,0,0,170,0,0,0,79,82,127,110,60,123.65,199,19.00,14.00,-1024.00
2024-06-07 01:44:28.514121,0,0,176,0,0,0,79,82,127,110,60,123.61,199,16.00,-2.00,-980.00
2024-06-07 01:44:28.642665,0,0,-177,0,0,0,79,82,127,110,60,123.70,200,8.00,10.00,-1013.00
2024-06-07 01:44:28.718553,-1,0,-171,0,0,0,80,82,128,110,60,123.67,200,-12.00,14.00,-1016.00
2024-06-07 01:44:28.820463,-1,0,-165,0,0,0,80,82,129,110,60,123.69,200,-13.00,3.00,-984.00
2024-06-07 01:44:28.949593,-1,0,-158,0,0,0,80,82,130,120,60,123.69,200,3.00,17.00,-1018.00
2024-06-07 01:44:28.973131,0,-1,-152,0,0,0,80,82,131,120,60,123.75,200,2.00,4.00,-989.00
2024-06-07 01:44:29.154417,0,-1,-146,0,0,0,80,82,132,120,60,123.74,200,14.00,10.00,-1000.00
2024-06-07 01:44:29.177285,0,0,-140,0,0,0,80,82,134,120,60,123.70,200,-2.00,16.00,-1003.00
2024-06-07 01:44:29.302678,0,0,-134,0,0,0,80,82,134,120,60,123.76,200,-25.00,19.00,-964.00
2024-06-07 01:44:29.381872,0,0,-128,0,0,0,80,82,135,120,60,123.75,200,-1.00,4.00,-971.00
2024-06-07 01:44:29.564800,0,0,-122,0,0,0,80,82,136,120,60,123.74,200,-7.00,24.00,-1010.00
2024-06-07 01:44:29.585101,0,0,-116,0,0,0,80,82,137,120,60,123.74,201,0.00,13.00,-988.00
2024-06-07 01:44:29.687124,0,0,-110,0,0,0,79,81,138,120,60,123.77,201,6.00,12.00,-956.00
2024-06-07 01:44:29.790769,0,0,-104,0,0,0,79,81,139,120,60,123.73,201,-2.00,19.00,-976.00
2024-06-07 01:44:29.892080,0,0,-98,0,0,0,79,81,138,120,60,123.72,201,2.00,13.00,-1002.00
2024-06-07 01:44:30.075930,0,0,-91,0,0,0,79,81,138,120,60,123.76,201,7.00,24.00,-994.00
2024-06-07 01:44:30.095982,0,0,-85,0,0,0,79,81,139,120,60,123.72,201,-7.00,13.00,-958.00
2024-06-07 01:44:30.280959,0,0,-79,0,0,0,79,81,138,120,60,123.74,201,-3.00,9.00,-964.00
2024-06-07 01:44:30.301282,0,0,-73,0,0,0,79,81,138,120,60,123.73,201,12.00,0.00,-995.00
2024-06-07 01:44:30.486839,0,0,-67,0,0,0,79,81,137,120,60,123.76,201,0.00,22.00,-1035.00
2024-06-07 01:44:30.504819,0,0,-61,0,0,0,79,81,137,120,60,123.67,201,-2.00,19.00,-980.00
2024-06-07 01:44:30.690257,0,0,-55,0,0,0,79,81,136,120,60,123.76,202,-6.00,17.00,-998.00
2024-06-07 01:44:30.708213,0,0,-49,0,0,0,79,81,135,120,60,123.70,202,2.00,14.00,-985.00
2024-06-07 01:44:30.896534,0,0,-43,0,0,0,79,81,134,120,60,123.71,202,16.00,6.00,-1005.00
2024-06-07 01:44:30.912300,0,0,-38,0,0,0,79,81,133,120,60,123.63,202,-1.00,12.00,-1008.00
2024-06-07 01:44:31.099880,0,0,-32,0,0,0,79,81,132,120,60,123.69,202,17.00,13.00,-1021.00
2024-06-07 01:44:31.115964,0,0,-26,0,0,0,79,81,131,120,60,123.65,202,8.00,6.00,-994.00
2024-06-07 01:44:31.304643,0,0,-20,0,0,0,79,81,130,120,60,123.62,202,-6.00,19.00,-1068.00
2024-06-07 01:44:31.320190,0,0,-14,0,0,0,79,81,130,120,60,123.73,202,-14.00,17.00,-994.00
2024-06-07 01:44:31.509471,0,0,-8,0,0,0,79,81,130,120,60,123.62,202,1.00,0.00,-993.00
2024-06-07 01:44:31.523898,0,0,-3,0,0,0,79,81,130,120,60,123.59,202,-2.00,20.00,-1000.00
2024-06-07 01:44:31.714216,0,0,1,0,0,0,79,81,130,120,60,123.69,203,5.00,-4.00,-996.00
2024-06-07 01:44:31.730174,0,0,5,0,0,0,79,82,130,120,60,123.59,203,-1.00,5.00,-993.00
2024-06-07 01:44:31.830886,0,0,8,0,0,0,79,82,129,120,60,123.59,203,13.00,31.00,-1044.00
2024-06-07 01:44:32.022491,0,0,10,0,0,0,79,82,129,120,60,123.63,203,-16.00,18.00,-1009.00
2024-06-07 01:44:32.034884,0,0,11,0,0,0,79,82,130,120,60,123.61,203,0.00,6.00,-1014.00
2024-06-07 01:44:32.139513,0,0,13,0,0,0,79,82,129,120,60,123.62,203,-4.00,-8.00,-960.00
2024-06-07 01:44:32.238872,0,0,13,0,0,0,79,82,129,120,60,123.57,203,-20.00,24.00,-990.00
2024-06-07 01:44:32.342779,0,0,14,0,0,0,79,82,130,120,60,123.63,203,-15.00,3.00,-1007.00
2024-06-07 01:44:32.442921,0,0,15,0,0,0,79,82,130,120,60,123.65,203,-30.00,6.00,-989.00
2024-06-07 01:44:32.545803,0,0,15,0,0,0,79,82,131,120,60,123.67,203,-3.00,15.00,-1017.00
2024-06-07 01:44:32.596013,0,0,15,0,0,0,79,82,132,120,60,123.69,204,16.00,3.00,-1003.00
2024-06-07 01:44:32.749049,0,0,15,0,0,0,80,82,133,120,60,123.68,204,0.00,0.00,-998.00
2024-06-07 01:44:32.851317,0,0,15,0,0,0,80,82,133,120,60,123.69,204,-13.00,15.00,-990.00
2024-06-07 01:44:33.046007,0,0,15,0,0,0,80,82,134,120,60,123.67,204,-1.00,-2.00,-950.00
2024-06-07 01:44:33.046376,0,0,15,0,0,0,80,82,134,120,60,123.75,204,-19.00,16.00,-969.00
2024-06-07 01:44:33.106054,0,0,15,0,0,0,80,82,134,120,60,123.73,204,-14.00,11.00,-1002.00
2024-06-07 01:44:33.208028,0,0,15,0,0,0,80,82,134,120,60,123.69,204,13.00,0.00,-994.00
2024-06-07 01:44:33.310028,0,0,15,0,0,0,80,82,134,120,60,123.67,204,13.00,-3.00,-966.00
2024-06-07 01:44:33.455560,0,0,15,0,0,0,80,82,134,120,60,123.67,204,21.00,-9.00,-990.00
2024-06-07 01:44:33.513958,0,0,15,0,0,0,80,82,133,120,60,123.70,204,6.00,12.00,-995.00
2024-06-07 01:44:33.660305,0,0,15,0,0,0,80,82,132,120,60,123.61,205,0.00,10.00,-998.00
2024-06-07 01:44:33.717993,0,0,15,0,0,0,80,82,132,120,60,123.72,205,4.00,9.00,-999.00
2024-06-07 01:44:33.864973,0,0,15,0,0,0,80,82,132,120,60,123.67,205,-2.00,0.00,-1000.00
2024-06-07 01:44:33.921908,0,0,15,0,0,0,80,82,132,120,60,123.69,205,-15.00,14.00,-1036.00
2024-06-07 01:44:34.069466,0,0,15,0,0,0,80,82,131,120,60,123.71,205,-10.00,32.00,-1051.00
2024-06-07 01:44:34.125827,0,0,15,0,0,0,80,82,131,120,60,123.68,205,-30.00,13.00,-969.00
2024-06-07 01:44:34.274279,0,0,15,0,0,0,80,82,132,120,60,123.68,205,-13.00,-2.00,-985.00
2024-06-07 01:44:34.329899,0,0,15,0,0,0,80,82,132,120,59,123.71,205,0.00,6.00,-996.00
2024-06-07 01:44:34.431683,0,0,15,0,0,0,80,82,132,120,59,123.69,205,-16.00,18.00,-1026.00
2024-06-07 01:44:34.581275,0,0,15,0,0,0,80,82,132,120,59,123.63,205,-29.00,37.00,-995.00
2024-06-07 01:44:34.635685,0,0,9,0,0,0,80,82,132,120,59,123.74,206,12.00,-11.00,-1004.00
2024-06-07 01:44:34.785998,0,0,3,0,0,0,79,81,133,120,59,123.72,206,4.00,-2.00,-980.00
2024-06-07 01:44:34.839917,0,0,-1,0,0,0,79,81,133,120,59,123.67,206,1.00,14.00,-1010.00
2024-06-07 01:44:34.990896,0,0,-7,0,0,0,79,81,133,120,59,123.63,206,-12.00,13.00,-987.00
2024-06-07 01:44:35.043593,0,0,-13,0,0,0,79,81,133,120,59,123.64,206,-3.00,0.00,-997.00
2024-06-07 01:44:35.146016,0,0,-19,0,0,0,79,81,133,120,59,123.67,206,-10.00,17.00,-1001.00
2024-06-07 01:44:35.298108,0,0,-25,0,0,0,79,81,133,120,59,123.66,206,8.00,-2.00,-980.00
2024-06-07 01:44:35.351407,0,0,-31,0,0,0,79,81,133,120,59,123.72,206,2.00,15.00,-993.00
2024-06-07 01:44:35.451911,0,0,-37,0,0,0,79,81,133,120,59,123.73,206,10.00,0.00,-982.00
2024-06-07 01:44:35.553846,0,0,-43,0,0,0,79,81,133,120,59,123.75,206,-1.00,5.00,-981.00
2024-06-07 01:44:35.655682,0,0,-49,0,0,0,79,81,133,120,59,123.81,207,-3.00,29.00,-1021.00
2024-06-07 01:44:35.757957,0,0,-54,0,0,0,79,81,133,120,59,123.70,207,-8.00,24.00,-1001.00
2024-06-07 01:44:35.863155,0,0,-60,0,0,0,79,81,133,120,59,123.70,207,-7.00,14.00,-982.00
2024-06-07 01:44:35.961502,0,0,-66,0,0,0,79,81,134,120,59,123.71,207,3.00,14.00,-1029.00
2024-06-07 01:44:36.117319,0,0,-72,0,0,0,79,81,133,120,59,123.71,207,29.00,10.00,-1024.00
2024-06-07 01:44:36.165544,0,0,-78,0,0,0,79,81,134,120,59,123.77,207,0.00,28.00,-1015.00
2024-06-07 01:44:36.325925,0,0,-84,0,0,0,79,81,134,120,59,123.78,207,5.00,29.00,-1018.00
2024-06-07 01:44:36.369889,0,0,-89,0,0,0,79,81,135,120,59,123.69,207,6.00,14.00,-994.00
2024-06-07 01:44:36.526956,0,0,-95,0,0,0,79,81,135,120,59,123.70,207,-2.00,0.00,-970.00
2024-06-07 01:44:36.573537,0,0,-101,0,0,0,79,81,135,120,59,123.74,207,12.00,6.00,-981.00
2024-06-07 01:44:36.731687,0,0,-107,0,0,0,79,81,135,120,59,123.70,208,2.00,6.00,-998.00
2024-06-07 01:44:36.777502,0,0,-113,0,0,0,80,82,136,120,59,123.74,208,6.00,10.00,-980.00
2024-06-07 01:44:36.828841,0,0,-119,0,0,0,80,82,136,120,59,123.77,208,-16.00,25.00,-993.00
2024-06-07 01:44:36.930538,0,0,-125,0,0,0,80,82,136,120,59,123.72,208,11.00,6.00,-976.00
2024-06-07 01:44:37.038837,0,0,-131,0,0,0,80,82,136,120,59,123.73,208,-5.00,2.00,-1000.00
2024-06-07 01:44:37.134496,0,0,-136,0,0,0,80,82,136,120,59,123.76,208,-11.00,33.00,-1020.00
2024-06-07 01:44:37.243691,0,0,-142,0,0,0,80,82,136,120,59,123.78,208,12.00,20.00,-998.00
2024-06-07 01:44:37.338506,0,0,-148,0,0,0,80,82,137,120,59,123.78,208,-22.00,32.00,-981.00
2024-06-07 01:44:37.448479,0,0,-154,0,0,0,80,82,137,120,59,123.75,208,14.00,21.00,-1000.00
2024-06-07 01:44:37.542570,0,0,-160,0,0,0,80,82,137,120,59,123.78,208,37.00,-13.00,-1004.00
2024-06-07 01:44:37.654932,0,0,-166,0,0,0,80,82,137,120,59,123.80,209,4.00,20.00,-972.00
2024-06-07 01:44:37.746489,0,0,-171,0,0,0,78,81,136,120,59,123.80,209,4.00,3.00,-979.00
2024-06-07 01:44:37.848505,0,0,-177,0,0,0,78,81,137,120,59,123.79,209,-10.00,28.00,-991.00
2024-06-07 01:44:37.960463,0,0,176,0,0,0,78,81,137,120,59,123.78,209,29.00,-9.00,-975.00
2024-06-07 01:44:38.052468,0,0,170,0,0,0,78,81,137,120,59,123.76,209,2.00,23.00,-1011.00
2024-06-07 01:44:38.165633,0,0,164,0,0,0,78,81,136,120,59,123.76,209,18.00,8.00,-987.00
2024-06-07 01:44:38.256451,0,0,158,0,0,0,78,81,137,120,59,123.80,209,-14.00,27.00,-1013.00
2024-06-07 01:44:38.364207,0,0,153,0,0,0,78,81,136,120,59,123.81,209,-4.00,17.00,-992.00
2024-06-07 01:44:38.460425,0,0,147,0,0,0,78,81,137,120,59,123.81,209,-9.00,21.00,-1006.00
2024-06-07 01:44:38.575956,0,0,141,0,0,0,78,81,136,120,59,123.71,209,-1.00,22.00,-1002.00
2024-06-07 01:44:38.664416,0,0,135,0,0,0,78,81,136,120,59,123.77,210,-7.00,13.00,-996.00
2024-06-07 01:44:38.766335,0,0,129,0,0,0,79,81,136,120,59,123.76,210,-3.00,9.00,-992.00
2024-06-07 01:44:38.871128,0,0,123,0,0,0,79,81,137,120,59,123.77,210,-4.00,12.00,-1017.00
2024-06-07 01:44:38.972079,0,0,118,0,0,0,79,81,137,120,59,123.75,210,4.00,0.00,-1001.00
2024-06-07 01:44:39.073861,0,0,112,0,0,0,79,81,137,120,59,123.76,210,6.00,0.00,-1003.00
2024-06-07 01:44:39.174263,0,0,106,0,0,0,79,81,137,120,59,123.82,210,-5.00,7.00,-995.00
2024-06-07 01:44:39.291760,0,0,100,0,0,0,79,81,137,120,59,123.79,210,9.00,-17.00,-989.00
2024-06-07 01:44:39.378263,0,0,94,0,0,0,79,81,137,120,59,123.74,210,13.00,1.00,-996.00
2024-06-07 01:44:39.496401,0,0,88,0,0,0,79,81,137,120,59,123.74,210,12.00,-4.00,-1010.00
2024-06-07 01:44:39.582256,0,0,82,0,0,0,79,81,137,120,59,123.73,210,-7.00,8.00,-977.00
2024-06-07 01:44:39.684347,0,0,76,0,0,0,79,81,137,120,59,123.75,211,3.00,-4.00,-995.00
2024-06-07 01:44:39.804445,0,0,70,0,0,0,79,82,137,120,59,123.73,211,27.00,0.00,-1000.00
2024-06-07 01:44:39.888276,0,0,63,0,0,0,79,82,138,120,59,123.72,211,6.00,-11.00,-962.00
2024-06-07 01:44:40.008284,0,0,57,0,0,0,79,82,138,120,59,123.70,211,29.00,1.00,-999.00
2024-06-07 01:44:40.092262,0,0,51,0,0,0,79,82,137,120,59,123.68,211,0.00,11.00,-1007.00
2024-06-07 01:44:40.194654,0,0,45,0,0,0,79,82,138,120,59,123.75,211,16.00,0.00,-1006.00
2024-06-07 01:44:40.315686,0,0,39,0,0,0,79,82,137,120,59,123.75,211,16.00,7.00,-995.00
2024-06-07 01:44:40.398204,0,0,33,0,0,0,79,82,138,120,58,123.77,211,-11.00,-5.00,-941.00
2024-06-07 01:44:40.449158,0,0,29,0,0,0,79,82,138,120,58,123.72,211,3.00,2.00,-1010.00
2024-06-07 01:44:40.622705,0,0,26,0,0,0,79,82,137,120,58,123.77,211,23.00,-12.00,-1013.00
2024-06-07 01:44:40.653152,0,0,23,0,0,0,79,82,138,120,58,123.78,212,4.00,7.00,-1014.00
2024-06-07 01:44:40.827566,0,0,21,0,0,0,79,81,138,120,58,123.79,212,-8.00,22.00,-1042.00
2024-06-07 01:44:40.857209,0,0,20,0,0,0,79,81,138,120,58,123.79,212,-10.00,6.00,-998.00
2024-06-07 01:44:40.959888,0,0,18,0,0,0,79,81,139,120,58,123.78,212,20.00,-1.00,-995.00
2024-06-07 01:44:41.109990,0,0,17,0,0,0,79,81,138,120,58,123.80,212,0.00,19.00,-1012.00
2024-06-07 01:44:41.163388,0,0,17,0,0,0,79,81,138,120,58,123.72,212,-6.00,11.00,-1025.00
2024-06-07 01:44:41.352659,0,0,17,0,0,0,79,81,139,120,58,123.75,212,11.00,10.00,-982.00
2024-06-07 01:44:41.367233,0,0,17,0,0,0,79,81,139,120,58,123.73,212,3.00,11.00,-1011.00
2024-06-07 01:44:41.481682,0,0,17,0,0,0,79,81,139,120,58,123.73,212,3.00,1.00,-997.00
2024-06-07 01:44:41.660071,0,0,17,0,0,0,79,81,139,120,58,123.66,212,3.00,-10.00,-957.00
2024-06-07 01:44:41.673164,0,0,17,0,0,0,79,81,139,120,58,123.73,213,-7.00,6.00,-1005.00
2024-06-07 01:44:41.838912,0,0,17,0,0,0,79,81,138,120,58,123.74,213,2.00,2.00,-1010.00
2024-06-07 01:44:41.885737,0,0,17,0,0,0,79,81,138,120,58,123.78,213,11.00,6.00,-1010.00
2024-06-07 01:44:41.986939,0,0,17,0,0,0,79,81,138,120,58,123.76,213,0.00,-4.00,-986.00
2024-06-07 01:44:42.081221,0,0,17,0,0,0,79,81,137,120,58,123.77,213,10.00,8.00,-1002.00
2024-06-07 01:44:42.301860,0,0,17,0,0,0,79,81,137,120,58,123.68,213,6.00,3.00,-1007.00
2024-06-07 01:44:42.305956,0,0,17,0,0,0,79,81,136,120,58,123.74,213,23.00,7.00,-982.00
2024-06-07 01:44:42.458071,0,0,17,0,0,0,79,81,136,120,58,123.77,213,1.00,6.00,-1022.00
2024-06-07 01:44:42.601286,0,0,17,0,0,0,79,81,135,120,58,123.76,213,-4.00,14.00,-1004.00
2024-06-07 01:44:42.601477,0,0,17,0,0,0,79,81,135,120,58,123.73,214,12.00,3.00,-993.00
2024-06-07 01:44:42.744906,0,0,17,0,0,0,79,81,135,120,58,123.71,214,-8.00,16.00,-1033.00
2024-06-07 01:44:42.899235,0,0,17,0,0,0,79,82,135,120,58,123.69,214,-7.00,11.00,-1001.00
2024-06-07 01:44:42.899429,0,0,17,0,0,0,79,82,135,120,58,123.70,214,17.00,1.00,-1005.00
2024-06-07 01:44:42.999008,0,0,17,0,0,0,79,82,134,120,58,123.74,214,-6.00,22.00,-1022.00
2024-06-07 01:44:43.113537,0,0,17,0,0,0,79,82,133,120,58,123.72,214,1.00,36.00,-1044.00
2024-06-07 01:44:43.202967,0,0,17,0,0,0,79,82,133,120,58,123.74,214,-11.00,-3.00,-1006.00
2024-06-07 01:44:43.391042,0,0,17,0,0,-4,79,82,134,120,58,123.82,214,-29.00,34.00,-1703.00
2024-06-07 01:44:43.408197,0,-6,17,0,0,-10,79,82,140,130,58,123.89,214,-6.00,20.00,-1726.00
2024-06-07 01:44:43.592175,-1,-86,17,1,-4,-12,79,82,209,140,58,124.09,214,12.00,402.00,-1125.00
2024-06-07 01:44:43.611017,1,148,18,3,-9,1,79,82,174,150,58,124.08,215,-24.00,617.00,-1032.00
2024-06-07 01:44:43.712957,1,34,14,1,-4,12,79,82,187,140,58,124.24,215,-8.00,487.00,-971.00
2024-06-07 01:44:43.899423,0,-5,13,1,-2,10,79,81,145,130,58,123.88,215,-3.00,-131.00,-1551.00
2024-06-07 01:44:43.916807,0,2,14,1,-3,7,79,81,133,120,58,123.68,215,-9.00,23.00,-1487.00
2024-06-07 01:44:44.104281,0,2,16,1,-2,3,79,81,128,110,58,123.71,215,-32.00,26.00,-1395.00
2024-06-07 01:44:44.120715,0,1,17,1,-1,1,79,81,124,110,58,123.56,215,-5.00,21.00,-1251.00
2024-06-07 01:44:44.308923,0,0,17,1,-1,0,79,81,123,110,58,123.62,215,4.00,20.00,-1174.00
2024-06-07 01:44:44.309096,0,0,17,0,-1,-1,79,81,124,110,58,123.70,215,13.00,13.00,-1100.00
2024-06-07 01:44:44.375911,0,0,17,0,-1,-1,79,81,126,110,58,123.60,215,-1.00,15.00,-1028.00
2024-06-07 01:44:44.513742,0,0,17,0,-1,-1,79,81,127,110,58,123.67,215,-1.00,-7.00,-966.00
2024-06-07 01:44:44.579818,0,3,17,0,-1,-1,79,81,129,120,58,123.65,216,4.00,9.00,-977.00
2024-06-07 01:44:44.681854,0,2,17,0,0,-1,79,81,130,120,58,123.65,216,-4.00,25.00,-994.00
2024-06-07 01:44:44.823442,0,1,17,0,0,0,79,81,131,120,58,123.69,216,-2.00,16.00,-970.00
2024-06-07 01:44:44.885803,0,1,17,0,0,0,79,81,132,120,58,123.67,216,9.00,14.00,-1000.00
2024-06-07 01:44:45.032028,0,0,17,0,0,0,79,81,132,120,58,123.65,216,0.00,3.00,-964.00
2024-06-07 01:44:45.090365,0,0,17,0,0,0,79,81,133,120,58,123.68,216,0.00,17.00,-1001.00
2024-06-07 01:44:45.230490,0,0,16,0,0,0,79,81,132,120,58,123.74,216,-1.00,20.00,-980.00
2024-06-07 01:44:45.294468,0,0,16,0,0,0,79,81,132,120,58,123.70,216,-11.00,9.00,-932.00
2024-06-07 01:44:45.435305,0,0,16,0,0,0,79,81,132,120,57,123.72,216,-2.00,13.00,-994.00
2024-06-07 01:44:45.497668,0,0,16,0,0,0,79,81,132,120,57,123.72,216,-16.00,8.00,-967.00
2024-06-07 01:44:45.640034,0,0,16,0,0,0,79,81,133,120,57,123.73,217,-13.00,20.00,-976.00
2024-06-07 01:44:45.701998,0,0,16,0,0,0,79,81,133,120,57,123.70,217,4.00,12.00,-936.00
2024-06-07 01:44:45.803709,0,0,16,0,0,0,79,81,133,120,57,123.66,217,17.00,13.00,-1000.00
2024-06-07 01:44:45.905668,0,0,16,0,0,0,79,81,133,120,57,123.70,217,-16.00,25.00,-984.00
2024-06-07 01:44:46.007782,0,0,16,0,0,0,79,81,133,120,57,123.67,217,4.00,15.00,-1062.00
2024-06-07 01:44:46.109706,0,0,16,0,0,0,79,81,133,120,57,123.69,217,-5.00,4.00,-971.00
2024-06-07 01:44:46.254418,0,0,17,0,0,0,79,81,133,120,57,123.69,217,-2.00,8.00,-975.00
2024-06-07 01:44:46.313701,0,0,17,0,0,0,79,81,133,120,57,123.71,217,-30.00,11.00,-956.00
2024-06-07 01:44:46.459241,0,0,17,0,0,0,79,81,133,120,57,123.79,217,22.00,7.00,-972.00
2024-06-07 01:44:46.517685,0,0,17,0,0,0,79,81,133,120,57,123.70,217,-8.00,5.00,-985.00
2024-06-07 01:44:46.619668,0,0,17,0,0,0,79,81,133,120,57,123.72,218,-9.00,16.00,-1002.00
2024-06-07 01:44:46.721884,0,0,17,0,0,0,79,81,133,120,57,123.71,218,17.00,10.00,-987.00
2024-06-07 01:44:46.823818,0,0,17,0,0,0,79,82,133,120,57,123.68,218,15.00,19.00,-1062.00
2024-06-07 01:44:46.925822,0,0,17,0,0,0,79,82,134,120,57,123.68,218,0.00,18.00,-996.00
2024-06-07 01:44:47.073905,0,0,17,0,0,0,79,82,134,120,57,123.72,218,-21.00,12.00,-946.00
2024-06-07 01:44:47.129855,0,0,17,0,0,0,79,82,133,120,57,123.75,218,10.00,20.00,-1040.00
2024-06-07 01:44:47.278550,0,0,17,0,0,0,79,82,134,120,57,123.68,218,-7.00,15.00,-1006.00
2024-06-07 01:44:47.333784,0,0,17,0,0,0,79,82,133,120,57,123.68,218,-13.00,12.00,-969.00
2024-06-07 01:44:47.483777,0,0,17,0,0,0,79,82,133,120,56,123.75,218,-6.00,16.00,-1002.00
2024-06-07 01:44:47.537690,0,0,17,0,0,0,79,82,133,120,56,123.70,218,-21.00,13.00,-1004.00
2024-06-07 01:44:47.688118,0,0,17,0,0,0,79,82,133,120,56,123.70,219,3.00,6.00,-988.00
2024-06-07 01:44:47.741745,0,0,17,0,0,0,79,82,134,120,56,123.70,219,3.00,5.00,-989.00
2024-06-07 01:44:47.843841,0,0,17,0,0,0,80,82,133,120,56,123.67,219,1.00,24.00,-1094.00
2024-06-07 01:44:47.946747,0,0,17,0,0,0,80,82,134,120,56,123.77,219,-1.00,18.00,-1031.00
2024-06-07 01:44:48.100681,0,0,17,0,0,0,80,82,133,120,56,123.68,219,0.00,16.00,-990.00
2024-06-07 01:44:48.152788,0,0,17,0,0,0,80,82,134,120,56,123.68,219,-4.00,16.00,-988.00
2024-06-07 01:44:48.252922,0,0,17,0,0,0,80,82,134,120,56,123.74,219,-14.00,28.00,-1062.00
2024-06-07 01:44:48.404914,0,0,17,0,0,0,80,82,133,120,56,123.71,219,3.00,9.00,-1002.00
2024-06-07 01:44:48.405409,0,0,17,0,0,0,80,82,134,120,56,123.72,219,4.00,16.00,-986.00
2024-06-07 01:44:48.508274,0,0,17,0,0,0,80,82,133,120,56,123.69,219,19.00,8.00,-964.00
2024-06-07 01:44:48.609551,0,0,17,0,0,0,80,82,133,120,56,123.67,220,-4.00,14.00,-1019.00
2024-06-07 01:44:48.712325,0,0,17,0,0,0,80,82,134,120,56,123.72,220,23.00,15.00,-1001.00
2024-06-07 01:44:48.814704,0,0,17,0,0,0,79,82,134,120,56,123.72,220,4.00,10.00,-960.00
2024-06-07 01:44:48.916709,0,0,17,0,0,0,79,82,133,120,56,123.74,220,-10.00,14.00,-1010.00
2024-06-07 01:44:49.020197,0,0,17,0,0,0,79,82,133,120,56,123.68,220,2.00,9.00,-994.00
2024-06-07 01:44:49.119531,0,0,17,0,0,0,79,82,133,120,56,123.63,220,1.00,18.00,-1004.00
2024-06-07 01:44:49.226534,0,0,17,0,0,0,79,82,133,120,56,123.71,220,21.00,0.00,-980.00
2024-06-07 01:44:49.323639,0,0,17,0,0,0,79,82,133,120,56,123.68,220,-9.00,22.00,-1040.00
2024-06-07 01:44:49.425632,0,0,17,0,0,0,79,82,133,120,56,123.71,220,5.00,5.00,-979.00
2024-06-07 01:44:49.527582,0,0,17,0,0,0,79,82,132,120,56,123.68,220,-3.00,20.00,-1026.00
2024-06-07 01:44:49.633721,0,0,17,0,0,0,79,82,132,120,56,123.65,221,7.00,10.00,-999.00
2024-06-07 01:44:49.732761,0,0,17,0,0,0,79,82,132,120,56,123.67,221,-3.00,18.00,-998.00
2024-06-07 01:44:49.838334,0,0,17,0,0,0,79,82,132,120,56,123.75,221,60.00,38.00,-1376.00
2024-06-07 01:44:49.937666,0,0,17,0,0,-5,79,82,138,120,56,123.84,221,-7.00,6.00,-1748.00
2024-06-07 01:44:50.038402,0,16,17,0,1,-12,79,82,165,130,56,123.92,221,24.00,18.00,-1697.00
2024-06-07 01:44:50.140406,-1,115,16,-2,8,-10,79,82,217,140,56,124.14,221,41.00,743.00,-1123.00
2024-06-07 01:44:50.247930,1,-118,16,-2,9,5,79,82,548,150,56,124.17,221,5.00,766.00,-804.00
2024-06-07 01:44:50.344381,0,-12,18,0,4,11,79,82,148,140,56,124.20,221,-4.00,502.00,-987.00
2024-06-07 01:44:50.452750,0,6,18,-1,5,9,79,82,139,130,56,123.72,221,-22.00,-11.00,-1468.00
2024-06-07 01:44:50.548426,0,-4,18,-1,6,5,79,82,130,120,56,123.69,221,-25.00,-18.00,-1474.00
2024-06-07 01:44:50.658075,0,-6,17,0,4,2,79,82,128,120,56,123.63,222,3.00,-3.00,-1271.00
2024-06-07 01:44:50.752405,0,-4,17,0,3,0,79,82,126,110,56,123.66,222,9.00,4.00,-1171.00
2024-06-07 01:44:50.862299,0,-2,17,0,2,0,79,82,126,110,56,123.68,222,-3.00,2.00,-1081.00
2024-06-07 01:44:50.956409,0,-1,17,0,2,-1,79,82,127,110,56,123.66,222,-4.00,0.00,-1023.00
2024-06-07 01:44:51.067157,0,-1,17,0,1,-1,79,82,128,120,56,123.75,222,1.00,3.00,-987.00
2024-06-07 01:44:51.160328,0,0,17,0,1,-1,79,82,129,120,56,123.69,222,-23.00,11.00,-986.00
2024-06-07 01:44:51.271886,0,0,17,0,1,-1,79,82,130,120,56,123.70,222,-3.00,2.00,-968.00
2024-06-07 01:44:51.364369,0,-1,17,0,1,0,79,82,131,120,56,123.76,222,0.00,9.00,-952.00
2024-06-07 01:44:51.477240,0,-3,17,0,1,0,79,82,131,120,56,123.81,222,18.00,-21.00,-971.00
2024-06-07 01:44:51.568305,0,-2,17,0,0,0,79,82,132,120,56,123.75,222,8.00,13.00,-982.00
2024-06-07 01:44:51.672703,0,-2,17,0,0,0,79,82,132,120,56,123.80,223,-39.00,31.00,-991.00
2024-06-07 01:44:51.772274,0,-2,17,0,0,0,79,82,132,120,56,123.80,223,-9.00,22.00,-1002.00
2024-06-07 01:44:51.886137,0,-2,17,0,0,0,80,81,132,120,56,123.76,223,8.00,15.00,-1004.00
2024-06-07 01:44:51.977071,0,-2,17,0,0,0,80,81,133,120,56,123.74,223,12.00,16.00,-1007.00
2024-06-07 01:44:52.027289,0,-2,17,0,0,0,80,81,132,120,56,123.71,223,3.00,10.00,-998.00
2024-06-07 01:44:52.193447,0,-2,17,0,0,0,80,81,133,120,56,123.74,223,11.00,17.00,-1043.00
2024-06-07 01:44:52.232854,0,-2,17,0,0,0,80,81,133,120,56,123.74,223,-5.00,22.00,-997.00
2024-06-07 01:44:52.333210,0,-2,17,0,0,0,80,81,133,120,55,123.78,223,0.00,28.00,-1022.00
2024-06-07 01:44:52.500641,0,-2,17,0,0,0,80,81,134,120,55,123.79,223,23.00,9.00,-1024.00
2024-06-07 01:44:52.537208,0,-2,17,0,0,0,80,81,134,120,55,123.74,223,0.00,16.00,-984.00
2024-06-07 01:44:52.705414,0,-2,17,0,0,0,80,81,134,120,55,123.75,224,12.00,10.00,-1001.00
2024-06-07 01:44:52.741157,0,-2,17,0,0,0,80,81,135,120,55,123.77,224,8.00,3.00,-978.00
2024-06-07 01:44:52.910314,0,-1,17,0,0,0,80,82,134,120,55,123.74,224,7.00,7.00,-982.00
2024-06-07 01:44:52.946437,0,-1,17,0,0,0,80,82,134,120,55,123.68,224,-2.00,28.00,-980.00
2024-06-07 01:44:53.115603,0,-1,17,0,0,0,80,82,134,120,55,123.79,224,5.00,26.00,-991.00
2024-06-07 01:44:53.149151,0,-1,17,0,0,0,80,82,134,120,55,123.75,224,3.00,13.00,-999.00
2024-06-07 01:44:53.319763,0,-1,17,0,0,0,80,82,133,120,55,123.73,224,-3.00,11.00,-978.00
2024-06-07 01:44:53.353118,0,-1,17,0,0,0,80,82,133,120,55,123.74,224,15.00,12.00,-1002.00
2024-06-07 01:44:53.524669,0,-1,17,0,0,0,80,82,132,120,55,123.73,224,-3.00,33.00,-1046.00
2024-06-07 01:44:53.557214,0,-1,17,0,0,0,80,82,133,120,55,123.79,224,-4.00,22.00,-995.00
2024-06-07 01:44:53.729805,0,-1,17,0,0,0,80,82,132,120,55,123.77,225,0.00,23.00,-1020.00
2024-06-07 01:44:53.761149,0,-1,17,0,0,0,80,82,132,120,55,123.72,225,11.00,30.00,-1031.00
2024-06-07 01:44:53.935468,0,-1,17,0,0,0,79,81,131,120,55,123.77,225,-1.00,30.00,-1002.00
2024-06-07 01:44:53.966070,0,-1,17,0,0,0,79,81,131,120,55,123.74,225,12.00,8.00,-985.00
2024-06-07 01:44:54.139178,0,-1,17,0,0,0,79,81,130,120,55,123.65,225,14.00,4.00,-990.00
2024-06-07 01:44:54.170794,0,-1,17,0,0,0,79,81,129,120,55,123.68,225,14.00,17.00,-1023.00
2024-06-07 01:44:54.353569,0,-1,17,0,0,0,79,81,128,120,55,123.71,225,-16.00,16.00,-1000.00
2024-06-07 01:44:54.374105,0,-1,17,0,0,0,79,81,128,120,55,123.69,225,-10.00,32.00,-1039.00
2024-06-07 01:44:54.550692,0,-1,17,0,0,0,79,81,128,120,55,123.71,225,-10.00,22.00,-1006.00
2024-06-07 01:44:54.581018,0,-1,17,0,0,0,79,81,127,120,55,123.68,225,-2.00,9.00,-956.00
2024-06-07 01:44:54.680332,0,-1,17,0,0,0,79,81,126,120,55,123.71,226,11.00,16.00,-998.00
2024-06-07 01:44:54.857186,0,-1,17,0,0,0,79,81,126,120,55,123.64,226,-1.00,24.00,-1021.00
2024-06-07 01:44:54.888545,0,-1,17,0,0,0,79,82,126,110,55,123.67,226,-2.00,13.00,-1007.00
2024-06-07 01:44:54.989171,0,-1,17,0,0,0,79,82,126,110,55,123.68,226,-4.00,23.00,-1017.00
2024-06-07 01:44:55.088279,0,-1,17,0,0,0,79,82,127,110,55,123.70,226,4.00,23.00,-1022.00
2024-06-07 01:44:55.268775,0,-1,17,0,0,0,79,82,126,110,55,123.78,226,0.00,24.00,-1026.00
2024-06-07 01:44:55.292045,0,-1,17,0,0,0,79,82,127,110,55,123.76,226,5.00,0.00,-965.00
2024-06-07 01:44:55.470109,0,-1,17,0,0,0,79,82,128,120,55,123.80,226,4.00,20.00,-1000.00
2024-06-07 01:44:55.500782,0,-1,17,0,0,0,79,82,129,120,55,123.76,226,0.00,14.00,-1023.00
2024-06-07 01:44:55.598095,0,-1,17,0,0,0,79,82,129,120,55,123.74,226,7.00,9.00,-972.00
2024-06-07 01:44:55.700446,0,-1,17,0,0,0,79,82,130,120,55,123.82,227,8.00,18.00,-1000.00
2024-06-07 01:44:55.751016,0,-1,17,0,0,0,79,82,131,120,55,123.76,227,-9.00,28.00,-1011.00
2024-06-07 01:44:55.904087,0,-1,17,0,0,0,79,81,132,120,55,123.72,227,6.00,21.00,-983.00
2024-06-07 01:44:55.955053,0,-1,17,0,0,0,79,81,133,120,55,123.77,227,-19.00,15.00,-991.00
2024-06-07 01:44:56.119001,0,-1,17,0,0,0,79,81,133,120,55,123.78,227,-2.00,23.00,-991.00
2024-06-07 01:44:56.261729,0,-1,17,0,0,0,79,81,133,120,55,123.75,227,-18.00,24.00,-991.00
2024-06-07 01:44:56.262204,0,-1,17,0,0,0,79,81,134,120,55,123.81,227,8.00,15.00,-980.00
2024-06-07 01:44:56.392054,0,-1,17,0,0,0,79,81,135,120,55,123.74,227,-4.00,29.00,-993.00
2024-06-07 01:44:56.464984,0,-1,17,0,0,0,79,81,135,120,55,123.82,227,16.00,18.00,-1012.00
2024-06-07 01:44:56.596849,-1,0,17,0,0,-4,79,81,136,120,55,123.96,228,-7.00,54.00,-1563.00
2024-06-07 01:44:56.804193,-7,0,17,0,0,-10,79,81,144,130,55,123.97,228,19.00,35.00,-1666.00
2024-06-07 01:44:56.804253,-87,-4,21,5,1,-12,79,81,217,140,55,124.15,228,177.00,11.00,-1636.00
2024-06-07 01:44:56.906752,32,179,-163,10,3,0,79,81,168,150,55,124.01,228,719.00,24.00,-1030.00
2024-06-07 01:44:56.976921,31,0,18,5,2,12,79,81,372,140,55,123.80,228,664.00,3.00,-930.00
2024-06-07 01:44:57.076772,-21,0,18,5,2,11,79,81,154,130,55,123.79,228,361.00,25.00,-1036.00
2024-06-07 01:44:57.212120,0,0,18,8,3,7,79,81,141,120,55,123.85,228,4.00,25.00,-1393.00
2024-06-07 01:44:57.328907,7,0,17,7,2,4,79,81,131,110,55,123.72,228,-49.00,15.00,-1331.00
2024-06-07 01:44:57.468687,8,0,17,5,1,1,79,81,130,110,54,123.75,228,-34.00,13.00,-1269.00
2024-06-07 01:44:57.484726,5,0,17,3,1,0,79,81,129,110,54,123.74,228,8.00,-5.00,-1235.00
2024-06-07 01:44:57.631934,2,0,17,2,0,-1,79,81,128,110,54,123.73,229,1.00,0.00,-1126.00
2024-06-07 01:44:57.777205,1,0,17,1,0,-1,79,81,129,110,54,123.76,229,11.00,-14.00,-1038.00
2024-06-07 01:44:57.790913,0,0,17,0,0,-1,79,81,130,110,54,123.89,229,-2.00,0.00,-981.00
2024-06-07 01:44:57.938685,0,0,17,0,0,-1,80,82,132,110,54,123.82,229,10.00,-11.00,-968.00
2024-06-07 01:44:58.094776,0,0,17,0,0,0,80,82,133,110,54,123.81,229,-3.00,-2.00,-972.00
2024-06-07 01:44:58.096688,0,0,17,0,0,0,80,82,134,110,54,123.79,229,0.00,14.00,-982.00
2024-06-07 01:44:58.238178,2,0,17,0,0,0,80,82,136,110,54,123.87,229,-2.00,-2.00,-955.00
2024-06-07 01:44:58.300686,1,0,17,0,0,0,80,82,136,110,54,123.84,229,34.00,3.00,-987.00
2024-06-07 01:44:58.441525,1,0,17,0,0,0,80,82,136,110,54,123.84,229,5.00,5.00,-984.00
2024-06-07 01:44:58.504722,0,0,17,0,0,0,80,82,136,110,54,123.75,229,12.00,0.00,-986.00
2024-06-07 01:44:58.646215,0,0,17,0,0,0,80,82,135,110,54,123.79,230,10.00,-3.00,-957.00
2024-06-07 01:44:58.708582,0,0,17,0,0,0,80,82,135,110,54,123.73,230,10.00,3.00,-1026.00
