TS,pitch,roll,yaw,vgx,vgy,vgz,templ,temph,tof,h,bat,baro,time,agx,agy,agz
2024-06-07 01:45:30.277473,0,0,17,0,0,0,82,84,10,0,51,122.47,245,0.00,9.00,-999.00
2024-06-07 01:45:30.379407,0,0,17,0,0,0,82,84,10,0,51,122.47,245,0.00,8.00,-996.00
2024-06-07 01:45:30.489979,0,0,17,0,0,0,82,84,10,0,51,122.48,245,0.00,9.00,-999.00
2024-06-07 01:45:30.584357,0,0,17,0,0,0,82,84,10,0,51,122.40,245,-2.00,7.00,-1000.00
2024-06-07 01:45:30.685204,0,0,17,0,0,0,82,84,10,0,51,122.48,245,0.00,10.00,-999.00
2024-06-07 01:45:30.797112,0,0,17,0,0,0,82,84,10,0,51,122.47,245,0.00,8.00,-1000.00
2024-06-07 01:45:30.889135,0,0,17,0,0,0,82,84,10,0,51,122.41,245,0.00,10.00,-998.00
2024-06-07 01:45:31.002622,0,0,17,0,0,0,82,84,10,0,51,122.47,245,0.00,9.00,-1000.00
2024-06-07 01:45:31.092934,0,0,17,0,0,0,82,85,10,0,51,122.43,245,0.00,7.00,-1001.00
2024-06-07 01:45:31.308535,0,0,17,0,0,0,82,85,10,0,51,122.46,245,0.00,9.00,-1002.00
2024-06-07 01:45:31.308595,0,0,17,0,0,0,82,85,10,0,51,122.43,245,-1.00,8.00,-998.00
2024-06-07 01:45:31.398980,0,0,17,0,0,0,82,85,10,0,51,122.45,245,-1.00,7.00,-1000.00
2024-06-07 01:45:31.513505,0,0,17,0,0,0,82,85,10,0,51,122.45,245,0.00,9.00,-1000.00
2024-06-07 01:45:31.551919,0,0,17,0,0,0,82,85,10,0,51,122.47,245,0.00,9.00,-996.00
2024-06-07 01:45:31.654075,0,0,17,0,0,0,82,85,10,0,51,122.40,245,0.00,9.00,-1000.00
2024-06-07 01:45:31.922922,0,0,17,0,0,0,82,85,10,0,51,122.45,245,0.00,10.00,-1001.00
2024-06-07 01:45:31.922980,0,0,17,0,0,0,82,85,10,0,51,122.46,245,1.00,10.00,-1000.00
2024-06-07 01:45:31.960073,0,0,17,0,0,0,82,85,10,0,51,122.49,245,0.00,10.00,-1002.00
2024-06-07 01:45:32.061691,0,0,17,0,0,0,82,84,10,0,51,122.48,245,-1.00,11.00,-1001.00
2024-06-07 01:45:32.163788,0,0,17,0,0,0,82,84,10,0,51,122.48,245,-4.00,6.00,-1003.00
2024-06-07 01:45:32.297888,0,0,17,0,0,0,82,84,10,0,51,122.48,245,-10.00,19.00,-1004.00
2024-06-07 01:45:32.367590,0,0,16,0,0,0,82,84,10,0,51,122.48,245,-8.00,12.00,-993.00
2024-06-07 01:45:32.469658,0,0,15,0,0,0,82,84,10,0,51,122.48,246,1.00,6.00,-1008.00
2024-06-07 01:45:32.571578,0,0,15,0,0,0,82,84,10,0,51,122.48,246,4.00,3.00,-1130.00
2024-06-07 01:45:32.741976,-1,0,15,0,0,-1,82,84,10,0,51,122.48,246,15.00,16.00,-1186.00
2024-06-07 01:45:32.776376,0,0,15,0,0,-4,82,84,10,0,51,122.48,246,-3.00,5.00,-1295.00
2024-06-07 01:45:32.946778,0,0,15,0,0,-6,82,84,13,0,51,122.48,246,-9.00,12.00,-1255.00
2024-06-07 01:45:32.980076,0,0,15,0,0,-7,82,84,21,0,51,122.82,246,13.00,0.00,-1080.00
2024-06-07 01:45:33.151587,0,0,15,0,0,-7,83,84,30,10,51,122.91,246,16.00,-10.00,-1029.00
2024-06-07 01:45:33.183813,0,0,15,0,0,-7,83,84,37,10,51,122.96,246,12.00,1.00,-979.00
2024-06-07 01:45:33.356414,0,0,15,0,0,-6,83,84,45,20,51,122.99,246,1.00,0.00,-951.00
2024-06-07 01:45:33.387618,0,0,15,0,0,-5,83,84,54,30,51,123.08,246,-5.00,9.00,-897.00
2024-06-07 01:45:33.561247,0,-1,15,0,0,-5,83,84,61,30,51,123.21,247,5.00,-7.00,-883.00
2024-06-07 01:45:33.591871,0,-1,15,0,0,-3,83,84,67,40,51,123.26,247,11.00,24.00,-941.00
2024-06-07 01:45:33.693500,0,0,15,0,0,-2,83,84,72,40,51,123.26,247,-7.00,2.00,-872.00
2024-06-07 01:45:33.795777,0,0,15,0,0,-2,83,84,77,40,51,123.33,247,-2.00,2.00,-897.00
2024-06-07 01:45:33.970737,0,0,15,0,0,-1,83,84,81,40,51,123.38,247,-5.00,5.00,-921.00
2024-06-07 01:45:34.000525,0,0,15,0,0,0,83,84,84,50,51,123.43,247,11.00,6.00,-928.00
2024-06-07 01:45:34.102551,0,0,15,0,0,0,83,85,86,50,51,123.37,247,5.00,18.00,-948.00
2024-06-07 01:45:34.277986,0,0,15,0,0,0,83,85,88,50,51,123.43,247,5.00,1.00,-963.00
2024-06-07 01:45:34.306515,0,0,15,0,0,0,83,85,89,50,51,123.45,247,-8.00,15.00,-936.00
2024-06-07 01:45:34.482699,0,0,15,0,0,0,83,85,90,50,51,123.50,247,11.00,2.00,-967.00
2024-06-07 01:45:34.510756,0,0,15,0,0,0,83,85,91,50,51,123.47,248,8.00,0.00,-994.00
2024-06-07 01:45:34.688064,0,0,15,0,0,0,83,85,91,50,51,123.49,248,-11.00,8.00,-952.00
2024-06-07 01:45:34.714779,0,0,15,0,0,0,83,85,91,50,51,123.48,248,-10.00,8.00,-970.00
2024-06-07 01:45:34.816599,0,0,15,0,0,0,83,85,92,50,51,123.53,248,10.00,4.00,-981.00
2024-06-07 01:45:34.867457,0,0,15,0,0,0,83,85,91,50,51,123.48,248,4.00,2.00,-970.00
2024-06-07 01:45:34.999843,0,0,15,0,0,0,83,85,91,60,51,123.49,248,6.00,-1.00,-979.00
2024-06-07 01:45:35.071423,0,0,15,0,0,0,82,85,91,60,51,123.39,248,7.00,9.00,-1004.00
2024-06-07 01:45:35.202449,0,0,15,0,0,0,82,85,90,60,51,123.43,248,-13.00,15.00,-999.00
2024-06-07 01:45:35.275371,0,0,15,0,0,0,82,85,89,50,51,123.47,248,2.00,6.00,-971.00
2024-06-07 01:45:35.377456,0,0,15,0,0,0,82,85,88,50,51,123.47,248,-3.00,15.00,-991.00
2024-06-07 01:45:35.507327,0,0,15,0,0,0,82,85,88,50,51,123.42,249,14.00,1.00,-996.00
2024-06-07 01:45:35.581434,0,0,15,0,0,0,82,85,86,50,51,123.43,249,-11.00,17.00,-1009.00
2024-06-07 01:45:35.683450,0,0,15,0,0,0,82,85,85,50,51,123.42,249,-33.00,31.00,-1007.00
2024-06-07 01:45:35.814265,0,0,15,0,0,0,82,85,84,50,51,123.45,249,-5.00,13.00,-1008.00
2024-06-07 01:45:35.887407,-1,0,15,0,0,0,82,85,83,50,51,123.48,249,-8.00,-1.00,-990.00
2024-06-07 01:45:36.018792,0,0,15,0,0,0,82,85,82,50,51,123.38,249,1.00,7.00,-988.00
2024-06-07 01:45:36.091349,0,0,15,0,0,0,82,84,81,50,51,123.38,249,-12.00,17.00,-1043.00
2024-06-07 01:45:36.223523,0,0,15,0,0,0,82,84,80,50,51,123.40,249,-11.00,6.00,-1009.00
2024-06-07 01:45:36.295349,0,0,15,0,0,0,82,84,80,50,51,123.37,249,5.00,6.00,-1047.00
2024-06-07 01:45:36.428234,0,0,15,0,0,0,82,84,80,50,51,123.35,249,-4.00,6.00,-1063.00
2024-06-07 01:45:36.499338,0,0,15,0,0,0,82,84,80,50,51,123.37,250,-16.00,15.00,-1004.00
2024-06-07 01:45:36.633012,0,0,15,0,0,0,82,84,79,50,51,123.37,250,-10.00,14.00,-1008.00
2024-06-07 01:45:36.703299,0,0,15,0,0,0,82,84,79,50,51,123.34,250,8.00,8.00,-1006.00
2024-06-07 01:45:36.839346,0,0,15,0,0,0,82,84,79,50,51,123.38,250,-2.00,17.00,-985.00
2024-06-07 01:45:36.907286,0,0,15,0,0,0,82,84,78,50,51,123.38,250,-28.00,15.00,-968.00
2024-06-07 01:45:37.042985,0,0,15,0,0,0,82,84,78,50,51,123.39,250,2.00,10.00,-998.00
2024-06-07 01:45:37.111281,0,0,15,0,0,0,82,84,78,50,51,123.30,250,5.00,8.00,-983.00
2024-06-07 01:45:37.247357,0,0,15,0,0,0,82,84,77,50,51,123.37,250,9.00,26.00,-1040.00
2024-06-07 01:45:37.315293,0,0,15,0,0,0,82,84,78,50,51,123.30,250,0.00,13.00,-984.00
2024-06-07 01:45:37.452967,0,0,15,0,0,0,82,84,77,50,51,123.36,250,8.00,18.00,-1001.00
2024-06-07 01:45:37.519268,0,0,15,0,0,0,82,84,77,50,51,123.30,251,-1.00,20.00,-1020.00
2024-06-07 01:45:37.621329,0,0,15,0,0,0,82,84,77,50,51,123.35,251,-18.00,24.00,-997.00
2024-06-07 01:45:37.760811,0,-1,15,0,0,0,82,84,77,50,51,123.30,251,-6.00,23.00,-1024.00
2024-06-07 01:45:37.825393,0,-1,15,0,0,0,82,84,77,50,51,123.30,251,-5.00,20.00,-959.00
2024-06-07 01:45:37.964540,0,-1,15,0,0,0,82,84,77,50,51,123.33,251,-6.00,16.00,-988.00
2024-06-07 01:45:38.029493,0,-1,15,0,0,0,82,84,77,40,51,123.39,251,-1.00,14.00,-971.00
2024-06-07 01:45:38.172417,0,-1,15,0,0,0,82,83,77,40,51,123.37,251,-5.00,23.00,-989.00
2024-06-07 01:45:38.233454,0,0,15,0,0,0,82,83,77,40,51,123.37,251,2.00,15.00,-996.00
2024-06-07 01:45:38.335304,0,-1,15,0,0,0,82,83,78,50,51,123.39,251,10.00,10.00,-1009.00
2024-06-07 01:45:38.476294,0,-1,15,0,0,0,82,83,79,50,51,123.33,251,-4.00,26.00,-1028.00
2024-06-07 01:45:38.539247,0,0,15,0,0,0,82,83,80,50,51,123.37,252,6.00,8.00,-986.00
2024-06-07 01:45:38.681054,0,0,15,0,0,0,82,83,81,50,51,123.33,252,0.00,15.00,-1011.00
2024-06-07 01:45:38.692498,0,0,15,0,0,0,82,83,82,50,51,123.37,252,0.00,11.00,-998.00
2024-06-07 01:45:38.886080,0,0,15,0,0,0,82,83,82,50,51,123.35,252,-5.00,8.00,-985.00
2024-06-07 01:45:38.896370,0,-1,15,0,0,0,82,83,83,50,51,123.42,252,10.00,23.00,-996.00
2024-06-07 01:45:39.093293,0,-1,15,0,0,0,82,83,84,50,51,123.41,252,3.00,5.00,-996.00
2024-06-07 01:45:39.151354,0,-1,15,0,0,0,81,84,85,50,51,123.43,252,3.00,10.00,-961.00
2024-06-07 01:45:39.202810,0,-1,15,0,0,0,81,84,85,50,51,123.39,252,14.00,0.00,-968.00
2024-06-07 01:45:39.397928,0,0,15,0,0,0,81,84,85,50,51,123.42,252,-7.00,10.00,-955.00
2024-06-07 01:45:39.406211,0,0,15,0,0,0,81,84,85,50,51,123.44,252,14.00,3.00,-977.00
2024-06-07 01:45:39.573877,0,0,15,0,0,0,81,84,85,50,51,123.37,253,10.00,6.00,-971.00
2024-06-07 01:45:39.610401,0,0,15,0,0,0,81,84,84,50,51,123.39,253,3.00,20.00,-1007.00
2024-06-07 01:45:39.712141,0,0,15,0,0,0,81,84,83,50,51,123.35,253,6.00,-15.00,-991.00
2024-06-07 01:45:39.910198,0,0,15,0,0,0,81,84,83,50,51,123.34,253,7.00,5.00,-1107.00
2024-06-07 01:45:39.916191,0,0,15,0,0,0,81,84,84,50,51,123.42,253,23.00,0.00,-1088.00
2024-06-07 01:45:40.114763,0,0,15,0,0,-1,81,84,86,50,51,123.48,253,-5.00,11.00,-1125.00
2024-06-07 01:45:40.120977,0,0,15,0,0,-2,82,84,89,50,51,123.45,253,16.00,17.00,-1165.00
2024-06-07 01:45:40.322627,0,0,15,0,0,-3,82,84,94,60,51,123.48,253,3.00,0.00,-1065.00
2024-06-07 01:45:40.325439,0,0,15,0,0,-4,82,84,98,60,51,123.54,253,19.00,14.00,-1083.00
2024-06-07 01:45:40.428745,0,0,15,0,0,-5,82,84,103,70,51,123.62,253,0.00,5.00,-1019.00
2024-06-07 01:45:40.529524,0,0,15,0,0,-5,82,84,110,70,51,123.73,254,23.00,11.00,-1007.00
2024-06-07 01:45:40.730831,0,0,15,0,0,-5,82,84,115,80,51,123.69,254,17.00,1.00,-1035.00
2024-06-07 01:45:40.733027,0,0,15,0,0,-5,82,84,121,90,51,123.83,254,-16.00,26.00,-1037.00
2024-06-07 01:45:40.835020,0,0,15,0,0,-5,82,84,127,90,51,123.92,254,-3.00,13.00,-999.00
2024-06-07 01:45:41.259695,0,-1,15,0,0,-5,82,84,134,100,51,123.86,254,-15.00,20.00,-971.00
2024-06-07 01:45:41.259944,0,0,15,0,0,-5,82,84,139,100,51,123.95,254,3.00,25.00,-974.00
2024-06-07 01:45:41.260169,0,-1,15,0,0,-5,81,84,144,110,51,124.00,254,1.00,15.00,-958.00
2024-06-07 01:45:41.260335,0,-1,15,0,0,-4,81,84,149,110,51,124.06,254,21.00,8.00,-950.00
2024-06-07 01:45:41.391899,0,-1,15,0,0,-4,81,84,154,120,51,124.14,254,10.00,6.00,-970.00
2024-06-07 01:45:41.539273,0,-1,15,0,0,-4,81,84,157,120,51,124.06,254,-16.00,30.00,-954.00
2024-06-07 01:45:41.549914,0,-1,15,0,0,-3,81,84,161,130,51,124.15,255,7.00,23.00,-978.00
2024-06-07 01:45:41.694321,0,-1,15,0,0,-3,81,84,166,130,51,124.22,255,-2.00,21.00,-962.00
2024-06-07 01:45:41.753046,0,-1,15,0,0,-2,81,84,167,130,51,124.17,255,-5.00,20.00,-952.00
2024-06-07 01:45:41.899085,0,-1,15,0,0,-2,81,84,170,140,51,124.23,255,17.00,9.00,-991.00
2024-06-07 01:45:41.959924,0,-1,15,0,0,-2,81,84,172,140,51,124.28,255,2.00,1.00,-944.00
2024-06-07 01:45:42.059888,0,-1,15,0,0,-1,81,84,173,140,51,124.25,255,0.00,24.00,-980.00
2024-06-07 01:45:42.276267,0,-1,15,0,0,-1,81,83,174,140,51,124.24,255,10.00,10.00,-983.00
2024-06-07 01:45:42.276451,0,-1,15,0,0,-1,81,83,176,140,51,124.23,255,3.00,10.00,-966.00
2024-06-07 01:45:42.368134,0,-1,15,0,0,0,81,83,177,140,51,124.29,255,25.00,9.00,-1006.00
2024-06-07 01:45:42.481640,0,-1,15,0,0,0,81,83,178,150,51,124.28,255,23.00,14.00,-1000.00
2024-06-07 01:45:42.625415,0,-1,15,0,0,0,81,83,178,150,51,124.29,256,10.00,14.00,-974.00
2024-06-07 01:45:42.670799,0,-1,15,0,0,0,81,83,179,150,51,124.31,256,7.00,6.00,-964.00
2024-06-07 01:45:42.787787,0,-1,15,0,0,0,81,83,179,150,51,124.27,256,4.00,1.00,-978.00
2024-06-07 01:45:42.932677,0,-1,15,0,0,0,81,83,180,150,51,124.28,256,12.00,4.00,-971.00
2024-06-07 01:45:42.932857,0,-1,15,0,0,0,81,83,180,150,51,124.25,256,-3.00,15.00,-988.00
2024-06-07 01:45:43.095057,0,-1,15,0,0,0,81,83,179,150,51,124.23,256,24.00,-7.00,-986.00
2024-06-07 01:45:43.162966,0,-1,15,0,0,0,81,83,180,150,51,124.32,256,4.00,20.00,-1018.00
2024-06-07 01:45:43.240069,0,-1,15,0,0,0,81,83,179,150,51,124.26,256,-1.00,26.00,-1001.00
2024-06-07 01:45:43.333937,0,-1,15,0,0,0,81,83,179,150,51,124.25,256,-26.00,21.00,-985.00
2024-06-07 01:45:43.596315,0,-1,15,0,0,0,81,83,179,150,51,124.23,256,14.00,23.00,-1017.00
2024-06-07 01:45:43.596818,0,-1,15,0,0,0,81,83,178,150,51,124.24,257,-3.00,35.00,-1019.00
2024-06-07 01:45:43.640257,0,-1,15,0,0,0,81,83,177,150,51,124.25,257,18.00,11.00,-1011.00
2024-06-07 01:45:43.741932,0,-1,15,0,0,0,81,83,178,150,51,124.25,257,1.00,18.00,-1018.00
2024-06-07 01:45:43.843979,0,-1,15,0,0,0,81,83,177,150,51,124.26,257,8.00,18.00,-1021.00
2024-06-07 01:45:43.946021,0,-1,15,0,0,0,81,83,178,150,51,124.28,257,13.00,0.00,-982.00
2024-06-07 01:45:44.048102,0,-1,15,0,0,0,81,83,178,150,51,124.25,257,11.00,2.00,-958.00
2024-06-07 01:45:44.221501,0,-1,15,0,0,0,81,83,178,150,51,124.27,257,15.00,24.00,-1026.00
2024-06-07 01:45:44.251947,0,-1,15,0,0,0,81,83,177,150,51,124.20,257,3.00,0.00,-992.00
2024-06-07 01:45:44.354077,0,-1,15,0,0,0,81,83,178,150,51,124.24,257,1.00,31.00,-1040.00
2024-06-07 01:45:44.517676,0,-1,15,0,0,0,81,83,178,150,51,124.29,257,-2.00,28.00,-1017.00
2024-06-07 01:45:44.557892,0,0,15,0,0,0,81,83,178,150,51,124.31,258,5.00,14.00,-991.00
2024-06-07 01:45:44.665808,0,-1,15,0,0,0,81,83,179,150,51,124.34,258,18.00,5.00,-1017.00
2024-06-07 01:45:44.761745,0,-1,15,0,0,0,81,83,179,150,51,124.28,258,26.00,18.00,-1029.00
2024-06-07 01:45:44.927041,0,-1,15,0,0,0,81,83,179,150,51,124.30,258,6.00,3.00,-945.00
2024-06-07 01:45:44.967138,0,-1,15,0,0,0,81,83,179,150,51,124.26,258,19.00,-3.00,-925.00
2024-06-07 01:45:45.069567,0,-1,15,0,0,0,81,83,179,150,51,124.23,258,-4.00,28.00,-954.00
2024-06-07 01:45:45.169971,0,-1,15,0,0,1,82,83,177,150,51,124.30,258,-16.00,25.00,-957.00
2024-06-07 01:45:45.273560,0,-1,15,0,0,1,82,83,175,140,51,124.24,258,7.00,19.00,-970.00
2024-06-07 01:45:45.374006,0,-1,15,0,0,2,82,83,172,140,51,124.18,258,9.00,17.00,-983.00
2024-06-07 01:45:45.476025,0,-1,15,0,0,2,82,83,169,140,51,124.16,258,-6.00,20.00,-986.00
2024-06-07 01:45:45.644763,0,-1,15,0,0,2,82,83,167,140,51,124.15,259,13.00,22.00,-998.00
2024-06-07 01:45:45.679766,0,0,15,0,0,2,82,83,163,130,51,124.02,259,17.00,21.00,-996.00
2024-06-07 01:45:45.781696,0,0,15,0,0,3,82,83,160,130,51,124.10,259,-3.00,26.00,-1022.00
2024-06-07 01:45:45.950983,0,0,15,0,0,3,82,83,156,130,51,124.06,259,23.00,17.00,-1037.00
2024-06-07 01:45:45.985603,0,0,15,0,0,3,82,83,154,120,51,124.01,259,-9.00,18.00,-1008.00
2024-06-07 01:45:46.087622,0,0,15,0,0,2,82,83,150,120,51,123.98,259,-1.00,19.00,-1023.00
2024-06-07 01:45:46.258227,0,-1,15,0,0,2,80,83,148,120,51,123.95,259,11.00,4.00,-986.00
2024-06-07 01:45:46.294940,0,-1,15,0,0,2,80,83,146,120,51,123.91,259,6.00,15.00,-1023.00
2024-06-07 01:45:46.393756,0,0,15,0,0,2,80,83,143,110,51,123.96,259,18.00,3.00,-1006.00
2024-06-07 01:45:46.565409,0,-1,15,0,0,2,80,83,141,110,51,123.88,259,4.00,8.00,-1000.00
2024-06-07 01:45:46.597493,0,-1,15,0,0,1,80,83,139,110,51,123.88,260,24.00,4.00,-1058.00
2024-06-07 01:45:46.771303,0,0,15,0,0,1,80,83,138,110,51,123.87,260,0.00,9.00,-1031.00
2024-06-07 01:45:46.771387,0,0,15,0,0,1,80,83,137,110,51,123.85,260,7.00,5.00,-1017.00
2024-06-07 01:45:46.853035,0,0,15,0,0,1,80,83,136,100,51,123.87,260,-15.00,20.00,-1012.00
2024-06-07 01:45:46.954848,0,0,15,0,0,1,80,83,134,100,51,123.81,260,4.00,7.00,-1015.00
2024-06-07 01:45:47.056435,0,0,15,0,0,1,80,83,134,100,51,123.89,260,-1.00,18.00,-1045.00
2024-06-07 01:45:47.180983,0,0,15,0,0,0,81,83,133,100,51,123.90,260,0.00,7.00,-945.00
2024-06-07 01:45:47.260466,0,0,15,0,0,0,81,83,133,100,51,123.86,260,-1.00,18.00,-1101.00
2024-06-07 01:45:47.362510,0,0,15,0,0,0,81,83,132,100,51,123.91,260,0.00,10.00,-1036.00
2024-06-07 01:45:47.464421,0,0,15,0,0,0,81,83,132,100,51,123.80,260,20.00,-3.00,-1011.00
2024-06-07 01:45:47.589561,0,0,15,0,0,0,81,83,132,100,51,123.95,261,13.00,5.00,-1006.00
2024-06-07 01:45:47.668524,0,0,15,0,0,0,81,83,132,100,51,123.83,261,2.00,20.00,-1025.00
2024-06-07 01:45:47.794333,0,0,15,0,0,0,81,83,132,100,51,123.82,261,40.00,0.00,-1004.00
2024-06-07 01:45:47.874212,0,0,15,0,0,0,81,83,132,100,51,123.87,261,12.00,6.00,-988.00
2024-06-07 01:45:47.974545,0,0,15,0,0,0,81,83,131,100,51,123.84,261,-6.00,18.00,-979.00
2024-06-07 01:45:48.078312,0,0,15,0,0,0,81,83,131,100,51,123.86,261,15.00,14.00,-996.00
2024-06-07 01:45:48.178626,0,0,15,0,0,0,81,83,131,100,51,123.74,261,-11.00,10.00,-1012.00
2024-06-07 01:45:48.306332,0,0,15,0,0,0,81,83,130,100,51,123.79,261,30.00,-3.00,-955.00
2024-06-07 01:45:48.386404,0,0,15,0,0,0,81,83,129,100,51,123.82,261,16.00,23.00,-1027.00
2024-06-07 01:45:48.484529,0,0,15,0,0,0,81,83,129,100,51,123.80,262,-3.00,16.00,-976.00
2024-06-07 01:45:48.613996,0,0,15,0,0,0,81,83,129,100,51,123.77,262,9.00,18.00,-989.00
2024-06-07 01:45:48.688391,0,-1,15,0,0,0,81,83,129,100,51,123.83,262,13.00,-2.00,-973.00
2024-06-07 01:45:48.818127,0,0,15,0,0,0,81,83,129,100,51,123.83,262,-15.00,8.00,-963.00
2024-06-07 01:45:48.892478,0,0,15,0,0,0,81,83,129,100,51,123.83,262,15.00,12.00,-1000.00
2024-06-07 01:45:49.023354,0,0,15,0,0,0,81,83,129,100,51,123.86,262,-5.00,17.00,-975.00
2024-06-07 01:45:49.096260,0,0,15,0,0,0,81,83,129,100,51,123.82,262,7.00,7.00,-1020.00
2024-06-07 01:45:49.201942,0,0,15,0,0,0,80,83,129,100,51,123.87,262,-2.00,18.00,-965.00
2024-06-07 01:45:49.300213,0,0,15,0,0,0,80,83,129,100,51,123.87,262,17.00,5.00,-995.00
2024-06-07 01:45:49.432979,-5,0,15,0,0,0,80,83,129,100,51,123.83,262,-8.00,17.00,-1035.00
2024-06-07 01:45:49.505758,-8,0,15,1,0,0,80,83,130,100,51,123.82,263,-3.00,27.00,-1008.00
2024-06-07 01:45:49.606154,-8,-1,15,2,0,0,80,83,131,100,51,123.86,263,5.00,7.00,-988.00
2024-06-07 01:45:49.708294,-8,-1,15,4,1,0,80,83,131,100,51,123.76,263,-28.00,12.00,-994.00
2024-06-07 01:45:49.842104,-7,-1,15,5,1,0,80,83,131,100,51,123.85,263,-8.00,18.00,-1027.00
2024-06-07 01:45:49.912201,-6,0,15,6,1,0,80,83,132,100,51,123.80,263,-53.00,15.00,-992.00
2024-06-07 01:45:49.963299,-5,0,15,7,1,0,80,83,132,100,51,123.80,263,-26.00,9.00,-1011.00
2024-06-07 01:45:50.067096,-4,0,15,7,2,0,80,83,132,100,51,123.83,263,-43.00,10.00,-994.00
2024-06-07 01:45:50.252363,-2,0,15,7,2,0,81,83,132,100,51,123.86,263,-41.00,20.00,-986.00
2024-06-07 01:45:50.269358,0,0,15,7,2,0,81,83,132,100,51,123.83,263,-43.00,16.00,-1033.00
2024-06-07 01:45:50.371240,2,0,15,6,2,0,81,83,133,100,51,123.85,263,-43.00,17.00,-1005.00
2024-06-07 01:45:50.559641,4,0,15,6,1,0,81,83,134,100,51,123.78,264,-39.00,14.00,-986.00
2024-06-07 01:45:50.575296,4,0,15,5,1,0,81,83,133,100,51,123.79,264,-23.00,-1.00,-982.00
2024-06-07 01:45:50.763593,3,0,15,4,0,0,81,83,132,100,51,123.82,264,-30.00,7.00,-974.00
2024-06-07 01:45:50.779320,2,0,15,3,0,0,81,83,132,100,51,123.90,264,-8.00,6.00,-964.00
2024-06-07 01:45:50.968517,1,0,15,3,0,0,81,83,132,100,51,123.94,264,-16.00,18.00,-1052.00
2024-06-07 01:45:50.983308,0,0,15,2,0,0,81,83,131,100,51,123.88,264,-8.00,18.00,-1034.00
2024-06-07 01:45:51.085227,0,0,15,2,0,0,81,83,131,100,51,123.88,264,-13.00,13.00,-1021.00
2024-06-07 01:45:51.275678,0,-2,15,2,0,0,80,82,130,100,51,123.85,264,-5.00,7.00,-994.00
2024-06-07 01:45:51.289155,0,-2,15,2,0,0,80,82,130,100,51,123.78,264,10.00,-3.00,-1034.00
2024-06-07 01:45:51.480350,1,0,15,2,0,0,80,82,131,100,51,123.89,264,-1.00,10.00,-1004.00
2024-06-07 01:45:51.493292,5,0,15,1,0,0,80,82,131,100,51,123.92,265,-29.00,21.00,-1013.00
2024-06-07 01:45:51.685374,2,0,15,0,0,0,80,82,131,100,51,123.87,265,-14.00,21.00,-1020.00
2024-06-07 01:45:51.697389,1,0,15,0,0,0,80,82,131,100,51,123.90,265,2.00,4.00,-1019.00
2024-06-07 01:45:51.892851,0,0,15,0,0,0,80,82,131,100,51,123.84,265,-6.00,7.00,-997.00
2024-06-07 01:45:51.901238,0,0,15,0,0,0,80,82,131,100,51,123.81,265,1.00,8.00,-1036.00
2024-06-07 01:45:52.097449,0,0,15,0,0,0,80,82,131,100,51,123.90,265,20.00,14.00,-1028.00
2024-06-07 01:45:52.105063,0,0,15,0,0,0,80,82,132,100,51,123.88,265,8.00,7.00,-1018.00
2024-06-07 01:45:52.303409,0,0,15,0,0,0,81,83,132,100,51,123.87,265,-13.00,11.00,-984.00
2024-06-07 01:45:52.309365,0,0,15,0,0,0,81,83,133,100,51,123.88,265,0.00,35.00,-1032.00
2024-06-07 01:45:52.504774,0,0,15,0,0,0,81,83,134,100,51,123.88,265,22.00,4.00,-1017.00
2024-06-07 01:45:52.513532,0,0,15,0,0,0,81,83,134,100,51,123.89,266,7.00,21.00,-1006.00
2024-06-07 01:45:52.615276,0,0,15,0,0,0,81,83,134,100,51,123.95,266,8.00,1.00,-989.00
2024-06-07 01:45:52.717236,0,0,15,0,0,0,81,83,135,100,51,123.92,266,9.00,-3.00,-963.00
2024-06-07 01:45:52.917120,0,0,15,0,0,0,81,83,135,100,51,123.92,266,-5.00,16.00,-982.00
2024-06-07 01:45:52.921372,0,0,15,0,0,0,81,83,136,100,51,123.90,266,1.00,25.00,-981.00
2024-06-07 01:45:53.118837,0,0,15,0,0,0,81,83,136,100,51,123.92,266,-4.00,19.00,-1003.00
2024-06-07 01:45:53.126189,0,0,15,0,0,0,81,83,136,100,51,123.87,266,5.00,1.00,-966.00
2024-06-07 01:45:53.227199,0,0,15,0,0,0,81,82,135,100,51,123.95,266,-3.00,17.00,-974.00
2024-06-07 01:45:53.329442,0,0,15,0,0,0,81,82,136,100,51,123.93,266,-11.00,12.00,-1000.00
2024-06-07 01:45:53.432016,0,0,15,0,0,0,81,82,135,100,51,123.88,266,5.00,2.00,-996.00
2024-06-07 01:45:53.534078,0,0,15,0,0,0,81,82,136,100,51,123.88,267,12.00,8.00,-965.00
2024-06-07 01:45:53.662819,0,0,15,0,0,0,81,82,135,100,51,123.96,267,-15.00,4.00,-993.00
2024-06-07 01:45:53.737113,0,0,15,0,0,0,81,82,135,100,51,123.85,267,3.00,7.00,-996.00
2024-06-07 01:45:53.937795,0,0,15,0,0,0,81,82,134,100,51,123.84,267,16.00,17.00,-984.00
2024-06-07 01:45:53.937973,5,0,15,0,0,0,81,82,136,100,51,123.92,267,3.00,7.00,-996.00
2024-06-07 01:45:53.992217,8,0,15,-1,0,0,81,82,137,100,51,123.92,267,16.00,17.00,-984.00
2024-06-07 01:45:54.093805,8,0,15,-2,0,0,81,82,136,100,51,123.89,267,9.00,26.00,-998.00
2024-06-07 01:45:54.247108,8,0,15,-3,-1,0,81,83,135,100,51,123.91,267,25.00,22.00,-1038.00
2024-06-07 01:45:54.449883,8,0,15,-5,-1,0,81,83,135,100,51,123.87,267,30.00,21.00,-1029.00
2024-06-07 01:45:54.449946,7,0,15,-6,-1,0,81,83,134,100,51,123.80,267,59.00,9.00,-1001.00
2024-06-07 01:45:54.501805,6,0,15,-7,-2,0,81,83,133,100,51,123.88,268,39.00,15.00,-987.00
2024-06-07 01:45:54.655152,5,0,15,-7,-2,0,81,83,133,100,51,123.88,268,48.00,9.00,-1011.00
2024-06-07 01:45:54.705736,3,0,15,-7,-2,0,81,83,134,100,51,123.85,268,56.00,8.00,-990.00
2024-06-07 01:45:54.859465,0,0,15,-7,-2,0,81,83,133,100,51,123.85,268,61.00,1.00,-981.00
2024-06-07 01:45:54.909811,-2,0,15,-7,-1,0,81,83,133,100,51,123.84,268,59.00,11.00,-999.00
2024-06-07 01:45:55.011866,-4,0,15,-6,-1,0,81,83,133,100,51,123.91,268,45.00,0.00,-1000.00
2024-06-07 01:45:55.114003,-4,0,15,-5,-1,0,81,83,133,100,51,123.85,268,42.00,13.00,-1034.00
2024-06-07 01:45:55.269094,-2,0,15,-4,-1,0,80,83,134,100,51,123.84,268,24.00,19.00,-1008.00
2024-06-07 01:45:55.318440,-1,0,15,-3,-1,0,80,83,134,100,51,123.93,268,15.00,10.00,-986.00
2024-06-07 01:45:55.477687,0,0,15,-3,0,0,80,83,134,100,51,123.90,268,32.00,8.00,-960.00
2024-06-07 01:45:55.521806,0,0,15,-2,0,0,80,83,134,100,51,123.90,269,25.00,10.00,-998.00
2024-06-07 01:45:55.678642,0,0,15,-2,0,0,80,83,134,100,51,123.86,269,24.00,2.00,-1001.00
2024-06-07 01:45:55.725791,0,0,15,-2,0,0,80,83,134,100,51,123.87,269,13.00,5.00,-975.00
2024-06-07 01:45:55.883461,0,0,15,-2,0,0,80,83,134,100,51,123.91,269,16.00,8.00,-996.00
2024-06-07 01:45:55.929913,0,0,15,-2,0,0,80,83,134,100,51,123.95,269,11.00,20.00,-1028.00
2024-06-07 01:45:56.110984,-3,-1,15,-2,0,0,80,83,133,100,51,123.90,269,2.00,11.00,-1013.00
2024-06-07 01:45:56.133744,-3,-1,15,-1,0,0,80,83,134,100,51,123.91,269,7.00,13.00,-1012.00
2024-06-07 01:45:56.306078,-1,0,15,0,0,0,80,82,133,100,51,123.90,269,-2.00,22.00,-1027.00
2024-06-07 01:45:56.416173,0,0,15,0,0,0,80,82,133,100,51,123.91,269,-11.00,23.00,-1010.00
2024-06-07 01:45:56.439711,0,0,15,0,0,0,80,82,134,100,51,123.90,269,22.00,-1.00,-1017.00
2024-06-07 01:45:56.590828,0,0,15,0,0,0,80,82,134,100,51,123.90,270,-13.00,4.00,-959.00
2024-06-07 01:45:56.643813,0,0,15,0,0,0,80,82,134,100,51,123.90,270,27.00,21.00,-1031.00
2024-06-07 01:45:56.764742,0,0,15,0,0,0,80,82,135,100,51,123.89,270,-7.00,19.00,-1001.00
2024-06-07 01:45:56.847755,0,0,15,0,0,0,80,82,134,100,51,123.88,270,-10.00,12.00,-1001.00
2024-06-07 01:45:56.949786,0,0,15,0,0,0,80,82,134,100,51,123.93,270,-2.00,13.00,-973.00
2024-06-07 01:45:57.098498,0,0,15,0,0,0,80,82,134,100,51,123.96,270,-2.00,11.00,-1000.00
2024-06-07 01:45:57.155706,0,0,15,0,0,0,80,82,134,100,51,123.95,270,10.00,0.00,-995.00
2024-06-07 01:45:57.278443,0,0,15,0,0,0,80,82,134,100,51,123.94,270,0.00,6.00,-997.00
2024-06-07 01:45:57.357744,0,0,15,0,0,0,80,82,134,100,51,123.97,270,10.00,5.00,-979.00
2024-06-07 01:45:57.532773,0,0,15,0,0,0,80,82,134,100,51,123.95,270,-4.00,-4.00,-957.00
2024-06-07 01:45:57.677625,0,0,15,0,0,0,80,82,134,100,51,123.91,271,-7.00,21.00,-994.00
2024-06-07 01:45:57.677971,0,0,15,0,0,0,80,82,134,100,51,123.97,271,-17.00,19.00,-1000.00
2024-06-07 01:45:57.839910,0,0,15,0,0,0,80,82,134,100,51,123.92,271,-9.00,11.00,-995.00
2024-06-07 01:45:57.997230,0,0,15,0,0,0,80,82,134,100,51,123.95,271,38.00,21.00,-1036.00
2024-06-07 01:45:57.997435,0,0,15,0,0,0,80,82,134,100,51,123.88,271,-6.00,19.00,-1018.00
2024-06-07 01:45:58.071761,0,0,15,0,0,0,80,82,134,100,51,123.96,271,-2.00,14.00,-995.00
2024-06-07 01:45:58.123684,0,0,15,0,0,0,80,82,134,100,51,123.95,271,-4.00,18.00,-979.00
2024-06-07 01:45:58.276704,0,0,15,0,0,0,81,83,135,100,51,123.97,271,-34.00,17.00,-1001.00
2024-06-07 01:45:58.327366,0,0,15,0,0,0,81,83,135,100,50,124.01,271,6.00,45.00,-986.00
2024-06-07 01:45:58.444049,0,-7,15,0,0,0,81,83,138,100,50,123.94,271,-16.00,10.00,-1036.00
2024-06-07 01:45:58.531375,0,-8,15,0,-1,0,81,83,136,100,50,123.95,272,-9.00,30.00,-1003.00
2024-06-07 01:45:58.648057,0,-7,15,0,-2,0,81,83,136,100,50,123.95,272,-13.00,34.00,-1044.00
2024-06-07 01:45:58.735410,0,-5,15,1,-3,0,81,83,136,100,50,123.98,272,0.00,34.00,-1016.00
2024-06-07 01:45:58.837512,0,-1,15,1,-4,0,81,83,136,100,50,124.00,272,-3.00,35.00,-989.00
2024-06-07 01:45:58.958077,0,0,15,0,-3,0,81,83,135,100,50,123.87,272,-8.00,39.00,-979.00
2024-06-07 01:45:59.041527,0,0,15,0,-3,0,81,83,137,100,50,123.96,272,0.00,25.00,-1022.00
2024-06-07 01:45:59.160014,0,0,15,0,-2,0,81,83,137,100,50,123.93,272,-12.00,26.00,-966.00
2024-06-07 01:45:59.245396,0,0,15,0,-2,0,80,82,138,100,50,123.96,272,4.00,15.00,-971.00
2024-06-07 01:45:59.347365,0,-1,15,0,-2,0,80,82,138,100,50,123.95,272,-18.00,35.00,-979.00
2024-06-07 01:45:59.467212,0,-1,15,0,-2,0,80,82,139,100,50,123.98,272,4.00,30.00,-993.00
2024-06-07 01:45:59.551382,1,-1,15,0,-2,0,80,82,139,100,50,123.97,273,4.00,6.00,-983.00
2024-06-07 01:45:59.675916,0,-1,15,0,-2,0,80,82,139,100,50,124.00,273,-15.00,37.00,-996.00
2024-06-07 01:45:59.755341,0,-1,15,0,-2,0,80,82,139,100,50,124.00,273,8.00,31.00,-994.00
2024-06-07 01:45:59.876732,0,-1,15,0,-2,0,80,82,138,100,50,124.03,273,14.00,23.00,-1006.00
2024-06-07 01:45:59.960977,0,-1,15,0,-2,0,80,82,138,100,50,123.94,273,4.00,24.00,-997.00
2024-06-07 01:46:00.061662,0,0,15,0,-2,0,80,82,137,100,50,123.93,273,7.00,14.00,-968.00
2024-06-07 01:46:00.163350,0,3,15,0,-2,0,80,82,136,100,50,123.95,273,-9.00,23.00,-982.00
2024-06-07 01:46:00.286475,-1,3,15,0,-1,0,80,83,136,100,50,123.90,273,-6.00,25.00,-1029.00
2024-06-07 01:46:00.367584,0,1,15,0,0,0,80,83,136,100,50,123.91,273,9.00,0.00,-966.00
2024-06-07 01:46:00.491214,0,0,15,0,0,0,80,83,136,100,50,123.95,273,-5.00,17.00,-1015.00
2024-06-07 01:46:00.571458,0,0,15,0,0,0,80,83,137,100,50,123.90,274,0.00,15.00,-1036.00
2024-06-07 01:46:00.696225,0,0,15,0,0,0,80,83,137,100,50,123.93,274,13.00,4.00,-996.00
2024-06-07 01:46:00.775614,0,0,15,0,0,0,80,83,137,100,50,123.94,274,-5.00,13.00,-1020.00
2024-06-07 01:46:00.901004,0,0,15,0,0,0,80,83,137,100,50,123.90,274,-7.00,21.00,-980.00
2024-06-07 01:46:00.979454,0,0,15,0,0,0,80,83,138,100,50,123.94,274,-4.00,-1.00,-963.00
2024-06-07 01:46:01.106086,0,0,15,0,0,0,80,83,138,100,50,123.93,274,-12.00,19.00,-967.00
2024-06-07 01:46:01.184025,0,0,15,0,0,0,80,83,137,100,50,123.96,274,3.00,7.00,-1000.00
2024-06-07 01:46:01.310455,0,0,15,0,0,0,80,83,137,100,50,123.90,274,20.00,-4.00,-993.00
2024-06-07 01:46:01.387404,0,0,15,0,0,0,80,83,136,100,50,123.94,274,5.00,4.00,-991.00
2024-06-07 01:46:01.515323,0,0,15,0,0,0,80,83,137,100,50,123.92,274,1.00,15.00,-1036.00
2024-06-07 01:46:01.591374,0,0,15,0,0,0,80,83,137,100,50,123.97,275,1.00,1.00,-963.00
2024-06-07 01:46:01.693408,0,0,15,0,0,0,80,83,137,100,50,123.96,275,8.00,7.00,-1008.00
2024-06-07 01:46:01.822453,0,0,15,0,0,0,80,83,136,100,50,123.91,275,-8.00,13.00,-1017.00
2024-06-07 01:46:01.897345,0,0,15,0,0,0,80,83,137,100,50,123.90,275,0.00,1.00,-933.00
2024-06-07 01:46:02.029117,0,0,15,0,0,0,80,83,136,100,50,123.93,275,7.00,3.00,-1011.00
2024-06-07 01:46:02.050532,0,0,15,0,0,0,80,83,136,100,50,123.88,275,11.00,10.00,-989.00
2024-06-07 01:46:02.157029,0,0,15,0,0,0,80,83,136,100,50,123.94,275,-7.00,16.00,-1017.00
2024-06-07 01:46:02.305183,0,0,15,0,0,0,80,82,136,100,50,123.93,275,-12.00,18.00,-1012.00
2024-06-07 01:46:02.438701,0,0,15,0,0,0,80,82,136,100,50,123.88,275,-1.00,8.00,-952.00
2024-06-07 01:46:02.509131,0,6,15,0,0,0,80,82,136,100,50,123.92,276,-2.00,14.00,-1045.00
2024-06-07 01:46:02.560301,0,8,15,0,1,0,80,82,137,100,50,123.94,276,-13.00,29.00,-1011.00
2024-06-07 01:46:02.755779,0,5,15,0,2,0,80,82,136,100,50,123.90,276,12.00,12.00,-1054.00
2024-06-07 01:46:02.764137,0,2,15,-1,3,0,80,82,134,100,50,123.92,276,3.00,-8.00,-996.00
2024-06-07 01:46:02.948688,0,0,15,-1,4,0,80,82,134,100,50,123.90,276,7.00,-3.00,-975.00
2024-06-07 01:46:02.969412,0,-2,15,0,3,0,80,82,133,100,50,123.92,276,6.00,-1.00,-1095.00
2024-06-07 01:46:03.153962,0,-1,15,0,3,0,80,82,133,100,50,123.89,276,-23.00,3.00,-992.00
2024-06-07 01:46:03.172912,0,-1,15,0,2,0,80,82,132,100,50,123.92,276,9.00,-8.00,-1022.00
2024-06-07 01:46:03.358276,0,0,15,0,2,0,81,82,132,100,50,123.88,276,8.00,0.00,-1017.00
2024-06-07 01:46:03.377035,0,0,15,0,2,0,81,82,132,100,49,123.94,276,18.00,7.00,-1044.00
2024-06-07 01:46:03.563079,1,0,15,0,2,0,81,82,132,100,49,123.93,277,-7.00,4.00,-991.00
2024-06-07 01:46:03.581423,1,0,15,0,2,0,81,82,131,100,49,123.89,277,5.00,16.00,-1043.00
2024-06-07 01:46:03.683039,1,0,15,0,2,0,81,82,131,100,49,123.84,277,-15.00,5.00,-982.00
2024-06-07 01:46:03.870253,0,0,15,-1,2,0,81,82,131,100,49,123.86,277,4.00,-2.00,-1001.00
2024-06-07 01:46:03.887630,-1,0,15,-1,2,0,81,82,131,100,49,123.87,277,-7.00,9.00,-1030.00
2024-06-07 01:46:04.075081,-1,0,15,0,2,0,81,82,130,100,49,123.87,277,6.00,12.00,-1032.00
2024-06-07 01:46:04.091251,0,0,15,0,2,0,81,82,130,100,49,123.89,277,3.00,0.00,-1001.00
2024-06-07 01:46:04.279850,1,-5,15,0,2,0,81,82,131,100,49,123.89,277,5.00,5.00,-1008.00
2024-06-07 01:46:04.294888,1,-4,15,0,1,0,80,82,131,100,49,123.90,277,-3.00,0.00,-1014.00
2024-06-07 01:46:04.397053,0,-2,15,0,0,0,80,82,130,100,49,123.94,277,18.00,20.00,-1019.00
2024-06-07 01:46:04.587201,0,-1,15,0,0,0,80,82,130,100,49,123.92,278,-8.00,13.00,-1016.00
2024-06-07 01:46:04.601135,0,-1,15,0,0,0,80,82,130,100,49,123.92,278,-1.00,20.00,-998.00
2024-06-07 01:46:04.791931,0,0,15,0,0,0,80,82,130,100,49,123.95,278,4.00,20.00,-1014.00
2024-06-07 01:46:04.804989,0,0,15,0,0,0,80,82,130,100,49,123.89,278,-15.00,22.00,-996.00
2024-06-07 01:46:04.999333,0,0,15,0,0,0,80,82,130,100,49,123.93,278,4.00,4.00,-1001.00
2024-06-07 01:46:05.008936,0,0,15,0,0,0,80,82,130,100,49,123.93,278,9.00,3.00,-995.00
2024-06-07 01:46:05.110944,0,0,15,0,0,0,80,82,130,100,49,123.96,278,8.00,10.00,-998.00
2024-06-07 01:46:05.303975,0,0,15,0,0,0,80,82,130,100,49,123.94,278,8.00,16.00,-999.00
2024-06-07 01:46:05.314879,0,0,15,0,0,0,79,82,130,100,49,123.96,278,18.00,10.00,-1008.00
2024-06-07 01:46:05.520057,0,0,15,0,0,0,79,82,130,100,49,123.91,278,-2.00,15.00,-983.00
2024-06-07 01:46:05.520300,0,0,15,0,0,0,79,82,130,100,49,123.87,279,8.00,10.00,-999.00
2024-06-07 01:46:05.715410,0,0,15,0,0,0,79,82,130,100,49,123.89,279,4.00,19.00,-1004.00
2024-06-07 01:46:05.724011,0,0,15,0,0,0,79,82,130,100,49,123.86,279,10.00,14.00,-1021.00
2024-06-07 01:46:05.826049,0,0,15,0,0,0,79,82,131,100,49,123.92,279,12.00,6.00,-978.00
2024-06-07 01:46:05.876884,0,0,15,0,0,0,79,82,130,100,49,123.92,279,16.00,15.00,-979.00
2024-06-07 01:46:05.978991,0,0,15,0,0,0,79,82,130,100,49,124.02,279,-1.00,20.00,-1012.00
2024-06-07 01:46:06.123574,0,0,15,0,0,0,79,82,130,100,49,123.89,279,-20.00,31.00,-990.00
2024-06-07 01:46:06.182888,0,0,15,0,0,0,79,82,130,100,49,123.91,279,-5.00,23.00,-988.00
2024-06-07 01:46:06.327773,0,0,15,0,0,0,80,82,130,100,49,123.94,279,12.00,13.00,-1019.00
2024-06-07 01:46:06.386909,0,-1,15,0,0,0,80,82,130,100,49,124.03,279,-10.00,25.00,-1000.00
2024-06-07 01:46:06.532500,0,0,18,0,0,0,80,82,129,100,49,123.94,280,48.00,-8.00,-1015.00
2024-06-07 01:46:06.590789,0,-1,24,0,0,0,80,82,130,100,49,123.99,280,6.00,9.00,-964.00
2024-06-07 01:46:06.692725,0,-1,30,0,0,0,80,82,129,100,49,123.94,280,17.00,21.00,-1010.00
2024-06-07 01:46:06.839665,0,-1,36,0,0,0,80,82,129,100,49,123.97,280,2.00,28.00,-1018.00
2024-06-07 01:46:06.896680,0,-1,42,0,0,0,80,82,129,100,49,123.91,280,-9.00,23.00,-977.00
2024-06-07 01:46:07.044480,0,-1,48,0,0,0,80,82,129,100,49,123.93,280,-20.00,20.00,-986.00
2024-06-07 01:46:07.100894,0,-1,54,0,0,0,80,82,130,100,49,123.94,280,-18.00,25.00,-1008.00
2024-06-07 01:46:07.249274,0,-1,60,0,0,0,80,82,129,100,49,123.99,280,-8.00,23.00,-1031.00
2024-06-07 01:46:07.304721,0,-1,66,0,0,0,80,83,130,100,49,123.95,280,10.00,2.00,-1005.00
2024-06-07 01:46:07.453971,0,0,72,0,0,0,80,83,130,100,48,123.91,280,6.00,9.00,-1003.00
2024-06-07 01:46:07.508648,0,0,78,0,0,0,80,83,130,100,48,123.87,281,7.00,20.00,-1017.00
2024-06-07 01:46:07.658781,0,0,84,0,0,0,80,83,130,100,48,123.90,281,25.00,13.00,-1021.00
2024-06-07 01:46:07.712663,0,0,90,0,0,0,80,83,130,100,48,123.83,281,17.00,21.00,-1019.00
2024-06-07 01:46:07.814790,0,0,96,0,0,0,80,83,130,100,48,123.84,281,22.00,9.00,-1011.00
2024-06-07 01:46:07.917525,0,0,102,0,0,0,80,83,130,100,48,123.87,281,30.00,7.00,-1007.00
2024-06-07 01:46:08.018888,0,0,108,0,0,0,80,83,129,100,48,123.91,281,17.00,6.00,-981.00
2024-06-07 01:46:08.122339,0,0,114,0,0,0,80,83,129,100,48,123.95,281,24.00,2.00,-998.00
2024-06-07 01:46:08.224279,0,0,120,0,0,0,80,83,129,100,48,123.91,281,17.00,-2.00,-1001.00
2024-06-07 01:46:08.327059,0,0,126,0,0,0,81,82,128,100,48,123.82,281,-4.00,9.00,-1027.00
2024-06-07 01:46:08.426737,0,0,132,0,0,0,81,82,128,100,48,123.85,281,7.00,12.00,-1017.00
2024-06-07 01:46:08.580397,0,0,138,0,0,0,81,82,128,100,48,123.90,282,-14.00,10.00,-1039.00
2024-06-07 01:46:08.630546,0,0,144,0,0,0,81,82,127,100,48,123.86,282,11.00,-11.00,-986.00
2024-06-07 01:46:08.785201,0,0,150,0,0,0,81,82,127,100,48,123.90,282,-1.00,13.00,-1026.00
2024-06-07 01:46:08.834541,0,0,156,0,0,0,81,82,127,100,48,123.88,282,0.00,-10.00,-993.00
2024-06-07 01:46:08.989946,0,0,162,0,0,0,81,82,128,100,48,123.89,282,-3.00,4.00,-1013.00
2024-06-07 01:46:09.038558,0,0,168,0,0,0,81,82,128,100,48,123.86,282,4.00,5.00,-1008.00
2024-06-07 01:46:09.140477,0,0,174,0,0,0,81,82,128,100,48,123.86,282,-16.00,8.00,-1040.00
2024-06-07 01:46:09.297132,0,0,-179,0,0,0,81,82,129,100,48,123.86,282,0.00,-4.00,-985.00
2024-06-07 01:46:09.344634,0,0,-173,0,0,0,80,83,129,100,48,123.91,282,-15.00,5.00,-973.00
2024-06-07 01:46:09.505631,0,0,-167,0,0,0,80,83,130,100,48,123.92,282,15.00,5.00,-1000.00
2024-06-07 01:46:09.548452,0,0,-161,0,0,0,80,83,130,100,48,123.91,283,9.00,-9.00,-961.00
2024-06-07 01:46:09.707816,0,0,-155,0,0,0,80,83,130,100,48,123.90,283,-7.00,13.00,-1026.00
2024-06-07 01:46:09.752575,0,0,-149,0,0,0,80,83,129,100,48,123.86,283,-17.00,10.00,-975.00
2024-06-07 01:46:09.803583,0,0,-143,0,0,0,80,83,130,100,48,123.89,283,-9.00,12.00,-1029.00
2024-06-07 01:46:09.911532,0,0,-137,0,0,0,80,83,129,100,48,123.95,283,9.00,-17.00,-982.00
2024-06-07 01:46:10.007746,0,0,-131,0,0,0,80,83,130,100,48,123.84,283,-18.00,25.00,-1011.00
2024-06-07 01:46:10.116593,0,0,-125,0,0,0,80,83,129,100,48,123.89,283,16.00,0.00,-990.00
2024-06-07 01:46:10.211940,0,0,-119,0,0,0,80,83,129,100,48,123.84,283,-35.00,24.00,-992.00
2024-06-07 01:46:10.321110,0,0,-114,0,0,0,80,82,130,100,48,123.86,283,-26.00,23.00,-1045.00
2024-06-07 01:46:10.415654,-1,0,-108,0,0,0,80,82,129,100,48,123.81,283,-22.00,21.00,-985.00
2024-06-07 01:46:10.525948,-1,0,-102,0,0,0,80,82,130,100,48,123.87,284,-1.00,15.00,-1008.00
2024-06-07 01:46:10.619634,-1,0,-96,0,0,0,80,82,131,100,48,123.89,284,-14.00,8.00,-994.00
2024-06-07 01:46:10.730696,-1,0,-90,0,0,0,80,82,131,100,48,123.85,284,-9.00,21.00,-991.00
2024-06-07 01:46:10.823725,0,0,-85,0,0,0,80,82,131,100,48,123.91,284,-9.00,26.00,-1017.00
2024-06-07 01:46:10.935522,0,0,-79,0,0,0,80,82,131,100,48,123.92,284,-8.00,16.00,-986.00
2024-06-07 01:46:11.110075,0,0,-73,0,0,0,80,82,131,100,48,123.92,284,-28.00,23.00,-965.00
2024-06-07 01:46:11.132291,0,0,-67,0,0,0,80,82,132,100,48,123.92,284,-11.00,24.00,-970.00
2024-06-07 01:46:11.231725,0,0,-61,0,0,0,80,82,132,100,48,123.95,284,8.00,14.00,-969.00
2024-06-07 01:46:11.550198,0,0,-55,0,0,0,79,83,131,100,48,123.93,284,-5.00,30.00,-1017.00
2024-06-07 01:46:11.652223,0,0,-49,0,0,0,79,83,130,100,48,123.90,284,5.00,23.00,-1020.00
2024-06-07 01:46:11.652303,0,0,-43,0,0,0,79,83,130,100,48,123.96,285,24.00,16.00,-978.00
2024-06-07 01:46:11.654831,0,0,-37,0,0,0,79,83,130,100,48,123.83,285,-3.00,22.00,-1014.00
2024-06-07 01:46:11.808050,0,0,-32,0,0,0,79,83,130,100,48,123.86,285,2.00,14.00,-1024.00
2024-06-07 01:46:11.843480,-1,0,-26,0,0,0,79,83,129,100,48,123.90,285,-14.00,14.00,-1003.00
2024-06-07 01:46:11.981138,-1,0,-20,0,0,0,79,83,130,100,48,123.88,285,-18.00,22.00,-1020.00
2024-06-07 01:46:12.047530,-1,0,-14,0,0,0,79,83,130,100,48,123.87,285,-15.00,20.00,-1039.00
2024-06-07 01:46:12.149470,-1,0,-8,0,0,0,79,83,131,100,48,123.88,285,18.00,29.00,-1031.00
2024-06-07 01:46:12.326536,0,-1,-2,0,0,0,79,83,132,100,48,123.92,285,-11.00,41.00,-1011.00
2024-06-07 01:46:12.353557,0,0,1,0,0,0,80,82,133,100,47,123.90,285,3.00,30.00,-998.00
2024-06-07 01:46:12.471785,0,0,4,0,0,0,80,82,134,100,47,123.90,285,19.00,9.00,-1014.00
2024-06-07 01:46:12.584778,0,0,7,0,0,0,80,82,135,100,47,123.97,286,-5.00,27.00,-984.00
2024-06-07 01:46:12.728569,0,0,9,0,0,0,80,82,136,100,47,123.96,286,19.00,10.00,-978.00
2024-06-07 01:46:12.761580,0,0,10,0,0,0,80,82,136,100,47,123.96,286,8.00,16.00,-981.00
2024-06-07 01:46:12.891879,0,0,11,0,0,0,80,82,136,100,47,123.91,286,2.00,28.00,-984.00
2024-06-07 01:46:13.037085,0,0,12,0,0,0,80,82,136,100,47,123.96,286,27.00,17.00,-1010.00
2024-06-07 01:46:13.087825,0,0,13,0,0,0,80,82,136,100,47,123.92,286,17.00,9.00,-969.00
2024-06-07 01:46:13.199545,0,0,13,0,0,0,80,82,136,100,47,123.94,286,-13.00,15.00,-943.00
2024-06-07 01:46:13.355522,0,0,13,0,0,0,80,82,136,100,47,123.91,286,12.00,14.00,-1052.00
2024-06-07 01:46:13.373750,0,0,13,0,0,0,80,82,135,100,47,123.94,286,-5.00,26.00,-1000.00
2024-06-07 01:46:13.496354,0,0,13,0,0,0,80,82,135,100,47,123.93,286,2.00,14.00,-987.00
2024-06-07 01:46:13.577460,0,0,13,0,0,0,80,82,135,100,47,123.92,287,11.00,13.00,-1033.00
2024-06-07 01:46:13.679527,0,0,13,0,0,0,80,82,135,100,47,123.88,287,-7.00,15.00,-952.00
2024-06-07 01:46:13.802685,0,0,13,0,0,0,80,82,134,100,47,123.89,287,26.00,7.00,-1000.00
2024-06-07 01:46:13.883369,0,0,13,0,0,0,80,82,134,100,47,123.92,287,10.00,19.00,-1026.00
2024-06-07 01:46:14.008930,0,0,13,0,0,0,80,82,134,100,47,123.95,287,-5.00,13.00,-994.00
2024-06-07 01:46:14.036173,0,0,13,0,0,0,80,82,134,100,47,123.93,287,-6.00,1.00,-944.00
2024-06-07 01:46:14.148987,0,0,13,0,0,0,80,82,135,100,47,124.03,287,3.00,20.00,-1013.00
2024-06-07 01:46:14.240241,0,0,13,0,0,0,80,82,135,100,47,123.98,287,-1.00,10.00,-993.00
2024-06-07 01:46:14.418728,0,0,13,0,0,0,79,82,134,100,47,123.96,287,11.00,16.00,-1007.00
2024-06-07 01:46:14.444213,0,0,13,0,0,0,79,82,134,100,47,123.95,287,11.00,21.00,-1023.00
2024-06-07 01:46:14.570589,0,0,13,0,0,0,79,82,133,100,47,123.94,288,0.00,22.00,-1001.00
2024-06-07 01:46:14.648240,0,0,13,0,0,0,79,82,133,100,47,123.97,288,-2.00,9.00,-976.00
2024-06-07 01:46:14.750924,0,0,13,0,0,0,79,82,132,100,47,123.93,288,6.00,25.00,-1030.00
2024-06-07 01:46:14.852231,0,0,13,0,0,0,79,82,132,100,47,123.97,288,6.00,8.00,-998.00
2024-06-07 01:46:15.031360,0,-1,13,0,0,0,79,82,132,100,47,123.92,288,7.00,19.00,-1017.00
2024-06-07 01:46:15.056974,0,0,13,0,0,0,79,82,131,100,47,123.97,288,-18.00,22.00,-986.00
2024-06-07 01:46:15.158060,0,0,13,0,0,0,79,82,131,100,47,123.96,288,-4.00,17.00,-985.00
2024-06-07 01:46:15.259946,0,0,13,0,0,0,79,82,131,100,47,124.01,288,-5.00,13.00,-1002.00
2024-06-07 01:46:15.440892,0,0,13,0,0,0,80,82,131,100,47,123.90,288,-11.00,17.00,-1012.00
2024-06-07 01:46:15.464670,0,0,8,0,0,0,80,82,131,100,47,123.95,288,-7.00,14.00,-1006.00
2024-06-07 01:46:15.582438,0,0,3,0,0,0,80,82,132,100,47,123.98,289,-13.00,26.00,-1021.00
2024-06-07 01:46:15.668041,0,0,-2,0,0,0,80,82,132,100,47,123.90,289,-13.00,23.00,-1019.00
2024-06-07 01:46:15.858919,0,0,-8,0,0,0,80,82,133,100,47,123.95,289,0.00,22.00,-989.00
2024-06-07 01:46:15.875331,0,0,-14,0,0,0,80,82,132,100,47,124.02,289,-5.00,13.00,-980.00
2024-06-07 01:46:15.975778,0,0,-20,0,0,0,80,82,133,100,47,123.99,289,2.00,11.00,-1021.00
2024-06-07 01:46:16.076990,0,0,-26,0,0,0,80,82,133,100,47,123.99,289,15.00,18.00,-1010.00
2024-06-07 01:46:16.177933,0,0,-32,0,0,0,80,82,133,100,47,123.96,289,0.00,18.00,-1006.00
2024-06-07 01:46:16.362445,0,0,-38,0,0,0,80,82,134,100,47,123.92,289,-13.00,25.00,-1023.00
2024-06-07 01:46:16.381904,0,0,-50,0,0,0,80,82,132,100,47,123.93,289,-12.00,17.00,-977.00
2024-06-07 01:46:16.567354,0,0,-56,0,0,0,80,82,132,100,47,123.97,290,15.00,12.00,-1003.00
2024-06-07 01:46:16.585942,0,0,-62,0,0,0,80,82,132,100,47,123.91,290,1.00,18.00,-994.00
2024-06-07 01:46:16.772500,0,0,-68,0,0,0,80,82,132,100,47,123.93,290,3.00,5.00,-953.00
2024-06-07 01:46:16.789865,0,0,-74,0,0,0,80,82,131,100,47,123.89,290,2.00,5.00,-1009.00
2024-06-07 01:46:16.976852,0,0,-81,0,0,0,80,82,131,100,47,123.90,290,0.00,4.00,-1011.00
2024-06-07 01:46:16.993808,0,0,-87,0,0,0,80,82,129,100,47,123.94,290,-2.00,9.00,-1047.00
2024-06-07 01:46:17.183691,0,0,-93,0,0,0,80,82,129,100,47,123.93,290,-7.00,8.00,-968.00
2024-06-07 01:46:17.197778,0,0,-99,0,0,0,80,82,129,100,47,123.93,290,-5.00,11.00,-982.00
2024-06-07 01:46:17.388356,0,0,-105,0,0,0,80,82,129,100,47,123.90,290,28.00,-6.00,-1006.00
2024-06-07 01:46:17.401813,0,0,-111,0,0,0,80,82,129,100,47,123.96,290,-8.00,11.00,-1024.00
2024-06-07 01:46:17.591685,0,0,-118,0,0,0,80,82,129,100,47,123.85,291,9.00,-2.00,-996.00
2024-06-07 01:46:17.605703,0,0,-124,0,0,0,80,82,129,100,47,123.99,291,9.00,-7.00,-985.00
2024-06-07 01:46:17.707726,0,0,-130,0,0,0,80,82,129,100,47,123.97,291,-1.00,12.00,-1043.00
2024-06-07 01:46:17.898391,0,0,-136,0,0,0,80,82,129,100,47,123.91,291,0.00,-10.00,-970.00
2024-06-07 01:46:17.912067,0,0,-142,0,0,0,80,82,130,100,47,123.97,291,-9.00,13.00,-1043.00
2024-06-07 01:46:17.962933,0,0,-148,0,0,0,80,82,130,100,47,124.02,291,10.00,6.00,-1009.00
2024-06-07 01:46:18.104583,0,0,-154,0,0,0,80,82,131,100,47,123.89,291,-2.00,17.00,-994.00
2024-06-07 01:46:18.166944,0,0,-161,0,0,0,80,82,131,100,47,123.96,291,-4.00,16.00,-1020.00
2024-06-07 01:46:18.309285,0,0,-167,0,0,0,80,82,131,100,47,123.90,291,-16.00,10.00,-976.00
2024-06-07 01:46:18.371225,0,0,-173,0,0,0,80,83,132,100,46,123.96,291,-23.00,21.00,-994.00
2024-06-07 01:46:18.512700,0,0,-179,0,0,0,80,83,132,100,46,123.87,292,-12.00,26.00,-997.00
2024-06-07 01:46:18.575020,0,0,174,0,0,0,80,83,133,100,46,123.94,292,35.00,5.00,-1001.00
2024-06-07 01:46:18.717542,0,0,168,0,0,0,80,83,133,100,46,123.95,292,-8.00,18.00,-1000.00
2024-06-07 01:46:18.778959,0,0,163,0,0,0,80,83,133,100,46,123.96,292,3.00,13.00,-983.00
2024-06-07 01:46:18.881042,0,0,157,0,0,0,80,83,133,100,46,123.93,292,-1.00,18.00,-992.00
2024-06-07 01:46:18.982928,0,0,151,0,0,0,80,83,132,100,46,123.92,292,3.00,3.00,-985.00
2024-06-07 01:46:19.084974,0,0,145,0,0,0,80,83,132,100,46,123.95,292,4.00,25.00,-983.00
2024-06-07 01:46:19.186998,0,0,139,0,0,0,80,83,131,100,46,123.92,292,-15.00,30.00,-983.00
2024-06-07 01:46:19.333538,0,0,132,0,0,0,80,83,131,100,46,123.95,292,-6.00,25.00,-992.00
2024-06-07 01:46:19.390996,0,0,126,0,0,0,80,82,130,100,46,123.88,292,-3.00,24.00,-1014.00
2024-06-07 01:46:19.536755,0,0,120,0,0,0,80,82,129,100,46,123.92,293,0.00,9.00,-1025.00
2024-06-07 01:46:19.594832,0,0,114,0,0,0,80,82,129,100,46,123.95,293,21.00,-3.00,-1013.00
2024-06-07 01:46:19.697047,0,0,108,0,0,0,80,82,128,100,46,123.87,293,-1.00,10.00,-997.00
2024-06-07 01:46:19.844180,0,0,102,0,0,0,80,82,127,100,46,123.93,293,8.00,13.00,-995.00
2024-06-07 01:46:19.900799,0,0,96,0,0,0,80,82,128,100,46,123.95,293,-14.00,27.00,-1059.00
2024-06-07 01:46:20.051220,0,0,90,0,0,0,80,82,128,100,46,123.94,293,-3.00,16.00,-1010.00
2024-06-07 01:46:20.104861,0,0,84,0,0,0,80,82,128,100,46,123.87,293,-1.00,19.00,-993.00
2024-06-07 01:46:20.256016,0,0,77,0,0,0,80,82,129,100,46,123.91,293,12.00,17.00,-992.00
2024-06-07 01:46:20.309556,0,0,71,0,0,0,80,82,128,100,46,123.92,293,-9.00,10.00,-986.00
2024-06-07 01:46:20.411554,0,0,65,0,0,0,80,82,128,100,46,123.89,293,-5.00,26.00,-1023.00
2024-06-07 01:46:20.562624,0,0,59,0,0,0,80,82,128,100,46,123.86,294,-15.00,19.00,-963.00
2024-06-07 01:46:20.615549,0,0,53,0,0,0,80,82,127,100,46,123.90,294,19.00,9.00,-951.00
2024-06-07 01:46:20.767582,0,0,47,0,0,0,80,82,127,100,46,123.85,294,8.00,6.00,-967.00
2024-06-07 01:46:20.819494,0,0,40,0,0,0,80,82,126,100,46,123.81,294,-8.00,26.00,-1015.00
2024-06-07 01:46:20.984162,0,0,34,0,0,0,80,82,125,100,46,123.87,294,-2.00,14.00,-950.00
2024-06-07 01:46:21.024047,0,0,29,0,0,0,80,82,125,100,46,123.80,294,-10.00,13.00,-1020.00
2024-06-07 01:46:21.127128,0,0,25,0,0,0,80,82,124,100,46,123.82,294,12.00,12.00,-983.00
2024-06-07 01:46:21.228727,0,0,22,0,0,0,80,82,123,100,46,123.81,294,-7.00,2.00,-993.00
2024-06-07 01:46:21.333360,0,0,20,0,0,0,80,82,124,90,46,123.90,294,-15.00,12.00,-1027.00
2024-06-07 01:46:21.433407,0,0,18,0,0,0,80,82,124,90,46,123.84,294,5.00,9.00,-983.00
2024-06-07 01:46:21.533512,0,0,17,0,0,0,80,82,124,90,46,123.82,295,-3.00,24.00,-1123.00
2024-06-07 01:46:21.635473,0,0,16,0,0,0,80,82,126,100,46,123.88,295,-1.00,16.00,-1033.00
2024-06-07 01:46:21.789483,0,0,15,0,0,0,80,82,126,100,46,123.86,295,-1.00,20.00,-1036.00
2024-06-07 01:46:21.789817,0,0,15,0,0,0,80,82,127,100,46,123.86,295,7.00,9.00,-965.00
2024-06-07 01:46:21.893312,0,0,15,0,0,0,80,82,128,100,46,123.88,295,-6.00,14.00,-1037.00
2024-06-07 01:46:21.994739,0,0,15,0,0,0,80,82,129,100,46,123.92,295,15.00,3.00,-1004.00
2024-06-07 01:46:22.096420,0,0,15,0,0,0,80,82,129,100,46,123.94,295,16.00,5.00,-1004.00
2024-06-07 01:46:22.197330,0,0,15,0,0,0,80,82,130,100,46,123.92,295,-3.00,14.00,-1042.00
2024-06-07 01:46:22.298763,0,0,15,0,0,0,80,82,131,100,46,123.90,295,-14.00,13.00,-970.00
2024-06-07 01:46:22.400686,0,0,15,0,0,0,80,82,131,100,45,123.94,295,-14.00,10.00,-974.00
2024-06-07 01:46:22.502814,0,0,15,0,0,0,80,82,132,100,45,123.94,296,12.00,20.00,-1041.00
2024-06-07 01:46:22.605065,0,0,15,0,0,0,80,82,133,100,45,124.02,296,-21.00,16.00,-1005.00
2024-06-07 01:46:22.711170,0,0,15,0,0,0,80,82,132,100,45,123.94,296,-6.00,10.00,-991.00
2024-06-07 01:46:22.808918,0,0,15,0,0,0,80,82,133,100,45,123.99,296,-12.00,20.00,-1002.00
2024-06-07 01:46:22.916415,0,0,15,0,0,0,80,82,134,100,45,123.99,296,32.00,3.00,-994.00
2024-06-07 01:46:23.012792,0,0,15,0,0,0,80,82,134,100,45,123.91,296,14.00,14.00,-1001.00
2024-06-07 01:46:23.120710,0,0,15,0,0,0,80,82,135,100,45,123.94,296,-3.00,9.00,-992.00
2024-06-07 01:46:23.216749,0,0,15,0,0,0,80,82,135,100,45,124.00,296,-20.00,11.00,-991.00
2024-06-07 01:46:23.326465,0,0,15,0,0,0,80,82,136,100,45,123.93,296,-12.00,14.00,-958.00
2024-06-07 01:46:23.420799,0,0,15,0,0,0,79,83,136,100,45,124.06,296,0.00,16.00,-1015.00
2024-06-07 01:46:23.531157,0,0,15,0,0,0,79,83,136,100,45,123.99,297,7.00,11.00,-1017.00
2024-06-07 01:46:23.624717,0,0,15,0,0,0,79,83,136,100,45,124.01,297,4.00,1.00,-920.00
2024-06-07 01:46:23.739189,0,0,15,0,0,0,79,83,136,100,45,124.05,297,10.00,3.00,-988.00
2024-06-07 01:46:23.831685,0,0,15,0,0,0,79,83,137,100,45,124.07,297,-27.00,10.00,-1040.00
2024-06-07 01:46:23.930835,0,0,15,0,0,0,79,83,136,100,45,124.08,297,-2.00,9.00,-983.00
2024-06-07 01:46:24.047401,0,0,15,0,0,0,79,83,137,100,45,124.08,297,-6.00,9.00,-948.00
2024-06-07 01:46:24.135182,0,0,15,0,0,0,79,83,136,100,45,123.97,297,-11.00,25.00,-1037.00
2024-06-07 01:46:24.236545,0,0,15,0,0,0,79,83,136,100,45,124.05,297,-9.00,14.00,-1024.00
2024-06-07 01:46:24.339143,0,0,15,0,0,0,79,83,136,100,45,124.06,297,-4.00,4.00,-982.00
2024-06-07 01:46:24.454042,0,0,15,0,0,0,80,83,136,100,45,124.06,297,-3.00,7.00,-970.00
2024-06-07 01:46:24.542426,0,0,15,0,0,0,80,83,137,100,45,124.02,298,-17.00,12.00,-986.00
2024-06-07 01:46:24.645041,0,0,15,0,0,0,80,83,137,100,45,124.07,298,3.00,16.00,-1040.00
2024-06-07 01:46:24.759112,0,0,15,0,0,0,80,83,137,100,45,124.07,298,7.00,10.00,-998.00
2024-06-07 01:46:24.848495,0,0,15,0,0,0,80,83,138,100,45,124.06,298,-2.00,6.00,-966.00
2024-06-07 01:46:24.964915,0,0,15,0,0,0,80,83,137,100,45,124.14,298,-11.00,10.00,-1008.00
2024-06-07 01:46:25.054826,0,0,15,0,0,0,80,83,137,100,45,124.06,298,-8.00,11.00,-1078.00
2024-06-07 01:46:25.154529,0,0,15,0,0,0,80,83,137,100,45,124.08,298,5.00,4.00,-991.00
2024-06-07 01:46:25.271772,0,0,15,0,0,0,80,83,137,100,45,124.03,298,-20.00,2.00,-985.00
2024-06-07 01:46:25.307344,0,0,15,0,0,0,80,83,137,100,45,124.04,298,-12.00,9.00,-999.00
2024-06-07 01:46:25.479179,0,0,15,0,0,0,80,82,137,100,45,123.98,298,-8.00,7.00,-1032.00
2024-06-07 01:46:25.562392,0,0,15,0,0,0,80,82,136,100,45,123.96,299,-21.00,2.00,-1005.00
2024-06-07 01:46:25.664401,0,0,15,0,0,0,80,82,137,100,45,124.00,299,4.00,5.00,-1003.00
2024-06-07 01:46:25.767343,0,0,15,0,0,0,80,82,136,100,45,124.04,299,13.00,17.00,-1015.00
2024-06-07 01:46:25.868494,0,0,15,0,0,0,80,82,136,100,45,124.05,299,-5.00,10.00,-1023.00
2024-06-07 01:46:25.987788,0,0,15,0,0,0,80,82,136,100,45,124.01,299,-16.00,7.00,-1038.00
2024-06-07 01:46:26.257936,0,0,15,0,0,0,80,82,136,100,45,124.04,299,-1.00,14.00,-1038.00
2024-06-07 01:46:26.258463,0,0,15,0,0,0,80,82,135,100,45,124.04,299,-20.00,24.00,-1084.00
2024-06-07 01:46:26.258914,0,0,15,0,0,0,80,82,136,100,45,124.00,299,5.00,5.00,-978.00
2024-06-07 01:46:26.376137,0,0,15,0,0,0,80,82,135,100,45,124.06,299,1.00,-5.00,-961.00
2024-06-07 01:46:26.444216,0,0,15,0,0,0,80,83,135,100,45,123.97,299,-1.00,13.00,-1037.00
2024-06-07 01:46:26.553957,0,0,15,0,0,0,80,83,135,100,45,124.02,300,-16.00,6.00,-1048.00
2024-06-07 01:46:26.633398,0,0,15,0,0,0,80,83,135,100,45,123.99,300,5.00,7.00,-982.00
2024-06-07 01:46:26.807007,0,0,15,0,0,0,80,83,135,100,45,124.03,300,-19.00,12.00,-1115.00
2024-06-07 01:46:26.881167,0,0,15,0,0,0,80,83,134,100,45,124.04,300,11.00,7.00,-1015.00
2024-06-07 01:46:26.990485,0,0,15,0,0,0,80,83,134,100,45,124.14,300,-12.00,8.00,-1041.00
2024-06-07 01:46:27.043717,0,0,15,0,0,0,80,83,134,100,45,123.98,300,30.00,11.00,-1014.00
2024-06-07 01:46:27.187236,0,0,15,0,0,0,80,83,133,100,45,124.04,300,14.00,-7.00,-982.00
2024-06-07 01:46:27.330539,0,0,15,0,0,0,80,83,133,100,45,124.03,300,0.00,6.00,-974.00
2024-06-07 01:46:27.350312,0,0,15,0,0,0,80,83,133,100,45,123.98,300,8.00,5.00,-1012.00
2024-06-07 01:46:27.475095,0,0,15,0,0,0,80,83,132,100,45,123.96,300,8.00,4.00,-1016.00
2024-06-07 01:46:27.636876,0,0,15,0,0,0,80,83,131,100,45,124.02,301,-15.00,14.00,-1073.00
2024-06-07 01:46:27.653226,0,0,15,0,0,0,80,83,131,100,45,124.10,301,5.00,7.00,-1009.00
2024-06-07 01:46:27.782143,0,0,15,0,0,0,80,83,132,100,45,123.93,301,18.00,12.00,-1027.00
2024-06-07 01:46:27.944452,0,0,15,0,0,0,80,83,131,100,45,124.00,301,-3.00,10.00,-1067.00
2024-06-07 01:46:27.960895,0,0,15,0,0,0,80,83,131,100,45,123.98,301,5.00,11.00,-1023.00
2024-06-07 01:46:28.088066,0,0,15,0,0,0,80,83,131,100,45,123.97,301,23.00,8.00,-974.00
2024-06-07 01:46:28.251479,0,0,15,0,0,0,80,83,131,100,45,124.01,301,17.00,0.00,-1007.00
2024-06-07 01:46:28.264989,0,0,15,0,0,0,80,83,131,100,45,124.05,301,-4.00,7.00,-974.00
2024-06-07 01:46:28.408010,0,0,15,0,0,0,80,83,132,100,44,124.01,301,2.00,1.00,-963.00
2024-06-07 01:46:28.477270,0,0,15,0,0,0,80,81,131,100,44,124.02,301,28.00,11.00,-1009.00
2024-06-07 01:46:28.571377,0,0,15,0,0,0,80,81,132,100,44,123.98,302,-3.00,2.00,-975.00
2024-06-07 01:46:28.752870,0,0,15,0,0,0,80,81,131,100,44,124.02,302,-2.00,18.00,-1014.00
2024-06-07 01:46:28.774921,0,0,15,0,0,0,80,81,132,100,44,123.98,302,12.00,12.00,-995.00
2024-06-07 01:46:28.878188,0,0,15,0,0,0,80,81,131,100,44,124.03,302,26.00,7.00,-940.00
2024-06-07 01:46:28.979014,0,0,15,0,0,0,80,81,132,100,44,124.00,302,-14.00,14.00,-1022.00
2024-06-07 01:46:29.164990,0,0,15,0,0,0,80,81,131,100,44,124.06,302,-3.00,5.00,-916.00
2024-06-07 01:46:29.183098,0,0,15,0,0,0,80,81,131,100,44,124.07,302,-7.00,14.00,-1015.00
2024-06-07 01:46:29.286363,0,0,15,0,0,0,80,81,130,100,44,124.02,302,13.00,7.00,-959.00
2024-06-07 01:46:29.338539,0,0,15,0,0,0,80,81,130,100,44,124.01,302,-6.00,-2.00,-968.00
2024-06-07 01:46:29.489193,0,0,15,0,0,0,79,82,131,100,44,124.11,302,0.00,2.00,-979.00
2024-06-07 01:46:29.674317,0,0,15,0,0,0,79,82,131,100,44,124.04,303,-2.00,12.00,-1053.00
2024-06-07 01:46:29.674513,0,0,15,0,0,0,79,82,131,100,44,124.00,303,-8.00,20.00,-1015.00
2024-06-07 01:46:29.744421,0,0,15,0,0,0,79,82,132,100,44,124.00,303,3.00,16.00,-1055.00
2024-06-07 01:46:29.884900,0,0,15,0,0,0,79,82,131,100,44,124.02,303,-24.00,9.00,-1029.00
2024-06-07 01:46:29.948395,0,0,15,0,0,0,79,82,132,100,44,124.04,303,-9.00,4.00,-980.00
2024-06-07 01:46:30.050217,0,0,15,0,0,0,79,82,131,100,44,124.02,303,-25.00,13.00,-1027.00
2024-06-07 01:46:30.186695,0,0,15,0,0,0,79,82,132,100,44,123.98,303,-16.00,11.00,-947.00
2024-06-07 01:46:30.254030,0,0,15,0,0,0,79,82,131,100,44,124.07,303,-10.00,6.00,-981.00
2024-06-07 01:46:30.391548,0,0,15,0,0,0,79,82,131,100,44,124.02,303,13.00,18.00,-1019.00
2024-06-07 01:46:30.458334,0,0,15,0,0,0,80,82,131,100,44,124.02,303,-13.00,16.00,-989.00
2024-06-07 01:46:30.586425,0,0,15,0,0,0,80,82,131,100,44,124.03,304,-3.00,17.00,-1048.00
2024-06-07 01:46:30.662105,0,0,15,0,0,0,80,82,131,100,44,124.02,304,-23.00,16.00,-978.00
2024-06-07 01:46:30.800945,0,0,15,0,0,0,80,82,130,100,44,124.03,304,-12.00,12.00,-1010.00
2024-06-07 01:46:30.866084,0,0,15,0,0,0,80,82,130,100,44,124.01,304,-24.00,15.00,-1024.00
2024-06-07 01:46:30.970084,0,0,15,0,0,0,80,82,130,100,44,124.02,304,-15.00,22.00,-1055.00
2024-06-07 01:46:31.070253,0,0,15,0,0,0,80,82,130,100,44,124.04,304,-7.00,5.00,-961.00
2024-06-07 01:46:31.210479,0,0,15,0,0,0,80,82,129,100,44,123.99,304,-14.00,6.00,-996.00
2024-06-07 01:46:31.274205,0,0,15,0,0,0,80,82,129,100,44,124.04,304,4.00,3.00,-1011.00
2024-06-07 01:46:31.414987,0,0,15,0,0,0,80,82,129,100,44,124.06,304,-17.00,16.00,-1049.00
2024-06-07 01:46:31.477930,0,0,15,0,0,0,80,82,129,100,44,123.99,305,0.00,21.00,-1021.00
2024-06-07 01:46:31.619561,0,0,15,0,0,0,80,82,129,100,44,124.05,305,-2.00,21.00,-1039.00
2024-06-07 01:46:31.681908,0,0,15,0,0,0,80,82,129,100,44,123.94,305,25.00,25.00,-1023.00
2024-06-07 01:46:31.783964,0,0,15,0,0,0,80,82,129,100,44,123.99,305,7.00,23.00,-1032.00
2024-06-07 01:46:31.885930,0,0,15,0,0,0,80,82,129,100,44,123.95,305,-3.00,16.00,-1014.00
2024-06-07 01:46:31.995546,0,0,15,0,0,0,80,82,129,100,44,123.94,305,-13.00,13.00,-935.00
2024-06-07 01:46:32.090650,0,0,15,0,0,0,80,82,129,100,44,123.99,305,5.00,15.00,-1023.00
2024-06-07 01:46:32.234420,0,0,15,0,0,0,80,82,129,100,44,123.98,305,0.00,16.00,-1003.00
2024-06-07 01:46:32.293988,0,0,15,0,0,0,80,82,129,100,44,123.99,305,10.00,7.00,-983.00
2024-06-07 01:46:32.396044,0,0,15,0,0,0,80,82,129,100,44,123.99,305,5.00,13.00,-1008.00
2024-06-07 01:46:32.497946,0,0,15,0,0,0,80,82,130,100,44,123.95,306,1.00,13.00,-1005.00
2024-06-07 01:46:32.599848,0,-1,15,0,0,0,80,82,129,100,44,123.97,306,0.00,9.00,-990.00
2024-06-07 01:46:32.702028,0,0,15,0,0,0,80,82,130,100,44,123.99,306,0.00,11.00,-992.00
2024-06-07 01:46:32.848333,0,-1,15,0,0,0,80,82,130,100,44,124.01,306,-19.00,13.00,-1004.00
2024-06-07 01:46:32.905870,0,-1,15,0,0,0,80,82,130,100,44,124.01,306,9.00,11.00,-1009.00
2024-06-07 01:46:33.053066,0,0,15,0,0,0,80,82,130,100,44,123.96,306,-3.00,13.00,-946.00
2024-06-07 01:46:33.110031,0,0,15,0,0,0,80,82,130,100,44,124.01,306,-7.00,18.00,-1012.00
2024-06-07 01:46:33.160816,0,0,15,0,0,0,80,82,130,100,44,124.02,306,-4.00,5.00,-995.00
2024-06-07 01:46:33.360481,0,0,15,0,0,0,80,82,130,100,44,123.99,306,-1.00,10.00,-995.00
2024-06-07 01:46:33.365307,0,0,15,0,0,0,80,82,130,100,43,123.98,306,0.00,15.00,-1053.00
2024-06-07 01:46:33.565139,0,0,15,0,0,0,80,82,132,100,43,123.97,307,-15.00,9.00,-962.00
2024-06-07 01:46:33.569837,0,0,15,0,0,0,80,82,132,100,43,124.04,307,7.00,5.00,-981.00
2024-06-07 01:46:33.671109,0,0,15,0,0,0,80,82,132,100,43,124.04,307,-4.00,22.00,-1045.00
2024-06-07 01:46:33.773552,0,0,15,0,0,0,80,82,133,100,43,124.05,307,-14.00,12.00,-953.00
2024-06-07 01:46:33.874655,0,0,15,0,0,0,80,82,133,100,43,124.03,307,-3.00,0.00,-959.00
2024-06-07 01:46:33.976616,0,0,15,0,0,0,80,82,133,100,43,124.05,307,5.00,11.00,-1029.00
2024-06-07 01:46:34.179467,0,0,15,0,0,0,80,82,133,100,43,124.05,307,-14.00,11.00,-975.00
2024-06-07 01:46:34.181004,0,0,15,0,0,0,80,82,132,100,43,124.04,307,-2.00,15.00,-984.00
2024-06-07 01:46:34.384295,0,0,15,0,0,0,80,82,132,100,43,124.03,307,10.00,16.00,-985.00
2024-06-07 01:46:34.384472,0,0,15,0,0,0,80,82,132,100,43,124.03,307,-16.00,20.00,-988.00
2024-06-07 01:46:34.486611,0,-1,15,0,0,0,79,82,132,100,43,124.02,308,-22.00,19.00,-1026.00
2024-06-07 01:46:34.589595,0,0,15,0,0,0,79,82,132,100,43,124.05,308,7.00,10.00,-1023.00
2024-06-07 01:46:34.691090,0,0,15,0,0,0,79,82,131,100,43,124.01,308,-6.00,13.00,-1011.00
2024-06-07 01:46:34.796981,0,0,15,0,0,0,79,82,131,100,43,124.05,308,-19.00,11.00,-1003.00
2024-06-07 01:46:34.897127,0,0,15,0,0,0,79,82,131,100,43,124.05,308,-5.00,12.00,-1021.00
2024-06-07 01:46:34.996670,0,0,15,0,0,0,79,82,131,100,43,124.05,308,-15.00,17.00,-1035.00
2024-06-07 01:46:35.098935,0,0,15,0,0,0,79,82,130,100,43,124.05,308,-3.00,11.00,-979.00
2024-06-07 01:46:35.200639,0,0,15,0,0,0,79,82,131,100,43,124.00,308,-2.00,13.00,-990.00
2024-06-07 01:46:35.302302,0,0,15,0,0,0,79,82,131,100,43,124.00,308,-20.00,23.00,-1013.00
2024-06-07 01:46:35.408267,0,0,15,0,0,0,79,82,131,100,43,124.05,308,1.00,19.00,-990.00
2024-06-07 01:46:35.506416,0,-1,15,0,0,0,80,82,131,100,43,124.02,309,-13.00,20.00,-1003.00
2024-06-07 01:46:35.615048,0,0,15,0,0,0,80,82,132,100,43,124.03,309,15.00,25.00,-1008.00
2024-06-07 01:46:35.710519,0,-1,15,0,0,0,80,82,132,100,43,124.09,309,-8.00,22.00,-1009.00
2024-06-07 01:46:35.812833,0,-1,15,0,0,0,80,82,133,100,43,124.03,309,-15.00,22.00,-1016.00
2024-06-07 01:46:35.914302,0,-1,15,0,0,0,80,82,133,100,43,124.05,309,12.00,13.00,-1026.00
2024-06-07 01:46:36.016254,0,0,15,0,0,0,80,82,134,100,43,124.05,309,10.00,31.00,-1049.00
2024-06-07 01:46:36.118294,0,-1,15,0,0,0,80,82,134,100,43,124.04,309,13.00,21.00,-1049.00
2024-06-07 01:46:36.221813,0,-1,15,0,0,0,80,82,134,100,43,124.04,309,1.00,15.00,-950.00
2024-06-07 01:46:36.322191,0,-1,15,0,0,0,80,82,135,100,43,124.09,309,-18.00,24.00,-964.00
2024-06-07 01:46:36.432272,0,-1,15,0,0,0,80,82,135,100,42,124.10,309,-8.00,21.00,-968.00
2024-06-07 01:46:36.526045,0,-1,15,0,0,0,81,82,134,100,42,124.08,310,-4.00,18.00,-1000.00
2024-06-07 01:46:36.628224,0,-1,15,0,0,0,81,82,133,100,42,124.07,310,8.00,18.00,-998.00
2024-06-07 01:46:36.739104,0,-1,15,0,0,1,81,82,132,100,42,124.07,310,20.00,7.00,-944.00
2024-06-07 01:46:36.832231,0,-1,15,0,0,2,81,82,129,100,42,123.98,310,7.00,19.00,-948.00
2024-06-07 01:46:36.934276,0,-1,15,0,0,3,81,82,127,100,42,123.95,310,7.00,36.00,-953.00
2024-06-07 01:46:37.036216,0,-1,15,0,0,4,81,82,122,90,42,123.96,310,-1.00,17.00,-893.00
2024-06-07 01:46:37.087361,0,-1,15,0,0,5,81,82,117,90,42,123.89,310,-4.00,28.00,-936.00
2024-06-07 01:46:37.189672,0,-1,15,0,0,6,81,82,111,80,42,123.86,310,-7.00,18.00,-908.00
2024-06-07 01:46:37.291943,0,-1,15,0,0,7,81,82,104,70,42,123.75,310,0.00,17.00,-888.00
2024-06-07 01:46:37.393916,0,0,15,0,0,7,81,82,96,70,42,123.72,310,24.00,0.00,-912.00
2024-06-07 01:46:37.558369,0,0,15,0,0,7,80,82,89,60,42,123.67,311,14.00,3.00,-1021.00
2024-06-07 01:46:37.597520,0,0,15,0,0,7,80,82,81,50,42,123.65,311,-10.00,-4.00,-1049.00
2024-06-07 01:46:37.701260,0,0,15,0,0,7,80,82,75,40,42,123.56,311,-9.00,8.00,-1036.00
