TS,pitch,roll,yaw,vgx,vgy,vgz,templ,temph,tof,h,bat,baro,time,agx,agy,agz
2024-06-07 01:46:54.992584,0,0,18,0,0,0,82,84,10,0,42,122.74,313,0.00,7.00,-999.00
2024-06-07 01:46:55.172428,0,0,18,0,0,0,82,84,10,0,42,122.72,313,0.00,7.00,-999.00
2024-06-07 01:46:55.194993,0,0,18,0,0,0,82,84,10,0,42,122.73,313,-2.00,8.00,-1001.00
2024-06-07 01:46:55.297079,0,0,18,0,0,0,82,84,10,0,42,122.71,313,-1.00,9.00,-999.00
2024-06-07 01:46:55.400617,0,0,18,0,0,0,82,84,10,0,42,122.75,313,-1.00,9.00,-1001.00
2024-06-07 01:46:55.500858,0,0,18,0,0,0,82,84,10,0,42,122.74,313,0.00,9.00,-1001.00
2024-06-07 01:46:55.682507,0,0,18,0,0,0,82,85,10,0,42,122.73,313,-1.00,9.00,-999.00
2024-06-07 01:46:55.704750,0,0,18,0,0,0,82,85,10,0,42,122.73,313,0.00,9.00,-1000.00
2024-06-07 01:46:55.887135,0,0,18,0,0,0,82,85,10,0,42,122.77,313,-1.00,10.00,-999.00
2024-06-07 01:46:55.908528,0,0,18,0,0,0,82,85,10,0,42,122.75,313,0.00,10.00,-1002.00
2024-06-07 01:46:56.208582,0,0,18,0,0,0,82,85,10,0,42,122.73,313,0.00,8.00,-1000.00
2024-06-07 01:46:56.208800,0,0,18,0,0,0,82,85,10,0,42,122.76,313,-1.00,8.00,-1000.00
2024-06-07 01:46:56.214691,0,0,18,0,0,0,82,85,10,0,42,122.72,313,0.00,8.00,-1000.00
2024-06-07 01:46:56.353597,0,0,18,0,0,0,82,85,10,0,42,122.70,313,0.00,9.00,-1000.00
2024-06-07 01:46:56.476384,0,0,18,0,0,0,82,85,10,0,42,122.72,313,0.00,9.00,-1001.00
2024-06-07 01:46:56.535920,0,0,18,0,0,0,82,85,10,0,42,122.76,313,0.00,9.00,-1000.00
2024-06-07 01:46:56.663538,0,0,18,0,0,0,82,84,10,0,42,122.69,313,0.00,8.00,-998.00
2024-06-07 01:46:56.724614,0,0,18,0,0,0,82,84,10,0,42,122.72,313,-1.00,8.00,-999.00
2024-06-07 01:46:56.841916,0,0,18,0,0,0,82,84,10,0,42,122.67,313,0.00,10.00,-1000.00
2024-06-07 01:46:56.984035,0,0,18,0,0,0,82,84,10,0,42,122.71,313,-1.00,9.00,-1002.00
2024-06-07 01:46:57.077593,0,0,18,0,0,0,82,84,10,0,42,122.71,313,-3.00,5.00,-999.00
2024-06-07 01:46:57.151773,0,0,18,0,0,0,82,84,10,0,42,122.71,313,3.00,5.00,-999.00
2024-06-07 01:46:57.295249,0,0,17,0,0,0,82,84,10,0,42,122.71,313,14.00,20.00,-996.00
2024-06-07 01:46:57.438761,0,0,17,0,0,0,82,84,10,0,42,122.71,313,3.00,14.00,-1022.00
2024-06-07 01:46:57.438845,0,0,16,0,0,0,82,84,10,0,42,122.71,313,-39.00,19.00,-1055.00
2024-06-07 01:46:57.582976,0,0,16,0,0,0,82,84,10,0,42,122.71,313,3.00,12.00,-1097.00
2024-06-07 01:46:57.741164,0,0,16,0,0,0,82,85,10,0,42,122.71,313,0.00,23.00,-1201.00
2024-06-07 01:46:57.744310,0,0,16,0,0,-3,82,85,10,0,42,122.71,313,-8.00,3.00,-1310.00
2024-06-07 01:46:57.886800,1,0,16,0,0,-5,82,85,14,0,42,122.71,313,-25.00,8.00,-1231.00
2024-06-07 01:46:57.897380,0,0,16,0,0,-7,82,85,22,0,42,123.00,313,11.00,4.00,-1059.00
2024-06-07 01:46:58.048250,0,0,16,0,0,-7,82,85,31,10,42,123.13,314,-10.00,16.00,-1034.00
2024-06-07 01:46:58.191614,0,0,16,0,0,-7,82,85,39,10,42,123.20,314,-9.00,16.00,-992.00
2024-06-07 01:46:58.203858,0,0,16,0,0,-7,82,85,47,20,42,123.30,314,5.00,-1.00,-908.00
2024-06-07 01:46:58.364056,0,0,16,0,0,-6,82,85,55,30,42,123.43,314,1.00,10.00,-916.00
2024-06-07 01:46:58.511799,0,0,16,0,0,-5,82,85,62,30,42,123.43,314,4.00,10.00,-901.00
2024-06-07 01:46:58.511863,0,-1,16,0,0,-4,82,85,67,40,42,123.49,314,23.00,-4.00,-891.00
2024-06-07 01:46:58.611470,0,0,16,0,0,-3,83,85,72,40,42,123.52,314,2.00,17.00,-908.00
2024-06-07 01:46:58.758191,0,-1,16,0,0,-2,83,85,76,50,42,123.52,314,13.00,1.00,-918.00
2024-06-07 01:46:58.816193,0,0,16,0,0,-1,83,85,80,50,42,123.58,314,-7.00,19.00,-910.00
2024-06-07 01:46:58.917837,0,0,16,0,0,0,83,85,82,50,42,123.65,314,-8.00,13.00,-947.00
2024-06-07 01:46:59.061379,0,0,16,0,0,0,83,85,84,50,42,123.59,315,10.00,5.00,-977.00
2024-06-07 01:46:59.121350,0,0,16,0,0,0,83,85,86,50,42,123.71,315,0.00,16.00,-985.00
2024-06-07 01:46:59.268943,0,0,16,0,0,0,83,85,86,50,42,123.69,315,9.00,9.00,-981.00
2024-06-07 01:46:59.325094,0,0,16,0,0,0,83,85,87,50,42,123.69,315,-3.00,11.00,-984.00
2024-06-07 01:46:59.427458,0,0,16,0,0,0,83,85,89,60,42,123.69,315,-39.00,30.00,-965.00
2024-06-07 01:46:59.573687,0,0,16,0,0,0,83,85,89,60,42,123.67,315,-12.00,12.00,-961.00
2024-06-07 01:46:59.631644,0,-1,16,0,0,0,82,85,90,60,42,123.74,315,-3.00,17.00,-996.00
2024-06-07 01:46:59.779341,0,0,16,0,0,0,82,85,90,60,42,123.68,315,-22.00,23.00,-962.00
2024-06-07 01:46:59.835339,0,0,16,0,0,0,82,85,91,60,42,123.77,315,-18.00,12.00,-993.00
2024-06-07 01:46:59.982908,0,0,16,0,0,0,82,85,91,60,42,123.70,315,2.00,9.00,-991.00
2024-06-07 01:47:00.039399,0,0,16,0,0,0,82,85,91,60,42,123.69,316,11.00,3.00,-979.00
2024-06-07 01:47:00.187708,0,0,16,0,0,0,82,85,92,60,42,123.74,316,-4.00,20.00,-1007.00
2024-06-07 01:47:00.243368,0,0,16,0,0,0,82,85,91,60,42,123.75,316,7.00,8.00,-990.00
2024-06-07 01:47:00.494986,0,0,16,0,0,0,82,85,91,60,42,123.67,316,-3.00,18.00,-973.00
2024-06-07 01:47:00.495373,0,0,16,0,0,0,82,85,91,60,42,123.77,316,8.00,21.00,-1016.00
2024-06-07 01:47:00.553816,0,0,16,0,0,0,82,85,90,60,42,123.73,316,1.00,13.00,-987.00
2024-06-07 01:47:00.651276,0,0,16,0,0,0,83,85,90,60,42,123.66,316,18.00,2.00,-960.00
2024-06-07 01:47:00.753029,0,0,16,0,0,0,83,85,89,60,42,123.69,316,-1.00,27.00,-1008.00
2024-06-07 01:47:00.904614,0,0,16,0,0,0,83,85,88,60,42,123.65,316,10.00,9.00,-1010.00
2024-06-07 01:47:00.958377,0,0,16,0,0,0,83,85,87,60,42,123.69,316,11.00,16.00,-1015.00
2024-06-07 01:47:01.110958,0,0,16,0,0,0,83,85,86,60,42,123.65,317,3.00,16.00,-1016.00
2024-06-07 01:47:01.160988,0,0,16,0,0,0,83,85,85,60,42,123.70,317,-21.00,7.00,-966.00
2024-06-07 01:47:01.263005,0,0,16,0,0,0,83,85,84,60,42,123.63,317,-6.00,17.00,-1005.00
2024-06-07 01:47:01.365065,0,0,16,0,0,0,83,85,83,60,42,123.63,317,19.00,8.00,-991.00
2024-06-07 01:47:01.518850,0,0,16,0,0,0,83,85,82,50,42,123.65,317,-13.00,31.00,-1008.00
2024-06-07 01:47:01.519020,0,0,16,0,0,0,83,85,81,50,42,123.64,317,29.00,-1.00,-1009.00
2024-06-07 01:47:01.671277,0,0,16,0,0,0,82,85,80,50,42,123.55,317,-14.00,30.00,-1034.00
2024-06-07 01:47:01.721898,0,0,16,0,0,0,82,85,79,50,42,123.67,317,-8.00,10.00,-1006.00
2024-06-07 01:47:01.823942,0,0,16,0,0,0,82,85,79,50,42,123.66,317,1.00,17.00,-1003.00
2024-06-07 01:47:01.925923,0,-1,16,0,0,0,82,85,79,50,42,123.60,317,7.00,6.00,-1015.00
2024-06-07 01:47:02.030829,0,0,16,0,0,0,82,85,78,50,42,123.65,318,5.00,25.00,-1041.00
2024-06-07 01:47:02.129947,0,0,16,0,0,0,82,85,78,50,42,123.69,318,-16.00,23.00,-1035.00
2024-06-07 01:47:02.235579,0,0,16,0,0,0,82,85,78,50,42,123.66,318,12.00,8.00,-985.00
2024-06-07 01:47:02.333884,0,0,16,0,0,0,82,85,77,50,42,123.65,318,3.00,21.00,-998.00
2024-06-07 01:47:02.440392,0,0,16,0,0,0,82,85,77,50,42,123.57,318,3.00,10.00,-1033.00
2024-06-07 01:47:02.537905,0,0,16,0,0,0,82,85,77,50,42,123.63,318,19.00,8.00,-1030.00
2024-06-07 01:47:02.649018,0,0,16,0,0,0,82,84,77,50,42,123.53,318,-28.00,24.00,-1028.00
2024-06-07 01:47:02.741945,0,0,16,0,0,0,82,84,77,50,42,123.57,318,8.00,17.00,-995.00
2024-06-07 01:47:02.850184,0,0,16,0,0,0,82,84,77,50,42,123.55,318,9.00,9.00,-992.00
2024-06-07 01:47:02.945894,0,0,16,0,0,0,82,84,77,50,42,123.52,318,5.00,18.00,-1013.00
2024-06-07 01:47:03.055103,0,0,16,0,0,0,82,84,77,50,42,123.56,319,-16.00,22.00,-1009.00
2024-06-07 01:47:03.151345,0,0,16,0,0,0,82,84,77,50,42,123.60,319,21.00,4.00,-948.00
2024-06-07 01:47:03.260054,0,-1,16,0,0,0,82,84,77,50,42,123.58,319,24.00,1.00,-1001.00
2024-06-07 01:47:03.354020,0,0,16,0,0,0,82,84,77,50,42,123.59,319,12.00,17.00,-1027.00
2024-06-07 01:47:03.465861,0,0,16,0,0,0,82,84,77,50,42,123.60,319,10.00,13.00,-1023.00
2024-06-07 01:47:03.559572,0,0,16,0,0,0,82,84,78,50,42,123.60,319,0.00,25.00,-1020.00
2024-06-07 01:47:03.664516,0,0,16,0,0,0,82,84,78,50,42,123.66,319,-1.00,8.00,-1005.00
2024-06-07 01:47:03.762102,0,0,16,0,0,0,82,84,78,50,42,123.63,319,-17.00,12.00,-1003.00
2024-06-07 01:47:03.874122,0,0,16,0,0,0,82,84,78,50,42,123.62,319,15.00,15.00,-1012.00
2024-06-07 01:47:03.965984,0,-1,16,0,0,0,82,84,78,50,42,123.62,319,-7.00,22.00,-1008.00
2024-06-07 01:47:04.079242,0,0,16,0,0,0,82,84,78,50,42,123.62,320,10.00,12.00,-983.00
2024-06-07 01:47:04.169780,0,0,16,0,0,0,82,84,79,50,42,123.59,320,18.00,1.00,-987.00
2024-06-07 01:47:04.285391,0,0,16,0,0,0,82,84,79,50,42,123.61,320,27.00,11.00,-1026.00
2024-06-07 01:47:04.374000,0,0,16,0,0,0,82,84,79,50,42,123.52,320,3.00,15.00,-1016.00
2024-06-07 01:47:04.488536,0,-1,16,0,0,0,82,84,79,50,42,123.56,320,-2.00,19.00,-975.00
2024-06-07 01:47:04.578137,0,-1,16,0,0,0,82,84,79,50,42,123.55,320,7.00,16.00,-999.00
2024-06-07 01:47:04.702846,0,0,16,0,0,0,81,84,79,50,42,123.59,320,-2.00,18.00,-1021.00
2024-06-07 01:47:04.781848,0,0,16,0,0,0,81,84,78,50,42,123.56,320,22.00,1.00,-1003.00
2024-06-07 01:47:04.885894,0,0,16,0,0,0,81,84,78,50,42,123.60,320,0.00,2.00,-963.00
2024-06-07 01:47:04.985948,0,0,16,0,0,0,81,84,78,50,42,123.59,320,10.00,12.00,-1004.00
2024-06-07 01:47:05.087686,0,0,16,0,0,0,81,84,77,50,42,123.58,321,5.00,19.00,-1018.00
2024-06-07 01:47:05.205147,0,0,16,0,0,0,81,84,77,50,42,123.56,321,-10.00,27.00,-1036.00
2024-06-07 01:47:05.291659,0,0,16,0,0,0,81,84,77,50,42,123.55,321,-5.00,22.00,-1083.00
2024-06-07 01:47:05.342900,0,0,16,0,0,0,81,84,78,50,42,123.58,321,0.00,8.00,-1081.00
2024-06-07 01:47:05.512269,0,0,16,0,0,-1,81,84,80,50,42,123.61,321,9.00,7.00,-1075.00
2024-06-07 01:47:05.547147,0,0,16,0,0,-2,81,84,83,50,42,123.63,321,4.00,15.00,-1081.00
2024-06-07 01:47:05.718835,0,0,16,0,0,-3,82,84,87,60,42,123.73,321,20.00,7.00,-1039.00
2024-06-07 01:47:05.750747,0,0,16,0,0,-4,82,84,92,60,42,123.74,321,-5.00,2.00,-1011.00
2024-06-07 01:47:05.921883,0,0,16,0,0,-4,82,84,97,60,42,123.80,321,3.00,20.00,-1059.00
2024-06-07 01:47:05.954594,0,0,16,0,0,-5,82,84,103,70,42,123.79,321,9.00,6.00,-997.00
2024-06-07 01:47:06.126647,0,0,16,0,0,-5,82,84,109,80,42,123.89,322,9.00,28.00,-1041.00
2024-06-07 01:47:06.158549,0,0,16,0,0,-5,82,84,116,80,42,123.98,322,-28.00,16.00,-978.00
2024-06-07 01:47:06.331461,0,0,16,0,0,-5,82,84,122,90,42,124.01,322,24.00,2.00,-1024.00
2024-06-07 01:47:06.362616,0,0,16,0,0,-5,82,84,129,90,42,124.07,322,0.00,18.00,-991.00
2024-06-07 01:47:06.536260,0,0,16,0,0,-6,82,84,135,100,42,124.13,322,5.00,9.00,-996.00
2024-06-07 01:47:06.567148,0,0,16,0,0,-5,82,84,141,110,42,124.15,322,5.00,2.00,-970.00
2024-06-07 01:47:06.668551,0,0,16,0,0,-5,82,83,146,120,42,124.25,322,23.00,-1.00,-948.00
2024-06-07 01:47:06.770913,0,0,16,0,0,-4,82,83,151,120,42,124.34,322,16.00,1.00,-959.00
2024-06-07 01:47:06.945811,0,0,16,0,0,-4,82,83,157,130,42,124.29,322,10.00,12.00,-947.00
2024-06-07 01:47:06.974934,0,0,16,0,0,-3,82,83,160,130,42,124.39,323,-18.00,12.00,-947.00
2024-06-07 01:47:07.150699,0,0,16,0,0,-3,82,83,164,130,42,124.39,323,7.00,2.00,-938.00
2024-06-07 01:47:07.178882,0,0,16,0,0,-3,82,83,167,140,42,124.40,323,6.00,-2.00,-927.00
2024-06-07 01:47:07.284100,0,0,16,0,0,-2,82,83,170,140,42,124.46,323,-1.00,6.00,-957.00
2024-06-07 01:47:07.382574,0,0,16,0,0,-2,82,83,172,140,42,124.38,323,7.00,-7.00,-936.00
2024-06-07 01:47:07.561041,0,0,16,0,0,-1,82,83,174,150,42,124.48,323,-5.00,12.00,-974.00
2024-06-07 01:47:07.586927,0,0,16,0,0,-1,82,83,176,150,42,124.44,323,9.00,-7.00,-941.00
2024-06-07 01:47:07.688437,0,0,16,0,0,0,82,84,177,150,42,124.50,323,-4.00,13.00,-981.00
2024-06-07 01:47:07.867821,0,0,16,0,0,0,82,84,178,150,42,124.49,323,-6.00,10.00,-959.00
2024-06-07 01:47:07.892943,0,0,16,0,0,0,82,84,178,150,42,124.50,323,11.00,-20.00,-941.00
2024-06-07 01:47:08.072517,0,0,16,0,0,0,82,84,177,150,42,124.49,324,9.00,7.00,-977.00
2024-06-07 01:47:08.096613,0,0,16,0,0,0,82,84,178,150,42,124.45,324,-2.00,6.00,-1001.00
2024-06-07 01:47:08.277518,0,0,16,0,0,0,82,84,177,150,42,124.47,324,0.00,6.00,-1008.00
2024-06-07 01:47:08.300945,0,0,16,0,0,0,82,84,178,150,42,124.43,324,16.00,-7.00,-994.00
2024-06-07 01:47:08.482082,0,0,16,0,0,0,82,84,177,150,42,124.44,324,15.00,-15.00,-977.00
2024-06-07 01:47:08.504757,0,0,16,0,0,0,82,84,175,150,42,124.41,324,17.00,-6.00,-993.00
2024-06-07 01:47:08.686738,0,0,16,0,0,0,82,84,175,150,42,124.52,324,32.00,-11.00,-1028.00
2024-06-07 01:47:08.708398,1,0,16,0,0,0,81,83,176,150,42,124.46,324,11.00,0.00,-997.00
2024-06-07 01:47:08.892237,0,0,16,0,0,0,81,83,175,150,42,124.39,324,3.00,-8.00,-991.00
2024-06-07 01:47:08.912437,0,0,16,0,0,0,81,83,174,150,42,124.41,324,27.00,2.00,-1038.00
2024-06-07 01:47:08.963675,0,0,16,0,0,0,81,83,175,150,42,124.43,325,-6.00,11.00,-1000.00
2024-06-07 01:47:09.098984,0,0,16,0,0,0,81,83,173,150,42,124.40,325,-11.00,14.00,-1041.00
2024-06-07 01:47:09.167657,0,0,16,0,0,0,81,83,174,150,42,124.41,325,3.00,5.00,-1026.00
2024-06-07 01:47:09.301557,0,0,16,0,0,0,81,83,174,150,42,124.43,325,9.00,-2.00,-1008.00
2024-06-07 01:47:09.371583,0,0,16,0,0,0,81,83,175,150,42,124.41,325,-9.00,10.00,-1016.00
2024-06-07 01:47:09.508346,0,0,16,0,0,0,81,83,174,150,42,124.43,325,-4.00,8.00,-1007.00
2024-06-07 01:47:09.575783,0,0,16,0,0,0,81,83,175,150,42,124.40,325,24.00,-17.00,-962.00
2024-06-07 01:47:09.677340,0,0,16,0,0,0,81,83,175,150,42,124.43,325,6.00,12.00,-1012.00
2024-06-07 01:47:09.815051,0,0,16,0,0,0,81,83,176,150,42,124.47,325,-7.00,16.00,-973.00
2024-06-07 01:47:09.881237,0,0,16,0,0,0,81,83,176,150,42,124.50,325,18.00,-6.00,-952.00
2024-06-07 01:47:10.017899,0,0,16,0,0,0,81,83,174,150,42,124.45,326,-2.00,11.00,-948.00
2024-06-07 01:47:10.085230,0,0,16,0,0,1,81,83,174,150,42,124.43,326,-2.00,10.00,-953.00
2024-06-07 01:47:10.222462,0,0,16,0,0,1,81,83,171,140,42,124.38,326,0.00,13.00,-960.00
2024-06-07 01:47:10.289440,0,0,16,0,0,2,81,83,169,140,42,124.44,326,12.00,8.00,-979.00
2024-06-07 01:47:10.427228,0,0,16,0,0,2,81,83,167,140,42,124.32,326,3.00,10.00,-973.00
2024-06-07 01:47:10.493190,0,0,16,0,0,2,81,83,163,140,42,124.38,326,13.00,-4.00,-970.00
2024-06-07 01:47:10.632046,0,0,16,0,0,3,81,83,160,130,42,124.30,326,0.00,6.00,-1010.00
2024-06-07 01:47:10.697315,0,0,16,0,0,3,82,83,157,130,42,124.25,326,0.00,-13.00,-980.00
2024-06-07 01:47:10.836851,0,0,16,0,0,3,82,83,154,130,42,124.24,326,-5.00,0.00,-979.00
2024-06-07 01:47:10.901116,0,0,16,0,0,3,82,83,151,120,42,124.18,326,-10.00,11.00,-989.00
2024-06-07 01:47:11.111948,0,0,16,0,0,2,82,83,148,120,42,124.17,327,10.00,6.00,-1037.00
2024-06-07 01:47:11.112035,0,0,16,0,0,2,82,83,146,120,42,124.15,327,-12.00,6.00,-1023.00
2024-06-07 01:47:11.259417,0,0,16,0,0,2,82,83,143,120,42,124.09,327,21.00,4.00,-1013.00
2024-06-07 01:47:11.372152,0,0,16,0,0,2,82,83,140,110,42,124.12,327,15.00,6.00,-1036.00
2024-06-07 01:47:11.428996,0,0,16,0,0,2,82,83,138,110,42,124.16,327,15.00,7.00,-1010.00
2024-06-07 01:47:11.555291,0,0,16,0,0,2,82,83,136,110,42,124.03,327,-4.00,18.00,-1037.00
2024-06-07 01:47:11.615260,0,0,16,0,0,1,82,83,134,110,42,124.08,327,-6.00,17.00,-1043.00
2024-06-07 01:47:11.718075,0,0,16,0,0,1,82,83,133,110,42,124.08,327,2.00,-1.00,-1017.00
2024-06-07 01:47:11.876359,0,0,16,0,0,1,82,83,131,100,42,124.07,327,8.00,-6.00,-980.00
2024-06-07 01:47:11.946132,0,0,16,0,0,1,82,83,129,100,42,124.03,327,20.00,14.00,-1039.00
2024-06-07 01:47:12.036409,0,0,16,0,0,1,82,83,128,100,42,123.97,328,1.00,14.00,-1020.00
2024-06-07 01:47:12.220104,0,0,16,0,0,0,82,83,128,100,42,123.99,328,-7.00,6.00,-1023.00
2024-06-07 01:47:12.228577,0,0,16,0,0,0,82,83,127,100,42,124.03,328,-3.00,6.00,-1020.00
2024-06-07 01:47:12.364571,0,0,16,0,0,0,82,83,126,100,42,123.98,328,-22.00,6.00,-995.00
2024-06-07 01:47:12.519683,0,0,16,0,0,0,82,83,126,100,42,123.92,328,13.00,-3.00,-1015.00
2024-06-07 01:47:12.519845,0,0,16,0,0,0,82,83,126,100,42,123.96,328,-11.00,18.00,-1023.00
2024-06-07 01:47:12.585463,0,0,16,0,0,0,82,83,126,100,42,123.98,328,2.00,18.00,-1017.00
2024-06-07 01:47:12.782579,0,0,16,0,0,0,81,83,126,100,42,124.00,328,-13.00,16.00,-1010.00
2024-06-07 01:47:12.840219,0,0,16,0,0,0,81,83,126,100,42,124.03,328,-2.00,35.00,-1022.00
2024-06-07 01:47:12.988010,0,-1,16,0,0,0,81,83,126,100,42,124.03,328,-14.00,14.00,-964.00
2024-06-07 01:47:13.045767,0,-1,16,0,0,0,81,83,127,100,42,123.95,329,16.00,7.00,-992.00
2024-06-07 01:47:13.146360,0,-1,16,0,0,0,81,83,127,100,42,124.04,329,6.00,29.00,-1005.00
2024-06-07 01:47:13.197411,0,0,16,0,0,0,81,83,127,100,42,123.97,329,-3.00,13.00,-968.00
2024-06-07 01:47:13.397637,0,0,16,0,0,0,81,83,127,100,42,124.00,329,11.00,4.00,-999.00
2024-06-07 01:47:13.402018,0,0,16,0,0,0,81,83,126,100,42,124.02,329,3.00,19.00,-1012.00
2024-06-07 01:47:13.601810,0,0,16,0,0,0,81,83,126,100,42,124.01,329,11.00,17.00,-1005.00
2024-06-07 01:47:13.606542,0,0,16,0,0,0,81,83,126,100,42,123.97,329,2.00,16.00,-1008.00
2024-06-07 01:47:13.807546,0,0,16,0,0,0,81,83,126,100,42,123.96,329,-1.00,18.00,-1015.00
2024-06-07 01:47:13.809955,0,0,16,0,0,0,81,83,126,100,42,124.02,329,16.00,0.00,-1003.00
2024-06-07 01:47:14.011236,0,0,16,0,0,0,81,83,126,100,42,124.06,329,-2.00,12.00,-989.00
2024-06-07 01:47:14.014950,0,0,16,0,0,0,81,83,127,100,42,123.98,330,3.00,17.00,-1015.00
2024-06-07 01:47:14.116053,0,0,16,0,0,0,81,83,126,100,42,123.95,330,10.00,11.00,-987.00
2024-06-07 01:47:14.217985,-1,0,16,0,0,0,81,83,126,100,42,124.05,330,-1.00,21.00,-1012.00
2024-06-07 01:47:14.422179,-7,0,16,0,0,0,81,83,126,100,42,124.03,330,9.00,24.00,-988.00
2024-06-07 01:47:14.425249,-8,0,16,1,0,0,81,83,127,100,42,124.01,330,1.00,4.00,-994.00
2024-06-07 01:47:14.523943,-8,0,16,3,1,0,81,83,126,100,42,123.92,330,-9.00,14.00,-1000.00
2024-06-07 01:47:14.626396,-7,0,16,4,1,0,81,83,126,100,42,123.98,330,-28.00,-2.00,-983.00
2024-06-07 01:47:14.727979,-7,0,16,5,1,0,80,83,125,100,42,123.89,330,-44.00,22.00,-1039.00
2024-06-07 01:47:14.831554,-6,0,16,6,2,0,80,83,125,100,42,123.96,330,-20.00,15.00,-1002.00
2024-06-07 01:47:14.932374,-4,-1,16,7,2,0,80,83,123,100,42,123.91,330,-40.00,6.00,-1011.00
2024-06-07 01:47:15.040327,-3,0,16,7,2,0,80,83,123,100,42,124.01,331,-45.00,23.00,-996.00
2024-06-07 01:47:15.139246,-1,0,16,7,2,0,80,83,123,100,42,123.98,331,-70.00,8.00,-942.00
2024-06-07 01:47:15.237906,1,-1,16,7,2,0,80,83,123,100,42,123.88,331,-52.00,13.00,-1012.00
2024-06-07 01:47:15.339879,3,-1,16,6,1,0,80,83,123,100,42,123.89,331,-35.00,0.00,-993.00
2024-06-07 01:47:15.445640,5,0,16,5,1,0,80,83,123,100,42,123.87,331,-53.00,11.00,-1029.00
2024-06-07 01:47:15.543919,4,0,16,4,1,0,80,83,122,100,42,123.90,331,-41.00,15.00,-1055.00
2024-06-07 01:47:15.649976,2,0,16,3,0,0,80,83,122,100,42,123.87,331,-18.00,0.00,-1015.00
2024-06-07 01:47:15.747818,1,0,16,3,0,0,80,83,121,100,42,123.87,331,-15.00,0.00,-1009.00
2024-06-07 01:47:15.854313,0,0,16,3,0,0,80,83,121,100,42,123.86,331,-15.00,3.00,-982.00
2024-06-07 01:47:15.951784,0,0,16,2,0,0,80,83,121,100,42,123.93,331,-7.00,5.00,-960.00
2024-06-07 01:47:16.059023,1,-2,16,2,0,0,80,83,121,100,42,123.97,332,-11.00,-12.00,-1020.00
2024-06-07 01:47:16.155818,0,-1,16,2,0,0,80,83,120,100,42,123.88,332,8.00,7.00,-1035.00
2024-06-07 01:47:16.264215,1,0,16,2,0,0,80,83,120,100,42,123.96,332,-1.00,-1.00,-962.00
2024-06-07 01:47:16.359656,4,0,16,1,0,0,80,83,121,100,42,123.86,332,-48.00,14.00,-986.00
2024-06-07 01:47:16.468670,3,0,16,0,0,0,80,83,121,100,42,123.95,332,-6.00,0.00,-1016.00
2024-06-07 01:47:16.563874,1,0,16,0,0,0,80,83,120,100,42,123.95,332,11.00,3.00,-1045.00
2024-06-07 01:47:16.673519,0,0,16,0,0,0,80,83,120,90,42,123.92,332,-19.00,13.00,-1003.00
2024-06-07 01:47:16.767750,0,0,16,0,0,0,81,84,122,90,42,123.99,332,-15.00,6.00,-995.00
2024-06-07 01:47:16.870147,0,0,16,0,0,0,81,84,123,90,42,123.98,332,7.00,-6.00,-1011.00
2024-06-07 01:47:16.920767,0,0,16,0,0,0,81,84,123,100,42,124.02,332,3.00,19.00,-1060.00
2024-06-07 01:47:17.067172,0,0,16,0,0,0,81,84,125,100,42,124.01,333,-14.00,19.00,-1044.00
2024-06-07 01:47:17.124760,0,0,16,0,0,-1,81,84,125,100,42,124.03,333,9.00,6.00,-1005.00
2024-06-07 01:47:17.226857,0,0,16,0,0,0,81,84,126,100,42,123.99,333,-5.00,7.00,-960.00
2024-06-07 01:47:17.328949,0,0,16,0,0,0,81,84,126,100,42,123.91,333,-12.00,-2.00,-952.00
2024-06-07 01:47:17.431206,0,0,16,0,0,0,81,84,126,100,42,124.05,333,3.00,12.00,-991.00
2024-06-07 01:47:17.533888,0,0,16,0,0,0,81,84,126,100,42,123.92,333,-9.00,6.00,-981.00
2024-06-07 01:47:17.636309,0,0,16,0,0,0,81,84,125,100,42,123.99,333,5.00,8.00,-1003.00
2024-06-07 01:47:17.738321,0,0,16,0,0,0,80,83,125,100,42,124.03,333,4.00,13.00,-1022.00
2024-06-07 01:47:17.838828,0,0,16,0,0,0,80,83,124,100,42,123.99,333,-8.00,3.00,-999.00
2024-06-07 01:47:18.004618,0,0,16,0,0,0,80,83,125,100,42,123.99,333,8.00,3.00,-1001.00
2024-06-07 01:47:18.042863,0,0,16,0,0,0,80,83,124,100,42,123.98,334,-5.00,13.00,-1010.00
2024-06-07 01:47:18.209493,0,0,16,0,0,0,80,83,125,100,42,124.01,334,22.00,14.00,-1048.00
2024-06-07 01:47:18.246633,0,0,16,0,0,0,80,83,125,100,42,123.98,334,-3.00,8.00,-995.00
2024-06-07 01:47:18.348699,0,0,16,0,0,0,80,83,125,100,42,124.05,334,-3.00,14.00,-1009.00
2024-06-07 01:47:18.472241,0,0,16,0,0,0,80,83,124,100,42,124.00,334,-4.00,3.00,-950.00
2024-06-07 01:47:18.552514,0,0,16,0,0,0,80,83,124,100,42,123.94,334,-5.00,23.00,-1008.00
2024-06-07 01:47:18.654887,0,0,16,0,0,0,80,83,123,100,42,123.96,334,35.00,-10.00,-983.00
2024-06-07 01:47:18.823748,5,0,16,0,0,0,81,83,124,100,42,123.93,334,-12.00,7.00,-1001.00
2024-06-07 01:47:18.860315,8,0,16,-1,0,0,81,83,124,100,42,124.02,334,4.00,17.00,-1004.00
2024-06-07 01:47:18.960870,8,0,16,-2,0,0,81,83,124,100,42,123.98,334,-9.00,14.00,-1003.00
2024-06-07 01:47:19.134750,8,0,16,-4,-1,0,81,83,124,100,42,124.01,335,17.00,2.00,-995.00
2024-06-07 01:47:19.164462,8,0,16,-5,-1,0,81,83,123,100,42,123.99,335,26.00,6.00,-1018.00
2024-06-07 01:47:19.339745,6,0,16,-6,-1,0,81,83,123,100,42,123.95,335,27.00,16.00,-1025.00
2024-06-07 01:47:19.368396,5,0,16,-7,-1,0,81,83,123,100,41,124.00,335,22.00,20.00,-1037.00
2024-06-07 01:47:19.544607,4,-1,16,-7,-1,0,81,83,124,100,41,124.03,335,39.00,11.00,-1004.00
2024-06-07 01:47:19.572526,3,-1,16,-8,-2,0,81,83,125,100,41,123.98,335,43.00,18.00,-996.00
2024-06-07 01:47:19.675478,0,-1,16,-7,-2,0,81,83,125,100,41,124.01,335,32.00,20.00,-988.00
2024-06-07 01:47:19.848330,-2,-1,16,-7,-1,0,80,83,126,100,41,123.92,335,49.00,25.00,-1019.00
2024-06-07 01:47:19.878449,-4,-1,16,-6,-1,0,80,83,126,100,41,123.96,335,49.00,-10.00,-959.00
2024-06-07 01:47:20.052448,-4,-1,16,-5,-1,0,80,83,127,100,41,124.00,335,52.00,12.00,-1020.00
2024-06-07 01:47:20.084835,-3,0,16,-4,-1,0,80,83,127,100,41,124.02,336,35.00,20.00,-985.00
2024-06-07 01:47:20.184404,-1,0,16,-3,-1,0,80,83,127,100,41,123.99,336,3.00,19.00,-999.00
2024-06-07 01:47:20.360292,0,0,16,-3,-1,0,80,83,127,100,41,124.01,336,20.00,-7.00,-993.00
2024-06-07 01:47:20.388341,0,0,16,-2,0,0,80,83,128,100,41,124.01,336,35.00,8.00,-986.00
2024-06-07 01:47:20.564654,0,1,16,-2,0,0,80,83,127,100,41,124.01,336,2.00,16.00,-996.00
2024-06-07 01:47:20.592456,0,0,16,-2,0,0,80,83,127,100,41,124.05,336,41.00,0.00,-993.00
2024-06-07 01:47:20.643353,0,0,16,-2,0,0,80,83,127,100,41,124.08,336,-6.00,17.00,-1033.00
2024-06-07 01:47:20.796303,-3,-1,16,-1,0,0,82,83,127,100,41,123.96,336,26.00,6.00,-973.00
2024-06-07 01:47:20.898671,-1,-1,16,0,0,0,82,83,128,100,41,124.08,336,2.00,10.00,-1010.00
2024-06-07 01:47:21.076456,0,0,16,0,0,0,82,83,127,100,41,124.03,337,-4.00,9.00,-984.00
2024-06-07 01:47:21.102360,0,0,16,0,0,0,82,83,127,100,41,124.01,337,-3.00,10.00,-1003.00
2024-06-07 01:47:21.153455,0,0,16,0,0,0,82,83,127,100,41,124.01,337,0.00,10.00,-994.00
2024-06-07 01:47:21.281536,0,0,16,0,0,0,82,83,128,100,41,123.96,337,4.00,9.00,-1013.00
2024-06-07 01:47:21.357435,0,0,16,0,0,0,82,83,128,100,41,124.05,337,28.00,10.00,-985.00
2024-06-07 01:47:21.487569,0,0,16,0,0,0,82,83,128,100,41,123.96,337,-7.00,9.00,-1015.00
2024-06-07 01:47:21.562142,0,0,16,0,0,0,82,83,128,100,41,124.01,337,7.00,1.00,-1000.00
2024-06-07 01:47:21.663453,0,0,16,0,0,0,82,83,129,100,41,123.92,337,2.00,9.00,-1013.00
2024-06-07 01:47:21.797167,0,0,16,0,0,0,80,83,129,100,41,124.04,337,-7.00,21.00,-1010.00
2024-06-07 01:47:21.868367,0,0,16,0,0,0,80,83,129,100,41,124.04,337,-22.00,17.00,-982.00
2024-06-07 01:47:21.998066,0,0,16,0,0,0,80,83,130,100,41,124.07,338,-10.00,24.00,-1012.00
2024-06-07 01:47:22.074817,0,0,16,0,0,0,80,83,130,100,41,124.07,338,-28.00,15.00,-967.00
2024-06-07 01:47:22.174150,0,0,16,0,0,0,80,83,130,100,41,124.03,338,-6.00,16.00,-983.00
2024-06-07 01:47:22.305337,0,0,16,0,0,0,80,83,130,100,41,124.04,338,11.00,13.00,-1008.00
2024-06-07 01:47:22.377382,0,0,16,0,0,0,80,83,130,100,40,124.04,338,-4.00,0.00,-979.00
2024-06-07 01:47:22.479544,0,0,16,0,0,0,80,83,131,100,40,124.01,338,-11.00,25.00,-966.00
2024-06-07 01:47:22.613204,0,0,16,0,0,0,80,83,130,100,40,124.07,338,25.00,5.00,-1000.00
2024-06-07 01:47:22.683264,0,0,16,0,0,0,80,83,130,100,40,124.01,338,1.00,4.00,-996.00
2024-06-07 01:47:22.817312,0,0,16,0,0,0,80,83,130,100,40,124.09,338,-3.00,13.00,-1002.00
2024-06-07 01:47:22.889587,0,0,16,0,0,0,80,83,130,100,40,124.04,338,14.00,5.00,-992.00
2024-06-07 01:47:22.989128,0,-1,16,0,0,0,80,83,130,100,40,124.12,339,-7.00,11.00,-1003.00
2024-06-07 01:47:23.091379,0,-8,16,0,0,0,80,83,130,100,40,124.10,339,-23.00,16.00,-988.00
2024-06-07 01:47:23.193081,0,-8,16,0,-1,0,80,83,131,100,40,124.06,339,2.00,14.00,-1005.00
2024-06-07 01:47:23.331333,0,-6,16,0,-2,0,80,83,131,100,40,124.12,339,0.00,28.00,-1025.00
2024-06-07 01:47:23.397121,0,-4,16,1,-3,0,80,83,130,100,40,124.05,339,8.00,11.00,-969.00
2024-06-07 01:47:23.499199,0,0,16,1,-3,0,80,83,130,100,40,124.07,339,23.00,12.00,-982.00
2024-06-07 01:47:23.637015,0,0,16,1,-3,0,80,83,130,100,40,124.12,339,-4.00,26.00,-998.00
2024-06-07 01:47:23.703174,0,0,16,1,-3,0,80,83,130,100,40,124.09,339,-18.00,43.00,-988.00
2024-06-07 01:47:23.805638,0,0,16,0,-2,0,80,82,130,100,40,124.08,339,-7.00,27.00,-964.00
2024-06-07 01:47:23.907090,0,0,16,0,-2,0,80,82,130,100,40,124.07,339,0.00,14.00,-968.00
2024-06-07 01:47:24.045943,0,-1,16,0,-2,0,80,82,130,100,40,124.03,340,11.00,23.00,-1014.00
2024-06-07 01:47:24.112376,0,-1,16,0,-2,0,80,82,129,100,40,124.06,340,15.00,15.00,-1020.00
2024-06-07 01:47:24.251079,1,0,16,0,-2,0,80,82,130,100,40,124.04,340,-15.00,17.00,-950.00
2024-06-07 01:47:24.316561,0,0,16,0,-2,0,80,82,129,100,40,124.01,340,3.00,11.00,-994.00
2024-06-07 01:47:24.417193,0,0,16,0,-2,0,80,82,128,100,39,124.06,340,8.00,8.00,-1001.00
2024-06-07 01:47:24.557895,0,0,16,0,-2,0,80,82,128,100,39,124.04,340,7.00,28.00,-1050.00
2024-06-07 01:47:24.622645,0,0,16,0,-2,0,80,82,128,100,39,124.09,340,2.00,12.00,-989.00
2024-06-07 01:47:24.673893,0,0,16,0,-2,0,80,82,128,100,39,124.03,340,0.00,14.00,-983.00
2024-06-07 01:47:24.865108,0,1,16,0,-1,0,80,83,128,100,39,124.01,340,-7.00,23.00,-1071.00
2024-06-07 01:47:24.927005,-1,3,16,0,-1,0,80,83,128,100,39,123.99,340,-9.00,21.00,-959.00
2024-06-07 01:47:24.978300,0,1,16,0,0,0,80,83,127,100,39,123.96,341,7.00,-2.00,-975.00
2024-06-07 01:47:25.172465,0,0,16,0,0,0,80,83,127,100,39,124.02,341,6.00,-4.00,-971.00
2024-06-07 01:47:25.182781,0,0,16,0,0,0,80,83,128,100,39,123.99,341,17.00,2.00,-1021.00
2024-06-07 01:47:25.310885,0,0,16,0,0,0,80,83,128,100,39,124.04,341,-12.00,14.00,-1001.00
2024-06-07 01:47:25.386749,0,0,16,0,0,0,80,83,128,100,39,124.05,341,-6.00,5.00,-993.00
2024-06-07 01:47:25.584600,0,0,16,0,0,0,80,83,128,100,39,124.05,341,1.00,-5.00,-980.00
2024-06-07 01:47:25.591988,0,0,16,0,0,0,80,83,129,100,39,124.06,341,0.00,7.00,-1009.00
2024-06-07 01:47:25.691897,0,0,16,0,0,0,80,83,129,100,39,124.03,341,23.00,7.00,-999.00
2024-06-07 01:47:25.889919,0,0,16,0,0,0,81,83,129,100,39,124.08,341,3.00,11.00,-1031.00
2024-06-07 01:47:25.896049,0,0,16,0,0,0,81,83,130,100,39,124.12,341,32.00,7.00,-1012.00
2024-06-07 01:47:26.115893,0,0,16,0,0,0,81,83,130,100,39,124.06,342,0.00,16.00,-1047.00
2024-06-07 01:47:26.116037,0,0,16,0,0,0,81,83,130,100,39,124.04,342,-11.00,11.00,-1008.00
2024-06-07 01:47:26.313257,0,0,16,0,0,0,81,83,130,100,39,124.12,342,-2.00,3.00,-967.00
2024-06-07 01:47:26.313443,0,0,16,0,0,0,81,83,130,100,39,124.06,342,-13.00,0.00,-968.00
2024-06-07 01:47:26.423985,0,0,16,0,0,0,81,83,130,100,38,124.04,342,2.00,-8.00,-1001.00
2024-06-07 01:47:26.608272,0,0,16,0,0,0,81,83,130,100,38,124.03,342,3.00,-1.00,-1002.00
2024-06-07 01:47:26.610009,0,0,16,0,0,0,81,83,131,100,38,124.05,342,5.00,11.00,-1045.00
2024-06-07 01:47:26.767875,0,0,16,0,0,0,81,83,130,100,38,124.03,342,13.00,3.00,-1025.00
2024-06-07 01:47:26.832103,0,0,16,0,0,0,80,83,131,100,38,124.05,342,0.00,6.00,-982.00
2024-06-07 01:47:27.002815,0,0,16,0,0,0,80,83,131,100,38,124.05,342,2.00,13.00,-999.00
2024-06-07 01:47:27.017806,0,0,16,0,0,0,80,83,131,100,38,124.04,343,33.00,-4.00,-987.00
2024-06-07 01:47:27.244038,0,0,16,0,0,0,80,83,130,100,38,124.08,343,0.00,-16.00,-983.00
2024-06-07 01:47:27.244104,0,4,16,0,0,0,80,83,131,100,38,124.10,343,3.00,10.00,-987.00
2024-06-07 01:47:27.400656,0,8,16,0,1,0,80,83,132,100,38,124.05,343,34.00,-12.00,-1000.00
2024-06-07 01:47:27.544046,0,6,16,0,2,0,80,83,131,100,38,124.05,343,-3.00,-18.00,-1003.00
2024-06-07 01:47:27.544105,0,3,16,-1,3,0,80,83,130,100,38,124.00,343,-1.00,-5.00,-1041.00
2024-06-07 01:47:27.687398,0,0,16,-1,3,0,80,83,129,100,38,124.07,343,3.00,-17.00,-1036.00
2024-06-07 01:47:27.731819,0,-1,16,-1,3,0,80,83,129,100,38,124.05,343,0.00,-20.00,-1016.00
2024-06-07 01:47:27.845731,0,-1,16,0,3,0,81,82,129,100,38,124.00,343,-6.00,-8.00,-1010.00
2024-06-07 01:47:27.989210,0,-1,16,0,3,0,81,82,130,100,38,124.06,343,-13.00,-20.00,-993.00
2024-06-07 01:47:28.041189,0,0,16,0,3,0,81,82,130,100,38,124.05,344,-16.00,-4.00,-972.00
2024-06-07 01:47:28.154770,0,0,16,0,2,0,81,82,130,100,38,124.06,344,-8.00,-5.00,-992.00
2024-06-07 01:47:28.302232,0,0,16,0,2,0,81,82,131,100,38,124.01,344,6.00,-12.00,-1000.00
2024-06-07 01:47:28.343782,0,0,16,0,2,0,81,82,131,100,38,124.09,344,-3.00,-13.00,-981.00
2024-06-07 01:47:28.459786,-1,0,16,0,2,0,81,82,131,100,38,123.98,344,-27.00,12.00,-965.00
2024-06-07 01:47:28.521801,0,0,16,0,2,0,81,82,132,100,38,124.08,344,-3.00,11.00,-1029.00
2024-06-07 01:47:28.599367,0,-1,16,0,2,0,81,82,132,100,38,124.09,344,-5.00,-5.00,-979.00
2024-06-07 01:47:28.757807,1,-4,16,0,2,0,81,82,133,100,38,124.12,344,0.00,-12.00,-1026.00
2024-06-07 01:47:28.802620,0,-4,16,0,1,0,80,83,132,100,38,124.16,344,4.00,7.00,-1006.00
2024-06-07 01:47:28.905237,0,-2,16,0,0,0,80,83,132,100,38,124.09,344,-2.00,13.00,-1020.00
2024-06-07 01:47:29.007270,0,-1,16,0,0,0,80,83,133,100,38,124.08,345,-4.00,15.00,-999.00
2024-06-07 01:47:29.108818,0,-1,16,0,0,0,80,83,132,100,38,124.15,345,11.00,0.00,-1004.00
2024-06-07 01:47:29.210806,0,-1,16,0,0,0,80,83,132,100,38,124.08,345,-18.00,22.00,-985.00
2024-06-07 01:47:29.312919,0,-1,16,0,0,0,80,83,132,100,38,124.12,345,15.00,21.00,-1024.00
2024-06-07 01:47:29.414580,0,-1,16,0,0,0,80,83,132,100,38,124.12,345,-4.00,10.00,-997.00
2024-06-07 01:47:29.516776,0,-1,16,0,0,0,80,83,132,100,38,124.12,345,-4.00,16.00,-1012.00
2024-06-07 01:47:29.619107,0,-1,16,0,0,0,80,83,132,100,38,124.10,345,-4.00,10.00,-990.00
2024-06-07 01:47:29.720674,0,0,16,0,0,0,80,83,132,100,38,124.06,345,-17.00,24.00,-987.00
2024-06-07 01:47:29.882612,0,0,16,0,0,0,80,83,132,100,38,124.09,345,-4.00,20.00,-1019.00
2024-06-07 01:47:29.924787,0,0,16,0,0,0,80,83,131,100,38,124.04,345,6.00,8.00,-999.00
2024-06-07 01:47:30.092581,0,0,16,0,0,0,80,83,131,100,38,124.08,346,9.00,11.00,-1013.00
2024-06-07 01:47:30.128699,0,0,16,0,0,0,80,83,130,100,38,124.08,346,1.00,22.00,-1016.00
2024-06-07 01:47:30.230690,0,0,16,0,0,0,80,83,131,100,38,124.10,346,0.00,14.00,-1014.00
2024-06-07 01:47:30.394582,0,0,16,0,0,0,80,83,130,100,38,124.11,346,14.00,-1.00,-985.00
2024-06-07 01:47:30.434937,0,0,16,0,0,0,80,83,130,100,38,124.09,346,-8.00,16.00,-997.00
2024-06-07 01:47:30.599407,0,0,16,0,0,0,80,83,129,100,38,124.09,346,-3.00,0.00,-974.00
2024-06-07 01:47:30.638913,0,0,16,0,0,0,80,83,129,100,38,124.07,346,-8.00,7.00,-994.00
2024-06-07 01:47:30.804532,0,0,16,0,0,0,80,83,129,100,38,124.11,346,-7.00,6.00,-1016.00
2024-06-07 01:47:30.842537,0,0,16,0,0,0,81,82,129,100,38,124.12,346,14.00,4.00,-1012.00
2024-06-07 01:47:30.944882,0,0,16,0,0,0,81,82,129,100,38,124.08,346,-4.00,20.00,-1020.00
2024-06-07 01:47:31.111157,0,0,17,0,0,0,81,82,129,100,38,124.09,347,-12.00,17.00,-1005.00
2024-06-07 01:47:31.148452,0,0,23,0,0,0,81,82,130,100,38,124.13,347,-22.00,10.00,-1016.00
2024-06-07 01:47:31.316047,0,0,29,0,0,0,81,82,130,100,38,124.05,347,30.00,3.00,-997.00
2024-06-07 01:47:31.352417,0,0,35,0,0,0,81,82,129,100,37,124.13,347,2.00,13.00,-984.00
2024-06-07 01:47:31.520819,0,0,42,0,0,0,81,82,129,100,37,124.07,347,4.00,2.00,-994.00
2024-06-07 01:47:31.557693,0,0,48,0,0,0,81,82,128,100,37,124.05,347,-8.00,19.00,-1011.00
2024-06-07 01:47:31.658560,0,0,54,0,0,0,81,82,127,100,37,124.08,347,13.00,7.00,-998.00
2024-06-07 01:47:31.830656,0,0,60,0,0,0,81,82,126,100,37,124.03,347,8.00,3.00,-998.00
2024-06-07 01:47:31.862466,0,0,66,0,0,0,80,83,125,100,37,124.06,347,-14.00,7.00,-985.00
2024-06-07 01:47:32.032727,0,0,73,0,0,0,80,83,125,100,37,124.06,347,-12.00,15.00,-1009.00
2024-06-07 01:47:32.066360,0,0,79,0,0,0,80,83,124,100,37,124.04,348,11.00,2.00,-1012.00
2024-06-07 01:47:32.168399,0,0,85,0,0,0,80,83,124,100,37,124.03,348,-13.00,17.00,-1019.00
2024-06-07 01:47:32.339848,0,0,91,0,0,0,80,83,123,100,37,124.05,348,3.00,6.00,-996.00
2024-06-07 01:47:32.340095,0,0,97,0,0,0,80,83,123,100,37,124.03,348,15.00,10.00,-1018.00
2024-06-07 01:47:32.423846,0,0,103,0,0,0,80,83,123,100,37,123.97,348,-14.00,33.00,-1013.00
2024-06-07 01:47:32.525335,0,0,110,0,0,0,80,83,123,100,37,124.00,348,-3.00,11.00,-1005.00
2024-06-07 01:47:32.648379,0,0,116,0,0,0,80,83,122,100,37,124.05,348,0.00,6.00,-1005.00
2024-06-07 01:47:32.729387,0,0,122,0,0,0,80,83,123,100,37,124.01,348,-16.00,26.00,-1033.00
2024-06-07 01:47:32.831695,0,0,128,0,0,0,80,83,124,100,37,124.09,348,3.00,-3.00,-988.00
2024-06-07 01:47:32.933297,0,0,134,0,0,0,80,83,124,100,37,124.14,348,-15.00,22.00,-1012.00
2024-06-07 01:47:33.056725,0,0,140,0,0,0,80,83,124,100,37,124.10,349,-3.00,14.00,-1006.00
2024-06-07 01:47:33.137717,0,0,146,0,0,0,80,83,124,100,37,124.03,349,-8.00,20.00,-1005.00
2024-06-07 01:47:33.261509,0,0,152,0,0,0,80,83,124,100,37,124.14,349,5.00,14.00,-994.00
2024-06-07 01:47:33.341289,0,0,158,0,0,0,80,83,124,100,37,124.11,349,-24.00,34.00,-1003.00
2024-06-07 01:47:33.443362,0,0,164,0,0,0,80,83,124,100,37,124.08,349,-5.00,22.00,-1017.00
2024-06-07 01:47:33.568641,0,0,170,0,0,0,80,83,125,100,37,124.12,349,-8.00,12.00,-959.00
2024-06-07 01:47:33.648188,0,0,176,0,0,0,80,83,125,100,37,124.11,349,-15.00,34.00,-1031.00
2024-06-07 01:47:33.773566,0,0,-177,0,0,0,80,83,125,100,37,124.10,349,-2.00,22.00,-995.00
2024-06-07 01:47:33.853676,0,0,-171,0,0,0,80,82,125,100,37,124.09,349,16.00,7.00,-1006.00
2024-06-07 01:47:33.954392,0,0,-165,0,0,0,80,82,126,100,37,124.08,349,-25.00,25.00,-1020.00
2024-06-07 01:47:34.081143,0,0,-159,0,0,0,80,82,126,100,37,124.08,350,-7.00,23.00,-1007.00
2024-06-07 01:47:34.158097,0,0,-153,0,0,0,80,82,126,100,37,124.14,350,-5.00,31.00,-977.00
2024-06-07 01:47:34.285482,0,0,-147,0,0,0,80,82,127,100,37,124.08,350,-5.00,23.00,-991.00
2024-06-07 01:47:34.362384,0,0,-141,0,0,0,80,82,127,100,37,124.07,350,13.00,21.00,-1006.00
2024-06-07 01:47:34.490326,0,0,-135,0,0,0,80,82,127,100,37,124.14,350,9.00,2.00,-996.00
2024-06-07 01:47:34.566164,0,0,-129,0,0,0,80,82,127,100,37,124.15,350,6.00,18.00,-1003.00
2024-06-07 01:47:34.695770,0,0,-123,0,0,0,80,82,128,100,37,124.09,350,-8.00,23.00,-992.00
2024-06-07 01:47:34.771353,0,0,-117,0,0,0,80,82,127,100,37,124.10,350,-6.00,29.00,-989.00
2024-06-07 01:47:34.909571,0,0,-111,0,0,0,80,82,128,100,37,124.12,350,11.00,7.00,-994.00
2024-06-07 01:47:34.974077,0,0,-105,0,0,0,80,82,129,100,37,124.08,350,0.00,19.00,-993.00
2024-06-07 01:47:35.087232,0,0,-99,0,0,0,80,82,128,100,37,124.14,351,-12.00,31.00,-1016.00
2024-06-07 01:47:35.178101,0,0,-93,0,0,0,80,82,128,100,37,124.09,351,-3.00,26.00,-999.00
2024-06-07 01:47:35.311536,0,0,-87,0,0,0,80,82,128,100,37,124.07,351,12.00,-1.00,-988.00
2024-06-07 01:47:35.382774,0,0,-81,0,0,0,80,82,128,100,36,124.08,351,-10.00,24.00,-991.00
2024-06-07 01:47:35.514219,0,0,-75,0,0,0,80,82,128,100,36,124.11,351,11.00,9.00,-975.00
2024-06-07 01:47:35.586052,0,0,-69,0,0,0,80,82,129,100,36,124.07,351,10.00,9.00,-1011.00
2024-06-07 01:47:35.637349,0,0,-63,0,0,0,80,82,128,100,36,124.07,351,-3.00,11.00,-996.00
2024-06-07 01:47:35.739026,0,0,-57,0,0,0,80,82,128,100,36,124.08,351,-3.00,18.00,-1017.00
2024-06-07 01:47:35.923769,0,0,-45,0,0,0,80,83,128,100,36,124.07,351,26.00,-2.00,-972.00
2024-06-07 01:47:35.993953,0,0,-39,0,0,0,80,83,128,100,36,124.09,352,11.00,-13.00,-976.00
2024-06-07 01:47:36.128626,0,0,-34,0,0,0,80,83,128,100,36,124.10,352,-10.00,10.00,-1002.00
2024-06-07 01:47:36.209395,0,0,-28,0,0,0,80,83,128,100,36,124.14,352,-5.00,3.00,-968.00
2024-06-07 01:47:36.300070,0,0,-22,0,0,0,80,83,128,100,36,124.05,352,7.00,2.00,-982.00
2024-06-07 01:47:36.351184,0,0,-16,0,0,0,80,83,128,100,36,124.10,352,-2.00,9.00,-1005.00
2024-06-07 01:47:36.538080,0,0,-10,0,0,0,80,83,128,100,36,124.09,352,-4.00,20.00,-984.00
2024-06-07 01:47:36.555286,0,0,-4,0,0,0,80,83,128,100,36,124.13,352,-2.00,6.00,-999.00
2024-06-07 01:47:36.742930,0,0,0,0,0,0,80,83,128,100,36,124.07,352,-4.00,19.00,-1025.00
2024-06-07 01:47:36.758878,0,0,4,0,0,0,80,83,128,100,36,124.06,352,-16.00,24.00,-998.00
2024-06-07 01:47:36.953202,0,0,7,0,0,0,80,83,128,100,36,124.08,352,-6.00,3.00,-1005.00
2024-06-07 01:47:36.962945,0,0,9,0,0,0,80,83,127,100,36,124.08,353,-18.00,14.00,-976.00
2024-06-07 01:47:37.156589,0,0,10,0,0,0,80,83,127,100,36,124.09,353,2.00,0.00,-1008.00
2024-06-07 01:47:37.166983,0,0,12,0,0,0,80,83,128,100,36,124.12,353,0.00,7.00,-998.00
2024-06-07 01:47:37.357277,0,0,12,0,0,0,80,83,128,100,36,124.06,353,-15.00,3.00,-997.00
2024-06-07 01:47:37.372006,0,0,13,0,0,0,80,83,127,100,36,124.15,353,0.00,3.00,-1015.00
2024-06-07 01:47:37.562071,0,0,14,0,0,0,80,83,127,100,36,124.14,353,-19.00,17.00,-974.00
2024-06-07 01:47:37.575011,0,0,14,0,0,0,80,83,128,100,36,124.17,353,-19.00,19.00,-985.00
2024-06-07 01:47:37.677387,0,0,14,0,0,0,80,83,128,100,36,124.09,353,-13.00,2.00,-1005.00
2024-06-07 01:47:37.779327,0,0,14,0,0,0,80,83,128,100,36,124.08,353,-14.00,-8.00,-987.00
2024-06-07 01:47:37.881087,0,0,14,0,0,0,80,83,128,100,36,124.15,353,-18.00,1.00,-970.00
2024-06-07 01:47:38.074754,0,0,14,0,0,0,80,83,127,100,36,124.13,354,-1.00,-3.00,-947.00
2024-06-07 01:47:38.085078,0,0,14,0,0,0,80,83,128,100,36,124.07,354,-2.00,4.00,-999.00
2024-06-07 01:47:38.187351,0,0,14,0,0,0,80,83,127,100,36,124.12,354,4.00,6.00,-1018.00
2024-06-07 01:47:38.381502,0,0,14,0,0,0,80,83,128,100,36,124.13,354,-3.00,-4.00,-969.00
2024-06-07 01:47:38.392613,0,0,14,0,0,0,80,83,129,100,35,124.15,354,18.00,-9.00,-1004.00
2024-06-07 01:47:38.492888,0,0,14,0,0,0,80,83,129,100,35,124.05,354,-2.00,0.00,-980.00
2024-06-07 01:47:38.689677,0,0,14,0,0,0,80,83,128,100,35,124.10,354,-19.00,4.00,-976.00
2024-06-07 01:47:38.697095,0,0,14,0,0,0,80,83,129,100,35,124.15,354,19.00,3.00,-1016.00
2024-06-07 01:47:38.895548,0,0,14,0,0,0,80,83,128,100,35,124.08,354,-8.00,10.00,-1012.00
2024-06-07 01:47:38.901175,0,0,14,0,0,0,80,82,128,100,35,124.12,354,-12.00,-2.00,-989.00
2024-06-07 01:47:39.103988,0,0,14,0,0,0,80,82,127,100,35,124.13,355,-11.00,-4.00,-967.00
2024-06-07 01:47:39.104881,0,0,14,0,0,0,80,82,128,100,35,124.13,355,-7.00,7.00,-1011.00
2024-06-07 01:47:39.303452,0,0,14,0,0,0,80,82,128,100,35,124.19,355,-2.00,12.00,-1017.00
2024-06-07 01:47:39.308784,0,0,14,0,0,0,80,82,127,100,35,124.16,355,-11.00,8.00,-1003.00
2024-06-07 01:47:39.410928,0,0,14,0,0,0,80,82,127,100,35,124.13,355,4.00,-5.00,-978.00
2024-06-07 01:47:39.566405,0,0,14,0,0,0,80,82,127,100,35,124.06,355,7.00,-8.00,-941.00
2024-06-07 01:47:39.614912,0,0,14,0,0,0,80,82,128,100,35,124.14,355,-4.00,2.00,-998.00
2024-06-07 01:47:39.716764,0,0,14,0,0,0,80,82,128,100,35,124.16,355,0.00,0.00,-1025.00
2024-06-07 01:47:39.818738,0,0,8,0,0,0,80,82,129,100,35,124.15,355,10.00,-20.00,-1010.00
2024-06-07 01:47:40.019701,0,0,2,0,0,0,80,82,130,100,35,124.19,355,7.00,-13.00,-992.00
2024-06-07 01:47:40.022687,0,0,-4,0,0,0,80,82,130,100,35,124.16,356,9.00,-8.00,-999.00
2024-06-07 01:47:40.125148,0,0,-10,0,0,0,80,82,131,100,35,124.13,356,7.00,7.00,-1009.00
2024-06-07 01:47:40.176296,0,0,-16,0,0,0,80,82,132,100,35,124.15,356,-6.00,8.00,-999.00
2024-06-07 01:47:40.326826,0,0,-22,0,0,0,80,82,131,100,35,124.17,356,3.00,0.00,-966.00
2024-06-07 01:47:40.381364,0,0,-28,0,0,0,80,82,132,100,35,124.11,356,2.00,-3.00,-977.00
2024-06-07 01:47:40.484009,0,0,-34,0,0,0,80,82,132,100,35,124.09,356,-18.00,11.00,-972.00
2024-06-07 01:47:40.585229,0,0,-40,0,0,0,80,82,132,100,35,124.10,356,-7.00,18.00,-998.00
2024-06-07 01:47:40.685674,0,0,-46,0,0,0,80,82,131,100,35,124.15,356,-7.00,10.00,-969.00
2024-06-07 01:47:40.787621,0,0,-52,0,0,0,80,82,131,100,35,124.07,356,8.00,11.00,-998.00
2024-06-07 01:47:40.941265,0,0,-58,0,0,0,80,82,131,100,35,124.09,356,0.00,16.00,-1011.00
2024-06-07 01:47:40.992495,0,0,-64,0,0,0,80,82,130,100,35,124.08,357,-17.00,11.00,-1015.00
2024-06-07 01:47:41.110437,0,0,-71,0,0,0,80,82,130,100,35,124.15,357,6.00,17.00,-994.00
2024-06-07 01:47:41.195609,0,0,-77,0,0,0,80,82,129,100,35,124.12,357,11.00,5.00,-1006.00
2024-06-07 01:47:41.365082,0,0,-83,0,0,0,80,82,128,100,35,124.11,357,7.00,19.00,-1038.00
2024-06-07 01:47:41.478806,0,0,-89,0,0,0,80,82,128,100,35,124.06,357,17.00,27.00,-1022.00
2024-06-07 01:47:41.501499,0,0,-95,0,0,0,80,82,128,100,35,124.16,357,-17.00,22.00,-996.00
2024-06-07 01:47:41.668380,0,0,-101,0,0,0,80,82,127,100,35,124.07,357,10.00,-5.00,-971.00
2024-06-07 01:47:41.714771,0,0,-107,0,0,0,80,82,127,100,35,124.11,357,1.00,16.00,-1005.00
2024-06-07 01:47:41.826039,0,0,-113,0,0,0,80,82,126,100,35,124.10,357,15.00,3.00,-980.00
2024-06-07 01:47:41.984754,0,0,-119,0,0,0,81,82,125,100,35,124.08,357,4.00,15.00,-1004.00
2024-06-07 01:47:42.055325,0,0,-125,0,0,0,81,82,125,100,35,124.04,358,16.00,10.00,-982.00
2024-06-07 01:47:42.152767,0,0,-131,0,0,0,81,82,126,100,35,124.06,358,-12.00,26.00,-1041.00
2024-06-07 01:47:42.216763,0,0,-137,0,0,0,81,82,126,100,35,124.08,358,-6.00,18.00,-1013.00
2024-06-07 01:47:42.336106,0,0,-144,0,0,0,81,82,126,100,35,124.08,358,0.00,18.00,-1022.00
2024-06-07 01:47:42.420505,0,0,-150,0,0,0,81,82,128,100,35,124.03,358,11.00,8.00,-997.00
2024-06-07 01:47:42.590380,0,0,-156,0,0,0,81,82,128,100,35,124.09,358,-7.00,6.00,-978.00
2024-06-07 01:47:42.733701,0,0,-162,0,0,0,81,82,128,100,35,124.05,358,4.00,16.00,-977.00
2024-06-07 01:47:42.733751,0,0,-168,0,0,0,81,82,129,100,35,124.10,358,24.00,13.00,-987.00
2024-06-07 01:47:42.903476,0,0,-174,0,0,0,81,82,129,100,35,124.13,358,-7.00,21.00,-982.00
2024-06-07 01:47:43.040955,0,0,179,0,0,0,80,82,129,100,35,124.09,358,12.00,9.00,-991.00
2024-06-07 01:47:43.041402,0,0,173,0,0,0,80,82,129,100,35,124.13,359,-6.00,18.00,-994.00
2024-06-07 01:47:43.204796,0,0,167,0,0,0,80,82,129,100,35,124.09,359,0.00,21.00,-1031.00
2024-06-07 01:47:43.297510,0,0,161,0,0,0,80,82,129,100,35,124.10,359,-6.00,13.00,-977.00
2024-06-07 01:47:43.338255,0,0,155,0,0,0,80,82,129,100,34,124.09,359,-1.00,15.00,-1004.00
2024-06-07 01:47:43.440458,0,0,149,0,0,0,80,82,129,100,34,124.10,359,5.00,21.00,-1039.00
2024-06-07 01:47:43.544647,0,0,143,0,0,0,80,82,130,100,34,124.11,359,1.00,17.00,-1020.00
2024-06-07 01:47:43.644846,0,0,137,0,0,0,80,82,130,100,34,124.14,359,-14.00,16.00,-965.00
2024-06-07 01:47:43.695293,0,0,131,0,0,0,80,82,130,100,34,124.08,359,-9.00,11.00,-995.00
2024-06-07 01:47:43.810911,0,0,125,0,0,0,80,82,130,100,34,124.06,359,-21.00,25.00,-981.00
2024-06-07 01:47:44.013039,0,0,119,0,0,0,80,82,129,100,34,124.09,359,1.00,11.00,-974.00
2024-06-07 01:47:44.013101,0,0,113,0,0,0,80,82,129,100,34,124.08,360,-2.00,14.00,-998.00
2024-06-07 01:47:44.103870,0,0,107,0,0,0,80,82,129,100,34,124.09,360,1.00,15.00,-1007.00
2024-06-07 01:47:44.217849,0,0,101,0,0,0,80,82,129,100,34,124.09,360,-12.00,14.00,-978.00
2024-06-07 01:47:44.307375,0,0,95,0,0,0,80,82,128,100,34,124.15,360,-12.00,26.00,-1000.00
2024-06-07 01:47:44.425015,0,0,89,0,0,0,80,82,128,100,34,124.14,360,-5.00,16.00,-1025.00
2024-06-07 01:47:44.511353,0,0,83,0,0,0,80,82,128,100,34,124.12,360,11.00,5.00,-1011.00
2024-06-07 01:47:44.627459,0,0,78,0,0,0,80,82,128,100,34,124.08,360,-28.00,29.00,-994.00
2024-06-07 01:47:44.715426,0,0,72,0,0,0,80,82,127,100,34,124.14,360,8.00,12.00,-1007.00
2024-06-07 01:47:44.833094,0,0,66,0,0,0,80,82,128,100,34,124.14,360,0.00,3.00,-979.00
2024-06-07 01:47:44.921617,0,0,60,0,0,0,80,83,127,100,34,124.11,360,1.00,2.00,-999.00
2024-06-07 01:47:45.021249,0,0,54,0,0,0,80,83,128,100,34,124.08,361,23.00,3.00,-1015.00
2024-06-07 01:47:45.139751,0,0,48,0,0,0,80,83,127,100,34,124.11,361,12.00,0.00,-957.00
2024-06-07 01:47:45.225415,0,0,42,0,0,0,80,83,127,100,34,124.08,361,5.00,4.00,-1005.00
2024-06-07 01:47:45.344212,0,0,36,0,0,0,80,83,127,100,34,124.12,361,-1.00,13.00,-1043.00
2024-06-07 01:47:45.434122,0,0,31,0,0,0,80,83,127,100,34,124.09,361,7.00,-2.00,-956.00
2024-06-07 01:47:45.533993,0,0,27,0,0,0,80,83,127,100,34,124.15,361,-10.00,20.00,-1031.00
2024-06-07 01:47:45.634552,0,0,24,0,0,0,80,83,128,100,34,124.08,361,15.00,9.00,-1038.00
2024-06-07 01:47:45.753713,0,0,22,0,0,0,80,83,128,100,34,124.14,361,5.00,-1.00,-984.00
2024-06-07 01:47:45.840121,0,0,20,0,0,0,80,83,128,100,34,124.10,361,-5.00,9.00,-986.00
2024-06-07 01:47:45.940548,0,0,19,0,0,0,80,82,129,100,34,124.09,361,0.00,9.00,-995.00
2024-06-07 01:47:46.041762,0,0,18,0,0,0,80,82,129,100,34,124.11,362,6.00,0.00,-982.00
2024-06-07 01:47:46.144763,0,0,17,0,0,0,80,82,129,100,34,124.14,362,9.00,0.00,-988.00
2024-06-07 01:47:46.245198,0,0,16,0,0,0,80,82,129,100,34,124.11,362,-3.00,6.00,-994.00
2024-06-07 01:47:46.368614,0,0,16,0,0,0,80,82,129,100,34,124.12,362,16.00,11.00,-1020.00
2024-06-07 01:47:46.449304,0,0,16,0,0,0,80,82,129,100,34,124.17,362,0.00,8.00,-1001.00
2024-06-07 01:47:46.573042,0,0,16,0,0,0,80,82,129,100,34,124.13,362,4.00,18.00,-1030.00
2024-06-07 01:47:46.653188,0,0,16,0,0,0,80,82,129,100,34,124.15,362,18.00,-4.00,-988.00
2024-06-07 01:47:46.777867,0,0,16,0,0,0,80,82,129,100,34,124.13,362,-32.00,4.00,-967.00
2024-06-07 01:47:46.857937,0,0,16,0,0,0,80,82,129,100,34,124.08,362,-3.00,12.00,-994.00
2024-06-07 01:47:46.982625,0,0,16,0,0,0,80,82,128,100,34,124.09,362,14.00,1.00,-986.00
2024-06-07 01:47:47.064826,0,0,16,0,0,0,80,82,128,100,34,124.09,363,15.00,0.00,-998.00
2024-06-07 01:47:47.163700,0,0,16,0,0,0,80,82,128,100,34,124.04,363,-10.00,14.00,-1036.00
2024-06-07 01:47:47.290113,0,0,16,0,0,0,80,82,128,100,34,124.14,363,-3.00,6.00,-990.00
2024-06-07 01:47:47.370249,0,0,16,0,0,0,80,82,127,100,33,124.14,363,-4.00,6.00,-995.00
2024-06-07 01:47:47.469234,0,0,16,0,0,0,80,82,128,100,33,124.09,363,-8.00,14.00,-1031.00
2024-06-07 01:47:47.597086,0,0,16,0,0,0,80,82,127,100,33,124.11,363,18.00,-1.00,-1028.00
2024-06-07 01:47:47.673131,0,0,16,0,0,0,80,82,127,100,33,124.12,363,-6.00,4.00,-996.00
2024-06-07 01:47:47.801892,0,0,16,0,0,0,80,82,127,100,33,124.09,363,-5.00,6.00,-1001.00
2024-06-07 01:47:47.826054,0,0,16,0,0,0,80,82,127,100,33,124.13,363,7.00,5.00,-1019.00
2024-06-07 01:47:48.006752,0,0,16,0,0,0,80,82,127,100,33,124.09,363,-14.00,27.00,-1022.00
2024-06-07 01:47:48.031799,0,0,16,0,0,0,80,82,127,100,33,124.07,364,8.00,10.00,-1031.00
2024-06-07 01:47:48.132548,0,0,16,0,0,0,80,82,127,100,33,124.08,364,5.00,7.00,-1015.00
2024-06-07 01:47:48.313942,0,0,16,0,0,0,80,82,127,100,33,124.08,364,5.00,0.00,-975.00
2024-06-07 01:47:48.336068,0,0,16,0,0,0,80,82,127,100,33,124.06,364,10.00,2.00,-1018.00
2024-06-07 01:47:48.437999,0,0,16,0,0,0,80,82,126,100,33,124.10,364,-8.00,4.00,-989.00
2024-06-07 01:47:48.621315,0,0,16,0,0,0,80,82,127,100,33,124.05,364,-3.00,10.00,-1004.00
2024-06-07 01:47:48.642002,0,0,16,0,0,0,80,82,126,100,33,124.13,364,-16.00,17.00,-1008.00
2024-06-07 01:47:48.825753,0,0,16,0,0,0,80,82,127,100,33,124.04,364,2.00,2.00,-995.00
2024-06-07 01:47:48.847161,0,0,16,0,0,0,80,82,126,100,33,124.06,364,3.00,0.00,-977.00
2024-06-07 01:47:49.031222,0,0,16,0,0,0,79,82,126,100,33,124.16,364,6.00,6.00,-998.00
2024-06-07 01:47:49.050231,0,0,16,0,0,0,79,82,126,100,33,124.14,365,11.00,12.00,-1031.00
2024-06-07 01:47:49.152303,0,0,16,0,0,0,79,82,126,100,33,124.07,365,-15.00,16.00,-982.00
2024-06-07 01:47:49.338070,0,0,16,0,0,0,79,82,126,100,33,124.09,365,-8.00,4.00,-988.00
2024-06-07 01:47:49.355940,0,0,16,0,0,0,79,82,126,100,33,124.10,365,-4.00,9.00,-1008.00
2024-06-07 01:47:49.457916,0,0,16,0,0,0,79,82,126,100,33,124.08,365,4.00,10.00,-1018.00
2024-06-07 01:47:49.645930,0,0,16,0,0,0,79,82,125,100,33,124.07,365,-13.00,12.00,-1000.00
2024-06-07 01:47:49.661934,0,0,16,0,0,0,79,82,126,100,33,124.14,365,4.00,11.00,-980.00
2024-06-07 01:47:49.853485,0,0,16,0,0,0,79,82,126,100,33,124.10,365,-8.00,12.00,-1002.00
2024-06-07 01:47:49.866006,0,0,16,0,0,0,79,82,126,100,33,124.04,365,-1.00,4.00,-1012.00
2024-06-07 01:47:50.054514,0,0,16,0,0,0,80,82,126,100,33,124.09,366,6.00,-2.00,-1003.00
2024-06-07 01:47:50.070892,0,0,16,0,0,0,80,82,125,100,33,124.03,366,-22.00,13.00,-983.00
2024-06-07 01:47:50.261788,0,0,16,0,0,0,80,82,125,100,33,124.07,366,-2.00,9.00,-988.00
2024-06-07 01:47:50.273993,0,0,16,0,0,0,80,82,125,100,33,124.10,366,7.00,9.00,-1038.00
2024-06-07 01:47:50.378159,0,0,16,0,0,0,80,82,125,100,33,124.05,366,-5.00,11.00,-1017.00
2024-06-07 01:47:50.477936,0,0,16,0,0,0,80,82,126,100,33,124.09,366,-22.00,23.00,-1010.00
2024-06-07 01:47:50.670182,0,0,16,0,0,0,80,82,125,100,33,124.08,366,8.00,12.00,-1008.00
2024-06-07 01:47:50.681803,0,0,16,0,0,0,80,82,126,100,33,124.08,366,-14.00,13.00,-988.00
2024-06-07 01:47:50.873577,0,0,16,0,0,0,80,82,127,100,33,123.99,366,0.00,11.00,-1017.00
2024-06-07 01:47:50.886851,0,0,16,0,0,0,80,82,127,100,33,124.09,366,19.00,7.00,-1000.00
2024-06-07 01:47:50.987818,0,0,16,0,0,0,80,82,128,100,33,124.11,367,-2.00,13.00,-996.00
2024-06-07 01:47:51.182572,0,0,16,0,0,0,80,82,128,100,33,124.18,367,9.00,8.00,-982.00
2024-06-07 01:47:51.191804,0,0,16,0,0,0,80,82,129,100,33,124.20,367,-10.00,10.00,-988.00
2024-06-07 01:47:51.385712,0,0,16,0,0,0,80,82,129,100,33,124.13,367,-3.00,19.00,-1024.00
2024-06-07 01:47:51.395744,0,0,16,0,0,0,80,82,130,100,32,124.09,367,2.00,0.00,-970.00
2024-06-07 01:47:51.590444,0,0,16,0,0,0,80,82,129,100,32,124.16,367,0.00,0.00,-961.00
2024-06-07 01:47:51.600756,0,0,16,0,0,0,80,82,128,100,32,124.15,367,-3.00,2.00,-956.00
2024-06-07 01:47:51.795748,0,0,16,0,0,0,80,82,128,100,32,124.16,367,2.00,-5.00,-1006.00
2024-06-07 01:47:51.795983,0,0,16,0,0,0,80,82,129,100,32,124.13,367,10.00,8.00,-1032.00
2024-06-07 01:47:51.855706,0,0,16,0,0,0,80,82,129,100,32,124.15,367,5.00,9.00,-1016.00
2024-06-07 01:47:52.009097,0,0,16,0,0,0,80,82,129,100,32,124.06,368,-11.00,13.00,-996.00
2024-06-07 01:47:52.060694,0,0,16,0,0,0,80,82,128,100,32,124.17,368,6.00,14.00,-1031.00
2024-06-07 01:47:52.204839,0,0,16,0,0,0,80,82,128,100,32,124.16,368,-12.00,6.00,-978.00
2024-06-07 01:47:52.263716,0,0,16,0,0,0,80,82,128,100,32,124.13,368,17.00,9.00,-996.00
2024-06-07 01:47:52.409616,0,0,16,0,0,0,80,82,129,100,32,124.14,368,-16.00,12.00,-983.00
2024-06-07 01:47:52.467790,0,0,16,0,0,0,80,82,128,100,32,124.14,368,0.00,-2.00,-982.00
2024-06-07 01:47:52.615247,0,0,16,0,0,0,80,82,129,100,32,124.09,368,9.00,-1.00,-979.00
2024-06-07 01:47:52.671694,0,0,16,0,0,0,80,82,128,100,32,124.09,368,2.00,5.00,-1026.00
2024-06-07 01:47:52.819182,0,0,16,0,0,0,80,82,129,100,32,124.08,368,-3.00,10.00,-1019.00
2024-06-07 01:47:52.875672,0,0,16,0,0,0,80,82,128,100,32,124.13,368,6.00,-2.00,-958.00
2024-06-07 01:47:53.024094,0,0,16,0,0,0,79,81,128,100,32,124.11,369,0.00,1.00,-1031.00
2024-06-07 01:47:53.082597,0,0,16,0,0,0,79,81,128,100,32,124.14,369,-10.00,11.00,-1023.00
2024-06-07 01:47:53.182529,0,0,16,0,0,0,79,81,128,100,32,124.15,369,-7.00,9.00,-1032.00
2024-06-07 01:47:53.283609,0,0,16,0,0,0,79,81,129,100,32,124.17,369,-6.00,-2.00,-974.00
2024-06-07 01:47:53.386056,0,0,16,0,0,0,79,81,128,100,32,124.16,369,0.00,-11.00,-978.00
2024-06-07 01:47:53.487748,0,0,16,0,0,0,79,81,128,100,32,124.07,369,-14.00,-10.00,-983.00
2024-06-07 01:47:53.638267,0,0,16,0,0,0,79,81,128,100,32,124.16,369,3.00,2.00,-990.00
2024-06-07 01:47:53.693109,0,0,16,0,0,0,79,81,128,100,32,124.07,369,-7.00,7.00,-1010.00
2024-06-07 01:47:53.795041,0,0,16,0,0,0,79,81,128,100,32,124.16,369,-5.00,6.00,-1023.00
2024-06-07 01:47:53.897498,0,0,16,0,0,0,79,81,128,100,32,124.12,369,4.00,-9.00,-1004.00
2024-06-07 01:47:53.997835,0,0,16,0,0,0,79,82,128,100,32,124.11,370,-29.00,16.00,-1024.00
2024-06-07 01:47:54.150237,0,0,16,0,0,0,79,82,129,100,32,124.11,370,9.00,-8.00,-974.00
2024-06-07 01:47:54.201688,0,0,16,0,0,0,79,82,128,100,32,124.12,370,-18.00,6.00,-1033.00
2024-06-07 01:47:54.355379,0,0,16,0,0,0,79,82,129,100,32,124.17,370,-16.00,8.00,-1049.00
2024-06-07 01:47:54.405497,0,0,16,0,0,0,79,82,129,100,32,124.19,370,-20.00,13.00,-963.00
2024-06-07 01:47:54.508599,0,0,16,0,0,0,79,82,129,100,32,124.17,370,-5.00,0.00,-979.00
2024-06-07 01:47:54.662187,0,0,16,0,0,0,79,82,128,100,32,124.16,370,-5.00,0.00,-1011.00
2024-06-07 01:47:54.713042,0,0,16,0,0,0,79,82,128,100,32,124.13,370,3.00,-4.00,-1001.00
2024-06-07 01:47:54.867008,0,0,16,0,0,0,79,82,128,100,32,124.11,370,-4.00,4.00,-993.00
2024-06-07 01:47:54.916543,0,0,16,0,0,0,79,82,128,100,32,124.16,370,-8.00,8.00,-1008.00
2024-06-07 01:47:55.072088,0,0,16,0,0,0,80,83,127,100,32,124.11,371,-25.00,4.00,-993.00
2024-06-07 01:47:55.120498,0,0,16,0,0,0,80,83,126,100,32,124.15,371,-15.00,9.00,-1001.00
2024-06-07 01:47:55.276722,-1,0,16,0,0,0,80,83,126,100,32,124.22,371,-23.00,16.00,-970.00
2024-06-07 01:47:55.324483,-1,0,16,0,0,0,80,83,126,100,32,124.14,371,-6.00,12.00,-999.00
2024-06-07 01:47:55.376161,0,0,16,0,0,0,80,83,124,100,31,124.09,371,-9.00,15.00,-1031.00
2024-06-07 01:47:55.478136,0,0,16,0,0,0,80,83,124,100,31,124.12,371,-7.00,-2.00,-973.00
2024-06-07 01:47:55.583873,0,0,16,0,0,0,80,83,123,100,31,124.08,371,-1.00,7.00,-1019.00
2024-06-07 01:47:55.681491,0,0,16,0,0,0,80,83,122,100,31,124.14,371,-12.00,10.00,-997.00
2024-06-07 01:47:55.783797,0,0,16,0,0,0,80,83,121,100,31,124.06,371,5.00,8.00,-1015.00
2024-06-07 01:47:55.885397,0,0,16,0,0,0,80,83,121,100,31,124.08,371,-23.00,10.00,-986.00
2024-06-07 01:47:55.993386,0,0,16,0,0,0,80,82,120,100,31,124.06,372,-44.00,8.00,-971.00
2024-06-07 01:47:56.112408,0,0,16,0,0,0,80,82,120,90,31,124.05,372,-12.00,19.00,-1020.00
2024-06-07 01:47:56.191399,0,0,16,0,0,0,80,82,120,90,31,124.07,372,-22.00,10.00,-996.00
2024-06-07 01:47:56.295706,-1,0,16,0,0,0,80,82,120,90,31,124.14,372,-15.00,6.00,-998.00
2024-06-07 01:47:56.460944,-1,0,16,0,0,0,80,82,120,90,31,124.07,372,-1.00,8.00,-1030.00
2024-06-07 01:47:56.504028,0,0,16,0,0,0,80,82,121,90,31,124.14,372,-12.00,8.00,-1015.00
2024-06-07 01:47:56.607886,0,0,16,0,0,0,80,82,121,90,31,124.07,372,-4.00,8.00,-1003.00
2024-06-07 01:47:56.702488,0,0,16,0,0,0,80,82,122,100,31,124.06,372,-22.00,8.00,-1013.00
2024-06-07 01:47:56.909886,0,0,16,0,0,0,80,82,122,100,31,124.12,372,-9.00,6.00,-984.00
2024-06-07 01:47:56.910067,0,0,16,0,0,0,80,82,123,100,31,124.08,372,5.00,-4.00,-957.00
2024-06-07 01:47:57.079056,0,0,16,0,0,0,80,82,123,100,31,124.07,373,-3.00,9.00,-1034.00
2024-06-07 01:47:57.109244,0,0,16,0,0,0,80,82,124,100,31,124.07,373,0.00,10.00,-1006.00
2024-06-07 01:47:57.223303,0,0,16,0,0,0,80,82,124,100,31,124.18,373,-1.00,16.00,-1040.00
2024-06-07 01:47:57.336646,0,0,16,0,0,0,80,82,125,100,31,124.13,373,-11.00,4.00,-985.00
2024-06-07 01:47:57.482896,0,0,16,0,0,0,80,82,125,100,31,124.17,373,-14.00,7.00,-995.00
2024-06-07 01:47:57.517840,0,0,16,0,0,0,80,82,126,100,31,124.16,373,-23.00,12.00,-998.00
2024-06-07 01:47:57.642989,-1,0,16,0,0,0,80,82,127,100,31,124.10,373,-6.00,6.00,-1007.00
2024-06-07 01:47:57.785962,-1,0,16,0,0,0,80,82,128,100,31,124.13,373,-10.00,0.00,-970.00
2024-06-07 01:47:57.824986,-1,0,16,0,0,0,80,82,129,100,31,124.14,373,-6.00,4.00,-962.00
2024-06-07 01:47:57.954800,-1,0,16,0,0,0,80,82,129,100,31,124.12,373,8.00,-5.00,-977.00
2024-06-07 01:47:58.097988,0,0,16,0,0,0,79,82,130,100,31,124.10,374,-1.00,0.00,-1005.00
2024-06-07 01:47:58.129260,0,0,16,0,0,0,79,82,131,100,31,124.17,374,-16.00,5.00,-953.00
2024-06-07 01:47:58.256973,0,0,16,0,0,0,79,82,132,100,31,124.16,374,12.00,-7.00,-977.00
2024-06-07 01:47:58.400485,0,0,16,0,0,0,79,82,133,100,31,124.13,374,-7.00,1.00,-926.00
2024-06-07 01:47:58.435100,0,0,16,0,0,0,79,82,133,100,31,124.13,374,1.00,5.00,-977.00
2024-06-07 01:47:58.564145,0,0,16,0,0,0,79,82,134,100,31,124.13,374,-12.00,-2.00,-997.00
2024-06-07 01:47:58.710005,0,0,16,0,0,0,79,82,134,100,31,124.17,374,-24.00,2.00,-983.00
2024-06-07 01:47:58.749593,0,0,16,0,0,0,79,82,135,100,31,124.24,374,-9.00,3.00,-994.00
2024-06-07 01:47:58.871604,0,0,16,0,0,0,79,82,135,100,31,124.16,374,-2.00,7.00,-1002.00
2024-06-07 01:47:58.945809,0,-1,16,0,0,0,79,82,135,100,31,124.24,374,-5.00,3.00,-994.00
2024-06-07 01:47:59.065423,0,0,16,0,0,0,79,82,137,100,31,124.27,375,15.00,9.00,-1019.00
2024-06-07 01:47:59.149853,0,0,16,0,0,0,79,82,137,100,31,124.20,375,0.00,9.00,-1037.00
2024-06-07 01:47:59.251265,0,0,16,0,0,0,79,82,138,110,31,124.20,375,-3.00,0.00,-996.00
2024-06-07 01:47:59.353423,0,0,16,0,0,0,79,82,138,110,30,124.19,375,-21.00,18.00,-1014.00
2024-06-07 01:47:59.476594,0,0,16,0,0,0,79,82,139,110,30,124.27,375,-1.00,13.00,-1000.00
2024-06-07 01:47:59.557057,0,-1,16,0,0,0,79,82,140,110,30,124.24,375,-19.00,6.00,-961.00
2024-06-07 01:47:59.659135,0,-1,16,0,0,0,79,82,141,110,30,124.25,375,4.00,-2.00,-944.00
2024-06-07 01:47:59.710072,0,-1,16,0,0,0,79,82,140,110,30,124.20,375,-8.00,14.00,-990.00
2024-06-07 01:47:59.884647,0,-1,16,0,0,0,79,82,140,110,30,124.24,375,-17.00,7.00,-972.00
2024-06-07 01:47:59.914086,0,-1,16,0,0,0,79,82,139,110,30,124.17,375,8.00,16.00,-998.00
2024-06-07 01:48:00.089186,0,-1,16,0,0,0,80,82,138,110,30,124.21,376,-4.00,9.00,-995.00
2024-06-07 01:48:00.117860,0,-1,16,0,0,0,80,82,137,110,30,124.19,376,-18.00,14.00,-1004.00
2024-06-07 01:48:00.293886,0,-1,16,0,0,0,80,82,137,110,30,124.18,376,-11.00,16.00,-1024.00
2024-06-07 01:48:00.321971,0,-1,16,0,0,0,80,82,135,110,30,124.11,376,5.00,0.00,-1012.00
2024-06-07 01:48:00.498744,0,0,16,0,0,0,80,82,135,100,30,124.18,376,-12.00,12.00,-1008.00
2024-06-07 01:48:00.525909,0,0,16,0,0,0,80,82,133,100,30,124.14,376,-18.00,15.00,-1012.00
2024-06-07 01:48:00.703731,0,0,16,0,0,0,80,82,132,100,30,124.15,376,-15.00,19.00,-1004.00
2024-06-07 01:48:00.734190,0,-1,16,0,0,0,80,82,131,100,30,124.10,376,-7.00,17.00,-1034.00
2024-06-07 01:48:00.831927,0,-1,16,0,0,0,80,82,130,100,30,124.19,376,9.00,10.00,-990.00
2024-06-07 01:48:01.010621,0,-1,16,0,0,0,80,82,128,100,30,124.09,376,10.00,14.00,-1045.00
2024-06-07 01:48:01.035787,0,-1,16,0,0,0,80,82,125,100,30,124.15,377,0.00,16.00,-976.00
2024-06-07 01:48:01.215428,0,0,16,0,0,1,80,82,123,100,30,124.08,377,-11.00,14.00,-956.00
2024-06-07 01:48:01.239793,0,0,16,0,0,2,80,82,121,100,30,124.03,377,-8.00,22.00,-968.00
2024-06-07 01:48:01.420232,0,0,16,0,0,2,80,82,117,90,30,123.96,377,-37.00,19.00,-912.00
2024-06-07 01:48:01.444116,0,0,16,0,0,3,80,82,113,90,30,124.02,377,-14.00,16.00,-925.00
2024-06-07 01:48:01.627645,0,0,16,0,0,4,80,82,108,90,30,123.93,377,-17.00,29.00,-924.00
2024-06-07 01:48:01.648112,0,0,16,0,0,5,80,82,102,80,30,123.91,377,-18.00,15.00,-908.00
2024-06-07 01:48:01.830938,0,0,16,0,0,6,80,82,95,80,30,123.71,377,-21.00,22.00,-956.00
2024-06-07 01:48:01.851747,0,0,16,0,0,6,80,82,88,70,30,123.70,377,5.00,4.00,-984.00
2024-06-07 01:48:02.035401,0,0,16,0,0,7,80,82,81,60,30,123.58,377,-17.00,16.00,-1009.00
2024-06-07 01:48:02.055683,0,0,16,0,0,6,80,82,74,50,30,123.51,378,-29.00,17.00,-1043.00
2024-06-07 01:48:02.239380,0,0,16,0,0,6,80,82,68,50,30,123.56,378,-15.00,5.00,-1017.00
2024-06-07 01:48:02.259903,0,0,16,0,0,6,80,82,63,40,30,123.50,378,-7.00,2.00,-1023.00
2024-06-07 01:48:02.444989,0,0,16,0,0,5,80,82,58,40,30,123.42,378,-11.00,1.00,-1011.00
2024-06-07 01:48:02.463709,0,0,16,0,0,5,80,82,53,30,30,123.45,378,-18.00,17.00,-1071.00
2024-06-07 01:48:02.648952,0,0,16,0,0,5,80,82,48,20,30,123.45,378,-6.00,10.00,-1032.00
