TS,pitch,roll,yaw,vgx,vgy,vgz,templ,temph,tof,h,bat,baro,time,agx,agy,agz
2024-06-07 01:48:19.460720,0,0,18,0,0,0,82,84,10,0,29,122.89,381,-1.00,8.00,-996.00
2024-06-07 01:48:19.550794,0,0,18,0,0,0,82,84,10,0,29,122.89,381,0.00,9.00,-997.00
2024-06-07 01:48:19.652881,0,0,18,0,0,0,82,84,10,0,29,122.92,381,-1.00,9.00,-997.00
2024-06-07 01:48:19.852371,0,0,18,0,0,0,82,84,10,0,29,122.93,381,-1.00,7.00,-999.00
2024-06-07 01:48:19.856685,0,0,18,0,0,0,82,84,10,0,29,122.92,381,-1.00,9.00,-999.00
2024-06-07 01:48:20.056530,0,0,18,0,0,0,82,84,10,0,29,122.89,381,-1.00,8.00,-999.00
2024-06-07 01:48:20.060492,0,0,18,0,0,0,82,84,10,0,29,122.88,381,0.00,8.00,-1000.00
2024-06-07 01:48:20.162277,0,0,18,0,0,0,82,85,10,0,29,122.92,381,-2.00,7.00,-1000.00
2024-06-07 01:48:20.213316,0,0,18,0,0,0,82,85,10,0,29,122.95,381,0.00,8.00,-999.00
2024-06-07 01:48:20.315593,0,0,18,0,0,0,82,85,10,0,29,122.90,381,-1.00,8.00,-1000.00
2024-06-07 01:48:20.418355,0,0,18,0,0,0,82,85,10,0,29,122.89,381,-1.00,8.00,-1001.00
2024-06-07 01:48:20.520384,0,0,18,0,0,0,82,85,10,0,29,122.88,381,-1.00,9.00,-1000.00
2024-06-07 01:48:20.670756,0,0,18,0,0,0,82,85,10,0,29,122.95,381,-2.00,9.00,-1002.00
2024-06-07 01:48:20.724018,0,0,18,0,0,0,82,85,10,0,29,122.91,381,0.00,8.00,-999.00
2024-06-07 01:48:20.875545,0,0,18,0,0,0,82,85,10,0,29,122.94,381,0.00,8.00,-1000.00
2024-06-07 01:48:20.927258,0,0,18,0,0,0,82,85,10,0,29,122.81,381,-1.00,8.00,-1000.00
2024-06-07 01:48:21.029267,0,0,18,0,0,0,82,85,10,0,29,122.86,381,-1.00,7.00,-998.00
2024-06-07 01:48:21.131341,0,0,18,0,0,0,82,84,10,0,29,122.87,381,-1.00,10.00,-999.00
2024-06-07 01:48:21.233008,0,0,18,0,0,0,82,84,10,0,29,122.87,381,0.00,9.00,-999.00
2024-06-07 01:48:21.387271,0,0,18,0,0,0,82,84,10,0,29,122.86,381,-1.00,8.00,-1001.00
2024-06-07 01:48:21.437389,0,0,18,0,0,0,82,84,10,0,29,122.86,381,-4.00,10.00,-1001.00
2024-06-07 01:48:21.539024,0,0,18,0,0,0,82,84,10,0,29,122.86,381,4.00,11.00,-995.00
2024-06-07 01:48:21.695096,0,0,18,0,0,0,82,84,10,0,29,122.86,381,-24.00,6.00,-999.00
2024-06-07 01:48:21.743060,0,0,17,0,0,0,82,84,10,0,29,122.86,381,23.00,-12.00,-1006.00
2024-06-07 01:48:21.899234,0,0,17,0,0,0,82,84,10,0,29,122.86,381,0.00,2.00,-1048.00
2024-06-07 01:48:21.949000,0,0,16,0,0,0,82,84,10,0,29,122.86,381,1.00,2.00,-1168.00
2024-06-07 01:48:22.049008,-1,0,17,0,0,0,82,84,10,0,29,122.86,381,-4.00,11.00,-1281.00
2024-06-07 01:48:22.206817,0,0,16,0,0,-3,82,84,11,0,29,122.86,381,15.00,15.00,-1234.00
2024-06-07 01:48:22.253913,1,-1,17,0,0,-5,82,84,19,0,29,123.03,381,-16.00,12.00,-1185.00
2024-06-07 01:48:22.355080,1,-1,17,0,0,-6,82,84,28,0,29,123.16,382,16.00,4.00,-1036.00
2024-06-07 01:48:22.457613,0,0,17,0,0,-6,82,84,37,0,29,123.41,382,-19.00,11.00,-991.00
2024-06-07 01:48:22.561249,0,0,17,0,0,-6,82,84,45,0,29,123.49,382,17.00,-2.00,-990.00
2024-06-07 01:48:22.661059,0,0,17,0,0,-6,82,84,54,10,29,123.60,382,0.00,-2.00,-950.00
2024-06-07 01:48:22.763355,0,0,17,0,0,-6,82,84,61,20,29,123.54,382,7.00,5.00,-934.00
2024-06-07 01:48:22.864958,0,0,16,0,0,-5,82,84,70,20,29,123.67,382,1.00,15.00,-915.00
2024-06-07 01:48:22.966994,0,0,16,0,0,-4,82,84,77,30,29,123.78,382,-3.00,4.00,-893.00
2024-06-07 01:48:23.103428,0,0,16,0,0,-3,82,84,84,30,29,123.86,382,11.00,0.00,-892.00
2024-06-07 01:48:23.170910,0,0,16,0,0,-2,82,84,89,40,29,123.91,382,2.00,9.00,-885.00
2024-06-07 01:48:23.332853,0,0,16,0,0,-1,82,84,93,40,29,123.91,382,10.00,-2.00,-888.00
2024-06-07 01:48:23.374944,0,0,16,0,0,0,82,84,96,40,29,123.99,383,6.00,4.00,-919.00
2024-06-07 01:48:23.537703,0,0,16,0,0,0,82,84,98,40,29,123.95,383,-7.00,21.00,-956.00
2024-06-07 01:48:23.579392,0,0,16,0,0,0,82,84,100,50,29,123.98,383,-11.00,2.00,-937.00
2024-06-07 01:48:23.681432,0,0,16,0,0,0,82,84,101,50,29,123.96,383,-1.00,3.00,-938.00
2024-06-07 01:48:23.844890,0,0,16,0,0,1,82,84,101,50,29,123.98,383,8.00,-4.00,-950.00
2024-06-07 01:48:23.844951,0,0,16,0,0,1,82,84,101,50,29,123.90,383,-5.00,10.00,-981.00
2024-06-07 01:48:23.935978,0,0,16,0,0,1,82,84,101,50,29,123.91,383,-20.00,14.00,-980.00
2024-06-07 01:48:24.049619,0,0,16,0,0,1,82,84,101,50,29,123.94,383,-17.00,6.00,-965.00
2024-06-07 01:48:24.139916,0,0,16,0,0,1,82,84,100,50,29,123.91,383,5.00,-1.00,-950.00
2024-06-07 01:48:24.259620,0,0,16,0,0,1,82,84,99,50,29,123.95,383,-2.00,-1.00,-993.00
2024-06-07 01:48:24.343783,0,0,16,0,0,1,82,84,97,50,29,123.93,384,-24.00,8.00,-974.00
2024-06-07 01:48:24.459825,0,0,16,0,0,1,82,84,96,50,29,123.90,384,-22.00,27.00,-996.00
2024-06-07 01:48:24.547797,0,0,16,0,0,1,82,84,95,50,29,123.91,384,7.00,-4.00,-976.00
2024-06-07 01:48:24.663981,0,0,16,0,0,1,82,84,93,50,29,123.95,384,0.00,3.00,-967.00
2024-06-07 01:48:24.759236,0,0,16,0,0,1,82,84,92,50,29,123.90,384,-13.00,7.00,-977.00
2024-06-07 01:48:24.853900,0,0,16,0,0,1,82,84,90,50,29,123.86,384,-11.00,4.00,-993.00
2024-06-07 01:48:24.971265,0,0,16,0,0,1,82,84,88,50,29,123.86,384,-14.00,6.00,-988.00
2024-06-07 01:48:25.057806,0,0,16,0,0,1,82,84,87,50,29,123.91,384,-23.00,1.00,-990.00
2024-06-07 01:48:25.177145,0,0,16,0,0,1,83,85,85,40,29,123.84,384,3.00,1.00,-982.00
2024-06-07 01:48:25.262135,0,0,16,0,0,1,83,85,83,40,29,123.79,385,-9.00,12.00,-1017.00
2024-06-07 01:48:25.380966,0,0,16,0,0,1,83,85,81,40,29,123.79,385,-2.00,5.00,-1017.00
2024-06-07 01:48:25.466405,0,0,16,0,0,1,83,85,79,40,29,123.78,385,-9.00,18.00,-994.00
2024-06-07 01:48:25.568839,0,0,16,0,0,0,83,85,77,40,29,123.78,385,15.00,-6.00,-961.00
2024-06-07 01:48:25.669818,0,0,16,0,0,1,83,85,76,40,29,123.72,385,-3.00,9.00,-1025.00
2024-06-07 01:48:25.790373,0,0,16,0,0,0,83,85,74,40,29,123.73,385,12.00,0.00,-1029.00
2024-06-07 01:48:25.875687,0,0,16,0,0,0,83,85,73,30,29,123.71,385,-2.00,1.00,-1024.00
2024-06-07 01:48:25.975734,0,0,16,0,0,0,83,85,72,30,29,123.77,385,4.00,3.00,-1055.00
2024-06-07 01:48:26.097967,0,0,16,0,0,0,83,85,71,30,29,123.68,385,12.00,3.00,-1042.00
2024-06-07 01:48:26.213489,0,0,16,0,0,0,83,85,71,30,29,123.72,385,-4.00,-10.00,-972.00
2024-06-07 01:48:26.405111,0,0,16,0,0,0,83,85,71,30,29,123.70,386,1.00,3.00,-1015.00
2024-06-07 01:48:26.482617,0,0,16,0,0,0,83,85,71,30,29,123.67,386,5.00,5.00,-1088.00
2024-06-07 01:48:26.485951,0,0,16,0,0,0,83,85,72,30,29,123.72,386,-1.00,13.00,-1021.00
2024-06-07 01:48:26.653529,0,0,16,0,0,0,83,85,72,30,29,123.74,386,3.00,-13.00,-978.00
2024-06-07 01:48:26.704308,0,0,16,0,0,0,83,85,73,30,29,123.74,386,-27.00,9.00,-1001.00
2024-06-07 01:48:26.829889,0,-1,16,0,0,0,83,85,73,30,29,123.76,386,-5.00,24.00,-1022.00
2024-06-07 01:48:26.893550,0,-1,16,0,0,0,83,85,74,30,29,123.72,386,-12.00,14.00,-977.00
2024-06-07 01:48:27.019383,0,-1,16,0,0,0,83,85,74,30,29,123.74,386,-25.00,29.00,-987.00
2024-06-07 01:48:27.144227,0,-1,16,0,0,0,83,85,74,30,29,123.74,386,-15.00,0.00,-940.00
2024-06-07 01:48:27.199688,0,-1,16,0,0,0,81,85,74,30,29,123.70,386,-19.00,17.00,-1039.00
2024-06-07 01:48:27.301579,0,-1,16,0,0,0,81,85,74,30,29,123.83,387,10.00,7.00,-994.00
2024-06-07 01:48:27.439528,0,-1,16,0,0,0,81,85,74,30,29,123.73,387,-24.00,16.00,-986.00
2024-06-07 01:48:27.633582,0,0,16,0,0,0,81,85,74,30,29,123.84,387,-17.00,13.00,-970.00
2024-06-07 01:48:27.746951,0,-1,16,0,0,0,81,85,75,30,29,123.75,387,0.00,15.00,-1029.00
2024-06-07 01:48:27.747432,0,-1,16,0,0,0,81,85,75,30,29,123.78,387,-6.00,7.00,-979.00
2024-06-07 01:48:27.761500,0,0,16,0,0,0,81,85,75,30,29,123.75,387,-10.00,13.00,-987.00
2024-06-07 01:48:27.890593,0,0,16,0,0,0,81,85,75,30,29,123.77,387,-20.00,11.00,-975.00
2024-06-07 01:48:28.053872,0,-1,16,0,0,0,81,85,75,30,29,123.72,387,-9.00,18.00,-1002.00
2024-06-07 01:48:28.068443,0,-1,16,0,0,0,81,85,75,30,29,123.79,387,3.00,5.00,-998.00
2024-06-07 01:48:28.209217,0,-1,16,0,0,0,81,84,74,30,29,123.74,387,-7.00,14.00,-1024.00
2024-06-07 01:48:28.274671,0,0,16,0,0,0,81,84,74,30,29,123.77,388,-26.00,3.00,-992.00
2024-06-07 01:48:28.373442,0,0,16,0,0,0,81,84,73,30,29,123.75,388,-1.00,15.00,-997.00
2024-06-07 01:48:28.555164,0,-1,16,0,0,0,81,84,73,30,29,123.69,388,9.00,4.00,-1013.00
2024-06-07 01:48:28.577629,0,0,16,0,0,0,81,84,73,30,29,123.73,388,-5.00,8.00,-976.00
2024-06-07 01:48:28.759799,0,0,16,0,0,0,81,84,73,30,29,123.73,388,7.00,9.00,-1001.00
2024-06-07 01:48:28.782867,0,0,16,0,0,0,81,84,73,30,29,123.75,388,12.00,4.00,-1015.00
2024-06-07 01:48:28.883428,0,0,16,0,0,0,81,84,73,30,29,123.74,388,7.00,3.00,-985.00
2024-06-07 01:48:29.067016,0,0,16,0,0,0,81,84,73,30,29,123.74,388,-14.00,1.00,-985.00
2024-06-07 01:48:29.087451,0,0,16,0,0,0,81,84,73,30,29,123.76,388,-2.00,11.00,-1002.00
2024-06-07 01:48:29.271823,0,0,17,0,0,0,82,84,74,30,29,123.70,388,9.00,6.00,-990.00
2024-06-07 01:48:29.291323,0,-1,17,0,0,0,82,84,75,30,29,123.70,389,2.00,17.00,-1014.00
2024-06-07 01:48:29.476588,0,-1,17,0,0,0,82,84,75,30,29,123.63,389,-12.00,20.00,-999.00
2024-06-07 01:48:29.498721,0,-1,17,0,0,0,82,84,75,30,29,123.73,389,-1.00,6.00,-952.00
2024-06-07 01:48:29.597811,0,0,17,0,0,0,82,84,75,30,29,123.71,389,-6.00,7.00,-982.00
2024-06-07 01:48:29.783841,0,0,17,0,0,0,82,84,75,30,29,123.71,389,-2.00,7.00,-1001.00
2024-06-07 01:48:29.802540,0,-1,17,0,0,0,82,84,74,30,29,123.70,389,-13.00,9.00,-986.00
2024-06-07 01:48:29.989897,0,-1,16,0,0,0,82,84,74,30,29,123.74,389,-2.00,10.00,-988.00
2024-06-07 01:48:30.005678,0,-1,16,0,0,0,82,84,74,30,29,123.69,389,-10.00,12.00,-988.00
2024-06-07 01:48:30.108428,0,0,16,0,0,0,82,84,74,30,29,123.75,389,-2.00,30.00,-1012.00
2024-06-07 01:48:30.296087,0,-1,16,0,0,0,82,84,74,30,29,123.71,389,17.00,0.00,-961.00
2024-06-07 01:48:30.311379,0,-1,16,0,0,0,82,84,74,30,29,123.69,390,-13.00,16.00,-1025.00
2024-06-07 01:48:30.500660,0,-1,16,0,0,0,82,84,74,30,29,123.70,390,-5.00,5.00,-991.00
2024-06-07 01:48:30.515395,0,-1,16,0,0,0,82,84,75,30,29,123.66,390,-13.00,18.00,-981.00
2024-06-07 01:48:30.617730,0,-1,16,0,0,0,82,84,74,30,29,123.70,390,17.00,1.00,-973.00
2024-06-07 01:48:30.807973,0,-1,16,0,0,0,82,84,75,30,29,123.65,390,-3.00,17.00,-1052.00
2024-06-07 01:48:30.821432,0,-1,16,0,0,0,82,84,75,30,29,123.67,390,2.00,8.00,-976.00
2024-06-07 01:48:31.012732,0,-1,16,0,0,0,82,84,75,30,29,123.75,390,0.00,9.00,-1014.00
2024-06-07 01:48:31.012943,0,0,16,0,0,0,82,84,75,30,29,123.82,390,-7.00,19.00,-1010.00
2024-06-07 01:48:31.086811,0,0,17,0,0,0,82,84,75,30,29,123.69,390,6.00,3.00,-1007.00
2024-06-07 01:48:31.229536,0,0,17,0,0,0,82,84,75,30,29,123.75,390,9.00,13.00,-1011.00
2024-06-07 01:48:31.422280,0,0,17,0,0,0,82,84,75,30,29,123.71,391,-11.00,18.00,-1015.00
2024-06-07 01:48:31.433340,0,0,17,0,0,0,82,84,75,30,29,123.71,391,-14.00,23.00,-1012.00
2024-06-07 01:48:31.626998,0,0,16,0,0,0,82,84,75,30,29,123.71,391,-4.00,14.00,-1005.00
2024-06-07 01:48:31.627228,0,0,16,0,0,0,82,84,75,30,29,123.73,391,0.00,5.00,-999.00
2024-06-07 01:48:31.688370,0,0,16,0,0,0,82,84,75,30,29,123.76,391,-4.00,15.00,-1004.00
2024-06-07 01:48:31.831859,0,0,16,0,0,0,82,84,74,30,29,123.63,391,0.00,10.00,-990.00
2024-06-07 01:48:31.892301,0,0,16,0,0,0,82,84,74,30,29,123.71,391,-11.00,22.00,-1018.00
2024-06-07 01:48:31.995095,0,0,16,0,0,0,82,84,74,30,29,123.73,391,0.00,0.00,-998.00
2024-06-07 01:48:32.096748,0,0,16,0,0,0,82,84,73,30,29,123.70,391,-15.00,14.00,-987.00
2024-06-07 01:48:32.198218,0,0,16,0,0,0,81,84,73,30,29,123.74,391,-1.00,25.00,-999.00
2024-06-07 01:48:32.343721,0,0,16,0,0,0,81,84,73,30,29,123.69,392,-5.00,17.00,-982.00
2024-06-07 01:48:32.402130,0,0,16,0,0,-1,81,84,75,30,29,123.77,392,-3.00,15.00,-1093.00
2024-06-07 01:48:32.548498,0,0,16,0,0,-2,81,84,78,40,29,123.79,392,12.00,11.00,-1147.00
2024-06-07 01:48:32.606000,0,0,17,0,0,-3,81,84,82,40,29,123.79,392,-5.00,4.00,-1093.00
2024-06-07 01:48:32.753557,0,0,17,0,0,-4,81,84,86,40,29,123.82,392,8.00,20.00,-1145.00
2024-06-07 01:48:32.810097,0,0,16,0,0,-5,81,84,91,50,29,123.91,392,-4.00,12.00,-1061.00
2024-06-07 01:48:32.958011,0,0,16,0,0,-5,81,84,96,50,29,124.03,392,-3.00,11.00,-1018.00
2024-06-07 01:48:33.014024,0,0,16,0,0,-5,81,84,101,60,29,124.08,392,-5.00,15.00,-1040.00
2024-06-07 01:48:33.116024,0,0,16,0,0,-5,81,84,106,60,29,124.04,392,-11.00,20.00,-1028.00
2024-06-07 01:48:33.267023,0,0,16,0,0,-5,81,84,112,70,29,124.06,392,-15.00,19.00,-1006.00
2024-06-07 01:48:33.320122,0,0,16,0,0,-5,81,84,117,80,29,124.14,393,-20.00,10.00,-968.00
2024-06-07 01:48:33.422521,0,0,16,0,0,-5,81,84,122,80,29,124.19,393,-20.00,20.00,-958.00
2024-06-07 01:48:33.525089,0,0,16,0,0,-5,81,84,127,90,29,124.21,393,0.00,10.00,-979.00
2024-06-07 01:48:33.627645,0,0,16,0,0,-4,81,84,131,90,29,124.34,393,3.00,13.00,-964.00
2024-06-07 01:48:33.729440,0,0,16,0,0,-4,81,84,135,100,29,124.31,393,-16.00,20.00,-980.00
2024-06-07 01:48:33.832337,0,0,16,0,0,-4,81,84,139,100,29,124.38,393,-4.00,20.00,-978.00
2024-06-07 01:48:33.934560,0,0,16,0,0,-3,81,84,143,100,29,124.47,393,0.00,9.00,-970.00
2024-06-07 01:48:34.036716,0,0,16,0,0,-3,81,84,146,110,29,124.41,393,-11.00,13.00,-977.00
2024-06-07 01:48:34.137429,0,0,16,0,0,-3,81,84,149,110,29,124.47,393,8.00,6.00,-972.00
2024-06-07 01:48:34.241482,0,0,16,0,0,-2,81,84,153,110,29,124.50,393,-2.00,22.00,-980.00
2024-06-07 01:48:34.341113,0,0,16,0,0,-2,81,84,156,110,29,124.52,394,14.00,0.00,-951.00
2024-06-07 01:48:34.493935,0,0,16,0,0,-2,81,84,157,120,29,124.52,394,16.00,2.00,-959.00
2024-06-07 01:48:34.544947,0,0,16,0,0,-2,81,84,160,120,29,124.52,394,11.00,1.00,-964.00
2024-06-07 01:48:34.648155,0,0,16,0,0,-1,81,84,161,120,29,124.48,394,0.00,6.00,-987.00
2024-06-07 01:48:34.801308,0,0,16,0,0,-1,81,84,163,120,29,124.55,394,-5.00,1.00,-965.00
2024-06-07 01:48:34.850905,0,0,16,0,0,-1,81,84,164,120,29,124.49,394,1.00,13.00,-1008.00
2024-06-07 01:48:35.005877,0,0,16,0,0,-1,81,84,166,130,29,124.57,394,-3.00,14.00,-972.00
2024-06-07 01:48:35.054970,0,0,16,0,0,-1,81,84,166,130,29,124.54,394,-7.00,16.00,-1003.00
2024-06-07 01:48:35.106679,0,0,16,0,0,0,81,84,168,130,29,124.49,394,-6.00,11.00,-973.00
2024-06-07 01:48:35.259299,0,0,16,0,0,0,82,84,168,130,29,124.68,394,0.00,3.00,-957.00
2024-06-07 01:48:35.313337,0,0,16,0,0,0,82,84,169,130,29,124.59,395,0.00,7.00,-986.00
2024-06-07 01:48:35.415682,0,0,16,0,0,0,82,84,171,130,29,124.58,395,-13.00,11.00,-976.00
2024-06-07 01:48:35.518169,0,0,16,0,0,0,82,84,171,130,29,124.62,395,-1.00,18.00,-998.00
2024-06-07 01:48:35.620464,0,0,16,0,0,0,82,84,171,130,29,124.61,395,-8.00,6.00,-996.00
2024-06-07 01:48:35.720641,0,0,16,0,0,0,82,84,172,130,29,124.64,395,-4.00,7.00,-986.00
2024-06-07 01:48:35.821018,0,0,16,0,0,0,82,84,172,130,29,124.62,395,-13.00,12.00,-1000.00
2024-06-07 01:48:35.927632,0,0,16,0,0,0,82,84,172,130,29,124.59,395,-20.00,15.00,-983.00
2024-06-07 01:48:36.025436,0,0,16,0,0,0,82,84,172,130,29,124.67,395,-8.00,7.00,-1003.00
2024-06-07 01:48:36.126977,0,0,16,0,0,0,82,84,173,130,29,124.64,395,14.00,10.00,-1010.00
2024-06-07 01:48:36.237032,0,0,16,0,0,0,81,84,174,130,29,124.67,395,-15.00,8.00,-986.00
2024-06-07 01:48:36.330958,0,0,16,0,0,0,81,84,174,130,29,124.63,396,-8.00,11.00,-989.00
2024-06-07 01:48:36.439612,0,0,16,0,0,0,81,84,174,130,29,124.67,396,-9.00,18.00,-1017.00
2024-06-07 01:48:36.535254,0,0,16,0,0,0,81,84,175,130,29,124.63,396,-13.00,23.00,-989.00
2024-06-07 01:48:36.636835,0,0,16,0,0,0,81,84,176,130,29,124.69,396,0.00,18.00,-984.00
2024-06-07 01:48:36.746743,0,0,16,0,0,0,81,84,176,130,29,124.64,396,-16.00,16.00,-1007.00
2024-06-07 01:48:36.842732,0,0,16,0,0,0,81,84,177,130,29,124.61,396,-4.00,15.00,-1002.00
2024-06-07 01:48:36.944824,0,0,16,0,0,0,81,84,177,130,29,124.59,396,-15.00,21.00,-995.00
2024-06-07 01:48:37.044904,0,0,16,0,0,0,81,84,177,130,29,124.67,396,5.00,0.00,-1003.00
2024-06-07 01:48:37.156318,0,0,16,0,0,0,81,84,177,130,29,124.64,396,-14.00,7.00,-933.00
2024-06-07 01:48:37.248880,0,0,16,0,0,0,81,83,177,130,29,124.64,396,7.00,26.00,-1066.00
2024-06-07 01:48:37.350876,0,0,16,0,0,0,81,83,177,130,29,124.71,397,-1.00,16.00,-990.00
2024-06-07 01:48:37.466218,0,0,16,0,0,0,81,83,178,130,29,124.70,397,-8.00,15.00,-977.00
2024-06-07 01:48:37.554947,0,0,16,0,0,0,81,83,178,130,29,124.70,397,-4.00,18.00,-951.00
2024-06-07 01:48:37.656800,0,-1,16,0,0,0,81,83,176,130,29,124.65,397,-4.00,11.00,-921.00
2024-06-07 01:48:37.771652,0,0,16,0,0,1,81,83,174,130,29,124.71,397,-34.00,8.00,-907.00
2024-06-07 01:48:37.860630,0,0,16,0,0,1,81,83,172,130,29,124.63,397,-17.00,22.00,-957.00
2024-06-07 01:48:37.975961,0,0,16,0,0,1,81,83,171,130,29,124.70,397,-27.00,18.00,-946.00
2024-06-07 01:48:38.064637,0,0,16,0,0,2,81,83,168,130,29,124.60,397,0.00,6.00,-934.00
2024-06-07 01:48:38.180224,0,0,16,0,0,2,81,83,165,130,29,124.55,397,-16.00,16.00,-1003.00
2024-06-07 01:48:38.268963,0,0,16,0,0,2,81,84,162,120,29,124.54,397,-17.00,26.00,-1012.00
2024-06-07 01:48:38.384986,0,0,16,0,0,2,81,84,159,120,29,124.50,398,-11.00,14.00,-992.00
2024-06-07 01:48:38.472630,0,0,16,0,0,3,81,84,155,120,29,124.40,398,-15.00,17.00,-974.00
2024-06-07 01:48:38.574730,0,0,16,0,0,3,81,84,153,110,29,124.41,398,0.00,13.00,-1004.00
2024-06-07 01:48:38.625675,0,0,16,0,0,3,81,84,150,110,29,124.40,398,-25.00,18.00,-1027.00
2024-06-07 01:48:38.782616,0,0,17,0,0,2,81,84,147,110,29,124.36,398,-5.00,11.00,-1003.00
2024-06-07 01:48:38.829595,0,0,16,0,0,2,81,84,145,100,29,124.32,398,-5.00,6.00,-1018.00
2024-06-07 01:48:38.932186,0,0,16,0,0,2,81,84,143,100,29,124.31,398,-12.00,14.00,-1008.00
2024-06-07 01:48:39.086871,0,0,16,0,0,2,81,84,141,100,29,124.29,398,-7.00,2.00,-990.00
2024-06-07 01:48:39.135639,0,0,16,0,0,2,81,84,139,100,29,124.23,398,0.00,16.00,-1034.00
2024-06-07 01:48:39.315171,0,0,16,0,0,1,81,83,138,100,29,124.20,398,-4.00,8.00,-968.00
2024-06-07 01:48:39.339967,0,0,16,0,0,1,81,83,136,100,29,124.25,399,-21.00,13.00,-1054.00
2024-06-07 01:48:39.511442,0,0,16,0,0,1,81,83,135,90,29,124.17,399,-2.00,8.00,-1009.00
2024-06-07 01:48:39.543856,0,0,16,0,0,0,81,83,134,90,29,124.20,399,-3.00,13.00,-1037.00
2024-06-07 01:48:39.645947,0,0,16,0,0,0,81,83,133,90,29,124.21,399,-5.00,6.00,-995.00
2024-06-07 01:48:39.819944,0,0,16,0,0,0,81,83,133,90,29,124.20,399,-8.00,12.00,-995.00
2024-06-07 01:48:39.849471,0,0,16,0,0,0,81,83,132,90,29,124.20,399,-24.00,22.00,-985.00
2024-06-07 01:48:40.023315,0,0,16,0,0,0,81,83,130,90,29,124.16,399,0.00,-3.00,-948.00
2024-06-07 01:48:40.053510,0,0,16,0,0,0,81,83,129,90,29,124.18,399,5.00,13.00,-1010.00
2024-06-07 01:48:40.159618,0,0,16,0,0,0,81,83,128,90,29,124.20,399,-13.00,26.00,-1033.00
2024-06-07 01:48:40.257647,0,0,16,0,0,0,81,83,128,90,29,124.11,399,-5.00,7.00,-993.00
2024-06-07 01:48:40.434678,0,0,16,0,0,0,81,83,127,90,29,124.15,400,2.00,11.00,-1040.00
2024-06-07 01:48:40.461614,0,0,16,0,0,0,81,83,126,90,29,124.12,400,-3.00,12.00,-1040.00
2024-06-07 01:48:40.640720,0,0,16,0,0,0,81,83,125,90,29,124.07,400,1.00,18.00,-1026.00
2024-06-07 01:48:40.671428,0,0,16,0,0,0,81,83,125,90,29,124.12,400,-2.00,13.00,-1014.00
2024-06-07 01:48:40.767649,0,0,16,0,0,0,81,83,124,90,29,124.11,400,11.00,8.00,-988.00
2024-06-07 01:48:40.944917,0,0,16,0,0,0,81,83,123,80,29,124.10,400,-20.00,19.00,-1043.00
2024-06-07 01:48:40.980351,0,0,16,0,0,0,81,83,123,80,29,124.08,400,-2.00,10.00,-1017.00
2024-06-07 01:48:41.116538,0,0,16,0,0,0,81,83,122,80,29,124.11,400,-12.00,17.00,-987.00
2024-06-07 01:48:41.458353,0,0,16,0,0,0,81,83,121,80,29,124.02,400,-6.00,10.00,-980.00
2024-06-07 01:48:41.541934,0,0,16,0,0,0,81,83,121,80,29,124.06,401,-12.00,9.00,-989.00
2024-06-07 01:48:41.543286,0,0,16,0,0,0,81,83,120,80,29,124.06,401,9.00,6.00,-1021.00
2024-06-07 01:48:41.543563,0,0,16,0,0,0,81,83,119,80,29,124.02,401,-4.00,13.00,-989.00
2024-06-07 01:48:41.614259,0,0,16,0,0,0,81,83,119,80,29,124.02,401,14.00,11.00,-1034.00
2024-06-07 01:48:41.721859,0,0,16,0,0,0,81,83,119,80,29,124.07,401,-12.00,10.00,-1011.00
2024-06-07 01:48:41.787542,0,0,16,0,0,0,81,83,119,80,29,124.05,401,0.00,16.00,-1022.00
2024-06-07 01:48:41.969024,0,0,16,0,0,0,81,83,119,80,29,124.04,401,-6.00,16.00,-1019.00
2024-06-07 01:48:42.049098,0,0,16,0,0,0,81,83,119,80,29,124.06,401,-5.00,11.00,-1016.00
2024-06-07 01:48:42.093385,0,0,16,0,0,0,81,83,119,80,29,124.08,401,8.00,6.00,-991.00
2024-06-07 01:48:42.235458,0,0,16,0,0,0,81,83,120,80,29,124.12,401,0.00,17.00,-973.00
2024-06-07 01:48:42.374721,0,0,16,0,0,0,80,83,120,80,29,124.11,402,10.00,-1.00,-973.00
2024-06-07 01:48:42.399372,-1,0,16,0,0,0,80,83,120,80,29,124.10,402,-6.00,22.00,-1039.00
2024-06-07 01:48:42.518080,-7,0,17,0,0,0,80,83,119,80,29,124.16,402,-22.00,10.00,-982.00
2024-06-07 01:48:42.661567,-8,0,17,1,0,0,80,83,121,80,29,124.09,402,-32.00,14.00,-998.00
2024-06-07 01:48:42.661664,-8,0,17,2,0,0,80,83,121,80,29,124.03,402,-38.00,9.00,-1016.00
2024-06-07 01:48:42.804882,-8,0,17,4,1,0,80,83,122,80,29,124.03,402,-13.00,8.00,-1007.00
2024-06-07 01:48:42.951789,-8,0,16,5,1,0,80,83,122,80,29,124.09,402,-30.00,-6.00,-956.00
2024-06-07 01:48:42.960164,-7,0,16,6,1,0,80,83,122,80,29,124.04,402,-43.00,13.00,-1024.00
2024-06-07 01:48:43.106103,-6,0,16,7,1,0,80,83,122,80,29,124.02,402,-55.00,11.00,-990.00
2024-06-07 01:48:43.265207,-5,0,16,7,2,0,80,83,122,80,29,124.09,402,-39.00,-5.00,-970.00
2024-06-07 01:48:43.267582,-3,0,16,8,2,0,80,83,122,80,29,124.04,403,-43.00,-9.00,-1008.00
2024-06-07 01:48:43.403490,0,0,16,7,2,0,80,83,124,80,29,124.08,403,-56.00,15.00,-1017.00
2024-06-07 01:48:43.470136,3,0,16,7,2,0,80,83,125,80,29,124.01,403,-39.00,14.00,-1030.00
2024-06-07 01:48:43.573454,4,0,16,6,2,0,80,83,127,80,29,124.03,403,-20.00,-1.00,-982.00
2024-06-07 01:48:43.675220,4,0,16,5,1,0,80,83,128,80,29,123.99,403,-37.00,-2.00,-998.00
2024-06-07 01:48:43.812146,3,0,17,4,1,0,80,83,128,90,29,124.14,403,-25.00,15.00,-1023.00
2024-06-07 01:48:43.879178,1,0,17,3,1,0,80,83,129,90,29,124.15,403,-18.00,23.00,-1027.00
2024-06-07 01:48:44.016856,1,0,17,3,0,0,80,83,129,90,29,124.17,403,-22.00,0.00,-956.00
2024-06-07 01:48:44.083116,0,0,17,2,1,0,80,83,129,90,29,124.24,403,-5.00,8.00,-989.00
2024-06-07 01:48:44.225116,0,-2,17,2,1,0,80,83,129,90,29,124.20,403,-20.00,11.00,-988.00
2024-06-07 01:48:44.287201,0,-2,17,2,0,0,81,83,130,90,29,124.20,404,-2.00,7.00,-982.00
2024-06-07 01:48:44.389508,0,-1,16,2,0,0,81,83,129,90,29,124.19,404,-28.00,18.00,-953.00
2024-06-07 01:48:44.528794,3,0,16,1,0,0,81,83,129,90,29,124.26,404,-13.00,18.00,-1005.00
2024-06-07 01:48:44.593148,3,0,16,1,0,0,81,83,128,90,29,124.21,404,-24.00,14.00,-1010.00
2024-06-07 01:48:44.695178,1,0,16,0,0,0,81,83,127,90,29,124.13,404,-5.00,18.00,-998.00
2024-06-07 01:48:44.797258,0,0,16,0,0,0,81,83,127,90,29,124.25,404,-12.00,8.00,-999.00
2024-06-07 01:48:44.899186,0,0,16,0,0,0,81,83,126,90,29,124.22,404,17.00,17.00,-1032.00
2024-06-07 01:48:45.047230,0,0,16,0,0,0,81,83,125,90,29,124.13,404,6.00,12.00,-992.00
2024-06-07 01:48:45.103229,0,0,16,0,0,0,81,83,126,90,29,124.18,404,-32.00,21.00,-1006.00
2024-06-07 01:48:45.245526,0,0,16,0,0,0,81,83,125,90,29,124.15,404,-12.00,1.00,-978.00
2024-06-07 01:48:45.307271,0,0,16,0,0,0,81,83,125,80,29,124.19,405,-8.00,16.00,-1025.00
2024-06-07 01:48:45.450336,0,0,16,0,0,0,81,83,125,80,28,124.21,405,25.00,-6.00,-1027.00
2024-06-07 01:48:45.511164,0,0,16,0,0,0,81,83,125,80,28,124.23,405,-9.00,20.00,-1050.00
2024-06-07 01:48:45.613127,0,0,16,0,0,0,81,83,126,80,28,124.23,405,10.00,5.00,-999.00
2024-06-07 01:48:45.757753,0,0,16,0,0,0,81,83,126,90,28,124.24,405,-23.00,18.00,-1020.00
2024-06-07 01:48:45.817410,0,0,16,0,0,0,81,83,127,90,28,124.18,405,-6.00,6.00,-985.00
2024-06-07 01:48:45.962404,-1,0,16,0,0,0,81,83,127,90,28,124.12,405,11.00,4.00,-1021.00
2024-06-07 01:48:46.021198,0,0,16,0,0,0,81,83,127,90,28,124.23,405,13.00,17.00,-996.00
2024-06-07 01:48:46.188979,0,0,16,0,0,0,81,83,127,90,28,124.21,405,-24.00,21.00,-982.00
2024-06-07 01:48:46.225203,0,0,16,0,0,0,81,83,127,90,28,124.11,405,10.00,6.00,-976.00
2024-06-07 01:48:46.372055,0,0,16,0,0,0,81,83,127,90,28,124.14,406,3.00,3.00,-966.00
2024-06-07 01:48:46.430887,0,0,16,0,0,0,81,83,127,90,28,124.16,406,0.00,14.00,-988.00
2024-06-07 01:48:46.531671,0,0,16,0,0,0,81,83,127,90,28,124.18,406,-14.00,24.00,-991.00
2024-06-07 01:48:46.632941,0,0,16,0,0,0,81,83,127,90,28,124.18,406,-10.00,29.00,-1034.00
2024-06-07 01:48:46.734900,0,0,16,0,0,0,81,83,125,90,28,124.16,406,-16.00,24.00,-1016.00
2024-06-07 01:48:46.785859,0,0,16,0,0,0,81,83,126,90,28,124.15,406,-12.00,11.00,-982.00
2024-06-07 01:48:46.993297,6,0,16,0,0,0,81,83,128,90,28,124.19,406,-4.00,6.00,-992.00
2024-06-07 01:48:46.993338,8,0,16,-1,0,0,81,83,128,90,28,124.18,406,0.00,9.00,-1000.00
2024-06-07 01:48:47.092389,8,0,16,-3,-1,0,81,83,128,90,28,124.17,406,1.00,0.00,-1007.00
2024-06-07 01:48:47.193977,8,0,16,-4,-1,0,81,83,128,90,28,124.21,406,13.00,9.00,-1022.00
2024-06-07 01:48:47.295774,7,0,16,-5,-1,0,80,83,127,90,27,124.20,407,44.00,0.00,-995.00
2024-06-07 01:48:47.398010,6,0,17,-6,-2,0,80,83,127,90,27,124.16,407,42.00,6.00,-995.00
2024-06-07 01:48:47.600630,5,0,16,-7,-2,0,80,83,126,90,27,124.08,407,35.00,6.00,-968.00
2024-06-07 01:48:47.604346,4,0,16,-7,-2,0,80,83,126,90,27,124.12,407,70.00,2.00,-999.00
2024-06-07 01:48:47.704973,2,0,16,-7,-2,0,80,83,127,90,27,124.19,407,35.00,12.00,-1004.00
2024-06-07 01:48:47.807151,-1,0,16,-7,-2,0,80,83,126,90,27,124.20,407,64.00,15.00,-1024.00
2024-06-07 01:48:48.010201,-3,0,16,-6,-1,0,80,83,127,90,27,124.14,407,68.00,-2.00,-975.00
2024-06-07 01:48:48.010844,-4,0,16,-5,-1,0,80,83,128,90,27,124.17,407,31.00,2.00,-994.00
2024-06-07 01:48:48.112627,-4,-1,16,-4,-1,0,80,83,129,90,27,124.19,407,29.00,8.00,-991.00
2024-06-07 01:48:48.214778,-2,-1,16,-4,-1,0,80,83,129,90,27,124.15,407,29.00,21.00,-988.00
2024-06-07 01:48:48.320403,-1,-1,16,-3,-1,0,80,83,129,90,27,124.19,408,27.00,20.00,-1025.00
2024-06-07 01:48:48.419520,0,0,16,-2,0,0,80,83,130,90,27,124.19,408,-2.00,8.00,-1006.00
2024-06-07 01:48:48.521818,0,1,16,-2,0,0,80,83,131,90,27,124.17,408,1.00,29.00,-986.00
2024-06-07 01:48:48.624799,0,0,16,-2,0,0,80,83,132,90,27,124.21,408,15.00,4.00,-994.00
2024-06-07 01:48:48.724741,0,0,16,-2,0,0,80,83,132,90,27,124.21,408,5.00,22.00,-980.00
2024-06-07 01:48:48.829440,-2,-1,16,-2,0,0,80,83,132,90,27,124.18,408,4.00,27.00,-966.00
2024-06-07 01:48:48.929007,-4,-2,17,-1,0,0,80,83,132,90,27,124.22,408,9.00,13.00,-1011.00
2024-06-07 01:48:49.030984,-2,-1,16,0,0,0,80,83,132,90,27,124.24,408,-6.00,13.00,-997.00
2024-06-07 01:48:49.137394,-1,-1,16,0,0,0,80,83,132,90,27,124.23,408,-6.00,13.00,-982.00
2024-06-07 01:48:49.234863,0,0,16,0,0,0,80,83,132,90,27,124.19,408,11.00,4.00,-977.00
2024-06-07 01:48:49.336918,0,0,16,0,0,0,81,83,131,90,27,124.21,409,-10.00,25.00,-1054.00
2024-06-07 01:48:49.438857,0,0,16,0,0,0,81,83,131,90,27,124.14,409,-5.00,2.00,-970.00
2024-06-07 01:48:49.546263,0,0,16,0,0,0,81,83,130,90,27,124.14,409,-7.00,13.00,-984.00
2024-06-07 01:48:49.642997,0,0,16,0,0,0,81,83,129,90,27,124.17,409,-7.00,4.00,-985.00
2024-06-07 01:48:49.751071,0,0,16,0,0,0,81,83,130,90,27,124.23,409,-6.00,19.00,-1032.00
2024-06-07 01:48:49.846900,0,0,16,0,0,0,81,83,130,90,27,124.25,409,0.00,14.00,-1032.00
2024-06-07 01:48:49.955925,0,0,16,0,0,0,81,83,131,90,27,124.23,409,-10.00,8.00,-985.00
2024-06-07 01:48:50.051147,0,0,16,0,0,0,81,83,131,90,27,124.26,409,-8.00,14.00,-1014.00
2024-06-07 01:48:50.161182,0,0,16,0,0,0,81,83,132,90,27,124.20,409,2.00,13.00,-1019.00
2024-06-07 01:48:50.255073,0,0,16,0,0,0,81,83,133,90,27,124.19,409,1.00,20.00,-1036.00
2024-06-07 01:48:50.365522,0,0,16,0,0,0,81,83,134,90,26,124.21,410,-11.00,25.00,-1027.00
2024-06-07 01:48:50.458703,0,-1,16,0,0,0,81,83,135,90,26,124.21,410,-4.00,6.00,-939.00
2024-06-07 01:48:50.509527,0,-1,16,0,0,0,81,83,135,90,26,124.23,410,-24.00,12.00,-970.00
2024-06-07 01:48:50.611746,0,-1,16,0,0,0,81,83,135,90,26,124.25,410,-6.00,13.00,-1024.00
2024-06-07 01:48:50.774979,0,-1,16,0,0,0,81,83,136,90,26,124.21,410,1.00,10.00,-950.00
2024-06-07 01:48:50.817034,0,-1,16,0,0,0,81,83,136,90,26,124.23,410,-11.00,11.00,-963.00
2024-06-07 01:48:50.979776,0,-1,16,0,0,0,81,83,135,90,26,124.21,410,-1.00,11.00,-998.00
2024-06-07 01:48:51.021276,0,-1,16,0,0,0,81,83,136,90,26,124.27,410,17.00,3.00,-955.00
2024-06-07 01:48:51.121488,0,0,16,0,0,0,81,83,135,90,26,124.16,410,7.00,27.00,-949.00
2024-06-07 01:48:51.286768,0,-5,16,0,0,0,81,83,136,90,26,124.11,410,2.00,1.00,-991.00
2024-06-07 01:48:51.326056,0,-8,16,0,-1,0,80,82,136,90,26,124.29,411,-8.00,15.00,-1010.00
2024-06-07 01:48:51.491610,0,-7,16,0,-2,0,80,82,135,90,26,124.20,411,2.00,36.00,-1047.00
2024-06-07 01:48:51.529526,0,-4,16,0,-3,0,80,82,135,90,26,124.25,411,-6.00,33.00,-1021.00
2024-06-07 01:48:51.631708,0,-2,16,1,-3,0,80,82,135,90,26,124.17,411,7.00,40.00,-999.00
2024-06-07 01:48:51.798782,0,0,16,1,-3,0,80,82,134,90,26,124.19,411,-3.00,35.00,-991.00
2024-06-07 01:48:51.835481,0,0,16,1,-3,0,80,82,133,90,26,124.21,411,-15.00,32.00,-956.00
2024-06-07 01:48:52.003782,0,0,16,0,-2,0,80,82,133,90,26,124.23,411,0.00,23.00,-992.00
2024-06-07 01:48:52.039582,0,0,16,0,-2,0,80,82,133,90,26,124.26,411,4.00,20.00,-992.00
2024-06-07 01:48:52.218149,0,-1,16,0,-2,0,80,82,131,90,26,124.17,411,0.00,24.00,-986.00
2024-06-07 01:48:52.243392,0,-1,16,0,-2,0,80,82,130,90,26,124.18,411,0.00,16.00,-978.00
2024-06-07 01:48:52.417859,0,-1,16,0,-2,0,80,82,129,90,25,124.15,412,-4.00,25.00,-1011.00
2024-06-07 01:48:52.447344,0,-1,16,0,-2,0,80,82,128,90,25,124.05,412,-9.00,26.00,-977.00
2024-06-07 01:48:52.617916,0,0,16,0,-2,0,80,82,127,90,25,124.16,412,2.00,25.00,-1011.00
2024-06-07 01:48:52.651403,1,0,16,0,-2,0,80,82,126,90,25,124.14,412,-5.00,23.00,-1014.00
2024-06-07 01:48:52.840390,0,0,17,0,-2,0,80,82,125,90,25,124.18,412,-7.00,27.00,-1032.00
2024-06-07 01:48:52.855332,0,0,17,0,-2,0,80,82,125,90,25,124.13,412,0.00,16.00,-1015.00
2024-06-07 01:48:53.031676,0,2,16,0,-2,0,80,82,125,90,25,124.13,412,20.00,23.00,-963.00
2024-06-07 01:48:53.059384,-1,3,16,0,-1,0,80,82,124,90,25,124.05,412,9.00,16.00,-1018.00
2024-06-07 01:48:53.233107,0,1,16,0,0,0,80,82,124,80,25,124.09,412,-4.00,20.00,-1037.00
2024-06-07 01:48:53.263890,0,0,16,0,0,0,80,82,123,80,25,124.05,412,8.00,15.00,-1016.00
2024-06-07 01:48:53.437925,0,0,16,0,0,0,80,82,123,80,25,124.05,413,-3.00,6.00,-1003.00
2024-06-07 01:48:53.467400,0,0,16,0,0,0,80,82,122,80,25,124.11,413,14.00,8.00,-1019.00
2024-06-07 01:48:53.569418,0,0,16,0,0,0,80,82,122,80,25,124.04,413,-4.00,10.00,-1018.00
2024-06-07 01:48:53.671534,0,0,16,0,0,0,80,82,122,80,25,124.09,413,-2.00,15.00,-1041.00
2024-06-07 01:48:53.849834,0,0,16,0,0,0,80,82,123,80,25,124.09,413,0.00,15.00,-1024.00
2024-06-07 01:48:53.875488,0,0,16,0,0,0,80,82,124,80,25,124.08,413,2.00,3.00,-962.00
2024-06-07 01:48:54.054631,0,0,16,0,0,0,80,82,124,80,25,124.11,413,-5.00,18.00,-1021.00
2024-06-07 01:48:54.054823,0,0,16,0,0,0,80,82,125,80,25,124.12,413,0.00,1.00,-1003.00
2024-06-07 01:48:54.130408,0,0,16,0,0,0,80,82,126,80,25,124.16,413,-4.00,4.00,-1002.00
2024-06-07 01:48:54.256307,0,0,16,0,0,0,80,82,127,90,25,124.19,413,-11.00,11.00,-968.00
2024-06-07 01:48:54.334418,0,0,16,0,0,0,80,82,127,90,25,124.17,414,5.00,-14.00,-994.00
2024-06-07 01:48:54.461268,0,0,16,0,0,0,80,82,128,90,25,124.24,414,13.00,0.00,-954.00
2024-06-07 01:48:54.538312,0,0,16,0,0,0,80,82,130,90,25,124.17,414,2.00,16.00,-1051.00
2024-06-07 01:48:54.640345,0,0,16,0,0,0,80,82,131,90,25,124.21,414,-14.00,19.00,-1041.00
2024-06-07 01:48:54.768438,0,0,16,0,0,0,80,82,131,90,25,124.19,414,-18.00,13.00,-975.00
2024-06-07 01:48:54.844292,0,0,16,0,0,0,80,82,133,90,25,124.19,414,-24.00,1.00,-992.00
2024-06-07 01:48:54.976664,0,0,16,0,0,0,80,82,133,90,25,124.23,414,-27.00,14.00,-975.00
2024-06-07 01:48:55.048655,0,-1,16,0,0,0,80,82,134,90,25,124.27,414,-11.00,20.00,-965.00
2024-06-07 01:48:55.151491,0,-1,16,0,0,0,80,82,134,90,25,124.21,414,9.00,6.00,-974.00
2024-06-07 01:48:55.252303,0,-1,16,0,0,0,80,82,133,90,25,124.25,414,8.00,-15.00,-970.00
2024-06-07 01:48:55.382646,0,8,16,0,1,0,80,83,134,90,24,124.17,415,0.00,23.00,-981.00
2024-06-07 01:48:55.456126,0,5,16,0,2,0,80,83,134,90,24,124.23,415,-2.00,-15.00,-981.00
2024-06-07 01:48:55.591567,1,3,16,0,3,0,80,83,132,90,24,124.18,415,9.00,-8.00,-990.00
2024-06-07 01:48:55.660157,0,0,16,0,3,0,80,83,131,90,24,124.18,415,20.00,-11.00,-1018.00
2024-06-07 01:48:55.797827,0,-1,16,-1,3,0,80,83,130,90,24,124.16,415,13.00,-22.00,-1021.00
2024-06-07 01:48:55.867422,0,-1,16,-1,3,0,80,83,130,90,24,124.17,415,12.00,-18.00,-1018.00
2024-06-07 01:48:55.966152,0,0,17,-1,2,0,80,83,130,90,24,124.17,415,0.00,0.00,-1025.00
2024-06-07 01:48:56.112307,0,0,17,-1,2,0,80,83,130,90,24,124.16,415,-17.00,-6.00,-1025.00
2024-06-07 01:48:56.170864,0,0,17,-1,2,0,80,83,129,90,24,124.20,415,7.00,-7.00,-1038.00
2024-06-07 01:48:56.318037,0,0,17,-1,2,0,80,83,129,90,24,124.16,416,4.00,-6.00,-1004.00
2024-06-07 01:48:56.426149,0,0,17,0,2,0,80,83,129,90,24,124.21,416,2.00,-4.00,-982.00
2024-06-07 01:48:56.487675,0,0,17,0,2,0,80,83,130,90,24,124.16,416,5.00,-5.00,-1016.00
2024-06-07 01:48:56.603139,0,0,17,0,2,0,80,83,130,90,24,124.20,416,3.00,-8.00,-974.00
2024-06-07 01:48:56.684834,1,0,17,0,2,0,80,83,131,90,24,124.15,416,-3.00,2.00,-1005.00
2024-06-07 01:48:56.782208,0,0,17,-1,2,0,80,83,131,90,24,124.18,416,-8.00,1.00,-1008.00
2024-06-07 01:48:56.940296,-2,-1,17,0,2,0,80,83,131,90,24,124.17,416,-8.00,-1.00,-989.00
2024-06-07 01:48:57.022635,0,-4,17,0,1,0,80,83,131,90,24,124.16,416,-11.00,-1.00,-967.00
2024-06-07 01:48:57.109224,0,-4,17,0,1,0,80,83,133,90,24,124.17,416,0.00,-24.00,-1010.00
2024-06-07 01:48:57.291701,0,-2,17,0,0,0,80,83,132,90,24,124.15,416,-5.00,0.00,-961.00
2024-06-07 01:48:57.292073,0,-1,17,0,0,0,80,83,132,90,24,124.24,417,-1.00,0.00,-1002.00
2024-06-07 01:48:57.431135,0,0,17,0,0,0,80,83,131,90,24,124.20,417,-8.00,14.00,-1009.00
2024-06-07 01:48:57.544005,0,0,17,0,0,0,80,83,131,90,24,124.13,417,14.00,6.00,-1004.00
2024-06-07 01:48:57.687734,0,0,17,0,0,0,80,83,131,90,24,124.22,417,23.00,-1.00,-973.00
2024-06-07 01:48:57.700013,0,0,17,0,0,0,80,83,131,90,24,124.22,417,-22.00,17.00,-985.00
2024-06-07 01:48:57.851095,0,0,17,0,0,0,80,83,130,90,24,124.24,417,26.00,8.00,-999.00
2024-06-07 01:48:57.994936,0,0,17,0,0,0,80,83,130,90,24,124.20,417,-19.00,16.00,-993.00
2024-06-07 01:48:57.995044,0,0,17,0,0,0,80,83,131,90,24,124.16,417,-11.00,4.00,-980.00
2024-06-07 01:48:58.158344,0,0,17,0,0,0,80,83,130,90,24,124.22,417,-2.00,14.00,-1005.00
2024-06-07 01:48:58.158988,0,0,17,0,0,0,80,83,129,90,24,124.16,417,-6.00,14.00,-1018.00
2024-06-07 01:48:58.314107,0,0,17,0,0,0,80,83,129,90,24,124.18,418,17.00,-1.00,-1003.00
2024-06-07 01:48:58.413980,0,0,17,0,0,0,80,82,129,90,23,124.16,418,-9.00,28.00,-1025.00
2024-06-07 01:48:58.464757,0,0,17,0,0,0,80,82,129,90,23,124.22,418,-2.00,9.00,-980.00
2024-06-07 01:48:58.662257,0,0,17,0,0,0,80,82,128,90,23,124.17,418,2.00,2.00,-985.00
2024-06-07 01:48:58.669082,0,0,17,0,0,0,80,82,128,90,23,124.15,418,-12.00,18.00,-1015.00
2024-06-07 01:48:58.870097,0,0,17,0,0,0,80,82,129,90,23,124.14,418,9.00,2.00,-992.00
2024-06-07 01:48:58.873319,0,0,17,0,0,0,80,82,128,90,23,124.17,418,-17.00,22.00,-1016.00
2024-06-07 01:48:59.069134,0,0,17,0,0,0,80,82,128,90,23,124.15,418,2.00,0.00,-995.00
2024-06-07 01:48:59.078767,0,0,17,0,0,0,80,82,127,90,23,124.15,418,-9.00,15.00,-1008.00
2024-06-07 01:48:59.178838,0,0,17,0,0,0,80,82,127,90,23,124.18,418,22.00,-1.00,-1010.00
2024-06-07 01:48:59.376299,0,0,18,0,0,0,80,82,127,90,23,124.12,419,33.00,-28.00,-989.00
2024-06-07 01:48:59.382715,0,0,24,0,0,0,80,82,128,90,23,124.13,419,3.00,18.00,-1092.00
2024-06-07 01:48:59.581140,0,0,30,0,0,0,80,82,127,90,23,124.16,419,-1.00,22.00,-1007.00
2024-06-07 01:48:59.586829,0,0,36,0,0,0,80,82,128,90,23,124.21,419,12.00,-5.00,-944.00
2024-06-07 01:48:59.688928,0,0,42,0,0,0,80,82,128,90,23,124.19,419,1.00,12.00,-1023.00
2024-06-07 01:48:59.888126,0,0,47,0,0,0,80,82,128,90,23,124.25,419,3.00,-1.00,-994.00
2024-06-07 01:48:59.897474,0,0,53,0,0,0,80,82,129,90,23,124.22,419,5.00,20.00,-1035.00
2024-06-07 01:48:59.994785,0,0,59,0,0,0,80,82,129,90,23,124.12,419,-12.00,1.00,-980.00
2024-06-07 01:49:00.195346,0,0,65,0,0,0,80,82,130,90,23,124.24,419,1.00,8.00,-1021.00
2024-06-07 01:49:00.198755,0,0,71,0,0,0,80,82,131,90,23,124.15,419,2.00,7.00,-978.00
2024-06-07 01:49:00.301737,0,0,77,0,0,0,80,82,131,90,23,124.15,420,8.00,22.00,-1001.00
2024-06-07 01:49:00.402715,0,0,83,0,0,0,80,82,131,90,23,124.23,420,-9.00,8.00,-1008.00
2024-06-07 01:49:00.504656,0,0,89,0,0,0,80,82,132,90,23,124.19,420,-5.00,10.00,-972.00
2024-06-07 01:49:00.608017,0,0,95,0,0,0,80,82,132,90,23,124.23,420,-16.00,13.00,-980.00
2024-06-07 01:49:00.709727,0,0,101,0,0,0,80,82,132,90,23,124.21,420,-10.00,2.00,-951.00
2024-06-07 01:49:00.811674,0,0,106,0,0,0,80,82,132,90,23,124.23,420,5.00,13.00,-1016.00
2024-06-07 01:49:00.913037,0,0,112,0,0,0,80,82,132,90,23,124.24,420,-11.00,11.00,-995.00
2024-06-07 01:49:01.019201,0,0,118,0,0,0,80,82,133,90,23,124.20,420,6.00,7.00,-1013.00
2024-06-07 01:49:01.119245,0,0,124,0,0,0,80,82,133,90,23,124.22,420,0.00,14.00,-1020.00
2024-06-07 01:49:01.219246,0,0,130,0,0,0,80,82,133,90,23,124.21,420,-4.00,4.00,-996.00
2024-06-07 01:49:01.322571,0,0,136,0,0,0,80,82,133,90,23,124.20,421,18.00,2.00,-1002.00
2024-06-07 01:49:01.423973,0,0,142,0,0,0,80,82,133,90,22,124.20,421,5.00,-8.00,-985.00
2024-06-07 01:49:01.529352,0,0,148,0,0,0,80,82,134,90,22,124.27,421,8.00,-4.00,-1002.00
2024-06-07 01:49:01.628696,0,0,154,0,0,0,80,82,134,90,22,124.32,421,12.00,-2.00,-991.00
2024-06-07 01:49:01.730866,0,0,160,0,0,0,80,82,134,90,22,124.22,421,4.00,-2.00,-970.00
2024-06-07 01:49:01.833682,0,0,166,0,0,0,80,82,134,90,22,124.28,421,2.00,-2.00,-960.00
2024-06-07 01:49:01.933660,0,0,172,0,0,0,80,82,134,90,22,124.14,421,-6.00,0.00,-969.00
2024-06-07 01:49:01.984698,0,0,178,0,0,0,80,82,135,90,22,124.19,421,-18.00,-1.00,-991.00
2024-06-07 01:49:02.145332,-1,0,-175,0,0,0,80,82,135,90,22,124.24,421,-9.00,16.00,-1048.00
2024-06-07 01:49:02.189800,-1,0,-169,0,0,0,80,82,135,90,22,124.25,421,-24.00,4.00,-952.00
2024-06-07 01:49:02.345634,-1,0,-163,0,0,0,80,82,135,90,22,124.19,422,0.00,14.00,-1032.00
2024-06-07 01:49:02.393916,0,0,-156,0,0,0,80,82,135,90,22,124.15,422,-14.00,3.00,-978.00
2024-06-07 01:49:02.551367,0,0,-150,0,0,0,80,82,135,90,22,124.22,422,-34.00,19.00,-963.00
2024-06-07 01:49:02.599130,0,0,-144,0,0,0,80,82,135,90,22,124.16,422,-16.00,15.00,-978.00
2024-06-07 01:49:02.700154,0,0,-138,0,0,0,80,82,134,90,22,124.20,422,-6.00,16.00,-1001.00
2024-06-07 01:49:02.801847,0,0,-132,0,0,0,80,82,134,90,22,124.18,422,-9.00,16.00,-993.00
2024-06-07 01:49:02.904335,0,0,-126,0,0,0,80,82,133,90,22,124.21,422,-16.00,11.00,-983.00
2024-06-07 01:49:03.005564,0,0,-119,0,0,0,80,82,132,90,22,124.19,422,-8.00,23.00,-997.00
2024-06-07 01:49:03.107476,0,0,-113,0,0,0,80,82,131,90,22,124.22,422,-6.00,-4.00,-977.00
2024-06-07 01:49:03.209552,0,0,-107,0,0,0,80,82,130,90,22,124.13,422,1.00,20.00,-1030.00
2024-06-07 01:49:03.314378,0,0,-101,0,0,0,80,82,129,90,22,124.13,423,6.00,4.00,-1002.00
2024-06-07 01:49:03.413428,0,0,-95,0,0,0,80,82,129,90,22,124.14,423,3.00,16.00,-1018.00
2024-06-07 01:49:03.515520,0,0,-89,0,0,0,80,82,128,90,22,124.15,423,-10.00,19.00,-1008.00
2024-06-07 01:49:03.618054,0,0,-83,0,0,0,80,82,128,90,22,124.23,423,3.00,21.00,-1031.00
2024-06-07 01:49:03.779153,0,0,-77,0,0,0,80,82,128,90,22,124.20,423,-15.00,20.00,-1014.00
2024-06-07 01:49:03.821491,0,0,-71,0,0,0,80,82,128,90,22,124.21,423,10.00,20.00,-1018.00
2024-06-07 01:49:03.923470,0,0,-65,0,0,0,80,82,127,90,22,124.17,423,11.00,10.00,-965.00
2024-06-07 01:49:04.025507,0,0,-59,0,0,0,80,82,127,90,22,124.22,423,0.00,11.00,-1000.00
2024-06-07 01:49:04.128097,0,0,-53,0,0,0,80,82,127,90,22,124.16,423,5.00,8.00,-985.00
2024-06-07 01:49:04.231277,0,0,-47,0,0,0,80,82,126,90,22,124.23,423,3.00,32.00,-1029.00
2024-06-07 01:49:04.335688,0,0,-41,0,0,0,80,82,126,90,22,124.17,424,0.00,26.00,-993.00
2024-06-07 01:49:04.436078,0,0,-35,0,0,0,80,82,126,90,22,124.14,424,8.00,20.00,-1016.00
2024-06-07 01:49:04.535441,0,0,-29,0,0,0,80,82,126,90,22,124.21,424,4.00,26.00,-1013.00
2024-06-07 01:49:04.701690,0,0,-23,0,0,0,80,82,126,90,22,124.19,424,-6.00,33.00,-997.00
2024-06-07 01:49:04.739408,0,0,-17,0,0,0,80,82,126,90,22,124.15,424,-10.00,27.00,-993.00
2024-06-07 01:49:04.905469,0,0,-11,0,0,0,80,82,126,90,22,124.12,424,-2.00,8.00,-954.00
2024-06-07 01:49:04.943506,0,0,-5,0,0,0,80,82,126,90,22,124.15,424,1.00,29.00,-1059.00
2024-06-07 01:49:05.122330,0,0,0,0,0,0,80,82,126,90,22,124.10,424,-4.00,21.00,-1001.00
2024-06-07 01:49:05.147358,0,0,3,0,0,0,80,82,127,90,22,124.06,424,1.00,19.00,-1005.00
2024-06-07 01:49:05.315075,0,0,6,0,0,0,80,82,128,90,22,124.15,424,8.00,17.00,-1006.00
2024-06-07 01:49:05.351306,0,0,9,0,0,0,80,82,127,90,22,124.13,425,-4.00,16.00,-968.00
2024-06-07 01:49:05.519858,0,0,10,0,0,0,80,82,128,90,22,124.20,425,16.00,12.00,-976.00
2024-06-07 01:49:05.555449,0,0,12,0,0,0,80,82,128,90,22,124.15,425,9.00,6.00,-995.00
2024-06-07 01:49:05.657275,0,0,13,0,0,0,80,82,129,90,22,124.15,425,-13.00,23.00,-976.00
2024-06-07 01:49:05.708292,0,0,14,0,0,0,80,82,128,90,22,124.14,425,5.00,19.00,-1017.00
2024-06-07 01:49:05.810396,0,0,15,0,0,0,80,82,128,90,22,124.15,425,15.00,17.00,-1034.00
2024-06-07 01:49:05.929589,0,0,15,0,0,0,80,82,128,90,22,124.19,425,-6.00,24.00,-988.00
2024-06-07 01:49:06.014563,0,0,15,0,0,0,80,82,128,90,22,124.14,425,-5.00,30.00,-1012.00
2024-06-07 01:49:06.134316,0,0,15,0,0,0,80,82,128,90,22,124.23,425,11.00,1.00,-967.00
2024-06-07 01:49:06.219333,0,0,15,0,0,0,80,82,127,90,22,124.20,425,18.00,11.00,-1022.00
2024-06-07 01:49:06.339697,0,0,15,0,0,0,80,82,127,90,22,124.13,426,0.00,14.00,-983.00
2024-06-07 01:49:06.422346,0,0,15,0,0,0,80,82,127,90,22,124.16,426,-4.00,11.00,-984.00
2024-06-07 01:49:06.524447,0,0,15,0,0,0,80,82,127,90,22,124.14,426,-16.00,28.00,-1027.00
2024-06-07 01:49:06.646827,0,0,15,0,0,0,80,82,126,90,22,124.13,426,-5.00,25.00,-992.00
2024-06-07 01:49:06.728510,0,0,15,0,0,0,80,82,126,90,22,124.19,426,-1.00,15.00,-998.00
2024-06-07 01:49:06.851424,0,0,15,0,0,0,80,82,126,90,22,124.14,426,7.00,11.00,-1018.00
2024-06-07 01:49:06.932495,0,0,15,0,0,0,80,82,127,90,22,124.11,426,-14.00,20.00,-1016.00
2024-06-07 01:49:07.055990,0,0,15,0,0,0,80,82,127,90,22,124.15,426,18.00,2.00,-972.00
2024-06-07 01:49:07.136348,0,0,15,0,0,0,80,82,127,90,22,124.19,426,12.00,14.00,-1022.00
2024-06-07 01:49:07.261312,0,0,15,0,0,0,80,82,128,90,22,124.20,426,-6.00,20.00,-1006.00
2024-06-07 01:49:07.340340,0,0,15,0,0,0,80,82,129,90,21,124.23,427,0.00,10.00,-991.00
2024-06-07 01:49:07.470279,0,0,15,0,0,0,80,82,130,90,21,124.27,427,0.00,10.00,-963.00
2024-06-07 01:49:07.544486,0,0,15,0,0,0,80,82,131,90,21,124.26,427,-11.00,12.00,-989.00
2024-06-07 01:49:07.653437,0,0,15,0,0,0,80,82,131,90,21,124.21,427,-10.00,21.00,-990.00
2024-06-07 01:49:07.748638,0,0,15,0,0,0,80,82,133,90,21,124.24,427,0.00,19.00,-1018.00
2024-06-07 01:49:07.850038,0,0,15,0,0,0,80,82,132,90,21,124.23,427,-1.00,6.00,-956.00
2024-06-07 01:49:07.977686,0,0,14,0,0,0,80,82,133,90,21,124.26,427,-23.00,52.00,-996.00
2024-06-07 01:49:08.054914,0,0,9,0,0,0,80,82,133,90,21,124.24,427,0.00,29.00,-991.00
2024-06-07 01:49:08.182437,0,0,3,0,0,0,80,82,133,90,21,124.23,427,6.00,9.00,-975.00
2024-06-07 01:49:08.258046,0,0,-3,0,0,0,80,82,133,90,21,124.23,427,0.00,12.00,-946.00
2024-06-07 01:49:08.386961,0,-1,-9,0,0,0,80,82,132,90,21,124.27,428,18.00,25.00,-1034.00
2024-06-07 01:49:08.464151,0,-1,-15,0,0,0,80,82,133,90,21,124.23,428,4.00,13.00,-980.00
2024-06-07 01:49:08.564259,0,-1,-21,0,0,0,80,82,132,90,21,124.19,428,3.00,14.00,-997.00
2024-06-07 01:49:08.665965,0,-1,-27,0,0,0,80,82,131,90,21,124.22,428,-6.00,24.00,-1002.00
2024-06-07 01:49:08.768057,0,-1,-33,0,0,0,80,82,131,90,21,124.22,428,10.00,15.00,-988.00
2024-06-07 01:49:08.869949,0,-1,-39,0,0,0,80,82,130,90,21,124.28,428,1.00,19.00,-1005.00
2024-06-07 01:49:09.001296,0,-1,-45,0,0,0,80,82,130,90,21,124.29,428,0.00,10.00,-1030.00
2024-06-07 01:49:09.073935,0,-1,-51,0,0,0,80,82,130,90,21,124.17,428,-11.00,19.00,-994.00
2024-06-07 01:49:09.130912,0,0,-57,0,0,0,80,82,129,90,21,124.21,428,0.00,22.00,-994.00
2024-06-07 01:49:09.227032,0,0,-63,0,0,0,80,82,129,90,21,124.22,428,1.00,17.00,-1046.00
2024-06-07 01:49:09.411284,0,0,-69,0,0,0,80,82,128,90,21,124.22,429,14.00,16.00,-1002.00
2024-06-07 01:49:09.430929,0,0,-75,0,0,0,80,82,128,90,21,124.22,429,-1.00,10.00,-979.00
2024-06-07 01:49:09.616335,0,0,-81,0,0,0,80,82,129,90,21,124.18,429,0.00,18.00,-1012.00
2024-06-07 01:49:09.636200,0,0,-87,0,0,0,80,82,128,90,21,124.10,429,-9.00,17.00,-993.00
2024-06-07 01:49:09.820470,0,0,-93,0,0,0,80,82,128,90,21,124.12,429,-15.00,22.00,-992.00
2024-06-07 01:49:09.838974,0,0,-99,0,0,0,80,82,128,90,21,124.10,429,-2.00,9.00,-1016.00
2024-06-07 01:49:10.025296,0,0,-105,0,0,0,80,82,128,90,21,124.22,429,-14.00,29.00,-998.00
2024-06-07 01:49:10.044568,0,0,-111,0,0,0,80,82,128,90,21,124.15,429,-5.00,18.00,-992.00
2024-06-07 01:49:10.144968,0,0,-116,0,0,0,80,82,127,90,21,124.13,429,-9.00,-2.00,-984.00
2024-06-07 01:49:10.246972,0,0,-122,0,0,0,80,82,128,90,21,124.10,429,-26.00,24.00,-1002.00
2024-06-07 01:49:10.434842,0,0,-128,0,0,0,80,82,128,90,21,124.07,430,2.00,2.00,-1006.00
2024-06-07 01:49:10.451045,0,0,-134,0,0,0,80,82,128,90,21,124.14,430,6.00,1.00,-964.00
2024-06-07 01:49:10.645177,0,0,-140,0,0,0,80,82,127,90,21,124.11,430,13.00,6.00,-1006.00
2024-06-07 01:49:10.655079,0,0,-146,0,0,0,80,82,127,90,21,124.12,430,0.00,16.00,-1018.00
2024-06-07 01:49:10.846017,0,0,-152,0,0,0,80,82,127,90,21,124.16,430,-3.00,5.00,-1019.00
2024-06-07 01:49:10.858958,0,0,-158,0,0,0,80,82,128,90,21,124.19,430,-1.00,-11.00,-983.00
2024-06-07 01:49:11.254013,0,0,-164,0,0,0,80,82,127,90,21,124.22,430,-7.00,3.00,-971.00
2024-06-07 01:49:11.254311,0,0,-170,0,0,0,80,82,128,90,21,124.13,430,-23.00,10.00,-995.00
2024-06-07 01:49:11.296805,0,0,-176,0,0,0,80,82,128,90,21,124.11,430,-10.00,14.00,-1034.00
2024-06-07 01:49:11.296845,0,0,177,0,0,0,80,82,128,90,21,124.15,430,4.00,5.00,-985.00
2024-06-07 01:49:11.428326,0,0,171,0,0,0,80,82,128,90,21,124.18,431,27.00,-2.00,-1021.00
2024-06-07 01:49:11.523574,0,0,158,0,0,0,81,82,127,90,21,124.12,431,17.00,1.00,-980.00
2024-06-07 01:49:11.610618,0,0,152,0,0,0,81,82,127,90,21,124.17,431,-6.00,-1.00,-974.00
2024-06-07 01:49:11.706817,0,0,146,0,0,0,81,82,127,90,21,124.12,431,-14.00,17.00,-1001.00
2024-06-07 01:49:11.794882,0,0,140,0,0,0,81,82,128,90,21,124.17,431,24.00,-8.00,-971.00
2024-06-07 01:49:11.981612,0,0,134,0,0,0,81,82,128,90,21,124.13,431,-2.00,16.00,-1027.00
2024-06-07 01:49:11.981673,0,0,128,0,0,0,81,82,128,90,21,124.19,431,-2.00,13.00,-1041.00
2024-06-07 01:49:12.163911,0,0,122,0,0,0,81,82,128,90,21,124.22,431,12.00,-7.00,-1004.00
2024-06-07 01:49:12.184676,0,0,116,0,0,0,81,82,129,90,21,124.22,431,4.00,2.00,-1002.00
2024-06-07 01:49:12.307327,0,0,110,0,0,0,81,82,130,90,21,124.20,432,9.00,5.00,-985.00
2024-06-07 01:49:12.453494,0,0,103,0,0,0,81,82,131,90,20,124.20,432,-4.00,13.00,-973.00
2024-06-07 01:49:12.595983,0,0,97,0,0,0,80,82,132,90,20,124.24,432,0.00,12.00,-1010.00
2024-06-07 01:49:12.596033,0,0,91,0,0,0,80,82,133,90,20,124.22,432,-3.00,3.00,-952.00
2024-06-07 01:49:12.739607,0,0,85,0,0,0,80,82,133,90,20,124.19,432,3.00,18.00,-1011.00
2024-06-07 01:49:12.903172,0,0,79,0,0,0,80,82,134,90,20,124.17,432,5.00,5.00,-973.00
2024-06-07 01:49:12.903252,0,0,72,0,0,0,80,82,134,90,20,124.25,432,3.00,4.00,-997.00
2024-06-07 01:49:13.046419,0,0,66,0,0,0,80,82,135,90,20,124.13,432,-1.00,8.00,-976.00
2024-06-07 01:49:13.051621,0,0,60,0,0,0,80,82,136,90,20,124.24,432,8.00,21.00,-1019.00
2024-06-07 01:49:13.210613,0,0,54,0,0,0,80,82,136,90,20,124.26,432,6.00,14.00,-963.00
2024-06-07 01:49:13.355751,0,0,48,0,0,0,80,82,136,90,20,124.24,433,6.00,8.00,-953.00
2024-06-07 01:49:13.359347,0,0,42,0,0,0,80,82,136,90,20,124.24,433,20.00,4.00,-976.00
2024-06-07 01:49:13.517562,0,0,36,0,0,0,80,82,137,90,20,124.31,433,5.00,19.00,-1013.00
2024-06-07 01:49:13.661243,0,0,31,0,0,0,80,82,137,90,20,124.29,433,8.00,11.00,-992.00
2024-06-07 01:49:13.664357,0,-1,27,0,0,0,80,82,138,90,20,124.25,433,4.00,24.00,-987.00
2024-06-07 01:49:13.824751,0,-1,24,0,0,0,80,82,138,90,20,124.26,433,0.00,24.00,-981.00
2024-06-07 01:49:13.882963,0,-1,21,0,0,0,80,82,138,90,20,124.28,433,22.00,9.00,-962.00
2024-06-07 01:49:13.971456,0,0,20,0,0,0,80,82,138,90,20,124.25,433,9.00,11.00,-946.00
2024-06-07 01:49:14.071805,0,0,19,0,0,0,80,82,137,90,20,124.23,433,-24.00,20.00,-994.00
2024-06-07 01:49:14.173592,0,0,18,0,0,0,80,82,136,90,20,124.22,433,11.00,22.00,-992.00
2024-06-07 01:49:14.327914,0,0,17,0,0,0,80,82,135,90,20,124.19,434,-7.00,8.00,-984.00
2024-06-07 01:49:14.377762,0,0,16,0,0,0,80,82,134,90,20,124.18,434,-11.00,18.00,-1021.00
2024-06-07 01:49:14.530886,0,0,16,0,0,0,80,83,133,90,20,124.22,434,-5.00,17.00,-1040.00
2024-06-07 01:49:14.584172,0,0,16,0,0,0,80,83,132,90,20,124.25,434,-9.00,13.00,-1004.00
2024-06-07 01:49:14.683631,0,0,16,0,0,0,80,83,132,90,20,124.12,434,-13.00,20.00,-1054.00
2024-06-07 01:49:14.838665,0,0,16,0,0,0,80,83,132,90,20,124.17,434,-4.00,18.00,-1025.00
2024-06-07 01:49:14.887597,0,0,16,0,0,0,80,83,132,90,20,124.22,434,-3.00,20.00,-1018.00
2024-06-07 01:49:15.043256,0,-1,16,0,0,0,80,83,132,90,20,124.20,434,16.00,12.00,-1008.00
2024-06-07 01:49:15.091762,0,-1,16,0,0,0,80,83,132,90,20,124.15,434,-6.00,16.00,-1019.00
2024-06-07 01:49:15.247964,0,-1,16,0,0,0,80,83,132,90,20,124.17,434,-3.00,12.00,-991.00
2024-06-07 01:49:15.296079,0,-1,16,0,0,0,80,83,132,90,20,124.17,435,0.00,17.00,-1009.00
2024-06-07 01:49:15.452376,0,-1,16,0,0,0,80,83,132,90,20,124.15,435,-9.00,23.00,-979.00
2024-06-07 01:49:15.501736,0,-1,16,0,0,0,80,82,132,90,20,124.15,435,26.00,4.00,-1013.00
2024-06-07 01:49:15.601534,0,-1,16,0,0,0,80,82,131,90,20,124.20,435,1.00,6.00,-978.00
2024-06-07 01:49:15.705763,0,0,16,0,0,0,80,82,131,90,20,124.10,435,17.00,13.00,-1009.00
2024-06-07 01:49:15.806317,0,0,16,0,0,0,80,82,131,90,20,124.14,435,26.00,19.00,-1056.00
2024-06-07 01:49:15.907679,0,0,16,0,0,0,80,82,130,90,20,124.17,435,-15.00,25.00,-1031.00
2024-06-07 01:49:16.009973,0,0,16,0,0,0,80,82,129,90,20,124.20,435,-6.00,27.00,-1052.00
2024-06-07 01:49:16.169121,0,0,16,0,0,0,80,82,129,90,20,124.15,435,2.00,11.00,-1000.00
2024-06-07 01:49:16.213467,0,0,16,0,0,0,80,82,128,90,20,124.19,435,7.00,14.00,-1015.00
2024-06-07 01:49:16.320024,0,0,16,0,0,0,80,82,128,90,20,124.16,436,-1.00,16.00,-997.00
2024-06-07 01:49:16.417516,0,0,16,0,0,0,80,82,128,90,20,124.13,436,-8.00,19.00,-974.00
2024-06-07 01:49:16.520145,0,0,16,0,0,0,80,82,127,90,20,124.13,436,13.00,18.00,-1031.00
2024-06-07 01:49:16.621481,0,0,16,0,0,0,80,82,127,90,20,124.12,436,-3.00,20.00,-1014.00
2024-06-07 01:49:16.723904,0,-1,16,0,0,0,80,82,126,90,20,124.15,436,-12.00,17.00,-1001.00
2024-06-07 01:49:16.885831,0,-1,16,0,0,0,80,82,126,90,20,124.18,436,17.00,26.00,-1033.00
2024-06-07 01:49:16.927754,0,-1,16,0,0,0,80,82,126,90,20,124.15,436,26.00,15.00,-1008.00
2024-06-07 01:49:17.090529,0,-1,16,0,0,0,80,82,125,90,20,124.14,436,1.00,7.00,-974.00
2024-06-07 01:49:17.131643,0,0,16,0,0,0,80,82,124,90,20,124.12,436,17.00,5.00,-1010.00
2024-06-07 01:49:17.185093,0,0,16,0,0,0,80,82,124,80,20,124.11,436,14.00,10.00,-1006.00
2024-06-07 01:49:17.284653,0,0,16,0,0,0,80,82,123,80,20,124.16,437,13.00,2.00,-1037.00
2024-06-07 01:49:17.399061,0,0,16,0,0,0,80,82,123,80,20,124.11,437,8.00,15.00,-1015.00
2024-06-07 01:49:17.488436,0,0,16,0,0,0,80,82,123,80,20,124.12,437,6.00,24.00,-1075.00
2024-06-07 01:49:17.603034,0,0,16,0,0,0,80,82,123,80,20,124.12,437,15.00,26.00,-1034.00
2024-06-07 01:49:17.693417,0,0,16,0,0,0,80,82,123,80,20,124.05,437,9.00,10.00,-1010.00
2024-06-07 01:49:17.807710,0,0,16,0,0,0,80,82,122,80,20,124.10,437,15.00,14.00,-1010.00
2024-06-07 01:49:17.898187,0,0,16,0,0,0,80,82,123,80,20,124.13,437,9.00,-5.00,-979.00
2024-06-07 01:49:18.012542,0,0,16,0,0,0,80,82,122,80,20,124.16,437,11.00,8.00,-1034.00
2024-06-07 01:49:18.102172,0,0,16,0,0,0,80,82,122,80,20,124.08,437,13.00,19.00,-1022.00
2024-06-07 01:49:18.216979,0,0,16,0,0,0,80,82,122,80,20,124.17,437,2.00,12.00,-987.00
2024-06-07 01:49:18.307145,0,0,16,0,0,0,80,82,122,80,19,124.13,438,14.00,14.00,-1046.00
2024-06-07 01:49:18.407983,0,-1,16,0,0,0,80,82,121,80,19,124.16,438,14.00,28.00,-1041.00
2024-06-07 01:49:18.524185,0,-1,16,0,0,0,80,82,122,80,19,124.10,438,5.00,26.00,-1000.00
2024-06-07 01:49:18.613345,0,-1,16,0,0,0,80,82,121,80,19,124.15,438,-23.00,22.00,-995.00
2024-06-07 01:49:18.713227,0,-1,16,0,0,0,80,82,120,80,19,124.00,438,-7.00,17.00,-990.00
2024-06-07 01:49:18.832312,0,-1,16,0,0,0,80,82,120,80,19,124.06,438,1.00,23.00,-1019.00
2024-06-07 01:49:18.917283,0,-1,16,0,0,0,80,82,120,80,19,124.08,438,6.00,15.00,-1001.00
2024-06-07 01:49:19.020092,0,-1,16,0,0,0,80,82,119,80,19,124.03,438,-9.00,23.00,-1014.00
2024-06-07 01:49:19.138589,0,-1,16,0,0,0,80,82,119,80,19,124.02,438,-3.00,26.00,-1081.00
2024-06-07 01:49:19.224674,0,-1,16,0,0,0,80,82,119,80,19,124.04,438,5.00,11.00,-956.00
2024-06-07 01:49:19.327007,0,-1,16,0,0,0,80,82,119,80,19,124.11,439,17.00,22.00,-1037.00
2024-06-07 01:49:19.427344,0,0,16,0,0,0,80,82,119,80,19,124.08,439,-21.00,22.00,-1041.00
2024-06-07 01:49:19.531637,0,-1,16,0,0,0,79,82,119,80,19,124.07,439,-14.00,16.00,-994.00
2024-06-07 01:49:19.634076,0,0,16,0,0,0,79,82,119,80,19,124.08,439,-6.00,24.00,-1014.00
2024-06-07 01:49:19.733171,0,-1,16,0,0,0,79,82,120,80,19,124.14,439,4.00,24.00,-1012.00
2024-06-07 01:49:19.855256,0,-1,16,0,0,0,79,82,120,80,19,124.08,439,-4.00,18.00,-972.00
2024-06-07 01:49:19.938637,0,-1,16,0,0,0,79,82,121,80,19,124.12,439,3.00,14.00,-1008.00
2024-06-07 01:49:20.039402,0,-1,16,0,0,0,79,82,121,80,19,124.07,439,-10.00,24.00,-993.00
2024-06-07 01:49:20.162425,0,-1,16,0,0,0,79,82,121,80,19,124.15,439,1.00,14.00,-999.00
2024-06-07 01:49:20.243182,0,-1,16,0,0,0,79,82,121,80,19,124.14,439,-10.00,31.00,-997.00
2024-06-07 01:49:20.367603,0,-1,16,0,0,0,79,82,122,80,19,124.11,440,4.00,19.00,-998.00
2024-06-07 01:49:20.447175,0,-1,16,0,0,0,79,82,122,80,19,124.15,440,-2.00,32.00,-1025.00
2024-06-07 01:49:20.572086,0,-1,16,0,0,0,80,82,122,80,19,124.12,440,-16.00,23.00,-962.00
2024-06-07 01:49:20.651057,0,-1,16,0,0,0,80,82,123,80,19,124.16,440,3.00,27.00,-1088.00
2024-06-07 01:49:20.776912,0,-1,16,0,0,0,80,82,123,80,19,124.09,440,-21.00,25.00,-973.00
2024-06-07 01:49:20.855369,0,-1,16,0,0,0,80,82,124,80,19,124.07,440,-8.00,16.00,-974.00
2024-06-07 01:49:20.906301,0,-1,16,0,0,0,80,82,124,80,19,124.12,440,5.00,8.00,-991.00
2024-06-07 01:49:21.083884,0,-1,16,0,0,0,80,82,125,80,19,124.15,440,-18.00,28.00,-1074.00
2024-06-07 01:49:21.111606,0,-1,16,0,0,0,80,82,125,80,19,124.10,440,-16.00,14.00,-947.00
2024-06-07 01:49:21.212156,0,-1,16,0,0,0,80,82,126,90,19,124.13,440,25.00,21.00,-1044.00
2024-06-07 01:49:21.391287,0,-1,16,0,0,0,80,82,127,90,19,124.18,441,-18.00,32.00,-1015.00
2024-06-07 01:49:21.420710,0,-1,16,0,0,0,80,82,128,90,19,124.20,441,-5.00,18.00,-952.00
2024-06-07 01:49:21.518095,0,-1,16,0,0,0,80,82,129,90,19,124.16,441,8.00,17.00,-992.00
2024-06-07 01:49:21.703638,0,-1,16,0,0,0,80,82,129,90,19,124.23,441,21.00,3.00,-996.00
2024-06-07 01:49:21.722105,0,-1,16,0,0,0,80,82,130,90,19,124.22,441,7.00,14.00,-984.00
2024-06-07 01:49:21.903297,0,-1,16,0,0,0,80,82,131,90,19,124.21,441,-1.00,25.00,-996.00
2024-06-07 01:49:21.926059,0,-1,16,0,0,0,80,82,131,90,19,124.24,441,11.00,27.00,-993.00
2024-06-07 01:49:22.028085,0,-1,16,0,0,0,80,82,131,90,19,124.24,441,-8.00,20.00,-1015.00
2024-06-07 01:49:22.210495,0,-1,16,0,0,0,80,82,131,90,19,124.22,441,8.00,8.00,-978.00
2024-06-07 01:49:22.231989,0,0,16,0,0,0,80,82,132,90,19,124.27,441,-6.00,10.00,-969.00
2024-06-07 01:49:22.334035,0,0,16,0,0,0,80,82,131,90,18,124.22,442,9.00,14.00,-972.00
2024-06-07 01:49:22.435984,0,0,16,0,0,0,80,82,131,90,18,124.28,442,6.00,5.00,-1023.00
2024-06-07 01:49:22.619991,0,0,16,0,0,0,79,82,132,90,18,124.29,442,-1.00,22.00,-982.00
2024-06-07 01:49:22.640081,0,-1,16,0,0,0,79,82,133,90,18,124.25,442,-4.00,26.00,-1038.00
2024-06-07 01:49:22.741911,0,-1,16,0,0,0,79,82,133,90,18,124.29,442,-2.00,23.00,-1006.00
2024-06-07 01:49:22.927384,0,-1,16,0,0,0,79,82,134,90,18,124.29,442,0.00,19.00,-976.00
2024-06-07 01:49:22.945843,0,-1,16,0,0,0,79,82,134,90,18,124.21,442,1.00,20.00,-975.00
2024-06-07 01:49:23.132028,0,-1,16,0,0,0,79,82,135,90,18,124.26,442,-5.00,35.00,-1006.00
2024-06-07 01:49:23.149741,0,-1,16,0,0,0,79,82,136,90,18,124.26,442,-11.00,15.00,-924.00
2024-06-07 01:49:23.336835,0,-1,16,0,0,0,79,82,136,90,18,124.21,442,-2.00,26.00,-989.00
2024-06-07 01:49:23.353828,0,-1,16,0,0,0,79,82,136,90,18,124.27,443,10.00,28.00,-1003.00
2024-06-07 01:49:23.542037,0,-1,16,0,0,0,79,82,136,90,18,124.25,443,-11.00,16.00,-941.00
2024-06-07 01:49:23.558581,0,-1,16,0,0,0,80,82,136,90,18,124.21,443,10.00,9.00,-977.00
2024-06-07 01:49:23.659898,0,-1,16,0,0,0,80,82,135,90,18,124.25,443,-26.00,35.00,-1007.00
2024-06-07 01:49:23.848955,0,-1,16,0,0,0,80,82,134,90,18,124.24,443,3.00,18.00,-988.00
2024-06-07 01:49:23.864600,0,-1,16,0,0,0,80,82,134,90,18,124.21,443,9.00,14.00,-981.00
2024-06-07 01:49:24.054857,0,-1,16,0,0,0,80,82,133,90,18,124.21,443,-16.00,30.00,-990.00
2024-06-07 01:49:24.067695,0,-1,16,0,0,0,80,82,133,90,18,124.20,443,-7.00,24.00,-1042.00
2024-06-07 01:49:24.258313,0,-1,16,0,0,0,80,82,132,90,18,124.23,443,8.00,11.00,-971.00
2024-06-07 01:49:24.271804,0,-1,16,0,0,0,80,82,131,90,18,124.26,443,8.00,14.00,-954.00
2024-06-07 01:49:24.322923,0,-1,16,0,0,0,80,82,130,90,18,124.28,444,19.00,7.00,-1031.00
2024-06-07 01:49:24.463189,0,0,16,0,0,0,80,82,130,90,18,124.23,444,9.00,8.00,-969.00
2024-06-07 01:49:24.526850,0,0,16,0,0,0,80,81,130,90,18,124.26,444,11.00,10.00,-1021.00
2024-06-07 01:49:24.667933,0,0,16,0,0,0,80,81,130,90,18,124.23,444,0.00,16.00,-991.00
2024-06-07 01:49:24.730764,0,0,16,0,0,0,80,81,131,90,18,124.29,444,-6.00,20.00,-1010.00
2024-06-07 01:49:24.872718,0,0,16,0,0,0,80,81,131,90,18,124.25,444,-4.00,16.00,-1014.00
2024-06-07 01:49:24.934812,0,-1,16,0,0,0,80,81,132,90,18,124.25,444,-4.00,27.00,-1030.00
2024-06-07 01:49:25.036811,0,-1,16,0,0,0,80,81,133,90,18,124.26,444,-2.00,25.00,-1023.00
2024-06-07 01:49:25.138767,0,-1,16,0,0,0,80,81,134,90,18,124.27,444,6.00,12.00,-1010.00
2024-06-07 01:49:25.240891,0,-1,16,0,0,0,80,81,135,90,18,124.25,444,-6.00,20.00,-1006.00
2024-06-07 01:49:25.342815,0,-1,16,0,0,0,80,81,135,90,18,124.28,445,-22.00,14.00,-954.00
2024-06-07 01:49:25.444619,0,-1,16,0,0,0,80,81,135,90,18,124.35,445,1.00,18.00,-991.00
2024-06-07 01:49:25.589857,0,-1,16,0,0,0,80,81,135,90,18,124.32,445,0.00,15.00,-968.00
2024-06-07 01:49:25.648664,0,-1,16,0,0,0,80,81,135,90,18,124.32,445,2.00,25.00,-988.00
2024-06-07 01:49:25.750726,0,-1,16,0,0,0,80,81,135,90,18,124.32,445,-7.00,28.00,-1011.00
2024-06-07 01:49:25.896763,0,-1,16,0,0,0,80,81,135,90,18,124.31,445,7.00,1.00,-995.00
2024-06-07 01:49:25.955960,0,-1,16,0,0,0,80,81,134,90,18,124.33,445,-11.00,30.00,-1024.00
2024-06-07 01:49:26.306596,0,-1,16,0,0,0,80,81,133,90,18,124.27,445,-5.00,17.00,-984.00
2024-06-07 01:49:26.393859,0,-1,16,0,0,0,80,81,132,90,18,124.29,445,0.00,18.00,-995.00
2024-06-07 01:49:26.394020,0,-1,16,0,0,0,80,81,132,90,18,124.26,445,-3.00,9.00,-953.00
2024-06-07 01:49:26.394181,0,-1,16,0,0,0,80,81,130,90,18,124.33,446,0.00,17.00,-1024.00
2024-06-07 01:49:26.465701,0,-1,16,0,0,0,80,81,130,90,18,124.32,446,15.00,24.00,-1002.00
2024-06-07 01:49:26.613870,0,-1,16,0,0,0,80,82,130,90,18,124.33,446,-8.00,30.00,-959.00
2024-06-07 01:49:26.898348,0,-1,16,0,0,0,80,82,129,90,18,124.27,446,-17.00,16.00,-1021.00
2024-06-07 01:49:26.898492,0,-1,16,0,0,0,80,82,129,90,18,124.20,446,-13.00,22.00,-994.00
2024-06-07 01:49:26.898783,0,-1,16,0,0,0,80,82,129,90,18,124.24,446,14.00,5.00,-964.00
2024-06-07 01:49:26.975698,0,-1,16,0,0,0,80,82,128,90,18,124.14,446,15.00,11.00,-992.00
2024-06-07 01:49:27.125290,0,0,16,0,0,0,80,82,128,90,18,124.19,446,-9.00,29.00,-1004.00
2024-06-07 01:49:27.180476,0,-1,16,0,0,0,80,82,129,90,18,124.15,446,-14.00,29.00,-1006.00
2024-06-07 01:49:27.341044,0,-1,16,0,0,0,80,82,129,90,18,124.17,447,5.00,28.00,-1027.00
2024-06-07 01:49:27.485293,0,-1,16,0,0,0,80,82,128,90,18,124.25,447,-7.00,20.00,-975.00
