TS,pitch,roll,yaw,vgx,vgy,vgz,templ,temph,tof,h,bat,baro,time,agx,agy,agz
2024-06-07 14:35:00.068345,2,0,56,0,0,0,61,63,10,0,94,152.84,0,38.00,4.00,-999.00
2024-06-07 14:35:00.166383,2,0,56,0,0,0,61,63,10,0,94,152.88,0,37.00,5.00,-998.00
2024-06-07 14:35:00.349319,2,0,56,0,0,0,61,63,10,0,94,152.80,0,36.00,7.00,-999.00
2024-06-07 14:35:00.370317,2,0,56,0,0,0,61,63,10,0,94,152.86,0,37.00,7.00,-998.00
2024-06-07 14:35:00.554142,2,0,56,0,0,0,61,63,10,0,94,152.79,0,37.00,8.00,-1000.00
2024-06-07 14:35:00.574394,2,0,56,0,0,0,61,63,10,0,94,152.82,0,35.00,7.00,-996.00
2024-06-07 14:35:00.631726,2,0,56,0,0,0,61,63,10,0,94,152.86,0,38.00,8.00,-1001.00
2024-06-07 14:35:00.728590,2,0,56,0,0,0,61,63,10,0,94,152.83,0,37.00,6.00,-998.00
2024-06-07 14:35:00.829534,2,0,56,0,0,0,61,63,10,0,94,152.84,0,37.00,6.00,-999.00
2024-06-07 14:35:00.964157,2,0,56,0,0,0,62,64,10,0,94,152.84,0,36.00,9.00,-999.00
2024-06-07 14:35:01.033179,2,0,56,0,0,0,62,64,10,0,94,152.81,0,37.00,7.00,-999.00
2024-06-07 14:35:01.135307,2,0,56,0,0,0,62,64,10,0,94,152.84,0,37.00,6.00,-1001.00
2024-06-07 14:35:01.280982,2,0,56,0,0,0,62,64,10,0,94,152.83,0,38.00,6.00,-999.00
2024-06-07 14:35:01.339809,2,0,56,0,0,0,62,64,10,0,94,152.83,0,37.00,7.00,-998.00
2024-06-07 14:35:01.441518,2,0,56,0,0,0,62,64,10,0,94,152.83,0,36.00,7.00,-998.00
2024-06-07 14:35:01.543782,2,0,56,0,0,0,62,64,10,0,94,152.83,0,36.00,7.00,-998.00
2024-06-07 14:35:01.646362,2,0,56,0,0,0,62,64,10,0,94,152.85,0,38.00,5.00,-999.00
2024-06-07 14:35:01.748735,2,0,56,0,0,0,62,64,10,0,94,152.83,0,37.00,8.00,-997.00
2024-06-07 14:35:01.851414,2,0,56,0,0,0,62,64,10,0,94,152.80,0,37.00,7.00,-998.00
2024-06-07 14:35:01.953543,2,0,56,0,0,0,62,63,10,0,94,152.82,0,37.00,8.00,-999.00
2024-06-07 14:35:02.053120,2,0,56,0,0,0,62,63,10,0,94,152.81,0,37.00,6.00,-997.00
2024-06-07 14:35:02.192876,2,0,56,0,0,0,62,63,10,0,94,152.82,0,35.00,6.00,-999.00
2024-06-07 14:35:02.257190,2,0,56,0,0,0,62,63,10,0,94,152.81,0,37.00,6.00,-999.00
2024-06-07 14:35:02.361883,2,0,56,0,0,0,62,63,10,0,94,152.81,0,37.00,7.00,-999.00
2024-06-07 14:35:02.461107,2,0,56,0,0,0,62,63,10,0,94,152.81,0,37.00,5.00,-1000.00
2024-06-07 14:35:02.602168,2,0,56,0,0,0,62,63,10,0,94,152.83,0,37.00,8.00,-1000.00
2024-06-07 14:35:02.665138,2,0,56,0,0,0,62,63,10,0,94,152.81,0,37.00,6.00,-996.00
2024-06-07 14:35:02.807088,2,0,56,0,0,0,62,63,10,0,94,152.82,0,37.00,6.00,-998.00
2024-06-07 14:35:02.869027,2,0,56,0,0,0,62,63,10,0,94,152.81,0,35.00,7.00,-997.00
2024-06-07 14:35:03.016712,2,0,56,0,0,0,62,64,10,0,94,152.82,0,36.00,6.00,-997.00
2024-06-07 14:35:03.075243,2,0,56,0,0,0,62,64,10,0,94,152.82,0,37.00,6.00,-1001.00
2024-06-07 14:35:03.175035,2,0,56,0,0,0,62,64,10,0,94,152.83,0,36.00,7.00,-999.00
2024-06-07 14:35:03.277036,2,0,56,0,0,0,62,64,10,0,94,152.76,0,35.00,5.00,-999.00
2024-06-07 14:35:03.378919,2,0,56,0,0,0,62,64,10,0,94,152.76,0,29.00,14.00,-998.00
2024-06-07 14:35:03.480918,2,0,56,0,0,0,62,64,10,0,94,152.76,0,28.00,6.00,-999.00
2024-06-07 14:35:03.582908,2,0,56,0,0,0,62,64,10,0,94,152.76,0,8.00,21.00,-997.00
2024-06-07 14:35:03.728828,2,0,56,0,0,0,62,64,10,0,94,152.76,0,15.00,44.00,-1004.00
2024-06-07 14:35:03.789335,1,0,55,0,0,0,62,64,10,0,94,152.76,0,23.00,9.00,-1085.00
2024-06-07 14:35:03.839537,0,0,55,0,0,-1,62,64,11,0,94,152.76,0,-13.00,33.00,-1209.00
2024-06-07 14:35:04.036156,-1,0,55,0,0,-3,62,65,11,0,94,152.76,0,8.00,36.00,-1348.00
2024-06-07 14:35:04.095398,0,0,55,0,0,-6,62,65,10,0,94,152.76,0,-14.00,50.00,-1180.00
2024-06-07 14:35:04.143870,0,-2,55,0,0,-7,62,65,17,10,94,153.27,0,-20.00,52.00,-1059.00
2024-06-07 14:35:04.318167,0,-2,55,0,0,-8,62,65,25,10,94,153.36,0,-29.00,62.00,-1023.00
2024-06-07 14:35:04.348581,0,-3,55,0,0,-7,62,65,33,20,94,153.38,1,-13.00,43.00,-946.00
2024-06-07 14:35:04.450058,0,-3,55,0,0,-7,62,65,42,30,94,153.48,1,-23.00,43.00,-934.00
2024-06-07 14:35:04.551843,0,-3,55,0,0,-6,62,65,50,30,94,153.54,1,1.00,46.00,-915.00
2024-06-07 14:35:04.691863,-1,-3,55,-1,0,-5,62,65,57,40,94,153.56,1,-7.00,56.00,-897.00
2024-06-07 14:35:04.755980,-1,-4,55,-1,0,-4,62,65,62,40,94,153.66,1,-22.00,64.00,-904.00
2024-06-07 14:35:04.857957,-1,-4,55,0,0,-3,62,65,67,50,94,153.60,1,-13.00,53.00,-922.00
2024-06-07 14:35:04.960310,-1,-4,55,0,0,-2,63,65,71,50,94,153.69,1,-35.00,64.00,-938.00
2024-06-07 14:35:05.061882,-1,-4,55,0,0,-1,63,65,73,50,94,153.76,1,-11.00,53.00,-935.00
2024-06-07 14:35:05.163838,-1,-4,55,0,0,-1,63,65,76,50,94,153.79,1,-23.00,64.00,-953.00
2024-06-07 14:35:05.367161,-1,-4,55,0,0,0,63,65,78,50,94,153.83,1,-23.00,67.00,-973.00
2024-06-07 14:35:05.367875,-1,-4,55,0,0,0,63,65,80,60,94,153.78,2,-10.00,68.00,-975.00
2024-06-07 14:35:05.469923,-1,-4,55,0,0,0,63,65,82,60,94,153.81,2,-30.00,63.00,-982.00
2024-06-07 14:35:05.572107,-2,-4,55,0,0,0,63,65,84,60,94,153.90,2,-22.00,70.00,-992.00
2024-06-07 14:35:05.674037,-2,-3,56,0,0,0,63,65,85,60,94,153.75,2,-31.00,68.00,-984.00
2024-06-07 14:35:05.776335,-1,-3,55,0,0,0,63,65,87,60,94,153.74,2,-27.00,65.00,-997.00
2024-06-07 14:35:05.879464,-2,-3,55,0,0,0,63,65,88,60,94,153.74,2,-27.00,59.00,-972.00
2024-06-07 14:35:05.981114,-1,-3,55,0,0,0,63,65,89,60,94,153.81,2,-47.00,67.00,-956.00
2024-06-07 14:35:06.083509,-2,-3,55,0,0,0,63,65,89,60,94,153.79,2,-33.00,70.00,-968.00
2024-06-07 14:35:06.184316,-2,-2,55,0,0,0,63,65,89,70,94,153.82,2,-38.00,78.00,-981.00
2024-06-07 14:35:06.285786,-1,-3,55,0,0,0,63,65,89,70,94,153.82,2,-29.00,69.00,-973.00
2024-06-07 14:35:06.387801,-1,-3,55,0,0,0,63,65,89,70,94,153.81,3,-10.00,64.00,-985.00
2024-06-07 14:35:06.493255,-1,-3,55,0,0,0,63,65,89,70,94,153.81,3,-21.00,70.00,-985.00
2024-06-07 14:35:06.591786,-1,-3,55,0,0,0,63,65,89,70,94,153.87,3,-17.00,66.00,-996.00
2024-06-07 14:35:06.698084,-1,-3,55,0,0,0,63,65,88,70,94,153.79,3,-25.00,79.00,-1013.00
2024-06-07 14:35:06.796216,-1,-3,55,0,0,0,63,65,88,70,94,153.77,3,-25.00,58.00,-994.00
2024-06-07 14:35:06.903804,-1,-3,55,0,0,0,63,65,87,70,94,153.79,3,-16.00,61.00,-1008.00
2024-06-07 14:35:06.999735,-1,-3,55,0,0,0,63,65,86,70,94,153.84,3,-31.00,74.00,-1001.00
2024-06-07 14:35:07.110723,-1,-3,55,0,0,0,63,65,85,70,94,153.79,3,-13.00,55.00,-989.00
2024-06-07 14:35:07.204343,-1,-3,55,0,0,0,63,65,85,60,94,153.81,3,-19.00,65.00,-1002.00
2024-06-07 14:35:07.305809,-1,-3,55,0,0,0,63,65,84,60,94,153.76,3,-48.00,57.00,-962.00
2024-06-07 14:35:07.407676,-1,-3,55,0,0,0,63,65,83,60,94,153.83,4,-24.00,67.00,-1017.00
2024-06-07 14:35:07.619685,-1,-3,55,0,0,0,63,65,83,60,94,153.73,4,-15.00,71.00,-1014.00
2024-06-07 14:35:07.619837,-1,-3,55,0,0,0,63,65,83,60,94,153.65,4,-38.00,76.00,-996.00
2024-06-07 14:35:07.714160,-1,-3,55,0,0,0,63,65,82,60,94,153.75,4,-23.00,83.00,-1040.00
2024-06-07 14:35:07.816046,-2,-3,55,0,0,0,63,65,82,60,94,153.72,4,-28.00,83.00,-1010.00
2024-06-07 14:35:07.866727,-2,-3,55,0,0,0,63,65,81,60,94,153.76,4,-27.00,73.00,-1010.00
2024-06-07 14:35:08.029246,-2,-3,55,0,0,0,63,66,80,60,94,153.73,4,-3.00,61.00,-992.00
2024-06-07 14:35:08.070785,-2,-3,55,0,0,0,63,66,80,60,94,153.76,4,-30.00,65.00,-974.00
2024-06-07 14:35:08.238283,-2,-3,55,0,0,0,63,66,80,60,94,153.71,4,-19.00,70.00,-991.00
2024-06-07 14:35:08.274592,-1,-3,56,0,0,0,63,66,79,60,94,153.74,4,-34.00,72.00,-999.00
2024-06-07 14:35:08.438868,-1,-3,56,0,0,0,63,66,79,60,94,153.68,5,-31.00,75.00,-971.00
2024-06-07 14:35:08.478649,-2,-3,56,0,0,0,63,66,80,60,94,153.74,5,-16.00,80.00,-1010.00
2024-06-07 14:35:08.643513,-2,-4,56,0,0,0,63,66,79,60,94,153.73,5,-16.00,74.00,-1004.00
2024-06-07 14:35:08.683402,-1,-4,56,0,0,0,63,66,79,60,94,153.77,5,-16.00,80.00,-1006.00
2024-06-07 14:35:08.859818,-1,-4,56,0,0,0,63,66,79,60,94,153.74,5,-24.00,76.00,-968.00
2024-06-07 14:35:08.889334,-1,-4,56,0,0,0,63,66,80,60,94,153.82,5,-24.00,94.00,-979.00
2024-06-07 14:35:08.988676,-1,-5,56,0,0,0,64,66,79,60,94,153.81,5,25.00,74.00,-1011.00
2024-06-07 14:35:09.158645,-1,-5,56,0,0,0,64,66,80,60,94,153.71,5,-30.00,88.00,-982.00
2024-06-07 14:35:09.193146,0,-4,56,0,0,0,64,66,80,60,94,153.77,5,-12.00,76.00,-989.00
2024-06-07 14:35:09.360679,-1,-4,56,0,0,0,64,66,80,60,94,153.77,5,-27.00,87.00,-1003.00
2024-06-07 14:35:09.398204,-1,-4,55,0,0,0,64,66,80,60,94,153.74,6,-4.00,89.00,-1010.00
2024-06-07 14:35:09.499647,-1,-4,55,0,0,0,64,66,79,60,94,153.71,6,-32.00,89.00,-1003.00
2024-06-07 14:35:09.601846,-1,-4,55,0,0,0,64,66,80,60,94,153.69,6,-27.00,78.00,-985.00
2024-06-07 14:35:09.703719,-1,-4,55,0,0,0,64,66,79,60,94,153.74,6,-16.00,79.00,-1008.00
2024-06-07 14:35:09.872832,-1,-3,56,0,0,0,64,66,79,60,94,153.72,6,-10.00,83.00,-976.00
2024-06-07 14:35:09.910716,-1,-3,56,0,0,0,64,66,79,60,94,153.81,6,-8.00,88.00,-1002.00
2024-06-07 14:35:10.010283,0,-3,56,0,0,0,65,66,79,60,94,153.75,6,-16.00,95.00,-995.00
2024-06-07 14:35:10.111643,0,-4,56,0,0,0,65,66,79,60,94,153.77,6,11.00,82.00,-998.00
2024-06-07 14:35:10.282707,0,-4,55,0,0,0,65,66,79,60,94,153.64,6,-9.00,81.00,-1027.00
2024-06-07 14:35:10.318171,0,-4,55,0,0,0,65,66,79,60,94,153.63,6,-25.00,64.00,-992.00
2024-06-07 14:35:10.417640,0,-3,55,0,0,0,65,66,79,60,94,153.73,7,-17.00,77.00,-990.00
2024-06-07 14:35:10.589355,-1,-3,55,0,0,0,65,66,80,60,94,153.72,7,-34.00,95.00,-1001.00
2024-06-07 14:35:10.621671,-1,-4,55,0,0,0,65,66,80,60,94,153.63,7,-15.00,73.00,-973.00
2024-06-07 14:35:10.724128,-1,-4,56,0,0,0,65,66,80,60,94,153.70,7,-17.00,79.00,-984.00
2024-06-07 14:35:10.825693,-1,-4,56,0,0,0,65,66,80,60,94,153.70,7,-26.00,79.00,-991.00
2024-06-07 14:35:10.998961,-2,-4,56,0,0,0,65,66,81,60,94,153.64,7,-28.00,66.00,-965.00
2024-06-07 14:35:11.029734,-1,-4,56,0,0,0,64,66,80,60,94,153.66,7,-13.00,77.00,-989.00
2024-06-07 14:35:11.204895,-1,-4,55,0,0,0,64,66,81,60,94,153.67,7,-18.00,76.00,-1007.00
2024-06-07 14:35:11.233474,-1,-4,56,0,0,0,64,66,81,60,94,153.57,7,-48.00,91.00,-995.00
2024-06-07 14:35:11.335583,-1,-3,56,0,0,0,64,66,81,60,94,153.78,7,-47.00,106.00,-965.00
2024-06-07 14:35:11.387994,-1,-4,55,0,0,0,64,66,81,60,94,153.72,8,-25.00,82.00,-1006.00
2024-06-07 14:35:11.488705,-1,-4,55,0,0,0,64,66,81,60,94,153.74,8,-31.00,81.00,-998.00
2024-06-07 14:35:11.613213,-1,-4,55,0,0,0,64,66,81,60,94,153.61,8,-25.00,59.00,-1066.00
2024-06-07 14:35:11.699950,-1,-4,55,0,0,0,64,66,82,60,94,153.73,8,-40.00,84.00,-1099.00
2024-06-07 14:35:11.795837,-1,-3,55,0,0,-1,64,66,84,60,94,153.61,8,-27.00,75.00,-1094.00
2024-06-07 14:35:11.920435,-1,-3,55,0,0,-2,64,66,87,60,94,153.70,8,-30.00,62.00,-1067.00
2024-06-07 14:35:11.999793,-1,-3,55,0,0,-3,63,66,92,70,94,153.71,8,-59.00,59.00,-1063.00
2024-06-07 14:35:12.129450,-1,-3,55,0,0,-4,63,66,96,70,94,153.66,8,-46.00,65.00,-1062.00
2024-06-07 14:35:12.205945,-2,-2,55,0,0,-4,63,66,101,80,94,153.70,8,-47.00,57.00,-1033.00
2024-06-07 14:35:12.305429,-3,-2,55,0,0,-5,63,66,107,80,94,153.79,8,-53.00,58.00,-984.00
2024-06-07 14:35:12.432417,-3,-2,55,0,0,-5,63,66,113,90,94,153.87,9,-33.00,70.00,-1032.00
2024-06-07 14:35:12.514865,-3,-3,55,0,0,-5,63,66,120,90,94,153.93,9,-59.00,82.00,-986.00
2024-06-07 14:35:12.616799,-3,-3,55,0,0,-5,63,66,126,100,94,153.95,9,-66.00,76.00,-980.00
2024-06-07 14:35:12.712461,-3,-3,55,0,0,-5,63,66,132,100,94,153.98,9,-53.00,66.00,-959.00
2024-06-07 14:35:12.818822,-3,-4,55,0,0,-5,63,66,136,110,94,154.01,9,-58.00,58.00,-1022.00
2024-06-07 14:35:12.919224,-3,-3,55,0,0,-4,63,66,142,110,94,154.13,9,-91.00,78.00,-968.00
2024-06-07 14:35:13.020357,-4,-3,55,0,0,-4,65,67,146,120,94,154.22,9,-78.00,75.00,-946.00
2024-06-07 14:35:13.120619,-5,-3,56,0,0,-4,65,67,151,130,94,154.21,9,-80.00,64.00,-974.00
2024-06-07 14:35:13.253925,-5,-3,56,0,0,-3,65,67,156,130,94,154.19,9,-84.00,63.00,-968.00
2024-06-07 14:35:13.328456,-5,-3,56,0,0,-3,65,67,160,140,94,154.26,10,-82.00,56.00,-971.00
2024-06-07 14:35:13.428846,-5,-3,56,0,0,-3,65,67,164,140,94,154.30,10,-82.00,48.00,-924.00
2024-06-07 14:35:13.533788,-5,-2,55,0,0,-3,65,67,169,140,94,154.30,10,-103.00,58.00,-949.00
2024-06-07 14:35:13.634555,-5,-2,55,0,0,-2,65,67,170,150,94,154.27,10,-98.00,47.00,-940.00
2024-06-07 14:35:13.732450,-5,-2,55,0,0,-2,65,67,174,150,94,154.45,10,-95.00,45.00,-951.00
2024-06-07 14:35:13.834424,-5,-1,55,0,0,-1,65,67,177,150,94,154.34,10,-100.00,55.00,-995.00
2024-06-07 14:35:13.968434,-5,-1,55,0,0,-1,65,67,179,150,94,154.50,10,-87.00,51.00,-1022.00
2024-06-07 14:35:14.038617,-5,-1,55,0,0,-1,66,67,180,160,94,154.34,10,-85.00,39.00,-938.00
2024-06-07 14:35:14.173979,-5,-2,55,0,0,-1,66,67,181,160,94,154.32,10,-97.00,39.00,-954.00
2024-06-07 14:35:14.242432,-5,-2,55,0,0,0,66,67,183,160,94,154.37,10,-70.00,39.00,-988.00
2024-06-07 14:35:14.378096,-4,-1,55,0,0,0,66,67,182,160,94,154.43,11,-71.00,37.00,-950.00
2024-06-07 14:35:14.446431,-4,-1,55,0,0,0,66,67,182,160,94,154.48,11,-101.00,37.00,-983.00
2024-06-07 14:35:14.548879,-4,-1,55,0,0,0,66,67,183,160,94,154.54,11,-77.00,53.00,-964.00
2024-06-07 14:35:14.651338,-4,-1,55,0,0,0,66,67,183,160,94,154.47,11,-83.00,64.00,-982.00
2024-06-07 14:35:14.753823,-5,-2,56,0,0,0,66,67,182,160,94,154.38,11,-103.00,55.00,-962.00
2024-06-07 14:35:14.855863,-5,-2,56,0,0,0,66,67,184,160,94,154.31,11,-71.00,62.00,-962.00
2024-06-07 14:35:14.958190,-5,-2,56,0,0,0,66,67,183,160,94,154.36,11,-125.00,47.00,-956.00
2024-06-07 14:35:15.061062,-5,-2,56,0,0,0,65,67,184,160,94,154.36,11,-93.00,18.00,-979.00
2024-06-07 14:35:15.163197,-4,-1,55,0,0,0,65,67,183,160,94,154.20,11,-75.00,46.00,-1006.00
2024-06-07 14:35:15.262402,-4,-1,56,0,0,0,65,67,183,160,94,154.12,11,-74.00,44.00,-1036.00
2024-06-07 14:35:15.364392,-4,-1,55,0,0,0,65,67,184,160,94,154.30,12,-97.00,44.00,-983.00
2024-06-07 14:35:15.505871,-4,-1,55,0,0,0,65,67,184,160,94,154.35,12,-102.00,39.00,-968.00
2024-06-07 14:35:15.518746,-5,-1,55,0,0,0,65,67,186,160,94,154.31,12,-114.00,21.00,-1019.00
2024-06-07 14:35:15.619453,-5,-1,55,0,0,0,65,67,185,160,94,154.29,12,-103.00,16.00,-1007.00
2024-06-07 14:35:15.721447,-5,-1,56,0,0,0,65,67,186,160,94,154.45,12,-96.00,17.00,-986.00
2024-06-07 14:35:15.915204,-5,0,56,0,0,0,65,67,187,160,94,154.42,12,-91.00,39.00,-979.00
2024-06-07 14:35:15.926316,-5,0,56,0,0,0,65,67,186,160,94,154.29,12,-89.00,92.00,-972.00
2024-06-07 14:35:16.028315,-4,-2,56,0,1,0,66,68,187,160,94,154.20,12,-78.00,71.00,-993.00
2024-06-07 14:35:16.130275,-3,-3,55,0,1,0,66,68,185,160,94,154.35,12,-91.00,42.00,-963.00
2024-06-07 14:35:16.324098,-3,-4,55,0,0,0,66,68,185,160,94,154.26,12,-92.00,23.00,-960.00
2024-06-07 14:35:16.334210,-4,-3,55,0,0,1,66,68,185,160,94,154.38,13,-79.00,26.00,-964.00
2024-06-07 14:35:16.532910,-4,-1,55,0,0,1,66,68,184,160,94,154.25,13,-86.00,22.00,-933.00
2024-06-07 14:35:16.538232,-5,0,56,0,0,1,66,68,180,160,94,154.15,13,-74.00,11.00,-949.00
2024-06-07 14:35:16.640398,-5,0,55,0,0,2,66,68,179,160,94,154.31,13,-36.00,65.00,-1004.00
2024-06-07 14:35:16.836258,-4,0,55,0,0,2,66,68,177,150,94,154.36,13,-52.00,65.00,-1010.00
2024-06-07 14:35:16.844242,-3,-2,55,0,1,2,66,68,172,150,94,154.19,13,-88.00,61.00,-1003.00
2024-06-07 14:35:17.040816,-3,-2,55,0,1,2,66,68,170,150,94,154.11,13,-31.00,62.00,-1021.00
2024-06-07 14:35:17.048239,-2,-2,55,0,1,2,66,68,167,150,94,154.37,13,-59.00,69.00,-928.00
2024-06-07 14:35:17.247439,-2,-3,55,0,1,2,66,68,165,140,94,154.27,13,-56.00,63.00,-979.00
2024-06-07 14:35:17.254910,-2,-3,55,0,1,2,66,68,163,140,94,154.07,13,-47.00,52.00,-1009.00
2024-06-07 14:35:17.354217,-2,-3,55,0,0,2,66,68,159,140,94,154.13,14,-67.00,44.00,-970.00
2024-06-07 14:35:17.552336,-2,-3,55,0,0,2,66,68,157,140,94,154.04,14,-61.00,44.00,-1045.00
2024-06-07 14:35:17.558239,-2,-3,55,0,0,2,66,68,155,130,94,154.19,14,-69.00,41.00,-1067.00
2024-06-07 14:35:17.757147,-2,-2,55,0,0,1,66,68,152,130,94,154.19,14,-90.00,37.00,-995.00
2024-06-07 14:35:17.762417,-3,-1,56,0,0,1,66,68,152,130,94,154.25,14,-71.00,62.00,-990.00
2024-06-07 14:35:17.866038,-4,-1,55,0,0,1,66,68,148,130,94,154.19,14,-56.00,64.00,-993.00
2024-06-07 14:35:17.966732,-3,-3,55,0,0,1,66,68,148,130,94,154.10,14,-62.00,58.00,-989.00
2024-06-07 14:35:18.068374,-4,-3,55,0,0,1,66,69,146,130,94,154.11,14,-55.00,60.00,-1010.00
2024-06-07 14:35:18.269143,-4,-3,55,0,0,1,66,69,145,120,94,153.98,14,-59.00,44.00,-1004.00
2024-06-07 14:35:18.272158,-4,-3,56,0,0,1,66,69,143,120,94,153.93,14,-60.00,40.00,-994.00
2024-06-07 14:35:18.474972,-3,-2,56,0,0,1,66,69,142,120,94,154.00,15,-62.00,45.00,-1022.00
2024-06-07 14:35:18.476383,-3,-2,56,0,0,1,66,69,139,120,94,153.77,15,-54.00,44.00,-1035.00
2024-06-07 14:35:18.578266,-2,-1,56,0,0,1,66,69,138,120,94,153.74,15,-54.00,37.00,-1001.00
2024-06-07 14:35:18.680313,-3,-1,55,0,0,1,66,69,137,120,94,153.88,15,-45.00,40.00,-990.00
2024-06-07 14:35:18.883858,-3,-2,55,0,0,1,66,69,137,120,94,153.81,15,-76.00,16.00,-994.00
2024-06-07 14:35:18.884116,-2,-2,56,0,0,0,66,69,136,120,94,153.84,15,-77.00,13.00,-988.00
2024-06-07 14:35:18.986406,-3,0,56,0,0,0,66,69,134,110,94,153.95,15,-62.00,28.00,-1022.00
2024-06-07 14:35:19.088882,-3,0,56,0,0,0,67,68,134,110,94,153.90,15,-54.00,62.00,-997.00
2024-06-07 14:35:19.190557,-4,-1,56,0,0,0,67,68,134,110,94,153.88,15,-56.00,57.00,-1023.00
2024-06-07 14:35:19.295512,-3,-3,56,0,0,0,67,68,133,110,94,153.80,15,-78.00,41.00,-1002.00
2024-06-07 14:35:19.395243,-3,-2,56,0,0,0,67,68,134,110,94,153.60,16,-79.00,44.00,-1037.00
2024-06-07 14:35:19.446645,-4,-2,55,0,0,0,67,68,134,110,94,153.82,16,-69.00,34.00,-1015.00
2024-06-07 14:35:19.600430,-4,-2,55,0,0,0,67,68,134,110,94,153.90,16,-66.00,35.00,-1008.00
2024-06-07 14:35:19.650225,-4,-1,56,0,0,0,67,68,133,110,94,153.91,16,-71.00,38.00,-972.00
2024-06-07 14:35:19.805222,-4,-1,56,0,0,0,67,68,135,110,94,153.93,16,-105.00,37.00,-960.00
2024-06-07 14:35:19.854276,-4,-1,56,0,0,0,67,68,134,110,94,153.85,16,-82.00,29.00,-1012.00
2024-06-07 14:35:20.010048,-4,-1,56,0,0,0,67,68,135,110,94,154.02,16,-55.00,68.00,-984.00
2024-06-07 14:35:20.058284,-4,-2,56,0,0,0,67,69,135,110,94,153.90,16,-61.00,66.00,-1006.00
2024-06-07 14:35:20.215186,-4,-3,56,0,0,0,67,69,135,110,94,153.94,16,-64.00,59.00,-993.00
2024-06-07 14:35:20.262187,-3,-3,56,0,0,0,67,69,134,110,94,153.85,16,-66.00,73.00,-1037.00
2024-06-07 14:35:20.419705,-3,-3,55,0,0,0,67,69,135,110,94,154.09,17,-66.00,68.00,-989.00
2024-06-07 14:35:20.466167,-3,-3,55,0,0,0,67,69,135,110,94,154.05,17,-65.00,63.00,-997.00
2024-06-07 14:35:20.582834,-3,-3,55,0,0,0,67,69,135,110,94,154.00,17,-78.00,61.00,-965.00
2024-06-07 14:35:20.671116,-4,-3,55,0,0,0,67,69,135,110,94,153.98,17,-53.00,61.00,-1002.00
2024-06-07 14:35:20.829247,-5,-3,55,0,0,0,67,69,136,110,94,153.96,17,-67.00,68.00,-1020.00
2024-06-07 14:35:20.874025,-8,-2,56,0,0,0,67,69,138,110,94,154.05,17,-51.00,68.00,-1001.00
2024-06-07 14:35:21.033939,-8,-2,56,0,1,0,67,69,138,110,94,153.96,17,-75.00,70.00,-1006.00
2024-06-07 14:35:21.080086,-8,-2,55,0,1,0,67,69,138,110,94,154.01,17,-65.00,75.00,-1043.00
2024-06-07 14:35:21.180045,-8,-2,55,0,2,0,67,69,138,110,94,153.93,17,-68.00,55.00,-992.00
2024-06-07 14:35:21.341372,-8,-2,55,0,2,0,67,69,138,110,94,153.89,17,-110.00,57.00,-1020.00
2024-06-07 14:35:21.384700,-8,-2,56,0,3,0,67,69,138,110,94,153.95,18,-99.00,51.00,-1027.00
2024-06-07 14:35:21.486029,-8,-2,56,1,3,0,67,69,138,120,94,153.99,18,-93.00,63.00,-977.00
2024-06-07 14:35:21.648312,-8,-3,56,1,3,0,67,69,139,120,94,153.87,18,-107.00,62.00,-982.00
2024-06-07 14:35:21.690199,-8,-2,56,1,3,0,67,69,137,120,94,153.81,18,-108.00,49.00,-974.00
2024-06-07 14:35:21.853128,-8,-2,56,1,3,0,67,69,138,110,94,153.82,18,-110.00,31.00,-1003.00
2024-06-07 14:35:21.894024,-8,-3,56,2,4,0,67,69,135,110,94,153.98,18,-99.00,38.00,-962.00
2024-06-07 14:35:22.057877,-8,-3,56,2,4,0,67,69,136,110,94,153.86,18,-122.00,38.00,-999.00
2024-06-07 14:35:22.098003,-7,-4,56,2,4,0,68,70,135,110,94,153.82,18,-123.00,35.00,-1020.00
2024-06-07 14:35:22.200001,-6,-4,56,3,3,0,68,70,135,110,94,153.85,18,-138.00,31.00,-988.00
2024-06-07 14:35:22.302418,-2,-2,55,3,3,0,68,70,135,110,94,153.92,18,-118.00,56.00,-992.00
2024-06-07 14:35:22.467508,-2,-2,55,2,2,0,68,70,134,110,94,153.79,19,-135.00,40.00,-948.00
2024-06-07 14:35:22.505903,-3,-1,55,2,2,0,68,70,135,110,94,153.80,19,-119.00,46.00,-988.00
2024-06-07 14:35:22.672328,-4,-1,55,1,1,0,68,70,135,110,94,153.78,19,-119.00,29.00,-985.00
2024-06-07 14:35:22.710001,-5,-2,55,1,1,0,68,70,136,110,94,153.62,19,-121.00,25.00,-1007.00
2024-06-07 14:35:22.877103,-6,-1,55,1,1,0,68,70,136,110,94,153.84,19,-122.00,23.00,-1003.00
2024-06-07 14:35:22.913907,-6,0,55,1,1,0,68,70,137,110,94,153.79,19,-119.00,56.00,-1044.00
2024-06-07 14:35:23.082122,-6,0,55,1,1,0,68,70,136,110,94,153.85,19,-100.00,40.00,-981.00
2024-06-07 14:35:23.118437,-6,-1,55,1,1,0,67,70,137,120,94,153.75,19,-120.00,43.00,-987.00
2024-06-07 14:35:23.287017,-6,-1,55,1,1,0,67,70,137,120,94,153.81,19,-128.00,38.00,-1009.00
2024-06-07 14:35:23.322232,-6,-1,55,1,1,0,67,70,137,120,94,153.88,19,-97.00,29.00,-933.00
2024-06-07 14:35:23.423903,-6,-1,56,1,1,0,67,70,136,120,94,153.79,20,-98.00,58.00,-1035.00
2024-06-07 14:35:23.594705,-6,-1,56,1,1,0,67,70,137,120,94,153.85,20,-105.00,50.00,-1022.00
2024-06-07 14:35:23.594740,-6,-1,55,1,1,0,67,70,135,110,94,153.78,20,-111.00,43.00,-978.00
2024-06-07 14:35:23.678907,-5,-2,55,1,2,0,67,70,135,110,94,153.74,20,-85.00,41.00,-1072.00
2024-06-07 14:35:23.798970,-5,-2,55,1,1,0,67,70,135,110,94,153.75,20,-102.00,21.00,-995.00
2024-06-07 14:35:23.882973,-5,-1,55,1,1,0,67,70,134,110,94,153.75,20,-103.00,25.00,-1000.00
2024-06-07 14:35:24.003500,-5,0,55,1,1,0,67,70,134,110,94,153.72,20,-110.00,30.00,-1024.00
2024-06-07 14:35:24.086894,-4,0,55,1,1,0,68,70,133,110,94,153.66,20,-103.00,25.00,-946.00
2024-06-07 14:35:24.188945,-4,0,55,0,1,0,68,70,132,110,94,153.72,20,-114.00,29.00,-1005.00
2024-06-07 14:35:24.310680,-5,0,55,0,1,0,68,70,132,110,94,153.81,20,-111.00,52.00,-1047.00
2024-06-07 14:35:24.393504,-4,-1,56,0,2,0,68,70,131,110,94,153.79,21,-104.00,41.00,-1049.00
2024-06-07 14:35:24.494890,-1,-4,55,0,1,0,68,70,131,110,94,153.70,21,-99.00,29.00,-987.00
2024-06-07 14:35:24.597785,-2,-3,55,0,0,0,68,70,131,110,94,153.72,21,-99.00,20.00,-1013.00
2024-06-07 14:35:24.700092,-3,-2,56,0,0,0,68,70,131,110,94,153.64,21,-63.00,42.00,-1010.00
2024-06-07 14:35:24.802485,-4,-1,56,0,0,0,68,70,131,110,94,153.78,21,-57.00,61.00,-1034.00
2024-06-07 14:35:24.904820,-3,-1,55,0,0,0,68,70,131,110,94,153.76,21,-63.00,42.00,-988.00
2024-06-07 14:35:25.007201,-3,-2,55,0,0,0,68,70,131,110,94,153.76,21,-86.00,56.00,-1058.00
2024-06-07 14:35:25.110317,-3,-2,55,0,0,0,68,70,132,110,94,153.77,21,-57.00,48.00,-1017.00
2024-06-07 14:35:25.211884,-3,-2,55,0,0,0,68,70,131,110,94,153.84,21,-69.00,49.00,-991.00
2024-06-07 14:35:25.315461,-3,-2,55,0,0,0,68,70,131,110,94,153.93,21,-51.00,58.00,-1015.00
2024-06-07 14:35:25.412858,-3,-2,56,0,0,0,68,70,131,110,94,153.81,22,-75.00,53.00,-1002.00
2024-06-07 14:35:25.539691,-4,-3,56,0,0,0,68,70,131,110,94,153.79,22,-68.00,52.00,-1002.00
2024-06-07 14:35:25.616896,-4,-2,56,0,0,0,68,70,132,110,94,153.81,22,-50.00,68.00,-1029.00
2024-06-07 14:35:25.725047,-4,-2,56,0,0,0,68,70,131,110,94,153.85,22,-66.00,73.00,-997.00
2024-06-07 14:35:25.825176,-3,-3,55,0,0,0,68,70,132,110,94,153.86,22,-65.00,56.00,-996.00
2024-06-07 14:35:25.923490,-3,-3,56,0,0,0,68,70,132,110,94,153.81,22,-50.00,54.00,-1022.00
2024-06-07 14:35:26.051607,-3,-3,56,0,0,0,68,70,132,110,94,153.89,22,-74.00,43.00,-968.00
2024-06-07 14:35:26.129340,-3,-3,56,0,0,0,68,71,132,110,94,153.88,22,-72.00,51.00,-1007.00
2024-06-07 14:35:26.229692,-4,-2,56,0,0,0,68,71,132,110,94,153.86,22,-47.00,43.00,-1010.00
2024-06-07 14:35:26.331128,-4,-2,55,0,0,0,68,71,131,110,94,153.85,22,-71.00,51.00,-987.00
2024-06-07 14:35:26.432860,-3,-2,55,0,0,0,68,71,131,110,94,153.85,23,-71.00,48.00,-959.00
2024-06-07 14:35:26.536870,-4,-2,55,0,0,0,68,71,131,110,94,153.85,23,-66.00,53.00,-1019.00
2024-06-07 14:35:26.636742,-4,-2,55,0,0,0,68,71,131,110,94,153.78,23,-80.00,54.00,-1003.00
2024-06-07 14:35:26.738745,-4,-3,55,0,0,0,68,71,130,110,94,153.77,23,-82.00,46.00,-916.00
2024-06-07 14:35:26.840815,0,-2,55,0,0,0,68,71,130,110,94,153.89,23,-77.00,45.00,-1009.00
2024-06-07 14:35:26.891870,3,-2,55,0,-1,0,68,71,130,110,94,153.71,23,-66.00,57.00,-1061.00
2024-06-07 14:35:27.076047,4,-2,55,-1,-2,0,68,71,129,110,94,153.84,23,-51.00,60.00,-1010.00
2024-06-07 14:35:27.146717,3,-2,56,-3,-4,0,69,70,129,110,94,153.76,23,-32.00,59.00,-1015.00
2024-06-07 14:35:27.248716,3,-2,56,-3,-4,0,69,70,128,110,94,153.97,23,-28.00,59.00,-1002.00
2024-06-07 14:35:27.299989,2,-3,56,-3,-5,0,69,70,129,110,94,154.01,24,-15.00,64.00,-999.00
2024-06-07 14:35:27.485058,2,-3,56,-4,-5,0,69,70,129,110,94,154.03,24,3.00,70.00,-1019.00
2024-06-07 14:35:27.503653,0,-3,56,-4,-5,0,69,70,128,110,94,154.05,24,5.00,49.00,-995.00
2024-06-07 14:35:27.690053,-3,-3,56,-4,-5,0,69,70,129,110,94,154.01,24,1.00,74.00,-1022.00
2024-06-07 14:35:27.707659,-5,-3,56,-3,-5,0,69,70,130,110,94,153.96,24,0.00,61.00,-991.00
2024-06-07 14:35:27.894659,-7,-4,56,-3,-4,0,69,70,131,110,94,153.93,24,0.00,62.00,-1002.00
2024-06-07 14:35:27.911668,-6,-3,56,-2,-3,0,69,70,132,110,94,153.97,24,-31.00,72.00,-984.00
2024-06-07 14:35:28.099433,-5,-3,56,-2,-2,0,69,70,132,110,94,153.87,24,-23.00,59.00,-999.00
2024-06-07 14:35:28.115967,-4,-3,56,-1,-2,0,69,71,132,110,94,153.97,24,-21.00,69.00,-1018.00
2024-06-07 14:35:28.304595,-3,-3,55,-1,-2,0,69,71,131,110,94,153.93,24,-51.00,57.00,-977.00
2024-06-07 14:35:28.319603,-3,-3,55,-1,-2,0,69,71,132,110,94,153.95,25,-37.00,65.00,-1029.00
2024-06-07 14:35:28.509263,-2,-2,55,-1,-2,0,69,71,132,110,94,154.02,25,-36.00,56.00,-992.00
2024-06-07 14:35:28.523876,-2,-3,55,-1,-2,0,69,71,132,110,94,153.96,25,-38.00,53.00,-998.00
2024-06-07 14:35:28.718074,-2,-2,55,-1,-2,0,69,71,134,110,94,153.97,25,-59.00,43.00,-998.00
2024-06-07 14:35:28.727762,-2,-2,55,-1,-2,0,69,71,134,110,94,153.90,25,-46.00,42.00,-1023.00
2024-06-07 14:35:28.919079,-2,-2,55,0,-2,0,69,71,135,110,94,153.93,25,-11.00,35.00,-990.00
2024-06-07 14:35:28.931573,-4,-4,55,0,-2,0,69,71,134,110,94,154.01,25,-69.00,47.00,-966.00
2024-06-07 14:35:29.123356,-7,-1,55,0,-1,0,69,71,136,110,94,153.92,25,-57.00,31.00,-1114.00
2024-06-07 14:35:29.135781,-6,0,55,0,-1,0,69,71,136,110,94,153.94,25,-39.00,42.00,-1031.00
2024-06-07 14:35:29.237854,-5,0,55,0,0,0,69,71,135,110,94,153.97,25,-56.00,57.00,-1005.00
2024-06-07 14:35:29.339618,-4,-1,55,0,0,0,69,71,135,110,94,153.88,26,-57.00,50.00,-998.00
2024-06-07 14:35:29.443365,-3,-2,55,0,0,0,69,71,135,110,94,153.89,26,-61.00,42.00,-1010.00
2024-06-07 14:35:29.543564,-2,-2,55,0,0,0,69,71,134,110,94,153.78,26,-63.00,39.00,-998.00
2024-06-07 14:35:29.684392,-2,-2,55,0,0,0,69,71,135,110,94,153.85,26,-65.00,44.00,-1018.00
2024-06-07 14:35:29.747602,-3,-1,55,0,0,0,69,71,134,110,94,153.78,26,-54.00,50.00,-1030.00
2024-06-07 14:35:29.942667,-3,-1,55,0,0,0,69,71,135,110,94,153.95,26,-64.00,49.00,-1001.00
2024-06-07 14:35:29.952300,-3,-1,56,0,0,0,69,71,136,110,94,153.95,26,-48.00,41.00,-1020.00
2024-06-07 14:35:30.147475,-3,-1,56,0,0,0,69,71,137,110,94,153.94,26,-46.00,38.00,-996.00
2024-06-07 14:35:30.156925,-3,-1,56,0,0,0,69,71,137,110,94,153.89,26,-68.00,47.00,-976.00
2024-06-07 14:35:30.352840,-3,-2,56,0,0,0,69,71,138,110,94,153.76,26,-42.00,58.00,-1003.00
2024-06-07 14:35:30.359742,-3,-2,55,0,0,0,69,71,139,120,94,153.84,27,-54.00,46.00,-984.00
2024-06-07 14:35:30.557051,-3,-2,55,0,0,0,69,71,138,120,94,153.88,27,-52.00,48.00,-990.00
2024-06-07 14:35:30.563548,-3,-2,55,0,0,0,69,71,139,120,94,153.93,27,-73.00,39.00,-944.00
2024-06-07 14:35:30.761925,-3,-2,55,0,0,0,69,71,139,120,94,153.86,27,-46.00,27.00,-988.00
2024-06-07 14:35:30.767507,-3,-1,55,0,0,0,69,71,139,120,94,153.78,27,-47.00,34.00,-997.00
2024-06-07 14:35:30.822245,-3,-1,55,0,0,0,69,71,139,120,94,153.93,27,-54.00,37.00,-996.00
2024-06-07 14:35:30.920615,-2,-1,55,0,0,0,69,71,140,120,94,153.87,27,-57.00,36.00,-983.00
2024-06-07 14:35:31.069353,-2,-1,55,0,0,0,69,71,139,120,94,153.89,27,-46.00,36.00,-980.00
2024-06-07 14:35:31.129058,-3,-1,55,0,0,0,69,72,139,120,94,153.89,27,-59.00,41.00,-999.00
2024-06-07 14:35:31.226748,-3,-1,55,0,0,0,69,72,138,120,94,154.06,27,-48.00,43.00,-1002.00
2024-06-07 14:35:31.328523,-3,-3,56,0,0,0,69,72,139,120,94,154.04,28,-45.00,45.00,-954.00
2024-06-07 14:35:31.479447,-2,-8,56,0,0,0,69,72,138,120,94,153.92,28,-43.00,39.00,-1025.00
2024-06-07 14:35:31.533001,-2,-8,56,1,0,0,69,72,137,120,94,153.97,28,-41.00,49.00,-1010.00
2024-06-07 14:35:31.634524,-2,-8,56,2,-1,0,69,72,137,110,94,154.06,28,-53.00,36.00,-1012.00
2024-06-07 14:35:31.786669,-3,-5,55,3,-1,0,69,72,136,110,94,154.00,28,-35.00,48.00,-1044.00
2024-06-07 14:35:31.841008,-2,-1,55,3,-2,0,69,72,135,110,94,153.99,28,-50.00,53.00,-934.00
2024-06-07 14:35:31.940654,-2,0,55,3,-1,0,69,72,135,110,94,153.93,28,-63.00,55.00,-963.00
2024-06-07 14:35:32.095358,-2,0,55,2,-1,0,69,72,136,110,94,154.00,28,-55.00,56.00,-1046.00
2024-06-07 14:35:32.144452,-3,-1,55,2,-1,0,69,72,135,110,94,153.93,28,-69.00,36.00,-943.00
2024-06-07 14:35:32.298592,-3,-1,55,2,-1,0,69,72,137,110,94,153.93,28,-61.00,46.00,-983.00
2024-06-07 14:35:32.348461,-3,-1,55,2,-1,0,69,72,137,110,94,154.01,29,-49.00,62.00,-1036.00
2024-06-07 14:35:32.450434,-3,-2,55,2,-1,0,69,72,139,120,94,153.93,29,-65.00,75.00,-1015.00
2024-06-07 14:35:32.605008,-3,-2,55,2,-1,0,69,72,139,120,94,153.93,29,-33.00,66.00,-984.00
2024-06-07 14:35:32.654472,-2,-2,55,2,-1,0,69,72,139,120,94,153.93,29,-57.00,67.00,-1005.00
2024-06-07 14:35:32.761854,-2,-3,55,2,-1,0,69,72,140,120,94,153.95,29,-50.00,57.00,-994.00
2024-06-07 14:35:32.858458,-3,-2,55,2,-1,0,69,72,141,120,94,153.96,29,-58.00,54.00,-981.00
2024-06-07 14:35:33.014616,-5,0,55,1,-1,0,69,72,142,120,94,153.87,29,-8.00,53.00,-958.00
2024-06-07 14:35:33.062427,-2,2,55,1,0,0,69,72,140,120,94,154.01,29,-49.00,61.00,-1002.00
2024-06-07 14:35:33.222507,-2,0,55,0,0,0,70,72,139,120,94,153.91,29,-55.00,48.00,-987.00
2024-06-07 14:35:33.266611,-2,-1,55,0,0,0,70,72,140,120,94,153.90,29,-42.00,49.00,-987.00
2024-06-07 14:35:33.369078,-2,-2,55,0,0,0,70,72,140,120,94,153.89,30,-39.00,57.00,-1045.00
2024-06-07 14:35:33.526735,-2,-2,55,0,0,0,70,72,139,120,94,153.89,30,-46.00,59.00,-1045.00
2024-06-07 14:35:33.572869,-2,-2,55,0,0,0,70,72,138,120,94,153.94,30,-34.00,52.00,-1009.00
2024-06-07 14:35:33.731536,-2,-2,55,0,0,0,70,72,137,120,94,154.03,30,-33.00,51.00,-993.00
2024-06-07 14:35:33.776552,-1,-2,55,0,0,0,70,72,136,120,94,153.90,30,-30.00,50.00,-1028.00
2024-06-07 14:35:33.937051,-1,-2,55,0,0,0,70,72,136,120,94,153.89,30,-29.00,52.00,-1028.00
2024-06-07 14:35:33.980427,-1,-2,55,0,0,0,70,72,135,110,94,153.93,30,-42.00,46.00,-988.00
2024-06-07 14:35:34.140988,-1,-2,55,0,0,0,70,72,136,110,94,153.93,30,-32.00,49.00,-1062.00
2024-06-07 14:35:34.184448,-2,-2,55,0,0,0,70,72,134,110,94,153.92,30,-56.00,44.00,-1025.00
2024-06-07 14:35:34.349112,-2,-2,55,0,0,0,70,72,134,110,94,153.92,30,-56.00,39.00,-962.00
2024-06-07 14:35:34.388655,-2,-2,55,0,0,0,70,72,133,110,94,153.80,31,-47.00,33.00,-1009.00
2024-06-07 14:35:34.551875,-2,-1,55,0,0,0,70,72,133,110,94,153.82,31,-57.00,44.00,-1018.00
2024-06-07 14:35:34.592457,-3,-1,55,0,0,0,70,72,133,110,94,153.84,31,-38.00,16.00,-954.00
2024-06-07 14:35:34.656250,-3,-1,55,0,0,0,70,72,132,110,94,153.91,31,-51.00,34.00,-1022.00
2024-06-07 14:35:34.745359,-3,-1,55,0,0,0,70,72,132,110,94,153.83,31,-57.00,37.00,-1069.00
2024-06-07 14:35:34.847756,-3,-1,55,0,0,0,70,72,133,110,94,153.84,31,-55.00,28.00,-1000.00
2024-06-07 14:35:34.960619,-3,-1,55,0,0,0,70,72,133,110,94,153.86,31,-45.00,31.00,-1006.00
2024-06-07 14:35:35.051456,-3,-1,55,0,0,0,70,72,133,110,94,153.87,31,-53.00,35.00,-1049.00
2024-06-07 14:35:35.165139,-3,-1,55,0,0,0,70,72,134,110,94,153.99,31,-52.00,32.00,-1025.00
2024-06-07 14:35:35.255522,-2,-1,55,0,0,0,70,72,134,110,94,153.95,31,-51.00,31.00,-1000.00
2024-06-07 14:35:35.369794,-2,-1,56,0,0,0,70,72,133,110,94,153.94,32,-47.00,34.00,-988.00
2024-06-07 14:35:35.460426,-3,4,55,0,0,0,70,72,134,110,94,153.92,32,-46.00,44.00,-980.00
2024-06-07 14:35:35.574678,-2,6,55,-1,0,0,70,72,135,110,94,153.94,32,-52.00,54.00,-1007.00
2024-06-07 14:35:35.664301,-3,3,55,-2,1,0,70,72,134,110,94,153.87,32,-34.00,25.00,-1018.00
2024-06-07 14:35:35.766278,-2,1,55,-2,2,0,70,72,134,110,94,153.93,32,-31.00,27.00,-999.00
2024-06-07 14:35:35.868981,-2,-1,55,-3,2,0,70,72,134,110,94,153.96,32,-36.00,7.00,-958.00
2024-06-07 14:35:35.985422,-2,-3,55,-2,2,0,70,72,134,110,94,153.86,32,-49.00,8.00,-1031.00
2024-06-07 14:35:36.079252,-2,-2,55,-2,2,0,70,72,135,110,94,153.82,32,-28.00,14.00,-941.00
2024-06-07 14:35:36.174232,-2,-2,55,-2,1,0,70,72,135,110,94,153.86,32,-44.00,2.00,-1021.00
2024-06-07 14:35:36.291399,-1,-1,55,-1,1,0,70,72,137,110,94,153.83,32,-17.00,12.00,-951.00
2024-06-07 14:35:36.378359,-1,0,55,-1,1,0,70,72,137,110,94,153.89,33,-30.00,13.00,-1006.00
2024-06-07 14:35:36.497019,-1,0,55,-1,1,0,70,72,139,110,94,153.95,33,-57.00,0.00,-1033.00
2024-06-07 14:35:36.582923,-1,0,55,-1,1,0,70,72,140,110,94,153.89,33,-38.00,12.00,-984.00
2024-06-07 14:35:36.700965,-2,0,55,-1,1,0,70,72,142,120,94,153.94,33,-58.00,5.00,-972.00
2024-06-07 14:35:36.786936,-3,0,55,-1,1,0,70,72,142,120,94,154.04,33,-34.00,9.00,-938.00
2024-06-07 14:35:36.910918,-3,0,55,-1,1,0,70,72,143,120,94,154.08,33,-36.00,4.00,-949.00
2024-06-07 14:35:36.990220,-3,0,55,-1,1,0,70,72,144,120,94,154.00,33,-59.00,5.00,-968.00
2024-06-07 14:35:37.110563,-3,0,55,-1,1,0,70,72,144,120,94,154.02,33,-61.00,14.00,-986.00
2024-06-07 14:35:37.194282,-3,0,55,-1,1,0,71,73,143,120,94,154.03,33,-38.00,40.00,-972.00
2024-06-07 14:35:37.315574,-2,-4,56,-1,1,0,71,73,144,120,94,153.99,33,-44.00,-9.00,-973.00
2024-06-07 14:35:37.399530,-2,-5,56,0,0,0,71,73,143,120,94,153.91,34,-30.00,12.00,-956.00
2024-06-07 14:35:37.520320,-2,-3,56,0,0,0,71,73,142,120,94,154.01,34,-53.00,26.00,-992.00
2024-06-07 14:35:37.603324,-2,-2,56,0,0,0,71,73,142,120,94,154.06,34,-56.00,35.00,-986.00
2024-06-07 14:35:37.725094,-2,-1,56,0,0,0,71,73,142,120,94,154.01,34,-32.00,37.00,-1010.00
2024-06-07 14:35:37.807327,-3,-1,56,0,0,0,71,73,143,120,94,154.00,34,-21.00,50.00,-1013.00
2024-06-07 14:35:37.922930,-3,-1,56,0,0,0,71,73,141,120,94,153.91,34,-45.00,37.00,-987.00
2024-06-07 14:35:38.012415,-2,-2,55,0,0,0,71,73,140,120,93,154.01,34,-38.00,28.00,-977.00
2024-06-07 14:35:38.062564,-2,-2,55,0,0,0,71,73,139,120,93,153.97,34,-54.00,41.00,-986.00
2024-06-07 14:35:38.237315,-2,-2,55,0,0,0,71,73,139,120,93,154.04,34,-29.00,37.00,-1000.00
2024-06-07 14:35:38.266225,-2,-2,55,0,0,0,71,73,139,120,93,153.96,34,-59.00,29.00,-1005.00
2024-06-07 14:35:38.441862,-2,-2,55,0,0,0,71,73,137,120,93,153.89,35,-39.00,35.00,-1009.00
2024-06-07 14:35:38.470258,-2,-2,55,0,0,0,71,73,137,120,93,153.95,35,-42.00,38.00,-1010.00
2024-06-07 14:35:38.648821,-2,-1,55,0,0,0,71,73,137,120,93,153.95,35,-58.00,27.00,-952.00
2024-06-07 14:35:38.674134,-2,-1,56,0,0,0,71,73,136,120,93,154.02,35,-30.00,30.00,-1010.00
2024-06-07 14:35:38.776219,-2,-1,56,0,0,0,71,73,137,110,93,154.03,35,-34.00,35.00,-1002.00
2024-06-07 14:35:38.953988,-2,-1,56,0,0,0,71,73,137,110,93,153.96,35,-45.00,26.00,-961.00
2024-06-07 14:35:38.980213,-2,-1,56,0,0,0,71,73,136,110,93,153.96,35,-30.00,25.00,-994.00
2024-06-07 14:35:39.158838,-2,-1,56,0,0,0,71,73,135,110,93,154.04,35,-46.00,34.00,-999.00
2024-06-07 14:35:39.184132,-2,-1,55,0,0,0,71,73,136,110,93,154.01,35,-50.00,35.00,-988.00
2024-06-07 14:35:39.363616,-2,-1,55,0,0,0,71,73,135,110,93,153.96,35,-39.00,39.00,-991.00
2024-06-07 14:35:39.391483,-2,-1,55,0,0,0,71,73,135,110,93,154.02,36,-44.00,29.00,-972.00
2024-06-07 14:35:39.490631,-2,-1,55,0,0,0,71,73,135,110,93,153.94,36,-35.00,26.00,-959.00
2024-06-07 14:35:39.670504,-1,-1,57,0,0,0,71,73,134,110,93,154.03,36,-31.00,48.00,-1008.00
2024-06-07 14:35:39.697308,-1,-1,63,0,0,0,71,73,135,110,93,154.06,36,-12.00,46.00,-990.00
2024-06-07 14:35:39.796419,-1,-2,69,0,0,0,71,73,135,110,93,153.89,36,5.00,41.00,-1018.00
2024-06-07 14:35:39.977897,0,-2,75,0,0,0,71,73,134,110,93,153.94,36,-5.00,45.00,-988.00
2024-06-07 14:35:40.000267,0,-2,81,0,0,0,71,73,132,110,93,153.96,36,-4.00,60.00,-993.00
2024-06-07 14:35:40.182541,0,-2,87,0,0,0,71,73,133,110,93,153.92,36,-21.00,58.00,-976.00
2024-06-07 14:35:40.204068,0,-2,93,0,0,0,71,74,132,110,93,153.98,36,26.00,61.00,-1002.00
2024-06-07 14:35:40.387388,0,-3,100,0,0,0,71,74,132,110,93,154.00,36,13.00,49.00,-986.00
2024-06-07 14:35:40.408139,0,-2,106,0,0,0,71,74,132,110,93,153.97,37,-2.00,68.00,-993.00
2024-06-07 14:35:40.592190,0,-2,112,0,0,0,71,74,131,110,93,154.02,37,35.00,57.00,-979.00
2024-06-07 14:35:40.613398,0,-3,119,0,0,0,71,74,131,110,93,153.95,37,9.00,79.00,-1046.00
2024-06-07 14:35:40.714198,0,-3,125,0,0,0,71,74,131,110,93,154.00,37,6.00,73.00,-1025.00
2024-06-07 14:35:40.899512,1,-3,131,0,0,0,71,74,130,110,93,153.98,37,18.00,70.00,-1033.00
2024-06-07 14:35:40.918024,2,-2,137,0,0,0,71,74,129,110,93,153.98,37,35.00,52.00,-990.00
2024-06-07 14:35:41.020085,2,-2,143,0,0,0,71,74,129,110,93,153.99,37,43.00,61.00,-1037.00
2024-06-07 14:35:41.122027,2,-2,150,0,0,0,71,74,129,110,93,153.94,37,19.00,63.00,-984.00
2024-06-07 14:35:41.308929,2,-2,156,0,0,0,71,73,128,110,93,153.88,37,33.00,56.00,-1000.00
2024-06-07 14:35:41.326161,2,-2,162,0,0,0,71,73,127,110,93,153.89,37,49.00,34.00,-999.00
2024-06-07 14:35:41.513745,2,-1,168,0,0,0,71,73,128,110,93,153.78,38,34.00,41.00,-1024.00
2024-06-07 14:35:41.529994,2,-1,174,0,0,0,71,73,127,110,93,153.96,38,60.00,20.00,-1024.00
2024-06-07 14:35:41.692097,2,0,-179,0,0,0,71,73,127,110,93,153.90,38,44.00,19.00,-981.00
2024-06-07 14:35:41.733965,2,0,-174,0,0,0,71,73,126,110,93,153.88,38,46.00,30.00,-981.00
2024-06-07 14:35:41.923314,2,0,-168,0,0,0,71,73,126,110,93,153.90,38,29.00,22.00,-945.00
2024-06-07 14:35:41.924049,2,0,-162,0,0,0,71,73,125,110,93,153.85,38,26.00,23.00,-1035.00
2024-06-07 14:35:41.991658,2,0,-156,0,0,0,71,73,125,110,93,153.84,38,37.00,15.00,-1027.00
2024-06-07 14:35:42.091039,2,0,-149,0,0,0,71,73,125,110,93,153.83,38,49.00,7.00,-1034.00
2024-06-07 14:35:42.245327,1,0,-137,0,0,0,72,73,125,110,93,153.84,38,30.00,-13.00,-1012.00
2024-06-07 14:35:42.435349,1,0,-131,0,0,0,72,73,124,110,93,153.84,39,20.00,5.00,-1042.00
2024-06-07 14:35:42.435396,0,1,-125,0,0,0,72,73,124,110,93,153.81,39,27.00,3.00,-1023.00
2024-06-07 14:35:42.500071,0,0,-119,0,0,0,72,73,125,110,93,153.84,39,12.00,17.00,-989.00
2024-06-07 14:35:42.640136,0,0,-113,0,0,0,72,73,125,110,93,153.85,39,8.00,-1.00,-1023.00
2024-06-07 14:35:42.703195,0,0,-106,0,0,0,72,73,126,110,93,153.89,39,8.00,-13.00,-990.00
2024-06-07 14:35:42.844905,0,0,-100,0,0,0,72,73,126,110,93,153.79,39,0.00,-17.00,-994.00
2024-06-07 14:35:42.913733,0,0,-94,0,0,0,72,73,127,110,93,153.88,39,4.00,-14.00,-999.00
2024-06-07 14:35:43.009028,0,0,-88,0,0,0,72,73,128,110,93,153.83,39,-3.00,-10.00,-1014.00
2024-06-07 14:35:43.152662,0,0,-82,0,0,0,72,73,129,110,93,153.93,39,-5.00,-28.00,-1001.00
2024-06-07 14:35:43.214704,-1,1,-76,0,0,0,72,74,130,110,93,153.89,39,-6.00,-35.00,-972.00
2024-06-07 14:35:43.316015,-1,0,-71,0,0,0,72,74,131,110,93,154.03,40,-18.00,-4.00,-989.00
2024-06-07 14:35:43.416844,-1,0,-65,0,0,0,72,74,131,110,93,153.99,40,-27.00,3.00,-1002.00
2024-06-07 14:35:43.519336,-1,0,-60,0,0,0,72,74,133,110,93,154.03,40,0.00,-4.00,-935.00
2024-06-07 14:35:43.621979,0,0,-55,0,0,0,72,74,132,110,93,154.02,40,0.00,6.00,-1011.00
2024-06-07 14:35:43.724059,0,0,-49,0,0,0,72,74,134,110,93,154.23,40,6.00,-1.00,-955.00
2024-06-07 14:35:43.826976,0,0,-44,0,0,0,72,74,135,110,93,154.15,40,-16.00,-1.00,-989.00
2024-06-07 14:35:43.932887,0,0,-39,0,0,0,72,74,134,110,93,154.17,40,27.00,13.00,-880.00
2024-06-07 14:35:44.031417,0,0,-34,0,0,0,72,74,135,110,92,154.16,40,12.00,-19.00,-1062.00
2024-06-07 14:35:44.134717,0,0,-29,0,0,0,72,74,134,120,92,154.16,40,-35.00,-16.00,-1035.00
2024-06-07 14:35:44.232849,0,0,-24,0,-1,0,72,74,133,120,92,154.21,40,45.00,7.00,-860.00
2024-06-07 14:35:44.335342,1,2,-19,0,-1,0,72,74,134,120,92,154.29,41,11.00,-20.00,-942.00
2024-06-07 14:35:44.436851,1,3,-13,0,-1,0,72,74,134,110,92,154.19,41,38.00,-50.00,-941.00
2024-06-07 14:35:44.585818,0,3,-7,0,-1,0,72,74,134,110,92,154.17,41,24.00,-40.00,-1009.00
2024-06-07 14:35:44.640829,1,3,-2,0,-1,0,72,74,132,110,92,154.09,41,41.00,-24.00,-993.00
2024-06-07 14:35:44.742759,0,3,3,0,-1,0,72,74,130,110,92,154.04,41,10.00,-62.00,-1027.00
2024-06-07 14:35:44.893147,0,4,10,0,-1,0,72,74,131,110,92,153.96,41,5.00,-80.00,-1001.00
2024-06-07 14:35:44.947615,-1,4,16,0,0,0,72,74,131,110,92,153.99,41,-16.00,-79.00,-971.00
2024-06-07 14:35:45.097699,-1,4,22,0,0,0,72,74,131,110,92,153.90,41,-6.00,-49.00,-1026.00
2024-06-07 14:35:45.151848,-1,3,27,0,0,0,72,74,131,110,92,153.96,41,-11.00,-62.00,-1057.00
2024-06-07 14:35:45.302416,-1,3,33,0,0,0,72,74,131,110,92,154.02,41,-12.00,-59.00,-989.00
2024-06-07 14:35:45.354980,-1,2,38,0,0,0,72,74,132,110,92,153.95,42,-25.00,-17.00,-1035.00
2024-06-07 14:35:45.507263,-1,2,42,0,0,0,72,74,132,110,92,154.10,42,-32.00,-25.00,-1053.00
2024-06-07 14:35:45.561669,-1,2,45,0,0,0,72,74,133,110,92,154.03,42,-38.00,-23.00,-1020.00
2024-06-07 14:35:45.660829,-1,3,47,0,0,0,72,74,134,110,92,154.08,42,-39.00,-17.00,-1057.00
2024-06-07 14:35:45.819929,-1,3,49,0,0,0,72,74,133,110,92,154.12,42,-37.00,-26.00,-1029.00
2024-06-07 14:35:45.864896,-1,2,51,0,0,0,72,74,135,110,92,154.06,42,-32.00,-36.00,-987.00
2024-06-07 14:35:45.917146,-1,2,52,0,0,0,72,74,135,110,92,154.04,42,-34.00,-33.00,-954.00
2024-06-07 14:35:46.019263,-1,2,53,0,0,0,72,74,134,110,92,154.04,42,-13.00,-37.00,-927.00
2024-06-07 14:35:46.121910,-1,2,54,0,0,0,72,74,135,110,92,154.03,42,-2.00,-31.00,-961.00
2024-06-07 14:35:46.221939,0,2,54,0,0,0,73,75,135,120,92,154.10,42,-26.00,-23.00,-1062.00
2024-06-07 14:35:46.326509,0,2,55,0,0,0,73,75,135,120,92,153.97,43,-17.00,-23.00,-970.00
2024-06-07 14:35:46.425880,0,2,55,0,0,0,73,75,135,120,92,153.96,43,-24.00,-21.00,-1026.00
2024-06-07 14:35:46.531573,-1,1,56,0,0,0,73,75,135,120,92,154.02,43,-12.00,-27.00,-996.00
2024-06-07 14:35:46.629956,-1,1,56,0,0,0,73,75,135,120,92,154.10,43,-38.00,-17.00,-1006.00
2024-06-07 14:35:46.731861,-1,1,56,0,0,0,73,75,136,120,92,154.14,43,-10.00,-24.00,-949.00
2024-06-07 14:35:46.838863,0,1,56,0,0,0,73,75,135,110,92,154.12,43,-27.00,-20.00,-1021.00
2024-06-07 14:35:46.935877,0,1,56,0,0,0,73,75,135,110,92,154.06,43,-31.00,-23.00,-1005.00
2024-06-07 14:35:47.040608,0,1,56,0,0,0,73,75,135,110,92,153.90,43,-59.00,-17.00,-963.00
2024-06-07 14:35:47.139758,-1,1,56,0,0,0,73,75,135,110,92,154.00,43,-48.00,-16.00,-1023.00
2024-06-07 14:35:47.248480,-2,1,56,0,0,0,72,75,135,110,92,153.99,43,-49.00,-10.00,-1046.00
2024-06-07 14:35:47.343651,-2,1,56,0,0,0,72,75,136,110,92,154.03,44,-56.00,0.00,-1040.00
2024-06-07 14:35:47.453230,-2,1,57,0,0,0,72,75,137,110,92,154.06,44,-52.00,0.00,-1006.00
2024-06-07 14:35:47.547709,-2,0,57,0,0,0,72,75,138,110,92,154.04,44,-40.00,0.00,-985.00
2024-06-07 14:35:47.657820,-2,0,56,0,0,0,72,75,138,110,92,154.10,44,-33.00,13.00,-1012.00
2024-06-07 14:35:47.751806,-2,0,56,0,0,0,72,75,139,110,92,154.13,44,-27.00,-1.00,-986.00
2024-06-07 14:35:47.862600,-1,0,56,0,0,0,72,75,138,120,92,154.17,44,-25.00,-14.00,-977.00
2024-06-07 14:35:47.955750,-1,0,56,0,0,0,72,75,139,120,92,154.21,44,-39.00,-3.00,-982.00
2024-06-07 14:35:48.067660,-1,0,56,0,0,0,72,75,139,120,92,154.19,44,-16.00,0.00,-973.00
2024-06-07 14:35:48.160542,-1,0,56,0,0,0,72,75,139,120,92,154.22,44,-32.00,-3.00,-1046.00
2024-06-07 14:35:48.272172,-1,0,55,0,0,0,73,75,139,120,92,154.14,44,-73.00,40.00,-1064.00
2024-06-07 14:35:48.374209,-1,0,49,0,0,0,73,75,139,120,92,154.08,45,-34.00,-15.00,-992.00
2024-06-07 14:35:48.480959,-2,0,43,0,0,0,73,75,141,120,92,154.07,45,-58.00,-22.00,-945.00
2024-06-07 14:35:48.567639,-2,1,37,0,0,0,73,75,140,120,92,154.12,45,-21.00,-4.00,-1041.00
2024-06-07 14:35:48.681776,-1,1,32,0,0,0,73,75,141,120,92,154.08,45,-21.00,-7.00,-1029.00
2024-06-07 14:35:48.772968,-1,1,26,0,0,0,73,75,140,120,92,154.05,45,-20.00,-23.00,-1010.00
2024-06-07 14:35:48.886455,-1,1,20,0,0,0,73,75,140,120,92,154.06,45,-23.00,-17.00,-1027.00
2024-06-07 14:35:48.975601,0,1,15,0,0,0,73,75,139,120,92,154.07,45,-35.00,-28.00,-998.00
2024-06-07 14:35:49.091257,0,1,9,0,0,0,73,75,140,120,92,154.14,45,-23.00,-39.00,-984.00
2024-06-07 14:35:49.179589,0,1,3,0,0,0,73,75,139,120,92,154.11,45,0.00,-54.00,-993.00
2024-06-07 14:35:49.296052,0,1,-2,0,0,0,73,75,138,120,92,154.15,45,-12.00,-45.00,-987.00
2024-06-07 14:35:49.384647,0,2,-8,0,0,0,73,75,139,120,92,154.15,46,9.00,-40.00,-995.00
2024-06-07 14:35:49.500855,0,3,-13,0,0,0,73,75,138,120,92,154.21,46,-2.00,-22.00,-995.00
2024-06-07 14:35:49.588587,0,3,-19,0,0,0,73,75,137,120,92,154.16,46,13.00,-30.00,-977.00
2024-06-07 14:35:49.690619,0,2,-24,0,0,0,73,75,136,120,92,154.08,46,20.00,-31.00,-1006.00
2024-06-07 14:35:49.808061,0,1,-29,0,0,0,73,75,134,110,92,154.13,46,21.00,-37.00,-1010.00
2024-06-07 14:35:49.844240,1,1,-35,0,0,0,73,75,133,110,92,154.09,46,20.00,-35.00,-1010.00
2024-06-07 14:35:49.951566,1,1,-41,0,0,0,73,75,133,110,92,154.02,46,14.00,-22.00,-1033.00
2024-06-07 14:35:50.047624,1,1,-47,0,0,0,73,75,132,110,92,154.02,46,29.00,-45.00,-993.00
2024-06-07 14:35:50.217666,1,2,-53,0,0,0,73,75,132,110,92,154.01,46,45.00,-32.00,-1018.00
2024-06-07 14:35:50.251557,1,2,-59,0,0,0,74,76,134,110,92,154.05,46,49.00,-29.00,-1066.00
2024-06-07 14:35:50.422429,2,1,-64,0,0,0,74,76,133,110,92,154.04,47,43.00,-40.00,-963.00
2024-06-07 14:35:50.455547,2,1,-70,0,0,0,74,76,134,110,92,154.04,47,42.00,-15.00,-1011.00
2024-06-07 14:35:50.627301,2,1,-77,0,0,0,74,76,135,110,92,154.03,47,61.00,-12.00,-1006.00
2024-06-07 14:35:50.659902,2,0,-83,0,0,0,74,76,135,110,92,154.02,47,63.00,-35.00,-973.00
2024-06-07 14:35:50.785773,3,0,-89,0,0,0,74,76,134,110,92,153.93,47,53.00,-4.00,-1011.00
2024-06-07 14:35:50.863446,3,0,-95,0,0,0,74,76,135,110,92,154.00,47,63.00,-24.00,-959.00
2024-06-07 14:35:50.968141,3,0,-101,0,0,0,74,76,135,110,91,153.92,47,86.00,2.00,-1008.00
2024-06-07 14:35:51.067587,4,0,-107,0,0,0,74,76,135,110,91,154.04,47,89.00,9.00,-994.00
2024-06-07 14:35:51.169713,4,0,-113,0,0,0,74,76,134,110,91,154.05,47,53.00,16.00,-986.00
2024-06-07 14:35:51.271788,4,0,-118,0,0,0,73,76,134,110,91,154.07,47,83.00,14.00,-1033.00
2024-06-07 14:35:51.373497,4,0,-124,0,0,0,73,76,135,110,91,154.03,48,44.00,27.00,-987.00
2024-06-07 14:35:51.548832,4,0,-130,0,0,0,73,76,135,110,91,153.96,48,71.00,13.00,-1021.00
2024-06-07 14:35:51.577453,4,-1,-136,0,0,0,73,76,136,110,91,154.01,48,80.00,0.00,-1016.00
2024-06-07 14:35:51.755860,4,-1,-142,0,0,0,73,76,135,110,91,154.03,48,82.00,30.00,-1013.00
2024-06-07 14:35:51.781533,4,-1,-148,0,0,0,73,76,136,110,91,154.01,48,88.00,17.00,-1018.00
2024-06-07 14:35:51.962346,3,-2,-155,0,0,0,73,76,136,110,91,154.00,48,59.00,47.00,-1001.00
2024-06-07 14:35:51.985727,3,-2,-161,0,0,0,73,76,137,110,91,154.03,48,69.00,38.00,-987.00
2024-06-07 14:35:52.163211,3,-2,-167,0,0,0,73,76,136,110,91,154.03,48,73.00,41.00,-984.00
2024-06-07 14:35:52.209419,2,-3,-173,0,0,0,73,76,137,110,91,154.04,48,45.00,51.00,-966.00
2024-06-07 14:35:52.296996,2,-3,-178,0,0,0,75,75,136,110,91,154.04,48,44.00,62.00,-1009.00
2024-06-07 14:35:52.397522,1,-3,175,0,0,0,75,75,137,120,91,154.12,49,43.00,49.00,-985.00
2024-06-07 14:35:52.495496,1,-3,169,0,0,0,75,75,137,120,91,154.23,49,13.00,82.00,-984.00
2024-06-07 14:35:52.675271,1,-3,163,0,0,0,75,75,137,120,91,154.05,49,2.00,85.00,-1003.00
2024-06-07 14:35:52.699729,1,-3,157,0,0,0,75,75,136,120,91,154.15,49,25.00,59.00,-985.00
2024-06-07 14:35:52.881252,0,-3,151,0,0,0,75,75,136,120,91,153.99,49,-26.00,85.00,-992.00
2024-06-07 14:35:52.904199,0,-3,145,0,0,0,75,75,135,120,91,154.08,49,-1.00,73.00,-981.00
2024-06-07 14:35:53.008902,0,-3,139,0,0,0,75,75,135,120,91,154.17,49,-1.00,81.00,-1002.00
2024-06-07 14:35:53.107396,-1,-3,133,0,0,0,75,75,134,110,91,154.14,49,12.00,74.00,-1032.00
2024-06-07 14:35:53.289933,-1,-3,127,0,0,0,75,75,134,110,91,154.06,49,4.00,62.00,-1045.00
2024-06-07 14:35:53.311363,-1,-3,121,0,0,0,74,76,134,110,91,154.06,49,-7.00,63.00,-1028.00
2024-06-07 14:35:53.413973,-1,-2,114,0,0,0,74,76,133,110,91,154.04,50,-39.00,66.00,-967.00
2024-06-07 14:35:53.601161,-1,-2,107,0,0,0,74,76,133,110,91,154.01,50,-20.00,56.00,-960.00
2024-06-07 14:35:53.628879,-1,-2,100,0,0,0,74,76,133,110,91,153.99,50,-27.00,34.00,-921.00
2024-06-07 14:35:53.720262,-1,-2,94,0,0,0,74,76,132,110,91,154.03,50,-19.00,51.00,-1044.00
2024-06-07 14:35:53.827111,-1,-1,87,0,0,0,74,76,131,110,91,153.96,50,-30.00,45.00,-977.00
2024-06-07 14:35:53.926080,-1,-2,80,0,0,0,74,76,132,110,91,153.97,50,-27.00,29.00,-971.00
2024-06-07 14:35:53.976892,-1,-1,74,0,0,0,74,76,131,110,91,153.96,50,-47.00,32.00,-1007.00
2024-06-07 14:35:54.077179,-1,0,70,0,0,0,74,76,131,110,91,153.85,50,-83.00,32.00,-998.00
2024-06-07 14:35:54.179658,-1,0,67,0,0,0,74,76,131,110,91,154.01,50,-77.00,35.00,-1039.00
2024-06-07 14:35:54.315663,-3,0,64,0,0,0,74,76,131,110,91,153.89,50,-100.00,3.00,-970.00
2024-06-07 14:35:54.383071,-4,0,63,0,0,0,74,76,133,110,91,153.93,51,-104.00,30.00,-971.00
2024-06-07 14:35:54.484480,-5,0,61,0,0,0,74,76,134,110,91,153.93,51,-79.00,27.00,-978.00
2024-06-07 14:35:54.586941,-5,0,60,0,0,0,74,76,133,110,91,153.86,51,-43.00,31.00,-1028.00
2024-06-07 14:35:54.689537,-4,-1,59,0,0,0,74,76,133,110,91,153.91,51,-74.00,12.00,-1050.00
2024-06-07 14:35:54.793463,-4,-1,58,0,0,0,74,76,135,110,91,153.91,51,-63.00,14.00,-990.00
2024-06-07 14:35:54.894107,-4,0,58,0,0,0,74,76,136,110,91,153.88,51,-65.00,26.00,-1003.00
2024-06-07 14:35:55.007564,-3,0,58,0,0,0,74,76,136,110,91,153.83,51,-62.00,-15.00,-1002.00
2024-06-07 14:35:55.100155,-3,0,58,0,0,0,74,76,137,110,91,153.79,51,-60.00,-5.00,-1008.00
2024-06-07 14:35:55.201337,-3,0,58,0,0,0,74,76,138,110,91,153.83,51,-56.00,-7.00,-989.00
2024-06-07 14:35:55.300751,-4,0,58,0,0,0,74,76,138,110,91,153.72,51,-57.00,-11.00,-970.00
2024-06-07 14:35:55.402352,-4,1,58,0,0,0,74,76,138,120,91,153.74,52,-75.00,-9.00,-954.00
2024-06-07 14:35:55.542484,-3,1,58,0,0,0,74,76,140,120,91,153.78,52,-77.00,-13.00,-967.00
2024-06-07 14:35:55.606248,-3,1,58,0,0,0,74,76,141,120,91,153.89,52,-79.00,-4.00,-1014.00
2024-06-07 14:35:55.748733,-3,1,58,0,0,0,74,76,140,120,91,153.85,52,-68.00,14.00,-995.00
2024-06-07 14:35:55.812609,-4,0,58,0,0,0,74,76,141,120,91,153.85,52,-60.00,12.00,-965.00
2024-06-07 14:35:55.912297,-4,0,58,0,0,0,74,76,140,120,91,153.83,52,-67.00,25.00,-995.00
2024-06-07 14:35:56.054564,-3,0,58,0,0,0,74,76,139,120,90,153.81,52,-67.00,16.00,-968.00
2024-06-07 14:35:56.117118,-3,0,58,0,0,0,74,76,139,120,90,153.76,52,-67.00,10.00,-1023.00
2024-06-07 14:35:56.259142,-3,-1,58,0,0,0,74,76,137,120,90,153.79,52,-69.00,21.00,-970.00
2024-06-07 14:35:56.321411,-3,-1,58,0,0,0,74,76,136,120,90,153.79,52,-62.00,14.00,-988.00
2024-06-07 14:35:56.464070,-3,-1,58,0,0,0,74,76,135,120,90,153.74,53,-47.00,16.00,-1060.00
2024-06-07 14:35:56.524424,-3,0,58,0,0,0,74,76,134,110,90,153.89,53,-54.00,13.00,-967.00
2024-06-07 14:35:56.626820,-3,0,58,0,0,0,74,76,133,110,90,153.92,53,-42.00,29.00,-1048.00
2024-06-07 14:35:56.731508,-3,0,58,0,0,0,74,76,133,110,90,153.85,53,-57.00,9.00,-983.00
2024-06-07 14:35:56.830680,-2,-1,58,0,0,0,74,76,132,110,90,153.92,53,-46.00,18.00,-996.00
2024-06-07 14:35:56.933452,-2,-1,58,0,0,0,74,76,130,110,90,153.92,53,-57.00,37.00,-1068.00
2024-06-07 14:35:57.036014,-1,-1,58,0,0,0,74,76,133,110,90,154.07,53,-84.00,37.00,-1782.00
2024-06-07 14:35:57.138345,0,-2,58,0,0,-7,74,76,150,120,90,154.08,53,-34.00,209.00,-1366.00
2024-06-07 14:35:57.243098,0,-55,58,1,-1,-12,74,76,6553,130,90,154.14,53,-18.00,578.00,-1063.00
2024-06-07 14:35:57.345137,0,65,58,6,-5,10,74,76,6553,130,90,154.05,54,-28.00,540.00,-861.00
2024-06-07 14:35:57.442636,0,-1,61,1,-2,10,74,76,148,120,90,154.29,54,-43.00,109.00,-1695.00
2024-06-07 14:35:57.591031,0,3,71,1,-3,7,74,76,135,110,90,154.26,54,-54.00,42.00,-1387.00
2024-06-07 14:35:57.646245,-2,1,82,0,-2,4,74,76,129,110,90,154.03,54,-42.00,40.00,-1445.00
2024-06-07 14:35:57.697276,-2,-1,87,0,-2,1,74,76,126,100,90,153.78,54,-27.00,59.00,-1300.00
2024-06-07 14:35:57.799644,-2,-1,83,0,-1,0,74,76,125,100,90,153.83,54,1.00,41.00,-1157.00
2024-06-07 14:35:57.901174,-1,-1,72,0,-1,0,74,76,126,100,90,153.87,54,-29.00,70.00,-1047.00
2024-06-07 14:35:58.003257,-1,-1,60,0,0,-1,74,76,126,110,90,153.92,54,-8.00,62.00,-1065.00
2024-06-07 14:35:58.204757,-2,-2,54,0,0,-1,74,76,128,110,90,153.82,54,-38.00,31.00,-1057.00
2024-06-07 14:35:58.207177,-2,0,55,0,0,-2,74,76,131,110,90,153.84,54,-31.00,11.00,-1021.00
2024-06-07 14:35:58.309712,-3,0,57,0,0,-1,74,77,133,110,90,153.81,55,-24.00,-2.00,-943.00
2024-06-07 14:35:58.412091,-3,0,57,0,0,-1,74,77,133,110,90,153.85,55,-50.00,-10.00,-953.00
2024-06-07 14:35:58.513119,-3,1,57,0,0,0,74,77,133,110,90,153.81,55,-40.00,4.00,-973.00
2024-06-07 14:35:58.720374,-3,0,57,0,0,0,74,77,134,110,90,153.81,55,-60.00,10.00,-959.00
2024-06-07 14:35:58.720406,-3,0,57,0,0,0,74,77,134,110,90,153.80,55,-63.00,2.00,-958.00
2024-06-07 14:35:58.819323,-3,1,57,0,0,0,74,77,134,110,90,153.76,55,-69.00,17.00,-991.00
2024-06-07 14:35:58.921301,-3,1,57,0,0,0,74,77,134,110,90,153.83,55,-68.00,13.00,-951.00
2024-06-07 14:35:59.023603,-4,1,58,0,0,0,74,77,134,110,90,153.72,55,-67.00,24.00,-969.00
2024-06-07 14:35:59.126541,-4,0,58,0,0,0,74,77,132,110,90,153.62,55,-53.00,28.00,-1010.00
2024-06-07 14:35:59.227176,-4,0,58,0,0,0,74,77,132,110,90,153.66,55,-63.00,23.00,-1009.00
2024-06-07 14:35:59.329093,-4,0,57,0,0,0,75,77,131,110,90,153.73,56,-53.00,25.00,-1008.00
2024-06-07 14:35:59.431446,-4,0,57,0,0,0,75,77,131,110,90,153.74,56,-59.00,2.00,-1045.00
2024-06-07 14:35:59.533060,-4,0,57,0,0,0,75,77,130,110,90,153.73,56,-40.00,-5.00,-946.00
2024-06-07 14:35:59.638371,-3,1,57,0,0,0,75,77,130,110,90,153.67,56,-54.00,5.00,-1004.00
2024-06-07 14:35:59.737045,-3,1,57,0,0,0,75,77,129,110,90,153.82,56,-70.00,-1.00,-966.00
2024-06-07 14:35:59.844349,-3,1,57,0,0,0,75,77,128,110,90,153.69,56,-39.00,-2.00,-1000.00
2024-06-07 14:35:59.942954,-3,1,57,0,0,0,75,77,128,110,90,153.67,56,-54.00,1.00,-1085.00
2024-06-07 14:36:00.047940,-3,1,57,0,0,0,75,77,129,110,89,153.55,56,-62.00,-6.00,-963.00
2024-06-07 14:36:00.145069,-3,1,58,0,0,0,75,77,128,110,89,153.77,56,-68.00,21.00,-1032.00
2024-06-07 14:36:00.247016,-3,1,58,0,0,0,75,77,129,110,89,153.75,56,-64.00,46.00,-991.00
2024-06-07 14:36:00.349121,-3,0,58,0,0,0,75,77,130,110,89,153.77,57,-67.00,48.00,-979.00
2024-06-07 14:36:00.451183,-3,0,58,-1,0,0,75,77,131,110,89,153.81,57,-72.00,34.00,-926.00
2024-06-07 14:36:00.560129,-3,-1,58,-1,1,0,75,77,131,110,89,153.71,57,-65.00,41.00,-1008.00
2024-06-07 14:36:00.655357,-3,-1,58,-1,0,0,75,77,131,110,89,153.72,57,-71.00,40.00,-993.00
2024-06-07 14:36:00.764869,-3,-1,58,0,0,0,75,77,131,110,89,153.68,57,-71.00,28.00,-969.00
2024-06-07 14:36:00.859436,-3,-1,58,0,0,0,75,77,130,110,89,153.74,57,-76.00,22.00,-935.00
2024-06-07 14:36:00.962061,-3,-1,58,0,0,0,75,77,131,110,89,153.72,57,-59.00,38.00,-1017.00
2024-06-07 14:36:01.063068,-3,-1,58,0,0,0,75,77,131,110,89,153.71,57,-62.00,42.00,-990.00
2024-06-07 14:36:01.174572,-3,-1,58,0,0,0,75,77,131,110,89,153.80,57,-56.00,43.00,-982.00
2024-06-07 14:36:01.267193,-3,-1,58,0,0,0,75,77,129,110,89,153.82,57,-56.00,52.00,-987.00
2024-06-07 14:36:01.369137,-3,-2,58,0,0,0,75,77,129,110,89,153.78,58,-17.00,29.00,-1032.00
2024-06-07 14:36:01.482771,-2,-2,58,0,1,0,75,77,128,110,89,153.71,58,-55.00,5.00,-962.00
2024-06-07 14:36:01.573125,-1,-1,58,0,0,0,75,77,127,110,89,153.58,58,-39.00,8.00,-1013.00
2024-06-07 14:36:01.626717,-1,0,58,0,0,0,75,77,127,110,89,153.76,58,-39.00,1.00,-986.00
2024-06-07 14:36:01.726062,-1,0,58,0,0,0,75,77,127,110,89,153.68,58,-34.00,22.00,-1003.00
2024-06-07 14:36:01.828075,-1,0,58,0,0,0,75,77,127,110,89,153.68,58,-48.00,20.00,-1006.00
2024-06-07 14:36:01.930572,-2,0,58,0,0,0,75,77,126,110,89,153.71,58,-36.00,2.00,-1032.00
2024-06-07 14:36:02.096211,-2,0,58,0,0,0,75,77,127,110,89,153.59,58,-52.00,7.00,-1018.00
2024-06-07 14:36:02.135314,-2,0,58,0,0,0,75,77,126,110,89,153.68,58,-45.00,-7.00,-958.00
2024-06-07 14:36:02.236000,-3,0,58,0,0,0,75,77,125,110,89,153.71,58,-30.00,-4.00,-976.00
2024-06-07 14:36:02.403494,-2,0,58,0,0,0,75,77,126,110,89,153.63,59,-46.00,4.00,-1006.00
2024-06-07 14:36:02.445954,-2,0,58,0,0,0,75,77,126,110,89,153.59,59,-49.00,-6.00,-990.00
2024-06-07 14:36:02.542024,-2,0,58,0,0,0,75,77,125,110,89,153.62,59,-51.00,-10.00,-959.00
2024-06-07 14:36:02.710444,-2,0,58,0,0,0,75,77,126,110,89,153.66,59,-35.00,-4.00,-1068.00
2024-06-07 14:36:02.748660,-2,0,58,0,0,0,75,77,125,110,89,153.79,59,-48.00,-12.00,-1020.00
2024-06-07 14:36:02.848284,-2,1,58,0,0,0,75,77,126,110,89,153.83,59,-56.00,0.00,-1038.00
2024-06-07 14:36:03.018205,-3,1,58,0,0,0,75,77,127,110,89,153.80,59,-45.00,2.00,-1012.00
2024-06-07 14:36:03.051920,-3,0,58,0,0,0,75,77,127,110,89,153.70,59,-62.00,4.00,-1000.00
2024-06-07 14:36:03.222543,-2,0,58,0,0,0,75,77,128,110,89,153.66,59,-47.00,1.00,-974.00
2024-06-07 14:36:03.256070,-2,0,58,0,0,0,75,77,129,110,89,153.66,59,-33.00,-8.00,-974.00
2024-06-07 14:36:03.405081,-2,0,58,0,0,0,76,77,129,110,89,153.53,60,-47.00,9.00,-1018.00
2024-06-07 14:36:03.462791,-3,0,58,0,0,0,76,77,129,110,89,153.72,60,-52.00,16.00,-980.00
2024-06-07 14:36:03.562045,-1,1,58,0,0,0,76,77,129,110,89,153.90,60,-80.00,19.00,-1213.00
2024-06-07 14:36:03.734271,0,2,58,-1,0,-5,76,77,134,110,89,154.02,60,-83.00,30.00,-1849.00
2024-06-07 14:36:03.765830,0,32,58,-3,0,-12,76,77,178,120,89,153.97,60,-84.00,25.00,-2051.00
2024-06-07 14:36:03.939209,0,143,58,-11,4,-8,76,77,6553,140,89,154.15,60,-50.00,739.00,-1056.00
2024-06-07 14:36:03.970251,0,-95,58,-10,3,7,76,77,478,140,89,154.02,60,-4.00,693.00,-851.00
2024-06-07 14:36:04.071835,2,2,55,-5,0,10,76,77,144,130,89,153.82,60,-45.00,435.00,-1189.00
2024-06-07 14:36:04.246332,1,6,51,-8,1,7,76,77,135,120,89,154.42,60,-63.00,47.00,-1404.00
2024-06-07 14:36:04.275894,-4,-5,41,-8,1,3,76,77,131,110,89,153.93,60,-38.00,-38.00,-1330.00
2024-06-07 14:36:04.456451,-6,-6,32,-7,0,1,75,78,128,110,89,153.76,61,43.00,-38.00,-1160.00
2024-06-07 14:36:04.479698,-5,-3,28,-5,0,0,75,78,126,110,89,153.64,61,18.00,-51.00,-1132.00
2024-06-07 14:36:04.581829,-3,-1,31,-4,0,0,75,78,124,110,89,153.59,61,2.00,-33.00,-1032.00
2024-06-07 14:36:04.759122,-3,0,41,-3,0,0,75,78,125,110,89,153.61,61,-13.00,-1.00,-1025.00
2024-06-07 14:36:04.785826,-3,0,53,-3,0,0,75,78,125,110,89,153.67,61,-26.00,-5.00,-1038.00
2024-06-07 14:36:04.965048,-2,-1,58,-3,0,0,75,78,126,110,89,153.79,61,-59.00,16.00,-1038.00
2024-06-07 14:36:04.989780,-2,-1,59,-3,0,0,75,78,126,110,89,153.74,61,-15.00,11.00,-1081.00
2024-06-07 14:36:05.092008,-2,-2,59,-3,0,-1,75,78,127,110,89,153.78,61,-15.00,15.00,-1022.00
2024-06-07 14:36:05.142734,-3,-2,59,-3,0,0,75,78,128,110,89,153.64,61,-52.00,11.00,-988.00
2024-06-07 14:36:05.270307,-3,-2,59,-2,0,0,75,78,127,110,89,153.66,61,-42.00,-9.00,-946.00
2024-06-07 14:36:05.475109,-3,-2,59,-2,0,0,75,78,127,110,89,153.75,62,-35.00,10.00,-1054.00
2024-06-07 14:36:05.475273,-3,-2,59,-2,0,0,75,78,127,110,89,153.66,62,-39.00,13.00,-1022.00
2024-06-07 14:36:05.577694,-4,-3,59,-2,0,0,75,78,128,110,89,153.60,62,-58.00,15.00,-924.00
2024-06-07 14:36:05.653964,-5,-4,59,-2,0,0,75,78,128,110,89,153.68,62,-72.00,27.00,-1008.00
2024-06-07 14:36:05.782542,-5,-4,59,-1,0,0,75,78,129,110,89,153.71,62,-17.00,21.00,-1019.00
2024-06-07 14:36:05.856757,-4,-3,59,0,0,0,75,78,129,110,89,153.57,62,-90.00,39.00,-971.00
2024-06-07 14:36:05.987306,-4,-3,59,0,0,0,75,78,130,110,88,153.78,62,-55.00,29.00,-994.00
2024-06-07 14:36:06.060991,-4,-2,59,0,0,0,75,78,132,110,88,153.78,62,-49.00,22.00,-990.00
2024-06-07 14:36:06.191906,-4,-2,58,0,0,0,75,78,132,120,88,153.81,62,-48.00,17.00,-945.00
2024-06-07 14:36:06.264830,-4,-1,58,0,0,0,75,78,133,120,88,153.74,62,-74.00,23.00,-1044.00
2024-06-07 14:36:06.368400,-4,-1,58,0,0,0,76,78,133,120,88,153.71,63,-50.00,21.00,-999.00
2024-06-07 14:36:06.468802,-4,-1,58,0,0,0,76,78,134,120,88,153.70,63,-51.00,25.00,-970.00
2024-06-07 14:36:06.579258,-4,0,58,0,0,0,76,78,132,120,88,153.70,63,-57.00,2.00,-992.00
