TS,pitch,roll,yaw,vgx,vgy,vgz,templ,temph,tof,h,bat,baro,time,agx,agy,agz
2024-06-07 14:37:06.300285,0,0,66,0,0,0,82,85,10,0,85,152.28,84,9.00,-6.00,-1000.00
2024-06-07 14:37:06.399737,0,0,66,0,0,0,82,85,10,0,85,152.29,84,9.00,-7.00,-998.00
2024-06-07 14:37:06.506586,0,0,66,0,0,0,82,85,10,0,85,152.28,84,9.00,-5.00,-1000.00
2024-06-07 14:37:06.604005,0,0,66,0,0,0,82,85,10,0,85,152.26,84,9.00,-6.00,-1000.00
2024-06-07 14:37:06.705930,0,0,66,0,0,0,82,84,10,0,85,152.28,84,10.00,-8.00,-996.00
2024-06-07 14:37:06.812890,0,0,66,0,0,0,82,84,10,0,85,152.30,84,8.00,-8.00,-1001.00
2024-06-07 14:37:06.909756,0,0,66,0,0,0,82,84,10,0,85,152.26,84,9.00,-7.00,-998.00
2024-06-07 14:37:07.017990,0,0,66,0,0,0,82,84,10,0,85,152.26,84,10.00,-7.00,-1000.00
2024-06-07 14:37:07.113882,0,0,66,0,0,0,82,84,10,0,85,152.33,84,7.00,-7.00,-998.00
2024-06-07 14:37:07.215780,0,0,66,0,0,0,82,84,10,0,85,152.32,84,9.00,-6.00,-998.00
2024-06-07 14:37:07.325866,0,0,66,0,0,0,82,84,10,0,85,152.36,84,10.00,-7.00,-1000.00
2024-06-07 14:37:07.419998,0,0,66,0,0,0,82,84,10,0,85,152.31,84,8.00,-5.00,-999.00
2024-06-07 14:37:07.531517,0,0,66,0,0,0,82,84,10,0,85,152.32,84,9.00,-8.00,-1002.00
2024-06-07 14:37:07.623788,0,0,66,0,0,0,82,84,10,0,85,152.26,84,11.00,-7.00,-1001.00
2024-06-07 14:37:07.734656,0,0,66,0,0,0,82,84,10,0,85,152.26,84,9.00,-7.00,-998.00
2024-06-07 14:37:07.827731,0,0,66,0,0,0,82,84,10,0,85,152.26,84,10.00,-6.00,-999.00
2024-06-07 14:37:07.929797,0,0,66,0,0,0,82,84,10,0,85,152.29,84,9.00,-7.00,-999.00
2024-06-07 14:37:08.032962,0,0,66,0,0,0,82,84,10,0,85,152.29,84,10.00,-7.00,-997.00
2024-06-07 14:37:08.144537,0,0,66,0,0,0,82,84,10,0,85,152.28,84,8.00,-7.00,-998.00
2024-06-07 14:37:08.236077,0,0,66,0,0,0,82,84,10,0,85,152.24,84,7.00,-7.00,-999.00
2024-06-07 14:37:08.349434,0,0,66,0,0,0,82,84,10,0,85,152.30,84,9.00,-6.00,-1000.00
2024-06-07 14:37:08.440259,0,0,66,0,0,0,82,84,10,0,85,152.26,84,10.00,-7.00,-999.00
2024-06-07 14:37:08.541958,0,0,66,0,0,0,82,84,10,0,85,152.26,84,8.00,-9.00,-998.00
2024-06-07 14:37:08.592633,0,0,66,0,0,0,82,84,10,0,85,152.25,84,7.00,-7.00,-997.00
2024-06-07 14:37:08.751598,0,0,66,0,0,0,82,84,10,0,85,152.30,84,8.00,-7.00,-1001.00
2024-06-07 14:37:08.796540,0,0,66,0,0,0,82,84,10,0,85,152.29,84,11.00,-7.00,-998.00
2024-06-07 14:37:08.898567,0,0,66,0,0,0,82,84,10,0,85,152.29,84,-1.00,0.00,-998.00
2024-06-07 14:37:09.000610,0,0,66,0,0,0,82,84,10,0,84,152.29,84,11.00,-5.00,-1002.00
2024-06-07 14:37:09.108153,0,0,66,0,0,0,82,84,10,0,84,152.29,84,-8.00,18.00,-998.00
2024-06-07 14:37:09.206589,0,0,65,0,0,0,82,84,10,0,84,152.29,84,-16.00,7.00,-987.00
2024-06-07 14:37:09.306469,0,0,65,0,0,0,82,84,10,0,84,152.29,84,-17.00,17.00,-1005.00
2024-06-07 14:37:09.474804,0,0,65,0,0,-1,82,84,10,0,84,152.29,84,-31.00,18.00,-1134.00
2024-06-07 14:37:09.513008,-1,1,65,0,0,-4,82,84,10,0,84,152.29,84,-26.00,19.00,-1371.00
2024-06-07 14:37:09.612485,-2,-1,65,-1,0,-7,82,84,10,10,84,152.29,84,-61.00,45.00,-1326.00
2024-06-07 14:37:09.781976,-2,-2,65,-1,0,-8,83,86,16,10,84,152.51,84,-54.00,24.00,-1104.00
2024-06-07 14:37:09.816497,-2,-2,65,-1,0,-8,83,86,25,20,84,152.69,85,-42.00,30.00,-1061.00
2024-06-07 14:37:10.090447,-3,-1,65,-1,0,-9,83,86,34,30,84,152.81,85,-74.00,55.00,-986.00
2024-06-07 14:37:10.090857,-4,-2,65,0,0,-8,83,86,41,40,84,152.87,85,-56.00,39.00,-896.00
2024-06-07 14:37:10.123276,-4,-2,65,0,0,-7,83,86,50,50,84,152.83,85,-38.00,6.00,-915.00
2024-06-07 14:37:10.224348,-3,-1,65,-1,0,-5,83,86,57,50,84,152.87,85,-48.00,35.00,-888.00
2024-06-07 14:37:10.396902,-4,-3,65,0,0,-4,83,86,62,60,84,152.87,85,-77.00,32.00,-882.00
2024-06-07 14:37:10.428488,-4,-2,65,0,0,-3,83,86,67,60,84,152.99,85,-50.00,3.00,-830.00
2024-06-07 14:37:10.531369,-4,-2,65,0,0,-2,83,86,70,60,84,153.04,85,-42.00,22.00,-899.00
2024-06-07 14:37:10.708357,-4,-2,65,0,0,-1,83,86,72,60,84,152.99,85,-44.00,23.00,-965.00
2024-06-07 14:37:10.734364,-3,-2,65,0,0,-1,83,85,73,70,84,152.95,85,-58.00,16.00,-939.00
2024-06-07 14:37:10.836342,-3,-1,65,0,0,0,83,85,74,70,84,152.97,86,-72.00,34.00,-932.00
2024-06-07 14:37:11.011215,-4,-2,65,0,0,0,83,85,74,70,84,152.97,86,-68.00,32.00,-1012.00
2024-06-07 14:37:11.041162,-4,-1,65,0,0,0,83,85,75,70,84,153.04,86,-67.00,43.00,-1020.00
2024-06-07 14:37:11.215209,-4,-2,65,0,0,0,83,85,75,70,84,153.20,86,-58.00,26.00,-996.00
2024-06-07 14:37:11.245600,-4,-1,65,0,0,0,83,85,75,70,84,153.04,86,-54.00,43.00,-1053.00
2024-06-07 14:37:11.350178,-4,-2,65,0,0,0,83,85,75,70,84,153.08,86,-47.00,22.00,-910.00
2024-06-07 14:37:11.449612,-3,-2,65,0,0,0,83,85,75,70,84,152.93,86,-50.00,9.00,-971.00
2024-06-07 14:37:11.503458,-3,-1,65,0,0,0,83,85,76,70,84,152.97,86,-70.00,-4.00,-1031.00
2024-06-07 14:37:11.602409,-2,0,65,0,0,0,83,85,76,70,84,152.96,86,-60.00,31.00,-1009.00
2024-06-07 14:37:11.755615,-3,0,65,0,0,0,83,85,77,70,84,152.90,86,-64.00,15.00,-1035.00
2024-06-07 14:37:11.932664,-3,-1,65,0,0,0,83,85,78,70,84,152.98,87,-71.00,18.00,-997.00
2024-06-07 14:37:11.959916,-3,-1,65,0,0,0,83,85,78,70,84,152.98,87,-52.00,25.00,-1014.00
2024-06-07 14:37:12.010400,-2,-1,65,0,0,0,83,85,79,70,84,152.98,87,-41.00,7.00,-969.00
2024-06-07 14:37:12.139232,-3,0,65,0,0,0,83,85,80,70,84,153.04,87,-44.00,-2.00,-957.00
2024-06-07 14:37:12.214489,-2,0,65,0,0,0,83,85,80,70,84,152.98,87,-79.00,0.00,-977.00
2024-06-07 14:37:12.344649,-3,0,65,0,0,0,83,85,81,70,84,153.06,87,-41.00,2.00,-1014.00
2024-06-07 14:37:12.418289,-3,1,65,0,0,0,83,85,80,70,84,153.03,87,-59.00,-8.00,-958.00
2024-06-07 14:37:12.551349,-3,1,65,0,0,0,83,85,80,70,84,153.13,87,-67.00,-10.00,-929.00
2024-06-07 14:37:12.622224,-4,0,65,0,0,0,83,85,79,70,84,153.03,87,-59.00,2.00,-975.00
2024-06-07 14:37:12.751215,-3,0,65,0,0,0,82,85,78,70,84,153.13,87,-62.00,1.00,-1009.00
2024-06-07 14:37:12.826350,-3,0,65,0,0,0,82,85,78,70,84,153.00,88,-87.00,2.00,-1018.00
2024-06-07 14:37:12.956959,-3,0,65,0,0,0,82,85,77,70,84,152.96,88,-79.00,0.00,-1036.00
2024-06-07 14:37:13.030302,-3,0,65,0,0,0,82,85,77,70,84,153.02,88,-50.00,-5.00,-986.00
2024-06-07 14:37:13.160790,-3,0,65,0,0,0,82,85,78,70,84,152.91,88,-48.00,33.00,-1064.00
2024-06-07 14:37:13.234287,-3,0,65,0,0,0,82,85,78,70,84,152.95,88,-79.00,44.00,-1056.00
2024-06-07 14:37:13.336524,-3,0,65,0,0,0,82,85,78,70,84,152.99,88,-76.00,29.00,-953.00
2024-06-07 14:37:13.438344,-4,-2,65,0,0,0,82,85,79,70,84,152.96,88,-75.00,-7.00,-966.00
2024-06-07 14:37:13.570516,-5,-1,65,0,0,0,82,85,80,70,84,152.97,88,-75.00,20.00,-1019.00
2024-06-07 14:37:13.642338,-5,-1,65,0,0,0,82,85,79,70,84,153.05,88,-71.00,17.00,-950.00
2024-06-07 14:37:13.776828,-4,-1,65,0,0,0,82,85,80,70,84,153.01,88,-74.00,21.00,-948.00
2024-06-07 14:37:13.846390,-5,-2,65,0,0,0,82,85,80,70,84,153.05,89,-94.00,22.00,-1021.00
2024-06-07 14:37:13.980113,-5,-1,65,0,0,0,82,85,80,70,84,152.92,89,-72.00,14.00,-954.00
2024-06-07 14:37:14.050459,-5,-1,65,0,0,0,82,85,79,70,84,153.00,89,-42.00,24.00,-1018.00
2024-06-07 14:37:14.184870,-4,-1,65,0,0,0,82,85,79,70,84,152.93,89,-61.00,25.00,-1005.00
2024-06-07 14:37:14.254376,-4,-1,65,0,0,0,82,85,79,70,84,152.92,89,-71.00,46.00,-1001.00
2024-06-07 14:37:14.356371,-3,-1,65,0,0,0,82,85,79,70,84,153.03,89,-57.00,21.00,-1046.00
2024-06-07 14:37:14.458516,-3,-1,65,0,0,0,82,85,79,70,84,152.77,89,-84.00,27.00,-1055.00
2024-06-07 14:37:14.560814,-3,-2,65,0,0,0,82,85,79,70,84,152.85,89,-81.00,15.00,-1024.00
2024-06-07 14:37:14.663188,-4,-1,65,0,0,0,82,85,79,70,84,153.02,89,-38.00,32.00,-960.00
2024-06-07 14:37:14.800334,-4,0,65,0,0,0,83,85,80,70,84,153.08,89,-56.00,62.00,-995.00
2024-06-07 14:37:14.868111,-3,-1,65,0,0,0,83,85,80,70,84,153.12,90,-29.00,64.00,-956.00
2024-06-07 14:37:14.968608,-2,-3,65,0,1,0,83,85,80,70,84,152.87,90,-56.00,50.00,-1004.00
2024-06-07 14:37:15.072038,-2,-4,65,0,0,0,83,85,79,70,84,153.05,90,-69.00,19.00,-1002.00
2024-06-07 14:37:15.172277,-2,-2,65,0,0,0,83,85,79,70,84,152.93,90,-69.00,13.00,-920.00
2024-06-07 14:37:15.276285,-3,-1,65,0,0,0,83,85,79,70,84,153.02,90,-75.00,32.00,-1065.00
2024-06-07 14:37:15.376086,-4,0,65,0,0,0,83,85,79,70,84,153.04,90,-60.00,56.00,-1004.00
2024-06-07 14:37:15.516027,-4,-1,65,0,0,0,83,85,80,70,84,153.05,90,-61.00,69.00,-1000.00
2024-06-07 14:37:15.580084,-3,-2,65,0,0,0,83,85,81,70,84,153.03,90,-52.00,48.00,-1048.00
2024-06-07 14:37:15.720861,-3,-3,65,0,0,-1,83,85,81,70,84,153.02,90,-35.00,51.00,-1104.00
2024-06-07 14:37:15.784131,-2,-3,65,0,0,-2,83,85,85,80,84,153.01,90,-66.00,50.00,-1113.00
2024-06-07 14:37:15.886206,-3,-3,65,0,0,-3,83,85,88,80,84,153.07,91,-70.00,51.00,-1069.00
2024-06-07 14:37:15.937174,-3,-3,65,0,0,-4,83,85,92,80,84,153.09,91,-63.00,16.00,-986.00
2024-06-07 14:37:16.132178,-3,-3,65,0,0,-4,83,85,97,90,84,153.08,91,-77.00,19.00,-1046.00
2024-06-07 14:37:16.141162,-3,-2,65,0,0,-5,83,85,102,90,84,153.16,91,-102.00,30.00,-1057.00
2024-06-07 14:37:16.243309,-4,-1,65,0,0,-5,83,85,108,100,84,153.19,91,-91.00,42.00,-1004.00
2024-06-07 14:37:16.437574,-4,-1,65,0,0,-5,83,85,113,100,84,153.22,91,-67.00,13.00,-996.00
2024-06-07 14:37:16.447273,-4,-1,65,0,0,-5,83,85,120,110,84,153.22,91,-88.00,26.00,-996.00
2024-06-07 14:37:16.647886,-4,0,65,0,0,-5,83,85,125,110,84,153.27,91,-64.00,9.00,-971.00
2024-06-07 14:37:16.651272,-4,0,65,0,0,-5,83,85,131,120,84,153.31,91,-48.00,18.00,-996.00
2024-06-07 14:37:16.764724,-3,0,65,0,0,-5,82,85,136,130,84,153.43,91,-48.00,43.00,-905.00
2024-06-07 14:37:16.866755,-3,-1,65,0,0,-4,82,85,142,130,84,153.47,92,-90.00,18.00,-970.00
2024-06-07 14:37:16.957185,-2,-1,65,0,0,-4,82,85,147,140,84,153.52,92,-74.00,25.00,-946.00
2024-06-07 14:37:17.059326,-3,-1,65,0,0,-4,82,85,152,140,84,153.47,92,-76.00,10.00,-962.00
2024-06-07 14:37:17.256729,-3,0,65,0,0,-3,82,85,157,140,84,153.56,92,-57.00,10.00,-987.00
2024-06-07 14:37:17.263301,-4,0,65,0,0,-3,82,85,160,150,84,153.63,92,-85.00,7.00,-927.00
2024-06-07 14:37:17.467033,-4,0,65,0,0,-3,82,85,165,150,84,153.71,92,-95.00,38.00,-973.00
2024-06-07 14:37:17.467089,-4,0,65,0,0,-3,82,85,170,160,84,153.69,92,-100.00,13.00,-927.00
2024-06-07 14:37:17.569115,-4,0,65,0,0,-2,82,85,172,160,84,153.67,92,-77.00,19.00,-940.00
2024-06-07 14:37:17.671125,-4,0,65,0,0,-2,82,85,174,160,84,153.75,92,-86.00,38.00,-1007.00
2024-06-07 14:37:17.872531,-4,-1,65,0,0,-2,82,85,178,160,84,153.86,92,-87.00,42.00,-933.00
2024-06-07 14:37:17.875315,-4,-1,65,0,0,-2,82,85,180,170,84,153.81,93,-82.00,56.00,-1020.00
2024-06-07 14:37:17.977261,-5,-2,65,0,0,-1,82,85,181,170,84,153.91,93,-72.00,32.00,-919.00
2024-06-07 14:37:18.079401,-5,-2,65,0,0,0,82,85,183,170,84,153.91,93,-68.00,56.00,-918.00
2024-06-07 14:37:18.181753,-4,-2,65,0,0,0,82,85,187,170,84,154.11,93,-91.00,70.00,-996.00
2024-06-07 14:37:18.284941,-4,-3,65,0,0,0,82,85,187,170,84,154.00,93,-100.00,55.00,-992.00
2024-06-07 14:37:18.385378,-4,-3,65,0,0,0,82,85,187,170,84,153.94,93,-62.00,66.00,-953.00
2024-06-07 14:37:18.487240,-4,-4,65,0,0,0,82,85,185,170,84,154.06,93,-77.00,68.00,-979.00
2024-06-07 14:37:18.690521,-4,-4,65,0,0,0,82,85,186,170,84,153.95,93,-110.00,66.00,-941.00
2024-06-07 14:37:18.691339,-4,-5,65,0,0,0,82,85,188,170,84,153.97,93,-99.00,60.00,-947.00
2024-06-07 14:37:18.793787,-4,-5,65,0,0,0,83,84,189,170,84,153.86,93,-85.00,37.00,-971.00
2024-06-07 14:37:18.895408,-4,-4,65,0,0,0,83,84,188,170,84,153.87,94,-95.00,34.00,-956.00
2024-06-07 14:37:18.997962,-4,-2,65,0,0,0,83,84,186,170,84,153.91,94,-121.00,48.00,-1096.00
2024-06-07 14:37:19.100136,-5,-2,65,0,0,0,83,84,188,170,84,153.88,94,-77.00,49.00,-954.00
2024-06-07 14:37:19.202442,-6,-2,65,0,0,0,83,84,186,180,84,153.91,94,-86.00,47.00,-1024.00
2024-06-07 14:37:19.303199,-5,-2,65,0,0,0,83,84,188,180,84,153.70,94,-100.00,37.00,-1027.00
2024-06-07 14:37:19.407247,-5,-2,65,0,0,0,83,84,187,180,84,153.73,94,-79.00,16.00,-954.00
2024-06-07 14:37:19.507242,-4,-2,65,0,0,0,83,84,186,180,84,153.65,94,-91.00,-9.00,-986.00
2024-06-07 14:37:19.558054,-4,0,65,1,0,0,83,84,187,170,84,153.65,94,-78.00,6.00,-1007.00
2024-06-07 14:37:19.717565,-4,0,65,1,0,0,83,84,186,170,84,153.72,94,-87.00,-16.00,-985.00
2024-06-07 14:37:19.761943,-4,1,65,1,0,0,83,84,184,170,84,153.55,94,-70.00,-15.00,-955.00
2024-06-07 14:37:19.863976,-4,1,65,1,0,0,83,84,183,170,84,153.78,95,-91.00,-11.00,-964.00
2024-06-07 14:37:19.965925,-4,1,65,0,0,0,83,84,182,170,84,153.73,95,-87.00,-7.00,-952.00
2024-06-07 14:37:20.128416,-4,1,65,0,0,0,83,84,182,170,84,153.84,95,-74.00,10.00,-953.00
2024-06-07 14:37:20.170057,-4,-1,65,0,0,0,83,84,182,170,84,153.86,95,-75.00,44.00,-982.00
2024-06-07 14:37:20.328800,-4,-2,65,0,0,1,83,84,181,170,84,153.67,95,-88.00,40.00,-989.00
2024-06-07 14:37:20.373966,-4,-1,65,0,0,1,83,84,180,170,84,153.60,95,-83.00,31.00,-1001.00
2024-06-07 14:37:20.533522,-4,-1,65,0,0,1,83,84,175,170,84,153.55,95,-85.00,6.00,-954.00
2024-06-07 14:37:20.577865,-4,0,65,0,0,2,83,84,173,170,84,153.53,95,-81.00,4.00,-1023.00
2024-06-07 14:37:20.738307,-5,0,65,0,0,2,83,84,172,160,84,153.54,95,-70.00,11.00,-945.00
2024-06-07 14:37:20.800122,-4,0,65,0,0,2,83,85,169,160,84,153.58,95,-79.00,-3.00,-947.00
2024-06-07 14:37:20.883843,-4,0,65,0,0,2,83,85,165,160,84,153.39,96,-54.00,-5.00,-960.00
2024-06-07 14:37:21.046959,-3,0,65,0,0,2,83,85,161,160,84,153.46,96,-81.00,-12.00,-990.00
2024-06-07 14:37:21.089351,-3,0,65,0,0,3,83,85,157,150,84,153.39,96,-82.00,-1.00,-1037.00
2024-06-07 14:37:21.256228,-3,0,65,0,0,2,83,85,154,150,84,153.39,96,-71.00,3.00,-1034.00
2024-06-07 14:37:21.298086,-3,0,65,0,0,3,83,85,151,150,84,153.38,96,-67.00,-9.00,-1019.00
2024-06-07 14:37:21.394956,-3,0,65,0,0,2,83,85,149,140,84,153.35,96,-61.00,-4.00,-989.00
2024-06-07 14:37:21.557888,-3,0,65,0,0,2,83,85,146,140,84,153.37,96,-60.00,-6.00,-1033.00
2024-06-07 14:37:21.598921,-3,0,65,0,0,2,83,85,145,140,84,153.32,96,-62.00,10.00,-1020.00
2024-06-07 14:37:21.762601,-3,0,65,0,0,2,83,85,142,140,84,153.31,96,-64.00,14.00,-1026.00
2024-06-07 14:37:21.803011,-3,0,65,0,0,1,82,84,141,130,84,153.35,96,-69.00,-2.00,-987.00
2024-06-07 14:37:21.908767,-2,0,65,0,0,1,82,84,138,130,84,153.27,97,-65.00,19.00,-1042.00
2024-06-07 14:37:22.011422,-2,0,65,0,0,1,82,84,138,130,84,153.27,97,-51.00,-2.00,-1005.00
2024-06-07 14:37:22.110208,-2,0,65,0,0,1,82,84,136,130,84,153.30,97,-54.00,-11.00,-1036.00
2024-06-07 14:37:22.212095,-2,0,65,0,0,1,82,84,135,130,84,153.25,97,-53.00,-18.00,-1006.00
2024-06-07 14:37:22.376906,-2,0,65,0,0,0,82,84,135,130,84,153.23,97,-60.00,-18.00,-990.00
2024-06-07 14:37:22.418006,-3,0,65,0,0,0,82,84,134,130,84,153.31,97,-65.00,0.00,-1088.00
2024-06-07 14:37:22.518878,-3,1,65,0,0,0,82,84,134,130,84,153.28,97,-83.00,17.00,-1004.00
2024-06-07 14:37:22.619931,-3,0,65,0,0,0,82,84,133,130,84,153.31,97,-41.00,12.00,-1012.00
2024-06-07 14:37:22.805217,-3,0,65,0,0,0,82,84,133,130,84,153.31,97,-38.00,19.00,-969.00
2024-06-07 14:37:22.829682,-3,-1,65,0,0,0,82,85,132,130,84,153.23,97,-57.00,16.00,-1019.00
2024-06-07 14:37:22.926009,-3,-1,65,0,0,0,82,85,132,130,84,153.28,98,-68.00,22.00,-998.00
2024-06-07 14:37:23.093657,-3,-2,65,0,0,0,82,85,132,130,84,153.13,98,-69.00,-5.00,-949.00
2024-06-07 14:37:23.129886,-3,-1,65,0,0,0,82,85,132,130,84,153.19,98,-48.00,1.00,-968.00
2024-06-07 14:37:23.181447,-3,-1,65,0,0,0,82,85,132,130,84,153.15,98,-51.00,-7.00,-991.00
2024-06-07 14:37:23.283252,-4,0,65,0,0,0,82,85,133,130,84,153.31,98,-83.00,-15.00,-983.00
2024-06-07 14:37:23.401819,-4,0,65,0,0,0,82,85,133,130,84,153.42,98,-52.00,-14.00,-919.00
2024-06-07 14:37:23.487179,-3,1,65,0,0,0,82,85,133,130,84,153.28,98,-66.00,9.00,-1019.00
2024-06-07 14:37:23.608772,-3,1,65,0,0,0,82,85,133,130,84,153.25,98,-104.00,-1.00,-1059.00
2024-06-07 14:37:23.693275,-3,0,65,0,0,0,82,85,134,130,84,153.25,98,-119.00,-5.00,-1017.00
2024-06-07 14:37:23.793314,-5,0,65,0,0,0,82,85,134,130,84,153.27,99,-89.00,8.00,-1059.00
2024-06-07 14:37:23.912974,-5,0,65,0,0,0,82,85,136,130,84,153.19,99,-77.00,14.00,-969.00
2024-06-07 14:37:24.001739,-6,0,65,0,0,0,82,85,136,130,84,153.26,99,-106.00,-8.00,-971.00
2024-06-07 14:37:24.099062,-6,0,65,0,0,0,82,85,136,130,84,153.27,99,-99.00,9.00,-1030.00
2024-06-07 14:37:24.201539,-5,0,65,0,0,0,82,85,135,130,84,153.24,99,-102.00,9.00,-1000.00
2024-06-07 14:37:24.304778,-5,0,65,0,0,0,82,85,137,130,84,153.27,99,-98.00,-1.00,-995.00
2024-06-07 14:37:24.405511,-8,0,65,0,0,0,82,85,137,130,84,153.28,99,-104.00,-30.00,-960.00
2024-06-07 14:37:24.508104,-8,0,65,0,0,0,82,85,139,130,84,153.23,99,-97.00,-3.00,-955.00
2024-06-07 14:37:24.630380,-9,0,65,0,0,0,82,85,141,130,84,153.33,99,-102.00,6.00,-1001.00
2024-06-07 14:37:24.711864,-8,0,65,1,1,0,82,85,141,130,84,153.22,99,-79.00,-32.00,-976.00
2024-06-07 14:37:24.816228,-8,0,65,1,1,0,82,85,142,130,84,153.35,100,-100.00,-10.00,-980.00
2024-06-07 14:37:24.917268,-8,2,65,1,2,0,82,85,141,130,84,153.26,100,-104.00,-8.00,-980.00
2024-06-07 14:37:25.017159,-8,0,65,1,2,0,82,85,143,130,84,153.42,100,-89.00,4.00,-1004.00
2024-06-07 14:37:25.143395,-8,0,65,1,3,0,82,85,142,130,84,153.35,100,-102.00,-47.00,-955.00
2024-06-07 14:37:25.224196,-8,0,65,2,3,0,82,85,144,130,84,153.34,100,-126.00,-38.00,-964.00
2024-06-07 14:37:25.327367,-8,1,65,2,3,0,82,85,142,130,84,153.29,100,-127.00,-18.00,-946.00
2024-06-07 14:37:25.428905,-8,1,65,2,3,0,82,85,141,130,84,153.28,100,-134.00,-5.00,-902.00
2024-06-07 14:37:25.527838,-8,1,65,2,4,0,82,85,139,130,84,153.21,100,-120.00,-24.00,-957.00
2024-06-07 14:37:25.629140,-8,1,65,2,4,0,82,85,140,130,84,153.35,100,-139.00,-37.00,-1018.00
2024-06-07 14:37:25.730965,-8,2,65,2,4,0,82,85,139,130,84,153.43,100,-139.00,-55.00,-1005.00
2024-06-07 14:37:25.832719,-4,3,65,3,4,0,83,84,138,130,84,153.15,101,-101.00,-35.00,-970.00
2024-06-07 14:37:25.935891,-1,3,65,2,3,0,83,84,135,130,84,153.22,101,-153.00,-40.00,-1099.00
2024-06-07 14:37:26.037446,-3,3,65,1,2,0,83,84,135,130,84,153.09,101,-162.00,4.00,-943.00
2024-06-07 14:37:26.138674,-5,1,65,0,2,0,83,84,133,130,84,153.09,101,-128.00,1.00,-1059.00
2024-06-07 14:37:26.244875,-6,0,65,0,2,0,83,84,130,130,84,153.21,101,-132.00,-35.00,-1051.00
2024-06-07 14:37:26.342726,-6,1,65,0,1,0,83,84,131,130,84,153.08,101,-115.00,-26.00,-1036.00
2024-06-07 14:37:26.472753,-6,1,65,0,1,0,83,84,131,130,84,153.06,101,-144.00,-13.00,-1021.00
2024-06-07 14:37:26.549386,-6,1,65,0,2,0,83,84,131,120,84,153.09,101,-100.00,-8.00,-1042.00
2024-06-07 14:37:26.649978,-6,1,65,0,1,0,83,84,130,120,84,153.18,101,-131.00,-41.00,-1004.00
2024-06-07 14:37:26.755799,-7,2,65,0,2,0,83,84,130,120,84,153.23,101,-116.00,-26.00,-964.00
2024-06-07 14:37:26.854656,-7,1,65,0,2,0,82,84,130,120,84,153.12,102,-132.00,-26.00,-948.00
2024-06-07 14:37:26.955202,-6,1,65,0,2,0,82,84,130,120,84,152.97,102,-123.00,-20.00,-967.00
2024-06-07 14:37:27.056809,-5,1,65,0,2,0,82,84,130,120,84,153.20,102,-114.00,-9.00,-1080.00
2024-06-07 14:37:27.190361,-5,0,65,0,2,0,82,84,130,120,84,153.20,102,-105.00,-2.00,-1024.00
2024-06-07 14:37:27.260988,-5,0,65,0,2,0,82,84,130,120,84,153.16,102,-105.00,-24.00,-940.00
2024-06-07 14:37:27.395121,-5,1,65,0,2,0,82,84,130,120,84,153.09,102,-108.00,-7.00,-1037.00
2024-06-07 14:37:27.464809,-4,1,65,0,2,0,82,84,131,130,84,153.03,102,-83.00,-1.00,-951.00
2024-06-07 14:37:27.599123,-3,0,65,0,2,0,82,84,130,130,84,152.89,102,-125.00,6.00,-957.00
2024-06-07 14:37:27.617608,-2,-1,65,0,2,0,82,84,129,130,84,153.05,102,-67.00,-1.00,-967.00
2024-06-07 14:37:27.719599,0,-2,65,0,1,0,82,84,128,130,84,153.02,102,-111.00,-5.00,-1026.00
2024-06-07 14:37:27.821613,-2,-1,65,0,0,0,82,84,129,130,84,153.04,103,-112.00,48.00,-994.00
2024-06-07 14:37:27.923620,-4,-2,65,0,0,0,82,84,129,130,84,153.03,103,-114.00,26.00,-969.00
2024-06-07 14:37:28.119949,-6,-5,65,0,0,0,82,84,129,130,84,152.89,103,-95.00,0.00,-953.00
2024-06-07 14:37:28.127934,-7,-5,65,0,0,0,82,84,130,130,84,152.87,103,-108.00,14.00,-976.00
2024-06-07 14:37:28.230237,-7,-3,65,1,0,0,82,84,129,130,84,152.91,103,-124.00,7.00,-972.00
2024-06-07 14:37:28.331615,-5,1,65,1,0,0,82,84,128,120,84,152.98,103,-86.00,5.00,-949.00
2024-06-07 14:37:28.435066,-4,3,65,1,0,0,82,84,126,120,84,152.85,103,-90.00,-5.00,-1050.00
2024-06-07 14:37:28.623473,-4,2,65,1,0,0,82,84,125,120,84,152.98,103,-103.00,-5.00,-1026.00
2024-06-07 14:37:28.637533,-4,2,65,0,0,0,82,84,124,120,84,152.93,103,-87.00,-6.00,-997.00
2024-06-07 14:37:28.777265,-4,2,65,0,0,0,82,84,123,120,84,153.10,103,-100.00,23.00,-988.00
2024-06-07 14:37:28.847465,-4,0,65,0,0,0,82,85,124,120,84,153.01,104,-80.00,11.00,-1039.00
2024-06-07 14:37:28.945591,-5,-1,65,0,0,0,82,85,123,120,84,152.97,104,-76.00,-12.00,-969.00
2024-06-07 14:37:29.045697,-5,-1,65,0,0,0,82,85,125,120,84,153.01,104,-76.00,1.00,-1115.00
2024-06-07 14:37:29.237657,-5,0,65,0,0,0,82,85,125,120,84,152.99,104,-79.00,-20.00,-1030.00
2024-06-07 14:37:29.250603,-4,0,65,0,0,0,82,85,126,120,84,153.02,104,-68.00,-23.00,-978.00
2024-06-07 14:37:29.442390,-3,1,65,0,0,-1,82,85,127,120,84,153.08,104,-78.00,-7.00,-1025.00
2024-06-07 14:37:29.453719,-3,1,65,0,0,-1,82,85,127,120,84,153.07,104,-99.00,-15.00,-958.00
2024-06-07 14:37:29.647209,-3,1,65,0,0,0,82,85,127,120,84,153.20,104,-69.00,6.00,-994.00
2024-06-07 14:37:29.657911,-3,1,65,0,0,0,82,85,127,120,84,153.17,104,-52.00,-9.00,-949.00
2024-06-07 14:37:29.759645,-3,0,65,0,0,0,82,85,128,120,84,153.10,104,-75.00,-6.00,-988.00
2024-06-07 14:37:29.954504,-3,0,65,0,0,0,82,84,128,120,84,153.06,105,-103.00,1.00,-943.00
2024-06-07 14:37:29.963857,-4,0,65,0,0,0,82,84,131,120,84,153.14,105,-87.00,14.00,-942.00
2024-06-07 14:37:30.065900,-5,0,65,0,0,0,82,84,130,120,84,153.23,105,-86.00,5.00,-1035.00
2024-06-07 14:37:30.263497,-4,-1,65,0,0,0,82,84,131,120,84,153.23,105,-63.00,0.00,-1006.00
2024-06-07 14:37:30.269793,-4,0,65,0,0,0,82,84,131,130,84,153.16,105,-74.00,-9.00,-909.00
2024-06-07 14:37:30.371947,-4,0,65,0,0,0,82,84,131,130,84,153.26,105,-67.00,1.00,-1017.00
2024-06-07 14:37:30.568672,-3,0,65,0,0,0,82,84,132,130,84,153.12,105,-46.00,8.00,-985.00
2024-06-07 14:37:30.575338,2,0,65,0,0,0,82,84,130,130,84,153.15,105,-84.00,7.00,-975.00
2024-06-07 14:37:30.677432,4,0,65,-1,-1,0,82,84,132,130,84,153.26,105,-61.00,25.00,-999.00
2024-06-07 14:37:30.779879,4,-1,65,-1,-2,0,82,84,132,130,84,153.22,105,-63.00,24.00,-996.00
2024-06-07 14:37:30.881776,4,-1,65,-2,-3,0,83,84,133,130,84,153.23,106,-74.00,20.00,-1026.00
2024-06-07 14:37:30.983347,3,-1,64,-2,-5,0,83,84,134,130,84,153.27,106,-41.00,11.00,-1074.00
2024-06-07 14:37:31.085370,2,-1,64,-3,-6,0,83,84,135,130,84,153.28,106,-29.00,24.00,-979.00
2024-06-07 14:37:31.136394,0,-1,64,-3,-6,0,83,84,135,130,84,153.40,106,-43.00,13.00,-997.00
2024-06-07 14:37:31.286340,0,-1,65,-3,-7,0,83,84,135,130,84,153.47,106,-58.00,25.00,-1016.00
2024-06-07 14:37:31.342329,-2,-1,65,-3,-7,0,83,84,135,130,84,153.46,106,-37.00,19.00,-1057.00
2024-06-07 14:37:31.442876,-5,-2,65,-3,-7,0,83,84,136,130,84,153.44,106,-29.00,12.00,-954.00
2024-06-07 14:37:31.544599,-7,-1,65,-2,-6,0,83,84,137,130,84,153.34,106,-22.00,19.00,-980.00
2024-06-07 14:37:31.646539,-7,0,65,-2,-5,0,83,84,135,130,84,153.38,106,-37.00,13.00,-998.00
2024-06-07 14:37:31.780600,-7,-1,65,-1,-4,0,83,84,135,130,84,153.50,106,-45.00,20.00,-995.00
2024-06-07 14:37:31.866477,-7,0,65,-1,-3,0,83,84,136,130,84,153.42,107,-54.00,17.00,-1021.00
2024-06-07 14:37:31.962574,-6,0,65,-1,-3,0,83,84,136,130,84,153.41,107,-78.00,21.00,-1051.00
2024-06-07 14:37:32.059736,-5,-1,65,-1,-3,0,83,84,134,130,84,153.35,107,-62.00,25.00,-1057.00
2024-06-07 14:37:32.156512,-5,-2,65,0,-2,0,83,84,135,130,84,153.25,107,-59.00,29.00,-1014.00
2024-06-07 14:37:32.258562,-5,-1,65,0,-2,0,83,84,134,130,84,153.27,107,-67.00,21.00,-965.00
2024-06-07 14:37:32.411911,-4,-1,65,0,-2,0,83,84,133,130,84,153.29,107,-41.00,12.00,-962.00
2024-06-07 14:37:32.464402,-3,-1,65,0,-2,0,83,84,133,130,84,153.25,107,-43.00,24.00,-1042.00
2024-06-07 14:37:32.564388,-3,-1,65,0,-2,0,83,84,132,130,84,153.28,107,-57.00,19.00,-1017.00
2024-06-07 14:37:32.719060,-3,-1,65,0,-2,0,83,84,133,130,84,153.30,107,-74.00,29.00,-992.00
2024-06-07 14:37:32.776528,-7,0,65,0,-1,0,83,84,134,130,84,153.27,107,-37.00,22.00,-1050.00
2024-06-07 14:37:32.872733,-8,0,65,0,-1,0,83,85,133,130,84,153.25,108,-44.00,24.00,-999.00
2024-06-07 14:37:32.972643,-6,0,65,0,0,0,83,85,133,130,84,153.19,108,-66.00,14.00,-1019.00
2024-06-07 14:37:33.129714,-5,0,65,0,0,0,83,85,134,130,84,153.22,108,-71.00,0.00,-953.00
2024-06-07 14:37:33.176525,-4,0,65,0,0,0,83,85,134,130,84,153.15,108,-78.00,-1.00,-983.00
2024-06-07 14:37:33.278731,-4,0,65,0,0,0,83,85,134,130,84,153.25,108,-68.00,15.00,-899.00
2024-06-07 14:37:33.441316,-3,0,65,0,0,0,83,85,134,130,84,153.21,108,-49.00,8.00,-971.00
2024-06-07 14:37:33.482694,-3,0,65,0,0,0,83,85,134,130,84,153.18,108,-69.00,31.00,-990.00
2024-06-07 14:37:33.585370,-2,-1,65,0,0,0,83,85,134,130,84,153.10,108,-56.00,33.00,-1016.00
2024-06-07 14:37:33.743083,-3,-1,65,0,0,0,83,85,135,130,84,153.19,108,-79.00,20.00,-1018.00
2024-06-07 14:37:33.788676,-2,-1,65,0,0,0,83,85,134,130,84,153.28,108,-69.00,15.00,-989.00
2024-06-07 14:37:33.947992,-3,-1,65,0,0,0,83,85,133,130,84,153.24,109,-61.00,5.00,-983.00
2024-06-07 14:37:33.992536,-3,-1,65,0,0,0,83,85,134,130,84,153.26,109,-48.00,20.00,-1002.00
2024-06-07 14:37:34.153801,-3,0,65,0,0,0,83,85,134,130,84,153.22,109,-39.00,29.00,-991.00
2024-06-07 14:37:34.196393,-2,-1,65,0,0,0,83,85,134,130,84,153.22,109,-50.00,32.00,-982.00
2024-06-07 14:37:34.298475,-2,-1,65,0,0,0,83,85,132,130,84,153.35,109,-52.00,40.00,-1027.00
2024-06-07 14:37:34.400459,-2,-1,65,0,0,0,83,85,130,130,84,153.36,109,-41.00,44.00,-991.00
2024-06-07 14:37:34.564345,-2,-2,65,0,0,0,83,85,131,130,84,153.31,109,-28.00,51.00,-1029.00
2024-06-07 14:37:34.604655,-1,-2,65,0,0,0,83,85,130,120,84,153.31,109,-56.00,39.00,-1022.00
2024-06-07 14:37:34.706798,-1,-2,65,0,0,0,83,85,130,120,84,153.38,109,-42.00,37.00,-1003.00
2024-06-07 14:37:34.758745,-2,-2,65,0,0,0,83,85,130,120,84,153.39,109,-43.00,46.00,-1026.00
2024-06-07 14:37:34.922065,-2,-2,65,0,0,0,82,85,131,120,84,153.25,110,-53.00,53.00,-1058.00
2024-06-07 14:37:34.961635,-2,-2,65,0,0,0,82,85,131,120,84,153.33,110,-49.00,38.00,-1001.00
2024-06-07 14:37:35.063393,-3,-3,65,0,0,0,82,85,131,120,84,153.39,110,-51.00,18.00,-966.00
2024-06-07 14:37:35.176549,-3,-8,65,0,0,0,82,85,134,120,84,153.37,110,-45.00,20.00,-999.00
2024-06-07 14:37:35.267290,-3,-8,65,1,0,0,82,85,134,120,84,153.41,110,-32.00,25.00,-1008.00
2024-06-07 14:37:35.371239,-3,-5,65,2,-1,0,82,85,135,120,84,153.46,110,-46.00,13.00,-1053.00
2024-06-07 14:37:35.477362,-3,-3,65,3,-1,0,82,85,137,130,84,153.31,110,-71.00,40.00,-1020.00
2024-06-07 14:37:35.583963,-3,-1,65,3,-1,0,82,85,136,130,84,153.40,110,-67.00,63.00,-975.00
2024-06-07 14:37:35.677666,-3,0,65,2,-1,0,82,85,137,130,84,153.34,110,-60.00,47.00,-965.00
2024-06-07 14:37:35.778114,-3,-1,65,2,0,0,82,85,138,130,84,153.38,110,-70.00,55.00,-992.00
2024-06-07 14:37:35.879560,-3,-1,65,2,0,0,83,85,139,130,84,153.24,111,-56.00,41.00,-985.00
2024-06-07 14:37:35.996545,-3,-2,65,2,0,0,83,85,140,130,84,153.29,111,-66.00,42.00,-936.00
2024-06-07 14:37:36.083124,-2,-1,65,2,0,0,83,85,139,130,84,153.34,111,-76.00,57.00,-1030.00
2024-06-07 14:37:36.200538,-2,-2,65,2,0,0,83,85,140,130,84,153.34,111,-65.00,33.00,-944.00
2024-06-07 14:37:36.288122,-2,-2,65,2,0,0,83,85,140,130,84,153.35,111,-79.00,46.00,-1009.00
2024-06-07 14:37:36.389337,-3,-2,65,2,-1,0,83,85,140,130,84,153.39,111,-65.00,56.00,-970.00
2024-06-07 14:37:36.491200,-3,-2,65,1,-1,0,83,85,141,130,84,153.46,111,-52.00,64.00,-1004.00
2024-06-07 14:37:36.610166,-3,-2,65,1,0,0,83,85,141,130,84,153.39,111,-87.00,71.00,-1003.00
2024-06-07 14:37:36.695976,-3,-3,65,1,0,0,83,85,141,130,84,153.46,111,-55.00,53.00,-955.00
2024-06-07 14:37:36.821676,-2,-3,65,1,0,0,83,85,142,130,84,153.49,111,-73.00,44.00,-972.00
2024-06-07 14:37:36.899353,-2,-2,65,1,-1,0,82,85,142,130,84,153.51,112,-58.00,47.00,-928.00
2024-06-07 14:37:37.019886,-2,-2,65,1,-1,0,82,85,141,130,84,153.53,112,-50.00,68.00,-1016.00
2024-06-07 14:37:37.110646,-2,-1,65,1,-1,0,82,85,140,130,84,153.54,112,-59.00,75.00,-1001.00
2024-06-07 14:37:37.205269,-4,2,64,0,0,0,82,85,141,130,84,153.51,112,-50.00,65.00,-1003.00
2024-06-07 14:37:37.308367,-4,0,65,0,0,0,82,85,141,130,84,153.59,112,-49.00,64.00,-1063.00
2024-06-07 14:37:37.433880,-3,-1,65,0,0,0,82,85,141,130,84,153.60,112,-61.00,70.00,-1059.00
2024-06-07 14:37:37.515268,-3,-2,65,0,0,0,82,85,140,130,84,153.50,112,-56.00,74.00,-1015.00
2024-06-07 14:37:37.614487,-3,-3,65,0,0,0,82,85,141,130,84,153.53,112,-28.00,63.00,-1005.00
2024-06-07 14:37:37.716963,-3,-3,65,0,0,0,82,85,141,130,84,153.57,112,-49.00,67.00,-1033.00
2024-06-07 14:37:37.819885,-2,-4,65,0,0,0,82,85,140,130,84,153.60,112,-42.00,47.00,-1079.00
2024-06-07 14:37:37.920437,-2,-4,65,0,0,0,82,84,140,130,84,153.48,113,-46.00,47.00,-950.00
2024-06-07 14:37:38.024192,-2,-4,65,0,0,0,82,84,140,130,84,153.50,113,-37.00,59.00,-1019.00
2024-06-07 14:37:38.126450,-2,-3,65,0,0,0,82,84,139,130,84,153.56,113,-53.00,49.00,-959.00
2024-06-07 14:37:38.231140,-3,-2,65,0,0,0,82,84,137,130,84,153.38,113,-39.00,46.00,-995.00
2024-06-07 14:37:38.328358,-2,-2,65,0,0,0,82,84,138,130,84,153.32,113,-71.00,58.00,-987.00
2024-06-07 14:37:38.431315,-2,-2,65,0,0,0,82,84,136,130,84,153.43,113,-46.00,54.00,-1004.00
2024-06-07 14:37:38.560699,-2,-2,65,0,0,0,82,84,136,130,84,153.16,113,-60.00,49.00,-999.00
2024-06-07 14:37:38.634979,-3,-3,65,0,0,0,82,84,135,130,84,153.22,113,-73.00,60.00,-1021.00
2024-06-07 14:37:38.760765,-3,-3,65,0,0,0,82,84,135,130,84,153.27,113,-62.00,61.00,-1021.00
2024-06-07 14:37:38.840495,-3,-3,65,0,0,0,82,84,134,130,84,153.33,114,-53.00,44.00,-971.00
2024-06-07 14:37:38.941185,-2,-3,65,0,0,0,83,84,135,130,84,153.44,114,-40.00,50.00,-1019.00
2024-06-07 14:37:39.044030,-1,-3,65,0,0,0,83,84,133,130,84,153.42,114,-43.00,42.00,-987.00
2024-06-07 14:37:39.144494,-1,-3,65,0,0,0,83,84,132,130,84,153.38,114,-42.00,39.00,-1019.00
2024-06-07 14:37:39.196499,-1,-3,65,0,0,0,83,84,133,130,84,153.31,114,-43.00,44.00,-1010.00
2024-06-07 14:37:39.297520,-1,-2,65,0,0,0,83,84,133,130,84,153.36,114,-42.00,56.00,-1036.00
2024-06-07 14:37:39.477615,-3,0,65,0,0,0,83,84,132,130,84,153.36,114,-63.00,25.00,-1022.00
2024-06-07 14:37:39.501444,-4,7,64,-1,0,0,83,84,133,130,84,153.41,114,-30.00,70.00,-932.00
2024-06-07 14:37:39.682228,-3,4,65,-2,1,0,83,84,133,130,84,153.36,114,-87.00,35.00,-1013.00
2024-06-07 14:37:39.704962,-3,1,65,-3,1,0,83,84,132,130,84,153.26,114,-57.00,14.00,-995.00
2024-06-07 14:37:39.902339,-3,0,65,-3,1,0,83,84,132,120,84,153.35,115,-50.00,39.00,-985.00
2024-06-07 14:37:39.920233,-3,-3,65,-4,2,0,83,84,131,120,84,153.39,115,-50.00,37.00,-1009.00
2024-06-07 14:37:40.012054,-3,-5,65,-4,2,0,83,84,132,120,84,153.35,115,-58.00,34.00,-978.00
2024-06-07 14:37:40.112956,-2,-4,65,-3,1,0,83,84,131,120,84,153.39,115,-90.00,22.00,-1008.00
2024-06-07 14:37:40.219545,-2,-3,65,-3,1,0,83,84,132,120,84,153.41,115,-83.00,30.00,-994.00
2024-06-07 14:37:40.317225,-3,-3,65,-3,1,0,83,84,132,130,84,153.39,115,-79.00,29.00,-991.00
2024-06-07 14:37:40.501333,-4,-2,65,-2,1,0,83,84,133,130,84,153.38,115,-55.00,42.00,-1016.00
2024-06-07 14:37:40.520940,-5,-2,65,-2,1,0,83,84,132,130,84,153.41,115,-60.00,43.00,-1046.00
2024-06-07 14:37:40.706249,-2,-5,65,-2,1,0,83,84,133,130,84,153.34,115,-67.00,58.00,-963.00
2024-06-07 14:37:40.724938,-3,-7,65,-2,0,0,83,84,134,130,84,153.34,115,-59.00,32.00,-1036.00
2024-06-07 14:37:40.826887,-4,-5,65,-1,0,0,83,84,134,130,84,153.32,116,-49.00,47.00,-1065.00
2024-06-07 14:37:41.017908,-3,-4,65,0,0,0,83,84,133,130,84,153.40,116,-61.00,49.00,-979.00
2024-06-07 14:37:41.032150,-3,-4,65,0,0,0,83,84,132,130,84,153.38,116,-70.00,47.00,-914.00
2024-06-07 14:37:41.218347,-3,-3,65,0,0,0,83,84,132,130,84,153.45,116,-52.00,57.00,-1048.00
2024-06-07 14:37:41.236031,-3,-2,65,0,0,0,83,84,132,130,84,153.48,116,-38.00,61.00,-1024.00
2024-06-07 14:37:41.338076,-2,-3,65,0,0,0,83,84,132,130,84,153.45,116,-35.00,46.00,-996.00
2024-06-07 14:37:41.525708,-1,-3,65,0,0,0,83,84,132,130,84,153.34,116,-41.00,43.00,-1011.00
2024-06-07 14:37:41.542164,-1,-3,65,0,0,0,83,84,132,130,84,153.35,116,-46.00,45.00,-932.00
2024-06-07 14:37:41.730322,-2,-3,65,0,0,0,83,84,132,130,84,153.28,116,-52.00,41.00,-1085.00
2024-06-07 14:37:41.746177,-2,-2,65,0,0,0,83,84,130,130,84,153.14,116,-67.00,24.00,-968.00
2024-06-07 14:37:41.934990,-3,-1,65,0,0,0,83,84,131,130,84,153.20,117,-60.00,40.00,-1000.00
2024-06-07 14:37:41.951258,-3,-2,65,0,0,0,83,84,133,130,84,153.30,117,-59.00,37.00,-1030.00
2024-06-07 14:37:42.144659,-3,-1,65,0,0,0,83,84,132,130,84,153.23,117,-58.00,41.00,-995.00
2024-06-07 14:37:42.154201,-2,-1,65,0,0,0,83,84,130,130,84,153.39,117,-59.00,40.00,-973.00
2024-06-07 14:37:42.256317,-2,-2,65,0,0,0,83,84,130,130,84,153.36,117,-41.00,41.00,-1003.00
2024-06-07 14:37:42.447218,-2,-2,65,0,0,0,83,84,132,120,84,153.40,117,-54.00,38.00,-1012.00
2024-06-07 14:37:42.460089,-2,-2,65,0,0,0,83,84,132,120,84,153.33,117,-54.00,44.00,-947.00
2024-06-07 14:37:42.510971,-2,-2,65,0,0,0,83,84,132,120,84,153.33,117,-45.00,37.00,-1000.00
2024-06-07 14:37:42.652047,-3,-1,65,0,0,0,83,84,135,130,84,153.29,117,-59.00,30.00,-1067.00
2024-06-07 14:37:42.714985,-3,0,65,0,0,0,83,84,135,130,84,153.47,117,-61.00,4.00,-1009.00
2024-06-07 14:37:42.856843,-3,-1,65,0,0,0,83,84,136,130,84,153.56,118,-64.00,35.00,-1040.00
2024-06-07 14:37:42.919543,-3,-2,65,0,0,0,82,85,136,130,84,153.55,118,-23.00,60.00,-986.00
2024-06-07 14:37:43.021141,-2,-3,65,0,0,0,82,85,135,130,84,153.45,118,-41.00,62.00,-1028.00
2024-06-07 14:37:43.163738,-1,-3,65,0,0,0,82,85,135,130,84,153.48,118,-17.00,24.00,-989.00
2024-06-07 14:37:43.224765,-1,-4,71,0,0,0,82,85,134,130,84,153.51,118,-25.00,91.00,-1044.00
2024-06-07 14:37:43.329025,-1,-4,77,0,0,0,82,85,134,130,84,153.45,118,-23.00,80.00,-992.00
2024-06-07 14:37:43.429423,0,-5,83,0,0,0,82,85,134,130,84,153.51,118,-25.00,70.00,-919.00
2024-06-07 14:37:43.531363,0,-5,88,0,0,0,82,85,136,130,84,153.51,118,-25.00,71.00,-1025.00
2024-06-07 14:37:43.677750,0,-5,94,0,0,0,82,85,136,130,84,153.51,118,-34.00,77.00,-950.00
2024-06-07 14:37:43.737606,0,-4,100,0,0,0,82,85,134,130,84,153.58,118,-32.00,75.00,-1000.00
2024-06-07 14:37:43.837020,0,-4,105,0,0,0,82,85,134,130,84,153.52,119,-30.00,70.00,-928.00
2024-06-07 14:37:43.982798,0,-4,111,0,0,0,83,85,135,130,84,153.55,119,22.00,70.00,-980.00
2024-06-07 14:37:44.046200,0,-4,117,0,0,0,83,85,133,130,84,153.66,119,-12.00,69.00,-970.00
2024-06-07 14:37:44.142934,0,-3,123,0,0,0,83,85,134,130,84,153.58,119,25.00,72.00,-1060.00
2024-06-07 14:37:44.290164,1,-2,129,0,0,0,83,85,134,130,84,153.60,119,2.00,72.00,-1018.00
2024-06-07 14:37:44.346747,1,-2,135,0,0,0,83,85,135,130,84,153.49,119,17.00,67.00,-955.00
2024-06-07 14:37:44.500243,1,-2,141,0,0,0,83,85,133,130,84,153.47,119,28.00,56.00,-1009.00
2024-06-07 14:37:44.550723,1,-2,147,0,0,0,83,85,133,130,84,153.47,119,1.00,63.00,-955.00
2024-06-07 14:37:44.652833,1,-2,153,0,0,0,83,85,134,130,84,153.46,119,37.00,71.00,-1025.00
2024-06-07 14:37:44.756141,1,-2,159,0,0,0,83,85,135,130,84,153.44,119,5.00,70.00,-1043.00
2024-06-07 14:37:44.856711,2,-2,165,0,0,0,83,85,135,130,84,153.50,120,20.00,63.00,-995.00
2024-06-07 14:37:45.006964,1,-2,171,0,0,0,83,85,136,130,84,153.51,120,60.00,49.00,-1028.00
2024-06-07 14:37:45.060655,1,-2,177,0,0,0,83,85,137,130,84,153.48,120,41.00,51.00,-1016.00
2024-06-07 14:37:45.212080,1,-1,-176,0,0,0,83,85,139,130,84,153.41,120,53.00,58.00,-999.00
2024-06-07 14:37:45.264719,1,-1,-170,0,0,0,83,85,141,130,84,153.51,120,41.00,52.00,-975.00
2024-06-07 14:37:45.416478,2,-1,-165,0,0,0,83,85,141,130,84,153.53,120,42.00,45.00,-984.00
2024-06-07 14:37:45.474176,2,-2,-159,0,0,0,83,85,142,130,84,153.53,120,58.00,12.00,-979.00
2024-06-07 14:37:45.571403,3,-1,-153,0,0,0,83,85,142,130,84,153.52,120,67.00,13.00,-998.00
2024-06-07 14:37:45.723935,3,0,-148,0,0,0,83,85,140,130,84,153.58,120,58.00,0.00,-969.00
2024-06-07 14:37:45.775709,3,0,-142,0,0,0,83,85,140,130,84,153.56,120,53.00,4.00,-947.00
2024-06-07 14:37:45.928550,3,1,-137,0,0,0,83,85,138,130,84,153.66,121,46.00,3.00,-980.00
2024-06-07 14:37:45.982749,2,1,-131,0,0,0,82,85,138,130,83,153.54,121,42.00,1.00,-997.00
2024-06-07 14:37:46.080652,2,1,-126,0,0,0,82,85,137,130,83,153.53,121,30.00,2.00,-1100.00
2024-06-07 14:37:46.236025,1,1,-120,0,0,0,82,85,135,130,83,153.40,121,30.00,-13.00,-1069.00
2024-06-07 14:37:46.285306,1,1,-115,0,0,0,82,85,134,130,83,153.44,121,31.00,-12.00,-1026.00
2024-06-07 14:37:46.386647,1,1,-109,0,0,0,82,85,134,130,83,153.43,121,36.00,-29.00,-964.00
2024-06-07 14:37:46.489056,1,1,-104,0,0,0,82,85,133,130,83,153.47,121,45.00,-12.00,-1075.00
2024-06-07 14:37:46.539834,1,2,-98,0,0,0,82,85,132,130,83,153.47,121,8.00,-34.00,-1097.00
2024-06-07 14:37:46.641819,0,2,-92,0,0,0,82,85,132,120,83,153.48,121,23.00,-33.00,-994.00
2024-06-07 14:37:46.747952,0,1,-86,0,0,0,82,85,132,120,83,153.55,121,3.00,-33.00,-1075.00
2024-06-07 14:37:46.845998,0,2,-80,0,0,0,82,85,132,120,83,153.44,122,13.00,-42.00,-1025.00
2024-06-07 14:37:46.952688,0,2,-74,0,0,0,83,84,132,120,83,153.49,122,22.00,-35.00,-1026.00
2024-06-07 14:37:47.053129,-1,3,-68,0,0,0,83,84,133,120,83,153.53,122,9.00,-27.00,-1008.00
2024-06-07 14:37:47.151849,0,2,-62,0,0,0,83,84,133,120,83,153.54,122,1.00,-47.00,-978.00
2024-06-07 14:37:47.253901,0,2,-56,0,0,0,83,84,133,120,83,153.47,122,3.00,-41.00,-910.00
2024-06-07 14:37:47.355763,0,2,-49,0,0,0,83,84,135,130,83,153.58,122,-22.00,-41.00,-1007.00
2024-06-07 14:37:47.464456,-1,2,-42,0,0,0,83,84,135,130,83,153.61,122,-37.00,-33.00,-987.00
2024-06-07 14:37:47.559808,-2,1,-36,0,0,0,83,84,135,130,83,153.63,122,-11.00,-34.00,-948.00
2024-06-07 14:37:47.669329,-2,1,-30,0,0,0,83,84,136,130,83,153.59,122,-28.00,-30.00,-963.00
2024-06-07 14:37:47.763801,-2,1,-24,0,0,0,83,84,136,130,83,153.62,122,-53.00,-25.00,-1067.00
2024-06-07 14:37:47.874085,-3,1,-18,0,0,0,83,84,137,130,83,153.49,123,-54.00,-30.00,-1011.00
2024-06-07 14:37:47.967722,-3,1,-12,0,0,0,83,85,137,130,83,153.58,123,-41.00,-26.00,-1023.00
2024-06-07 14:37:48.069721,-3,1,-6,0,0,0,83,85,139,130,83,153.55,123,-35.00,-28.00,-974.00
2024-06-07 14:37:48.172896,-3,1,0,0,0,0,83,85,138,130,83,153.44,123,-55.00,-27.00,-993.00
2024-06-07 14:37:48.273749,-3,1,6,0,0,0,83,85,140,130,83,153.32,123,-59.00,-11.00,-1066.00
2024-06-07 14:37:48.376888,-3,0,12,0,0,0,83,85,141,130,83,153.28,123,-69.00,4.00,-1018.00
2024-06-07 14:37:48.477974,-4,0,18,0,0,0,83,85,141,130,83,153.40,123,-86.00,-2.00,-908.00
2024-06-07 14:37:48.579869,-4,0,25,0,0,0,83,85,142,130,83,153.46,123,-99.00,1.00,-918.00
2024-06-07 14:37:48.693403,-4,0,31,0,0,0,83,85,143,130,83,153.46,123,-96.00,33.00,-991.00
2024-06-07 14:37:48.783679,-4,-1,37,0,0,0,83,85,143,130,83,153.60,123,-76.00,36.00,-947.00
2024-06-07 14:37:48.885904,-5,-3,44,0,0,0,83,85,142,130,83,153.50,124,-102.00,37.00,-1007.00
2024-06-07 14:37:49.001962,-4,-2,49,0,0,0,83,85,143,130,83,153.43,124,-77.00,49.00,-998.00
2024-06-07 14:37:49.099636,-4,-2,53,0,0,0,83,85,143,130,83,153.38,124,-74.00,24.00,-983.00
2024-06-07 14:37:49.191761,-4,-2,56,0,0,0,83,85,141,130,83,153.33,124,-79.00,42.00,-992.00
2024-06-07 14:37:49.295344,-4,-2,58,0,0,0,83,85,143,130,83,153.46,124,-81.00,59.00,-1017.00
2024-06-07 14:37:49.396605,-3,-2,60,0,0,0,83,85,141,130,83,153.39,124,-95.00,46.00,-971.00
2024-06-07 14:37:49.512812,-3,-2,61,0,0,0,83,85,142,130,83,153.34,124,-91.00,38.00,-982.00
2024-06-07 14:37:49.602326,-3,-2,62,0,0,0,83,85,141,130,83,153.45,124,-83.00,22.00,-948.00
2024-06-07 14:37:49.705086,-4,-1,63,0,0,0,83,85,144,130,83,153.38,124,-102.00,45.00,-1032.00
2024-06-07 14:37:49.809711,-4,-1,63,0,0,0,83,85,141,130,83,153.45,124,-64.00,25.00,-931.00
2024-06-07 14:37:49.855905,-4,-1,63,0,0,0,83,85,141,130,83,153.37,125,-77.00,24.00,-958.00
2024-06-07 14:37:50.024649,-3,-1,63,0,0,0,83,85,141,130,82,153.34,125,-63.00,41.00,-996.00
2024-06-07 14:37:50.113343,-3,-1,63,0,0,0,83,85,141,130,82,153.44,125,-77.00,20.00,-1015.00
2024-06-07 14:37:50.161759,-3,-1,63,0,0,0,83,85,141,130,82,153.42,125,-89.00,30.00,-1042.00
2024-06-07 14:37:50.331809,-3,0,63,0,0,0,83,85,142,130,82,153.44,125,-88.00,25.00,-1019.00
2024-06-07 14:37:50.365779,-4,0,63,0,0,0,83,85,142,130,82,153.39,125,-78.00,15.00,-968.00
2024-06-07 14:37:50.536606,-3,0,63,0,0,0,83,85,140,130,82,153.33,125,-77.00,24.00,-976.00
2024-06-07 14:37:50.569868,-3,0,63,0,0,0,83,85,142,130,82,153.52,125,-77.00,35.00,-1002.00
2024-06-07 14:37:50.746788,-3,-1,63,0,0,0,83,85,142,130,82,153.53,125,-79.00,26.00,-960.00
2024-06-07 14:37:50.773718,-4,-1,63,0,0,0,83,85,142,130,82,153.38,125,-71.00,29.00,-993.00
2024-06-07 14:37:50.946223,-4,-1,63,0,0,0,83,85,142,130,82,153.36,126,-78.00,36.00,-1008.00
2024-06-07 14:37:50.977720,-4,-1,63,0,0,0,83,85,142,130,82,153.34,126,-75.00,6.00,-982.00
2024-06-07 14:37:51.151184,-4,-1,63,0,0,0,83,85,142,130,82,153.43,126,-65.00,31.00,-1020.00
2024-06-07 14:37:51.182666,-4,-1,63,0,0,0,83,85,143,130,82,153.39,126,-68.00,39.00,-958.00
2024-06-07 14:37:51.356250,-3,0,63,0,0,0,83,85,143,130,82,153.48,126,-66.00,30.00,-968.00
2024-06-07 14:37:51.385750,-4,-1,63,0,0,0,83,85,142,130,82,153.41,126,-40.00,20.00,-960.00
2024-06-07 14:37:51.562827,-4,-2,63,0,0,0,83,85,142,130,82,153.39,126,-84.00,8.00,-965.00
2024-06-07 14:37:51.589738,-3,-1,63,0,0,0,83,85,140,130,82,153.48,126,-44.00,14.00,-947.00
2024-06-07 14:37:51.691506,-3,-1,63,0,0,0,83,85,141,130,82,153.30,126,-57.00,14.00,-1011.00
2024-06-07 14:37:51.867652,-3,-1,63,0,0,0,83,85,141,130,82,153.40,126,-90.00,47.00,-982.00
2024-06-07 14:37:51.897770,-3,-1,59,0,0,0,83,85,141,130,82,153.47,127,-34.00,27.00,-1023.00
2024-06-07 14:37:51.997622,-3,0,54,0,0,0,83,85,139,130,82,153.35,127,-59.00,1.00,-994.00
2024-06-07 14:37:52.174822,-3,0,48,0,0,0,83,85,140,130,82,153.42,127,-59.00,-1.00,-987.00
2024-06-07 14:37:52.201490,-3,0,42,0,0,0,83,85,139,130,82,153.40,127,-58.00,-12.00,-985.00
2024-06-07 14:37:52.380181,-3,0,37,0,0,0,83,85,141,130,82,153.37,127,-50.00,-24.00,-973.00
2024-06-07 14:37:52.405511,-3,1,31,0,0,0,83,85,139,130,82,153.49,127,-30.00,-7.00,-1019.00
2024-06-07 14:37:52.584449,-2,1,25,0,0,0,83,85,140,130,82,153.49,127,-45.00,-15.00,-1055.00
2024-06-07 14:37:52.609497,-1,1,19,0,0,0,83,85,139,130,82,153.60,127,-44.00,-30.00,-957.00
2024-06-07 14:37:52.712651,-1,0,13,0,0,0,83,85,138,130,82,153.52,127,-63.00,-26.00,-1037.00
2024-06-07 14:37:52.814396,-1,0,7,0,0,0,83,85,138,130,82,153.59,127,-69.00,-58.00,-1047.00
2024-06-07 14:37:52.915985,-2,2,2,0,0,0,83,85,137,130,82,153.63,128,-50.00,-65.00,-985.00
2024-06-07 14:37:53.096428,-2,3,-3,0,0,0,83,86,138,130,82,153.57,128,-52.00,-49.00,-1012.00
2024-06-07 14:37:53.119519,-2,3,-8,0,0,0,83,86,136,130,82,153.57,128,-59.00,-41.00,-984.00
2024-06-07 14:37:53.302324,-3,3,-14,0,0,0,83,86,137,130,82,153.60,128,-51.00,-57.00,-981.00
2024-06-07 14:37:53.324826,-3,4,-19,0,0,0,83,86,135,130,82,153.55,128,-48.00,-49.00,-1006.00
2024-06-07 14:37:53.505987,-2,4,-25,0,0,0,83,86,134,130,82,153.60,128,-43.00,-46.00,-1046.00
2024-06-07 14:37:53.529544,-2,4,-30,0,0,0,83,86,133,130,82,153.47,128,-42.00,-59.00,-1004.00
2024-06-07 14:37:53.629606,-2,5,-36,0,0,0,83,86,133,130,82,153.58,128,-20.00,-62.00,-1002.00
2024-06-07 14:37:53.680318,-1,5,-41,0,0,0,83,86,131,120,82,153.53,128,-15.00,-59.00,-1069.00
2024-06-07 14:37:53.782308,-1,4,-47,0,0,0,83,86,129,120,82,153.53,128,-22.00,-65.00,-976.00
2024-06-07 14:37:53.915513,0,4,-53,0,0,0,83,86,130,120,82,153.56,129,11.00,-50.00,-1018.00
2024-06-07 14:37:54.037484,0,3,-67,0,0,0,83,85,131,120,82,153.50,129,36.00,-28.00,-999.00
2024-06-07 14:37:54.223178,1,2,-72,0,0,0,83,85,129,120,82,153.58,129,45.00,-40.00,-1065.00
2024-06-07 14:37:54.247185,1,1,-78,0,0,0,83,85,131,120,82,153.61,129,57.00,-52.00,-995.00
2024-06-07 14:37:54.343741,2,1,-85,0,0,0,83,85,132,120,82,153.51,129,54.00,-40.00,-993.00
2024-06-07 14:37:54.394938,3,1,-90,0,0,0,83,85,131,120,82,153.45,129,60.00,-15.00,-1033.00
2024-06-07 14:37:54.496179,4,1,-96,0,0,0,83,85,134,130,82,153.47,129,71.00,-21.00,-975.00
2024-06-07 14:37:54.598294,3,0,-101,0,0,0,83,85,134,130,82,153.55,129,33.00,-24.00,-988.00
2024-06-07 14:37:54.701608,2,0,-107,0,0,0,83,85,134,130,82,153.51,129,39.00,-46.00,-961.00
2024-06-07 14:37:54.803833,2,1,-113,0,0,0,83,85,134,130,82,153.45,130,31.00,-30.00,-975.00
2024-06-07 14:37:54.907419,2,1,-119,0,0,0,83,85,134,130,82,153.40,130,32.00,-18.00,-1026.00
2024-06-07 14:37:55.009239,2,1,-125,0,0,0,83,85,134,130,82,153.43,130,33.00,4.00,-993.00
2024-06-07 14:37:55.111182,2,1,-131,0,0,0,83,85,134,130,82,153.44,130,65.00,-23.00,-982.00
2024-06-07 14:37:55.210215,3,2,-137,0,0,0,83,85,134,130,82,153.42,130,68.00,14.00,-1000.00
2024-06-07 14:37:55.312490,3,0,-142,0,0,0,83,85,135,130,82,153.42,130,76.00,21.00,-1018.00
2024-06-07 14:37:55.451610,3,0,-148,0,0,0,83,85,135,130,82,153.49,130,57.00,38.00,-977.00
2024-06-07 14:37:55.516106,4,-1,-154,0,0,0,83,85,134,130,82,153.51,130,75.00,23.00,-985.00
2024-06-07 14:37:55.657994,4,-1,-160,0,0,0,83,85,134,130,82,153.54,130,56.00,25.00,-995.00
2024-06-07 14:37:55.720021,4,-1,-165,0,0,0,83,85,134,130,82,153.54,130,54.00,45.00,-975.00
2024-06-07 14:37:55.822133,3,-2,-171,0,0,0,83,85,134,130,82,153.69,131,38.00,80.00,-991.00
2024-06-07 14:37:55.924151,3,-2,-177,0,0,0,83,85,134,130,82,153.71,131,41.00,69.00,-1003.00
2024-06-07 14:37:56.026114,2,-3,176,0,0,0,83,85,134,130,81,153.59,131,34.00,75.00,-997.00
2024-06-07 14:37:56.129212,1,-4,171,0,0,0,83,85,134,130,81,153.51,131,4.00,75.00,-1004.00
2024-06-07 14:37:56.230114,0,-4,164,0,0,0,83,85,134,130,81,153.48,131,19.00,57.00,-1030.00
2024-06-07 14:37:56.332859,0,-3,158,0,0,0,83,85,132,130,81,153.48,131,16.00,75.00,-1026.00
2024-06-07 14:37:56.434083,0,-3,152,0,0,0,83,85,133,130,81,153.61,131,0.00,90.00,-1038.00
2024-06-07 14:37:56.536123,0,-3,145,0,0,0,83,85,135,130,81,153.63,131,-3.00,66.00,-973.00
2024-06-07 14:37:56.638464,0,-3,139,0,0,0,83,85,134,130,81,153.53,131,0.00,60.00,-998.00
2024-06-07 14:37:56.741238,0,-2,133,0,0,0,83,85,135,130,81,153.49,131,3.00,63.00,-1014.00
2024-06-07 14:37:56.843482,0,-2,127,0,0,0,83,85,134,130,81,153.50,132,-21.00,59.00,-995.00
2024-06-07 14:37:56.948075,0,-2,121,0,0,0,83,85,134,130,81,153.62,132,-17.00,52.00,-960.00
2024-06-07 14:37:57.048361,0,-2,115,0,0,0,82,85,134,130,81,153.53,132,-17.00,52.00,-964.00
2024-06-07 14:37:57.150791,-1,-1,109,0,0,0,82,85,134,130,81,153.54,132,-31.00,65.00,-1008.00
2024-06-07 14:37:57.253331,-1,-1,103,0,0,0,82,85,134,130,81,153.65,132,-48.00,54.00,-967.00
2024-06-07 14:37:57.355553,-1,-2,97,0,0,0,82,85,134,130,81,153.48,132,-27.00,53.00,-985.00
2024-06-07 14:37:57.457828,-2,-2,92,0,0,0,82,85,134,130,81,153.41,132,-54.00,66.00,-1053.00
2024-06-07 14:37:57.557334,-3,-1,86,0,0,0,82,85,134,130,81,153.34,132,-49.00,41.00,-1010.00
2024-06-07 14:37:57.704421,-3,0,81,0,0,0,82,85,134,130,81,153.35,132,-65.00,32.00,-1020.00
2024-06-07 14:37:57.712801,-3,0,76,0,0,0,82,85,134,130,81,153.31,132,-49.00,22.00,-1005.00
2024-06-07 14:37:57.812044,-3,0,73,0,0,0,82,85,136,130,81,153.46,133,-70.00,16.00,-970.00
2024-06-07 14:37:58.011530,-3,-1,70,0,0,0,82,85,134,130,81,153.42,133,-67.00,41.00,-1008.00
2024-06-07 14:37:58.067588,-3,-1,68,0,0,0,82,85,135,130,81,153.53,133,-50.00,0.00,-889.00
2024-06-07 14:37:58.118347,-3,0,66,0,0,0,82,85,136,130,81,153.34,133,-72.00,4.00,-1009.00
2024-06-07 14:37:58.220008,-3,0,65,0,0,0,82,85,136,130,81,153.22,133,-63.00,-1.00,-966.00
2024-06-07 14:37:58.322427,-3,0,64,0,0,0,82,85,136,130,81,153.27,133,-57.00,12.00,-963.00
2024-06-07 14:37:58.424173,-4,0,64,0,0,0,82,85,137,130,81,153.42,133,-91.00,-3.00,-959.00
2024-06-07 14:37:58.526362,-4,0,64,0,0,0,82,85,136,130,81,153.42,133,-79.00,-24.00,-956.00
2024-06-07 14:37:58.628188,-4,0,64,0,0,0,82,85,135,130,81,153.30,133,-82.00,-21.00,-1046.00
2024-06-07 14:37:58.730072,-4,1,65,0,0,0,82,85,135,130,81,153.40,133,-80.00,15.00,-1002.00
2024-06-07 14:37:58.832234,-4,1,65,0,0,0,82,85,135,130,81,153.26,134,-72.00,49.00,-980.00
2024-06-07 14:37:59.036877,-4,0,65,0,0,0,82,85,134,130,81,153.39,134,-96.00,45.00,-995.00
2024-06-07 14:37:59.038764,-4,-1,65,-1,0,0,83,85,134,130,81,153.63,134,-100.00,40.00,-1028.00
2024-06-07 14:37:59.138267,-5,-2,64,-1,0,0,83,85,134,130,81,153.48,134,-82.00,35.00,-985.00
2024-06-07 14:37:59.240697,-6,-2,64,0,0,0,83,85,134,130,81,153.44,134,-62.00,7.00,-973.00
2024-06-07 14:37:59.343421,-4,-2,65,0,0,0,83,85,132,120,81,153.39,134,-107.00,12.00,-1085.00
2024-06-07 14:37:59.445594,-4,-1,64,0,0,0,83,85,133,120,81,153.40,134,-106.00,10.00,-1078.00
2024-06-07 14:37:59.547679,-5,-1,64,0,0,0,83,85,134,120,81,153.35,134,-65.00,-17.00,-955.00
2024-06-07 14:37:59.648258,-4,0,64,0,0,0,83,85,132,120,81,153.34,134,-78.00,4.00,-1011.00
2024-06-07 14:37:59.750233,-4,0,64,0,0,0,83,85,134,120,81,153.36,134,-80.00,-4.00,-1009.00
2024-06-07 14:37:59.852072,-4,1,64,0,0,0,83,85,133,130,81,153.51,135,-88.00,36.00,-1014.00
2024-06-07 14:37:59.954112,-4,0,64,0,0,0,83,85,133,130,81,153.17,135,-84.00,-4.00,-997.00
2024-06-07 14:38:00.059649,-4,-1,65,0,0,0,83,85,133,130,81,153.36,135,-47.00,-18.00,-950.00
2024-06-07 14:38:00.158438,-4,0,65,0,0,0,83,85,133,130,81,153.28,135,-83.00,-23.00,-941.00
2024-06-07 14:38:00.269706,-4,1,65,0,0,0,83,85,132,130,81,153.42,135,-81.00,-2.00,-995.00
2024-06-07 14:38:00.364694,-4,1,64,0,0,0,83,85,133,130,81,153.25,135,-91.00,-3.00,-997.00
2024-06-07 14:38:00.464205,-2,-1,65,0,0,-1,83,85,133,130,81,153.38,135,-128.00,-5.00,-1683.00
2024-06-07 14:38:00.571515,0,-3,64,0,0,-7,83,85,139,130,81,153.50,135,-60.00,45.00,-1527.00
2024-06-07 14:38:00.667964,0,-52,64,2,-2,-12,83,85,274,140,81,153.70,135,-86.00,454.00,-1070.00
2024-06-07 14:38:00.776354,0,-174,65,9,-6,-3,83,85,6553,150,81,153.72,135,-67.00,574.00,-975.00
2024-06-07 14:38:00.878393,0,66,65,7,-6,11,83,85,294,150,81,153.39,136,-21.00,485.00,-1374.00
2024-06-07 14:38:00.973857,4,-7,70,1,-4,10,83,85,143,130,81,153.18,136,-137.00,-153.00,-1739.00
2024-06-07 14:38:01.083543,0,2,75,1,-6,8,83,84,135,120,81,154.24,136,-14.00,113.00,-1366.00
2024-06-07 14:38:01.183961,-6,1,84,0,-6,4,83,84,129,120,81,153.46,136,-36.00,106.00,-1390.00
2024-06-07 14:38:01.279901,-6,-3,89,-1,-5,1,83,84,129,120,81,153.26,136,-43.00,103.00,-1205.00
2024-06-07 14:38:01.381988,-5,-5,84,-1,-4,0,83,84,129,110,81,153.27,136,-61.00,95.00,-1096.00
2024-06-07 14:38:01.493159,-5,-3,72,0,-3,-1,83,84,130,120,81,153.43,136,-67.00,41.00,-1042.00
2024-06-07 14:38:01.588760,-4,-2,64,0,-3,-1,83,84,133,120,81,153.42,136,-47.00,-17.00,-1032.00
2024-06-07 14:38:01.688676,-4,-1,64,0,-3,-1,83,84,133,120,81,153.53,136,-51.00,20.00,-990.00
2024-06-07 14:38:01.739605,-4,0,64,0,-3,-1,83,84,135,120,81,153.52,136,-38.00,31.00,-942.00
2024-06-07 14:38:01.841035,-4,0,64,0,-2,0,83,84,139,120,81,153.59,137,-46.00,13.00,-942.00
2024-06-07 14:38:02.005845,-4,0,64,0,-2,0,83,84,137,120,81,153.48,137,-50.00,-2.00,-963.00
2024-06-07 14:38:02.045217,-4,0,64,0,-2,0,83,86,138,120,81,153.48,137,-78.00,24.00,-980.00
2024-06-07 14:38:02.210500,-4,0,64,0,-2,0,83,86,139,120,81,153.40,137,-76.00,-4.00,-1028.00
2024-06-07 14:38:02.249142,-4,1,64,0,-2,0,83,86,138,120,81,153.42,137,-77.00,14.00,-964.00
2024-06-07 14:38:02.416155,-4,1,64,0,-2,0,83,86,139,120,81,153.43,137,-85.00,11.00,-1057.00
2024-06-07 14:38:02.455955,-6,2,64,0,-2,0,83,86,139,120,81,153.37,137,-96.00,20.00,-945.00
2024-06-07 14:38:02.556355,-6,2,64,0,-1,0,83,86,138,120,81,153.39,137,-72.00,16.00,-1047.00
2024-06-07 14:38:02.721965,-6,2,64,0,-1,0,83,86,136,120,81,153.40,137,-78.00,36.00,-1019.00
2024-06-07 14:38:02.759765,-5,1,64,0,0,0,83,86,136,120,81,153.31,137,-73.00,14.00,-970.00
2024-06-07 14:38:02.926744,-5,1,64,0,0,0,83,86,135,120,81,153.35,138,-71.00,-3.00,-953.00
2024-06-07 14:38:02.964751,-5,1,64,0,0,0,83,86,134,120,80,153.34,138,-72.00,13.00,-1016.00
2024-06-07 14:38:03.131500,-5,1,64,0,0,0,83,85,133,120,80,153.24,138,-82.00,15.00,-1031.00
2024-06-07 14:38:03.167817,-5,1,64,0,0,0,83,85,132,120,80,153.32,138,-87.00,-16.00,-993.00
2024-06-07 14:38:03.336766,-5,1,64,0,0,0,83,85,132,120,80,153.27,138,-112.00,-4.00,-996.00
2024-06-07 14:38:03.373779,-5,1,64,0,0,0,83,85,132,120,80,153.24,138,-100.00,-9.00,-990.00
2024-06-07 14:38:03.541115,-5,1,64,0,0,0,83,85,131,120,80,153.15,138,-96.00,1.00,-1003.00
2024-06-07 14:38:03.578855,-5,1,64,0,0,0,83,85,132,120,80,153.18,138,-105.00,3.00,-1019.00
2024-06-07 14:38:03.679395,-6,1,64,0,0,0,83,85,132,120,80,153.32,138,-118.00,-24.00,-1011.00
2024-06-07 14:38:03.848204,-6,1,64,0,0,0,83,85,132,120,80,153.30,138,-103.00,-15.00,-969.00
2024-06-07 14:38:03.912073,-6,2,64,0,0,0,83,85,133,120,80,153.16,139,-110.00,-2.00,-986.00
2024-06-07 14:38:03.985629,-6,2,64,0,0,0,83,85,134,120,80,153.16,139,-106.00,4.00,-967.00
2024-06-07 14:38:04.157308,-7,1,64,-1,0,0,84,85,134,120,80,153.43,139,-104.00,15.00,-962.00
2024-06-07 14:38:04.189162,-7,0,64,-1,0,0,84,85,136,120,80,153.33,139,-95.00,-6.00,-973.00
2024-06-07 14:38:04.291306,-6,0,64,0,0,0,84,85,135,120,80,153.22,139,-71.00,-29.00,-992.00
2024-06-07 14:38:04.395008,-5,1,64,0,0,0,84,85,135,120,80,153.26,139,-95.00,-4.00,-926.00
2024-06-07 14:38:04.495002,-5,1,64,0,0,0,84,85,136,120,80,153.34,139,-93.00,-15.00,-1024.00
2024-06-07 14:38:04.674161,-5,1,64,0,0,0,84,85,137,120,80,153.33,139,-85.00,-13.00,-989.00
2024-06-07 14:38:04.703563,-5,1,64,0,0,0,84,85,139,120,80,153.25,139,-90.00,-16.00,-927.00
2024-06-07 14:38:04.801064,-5,1,64,0,0,0,84,85,137,120,80,153.35,139,-112.00,0.00,-983.00
2024-06-07 14:38:04.975087,-5,1,64,0,0,0,84,85,138,120,80,153.14,140,-99.00,-6.00,-975.00
2024-06-07 14:38:05.004944,-5,1,64,0,0,0,84,85,137,120,80,153.23,140,-103.00,5.00,-1024.00
2024-06-07 14:38:05.106995,-5,0,64,0,0,0,84,85,139,120,80,153.17,140,-80.00,11.00,-963.00
2024-06-07 14:38:05.209031,-5,0,64,0,0,0,84,85,137,120,80,152.95,140,-105.00,0.00,-937.00
2024-06-07 14:38:05.311238,-5,0,64,0,0,0,84,85,136,120,80,153.26,140,-103.00,-7.00,-1074.00
2024-06-07 14:38:05.413857,-5,0,64,0,0,0,84,85,135,120,80,153.34,140,-89.00,-7.00,-971.00
2024-06-07 14:38:05.464052,-5,1,64,0,0,0,84,85,136,120,80,153.31,140,-106.00,-10.00,-984.00
2024-06-07 14:38:05.589128,-5,1,64,0,0,0,84,85,136,120,80,153.20,140,-101.00,-2.00,-951.00
2024-06-07 14:38:05.668156,-5,2,65,0,0,0,84,85,135,120,80,153.28,140,-70.00,-33.00,-974.00
2024-06-07 14:38:05.793917,-5,2,65,0,0,0,84,85,135,120,80,153.04,140,-83.00,-10.00,-1028.00
2024-06-07 14:38:05.871961,-5,1,65,0,0,0,84,85,134,120,80,153.19,141,-84.00,-8.00,-989.00
2024-06-07 14:38:05.998785,-4,0,65,0,0,0,84,85,134,120,80,153.26,141,-79.00,16.00,-1011.00
2024-06-07 14:38:06.077151,-4,0,65,0,0,0,83,85,134,120,80,153.34,141,-81.00,-4.00,-1009.00
2024-06-07 14:38:06.178279,-4,1,65,0,0,0,83,85,134,120,80,153.28,141,-75.00,20.00,-1024.00
2024-06-07 14:38:06.282021,-4,0,65,0,0,0,83,85,134,120,80,153.28,141,-76.00,-6.00,-981.00
2024-06-07 14:38:06.381912,-4,0,65,0,0,0,83,85,134,120,80,153.18,141,-61.00,-28.00,-988.00
2024-06-07 14:38:06.511178,-3,0,65,0,0,0,83,85,135,120,80,153.14,141,-83.00,-3.00,-1038.00
2024-06-07 14:38:06.586216,-3,0,64,0,0,0,83,85,134,120,80,153.21,141,-72.00,-27.00,-977.00
2024-06-07 14:38:06.715659,-3,0,64,0,0,0,83,85,135,120,80,153.28,141,-76.00,-15.00,-975.00
2024-06-07 14:38:06.791909,-4,1,64,0,0,0,83,85,135,120,80,153.21,141,-87.00,-15.00,-1005.00
2024-06-07 14:38:06.892517,-4,1,64,0,0,0,83,85,136,120,80,153.17,142,-73.00,-8.00,-1037.00
2024-06-07 14:38:07.025516,-4,1,64,0,0,0,83,85,136,120,80,153.27,142,-128.00,11.00,-1448.00
2024-06-07 14:38:07.098957,-1,3,64,0,0,-2,83,86,141,120,80,153.02,142,-159.00,-4.00,-1740.00
2024-06-07 14:38:07.197550,0,8,64,-2,0,-9,83,86,188,130,80,153.60,142,-139.00,79.00,-1731.00
2024-06-07 14:38:07.302537,0,79,63,-7,0,-12,83,86,6553,140,80,153.66,142,-51.00,758.00,-1045.00
2024-06-07 14:38:07.402416,0,-156,66,-12,2,0,83,86,418,150,80,153.27,142,-116.00,714.00,-1012.00
2024-06-07 14:38:07.534705,-3,-39,60,-6,0,11,83,86,144,140,80,153.38,142,-144.00,261.00,-952.00
2024-06-07 14:38:07.606150,1,4,52,-5,-2,10,83,86,134,130,80,153.43,142,-89.00,-50.00,-1503.00
2024-06-07 14:38:07.707835,-2,-2,44,-6,-2,6,83,86,127,120,80,153.35,142,-20.00,-42.00,-1323.00
2024-06-07 14:38:07.841901,-6,-2,40,-5,-3,2,83,86,124,120,80,153.25,142,-29.00,-44.00,-1181.00
2024-06-07 14:38:07.912314,-5,0,46,-4,-3,0,83,86,121,120,80,153.24,143,-44.00,-15.00,-1115.00
2024-06-07 14:38:08.013795,-5,0,57,-3,-2,0,83,86,120,120,80,153.25,143,-93.00,42.00,-1035.00
2024-06-07 14:38:08.116484,-4,-1,66,-3,-1,-1,83,86,121,120,80,153.06,143,-90.00,34.00,-1022.00
2024-06-07 14:38:08.218807,-4,-1,66,-3,-1,-1,83,86,121,120,80,153.22,143,-18.00,-36.00,-1034.00
2024-06-07 14:38:08.321456,-3,-1,65,-3,-1,-1,83,86,122,120,80,153.17,143,-55.00,5.00,-1009.00
2024-06-07 14:38:08.423100,-4,-2,65,-3,-1,-1,83,86,122,120,80,153.09,143,-79.00,-9.00,-984.00
2024-06-07 14:38:08.525366,-4,-2,65,-2,-1,-1,83,86,123,120,80,153.05,143,-73.00,-28.00,-937.00
2024-06-07 14:38:08.629250,-4,-2,65,-2,-1,-1,83,86,123,120,80,153.23,143,-43.00,-26.00,-992.00
2024-06-07 14:38:08.728497,-4,-1,65,-1,-1,0,83,86,125,120,80,153.20,143,-69.00,-31.00,-954.00
2024-06-07 14:38:08.865888,-4,0,65,-1,-1,0,83,86,124,120,80,153.26,144,-81.00,-25.00,-959.00
2024-06-07 14:38:08.931435,-5,0,65,-1,-2,0,83,86,125,120,80,153.34,144,-76.00,-41.00,-980.00
2024-06-07 14:38:09.072213,-6,0,65,-1,-2,0,83,86,124,120,79,153.30,144,-83.00,-26.00,-984.00
2024-06-07 14:38:09.135527,-7,0,65,-1,-2,0,84,86,126,120,79,153.03,144,-91.00,-1.00,-1045.00
2024-06-07 14:38:09.275437,-8,0,65,-1,-2,0,84,86,126,120,79,153.12,144,-112.00,-5.00,-999.00
2024-06-07 14:38:09.339730,-9,-1,65,-1,-2,0,84,86,128,120,79,153.08,144,-79.00,-32.00,-952.00
2024-06-07 14:38:09.480628,-8,0,65,0,-1,0,84,86,128,120,79,153.08,144,-50.00,-9.00,-1010.00
2024-06-07 14:38:09.543457,-7,0,65,0,0,0,84,86,129,120,79,153.12,144,-75.00,7.00,-960.00
2024-06-07 14:38:09.594644,-6,0,64,0,0,-1,84,86,128,130,79,153.17,144,-63.00,-11.00,-958.00
2024-06-07 14:38:09.788007,-5,0,64,0,0,-1,84,86,127,130,79,153.11,144,-62.00,-11.00,-933.00
2024-06-07 14:38:09.798642,-4,0,65,0,0,0,84,86,128,130,79,153.23,145,-64.00,-4.00,-926.00
2024-06-07 14:38:09.992261,-3,0,65,0,0,0,84,86,128,130,79,153.19,145,-83.00,3.00,-986.00
2024-06-07 14:38:10.002624,-2,0,65,0,0,0,84,86,128,130,79,152.92,145,-89.00,19.00,-1031.00
2024-06-07 14:38:10.197084,-2,0,65,0,0,0,84,85,126,130,79,153.09,145,-79.00,9.00,-877.00
2024-06-07 14:38:10.206614,-2,-2,65,0,0,0,84,85,127,120,79,153.07,145,-74.00,27.00,-1007.00
2024-06-07 14:38:10.308661,-2,-2,65,0,0,0,84,85,125,120,79,153.11,145,-60.00,0.00,-1029.00
2024-06-07 14:38:10.423727,-2,-1,65,0,0,0,84,85,125,120,79,153.08,145,-59.00,-6.00,-1124.00
2024-06-07 14:38:10.512762,-2,0,65,0,0,0,84,85,123,120,79,153.18,145,-92.00,10.00,-1021.00
2024-06-07 14:38:10.622879,-3,0,65,0,0,0,84,85,123,120,79,153.31,145,-45.00,13.00,-1003.00
2024-06-07 14:38:10.717906,-3,-1,65,0,0,0,84,85,125,120,79,153.20,145,-82.00,15.00,-1029.00
2024-06-07 14:38:10.819539,-3,-1,65,0,0,0,84,85,125,120,79,153.12,146,-61.00,3.00,-1004.00
2024-06-07 14:38:10.928015,-3,-1,65,0,0,0,84,85,126,120,79,153.23,146,-69.00,-21.00,-997.00
2024-06-07 14:38:11.022836,-4,0,65,0,0,-1,84,85,128,120,78,153.17,146,-58.00,-13.00,-1002.00
2024-06-07 14:38:11.221545,-4,0,65,0,0,0,84,86,129,120,78,153.17,146,-61.00,-2.00,-970.00
2024-06-07 14:38:11.228237,-4,0,65,0,0,0,84,86,129,120,78,153.15,146,-80.00,16.00,-1013.00
2024-06-07 14:38:11.328741,-4,0,65,0,0,0,84,86,130,130,78,153.22,146,-50.00,4.00,-984.00
2024-06-07 14:38:11.430728,-4,0,65,0,0,0,84,86,131,130,78,153.26,146,-61.00,5.00,-995.00
2024-06-07 14:38:11.568272,-4,0,65,0,0,0,84,86,130,130,78,153.20,146,-67.00,8.00,-980.00
2024-06-07 14:38:11.635004,-3,-1,65,0,0,0,84,86,130,130,78,153.20,146,-56.00,32.00,-1001.00
2024-06-07 14:38:11.837875,-3,-1,65,0,0,0,84,86,130,130,78,153.18,146,-90.00,37.00,-976.00
2024-06-07 14:38:11.840015,-4,-1,65,0,0,0,84,86,132,130,78,153.26,147,-52.00,13.00,-978.00
2024-06-07 14:38:11.940646,-3,-1,64,0,0,0,84,86,131,130,78,153.15,147,-67.00,25.00,-1038.00
2024-06-07 14:38:12.043279,-3,-2,65,0,0,0,84,86,131,130,78,153.15,147,-83.00,24.00,-1002.00
