TS,pitch,roll,yaw,vgx,vgy,vgz,templ,temph,tof,h,bat,baro,time,agx,agy,agz
2024-06-07 14:38:57.383524,0,0,62,0,0,0,86,90,10,0,76,152.36,166,10.00,3.00,-1000.00
2024-06-07 14:38:57.482212,0,0,62,0,0,0,86,90,10,0,76,152.33,166,9.00,5.00,-999.00
2024-06-07 14:38:57.607998,0,0,62,0,0,0,86,90,10,0,76,152.33,166,10.00,2.00,-1000.00
2024-06-07 14:38:57.686416,0,0,62,0,0,0,86,90,10,0,76,152.31,166,10.00,4.00,-1000.00
2024-06-07 14:38:57.812675,0,0,62,0,0,0,86,90,10,0,76,152.37,166,11.00,3.00,-998.00
2024-06-07 14:38:57.890852,0,0,62,0,0,0,86,90,10,0,76,152.36,166,12.00,4.00,-998.00
2024-06-07 14:38:58.017430,0,0,62,0,0,0,86,90,10,0,76,152.36,166,11.00,1.00,-1000.00
2024-06-07 14:38:58.096641,0,0,62,0,0,0,86,90,10,0,76,152.34,166,12.00,3.00,-1000.00
2024-06-07 14:38:58.196755,0,0,62,0,0,0,86,90,10,0,76,152.33,166,9.00,5.00,-999.00
2024-06-07 14:38:58.324589,0,0,62,0,0,0,86,90,10,0,76,152.33,166,11.00,3.00,-1001.00
2024-06-07 14:38:58.400127,0,0,62,0,0,0,87,89,10,0,76,152.33,166,11.00,3.00,-999.00
2024-06-07 14:38:58.530018,0,0,62,0,0,0,87,89,10,0,76,152.31,166,10.00,4.00,-999.00
2024-06-07 14:38:58.603943,0,0,62,0,0,0,87,89,10,0,76,152.34,166,10.00,3.00,-1001.00
2024-06-07 14:38:58.710193,0,0,62,0,0,0,87,89,10,0,76,152.35,166,12.00,3.00,-1000.00
2024-06-07 14:38:58.808065,0,0,62,0,0,0,87,89,10,0,76,152.35,166,11.00,3.00,-999.00
2024-06-07 14:38:58.939140,0,0,62,0,0,0,87,89,10,0,76,152.40,166,10.00,3.00,-998.00
2024-06-07 14:38:59.022866,0,0,62,0,0,0,87,89,10,0,76,152.36,166,11.00,3.00,-1000.00
2024-06-07 14:38:59.123259,0,0,62,0,0,0,87,89,10,0,76,152.38,166,10.00,4.00,-1001.00
2024-06-07 14:38:59.221098,0,0,62,0,0,0,87,89,10,0,76,152.35,166,11.00,4.00,-1000.00
2024-06-07 14:38:59.319357,0,0,62,0,0,0,87,89,10,0,76,152.36,166,11.00,3.00,-1000.00
2024-06-07 14:38:59.451461,0,0,62,0,0,0,87,89,10,0,76,152.38,166,12.00,3.00,-1002.00
2024-06-07 14:38:59.522447,0,0,62,0,0,0,87,89,10,0,76,152.40,166,11.00,4.00,-997.00
2024-06-07 14:38:59.623757,0,0,62,0,0,0,87,89,10,0,76,152.40,166,14.00,3.00,-1001.00
2024-06-07 14:38:59.762872,0,0,62,0,0,0,87,89,10,0,76,152.40,166,15.00,3.00,-999.00
2024-06-07 14:38:59.827737,0,0,62,0,0,0,87,89,10,0,76,152.40,166,9.00,-1.00,-999.00
2024-06-07 14:38:59.930116,0,0,62,0,0,0,87,89,10,0,76,152.40,166,23.00,-1.00,-1006.00
2024-06-07 14:39:00.032615,0,0,63,0,0,0,87,89,10,0,76,152.40,166,9.00,-10.00,-1016.00
2024-06-07 14:39:00.167747,0,0,63,0,0,0,87,89,10,0,76,152.40,166,-11.00,21.00,-1081.00
2024-06-07 14:39:00.240885,0,0,63,0,0,-2,87,89,10,0,76,152.40,166,-28.00,23.00,-1228.00
2024-06-07 14:39:00.337699,0,0,63,0,0,-5,87,89,10,0,76,152.40,167,-27.00,37.00,-1332.00
2024-06-07 14:39:00.474879,0,-2,63,-1,0,-7,87,89,12,10,76,152.49,167,-78.00,38.00,-1158.00
2024-06-07 14:39:00.541816,-2,-3,63,-1,0,-8,87,89,20,20,76,152.64,167,-66.00,19.00,-1083.00
2024-06-07 14:39:00.679656,-3,-2,63,0,0,-8,87,89,29,20,76,152.75,167,-44.00,24.00,-1011.00
2024-06-07 14:39:00.745799,-3,-1,63,0,0,-8,87,89,37,30,76,152.77,167,-53.00,29.00,-959.00
2024-06-07 14:39:00.796751,-3,-1,63,0,0,-7,87,89,43,40,76,152.93,167,-36.00,23.00,-873.00
2024-06-07 14:39:00.986926,-3,-1,63,-1,-1,-6,87,89,51,40,76,152.99,167,-64.00,34.00,-904.00
2024-06-07 14:39:01.000894,-5,-2,63,-1,-1,-4,87,89,57,50,76,153.01,167,-35.00,27.00,-921.00
2024-06-07 14:39:01.191736,-4,-2,63,0,0,-3,87,89,62,50,76,153.10,167,-32.00,33.00,-877.00
2024-06-07 14:39:01.204859,-4,-2,63,0,0,-3,87,89,66,60,76,153.18,167,-55.00,34.00,-935.00
2024-06-07 14:39:01.306831,-4,-2,63,0,0,-2,87,89,69,60,76,153.18,168,-61.00,24.00,-889.00
2024-06-07 14:39:01.498953,-4,-1,63,0,0,-1,87,89,72,60,76,153.21,168,-56.00,34.00,-948.00
2024-06-07 14:39:01.510913,-4,-1,63,0,0,0,87,89,73,60,76,153.27,168,-44.00,23.00,-932.00
2024-06-07 14:39:01.612700,-3,-1,63,0,0,0,87,89,75,60,76,153.23,168,-53.00,24.00,-973.00
2024-06-07 14:39:01.714700,-3,0,64,0,0,0,87,89,76,60,76,153.41,168,-49.00,22.00,-985.00
2024-06-07 14:39:01.816773,-2,0,63,0,0,0,87,89,77,70,76,153.33,168,-15.00,41.00,-984.00
2024-06-07 14:39:02.010845,-2,-1,63,0,0,0,87,89,78,70,76,153.19,168,-23.00,36.00,-993.00
2024-06-07 14:39:02.020673,-2,-2,63,0,0,0,87,89,79,70,76,153.20,168,-67.00,29.00,-1021.00
2024-06-07 14:39:02.215847,-3,-2,63,0,0,-1,87,89,81,70,76,153.23,168,-32.00,37.00,-993.00
2024-06-07 14:39:02.224664,-2,-2,63,0,0,-1,87,89,82,70,76,153.19,168,-53.00,27.00,-1027.00
2024-06-07 14:39:02.523793,-2,-2,63,0,0,0,87,89,83,70,76,153.25,169,-66.00,28.00,-990.00
2024-06-07 14:39:02.523878,-2,-1,63,0,0,0,87,89,83,70,76,153.26,169,-53.00,9.00,-931.00
2024-06-07 14:39:02.531920,-3,-1,63,0,0,0,87,89,83,70,76,153.24,169,-75.00,14.00,-990.00
2024-06-07 14:39:02.632609,-3,0,63,0,0,0,87,89,82,70,76,153.15,169,-103.00,-6.00,-974.00
2024-06-07 14:39:02.734692,-4,0,63,0,0,0,87,89,82,70,76,153.15,169,-87.00,26.00,-1013.00
2024-06-07 14:39:02.932434,-4,0,63,0,0,0,87,89,81,70,76,153.13,169,-66.00,44.00,-1081.00
2024-06-07 14:39:02.938577,-4,0,63,0,0,0,87,89,81,70,76,153.13,169,-64.00,36.00,-987.00
2024-06-07 14:39:03.041003,-3,-2,63,0,0,0,87,89,81,70,76,153.19,169,-86.00,20.00,-1030.00
2024-06-07 14:39:03.142619,-3,-2,63,0,0,0,87,89,81,70,76,153.20,169,-74.00,13.00,-946.00
2024-06-07 14:39:03.245042,-4,-1,63,0,0,0,87,89,80,70,76,153.13,169,-61.00,28.00,-959.00
2024-06-07 14:39:03.347673,-4,-1,63,0,0,0,87,89,82,70,76,153.15,170,-74.00,27.00,-985.00
2024-06-07 14:39:03.649371,-5,-1,63,0,0,0,88,89,82,70,76,153.13,170,-73.00,23.00,-913.00
2024-06-07 14:39:03.649547,-4,0,63,0,0,0,88,89,82,70,76,153.23,170,-63.00,29.00,-1026.00
2024-06-07 14:39:03.652695,-4,0,63,0,0,0,88,89,83,70,76,153.19,170,-78.00,22.00,-993.00
2024-06-07 14:39:03.854124,-4,-1,63,0,0,0,88,89,84,70,76,153.17,170,-47.00,35.00,-1066.00
2024-06-07 14:39:03.856725,-3,-2,63,0,0,0,88,89,85,70,76,153.17,170,-67.00,19.00,-983.00
2024-06-07 14:39:04.058939,-2,-2,63,0,0,0,88,89,85,70,76,153.13,170,-41.00,31.00,-1048.00
2024-06-07 14:39:04.060534,-3,-1,63,0,0,0,88,89,85,70,76,153.16,170,-68.00,21.00,-1001.00
2024-06-07 14:39:04.115354,-3,0,63,0,0,0,88,89,85,70,76,153.21,170,-80.00,-9.00,-890.00
2024-06-07 14:39:04.213681,-3,0,63,0,0,0,88,89,85,70,76,153.12,170,-70.00,0.00,-1029.00
2024-06-07 14:39:04.366712,-3,0,63,0,0,0,88,89,85,70,76,153.17,171,-75.00,12.00,-1001.00
2024-06-07 14:39:04.468811,-3,0,63,0,0,0,87,89,85,70,76,153.13,171,-31.00,13.00,-1008.00
2024-06-07 14:39:04.574283,-3,0,63,0,0,0,87,89,85,70,76,153.14,171,-50.00,15.00,-974.00
2024-06-07 14:39:04.672918,-2,0,63,0,0,0,87,89,84,70,76,153.11,171,-52.00,11.00,-989.00
2024-06-07 14:39:04.775566,-2,0,63,0,0,0,87,89,84,70,76,153.21,171,-50.00,24.00,-994.00
2024-06-07 14:39:04.825478,-2,0,63,0,0,0,87,89,84,70,76,153.19,171,-59.00,41.00,-992.00
2024-06-07 14:39:04.992434,-2,-1,63,0,0,0,87,89,83,70,76,153.16,171,-43.00,25.00,-1015.00
2024-06-07 14:39:05.029480,-3,-2,63,0,0,0,87,89,83,70,76,153.12,171,-43.00,10.00,-954.00
2024-06-07 14:39:05.131452,-2,-1,63,0,0,0,87,89,83,70,76,153.07,171,-82.00,41.00,-1037.00
2024-06-07 14:39:05.287606,-3,-1,63,0,0,0,87,89,83,70,76,153.10,171,-89.00,12.00,-956.00
2024-06-07 14:39:05.335433,-4,-1,63,0,0,0,87,89,83,70,76,153.09,172,-78.00,21.00,-1014.00
2024-06-07 14:39:05.493446,-4,-2,63,0,0,0,87,89,83,70,76,153.13,172,-99.00,33.00,-1004.00
2024-06-07 14:39:05.540170,-4,-1,63,0,0,0,87,89,82,70,76,153.11,172,-92.00,23.00,-1013.00
2024-06-07 14:39:05.697208,-5,-1,63,0,0,0,87,89,82,70,76,153.07,172,-77.00,21.00,-967.00
2024-06-07 14:39:05.743973,-5,-1,63,0,0,0,87,89,82,70,76,153.07,172,-73.00,33.00,-1052.00
2024-06-07 14:39:05.902658,-5,-1,63,0,0,0,87,89,81,70,76,153.09,172,-67.00,22.00,-972.00
2024-06-07 14:39:05.948931,-5,-1,63,0,0,0,87,89,81,70,76,153.12,172,-72.00,17.00,-996.00
2024-06-07 14:39:06.106843,-4,-1,63,0,0,0,87,89,81,70,76,153.07,172,-46.00,15.00,-1015.00
2024-06-07 14:39:06.151800,-4,-1,63,0,0,0,87,89,81,70,76,153.07,172,-61.00,24.00,-989.00
2024-06-07 14:39:06.254252,-3,-1,63,0,0,0,87,89,81,70,76,153.07,172,-44.00,24.00,-1002.00
2024-06-07 14:39:06.414479,-3,-1,63,0,0,0,87,89,80,70,76,153.11,173,-84.00,20.00,-979.00
2024-06-07 14:39:06.457559,-3,-1,63,0,0,0,87,89,80,70,76,153.07,173,-60.00,13.00,-993.00
2024-06-07 14:39:06.559444,-3,0,63,0,0,0,87,89,80,70,76,153.04,173,-78.00,13.00,-977.00
2024-06-07 14:39:06.721196,-4,-1,63,0,0,0,87,89,80,70,76,153.05,173,-76.00,1.00,-1009.00
2024-06-07 14:39:06.763453,-4,-1,63,0,0,0,87,89,80,70,76,153.08,173,-54.00,11.00,-947.00
2024-06-07 14:39:06.865384,-2,-1,63,0,0,0,87,89,80,70,76,153.08,173,-71.00,13.00,-1017.00
2024-06-07 14:39:07.028425,-3,-1,63,0,0,0,87,89,80,70,76,153.00,173,-54.00,11.00,-1046.00
2024-06-07 14:39:07.069499,-3,0,63,0,0,0,87,89,80,70,76,153.06,173,-70.00,-11.00,-997.00
2024-06-07 14:39:07.233172,-3,0,63,0,0,0,87,89,80,70,76,153.08,173,-53.00,8.00,-1017.00
2024-06-07 14:39:07.273437,-2,0,63,0,0,0,87,89,81,70,76,153.10,173,-70.00,24.00,-979.00
2024-06-07 14:39:07.375429,-2,0,63,0,0,0,87,89,82,70,76,153.17,174,-61.00,3.00,-949.00
2024-06-07 14:39:07.540538,-2,0,63,0,0,0,86,88,82,70,76,153.20,174,-52.00,3.00,-959.00
2024-06-07 14:39:07.579577,-1,0,63,0,0,0,86,88,81,70,76,153.18,174,-36.00,-6.00,-988.00
2024-06-07 14:39:07.745847,-1,0,63,0,0,0,86,88,82,70,76,153.08,174,-49.00,-10.00,-923.00
2024-06-07 14:39:07.784082,-1,0,63,0,0,0,86,88,81,70,76,153.05,174,-64.00,6.00,-1002.00
2024-06-07 14:39:07.950822,-1,0,63,0,0,0,86,88,81,70,76,153.12,174,-40.00,-2.00,-947.00
2024-06-07 14:39:07.988430,-1,0,63,0,0,0,86,88,81,70,76,153.01,174,-65.00,11.00,-1030.00
2024-06-07 14:39:08.089480,-2,0,63,0,0,0,86,88,81,70,76,153.08,174,-67.00,13.00,-1043.00
2024-06-07 14:39:08.191524,-2,0,63,0,0,0,86,88,82,70,76,153.11,174,-57.00,9.00,-924.00
2024-06-07 14:39:08.359806,-2,0,63,0,0,0,86,88,81,70,76,153.09,174,-39.00,18.00,-955.00
2024-06-07 14:39:08.396219,-2,0,63,0,0,0,86,88,81,70,76,153.12,175,-59.00,21.00,-986.00
2024-06-07 14:39:08.497881,-2,-1,63,0,0,0,87,89,81,70,76,153.17,175,-34.00,33.00,-987.00
2024-06-07 14:39:08.555932,-2,-1,63,0,0,0,87,89,82,70,76,153.17,175,-67.00,26.00,-1040.00
2024-06-07 14:39:08.657854,-2,-1,63,0,0,0,87,89,82,70,76,153.22,175,-34.00,15.00,-986.00
2024-06-07 14:39:08.752601,-2,-1,63,0,0,0,87,89,82,70,76,153.20,175,-60.00,16.00,-975.00
2024-06-07 14:39:08.871799,-2,-1,63,0,0,0,87,89,83,70,76,153.23,175,-53.00,19.00,-971.00
2024-06-07 14:39:08.956533,-2,-1,63,0,0,0,87,89,83,70,76,153.28,175,-40.00,18.00,-956.00
2024-06-07 14:39:09.058881,-2,-1,63,0,0,0,87,89,83,70,76,153.24,175,-50.00,19.00,-909.00
2024-06-07 14:39:09.178939,-2,-1,63,0,0,0,87,89,83,70,76,153.22,175,-36.00,28.00,-1050.00
2024-06-07 14:39:09.262700,-1,-1,63,0,0,0,87,89,83,70,76,153.17,175,-33.00,24.00,-1014.00
2024-06-07 14:39:09.368981,-1,-1,63,0,0,0,87,89,83,70,76,153.37,176,-25.00,27.00,-1036.00
2024-06-07 14:39:09.468926,-1,-1,63,0,0,0,87,89,83,70,76,153.25,176,-25.00,20.00,-1014.00
2024-06-07 14:39:09.569264,-1,-1,63,0,0,0,87,89,84,70,76,153.28,176,-40.00,35.00,-1193.00
2024-06-07 14:39:09.671405,-1,-1,63,0,0,-1,87,89,86,70,76,153.24,176,-62.00,26.00,-1190.00
2024-06-07 14:39:09.793399,-1,-1,63,0,0,-2,87,89,89,70,76,153.26,176,-68.00,18.00,-1076.00
2024-06-07 14:39:09.875388,-2,-1,63,0,0,-3,87,89,93,80,76,153.26,176,-38.00,6.00,-1001.00
2024-06-07 14:39:09.998039,-1,-1,63,0,0,-4,87,89,97,80,76,153.35,176,-39.00,16.00,-1062.00
2024-06-07 14:39:10.081112,-1,-1,63,0,0,-4,87,89,101,90,76,153.39,176,-33.00,24.00,-1037.00
2024-06-07 14:39:10.181522,-1,-1,63,0,0,-5,87,89,107,90,76,153.48,176,-57.00,20.00,-983.00
2024-06-07 14:39:10.283852,-1,0,63,0,0,-5,87,89,113,100,76,153.56,176,-33.00,37.00,-1046.00
2024-06-07 14:39:10.407665,-1,-1,63,0,0,-5,87,89,118,100,76,153.61,177,-26.00,33.00,-972.00
2024-06-07 14:39:10.487401,-1,-2,63,0,0,-5,87,89,127,110,76,153.63,177,-29.00,38.00,-1002.00
2024-06-07 14:39:10.589201,-1,-2,63,0,0,-5,87,89,132,110,76,153.82,177,-36.00,34.00,-959.00
2024-06-07 14:39:10.714747,0,-2,63,0,0,-5,87,89,137,120,76,153.85,177,-39.00,56.00,-994.00
2024-06-07 14:39:10.793451,-1,-2,63,0,0,-4,87,89,142,130,76,153.85,177,-21.00,48.00,-987.00
2024-06-07 14:39:10.921263,-1,-3,63,0,0,-4,87,89,148,130,76,153.85,177,-38.00,36.00,-950.00
2024-06-07 14:39:10.997272,-1,-3,63,0,0,-4,87,89,150,140,76,153.94,177,-42.00,35.00,-935.00
2024-06-07 14:39:11.125253,-1,-2,63,0,0,-3,87,89,156,140,76,153.93,177,-19.00,37.00,-985.00
2024-06-07 14:39:11.201158,-2,-2,63,0,0,-3,87,89,160,140,76,154.02,177,-54.00,35.00,-927.00
2024-06-07 14:39:11.305753,-1,-2,63,0,0,-3,87,89,162,150,76,153.96,177,-52.00,48.00,-1047.00
2024-06-07 14:39:11.406272,-2,-2,63,0,0,-3,87,89,167,150,76,153.94,178,-30.00,24.00,-962.00
2024-06-07 14:39:11.508291,-1,-2,63,0,0,-2,86,88,168,150,76,154.03,178,-41.00,22.00,-933.00
2024-06-07 14:39:11.610187,-1,-1,63,0,0,-2,86,88,172,160,76,154.09,178,-34.00,24.00,-966.00
2024-06-07 14:39:11.741140,-1,-1,63,0,0,-2,86,88,173,160,76,154.06,178,-27.00,33.00,-963.00
2024-06-07 14:39:11.814420,-1,-2,63,0,0,-2,86,88,175,160,76,154.12,178,-12.00,39.00,-1039.00
2024-06-07 14:39:11.864266,-1,-2,63,0,0,-1,86,88,177,160,76,154.12,178,-50.00,39.00,-990.00
2024-06-07 14:39:12.045944,-1,-2,63,0,0,-1,86,88,178,160,76,154.12,178,-49.00,44.00,-1003.00
2024-06-07 14:39:12.068360,-1,-2,63,0,0,-1,86,88,181,170,76,154.11,178,-38.00,34.00,-927.00
2024-06-07 14:39:12.250895,-1,-2,63,0,0,0,86,88,180,170,76,154.21,178,-28.00,36.00,-956.00
2024-06-07 14:39:12.272273,-1,-2,63,0,0,0,86,88,181,170,76,154.21,178,-26.00,58.00,-961.00
2024-06-07 14:39:12.461317,0,-2,63,0,0,0,86,88,180,170,76,154.21,179,-22.00,58.00,-998.00
2024-06-07 14:39:12.476174,0,-2,63,0,0,0,86,89,182,170,76,154.30,179,-21.00,54.00,-955.00
2024-06-07 14:39:12.660707,0,-3,63,0,0,0,86,89,180,170,76,154.32,179,-10.00,42.00,-994.00
2024-06-07 14:39:12.681605,0,-3,63,0,0,0,86,89,181,170,76,154.27,179,-30.00,57.00,-1079.00
2024-06-07 14:39:12.782325,0,-3,63,0,0,0,86,89,183,170,76,154.28,179,-54.00,49.00,-1016.00
2024-06-07 14:39:12.967748,-1,-3,63,0,0,0,86,89,184,170,76,154.29,179,-56.00,52.00,-1002.00
2024-06-07 14:39:12.986783,-1,-3,63,0,0,0,86,89,183,170,76,154.31,179,-33.00,49.00,-988.00
2024-06-07 14:39:13.172437,-1,-3,63,0,0,0,86,89,184,170,76,154.19,179,-44.00,41.00,-1025.00
2024-06-07 14:39:13.190099,-1,-3,63,0,0,0,86,89,185,170,76,154.16,179,-70.00,41.00,-947.00
2024-06-07 14:39:13.293823,-1,-2,63,0,0,0,86,89,182,170,76,154.30,179,-38.00,33.00,-947.00
2024-06-07 14:39:13.398782,-1,-2,63,0,0,0,86,89,184,170,76,154.17,180,-25.00,31.00,-1014.00
2024-06-07 14:39:13.496237,-2,-2,63,0,0,0,86,88,183,170,76,154.27,180,-55.00,55.00,-1009.00
2024-06-07 14:39:13.598216,-2,-2,63,0,0,0,86,88,181,170,76,154.25,180,-36.00,45.00,-982.00
2024-06-07 14:39:13.786768,-2,-2,63,0,0,0,86,88,181,170,76,154.22,180,-38.00,42.00,-984.00
2024-06-07 14:39:13.802352,-1,-2,63,0,0,0,86,88,179,170,76,154.20,180,-30.00,45.00,-1020.00
2024-06-07 14:39:13.993278,-1,-2,63,0,0,0,86,88,178,170,76,154.19,180,-26.00,30.00,-1010.00
2024-06-07 14:39:14.006201,-1,-2,63,0,0,0,86,88,177,170,76,154.16,180,-50.00,28.00,-1023.00
2024-06-07 14:39:14.108142,-1,-2,63,0,0,0,86,88,177,170,76,154.21,180,-52.00,26.00,-1077.00
2024-06-07 14:39:14.302877,-2,-1,63,0,0,0,86,88,177,170,76,154.08,180,-43.00,24.00,-1019.00
2024-06-07 14:39:14.312021,-2,-1,63,0,0,0,86,88,177,170,76,154.09,180,-34.00,11.00,-929.00
2024-06-07 14:39:14.503515,-2,-1,63,0,0,0,86,88,176,170,76,154.18,181,-61.00,5.00,-970.00
2024-06-07 14:39:14.517012,-2,0,63,0,0,1,86,89,175,160,76,154.01,181,-55.00,3.00,-923.00
2024-06-07 14:39:14.618577,-2,0,63,0,0,1,86,89,172,160,76,154.00,181,-67.00,8.00,-990.00
2024-06-07 14:39:14.810718,-1,0,63,0,0,2,86,89,170,160,76,154.05,181,-38.00,2.00,-963.00
2024-06-07 14:39:14.821957,-1,0,63,0,0,2,86,89,169,160,76,154.06,181,-28.00,19.00,-1050.00
2024-06-07 14:39:14.924169,-1,0,63,0,0,2,86,89,165,160,76,154.04,181,-29.00,24.00,-973.00
2024-06-07 14:39:15.025959,-1,0,63,0,0,2,86,89,163,150,76,154.04,181,-46.00,42.00,-966.00
2024-06-07 14:39:15.131656,-1,-1,63,0,0,2,86,89,160,150,76,154.06,181,-40.00,43.00,-1031.00
2024-06-07 14:39:15.229958,-1,-1,63,0,0,3,86,89,155,150,76,153.91,181,-44.00,28.00,-998.00
2024-06-07 14:39:15.332457,-2,-1,63,0,0,2,86,89,154,140,76,153.92,182,-38.00,20.00,-1005.00
2024-06-07 14:39:15.527500,-1,-1,63,0,0,2,86,89,149,140,76,154.02,182,-46.00,17.00,-1023.00
2024-06-07 14:39:15.546373,-1,-1,63,0,0,2,86,88,146,140,76,153.94,182,-45.00,18.00,-995.00
2024-06-07 14:39:15.638053,-1,-1,63,0,0,2,86,88,144,130,76,153.88,182,-28.00,22.00,-1035.00
2024-06-07 14:39:15.838385,-1,-1,63,0,0,2,86,88,141,130,76,153.85,182,-30.00,20.00,-1094.00
2024-06-07 14:39:15.838452,-1,-1,63,0,0,1,86,88,140,130,76,153.91,182,-45.00,19.00,-993.00
2024-06-07 14:39:15.895720,-1,-1,63,0,0,1,86,88,139,130,76,153.88,182,-29.00,17.00,-1020.00
2024-06-07 14:39:15.994934,-1,-1,63,0,0,1,86,88,138,130,76,153.83,182,-51.00,27.00,-1047.00
2024-06-07 14:39:16.141929,-1,-1,63,0,0,1,86,88,137,130,76,153.83,182,-23.00,17.00,-995.00
2024-06-07 14:39:16.207523,-1,-1,63,0,0,0,86,88,135,130,76,153.74,182,-19.00,12.00,-1005.00
2024-06-07 14:39:16.300931,-1,-1,63,0,0,0,86,88,134,120,76,153.82,183,-39.00,16.00,-1038.00
2024-06-07 14:39:16.403031,-1,0,63,0,0,0,86,88,133,120,76,153.85,183,-43.00,21.00,-1047.00
2024-06-07 14:39:16.557580,-1,-1,63,0,0,0,86,88,133,120,76,153.85,183,-46.00,14.00,-964.00
2024-06-07 14:39:16.607465,-1,-1,63,0,0,0,86,88,133,120,76,153.74,183,-32.00,23.00,-1051.00
2024-06-07 14:39:16.711629,-1,-1,63,0,0,0,86,88,131,120,76,153.75,183,-22.00,20.00,-1026.00
2024-06-07 14:39:16.810968,-1,-1,63,0,0,0,86,88,130,120,76,153.75,183,-51.00,13.00,-985.00
2024-06-07 14:39:16.961261,-1,-1,63,0,0,0,86,88,129,120,76,153.77,183,-11.00,11.00,-986.00
2024-06-07 14:39:17.015035,-1,0,63,0,0,0,86,88,130,120,76,153.83,183,-24.00,14.00,-993.00
2024-06-07 14:39:17.166003,0,0,63,0,0,0,86,88,129,120,76,153.77,183,-32.00,19.00,-985.00
2024-06-07 14:39:17.223342,-1,-1,63,0,0,0,86,88,129,120,76,153.76,183,-26.00,30.00,-1049.00
2024-06-07 14:39:17.320995,0,-1,63,0,0,0,86,88,128,120,76,153.69,184,-14.00,21.00,-978.00
2024-06-07 14:39:17.473579,0,-1,63,0,0,0,86,88,127,120,76,153.82,184,-9.00,24.00,-989.00
2024-06-07 14:39:17.524955,0,-1,63,0,0,0,86,88,129,120,76,153.77,184,-11.00,14.00,-1012.00
2024-06-07 14:39:17.626933,0,0,63,0,0,0,86,88,127,120,76,153.76,184,-9.00,35.00,-993.00
2024-06-07 14:39:17.841376,0,-1,63,0,0,0,86,88,127,120,76,153.80,184,-28.00,39.00,-1022.00
2024-06-07 14:39:17.841578,0,-2,63,0,0,0,86,88,128,120,76,153.86,184,0.00,35.00,-993.00
2024-06-07 14:39:17.932962,0,-2,63,0,0,0,86,88,127,120,76,153.75,184,6.00,43.00,-1011.00
2024-06-07 14:39:18.035094,0,-3,63,0,0,0,86,88,128,120,76,153.76,184,-21.00,25.00,-915.00
2024-06-07 14:39:18.198808,0,-3,63,0,0,0,86,88,127,120,76,153.80,184,-54.00,34.00,-995.00
2024-06-07 14:39:18.238926,0,-2,63,0,0,0,86,88,128,120,76,153.79,184,-33.00,26.00,-945.00
2024-06-07 14:39:18.394910,0,-2,63,0,0,0,86,88,128,120,76,153.77,185,-36.00,42.00,-1060.00
2024-06-07 14:39:18.443011,0,-2,63,0,0,0,86,88,128,120,76,153.81,185,-19.00,38.00,-1001.00
2024-06-07 14:39:18.545329,-1,-2,63,0,0,0,85,87,129,120,76,153.78,185,-37.00,34.00,-1023.00
2024-06-07 14:39:18.647163,-1,-2,63,0,0,0,85,87,130,120,76,153.83,185,-23.00,26.00,-992.00
2024-06-07 14:39:18.749371,-1,-1,63,0,0,0,85,87,130,120,76,153.83,185,-9.00,19.00,-990.00
2024-06-07 14:39:18.907521,-1,-1,63,0,0,0,85,87,130,120,76,153.84,185,-15.00,25.00,-984.00
2024-06-07 14:39:18.952950,-7,-1,63,0,0,0,85,87,132,120,76,153.78,185,-26.00,37.00,-1078.00
2024-06-07 14:39:19.055298,-8,0,63,0,1,0,85,87,132,120,76,153.77,185,-15.00,17.00,-936.00
2024-06-07 14:39:19.214429,-8,-1,63,0,2,0,85,87,133,120,76,153.81,185,-43.00,43.00,-1019.00
2024-06-07 14:39:19.259528,-8,-1,63,1,3,0,85,87,133,120,76,153.91,185,-27.00,28.00,-975.00
2024-06-07 14:39:19.309925,-8,-2,63,1,4,0,85,87,132,120,76,153.76,186,-22.00,34.00,-1018.00
2024-06-07 14:39:19.418762,-8,-2,63,2,5,0,85,87,132,120,76,153.74,186,-62.00,25.00,-1002.00
2024-06-07 14:39:19.513877,-8,-3,63,2,6,0,86,87,131,120,76,153.65,186,-25.00,30.00,-935.00
2024-06-07 14:39:19.615870,-7,-2,63,3,6,0,86,87,130,120,76,153.71,186,-59.00,30.00,-1018.00
2024-06-07 14:39:19.725971,-5,-2,63,3,6,0,86,87,130,120,76,153.65,186,-89.00,20.00,-1027.00
2024-06-07 14:39:19.820984,-2,-1,63,3,7,0,86,87,128,120,76,153.58,186,-70.00,33.00,-997.00
2024-06-07 14:39:19.930671,0,-1,63,3,6,0,86,87,128,120,76,153.58,186,-63.00,26.00,-985.00
2024-06-07 14:39:20.027507,2,-2,63,2,6,0,86,87,127,120,75,153.69,186,-89.00,37.00,-967.00
2024-06-07 14:39:20.126443,3,-2,63,2,5,0,86,87,126,120,75,153.57,186,-85.00,42.00,-1033.00
2024-06-07 14:39:20.238038,1,-2,63,2,4,0,86,87,125,120,75,153.71,186,-65.00,49.00,-985.00
2024-06-07 14:39:20.329828,1,-2,63,1,3,0,86,87,123,120,75,153.72,187,-45.00,48.00,-1064.00
2024-06-07 14:39:20.432371,0,-2,63,1,3,0,86,87,124,120,75,153.71,187,-47.00,41.00,-1034.00
2024-06-07 14:39:20.533831,0,-2,63,1,2,0,85,88,123,120,75,153.60,187,-24.00,28.00,-1015.00
2024-06-07 14:39:20.636128,0,-2,63,1,2,0,85,88,123,120,75,153.66,187,-55.00,29.00,-926.00
2024-06-07 14:39:20.749969,-1,-3,63,1,2,0,85,88,123,120,75,153.67,187,-49.00,30.00,-1053.00
2024-06-07 14:39:20.839789,0,-3,63,1,2,0,85,88,123,120,75,153.72,187,-31.00,4.00,-999.00
2024-06-07 14:39:20.941792,3,0,63,1,1,0,85,88,124,120,75,153.80,187,-65.00,35.00,-1026.00
2024-06-07 14:39:21.044145,2,0,63,1,0,0,85,88,124,120,75,153.73,187,-38.00,15.00,-1035.00
2024-06-07 14:39:21.149068,0,0,63,0,0,0,85,88,125,120,75,153.77,187,-2.00,15.00,-972.00
2024-06-07 14:39:21.248259,0,0,63,0,0,0,85,88,126,120,75,153.81,187,5.00,34.00,-1054.00
2024-06-07 14:39:21.364357,0,-1,63,0,0,0,85,88,126,120,75,153.86,188,9.00,19.00,-977.00
2024-06-07 14:39:21.451963,0,-1,63,0,0,0,85,88,127,120,75,153.80,188,13.00,31.00,-960.00
2024-06-07 14:39:21.569289,0,-2,63,0,0,0,85,88,129,120,75,153.81,188,-3.00,42.00,-979.00
2024-06-07 14:39:21.655838,0,-3,63,0,0,0,85,88,128,120,75,153.83,188,-8.00,46.00,-969.00
2024-06-07 14:39:21.774577,0,-3,63,0,0,0,85,88,130,120,75,153.86,188,-11.00,41.00,-1018.00
2024-06-07 14:39:21.859827,0,-3,63,0,0,0,85,88,130,120,75,153.92,188,-54.00,53.00,-966.00
2024-06-07 14:39:21.961867,0,-3,63,0,0,0,85,88,131,120,75,153.84,188,-17.00,32.00,-975.00
2024-06-07 14:39:22.084389,-1,-3,63,0,0,0,85,88,133,120,75,153.91,188,-20.00,39.00,-1000.00
2024-06-07 14:39:22.165846,-1,-3,63,0,0,0,85,88,133,120,75,153.89,188,-36.00,50.00,-1006.00
2024-06-07 14:39:22.268616,-1,-2,63,0,0,0,85,88,134,120,75,153.89,188,-30.00,47.00,-974.00
2024-06-07 14:39:22.369930,-1,-3,63,0,0,0,85,88,134,120,75,153.81,189,-6.00,50.00,-1013.00
2024-06-07 14:39:22.473885,-1,-3,63,0,0,0,85,88,135,120,75,153.79,189,-4.00,31.00,-951.00
2024-06-07 14:39:22.577708,0,-3,63,0,0,0,85,88,134,120,75,153.89,189,-12.00,36.00,-1001.00
2024-06-07 14:39:22.675775,0,-3,63,0,0,0,85,88,134,120,75,153.90,189,-46.00,41.00,-993.00
2024-06-07 14:39:22.798732,-1,-2,63,0,0,0,85,88,133,120,75,153.91,189,-34.00,39.00,-981.00
2024-06-07 14:39:22.880238,-1,-2,63,0,0,0,85,88,132,120,75,153.97,189,-41.00,45.00,-988.00
2024-06-07 14:39:22.983559,-1,-2,63,0,0,0,85,88,132,120,74,153.85,189,-13.00,48.00,-987.00
2024-06-07 14:39:23.083731,-1,-2,63,0,0,0,85,88,131,120,74,153.76,189,-16.00,61.00,-1036.00
2024-06-07 14:39:23.188321,-1,-3,63,0,0,0,85,88,131,120,74,153.85,189,-31.00,36.00,-991.00
2024-06-07 14:39:23.237060,0,-2,63,0,0,0,85,88,130,120,74,153.84,189,-48.00,49.00,-1000.00
2024-06-07 14:39:23.342323,6,-1,63,0,0,0,85,88,130,120,74,153.83,190,-31.00,50.00,-1043.00
2024-06-07 14:39:23.440680,7,-2,63,-1,-1,0,85,88,131,120,74,153.87,190,-19.00,59.00,-1079.00
2024-06-07 14:39:23.619921,7,-2,63,-1,-3,0,86,88,133,120,74,153.89,190,23.00,44.00,-1022.00
2024-06-07 14:39:23.695788,7,-2,63,-2,-4,0,86,88,132,120,74,153.88,190,-2.00,43.00,-977.00
2024-06-07 14:39:23.746715,6,-3,63,-2,-5,0,86,88,133,120,74,153.89,190,16.00,44.00,-1001.00
2024-06-07 14:39:23.925500,5,-3,63,-3,-6,0,86,88,133,120,74,153.90,190,21.00,48.00,-1009.00
2024-06-07 14:39:23.951944,4,-3,63,-3,-6,0,86,88,133,120,74,153.89,190,23.00,30.00,-973.00
2024-06-07 14:39:24.130615,3,-3,63,-3,-7,0,86,88,133,120,74,153.96,190,15.00,37.00,-982.00
2024-06-07 14:39:24.154650,0,-3,63,-3,-7,0,86,88,134,120,74,153.93,190,17.00,25.00,-999.00
2024-06-07 14:39:24.333800,-2,-2,63,-3,-7,0,86,88,133,120,74,153.93,190,-13.00,33.00,-958.00
2024-06-07 14:39:24.358578,-5,-1,63,-2,-6,0,86,88,134,120,74,153.98,191,-15.00,38.00,-985.00
2024-06-07 14:39:24.538766,-6,-1,63,-2,-5,0,86,88,134,120,74,153.92,191,10.00,46.00,-1017.00
2024-06-07 14:39:24.562654,-5,-1,63,-2,-4,0,85,88,133,120,74,153.99,191,-12.00,41.00,-993.00
2024-06-07 14:39:24.664897,-3,-2,63,-1,-3,0,85,88,132,120,74,153.96,191,-12.00,56.00,-999.00
2024-06-07 14:39:24.846252,-2,-2,63,-1,-3,0,85,88,131,120,74,153.90,191,11.00,42.00,-1029.00
2024-06-07 14:39:24.868654,-2,-3,63,-1,-2,0,85,88,132,120,74,153.89,191,0.00,49.00,-1022.00
2024-06-07 14:39:24.975292,-1,-3,63,-1,-2,0,85,88,130,120,74,153.80,191,-6.00,45.00,-1001.00
2024-06-07 14:39:25.072574,-1,-5,63,-1,-2,0,85,88,131,120,74,153.83,191,-5.00,47.00,-1023.00
2024-06-07 14:39:25.255544,-1,-4,63,0,-2,0,85,88,131,120,74,153.93,191,-21.00,68.00,-1049.00
2024-06-07 14:39:25.281606,-1,-4,63,0,-2,0,85,88,131,120,74,153.81,191,-37.00,58.00,-1018.00
2024-06-07 14:39:25.378569,-5,-1,63,0,-2,0,85,88,132,120,74,153.80,192,1.00,69.00,-953.00
2024-06-07 14:39:25.562734,-5,-1,63,0,-1,0,85,88,131,120,74,153.87,192,-25.00,55.00,-1021.00
2024-06-07 14:39:25.582618,-3,-1,63,0,0,0,86,88,131,120,74,153.82,192,-14.00,51.00,-999.00
2024-06-07 14:39:25.684882,-2,-2,63,0,0,0,86,88,130,120,74,153.91,192,-38.00,51.00,-965.00
2024-06-07 14:39:25.786659,-1,-3,63,0,0,0,86,88,129,120,74,153.87,192,-23.00,54.00,-1014.00
2024-06-07 14:39:25.972802,-1,-3,63,0,0,0,86,88,129,120,74,153.99,192,-25.00,38.00,-1020.00
2024-06-07 14:39:25.990513,-1,-3,63,0,0,0,86,88,128,120,74,153.90,192,-41.00,32.00,-977.00
2024-06-07 14:39:26.177593,-1,-2,63,0,0,0,86,88,130,120,74,153.91,192,-24.00,31.00,-999.00
2024-06-07 14:39:26.194957,-1,-2,63,0,0,0,86,88,128,120,74,153.84,192,-41.00,37.00,-1001.00
2024-06-07 14:39:26.382013,-1,-1,63,0,0,0,86,88,128,120,74,153.75,192,-27.00,23.00,-979.00
2024-06-07 14:39:26.399057,-1,-1,63,0,0,0,86,88,130,120,74,153.78,193,-51.00,36.00,-1027.00
2024-06-07 14:39:26.586784,-1,-1,63,0,0,0,86,88,129,120,74,153.83,193,-38.00,36.00,-985.00
2024-06-07 14:39:26.602641,-2,-1,63,0,0,0,85,87,131,120,74,153.72,193,-61.00,29.00,-1007.00
2024-06-07 14:39:26.792781,-2,0,63,0,0,0,85,87,131,120,74,153.81,193,-41.00,18.00,-974.00
2024-06-07 14:39:26.806980,-2,-1,63,0,0,0,85,87,131,120,74,153.89,193,-34.00,35.00,-1014.00
2024-06-07 14:39:26.997892,-2,-1,63,0,0,0,85,87,132,120,74,153.84,193,-41.00,41.00,-1030.00
2024-06-07 14:39:27.010481,-2,-1,63,0,0,0,85,87,132,120,74,153.93,193,-43.00,34.00,-1001.00
2024-06-07 14:39:27.201271,-2,-1,63,0,0,0,85,87,132,120,74,153.90,193,-66.00,31.00,-1009.00
2024-06-07 14:39:27.214570,-3,-1,63,0,0,0,85,87,133,120,74,153.84,193,-46.00,39.00,-974.00
2024-06-07 14:39:27.265772,-3,-2,63,0,0,0,85,87,132,120,74,153.93,193,-48.00,56.00,-1000.00
2024-06-07 14:39:27.370404,-3,-3,63,0,0,0,85,87,133,120,74,153.93,194,-73.00,60.00,-997.00
2024-06-07 14:39:27.470350,-3,-3,63,0,0,0,85,87,132,120,74,153.82,194,-34.00,52.00,-1015.00
2024-06-07 14:39:27.640792,-3,-3,63,0,0,0,85,87,131,120,74,153.85,194,-56.00,43.00,-1003.00
2024-06-07 14:39:27.673897,-2,-3,63,0,0,0,85,87,131,120,74,153.89,194,-38.00,68.00,-998.00
2024-06-07 14:39:27.815561,-2,-4,63,0,0,0,85,87,132,120,74,153.85,194,-49.00,25.00,-999.00
2024-06-07 14:39:27.878957,-1,-8,63,0,0,0,85,87,133,120,74,153.90,194,-35.00,54.00,-1020.00
2024-06-07 14:39:27.981682,-1,-8,63,1,0,0,85,87,131,120,73,153.97,194,-40.00,66.00,-1010.00
2024-06-07 14:39:28.081994,-2,-8,63,2,-1,0,85,87,131,120,73,153.88,194,-25.00,71.00,-1050.00
2024-06-07 14:39:28.184059,-2,-6,63,2,-1,0,85,87,130,120,73,153.93,194,-45.00,82.00,-1030.00
2024-06-07 14:39:28.286100,-2,-3,63,3,-1,0,85,87,129,120,73,153.89,194,-16.00,83.00,-971.00
2024-06-07 14:39:28.389719,-2,-2,63,2,-1,0,85,87,130,120,73,153.81,195,-41.00,85.00,-988.00
2024-06-07 14:39:28.491056,-2,-2,63,2,-1,0,85,87,129,120,73,153.82,195,-25.00,64.00,-1007.00
2024-06-07 14:39:28.597521,-1,-3,63,2,-1,0,84,87,129,120,73,153.77,195,-24.00,70.00,-1048.00
2024-06-07 14:39:28.697812,-2,-3,63,2,-1,0,84,87,130,120,73,153.76,195,-28.00,56.00,-941.00
2024-06-07 14:39:28.795299,-2,-3,63,2,-1,0,84,87,129,120,73,153.75,195,-31.00,60.00,-1000.00
2024-06-07 14:39:28.941764,-2,-2,63,2,-1,0,84,87,129,120,73,153.68,195,-22.00,46.00,-1010.00
2024-06-07 14:39:28.999342,-2,-2,63,2,0,0,84,87,128,120,73,153.81,195,-26.00,80.00,-1050.00
2024-06-07 14:39:29.101369,-2,-3,63,2,-1,0,84,87,127,120,73,153.72,195,-74.00,58.00,-1088.00
2024-06-07 14:39:29.203787,-3,-2,63,2,-1,0,84,87,128,120,73,153.88,195,-70.00,60.00,-1015.00
2024-06-07 14:39:29.305757,-4,-2,63,2,0,0,84,87,129,120,73,153.72,196,-83.00,62.00,-1004.00
2024-06-07 14:39:29.454945,-3,-2,63,2,0,0,84,87,130,120,73,153.87,196,-60.00,60.00,-1002.00
2024-06-07 14:39:29.509269,-2,0,63,2,0,0,84,87,130,120,73,153.80,196,-70.00,71.00,-1021.00
2024-06-07 14:39:29.612220,-1,2,63,1,0,0,85,87,130,120,73,153.88,196,-40.00,79.00,-978.00
2024-06-07 14:39:29.760977,-1,0,63,0,0,0,85,87,131,120,73,153.79,196,-24.00,64.00,-1020.00
2024-06-07 14:39:29.815420,-1,-1,63,0,0,0,85,87,130,120,73,153.82,196,-59.00,56.00,-971.00
2024-06-07 14:39:29.965878,-2,-2,63,0,0,0,85,87,131,120,73,153.88,196,-52.00,58.00,-996.00
2024-06-07 14:39:30.023715,-2,-2,63,0,0,0,85,87,129,120,73,153.72,196,-40.00,48.00,-1029.00
2024-06-07 14:39:30.121307,-2,-2,63,0,0,0,85,87,130,120,73,153.86,196,-27.00,40.00,-943.00
2024-06-07 14:39:30.276051,-1,-2,63,0,0,0,85,87,131,120,73,153.84,196,-52.00,43.00,-1001.00
2024-06-07 14:39:30.325229,-2,-2,63,0,0,0,85,87,130,120,73,153.81,197,-52.00,43.00,-956.00
2024-06-07 14:39:30.428775,-2,-2,63,0,0,0,85,87,129,120,73,153.91,197,-46.00,53.00,-1002.00
2024-06-07 14:39:30.529577,-2,-2,63,0,0,0,85,87,131,120,73,153.85,197,-45.00,45.00,-986.00
2024-06-07 14:39:30.683430,-2,-2,63,0,0,0,85,86,129,120,73,153.78,197,-47.00,43.00,-1000.00
2024-06-07 14:39:30.733725,-2,-2,63,0,0,0,85,86,130,120,73,153.75,197,-52.00,23.00,-1004.00
2024-06-07 14:39:30.835399,-2,-2,63,0,0,0,85,86,129,120,73,153.74,197,-32.00,40.00,-1071.00
2024-06-07 14:39:30.965465,-2,-1,63,0,0,0,85,86,129,120,73,153.87,197,-54.00,34.00,-1112.00
2024-06-07 14:39:31.039400,-2,-1,63,0,0,0,85,86,131,120,73,153.75,197,-32.00,24.00,-929.00
2024-06-07 14:39:31.194751,-2,-1,63,0,0,0,85,86,131,120,73,153.81,197,-57.00,16.00,-990.00
2024-06-07 14:39:31.243460,-2,0,63,0,0,0,85,86,131,120,73,153.93,197,-54.00,32.00,-1028.00
2024-06-07 14:39:31.406102,-2,0,63,0,0,0,85,86,131,120,73,153.90,198,-54.00,19.00,-934.00
2024-06-07 14:39:31.406251,-2,-1,63,0,0,0,85,86,131,120,73,153.73,198,-41.00,29.00,-1036.00
2024-06-07 14:39:31.498254,-2,-1,63,0,0,0,85,86,133,120,73,153.73,198,-58.00,23.00,-1043.00
2024-06-07 14:39:31.652666,-2,0,63,0,0,0,85,87,133,120,73,153.78,198,-56.00,18.00,-946.00
2024-06-07 14:39:31.768322,-2,0,63,0,0,0,85,87,135,120,73,153.78,198,-42.00,29.00,-1008.00
2024-06-07 14:39:31.804118,-2,0,63,0,0,0,85,87,135,120,73,153.82,198,-38.00,19.00,-966.00
2024-06-07 14:39:31.912185,-2,0,63,0,0,0,85,87,136,120,73,153.84,198,-42.00,8.00,-987.00
2024-06-07 14:39:32.008141,-1,6,63,0,0,0,85,87,137,120,72,153.81,198,-44.00,21.00,-974.00
2024-06-07 14:39:32.116485,-2,6,63,-1,0,0,85,87,137,120,72,153.86,198,-44.00,12.00,-976.00
2024-06-07 14:39:32.214190,-2,4,63,-2,1,0,85,87,136,120,72,153.92,198,-48.00,20.00,-999.00
2024-06-07 14:39:32.314704,-2,1,63,-3,1,0,85,87,136,120,72,153.81,199,-39.00,17.00,-965.00
2024-06-07 14:39:32.416356,-3,-2,63,-3,1,0,85,87,136,120,72,153.80,199,-58.00,14.00,-985.00
2024-06-07 14:39:32.525857,-3,-3,63,-3,1,0,85,87,136,120,72,153.82,199,-41.00,8.00,-1035.00
2024-06-07 14:39:32.621221,-3,-2,63,-3,1,0,85,86,137,120,72,153.62,199,-64.00,22.00,-1019.00
2024-06-07 14:39:32.735983,-4,-2,63,-3,1,0,85,86,136,120,72,153.85,199,-83.00,37.00,-994.00
2024-06-07 14:39:32.825185,-4,-2,63,-2,1,0,85,86,139,120,72,153.81,199,-46.00,8.00,-1005.00
2024-06-07 14:39:32.935410,-3,-2,63,-2,1,0,85,86,139,120,72,153.82,199,-79.00,9.00,-970.00
2024-06-07 14:39:33.029039,-4,-1,63,-2,1,0,85,86,138,120,72,153.81,199,-54.00,19.00,-1014.00
2024-06-07 14:39:33.132775,-3,-1,63,-2,1,0,85,86,139,130,72,153.81,199,-63.00,22.00,-1002.00
2024-06-07 14:39:33.233221,-4,-1,63,-2,1,0,85,86,139,130,72,153.79,199,-61.00,9.00,-934.00
2024-06-07 14:39:33.335118,-4,-1,63,-1,1,0,85,86,140,130,72,153.88,200,-44.00,7.00,-992.00
2024-06-07 14:39:33.437139,-4,0,63,-1,1,0,85,86,140,130,72,153.75,200,-66.00,32.00,-973.00
2024-06-07 14:39:33.539055,-4,-1,63,-1,1,0,85,86,139,130,72,153.78,200,-65.00,32.00,-995.00
2024-06-07 14:39:33.642389,-5,-3,63,-1,1,0,85,88,140,130,72,153.89,200,-43.00,29.00,-970.00
2024-06-07 14:39:33.743184,0,-6,63,-1,1,0,85,88,138,130,72,153.78,200,-57.00,29.00,-1000.00
2024-06-07 14:39:33.856930,0,-5,63,0,1,0,85,88,138,120,72,153.78,200,-39.00,35.00,-1016.00
2024-06-07 14:39:33.948440,-1,-3,63,0,0,0,85,88,136,120,72,153.77,200,-70.00,15.00,-1060.00
2024-06-07 14:39:34.059462,-2,-2,63,0,0,0,85,88,136,120,72,153.80,200,-49.00,16.00,-950.00
2024-06-07 14:39:34.151692,-3,-1,63,0,0,0,85,88,135,120,72,153.76,200,-47.00,31.00,-988.00
2024-06-07 14:39:34.266641,-3,-1,63,0,0,0,85,88,136,120,72,153.72,200,-47.00,8.00,-1010.00
2024-06-07 14:39:34.375356,-4,-1,63,0,0,0,85,88,134,120,72,153.67,201,-69.00,23.00,-1002.00
2024-06-07 14:39:34.458775,-4,0,63,0,0,0,85,88,134,120,72,153.78,201,-78.00,0.00,-931.00
2024-06-07 14:39:34.559193,-4,0,63,0,0,0,85,88,134,120,72,153.75,201,-73.00,9.00,-941.00
2024-06-07 14:39:34.662120,-4,-1,63,0,0,0,85,87,133,120,72,153.73,201,-58.00,32.00,-1020.00
2024-06-07 14:39:34.763267,-3,-1,63,0,0,0,85,87,133,120,72,153.76,201,-76.00,25.00,-1054.00
2024-06-07 14:39:34.881045,-3,-1,63,0,0,0,85,87,133,120,72,153.75,201,-53.00,15.00,-1002.00
2024-06-07 14:39:34.967145,-3,-1,63,0,0,0,85,87,133,120,72,153.80,201,-57.00,11.00,-974.00
2024-06-07 14:39:35.085784,-3,0,63,0,0,0,85,87,133,120,72,153.71,201,-66.00,34.00,-1018.00
2024-06-07 14:39:35.171218,-3,0,63,0,0,0,85,87,132,120,72,153.82,201,-50.00,22.00,-1038.00
2024-06-07 14:39:35.278106,-3,0,63,0,0,0,85,87,132,120,72,153.73,201,-62.00,18.00,-983.00
2024-06-07 14:39:35.378953,-3,0,63,0,0,0,85,87,132,120,72,153.74,202,-38.00,27.00,-1018.00
2024-06-07 14:39:35.477029,-3,0,63,0,0,0,85,87,133,120,72,153.83,202,-54.00,57.00,-1024.00
2024-06-07 14:39:35.528289,-2,-1,63,0,0,0,85,87,132,120,72,153.98,202,-26.00,60.00,-971.00
2024-06-07 14:39:35.700470,-2,-2,63,0,0,0,85,87,133,120,72,153.90,202,-23.00,68.00,-999.00
2024-06-07 14:39:35.732003,-1,-3,63,0,1,0,85,87,132,120,72,153.80,202,-30.00,69.00,-1049.00
2024-06-07 14:39:35.905001,-1,-4,63,0,1,0,85,87,133,120,72,153.92,202,-32.00,52.00,-1020.00
2024-06-07 14:39:35.936059,0,-4,63,0,1,0,85,87,133,120,72,153.90,202,-23.00,45.00,-970.00
2024-06-07 14:39:36.038634,0,-3,64,0,0,0,85,87,132,120,72,153.85,202,11.00,2.00,-984.00
2024-06-07 14:39:36.222951,0,-2,69,0,0,0,85,87,133,120,72,153.82,202,-34.00,56.00,-1076.00
2024-06-07 14:39:36.245021,-1,-2,75,0,0,0,85,87,133,120,72,153.90,202,-35.00,51.00,-987.00
2024-06-07 14:39:36.345531,-1,-2,81,0,0,0,85,87,133,120,72,153.98,203,-9.00,43.00,-934.00
2024-06-07 14:39:36.446323,0,-2,87,0,0,0,85,87,132,120,72,153.88,203,-32.00,63.00,-1039.00
2024-06-07 14:39:36.621766,0,-2,93,0,0,0,85,87,132,120,72,153.91,203,-15.00,50.00,-994.00
2024-06-07 14:39:36.651337,0,-3,99,0,0,0,85,87,131,120,72,153.94,203,-12.00,52.00,-1035.00
2024-06-07 14:39:36.752113,0,-2,104,0,0,0,85,87,129,120,72,153.96,203,-2.00,58.00,-1014.00
2024-06-07 14:39:36.929354,0,-2,110,0,0,0,85,87,130,120,72,153.94,203,13.00,63.00,-1037.00
2024-06-07 14:39:36.957080,0,-2,116,0,0,0,85,87,129,120,71,153.85,203,3.00,57.00,-960.00
2024-06-07 14:39:37.058614,0,-2,122,0,0,0,85,87,131,120,71,153.86,203,2.00,59.00,-1021.00
2024-06-07 14:39:37.160365,0,-2,128,0,0,0,85,87,131,120,71,153.84,203,32.00,63.00,-1050.00
2024-06-07 14:39:37.261924,0,-2,134,0,0,0,85,87,130,120,71,153.88,203,30.00,57.00,-1007.00
2024-06-07 14:39:37.440978,1,-2,140,0,0,0,85,87,131,120,71,153.86,204,19.00,71.00,-985.00
2024-06-07 14:39:37.466093,1,-3,146,0,0,0,85,87,131,120,71,153.81,204,28.00,45.00,-991.00
2024-06-07 14:39:37.645901,2,-2,152,0,0,0,85,87,130,120,71,153.95,204,45.00,52.00,-982.00
2024-06-07 14:39:37.670081,2,-2,159,0,0,0,84,87,129,120,71,153.82,204,46.00,37.00,-982.00
2024-06-07 14:39:37.853497,2,-1,165,0,0,0,84,87,129,120,71,153.86,204,23.00,46.00,-986.00
2024-06-07 14:39:37.873873,2,-1,172,0,0,0,84,87,129,120,71,153.92,204,34.00,51.00,-998.00
2024-06-07 14:39:38.055449,2,-1,178,0,0,0,84,87,128,120,71,153.84,204,49.00,56.00,-1017.00
2024-06-07 14:39:38.078041,2,-1,-175,0,0,0,84,87,128,120,71,153.79,204,52.00,30.00,-1065.00
2024-06-07 14:39:38.260232,2,-1,-169,0,0,0,84,87,128,120,71,153.83,204,56.00,26.00,-1022.00
2024-06-07 14:39:38.281899,2,0,-163,0,0,0,84,87,128,120,71,153.90,204,59.00,11.00,-1021.00
2024-06-07 14:39:38.395084,3,0,-157,0,0,0,84,87,128,120,71,153.86,205,69.00,-8.00,-1037.00
2024-06-07 14:39:38.487485,3,1,-151,0,0,0,84,87,128,120,71,153.82,205,61.00,-10.00,-1011.00
2024-06-07 14:39:38.588026,3,1,-145,0,0,0,84,87,130,120,71,153.86,205,63.00,-3.00,-1031.00
2024-06-07 14:39:38.689984,2,1,-139,0,0,0,86,87,131,120,71,153.86,205,56.00,-12.00,-1012.00
2024-06-07 14:39:38.874543,3,1,-134,0,0,0,86,87,131,120,71,153.81,205,59.00,-3.00,-994.00
2024-06-07 14:39:38.896313,2,2,-128,0,0,0,86,87,133,120,71,153.75,205,64.00,14.00,-1013.00
2024-06-07 14:39:38.996277,2,2,-123,0,0,0,86,87,131,120,71,153.79,205,55.00,7.00,-1019.00
2024-06-07 14:39:39.097856,2,1,-117,0,0,0,86,87,131,120,71,153.75,205,28.00,-8.00,-986.00
2024-06-07 14:39:39.199880,2,1,-112,0,0,0,86,87,131,120,71,153.78,205,47.00,-15.00,-1044.00
2024-06-07 14:39:39.251115,2,0,-106,0,0,0,86,87,129,120,71,153.77,205,27.00,-20.00,-972.00
2024-06-07 14:39:39.352708,2,1,-100,0,0,0,86,87,129,120,71,153.84,206,37.00,-21.00,-976.00
2024-06-07 14:39:39.454895,1,1,-94,0,0,0,86,87,128,120,71,153.75,206,27.00,-31.00,-976.00
2024-06-07 14:39:39.591354,1,2,-88,0,0,0,86,87,127,120,71,153.76,206,28.00,-19.00,-1017.00
2024-06-07 14:39:39.675344,1,1,-82,0,0,0,85,87,127,120,71,153.74,206,36.00,-45.00,-1067.00
2024-06-07 14:39:39.760820,1,2,-76,0,0,0,85,87,126,120,71,153.85,206,24.00,-36.00,-950.00
2024-06-07 14:39:39.898947,1,2,-70,0,0,0,85,87,127,120,71,153.87,206,12.00,-35.00,-982.00
2024-06-07 14:39:39.964798,0,2,-64,0,0,0,85,87,125,120,71,153.85,206,0.00,-36.00,-1095.00
2024-06-07 14:39:40.072181,0,2,-58,0,0,0,85,87,127,120,71,153.83,206,-20.00,-43.00,-1021.00
2024-06-07 14:39:40.168677,0,2,-53,0,0,0,85,87,127,120,71,153.81,206,-30.00,-50.00,-991.00
2024-06-07 14:39:40.308044,-1,2,-47,0,0,0,85,87,128,120,71,153.78,206,-29.00,-35.00,-1066.00
2024-06-07 14:39:40.372781,-1,2,-40,0,0,0,85,87,130,120,71,153.77,207,-29.00,-32.00,-1026.00
2024-06-07 14:39:40.512940,-2,2,-34,0,0,0,85,87,130,120,71,153.81,207,-44.00,-23.00,-996.00
2024-06-07 14:39:40.576679,-2,2,-28,0,0,0,85,87,131,120,71,153.81,207,-59.00,-18.00,-996.00
2024-06-07 14:39:40.679344,-3,1,-21,0,0,0,85,88,132,120,71,153.85,207,-39.00,-30.00,-985.00
2024-06-07 14:39:40.820109,-3,0,-15,0,0,0,85,88,133,120,71,153.84,207,-69.00,-20.00,-964.00
2024-06-07 14:39:40.885218,-3,0,-9,0,0,0,85,88,133,120,71,153.84,207,-53.00,-2.00,-988.00
2024-06-07 14:39:40.984646,-3,0,-3,0,0,0,85,88,133,120,71,153.93,207,-29.00,-8.00,-1019.00
2024-06-07 14:39:41.134270,-3,0,2,0,0,0,85,88,133,120,71,153.82,207,-48.00,-9.00,-981.00
2024-06-07 14:39:41.188650,-3,0,8,0,0,0,85,88,132,120,71,153.62,207,-52.00,8.00,-1002.00
2024-06-07 14:39:41.290610,-3,0,14,0,0,0,85,88,131,120,71,153.78,207,-38.00,-6.00,-924.00
2024-06-07 14:39:41.393210,-4,0,20,0,0,0,85,88,130,120,71,153.72,208,-55.00,16.00,-976.00
2024-06-07 14:39:41.495295,-3,0,25,0,0,0,85,88,129,120,71,153.76,208,-58.00,19.00,-1040.00
2024-06-07 14:39:41.598089,-3,-1,31,0,0,0,85,88,130,120,71,153.80,208,-63.00,21.00,-1046.00
2024-06-07 14:39:41.701935,-3,-1,37,0,0,0,86,88,128,120,71,153.77,208,-39.00,34.00,-988.00
2024-06-07 14:39:41.803089,-3,-1,43,0,0,0,86,88,129,120,71,153.80,208,-40.00,33.00,-1039.00
2024-06-07 14:39:41.903498,-3,-2,48,0,0,0,86,88,130,120,71,153.90,208,-34.00,52.00,-1017.00
2024-06-07 14:39:42.010244,-3,-2,52,0,0,0,86,88,131,120,71,153.75,208,-50.00,41.00,-988.00
2024-06-07 14:39:42.106602,-2,-2,54,0,0,0,86,88,130,120,71,153.75,208,-44.00,36.00,-999.00
2024-06-07 14:39:42.254965,-2,-2,56,0,0,0,86,88,131,120,71,153.86,208,-51.00,42.00,-1009.00
2024-06-07 14:39:42.312208,-2,-2,58,0,0,0,86,88,132,120,71,153.92,208,-51.00,50.00,-1007.00
2024-06-07 14:39:42.412611,-2,-2,59,0,0,0,86,88,135,120,71,153.91,209,-47.00,39.00,-1007.00
2024-06-07 14:39:42.514517,-3,-2,60,0,0,0,86,88,136,120,71,153.85,209,-34.00,33.00,-963.00
2024-06-07 14:39:42.632786,-3,-2,61,0,0,0,86,88,138,120,71,153.91,209,-37.00,50.00,-1034.00
2024-06-07 14:39:42.720587,-2,-2,61,0,0,0,85,87,138,120,71,153.87,209,-44.00,35.00,-944.00
2024-06-07 14:39:42.821010,-2,-1,61,0,0,0,85,87,140,120,71,154.00,209,-50.00,59.00,-1028.00
2024-06-07 14:39:42.923298,-2,-2,61,0,0,0,85,87,141,120,71,153.95,209,-16.00,48.00,-1013.00
2024-06-07 14:39:43.024876,-2,-2,61,0,0,0,85,87,143,120,71,154.01,209,-30.00,34.00,-968.00
2024-06-07 14:39:43.075845,-1,-2,61,0,0,0,85,87,144,130,71,154.02,209,-27.00,36.00,-942.00
2024-06-07 14:39:43.178757,-1,-2,61,0,0,0,85,87,145,130,71,154.01,209,-36.00,33.00,-955.00
2024-06-07 14:39:43.280390,-1,-2,61,0,0,0,85,87,144,130,71,154.03,209,-36.00,38.00,-1048.00
2024-06-07 14:39:43.383335,-1,-2,61,0,0,0,85,87,146,130,71,154.08,210,-29.00,43.00,-992.00
2024-06-07 14:39:43.484644,-1,-2,61,0,0,0,85,87,146,130,71,154.00,210,-40.00,40.00,-952.00
2024-06-07 14:39:43.588080,-2,-2,62,0,0,0,85,87,144,130,71,154.04,210,-23.00,47.00,-995.00
2024-06-07 14:39:43.714065,-2,-2,62,0,0,0,84,87,143,130,71,154.06,210,-31.00,32.00,-958.00
2024-06-07 14:39:43.790807,-2,-2,62,0,0,0,84,87,143,130,71,154.01,210,-25.00,33.00,-982.00
2024-06-07 14:39:43.994772,-2,-2,61,0,0,0,84,87,140,130,71,153.97,210,-15.00,42.00,-1028.00
2024-06-07 14:39:43.994894,-2,-2,61,0,0,0,84,87,139,130,70,154.05,210,-45.00,49.00,-963.00
2024-06-07 14:39:44.097270,-1,-2,61,0,0,0,84,87,138,130,70,153.87,210,-17.00,43.00,-1077.00
2024-06-07 14:39:44.198986,-1,-2,61,0,0,0,84,87,136,120,70,153.97,210,-43.00,42.00,-1012.00
2024-06-07 14:39:44.301489,-1,-2,61,0,0,0,84,87,137,120,70,154.04,211,-18.00,24.00,-1007.00
2024-06-07 14:39:44.404195,-1,-1,61,0,0,0,84,87,135,120,70,153.94,211,-27.00,32.00,-1000.00
2024-06-07 14:39:44.504497,-1,-1,61,0,0,0,84,87,133,120,70,153.95,211,-57.00,37.00,-990.00
2024-06-07 14:39:44.606603,-1,-2,61,0,0,0,84,87,133,120,70,153.90,211,-14.00,40.00,-1018.00
2024-06-07 14:39:44.708513,-1,-2,59,0,0,0,86,87,134,120,70,153.76,211,-70.00,60.00,-1007.00
2024-06-07 14:39:44.810559,-2,-1,53,0,0,0,86,87,135,120,70,153.79,211,-53.00,30.00,-994.00
2024-06-07 14:39:44.916110,-2,-1,47,0,0,0,86,87,135,120,70,153.83,211,-56.00,23.00,-1046.00
2024-06-07 14:39:45.016082,-2,0,40,0,0,0,86,87,134,120,70,153.80,211,-23.00,9.00,-995.00
2024-06-07 14:39:45.118311,-2,0,35,0,0,0,86,87,135,120,70,153.83,211,-40.00,19.00,-954.00
2024-06-07 14:39:45.218756,-2,0,29,0,0,0,86,87,136,120,70,153.79,211,-53.00,24.00,-1016.00
2024-06-07 14:39:45.325321,-2,0,23,0,0,0,86,87,136,120,70,153.70,212,-45.00,8.00,-988.00
2024-06-07 14:39:45.422980,-2,0,17,0,0,0,86,87,135,120,70,153.79,212,-35.00,22.00,-1015.00
2024-06-07 14:39:45.531092,-1,0,11,0,0,0,86,87,134,120,70,153.85,212,-40.00,2.00,-961.00
2024-06-07 14:39:45.628138,-2,0,5,0,0,0,86,87,133,120,70,153.86,212,-70.00,0.00,-986.00
2024-06-07 14:39:45.729370,-2,0,0,0,0,0,85,87,133,120,70,153.83,212,-32.00,-10.00,-940.00
2024-06-07 14:39:45.830365,-2,0,-6,0,0,0,85,87,132,120,70,153.79,212,-51.00,6.00,-1002.00
2024-06-07 14:39:45.932559,-2,0,-11,0,0,0,85,87,131,120,70,153.71,212,-37.00,-3.00,-1004.00
2024-06-07 14:39:46.034369,-2,0,-17,0,0,0,85,87,131,120,70,153.79,212,-20.00,0.00,-1054.00
2024-06-07 14:39:46.144774,-1,0,-23,0,0,0,85,87,130,120,70,153.73,212,-28.00,-1.00,-1010.00
2024-06-07 14:39:46.238399,-1,0,-29,0,0,0,85,87,130,120,70,153.82,212,-46.00,1.00,-1019.00
2024-06-07 14:39:46.351354,-1,0,-35,0,0,0,85,87,128,120,70,153.89,213,-17.00,-22.00,-1040.00
2024-06-07 14:39:46.442549,-1,1,-41,0,0,0,85,87,128,120,70,153.90,213,-48.00,-2.00,-991.00
2024-06-07 14:39:46.547496,-1,1,-46,0,0,0,85,87,127,120,70,153.85,213,-38.00,-7.00,-995.00
2024-06-07 14:39:46.595372,-1,1,-52,0,0,0,85,87,128,120,70,153.82,213,-49.00,-19.00,-992.00
2024-06-07 14:39:46.759734,-1,1,-57,0,0,0,84,87,127,120,70,153.82,213,-39.00,-22.00,-1018.00
2024-06-07 14:39:46.850383,-1,1,-63,0,0,0,84,87,128,120,70,153.99,213,-33.00,-23.00,-1007.00
2024-06-07 14:39:46.963965,-1,1,-69,0,0,0,84,87,126,120,70,153.90,213,-33.00,-28.00,-1005.00
2024-06-07 14:39:47.054392,-1,2,-75,0,0,0,84,87,126,120,70,153.90,213,-36.00,-29.00,-1000.00
2024-06-07 14:39:47.114007,-1,2,-81,0,0,0,84,87,126,120,70,154.01,213,-32.00,-34.00,-945.00
2024-06-07 14:39:47.207491,-1,3,-87,0,0,0,84,87,126,120,70,154.00,213,-2.00,-50.00,-983.00
2024-06-07 14:39:47.309386,0,3,-93,0,0,0,84,87,126,120,70,154.00,214,-5.00,-29.00,-1074.00
2024-06-07 14:39:47.480347,0,3,-99,0,0,0,84,87,127,120,70,153.93,214,0.00,-39.00,-986.00
2024-06-07 14:39:47.537796,0,3,-105,0,0,0,84,87,126,120,70,153.95,214,17.00,-42.00,-1021.00
2024-06-07 14:39:47.615385,0,3,-111,0,0,0,84,87,126,120,70,153.88,214,14.00,-43.00,-994.00
2024-06-07 14:39:47.717688,1,3,-117,0,0,0,85,87,127,120,70,153.88,214,32.00,-31.00,-1030.00
2024-06-07 14:39:47.885601,2,3,-124,0,0,0,85,87,127,120,70,153.86,214,43.00,-32.00,-988.00
2024-06-07 14:39:47.921713,3,2,-130,0,0,0,85,87,128,120,70,153.83,214,34.00,-29.00,-981.00
2024-06-07 14:39:48.102902,3,1,-136,0,0,0,85,87,128,120,70,153.93,214,60.00,-26.00,-1002.00
2024-06-07 14:39:48.125259,3,1,-142,0,0,0,85,87,129,120,70,153.86,214,49.00,-19.00,-981.00
2024-06-07 14:39:48.296790,3,1,-148,0,0,0,85,87,129,120,70,153.80,214,82.00,-26.00,-988.00
2024-06-07 14:39:48.330772,3,0,-154,0,0,0,85,87,130,120,70,153.82,215,58.00,-21.00,-997.00
2024-06-07 14:39:48.431281,3,1,-159,0,0,0,85,87,130,120,70,153.84,215,62.00,-13.00,-998.00
2024-06-07 14:39:48.533631,3,0,-165,0,0,0,85,87,128,120,70,153.92,215,45.00,2.00,-1020.00
2024-06-07 14:39:48.705312,3,0,-171,0,0,0,85,87,129,120,70,153.87,215,50.00,-14.00,-1004.00
2024-06-07 14:39:48.737316,3,0,-176,0,0,0,85,87,130,120,70,153.87,215,43.00,-10.00,-998.00
2024-06-07 14:39:48.909543,3,0,176,0,0,0,85,87,130,120,70,153.82,215,58.00,-12.00,-992.00
2024-06-07 14:39:48.941412,3,0,170,0,0,0,85,87,129,120,70,153.81,215,39.00,0.00,-979.00
2024-06-07 14:39:49.043351,3,0,164,0,0,0,85,87,129,120,70,153.82,215,74.00,0.00,-1006.00
2024-06-07 14:39:49.145236,3,0,158,0,0,0,85,87,130,120,70,153.89,215,62.00,18.00,-1002.00
2024-06-07 14:39:49.319212,3,0,152,0,0,0,85,87,130,120,70,153.85,215,43.00,26.00,-1018.00
2024-06-07 14:39:49.351837,3,-1,146,0,0,0,85,87,130,120,70,153.82,216,69.00,46.00,-1036.00
2024-06-07 14:39:49.454656,3,-1,140,0,0,0,85,87,131,120,70,153.84,216,44.00,52.00,-993.00
2024-06-07 14:39:49.553278,3,-2,134,0,0,0,85,87,131,120,70,153.89,216,54.00,30.00,-976.00
2024-06-07 14:39:49.728713,2,-2,128,0,0,0,85,87,131,120,70,153.94,216,35.00,50.00,-991.00
2024-06-07 14:39:49.757272,2,-2,122,0,0,0,85,87,131,120,70,154.00,216,46.00,67.00,-1004.00
2024-06-07 14:39:49.942129,2,-3,116,0,0,0,85,87,131,120,70,153.86,216,42.00,44.00,-978.00
2024-06-07 14:39:49.961983,1,-3,110,0,0,0,85,87,132,120,70,153.91,216,15.00,65.00,-1025.00
2024-06-07 14:39:50.138339,1,-3,104,0,0,0,85,87,131,120,70,153.84,216,17.00,64.00,-976.00
2024-06-07 14:39:50.165318,1,-3,98,0,0,0,85,87,130,120,70,153.84,216,-7.00,62.00,-994.00
2024-06-07 14:39:50.349042,0,-3,92,0,0,0,85,87,131,120,70,153.93,216,16.00,42.00,-985.00
2024-06-07 14:39:50.369217,0,-3,86,0,0,0,85,87,129,120,70,153.95,217,-14.00,64.00,-1018.00
2024-06-07 14:39:50.550215,0,-2,81,0,0,0,85,87,129,120,70,153.98,217,11.00,37.00,-961.00
2024-06-07 14:39:50.584032,0,-2,76,0,0,0,85,87,130,120,70,153.94,217,-22.00,50.00,-990.00
2024-06-07 14:39:50.675419,0,-2,73,0,0,0,85,87,131,120,70,153.90,217,-7.00,41.00,-1022.00
2024-06-07 14:39:50.868230,0,-2,70,0,0,0,85,87,131,120,70,153.88,217,-2.00,55.00,-1018.00
2024-06-07 14:39:50.884208,0,-2,68,0,0,0,85,87,129,120,70,153.88,217,-32.00,32.00,-954.00
2024-06-07 14:39:50.984672,0,-2,66,0,0,0,85,87,132,120,69,153.86,217,-30.00,35.00,-1023.00
2024-06-07 14:39:51.086557,-1,-1,65,0,0,0,85,87,132,120,69,153.88,217,-43.00,45.00,-998.00
2024-06-07 14:39:51.134407,-1,-1,64,0,0,0,85,87,133,120,69,153.91,217,-22.00,43.00,-1013.00
2024-06-07 14:39:51.240815,-2,-1,63,0,0,0,85,87,134,120,69,154.03,217,-40.00,40.00,-984.00
2024-06-07 14:39:51.338508,-2,-1,63,0,0,0,85,87,135,120,69,153.89,218,-51.00,40.00,-1016.00
2024-06-07 14:39:51.471972,-3,-2,62,0,0,0,85,87,135,120,69,153.85,218,-50.00,48.00,-1035.00
2024-06-07 14:39:51.542478,-3,-2,62,0,0,0,85,87,136,120,69,154.01,218,-54.00,39.00,-1002.00
2024-06-07 14:39:51.676774,-3,-2,62,0,0,0,85,87,137,120,69,153.98,218,-49.00,38.00,-954.00
2024-06-07 14:39:51.753546,-3,-2,62,0,0,0,85,87,136,120,69,153.96,218,-52.00,42.00,-961.00
2024-06-07 14:39:51.848414,-3,-1,62,0,0,0,85,87,135,120,69,153.91,218,-25.00,31.00,-977.00
2024-06-07 14:39:51.981807,-2,-1,62,0,0,0,85,87,135,120,69,153.91,218,-31.00,37.00,-952.00
2024-06-07 14:39:52.052498,-2,-1,62,0,0,0,85,87,134,120,69,153.92,218,-61.00,46.00,-1028.00
2024-06-07 14:39:52.186531,-2,-1,62,0,0,0,85,87,132,120,69,153.92,218,-27.00,45.00,-1092.00
2024-06-07 14:39:52.256324,-2,-1,62,0,0,0,85,87,133,120,69,153.97,218,-20.00,53.00,-995.00
2024-06-07 14:39:52.358446,-2,-1,62,0,0,0,85,87,130,120,69,153.89,219,-44.00,36.00,-1051.00
2024-06-07 14:39:52.493681,-2,-2,62,0,0,0,85,87,131,120,69,153.99,219,-28.00,42.00,-1023.00
2024-06-07 14:39:52.562637,-2,-2,62,0,0,0,85,87,131,120,69,153.93,219,-51.00,33.00,-937.00
2024-06-07 14:39:52.698459,-2,-2,62,0,0,0,85,87,130,120,69,153.92,219,-19.00,45.00,-1063.00
2024-06-07 14:39:52.768198,-2,-2,62,0,0,0,85,86,132,120,69,153.96,219,-52.00,32.00,-920.00
2024-06-07 14:39:52.868605,-2,-2,62,0,0,0,85,86,131,120,69,153.97,219,-35.00,31.00,-981.00
2024-06-07 14:39:52.971290,-2,-1,62,0,0,0,85,86,131,120,69,153.95,219,-16.00,46.00,-1016.00
2024-06-07 14:39:53.072233,-2,-1,62,0,0,0,85,86,130,120,69,153.89,219,-38.00,31.00,-988.00
2024-06-07 14:39:53.243148,-1,-2,62,0,0,0,85,86,130,120,69,153.91,219,-14.00,44.00,-1008.00
2024-06-07 14:39:53.281273,-1,-2,62,0,0,0,85,86,131,120,69,153.95,219,-34.00,45.00,-973.00
2024-06-07 14:39:53.378919,-1,-2,62,0,0,0,85,86,130,120,69,153.99,220,-23.00,54.00,-1051.00
2024-06-07 14:39:53.519814,0,-2,61,0,0,-2,85,86,132,120,69,154.10,220,-73.00,51.00,-1729.00
2024-06-07 14:39:53.587289,0,-4,59,0,0,-9,85,86,141,130,69,154.11,220,-30.00,172.00,-1353.00
2024-06-07 14:39:53.688754,-5,-63,58,2,-1,-12,85,86,343,140,69,154.22,220,-68.00,490.00,-1070.00
2024-06-07 14:39:53.793543,0,170,69,8,-5,-2,85,88,6553,150,69,154.07,220,-82.00,537.00,-1142.00
2024-06-07 14:39:53.890772,4,46,58,3,-3,11,85,88,145,140,69,154.27,220,-75.00,163.00,-1584.00
2024-06-07 14:39:53.991184,0,-5,62,0,-2,9,85,88,135,130,69,154.01,220,26.00,-49.00,-1253.00
2024-06-07 14:39:54.093440,0,1,74,0,-2,6,85,88,130,120,69,154.09,220,-53.00,56.00,-1439.00
2024-06-07 14:39:54.234321,-2,1,85,0,-2,3,85,88,127,120,69,153.70,220,-24.00,46.00,-1237.00
2024-06-07 14:39:54.295962,-2,0,87,0,-2,1,85,88,127,120,69,153.78,220,-28.00,68.00,-1158.00
2024-06-07 14:39:54.439081,-2,-1,82,0,-1,0,85,88,127,120,69,153.72,221,-30.00,81.00,-1057.00
2024-06-07 14:39:54.500292,-2,-2,71,0,-1,0,85,88,127,120,69,153.84,221,-22.00,49.00,-1057.00
2024-06-07 14:39:54.643898,-4,0,63,0,0,0,85,88,129,120,69,153.88,221,-39.00,41.00,-1001.00
2024-06-07 14:39:54.706618,-3,-1,62,0,0,-1,85,88,129,120,69,153.86,221,-15.00,53.00,-1016.00
2024-06-07 14:39:54.807648,-2,-1,62,0,0,-1,85,87,132,120,69,153.96,221,-29.00,36.00,-917.00
2024-06-07 14:39:54.912730,-2,-1,62,0,0,-1,85,87,132,120,69,153.95,221,-32.00,40.00,-994.00
2024-06-07 14:39:55.012366,-2,-1,62,0,0,0,85,87,133,120,69,153.90,221,-42.00,46.00,-980.00
2024-06-07 14:39:55.112024,-2,-1,62,0,0,0,85,87,133,120,69,153.90,221,-44.00,26.00,-938.00
2024-06-07 14:39:55.258371,-2,-1,62,0,0,0,85,87,134,120,69,153.98,221,-39.00,43.00,-1050.00
2024-06-07 14:39:55.265296,-2,-1,62,0,0,0,85,87,134,120,69,153.91,221,-40.00,36.00,-940.00
2024-06-07 14:39:55.366982,-3,-1,62,0,0,0,85,87,134,120,69,153.91,222,-66.00,35.00,-980.00
2024-06-07 14:39:55.469088,-3,-1,62,0,0,0,85,87,135,120,69,153.93,222,-40.00,36.00,-1000.00
2024-06-07 14:39:55.570939,-3,-1,62,0,0,0,85,87,135,120,69,153.91,222,-48.00,43.00,-1009.00
2024-06-07 14:39:55.771114,-3,-1,62,0,0,0,85,87,135,120,69,153.88,222,-48.00,25.00,-942.00
2024-06-07 14:39:55.777104,-2,-1,62,0,0,0,84,87,136,120,69,153.94,222,-66.00,33.00,-964.00
2024-06-07 14:39:55.879091,-2,-1,62,0,0,0,84,87,135,120,69,153.94,222,-47.00,29.00,-950.00
2024-06-07 14:39:55.981749,-2,-1,62,0,0,0,84,87,135,120,68,153.90,222,-54.00,39.00,-1006.00
2024-06-07 14:39:56.082312,-2,0,62,0,0,0,84,87,135,120,68,153.98,222,-40.00,36.00,-1076.00
2024-06-07 14:39:56.305171,-1,0,62,0,0,0,84,87,135,120,68,153.93,222,-43.00,35.00,-992.00
2024-06-07 14:39:56.305999,-1,0,62,0,0,0,84,87,135,120,68,153.88,222,-61.00,35.00,-989.00
2024-06-07 14:39:56.387971,-1,0,62,0,0,0,84,87,134,120,68,153.92,223,-63.00,31.00,-973.00
2024-06-07 14:39:56.489969,-1,0,62,0,0,0,84,87,134,120,68,153.88,223,-41.00,27.00,-988.00
2024-06-07 14:39:56.594073,-1,0,62,0,0,0,84,87,133,120,68,154.00,223,-51.00,35.00,-928.00
2024-06-07 14:39:56.694223,-2,0,62,0,0,0,84,87,134,120,68,153.97,223,-57.00,36.00,-1012.00
2024-06-07 14:39:56.795985,-2,0,62,0,0,0,85,87,131,120,68,153.94,223,-43.00,40.00,-979.00
2024-06-07 14:39:56.999459,-2,0,62,0,0,0,85,87,132,120,68,153.90,223,-44.00,47.00,-997.00
2024-06-07 14:39:56.999885,-2,-1,62,0,0,0,85,87,132,120,68,153.89,223,-18.00,32.00,-1011.00
2024-06-07 14:39:57.204249,-2,-1,62,0,0,0,85,87,131,120,68,153.95,223,-37.00,43.00,-1024.00
2024-06-07 14:39:57.204376,-1,-1,62,0,0,0,85,87,132,120,68,153.91,223,-26.00,22.00,-975.00
2024-06-07 14:39:57.306160,-1,-1,62,0,0,0,85,87,133,120,68,153.97,223,-56.00,42.00,-1020.00
2024-06-07 14:39:57.408542,-1,-1,62,0,0,0,85,87,133,120,68,153.97,224,-46.00,29.00,-963.00
2024-06-07 14:39:57.511322,-1,-1,62,0,0,0,85,87,132,120,68,153.91,224,-26.00,29.00,-1027.00
2024-06-07 14:39:57.613413,-1,-1,62,0,0,0,85,87,133,120,68,153.95,224,-26.00,11.00,-992.00
2024-06-07 14:39:57.716716,0,-1,62,0,0,0,85,87,134,120,68,153.94,224,-52.00,19.00,-995.00
2024-06-07 14:39:57.815881,-1,0,62,0,0,0,84,87,136,120,68,153.93,224,-18.00,9.00,-1000.00
2024-06-07 14:39:57.920877,-1,0,62,0,0,0,84,87,135,120,68,153.90,224,-31.00,6.00,-986.00
2024-06-07 14:39:58.020103,-1,0,63,0,0,0,84,87,134,120,68,153.97,224,-45.00,11.00,-981.00
2024-06-07 14:39:58.125816,-1,0,63,0,0,0,84,87,134,120,68,153.86,224,-52.00,13.00,-934.00
2024-06-07 14:39:58.223948,-1,0,63,0,0,0,84,87,134,120,68,153.97,224,-58.00,33.00,-989.00
2024-06-07 14:39:58.330746,-2,0,62,0,0,0,84,87,134,120,68,153.86,225,-35.00,17.00,-999.00
2024-06-07 14:39:58.427867,-2,0,62,0,0,0,84,87,133,120,68,153.94,225,-33.00,14.00,-1016.00
2024-06-07 14:39:58.529898,-2,0,62,0,0,0,84,87,133,120,68,153.92,225,-34.00,15.00,-1014.00
2024-06-07 14:39:58.637555,-2,-1,62,0,0,0,84,87,134,120,68,153.89,225,-45.00,23.00,-1046.00
2024-06-07 14:39:58.733814,-2,0,62,0,0,0,84,87,132,120,68,153.86,225,-58.00,32.00,-994.00
2024-06-07 14:39:58.835840,-2,0,62,0,0,0,85,87,132,120,68,153.86,225,-20.00,7.00,-961.00
2024-06-07 14:39:58.944754,-1,0,62,0,0,0,85,87,132,120,68,153.89,225,-41.00,7.00,-992.00
2024-06-07 14:39:59.042187,-2,0,62,0,0,0,85,87,132,120,68,153.90,225,-31.00,18.00,-1032.00
2024-06-07 14:39:59.090955,-2,0,62,0,0,0,85,87,132,120,68,153.94,225,-25.00,26.00,-1073.00
2024-06-07 14:39:59.192873,-2,-1,62,0,0,0,85,87,134,120,68,153.81,225,-55.00,12.00,-966.00
2024-06-07 14:39:59.296523,-2,-1,62,0,0,0,85,87,133,120,68,153.90,226,-42.00,10.00,-987.00
2024-06-07 14:39:59.396760,-2,-1,62,0,0,0,85,87,133,120,68,153.93,226,-57.00,19.00,-1038.00
2024-06-07 14:39:59.559392,-2,0,62,0,0,0,85,87,134,120,68,153.97,226,-53.00,25.00,-1008.00
2024-06-07 14:39:59.600762,-3,-1,62,0,0,0,85,87,135,120,68,153.97,226,-61.00,37.00,-985.00
2024-06-07 14:39:59.703100,-2,-1,62,0,0,0,85,87,135,120,68,153.86,226,-46.00,29.00,-1041.00
2024-06-07 14:39:59.804852,-2,-1,62,0,0,0,85,87,134,120,68,153.89,226,-74.00,15.00,-969.00
2024-06-07 14:39:59.968726,-1,0,62,0,0,0,85,87,134,120,68,153.92,226,-28.00,-4.00,-1064.00
2024-06-07 14:40:00.008765,0,2,62,0,0,-4,85,87,136,120,68,154.01,226,-64.00,25.00,-1620.00
2024-06-07 14:40:00.173529,0,15,63,-1,0,-11,85,87,141,130,68,153.94,226,-85.00,-65.00,-1718.00
2024-06-07 14:40:00.212688,0,110,63,-8,2,-10,85,87,329,140,68,154.25,226,-47.00,407.00,-1438.00
2024-06-07 14:40:00.378243,-1,-123,63,-10,2,5,85,87,6553,150,68,154.13,227,-31.00,788.00,-918.00
2024-06-07 14:40:00.417401,0,-14,59,-4,0,11,85,87,261,140,68,154.00,227,-76.00,708.00,-1132.00
2024-06-07 14:40:00.518772,0,6,57,-6,0,9,85,87,138,130,68,153.82,227,-74.00,176.00,-993.00
2024-06-07 14:40:00.621277,-2,-3,53,-6,0,5,85,87,127,120,68,153.87,227,-57.00,-45.00,-1521.00
2024-06-07 14:40:00.724550,-3,-5,51,-5,0,2,85,87,120,120,68,153.96,227,-7.00,-42.00,-1287.00
2024-06-07 14:40:00.824929,-3,-3,58,-3,-1,0,85,88,117,110,68,153.71,227,7.00,-32.00,-1143.00
2024-06-07 14:40:00.926699,-3,-1,62,-3,-1,0,85,88,115,110,68,153.72,227,-70.00,4.00,-1128.00
2024-06-07 14:40:01.095178,-2,0,63,-2,-1,-1,85,88,117,110,68,153.73,227,-19.00,-6.00,-1081.00
2024-06-07 14:40:01.130729,-2,0,63,-2,-1,-2,85,88,117,110,68,153.76,227,-35.00,-9.00,-1063.00
2024-06-07 14:40:01.299954,-3,0,63,-2,-1,-2,85,88,120,120,68,153.76,227,-29.00,-11.00,-989.00
2024-06-07 14:40:01.334726,-3,0,63,-2,-1,-2,85,88,119,120,68,153.74,228,-18.00,-15.00,-991.00
2024-06-07 14:40:01.510223,-3,0,63,-2,-1,-1,85,88,120,120,68,153.81,228,-35.00,-10.00,-957.00
2024-06-07 14:40:01.538732,-3,0,63,-1,-1,-1,85,88,121,120,68,153.77,228,-54.00,-14.00,-975.00
2024-06-07 14:40:01.709529,-4,-1,63,-1,-1,-1,85,88,121,120,68,153.78,228,-51.00,6.00,-949.00
2024-06-07 14:40:01.742690,-4,-2,63,-1,0,0,85,88,121,120,68,153.78,228,-39.00,6.00,-983.00
2024-06-07 14:40:01.844762,-4,-2,63,0,0,0,85,87,121,120,68,153.78,228,-32.00,12.00,-981.00
2024-06-07 14:40:02.016729,-3,-2,62,0,0,0,85,87,122,120,68,153.76,228,-58.00,13.00,-1026.00
2024-06-07 14:40:02.048703,-3,-1,62,0,0,0,85,87,122,120,67,153.74,228,-34.00,13.00,-1090.00
2024-06-07 14:40:02.222136,-3,-1,62,0,0,0,85,87,123,120,67,153.77,228,-78.00,-6.00,-1075.00
2024-06-07 14:40:02.253300,-3,-1,62,0,0,0,85,87,123,120,67,153.70,228,-40.00,8.00,-933.00
2024-06-07 14:40:02.426310,-3,-1,62,0,0,0,85,87,125,120,67,153.73,229,-77.00,-58.00,-1063.00
2024-06-07 14:40:02.456572,-3,0,62,0,0,0,85,87,126,120,67,153.72,229,-62.00,6.00,-1034.00
2024-06-07 14:40:02.507847,-2,0,62,0,0,0,85,87,127,120,67,153.75,229,-36.00,-3.00,-974.00
2024-06-07 14:40:02.631092,-2,0,62,0,0,-1,85,87,128,120,67,153.70,229,-72.00,0.00,-986.00
2024-06-07 14:40:02.712368,-2,0,62,0,0,0,85,87,130,120,67,153.81,229,-40.00,-4.00,-942.00
2024-06-07 14:40:02.836125,-2,0,63,0,0,0,85,87,130,120,67,153.82,229,-59.00,2.00,-988.00
2024-06-07 14:40:02.915956,-2,-1,63,0,0,0,85,87,131,120,67,153.88,229,-43.00,2.00,-976.00
2024-06-07 14:40:03.040743,-2,-1,63,0,0,0,85,87,131,120,67,153.81,229,-27.00,18.00,-1054.00
