TS,pitch,roll,yaw,vgx,vgy,vgz,templ,temph,tof,h,bat,baro,time,agx,agy,agz
2024-05-17 17:25:46.954903,0,0,-3,0,0,0,72,73,10,0,76,188.75,84,1.00,5.00,-1000.00
2024-05-17 17:25:47.005018,0,0,-3,0,0,0,72,73,10,0,76,188.71,84,1.00,5.00,-998.00
2024-05-17 17:25:47.103324,0,0,-3,0,0,0,72,73,10,0,76,188.72,84,1.00,5.00,-999.00
2024-05-17 17:25:47.261149,0,0,-3,0,0,0,72,73,10,0,76,188.71,84,1.00,5.00,-998.00
2024-05-17 17:25:47.261329,0,0,-3,0,0,0,72,73,10,0,76,188.74,84,0.00,7.00,-1000.00
2024-05-17 17:25:47.358853,0,0,-3,0,0,0,72,73,10,0,76,188.79,84,1.00,7.00,-1000.00
2024-05-17 17:25:47.461346,0,0,-3,0,0,0,72,73,10,0,76,188.80,84,1.00,6.00,-1001.00
2024-05-17 17:25:47.564084,0,0,-3,0,0,0,72,73,10,0,76,188.71,84,1.00,6.00,-998.00
2024-05-17 17:25:47.666080,0,0,-3,0,0,0,72,73,10,0,76,188.73,84,0.00,7.00,-999.00
2024-05-17 17:25:47.765764,0,0,-3,0,0,0,72,73,10,0,76,188.77,84,1.00,8.00,-999.00
2024-05-17 17:25:47.882903,0,0,-3,0,0,0,72,74,10,0,76,188.79,84,3.00,8.00,-1001.00
2024-05-17 17:25:47.969727,0,0,-3,0,0,0,72,74,10,0,76,188.72,84,0.00,6.00,-1002.00
2024-05-17 17:25:48.071885,0,0,-3,0,0,0,72,74,10,0,76,188.71,84,0.00,5.00,-998.00
2024-05-17 17:25:48.182718,0,0,-3,0,0,0,72,74,10,0,76,188.71,84,1.00,5.00,-999.00
2024-05-17 17:25:48.276893,0,0,-3,0,0,0,72,74,10,0,76,188.70,84,0.00,5.00,-997.00
2024-05-17 17:25:48.387396,0,0,-3,0,0,0,72,74,10,0,76,188.74,84,2.00,5.00,-1001.00
2024-05-17 17:25:48.482700,0,0,-3,0,0,0,72,74,10,0,76,188.75,84,1.00,7.00,-1000.00
2024-05-17 17:25:48.583210,0,0,-3,0,0,0,72,74,10,0,76,188.76,84,1.00,7.00,-1001.00
2024-05-17 17:25:48.696519,0,0,-3,0,0,0,72,74,10,0,76,188.74,84,0.00,6.00,-1000.00
2024-05-17 17:25:48.786903,0,0,-3,0,0,0,72,74,10,0,76,188.73,84,1.00,8.00,-998.00
2024-05-17 17:25:48.901861,0,0,-3,0,0,0,72,74,10,0,76,188.75,84,0.00,6.00,-1000.00
2024-05-17 17:25:48.990865,0,0,-3,0,0,0,72,74,10,0,76,188.74,84,1.00,7.00,-1001.00
2024-05-17 17:25:49.105757,0,0,-3,0,0,0,72,74,10,0,76,188.68,84,0.00,7.00,-999.00
2024-05-17 17:25:49.194933,0,0,-3,0,0,0,72,74,10,0,76,188.70,84,1.00,6.00,-998.00
2024-05-17 17:25:49.310606,0,0,-3,0,0,0,72,74,10,0,76,188.71,84,0.00,5.00,-999.00
2024-05-17 17:25:49.398865,0,0,-3,0,0,0,72,74,10,0,76,188.71,84,0.00,6.00,-1002.00
2024-05-17 17:25:49.519309,0,0,-3,0,0,0,72,74,10,0,76,188.77,84,1.00,7.00,-1003.00
2024-05-17 17:25:49.602961,0,0,-3,0,0,0,72,74,10,0,76,188.69,84,0.00,6.00,-1000.00
2024-05-17 17:25:49.718596,0,0,-3,0,0,0,72,74,10,0,76,188.74,84,1.00,5.00,-1000.00
2024-05-17 17:25:49.806976,0,0,-3,0,0,0,72,74,10,0,76,188.72,84,0.00,6.00,-1000.00
2024-05-17 17:25:49.925912,0,0,-3,0,0,0,72,74,10,0,76,188.70,84,1.00,5.00,-999.00
2024-05-17 17:25:50.010928,0,0,-3,0,0,0,72,74,10,0,76,188.73,84,1.00,5.00,-1000.00
2024-05-17 17:25:50.113904,0,0,-3,0,0,0,72,74,10,0,76,188.75,84,1.00,5.00,-999.00
2024-05-17 17:25:50.214808,0,0,-3,0,0,0,72,74,10,0,76,188.75,84,0.00,6.00,-1001.00
2024-05-17 17:25:50.316769,0,0,-3,0,0,0,72,74,10,0,76,188.75,84,1.00,5.00,-1001.00
2024-05-17 17:25:50.435601,0,0,-3,0,0,0,72,74,10,0,76,188.75,84,1.00,7.00,-1001.00
2024-05-17 17:25:50.520674,0,0,-3,0,0,0,72,74,10,0,76,188.73,84,0.00,6.00,-999.00
2024-05-17 17:25:50.625698,0,0,-3,0,0,0,72,74,10,0,76,188.74,84,1.00,6.00,-998.00
2024-05-17 17:25:50.724694,0,0,-3,0,0,0,72,74,10,0,76,188.74,84,3.00,6.00,-1000.00
2024-05-17 17:25:50.775536,0,0,-3,0,0,0,72,74,10,0,76,188.74,85,0.00,14.00,-1002.00
2024-05-17 17:25:50.947177,0,0,-3,0,0,0,73,74,10,0,76,188.74,85,-5.00,6.00,-1001.00
2024-05-17 17:25:50.979558,0,0,-3,0,0,0,73,74,10,0,76,188.74,85,2.00,-1.00,-1000.00
2024-05-17 17:25:51.153072,0,0,-2,0,0,0,73,74,10,0,76,188.74,85,-19.00,24.00,-1062.00
2024-05-17 17:25:51.183539,0,0,-2,0,0,-1,73,74,10,0,76,188.74,85,-2.00,4.00,-1152.00
2024-05-17 17:25:51.357521,-1,0,-2,0,0,-3,73,74,10,0,76,188.74,85,-12.00,-8.00,-1302.00
2024-05-17 17:25:51.387559,0,0,-2,0,0,-6,73,74,11,0,76,188.74,85,-14.00,-6.00,-1233.00
2024-05-17 17:25:51.492610,0,0,-2,0,0,-8,73,74,19,10,76,189.07,85,-23.00,-12.00,-1070.00
2024-05-17 17:25:51.591616,0,0,-2,0,0,-8,73,74,27,20,76,189.16,85,-8.00,1.00,-991.00
2024-05-17 17:25:51.768427,0,1,-2,0,0,-8,73,74,35,30,76,189.22,85,-3.00,17.00,-950.00
2024-05-17 17:25:51.795697,0,0,-2,0,0,-7,73,74,43,30,76,189.30,86,-5.00,11.00,-933.00
2024-05-17 17:25:51.972487,0,0,-2,0,0,-6,72,75,50,40,76,189.36,86,12.00,-12.00,-898.00
2024-05-17 17:25:51.999562,0,0,-2,0,0,-5,72,75,56,50,76,189.44,86,-16.00,14.00,-885.00
2024-05-17 17:25:52.176012,0,0,-2,0,0,-4,72,75,59,50,76,189.57,86,-30.00,0.00,-886.00
2024-05-17 17:25:52.203532,0,0,-2,0,0,-3,72,75,63,60,76,189.56,86,24.00,-14.00,-910.00
2024-05-17 17:25:52.382169,0,0,-2,0,0,-2,72,75,65,60,76,189.64,86,-7.00,12.00,-934.00
2024-05-17 17:25:52.408811,0,0,-2,0,0,-1,72,75,68,60,76,189.65,86,7.00,-13.00,-930.00
2024-05-17 17:25:52.585494,0,0,-2,0,0,-1,72,75,69,60,76,189.67,86,0.00,-3.00,-949.00
2024-05-17 17:25:52.611864,0,0,-2,0,0,0,72,75,70,60,76,189.66,86,3.00,-1.00,-968.00
2024-05-17 17:25:52.791865,0,0,-2,0,0,0,72,75,71,60,76,189.68,86,-14.00,15.00,-1001.00
2024-05-17 17:25:52.815540,0,0,-2,0,0,0,72,75,72,60,76,189.71,87,8.00,9.00,-1022.00
2024-05-17 17:25:53.000981,0,0,-2,0,0,0,72,75,74,60,76,189.66,87,-12.00,-1.00,-980.00
2024-05-17 17:25:53.022367,0,0,-2,0,0,0,72,75,75,70,76,189.62,87,-8.00,11.00,-1003.00
2024-05-17 17:25:53.123703,0,0,-2,0,0,0,72,75,76,70,76,189.75,87,-7.00,19.00,-1008.00
2024-05-17 17:25:53.223541,0,0,-2,0,0,-1,72,75,78,70,76,189.68,87,0.00,-3.00,-991.00
2024-05-17 17:25:53.326481,0,0,-2,0,0,0,72,75,79,70,76,189.72,87,-2.00,2.00,-977.00
2024-05-17 17:25:53.429418,0,0,-2,0,0,0,72,75,80,70,76,189.68,87,-3.00,35.00,-1033.00
2024-05-17 17:25:53.529513,0,0,-2,0,0,0,72,75,81,70,76,189.69,87,-20.00,17.00,-967.00
2024-05-17 17:25:53.712542,0,-1,-2,0,0,0,72,75,81,70,76,189.72,87,-6.00,16.00,-992.00
2024-05-17 17:25:53.733492,0,0,-2,0,0,0,72,75,82,70,76,189.83,87,-9.00,19.00,-992.00
2024-05-17 17:25:53.916739,0,0,-2,0,0,0,72,75,82,70,76,189.85,88,-1.00,25.00,-1030.00
2024-05-17 17:25:53.938243,0,0,-2,0,0,0,73,75,82,70,76,189.81,88,8.00,-5.00,-976.00
2024-05-17 17:25:54.122853,0,0,-2,0,0,0,73,75,82,70,76,189.74,88,0.00,-1.00,-980.00
2024-05-17 17:25:54.141511,0,0,-2,0,0,0,73,75,82,70,76,189.83,88,8.00,-1.00,-986.00
2024-05-17 17:25:54.243442,0,0,-2,0,0,0,73,75,82,70,76,189.80,88,-8.00,8.00,-997.00
2024-05-17 17:25:54.345464,0,0,-2,0,0,0,73,75,82,70,76,189.77,88,-13.00,18.00,-1023.00
2024-05-17 17:25:54.447490,0,0,-2,0,0,0,73,75,82,70,76,189.79,88,1.00,11.00,-1010.00
2024-05-17 17:25:54.633627,0,0,-2,0,0,0,73,75,82,70,76,189.78,88,7.00,0.00,-995.00
2024-05-17 17:25:54.634056,0,0,-2,0,0,0,73,75,82,70,76,189.77,88,-8.00,7.00,-1002.00
2024-05-17 17:25:54.707671,0,0,-2,0,0,0,73,75,81,70,76,189.75,88,-3.00,4.00,-1011.00
2024-05-17 17:25:54.808106,0,0,-2,0,0,0,73,75,82,70,76,189.77,89,-11.00,0.00,-991.00
2024-05-17 17:25:54.960363,0,0,-2,0,0,0,72,75,82,70,76,189.82,89,3.00,12.00,-1037.00
2024-05-17 17:25:55.012033,0,0,-2,0,0,0,72,75,82,70,76,189.71,89,0.00,10.00,-1003.00
2024-05-17 17:25:55.110418,0,0,-2,0,0,0,72,75,82,70,76,189.74,89,-6.00,8.00,-993.00
2024-05-17 17:25:55.256092,0,0,-2,0,0,0,72,75,82,70,76,189.83,89,-2.00,14.00,-1010.00
2024-05-17 17:25:55.315037,0,0,-2,0,0,0,72,75,83,70,76,189.86,89,-1.00,14.00,-1004.00
2024-05-17 17:25:55.463678,0,0,-2,0,0,0,72,75,83,70,76,189.82,89,19.00,2.00,-1006.00
2024-05-17 17:25:55.518979,0,0,-2,0,0,0,72,75,84,70,76,189.81,89,10.00,4.00,-994.00
2024-05-17 17:25:55.661774,0,0,-2,0,0,0,72,75,84,70,76,189.80,89,-5.00,10.00,-995.00
2024-05-17 17:25:55.722658,0,0,-2,0,0,0,72,75,84,80,76,189.83,89,13.00,0.00,-1006.00
2024-05-17 17:25:55.825570,0,0,-2,0,0,0,72,75,84,80,76,189.87,90,0.00,22.00,-1013.00
2024-05-17 17:25:55.926902,0,0,-3,0,0,0,73,74,85,80,76,189.80,90,-9.00,18.00,-994.00
2024-05-17 17:25:56.067510,0,0,-3,0,0,0,73,74,84,80,76,189.88,90,18.00,-3.00,-1006.00
2024-05-17 17:25:56.135488,0,0,-3,0,0,0,73,74,85,80,76,189.81,90,-9.00,17.00,-1003.00
2024-05-17 17:25:56.237178,0,0,-2,0,0,0,73,74,84,80,76,189.82,90,0.00,13.00,-998.00
2024-05-17 17:25:56.334420,0,0,-2,0,0,0,73,74,84,80,76,189.90,90,-20.00,24.00,-995.00
2024-05-17 17:25:56.478301,0,0,-3,0,0,0,73,74,84,80,76,189.86,90,-3.00,9.00,-993.00
2024-05-17 17:25:56.539207,0,0,-3,0,0,0,73,74,84,80,76,189.79,90,-13.00,33.00,-986.00
2024-05-17 17:25:56.681788,0,0,-3,0,0,0,73,74,84,80,76,189.86,90,9.00,11.00,-996.00
2024-05-17 17:25:56.745664,0,-1,-3,0,0,0,73,74,83,80,76,189.86,90,8.00,17.00,-1018.00
2024-05-17 17:25:56.844353,0,-1,-3,0,0,0,73,74,83,80,76,189.87,91,0.00,1.00,-977.00
2024-05-17 17:25:56.989628,0,-1,-3,0,0,0,72,75,83,70,76,189.83,91,8.00,1.00,-985.00
2024-05-17 17:25:57.049856,0,-1,-2,0,0,0,72,75,83,70,76,189.78,91,6.00,5.00,-1017.00
2024-05-17 17:25:57.151309,0,-1,-3,0,0,0,72,75,83,70,76,189.87,91,-12.00,18.00,-988.00
2024-05-17 17:25:57.296900,0,-1,-3,0,0,0,72,75,82,70,76,189.84,91,-7.00,27.00,-993.00
2024-05-17 17:25:57.354290,0,-1,-3,0,0,0,72,75,82,70,76,189.79,91,-17.00,22.00,-997.00
2024-05-17 17:25:57.456367,0,-1,-3,0,0,0,72,75,82,70,76,189.80,91,0.00,8.00,-1008.00
2024-05-17 17:25:57.604196,0,-1,-3,0,0,0,72,75,82,70,76,189.82,91,-31.00,29.00,-1001.00
2024-05-17 17:25:57.660404,0,0,-3,0,0,0,72,75,82,70,76,189.91,91,-9.00,4.00,-992.00
2024-05-17 17:25:57.762444,0,0,-3,0,0,0,72,75,83,70,76,189.89,91,-14.00,15.00,-1010.00
2024-05-17 17:25:57.910370,0,0,-3,0,0,0,72,75,83,70,76,189.87,92,6.00,4.00,-987.00
2024-05-17 17:25:57.966291,0,-1,-3,0,0,0,72,74,83,70,76,189.90,92,-2.00,17.00,-1005.00
2024-05-17 17:25:58.116015,0,-1,-3,0,0,0,72,74,83,70,76,189.83,92,7.00,18.00,-999.00
2024-05-17 17:25:58.170344,0,-1,-3,0,0,0,72,74,82,70,76,189.84,92,-22.00,30.00,-994.00
2024-05-17 17:25:58.322370,0,0,-3,0,0,0,72,74,82,70,76,189.88,92,-2.00,21.00,-1030.00
2024-05-17 17:25:58.374692,0,-1,-3,0,0,0,72,74,82,70,76,189.87,92,-8.00,12.00,-987.00
2024-05-17 17:25:58.526093,0,-1,-3,0,0,0,72,74,82,70,76,189.85,92,-5.00,35.00,-1029.00
2024-05-17 17:25:58.578223,0,-1,-3,0,0,0,72,74,83,70,76,189.91,92,-9.00,10.00,-982.00
2024-05-17 17:25:58.630508,0,-1,-3,0,0,0,72,74,83,70,76,189.87,92,-4.00,28.00,-1016.00
2024-05-17 17:25:58.731247,0,-1,-3,0,0,0,72,74,83,70,76,189.88,92,-25.00,35.00,-1015.00
2024-05-17 17:25:58.854825,0,-1,-3,0,0,0,72,74,83,70,76,189.94,93,-3.00,21.00,-984.00
2024-05-17 17:25:58.935234,0,-1,-3,0,0,0,72,75,83,70,76,189.88,93,4.00,13.00,-966.00
2024-05-17 17:25:59.044543,0,-1,-3,0,0,0,72,75,83,70,76,189.91,93,19.00,6.00,-1008.00
2024-05-17 17:25:59.139239,0,-1,-3,0,0,0,72,75,83,70,76,189.88,93,-10.00,26.00,-992.00
2024-05-17 17:25:59.244905,0,-1,-3,0,0,0,72,75,83,70,76,189.88,93,-11.00,2.00,-965.00
2024-05-17 17:25:59.343643,0,-1,-3,0,0,0,72,75,83,70,76,189.87,93,-2.00,6.00,-978.00
2024-05-17 17:25:59.447764,0,-1,-3,0,0,0,72,75,83,70,76,189.91,93,-10.00,22.00,-991.00
2024-05-17 17:25:59.548553,0,-1,-3,0,0,0,72,75,83,70,76,189.90,93,0.00,27.00,-1019.00
2024-05-17 17:25:59.654999,0,-1,-3,0,0,0,72,75,82,70,76,189.84,93,-11.00,18.00,-1005.00
2024-05-17 17:25:59.751351,0,-1,-2,0,0,0,72,75,82,70,76,189.81,93,0.00,4.00,-982.00
2024-05-17 17:25:59.856638,0,-1,-3,0,0,0,72,75,82,70,76,189.88,94,-6.00,29.00,-1017.00
2024-05-17 17:25:59.955590,0,-1,-2,0,0,0,72,74,83,70,76,189.85,94,10.00,2.00,-960.00
2024-05-17 17:26:00.062117,0,-1,-2,0,0,0,72,74,83,70,76,189.85,94,-11.00,16.00,-989.00
2024-05-17 17:26:00.159383,0,-1,-2,0,0,0,72,74,84,70,76,189.84,94,-15.00,36.00,-1018.00
2024-05-17 17:26:00.265602,0,-1,-2,0,0,0,72,74,84,70,76,189.90,94,-7.00,33.00,-1005.00
2024-05-17 17:26:00.363740,0,-1,-2,0,0,0,72,74,83,70,76,189.87,94,1.00,20.00,-1000.00
2024-05-17 17:26:00.466569,0,-1,-2,0,0,0,72,74,83,70,76,189.81,94,5.00,13.00,-991.00
2024-05-17 17:26:00.573060,0,-1,-2,0,0,0,72,74,83,70,76,189.87,94,-11.00,12.00,-982.00
2024-05-17 17:26:00.671104,0,-1,-2,0,0,0,72,74,84,70,76,189.86,94,5.00,26.00,-1031.00
2024-05-17 17:26:00.771504,0,-1,-2,0,0,0,72,74,84,70,76,189.86,94,-6.00,17.00,-979.00
2024-05-17 17:26:00.873161,0,-1,-2,0,0,0,72,74,84,70,76,189.93,95,-4.00,14.00,-995.00
2024-05-17 17:26:00.983537,0,-1,-2,0,0,0,71,74,84,80,76,189.85,95,3.00,24.00,-1013.00
2024-05-17 17:26:01.077391,0,-1,-2,0,0,0,71,74,85,80,76,189.84,95,10.00,18.00,-995.00
2024-05-17 17:26:01.189508,0,0,-2,0,0,0,71,74,84,80,76,189.84,95,-13.00,25.00,-990.00
2024-05-17 17:26:01.281346,0,0,-2,0,0,0,71,74,85,80,76,189.83,95,5.00,30.00,-1024.00
2024-05-17 17:26:01.383110,0,0,-2,0,0,0,71,74,85,80,76,189.88,95,17.00,16.00,-1052.00
2024-05-17 17:26:01.485132,0,-1,-2,0,0,-1,71,74,86,80,76,189.85,95,-8.00,19.00,-1085.00
2024-05-17 17:26:01.596735,0,-1,-2,0,0,-2,71,74,87,80,76,189.86,95,3.00,22.00,-1143.00
2024-05-17 17:26:01.689105,0,-1,-2,0,0,-3,71,74,90,80,76,189.93,95,-13.00,38.00,-1100.00
2024-05-17 17:26:01.791410,0,-1,-2,0,0,-3,71,74,94,80,76,189.97,96,3.00,27.00,-1086.00
2024-05-17 17:26:01.903945,0,-1,-2,0,0,-4,71,74,98,90,76,190.02,96,-5.00,40.00,-1111.00
2024-05-17 17:26:01.996050,0,-1,-2,0,0,-5,71,74,102,90,76,190.04,96,-10.00,20.00,-1046.00
2024-05-17 17:26:02.109371,0,-1,-2,0,0,-5,71,74,107,100,76,190.12,96,-1.00,33.00,-1022.00
2024-05-17 17:26:02.200340,0,-1,-2,0,0,-5,71,74,113,110,76,190.13,96,-5.00,9.00,-990.00
2024-05-17 17:26:02.314241,0,-1,-2,0,0,-5,71,74,118,110,76,190.26,96,2.00,21.00,-1013.00
2024-05-17 17:26:02.352237,0,-1,-2,0,0,-5,71,74,124,120,76,190.25,96,0.00,19.00,-992.00
2024-05-17 17:26:02.518300,0,-1,-3,0,0,-5,71,74,130,120,76,190.27,96,-4.00,19.00,-974.00
2024-05-17 17:26:02.556147,0,-1,-3,0,0,-5,71,74,135,130,76,190.34,96,-3.00,26.00,-982.00
2024-05-17 17:26:02.725986,0,-1,-3,0,0,-4,71,74,139,130,76,190.40,96,-5.00,28.00,-976.00
2024-05-17 17:26:02.760041,0,-1,-3,0,0,-4,71,74,144,140,76,190.47,97,-13.00,28.00,-969.00
2024-05-17 17:26:02.929022,0,-1,-2,0,0,-4,71,74,149,140,76,190.46,97,-12.00,18.00,-964.00
2024-05-17 17:26:02.968826,0,-1,-2,0,0,-3,72,73,153,140,76,190.50,97,-4.00,16.00,-968.00
2024-05-17 17:26:03.067799,0,-1,-3,0,0,-3,72,73,157,150,76,190.48,97,-1.00,13.00,-964.00
2024-05-17 17:26:03.168044,0,-1,-3,0,0,-3,72,73,160,150,76,190.60,97,-2.00,22.00,-974.00
2024-05-17 17:26:03.343542,0,-1,-3,0,0,-2,72,73,164,150,76,190.66,97,-8.00,11.00,-953.00
2024-05-17 17:26:03.376597,0,-1,-3,0,0,-2,72,73,167,160,76,190.68,97,-8.00,20.00,-976.00
2024-05-17 17:26:03.483899,0,-1,-3,0,0,-2,72,73,169,160,76,190.64,97,0.00,11.00,-975.00
2024-05-17 17:26:03.576030,0,-1,-3,0,0,-2,72,73,172,160,76,190.70,97,3.00,16.00,-962.00
2024-05-17 17:26:03.747098,0,-1,-2,0,0,-1,72,73,174,160,76,190.63,97,20.00,2.00,-981.00
2024-05-17 17:26:03.780606,0,-1,-2,0,0,-1,72,73,175,170,76,190.70,98,3.00,14.00,-976.00
2024-05-17 17:26:03.952613,0,-1,-2,0,0,-1,72,73,177,170,76,190.72,98,-1.00,4.00,-961.00
2024-05-17 17:26:03.985725,0,-1,-3,0,0,-1,71,73,179,170,76,190.75,98,-21.00,38.00,-997.00
2024-05-17 17:26:04.086294,0,-1,-3,0,0,-1,71,73,180,170,76,190.79,98,5.00,30.00,-974.00
2024-05-17 17:26:04.188215,0,-1,-3,0,0,0,71,73,181,170,76,190.66,98,16.00,20.00,-998.00
2024-05-17 17:26:04.362240,0,-1,-3,0,0,0,71,73,182,170,76,190.76,98,-3.00,21.00,-959.00
2024-05-17 17:26:04.392442,0,-1,-3,0,0,0,71,73,182,170,76,190.78,98,-9.00,19.00,-960.00
2024-05-17 17:26:04.566302,0,-1,-3,0,0,0,71,73,183,170,76,190.76,98,-14.00,25.00,-976.00
2024-05-17 17:26:04.596596,0,-1,-3,0,0,0,71,73,183,170,76,190.76,98,0.00,24.00,-985.00
2024-05-17 17:26:04.771240,0,-1,-3,0,0,0,71,73,183,170,76,190.76,98,0.00,13.00,-979.00
2024-05-17 17:26:04.800041,0,-1,-2,0,0,0,71,73,183,170,76,190.76,99,-2.00,30.00,-993.00
2024-05-17 17:26:04.975981,1,-1,-2,0,0,0,71,73,184,170,76,190.87,99,0.00,24.00,-997.00
2024-05-17 17:26:05.004368,1,-1,-2,0,0,0,71,74,184,170,76,190.74,99,18.00,21.00,-1016.00
2024-05-17 17:26:05.181354,0,-1,-2,0,0,0,71,74,184,170,76,190.76,99,-7.00,28.00,-983.00
2024-05-17 17:26:05.208460,0,-1,-2,0,0,0,71,74,184,170,76,190.82,99,6.00,33.00,-1028.00
2024-05-17 17:26:05.387582,0,-1,-2,0,0,0,71,74,184,170,76,190.75,99,5.00,14.00,-994.00
2024-05-17 17:26:05.412235,0,-1,-2,0,0,0,71,74,184,170,76,190.84,99,1.00,19.00,-981.00
2024-05-17 17:26:05.590824,0,-1,-2,0,0,0,71,74,185,170,76,190.75,99,3.00,16.00,-1000.00
2024-05-17 17:26:05.616023,0,-1,-2,0,0,0,71,74,185,170,76,190.78,99,0.00,34.00,-995.00
2024-05-17 17:26:05.795245,0,-1,-2,0,0,0,71,74,184,170,76,190.82,99,9.00,17.00,-991.00
2024-05-17 17:26:05.820219,1,-1,-2,0,0,0,71,74,185,170,76,190.80,100,17.00,23.00,-1012.00
2024-05-17 17:26:05.999973,1,-1,-2,0,0,0,71,74,185,170,76,190.78,100,-9.00,31.00,-990.00
2024-05-17 17:26:06.024863,1,-1,-2,0,0,0,71,74,185,170,76,190.84,100,10.00,18.00,-988.00
2024-05-17 17:26:06.140520,1,-1,-2,0,0,0,71,74,185,170,76,190.83,100,2.00,29.00,-1015.00
2024-05-17 17:26:06.230158,0,-1,-2,0,0,0,71,74,185,170,76,190.81,100,9.00,14.00,-984.00
2024-05-17 17:26:06.330139,0,-1,-2,0,0,0,71,74,185,170,76,190.79,100,7.00,21.00,-975.00
2024-05-17 17:26:06.511845,0,-1,-2,0,0,0,71,74,184,170,76,190.75,100,12.00,15.00,-936.00
2024-05-17 17:26:06.534873,0,-1,-2,0,0,1,71,74,183,170,76,190.70,100,12.00,10.00,-937.00
2024-05-17 17:26:06.716651,1,-1,-2,0,0,1,71,74,182,170,76,190.81,100,-3.00,23.00,-951.00
2024-05-17 17:26:06.738804,0,-1,-2,0,0,1,71,74,180,170,76,190.81,100,-6.00,31.00,-962.00
2024-05-17 17:26:06.797599,1,-1,-2,0,0,2,71,74,178,170,76,190.73,101,-21.00,33.00,-981.00
2024-05-17 17:26:06.891976,0,-1,-2,0,0,2,71,74,176,170,76,190.77,101,15.00,17.00,-1007.00
2024-05-17 17:26:07.023948,0,-1,-2,0,0,2,71,74,173,160,76,190.69,101,9.00,3.00,-961.00
2024-05-17 17:26:07.095804,0,-1,-2,0,0,2,71,74,171,160,76,190.66,101,-12.00,20.00,-989.00
2024-05-17 17:26:07.228679,0,-1,-2,0,0,2,71,74,169,160,76,190.64,101,7.00,32.00,-1005.00
2024-05-17 17:26:07.299829,0,-1,-2,0,0,2,71,74,166,160,76,190.66,101,-5.00,35.00,-1014.00
2024-05-17 17:26:07.403973,0,-1,-2,0,0,2,71,74,164,150,76,190.58,101,-10.00,25.00,-1003.00
2024-05-17 17:26:07.503886,0,-1,-2,0,0,2,71,74,161,150,76,190.58,101,12.00,19.00,-1012.00
2024-05-17 17:26:07.638263,1,-1,-2,0,0,2,71,74,158,150,76,190.48,101,-10.00,37.00,-1018.00
2024-05-17 17:26:07.710518,0,-1,-2,0,0,2,71,74,156,150,76,190.53,101,-4.00,15.00,-1008.00
2024-05-17 17:26:07.809841,0,-1,-3,0,0,2,71,74,154,150,76,190.47,102,-7.00,19.00,-977.00
2024-05-17 17:26:07.947560,0,-1,-3,0,0,2,71,74,152,140,76,190.53,102,-5.00,11.00,-999.00
2024-05-17 17:26:08.013921,0,-1,-3,0,0,1,72,73,151,140,76,190.43,102,-21.00,32.00,-1013.00
2024-05-17 17:26:08.116146,0,-1,-2,0,0,1,72,73,149,140,76,190.45,102,0.00,26.00,-1019.00
2024-05-17 17:26:08.217923,0,-1,-2,0,0,1,72,73,147,140,76,190.47,102,-14.00,26.00,-1011.00
2024-05-17 17:26:08.319839,0,-1,-2,0,0,1,72,73,146,140,76,190.40,102,0.00,16.00,-991.00
2024-05-17 17:26:08.421811,1,-1,-3,0,0,1,72,73,144,140,76,190.48,102,-16.00,23.00,-1001.00
2024-05-17 17:26:08.523879,1,-1,-3,0,0,1,72,73,144,130,76,190.42,102,-6.00,23.00,-1004.00
2024-05-17 17:26:08.664069,0,-1,-3,0,0,1,72,73,142,130,76,190.41,102,7.00,22.00,-1009.00
2024-05-17 17:26:08.727684,0,-1,-3,0,0,1,72,73,141,130,76,190.45,102,3.00,4.00,-1006.00
2024-05-17 17:26:08.867265,0,-1,-3,0,0,0,72,73,140,130,76,190.40,103,6.00,9.00,-1012.00
2024-05-17 17:26:08.932012,0,-1,-3,0,0,0,72,73,140,130,76,190.41,103,-2.00,21.00,-992.00
2024-05-17 17:26:09.071857,0,-1,-2,0,0,0,71,74,140,130,76,190.35,103,-7.00,18.00,-993.00
2024-05-17 17:26:09.136139,1,-1,-2,0,0,0,71,74,139,130,76,190.41,103,1.00,27.00,-1026.00
2024-05-17 17:26:09.238307,1,-1,-2,0,0,0,71,74,138,130,76,190.38,103,7.00,23.00,-1023.00
2024-05-17 17:26:09.381249,1,-1,-3,0,0,0,71,74,138,130,76,190.40,103,3.00,28.00,-1029.00
2024-05-17 17:26:09.441858,1,-1,-2,0,0,0,71,74,138,130,76,190.43,103,23.00,29.00,-1022.00
2024-05-17 17:26:09.585306,1,-1,-2,0,0,0,71,74,138,130,76,190.37,103,17.00,17.00,-1002.00
2024-05-17 17:26:09.647786,1,-1,-2,0,0,0,71,74,137,130,76,190.34,103,11.00,20.00,-1009.00
2024-05-17 17:26:09.749772,1,-1,-2,0,0,0,71,74,137,130,76,190.33,103,0.00,20.00,-1002.00
2024-05-17 17:26:09.849859,1,-1,-2,0,0,0,71,74,137,130,76,190.35,104,18.00,38.00,-1015.00
2024-05-17 17:26:09.995569,1,-1,-2,0,0,0,71,74,137,130,76,190.41,104,5.00,22.00,-998.00
2024-05-17 17:26:10.059572,1,-1,-2,0,0,0,72,73,137,130,76,190.37,104,-16.00,31.00,-972.00
2024-05-17 17:26:10.155875,1,-1,-2,0,0,0,72,73,137,130,76,190.41,104,-7.00,35.00,-1006.00
2024-05-17 17:26:10.302033,0,-1,-2,0,0,0,72,73,137,130,76,190.37,104,18.00,10.00,-1009.00
2024-05-17 17:26:10.359890,0,-1,-2,0,0,0,72,73,137,130,76,190.42,104,2.00,14.00,-985.00
2024-05-17 17:26:10.463287,0,-1,-2,0,0,0,72,73,137,130,76,190.39,104,1.00,35.00,-1009.00
2024-05-17 17:26:10.573639,0,-1,-2,0,0,0,72,73,137,130,76,190.36,104,12.00,18.00,-1006.00
2024-05-17 17:26:10.614791,0,-1,-2,0,0,0,72,73,137,130,76,190.37,104,-9.00,30.00,-1000.00
2024-05-17 17:26:10.814650,0,-1,-2,0,0,0,72,73,137,130,76,190.44,104,0.00,31.00,-1017.00
2024-05-17 17:26:10.819230,0,-1,-2,0,0,0,72,73,137,130,76,190.41,105,10.00,16.00,-999.00
2024-05-17 17:26:11.017970,0,-1,-2,0,0,0,72,73,137,130,76,190.39,105,19.00,14.00,-1009.00
2024-05-17 17:26:11.023371,0,-1,-2,0,0,0,71,73,137,130,76,190.44,105,11.00,29.00,-1007.00
2024-05-17 17:26:11.126589,0,-1,-2,0,0,0,71,73,137,130,76,190.46,105,-13.00,24.00,-991.00
2024-05-17 17:26:11.226643,0,-1,-2,0,0,0,71,73,137,130,76,190.44,105,0.00,10.00,-993.00
2024-05-17 17:26:11.328901,0,-1,-2,0,0,0,71,73,137,130,76,190.37,105,5.00,32.00,-1006.00
2024-05-17 17:26:11.430889,-7,0,-2,0,0,0,71,73,140,130,76,190.43,105,8.00,18.00,-992.00
2024-05-17 17:26:11.532845,-8,0,-2,1,0,0,71,73,140,130,76,190.43,105,-7.00,16.00,-997.00
2024-05-17 17:26:11.634647,-8,0,-2,3,0,0,71,73,140,130,76,190.41,105,-45.00,25.00,-971.00
2024-05-17 17:26:11.736643,-7,0,-2,4,0,0,71,73,138,130,76,190.36,105,-19.00,15.00,-1006.00
2024-05-17 17:26:11.838608,-6,-1,-2,5,0,0,71,73,139,130,76,190.31,106,-20.00,23.00,-1017.00
2024-05-17 17:26:11.946761,-5,0,-3,6,0,0,71,73,135,130,76,190.33,106,-37.00,14.00,-997.00
2024-05-17 17:26:12.042919,-4,0,-3,7,0,0,71,73,136,130,76,190.39,106,-43.00,20.00,-982.00
2024-05-17 17:26:12.145085,-3,0,-3,7,0,0,71,73,138,130,76,190.37,106,-23.00,5.00,-1017.00
2024-05-17 17:26:12.247561,0,-1,-3,8,0,0,71,73,137,130,76,190.32,106,-41.00,23.00,-1012.00
2024-05-17 17:26:12.352002,2,-1,-3,7,0,0,71,73,138,130,76,190.33,106,-51.00,26.00,-1009.00
2024-05-17 17:26:12.460229,4,-1,-3,6,0,0,71,73,137,130,76,190.23,106,-26.00,11.00,-1019.00
2024-05-17 17:26:12.553763,5,-1,-3,5,0,0,71,73,137,130,76,190.44,106,-21.00,8.00,-1008.00
2024-05-17 17:26:12.655932,4,-1,-3,4,0,0,71,73,137,130,76,190.40,106,-45.00,23.00,-1024.00
2024-05-17 17:26:12.760056,2,0,-3,3,0,0,71,73,136,130,76,190.36,106,-24.00,5.00,-970.00
2024-05-17 17:26:12.858558,1,0,-3,3,0,0,71,73,135,130,76,190.42,107,-33.00,19.00,-971.00
2024-05-17 17:26:12.963467,0,0,-2,2,0,0,71,73,135,130,76,190.39,107,-38.00,31.00,-994.00
2024-05-17 17:26:13.065182,0,-1,-2,2,0,0,72,74,135,130,76,190.43,107,-29.00,30.00,-1000.00
2024-05-17 17:26:13.168678,0,-1,-2,2,0,0,72,74,135,130,76,190.46,107,-17.00,21.00,-971.00
2024-05-17 17:26:13.270436,0,-3,-2,2,0,0,72,74,136,130,76,190.43,107,-21.00,42.00,-1028.00
2024-05-17 17:26:13.368701,1,-5,-3,2,0,0,72,74,136,130,76,190.50,107,-20.00,25.00,-1027.00
2024-05-17 17:26:13.470891,1,-5,-3,1,0,0,72,74,136,130,76,190.46,107,-24.00,13.00,-1021.00
2024-05-17 17:26:13.574163,3,0,-3,1,-1,0,72,74,136,130,76,190.50,107,-11.00,40.00,-984.00
2024-05-17 17:26:13.674964,2,1,-3,0,0,0,72,74,134,130,76,190.41,107,7.00,16.00,-1009.00
2024-05-17 17:26:13.778834,1,0,-3,0,0,0,72,74,135,130,76,190.37,107,-13.00,29.00,-1004.00
2024-05-17 17:26:13.883040,0,0,-2,0,0,0,72,74,135,130,76,190.46,108,4.00,16.00,-1011.00
2024-05-17 17:26:13.984740,0,-1,-2,0,0,0,72,74,135,130,76,190.39,108,-2.00,22.00,-1004.00
2024-05-17 17:26:14.082636,0,-1,-2,0,0,0,72,73,135,130,76,190.49,108,-12.00,28.00,-1001.00
2024-05-17 17:26:14.192049,0,-1,-2,0,0,0,72,73,135,130,76,190.41,108,-12.00,22.00,-993.00
2024-05-17 17:26:14.286544,0,-1,-2,0,0,0,72,73,135,130,76,190.37,108,2.00,17.00,-1013.00
2024-05-17 17:26:14.388626,0,-1,-2,0,0,0,72,73,135,130,76,190.45,108,-11.00,38.00,-999.00
2024-05-17 17:26:14.439568,0,-1,-3,0,0,0,72,73,135,130,76,190.42,108,-15.00,20.00,-987.00
2024-05-17 17:26:14.601602,0,-1,-3,0,0,0,72,73,135,130,76,190.37,108,-4.00,20.00,-1001.00
2024-05-17 17:26:14.643669,0,-1,-3,0,0,0,72,73,136,130,76,190.43,108,-1.00,4.00,-1000.00
2024-05-17 17:26:14.746453,0,-1,-3,0,0,0,72,73,136,130,76,190.36,108,-3.00,33.00,-1018.00
2024-05-17 17:26:14.847836,0,-1,-3,0,0,0,72,73,136,130,76,190.36,109,-37.00,24.00,-980.00
2024-05-17 17:26:15.018598,0,-1,-3,0,0,0,72,73,137,130,76,190.36,109,-8.00,4.00,-1012.00
2024-05-17 17:26:15.051603,0,0,-2,0,0,0,71,74,137,130,76,190.39,109,-4.00,9.00,-981.00
2024-05-17 17:26:15.215838,0,0,-3,0,0,0,71,74,138,130,76,190.48,109,-31.00,26.00,-981.00
2024-05-17 17:26:15.256319,0,-1,-2,0,0,0,71,74,139,130,76,190.42,109,-8.00,24.00,-998.00
2024-05-17 17:26:15.426210,0,-1,-2,0,0,0,71,74,139,130,76,190.47,109,2.00,11.00,-985.00
2024-05-17 17:26:15.459724,0,-1,-2,0,0,0,71,74,138,130,76,190.50,109,5.00,13.00,-978.00
2024-05-17 17:26:15.625558,0,-1,-2,0,0,0,71,74,137,130,76,190.44,109,-9.00,21.00,-1004.00
2024-05-17 17:26:15.663830,0,-1,-2,0,0,0,71,74,138,130,76,190.52,109,-10.00,31.00,-1017.00
2024-05-17 17:26:15.830575,2,-1,-2,0,0,0,71,74,138,130,76,190.43,110,9.00,32.00,-1000.00
2024-05-17 17:26:15.870067,7,-1,-2,-1,0,0,71,74,138,130,76,190.44,110,-10.00,31.00,-1008.00
2024-05-17 17:26:15.969427,8,-1,-3,-2,0,0,71,74,140,130,76,190.41,110,-20.00,25.00,-1011.00
2024-05-17 17:26:16.137343,8,-1,-3,-3,0,0,71,73,140,130,76,190.39,110,8.00,20.00,-1034.00
2024-05-17 17:26:16.173309,7,-1,-2,-5,0,0,71,73,139,130,76,190.51,110,-11.00,41.00,-1006.00
2024-05-17 17:26:16.342169,6,0,-2,-6,0,0,71,73,138,130,76,190.46,110,5.00,20.00,-995.00
2024-05-17 17:26:16.378829,6,0,-2,-7,0,0,71,73,138,130,76,190.51,110,13.00,31.00,-999.00
2024-05-17 17:26:16.546964,5,0,-2,-7,0,0,71,73,139,130,76,190.41,110,31.00,8.00,-988.00
2024-05-17 17:26:16.581914,3,-1,-2,-7,0,0,71,73,139,130,76,190.39,110,38.00,6.00,-1004.00
2024-05-17 17:26:16.754677,0,-1,-2,-7,0,0,71,73,139,130,76,190.44,110,53.00,6.00,-1009.00
2024-05-17 17:26:16.787327,-1,-1,-2,-7,0,0,71,73,140,130,76,190.39,111,47.00,-1.00,-967.00
2024-05-17 17:26:16.887532,-3,0,-2,-6,0,0,71,73,140,130,76,190.45,111,54.00,-8.00,-996.00
2024-05-17 17:26:17.058990,-4,0,-2,-5,0,0,71,73,137,130,76,190.50,111,46.00,9.00,-1002.00
2024-05-17 17:26:17.092206,-3,0,-2,-4,0,0,71,73,138,130,76,190.47,111,42.00,14.00,-999.00
2024-05-17 17:26:17.264559,-1,0,-2,-3,0,0,71,73,139,130,76,190.47,111,22.00,0.00,-997.00
2024-05-17 17:26:17.295427,0,0,-3,-3,0,0,71,73,139,130,76,190.41,111,30.00,1.00,-993.00
2024-05-17 17:26:17.399856,0,0,-3,-2,0,0,71,73,138,130,76,190.47,111,41.00,9.00,-1020.00
2024-05-17 17:26:17.499348,0,0,-2,-2,0,0,71,73,138,130,76,190.48,111,24.00,13.00,-987.00
2024-05-17 17:26:17.676634,0,0,-2,-2,0,0,71,73,138,130,76,190.44,111,21.00,6.00,-1020.00
2024-05-17 17:26:17.703317,0,-1,-3,-2,0,0,71,73,138,130,76,190.46,111,-1.00,34.00,-1015.00
2024-05-17 17:26:17.754538,0,-1,-3,-2,0,0,71,73,138,130,76,190.46,112,1.00,7.00,-972.00
2024-05-17 17:26:17.879542,0,-1,-2,-2,0,0,71,73,138,130,76,190.48,112,24.00,4.00,-967.00
2024-05-17 17:26:17.958729,0,-1,-2,-1,0,0,71,73,138,130,76,190.55,112,13.00,9.00,-993.00
2024-05-17 17:26:18.111513,-1,0,-2,-1,0,0,71,73,139,130,76,190.50,112,28.00,11.00,-1016.00
2024-05-17 17:26:18.287661,-3,0,-2,-1,0,0,71,73,138,130,76,190.47,112,21.00,13.00,-1007.00
2024-05-17 17:26:18.315325,-1,-1,-2,0,0,0,71,73,138,130,76,190.46,112,0.00,29.00,-1038.00
2024-05-17 17:26:18.419195,0,-1,-2,0,0,0,71,73,138,130,76,190.44,112,-1.00,29.00,-1001.00
2024-05-17 17:26:18.519624,0,-1,-2,0,0,0,71,73,137,130,76,190.51,112,0.00,14.00,-992.00
2024-05-17 17:26:18.697460,0,-1,-2,0,0,0,71,73,137,130,76,190.50,112,4.00,12.00,-993.00
2024-05-17 17:26:18.698163,0,-1,-2,0,0,0,71,73,137,130,76,190.50,112,8.00,3.00,-1007.00
2024-05-17 17:26:18.774596,0,0,-2,0,0,0,71,73,137,130,76,190.48,113,-4.00,26.00,-1034.00
2024-05-17 17:26:18.906494,0,0,-2,0,0,0,71,73,137,130,76,190.42,113,3.00,32.00,-1021.00
2024-05-17 17:26:18.978607,0,0,-2,0,0,0,71,73,137,130,76,190.45,113,-9.00,24.00,-995.00
2024-05-17 17:26:19.107753,0,0,-2,0,0,0,72,73,137,130,76,190.48,113,-15.00,37.00,-1003.00
2024-05-17 17:26:19.182694,0,0,-2,0,0,0,72,73,137,130,76,190.52,113,-1.00,22.00,-998.00
2024-05-17 17:26:19.286512,1,-1,-2,0,0,0,72,73,138,130,76,190.52,113,-2.00,32.00,-1022.00
2024-05-17 17:26:19.386819,1,-1,-2,0,0,0,72,73,138,130,76,190.47,113,13.00,25.00,-1007.00
2024-05-17 17:26:19.497193,1,-1,-2,0,0,0,72,73,138,130,76,190.48,113,0.00,13.00,-988.00
2024-05-17 17:26:19.590329,1,-1,-2,0,0,0,72,73,138,130,76,190.49,113,9.00,21.00,-1001.00
2024-05-17 17:26:19.722381,0,-1,-2,0,0,0,72,73,138,130,76,190.44,113,24.00,5.00,-994.00
2024-05-17 17:26:19.794256,0,-1,-2,0,0,0,72,73,138,130,76,190.52,114,4.00,20.00,-988.00
2024-05-17 17:26:19.943234,1,-1,-2,0,0,0,72,73,138,130,76,190.53,114,8.00,38.00,-1007.00
2024-05-17 17:26:20.010956,1,-1,-2,0,0,0,72,73,138,130,76,190.50,114,18.00,18.00,-1008.00
2024-05-17 17:26:20.100252,1,-1,-2,0,0,0,71,73,139,130,76,190.43,114,31.00,6.00,-995.00
2024-05-17 17:26:20.233456,1,-1,-2,0,0,0,71,73,139,130,76,190.43,114,17.00,5.00,-991.00
2024-05-17 17:26:20.304279,0,-1,-2,0,0,0,71,73,139,130,76,190.54,114,18.00,14.00,-1005.00
2024-05-17 17:26:20.406271,0,-1,-2,0,0,0,71,73,138,130,76,190.46,114,-12.00,39.00,-987.00
2024-05-17 17:26:20.643080,0,-4,-2,0,0,0,71,73,140,130,76,190.45,114,-3.00,23.00,-949.00
2024-05-17 17:26:20.643514,0,-8,-2,0,-1,0,71,73,140,130,76,190.48,114,0.00,21.00,-1015.00
2024-05-17 17:26:20.712020,0,-8,-3,0,-2,0,71,73,140,130,76,190.47,114,-17.00,39.00,-1011.00
2024-05-17 17:26:20.848185,0,-6,-3,0,-3,0,71,73,139,130,76,190.48,115,-4.00,28.00,-984.00
2024-05-17 17:26:20.916105,0,-3,-3,0,-3,0,71,73,139,130,76,190.47,115,-1.00,26.00,-967.00
2024-05-17 17:26:21.053039,0,0,-3,0,-3,0,71,73,138,130,76,190.39,115,12.00,48.00,-998.00
2024-05-17 17:26:21.120787,0,0,-3,0,-3,0,71,73,137,130,76,190.46,115,6.00,34.00,-967.00
2024-05-17 17:26:21.257421,0,0,-3,0,-2,0,71,73,138,130,76,190.47,115,7.00,39.00,-999.00
2024-05-17 17:26:21.324102,0,-1,-2,0,-2,0,71,73,138,130,76,190.45,115,-19.00,51.00,-984.00
2024-05-17 17:26:21.427245,0,-1,-2,0,-2,0,71,73,137,130,76,190.48,115,23.00,23.00,-1013.00
2024-05-17 17:26:21.564599,0,-1,-2,0,-2,0,71,73,136,130,76,190.42,115,24.00,23.00,-1011.00
2024-05-17 17:26:21.630101,1,-1,-2,0,-2,0,71,73,137,130,76,190.47,115,18.00,20.00,-1008.00
2024-05-17 17:26:21.779576,2,-1,-2,0,-2,0,71,73,137,130,76,190.42,115,-8.00,50.00,-1022.00
2024-05-17 17:26:21.834076,2,-1,-2,0,-2,0,71,73,136,130,76,190.47,116,9.00,56.00,-1039.00
2024-05-17 17:26:21.976299,0,-1,-2,0,-2,0,71,73,136,130,76,190.44,116,9.00,37.00,-989.00
2024-05-17 17:26:22.038085,0,-1,-2,0,-2,0,71,73,136,130,76,190.46,116,12.00,36.00,-1009.00
2024-05-17 17:26:22.178862,0,-1,-2,0,-2,0,71,73,135,130,76,190.45,116,-3.00,39.00,-1001.00
2024-05-17 17:26:22.242200,0,0,-2,0,-2,0,71,73,134,130,76,190.41,116,19.00,31.00,-1010.00
2024-05-17 17:26:22.384641,0,0,-2,0,-1,0,71,73,134,130,76,190.46,116,-2.00,11.00,-1002.00
2024-05-17 17:26:22.395174,0,2,-2,0,-1,0,71,73,135,130,76,190.46,116,10.00,51.00,-1014.00
2024-05-17 17:26:22.588592,0,1,-2,0,0,0,71,73,134,130,76,190.38,116,24.00,16.00,-1022.00
2024-05-17 17:26:22.599013,0,0,-2,0,0,0,71,73,133,130,76,190.43,116,21.00,18.00,-1017.00
2024-05-17 17:26:22.701519,0,0,-2,0,0,0,71,73,134,130,76,190.37,116,0.00,31.00,-1010.00
2024-05-17 17:26:22.803284,0,0,-2,0,0,0,71,73,134,130,76,190.47,117,9.00,22.00,-1005.00
2024-05-17 17:26:22.998680,0,0,-2,0,0,0,71,73,134,130,76,190.37,117,-14.00,30.00,-998.00
2024-05-17 17:26:23.007144,0,0,-2,0,0,0,71,73,134,130,76,190.41,117,8.00,10.00,-977.00
2024-05-17 17:26:23.213877,0,-1,-2,0,0,0,71,73,134,130,76,190.40,117,17.00,22.00,-1016.00
2024-05-17 17:26:23.214039,0,-1,-2,0,0,0,71,73,134,130,76,190.42,117,0.00,20.00,-1013.00
2024-05-17 17:26:23.314280,0,-1,-2,0,0,0,71,73,135,130,76,190.45,117,-4.00,14.00,-977.00
2024-05-17 17:26:23.418089,0,-1,-2,0,0,0,71,73,135,130,76,190.42,117,16.00,19.00,-1007.00
2024-05-17 17:26:23.518159,0,-1,-2,0,0,0,71,73,136,130,76,190.42,117,8.00,30.00,-1008.00
2024-05-17 17:26:23.719130,0,-1,-2,0,0,0,71,73,136,130,76,190.38,117,14.00,12.00,-999.00
2024-05-17 17:26:23.722184,0,-1,-2,0,0,0,71,73,136,130,76,190.43,117,15.00,19.00,-1008.00
2024-05-17 17:26:23.921282,0,-1,-2,0,0,0,71,73,137,130,76,190.46,118,8.00,10.00,-998.00
2024-05-17 17:26:23.926504,0,-1,-2,0,0,0,71,73,137,130,76,190.42,118,12.00,2.00,-990.00
2024-05-17 17:26:24.124504,0,-1,-2,0,0,0,71,73,137,130,76,190.46,118,-2.00,33.00,-983.00
2024-05-17 17:26:24.129995,0,-1,-2,0,0,0,71,73,138,130,76,190.40,118,22.00,11.00,-985.00
2024-05-17 17:26:24.329682,0,-1,-2,0,0,0,71,73,138,130,76,190.45,118,-4.00,31.00,-996.00
2024-05-17 17:26:24.334005,0,-1,-2,0,0,0,71,73,138,130,76,190.40,118,2.00,22.00,-990.00
2024-05-17 17:26:24.436140,0,-1,-2,0,0,0,71,73,138,130,76,190.42,118,8.00,21.00,-1008.00
2024-05-17 17:26:24.591920,0,-1,-2,0,0,0,71,73,138,130,76,190.44,118,15.00,23.00,-1002.00
2024-05-17 17:26:24.643799,0,-1,-2,0,0,0,71,73,138,130,76,190.47,118,12.00,10.00,-1000.00
2024-05-17 17:26:24.742138,0,-1,-2,0,0,0,71,73,138,130,76,190.43,118,12.00,23.00,-990.00
2024-05-17 17:26:24.952482,0,3,-2,0,0,0,71,73,138,130,76,190.42,119,15.00,5.00,-979.00
2024-05-17 17:26:24.952519,0,7,-2,0,1,0,71,73,140,130,76,190.45,119,9.00,36.00,-1009.00
2024-05-17 17:26:25.050067,0,5,-2,0,2,0,71,73,136,130,76,190.48,119,0.00,0.00,-1013.00
2024-05-17 17:26:25.151787,0,2,-2,0,3,0,71,73,137,130,76,190.46,119,-7.00,32.00,-1018.00
2024-05-17 17:26:25.252117,0,0,-2,0,4,0,71,73,135,130,76,190.42,119,-2.00,-1.00,-999.00
2024-05-17 17:26:25.455666,0,-2,-2,0,3,0,71,73,136,130,76,190.44,119,6.00,24.00,-1011.00
2024-05-17 17:26:25.457109,0,-2,-2,0,3,0,71,73,136,130,76,190.45,119,-5.00,-5.00,-1005.00
2024-05-17 17:26:25.558254,0,-1,-2,0,3,0,71,73,136,130,76,190.42,119,1.00,-12.00,-985.00
2024-05-17 17:26:25.660152,0,-1,-3,0,2,0,71,73,136,130,76,190.41,119,-20.00,20.00,-1001.00
2024-05-17 17:26:25.762860,0,0,-3,0,2,0,71,73,136,130,76,190.43,119,12.00,4.00,-1022.00
2024-05-17 17:26:25.812842,0,0,-3,0,2,0,71,73,136,130,76,190.42,120,19.00,-8.00,-1007.00
2024-05-17 17:26:25.971040,0,-1,-3,0,2,0,71,73,137,130,76,190.42,120,10.00,-4.00,-985.00
2024-05-17 17:26:26.016825,0,-1,-3,0,2,0,71,73,137,130,76,190.45,120,-12.00,6.00,-995.00
2024-05-17 17:26:26.172418,0,-1,-3,0,2,0,71,73,137,130,75,190.43,120,17.00,3.00,-1020.00
2024-05-17 17:26:26.220862,0,-2,-3,0,2,0,71,73,137,130,75,190.43,120,3.00,20.00,-994.00
2024-05-17 17:26:26.322867,0,-2,-3,0,2,0,71,73,138,130,75,190.46,120,-9.00,26.00,-1004.00
2024-05-17 17:26:26.425527,0,-3,-3,0,1,0,71,73,139,130,75,190.49,120,6.00,17.00,-1012.00
2024-05-17 17:26:26.527762,0,-5,-3,0,1,0,71,73,139,130,75,190.47,120,-2.00,36.00,-1002.00
2024-05-17 17:26:26.632951,0,-3,-3,0,0,0,71,73,138,130,75,190.48,120,3.00,11.00,-989.00
2024-05-17 17:26:26.731200,0,-2,-3,0,0,0,71,73,138,130,75,190.49,120,-20.00,33.00,-993.00
2024-05-17 17:26:26.889535,0,-1,-3,0,0,0,71,73,138,130,75,190.46,121,2.00,14.00,-997.00
2024-05-17 17:26:26.934929,0,-1,-3,0,0,0,71,73,138,130,75,190.39,121,2.00,17.00,-995.00
2024-05-17 17:26:27.094532,0,-1,-3,0,0,0,71,73,138,130,75,190.42,121,-7.00,25.00,-976.00
2024-05-17 17:26:27.138870,0,-1,-3,0,0,0,71,73,138,130,75,190.46,121,-4.00,15.00,-989.00
2024-05-17 17:26:27.241323,0,-1,-3,0,0,0,71,73,138,130,75,190.43,121,-10.00,38.00,-997.00
2024-05-17 17:26:27.404573,0,-1,-3,0,0,0,71,73,137,130,75,190.45,121,4.00,26.00,-996.00
2024-05-17 17:26:27.446252,0,-1,-3,0,0,0,71,73,137,130,75,190.42,121,23.00,15.00,-1020.00
2024-05-17 17:26:27.606183,0,-1,-2,0,0,0,71,73,137,130,75,190.47,121,-5.00,34.00,-1023.00
2024-05-17 17:26:27.650161,0,-1,-2,0,0,0,71,73,137,130,75,190.44,121,-14.00,32.00,-996.00
2024-05-17 17:26:27.811342,0,-1,-2,0,0,0,71,73,136,130,75,190.41,121,-15.00,21.00,-970.00
2024-05-17 17:26:27.855229,0,-1,-2,0,0,0,71,73,136,130,75,190.44,122,-18.00,34.00,-1011.00
2024-05-17 17:26:28.015801,0,-1,-2,0,0,0,71,73,136,130,75,190.46,122,2.00,38.00,-1013.00
2024-05-17 17:26:28.058299,0,-1,-2,0,0,0,71,73,136,130,75,190.41,122,19.00,15.00,-1011.00
2024-05-17 17:26:28.220564,0,-1,-2,0,0,0,72,73,136,130,75,190.39,122,-12.00,44.00,-992.00
2024-05-17 17:26:28.262464,0,-1,-2,0,0,0,72,73,136,130,75,190.40,122,-27.00,47.00,-992.00
2024-05-17 17:26:28.428252,0,-1,-2,0,0,0,72,73,136,130,75,190.40,122,-6.00,40.00,-1018.00
2024-05-17 17:26:28.466931,0,-1,-2,0,0,0,72,73,136,130,75,190.42,122,12.00,19.00,-1002.00
2024-05-17 17:26:28.567794,0,-1,-2,0,0,0,72,73,135,130,75,190.43,122,16.00,15.00,-1006.00
2024-05-17 17:26:28.670474,0,-1,-2,0,0,0,72,73,136,130,75,190.40,122,16.00,14.00,-992.00
2024-05-17 17:26:28.843656,0,-1,-2,0,0,0,72,73,136,130,75,190.44,122,21.00,36.00,-1019.00
2024-05-17 17:26:28.874601,0,-1,3,0,0,0,72,73,136,130,75,190.45,123,12.00,32.00,-1000.00
2024-05-17 17:26:29.039635,0,-1,9,0,0,0,72,73,136,130,75,190.45,123,-1.00,39.00,-1003.00
2024-05-17 17:26:29.079954,0,-1,15,0,0,0,72,73,136,130,75,190.42,123,8.00,16.00,-999.00
2024-05-17 17:26:29.180361,0,-1,21,0,0,0,71,73,136,130,75,190.50,123,17.00,12.00,-985.00
2024-05-17 17:26:29.281712,0,-1,27,0,0,0,71,73,136,130,75,190.35,123,16.00,34.00,-1020.00
2024-05-17 17:26:29.383657,0,-1,33,0,0,0,71,73,136,130,75,190.42,123,20.00,34.00,-1021.00
2024-05-17 17:26:29.485675,0,-1,39,0,0,0,71,73,136,130,75,190.45,123,3.00,39.00,-1023.00
2024-05-17 17:26:29.654021,0,0,45,0,0,0,71,73,137,130,75,190.50,123,-4.00,34.00,-998.00
2024-05-17 17:26:29.654271,0,0,51,0,0,0,71,73,136,130,75,190.46,123,35.00,-4.00,-1004.00
2024-05-17 17:26:29.740641,0,0,57,0,0,0,71,73,137,130,75,190.42,123,17.00,17.00,-1000.00
2024-05-17 17:26:29.859201,0,0,63,0,0,0,71,73,138,130,75,190.45,124,12.00,16.00,-995.00
2024-05-17 17:26:29.945264,0,0,69,0,0,0,71,73,137,130,75,190.37,124,24.00,14.00,-1019.00
2024-05-17 17:26:30.063665,0,0,75,0,0,0,71,73,137,130,75,190.45,124,14.00,1.00,-995.00
2024-05-17 17:26:30.148693,0,0,87,0,0,0,71,73,137,130,74,190.38,124,28.00,3.00,-1007.00
2024-05-17 17:26:30.268436,0,0,93,0,0,0,71,73,138,130,74,190.38,124,15.00,-4.00,-981.00
2024-05-17 17:26:30.352686,0,0,99,0,0,0,71,73,138,130,74,190.42,124,17.00,6.00,-996.00
2024-05-17 17:26:30.455799,0,0,104,0,0,0,71,73,138,130,74,190.44,124,30.00,-8.00,-985.00
2024-05-17 17:26:30.575629,0,1,110,0,0,0,71,73,138,130,74,190.40,124,8.00,-7.00,-991.00
2024-05-17 17:26:30.658716,0,1,116,0,0,0,71,73,137,130,74,190.38,124,35.00,-13.00,-988.00
2024-05-17 17:26:30.780908,0,1,122,0,0,0,71,73,137,130,74,190.46,125,24.00,-16.00,-982.00
2024-05-17 17:26:30.862813,0,1,128,0,0,0,71,73,137,130,74,190.40,125,2.00,-5.00,-990.00
2024-05-17 17:26:30.985128,0,1,134,0,0,0,71,73,136,130,74,190.40,125,-7.00,6.00,-1035.00
2024-05-17 17:26:31.066632,0,1,140,0,0,0,71,73,136,130,74,190.36,125,-12.00,3.00,-997.00
2024-05-17 17:26:31.193345,0,0,145,0,0,0,70,73,136,130,74,190.37,125,-3.00,-16.00,-982.00
2024-05-17 17:26:31.271682,0,0,151,0,0,0,70,73,136,130,74,190.45,125,-4.00,-4.00,-1014.00
2024-05-17 17:26:31.394783,-1,0,157,0,0,0,70,73,135,130,74,190.40,125,-17.00,-5.00,-996.00
2024-05-17 17:26:31.474545,-1,0,163,0,0,0,70,73,136,130,74,190.42,125,-23.00,-2.00,-980.00
2024-05-17 17:26:31.599587,-1,0,168,0,0,0,70,73,136,130,74,190.36,125,-12.00,6.00,-986.00
2024-05-17 17:26:31.678639,-1,0,174,0,0,0,70,73,136,130,74,190.47,125,-4.00,2.00,-1051.00
2024-05-17 17:26:31.804346,-1,0,-179,0,0,0,70,73,136,130,74,190.44,126,-33.00,5.00,-1005.00
2024-05-17 17:26:31.882650,-1,0,-174,0,0,0,70,73,136,130,74,190.44,126,-22.00,4.00,-980.00
2024-05-17 17:26:32.021595,-1,0,-168,0,0,0,70,73,137,130,74,190.40,126,-36.00,-11.00,-966.00
2024-05-17 17:26:32.086598,-1,0,-162,0,0,0,70,73,137,130,74,190.50,126,-4.00,-2.00,-1013.00
2024-05-17 17:26:32.214172,-1,1,-156,0,0,0,71,73,138,130,74,190.38,126,-47.00,14.00,-982.00
2024-05-17 17:26:32.293946,-1,0,-151,0,0,0,71,73,138,130,74,190.47,126,-2.00,13.00,-1025.00
2024-05-17 17:26:32.394798,-1,0,-145,0,0,0,71,73,140,130,74,190.44,126,-29.00,16.00,-1007.00
2024-05-17 17:26:32.494612,-1,0,-139,0,0,0,71,73,140,130,74,190.51,126,-27.00,12.00,-992.00
2024-05-17 17:26:32.623648,-1,0,-133,0,0,0,71,73,141,130,74,190.46,126,-19.00,10.00,-996.00
2024-05-17 17:26:32.704445,-1,0,-127,0,0,0,71,73,142,130,74,190.44,126,-29.00,26.00,-994.00
2024-05-17 17:26:32.800613,-1,0,-121,0,0,0,71,73,143,130,74,190.52,127,-28.00,23.00,-1007.00
2024-05-17 17:26:32.930870,-1,0,-114,0,0,0,71,73,144,130,74,190.52,127,6.00,18.00,-996.00
2024-05-17 17:26:33.007369,0,0,-108,0,0,0,71,73,144,130,74,190.47,127,-18.00,19.00,-979.00
2024-05-17 17:26:33.062812,0,0,-102,0,0,0,71,73,144,130,74,190.51,127,-24.00,11.00,-978.00
2024-05-17 17:26:33.240869,-1,0,-96,0,0,0,72,73,144,130,74,190.50,127,-13.00,4.00,-965.00
2024-05-17 17:26:33.310724,0,0,-90,0,0,0,72,73,144,130,74,190.43,127,-4.00,20.00,-992.00
2024-05-17 17:26:33.442824,-1,0,-84,0,0,0,72,73,144,130,74,190.44,127,-15.00,27.00,-996.00
2024-05-17 17:26:33.515511,-1,0,-78,0,0,0,72,73,144,130,74,190.43,127,-22.00,5.00,-987.00
2024-05-17 17:26:33.617904,-1,0,-72,0,0,0,72,73,144,130,74,190.50,127,-14.00,22.00,-999.00
2024-05-17 17:26:33.668517,0,0,-66,0,0,0,72,73,144,130,74,190.49,127,-7.00,17.00,-998.00
2024-05-17 17:26:33.852407,0,0,-60,0,0,0,72,73,143,130,74,190.46,128,-1.00,21.00,-1027.00
2024-05-17 17:26:33.875885,0,0,-53,0,0,0,72,73,143,130,74,190.45,128,-15.00,11.00,-982.00
2024-05-17 17:26:33.975563,0,0,-47,0,0,0,72,73,142,130,74,190.48,128,-1.00,14.00,-992.00
2024-05-17 17:26:34.159574,0,0,-41,0,0,0,72,73,142,130,74,190.45,128,-13.00,23.00,-1011.00
2024-05-17 17:26:34.178598,0,0,-34,0,0,0,71,74,141,130,74,190.49,128,-8.00,20.00,-999.00
2024-05-17 17:26:34.366977,0,0,-28,0,0,0,71,74,140,130,74,190.48,128,0.00,25.00,-1004.00
2024-05-17 17:26:34.382476,0,0,-22,0,0,0,71,74,139,130,74,190.48,128,-23.00,27.00,-984.00
2024-05-17 17:26:34.484444,0,0,-17,0,0,0,71,74,139,130,74,190.47,128,2.00,27.00,-1009.00
2024-05-17 17:26:34.671634,0,0,-13,0,0,0,71,74,138,130,74,190.36,128,-10.00,30.00,-1007.00
2024-05-17 17:26:34.688483,0,0,-11,0,0,0,71,74,138,130,74,190.45,128,-11.00,24.00,-993.00
2024-05-17 17:26:34.876395,0,0,-8,0,0,0,71,74,137,130,74,190.46,129,22.00,24.00,-1027.00
2024-05-17 17:26:34.892350,0,0,-7,0,0,0,71,74,136,130,74,190.42,129,-11.00,28.00,-1013.00
2024-05-17 17:26:35.081225,0,0,-6,0,0,0,71,74,135,130,74,190.41,129,0.00,29.00,-1033.00
2024-05-17 17:26:35.096547,0,0,-5,0,0,0,71,74,135,130,74,190.46,129,7.00,19.00,-1018.00
2024-05-17 17:26:35.288651,0,0,-4,0,0,0,72,74,134,130,74,190.41,129,-3.00,23.00,-1001.00
2024-05-17 17:26:35.300443,0,0,-4,0,0,0,72,74,134,130,74,190.38,129,13.00,35.00,-1040.00
2024-05-17 17:26:35.491574,0,0,-4,0,0,0,72,74,134,130,74,190.35,129,6.00,13.00,-974.00
2024-05-17 17:26:35.507708,0,-1,-4,0,0,0,72,74,133,130,74,190.36,129,-4.00,27.00,-1012.00
2024-05-17 17:26:35.607509,0,-1,-4,0,0,0,72,74,133,130,74,190.40,129,0.00,9.00,-980.00
2024-05-17 17:26:35.798102,0,-1,-4,0,0,0,72,74,133,130,74,190.40,129,0.00,30.00,-1013.00
2024-05-17 17:26:35.811568,0,-1,-4,0,0,0,72,74,133,130,74,190.38,130,0.00,31.00,-987.00
2024-05-17 17:26:36.003725,0,-1,-4,0,0,0,72,74,133,130,74,190.42,130,-15.00,36.00,-1002.00
2024-05-17 17:26:36.016212,0,-1,-4,0,0,0,72,74,132,130,74,190.38,130,-22.00,46.00,-1018.00
2024-05-17 17:26:36.117515,0,-1,-4,0,0,0,72,74,132,130,74,190.41,130,-7.00,24.00,-1008.00
2024-05-17 17:26:36.310248,0,-1,-4,0,0,0,71,73,132,130,74,190.40,130,-2.00,32.00,-1001.00
2024-05-17 17:26:36.321573,0,-1,-4,0,0,0,71,73,132,130,74,190.38,130,8.00,22.00,-1006.00
2024-05-17 17:26:36.424055,0,-1,-4,0,0,0,71,73,132,130,74,190.39,130,2.00,10.00,-1013.00
2024-05-17 17:26:36.525508,0,-1,-4,0,0,0,71,73,132,130,74,190.40,130,-5.00,38.00,-1002.00
2024-05-17 17:26:36.719694,0,-1,-4,0,0,0,71,73,133,130,74,190.40,130,5.00,18.00,-986.00
2024-05-17 17:26:36.729430,0,-1,-4,0,0,0,71,73,132,130,74,190.40,130,-4.00,39.00,-1026.00
2024-05-17 17:26:36.924579,0,-1,-4,0,0,0,71,73,133,130,74,190.40,131,-17.00,35.00,-982.00
2024-05-17 17:26:36.935066,0,-1,-4,0,0,0,71,73,133,130,74,190.44,131,13.00,23.00,-1015.00
2024-05-17 17:26:37.035650,0,-1,-4,0,0,0,71,73,133,130,74,190.40,131,2.00,32.00,-993.00
2024-05-17 17:26:37.231634,0,-1,-4,0,0,0,71,73,134,130,73,190.43,131,0.00,42.00,-999.00
2024-05-17 17:26:37.239803,0,-1,-4,0,0,0,71,73,134,130,73,190.45,131,0.00,22.00,-986.00
2024-05-17 17:26:37.341333,0,-1,-4,0,0,0,71,73,134,130,73,190.34,131,-10.00,33.00,-987.00
2024-05-17 17:26:37.443374,0,-1,-5,0,0,0,71,73,135,130,73,190.37,131,-18.00,44.00,-996.00
2024-05-17 17:26:37.642092,0,-1,-10,0,0,0,71,73,135,130,73,190.41,131,-12.00,40.00,-997.00
2024-05-17 17:26:37.647295,0,-1,-16,0,0,0,71,73,135,130,73,190.47,131,-9.00,23.00,-1011.00
2024-05-17 17:26:37.707245,0,-1,-22,0,0,0,71,73,136,130,73,190.36,131,4.00,17.00,-990.00
2024-05-17 17:26:37.800357,0,-1,-28,0,0,0,71,73,136,130,73,190.38,132,-16.00,15.00,-993.00
2024-05-17 17:26:37.902361,0,-1,-34,0,0,0,71,73,136,130,73,190.37,132,-14.00,13.00,-998.00
2024-05-17 17:26:38.050798,0,-1,-40,0,0,0,71,73,136,130,73,190.44,132,-8.00,32.00,-1002.00
2024-05-17 17:26:38.106583,0,-1,-45,0,0,0,71,73,136,130,73,190.45,132,-14.00,16.00,-992.00
2024-05-17 17:26:38.256331,0,0,-51,0,0,0,72,73,135,130,73,190.35,132,-19.00,32.00,-980.00
2024-05-17 17:26:38.310411,0,-1,-57,0,0,0,72,73,135,130,73,190.43,132,-3.00,2.00,-988.00
2024-05-17 17:26:38.462937,0,-1,-63,0,0,0,72,73,135,130,73,190.35,132,4.00,10.00,-991.00
2024-05-17 17:26:38.514285,0,-1,-69,0,0,0,72,73,135,130,73,190.39,132,-27.00,26.00,-978.00
2024-05-17 17:26:38.665145,0,-1,-75,0,0,0,72,73,135,130,73,190.35,132,-11.00,20.00,-999.00
2024-05-17 17:26:38.718207,0,-1,-81,0,0,0,72,73,135,130,73,190.37,132,6.00,20.00,-1021.00
2024-05-17 17:26:38.869904,0,-1,-88,0,0,0,72,73,135,130,73,190.43,133,-1.00,6.00,-1005.00
2024-05-17 17:26:38.926628,0,0,-94,0,0,0,72,73,135,130,73,190.35,133,-5.00,15.00,-1005.00
2024-05-17 17:26:39.024192,0,0,-100,0,0,0,72,73,135,130,73,190.37,133,-7.00,-2.00,-982.00
2024-05-17 17:26:39.177093,0,0,-106,0,0,0,72,73,134,130,73,190.38,133,-16.00,10.00,-1012.00
2024-05-17 17:26:39.228226,0,0,-112,0,0,0,71,73,134,130,73,190.38,133,-16.00,8.00,-1002.00
2024-05-17 17:26:39.382359,0,0,-118,0,0,0,71,73,134,130,73,190.38,133,-15.00,13.00,-1004.00
2024-05-17 17:26:39.432413,0,0,-124,0,0,0,71,73,133,130,73,190.38,133,-25.00,12.00,-1005.00
2024-05-17 17:26:39.586760,0,0,-130,0,0,0,71,73,134,130,73,190.37,133,-37.00,24.00,-1007.00
2024-05-17 17:26:39.637262,0,0,-136,0,0,0,71,73,134,130,73,190.43,133,-2.00,-12.00,-993.00
2024-05-17 17:26:39.791528,0,0,-142,0,0,0,71,73,134,130,73,190.39,133,-14.00,-5.00,-997.00
2024-05-17 17:26:39.841206,0,0,-148,0,0,0,71,73,134,130,73,190.38,134,6.00,-15.00,-1002.00
2024-05-17 17:26:39.996272,0,0,-154,0,0,0,71,73,135,130,73,190.42,134,-4.00,-11.00,-992.00
2024-05-17 17:26:40.045130,0,0,-160,0,0,0,71,73,135,130,73,190.44,134,-3.00,-17.00,-979.00
2024-05-17 17:26:40.201841,0,1,-167,0,0,0,71,73,136,130,73,190.48,134,-10.00,-9.00,-991.00
2024-05-17 17:26:40.249127,0,1,-173,0,0,0,71,74,136,130,73,190.40,134,-28.00,1.00,-1007.00
2024-05-17 17:26:40.406281,0,1,-179,0,0,0,71,74,135,130,73,190.42,134,-20.00,9.00,-1014.00
2024-05-17 17:26:40.454030,0,1,174,0,0,0,71,74,136,130,73,190.40,134,-19.00,8.00,-1009.00
2024-05-17 17:26:40.555040,0,1,168,0,0,0,71,74,136,130,73,190.41,134,14.00,-19.00,-982.00
2024-05-17 17:26:40.722425,0,0,162,0,0,0,71,74,137,130,73,190.35,134,-3.00,-7.00,-999.00
2024-05-17 17:26:40.759171,0,0,156,0,0,0,71,74,137,130,73,190.41,134,13.00,-16.00,-1005.00
2024-05-17 17:26:40.919928,0,0,150,0,0,0,71,74,137,130,73,190.41,135,24.00,-12.00,-994.00
2024-05-17 17:26:40.963131,0,1,143,0,0,0,71,74,138,130,73,190.42,135,1.00,-1.00,-988.00
2024-05-17 17:26:41.122667,0,1,137,0,0,0,71,74,138,130,73,190.48,135,7.00,-10.00,-999.00
2024-05-17 17:26:41.122743,0,1,131,0,0,0,71,74,138,130,73,190.41,135,1.00,13.00,-992.00
2024-05-17 17:26:41.269114,0,0,125,0,0,0,71,74,138,130,73,190.34,135,16.00,1.00,-973.00
2024-05-17 17:26:41.429892,0,0,119,0,0,0,71,74,138,130,73,190.40,135,5.00,-1.00,-1000.00
2024-05-17 17:26:41.474009,1,0,113,0,0,0,71,74,139,130,73,190.42,135,1.00,-8.00,-976.00
2024-05-17 17:26:41.634654,1,0,107,0,0,0,71,74,139,130,73,190.46,135,14.00,7.00,-1004.00
2024-05-17 17:26:41.634690,1,0,101,0,0,0,71,74,139,130,73,190.43,135,7.00,5.00,-983.00
2024-05-17 17:26:41.729050,1,0,95,0,0,0,71,74,139,130,73,190.43,135,12.00,6.00,-999.00
2024-05-17 17:26:41.945852,1,0,89,0,0,0,71,74,139,130,73,190.43,136,22.00,0.00,-1005.00
2024-05-17 17:26:41.946042,1,0,84,0,0,0,71,74,138,130,73,190.50,136,24.00,7.00,-997.00
2024-05-17 17:26:42.034055,1,0,78,0,0,0,71,74,139,130,73,190.40,136,6.00,18.00,-1006.00
2024-05-17 17:26:42.149746,1,0,72,0,0,0,71,74,138,130,73,190.47,136,34.00,-8.00,-1004.00
2024-05-17 17:26:42.239001,1,0,66,0,0,0,72,73,139,130,73,190.38,136,14.00,10.00,-1026.00
2024-05-17 17:26:42.343660,1,0,60,0,0,0,72,73,139,130,73,190.45,136,19.00,-3.00,-992.00
2024-05-17 17:26:42.442150,1,0,54,0,0,0,72,73,139,130,73,190.42,136,24.00,0.00,-982.00
2024-05-17 17:26:42.556292,1,0,48,0,0,0,72,73,139,130,73,190.40,136,16.00,8.00,-980.00
2024-05-17 17:26:42.645976,1,0,42,0,0,0,72,73,139,130,73,190.43,136,13.00,9.00,-990.00
2024-05-17 17:26:42.761035,1,0,35,0,0,0,72,73,139,130,73,190.39,136,-3.00,25.00,-1002.00
2024-05-17 17:26:42.850949,1,0,29,0,0,0,72,73,139,130,73,190.40,137,23.00,17.00,-999.00
2024-05-17 17:26:42.965866,1,0,23,0,0,0,72,73,139,130,73,190.42,137,15.00,11.00,-995.00
2024-05-17 17:26:43.054029,1,0,17,0,0,0,72,73,139,130,73,190.41,137,31.00,16.00,-1015.00
2024-05-17 17:26:43.156784,0,0,12,0,0,0,72,73,139,130,73,190.46,137,33.00,5.00,-985.00
2024-05-17 17:26:43.258737,0,-1,8,0,0,0,72,74,139,130,73,190.45,137,28.00,14.00,-997.00
2024-05-17 17:26:43.375808,0,0,5,0,0,0,72,74,139,130,73,190.42,137,17.00,20.00,-1011.00
2024-05-17 17:26:43.463397,0,0,3,0,0,0,72,74,139,130,73,190.45,137,17.00,6.00,-1001.00
2024-05-17 17:26:43.564117,0,0,1,0,0,0,72,74,139,130,73,190.49,137,-4.00,26.00,-1012.00
2024-05-17 17:26:43.683037,0,0,0,0,0,0,72,74,139,130,73,190.47,137,10.00,3.00,-984.00
2024-05-17 17:26:43.767941,0,0,-1,0,0,0,72,74,139,130,73,190.49,137,-2.00,40.00,-1039.00
2024-05-17 17:26:43.887963,0,0,-1,0,0,0,72,74,140,130,73,190.41,138,18.00,19.00,-1010.00
2024-05-17 17:26:43.972486,0,0,-2,0,0,0,72,74,140,130,73,190.50,138,-8.00,38.00,-992.00
2024-05-17 17:26:44.098040,0,0,-2,0,0,0,72,74,141,130,73,190.42,138,-1.00,25.00,-1002.00
2024-05-17 17:26:44.176005,0,0,-2,0,0,0,72,74,141,130,73,190.45,138,13.00,9.00,-990.00
2024-05-17 17:26:44.297413,0,0,-2,0,0,0,72,73,141,130,73,190.45,138,12.00,9.00,-1006.00
2024-05-17 17:26:44.380274,0,0,-2,0,0,0,72,73,141,130,73,190.42,138,8.00,11.00,-980.00
2024-05-17 17:26:44.482077,0,0,-2,0,0,0,72,73,140,130,73,190.47,138,-9.00,23.00,-1008.00
2024-05-17 17:26:44.604439,0,0,-2,0,0,0,72,73,141,130,73,190.49,138,22.00,-1.00,-1000.00
2024-05-17 17:26:44.688942,0,0,-2,0,0,0,72,73,141,130,73,190.45,138,-5.00,14.00,-998.00
2024-05-17 17:26:44.789289,0,0,-2,0,0,0,72,73,140,130,73,190.46,139,4.00,8.00,-984.00
2024-05-17 17:26:44.890373,0,0,-2,0,0,0,72,73,139,130,73,190.48,139,12.00,0.00,-986.00
2024-05-17 17:26:44.993181,0,0,-2,0,0,0,72,73,139,130,73,190.48,139,-2.00,34.00,-1012.00
2024-05-17 17:26:45.094826,0,0,-2,0,0,0,72,73,139,130,73,190.44,139,-6.00,10.00,-981.00
2024-05-17 17:26:45.145017,0,0,-2,0,0,0,72,73,138,130,72,190.49,139,-4.00,18.00,-1001.00
2024-05-17 17:26:45.321492,0,0,-2,0,0,0,72,73,138,130,72,190.56,139,-3.00,20.00,-1013.00
2024-05-17 17:26:45.403569,0,0,-2,0,0,0,72,73,138,130,72,190.50,139,11.00,16.00,-1020.00
2024-05-17 17:26:45.454394,0,0,-2,0,0,0,72,73,138,130,72,190.48,139,-9.00,16.00,-978.00
2024-05-17 17:26:45.555362,0,-1,-2,0,0,0,72,73,138,130,72,190.51,139,-6.00,27.00,-1004.00
2024-05-17 17:26:45.657474,0,0,-2,0,0,0,72,73,137,130,72,190.50,139,-19.00,22.00,-975.00
2024-05-17 17:26:45.759627,0,0,-2,0,0,0,72,73,137,130,72,190.52,140,0.00,36.00,-1004.00
2024-05-17 17:26:45.861974,0,-1,-2,0,0,0,72,73,137,130,72,190.50,140,4.00,24.00,-993.00
2024-05-17 17:26:45.965174,0,-1,-2,0,0,0,72,73,137,130,72,190.53,140,21.00,20.00,-1006.00
2024-05-17 17:26:46.063853,0,-1,-2,0,0,0,72,73,137,130,72,190.49,140,15.00,23.00,-1024.00
2024-05-17 17:26:46.242622,0,-1,-2,0,0,-5,72,73,139,130,72,190.51,140,33.00,40.00,-1661.00
2024-05-17 17:26:46.268827,0,-21,-3,0,0,-11,71,74,148,140,72,190.62,140,47.00,116.00,-1439.00
2024-05-17 17:26:46.454124,-1,-127,-1,0,-7,-9,71,74,280,150,72,190.75,140,-17.00,528.00,-1087.00
2024-05-17 17:26:46.472124,2,109,-2,0,-9,6,71,74,166,150,72,190.82,140,18.00,510.00,-1023.00
2024-05-17 17:26:46.652320,0,9,-6,0,-2,12,71,74,198,140,72,191.00,140,7.00,337.00,-1378.00
2024-05-17 17:26:46.677421,0,0,-6,0,-2,9,71,74,149,130,72,190.52,140,-3.00,-121.00,-1518.00
2024-05-17 17:26:46.777851,0,2,-5,0,-2,5,71,74,139,130,72,190.44,141,-24.00,34.00,-1464.00
2024-05-17 17:26:46.959435,0,1,-3,0,-1,2,71,74,135,120,72,190.43,141,0.00,40.00,-1256.00
2024-05-17 17:26:46.981814,0,0,-2,0,-1,0,71,74,135,120,72,190.43,141,-4.00,24.00,-1236.00
2024-05-17 17:26:47.164237,0,0,-2,0,0,0,71,74,136,120,72,190.32,141,6.00,17.00,-1113.00
2024-05-17 17:26:47.185890,1,1,-2,0,0,-1,71,74,137,120,72,190.30,141,3.00,4.00,-1065.00
2024-05-17 17:26:47.369354,1,1,-3,0,0,-1,71,73,139,120,72,190.39,141,0.00,36.00,-965.00
2024-05-17 17:26:47.390065,1,0,-3,0,0,-1,71,73,141,120,72,190.46,141,5.00,22.00,-968.00
2024-05-17 17:26:47.492154,0,0,-2,0,0,0,71,73,142,130,72,190.53,141,-7.00,9.00,-963.00
2024-05-17 17:26:47.594155,0,0,-2,0,0,0,71,73,142,130,72,190.57,141,-8.00,12.00,-919.00
2024-05-17 17:26:47.778672,0,0,-3,0,0,0,71,73,143,130,72,190.42,141,18.00,13.00,-985.00
2024-05-17 17:26:47.798974,0,0,-2,0,0,0,71,73,143,130,72,190.52,142,17.00,17.00,-973.00
2024-05-17 17:26:47.901205,0,0,-2,0,0,0,71,73,143,130,72,190.52,142,-12.00,15.00,-976.00
2024-05-17 17:26:48.085821,0,0,-2,0,0,0,71,73,143,130,72,190.51,142,-3.00,35.00,-987.00
2024-05-17 17:26:48.103731,0,0,-2,0,0,0,71,73,142,130,72,190.44,142,33.00,11.00,-989.00
2024-05-17 17:26:48.290761,0,0,-2,0,0,0,71,73,142,130,71,190.43,142,9.00,19.00,-990.00
2024-05-17 17:26:48.309707,0,0,-2,0,0,0,71,73,141,130,71,190.45,142,-18.00,28.00,-990.00
2024-05-17 17:26:48.409817,0,0,-2,0,0,0,71,73,140,130,71,190.49,142,12.00,26.00,-1013.00
2024-05-17 17:26:48.511690,0,0,-2,0,0,0,71,73,140,130,71,190.45,142,8.00,21.00,-1001.00
2024-05-17 17:26:48.700220,0,0,-2,0,0,0,71,73,140,130,71,190.47,142,1.00,9.00,-978.00
2024-05-17 17:26:48.715730,0,0,-2,0,0,0,71,73,140,130,71,190.49,142,3.00,33.00,-1015.00
2024-05-17 17:26:48.905276,0,0,-2,0,0,0,71,73,139,130,71,190.42,143,-1.00,23.00,-986.00
2024-05-17 17:26:48.905480,0,0,-2,0,0,0,71,73,140,130,71,190.46,143,-1.00,37.00,-1026.00
2024-05-17 17:26:48.972609,0,0,-2,0,0,0,71,73,139,130,71,190.43,143,10.00,26.00,-1021.00
2024-05-17 17:26:49.072672,0,0,-2,0,0,0,71,73,139,130,71,190.45,143,12.00,30.00,-1040.00
2024-05-17 17:26:49.174711,0,0,-2,0,0,0,71,73,139,130,71,190.51,143,0.00,39.00,-1033.00
2024-05-17 17:26:49.316086,0,0,-2,0,0,0,72,73,139,130,71,190.48,143,12.00,-1.00,-1002.00
2024-05-17 17:26:49.378659,0,0,-2,0,0,0,72,73,140,130,71,190.46,143,37.00,7.00,-1025.00
2024-05-17 17:26:49.482585,0,0,-2,0,0,0,72,73,140,130,71,190.51,143,6.00,-2.00,-993.00
2024-05-17 17:26:49.583546,0,0,-2,0,0,0,72,73,140,130,71,190.46,143,0.00,21.00,-1003.00
2024-05-17 17:26:49.724416,0,0,-2,0,0,0,72,73,140,130,71,190.45,143,-5.00,17.00,-993.00
2024-05-17 17:26:49.789223,0,0,-2,0,0,0,72,73,140,130,71,190.43,144,3.00,12.00,-1001.00
2024-05-17 17:26:49.929172,0,0,-2,0,0,0,72,73,140,130,71,190.46,144,-2.00,21.00,-1015.00
2024-05-17 17:26:49.991804,0,0,-2,0,0,0,72,73,140,130,71,190.49,144,26.00,-3.00,-1000.00
2024-05-17 17:26:50.134328,0,0,-2,0,0,0,72,73,140,130,71,190.47,144,14.00,6.00,-1003.00
2024-05-17 17:26:50.195740,0,0,-2,0,0,0,72,73,140,130,71,190.45,144,3.00,11.00,-998.00
2024-05-17 17:26:50.338729,0,0,-2,0,0,0,71,73,139,130,71,190.46,144,10.00,4.00,-989.00
2024-05-17 17:26:50.399868,0,0,-2,0,0,0,71,73,139,130,71,190.50,144,0.00,19.00,-1003.00
2024-05-17 17:26:50.501930,0,0,-2,0,0,0,71,73,139,130,71,190.43,144,17.00,26.00,-1004.00
2024-05-17 17:26:50.645885,0,0,-2,0,0,0,71,73,138,130,71,190.44,144,8.00,3.00,-1000.00
2024-05-17 17:26:50.708688,0,0,-2,0,0,0,71,73,139,130,71,190.47,144,13.00,1.00,-1009.00
2024-05-17 17:26:50.807709,0,0,-3,0,0,0,71,73,139,130,71,190.46,145,-3.00,19.00,-994.00
2024-05-17 17:26:50.953504,0,0,-2,0,0,0,71,73,139,130,71,190.56,145,-10.00,7.00,-1002.00
2024-05-17 17:26:51.020994,0,0,-2,0,0,0,71,73,139,130,71,190.42,145,3.00,23.00,-1030.00
2024-05-17 17:26:51.121692,0,0,-2,0,0,0,71,73,139,130,71,190.49,145,-21.00,31.00,-987.00
2024-05-17 17:26:51.218549,0,0,-2,0,0,0,71,73,139,130,71,190.50,145,7.00,8.00,-1008.00
2024-05-17 17:26:51.318564,0,-1,-2,0,0,0,72,73,139,130,71,190.47,145,8.00,18.00,-1013.00
2024-05-17 17:26:51.419816,0,-1,-3,0,0,0,72,73,139,130,71,190.43,145,-8.00,35.00,-1021.00
2024-05-17 17:26:51.525584,0,-1,-3,0,0,0,72,73,140,130,71,190.42,145,8.00,17.00,-1008.00
2024-05-17 17:26:51.627764,0,-1,-3,0,0,0,72,73,140,130,71,190.49,145,10.00,14.00,-994.00
2024-05-17 17:26:51.735637,0,-1,-3,0,0,0,72,73,140,130,71,190.46,145,9.00,14.00,-992.00
2024-05-17 17:26:51.829374,0,0,-3,0,0,0,72,73,141,130,71,190.44,146,12.00,0.00,-993.00
2024-05-17 17:26:51.977135,0,0,-3,0,0,0,72,73,141,130,71,190.41,146,8.00,16.00,-1012.00
2024-05-17 17:26:52.033315,0,0,-2,0,0,0,72,73,141,130,71,190.45,146,16.00,16.00,-1008.00
2024-05-17 17:26:52.138770,0,0,-2,0,0,0,72,73,141,130,71,190.46,146,3.00,24.00,-998.00
2024-05-17 17:26:52.186162,0,0,-3,0,0,0,72,73,141,130,71,190.47,146,12.00,16.00,-1003.00
2024-05-17 17:26:52.402447,0,0,-3,0,0,0,71,73,141,130,71,190.47,146,8.00,26.00,-996.00
2024-05-17 17:26:52.441495,0,0,-2,0,0,0,71,73,141,130,71,190.47,146,-10.00,28.00,-1006.00
2024-05-17 17:26:52.542639,0,-1,-2,0,0,0,71,73,141,130,71,190.43,146,1.00,17.00,-1008.00
2024-05-17 17:26:52.645753,0,0,-2,0,0,0,71,73,141,130,71,190.50,146,-15.00,11.00,-970.00
2024-05-17 17:26:52.748581,0,0,-3,0,0,0,71,73,141,130,71,190.54,146,-13.00,8.00,-1237.00
2024-05-17 17:26:52.798254,0,1,-2,0,0,-4,71,73,144,130,71,190.62,147,-2.00,13.00,-1705.00
2024-05-17 17:26:52.900076,0,12,-2,0,0,-11,71,73,163,140,71,190.83,147,-8.00,-59.00,-1703.00
2024-05-17 17:26:53.004420,0,105,-2,0,8,-11,71,73,332,150,71,190.86,147,-2.00,691.00,-1228.00
2024-05-17 17:26:53.107141,0,-129,-3,0,10,4,71,73,243,150,71,190.86,147,19.00,764.00,-850.00
2024-05-17 17:26:53.206171,0,-21,-2,0,4,11,71,73,164,140,71,190.73,147,-34.00,581.00,-1093.00
2024-05-17 17:26:53.309710,0,1,-3,0,3,9,71,74,146,130,71,190.58,147,0.00,9.00,-1354.00
2024-05-17 17:26:53.410343,0,-3,-2,0,3,5,71,74,140,130,71,190.37,147,-1.00,20.00,-1407.00
2024-05-17 17:26:53.520457,0,-3,-2,0,2,2,71,74,137,120,71,190.38,147,-5.00,13.00,-1267.00
2024-05-17 17:26:53.613465,0,-2,-2,0,2,0,71,74,135,120,71,190.44,147,-27.00,10.00,-1127.00
2024-05-17 17:26:53.717779,0,-1,-2,0,1,0,71,74,136,120,71,190.39,147,-15.00,6.00,-1078.00
2024-05-17 17:26:53.825640,0,-1,-2,-1,1,-1,71,74,136,120,71,190.38,148,-32.00,16.00,-1022.00
2024-05-17 17:26:53.919986,-1,0,-2,-1,1,-1,71,74,137,120,71,190.36,148,-4.00,-15.00,-986.00
2024-05-17 17:26:54.021765,-2,0,-2,-1,1,-1,71,74,138,120,71,190.44,148,-29.00,20.00,-988.00
2024-05-17 17:26:54.124889,-2,-2,-2,-1,1,0,71,74,139,120,71,190.39,148,-40.00,12.00,-980.00
2024-05-17 17:26:54.233851,-2,-3,-2,0,0,0,71,74,140,120,71,190.46,148,-17.00,-15.00,-956.00
