TS,pitch,roll,yaw,vgx,vgy,vgz,templ,temph,tof,h,bat,baro,time,agx,agy,agz
2024-06-07 14:45:41.547949,0,0,3,0,0,0,87,89,10,0,42,153.32,69,-4.00,-7.00,-999.00
2024-06-07 14:45:41.561802,0,0,3,0,0,0,87,89,10,0,42,153.27,69,-5.00,-7.00,-1001.00
2024-06-07 14:45:41.664061,0,0,3,0,0,0,87,89,10,0,42,153.23,69,-4.00,-6.00,-1001.00
2024-06-07 14:45:41.855210,0,0,3,0,0,0,87,89,10,0,42,153.25,69,-1.00,-7.00,-998.00
2024-06-07 14:45:41.867771,0,0,3,0,0,0,87,89,10,0,42,153.29,69,-3.00,-7.00,-996.00
2024-06-07 14:45:41.970414,0,0,3,0,0,0,87,89,10,0,42,153.27,69,-3.00,-7.00,-997.00
2024-06-07 14:45:42.162245,0,0,3,0,0,0,86,89,10,0,42,153.28,69,-4.00,-6.00,-999.00
2024-06-07 14:45:42.173685,0,0,3,0,0,0,86,89,10,0,42,153.28,69,-4.00,-7.00,-998.00
2024-06-07 14:45:42.366650,0,0,3,0,0,0,86,89,10,0,42,153.26,69,-3.00,-6.00,-1001.00
2024-06-07 14:45:42.377387,0,0,3,0,0,0,86,89,10,0,42,153.23,69,-2.00,-7.00,-999.00
2024-06-07 14:45:42.570387,0,0,3,0,0,0,86,89,10,0,42,153.30,69,-2.00,-6.00,-999.00
2024-06-07 14:45:42.570547,0,0,3,0,0,0,86,89,10,0,42,153.31,69,-2.00,-8.00,-1001.00
2024-06-07 14:45:42.632836,0,0,3,0,0,0,86,89,10,0,42,153.30,69,-3.00,-6.00,-995.00
2024-06-07 14:45:42.776267,0,0,3,0,0,0,86,89,10,0,42,153.27,69,-4.00,-6.00,-998.00
2024-06-07 14:45:42.836438,0,0,3,0,0,0,86,89,10,0,42,153.32,69,-4.00,-7.00,-999.00
2024-06-07 14:45:42.981057,0,0,3,0,0,0,86,89,10,0,42,153.31,69,-3.00,-7.00,-1000.00
2024-06-07 14:45:43.040442,0,0,3,0,0,0,87,90,10,0,42,153.31,69,-4.00,-7.00,-998.00
2024-06-07 14:45:43.185236,0,0,3,0,0,0,87,90,10,0,42,153.31,69,-4.00,-7.00,-996.00
2024-06-07 14:45:43.244508,0,0,3,0,0,0,87,90,10,0,42,153.31,69,-3.00,-7.00,-1000.00
2024-06-07 14:45:43.389994,0,0,3,0,0,0,87,90,10,0,42,153.31,69,-3.00,-7.00,-1000.00
2024-06-07 14:45:43.448505,0,0,3,0,0,0,87,90,10,0,42,153.31,69,-3.00,-7.00,-998.00
2024-06-07 14:45:43.594707,0,0,3,0,0,0,87,90,10,0,42,153.28,69,-4.00,-7.00,-997.00
2024-06-07 14:45:43.652759,0,0,3,0,0,0,87,90,10,0,42,153.25,69,-3.00,-7.00,-999.00
2024-06-07 14:45:43.801100,0,0,3,0,0,0,87,90,10,0,42,153.28,69,-5.00,-6.00,-1000.00
2024-06-07 14:45:43.856465,0,0,3,0,0,0,87,90,10,0,42,153.28,69,-3.00,-6.00,-998.00
2024-06-07 14:45:43.958260,0,0,3,0,0,0,87,90,10,0,42,153.29,69,-3.00,-6.00,-998.00
2024-06-07 14:45:44.108112,0,0,3,0,0,0,88,89,10,0,42,153.30,69,-4.00,-7.00,-1000.00
2024-06-07 14:45:44.162390,0,0,3,0,0,0,88,89,10,0,42,153.30,69,-12.00,3.00,-998.00
2024-06-07 14:45:44.311398,0,0,3,0,0,0,88,89,10,0,42,153.30,69,-7.00,-9.00,-1006.00
2024-06-07 14:45:44.366391,0,0,3,0,0,0,88,89,10,0,42,153.30,69,3.00,-10.00,-994.00
2024-06-07 14:45:44.515852,0,0,2,0,0,0,88,89,10,0,42,153.30,69,18.00,-25.00,-1009.00
2024-06-07 14:45:44.573275,0,0,2,0,0,0,88,89,10,0,42,153.30,69,18.00,-32.00,-1001.00
2024-06-07 14:45:44.672423,0,0,2,0,0,0,88,89,10,0,42,153.30,69,-3.00,8.00,-1099.00
2024-06-07 14:45:44.774472,-1,-1,2,0,0,-2,88,89,10,0,42,153.30,70,-11.00,-7.00,-1155.00
2024-06-07 14:45:44.876342,0,0,2,0,-1,-5,88,89,10,0,42,153.30,70,45.00,-55.00,-1255.00
2024-06-07 14:45:44.978675,1,3,2,0,-1,-6,88,89,12,0,42,153.30,70,1.00,-54.00,-1201.00
2024-06-07 14:45:45.080219,1,3,2,0,-1,-7,88,89,20,10,42,153.77,70,7.00,-67.00,-991.00
2024-06-07 14:45:45.234165,2,4,2,0,-1,-7,88,89,29,10,42,153.82,70,19.00,-61.00,-920.00
2024-06-07 14:45:45.285384,1,3,2,0,0,-7,88,89,37,20,42,153.90,70,-7.00,-50.00,-985.00
2024-06-07 14:45:45.386303,0,4,2,0,0,-6,88,89,45,30,42,154.06,70,-17.00,-50.00,-973.00
2024-06-07 14:45:45.539961,0,3,2,0,0,-6,88,89,54,30,42,154.04,70,20.00,-43.00,-944.00
2024-06-07 14:45:45.590307,0,2,2,0,0,-5,88,89,62,40,42,154.14,70,-12.00,-29.00,-911.00
2024-06-07 14:45:45.692390,0,2,2,0,0,-4,88,89,69,40,42,154.27,70,29.00,-57.00,-896.00
2024-06-07 14:45:45.847422,0,3,2,0,0,-3,88,89,75,50,42,154.21,71,-9.00,-40.00,-904.00
2024-06-07 14:45:45.896361,0,2,2,0,0,-2,88,89,80,50,42,154.22,71,-8.00,-34.00,-918.00
2024-06-07 14:45:45.947701,0,2,2,0,0,-1,88,89,84,60,42,154.28,71,9.00,-50.00,-906.00
2024-06-07 14:45:46.100217,-1,2,2,0,0,-1,88,90,88,60,42,154.33,71,-5.00,-42.00,-906.00
2024-06-07 14:45:46.256692,0,1,2,0,0,0,88,90,90,60,42,154.30,71,-22.00,-27.00,-922.00
2024-06-07 14:45:46.256754,0,1,2,0,0,0,88,90,91,60,42,154.37,71,-3.00,-25.00,-931.00
2024-06-07 14:45:46.355496,0,2,2,0,0,0,88,90,92,60,42,154.40,71,5.00,-33.00,-918.00
2024-06-07 14:45:46.461396,0,1,2,0,0,0,88,90,93,70,42,154.46,71,-13.00,-29.00,-980.00
2024-06-07 14:45:46.559410,0,1,2,0,0,0,88,90,94,70,42,154.37,71,2.00,-39.00,-949.00
2024-06-07 14:45:46.667008,0,2,2,0,0,0,88,90,93,70,42,154.33,71,-20.00,-17.00,-964.00
2024-06-07 14:45:46.764352,0,2,2,0,0,0,88,90,94,70,42,154.22,72,12.00,-54.00,-952.00
2024-06-07 14:45:46.871243,0,2,2,0,0,0,88,90,93,70,42,154.35,72,9.00,-45.00,-986.00
2024-06-07 14:45:46.967145,0,2,2,0,0,0,88,90,93,70,42,154.32,72,4.00,-55.00,-986.00
2024-06-07 14:45:47.075792,0,2,2,0,0,0,88,89,93,70,42,154.32,72,-18.00,-28.00,-987.00
2024-06-07 14:45:47.171087,0,2,2,0,0,0,88,89,91,70,42,154.30,72,10.00,-26.00,-1020.00
2024-06-07 14:45:47.280586,0,1,2,0,0,0,88,89,91,70,42,154.26,72,21.00,-45.00,-955.00
2024-06-07 14:45:47.377865,0,1,2,0,0,1,88,89,90,70,42,154.31,72,13.00,-41.00,-995.00
2024-06-07 14:45:47.480244,0,2,2,0,0,1,88,89,88,70,42,154.21,72,39.00,-33.00,-993.00
2024-06-07 14:45:47.579076,1,1,2,0,0,1,88,89,87,70,42,154.28,72,16.00,-32.00,-1023.00
2024-06-07 14:45:47.682385,1,2,2,0,0,1,88,89,86,60,42,154.27,72,17.00,-45.00,-981.00
2024-06-07 14:45:47.783336,1,2,2,0,0,0,88,89,85,60,42,154.25,73,19.00,-38.00,-1010.00
2024-06-07 14:45:47.897056,1,3,2,0,0,0,88,89,83,60,42,154.34,73,25.00,-18.00,-991.00
2024-06-07 14:45:47.987097,1,3,1,0,0,0,88,89,82,60,42,154.18,73,36.00,-38.00,-976.00
2024-06-07 14:45:48.090646,1,2,2,0,0,1,87,90,81,60,42,154.20,73,20.00,-41.00,-1047.00
2024-06-07 14:45:48.191068,1,2,2,0,0,0,87,90,80,60,42,154.18,73,26.00,-40.00,-976.00
2024-06-07 14:45:48.305863,1,2,2,0,0,0,87,90,78,60,42,154.23,73,22.00,-25.00,-1014.00
2024-06-07 14:45:48.395371,2,1,2,0,0,0,87,90,77,60,42,154.26,73,24.00,-49.00,-985.00
2024-06-07 14:45:48.510595,2,1,2,0,0,0,87,90,76,60,42,154.28,73,11.00,-40.00,-1002.00
2024-06-07 14:45:48.599995,2,2,2,0,0,0,87,90,75,60,42,154.26,73,31.00,-42.00,-1000.00
2024-06-07 14:45:48.702040,1,2,2,0,0,0,87,90,75,60,42,154.26,73,-1.00,-47.00,-1019.00
2024-06-07 14:45:48.819910,0,2,2,0,0,0,87,90,74,60,42,154.20,74,-7.00,-24.00,-1043.00
2024-06-07 14:45:48.905145,0,2,2,0,0,0,87,90,74,60,42,154.15,74,2.00,-34.00,-1038.00
2024-06-07 14:45:49.022936,0,2,2,0,0,0,87,90,73,50,42,154.21,74,14.00,-37.00,-954.00
2024-06-07 14:45:49.109106,0,2,2,0,0,0,87,90,73,50,42,154.15,74,49.00,-36.00,-989.00
2024-06-07 14:45:49.228044,1,2,2,0,0,0,87,90,73,50,42,154.13,74,27.00,-43.00,-1000.00
2024-06-07 14:45:49.313103,1,2,2,0,0,0,87,90,73,50,42,154.14,74,36.00,-49.00,-961.00
2024-06-07 14:45:49.432549,1,2,2,0,0,0,87,90,73,50,42,154.10,74,18.00,-26.00,-1058.00
2024-06-07 14:45:49.517064,1,2,2,0,0,0,87,90,73,50,42,154.12,74,2.00,-48.00,-948.00
2024-06-07 14:45:49.619060,1,2,1,0,0,0,87,90,74,50,42,154.21,74,15.00,-43.00,-937.00
2024-06-07 14:45:49.720970,0,3,1,0,0,0,87,90,74,50,42,154.14,74,13.00,-28.00,-1073.00
2024-06-07 14:45:49.772076,0,2,2,0,0,0,87,90,75,50,42,154.14,75,44.00,-36.00,-1009.00
2024-06-07 14:45:49.945688,1,1,2,0,0,0,87,90,75,50,42,154.22,75,20.00,-29.00,-989.00
2024-06-07 14:45:49.976182,1,1,2,0,0,0,87,90,75,50,42,154.14,75,20.00,-40.00,-1025.00
2024-06-07 14:45:50.148419,1,1,2,0,0,0,88,90,75,50,42,154.21,75,31.00,-29.00,-1020.00
2024-06-07 14:45:50.231045,1,2,2,0,0,0,88,90,75,60,42,154.11,75,46.00,-30.00,-987.00
2024-06-07 14:45:50.281965,1,2,2,0,0,0,88,90,76,60,42,154.10,75,24.00,-29.00,-999.00
2024-06-07 14:45:50.455530,1,2,2,0,0,0,88,90,76,60,42,154.15,75,51.00,-48.00,-985.00
2024-06-07 14:45:50.486031,2,2,2,0,0,0,88,90,76,60,42,154.18,75,57.00,-42.00,-966.00
2024-06-07 14:45:50.588053,2,2,2,0,0,0,88,90,75,60,42,154.21,75,27.00,-20.00,-1063.00
2024-06-07 14:45:50.690030,2,1,2,0,0,0,88,90,76,60,42,154.15,75,31.00,-61.00,-980.00
2024-06-07 14:45:50.866151,2,2,2,0,0,0,88,90,76,60,42,154.15,76,34.00,-44.00,-982.00
2024-06-07 14:45:50.894120,1,3,2,0,0,0,88,90,76,60,42,154.11,76,21.00,-32.00,-1022.00
2024-06-07 14:45:51.069888,1,2,2,0,0,0,88,90,76,60,42,154.14,76,6.00,-34.00,-995.00
2024-06-07 14:45:51.098002,1,2,2,0,0,0,87,89,76,60,42,154.20,76,33.00,-38.00,-991.00
2024-06-07 14:45:51.274312,1,3,2,0,0,0,87,89,76,60,42,154.20,76,35.00,-21.00,-1020.00
2024-06-07 14:45:51.301912,1,2,2,0,0,0,87,89,76,60,42,154.12,76,31.00,-22.00,-1003.00
2024-06-07 14:45:51.405060,1,2,2,0,0,0,87,89,75,60,42,154.18,76,43.00,-29.00,-975.00
2024-06-07 14:45:51.505923,1,1,2,0,0,0,87,89,76,60,42,154.11,76,36.00,-36.00,-997.00
2024-06-07 14:45:51.607915,1,1,1,0,0,0,87,89,76,60,42,154.21,76,35.00,-12.00,-1037.00
2024-06-07 14:45:51.710831,2,1,1,0,0,0,87,89,75,60,42,154.14,76,60.00,-11.00,-997.00
2024-06-07 14:45:51.812082,1,1,1,0,0,0,87,89,75,60,42,154.13,77,31.00,-16.00,-951.00
2024-06-07 14:45:51.991094,1,0,2,0,0,0,87,89,75,60,42,154.13,77,35.00,-16.00,-1012.00
2024-06-07 14:45:52.015888,1,0,2,0,0,0,87,89,75,50,42,154.05,77,40.00,-38.00,-979.00
2024-06-07 14:45:52.195869,1,0,1,0,0,0,86,89,75,50,42,154.07,77,34.00,-12.00,-999.00
2024-06-07 14:45:52.219911,1,0,2,0,0,0,86,89,75,50,42,154.02,77,27.00,-23.00,-1021.00
2024-06-07 14:45:52.401885,1,1,2,0,0,0,86,89,75,50,42,154.17,77,14.00,-18.00,-1002.00
2024-06-07 14:45:52.423946,1,1,2,0,0,0,86,89,76,50,42,154.18,77,24.00,-25.00,-962.00
2024-06-07 14:45:52.605338,1,1,2,0,0,0,86,89,75,50,42,154.11,77,36.00,-24.00,-985.00
2024-06-07 14:45:52.627832,1,0,2,0,0,0,86,89,76,50,42,154.10,77,17.00,-22.00,-988.00
2024-06-07 14:45:52.729921,1,0,2,0,0,0,86,89,76,50,42,154.15,77,41.00,-27.00,-997.00
2024-06-07 14:45:52.914250,1,1,2,0,0,0,86,89,76,50,42,154.13,78,24.00,-18.00,-1009.00
2024-06-07 14:45:52.933928,1,0,2,0,0,0,86,89,77,60,42,154.16,78,39.00,-15.00,-1035.00
2024-06-07 14:45:53.117380,1,0,2,0,0,0,86,89,78,60,42,154.16,78,18.00,-31.00,-958.00
2024-06-07 14:45:53.137902,1,0,1,0,0,0,86,89,78,60,42,154.18,78,19.00,-18.00,-1018.00
2024-06-07 14:45:53.323008,1,1,2,0,0,0,86,89,78,60,42,154.10,78,35.00,-22.00,-959.00
2024-06-07 14:45:53.341755,1,1,2,0,0,0,86,89,79,60,42,154.15,78,31.00,-24.00,-983.00
2024-06-07 14:45:53.527137,1,1,2,0,0,0,86,89,79,60,42,154.12,78,47.00,-28.00,-997.00
2024-06-07 14:45:53.547832,1,1,2,0,0,0,86,89,79,60,42,154.19,78,0.00,-33.00,-960.00
2024-06-07 14:45:53.647905,1,1,2,0,0,0,86,89,78,60,42,154.17,78,29.00,-34.00,-991.00
2024-06-07 14:45:53.834421,1,2,2,0,0,0,86,89,78,60,42,154.16,78,7.00,-39.00,-953.00
2024-06-07 14:45:53.852664,1,2,2,0,0,0,86,89,79,60,42,154.18,79,19.00,-28.00,-1031.00
2024-06-07 14:45:53.953948,0,2,2,0,0,0,86,89,78,60,42,154.19,79,20.00,-33.00,-990.00
2024-06-07 14:45:54.143462,0,2,2,0,0,0,86,89,79,60,42,154.21,79,-6.00,-13.00,-999.00
2024-06-07 14:45:54.159410,0,1,2,0,0,0,87,90,79,60,42,154.29,79,17.00,-17.00,-977.00
2024-06-07 14:45:54.260197,0,1,2,0,0,0,87,90,78,60,42,154.20,79,19.00,-33.00,-975.00
2024-06-07 14:45:54.310959,0,0,2,0,0,0,87,90,78,60,42,154.27,79,0.00,-21.00,-1003.00
2024-06-07 14:45:54.412955,0,0,2,0,0,0,87,90,79,60,42,154.27,79,3.00,-24.00,-1006.00
2024-06-07 14:45:54.552776,0,0,2,0,0,0,87,90,79,60,42,154.34,79,7.00,-26.00,-1069.00
2024-06-07 14:45:54.616874,0,1,2,0,0,0,87,90,79,60,42,154.33,79,10.00,-50.00,-934.00
2024-06-07 14:45:54.725144,0,1,2,0,0,0,87,90,79,60,42,154.31,79,10.00,-43.00,-971.00
2024-06-07 14:45:54.820756,0,2,2,0,0,0,87,90,79,60,42,154.23,80,-3.00,-43.00,-1048.00
2024-06-07 14:45:54.961863,0,2,2,0,0,0,87,90,79,60,42,154.24,80,23.00,-48.00,-1074.00
2024-06-07 14:45:55.024806,0,2,2,0,0,-1,87,90,80,60,42,154.23,80,-7.00,-51.00,-1105.00
2024-06-07 14:45:55.165454,0,2,2,0,0,-2,86,89,82,60,42,154.28,80,19.00,-35.00,-1135.00
2024-06-07 14:45:55.228641,0,2,2,0,0,-2,86,89,86,60,42,154.30,80,14.00,-34.00,-1159.00
2024-06-07 14:45:55.371330,0,2,2,0,0,-3,86,89,90,60,42,154.30,80,14.00,-42.00,-1115.00
2024-06-07 14:45:55.433088,0,2,2,0,0,-4,86,89,94,70,42,154.40,80,16.00,-40.00,-1052.00
2024-06-07 14:45:55.575085,0,2,2,0,0,-4,86,89,99,70,42,154.41,80,34.00,-37.00,-1040.00
2024-06-07 14:45:55.636822,0,2,2,0,0,-5,86,89,105,80,42,154.53,80,28.00,-45.00,-955.00
2024-06-07 14:45:55.738781,0,2,2,0,0,-5,86,89,109,80,42,154.56,80,4.00,-33.00,-1039.00
2024-06-07 14:45:55.883778,0,1,2,0,0,-5,86,89,116,90,42,154.58,81,7.00,-27.00,-992.00
2024-06-07 14:45:55.942894,0,1,2,0,0,-5,86,89,121,90,42,154.63,81,1.00,-25.00,-1025.00
2024-06-07 14:45:56.089125,0,1,2,0,0,-5,86,89,126,100,42,154.68,81,14.00,-41.00,-957.00
2024-06-07 14:45:56.148697,0,1,2,0,0,-5,86,89,132,110,42,154.75,81,14.00,-27.00,-987.00
2024-06-07 14:45:56.249165,0,1,2,0,0,-5,86,89,138,110,42,154.77,81,-16.00,-20.00,-949.00
2024-06-07 14:45:56.350902,0,1,2,0,0,-4,86,89,142,120,42,154.85,81,10.00,-27.00,-971.00
2024-06-07 14:45:56.496703,0,1,2,0,0,-4,86,89,146,120,42,154.88,81,3.00,-26.00,-970.00
2024-06-07 14:45:56.555172,0,1,2,0,0,-4,86,89,149,130,42,154.89,81,22.00,-32.00,-975.00
2024-06-07 14:45:56.703088,0,1,2,0,0,-3,86,89,154,130,42,155.00,81,0.00,-17.00,-977.00
2024-06-07 14:45:56.758760,0,1,2,0,0,-3,86,89,157,130,42,155.00,81,2.00,-33.00,-977.00
2024-06-07 14:45:56.907620,0,1,2,0,0,-2,86,89,160,140,42,154.96,82,3.00,-30.00,-966.00
2024-06-07 14:45:56.962764,0,1,2,0,0,-2,86,89,162,140,42,154.99,82,5.00,-28.00,-983.00
2024-06-07 14:45:57.111045,0,1,2,0,0,-2,86,89,166,140,42,154.98,82,4.00,-25.00,-969.00
2024-06-07 14:45:57.166635,0,1,2,0,0,-2,86,89,166,140,42,155.02,82,-1.00,-33.00,-973.00
2024-06-07 14:45:57.315743,0,1,2,0,0,-1,86,89,168,150,42,155.02,82,6.00,-10.00,-988.00
2024-06-07 14:45:57.370669,0,2,2,0,0,-1,86,89,169,150,42,155.00,82,-8.00,-9.00,-990.00
2024-06-07 14:45:57.520627,0,1,2,0,0,-1,86,89,170,150,42,155.14,82,3.00,-17.00,-1004.00
2024-06-07 14:45:57.575100,0,1,2,0,0,-1,86,89,171,150,42,155.01,82,-15.00,-2.00,-992.00
2024-06-07 14:45:57.677364,0,1,2,0,0,-1,86,89,172,150,42,155.08,82,2.00,-15.00,-1009.00
2024-06-07 14:45:57.728607,0,1,2,0,0,0,86,89,174,150,42,155.21,82,0.00,-21.00,-964.00
2024-06-07 14:45:57.831307,0,0,2,0,0,0,86,89,174,150,42,155.12,83,-20.00,-16.00,-977.00
2024-06-07 14:45:57.933350,0,0,2,0,0,0,86,89,176,150,42,155.15,83,-12.00,-6.00,-990.00
2024-06-07 14:45:58.035204,0,0,2,0,0,0,86,89,176,150,42,155.17,83,-9.00,-4.00,-1003.00
2024-06-07 14:45:58.238084,0,0,2,0,0,0,86,89,177,150,42,155.15,83,3.00,-19.00,-971.00
2024-06-07 14:45:58.238600,0,0,2,0,0,0,86,89,176,150,42,155.07,83,6.00,-22.00,-1000.00
2024-06-07 14:45:58.340825,0,0,2,0,0,0,86,89,177,150,42,155.06,83,-9.00,-15.00,-980.00
2024-06-07 14:45:58.443491,0,0,2,0,0,0,86,89,178,150,42,155.15,83,-8.00,-14.00,-996.00
2024-06-07 14:45:58.545216,0,1,2,0,0,0,86,89,176,150,42,155.15,83,-1.00,-8.00,-1014.00
2024-06-07 14:45:58.649348,0,0,2,0,0,0,86,89,178,150,42,155.09,83,13.00,-17.00,-994.00
2024-06-07 14:45:58.750302,0,0,2,0,0,0,86,89,179,150,42,155.15,83,-21.00,0.00,-977.00
2024-06-07 14:45:58.852532,0,0,2,0,0,0,86,89,177,160,42,155.12,84,5.00,-2.00,-1014.00
2024-06-07 14:45:58.954567,0,0,2,0,0,0,86,89,180,160,42,155.13,84,17.00,-6.00,-994.00
2024-06-07 14:45:59.057341,0,0,2,0,0,0,86,89,177,160,42,155.14,84,0.00,-6.00,-995.00
2024-06-07 14:45:59.160184,0,0,2,0,0,0,86,88,177,160,42,155.14,84,19.00,-15.00,-986.00
2024-06-07 14:45:59.258769,0,0,2,0,0,0,86,88,177,160,42,155.11,84,-6.00,-9.00,-957.00
2024-06-07 14:45:59.365146,0,0,1,0,0,0,86,88,178,160,42,155.14,84,16.00,-10.00,-978.00
2024-06-07 14:45:59.462729,0,0,2,0,0,0,86,88,176,160,42,155.02,84,7.00,-9.00,-966.00
2024-06-07 14:45:59.570198,0,0,2,0,0,0,86,88,175,160,42,155.10,84,13.00,-11.00,-961.00
2024-06-07 14:45:59.666637,0,0,2,0,0,0,86,88,175,150,42,155.15,84,29.00,-24.00,-1007.00
2024-06-07 14:45:59.768508,1,1,2,0,0,0,86,88,174,150,42,155.10,85,11.00,-3.00,-1040.00
2024-06-07 14:45:59.871588,1,0,2,0,0,0,86,88,173,150,42,155.17,85,21.00,-20.00,-993.00
2024-06-07 14:45:59.972567,1,1,2,0,0,0,86,88,172,150,42,155.09,85,36.00,-28.00,-981.00
2024-06-07 14:46:00.080500,0,1,2,0,0,1,86,88,172,150,42,155.15,85,17.00,-23.00,-959.00
2024-06-07 14:46:00.176532,0,1,2,0,0,1,87,89,171,150,42,155.12,85,20.00,-37.00,-962.00
2024-06-07 14:46:00.286616,0,1,2,0,0,2,87,89,168,150,42,155.09,85,22.00,-14.00,-946.00
2024-06-07 14:46:00.380466,0,1,2,0,0,2,87,89,167,140,42,155.07,85,14.00,-18.00,-963.00
2024-06-07 14:46:00.491720,0,2,2,0,0,2,87,89,165,140,42,155.07,85,18.00,-41.00,-981.00
2024-06-07 14:46:00.584484,0,2,2,0,0,2,87,89,162,140,42,155.01,85,15.00,-35.00,-973.00
2024-06-07 14:46:00.697377,0,2,2,0,0,2,87,89,160,140,42,155.01,85,11.00,-31.00,-973.00
2024-06-07 14:46:00.788504,0,2,2,0,0,2,87,89,157,130,42,154.99,86,31.00,-15.00,-1044.00
2024-06-07 14:46:00.899782,0,1,2,0,0,2,87,89,154,130,42,155.00,86,0.00,-19.00,-989.00
2024-06-07 14:46:00.992519,0,1,2,0,0,2,87,89,151,130,42,154.94,86,17.00,-33.00,-1003.00
2024-06-07 14:46:01.106150,0,1,2,0,0,2,87,89,147,130,42,155.00,86,-13.00,-21.00,-988.00
2024-06-07 14:46:01.196668,0,1,2,0,0,2,86,89,145,120,42,154.96,86,-2.00,-17.00,-1030.00
2024-06-07 14:46:01.311146,0,1,2,0,0,2,86,89,144,120,42,155.00,86,-1.00,-16.00,-1029.00
2024-06-07 14:46:01.400710,0,0,2,0,0,1,86,89,142,120,42,154.90,86,10.00,-25.00,-1021.00
2024-06-07 14:46:01.451355,0,0,2,0,0,1,86,89,140,120,42,154.82,86,14.00,-19.00,-1027.00
2024-06-07 14:46:01.616729,0,1,2,0,0,1,86,89,137,120,42,154.75,86,4.00,-31.00,-973.00
2024-06-07 14:46:01.655312,0,1,2,0,0,1,86,89,136,120,42,154.79,86,31.00,-30.00,-1006.00
2024-06-07 14:46:01.757451,0,0,2,0,0,1,86,89,134,110,42,154.72,87,29.00,-13.00,-1045.00
2024-06-07 14:46:01.862342,1,0,2,0,0,1,86,89,132,110,42,154.79,87,32.00,-19.00,-1041.00
2024-06-07 14:46:01.964613,1,1,2,0,0,1,86,89,129,110,42,154.73,87,33.00,-23.00,-1020.00
2024-06-07 14:46:02.064491,1,1,2,0,0,1,86,89,130,110,42,154.75,87,16.00,-27.00,-1013.00
2024-06-07 14:46:02.231039,1,1,2,0,0,1,86,89,127,110,42,154.70,87,44.00,-19.00,-1042.00
2024-06-07 14:46:02.267482,1,1,2,0,0,0,86,89,126,110,42,154.76,87,24.00,-18.00,-1039.00
2024-06-07 14:46:02.438118,0,1,2,0,0,0,86,89,124,110,42,154.62,87,22.00,-21.00,-1021.00
2024-06-07 14:46:02.471442,0,1,2,0,0,0,86,89,124,100,42,154.61,87,7.00,-23.00,-1047.00
2024-06-07 14:46:02.642661,0,1,2,0,0,0,86,89,125,100,42,154.67,87,43.00,-40.00,-1024.00
2024-06-07 14:46:02.675745,0,1,2,0,0,0,86,89,125,100,42,154.65,87,17.00,-17.00,-992.00
2024-06-07 14:46:02.846716,1,1,2,0,0,0,86,89,125,100,42,154.66,88,10.00,-27.00,-1002.00
2024-06-07 14:46:02.879925,1,1,2,0,0,0,86,89,125,100,42,154.65,88,16.00,-36.00,-994.00
2024-06-07 14:46:03.051693,1,1,2,0,0,0,86,89,124,100,42,154.68,88,19.00,-12.00,-1018.00
2024-06-07 14:46:03.083483,1,1,2,0,0,0,86,89,125,100,42,154.68,88,26.00,-28.00,-978.00
2024-06-07 14:46:03.185457,1,1,2,0,0,0,86,89,125,100,42,154.62,88,25.00,-12.00,-1001.00
2024-06-07 14:46:03.359015,1,1,2,0,0,0,86,89,125,100,42,154.70,88,32.00,-16.00,-1009.00
2024-06-07 14:46:03.389463,1,1,2,0,0,0,86,89,125,100,42,154.63,88,26.00,-6.00,-1009.00
2024-06-07 14:46:03.564121,1,1,2,0,0,0,86,89,125,100,42,154.69,88,47.00,-28.00,-1007.00
2024-06-07 14:46:03.593436,1,0,2,0,0,0,86,89,126,100,42,154.66,88,25.00,-30.00,-961.00
2024-06-07 14:46:03.768924,1,1,2,0,0,0,86,89,126,100,42,154.67,88,22.00,-21.00,-1016.00
2024-06-07 14:46:03.797230,1,1,2,0,0,0,86,89,126,100,42,154.60,89,14.00,-34.00,-952.00
2024-06-07 14:46:03.973271,0,1,2,0,0,0,86,89,127,100,42,154.66,89,19.00,-28.00,-991.00
2024-06-07 14:46:04.001360,0,1,2,0,0,0,86,89,127,110,42,154.67,89,38.00,-29.00,-981.00
2024-06-07 14:46:04.118467,1,1,2,0,0,0,86,89,128,110,42,154.63,89,41.00,-16.00,-1031.00
2024-06-07 14:46:04.205367,1,1,2,0,0,0,87,88,128,110,42,154.71,89,17.00,-17.00,-973.00
2024-06-07 14:46:04.307335,0,1,2,0,0,0,87,88,128,110,42,154.72,89,6.00,-22.00,-1009.00
2024-06-07 14:46:04.484991,-6,0,2,0,0,0,87,88,130,110,42,154.67,89,46.00,-30.00,-965.00
2024-06-07 14:46:04.511338,-8,0,1,2,0,0,87,88,129,110,42,154.68,89,-4.00,-16.00,-1009.00
2024-06-07 14:46:04.690607,-7,0,2,3,0,0,87,88,130,110,42,154.70,89,17.00,-38.00,-975.00
2024-06-07 14:46:04.715490,-7,0,2,4,0,0,87,88,129,110,42,154.71,89,-5.00,-25.00,-1033.00
2024-06-07 14:46:04.894953,-6,0,2,5,0,0,87,88,128,110,42,154.69,90,-16.00,-40.00,-970.00
2024-06-07 14:46:04.919157,-5,1,2,6,0,0,87,88,128,110,42,154.69,90,-14.00,-29.00,-998.00
2024-06-07 14:46:05.098026,-4,1,2,7,0,0,87,88,127,110,42,154.69,90,-31.00,-26.00,-1036.00
2024-06-07 14:46:05.123162,-3,1,2,7,0,0,87,88,128,110,42,154.64,90,-32.00,-32.00,-976.00
2024-06-07 14:46:05.225180,-1,1,2,7,0,0,86,89,125,110,42,154.70,90,-50.00,-29.00,-1026.00
2024-06-07 14:46:05.405254,1,1,2,7,0,0,86,89,127,110,42,154.59,90,-25.00,-38.00,-981.00
2024-06-07 14:46:05.429343,3,2,2,6,0,0,86,89,126,110,42,154.59,90,-53.00,-10.00,-1025.00
2024-06-07 14:46:05.531300,4,1,2,5,0,0,86,89,127,110,42,154.63,90,-31.00,-34.00,-989.00
2024-06-07 14:46:05.582093,3,1,2,4,0,0,86,89,126,110,42,154.74,90,-34.00,-29.00,-1024.00
2024-06-07 14:46:05.713007,2,1,2,3,0,0,86,89,127,110,42,154.65,90,-33.00,-23.00,-974.00
2024-06-07 14:46:05.786165,1,1,2,3,0,0,86,89,126,110,42,154.71,91,-16.00,-34.00,-1000.00
2024-06-07 14:46:05.919316,0,1,2,2,0,0,86,89,126,110,42,154.76,91,-44.00,-19.00,-971.00
2024-06-07 14:46:05.990682,0,1,2,2,0,0,86,89,126,110,42,154.74,91,-8.00,-45.00,-944.00
2024-06-07 14:46:06.092165,0,1,1,2,0,0,86,89,127,110,42,154.70,91,-3.00,-30.00,-994.00
2024-06-07 14:46:06.194715,0,1,1,2,0,0,87,89,126,110,42,154.75,91,-18.00,-31.00,-981.00
2024-06-07 14:46:06.326851,0,1,1,2,0,0,87,89,126,110,42,154.68,91,-3.00,-31.00,-993.00
2024-06-07 14:46:06.398182,0,1,1,2,0,0,87,89,125,100,42,154.78,91,0.00,-27.00,-980.00
2024-06-07 14:46:06.533208,0,1,1,2,0,0,87,89,125,100,42,154.65,91,8.00,-19.00,-1004.00
2024-06-07 14:46:06.602108,0,1,1,2,0,0,87,89,126,100,42,154.63,91,6.00,-20.00,-1056.00
2024-06-07 14:46:06.737286,1,1,2,1,0,0,87,89,125,100,42,154.63,91,5.00,-17.00,-1049.00
2024-06-07 14:46:06.806154,4,1,2,1,0,0,87,89,125,100,42,154.59,92,7.00,-28.00,-1019.00
2024-06-07 14:46:06.943522,3,1,2,0,0,0,87,89,125,100,42,154.65,92,7.00,-14.00,-1094.00
2024-06-07 14:46:07.010329,1,1,2,0,0,0,87,89,125,100,42,154.60,92,28.00,-20.00,-1027.00
2024-06-07 14:46:07.149019,1,1,2,0,0,0,87,89,123,100,42,154.64,92,41.00,-27.00,-998.00
2024-06-07 14:46:07.214280,1,1,2,0,0,0,87,88,125,100,42,154.64,92,18.00,-33.00,-971.00
2024-06-07 14:46:07.353527,1,1,2,0,0,0,87,88,123,100,42,154.61,92,0.00,-20.00,-1063.00
2024-06-07 14:46:07.418242,1,1,2,0,0,0,87,88,124,100,42,154.63,92,13.00,-23.00,-994.00
2024-06-07 14:46:07.557143,0,1,2,0,0,0,87,88,124,100,42,154.63,92,15.00,-28.00,-992.00
2024-06-07 14:46:07.622277,0,1,2,0,0,0,87,88,124,100,42,154.57,92,13.00,-14.00,-1027.00
2024-06-07 14:46:07.761119,0,1,2,0,0,0,87,88,125,100,42,154.64,92,13.00,-23.00,-995.00
2024-06-07 14:46:07.826343,0,1,2,0,0,0,87,88,125,100,42,154.61,93,26.00,-30.00,-972.00
2024-06-07 14:46:07.966102,0,1,2,0,0,0,87,88,125,100,42,154.62,93,34.00,-18.00,-1008.00
2024-06-07 14:46:08.030296,0,1,2,0,0,0,87,88,124,100,42,154.63,93,-4.00,-28.00,-948.00
2024-06-07 14:46:08.132672,0,1,2,0,0,0,87,88,125,100,42,154.63,93,9.00,-19.00,-996.00
2024-06-07 14:46:08.274492,0,1,2,0,0,0,86,88,124,100,42,154.66,93,3.00,-34.00,-992.00
2024-06-07 14:46:08.336225,0,1,2,0,0,0,86,88,125,100,42,154.64,93,3.00,-20.00,-1015.00
2024-06-07 14:46:08.485915,0,1,2,0,0,0,86,88,124,100,42,154.58,93,4.00,-18.00,-1033.00
2024-06-07 14:46:08.540218,0,1,2,0,0,0,86,88,126,100,42,154.62,93,15.00,-40.00,-992.00
2024-06-07 14:46:08.684526,0,1,2,0,0,0,86,88,127,100,41,154.64,93,0.00,-36.00,-972.00
2024-06-07 14:46:08.744192,0,1,2,0,0,0,86,88,127,100,41,154.62,93,-13.00,-17.00,-1052.00
2024-06-07 14:46:08.888547,0,1,2,0,0,0,86,88,128,100,41,154.63,94,-7.00,-25.00,-963.00
2024-06-07 14:46:08.948225,0,1,2,0,0,0,86,88,129,110,41,154.66,94,13.00,-31.00,-991.00
2024-06-07 14:46:09.061378,0,0,2,0,0,0,86,88,130,110,41,154.67,94,-2.00,-20.00,-989.00
2024-06-07 14:46:09.151985,0,0,2,0,0,0,86,88,130,110,41,154.76,94,-3.00,-20.00,-987.00
2024-06-07 14:46:09.298218,7,1,2,0,0,0,87,88,133,110,41,154.76,94,0.00,-11.00,-972.00
2024-06-07 14:46:09.355947,8,1,2,-1,0,0,87,88,132,110,41,154.72,94,36.00,-19.00,-974.00
2024-06-07 14:46:09.501239,8,1,2,-2,0,0,87,88,133,110,41,154.64,94,28.00,-25.00,-978.00
2024-06-07 14:46:09.559976,8,1,2,-4,0,0,87,88,134,110,41,154.71,94,24.00,-23.00,-994.00
2024-06-07 14:46:09.610938,8,1,2,-5,0,0,87,88,134,110,41,154.67,94,18.00,-12.00,-1015.00
2024-06-07 14:46:09.810638,7,1,2,-6,0,0,87,88,135,110,41,154.71,94,44.00,-23.00,-995.00
2024-06-07 14:46:09.815926,6,1,2,-7,0,0,87,88,135,110,41,154.65,95,27.00,-17.00,-989.00
2024-06-07 14:46:10.014985,4,1,2,-8,0,0,87,88,134,110,41,154.71,95,36.00,-42.00,-971.00
2024-06-07 14:46:10.019912,3,1,2,-8,0,0,87,88,133,110,41,154.74,95,24.00,-23.00,-956.00
2024-06-07 14:46:10.219250,0,0,2,-8,0,0,87,88,133,110,41,154.65,95,24.00,-29.00,-1012.00
2024-06-07 14:46:10.223934,-3,0,2,-7,0,0,86,89,134,110,41,154.66,95,59.00,-45.00,-991.00
2024-06-07 14:46:10.425469,-5,0,2,-6,0,0,86,89,134,110,41,154.68,95,18.00,-42.00,-961.00
2024-06-07 14:46:10.428588,-5,0,2,-5,0,0,86,89,133,110,41,154.68,95,7.00,-39.00,-991.00
2024-06-07 14:46:10.530010,-4,1,2,-4,0,0,86,89,132,110,41,154.66,95,17.00,-17.00,-1003.00
2024-06-07 14:46:10.631940,-2,3,2,-3,0,0,86,89,132,110,40,154.67,95,5.00,-29.00,-993.00
2024-06-07 14:46:10.735160,-1,2,2,-3,0,0,86,89,130,110,40,154.66,95,-16.00,-32.00,-982.00
2024-06-07 14:46:10.836884,-1,1,2,-3,0,0,86,89,131,110,40,154.68,96,-16.00,-16.00,-1034.00
2024-06-07 14:46:10.939560,-2,1,2,-3,0,0,86,89,130,110,40,154.67,96,5.00,-27.00,-993.00
2024-06-07 14:46:11.043206,-3,1,2,-2,0,0,86,89,130,110,40,154.59,96,-14.00,-24.00,-1029.00
2024-06-07 14:46:11.142870,-4,1,2,-1,0,0,86,89,129,110,40,154.60,96,-1.00,-30.00,-991.00
2024-06-07 14:46:11.346040,-3,1,2,-1,0,0,87,88,126,110,40,154.69,96,-16.00,-30.00,-1009.00
2024-06-07 14:46:11.347077,-2,1,2,0,0,0,87,88,126,110,40,154.66,96,-15.00,-24.00,-976.00
2024-06-07 14:46:11.549848,-1,1,2,0,0,0,87,88,126,100,40,154.58,96,-6.00,-23.00,-1045.00
2024-06-07 14:46:11.550902,-1,1,2,0,0,0,87,88,124,100,40,154.61,96,2.00,-9.00,-1064.00
2024-06-07 14:46:11.653231,-1,1,2,0,0,0,87,88,124,100,40,154.61,96,-9.00,-37.00,-972.00
2024-06-07 14:46:11.755337,0,1,2,0,0,0,87,88,124,100,40,154.64,96,-20.00,-26.00,-976.00
2024-06-07 14:46:11.857597,0,1,2,0,0,0,87,88,123,100,40,154.65,97,-18.00,-27.00,-965.00
2024-06-07 14:46:11.960627,0,1,2,0,0,0,87,88,123,100,40,154.55,97,-23.00,-21.00,-1009.00
2024-06-07 14:46:12.062814,0,1,2,0,0,0,87,88,123,100,40,154.56,97,-21.00,-16.00,-1007.00
2024-06-07 14:46:12.165327,0,1,2,0,0,0,87,88,124,100,40,154.64,97,-47.00,-17.00,-985.00
2024-06-07 14:46:12.267781,0,1,2,0,0,0,86,88,123,100,40,154.65,97,-29.00,-26.00,-966.00
2024-06-07 14:46:12.369608,0,1,2,0,0,0,86,88,123,100,40,154.67,97,-25.00,-20.00,-1015.00
2024-06-07 14:46:12.471555,-1,1,2,0,0,0,86,88,122,100,40,154.63,97,-5.00,-20.00,-1027.00
2024-06-07 14:46:12.575425,-1,1,2,0,0,0,86,88,122,100,40,154.64,97,-11.00,-23.00,-953.00
2024-06-07 14:46:12.673012,-1,1,2,0,0,0,86,88,122,100,40,154.61,97,-30.00,-13.00,-1012.00
2024-06-07 14:46:12.774986,0,0,2,0,0,0,86,88,122,100,40,154.57,97,-17.00,-18.00,-1012.00
2024-06-07 14:46:12.884009,-1,0,2,0,0,0,86,88,122,100,40,154.63,98,-21.00,-7.00,-1040.00
2024-06-07 14:46:12.978874,-1,0,2,0,0,0,86,88,122,100,40,154.67,98,-2.00,-23.00,-969.00
2024-06-07 14:46:13.031435,-1,0,2,0,0,0,86,88,122,100,40,154.59,98,-33.00,-8.00,-1012.00
2024-06-07 14:46:13.191308,-1,0,2,0,0,0,86,88,122,100,40,154.64,98,-5.00,-10.00,-988.00
2024-06-07 14:46:13.286210,-1,0,2,0,0,0,86,88,122,100,40,154.68,98,-20.00,-17.00,-999.00
2024-06-07 14:46:13.386744,-1,0,2,0,0,0,86,88,123,100,40,154.63,98,-18.00,-26.00,-953.00
2024-06-07 14:46:13.496072,-1,0,2,0,0,0,86,88,123,100,40,154.59,98,-28.00,-7.00,-1009.00
2024-06-07 14:46:13.593731,0,-6,2,0,0,0,86,88,123,100,40,154.64,98,-19.00,-14.00,-961.00
2024-06-07 14:46:13.641761,0,-7,2,0,-1,0,86,88,125,100,39,154.58,98,4.00,-25.00,-1051.00
2024-06-07 14:46:13.803808,0,-4,2,0,-2,0,86,88,124,100,39,154.58,99,-34.00,9.00,-1011.00
2024-06-07 14:46:13.846725,0,-2,2,0,-3,0,86,88,125,100,39,154.58,99,-16.00,-8.00,-973.00
2024-06-07 14:46:13.948773,0,1,2,0,-4,0,86,88,124,100,39,154.62,99,-37.00,17.00,-1028.00
2024-06-07 14:46:14.109573,-1,2,2,0,-3,0,86,88,124,100,39,154.56,99,-22.00,-3.00,-958.00
2024-06-07 14:46:14.152702,-1,2,2,0,-3,0,86,88,124,100,39,154.58,99,-24.00,-8.00,-939.00
2024-06-07 14:46:14.254715,-1,1,2,0,-2,0,86,88,124,100,39,154.54,99,-20.00,-8.00,-971.00
2024-06-07 14:46:14.383946,-1,0,2,0,-2,0,86,88,125,100,39,154.60,99,-28.00,0.00,-1012.00
2024-06-07 14:46:14.458712,-1,0,2,0,-2,0,86,88,124,100,39,154.63,99,-26.00,-13.00,-951.00
2024-06-07 14:46:14.622818,-1,0,2,0,-2,0,86,88,124,100,39,154.57,99,-26.00,4.00,-1046.00
2024-06-07 14:46:14.662703,-1,0,2,0,-2,0,86,88,124,100,39,154.60,99,-44.00,1.00,-999.00
2024-06-07 14:46:14.764819,-1,0,2,0,-2,0,86,88,124,100,39,154.68,100,-3.00,-25.00,-986.00
2024-06-07 14:46:14.928360,-1,0,2,0,-2,0,86,88,125,100,39,154.60,100,-8.00,-1.00,-1049.00
2024-06-07 14:46:14.969018,-1,0,2,0,-2,0,86,88,125,100,39,154.68,100,-27.00,-9.00,-974.00
2024-06-07 14:46:15.070664,-1,1,2,0,-2,0,86,88,123,100,39,154.60,100,-20.00,-12.00,-970.00
2024-06-07 14:46:15.237304,0,1,2,0,-2,0,86,88,124,100,39,154.57,100,-25.00,-7.00,-1013.00
2024-06-07 14:46:15.274662,0,4,2,0,-2,0,86,88,123,100,39,154.62,100,-11.00,-2.00,-1049.00
2024-06-07 14:46:15.442703,0,5,2,0,-1,0,86,88,124,100,39,154.66,100,-13.00,-21.00,-966.00
2024-06-07 14:46:15.479027,-1,3,2,0,0,0,86,88,124,100,39,154.66,100,-15.00,-18.00,-955.00
2024-06-07 14:46:15.646894,0,2,2,0,0,0,86,88,123,100,39,154.58,100,-28.00,-5.00,-1014.00
2024-06-07 14:46:15.682812,0,1,2,0,0,0,86,88,124,100,39,154.66,100,-37.00,-19.00,-1076.00
2024-06-07 14:46:15.784756,0,1,2,0,0,0,86,88,125,100,39,154.63,101,-18.00,-31.00,-992.00
2024-06-07 14:46:15.886836,0,1,2,0,0,0,86,88,125,100,39,154.57,101,-20.00,-18.00,-1055.00
2024-06-07 14:46:15.988751,0,1,2,0,0,0,86,88,125,100,39,154.64,101,-6.00,-14.00,-988.00
2024-06-07 14:46:16.158921,0,1,2,0,0,0,86,88,127,100,39,154.64,101,-22.00,-24.00,-1008.00
2024-06-07 14:46:16.192845,0,0,2,0,0,0,86,88,128,110,39,154.68,101,-13.00,-21.00,-1001.00
2024-06-07 14:46:16.364208,0,0,2,0,0,0,86,88,128,110,39,154.64,101,-19.00,-36.00,-971.00
2024-06-07 14:46:16.396744,0,1,2,0,0,0,86,88,130,110,39,154.61,101,-25.00,-18.00,-1017.00
2024-06-07 14:46:16.567705,0,1,2,0,0,0,86,88,131,110,39,154.64,101,-19.00,-23.00,-956.00
2024-06-07 14:46:16.600712,0,1,2,0,0,0,86,88,130,110,39,154.63,101,-17.00,-26.00,-968.00
2024-06-07 14:46:16.773404,0,1,2,0,0,0,86,88,129,110,38,154.63,101,-25.00,-34.00,-975.00
2024-06-07 14:46:16.804755,0,1,2,0,0,0,86,88,129,110,38,154.68,102,-31.00,-25.00,-985.00
2024-06-07 14:46:16.980331,0,1,2,0,0,0,86,88,128,110,38,154.72,102,-26.00,-25.00,-974.00
2024-06-07 14:46:17.010971,0,1,2,0,0,0,86,88,128,110,38,154.67,102,-6.00,-18.00,-1037.00
2024-06-07 14:46:17.110784,0,1,2,0,0,0,86,88,126,110,38,154.65,102,-25.00,-27.00,-1008.00
2024-06-07 14:46:17.161704,0,1,2,0,0,0,86,88,127,110,38,154.61,102,-24.00,-24.00,-987.00
2024-06-07 14:46:17.314703,-1,1,2,0,0,0,85,88,126,100,38,154.65,102,-31.00,-27.00,-998.00
2024-06-07 14:46:17.365731,-1,1,2,0,0,0,85,88,125,100,38,154.56,102,-28.00,-22.00,-1062.00
2024-06-07 14:46:17.470974,-1,1,2,0,0,0,85,88,125,100,38,154.59,102,-15.00,-25.00,-952.00
2024-06-07 14:46:17.570750,0,1,2,0,0,0,85,88,124,100,38,154.54,102,-39.00,-19.00,-1033.00
2024-06-07 14:46:17.695730,-1,6,2,0,0,0,85,88,126,100,38,154.57,102,-19.00,-19.00,-1031.00
2024-06-07 14:46:17.773704,-1,8,2,0,1,0,85,88,126,100,38,154.59,103,-9.00,-33.00,-1020.00
2024-06-07 14:46:17.899687,-1,8,2,0,2,0,85,88,126,100,38,154.62,103,-13.00,-32.00,-1033.00
2024-06-07 14:46:17.977599,-1,6,2,0,3,0,85,88,125,100,38,154.71,103,-30.00,-41.00,-979.00
2024-06-07 14:46:18.079457,-1,2,2,0,3,0,85,88,124,100,38,154.61,103,-16.00,-51.00,-992.00
2024-06-07 14:46:18.206551,0,0,2,0,3,0,85,88,123,100,38,154.56,103,-25.00,-54.00,-953.00
2024-06-07 14:46:18.283737,-1,0,2,0,3,0,86,88,123,100,38,154.63,103,-18.00,-35.00,-1050.00
2024-06-07 14:46:18.417740,0,0,2,0,3,0,86,88,123,100,38,154.63,103,-17.00,-49.00,-984.00
2024-06-07 14:46:18.490619,-1,0,2,0,2,0,86,88,123,100,38,154.61,103,-33.00,-34.00,-1054.00
2024-06-07 14:46:18.589645,-1,1,2,0,2,0,86,88,124,100,38,154.58,103,-29.00,-27.00,-1011.00
2024-06-07 14:46:18.717690,-1,1,2,0,2,0,86,88,123,100,38,154.58,103,-32.00,-48.00,-954.00
2024-06-07 14:46:18.794128,-1,1,2,0,2,0,86,88,123,100,38,154.63,104,-22.00,-39.00,-973.00
2024-06-07 14:46:18.924033,-1,2,2,0,2,0,86,88,123,100,38,154.53,104,-24.00,-32.00,-1014.00
2024-06-07 14:46:18.997575,-1,2,2,0,2,0,86,88,122,100,38,154.63,104,-26.00,-33.00,-1018.00
2024-06-07 14:46:19.099686,-1,1,2,0,2,0,86,88,121,100,38,154.61,104,-32.00,-27.00,-1033.00
2024-06-07 14:46:19.229443,-1,1,2,0,2,0,86,88,121,100,38,154.58,104,-29.00,-14.00,-1041.00
2024-06-07 14:46:19.303528,-1,-1,2,0,2,0,86,88,121,100,38,154.58,104,-14.00,-26.00,-981.00
2024-06-07 14:46:19.435495,-1,-4,2,0,2,0,86,88,120,100,38,154.53,104,-36.00,-42.00,-992.00
2024-06-07 14:46:19.507832,-1,-2,2,0,1,0,86,88,119,100,38,154.60,104,-23.00,-15.00,-1020.00
2024-06-07 14:46:19.639151,-1,0,2,0,0,0,86,88,119,100,38,154.49,104,-48.00,-3.00,-1004.00
2024-06-07 14:46:19.711641,-1,0,2,0,0,0,86,88,117,100,38,154.49,104,-33.00,-15.00,-1019.00
2024-06-07 14:46:19.813755,-1,0,2,0,0,0,86,88,117,100,38,154.51,105,-7.00,-21.00,-1006.00
2024-06-07 14:46:19.948343,-1,0,2,0,0,0,86,88,117,100,38,154.46,105,-33.00,-16.00,-1022.00
2024-06-07 14:46:20.018553,-1,0,2,0,0,0,86,88,117,100,38,154.45,105,-31.00,-7.00,-1076.00
2024-06-07 14:46:20.152651,-1,0,2,0,0,0,86,88,117,100,38,154.46,105,-27.00,-21.00,-973.00
2024-06-07 14:46:20.223147,-2,0,2,0,0,0,86,88,116,100,38,154.48,105,-40.00,-16.00,-1008.00
2024-06-07 14:46:20.357821,-1,0,2,0,0,0,85,88,117,100,38,154.44,105,-39.00,-12.00,-1048.00
2024-06-07 14:46:20.426647,-1,0,2,0,0,0,85,88,117,100,38,154.50,105,-29.00,-23.00,-964.00
2024-06-07 14:46:20.563019,-2,0,2,0,0,0,85,88,117,100,38,154.47,105,-29.00,-12.00,-1055.00
2024-06-07 14:46:20.630888,-1,0,2,0,0,0,85,88,117,100,38,154.55,105,-55.00,-13.00,-1002.00
2024-06-07 14:46:20.768458,-2,1,2,0,0,0,85,88,117,100,38,154.50,105,-19.00,-17.00,-1006.00
2024-06-07 14:46:20.783802,-2,1,2,0,0,0,85,88,117,100,38,154.50,106,-24.00,-17.00,-1015.00
2024-06-07 14:46:20.972764,-1,0,2,0,0,0,85,88,118,100,38,154.46,106,-23.00,-12.00,-1005.00
2024-06-07 14:46:20.987359,-1,0,2,0,0,0,85,88,119,100,38,154.46,106,-37.00,-21.00,-995.00
2024-06-07 14:46:21.090870,-1,0,2,0,0,0,85,88,119,100,38,154.52,106,-42.00,-15.00,-996.00
2024-06-07 14:46:21.279863,-1,1,2,0,0,0,85,88,119,100,38,154.48,106,-53.00,-4.00,-1030.00
2024-06-07 14:46:21.295238,-2,0,2,0,0,0,85,88,118,100,38,154.47,106,-56.00,-19.00,-1002.00
2024-06-07 14:46:21.395654,-2,0,2,0,0,0,85,88,120,100,38,154.41,106,-49.00,-24.00,-990.00
2024-06-07 14:46:21.499990,-2,0,2,0,0,0,85,88,120,100,38,154.45,106,-48.00,-17.00,-985.00
2024-06-07 14:46:21.602330,-2,0,2,0,0,0,85,88,122,100,38,154.59,106,-57.00,-13.00,-999.00
2024-06-07 14:46:21.701387,-3,0,5,0,0,0,85,88,122,100,38,154.40,106,-49.00,-16.00,-962.00
2024-06-07 14:46:21.803358,-2,0,11,0,0,0,85,88,123,100,38,154.38,107,-60.00,-9.00,-933.00
2024-06-07 14:46:21.910202,-2,0,16,0,0,0,85,88,123,100,38,154.45,107,-41.00,-8.00,-961.00
2024-06-07 14:46:22.007878,-2,0,22,0,0,0,85,88,124,100,38,154.44,107,-51.00,4.00,-970.00
2024-06-07 14:46:22.200160,-2,0,27,0,0,0,85,88,123,100,38,154.43,107,-37.00,12.00,-1063.00
2024-06-07 14:46:22.211373,-3,0,33,0,0,0,85,88,123,100,38,154.47,107,-59.00,1.00,-1000.00
2024-06-07 14:46:22.313511,-3,0,39,0,0,0,85,88,124,100,38,154.48,107,-55.00,26.00,-1083.00
2024-06-07 14:46:22.507342,-2,0,44,0,0,0,85,88,124,100,38,154.49,107,-41.00,12.00,-1005.00
2024-06-07 14:46:22.517338,-2,-1,50,0,0,0,85,88,125,100,38,154.45,107,-46.00,15.00,-1022.00
2024-06-07 14:46:22.814584,-2,-1,56,0,0,0,85,88,126,100,37,154.49,107,-46.00,17.00,-979.00
2024-06-07 14:46:22.814615,-2,-2,62,0,0,0,85,88,127,110,37,154.57,107,-59.00,40.00,-1038.00
2024-06-07 14:46:22.823350,-2,-2,68,0,0,0,85,88,127,110,37,154.64,108,-59.00,39.00,-1004.00
2024-06-07 14:46:23.019244,-2,-2,74,0,0,0,85,88,128,110,37,154.61,108,-34.00,33.00,-980.00
2024-06-07 14:46:23.027358,-2,-2,80,0,0,0,85,88,127,110,37,154.65,108,-22.00,43.00,-990.00
2024-06-07 14:46:23.224051,-2,-3,86,0,0,0,85,88,126,110,37,154.64,108,-61.00,42.00,-957.00
2024-06-07 14:46:23.231564,-1,-3,92,0,0,0,85,88,125,110,37,154.58,108,-27.00,48.00,-985.00
2024-06-07 14:46:23.427989,-1,-3,98,0,0,0,86,88,125,110,37,154.59,108,-33.00,57.00,-978.00
2024-06-07 14:46:23.435276,-1,-3,104,0,0,0,86,88,124,110,37,154.60,108,-15.00,67.00,-1023.00
2024-06-07 14:46:23.633995,-1,-3,110,0,0,0,86,88,124,100,37,154.64,108,-34.00,69.00,-960.00
2024-06-07 14:46:23.639338,0,-3,116,0,0,0,86,88,123,100,37,154.65,108,-41.00,64.00,-962.00
2024-06-07 14:46:23.838850,0,-3,122,0,0,0,86,88,123,100,37,154.60,108,-24.00,61.00,-992.00
2024-06-07 14:46:23.844327,0,-3,128,0,0,0,86,88,122,100,37,154.59,109,-23.00,82.00,-1052.00
2024-06-07 14:46:23.946282,0,-3,134,0,0,0,86,88,121,100,37,154.62,109,-7.00,88.00,-1002.00
2024-06-07 14:46:24.075197,1,-3,140,0,0,0,86,88,121,100,37,154.51,109,23.00,68.00,-945.00
2024-06-07 14:46:24.151323,1,-2,146,0,0,0,86,88,121,100,37,154.46,109,40.00,53.00,-964.00
2024-06-07 14:46:24.350758,1,-2,152,0,0,0,86,88,121,100,37,154.46,109,59.00,60.00,-1030.00
2024-06-07 14:46:24.354259,2,-2,159,0,0,0,86,88,120,100,37,154.49,109,37.00,58.00,-1035.00
2024-06-07 14:46:24.456287,2,-1,165,0,0,0,86,88,120,100,37,154.43,109,50.00,61.00,-1009.00
2024-06-07 14:46:24.558436,2,-1,171,0,0,0,86,88,120,100,37,154.46,109,46.00,63.00,-1050.00
2024-06-07 14:46:24.660285,2,-1,177,0,0,0,86,88,121,100,37,154.44,109,58.00,49.00,-1012.00
2024-06-07 14:46:24.762259,3,-1,-176,0,0,0,86,88,122,100,37,154.46,109,68.00,23.00,-1011.00
2024-06-07 14:46:24.864868,3,-1,-170,0,0,0,86,88,122,100,37,154.43,110,41.00,29.00,-1002.00
2024-06-07 14:46:24.966240,3,0,-164,0,0,0,86,88,123,100,37,154.41,110,57.00,22.00,-971.00
2024-06-07 14:46:25.068312,3,0,-158,0,0,0,86,88,124,100,37,154.43,110,57.00,11.00,-996.00
2024-06-07 14:46:25.120111,3,0,-152,0,0,0,86,88,125,100,37,154.41,110,42.00,4.00,-985.00
2024-06-07 14:46:25.221293,3,0,-146,0,0,0,86,88,127,100,37,154.48,110,65.00,3.00,-979.00
2024-06-07 14:46:25.375339,3,0,-140,0,0,0,85,88,127,100,37,154.42,110,55.00,-6.00,-1015.00
2024-06-07 14:46:25.425124,3,1,-133,0,0,0,85,88,128,100,37,154.44,110,56.00,-9.00,-992.00
2024-06-07 14:46:25.579341,2,1,-127,0,0,0,85,88,128,110,37,154.42,110,35.00,-27.00,-968.00
2024-06-07 14:46:25.629129,2,1,-122,0,0,0,85,88,128,110,37,154.46,110,37.00,-16.00,-1029.00
2024-06-07 14:46:25.784116,1,2,-116,0,0,0,85,88,128,110,37,154.45,110,35.00,-25.00,-1018.00
2024-06-07 14:46:25.833997,1,2,-110,0,0,0,85,88,129,110,37,154.46,111,31.00,-38.00,-999.00
2024-06-07 14:46:25.990453,1,2,-104,0,0,0,85,88,130,110,37,154.44,111,34.00,-45.00,-1025.00
2024-06-07 14:46:26.038193,0,2,-98,0,0,0,85,88,130,110,37,154.41,111,15.00,-39.00,-1050.00
2024-06-07 14:46:26.194934,1,2,-92,0,0,0,85,88,130,110,37,154.48,111,0.00,-58.00,-985.00
2024-06-07 14:46:26.242156,0,3,-86,0,0,0,85,88,129,110,37,154.53,111,-19.00,-32.00,-1062.00
2024-06-07 14:46:26.399956,0,3,-80,0,0,0,85,87,129,110,37,154.54,111,-31.00,-43.00,-963.00
2024-06-07 14:46:26.446319,-1,2,-74,0,0,0,85,87,129,110,37,154.57,111,-10.00,-40.00,-1003.00
2024-06-07 14:46:26.603655,-2,2,-68,0,0,0,85,87,129,110,37,154.52,111,-12.00,-42.00,-959.00
2024-06-07 14:46:26.650108,-2,2,-62,0,0,0,85,87,129,110,36,154.52,111,-26.00,-25.00,-1074.00
2024-06-07 14:46:26.806949,-2,2,-56,0,0,0,85,87,129,110,36,154.49,111,1.00,-35.00,-964.00
2024-06-07 14:46:26.854179,-2,2,-50,0,0,0,85,87,129,110,36,154.53,112,-32.00,-31.00,-1032.00
2024-06-07 14:46:26.956151,-2,2,-45,0,0,0,85,87,129,110,36,154.56,112,-26.00,-34.00,-990.00
2024-06-07 14:46:27.078076,-2,1,-39,0,0,0,85,87,129,110,36,154.50,112,-28.00,-22.00,-1070.00
2024-06-07 14:46:27.160144,-2,1,-34,0,0,0,85,87,129,110,36,154.40,112,-28.00,-22.00,-931.00
2024-06-07 14:46:27.320159,-2,1,-28,0,0,0,85,87,127,110,36,154.46,112,-27.00,-21.00,-1002.00
2024-06-07 14:46:27.364142,-2,1,-22,0,0,0,85,88,128,110,36,154.49,112,-52.00,-28.00,-936.00
2024-06-07 14:46:27.466128,-2,1,-12,0,0,0,85,88,129,110,36,154.42,112,-46.00,-10.00,-973.00
2024-06-07 14:46:27.627937,-3,1,-8,0,0,0,85,88,129,110,36,154.25,112,-73.00,-12.00,-1023.00
2024-06-07 14:46:27.670104,-3,0,-6,0,0,0,85,88,130,110,36,154.18,112,-69.00,-16.00,-987.00
2024-06-07 14:46:27.830688,-4,0,-4,0,0,0,85,88,129,110,36,154.27,113,-85.00,-23.00,-977.00
2024-06-07 14:46:27.874075,-4,1,-2,0,0,0,85,88,130,110,36,154.24,113,-68.00,-25.00,-1001.00
2024-06-07 14:46:27.976094,-4,1,-1,0,0,0,85,88,131,110,36,154.30,113,-82.00,-15.00,-1013.00
2024-06-07 14:46:28.140877,-4,1,0,0,0,0,85,88,131,110,36,154.25,113,-93.00,-22.00,-935.00
2024-06-07 14:46:28.180003,-4,1,0,0,0,0,85,88,130,110,36,154.33,113,-59.00,-39.00,-960.00
2024-06-07 14:46:28.345102,-4,2,0,0,0,0,85,88,130,110,36,154.31,113,-75.00,-10.00,-1024.00
2024-06-07 14:46:28.384569,-4,2,0,0,0,0,86,88,131,110,36,154.38,113,-78.00,-17.00,-976.00
2024-06-07 14:46:28.548548,-4,2,0,0,0,0,86,88,129,110,36,154.37,113,-50.00,-29.00,-1011.00
2024-06-07 14:46:28.591307,-3,2,0,0,0,0,86,88,129,110,36,154.38,113,-65.00,-1.00,-979.00
2024-06-07 14:46:28.690280,-3,1,0,0,0,0,86,88,128,110,36,154.37,113,-51.00,18.00,-994.00
2024-06-07 14:46:28.856648,-3,0,0,0,0,0,86,88,127,110,36,154.36,114,-65.00,18.00,-975.00
2024-06-07 14:46:28.856804,-3,0,0,0,0,0,86,88,127,100,36,154.33,114,-82.00,0.00,-976.00
2024-06-07 14:46:28.945471,-3,0,0,0,0,0,86,88,126,100,36,154.29,114,-51.00,14.00,-993.00
2024-06-07 14:46:29.047778,-3,0,0,0,0,0,86,88,126,100,36,154.29,114,-70.00,15.00,-1049.00
2024-06-07 14:46:29.150241,-3,0,0,0,0,0,86,88,127,100,36,154.17,114,-71.00,16.00,-1004.00
2024-06-07 14:46:29.251148,-3,0,0,0,0,0,86,88,127,100,36,154.16,114,-56.00,16.00,-1005.00
2024-06-07 14:46:29.366869,-3,-1,0,0,0,0,86,88,127,110,36,154.13,114,-88.00,21.00,-1007.00
2024-06-07 14:46:29.455596,-4,-1,0,0,0,0,86,88,128,110,36,154.18,114,-75.00,6.00,-1013.00
2024-06-07 14:46:29.557966,-4,-1,0,0,0,0,86,88,129,110,36,154.32,114,-90.00,8.00,-1040.00
2024-06-07 14:46:29.659162,-4,0,0,0,0,0,86,88,129,110,35,154.34,114,-76.00,8.00,-1017.00
2024-06-07 14:46:29.776526,-4,0,0,0,0,0,86,88,129,110,35,154.41,115,-81.00,36.00,-992.00
2024-06-07 14:46:29.863165,-4,-1,0,0,0,0,86,88,130,110,35,154.26,115,-72.00,3.00,-986.00
2024-06-07 14:46:29.965085,-4,0,1,0,0,0,86,88,130,110,35,154.27,115,-81.00,1.00,-962.00
2024-06-07 14:46:30.083845,-4,0,0,0,0,0,86,88,131,110,35,154.26,115,-69.00,22.00,-1000.00
2024-06-07 14:46:30.169105,-4,0,0,0,0,0,86,88,131,110,35,154.18,115,-74.00,23.00,-996.00
2024-06-07 14:46:30.271031,-3,-1,0,0,0,0,86,88,131,110,35,154.22,115,-83.00,32.00,-997.00
2024-06-07 14:46:30.390692,-4,-1,-4,0,0,0,85,88,132,110,35,154.27,115,-104.00,38.00,-1011.00
2024-06-07 14:46:30.474938,-4,-1,-10,0,0,0,85,88,132,110,35,154.12,115,-99.00,0.00,-952.00
2024-06-07 14:46:30.576973,-5,0,-16,0,0,0,85,88,132,110,35,154.13,115,-93.00,-16.00,-1034.00
2024-06-07 14:46:30.699332,-5,1,-22,0,0,0,85,88,134,110,35,154.24,115,-93.00,12.00,-992.00
2024-06-07 14:46:30.781173,-5,1,-28,0,0,0,85,88,133,110,35,154.17,116,-93.00,0.00,-967.00
2024-06-07 14:46:30.905266,-5,1,-34,0,0,0,85,88,133,110,35,154.41,116,-83.00,-2.00,-1013.00
2024-06-07 14:46:30.984912,-4,0,-40,0,0,0,85,88,133,110,35,154.37,116,-75.00,-20.00,-991.00
2024-06-07 14:46:31.107467,-4,0,-47,0,0,0,85,88,133,110,35,154.41,116,-34.00,-32.00,-1007.00
2024-06-07 14:46:31.189045,-2,2,-52,0,0,0,85,88,131,110,35,154.50,116,-44.00,-53.00,-975.00
2024-06-07 14:46:31.312307,-1,3,-58,0,-1,0,85,88,132,110,35,154.45,116,-14.00,-47.00,-996.00
2024-06-07 14:46:31.397599,0,3,-64,0,-1,0,86,88,131,110,35,154.44,116,-22.00,-57.00,-1002.00
2024-06-07 14:46:31.494931,0,3,-70,0,0,0,86,88,130,110,35,154.57,116,-24.00,-42.00,-1032.00
2024-06-07 14:46:31.621270,1,3,-76,0,0,0,86,88,130,110,35,154.51,116,-25.00,-48.00,-992.00
2024-06-07 14:46:31.698982,0,2,-82,0,0,0,86,88,128,110,35,154.60,116,-4.00,-53.00,-1003.00
2024-06-07 14:46:31.826231,0,2,-89,0,0,0,86,88,127,110,35,154.53,117,22.00,-47.00,-1010.00
2024-06-07 14:46:31.903853,0,2,-95,0,0,0,86,88,127,100,35,154.45,117,22.00,-30.00,-1036.00
2024-06-07 14:46:32.004932,1,1,-100,0,0,0,86,88,126,100,35,154.45,117,22.00,-40.00,-1063.00
2024-06-07 14:46:32.133214,1,1,-106,0,0,0,86,88,126,100,35,154.49,117,61.00,-51.00,-1012.00
2024-06-07 14:46:32.208835,2,2,-111,0,0,0,86,88,126,100,35,154.41,117,58.00,-27.00,-985.00
2024-06-07 14:46:32.337712,2,1,-117,0,0,0,86,88,128,100,35,154.51,117,34.00,-39.00,-980.00
2024-06-07 14:46:32.414410,2,1,-123,0,0,0,86,88,128,100,35,154.48,117,29.00,-33.00,-1026.00
2024-06-07 14:46:32.514815,2,1,-128,0,0,0,86,88,127,110,35,154.43,117,42.00,-36.00,-982.00
2024-06-07 14:46:32.644925,2,1,-134,0,0,0,86,88,128,110,35,154.43,117,41.00,-10.00,-1013.00
2024-06-07 14:46:32.718959,2,1,-140,0,0,0,86,88,127,110,35,154.40,117,27.00,-29.00,-950.00
2024-06-07 14:46:32.821802,2,1,-145,0,0,0,86,88,126,110,35,154.44,118,40.00,-15.00,-969.00
2024-06-07 14:46:32.871847,2,1,-152,0,0,0,86,88,127,110,35,154.45,118,34.00,-27.00,-980.00
2024-06-07 14:46:33.054544,2,1,-158,0,0,0,86,88,128,100,35,154.45,118,45.00,-21.00,-1006.00
2024-06-07 14:46:33.075805,2,1,-165,0,0,0,86,88,127,100,35,154.38,118,53.00,-5.00,-1023.00
2024-06-07 14:46:33.177851,3,1,-171,0,0,0,86,88,128,110,35,154.42,118,93.00,-9.00,-1009.00
2024-06-07 14:46:33.363399,3,0,-177,0,0,0,86,88,128,110,35,154.40,118,55.00,32.00,-1012.00
2024-06-07 14:46:33.381779,3,0,177,0,0,0,86,88,128,110,35,154.35,118,63.00,21.00,-1012.00
2024-06-07 14:46:33.567117,3,-1,171,0,0,0,86,88,128,110,35,154.39,118,62.00,27.00,-981.00
2024-06-07 14:46:33.586578,3,-1,165,0,0,0,86,88,129,110,35,154.48,118,63.00,24.00,-989.00
2024-06-07 14:46:33.771344,3,-1,159,0,0,0,86,88,130,110,35,154.52,118,69.00,65.00,-1006.00
2024-06-07 14:46:33.790155,4,-1,153,0,0,0,86,88,128,110,35,154.57,119,64.00,81.00,-970.00
2024-06-07 14:46:33.974642,4,-3,147,0,0,0,86,88,128,110,35,154.47,119,59.00,56.00,-1005.00
2024-06-07 14:46:33.993793,3,-4,141,0,0,0,86,88,128,110,35,154.43,119,91.00,14.00,-995.00
2024-06-07 14:46:34.096305,3,-3,135,0,0,0,86,88,127,110,35,154.52,119,109.00,32.00,-986.00
2024-06-07 14:46:34.282979,4,-2,129,0,0,0,86,88,127,110,35,154.58,119,65.00,56.00,-965.00
2024-06-07 14:46:34.299731,4,-2,123,0,0,0,86,88,126,110,35,154.58,119,56.00,60.00,-966.00
2024-06-07 14:46:34.486641,3,-3,117,0,0,0,85,88,126,110,35,154.50,119,67.00,70.00,-1023.00
2024-06-07 14:46:34.503632,3,-3,111,0,0,0,85,88,126,100,35,154.55,119,38.00,74.00,-1041.00
2024-06-07 14:46:34.691472,2,-3,105,0,0,0,85,88,124,100,34,154.59,119,24.00,95.00,-980.00
2024-06-07 14:46:34.709320,2,-4,99,0,0,0,85,88,124,100,34,154.46,119,33.00,62.00,-1005.00
2024-06-07 14:46:34.810488,1,-4,94,0,0,0,85,88,123,100,34,154.42,120,37.00,65.00,-1005.00
2024-06-07 14:46:35.002093,1,-3,88,0,0,0,85,88,123,100,34,154.41,120,28.00,55.00,-1029.00
2024-06-07 14:46:35.013723,1,-3,83,0,0,0,85,88,122,100,34,154.39,120,17.00,66.00,-991.00
2024-06-07 14:46:35.204935,0,-3,77,0,0,0,85,88,123,100,34,154.42,120,8.00,69.00,-1006.00
2024-06-07 14:46:35.217639,1,-3,71,0,0,0,85,88,123,100,34,154.35,120,-6.00,59.00,-1047.00
2024-06-07 14:46:35.410107,0,-2,64,0,0,0,85,88,123,100,34,154.37,120,-51.00,31.00,-970.00
2024-06-07 14:46:35.421642,-1,-1,57,0,0,0,85,87,123,100,34,154.37,120,-56.00,48.00,-1001.00
2024-06-07 14:46:35.614458,-1,-1,51,0,-1,0,85,87,123,100,34,154.41,120,-65.00,33.00,-976.00
2024-06-07 14:46:35.625722,-2,-1,45,0,-1,0,85,87,122,100,34,154.36,120,-50.00,31.00,-1061.00
2024-06-07 14:46:35.818125,-2,0,39,0,-1,0,85,87,123,100,34,154.46,120,-47.00,6.00,-950.00
2024-06-07 14:46:35.829542,-3,1,33,0,-1,0,85,87,123,100,34,154.41,121,-69.00,36.00,-983.00
2024-06-07 14:46:36.024476,-3,1,27,0,0,0,85,87,123,100,34,154.36,121,-48.00,43.00,-1002.00
2024-06-07 14:46:36.033685,-3,0,22,0,0,0,85,87,123,100,34,154.26,121,-36.00,32.00,-1008.00
2024-06-07 14:46:36.135765,-2,0,17,0,0,0,85,87,123,100,34,154.12,121,-41.00,4.00,-1011.00
2024-06-07 14:46:36.329838,-2,0,13,0,0,0,85,87,124,100,34,154.19,121,-59.00,-8.00,-999.00
2024-06-07 14:46:36.329888,-2,0,11,0,0,0,85,87,123,100,34,154.23,121,-89.00,11.00,-1027.00
2024-06-07 14:46:36.441945,-2,0,8,0,0,0,86,87,125,100,34,154.25,121,-88.00,8.00,-1045.00
2024-06-07 14:46:36.638907,-3,0,6,0,0,-1,86,87,128,100,34,154.03,121,-93.00,-11.00,-955.00
2024-06-07 14:46:36.645570,-4,1,5,-1,0,0,86,87,128,110,34,154.26,121,-86.00,22.00,-986.00
2024-06-07 14:46:36.747669,-5,0,4,-1,0,0,86,87,131,110,34,154.33,121,-82.00,32.00,-975.00
2024-06-07 14:46:36.851819,-5,0,3,0,0,0,86,87,132,110,34,154.25,122,-72.00,20.00,-969.00
2024-06-07 14:46:36.900911,-5,-1,2,0,0,0,86,87,132,110,34,154.18,122,-85.00,17.00,-1003.00
2024-06-07 14:46:37.046880,-5,-1,2,0,0,0,86,87,132,110,34,154.32,122,-71.00,4.00,-993.00
2024-06-07 14:46:37.104877,-4,-1,2,0,0,0,86,87,133,110,34,154.25,122,-61.00,-3.00,-1053.00
2024-06-07 14:46:37.251554,-4,-1,2,0,0,0,86,87,133,110,34,154.32,122,-47.00,-19.00,-953.00
2024-06-07 14:46:37.308950,-3,0,2,0,0,0,86,87,133,110,34,154.23,122,-62.00,8.00,-959.00
2024-06-07 14:46:37.458288,-3,0,2,0,0,0,86,88,132,110,34,154.29,122,-80.00,-13.00,-937.00
2024-06-07 14:46:37.512877,-3,0,2,0,0,0,86,88,130,110,34,154.27,122,-62.00,13.00,-971.00
2024-06-07 14:46:37.661289,-3,-1,2,0,0,0,86,88,130,110,34,154.36,122,-77.00,32.00,-955.00
2024-06-07 14:46:37.716928,-3,-1,2,0,0,1,86,88,128,110,34,154.33,122,-60.00,3.00,-1025.00
2024-06-07 14:46:37.866096,-4,0,2,0,0,1,86,88,128,110,34,154.29,123,-79.00,-9.00,-927.00
2024-06-07 14:46:37.921049,-3,0,2,0,0,1,86,88,125,100,34,154.34,123,-57.00,6.00,-985.00
2024-06-07 14:46:38.022891,-3,0,2,0,0,0,86,88,124,100,34,154.16,123,-57.00,-10.00,-1043.00
2024-06-07 14:46:38.124969,-3,0,2,0,0,0,86,88,124,100,34,154.22,123,-80.00,8.00,-1036.00
2024-06-07 14:46:38.227201,-3,0,2,0,0,0,86,88,126,100,34,154.11,123,-67.00,-2.00,-1030.00
2024-06-07 14:46:38.378586,-3,0,2,0,0,0,86,88,125,100,34,154.30,123,-102.00,7.00,-1031.00
2024-06-07 14:46:38.430661,-4,0,2,0,0,0,85,88,127,100,34,154.23,123,-83.00,-14.00,-954.00
2024-06-07 14:46:38.533136,-4,-1,1,0,0,0,85,88,128,100,34,154.33,123,-76.00,-32.00,-989.00
2024-06-07 14:46:38.686951,-5,0,1,0,0,0,85,88,128,110,34,154.18,123,-95.00,-41.00,-967.00
2024-06-07 14:46:38.736738,-5,1,2,0,0,0,85,88,129,110,34,154.30,123,-108.00,-35.00,-1010.00
2024-06-07 14:46:38.838744,-5,2,2,0,-1,0,85,88,128,110,34,154.33,124,-114.00,-28.00,-1004.00
2024-06-07 14:46:38.940701,-6,2,2,0,-1,0,85,88,130,110,34,154.33,124,-96.00,-50.00,-970.00
2024-06-07 14:46:39.097536,-6,2,2,0,-1,0,85,88,128,110,34,154.32,124,-107.00,-48.00,-928.00
2024-06-07 14:46:39.144766,-6,3,2,0,0,0,85,88,128,110,34,154.32,124,-137.00,-38.00,-990.00
2024-06-07 14:46:39.301393,-6,3,2,0,0,0,85,88,129,110,34,154.18,124,-134.00,-11.00,-1013.00
2024-06-07 14:46:39.348907,-6,3,1,0,0,0,85,88,128,110,34,154.31,124,-118.00,-19.00,-977.00
2024-06-07 14:46:39.505958,-8,2,2,0,0,0,85,88,128,110,34,154.15,124,-86.00,-24.00,-978.00
2024-06-07 14:46:39.552650,-7,1,2,0,0,0,85,88,124,110,34,154.21,124,-144.00,-6.00,-1005.00
2024-06-07 14:46:39.709258,-7,1,2,0,0,0,85,88,126,100,34,154.35,124,-124.00,-43.00,-1029.00
2024-06-07 14:46:39.756566,-7,1,2,0,0,0,85,88,125,100,34,154.50,124,-104.00,-53.00,-937.00
2024-06-07 14:46:39.858658,-6,2,2,0,0,0,85,88,123,100,34,154.25,125,-117.00,-28.00,-1062.00
2024-06-07 14:46:39.960868,-6,2,1,0,0,0,85,88,123,100,34,154.08,125,-112.00,-29.00,-945.00
2024-06-07 14:46:40.118909,-6,2,1,0,0,0,85,88,124,100,34,154.20,125,-139.00,-4.00,-953.00
2024-06-07 14:46:40.164486,-6,2,2,0,0,0,85,88,123,100,34,154.12,125,-139.00,2.00,-902.00
2024-06-07 14:46:40.325038,-7,2,1,0,0,0,85,88,123,100,34,154.19,125,-72.00,10.00,-955.00
2024-06-07 14:46:40.368552,-8,0,2,0,1,0,85,88,121,100,34,154.20,125,-113.00,-6.00,-1045.00
2024-06-07 14:46:40.530231,-7,-1,2,0,1,0,85,88,121,100,34,154.01,125,-95.00,-37.00,-1070.00
2024-06-07 14:46:40.572608,-5,-2,2,0,0,0,85,88,122,100,34,154.27,125,-89.00,-19.00,-993.00
2024-06-07 14:46:40.735595,-6,0,2,0,0,0,85,88,122,100,34,154.24,125,-110.00,-8.00,-1040.00
2024-06-07 14:46:40.735721,-5,0,2,0,0,0,85,88,123,100,34,154.14,125,-97.00,21.00,-983.00
2024-06-07 14:46:40.878876,-5,2,2,0,0,0,85,88,123,100,34,154.14,126,-106.00,44.00,-990.00
2024-06-07 14:46:40.930414,-5,0,2,0,1,0,85,88,122,100,34,153.98,126,-98.00,8.00,-985.00
2024-06-07 14:46:41.042122,-6,-2,2,0,1,0,85,88,125,100,34,154.11,126,-108.00,31.00,-1026.00
2024-06-07 14:46:41.136801,-6,-2,2,0,1,0,85,88,124,100,34,154.11,126,-105.00,28.00,-948.00
2024-06-07 14:46:41.235858,-7,-3,2,0,1,0,85,88,127,100,34,154.13,126,-103.00,8.00,-978.00
2024-06-07 14:46:41.348986,-7,-3,2,0,0,0,85,88,127,100,34,154.13,126,-98.00,24.00,-1001.00
2024-06-07 14:46:41.439394,-6,-2,2,0,0,0,85,88,126,100,34,154.14,126,-86.00,2.00,-995.00
2024-06-07 14:46:41.554579,-6,-2,2,0,0,0,85,88,127,110,34,154.20,126,-104.00,-18.00,-1000.00
2024-06-07 14:46:41.643347,-5,0,2,0,0,0,85,88,129,110,34,154.26,126,-91.00,0.00,-1015.00
2024-06-07 14:46:41.745493,-4,0,2,0,0,0,85,88,128,110,34,154.24,126,-104.00,-34.00,-995.00
2024-06-07 14:46:41.847470,-5,0,2,0,0,0,85,88,129,110,34,154.22,127,-58.00,-10.00,-955.00
2024-06-07 14:46:41.949778,-5,1,2,0,0,0,85,88,129,110,34,154.19,127,-52.00,-17.00,-980.00
2024-06-07 14:46:42.064352,-4,1,2,0,0,0,85,88,129,110,34,154.14,127,-86.00,9.00,-1011.00
2024-06-07 14:46:42.153602,-4,1,2,0,0,0,85,88,131,110,34,154.00,127,-91.00,11.00,-998.00
2024-06-07 14:46:42.270935,-3,0,1,0,0,0,85,88,131,110,34,154.10,127,-121.00,45.00,-1052.00
2024-06-07 14:46:42.361447,-3,0,1,0,0,0,85,88,131,110,34,154.28,127,-144.00,62.00,-1033.00
2024-06-07 14:46:42.465733,-7,-4,2,0,0,0,85,88,131,110,34,154.44,127,-99.00,19.00,-877.00
2024-06-07 14:46:42.561854,-5,-5,3,0,0,0,85,88,132,110,34,154.79,127,-16.00,-37.00,-987.00
2024-06-07 14:46:42.783492,-3,0,3,0,-1,0,85,88,130,110,33,154.60,127,-163.00,-16.00,-1094.00
2024-06-07 14:46:42.783669,-6,2,2,0,-1,0,85,88,131,110,33,154.46,128,-117.00,0.00,-903.00
2024-06-07 14:46:42.867399,-6,2,2,0,-1,0,85,88,130,110,33,154.35,128,-76.00,-49.00,-993.00
2024-06-07 14:46:42.986376,-5,2,1,0,-1,0,85,88,129,110,33,154.36,128,-113.00,-35.00,-991.00
2024-06-07 14:46:43.071467,-5,3,1,0,-1,0,85,88,129,110,33,154.22,128,-111.00,-43.00,-1022.00
2024-06-07 14:46:43.191444,-5,2,1,0,0,0,85,88,129,110,33,154.25,128,-97.00,-21.00,-1026.00
2024-06-07 14:46:43.275342,-5,1,1,0,0,0,85,88,129,110,33,154.29,128,-110.00,-43.00,-966.00
2024-06-07 14:46:43.377351,-6,1,2,0,0,0,85,88,129,110,33,154.26,128,-104.00,-27.00,-1039.00
2024-06-07 14:46:43.479327,-6,1,2,0,0,0,85,88,130,110,33,154.08,128,-116.00,-30.00,-1067.00
2024-06-07 14:46:43.581543,-6,3,2,0,0,0,85,88,130,110,33,154.23,128,-126.00,67.00,-940.00
2024-06-07 14:46:43.683467,-7,0,1,0,1,0,85,88,130,110,33,154.19,128,-87.00,58.00,-991.00
2024-06-07 14:46:43.785420,-6,-2,2,0,1,0,85,88,130,110,33,154.19,129,-138.00,30.00,-1022.00
2024-06-07 14:46:43.891224,-6,-3,2,0,1,0,85,88,130,110,33,153.96,129,-122.00,28.00,-1007.00
2024-06-07 14:46:43.989530,-7,-3,2,0,0,0,85,88,130,110,33,154.30,129,-110.00,-17.00,-1022.00
2024-06-07 14:46:44.112957,-6,-2,2,0,0,0,85,88,130,110,33,154.35,129,-142.00,-59.00,-1038.00
2024-06-07 14:46:44.193757,-7,1,2,0,-1,0,85,88,130,110,33,154.31,129,-149.00,-29.00,-989.00
2024-06-07 14:46:44.244252,-6,3,2,0,-1,0,85,88,130,110,33,154.06,129,-118.00,-17.00,-1029.00
2024-06-07 14:46:44.424411,-6,2,1,0,0,0,85,88,130,110,33,153.98,129,-92.00,1.00,-988.00
2024-06-07 14:46:44.499282,-6,0,2,0,0,0,85,88,131,110,33,154.18,129,-107.00,16.00,-966.00
2024-06-07 14:46:44.550238,-6,0,2,0,0,0,85,88,131,110,33,154.10,129,-95.00,38.00,-895.00
2024-06-07 14:46:44.729283,-6,-2,2,0,0,0,85,88,130,110,33,154.06,129,-106.00,17.00,-984.00
2024-06-07 14:46:44.754252,-6,-2,2,0,0,0,85,88,128,110,33,154.10,130,-146.00,0.00,-999.00
2024-06-07 14:46:44.860310,-7,-1,2,0,0,0,85,88,128,100,33,154.00,130,-142.00,17.00,-1001.00
2024-06-07 14:46:44.959665,-7,-1,2,0,0,0,85,88,126,100,33,154.08,130,-131.00,-2.00,-1039.00
2024-06-07 14:46:45.060308,-7,0,2,0,0,0,85,88,125,100,33,154.06,130,-108.00,50.00,-1015.00
2024-06-07 14:46:45.238946,-7,-1,2,0,0,0,85,88,126,100,33,154.10,130,-133.00,58.00,-1008.00
2024-06-07 14:46:45.265251,-7,-2,2,0,0,0,85,88,126,100,33,154.21,130,-125.00,30.00,-1048.00
2024-06-07 14:46:45.445173,-7,-2,2,0,0,0,85,88,126,100,33,154.13,130,-120.00,13.00,-942.00
2024-06-07 14:46:45.468297,-6,-1,2,0,0,0,85,88,127,100,33,153.91,130,-111.00,6.00,-984.00
2024-06-07 14:46:45.570774,-5,-1,2,0,0,0,85,88,126,100,33,154.06,130,-137.00,13.00,-1034.00
2024-06-07 14:46:45.672426,-5,0,2,0,0,0,85,88,127,100,32,154.23,130,-147.00,7.00,-1001.00
2024-06-07 14:46:45.774170,-6,0,2,0,0,0,85,88,128,100,32,154.34,131,-136.00,-19.00,-963.00
2024-06-07 14:46:45.876294,-7,0,2,0,0,0,85,88,128,100,32,154.22,131,-162.00,3.00,-988.00
2024-06-07 14:46:45.978741,-8,0,2,0,0,0,85,88,129,100,32,153.92,131,-113.00,4.00,-965.00
2024-06-07 14:46:46.163081,-7,0,2,0,0,0,85,88,129,110,32,154.13,131,-133.00,-9.00,-943.00
2024-06-07 14:46:46.183117,-6,-1,2,0,0,0,85,88,129,110,32,154.28,131,-140.00,-32.00,-1024.00
2024-06-07 14:46:46.367164,-6,0,2,0,-1,0,85,88,131,110,32,154.28,131,-129.00,-40.00,-1004.00
2024-06-07 14:46:46.386164,-7,0,2,0,-1,0,85,88,131,110,32,154.19,131,-109.00,-23.00,-1034.00
2024-06-07 14:46:46.570890,-7,2,2,0,-1,0,85,88,131,110,32,154.24,131,-105.00,-39.00,-949.00
2024-06-07 14:46:46.590227,-7,3,2,0,-1,0,85,88,131,110,32,154.20,131,-125.00,-50.00,-1008.00
2024-06-07 14:46:46.774669,-7,3,2,0,-1,0,85,88,132,110,32,154.19,131,-110.00,-42.00,-982.00
2024-06-07 14:46:46.794153,-8,3,1,0,0,0,85,88,132,110,32,154.24,132,-107.00,-25.00,-859.00
2024-06-07 14:46:46.897911,-7,1,1,0,-1,1,85,88,131,110,32,154.28,132,-93.00,-53.00,-1011.00
2024-06-07 14:46:46.998804,-5,3,1,0,0,1,85,88,128,110,32,154.22,132,-137.00,-44.00,-1050.00
2024-06-07 14:46:47.100171,-6,3,2,0,0,0,85,88,128,100,32,153.92,132,-103.00,25.00,-1023.00
2024-06-07 14:46:47.289416,-5,2,2,0,0,0,85,88,128,100,32,154.11,132,-102.00,13.00,-1030.00
2024-06-07 14:46:47.304501,-5,0,1,0,0,0,85,88,127,100,32,154.17,132,-102.00,-40.00,-1058.00
2024-06-07 14:46:47.493422,-5,0,2,0,0,0,85,88,126,100,32,154.15,132,-127.00,-26.00,-1055.00
2024-06-07 14:46:47.508079,-5,2,1,0,0,0,85,88,127,100,32,154.13,132,-140.00,24.00,-998.00
2024-06-07 14:46:47.610579,-6,0,1,0,0,0,85,88,127,100,32,154.16,132,-104.00,29.00,-995.00
2024-06-07 14:46:47.712655,-6,0,1,0,0,0,85,88,126,100,32,154.20,132,-102.00,9.00,-994.00
2024-06-07 14:46:47.901016,-6,-1,1,0,0,0,85,88,126,110,32,154.10,133,-125.00,-52.00,-977.00
2024-06-07 14:46:47.918832,-6,0,1,0,0,0,85,88,126,100,32,154.08,133,-102.00,-2.00,-982.00
2024-06-07 14:46:48.021619,-6,0,2,0,0,0,85,88,126,100,32,154.04,133,-93.00,10.00,-1010.00
2024-06-07 14:46:48.120378,-6,-1,2,0,0,0,85,88,125,100,32,154.10,133,-92.00,-42.00,-959.00
2024-06-07 14:46:48.311135,-5,0,2,0,0,0,85,88,125,100,32,154.20,133,-110.00,-43.00,-957.00
2024-06-07 14:46:48.323991,-5,1,2,0,0,0,85,88,124,100,32,154.13,133,-129.00,-63.00,-962.00
2024-06-07 14:46:48.517630,-6,2,2,0,0,0,85,88,127,100,32,154.23,133,-130.00,-44.00,-1012.00
2024-06-07 14:46:48.528439,-6,2,2,0,0,0,85,88,125,100,32,154.21,133,-124.00,-55.00,-955.00
2024-06-07 14:46:48.579067,-7,3,2,0,0,0,85,88,126,100,32,154.09,133,-90.00,-13.00,-993.00
