TS,pitch,roll,yaw,vgx,vgy,vgz,templ,temph,tof,h,bat,baro,time,agx,agy,agz
2024-06-07 14:44:09.958287,1,0,-1,0,0,0,87,88,10,0,43,153.14,0,17.00,7.00,-999.00
2024-06-07 14:44:10.104799,1,0,-1,0,0,0,87,88,10,0,43,153.18,0,15.00,5.00,-1001.00
2024-06-07 14:44:10.162608,1,0,-1,0,0,0,87,88,10,0,43,153.17,0,14.00,6.00,-1001.00
2024-06-07 14:44:10.264436,1,0,-1,0,0,0,87,88,10,0,43,153.17,0,13.00,6.00,-1001.00
2024-06-07 14:44:10.411271,1,0,-1,0,0,0,87,88,10,0,43,153.19,0,16.00,7.00,-1002.00
2024-06-07 14:44:10.468219,1,0,-1,0,0,0,86,89,10,0,43,153.19,0,14.00,5.00,-997.00
2024-06-07 14:44:10.616004,1,0,-1,0,0,0,86,89,10,0,43,153.16,0,13.00,7.00,-999.00
2024-06-07 14:44:10.672312,1,0,-1,0,0,0,86,89,10,0,43,153.16,0,14.00,6.00,-1000.00
2024-06-07 14:44:10.820870,1,0,-1,0,0,0,86,89,10,0,43,153.16,0,15.00,7.00,-1000.00
2024-06-07 14:44:10.876172,1,0,-1,0,0,0,86,89,10,0,43,153.21,0,15.00,4.00,-1001.00
2024-06-07 14:44:11.025562,1,0,-1,0,0,0,86,89,10,0,43,153.17,0,14.00,7.00,-998.00
2024-06-07 14:44:11.080377,1,0,-1,0,0,0,86,89,10,0,43,153.19,0,15.00,8.00,-1000.00
2024-06-07 14:44:11.230429,1,0,-1,0,0,0,86,89,10,0,43,153.18,0,15.00,6.00,-998.00
2024-06-07 14:44:11.284229,1,0,-1,0,0,0,86,89,10,0,43,153.17,0,15.00,5.00,-999.00
2024-06-07 14:44:11.386177,1,0,-1,0,0,0,86,89,10,0,43,153.22,0,15.00,7.00,-1001.00
2024-06-07 14:44:11.538442,1,0,-1,0,0,0,86,89,10,0,43,153.20,0,14.00,6.00,-998.00
2024-06-07 14:44:11.590240,1,0,-1,0,0,0,86,89,10,0,43,153.18,0,15.00,5.00,-999.00
2024-06-07 14:44:11.743202,1,0,-1,0,0,0,86,89,10,0,43,153.18,0,15.00,6.00,-999.00
2024-06-07 14:44:11.794983,1,0,-1,0,0,0,86,89,10,0,43,153.15,0,15.00,6.00,-997.00
2024-06-07 14:44:11.947662,1,0,-1,0,0,0,86,89,10,0,43,153.16,0,14.00,5.00,-998.00
2024-06-07 14:44:11.998289,1,0,-1,0,0,0,86,89,10,0,43,153.18,0,14.00,5.00,-1000.00
2024-06-07 14:44:12.102200,1,0,-1,0,0,0,86,89,10,0,43,153.17,0,15.00,4.00,-1001.00
2024-06-07 14:44:12.202261,1,0,-1,0,0,0,86,89,10,0,43,153.15,0,15.00,5.00,-999.00
2024-06-07 14:44:12.357512,1,0,-1,0,0,0,86,89,10,0,43,153.16,0,14.00,6.00,-999.00
2024-06-07 14:44:12.406551,1,0,-1,0,0,0,86,89,10,0,43,153.15,0,15.00,5.00,-997.00
2024-06-07 14:44:12.508326,1,0,-1,0,0,0,86,89,10,0,43,153.15,0,14.00,7.00,-999.00
2024-06-07 14:44:12.610081,1,0,-1,0,0,0,86,89,10,0,43,153.16,0,16.00,6.00,-1000.00
2024-06-07 14:44:12.766808,1,0,-1,0,0,0,86,89,10,0,43,153.14,0,13.00,5.00,-999.00
2024-06-07 14:44:12.814292,1,0,-1,0,0,0,86,89,10,0,43,153.15,0,15.00,7.00,-999.00
2024-06-07 14:44:12.971075,0,0,-1,0,0,0,86,89,10,0,43,153.13,0,16.00,6.00,-998.00
2024-06-07 14:44:12.971179,0,0,-1,0,0,0,86,89,10,0,43,153.20,0,14.00,6.00,-999.00
2024-06-07 14:44:13.073924,0,0,-1,0,0,0,86,89,10,0,43,153.16,0,13.00,4.00,-1001.00
2024-06-07 14:44:13.171190,0,0,-1,0,0,0,86,89,10,0,43,153.18,0,16.00,6.00,-1001.00
2024-06-07 14:44:13.279413,0,0,-1,0,0,0,86,89,10,0,43,153.13,0,17.00,7.00,-999.00
2024-06-07 14:44:13.375543,0,0,-1,0,0,0,86,89,10,0,43,153.13,0,14.00,6.00,-1000.00
2024-06-07 14:44:13.478065,0,0,-1,0,0,0,87,89,10,0,43,153.12,0,12.00,6.00,-998.00
2024-06-07 14:44:13.585723,0,0,-1,0,0,0,87,89,10,0,43,153.12,0,16.00,3.00,-1003.00
2024-06-07 14:44:13.681292,0,0,-1,0,0,0,87,89,10,0,43,153.12,0,15.00,3.00,-1004.00
2024-06-07 14:44:13.791676,0,0,-2,0,0,0,87,89,10,0,43,153.12,0,23.00,1.00,-1014.00
2024-06-07 14:44:13.888367,0,0,-1,0,0,0,87,89,10,0,43,153.12,0,11.00,16.00,-971.00
2024-06-07 14:44:13.987158,0,0,-1,0,0,0,87,89,10,0,43,153.12,0,0.00,1.00,-1020.00
2024-06-07 14:44:14.098820,-1,0,-1,0,0,0,87,89,10,0,43,153.12,0,6.00,1.00,-1121.00
2024-06-07 14:44:14.191200,-1,0,-1,0,0,-2,87,89,10,0,43,153.12,0,19.00,-8.00,-1309.00
2024-06-07 14:44:14.292838,0,0,-1,0,0,-5,87,89,10,0,43,153.12,0,4.00,-34.00,-1272.00
2024-06-07 14:44:14.394979,1,1,-1,0,0,-7,87,89,19,10,43,153.47,0,-18.00,-24.00,-1179.00
2024-06-07 14:44:14.507859,2,1,-1,0,0,-7,88,89,27,10,43,153.72,1,16.00,-31.00,-1037.00
2024-06-07 14:44:14.598961,2,1,-1,0,0,-8,88,89,36,20,43,153.77,1,21.00,-24.00,-1019.00
2024-06-07 14:44:14.703199,1,2,-1,0,0,-7,88,89,43,30,43,153.87,1,12.00,-20.00,-931.00
2024-06-07 14:44:14.802923,1,2,-1,0,0,-7,88,89,51,30,43,153.93,1,15.00,-20.00,-924.00
2024-06-07 14:44:14.917059,1,1,-1,0,0,-6,88,89,58,40,43,153.86,1,25.00,-14.00,-905.00
2024-06-07 14:44:15.006925,2,1,-1,0,0,-5,88,89,65,50,43,153.92,1,28.00,-18.00,-880.00
2024-06-07 14:44:15.121795,2,1,-1,0,0,-3,88,89,70,50,43,153.99,1,44.00,-19.00,-889.00
2024-06-07 14:44:15.210928,2,1,-1,0,0,-2,88,89,74,50,43,154.00,1,40.00,-28.00,-885.00
2024-06-07 14:44:15.326706,2,1,-1,0,0,-1,88,89,77,60,43,154.07,1,33.00,-43.00,-901.00
2024-06-07 14:44:15.415232,2,1,-1,0,0,-1,88,89,78,60,43,154.09,1,50.00,-35.00,-922.00
2024-06-07 14:44:15.531886,2,1,-1,0,0,0,88,90,80,60,43,154.07,2,33.00,-12.00,-958.00
2024-06-07 14:44:15.620469,2,1,-1,0,0,0,88,90,82,60,42,154.06,2,54.00,-18.00,-931.00
2024-06-07 14:44:15.721561,2,1,-1,0,0,0,88,90,82,60,42,154.06,2,52.00,-16.00,-948.00
2024-06-07 14:44:15.838875,2,1,-1,0,0,0,88,90,82,60,42,154.06,2,59.00,-11.00,-987.00
2024-06-07 14:44:15.924896,3,0,-1,0,0,0,88,90,83,60,42,154.00,2,61.00,-7.00,-1006.00
2024-06-07 14:44:16.043228,3,0,-1,0,0,0,88,90,83,60,42,154.12,2,46.00,-5.00,-979.00
2024-06-07 14:44:16.128841,2,0,-1,0,0,0,88,90,84,60,42,154.02,2,34.00,10.00,-1045.00
2024-06-07 14:44:16.248491,2,0,-1,0,0,0,88,90,84,70,42,154.07,2,32.00,14.00,-998.00
2024-06-07 14:44:16.333008,1,0,-1,0,0,0,88,90,85,70,42,154.05,2,48.00,-1.00,-953.00
2024-06-07 14:44:16.434900,2,0,-1,0,0,0,88,90,85,70,42,154.08,2,29.00,7.00,-948.00
2024-06-07 14:44:16.536809,1,0,-1,0,0,0,88,89,86,70,42,154.08,3,32.00,17.00,-977.00
2024-06-07 14:44:16.759940,1,-1,-1,0,0,0,88,89,86,70,42,154.14,3,21.00,12.00,-996.00
2024-06-07 14:44:16.760088,1,-1,-1,0,0,0,88,89,86,70,42,154.18,3,39.00,27.00,-1023.00
2024-06-07 14:44:16.792314,2,-1,-2,0,0,0,88,89,86,70,42,154.23,3,58.00,28.00,-996.00
2024-06-07 14:44:16.964674,2,-1,-2,0,0,0,88,89,86,70,42,154.22,3,28.00,23.00,-1008.00
2024-06-07 14:44:16.996119,2,-1,-2,0,0,0,88,89,86,70,42,154.21,3,48.00,17.00,-966.00
2024-06-07 14:44:17.175268,2,-1,-2,0,0,0,88,89,86,70,42,154.20,3,54.00,26.00,-941.00
2024-06-07 14:44:17.200056,1,-1,-2,0,0,0,88,89,86,70,42,154.17,3,23.00,8.00,-1006.00
2024-06-07 14:44:17.374291,1,-1,-2,0,0,0,88,89,86,70,42,154.18,3,21.00,17.00,-1004.00
2024-06-07 14:44:17.403995,1,-1,-1,0,0,0,88,89,86,70,42,154.14,3,45.00,26.00,-969.00
2024-06-07 14:44:17.582530,1,-1,-1,0,0,0,88,89,85,70,42,154.16,4,51.00,25.00,-960.00
2024-06-07 14:44:17.607934,1,-1,-1,0,0,0,88,89,85,70,42,154.19,4,27.00,19.00,-1005.00
2024-06-07 14:44:17.709937,1,-1,-1,0,0,0,88,89,85,70,42,154.10,4,34.00,23.00,-1031.00
2024-06-07 14:44:17.886445,1,-1,-1,0,0,0,88,89,85,70,42,154.05,4,27.00,18.00,-984.00
2024-06-07 14:44:17.913979,0,-1,-1,0,0,0,88,89,85,70,42,154.09,4,48.00,11.00,-979.00
2024-06-07 14:44:18.091036,1,-1,-1,0,0,0,88,89,84,70,42,154.12,4,20.00,7.00,-976.00
2024-06-07 14:44:18.117871,1,-1,-1,0,0,0,88,89,84,70,42,154.11,4,51.00,26.00,-1021.00
2024-06-07 14:44:18.295893,1,0,-1,0,0,0,88,89,83,70,42,154.13,4,40.00,24.00,-1018.00
2024-06-07 14:44:18.321852,1,0,-1,0,0,0,88,89,82,70,42,154.04,4,42.00,14.00,-983.00
2024-06-07 14:44:18.423826,1,0,-1,0,0,0,88,89,82,70,42,154.01,4,27.00,8.00,-948.00
2024-06-07 14:44:18.604947,1,-1,-1,0,0,0,87,89,80,70,42,154.10,5,42.00,10.00,-928.00
2024-06-07 14:44:18.628053,1,0,-1,0,0,0,87,89,79,60,42,154.10,5,32.00,10.00,-974.00
2024-06-07 14:44:18.808704,1,0,-1,0,0,0,87,89,78,60,42,154.11,5,25.00,21.00,-995.00
2024-06-07 14:44:18.831904,1,0,-1,0,0,0,87,89,78,60,42,154.09,5,46.00,15.00,-1035.00
2024-06-07 14:44:19.116196,1,0,-1,0,0,0,87,89,78,60,42,154.05,5,34.00,2.00,-1017.00
2024-06-07 14:44:19.116243,1,-1,-1,0,0,0,87,89,77,60,42,154.11,5,40.00,20.00,-1000.00
2024-06-07 14:44:19.138150,1,-1,-1,0,0,0,87,89,77,60,42,154.08,5,15.00,25.00,-977.00
2024-06-07 14:44:19.320339,0,-1,-1,0,0,0,87,89,76,60,42,154.03,5,27.00,24.00,-991.00
2024-06-07 14:44:19.341943,0,-1,-1,0,0,0,87,89,76,60,42,154.06,5,16.00,20.00,-1012.00
2024-06-07 14:44:19.443951,0,0,-1,0,0,0,87,89,75,60,42,154.02,5,18.00,12.00,-1007.00
2024-06-07 14:44:19.545814,0,0,-1,0,0,0,88,89,75,60,42,154.02,6,34.00,11.00,-1005.00
2024-06-07 14:44:19.729968,0,0,-1,0,0,0,88,89,75,60,42,154.02,6,16.00,11.00,-999.00
2024-06-07 14:44:19.749804,0,0,-1,0,0,0,88,89,75,60,42,154.01,6,7.00,1.00,-991.00
2024-06-07 14:44:19.935145,0,0,-1,0,0,0,88,89,76,60,42,154.04,6,15.00,21.00,-1037.00
2024-06-07 14:44:19.954617,0,0,-1,0,0,0,88,89,75,60,42,154.08,6,8.00,12.00,-988.00
2024-06-07 14:44:20.141313,1,0,-1,0,0,0,88,89,74,60,42,154.01,6,17.00,12.00,-1053.00
2024-06-07 14:44:20.157796,0,0,-1,0,0,0,88,89,74,60,42,154.03,6,11.00,0.00,-956.00
2024-06-07 14:44:20.345107,0,0,-1,0,0,0,88,89,75,60,42,154.02,6,22.00,2.00,-979.00
2024-06-07 14:44:20.363662,0,0,-1,0,0,0,88,89,74,60,42,154.03,6,29.00,2.00,-992.00
2024-06-07 14:44:20.412798,1,0,-1,0,0,0,88,89,75,60,42,154.03,6,22.00,7.00,-1034.00
2024-06-07 14:44:20.568887,1,0,-1,0,0,0,87,90,75,60,42,154.00,7,32.00,1.00,-977.00
2024-06-07 14:44:20.616766,0,0,-1,0,0,0,87,90,75,60,42,154.00,7,15.00,2.00,-991.00
2024-06-07 14:44:20.719133,1,0,-1,0,0,0,87,90,75,60,42,154.08,7,22.00,0.00,-1003.00
2024-06-07 14:44:20.856475,0,0,-1,0,0,0,87,90,76,60,42,153.98,7,16.00,-1.00,-971.00
2024-06-07 14:44:20.922765,0,0,-1,0,0,0,87,90,75,60,42,154.02,7,30.00,-8.00,-946.00
2024-06-07 14:44:21.061438,0,0,-1,0,0,0,87,90,76,60,42,153.94,7,16.00,12.00,-1021.00
2024-06-07 14:44:21.126696,0,0,-1,0,0,0,87,90,76,60,42,154.03,7,31.00,8.00,-988.00
2024-06-07 14:44:21.266716,0,0,-1,0,0,0,87,90,77,60,42,154.09,7,32.00,2.00,-990.00
2024-06-07 14:44:21.330795,1,0,-1,0,0,0,87,90,77,60,42,154.02,7,24.00,5.00,-1006.00
2024-06-07 14:44:21.432750,1,0,-1,0,0,0,87,90,77,60,42,153.99,7,21.00,6.00,-998.00
2024-06-07 14:44:21.576467,1,0,-1,0,0,0,87,89,77,60,42,153.99,8,28.00,7.00,-1008.00
2024-06-07 14:44:21.636678,1,0,-1,0,0,0,87,89,77,60,42,154.02,8,30.00,-1.00,-981.00
2024-06-07 14:44:21.778009,1,0,-1,0,0,0,87,89,77,60,42,153.99,8,33.00,-3.00,-987.00
2024-06-07 14:44:21.840989,0,0,-1,0,0,0,87,89,77,60,42,153.99,8,8.00,-1.00,-1000.00
2024-06-07 14:44:21.983168,1,0,-1,0,0,0,87,89,77,60,42,153.99,8,21.00,-5.00,-980.00
2024-06-07 14:44:22.045831,1,0,-1,0,0,0,87,89,78,60,42,154.03,8,-6.00,9.00,-999.00
2024-06-07 14:44:22.146652,0,0,-1,0,0,0,87,89,78,60,42,154.00,8,35.00,0.00,-998.00
2024-06-07 14:44:22.393437,0,0,-1,0,0,0,87,89,78,60,42,154.02,8,28.00,-1.00,-1003.00
2024-06-07 14:44:22.393475,0,0,-1,0,0,0,87,89,78,60,42,154.03,8,-2.00,-10.00,-980.00
2024-06-07 14:44:22.452582,0,0,-1,0,0,0,87,89,79,60,42,154.10,8,22.00,-6.00,-1044.00
2024-06-07 14:44:22.554461,0,0,-1,0,0,-1,87,89,81,60,42,154.08,9,6.00,0.00,-1165.00
2024-06-07 14:44:22.656551,0,0,-1,0,0,-2,87,89,84,60,42,154.12,9,26.00,-7.00,-1083.00
2024-06-07 14:44:22.801990,0,0,-1,0,0,-3,87,89,88,70,42,154.09,9,29.00,-2.00,-1108.00
2024-06-07 14:44:22.860460,0,0,-1,0,0,-4,87,89,93,70,42,154.18,9,4.00,0.00,-1061.00
2024-06-07 14:44:23.007092,0,0,-1,0,0,-4,87,89,98,80,42,154.21,9,22.00,7.00,-1091.00
2024-06-07 14:44:23.064475,0,0,-1,0,0,-5,87,89,104,80,42,154.26,9,17.00,4.00,-1029.00
2024-06-07 14:44:23.211991,0,0,-1,0,0,-5,87,89,110,90,42,154.29,9,10.00,0.00,-1002.00
2024-06-07 14:44:23.269161,0,0,-1,0,0,-5,87,89,115,90,42,154.31,9,34.00,-3.00,-985.00
2024-06-07 14:44:23.416265,0,0,-1,0,0,-5,87,89,121,100,42,154.43,9,22.00,-1.00,-1014.00
2024-06-07 14:44:23.472496,1,0,-1,0,0,-5,87,89,127,100,42,154.46,9,28.00,-10.00,-991.00
2024-06-07 14:44:23.621034,1,0,-1,0,0,-5,86,89,133,110,42,154.49,10,44.00,-1.00,-1001.00
2024-06-07 14:44:23.676420,1,0,-1,0,0,-5,86,89,139,120,42,154.61,10,14.00,3.00,-942.00
2024-06-07 14:44:23.825863,1,0,-1,0,0,-4,86,89,144,120,42,154.67,10,-2.00,4.00,-1012.00
2024-06-07 14:44:23.880485,0,0,-1,0,0,-4,86,89,149,130,42,154.66,10,25.00,6.00,-1000.00
2024-06-07 14:44:23.931828,0,0,-1,0,0,-4,86,89,155,130,42,154.71,10,29.00,1.00,-954.00
2024-06-07 14:44:24.033515,0,0,-1,0,0,-4,86,89,161,140,42,154.78,10,1.00,6.00,-944.00
2024-06-07 14:44:24.135784,0,0,-1,0,0,-3,86,89,163,140,42,154.73,10,42.00,-14.00,-959.00
2024-06-07 14:44:24.237565,0,0,-1,0,0,-3,86,89,166,140,42,154.85,10,20.00,2.00,-939.00
2024-06-07 14:44:24.440353,1,0,-1,0,0,-3,86,89,169,150,42,154.83,10,29.00,-8.00,-950.00
2024-06-07 14:44:24.441632,1,0,-1,0,0,-2,86,89,173,150,42,154.93,10,23.00,2.00,-959.00
2024-06-07 14:44:24.645074,1,0,-1,0,0,-2,86,89,174,150,42,154.90,11,23.00,5.00,-992.00
2024-06-07 14:44:24.646390,1,0,-1,0,0,-2,86,89,177,160,42,154.86,11,8.00,12.00,-969.00
2024-06-07 14:44:24.748534,1,0,-1,0,0,-1,86,89,177,160,42,154.90,11,43.00,-1.00,-957.00
2024-06-07 14:44:24.953384,1,0,-1,0,0,-1,86,89,179,160,42,154.90,11,16.00,4.00,-960.00
2024-06-07 14:44:24.953511,1,0,-1,0,0,0,86,89,180,160,42,154.90,11,27.00,-4.00,-982.00
2024-06-07 14:44:25.054829,1,0,-1,0,0,0,86,89,179,160,42,154.98,11,35.00,-19.00,-966.00
2024-06-07 14:44:25.157173,1,0,-1,0,0,0,86,89,179,160,42,154.95,11,17.00,-17.00,-965.00
2024-06-07 14:44:25.260035,1,0,-1,0,0,0,86,89,179,160,42,154.95,11,33.00,-18.00,-935.00
2024-06-07 14:44:25.361673,1,0,-1,0,0,0,86,89,178,160,42,154.88,11,20.00,5.00,-1027.00
2024-06-07 14:44:25.464892,1,0,-1,0,0,0,86,89,178,160,42,154.84,11,37.00,-22.00,-950.00
2024-06-07 14:44:25.566538,1,0,-1,0,0,0,86,88,178,160,42,154.89,12,36.00,-13.00,-987.00
2024-06-07 14:44:25.666778,1,0,-1,0,0,0,86,88,179,160,42,154.97,12,39.00,0.00,-968.00
2024-06-07 14:44:25.771136,1,0,-1,0,0,0,86,88,179,160,42,154.95,12,31.00,-13.00,-1015.00
2024-06-07 14:44:25.874231,1,0,-1,0,0,0,86,88,177,160,42,154.89,12,9.00,0.00,-1042.00
2024-06-07 14:44:25.972502,1,0,-1,0,0,0,86,88,178,160,42,154.95,12,48.00,-18.00,-1017.00
2024-06-07 14:44:26.079162,1,0,-1,0,0,0,86,88,179,160,42,154.92,12,46.00,-31.00,-996.00
2024-06-07 14:44:26.176461,1,0,-1,0,0,0,86,88,179,160,42,154.93,12,32.00,-5.00,-981.00
2024-06-07 14:44:26.286614,1,0,-1,0,0,0,86,88,179,160,42,154.90,12,27.00,2.00,-1006.00
2024-06-07 14:44:26.380754,2,0,-1,0,0,0,86,88,180,160,42,154.92,12,26.00,-11.00,-1003.00
2024-06-07 14:44:26.488013,2,0,-1,0,0,0,86,88,179,160,42,154.95,13,22.00,-18.00,-980.00
2024-06-07 14:44:26.585731,1,0,-1,0,0,0,87,88,180,160,42,154.93,13,55.00,-13.00,-997.00
2024-06-07 14:44:26.687495,2,0,-1,0,0,0,87,88,180,160,42,154.91,13,38.00,-20.00,-990.00
2024-06-07 14:44:26.795022,1,0,-1,0,0,0,87,88,181,160,42,154.91,13,42.00,-23.00,-992.00
2024-06-07 14:44:26.891372,1,1,-1,0,0,0,87,88,180,160,42,154.92,13,51.00,-24.00,-976.00
2024-06-07 14:44:26.999712,1,1,-1,0,0,1,87,88,179,160,42,154.85,13,30.00,-21.00,-966.00
2024-06-07 14:44:27.095547,1,0,-1,0,0,1,87,88,175,160,42,154.86,13,27.00,-13.00,-935.00
2024-06-07 14:44:27.206460,1,1,-1,0,0,2,87,88,175,160,42,154.89,13,35.00,-7.00,-959.00
2024-06-07 14:44:27.299688,1,1,-1,0,0,2,87,88,171,150,42,154.83,13,41.00,-21.00,-931.00
2024-06-07 14:44:27.410414,1,1,-1,0,0,3,87,88,167,150,42,154.84,13,40.00,-14.00,-964.00
2024-06-07 14:44:27.453191,1,1,-1,0,0,3,87,88,166,150,42,154.81,14,28.00,-8.00,-989.00
2024-06-07 14:44:27.614944,1,1,-1,0,0,3,87,89,163,150,42,154.77,14,31.00,-14.00,-1019.00
2024-06-07 14:44:27.656215,1,1,-1,0,0,3,87,89,159,140,42,154.76,14,32.00,-32.00,-1016.00
2024-06-07 14:44:27.820060,1,1,-1,0,0,2,87,89,157,140,42,154.71,14,28.00,-12.00,-1022.00
2024-06-07 14:44:27.864474,1,1,-1,0,0,2,87,89,153,140,42,154.69,14,35.00,-20.00,-991.00
2024-06-07 14:44:27.962331,1,1,-1,0,0,2,87,89,151,130,42,154.64,14,46.00,-15.00,-1013.00
2024-06-07 14:44:28.126938,2,1,-1,0,0,2,87,89,149,130,42,154.62,14,28.00,-17.00,-1032.00
2024-06-07 14:44:28.166289,2,1,-1,0,0,2,87,89,145,130,42,154.58,14,37.00,-15.00,-1029.00
2024-06-07 14:44:28.331568,2,1,-1,0,0,2,87,89,143,130,42,154.57,14,34.00,-15.00,-1010.00
2024-06-07 14:44:28.370304,2,0,-1,0,0,1,87,89,143,130,42,154.55,14,51.00,-14.00,-1039.00
2024-06-07 14:44:28.472671,2,0,-1,0,0,1,87,89,139,120,42,154.58,15,29.00,-25.00,-987.00
2024-06-07 14:44:28.639023,2,0,-1,0,0,1,86,89,137,120,42,154.57,15,51.00,-20.00,-988.00
2024-06-07 14:44:28.676412,2,0,-1,0,0,1,86,89,137,120,42,154.55,15,50.00,-2.00,-1055.00
2024-06-07 14:44:28.844891,2,0,-1,0,0,1,86,89,135,120,42,154.51,15,40.00,-7.00,-1030.00
2024-06-07 14:44:28.880248,3,0,-1,0,0,0,86,89,134,120,42,154.49,15,71.00,-28.00,-1004.00
2024-06-07 14:44:29.048963,3,0,-1,0,0,1,86,89,132,120,42,154.54,15,43.00,-15.00,-1007.00
2024-06-07 14:44:29.086135,2,0,-1,0,0,1,86,89,131,120,42,154.47,15,65.00,-26.00,-1053.00
2024-06-07 14:44:29.254621,2,1,-1,0,0,0,86,89,131,120,42,154.46,15,81.00,-14.00,-1043.00
2024-06-07 14:44:29.289427,3,1,-1,0,0,0,86,89,131,110,42,154.48,15,59.00,-22.00,-1005.00
2024-06-07 14:44:29.458037,3,1,-1,0,0,0,86,89,132,110,42,154.42,15,57.00,-25.00,-983.00
2024-06-07 14:44:29.493407,3,1,-1,0,0,0,86,89,130,110,42,154.48,16,43.00,-30.00,-980.00
2024-06-07 14:44:29.667341,2,1,-1,0,0,0,86,89,132,110,42,154.49,16,69.00,-26.00,-1007.00
2024-06-07 14:44:29.697495,2,1,-1,0,0,0,86,89,131,110,42,154.44,16,26.00,-14.00,-998.00
2024-06-07 14:44:29.871572,2,1,-1,0,0,0,86,89,131,110,42,154.48,16,50.00,-11.00,-1027.00
2024-06-07 14:44:29.901465,2,0,-1,0,0,0,86,89,133,110,42,154.53,16,60.00,-16.00,-999.00
2024-06-07 14:44:30.003493,2,0,-1,0,0,0,86,89,133,110,42,154.53,16,39.00,9.00,-1021.00
2024-06-07 14:44:30.176610,1,0,-1,0,0,0,86,89,133,120,42,154.45,16,36.00,-9.00,-973.00
2024-06-07 14:44:30.207325,2,0,-1,0,0,0,86,89,135,120,42,154.44,16,48.00,-19.00,-975.00
2024-06-07 14:44:30.309395,2,0,-1,0,0,0,86,89,134,120,42,154.48,16,59.00,-18.00,-980.00
2024-06-07 14:44:30.482783,2,0,-1,0,0,0,86,89,136,120,42,154.45,16,29.00,-19.00,-972.00
2024-06-07 14:44:30.513276,2,0,-1,0,0,0,86,89,135,120,42,154.44,17,45.00,-27.00,-969.00
2024-06-07 14:44:30.689963,2,0,-1,0,0,0,87,89,134,120,42,154.50,17,47.00,-25.00,-971.00
2024-06-07 14:44:30.717360,2,0,-1,0,0,0,87,89,135,120,42,154.50,17,46.00,-15.00,-996.00
2024-06-07 14:44:30.898136,2,0,-1,0,0,0,87,89,137,120,42,154.54,17,35.00,-19.00,-1017.00
2024-06-07 14:44:30.921379,2,0,-1,0,0,0,87,89,136,120,42,154.47,17,56.00,-15.00,-992.00
2024-06-07 14:44:31.023366,3,0,-1,0,0,0,87,89,137,120,42,154.61,17,55.00,-17.00,-968.00
2024-06-07 14:44:31.125315,3,0,-1,0,0,0,87,89,137,120,42,154.59,17,59.00,-1.00,-994.00
2024-06-07 14:44:31.301129,2,0,-1,0,0,0,87,89,136,120,42,154.52,17,59.00,-5.00,-1031.00
2024-06-07 14:44:31.301287,-3,0,-1,0,0,0,87,89,136,120,42,154.50,17,83.00,-13.00,-1014.00
2024-06-07 14:44:31.380147,-5,0,-1,2,0,0,87,89,135,120,42,154.55,17,37.00,-7.00,-967.00
2024-06-07 14:44:31.482100,-5,0,-1,3,0,0,87,89,136,120,42,154.51,18,47.00,-31.00,-955.00
2024-06-07 14:44:31.635229,-5,0,-1,4,0,0,87,89,134,120,42,154.44,18,19.00,0.00,-1027.00
2024-06-07 14:44:31.688637,-4,0,-1,5,0,0,87,89,133,120,42,154.56,18,18.00,-13.00,-996.00
2024-06-07 14:44:31.788963,-3,0,-1,6,0,0,87,89,133,120,42,154.51,18,31.00,-19.00,-1016.00
2024-06-07 14:44:31.890139,-3,1,-1,7,0,0,87,89,132,120,42,154.58,18,9.00,-21.00,-1009.00
2024-06-07 14:44:31.991974,-2,1,-1,7,0,0,87,89,132,120,42,154.60,18,12.00,-9.00,-1029.00
2024-06-07 14:44:32.121161,0,1,-1,8,0,0,87,89,131,120,42,154.59,18,8.00,-12.00,-1002.00
2024-06-07 14:44:32.196013,3,0,-1,8,0,0,87,89,130,120,42,154.51,18,2.00,-16.00,-994.00
2024-06-07 14:44:32.325052,6,0,-1,7,0,0,87,89,130,120,42,154.56,18,2.00,-7.00,-1042.00
2024-06-07 14:44:32.400080,7,0,-1,6,0,0,87,89,130,110,42,154.62,18,3.00,-15.00,-981.00
2024-06-07 14:44:32.530663,6,0,-1,4,0,0,87,89,131,110,42,154.53,19,35.00,-21.00,-1008.00
2024-06-07 14:44:32.605237,5,0,-1,4,0,0,87,89,130,110,42,154.56,19,5.00,-10.00,-999.00
2024-06-07 14:44:32.735008,3,1,-1,3,0,0,87,89,131,110,42,154.62,19,36.00,-11.00,-1013.00
2024-06-07 14:44:32.809139,3,1,-1,3,0,0,87,89,132,110,42,154.57,19,22.00,-11.00,-1012.00
2024-06-07 14:44:32.938882,2,1,-1,3,0,0,87,89,132,110,42,154.47,19,18.00,-8.00,-1002.00
2024-06-07 14:44:33.013036,2,0,-1,2,0,0,87,89,132,120,42,154.51,19,37.00,-23.00,-994.00
2024-06-07 14:44:33.144627,2,0,-1,2,0,0,87,89,132,120,42,154.55,19,29.00,-17.00,-998.00
2024-06-07 14:44:33.217169,4,0,-1,2,0,0,87,89,134,120,42,154.58,19,34.00,-17.00,-984.00
2024-06-07 14:44:33.349443,7,0,-1,1,0,0,87,89,135,120,42,154.53,19,24.00,-22.00,-981.00
2024-06-07 14:44:33.421073,6,0,-1,1,0,0,87,89,135,120,42,154.52,19,62.00,-24.00,-997.00
2024-06-07 14:44:33.555158,4,0,-1,0,0,0,87,89,135,120,42,154.53,20,54.00,-16.00,-995.00
2024-06-07 14:44:33.625427,4,1,-1,0,0,0,86,89,136,120,42,154.58,20,61.00,-17.00,-982.00
2024-06-07 14:44:33.760184,3,1,-1,0,0,0,86,89,136,120,42,154.53,20,43.00,-14.00,-1004.00
2024-06-07 14:44:33.829712,3,0,-1,0,0,0,86,89,136,120,42,154.55,20,42.00,-2.00,-1041.00
2024-06-07 14:44:33.964380,3,0,-1,0,0,0,86,89,136,120,42,154.54,20,54.00,-10.00,-942.00
2024-06-07 14:44:34.033294,3,0,-1,0,0,0,86,89,136,120,42,154.51,20,52.00,-10.00,-971.00
2024-06-07 14:44:34.169819,2,0,-1,0,0,0,86,89,137,120,42,154.63,20,55.00,-5.00,-1000.00
2024-06-07 14:44:34.237305,2,0,-1,0,0,0,86,89,137,120,42,154.57,20,66.00,-13.00,-979.00
2024-06-07 14:44:34.373570,2,0,-1,0,0,0,86,89,137,120,42,154.56,20,70.00,3.00,-997.00
2024-06-07 14:44:34.441263,2,0,-1,0,0,0,86,89,136,120,42,154.55,20,53.00,-7.00,-1010.00
2024-06-07 14:44:34.584868,3,0,-1,0,0,0,86,89,135,120,42,154.56,21,58.00,-3.00,-990.00
2024-06-07 14:44:34.645241,3,0,-1,0,0,0,86,89,136,120,42,154.54,21,45.00,-9.00,-1012.00
2024-06-07 14:44:34.782853,3,0,-1,0,0,0,86,89,133,120,42,154.51,21,59.00,-21.00,-1010.00
2024-06-07 14:44:34.849628,3,0,-1,0,0,0,86,89,133,120,42,154.54,21,48.00,-10.00,-1022.00
2024-06-07 14:44:34.987616,3,0,-1,0,0,0,86,89,133,120,42,154.50,21,37.00,-6.00,-1001.00
2024-06-07 14:44:35.053237,2,1,-1,0,0,0,86,89,133,120,42,154.48,21,24.00,-10.00,-1014.00
2024-06-07 14:44:35.192828,2,1,-1,0,0,0,86,89,132,120,42,154.50,21,43.00,-21.00,-997.00
2024-06-07 14:44:35.257129,2,1,-1,0,0,0,86,89,131,120,42,154.46,21,49.00,-26.00,-994.00
2024-06-07 14:44:35.396821,2,1,-1,0,0,0,86,89,131,120,42,154.49,21,48.00,-22.00,-1001.00
2024-06-07 14:44:35.461057,3,1,-1,0,0,0,86,89,132,120,42,154.44,21,58.00,-25.00,-998.00
2024-06-07 14:44:35.511849,3,1,-1,0,0,0,86,89,131,120,42,154.48,22,31.00,-15.00,-1006.00
2024-06-07 14:44:35.704714,4,1,-1,0,0,0,87,88,132,110,42,154.45,22,37.00,-17.00,-998.00
2024-06-07 14:44:35.715837,8,1,-1,0,0,0,87,88,133,110,42,154.49,22,53.00,-19.00,-1023.00
2024-06-07 14:44:35.817965,8,0,-1,-1,0,0,87,88,132,110,42,154.43,22,51.00,-12.00,-1002.00
2024-06-07 14:44:36.012912,8,0,-1,-2,0,0,87,88,131,110,42,154.50,22,55.00,-24.00,-996.00
2024-06-07 14:44:36.021872,8,0,-1,-3,0,0,87,88,131,110,42,154.44,22,63.00,-34.00,-996.00
2024-06-07 14:44:36.215740,8,0,-1,-4,0,0,87,88,131,110,42,154.49,22,69.00,-7.00,-1022.00
2024-06-07 14:44:36.225859,8,1,-1,-4,0,0,87,88,131,110,42,154.47,22,51.00,-6.00,-993.00
2024-06-07 14:44:36.421609,8,1,-1,-5,0,0,87,88,131,110,42,154.45,22,76.00,1.00,-987.00
2024-06-07 14:44:36.430358,8,1,-1,-6,0,0,87,88,131,110,42,154.47,22,92.00,-28.00,-997.00
2024-06-07 14:44:36.625485,8,2,-1,-6,0,0,87,88,131,110,42,154.47,23,104.00,-15.00,-1012.00
2024-06-07 14:44:36.633935,8,2,-1,-7,0,0,87,89,131,110,42,154.51,23,132.00,-30.00,-995.00
2024-06-07 14:44:36.831038,4,2,-1,-7,0,0,87,89,130,110,42,154.55,23,105.00,-21.00,-986.00
2024-06-07 14:44:36.837839,0,1,-1,-6,0,0,87,89,129,110,42,154.53,23,102.00,-20.00,-994.00
2024-06-07 14:44:36.939838,-1,0,-1,-5,0,0,87,89,130,110,42,154.49,23,89.00,-18.00,-993.00
2024-06-07 14:44:37.041898,0,0,-1,-4,0,0,87,89,129,110,42,154.40,23,95.00,-17.00,-977.00
2024-06-07 14:44:37.240315,0,0,-1,-3,0,0,87,89,129,110,42,154.41,23,105.00,-17.00,-981.00
2024-06-07 14:44:37.245724,2,0,-1,-3,0,0,87,89,128,110,42,154.38,23,79.00,-8.00,-994.00
2024-06-07 14:44:37.444435,2,0,-1,-3,0,0,87,89,127,110,42,154.31,23,75.00,-2.00,-972.00
2024-06-07 14:44:37.449978,3,1,-1,-2,0,0,87,89,126,110,42,154.31,23,79.00,-6.00,-997.00
2024-06-07 14:44:37.551872,3,0,-1,-2,0,0,87,89,127,110,42,154.42,24,68.00,-11.00,-1004.00
2024-06-07 14:44:37.654567,3,0,-1,-2,0,0,87,88,126,110,42,154.38,24,68.00,-16.00,-1028.00
2024-06-07 14:44:37.755777,3,0,-1,-2,0,0,87,88,127,110,42,154.36,24,72.00,-17.00,-1032.00
2024-06-07 14:44:37.857780,3,0,-1,-2,0,0,87,88,128,110,42,154.36,24,54.00,-3.00,-1043.00
2024-06-07 14:44:37.959834,3,0,-1,-2,0,0,87,88,130,110,42,154.45,24,88.00,-12.00,-988.00
2024-06-07 14:44:38.061825,1,0,-1,-2,0,0,87,88,130,110,42,154.47,24,33.00,-16.00,-1006.00
2024-06-07 14:44:38.163859,0,0,-1,-1,0,0,87,88,131,110,42,154.39,24,60.00,-6.00,-962.00
2024-06-07 14:44:38.266059,0,0,-1,0,0,0,87,88,132,110,42,154.38,24,68.00,-3.00,-1004.00
2024-06-07 14:44:38.367968,1,0,-1,0,0,0,87,88,132,110,42,154.43,24,48.00,6.00,-1026.00
2024-06-07 14:44:38.469895,2,0,-1,0,0,0,87,88,132,110,42,154.42,24,44.00,-12.00,-982.00
2024-06-07 14:44:38.673485,2,0,-1,0,0,0,87,88,132,120,42,154.47,25,56.00,-9.00,-976.00
2024-06-07 14:44:38.673706,2,0,-1,0,0,0,86,89,133,120,42,154.42,25,61.00,-26.00,-990.00
2024-06-07 14:44:38.776516,2,0,-1,0,0,0,86,89,134,120,42,154.39,25,51.00,-6.00,-1007.00
2024-06-07 14:44:38.877892,2,0,-1,0,0,0,86,89,134,120,42,154.47,25,43.00,2.00,-993.00
2024-06-07 14:44:38.980325,3,0,-1,0,0,0,86,89,134,120,42,154.42,25,45.00,-19.00,-979.00
2024-06-07 14:44:39.031034,3,0,-1,0,0,0,86,89,133,120,42,154.47,25,57.00,-24.00,-984.00
2024-06-07 14:44:39.133047,3,0,-1,0,0,0,86,89,133,120,42,154.46,25,52.00,-5.00,-1012.00
2024-06-07 14:44:39.289089,3,1,-1,0,0,0,86,89,133,120,42,154.43,25,46.00,-11.00,-988.00
2024-06-07 14:44:39.340648,3,0,-1,0,0,0,86,89,132,120,42,154.46,25,43.00,-22.00,-959.00
2024-06-07 14:44:39.439945,3,0,-1,0,0,0,86,89,132,120,42,154.43,25,45.00,-7.00,-1012.00
2024-06-07 14:44:39.596071,3,0,-1,0,0,0,86,89,132,120,42,154.41,26,43.00,-17.00,-983.00
2024-06-07 14:44:39.643785,3,0,-1,0,0,0,86,89,132,120,42,154.44,26,61.00,-25.00,-1003.00
2024-06-07 14:44:39.799856,3,0,-1,0,0,0,86,89,131,110,42,154.43,26,44.00,-10.00,-1025.00
2024-06-07 14:44:39.847744,3,0,-1,0,0,0,86,89,132,110,42,154.46,26,40.00,-3.00,-1040.00
2024-06-07 14:44:39.949781,3,0,-1,0,0,0,86,89,131,110,42,154.48,26,30.00,-17.00,-998.00
2024-06-07 14:44:40.107584,3,0,-1,0,0,0,86,89,132,110,42,154.38,26,46.00,-10.00,-1007.00
2024-06-07 14:44:40.153863,3,0,-1,0,0,0,86,89,132,110,42,154.42,26,60.00,-5.00,-1040.00
2024-06-07 14:44:40.268499,3,0,-1,0,0,0,86,89,132,110,42,154.42,26,71.00,-10.00,-992.00
2024-06-07 14:44:40.359751,3,0,-1,0,0,0,86,89,132,110,42,154.42,26,59.00,-27.00,-1002.00
2024-06-07 14:44:40.460154,2,0,-1,0,0,0,86,89,131,110,42,154.40,26,33.00,20.00,-990.00
2024-06-07 14:44:40.619272,2,-5,-1,0,0,0,86,89,132,110,42,154.46,27,43.00,-31.00,-1022.00
2024-06-07 14:44:40.663521,2,-5,-1,0,-2,0,87,88,132,110,42,154.41,27,41.00,-6.00,-989.00
2024-06-07 14:44:40.823864,2,-3,-1,0,-3,0,87,88,130,110,42,154.47,27,51.00,14.00,-1014.00
2024-06-07 14:44:40.867533,2,0,-1,0,-4,0,87,88,130,110,42,154.47,27,77.00,-4.00,-984.00
2024-06-07 14:44:41.029489,2,2,-1,0,-3,0,87,88,130,120,42,154.49,27,53.00,15.00,-1029.00
2024-06-07 14:44:41.071633,2,2,-1,0,-3,0,87,88,129,120,42,154.52,27,36.00,8.00,-1014.00
2024-06-07 14:44:41.236434,2,1,-1,0,-3,0,87,88,130,110,42,154.42,27,40.00,9.00,-992.00
2024-06-07 14:44:41.275475,2,0,-1,0,-2,0,87,88,130,110,42,154.49,27,51.00,-5.00,-1043.00
2024-06-07 14:44:41.439468,2,0,-1,0,-3,0,87,88,130,110,42,154.46,27,55.00,-11.00,-1007.00
2024-06-07 14:44:41.479464,2,0,-1,0,-3,0,87,88,130,110,42,154.45,28,62.00,-9.00,-1022.00
2024-06-07 14:44:41.643377,2,1,-1,0,-3,0,87,88,129,110,42,154.37,28,30.00,-6.00,-975.00
2024-06-07 14:44:41.683496,2,1,-1,0,-3,0,87,90,129,110,42,154.44,28,46.00,-17.00,-973.00
2024-06-07 14:44:41.847639,2,1,-1,0,-3,0,87,90,128,110,42,154.40,28,38.00,-15.00,-1012.00
2024-06-07 14:44:41.887604,2,3,-1,0,-3,0,87,90,128,110,42,154.35,28,43.00,-26.00,-1058.00
2024-06-07 14:44:41.989571,2,7,-1,0,-2,0,87,90,129,110,42,154.46,28,23.00,8.00,-1049.00
2024-06-07 14:44:42.156033,2,5,-1,0,-1,0,87,90,130,110,42,154.40,28,37.00,-28.00,-1020.00
2024-06-07 14:44:42.193833,1,3,-1,0,0,0,87,90,130,110,42,154.38,28,32.00,-23.00,-993.00
2024-06-07 14:44:42.360937,2,2,-1,0,0,0,87,90,130,110,42,154.45,28,41.00,-16.00,-1073.00
2024-06-07 14:44:42.397883,2,2,-1,0,0,0,87,90,130,110,42,154.52,28,38.00,-35.00,-950.00
2024-06-07 14:44:42.499751,2,2,-1,0,0,0,87,90,131,110,42,154.44,29,56.00,-22.00,-1015.00
2024-06-07 14:44:42.669580,2,2,-1,0,0,0,87,90,132,110,42,154.46,29,33.00,-18.00,-978.00
2024-06-07 14:44:42.703815,3,1,-1,0,0,0,86,88,133,120,42,154.47,29,29.00,-16.00,-999.00
2024-06-07 14:44:42.805770,2,1,-1,0,0,0,86,88,134,120,42,154.48,29,34.00,-7.00,-1024.00
2024-06-07 14:44:42.975227,2,1,-1,0,0,0,86,88,135,120,42,154.42,29,18.00,-29.00,-956.00
2024-06-07 14:44:43.009863,1,1,-1,0,0,0,86,88,134,120,42,154.42,29,50.00,-19.00,-1032.00
2024-06-07 14:44:43.180543,1,1,-1,0,0,0,86,88,135,120,42,154.43,29,48.00,-26.00,-995.00
2024-06-07 14:44:43.213586,1,1,-1,0,0,0,86,88,136,120,42,154.55,29,49.00,-46.00,-928.00
2024-06-07 14:44:43.384658,2,1,-1,0,0,0,86,88,135,120,42,154.57,29,22.00,-30.00,-972.00
2024-06-07 14:44:43.384773,2,1,-1,0,0,0,86,88,134,120,42,154.47,29,38.00,-22.00,-998.00
2024-06-07 14:44:43.469952,2,1,-1,0,0,0,86,88,135,120,42,154.48,30,43.00,-24.00,-1008.00
2024-06-07 14:44:43.570989,2,1,-1,0,0,0,86,88,133,120,42,154.41,30,43.00,-33.00,-967.00
2024-06-07 14:44:43.692844,2,1,-1,0,0,0,86,89,132,120,42,154.42,30,53.00,-31.00,-979.00
2024-06-07 14:44:43.774734,3,2,-1,0,0,0,86,89,133,120,42,154.37,30,58.00,-46.00,-1009.00
2024-06-07 14:44:43.896720,2,2,-1,0,0,0,86,89,133,120,42,154.43,30,40.00,-33.00,-1024.00
2024-06-07 14:44:43.978895,2,1,-1,0,0,0,86,89,132,120,42,154.42,30,35.00,-26.00,-1017.00
2024-06-07 14:44:44.082886,2,2,-1,0,0,0,86,89,132,110,42,154.47,30,71.00,-28.00,-1041.00
2024-06-07 14:44:44.182671,2,2,-1,0,0,0,86,89,132,110,42,154.47,30,39.00,-33.00,-1004.00
2024-06-07 14:44:44.306674,2,2,-1,0,0,0,86,89,132,110,42,154.43,30,52.00,-38.00,-1005.00
2024-06-07 14:44:44.386646,2,7,-1,0,0,0,86,89,134,110,42,154.42,30,54.00,-41.00,-934.00
2024-06-07 14:44:44.488894,2,8,-1,0,1,0,86,89,134,110,42,154.55,31,60.00,-40.00,-991.00
2024-06-07 14:44:44.590573,2,8,-1,0,2,0,86,89,135,110,42,154.53,31,52.00,-48.00,-1031.00
2024-06-07 14:44:44.714834,3,6,-1,0,3,0,86,89,135,110,42,154.56,31,43.00,-53.00,-1013.00
2024-06-07 14:44:44.794815,3,3,-1,0,3,0,86,89,134,120,42,154.60,31,30.00,-50.00,-1027.00
2024-06-07 14:44:44.896660,2,1,-1,0,3,0,86,89,135,120,42,154.61,31,43.00,-59.00,-943.00
2024-06-07 14:44:44.998813,2,1,-1,0,3,0,86,89,136,120,42,154.58,31,26.00,-61.00,-995.00
2024-06-07 14:44:45.125100,2,1,-1,0,2,0,86,89,135,120,42,154.58,31,29.00,-53.00,-968.00
2024-06-07 14:44:45.202702,2,2,-1,0,2,0,86,89,135,120,42,154.60,31,65.00,-52.00,-1006.00
2024-06-07 14:44:45.329232,2,2,-1,0,2,0,86,89,135,120,42,154.60,31,51.00,-53.00,-966.00
2024-06-07 14:44:45.406616,2,2,-1,0,2,0,86,89,136,120,42,154.56,31,55.00,-52.00,-995.00
2024-06-07 14:44:45.508630,3,2,-1,0,2,0,86,89,135,120,42,154.50,32,56.00,-41.00,-1010.00
2024-06-07 14:44:45.637088,3,2,-1,0,2,0,86,89,136,120,42,154.53,32,71.00,-54.00,-950.00
2024-06-07 14:44:45.712548,3,2,-1,0,2,0,86,89,135,120,42,154.55,32,49.00,-45.00,-1034.00
2024-06-07 14:44:45.841681,3,2,-1,0,2,0,86,89,133,120,42,154.57,32,52.00,-48.00,-934.00
2024-06-07 14:44:45.916557,2,2,-1,0,2,0,86,89,132,120,42,154.52,32,35.00,-48.00,-967.00
2024-06-07 14:44:46.048546,2,2,-1,0,2,0,86,89,133,120,42,154.56,32,67.00,-47.00,-987.00
2024-06-07 14:44:46.120510,3,2,-1,0,2,0,86,89,132,120,42,154.49,32,59.00,-39.00,-1004.00
2024-06-07 14:44:46.252739,3,1,-1,0,2,0,86,89,131,110,42,154.48,32,54.00,-43.00,-1032.00
2024-06-07 14:44:46.324617,3,-1,-1,0,1,0,86,89,132,110,42,154.52,32,39.00,-39.00,-1022.00
2024-06-07 14:44:46.456639,2,-2,-1,0,0,0,86,89,131,110,42,154.49,32,46.00,-44.00,-1027.00
2024-06-07 14:44:46.528609,2,0,-1,0,0,0,86,89,131,110,42,154.45,33,49.00,-30.00,-962.00
2024-06-07 14:44:46.660919,2,1,-1,0,0,0,86,89,131,110,42,154.50,33,69.00,-44.00,-998.00
2024-06-07 14:44:46.735818,3,1,-1,0,0,0,87,89,131,110,42,154.39,33,67.00,-22.00,-1011.00
2024-06-07 14:44:46.835688,3,1,-1,0,0,0,87,89,131,110,42,154.34,33,55.00,-32.00,-1013.00
2024-06-07 14:44:46.969881,3,1,-1,0,0,0,87,89,131,110,42,154.41,33,60.00,-41.00,-974.00
2024-06-07 14:44:47.039173,3,1,-1,0,0,0,87,89,130,110,42,154.33,33,69.00,-29.00,-1012.00
2024-06-07 14:44:47.172783,3,2,-1,0,0,0,87,89,130,110,42,154.40,33,42.00,-26.00,-988.00
2024-06-07 14:44:47.192598,3,1,-1,0,0,0,87,89,130,110,42,154.40,33,71.00,-31.00,-969.00
2024-06-07 14:44:47.378556,3,1,-1,0,0,0,87,89,128,110,42,154.36,33,26.00,-29.00,-953.00
2024-06-07 14:44:47.395280,2,2,-1,0,0,0,87,89,128,110,42,154.33,33,43.00,-18.00,-1000.00
2024-06-07 14:44:47.589063,2,2,-1,0,0,0,87,89,128,110,42,154.38,34,57.00,-31.00,-1004.00
2024-06-07 14:44:47.600857,2,2,-1,0,0,0,87,89,126,110,42,154.33,34,41.00,-33.00,-971.00
2024-06-07 14:44:47.787605,2,2,-1,0,0,0,86,89,127,110,42,154.38,34,59.00,-37.00,-1013.00
2024-06-07 14:44:47.803452,2,2,-1,0,0,0,86,89,127,110,42,154.28,34,39.00,-53.00,-959.00
2024-06-07 14:44:47.992940,2,2,-1,0,0,0,86,89,128,110,42,154.36,34,50.00,-50.00,-984.00
2024-06-07 14:44:48.010072,2,2,-1,0,0,0,86,89,128,110,42,154.36,34,40.00,-29.00,-1036.00
2024-06-07 14:44:48.109366,1,2,-1,0,0,0,86,89,129,110,42,154.30,34,65.00,-44.00,-988.00
2024-06-07 14:44:48.299553,2,2,-1,0,0,0,86,89,129,110,42,154.33,34,32.00,-40.00,-1027.00
2024-06-07 14:44:48.313250,2,2,-1,0,0,0,86,89,130,110,42,154.35,34,34.00,-36.00,-987.00
2024-06-07 14:44:48.460183,2,2,-1,0,0,0,86,89,130,110,42,154.30,34,41.00,-38.00,-971.00
2024-06-07 14:44:48.517437,2,2,-1,0,0,0,86,89,131,110,42,154.45,35,24.00,-42.00,-1041.00
2024-06-07 14:44:48.624078,1,2,-1,0,0,0,86,89,131,110,42,154.36,35,55.00,-78.00,-955.00
2024-06-07 14:44:48.721215,1,2,4,0,0,0,86,89,133,110,42,154.55,35,44.00,-41.00,-914.00
2024-06-07 14:44:48.913231,0,2,10,0,0,0,86,89,133,110,42,154.54,35,13.00,-37.00,-999.00
2024-06-07 14:44:48.925162,0,2,16,0,0,0,86,89,133,110,42,154.48,35,-10.00,-36.00,-1023.00
2024-06-07 14:44:49.027185,0,2,22,0,0,0,86,89,133,120,42,154.50,35,5.00,-55.00,-985.00
2024-06-07 14:44:49.221444,0,2,28,0,0,0,86,89,132,120,42,154.47,35,11.00,-59.00,-976.00
2024-06-07 14:44:49.231193,-1,2,35,0,0,0,86,89,134,120,42,154.51,35,-10.00,-44.00,-1007.00
2024-06-07 14:44:49.426538,-1,2,41,0,0,0,86,89,135,120,42,154.46,35,-22.00,-44.00,-1007.00
2024-06-07 14:44:49.435324,-1,2,47,0,0,0,86,89,135,120,42,154.46,35,-37.00,-35.00,-1008.00
2024-06-07 14:44:49.537176,-2,2,53,0,0,0,86,89,136,120,42,154.45,36,-60.00,-44.00,-982.00
2024-06-07 14:44:49.733994,-2,2,59,0,0,0,86,89,136,120,42,154.37,36,-35.00,-24.00,-1000.00
2024-06-07 14:44:49.741222,-3,1,65,0,0,0,87,89,137,120,42,154.41,36,-50.00,-32.00,-962.00
2024-06-07 14:44:49.843563,-3,1,71,0,0,0,87,89,137,120,42,154.35,36,-53.00,-34.00,-977.00
2024-06-07 14:44:50.040467,-3,0,77,0,0,0,87,89,139,120,42,154.43,36,-63.00,-26.00,-996.00
2024-06-07 14:44:50.047112,-4,0,83,0,0,0,87,89,138,120,42,154.38,36,-57.00,-19.00,-1002.00
2024-06-07 14:44:50.245029,-4,0,90,0,0,0,87,89,138,120,42,154.37,36,-58.00,-18.00,-972.00
2024-06-07 14:44:50.251210,-4,0,96,0,0,0,87,89,140,120,42,154.32,36,-77.00,-5.00,-981.00
2024-06-07 14:44:50.449739,-4,0,102,0,0,0,87,89,138,120,42,154.29,36,-58.00,1.00,-1005.00
2024-06-07 14:44:50.454985,-4,0,108,0,0,0,87,89,139,120,42,154.24,36,-70.00,-5.00,-953.00
2024-06-07 14:44:50.557087,-4,0,114,0,0,0,87,89,140,120,42,154.19,37,-90.00,30.00,-981.00
2024-06-07 14:44:50.757056,-4,0,120,0,0,0,87,89,139,120,42,154.31,37,-91.00,31.00,-1009.00
2024-06-07 14:44:50.761096,-4,-1,126,0,0,0,87,89,139,120,42,154.26,37,-71.00,36.00,-1052.00
2024-06-07 14:44:50.866283,-4,-1,132,0,0,0,87,89,138,120,42,154.26,37,-55.00,41.00,-978.00
2024-06-07 14:44:50.965084,-4,-2,138,0,0,0,87,89,137,120,42,154.35,37,-73.00,43.00,-949.00
2024-06-07 14:44:51.067105,-3,-2,144,0,0,0,87,89,137,120,42,154.52,37,-52.00,56.00,-1003.00
2024-06-07 14:44:51.118908,-3,-2,150,0,0,0,87,89,137,120,42,154.43,37,-65.00,69.00,-1065.00
2024-06-07 14:44:51.269645,-3,-3,155,0,0,0,87,89,135,120,42,154.47,37,-51.00,69.00,-1013.00
2024-06-07 14:44:51.322342,-2,-3,161,0,0,0,87,89,134,120,42,154.47,37,-47.00,68.00,-1037.00
2024-06-07 14:44:51.473893,-2,-3,167,0,0,0,87,89,134,120,42,154.42,37,-50.00,65.00,-981.00
2024-06-07 14:44:51.526292,-3,-3,173,0,0,0,87,89,132,120,42,154.43,38,-24.00,83.00,-1005.00
2024-06-07 14:44:51.628736,-2,-3,179,0,0,0,87,89,134,120,42,154.42,38,-35.00,83.00,-1034.00
2024-06-07 14:44:51.781061,-2,-4,-174,0,0,0,86,89,133,120,42,154.47,38,-23.00,82.00,-997.00
2024-06-07 14:44:51.832364,-1,-4,-168,0,0,0,86,89,132,120,42,154.46,38,-18.00,81.00,-984.00
2024-06-07 14:44:51.986550,-1,-4,-162,0,0,0,86,89,131,110,42,154.60,38,-14.00,85.00,-1007.00
2024-06-07 14:44:52.036435,0,-4,-155,0,0,0,86,89,133,110,42,154.58,38,21.00,70.00,-992.00
2024-06-07 14:44:52.190618,0,-4,-149,0,0,0,86,89,132,110,42,154.59,38,23.00,86.00,-1013.00
2024-06-07 14:44:52.240541,0,-4,-143,0,0,0,86,89,132,110,42,154.61,38,21.00,87.00,-1013.00
2024-06-07 14:44:52.394758,1,-3,-137,0,0,0,86,89,133,120,42,154.60,38,31.00,83.00,-1005.00
2024-06-07 14:44:52.444317,2,-3,-131,0,0,0,86,89,133,120,42,154.59,38,52.00,62.00,-974.00
2024-06-07 14:44:52.546260,2,-2,-125,0,0,0,86,89,133,120,42,154.55,39,58.00,70.00,-973.00
2024-06-07 14:44:52.702911,2,-2,-118,0,0,0,86,89,133,120,42,154.49,39,55.00,63.00,-996.00
2024-06-07 14:44:52.750268,3,-2,-112,0,0,0,86,88,132,120,42,154.50,39,63.00,55.00,-977.00
2024-06-07 14:44:52.852207,3,-1,-106,0,0,0,86,88,132,120,42,154.43,39,68.00,51.00,-981.00
2024-06-07 14:44:53.009887,3,-1,-100,0,0,0,86,88,133,120,42,154.52,39,74.00,25.00,-970.00
2024-06-07 14:44:53.056177,4,-1,-94,0,0,0,86,88,132,120,42,154.35,39,100.00,8.00,-1002.00
2024-06-07 14:44:53.215084,4,0,-88,0,0,0,86,88,133,120,42,154.32,39,77.00,24.00,-973.00
2024-06-07 14:44:53.260151,4,0,-82,0,0,0,86,88,131,110,42,154.38,39,81.00,11.00,-1018.00
2024-06-07 14:44:53.421449,4,1,-76,0,0,0,86,88,131,110,42,154.42,39,82.00,18.00,-995.00
2024-06-07 14:44:53.464307,4,1,-70,0,0,0,86,88,132,110,42,154.38,39,92.00,-8.00,-995.00
2024-06-07 14:44:53.624697,4,1,-64,0,0,0,86,88,131,110,42,154.48,40,94.00,-10.00,-1026.00
2024-06-07 14:44:53.668275,4,1,-58,0,0,0,86,88,131,110,42,154.44,40,68.00,-10.00,-994.00
2024-06-07 14:44:53.830004,4,2,-52,0,0,0,86,89,131,110,42,154.39,40,86.00,-43.00,-985.00
2024-06-07 14:44:53.872204,3,3,-46,0,0,0,86,89,132,110,42,154.39,40,79.00,-56.00,-953.00
2024-06-07 14:44:53.974242,3,3,-40,0,0,0,86,89,132,110,42,154.40,40,64.00,-47.00,-1016.00
2024-06-07 14:44:54.137342,3,3,-34,0,0,0,86,89,132,110,42,154.50,40,70.00,-66.00,-964.00
2024-06-07 14:44:54.178315,2,4,-28,0,0,0,86,89,132,110,42,154.53,40,64.00,-47.00,-1069.00
2024-06-07 14:44:54.340906,2,4,-22,0,0,0,86,89,132,110,42,154.52,40,33.00,-60.00,-998.00
2024-06-07 14:44:54.382174,1,4,-18,0,0,0,86,89,133,110,42,154.55,40,26.00,-75.00,-983.00
2024-06-07 14:44:54.546274,1,4,-14,0,0,0,86,89,133,110,42,154.53,40,45.00,-79.00,-1012.00
2024-06-07 14:44:54.546577,1,4,-11,0,0,0,86,89,133,110,42,154.47,41,48.00,-60.00,-1020.00
2024-06-07 14:44:54.636923,1,4,-9,0,0,0,86,89,135,120,42,154.58,41,14.00,-51.00,-963.00
2024-06-07 14:44:54.790000,2,4,-6,0,0,0,86,89,135,120,42,154.49,41,38.00,-61.00,-1006.00
2024-06-07 14:44:54.955812,2,4,-5,0,0,0,86,89,136,120,42,154.57,41,13.00,-73.00,-933.00
2024-06-07 14:44:54.995563,2,3,-4,1,0,0,86,89,136,120,42,154.56,41,30.00,-73.00,-974.00
2024-06-07 14:44:55.096234,2,3,-3,0,0,0,86,89,135,120,42,154.59,41,42.00,-75.00,-961.00
2024-06-07 14:44:55.263311,3,4,-3,0,0,0,86,89,136,120,42,154.58,41,29.00,-88.00,-989.00
2024-06-07 14:44:55.263442,2,4,-3,0,0,0,86,89,135,120,42,154.59,41,39.00,-79.00,-1026.00
2024-06-07 14:44:55.351341,2,4,-3,0,0,0,86,89,135,120,42,154.58,41,34.00,-86.00,-954.00
2024-06-07 14:44:55.467573,2,5,-3,0,0,0,86,89,134,120,42,154.59,42,47.00,-81.00,-955.00
2024-06-07 14:44:55.560266,2,5,-3,0,0,0,86,89,133,120,42,154.52,42,36.00,-81.00,-1013.00
2024-06-07 14:44:55.658486,2,5,-3,0,0,0,86,89,132,120,42,154.51,42,27.00,-79.00,-970.00
2024-06-07 14:44:55.774006,2,5,-3,0,0,0,87,89,131,120,42,154.47,42,31.00,-78.00,-997.00
2024-06-07 14:44:55.860967,2,4,-3,0,0,0,87,89,129,120,42,154.44,42,27.00,-82.00,-955.00
2024-06-07 14:44:55.962954,2,4,-3,0,0,0,87,89,129,110,42,154.47,42,38.00,-55.00,-1004.00
2024-06-07 14:44:56.083727,1,4,-3,0,0,0,87,89,127,110,42,154.52,42,42.00,-75.00,-1001.00
2024-06-07 14:44:56.166879,1,4,-3,0,0,0,87,89,126,110,42,154.42,42,22.00,-54.00,-1006.00
2024-06-07 14:44:56.286852,1,4,-3,0,0,0,87,89,125,110,42,154.44,42,30.00,-74.00,-985.00
2024-06-07 14:44:56.375490,1,4,-3,0,0,0,87,89,123,110,42,154.48,42,8.00,-61.00,-1048.00
2024-06-07 14:44:56.473027,1,4,-3,0,0,0,87,89,123,110,42,154.48,43,19.00,-83.00,-1022.00
2024-06-07 14:44:56.594696,1,4,-3,0,0,0,87,89,122,110,42,154.47,43,23.00,-75.00,-1027.00
2024-06-07 14:44:56.676936,1,4,-3,0,0,0,87,89,123,110,42,154.57,43,61.00,-76.00,-1033.00
2024-06-07 14:44:56.800487,2,4,-3,0,0,0,87,88,122,110,42,154.54,43,31.00,-86.00,-1017.00
2024-06-07 14:44:56.880818,1,4,-3,0,0,0,87,88,123,110,42,154.48,43,44.00,-86.00,-1039.00
2024-06-07 14:44:57.005636,1,4,-3,0,0,0,87,88,124,110,42,154.48,43,17.00,-87.00,-944.00
2024-06-07 14:44:57.084842,1,4,-3,0,0,0,87,88,125,110,42,154.50,43,22.00,-89.00,-979.00
2024-06-07 14:44:57.187464,1,5,-3,0,0,0,87,88,126,110,42,154.51,43,62.00,-79.00,-1040.00
2024-06-07 14:44:57.288948,2,4,-7,0,0,0,87,88,126,110,42,154.51,43,53.00,-78.00,-981.00
2024-06-07 14:44:57.390849,2,4,-13,0,0,0,87,88,126,110,42,154.48,43,44.00,-65.00,-984.00
2024-06-07 14:44:57.515517,3,4,-19,0,0,0,87,88,128,110,42,154.49,44,81.00,-73.00,-944.00
2024-06-07 14:44:57.594736,4,4,-25,0,0,0,87,88,128,110,42,154.44,44,68.00,-58.00,-1033.00
2024-06-07 14:44:57.720248,5,3,-31,0,0,0,87,88,129,110,42,154.44,44,55.00,-49.00,-1036.00
2024-06-07 14:44:57.800328,5,2,-37,0,0,0,86,89,130,110,42,154.43,44,80.00,-42.00,-1026.00
2024-06-07 14:44:57.900916,5,2,-43,0,0,0,86,89,130,110,42,154.36,44,88.00,-22.00,-988.00
2024-06-07 14:44:58.026777,5,1,-50,0,0,0,86,89,130,110,42,154.28,44,104.00,-20.00,-971.00
2024-06-07 14:44:58.105963,6,0,-55,0,0,0,86,89,130,110,42,154.38,44,103.00,-23.00,-960.00
2024-06-07 14:44:58.208021,6,0,-61,0,0,0,86,89,131,110,42,154.24,44,102.00,-15.00,-983.00
2024-06-07 14:44:58.335617,6,0,-67,0,0,0,86,89,132,120,42,154.08,44,94.00,10.00,-1021.00
2024-06-07 14:44:58.411887,6,0,-73,0,0,0,86,89,131,120,42,154.26,44,105.00,6.00,-978.00
2024-06-07 14:44:58.539451,6,-1,-79,0,0,0,86,89,132,120,42,154.20,45,104.00,14.00,-970.00
2024-06-07 14:44:58.564674,6,-1,-85,0,0,0,86,89,131,120,42,154.44,45,103.00,54.00,-967.00
2024-06-07 14:44:58.744636,6,-2,-91,0,0,0,86,89,132,120,42,154.32,45,107.00,38.00,-989.00
2024-06-07 14:44:58.822481,5,-2,-97,0,0,0,86,89,130,110,42,154.31,45,88.00,61.00,-1015.00
2024-06-07 14:44:58.870687,4,-3,-102,0,0,0,86,89,131,110,42,154.33,45,95.00,70.00,-1006.00
2024-06-07 14:44:59.051419,4,-4,-108,0,0,0,86,89,131,110,42,154.35,45,99.00,81.00,-1005.00
2024-06-07 14:44:59.074715,4,-4,-114,0,0,0,86,89,131,110,42,154.31,45,83.00,84.00,-973.00
2024-06-07 14:44:59.256936,4,-4,-120,0,0,0,86,89,130,110,42,154.48,45,73.00,112.00,-1028.00
2024-06-07 14:44:59.278655,4,-5,-126,0,0,0,86,89,130,110,42,154.38,45,79.00,116.00,-988.00
2024-06-07 14:44:59.380656,4,-5,-132,0,0,0,86,89,132,110,42,154.44,45,62.00,116.00,-989.00
2024-06-07 14:44:59.563807,3,-5,-137,0,0,0,86,89,131,110,42,154.45,46,65.00,123.00,-1011.00
2024-06-07 14:44:59.584733,2,-6,-143,0,0,0,86,89,132,110,42,154.44,46,66.00,124.00,-999.00
2024-06-07 14:44:59.686624,2,-7,-149,0,0,0,86,89,133,110,42,154.61,46,4.00,148.00,-992.00
2024-06-07 14:44:59.871556,1,-7,-155,0,0,0,87,89,131,110,42,154.56,46,25.00,137.00,-954.00
2024-06-07 14:44:59.890661,0,-8,-161,0,0,0,87,89,132,110,42,154.63,46,-2.00,154.00,-1007.00
2024-06-07 14:44:59.992648,0,-8,-167,0,0,0,87,89,132,110,42,154.66,46,-9.00,148.00,-991.00
2024-06-07 14:45:00.177886,-1,-8,-172,0,0,0,87,89,132,110,42,154.57,46,-19.00,131.00,-974.00
2024-06-07 14:45:00.196629,-2,-8,-178,0,0,0,87,89,132,110,42,154.46,46,-25.00,117.00,-978.00
2024-06-07 14:45:00.353171,-2,-7,175,0,0,0,87,89,132,110,42,154.44,46,-38.00,126.00,-1007.00
2024-06-07 14:45:00.400631,-2,-6,169,0,0,0,87,89,132,110,42,154.47,46,-94.00,118.00,-994.00
2024-06-07 14:45:00.587786,-3,-5,162,0,0,0,87,89,131,110,42,154.41,47,-74.00,116.00,-1048.00
2024-06-07 14:45:00.606215,-4,-5,156,0,0,0,87,89,132,110,42,154.40,47,-92.00,99.00,-995.00
2024-06-07 14:45:00.791385,-5,-4,149,0,0,0,87,89,133,110,42,154.39,47,-106.00,82.00,-956.00
2024-06-07 14:45:00.809743,-6,-3,143,0,0,0,86,89,134,120,42,154.30,47,-107.00,74.00,-923.00
2024-06-07 14:45:00.997089,-6,-2,137,0,0,0,86,89,134,120,42,154.31,47,-79.00,71.00,-1038.00
2024-06-07 14:45:01.016151,-6,-2,131,0,0,0,86,89,135,120,42,154.30,47,-85.00,71.00,-966.00
2024-06-07 14:45:01.115833,-6,-1,125,0,0,0,86,89,136,120,42,154.30,47,-101.00,77.00,-957.00
2024-06-07 14:45:01.305182,-5,-2,119,0,0,0,86,89,136,120,42,154.13,47,-118.00,60.00,-1016.00
2024-06-07 14:45:01.321563,-6,-2,112,0,0,0,86,89,138,120,42,154.07,47,-124.00,45.00,-1048.00
2024-06-07 14:45:01.421860,-6,-1,106,0,0,0,86,89,138,120,42,154.03,47,-122.00,18.00,-914.00
2024-06-07 14:45:01.610948,-7,-1,100,0,0,0,86,89,138,120,42,153.82,48,-129.00,-6.00,-959.00
2024-06-07 14:45:01.625747,-7,0,94,0,0,0,86,89,139,120,42,153.96,48,-136.00,-1.00,-927.00
2024-06-07 14:45:01.727871,-7,1,88,0,0,0,86,89,139,120,42,154.03,48,-126.00,-30.00,-1050.00
2024-06-07 14:45:01.919504,-8,2,83,0,0,0,86,88,138,120,42,154.02,48,-127.00,-22.00,-942.00
2024-06-07 14:45:01.932986,-8,2,77,0,0,0,86,88,138,120,42,154.10,48,-131.00,-23.00,-985.00
2024-06-07 14:45:02.034415,-7,3,71,0,0,0,86,88,136,120,42,154.28,48,-131.00,-41.00,-949.00
2024-06-07 14:45:02.136063,-7,3,65,0,0,0,86,88,137,120,42,154.21,48,-124.00,-57.00,-943.00
2024-06-07 14:45:02.238212,-6,4,59,0,0,0,86,88,135,120,42,154.22,48,-101.00,-72.00,-942.00
2024-06-07 14:45:02.339784,-5,4,54,0,0,0,86,88,134,120,42,154.27,48,-95.00,-73.00,-1008.00
2024-06-07 14:45:02.390475,-5,4,48,0,0,0,86,88,134,120,42,154.30,48,-94.00,-67.00,-1044.00
2024-06-07 14:45:02.534410,-5,5,43,0,0,0,86,88,132,110,42,154.24,49,-84.00,-78.00,-998.00
2024-06-07 14:45:02.594602,-4,5,37,0,0,0,86,88,132,110,42,154.35,49,-76.00,-88.00,-1010.00
2024-06-07 14:45:02.746260,-4,5,31,0,0,0,86,88,133,110,42,154.44,49,-62.00,-99.00,-993.00
2024-06-07 14:45:02.798472,-4,6,26,0,0,0,86,88,133,110,42,154.32,49,-69.00,-81.00,-993.00
2024-06-07 14:45:02.943012,-3,5,20,0,0,0,86,88,132,110,42,154.43,49,-68.00,-106.00,-1019.00
2024-06-07 14:45:03.002475,-3,6,15,0,0,0,86,88,131,110,42,154.50,49,-50.00,-108.00,-1003.00
2024-06-07 14:45:03.166982,-3,6,10,0,0,0,86,88,132,110,42,154.43,49,-56.00,-115.00,-1001.00
2024-06-07 14:45:03.206459,-3,7,7,0,0,0,86,88,133,110,42,154.50,49,-11.00,-159.00,-1028.00
2024-06-07 14:45:03.353180,-2,7,5,0,0,0,86,88,133,110,42,154.39,49,-7.00,-157.00,-1013.00
2024-06-07 14:45:03.410449,-1,9,3,0,0,0,86,88,134,110,42,154.44,49,19.00,-167.00,-954.00
2024-06-07 14:45:03.557232,0,9,2,0,0,0,86,88,134,110,42,154.44,50,12.00,-127.00,-927.00
2024-06-07 14:45:03.614452,1,9,1,0,0,0,86,88,133,110,42,154.52,50,-3.00,-128.00,-1056.00
2024-06-07 14:45:03.762224,0,9,0,0,0,0,86,88,133,110,42,154.47,50,19.00,-100.00,-1015.00
2024-06-07 14:45:03.818638,0,8,-1,0,0,0,86,88,133,110,42,154.56,50,14.00,-163.00,-1030.00
2024-06-07 14:45:03.921739,1,7,-1,0,0,0,86,88,133,110,42,154.59,50,16.00,-142.00,-992.00
2024-06-07 14:45:04.070123,1,8,-2,0,0,0,86,88,133,110,42,154.56,50,70.00,-125.00,-974.00
2024-06-07 14:45:04.125742,1,8,-2,0,0,0,86,88,136,110,42,154.49,50,50.00,-152.00,-986.00
2024-06-07 14:45:04.274719,2,8,-2,0,0,0,86,88,137,110,42,154.57,50,27.00,-134.00,-902.00
2024-06-07 14:45:04.329863,2,8,-2,0,0,0,86,88,136,120,42,154.51,50,11.00,-118.00,-955.00
2024-06-07 14:45:04.431759,2,7,-2,0,0,0,86,88,137,120,42,154.47,50,6.00,-114.00,-995.00
2024-06-07 14:45:04.582649,1,7,-2,0,0,0,86,88,138,120,42,154.51,51,24.00,-114.00,-952.00
2024-06-07 14:45:04.635666,0,7,-2,0,0,0,86,88,139,120,42,154.54,51,12.00,-105.00,-989.00
2024-06-07 14:45:04.786471,0,6,-2,0,0,0,86,88,139,120,42,154.54,51,-6.00,-109.00,-1031.00
2024-06-07 14:45:04.839725,0,6,-2,0,0,0,87,89,141,120,42,154.56,51,16.00,-121.00,-965.00
2024-06-07 14:45:04.990012,0,6,-2,0,0,0,87,89,140,120,42,154.56,51,7.00,-100.00,-1012.00
2024-06-07 14:45:05.043640,0,6,-2,0,0,0,87,89,141,120,42,154.52,51,24.00,-107.00,-967.00
2024-06-07 14:45:05.145670,0,6,-2,0,0,0,87,89,140,120,42,154.60,51,9.00,-142.00,-962.00
2024-06-07 14:45:05.300926,1,6,-2,0,0,0,87,89,139,120,42,154.56,51,0.00,-131.00,-922.00
2024-06-07 14:45:05.349727,0,6,-2,0,0,0,87,89,140,120,42,154.53,51,10.00,-139.00,-988.00
2024-06-07 14:45:05.451625,0,7,-2,0,0,0,87,89,141,120,42,154.49,51,1.00,-139.00,-1009.00
2024-06-07 14:45:05.553906,0,7,-2,0,0,0,87,89,140,120,42,154.57,52,-30.00,-124.00,-1049.00
2024-06-07 14:45:05.655931,0,8,-2,0,0,0,87,89,138,120,42,154.53,52,-33.00,-120.00,-1035.00
2024-06-07 14:45:05.810503,0,7,-2,0,0,0,87,89,139,120,42,154.56,52,-25.00,-142.00,-1007.00
2024-06-07 14:45:05.860019,-2,7,-2,0,0,0,86,89,139,120,42,154.51,52,-11.00,-121.00,-978.00
2024-06-07 14:45:05.961822,-1,8,-2,0,0,0,86,89,140,120,42,154.58,52,-27.00,-108.00,-1064.00
2024-06-07 14:45:06.116797,-1,7,-2,0,0,0,86,89,139,120,42,154.63,52,-34.00,-118.00,-1020.00
2024-06-07 14:45:06.165884,-2,6,-2,0,0,0,86,89,139,120,42,154.63,52,-29.00,-121.00,-967.00
2024-06-07 14:45:06.218925,-2,6,-2,0,0,0,86,89,140,120,42,154.61,52,-43.00,-131.00,-960.00
2024-06-07 14:45:06.319448,-2,6,-2,0,0,0,86,89,140,120,42,154.58,52,-35.00,-110.00,-963.00
2024-06-07 14:45:06.421772,-2,7,-2,0,0,0,86,89,139,120,42,154.66,52,-41.00,-111.00,-1001.00
2024-06-07 14:45:06.522769,-2,6,-2,0,0,0,86,89,140,120,42,154.62,53,-54.00,-106.00,-966.00
2024-06-07 14:45:06.630644,-2,6,-2,0,0,0,86,89,140,120,42,154.60,53,-59.00,-131.00,-1015.00
2024-06-07 14:45:06.726398,-2,6,-2,0,0,0,86,89,139,120,42,154.58,53,1.00,-138.00,-1000.00
2024-06-07 14:45:06.834438,-3,6,-2,0,0,0,86,88,138,120,42,154.65,53,-17.00,-158.00,-947.00
2024-06-07 14:45:06.930465,-2,7,-2,0,0,0,86,88,138,120,42,154.61,53,-12.00,-139.00,-1006.00
2024-06-07 14:45:07.039498,-1,8,-2,0,0,0,86,88,138,120,42,154.66,53,-23.00,-141.00,-991.00
2024-06-07 14:45:07.134412,-1,8,-2,0,0,0,86,88,138,120,42,154.54,53,-5.00,-133.00,-1063.00
2024-06-07 14:45:07.238206,-1,8,-2,0,0,0,86,88,139,120,42,154.54,53,9.00,-139.00,-980.00
2024-06-07 14:45:07.340100,0,8,-2,1,0,0,86,88,138,120,42,154.53,53,3.00,-145.00,-970.00
2024-06-07 14:45:07.449496,0,8,-2,1,0,0,86,88,139,120,42,154.51,53,-16.00,-133.00,-997.00
2024-06-07 14:45:07.546285,0,8,-2,1,0,0,86,88,139,120,42,154.64,54,21.00,-146.00,-956.00
2024-06-07 14:45:07.647713,1,8,-2,1,0,0,86,88,139,120,42,154.72,54,18.00,-149.00,-1002.00
2024-06-07 14:45:07.746478,0,8,-2,1,0,0,86,88,137,120,42,154.59,54,42.00,-135.00,-1014.00
2024-06-07 14:45:07.857904,1,8,-2,1,0,0,87,89,140,120,42,154.59,54,13.00,-138.00,-974.00
2024-06-07 14:45:07.950186,2,8,-2,1,0,0,87,89,139,120,42,154.55,54,49.00,-149.00,-954.00
2024-06-07 14:45:08.052707,2,8,-2,1,0,0,87,89,138,120,42,154.51,54,57.00,-130.00,-985.00
2024-06-07 14:45:08.165190,2,7,-2,0,0,0,87,89,137,120,42,154.50,54,18.00,-114.00,-970.00
2024-06-07 14:45:08.256876,2,7,-2,0,0,0,87,89,137,120,42,154.46,54,28.00,-102.00,-1021.00
2024-06-07 14:45:08.369262,2,7,-2,0,0,0,87,89,136,120,42,154.49,54,25.00,-108.00,-952.00
2024-06-07 14:45:08.460344,1,6,-2,0,0,0,87,89,135,120,42,154.41,54,52.00,-97.00,-1012.00
2024-06-07 14:45:08.562541,1,5,-2,0,0,0,87,89,134,120,42,154.50,55,3.00,-89.00,-979.00
2024-06-07 14:45:08.677168,1,5,-2,0,0,0,87,89,133,120,42,154.47,55,25.00,-103.00,-996.00
2024-06-07 14:45:08.766294,1,5,-2,0,0,0,87,89,133,120,42,154.50,55,3.00,-101.00,-979.00
2024-06-07 14:45:08.868675,1,5,-2,0,0,0,87,89,133,120,42,154.43,55,24.00,-94.00,-1038.00
2024-06-07 14:45:08.984832,1,5,-2,0,0,0,87,89,132,110,42,154.43,55,16.00,-107.00,-1030.00
2024-06-07 14:45:09.072242,1,5,-2,0,0,0,87,89,131,110,42,154.50,55,-7.00,-81.00,-1039.00
2024-06-07 14:45:09.189468,1,5,-2,0,0,0,87,89,132,110,42,154.36,55,-3.00,-92.00,-958.00
2024-06-07 14:45:09.278281,0,4,-2,0,0,0,87,89,131,110,42,154.43,55,-3.00,-90.00,-977.00
2024-06-07 14:45:09.380724,0,4,-2,0,0,0,87,89,132,110,42,154.44,55,30.00,-70.00,-1053.00
2024-06-07 14:45:09.480252,0,4,-2,0,0,0,87,89,131,110,42,154.51,56,42.00,-104.00,-946.00
2024-06-07 14:45:09.582267,1,5,-2,0,0,0,87,89,131,110,42,154.51,56,12.00,-110.00,-924.00
2024-06-07 14:45:09.704854,1,6,-2,0,0,0,87,89,130,110,42,154.53,56,4.00,-115.00,-1018.00
2024-06-07 14:45:09.786358,1,6,-2,0,0,0,87,89,131,110,42,154.51,56,-2.00,-106.00,-966.00
2024-06-07 14:45:09.888157,0,6,-2,0,0,0,87,89,130,110,42,154.45,56,22.00,-120.00,-973.00
2024-06-07 14:45:09.990188,0,6,-2,0,0,0,87,89,130,110,42,154.50,56,9.00,-104.00,-1022.00
2024-06-07 14:45:10.111598,1,6,-2,0,0,0,87,89,130,110,42,154.57,56,18.00,-111.00,-1088.00
2024-06-07 14:45:10.196892,1,6,-2,0,0,0,87,89,129,110,42,154.55,56,29.00,-111.00,-964.00
2024-06-07 14:45:10.296173,2,6,-2,0,0,0,87,89,129,110,42,154.47,56,42.00,-101.00,-1068.00
2024-06-07 14:45:10.398157,2,7,-2,0,0,0,87,89,130,110,42,154.55,56,29.00,-138.00,-985.00
2024-06-07 14:45:10.449367,2,7,-2,0,0,0,87,89,129,110,42,154.57,57,7.00,-140.00,-1044.00
2024-06-07 14:45:10.624319,2,7,-2,0,0,0,87,89,129,110,42,154.48,57,57.00,-141.00,-996.00
2024-06-07 14:45:10.653369,1,8,-2,0,-1,0,87,89,130,110,42,154.55,57,48.00,-156.00,-963.00
2024-06-07 14:45:10.827779,0,8,-2,0,-1,0,87,89,130,110,42,154.31,57,23.00,-166.00,-954.00
2024-06-07 14:45:10.857424,0,9,-2,0,-1,0,87,90,130,110,42,154.52,57,57.00,-144.00,-960.00
2024-06-07 14:45:11.033582,0,9,-2,0,-1,0,87,90,131,110,42,154.52,57,56.00,-152.00,-967.00
2024-06-07 14:45:11.061349,1,9,-2,0,-1,0,87,90,132,110,42,154.46,57,32.00,-132.00,-1002.00
2024-06-07 14:45:11.237178,2,8,-2,0,-1,0,87,90,131,110,42,154.54,57,42.00,-148.00,-962.00
2024-06-07 14:45:11.265769,2,8,-2,0,-1,0,87,90,132,110,42,154.45,57,38.00,-152.00,-987.00
2024-06-07 14:45:11.442405,2,8,-2,0,-1,0,87,90,133,110,42,154.48,57,47.00,-164.00,-940.00
2024-06-07 14:45:11.469470,2,8,-2,0,-1,0,87,90,134,120,42,154.53,58,40.00,-175.00,-976.00
2024-06-07 14:45:11.571408,2,8,-2,0,-1,0,87,90,134,120,42,154.59,58,20.00,-158.00,-1023.00
2024-06-07 14:45:11.749484,1,8,-2,0,-1,0,87,90,134,120,42,154.53,58,27.00,-155.00,-988.00
2024-06-07 14:45:11.778946,1,9,-2,0,-1,0,87,90,134,120,42,154.46,58,29.00,-163.00,-943.00
2024-06-07 14:45:11.882261,1,8,-2,0,-1,0,87,90,134,120,42,154.40,58,-7.00,-178.00,-949.00
2024-06-07 14:45:11.980078,0,9,-2,0,-1,0,87,90,134,120,42,154.50,58,-6.00,-175.00,-978.00
2024-06-07 14:45:12.082204,0,9,-2,0,-1,0,87,90,133,120,42,154.46,58,-14.00,-173.00,-973.00
2024-06-07 14:45:12.262108,0,9,-2,-1,-2,0,87,90,132,110,42,154.48,58,-1.00,-139.00,-1029.00
2024-06-07 14:45:12.286096,-1,9,-2,-1,-2,0,87,90,130,110,42,154.59,58,12.00,-138.00,-1037.00
2024-06-07 14:45:12.466446,0,9,-2,-1,-2,0,87,90,130,110,42,154.61,58,-35.00,-160.00,-974.00
2024-06-07 14:45:12.490005,0,9,-2,-1,-2,0,87,90,130,110,42,154.48,59,-3.00,-158.00,-931.00
2024-06-07 14:45:12.592114,-1,9,-2,0,-1,0,87,90,129,110,42,154.50,59,21.00,-138.00,-960.00
2024-06-07 14:45:12.773504,-1,9,-2,0,-1,0,87,90,129,110,42,154.35,59,30.00,-145.00,-1023.00
2024-06-07 14:45:12.796037,0,9,-2,0,-1,0,87,90,128,110,42,154.40,59,4.00,-151.00,-1027.00
2024-06-07 14:45:12.981592,0,8,-2,0,-1,0,87,90,128,110,42,154.40,59,-1.00,-149.00,-996.00
2024-06-07 14:45:13.001160,0,9,-2,0,-1,0,87,90,128,110,42,154.53,59,-20.00,-131.00,-989.00
2024-06-07 14:45:13.181865,0,9,-2,0,-1,0,87,90,128,110,42,154.41,59,-43.00,-114.00,-1056.00
2024-06-07 14:45:13.204119,0,9,-2,0,0,0,87,90,127,110,42,154.26,59,-25.00,-134.00,-1040.00
2024-06-07 14:45:13.360413,-1,8,-2,0,0,0,87,90,128,110,42,154.34,59,4.00,-124.00,-1038.00
2024-06-07 14:45:13.408102,0,8,-2,0,0,0,87,90,128,110,42,154.34,59,-30.00,-125.00,-985.00
2024-06-07 14:45:13.510030,0,8,-2,0,0,0,87,90,129,110,42,154.38,60,-41.00,-150.00,-991.00
2024-06-07 14:45:13.612046,-1,9,-2,-1,0,0,87,90,130,110,42,154.34,60,-49.00,-123.00,-1011.00
2024-06-07 14:45:13.797342,-2,8,-2,-1,0,0,87,90,131,110,42,154.36,60,-9.00,-126.00,-1008.00
2024-06-07 14:45:13.815984,-1,9,-2,0,0,0,87,90,133,110,42,154.43,60,-34.00,-117.00,-966.00
2024-06-07 14:45:14.002608,-1,9,-2,0,0,0,87,91,134,110,42,154.41,60,-22.00,-113.00,-1017.00
2024-06-07 14:45:14.019959,-2,8,-3,0,0,0,87,91,136,120,42,154.38,60,0.00,-129.00,-933.00
2024-06-07 14:45:14.206863,-1,8,-3,0,1,0,87,91,136,120,42,154.53,60,9.00,-105.00,-930.00
2024-06-07 14:45:14.223845,-1,8,-3,0,1,0,87,91,138,120,42,154.52,60,28.00,-101.00,-1000.00
2024-06-07 14:45:14.325883,0,9,-3,1,2,0,87,91,139,120,42,154.48,60,22.00,-117.00,-962.00
2024-06-07 14:45:14.514229,0,9,-2,1,2,0,87,91,140,120,42,154.51,60,19.00,-102.00,-974.00
2024-06-07 14:45:14.530143,2,8,-2,1,3,0,87,91,139,120,42,154.50,61,36.00,-104.00,-1027.00
2024-06-07 14:45:14.719241,3,6,-2,1,3,0,87,91,140,120,42,154.49,61,18.00,-139.00,-995.00
2024-06-07 14:45:14.734072,3,5,-2,0,2,0,87,91,140,120,42,154.51,61,-37.00,-142.00,-950.00
2024-06-07 14:45:14.785133,1,6,-2,0,2,0,87,91,140,120,42,154.42,61,-42.00,-131.00,-963.00
2024-06-07 14:45:14.887048,-1,5,-2,0,2,0,86,89,139,120,42,154.29,61,-2.00,-176.00,-1028.00
2024-06-07 14:45:14.989030,-2,7,-2,0,1,0,86,89,141,120,42,154.40,61,6.00,-169.00,-946.00
2024-06-07 14:45:15.133966,0,8,-2,0,0,0,86,89,140,120,42,154.34,61,8.00,-187.00,-1020.00
2024-06-07 14:45:15.193743,0,8,-2,0,0,0,86,89,140,120,42,154.41,61,11.00,-182.00,-1037.00
2024-06-07 14:45:15.333480,1,8,-2,1,0,0,86,89,141,120,42,154.28,61,-12.00,-169.00,-1026.00
2024-06-07 14:45:15.397300,0,8,-2,0,0,0,86,89,140,120,42,154.18,61,17.00,-153.00,-990.00
2024-06-07 14:45:15.499202,2,8,-2,0,0,0,86,89,141,120,42,154.35,62,15.00,-179.00,-935.00
2024-06-07 14:45:15.601052,0,8,-2,0,0,0,86,89,141,120,42,154.40,62,-12.00,-154.00,-989.00
2024-06-07 14:45:15.741997,0,9,-2,0,0,0,86,89,139,120,42,154.53,62,1.00,-150.00,-1010.00
2024-06-07 14:45:15.805189,0,9,-2,0,0,0,86,89,138,120,42,154.39,62,30.00,-162.00,-974.00
2024-06-07 14:45:15.947809,1,8,-2,0,0,0,87,90,138,120,42,154.33,62,23.00,-177.00,-967.00
2024-06-07 14:45:16.009132,1,8,-2,0,-1,0,87,90,137,120,42,154.52,62,7.00,-178.00,-967.00
2024-06-07 14:45:16.152648,2,8,-2,0,-1,0,87,90,137,120,42,154.43,62,-13.00,-201.00,-951.00
2024-06-07 14:45:16.213095,1,9,-2,0,-1,0,87,90,137,120,42,154.35,62,36.00,-193.00,-939.00
2024-06-07 14:45:16.357087,0,9,-2,0,-2,0,87,90,136,120,42,154.47,62,44.00,-191.00,-1017.00
2024-06-07 14:45:16.417076,1,9,-2,0,-2,0,87,90,134,120,42,154.47,62,25.00,-186.00,-971.00
2024-06-07 14:45:16.565610,1,9,-2,0,-2,0,87,90,135,120,42,154.37,63,16.00,-158.00,-1013.00
2024-06-07 14:45:16.621140,1,9,-2,0,-2,0,87,90,135,110,42,154.41,63,47.00,-190.00,-966.00
2024-06-07 14:45:16.766720,2,8,-2,0,-2,0,87,90,133,110,42,154.34,63,0.00,-176.00,-1013.00
2024-06-07 14:45:16.825044,2,8,-2,0,-3,0,87,90,134,110,42,154.45,63,14.00,-176.00,-979.00
2024-06-07 14:45:16.971470,1,9,-2,0,-3,0,87,89,133,110,42,154.49,63,5.00,-161.00,-1049.00
2024-06-07 14:45:17.028997,0,9,-2,0,-3,0,87,89,132,110,42,154.51,63,13.00,-184.00,-984.00
2024-06-07 14:45:17.176925,0,9,-2,0,-3,0,87,89,133,110,42,154.43,63,1.00,-139.00,-997.00
2024-06-07 14:45:17.233534,0,9,-2,0,-3,0,87,89,132,110,42,154.36,63,-9.00,-143.00,-1004.00
2024-06-07 14:45:17.381096,1,9,-2,0,-3,0,87,89,133,110,42,154.38,63,9.00,-136.00,-1003.00
2024-06-07 14:45:17.437594,0,9,-2,0,-2,0,87,89,133,110,42,154.26,63,-25.00,-146.00,-1044.00
