TS,pitch,roll,yaw,vgx,vgy,vgz,templ,temph,tof,h,bat,baro,time,agx,agy,agz
2024-06-07 14:47:25.606829,1,0,-2,0,0,0,89,91,10,0,30,153.39,140,20.00,1.00,-997.00
2024-06-07 14:47:25.785200,1,0,-2,0,0,0,90,91,10,0,30,153.37,140,21.00,0.00,-1000.00
2024-06-07 14:47:25.810194,1,0,-2,0,0,0,90,91,10,0,30,153.39,140,21.00,0.00,-1000.00
2024-06-07 14:47:25.993736,1,0,-2,0,0,0,90,91,10,0,30,153.39,140,18.00,0.00,-998.00
2024-06-07 14:47:26.018177,1,0,-2,0,0,0,90,91,10,0,30,153.37,140,19.00,1.00,-999.00
2024-06-07 14:47:26.116037,1,0,-2,0,0,0,90,91,10,0,30,153.35,140,19.00,0.00,-1000.00
2024-06-07 14:47:26.300703,1,0,-2,0,0,0,90,91,10,0,30,153.37,140,20.00,0.00,-998.00
2024-06-07 14:47:26.320126,1,0,-2,0,0,0,90,91,10,0,30,153.38,140,21.00,1.00,-999.00
2024-06-07 14:47:26.505767,1,0,-2,0,0,0,90,91,10,0,30,153.39,140,20.00,0.00,-999.00
2024-06-07 14:47:26.524376,1,0,-2,0,0,0,90,91,10,0,30,153.35,140,22.00,0.00,-998.00
2024-06-07 14:47:26.710674,1,0,-2,0,0,0,90,91,10,0,30,153.36,140,18.00,-1.00,-1000.00
2024-06-07 14:47:26.728026,1,0,-2,0,0,0,88,92,10,0,30,153.42,140,21.00,0.00,-999.00
2024-06-07 14:47:26.830784,1,0,-2,0,0,0,88,92,10,0,30,153.42,140,20.00,0.00,-1001.00
2024-06-07 14:47:27.017688,1,0,-2,0,0,0,88,92,10,0,30,153.32,140,20.00,0.00,-1000.00
2024-06-07 14:47:27.017896,1,0,-2,0,0,0,88,92,10,0,30,153.37,140,18.00,0.00,-1001.00
2024-06-07 14:47:27.085232,1,0,-2,0,0,0,88,92,10,0,30,153.36,140,20.00,1.00,-1000.00
2024-06-07 14:47:27.222669,1,0,-2,0,0,0,88,92,10,0,30,153.34,140,21.00,2.00,-1000.00
2024-06-07 14:47:27.289198,1,0,-2,0,0,0,88,92,10,0,30,153.40,140,21.00,0.00,-1000.00
2024-06-07 14:47:27.427187,1,0,-2,0,0,0,88,92,10,0,30,153.33,140,20.00,0.00,-1000.00
2024-06-07 14:47:27.493160,1,0,-2,0,0,0,88,92,10,0,30,153.39,140,19.00,0.00,-998.00
2024-06-07 14:47:27.617980,1,0,-2,0,0,0,88,92,10,0,30,153.35,140,19.00,0.00,-1000.00
2024-06-07 14:47:27.696981,1,0,-2,0,0,0,89,91,10,0,30,153.38,140,19.00,1.00,-999.00
2024-06-07 14:47:27.836890,1,0,-2,0,0,0,89,91,10,0,30,153.38,140,15.00,6.00,-999.00
2024-06-07 14:47:27.900997,1,0,-2,0,0,0,89,91,10,0,30,153.38,140,20.00,1.00,-1002.00
2024-06-07 14:47:28.003448,1,0,-2,0,0,0,89,91,10,0,30,153.38,140,42.00,10.00,-1014.00
2024-06-07 14:47:28.143844,1,0,-2,0,0,0,89,91,10,0,30,153.38,140,25.00,-30.00,-988.00
2024-06-07 14:47:28.207079,1,0,-2,0,0,0,89,91,10,0,30,153.38,141,15.00,2.00,-1006.00
2024-06-07 14:47:28.349148,0,0,-2,0,0,0,89,91,10,0,30,153.38,141,-18.00,2.00,-1023.00
2024-06-07 14:47:28.411254,0,0,-2,0,0,0,89,91,10,0,30,153.38,141,-12.00,-14.00,-1167.00
2024-06-07 14:47:28.555528,0,0,-2,0,0,-2,89,91,10,0,30,153.38,141,-55.00,5.00,-1338.00
2024-06-07 14:47:28.614916,-1,0,-2,-1,0,-5,89,91,13,0,30,153.38,141,-47.00,-37.00,-1163.00
2024-06-07 14:47:28.760809,-3,2,-2,-1,0,-6,89,92,21,0,30,153.74,141,-62.00,-12.00,-1130.00
2024-06-07 14:47:28.818916,-3,2,-3,-1,0,-6,89,92,27,0,30,153.82,141,-79.00,-19.00,-1053.00
2024-06-07 14:47:28.962949,-4,1,-3,-1,0,-7,89,92,37,10,30,153.87,141,-71.00,-27.00,-1027.00
2024-06-07 14:47:29.023399,-4,1,-2,-1,0,-7,89,92,44,20,30,153.93,141,-70.00,-19.00,-977.00
2024-06-07 14:47:29.125159,-4,1,-3,-1,0,-6,89,92,53,20,30,154.03,141,-58.00,-33.00,-885.00
2024-06-07 14:47:29.274117,-6,1,-3,-1,0,-5,89,92,63,30,30,154.08,142,-60.00,-18.00,-941.00
2024-06-07 14:47:29.328943,-5,1,-3,0,0,-5,89,92,69,30,30,154.15,142,-63.00,-30.00,-870.00
2024-06-07 14:47:29.477426,-5,1,-3,0,0,-4,89,92,76,40,30,154.16,142,-73.00,-24.00,-889.00
2024-06-07 14:47:29.533089,-5,1,-3,0,0,-3,89,92,82,40,30,154.18,142,-57.00,-21.00,-912.00
2024-06-07 14:47:29.680145,-5,1,-3,0,0,-2,89,92,86,50,30,154.24,142,-53.00,-29.00,-891.00
2024-06-07 14:47:29.740403,-4,1,-3,0,0,-1,90,92,89,50,30,154.19,142,-43.00,-31.00,-899.00
2024-06-07 14:47:29.839422,-4,2,-2,0,0,0,90,92,92,50,30,154.27,142,-66.00,-30.00,-899.00
2024-06-07 14:47:29.940853,-4,2,-2,0,0,0,90,92,94,50,30,154.18,142,-64.00,-36.00,-935.00
2024-06-07 14:47:30.092372,-4,2,-2,0,0,0,90,92,95,50,30,154.21,142,-67.00,-15.00,-989.00
2024-06-07 14:47:30.147491,-3,2,-2,0,0,0,90,92,96,50,30,154.23,142,-71.00,-34.00,-940.00
2024-06-07 14:47:30.246851,-4,1,-2,0,0,0,90,92,96,60,30,154.26,143,-96.00,-21.00,-973.00
2024-06-07 14:47:30.348822,-4,1,-2,0,0,0,90,92,96,60,30,154.26,143,-73.00,-43.00,-954.00
2024-06-07 14:47:30.451283,-4,1,-2,0,0,0,90,92,97,60,30,154.26,143,-86.00,-30.00,-1011.00
2024-06-07 14:47:30.553222,-4,1,-2,0,0,0,90,92,96,60,30,154.27,143,-67.00,-28.00,-1001.00
2024-06-07 14:47:30.603924,-4,2,-3,0,0,0,90,92,96,60,30,154.19,143,-81.00,-41.00,-947.00
2024-06-07 14:47:30.806744,-4,2,-2,0,0,1,90,92,95,60,30,154.17,143,-93.00,-36.00,-971.00
2024-06-07 14:47:30.807784,-4,2,-2,0,0,1,90,92,94,60,30,154.18,143,-61.00,-27.00,-1023.00
2024-06-07 14:47:30.909988,-4,2,-2,0,0,1,90,92,93,60,30,154.29,143,-82.00,-37.00,-951.00
2024-06-07 14:47:31.012779,-3,2,-2,0,0,1,90,92,92,60,30,154.33,143,-71.00,-31.00,-987.00
2024-06-07 14:47:31.115199,-4,1,-2,0,0,0,90,92,91,60,30,154.30,143,-84.00,-29.00,-987.00
2024-06-07 14:47:31.217491,-4,1,-2,0,0,1,90,92,89,60,30,154.31,144,-93.00,-31.00,-1006.00
2024-06-07 14:47:31.319710,-5,1,-2,0,0,1,90,92,87,60,30,154.24,144,-101.00,-23.00,-1005.00
2024-06-07 14:47:31.422755,-4,2,-2,0,0,1,90,92,85,50,30,154.22,144,-89.00,-43.00,-948.00
2024-06-07 14:47:31.523856,-5,2,-2,0,0,1,90,92,84,50,30,154.27,144,-92.00,-36.00,-996.00
2024-06-07 14:47:31.627214,-5,2,-2,0,0,1,90,92,82,50,30,154.24,144,-94.00,-38.00,-996.00
2024-06-07 14:47:31.729428,-5,2,-2,0,0,0,90,92,80,50,30,154.28,144,-101.00,-38.00,-1025.00
2024-06-07 14:47:31.827778,-5,2,-2,0,0,0,90,92,78,50,30,154.12,144,-95.00,-55.00,-952.00
2024-06-07 14:47:31.935196,-5,2,-2,0,0,0,90,92,77,50,30,154.14,144,-106.00,-43.00,-1001.00
2024-06-07 14:47:32.031796,-5,2,-2,0,0,0,90,92,76,50,30,154.19,144,-99.00,-42.00,-980.00
2024-06-07 14:47:32.139194,-5,2,-3,0,0,0,90,92,74,50,30,154.13,144,-78.00,-41.00,-1003.00
2024-06-07 14:47:32.235723,-5,2,-3,0,0,0,90,92,73,40,30,154.02,145,-108.00,-33.00,-1066.00
2024-06-07 14:47:32.344317,-5,2,-3,0,0,0,90,92,73,40,30,154.02,145,-81.00,-44.00,-1001.00
2024-06-07 14:47:32.439704,-5,1,-2,0,0,0,90,92,72,40,30,154.06,145,-90.00,-35.00,-1024.00
2024-06-07 14:47:32.549037,-4,2,-2,0,0,0,90,92,72,40,30,154.08,145,-54.00,-36.00,-1024.00
2024-06-07 14:47:32.643705,-4,2,-2,0,0,0,90,92,72,40,30,154.05,145,-94.00,-35.00,-1061.00
2024-06-07 14:47:32.747612,-4,1,-2,0,0,0,89,92,73,40,30,154.01,145,-59.00,-52.00,-977.00
2024-06-07 14:47:32.847757,-4,1,-3,0,0,0,89,92,73,40,30,154.05,145,-71.00,-41.00,-994.00
2024-06-07 14:47:32.958399,-3,1,-3,0,0,0,89,92,73,40,30,153.98,145,-62.00,-37.00,-1029.00
2024-06-07 14:47:33.051713,-4,1,-3,0,0,0,89,92,73,40,30,153.93,145,-32.00,-45.00,-947.00
2024-06-07 14:47:33.162773,-3,1,-3,0,0,0,89,92,73,40,30,153.92,145,-64.00,-39.00,-1038.00
2024-06-07 14:47:33.255706,-2,2,-2,0,0,0,89,92,73,40,30,153.88,146,-60.00,-36.00,-1023.00
2024-06-07 14:47:33.368970,-2,2,-2,0,0,0,89,92,73,40,30,153.91,146,-78.00,-21.00,-1027.00
2024-06-07 14:47:33.459696,-3,2,-2,0,0,0,89,92,73,40,30,153.98,146,-73.00,-26.00,-993.00
2024-06-07 14:47:33.573385,-3,1,-2,0,0,0,89,92,74,40,30,153.97,146,-78.00,-32.00,-973.00
2024-06-07 14:47:33.663693,-3,1,-3,0,0,0,89,92,73,40,30,153.89,146,-43.00,-31.00,-976.00
2024-06-07 14:47:33.775688,-4,1,-2,0,0,0,88,92,73,40,30,153.88,146,-71.00,-32.00,-993.00
2024-06-07 14:47:33.867700,-3,1,-2,0,0,0,88,92,73,40,30,153.80,146,-62.00,-39.00,-950.00
2024-06-07 14:47:33.969905,-3,1,-3,0,0,0,88,92,72,40,30,153.96,146,-86.00,-33.00,-1024.00
2024-06-07 14:47:34.085120,-3,1,-3,0,0,0,88,92,72,40,30,153.98,146,-62.00,-37.00,-1007.00
2024-06-07 14:47:34.174133,-3,1,-3,0,0,0,88,92,72,40,30,154.02,146,-48.00,-49.00,-957.00
2024-06-07 14:47:34.224625,-3,2,-3,0,0,0,88,92,72,40,30,154.00,147,-64.00,-45.00,-999.00
2024-06-07 14:47:34.326629,-3,2,-3,0,0,0,88,92,72,40,30,154.09,147,-53.00,-41.00,-1048.00
2024-06-07 14:47:34.428677,-3,2,-3,0,0,0,88,92,72,40,30,154.14,147,-37.00,-42.00,-1040.00
2024-06-07 14:47:34.597266,-2,3,-3,0,0,0,88,92,72,40,30,154.02,147,-11.00,-36.00,-1045.00
2024-06-07 14:47:34.633571,-2,2,-3,0,0,0,88,92,74,40,30,154.03,147,-37.00,-41.00,-1012.00
2024-06-07 14:47:34.802428,-1,2,-2,0,0,0,88,92,75,40,30,153.96,147,-67.00,-40.00,-1045.00
2024-06-07 14:47:34.887763,-2,2,-2,0,0,0,88,92,76,40,30,154.02,147,-31.00,-47.00,-973.00
2024-06-07 14:47:34.938703,-2,2,-2,0,0,0,88,92,76,40,30,154.03,147,-30.00,-43.00,-985.00
2024-06-07 14:47:35.040631,-2,2,-2,0,0,0,88,92,77,50,30,154.02,147,-35.00,-36.00,-1013.00
2024-06-07 14:47:35.209700,-2,2,-3,0,0,0,88,92,78,50,30,154.11,148,-34.00,-42.00,-961.00
2024-06-07 14:47:35.244597,-2,2,-3,0,0,0,88,92,79,50,30,154.04,148,-34.00,-33.00,-999.00
2024-06-07 14:47:35.416036,-2,1,-2,0,0,0,88,92,80,50,30,154.17,148,-25.00,-41.00,-999.00
2024-06-07 14:47:35.448588,-1,2,-2,0,0,0,88,92,81,50,30,154.11,148,-50.00,-35.00,-1001.00
2024-06-07 14:47:35.621093,-1,2,-2,0,0,0,88,92,82,50,30,154.13,148,-34.00,-52.00,-965.00
2024-06-07 14:47:35.652565,-1,2,-2,0,0,0,88,92,82,50,30,154.25,148,-30.00,-31.00,-990.00
2024-06-07 14:47:35.826280,-1,2,-2,0,0,0,89,91,83,50,30,154.22,148,-13.00,-61.00,-968.00
2024-06-07 14:47:35.856682,-1,2,-3,0,0,0,89,91,83,50,30,154.23,148,-25.00,-45.00,-951.00
2024-06-07 14:47:35.958599,-1,2,-3,0,0,0,89,91,83,50,30,154.20,148,-15.00,-33.00,-975.00
2024-06-07 14:47:36.132564,-1,2,-3,0,0,0,89,91,83,50,30,154.21,148,-39.00,-36.00,-982.00
2024-06-07 14:47:36.162585,-1,2,-3,0,0,0,89,91,83,50,30,154.20,149,-16.00,-37.00,-990.00
2024-06-07 14:47:36.337026,-1,2,-3,0,0,0,89,91,82,50,30,154.21,149,-21.00,-25.00,-1033.00
2024-06-07 14:47:36.366833,0,1,-3,0,0,0,89,91,82,50,30,154.17,149,-26.00,-41.00,-968.00
2024-06-07 14:47:36.542831,0,1,-2,0,0,0,89,91,82,50,30,154.16,149,-14.00,-23.00,-1039.00
2024-06-07 14:47:36.570587,0,1,-2,0,0,0,89,91,81,50,30,154.13,149,-39.00,-26.00,-1027.00
2024-06-07 14:47:36.673463,0,1,-2,0,0,0,89,91,82,50,30,154.20,149,-48.00,-27.00,-1029.00
2024-06-07 14:47:36.774632,-1,1,-2,0,0,0,89,92,81,50,30,154.11,149,-32.00,-43.00,-983.00
2024-06-07 14:47:36.953145,-1,2,-2,0,0,0,89,92,81,50,30,154.15,149,-49.00,-32.00,-949.00
2024-06-07 14:47:36.978652,-2,1,-2,0,0,0,89,92,81,50,30,154.18,149,-30.00,-25.00,-965.00
2024-06-07 14:47:37.081468,-2,1,-2,0,0,0,89,92,81,50,30,154.11,149,-63.00,-15.00,-994.00
2024-06-07 14:47:37.259940,-3,0,-2,0,0,0,89,92,80,50,30,154.12,150,-56.00,-18.00,-1029.00
2024-06-07 14:47:37.284513,-3,0,-3,0,0,0,89,92,80,50,30,154.15,150,-46.00,-31.00,-963.00
2024-06-07 14:47:37.464607,-3,0,-3,0,0,0,89,92,79,50,30,154.23,150,-23.00,-35.00,-927.00
2024-06-07 14:47:37.488658,-2,1,-3,0,0,0,89,92,78,50,30,154.19,150,-51.00,-27.00,-1010.00
2024-06-07 14:47:37.593745,-2,1,-3,0,0,0,89,92,78,50,30,154.20,150,-50.00,-32.00,-972.00
2024-06-07 14:47:37.692685,-2,1,-3,0,0,0,89,92,77,50,30,154.14,150,-50.00,-41.00,-989.00
2024-06-07 14:47:37.873721,-1,1,-3,0,0,0,88,90,77,50,30,154.19,150,-25.00,-36.00,-983.00
2024-06-07 14:47:37.896478,-1,1,-2,0,0,0,88,90,76,50,30,154.24,150,-16.00,-37.00,-979.00
2024-06-07 14:47:38.077955,-1,1,-2,0,0,0,88,90,76,40,30,154.05,150,-47.00,-28.00,-1054.00
2024-06-07 14:47:38.100819,-1,2,-2,0,0,0,88,90,76,40,30,154.01,150,-44.00,-26.00,-1038.00
2024-06-07 14:47:38.282397,-1,2,-2,0,0,0,88,90,76,40,30,154.13,151,-50.00,-37.00,-980.00
2024-06-07 14:47:38.304497,-2,2,-2,0,0,0,88,90,76,40,30,154.13,151,-58.00,-28.00,-1007.00
2024-06-07 14:47:38.406414,-2,1,-2,0,0,0,88,90,77,50,30,154.12,151,-41.00,-23.00,-978.00
2024-06-07 14:47:38.591635,-3,0,-2,0,0,0,88,90,77,50,30,154.12,151,-29.00,-17.00,-1043.00
2024-06-07 14:47:38.610347,-2,0,-2,0,0,0,88,90,78,50,30,154.13,151,-62.00,-16.00,-1022.00
2024-06-07 14:47:38.661357,-2,0,-2,0,0,-1,88,90,80,50,30,154.17,151,-43.00,-20.00,-1097.00
2024-06-07 14:47:38.795532,-2,0,-2,0,0,-2,89,91,81,50,30,154.21,151,-41.00,-19.00,-1082.00
2024-06-07 14:47:38.865441,-2,0,-2,0,0,-3,89,91,84,50,30,154.26,151,-59.00,-12.00,-1085.00
2024-06-07 14:47:38.999121,-2,0,-2,0,0,-4,89,91,87,60,30,154.28,151,-36.00,-27.00,-1049.00
2024-06-07 14:47:39.069600,-2,1,-2,0,0,-4,89,91,92,60,30,154.32,151,-55.00,-13.00,-1067.00
2024-06-07 14:47:39.204175,-2,0,-2,0,0,-5,89,91,96,60,30,154.37,152,-26.00,-24.00,-1034.00
2024-06-07 14:47:39.273398,-2,0,-2,0,0,-5,89,91,102,70,30,154.44,152,-11.00,-26.00,-990.00
2024-06-07 14:47:39.409128,-1,1,-2,0,0,-5,89,91,107,70,30,154.52,152,-40.00,-21.00,-1018.00
2024-06-07 14:47:39.477347,-1,1,-2,0,0,-5,89,91,111,80,30,154.51,152,-26.00,-24.00,-996.00
2024-06-07 14:47:39.616013,-1,1,-2,0,0,-5,89,91,117,80,30,154.54,152,-54.00,-14.00,-1020.00
2024-06-07 14:47:39.681896,-1,1,-2,0,0,-5,89,91,122,90,30,154.57,152,-34.00,-8.00,-981.00
2024-06-07 14:47:39.819476,-1,1,-2,0,0,-5,88,91,127,90,30,154.63,152,-26.00,-26.00,-933.00
2024-06-07 14:47:39.885422,-1,1,-2,0,0,-4,88,91,130,100,30,154.69,152,-15.00,-17.00,-985.00
2024-06-07 14:47:39.988303,-1,0,-2,0,0,-4,88,91,137,100,30,154.75,152,-38.00,-16.00,-981.00
2024-06-07 14:47:40.090402,-1,0,-2,0,0,-4,88,91,139,110,30,154.77,152,-18.00,-19.00,-962.00
2024-06-07 14:47:40.228144,-1,0,-2,0,0,-3,88,91,144,110,30,154.79,153,-16.00,-25.00,-973.00
2024-06-07 14:47:40.294354,0,0,-2,0,0,-3,88,91,146,110,30,154.85,153,-27.00,-26.00,-946.00
2024-06-07 14:47:40.431571,0,1,-2,0,0,-2,88,91,149,120,30,154.90,153,-17.00,-9.00,-999.00
2024-06-07 14:47:40.498358,0,1,-2,0,0,-2,88,91,153,120,30,154.93,153,-22.00,-9.00,-992.00
2024-06-07 14:47:40.637046,-1,0,-2,0,0,-2,88,91,156,120,30,154.94,153,-3.00,-31.00,-934.00
2024-06-07 14:47:40.702311,-1,1,-2,0,0,-2,88,91,158,120,30,155.04,153,-8.00,-14.00,-1006.00
2024-06-07 14:47:40.804281,0,1,-2,0,0,-2,88,90,161,130,30,155.00,153,-29.00,0.00,-995.00
2024-06-07 14:47:40.906611,0,0,-2,0,0,-2,88,90,162,130,30,154.98,153,-15.00,-30.00,-966.00
2024-06-07 14:47:41.046652,0,0,-2,0,0,-2,88,90,166,130,30,155.03,153,-21.00,-18.00,-1003.00
2024-06-07 14:47:41.110274,-1,0,-2,0,0,-2,88,90,167,130,30,155.01,153,-31.00,-19.00,-964.00
2024-06-07 14:47:41.253128,-1,0,-2,0,0,-1,88,90,170,140,30,155.07,154,-17.00,-19.00,-987.00
2024-06-07 14:47:41.314260,-1,1,-2,0,0,-1,88,90,171,140,30,155.09,154,-13.00,1.00,-1014.00
2024-06-07 14:47:41.457907,-1,0,-2,0,0,-1,88,90,172,140,30,155.14,154,-9.00,-27.00,-967.00
2024-06-07 14:47:41.518640,-1,0,-3,0,0,-1,88,90,175,140,30,155.02,154,-22.00,-21.00,-916.00
2024-06-07 14:47:41.662946,-1,0,-3,0,0,0,88,90,177,140,30,155.14,154,-8.00,-38.00,-943.00
2024-06-07 14:47:41.722473,-1,1,-3,0,0,0,88,90,176,140,30,155.19,154,-5.00,-21.00,-1000.00
2024-06-07 14:47:41.867908,-1,1,-3,0,0,0,88,90,177,140,30,155.16,154,-13.00,-8.00,-1011.00
2024-06-07 14:47:41.926465,-1,1,-2,0,0,0,88,90,179,140,30,155.15,154,-4.00,-24.00,-948.00
2024-06-07 14:47:42.028389,-1,0,-2,0,0,0,88,90,178,140,30,155.21,154,0.00,-22.00,-1002.00
2024-06-07 14:47:42.132550,-1,0,-2,0,0,0,88,90,178,140,30,155.18,154,-8.00,-13.00,-1083.00
2024-06-07 14:47:42.181307,0,0,-2,0,0,0,88,90,182,140,30,155.22,155,0.00,-17.00,-1019.00
2024-06-07 14:47:42.377811,0,0,-2,0,0,0,88,90,181,150,30,155.25,155,-17.00,-29.00,-961.00
2024-06-07 14:47:42.385362,0,1,-2,0,0,0,88,90,180,150,30,155.20,155,-22.00,-19.00,-978.00
2024-06-07 14:47:42.582584,0,1,-2,0,0,0,88,90,179,150,30,155.26,155,-16.00,-9.00,-1014.00
2024-06-07 14:47:42.589602,0,1,-2,0,0,0,88,90,180,150,30,155.22,155,-21.00,-1.00,-1017.00
2024-06-07 14:47:42.787214,0,1,-2,0,0,0,88,90,180,150,30,155.17,155,-16.00,-15.00,-982.00
2024-06-07 14:47:42.795573,-1,0,-2,0,0,0,88,90,179,150,30,155.20,155,-5.00,-30.00,-957.00
2024-06-07 14:47:42.895446,0,0,-2,0,0,0,88,90,180,150,30,155.17,155,-24.00,-24.00,-988.00
2024-06-07 14:47:43.096793,0,0,-2,0,0,0,88,90,180,150,30,155.19,155,-17.00,-24.00,-973.00
2024-06-07 14:47:43.099312,0,0,-2,0,0,0,88,90,177,150,30,155.19,155,-21.00,-10.00,-1026.00
2024-06-07 14:47:43.201361,0,0,-2,0,0,0,88,90,178,140,30,155.21,156,-22.00,-21.00,-989.00
2024-06-07 14:47:43.303315,0,0,-2,0,0,0,88,90,178,140,30,155.21,156,-42.00,-15.00,-1007.00
2024-06-07 14:47:43.461521,0,0,-2,0,0,0,88,90,176,140,30,155.24,156,-33.00,-11.00,-1007.00
2024-06-07 14:47:43.507283,-1,0,-2,0,0,0,88,90,175,140,30,155.20,156,-9.00,-31.00,-985.00
2024-06-07 14:47:43.714999,-1,0,-2,0,0,0,88,90,175,140,30,155.24,156,-28.00,-21.00,-975.00
2024-06-07 14:47:43.715447,-1,0,-2,0,0,0,88,90,174,140,30,155.19,156,-31.00,-14.00,-939.00
2024-06-07 14:47:43.814596,-1,0,-2,0,0,1,86,90,175,140,30,155.13,156,-35.00,-8.00,-972.00
2024-06-07 14:47:43.918244,-1,1,-2,0,0,1,86,90,173,140,30,155.17,156,-20.00,-16.00,-975.00
2024-06-07 14:47:44.017873,-1,0,-2,0,0,1,86,90,172,140,30,155.12,156,-26.00,-28.00,-962.00
2024-06-07 14:47:44.119195,-1,1,-2,0,0,2,86,90,170,140,30,155.11,156,-25.00,3.00,-1017.00
2024-06-07 14:47:44.221756,-1,0,-3,0,0,2,86,90,167,130,30,155.11,157,-26.00,-19.00,-943.00
2024-06-07 14:47:44.323323,-1,0,-3,0,0,2,86,90,164,130,30,155.13,157,-7.00,-26.00,-1018.00
2024-06-07 14:47:44.426306,-1,0,-3,0,0,2,86,90,164,130,30,155.08,157,-27.00,-22.00,-987.00
2024-06-07 14:47:44.528087,-1,0,-2,0,0,2,86,90,158,130,30,155.05,157,-29.00,-37.00,-983.00
2024-06-07 14:47:44.630267,-1,1,-2,0,0,2,86,90,155,120,30,155.02,157,-16.00,-21.00,-1015.00
2024-06-07 14:47:44.732607,-1,1,-2,0,0,2,86,90,154,120,30,154.96,157,-25.00,-17.00,-1020.00
2024-06-07 14:47:44.834493,-1,1,-2,0,0,2,88,90,148,120,30,155.00,157,-43.00,-8.00,-1003.00
2024-06-07 14:47:44.935260,-1,1,-2,0,0,2,88,90,147,120,30,154.96,157,-42.00,-17.00,-985.00
2024-06-07 14:47:45.037082,-1,1,-2,0,0,2,88,90,144,110,30,154.98,157,-14.00,-29.00,-984.00
2024-06-07 14:47:45.142308,-1,1,-2,0,0,2,88,90,141,110,30,154.91,157,-13.00,-14.00,-1050.00
2024-06-07 14:47:45.241040,0,1,-2,0,0,2,88,90,138,110,30,154.88,158,-24.00,-10.00,-1047.00
2024-06-07 14:47:45.346854,0,1,-2,0,0,2,88,90,135,110,30,154.86,158,-15.00,-30.00,-992.00
2024-06-07 14:47:45.445059,-1,1,-2,0,0,2,88,90,134,100,30,154.89,158,-31.00,-12.00,-977.00
2024-06-07 14:47:45.554132,-1,1,-2,0,0,2,88,90,133,100,30,154.89,158,-26.00,-19.00,-1019.00
2024-06-07 14:47:45.651008,0,1,-2,0,0,1,88,90,131,100,30,154.89,158,-18.00,-20.00,-1026.00
2024-06-07 14:47:45.751059,0,1,-2,0,0,1,88,90,131,100,30,154.81,158,-8.00,-31.00,-994.00
2024-06-07 14:47:45.860049,0,1,-2,0,0,0,87,89,130,100,30,154.80,158,-22.00,-20.00,-1035.00
2024-06-07 14:47:45.955221,0,1,-2,0,0,0,87,89,129,100,30,154.81,158,-11.00,-16.00,-1051.00
2024-06-07 14:47:46.057154,0,0,-2,0,0,0,87,89,130,100,30,154.72,158,-26.00,-10.00,-1011.00
2024-06-07 14:47:46.108128,0,0,-2,0,0,0,87,89,129,100,30,154.83,158,-18.00,-16.00,-1022.00
2024-06-07 14:47:46.271083,0,0,-2,0,0,0,87,89,129,100,30,154.84,159,-17.00,-10.00,-1052.00
2024-06-07 14:47:46.312088,0,0,-2,0,0,0,87,89,128,100,30,154.76,159,-26.00,-12.00,-1015.00
2024-06-07 14:47:46.473917,-1,0,-2,0,0,0,87,89,128,100,30,154.79,159,-28.00,-8.00,-1008.00
2024-06-07 14:47:46.516082,-1,0,-2,0,0,0,87,89,127,100,30,154.81,159,-25.00,-6.00,-1009.00
2024-06-07 14:47:46.679985,-1,0,-2,0,0,0,87,89,127,100,30,154.77,159,-46.00,0.00,-991.00
2024-06-07 14:47:46.720119,-2,0,-2,0,0,0,87,89,127,100,30,154.80,159,-41.00,-1.00,-1019.00
2024-06-07 14:47:46.883377,-1,0,-3,0,0,0,86,89,127,100,30,154.77,159,-33.00,-15.00,-970.00
2024-06-07 14:47:46.924126,-2,0,-3,0,0,0,86,89,126,100,30,154.86,159,-37.00,-5.00,-1029.00
2024-06-07 14:47:47.089993,-2,0,-3,0,0,0,86,89,126,100,30,154.76,159,-53.00,-6.00,-998.00
2024-06-07 14:47:47.128048,-2,0,-3,0,0,0,86,89,127,100,30,154.81,159,-23.00,-5.00,-1023.00
2024-06-07 14:47:47.230127,-2,0,-2,0,0,0,86,89,127,100,30,154.75,160,-31.00,3.00,-1028.00
2024-06-07 14:47:47.395329,-1,0,-2,0,0,0,86,89,126,100,30,154.80,160,-23.00,6.00,-1032.00
2024-06-07 14:47:47.434062,-2,0,-2,0,0,0,86,89,125,100,30,154.79,160,-36.00,1.00,-986.00
2024-06-07 14:47:47.601181,-2,0,-2,0,0,0,86,89,126,100,30,154.69,160,-55.00,13.00,-1021.00
2024-06-07 14:47:47.638748,-2,0,-2,0,0,0,86,89,126,100,30,154.64,160,-58.00,14.00,-996.00
2024-06-07 14:47:47.806929,-2,0,-2,0,0,0,86,89,125,100,30,154.72,160,-38.00,-11.00,-947.00
2024-06-07 14:47:47.844812,-2,0,-3,0,0,0,87,90,126,100,30,154.72,160,-48.00,8.00,-1064.00
2024-06-07 14:47:47.946827,-2,0,-3,0,0,0,87,90,127,100,30,154.73,160,-56.00,2.00,-1018.00
2024-06-07 14:47:48.046072,-2,0,-3,0,0,0,87,90,127,100,30,154.80,160,-22.00,-8.00,-982.00
2024-06-07 14:47:48.214457,-5,0,-3,0,0,0,87,90,127,100,30,154.77,160,-13.00,-4.00,-989.00
2024-06-07 14:47:48.249923,-8,0,-3,0,0,0,87,90,128,100,30,154.75,161,-40.00,0.00,-1051.00
2024-06-07 14:47:48.419056,-8,0,-2,2,0,0,87,90,128,100,30,154.73,161,-29.00,-14.00,-987.00
2024-06-07 14:47:48.453869,-8,0,-2,3,0,0,87,90,127,100,30,154.77,161,-25.00,-20.00,-992.00
2024-06-07 14:47:48.624440,-8,1,-2,4,0,0,87,90,129,100,30,154.70,161,-69.00,-9.00,-982.00
2024-06-07 14:47:48.657889,-8,1,-2,5,0,0,87,90,129,100,30,154.67,161,-62.00,-10.00,-977.00
2024-06-07 14:47:48.828968,-8,1,-2,6,0,0,87,90,130,100,30,154.65,161,-45.00,-13.00,-1015.00
2024-06-07 14:47:48.866195,-5,1,-3,8,0,0,87,89,128,100,30,154.62,161,-89.00,1.00,-1036.00
2024-06-07 14:47:48.966144,-4,0,-2,8,0,0,87,89,129,100,30,154.59,161,-80.00,-1.00,-1002.00
2024-06-07 14:47:49.065856,-1,0,-2,8,0,0,87,89,128,100,30,154.65,161,-77.00,5.00,-1061.00
2024-06-07 14:47:49.239979,1,0,-2,7,0,0,87,89,129,100,30,154.62,162,-70.00,4.00,-1036.00
2024-06-07 14:47:49.270079,3,0,-2,6,0,0,87,89,129,100,30,154.56,162,-68.00,0.00,-966.00
2024-06-07 14:47:49.445364,3,0,-2,5,0,0,87,89,129,100,30,154.68,162,-68.00,3.00,-992.00
2024-06-07 14:47:49.473931,1,0,-3,4,0,0,87,89,130,100,30,154.75,162,-61.00,5.00,-980.00
2024-06-07 14:47:49.649608,0,0,-3,3,0,0,87,89,129,100,30,154.86,162,-55.00,-5.00,-961.00
2024-06-07 14:47:49.677773,0,-1,-2,3,0,0,87,89,130,100,29,154.85,162,-41.00,-1.00,-1002.00
2024-06-07 14:47:49.854375,0,-2,-2,2,0,0,87,89,130,100,29,154.77,162,-46.00,-5.00,-996.00
2024-06-07 14:47:49.881854,0,-2,-2,2,0,0,88,89,131,100,29,154.74,162,-23.00,-7.00,-998.00
2024-06-07 14:47:49.984017,0,-2,-2,2,0,0,88,89,131,100,29,154.78,162,-34.00,0.00,-1071.00
2024-06-07 14:47:50.089869,0,1,-2,2,-1,0,88,89,131,100,29,154.82,162,-40.00,-19.00,-1070.00
2024-06-07 14:47:50.187860,0,3,-3,2,0,0,88,89,131,100,29,154.85,163,-28.00,2.00,-923.00
2024-06-07 14:47:50.289932,3,1,-3,1,0,0,88,89,130,100,29,154.81,163,-10.00,-14.00,-1017.00
2024-06-07 14:47:50.340847,1,0,-3,1,0,0,88,89,131,100,29,154.88,163,-31.00,-11.00,-1044.00
2024-06-07 14:47:50.442987,0,0,-3,0,0,0,88,89,130,100,29,154.81,163,-9.00,-16.00,-983.00
2024-06-07 14:47:50.569931,0,0,-2,0,0,0,88,89,129,100,29,154.83,163,-4.00,-11.00,-1015.00
2024-06-07 14:47:50.646870,0,0,-2,0,0,0,88,89,128,100,29,154.83,163,-10.00,-3.00,-1059.00
2024-06-07 14:47:50.774727,0,0,-2,0,0,0,88,89,128,100,29,154.79,163,-17.00,-23.00,-937.00
2024-06-07 14:47:50.850906,0,0,-2,0,0,0,87,89,127,100,29,154.79,163,8.00,-8.00,-1061.00
2024-06-07 14:47:50.953038,0,0,-2,0,0,0,87,89,127,100,29,154.80,163,-28.00,-14.00,-949.00
2024-06-07 14:47:51.055137,0,0,-2,0,0,0,87,89,127,100,29,154.85,163,-33.00,-1.00,-1026.00
2024-06-07 14:47:51.186920,0,0,-2,0,0,0,87,89,126,100,29,154.86,164,-10.00,-12.00,-1038.00
2024-06-07 14:47:51.259603,0,0,-2,0,0,0,87,89,126,100,29,154.88,164,-13.00,1.00,-1063.00
2024-06-07 14:47:51.390838,-1,0,-3,0,0,0,87,89,126,100,29,154.84,164,-13.00,0.00,-1078.00
2024-06-07 14:47:51.463768,-1,0,-3,0,0,0,87,89,126,100,29,154.89,164,-8.00,-11.00,-955.00
2024-06-07 14:47:51.593664,-1,0,-3,0,0,0,87,89,126,100,29,154.84,164,5.00,-8.00,-970.00
2024-06-07 14:47:51.666930,-1,0,-3,0,0,0,87,89,126,100,28,154.84,164,-31.00,-1.00,-1044.00
2024-06-07 14:47:51.798426,-1,0,-3,0,0,0,87,89,125,100,28,154.80,164,-6.00,-1.00,-1036.00
2024-06-07 14:47:51.870725,-1,0,-3,0,0,0,86,89,126,100,28,154.77,164,-6.00,6.00,-1057.00
2024-06-07 14:47:51.972931,-1,0,-3,0,0,0,86,89,127,100,28,154.88,164,-3.00,0.00,-997.00
2024-06-07 14:47:52.074745,-1,0,-3,0,0,0,86,89,127,100,28,154.86,164,-26.00,-20.00,-924.00
2024-06-07 14:47:52.209127,-1,0,-3,0,0,0,86,89,127,100,28,154.88,165,8.00,-1.00,-1038.00
2024-06-07 14:47:52.278833,-1,0,-3,0,0,0,86,89,127,100,28,154.90,165,-20.00,-7.00,-1043.00
2024-06-07 14:47:52.396621,-1,0,-2,0,0,0,86,89,128,100,28,154.90,165,-18.00,-8.00,-995.00
2024-06-07 14:47:52.483343,-2,0,-2,0,0,0,86,89,129,100,28,154.81,165,-21.00,-14.00,-957.00
2024-06-07 14:47:52.617154,0,0,-2,0,0,0,86,89,129,100,28,154.78,165,-21.00,-6.00,-981.00
2024-06-07 14:47:52.686729,6,0,-2,0,0,0,86,89,129,100,28,154.88,165,-14.00,-1.00,-995.00
2024-06-07 14:47:52.824071,7,0,-2,-2,0,0,86,89,129,100,28,154.94,165,-33.00,-7.00,-996.00
2024-06-07 14:47:52.890798,7,0,-3,-3,0,0,87,89,131,100,28,154.92,165,14.00,-20.00,-963.00
2024-06-07 14:47:53.028793,7,0,-3,-5,0,0,87,89,131,100,28,154.96,165,16.00,-7.00,-1009.00
2024-06-07 14:47:53.094683,5,0,-3,-6,0,0,87,89,130,100,28,154.90,165,12.00,4.00,-1051.00
2024-06-07 14:47:53.234207,4,0,-2,-7,0,0,87,89,131,100,28,154.84,166,27.00,-10.00,-989.00
2024-06-07 14:47:53.298704,3,0,-2,-7,0,0,87,89,131,100,28,154.98,166,25.00,0.00,-967.00
2024-06-07 14:47:53.439071,2,0,-2,-8,0,0,87,89,131,100,28,154.97,166,15.00,-1.00,-1048.00
2024-06-07 14:47:53.502652,0,0,-2,-8,0,0,87,89,131,100,28,154.82,166,23.00,-7.00,-987.00
2024-06-07 14:47:53.641554,-3,0,-3,-7,0,0,87,89,133,100,28,154.87,166,18.00,-19.00,-949.00
2024-06-07 14:47:53.706638,-5,0,-2,-6,0,0,87,89,133,100,27,154.87,166,12.00,-10.00,-985.00
2024-06-07 14:47:53.846529,-6,0,-2,-5,0,0,87,89,133,100,27,154.86,166,5.00,-4.00,-1006.00
2024-06-07 14:47:53.911386,-4,0,-2,-4,0,0,87,89,133,100,27,154.92,166,-19.00,2.00,-1039.00
2024-06-07 14:47:54.012866,-3,0,-2,-3,0,0,87,89,133,100,27,154.84,166,0.00,-2.00,-1023.00
2024-06-07 14:47:54.153103,-2,0,-2,-3,0,0,87,89,133,100,27,154.84,166,3.00,1.00,-1059.00
2024-06-07 14:47:54.216623,-1,0,-2,-2,0,0,87,89,135,100,27,154.84,167,-13.00,-1.00,-1001.00
2024-06-07 14:47:54.272030,-1,0,-2,-2,0,0,87,89,134,100,27,154.92,167,-21.00,-2.00,-1020.00
2024-06-07 14:47:54.369630,-2,0,-2,-2,0,0,87,89,135,100,27,154.88,167,-10.00,10.00,-1072.00
2024-06-07 14:47:54.472369,-4,0,-2,-2,0,0,87,89,136,100,27,154.93,167,-4.00,-3.00,-1031.00
2024-06-07 14:47:54.573609,-6,0,-2,-1,0,0,87,89,136,100,27,154.91,167,-11.00,-3.00,-979.00
2024-06-07 14:47:54.675565,-4,0,-2,0,0,0,87,89,135,100,27,154.98,167,-39.00,-7.00,-972.00
2024-06-07 14:47:54.859950,-3,0,-2,0,0,0,87,89,134,100,27,155.01,167,5.00,-14.00,-1021.00
2024-06-07 14:47:54.879478,-2,0,-2,0,0,0,87,90,133,100,27,154.96,167,-23.00,-10.00,-968.00
2024-06-07 14:47:54.981646,-1,0,-3,0,0,0,87,90,133,100,27,154.90,167,-14.00,-19.00,-978.00
2024-06-07 14:47:55.083641,-1,0,-2,0,0,0,87,90,131,100,27,154.86,167,-1.00,-24.00,-970.00
2024-06-07 14:47:55.185652,-1,1,-2,0,0,0,87,90,132,100,27,154.88,168,-15.00,-15.00,-984.00
2024-06-07 14:47:55.287686,-1,1,-2,0,0,0,87,90,130,100,27,154.91,168,-11.00,-24.00,-959.00
2024-06-07 14:47:55.389921,-1,1,-2,0,0,0,87,90,129,100,27,154.88,168,-49.00,-21.00,-988.00
2024-06-07 14:47:55.491632,-1,1,-2,0,0,0,87,90,128,100,27,154.87,168,-23.00,-18.00,-1005.00
2024-06-07 14:47:55.594745,-1,1,-2,0,0,0,87,90,129,100,27,154.88,168,-39.00,-13.00,-1030.00
2024-06-07 14:47:55.695547,-1,1,-2,0,0,0,87,90,127,100,27,154.80,168,-13.00,-10.00,-1031.00
2024-06-07 14:47:55.900683,-1,0,-2,0,0,0,87,90,128,100,27,154.80,168,-32.00,-12.00,-1040.00
2024-06-07 14:47:55.900842,-1,0,-2,0,0,0,87,89,128,100,27,154.87,168,-8.00,-19.00,-1009.00
2024-06-07 14:47:56.001673,-1,0,-2,0,0,0,87,89,128,100,27,154.86,168,-24.00,-9.00,-1025.00
2024-06-07 14:47:56.103576,-1,0,-2,0,0,0,87,89,129,100,27,154.92,168,-17.00,-10.00,-1006.00
2024-06-07 14:47:56.303643,-1,0,-2,0,0,0,87,89,128,100,27,154.86,169,3.00,-21.00,-1008.00
2024-06-07 14:47:56.307511,-1,0,-2,0,0,0,87,89,128,100,27,154.91,169,-20.00,-26.00,-968.00
2024-06-07 14:47:56.511044,-1,0,-2,0,0,0,87,89,129,100,27,154.89,169,-8.00,-23.00,-978.00
2024-06-07 14:47:56.511536,-1,0,-2,0,0,0,87,89,129,100,27,154.81,169,-16.00,-21.00,-988.00
2024-06-07 14:47:56.614433,-1,1,-2,0,0,0,87,89,130,100,26,154.87,169,-12.00,-12.00,-1017.00
2024-06-07 14:47:56.715530,-1,1,-2,0,0,0,87,89,130,100,26,154.79,169,-1.00,-28.00,-941.00
2024-06-07 14:47:56.817466,-1,1,-2,0,0,0,87,89,130,100,26,154.90,169,1.00,-16.00,-1008.00
2024-06-07 14:47:56.921014,0,-2,-2,0,0,0,86,89,130,100,26,154.96,169,-11.00,-2.00,-982.00
2024-06-07 14:47:57.023355,0,-8,-2,0,-1,0,86,89,131,100,26,154.91,169,-26.00,-22.00,-1094.00
2024-06-07 14:47:57.124698,0,-5,-2,0,-2,0,86,89,131,100,26,154.85,169,0.00,-2.00,-1027.00
2024-06-07 14:47:57.226948,0,-3,-2,0,-3,0,86,89,131,100,26,154.86,170,-15.00,7.00,-1010.00
2024-06-07 14:47:57.329127,0,-1,-2,0,-4,0,86,89,131,100,26,154.84,170,-19.00,13.00,-999.00
2024-06-07 14:47:57.430946,0,1,-2,0,-4,0,86,89,131,100,26,154.93,170,-2.00,12.00,-978.00
2024-06-07 14:47:57.533196,0,2,-2,0,-3,0,86,89,131,100,26,154.93,170,-6.00,7.00,-995.00
2024-06-07 14:47:57.634331,0,1,-2,0,-2,0,86,89,130,100,26,154.93,170,-11.00,5.00,-1011.00
2024-06-07 14:47:57.739156,0,0,-2,0,-2,0,86,89,130,100,26,154.93,170,-29.00,11.00,-989.00
2024-06-07 14:47:57.786457,-1,0,-2,0,-2,0,86,89,130,100,26,154.91,170,-28.00,10.00,-1006.00
2024-06-07 14:47:57.939451,-1,0,-2,0,-2,0,86,89,131,100,26,154.94,170,-27.00,16.00,-1001.00
2024-06-07 14:47:58.041534,-1,0,-2,0,-2,0,86,89,130,100,26,154.91,170,-3.00,-2.00,-1016.00
2024-06-07 14:47:58.147409,-1,0,-2,0,-2,0,86,89,131,100,26,154.90,170,-22.00,13.00,-995.00
2024-06-07 14:47:58.246422,-1,0,-2,0,-2,0,86,89,130,100,26,154.93,171,-17.00,11.00,-973.00
2024-06-07 14:47:58.297405,-1,0,-2,0,-2,0,86,89,130,100,26,154.95,171,-23.00,6.00,-978.00
2024-06-07 14:47:58.453848,-1,0,-2,0,-2,0,86,89,131,100,26,154.95,171,-38.00,30.00,-1026.00
2024-06-07 14:47:58.502312,-1,0,-2,0,-2,0,86,89,130,100,26,154.84,171,-30.00,22.00,-1018.00
2024-06-07 14:47:58.603500,-1,-1,-2,0,-2,0,86,89,131,100,25,154.93,171,-42.00,24.00,-1007.00
2024-06-07 14:47:58.761086,-1,4,-3,0,-2,0,86,89,130,100,25,154.94,171,-20.00,24.00,-963.00
2024-06-07 14:47:58.807742,-1,4,-3,0,-1,0,86,89,130,100,25,154.84,171,-34.00,4.00,-1003.00
2024-06-07 14:47:58.965961,-1,1,-3,0,0,0,87,89,130,100,25,154.86,171,-29.00,5.00,-1022.00
2024-06-07 14:47:59.011454,-1,1,-3,0,0,0,87,89,130,100,25,154.85,171,-14.00,4.00,-1021.00
2024-06-07 14:47:59.113498,-1,0,-3,0,0,0,87,89,131,100,25,154.81,171,-23.00,1.00,-1023.00
2024-06-07 14:47:59.275555,-1,0,-3,0,0,0,87,89,131,100,25,154.92,172,-18.00,-13.00,-935.00
2024-06-07 14:47:59.317504,-1,0,-3,0,0,0,87,89,131,100,25,154.93,172,-47.00,-9.00,-921.00
2024-06-07 14:47:59.478460,-1,0,-3,0,0,0,87,89,130,100,25,154.91,172,-20.00,-2.00,-974.00
2024-06-07 14:47:59.521826,-1,0,-2,0,0,0,87,89,131,100,25,154.83,172,-28.00,-2.00,-999.00
2024-06-07 14:47:59.683442,-1,0,-2,0,0,0,87,89,130,100,25,154.85,172,-28.00,1.00,-1012.00
2024-06-07 14:47:59.730185,-2,0,-2,0,0,0,87,89,130,100,25,154.87,172,-37.00,-12.00,-960.00
2024-06-07 14:47:59.827426,-2,0,-2,0,0,0,87,89,131,100,25,154.92,172,-44.00,2.00,-990.00
2024-06-07 14:47:59.990737,-2,0,-2,0,0,0,86,88,129,100,25,154.90,172,-36.00,3.00,-1044.00
2024-06-07 14:48:00.033348,-2,0,-2,0,0,0,86,88,130,100,25,154.93,172,-34.00,1.00,-990.00
2024-06-07 14:48:00.133492,-2,0,-2,0,0,0,86,88,130,100,25,154.91,172,-37.00,0.00,-923.00
2024-06-07 14:48:00.297833,-2,0,-2,0,0,0,86,88,129,100,25,154.87,173,-35.00,-8.00,-1008.00
2024-06-07 14:48:00.337362,-1,0,-3,0,0,0,86,88,128,100,25,154.86,173,-41.00,6.00,-1018.00
2024-06-07 14:48:00.502780,-1,0,-3,0,0,0,86,88,127,100,25,154.92,173,-34.00,-3.00,-966.00
2024-06-07 14:48:00.541323,-1,0,-2,0,0,0,86,88,128,100,25,154.83,173,-19.00,-11.00,-981.00
2024-06-07 14:48:00.707506,-1,0,-2,0,0,0,86,88,128,100,25,154.85,173,-8.00,-7.00,-1057.00
2024-06-07 14:48:00.745969,-1,0,-2,0,0,0,86,88,128,100,25,154.85,173,-5.00,-18.00,-986.00
2024-06-07 14:48:00.847442,-1,0,-2,0,0,0,86,88,129,100,25,154.89,173,-6.00,-11.00,-987.00
2024-06-07 14:48:00.950890,-1,0,-2,0,0,0,87,88,129,100,25,154.89,173,-18.00,-4.00,-1073.00
2024-06-07 14:48:01.051329,0,2,-2,0,0,0,87,88,130,100,25,154.83,173,-4.00,-8.00,-952.00
2024-06-07 14:48:01.219247,0,8,-2,0,0,0,87,88,131,100,25,154.92,173,-10.00,-16.00,-966.00
2024-06-07 14:48:01.255247,0,8,-2,0,2,0,87,88,129,100,25,154.80,174,-13.00,-21.00,-996.00
2024-06-07 14:48:01.424019,0,5,-2,0,3,0,87,88,129,100,25,154.99,174,-29.00,-18.00,-969.00
2024-06-07 14:48:01.459264,0,2,-2,0,3,0,87,88,129,100,25,154.92,174,-19.00,-28.00,-994.00
2024-06-07 14:48:01.628851,-1,0,-2,0,3,0,87,88,128,100,25,154.92,174,-33.00,-33.00,-1017.00
2024-06-07 14:48:01.665282,-1,0,-2,0,3,0,87,88,128,100,24,154.90,174,-17.00,-17.00,-1019.00
2024-06-07 14:48:01.765212,-1,0,-2,0,3,0,87,88,129,100,24,154.90,174,0.00,-29.00,-997.00
2024-06-07 14:48:01.817706,-1,0,-2,0,3,0,87,88,129,100,24,154.92,174,2.00,-15.00,-1023.00
2024-06-07 14:48:01.969554,-1,0,-2,0,2,0,86,89,130,100,24,154.87,174,-10.00,-27.00,-992.00
2024-06-07 14:48:02.020186,-1,0,-2,0,2,0,86,89,130,100,24,154.90,174,-12.00,-33.00,-953.00
2024-06-07 14:48:02.122326,-1,0,-2,0,2,0,86,89,129,100,24,154.94,174,-22.00,-15.00,-1029.00
2024-06-07 14:48:02.244744,-1,1,-2,0,2,0,86,89,130,100,24,154.88,175,-26.00,-21.00,-979.00
2024-06-07 14:48:02.326203,-1,0,-2,0,2,0,86,89,130,100,24,154.90,175,-42.00,-22.00,-987.00
2024-06-07 14:48:02.462723,-1,0,-2,0,2,0,86,89,129,100,24,154.92,175,-17.00,-24.00,-985.00
2024-06-07 14:48:02.530205,-1,0,-2,0,2,0,86,89,129,100,24,154.94,175,-25.00,-24.00,-925.00
2024-06-07 14:48:02.654533,-1,-2,-2,0,2,0,86,89,129,100,24,154.97,175,-28.00,-35.00,-1034.00
2024-06-07 14:48:02.734159,-1,-4,-2,0,1,0,86,89,127,100,24,154.80,175,-39.00,-8.00,-1030.00
2024-06-07 14:48:02.836330,-1,-1,-2,0,0,0,86,89,128,100,24,154.88,175,-18.00,-11.00,-986.00
2024-06-07 14:48:02.962830,-1,0,-2,0,0,0,86,89,127,100,24,154.82,175,-13.00,-9.00,-1019.00
2024-06-07 14:48:03.041769,-1,0,-2,0,0,0,86,89,126,100,24,154.87,175,-24.00,-6.00,-997.00
2024-06-07 14:48:03.143221,-1,0,-2,0,0,0,86,89,127,100,24,154.86,175,5.00,-13.00,-1043.00
2024-06-07 14:48:03.245168,-1,0,-2,0,0,0,86,89,127,100,24,154.88,176,-22.00,-12.00,-991.00
2024-06-07 14:48:03.371648,0,0,-2,0,0,0,86,89,127,100,24,154.86,176,-1.00,-23.00,-970.00
2024-06-07 14:48:03.450078,0,0,-2,0,0,0,86,89,127,100,24,154.86,176,-38.00,-10.00,-999.00
2024-06-07 14:48:03.576662,0,0,-2,0,0,0,86,89,128,100,24,154.90,176,-14.00,-8.00,-1007.00
2024-06-07 14:48:03.653226,0,0,-2,0,0,0,86,89,128,100,24,154.93,176,12.00,-4.00,-1015.00
2024-06-07 14:48:03.779288,0,0,-2,0,0,0,86,89,129,100,24,154.88,176,-38.00,-11.00,-966.00
2024-06-07 14:48:03.860384,0,0,-2,0,0,0,86,89,128,100,24,154.93,176,-6.00,7.00,-1035.00
2024-06-07 14:48:03.959253,0,0,-2,0,0,0,86,89,130,100,24,154.88,176,-18.00,-4.00,-991.00
2024-06-07 14:48:04.089536,-1,0,-2,0,0,0,86,89,130,100,24,154.93,176,-9.00,-18.00,-990.00
2024-06-07 14:48:04.163282,0,0,-2,0,0,0,86,89,130,100,24,154.89,177,-13.00,6.00,-1011.00
2024-06-07 14:48:04.292549,0,0,-2,0,0,0,86,89,131,100,24,154.86,177,-16.00,2.00,-997.00
2024-06-07 14:48:04.367216,0,0,-2,0,0,0,86,89,131,100,24,154.84,177,-32.00,8.00,-995.00
2024-06-07 14:48:04.496224,-1,0,-2,0,0,0,86,89,132,100,24,154.85,177,-14.00,8.00,-990.00
2024-06-07 14:48:04.571468,-1,-1,-2,0,0,0,86,89,131,100,24,154.91,177,8.00,11.00,-1031.00
2024-06-07 14:48:04.702789,0,-1,-2,0,0,0,86,89,130,100,23,154.86,177,-21.00,23.00,-985.00
2024-06-07 14:48:04.775373,0,0,-2,0,0,0,86,89,130,100,23,154.85,177,-14.00,7.00,-987.00
2024-06-07 14:48:04.877075,0,0,-2,0,0,0,86,89,131,100,23,154.96,177,-23.00,23.00,-1030.00
2024-06-07 14:48:04.979069,0,0,0,0,0,0,86,88,129,100,23,154.89,177,25.00,-7.00,-1035.00
2024-06-07 14:48:05.114272,0,0,6,0,0,0,86,88,129,100,23,154.86,177,-9.00,10.00,-1016.00
2024-06-07 14:48:05.183009,0,0,12,0,0,0,86,88,129,100,23,154.90,178,-2.00,12.00,-1024.00
2024-06-07 14:48:05.285032,0,0,19,0,0,0,86,88,129,100,23,154.93,178,-19.00,26.00,-998.00
2024-06-07 14:48:05.386990,-1,-1,25,0,0,0,86,88,128,100,23,154.90,178,-30.00,8.00,-975.00
2024-06-07 14:48:05.489038,-1,-1,31,0,0,0,86,88,128,100,23,154.95,178,-14.00,20.00,-981.00
2024-06-07 14:48:05.623962,-1,-1,37,0,0,0,86,88,127,100,23,154.95,178,-4.00,10.00,-997.00
2024-06-07 14:48:05.693037,-1,-1,43,0,0,0,86,88,128,100,23,154.93,178,-18.00,11.00,-974.00
2024-06-07 14:48:05.744118,-1,-1,49,0,0,0,86,88,128,100,23,154.91,178,0.00,7.00,-1001.00
2024-06-07 14:48:05.929638,0,-1,55,0,0,0,86,88,127,100,23,154.91,178,-26.00,22.00,-1033.00
2024-06-07 14:48:05.948155,0,-1,62,0,0,0,87,88,127,100,23,154.96,178,-11.00,27.00,-981.00
2024-06-07 14:48:06.137505,0,-1,67,0,0,0,87,88,129,100,23,154.96,178,-8.00,8.00,-985.00
2024-06-07 14:48:06.156489,0,0,73,0,0,0,87,88,130,100,23,154.91,179,-3.00,38.00,-1040.00
2024-06-07 14:48:06.254475,0,0,79,0,0,0,87,88,131,100,23,154.97,179,15.00,16.00,-991.00
2024-06-07 14:48:06.443126,0,0,85,0,0,0,87,88,131,100,23,154.99,179,11.00,31.00,-1014.00
2024-06-07 14:48:06.457948,0,0,91,0,0,0,87,88,132,100,23,154.95,179,7.00,29.00,-981.00
2024-06-07 14:48:06.648020,0,0,97,0,0,0,87,88,134,100,23,154.97,179,15.00,45.00,-1008.00
2024-06-07 14:48:06.664396,0,-1,104,0,0,0,87,88,135,100,23,155.00,179,2.00,16.00,-937.00
2024-06-07 14:48:06.766360,0,-1,110,0,0,0,87,88,134,100,23,154.92,179,2.00,27.00,-1000.00
2024-06-07 14:48:06.868800,1,-1,116,0,0,0,87,88,136,100,23,154.87,179,0.00,19.00,-961.00
2024-06-07 14:48:06.968964,1,0,122,0,0,0,85,88,137,100,23,154.95,179,20.00,18.00,-1013.00
2024-06-07 14:48:07.160966,1,0,128,0,0,0,85,88,135,100,23,154.88,179,5.00,27.00,-969.00
2024-06-07 14:48:07.171906,1,0,134,0,0,0,85,88,136,100,23,154.92,180,26.00,15.00,-992.00
2024-06-07 14:48:07.364722,1,0,139,0,0,0,85,88,136,100,23,155.05,180,44.00,10.00,-1013.00
2024-06-07 14:48:07.376152,1,0,145,0,0,0,85,88,134,100,23,155.02,180,17.00,0.00,-960.00
2024-06-07 14:48:07.477945,1,0,151,0,0,0,85,88,132,100,23,154.98,180,25.00,8.00,-1015.00
2024-06-07 14:48:07.672399,1,1,157,0,0,0,85,88,132,100,23,154.92,180,14.00,-7.00,-967.00
2024-06-07 14:48:07.681812,1,1,162,0,0,0,85,88,130,100,22,154.98,180,31.00,-5.00,-963.00
2024-06-07 14:48:07.877247,0,1,168,0,0,0,85,88,131,100,22,154.90,180,29.00,1.00,-1081.00
2024-06-07 14:48:07.885942,0,1,174,0,0,0,85,88,129,100,22,154.85,180,0.00,-7.00,-1036.00
2024-06-07 14:48:07.988158,0,1,-179,0,0,0,86,89,127,100,22,154.79,180,14.00,-1.00,-1001.00
2024-06-07 14:48:08.184886,0,1,-174,0,0,0,86,89,127,100,22,154.84,180,5.00,0.00,-1070.00
2024-06-07 14:48:08.192906,0,1,-168,0,0,0,86,89,127,100,22,154.87,181,9.00,-8.00,-1001.00
2024-06-07 14:48:08.388768,0,1,-162,0,0,0,86,89,127,100,22,154.89,181,11.00,5.00,-1041.00
2024-06-07 14:48:08.396901,0,1,-156,0,0,0,86,89,126,100,22,154.85,181,4.00,-14.00,-1006.00
2024-06-07 14:48:08.591413,0,1,-150,0,0,0,86,89,126,100,22,154.92,181,16.00,-9.00,-1014.00
2024-06-07 14:48:08.600847,0,1,-144,0,0,0,86,89,125,90,22,154.82,181,1.00,-3.00,-1021.00
2024-06-07 14:48:08.702857,0,0,-138,0,0,0,86,89,126,90,22,154.81,181,13.00,-21.00,-917.00
2024-06-07 14:48:08.901124,0,0,-132,0,0,0,86,89,126,90,22,154.90,181,-7.00,-12.00,-961.00
2024-06-07 14:48:08.906823,0,0,-126,0,0,0,86,89,126,90,22,154.86,181,-7.00,-6.00,-1018.00
2024-06-07 14:48:09.103968,0,0,-120,0,0,0,86,89,126,90,22,154.85,181,-19.00,-8.00,-963.00
2024-06-07 14:48:09.110791,-1,1,-114,0,0,0,86,89,127,100,22,154.90,181,14.00,-12.00,-980.00
2024-06-07 14:48:09.310369,0,1,-108,0,0,0,86,89,127,100,22,154.90,182,-18.00,2.00,-1096.00
2024-06-07 14:48:09.314796,0,1,-102,0,0,0,86,89,126,100,22,154.90,182,-2.00,-3.00,-1061.00
2024-06-07 14:48:09.416802,-1,0,-96,0,0,0,86,89,127,100,22,154.88,182,-25.00,-1.00,-1012.00
2024-06-07 14:48:09.618314,-1,1,-90,0,0,0,86,89,128,100,22,154.90,182,-16.00,-5.00,-978.00
2024-06-07 14:48:09.620822,-1,1,-84,0,0,0,86,89,127,100,22,154.89,182,-31.00,-1.00,-984.00
2024-06-07 14:48:09.722791,-1,1,-78,0,0,0,86,89,127,100,22,154.86,182,-30.00,-12.00,-968.00
2024-06-07 14:48:09.875538,-2,1,-72,0,0,0,86,89,127,100,22,154.90,182,-33.00,1.00,-1018.00
2024-06-07 14:48:09.875819,-2,0,-65,0,0,0,86,89,127,100,22,154.79,182,-27.00,15.00,-1026.00
2024-06-07 14:48:10.128059,-2,0,-59,0,0,0,86,89,127,100,22,154.83,182,-40.00,16.00,-981.00
2024-06-07 14:48:10.128231,-2,0,-53,0,0,0,86,89,126,100,22,154.81,182,-51.00,20.00,-1004.00
2024-06-07 14:48:10.182371,-2,0,-47,0,0,0,86,89,126,100,22,154.85,183,-42.00,11.00,-998.00
2024-06-07 14:48:10.332892,-2,0,-41,0,0,0,86,89,125,100,22,154.85,183,-30.00,11.00,-1019.00
2024-06-07 14:48:10.385792,-2,0,-35,0,0,0,86,89,126,100,22,154.73,183,-35.00,34.00,-1031.00
2024-06-07 14:48:10.487975,-2,0,-29,0,0,0,86,89,126,100,22,154.87,183,-22.00,29.00,-1026.00
2024-06-07 14:48:10.641911,-2,0,-23,0,0,0,86,89,127,100,22,154.84,183,-45.00,26.00,-942.00
2024-06-07 14:48:10.691794,-2,0,-18,0,0,0,86,89,127,100,22,154.84,183,-50.00,54.00,-1059.00
2024-06-07 14:48:10.847597,-2,-1,-15,0,0,0,86,89,126,100,22,154.86,183,-19.00,21.00,-939.00
2024-06-07 14:48:10.895746,-1,-2,-12,0,0,0,86,89,127,100,22,154.89,183,-44.00,28.00,-950.00
2024-06-07 14:48:10.997767,-1,-2,-10,0,0,0,86,88,128,100,22,154.90,183,-34.00,46.00,-1020.00
2024-06-07 14:48:11.154453,-1,-2,-8,0,0,0,86,88,127,100,22,154.94,183,-29.00,36.00,-987.00
2024-06-07 14:48:11.201752,-1,-1,-6,0,0,0,86,88,126,100,22,154.95,184,-18.00,35.00,-994.00
2024-06-07 14:48:11.356974,-1,-1,-6,0,0,0,86,88,125,100,22,154.84,184,-19.00,37.00,-984.00
2024-06-07 14:48:11.406129,-1,-1,-5,0,0,0,86,88,125,100,22,154.91,184,-24.00,37.00,-1013.00
2024-06-07 14:48:11.508661,-1,-1,-4,0,0,0,86,88,124,100,22,154.88,184,-53.00,23.00,-912.00
2024-06-07 14:48:11.665240,-2,-1,-4,0,0,0,86,88,122,100,22,154.89,184,-44.00,36.00,-1027.00
2024-06-07 14:48:11.712813,-2,-1,-4,0,0,0,86,88,122,100,22,154.87,184,-41.00,18.00,-979.00
2024-06-07 14:48:11.870542,-2,-1,-4,0,0,0,86,88,120,90,22,154.85,184,-32.00,32.00,-1039.00
2024-06-07 14:48:11.917079,-2,-1,-4,0,0,0,86,88,120,90,22,154.77,184,-39.00,36.00,-1134.00
2024-06-07 14:48:12.075288,-2,-1,-4,0,0,0,86,88,118,90,22,154.80,184,9.00,21.00,-984.00
2024-06-07 14:48:12.120791,-2,-1,-4,0,0,0,86,88,118,90,22,154.78,184,-37.00,33.00,-1055.00
2024-06-07 14:48:12.280055,-2,-1,-4,0,0,0,86,88,119,90,22,154.79,185,-27.00,30.00,-1067.00
2024-06-07 14:48:12.324730,-2,0,-4,0,0,0,86,88,117,90,22,154.83,185,-7.00,25.00,-994.00
2024-06-07 14:48:12.587703,-2,0,-4,0,0,0,86,88,117,90,22,154.74,185,-32.00,23.00,-982.00
2024-06-07 14:48:12.587901,-2,-1,-4,0,0,0,86,88,118,90,22,154.76,185,-17.00,37.00,-1048.00
2024-06-07 14:48:12.630751,-2,-1,-4,0,0,0,86,88,119,90,22,154.72,185,-46.00,19.00,-993.00
2024-06-07 14:48:12.792852,-2,-1,-4,0,0,0,86,88,119,90,22,154.77,185,-36.00,21.00,-987.00
2024-06-07 14:48:12.834815,-2,-1,-4,0,0,0,86,88,120,90,22,154.75,185,-16.00,17.00,-968.00
2024-06-07 14:48:12.936898,-2,-1,-4,0,0,0,86,88,122,90,22,154.81,185,-71.00,38.00,-1132.00
2024-06-07 14:48:13.099237,-2,-1,-4,0,0,0,87,88,122,90,22,154.81,185,-60.00,36.00,-1033.00
2024-06-07 14:48:13.140731,-2,-1,-4,0,0,0,87,88,124,90,22,154.76,185,-42.00,23.00,-982.00
2024-06-07 14:48:13.305888,-2,-1,-4,0,0,0,87,88,124,90,22,154.82,186,-44.00,33.00,-965.00
2024-06-07 14:48:13.345536,-2,-1,-4,0,0,0,87,88,127,90,22,154.83,186,-50.00,36.00,-1013.00
2024-06-07 14:48:13.509522,-2,-1,-4,0,0,0,87,88,127,100,22,154.81,186,-33.00,26.00,-967.00
2024-06-07 14:48:13.549023,-2,-1,-4,0,0,0,87,88,129,100,22,154.90,186,-42.00,36.00,-990.00
2024-06-07 14:48:13.711342,-2,-1,-4,0,0,0,87,88,129,100,21,154.91,186,-43.00,35.00,-1000.00
2024-06-07 14:48:13.752613,-2,-1,-6,0,0,0,87,88,131,100,21,154.81,186,-33.00,27.00,-964.00
2024-06-07 14:48:13.804620,-2,-1,-12,0,0,0,87,88,133,100,21,154.92,186,-49.00,35.00,-949.00
2024-06-07 14:48:13.916346,-2,-1,-18,0,0,0,87,88,132,100,21,154.92,186,-42.00,18.00,-961.00
2024-06-07 14:48:14.007923,-2,-1,-24,0,0,0,86,88,132,100,21,154.86,186,-34.00,28.00,-989.00
2024-06-07 14:48:14.121974,-2,0,-31,0,0,0,86,88,133,100,21,154.82,186,-34.00,20.00,-964.00
2024-06-07 14:48:14.213223,-2,0,-37,0,0,0,86,88,132,100,21,154.80,187,-50.00,18.00,-954.00
2024-06-07 14:48:14.313771,-2,0,-43,0,0,0,86,88,134,100,21,154.83,187,-59.00,15.00,-1029.00
2024-06-07 14:48:14.416124,-2,0,-49,0,0,0,86,88,135,100,21,154.84,187,-31.00,1.00,-945.00
2024-06-07 14:48:14.530682,-2,0,-55,0,0,0,86,88,134,100,21,154.77,187,-38.00,0.00,-981.00
2024-06-07 14:48:14.619447,-2,0,-61,0,0,0,86,88,134,100,21,154.86,187,-36.00,-1.00,-968.00
2024-06-07 14:48:14.738824,-1,1,-66,0,0,0,86,88,133,100,21,154.87,187,-50.00,2.00,-966.00
2024-06-07 14:48:14.829612,-1,1,-72,0,0,0,86,88,133,100,21,154.82,187,-22.00,0.00,-1001.00
2024-06-07 14:48:14.925641,-1,1,-78,0,0,0,86,88,134,100,21,154.82,187,-36.00,-7.00,-985.00
2024-06-07 14:48:15.043281,-1,1,-83,0,0,0,86,88,133,100,21,154.88,187,-56.00,-4.00,-1024.00
2024-06-07 14:48:15.129536,-1,1,-89,0,0,0,86,88,134,100,21,154.86,187,-35.00,-17.00,-1010.00
2024-06-07 14:48:15.247998,-1,1,-96,0,0,0,86,88,134,100,21,154.95,188,-25.00,-26.00,-990.00
2024-06-07 14:48:15.335717,-1,1,-101,0,0,0,86,88,134,100,21,154.96,188,-30.00,-36.00,-925.00
2024-06-07 14:48:15.435426,-1,2,-107,0,0,0,86,88,134,100,21,154.94,188,-20.00,-32.00,-986.00
2024-06-07 14:48:15.540127,-1,2,-113,0,0,0,86,88,134,100,21,154.99,188,-18.00,-21.00,-1017.00
2024-06-07 14:48:15.641316,-1,2,-119,0,0,0,86,88,134,100,21,154.96,188,-41.00,-33.00,-950.00
2024-06-07 14:48:15.741496,0,2,-125,0,0,0,86,88,136,100,21,154.98,188,-16.00,-26.00,-1003.00
2024-06-07 14:48:15.865578,0,2,-131,0,0,0,86,88,137,100,21,154.99,188,-20.00,-23.00,-976.00
2024-06-07 14:48:15.945410,0,2,-136,0,0,0,86,88,137,100,21,154.94,188,-7.00,-47.00,-970.00
2024-06-07 14:48:16.066943,0,2,-142,0,0,0,85,88,137,100,21,154.98,188,-11.00,-34.00,-999.00
2024-06-07 14:48:16.149723,0,2,-148,0,0,0,85,88,138,100,21,154.95,188,-3.00,-42.00,-989.00
2024-06-07 14:48:16.271961,0,2,-154,0,0,0,85,88,136,100,21,154.90,189,-3.00,-31.00,-986.00
2024-06-07 14:48:16.354362,0,2,-160,0,0,0,85,88,137,100,21,154.91,189,27.00,-37.00,-1042.00
2024-06-07 14:48:16.456479,1,2,-166,0,0,0,85,88,138,100,21,154.95,189,32.00,-43.00,-969.00
2024-06-07 14:48:16.557588,1,2,-172,0,0,0,85,88,138,100,21,154.95,189,16.00,-34.00,-980.00
2024-06-07 14:48:16.661586,1,2,-178,0,0,0,85,88,139,100,21,154.84,189,45.00,-42.00,-940.00
2024-06-07 14:48:16.761467,2,2,174,0,0,0,85,88,139,100,21,154.88,189,41.00,-18.00,-1043.00
2024-06-07 14:48:16.886411,2,1,168,0,0,0,85,88,141,100,21,154.91,189,45.00,-13.00,-995.00
2024-06-07 14:48:16.966292,3,1,162,0,0,0,85,88,139,100,21,154.85,189,36.00,-26.00,-960.00
2024-06-07 14:48:17.091180,2,1,155,0,0,0,86,88,140,100,21,154.92,189,57.00,0.00,-1005.00
2024-06-07 14:48:17.173654,3,0,143,0,0,0,86,88,140,100,21,154.90,190,68.00,3.00,-1028.00
2024-06-07 14:48:17.271388,3,0,137,0,0,0,86,88,138,100,21,154.94,190,44.00,8.00,-987.00
2024-06-07 14:48:17.400159,3,0,131,0,0,0,86,88,139,100,21,154.89,190,28.00,22.00,-1001.00
2024-06-07 14:48:17.475924,3,-1,125,0,0,0,86,88,138,100,21,154.87,190,58.00,7.00,-986.00
2024-06-07 14:48:17.603269,2,-1,120,0,0,0,86,88,138,100,21,154.83,190,36.00,11.00,-962.00
2024-06-07 14:48:17.679337,2,-1,114,0,0,0,86,88,139,100,20,154.81,190,35.00,24.00,-1029.00
2024-06-07 14:48:17.807275,2,-1,108,0,0,0,86,88,139,100,20,154.88,190,40.00,19.00,-992.00
2024-06-07 14:48:17.883349,2,-1,102,0,0,0,86,88,138,100,20,154.85,190,35.00,37.00,-960.00
2024-06-07 14:48:17.985464,2,-2,96,0,0,0,86,88,138,100,20,154.86,190,49.00,46.00,-1021.00
2024-06-07 14:48:18.087629,1,-2,90,0,0,0,87,89,138,100,20,154.80,190,49.00,43.00,-983.00
2024-06-07 14:48:18.139338,2,-2,84,0,0,0,87,89,137,100,20,154.92,191,36.00,58.00,-985.00
2024-06-07 14:48:18.320040,1,-2,78,0,0,0,87,89,138,100,20,154.92,191,21.00,48.00,-1001.00
2024-06-07 14:48:18.343415,1,-2,73,0,0,0,87,89,137,100,20,154.85,191,25.00,46.00,-974.00
2024-06-07 14:48:18.528225,1,-3,67,0,0,0,87,89,136,100,20,154.83,191,28.00,49.00,-1016.00
2024-06-07 14:48:18.548021,0,-3,61,0,0,0,87,89,135,100,20,154.88,191,-8.00,49.00,-966.00
2024-06-07 14:48:18.730335,0,-2,55,0,0,0,87,89,134,100,20,154.90,191,6.00,34.00,-1005.00
2024-06-07 14:48:18.751350,0,-2,49,0,0,0,87,89,134,100,20,154.88,191,-5.00,42.00,-967.00
2024-06-07 14:48:18.882898,0,-2,43,0,0,0,87,89,134,100,20,154.81,191,8.00,51.00,-1004.00
2024-06-07 14:48:18.955313,0,-2,37,0,0,0,87,89,134,100,20,154.81,191,-10.00,55.00,-1030.00
2024-06-07 14:48:19.141132,0,-1,30,0,0,0,86,88,132,100,20,154.78,191,8.00,45.00,-1016.00
2024-06-07 14:48:19.159199,0,-2,24,0,0,0,86,88,132,100,20,154.81,192,4.00,45.00,-982.00
2024-06-07 14:48:19.312071,0,-2,18,0,0,0,86,88,133,100,20,154.81,192,10.00,47.00,-980.00
2024-06-07 14:48:19.363271,0,-3,12,0,0,0,86,88,134,100,20,154.79,192,1.00,57.00,-1031.00
2024-06-07 14:48:19.548706,0,-3,8,0,0,0,86,88,133,100,20,154.86,192,2.00,46.00,-1023.00
2024-06-07 14:48:19.567496,0,-2,5,0,0,0,86,88,133,100,20,154.79,192,-39.00,43.00,-969.00
2024-06-07 14:48:19.752853,-1,-2,2,0,0,0,86,88,134,100,20,154.88,192,-13.00,46.00,-995.00
2024-06-07 14:48:19.771252,-1,-2,0,0,0,0,86,88,135,100,20,155.00,192,-42.00,47.00,-1008.00
2024-06-07 14:48:19.873983,-1,-2,0,0,0,0,86,88,135,100,20,154.97,192,-25.00,44.00,-997.00
2024-06-07 14:48:19.975785,-2,-2,-1,0,0,0,86,88,135,100,20,154.99,192,-36.00,50.00,-987.00
2024-06-07 14:48:20.167023,-2,-2,-2,0,0,0,86,88,135,100,20,155.01,192,-40.00,60.00,-1010.00
2024-06-07 14:48:20.180587,-2,-2,-2,0,0,0,86,88,134,100,20,154.95,193,-25.00,38.00,-947.00
2024-06-07 14:48:20.281554,-2,-2,-2,0,0,0,86,88,135,100,20,154.97,193,0.00,48.00,-1036.00
2024-06-07 14:48:20.470564,-2,-2,-2,0,0,0,86,88,135,100,20,154.91,193,-15.00,32.00,-948.00
2024-06-07 14:48:20.486494,-1,-2,-2,0,0,0,86,88,134,100,20,154.95,193,-44.00,55.00,-970.00
2024-06-07 14:48:20.675503,-1,-2,-2,0,0,0,86,88,134,100,20,154.93,193,-37.00,54.00,-965.00
2024-06-07 14:48:20.692943,-1,-2,-2,0,0,0,86,88,133,100,20,154.92,193,-23.00,59.00,-1022.00
2024-06-07 14:48:20.795194,-1,-3,-2,0,0,0,86,88,134,100,20,154.93,193,-44.00,60.00,-966.00
2024-06-07 14:48:20.895571,-1,-3,-2,0,0,0,86,88,133,100,20,154.94,193,-24.00,48.00,-983.00
2024-06-07 14:48:20.997690,-1,-3,-2,0,0,0,86,88,133,100,20,154.92,193,-39.00,56.00,-991.00
2024-06-07 14:48:21.097339,-1,-3,-2,0,0,0,86,88,133,100,20,154.94,193,-22.00,59.00,-1016.00
2024-06-07 14:48:21.204643,-1,-3,-2,0,0,0,86,88,133,100,20,154.96,194,-23.00,57.00,-1040.00
2024-06-07 14:48:21.301677,-1,-3,-2,0,0,0,86,88,131,100,20,154.95,194,-21.00,42.00,-988.00
2024-06-07 14:48:21.495590,-1,-2,-2,0,0,0,86,88,134,100,20,154.98,194,-15.00,42.00,-951.00
2024-06-07 14:48:21.505091,-1,-2,-2,0,0,0,86,88,132,100,20,154.93,194,-34.00,43.00,-969.00
2024-06-07 14:48:21.698972,-1,-3,-2,0,0,0,86,88,133,100,20,154.92,194,-30.00,59.00,-1009.00
2024-06-07 14:48:21.699230,-1,-3,-2,0,0,0,86,88,132,100,19,154.87,194,-17.00,66.00,-1045.00
2024-06-07 14:48:21.760766,-1,-3,-2,0,0,0,86,88,133,100,19,154.95,194,-27.00,60.00,-981.00
2024-06-07 14:48:21.886728,-1,-3,-2,0,0,0,86,88,133,100,19,154.98,194,-39.00,67.00,-1004.00
2024-06-07 14:48:21.964247,-1,-3,-2,0,0,0,86,88,133,100,19,154.97,194,-31.00,58.00,-1027.00
2024-06-07 14:48:22.108820,-1,-3,-2,0,0,0,86,88,132,100,19,154.96,194,-32.00,66.00,-1050.00
2024-06-07 14:48:22.168291,-1,-3,-2,0,0,0,86,88,132,100,19,154.99,195,-25.00,58.00,-987.00
2024-06-07 14:48:22.270230,-1,-3,-2,0,0,0,86,88,132,100,19,154.92,195,-12.00,69.00,-1047.00
2024-06-07 14:48:22.416036,-1,-3,-2,0,0,0,86,88,133,100,19,154.95,195,-5.00,66.00,-1048.00
2024-06-07 14:48:22.474536,-1,-3,-2,0,0,0,86,88,132,100,19,154.87,195,-21.00,59.00,-977.00
2024-06-07 14:48:22.620735,-1,-3,-2,0,0,0,86,88,132,100,19,154.89,195,-28.00,60.00,-977.00
2024-06-07 14:48:22.678118,-1,-3,-2,0,0,0,86,88,132,100,19,154.92,195,-17.00,48.00,-948.00
2024-06-07 14:48:22.825964,-1,-3,-2,0,0,0,86,88,131,100,19,154.92,195,-12.00,66.00,-1063.00
2024-06-07 14:48:22.882102,-1,-3,-2,0,0,0,86,88,130,100,19,154.98,195,-25.00,57.00,-1002.00
2024-06-07 14:48:23.030610,-1,-3,-2,0,0,0,86,88,129,100,19,154.82,195,-5.00,46.00,-993.00
2024-06-07 14:48:23.086402,-1,-3,-2,0,0,0,86,88,129,100,19,154.79,195,-11.00,48.00,-965.00
2024-06-07 14:48:23.188294,0,-2,-2,0,0,0,86,88,128,100,19,154.72,196,-23.00,58.00,-1025.00
2024-06-07 14:48:23.339505,0,-2,-2,0,0,0,86,88,127,100,19,154.75,196,-22.00,46.00,-968.00
2024-06-07 14:48:23.392118,0,-2,-2,0,0,0,86,88,127,100,19,154.78,196,-9.00,49.00,-962.00
2024-06-07 14:48:23.494279,-1,-2,-2,0,0,0,86,88,128,100,19,154.82,196,-25.00,51.00,-1024.00
2024-06-07 14:48:23.650456,-1,-2,-2,0,0,0,86,88,126,100,19,154.80,196,-29.00,49.00,-1014.00
2024-06-07 14:48:23.698704,-1,-2,-2,0,0,0,86,88,127,100,19,154.83,196,-40.00,56.00,-1020.00
2024-06-07 14:48:23.849680,-1,-2,-2,0,0,0,86,88,127,100,19,154.84,196,-14.00,49.00,-1009.00
2024-06-07 14:48:23.902481,-1,-2,-2,0,0,0,86,88,126,100,19,154.95,196,-23.00,51.00,-1041.00
2024-06-07 14:48:24.004113,-1,-2,-2,0,0,0,86,88,127,100,19,154.92,196,-32.00,41.00,-993.00
2024-06-07 14:48:24.157596,-1,-2,-2,0,0,0,85,88,128,100,19,154.89,196,-30.00,45.00,-1006.00
2024-06-07 14:48:24.208034,-1,-2,-2,0,0,0,85,88,128,100,19,154.81,197,-33.00,36.00,-985.00
2024-06-07 14:48:24.310640,-2,-2,-2,0,0,0,85,88,129,100,19,154.89,197,-35.00,46.00,-997.00
2024-06-07 14:48:24.412044,-2,-2,-2,0,0,0,85,88,128,100,19,154.85,197,-36.00,37.00,-962.00
2024-06-07 14:48:24.566407,-2,-2,-2,0,0,0,85,88,129,100,19,154.83,197,-29.00,49.00,-1068.00
2024-06-07 14:48:24.616686,-2,-2,-2,0,0,0,85,88,130,100,19,154.85,197,-21.00,29.00,-958.00
2024-06-07 14:48:24.771373,-2,-2,-2,0,0,0,85,88,130,100,19,154.88,197,-48.00,31.00,-957.00
2024-06-07 14:48:24.820097,-2,-1,-2,0,0,0,85,88,130,100,19,154.79,197,-28.00,48.00,-1009.00
2024-06-07 14:48:24.922799,-2,-2,-2,0,0,0,85,88,131,100,19,154.77,197,-48.00,42.00,-1016.00
2024-06-07 14:48:25.078525,-2,-2,-2,0,0,0,85,88,130,100,19,154.80,197,-57.00,46.00,-1079.00
2024-06-07 14:48:25.126164,-3,-2,-2,0,0,0,85,89,132,100,19,154.79,197,-69.00,33.00,-1018.00
2024-06-07 14:48:25.228212,-3,-1,-2,0,0,0,85,89,132,100,19,154.74,198,-55.00,33.00,-966.00
2024-06-07 14:48:25.385658,-3,-1,-2,0,0,0,85,89,131,100,19,154.82,198,-68.00,31.00,-966.00
2024-06-07 14:48:25.433194,-3,-1,-2,0,0,0,85,89,133,100,19,154.85,198,-68.00,29.00,-956.00
2024-06-07 14:48:25.589799,-3,-1,-2,0,0,0,85,89,133,100,19,154.90,198,-52.00,47.00,-1001.00
2024-06-07 14:48:25.590035,-3,-1,-2,0,0,0,85,89,132,100,19,154.73,198,-39.00,31.00,-945.00
2024-06-07 14:48:25.688224,-3,-1,-2,0,0,0,85,89,134,100,19,154.75,198,-65.00,35.00,-977.00
2024-06-07 14:48:25.790110,-3,-1,-2,0,0,0,85,89,134,100,19,154.81,198,-88.00,53.00,-1046.00
2024-06-07 14:48:25.898540,-3,-2,-2,0,0,0,85,89,134,100,19,154.85,198,-57.00,40.00,-986.00
2024-06-07 14:48:25.994119,-3,-2,-2,0,0,0,85,89,135,100,19,154.94,198,-77.00,44.00,-998.00
2024-06-07 14:48:26.104102,-3,-2,-2,0,0,0,85,88,136,100,19,154.87,198,-68.00,44.00,-977.00
2024-06-07 14:48:26.201519,-3,-2,-2,0,0,0,85,88,136,100,19,154.64,199,-74.00,49.00,-996.00
2024-06-07 14:48:26.300004,-4,-2,-2,0,0,0,85,88,139,100,19,154.65,199,-44.00,39.00,-995.00
2024-06-07 14:48:26.411803,-3,-2,-2,0,0,0,85,88,139,100,19,154.66,199,-69.00,40.00,-970.00
2024-06-07 14:48:26.503995,-3,-2,-2,0,0,0,85,88,138,100,19,154.75,199,-33.00,43.00,-1005.00
2024-06-07 14:48:26.614473,-3,-1,-2,0,0,0,85,88,137,100,18,154.81,199,-40.00,56.00,-971.00
2024-06-07 14:48:26.708131,-3,-2,-2,0,0,0,85,88,140,100,18,154.85,199,-42.00,43.00,-917.00
2024-06-07 14:48:26.820343,-3,-2,-2,0,0,0,85,88,140,100,18,154.78,199,-44.00,53.00,-1069.00
2024-06-07 14:48:26.912023,-2,-3,-2,0,0,0,85,88,139,100,18,154.73,199,-70.00,31.00,-947.00
2024-06-07 14:48:27.025315,-2,-2,-2,0,0,0,85,88,139,100,18,154.70,199,-44.00,44.00,-1012.00
2024-06-07 14:48:27.116096,-2,-2,-2,0,0,0,85,88,140,100,18,154.84,199,-37.00,38.00,-1027.00
2024-06-07 14:48:27.229494,-2,-1,-2,0,0,0,85,88,137,100,18,154.78,200,-50.00,28.00,-946.00
2024-06-07 14:48:27.320025,-2,-1,-2,0,0,0,85,88,137,100,18,154.82,200,-36.00,28.00,-1007.00
2024-06-07 14:48:27.432951,-2,-1,-2,0,0,0,85,88,135,100,18,154.84,200,-35.00,26.00,-972.00
2024-06-07 14:48:27.531657,-2,-1,-2,0,0,0,85,88,135,100,18,154.82,200,-40.00,29.00,-999.00
2024-06-07 14:48:27.629402,-2,-1,-2,0,0,0,85,88,134,100,18,154.82,200,-65.00,21.00,-1008.00
2024-06-07 14:48:27.728184,-2,-1,-2,0,0,0,85,88,133,100,18,154.65,200,-58.00,17.00,-1030.00
2024-06-07 14:48:27.830045,-3,0,-2,0,0,0,85,88,132,100,18,154.72,200,-56.00,30.00,-1035.00
2024-06-07 14:48:27.946442,-3,0,-2,0,0,0,85,88,132,100,18,154.76,200,-70.00,24.00,-1060.00
2024-06-07 14:48:28.033934,-3,0,-2,0,0,0,85,88,132,100,18,154.76,200,-41.00,20.00,-977.00
2024-06-07 14:48:28.136074,-3,0,-2,0,0,0,86,88,131,100,18,154.80,200,-69.00,0.00,-944.00
2024-06-07 14:48:28.238668,-3,0,-2,0,0,0,86,88,130,100,18,154.73,201,-72.00,25.00,-1024.00
2024-06-07 14:48:28.355303,-3,0,-2,0,0,0,86,88,130,100,18,154.78,201,-55.00,25.00,-999.00
2024-06-07 14:48:28.442000,-4,0,-2,0,0,0,86,88,131,100,18,154.72,201,-64.00,23.00,-1033.00
2024-06-07 14:48:28.560063,-4,0,-2,0,0,0,86,88,131,100,18,154.70,201,-72.00,16.00,-983.00
2024-06-07 14:48:28.646722,-4,-1,-2,0,0,0,86,88,130,100,18,154.60,201,-49.00,4.00,-1004.00
2024-06-07 14:48:28.764900,-4,0,-2,0,0,0,86,88,131,100,18,154.65,201,-81.00,6.00,-974.00
2024-06-07 14:48:28.850078,-3,0,-2,0,0,0,86,88,132,100,18,154.68,201,-50.00,5.00,-975.00
2024-06-07 14:48:28.951927,-3,0,-2,0,0,0,86,88,131,100,18,154.67,201,-42.00,15.00,-1027.00
2024-06-07 14:48:29.074232,-3,0,-2,0,0,0,86,88,131,100,18,154.62,201,-54.00,24.00,-981.00
2024-06-07 14:48:29.156311,-3,-1,-2,0,0,0,85,88,131,100,18,154.62,201,-50.00,50.00,-1042.00
2024-06-07 14:48:29.258026,-3,-3,-2,0,0,0,85,88,131,100,18,154.57,202,-54.00,35.00,-987.00
2024-06-07 14:48:29.379335,-3,-3,-2,0,0,0,85,88,131,100,18,154.68,202,-51.00,28.00,-951.00
2024-06-07 14:48:29.461781,-3,-3,-2,0,0,0,85,88,131,100,18,154.78,202,-66.00,27.00,-980.00
2024-06-07 14:48:29.584692,-3,-3,-2,0,0,0,85,88,130,100,18,154.76,202,-40.00,37.00,-997.00
2024-06-07 14:48:29.614887,-3,-3,-2,0,0,0,85,88,130,100,18,154.77,202,-58.00,45.00,-1035.00
2024-06-07 14:48:29.789857,-3,-2,-2,0,0,0,85,88,131,100,18,154.77,202,-54.00,38.00,-931.00
2024-06-07 14:48:29.818814,-3,-3,-2,0,0,0,85,88,131,100,18,154.71,202,-46.00,26.00,-971.00
2024-06-07 14:48:29.996095,-3,-2,-2,0,0,0,85,88,129,100,18,154.86,202,-75.00,33.00,-1042.00
2024-06-07 14:48:30.022912,-2,-2,-2,0,0,0,85,88,130,100,18,154.87,202,-72.00,38.00,-1025.00
2024-06-07 14:48:30.125674,-3,-1,-2,0,0,0,86,88,129,100,18,154.80,202,-77.00,39.00,-1059.00
2024-06-07 14:48:30.227882,-3,-1,-2,0,0,0,86,88,129,100,18,154.80,203,-50.00,44.00,-1006.00
2024-06-07 14:48:30.403373,-3,-1,-3,0,0,0,86,88,129,100,18,154.81,203,-59.00,24.00,-1006.00
2024-06-07 14:48:30.433568,-4,-1,-2,0,0,0,86,88,130,100,18,154.73,203,-65.00,25.00,-952.00
2024-06-07 14:48:30.534007,-3,-1,-2,0,0,0,86,88,131,100,18,154.77,203,-41.00,28.00,-1004.00
2024-06-07 14:48:30.635906,-2,-2,-2,0,0,0,86,88,131,100,18,154.77,203,-77.00,20.00,-975.00
2024-06-07 14:48:30.813083,-2,-2,-2,0,0,0,86,88,131,100,18,154.79,203,-49.00,25.00,-974.00
2024-06-07 14:48:30.839829,-3,-1,-2,0,0,0,86,88,132,100,18,154.67,203,-55.00,20.00,-943.00
2024-06-07 14:48:31.017848,-4,-1,-2,0,0,0,86,88,133,100,18,154.65,203,-41.00,15.00,-959.00
2024-06-07 14:48:31.043684,-4,-1,-2,0,0,0,86,88,133,100,18,154.81,203,-82.00,17.00,-1001.00
2024-06-07 14:48:31.224482,-3,-1,-2,0,0,0,86,89,132,100,18,154.73,204,-89.00,23.00,-964.00
2024-06-07 14:48:31.248304,-4,0,-2,0,0,0,86,89,133,100,18,154.80,204,-81.00,14.00,-949.00
2024-06-07 14:48:31.427450,-4,0,-2,0,0,0,86,89,133,100,18,154.68,204,-76.00,20.00,-988.00
2024-06-07 14:48:31.451696,-4,-1,-2,0,0,0,86,89,133,100,18,154.70,204,-69.00,8.00,-998.00
2024-06-07 14:48:31.632079,-4,0,-2,0,0,0,86,89,132,100,18,154.71,204,-67.00,17.00,-1006.00
2024-06-07 14:48:31.655597,-4,0,-2,0,0,0,86,89,132,100,18,154.70,204,-77.00,15.00,-951.00
