TS,pitch,roll,yaw,vgx,vgy,vgz,templ,temph,tof,h,bat,baro,time,agx,agy,agz
2024-05-17 17:27:45.839039,0,0,-1,0,0,0,76,78,10,0,67,188.78,171,0.00,6.00,-999.00
2024-05-17 17:27:45.941876,0,0,-1,0,0,0,76,78,10,0,67,188.75,171,1.00,5.00,-1002.00
2024-05-17 17:27:46.045050,0,0,-1,0,0,0,76,78,10,0,67,188.75,171,0.00,5.00,-998.00
2024-05-17 17:27:46.094254,0,0,-1,0,0,0,76,78,10,0,67,188.71,171,2.00,5.00,-1003.00
2024-05-17 17:27:46.256626,0,0,-1,0,0,0,76,78,10,0,67,188.74,171,1.00,5.00,-1001.00
2024-05-17 17:27:46.299160,0,0,-1,0,0,0,76,78,10,0,67,188.76,171,1.00,5.00,-1000.00
2024-05-17 17:27:46.453712,0,0,-1,0,0,0,76,78,10,0,67,188.77,171,1.00,6.00,-1000.00
2024-05-17 17:27:46.502264,0,0,-1,0,0,0,76,78,10,0,67,188.74,171,2.00,6.00,-998.00
2024-05-17 17:27:46.658085,0,0,-1,0,0,0,76,77,10,0,67,188.78,171,0.00,5.00,-998.00
2024-05-17 17:27:46.707162,0,0,-1,0,0,0,76,77,10,0,67,188.69,171,2.00,6.00,-999.00
2024-05-17 17:27:46.863008,0,0,-1,0,0,0,76,77,10,0,67,188.77,171,1.00,6.00,-1000.00
2024-05-17 17:27:46.910124,0,0,-1,0,0,0,76,77,10,0,67,188.73,171,0.00,4.00,-1001.00
2024-05-17 17:27:47.068409,0,0,-1,0,0,0,76,77,10,0,67,188.72,171,0.00,6.00,-997.00
2024-05-17 17:27:47.113939,0,0,-1,0,0,0,76,77,10,0,67,188.76,171,0.00,6.00,-1000.00
2024-05-17 17:27:47.272602,0,0,-1,0,0,0,76,77,10,0,67,188.77,171,1.00,6.00,-1000.00
2024-05-17 17:27:47.318094,0,0,-1,0,0,0,76,77,10,0,67,188.77,171,0.00,6.00,-1000.00
2024-05-17 17:27:47.421877,0,0,-1,0,0,0,76,77,10,0,67,188.80,171,1.00,5.00,-999.00
2024-05-17 17:27:47.522097,0,0,-1,0,0,0,76,77,10,0,67,188.80,171,3.00,6.00,-1000.00
2024-05-17 17:27:47.624123,0,0,-1,0,0,0,76,79,10,0,67,188.71,171,0.00,5.00,-1001.00
2024-05-17 17:27:47.726296,0,0,-1,0,0,0,76,79,10,0,67,188.70,171,1.00,3.00,-1002.00
2024-05-17 17:27:47.887216,0,0,-1,0,0,0,76,79,10,0,67,188.71,171,1.00,8.00,-998.00
2024-05-17 17:27:47.930033,0,0,-1,0,0,0,76,79,10,0,67,188.78,171,0.00,5.00,-1004.00
2024-05-17 17:27:48.091904,0,0,-1,0,0,0,76,79,10,0,67,188.76,171,1.00,4.00,-1001.00
2024-05-17 17:27:48.133886,0,0,-1,0,0,0,76,79,10,0,67,188.76,171,0.00,6.00,-998.00
2024-05-17 17:27:48.297809,0,0,-1,0,0,0,76,79,10,0,67,188.76,171,1.00,6.00,-1000.00
2024-05-17 17:27:48.338395,0,0,-1,0,0,0,76,79,10,0,67,188.75,171,1.00,6.00,-998.00
2024-05-17 17:27:48.501728,0,0,-1,0,0,0,76,79,10,0,67,188.77,171,1.00,7.00,-1000.00
2024-05-17 17:27:48.541964,0,0,-1,0,0,0,76,79,10,0,67,188.76,171,0.00,4.00,-1001.00
2024-05-17 17:27:48.706626,0,0,-1,0,0,0,75,78,10,0,67,188.65,171,0.00,6.00,-1000.00
2024-05-17 17:27:48.746707,0,0,-1,0,0,0,75,78,10,0,67,188.71,171,1.00,6.00,-997.00
2024-05-17 17:27:48.848191,0,0,-1,0,0,0,75,78,10,0,67,188.69,171,0.00,6.00,-1000.00
2024-05-17 17:27:48.965655,0,0,-1,0,0,0,75,78,10,0,67,188.75,171,0.00,7.00,-999.00
2024-05-17 17:27:49.051878,0,0,-1,0,0,0,75,78,10,0,67,188.74,171,0.00,6.00,-1000.00
2024-05-17 17:27:49.226074,0,0,-1,0,0,0,75,78,10,0,67,188.72,171,4.00,4.00,-995.00
2024-05-17 17:27:49.263547,0,0,-1,0,0,0,75,78,10,0,67,188.72,171,6.00,8.00,-1002.00
2024-05-17 17:27:49.314102,0,0,-1,0,0,0,75,78,10,0,67,188.72,171,9.00,0.00,-1003.00
2024-05-17 17:27:49.416559,0,0,-2,0,0,0,75,78,10,0,67,188.72,171,28.00,16.00,-1009.00
2024-05-17 17:27:49.512901,0,0,-2,0,0,0,75,78,10,0,67,188.72,171,15.00,-8.00,-1023.00
2024-05-17 17:27:49.613475,0,0,-2,0,0,0,76,79,10,0,67,188.72,171,-19.00,14.00,-1132.00
2024-05-17 17:27:49.714911,-1,0,-2,0,0,-1,76,79,10,0,67,188.72,171,-30.00,34.00,-1252.00
2024-05-17 17:27:49.836458,-1,0,-2,0,0,-4,76,79,10,0,67,188.72,171,-9.00,-12.00,-1279.00
2024-05-17 17:27:49.919632,0,0,-2,0,0,-7,76,79,15,10,67,188.91,172,-12.00,-12.00,-1115.00
2024-05-17 17:27:50.038809,0,0,-2,0,0,-8,76,79,23,10,67,189.10,172,-43.00,-5.00,-993.00
2024-05-17 17:27:50.124392,0,0,-2,0,0,-8,76,79,31,20,67,189.22,172,-17.00,6.00,-1039.00
2024-05-17 17:27:50.225888,0,0,-2,0,0,-8,76,79,39,30,67,189.24,172,-12.00,-8.00,-933.00
2024-05-17 17:27:50.349108,0,0,-2,0,0,-7,76,79,47,40,67,189.39,172,-25.00,10.00,-901.00
2024-05-17 17:27:50.442545,0,0,-2,0,0,-6,76,79,53,50,67,189.44,172,-19.00,9.00,-897.00
2024-05-17 17:27:50.530870,0,0,-2,0,0,-5,76,79,59,50,67,189.48,172,-20.00,-13.00,-884.00
2024-05-17 17:27:50.651781,0,0,-2,0,0,-4,77,78,67,60,67,189.55,172,4.00,-23.00,-863.00
2024-05-17 17:27:50.734665,0,0,-2,0,0,-3,77,78,69,60,67,189.62,172,-6.00,4.00,-897.00
2024-05-17 17:27:50.860381,0,0,-2,0,0,-2,77,78,71,60,67,189.63,172,-5.00,-9.00,-887.00
2024-05-17 17:27:50.940163,0,0,-2,0,0,-1,77,78,70,70,67,189.68,173,-25.00,18.00,-933.00
2024-05-17 17:27:51.040842,0,0,-2,0,0,-1,77,78,70,70,67,189.63,173,0.00,-4.00,-962.00
2024-05-17 17:27:51.163651,0,0,-2,0,0,0,77,78,71,70,67,189.61,173,-2.00,3.00,-980.00
2024-05-17 17:27:51.245046,0,0,-2,0,0,0,77,78,72,70,67,189.69,173,0.00,18.00,-1060.00
2024-05-17 17:27:51.368469,0,0,-2,0,0,0,77,78,72,70,67,189.71,173,-11.00,9.00,-1005.00
2024-05-17 17:27:51.451110,0,0,-2,0,0,0,77,78,73,70,67,189.67,173,8.00,-9.00,-994.00
2024-05-17 17:27:51.551502,0,0,-2,0,0,0,77,78,73,70,67,189.70,173,22.00,-5.00,-1023.00
2024-05-17 17:27:51.653134,0,0,-2,0,0,0,77,78,75,70,67,189.66,173,0.00,9.00,-1025.00
2024-05-17 17:27:51.778316,0,0,-2,0,0,0,77,78,75,70,67,189.69,173,14.00,-5.00,-992.00
2024-05-17 17:27:51.857153,0,0,-2,0,0,0,77,78,77,70,67,189.73,173,-5.00,13.00,-995.00
2024-05-17 17:27:51.986171,0,0,-2,0,0,0,77,78,78,70,67,189.71,174,11.00,0.00,-1002.00
2024-05-17 17:27:52.060603,0,0,-2,0,0,0,77,78,78,70,67,189.72,174,8.00,1.00,-983.00
2024-05-17 17:27:52.187565,0,0,-2,0,0,0,77,78,79,70,67,189.80,174,5.00,18.00,-999.00
2024-05-17 17:27:52.285527,0,0,-2,0,0,0,77,78,81,70,67,189.78,174,-14.00,8.00,-964.00
2024-05-17 17:27:52.387287,0,0,-2,0,0,0,77,78,81,70,67,189.84,174,16.00,-9.00,-974.00
2024-05-17 17:27:52.474333,0,0,-2,0,0,0,77,78,82,70,67,189.81,174,-1.00,16.00,-984.00
2024-05-17 17:27:52.584525,0,0,-2,0,0,0,77,78,82,70,67,189.80,174,25.00,2.00,-1009.00
2024-05-17 17:27:52.677366,0,0,-2,0,0,0,77,78,83,80,67,189.84,174,-25.00,12.00,-981.00
2024-05-17 17:27:52.779644,0,0,-2,0,0,0,77,78,83,80,67,189.79,174,1.00,7.00,-996.00
2024-05-17 17:27:52.877413,0,0,-2,0,0,0,77,78,83,80,67,189.77,174,0.00,6.00,-992.00
2024-05-17 17:27:52.985719,0,0,-2,0,0,0,77,78,83,80,67,189.82,175,2.00,11.00,-987.00
2024-05-17 17:27:53.080916,0,0,-2,0,0,0,77,78,82,80,67,189.74,175,7.00,5.00,-983.00
2024-05-17 17:27:53.189843,0,0,-2,0,0,0,77,78,83,80,67,189.77,175,18.00,-4.00,-1012.00
2024-05-17 17:27:53.238310,0,0,-2,0,0,0,77,78,84,80,67,189.80,175,7.00,-6.00,-973.00
2024-05-17 17:27:53.340188,0,0,-2,0,0,0,77,78,84,80,67,189.82,175,10.00,7.00,-1018.00
2024-05-17 17:27:53.447975,0,-1,-2,0,0,0,77,78,84,80,67,189.87,175,-17.00,39.00,-1013.00
2024-05-17 17:27:53.543482,0,-1,-2,0,0,0,77,78,84,80,67,189.83,175,-24.00,36.00,-973.00
2024-05-17 17:27:53.641631,0,-1,-2,0,0,0,76,79,84,80,67,189.82,175,-7.00,15.00,-977.00
2024-05-17 17:27:53.745222,0,-1,-2,0,0,0,76,79,83,80,67,189.80,175,14.00,9.00,-1000.00
2024-05-17 17:27:53.847284,0,-1,-2,0,0,0,76,79,83,80,67,189.85,176,-7.00,32.00,-989.00
2024-05-17 17:27:53.948156,0,-1,-2,0,0,0,76,79,83,80,67,189.83,176,-4.00,38.00,-1010.00
2024-05-17 17:27:54.051053,0,-1,-2,0,0,0,76,79,83,80,67,189.78,176,-14.00,33.00,-986.00
2024-05-17 17:27:54.152853,0,-1,-2,0,0,0,76,79,83,80,67,189.83,176,13.00,17.00,-989.00
2024-05-17 17:27:54.253629,0,-1,-2,0,0,0,76,79,83,80,67,189.82,176,10.00,16.00,-995.00
2024-05-17 17:27:54.440895,0,-1,-2,0,0,0,76,79,83,80,67,189.81,176,-6.00,24.00,-981.00
2024-05-17 17:27:54.457771,0,-1,-2,0,0,0,76,79,83,80,67,189.75,176,-9.00,35.00,-1001.00
2024-05-17 17:27:54.559996,0,-1,-2,0,0,0,76,79,83,80,67,189.85,176,0.00,24.00,-994.00
2024-05-17 17:27:54.663138,0,-1,-2,0,0,0,76,79,82,80,67,189.83,176,-1.00,21.00,-980.00
2024-05-17 17:27:54.763735,0,-1,-2,0,0,0,76,79,82,80,67,189.85,176,18.00,20.00,-1003.00
2024-05-17 17:27:54.952478,0,-1,-2,0,0,0,76,79,82,80,67,189.75,177,-7.00,17.00,-988.00
2024-05-17 17:27:54.967590,0,-1,-2,0,0,0,76,79,82,80,67,189.86,177,4.00,26.00,-989.00
2024-05-17 17:27:55.157107,0,-1,-2,0,0,0,76,79,82,80,67,189.86,177,-8.00,28.00,-998.00
2024-05-17 17:27:55.171804,0,-1,-2,0,0,0,76,79,82,80,67,189.78,177,6.00,21.00,-1018.00
2024-05-17 17:27:55.362101,0,-1,-2,0,0,0,76,79,82,80,67,189.76,177,-8.00,39.00,-990.00
2024-05-17 17:27:55.375558,0,-1,-2,0,0,0,76,79,82,80,67,189.82,177,21.00,23.00,-1000.00
2024-05-17 17:27:55.479881,0,-1,-2,0,0,0,76,79,81,80,67,189.85,177,-4.00,39.00,-1015.00
2024-05-17 17:27:55.579585,0,-1,-2,0,0,0,76,79,81,70,67,189.78,177,0.00,39.00,-1021.00
2024-05-17 17:27:55.771659,0,-1,-2,0,0,0,75,77,81,70,67,189.80,177,5.00,16.00,-992.00
2024-05-17 17:27:55.786432,0,-1,-2,0,0,0,75,77,82,70,67,189.82,177,-12.00,25.00,-986.00
2024-05-17 17:27:55.892100,0,-1,-2,0,0,0,75,77,82,70,67,189.84,178,18.00,20.00,-972.00
2024-05-17 17:27:55.987697,0,-1,-2,0,0,0,75,77,83,80,67,189.85,178,-3.00,22.00,-1008.00
2024-05-17 17:27:56.181225,0,-1,-2,0,0,0,75,77,84,80,67,189.85,178,-1.00,24.00,-988.00
2024-05-17 17:27:56.191546,0,-1,-2,0,0,0,75,77,84,80,67,189.90,178,13.00,15.00,-1006.00
2024-05-17 17:27:56.393697,0,-1,-2,0,0,0,75,77,84,80,67,189.90,178,-1.00,12.00,-972.00
2024-05-17 17:27:56.395559,0,-1,-2,0,0,0,75,77,84,80,67,189.88,178,8.00,25.00,-1023.00
2024-05-17 17:27:56.590819,0,-1,-2,0,0,0,75,77,84,80,67,189.78,178,-8.00,21.00,-977.00
2024-05-17 17:27:56.599961,0,-1,-2,0,0,0,75,77,84,80,67,189.86,178,11.00,20.00,-1000.00
2024-05-17 17:27:56.796486,0,-1,-2,0,0,0,75,78,84,80,67,189.88,178,-5.00,25.00,-994.00
2024-05-17 17:27:56.803817,0,-1,-2,0,0,0,75,78,84,80,67,189.84,178,-3.00,26.00,-997.00
2024-05-17 17:27:56.857979,0,-1,-2,0,0,0,75,78,84,80,67,189.85,179,13.00,20.00,-993.00
2024-05-17 17:27:56.957025,0,-1,-2,0,0,0,75,78,84,80,67,189.81,179,-16.00,33.00,-1017.00
2024-05-17 17:27:57.058389,0,-1,-2,0,0,0,75,78,85,80,67,189.77,179,15.00,19.00,-1013.00
2024-05-17 17:27:57.205209,0,-1,-2,0,0,0,75,78,85,80,67,189.82,179,-10.00,27.00,-1004.00
2024-05-17 17:27:57.262301,0,-1,-2,0,0,0,75,78,85,80,67,189.83,179,-3.00,32.00,-1020.00
2024-05-17 17:27:57.411165,0,-1,-2,0,0,0,75,78,85,80,67,189.82,179,-3.00,39.00,-1028.00
2024-05-17 17:27:57.466978,0,-1,-2,0,0,0,75,78,86,80,67,189.81,179,3.00,23.00,-990.00
2024-05-17 17:27:57.574381,0,-1,-2,0,0,0,75,78,86,80,67,189.87,179,4.00,14.00,-981.00
2024-05-17 17:27:57.670757,0,-1,-2,0,0,0,75,77,86,80,67,189.85,179,-4.00,27.00,-978.00
2024-05-17 17:27:57.821381,0,-1,-2,0,0,0,75,77,86,80,67,189.81,179,1.00,19.00,-1004.00
2024-05-17 17:27:57.874692,0,-1,-2,0,0,0,75,77,86,80,67,189.81,180,-13.00,13.00,-973.00
2024-05-17 17:27:58.024406,0,-1,-2,0,0,0,75,77,86,80,67,189.74,180,-2.00,25.00,-972.00
2024-05-17 17:27:58.083003,0,-1,-2,0,0,0,75,77,86,80,67,189.83,180,3.00,3.00,-977.00
2024-05-17 17:27:58.180422,0,-1,-2,0,0,0,75,77,86,80,67,189.85,180,14.00,4.00,-1007.00
2024-05-17 17:27:58.331684,0,-1,-2,0,0,0,75,77,86,80,67,189.89,180,-21.00,27.00,-977.00
2024-05-17 17:27:58.384339,0,-1,-2,0,0,0,75,77,86,80,67,189.82,180,-29.00,36.00,-973.00
2024-05-17 17:27:58.537165,0,-1,-2,0,0,0,75,77,86,80,67,189.72,180,-2.00,23.00,-999.00
2024-05-17 17:27:58.588303,0,-1,-2,0,0,0,75,77,85,80,67,189.83,180,-12.00,22.00,-997.00
2024-05-17 17:27:58.741502,0,-1,-2,0,0,0,76,77,85,80,67,189.82,180,0.00,27.00,-1015.00
2024-05-17 17:27:58.797318,0,-1,-2,0,0,0,76,77,85,80,67,189.75,180,-2.00,24.00,-1010.00
2024-05-17 17:27:58.894526,0,-1,-2,0,0,0,76,77,84,80,67,189.75,181,0.00,15.00,-971.00
2024-05-17 17:27:59.050637,0,-1,-2,0,0,0,76,77,84,80,67,189.75,181,-12.00,21.00,-979.00
2024-05-17 17:27:59.100626,0,-1,-2,0,0,0,76,77,83,80,67,189.72,181,-10.00,17.00,-1017.00
2024-05-17 17:27:59.200325,0,-1,-2,0,0,0,76,77,83,80,67,189.72,181,-6.00,15.00,-1014.00
2024-05-17 17:27:59.305175,0,-1,-2,0,0,0,76,77,83,80,67,189.80,181,-23.00,13.00,-981.00
2024-05-17 17:27:59.404363,0,-1,-2,0,0,0,76,77,83,80,67,189.77,181,5.00,28.00,-1028.00
2024-05-17 17:27:59.561765,0,-1,-2,0,0,0,76,77,82,80,67,189.80,181,-3.00,18.00,-1000.00
2024-05-17 17:27:59.608230,0,-1,-2,0,0,0,76,77,82,80,67,189.84,181,-6.00,12.00,-1005.00
2024-05-17 17:27:59.710864,0,0,-2,0,0,0,75,77,83,80,67,189.79,181,-6.00,19.00,-1016.00
2024-05-17 17:27:59.816438,0,0,-2,0,0,0,75,77,84,80,67,189.84,181,-1.00,16.00,-1025.00
2024-05-17 17:27:59.915148,0,0,-2,0,0,0,75,77,85,80,67,189.82,182,-26.00,21.00,-1074.00
2024-05-17 17:28:00.072325,0,0,-2,0,0,-1,75,77,87,80,67,189.90,182,-1.00,8.00,-1073.00
2024-05-17 17:28:00.118199,0,0,-2,0,0,-2,75,77,89,80,67,189.90,182,-37.00,21.00,-1071.00
2024-05-17 17:28:00.277106,0,0,-2,0,0,-3,75,77,93,80,67,189.90,182,-6.00,19.00,-1081.00
2024-05-17 17:28:00.328561,0,0,-2,0,0,-4,75,77,97,90,67,189.96,182,12.00,13.00,-1056.00
2024-05-17 17:28:00.424142,0,0,-2,0,0,-4,75,77,102,90,67,189.92,182,-2.00,17.00,-1053.00
2024-05-17 17:28:00.584316,0,0,-2,0,0,-5,75,77,107,100,67,190.06,182,-10.00,26.00,-1053.00
2024-05-17 17:28:00.628079,0,-1,-2,0,0,-5,75,77,113,100,67,190.11,182,-7.00,11.00,-996.00
2024-05-17 17:28:00.730129,0,-1,-2,0,0,-5,75,77,119,110,67,190.19,182,-3.00,20.00,-1012.00
2024-05-17 17:28:00.891833,0,0,-2,0,0,-5,75,77,124,110,67,190.17,182,-9.00,21.00,-998.00
2024-05-17 17:28:00.934069,0,0,-2,0,0,-5,75,77,130,120,67,190.20,183,-2.00,2.00,-974.00
2024-05-17 17:28:01.096327,0,0,-2,0,0,-5,75,77,136,120,67,190.29,183,-22.00,35.00,-979.00
2024-05-17 17:28:01.138867,0,0,-2,0,0,-5,75,77,141,130,67,190.33,183,-14.00,20.00,-972.00
2024-05-17 17:28:01.189541,0,0,-2,0,0,-4,75,77,146,130,67,190.38,183,-6.00,27.00,-986.00
2024-05-17 17:28:01.309420,0,-1,-2,0,0,-4,75,77,151,140,67,190.43,183,-9.00,27.00,-964.00
2024-05-17 17:28:01.398855,0,-1,-2,0,0,-4,75,77,155,140,67,190.43,183,-19.00,18.00,-946.00
2024-05-17 17:28:01.495373,0,-1,-2,0,0,-3,75,77,160,150,67,190.52,183,5.00,20.00,-957.00
2024-05-17 17:28:01.608363,0,-1,-2,0,0,-3,75,77,163,150,67,190.54,183,-18.00,35.00,-952.00
2024-05-17 17:28:01.702146,0,-1,-2,0,0,-3,75,77,168,160,67,190.62,183,2.00,22.00,-978.00
2024-05-17 17:28:01.802112,0,-1,-2,0,0,-2,75,77,171,160,67,190.59,183,-9.00,16.00,-960.00
2024-05-17 17:28:01.916388,0,-1,-2,0,0,-2,75,77,174,160,67,190.64,184,4.00,27.00,-958.00
2024-05-17 17:28:02.011403,0,0,-2,0,0,-2,75,77,176,160,67,190.65,184,0.00,21.00,-956.00
2024-05-17 17:28:02.108556,0,0,-2,0,0,-2,75,77,179,170,67,190.69,184,-3.00,31.00,-956.00
2024-05-17 17:28:02.222764,0,-1,-2,0,0,-1,75,77,181,170,67,190.68,184,13.00,8.00,-973.00
2024-05-17 17:28:02.312182,0,-1,-2,0,0,-1,75,77,182,170,67,190.65,184,22.00,6.00,-956.00
2024-05-17 17:28:02.427663,0,-1,-2,0,0,-1,75,77,184,170,67,190.72,184,5.00,18.00,-946.00
2024-05-17 17:28:02.516317,0,-1,-2,0,0,0,75,77,185,170,67,190.74,184,17.00,8.00,-965.00
2024-05-17 17:28:02.632435,0,-1,-2,0,0,0,75,77,186,170,67,190.70,184,-4.00,17.00,-951.00
2024-05-17 17:28:02.727412,0,-1,-2,0,0,0,74,77,186,180,67,190.70,184,0.00,30.00,-981.00
2024-05-17 17:28:02.823348,0,-1,-2,0,0,0,74,77,186,180,67,190.73,184,5.00,24.00,-960.00
2024-05-17 17:28:02.939737,0,-1,-2,0,0,0,74,77,186,180,67,190.71,185,2.00,16.00,-969.00
2024-05-17 17:28:03.028013,0,-1,-2,0,0,0,74,77,186,180,67,190.75,185,2.00,17.00,-991.00
2024-05-17 17:28:03.128830,0,-1,-2,0,0,0,74,77,186,180,67,190.78,185,18.00,-5.00,-995.00
2024-05-17 17:28:03.256299,0,-1,-2,0,0,0,74,77,186,180,67,190.77,185,27.00,10.00,-984.00
2024-05-17 17:28:03.332216,0,-1,-2,0,0,0,74,77,186,180,67,190.73,185,28.00,27.00,-1001.00
2024-05-17 17:28:03.434146,0,-1,-2,0,0,0,74,77,186,180,67,190.75,185,-2.00,8.00,-980.00
2024-05-17 17:28:03.554391,0,-1,-2,0,0,0,74,77,186,180,67,190.74,185,7.00,16.00,-998.00
2024-05-17 17:28:03.641116,0,-1,-2,0,0,0,74,77,186,180,67,190.70,185,17.00,2.00,-974.00
2024-05-17 17:28:03.740705,0,-1,-2,0,0,0,74,77,186,180,67,190.77,185,3.00,20.00,-995.00
2024-05-17 17:28:03.861563,0,-1,-2,0,0,0,74,77,186,180,67,190.76,185,-16.00,43.00,-1029.00
2024-05-17 17:28:03.951689,0,-1,-2,0,0,0,74,77,186,180,67,190.71,186,-6.00,27.00,-999.00
2024-05-17 17:28:04.046471,0,-1,-2,0,0,0,74,77,186,180,67,190.72,186,21.00,8.00,-981.00
2024-05-17 17:28:04.168525,0,-1,-2,0,0,0,74,77,187,180,67,190.72,186,12.00,16.00,-1002.00
2024-05-17 17:28:04.252629,0,-1,-2,0,0,0,74,77,187,180,67,190.77,186,18.00,18.00,-1000.00
2024-05-17 17:28:04.353061,0,-1,-2,0,0,0,74,77,187,180,67,190.73,186,16.00,3.00,-989.00
2024-05-17 17:28:04.454058,0,0,-2,0,0,0,74,77,187,180,67,190.70,186,8.00,16.00,-960.00
2024-05-17 17:28:04.555954,0,0,-2,0,0,0,74,77,187,180,67,190.68,186,18.00,11.00,-957.00
2024-05-17 17:28:04.612425,0,0,-2,0,0,0,74,77,186,180,67,190.67,186,35.00,4.00,-954.00
2024-05-17 17:28:04.763566,0,0,-2,0,0,1,75,77,184,180,67,190.72,186,0.00,12.00,-929.00
2024-05-17 17:28:04.862321,0,0,-2,0,0,1,75,77,183,170,67,190.71,186,5.00,13.00,-953.00
2024-05-17 17:28:04.964633,0,0,-2,0,0,2,75,77,180,170,67,190.63,187,14.00,10.00,-953.00
2024-05-17 17:28:05.017085,0,0,-2,0,0,2,75,77,178,170,67,190.67,187,0.00,35.00,-1010.00
2024-05-17 17:28:05.118976,0,0,-2,0,0,2,75,77,175,170,67,190.64,187,8.00,24.00,-993.00
2024-05-17 17:28:05.221636,0,0,-2,0,0,2,75,77,172,170,67,190.57,187,3.00,22.00,-981.00
2024-05-17 17:28:05.321284,0,-1,-2,0,0,2,75,77,168,160,67,190.50,187,-1.00,12.00,-985.00
2024-05-17 17:28:05.423343,0,0,-2,0,0,2,75,77,166,160,67,190.55,187,-11.00,19.00,-979.00
2024-05-17 17:28:05.601956,0,0,-2,0,0,2,75,77,162,160,67,190.54,187,14.00,9.00,-1000.00
2024-05-17 17:28:05.627169,0,0,-2,0,0,2,75,77,159,150,67,190.45,187,-4.00,34.00,-999.00
2024-05-17 17:28:05.806965,0,0,-2,0,0,2,75,76,156,150,67,190.39,187,13.00,-1.00,-1023.00
2024-05-17 17:28:05.831205,0,0,-2,0,0,2,75,76,153,150,67,190.37,187,3.00,6.00,-1007.00
2024-05-17 17:28:06.011539,0,0,-2,0,0,2,75,76,151,150,67,190.42,188,4.00,26.00,-1016.00
2024-05-17 17:28:06.035057,0,0,-2,0,0,2,75,76,149,140,67,190.37,188,21.00,7.00,-1028.00
2024-05-17 17:28:06.216311,0,0,-2,0,0,2,75,76,147,140,67,190.36,188,11.00,28.00,-1033.00
2024-05-17 17:28:06.239084,0,0,-2,0,0,1,75,76,145,140,67,190.31,188,-5.00,15.00,-994.00
2024-05-17 17:28:06.421216,0,0,-2,0,0,1,75,76,143,140,67,190.25,188,-1.00,14.00,-1003.00
2024-05-17 17:28:06.443155,0,-1,-2,0,0,1,75,76,142,140,67,190.29,188,7.00,9.00,-1032.00
2024-05-17 17:28:06.629213,0,-1,-2,0,0,1,75,76,140,130,67,190.34,188,27.00,2.00,-994.00
2024-05-17 17:28:06.647233,0,0,-2,0,0,1,75,76,139,130,67,190.26,188,10.00,11.00,-1000.00
2024-05-17 17:28:06.750352,0,0,-2,0,0,1,74,77,138,130,67,190.34,188,17.00,2.00,-1001.00
2024-05-17 17:28:06.853688,0,0,-2,0,0,1,74,77,137,130,67,190.32,188,13.00,5.00,-1037.00
2024-05-17 17:28:06.953464,0,0,-2,0,0,0,74,77,137,130,67,190.22,189,2.00,3.00,-1028.00
2024-05-17 17:28:07.139326,0,0,-2,0,0,0,74,77,137,130,67,190.24,189,26.00,-7.00,-1013.00
2024-05-17 17:28:07.157257,0,0,-2,0,0,0,74,77,137,130,67,190.25,189,19.00,12.00,-1008.00
2024-05-17 17:28:07.342797,0,0,-2,0,0,0,74,77,137,130,67,190.19,189,14.00,-8.00,-978.00
2024-05-17 17:28:07.361062,0,0,-2,0,0,0,74,77,138,130,67,190.26,189,17.00,5.00,-999.00
2024-05-17 17:28:07.464931,0,0,-2,0,0,0,74,77,138,130,67,190.22,189,-4.00,-6.00,-961.00
2024-05-17 17:28:07.565563,0,0,-2,0,0,0,74,77,138,130,67,190.22,189,18.00,8.00,-1016.00
2024-05-17 17:28:07.752384,0,0,-2,0,0,0,74,77,138,130,67,190.23,189,7.00,20.00,-991.00
2024-05-17 17:28:07.769027,0,0,-2,0,0,0,74,76,139,130,67,190.26,189,12.00,-4.00,-972.00
2024-05-17 17:28:07.872702,0,0,-2,0,0,0,74,76,139,130,67,190.25,190,12.00,12.00,-990.00
2024-05-17 17:28:07.973335,0,0,-2,0,0,0,74,76,138,130,67,190.23,190,-1.00,16.00,-997.00
2024-05-17 17:28:08.075065,0,0,-2,0,0,0,74,76,138,130,67,190.27,190,2.00,8.00,-980.00
2024-05-17 17:28:08.266102,0,0,-2,0,0,0,74,76,138,130,67,190.31,190,17.00,0.00,-999.00
2024-05-17 17:28:08.279648,0,0,-2,0,0,0,74,76,138,130,67,190.27,190,20.00,3.00,-1011.00
2024-05-17 17:28:08.471384,0,0,-2,0,0,0,74,76,138,130,67,190.25,190,-1.00,2.00,-974.00
2024-05-17 17:28:08.484865,0,0,-2,0,0,0,74,76,137,130,67,190.17,190,11.00,21.00,-1013.00
2024-05-17 17:28:08.585464,0,0,-2,0,0,0,74,76,137,130,67,190.32,190,-2.00,21.00,-1007.00
2024-05-17 17:28:08.700831,0,0,-2,0,0,0,74,76,137,130,67,190.30,190,13.00,9.00,-1000.00
2024-05-17 17:28:08.789891,0,0,-2,0,0,0,74,76,136,130,67,190.22,190,13.00,2.00,-992.00
2024-05-17 17:28:08.981136,-3,0,-2,0,0,0,74,76,136,130,67,190.17,191,0.00,19.00,-1014.00
2024-05-17 17:28:08.993006,-7,0,-2,1,0,0,74,76,136,130,67,190.22,191,11.00,0.00,-994.00
2024-05-17 17:28:09.094968,-8,0,-2,2,0,0,74,76,138,130,67,190.13,191,8.00,11.00,-983.00
2024-05-17 17:28:09.196996,-8,0,-2,4,0,0,74,76,138,130,67,190.24,191,-2.00,8.00,-996.00
2024-05-17 17:28:09.252192,-7,0,-2,5,0,0,74,76,137,130,67,190.14,191,-16.00,12.00,-997.00
2024-05-17 17:28:09.350646,-6,0,-2,6,0,0,74,76,136,130,67,190.21,191,-36.00,24.00,-1017.00
2024-05-17 17:28:09.451560,-5,0,-2,7,0,0,74,76,134,130,67,190.17,191,-22.00,11.00,-1025.00
2024-05-17 17:28:09.553941,-4,0,-2,7,0,0,74,76,134,130,67,190.15,191,-52.00,34.00,-1014.00
2024-05-17 17:28:09.703013,-3,0,-2,7,0,0,74,76,134,130,67,190.06,191,-44.00,19.00,-991.00
2024-05-17 17:28:09.758663,0,0,-2,7,0,0,74,76,135,130,67,190.09,191,-53.00,36.00,-1004.00
2024-05-17 17:28:09.902679,2,-1,-2,7,0,0,74,76,134,130,67,190.15,192,-56.00,18.00,-1001.00
2024-05-17 17:28:09.961777,4,-1,-2,6,0,0,74,76,135,130,67,190.22,192,-36.00,26.00,-999.00
2024-05-17 17:28:10.063675,5,-1,-2,5,0,0,74,76,135,130,67,190.25,192,-36.00,29.00,-1001.00
2024-05-17 17:28:10.165899,3,-1,-2,4,0,0,74,76,135,130,67,190.27,192,-30.00,32.00,-1016.00
2024-05-17 17:28:10.325261,2,-1,-2,3,0,0,74,76,134,130,67,190.30,192,-5.00,16.00,-1005.00
2024-05-17 17:28:10.369707,1,-1,-2,3,0,0,74,76,134,130,67,190.22,192,-14.00,45.00,-1041.00
2024-05-17 17:28:10.518115,0,-1,-2,2,0,0,74,76,133,130,67,190.20,192,-16.00,31.00,-995.00
2024-05-17 17:28:10.573653,0,-1,-2,2,0,0,74,76,133,130,67,190.24,192,-13.00,27.00,-988.00
2024-05-17 17:28:10.721891,0,-2,-2,2,0,0,74,76,133,130,67,190.20,192,13.00,18.00,-995.00
2024-05-17 17:28:10.780505,0,-4,-2,2,0,0,75,77,133,130,67,190.18,192,-25.00,24.00,-991.00
2024-05-17 17:28:10.879659,0,-4,-2,2,0,0,75,77,133,130,67,190.16,193,-19.00,39.00,-998.00
2024-05-17 17:28:11.029077,0,-3,-2,1,0,0,75,77,133,130,67,190.20,193,6.00,14.00,-984.00
2024-05-17 17:28:11.083564,0,0,-2,1,-1,0,75,77,132,130,67,190.17,193,-7.00,19.00,-1018.00
2024-05-17 17:28:11.233870,0,1,-2,1,0,0,75,77,131,130,67,190.19,193,-10.00,53.00,-997.00
2024-05-17 17:28:11.287672,3,0,-2,1,0,0,75,77,132,130,67,190.24,193,3.00,21.00,-972.00
2024-05-17 17:28:11.438795,3,-1,-2,0,0,0,75,77,133,130,67,190.21,193,4.00,21.00,-1008.00
2024-05-17 17:28:11.491665,1,-1,-2,0,0,0,75,77,132,130,67,190.21,193,6.00,35.00,-1006.00
2024-05-17 17:28:11.596178,1,-1,-2,0,0,0,75,77,132,130,67,190.14,193,4.00,29.00,-994.00
2024-05-17 17:28:11.695757,0,-1,-2,0,0,0,75,77,132,130,67,190.19,193,8.00,12.00,-972.00
2024-05-17 17:28:11.798182,0,-1,-2,0,0,0,73,76,132,130,67,190.20,193,19.00,15.00,-1004.00
2024-05-17 17:28:11.953509,0,-1,-2,0,0,0,73,76,131,130,67,190.21,194,13.00,31.00,-992.00
2024-05-17 17:28:12.002091,0,-1,-2,0,0,0,73,76,131,130,67,190.15,194,21.00,10.00,-1002.00
2024-05-17 17:28:12.155571,0,-1,-2,0,0,0,73,76,131,130,67,190.27,194,9.00,27.00,-991.00
2024-05-17 17:28:12.205798,0,-1,-2,0,0,0,73,76,131,130,67,190.19,194,7.00,27.00,-1018.00
2024-05-17 17:28:12.361706,0,-1,-2,0,0,0,73,76,132,130,67,190.25,194,7.00,26.00,-1016.00
2024-05-17 17:28:12.409681,0,-1,-2,0,0,0,73,76,131,130,67,190.20,194,-6.00,37.00,-986.00
2024-05-17 17:28:12.565598,0,-1,-2,0,0,0,73,76,132,130,67,190.19,194,22.00,16.00,-1000.00
2024-05-17 17:28:12.629099,0,-1,-2,0,0,0,73,76,132,130,67,190.17,194,29.00,11.00,-1008.00
2024-05-17 17:28:12.715844,0,-1,-2,0,0,0,73,76,132,130,67,190.18,194,-6.00,28.00,-1003.00
2024-05-17 17:28:12.818999,0,-1,-2,0,0,0,74,76,132,130,67,190.20,194,16.00,32.00,-1009.00
2024-05-17 17:28:12.976103,0,-1,-2,0,0,0,74,76,132,130,67,190.23,195,24.00,6.00,-997.00
2024-05-17 17:28:13.023142,0,-1,-2,0,0,0,74,76,133,130,67,190.29,195,-5.00,47.00,-1004.00
2024-05-17 17:28:13.181493,0,-1,-2,0,0,0,74,76,133,130,67,190.28,195,8.00,11.00,-995.00
2024-05-17 17:28:13.226812,0,-1,-2,0,0,0,74,76,133,130,67,190.22,195,-8.00,38.00,-1017.00
2024-05-17 17:28:13.386845,0,-1,-2,0,0,0,74,76,133,130,67,190.20,195,21.00,2.00,-980.00
2024-05-17 17:28:13.430934,0,-1,-2,0,0,0,74,76,134,130,67,190.23,195,21.00,14.00,-1004.00
2024-05-17 17:28:13.532756,0,-1,-2,0,0,0,74,76,134,130,67,190.20,195,-4.00,24.00,-998.00
2024-05-17 17:28:13.585129,0,-1,-2,0,0,0,74,76,135,130,67,190.24,195,7.00,44.00,-991.00
2024-05-17 17:28:13.692297,7,-1,-2,0,0,0,74,76,136,130,67,190.23,195,2.00,27.00,-1017.00
2024-05-17 17:28:13.838658,8,-1,-2,-1,0,0,73,76,138,130,67,190.26,195,23.00,21.00,-997.00
2024-05-17 17:28:13.889697,8,-1,-2,-2,0,0,73,76,138,130,67,190.22,196,41.00,14.00,-1019.00
2024-05-17 17:28:13.998595,8,-1,-2,-4,0,0,73,76,138,130,67,190.15,196,47.00,10.00,-988.00
2024-05-17 17:28:14.093462,8,-1,-2,-5,0,0,73,76,138,130,67,190.15,196,36.00,15.00,-993.00
2024-05-17 17:28:14.203376,8,-1,-2,-6,0,0,73,76,138,130,67,190.19,196,37.00,19.00,-997.00
2024-05-17 17:28:14.301893,6,0,-2,-7,0,0,73,76,137,130,67,190.20,196,58.00,16.00,-1004.00
2024-05-17 17:28:14.405199,5,0,-2,-7,0,0,73,76,137,130,67,190.22,196,57.00,14.00,-1003.00
2024-05-17 17:28:14.502217,4,1,-2,-7,0,0,73,76,138,130,67,190.17,196,51.00,16.00,-964.00
2024-05-17 17:28:14.604348,0,0,-2,-7,0,0,73,76,137,130,67,190.18,196,60.00,3.00,-986.00
2024-05-17 17:28:14.708247,-2,0,-2,-7,0,0,73,76,138,130,67,190.19,196,47.00,-2.00,-988.00
2024-05-17 17:28:14.808554,-3,-2,-2,-6,0,0,74,75,138,130,67,190.22,196,50.00,22.00,-1011.00
2024-05-17 17:28:14.920267,-4,-1,-2,-5,0,0,74,75,138,130,67,190.25,197,16.00,26.00,-977.00
2024-05-17 17:28:15.011373,-2,-1,-2,-4,0,0,74,75,139,130,67,190.25,197,14.00,12.00,-996.00
2024-05-17 17:28:15.125005,-1,-1,-2,-3,0,0,74,75,139,130,67,190.25,197,47.00,17.00,-1023.00
2024-05-17 17:28:15.215367,0,0,-2,-3,0,0,74,75,138,130,67,190.23,197,16.00,18.00,-981.00
2024-05-17 17:28:15.329790,0,0,-2,-3,0,0,74,75,137,130,67,190.25,197,35.00,7.00,-1017.00
2024-05-17 17:28:15.419642,0,0,-2,-2,0,0,74,75,137,130,67,190.29,197,19.00,22.00,-1024.00
2024-05-17 17:28:15.534595,0,0,-2,-2,0,0,74,75,138,130,67,190.28,197,16.00,17.00,-1018.00
2024-05-17 17:28:15.623355,-1,0,-2,-2,0,0,74,75,138,130,67,190.26,197,8.00,15.00,-1001.00
2024-05-17 17:28:15.740786,-2,-1,-2,-2,0,0,74,75,139,130,67,190.27,197,2.00,24.00,-1014.00
2024-05-17 17:28:15.827448,-3,-1,-2,-1,0,0,73,76,139,130,67,190.20,197,11.00,20.00,-994.00
2024-05-17 17:28:15.932179,-2,-1,-2,-1,0,0,73,76,139,130,67,190.28,198,-5.00,20.00,-999.00
2024-05-17 17:28:16.032610,-1,-1,-2,0,0,0,73,76,139,130,67,190.26,198,0.00,24.00,-1011.00
2024-05-17 17:28:16.133482,0,-1,-2,0,0,0,73,76,140,130,67,190.26,198,12.00,9.00,-990.00
2024-05-17 17:28:16.251742,0,0,-2,0,0,0,73,76,139,130,67,190.30,198,6.00,2.00,-977.00
2024-05-17 17:28:16.344817,0,0,-2,0,0,0,73,76,139,130,67,190.23,198,4.00,10.00,-1005.00
2024-05-17 17:28:16.439518,0,0,-2,0,0,0,73,76,139,130,67,190.27,198,0.00,12.00,-1002.00
2024-05-17 17:28:16.558638,0,0,-2,0,0,0,73,76,139,130,67,190.25,198,1.00,10.00,-999.00
2024-05-17 17:28:16.643732,0,0,-2,0,0,0,73,76,139,130,67,190.27,198,16.00,17.00,-1036.00
2024-05-17 17:28:16.763550,0,0,-2,0,0,0,73,76,139,130,67,190.27,198,3.00,32.00,-1016.00
2024-05-17 17:28:16.847867,0,0,-2,0,0,0,73,75,139,130,67,190.22,198,0.00,3.00,-986.00
2024-05-17 17:28:16.968645,0,0,-2,0,0,0,73,75,139,130,67,190.31,199,0.00,7.00,-994.00
2024-05-17 17:28:17.055254,0,0,-2,0,0,0,73,75,139,130,67,190.29,199,-5.00,1.00,-991.00
2024-05-17 17:28:17.153545,0,0,-2,0,0,0,73,75,139,130,66,190.28,199,2.00,-2.00,-984.00
2024-05-17 17:28:17.282438,0,0,-2,0,0,0,73,75,140,130,66,190.26,199,14.00,11.00,-1001.00
2024-05-17 17:28:17.307127,0,0,-2,0,0,0,73,75,140,130,66,190.28,199,15.00,16.00,-1001.00
2024-05-17 17:28:17.480803,0,-1,-2,0,0,0,73,75,140,130,66,190.27,199,2.00,5.00,-985.00
2024-05-17 17:28:17.510538,0,-1,-2,0,0,0,73,75,140,130,66,190.24,199,-3.00,21.00,-978.00
2024-05-17 17:28:17.685279,0,-1,-2,0,0,0,73,75,140,130,66,190.24,199,15.00,7.00,-987.00
2024-05-17 17:28:17.714712,0,-1,-2,0,0,0,73,75,140,130,66,190.24,199,-13.00,22.00,-991.00
2024-05-17 17:28:17.816960,0,-1,-2,0,0,0,73,76,140,130,66,190.24,199,13.00,5.00,-974.00
2024-05-17 17:28:17.933348,0,0,-2,0,0,0,73,76,140,130,66,190.34,200,21.00,26.00,-1016.00
2024-05-17 17:28:18.020594,0,-1,-2,0,0,0,73,76,140,130,66,190.30,200,2.00,20.00,-1002.00
2024-05-17 17:28:18.197224,0,-2,-2,0,0,0,73,76,140,130,66,190.29,200,8.00,23.00,-963.00
2024-05-17 17:28:18.227735,0,-8,-2,0,0,0,73,76,141,130,66,190.29,200,-11.00,26.00,-1038.00
2024-05-17 17:28:18.326556,0,-8,-2,0,-1,0,73,76,140,130,66,190.23,200,13.00,20.00,-1023.00
2024-05-17 17:28:18.504597,0,-6,-2,0,-2,0,73,76,137,130,66,190.32,200,-2.00,36.00,-1010.00
2024-05-17 17:28:18.530434,0,-4,-2,0,-3,0,73,76,140,130,66,190.34,200,-6.00,53.00,-1019.00
2024-05-17 17:28:18.709455,0,-1,-2,0,-3,0,73,76,139,130,66,190.27,200,-2.00,64.00,-1005.00
2024-05-17 17:28:18.734756,0,0,-2,0,-3,0,73,76,138,130,66,190.23,200,-7.00,25.00,-960.00
2024-05-17 17:28:18.913790,0,0,-2,0,-3,0,73,76,139,130,66,190.30,200,-3.00,38.00,-988.00
2024-05-17 17:28:18.939239,0,0,-2,0,-2,0,73,76,138,130,66,190.26,201,-5.00,34.00,-979.00
2024-05-17 17:28:19.120110,0,-1,-2,0,-2,0,73,76,138,130,66,190.29,201,7.00,33.00,-1005.00
2024-05-17 17:28:19.144656,0,-1,-2,0,-2,0,73,76,138,130,66,190.26,201,8.00,39.00,-1015.00
2024-05-17 17:28:19.325639,0,-1,-2,0,-2,0,73,76,137,130,66,190.28,201,-15.00,44.00,-1023.00
2024-05-17 17:28:19.352562,0,-1,-2,0,-2,0,73,76,137,130,66,190.32,201,17.00,17.00,-1001.00
2024-05-17 17:28:19.453577,0,-1,-2,0,-2,0,73,76,136,130,66,190.24,201,-5.00,46.00,-1017.00
2024-05-17 17:28:19.551288,0,-1,-2,0,-2,0,73,76,136,130,66,190.27,201,-2.00,31.00,-1003.00
2024-05-17 17:28:19.732977,0,0,-2,0,-2,0,73,76,136,130,66,190.31,201,-9.00,49.00,-1011.00
2024-05-17 17:28:19.755274,0,0,-2,0,-2,0,73,76,135,130,66,190.26,201,8.00,36.00,-1023.00
2024-05-17 17:28:19.857370,0,0,-2,0,-2,0,74,76,136,130,66,190.25,201,-3.00,23.00,-962.00
2024-05-17 17:28:20.040128,0,3,-2,0,-1,0,74,76,136,130,66,190.22,202,2.00,21.00,-1017.00
2024-05-17 17:28:20.062526,0,1,-2,0,0,0,74,76,135,130,66,190.22,202,-5.00,24.00,-1001.00
2024-05-17 17:28:20.245206,0,0,-2,0,0,0,74,76,134,130,66,190.29,202,20.00,-7.00,-1019.00
2024-05-17 17:28:20.265356,0,0,-2,0,0,0,74,76,134,130,66,190.28,202,11.00,4.00,-991.00
2024-05-17 17:28:20.367929,0,0,-2,0,0,0,74,76,134,130,66,190.26,202,-4.00,26.00,-1017.00
2024-05-17 17:28:20.469225,0,0,-2,0,0,0,74,76,135,130,66,190.17,202,9.00,21.00,-1023.00
2024-05-17 17:28:20.654747,0,0,-2,0,0,0,74,76,135,130,66,190.17,202,13.00,26.00,-1014.00
2024-05-17 17:28:20.673186,0,0,-2,0,0,0,74,76,136,130,66,190.23,202,-2.00,31.00,-1023.00
2024-05-17 17:28:20.859768,0,0,-2,0,0,0,74,76,137,130,66,190.25,202,-9.00,32.00,-1005.00
2024-05-17 17:28:20.877186,0,-1,-2,0,0,0,74,76,137,130,66,190.27,202,-9.00,25.00,-997.00
2024-05-17 17:28:21.064898,0,-1,-2,0,0,0,74,76,138,130,66,190.31,203,4.00,18.00,-1002.00
2024-05-17 17:28:21.082660,0,-1,-2,0,0,0,74,76,138,130,66,190.26,203,0.00,23.00,-982.00
2024-05-17 17:28:21.134030,0,-1,-2,0,0,0,74,76,138,130,66,190.25,203,8.00,1.00,-961.00
2024-05-17 17:28:21.234707,0,-1,-2,0,0,0,74,76,138,130,66,190.22,203,20.00,1.00,-987.00
2024-05-17 17:28:21.337392,0,-1,-2,0,0,0,74,76,138,130,66,190.30,203,-1.00,10.00,-982.00
2024-05-17 17:28:21.438416,0,-1,-2,0,0,0,74,76,138,130,66,190.27,203,9.00,-2.00,-997.00
2024-05-17 17:28:21.576295,0,-1,-2,0,0,0,74,76,138,130,66,190.27,203,-20.00,22.00,-967.00
2024-05-17 17:28:21.646064,0,-1,-2,0,0,0,74,76,139,130,66,190.21,203,16.00,24.00,-1011.00
2024-05-17 17:28:21.744492,0,-1,-2,0,0,0,74,76,139,130,66,190.26,203,32.00,15.00,-1034.00
2024-05-17 17:28:21.889601,1,-1,-2,0,0,0,74,76,139,130,66,190.30,204,10.00,11.00,-976.00
2024-05-17 17:28:21.948422,1,-1,-2,0,0,0,74,76,139,130,66,190.19,204,-3.00,26.00,-1000.00
2024-05-17 17:28:22.050485,0,-1,-2,0,0,0,74,76,139,130,66,190.21,204,26.00,16.00,-1019.00
2024-05-17 17:28:22.191255,0,0,-2,0,0,0,74,76,140,130,65,190.22,204,5.00,32.00,-969.00
2024-05-17 17:28:22.254386,0,6,-2,0,0,0,74,76,140,130,65,190.20,204,18.00,25.00,-1001.00
2024-05-17 17:28:22.396871,0,6,-2,0,1,0,74,76,141,130,65,190.20,204,11.00,11.00,-975.00
2024-05-17 17:28:22.459434,0,4,-2,0,3,0,74,76,139,130,65,190.19,204,-7.00,20.00,-1054.00
2024-05-17 17:28:22.603706,0,2,-2,0,3,0,74,76,140,130,65,190.17,204,9.00,-16.00,-983.00
2024-05-17 17:28:22.662729,0,0,-2,0,3,0,74,76,138,130,65,190.22,204,5.00,-8.00,-1008.00
2024-05-17 17:28:22.764290,0,-2,-2,0,3,0,74,76,138,130,65,190.25,204,11.00,-10.00,-1017.00
2024-05-17 17:28:22.867713,0,-1,-2,0,3,0,73,75,138,130,65,190.21,205,-15.00,-5.00,-1007.00
2024-05-17 17:28:22.968263,0,-1,-2,0,2,0,73,75,139,130,65,190.19,205,11.00,-4.00,-1001.00
2024-05-17 17:28:23.112118,0,0,-2,0,2,0,73,75,139,130,65,190.21,205,14.00,-1.00,-1007.00
2024-05-17 17:28:23.172727,0,0,-2,0,2,0,73,75,138,130,65,190.19,205,9.00,-6.00,-1006.00
2024-05-17 17:28:23.316952,0,0,-2,0,2,0,73,75,138,130,65,190.23,205,7.00,0.00,-991.00
2024-05-17 17:28:23.376719,0,0,-2,0,2,0,73,75,137,130,65,190.26,205,6.00,-7.00,-995.00
2024-05-17 17:28:23.483217,0,0,-2,0,2,0,73,75,137,130,65,190.21,205,-3.00,9.00,-1002.00
2024-05-17 17:28:23.582603,0,0,-2,0,2,0,73,75,138,130,65,190.22,205,0.00,-10.00,-993.00
2024-05-17 17:28:23.682296,0,0,-2,0,2,0,73,75,138,130,65,190.25,205,23.00,-15.00,-992.00
2024-05-17 17:28:23.828879,0,-1,-2,0,2,0,73,75,138,130,65,190.16,205,0.00,2.00,-1032.00
2024-05-17 17:28:23.886332,0,-3,-2,0,2,0,73,76,138,130,65,190.17,206,-10.00,19.00,-970.00
2024-05-17 17:28:24.040347,0,-5,-2,0,1,0,73,76,140,130,65,190.22,206,-2.00,-18.00,-1017.00
2024-05-17 17:28:24.090659,0,-2,-2,0,0,0,73,76,139,130,65,190.23,206,-23.00,22.00,-1000.00
2024-05-17 17:28:24.238646,0,-1,-2,0,0,0,73,76,139,130,65,190.21,206,10.00,3.00,-998.00
2024-05-17 17:28:24.294291,0,-1,-2,0,0,0,73,76,139,130,65,190.26,206,12.00,2.00,-990.00
2024-05-17 17:28:24.443516,0,-1,-2,0,0,0,73,76,139,130,65,190.22,206,-3.00,7.00,-993.00
2024-05-17 17:28:24.498388,0,-1,-2,0,0,0,73,76,139,130,65,190.27,206,-9.00,20.00,-1015.00
2024-05-17 17:28:24.549190,0,-1,-2,0,0,0,73,76,139,130,65,190.27,206,13.00,-1.00,-988.00
2024-05-17 17:28:24.651257,0,-1,-2,0,0,0,73,76,138,130,65,190.29,206,0.00,0.00,-992.00
2024-05-17 17:28:24.754287,0,0,-2,0,0,0,73,76,139,130,65,190.23,206,0.00,15.00,-1025.00
2024-05-17 17:28:24.855536,0,0,-2,0,0,0,73,75,139,130,65,190.20,207,-3.00,-2.00,-960.00
2024-05-17 17:28:24.957145,0,0,-2,0,0,0,73,75,138,130,65,190.23,207,5.00,12.00,-1009.00
2024-05-17 17:28:25.162051,0,0,-2,0,0,0,73,75,137,130,65,190.35,207,-9.00,10.00,-992.00
2024-05-17 17:28:25.162181,0,0,-2,0,0,0,73,75,137,130,65,190.32,207,15.00,11.00,-1008.00
2024-05-17 17:28:25.365807,0,0,-2,0,0,0,73,75,136,130,65,190.23,207,-2.00,28.00,-1008.00
2024-05-17 17:28:25.366193,0,0,-2,0,0,0,73,75,136,130,65,190.26,207,8.00,11.00,-1008.00
2024-05-17 17:28:25.467283,0,0,-2,0,0,0,73,75,137,130,65,190.28,207,-20.00,22.00,-995.00
2024-05-17 17:28:25.569908,0,0,-2,0,0,0,73,75,136,130,65,190.22,207,-5.00,23.00,-1014.00
2024-05-17 17:28:25.672708,0,0,-2,0,0,0,73,75,136,130,65,190.26,207,12.00,23.00,-1035.00
2024-05-17 17:28:25.774622,0,0,-2,0,0,0,73,75,136,130,65,190.28,207,7.00,10.00,-991.00
2024-05-17 17:28:25.875395,0,0,-2,0,0,0,74,75,136,130,65,190.23,208,7.00,18.00,-1008.00
2024-05-17 17:28:25.981060,0,0,-2,0,0,0,74,75,136,130,65,190.27,208,4.00,12.00,-1015.00
2024-05-17 17:28:26.079617,0,0,-2,0,0,0,74,75,136,130,65,190.23,208,-4.00,27.00,-1026.00
2024-05-17 17:28:26.181784,0,0,-2,0,0,0,74,75,136,130,65,190.23,208,-3.00,14.00,-1006.00
2024-05-17 17:28:26.284198,0,-1,2,0,0,0,74,75,137,130,65,190.28,208,-4.00,23.00,-1032.00
2024-05-17 17:28:26.385759,0,0,8,0,0,0,74,75,137,130,65,190.29,208,4.00,25.00,-1005.00
2024-05-17 17:28:26.487987,0,0,14,0,0,0,74,75,137,130,65,190.32,208,5.00,13.00,-1003.00
2024-05-17 17:28:26.590925,0,0,20,0,0,0,74,75,138,130,65,190.27,208,-4.00,21.00,-986.00
2024-05-17 17:28:26.690866,0,0,26,0,0,0,74,75,138,130,65,190.28,208,-8.00,14.00,-957.00
2024-05-17 17:28:26.798470,0,-1,33,0,0,0,74,75,138,130,65,190.33,208,9.00,21.00,-1002.00
2024-05-17 17:28:26.895685,0,-1,39,0,0,0,73,76,138,130,65,190.32,209,3.00,29.00,-987.00
2024-05-17 17:28:26.996879,0,-1,45,0,0,0,73,76,138,130,65,190.33,209,9.00,12.00,-987.00
2024-05-17 17:28:27.105720,0,-1,51,0,0,0,73,76,138,130,65,190.31,209,14.00,13.00,-996.00
2024-05-17 17:28:27.201737,0,0,57,0,0,0,73,76,138,130,65,190.26,209,2.00,35.00,-1000.00
2024-05-17 17:28:27.319752,0,0,63,0,0,0,73,76,137,130,65,190.29,209,0.00,18.00,-988.00
2024-05-17 17:28:27.405069,0,0,69,0,0,0,73,76,137,130,65,190.28,209,12.00,24.00,-997.00
2024-05-17 17:28:27.515690,0,0,75,0,0,0,73,76,137,130,65,190.28,209,21.00,33.00,-1023.00
2024-05-17 17:28:27.608801,0,0,81,0,0,0,73,76,137,130,65,190.29,209,2.00,10.00,-988.00
2024-05-17 17:28:27.720116,0,0,87,0,0,0,73,76,136,130,65,190.30,209,0.00,14.00,-1003.00
2024-05-17 17:28:27.813662,0,0,93,0,0,0,73,76,137,130,65,190.20,209,16.00,10.00,-995.00
2024-05-17 17:28:27.915156,0,0,99,0,0,0,73,76,136,130,65,190.27,210,8.00,18.00,-1009.00
2024-05-17 17:28:28.017946,0,0,105,0,0,0,73,76,136,130,65,190.20,210,3.00,19.00,-1013.00
2024-05-17 17:28:28.118812,0,0,112,0,0,0,73,76,135,130,65,190.20,210,-8.00,22.00,-1007.00
2024-05-17 17:28:28.232113,0,0,118,0,0,0,73,76,135,130,65,190.22,210,-1.00,17.00,-1026.00
2024-05-17 17:28:28.323086,0,0,124,0,0,0,73,76,135,130,65,190.25,210,-1.00,5.00,-988.00
2024-05-17 17:28:28.424975,0,0,130,0,0,0,73,76,134,130,65,190.23,210,7.00,-13.00,-992.00
2024-05-17 17:28:28.539317,0,0,136,0,0,0,73,76,134,130,65,190.21,210,6.00,-17.00,-971.00
2024-05-17 17:28:28.628753,0,0,142,0,0,0,73,76,134,130,65,190.26,210,5.00,-6.00,-1003.00
2024-05-17 17:28:28.680068,0,0,148,0,0,0,73,76,134,130,65,190.20,210,5.00,-8.00,-1011.00
2024-05-17 17:28:28.846581,0,0,154,0,0,0,73,76,134,130,65,190.24,210,1.00,13.00,-1023.00
2024-05-17 17:28:28.884029,0,0,160,0,0,0,73,76,134,130,65,190.25,211,-9.00,-5.00,-994.00
2024-05-17 17:28:29.052820,0,0,166,0,0,0,73,76,134,130,65,190.23,211,-5.00,-2.00,-1021.00
2024-05-17 17:28:29.088014,0,0,172,0,0,0,73,76,135,130,64,190.24,211,-20.00,1.00,-1003.00
2024-05-17 17:28:29.256128,-1,0,178,0,0,0,73,76,135,130,64,190.20,211,-13.00,-1.00,-998.00
2024-05-17 17:28:29.291979,-1,0,-175,0,0,0,73,76,135,130,64,190.19,211,-27.00,0.00,-996.00
2024-05-17 17:28:29.461049,-1,0,-169,0,0,0,73,76,136,130,64,190.22,211,-34.00,15.00,-1015.00
2024-05-17 17:28:29.495981,-1,0,-163,0,0,0,73,76,137,130,64,190.20,211,-18.00,14.00,-989.00
2024-05-17 17:28:29.666122,-1,0,-158,0,0,0,73,76,137,130,64,190.24,211,-13.00,0.00,-999.00
2024-05-17 17:28:29.702236,-1,0,-152,0,0,0,73,76,138,130,64,190.29,211,-12.00,5.00,-995.00
2024-05-17 17:28:29.802156,-1,0,-146,0,0,0,73,76,138,130,64,190.22,211,-2.00,-1.00,-1003.00
2024-05-17 17:28:29.903930,-1,0,-140,0,0,0,73,76,138,130,64,190.20,212,-24.00,8.00,-985.00
2024-05-17 17:28:30.076620,-1,0,-134,0,0,0,73,76,139,130,64,190.23,212,-33.00,14.00,-989.00
2024-05-17 17:28:30.107913,-1,0,-128,0,0,0,73,76,139,130,64,190.24,212,-16.00,19.00,-992.00
2024-05-17 17:28:30.280086,-1,0,-123,0,0,0,73,76,139,130,64,190.24,212,-32.00,14.00,-992.00
2024-05-17 17:28:30.311889,-1,0,-117,0,0,0,73,76,139,130,64,190.27,212,-14.00,15.00,-985.00
2024-05-17 17:28:30.484931,-1,0,-111,0,0,0,73,76,139,130,64,190.27,212,-12.00,18.00,-1017.00
2024-05-17 17:28:30.518164,-1,0,-105,0,0,0,73,76,139,130,64,190.34,212,-19.00,13.00,-999.00
2024-05-17 17:28:30.618534,-1,0,-99,0,0,0,73,76,139,130,64,190.28,212,-18.00,41.00,-1012.00
2024-05-17 17:28:30.721185,-1,0,-93,0,0,0,73,76,139,130,64,190.23,212,7.00,9.00,-986.00
2024-05-17 17:28:30.821976,-1,0,-87,0,0,0,73,76,138,130,64,190.22,212,-27.00,16.00,-993.00
2024-05-17 17:28:30.996879,-1,0,-81,0,0,0,73,75,138,130,64,190.22,213,-15.00,24.00,-1014.00
2024-05-17 17:28:31.025936,-1,0,-75,0,0,0,73,75,139,130,64,190.24,213,-15.00,18.00,-1005.00
2024-05-17 17:28:31.203090,-1,0,-69,0,0,0,73,75,138,130,64,190.22,213,-10.00,29.00,-1003.00
2024-05-17 17:28:31.229855,0,0,-63,0,0,0,73,75,138,130,64,190.23,213,-17.00,18.00,-995.00
2024-05-17 17:28:31.414639,0,0,-57,0,0,0,73,75,138,130,64,190.25,213,12.00,23.00,-1037.00
2024-05-17 17:28:31.434474,0,0,-52,0,0,0,73,75,138,130,64,190.23,213,-6.00,22.00,-1004.00
2024-05-17 17:28:31.611295,0,0,-46,0,0,0,73,75,138,130,64,190.30,213,0.00,18.00,-992.00
2024-05-17 17:28:31.638578,0,0,-40,0,0,0,73,75,138,130,64,190.31,213,-9.00,26.00,-994.00
2024-05-17 17:28:31.816915,0,-1,-34,0,0,0,73,75,138,130,64,190.30,213,-12.00,22.00,-973.00
2024-05-17 17:28:31.842577,0,0,-29,0,0,0,73,75,137,130,64,190.28,213,-12.00,42.00,-1033.00
2024-05-17 17:28:31.944747,0,-1,-23,0,0,0,73,76,137,130,64,190.27,214,10.00,26.00,-993.00
2024-05-17 17:28:32.046802,0,-1,-18,0,0,0,73,76,137,130,64,190.22,214,1.00,25.00,-1000.00
2024-05-17 17:28:32.148660,0,-1,-14,0,0,0,73,76,137,130,64,190.28,214,-8.00,20.00,-976.00
2024-05-17 17:28:32.328211,0,-1,-12,0,0,0,73,76,137,130,64,190.29,214,-17.00,24.00,-971.00
2024-05-17 17:28:32.352625,0,-1,-10,0,0,0,73,76,137,130,64,190.23,214,-13.00,33.00,-992.00
2024-05-17 17:28:32.533137,0,0,-8,0,0,0,73,76,137,130,64,190.23,214,-4.00,30.00,-981.00
2024-05-17 17:28:32.533193,0,0,-7,0,0,0,73,76,137,130,64,190.20,214,6.00,28.00,-1006.00
2024-05-17 17:28:32.609962,0,-1,-5,0,0,0,73,76,136,130,64,190.33,214,13.00,27.00,-984.00
2024-05-17 17:28:32.709751,0,-1,-5,0,0,0,73,76,136,130,64,190.32,214,-3.00,25.00,-992.00
2024-05-17 17:28:32.840394,0,-1,-4,0,0,0,73,76,136,130,64,190.27,214,-5.00,22.00,-994.00
2024-05-17 17:28:32.914578,0,-1,-3,0,0,0,73,76,136,130,64,190.25,215,-6.00,18.00,-984.00
2024-05-17 17:28:33.017090,0,-1,-3,0,0,0,73,76,136,130,64,190.23,215,-12.00,23.00,-978.00
2024-05-17 17:28:33.118683,0,-1,-3,0,0,0,73,76,136,130,64,190.25,215,-15.00,34.00,-988.00
2024-05-17 17:28:33.251242,0,-1,-3,0,0,0,73,76,136,130,64,190.27,215,24.00,12.00,-999.00
2024-05-17 17:28:33.322614,0,-1,-3,0,0,0,73,76,136,130,64,190.27,215,12.00,30.00,-1038.00
2024-05-17 17:28:33.454699,0,-1,-3,0,0,0,73,76,136,130,64,190.25,215,1.00,45.00,-1020.00
2024-05-17 17:28:33.528507,0,-1,-3,0,0,0,73,76,135,130,64,190.29,215,-2.00,31.00,-1003.00
2024-05-17 17:28:33.659343,0,-1,-3,0,0,0,73,76,136,130,64,190.26,215,-22.00,41.00,-987.00
2024-05-17 17:28:33.741007,0,-1,-3,0,0,0,73,76,135,130,64,190.24,215,-2.00,38.00,-990.00
2024-05-17 17:28:33.832910,0,-1,-3,0,0,0,73,76,135,130,64,190.15,215,-17.00,24.00,-983.00
2024-05-17 17:28:33.966440,0,-1,-3,0,0,0,73,75,134,130,64,190.22,216,23.00,5.00,-1007.00
2024-05-17 17:28:34.036419,0,-1,-3,0,0,0,73,75,134,130,64,190.25,216,4.00,37.00,-1031.00
2024-05-17 17:28:34.174245,0,-1,-3,0,0,0,73,75,134,130,64,190.25,216,0.00,29.00,-1002.00
2024-05-17 17:28:34.243187,0,-1,-3,0,0,0,73,75,134,130,64,190.23,216,3.00,17.00,-992.00
2024-05-17 17:28:34.342664,0,-1,-3,0,0,0,73,75,135,130,64,190.27,216,6.00,7.00,-979.00
2024-05-17 17:28:34.445720,0,-1,-3,0,0,0,73,75,135,130,64,190.23,216,3.00,3.00,-991.00
2024-05-17 17:28:34.546619,0,-1,-3,0,0,0,73,75,135,130,64,190.21,216,13.00,11.00,-996.00
2024-05-17 17:28:34.690071,0,-1,-3,0,0,0,73,75,135,130,64,190.27,216,-9.00,14.00,-993.00
2024-05-17 17:28:34.750516,0,-1,-3,0,0,0,73,75,135,130,64,190.26,216,0.00,21.00,-995.00
2024-05-17 17:28:34.853115,0,-1,-3,0,0,0,73,75,135,130,64,190.22,216,15.00,15.00,-998.00
2024-05-17 17:28:34.955565,0,-1,-3,0,0,0,73,75,135,130,64,190.26,217,-38.00,50.00,-1011.00
2024-05-17 17:28:35.058755,0,-1,-6,0,0,0,73,75,136,130,64,190.21,217,-21.00,53.00,-997.00
2024-05-17 17:28:35.163567,0,-1,-11,0,0,0,73,75,136,130,63,190.22,217,-8.00,39.00,-1012.00
2024-05-17 17:28:35.262051,0,-1,-17,0,0,0,73,75,135,130,63,190.22,217,14.00,23.00,-1007.00
2024-05-17 17:28:35.362642,0,-1,-23,0,0,0,73,75,136,130,63,190.22,217,-4.00,32.00,-1003.00
2024-05-17 17:28:35.466367,0,-1,-29,0,0,0,73,75,136,130,63,190.28,217,-2.00,27.00,-1007.00
2024-05-17 17:28:35.566742,0,-1,-35,0,0,0,73,75,136,130,63,190.25,217,7.00,6.00,-1000.00
2024-05-17 17:28:35.669115,0,-1,-41,0,0,0,73,75,136,130,63,190.26,217,-16.00,23.00,-997.00
2024-05-17 17:28:35.770380,0,-1,-47,0,0,0,73,75,136,130,63,190.24,217,-2.00,22.00,-1009.00
2024-05-17 17:28:35.873675,0,-1,-53,0,0,0,73,75,136,130,63,190.28,217,-7.00,11.00,-989.00
2024-05-17 17:28:36.014976,0,-1,-59,0,0,0,73,75,136,130,63,190.25,218,-28.00,29.00,-981.00
2024-05-17 17:28:36.082172,0,-1,-65,0,0,0,73,75,136,130,63,190.32,218,-4.00,20.00,-998.00
2024-05-17 17:28:36.182631,0,-1,-71,0,0,0,73,75,137,130,63,190.23,218,-7.00,7.00,-976.00
2024-05-17 17:28:36.284052,0,-1,-76,0,0,0,73,75,136,130,63,190.27,218,1.00,8.00,-996.00
2024-05-17 17:28:36.331641,0,0,-82,0,0,0,73,75,136,130,63,190.25,218,-13.00,28.00,-978.00
2024-05-17 17:28:36.433849,0,0,-88,0,0,0,73,75,136,130,63,190.26,218,8.00,12.00,-993.00
2024-05-17 17:28:36.535680,0,0,-94,0,0,0,73,75,135,130,63,190.30,218,2.00,10.00,-1002.00
2024-05-17 17:28:36.637879,0,0,-100,0,0,0,73,75,135,130,63,190.30,218,-32.00,28.00,-1011.00
2024-05-17 17:28:36.740261,0,0,-105,0,0,0,73,75,135,130,63,190.22,218,0.00,14.00,-1014.00
2024-05-17 17:28:36.842392,0,0,-111,0,0,0,73,75,135,130,63,190.25,218,-8.00,21.00,-1014.00
2024-05-17 17:28:36.945214,0,0,-123,0,0,0,73,76,135,130,63,190.26,219,2.00,3.00,-996.00
2024-05-17 17:28:37.046952,0,0,-129,0,0,0,73,76,135,130,63,190.27,219,7.00,9.00,-997.00
2024-05-17 17:28:37.244418,0,0,-134,0,0,0,73,76,136,130,63,190.32,219,6.00,0.00,-986.00
2024-05-17 17:28:37.251945,0,0,-140,0,0,0,73,76,136,130,63,190.21,219,-22.00,8.00,-990.00
2024-05-17 17:28:37.351567,0,0,-146,0,0,0,73,76,136,130,63,190.29,219,-17.00,23.00,-999.00
2024-05-17 17:28:37.453651,0,0,-152,0,0,0,73,76,136,130,63,190.30,219,-6.00,11.00,-997.00
2024-05-17 17:28:37.652825,0,0,-157,0,0,0,73,76,136,130,63,190.28,219,-5.00,13.00,-1012.00
2024-05-17 17:28:37.657563,0,0,-163,0,0,0,73,76,136,130,63,190.25,219,-15.00,25.00,-1022.00
2024-05-17 17:28:37.857626,0,0,-169,0,0,0,73,76,136,130,63,190.27,219,4.00,13.00,-1006.00
2024-05-17 17:28:37.861647,0,0,-175,0,0,0,73,76,137,130,63,190.27,220,-8.00,22.00,-1012.00
2024-05-17 17:28:38.072897,0,0,178,0,0,0,72,76,138,130,63,190.20,220,8.00,2.00,-997.00
2024-05-17 17:28:38.073871,0,0,172,0,0,0,72,76,138,130,63,190.26,220,-14.00,20.00,-1007.00
2024-05-17 17:28:38.167529,0,0,167,0,0,0,72,76,138,130,63,190.30,220,-5.00,2.00,-997.00
2024-05-17 17:28:38.270244,0,0,160,0,0,0,72,76,138,130,63,190.29,220,7.00,1.00,-999.00
2024-05-17 17:28:38.372317,0,0,154,0,0,0,72,76,139,130,63,190.31,220,-15.00,9.00,-985.00
2024-05-17 17:28:38.473508,0,0,148,0,0,0,72,76,139,130,63,190.26,220,12.00,-10.00,-979.00
2024-05-17 17:28:38.676800,0,0,142,0,0,0,72,76,140,130,63,190.32,220,-9.00,21.00,-989.00
2024-05-17 17:28:38.677487,0,0,136,0,0,0,72,76,140,130,63,190.33,220,3.00,18.00,-1003.00
2024-05-17 17:28:38.779468,0,0,130,0,0,0,72,76,140,130,63,190.29,220,14.00,11.00,-1024.00
2024-05-17 17:28:38.881479,0,0,123,0,0,0,72,76,140,130,63,190.29,221,-2.00,-6.00,-991.00
2024-05-17 17:28:38.996966,0,0,117,0,0,0,74,75,140,130,63,190.28,221,7.00,-2.00,-990.00
2024-05-17 17:28:39.086323,0,0,111,0,0,0,74,75,140,130,63,190.30,221,-7.00,19.00,-990.00
2024-05-17 17:28:39.188430,0,0,105,0,0,0,74,75,139,130,63,190.31,221,-6.00,-6.00,-965.00
2024-05-17 17:28:39.291205,0,0,99,0,0,0,74,75,139,130,63,190.27,221,0.00,27.00,-1018.00
2024-05-17 17:28:39.391540,0,0,93,0,0,0,74,75,139,130,63,190.30,221,16.00,10.00,-1030.00
2024-05-17 17:28:39.494165,0,0,86,0,0,0,74,75,139,130,63,190.29,221,8.00,4.00,-1010.00
2024-05-17 17:28:39.598395,0,0,80,0,0,0,74,75,139,130,63,190.30,221,22.00,3.00,-1001.00
2024-05-17 17:28:39.697786,0,0,74,0,0,0,74,75,139,130,63,190.28,221,-1.00,12.00,-992.00
2024-05-17 17:28:39.803464,0,0,67,0,0,0,74,75,139,130,63,190.28,221,24.00,9.00,-1028.00
2024-05-17 17:28:39.903446,0,0,61,0,0,0,74,75,139,130,63,190.28,222,-16.00,27.00,-994.00
2024-05-17 17:28:40.004840,0,0,55,0,0,0,73,75,139,130,63,190.25,222,-2.00,13.00,-994.00
2024-05-17 17:28:40.111433,0,0,48,0,0,0,73,75,139,130,63,190.35,222,13.00,14.00,-998.00
2024-05-17 17:28:40.208543,0,0,42,0,0,0,73,75,139,130,62,190.29,222,3.00,25.00,-1021.00
2024-05-17 17:28:40.315212,0,0,36,0,0,0,73,75,139,130,62,190.28,222,31.00,-6.00,-1009.00
2024-05-17 17:28:40.411408,0,0,30,0,0,0,73,75,139,130,62,190.28,222,-4.00,19.00,-981.00
2024-05-17 17:28:40.462190,0,0,23,0,0,0,73,75,139,130,62,190.27,222,24.00,12.00,-999.00
2024-05-17 17:28:40.622378,0,0,17,0,0,0,73,75,139,130,62,190.27,222,-10.00,32.00,-1005.00
2024-05-17 17:28:40.666633,0,0,12,0,0,0,73,75,139,130,62,190.30,222,9.00,27.00,-1015.00
2024-05-17 17:28:40.827220,0,0,8,0,0,0,73,75,139,130,62,190.31,222,6.00,18.00,-997.00
2024-05-17 17:28:40.870286,0,0,5,0,0,0,73,75,139,130,62,190.34,223,7.00,30.00,-1027.00
2024-05-17 17:28:41.032451,0,0,2,0,0,0,73,76,139,130,62,190.32,223,22.00,28.00,-1025.00
2024-05-17 17:28:41.074176,0,-1,1,0,0,0,73,76,138,130,62,190.26,223,-6.00,13.00,-992.00
2024-05-17 17:28:41.236799,0,-1,0,0,0,0,73,76,138,130,62,190.27,223,1.00,25.00,-1007.00
2024-05-17 17:28:41.278213,0,-1,0,0,0,0,73,76,137,130,62,190.29,223,25.00,7.00,-1005.00
2024-05-17 17:28:41.444754,0,0,-1,0,0,0,73,76,137,130,62,190.28,223,6.00,20.00,-1012.00
2024-05-17 17:28:41.482549,0,0,-2,0,0,0,73,76,137,130,62,190.27,223,-3.00,16.00,-1003.00
2024-05-17 17:28:41.646474,0,0,-2,0,0,0,73,76,137,130,62,190.29,223,-29.00,40.00,-1012.00
2024-05-17 17:28:41.690555,0,0,-2,0,0,0,73,76,137,130,62,190.32,223,9.00,10.00,-1004.00
2024-05-17 17:28:41.788265,0,0,-2,0,0,0,73,76,137,130,62,190.39,223,-4.00,19.00,-1013.00
2024-05-17 17:28:41.890646,0,0,-2,0,0,0,73,76,136,130,62,190.27,224,1.00,43.00,-1048.00
2024-05-17 17:28:42.056449,0,-1,-2,0,0,0,73,75,136,130,62,190.35,224,-5.00,31.00,-1010.00
2024-05-17 17:28:42.094188,0,-1,-2,0,0,0,73,75,136,130,62,190.30,224,1.00,22.00,-988.00
2024-05-17 17:28:42.263457,0,-1,-2,0,0,0,73,75,136,130,62,190.26,224,12.00,14.00,-1007.00
2024-05-17 17:28:42.298579,0,-1,-2,0,0,0,73,75,136,130,62,190.30,224,6.00,22.00,-997.00
2024-05-17 17:28:42.465678,0,-1,-2,0,0,0,73,75,135,130,62,190.25,224,-13.00,14.00,-990.00
2024-05-17 17:28:42.502588,0,-1,-2,0,0,0,73,75,135,130,62,190.25,224,0.00,23.00,-996.00
2024-05-17 17:28:42.604538,0,-1,-2,0,0,0,73,75,135,130,62,190.29,224,6.00,23.00,-1002.00
2024-05-17 17:28:42.772951,0,-1,-2,0,0,0,73,75,135,130,62,190.33,224,2.00,20.00,-1006.00
2024-05-17 17:28:42.812600,0,-1,-2,0,0,0,73,75,136,130,62,190.26,224,3.00,7.00,-1001.00
2024-05-17 17:28:42.910106,0,-1,-2,0,0,0,73,75,136,130,62,190.29,225,-5.00,24.00,-994.00
2024-05-17 17:28:43.080142,0,-1,-2,0,0,0,73,75,135,130,62,190.26,225,20.00,11.00,-1017.00
2024-05-17 17:28:43.114527,0,-1,-2,0,0,0,73,75,136,130,62,190.28,225,4.00,28.00,-1017.00
2024-05-17 17:28:43.285360,0,-1,-2,0,0,0,73,75,136,130,62,190.31,225,-12.00,31.00,-1005.00
2024-05-17 17:28:43.319727,0,-1,-2,0,0,0,73,75,136,130,62,190.20,225,-8.00,34.00,-1016.00
2024-05-17 17:28:43.421716,0,-1,-2,0,0,0,73,75,136,130,62,190.29,225,0.00,23.00,-980.00
2024-05-17 17:28:43.522012,0,-1,-2,0,0,0,73,75,137,130,62,190.28,225,-13.00,23.00,-997.00
2024-05-17 17:28:43.698584,0,0,-2,0,0,0,73,75,138,130,62,190.36,225,6.00,5.00,-1604.00
2024-05-17 17:28:43.725963,0,0,-2,0,0,-7,73,75,144,130,62,190.40,225,-15.00,43.00,-1694.00
2024-05-17 17:28:43.899149,0,-30,-1,0,0,-12,73,75,193,140,62,190.55,225,-12.00,375.00,-1150.00
2024-05-17 17:28:43.929936,0,-143,0,0,-8,-8,73,75,178,160,62,190.69,226,-26.00,633.00,-1042.00
2024-05-17 17:28:44.105325,2,93,-2,0,-8,7,73,75,359,160,62,190.70,226,-10.00,460.00,-1117.00
2024-05-17 17:28:44.134047,0,3,-4,0,-2,11,73,75,151,150,62,190.29,226,14.00,-153.00,-1533.00
2024-05-17 17:28:44.310595,0,0,-4,0,-2,9,73,75,141,140,62,190.18,226,-19.00,14.00,-1430.00
2024-05-17 17:28:44.310659,0,2,-3,0,-2,4,73,75,135,130,62,190.23,226,5.00,18.00,-1327.00
2024-05-17 17:28:44.389241,0,1,-2,0,-1,1,73,75,133,130,62,190.19,226,16.00,18.00,-1161.00
2024-05-17 17:28:44.513543,0,0,-2,0,-1,0,73,75,133,130,62,190.29,226,18.00,17.00,-1128.00
2024-05-17 17:28:44.593199,0,0,-2,0,0,-1,73,75,134,130,62,190.25,226,8.00,18.00,-1068.00
2024-05-17 17:28:44.718392,0,1,-2,0,0,-1,73,75,135,130,62,190.21,226,0.00,19.00,-967.00
2024-05-17 17:28:44.797229,0,2,-2,0,0,-1,73,75,137,130,62,190.25,226,9.00,25.00,-976.00
2024-05-17 17:28:44.900230,0,1,-2,0,0,-1,73,75,137,130,62,190.29,227,11.00,33.00,-1005.00
2024-05-17 17:28:45.025575,0,0,-2,0,0,0,73,75,139,130,62,190.26,227,-24.00,34.00,-937.00
2024-05-17 17:28:45.104488,0,0,-2,0,0,0,73,75,139,130,62,190.33,227,1.00,21.00,-961.00
2024-05-17 17:28:45.230387,0,0,-2,0,0,0,73,75,139,140,62,190.31,227,13.00,38.00,-1007.00
2024-05-17 17:28:45.307173,0,0,-2,0,0,0,73,75,139,140,62,190.36,227,12.00,34.00,-1002.00
2024-05-17 17:28:45.435553,0,0,-2,0,0,0,73,75,139,140,62,190.31,227,6.00,23.00,-993.00
2024-05-17 17:28:45.511161,1,0,-2,0,0,0,73,75,138,140,62,190.29,227,5.00,15.00,-968.00
2024-05-17 17:28:45.640275,0,0,-2,0,0,0,73,75,137,140,62,190.28,227,17.00,23.00,-1017.00
2024-05-17 17:28:45.718054,1,0,-2,0,0,0,73,75,137,140,62,190.26,227,-17.00,32.00,-978.00
2024-05-17 17:28:45.817510,0,0,-2,0,0,0,73,75,135,140,62,190.25,227,13.00,13.00,-1025.00
2024-05-17 17:28:45.952489,0,1,-2,0,0,0,73,75,135,130,62,190.27,228,25.00,9.00,-1012.00
2024-05-17 17:28:46.021183,0,1,-2,0,0,0,73,75,134,130,62,190.27,228,-19.00,16.00,-1000.00
2024-05-17 17:28:46.160537,0,1,-2,0,0,0,73,75,133,130,61,190.27,228,5.00,25.00,-1007.00
2024-05-17 17:28:46.225156,0,1,-2,0,0,0,73,75,132,130,61,190.30,228,-15.00,15.00,-982.00
2024-05-17 17:28:46.327555,0,0,-2,0,0,0,73,75,132,130,61,190.21,228,18.00,3.00,-1023.00
2024-05-17 17:28:46.459171,0,0,-2,0,0,0,73,75,132,130,61,190.22,228,0.00,16.00,-1004.00
2024-05-17 17:28:46.531096,0,0,-2,0,0,0,73,75,132,130,61,190.27,228,9.00,-3.00,-999.00
2024-05-17 17:28:46.663824,0,0,-2,0,0,0,73,75,132,130,61,190.30,228,-9.00,11.00,-994.00
2024-05-17 17:28:46.735109,0,0,-1,0,0,0,73,75,132,130,61,190.29,228,3.00,14.00,-1019.00
2024-05-17 17:28:46.873241,0,0,-1,0,0,0,73,75,132,130,61,190.24,228,9.00,21.00,-1010.00
2024-05-17 17:28:46.939060,0,0,-1,0,0,0,73,75,132,130,61,190.25,229,24.00,0.00,-1003.00
2024-05-17 17:28:47.077747,0,0,-2,0,0,0,73,75,133,130,61,190.28,229,10.00,16.00,-1004.00
2024-05-17 17:28:47.143179,0,0,-2,0,0,0,73,75,133,130,61,190.24,229,6.00,9.00,-994.00
2024-05-17 17:28:47.282123,0,0,-2,0,0,0,73,75,134,130,61,190.25,229,28.00,1.00,-1012.00
2024-05-17 17:28:47.363811,0,0,-2,0,0,0,73,75,134,130,61,190.22,229,12.00,7.00,-988.00
2024-05-17 17:28:47.449226,0,0,-2,0,0,0,73,75,135,130,61,190.35,229,20.00,10.00,-996.00
2024-05-17 17:28:47.590613,0,0,-2,0,0,0,73,75,135,130,61,190.24,229,6.00,31.00,-1018.00
2024-05-17 17:28:47.653171,0,0,-2,0,0,0,73,75,135,130,61,190.25,229,43.00,1.00,-1021.00
2024-05-17 17:28:47.792518,1,0,-2,0,0,0,73,75,135,130,61,190.26,229,-7.00,22.00,-992.00
2024-05-17 17:28:47.805959,1,0,-2,0,0,0,73,75,135,130,61,190.22,229,6.00,10.00,-997.00
2024-05-17 17:28:47.908235,1,0,-2,0,0,0,73,75,136,130,61,190.22,230,-10.00,17.00,-981.00
2024-05-17 17:28:48.099506,0,0,-2,0,0,0,73,75,136,130,61,190.33,230,25.00,7.00,-1022.00
2024-05-17 17:28:48.111854,0,0,-2,0,0,0,73,75,136,130,61,190.29,230,15.00,6.00,-998.00
2024-05-17 17:28:48.304400,0,0,-2,0,0,0,73,75,136,130,61,190.28,230,6.00,10.00,-985.00
2024-05-17 17:28:48.316014,0,0,-2,0,0,0,73,75,136,130,61,190.25,230,4.00,7.00,-987.00
2024-05-17 17:28:48.460461,0,0,-2,0,0,0,73,75,136,130,61,190.30,230,0.00,20.00,-1008.00
2024-05-17 17:28:48.519871,0,0,-2,0,0,0,73,75,136,130,61,190.27,230,11.00,17.00,-1010.00
2024-05-17 17:28:48.713830,0,0,-2,0,0,0,73,75,137,130,61,190.28,230,14.00,9.00,-1002.00
2024-05-17 17:28:48.723922,0,0,-2,0,0,0,73,75,137,130,61,190.31,230,1.00,28.00,-1018.00
2024-05-17 17:28:48.919683,0,0,-2,0,0,0,73,75,137,130,61,190.24,230,24.00,-5.00,-1004.00
2024-05-17 17:28:48.927774,0,0,-2,0,0,0,73,75,138,130,61,190.27,231,2.00,11.00,-985.00
2024-05-17 17:28:49.123172,0,0,-2,0,0,0,73,75,138,130,61,190.27,231,-8.00,18.00,-973.00
2024-05-17 17:28:49.131764,0,0,-2,0,0,0,73,75,138,130,61,190.28,231,11.00,24.00,-997.00
2024-05-17 17:28:49.234828,0,0,-2,0,0,0,73,75,138,130,61,190.35,231,16.00,17.00,-1000.00
2024-05-17 17:28:49.432265,0,0,-2,0,0,0,73,75,137,130,61,190.25,231,24.00,1.00,-992.00
2024-05-17 17:28:49.437779,0,0,-2,0,0,0,73,75,137,130,61,190.30,231,21.00,2.00,-1007.00
2024-05-17 17:28:49.635607,0,0,-2,0,0,0,73,75,137,130,61,190.30,231,7.00,7.00,-996.00
2024-05-17 17:28:49.649016,0,0,-2,0,0,0,73,75,136,130,61,190.29,231,0.00,23.00,-1018.00
2024-05-17 17:28:49.744391,0,0,-2,0,0,0,73,75,136,130,61,190.31,231,5.00,16.00,-998.00
2024-05-17 17:28:49.846931,0,0,-2,0,0,0,73,75,136,130,61,190.29,231,11.00,12.00,-1008.00
2024-05-17 17:28:49.947875,0,0,-2,0,0,0,73,75,136,130,61,190.28,232,30.00,11.00,-1020.00
2024-05-17 17:28:50.083810,0,0,-2,0,0,0,73,75,136,130,61,190.30,232,7.00,11.00,-997.00
2024-05-17 17:28:50.151674,0,0,-2,0,0,0,73,75,135,130,61,190.36,232,16.00,0.00,-998.00
2024-05-17 17:28:50.354586,0,0,-2,0,0,0,73,75,136,130,61,190.44,232,29.00,41.00,-1632.00
2024-05-17 17:28:50.355654,0,0,-2,0,0,-3,73,75,141,130,61,190.41,232,0.00,2.00,-1805.00
2024-05-17 17:28:50.462578,0,6,-2,0,1,-10,73,75,175,140,61,190.64,232,20.00,282.00,-1585.00
2024-05-17 17:28:50.559644,0,85,-2,0,6,-12,73,75,176,150,61,190.77,232,22.00,823.00,-1006.00
2024-05-17 17:28:50.661938,0,-148,-3,0,10,1,73,75,300,160,61,190.79,232,20.00,713.00,-1035.00
2024-05-17 17:28:50.763872,0,-34,-1,0,4,11,73,75,149,150,61,190.41,232,-19.00,284.00,-936.00
2024-05-17 17:28:50.965727,0,3,0,0,3,10,73,75,138,140,61,190.27,232,-9.00,25.00,-1401.00
2024-05-17 17:28:50.967650,0,-2,0,0,4,6,73,75,134,130,61,190.26,233,2.00,6.00,-1315.00
2024-05-17 17:28:51.069642,0,-2,-2,0,2,0,73,76,131,130,61,190.23,233,-2.00,11.00,-1158.00
2024-05-17 17:28:51.273478,0,-1,-2,0,2,0,73,76,131,130,60,190.24,233,5.00,6.00,-1123.00
2024-05-17 17:28:51.273513,0,-1,-2,0,1,-1,73,76,132,130,60,190.22,233,1.00,0.00,-1065.00
2024-05-17 17:28:51.377412,0,0,-2,0,1,-1,73,76,133,130,60,190.19,233,1.00,1.00,-1007.00
2024-05-17 17:28:51.479808,0,0,-2,0,1,-1,73,76,133,130,60,190.27,233,-1.00,-2.00,-962.00
2024-05-17 17:28:51.580845,0,-1,-2,0,1,-1,73,76,134,130,60,190.32,233,15.00,10.00,-955.00
2024-05-17 17:28:51.684522,0,-4,-2,0,1,0,73,76,137,130,60,190.26,233,8.00,1.00,-981.00
2024-05-17 17:28:51.784850,0,-3,-2,0,1,0,73,76,137,130,60,190.31,233,4.00,17.00,-999.00
2024-05-17 17:28:51.888910,0,-3,-2,0,0,0,73,76,137,130,60,190.33,234,-21.00,38.00,-979.00
2024-05-17 17:28:51.989245,0,-2,-2,0,0,0,73,76,136,130,60,190.30,234,-10.00,20.00,-979.00
2024-05-17 17:28:52.091381,0,-2,-2,0,0,0,72,75,136,130,60,190.30,234,8.00,17.00,-1019.00
2024-05-17 17:28:52.195009,0,-2,-2,0,0,0,72,75,136,130,60,190.25,234,-10.00,42.00,-999.00
2024-05-17 17:28:52.296081,0,-2,-2,0,0,0,72,75,135,130,60,190.32,234,14.00,-2.00,-1009.00
2024-05-17 17:28:52.398859,0,-1,-2,0,0,0,72,75,135,130,60,190.23,234,-5.00,20.00,-1018.00
2024-05-17 17:28:52.447809,0,-1,-2,0,0,0,72,75,135,130,60,190.25,234,9.00,20.00,-1022.00
2024-05-17 17:28:52.550761,0,-1,-2,0,0,0,72,75,135,130,60,190.27,234,8.00,24.00,-1018.00
2024-05-17 17:28:52.652610,0,-2,-2,0,0,0,72,75,135,130,60,190.23,234,0.00,24.00,-1025.00
2024-05-17 17:28:52.753447,0,-2,-2,0,0,0,72,75,135,130,60,190.28,234,11.00,23.00,-1038.00
2024-05-17 17:28:52.858609,0,-2,-2,0,0,0,72,75,134,130,60,190.31,235,-10.00,30.00,-1006.00
2024-05-17 17:28:52.956837,0,-2,-2,0,0,0,72,75,134,130,60,190.27,235,-4.00,32.00,-981.00
2024-05-17 17:28:53.115397,0,-2,-2,0,0,0,72,75,134,130,60,190.29,235,-2.00,27.00,-988.00
