TS,pitch,roll,yaw,vgx,vgy,vgz,templ,temph,tof,h,bat,baro,time,agx,agy,agz
2024-05-17 17:29:42.124104,0,0,-4,0,0,0,77,79,10,0,57,188.65,256,0.00,4.00,-999.00
2024-05-17 17:29:42.266808,0,0,-4,0,0,0,77,79,10,0,57,188.65,256,0.00,6.00,-999.00
2024-05-17 17:29:42.379558,0,0,-4,0,0,0,77,79,10,0,57,188.67,256,2.00,5.00,-1001.00
2024-05-17 17:29:42.481795,0,0,-4,0,0,0,77,79,10,0,57,188.67,256,1.00,5.00,-999.00
2024-05-17 17:29:42.582929,0,0,-4,0,0,0,77,79,10,0,57,188.67,256,1.00,5.00,-1001.00
2024-05-17 17:29:42.634089,0,0,-4,0,0,0,77,79,10,0,57,188.68,256,0.00,6.00,-999.00
2024-05-17 17:29:42.778758,0,0,-4,0,0,0,77,79,10,0,57,188.67,256,1.00,3.00,-998.00
2024-05-17 17:29:42.837921,0,0,-4,0,0,0,77,79,10,0,57,188.63,256,0.00,5.00,-1001.00
2024-05-17 17:29:42.983353,0,0,-4,0,0,0,77,79,10,0,57,188.67,256,2.00,6.00,-1000.00
2024-05-17 17:29:43.042087,0,0,-4,0,0,0,77,79,10,0,57,188.67,256,2.00,6.00,-1001.00
2024-05-17 17:29:43.188277,0,0,-4,0,0,0,77,79,10,0,57,188.70,256,1.00,6.00,-999.00
2024-05-17 17:29:43.248149,0,0,-4,0,0,0,77,79,10,0,57,188.63,256,0.00,7.00,-999.00
2024-05-17 17:29:43.348562,0,0,-4,0,0,0,77,79,10,0,57,188.65,256,1.00,5.00,-1000.00
2024-05-17 17:29:43.450278,0,0,-4,0,0,0,77,79,10,0,57,188.72,256,1.00,5.00,-999.00
2024-05-17 17:29:43.597932,0,0,-4,0,0,0,77,79,10,0,57,188.70,256,1.00,6.00,-1000.00
2024-05-17 17:29:43.654052,0,0,-4,0,0,0,77,79,10,0,57,188.66,256,0.00,5.00,-998.00
2024-05-17 17:29:43.802763,0,0,-4,0,0,0,77,79,10,0,57,188.63,256,0.00,6.00,-1000.00
2024-05-17 17:29:43.858135,0,0,-4,0,0,0,77,79,10,0,57,188.61,256,2.00,4.00,-999.00
2024-05-17 17:29:44.009080,0,0,-4,0,0,0,77,79,10,0,57,188.65,256,0.00,6.00,-1000.00
2024-05-17 17:29:44.062071,0,0,-4,0,0,0,77,79,10,0,57,188.61,256,0.00,5.00,-1000.00
2024-05-17 17:29:44.212340,0,0,-4,0,0,0,77,79,10,0,57,188.62,256,0.00,6.00,-1000.00
2024-05-17 17:29:44.266032,0,0,-4,0,0,0,77,79,10,0,57,188.60,256,0.00,6.00,-999.00
2024-05-17 17:29:44.417190,0,0,-4,0,0,0,77,79,10,0,57,188.62,256,1.00,5.00,-1000.00
2024-05-17 17:29:44.470046,0,0,-4,0,0,0,77,79,10,0,57,188.61,256,1.00,6.00,-999.00
2024-05-17 17:29:44.621815,0,0,-4,0,0,0,77,79,10,0,57,188.63,256,0.00,5.00,-1000.00
2024-05-17 17:29:44.675213,0,0,-4,0,0,0,77,79,10,0,57,188.63,256,0.00,6.00,-999.00
2024-05-17 17:29:44.795074,0,0,-4,0,0,0,77,79,10,0,57,188.67,256,1.00,6.00,-1000.00
2024-05-17 17:29:44.877935,0,0,-4,0,0,0,77,79,10,0,57,188.68,256,0.00,4.00,-998.00
2024-05-17 17:29:45.031358,0,0,-4,0,0,0,77,79,10,0,57,188.67,256,0.00,5.00,-999.00
2024-05-17 17:29:45.081933,0,0,-4,0,0,0,77,79,10,0,57,188.67,256,0.00,2.00,-998.00
2024-05-17 17:29:45.236853,0,0,-4,0,0,0,77,79,10,0,57,188.67,256,-4.00,14.00,-995.00
2024-05-17 17:29:45.285916,0,0,-4,0,0,0,77,79,10,0,57,188.67,256,-27.00,4.00,-998.00
2024-05-17 17:29:45.387797,0,0,-3,0,0,0,77,79,10,0,57,188.67,257,1.00,29.00,-993.00
2024-05-17 17:29:45.543359,0,0,-3,0,0,0,77,79,10,0,57,188.67,257,-10.00,4.00,-1125.00
2024-05-17 17:29:45.591769,0,0,-3,0,0,-1,77,79,10,0,57,188.67,257,30.00,11.00,-1135.00
2024-05-17 17:29:45.748140,0,0,-3,0,0,-4,77,79,10,0,57,188.67,257,-6.00,1.00,-1297.00
2024-05-17 17:29:45.748740,0,0,-3,0,0,-6,77,79,15,0,57,188.81,257,-12.00,-1.00,-1164.00
2024-05-17 17:29:45.847422,0,0,-3,0,0,-6,77,79,22,0,57,188.99,257,-6.00,-1.00,-1066.00
2024-05-17 17:29:45.952952,0,0,-3,0,0,-6,77,79,31,0,57,189.16,257,-32.00,2.00,-1040.00
2024-05-17 17:29:46.051008,0,0,-3,0,0,-6,77,79,40,0,57,189.23,257,-12.00,18.00,-1041.00
2024-05-17 17:29:46.157694,-1,0,-3,0,0,-6,77,79,50,10,57,189.27,257,-21.00,10.00,-957.00
2024-05-17 17:29:46.257467,-1,0,-3,0,0,-5,77,79,58,10,57,189.33,257,-13.00,8.00,-954.00
2024-05-17 17:29:46.407830,0,0,-3,0,0,-4,78,80,70,20,57,189.49,258,-7.00,6.00,-904.00
2024-05-17 17:29:46.567322,0,0,-3,0,0,-3,78,80,77,20,57,189.60,258,9.00,10.00,-909.00
2024-05-17 17:29:46.572217,0,0,-3,0,0,-2,78,80,84,20,57,189.69,258,6.00,3.00,-900.00
2024-05-17 17:29:46.662854,0,-1,-3,0,0,-1,78,80,89,30,57,189.69,258,0.00,24.00,-903.00
2024-05-17 17:29:46.772091,0,0,-3,0,0,-1,78,80,93,30,57,189.71,258,0.00,6.00,-899.00
2024-05-17 17:29:46.867676,0,0,-3,0,0,0,78,80,95,30,57,189.79,258,-15.00,31.00,-925.00
2024-05-17 17:29:46.976954,0,0,-3,0,0,0,78,80,98,40,57,189.77,258,14.00,12.00,-924.00
2024-05-17 17:29:47.071407,0,0,-3,0,0,0,78,80,101,40,57,189.83,258,6.00,-3.00,-930.00
2024-05-17 17:29:47.181679,0,0,-3,0,0,0,78,80,102,40,57,189.88,258,3.00,5.00,-941.00
2024-05-17 17:29:47.274719,0,0,-3,0,0,1,78,80,104,40,57,189.87,258,2.00,33.00,-973.00
2024-05-17 17:29:47.386389,0,0,-3,0,0,1,77,80,104,40,57,189.83,259,11.00,-7.00,-950.00
2024-05-17 17:29:47.478744,0,0,-3,0,0,1,77,80,105,40,57,189.91,259,5.00,17.00,-969.00
2024-05-17 17:29:47.593493,0,0,-3,0,0,1,77,80,104,40,57,189.84,259,-2.00,19.00,-985.00
2024-05-17 17:29:47.682675,0,0,-3,0,0,1,77,80,104,40,57,189.85,259,3.00,-5.00,-951.00
2024-05-17 17:29:47.796092,0,0,-3,0,0,1,77,80,104,40,57,189.85,259,-21.00,13.00,-955.00
2024-05-17 17:29:47.886877,0,0,-3,0,0,1,77,80,103,40,57,189.83,259,0.00,15.00,-974.00
2024-05-17 17:29:48.001214,0,0,-3,0,0,1,77,80,101,40,57,189.83,259,15.00,0.00,-969.00
2024-05-17 17:29:48.091494,0,0,-3,0,0,2,77,80,100,40,57,189.83,259,-7.00,28.00,-998.00
2024-05-17 17:29:48.205574,0,0,-3,0,0,2,77,80,98,40,57,189.81,259,6.00,5.00,-989.00
2024-05-17 17:29:48.294642,0,0,-3,0,0,2,77,80,96,40,57,189.80,259,7.00,28.00,-1012.00
2024-05-17 17:29:48.410453,0,0,-3,0,0,1,77,79,94,40,57,189.84,260,3.00,13.00,-1004.00
2024-05-17 17:29:48.499733,0,0,-3,0,0,1,77,79,92,40,57,189.72,260,18.00,7.00,-1002.00
2024-05-17 17:29:48.615267,0,0,-3,0,0,1,77,79,91,40,57,189.68,260,-5.00,18.00,-1009.00
2024-05-17 17:29:48.702983,0,0,-3,0,0,1,77,79,89,40,57,189.73,260,-1.00,22.00,-1029.00
2024-05-17 17:29:48.820084,0,0,-3,0,0,1,77,79,87,30,57,189.70,260,24.00,-1.00,-1025.00
2024-05-17 17:29:48.906694,0,0,-3,0,0,1,77,79,86,30,57,189.70,260,3.00,25.00,-1023.00
2024-05-17 17:29:49.024875,0,0,-3,0,0,1,77,79,84,30,57,189.66,260,-7.00,15.00,-1018.00
2024-05-17 17:29:49.110757,0,0,-3,0,0,1,77,79,83,30,57,189.72,260,7.00,21.00,-1009.00
2024-05-17 17:29:49.229670,0,0,-3,0,0,1,77,79,82,30,57,189.66,260,4.00,17.00,-1011.00
2024-05-17 17:29:49.314663,0,0,-3,0,0,1,77,79,80,30,57,189.57,260,-2.00,18.00,-1013.00
2024-05-17 17:29:49.434574,0,0,-3,0,0,0,76,79,79,30,57,189.55,261,16.00,9.00,-1013.00
2024-05-17 17:29:49.518590,0,-1,-3,0,0,0,76,79,78,30,57,189.62,261,-7.00,21.00,-1006.00
2024-05-17 17:29:49.640524,0,-1,-3,0,0,0,76,79,77,30,57,189.57,261,9.00,45.00,-1049.00
2024-05-17 17:29:49.723616,0,-1,-3,0,0,0,76,79,76,30,57,189.55,261,2.00,39.00,-1025.00
2024-05-17 17:29:49.824633,0,-1,-3,0,0,0,76,79,75,20,57,189.58,261,3.00,20.00,-1011.00
2024-05-17 17:29:49.927904,0,-1,-3,0,0,0,76,79,77,20,57,189.59,261,5.00,9.00,-998.00
2024-05-17 17:29:50.029075,0,-1,-3,0,0,0,76,79,74,20,57,189.54,261,12.00,18.00,-1024.00
2024-05-17 17:29:50.079653,0,-1,-3,0,0,0,76,79,73,20,57,189.55,261,11.00,13.00,-1018.00
2024-05-17 17:29:50.181628,0,-1,-3,0,0,0,76,79,72,20,57,189.51,261,-2.00,20.00,-1005.00
2024-05-17 17:29:50.356986,0,-1,-3,0,0,0,76,79,71,20,57,189.65,261,0.00,10.00,-989.00
2024-05-17 17:29:50.385635,0,-1,-3,0,0,0,77,79,70,20,57,189.52,262,8.00,26.00,-1007.00
2024-05-17 17:29:50.561198,0,-1,-3,0,0,0,77,79,69,20,57,189.57,262,6.00,24.00,-1016.00
2024-05-17 17:29:50.590782,0,-1,-3,0,0,0,77,79,69,20,57,189.51,262,19.00,18.00,-1008.00
2024-05-17 17:29:50.767451,0,-1,-3,0,0,0,77,79,68,20,57,189.62,262,32.00,19.00,-1037.00
2024-05-17 17:29:50.793591,0,-1,-3,0,0,0,77,79,67,20,57,189.52,262,-1.00,30.00,-1007.00
2024-05-17 17:29:50.895573,0,-1,-3,0,0,0,77,79,67,20,57,189.53,262,-1.00,29.00,-1018.00
2024-05-17 17:29:51.072823,0,-1,-3,0,0,0,77,79,66,20,57,189.51,262,6.00,4.00,-993.00
2024-05-17 17:29:51.099613,0,-1,-3,0,0,0,77,79,66,20,57,189.47,262,-3.00,42.00,-1035.00
2024-05-17 17:29:51.204701,0,-1,-3,0,0,0,77,79,66,20,57,189.53,262,12.00,4.00,-989.00
2024-05-17 17:29:51.303544,0,-1,-3,0,0,0,77,79,66,20,57,189.49,262,-6.00,38.00,-1032.00
2024-05-17 17:29:51.482886,0,0,-3,0,0,0,77,79,66,20,57,189.50,263,8.00,12.00,-989.00
2024-05-17 17:29:51.508519,0,-1,-3,0,0,0,77,79,66,20,57,189.48,263,-9.00,35.00,-1033.00
2024-05-17 17:29:51.687241,0,-1,-3,0,0,0,77,79,66,20,57,189.50,263,20.00,6.00,-1000.00
2024-05-17 17:29:51.712593,0,0,-3,0,0,0,77,79,66,20,57,189.49,263,-14.00,28.00,-994.00
2024-05-17 17:29:51.814548,0,0,-3,0,0,0,77,79,66,20,57,189.52,263,2.00,9.00,-997.00
2024-05-17 17:29:51.994863,0,0,-3,0,0,0,77,79,67,20,57,189.52,263,-5.00,50.00,-1044.00
2024-05-17 17:29:52.020790,0,0,-3,0,0,0,77,79,67,20,57,189.49,263,-9.00,28.00,-1007.00
2024-05-17 17:29:52.120685,0,-1,-3,0,0,0,77,79,68,20,57,189.54,263,2.00,29.00,-997.00
2024-05-17 17:29:52.301596,0,-1,-3,0,0,0,77,79,69,20,57,189.52,263,-4.00,36.00,-1019.00
2024-05-17 17:29:52.324542,0,-1,-3,0,0,0,77,79,70,20,57,189.57,263,-30.00,36.00,-981.00
2024-05-17 17:29:52.507058,0,-1,-3,0,0,0,77,78,71,20,57,189.57,264,-16.00,38.00,-986.00
2024-05-17 17:29:52.528534,0,0,-3,0,0,0,77,78,71,20,57,189.53,264,-3.00,29.00,-988.00
2024-05-17 17:29:52.711185,0,0,-3,0,0,0,77,78,72,20,57,189.50,264,-4.00,25.00,-969.00
2024-05-17 17:29:52.739102,0,0,-3,0,0,0,77,78,73,20,57,189.56,264,15.00,1.00,-973.00
2024-05-17 17:29:52.839545,0,-1,-3,0,0,0,77,78,73,20,57,189.55,264,8.00,13.00,-987.00
2024-05-17 17:29:52.937162,0,-1,-3,0,0,0,77,78,74,20,57,189.54,264,6.00,19.00,-984.00
2024-05-17 17:29:53.038415,0,-1,-3,0,0,0,77,78,74,20,57,189.59,264,-1.00,4.00,-968.00
2024-05-17 17:29:53.224059,0,0,-3,0,0,0,77,78,74,20,57,189.48,264,10.00,22.00,-1013.00
2024-05-17 17:29:53.243821,0,0,-3,0,0,0,77,78,74,20,57,189.52,264,13.00,23.00,-1002.00
2024-05-17 17:29:53.428215,0,0,-3,0,0,0,77,78,74,20,57,189.59,264,1.00,31.00,-1017.00
2024-05-17 17:29:53.446530,0,-1,-3,0,0,0,76,78,74,20,57,189.56,265,-1.00,14.00,-985.00
2024-05-17 17:29:53.548779,0,-1,-3,0,0,0,76,78,74,20,57,189.56,265,0.00,25.00,-1008.00
2024-05-17 17:29:53.735328,0,-1,-3,0,0,0,76,78,74,20,57,189.60,265,-10.00,25.00,-1009.00
2024-05-17 17:29:53.735592,0,0,-3,0,0,0,76,78,74,20,57,189.57,265,11.00,14.00,-1001.00
2024-05-17 17:29:53.804248,0,0,-3,0,0,0,76,78,73,20,57,189.51,265,-2.00,17.00,-1000.00
2024-05-17 17:29:53.906545,0,-1,-3,0,0,0,76,78,73,20,57,189.56,265,-2.00,8.00,-1000.00
2024-05-17 17:29:54.007653,0,-1,-3,0,0,0,76,78,73,20,57,189.50,265,9.00,19.00,-1029.00
2024-05-17 17:29:54.109452,0,0,-3,0,0,0,76,78,73,20,57,189.57,265,8.00,17.00,-1025.00
2024-05-17 17:29:54.247387,0,0,-3,0,0,0,76,78,73,20,57,189.61,265,0.00,13.00,-988.00
2024-05-17 17:29:54.313538,0,0,-3,0,0,0,76,78,73,20,57,189.55,265,4.00,7.00,-997.00
2024-05-17 17:29:54.415681,0,0,-3,0,0,0,76,78,74,20,57,189.59,266,-7.00,33.00,-1003.00
2024-05-17 17:29:54.554543,0,0,-3,0,0,0,76,78,74,20,57,189.55,266,-15.00,26.00,-1011.00
2024-05-17 17:29:54.621426,0,0,-3,0,0,0,76,78,74,20,57,189.55,266,1.00,17.00,-987.00
2024-05-17 17:29:54.721588,0,0,-3,0,0,0,76,78,74,20,57,189.59,266,-9.00,36.00,-1024.00
2024-05-17 17:29:54.862049,0,0,-3,0,0,0,76,78,75,20,57,189.55,266,-2.00,1.00,-972.00
2024-05-17 17:29:54.925585,0,-1,-3,0,0,0,76,78,75,20,57,189.59,266,4.00,8.00,-995.00
2024-05-17 17:29:55.066469,0,-1,-3,0,0,0,76,78,75,20,57,189.63,266,-2.00,25.00,-1011.00
2024-05-17 17:29:55.129493,0,-1,-3,0,0,0,76,78,75,20,57,189.53,266,-5.00,28.00,-1002.00
2024-05-17 17:29:55.274457,0,-1,-3,0,0,0,76,78,75,20,57,189.55,266,7.00,4.00,-982.00
2024-05-17 17:29:55.333407,0,-1,-3,0,0,0,76,78,75,20,57,189.57,266,-6.00,32.00,-999.00
2024-05-17 17:29:55.435457,0,-1,-3,0,0,0,76,77,75,20,57,189.58,267,7.00,17.00,-987.00
2024-05-17 17:29:55.537703,0,-1,-3,0,0,0,76,77,75,20,57,189.59,267,6.00,20.00,-1003.00
2024-05-17 17:29:55.681012,0,-1,-3,0,0,0,76,77,75,20,57,189.57,267,-6.00,19.00,-1048.00
2024-05-17 17:29:55.743408,0,-1,-3,0,0,0,76,77,76,20,57,189.66,267,-3.00,29.00,-1105.00
2024-05-17 17:29:55.843856,0,-1,-3,0,0,-1,76,77,78,20,57,189.61,267,-13.00,24.00,-1080.00
2024-05-17 17:29:55.946630,0,0,-3,0,0,-2,76,77,81,30,57,189.62,267,-11.00,15.00,-1094.00
2024-05-17 17:29:56.048104,0,-1,-3,0,0,-3,76,77,84,30,57,189.66,267,-2.00,35.00,-1118.00
2024-05-17 17:29:56.149375,0,-1,-3,0,0,-4,76,77,89,30,57,189.71,267,4.00,17.00,-1051.00
2024-05-17 17:29:56.295696,0,-1,-3,0,0,-4,76,77,94,40,57,189.75,267,14.00,11.00,-1045.00
2024-05-17 17:29:56.353691,0,-1,-3,0,0,-5,76,77,98,40,57,189.79,267,4.00,13.00,-1031.00
2024-05-17 17:29:56.502245,0,-1,-3,0,0,-5,76,78,104,50,57,189.85,268,3.00,13.00,-1036.00
2024-05-17 17:29:56.557154,0,-1,-3,0,0,-5,76,78,110,50,57,189.85,268,6.00,12.00,-1030.00
2024-05-17 17:29:56.704827,0,-1,-3,0,0,-5,76,78,116,60,57,189.95,268,25.00,4.00,-1031.00
2024-05-17 17:29:56.761334,0,-1,-3,0,0,-5,76,78,122,60,57,190.06,268,-8.00,10.00,-967.00
2024-05-17 17:29:56.909848,0,-1,-3,0,0,-5,76,78,127,70,57,190.03,268,1.00,31.00,-988.00
2024-05-17 17:29:56.965322,0,-1,-3,0,0,-5,76,78,133,80,57,190.06,268,1.00,27.00,-1022.00
2024-05-17 17:29:57.117059,0,-1,-3,0,0,-5,76,78,137,80,57,190.16,268,-2.00,17.00,-970.00
2024-05-17 17:29:57.169962,0,-1,-3,0,0,-4,76,78,142,90,57,190.23,268,0.00,21.00,-982.00
2024-05-17 17:29:57.319712,0,-1,-3,0,0,-4,76,78,146,90,57,190.19,268,-9.00,22.00,-967.00
2024-05-17 17:29:57.373416,0,-1,-3,0,0,-3,76,78,150,90,57,190.24,268,6.00,16.00,-966.00
2024-05-17 17:29:57.475576,0,-1,-3,0,0,-3,76,78,153,100,57,190.30,269,5.00,17.00,-955.00
2024-05-17 17:29:57.628336,0,-1,-3,0,0,-3,76,78,156,100,57,190.34,269,6.00,15.00,-958.00
2024-05-17 17:29:57.628597,0,-1,-3,0,0,-2,76,78,159,100,57,190.36,269,-6.00,34.00,-1014.00
2024-05-17 17:29:57.730244,0,-1,-3,0,0,-2,76,78,161,110,57,190.41,269,2.00,4.00,-933.00
2024-05-17 17:29:57.933666,0,-1,-3,0,0,-2,76,78,164,110,57,190.39,269,-7.00,23.00,-973.00
2024-05-17 17:29:57.934129,0,-1,-3,0,0,-1,76,78,165,110,57,190.37,269,5.00,10.00,-990.00
2024-05-17 17:29:58.036248,0,-1,-3,0,0,-1,76,78,167,110,57,190.48,269,1.00,13.00,-964.00
2024-05-17 17:29:58.138348,0,-1,-3,0,0,-1,76,78,169,120,57,190.52,269,2.00,20.00,-980.00
2024-05-17 17:29:58.240781,0,-1,-3,0,0,-1,76,78,170,120,57,190.50,269,19.00,13.00,-984.00
2024-05-17 17:29:58.343350,0,-1,-3,0,0,-1,76,78,172,120,57,190.50,269,22.00,8.00,-970.00
2024-05-17 17:29:58.446512,0,-1,-3,0,0,0,76,77,172,120,57,190.53,270,10.00,8.00,-947.00
2024-05-17 17:29:58.547856,0,-1,-3,0,0,0,76,77,173,120,57,190.55,270,-4.00,28.00,-994.00
2024-05-17 17:29:58.650476,0,-1,-3,0,0,0,76,77,173,120,57,190.55,270,16.00,8.00,-983.00
2024-05-17 17:29:58.750695,0,-1,-3,0,0,0,76,77,174,120,57,190.56,270,5.00,17.00,-980.00
2024-05-17 17:29:58.853073,0,-1,-3,0,0,0,76,77,174,120,57,190.56,270,-2.00,23.00,-994.00
2024-05-17 17:29:58.955879,0,-1,-3,0,0,0,76,77,174,120,57,190.50,270,9.00,21.00,-997.00
2024-05-17 17:29:59.059858,0,-1,-3,0,0,0,76,77,174,120,57,190.48,270,7.00,1.00,-967.00
2024-05-17 17:29:59.159956,0,-1,-3,0,0,0,76,77,174,120,57,190.52,270,19.00,9.00,-996.00
2024-05-17 17:29:59.262778,0,-1,-3,0,0,0,76,77,174,120,57,190.54,270,24.00,9.00,-1014.00
2024-05-17 17:29:59.363387,0,0,-3,0,0,0,76,77,175,120,57,190.56,271,3.00,35.00,-1012.00
2024-05-17 17:29:59.476330,0,-1,-3,0,0,0,75,78,175,120,57,190.51,271,-12.00,33.00,-1004.00
2024-05-17 17:29:59.576341,0,0,-3,0,0,0,75,78,174,120,57,190.52,271,-2.00,30.00,-1000.00
2024-05-17 17:29:59.678421,0,-1,-3,0,0,0,75,78,175,120,57,190.55,271,-2.00,15.00,-988.00
2024-05-17 17:29:59.771352,0,-1,-3,0,0,0,75,78,175,120,57,190.56,271,-8.00,19.00,-988.00
2024-05-17 17:29:59.879281,0,-1,-3,0,0,0,75,78,175,120,57,190.52,271,-7.00,36.00,-1000.00
2024-05-17 17:29:59.975309,0,-1,-3,0,0,0,75,78,175,120,57,190.47,271,12.00,18.00,-999.00
2024-05-17 17:30:00.084246,0,-1,-3,0,0,0,75,78,175,120,57,190.51,271,-14.00,23.00,-978.00
2024-05-17 17:30:00.179540,0,-1,-3,0,0,0,75,78,174,120,57,190.48,271,12.00,5.00,-986.00
2024-05-17 17:30:00.288898,0,-1,-3,0,0,0,75,78,174,120,57,190.56,271,20.00,22.00,-1008.00
2024-05-17 17:30:00.383076,0,-1,-3,0,0,0,75,78,175,120,57,190.48,272,11.00,3.00,-983.00
2024-05-17 17:30:00.493556,0,-1,-3,0,0,0,75,77,174,120,57,190.50,272,17.00,3.00,-972.00
2024-05-17 17:30:00.587220,0,-1,-3,0,0,0,75,77,174,120,57,190.50,272,6.00,12.00,-952.00
2024-05-17 17:30:00.698356,0,-1,-3,0,0,1,75,77,173,120,57,190.45,272,2.00,11.00,-958.00
2024-05-17 17:30:00.794290,0,-1,-3,0,0,1,75,77,173,120,57,190.48,272,-16.00,39.00,-965.00
2024-05-17 17:30:00.893047,0,-1,-3,0,0,1,75,77,171,120,57,190.47,272,8.00,15.00,-946.00
2024-05-17 17:30:01.005553,0,-1,-3,0,0,2,75,77,169,120,57,190.47,272,-12.00,45.00,-977.00
2024-05-17 17:30:01.097332,0,-1,-3,0,0,2,75,77,166,110,57,190.45,272,18.00,11.00,-960.00
2024-05-17 17:30:01.150610,0,-1,-3,0,0,2,75,77,164,110,57,190.36,272,21.00,2.00,-977.00
2024-05-17 17:30:01.250084,0,-1,-3,0,0,2,75,77,161,110,57,190.41,272,12.00,27.00,-996.00
2024-05-17 17:30:01.352133,0,-1,-3,0,0,2,75,77,158,110,57,190.37,273,0.00,10.00,-965.00
2024-05-17 17:30:01.517501,0,-1,-3,0,0,2,75,77,154,100,57,190.32,273,5.00,20.00,-989.00
2024-05-17 17:30:01.612963,0,-1,-3,0,0,2,75,77,151,100,57,190.31,273,15.00,32.00,-1026.00
2024-05-17 17:30:01.709059,0,-1,-3,0,0,2,75,77,148,100,57,190.26,273,-3.00,15.00,-989.00
2024-05-17 17:30:01.824741,0,-1,-3,0,0,2,75,77,145,90,57,190.29,273,0.00,9.00,-991.00
2024-05-17 17:30:01.864485,0,-1,-3,0,0,2,75,77,142,90,57,190.25,273,1.00,18.00,-1012.00
2024-05-17 17:30:01.965358,0,-1,-3,0,0,2,75,77,140,90,57,190.20,273,7.00,13.00,-1007.00
2024-05-17 17:30:02.066529,0,-1,-3,0,0,2,75,77,138,90,57,190.26,273,-4.00,29.00,-1011.00
2024-05-17 17:30:02.234805,0,-1,-3,0,0,1,75,77,135,90,57,190.19,273,0.00,21.00,-1001.00
2024-05-17 17:30:02.269957,0,-1,-3,0,0,1,75,77,134,80,57,190.15,273,15.00,17.00,-1024.00
2024-05-17 17:30:02.443944,0,-1,-3,0,0,1,75,77,132,80,57,190.13,274,14.00,1.00,-1013.00
2024-05-17 17:30:02.474066,0,-1,-3,0,0,1,75,77,130,80,57,190.10,274,13.00,11.00,-1019.00
2024-05-17 17:30:02.650165,0,-1,-3,0,0,1,75,77,129,80,57,190.06,274,14.00,4.00,-1013.00
2024-05-17 17:30:02.678149,0,-1,-3,0,0,1,75,77,127,80,57,190.00,274,-4.00,36.00,-1030.00
2024-05-17 17:30:02.856146,0,-1,-3,0,0,0,75,77,126,80,57,190.02,274,-6.00,23.00,-1017.00
2024-05-17 17:30:02.882000,0,-1,-3,0,0,0,75,77,126,80,57,190.04,274,-3.00,15.00,-1009.00
2024-05-17 17:30:03.053720,0,-1,-3,0,0,0,75,77,125,70,57,190.08,274,7.00,36.00,-1045.00
2024-05-17 17:30:03.086282,0,-1,-3,0,0,0,75,77,125,70,57,190.03,274,6.00,10.00,-1018.00
2024-05-17 17:30:03.259511,0,-1,-3,0,0,0,75,77,124,70,57,190.03,274,-9.00,19.00,-1010.00
2024-05-17 17:30:03.290195,0,-1,-3,0,0,0,75,77,124,70,57,190.02,274,0.00,18.00,-994.00
2024-05-17 17:30:03.463528,0,-1,-3,0,0,0,75,77,124,70,57,190.01,275,8.00,18.00,-1007.00
2024-05-17 17:30:03.494412,0,-1,-3,0,0,0,75,78,125,70,57,190.08,275,5.00,10.00,-994.00
2024-05-17 17:30:03.668119,0,-1,-3,0,0,0,75,78,125,70,57,190.02,275,1.00,17.00,-1000.00
2024-05-17 17:30:03.698015,0,-1,-3,0,0,0,75,78,125,70,57,190.04,275,-7.00,20.00,-986.00
2024-05-17 17:30:03.873344,0,-1,-3,0,0,0,75,78,125,70,57,190.05,275,-9.00,19.00,-993.00
2024-05-17 17:30:03.903257,0,-1,-3,0,0,0,75,78,126,70,57,190.10,275,5.00,19.00,-1010.00
2024-05-17 17:30:04.078505,0,-1,-3,0,0,0,75,78,126,70,57,190.09,275,11.00,15.00,-1011.00
2024-05-17 17:30:04.107066,0,-1,-3,0,0,0,75,78,126,70,57,190.06,275,1.00,17.00,-977.00
2024-05-17 17:30:04.208224,0,-1,-3,0,0,0,75,78,126,70,57,190.06,275,5.00,8.00,-987.00
2024-05-17 17:30:04.384923,0,-1,-3,0,0,0,75,78,126,70,57,189.98,275,-13.00,33.00,-1020.00
2024-05-17 17:30:04.412861,0,-1,-3,0,0,0,75,78,127,70,57,190.01,276,-1.00,10.00,-990.00
2024-05-17 17:30:04.597498,0,-1,-3,0,0,0,75,78,126,70,57,190.08,276,-13.00,41.00,-1001.00
2024-05-17 17:30:04.616363,0,-1,-3,0,0,0,75,78,126,70,57,190.02,276,3.00,28.00,-1003.00
2024-05-17 17:30:04.795219,0,-1,-3,0,0,0,75,78,126,70,57,190.02,276,10.00,11.00,-1003.00
2024-05-17 17:30:04.822155,0,-1,-3,0,0,0,75,78,126,70,57,190.09,276,2.00,31.00,-1002.00
2024-05-17 17:30:04.922400,0,-1,-3,0,0,0,75,78,127,70,57,190.08,276,0.00,12.00,-1010.00
2024-05-17 17:30:05.104515,0,-1,-3,0,0,0,75,78,127,70,57,190.13,276,-27.00,35.00,-1043.00
2024-05-17 17:30:05.126059,-5,0,-3,0,0,0,75,78,127,70,57,190.08,276,-3.00,21.00,-984.00
2024-05-17 17:30:05.306360,-8,-1,-3,1,0,0,75,78,129,80,57,190.02,276,0.00,-3.00,-977.00
2024-05-17 17:30:05.329840,-8,-1,-3,2,0,0,75,78,128,80,57,190.10,276,-2.00,22.00,-1029.00
2024-05-17 17:30:05.431875,-8,-1,-3,3,0,0,75,78,129,80,57,190.05,277,-27.00,17.00,-1011.00
2024-05-17 17:30:05.613611,-8,-1,-3,5,0,0,75,78,128,70,57,190.04,277,-37.00,19.00,-997.00
2024-05-17 17:30:05.636068,-7,-1,-3,6,0,0,75,78,128,70,57,190.00,277,-38.00,14.00,-1007.00
2024-05-17 17:30:05.818306,-6,-1,-3,6,0,0,75,78,127,70,57,189.98,277,-38.00,29.00,-1022.00
2024-05-17 17:30:05.818479,-5,-1,-3,7,0,0,75,78,124,80,57,190.02,277,-61.00,12.00,-978.00
2024-05-17 17:30:05.891252,-4,-1,-3,7,0,0,75,78,126,70,57,189.99,277,-61.00,11.00,-985.00
2024-05-17 17:30:06.023160,-1,-1,-3,7,0,0,75,78,128,70,57,190.01,277,-61.00,12.00,-993.00
2024-05-17 17:30:06.096026,1,0,-3,7,0,0,75,78,127,70,57,190.02,277,-61.00,29.00,-989.00
2024-05-17 17:30:06.196753,3,0,-3,6,0,0,75,78,127,70,57,190.05,277,-61.00,21.00,-1013.00
2024-05-17 17:30:06.330442,4,0,-3,5,0,0,75,78,127,70,57,189.97,277,-32.00,19.00,-993.00
2024-05-17 17:30:06.400841,3,-1,-3,4,0,0,75,78,127,70,57,190.08,278,-30.00,28.00,-1012.00
2024-05-17 17:30:06.537120,1,-1,-3,3,0,0,75,77,127,70,57,190.10,278,-25.00,24.00,-1001.00
2024-05-17 17:30:06.605418,0,0,-3,3,0,0,75,77,127,80,57,190.06,278,-12.00,6.00,-978.00
2024-05-17 17:30:06.707021,0,0,-3,3,0,0,75,77,126,80,57,190.04,278,-2.00,16.00,-999.00
2024-05-17 17:30:06.844093,0,-1,-3,3,0,0,75,77,126,80,57,189.99,278,-12.00,23.00,-989.00
2024-05-17 17:30:06.911752,0,-1,-3,2,0,0,75,77,126,80,57,190.09,278,-17.00,21.00,-979.00
2024-05-17 17:30:07.013036,1,-1,-3,2,0,0,75,77,127,80,57,190.11,278,-21.00,27.00,-1004.00
2024-05-17 17:30:07.114794,2,-1,-3,2,0,0,75,77,127,80,57,190.04,278,-5.00,31.00,-1003.00
2024-05-17 17:30:07.216678,4,-1,-3,1,0,0,75,77,128,80,57,190.03,278,-14.00,35.00,-1022.00
2024-05-17 17:30:07.355817,2,-1,-3,0,0,0,75,77,127,80,57,190.03,278,8.00,14.00,-997.00
2024-05-17 17:30:07.421025,1,-2,-3,0,0,0,75,77,128,80,57,190.00,279,0.00,32.00,-1000.00
2024-05-17 17:30:07.560476,0,-5,-3,0,0,0,75,77,127,80,57,190.07,279,1.00,24.00,-1030.00
2024-05-17 17:30:07.625833,0,-3,-3,0,-1,0,75,77,126,80,57,190.07,279,4.00,19.00,-1003.00
2024-05-17 17:30:07.727640,1,2,-3,0,0,0,75,77,126,70,57,190.02,279,-2.00,31.00,-974.00
2024-05-17 17:30:07.829238,0,0,-3,0,0,0,75,77,125,70,57,190.06,279,0.00,25.00,-1020.00
2024-05-17 17:30:07.930952,0,0,-3,0,0,0,75,77,126,70,57,190.06,279,-1.00,29.00,-988.00
2024-05-17 17:30:08.072093,0,-1,-3,0,0,0,75,77,126,70,57,190.05,279,4.00,9.00,-982.00
2024-05-17 17:30:08.134909,0,-1,-3,0,0,0,75,77,126,70,57,190.01,279,2.00,11.00,-1003.00
2024-05-17 17:30:08.277004,0,-1,-3,0,0,0,75,77,125,70,57,190.01,279,5.00,21.00,-1008.00
2024-05-17 17:30:08.338995,0,-1,-3,0,0,0,75,77,126,70,57,189.98,279,6.00,34.00,-1015.00
2024-05-17 17:30:08.441524,0,-1,-3,0,0,0,75,77,125,70,57,189.96,280,6.00,20.00,-1023.00
2024-05-17 17:30:08.584929,0,-1,-3,0,0,0,74,77,125,70,57,189.97,280,-5.00,31.00,-1027.00
2024-05-17 17:30:08.645021,0,-1,-3,0,0,0,74,77,125,70,57,189.97,280,3.00,5.00,-994.00
2024-05-17 17:30:08.791655,0,-1,-3,0,0,0,74,77,126,70,57,190.02,280,14.00,18.00,-1026.00
2024-05-17 17:30:08.849158,0,-1,-3,0,0,0,74,77,126,70,57,190.03,280,-9.00,9.00,-988.00
2024-05-17 17:30:08.951195,0,-1,-3,0,0,0,74,77,126,70,57,190.08,280,17.00,15.00,-1014.00
2024-05-17 17:30:09.095614,0,-1,-3,0,0,0,74,77,126,70,57,190.08,280,12.00,10.00,-1013.00
2024-05-17 17:30:09.155979,0,0,-3,0,0,0,74,77,127,70,57,190.05,280,15.00,6.00,-984.00
2024-05-17 17:30:09.206365,0,0,-3,0,0,0,74,77,126,70,57,190.04,280,-10.00,11.00,-988.00
2024-05-17 17:30:09.404426,0,0,-3,0,0,0,74,77,127,70,57,190.04,280,18.00,14.00,-1004.00
2024-05-17 17:30:09.410263,0,0,-3,0,0,0,74,77,127,70,57,190.03,281,-4.00,8.00,-978.00
2024-05-17 17:30:09.565643,0,0,-3,0,0,0,74,77,127,70,57,189.93,281,-4.00,17.00,-990.00
2024-05-17 17:30:09.613749,0,0,-3,0,0,0,74,77,127,70,57,190.07,281,-1.00,27.00,-1013.00
2024-05-17 17:30:09.812767,0,0,-3,0,0,0,74,77,127,70,57,190.02,281,17.00,1.00,-957.00
2024-05-17 17:30:09.817646,5,0,-3,0,0,0,74,77,128,70,57,190.02,281,4.00,8.00,-994.00
2024-05-17 17:30:10.017936,8,0,-3,-1,0,0,74,77,128,70,57,189.98,281,6.00,27.00,-1006.00
2024-05-17 17:30:10.022161,8,0,-3,-2,0,0,74,77,127,70,57,190.00,281,19.00,5.00,-1006.00
2024-05-17 17:30:10.123711,8,0,-3,-3,0,0,74,77,128,70,56,190.06,281,23.00,29.00,-1022.00
2024-05-17 17:30:10.324950,8,0,-3,-5,0,0,74,77,127,70,56,189.97,281,44.00,7.00,-1017.00
2024-05-17 17:30:10.327694,7,-1,-3,-6,0,0,74,77,125,70,56,189.97,281,28.00,4.00,-1006.00
2024-05-17 17:30:10.429804,6,0,-3,-7,0,0,74,77,125,70,56,190.13,282,37.00,2.00,-1006.00
2024-05-17 17:30:10.531817,5,0,-3,-7,0,0,75,77,126,70,56,190.11,282,41.00,10.00,-1002.00
2024-05-17 17:30:10.633624,3,1,-3,-8,0,0,75,77,126,70,56,189.97,282,85.00,-26.00,-995.00
2024-05-17 17:30:10.736695,0,0,-3,-8,0,0,75,77,124,70,56,190.00,282,41.00,8.00,-1007.00
2024-05-17 17:30:10.837542,-1,-1,-3,-7,0,0,75,77,125,70,56,189.99,282,54.00,-13.00,-976.00
2024-05-17 17:30:11.040676,-3,-2,-3,-6,0,0,75,77,123,70,56,189.99,282,66.00,-14.00,-965.00
2024-05-17 17:30:11.041693,-4,-1,-3,-5,0,0,75,77,125,70,56,189.95,282,50.00,-2.00,-1005.00
2024-05-17 17:30:11.143699,-3,0,-3,-4,0,0,75,77,124,70,56,189.93,282,45.00,2.00,-998.00
2024-05-17 17:30:11.247074,-1,0,-3,-3,0,0,75,77,123,70,56,189.92,282,34.00,-2.00,-994.00
2024-05-17 17:30:11.351000,0,0,-3,-3,0,0,75,77,122,70,56,189.90,282,21.00,0.00,-1005.00
2024-05-17 17:30:11.450648,0,0,-3,-2,0,0,75,77,123,70,56,190.03,283,23.00,0.00,-1006.00
2024-05-17 17:30:11.552639,0,0,-3,-2,0,0,75,77,124,70,56,190.01,283,31.00,8.00,-1008.00
2024-05-17 17:30:11.655522,0,2,-3,-2,0,0,75,77,124,70,56,190.02,283,10.00,24.00,-988.00
2024-05-17 17:30:11.758121,0,0,-3,-2,0,0,75,77,125,70,56,189.95,283,27.00,1.00,-1043.00
2024-05-17 17:30:11.861845,0,-2,-4,-1,0,0,75,77,125,70,56,190.04,283,11.00,11.00,-983.00
2024-05-17 17:30:11.968138,0,-1,-4,-1,0,0,75,77,127,70,56,190.06,283,12.00,18.00,-1001.00
2024-05-17 17:30:12.064499,-3,-1,-3,-1,0,0,75,77,126,70,56,190.01,283,4.00,10.00,-985.00
2024-05-17 17:30:12.168021,-3,-1,-3,-1,0,0,75,77,127,70,55,190.05,283,-1.00,16.00,-1005.00
2024-05-17 17:30:12.267388,-1,-1,-4,0,0,0,75,77,128,70,55,189.97,283,14.00,5.00,-990.00
2024-05-17 17:30:12.367810,0,-1,-4,0,0,0,75,77,129,70,55,189.96,283,-18.00,2.00,-965.00
2024-05-17 17:30:12.474629,0,0,-4,0,0,0,75,77,129,70,55,190.08,284,-9.00,32.00,-1012.00
2024-05-17 17:30:12.571584,0,-1,-3,0,0,0,74,77,130,70,55,190.06,284,0.00,11.00,-985.00
2024-05-17 17:30:12.679266,0,0,-3,0,0,0,74,77,131,80,55,190.04,284,-8.00,7.00,-989.00
2024-05-17 17:30:12.776016,0,-1,-3,0,0,0,74,77,131,80,55,190.06,284,1.00,11.00,-1004.00
2024-05-17 17:30:12.885471,0,-1,-3,0,0,0,74,77,132,80,55,190.09,284,16.00,7.00,-981.00
2024-05-17 17:30:12.979730,0,-1,-3,0,0,0,74,77,132,80,55,190.09,284,-7.00,15.00,-977.00
2024-05-17 17:30:13.088963,0,-1,-3,0,0,0,74,77,133,80,55,190.14,284,-11.00,11.00,-977.00
2024-05-17 17:30:13.183658,0,-1,-3,0,0,0,74,77,133,80,55,190.12,284,-15.00,16.00,-993.00
2024-05-17 17:30:13.297582,0,-1,-3,0,0,0,74,77,133,80,55,190.06,284,-4.00,15.00,-1001.00
2024-05-17 17:30:13.388309,0,-1,-3,0,0,0,74,77,133,80,55,190.06,285,0.00,6.00,-983.00
2024-05-17 17:30:13.438689,0,0,-3,0,0,0,74,77,133,80,55,190.11,285,15.00,0.00,-1029.00
2024-05-17 17:30:13.602465,0,0,-3,0,0,0,74,76,133,80,55,190.06,285,2.00,8.00,-1001.00
2024-05-17 17:30:13.642816,0,0,-3,0,0,0,74,76,132,80,55,190.09,285,4.00,10.00,-978.00
2024-05-17 17:30:13.805700,0,0,-3,0,0,0,74,76,132,80,55,190.15,285,-1.00,16.00,-996.00
2024-05-17 17:30:13.846772,0,0,-3,0,0,0,74,76,132,80,55,190.05,285,-6.00,28.00,-1024.00
2024-05-17 17:30:14.010442,0,0,-3,0,0,0,74,76,133,80,55,190.09,285,-11.00,17.00,-1011.00
2024-05-17 17:30:14.050645,0,0,-3,0,0,0,74,76,133,80,55,190.08,285,0.00,10.00,-1005.00
2024-05-17 17:30:14.153930,0,-1,-3,0,0,0,74,76,133,80,55,190.01,285,10.00,0.00,-994.00
2024-05-17 17:30:14.319037,0,-3,-3,0,0,0,74,76,132,80,55,190.08,285,3.00,17.00,-963.00
2024-05-17 17:30:14.356569,0,-8,-3,0,0,0,74,76,132,80,55,190.08,286,7.00,-2.00,-1003.00
2024-05-17 17:30:14.523153,0,-8,-3,0,-2,0,74,76,134,80,55,190.03,286,-20.00,24.00,-1008.00
2024-05-17 17:30:14.560450,0,-5,-3,0,-3,0,75,77,130,80,55,189.96,286,8.00,31.00,-1005.00
2024-05-17 17:30:14.727101,0,-3,-3,0,-3,0,75,77,132,80,55,190.05,286,18.00,28.00,-1019.00
2024-05-17 17:30:14.764418,0,0,-3,0,-3,0,75,77,130,80,55,190.02,286,16.00,36.00,-1011.00
2024-05-17 17:30:14.932688,1,0,-3,0,-3,0,75,77,129,80,55,190.04,286,2.00,30.00,-962.00
2024-05-17 17:30:14.977730,2,0,-3,0,-2,0,75,77,129,80,55,190.05,286,-4.00,53.00,-1049.00
2024-05-17 17:30:15.070453,1,0,-3,0,-2,0,75,77,129,80,55,190.06,286,-22.00,49.00,-1000.00
2024-05-17 17:30:15.175519,1,-1,-3,0,-2,0,75,77,128,80,55,190.06,286,11.00,33.00,-1006.00
2024-05-17 17:30:15.274489,1,-1,-3,0,-2,0,75,77,127,80,55,190.09,286,29.00,11.00,-1014.00
2024-05-17 17:30:15.443762,1,-1,-3,0,-2,0,75,77,126,80,55,190.03,287,26.00,28.00,-1024.00
2024-05-17 17:30:15.478408,1,-1,-3,0,-2,0,75,77,125,70,55,189.95,287,12.00,35.00,-1035.00
2024-05-17 17:30:15.649077,1,-1,-3,0,-2,0,75,76,123,70,55,190.01,287,3.00,23.00,-1007.00
2024-05-17 17:30:15.682402,1,-1,-3,0,-2,0,75,76,122,70,55,190.02,287,12.00,21.00,-1011.00
2024-05-17 17:30:15.786293,0,-1,-3,0,-2,0,75,76,122,70,55,190.02,287,-10.00,33.00,-1010.00
2024-05-17 17:30:15.886342,-1,-1,-3,0,-2,0,75,76,121,70,55,189.96,287,17.00,26.00,-984.00
2024-05-17 17:30:16.059340,0,0,-3,0,-2,0,75,76,119,70,55,189.95,287,15.00,13.00,-1003.00
2024-05-17 17:30:16.091385,0,0,-3,0,-2,0,75,76,119,70,55,189.95,287,-9.00,30.00,-1018.00
2024-05-17 17:30:16.192397,0,3,-3,0,-1,0,75,76,120,70,55,189.90,287,10.00,35.00,-1028.00
2024-05-17 17:30:16.365893,0,1,-3,0,0,0,75,76,119,70,55,189.91,287,-12.00,17.00,-1015.00
2024-05-17 17:30:16.396410,0,0,-3,0,0,0,75,76,119,70,55,189.93,288,9.00,1.00,-1024.00
2024-05-17 17:30:16.571260,0,0,-3,0,0,0,75,76,119,70,55,189.98,288,9.00,2.00,-994.00
2024-05-17 17:30:16.600435,0,0,-3,0,0,0,75,76,120,70,55,189.90,288,-8.00,0.00,-1014.00
2024-05-17 17:30:16.775604,0,0,-3,0,0,0,75,76,120,70,55,189.99,288,6.00,21.00,-1015.00
2024-05-17 17:30:16.804337,0,0,-3,0,0,0,75,76,121,70,55,190.02,288,-8.00,19.00,-1015.00
2024-05-17 17:30:16.980040,0,-1,-3,0,0,0,75,76,122,70,55,190.01,288,-7.00,1.00,-949.00
2024-05-17 17:30:17.008411,0,-1,-3,0,0,0,75,76,123,70,55,190.00,288,4.00,10.00,-985.00
2024-05-17 17:30:17.185369,0,-1,-3,0,0,0,75,76,123,70,55,190.01,288,0.00,23.00,-990.00
2024-05-17 17:30:17.185522,0,-1,-3,0,0,0,75,76,124,70,54,190.03,288,-1.00,15.00,-988.00
2024-05-17 17:30:17.264420,0,-1,-3,0,0,0,75,76,123,70,54,189.98,288,11.00,6.00,-996.00
2024-05-17 17:30:17.367023,0,-1,-3,0,0,0,75,76,123,70,54,189.97,289,-6.00,12.00,-966.00
2024-05-17 17:30:17.468403,0,-1,-3,0,0,0,75,76,123,70,54,190.05,289,1.00,11.00,-983.00
2024-05-17 17:30:17.594712,0,-1,-3,0,0,0,76,77,123,70,54,190.02,289,-1.00,16.00,-1002.00
2024-05-17 17:30:17.672516,0,-1,-3,0,0,0,76,77,123,70,54,189.99,289,3.00,25.00,-982.00
2024-05-17 17:30:17.801260,0,-1,-3,0,0,0,76,77,123,70,54,189.95,289,6.00,26.00,-1026.00
2024-05-17 17:30:17.876636,0,-1,-3,0,0,0,76,77,122,70,54,189.99,289,3.00,6.00,-1005.00
2024-05-17 17:30:18.004024,0,-1,-3,0,0,0,76,77,122,70,54,189.94,289,14.00,15.00,-1018.00
2024-05-17 17:30:18.080444,0,-1,-3,0,0,0,76,77,122,70,54,189.91,289,14.00,8.00,-1010.00
2024-05-17 17:30:18.182396,0,-1,-3,0,0,0,76,77,122,70,54,189.96,289,-8.00,11.00,-986.00
2024-05-17 17:30:18.311240,0,-1,-3,0,0,0,76,77,123,70,54,189.92,289,0.00,27.00,-997.00
2024-05-17 17:30:18.386245,0,-1,-3,0,0,0,76,77,123,70,54,189.95,290,12.00,3.00,-977.00
2024-05-17 17:30:18.515939,0,-1,-3,0,0,0,76,77,123,70,54,189.98,290,-16.00,36.00,-1004.00
2024-05-17 17:30:18.591728,0,5,-3,0,0,0,75,77,125,70,54,190.06,290,-4.00,33.00,-995.00
2024-05-17 17:30:18.725894,0,8,-3,0,1,0,75,77,125,70,54,190.00,290,-4.00,15.00,-1004.00
2024-05-17 17:30:18.794220,0,5,-3,0,2,0,75,77,123,70,54,189.93,290,-15.00,12.00,-1015.00
2024-05-17 17:30:18.925471,0,2,-3,0,3,0,75,77,124,70,54,190.03,290,6.00,-7.00,-982.00
2024-05-17 17:30:18.998229,0,0,-3,0,4,0,75,77,123,70,54,190.03,290,20.00,-9.00,-1014.00
2024-05-17 17:30:19.130313,0,-2,-3,0,3,0,75,77,124,70,54,189.96,290,7.00,-13.00,-1003.00
2024-05-17 17:30:19.202366,0,-2,-3,0,3,0,75,77,124,70,54,189.96,290,4.00,5.00,-1002.00
2024-05-17 17:30:19.335038,0,-2,-3,0,3,0,75,77,124,70,54,189.96,290,-20.00,6.00,-987.00
2024-05-17 17:30:19.407192,0,-1,-3,0,3,0,75,77,124,70,54,189.95,291,-15.00,16.00,-996.00
2024-05-17 17:30:19.539740,0,-1,-3,0,2,0,75,77,124,70,54,190.02,291,0.00,-14.00,-989.00
2024-05-17 17:30:19.610269,0,0,-3,0,2,0,75,77,124,70,54,189.98,291,7.00,-2.00,-978.00
2024-05-17 17:30:19.744663,0,0,-3,0,2,0,75,77,124,70,54,189.99,291,24.00,-5.00,-997.00
2024-05-17 17:30:19.814250,0,0,-3,0,2,0,75,77,123,70,54,190.04,291,8.00,-13.00,-997.00
2024-05-17 17:30:19.949424,0,0,-3,0,2,0,75,77,124,70,54,189.93,291,-17.00,0.00,-972.00
2024-05-17 17:30:20.018219,0,0,-3,0,2,0,75,77,124,70,54,190.01,291,-9.00,6.00,-994.00
2024-05-17 17:30:20.154300,0,0,-3,0,2,0,75,77,125,70,54,190.00,291,-2.00,1.00,-995.00
2024-05-17 17:30:20.222209,0,-2,-3,0,2,0,75,77,126,70,54,189.99,291,-1.00,10.00,-1001.00
2024-05-17 17:30:20.358980,0,-6,-3,0,1,0,75,77,125,70,54,190.06,291,0.00,6.00,-1029.00
2024-05-17 17:30:20.426240,0,-3,-3,0,0,0,75,77,127,70,54,190.02,292,-7.00,21.00,-996.00
2024-05-17 17:30:20.565511,0,-2,-3,0,0,0,75,77,126,70,54,190.06,292,5.00,24.00,-1014.00
2024-05-17 17:30:20.630301,0,-1,-3,0,0,0,75,77,126,70,54,190.13,292,9.00,3.00,-972.00
2024-05-17 17:30:20.768763,0,-1,-3,0,0,0,75,77,126,70,54,190.05,292,-3.00,20.00,-988.00
2024-05-17 17:30:20.834924,0,-1,-3,0,0,0,75,77,126,70,54,189.98,292,5.00,26.00,-991.00
2024-05-17 17:30:20.973536,0,-1,-3,0,0,0,75,77,126,70,54,189.96,292,-2.00,34.00,-996.00
2024-05-17 17:30:21.038279,1,-1,-3,0,0,0,75,77,126,70,54,190.01,292,-10.00,12.00,-990.00
2024-05-17 17:30:21.140657,1,-1,-3,0,0,0,75,77,126,70,54,190.06,292,1.00,20.00,-984.00
2024-05-17 17:30:21.280824,0,-1,-3,0,0,0,75,77,126,70,54,190.10,292,12.00,23.00,-1004.00
2024-05-17 17:30:21.346628,0,-1,-3,0,0,0,75,77,126,70,54,190.02,292,-13.00,30.00,-994.00
2024-05-17 17:30:21.396325,0,-1,-3,0,0,0,75,77,126,70,54,190.00,293,0.00,20.00,-985.00
2024-05-17 17:30:21.498316,0,-1,-3,0,0,0,75,77,126,70,54,190.01,293,-12.00,21.00,-994.00
2024-05-17 17:30:21.694393,0,0,-3,0,0,0,75,76,126,70,54,189.92,293,9.00,10.00,-1019.00
2024-05-17 17:30:21.702200,0,0,-3,0,0,0,75,76,125,70,54,189.94,293,0.00,28.00,-1019.00
2024-05-17 17:30:21.895086,0,0,-3,0,0,0,75,76,125,70,54,189.95,293,-11.00,31.00,-1027.00
2024-05-17 17:30:21.906288,0,0,-3,0,0,0,75,76,125,70,54,190.00,293,-25.00,26.00,-1020.00
2024-05-17 17:30:22.099834,0,0,-3,0,0,0,75,76,125,70,54,189.99,293,6.00,21.00,-1010.00
2024-05-17 17:30:22.110415,0,0,-3,0,0,0,75,76,124,70,53,190.01,293,-14.00,14.00,-976.00
2024-05-17 17:30:22.304777,0,0,-3,0,0,0,75,76,124,70,53,189.99,293,14.00,12.00,-1027.00
2024-05-17 17:30:22.314520,0,0,-3,0,0,0,75,76,124,70,53,190.04,293,6.00,16.00,-1007.00
2024-05-17 17:30:22.416276,0,0,-3,0,0,0,75,76,124,70,53,189.98,294,7.00,16.00,-1021.00
2024-05-17 17:30:22.614738,0,0,-3,0,0,0,75,76,124,70,53,189.97,294,20.00,-15.00,-989.00
2024-05-17 17:30:22.619933,0,0,1,0,0,0,73,76,123,70,53,190.00,294,-10.00,19.00,-992.00
2024-05-17 17:30:22.816650,0,0,7,0,0,0,73,76,123,70,53,190.00,294,4.00,22.00,-1010.00
2024-05-17 17:30:22.824140,0,0,13,0,0,0,73,76,123,70,53,189.99,294,11.00,6.00,-983.00
2024-05-17 17:30:23.021424,0,0,19,0,0,0,73,76,123,70,53,189.98,294,0.00,16.00,-1001.00
2024-05-17 17:30:23.028011,0,0,25,0,0,0,73,76,124,70,53,190.06,294,29.00,2.00,-1013.00
2024-05-17 17:30:23.226195,0,0,31,0,0,0,73,76,124,70,53,190.05,294,20.00,20.00,-1039.00
2024-05-17 17:30:23.233307,0,0,37,0,0,0,73,76,124,70,53,189.99,294,-4.00,16.00,-995.00
2024-05-17 17:30:23.431037,0,0,43,0,0,0,73,76,124,70,53,190.03,294,-4.00,13.00,-1016.00
2024-05-17 17:30:23.436271,0,0,49,0,0,0,73,76,125,70,53,190.03,295,-6.00,3.00,-979.00
2024-05-17 17:30:23.635828,0,0,55,0,0,0,73,76,125,70,53,190.02,295,9.00,17.00,-1023.00
2024-05-17 17:30:23.640245,0,0,61,0,0,0,75,76,126,70,53,190.01,295,-8.00,9.00,-998.00
2024-05-17 17:30:23.842974,0,0,67,0,0,0,75,76,126,70,53,190.03,295,13.00,18.00,-1050.00
2024-05-17 17:30:23.843977,0,0,74,0,0,0,75,76,126,70,53,189.95,295,7.00,-18.00,-976.00
2024-05-17 17:30:23.945992,0,0,80,0,0,0,75,76,126,70,53,190.02,295,-21.00,18.00,-1008.00
2024-05-17 17:30:24.047969,0,0,86,0,0,0,75,76,127,70,53,189.99,295,9.00,-5.00,-995.00
2024-05-17 17:30:24.151736,0,0,92,0,0,0,75,76,127,80,53,190.13,295,10.00,21.00,-1031.00
2024-05-17 17:30:24.251996,0,0,99,0,0,0,75,76,128,80,53,189.98,295,-6.00,3.00,-1018.00
2024-05-17 17:30:24.354685,0,0,105,0,0,0,75,76,127,80,53,190.06,295,-19.00,7.00,-1008.00
2024-05-17 17:30:24.457417,0,0,110,0,0,0,75,76,128,80,53,190.00,296,-13.00,-7.00,-954.00
2024-05-17 17:30:24.507054,0,0,116,0,0,0,75,76,128,80,53,190.03,296,2.00,5.00,-1025.00
2024-05-17 17:30:24.661441,0,0,123,0,0,0,75,76,128,80,53,190.06,296,-25.00,11.00,-1031.00
2024-05-17 17:30:24.762929,0,1,129,0,0,0,75,76,128,80,53,190.01,296,-9.00,-17.00,-981.00
2024-05-17 17:30:24.864295,0,1,135,0,0,0,75,76,129,80,53,190.05,296,-8.00,-2.00,-999.00
2024-05-17 17:30:24.966992,-1,1,140,0,0,0,75,76,128,80,53,190.01,296,-7.00,-1.00,-978.00
2024-05-17 17:30:25.016969,0,1,146,0,0,0,75,76,129,80,53,190.06,296,-2.00,-2.00,-1008.00
2024-05-17 17:30:25.119395,-1,0,152,0,0,0,75,76,129,80,53,190.03,296,-7.00,-9.00,-963.00
2024-05-17 17:30:25.221056,-1,0,158,0,0,0,75,76,128,80,53,190.08,296,-20.00,5.00,-997.00
2024-05-17 17:30:25.386871,-1,0,164,0,0,0,75,76,128,80,53,190.06,296,0.00,4.00,-1014.00
2024-05-17 17:30:25.425898,-1,0,170,0,0,0,75,76,128,80,53,190.04,297,-12.00,0.00,-984.00
2024-05-17 17:30:25.581382,0,0,176,0,0,0,75,76,128,80,53,190.04,297,-12.00,-2.00,-970.00
2024-05-17 17:30:25.629933,0,0,-177,0,0,0,75,76,128,80,53,190.03,297,-4.00,9.00,-1014.00
2024-05-17 17:30:25.786294,0,0,-171,0,0,0,75,76,128,80,53,189.97,297,-10.00,14.00,-1017.00
2024-05-17 17:30:25.833858,-1,0,-165,0,0,0,75,76,127,80,53,190.02,297,-17.00,8.00,-1010.00
2024-05-17 17:30:25.990972,0,0,-158,0,0,0,75,76,128,80,53,189.98,297,-1.00,9.00,-1006.00
2024-05-17 17:30:26.037868,-1,0,-152,0,0,0,75,76,127,80,53,189.99,297,-12.00,15.00,-1000.00
2024-05-17 17:30:26.140304,-1,0,-146,0,0,0,75,76,127,80,53,189.94,297,-8.00,7.00,-1007.00
2024-05-17 17:30:26.241972,-1,0,-140,0,0,0,75,76,126,80,53,189.92,297,-13.00,13.00,-1013.00
2024-05-17 17:30:26.344133,-1,0,-134,0,0,0,75,76,125,80,53,189.94,297,-9.00,8.00,-1003.00
2024-05-17 17:30:26.503011,-1,0,-128,0,0,0,75,76,125,80,53,190.00,298,-15.00,14.00,-1004.00
2024-05-17 17:30:26.547820,-1,0,-122,0,0,0,75,76,125,70,53,189.92,298,8.00,11.00,-1007.00
2024-05-17 17:30:26.709264,-1,0,-117,0,0,0,74,77,125,70,53,189.97,298,-22.00,25.00,-1052.00
2024-05-17 17:30:26.751853,-1,0,-111,0,0,0,74,77,125,70,53,190.04,298,-22.00,16.00,-1004.00
2024-05-17 17:30:26.917980,-1,0,-105,0,0,0,74,77,125,70,53,189.97,298,-7.00,10.00,-978.00
2024-05-17 17:30:26.957850,-1,0,-99,0,0,0,74,77,125,70,53,189.94,298,-16.00,5.00,-1002.00
2024-05-17 17:30:27.058256,0,0,-93,0,0,0,74,77,124,70,53,190.02,298,-11.00,29.00,-1021.00
2024-05-17 17:30:27.219928,0,0,-87,0,0,0,74,77,124,70,53,190.01,298,-1.00,23.00,-1014.00
2024-05-17 17:30:27.261730,0,0,-81,0,0,0,74,77,124,70,53,190.01,298,-34.00,38.00,-1031.00
2024-05-17 17:30:27.428584,0,0,-74,0,0,0,74,77,124,70,53,189.95,298,-30.00,37.00,-1006.00
2024-05-17 17:30:27.465798,0,0,-68,0,0,0,74,77,124,70,53,189.95,299,0.00,25.00,-1025.00
2024-05-17 17:30:27.629802,0,-1,-62,0,0,0,74,77,125,70,53,189.92,299,-4.00,31.00,-1006.00
2024-05-17 17:30:27.669849,0,-1,-50,0,0,0,75,77,124,70,53,190.03,299,-13.00,8.00,-975.00
2024-05-17 17:30:27.836557,0,-1,-44,0,0,0,75,77,124,70,53,190.05,299,-12.00,29.00,-999.00
2024-05-17 17:30:27.873792,0,0,-38,0,0,0,75,77,124,70,53,189.95,299,-6.00,23.00,-1001.00
2024-05-17 17:30:28.039081,0,0,-32,0,0,0,75,77,124,70,53,189.98,299,-9.00,24.00,-990.00
2024-05-17 17:30:28.078690,0,0,-26,0,0,0,75,77,124,70,53,189.95,299,-8.00,19.00,-1002.00
2024-05-17 17:30:28.179793,0,0,-21,0,0,0,75,77,123,70,52,190.03,299,-17.00,34.00,-993.00
2024-05-17 17:30:28.346180,0,0,-16,0,0,0,75,77,123,70,52,190.01,299,-10.00,28.00,-996.00
2024-05-17 17:30:28.383844,0,0,-13,0,0,0,75,77,123,70,52,189.96,300,-11.00,28.00,-992.00
2024-05-17 17:30:28.434759,0,0,-11,0,0,0,75,77,122,70,52,190.02,300,-14.00,18.00,-986.00
2024-05-17 17:30:28.555583,0,0,-9,0,0,0,75,77,122,70,52,189.90,300,-6.00,3.00,-964.00
2024-05-17 17:30:28.638911,0,0,-8,0,0,0,74,76,122,70,52,189.88,300,-26.00,41.00,-1007.00
2024-05-17 17:30:28.756800,0,0,-7,0,0,0,74,76,122,70,52,189.94,300,7.00,10.00,-1021.00
2024-05-17 17:30:28.842872,0,0,-6,0,0,0,74,76,122,70,52,189.95,300,0.00,28.00,-1005.00
2024-05-17 17:30:28.960563,0,0,-5,0,0,0,74,76,122,70,52,189.96,300,-2.00,13.00,-993.00
2024-05-17 17:30:29.047636,0,0,-5,0,0,0,74,76,122,70,52,189.88,300,7.00,11.00,-999.00
2024-05-17 17:30:29.165719,0,0,-5,0,0,0,74,76,123,70,52,189.98,300,13.00,14.00,-1003.00
2024-05-17 17:30:29.250942,0,0,-5,0,0,0,74,76,123,70,52,189.94,300,-11.00,16.00,-991.00
2024-05-17 17:30:29.370631,0,0,-5,0,0,0,74,76,123,70,52,189.93,301,14.00,14.00,-1003.00
2024-05-17 17:30:29.454853,0,0,-5,0,0,0,74,76,123,70,52,189.98,301,2.00,13.00,-1000.00
2024-05-17 17:30:29.575438,0,0,-5,0,0,0,74,76,123,70,52,190.05,301,-9.00,24.00,-1002.00
2024-05-17 17:30:29.658886,0,0,-5,0,0,0,74,76,123,70,52,190.02,301,3.00,30.00,-1018.00
2024-05-17 17:30:29.760956,0,0,-5,0,0,0,74,76,123,70,52,189.96,301,18.00,12.00,-1003.00
2024-05-17 17:30:29.882263,0,0,-5,0,0,0,74,76,123,70,52,190.01,301,2.00,27.00,-1015.00
2024-05-17 17:30:29.965045,0,0,-5,0,0,0,74,76,123,70,52,189.94,301,-5.00,22.00,-1003.00
2024-05-17 17:30:30.087501,0,0,-5,0,0,0,74,76,123,70,52,190.00,301,-7.00,22.00,-998.00
2024-05-17 17:30:30.168972,0,0,-5,0,0,0,74,76,123,70,52,189.98,301,12.00,4.00,-1014.00
2024-05-17 17:30:30.291825,0,0,-5,0,0,0,74,76,123,70,52,189.92,301,3.00,4.00,-997.00
2024-05-17 17:30:30.373757,0,0,-5,0,0,0,74,76,124,70,52,190.02,302,1.00,20.00,-995.00
2024-05-17 17:30:30.496631,0,0,-5,0,0,0,74,76,124,70,52,190.05,302,0.00,16.00,-1006.00
2024-05-17 17:30:30.576760,0,0,-5,0,0,0,74,76,124,70,52,190.01,302,4.00,5.00,-986.00
2024-05-17 17:30:30.701508,0,0,-5,0,0,0,74,76,125,70,52,190.06,302,3.00,14.00,-1014.00
2024-05-17 17:30:30.781072,0,0,-5,0,0,0,74,76,125,70,52,190.01,302,-6.00,19.00,-1004.00
2024-05-17 17:30:30.907331,0,0,-5,0,0,0,74,76,125,70,52,189.98,302,7.00,24.00,-998.00
2024-05-17 17:30:30.984633,0,0,-5,0,0,0,74,76,125,70,52,190.02,302,5.00,27.00,-996.00
2024-05-17 17:30:31.110881,0,0,-5,0,0,0,74,76,125,70,52,189.95,302,-21.00,28.00,-976.00
2024-05-17 17:30:31.188700,0,0,-11,0,0,0,74,76,125,70,52,189.96,302,4.00,25.00,-1003.00
2024-05-17 17:30:31.315725,0,-1,-17,0,0,0,74,76,125,70,52,189.96,302,2.00,25.00,-983.00
2024-05-17 17:30:31.392544,0,-1,-23,0,0,0,74,76,124,70,52,190.02,303,11.00,25.00,-1020.00
2024-05-17 17:30:31.495681,0,-1,-29,0,0,0,74,76,124,70,52,190.01,303,10.00,24.00,-1003.00
2024-05-17 17:30:31.597212,0,-1,-35,0,0,0,74,76,124,70,52,189.93,303,9.00,21.00,-993.00
2024-05-17 17:30:31.725371,0,-1,-42,0,0,0,75,76,124,70,52,189.99,303,8.00,31.00,-1024.00
2024-05-17 17:30:31.800547,0,-1,-48,0,0,0,75,76,123,70,52,189.98,303,0.00,28.00,-1012.00
2024-05-17 17:30:31.931683,0,-1,-54,0,0,0,75,76,123,70,52,190.05,303,12.00,14.00,-992.00
2024-05-17 17:30:32.004456,0,-1,-60,0,0,0,75,76,123,70,52,189.91,303,8.00,15.00,-981.00
2024-05-17 17:30:32.106729,0,-1,-66,0,0,0,75,76,123,70,52,190.07,303,1.00,25.00,-995.00
2024-05-17 17:30:32.208560,0,-1,-72,0,0,0,75,76,123,70,52,190.07,303,-5.00,24.00,-1011.00
2024-05-17 17:30:32.339727,0,0,-78,0,0,0,75,76,124,70,52,190.02,303,-9.00,22.00,-983.00
2024-05-17 17:30:32.361487,0,0,-84,0,0,0,75,76,124,70,52,190.03,304,-11.00,17.00,-1011.00
2024-05-17 17:30:32.463511,-1,0,-90,0,0,0,75,76,125,70,52,190.03,304,-23.00,29.00,-1040.00
2024-05-17 17:30:32.646869,-1,0,-96,0,0,0,75,76,124,70,52,190.02,304,-18.00,29.00,-1025.00
2024-05-17 17:30:32.667500,-1,0,-102,0,0,0,74,76,124,70,52,190.03,304,-22.00,28.00,-1006.00
2024-05-17 17:30:32.851707,-1,0,-108,0,0,0,74,76,124,70,52,189.96,304,-39.00,30.00,-997.00
2024-05-17 17:30:32.873092,-1,0,-114,0,0,0,74,76,124,70,52,189.99,304,-18.00,9.00,-989.00
2024-05-17 17:30:32.973409,-1,0,-120,0,0,0,74,76,125,70,52,189.96,304,-33.00,31.00,-1015.00
2024-05-17 17:30:33.161060,0,0,-126,0,0,0,74,76,124,70,52,190.00,304,-12.00,10.00,-1015.00
2024-05-17 17:30:33.177678,0,0,-132,0,0,0,74,76,124,70,52,189.95,304,-16.00,6.00,-1016.00
2024-05-17 17:30:33.363683,0,0,-138,0,0,0,74,76,124,70,52,190.01,304,-19.00,10.00,-1007.00
2024-05-17 17:30:33.381491,0,0,-144,0,0,0,74,76,125,70,52,190.05,305,-15.00,0.00,-992.00
2024-05-17 17:30:33.484186,0,0,-150,0,0,0,74,76,125,70,52,190.01,305,-17.00,-5.00,-986.00
2024-05-17 17:30:33.585466,0,0,-156,0,0,0,74,76,125,70,52,190.00,305,-20.00,5.00,-1007.00
2024-05-17 17:30:33.773470,0,0,-162,0,0,0,74,76,126,70,52,190.02,305,-4.00,-11.00,-996.00
2024-05-17 17:30:33.789443,0,0,-168,0,0,0,74,76,126,70,52,190.00,305,-8.00,-20.00,-995.00
2024-05-17 17:30:33.978049,0,1,-174,0,0,0,74,76,126,70,52,189.96,305,-12.00,-16.00,-984.00
2024-05-17 17:30:33.993414,0,1,179,0,0,0,74,76,126,70,52,189.95,305,6.00,-24.00,-978.00
2024-05-17 17:30:34.182866,0,1,174,0,0,0,74,76,126,70,51,189.97,305,-23.00,11.00,-990.00
2024-05-17 17:30:34.198122,0,0,168,0,0,0,74,76,127,70,51,189.95,305,-2.00,-17.00,-974.00
2024-05-17 17:30:34.388304,0,0,162,0,0,0,74,76,127,70,51,189.93,305,-5.00,-6.00,-981.00
2024-05-17 17:30:34.402861,0,0,156,0,0,0,74,76,127,70,51,189.94,306,4.00,14.00,-1033.00
2024-05-17 17:30:34.592473,0,0,150,0,0,0,74,76,127,70,51,190.00,306,11.00,-12.00,-997.00
2024-05-17 17:30:34.605356,0,0,144,0,0,0,74,76,127,70,51,190.04,306,3.00,-11.00,-968.00
2024-05-17 17:30:34.798393,0,0,138,0,0,0,73,77,128,70,51,190.02,306,13.00,-17.00,-987.00
2024-05-17 17:30:34.810417,0,0,132,0,0,0,73,77,128,70,51,190.00,306,18.00,-7.00,-1008.00
2024-05-17 17:30:35.005538,0,0,126,0,0,0,73,77,128,70,51,190.01,306,-6.00,0.00,-995.00
2024-05-17 17:30:35.013382,0,0,120,0,0,0,73,77,129,80,51,190.05,306,6.00,16.00,-1026.00
2024-05-17 17:30:35.210638,0,0,114,0,0,0,73,77,129,80,51,190.04,306,17.00,1.00,-997.00
2024-05-17 17:30:35.217319,0,0,108,0,0,0,73,77,129,80,51,189.97,306,6.00,3.00,-998.00
2024-05-17 17:30:35.322660,0,0,102,0,0,0,73,77,129,80,51,190.03,306,14.00,8.00,-987.00
2024-05-17 17:30:35.425352,0,0,96,0,0,0,73,77,130,80,51,190.05,307,12.00,5.00,-1003.00
2024-05-17 17:30:35.523304,0,0,89,0,0,0,73,77,130,80,51,190.03,307,-16.00,26.00,-992.00
2024-05-17 17:30:35.718838,0,0,83,0,0,0,73,77,130,80,51,190.01,307,31.00,2.00,-990.00
2024-05-17 17:30:35.727255,0,0,77,0,0,0,74,77,129,80,51,189.95,307,22.00,25.00,-1055.00
2024-05-17 17:30:35.829461,0,0,71,0,0,0,74,77,130,80,51,190.00,307,-2.00,44.00,-1030.00
2024-05-17 17:30:36.026050,0,0,65,0,0,0,74,77,130,80,51,190.06,307,3.00,33.00,-1015.00
2024-05-17 17:30:36.033311,0,0,59,0,0,0,74,77,130,80,51,190.02,307,17.00,16.00,-998.00
2024-05-17 17:30:36.230854,0,0,53,0,0,0,74,77,130,80,51,190.07,307,11.00,7.00,-994.00
2024-05-17 17:30:36.231062,0,0,47,0,0,0,74,77,129,80,51,190.08,307,23.00,12.00,-1000.00
2024-05-17 17:30:36.288263,0,0,42,0,0,0,74,77,129,80,51,190.04,307,17.00,11.00,-1003.00
2024-05-17 17:30:36.390420,0,0,36,0,0,0,74,77,129,80,51,190.01,308,-4.00,31.00,-985.00
2024-05-17 17:30:36.538009,0,0,30,0,0,0,74,77,129,80,51,190.00,308,14.00,21.00,-1016.00
2024-05-17 17:30:36.594292,0,0,24,0,0,0,74,77,129,80,51,190.10,308,3.00,34.00,-1003.00
2024-05-17 17:30:36.742816,0,0,18,0,0,0,74,76,129,80,51,190.05,308,16.00,22.00,-1006.00
2024-05-17 17:30:36.800528,0,0,12,0,0,0,74,76,128,80,51,190.07,308,27.00,13.00,-988.00
2024-05-17 17:30:36.900263,0,-1,8,0,0,0,74,76,129,80,51,190.06,308,15.00,33.00,-1009.00
2024-05-17 17:30:37.050018,0,-1,4,0,0,0,74,76,129,80,51,190.08,308,0.00,35.00,-1004.00
2024-05-17 17:30:37.104285,0,-1,2,0,0,0,74,76,128,80,51,189.98,308,21.00,26.00,-997.00
2024-05-17 17:30:37.206155,0,-1,0,0,0,0,74,76,128,80,51,189.98,308,31.00,25.00,-1013.00
2024-05-17 17:30:37.357204,0,-1,0,0,0,0,74,76,128,80,51,190.02,308,5.00,18.00,-1001.00
2024-05-17 17:30:37.411138,0,-1,-2,0,0,0,74,76,128,80,51,190.04,309,15.00,21.00,-1003.00
2024-05-17 17:30:37.562017,0,-1,-2,0,0,0,74,76,128,80,51,189.96,309,6.00,20.00,-992.00
2024-05-17 17:30:37.615212,0,-1,-3,0,0,0,74,76,128,80,51,190.02,309,14.00,19.00,-1005.00
2024-05-17 17:30:37.766971,0,-1,-3,0,0,0,74,76,128,80,51,190.03,309,13.00,19.00,-1001.00
2024-05-17 17:30:37.819367,0,0,-3,0,0,0,74,76,128,80,51,190.00,309,0.00,21.00,-1000.00
2024-05-17 17:30:37.971864,0,0,-3,0,0,0,74,76,127,80,51,190.06,309,3.00,30.00,-1005.00
2024-05-17 17:30:38.023386,0,0,-3,0,0,0,74,76,128,80,51,190.03,309,-11.00,47.00,-1038.00
2024-05-17 17:30:38.176882,0,0,-3,0,0,0,74,76,127,80,51,190.05,309,8.00,1.00,-997.00
2024-05-17 17:30:38.227270,0,-1,-3,0,0,0,74,76,127,80,51,190.00,309,0.00,21.00,-1023.00
2024-05-17 17:30:38.381385,0,-1,-3,0,0,0,74,76,127,80,51,189.99,309,-19.00,33.00,-1008.00
2024-05-17 17:30:38.431359,0,0,-3,0,0,0,74,76,127,80,51,189.98,310,-7.00,22.00,-1005.00
2024-05-17 17:30:38.586575,0,0,-3,0,0,0,74,76,127,80,51,190.03,310,-15.00,24.00,-989.00
2024-05-17 17:30:38.640741,0,0,-3,0,0,0,74,76,127,80,51,190.03,310,-6.00,22.00,-1029.00
2024-05-17 17:30:38.737538,0,0,-3,0,0,0,74,76,127,80,51,189.99,310,-11.00,22.00,-1012.00
2024-05-17 17:30:38.893309,0,0,-3,0,0,0,74,76,126,70,51,189.94,310,-20.00,19.00,-1019.00
2024-05-17 17:30:38.941336,0,0,-3,0,0,0,74,76,126,70,51,190.01,310,-11.00,17.00,-997.00
2024-05-17 17:30:39.044429,0,0,-3,0,0,0,74,76,126,70,51,190.00,310,0.00,10.00,-1005.00
2024-05-17 17:30:39.200606,0,0,-3,0,0,0,74,76,126,70,50,189.95,310,0.00,18.00,-1002.00
2024-05-17 17:30:39.247328,0,0,-3,0,0,0,74,76,125,70,50,190.01,310,2.00,13.00,-986.00
2024-05-17 17:30:39.405616,0,0,-3,0,0,0,74,76,125,70,50,190.04,310,-2.00,4.00,-1000.00
2024-05-17 17:30:39.455056,0,0,-3,0,0,0,74,76,125,70,50,189.99,311,-18.00,21.00,-998.00
2024-05-17 17:30:39.553528,0,0,-3,0,0,0,74,76,125,70,50,190.00,311,-4.00,27.00,-1026.00
2024-05-17 17:30:39.604318,0,0,-3,0,0,0,74,76,125,70,50,189.95,311,0.00,24.00,-1005.00
2024-05-17 17:30:39.757362,0,0,-3,0,0,0,74,76,124,70,50,189.98,311,-20.00,25.00,-982.00
2024-05-17 17:30:39.917598,0,0,-3,0,0,0,74,76,124,70,50,190.03,311,-16.00,33.00,-1034.00
2024-05-17 17:30:39.962240,0,0,-3,0,0,0,74,76,125,70,50,189.95,311,-10.00,23.00,-1005.00
2024-05-17 17:30:40.012501,0,0,-3,0,0,0,74,76,125,70,50,190.04,311,-9.00,24.00,-1020.00
2024-05-17 17:30:40.124841,0,0,-3,0,0,0,74,76,125,70,50,190.00,311,-12.00,6.00,-977.00
2024-05-17 17:30:40.216250,0,0,-3,0,0,0,74,76,125,70,50,189.98,311,-16.00,28.00,-995.00
2024-05-17 17:30:40.327858,0,0,-3,0,0,0,74,76,125,70,50,190.00,311,-22.00,19.00,-981.00
2024-05-17 17:30:40.420418,0,0,-3,0,0,0,74,76,125,70,50,190.00,312,-18.00,5.00,-998.00
2024-05-17 17:30:40.533158,0,0,-3,0,0,0,74,76,125,70,50,189.98,312,-9.00,21.00,-1011.00
2024-05-17 17:30:40.624261,0,0,-3,0,0,0,74,76,125,70,50,190.05,312,-20.00,27.00,-995.00
2024-05-17 17:30:40.736744,0,0,-3,0,0,0,74,76,125,70,50,190.02,312,-24.00,25.00,-1006.00
2024-05-17 17:30:40.828391,0,0,-3,0,0,0,74,76,125,70,50,189.98,312,-15.00,20.00,-1002.00
2024-05-17 17:30:40.941378,0,0,-3,0,0,0,74,76,125,70,50,189.93,312,8.00,5.00,-1005.00
2024-05-17 17:30:41.032169,0,0,-3,0,0,0,74,76,125,70,50,189.90,312,4.00,13.00,-991.00
2024-05-17 17:30:41.153592,0,0,-3,0,0,0,74,76,125,70,50,190.04,312,4.00,2.00,-980.00
2024-05-17 17:30:41.236108,0,0,-3,0,0,0,74,76,126,70,50,190.11,312,-4.00,20.00,-1005.00
2024-05-17 17:30:41.453497,0,0,-3,0,0,0,74,76,126,70,50,190.02,312,-8.00,10.00,-994.00
2024-05-17 17:30:41.453846,0,0,-3,0,0,0,74,76,126,70,50,190.00,313,-17.00,27.00,-997.00
2024-05-17 17:30:41.542537,0,0,-3,0,0,0,74,76,126,70,50,189.97,313,-2.00,0.00,-960.00
2024-05-17 17:30:41.658504,0,0,-3,0,0,0,74,76,126,70,50,189.98,313,-21.00,27.00,-1012.00
2024-05-17 17:30:41.746493,0,0,-3,0,0,0,73,75,126,70,50,189.99,313,-28.00,33.00,-988.00
2024-05-17 17:30:41.862918,0,-1,-3,0,0,0,73,75,127,70,50,190.03,313,-16.00,32.00,-1005.00
2024-05-17 17:30:41.950123,0,-1,-3,0,0,0,73,75,127,70,50,189.97,313,-34.00,32.00,-992.00
2024-05-17 17:30:42.074335,0,-1,-3,0,0,0,73,75,127,70,50,189.99,313,-6.00,42.00,-1032.00
2024-05-17 17:30:42.154055,0,-1,-3,0,0,0,73,75,127,70,50,190.04,313,-12.00,26.00,-1004.00
2024-05-17 17:30:42.257150,0,-1,-3,0,0,0,73,75,126,70,50,190.03,313,-13.00,21.00,-995.00
2024-05-17 17:30:42.374989,0,-1,-3,0,0,0,73,75,127,70,50,190.02,313,-17.00,32.00,-978.00
2024-05-17 17:30:42.462655,0,-1,-3,0,0,0,73,75,127,80,50,190.01,314,-13.00,25.00,-994.00
2024-05-17 17:30:42.563409,0,-1,-3,0,0,0,73,75,127,80,50,190.05,314,-5.00,19.00,-984.00
2024-05-17 17:30:42.664407,0,-1,-3,0,0,0,73,75,128,80,50,190.04,314,-10.00,4.00,-996.00
2024-05-17 17:30:42.766110,0,-1,-3,0,0,0,73,75,128,80,50,190.07,314,-16.00,5.00,-975.00
2024-05-17 17:30:42.886944,0,-1,-3,0,0,0,73,75,128,70,50,190.05,314,3.00,12.00,-1001.00
2024-05-17 17:30:42.970330,0,-1,-3,0,0,0,73,75,128,70,50,190.03,314,-2.00,19.00,-1006.00
2024-05-17 17:30:43.091770,0,-1,-3,0,0,0,73,75,128,70,50,190.04,314,-2.00,12.00,-991.00
2024-05-17 17:30:43.175083,0,-1,-3,0,0,0,73,75,128,80,50,190.03,314,0.00,12.00,-1001.00
2024-05-17 17:30:43.276327,0,-1,-3,0,0,0,73,75,128,80,50,190.04,314,-8.00,23.00,-994.00
2024-05-17 17:30:43.399025,0,-1,-3,0,0,0,73,75,128,80,50,190.06,315,-6.00,29.00,-1009.00
2024-05-17 17:30:43.481579,0,-1,-3,0,0,0,73,75,128,80,50,190.06,315,-16.00,39.00,-1002.00
2024-05-17 17:30:43.582328,0,-1,-3,0,0,0,73,75,128,80,50,190.07,315,-11.00,32.00,-998.00
2024-05-17 17:30:43.684627,0,-1,-3,0,0,0,73,75,128,80,50,190.06,315,-11.00,29.00,-1006.00
2024-05-17 17:30:43.786383,0,-1,-3,0,0,0,73,76,129,80,50,190.07,315,16.00,21.00,-985.00
2024-05-17 17:30:43.910954,0,-1,-3,0,0,0,73,76,128,80,50,190.02,315,-10.00,33.00,-996.00
2024-05-17 17:30:43.940183,0,-1,-3,0,0,0,73,76,128,80,50,189.99,315,-4.00,25.00,-1000.00
2024-05-17 17:30:44.116327,0,-1,-3,0,0,0,73,76,128,80,50,190.01,315,-12.00,40.00,-970.00
2024-05-17 17:30:44.144711,0,-1,-3,0,0,0,73,76,128,80,50,189.98,315,-6.00,34.00,-1014.00
2024-05-17 17:30:44.247134,0,-1,-3,0,0,0,73,76,128,80,50,190.05,315,0.00,21.00,-991.00
2024-05-17 17:30:44.347121,0,-1,-3,0,0,0,73,76,128,80,50,190.03,316,-1.00,19.00,-1009.00
2024-05-17 17:30:44.525302,0,-1,-3,0,0,0,73,76,127,80,50,190.02,316,0.00,18.00,-951.00
2024-05-17 17:30:44.550948,0,-1,-3,0,0,0,73,76,127,80,50,189.96,316,1.00,29.00,-1003.00
2024-05-17 17:30:44.730159,0,-1,-3,0,0,0,73,76,126,80,50,190.06,316,-7.00,12.00,-979.00
2024-05-17 17:30:44.755095,0,-1,-3,0,0,0,73,76,126,70,50,189.99,316,-7.00,7.00,-987.00
2024-05-17 17:30:44.939825,0,-1,-3,0,0,0,73,76,126,70,50,190.02,316,7.00,13.00,-1013.00
2024-05-17 17:30:44.958962,0,-1,-3,0,0,0,73,76,126,70,50,190.03,316,-6.00,27.00,-992.00
2024-05-17 17:30:45.139705,0,-1,-3,0,0,0,73,76,125,70,50,189.97,316,0.00,32.00,-994.00
2024-05-17 17:30:45.162936,0,-1,-3,0,0,0,73,76,125,70,49,189.95,316,-1.00,31.00,-1011.00
2024-05-17 17:30:45.264891,0,-1,-3,0,0,0,73,76,125,70,49,189.99,316,16.00,21.00,-1021.00
2024-05-17 17:30:45.449628,0,-1,-3,0,0,0,73,76,125,70,49,189.97,317,5.00,15.00,-982.00
2024-05-17 17:30:45.468911,0,-1,-3,0,0,0,73,76,125,70,49,189.98,317,2.00,27.00,-1020.00
2024-05-17 17:30:45.571524,0,-1,-3,0,0,0,73,76,125,70,49,189.99,317,21.00,18.00,-1004.00
2024-05-17 17:30:45.719577,0,-1,-3,0,0,0,73,76,125,70,49,190.00,317,-8.00,46.00,-999.00
2024-05-17 17:30:45.774956,0,-1,-3,0,0,0,73,75,125,70,49,189.98,317,-7.00,35.00,-989.00
2024-05-17 17:30:45.959575,0,-1,-3,0,0,0,73,75,125,70,49,190.01,317,8.00,13.00,-995.00
2024-05-17 17:30:45.978963,0,-1,-3,0,0,0,73,75,125,70,49,189.96,317,3.00,23.00,-983.00
2024-05-17 17:30:46.163603,0,-1,-3,0,0,0,73,75,125,70,49,189.99,317,2.00,15.00,-980.00
2024-05-17 17:30:46.182898,0,-1,-3,0,0,0,73,75,125,70,49,190.04,317,13.00,17.00,-1011.00
2024-05-17 17:30:46.368528,0,-1,-3,0,0,0,73,75,125,70,49,189.99,317,9.00,15.00,-995.00
2024-05-17 17:30:46.387100,0,0,-3,0,0,0,73,75,124,70,49,190.01,318,0.00,23.00,-989.00
2024-05-17 17:30:46.573374,0,0,-3,0,0,0,73,75,124,70,49,190.05,318,5.00,31.00,-980.00
2024-05-17 17:30:46.590805,0,0,-3,0,0,0,73,75,124,70,49,189.94,318,-10.00,14.00,-971.00
2024-05-17 17:30:46.778132,0,-1,-3,0,0,0,73,75,124,70,49,190.01,318,-17.00,29.00,-992.00
2024-05-17 17:30:46.794850,0,-1,-3,0,0,0,74,75,124,70,49,190.07,318,-1.00,32.00,-1020.00
2024-05-17 17:30:46.983280,0,-1,-3,0,0,0,74,75,124,70,49,189.97,318,15.00,4.00,-971.00
2024-05-17 17:30:46.998763,0,0,-3,0,0,0,74,75,125,70,49,189.98,318,-3.00,30.00,-1008.00
2024-05-17 17:30:47.192306,0,-1,-3,0,0,0,74,75,125,70,49,189.97,318,16.00,16.00,-994.00
2024-05-17 17:30:47.203278,0,-1,-3,0,0,0,74,75,125,70,49,189.92,318,12.00,8.00,-1004.00
2024-05-17 17:30:47.393081,0,0,-3,0,0,0,74,75,125,70,49,189.97,318,-22.00,21.00,-977.00
2024-05-17 17:30:47.406772,0,0,-3,0,0,0,74,75,126,70,49,190.03,319,-7.00,10.00,-987.00
2024-05-17 17:30:47.611556,0,0,-3,0,0,0,74,75,126,70,49,190.03,319,-10.00,31.00,-976.00
2024-05-17 17:30:47.611672,0,0,-3,0,0,0,74,75,126,70,49,190.02,319,-16.00,35.00,-995.00
2024-05-17 17:30:47.662858,0,-1,-3,0,0,0,74,75,126,70,49,190.06,319,7.00,23.00,-1003.00
2024-05-17 17:30:47.764820,0,-1,-3,0,0,0,73,76,126,70,49,189.98,319,-10.00,22.00,-990.00
2024-05-17 17:30:47.867016,0,-1,-3,0,0,0,73,76,126,70,49,190.01,319,12.00,6.00,-984.00
2024-05-17 17:30:48.006794,0,-1,-3,0,0,0,73,76,126,70,49,190.08,319,-4.00,12.00,-1007.00
2024-05-17 17:30:48.070827,0,-1,-3,0,0,0,73,76,126,70,49,190.04,319,-5.00,27.00,-1000.00
2024-05-17 17:30:48.215968,0,-1,-3,0,0,0,73,76,126,70,49,190.02,319,-1.00,1.00,-986.00
2024-05-17 17:30:48.275494,0,0,-3,0,0,0,73,76,126,70,49,190.05,319,10.00,17.00,-989.00
2024-05-17 17:30:48.416517,0,-1,-3,0,0,0,73,76,126,70,49,190.07,320,-8.00,18.00,-985.00
2024-05-17 17:30:48.478942,0,-1,-3,0,0,0,73,76,127,70,49,190.11,320,-10.00,20.00,-995.00
2024-05-17 17:30:48.621130,0,0,-3,0,0,0,73,76,127,70,49,190.00,320,3.00,0.00,-988.00
2024-05-17 17:30:48.683252,0,0,-3,0,0,0,73,76,127,70,49,190.08,320,19.00,-1.00,-997.00
2024-05-17 17:30:48.785159,0,0,-3,0,0,0,73,75,127,70,49,190.02,320,3.00,25.00,-999.00
2024-05-17 17:30:48.930108,0,0,-3,0,0,0,73,75,127,70,49,190.08,320,0.00,31.00,-996.00
2024-05-17 17:30:48.989560,0,0,-3,0,0,0,73,75,127,70,49,190.08,320,-3.00,29.00,-1016.00
2024-05-17 17:30:49.134489,0,-1,-3,0,0,0,73,75,127,70,49,190.01,320,12.00,12.00,-985.00
2024-05-17 17:30:49.194218,0,0,-3,0,0,0,73,75,127,70,49,190.09,320,-4.00,28.00,-982.00
2024-05-17 17:30:49.294769,0,-1,-3,0,0,0,73,75,127,70,49,190.10,320,18.00,10.00,-1006.00
2024-05-17 17:30:49.440603,0,-1,-3,0,0,0,73,75,128,80,49,190.09,321,-8.00,21.00,-986.00
2024-05-17 17:30:49.501813,0,-1,-3,0,0,0,73,75,128,80,49,190.05,321,-8.00,30.00,-1006.00
2024-05-17 17:30:49.601322,0,-1,-3,0,0,0,73,75,128,80,49,190.08,321,16.00,37.00,-1025.00
2024-05-17 17:30:49.747623,0,-1,-3,0,0,0,73,75,128,80,49,190.05,321,22.00,22.00,-1011.00
2024-05-17 17:30:49.804890,0,-1,-3,0,0,0,73,76,128,80,49,190.07,321,0.00,31.00,-975.00
2024-05-17 17:30:49.952541,0,-1,-3,0,0,0,73,76,128,80,49,190.08,321,14.00,18.00,-987.00
