TS,pitch,roll,yaw,vgx,vgy,vgz,templ,temph,tof,h,bat,baro,time,agx,agy,agz
2024-05-17 17:31:16.631372,0,0,-1,0,0,0,77,78,10,0,48,188.50,327,0.00,6.00,-998.00
2024-05-17 17:31:16.781108,0,0,-1,0,0,0,77,78,10,0,48,188.49,327,1.00,6.00,-1000.00
2024-05-17 17:31:16.835407,0,0,-1,0,0,0,77,78,10,0,48,188.51,327,2.00,6.00,-1002.00
2024-05-17 17:31:16.986135,0,0,-1,0,0,0,77,79,10,0,48,188.50,327,1.00,6.00,-998.00
2024-05-17 17:31:17.039526,0,0,-1,0,0,0,77,79,10,0,48,188.45,327,0.00,6.00,-998.00
2024-05-17 17:31:17.190409,0,0,-1,0,0,0,77,79,10,0,48,188.48,327,2.00,6.00,-1001.00
2024-05-17 17:31:17.243224,0,0,-1,0,0,0,77,79,10,0,48,188.52,327,3.00,5.00,-1001.00
2024-05-17 17:31:17.345318,0,0,-1,0,0,0,77,79,10,0,48,188.49,327,1.00,8.00,-1000.00
2024-05-17 17:31:17.447297,0,0,-1,0,0,0,77,79,10,0,48,188.49,327,0.00,5.00,-1002.00
2024-05-17 17:31:17.600223,0,0,-1,0,0,0,77,79,10,0,48,188.48,327,0.00,5.00,-998.00
2024-05-17 17:31:17.651447,0,0,-1,0,0,0,77,79,10,0,48,188.47,327,0.00,6.00,-998.00
2024-05-17 17:31:17.804899,0,0,-1,0,0,0,77,79,10,0,48,188.47,327,0.00,6.00,-999.00
2024-05-17 17:31:17.855596,0,0,-1,0,0,0,77,79,10,0,48,188.44,327,1.00,8.00,-999.00
2024-05-17 17:31:18.009863,0,0,-1,0,0,0,76,79,10,0,48,188.48,327,1.00,6.00,-999.00
2024-05-17 17:31:18.059521,0,0,-1,0,0,0,76,79,10,0,48,188.46,327,2.00,7.00,-1001.00
2024-05-17 17:31:18.214786,0,0,-1,0,0,0,76,79,10,0,48,188.51,327,0.00,6.00,-1000.00
2024-05-17 17:31:18.263503,0,0,-1,0,0,0,76,79,10,0,48,188.50,327,1.00,5.00,-998.00
2024-05-17 17:31:18.365315,0,0,-1,0,0,0,76,79,10,0,48,188.52,327,1.00,4.00,-1001.00
2024-05-17 17:31:18.521857,0,0,-1,0,0,0,76,79,10,0,48,188.49,327,0.00,6.00,-1000.00
2024-05-17 17:31:18.570049,0,0,-1,0,0,0,76,79,10,0,48,188.47,327,2.00,6.00,-999.00
2024-05-17 17:31:18.673538,0,0,-1,0,0,0,76,79,10,0,48,188.50,327,1.00,6.00,-998.00
2024-05-17 17:31:18.773384,0,0,-1,0,0,0,76,79,10,0,48,188.52,327,1.00,8.00,-999.00
2024-05-17 17:31:18.932535,0,0,-1,0,0,0,76,79,10,0,48,188.48,327,1.00,7.00,-1000.00
2024-05-17 17:31:18.977392,0,0,-1,0,0,0,76,79,10,0,48,188.47,327,1.00,5.00,-999.00
2024-05-17 17:31:19.136149,0,0,-1,0,0,0,76,79,10,0,48,188.51,327,0.00,7.00,-998.00
2024-05-17 17:31:19.181551,0,0,-1,0,0,0,76,79,10,0,48,188.50,327,0.00,5.00,-998.00
2024-05-17 17:31:19.341047,0,0,-1,0,0,0,76,79,10,0,48,188.45,327,1.00,6.00,-998.00
2024-05-17 17:31:19.341224,0,0,-1,0,0,0,76,79,10,0,48,188.44,327,2.00,7.00,-1002.00
2024-05-17 17:31:19.443701,0,0,-1,0,0,0,76,79,10,0,48,188.43,327,1.00,5.00,-1002.00
2024-05-17 17:31:19.539351,0,0,-1,0,0,0,76,79,10,0,48,188.48,327,1.00,6.00,-999.00
2024-05-17 17:31:19.652444,0,0,-1,0,0,0,76,79,10,0,48,188.46,327,0.00,5.00,-999.00
2024-05-17 17:31:19.743336,0,0,-1,0,0,0,76,79,10,0,48,188.45,327,0.00,5.00,-999.00
2024-05-17 17:31:19.845845,0,0,-1,0,0,0,76,79,10,0,48,188.46,327,1.00,5.00,-1000.00
2024-05-17 17:31:19.962128,0,0,-1,0,0,0,76,79,10,0,48,188.44,328,2.00,7.00,-1000.00
2024-05-17 17:31:20.049209,0,0,-1,0,0,0,76,79,10,0,48,188.44,328,1.00,6.00,-1000.00
2024-05-17 17:31:20.160708,0,0,-1,0,0,0,76,79,10,0,48,188.44,328,-5.00,7.00,-1006.00
2024-05-17 17:31:20.253570,0,0,-1,0,0,0,76,79,10,0,48,188.44,328,5.00,15.00,-1000.00
2024-05-17 17:31:20.355044,0,0,0,0,0,0,76,79,10,0,48,188.44,328,-25.00,7.00,-1110.00
2024-05-17 17:31:20.467178,0,0,0,0,0,0,76,79,10,0,48,188.44,328,0.00,2.00,-1133.00
2024-05-17 17:31:20.559397,0,0,0,0,0,-2,76,79,10,0,48,188.44,328,-9.00,-12.00,-1265.00
2024-05-17 17:31:20.672013,0,0,0,0,0,-4,76,79,10,0,48,188.44,328,0.00,0.00,-1317.00
2024-05-17 17:31:20.763031,0,0,0,0,0,-6,76,79,14,0,48,188.53,328,-4.00,-6.00,-1159.00
2024-05-17 17:31:20.876807,0,0,0,0,0,-7,76,79,21,10,48,188.81,328,-23.00,3.00,-1065.00
2024-05-17 17:31:20.967140,0,0,0,0,0,-7,76,79,29,10,48,188.94,329,1.00,-31.00,-1037.00
2024-05-17 17:31:21.081589,0,1,0,0,0,-7,76,79,38,20,48,189.00,329,20.00,-20.00,-975.00
2024-05-17 17:31:21.171068,0,1,0,0,0,-6,76,79,46,30,48,189.05,329,-10.00,-8.00,-911.00
2024-05-17 17:31:21.286407,0,0,0,0,0,-5,76,79,54,30,48,189.08,329,21.00,-12.00,-932.00
2024-05-17 17:31:21.375113,0,0,0,0,0,-4,76,79,61,40,48,189.14,329,-21.00,27.00,-907.00
2024-05-17 17:31:21.491312,0,0,0,0,0,-3,76,79,68,40,48,189.24,329,0.00,13.00,-896.00
2024-05-17 17:31:21.579030,0,-1,0,0,0,-3,76,79,72,40,48,189.20,329,2.00,22.00,-907.00
2024-05-17 17:31:21.696064,0,-1,0,0,0,-2,76,79,77,50,48,189.38,329,-20.00,17.00,-899.00
2024-05-17 17:31:21.784200,0,-1,0,0,0,-1,76,79,81,50,48,189.44,329,-5.00,7.00,-905.00
2024-05-17 17:31:21.900877,0,-1,0,0,0,0,76,79,83,50,48,189.40,329,-9.00,-4.00,-920.00
2024-05-17 17:31:21.987103,0,0,0,0,0,0,77,79,86,50,48,189.45,330,-5.00,3.00,-964.00
2024-05-17 17:31:22.106738,0,0,0,0,0,0,77,79,87,60,48,189.43,330,14.00,15.00,-1005.00
2024-05-17 17:31:22.192816,0,0,0,0,0,0,77,79,87,60,48,189.51,330,-9.00,1.00,-965.00
2024-05-17 17:31:22.293208,0,0,0,0,0,0,77,79,88,60,48,189.44,330,6.00,1.00,-980.00
2024-05-17 17:31:22.413167,0,0,0,0,0,0,77,79,89,60,48,189.50,330,-10.00,14.00,-984.00
2024-05-17 17:31:22.496895,0,0,0,0,0,0,77,79,89,60,48,189.56,330,10.00,2.00,-972.00
2024-05-17 17:31:22.619693,0,0,0,0,0,0,77,79,89,60,48,189.42,330,23.00,-10.00,-992.00
2024-05-17 17:31:22.701846,0,0,0,0,0,0,77,79,89,60,48,189.51,330,-9.00,17.00,-987.00
2024-05-17 17:31:22.822437,0,0,0,0,0,0,77,79,89,60,48,189.43,330,-6.00,12.00,-1002.00
2024-05-17 17:31:22.909299,0,0,0,0,0,0,77,79,88,60,48,189.49,330,14.00,1.00,-972.00
2024-05-17 17:31:23.008971,0,0,0,0,0,0,76,80,88,60,48,189.54,331,-19.00,25.00,-985.00
2024-05-17 17:31:23.109372,0,0,0,0,0,0,76,80,88,60,48,189.46,331,5.00,2.00,-965.00
2024-05-17 17:31:23.160053,0,0,0,0,0,0,76,80,87,60,48,189.53,331,-15.00,8.00,-997.00
2024-05-17 17:31:23.334575,0,0,0,0,0,0,76,80,86,60,48,189.50,331,-17.00,19.00,-1010.00
2024-05-17 17:31:23.363866,0,0,0,0,0,0,76,80,86,60,48,189.47,331,-6.00,13.00,-1010.00
2024-05-17 17:31:23.471433,0,0,0,0,0,0,76,80,85,60,48,189.49,331,0.00,18.00,-989.00
2024-05-17 17:31:23.567915,0,0,0,0,0,0,76,80,85,60,48,189.51,331,0.00,14.00,-992.00
2024-05-17 17:31:23.744353,0,0,0,0,0,0,76,80,84,60,48,189.47,331,3.00,9.00,-1005.00
2024-05-17 17:31:23.772051,0,0,0,0,0,0,76,80,83,60,48,189.48,331,-20.00,7.00,-987.00
2024-05-17 17:31:23.948849,0,0,0,0,0,0,76,80,83,60,48,189.39,331,10.00,-2.00,-1008.00
2024-05-17 17:31:23.976015,0,0,0,0,0,0,77,79,82,60,48,189.46,332,15.00,0.00,-1006.00
2024-05-17 17:31:24.080697,0,0,0,0,0,0,77,79,81,60,48,189.49,332,5.00,10.00,-1000.00
2024-05-17 17:31:24.179991,0,0,0,0,0,0,77,79,80,60,48,189.46,332,-11.00,26.00,-999.00
2024-05-17 17:31:24.283286,0,-1,0,0,0,0,77,79,79,60,48,189.43,332,-6.00,19.00,-1006.00
2024-05-17 17:31:24.384040,0,0,0,0,0,0,77,79,79,50,48,189.41,332,-11.00,19.00,-1017.00
2024-05-17 17:31:24.563228,0,0,0,0,0,0,77,79,78,50,48,189.46,332,-8.00,17.00,-1024.00
2024-05-17 17:31:24.588237,0,0,0,0,0,0,77,79,77,50,48,189.47,332,5.00,9.00,-993.00
2024-05-17 17:31:24.768024,0,0,0,0,0,0,77,79,77,50,48,189.43,332,13.00,-13.00,-986.00
2024-05-17 17:31:24.791945,0,0,0,0,0,0,77,79,77,50,48,189.41,332,9.00,4.00,-1013.00
2024-05-17 17:31:24.893889,0,-1,0,0,0,0,77,79,76,50,48,189.46,332,-1.00,8.00,-985.00
2024-05-17 17:31:24.995991,0,0,0,0,0,0,77,79,76,50,48,189.43,333,5.00,16.00,-1015.00
2024-05-17 17:31:25.177892,0,0,0,0,0,0,77,79,75,50,48,189.36,333,-2.00,14.00,-1000.00
2024-05-17 17:31:25.204728,0,0,0,0,0,0,77,79,75,50,48,189.42,333,-1.00,16.00,-1035.00
2024-05-17 17:31:25.301942,0,0,0,0,0,0,77,79,75,50,48,189.39,333,17.00,0.00,-989.00
2024-05-17 17:31:25.484979,0,0,0,0,0,0,77,79,76,50,48,189.41,333,9.00,29.00,-1017.00
2024-05-17 17:31:25.506258,0,-1,0,0,0,0,77,79,76,50,48,189.37,333,-4.00,10.00,-1016.00
2024-05-17 17:31:25.607949,0,-1,0,0,0,0,77,79,76,50,48,189.44,333,24.00,18.00,-1026.00
2024-05-17 17:31:25.792205,0,0,0,0,0,0,77,79,76,50,48,189.45,333,-9.00,28.00,-979.00
2024-05-17 17:31:25.811895,0,-1,0,0,0,0,77,79,77,50,48,189.32,333,11.00,1.00,-985.00
2024-05-17 17:31:25.999102,0,-1,0,0,0,0,77,79,77,50,48,189.33,333,-11.00,21.00,-1000.00
2024-05-17 17:31:26.016108,0,-1,0,0,0,0,76,79,78,50,48,189.41,334,-10.00,23.00,-1003.00
2024-05-17 17:31:26.203840,0,0,0,0,0,0,76,79,78,50,48,189.39,334,-8.00,20.00,-973.00
2024-05-17 17:31:26.219824,0,0,0,0,0,0,76,79,78,50,48,189.39,334,3.00,7.00,-974.00
2024-05-17 17:31:26.414860,0,0,0,0,0,0,76,79,78,50,48,189.42,334,7.00,7.00,-975.00
2024-05-17 17:31:26.423857,0,0,0,0,0,0,76,79,79,50,48,189.41,334,1.00,17.00,-990.00
2024-05-17 17:31:26.613312,0,0,0,0,0,0,76,79,79,50,48,189.34,334,-15.00,7.00,-963.00
2024-05-17 17:31:26.627949,0,0,0,0,0,0,76,79,79,50,48,189.39,334,8.00,17.00,-1009.00
2024-05-17 17:31:26.817721,0,0,0,0,0,0,76,79,78,50,48,189.41,334,-9.00,9.00,-988.00
2024-05-17 17:31:26.817858,0,0,0,0,0,0,76,79,78,50,48,189.41,334,7.00,7.00,-992.00
2024-05-17 17:31:26.882996,0,0,0,0,0,0,76,79,79,50,48,189.37,334,8.00,5.00,-992.00
2024-05-17 17:31:27.027077,0,0,0,0,0,0,77,78,79,50,48,189.42,335,8.00,31.00,-1020.00
2024-05-17 17:31:27.086920,0,0,0,0,0,0,77,78,79,50,48,189.44,335,-3.00,31.00,-1016.00
2024-05-17 17:31:27.189007,0,0,0,0,0,0,77,78,79,50,48,189.40,335,-6.00,17.00,-990.00
2024-05-17 17:31:27.329366,0,0,0,0,0,0,77,78,79,50,48,189.39,335,16.00,2.00,-995.00
2024-05-17 17:31:27.393040,0,0,0,0,0,0,77,78,79,50,48,189.40,335,1.00,15.00,-1007.00
2024-05-17 17:31:27.534192,0,0,0,0,0,0,77,78,79,50,48,189.41,335,5.00,11.00,-1008.00
2024-05-17 17:31:27.596748,0,0,0,0,0,0,77,78,79,50,48,189.42,335,4.00,13.00,-994.00
2024-05-17 17:31:27.738865,0,0,0,0,0,0,77,78,79,50,48,189.41,335,-25.00,11.00,-1007.00
2024-05-17 17:31:27.800771,0,0,0,0,0,0,77,78,80,50,48,189.42,335,-1.00,10.00,-1086.00
2024-05-17 17:31:27.943483,0,0,0,0,0,-1,77,78,81,50,48,189.40,335,0.00,12.00,-1095.00
2024-05-17 17:31:28.004764,0,0,0,0,0,-2,76,79,84,60,48,189.44,336,9.00,3.00,-1069.00
2024-05-17 17:31:28.148241,0,0,0,0,0,-3,76,79,87,60,48,189.49,336,-6.00,17.00,-1076.00
2024-05-17 17:31:28.214084,0,0,0,0,0,-4,76,79,91,60,48,189.53,336,4.00,17.00,-1064.00
2024-05-17 17:31:28.310886,0,0,0,0,0,-4,76,79,95,70,48,189.59,336,-1.00,1.00,-1040.00
2024-05-17 17:31:28.460297,0,0,0,0,0,-5,76,79,100,70,48,189.66,336,-1.00,14.00,-1015.00
2024-05-17 17:31:28.515126,0,0,0,0,0,-5,76,79,105,80,48,189.64,336,0.00,16.00,-1029.00
2024-05-17 17:31:28.659554,0,0,0,0,0,-5,76,79,110,80,48,189.79,336,-9.00,26.00,-1000.00
2024-05-17 17:31:28.718789,0,-1,0,0,0,-5,76,79,116,90,48,189.84,336,20.00,15.00,-1024.00
2024-05-17 17:31:28.864226,0,-1,0,0,0,-5,76,79,121,90,48,189.90,336,0.00,20.00,-991.00
2024-05-17 17:31:28.922656,0,-1,0,0,0,-5,76,79,127,100,48,189.88,336,1.00,21.00,-982.00
2024-05-17 17:31:29.070018,0,-1,0,0,0,-5,76,79,132,100,48,189.93,337,-1.00,27.00,-976.00
2024-05-17 17:31:29.126728,0,-1,0,0,0,-4,76,79,137,110,48,189.98,337,20.00,-2.00,-974.00
2024-05-17 17:31:29.274101,0,-1,0,0,0,-4,76,79,141,110,48,189.97,337,5.00,2.00,-947.00
2024-05-17 17:31:29.330756,0,-1,0,0,0,-4,76,79,146,120,48,190.03,337,-22.00,25.00,-960.00
2024-05-17 17:31:29.433392,0,-1,0,0,0,-4,76,79,150,120,48,190.10,337,-6.00,33.00,-1007.00
2024-05-17 17:31:29.581257,0,-1,0,0,0,-3,76,79,154,130,48,190.09,337,11.00,24.00,-974.00
2024-05-17 17:31:29.640316,0,-1,0,0,0,-3,76,79,157,130,48,190.15,337,19.00,3.00,-970.00
2024-05-17 17:31:29.738727,0,-1,0,0,0,-3,76,79,160,130,48,190.17,337,19.00,8.00,-943.00
2024-05-17 17:31:29.887991,0,0,0,0,0,-2,76,79,163,140,48,190.23,337,-1.00,34.00,-983.00
2024-05-17 17:31:29.943769,0,-1,0,0,0,-2,76,79,166,140,48,190.25,337,7.00,27.00,-1010.00
2024-05-17 17:31:30.093322,0,-1,0,0,0,-2,76,78,168,140,48,190.25,338,4.00,0.00,-961.00
2024-05-17 17:31:30.148784,0,-1,0,0,0,-1,76,78,169,140,48,190.25,338,-24.00,33.00,-962.00
2024-05-17 17:31:30.248699,0,-1,0,0,0,-1,76,78,171,140,48,190.30,338,15.00,13.00,-969.00
2024-05-17 17:31:30.299650,0,-1,0,0,0,-1,76,78,172,150,48,190.31,338,11.00,9.00,-989.00
2024-05-17 17:31:30.402235,0,-1,0,0,0,-1,76,78,173,150,48,190.32,338,7.00,18.00,-967.00
2024-05-17 17:31:30.509043,0,-1,0,0,0,-1,76,78,174,150,48,190.27,338,-3.00,18.00,-970.00
2024-05-17 17:31:30.606255,0,-1,0,0,0,0,76,78,175,150,48,190.32,338,0.00,12.00,-958.00
2024-05-17 17:31:30.708049,0,-1,0,0,0,0,76,78,176,150,48,190.30,338,8.00,19.00,-998.00
2024-05-17 17:31:30.809957,0,-1,0,0,0,0,76,78,177,150,48,190.33,338,-1.00,16.00,-976.00
2024-05-17 17:31:30.912657,0,-1,0,0,0,0,76,78,177,150,48,190.38,338,0.00,32.00,-1020.00
2024-05-17 17:31:31.014244,0,-1,0,0,0,0,75,77,178,150,48,190.33,339,2.00,32.00,-1007.00
2024-05-17 17:31:31.116976,0,-1,0,0,0,0,75,77,178,150,48,190.40,339,0.00,27.00,-989.00
2024-05-17 17:31:31.219350,0,-1,0,0,0,0,75,77,178,150,48,190.41,339,3.00,32.00,-997.00
2024-05-17 17:31:31.321932,0,-1,0,0,0,0,75,77,179,150,48,190.34,339,-6.00,26.00,-994.00
2024-05-17 17:31:31.425340,0,-1,0,0,0,0,75,77,178,150,48,190.34,339,5.00,37.00,-1020.00
2024-05-17 17:31:31.523602,0,-1,0,0,0,0,75,77,179,150,48,190.45,339,-5.00,32.00,-1016.00
2024-05-17 17:31:31.629881,0,-1,0,0,0,0,75,77,178,150,48,190.37,339,-10.00,29.00,-974.00
2024-05-17 17:31:31.729501,0,-1,0,0,0,0,75,77,178,150,48,190.31,339,-6.00,36.00,-991.00
2024-05-17 17:31:31.830341,0,-1,0,0,0,0,75,77,178,150,48,190.34,339,2.00,31.00,-1024.00
2024-05-17 17:31:31.936078,0,-1,0,0,0,0,75,77,178,150,48,190.33,339,15.00,15.00,-992.00
2024-05-17 17:31:32.033732,1,-1,0,0,0,0,75,78,177,150,48,190.36,340,1.00,16.00,-970.00
2024-05-17 17:31:32.140984,0,-1,0,0,0,0,75,78,177,150,48,190.34,340,17.00,29.00,-1020.00
2024-05-17 17:31:32.239036,0,-1,0,0,0,0,75,78,177,150,48,190.32,340,9.00,25.00,-1033.00
2024-05-17 17:31:32.340689,0,-1,0,0,0,0,75,78,177,150,48,190.39,340,-15.00,28.00,-989.00
2024-05-17 17:31:32.441625,0,-1,0,0,0,0,75,78,177,150,48,190.31,340,0.00,23.00,-982.00
2024-05-17 17:31:32.543493,0,-1,0,0,0,0,75,78,177,150,48,190.31,340,-5.00,21.00,-997.00
2024-05-17 17:31:32.652755,0,-1,0,0,0,0,75,78,177,150,48,190.31,340,0.00,12.00,-999.00
2024-05-17 17:31:32.748823,0,-1,0,0,0,0,75,78,177,150,48,190.31,340,11.00,16.00,-962.00
2024-05-17 17:31:32.857585,0,-1,0,0,0,0,75,78,177,150,48,190.29,340,4.00,27.00,-932.00
2024-05-17 17:31:32.951777,0,-1,0,0,0,0,75,78,175,150,48,190.25,340,0.00,21.00,-955.00
2024-05-17 17:31:33.062526,0,-1,0,0,0,1,76,77,173,150,48,190.26,341,11.00,16.00,-955.00
2024-05-17 17:31:33.158293,0,-1,0,0,0,1,76,77,171,150,48,190.29,341,-16.00,34.00,-946.00
2024-05-17 17:31:33.258800,0,-1,0,0,0,2,76,77,169,150,48,190.26,341,3.00,10.00,-955.00
2024-05-17 17:31:33.359736,0,-1,0,0,0,2,76,77,166,140,48,190.28,341,-19.00,29.00,-937.00
2024-05-17 17:31:33.461499,0,-1,0,0,0,2,76,77,163,140,48,190.21,341,16.00,-5.00,-950.00
2024-05-17 17:31:33.574279,0,-1,0,0,0,2,76,77,160,140,48,190.18,341,16.00,17.00,-987.00
2024-05-17 17:31:33.665957,0,-1,0,0,0,3,76,77,157,130,48,190.17,341,-14.00,39.00,-1007.00
2024-05-17 17:31:33.767667,0,-1,0,0,0,3,76,77,154,130,48,190.15,341,11.00,18.00,-976.00
2024-05-17 17:31:33.881564,0,-1,0,0,0,2,76,77,152,130,48,190.12,341,13.00,11.00,-998.00
2024-05-17 17:31:33.973164,0,-1,0,0,0,2,76,77,150,130,48,190.12,341,-3.00,22.00,-1013.00
2024-05-17 17:31:34.073617,0,-1,0,0,0,2,76,77,147,120,48,190.00,342,-6.00,25.00,-1000.00
2024-05-17 17:31:34.129134,0,-1,0,0,0,2,76,77,145,120,48,190.04,342,9.00,17.00,-1021.00
2024-05-17 17:31:34.227504,0,-1,0,0,0,1,76,77,143,120,48,190.02,342,2.00,18.00,-1019.00
2024-05-17 17:31:34.394110,0,-1,0,0,0,1,76,77,141,120,48,189.98,342,10.00,28.00,-1035.00
2024-05-17 17:31:34.430423,0,-1,0,0,0,1,76,77,139,120,48,190.00,342,13.00,26.00,-1012.00
2024-05-17 17:31:34.600020,0,-1,0,0,0,1,76,77,137,110,48,189.89,342,1.00,47.00,-1037.00
2024-05-17 17:31:34.634695,0,-1,0,0,0,1,76,77,135,110,48,189.86,342,9.00,19.00,-1013.00
2024-05-17 17:31:34.805054,0,-1,0,0,0,1,76,77,134,110,48,189.95,342,21.00,13.00,-1005.00
2024-05-17 17:31:34.838439,0,-1,0,0,0,1,76,77,133,110,48,189.91,342,0.00,14.00,-1010.00
2024-05-17 17:31:35.008147,0,-1,0,0,0,1,76,77,131,110,48,189.88,342,6.00,17.00,-996.00
2024-05-17 17:31:35.042456,0,-1,0,0,0,1,75,78,130,110,48,189.73,343,7.00,22.00,-1024.00
2024-05-17 17:31:35.214133,0,-1,0,0,0,1,75,78,130,100,48,189.85,343,-16.00,24.00,-1060.00
2024-05-17 17:31:35.246522,0,-1,0,0,0,0,75,78,129,100,48,189.84,343,0.00,22.00,-1064.00
2024-05-17 17:31:35.418753,0,-1,0,0,0,0,75,78,129,100,48,189.84,343,8.00,12.00,-1015.00
2024-05-17 17:31:35.451898,0,-1,0,0,0,0,75,78,129,100,48,189.83,343,-7.00,25.00,-1032.00
2024-05-17 17:31:35.623266,0,-1,0,0,0,0,75,78,129,100,48,189.86,343,-5.00,13.00,-990.00
2024-05-17 17:31:35.654523,0,-1,0,0,0,0,75,78,129,100,48,189.80,343,0.00,20.00,-993.00
2024-05-17 17:31:35.827501,0,0,0,0,0,0,75,78,128,100,48,189.81,343,0.00,13.00,-984.00
2024-05-17 17:31:35.858407,0,0,0,0,0,0,75,78,128,100,48,189.82,343,13.00,12.00,-1019.00
2024-05-17 17:31:35.960737,0,0,0,0,0,0,75,78,128,100,48,189.79,344,13.00,16.00,-992.00
2024-05-17 17:31:36.134446,0,0,0,0,0,0,75,77,128,100,48,189.85,344,-1.00,17.00,-992.00
2024-05-17 17:31:36.164358,0,0,0,0,0,0,75,77,128,100,48,189.83,344,-2.00,27.00,-1029.00
2024-05-17 17:31:36.267271,0,0,0,0,0,0,75,77,128,100,48,189.90,344,11.00,10.00,-1004.00
2024-05-17 17:31:36.371059,0,0,0,0,0,0,75,77,128,100,48,189.82,344,9.00,8.00,-995.00
2024-05-17 17:31:36.470497,0,0,0,0,0,0,75,77,128,100,48,189.86,344,7.00,25.00,-1008.00
2024-05-17 17:31:36.572631,0,0,0,0,0,0,75,77,128,100,48,189.87,344,1.00,21.00,-1002.00
2024-05-17 17:31:36.748977,0,0,0,0,0,0,75,77,129,100,48,189.85,344,25.00,10.00,-1031.00
2024-05-17 17:31:36.776448,0,0,0,0,0,0,75,77,128,100,48,189.86,344,3.00,8.00,-971.00
2024-05-17 17:31:37.045339,0,-1,0,0,0,0,75,77,128,100,48,189.82,344,22.00,9.00,-985.00
2024-05-17 17:31:37.045550,0,-1,0,0,0,0,75,77,128,100,48,189.88,345,12.00,6.00,-1005.00
2024-05-17 17:31:37.082329,0,-1,0,0,0,0,75,77,128,100,48,189.82,345,2.00,20.00,-982.00
2024-05-17 17:31:37.265913,0,-1,0,0,0,0,75,77,129,100,48,189.88,345,5.00,10.00,-1018.00
2024-05-17 17:31:37.286301,-6,0,0,0,0,0,75,77,129,100,48,189.87,345,31.00,0.00,-996.00
2024-05-17 17:31:37.388303,-8,0,0,1,0,0,75,77,130,100,48,189.90,345,0.00,30.00,-1005.00
2024-05-17 17:31:37.568615,-8,0,0,3,0,0,75,77,131,100,48,189.89,345,-19.00,29.00,-1014.00
2024-05-17 17:31:37.593064,-7,-1,0,4,0,0,75,77,130,100,48,189.81,345,-17.00,23.00,-975.00
2024-05-17 17:31:37.647500,-6,-1,0,5,0,0,75,77,129,100,48,189.88,345,-13.00,9.00,-1016.00
2024-05-17 17:31:37.745327,-6,0,0,6,0,0,75,77,130,100,48,189.83,345,-49.00,22.00,-992.00
2024-05-17 17:31:37.875492,-4,-1,0,7,0,0,75,77,126,100,48,189.85,345,-26.00,15.00,-1021.00
2024-05-17 17:31:37.949411,-4,0,0,7,0,0,75,77,125,100,48,189.90,346,-36.00,16.00,-1000.00
2024-05-17 17:31:38.102438,-1,0,0,8,0,0,75,77,128,100,48,189.78,346,-30.00,13.00,-1005.00
2024-05-17 17:31:38.153188,1,-1,0,7,0,0,75,77,127,100,48,189.88,346,-56.00,29.00,-1005.00
2024-05-17 17:31:38.284731,3,-1,0,6,0,0,75,77,127,100,48,189.81,346,-52.00,22.00,-1007.00
2024-05-17 17:31:38.357434,4,-1,0,5,0,0,75,77,128,100,48,189.93,346,-53.00,22.00,-1016.00
2024-05-17 17:31:38.489520,3,-1,0,4,0,0,75,77,127,100,48,189.85,346,-29.00,19.00,-1009.00
2024-05-17 17:31:38.561213,2,0,0,3,0,0,75,77,127,100,48,189.91,346,-46.00,35.00,-1044.00
2024-05-17 17:31:38.694306,1,0,0,3,0,0,75,77,127,100,48,189.90,346,-32.00,34.00,-1027.00
2024-05-17 17:31:38.765847,0,0,0,3,0,0,75,77,127,100,48,189.94,346,-28.00,23.00,-1006.00
2024-05-17 17:31:38.899062,0,0,0,2,0,0,75,77,127,100,48,189.93,346,-23.00,34.00,-1031.00
2024-05-17 17:31:38.969275,0,-1,0,2,0,0,75,77,127,100,48,189.89,347,-20.00,10.00,-1010.00
2024-05-17 17:31:39.103833,0,-1,0,2,0,0,75,77,127,100,48,189.88,347,0.00,12.00,-1002.00
2024-05-17 17:31:39.173327,4,-1,0,2,0,0,75,77,127,100,48,189.89,347,-13.00,27.00,-1003.00
2024-05-17 17:31:39.308737,5,-1,0,1,0,0,75,77,128,100,48,189.92,347,-29.00,30.00,-1046.00
2024-05-17 17:31:39.377815,2,-1,0,0,0,0,75,77,128,100,48,189.90,347,3.00,4.00,-1003.00
2024-05-17 17:31:39.513747,1,-1,0,0,0,0,75,77,127,100,48,189.93,347,-9.00,17.00,-992.00
2024-05-17 17:31:39.584424,0,-1,0,0,0,0,75,77,127,100,48,189.89,347,-7.00,35.00,-1037.00
2024-05-17 17:31:39.684253,0,0,0,0,0,0,75,77,128,100,48,189.88,347,-13.00,19.00,-999.00
2024-05-17 17:31:39.820839,0,0,0,0,0,0,75,77,128,100,48,189.91,347,4.00,-3.00,-964.00
2024-05-17 17:31:39.888189,0,0,0,0,0,0,75,77,128,100,48,189.95,347,-4.00,13.00,-994.00
2024-05-17 17:31:40.025788,0,-1,0,0,0,0,75,77,128,100,48,189.88,348,-12.00,20.00,-999.00
2024-05-17 17:31:40.092314,0,0,0,0,0,0,75,77,128,100,48,189.91,348,-3.00,7.00,-998.00
2024-05-17 17:31:40.231072,0,0,0,0,0,0,75,77,128,100,48,189.91,348,-7.00,16.00,-1003.00
2024-05-17 17:31:40.296250,0,-1,0,0,0,0,75,77,128,100,48,189.94,348,-10.00,11.00,-956.00
2024-05-17 17:31:40.398245,0,0,0,0,0,0,75,77,129,100,48,189.89,348,-7.00,10.00,-982.00
2024-05-17 17:31:40.501847,0,-1,0,0,0,0,75,77,129,100,48,189.93,348,4.00,5.00,-1006.00
2024-05-17 17:31:40.602345,0,-1,0,0,0,0,75,77,129,100,48,189.92,348,4.00,12.00,-996.00
2024-05-17 17:31:40.742607,0,0,0,0,0,0,75,77,129,100,48,189.94,348,-6.00,30.00,-987.00
2024-05-17 17:31:40.806281,0,0,0,0,0,0,75,77,129,100,48,189.99,348,4.00,5.00,-979.00
2024-05-17 17:31:40.947617,0,0,0,0,0,0,75,77,129,100,48,189.96,348,12.00,1.00,-1000.00
2024-05-17 17:31:41.010310,0,0,0,0,0,0,75,77,129,100,48,189.95,349,11.00,22.00,-995.00
2024-05-17 17:31:41.154869,0,-1,0,0,0,0,75,76,130,100,48,189.86,349,12.00,17.00,-1007.00
2024-05-17 17:31:41.214322,0,-1,0,0,0,0,75,76,129,100,48,189.90,349,-3.00,28.00,-993.00
2024-05-17 17:31:41.356822,0,-1,0,0,0,0,75,76,129,100,48,189.93,349,2.00,29.00,-997.00
2024-05-17 17:31:41.418101,0,-1,0,0,0,0,75,76,129,100,48,189.90,349,11.00,21.00,-1008.00
2024-05-17 17:31:41.561459,0,-1,0,0,0,0,75,76,130,100,48,189.93,349,10.00,20.00,-1008.00
2024-05-17 17:31:41.578211,4,-1,0,0,0,0,75,76,131,100,48,189.93,349,9.00,22.00,-969.00
2024-05-17 17:31:41.673390,8,-1,0,0,0,0,75,76,131,100,48,189.98,349,0.00,38.00,-1023.00
2024-05-17 17:31:41.868616,8,-1,0,-1,0,0,75,76,132,100,48,189.97,349,4.00,40.00,-1025.00
2024-05-17 17:31:41.877083,8,-1,0,-3,0,0,75,76,132,100,48,189.87,349,17.00,23.00,-1007.00
2024-05-17 17:31:42.078868,8,-1,0,-4,0,0,75,76,132,100,48,189.93,350,15.00,14.00,-996.00
2024-05-17 17:31:42.080971,8,-1,0,-5,0,0,74,77,131,100,47,189.91,350,41.00,5.00,-1010.00
2024-05-17 17:31:42.278264,8,0,0,-6,0,0,74,77,131,100,47,189.85,350,42.00,5.00,-1005.00
2024-05-17 17:31:42.285212,7,0,0,-7,0,0,74,77,130,100,47,189.87,350,51.00,19.00,-1027.00
2024-05-17 17:31:42.483494,5,0,0,-8,0,0,74,77,131,100,47,189.90,350,46.00,13.00,-1000.00
2024-05-17 17:31:42.488932,3,0,0,-8,0,0,74,77,131,100,47,189.87,350,52.00,14.00,-1001.00
2024-05-17 17:31:42.687720,0,0,0,-8,0,0,74,77,131,100,47,189.86,350,57.00,9.00,-1002.00
2024-05-17 17:31:42.692941,-2,0,0,-7,0,0,74,77,131,100,47,189.85,350,45.00,20.00,-958.00
2024-05-17 17:31:42.892582,-4,-1,0,-6,0,0,74,77,129,100,47,189.88,350,48.00,17.00,-992.00
2024-05-17 17:31:42.897024,-4,0,0,-5,0,0,74,77,128,100,47,189.85,350,61.00,-4.00,-1006.00
2024-05-17 17:31:43.097435,-2,-1,0,-4,0,0,74,77,130,100,47,189.93,351,39.00,21.00,-995.00
2024-05-17 17:31:43.105727,-1,0,0,-3,0,0,75,77,130,100,47,189.87,351,30.00,16.00,-1010.00
2024-05-17 17:31:43.203083,0,0,0,-3,0,0,75,77,129,100,47,189.95,351,21.00,21.00,-1007.00
2024-05-17 17:31:43.305023,0,0,0,-2,0,0,75,77,128,100,47,189.91,351,2.00,13.00,-986.00
2024-05-17 17:31:43.407285,0,0,0,-2,0,0,75,77,128,100,47,189.89,351,15.00,14.00,-1013.00
2024-05-17 17:31:43.509011,0,0,0,-2,0,0,75,77,128,100,47,189.89,351,16.00,15.00,-1021.00
2024-05-17 17:31:43.611020,0,0,0,-2,0,0,75,77,128,100,47,189.82,351,23.00,-2.00,-987.00
2024-05-17 17:31:43.712998,0,0,0,-2,0,0,75,77,128,100,47,189.87,351,13.00,23.00,-1015.00
2024-05-17 17:31:43.816222,-2,0,0,-1,0,0,75,77,128,100,47,189.85,351,22.00,5.00,-998.00
2024-05-17 17:31:44.019135,-3,0,0,-1,0,0,75,77,128,100,47,189.84,351,5.00,17.00,-1010.00
2024-05-17 17:31:44.019316,-1,0,0,0,0,0,75,77,127,100,47,189.90,352,-7.00,11.00,-992.00
2024-05-17 17:31:44.121436,0,0,0,0,0,0,74,76,128,100,47,189.89,352,0.00,16.00,-1010.00
2024-05-17 17:31:44.223610,0,0,0,0,0,0,74,76,127,100,47,189.89,352,14.00,5.00,-1026.00
2024-05-17 17:31:44.329514,0,0,0,0,0,0,74,76,127,100,47,189.88,352,-5.00,29.00,-1030.00
2024-05-17 17:31:44.426989,0,0,0,0,0,0,74,76,127,100,47,189.92,352,-4.00,21.00,-1002.00
2024-05-17 17:31:44.528937,0,0,0,0,0,0,74,76,127,100,47,189.92,352,0.00,18.00,-1001.00
2024-05-17 17:31:44.631238,0,0,0,0,0,0,74,76,128,100,47,189.89,352,6.00,8.00,-993.00
2024-05-17 17:31:44.736016,0,0,0,0,0,0,74,76,128,100,47,189.90,352,-12.00,25.00,-993.00
2024-05-17 17:31:44.838805,0,0,0,0,0,0,74,76,128,100,47,189.96,352,0.00,14.00,-997.00
2024-05-17 17:31:44.938505,0,-1,0,0,0,0,74,76,128,100,47,189.89,352,4.00,12.00,-1001.00
2024-05-17 17:31:45.042998,0,0,0,0,0,0,74,76,128,100,47,189.83,353,11.00,9.00,-1001.00
2024-05-17 17:31:45.141011,0,-1,0,0,0,0,75,77,128,100,47,189.93,353,15.00,15.00,-1007.00
2024-05-17 17:31:45.250800,0,-1,0,0,0,0,75,77,128,100,47,189.93,353,17.00,20.00,-1022.00
2024-05-17 17:31:45.345382,0,-1,0,0,0,0,75,77,128,100,47,189.88,353,4.00,33.00,-1020.00
2024-05-17 17:31:45.397154,0,-1,0,0,0,0,75,77,128,100,47,189.93,353,10.00,12.00,-998.00
2024-05-17 17:31:45.555326,0,-1,0,0,0,0,75,77,128,100,47,189.93,353,-1.00,10.00,-983.00
2024-05-17 17:31:45.600919,0,-1,0,0,0,0,75,77,128,100,47,189.87,353,-3.00,10.00,-980.00
2024-05-17 17:31:45.759955,0,-1,0,0,0,0,75,77,128,100,47,189.86,353,2.00,17.00,-998.00
2024-05-17 17:31:45.804957,0,-1,0,0,0,0,75,77,128,100,47,189.94,353,10.00,15.00,-1000.00
2024-05-17 17:31:45.964729,0,0,0,0,0,0,75,77,128,100,47,189.90,353,-9.00,24.00,-1000.00
2024-05-17 17:31:46.009453,0,0,0,0,0,0,75,77,128,100,47,189.90,354,0.00,20.00,-1014.00
2024-05-17 17:31:46.111397,0,0,0,0,0,0,74,77,128,100,46,189.91,354,10.00,16.00,-1008.00
2024-05-17 17:31:46.271805,0,-2,0,0,0,0,74,77,128,100,46,189.90,354,4.00,25.00,-991.00
2024-05-17 17:31:46.315035,0,-8,0,0,0,0,74,77,130,100,46,189.94,354,-12.00,23.00,-999.00
2024-05-17 17:31:46.420095,0,-8,0,0,-1,0,74,77,128,100,46,189.96,354,-7.00,29.00,-1012.00
2024-05-17 17:31:46.518941,0,-6,0,0,-3,0,74,77,129,100,46,189.92,354,0.00,22.00,-973.00
2024-05-17 17:31:46.620883,0,-4,0,0,-3,0,74,77,129,100,46,189.91,354,-2.00,33.00,-1000.00
2024-05-17 17:31:46.783824,0,0,0,0,-4,0,74,77,128,100,46,189.94,354,-7.00,51.00,-989.00
2024-05-17 17:31:46.824935,0,0,0,0,-3,0,74,77,128,100,46,189.92,354,-22.00,61.00,-990.00
2024-05-17 17:31:46.992548,0,0,0,0,-3,0,74,77,128,110,46,189.90,354,-1.00,53.00,-998.00
2024-05-17 17:31:47.028807,0,0,0,0,-2,0,74,77,128,110,46,189.90,355,-6.00,33.00,-990.00
2024-05-17 17:31:47.193423,0,-1,0,0,-2,0,75,76,128,100,46,189.95,355,13.00,17.00,-984.00
2024-05-17 17:31:47.234564,0,-1,0,0,-2,0,75,76,127,100,46,189.95,355,0.00,31.00,-985.00
2024-05-17 17:31:47.335741,0,-1,0,0,-2,0,75,76,127,100,46,189.90,355,2.00,30.00,-991.00
2024-05-17 17:31:47.437835,0,-1,0,0,-2,0,75,76,126,100,46,189.93,355,-2.00,33.00,-996.00
2024-05-17 17:31:47.603965,0,-1,0,0,-2,0,75,76,127,100,46,189.93,355,24.00,32.00,-1024.00
2024-05-17 17:31:47.642950,2,-1,0,0,-2,0,75,76,126,100,46,189.91,355,-2.00,37.00,-1013.00
2024-05-17 17:31:47.807748,3,0,0,0,-2,0,75,76,126,100,46,189.89,355,5.00,41.00,-1001.00
2024-05-17 17:31:47.846935,3,-1,0,0,-2,0,75,76,126,100,46,189.81,355,3.00,27.00,-988.00
2024-05-17 17:31:48.013019,3,-1,0,0,-1,0,75,76,125,100,46,189.86,355,6.00,35.00,-1036.00
2024-05-17 17:31:48.049800,0,-1,0,-1,-1,0,75,76,126,100,46,189.86,356,37.00,32.00,-1050.00
2024-05-17 17:31:48.217402,-2,2,0,0,-1,0,74,76,125,100,46,189.91,356,8.00,32.00,-955.00
2024-05-17 17:31:48.253804,0,1,0,0,0,0,74,76,124,100,46,189.85,356,-2.00,27.00,-1023.00
2024-05-17 17:31:48.424108,0,0,0,0,0,0,74,76,124,100,46,189.88,356,11.00,17.00,-1025.00
2024-05-17 17:31:48.457840,0,0,0,0,0,0,74,76,126,100,46,189.91,356,15.00,15.00,-1020.00
2024-05-17 17:31:48.630812,0,-1,0,0,0,0,74,76,127,100,46,189.89,356,8.00,22.00,-1019.00
2024-05-17 17:31:48.662052,0,-1,0,0,0,0,74,76,127,100,46,189.90,356,-5.00,25.00,-988.00
2024-05-17 17:31:48.831837,0,-1,0,0,0,0,74,76,128,100,46,189.90,356,0.00,11.00,-982.00
2024-05-17 17:31:48.866214,0,-1,0,0,0,0,74,76,128,100,46,189.90,356,-11.00,25.00,-987.00
2024-05-17 17:31:49.036757,0,-1,0,0,0,0,74,76,128,100,46,189.91,356,-10.00,22.00,-987.00
2024-05-17 17:31:49.036937,0,-1,0,0,0,0,74,76,129,100,46,189.89,357,16.00,3.00,-961.00
2024-05-17 17:31:49.241573,0,-1,0,0,0,0,74,77,129,100,46,189.95,357,0.00,3.00,-987.00
2024-05-17 17:31:49.241751,0,-1,0,0,0,0,74,77,129,100,46,189.91,357,-1.00,9.00,-993.00
2024-05-17 17:31:49.324787,0,-1,0,0,0,0,74,77,129,100,46,189.92,357,5.00,15.00,-1010.00
2024-05-17 17:31:49.426991,0,-1,0,0,0,0,74,77,129,100,46,189.92,357,-6.00,12.00,-978.00
2024-05-17 17:31:49.554576,0,-1,0,0,0,0,74,77,129,100,46,189.92,357,-16.00,24.00,-978.00
2024-05-17 17:31:49.635966,0,-1,0,0,0,0,74,77,129,100,46,189.95,357,3.00,10.00,-988.00
2024-05-17 17:31:49.732803,0,-1,0,0,0,0,74,77,128,100,46,189.89,357,2.00,34.00,-1004.00
2024-05-17 17:31:49.855938,0,-1,0,0,0,0,74,77,128,100,46,189.96,357,-4.00,25.00,-980.00
2024-05-17 17:31:49.936855,0,-1,0,0,0,0,74,77,128,100,46,189.99,357,8.00,20.00,-1011.00
2024-05-17 17:31:50.060778,0,-1,0,0,0,0,74,77,128,100,46,189.91,358,0.00,15.00,-987.00
2024-05-17 17:31:50.140766,0,-1,0,0,0,0,74,77,128,100,45,189.90,358,-4.00,30.00,-1010.00
2024-05-17 17:31:50.242665,0,-1,0,0,0,0,74,77,128,100,45,189.90,358,5.00,9.00,-996.00
2024-05-17 17:31:50.367728,0,0,0,0,0,0,74,77,127,100,45,189.85,358,-2.00,-15.00,-1007.00
2024-05-17 17:31:50.449454,0,7,0,0,0,0,74,77,128,100,45,189.90,358,-6.00,32.00,-993.00
2024-05-17 17:31:50.548592,0,6,0,0,2,0,74,77,130,100,45,189.91,358,0.00,23.00,-1030.00
2024-05-17 17:31:50.674927,0,3,0,0,3,0,74,77,126,100,45,189.82,358,-4.00,-7.00,-994.00
2024-05-17 17:31:50.752583,0,1,0,0,3,0,74,77,128,100,45,189.84,358,-2.00,16.00,-997.00
2024-05-17 17:31:50.882037,0,-1,0,0,3,0,74,77,127,100,45,189.98,358,-14.00,6.00,-1017.00
2024-05-17 17:31:50.956587,0,-2,0,0,3,0,74,77,129,100,45,189.92,359,-15.00,7.00,-1013.00
2024-05-17 17:31:51.084470,0,-1,0,0,3,0,74,77,129,100,45,189.95,359,-18.00,-2.00,-966.00
2024-05-17 17:31:51.160557,0,-1,0,0,3,0,73,76,129,100,45,189.96,359,8.00,1.00,-985.00
2024-05-17 17:31:51.266804,0,-1,0,0,2,0,73,76,130,100,45,189.94,359,6.00,0.00,-995.00
2024-05-17 17:31:51.364513,0,0,0,0,2,0,73,76,130,100,45,189.93,359,0.00,3.00,-1001.00
2024-05-17 17:31:51.466569,0,0,0,0,2,0,73,76,129,100,45,189.92,359,3.00,13.00,-1031.00
2024-05-17 17:31:51.568672,0,0,0,0,2,0,73,76,129,100,45,189.97,359,-9.00,3.00,-1024.00
2024-05-17 17:31:51.698966,0,0,0,0,2,0,73,76,130,100,45,190.01,359,0.00,12.00,-1038.00
2024-05-17 17:31:51.772606,0,0,0,0,2,0,73,76,130,100,45,189.94,359,1.00,6.00,-1018.00
2024-05-17 17:31:51.903704,0,-1,0,0,2,0,73,76,131,100,45,189.98,359,5.00,-7.00,-994.00
2024-05-17 17:31:51.976635,0,-2,0,0,2,0,73,76,131,100,45,189.87,360,0.00,0.00,-984.00
2024-05-17 17:31:52.108740,0,-5,0,0,2,0,73,76,132,100,45,189.90,360,9.00,-2.00,-972.00
2024-05-17 17:31:52.180736,0,-5,0,0,1,0,74,76,132,100,45,189.91,360,-15.00,12.00,-1040.00
2024-05-17 17:31:52.282702,0,-3,0,0,0,0,74,76,132,100,45,189.89,360,5.00,-4.00,-974.00
2024-05-17 17:31:52.415943,0,-2,0,0,0,0,74,76,131,100,45,189.92,360,13.00,23.00,-1007.00
2024-05-17 17:31:52.486667,0,-1,0,0,0,0,74,76,131,100,45,189.93,360,1.00,10.00,-975.00
2024-05-17 17:31:52.620720,0,-1,0,0,0,0,74,76,130,100,45,189.90,360,-6.00,26.00,-983.00
2024-05-17 17:31:52.690624,0,-1,0,0,0,0,74,76,129,100,45,189.86,360,1.00,7.00,-1001.00
2024-05-17 17:31:52.831312,0,-1,0,0,0,0,74,76,129,100,45,189.94,360,-10.00,23.00,-1006.00
2024-05-17 17:31:52.844092,0,-1,0,0,0,0,74,76,128,100,45,189.87,360,-4.00,18.00,-1016.00
2024-05-17 17:31:52.946558,0,-1,0,0,0,0,74,76,127,100,45,189.87,361,1.00,29.00,-1011.00
2024-05-17 17:31:53.133562,0,-1,0,0,0,0,74,76,127,100,45,189.88,361,-24.00,24.00,-984.00
2024-05-17 17:31:53.200804,0,-1,0,0,0,0,74,77,126,100,45,189.86,361,6.00,12.00,-1022.00
2024-05-17 17:31:53.342866,0,0,0,0,0,0,74,77,125,100,45,189.89,361,6.00,24.00,-1019.00
2024-05-17 17:31:53.404697,0,0,0,0,0,0,74,77,124,100,45,189.89,361,2.00,28.00,-1030.00
2024-05-17 17:31:53.458838,0,0,0,0,0,0,74,77,124,100,45,189.85,361,3.00,19.00,-992.00
2024-05-17 17:31:53.557536,0,0,0,0,0,0,74,77,124,100,45,189.83,361,8.00,4.00,-974.00
2024-05-17 17:31:53.747063,0,0,0,0,0,0,74,77,124,100,45,189.85,361,-28.00,21.00,-964.00
2024-05-17 17:31:53.761503,0,0,0,0,0,0,74,77,125,100,45,189.83,361,-22.00,26.00,-1034.00
2024-05-17 17:31:53.951817,0,-1,0,0,0,0,74,77,125,100,45,189.92,361,0.00,23.00,-1022.00
2024-05-17 17:31:53.965407,0,-1,0,0,0,0,74,77,126,100,45,189.79,362,-11.00,3.00,-962.00
2024-05-17 17:31:54.158807,0,-1,0,0,0,0,74,77,127,100,45,189.83,362,-17.00,30.00,-1018.00
2024-05-17 17:31:54.169481,0,-1,0,0,0,0,74,76,127,100,45,189.87,362,-4.00,21.00,-1003.00
2024-05-17 17:31:54.271403,0,-1,0,0,0,0,74,76,128,100,45,189.97,362,-3.00,19.00,-982.00
2024-05-17 17:31:54.566363,0,-1,0,0,0,0,74,76,128,100,45,189.91,362,30.00,6.00,-1034.00
2024-05-17 17:31:54.566434,0,-1,6,0,0,0,74,76,128,100,45,189.92,362,-29.00,39.00,-991.00
2024-05-17 17:31:54.577431,0,-1,12,0,0,0,74,76,128,100,45,189.92,362,12.00,23.00,-993.00
2024-05-17 17:31:54.770946,0,-1,18,0,0,0,74,76,128,100,45,189.95,362,-12.00,23.00,-985.00
2024-05-17 17:31:54.781476,0,-1,25,0,0,0,74,76,129,100,45,189.93,362,-3.00,15.00,-996.00
2024-05-17 17:31:54.975717,0,-1,31,0,0,0,74,76,129,100,45,189.93,362,-12.00,43.00,-990.00
2024-05-17 17:31:54.985552,0,-1,37,0,0,0,74,76,129,100,45,189.98,363,0.00,29.00,-984.00
2024-05-17 17:31:55.180570,0,-1,44,0,0,0,74,76,129,100,45,189.99,363,-20.00,43.00,-982.00
2024-05-17 17:31:55.191493,0,-1,50,0,0,0,73,76,129,100,45,189.95,363,4.00,10.00,-973.00
2024-05-17 17:31:55.291421,0,-1,56,0,0,0,73,76,129,100,45,189.90,363,11.00,17.00,-1009.00
2024-05-17 17:31:55.394077,0,-1,63,0,0,0,73,76,129,100,45,189.96,363,6.00,17.00,-999.00
2024-05-17 17:31:55.496417,0,0,69,0,0,0,73,76,129,100,45,189.97,363,2.00,23.00,-989.00
2024-05-17 17:31:55.599073,0,0,75,0,0,0,73,76,129,100,45,189.95,363,8.00,13.00,-987.00
2024-05-17 17:31:55.700409,0,0,82,0,0,0,73,76,130,100,45,189.95,363,13.00,19.00,-1013.00
2024-05-17 17:31:55.898154,0,0,88,0,0,0,73,76,129,100,45,189.98,363,-5.00,17.00,-1013.00
2024-05-17 17:31:55.906660,0,0,94,0,0,0,73,76,129,100,45,189.94,363,3.00,16.00,-988.00
2024-05-17 17:31:56.006994,0,0,100,0,0,0,73,76,129,100,45,189.95,364,-3.00,15.00,-995.00
2024-05-17 17:31:56.204864,0,0,106,0,0,0,73,76,129,100,45,189.97,364,-9.00,10.00,-985.00
2024-05-17 17:31:56.210440,0,0,113,0,0,0,74,76,129,100,44,189.92,364,0.00,1.00,-983.00
2024-05-17 17:31:56.409346,0,0,119,0,0,0,74,76,129,100,44,189.98,364,9.00,14.00,-1017.00
2024-05-17 17:31:56.414653,0,0,125,0,0,0,74,76,129,100,44,189.93,364,0.00,-5.00,-979.00
2024-05-17 17:31:56.526008,0,0,132,0,0,0,74,76,130,100,44,189.93,364,24.00,0.00,-1023.00
2024-05-17 17:31:56.618347,0,0,138,0,0,0,74,76,130,100,44,189.98,364,4.00,3.00,-1000.00
2024-05-17 17:31:56.819005,0,0,144,0,0,0,74,76,130,100,44,189.93,364,-9.00,6.00,-977.00
2024-05-17 17:31:56.822328,0,0,150,0,0,0,74,76,130,100,44,189.90,364,14.00,-5.00,-979.00
2024-05-17 17:31:56.873354,0,1,156,0,0,0,74,76,131,100,44,189.88,364,1.00,-2.00,-993.00
2024-05-17 17:31:56.977556,0,1,162,0,0,0,74,76,131,100,44,189.93,365,2.00,6.00,-999.00
2024-05-17 17:31:57.078198,0,0,168,0,0,0,74,76,132,100,44,189.90,365,5.00,-4.00,-981.00
2024-05-17 17:31:57.230319,0,1,174,0,0,0,75,76,132,100,44,189.90,365,0.00,-2.00,-987.00
2024-05-17 17:31:57.434214,0,0,-178,0,0,0,75,76,132,100,44,189.93,365,10.00,-3.00,-1025.00
2024-05-17 17:31:57.434410,0,0,-172,0,0,0,75,76,132,100,44,190.02,365,-11.00,3.00,-997.00
2024-05-17 17:31:57.485389,0,0,-166,0,0,0,75,76,131,100,44,189.96,365,-13.00,10.00,-1013.00
2024-05-17 17:31:57.638128,0,0,-160,0,0,0,75,76,131,100,44,189.97,365,-3.00,-1.00,-971.00
2024-05-17 17:31:57.689526,0,0,-154,0,0,0,75,76,131,100,44,189.97,365,-8.00,10.00,-1016.00
2024-05-17 17:31:57.842932,0,0,-148,0,0,0,75,76,131,100,44,189.96,365,-6.00,-9.00,-998.00
2024-05-17 17:31:57.895140,-1,0,-142,0,0,0,75,76,131,100,44,189.89,365,-10.00,-1.00,-1002.00
2024-05-17 17:31:57.995562,-1,0,-135,0,0,0,75,76,132,100,44,189.88,366,-9.00,13.00,-1005.00
2024-05-17 17:31:58.150126,-1,0,-129,0,0,0,75,76,131,100,44,189.90,366,-37.00,19.00,-994.00
2024-05-17 17:31:58.199268,-1,0,-123,0,0,0,76,76,131,100,44,189.96,366,-5.00,-2.00,-1007.00
2024-05-17 17:31:58.356173,-1,0,-117,0,0,0,76,76,132,100,44,189.96,366,-18.00,5.00,-998.00
2024-05-17 17:31:58.403358,-1,0,-111,0,0,0,76,76,132,100,44,189.96,366,-33.00,20.00,-999.00
2024-05-17 17:31:58.506066,-1,0,-105,0,0,0,76,76,132,100,44,189.91,366,-22.00,-3.00,-981.00
2024-05-17 17:31:58.607296,-1,0,-99,0,0,0,76,76,131,100,44,190.00,366,0.00,2.00,-997.00
2024-05-17 17:31:58.765319,-1,0,-92,0,0,0,76,76,131,100,44,189.98,366,-19.00,12.00,-1007.00
2024-05-17 17:31:58.811305,-1,0,-86,0,0,0,76,76,131,100,44,189.92,366,-29.00,4.00,-969.00
2024-05-17 17:31:58.969333,-1,0,-80,0,0,0,76,76,131,100,44,189.98,366,7.00,13.00,-1014.00
2024-05-17 17:31:59.015235,-1,0,-74,0,0,0,76,76,130,100,44,189.91,367,-6.00,16.00,-1004.00
2024-05-17 17:31:59.118108,-1,0,-68,0,0,0,76,76,130,100,44,190.01,367,-21.00,21.00,-1003.00
2024-05-17 17:31:59.276559,-1,0,-62,0,0,0,75,77,129,100,44,189.96,367,-11.00,19.00,-997.00
2024-05-17 17:31:59.325117,-1,0,-56,0,0,0,75,77,129,100,44,189.94,367,-21.00,20.00,-1002.00
2024-05-17 17:31:59.423796,0,0,-50,0,0,0,75,77,129,100,44,189.99,367,-6.00,7.00,-1006.00
2024-05-17 17:31:59.583703,0,0,-44,0,0,0,75,77,130,100,44,189.99,367,-20.00,35.00,-1038.00
2024-05-17 17:31:59.628161,0,0,-38,0,0,0,75,77,130,100,44,189.99,367,-20.00,35.00,-1001.00
2024-05-17 17:31:59.788535,0,0,-32,0,0,0,75,77,131,100,44,189.98,367,-6.00,18.00,-985.00
2024-05-17 17:31:59.832142,0,0,-26,0,0,0,75,77,130,100,44,189.95,367,-23.00,33.00,-1006.00
2024-05-17 17:31:59.995739,0,-1,-20,0,0,0,75,77,130,100,44,189.96,367,-21.00,30.00,-992.00
2024-05-17 17:32:00.036146,0,-1,-15,0,0,0,75,77,130,100,44,190.00,368,-3.00,16.00,-1006.00
2024-05-17 17:32:00.198098,0,0,-11,0,0,0,75,77,130,100,43,189.98,368,-22.00,26.00,-969.00
2024-05-17 17:32:00.240195,0,0,-8,0,0,0,74,76,130,100,43,190.01,368,-19.00,36.00,-1002.00
2024-05-17 17:32:00.403722,0,0,-6,0,0,0,74,76,130,100,43,189.95,368,-16.00,42.00,-995.00
2024-05-17 17:32:00.446583,0,0,-5,0,0,0,74,76,130,100,43,190.01,368,-15.00,43.00,-980.00
2024-05-17 17:32:00.546267,0,0,-3,0,0,0,74,76,130,100,43,189.96,368,-9.00,17.00,-994.00
2024-05-17 17:32:00.648257,0,0,-2,0,0,0,74,76,129,100,43,189.97,368,-1.00,25.00,-991.00
2024-05-17 17:32:00.812536,0,0,-2,0,0,0,74,76,129,100,43,189.94,368,-8.00,30.00,-1017.00
2024-05-17 17:32:00.812674,0,0,-2,0,0,0,74,76,129,100,43,189.96,368,-1.00,27.00,-1008.00
2024-05-17 17:32:00.903230,0,0,-2,0,0,0,74,76,128,100,43,189.87,368,5.00,21.00,-1017.00
2024-05-17 17:32:01.017292,0,0,-2,0,0,0,74,76,128,100,43,190.02,369,0.00,20.00,-997.00
2024-05-17 17:32:01.107515,0,0,-2,0,0,0,74,76,128,100,43,189.97,369,0.00,15.00,-989.00
2024-05-17 17:32:01.260295,0,0,-2,0,0,0,73,76,128,100,43,189.96,369,-14.00,10.00,-989.00
2024-05-17 17:32:01.311206,0,0,-2,0,0,0,73,76,128,100,43,189.96,369,6.00,9.00,-1019.00
2024-05-17 17:32:01.428778,0,0,-2,0,0,0,73,76,129,100,43,189.97,369,-10.00,12.00,-999.00
2024-05-17 17:32:01.516245,0,0,-2,0,0,0,73,76,129,100,43,189.96,369,-11.00,21.00,-997.00
2024-05-17 17:32:01.631732,0,0,-2,0,0,0,73,76,129,100,43,189.98,369,-15.00,16.00,-993.00
2024-05-17 17:32:01.722466,0,0,-2,0,0,0,73,76,129,100,43,189.99,369,-14.00,16.00,-998.00
2024-05-17 17:32:01.823304,0,0,-2,0,0,0,73,76,129,100,43,189.95,369,-15.00,21.00,-995.00
2024-05-17 17:32:01.924295,0,0,-2,0,0,0,73,76,129,100,43,189.91,369,-6.00,24.00,-1007.00
2024-05-17 17:32:02.047927,0,-1,-2,0,0,0,73,76,129,100,43,189.96,370,8.00,18.00,-1014.00
2024-05-17 17:32:02.128085,0,-1,-2,0,0,0,73,76,129,100,43,189.89,370,4.00,25.00,-1012.00
2024-05-17 17:32:02.246544,0,-1,-2,0,0,0,74,76,129,100,43,189.99,370,33.00,0.00,-1009.00
2024-05-17 17:32:02.333513,0,0,-2,0,0,0,74,76,129,100,43,189.98,370,-3.00,17.00,-986.00
2024-05-17 17:32:02.452935,0,0,-2,0,0,0,74,76,129,100,43,189.91,370,-1.00,19.00,-989.00
2024-05-17 17:32:02.536113,0,-1,-2,0,0,0,74,76,129,100,43,189.93,370,11.00,25.00,-1010.00
2024-05-17 17:32:02.638503,0,-1,-2,0,0,0,74,76,129,100,43,189.93,370,15.00,27.00,-1001.00
2024-05-17 17:32:02.758073,0,-1,-2,0,0,0,74,76,128,100,43,189.89,370,-17.00,40.00,-995.00
2024-05-17 17:32:02.842586,0,-1,-6,0,0,0,74,76,128,100,43,189.91,370,0.00,9.00,-984.00
2024-05-17 17:32:02.962828,0,-1,-12,0,0,0,74,76,127,100,43,189.95,370,-2.00,34.00,-988.00
2024-05-17 17:32:03.046503,0,-1,-18,0,0,0,74,76,127,100,43,189.97,371,14.00,5.00,-995.00
2024-05-17 17:32:03.167568,0,-1,-24,0,0,0,74,76,126,100,43,190.01,371,-3.00,4.00,-969.00
2024-05-17 17:32:03.251311,0,-1,-30,0,0,0,74,76,126,100,43,189.92,371,14.00,11.00,-999.00
2024-05-17 17:32:03.355946,0,-1,-36,0,0,0,74,76,126,100,43,189.95,371,4.00,14.00,-1021.00
2024-05-17 17:32:03.454482,0,-1,-42,0,0,0,74,76,125,100,43,189.95,371,-8.00,12.00,-997.00
2024-05-17 17:32:03.556065,0,-1,-47,0,0,0,74,76,126,100,43,189.91,371,-19.00,30.00,-1005.00
2024-05-17 17:32:03.657985,0,-1,-53,0,0,0,74,76,126,100,43,189.94,371,-11.00,36.00,-1036.00
2024-05-17 17:32:03.760351,0,-1,-59,0,0,0,74,76,126,100,43,189.90,371,0.00,17.00,-996.00
2024-05-17 17:32:03.884339,0,0,-65,0,0,0,74,76,126,100,43,189.93,371,-3.00,20.00,-1010.00
2024-05-17 17:32:03.964539,0,-1,-71,0,0,0,74,76,127,100,43,189.92,371,-17.00,21.00,-983.00
2024-05-17 17:32:04.089222,0,0,-77,0,0,0,74,76,126,100,43,189.87,372,-10.00,40.00,-1036.00
2024-05-17 17:32:04.169468,0,0,-83,0,0,0,74,76,127,100,42,189.90,372,-19.00,30.00,-1012.00
2024-05-17 17:32:04.294097,0,0,-95,0,0,0,74,76,127,100,42,189.91,372,-11.00,11.00,-1000.00
2024-05-17 17:32:04.372115,0,0,-101,0,0,0,74,76,127,100,42,189.94,372,-22.00,21.00,-1000.00
2024-05-17 17:32:04.476535,0,0,-107,0,0,0,74,76,127,100,42,189.94,372,-20.00,1.00,-976.00
2024-05-17 17:32:04.576162,0,0,-113,0,0,0,74,76,127,100,42,189.95,372,-8.00,11.00,-985.00
2024-05-17 17:32:04.678009,-1,0,-119,0,0,0,74,76,127,100,42,189.83,372,-17.00,4.00,-997.00
2024-05-17 17:32:04.806047,-1,0,-125,0,0,0,74,76,127,100,42,189.92,372,-31.00,9.00,-991.00
2024-05-17 17:32:04.882009,0,0,-131,0,0,0,74,76,127,100,42,189.91,372,-15.00,7.00,-983.00
2024-05-17 17:32:04.933806,0,0,-137,0,0,0,74,76,127,100,42,189.97,373,-18.00,3.00,-994.00
2024-05-17 17:32:05.124789,0,0,-143,0,0,0,74,76,127,100,42,189.93,373,-13.00,10.00,-1003.00
2024-05-17 17:32:05.136918,0,0,-149,0,0,0,74,76,127,100,42,189.89,373,-8.00,21.00,-1017.00
2024-05-17 17:32:05.319323,0,0,-155,0,0,0,74,76,127,100,42,189.91,373,-19.00,-6.00,-988.00
2024-05-17 17:32:05.340930,0,0,-161,0,0,0,74,76,128,100,42,189.95,373,-3.00,-9.00,-1000.00
2024-05-17 17:32:05.446100,0,0,-168,0,0,0,74,76,128,100,42,189.97,373,-22.00,9.00,-986.00
2024-05-17 17:32:05.554428,0,0,-174,0,0,0,74,76,128,100,42,190.01,373,-10.00,-4.00,-996.00
2024-05-17 17:32:05.646914,0,0,179,0,0,0,74,76,129,100,42,189.98,373,-20.00,8.00,-1004.00
2024-05-17 17:32:05.830036,0,0,173,0,0,0,74,76,129,100,42,190.07,373,-13.00,2.00,-997.00
2024-05-17 17:32:05.850903,0,0,167,0,0,0,74,76,130,100,42,189.96,373,6.00,-17.00,-993.00
2024-05-17 17:32:06.034916,0,0,161,0,0,0,74,76,130,100,42,189.90,374,13.00,-19.00,-1002.00
2024-05-17 17:32:06.054971,0,0,155,0,0,0,74,76,131,100,42,190.00,374,9.00,-25.00,-986.00
2024-05-17 17:32:06.239653,0,0,149,0,0,0,74,76,131,100,42,190.00,374,6.00,-8.00,-990.00
2024-05-17 17:32:06.258871,0,0,143,0,0,0,73,76,131,100,42,189.93,374,10.00,-11.00,-999.00
2024-05-17 17:32:06.444999,0,0,137,0,0,0,73,76,131,100,42,189.97,374,2.00,5.00,-1015.00
2024-05-17 17:32:06.464280,0,0,132,0,0,0,73,76,132,100,42,190.00,374,5.00,8.00,-1004.00
2024-05-17 17:32:06.567982,0,0,126,0,0,0,73,76,132,100,42,189.95,374,15.00,0.00,-1004.00
2024-05-17 17:32:06.666851,0,0,120,0,0,0,73,76,132,100,42,189.96,374,9.00,12.00,-1003.00
2024-05-17 17:32:06.854059,0,0,114,0,0,0,73,76,132,100,42,189.95,374,-6.00,17.00,-996.00
2024-05-17 17:32:06.872252,0,0,108,0,0,0,73,76,133,100,42,189.95,374,8.00,-3.00,-990.00
2024-05-17 17:32:07.058839,0,0,102,0,0,0,73,76,133,110,42,189.98,375,14.00,8.00,-1002.00
2024-05-17 17:32:07.075488,0,0,96,0,0,0,73,76,132,110,42,190.05,375,16.00,0.00,-976.00
2024-05-17 17:32:07.263642,0,0,90,0,0,0,73,76,132,100,42,190.06,375,-5.00,9.00,-998.00
2024-05-17 17:32:07.278750,0,0,84,0,0,0,73,76,132,100,42,190.00,375,9.00,1.00,-1007.00
2024-05-17 17:32:07.468641,0,0,78,0,0,0,73,76,131,100,42,189.88,375,2.00,22.00,-1006.00
2024-05-17 17:32:07.488226,0,0,72,0,0,0,73,76,132,100,42,189.88,375,21.00,6.00,-991.00
2024-05-17 17:32:07.584845,1,0,66,0,0,0,73,76,132,100,42,189.91,375,16.00,8.00,-1007.00
2024-05-17 17:32:07.775646,1,0,60,0,0,0,73,76,132,100,42,189.92,375,7.00,12.00,-1001.00
2024-05-17 17:32:07.788927,1,0,54,0,0,0,73,76,131,100,42,189.95,375,14.00,9.00,-1003.00
2024-05-17 17:32:07.890787,0,0,47,0,0,0,73,76,131,100,42,189.83,375,21.00,7.00,-984.00
2024-05-17 17:32:08.082816,0,0,41,0,0,0,73,76,131,100,42,189.94,376,17.00,16.00,-1010.00
2024-05-17 17:32:08.106430,0,0,35,0,0,0,73,76,130,100,42,189.91,376,12.00,25.00,-978.00
2024-05-17 17:32:08.196749,1,0,29,0,0,0,73,76,131,100,42,189.95,376,8.00,26.00,-999.00
2024-05-17 17:32:08.390275,1,0,23,0,0,0,74,76,130,100,42,189.95,376,7.00,27.00,-1033.00
2024-05-17 17:32:08.400757,1,0,17,0,0,0,74,76,130,100,42,189.95,376,-5.00,36.00,-1018.00
2024-05-17 17:32:08.502715,0,0,12,0,0,0,74,76,129,100,42,189.94,376,11.00,8.00,-981.00
2024-05-17 17:32:08.697376,0,0,8,0,0,0,74,76,129,100,42,189.95,376,7.00,-4.00,-951.00
2024-05-17 17:32:08.706901,0,0,5,0,0,0,74,76,129,100,42,189.98,376,15.00,9.00,-1003.00
2024-05-17 17:32:08.758600,0,0,3,0,0,0,74,76,129,100,42,189.93,376,31.00,29.00,-1057.00
2024-05-17 17:32:08.859950,0,0,2,0,0,0,74,76,129,100,42,189.89,376,15.00,10.00,-980.00
2024-05-17 17:32:09.007168,0,0,1,0,0,0,74,76,129,100,42,189.97,377,11.00,16.00,-983.00
2024-05-17 17:32:09.065423,0,0,0,0,0,0,74,76,128,100,42,189.97,377,28.00,14.00,-991.00
2024-05-17 17:32:09.167504,0,-1,0,0,0,0,74,76,128,100,42,189.91,377,9.00,36.00,-1017.00
2024-05-17 17:32:09.268134,0,-1,0,0,0,0,74,76,128,100,42,189.91,377,14.00,19.00,-993.00
2024-05-17 17:32:09.383519,0,-1,-1,0,0,0,74,76,128,100,42,189.92,377,6.00,29.00,-975.00
2024-05-17 17:32:09.480112,0,0,-1,0,0,0,74,76,127,100,42,189.89,377,3.00,32.00,-1020.00
2024-05-17 17:32:09.575110,0,-1,-1,0,0,0,74,76,127,100,42,189.93,377,27.00,10.00,-997.00
2024-05-17 17:32:09.721522,0,-1,0,0,0,0,74,76,127,100,42,189.96,377,2.00,28.00,-992.00
2024-05-17 17:32:09.782385,0,0,0,0,0,0,74,76,127,100,42,189.95,377,-17.00,49.00,-1009.00
2024-05-17 17:32:09.883620,0,0,0,0,0,0,74,76,126,100,42,189.87,377,16.00,11.00,-991.00
2024-05-17 17:32:09.982840,0,0,0,0,0,0,74,76,126,100,42,189.87,378,17.00,8.00,-991.00
2024-05-17 17:32:10.131035,0,-1,0,0,0,0,74,76,125,100,42,189.88,378,12.00,33.00,-1005.00
2024-05-17 17:32:10.187035,0,-1,0,0,0,0,74,76,125,100,41,189.90,378,14.00,22.00,-1004.00
2024-05-17 17:32:10.291601,0,0,0,0,0,0,74,76,124,100,41,189.97,378,16.00,10.00,-1008.00
2024-05-17 17:32:10.390867,0,0,0,0,0,0,74,76,124,100,41,190.00,378,-5.00,25.00,-998.00
2024-05-17 17:32:10.496250,0,0,0,0,0,0,74,76,123,100,41,189.92,378,23.00,32.00,-1055.00
2024-05-17 17:32:10.594626,0,0,0,0,0,0,74,76,123,100,41,189.91,378,-6.00,34.00,-1007.00
2024-05-17 17:32:10.745289,0,0,0,0,0,0,74,76,123,100,41,189.94,378,-2.00,27.00,-1009.00
2024-05-17 17:32:10.798751,0,0,0,0,0,0,74,76,123,100,41,189.88,378,-9.00,53.00,-1037.00
2024-05-17 17:32:10.950474,0,0,0,0,0,0,74,76,122,100,41,189.89,378,19.00,6.00,-995.00
2024-05-17 17:32:11.002728,0,0,0,0,0,0,74,76,122,100,41,189.85,379,3.00,11.00,-982.00
2024-05-17 17:32:11.155310,0,0,0,0,0,0,74,76,122,100,41,189.90,379,-11.00,25.00,-1024.00
2024-05-17 17:32:11.206782,0,0,0,0,0,0,74,76,122,100,41,189.91,379,4.00,15.00,-999.00
2024-05-17 17:32:11.308821,0,0,0,0,0,0,73,76,122,100,41,189.79,379,-10.00,38.00,-1013.00
2024-05-17 17:32:11.417432,0,0,0,0,0,0,73,76,123,100,41,189.87,379,22.00,26.00,-1035.00
2024-05-17 17:32:11.512809,0,0,0,0,0,0,73,76,123,100,41,189.98,379,11.00,5.00,-979.00
2024-05-17 17:32:11.667295,0,0,0,0,0,0,73,76,124,100,41,189.92,379,8.00,14.00,-991.00
2024-05-17 17:32:11.716719,0,0,0,0,0,0,73,76,124,100,41,189.92,379,-4.00,34.00,-1030.00
2024-05-17 17:32:11.818753,0,-1,0,0,0,0,73,76,125,100,41,189.97,379,-16.00,41.00,-1036.00
2024-05-17 17:32:11.974623,0,0,0,0,0,0,73,76,125,100,41,189.93,379,-16.00,14.00,-957.00
2024-05-17 17:32:12.022656,0,0,0,0,0,0,73,76,126,100,41,189.91,380,17.00,14.00,-1010.00
2024-05-17 17:32:12.179146,0,0,0,0,0,0,73,76,126,100,41,189.94,380,-3.00,23.00,-1006.00
2024-05-17 17:32:12.226607,0,0,0,0,0,0,73,76,127,100,41,189.97,380,11.00,9.00,-997.00
2024-05-17 17:32:12.384073,0,0,0,0,0,0,75,75,127,100,41,189.92,380,-11.00,22.00,-978.00
2024-05-17 17:32:12.431030,0,0,0,0,0,0,75,75,128,100,41,189.93,380,-3.00,14.00,-983.00
2024-05-17 17:32:12.532605,0,0,0,0,0,0,75,75,128,100,41,189.95,380,19.00,17.00,-1001.00
2024-05-17 17:32:12.584544,0,-1,0,0,0,0,75,75,129,100,41,189.97,380,-32.00,43.00,-961.00
2024-05-17 17:32:12.691307,0,-1,0,0,0,0,75,75,129,100,41,189.95,380,-38.00,37.00,-973.00
2024-05-17 17:32:12.787693,0,-1,0,0,0,0,75,75,130,100,41,189.99,380,-41.00,47.00,-984.00
2024-05-17 17:32:12.890313,0,-1,0,0,0,0,75,75,130,100,41,189.97,380,15.00,38.00,-1064.00
2024-05-17 17:32:12.991648,0,-1,0,0,0,0,75,75,130,100,41,189.98,381,15.00,14.00,-987.00
2024-05-17 17:32:13.101186,0,-1,0,0,0,0,75,75,131,100,41,189.99,381,5.00,28.00,-1004.00
2024-05-17 17:32:13.199265,0,0,0,0,0,0,75,75,131,100,41,189.96,381,0.00,37.00,-1004.00
2024-05-17 17:32:13.299003,0,0,0,0,0,0,73,76,132,100,41,189.96,381,10.00,14.00,-983.00
2024-05-17 17:32:13.400084,0,0,0,0,0,0,73,76,132,100,41,189.98,381,-23.00,37.00,-979.00
2024-05-17 17:32:13.501902,0,0,0,0,0,0,73,76,132,100,41,189.96,381,6.00,12.00,-979.00
2024-05-17 17:32:13.603832,0,-1,0,0,0,0,73,76,132,100,41,190.00,381,23.00,17.00,-1022.00
2024-05-17 17:32:13.716502,0,-1,-1,0,0,0,73,76,132,100,41,189.95,381,-31.00,28.00,-972.00
2024-05-17 17:32:13.808438,0,0,-1,0,0,0,73,76,132,100,41,189.96,381,11.00,17.00,-986.00
2024-05-17 17:32:13.921984,0,-1,-1,0,0,0,73,76,133,100,41,189.95,381,-26.00,72.00,-1062.00
2024-05-17 17:32:14.011760,0,-1,-1,0,0,0,73,76,132,110,41,189.95,382,-2.00,33.00,-984.00
2024-05-17 17:32:14.124490,0,-1,-1,0,0,0,73,76,132,110,40,189.96,382,6.00,19.00,-991.00
2024-05-17 17:32:14.215627,0,-1,-1,0,0,0,73,76,131,110,40,189.98,382,20.00,14.00,-991.00
2024-05-17 17:32:14.329201,0,-1,-1,0,0,0,73,76,131,100,40,189.98,382,5.00,40.00,-1022.00
2024-05-17 17:32:14.420195,0,-1,-1,0,0,0,73,76,131,100,40,189.97,382,-14.00,35.00,-982.00
2024-05-17 17:32:14.521589,0,-1,-1,0,0,0,73,76,131,100,40,189.89,382,15.00,23.00,-1018.00
2024-05-17 17:32:14.636802,0,-1,-1,0,0,0,73,76,131,100,40,190.00,382,15.00,19.00,-977.00
2024-05-17 17:32:14.725623,0,-1,-1,0,0,0,73,76,131,100,40,189.97,382,-12.00,36.00,-1012.00
2024-05-17 17:32:14.841595,0,-1,-1,0,0,0,73,76,130,100,40,189.93,382,38.00,4.00,-1032.00
2024-05-17 17:32:14.929533,0,-1,-1,0,0,0,73,76,130,100,40,189.99,382,3.00,38.00,-1005.00
2024-05-17 17:32:15.046051,0,-1,-1,0,0,0,73,76,130,100,40,189.97,383,2.00,31.00,-991.00
2024-05-17 17:32:15.133551,0,-1,0,0,0,0,73,76,130,100,40,189.97,383,2.00,41.00,-1022.00
2024-05-17 17:32:15.251248,0,-1,0,0,0,0,73,76,130,100,40,190.01,383,13.00,20.00,-995.00
2024-05-17 17:32:15.337801,0,-1,0,0,0,0,73,76,130,100,40,189.92,383,6.00,25.00,-1002.00
2024-05-17 17:32:15.440532,0,-1,0,0,0,0,73,76,130,100,40,189.92,383,12.00,25.00,-1019.00
2024-05-17 17:32:15.542148,0,-1,0,0,0,0,73,76,130,100,40,189.91,383,17.00,25.00,-991.00
2024-05-17 17:32:15.643692,0,-1,-1,0,0,0,73,76,130,100,40,189.93,383,-1.00,24.00,-1003.00
2024-05-17 17:32:15.763262,0,-1,0,0,0,0,73,76,130,100,40,189.92,383,22.00,13.00,-973.00
2024-05-17 17:32:15.848139,0,-1,-1,0,0,0,73,76,131,100,40,189.90,383,6.00,31.00,-1012.00
2024-05-17 17:32:15.967593,0,-1,-1,0,0,0,73,76,131,100,40,189.93,383,16.00,31.00,-1007.00
2024-05-17 17:32:16.001146,0,-1,0,0,0,0,73,76,131,100,40,189.96,384,15.00,8.00,-1002.00
2024-05-17 17:32:16.172831,0,-1,0,0,0,0,73,76,130,100,40,190.01,384,19.00,11.00,-998.00
2024-05-17 17:32:16.204510,0,-1,0,0,0,0,73,76,130,100,40,189.92,384,-11.00,24.00,-1014.00
2024-05-17 17:32:16.377231,0,-1,0,0,0,0,73,75,131,100,40,189.97,384,12.00,12.00,-996.00
2024-05-17 17:32:16.459532,0,-1,0,0,0,0,73,75,131,100,40,189.96,384,-2.00,21.00,-1000.00
2024-05-17 17:32:16.582052,0,-1,0,0,0,0,73,75,131,100,40,189.99,384,-1.00,31.00,-1018.00
2024-05-17 17:32:16.612458,0,-1,0,0,0,0,73,75,131,100,40,189.99,384,6.00,27.00,-990.00
2024-05-17 17:32:16.714516,0,-1,0,0,0,0,73,75,131,100,40,189.99,384,4.00,23.00,-984.00
2024-05-17 17:32:16.889646,0,-1,0,0,0,0,73,75,132,100,40,190.01,384,15.00,14.00,-989.00
2024-05-17 17:32:16.918477,0,-1,0,0,0,0,73,75,131,100,40,189.97,384,22.00,16.00,-1007.00
2024-05-17 17:32:17.021265,0,-1,0,0,0,0,73,75,131,100,40,190.00,385,12.00,8.00,-993.00
2024-05-17 17:32:17.122454,0,-1,0,0,0,0,73,75,131,100,40,189.99,385,13.00,19.00,-1010.00
2024-05-17 17:32:17.225444,0,-1,0,0,0,0,73,75,132,100,40,189.97,385,13.00,30.00,-1033.00
2024-05-17 17:32:17.403200,0,-1,0,0,0,0,73,76,132,100,40,189.93,385,16.00,15.00,-998.00
2024-05-17 17:32:17.428398,0,-1,0,0,0,0,73,76,131,100,40,189.99,385,5.00,18.00,-991.00
2024-05-17 17:32:17.530364,0,-1,0,0,0,0,73,76,131,100,40,189.97,385,4.00,23.00,-1011.00
2024-05-17 17:32:17.632559,0,-1,0,0,0,0,73,76,131,100,40,189.96,385,0.00,25.00,-990.00
2024-05-17 17:32:17.811021,0,-1,0,0,0,0,73,76,131,100,40,189.96,385,16.00,19.00,-1031.00
2024-05-17 17:32:17.836821,0,-1,0,0,0,0,73,76,130,100,40,190.03,385,-13.00,15.00,-985.00
2024-05-17 17:32:17.941560,0,-1,0,0,0,0,73,76,130,100,40,189.92,385,-2.00,22.00,-1014.00
2024-05-17 17:32:18.040457,0,-1,0,0,0,0,73,76,131,100,40,190.00,386,4.00,34.00,-1010.00
2024-05-17 17:32:18.220546,0,0,0,0,0,0,73,76,131,100,40,189.91,386,-8.00,13.00,-985.00
2024-05-17 17:32:18.244429,0,0,0,0,0,0,73,76,131,100,40,189.90,386,1.00,11.00,-979.00
2024-05-17 17:32:18.426562,0,0,0,0,0,0,73,75,131,100,40,189.95,386,8.00,28.00,-1015.00
2024-05-17 17:32:18.449458,0,0,0,0,0,0,73,75,131,100,40,189.91,386,-13.00,15.00,-998.00
2024-05-17 17:32:18.554791,0,0,0,0,0,0,73,75,131,100,40,189.97,386,1.00,4.00,-987.00
2024-05-17 17:32:18.652330,0,0,0,0,0,0,73,75,130,100,40,189.94,386,5.00,12.00,-994.00
2024-05-17 17:32:18.834882,0,0,0,0,0,0,73,75,131,100,40,189.94,386,14.00,5.00,-1006.00
2024-05-17 17:32:18.856185,0,0,0,0,0,0,73,75,131,100,40,189.96,386,10.00,11.00,-1004.00
2024-05-17 17:32:18.958278,0,0,0,0,0,0,73,75,130,100,40,189.98,386,-7.00,17.00,-992.00
2024-05-17 17:32:19.142338,0,0,0,0,0,0,73,75,131,100,40,189.98,387,16.00,10.00,-1009.00
2024-05-17 17:32:19.162287,0,0,0,0,0,0,73,75,131,100,40,189.95,387,-1.00,25.00,-1017.00
2024-05-17 17:32:19.347471,0,0,0,0,0,0,73,75,131,100,40,189.97,387,-13.00,23.00,-975.00
2024-05-17 17:32:19.369180,0,0,0,0,0,0,74,76,130,100,40,189.92,387,13.00,19.00,-1005.00
2024-05-17 17:32:19.473116,0,0,0,0,0,0,74,76,131,100,40,189.98,387,-14.00,25.00,-993.00
2024-05-17 17:32:19.571404,0,0,0,0,0,0,74,76,131,100,40,189.97,387,-17.00,26.00,-996.00
2024-05-17 17:32:19.675046,0,0,0,0,0,0,74,76,131,100,40,189.97,387,-1.00,27.00,-999.00
2024-05-17 17:32:19.775517,0,0,0,0,0,0,74,76,131,100,40,189.94,387,6.00,15.00,-1002.00
2024-05-17 17:32:19.877341,0,0,0,0,0,0,74,76,131,100,40,189.89,387,12.00,12.00,-1003.00
2024-05-17 17:32:19.979635,0,0,0,0,0,0,74,76,131,100,40,189.93,388,-12.00,23.00,-999.00
2024-05-17 17:32:20.166042,0,0,0,0,0,0,74,76,131,100,40,190.01,388,-6.00,6.00,-965.00
2024-05-17 17:32:20.184361,0,0,0,0,0,0,74,76,131,100,40,189.98,388,7.00,7.00,-1006.00
2024-05-17 17:32:20.286513,0,0,0,0,0,0,74,76,131,100,40,189.97,388,8.00,4.00,-989.00
2024-05-17 17:32:20.473855,0,0,0,0,0,0,73,76,131,100,40,189.95,388,-5.00,19.00,-995.00
2024-05-17 17:32:20.489184,0,0,0,0,0,0,73,76,131,100,40,189.97,388,0.00,37.00,-1035.00
2024-05-17 17:32:20.591196,0,-1,0,0,0,0,73,76,132,100,40,189.94,388,-3.00,22.00,-994.00
2024-05-17 17:32:20.642274,0,-1,0,0,0,0,73,76,132,100,40,189.95,388,-5.00,18.00,-989.00
2024-05-17 17:32:20.782434,0,-1,0,0,0,0,73,76,132,100,40,189.92,388,-13.00,20.00,-977.00
2024-05-17 17:32:20.847706,0,-1,0,0,0,0,73,76,132,100,40,189.96,388,-11.00,19.00,-1007.00
2024-05-17 17:32:20.949052,0,-1,0,0,0,0,73,76,132,100,40,189.93,389,0.00,10.00,-979.00
2024-05-17 17:32:21.050438,0,-1,0,0,0,0,73,76,132,100,40,189.99,389,-5.00,0.00,-981.00
2024-05-17 17:32:21.190701,0,-1,0,0,0,0,73,76,132,100,40,189.98,389,1.00,2.00,-994.00
2024-05-17 17:32:21.254544,0,-1,0,0,0,0,73,76,132,100,40,189.95,389,8.00,18.00,-1011.00
2024-05-17 17:32:21.356245,0,-1,0,0,0,0,75,76,131,100,40,190.00,389,2.00,8.00,-1010.00
2024-05-17 17:32:21.458245,0,-1,0,0,0,0,75,76,132,100,40,189.95,389,-14.00,23.00,-1015.00
2024-05-17 17:32:21.560256,0,-1,0,0,0,0,75,76,132,100,40,189.90,389,-14.00,9.00,-962.00
2024-05-17 17:32:21.702199,0,-1,0,0,0,0,75,76,132,100,40,189.96,389,14.00,11.00,-992.00
2024-05-17 17:32:21.764187,0,-1,-1,0,0,0,75,76,132,100,40,189.96,389,13.00,8.00,-1004.00
2024-05-17 17:32:21.912040,0,-1,-1,0,0,0,75,76,132,100,40,189.89,389,-3.00,26.00,-978.00
2024-05-17 17:32:21.968746,0,-1,-1,0,0,0,75,76,133,100,40,189.94,390,6.00,17.00,-993.00
2024-05-17 17:32:22.111776,0,-1,-1,0,0,0,75,76,133,100,40,189.98,390,14.00,35.00,-1040.00
2024-05-17 17:32:22.173327,0,-1,-1,0,0,0,75,76,132,100,39,189.96,390,1.00,-3.00,-943.00
2024-05-17 17:32:22.316696,0,-1,-1,0,0,0,75,76,132,100,39,189.95,390,0.00,29.00,-996.00
2024-05-17 17:32:22.378611,0,-1,-1,0,0,0,72,76,132,100,39,189.95,390,7.00,24.00,-1012.00
2024-05-17 17:32:22.480406,0,-1,0,0,0,0,72,76,132,100,39,189.89,390,-1.00,19.00,-981.00
2024-05-17 17:32:22.582020,0,-1,0,0,0,0,72,76,132,100,39,189.88,390,10.00,15.00,-993.00
2024-05-17 17:32:22.682106,0,-1,0,0,0,0,72,76,132,100,39,189.90,390,6.00,15.00,-989.00
2024-05-17 17:32:22.828397,0,-1,0,0,0,0,72,76,132,100,39,189.91,390,-1.00,36.00,-1013.00
2024-05-17 17:32:22.886129,0,-1,0,0,0,0,72,76,131,100,39,189.94,390,0.00,21.00,-1002.00
2024-05-17 17:32:23.033584,0,-1,0,0,0,0,72,76,131,100,39,189.90,391,4.00,6.00,-972.00
2024-05-17 17:32:23.090105,0,-1,0,0,0,0,72,76,131,100,39,189.86,391,15.00,15.00,-1007.00
2024-05-17 17:32:23.237993,0,-1,0,0,0,0,72,76,131,100,39,189.89,391,-8.00,33.00,-1012.00
2024-05-17 17:32:23.293924,0,-1,0,0,0,0,72,76,131,100,39,189.92,391,17.00,-2.00,-1005.00
2024-05-17 17:32:23.442641,0,0,0,0,0,0,73,76,131,100,39,189.89,391,0.00,20.00,-1017.00
2024-05-17 17:32:23.497880,0,0,0,0,0,0,73,76,131,100,39,189.90,391,-2.00,28.00,-1028.00
2024-05-17 17:32:23.647372,0,0,0,0,0,0,73,76,130,100,39,189.91,391,4.00,13.00,-1009.00
2024-05-17 17:32:23.703462,0,0,0,0,0,0,73,76,130,100,39,189.89,391,8.00,-6.00,-986.00
2024-05-17 17:32:23.803936,0,-1,0,0,0,0,73,76,129,100,39,189.87,391,-6.00,29.00,-966.00
2024-05-17 17:32:23.905922,0,-1,0,0,0,0,73,76,128,100,39,189.83,391,-5.00,22.00,-955.00
2024-05-17 17:32:24.057490,0,-1,0,0,0,1,73,76,127,100,39,189.85,392,-21.00,25.00,-934.00
2024-05-17 17:32:24.109948,0,-1,0,0,0,2,73,76,124,100,39,189.76,392,-4.00,39.00,-907.00
2024-05-17 17:32:24.261811,0,-1,0,0,0,3,73,76,121,100,39,189.82,392,7.00,23.00,-910.00
2024-05-17 17:32:24.313917,0,-1,0,0,0,4,73,76,117,90,39,189.73,392,6.00,15.00,-896.00
2024-05-17 17:32:24.466610,0,-1,0,0,0,5,74,76,111,90,39,189.76,392,-7.00,22.00,-892.00
2024-05-17 17:32:24.517956,0,-1,0,0,0,6,74,76,105,80,39,189.70,392,2.00,5.00,-886.00
