TS,pitch,roll,yaw,vgx,vgy,vgz,templ,temph,tof,h,bat,baro,time,agx,agy,agz
2024-05-19 09:43:13.632437,0,0,0,0,0,0,57,59,10,0,93,128.71,0,0.00,11.00,-996.00
2024-05-19 09:43:13.726648,0,0,0,0,0,0,57,59,10,0,93,128.78,0,0.00,12.00,-999.00
2024-05-19 09:43:13.832093,0,0,0,0,0,0,57,59,10,0,93,128.72,0,0.00,10.00,-1000.00
2024-05-19 09:43:13.930678,0,0,0,0,0,0,57,59,10,0,93,128.73,0,0.00,11.00,-1000.00
2024-05-19 09:43:14.041777,0,0,0,0,0,0,57,59,10,0,93,128.70,0,0.00,11.00,-998.00
2024-05-19 09:43:14.134498,0,0,0,0,0,0,57,59,10,0,93,128.69,0,-1.00,12.00,-1000.00
2024-05-19 09:43:14.246699,0,0,0,0,0,0,57,59,10,0,93,128.73,0,-1.00,12.00,-998.00
2024-05-19 09:43:14.338562,0,0,0,0,0,0,57,59,10,0,93,128.68,0,0.00,11.00,-998.00
2024-05-19 09:43:14.440528,0,0,0,0,0,0,57,59,10,0,93,128.70,0,-1.00,11.00,-999.00
2024-05-19 09:43:14.554286,0,0,0,0,0,0,57,59,10,0,93,128.70,0,0.00,12.00,-999.00
2024-05-19 09:43:14.644546,0,0,0,0,0,0,57,59,10,0,93,128.70,0,0.00,10.00,-1000.00
2024-05-19 09:43:14.758705,0,0,0,0,0,0,57,59,10,0,93,128.66,0,1.00,11.00,-999.00
2024-05-19 09:43:14.848446,0,0,0,0,0,0,57,59,10,0,93,128.70,0,0.00,11.00,-998.00
2024-05-19 09:43:14.963464,0,0,0,0,0,0,57,60,10,0,93,128.71,0,0.00,12.00,-997.00
2024-05-19 09:43:15.052574,0,0,0,0,0,0,57,60,10,0,93,128.69,0,-1.00,11.00,-1000.00
2024-05-19 09:43:15.168247,0,0,0,0,0,0,57,60,10,0,93,128.69,0,0.00,11.00,-999.00
2024-05-19 09:43:15.256658,0,0,0,0,0,0,57,60,10,0,93,128.74,0,1.00,12.00,-1001.00
2024-05-19 09:43:15.358633,0,0,0,0,0,0,57,60,10,0,93,128.68,0,0.00,11.00,-999.00
2024-05-19 09:43:15.475550,0,0,0,0,0,0,57,60,10,0,93,128.72,0,0.00,10.00,-996.00
2024-05-19 09:43:15.562635,0,0,0,0,0,0,57,60,10,0,93,128.67,0,0.00,12.00,-1002.00
2024-05-19 09:43:15.680338,0,0,0,0,0,0,57,60,10,0,93,128.68,0,0.00,11.00,-999.00
2024-05-19 09:43:15.715910,0,0,0,0,0,0,57,60,10,0,93,128.71,0,0.00,12.00,-1001.00
2024-05-19 09:43:15.885279,0,0,0,0,0,0,57,60,10,0,93,128.67,0,-1.00,11.00,-995.00
2024-05-19 09:43:15.919782,0,0,0,0,0,0,58,60,10,0,93,128.66,0,1.00,12.00,-997.00
2024-05-19 09:43:16.089939,0,0,0,0,0,0,58,60,10,0,93,128.65,0,0.00,10.00,-1000.00
2024-05-19 09:43:16.123737,0,0,0,0,0,0,58,60,10,0,93,128.64,0,0.00,11.00,-1000.00
2024-05-19 09:43:16.225936,0,0,0,0,0,0,58,60,10,0,93,128.64,0,0.00,11.00,-996.00
2024-05-19 09:43:16.397164,0,0,0,0,0,0,58,60,10,0,93,128.59,0,0.00,11.00,-998.00
2024-05-19 09:43:16.430018,0,0,0,0,0,0,58,60,10,0,93,128.64,0,0.00,10.00,-1000.00
2024-05-19 09:43:16.601844,0,0,0,0,0,0,58,60,10,0,93,128.66,0,2.00,12.00,-999.00
2024-05-19 09:43:16.633685,0,0,0,0,0,0,58,60,10,0,93,128.64,0,0.00,13.00,-1001.00
2024-05-19 09:43:16.742347,0,0,0,0,0,0,58,60,10,0,93,128.67,0,-1.00,11.00,-998.00
2024-05-19 09:43:16.837678,0,0,0,0,0,0,58,60,10,0,93,128.65,0,0.00,12.00,-1000.00
2024-05-19 09:43:17.011649,0,0,0,0,0,0,58,60,10,0,93,128.64,0,0.00,11.00,-1000.00
2024-05-19 09:43:17.041703,0,0,0,0,0,0,58,60,10,0,93,128.59,0,1.00,12.00,-999.00
2024-05-19 09:43:17.216028,0,0,0,0,0,0,58,60,10,0,93,128.64,0,0.00,10.00,-1000.00
2024-05-19 09:43:17.245650,0,0,0,0,0,0,58,60,10,0,93,128.61,0,0.00,11.00,-1000.00
2024-05-19 09:43:17.421001,0,0,0,0,0,0,58,60,10,0,93,128.64,0,0.00,11.00,-1001.00
2024-05-19 09:43:17.449722,0,0,0,0,0,0,58,60,10,0,93,128.62,0,0.00,11.00,-998.00
2024-05-19 09:43:17.551826,0,0,0,0,0,0,58,60,10,0,93,128.63,0,0.00,12.00,-1000.00
2024-05-19 09:43:17.653488,0,0,0,0,0,0,58,60,10,0,93,128.64,0,0.00,12.00,-999.00
2024-05-19 09:43:17.830682,0,0,0,0,0,0,58,60,10,0,93,128.60,0,0.00,10.00,-1000.00
2024-05-19 09:43:17.857540,0,0,0,0,0,0,58,60,10,0,93,128.62,0,0.00,12.00,-997.00
2024-05-19 09:43:18.035545,0,0,0,0,0,0,58,61,10,0,93,128.66,0,0.00,12.00,-1000.00
2024-05-19 09:43:18.061693,0,0,0,0,0,0,58,61,10,0,93,128.67,0,0.00,13.00,-1002.00
2024-05-19 09:43:18.240365,0,0,0,0,0,0,58,61,10,0,93,128.63,0,0.00,14.00,-1000.00
2024-05-19 09:43:18.240811,0,0,0,0,0,0,58,61,10,0,93,128.67,0,0.00,13.00,-1000.00
2024-05-19 09:43:18.316509,0,0,0,0,0,0,58,61,10,0,93,128.66,0,0.00,11.00,-997.00
2024-05-19 09:43:18.445331,0,0,0,0,0,0,58,61,10,0,93,128.66,0,0.00,11.00,-999.00
2024-05-19 09:43:18.520495,0,0,0,0,0,0,58,61,10,0,93,128.63,0,0.00,12.00,-1001.00
2024-05-19 09:43:18.649814,0,0,0,0,0,0,58,61,10,0,93,128.63,0,0.00,11.00,-1001.00
2024-05-19 09:43:18.724371,0,0,0,0,0,0,58,61,10,0,93,128.63,0,6.00,20.00,-1000.00
2024-05-19 09:43:18.854624,0,0,0,0,0,0,58,61,10,0,93,128.63,0,-6.00,15.00,-998.00
2024-05-19 09:43:18.928290,0,0,0,0,0,0,59,61,10,0,93,128.63,0,7.00,-21.00,-991.00
2024-05-19 09:43:19.059317,0,0,0,0,0,0,59,61,10,0,93,128.63,0,-18.00,-22.00,-1058.00
2024-05-19 09:43:19.132320,0,0,1,0,0,-1,59,61,10,0,93,128.63,0,-9.00,-40.00,-1183.00
2024-05-19 09:43:19.264192,0,0,1,0,0,-3,59,61,13,0,93,128.63,0,-22.00,-88.00,-1374.00
2024-05-19 09:43:19.337879,0,1,0,0,-1,-6,59,61,13,10,93,128.63,0,-30.00,-99.00,-1190.00
2024-05-19 09:43:19.438230,-1,3,0,0,-1,-7,59,61,20,10,93,129.07,0,21.00,-74.00,-1016.00
2024-05-19 09:43:19.571375,-1,5,0,0,-1,-8,59,61,28,20,93,129.05,0,24.00,-75.00,-979.00
2024-05-19 09:43:19.643917,0,5,1,0,-1,-8,59,61,33,30,93,129.19,1,8.00,-67.00,-940.00
2024-05-19 09:43:19.744223,0,5,1,0,-1,-8,59,61,41,40,93,129.20,1,-10.00,-58.00,-904.00
2024-05-19 09:43:19.846311,0,5,1,0,-1,-7,59,61,47,50,93,129.26,1,-14.00,-75.00,-918.00
2024-05-19 09:43:19.980909,0,5,1,0,-1,-6,59,61,55,50,93,129.34,1,-24.00,-74.00,-867.00
2024-05-19 09:43:20.050243,0,5,1,0,-1,-4,59,61,59,60,93,129.23,1,-23.00,-72.00,-890.00
2024-05-19 09:43:20.185709,-2,6,1,0,-1,-3,59,61,63,60,93,129.44,1,-24.00,-84.00,-897.00
2024-05-19 09:43:20.254182,-1,6,1,0,0,-2,59,61,65,70,93,129.38,1,-23.00,-67.00,-953.00
2024-05-19 09:43:20.356124,-2,6,1,0,0,-2,59,61,67,70,93,129.47,1,-5.00,-79.00,-931.00
2024-05-19 09:43:20.458446,-2,6,0,0,0,-1,59,61,69,70,93,129.58,1,-4.00,-97.00,-987.00
2024-05-19 09:43:20.560223,-1,5,0,0,0,-1,59,61,70,70,93,129.47,1,-36.00,-88.00,-965.00
2024-05-19 09:43:20.697671,-1,6,1,0,0,-1,59,61,72,70,93,129.62,2,-23.00,-67.00,-987.00
2024-05-19 09:43:20.764568,-3,7,0,0,0,-1,59,61,72,70,93,129.51,2,16.00,-80.00,-1007.00
2024-05-19 09:43:20.815997,-2,6,0,0,0,0,59,61,73,80,93,129.53,2,11.00,-76.00,-1011.00
2024-05-19 09:43:21.005551,-1,6,0,0,0,-1,59,62,73,80,93,129.58,2,17.00,-80.00,-1011.00
2024-05-19 09:43:21.020147,-1,4,0,0,0,-1,59,62,74,80,93,129.63,2,4.00,-93.00,-999.00
2024-05-19 09:43:21.209703,0,5,1,0,0,-1,59,62,75,80,93,129.50,2,-10.00,-82.00,-990.00
2024-05-19 09:43:21.224101,0,6,1,0,0,-1,59,62,76,80,93,129.45,2,-56.00,-63.00,-983.00
2024-05-19 09:43:21.414489,0,5,1,0,0,0,59,62,76,80,93,129.51,2,-19.00,-90.00,-978.00
2024-05-19 09:43:21.428260,-2,5,1,0,0,0,59,62,77,80,93,129.52,2,-33.00,-86.00,-1014.00
2024-05-19 09:43:21.619306,-2,5,1,0,0,0,59,62,78,80,93,129.59,2,-42.00,-97.00,-1019.00
2024-05-19 09:43:21.632442,-3,5,0,0,0,0,59,62,78,80,93,129.57,3,-25.00,-106.00,-962.00
2024-05-19 09:43:21.824084,-4,5,0,0,0,0,59,62,79,80,93,129.51,3,-43.00,-105.00,-975.00
2024-05-19 09:43:21.836309,-3,6,1,0,0,0,59,62,80,80,93,129.52,3,-40.00,-101.00,-992.00
2024-05-19 09:43:22.028892,-3,6,0,0,0,0,60,62,81,80,93,129.65,3,-57.00,-99.00,-973.00
2024-05-19 09:43:22.040142,-3,6,0,0,0,0,60,62,81,80,93,129.57,3,-53.00,-117.00,-999.00
2024-05-19 09:43:22.224185,-3,6,1,0,0,0,60,62,82,80,93,129.47,3,-62.00,-122.00,-961.00
2024-05-19 09:43:22.244070,-4,7,0,0,0,0,60,62,82,80,93,129.44,3,-35.00,-97.00,-970.00
2024-05-19 09:43:22.438390,-5,7,0,0,0,0,60,62,82,80,93,129.46,3,33.00,-85.00,-1034.00
2024-05-19 09:43:22.448111,-3,7,0,1,0,0,60,62,82,80,93,129.49,3,43.00,-105.00,-929.00
2024-05-19 09:43:22.643300,0,7,0,1,0,0,60,62,82,80,93,129.56,3,29.00,-82.00,-969.00
2024-05-19 09:43:22.652046,0,6,0,2,0,0,60,62,82,80,93,129.50,4,14.00,-70.00,-1026.00
2024-05-19 09:43:22.848415,2,6,0,2,1,0,60,62,82,80,93,129.34,4,9.00,-69.00,-1026.00
2024-05-19 09:43:22.856091,2,4,1,1,1,0,60,62,82,80,93,129.37,4,-21.00,-64.00,-994.00
2024-05-19 09:43:23.052875,0,3,1,0,1,0,60,62,82,80,93,129.21,4,-11.00,-68.00,-1051.00
2024-05-19 09:43:23.060024,-1,3,0,0,1,0,60,62,82,80,93,129.32,4,-24.00,-65.00,-1023.00
2024-05-19 09:43:23.236800,-2,3,0,0,1,0,60,62,82,80,93,129.37,4,-16.00,-60.00,-1039.00
2024-05-19 09:43:23.264060,-3,2,1,0,1,0,60,62,83,80,93,129.40,4,-69.00,-55.00,-1007.00
2024-05-19 09:43:23.462543,-4,2,1,-1,1,0,60,62,83,80,93,129.44,4,-94.00,-54.00,-1003.00
2024-05-19 09:43:23.468076,-6,3,0,-1,0,0,60,62,83,80,93,129.41,4,-76.00,-78.00,-956.00
2024-05-19 09:43:23.667530,-7,3,0,-1,0,0,60,62,84,80,93,129.47,5,-79.00,-73.00,-966.00
2024-05-19 09:43:23.672135,-6,4,0,-1,0,0,60,62,84,90,93,129.44,5,-91.00,-72.00,-986.00
2024-05-19 09:43:23.872538,-8,4,0,0,0,0,60,62,85,90,93,129.36,5,-101.00,-82.00,-992.00
2024-05-19 09:43:23.876090,-7,4,0,0,0,0,60,62,85,90,93,129.38,5,-91.00,-73.00,-987.00
2024-05-19 09:43:24.077132,-7,4,0,0,0,0,61,63,85,90,93,129.40,5,-70.00,-79.00,-950.00
2024-05-19 09:43:24.080144,-7,4,0,0,0,0,61,63,85,90,93,129.34,5,-89.00,-77.00,-950.00
2024-05-19 09:43:24.182616,-7,3,0,0,0,0,61,63,85,90,93,129.32,5,-80.00,-55.00,-971.00
2024-05-19 09:43:24.284245,-6,3,0,0,0,0,61,63,84,80,93,129.34,5,-56.00,-52.00,-983.00
2024-05-19 09:43:24.386459,-5,3,0,0,0,0,61,63,84,80,93,129.23,5,-59.00,-53.00,-1019.00
2024-05-19 09:43:24.488009,-4,3,0,1,0,0,61,63,84,80,93,129.27,5,-53.00,-34.00,-1025.00
2024-05-19 09:43:24.691465,-4,3,0,1,0,0,61,63,84,80,93,129.23,6,-18.00,-29.00,-1007.00
2024-05-19 09:43:24.691742,-3,2,0,1,1,0,61,63,84,80,93,129.27,6,-22.00,-35.00,-991.00
2024-05-19 09:43:24.743232,-3,2,1,1,1,0,61,63,85,90,93,129.32,6,-17.00,-31.00,-973.00
2024-05-19 09:43:24.897554,-2,1,0,1,1,0,61,63,85,90,93,129.18,6,-14.00,-39.00,-1011.00
2024-05-19 09:43:24.947284,-1,1,0,1,1,0,61,63,85,90,93,129.19,6,-40.00,-8.00,-1035.00
2024-05-19 09:43:25.101156,-1,1,1,1,1,0,61,63,85,90,93,129.23,6,-20.00,-9.00,-980.00
2024-05-19 09:43:25.151375,-2,0,1,1,1,0,61,63,85,90,93,129.29,6,12.00,-18.00,-1010.00
2024-05-19 09:43:25.253332,-1,0,1,2,0,0,61,63,85,90,93,129.31,6,18.00,-24.00,-1000.00
2024-05-19 09:43:25.408444,0,1,0,2,0,0,61,63,84,90,93,129.37,6,27.00,-29.00,-1025.00
2024-05-19 09:43:25.457330,0,1,0,2,0,0,61,63,84,90,93,129.26,6,48.00,-3.00,-1092.00
2024-05-19 09:43:25.612839,1,1,0,2,0,-1,61,63,86,90,93,129.36,7,46.00,0.00,-1017.00
2024-05-19 09:43:25.662083,2,0,0,2,0,-2,61,63,88,90,93,129.30,7,-10.00,-33.00,-1105.00
2024-05-19 09:43:25.763514,1,1,0,1,0,-3,61,63,91,90,93,129.33,7,9.00,-9.00,-1076.00
2024-05-19 09:43:25.865298,0,0,0,1,1,-4,61,63,94,100,93,129.38,7,45.00,13.00,-1116.00
2024-05-19 09:43:26.022561,1,0,0,1,1,-4,61,64,101,100,93,129.50,7,30.00,10.00,-1062.00
2024-05-19 09:43:26.069293,2,0,0,1,1,-4,61,64,106,100,93,129.55,7,3.00,2.00,-1017.00
2024-05-19 09:43:26.227334,1,0,0,0,0,-5,61,64,111,110,93,129.65,7,-13.00,-1.00,-1032.00
2024-05-19 09:43:26.273230,0,0,0,0,0,-5,61,64,117,120,93,129.66,7,3.00,-22.00,-1024.00
2024-05-19 09:43:26.432467,0,0,0,0,0,-5,61,64,122,120,93,129.74,7,-18.00,-2.00,-1042.00
2024-05-19 09:43:26.477148,-1,1,0,0,0,-5,61,64,128,130,93,129.87,7,9.00,-15.00,-994.00
2024-05-19 09:43:26.636938,-1,1,0,0,0,-5,61,64,133,130,93,129.83,8,24.00,11.00,-1017.00
2024-05-19 09:43:26.681293,-1,0,0,1,0,-5,61,64,138,140,93,129.93,8,71.00,-31.00,-1076.00
2024-05-19 09:43:26.841738,0,1,1,1,0,-5,61,64,144,140,93,129.98,8,77.00,-38.00,-931.00
2024-05-19 09:43:26.885874,2,1,1,2,0,-5,61,64,149,150,93,130.08,8,88.00,-23.00,-922.00
2024-05-19 09:43:27.046844,3,2,1,2,0,-4,62,65,154,150,93,130.09,8,90.00,-40.00,-993.00
2024-05-19 09:43:27.092105,4,2,1,2,0,-3,62,65,158,160,93,130.14,8,91.00,-33.00,-958.00
2024-05-19 09:43:27.192579,4,3,1,2,0,-3,62,65,162,160,93,130.19,8,111.00,-35.00,-972.00
2024-05-19 09:43:27.295400,4,2,1,1,0,-3,62,65,165,170,93,130.26,8,94.00,-56.00,-968.00
2024-05-19 09:43:27.396152,5,3,1,1,0,-2,62,65,167,170,93,130.25,8,106.00,-59.00,-936.00
2024-05-19 09:43:27.497102,5,4,1,1,0,-2,62,65,170,170,93,130.20,8,81.00,-24.00,-963.00
2024-05-19 09:43:27.661240,4,3,1,1,0,-2,62,65,171,170,93,130.30,9,51.00,-72.00,-987.00
2024-05-19 09:43:27.705634,4,4,1,0,0,-1,62,65,174,170,93,130.23,9,16.00,-42.00,-997.00
2024-05-19 09:43:27.803194,2,4,1,0,0,-1,62,65,175,180,93,130.20,9,56.00,-63.00,-942.00
2024-05-19 09:43:27.905142,1,4,1,0,0,-1,62,65,177,180,93,130.31,9,73.00,-44.00,-956.00
2024-05-19 09:43:28.070761,1,4,1,0,0,-1,62,64,178,180,93,130.36,9,84.00,-39.00,-945.00
2024-05-19 09:43:28.109141,2,3,1,0,0,-1,62,64,179,180,93,130.41,9,77.00,-67.00,-966.00
2024-05-19 09:43:28.275435,2,3,1,0,0,0,62,64,179,180,93,130.57,9,59.00,-62.00,-937.00
2024-05-19 09:43:28.275567,2,4,0,0,0,0,62,64,180,180,93,130.49,9,53.00,-95.00,-1003.00
2024-05-19 09:43:28.363966,1,5,0,0,0,0,62,64,180,180,93,130.36,9,61.00,-68.00,-942.00
2024-05-19 09:43:28.466130,1,6,0,0,0,0,62,64,180,180,93,130.39,9,42.00,-82.00,-956.00
2024-05-19 09:43:28.582565,1,5,1,0,0,0,62,64,180,180,93,130.40,10,38.00,-67.00,-1024.00
2024-05-19 09:43:28.669984,0,5,0,0,0,0,62,64,179,180,93,130.39,10,22.00,-73.00,-1029.00
2024-05-19 09:43:28.787711,0,5,1,0,0,0,62,64,180,180,93,130.42,10,23.00,-89.00,-968.00
2024-05-19 09:43:28.873848,0,6,1,0,0,0,62,64,180,180,93,130.33,10,24.00,-89.00,-1005.00
2024-05-19 09:43:28.992151,0,6,1,0,0,0,63,65,181,180,93,130.43,10,12.00,-94.00,-961.00
2024-05-19 09:43:29.077962,0,6,1,0,0,0,63,65,182,180,93,130.43,10,9.00,-98.00,-1005.00
2024-05-19 09:43:29.196929,-1,6,1,0,0,0,63,65,181,180,93,130.41,10,8.00,-100.00,-989.00
2024-05-19 09:43:29.281866,-1,6,1,0,0,0,63,65,180,180,93,130.44,10,-4.00,-99.00,-1000.00
2024-05-19 09:43:29.401797,-1,6,1,0,0,0,63,65,181,180,93,130.42,10,-14.00,-99.00,-1009.00
2024-05-19 09:43:29.486040,-1,7,1,0,0,0,63,65,182,180,93,130.35,10,-6.00,-94.00,-985.00
2024-05-19 09:43:29.606545,-2,6,1,0,0,0,63,65,181,180,93,130.32,11,-17.00,-77.00,-1003.00
2024-05-19 09:43:29.689877,-2,6,1,0,0,0,63,65,181,180,93,130.30,11,-39.00,-85.00,-988.00
2024-05-19 09:43:29.811293,-3,5,1,0,0,0,63,65,181,180,93,130.27,11,-28.00,-81.00,-990.00
2024-05-19 09:43:29.893869,-3,5,1,0,0,0,63,65,181,180,93,130.28,11,-9.00,-91.00,-1002.00
2024-05-19 09:43:30.016055,-3,5,1,0,0,0,63,66,181,180,93,130.28,11,-49.00,-46.00,-990.00
2024-05-19 09:43:30.097699,-3,5,1,0,1,0,63,66,182,180,93,130.31,11,-65.00,-41.00,-1000.00
2024-05-19 09:43:30.220865,-4,4,1,0,1,0,63,66,182,180,93,130.19,11,-70.00,-51.00,-997.00
2024-05-19 09:43:30.301795,-5,3,0,0,1,0,63,66,181,180,93,130.19,11,-36.00,-56.00,-947.00
2024-05-19 09:43:30.425592,-5,3,0,0,1,0,63,66,181,180,93,130.19,11,-34.00,-63.00,-907.00
2024-05-19 09:43:30.506274,-5,3,0,0,1,1,63,66,180,180,93,130.12,11,-17.00,-54.00,-952.00
2024-05-19 09:43:30.630421,-4,3,1,0,1,1,63,66,179,180,93,130.20,12,-39.00,-56.00,-928.00
2024-05-19 09:43:30.709669,-4,4,1,0,1,1,63,66,177,180,93,130.38,12,-56.00,-20.00,-952.00
2024-05-19 09:43:30.835212,-5,3,1,0,1,2,63,66,175,180,93,130.35,12,-25.00,-37.00,-924.00
2024-05-19 09:43:30.913659,-4,3,1,0,1,3,63,66,171,170,93,130.19,12,-9.00,-57.00,-951.00
2024-05-19 09:43:31.040132,-4,2,1,1,1,3,63,65,168,170,93,130.00,12,16.00,-48.00,-1026.00
2024-05-19 09:43:31.117702,-2,3,0,1,0,3,63,65,164,170,93,130.12,12,20.00,-55.00,-998.00
2024-05-19 09:43:31.244801,0,3,0,1,0,3,63,65,162,160,93,130.02,12,-8.00,-49.00,-1040.00
2024-05-19 09:43:31.321683,0,3,0,1,0,2,63,65,158,160,93,129.92,12,-19.00,-60.00,-1004.00
2024-05-19 09:43:31.449588,-1,3,0,1,0,2,63,65,156,160,93,130.00,12,12.00,-65.00,-966.00
2024-05-19 09:43:31.525815,-1,3,0,1,0,2,63,65,153,160,93,130.02,12,-16.00,-52.00,-1026.00
2024-05-19 09:43:31.654409,-1,3,0,1,0,2,63,65,151,150,93,129.92,13,-4.00,-60.00,-1024.00
2024-05-19 09:43:31.729958,-2,3,0,1,0,1,63,65,149,150,93,129.92,13,-34.00,-48.00,-1005.00
2024-05-19 09:43:31.859207,-2,3,0,1,0,1,63,65,146,150,93,129.95,13,-28.00,-50.00,-989.00
2024-05-19 09:43:31.882816,-2,3,0,1,0,1,63,65,145,150,93,129.84,13,-43.00,-46.00,-1073.00
2024-05-19 09:43:32.063992,-2,3,0,0,0,1,63,66,143,150,93,129.84,13,-18.00,-56.00,-1002.00
2024-05-19 09:43:32.086805,-2,3,0,0,0,1,63,66,141,150,93,129.83,13,-29.00,-63.00,-1000.00
2024-05-19 09:43:32.268797,-3,3,0,0,0,1,63,66,139,140,93,129.83,13,-28.00,-54.00,-1018.00
2024-05-19 09:43:32.291685,-3,3,0,0,0,1,63,66,138,140,93,129.84,13,-40.00,-58.00,-1016.00
2024-05-19 09:43:32.473934,-3,3,0,0,0,0,63,66,136,140,93,129.77,13,-23.00,-54.00,-986.00
2024-05-19 09:43:32.495608,-4,3,0,0,0,0,63,66,135,140,93,129.76,13,-47.00,-57.00,-1005.00
2024-05-19 09:43:32.678369,-4,3,1,0,0,0,63,66,134,140,93,129.84,14,-52.00,-53.00,-1010.00
2024-05-19 09:43:32.698820,-5,4,1,0,0,0,63,66,133,140,93,129.85,14,-75.00,-58.00,-1029.00
2024-05-19 09:43:32.883695,-5,3,1,0,0,0,63,66,133,140,93,129.75,14,-59.00,-46.00,-1012.00
2024-05-19 09:43:32.902881,-5,3,1,0,0,0,63,66,132,140,93,129.64,14,-61.00,-41.00,-1021.00
2024-05-19 09:43:33.088078,-5,2,1,0,1,0,65,66,132,140,93,129.67,14,-89.00,-36.00,-1016.00
2024-05-19 09:43:33.106852,-6,2,0,0,1,0,65,66,132,140,93,129.61,14,-81.00,-38.00,-970.00
2024-05-19 09:43:33.277641,-6,1,0,0,1,0,65,66,132,140,93,129.87,14,-108.00,-35.00,-1001.00
2024-05-19 09:43:33.310899,-7,2,0,0,0,0,65,66,133,140,93,129.83,14,-62.00,-51.00,-913.00
2024-05-19 09:43:33.497844,-8,2,0,0,0,0,65,66,134,140,93,129.82,14,-90.00,-35.00,-965.00
2024-05-19 09:43:33.514925,-8,2,0,0,0,0,65,66,133,140,93,129.98,14,-70.00,-44.00,-975.00
2024-05-19 09:43:33.702504,-7,3,1,0,0,0,65,66,132,140,93,129.86,15,-105.00,0.00,-1021.00
2024-05-19 09:43:33.718964,-6,4,0,0,0,0,65,66,131,130,93,129.94,15,-80.00,-48.00,-1011.00
2024-05-19 09:43:33.907685,-6,1,0,0,1,0,65,66,131,130,93,129.93,15,-77.00,-64.00,-989.00
2024-05-19 09:43:33.922935,-6,1,0,0,0,0,65,66,131,130,93,129.90,15,-70.00,-61.00,-1048.00
2024-05-19 09:43:34.112045,-7,3,0,0,0,0,65,67,131,130,93,129.76,15,-17.00,-60.00,-962.00
2024-05-19 09:43:34.126936,-7,3,0,1,0,0,65,67,131,130,93,129.68,15,-53.00,-54.00,-1079.00
2024-05-19 09:43:34.316857,-5,4,0,1,0,0,65,67,132,130,93,129.85,15,-51.00,-54.00,-990.00
2024-05-19 09:43:34.330857,-4,4,0,1,0,0,65,67,132,130,93,129.73,15,-23.00,-41.00,-993.00
2024-05-19 09:43:34.432822,-4,4,0,2,0,0,65,67,132,130,93,129.81,15,-42.00,-65.00,-998.00
2024-05-19 09:43:34.624137,-3,3,1,1,0,0,65,67,133,130,93,129.92,15,-49.00,-57.00,-1025.00
2024-05-19 09:43:34.636770,-3,4,0,1,0,0,65,67,133,130,93,129.91,16,18.00,-44.00,-959.00
2024-05-19 09:43:34.742741,-4,4,0,2,0,0,65,67,133,130,93,129.92,16,0.00,-31.00,-1026.00
2024-05-19 09:43:34.840794,-2,4,0,2,0,0,65,67,132,130,93,129.85,16,24.00,-23.00,-1019.00
2024-05-19 09:43:35.033560,0,2,0,2,0,0,65,67,133,130,93,129.79,16,-10.00,-51.00,-1018.00
2024-05-19 09:43:35.044736,-4,2,0,2,0,0,65,67,134,130,93,129.89,16,-13.00,-43.00,-977.00
2024-05-19 09:43:35.238526,-7,2,0,3,0,0,65,67,135,130,93,129.81,16,-17.00,-59.00,-1027.00
2024-05-19 09:43:35.248748,-8,2,0,4,0,0,65,67,135,140,93,129.83,16,-6.00,-57.00,-956.00
2024-05-19 09:43:35.443240,-7,3,0,5,0,0,65,67,135,140,93,129.86,16,0.00,-48.00,-1036.00
2024-05-19 09:43:35.452837,-7,3,0,6,0,0,65,67,135,140,93,129.82,16,-42.00,-45.00,-1015.00
2024-05-19 09:43:35.647963,-6,3,0,7,0,0,65,67,135,140,93,129.81,16,-9.00,-54.00,-964.00
2024-05-19 09:43:35.656748,-6,3,0,7,0,0,65,67,135,140,93,129.71,17,-35.00,-52.00,-964.00
2024-05-19 09:43:35.852844,-4,4,0,7,0,0,65,67,135,140,93,129.81,17,-62.00,-52.00,-948.00
2024-05-19 09:43:35.860953,-1,5,0,7,0,0,65,67,136,140,93,129.77,17,-56.00,-52.00,-1003.00
2024-05-19 09:43:35.912649,0,4,1,7,0,0,65,67,135,140,93,129.73,17,-56.00,-50.00,-1000.00
2024-05-19 09:43:36.058200,2,4,1,6,0,0,65,67,135,140,93,129.83,17,-43.00,-51.00,-997.00
2024-05-19 09:43:36.116692,2,3,1,4,0,0,65,67,134,140,93,129.79,17,-34.00,-49.00,-997.00
2024-05-19 09:43:36.262419,1,4,1,3,0,0,65,67,134,140,93,129.81,17,-22.00,-45.00,-1048.00
2024-05-19 09:43:36.320864,0,4,1,3,0,0,65,67,134,140,93,129.94,17,-4.00,-58.00,-979.00
2024-05-19 09:43:36.467282,0,4,0,3,0,0,65,67,133,140,93,129.89,17,-2.00,-52.00,-925.00
2024-05-19 09:43:36.524806,-1,4,1,3,0,0,65,67,133,140,93,129.77,17,3.00,-51.00,-972.00
2024-05-19 09:43:36.671944,-1,4,1,2,0,0,65,67,132,130,93,129.92,18,31.00,-22.00,-1020.00
2024-05-19 09:43:36.728701,0,3,0,2,1,0,65,67,132,130,93,129.92,18,7.00,-25.00,-1021.00
2024-05-19 09:43:36.876818,0,2,0,2,1,0,65,67,132,130,93,129.89,18,20.00,-27.00,-1014.00
2024-05-19 09:43:36.932682,0,1,0,2,1,0,65,67,132,130,93,129.91,18,22.00,-34.00,-989.00
2024-05-19 09:43:37.034656,0,1,0,2,1,0,65,68,132,130,93,129.95,18,28.00,-58.00,-973.00
2024-05-19 09:43:37.184861,-1,1,0,2,0,0,65,68,132,130,93,129.87,18,-18.00,-16.00,-1100.00
2024-05-19 09:43:37.238602,-1,2,0,2,0,0,65,68,132,130,93,129.81,18,-3.00,-20.00,-1047.00
2024-05-19 09:43:37.388811,-1,1,0,2,0,0,65,68,133,130,93,129.82,18,2.00,-33.00,-977.00
2024-05-19 09:43:37.442611,-1,1,1,2,0,0,65,68,133,130,93,129.97,18,-16.00,-18.00,-994.00
2024-05-19 09:43:37.593616,-1,2,1,2,0,0,65,68,134,140,93,129.88,18,-6.00,-10.00,-1033.00
2024-05-19 09:43:37.646580,-1,2,1,1,0,0,65,68,134,140,93,129.84,19,-14.00,-30.00,-991.00
2024-05-19 09:43:37.798521,-2,1,1,1,0,0,65,68,135,140,93,129.91,19,-9.00,-12.00,-997.00
2024-05-19 09:43:37.850667,-2,1,1,1,0,0,65,68,135,140,93,129.93,19,-13.00,-13.00,-982.00
2024-05-19 09:43:38.003352,-2,1,1,1,0,0,65,68,135,140,93,129.93,19,-21.00,-6.00,-1015.00
2024-05-19 09:43:38.054640,-2,1,1,1,0,0,66,67,136,140,93,129.97,19,-32.00,5.00,-986.00
2024-05-19 09:43:38.207954,-2,0,1,1,0,0,66,67,136,140,93,129.99,19,1.00,-16.00,-943.00
2024-05-19 09:43:38.258694,-2,0,1,1,0,0,66,67,136,140,93,130.01,19,-17.00,0.00,-965.00
2024-05-19 09:43:38.413118,-2,0,1,1,0,0,66,67,137,140,93,129.96,19,-26.00,2.00,-1029.00
2024-05-19 09:43:38.462605,-1,0,1,1,0,0,66,67,138,140,93,129.99,19,-23.00,-2.00,-1010.00
2024-05-19 09:43:38.617589,1,0,1,1,0,0,66,67,138,140,93,129.94,19,-6.00,-4.00,-1015.00
2024-05-19 09:43:38.666479,0,0,1,0,0,0,66,67,137,140,93,130.04,20,0.00,-10.00,-1014.00
2024-05-19 09:43:38.768705,-1,1,1,0,0,0,66,67,137,140,93,129.97,20,3.00,-10.00,-991.00
2024-05-19 09:43:38.925517,-2,1,1,0,0,0,66,67,137,140,93,129.97,20,23.00,-16.00,-977.00
2024-05-19 09:43:38.972543,-2,1,1,0,0,0,66,67,137,140,93,129.97,20,-6.00,-20.00,-1021.00
2024-05-19 09:43:39.129680,0,1,0,1,0,0,66,69,137,140,93,130.01,20,12.00,-19.00,-1000.00
2024-05-19 09:43:39.176605,0,1,0,1,0,0,66,69,136,140,93,129.99,20,7.00,-18.00,-983.00
2024-05-19 09:43:39.334719,0,1,0,1,0,0,66,69,136,140,93,130.00,20,22.00,-23.00,-1000.00
2024-05-19 09:43:39.380721,1,1,0,0,0,0,66,69,136,140,93,129.92,20,27.00,-4.00,-1005.00
2024-05-19 09:43:39.539388,1,1,0,0,0,0,66,69,136,140,93,129.85,20,16.00,-10.00,-1016.00
2024-05-19 09:43:39.584758,0,1,1,0,0,0,66,69,136,140,93,129.87,21,9.00,-9.00,-1042.00
2024-05-19 09:43:39.744217,0,1,1,0,0,0,66,69,136,140,93,129.98,21,22.00,-21.00,-956.00
2024-05-19 09:43:39.744426,0,1,1,0,0,0,66,69,136,140,93,130.00,21,14.00,-3.00,-1018.00
2024-05-19 09:43:39.839348,0,1,1,0,0,0,66,69,136,140,93,130.03,21,19.00,-36.00,-969.00
2024-05-19 09:43:39.941322,0,1,1,0,0,0,66,69,137,140,93,130.00,21,0.00,-22.00,-970.00
2024-05-19 09:43:40.051719,0,1,1,0,0,0,66,69,136,140,93,130.12,21,5.00,4.00,-983.00
2024-05-19 09:43:40.145700,0,1,1,0,0,0,66,69,137,140,93,130.04,21,3.00,-15.00,-999.00
2024-05-19 09:43:40.256656,-1,1,1,0,0,0,66,69,136,140,93,130.01,21,-12.00,3.00,-978.00
2024-05-19 09:43:40.349400,-1,1,1,0,0,0,66,69,136,140,93,130.08,21,3.00,-1.00,-960.00
2024-05-19 09:43:40.451460,-1,0,1,0,0,0,66,69,136,140,93,130.11,21,-22.00,6.00,-1000.00
2024-05-19 09:43:40.563303,-1,0,1,0,0,0,66,69,135,140,93,130.07,22,-4.00,4.00,-1007.00
2024-05-19 09:43:40.655374,-1,0,1,0,0,0,66,69,135,140,93,130.13,22,-6.00,14.00,-1011.00
2024-05-19 09:43:40.757244,-2,0,1,0,0,0,66,69,135,140,93,130.12,22,14.00,3.00,-970.00
2024-05-19 09:43:40.870803,0,0,1,0,0,0,66,69,134,140,93,130.21,22,11.00,16.00,-967.00
2024-05-19 09:43:40.962423,6,0,1,0,0,0,66,69,134,140,93,130.21,22,-6.00,-3.00,-988.00
2024-05-19 09:43:41.075149,8,0,1,-2,0,0,66,69,135,140,93,130.16,22,28.00,-8.00,-1008.00
2024-05-19 09:43:41.166332,7,0,1,-3,0,0,66,69,134,130,93,130.12,22,15.00,-12.00,-1030.00
2024-05-19 09:43:41.280088,6,0,1,-5,0,0,66,69,133,130,93,130.05,22,34.00,-6.00,-1037.00
2024-05-19 09:43:41.369282,5,1,1,-6,0,0,66,69,133,130,93,130.14,22,26.00,-12.00,-996.00
2024-05-19 09:43:41.485320,4,1,1,-7,0,0,66,69,132,130,93,130.14,22,43.00,-22.00,-1003.00
2024-05-19 09:43:41.573185,4,1,1,-7,0,0,66,69,132,130,93,130.12,23,12.00,12.00,-1040.00
2024-05-19 09:43:41.689564,1,1,1,-7,0,0,66,69,132,130,93,130.26,23,46.00,-25.00,-994.00
2024-05-19 09:43:41.777211,-2,1,1,-7,0,0,66,69,132,130,93,130.18,23,35.00,-17.00,-1004.00
2024-05-19 09:43:41.894374,-4,1,1,-7,0,0,66,69,132,130,93,130.16,23,38.00,-31.00,-998.00
2024-05-19 09:43:41.981171,-6,1,1,-6,0,0,66,69,132,130,93,130.14,23,26.00,-18.00,-1014.00
2024-05-19 09:43:42.099170,-5,2,1,-4,0,0,66,69,133,130,93,130.13,23,26.00,-26.00,-1014.00
2024-05-19 09:43:42.185311,-3,2,1,-4,0,0,66,69,133,130,93,130.15,23,-6.00,-7.00,-1000.00
2024-05-19 09:43:42.303988,-3,2,1,-4,0,0,66,69,133,140,93,130.21,23,9.00,-26.00,-998.00
2024-05-19 09:43:42.389224,-2,1,1,-3,0,0,66,69,133,140,93,130.18,23,11.00,-19.00,-954.00
2024-05-19 09:43:42.508773,-6,1,1,-3,0,0,66,69,134,140,93,130.25,23,-1.00,-6.00,-990.00
2024-05-19 09:43:42.593144,-7,1,1,-2,0,0,66,69,144,140,93,130.22,24,-18.00,20.00,-963.00
2024-05-19 09:43:42.713442,-5,1,1,-2,0,0,66,69,139,140,93,130.23,24,-19.00,13.00,-977.00
2024-05-19 09:43:42.797163,-4,1,1,-1,0,0,66,69,136,140,93,130.24,24,-24.00,21.00,-988.00
2024-05-19 09:43:42.919094,-3,0,1,-1,0,0,66,69,137,140,93,130.22,24,-50.00,39.00,-995.00
2024-05-19 09:43:43.001699,-4,0,1,-1,0,0,66,69,144,140,93,130.12,24,-51.00,41.00,-1006.00
2024-05-19 09:43:43.123666,-4,0,1,-1,1,0,68,70,151,140,93,130.15,24,-42.00,54.00,-1008.00
2024-05-19 09:43:43.205189,-4,-1,1,-1,1,0,68,70,161,130,93,130.06,24,-53.00,45.00,-1064.00
2024-05-19 09:43:43.328311,-5,-2,0,-1,1,0,68,70,205,130,93,129.95,24,-35.00,45.00,-1075.00
2024-05-19 09:43:43.409235,-6,-2,0,-1,1,0,68,70,238,130,93,129.93,24,-55.00,37.00,-1037.00
2024-05-19 09:43:43.532736,-6,-2,0,0,0,0,68,70,244,130,93,129.94,24,-50.00,33.00,-1022.00
2024-05-19 09:43:43.562574,-6,-2,0,0,0,0,68,70,246,140,93,130.00,25,-48.00,18.00,-986.00
2024-05-19 09:43:43.737766,-6,-2,0,-1,0,0,68,70,244,140,93,130.07,25,-46.00,15.00,-977.00
2024-05-19 09:43:43.766292,-6,-1,0,0,0,0,68,70,248,140,93,130.01,25,-51.00,9.00,-953.00
2024-05-19 09:43:43.942975,-7,-1,0,0,0,0,68,70,248,140,93,130.05,25,-50.00,17.00,-980.00
2024-05-19 09:43:43.970322,-6,0,0,0,0,0,68,70,247,140,93,129.97,25,-36.00,-1.00,-976.00
2024-05-19 09:43:44.147646,-5,0,0,0,0,0,68,70,247,140,93,129.88,25,-40.00,1.00,-961.00
2024-05-19 09:43:44.174355,-4,0,0,1,0,0,68,70,235,140,93,129.90,25,-37.00,1.00,-952.00
2024-05-19 09:43:44.352059,-3,1,0,1,0,0,68,70,198,140,93,129.92,25,-52.00,5.00,-975.00
2024-05-19 09:43:44.378271,-2,1,0,2,0,0,68,70,172,140,93,129.89,25,-43.00,14.00,-984.00
2024-05-19 09:43:44.480690,-1,1,0,1,0,0,68,70,162,140,93,129.92,25,-56.00,17.00,-990.00
2024-05-19 09:43:44.659210,-1,1,0,1,0,0,68,70,157,140,93,129.83,26,-50.00,15.00,-1001.00
2024-05-19 09:43:44.684664,-1,1,0,1,0,0,68,70,155,140,93,129.92,26,-23.00,-7.00,-997.00
2024-05-19 09:43:44.786224,-1,1,0,0,0,1,68,70,163,140,93,129.99,26,-35.00,-5.00,-1013.00
2024-05-19 09:43:44.966988,-2,1,0,0,0,1,68,70,176,140,93,130.00,26,-49.00,-14.00,-1038.00
2024-05-19 09:43:44.990359,0,-6,0,0,0,0,68,70,178,130,93,129.90,26,-47.00,-25.00,-986.00
2024-05-19 09:43:45.171436,-1,-7,0,0,-1,1,68,70,213,130,93,129.89,26,-33.00,-13.00,-1042.00
2024-05-19 09:43:45.194334,-2,-4,0,-1,-3,1,68,70,234,130,93,129.94,26,-10.00,7.00,-976.00
2024-05-19 09:43:45.375886,-4,-2,0,-1,-4,0,68,70,239,130,93,129.83,26,-38.00,14.00,-1074.00
2024-05-19 09:43:45.399702,-6,1,0,-1,-4,0,68,70,243,130,93,129.81,26,-23.00,18.00,-1019.00
2024-05-19 09:43:45.500471,-7,3,0,-1,-4,0,68,70,245,130,93,129.95,26,-41.00,33.00,-1027.00
2024-05-19 09:43:45.602506,-7,3,0,0,-3,0,68,70,244,130,93,129.96,27,-37.00,33.00,-1035.00
2024-05-19 09:43:45.704203,-7,3,0,0,-3,-1,68,70,246,130,93,129.92,27,-35.00,21.00,-1005.00
2024-05-19 09:43:45.888748,-6,3,0,0,-3,-1,68,70,249,130,93,129.97,27,-39.00,27.00,-965.00
2024-05-19 09:43:45.909718,-5,3,0,1,-2,-1,68,70,248,140,93,129.98,27,-51.00,18.00,-959.00
2024-05-19 09:43:46.010186,-5,3,0,1,-2,0,68,70,246,140,93,129.92,27,-49.00,15.00,-1064.00
2024-05-19 09:43:46.195112,-4,3,0,2,-1,0,68,71,248,140,93,129.84,27,-38.00,-10.00,-957.00
2024-05-19 09:43:46.214244,-4,3,0,2,0,0,68,71,244,140,93,129.90,27,-54.00,-3.00,-968.00
2024-05-19 09:43:46.399847,-3,2,0,3,0,0,68,71,227,140,93,129.91,27,-43.00,-6.00,-986.00
2024-05-19 09:43:46.418299,-2,1,0,3,0,0,68,71,200,140,93,129.90,27,-30.00,-13.00,-942.00
2024-05-19 09:43:46.604713,0,0,0,3,0,0,68,71,153,140,93,129.99,27,-34.00,-9.00,-986.00
2024-05-19 09:43:46.622246,2,-1,0,2,1,0,68,71,142,140,93,129.96,28,-49.00,-3.00,-993.00
2024-05-19 09:43:46.809549,1,-4,0,1,1,0,68,71,156,140,93,130.01,28,-34.00,0.00,-1043.00
2024-05-19 09:43:46.826119,0,-5,0,0,0,0,68,71,196,140,93,129.96,28,2.00,5.00,-907.00
2024-05-19 09:43:46.877217,-1,-4,0,0,0,1,68,71,224,140,93,129.91,28,-35.00,1.00,-1073.00
2024-05-19 09:43:47.014669,-2,-2,0,0,-1,0,68,71,239,140,93,129.88,28,-40.00,1.00,-1004.00
2024-05-19 09:43:47.132070,-4,0,0,-1,-2,0,68,70,243,130,92,129.94,28,-28.00,0.00,-1017.00
2024-05-19 09:43:47.321376,-7,4,0,-1,-2,0,68,70,249,130,92,129.96,28,-19.00,19.00,-1048.00
2024-05-19 09:43:47.321631,-7,3,0,-1,-2,0,68,70,251,130,92,129.94,28,11.00,0.00,-974.00
2024-05-19 09:43:47.387051,-7,3,0,0,-1,0,68,70,248,130,92,129.92,28,-6.00,12.00,-996.00
2024-05-19 09:43:47.526340,-7,4,0,0,-1,0,68,70,247,130,92,129.89,28,-36.00,-20.00,-1043.00
2024-05-19 09:43:47.590765,-5,5,0,1,-1,0,68,70,245,130,92,129.94,29,-12.00,-3.00,-1009.00
2024-05-19 09:43:47.731163,-4,6,0,1,-1,0,68,70,245,130,92,129.88,29,-45.00,5.00,-1094.00
2024-05-19 09:43:47.795521,-2,5,0,2,0,0,68,70,240,130,92,129.84,29,-2.00,-46.00,-958.00
2024-05-19 09:43:47.936088,-1,5,1,2,0,0,68,70,230,130,92,129.97,29,-31.00,-53.00,-1004.00
2024-05-19 09:43:47.999034,0,4,1,2,0,0,68,70,199,130,92,129.89,29,8.00,-39.00,-1003.00
2024-05-19 09:43:48.140741,0,3,1,3,0,0,69,70,181,130,92,129.80,29,-3.00,-44.00,-996.00
2024-05-19 09:43:48.202864,0,2,1,3,0,0,69,70,168,130,92,129.82,29,-4.00,-41.00,-987.00
2024-05-19 09:43:48.345632,1,1,1,3,1,0,69,70,152,130,92,129.87,29,-5.00,-38.00,-986.00
2024-05-19 09:43:48.407082,1,1,0,2,1,0,69,70,149,130,92,129.88,29,14.00,-27.00,-972.00
2024-05-19 09:43:48.550416,1,1,0,2,1,0,69,70,150,130,92,129.93,29,2.00,-23.00,-1010.00
2024-05-19 09:43:48.610873,1,1,0,1,1,0,69,70,156,130,92,129.87,30,27.00,-24.00,-1000.00
2024-05-19 09:43:48.755078,0,0,0,1,0,0,69,70,176,130,92,129.84,30,21.00,-25.00,-1021.00
2024-05-19 09:43:48.814925,0,0,0,0,0,0,69,70,187,130,92,129.86,30,5.00,-23.00,-1008.00
2024-05-19 09:43:48.960031,0,1,1,0,0,0,69,70,209,130,92,129.76,30,6.00,-10.00,-1046.00
2024-05-19 09:43:49.020164,0,0,1,0,0,0,69,70,213,130,92,129.84,30,18.00,-8.00,-1021.00
2024-05-19 09:43:49.164776,-1,1,1,0,0,0,70,71,238,130,92,129.83,30,41.00,-19.00,-969.00
2024-05-19 09:43:49.224108,-2,2,1,0,0,0,70,71,242,130,92,129.91,30,16.00,0.00,-1009.00
2024-05-19 09:43:49.369661,-2,2,1,0,0,0,70,71,243,130,92,129.87,30,15.00,-16.00,-1017.00
2024-05-19 09:43:49.428142,-2,3,1,0,0,0,70,71,241,130,92,129.98,30,1.00,-4.00,-1016.00
2024-05-19 09:43:49.574294,-2,3,1,0,0,0,70,71,243,130,92,129.94,30,24.00,-12.00,-986.00
2024-05-19 09:43:49.632077,-2,3,1,0,0,0,70,71,243,140,92,129.89,31,5.00,-25.00,-1001.00
2024-05-19 09:43:49.734260,-2,3,1,0,0,0,70,71,243,140,92,129.83,31,1.00,-29.00,-957.00
2024-05-19 09:43:49.881442,-2,3,1,0,0,0,70,71,241,140,92,129.91,31,-16.00,-2.00,-1019.00
2024-05-19 09:43:49.937895,-1,3,1,1,0,0,70,71,221,140,92,129.94,31,10.00,-18.00,-993.00
2024-05-19 09:43:50.086171,0,7,1,1,1,0,70,71,206,140,92,129.91,31,19.00,-18.00,-1000.00
2024-05-19 09:43:50.141881,0,8,1,1,2,0,69,71,209,140,92,129.89,31,13.00,-23.00,-1031.00
2024-05-19 09:43:50.291016,0,5,1,1,3,0,69,71,205,140,92,129.88,31,11.00,-45.00,-969.00
2024-05-19 09:43:50.345872,0,3,1,1,4,0,69,71,204,140,92,129.88,31,13.00,-40.00,-976.00
2024-05-19 09:43:50.447929,1,0,1,1,4,0,69,71,196,140,92,129.85,31,7.00,-28.00,-1028.00
2024-05-19 09:43:50.598237,2,0,1,0,4,0,69,71,190,140,92,129.86,31,10.00,-31.00,-1005.00
2024-05-19 09:43:50.652013,2,-1,1,0,4,0,69,71,200,130,92,129.91,32,12.00,-18.00,-1021.00
2024-05-19 09:43:50.802957,2,-1,1,0,4,0,69,71,223,130,92,129.84,32,29.00,-15.00,-1024.00
2024-05-19 09:43:50.855881,1,-1,1,0,3,0,69,71,239,130,92,129.85,32,32.00,-13.00,-1034.00
2024-05-19 09:43:50.957895,-2,-1,1,-1,3,1,69,71,241,130,92,129.88,32,12.00,9.00,-1012.00
2024-05-19 09:43:51.110225,-2,0,1,-1,2,0,69,71,242,130,92,129.95,32,9.00,-13.00,-1038.00
2024-05-19 09:43:51.161915,-2,0,1,-1,2,0,70,71,243,130,92,129.86,32,-2.00,18.00,-1006.00
2024-05-19 09:43:51.315009,-2,0,1,-1,1,0,70,71,244,130,92,129.83,32,2.00,12.00,-1031.00
2024-05-19 09:43:51.365761,-4,0,1,0,0,0,70,71,253,130,92,129.87,32,30.00,21.00,-988.00
2024-05-19 09:43:51.417044,-6,0,1,0,0,0,70,71,254,130,92,129.91,32,4.00,6.00,-992.00
2024-05-19 09:43:51.519803,-5,1,1,0,0,0,70,71,248,130,92,129.93,32,12.00,-3.00,-995.00
2024-05-19 09:43:51.622165,-3,2,1,1,0,-1,70,71,246,130,92,129.95,33,-6.00,5.00,-994.00
2024-05-19 09:43:51.722633,-2,3,1,1,0,-1,70,71,248,140,92,129.96,33,-5.00,11.00,-971.00
2024-05-19 09:43:51.824777,-1,3,1,1,1,-1,70,71,248,140,92,129.88,33,0.00,-9.00,-986.00
2024-05-19 09:43:51.926819,0,3,1,2,1,-1,70,71,244,140,92,129.87,33,2.00,21.00,-951.00
2024-05-19 09:43:52.031783,0,3,1,2,1,0,70,71,234,140,92,129.91,33,-18.00,-5.00,-971.00
2024-05-19 09:43:52.130567,2,3,1,2,1,0,69,72,207,140,92,129.93,33,0.00,-18.00,-973.00
2024-05-19 09:43:52.236922,2,2,1,1,2,0,69,72,226,140,92,129.83,33,14.00,-1.00,-969.00
2024-05-19 09:43:52.334752,1,1,1,1,2,0,69,72,235,140,92,129.88,33,-3.00,-16.00,-967.00
2024-05-19 09:43:52.436659,0,0,1,0,2,0,69,72,242,140,92,129.89,33,5.00,-25.00,-1003.00
2024-05-19 09:43:52.543929,0,0,1,0,2,1,69,72,241,140,92,129.85,33,0.00,-14.00,-1027.00
2024-05-19 09:43:52.640948,0,0,1,0,2,1,69,72,241,140,92,129.84,34,28.00,-15.00,-1024.00
2024-05-19 09:43:52.748641,0,0,1,0,2,1,69,72,241,130,92,129.85,34,18.00,-19.00,-1030.00
2024-05-19 09:43:52.844932,-1,0,0,0,1,1,69,72,241,130,92,129.83,34,-7.00,-20.00,-1063.00
2024-05-19 09:43:52.946618,-1,-1,0,0,1,0,69,72,240,130,92,129.90,34,3.00,-24.00,-1062.00
2024-05-19 09:43:53.055891,-2,-2,0,0,0,0,69,72,241,130,92,129.87,34,1.00,-4.00,-1041.00
2024-05-19 09:43:53.150634,-3,0,0,0,0,0,70,72,239,130,91,129.74,34,13.00,-9.00,-1018.00
2024-05-19 09:43:53.260753,-3,1,0,0,0,0,70,72,235,130,91,129.77,34,-4.00,9.00,-1089.00
2024-05-19 09:43:53.354680,-3,2,0,0,0,-1,70,72,236,130,91,129.72,34,-15.00,7.00,-1003.00
2024-05-19 09:43:53.465576,-2,2,0,0,0,-1,70,72,233,140,91,129.78,34,7.00,-13.00,-969.00
2024-05-19 09:43:53.558643,-2,3,0,0,0,-1,70,72,232,140,91,129.84,35,-1.00,-11.00,-975.00
2024-05-19 09:43:53.673429,-1,3,0,1,0,0,70,72,227,140,91,129.78,35,-12.00,-20.00,-975.00
2024-05-19 09:43:53.762746,-1,3,0,1,0,0,70,72,220,140,91,129.78,35,-12.00,-7.00,-995.00
2024-05-19 09:43:53.875123,0,3,0,1,0,0,70,72,231,140,91,129.83,35,4.00,-1.00,-978.00
2024-05-19 09:43:53.966629,0,2,0,1,0,0,70,72,236,140,91,129.92,35,-19.00,-11.00,-1016.00
2024-05-19 09:43:54.079974,0,2,0,1,0,0,70,72,204,140,91,129.80,35,11.00,-13.00,-987.00
2024-05-19 09:43:54.170700,0,1,0,1,0,0,70,72,194,140,91,129.79,35,12.00,-13.00,-965.00
2024-05-19 09:43:54.284727,0,1,0,1,1,0,70,72,245,130,91,129.81,35,23.00,-7.00,-965.00
2024-05-19 09:43:54.374453,0,0,0,0,1,0,70,72,243,130,91,129.84,35,17.00,-9.00,-995.00
2024-05-19 09:43:54.476328,0,0,4,0,1,0,70,72,245,130,91,129.75,35,10.00,-11.00,-997.00
2024-05-19 09:43:54.591745,0,0,9,0,1,0,70,72,243,130,91,129.80,36,27.00,2.00,-999.00
2024-05-19 09:43:54.680445,0,0,15,0,1,0,70,72,245,130,91,129.87,36,14.00,-4.00,-1009.00
2024-05-19 09:43:54.796567,0,0,20,0,1,0,70,72,248,130,91,129.90,36,9.00,-2.00,-1025.00
2024-05-19 09:43:54.886478,-1,0,25,0,0,0,70,72,247,130,91,129.91,36,-13.00,-7.00,-1040.00
2024-05-19 09:43:54.938679,-1,-1,30,0,0,0,70,72,248,130,91,129.94,36,0.00,4.00,-1046.00
2024-05-19 09:43:55.038417,-1,-1,35,0,0,0,70,72,250,130,91,130.03,36,33.00,0.00,-966.00
2024-05-19 09:43:55.206172,-1,-2,40,0,0,0,70,72,250,140,91,129.96,36,-4.00,16.00,-1001.00
2024-05-19 09:43:55.242394,-2,-1,45,0,0,0,70,72,251,140,91,129.87,36,-17.00,18.00,-990.00
2024-05-19 09:43:55.410968,-2,-1,51,0,0,0,70,72,251,140,91,129.88,36,21.00,26.00,-914.00
2024-05-19 09:43:55.446440,-1,-1,56,0,0,0,70,72,252,140,91,129.86,36,30.00,18.00,-978.00
2024-05-19 09:43:55.615741,-1,-1,61,1,0,0,70,72,251,140,91,130.06,37,-9.00,25.00,-1019.00
2024-05-19 09:43:55.650398,0,-1,67,1,0,0,70,72,246,140,91,129.82,37,19.00,19.00,-942.00
2024-05-19 09:43:55.820575,0,-1,72,1,0,0,70,72,247,140,91,129.81,37,24.00,4.00,-920.00
2024-05-19 09:43:55.854442,0,0,77,1,0,0,70,72,244,140,91,129.90,37,13.00,16.00,-961.00
2024-05-19 09:43:55.956447,0,0,82,1,0,0,70,72,242,140,91,129.86,37,13.00,4.00,-1026.00
2024-05-19 09:43:56.058742,0,0,86,1,0,0,70,72,241,140,91,129.83,37,-11.00,6.00,-1084.00
2024-05-19 09:43:56.230140,0,0,91,1,0,0,70,72,238,140,91,129.87,37,17.00,19.00,-1045.00
2024-05-19 09:43:56.262349,0,0,97,1,0,0,70,72,237,130,91,129.81,37,27.00,22.00,-933.00
2024-05-19 09:43:56.434938,1,0,102,1,0,1,70,72,236,130,91,129.91,37,28.00,-9.00,-987.00
2024-05-19 09:43:56.466276,1,0,107,0,0,1,70,72,235,130,91,129.88,37,26.00,-37.00,-1048.00
2024-05-19 09:43:56.639851,1,0,112,0,0,0,70,72,235,130,91,129.83,38,11.00,-24.00,-1092.00
2024-05-19 09:43:56.670410,1,0,118,0,0,0,70,72,235,130,91,129.91,38,9.00,-30.00,-1053.00
2024-05-19 09:43:56.844546,1,0,123,1,0,0,70,72,234,130,91,129.81,38,26.00,-5.00,-1029.00
2024-05-19 09:43:56.874352,1,1,129,0,0,0,70,72,235,130,91,129.91,38,51.00,-22.00,-1030.00
2024-05-19 09:43:56.976231,1,1,134,0,0,0,70,72,234,130,91,129.99,38,20.00,-26.00,-1034.00
2024-05-19 09:43:57.151934,0,2,139,0,0,0,70,72,235,130,91,129.97,38,39.00,-25.00,-998.00
2024-05-19 09:43:57.180333,0,2,145,0,0,0,71,73,238,130,91,129.95,38,29.00,-39.00,-1030.00
2024-05-19 09:43:57.356524,1,1,151,0,0,0,71,73,239,130,91,129.96,38,31.00,-57.00,-999.00
2024-05-19 09:43:57.384483,1,1,157,0,0,0,71,73,243,130,91,129.97,38,0.00,-30.00,-998.00
2024-05-19 09:43:57.561354,1,2,163,0,0,-1,71,73,245,130,91,129.93,38,24.00,-11.00,-1019.00
2024-05-19 09:43:57.588379,1,2,170,0,0,-1,71,73,246,130,91,129.84,39,22.00,-34.00,-928.00
2024-05-19 09:43:57.766167,1,1,176,0,0,-1,71,73,250,130,91,129.87,39,23.00,-44.00,-957.00
2024-05-19 09:43:57.792289,1,1,-177,0,0,-1,71,73,253,130,91,129.87,39,6.00,-35.00,-1036.00
2024-05-19 09:43:57.970956,0,2,-170,0,0,-1,71,73,254,130,91,129.86,39,-7.00,-38.00,-915.00
2024-05-19 09:43:57.996328,0,2,-163,0,0,0,71,73,256,140,91,129.94,39,-11.00,-26.00,-1005.00
2024-05-19 09:43:58.175859,0,2,-156,0,0,0,71,73,261,140,91,130.01,39,-4.00,-29.00,-1005.00
2024-05-19 09:43:58.200309,0,2,-149,0,0,0,71,73,258,140,90,129.86,39,-40.00,-27.00,-967.00
2024-05-19 09:43:58.382148,-1,2,-142,0,0,0,71,73,259,140,90,129.92,39,-32.00,-7.00,-995.00
2024-05-19 09:43:58.404779,-1,1,-135,0,0,0,71,73,260,140,90,129.92,39,-16.00,-10.00,-964.00
2024-05-19 09:43:58.585379,-1,1,-128,0,0,0,71,73,261,140,90,129.95,39,-6.00,-15.00,-983.00
2024-05-19 09:43:58.608282,-1,0,-121,0,0,0,71,73,263,140,90,129.95,40,-24.00,9.00,-1003.00
2024-05-19 09:43:58.790139,-1,0,-114,0,0,0,71,73,263,140,90,129.98,40,-41.00,35.00,-995.00
2024-05-19 09:43:58.812243,-2,0,-107,0,0,0,71,73,265,140,90,130.06,40,-44.00,19.00,-963.00
2024-05-19 09:43:58.995021,-2,0,-100,0,0,0,71,73,264,140,90,130.04,40,-30.00,24.00,-951.00
2024-05-19 09:43:59.016305,-2,-1,-93,0,0,0,71,73,264,140,90,130.05,40,-39.00,44.00,-986.00
2024-05-19 09:43:59.199806,-2,-1,-86,0,0,0,71,73,264,140,90,130.14,40,0.00,48.00,-991.00
2024-05-19 09:43:59.220312,-1,-1,-80,0,0,0,71,73,265,140,90,130.13,40,-6.00,54.00,-1033.00
2024-05-19 09:43:59.404618,0,-2,-73,0,0,0,71,73,264,140,90,130.03,40,13.00,41.00,-973.00
2024-05-19 09:43:59.404671,0,-2,-66,0,0,0,71,73,264,140,90,130.08,40,11.00,63.00,-985.00
2024-05-19 09:43:59.475244,0,-1,-60,0,0,0,71,73,262,140,90,130.15,40,19.00,47.00,-995.00
2024-05-19 09:43:59.609401,0,-1,-53,0,0,0,71,73,263,150,90,130.05,41,34.00,47.00,-974.00
2024-05-19 09:43:59.679657,1,-1,-46,0,0,0,71,73,260,150,90,129.96,41,18.00,53.00,-990.00
2024-05-19 09:43:59.814205,1,-1,-40,0,0,0,71,73,259,150,90,130.01,41,37.00,38.00,-964.00
2024-05-19 09:43:59.883530,1,0,-34,0,0,0,71,73,256,150,90,129.97,41,43.00,34.00,-957.00
2024-05-19 09:43:59.985234,2,0,-28,0,0,0,71,73,257,150,90,130.00,41,34.00,46.00,-979.00
2024-05-19 09:44:00.087634,1,0,-22,0,0,0,71,73,254,150,90,130.00,41,29.00,34.00,-983.00
2024-05-19 09:44:00.223706,2,0,-16,0,0,0,71,74,253,140,90,130.01,41,45.00,54.00,-988.00
2024-05-19 09:44:00.291505,1,0,-12,0,0,0,71,74,250,140,90,129.97,41,44.00,43.00,-1000.00
2024-05-19 09:44:00.428601,1,0,-9,0,0,1,71,74,246,140,90,129.96,41,46.00,24.00,-1008.00
2024-05-19 09:44:00.495553,1,0,-6,0,0,1,71,74,244,140,90,129.94,41,38.00,23.00,-1007.00
2024-05-19 09:44:00.633377,1,0,-4,0,0,1,71,74,242,140,90,129.91,42,26.00,29.00,-1023.00
2024-05-19 09:44:00.700423,2,0,-2,0,0,1,71,74,239,140,90,129.93,42,55.00,15.00,-1006.00
2024-05-19 09:44:00.801306,2,0,-1,0,0,1,71,74,238,130,90,129.87,42,37.00,25.00,-1055.00
2024-05-19 09:44:00.903705,2,0,0,0,0,1,71,74,236,130,90,129.89,42,33.00,6.00,-1035.00
2024-05-19 09:44:01.005675,2,0,0,0,0,0,71,74,237,130,90,129.77,42,41.00,7.00,-1053.00
2024-05-19 09:44:01.145453,1,0,0,0,0,0,71,74,238,130,90,129.84,42,36.00,19.00,-1010.00
2024-05-19 09:44:01.209644,1,0,0,0,0,0,71,73,235,130,90,129.87,42,68.00,35.00,-1049.00
2024-05-19 09:44:01.350629,2,0,0,0,0,0,71,73,235,130,90,129.88,42,43.00,18.00,-1009.00
2024-05-19 09:44:01.414446,2,-1,0,0,0,0,71,73,233,130,90,129.92,42,53.00,14.00,-1033.00
2024-05-19 09:44:01.555732,2,-1,0,0,0,0,71,73,230,130,90,129.92,42,57.00,8.00,-1043.00
2024-05-19 09:44:01.617500,2,0,0,0,0,-1,71,73,231,130,90,129.97,43,41.00,-3.00,-1012.00
2024-05-19 09:44:01.759879,2,0,0,0,0,-1,71,73,232,130,90,129.96,43,52.00,-14.00,-1005.00
2024-05-19 09:44:01.821664,2,0,0,0,0,-1,71,73,234,130,90,129.98,43,25.00,-12.00,-1030.00
2024-05-19 09:44:01.964684,2,1,0,0,0,-1,71,73,238,130,90,129.96,43,43.00,-36.00,-992.00
2024-05-19 09:44:02.026274,2,2,0,0,0,-1,71,73,236,130,90,129.90,43,53.00,-27.00,-979.00
2024-05-19 09:44:02.169863,2,2,0,0,0,-1,71,73,233,140,90,129.90,43,42.00,-21.00,-937.00
2024-05-19 09:44:02.230238,2,2,0,0,0,-1,71,74,229,140,90,129.90,43,65.00,-5.00,-915.00
2024-05-19 09:44:02.374266,3,1,0,0,0,0,71,74,228,140,90,130.05,43,66.00,5.00,-917.00
2024-05-19 09:44:02.434191,2,1,0,0,0,0,71,74,233,140,90,129.92,43,52.00,6.00,-947.00
2024-05-19 09:44:02.579558,2,0,0,0,0,0,71,74,233,140,90,129.86,43,58.00,-2.00,-990.00
2024-05-19 09:44:02.638713,2,0,0,0,0,0,71,74,236,140,90,129.88,44,58.00,-5.00,-1015.00
2024-05-19 09:44:02.753240,2,0,0,0,0,0,71,74,233,140,90,129.91,44,79.00,-6.00,-1008.00
2024-05-19 09:44:02.842116,3,0,0,0,0,0,71,74,229,130,90,129.92,44,46.00,-4.00,-998.00
2024-05-19 09:44:02.892995,3,0,0,0,0,0,71,74,232,130,90,129.96,44,69.00,-26.00,-992.00
2024-05-19 09:44:02.994914,2,0,-5,0,0,0,71,74,234,130,90,129.99,44,64.00,0.00,-1004.00
2024-05-19 09:44:03.193341,2,0,-12,0,0,0,71,74,239,130,90,129.93,44,70.00,16.00,-992.00
2024-05-19 09:44:03.199460,2,0,-18,0,0,0,72,74,241,130,90,129.99,44,75.00,21.00,-1019.00
2024-05-19 09:44:03.398176,2,0,-24,0,0,0,72,74,236,130,90,129.97,44,71.00,6.00,-996.00
2024-05-19 09:44:03.402951,3,-1,-30,0,0,0,72,74,235,130,90,129.90,44,45.00,43.00,-1038.00
2024-05-19 09:44:03.602956,3,-1,-36,0,0,0,72,74,233,130,90,130.02,44,69.00,19.00,-993.00
2024-05-19 09:44:03.607041,3,-2,-42,0,0,0,72,74,230,130,90,129.96,45,37.00,50.00,-1009.00
2024-05-19 09:44:03.807732,3,-2,-48,0,0,0,72,74,231,130,90,130.05,45,25.00,66.00,-1040.00
2024-05-19 09:44:03.810998,3,-2,-54,0,0,0,72,74,232,130,90,130.07,45,48.00,56.00,-1025.00
2024-05-19 09:44:03.913476,2,-3,-60,0,0,0,72,74,239,130,90,130.00,45,1.00,68.00,-1013.00
2024-05-19 09:44:04.015275,2,-3,-67,0,0,0,72,74,247,130,90,130.02,45,18.00,63.00,-1011.00
2024-05-19 09:44:04.117043,1,-2,-73,0,0,0,72,74,249,130,90,130.00,45,11.00,56.00,-989.00
2024-05-19 09:44:04.219346,1,-2,-79,0,0,0,72,75,255,130,90,130.03,45,6.00,74.00,-992.00
2024-05-19 09:44:04.422080,0,-2,-86,0,0,0,72,75,258,130,90,130.06,45,17.00,63.00,-976.00
2024-05-19 09:44:04.423793,0,-2,-92,0,0,0,72,75,258,130,90,130.14,45,1.00,61.00,-1006.00
2024-05-19 09:44:04.626796,0,-2,-98,0,0,0,72,75,260,130,90,130.09,45,0.00,60.00,-969.00
2024-05-19 09:44:04.627850,0,-2,-104,0,0,0,72,75,261,140,90,130.15,46,-11.00,68.00,-994.00
2024-05-19 09:44:04.831684,0,-2,-111,0,0,0,72,75,261,140,90,130.20,46,6.00,59.00,-1009.00
2024-05-19 09:44:04.831875,0,-2,-117,0,0,0,72,75,260,140,90,130.15,46,-13.00,57.00,-976.00
2024-05-19 09:44:04.934597,0,-2,-123,0,0,0,72,75,259,140,90,130.18,46,-22.00,55.00,-962.00
2024-05-19 09:44:05.036310,0,-2,-129,0,0,0,72,75,262,140,90,130.04,46,-15.00,57.00,-1005.00
2024-05-19 09:44:05.138946,0,-2,-135,0,0,0,72,75,260,140,89,130.05,46,-35.00,60.00,-1001.00
2024-05-19 09:44:05.241307,0,-2,-141,0,0,0,72,74,259,140,89,130.17,46,-41.00,45.00,-984.00
2024-05-19 09:44:05.343593,0,-2,-146,0,0,0,72,74,259,140,89,130.01,46,-53.00,56.00,-1015.00
2024-05-19 09:44:05.446098,0,-1,-152,0,0,0,72,74,258,140,89,130.00,46,-23.00,28.00,-971.00
2024-05-19 09:44:05.545986,-1,0,-157,0,0,0,72,74,256,140,89,130.03,46,-38.00,40.00,-1003.00
2024-05-19 09:44:05.650966,-1,0,-163,0,0,0,72,74,254,140,89,130.01,47,-44.00,32.00,-1016.00
2024-05-19 09:44:05.749975,-2,0,-169,0,0,0,72,74,252,140,89,130.03,47,-55.00,43.00,-990.00
2024-05-19 09:44:05.855953,-2,0,-174,0,0,0,72,74,252,140,89,129.92,47,-44.00,27.00,-1018.00
2024-05-19 09:44:05.954036,-2,0,178,0,0,0,72,74,251,140,89,129.93,47,-35.00,26.00,-1054.00
2024-05-19 09:44:06.060530,-2,0,172,0,0,0,72,74,249,140,89,129.98,47,-35.00,6.00,-1029.00
2024-05-19 09:44:06.158004,-2,0,165,0,0,0,72,74,249,140,89,129.93,47,-29.00,1.00,-1003.00
2024-05-19 09:44:06.265245,-1,0,158,0,0,0,72,74,250,140,89,129.93,47,-5.00,3.00,-987.00
2024-05-19 09:44:06.361936,-1,0,152,0,0,0,72,74,250,140,89,130.04,47,-10.00,4.00,-993.00
2024-05-19 09:44:06.464019,0,0,145,0,0,0,72,74,249,140,89,129.91,47,-31.00,-11.00,-1075.00
2024-05-19 09:44:06.515939,0,0,139,0,0,0,72,74,250,140,89,129.89,47,-28.00,-14.00,-1058.00
2024-05-19 09:44:06.675037,0,0,133,0,0,0,72,74,249,140,89,129.84,48,12.00,-4.00,-1014.00
2024-05-19 09:44:06.719210,0,0,127,0,0,0,72,74,250,140,89,129.87,48,17.00,-8.00,-972.00
2024-05-19 09:44:06.886659,0,0,121,0,0,0,72,74,251,140,89,129.86,48,-11.00,-34.00,-1048.00
2024-05-19 09:44:06.923264,1,0,115,0,0,0,72,74,250,140,89,129.94,48,25.00,-38.00,-952.00
2024-05-19 09:44:07.025277,1,1,109,0,0,0,72,74,245,140,89,129.86,48,-1.00,-23.00,-1026.00
2024-05-19 09:44:07.186935,1,2,103,0,0,0,72,74,245,140,89,129.84,48,17.00,-11.00,-1015.00
2024-05-19 09:44:07.229240,2,2,96,0,0,0,72,74,247,140,89,129.91,48,37.00,-16.00,-925.00
2024-05-19 09:44:07.391716,2,0,90,0,0,0,72,74,248,140,89,129.85,48,59.00,-18.00,-910.00
2024-05-19 09:44:07.432813,2,0,84,0,0,0,72,74,248,140,89,129.93,48,61.00,-3.00,-971.00
2024-05-19 09:44:07.596805,3,0,78,0,0,0,72,74,246,140,89,129.89,48,30.00,11.00,-1027.00
2024-05-19 09:44:07.636754,3,0,72,0,0,0,72,74,244,140,89,129.85,49,42.00,10.00,-1021.00
2024-05-19 09:44:07.801251,3,0,66,0,0,0,72,74,247,140,89,129.81,49,36.00,-1.00,-976.00
2024-05-19 09:44:07.840755,3,0,60,0,0,0,72,74,244,140,89,129.93,49,25.00,7.00,-1017.00
2024-05-19 09:44:08.006013,3,0,54,0,0,0,72,74,243,130,89,129.96,49,45.00,6.00,-975.00
2024-05-19 09:44:08.044749,3,0,48,0,0,0,72,74,245,130,89,129.83,49,45.00,9.00,-984.00
2024-05-19 09:44:08.210850,2,0,42,0,0,0,72,74,244,130,89,129.76,49,67.00,12.00,-1001.00
2024-05-19 09:44:08.252428,2,0,30,0,0,0,72,75,245,130,89,129.82,49,65.00,11.00,-942.00
2024-05-19 09:44:08.350769,1,-1,24,0,0,0,72,75,248,130,89,129.90,49,54.00,16.00,-982.00
2024-05-19 09:44:08.452659,1,-2,18,0,0,0,72,75,251,130,89,129.84,49,58.00,40.00,-1046.00
2024-05-19 09:44:08.554976,1,-2,14,0,0,0,72,75,249,130,89,129.91,50,51.00,39.00,-962.00
2024-05-19 09:44:08.656741,1,-2,11,0,0,0,72,75,249,140,89,129.79,50,39.00,44.00,-1012.00
2024-05-19 09:44:08.825237,2,-1,9,0,0,0,72,75,251,140,89,129.79,50,40.00,36.00,-1014.00
2024-05-19 09:44:08.860703,1,-1,7,0,0,0,72,75,251,140,89,129.77,50,26.00,25.00,-993.00
2024-05-19 09:44:09.030031,1,0,5,0,0,0,72,75,251,140,89,129.91,50,23.00,15.00,-990.00
2024-05-19 09:44:09.064612,1,0,3,0,0,0,72,75,250,140,89,129.93,50,41.00,17.00,-1024.00
2024-05-19 09:44:09.234822,1,0,2,0,0,0,72,75,253,140,89,129.93,50,20.00,5.00,-975.00
2024-05-19 09:44:09.268712,1,0,0,0,0,0,73,75,252,140,89,129.83,50,20.00,-7.00,-1013.00
2024-05-19 09:44:09.370742,0,0,0,0,0,0,73,75,252,140,89,129.91,50,55.00,5.00,-947.00
2024-05-19 09:44:09.472800,0,0,0,0,0,0,73,75,251,140,89,129.91,50,13.00,9.00,-1004.00
2024-05-19 09:44:09.644538,1,0,-1,0,0,0,73,75,250,140,89,129.91,51,43.00,26.00,-958.00
2024-05-19 09:44:09.676718,1,0,-2,0,0,0,73,75,250,140,89,129.87,51,25.00,18.00,-976.00
2024-05-19 09:44:09.849774,1,0,-2,0,0,0,73,75,249,140,89,129.89,51,39.00,14.00,-954.00
2024-05-19 09:44:09.880839,2,0,-3,0,0,0,73,75,250,140,89,129.81,51,43.00,17.00,-1005.00
2024-05-19 09:44:10.054161,2,0,-4,0,0,0,73,75,246,140,89,129.83,51,-2.00,19.00,-1073.00
2024-05-19 09:44:10.084740,2,0,-4,0,0,0,73,75,248,140,89,129.83,51,28.00,15.00,-1047.00
2024-05-19 09:44:10.258963,1,0,-5,0,0,0,73,75,246,130,89,129.87,51,27.00,18.00,-942.00
2024-05-19 09:44:10.288761,1,0,-5,0,0,0,72,75,245,130,89,129.87,51,15.00,30.00,-1030.00
2024-05-19 09:44:10.463808,1,-1,-5,0,0,0,72,75,246,130,89,129.72,51,37.00,18.00,-999.00
2024-05-19 09:44:10.492715,1,-1,-5,0,0,0,72,75,247,130,89,129.89,51,6.00,9.00,-1071.00
2024-05-19 09:44:10.668560,1,-1,-5,0,0,0,72,75,247,130,89,129.77,52,29.00,1.00,-980.00
2024-05-19 09:44:10.696634,0,0,-5,0,0,0,72,75,248,130,89,129.68,52,46.00,1.00,-989.00
2024-05-19 09:44:10.876370,0,0,-5,0,0,0,72,75,247,130,89,129.70,52,41.00,-6.00,-963.00
2024-05-19 09:44:10.876569,1,0,-4,0,0,0,72,75,247,130,89,129.69,52,32.00,-4.00,-994.00
2024-05-19 09:44:10.951888,1,0,-4,0,0,0,72,75,247,130,89,129.71,52,32.00,-3.00,-995.00
2024-05-19 09:44:11.053741,0,0,-5,0,0,0,72,75,248,130,89,129.74,52,34.00,-15.00,-1053.00
2024-05-19 09:44:11.180691,0,1,-5,0,0,0,72,75,247,130,89,129.78,52,9.00,-18.00,-988.00
2024-05-19 09:44:11.257660,0,2,-4,0,0,0,73,75,249,130,89,129.80,52,49.00,-15.00,-1014.00
2024-05-19 09:44:11.385203,0,0,-4,0,0,0,73,75,248,130,89,129.93,52,28.00,3.00,-1436.00
2024-05-19 09:44:11.463670,0,-1,-4,0,-1,-6,73,75,256,140,89,129.92,52,28.00,-33.00,-1834.00
2024-05-19 09:44:11.564034,0,-39,-5,0,-3,-12,73,75,359,150,89,130.12,53,20.00,309.00,-1295.00
2024-05-19 09:44:11.665552,0,-153,-4,0,-12,-6,73,75,474,160,89,130.28,53,23.00,549.00,-1072.00
2024-05-19 09:44:11.795097,1,87,-5,0,-11,8,73,75,500,160,89,130.09,53,-1.00,526.00,-824.00
2024-05-19 09:44:11.869547,0,1,-6,0,-5,12,73,75,261,150,89,130.08,53,10.00,-88.00,-1626.00
2024-05-19 09:44:12.000317,0,0,-5,0,-6,9,73,75,249,140,89,129.89,53,2.00,24.00,-1391.00
2024-05-19 09:44:12.073657,1,4,-5,1,-5,4,73,75,241,130,89,129.73,53,27.00,41.00,-1362.00
2024-05-19 09:44:12.176542,1,3,-5,1,-4,1,73,75,238,130,89,129.77,53,9.00,-3.00,-1246.00
2024-05-19 09:44:12.278713,1,2,-5,0,-4,0,73,75,233,120,89,129.73,53,24.00,0.00,-1118.00
2024-05-19 09:44:12.409214,1,1,-5,0,-3,0,73,75,234,120,89,129.77,53,1.00,-6.00,-1111.00
2024-05-19 09:44:12.483872,1,2,-5,0,-3,-1,73,75,236,120,89,129.71,53,17.00,-8.00,-1003.00
2024-05-19 09:44:12.583955,1,1,-5,0,-2,-1,73,75,240,130,89,129.72,54,14.00,21.00,-1032.00
2024-05-19 09:44:12.716411,0,1,-5,0,-2,-1,73,75,246,130,89,129.77,54,0.00,8.00,-1049.00
2024-05-19 09:44:12.787463,0,1,-5,0,-2,-1,73,75,247,130,89,129.78,54,12.00,6.00,-973.00
2024-05-19 09:44:12.921208,0,1,-5,0,-2,-1,73,75,252,130,89,129.77,54,17.00,4.00,-957.00
2024-05-19 09:44:12.992498,0,1,-5,0,-2,0,73,75,250,130,89,129.77,54,-5.00,-1.00,-950.00
2024-05-19 09:44:13.125991,0,3,-5,0,-2,0,73,75,247,130,89,129.77,54,10.00,-14.00,-969.00
2024-05-19 09:44:13.196486,0,5,-5,0,-1,0,73,75,244,130,88,129.86,54,0.00,16.00,-977.00
2024-05-19 09:44:13.330837,0,4,-5,0,-1,0,73,76,246,130,88,129.90,54,15.00,-8.00,-992.00
2024-05-19 09:44:13.400466,0,4,-5,0,0,0,73,76,249,130,88,129.81,54,2.00,-5.00,-1006.00
2024-05-19 09:44:13.535603,0,3,-5,0,0,0,73,76,253,130,88,129.78,54,25.00,-6.00,-1009.00
2024-05-19 09:44:13.604468,0,3,-5,0,0,0,73,76,252,130,88,129.81,55,11.00,-15.00,-991.00
2024-05-19 09:44:13.740529,0,2,-5,0,0,0,73,76,255,130,88,129.87,55,15.00,-6.00,-1006.00
2024-05-19 09:44:13.808779,0,2,-5,0,0,0,73,76,256,130,88,129.89,55,8.00,-23.00,-937.00
2024-05-19 09:44:13.945197,0,2,-5,0,0,0,73,76,257,140,88,129.93,55,36.00,-12.00,-982.00
2024-05-19 09:44:14.012470,0,2,-5,0,0,0,73,76,254,140,88,129.86,55,-16.00,-21.00,-973.00
2024-05-19 09:44:14.149989,0,2,-5,0,0,0,73,76,257,140,88,129.79,55,15.00,-14.00,-1048.00
2024-05-19 09:44:14.216502,0,2,-5,0,0,0,73,76,252,140,88,129.79,55,25.00,-13.00,-987.00
2024-05-19 09:44:14.354800,0,1,-5,0,0,0,73,76,251,140,88,129.77,55,39.00,-8.00,-937.00
2024-05-19 09:44:14.420440,1,1,-5,0,0,0,73,76,249,140,88,129.82,55,35.00,-13.00,-1037.00
2024-05-19 09:44:14.559558,1,1,-5,0,0,0,73,76,247,140,88,129.79,55,49.00,-30.00,-954.00
2024-05-19 09:44:14.573431,1,1,-5,0,0,0,73,76,243,140,88,129.75,56,29.00,-16.00,-1004.00
2024-05-19 09:44:14.764334,1,1,-5,0,0,0,73,76,234,140,88,129.84,56,38.00,-15.00,-1017.00
2024-05-19 09:44:14.777340,2,1,-5,0,0,0,73,76,221,140,88,129.77,56,26.00,0.00,-1022.00
2024-05-19 09:44:14.879539,2,1,-5,0,0,0,73,76,217,130,88,129.83,56,23.00,-6.00,-1038.00
2024-05-19 09:44:15.072387,2,1,-5,0,0,0,73,76,217,130,88,129.76,56,14.00,-28.00,-1001.00
2024-05-19 09:44:15.083672,1,1,-5,0,0,0,73,76,225,130,87,129.69,56,22.00,-38.00,-1011.00
2024-05-19 09:44:15.276595,1,2,-5,0,0,0,73,76,223,130,87,129.73,56,15.00,-42.00,-967.00
2024-05-19 09:44:15.287440,1,3,-5,0,0,0,75,76,230,130,87,129.79,56,20.00,-25.00,-1034.00
2024-05-19 09:44:15.481428,1,3,-5,0,0,0,75,76,234,130,87,129.85,56,9.00,-40.00,-1028.00
2024-05-19 09:44:15.492035,1,3,-5,0,0,0,75,76,238,130,87,129.83,56,23.00,-38.00,-1007.00
2024-05-19 09:44:15.686690,1,3,-5,0,0,0,75,76,241,130,87,129.77,57,29.00,-33.00,-989.00
2024-05-19 09:44:15.695466,1,3,-5,0,0,0,75,76,244,130,87,129.76,57,8.00,-51.00,-984.00
2024-05-19 09:44:15.890952,1,3,-5,0,0,0,75,76,248,130,87,129.73,57,16.00,-30.00,-1027.00
2024-05-19 09:44:15.899384,1,2,-5,0,0,0,75,76,250,140,87,129.74,57,31.00,-51.00,-948.00
2024-05-19 09:44:16.096141,1,2,-5,0,0,0,75,76,253,140,87,129.75,57,-1.00,-51.00,-983.00
2024-05-19 09:44:16.103631,0,3,-5,0,0,0,75,76,256,140,87,129.81,57,23.00,-49.00,-982.00
2024-05-19 09:44:16.300432,0,3,-5,0,0,0,75,76,259,140,87,129.88,57,12.00,-59.00,-938.00
2024-05-19 09:44:16.307510,0,3,-5,0,0,0,74,76,261,140,87,129.91,57,25.00,-56.00,-986.00
2024-05-19 09:44:16.505544,0,3,-5,0,0,0,74,76,262,140,87,129.83,57,15.00,-29.00,-1017.00
2024-05-19 09:44:16.512505,0,3,-5,0,0,0,74,76,263,140,87,129.90,57,6.00,-52.00,-933.00
2024-05-19 09:44:16.710700,0,3,-5,0,0,0,74,76,264,140,87,129.87,58,-3.00,-58.00,-968.00
2024-05-19 09:44:16.716539,0,3,-5,0,0,0,74,76,267,140,87,129.94,58,23.00,-65.00,-970.00
2024-05-19 09:44:16.914886,0,3,-5,0,0,0,74,76,267,140,87,129.89,58,7.00,-58.00,-941.00
2024-05-19 09:44:16.920678,0,4,-5,0,0,0,74,76,269,140,87,129.97,58,13.00,-77.00,-952.00
2024-05-19 09:44:17.022504,0,3,-5,0,0,0,74,76,266,140,87,130.00,58,43.00,-56.00,-972.00
2024-05-19 09:44:17.222530,0,4,-5,0,0,0,74,76,267,140,87,129.94,58,10.00,-60.00,-1016.00
2024-05-19 09:44:17.226558,0,4,-5,0,0,0,74,76,267,140,87,129.99,58,37.00,-62.00,-1005.00
2024-05-19 09:44:17.426978,0,4,-5,0,0,0,75,76,266,150,87,129.97,58,-4.00,-81.00,-978.00
2024-05-19 09:44:17.430753,0,4,-5,0,0,0,75,76,266,150,87,129.98,58,-4.00,-64.00,-958.00
2024-05-19 09:44:17.532451,0,4,-5,0,0,0,75,76,268,150,87,129.98,58,21.00,-71.00,-958.00
2024-05-19 09:44:17.635411,0,4,-5,0,0,0,75,76,264,150,87,130.01,59,15.00,-62.00,-1028.00
2024-05-19 09:44:17.736590,0,4,-5,0,0,0,75,76,266,150,87,129.99,59,16.00,-65.00,-1003.00
2024-05-19 09:44:17.838272,0,4,-5,0,0,0,75,76,264,150,87,129.98,59,50.00,-75.00,-953.00
2024-05-19 09:44:18.041234,0,4,-5,0,0,0,75,76,261,150,87,129.98,59,1.00,-59.00,-1017.00
2024-05-19 09:44:18.042209,0,4,-5,0,0,0,75,76,264,150,87,130.11,59,13.00,-87.00,-1673.00
2024-05-19 09:44:18.246006,0,4,-5,0,0,-6,75,76,267,150,87,130.13,59,20.00,-170.00,-1749.00
2024-05-19 09:44:18.246054,0,41,-4,0,2,-13,75,76,374,160,87,130.10,59,25.00,481.00,-1292.00
2024-05-19 09:44:18.348468,0,156,-6,1,10,-5,75,77,577,170,87,129.77,59,29.00,871.00,-1046.00
2024-05-19 09:44:18.399486,2,-78,-4,1,6,9,75,77,283,170,87,130.49,59,74.00,702.00,-1258.00
2024-05-19 09:44:18.553223,0,7,-1,1,1,10,75,77,260,160,87,129.79,59,35.00,69.00,-1149.00
2024-05-19 09:44:18.603351,0,2,1,1,3,7,75,77,247,150,87,130.08,60,-4.00,-114.00,-1389.00
2024-05-19 09:44:18.758035,1,-4,2,1,2,3,75,77,227,140,87,129.91,60,-26.00,-80.00,-1185.00
2024-05-19 09:44:18.807271,1,-2,-2,0,0,1,75,77,227,140,87,129.75,60,-5.00,-70.00,-1123.00
2024-05-19 09:44:18.962817,0,1,-5,0,0,0,75,77,232,140,87,129.82,60,-38.00,-77.00,-1152.00
2024-05-19 09:44:19.012260,0,2,-5,0,0,-1,75,77,242,130,87,129.83,60,3.00,-60.00,-1116.00
2024-05-19 09:44:19.167871,0,3,-5,0,0,-2,75,77,242,140,87,129.89,60,-1.00,-66.00,-1050.00
2024-05-19 09:44:19.216495,0,3,-5,0,0,-2,75,77,241,140,87,129.86,60,-18.00,-63.00,-1008.00
2024-05-19 09:44:19.372433,0,2,-5,0,-1,-2,75,78,239,140,87,129.85,60,6.00,-73.00,-979.00
2024-05-19 09:44:19.420391,0,3,-5,0,-1,-2,75,78,252,140,87,129.86,60,-28.00,-60.00,-979.00
2024-05-19 09:44:19.577202,0,4,-5,0,-1,-1,75,78,256,140,87,129.92,60,-16.00,-70.00,-981.00
2024-05-19 09:44:19.624237,-1,4,-5,0,-1,-1,75,78,262,140,87,130.00,61,-9.00,-91.00,-937.00
2024-05-19 09:44:19.782023,-1,4,-5,0,-1,-1,75,78,267,150,87,129.96,61,-3.00,-80.00,-994.00
2024-05-19 09:44:19.828364,-1,5,-5,0,-1,-1,75,78,266,150,87,130.09,61,4.00,-86.00,-946.00
2024-05-19 09:44:19.986792,-1,5,-5,0,-1,-1,75,78,264,150,87,130.08,61,10.00,-80.00,-969.00
2024-05-19 09:44:20.032118,0,5,-5,0,0,0,75,78,266,150,87,130.04,61,-49.00,-71.00,-1046.00
2024-05-19 09:44:20.191829,-1,4,-5,0,0,0,75,78,271,150,86,130.02,61,-29.00,-91.00,-953.00
2024-05-19 09:44:20.236318,-2,4,-5,0,0,0,75,78,273,150,86,129.99,61,-13.00,-78.00,-952.00
2024-05-19 09:44:20.396399,-2,4,-5,0,0,0,74,77,273,160,86,130.09,61,-15.00,-80.00,-978.00
2024-05-19 09:44:20.440871,-2,4,-5,0,0,0,74,77,271,160,86,130.04,61,-49.00,-81.00,-1012.00
2024-05-19 09:44:20.601409,-2,4,-5,0,0,0,74,77,273,160,86,130.13,61,-41.00,-68.00,-998.00
2024-05-19 09:44:20.645550,-2,4,-5,0,0,0,74,77,275,150,86,130.04,62,-22.00,-90.00,-991.00
2024-05-19 09:44:20.805977,-2,3,-5,0,0,0,74,77,271,150,86,130.12,62,-3.00,-102.00,-997.00
2024-05-19 09:44:20.849252,-1,4,-5,0,0,0,74,77,271,150,86,130.05,62,-7.00,-95.00,-1043.00
2024-05-19 09:44:21.010790,-1,4,-5,0,0,0,74,77,262,150,86,130.10,62,3.00,-93.00,-1046.00
2024-05-19 09:44:21.052122,0,4,-5,0,0,0,74,77,253,150,86,130.12,62,-16.00,-91.00,-949.00
2024-05-19 09:44:21.215609,0,4,-5,0,0,0,74,77,242,160,86,130.13,62,-4.00,-102.00,-999.00
2024-05-19 09:44:21.256131,0,4,-5,0,0,0,74,77,245,160,86,130.20,62,-4.00,-104.00,-967.00
2024-05-19 09:44:21.420339,0,4,-5,0,0,-1,75,77,233,160,86,130.17,62,27.00,-105.00,-929.00
2024-05-19 09:44:21.460051,0,5,-5,1,0,-1,75,77,204,160,86,130.17,62,34.00,-97.00,-935.00
