TS,pitch,roll,yaw,vgx,vgy,vgz,templ,temph,tof,h,bat,baro,time,agx,agy,agz
2024-05-19 09:45:11.698457,0,0,-6,0,0,0,81,83,10,0,85,128.47,82,2.00,12.00,-1001.00
2024-05-19 09:45:11.698655,0,0,-6,0,0,0,81,83,10,0,85,128.51,82,3.00,12.00,-998.00
2024-05-19 09:45:11.801022,0,0,-6,0,0,0,81,83,10,0,85,128.48,82,3.00,12.00,-998.00
2024-05-19 09:45:11.903194,0,0,-6,0,0,0,81,83,10,0,85,128.47,82,4.00,13.00,-998.00
2024-05-19 09:45:12.005571,0,0,-6,0,0,0,81,83,10,0,85,128.43,82,3.00,11.00,-1000.00
2024-05-19 09:45:12.108116,0,0,-6,0,0,0,81,83,10,0,85,128.44,82,4.00,14.00,-1000.00
2024-05-19 09:45:12.208464,0,0,-6,0,0,0,81,83,10,0,85,128.44,82,2.00,12.00,-1000.00
2024-05-19 09:45:12.312684,0,0,-6,0,0,0,81,83,10,0,85,128.48,82,3.00,13.00,-998.00
2024-05-19 09:45:12.412798,0,0,-6,0,0,0,81,83,10,0,85,128.50,82,2.00,12.00,-1001.00
2024-05-19 09:45:12.517470,0,0,-6,0,0,0,81,83,10,0,85,128.47,82,4.00,13.00,-1000.00
2024-05-19 09:45:12.616510,0,0,-6,0,0,0,81,83,10,0,85,128.46,82,4.00,12.00,-998.00
2024-05-19 09:45:12.722434,0,0,-6,0,0,0,81,83,10,0,85,128.45,82,3.00,13.00,-1000.00
2024-05-19 09:45:12.820573,0,0,-6,0,0,0,81,83,10,0,85,128.47,82,4.00,13.00,-999.00
2024-05-19 09:45:12.927193,0,0,-6,0,0,0,81,83,10,0,85,128.49,82,3.00,12.00,-999.00
2024-05-19 09:45:13.024486,0,0,-6,0,0,0,81,83,10,0,85,128.46,82,3.00,11.00,-1000.00
2024-05-19 09:45:13.132283,0,0,-6,0,0,0,81,83,10,0,85,128.52,82,4.00,13.00,-1004.00
2024-05-19 09:45:13.228678,0,0,-6,0,0,0,81,83,10,0,85,128.50,82,3.00,13.00,-1000.00
2024-05-19 09:45:13.336851,0,0,-6,0,0,0,81,83,10,0,85,128.49,82,2.00,13.00,-1000.00
2024-05-19 09:45:13.432592,0,0,-6,0,0,0,81,83,10,0,85,128.47,82,3.00,13.00,-997.00
2024-05-19 09:45:13.541405,0,0,-6,0,0,0,81,83,10,0,85,128.45,82,3.00,13.00,-999.00
2024-05-19 09:45:13.636572,0,0,-6,0,0,0,81,83,10,0,85,128.50,82,2.00,12.00,-1001.00
2024-05-19 09:45:13.746348,0,0,-6,0,0,0,81,83,10,0,85,128.50,82,3.00,13.00,-999.00
2024-05-19 09:45:13.840858,0,0,-6,0,0,0,81,83,10,0,85,128.50,82,2.00,12.00,-997.00
2024-05-19 09:45:13.951051,0,0,-6,0,0,0,81,83,10,0,85,128.46,82,5.00,11.00,-1001.00
2024-05-19 09:45:14.044461,0,0,-6,0,0,0,81,83,10,0,85,128.47,82,3.00,14.00,-1002.00
2024-05-19 09:45:14.156053,0,0,-6,0,0,0,81,83,10,0,85,128.49,82,2.00,12.00,-998.00
2024-05-19 09:45:14.248440,0,0,-6,0,0,0,81,83,10,0,85,128.48,82,2.00,14.00,-998.00
2024-05-19 09:45:14.360665,0,0,-6,0,0,0,81,83,10,0,85,128.49,82,2.00,13.00,-999.00
2024-05-19 09:45:14.452502,0,0,-6,0,0,0,81,83,10,0,85,128.44,82,3.00,14.00,-1001.00
2024-05-19 09:45:14.503504,0,0,-6,0,0,0,81,83,10,0,85,128.44,82,2.00,12.00,-999.00
2024-05-19 09:45:14.668156,0,0,-6,0,0,0,81,83,10,0,85,128.50,82,3.00,13.00,-1000.00
2024-05-19 09:45:14.708403,0,0,-6,0,0,0,81,83,10,0,85,128.50,82,3.00,14.00,-1001.00
2024-05-19 09:45:14.872781,0,0,-6,0,0,0,81,83,10,0,85,128.51,82,3.00,12.00,-1000.00
2024-05-19 09:45:14.911654,0,0,-6,0,0,0,81,83,10,0,85,128.48,82,3.00,11.00,-1003.00
2024-05-19 09:45:15.077669,0,0,-6,0,0,0,81,83,10,0,85,128.49,82,4.00,14.00,-1003.00
2024-05-19 09:45:15.115705,0,0,-6,0,0,0,81,83,10,0,85,128.45,82,3.00,12.00,-999.00
2024-05-19 09:45:15.217441,0,0,-6,0,0,0,81,83,10,0,85,128.48,82,2.00,13.00,-1000.00
2024-05-19 09:45:15.384753,0,0,-6,0,0,0,81,83,10,0,85,128.44,82,3.00,13.00,-999.00
2024-05-19 09:45:15.421470,0,0,-6,0,0,0,81,83,10,0,85,128.46,82,3.00,12.00,-996.00
2024-05-19 09:45:15.589694,0,0,-6,0,0,0,81,83,10,0,85,128.47,82,1.00,13.00,-999.00
2024-05-19 09:45:15.625416,0,0,-6,0,0,0,81,83,10,0,85,128.48,82,5.00,12.00,-1000.00
2024-05-19 09:45:15.794701,0,0,-6,0,0,0,81,83,10,0,85,128.47,82,3.00,13.00,-998.00
2024-05-19 09:45:15.829508,0,0,-6,0,0,0,81,83,10,0,85,128.54,82,3.00,13.00,-1000.00
2024-05-19 09:45:15.931356,0,0,-6,0,0,0,81,83,10,0,85,128.49,82,3.00,11.00,-1000.00
2024-05-19 09:45:16.101553,0,0,-6,0,0,0,81,83,10,0,85,128.49,82,3.00,12.00,-998.00
2024-05-19 09:45:16.135436,0,0,-6,0,0,0,81,83,10,0,85,128.50,82,4.00,13.00,-1000.00
2024-05-19 09:45:16.306298,0,0,-6,0,0,0,81,83,10,0,85,128.52,82,3.00,12.00,-999.00
2024-05-19 09:45:16.339372,0,0,-6,0,0,0,81,83,10,0,85,128.51,82,3.00,13.00,-1000.00
2024-05-19 09:45:16.441339,0,0,-6,0,0,0,81,83,10,0,85,128.46,82,2.00,13.00,-1001.00
2024-05-19 09:45:16.613604,0,0,-6,0,0,0,81,83,10,0,85,128.53,82,2.00,13.00,-999.00
2024-05-19 09:45:16.645543,0,0,-6,0,0,0,82,83,10,0,85,128.45,82,4.00,13.00,-1001.00
2024-05-19 09:45:16.818790,0,0,-6,0,0,0,82,83,10,0,85,128.46,82,2.00,12.00,-1000.00
2024-05-19 09:45:16.849389,0,0,-6,0,0,0,82,83,10,0,85,128.49,82,3.00,12.00,-999.00
2024-05-19 09:45:17.023237,0,0,-6,0,0,0,82,83,10,0,85,128.46,82,3.00,12.00,-997.00
2024-05-19 09:45:17.053328,0,0,-6,0,0,0,82,83,10,0,85,128.46,82,2.00,12.00,-998.00
2024-05-19 09:45:17.227823,0,0,-6,0,0,0,82,83,10,0,85,128.50,82,3.00,12.00,-1000.00
2024-05-19 09:45:17.257263,0,0,-6,0,0,0,82,83,10,0,85,128.48,82,3.00,12.00,-1001.00
2024-05-19 09:45:17.432807,0,0,-6,0,0,0,82,83,10,0,85,128.48,82,3.00,14.00,-1000.00
2024-05-19 09:45:17.461295,0,0,-6,0,0,0,82,83,10,0,85,128.52,82,3.00,13.00,-1002.00
2024-05-19 09:45:17.637552,0,0,-6,0,0,0,82,83,10,0,85,128.48,82,2.00,14.00,-997.00
2024-05-19 09:45:17.665177,0,0,-6,0,0,0,82,83,10,0,85,128.49,82,3.00,14.00,-999.00
2024-05-19 09:45:17.716259,0,0,-6,0,0,0,82,83,10,0,85,128.54,82,3.00,13.00,-1000.00
2024-05-19 09:45:17.842559,0,0,-6,0,0,0,82,83,10,0,85,128.51,82,8.00,14.00,-999.00
2024-05-19 09:45:17.920348,0,0,-6,0,0,0,82,83,10,0,85,128.51,82,1.00,11.00,-995.00
2024-05-19 09:45:18.047047,0,0,-6,0,0,0,82,83,10,0,85,128.51,82,-6.00,3.00,-987.00
2024-05-19 09:45:18.124224,0,0,-5,0,0,0,82,83,10,0,85,128.51,82,13.00,24.00,-1005.00
2024-05-19 09:45:18.226247,0,0,-5,0,0,0,82,83,10,0,85,128.51,82,22.00,-9.00,-1035.00
2024-05-19 09:45:18.354567,0,0,-5,0,0,0,82,83,10,0,85,128.51,82,9.00,11.00,-1125.00
2024-05-19 09:45:18.430245,0,0,-5,0,0,-1,82,83,10,0,85,128.51,83,-6.00,15.00,-1334.00
2024-05-19 09:45:18.558958,-1,0,-5,0,0,-3,82,83,10,0,85,128.51,83,0.00,35.00,-1304.00
2024-05-19 09:45:18.634373,0,-1,-5,0,0,-8,82,83,16,10,85,128.68,83,-23.00,47.00,-1161.00
2024-05-19 09:45:18.763730,0,-2,-5,0,0,-8,82,83,24,20,85,129.00,83,-53.00,35.00,-1029.00
2024-05-19 09:45:18.839379,-1,-2,-5,0,0,-8,82,83,33,30,85,129.07,83,-18.00,42.00,-984.00
2024-05-19 09:45:18.968563,-1,-2,-5,0,0,-7,82,83,41,30,85,129.11,83,-34.00,23.00,-887.00
2024-05-19 09:45:19.042050,-1,-2,-5,0,0,-6,82,83,46,40,85,129.23,83,-11.00,27.00,-896.00
2024-05-19 09:45:19.173425,-1,-2,-5,0,0,-5,82,83,53,50,85,129.29,83,1.00,26.00,-903.00
2024-05-19 09:45:19.246287,0,-2,-5,0,0,-4,82,83,58,50,85,129.32,83,-5.00,19.00,-856.00
2024-05-19 09:45:19.378230,0,-2,-5,0,0,-3,82,83,63,50,85,129.26,84,-3.00,27.00,-866.00
2024-05-19 09:45:19.450191,0,-2,-5,0,0,-2,82,83,66,60,85,129.32,84,5.00,37.00,-921.00
2024-05-19 09:45:19.583030,0,-2,-5,0,0,-1,82,83,68,60,85,129.38,84,14.00,29.00,-945.00
2024-05-19 09:45:19.654145,0,-1,-5,0,0,-1,82,84,70,60,85,129.44,84,6.00,40.00,-979.00
2024-05-19 09:45:19.787772,0,-1,-5,0,0,0,82,84,71,60,85,129.39,84,35.00,27.00,-881.00
2024-05-19 09:45:19.858137,1,-1,-5,0,0,0,82,84,71,60,85,129.39,84,-3.00,27.00,-965.00
2024-05-19 09:45:19.992619,0,-1,-5,0,0,0,82,84,71,60,85,129.34,84,-15.00,17.00,-991.00
2024-05-19 09:45:20.062130,0,-1,-5,0,0,0,82,84,72,60,85,129.36,84,5.00,25.00,-975.00
2024-05-19 09:45:20.164141,0,-1,-5,0,0,0,82,84,73,60,85,129.45,84,14.00,21.00,-995.00
2024-05-19 09:45:20.299836,0,0,-5,0,0,0,82,84,74,60,85,129.47,84,11.00,38.00,-984.00
2024-05-19 09:45:20.368267,0,-1,-5,0,0,0,82,84,76,70,85,129.47,85,1.00,30.00,-972.00
2024-05-19 09:45:20.470128,0,-1,-5,0,0,0,82,84,77,70,85,129.42,85,9.00,44.00,-1023.00
2024-05-19 09:45:20.607010,0,-2,-5,0,0,0,82,84,78,70,85,129.43,85,14.00,44.00,-964.00
2024-05-19 09:45:20.674487,0,-2,-5,0,0,0,82,84,79,70,85,129.46,85,-2.00,34.00,-1007.00
2024-05-19 09:45:20.811855,0,-2,-5,0,0,0,82,84,80,70,85,129.46,85,-3.00,46.00,-1044.00
2024-05-19 09:45:20.878256,0,-2,-5,0,0,0,82,84,80,70,85,129.50,85,14.00,16.00,-907.00
2024-05-19 09:45:21.016593,0,-1,-4,0,0,0,82,84,81,70,85,129.55,85,-3.00,42.00,-1031.00
2024-05-19 09:45:21.082226,0,-2,-4,0,0,0,82,84,82,70,85,129.54,85,16.00,27.00,-993.00
2024-05-19 09:45:21.188589,0,-2,-4,0,0,0,82,84,82,70,85,129.50,85,2.00,25.00,-1015.00
2024-05-19 09:45:21.286072,0,-1,-4,0,0,0,82,84,83,70,85,129.57,85,28.00,38.00,-962.00
2024-05-19 09:45:21.337005,1,-1,-4,0,0,0,82,84,83,70,85,129.43,86,23.00,28.00,-994.00
2024-05-19 09:45:21.528610,1,-1,-4,0,0,0,82,84,83,70,85,129.46,86,27.00,26.00,-990.00
2024-05-19 09:45:21.541701,1,0,-5,0,0,0,82,84,84,70,85,129.43,86,30.00,27.00,-1000.00
2024-05-19 09:45:21.733416,1,0,-5,0,0,0,82,85,84,70,85,129.46,86,22.00,23.00,-950.00
2024-05-19 09:45:21.798105,1,0,-5,0,0,0,82,85,85,70,85,129.57,86,23.00,27.00,-982.00
2024-05-19 09:45:21.847074,0,-1,-5,0,0,0,82,85,85,70,85,129.52,86,-4.00,37.00,-1012.00
2024-05-19 09:45:22.040606,1,-1,-5,0,0,0,82,85,85,70,85,129.52,86,2.00,28.00,-954.00
2024-05-19 09:45:22.054108,1,-1,-5,0,0,0,82,85,86,70,85,129.47,86,20.00,41.00,-994.00
2024-05-19 09:45:22.153030,0,-2,-5,0,0,0,82,85,86,70,85,129.46,86,29.00,44.00,-974.00
2024-05-19 09:45:22.255983,0,-2,-5,0,0,0,82,85,86,70,85,129.45,86,-12.00,34.00,-993.00
2024-05-19 09:45:22.450186,0,-2,-5,0,0,0,82,85,85,70,85,129.49,87,-34.00,35.00,-1043.00
2024-05-19 09:45:22.459074,0,-2,-5,0,0,0,82,85,86,70,85,129.51,87,13.00,36.00,-988.00
2024-05-19 09:45:22.655002,0,-2,-5,0,0,0,82,85,86,70,85,129.52,87,1.00,21.00,-952.00
2024-05-19 09:45:22.662799,0,-2,-5,0,0,0,81,84,86,70,85,129.61,87,-2.00,38.00,-998.00
2024-05-19 09:45:22.859697,0,-2,-5,0,0,0,81,84,86,70,85,129.54,87,26.00,31.00,-966.00
2024-05-19 09:45:22.866977,0,-2,-5,0,0,0,81,84,86,70,85,129.49,87,-3.00,46.00,-1029.00
2024-05-19 09:45:23.064710,0,-2,-5,0,0,0,81,84,86,70,85,129.55,87,-11.00,45.00,-975.00
2024-05-19 09:45:23.070946,0,-2,-5,0,0,0,81,84,86,70,85,129.57,87,-6.00,44.00,-988.00
2024-05-19 09:45:23.269391,-1,-2,-5,0,0,0,81,84,86,70,85,129.62,87,-1.00,48.00,-1030.00
2024-05-19 09:45:23.275877,-1,-2,-5,0,0,0,81,84,86,70,85,129.57,87,22.00,38.00,-997.00
2024-05-19 09:45:23.474174,-1,-2,-5,0,0,0,81,84,85,70,85,129.57,88,-5.00,38.00,-993.00
2024-05-19 09:45:23.480076,0,-2,-4,0,0,0,81,84,85,70,85,129.61,88,19.00,26.00,-1007.00
2024-05-19 09:45:23.678999,0,-2,-4,0,0,0,81,84,85,70,85,129.64,88,11.00,21.00,-1021.00
2024-05-19 09:45:23.684130,0,-2,-4,0,0,0,82,84,85,70,85,129.62,88,-1.00,48.00,-1023.00
2024-05-19 09:45:23.883783,0,-2,-4,0,0,0,82,84,85,70,85,129.61,88,11.00,37.00,-995.00
2024-05-19 09:45:23.887880,0,-2,-4,0,0,0,82,84,84,70,85,129.55,88,7.00,47.00,-1004.00
2024-05-19 09:45:24.088495,0,-1,-4,0,0,0,82,84,84,70,85,129.43,88,27.00,28.00,-1010.00
2024-05-19 09:45:24.094796,0,-1,-5,0,0,0,82,84,84,70,85,129.56,88,22.00,32.00,-952.00
2024-05-19 09:45:24.193860,1,-1,-5,0,0,0,82,84,83,70,85,129.60,88,-10.00,30.00,-1056.00
2024-05-19 09:45:24.295739,0,-2,-5,0,0,0,82,84,83,70,85,129.76,88,12.00,23.00,-1005.00
2024-05-19 09:45:24.397961,0,-1,-6,0,0,0,82,84,83,70,85,129.70,89,-9.00,27.00,-995.00
2024-05-19 09:45:24.500799,0,-1,-6,0,0,0,82,84,82,70,85,129.58,89,-4.00,17.00,-1006.00
2024-05-19 09:45:24.602812,0,-1,-5,0,0,0,82,84,81,70,85,129.53,89,4.00,26.00,-997.00
2024-05-19 09:45:24.704820,0,0,-5,0,0,0,82,85,81,70,85,129.59,89,27.00,42.00,-1075.00
2024-05-19 09:45:24.908261,0,-1,-5,0,0,0,82,85,80,70,85,129.59,89,49.00,26.00,-938.00
2024-05-19 09:45:24.908767,0,0,-5,0,0,0,82,85,80,70,85,129.49,89,14.00,14.00,-998.00
2024-05-19 09:45:25.112468,0,0,-6,0,0,0,82,85,79,70,85,129.53,89,4.00,-15.00,-993.00
2024-05-19 09:45:25.112742,0,0,-6,0,0,0,82,85,79,70,85,129.59,89,27.00,17.00,-999.00
2024-05-19 09:45:25.214930,0,-1,-6,0,0,0,82,85,79,70,85,129.52,89,-17.00,56.00,-1050.00
2024-05-19 09:45:25.265739,0,0,-6,0,0,0,82,85,78,70,85,129.58,89,-5.00,76.00,-1000.00
2024-05-19 09:45:25.419847,0,0,-6,0,0,0,82,85,77,70,85,129.60,90,-29.00,56.00,-988.00
2024-05-19 09:45:25.469779,0,-2,-5,0,1,0,82,85,76,70,85,129.61,90,7.00,33.00,-981.00
2024-05-19 09:45:25.624483,0,-4,-5,0,1,0,82,85,75,70,85,129.42,90,-63.00,52.00,-1061.00
2024-05-19 09:45:25.673761,0,-5,-5,0,0,0,82,84,75,60,85,129.59,90,-23.00,43.00,-1054.00
2024-05-19 09:45:25.829304,0,-4,-5,0,0,0,82,84,74,60,85,129.46,90,-39.00,54.00,-1045.00
2024-05-19 09:45:25.877802,-1,-4,-5,0,0,0,82,84,74,60,85,129.61,90,-20.00,61.00,-1004.00
2024-05-19 09:45:26.034073,-1,-4,-5,0,0,0,82,84,75,60,85,129.49,90,-25.00,77.00,-1038.00
2024-05-19 09:45:26.081944,-1,-3,-5,0,0,0,82,84,75,60,85,129.58,90,-62.00,40.00,-998.00
2024-05-19 09:45:26.239669,-2,-2,-5,-1,0,0,82,84,76,70,85,129.59,90,-29.00,3.00,-1018.00
2024-05-19 09:45:26.285864,-2,-1,-5,-1,0,0,82,84,77,70,85,129.50,90,-70.00,47.00,-1048.00
2024-05-19 09:45:26.443800,-3,-1,-5,0,0,0,82,84,78,70,85,129.46,91,-39.00,49.00,-984.00
2024-05-19 09:45:26.489808,-3,-2,-5,0,0,0,82,84,79,70,85,129.55,91,-54.00,41.00,-999.00
2024-05-19 09:45:26.648543,-3,-1,-4,0,0,0,82,84,79,70,85,129.65,91,-26.00,41.00,-853.00
2024-05-19 09:45:26.693782,-3,-1,-4,0,0,0,82,84,80,70,85,129.63,91,-46.00,48.00,-1019.00
2024-05-19 09:45:26.853593,-3,-2,-4,0,0,0,82,84,80,70,85,129.62,91,-47.00,38.00,-1024.00
2024-05-19 09:45:26.898514,-2,-2,-4,0,0,0,82,84,80,70,85,129.64,91,2.00,34.00,-959.00
2024-05-19 09:45:27.058209,-2,-2,-4,0,0,0,82,84,79,70,85,129.67,91,-9.00,26.00,-989.00
2024-05-19 09:45:27.102389,-1,-2,-4,0,0,0,82,84,79,70,85,129.74,91,1.00,30.00,-955.00
2024-05-19 09:45:27.263648,-1,-1,-4,0,0,0,82,84,78,70,85,129.61,91,-15.00,33.00,-994.00
2024-05-19 09:45:27.305865,0,-1,-4,0,0,0,82,84,78,70,85,129.56,91,-22.00,55.00,-1000.00
2024-05-19 09:45:27.467793,0,-2,-5,0,0,0,82,84,78,70,85,129.47,92,-32.00,40.00,-979.00
2024-05-19 09:45:27.509815,-1,-2,-5,0,0,0,82,84,78,70,85,129.48,92,-20.00,23.00,-1012.00
2024-05-19 09:45:27.672621,0,-3,-5,0,0,0,82,84,78,70,85,129.55,92,-17.00,22.00,-984.00
2024-05-19 09:45:27.713785,-1,-2,-5,0,0,0,82,84,79,70,85,129.69,92,-29.00,23.00,-1070.00
2024-05-19 09:45:27.877732,-1,-2,-5,0,0,0,82,84,80,70,85,129.51,92,-30.00,0.00,-1011.00
2024-05-19 09:45:27.917866,-1,-1,-5,0,0,0,82,84,81,70,85,129.55,92,-34.00,-5.00,-1021.00
2024-05-19 09:45:28.037704,-1,0,-5,0,0,0,82,84,82,70,85,129.65,92,-4.00,26.00,-969.00
2024-05-19 09:45:28.121846,-1,0,-5,0,0,0,82,84,83,70,85,129.65,92,-6.00,-4.00,-988.00
2024-05-19 09:45:28.223624,0,0,-5,0,0,0,82,84,84,70,85,129.66,92,-6.00,21.00,-967.00
2024-05-19 09:45:28.389311,0,0,-5,0,0,-1,82,84,85,70,85,129.63,92,11.00,-27.00,-982.00
2024-05-19 09:45:28.427660,0,0,-5,0,0,-2,82,84,87,70,85,129.57,93,0.00,27.00,-1024.00
2024-05-19 09:45:28.594691,0,0,-5,0,0,-3,82,84,89,80,85,129.65,93,-5.00,22.00,-1135.00
2024-05-19 09:45:28.631717,0,0,-5,0,0,-3,82,84,92,80,85,129.75,93,10.00,-2.00,-1020.00
2024-05-19 09:45:28.798839,0,0,-5,0,0,-4,83,84,96,80,85,129.84,93,23.00,1.00,-987.00
2024-05-19 09:45:28.835611,0,0,-5,0,0,-4,83,84,101,90,85,129.76,93,9.00,7.00,-1053.00
2024-05-19 09:45:29.003763,0,0,-5,0,0,-5,83,84,106,90,85,129.84,93,-27.00,-7.00,-1045.00
2024-05-19 09:45:29.039976,1,0,-5,0,0,-5,83,84,111,100,85,129.93,93,25.00,-7.00,-1007.00
2024-05-19 09:45:29.208444,1,0,-5,0,0,-5,83,84,117,100,85,129.89,93,-7.00,11.00,-1059.00
2024-05-19 09:45:29.208930,1,0,-5,0,0,-5,83,84,122,110,85,129.86,93,49.00,-36.00,-951.00
2024-05-19 09:45:29.294613,1,0,-5,0,0,-5,83,84,128,110,85,129.95,93,34.00,25.00,-1009.00
2024-05-19 09:45:29.413335,1,0,-4,0,0,-5,83,84,137,120,85,129.98,94,5.00,-10.00,-1018.00
2024-05-19 09:45:29.498739,1,1,-4,0,0,-5,83,84,142,130,85,130.06,94,17.00,-22.00,-998.00
2024-05-19 09:45:29.618149,1,1,-4,0,0,-5,83,84,146,130,85,130.11,94,-10.00,-13.00,-963.00
2024-05-19 09:45:29.702632,0,1,-4,0,0,-4,81,84,152,140,85,130.17,94,5.00,-29.00,-971.00
2024-05-19 09:45:29.822926,0,1,-4,0,0,-4,81,84,156,140,85,130.22,94,8.00,-15.00,-939.00
2024-05-19 09:45:29.908332,0,1,-4,0,0,-3,81,84,160,140,85,130.20,94,15.00,-23.00,-946.00
2024-05-19 09:45:30.008699,0,1,-4,0,0,-3,81,84,164,150,85,130.23,94,18.00,-23.00,-953.00
2024-05-19 09:45:30.130111,0,1,-4,0,0,-3,81,84,166,150,85,130.31,94,8.00,-30.00,-950.00
2024-05-19 09:45:30.212874,0,0,-4,0,0,-2,81,84,169,150,85,130.27,94,5.00,-25.00,-947.00
2024-05-19 09:45:30.314678,0,0,-5,0,0,-2,81,84,172,160,85,130.36,94,-15.00,-4.00,-962.00
2024-05-19 09:45:30.437362,0,0,-5,0,0,-2,81,84,174,160,85,130.41,95,0.00,6.00,-993.00
2024-05-19 09:45:30.519664,0,1,-5,0,0,-1,81,84,176,160,85,130.37,95,-4.00,-15.00,-990.00
2024-05-19 09:45:30.641977,0,1,-5,0,0,-1,81,84,178,160,85,130.37,95,44.00,-15.00,-975.00
2024-05-19 09:45:30.723752,0,1,-5,0,0,-1,82,83,180,170,85,130.37,95,10.00,-16.00,-978.00
2024-05-19 09:45:30.847919,1,1,-5,0,0,-1,82,83,181,170,85,130.48,95,14.00,-21.00,-902.00
2024-05-19 09:45:30.928115,1,0,-5,0,0,0,82,83,183,170,85,130.42,95,25.00,-17.00,-924.00
2024-05-19 09:45:31.030156,0,1,-5,0,0,0,82,83,183,170,85,130.42,95,22.00,-15.00,-967.00
2024-05-19 09:45:31.154221,1,1,-5,0,0,0,82,83,184,170,85,130.47,95,6.00,-25.00,-974.00
2024-05-19 09:45:31.234001,1,0,-5,0,0,0,82,83,185,170,85,130.53,95,5.00,-26.00,-988.00
2024-05-19 09:45:31.359030,1,0,-4,0,0,0,82,83,185,170,85,130.57,95,8.00,-12.00,-959.00
2024-05-19 09:45:31.438465,0,0,-4,0,0,0,82,83,186,170,85,130.48,96,22.00,-36.00,-1018.00
2024-05-19 09:45:31.564101,0,1,-4,0,0,0,82,83,186,170,85,130.44,96,10.00,-14.00,-980.00
2024-05-19 09:45:31.641725,0,2,-5,0,0,0,82,83,186,170,85,130.51,96,23.00,-45.00,-1008.00
2024-05-19 09:45:31.768628,0,2,-5,0,0,0,82,83,187,170,85,130.54,96,27.00,-36.00,-1011.00
2024-05-19 09:45:31.845655,0,2,-5,0,0,0,82,83,187,170,85,130.46,96,46.00,-53.00,-977.00
2024-05-19 09:45:31.975878,1,2,-5,0,0,0,82,83,187,170,85,130.63,96,78.00,-21.00,-993.00
2024-05-19 09:45:32.049665,2,2,-5,0,0,0,82,83,187,170,85,130.63,96,79.00,-29.00,-965.00
2024-05-19 09:45:32.178318,3,2,-5,1,0,0,82,83,187,170,85,130.60,96,61.00,-42.00,-1050.00
2024-05-19 09:45:32.254154,4,2,-5,1,0,0,82,83,189,170,85,130.60,96,82.00,-39.00,-990.00
2024-05-19 09:45:32.382931,4,2,-5,1,0,0,82,83,189,170,85,130.63,96,49.00,-26.00,-1036.00
2024-05-19 09:45:32.459041,4,2,-5,0,0,0,82,83,189,170,85,130.63,97,59.00,-39.00,-979.00
2024-05-19 09:45:32.587808,4,2,-5,0,0,0,82,83,190,170,85,130.73,97,84.00,-39.00,-972.00
2024-05-19 09:45:32.612424,4,2,-5,0,0,0,82,83,190,170,85,130.64,97,72.00,-49.00,-919.00
2024-05-19 09:45:32.763413,4,1,-5,0,0,0,81,84,189,180,85,130.65,97,73.00,-42.00,-973.00
2024-05-19 09:45:32.865698,4,2,-5,0,0,0,81,84,189,170,85,130.65,97,52.00,-39.00,-999.00
2024-05-19 09:45:32.918932,5,2,-5,0,0,0,81,84,188,170,85,130.61,97,55.00,-65.00,-947.00
2024-05-19 09:45:33.018538,5,2,-5,0,0,0,81,84,187,170,85,130.55,97,81.00,-62.00,-947.00
2024-05-19 09:45:33.202049,4,2,-5,0,0,1,81,84,185,170,85,130.59,97,34.00,-36.00,-961.00
2024-05-19 09:45:33.222585,4,2,-5,0,0,1,81,84,183,170,85,130.57,97,60.00,-50.00,-920.00
2024-05-19 09:45:33.406823,4,2,-5,0,0,2,81,84,180,170,85,130.52,98,51.00,-42.00,-982.00
2024-05-19 09:45:33.427322,4,2,-5,0,0,2,81,84,177,160,85,130.51,98,42.00,-38.00,-984.00
2024-05-19 09:45:33.611660,4,2,-5,0,0,2,81,84,173,160,85,130.42,98,59.00,-47.00,-971.00
2024-05-19 09:45:33.631413,4,2,-5,0,0,3,81,84,170,160,85,130.53,98,73.00,-53.00,-986.00
2024-05-19 09:45:33.816472,3,2,-5,0,0,3,82,84,166,160,85,130.34,98,84.00,-57.00,-1012.00
2024-05-19 09:45:33.835504,3,2,-5,0,0,2,82,84,164,150,85,130.37,98,61.00,-52.00,-1009.00
2024-05-19 09:45:34.021260,3,2,-5,0,0,2,82,84,160,150,85,130.37,98,67.00,-52.00,-1027.00
2024-05-19 09:45:34.039660,4,3,-5,0,0,2,82,84,157,150,85,130.26,98,96.00,-47.00,-1021.00
2024-05-19 09:45:34.226075,4,3,-5,0,0,2,82,84,154,140,85,130.26,98,65.00,-58.00,-1010.00
2024-05-19 09:45:34.243388,4,3,-5,0,0,2,82,84,151,140,85,130.17,98,67.00,-49.00,-1004.00
2024-05-19 09:45:34.430829,4,3,-5,0,0,2,82,84,149,140,85,130.17,99,78.00,-56.00,-1046.00
2024-05-19 09:45:34.447389,4,2,-5,0,0,1,82,84,146,140,85,130.16,99,56.00,-58.00,-979.00
2024-05-19 09:45:34.635675,3,3,-5,0,0,1,82,84,143,130,85,130.12,99,32.00,-55.00,-1065.00
2024-05-19 09:45:34.651475,2,3,-5,0,0,1,82,84,141,130,85,130.06,99,78.00,-48.00,-951.00
2024-05-19 09:45:34.840454,3,2,-5,0,0,1,83,84,139,130,85,129.98,99,79.00,-46.00,-989.00
2024-05-19 09:45:34.855382,4,2,-5,0,0,1,83,84,137,130,85,129.93,99,82.00,-42.00,-1048.00
2024-05-19 09:45:35.045399,4,2,-5,0,0,1,83,84,135,130,85,130.04,99,86.00,-46.00,-1000.00
2024-05-19 09:45:35.059536,4,2,-5,0,0,1,83,84,133,130,85,129.98,99,70.00,-41.00,-1064.00
2024-05-19 09:45:35.250277,4,2,-5,0,0,0,83,84,132,120,85,129.91,99,76.00,-50.00,-963.00
2024-05-19 09:45:35.263336,4,2,-5,0,0,0,83,84,130,120,85,129.91,99,78.00,-44.00,-1012.00
2024-05-19 09:45:35.454930,4,2,-5,0,0,0,83,84,129,120,85,129.89,100,71.00,-42.00,-1019.00
2024-05-19 09:45:35.467558,4,2,-5,0,0,0,83,84,128,120,85,129.89,100,92.00,-51.00,-997.00
2024-05-19 09:45:35.659712,4,2,-5,0,0,0,83,84,128,120,85,129.83,100,58.00,-39.00,-1043.00
2024-05-19 09:45:35.671465,4,2,-5,0,0,0,83,84,127,120,85,129.89,100,112.00,-38.00,-964.00
2024-05-19 09:45:35.864554,5,2,-5,0,0,0,82,84,127,120,85,129.81,100,86.00,-27.00,-1046.00
2024-05-19 09:45:35.875728,5,1,-5,0,0,0,82,84,126,120,85,129.76,100,78.00,-33.00,-1016.00
2024-05-19 09:45:36.069582,5,2,-5,0,0,0,82,84,125,120,85,129.81,100,85.00,-43.00,-977.00
2024-05-19 09:45:36.079633,5,2,-5,0,0,0,82,84,125,120,85,129.78,100,73.00,-36.00,-1052.00
2024-05-19 09:45:36.274169,4,1,-5,0,0,0,82,84,124,120,85,129.76,100,55.00,-22.00,-1020.00
2024-05-19 09:45:36.283408,4,1,-5,0,0,0,82,84,123,120,85,129.80,100,68.00,-16.00,-1079.00
2024-05-19 09:45:36.478898,4,1,-5,0,0,0,82,84,123,120,85,129.84,101,75.00,-22.00,-1056.00
2024-05-19 09:45:36.479054,5,2,-5,0,0,0,82,84,122,120,85,129.74,101,111.00,-48.00,-963.00
2024-05-19 09:45:36.539769,5,1,-5,0,0,0,82,84,122,120,85,129.79,101,88.00,-39.00,-971.00
2024-05-19 09:45:36.683740,4,2,-5,0,0,0,82,84,121,120,85,129.71,101,54.00,-38.00,-1000.00
2024-05-19 09:45:36.794760,4,3,-5,0,0,0,82,85,120,120,85,129.76,101,55.00,-42.00,-1045.00
2024-05-19 09:45:36.896284,4,2,-5,0,0,0,82,85,120,110,85,129.80,101,96.00,-40.00,-974.00
2024-05-19 09:45:37.093500,3,2,-5,0,0,0,82,85,120,110,85,129.72,101,73.00,-60.00,-985.00
2024-05-19 09:45:37.093559,-3,2,-5,0,0,0,82,85,121,110,85,129.76,101,81.00,-57.00,-1014.00
2024-05-19 09:45:37.151272,-7,2,-5,0,0,0,82,85,123,110,85,129.78,101,58.00,-77.00,-971.00
2024-05-19 09:45:37.253242,-7,3,-5,2,0,0,82,85,123,110,85,129.74,101,64.00,-43.00,-1042.00
2024-05-19 09:45:37.400480,-5,3,-5,4,0,0,82,85,124,110,85,129.78,102,51.00,-65.00,-966.00
2024-05-19 09:45:37.457276,-3,3,-5,5,0,0,82,85,126,120,85,129.77,102,0.00,-38.00,-1047.00
2024-05-19 09:45:37.605217,-3,3,-5,6,0,0,82,85,128,120,85,129.82,102,-32.00,-47.00,-1022.00
2024-05-19 09:45:37.661261,-3,4,-5,6,0,0,82,85,130,120,85,129.82,102,-7.00,-46.00,-979.00
2024-05-19 09:45:37.810038,-3,3,-5,6,0,0,83,85,132,120,85,129.82,102,3.00,-54.00,-991.00
2024-05-19 09:45:37.865191,-2,2,-5,7,0,0,83,85,135,120,85,129.79,102,-34.00,-47.00,-1002.00
2024-05-19 09:45:38.014803,0,2,-5,7,0,0,83,85,137,120,85,129.91,102,-21.00,-42.00,-1008.00
2024-05-19 09:45:38.069218,3,2,-5,7,0,0,83,85,140,120,85,129.92,102,-4.00,-41.00,-1007.00
2024-05-19 09:45:38.220378,5,2,-5,6,0,0,83,85,143,120,85,129.93,102,-4.00,-53.00,-966.00
2024-05-19 09:45:38.273217,6,2,-5,5,0,0,83,85,145,120,85,129.89,102,3.00,-46.00,-989.00
2024-05-19 09:45:38.424437,5,2,-5,4,0,0,83,85,147,130,85,130.03,103,30.00,-39.00,-971.00
2024-05-19 09:45:38.477290,4,2,-5,3,0,-1,83,85,148,130,85,129.94,103,26.00,-12.00,-1054.00
2024-05-19 09:45:38.629217,3,2,-5,3,0,-1,83,85,149,130,85,129.88,103,84.00,-18.00,-903.00
2024-05-19 09:45:38.682416,4,1,-5,4,0,0,83,85,150,130,85,129.95,103,84.00,-33.00,-957.00
2024-05-19 09:45:38.783375,6,0,-5,4,0,0,82,85,150,140,85,130.12,103,76.00,-45.00,-925.00
2024-05-19 09:45:38.939612,8,0,-5,4,0,0,82,85,152,140,85,129.97,103,87.00,-54.00,-966.00
2024-05-19 09:45:38.987536,8,1,-5,3,0,1,82,85,151,130,85,130.03,103,98.00,-33.00,-998.00
2024-05-19 09:45:39.141281,8,1,-5,2,0,0,82,85,151,130,85,129.91,103,100.00,-23.00,-1023.00
2024-05-19 09:45:39.191166,8,1,-5,2,0,0,82,85,150,130,85,130.01,103,91.00,-31.00,-1014.00
2024-05-19 09:45:39.293402,7,1,-5,1,0,0,82,85,150,130,85,129.90,103,93.00,-35.00,-964.00
2024-05-19 09:45:39.448577,6,1,-5,0,0,1,82,85,149,130,85,129.91,104,95.00,-37.00,-978.00
2024-05-19 09:45:39.497380,5,1,-5,0,0,1,82,85,148,130,85,129.86,104,71.00,-35.00,-1006.00
2024-05-19 09:45:39.653329,5,1,-5,0,0,0,82,85,148,130,85,129.89,104,84.00,-28.00,-993.00
2024-05-19 09:45:39.701191,5,1,-5,0,0,0,82,85,147,130,85,129.85,104,62.00,-23.00,-1020.00
2024-05-19 09:45:39.858368,5,1,-5,0,0,0,82,84,148,130,85,129.84,104,54.00,-16.00,-981.00
2024-05-19 09:45:39.905174,5,0,-5,0,0,0,82,84,147,130,85,129.81,104,72.00,-13.00,-956.00
2024-05-19 09:45:40.063116,5,0,-5,0,0,0,82,84,147,130,85,129.75,104,97.00,-4.00,-952.00
2024-05-19 09:45:40.109195,4,0,-5,0,0,0,82,84,147,130,85,129.73,104,87.00,-14.00,-946.00
2024-05-19 09:45:40.268062,4,0,-5,0,0,0,82,84,146,130,85,129.72,104,87.00,-13.00,-911.00
2024-05-19 09:45:40.313273,4,0,-5,0,0,0,82,84,146,130,85,129.76,104,46.00,8.00,-1023.00
2024-05-19 09:45:40.472483,4,0,-5,0,0,0,82,84,146,130,85,129.71,105,53.00,8.00,-979.00
2024-05-19 09:45:40.518355,4,0,-5,0,0,0,82,84,146,130,85,129.65,105,91.00,-1.00,-989.00
2024-05-19 09:45:40.678938,4,0,-5,0,0,0,82,84,146,130,85,129.76,105,52.00,14.00,-981.00
2024-05-19 09:45:40.679096,3,0,-5,0,0,0,82,84,145,130,85,129.71,105,59.00,16.00,-1003.00
2024-05-19 09:45:40.882106,3,0,-5,0,0,0,83,84,145,130,85,129.72,105,66.00,6.00,-985.00
2024-05-19 09:45:40.882268,4,-1,-5,0,0,0,83,84,144,130,85,129.74,105,76.00,-1.00,-991.00
2024-05-19 09:45:40.976219,4,-1,-5,0,0,0,83,84,144,130,85,129.69,105,82.00,-8.00,-988.00
2024-05-19 09:45:41.086936,4,0,-5,0,0,0,83,84,144,130,85,129.67,105,60.00,3.00,-1025.00
2024-05-19 09:45:41.180142,4,0,-5,0,0,0,83,84,143,130,85,129.73,105,60.00,0.00,-981.00
2024-05-19 09:45:41.282219,4,0,-5,0,0,0,83,84,142,130,85,129.72,105,58.00,3.00,-974.00
2024-05-19 09:45:41.394221,6,0,-5,0,0,0,83,84,143,130,85,129.72,106,47.00,0.00,-1016.00
2024-05-19 09:45:41.486573,8,1,-5,0,0,0,83,84,143,130,85,129.74,106,44.00,-3.00,-1016.00
2024-05-19 09:45:41.599818,8,0,-5,-1,0,0,83,84,142,130,85,129.60,106,48.00,2.00,-1033.00
2024-05-19 09:45:41.690085,8,0,-5,-2,0,0,83,84,142,130,85,129.63,106,103.00,-2.00,-1002.00
2024-05-19 09:45:41.803518,8,0,-5,-3,0,0,82,84,141,130,85,129.63,106,78.00,-9.00,-1001.00
2024-05-19 09:45:41.895778,8,0,-5,-3,0,0,82,84,142,130,85,129.63,106,100.00,3.00,-1023.00
2024-05-19 09:45:41.996233,8,0,-5,-4,0,0,82,84,141,130,85,129.65,106,74.00,-6.00,-1013.00
2024-05-19 09:45:42.110811,8,0,-5,-5,0,0,82,84,141,130,85,129.70,106,77.00,13.00,-1000.00
2024-05-19 09:45:42.200405,8,-1,-5,-6,1,0,82,84,140,130,85,129.72,106,78.00,-2.00,-992.00
2024-05-19 09:45:42.301874,8,-1,-5,-6,0,0,82,84,140,130,85,129.57,106,58.00,8.00,-1007.00
2024-05-19 09:45:42.418169,8,-1,-5,-7,0,0,82,84,139,130,85,129.58,107,97.00,17.00,-955.00
2024-05-19 09:45:42.511594,5,0,-5,-7,0,0,82,84,138,130,85,129.60,107,108.00,0.00,-992.00
2024-05-19 09:45:42.609020,1,0,-5,-7,0,0,82,84,137,130,85,129.71,107,80.00,12.00,-1033.00
2024-05-19 09:45:42.725174,-1,0,-5,-6,0,0,82,84,136,130,85,129.73,107,100.00,16.00,-983.00
2024-05-19 09:45:42.812963,-1,0,-5,-5,1,0,83,85,136,130,85,129.62,107,104.00,23.00,-966.00
2024-05-19 09:45:42.929989,0,-1,-5,-4,1,0,83,85,135,130,85,129.66,107,80.00,44.00,-959.00
2024-05-19 09:45:43.016910,1,-1,-5,-3,0,0,83,85,135,130,85,129.57,107,75.00,21.00,-1028.00
2024-05-19 09:45:43.135450,2,-1,-5,-3,0,0,83,85,134,120,84,129.60,107,62.00,31.00,-994.00
2024-05-19 09:45:43.221083,2,-1,-5,-2,0,0,83,85,133,120,84,129.64,107,51.00,19.00,-961.00
2024-05-19 09:45:43.339544,2,-2,-5,-2,0,0,83,85,133,120,84,129.61,107,50.00,33.00,-1034.00
2024-05-19 09:45:43.424912,2,-3,-5,-2,0,0,83,85,133,120,84,129.73,108,64.00,20.00,-990.00
2024-05-19 09:45:43.526956,2,-3,-5,-2,0,0,83,85,132,120,84,129.68,108,66.00,25.00,-1046.00
2024-05-19 09:45:43.646792,1,-3,-5,-2,0,0,83,85,132,120,84,129.67,108,52.00,28.00,-1026.00
2024-05-19 09:45:43.730943,0,-3,-5,-2,0,0,83,85,132,120,84,129.68,108,32.00,27.00,-1022.00
2024-05-19 09:45:43.851554,0,-3,-5,-2,0,0,82,85,132,120,84,129.69,108,18.00,41.00,-1013.00
2024-05-19 09:45:43.934901,-1,-3,-5,-1,-1,0,82,85,131,120,84,129.79,108,68.00,9.00,-1009.00
2024-05-19 09:45:44.056385,0,1,-5,-1,-1,0,82,85,131,120,84,129.77,108,4.00,42.00,-956.00
2024-05-19 09:45:44.139243,0,2,-5,0,0,0,82,85,130,120,84,129.75,108,44.00,8.00,-950.00
2024-05-19 09:45:44.261293,1,1,-5,0,0,0,82,85,130,120,84,129.80,108,25.00,6.00,-980.00
2024-05-19 09:45:44.344014,1,0,-5,0,0,0,82,85,130,120,84,129.81,108,25.00,0.00,-931.00
2024-05-19 09:45:44.446022,1,0,-5,0,0,0,82,85,129,120,84,129.67,109,8.00,4.00,-1024.00
2024-05-19 09:45:44.496963,1,-1,-5,0,0,0,82,85,129,120,84,129.69,109,28.00,11.00,-998.00
2024-05-19 09:45:44.670868,1,-1,-5,0,0,0,82,85,129,120,84,129.73,109,22.00,0.00,-1024.00
2024-05-19 09:45:44.701487,0,0,-5,0,0,0,82,85,130,120,84,129.81,109,15.00,-6.00,-1051.00
2024-05-19 09:45:44.875677,0,0,-5,0,0,0,82,84,130,120,84,129.73,109,33.00,-14.00,-1012.00
2024-05-19 09:45:44.904934,1,0,-5,0,0,0,82,84,131,120,84,129.81,109,10.00,-10.00,-1049.00
2024-05-19 09:45:45.080818,1,1,-5,0,0,0,82,84,132,120,84,129.86,109,23.00,-19.00,-983.00
2024-05-19 09:45:45.108873,0,1,-5,0,0,0,82,84,133,120,84,129.77,109,0.00,-26.00,-984.00
2024-05-19 09:45:45.285242,0,1,-5,0,0,0,82,84,134,120,84,129.80,109,9.00,-28.00,-952.00
2024-05-19 09:45:45.312908,0,1,-5,0,0,0,82,84,134,120,84,129.84,109,-11.00,-21.00,-998.00
2024-05-19 09:45:45.490146,0,1,-5,0,0,0,82,84,135,120,84,129.80,110,5.00,-33.00,-982.00
2024-05-19 09:45:45.516909,0,1,-5,0,0,0,82,84,135,120,84,129.86,110,-10.00,-29.00,-1032.00
2024-05-19 09:45:45.694831,0,1,-5,0,0,0,82,84,135,120,84,129.83,110,-32.00,-20.00,-1001.00
2024-05-19 09:45:45.720991,0,1,-5,0,0,0,82,84,135,120,84,129.80,110,15.00,-18.00,-964.00
2024-05-19 09:45:45.899725,0,1,-5,0,0,0,82,85,134,120,84,129.84,110,1.00,-11.00,-1035.00
2024-05-19 09:45:45.924722,0,1,-5,0,0,0,82,85,134,120,84,129.79,110,0.00,-34.00,-951.00
2024-05-19 09:45:46.104465,0,1,-5,0,0,0,82,85,133,120,84,129.81,110,15.00,-17.00,-992.00
2024-05-19 09:45:46.128778,0,1,-5,0,0,0,82,85,133,120,84,129.88,110,-16.00,-21.00,-1051.00
2024-05-19 09:45:46.230866,0,1,-5,0,0,0,82,85,132,120,84,129.82,110,-13.00,-24.00,-987.00
2024-05-19 09:45:46.411414,0,1,-5,0,0,0,82,85,132,120,84,129.78,110,7.00,-12.00,-1024.00
2024-05-19 09:45:46.435942,0,-6,-5,0,0,0,82,85,132,120,84,129.83,111,7.00,-55.00,-938.00
2024-05-19 09:45:46.617019,1,-7,-5,0,-1,0,82,85,131,120,84,129.80,111,35.00,-15.00,-1023.00
2024-05-19 09:45:46.639064,1,-4,-5,0,-3,0,82,85,132,120,84,129.80,111,-4.00,-3.00,-1022.00
2024-05-19 09:45:46.821131,1,-2,-5,0,-3,0,82,85,132,120,84,129.87,111,7.00,0.00,-952.00
2024-05-19 09:45:46.842686,1,1,-5,0,-4,0,82,84,132,120,84,129.80,111,40.00,3.00,-1030.00
2024-05-19 09:45:47.025871,0,2,-5,0,-3,0,82,84,133,120,84,129.86,111,20.00,-16.00,-967.00
2024-05-19 09:45:47.046764,0,2,-5,0,-3,0,82,84,134,120,84,129.81,111,2.00,-7.00,-1017.00
2024-05-19 09:45:47.230657,0,1,-5,0,-3,0,82,84,136,120,83,129.90,111,22.00,-6.00,-1002.00
2024-05-19 09:45:47.250717,0,1,-5,0,-2,0,82,84,136,120,83,129.93,111,0.00,3.00,-999.00
2024-05-19 09:45:47.435466,0,0,-5,0,-1,0,82,84,138,120,83,129.93,111,7.00,-2.00,-1007.00
2024-05-19 09:45:47.454687,0,0,-5,0,-1,0,82,84,138,120,83,129.92,112,7.00,-16.00,-945.00
2024-05-19 09:45:47.640268,0,0,-5,0,-2,0,82,84,139,120,83,130.01,112,8.00,-6.00,-953.00
2024-05-19 09:45:47.658825,0,0,-5,0,-2,0,82,84,140,120,83,129.88,112,-7.00,5.00,-1003.00
2024-05-19 09:45:47.845197,0,0,-5,0,-2,0,82,84,140,130,83,129.92,112,-28.00,4.00,-991.00
2024-05-19 09:45:47.862640,0,0,-5,0,-2,0,82,85,141,130,83,130.03,112,18.00,-4.00,-947.00
2024-05-19 09:45:48.049809,0,0,-5,0,-2,0,82,85,140,130,83,129.94,112,-23.00,1.00,-963.00
2024-05-19 09:45:48.066611,1,1,-5,0,-2,0,82,85,141,130,83,129.88,112,-1.00,-9.00,-977.00
2024-05-19 09:45:48.254664,1,5,-5,0,-2,0,82,85,141,130,83,129.91,112,26.00,-3.00,-1047.00
2024-05-19 09:45:48.270689,1,5,-5,0,-1,0,82,85,142,130,83,129.94,112,10.00,7.00,-961.00
2024-05-19 09:45:48.459450,1,3,-5,0,0,0,82,85,141,130,83,129.94,113,2.00,-5.00,-1013.00
2024-05-19 09:45:48.460029,1,1,-5,0,0,0,82,85,140,130,83,129.86,113,8.00,-23.00,-973.00
2024-05-19 09:45:48.526707,1,1,-5,0,0,0,82,85,139,130,83,129.96,113,0.00,-15.00,-1016.00
2024-05-19 09:45:48.664398,1,1,-5,0,0,0,82,85,139,130,83,129.96,113,22.00,-12.00,-1018.00
2024-05-19 09:45:48.731691,1,1,-5,0,0,0,82,85,139,130,83,129.94,113,-3.00,-15.00,-976.00
2024-05-19 09:45:48.869155,0,1,-5,0,0,0,83,84,138,130,83,129.95,113,14.00,-7.00,-1040.00
2024-05-19 09:45:48.934689,0,0,-5,0,0,0,83,84,138,120,83,129.99,113,5.00,-30.00,-973.00
2024-05-19 09:45:49.074294,0,0,-5,0,0,0,83,84,138,120,83,129.96,113,-6.00,-4.00,-1045.00
2024-05-19 09:45:49.139769,0,0,-5,0,0,0,83,84,138,120,83,129.93,113,-12.00,-6.00,-1042.00
2024-05-19 09:45:49.278838,0,0,-5,0,0,0,83,84,138,120,83,129.96,113,-19.00,0.00,-1037.00
2024-05-19 09:45:49.343309,0,0,-5,0,0,0,83,84,138,120,83,129.90,114,-21.00,-14.00,-1016.00
2024-05-19 09:45:49.483561,0,0,-5,0,0,0,83,84,138,120,83,129.96,114,-9.00,-12.00,-1040.00
2024-05-19 09:45:49.546844,0,0,-5,0,0,0,83,84,138,120,83,129.92,114,0.00,-25.00,-984.00
2024-05-19 09:45:49.688447,0,1,-5,0,0,0,83,84,138,130,83,129.98,114,-9.00,-13.00,-994.00
2024-05-19 09:45:49.750690,0,1,-5,0,0,0,83,84,138,130,83,130.00,114,-13.00,-15.00,-989.00
2024-05-19 09:45:49.893297,0,1,-5,0,0,0,82,84,138,130,83,130.00,114,-1.00,-19.00,-1031.00
2024-05-19 09:45:49.954694,0,1,-5,0,0,0,82,84,137,130,83,129.93,114,-5.00,-21.00,-1026.00
2024-05-19 09:45:50.098149,0,1,-5,0,0,0,82,84,137,130,83,129.99,114,-5.00,-18.00,-1044.00
2024-05-19 09:45:50.158835,0,0,-5,0,0,0,82,84,137,120,83,129.91,114,14.00,-25.00,-1033.00
2024-05-19 09:45:50.302779,0,0,-5,0,0,0,82,84,138,120,83,129.85,114,-6.00,-20.00,-1036.00
2024-05-19 09:45:50.362650,1,1,-5,0,0,0,82,84,137,120,83,129.92,115,-1.00,-9.00,-1020.00
2024-05-19 09:45:50.464568,0,0,-5,0,0,0,82,84,137,120,83,129.94,115,3.00,-6.00,-1016.00
2024-05-19 09:45:50.609924,1,0,-5,0,0,0,82,84,136,120,83,129.99,115,20.00,-4.00,-1047.00
2024-05-19 09:45:50.668589,0,5,-5,0,0,0,82,84,137,120,83,129.90,115,-1.00,-23.00,-1056.00
2024-05-19 09:45:50.814719,1,9,-5,0,1,0,82,84,138,120,83,129.83,115,40.00,13.00,-966.00
2024-05-19 09:45:50.872639,1,7,-5,0,2,0,82,85,136,120,83,129.83,115,38.00,-28.00,-991.00
2024-05-19 09:45:50.974566,1,4,-5,0,3,0,82,85,134,120,83,129.88,115,35.00,-22.00,-1024.00
2024-05-19 09:45:51.121944,2,1,-5,0,3,0,82,85,133,120,83,129.97,115,28.00,-28.00,-924.00
2024-05-19 09:45:51.178738,2,0,-5,0,3,0,82,85,132,120,83,129.87,115,44.00,-34.00,-1009.00
2024-05-19 09:45:51.327339,2,0,-5,0,3,0,82,85,131,120,83,129.89,115,22.00,-28.00,-1007.00
2024-05-19 09:45:51.382846,1,0,-4,0,3,0,82,85,130,120,83,129.88,116,-8.00,-33.00,-1038.00
2024-05-19 09:45:51.531462,1,0,-4,0,2,0,82,85,129,120,83,129.86,116,14.00,-57.00,-1006.00
2024-05-19 09:45:51.586545,0,0,-4,0,2,0,82,85,128,120,83,129.90,116,-20.00,-17.00,-994.00
2024-05-19 09:45:51.736308,0,1,-4,0,2,0,82,85,127,120,83,129.83,116,-32.00,-5.00,-1017.00
2024-05-19 09:45:51.790584,0,0,-4,0,2,0,82,85,126,120,83,129.88,116,-21.00,-29.00,-1004.00
2024-05-19 09:45:51.941069,0,0,-4,0,2,0,82,85,126,120,83,129.77,116,1.00,-45.00,-1016.00
2024-05-19 09:45:51.994480,0,1,-5,0,2,0,82,85,125,120,83,129.80,116,-27.00,-30.00,-1052.00
2024-05-19 09:45:52.145858,0,1,-5,0,2,0,82,85,126,120,83,129.77,116,-30.00,-12.00,-1056.00
2024-05-19 09:45:52.198689,-1,0,-5,0,2,0,82,85,126,120,82,129.84,116,-13.00,-21.00,-987.00
2024-05-19 09:45:52.300401,-1,-2,-5,0,2,0,82,85,127,120,82,129.78,116,-1.00,-26.00,-984.00
2024-05-19 09:45:52.351416,-1,-3,-5,0,1,0,82,85,127,120,82,129.75,117,-14.00,-44.00,-980.00
2024-05-19 09:45:52.453780,0,-1,-5,0,0,0,82,85,127,120,82,129.82,117,-3.00,-12.00,-994.00
2024-05-19 09:45:52.555808,-1,0,-5,0,0,0,82,85,127,120,82,129.82,117,-31.00,-8.00,-1009.00
2024-05-19 09:45:52.657585,-1,0,-5,0,0,0,82,85,128,120,82,129.83,117,-10.00,-25.00,-1015.00
2024-05-19 09:45:52.760695,0,0,-5,0,0,0,82,85,128,120,82,129.81,117,-28.00,-9.00,-981.00
2024-05-19 09:45:52.912652,0,0,-5,0,0,0,83,85,129,120,82,129.87,117,-23.00,-16.00,-987.00
2024-05-19 09:45:52.965506,-1,0,-5,0,0,0,83,85,129,120,82,129.87,117,-30.00,-19.00,-973.00
2024-05-19 09:45:53.065705,-1,0,-5,0,0,0,83,85,130,120,82,129.84,117,-64.00,11.00,-998.00
2024-05-19 09:45:53.167568,-1,0,-5,0,0,0,83,85,130,120,82,129.84,117,-11.00,-19.00,-1006.00
2024-05-19 09:45:53.272705,-1,0,-5,0,0,0,83,85,131,120,82,129.79,117,-41.00,4.00,-1020.00
2024-05-19 09:45:53.371828,-2,0,-5,0,0,0,83,85,131,120,82,129.74,118,-56.00,0.00,-990.00
2024-05-19 09:45:53.477218,-2,0,-5,0,0,0,83,85,132,120,82,129.76,118,-9.00,-13.00,-1011.00
2024-05-19 09:45:53.575670,-2,0,-5,0,0,0,83,85,132,120,82,129.79,118,-35.00,9.00,-999.00
2024-05-19 09:45:53.682054,-2,0,-5,0,0,0,83,85,133,120,82,129.80,118,-37.00,-6.00,-1006.00
2024-05-19 09:45:53.779547,-2,0,-5,0,0,0,83,85,133,120,82,129.82,118,-22.00,-3.00,-988.00
2024-05-19 09:45:53.886759,-2,0,-5,0,0,0,83,85,133,120,82,129.76,118,-42.00,-8.00,-1004.00
2024-05-19 09:45:53.983796,-2,0,-5,0,0,0,83,85,134,120,82,129.77,118,-33.00,-8.00,-1029.00
2024-05-19 09:45:54.091538,-2,0,-5,0,0,0,83,85,135,120,82,129.75,118,-24.00,-7.00,-970.00
2024-05-19 09:45:54.187785,-1,0,-5,0,0,0,83,85,135,120,82,129.74,118,-13.00,-12.00,-1047.00
2024-05-19 09:45:54.296974,-1,1,-5,0,0,0,83,85,135,120,82,129.78,118,-44.00,-25.00,-993.00
2024-05-19 09:45:54.391789,0,2,-5,0,0,0,83,85,134,120,82,129.75,119,-31.00,-34.00,-991.00
2024-05-19 09:45:54.493354,0,2,-5,0,0,0,83,85,134,120,82,129.74,119,1.00,-22.00,-1019.00
2024-05-19 09:45:54.603752,0,2,-4,0,0,0,83,85,134,120,82,129.74,119,24.00,-62.00,-1052.00
2024-05-19 09:45:54.697352,-1,2,0,0,0,0,83,85,134,120,82,129.72,119,-23.00,-23.00,-947.00
2024-05-19 09:45:54.808240,-1,1,6,0,0,0,83,85,134,120,82,129.68,119,-22.00,-25.00,-964.00
2024-05-19 09:45:54.902338,-1,1,12,0,0,0,82,85,134,120,82,129.68,119,-37.00,-5.00,-1061.00
2024-05-19 09:45:55.013566,-2,1,19,0,0,0,82,85,133,120,82,129.62,119,-51.00,5.00,-971.00
2024-05-19 09:45:55.105334,-2,0,25,0,0,0,82,85,133,120,82,129.73,119,-30.00,-16.00,-1009.00
2024-05-19 09:45:55.217850,-2,0,30,0,0,0,82,85,133,120,82,129.67,119,-39.00,3.00,-1028.00
2024-05-19 09:45:55.309294,-3,0,36,0,0,0,82,85,133,120,82,129.75,119,-31.00,3.00,-1008.00
2024-05-19 09:45:55.422653,-3,0,42,0,0,0,82,85,133,120,82,129.63,120,-73.00,8.00,-1051.00
2024-05-19 09:45:55.513321,-3,0,47,0,0,0,82,85,133,120,82,129.54,120,-64.00,11.00,-1013.00
2024-05-19 09:45:55.627452,-3,-1,53,0,0,0,82,85,133,120,82,129.58,120,-20.00,20.00,-965.00
2024-05-19 09:45:55.717332,-3,-1,58,0,0,0,82,85,133,120,82,129.72,120,-53.00,23.00,-1042.00
2024-05-19 09:45:55.832429,-3,-1,64,0,0,0,82,85,133,120,82,129.74,120,-32.00,38.00,-1029.00
2024-05-19 09:45:55.922364,-2,-1,69,0,0,0,82,85,133,120,82,129.75,120,-42.00,41.00,-1019.00
2024-05-19 09:45:56.037034,-2,-1,75,0,0,0,82,85,133,120,82,129.74,120,-39.00,48.00,-994.00
2024-05-19 09:45:56.125272,-2,-2,81,0,0,0,82,85,133,120,82,129.67,120,-41.00,43.00,-1037.00
2024-05-19 09:45:56.241842,-2,-2,86,0,0,0,82,85,133,120,82,129.71,120,-49.00,31.00,-996.00
2024-05-19 09:45:56.329242,-2,-2,92,0,0,0,82,85,132,120,82,129.72,120,-32.00,34.00,-918.00
2024-05-19 09:45:56.432475,-1,-2,97,0,0,0,82,85,132,120,82,129.63,121,-66.00,45.00,-1045.00
2024-05-19 09:45:56.549043,-2,-2,102,0,0,0,82,85,132,120,82,129.59,121,-49.00,46.00,-1027.00
2024-05-19 09:45:56.635637,-2,-2,107,0,0,0,82,85,132,120,82,129.55,121,-23.00,50.00,-1031.00
2024-05-19 09:45:56.754043,-2,-2,112,0,0,0,82,85,131,120,82,129.56,121,-36.00,41.00,-974.00
2024-05-19 09:45:56.788276,-2,-2,118,0,0,0,82,85,131,120,82,129.54,121,-21.00,51.00,-932.00
2024-05-19 09:45:56.958594,-3,-1,123,0,0,0,82,84,132,120,82,129.56,121,-42.00,47.00,-991.00
2024-05-19 09:45:56.992208,-2,-2,129,0,0,0,82,84,131,120,82,129.57,121,-53.00,38.00,-971.00
2024-05-19 09:45:57.163388,-2,-2,135,0,0,0,82,84,132,120,81,129.59,121,-26.00,47.00,-920.00
2024-05-19 09:45:57.196237,-2,-2,141,0,0,0,82,84,132,120,81,129.57,121,-46.00,62.00,-1020.00
2024-05-19 09:45:57.368478,-1,-3,146,0,0,0,82,84,132,120,81,129.52,121,-21.00,68.00,-992.00
2024-05-19 09:45:57.400232,-1,-3,152,0,0,0,82,84,132,120,81,129.50,122,-20.00,84.00,-1052.00
2024-05-19 09:45:57.573013,-1,-4,158,0,0,0,82,84,132,120,81,129.65,122,-18.00,73.00,-1005.00
2024-05-19 09:45:57.604340,0,-3,163,0,0,0,82,84,132,120,81,129.57,122,-16.00,68.00,-966.00
2024-05-19 09:45:57.777848,0,-3,169,0,0,0,82,84,132,120,81,129.68,122,-27.00,75.00,-1049.00
2024-05-19 09:45:57.809784,0,-3,175,0,0,0,82,84,133,120,81,129.65,122,-16.00,69.00,-934.00
2024-05-19 09:45:57.910214,0,-3,-178,0,0,0,83,85,133,120,81,129.61,122,-11.00,80.00,-1005.00
2024-05-19 09:45:58.085030,0,-3,-172,0,0,0,83,85,133,120,81,129.56,122,0.00,82.00,-1004.00
2024-05-19 09:45:58.114492,0,-3,-166,0,0,0,83,85,134,120,81,129.65,122,16.00,69.00,-949.00
2024-05-19 09:45:58.289846,0,-3,-161,0,0,0,83,85,135,120,81,129.62,122,-1.00,80.00,-951.00
2024-05-19 09:45:58.318360,0,-4,-154,0,0,0,83,85,135,120,81,129.66,122,9.00,84.00,-1016.00
2024-05-19 09:45:58.494886,0,-4,-148,0,0,0,83,85,136,120,81,129.65,123,19.00,81.00,-990.00
2024-05-19 09:45:58.523176,1,-4,-142,0,0,0,83,85,136,120,81,129.57,123,31.00,90.00,-1028.00
2024-05-19 09:45:58.699411,1,-4,-136,0,0,0,83,85,136,120,81,129.64,123,41.00,100.00,-1002.00
2024-05-19 09:45:58.727433,1,-3,-130,0,0,0,83,85,137,120,81,129.62,123,51.00,83.00,-1013.00
2024-05-19 09:45:58.904207,2,-4,-124,0,0,0,83,85,137,120,81,129.56,123,46.00,75.00,-1028.00
2024-05-19 09:45:58.931032,3,-3,-118,0,0,0,82,84,137,120,81,129.59,123,68.00,66.00,-960.00
2024-05-19 09:45:59.108945,3,-3,-112,0,0,0,82,84,137,120,81,129.56,123,76.00,53.00,-979.00
2024-05-19 09:45:59.135123,4,-2,-106,0,0,0,82,84,137,120,81,129.53,123,93.00,40.00,-969.00
2024-05-19 09:45:59.313701,5,-2,-100,0,0,0,82,84,137,120,81,129.41,123,102.00,28.00,-975.00
2024-05-19 09:45:59.339116,5,-1,-93,0,0,0,82,84,137,120,81,129.35,123,103.00,9.00,-1043.00
2024-05-19 09:45:59.518603,6,0,-87,0,0,0,82,84,137,120,81,129.32,124,99.00,-3.00,-994.00
2024-05-19 09:45:59.543699,5,1,-81,0,0,0,82,84,137,120,81,129.33,124,101.00,-20.00,-938.00
2024-05-19 09:45:59.723394,5,2,-75,0,0,0,82,84,137,120,81,129.35,124,92.00,-13.00,-1021.00
2024-05-19 09:45:59.748466,4,2,-70,0,0,0,82,84,137,120,81,129.39,124,73.00,-36.00,-984.00
2024-05-19 09:45:59.928135,4,3,-64,0,0,0,82,84,137,120,81,129.36,124,73.00,-23.00,-994.00
2024-05-19 09:45:59.952686,3,3,-58,0,0,0,82,84,137,120,81,129.35,124,91.00,-30.00,-985.00
2024-05-19 09:46:00.053165,3,2,-52,0,0,0,82,84,137,120,81,129.38,124,49.00,-32.00,-992.00
2024-05-19 09:46:00.235385,2,3,-46,0,0,0,82,84,136,120,81,129.35,124,61.00,-32.00,-1019.00
2024-05-19 09:46:00.257160,2,3,-40,0,0,0,82,84,136,120,81,129.41,124,67.00,-50.00,-961.00
2024-05-19 09:46:00.359107,1,3,-34,0,0,0,82,84,136,120,81,129.41,124,37.00,-59.00,-1009.00
2024-05-19 09:46:00.410213,1,3,-28,0,0,0,82,84,136,120,81,129.46,125,72.00,-63.00,-947.00
2024-05-19 09:46:00.542572,1,3,-23,0,0,0,82,84,136,120,81,129.54,125,68.00,-58.00,-964.00
2024-05-19 09:46:00.614045,2,4,-19,0,0,0,82,84,137,120,81,129.52,125,36.00,-60.00,-1071.00
2024-05-19 09:46:00.747371,2,4,-16,0,0,0,82,84,136,120,81,129.46,125,36.00,-86.00,-962.00
2024-05-19 09:46:00.818207,1,5,-13,0,0,0,82,84,136,120,81,129.53,125,1.00,-73.00,-1020.00
2024-05-19 09:46:00.952187,1,5,-11,0,0,0,82,85,135,120,81,129.47,125,15.00,-97.00,-956.00
2024-05-19 09:46:01.022153,1,5,-10,0,0,0,82,85,135,120,81,129.50,125,11.00,-99.00,-1007.00
2024-05-19 09:46:01.156984,0,5,-8,0,0,0,82,85,135,120,81,129.48,125,-2.00,-92.00,-992.00
2024-05-19 09:46:01.226225,0,6,-7,0,0,0,82,85,135,120,81,129.47,125,12.00,-102.00,-989.00
2024-05-19 09:46:01.328256,0,6,-7,0,0,0,82,85,135,120,81,129.53,125,-2.00,-87.00,-1005.00
2024-05-19 09:46:01.464365,0,6,-6,0,0,0,82,85,135,120,81,129.49,126,-15.00,-102.00,-991.00
2024-05-19 09:46:01.532129,0,6,-6,0,0,0,82,85,135,120,81,129.42,126,-10.00,-85.00,-1023.00
2024-05-19 09:46:01.669062,0,6,-6,0,0,0,82,85,134,120,81,129.46,126,46.00,-91.00,-1015.00
2024-05-19 09:46:01.736224,0,5,-7,0,0,0,82,85,134,120,81,129.53,126,26.00,-110.00,-1012.00
2024-05-19 09:46:01.873887,0,6,-6,0,0,0,82,85,134,120,81,129.55,126,23.00,-120.00,-1022.00
2024-05-19 09:46:01.940024,1,7,-6,0,0,0,82,85,134,120,81,129.51,126,3.00,-114.00,-979.00
2024-05-19 09:46:02.078557,1,7,-6,0,0,0,82,85,134,120,81,129.47,126,-3.00,-124.00,-993.00
2024-05-19 09:46:02.144183,1,7,-6,0,0,0,82,85,134,120,81,129.41,126,41.00,-132.00,-953.00
2024-05-19 09:46:02.283461,1,7,-6,0,0,0,82,85,133,120,81,129.40,126,40.00,-120.00,-987.00
2024-05-19 09:46:02.349621,1,7,-6,0,0,0,82,85,134,120,81,129.40,127,-9.00,-110.00,-1074.00
2024-05-19 09:46:02.451010,0,7,-6,0,0,0,82,85,133,120,81,129.49,127,44.00,-116.00,-942.00
2024-05-19 09:46:02.590741,1,7,-6,0,0,0,82,85,134,120,81,129.45,127,37.00,-111.00,-1030.00
2024-05-19 09:46:02.659740,1,7,-6,0,0,0,82,85,134,120,81,129.42,127,38.00,-113.00,-1013.00
2024-05-19 09:46:02.757641,2,7,-6,0,0,0,82,85,134,120,81,129.44,127,43.00,-119.00,-886.00
2024-05-19 09:46:02.858272,2,7,-6,0,0,0,82,85,134,120,81,129.47,127,16.00,-132.00,-1023.00
2024-05-19 09:46:02.959995,2,7,-6,0,0,0,83,85,133,120,81,129.45,127,6.00,-148.00,-970.00
2024-05-19 09:46:03.064719,0,8,-6,0,0,0,83,85,134,120,81,129.50,127,14.00,-139.00,-994.00
2024-05-19 09:46:03.163969,1,8,-7,0,0,0,83,85,133,120,81,129.38,127,45.00,-115.00,-1052.00
2024-05-19 09:46:03.265863,2,8,-6,0,0,0,83,85,134,120,81,129.34,127,58.00,-112.00,-980.00
2024-05-19 09:46:03.367892,4,7,-11,0,0,0,83,85,134,120,81,129.46,128,0.00,-133.00,-1028.00
2024-05-19 09:46:03.512117,2,8,-16,0,0,0,83,85,135,120,81,129.36,128,37.00,-118.00,-998.00
2024-05-19 09:46:03.571959,2,7,-23,0,0,0,83,85,134,120,81,129.37,128,90.00,-121.00,-969.00
2024-05-19 09:46:03.716873,4,6,-29,0,0,0,83,85,134,120,81,129.31,128,111.00,-95.00,-1022.00
2024-05-19 09:46:03.775848,6,4,-35,1,0,0,83,85,135,120,81,129.29,128,109.00,-113.00,-965.00
2024-05-19 09:46:03.921665,7,4,-42,0,0,0,83,85,136,120,81,129.28,128,142.00,-92.00,-963.00
2024-05-19 09:46:03.979913,8,3,-48,0,0,0,84,85,137,120,81,129.23,128,131.00,-96.00,-911.00
2024-05-19 09:46:04.126432,8,2,-54,0,0,0,84,85,139,120,81,129.21,128,143.00,-90.00,-991.00
2024-05-19 09:46:04.132800,8,2,-61,0,0,0,84,85,139,120,81,129.18,128,149.00,-44.00,-964.00
2024-05-19 09:46:04.331284,8,1,-67,0,0,0,84,85,140,130,81,129.06,128,137.00,-55.00,-947.00
2024-05-19 09:46:04.336757,8,1,-73,0,0,0,84,85,142,130,81,129.06,129,165.00,-31.00,-993.00
2024-05-19 09:46:04.438792,8,0,-79,0,0,0,84,85,141,130,81,128.88,129,156.00,7.00,-930.00
2024-05-19 09:46:04.638481,8,-1,-86,0,0,0,84,85,142,130,81,128.72,129,147.00,-1.00,-983.00
2024-05-19 09:46:04.642844,8,0,-92,0,0,0,84,85,143,130,81,128.73,129,182.00,24.00,-955.00
2024-05-19 09:46:04.843261,7,-1,-97,0,0,0,84,85,143,130,81,128.82,129,155.00,82.00,-983.00
2024-05-19 09:46:04.846756,8,-3,-103,0,-1,0,84,85,143,130,81,128.94,129,161.00,64.00,-941.00
2024-05-19 09:46:04.949392,8,-4,-109,0,-1,0,83,86,143,130,81,128.96,129,159.00,82.00,-920.00
2024-05-19 09:46:05.050774,7,-5,-114,0,-2,0,83,86,143,130,81,129.04,129,166.00,79.00,-954.00
2024-05-19 09:46:05.152970,7,-5,-120,0,-2,0,83,86,141,130,80,129.19,129,129.00,120.00,-976.00
2024-05-19 09:46:05.254743,6,-6,-126,0,-2,0,83,86,141,130,80,129.24,129,139.00,115.00,-978.00
2024-05-19 09:46:05.356715,6,-6,-131,0,-2,0,83,86,141,130,80,129.32,130,143.00,112.00,-1010.00
2024-05-19 09:46:05.560061,5,-7,-137,0,-2,0,83,86,139,120,80,129.42,130,113.00,110.00,-948.00
2024-05-19 09:46:05.560654,5,-6,-142,0,-2,0,83,86,139,120,80,129.27,130,134.00,102.00,-1016.00
2024-05-19 09:46:05.662843,4,-7,-147,0,-2,0,83,86,139,120,80,129.27,130,98.00,92.00,-1005.00
2024-05-19 09:46:05.765057,4,-7,-153,-1,-2,0,83,86,139,120,80,129.06,130,93.00,144.00,-1011.00
2024-05-19 09:46:05.867423,4,-7,-159,-1,-2,0,83,86,140,120,80,129.31,130,41.00,169.00,-982.00
2024-05-19 09:46:05.969632,3,-8,-165,0,-2,0,82,85,139,120,80,129.44,130,80.00,126.00,-932.00
2024-05-19 09:46:06.072043,2,-8,-170,0,-2,0,82,85,139,120,80,129.34,130,41.00,121.00,-1008.00
2024-05-19 09:46:06.174440,0,-8,-176,0,-2,0,82,85,139,120,80,129.33,130,50.00,144.00,-982.00
2024-05-19 09:46:06.274842,0,-8,177,-1,-1,0,82,85,138,130,80,129.24,130,7.00,160.00,-980.00
2024-05-19 09:46:06.376780,1,-7,171,-1,-1,0,82,85,138,130,80,129.24,131,-27.00,197.00,-980.00
2024-05-19 09:46:06.483883,0,-8,165,0,-2,0,82,85,137,120,80,129.26,131,-35.00,166.00,-983.00
2024-05-19 09:46:06.580917,-1,-8,159,0,-2,0,82,85,137,120,80,129.29,131,-81.00,164.00,-987.00
2024-05-19 09:46:06.686463,-2,-7,152,0,-2,0,82,85,136,120,80,129.16,131,-92.00,159.00,-998.00
2024-05-19 09:46:06.784825,-4,-7,146,0,-3,0,82,85,135,120,80,129.11,131,-115.00,127.00,-1003.00
2024-05-19 09:46:06.891276,-5,-7,139,0,-3,0,82,85,134,120,80,129.03,131,-110.00,120.00,-963.00
2024-05-19 09:46:06.988684,-6,-6,132,1,-3,0,83,86,134,120,80,128.84,131,-115.00,95.00,-932.00
2024-05-19 09:46:07.096107,-7,-5,126,1,-3,0,83,86,134,120,80,128.91,131,-152.00,95.00,-994.00
2024-05-19 09:46:07.192815,-7,-4,119,1,-3,0,83,86,134,120,80,128.79,131,-186.00,78.00,-982.00
2024-05-19 09:46:07.300849,-8,-3,113,1,-3,0,83,86,133,120,80,128.52,131,-156.00,59.00,-978.00
2024-05-19 09:46:07.396632,-8,-2,106,2,-3,0,83,86,133,120,80,128.79,132,-204.00,17.00,-980.00
2024-05-19 09:46:07.505795,-9,-2,101,2,-3,0,83,86,133,120,80,128.93,132,-134.00,-40.00,-973.00
2024-05-19 09:46:07.600538,-9,0,95,3,-3,0,83,86,132,120,80,128.91,132,-129.00,3.00,-1023.00
2024-05-19 09:46:07.710450,-8,2,89,3,-2,0,83,86,131,120,80,128.67,132,-101.00,15.00,-1032.00
2024-05-19 09:46:07.804594,-7,4,83,2,-2,0,83,86,130,120,80,128.47,132,-128.00,18.00,-987.00
2024-05-19 09:46:07.855527,-6,5,77,1,-2,0,83,86,130,120,80,128.47,132,-164.00,42.00,-953.00
2024-05-19 09:46:08.017662,-6,5,70,0,-2,0,83,86,130,120,80,128.40,132,-204.00,40.00,-1031.00
2024-05-19 09:46:08.110585,-6,4,64,0,-2,0,83,86,129,120,80,128.50,132,-194.00,7.00,-1054.00
2024-05-19 09:46:08.222412,-7,4,58,-1,-2,0,83,86,128,120,80,128.69,132,-151.00,-48.00,-973.00
2024-05-19 09:46:08.314659,-7,4,53,-1,-3,0,83,86,128,120,80,128.86,132,-115.00,-75.00,-941.00
2024-05-19 09:46:08.365524,-7,4,47,-1,-3,0,83,86,128,120,80,128.87,133,-127.00,-96.00,-1008.00
2024-05-19 09:46:08.467593,-6,6,42,0,-3,0,83,86,127,120,80,128.87,133,-121.00,-93.00,-975.00
2024-05-19 09:46:08.632082,-6,7,37,0,-2,0,83,86,126,120,80,128.95,133,-97.00,-87.00,-942.00
2024-05-19 09:46:08.671732,-4,7,31,0,-2,0,83,86,126,120,80,128.81,133,-46.00,-126.00,-976.00
2024-05-19 09:46:08.836878,-3,7,26,0,-2,0,83,86,126,120,80,128.92,133,-47.00,-139.00,-1032.00
2024-05-19 09:46:08.875654,-2,7,20,0,-2,0,83,86,126,120,80,128.97,133,-59.00,-147.00,-1020.00
2024-05-19 09:46:09.041692,-2,8,14,0,-2,0,83,85,125,120,80,129.00,133,18.00,-183.00,-963.00
2024-05-19 09:46:09.079624,-1,8,9,0,-2,0,83,85,127,120,80,129.15,133,11.00,-182.00,-958.00
2024-05-19 09:46:09.250582,0,8,5,1,-3,0,83,85,127,120,80,129.15,133,46.00,-173.00,-932.00
2024-05-19 09:46:09.283674,0,9,2,1,-3,0,83,85,128,120,80,129.11,133,28.00,-175.00,-974.00
2024-05-19 09:46:09.385638,1,8,0,1,-3,0,83,85,128,120,80,129.05,134,-15.00,-169.00,-987.00
2024-05-19 09:46:09.553596,2,9,-1,0,-3,0,83,85,128,120,80,129.22,134,-50.00,-135.00,-998.00
2024-05-19 09:46:09.589559,1,8,-2,0,-3,0,83,85,129,120,80,129.42,134,-14.00,-156.00,-944.00
2024-05-19 09:46:09.758459,0,9,-3,0,-3,0,83,85,129,120,80,129.49,134,63.00,-169.00,-958.00
2024-05-19 09:46:09.793464,0,9,-4,0,-3,0,83,85,130,120,80,129.23,134,113.00,-135.00,-986.00
2024-05-19 09:46:09.963760,1,10,-4,1,-3,0,83,85,131,120,80,129.11,134,98.00,-106.00,-1083.00
2024-05-19 09:46:09.997671,3,10,-5,1,-2,-1,83,85,133,120,80,129.03,134,69.00,-131.00,-970.00
2024-05-19 09:46:10.172875,3,10,-5,1,-1,0,83,85,134,120,80,129.01,134,24.00,-125.00,-1013.00
2024-05-19 09:46:10.201773,4,10,-5,1,-1,0,83,85,135,120,80,128.86,134,75.00,-154.00,-945.00
2024-05-19 09:46:10.373186,3,10,-5,1,-1,0,83,85,136,120,80,128.96,134,82.00,-162.00,-929.00
2024-05-19 09:46:10.405917,4,11,-5,1,-1,0,83,85,136,120,80,129.07,135,56.00,-179.00,-944.00
2024-05-19 09:46:10.577826,4,12,-5,1,-1,0,83,85,138,120,80,129.11,135,51.00,-164.00,-961.00
2024-05-19 09:46:10.609687,5,12,-5,1,0,0,83,85,138,120,80,128.91,135,55.00,-169.00,-1026.00
2024-05-19 09:46:10.782693,5,13,-5,0,0,0,83,85,138,120,80,128.79,135,48.00,-163.00,-933.00
2024-05-19 09:46:10.813602,5,13,-5,0,0,0,83,85,138,120,80,129.03,135,66.00,-171.00,-1000.00
2024-05-19 09:46:10.987374,5,14,-5,0,0,0,83,85,139,120,80,128.80,135,80.00,-164.00,-991.00
2024-05-19 09:46:11.017675,5,13,-4,0,1,0,82,85,139,120,80,128.56,135,74.00,-184.00,-1008.00
2024-05-19 09:46:11.192186,5,14,-5,0,2,0,82,85,141,120,80,128.69,135,77.00,-214.00,-892.00
2024-05-19 09:46:11.221613,6,16,-5,0,2,0,82,85,142,120,80,128.71,135,76.00,-208.00,-937.00
2024-05-19 09:46:11.397311,7,16,-4,0,3,0,82,85,142,120,80,128.91,135,57.00,-213.00,-1050.00
2024-05-19 09:46:11.431247,6,17,-4,0,4,0,82,85,143,120,80,129.10,136,120.00,-178.00,-835.00
2024-05-19 09:46:11.528643,6,17,-5,0,5,1,82,85,142,120,80,129.02,136,111.00,-190.00,-935.00
2024-05-19 09:46:11.706723,6,17,-5,-1,6,0,82,85,141,120,80,128.80,136,87.00,-187.00,-1028.00
2024-05-19 09:46:11.732522,7,16,-4,-1,7,0,82,85,140,120,80,128.47,136,105.00,-220.00,-1066.00
2024-05-19 09:46:11.908952,8,18,-4,-1,8,0,82,85,142,120,80,128.69,136,76.00,-210.00,-917.00
2024-05-19 09:46:11.909111,8,15,-4,-2,9,0,82,85,139,120,80,128.63,136,63.00,-222.00,-945.00
2024-05-19 09:46:12.038525,5,12,-5,-2,9,0,84,86,135,120,80,128.72,136,58.00,-211.00,-929.00
2024-05-19 09:46:12.089632,4,10,-5,-2,9,0,84,86,134,120,80,128.73,136,100.00,-212.00,-1068.00
2024-05-19 09:46:12.219748,3,7,-5,-2,9,0,84,86,132,120,80,128.51,136,74.00,-172.00,-1052.00
2024-05-19 09:46:12.293653,2,6,-5,-2,8,0,84,86,133,120,80,128.17,136,91.00,-190.00,-1022.00
2024-05-19 09:46:12.395833,2,6,-5,-2,8,-1,84,86,133,120,80,128.37,137,29.00,-177.00,-1101.00
2024-05-19 09:46:12.523400,2,6,-5,-2,7,0,84,86,133,120,80,128.38,137,71.00,-175.00,-982.00
2024-05-19 09:46:12.599772,1,7,-5,-2,6,0,84,86,134,120,80,128.53,137,48.00,-195.00,-930.00
2024-05-19 09:46:12.728996,2,7,-5,-1,5,0,84,86,134,120,80,128.48,137,72.00,-180.00,-989.00
2024-05-19 09:46:12.803785,2,8,-5,-1,4,0,84,86,133,120,80,128.62,137,84.00,-184.00,-925.00
2024-05-19 09:46:12.933030,2,8,-5,-1,4,0,84,86,133,120,80,128.60,137,62.00,-207.00,-932.00
2024-05-19 09:46:13.007648,2,8,-5,-1,3,0,84,86,133,120,80,128.72,137,53.00,-163.00,-1030.00
2024-05-19 09:46:13.137638,3,9,-5,-1,3,0,84,86,134,120,80,128.85,137,85.00,-181.00,-1042.00
2024-05-19 09:46:13.213869,3,9,-5,-1,3,0,84,86,134,120,80,128.76,137,83.00,-184.00,-1031.00
2024-05-19 09:46:13.314405,2,9,-5,-1,3,0,84,86,135,120,80,128.56,137,65.00,-190.00,-1001.00
2024-05-19 09:46:13.417008,2,9,-5,-1,2,0,84,86,136,120,80,128.54,138,57.00,-189.00,-996.00
2024-05-19 09:46:13.517643,2,10,-5,-1,2,0,84,86,137,120,80,128.71,138,83.00,-162.00,-991.00
2024-05-19 09:46:13.649879,2,10,-5,0,2,0,84,86,138,120,80,128.90,138,83.00,-171.00,-965.00
2024-05-19 09:46:13.721467,2,9,-5,0,2,0,84,86,138,120,80,128.84,138,48.00,-187.00,-973.00
2024-05-19 09:46:13.854565,3,9,-5,0,1,0,84,86,137,120,80,128.76,138,59.00,-180.00,-1001.00
2024-05-19 09:46:13.930606,3,9,-5,0,1,0,84,86,138,120,80,128.87,138,79.00,-160.00,-960.00
2024-05-19 09:46:14.027472,3,10,-5,0,1,0,83,86,138,120,80,128.79,138,65.00,-187.00,-969.00
2024-05-19 09:46:14.161789,4,10,-5,0,1,0,83,86,140,120,79,128.86,138,27.00,-168.00,-1014.00
2024-05-19 09:46:14.231453,3,10,-5,0,1,0,83,86,140,120,79,128.90,138,11.00,-180.00,-1002.00
2024-05-19 09:46:14.366647,2,11,-5,0,0,0,83,86,141,120,79,128.99,138,28.00,-184.00,-917.00
2024-05-19 09:46:14.435366,1,11,-5,-1,0,0,83,86,142,120,79,128.92,139,88.00,-176.00,-924.00
2024-05-19 09:46:14.571297,0,11,-5,0,1,0,83,86,142,120,79,128.85,139,48.00,-172.00,-933.00
2024-05-19 09:46:14.639623,2,10,-5,0,1,0,83,86,142,120,79,128.70,139,69.00,-179.00,-995.00
2024-05-19 09:46:14.778850,2,10,-5,0,1,0,83,86,144,120,79,128.90,139,27.00,-181.00,-972.00
2024-05-19 09:46:14.843803,2,10,-5,0,0,0,83,86,145,120,79,128.78,139,40.00,-179.00,-1015.00
2024-05-19 09:46:14.980984,1,10,-5,0,0,0,83,86,145,130,79,128.84,139,28.00,-180.00,-933.00
2024-05-19 09:46:15.047388,1,10,-5,0,0,0,83,86,146,130,79,128.84,139,60.00,-208.00,-887.00
2024-05-19 09:46:15.185884,1,10,-5,0,0,0,83,86,146,130,79,128.76,139,85.00,-174.00,-942.00
2024-05-19 09:46:15.251716,2,10,-5,0,0,0,83,86,146,130,79,128.81,139,74.00,-186.00,-957.00
2024-05-19 09:46:15.390826,3,10,-5,0,0,0,83,86,147,130,79,128.86,139,27.00,-167.00,-953.00
2024-05-19 09:46:15.455708,3,10,-5,0,0,0,83,86,147,130,79,128.79,140,34.00,-178.00,-969.00
2024-05-19 09:46:15.595373,3,10,-5,0,0,0,83,86,148,130,79,128.84,140,26.00,-187.00,-995.00
2024-05-19 09:46:15.659397,2,10,-5,0,0,0,83,86,147,130,79,128.85,140,18.00,-167.00,-1036.00
2024-05-19 09:46:15.800075,2,10,-5,0,0,0,83,86,148,130,79,128.92,140,67.00,-157.00,-957.00
2024-05-19 09:46:15.867871,2,10,-5,0,0,0,83,86,148,130,79,128.89,140,23.00,-174.00,-933.00
2024-05-19 09:46:15.914280,2,10,-5,0,0,0,83,86,148,130,79,128.79,140,43.00,-179.00,-947.00
2024-05-19 09:46:16.107307,1,9,-5,0,0,0,83,87,148,130,79,128.92,140,40.00,-181.00,-982.00
2024-05-19 09:46:16.118213,1,9,-5,0,0,0,83,87,148,130,79,128.89,140,29.00,-175.00,-986.00
2024-05-19 09:46:16.312016,1,10,-5,0,0,0,83,87,148,130,79,128.89,140,17.00,-172.00,-933.00
2024-05-19 09:46:16.322366,1,10,-5,0,0,0,83,87,147,130,79,128.87,140,20.00,-192.00,-950.00
2024-05-19 09:46:16.425191,1,10,-5,0,0,0,83,87,147,130,79,128.90,141,22.00,-177.00,-1010.00
2024-05-19 09:46:16.619315,1,10,-5,0,0,0,83,87,146,130,79,128.77,141,48.00,-174.00,-1007.00
2024-05-19 09:46:16.629254,1,10,-5,0,0,0,83,87,147,130,79,128.80,141,52.00,-173.00,-947.00
2024-05-19 09:46:16.823992,1,10,-5,0,0,0,83,87,147,130,79,128.79,141,28.00,-179.00,-1010.00
2024-05-19 09:46:16.834780,2,10,-5,0,0,0,83,87,145,130,79,128.87,141,48.00,-185.00,-957.00
2024-05-19 09:46:17.028914,2,10,-5,0,0,0,83,87,145,130,79,128.81,141,29.00,-174.00,-1016.00
2024-05-19 09:46:17.037722,1,10,-5,0,0,0,83,86,144,130,79,128.84,141,35.00,-188.00,-981.00
2024-05-19 09:46:17.233718,1,10,-5,0,0,0,83,86,145,130,79,128.77,141,22.00,-175.00,-976.00
2024-05-19 09:46:17.241321,1,11,-5,0,0,0,83,86,145,130,79,128.71,141,54.00,-172.00,-959.00
2024-05-19 09:46:17.438742,2,11,-5,0,0,0,83,86,143,130,79,128.73,142,23.00,-162.00,-984.00
2024-05-19 09:46:17.445337,2,10,-5,0,0,0,83,86,142,130,79,128.77,142,54.00,-175.00,-964.00
2024-05-19 09:46:17.643494,2,10,-5,0,0,0,83,86,143,130,79,128.72,142,17.00,-159.00,-1010.00
2024-05-19 09:46:17.649263,2,10,-5,0,0,0,83,86,141,130,79,128.79,142,6.00,-157.00,-1030.00
2024-05-19 09:46:17.852671,1,9,-5,0,0,0,83,86,141,130,79,128.76,142,48.00,-177.00,-1009.00
2024-05-19 09:46:17.853257,1,10,-5,0,0,0,83,86,141,120,79,128.76,142,27.00,-168.00,-1005.00
2024-05-19 09:46:18.000640,1,10,-5,0,0,0,83,86,142,120,79,128.79,142,39.00,-184.00,-977.00
2024-05-19 09:46:18.057336,1,10,-5,0,0,0,84,86,141,120,79,128.81,142,27.00,-173.00,-947.00
2024-05-19 09:46:18.257681,2,10,-5,0,0,0,84,86,142,120,78,128.80,142,18.00,-166.00,-990.00
2024-05-19 09:46:18.261156,2,10,-5,0,0,0,84,86,141,120,78,128.86,142,17.00,-166.00,-1021.00
2024-05-19 09:46:18.363574,1,9,-5,0,0,0,84,86,141,120,78,128.82,143,22.00,-163.00,-948.00
