TS,pitch,roll,yaw,vgx,vgy,vgz,templ,temph,tof,h,bat,baro,time,agx,agy,agz
2024-05-19 09:46:52.970899,0,0,-5,0,0,0,84,87,10,0,77,128.23,153,0.00,9.00,-1002.00
2024-05-19 09:46:53.044488,0,0,-5,0,0,0,84,87,10,0,77,128.23,153,-1.00,11.00,-999.00
2024-05-19 09:46:53.175744,0,0,-5,0,0,0,84,87,10,0,77,128.19,153,-1.00,12.00,-1000.00
2024-05-19 09:46:53.248591,0,0,-5,0,0,0,84,87,10,0,77,128.25,153,-2.00,8.00,-999.00
2024-05-19 09:46:53.380439,0,0,-5,0,0,0,84,87,10,0,77,128.21,153,-2.00,10.00,-999.00
2024-05-19 09:46:53.452294,0,0,-5,0,0,0,84,87,10,0,77,128.20,153,-1.00,10.00,-1001.00
2024-05-19 09:46:53.585125,0,0,-5,0,0,0,84,87,10,0,77,128.23,153,-1.00,10.00,-999.00
2024-05-19 09:46:53.656224,0,0,-5,0,0,0,84,87,10,0,77,128.20,153,-2.00,9.00,-999.00
2024-05-19 09:46:53.790039,0,0,-5,0,0,0,84,87,10,0,77,128.17,153,-2.00,11.00,-1000.00
2024-05-19 09:46:53.860206,0,0,-5,0,0,0,84,87,10,0,77,128.22,153,-2.00,11.00,-998.00
2024-05-19 09:46:53.994753,0,0,-5,0,0,0,84,87,10,0,77,128.16,153,-2.00,12.00,-1000.00
2024-05-19 09:46:54.013314,0,0,-5,0,0,0,84,87,10,0,77,128.18,153,-1.00,10.00,-1000.00
2024-05-19 09:46:54.199852,0,0,-5,0,0,0,84,87,10,0,77,128.15,153,-2.00,10.00,-999.00
2024-05-19 09:46:54.268432,0,0,-5,0,0,0,85,87,10,0,77,128.25,153,-1.00,11.00,-998.00
2024-05-19 09:46:54.319307,0,0,-5,0,0,0,85,87,10,0,77,128.23,153,-3.00,10.00,-999.00
2024-05-19 09:46:54.507406,0,0,-5,0,0,0,85,87,10,0,77,128.19,153,0.00,11.00,-999.00
2024-05-19 09:46:54.523177,0,0,-5,0,0,0,85,87,10,0,77,128.19,153,-1.00,9.00,-997.00
2024-05-19 09:46:54.711806,0,0,-5,0,0,0,85,87,10,0,77,128.19,153,0.00,11.00,-1002.00
2024-05-19 09:46:54.727157,0,0,-5,0,0,0,85,87,10,0,77,128.10,153,-1.00,10.00,-1000.00
2024-05-19 09:46:54.916321,0,0,-5,0,0,0,85,87,10,0,77,128.17,153,-1.00,14.00,-1000.00
2024-05-19 09:46:54.931295,0,0,-5,0,0,0,85,87,10,0,77,128.15,153,-2.00,11.00,-999.00
2024-05-19 09:46:55.121297,0,0,-5,0,0,0,85,87,10,0,77,128.18,153,0.00,10.00,-999.00
2024-05-19 09:46:55.135506,0,0,-5,0,0,0,85,87,10,0,77,128.20,153,-1.00,10.00,-999.00
2024-05-19 09:46:55.326199,0,0,-5,0,0,0,85,88,10,0,77,128.18,153,-1.00,9.00,-997.00
2024-05-19 09:46:55.339471,0,0,-5,0,0,0,85,88,10,0,77,128.19,153,-2.00,10.00,-998.00
2024-05-19 09:46:55.530900,0,0,-5,0,0,0,85,88,10,0,77,128.19,153,-1.00,12.00,-998.00
2024-05-19 09:46:55.543318,0,0,-5,0,0,0,85,88,10,0,77,128.14,153,-3.00,11.00,-1001.00
2024-05-19 09:46:55.735769,0,0,-5,0,0,0,85,88,10,0,77,128.16,153,0.00,12.00,-1002.00
2024-05-19 09:46:55.747338,0,0,-5,0,0,0,85,88,10,0,77,128.13,153,-1.00,12.00,-1003.00
2024-05-19 09:46:55.906577,0,0,-5,0,0,0,85,88,10,0,77,128.18,153,-2.00,9.00,-1000.00
2024-05-19 09:46:55.951203,0,0,-5,0,0,0,85,88,10,0,77,128.25,153,-2.00,11.00,-999.00
2024-05-19 09:46:56.145212,0,0,-5,0,0,0,85,88,10,0,77,128.21,153,-10.00,5.00,-1009.00
2024-05-19 09:46:56.155241,0,0,-5,0,0,0,85,88,10,0,77,128.21,153,8.00,14.00,-1003.00
2024-05-19 09:46:56.349941,0,0,-5,0,0,0,86,87,10,0,77,128.21,153,-3.00,15.00,-1003.00
2024-05-19 09:46:56.359190,0,0,-5,0,0,0,86,87,10,0,77,128.21,153,0.00,6.00,-1007.00
2024-05-19 09:46:56.461087,0,0,-4,0,0,0,86,87,10,0,77,128.21,153,-14.00,38.00,-983.00
2024-05-19 09:46:56.657048,0,0,-4,0,0,0,86,87,10,0,77,128.21,153,-28.00,23.00,-1117.00
2024-05-19 09:46:56.665206,0,0,-4,0,0,-1,86,87,10,0,77,128.21,153,-15.00,17.00,-1209.00
2024-05-19 09:46:56.861846,0,0,-4,0,0,-4,86,87,10,0,77,128.21,153,-36.00,0.00,-1284.00
2024-05-19 09:46:56.869472,-1,-1,-4,0,0,-6,86,87,14,0,77,128.29,154,-35.00,5.00,-1109.00
2024-05-19 09:46:57.070004,-1,-1,-4,0,0,-6,86,87,22,0,77,128.42,154,-47.00,7.00,-1201.00
2024-05-19 09:46:57.073129,0,0,-4,0,0,-7,86,87,32,0,77,128.60,154,-38.00,3.00,-1091.00
2024-05-19 09:46:57.271517,-1,0,-4,0,0,-6,86,87,40,0,77,128.74,154,-20.00,8.00,-986.00
2024-05-19 09:46:57.277164,-1,0,-4,0,0,-6,85,88,48,10,77,128.82,154,-27.00,0.00,-956.00
2024-05-19 09:46:57.476532,-1,0,-4,0,0,-4,85,88,56,10,77,128.91,154,16.00,4.00,-901.00
2024-05-19 09:46:57.476585,-2,0,-4,0,0,-3,85,88,64,10,77,129.04,154,-6.00,2.00,-895.00
2024-05-19 09:46:57.532154,-1,0,-4,0,0,-3,85,88,72,20,77,129.05,154,-13.00,9.00,-928.00
2024-05-19 09:46:57.683893,-1,0,-4,0,0,-2,85,88,78,20,77,129.11,154,-18.00,15.00,-893.00
2024-05-19 09:46:57.735995,-1,0,-4,0,0,-1,85,88,83,20,77,129.17,154,7.00,-2.00,-868.00
2024-05-19 09:46:57.885990,-1,0,-4,0,0,0,85,88,87,30,77,129.18,155,-5.00,-3.00,-885.00
2024-05-19 09:46:57.939953,-1,0,-4,0,0,0,85,88,91,30,77,129.25,155,-15.00,9.00,-963.00
2024-05-19 09:46:58.090812,-1,0,-4,0,0,0,85,88,94,30,77,129.30,155,-18.00,-6.00,-942.00
2024-05-19 09:46:58.143967,-1,0,-4,0,0,0,85,88,96,30,77,129.34,155,-15.00,-5.00,-960.00
2024-05-19 09:46:58.295592,-2,0,-4,0,0,0,86,88,99,30,77,129.29,155,-12.00,-4.00,-899.00
2024-05-19 09:46:58.347938,-2,0,-4,0,0,1,86,88,100,40,77,129.28,155,-29.00,-9.00,-955.00
2024-05-19 09:46:58.450206,-1,1,-4,0,0,1,86,88,101,40,77,129.32,155,-1.00,-4.00,-926.00
2024-05-19 09:46:58.602767,-1,1,-4,0,0,1,86,88,102,40,77,129.32,155,-17.00,-23.00,-985.00
2024-05-19 09:46:58.655171,-1,1,-4,0,0,1,86,88,102,40,77,129.31,155,-46.00,-29.00,-1007.00
2024-05-19 09:46:58.807574,-1,1,-4,0,0,1,86,88,102,40,77,129.32,155,-11.00,-18.00,-966.00
2024-05-19 09:46:58.859123,-1,1,-4,0,0,1,86,88,102,40,77,129.29,156,-30.00,-18.00,-951.00
2024-05-19 09:46:59.012396,-2,1,-4,0,0,1,86,88,101,40,77,129.32,156,-14.00,-23.00,-930.00
2024-05-19 09:46:59.062947,-2,1,-4,0,0,1,86,88,101,40,77,129.24,156,-42.00,-24.00,-943.00
2024-05-19 09:46:59.218384,-3,1,-4,0,0,1,86,88,100,40,77,129.20,156,-23.00,-11.00,-971.00
2024-05-19 09:46:59.270915,-2,1,-4,0,0,1,85,87,98,40,77,129.22,156,-47.00,0.00,-1006.00
2024-05-19 09:46:59.369248,-2,0,-4,0,0,1,85,87,98,40,77,129.22,156,-15.00,1.00,-945.00
2024-05-19 09:46:59.524908,-2,0,-4,0,0,1,85,87,97,40,77,129.28,156,-65.00,-7.00,-1065.00
2024-05-19 09:46:59.573607,-2,0,-4,0,0,1,85,87,96,40,77,129.15,156,-37.00,1.00,-1003.00
2024-05-19 09:46:59.729075,-2,0,-4,0,0,1,85,87,95,40,77,129.20,156,-17.00,-4.00,-973.00
2024-05-19 09:46:59.778345,-2,0,-4,0,0,1,85,87,93,40,77,129.17,156,-6.00,-18.00,-907.00
2024-05-19 09:46:59.933965,-2,0,-4,0,0,1,85,87,92,40,77,129.12,157,-34.00,-4.00,-930.00
2024-05-19 09:46:59.981125,-2,0,-4,0,0,1,85,87,90,30,77,129.11,157,-21.00,-4.00,-978.00
2024-05-19 09:47:00.138649,-2,0,-4,0,0,1,85,87,88,30,77,129.18,157,-21.00,4.00,-1029.00
2024-05-19 09:47:00.185112,-2,0,-4,0,0,1,85,87,85,30,77,129.12,157,-27.00,2.00,-1009.00
2024-05-19 09:47:00.343495,-2,0,-4,0,0,1,85,88,83,30,77,129.09,157,-19.00,-6.00,-984.00
2024-05-19 09:47:00.389070,-2,0,-4,0,0,1,85,88,81,30,77,129.03,157,-29.00,7.00,-1035.00
2024-05-19 09:47:00.491297,-2,0,-4,0,0,1,85,88,80,30,77,129.01,157,-16.00,3.00,-1029.00
2024-05-19 09:47:00.594305,-2,0,-4,0,0,1,85,88,78,30,77,129.06,157,-2.00,-2.00,-912.00
2024-05-19 09:47:00.695046,-2,0,-4,0,0,1,85,88,76,20,77,128.98,157,-44.00,-12.00,-993.00
2024-05-19 09:47:00.855562,-2,0,-4,0,0,0,85,88,75,20,77,128.95,157,-19.00,15.00,-1013.00
2024-05-19 09:47:00.898907,-2,0,-4,0,0,0,85,88,73,20,77,128.98,158,-56.00,7.00,-1101.00
2024-05-19 09:47:01.060209,-2,0,-4,0,0,0,85,88,72,20,77,128.95,158,-68.00,-2.00,-1079.00
2024-05-19 09:47:01.060285,-2,0,-4,0,0,0,85,88,71,20,77,128.85,158,-1.00,13.00,-1029.00
2024-05-19 09:47:01.153913,-2,0,-3,0,0,0,85,88,70,20,77,128.87,158,-41.00,12.00,-1050.00
2024-05-19 09:47:01.306928,-2,0,-3,0,0,0,86,87,69,20,77,128.91,158,-24.00,1.00,-1003.00
2024-05-19 09:47:01.470280,-2,0,-3,0,0,0,86,87,68,20,77,128.86,158,-49.00,12.00,-1037.00
2024-05-19 09:47:01.510932,-2,0,-3,0,0,0,86,87,67,20,77,128.96,158,-44.00,15.00,-1002.00
2024-05-19 09:47:01.561802,-2,0,-3,0,0,0,86,87,67,20,77,128.82,158,-42.00,22.00,-1035.00
2024-05-19 09:47:01.674750,-2,0,-3,0,0,0,86,87,67,20,77,128.97,158,-33.00,17.00,-1053.00
2024-05-19 09:47:01.766013,-2,0,-3,0,0,0,86,87,67,20,77,128.94,158,-21.00,16.00,-993.00
2024-05-19 09:47:01.879503,-2,-1,-3,0,0,0,86,87,67,20,77,128.99,159,-17.00,28.00,-1021.00
2024-05-19 09:47:01.976349,-2,-1,-3,0,0,0,86,87,67,20,77,128.99,159,-10.00,26.00,-1000.00
2024-05-19 09:47:02.071959,-2,-1,-3,0,0,0,86,87,67,20,77,129.02,159,-7.00,27.00,-1057.00
2024-05-19 09:47:02.190329,-1,-1,-3,0,0,0,86,87,67,20,77,128.95,159,-44.00,28.00,-1034.00
2024-05-19 09:47:02.275825,-1,-1,-3,0,0,0,85,87,67,20,77,128.96,159,-31.00,21.00,-1000.00
2024-05-19 09:47:02.391881,-1,-1,-3,0,0,0,85,87,68,20,77,128.95,159,-5.00,21.00,-1013.00
2024-05-19 09:47:02.480161,-1,-1,-4,0,0,0,85,87,68,20,77,129.00,159,-14.00,14.00,-975.00
2024-05-19 09:47:02.596353,-1,-2,-4,0,0,0,85,87,69,20,77,128.99,159,-11.00,6.00,-954.00
2024-05-19 09:47:02.685728,-1,-1,-4,0,0,0,85,87,69,20,77,129.03,159,0.00,41.00,-1023.00
2024-05-19 09:47:02.786150,-1,-1,-4,0,0,0,85,87,69,20,77,128.98,159,-9.00,34.00,-990.00
2024-05-19 09:47:02.904727,-1,-1,-4,0,0,0,85,87,69,20,77,128.95,160,-7.00,37.00,-1039.00
2024-05-19 09:47:02.989828,0,-2,-4,0,0,0,85,87,70,20,77,128.94,160,0.00,39.00,-1002.00
2024-05-19 09:47:03.108346,-1,-2,-4,0,0,0,85,87,69,20,77,128.95,160,-37.00,33.00,-1065.00
2024-05-19 09:47:03.193788,-1,-1,-4,0,0,0,85,87,69,20,77,129.01,160,-8.00,28.00,-921.00
2024-05-19 09:47:03.313155,0,-1,-4,0,0,0,85,87,69,20,77,129.02,160,-12.00,42.00,-979.00
2024-05-19 09:47:03.398391,0,-2,-3,0,0,0,85,87,68,20,77,128.96,160,-2.00,48.00,-1002.00
2024-05-19 09:47:03.524331,-1,-3,-3,0,0,0,85,87,68,20,77,129.05,160,-4.00,56.00,-998.00
2024-05-19 09:47:03.601929,0,-3,-3,0,0,0,85,87,67,20,77,128.98,160,-10.00,50.00,-1019.00
2024-05-19 09:47:03.723756,0,-2,-3,0,0,0,85,87,67,20,77,128.99,160,6.00,59.00,-979.00
2024-05-19 09:47:03.805858,0,-3,-3,0,0,0,85,87,68,20,77,129.05,160,5.00,48.00,-967.00
2024-05-19 09:47:03.927525,0,-3,-3,0,0,0,85,87,67,20,77,128.98,161,22.00,36.00,-975.00
2024-05-19 09:47:04.009832,0,-3,-3,0,0,0,85,87,66,10,77,128.93,161,-11.00,56.00,-1027.00
2024-05-19 09:47:04.132302,0,-3,-4,0,0,0,85,87,66,10,77,128.95,161,8.00,54.00,-1063.00
2024-05-19 09:47:04.213776,0,-3,-4,0,0,0,85,87,67,10,77,129.01,161,-1.00,38.00,-960.00
2024-05-19 09:47:04.337056,0,-3,-4,0,0,0,85,87,67,10,77,129.00,161,-4.00,53.00,-1017.00
2024-05-19 09:47:04.417879,0,-2,-4,0,0,0,85,87,67,10,77,128.93,161,0.00,40.00,-1023.00
2024-05-19 09:47:04.519762,0,-3,-4,0,0,0,85,87,68,10,77,128.93,161,16.00,29.00,-975.00
2024-05-19 09:47:04.621700,-1,-2,-4,0,0,0,85,87,68,10,77,128.95,161,-14.00,46.00,-975.00
2024-05-19 09:47:04.746866,-1,-2,-4,0,0,0,85,87,68,10,77,128.94,161,9.00,57.00,-1016.00
2024-05-19 09:47:04.826614,-1,-3,-4,0,0,0,85,87,67,10,77,128.96,161,-10.00,53.00,-955.00
2024-05-19 09:47:04.951765,-1,-3,-4,0,0,0,85,87,67,10,77,128.89,162,1.00,43.00,-936.00
2024-05-19 09:47:05.029819,-1,-3,-4,0,0,0,85,87,67,10,77,128.89,162,-14.00,64.00,-1081.00
2024-05-19 09:47:05.080821,-1,-3,-4,0,0,0,85,87,68,10,77,128.91,162,-6.00,62.00,-1035.00
2024-05-19 09:47:05.258808,-1,-3,-4,0,0,0,85,87,68,10,77,128.91,162,-10.00,61.00,-988.00
2024-05-19 09:47:05.335883,-1,-3,-4,0,0,0,85,87,68,10,77,128.90,162,-21.00,60.00,-1023.00
2024-05-19 09:47:05.463556,-1,-3,-4,0,0,0,85,87,68,10,77,129.04,162,-14.00,59.00,-980.00
2024-05-19 09:47:05.489054,-2,-3,-4,0,0,0,85,87,69,20,77,129.06,162,-24.00,61.00,-1035.00
2024-05-19 09:47:05.636627,-2,-3,-4,0,0,0,85,87,68,20,77,129.05,162,-2.00,64.00,-1037.00
2024-05-19 09:47:05.692788,-1,-3,-4,0,0,0,85,87,68,20,77,129.01,162,18.00,52.00,-926.00
2024-05-19 09:47:05.873395,-1,-3,-4,0,0,0,85,87,68,20,77,128.96,162,-26.00,55.00,-1079.00
2024-05-19 09:47:05.896663,-1,-3,-4,0,0,0,85,87,68,20,77,128.99,163,-34.00,60.00,-1056.00
2024-05-19 09:47:06.078115,-1,-3,-4,0,0,0,85,87,67,20,77,128.95,163,-21.00,63.00,-1046.00
2024-05-19 09:47:06.100671,-2,-2,-4,0,0,0,85,87,66,10,77,128.90,163,-26.00,58.00,-1027.00
2024-05-19 09:47:06.282844,-2,-3,-4,0,0,0,85,87,66,10,77,128.94,163,-28.00,57.00,-1023.00
2024-05-19 09:47:06.304904,-2,-3,-4,0,0,0,86,87,66,10,77,129.01,163,-17.00,52.00,-989.00
2024-05-19 09:47:06.487758,-2,-3,-4,0,0,0,86,87,66,10,77,128.91,163,-26.00,45.00,-926.00
2024-05-19 09:47:06.509078,-2,-3,-3,0,0,0,86,87,66,10,77,128.92,163,6.00,69.00,-1002.00
2024-05-19 09:47:06.624887,-1,-3,-3,0,0,0,86,87,67,10,77,128.95,163,-6.00,54.00,-961.00
2024-05-19 09:47:06.712750,-1,-3,-4,0,0,0,86,87,68,10,77,128.95,163,26.00,61.00,-959.00
2024-05-19 09:47:06.897127,-1,-3,-3,0,0,0,86,87,69,10,77,128.89,163,-11.00,63.00,-1046.00
2024-05-19 09:47:06.916714,-1,-3,-3,0,0,-1,86,87,71,20,77,128.95,164,-34.00,55.00,-1007.00
2024-05-19 09:47:07.101881,-1,-3,-3,0,0,-2,86,87,73,20,77,128.96,164,-7.00,57.00,-1148.00
2024-05-19 09:47:07.120617,0,-3,-4,0,0,-3,86,87,77,20,77,129.04,164,7.00,52.00,-1124.00
2024-05-19 09:47:07.306876,0,-3,-4,0,0,-3,86,87,81,20,77,129.09,164,1.00,51.00,-1056.00
2024-05-19 09:47:07.324592,0,-3,-4,0,0,-4,84,87,85,30,77,129.11,164,8.00,61.00,-1026.00
2024-05-19 09:47:07.511492,0,-3,-3,0,0,-5,84,87,90,30,77,129.10,164,-8.00,67.00,-1023.00
2024-05-19 09:47:07.528622,0,-3,-3,0,0,-5,84,87,94,40,77,129.18,164,-16.00,61.00,-1016.00
2024-05-19 09:47:07.716246,0,-3,-3,0,0,-5,84,87,99,40,77,129.21,164,-12.00,58.00,-947.00
2024-05-19 09:47:07.732550,0,-3,-3,0,0,-5,84,87,104,50,77,129.34,164,3.00,46.00,-977.00
2024-05-19 09:47:07.921076,0,-3,-3,0,0,-4,84,87,109,50,77,129.44,164,-6.00,50.00,-978.00
2024-05-19 09:47:07.936663,0,-3,-3,0,0,-4,84,87,114,60,77,129.41,165,16.00,23.00,-976.00
2024-05-19 09:47:08.125874,0,-3,-3,0,0,-4,84,87,118,60,77,129.47,165,31.00,18.00,-990.00
2024-05-19 09:47:08.140606,0,-2,-3,0,0,-4,84,87,123,70,77,129.43,165,25.00,32.00,-990.00
2024-05-19 09:47:08.330692,0,-1,-3,0,0,-4,84,87,127,70,77,129.38,165,14.00,63.00,-1006.00
2024-05-19 09:47:08.344610,0,-1,-3,0,0,-4,84,87,131,70,77,129.41,165,38.00,10.00,-969.00
2024-05-19 09:47:08.446529,0,-1,-3,0,0,-4,84,87,135,80,77,129.41,165,22.00,37.00,-953.00
2024-05-19 09:47:08.548665,0,-1,-4,0,0,-3,84,87,140,80,77,129.55,165,31.00,24.00,-994.00
2024-05-19 09:47:08.740296,0,-1,-4,1,0,-3,84,87,144,90,77,129.55,165,31.00,26.00,-983.00
2024-05-19 09:47:08.752626,1,-1,-4,1,0,-3,84,87,147,90,77,129.56,165,43.00,40.00,-977.00
2024-05-19 09:47:08.945096,1,-1,-4,1,0,-3,84,87,151,90,77,129.60,165,14.00,37.00,-1049.00
2024-05-19 09:47:08.956505,1,-1,-4,0,0,-2,84,87,155,100,77,129.70,166,34.00,36.00,-949.00
2024-05-19 09:47:09.007492,1,-1,-4,0,0,-2,84,87,158,100,77,129.73,166,35.00,39.00,-987.00
2024-05-19 09:47:09.150043,1,-1,-4,0,0,-2,84,87,161,100,77,129.68,166,13.00,51.00,-998.00
2024-05-19 09:47:09.211496,1,-1,-4,0,0,-2,84,87,164,100,77,129.75,166,7.00,37.00,-978.00
2024-05-19 09:47:09.354691,1,-1,-4,0,0,-2,84,87,166,110,77,129.81,166,52.00,35.00,-914.00
2024-05-19 09:47:09.415669,0,-2,-4,0,0,-1,84,87,168,110,77,129.78,166,26.00,28.00,-933.00
2024-05-19 09:47:09.560007,0,-2,-4,0,0,-1,84,87,168,110,77,129.83,166,6.00,38.00,-954.00
2024-05-19 09:47:09.619541,0,-2,-4,0,0,0,84,87,170,110,77,129.81,166,29.00,41.00,-981.00
2024-05-19 09:47:09.764369,0,-2,-4,0,0,0,84,87,172,110,77,129.92,166,12.00,27.00,-970.00
2024-05-19 09:47:09.823577,0,-1,-4,0,0,0,84,87,172,110,77,129.95,166,13.00,39.00,-933.00
2024-05-19 09:47:09.969229,0,-1,-4,0,0,0,84,87,172,110,77,129.86,167,0.00,41.00,-1047.00
2024-05-19 09:47:10.027734,-1,-1,-4,0,0,0,84,87,173,120,77,129.92,167,2.00,45.00,-1031.00
2024-05-19 09:47:10.173945,-1,-1,-4,0,0,0,84,87,173,120,77,129.72,167,-23.00,38.00,-1009.00
2024-05-19 09:47:10.231623,-1,0,-4,0,0,0,84,87,173,120,77,129.82,167,10.00,41.00,-1002.00
2024-05-19 09:47:10.378701,-1,-1,-4,0,0,0,83,87,173,120,77,129.91,167,3.00,32.00,-960.00
2024-05-19 09:47:10.435505,-1,-2,-4,0,0,0,83,87,172,120,77,129.80,167,-10.00,53.00,-1090.00
2024-05-19 09:47:10.537473,-1,-2,-4,0,0,0,83,87,171,110,77,129.82,167,-11.00,39.00,-1033.00
2024-05-19 09:47:10.685959,-1,-2,-4,0,0,0,83,87,171,110,77,129.78,167,12.00,43.00,-926.00
2024-05-19 09:47:10.741747,-1,-2,-4,0,0,0,83,87,171,110,77,129.81,167,-25.00,45.00,-1042.00
2024-05-19 09:47:10.890745,0,-2,-4,0,0,0,83,87,170,110,77,129.90,168,-11.00,24.00,-1002.00
2024-05-19 09:47:10.945544,0,-2,-4,0,0,0,83,87,170,110,77,129.93,168,32.00,26.00,-964.00
2024-05-19 09:47:11.095860,0,-1,-4,0,0,0,83,87,169,110,77,129.87,168,28.00,40.00,-997.00
2024-05-19 09:47:11.149549,0,-1,-4,0,0,0,83,87,170,110,77,129.91,168,-18.00,58.00,-1043.00
2024-05-19 09:47:11.300326,0,-2,-4,0,0,0,83,87,170,110,77,129.87,168,19.00,24.00,-1029.00
2024-05-19 09:47:11.353542,0,-2,-4,0,0,0,84,87,171,110,77,129.83,168,-1.00,39.00,-1033.00
2024-05-19 09:47:11.455283,0,-1,-4,0,0,0,84,87,171,110,77,129.88,168,-14.00,34.00,-1049.00
2024-05-19 09:47:11.557307,0,-2,-4,0,0,0,84,87,171,110,77,129.83,168,1.00,37.00,-967.00
2024-05-19 09:47:11.709860,0,-2,-3,0,0,0,84,87,172,110,77,129.83,168,21.00,43.00,-928.00
2024-05-19 09:47:11.761361,0,-3,-3,0,0,0,84,87,172,110,77,129.86,168,24.00,52.00,-930.00
2024-05-19 09:47:11.914566,0,-3,-3,0,0,1,84,87,171,110,77,129.86,169,5.00,38.00,-909.00
2024-05-19 09:47:11.965311,0,-3,-3,0,0,1,84,87,170,110,77,129.81,169,38.00,31.00,-991.00
2024-05-19 09:47:12.119440,0,-2,-3,0,0,1,84,87,169,110,77,129.80,169,34.00,33.00,-976.00
2024-05-19 09:47:12.169548,0,-1,-3,0,0,2,84,87,166,110,77,129.71,169,8.00,31.00,-935.00
2024-05-19 09:47:12.324234,0,-1,-4,0,0,2,84,87,164,110,77,129.78,169,32.00,46.00,-983.00
2024-05-19 09:47:12.373423,1,-2,-4,0,0,2,84,87,163,110,77,129.79,169,27.00,43.00,-944.00
2024-05-19 09:47:12.529023,1,-2,-4,0,0,2,84,87,160,100,77,129.70,169,32.00,50.00,-1012.00
2024-05-19 09:47:12.577655,1,-2,-4,0,0,2,84,87,157,100,77,129.74,169,21.00,46.00,-977.00
2024-05-19 09:47:12.733837,0,-2,-4,0,0,2,84,87,155,100,77,129.71,169,48.00,45.00,-972.00
2024-05-19 09:47:12.781347,0,-2,-3,0,0,2,84,87,151,90,77,129.63,169,25.00,37.00,-938.00
2024-05-19 09:47:12.832432,0,-2,-3,0,0,2,84,87,149,90,77,129.70,170,43.00,25.00,-1004.00
2024-05-19 09:47:12.939152,0,-1,-3,0,0,2,84,87,145,90,77,129.56,170,58.00,27.00,-1023.00
2024-05-19 09:47:13.036378,1,-1,-3,0,0,2,84,87,144,90,77,129.61,170,37.00,17.00,-1022.00
2024-05-19 09:47:13.143471,2,0,-3,0,0,2,84,87,141,80,77,129.53,170,55.00,28.00,-1037.00
2024-05-19 09:47:13.240345,2,0,-3,0,0,2,84,87,139,80,77,129.52,170,54.00,25.00,-1019.00
2024-05-19 09:47:13.348261,1,-1,-3,0,0,2,84,87,135,80,77,129.55,170,39.00,20.00,-1010.00
2024-05-19 09:47:13.444406,2,-1,-4,0,0,1,84,87,134,80,77,129.57,170,37.00,20.00,-995.00
2024-05-19 09:47:13.546207,2,0,-4,0,0,1,84,87,132,80,77,129.51,170,28.00,29.00,-1017.00
2024-05-19 09:47:13.655403,1,0,-4,0,0,1,84,87,131,80,77,129.54,170,43.00,29.00,-1024.00
2024-05-19 09:47:13.750422,2,0,-4,0,0,1,84,87,130,70,77,129.47,170,19.00,11.00,-1011.00
2024-05-19 09:47:13.860251,2,0,-4,0,0,1,84,87,129,70,77,129.49,171,51.00,12.00,-970.00
2024-05-19 09:47:13.954540,2,-1,-4,0,0,1,84,87,128,70,77,129.47,171,45.00,21.00,-953.00
2024-05-19 09:47:14.065109,2,-1,-4,0,0,0,84,87,127,70,77,129.47,171,25.00,28.00,-1010.00
2024-05-19 09:47:14.158376,2,-1,-4,0,0,0,84,87,126,70,77,129.37,171,19.00,31.00,-1072.00
2024-05-19 09:47:14.269821,2,-1,-4,0,0,0,84,87,126,70,77,129.51,171,45.00,44.00,-1036.00
2024-05-19 09:47:14.362276,2,-1,-4,0,0,0,84,86,126,70,77,129.53,171,18.00,29.00,-1014.00
2024-05-19 09:47:14.464253,1,-1,-4,0,0,0,84,86,125,70,77,129.51,171,32.00,22.00,-980.00
2024-05-19 09:47:14.566470,1,-1,-4,0,0,0,84,86,125,70,77,129.48,171,16.00,33.00,-1006.00
2024-05-19 09:47:14.679397,0,-2,-4,0,0,0,84,86,125,70,77,129.46,171,11.00,39.00,-1045.00
2024-05-19 09:47:14.770441,0,-2,-4,0,0,0,84,86,125,70,77,129.49,171,-3.00,32.00,-1026.00
2024-05-19 09:47:14.884384,0,-2,-4,0,0,0,84,86,125,70,77,129.49,172,0.00,46.00,-1040.00
2024-05-19 09:47:14.975203,0,-2,-4,0,0,0,84,86,125,70,77,129.51,172,25.00,43.00,-974.00
2024-05-19 09:47:15.089289,0,-3,-4,0,0,0,84,86,125,70,77,129.49,172,26.00,39.00,-984.00
2024-05-19 09:47:15.178377,0,-3,-3,0,0,0,84,86,125,70,77,129.44,172,15.00,41.00,-1019.00
2024-05-19 09:47:15.293963,0,-3,-3,0,0,0,84,86,125,70,77,129.53,172,20.00,39.00,-966.00
2024-05-19 09:47:15.382495,0,-2,-4,0,0,0,84,87,126,70,77,129.47,172,6.00,43.00,-1040.00
2024-05-19 09:47:15.498750,0,-2,-4,0,0,0,84,87,126,70,77,129.46,172,10.00,45.00,-1049.00
2024-05-19 09:47:15.586235,0,-2,-4,0,0,0,84,87,126,70,77,129.51,172,13.00,37.00,-995.00
2024-05-19 09:47:15.703780,0,-2,-4,0,0,0,84,87,126,70,77,129.50,172,5.00,37.00,-987.00
2024-05-19 09:47:15.790291,0,-2,-4,0,0,0,84,87,126,70,77,129.53,172,13.00,51.00,-1004.00
2024-05-19 09:47:15.908254,0,-2,-4,0,0,0,84,87,126,70,77,129.54,173,8.00,21.00,-947.00
2024-05-19 09:47:15.994771,0,-2,-4,0,0,0,84,87,126,70,77,129.56,173,40.00,32.00,-999.00
2024-05-19 09:47:16.113122,0,-2,-3,0,0,0,84,87,126,70,77,129.45,173,11.00,37.00,-1036.00
2024-05-19 09:47:16.198381,0,-2,-3,0,0,0,84,87,126,70,77,129.54,173,6.00,45.00,-1031.00
2024-05-19 09:47:16.317906,0,-2,-3,0,0,0,84,87,127,70,77,129.60,173,22.00,36.00,-968.00
2024-05-19 09:47:16.402259,0,-2,-4,0,0,0,84,86,128,70,77,129.51,173,-1.00,52.00,-1053.00
2024-05-19 09:47:16.518552,0,-2,-4,0,0,0,84,86,130,70,77,129.53,173,8.00,44.00,-987.00
2024-05-19 09:47:16.606724,0,-2,-4,0,0,0,84,86,131,70,77,129.48,173,-9.00,35.00,-956.00
2024-05-19 09:47:16.727339,-1,-2,-4,0,0,0,84,86,132,70,77,129.63,173,-2.00,40.00,-962.00
2024-05-19 09:47:16.759103,-6,-2,-4,0,0,0,84,86,133,80,77,129.59,173,0.00,45.00,-975.00
2024-05-19 09:47:16.932169,-8,-2,-4,1,0,0,84,86,134,80,77,129.61,174,-33.00,51.00,-1029.00
2024-05-19 09:47:16.963079,-8,-2,-4,2,0,0,84,86,134,80,77,129.53,174,-35.00,50.00,-1007.00
2024-05-19 09:47:17.136985,-8,-2,-3,3,0,0,84,86,133,80,76,129.59,174,-48.00,36.00,-943.00
2024-05-19 09:47:17.167106,-8,-2,-3,3,0,0,84,86,132,80,76,129.55,174,-39.00,42.00,-960.00
2024-05-19 09:47:17.328816,-8,-2,-3,4,0,1,84,86,131,80,76,129.63,174,-57.00,57.00,-1070.00
2024-05-19 09:47:17.371116,-8,-3,-3,5,0,0,84,86,130,70,76,129.57,174,-82.00,53.00,-1013.00
2024-05-19 09:47:17.546615,-8,-3,-3,6,0,0,84,86,128,70,76,129.47,174,-39.00,62.00,-977.00
2024-05-19 09:47:17.575063,-7,-4,-3,7,0,0,84,86,127,70,76,129.42,174,-28.00,54.00,-901.00
2024-05-19 09:47:17.751336,-4,-4,-4,7,0,0,84,86,125,70,76,129.40,174,-90.00,45.00,-979.00
2024-05-19 09:47:17.779076,-1,-4,-4,7,0,0,84,86,124,70,76,129.49,174,-65.00,51.00,-1030.00
2024-05-19 09:47:17.956212,1,-3,-4,6,0,0,84,86,123,70,76,129.48,175,-53.00,59.00,-906.00
2024-05-19 09:47:17.983091,3,-3,-4,5,0,0,84,86,121,70,76,129.39,175,-26.00,61.00,-980.00
2024-05-19 09:47:18.160999,2,-3,-4,4,0,0,84,86,121,70,76,129.41,175,-47.00,63.00,-1057.00
2024-05-19 09:47:18.187451,1,-2,-4,3,0,0,84,86,120,70,76,129.44,175,-21.00,52.00,-995.00
2024-05-19 09:47:18.365808,0,-2,-3,2,0,0,84,86,119,70,76,129.48,175,-26.00,61.00,-1017.00
2024-05-19 09:47:18.391253,0,-3,-3,2,0,0,84,86,119,70,76,129.51,175,-52.00,55.00,-1034.00
2024-05-19 09:47:18.570571,-1,-2,-3,2,0,0,84,86,119,60,76,129.49,175,-28.00,61.00,-979.00
2024-05-19 09:47:18.595037,-1,-1,-3,2,0,0,84,86,119,60,76,129.51,175,-23.00,45.00,-968.00
2024-05-19 09:47:18.775357,-1,-2,-4,2,0,0,84,86,119,60,76,129.44,175,-16.00,44.00,-1010.00
2024-05-19 09:47:18.799914,-1,-2,-4,2,0,0,84,86,119,60,76,129.51,175,-11.00,44.00,-981.00
2024-05-19 09:47:18.980109,0,-2,-4,2,0,0,84,86,120,60,76,129.36,176,-30.00,48.00,-1068.00
2024-05-19 09:47:19.003278,0,-2,-4,2,0,0,84,86,121,70,76,129.52,176,12.00,68.00,-1038.00
2024-05-19 09:47:19.184995,-1,-2,-4,2,0,0,84,86,122,70,76,129.53,176,-44.00,49.00,-1031.00
2024-05-19 09:47:19.206912,-1,-2,-4,1,0,0,84,86,123,70,76,129.46,176,-33.00,49.00,-972.00
2024-05-19 09:47:19.389752,-1,-2,-3,1,0,0,84,86,123,70,76,129.45,176,-10.00,50.00,-973.00
2024-05-19 09:47:19.410861,0,-4,-4,1,0,0,84,87,124,70,76,129.58,176,-21.00,43.00,-963.00
2024-05-19 09:47:19.594545,0,-6,-4,1,0,0,84,87,123,70,76,129.48,176,-12.00,43.00,-958.00
2024-05-19 09:47:19.614913,1,-6,-4,1,0,0,84,87,123,70,76,129.52,176,16.00,56.00,-975.00
2024-05-19 09:47:19.799287,2,-3,-4,1,-1,0,84,87,123,70,76,129.53,176,-43.00,52.00,-1090.00
2024-05-19 09:47:19.819041,1,0,-4,0,-1,0,84,87,122,70,76,129.49,176,-17.00,62.00,-1030.00
2024-05-19 09:47:20.004300,0,0,-3,0,0,0,84,87,122,70,76,129.54,177,-20.00,43.00,-1013.00
2024-05-19 09:47:20.023998,0,-1,-3,0,0,0,84,87,122,70,76,129.54,177,-1.00,43.00,-1056.00
2024-05-19 09:47:20.209090,-1,-1,-4,0,0,0,84,87,122,70,76,129.45,177,-19.00,55.00,-1039.00
2024-05-19 09:47:20.228169,-1,-1,-4,0,0,0,84,87,122,70,76,129.50,177,-3.00,43.00,-1020.00
2024-05-19 09:47:20.413800,0,-2,-4,0,0,0,84,87,122,70,76,129.50,177,25.00,42.00,-999.00
2024-05-19 09:47:20.432041,0,-2,-4,0,0,0,84,86,123,70,76,129.48,177,9.00,45.00,-1047.00
2024-05-19 09:47:20.618690,0,-2,-4,0,0,0,84,86,124,70,76,129.51,177,-1.00,20.00,-955.00
2024-05-19 09:47:20.619080,0,-2,-4,0,0,0,84,86,124,70,76,129.52,177,11.00,30.00,-1003.00
2024-05-19 09:47:20.686976,0,-2,-4,0,0,0,84,86,125,70,76,129.50,177,-38.00,50.00,-1082.00
2024-05-19 09:47:20.823516,0,-2,-4,0,0,0,84,86,126,70,76,129.56,177,0.00,52.00,-1001.00
2024-05-19 09:47:20.892376,0,-2,-4,0,0,0,84,86,126,70,76,129.54,178,1.00,34.00,-956.00
2024-05-19 09:47:21.028264,-1,-2,-4,0,0,0,84,86,126,70,76,129.54,178,-20.00,41.00,-1011.00
2024-05-19 09:47:21.095410,0,-2,-4,0,0,0,84,86,126,70,75,129.54,178,-9.00,61.00,-967.00
2024-05-19 09:47:21.233570,0,-2,-4,0,0,0,84,86,126,70,75,129.55,178,-20.00,68.00,-1010.00
2024-05-19 09:47:21.301634,0,-2,-4,0,0,0,84,86,125,70,75,129.51,178,-44.00,0.00,-981.00
2024-05-19 09:47:21.401093,0,-2,-4,0,0,0,84,86,124,70,75,129.56,178,-20.00,45.00,-950.00
2024-05-19 09:47:21.539978,-1,-3,-4,0,0,0,84,86,124,70,75,129.35,178,-67.00,39.00,-1045.00
2024-05-19 09:47:21.606488,-2,-3,-4,0,0,0,84,86,124,70,75,129.40,178,-28.00,60.00,-1035.00
2024-05-19 09:47:21.745020,-3,-2,-4,0,0,0,84,86,125,70,75,129.42,178,-73.00,23.00,-1074.00
2024-05-19 09:47:21.811216,-3,-2,-4,0,0,0,84,86,125,70,75,129.52,178,-63.00,101.00,-1098.00
2024-05-19 09:47:21.910856,-3,-2,-4,0,0,0,84,86,125,70,75,129.49,179,-60.00,63.00,-999.00
2024-05-19 09:47:22.052100,-2,-2,-4,0,0,0,84,86,125,70,75,129.40,179,-61.00,70.00,-1069.00
2024-05-19 09:47:22.114898,4,-2,-4,0,0,0,84,86,126,70,75,129.50,179,-54.00,49.00,-1026.00
2024-05-19 09:47:22.256946,7,-2,-4,-2,0,0,84,86,126,70,75,129.57,179,-29.00,58.00,-985.00
2024-05-19 09:47:22.318953,7,-2,-4,-3,0,0,84,86,126,70,75,129.54,179,-42.00,50.00,-984.00
2024-05-19 09:47:22.420842,6,-3,-4,-4,0,0,84,86,127,70,75,129.62,179,-32.00,54.00,-1026.00
2024-05-19 09:47:22.563988,5,-3,-3,-5,0,0,84,86,127,70,75,129.56,179,9.00,66.00,-1013.00
2024-05-19 09:47:22.624852,4,-4,-3,-6,0,0,84,86,127,70,75,129.50,179,-1.00,64.00,-1029.00
2024-05-19 09:47:22.768955,3,-5,-3,-7,0,0,84,86,128,70,75,129.60,179,39.00,68.00,-1024.00
2024-05-19 09:47:22.828839,3,-4,-3,-7,0,0,84,86,129,70,75,129.67,179,27.00,68.00,-973.00
2024-05-19 09:47:22.973758,0,-4,-3,-8,0,0,84,86,130,70,75,129.65,180,23.00,76.00,-966.00
2024-05-19 09:47:23.032831,-3,-4,-3,-7,0,0,84,86,130,70,75,129.64,180,-1.00,68.00,-1017.00
2024-05-19 09:47:23.178551,-6,-3,-3,-7,0,0,84,86,131,70,75,129.63,180,-5.00,64.00,-1023.00
2024-05-19 09:47:23.236841,-6,-3,-3,-5,0,0,84,86,131,70,75,129.64,180,7.00,86.00,-989.00
2024-05-19 09:47:23.383321,-5,-3,-3,-4,0,0,84,86,132,70,75,129.64,180,15.00,64.00,-970.00
2024-05-19 09:47:23.441092,-3,-3,-3,-3,0,0,84,86,131,70,75,129.62,180,0.00,59.00,-985.00
2024-05-19 09:47:23.587930,-2,-3,-3,-3,0,0,84,86,131,70,75,129.60,180,-12.00,59.00,-933.00
2024-05-19 09:47:23.645166,-2,-3,-3,-2,0,0,84,86,131,80,75,129.57,180,-8.00,70.00,-981.00
2024-05-19 09:47:23.792868,-1,-3,-3,-2,0,0,84,86,131,80,75,129.53,180,-4.00,58.00,-935.00
2024-05-19 09:47:23.848788,-1,-3,-3,-2,0,0,84,86,130,80,75,129.61,180,-14.00,62.00,-919.00
2024-05-19 09:47:23.997736,-1,-3,-3,-2,0,0,84,86,129,70,75,129.65,181,-24.00,72.00,-1023.00
2024-05-19 09:47:24.001884,-2,-3,-3,-2,0,0,84,86,128,70,75,129.56,181,13.00,53.00,-987.00
2024-05-19 09:47:24.202524,-4,-3,-3,-1,0,0,84,86,126,70,74,129.57,181,-6.00,46.00,-978.00
2024-05-19 09:47:24.205787,-5,-3,-3,0,0,1,84,86,125,70,74,129.57,181,0.00,44.00,-1010.00
2024-05-19 09:47:24.307847,-3,-5,-3,0,0,0,84,86,124,70,74,129.53,181,1.00,50.00,-972.00
2024-05-19 09:47:24.410047,-2,-6,-3,0,0,0,84,86,123,70,74,129.56,181,-7.00,64.00,-1059.00
2024-05-19 09:47:24.511848,-1,-6,-3,0,-1,0,84,86,123,70,74,129.50,181,0.00,59.00,-1001.00
2024-05-19 09:47:24.614384,0,0,-4,0,-1,0,84,86,122,70,74,129.49,181,9.00,59.00,-978.00
2024-05-19 09:47:24.715994,0,0,-4,0,0,0,84,86,122,70,74,129.50,181,-14.00,48.00,-1009.00
2024-05-19 09:47:24.919552,0,-2,-4,0,0,0,84,86,121,70,74,129.49,181,-23.00,54.00,-958.00
2024-05-19 09:47:24.919824,0,-2,-4,0,0,0,84,86,121,70,74,129.48,182,-15.00,56.00,-941.00
2024-05-19 09:47:25.022625,0,-3,-4,0,0,0,84,86,120,70,74,129.44,182,-23.00,50.00,-988.00
2024-05-19 09:47:25.124366,0,-3,-4,0,0,0,84,86,120,70,74,129.44,182,-18.00,37.00,-1059.00
2024-05-19 09:47:25.226509,0,-3,-4,0,0,0,84,86,119,70,74,129.40,182,9.00,50.00,-981.00
2024-05-19 09:47:25.329004,0,-2,-4,0,0,0,84,86,119,70,74,129.36,182,-3.00,53.00,-1019.00
2024-05-19 09:47:25.431449,0,-2,-4,0,0,0,84,86,120,70,74,129.43,182,-2.00,48.00,-1037.00
2024-05-19 09:47:25.533739,0,-2,-4,0,0,0,84,86,121,70,74,129.36,182,-1.00,31.00,-983.00
2024-05-19 09:47:25.634184,0,-2,-4,0,0,0,84,86,122,70,74,129.37,182,-10.00,51.00,-1028.00
2024-05-19 09:47:25.738815,0,-2,-4,0,0,0,84,86,122,70,74,129.50,182,7.00,51.00,-1015.00
2024-05-19 09:47:25.845294,0,-2,-4,0,0,0,84,86,123,70,74,129.50,183,-4.00,44.00,-977.00
2024-05-19 09:47:25.939921,0,-3,-4,0,0,0,84,86,123,70,74,129.44,183,-9.00,45.00,-988.00
2024-05-19 09:47:26.045799,0,-3,-4,0,0,0,84,86,123,70,74,129.54,183,-12.00,32.00,-942.00
2024-05-19 09:47:26.143907,0,-2,-4,0,0,0,84,86,123,70,74,129.48,183,-4.00,48.00,-984.00
2024-05-19 09:47:26.250630,0,-2,-4,0,0,0,84,86,122,70,74,129.49,183,-2.00,42.00,-995.00
2024-05-19 09:47:26.347858,0,-2,-4,0,0,0,84,86,122,70,74,129.46,183,0.00,41.00,-999.00
2024-05-19 09:47:26.449861,0,-3,-4,0,0,0,84,86,121,70,74,129.45,183,-20.00,40.00,-1031.00
2024-05-19 09:47:26.557808,0,-2,-4,0,0,0,84,86,121,70,74,129.49,183,8.00,52.00,-987.00
2024-05-19 09:47:26.654585,0,-2,-4,0,0,0,84,86,120,70,74,129.53,183,-60.00,41.00,-1008.00
2024-05-19 09:47:26.762499,-2,-7,-3,0,0,0,84,86,120,70,74,129.46,183,-55.00,52.00,-976.00
2024-05-19 09:47:26.858592,-2,-8,-3,0,-1,0,84,86,121,70,74,129.54,184,-56.00,46.00,-999.00
2024-05-19 09:47:26.967311,-2,-8,-3,0,-2,0,84,86,121,70,74,129.60,184,-14.00,57.00,-1031.00
2024-05-19 09:47:27.062649,-2,-8,-3,0,-3,0,84,86,121,70,74,129.53,184,1.00,64.00,-1011.00
2024-05-19 09:47:27.171971,-1,-4,-3,0,-3,0,84,86,121,70,74,129.62,184,-27.00,83.00,-1083.00
2024-05-19 09:47:27.266558,-1,-2,-3,0,-3,0,84,86,123,70,74,129.59,184,10.00,66.00,-962.00
2024-05-19 09:47:27.376882,0,-2,-3,0,-3,0,84,86,123,70,74,129.60,184,-11.00,74.00,-966.00
2024-05-19 09:47:27.470731,0,-2,-3,0,-3,0,84,86,124,70,74,129.62,184,20.00,44.00,-990.00
2024-05-19 09:47:27.581609,0,-2,-3,0,-2,0,84,86,124,70,74,129.56,184,2.00,54.00,-980.00
2024-05-19 09:47:27.674576,0,-2,-4,0,-2,0,84,86,124,70,74,129.55,184,12.00,54.00,-967.00
2024-05-19 09:47:27.786480,0,-2,-4,0,-2,0,84,86,124,70,74,129.53,184,-25.00,69.00,-1114.00
2024-05-19 09:47:27.878560,0,-2,-4,0,-2,0,84,86,124,70,74,129.44,185,4.00,50.00,-1006.00
2024-05-19 09:47:27.991299,0,-2,-4,0,-2,0,84,86,124,70,74,129.48,185,8.00,49.00,-943.00
2024-05-19 09:47:28.031645,0,-2,-4,0,-2,0,84,86,123,70,74,129.53,185,-13.00,56.00,-1007.00
2024-05-19 09:47:28.195936,2,-2,-4,0,-2,0,84,86,123,70,74,129.49,185,3.00,48.00,-954.00
2024-05-19 09:47:28.235865,3,-2,-4,0,-2,0,84,86,123,70,74,129.50,185,22.00,48.00,-970.00
2024-05-19 09:47:28.400879,3,-1,-4,0,-2,0,84,86,123,70,74,129.48,185,11.00,70.00,-1011.00
2024-05-19 09:47:28.439729,3,-1,-4,-1,-1,0,84,85,122,70,74,129.56,185,-11.00,57.00,-889.00
2024-05-19 09:47:28.605663,-1,-3,-4,-1,-1,0,84,85,122,70,74,129.59,185,3.00,81.00,-1089.00
2024-05-19 09:47:28.643745,-4,0,-3,-1,-1,0,84,85,121,70,74,129.46,185,24.00,62.00,-986.00
2024-05-19 09:47:28.810465,-2,0,-3,0,0,0,84,85,122,70,74,129.48,185,0.00,72.00,-997.00
2024-05-19 09:47:28.847695,-1,-2,-3,0,0,0,84,85,122,70,74,129.54,186,2.00,53.00,-931.00
2024-05-19 09:47:29.015753,0,-2,-3,0,0,0,84,85,123,70,74,129.55,186,0.00,70.00,-1016.00
2024-05-19 09:47:29.051784,0,-3,-4,0,0,0,84,85,123,70,74,129.51,186,-8.00,48.00,-991.00
2024-05-19 09:47:29.220053,0,-2,-3,0,0,0,84,85,123,70,73,129.51,186,28.00,52.00,-1006.00
2024-05-19 09:47:29.255748,0,-3,-3,0,0,0,84,85,124,70,73,129.58,186,6.00,73.00,-991.00
2024-05-19 09:47:29.424869,0,-4,-3,0,0,0,84,85,124,70,73,129.59,186,32.00,55.00,-996.00
2024-05-19 09:47:29.459579,1,-3,-4,0,0,0,84,85,124,70,73,129.68,186,12.00,91.00,-996.00
2024-05-19 09:47:29.561600,2,-4,-4,0,0,0,84,85,124,70,73,129.66,186,20.00,74.00,-1020.00
2024-05-19 09:47:29.732108,1,-5,-3,0,0,0,84,85,124,70,73,129.69,186,13.00,76.00,-1027.00
2024-05-19 09:47:29.765678,1,-5,-3,0,0,0,84,85,124,70,73,129.67,186,17.00,46.00,-962.00
2024-05-19 09:47:29.937012,1,-4,-3,0,0,0,84,85,123,70,73,129.61,187,19.00,70.00,-996.00
2024-05-19 09:47:29.969774,1,-4,-3,0,0,0,84,85,123,70,73,129.58,187,25.00,60.00,-1000.00
2024-05-19 09:47:30.144042,1,-4,-4,0,0,0,84,85,122,70,73,129.53,187,23.00,46.00,-1011.00
2024-05-19 09:47:30.173953,1,-3,-4,0,0,0,84,85,121,70,73,129.54,187,41.00,58.00,-1003.00
2024-05-19 09:47:30.346561,1,-3,-4,0,0,0,84,85,121,70,73,129.44,187,3.00,49.00,-1013.00
2024-05-19 09:47:30.377777,1,-3,-4,0,0,0,84,85,120,70,73,129.48,187,35.00,47.00,-990.00
2024-05-19 09:47:30.551296,1,-3,-4,0,0,0,84,86,120,70,73,129.52,187,36.00,34.00,-916.00
2024-05-19 09:47:30.581588,1,-2,-4,0,0,0,84,86,120,70,73,129.54,187,-2.00,57.00,-1079.00
2024-05-19 09:47:30.756044,1,-2,-4,0,0,0,84,86,121,70,73,129.62,187,0.00,59.00,-1004.00
2024-05-19 09:47:30.785687,0,-2,-4,0,0,0,84,86,121,70,73,129.55,187,36.00,33.00,-915.00
2024-05-19 09:47:30.889653,0,-2,-4,0,0,0,84,86,122,70,73,129.60,188,-16.00,58.00,-1040.00
2024-05-19 09:47:30.989435,0,-1,-4,-1,0,0,84,86,123,70,73,129.55,188,5.00,35.00,-1029.00
2024-05-19 09:47:31.165633,-1,5,-4,0,0,0,84,86,124,70,73,129.58,188,-28.00,65.00,-1021.00
2024-05-19 09:47:31.193457,-1,5,-4,0,1,0,84,86,125,70,73,129.59,188,-10.00,33.00,-975.00
2024-05-19 09:47:31.370462,-2,2,-4,0,3,0,84,86,126,70,73,129.56,188,6.00,26.00,-997.00
2024-05-19 09:47:31.397503,-1,0,-4,0,3,0,84,86,127,70,73,129.59,188,2.00,31.00,-1005.00
2024-05-19 09:47:31.575261,-1,-2,-4,0,3,0,84,86,127,70,73,129.56,188,-8.00,28.00,-953.00
2024-05-19 09:47:31.601502,0,-3,-4,0,3,0,84,86,128,70,73,129.66,188,-42.00,30.00,-1107.00
2024-05-19 09:47:31.779958,0,-3,-4,0,3,0,84,86,128,70,73,129.64,188,12.00,17.00,-935.00
2024-05-19 09:47:31.805400,0,-3,-4,0,2,0,84,86,129,70,73,129.55,188,-6.00,28.00,-920.00
2024-05-19 09:47:31.984851,0,-2,-4,0,2,0,84,86,128,70,73,129.58,189,-13.00,19.00,-957.00
2024-05-19 09:47:31.984909,0,-2,-4,0,2,0,84,86,127,70,73,129.57,189,-14.00,35.00,-969.00
2024-05-19 09:47:32.060320,0,-2,-4,0,2,0,84,86,126,70,73,129.61,189,9.00,20.00,-960.00
2024-05-19 09:47:32.189620,0,-2,-4,0,2,0,84,86,125,70,73,129.50,189,29.00,34.00,-983.00
2024-05-19 09:47:32.264407,0,-2,-4,0,2,0,84,86,125,70,73,129.56,189,-17.00,37.00,-1002.00
2024-05-19 09:47:32.394424,0,-2,-4,0,2,0,84,86,124,70,73,129.54,189,-9.00,42.00,-1057.00
2024-05-19 09:47:32.468627,0,-2,-4,0,2,0,84,86,124,70,73,129.51,189,-7.00,40.00,-1055.00
2024-05-19 09:47:32.599752,0,-4,-4,0,2,0,84,86,124,70,73,129.58,189,-3.00,57.00,-1052.00
2024-05-19 09:47:32.674413,0,-8,-4,0,1,0,84,86,125,70,73,129.50,189,24.00,29.00,-1036.00
2024-05-19 09:47:32.804492,0,-5,-4,0,1,0,84,86,124,70,73,129.51,189,-20.00,44.00,-977.00
2024-05-19 09:47:32.877688,0,-4,-4,0,0,0,84,86,124,70,73,129.55,190,-5.00,53.00,-1091.00
2024-05-19 09:47:33.008789,0,-3,-4,0,0,0,84,86,125,70,73,129.53,190,-29.00,52.00,-1024.00
2024-05-19 09:47:33.081593,0,-3,-4,0,0,0,84,86,124,70,72,129.56,190,-17.00,55.00,-999.00
2024-05-19 09:47:33.213663,0,-3,-4,0,0,0,84,86,125,70,72,129.57,190,-18.00,46.00,-1001.00
2024-05-19 09:47:33.285410,0,-3,-4,0,0,0,84,86,126,70,72,129.45,190,2.00,58.00,-951.00
2024-05-19 09:47:33.418491,0,-3,-4,0,0,0,84,86,127,70,72,129.53,190,-25.00,58.00,-1070.00
2024-05-19 09:47:33.489285,-1,-3,-4,0,0,0,83,86,127,70,72,129.65,190,-22.00,47.00,-996.00
2024-05-19 09:47:33.623766,0,-3,-4,0,0,0,83,86,126,70,72,129.67,190,-25.00,36.00,-947.00
2024-05-19 09:47:33.693711,0,-2,-4,0,0,0,83,86,127,70,72,129.57,190,-47.00,54.00,-979.00
2024-05-19 09:47:33.828153,-1,-2,-4,0,0,0,83,86,126,70,72,129.51,190,-21.00,51.00,-944.00
2024-05-19 09:47:33.897792,-1,-2,-4,0,0,0,83,86,126,70,72,129.43,191,-38.00,48.00,-966.00
2024-05-19 09:47:34.032980,-2,-2,-4,0,0,0,83,86,125,70,72,129.54,191,-12.00,46.00,-955.00
2024-05-19 09:47:34.101596,-2,-2,-4,0,0,0,83,86,124,70,72,129.52,191,-36.00,49.00,-1024.00
2024-05-19 09:47:34.237747,-1,-2,-4,0,0,0,83,86,124,70,72,129.40,191,-64.00,26.00,-1063.00
2024-05-19 09:47:34.306755,-1,-2,-4,0,0,0,83,86,123,70,72,129.42,191,-43.00,35.00,-1011.00
2024-05-19 09:47:34.443001,-2,-1,-4,0,0,0,83,86,122,70,72,129.49,191,-18.00,36.00,-900.00
2024-05-19 09:47:34.510113,-1,-1,-4,0,0,0,85,86,121,70,72,129.44,191,-53.00,36.00,-1026.00
2024-05-19 09:47:34.647792,-2,-1,-4,0,0,0,85,86,120,70,72,129.52,191,-50.00,44.00,-1061.00
2024-05-19 09:47:34.717264,-2,-1,-4,0,0,0,85,86,120,70,72,129.63,191,-19.00,36.00,-943.00
2024-05-19 09:47:34.815320,-2,-2,-3,0,0,0,85,86,119,70,72,129.61,191,3.00,51.00,-1004.00
2024-05-19 09:47:34.954407,-1,-2,-3,0,0,0,85,86,118,70,72,129.52,192,-42.00,80.00,-1083.00
2024-05-19 09:47:35.019479,0,-2,-1,0,0,0,85,86,117,70,72,129.44,192,-21.00,38.00,-990.00
2024-05-19 09:47:35.159212,0,-3,3,0,0,0,85,86,117,70,72,129.54,192,-1.00,69.00,-955.00
2024-05-19 09:47:35.223310,0,-3,8,0,0,0,85,86,117,60,72,129.45,192,-36.00,27.00,-1044.00
2024-05-19 09:47:35.363862,0,-3,13,0,0,0,85,86,117,60,72,129.43,192,-28.00,8.00,-996.00
2024-05-19 09:47:35.427303,-1,-3,18,0,0,0,85,86,117,60,72,129.44,192,-7.00,67.00,-983.00
2024-05-19 09:47:35.568839,-1,-3,24,0,0,0,84,86,116,60,72,129.45,192,-2.00,36.00,-1014.00
2024-05-19 09:47:35.631261,0,-3,30,0,0,0,84,86,116,60,72,129.39,192,11.00,51.00,-946.00
2024-05-19 09:47:35.773577,0,-3,36,0,0,0,84,86,116,60,72,129.48,192,0.00,57.00,-1032.00
2024-05-19 09:47:35.784153,0,-3,43,0,0,0,84,86,116,60,72,129.42,192,26.00,49.00,-989.00
2024-05-19 09:47:35.978389,1,-3,49,0,0,0,84,86,116,70,72,129.46,193,37.00,35.00,-975.00
2024-05-19 09:47:35.988232,1,-2,56,0,0,0,84,86,116,70,72,129.49,193,51.00,36.00,-987.00
2024-05-19 09:47:36.183162,2,-1,63,0,0,0,84,86,117,70,72,129.41,193,57.00,47.00,-1046.00
2024-05-19 09:47:36.192101,2,0,70,0,0,0,84,86,117,70,72,129.42,193,44.00,35.00,-1032.00
2024-05-19 09:47:36.387923,2,0,76,0,0,0,84,86,118,70,72,129.37,193,40.00,32.00,-1011.00
2024-05-19 09:47:36.396810,2,0,82,0,0,0,84,86,118,70,72,129.33,193,16.00,16.00,-1015.00
2024-05-19 09:47:36.592705,2,0,89,0,0,0,84,86,119,70,72,129.42,193,47.00,-5.00,-942.00
2024-05-19 09:47:36.600401,2,0,94,0,0,0,84,86,120,70,72,129.46,193,38.00,0.00,-984.00
2024-05-19 09:47:36.797581,1,1,100,0,0,0,84,86,120,70,72,129.44,193,25.00,0.00,-1020.00
2024-05-19 09:47:36.805330,1,1,105,0,0,0,84,86,121,70,72,129.54,193,19.00,1.00,-1002.00
2024-05-19 09:47:37.002311,1,1,111,0,0,0,84,86,121,70,72,129.48,194,0.00,-26.00,-1076.00
2024-05-19 09:47:37.008385,1,1,116,0,0,0,84,86,122,70,72,129.39,194,46.00,0.00,-986.00
2024-05-19 09:47:37.207169,0,1,122,0,0,0,84,86,122,70,72,129.40,194,12.00,-13.00,-1001.00
2024-05-19 09:47:37.212013,0,1,127,0,0,0,84,86,123,70,72,129.52,194,-1.00,3.00,-1068.00
2024-05-19 09:47:37.411898,0,1,133,0,0,0,84,86,123,70,72,129.45,194,62.00,17.00,-976.00
2024-05-19 09:47:37.416110,0,1,138,0,0,0,84,86,123,70,72,129.51,194,15.00,10.00,-1028.00
2024-05-19 09:47:37.616783,0,0,143,0,0,0,84,86,124,70,72,129.50,194,37.00,-13.00,-954.00
2024-05-19 09:47:37.620204,0,0,149,0,0,0,84,86,124,70,72,129.41,194,16.00,-13.00,-993.00
2024-05-19 09:47:37.722335,0,0,155,0,0,0,84,86,124,70,72,129.42,194,28.00,-26.00,-915.00
2024-05-19 09:47:37.823974,0,0,161,0,0,0,84,86,123,70,72,129.37,194,10.00,-9.00,-1018.00
2024-05-19 09:47:37.926047,0,1,168,0,0,0,84,86,123,70,72,129.44,195,17.00,-12.00,-919.00
2024-05-19 09:47:38.027904,0,1,175,0,0,0,84,86,122,70,72,129.52,195,13.00,-9.00,-948.00
2024-05-19 09:47:38.231172,0,1,-177,0,0,0,84,86,122,70,72,129.54,195,11.00,2.00,-1025.00
2024-05-19 09:47:38.231998,0,0,-170,0,0,0,84,86,121,70,72,129.57,195,14.00,-21.00,-996.00
2024-05-19 09:47:38.334272,0,0,-163,0,0,0,84,86,120,70,72,129.51,195,-2.00,-10.00,-1037.00
2024-05-19 09:47:38.436119,0,1,-156,0,0,0,84,86,119,70,72,129.48,195,-32.00,-5.00,-1032.00
2024-05-19 09:47:38.538311,-1,1,-149,0,0,0,84,86,118,70,72,129.43,195,-13.00,-23.00,-1024.00
2024-05-19 09:47:38.640411,-1,1,-142,0,0,0,84,86,117,70,72,129.39,195,-27.00,-3.00,-1032.00
2024-05-19 09:47:38.743136,-1,0,-135,0,0,0,84,86,117,70,72,129.40,195,-43.00,-1.00,-1014.00
2024-05-19 09:47:38.845543,-2,0,-128,0,0,0,84,86,117,70,72,129.43,195,-36.00,-5.00,-1025.00
2024-05-19 09:47:38.945961,-2,0,-121,0,0,0,84,86,117,60,72,129.35,196,-45.00,-6.00,-1000.00
2024-05-19 09:47:39.053475,-2,0,-115,0,0,0,84,86,117,60,72,129.36,196,-36.00,0.00,-1064.00
2024-05-19 09:47:39.149948,-3,0,-109,0,0,0,84,86,117,60,71,129.33,196,-47.00,13.00,-1018.00
2024-05-19 09:47:39.255151,-3,0,-103,0,0,0,84,86,118,60,71,129.32,196,-15.00,18.00,-1020.00
2024-05-19 09:47:39.354110,-2,0,-97,0,0,0,84,86,118,70,71,129.32,196,-10.00,23.00,-978.00
2024-05-19 09:47:39.459947,-2,-1,-91,0,0,0,84,86,118,70,71,129.33,196,-24.00,18.00,-981.00
2024-05-19 09:47:39.558014,-1,0,-78,0,0,0,83,86,119,70,71,129.34,196,-41.00,22.00,-973.00
2024-05-19 09:47:39.659844,-1,-1,-71,0,0,0,83,86,119,70,71,129.53,196,-40.00,52.00,-1049.00
2024-05-19 09:47:39.767171,-1,-1,-65,0,0,0,83,86,119,70,71,129.49,196,-25.00,47.00,-1042.00
2024-05-19 09:47:39.864105,-1,-2,-59,0,0,0,83,86,119,70,71,129.45,197,-20.00,28.00,-974.00
2024-05-19 09:47:39.971888,-1,-2,-52,0,0,0,83,86,119,70,71,129.44,197,-24.00,62.00,-987.00
2024-05-19 09:47:40.068376,0,-2,-46,0,0,0,83,86,120,70,71,129.48,197,-25.00,60.00,-985.00
2024-05-19 09:47:40.176716,0,-3,-40,0,0,0,83,86,119,70,71,129.53,197,-15.00,59.00,-1002.00
2024-05-19 09:47:40.221002,0,-3,-34,0,0,0,83,86,119,70,71,129.47,197,-2.00,44.00,-1012.00
2024-05-19 09:47:40.381536,0,-3,-27,0,0,0,83,86,119,70,71,129.44,197,5.00,44.00,-987.00
2024-05-19 09:47:40.424967,0,-3,-22,0,0,0,83,86,120,70,71,129.47,197,18.00,41.00,-970.00
2024-05-19 09:47:40.586218,0,-2,-17,0,0,0,84,86,120,70,71,129.39,197,11.00,43.00,-986.00
2024-05-19 09:47:40.629167,0,-2,-14,0,0,0,84,86,120,70,71,129.43,197,21.00,31.00,-1032.00
2024-05-19 09:47:40.730961,0,-1,-11,0,0,0,84,86,120,70,71,129.41,197,33.00,30.00,-1015.00
2024-05-19 09:47:40.893542,0,-1,-9,0,0,0,84,86,120,70,71,129.45,198,-3.00,24.00,-985.00
2024-05-19 09:47:40.935037,0,0,-8,0,0,0,84,86,121,70,71,129.41,198,-4.00,29.00,-1014.00
2024-05-19 09:47:41.098318,0,0,-7,0,0,0,84,86,121,70,71,129.38,198,4.00,29.00,-984.00
2024-05-19 09:47:41.139852,0,-1,-6,0,0,0,84,86,121,70,71,129.45,198,8.00,30.00,-988.00
2024-05-19 09:47:41.303123,0,-1,-6,0,0,0,84,86,121,70,71,129.46,198,8.00,36.00,-983.00
2024-05-19 09:47:41.343006,0,0,-6,0,0,0,84,86,121,70,71,129.39,198,12.00,12.00,-948.00
2024-05-19 09:47:41.507882,0,0,-5,0,0,0,84,86,121,70,71,129.51,198,1.00,14.00,-938.00
2024-05-19 09:47:41.547489,0,0,-5,0,0,0,83,86,122,70,71,129.52,198,19.00,25.00,-1006.00
2024-05-19 09:47:41.649149,0,0,-5,0,0,0,83,86,121,70,71,129.51,198,5.00,27.00,-1043.00
2024-05-19 09:47:41.815159,0,0,-6,0,0,0,83,86,122,70,71,129.52,198,25.00,11.00,-941.00
2024-05-19 09:47:41.853103,0,0,-6,0,0,0,83,86,122,70,71,129.41,199,16.00,29.00,-1059.00
2024-05-19 09:47:42.019909,0,0,-6,0,0,0,83,86,121,70,71,129.42,199,7.00,10.00,-994.00
2024-05-19 09:47:42.057059,0,0,-6,0,0,0,83,86,122,70,71,129.50,199,-11.00,12.00,-1033.00
2024-05-19 09:47:42.225005,0,0,-6,0,0,0,83,86,122,70,71,129.48,199,-13.00,17.00,-980.00
2024-05-19 09:47:42.260993,0,0,-6,0,0,0,83,86,121,70,71,129.44,199,4.00,10.00,-964.00
2024-05-19 09:47:42.429764,0,0,-6,0,0,0,83,86,121,70,71,129.48,199,-7.00,0.00,-965.00
2024-05-19 09:47:42.464958,0,0,-6,0,0,0,83,86,121,70,71,129.46,199,-20.00,2.00,-969.00
2024-05-19 09:47:42.634485,0,0,-6,0,0,0,84,86,120,70,71,129.47,199,1.00,21.00,-993.00
2024-05-19 09:47:42.669107,0,0,-5,0,0,0,84,86,120,70,71,129.45,199,-14.00,27.00,-1023.00
2024-05-19 09:47:42.839300,0,0,-6,0,0,0,84,86,120,70,71,129.49,199,35.00,7.00,-961.00
2024-05-19 09:47:42.873257,0,0,-6,0,0,0,84,86,120,70,71,129.46,200,-4.00,23.00,-1070.00
2024-05-19 09:47:43.044184,0,0,-6,0,0,0,84,86,121,70,71,129.45,200,12.00,22.00,-1018.00
2024-05-19 09:47:43.077052,0,0,-5,0,0,0,84,86,123,70,71,129.50,200,22.00,6.00,-966.00
2024-05-19 09:47:43.248840,0,0,-5,0,0,0,84,86,124,70,71,129.50,200,10.00,14.00,-1001.00
2024-05-19 09:47:43.281003,0,0,-5,0,0,0,84,86,125,70,71,129.50,200,-2.00,2.00,-1017.00
2024-05-19 09:47:43.453686,0,0,-5,0,0,0,84,86,127,70,71,129.48,200,31.00,4.00,-970.00
2024-05-19 09:47:43.484835,0,0,-5,0,0,0,84,86,128,70,71,129.48,200,10.00,12.00,-986.00
2024-05-19 09:47:43.586870,0,0,-5,0,0,0,84,86,130,70,71,129.56,200,30.00,-6.00,-965.00
2024-05-19 09:47:43.688956,0,0,-7,0,0,0,84,86,131,70,71,129.52,200,-4.00,5.00,-992.00
2024-05-19 09:47:43.864380,0,0,-12,0,0,0,84,86,131,70,71,129.52,200,9.00,-5.00,-946.00
2024-05-19 09:47:43.893017,0,0,-17,0,0,0,84,86,133,70,71,129.59,201,10.00,-14.00,-984.00
2024-05-19 09:47:44.067868,0,0,-22,0,0,0,84,86,132,70,71,129.53,201,8.00,-11.00,-972.00
2024-05-19 09:47:44.096853,0,0,-27,0,0,0,84,86,132,70,71,129.53,201,14.00,-8.00,-986.00
2024-05-19 09:47:44.272683,0,0,-33,0,0,0,84,86,132,70,71,129.56,201,8.00,-3.00,-1023.00
2024-05-19 09:47:44.272736,0,0,-38,0,0,0,84,86,132,70,71,129.54,201,3.00,-25.00,-977.00
2024-05-19 09:47:44.351757,1,1,-44,0,0,0,84,86,132,70,71,129.47,201,21.00,-21.00,-995.00
2024-05-19 09:47:44.453724,1,1,-50,0,0,0,84,86,131,70,71,129.56,201,25.00,-11.00,-989.00
2024-05-19 09:47:44.607015,1,1,-56,0,0,0,84,87,131,70,71,129.54,201,30.00,-19.00,-1012.00
2024-05-19 09:47:44.784705,2,1,-62,0,0,0,84,87,131,70,71,129.52,201,27.00,0.00,-1014.00
2024-05-19 09:47:44.785017,2,0,-68,0,0,0,84,87,130,70,71,129.49,201,31.00,-16.00,-968.00
2024-05-19 09:47:44.862819,2,0,-74,0,0,0,84,87,129,70,71,129.53,202,31.00,-2.00,-1013.00
2024-05-19 09:47:44.989407,2,0,-80,0,0,0,84,87,128,70,71,129.45,202,48.00,-6.00,-987.00
2024-05-19 09:47:45.066886,2,0,-86,0,0,0,84,87,128,70,71,129.47,202,59.00,3.00,-983.00
2024-05-19 09:47:45.194310,2,0,-92,0,0,0,84,87,127,70,71,129.50,202,68.00,-7.00,-976.00
2024-05-19 09:47:45.271030,2,0,-98,0,0,0,84,87,126,70,71,129.51,202,53.00,25.00,-1018.00
2024-05-19 09:47:45.399096,3,0,-104,0,0,0,84,87,126,70,71,129.49,202,42.00,14.00,-1003.00
2024-05-19 09:47:45.474949,3,-1,-110,0,0,0,84,87,125,70,71,129.48,202,40.00,24.00,-1007.00
2024-05-19 09:47:45.603915,3,-1,-116,0,0,0,84,87,124,70,71,129.47,202,76.00,23.00,-996.00
2024-05-19 09:47:45.678860,3,-1,-123,0,0,0,84,87,124,70,71,129.40,202,30.00,38.00,-963.00
2024-05-19 09:47:45.808689,3,-1,-129,0,0,0,84,87,123,70,71,129.45,202,49.00,43.00,-1019.00
2024-05-19 09:47:45.882869,2,-2,-135,0,0,0,84,87,122,70,71,129.48,203,56.00,50.00,-1004.00
2024-05-19 09:47:46.013420,2,-3,-141,0,0,0,84,87,122,70,71,129.43,203,55.00,58.00,-992.00
2024-05-19 09:47:46.086826,2,-3,-148,0,0,0,84,87,122,70,70,129.61,203,22.00,48.00,-995.00
2024-05-19 09:47:46.218275,1,-2,-154,0,0,0,84,87,120,70,70,129.49,203,4.00,65.00,-1050.00
2024-05-19 09:47:46.290758,0,-2,-160,0,0,0,84,87,120,70,70,129.50,203,23.00,77.00,-1067.00
2024-05-19 09:47:46.423092,0,-3,-166,0,0,0,84,87,119,70,70,129.43,203,12.00,57.00,-1018.00
2024-05-19 09:47:46.495627,0,-3,-171,0,0,0,84,87,118,70,70,129.55,203,19.00,54.00,-1027.00
2024-05-19 09:47:46.627771,0,-3,-177,0,0,0,84,86,118,70,70,129.52,203,0.00,58.00,-996.00
2024-05-19 09:47:46.699440,0,-3,176,0,0,0,84,86,118,70,70,129.36,203,-29.00,73.00,-1058.00
2024-05-19 09:47:46.832664,0,-2,170,0,0,0,84,86,117,70,70,129.38,203,-8.00,51.00,-1001.00
2024-05-19 09:47:46.903619,-1,-2,164,0,0,0,84,86,117,70,70,129.34,204,-33.00,56.00,-1030.00
2024-05-19 09:47:47.037408,-1,-2,157,0,0,0,84,86,117,70,70,129.30,204,-53.00,70.00,-1045.00
2024-05-19 09:47:47.107599,-2,-2,151,0,0,0,84,86,118,70,70,129.31,204,-47.00,52.00,-1041.00
2024-05-19 09:47:47.242214,-3,-1,145,0,0,0,84,86,119,70,70,129.53,204,-55.00,61.00,-956.00
2024-05-19 09:47:47.311556,-3,0,140,0,0,0,84,86,119,70,70,129.44,204,-18.00,73.00,-950.00
2024-05-19 09:47:47.447106,-3,-2,134,0,0,0,84,86,118,70,70,129.34,204,-45.00,65.00,-1048.00
2024-05-19 09:47:47.516230,-2,-2,128,0,0,0,84,86,119,70,70,129.27,204,-62.00,58.00,-999.00
2024-05-19 09:47:47.618009,-2,-2,122,0,0,0,83,86,118,70,70,129.20,204,-63.00,46.00,-1049.00
2024-05-19 09:47:47.720255,-2,-2,116,0,0,0,83,86,118,70,70,129.19,204,-90.00,30.00,-1061.00
2024-05-19 09:47:47.821673,-3,-1,110,0,0,0,83,86,119,70,70,129.37,204,-73.00,12.00,-981.00
2024-05-19 09:47:47.924331,-3,0,104,0,0,0,83,86,119,70,70,129.23,205,-82.00,4.00,-1019.00
2024-05-19 09:47:48.061458,-4,1,98,0,0,0,83,86,119,70,70,129.20,205,-127.00,2.00,-1027.00
2024-05-19 09:47:48.127643,-4,1,92,0,0,0,83,86,119,70,70,129.17,205,-79.00,-24.00,-989.00
2024-05-19 09:47:48.269036,-4,2,86,0,0,0,83,86,120,70,70,129.15,205,-92.00,-7.00,-993.00
2024-05-19 09:47:48.280732,-4,2,80,0,0,0,83,86,120,70,70,129.51,205,-88.00,-20.00,-990.00
2024-05-19 09:47:48.471486,-4,3,74,0,0,0,83,86,120,70,70,129.49,205,-77.00,-43.00,-950.00
2024-05-19 09:47:48.484647,-4,3,68,0,0,0,83,86,120,70,70,129.45,205,-65.00,-19.00,-1019.00
2024-05-19 09:47:48.675853,-4,3,62,0,0,0,84,86,119,70,70,129.47,205,-97.00,-43.00,-1024.00
2024-05-19 09:47:48.688664,-3,3,56,0,0,0,84,86,119,70,70,129.48,205,-73.00,-60.00,-1031.00
2024-05-19 09:47:48.880651,-2,4,51,0,0,0,84,86,119,70,70,129.50,205,-52.00,-47.00,-1010.00
2024-05-19 09:47:48.892905,-2,4,46,0,0,0,84,86,119,70,70,129.51,206,-55.00,-60.00,-1009.00
2024-05-19 09:47:49.085433,-2,5,40,0,0,0,84,86,119,70,70,129.57,206,-71.00,-46.00,-1030.00
2024-05-19 09:47:49.096579,-2,4,34,0,0,0,84,86,119,70,70,129.61,206,-52.00,-68.00,-1033.00
2024-05-19 09:47:49.290248,-2,3,28,0,0,0,84,86,119,70,70,129.57,206,-43.00,-81.00,-991.00
2024-05-19 09:47:49.300539,-1,4,22,0,0,0,84,86,119,70,70,129.51,206,-7.00,-69.00,-1019.00
2024-05-19 09:47:49.495039,-1,5,16,0,0,0,84,86,120,70,70,129.58,206,-24.00,-103.00,-991.00
2024-05-19 09:47:49.504592,-1,5,11,0,0,0,84,86,119,70,70,129.53,206,16.00,-98.00,-938.00
2024-05-19 09:47:49.699717,0,5,7,0,0,0,84,86,120,70,70,129.62,206,50.00,-110.00,-988.00
2024-05-19 09:47:49.708545,1,6,4,0,0,0,84,86,120,70,70,129.61,206,38.00,-97.00,-1017.00
2024-05-19 09:47:49.904668,2,6,2,0,0,0,84,86,120,70,70,129.60,206,27.00,-84.00,-1002.00
2024-05-19 09:47:49.912830,2,6,0,0,0,0,84,86,121,70,70,129.53,207,31.00,-71.00,-971.00
2024-05-19 09:47:50.109433,2,5,-1,0,0,0,84,86,122,70,70,129.56,207,9.00,-57.00,-1094.00
2024-05-19 09:47:50.116570,2,3,-2,0,0,0,84,86,122,70,70,129.54,207,28.00,-78.00,-977.00
2024-05-19 09:47:50.314394,2,3,-3,0,0,0,84,86,124,70,70,129.53,207,57.00,-75.00,-961.00
2024-05-19 09:47:50.320677,2,4,-4,0,0,0,84,86,124,70,70,129.57,207,62.00,-86.00,-960.00
2024-05-19 09:47:50.422635,2,4,-4,0,0,0,84,86,125,70,70,129.53,207,43.00,-98.00,-980.00
2024-05-19 09:47:50.621752,3,5,-4,0,0,0,84,86,126,70,70,129.58,207,46.00,-70.00,-985.00
2024-05-19 09:47:50.626734,2,5,-4,0,0,0,85,86,126,70,70,129.56,207,33.00,-67.00,-986.00
2024-05-19 09:47:50.826511,2,4,-4,0,0,0,85,86,126,70,70,129.52,207,22.00,-63.00,-973.00
2024-05-19 09:47:50.831539,1,4,-4,0,0,0,85,86,126,70,70,129.58,207,6.00,-73.00,-998.00
2024-05-19 09:47:51.031214,1,4,-4,0,0,0,85,86,126,70,70,129.55,208,54.00,-73.00,-926.00
2024-05-19 09:47:51.035487,0,4,-4,0,0,0,85,86,126,70,70,129.51,208,30.00,-63.00,-1045.00
2024-05-19 09:47:51.236038,1,3,-4,0,0,0,85,86,126,70,70,129.54,208,32.00,-58.00,-985.00
2024-05-19 09:47:51.239434,1,3,-4,0,0,0,85,86,125,70,70,129.44,208,17.00,-75.00,-952.00
2024-05-19 09:47:51.341747,1,3,-4,0,0,0,85,86,125,70,70,129.45,208,57.00,-46.00,-1004.00
2024-05-19 09:47:51.443456,1,3,-4,0,0,0,85,86,124,70,70,129.45,208,9.00,-44.00,-1021.00
2024-05-19 09:47:51.545532,1,3,-4,0,0,0,85,86,123,70,70,129.47,208,32.00,-44.00,-1037.00
2024-05-19 09:47:51.647477,1,3,-4,0,0,0,84,86,123,70,70,129.46,208,66.00,-54.00,-918.00
2024-05-19 09:47:51.749455,1,2,-4,0,0,0,84,86,123,70,70,129.42,208,39.00,-55.00,-992.00
2024-05-19 09:47:51.952605,2,2,-4,0,0,0,84,86,122,70,70,129.46,208,20.00,-58.00,-1048.00
2024-05-19 09:47:51.953333,1,3,-4,0,0,0,84,86,123,70,70,129.46,209,21.00,-51.00,-1053.00
2024-05-19 09:47:52.055710,1,3,-4,0,0,0,84,86,122,70,70,129.38,209,50.00,-61.00,-917.00
2024-05-19 09:47:52.106538,1,2,-4,0,0,0,84,86,121,70,70,129.42,209,58.00,-41.00,-977.00
2024-05-19 09:47:52.208466,1,2,-4,0,0,0,84,86,121,70,70,129.50,209,25.00,-1.00,-1082.00
2024-05-19 09:47:52.310528,0,0,-5,0,0,0,84,86,123,70,70,129.48,209,46.00,-91.00,-1713.00
2024-05-19 09:47:52.464988,0,-2,-5,0,0,-6,84,86,131,70,70,129.62,209,46.00,63.00,-1353.00
2024-05-19 09:47:52.515327,0,-25,-5,0,-2,-11,84,86,395,80,70,129.80,209,23.00,527.00,-1007.00
2024-05-19 09:47:52.669439,-1,-132,-2,0,-10,-8,84,87,524,90,70,129.79,209,3.00,517.00,-938.00
2024-05-19 09:47:52.719203,6,105,-3,0,-11,7,84,87,179,90,70,129.77,209,-6.00,267.00,-1424.00
2024-05-19 09:47:52.874174,0,5,-13,1,-5,12,84,87,127,80,70,129.43,209,75.00,-155.00,-1530.00
2024-05-19 09:47:52.923255,-2,-6,-13,1,-6,9,84,87,115,70,70,129.28,210,48.00,30.00,-1371.00
2024-05-19 09:47:53.079021,2,6,-10,2,-7,5,84,87,110,60,70,129.28,210,2.00,45.00,-1279.00
2024-05-19 09:47:53.130029,3,7,-5,2,-5,2,84,87,108,60,69,129.35,210,18.00,-22.00,-1224.00
2024-05-19 09:47:53.229419,3,5,-4,1,-4,0,84,87,108,60,69,129.24,210,10.00,-20.00,-1100.00
2024-05-19 09:47:53.386217,1,3,-4,0,-3,-1,84,87,108,60,69,129.29,210,10.00,-33.00,-1082.00
2024-05-19 09:47:53.436938,1,4,-4,0,-3,-1,84,87,109,60,69,129.27,210,18.00,-42.00,-1052.00
2024-05-19 09:47:53.537401,1,4,-4,0,-3,-1,84,87,111,60,69,129.31,210,6.00,-27.00,-1015.00
2024-05-19 09:47:53.637609,1,4,-4,0,-2,-1,85,87,112,60,69,129.22,210,0.00,-27.00,-1008.00
2024-05-19 09:47:53.795834,1,3,-4,0,-2,-1,85,87,113,60,69,129.26,210,13.00,-19.00,-1008.00
2024-05-19 09:47:53.841720,1,3,-4,0,-2,-1,85,87,115,60,69,129.25,211,15.00,-20.00,-1019.00
2024-05-19 09:47:54.000632,1,3,-4,0,-2,0,85,87,116,60,69,129.27,211,26.00,-42.00,-960.00
2024-05-19 09:47:54.048606,1,3,-4,0,-2,0,85,87,116,60,69,129.33,211,37.00,-40.00,-977.00
2024-05-19 09:47:54.149070,1,3,-4,0,-2,0,85,87,117,60,69,129.31,211,6.00,-38.00,-1004.00
2024-05-19 09:47:54.250430,2,5,-4,0,-2,0,85,87,117,60,69,129.32,211,12.00,-26.00,-1004.00
2024-05-19 09:47:54.351192,1,5,-4,0,-1,0,85,87,117,60,69,129.29,211,29.00,-40.00,-983.00
2024-05-19 09:47:54.453139,1,5,-4,0,-1,0,85,87,118,60,69,129.28,211,33.00,-36.00,-1013.00
2024-05-19 09:47:54.615008,1,4,-4,0,0,0,85,87,118,70,69,129.37,211,52.00,-57.00,-1007.00
2024-05-19 09:47:54.657192,1,4,-4,0,0,0,84,87,118,70,69,129.36,211,26.00,-61.00,-983.00
2024-05-19 09:47:54.819793,1,4,-4,0,0,0,84,87,118,70,69,129.42,211,14.00,-54.00,-966.00
2024-05-19 09:47:54.861168,1,4,-4,0,0,0,84,87,119,70,69,129.48,212,2.00,-40.00,-1024.00
2024-05-19 09:47:55.024613,1,4,-4,0,0,0,84,87,119,70,69,129.47,212,17.00,-50.00,-1066.00
2024-05-19 09:47:55.065123,1,4,-4,0,0,0,84,87,119,60,69,129.36,212,17.00,-40.00,-1030.00
2024-05-19 09:47:55.232254,1,4,-4,0,0,0,84,87,119,60,69,129.29,212,22.00,-53.00,-998.00
2024-05-19 09:47:55.269144,1,4,-4,0,0,0,84,87,119,60,69,129.43,212,16.00,-47.00,-974.00
2024-05-19 09:47:55.434176,0,4,-4,0,0,0,84,87,119,60,69,129.44,212,31.00,-55.00,-996.00
2024-05-19 09:47:55.473900,0,4,-4,0,0,0,84,87,120,60,69,129.44,212,28.00,-48.00,-1024.00
2024-05-19 09:47:55.524138,0,3,-4,0,0,0,84,87,121,60,69,129.47,212,21.00,-56.00,-1025.00
2024-05-19 09:47:55.680542,0,4,-4,0,0,0,85,87,121,70,69,129.44,212,-1.00,-59.00,-1027.00
2024-05-19 09:47:55.728530,0,4,-4,0,0,0,85,87,122,70,69,129.43,212,18.00,-36.00,-1031.00
2024-05-19 09:47:55.843892,0,3,-4,0,0,0,85,87,123,70,69,129.47,213,10.00,-46.00,-988.00
2024-05-19 09:47:55.932725,0,2,-4,0,1,0,85,87,124,70,69,129.45,213,24.00,-30.00,-1034.00
2024-05-19 09:47:56.048784,0,2,-4,0,1,0,85,87,125,70,69,129.53,213,33.00,-51.00,-856.00
2024-05-19 09:47:56.136881,0,2,-4,0,0,0,85,87,125,70,68,129.43,213,0.00,-40.00,-1026.00
2024-05-19 09:47:56.253533,0,2,-4,0,0,0,85,87,124,70,68,129.33,213,22.00,-44.00,-982.00
2024-05-19 09:47:56.340392,0,2,-4,0,0,0,85,87,124,70,68,129.31,213,17.00,-41.00,-980.00
2024-05-19 09:47:56.442477,0,2,-4,0,0,0,85,87,123,70,68,129.34,213,-5.00,-46.00,-1010.00
2024-05-19 09:47:56.560640,0,2,-4,0,0,0,85,87,122,70,68,129.32,213,9.00,-40.00,-1002.00
2024-05-19 09:47:56.646410,0,3,-4,0,0,0,85,87,121,70,68,129.27,213,10.00,-42.00,-1090.00
2024-05-19 09:47:56.765675,0,3,-4,0,0,0,85,87,121,70,68,129.26,213,-2.00,-47.00,-1001.00
2024-05-19 09:47:56.850201,0,3,-4,0,0,0,85,87,120,70,68,129.31,214,11.00,-48.00,-1009.00
2024-05-19 09:47:56.970196,0,2,-4,0,0,0,85,87,118,70,68,129.33,214,12.00,-37.00,-1090.00
2024-05-19 09:47:57.054701,0,2,-4,0,0,0,85,87,118,70,68,129.33,214,2.00,-27.00,-1076.00
2024-05-19 09:47:57.175079,0,2,-4,0,0,0,85,87,117,70,68,129.26,214,-20.00,-34.00,-1041.00
2024-05-19 09:47:57.258279,0,2,-4,0,0,0,85,87,117,60,68,129.38,214,10.00,-35.00,-1025.00
2024-05-19 09:47:57.379772,0,2,-4,0,0,0,85,87,116,60,68,129.30,214,-5.00,-46.00,-1031.00
2024-05-19 09:47:57.462393,0,2,-4,0,0,0,85,87,115,60,68,129.26,214,13.00,-53.00,-938.00
2024-05-19 09:47:57.584608,0,2,-4,0,0,0,85,87,115,60,68,129.31,214,2.00,-51.00,-976.00
2024-05-19 09:47:57.666376,0,2,-4,0,0,0,85,86,115,60,68,129.36,214,-3.00,-29.00,-1022.00
2024-05-19 09:47:57.789792,0,2,-4,0,0,0,85,86,115,60,68,129.37,214,-19.00,-38.00,-1022.00
2024-05-19 09:47:57.870553,-1,2,-4,0,0,0,85,86,115,60,68,129.36,215,-8.00,-48.00,-1017.00
2024-05-19 09:47:57.994251,-1,2,-4,0,0,0,85,86,115,60,68,129.42,215,-11.00,-56.00,-964.00
2024-05-19 09:47:58.074455,-1,2,-4,0,0,0,85,86,116,60,68,129.39,215,-2.00,-29.00,-1040.00
2024-05-19 09:47:58.199172,-1,2,-4,0,0,0,85,86,116,60,68,129.41,215,-52.00,-51.00,-998.00
2024-05-19 09:47:58.278656,-1,2,-4,0,0,0,85,86,116,60,68,129.40,215,-11.00,-54.00,-955.00
2024-05-19 09:47:58.403889,-1,2,-4,0,0,0,85,86,117,60,68,129.36,215,-18.00,-43.00,-996.00
2024-05-19 09:47:58.483607,-1,3,-4,0,0,0,85,86,117,60,68,129.37,215,-23.00,-53.00,-1001.00
2024-05-19 09:47:58.608665,-1,3,-4,0,0,0,85,86,117,60,68,129.40,215,-29.00,-59.00,-1003.00
2024-05-19 09:47:58.687291,-1,3,-4,0,0,0,85,87,118,60,68,129.37,215,-15.00,-46.00,-1014.00
2024-05-19 09:47:58.788977,-1,3,-4,0,0,0,85,87,118,70,68,129.35,215,-43.00,-37.00,-1009.00
2024-05-19 09:47:58.915877,-1,3,-4,0,0,0,85,87,118,70,68,129.51,216,-31.00,-26.00,-1425.00
2024-05-19 09:47:58.992939,0,3,-4,0,0,-5,85,87,123,70,68,129.73,216,-79.00,-72.00,-1754.00
2024-05-19 09:47:59.120536,0,21,-5,0,1,-12,85,87,153,80,68,129.63,216,13.00,-35.00,-1668.00
2024-05-19 09:47:59.197056,0,121,-6,0,8,-9,85,87,570,90,68,129.48,216,36.00,811.00,-1106.00
2024-05-19 09:47:59.325426,2,-108,-5,0,8,6,85,87,6553,90,68,129.31,216,17.00,815.00,-978.00
2024-05-19 09:47:59.351905,0,-3,-2,0,1,10,85,87,133,80,68,129.93,216,4.00,431.00,-1017.00
2024-05-19 09:47:59.452415,0,10,-3,0,4,9,85,87,124,70,68,129.59,216,19.00,11.00,-1418.00
2024-05-19 09:47:59.554083,0,-7,-3,0,4,4,85,87,116,70,68,129.36,216,48.00,-90.00,-1364.00
2024-05-19 09:47:59.735065,0,-5,-4,0,1,1,85,88,113,60,68,129.50,216,48.00,-62.00,-1190.00
2024-05-19 09:47:59.812329,0,0,-4,0,0,0,85,88,111,60,68,129.37,216,27.00,-59.00,-1094.00
2024-05-19 09:47:59.860051,0,2,-4,0,0,-1,85,88,112,60,68,129.42,217,-10.00,-51.00,-1091.00
