TS,pitch,roll,yaw,vgx,vgy,vgz,templ,temph,tof,h,bat,baro,time,agx,agy,agz
2024-05-19 09:48:46.736293,0,0,-6,0,0,0,88,90,10,0,64,128.39,239,0.00,11.00,-1000.00
2024-05-19 09:48:46.834788,0,0,-6,0,0,0,88,90,10,0,64,128.39,239,0.00,10.00,-1000.00
2024-05-19 09:48:46.940924,0,0,-6,0,0,0,88,90,10,0,64,128.38,239,0.00,10.00,-1002.00
2024-05-19 09:48:47.038606,0,0,-6,0,0,0,88,90,10,0,64,128.44,239,0.00,10.00,-1001.00
2024-05-19 09:48:47.145670,0,0,-6,0,0,0,88,90,10,0,64,128.41,239,0.00,10.00,-999.00
2024-05-19 09:48:47.242468,0,0,-6,0,0,0,88,90,10,0,64,128.41,239,0.00,9.00,-1002.00
2024-05-19 09:48:47.350337,0,0,-6,0,0,0,88,90,10,0,64,128.40,239,0.00,10.00,-1000.00
2024-05-19 09:48:47.446548,0,0,-6,0,0,0,88,90,10,0,64,128.40,239,0.00,9.00,-998.00
2024-05-19 09:48:47.555272,0,0,-6,0,0,0,88,90,10,0,64,128.43,239,0.00,11.00,-998.00
2024-05-19 09:48:47.650410,0,0,-6,0,0,0,88,90,10,0,64,128.39,239,0.00,8.00,-1001.00
2024-05-19 09:48:47.759923,0,0,-6,0,0,0,88,90,10,0,64,128.41,239,0.00,9.00,-999.00
2024-05-19 09:48:47.854281,0,0,-6,0,0,0,88,90,10,0,64,128.38,239,0.00,10.00,-999.00
2024-05-19 09:48:47.965296,0,0,-6,0,0,0,87,90,10,0,64,128.39,239,0.00,9.00,-998.00
2024-05-19 09:48:48.058510,0,0,-6,0,0,0,87,90,10,0,64,128.43,239,0.00,10.00,-1000.00
2024-05-19 09:48:48.169715,0,0,-6,0,0,0,87,90,10,0,64,128.40,239,0.00,10.00,-998.00
2024-05-19 09:48:48.262430,0,0,-6,0,0,0,87,90,10,0,64,128.40,239,0.00,10.00,-1001.00
2024-05-19 09:48:48.374523,0,0,-6,0,0,0,87,90,10,0,64,128.41,239,0.00,9.00,-999.00
2024-05-19 09:48:48.466500,0,0,-6,0,0,0,87,90,10,0,64,128.36,239,0.00,10.00,-1001.00
2024-05-19 09:48:48.579400,0,0,-6,0,0,0,87,90,10,0,64,128.42,239,0.00,9.00,-1000.00
2024-05-19 09:48:48.670356,0,0,-6,0,0,0,87,90,10,0,64,128.40,239,-1.00,8.00,-1000.00
2024-05-19 09:48:48.721558,0,0,-6,0,0,0,87,90,10,0,64,128.43,239,0.00,10.00,-1000.00
2024-05-19 09:48:48.886744,0,0,-6,0,0,0,87,90,10,0,64,128.41,239,3.00,9.00,-998.00
2024-05-19 09:48:48.976476,0,0,-6,0,0,0,88,89,10,0,64,128.41,240,-3.00,0.00,-1000.00
2024-05-19 09:48:49.027548,0,0,-6,0,0,0,88,89,10,0,64,128.41,240,-2.00,9.00,-1001.00
2024-05-19 09:48:49.193579,0,0,-6,0,0,0,88,89,10,0,64,128.41,240,5.00,5.00,-986.00
2024-05-19 09:48:49.231593,0,0,-6,0,0,0,88,89,10,0,64,128.41,240,-21.00,29.00,-999.00
2024-05-19 09:48:49.398391,-1,0,-6,0,0,0,88,89,10,0,64,128.41,240,2.00,-1.00,-1080.00
2024-05-19 09:48:49.435604,-2,0,-6,0,0,-2,88,89,10,0,64,128.41,240,-8.00,19.00,-1208.00
2024-05-19 09:48:49.603192,0,0,-6,0,0,-4,88,89,10,0,64,128.41,240,42.00,53.00,-1238.00
2024-05-19 09:48:49.639595,1,-2,-6,0,0,-6,88,89,15,0,64,128.57,240,9.00,37.00,-1104.00
2024-05-19 09:48:49.807936,1,-3,-6,0,0,-7,88,89,23,0,64,128.88,240,3.00,38.00,-1130.00
2024-05-19 09:48:49.843695,1,-2,-6,0,0,-7,88,89,32,10,64,128.96,240,35.00,46.00,-995.00
2024-05-19 09:48:50.012798,1,-2,-6,0,0,-7,88,90,44,20,64,129.12,241,19.00,34.00,-968.00
2024-05-19 09:48:50.047539,1,-2,-6,0,0,-6,88,90,52,20,64,129.16,241,13.00,43.00,-939.00
2024-05-19 09:48:50.217590,1,-2,-6,0,0,-5,88,90,60,30,64,129.25,241,28.00,42.00,-936.00
2024-05-19 09:48:50.251496,1,-3,-6,0,0,-4,88,90,66,30,64,129.25,241,20.00,33.00,-878.00
2024-05-19 09:48:50.422372,1,-3,-6,0,0,-3,88,90,71,40,64,129.30,241,29.00,34.00,-877.00
2024-05-19 09:48:50.455464,1,-3,-6,0,0,-2,88,90,76,40,64,129.40,241,3.00,44.00,-883.00
2024-05-19 09:48:50.627170,1,-3,-6,0,0,-1,88,90,79,40,64,129.35,241,5.00,26.00,-905.00
2024-05-19 09:48:50.660372,1,-2,-6,0,0,-1,88,90,83,40,64,129.40,241,20.00,35.00,-897.00
2024-05-19 09:48:50.832040,0,-3,-6,0,0,0,88,90,85,40,64,129.41,241,-5.00,51.00,-953.00
2024-05-19 09:48:50.863487,0,-3,-6,0,0,0,88,90,86,50,64,129.44,241,3.00,54.00,-1007.00
2024-05-19 09:48:51.036798,0,-2,-6,0,0,0,87,90,87,50,64,129.54,242,13.00,45.00,-908.00
2024-05-19 09:48:51.068268,0,-2,-6,0,0,0,87,90,89,50,64,129.53,242,3.00,31.00,-932.00
2024-05-19 09:48:51.242144,0,-3,-6,0,0,0,87,90,90,50,64,129.46,242,4.00,43.00,-982.00
2024-05-19 09:48:51.271498,0,-2,-6,0,0,0,87,90,90,50,64,129.47,242,31.00,48.00,-936.00
2024-05-19 09:48:51.446382,0,-1,-6,0,0,0,87,90,90,50,64,129.49,242,12.00,53.00,-1033.00
2024-05-19 09:48:51.475390,0,-1,-6,0,0,0,87,90,90,50,64,129.59,242,18.00,51.00,-923.00
2024-05-19 09:48:51.651224,0,-2,-6,0,0,0,87,90,90,50,64,129.60,242,8.00,58.00,-1008.00
2024-05-19 09:48:51.679598,0,-3,-5,0,0,0,87,90,90,50,64,129.59,242,1.00,54.00,-1055.00
2024-05-19 09:48:51.856326,0,-2,-6,0,0,0,87,90,90,50,64,129.55,242,26.00,40.00,-957.00
2024-05-19 09:48:51.883143,0,-2,-6,0,0,0,87,90,90,50,64,129.58,242,24.00,64.00,-1017.00
2024-05-19 09:48:52.060778,0,-2,-6,0,0,0,88,90,90,50,64,129.52,243,25.00,50.00,-1038.00
2024-05-19 09:48:52.088881,0,-3,-6,0,0,0,88,90,90,50,64,129.55,243,27.00,63.00,-927.00
2024-05-19 09:48:52.265587,0,-4,-6,0,0,0,88,90,90,50,64,129.60,243,18.00,59.00,-959.00
2024-05-19 09:48:52.291426,0,-3,-6,0,0,0,88,90,90,50,64,129.49,243,9.00,48.00,-983.00
2024-05-19 09:48:52.470384,1,-2,-6,0,0,0,88,90,90,50,64,129.44,243,20.00,39.00,-948.00
2024-05-19 09:48:52.495524,0,-3,-6,0,0,0,88,90,89,50,64,129.43,243,16.00,49.00,-1011.00
2024-05-19 09:48:52.547095,0,-3,-5,0,0,0,88,90,89,50,64,129.56,243,8.00,53.00,-1020.00
2024-05-19 09:48:52.675189,1,-3,-5,0,0,0,88,90,89,50,64,129.46,243,36.00,45.00,-970.00
2024-05-19 09:48:52.750849,0,-3,-5,0,0,0,88,90,88,50,64,129.48,243,36.00,45.00,-959.00
2024-05-19 09:48:52.852163,1,-3,-5,0,0,0,88,90,88,50,64,129.47,243,19.00,58.00,-978.00
2024-05-19 09:48:53.005471,1,-3,-6,0,0,0,88,90,87,50,64,129.48,244,27.00,70.00,-1017.00
2024-05-19 09:48:53.055985,1,-3,-6,0,0,0,88,90,86,50,64,129.46,244,27.00,61.00,-982.00
2024-05-19 09:48:53.187185,1,-3,-6,0,0,0,88,90,85,50,64,129.46,244,18.00,44.00,-982.00
2024-05-19 09:48:53.260163,1,-3,-6,0,0,0,88,90,85,50,64,129.45,244,-5.00,68.00,-968.00
2024-05-19 09:48:53.391902,1,-3,-6,0,0,0,88,90,84,50,64,129.43,244,27.00,42.00,-996.00
2024-05-19 09:48:53.464223,1,-3,-6,0,0,0,88,90,83,50,64,129.45,244,51.00,60.00,-1038.00
2024-05-19 09:48:53.599840,1,-3,-6,0,0,0,88,90,82,50,64,129.40,244,21.00,62.00,-984.00
2024-05-19 09:48:53.667999,2,-3,-6,0,0,0,88,90,81,50,64,129.45,244,43.00,45.00,-1007.00
2024-05-19 09:48:53.801557,2,-2,-6,0,0,0,88,90,80,50,64,129.43,244,30.00,51.00,-1047.00
2024-05-19 09:48:53.872150,1,-2,-6,0,0,0,88,90,79,50,64,129.37,244,53.00,52.00,-1013.00
2024-05-19 09:48:54.006364,2,-2,-6,0,0,0,88,90,79,50,64,129.34,245,48.00,48.00,-1020.00
2024-05-19 09:48:54.076107,2,-2,-6,0,0,0,88,90,78,50,64,129.44,245,33.00,46.00,-1022.00
2024-05-19 09:48:54.211265,2,-2,-6,0,0,0,88,90,78,40,64,129.33,245,49.00,41.00,-956.00
2024-05-19 09:48:54.280215,2,-2,-6,0,0,0,88,90,77,40,64,129.39,245,28.00,39.00,-1015.00
2024-05-19 09:48:54.382104,2,-2,-6,0,0,0,88,90,76,40,64,129.36,245,45.00,36.00,-982.00
2024-05-19 09:48:54.518341,1,-2,-6,0,0,0,88,90,75,40,64,129.34,245,23.00,35.00,-1017.00
2024-05-19 09:48:54.586248,1,-2,-6,0,0,0,88,90,75,40,64,129.22,245,34.00,27.00,-995.00
2024-05-19 09:48:54.723138,1,-1,-6,0,0,0,88,90,74,40,64,129.33,245,65.00,24.00,-1013.00
2024-05-19 09:48:54.790391,1,-1,-6,0,0,0,88,90,74,40,64,129.38,245,21.00,51.00,-1016.00
2024-05-19 09:48:54.891906,1,-1,-6,0,0,0,88,90,74,40,64,129.31,245,27.00,40.00,-1026.00
2024-05-19 09:48:55.030279,1,-1,-6,0,0,0,87,90,74,40,64,129.39,246,22.00,39.00,-997.00
2024-05-19 09:48:55.096110,1,-1,-6,0,0,0,87,90,75,40,64,129.38,246,21.00,47.00,-1009.00
2024-05-19 09:48:55.198076,1,-1,-6,0,0,0,87,90,75,40,64,129.33,246,22.00,65.00,-1030.00
2024-05-19 09:48:55.337615,0,-2,-6,0,0,0,87,90,76,40,64,129.34,246,11.00,57.00,-989.00
2024-05-19 09:48:55.402179,0,-3,-6,0,0,0,87,90,76,40,64,129.40,246,41.00,46.00,-1017.00
2024-05-19 09:48:55.542490,0,-3,-5,0,0,0,87,90,77,40,64,129.36,246,26.00,51.00,-978.00
2024-05-19 09:48:55.606157,0,-3,-6,0,0,0,87,90,77,40,64,129.32,246,5.00,51.00,-965.00
2024-05-19 09:48:55.747296,0,-3,-6,0,0,0,87,90,77,40,64,129.38,246,26.00,43.00,-1020.00
2024-05-19 09:48:55.810161,0,-3,-6,0,0,0,87,90,77,40,64,129.36,246,31.00,29.00,-971.00
2024-05-19 09:48:55.951972,0,-2,-6,0,0,0,87,90,77,40,64,129.37,246,6.00,51.00,-981.00
2024-05-19 09:48:56.014242,0,-2,-6,0,0,0,87,90,77,40,64,129.39,247,33.00,35.00,-978.00
2024-05-19 09:48:56.156902,0,-2,-6,0,0,0,87,90,78,40,64,129.38,247,20.00,40.00,-990.00
2024-05-19 09:48:56.218114,0,-2,-6,0,0,0,87,90,78,40,64,129.35,247,11.00,53.00,-1041.00
2024-05-19 09:48:56.361737,0,-2,-6,0,0,0,87,90,78,40,64,129.39,247,29.00,41.00,-983.00
2024-05-19 09:48:56.421904,0,-2,-6,0,0,0,87,90,78,40,64,129.43,247,1.00,25.00,-944.00
2024-05-19 09:48:56.566463,0,-2,-6,0,0,0,87,90,79,40,64,129.39,247,3.00,27.00,-1008.00
2024-05-19 09:48:56.626056,0,-2,-6,0,0,0,87,90,80,40,64,129.41,247,39.00,36.00,-967.00
2024-05-19 09:48:56.771291,0,-1,-6,0,0,0,87,90,80,40,64,129.37,247,-24.00,23.00,-1085.00
2024-05-19 09:48:56.779446,0,-1,-6,0,0,0,87,90,81,50,64,129.42,247,15.00,26.00,-957.00
2024-05-19 09:48:56.881374,0,-1,-6,0,0,0,87,90,81,50,64,129.44,247,26.00,45.00,-969.00
2024-05-19 09:48:57.078630,0,-1,-6,0,0,0,88,89,81,50,64,129.33,248,1.00,21.00,-936.00
2024-05-19 09:48:57.085518,0,-2,-6,0,0,0,88,89,81,50,64,129.47,248,5.00,29.00,-996.00
2024-05-19 09:48:57.187195,0,-1,-6,0,0,0,88,89,82,50,64,129.40,248,9.00,41.00,-1017.00
2024-05-19 09:48:57.385539,0,-2,-6,0,0,0,88,89,82,50,64,129.37,248,10.00,35.00,-1025.00
2024-05-19 09:48:57.390902,0,-2,-6,0,0,0,88,89,83,50,64,129.47,248,31.00,36.00,-1071.00
2024-05-19 09:48:57.590323,0,-2,-6,0,0,-1,88,89,84,50,64,129.45,248,5.00,41.00,-1130.00
2024-05-19 09:48:57.595053,0,-1,-6,0,0,-2,88,89,86,50,64,129.49,248,0.00,40.00,-1119.00
2024-05-19 09:48:57.795151,0,-1,-6,0,0,-3,88,89,89,50,64,129.46,248,27.00,36.00,-1047.00
2024-05-19 09:48:57.798933,0,-1,-6,0,0,-3,88,89,93,60,64,129.55,248,6.00,31.00,-1109.00
2024-05-19 09:48:57.901115,0,-2,-6,0,0,-4,88,89,97,60,64,129.54,248,10.00,25.00,-1056.00
2024-05-19 09:48:58.102275,0,-1,-6,0,0,-4,87,90,104,70,64,129.64,249,13.00,18.00,-1044.00
2024-05-19 09:48:58.105156,0,-1,-6,0,0,-5,87,90,110,70,64,129.62,249,-14.00,34.00,-1087.00
2024-05-19 09:48:58.207179,0,0,-6,0,0,-5,87,90,115,80,64,129.63,249,3.00,13.00,-934.00
2024-05-19 09:48:58.309303,0,-1,-6,0,0,-5,87,90,119,80,64,129.62,249,16.00,24.00,-971.00
2024-05-19 09:48:58.511891,0,-1,-6,0,0,-5,87,90,126,90,64,129.79,249,19.00,17.00,-951.00
2024-05-19 09:48:58.513206,0,0,-6,0,0,-5,87,90,131,90,64,129.82,249,25.00,26.00,-945.00
2024-05-19 09:48:58.716652,0,0,-6,0,0,-5,87,90,137,100,64,129.93,249,8.00,26.00,-961.00
2024-05-19 09:48:58.716929,0,-1,-6,0,0,-5,87,90,141,100,64,129.94,249,12.00,16.00,-931.00
2024-05-19 09:48:58.819668,0,-1,-6,0,0,-5,87,90,146,110,64,129.96,249,4.00,17.00,-962.00
2024-05-19 09:48:58.921157,0,-1,-6,0,0,-4,87,90,151,110,64,130.01,249,7.00,24.00,-966.00
2024-05-19 09:48:59.023948,0,0,-6,0,0,-4,87,89,154,120,64,130.09,250,18.00,4.00,-933.00
2024-05-19 09:48:59.126663,0,0,-5,0,0,-3,87,89,158,120,64,130.12,250,-6.00,28.00,-1002.00
2024-05-19 09:48:59.228690,0,0,-5,0,0,-3,87,89,161,120,64,130.11,250,9.00,24.00,-960.00
2024-05-19 09:48:59.331333,0,-1,-6,0,0,-3,87,89,164,130,64,130.17,250,-1.00,16.00,-950.00
2024-05-19 09:48:59.431042,0,0,-6,0,0,-2,87,89,166,130,64,130.19,250,15.00,5.00,-994.00
2024-05-19 09:48:59.536179,0,-1,-6,0,0,-2,87,89,169,130,64,130.14,250,11.00,-2.00,-923.00
2024-05-19 09:48:59.634806,0,0,-6,0,0,-2,87,89,169,130,64,130.24,250,0.00,3.00,-964.00
2024-05-19 09:48:59.740709,0,0,-6,0,0,-1,87,89,172,140,64,130.19,250,32.00,-15.00,-955.00
2024-05-19 09:48:59.838867,0,0,-6,0,0,-1,87,89,173,140,64,130.27,250,2.00,0.00,-1005.00
2024-05-19 09:48:59.945505,0,1,-6,0,0,-1,87,89,174,140,64,130.25,250,0.00,20.00,-1042.00
2024-05-19 09:49:00.043086,0,0,-6,0,0,0,87,90,176,140,64,130.30,251,30.00,32.00,-1030.00
2024-05-19 09:49:00.150312,0,0,-6,0,0,0,87,90,176,140,64,130.25,251,26.00,16.00,-1035.00
2024-05-19 09:49:00.246974,0,0,-6,0,0,0,87,90,177,140,64,130.27,251,-14.00,24.00,-1033.00
2024-05-19 09:49:00.355105,0,-1,-6,0,0,0,87,90,178,140,64,130.19,251,6.00,3.00,-961.00
2024-05-19 09:49:00.451169,0,-1,-6,0,0,0,87,90,179,140,64,130.21,251,-1.00,7.00,-1049.00
2024-05-19 09:49:00.501820,0,0,-6,0,0,0,87,90,179,140,64,130.24,251,13.00,2.00,-967.00
2024-05-19 09:49:00.662432,0,0,-6,0,0,0,87,90,180,140,64,130.31,251,2.00,-2.00,-969.00
2024-05-19 09:49:00.705836,0,0,-6,0,0,0,87,90,181,140,64,130.24,251,16.00,6.00,-1010.00
2024-05-19 09:49:00.867152,0,0,-6,0,0,0,87,90,181,140,64,130.28,251,27.00,5.00,-967.00
2024-05-19 09:49:00.909867,0,0,-6,0,0,0,87,90,182,140,64,130.32,251,2.00,-4.00,-960.00
2024-05-19 09:49:01.072043,0,0,-6,0,0,0,87,89,183,140,64,130.33,252,7.00,5.00,-1044.00
2024-05-19 09:49:01.113740,0,0,-6,0,0,0,87,89,184,140,64,130.35,252,-7.00,8.00,-1087.00
2024-05-19 09:49:01.276831,0,0,-6,0,0,0,87,89,187,150,64,130.34,252,-13.00,7.00,-1035.00
2024-05-19 09:49:01.317867,0,0,-6,0,0,0,87,89,188,150,64,130.37,252,-25.00,-3.00,-945.00
2024-05-19 09:49:01.481789,-1,0,-6,0,0,0,87,89,188,150,64,130.33,252,6.00,0.00,-946.00
2024-05-19 09:49:01.521724,-1,0,-6,0,0,0,87,89,189,150,64,130.37,252,-7.00,1.00,-948.00
2024-05-19 09:49:01.686364,-1,0,-6,0,0,0,87,89,190,150,64,130.36,252,-4.00,7.00,-1015.00
2024-05-19 09:49:01.725793,-1,0,-6,0,0,0,87,89,190,150,64,130.34,252,-32.00,9.00,-1013.00
2024-05-19 09:49:01.891197,0,-1,-6,0,0,0,87,89,189,150,64,130.34,252,-8.00,3.00,-965.00
2024-05-19 09:49:01.930431,-1,-1,-6,0,0,0,87,89,187,150,64,130.36,252,-1.00,-5.00,-917.00
2024-05-19 09:49:02.095936,-1,0,-6,0,0,0,87,90,187,150,64,130.33,253,-31.00,9.00,-1028.00
2024-05-19 09:49:02.133787,-1,0,-6,0,0,0,87,90,185,150,64,130.32,253,-14.00,4.00,-1018.00
2024-05-19 09:49:02.235678,-1,0,-6,0,0,1,87,90,185,150,64,130.36,253,16.00,2.00,-966.00
2024-05-19 09:49:02.403080,-1,0,-6,0,0,0,87,90,183,150,64,130.27,253,-28.00,4.00,-1087.00
2024-05-19 09:49:02.439694,-1,0,-6,0,0,0,87,90,184,150,64,130.28,253,4.00,-4.00,-925.00
2024-05-19 09:49:02.608095,-1,0,-6,0,0,1,87,90,182,140,64,130.23,253,12.00,1.00,-962.00
2024-05-19 09:49:02.643595,-1,0,-6,0,0,1,87,90,180,140,64,130.24,253,-4.00,2.00,-988.00
2024-05-19 09:49:02.812636,-1,0,-6,0,0,1,87,90,179,140,64,130.22,253,-23.00,-3.00,-946.00
2024-05-19 09:49:02.847720,-1,0,-6,0,0,2,87,90,177,140,64,130.22,253,-19.00,1.00,-976.00
2024-05-19 09:49:03.017477,-1,0,-6,0,0,2,87,90,175,140,64,130.18,254,-11.00,-6.00,-949.00
2024-05-19 09:49:03.052650,-1,0,-6,0,0,2,87,89,172,140,64,130.15,254,-7.00,-6.00,-1018.00
2024-05-19 09:49:03.222612,-1,0,-6,0,0,2,87,89,169,130,64,130.12,254,4.00,0.00,-923.00
2024-05-19 09:49:03.256614,0,0,-6,0,0,3,87,89,165,130,64,130.11,254,-7.00,-17.00,-982.00
2024-05-19 09:49:03.427088,-1,0,-6,0,0,3,87,89,162,130,64,130.09,254,-18.00,-5.00,-1034.00
2024-05-19 09:49:03.460705,0,0,-6,0,0,2,87,89,159,120,64,130.05,254,-11.00,-11.00,-1026.00
2024-05-19 09:49:03.631836,0,0,-6,0,0,2,87,89,156,120,64,130.00,254,-7.00,1.00,-1029.00
2024-05-19 09:49:03.664488,-1,0,-6,0,0,2,87,89,154,120,64,129.98,254,-13.00,-8.00,-1006.00
2024-05-19 09:49:03.836699,0,0,-6,0,0,2,87,89,152,120,64,130.01,254,-6.00,-5.00,-1002.00
2024-05-19 09:49:03.869029,0,0,-6,0,0,1,87,89,150,110,64,129.93,254,-15.00,0.00,-1020.00
2024-05-19 09:49:04.041417,-1,0,-6,0,0,1,87,89,146,110,64,129.93,255,-6.00,5.00,-1038.00
2024-05-19 09:49:04.072841,0,0,-6,0,0,2,86,89,144,110,64,129.90,255,-6.00,-11.00,-985.00
2024-05-19 09:49:04.246212,0,0,-6,0,0,2,86,89,142,110,64,129.85,255,24.00,3.00,-981.00
2024-05-19 09:49:04.246363,0,0,-6,0,0,1,86,89,140,100,64,129.87,255,-31.00,-9.00,-1079.00
2024-05-19 09:49:04.327567,0,0,-6,0,0,1,86,89,138,100,64,129.86,255,-23.00,-15.00,-989.00
2024-05-19 09:49:04.429838,0,0,-6,0,0,1,86,89,137,100,64,129.87,255,43.00,8.00,-990.00
2024-05-19 09:49:04.553566,0,0,-6,0,0,0,86,89,136,100,64,129.88,255,-4.00,0.00,-1056.00
2024-05-19 09:49:04.633782,0,0,-6,0,0,0,86,89,135,100,64,129.82,255,19.00,4.00,-1023.00
2024-05-19 09:49:04.758374,0,0,-6,0,0,0,86,89,134,100,64,129.84,255,-8.00,7.00,-1058.00
2024-05-19 09:49:04.837799,0,0,-6,0,0,0,86,89,134,100,64,129.84,255,3.00,-6.00,-1006.00
2024-05-19 09:49:04.963189,0,0,-6,0,0,0,86,89,134,100,64,129.81,256,10.00,0.00,-996.00
2024-05-19 09:49:05.041701,0,0,-6,0,0,0,86,89,134,100,64,129.78,256,10.00,1.00,-1003.00
2024-05-19 09:49:05.167918,0,0,-6,0,0,0,86,89,134,100,64,129.85,256,23.00,9.00,-1040.00
2024-05-19 09:49:05.245681,0,0,-6,0,0,0,86,89,134,100,64,129.84,256,-8.00,8.00,-1027.00
2024-05-19 09:49:05.372795,0,0,-6,0,0,0,86,89,133,100,64,129.75,256,-3.00,2.00,-1016.00
2024-05-19 09:49:05.449572,0,0,-6,0,0,0,86,89,133,100,64,129.76,256,37.00,1.00,-975.00
2024-05-19 09:49:05.577506,0,0,-6,0,0,0,86,89,132,100,64,129.81,256,2.00,7.00,-999.00
2024-05-19 09:49:05.653630,0,0,-6,0,0,0,86,89,131,100,64,129.78,256,29.00,1.00,-967.00
2024-05-19 09:49:05.782382,0,0,-6,0,0,0,86,89,130,100,64,129.77,256,23.00,-2.00,-976.00
2024-05-19 09:49:05.857832,1,0,-6,0,0,0,86,89,129,100,64,129.78,256,49.00,8.00,-997.00
2024-05-19 09:49:05.987116,1,0,-6,0,0,0,86,89,129,100,64,129.79,257,1.00,15.00,-1006.00
2024-05-19 09:49:06.061531,1,0,-6,0,0,0,87,89,128,100,64,129.76,257,32.00,31.00,-1069.00
2024-05-19 09:49:06.191971,1,0,-6,0,0,0,87,89,128,100,64,129.73,257,19.00,11.00,-1021.00
2024-05-19 09:49:06.265590,0,0,-6,0,0,0,87,89,128,100,64,129.69,257,27.00,9.00,-989.00
2024-05-19 09:49:06.397344,0,0,-6,0,0,0,87,89,127,100,64,129.72,257,23.00,2.00,-982.00
2024-05-19 09:49:06.469514,0,0,-6,0,0,0,87,89,127,100,64,129.73,257,27.00,-6.00,-951.00
2024-05-19 09:49:06.601436,0,0,-6,0,0,0,87,89,127,100,64,129.80,257,-20.00,-5.00,-1074.00
2024-05-19 09:49:06.673462,-4,0,-6,0,0,0,87,89,127,100,64,129.76,257,11.00,-5.00,-1007.00
2024-05-19 09:49:06.806243,-8,0,-6,1,0,0,87,89,128,100,64,129.72,257,15.00,-6.00,-997.00
2024-05-19 09:49:06.877607,-8,0,-6,2,0,0,87,89,129,100,64,129.67,257,7.00,0.00,-1023.00
2024-05-19 09:49:06.979560,-8,0,-6,4,0,0,87,89,130,100,64,129.75,258,5.00,-5.00,-993.00
2024-05-19 09:49:07.113462,-7,0,-6,5,0,0,87,89,129,100,64,129.69,258,-8.00,-15.00,-1020.00
2024-05-19 09:49:07.183605,-6,0,-6,6,-1,0,87,89,130,100,64,129.69,258,-9.00,-12.00,-1030.00
2024-05-19 09:49:07.318194,-5,0,-6,7,-1,0,87,89,132,100,64,129.75,258,-5.00,-15.00,-998.00
2024-05-19 09:49:07.389249,-4,1,-6,7,-1,0,87,89,134,100,64,129.75,258,8.00,-9.00,-958.00
2024-05-19 09:49:07.489740,-2,1,-6,8,-1,0,87,89,137,100,64,129.82,258,-33.00,-27.00,-998.00
2024-05-19 09:49:07.591521,0,2,-6,8,0,0,87,89,140,100,64,129.78,258,-28.00,-16.00,-1020.00
2024-05-19 09:49:07.693480,2,1,-6,7,0,0,87,89,142,100,64,129.86,258,-23.00,-10.00,-1007.00
2024-05-19 09:49:07.830223,4,1,-6,6,0,0,87,89,146,100,64,129.97,258,-27.00,-35.00,-1013.00
2024-05-19 09:49:07.846900,5,0,-6,5,0,0,87,89,148,100,64,129.95,258,-39.00,-44.00,-973.00
2024-05-19 09:49:08.034805,3,1,-6,4,0,0,87,89,151,100,64,129.93,259,-22.00,-26.00,-1026.00
2024-05-19 09:49:08.102065,2,1,-6,3,0,-1,87,89,154,110,64,129.94,259,-33.00,-20.00,-1029.00
2024-05-19 09:49:08.243109,1,1,-6,3,0,-1,87,89,156,110,64,130.04,259,-9.00,-30.00,-921.00
2024-05-19 09:49:08.306399,0,1,-6,2,0,0,87,89,157,120,64,130.02,259,8.00,-32.00,-889.00
2024-05-19 09:49:08.444513,0,1,-6,2,0,0,87,89,158,120,64,130.07,259,18.00,-28.00,-897.00
2024-05-19 09:49:08.458240,0,1,-6,2,0,0,87,89,158,120,64,130.00,259,5.00,-16.00,-964.00
2024-05-19 09:49:08.649321,0,1,-6,2,0,0,87,89,157,120,64,130.03,259,-26.00,-19.00,-996.00
2024-05-19 09:49:08.662265,1,0,-6,2,0,1,87,89,157,120,64,129.99,259,0.00,-23.00,-983.00
2024-05-19 09:49:08.854114,5,0,-6,2,0,1,87,89,155,120,64,130.06,259,-1.00,-35.00,-960.00
2024-05-19 09:49:08.866744,4,0,-6,1,0,1,87,89,153,120,64,130.01,259,21.00,-26.00,-959.00
2024-05-19 09:49:08.968717,2,0,-6,0,0,2,87,89,151,110,64,129.88,260,36.00,-25.00,-1004.00
2024-05-19 09:49:09.161789,1,0,-6,0,0,2,87,89,148,110,64,129.93,260,39.00,-19.00,-1008.00
2024-05-19 09:49:09.172423,1,0,-6,0,0,1,87,89,147,110,64,129.88,260,36.00,-21.00,-997.00
2024-05-19 09:49:09.366297,2,0,-6,0,0,1,87,89,145,110,64,129.87,260,25.00,-19.00,-970.00
2024-05-19 09:49:09.376426,2,1,-6,0,0,1,87,89,144,110,64,129.95,260,30.00,-17.00,-1055.00
2024-05-19 09:49:09.571063,2,1,-6,0,0,1,87,89,143,110,64,129.90,260,18.00,-21.00,-1077.00
2024-05-19 09:49:09.580537,1,1,-6,0,0,0,87,89,143,100,64,129.90,260,19.00,-19.00,-927.00
2024-05-19 09:49:09.775970,1,0,-6,0,0,0,87,89,142,100,64,129.81,260,22.00,-32.00,-991.00
2024-05-19 09:49:09.784392,0,1,-6,0,0,0,87,89,141,100,64,129.84,260,14.00,-29.00,-988.00
2024-05-19 09:49:09.981382,0,0,-6,0,0,0,87,89,141,100,64,129.79,260,20.00,-16.00,-1028.00
2024-05-19 09:49:09.990083,0,0,-6,0,0,0,87,89,141,100,64,129.84,261,28.00,-3.00,-1072.00
2024-05-19 09:49:10.090602,0,1,-6,0,0,0,86,88,140,100,64,129.90,261,26.00,-32.00,-999.00
2024-05-19 09:49:10.287812,1,1,-6,0,0,0,86,88,140,100,64,129.82,261,50.00,-23.00,-995.00
2024-05-19 09:49:10.294212,1,0,-6,0,0,0,86,88,139,100,64,129.81,261,20.00,-15.00,-1038.00
2024-05-19 09:49:10.493106,1,0,-6,0,0,0,86,88,140,100,64,129.81,261,41.00,-30.00,-937.00
2024-05-19 09:49:10.498293,0,0,-6,0,0,0,86,88,139,100,64,129.75,261,38.00,-49.00,-1001.00
2024-05-19 09:49:10.697492,0,1,-6,0,0,0,86,88,138,100,64,129.76,261,20.00,-35.00,-1003.00
2024-05-19 09:49:10.702410,1,1,-6,0,0,0,86,88,137,100,64,129.75,261,22.00,-28.00,-1030.00
2024-05-19 09:49:10.902240,1,2,-5,0,0,0,86,88,137,100,64,129.72,261,40.00,-19.00,-990.00
2024-05-19 09:49:10.906296,1,1,-5,0,0,0,86,88,136,100,64,129.71,261,26.00,-38.00,-1016.00
2024-05-19 09:49:11.008564,1,1,-5,0,0,0,86,88,135,100,64,129.66,262,10.00,-33.00,-1056.00
2024-05-19 09:49:11.209326,1,1,-5,0,0,0,87,89,134,100,64,129.69,262,21.00,-29.00,-1003.00
2024-05-19 09:49:11.212180,7,1,-5,0,0,0,87,89,134,100,64,129.61,262,3.00,-27.00,-1046.00
2024-05-19 09:49:11.314269,8,1,-6,-1,0,0,87,89,135,100,64,129.62,262,22.00,-18.00,-1080.00
2024-05-19 09:49:11.416169,8,1,-6,-2,0,0,87,89,133,100,64,129.61,262,29.00,-18.00,-1077.00
2024-05-19 09:49:11.618960,8,1,-6,-3,0,0,87,89,132,100,64,129.62,262,29.00,-31.00,-1015.00
2024-05-19 09:49:11.620045,8,1,-6,-4,0,0,87,89,132,100,64,129.58,262,52.00,-28.00,-939.00
2024-05-19 09:49:11.823657,8,1,-6,-5,0,0,87,89,132,100,64,129.63,262,81.00,-28.00,-1034.00
2024-05-19 09:49:11.824190,8,1,-6,-6,0,0,87,89,131,100,64,129.60,262,48.00,-19.00,-1023.00
2024-05-19 09:49:11.926062,6,1,-6,-7,0,0,87,89,130,100,64,129.65,262,84.00,-35.00,-976.00
2024-05-19 09:49:12.028837,5,1,-6,-7,0,0,87,89,129,100,64,129.62,263,75.00,-27.00,-1015.00
2024-05-19 09:49:12.130951,2,1,-6,-7,0,0,87,89,128,100,63,129.65,263,75.00,-33.00,-1010.00
2024-05-19 09:49:12.233305,0,0,-6,-7,0,0,87,89,128,100,63,129.65,263,68.00,-40.00,-960.00
2024-05-19 09:49:12.335731,-2,0,-6,-6,0,0,87,89,127,100,63,129.64,263,57.00,-38.00,-1012.00
2024-05-19 09:49:12.385296,-3,0,-6,-5,0,0,87,89,127,100,63,129.63,263,63.00,-42.00,-1024.00
2024-05-19 09:49:12.540549,-2,1,-6,-4,0,0,87,89,127,100,63,129.70,263,54.00,-40.00,-1020.00
2024-05-19 09:49:12.589063,-1,2,-6,-3,0,0,87,89,126,100,63,129.66,263,42.00,-39.00,-1049.00
2024-05-19 09:49:12.745330,0,2,-6,-3,0,0,87,89,125,90,63,129.58,263,48.00,-44.00,-957.00
2024-05-19 09:49:12.793099,0,2,-6,-3,0,0,87,89,125,90,63,129.64,263,49.00,-50.00,-1036.00
2024-05-19 09:49:12.952911,0,4,-6,-2,0,0,87,89,125,90,63,129.64,263,59.00,-35.00,-951.00
2024-05-19 09:49:12.997236,0,5,-6,-2,0,0,87,89,125,90,63,129.67,264,37.00,-54.00,-1005.00
2024-05-19 09:49:13.155004,1,4,-6,-2,0,0,87,89,124,90,63,129.62,264,39.00,-38.00,-1047.00
2024-05-19 09:49:13.202636,1,4,-6,-2,0,0,87,89,124,90,63,129.64,264,25.00,-47.00,-1039.00
2024-05-19 09:49:13.303026,1,0,-6,-1,0,0,87,89,125,90,63,129.61,264,48.00,-44.00,-1057.00
2024-05-19 09:49:13.462153,1,0,-6,-1,0,0,87,89,125,90,63,129.61,264,44.00,-49.00,-1034.00
2024-05-19 09:49:13.507105,-1,2,-6,-1,0,0,87,89,126,90,63,129.60,264,33.00,-66.00,-984.00
2024-05-19 09:49:13.667479,-2,2,-6,0,0,0,87,89,127,90,63,129.61,264,42.00,-50.00,-987.00
2024-05-19 09:49:13.711181,0,2,-6,0,0,0,87,89,128,90,63,129.72,264,45.00,-56.00,-970.00
2024-05-19 09:49:13.874298,0,2,-6,0,0,0,87,89,129,100,63,129.58,264,4.00,-49.00,-1060.00
2024-05-19 09:49:13.915097,1,2,-6,0,0,0,87,89,129,100,63,129.67,264,44.00,-49.00,-972.00
2024-05-19 09:49:14.076656,1,2,-6,0,0,0,87,89,130,100,63,129.66,265,39.00,-39.00,-1013.00
2024-05-19 09:49:14.119173,1,2,-6,0,0,0,86,89,130,100,63,129.61,265,23.00,-48.00,-972.00
2024-05-19 09:49:14.281787,1,2,-6,0,0,0,86,89,130,100,63,129.55,265,-1.00,-24.00,-1038.00
2024-05-19 09:49:14.323116,1,2,-6,0,0,0,86,89,130,100,63,129.56,265,4.00,-35.00,-1025.00
2024-05-19 09:49:14.427103,1,2,-6,0,0,0,86,89,130,100,63,129.65,265,23.00,-50.00,-962.00
2024-05-19 09:49:14.527787,1,2,-6,0,0,0,86,89,129,100,63,129.60,265,-3.00,-45.00,-995.00
2024-05-19 09:49:14.691347,1,3,-6,0,0,0,86,89,130,100,63,129.61,265,-11.00,-47.00,-1001.00
2024-05-19 09:49:14.731184,1,3,-5,0,0,0,86,89,129,100,63,129.58,265,0.00,-32.00,-1015.00
2024-05-19 09:49:14.833144,0,3,-5,0,0,0,86,89,129,100,63,129.61,265,6.00,-27.00,-1004.00
2024-05-19 09:49:14.935143,0,2,-5,0,0,0,86,89,129,100,63,129.58,265,14.00,-50.00,-993.00
2024-05-19 09:49:15.100631,0,2,-5,0,0,0,86,89,128,100,63,129.68,266,0.00,-41.00,-1019.00
2024-05-19 09:49:15.139082,0,1,-6,0,0,0,87,89,128,100,62,129.67,266,-9.00,-57.00,-1003.00
2024-05-19 09:49:15.241533,0,2,-6,0,0,0,87,89,128,100,62,129.63,266,6.00,-37.00,-1011.00
2024-05-19 09:49:15.343101,0,2,-6,0,0,0,87,89,128,100,62,129.67,266,-10.00,-53.00,-968.00
2024-05-19 09:49:15.510213,0,2,-6,0,0,0,87,89,129,100,62,129.65,266,11.00,-53.00,-989.00
2024-05-19 09:49:15.547441,0,2,-6,0,0,0,87,89,129,100,62,129.67,266,20.00,-35.00,-967.00
2024-05-19 09:49:15.649158,0,2,-6,0,0,0,87,89,129,100,62,129.65,266,21.00,-52.00,-930.00
2024-05-19 09:49:15.750969,0,2,-6,0,0,0,87,89,129,100,62,129.64,266,-3.00,-50.00,-983.00
2024-05-19 09:49:15.852941,0,-1,-6,0,0,0,87,89,129,100,62,129.61,266,-7.00,-16.00,-951.00
2024-05-19 09:49:15.954944,0,-7,-6,0,-1,0,87,89,130,100,62,129.63,267,2.00,-54.00,-1073.00
2024-05-19 09:49:16.056967,-1,-4,-6,0,-2,0,87,89,130,100,62,129.59,267,6.00,-35.00,-996.00
2024-05-19 09:49:16.159127,0,-2,-6,0,-3,0,88,89,131,100,62,129.55,267,11.00,-10.00,-1000.00
2024-05-19 09:49:16.329347,0,0,-6,0,-3,0,88,89,130,100,62,129.58,267,-12.00,-15.00,-1066.00
2024-05-19 09:49:16.363028,0,2,-6,0,-3,0,88,89,130,100,62,129.59,267,0.00,8.00,-1005.00
2024-05-19 09:49:16.465429,0,2,-6,0,-3,0,88,89,130,100,62,129.62,267,38.00,-12.00,-958.00
2024-05-19 09:49:16.636537,0,1,-6,0,-3,0,88,89,130,100,62,129.63,267,8.00,-20.00,-949.00
2024-05-19 09:49:16.668947,0,1,-6,0,-2,0,88,89,129,100,62,129.59,267,-2.00,-16.00,-1047.00
2024-05-19 09:49:16.720261,0,1,-6,0,-3,0,88,89,129,100,62,129.58,267,-2.00,-18.00,-985.00
2024-05-19 09:49:16.841343,0,2,-6,0,-3,0,88,89,129,100,62,129.60,267,20.00,-22.00,-1025.00
2024-05-19 09:49:16.923862,0,2,-6,0,-2,0,88,89,129,100,62,129.62,268,-6.00,-22.00,-1046.00
2024-05-19 09:49:17.025900,0,2,-6,0,-2,0,88,89,129,100,62,129.60,268,9.00,-27.00,-976.00
2024-05-19 09:49:17.148528,0,2,-6,0,-2,0,87,90,129,100,62,129.60,268,10.00,-24.00,-984.00
2024-05-19 09:49:17.230034,0,2,-6,0,-2,0,87,90,129,100,62,129.62,268,8.00,-27.00,-973.00
2024-05-19 09:49:17.353339,0,2,-6,0,-2,0,87,90,130,100,62,129.56,268,-15.00,-28.00,-1042.00
2024-05-19 09:49:17.433923,0,3,-6,0,-2,0,87,90,130,100,62,129.61,268,6.00,-8.00,-1077.00
2024-05-19 09:49:17.558122,0,6,-6,0,-1,0,87,90,131,100,62,129.63,268,-3.00,-27.00,-927.00
2024-05-19 09:49:17.637923,0,4,-6,0,0,0,87,90,131,100,62,129.56,268,11.00,-20.00,-1006.00
2024-05-19 09:49:17.739993,0,3,-6,0,0,0,87,90,131,100,62,129.68,268,27.00,-29.00,-941.00
2024-05-19 09:49:17.865486,0,2,-6,0,0,0,87,90,132,100,62,129.67,268,6.00,-22.00,-1023.00
2024-05-19 09:49:17.943871,0,2,-6,0,0,0,87,90,132,100,62,129.60,269,28.00,-27.00,-926.00
2024-05-19 09:49:18.070172,0,2,-6,0,0,0,87,90,132,100,62,129.63,269,14.00,-26.00,-1076.00
2024-05-19 09:49:18.148096,0,1,-6,0,0,0,87,89,134,100,62,129.59,269,17.00,-42.00,-979.00
2024-05-19 09:49:18.275548,0,1,-6,0,0,0,87,89,134,100,62,129.61,269,13.00,-53.00,-894.00
2024-05-19 09:49:18.352976,0,2,-6,0,0,0,87,89,135,100,62,129.61,269,33.00,-36.00,-986.00
2024-05-19 09:49:18.455730,0,2,-6,0,0,0,87,89,136,100,62,129.61,269,3.00,-26.00,-1091.00
2024-05-19 09:49:18.555994,0,2,-6,0,0,0,87,89,137,100,62,129.51,269,27.00,-36.00,-997.00
2024-05-19 09:49:18.658202,0,2,-6,0,0,0,87,89,138,100,62,129.50,269,21.00,-54.00,-937.00
2024-05-19 09:49:18.760042,0,2,-6,0,0,0,87,89,138,100,62,129.56,269,19.00,-35.00,-972.00
2024-05-19 09:49:18.861923,0,2,-6,0,0,0,87,89,138,100,62,129.56,269,-17.00,-36.00,-1016.00
2024-05-19 09:49:18.963906,0,2,-6,0,0,0,87,89,139,100,62,129.62,270,36.00,-51.00,-934.00
2024-05-19 09:49:19.094609,1,2,-5,0,0,0,87,89,139,100,62,129.71,270,0.00,-52.00,-1004.00
2024-05-19 09:49:19.168277,1,2,-5,0,0,0,86,89,139,100,62,129.72,270,6.00,-43.00,-1006.00
2024-05-19 09:49:19.299045,0,2,-6,0,0,0,86,89,138,100,62,129.65,270,10.00,-38.00,-968.00
2024-05-19 09:49:19.371930,0,2,-6,0,0,0,86,89,137,100,62,129.60,270,19.00,-42.00,-1004.00
2024-05-19 09:49:19.503696,0,2,-6,0,0,0,86,89,137,100,62,129.61,270,12.00,-43.00,-960.00
2024-05-19 09:49:19.575950,0,2,-6,0,0,0,86,89,137,100,62,129.54,270,12.00,-48.00,-968.00
2024-05-19 09:49:19.692134,0,2,-6,0,0,0,86,89,135,100,62,129.52,270,0.00,-36.00,-1018.00
2024-05-19 09:49:19.779746,0,2,-6,0,0,0,86,89,135,100,62,129.47,270,16.00,-52.00,-989.00
2024-05-19 09:49:19.913212,0,4,-6,0,0,0,86,89,135,100,62,129.59,270,22.00,-61.00,-1008.00
2024-05-19 09:49:19.983728,0,9,-6,0,0,0,86,89,136,100,62,129.57,271,-37.00,-24.00,-934.00
2024-05-19 09:49:20.085730,0,8,-6,0,1,0,86,89,136,100,62,129.65,271,5.00,-45.00,-1030.00
2024-05-19 09:49:20.220466,0,8,-6,0,2,0,87,89,135,100,61,129.69,271,1.00,-40.00,-1000.00
2024-05-19 09:49:20.290393,0,6,-6,0,3,0,87,89,134,100,61,129.70,271,1.00,-72.00,-990.00
2024-05-19 09:49:20.425312,0,2,-6,0,3,0,87,89,133,100,61,129.65,271,18.00,-79.00,-981.00
2024-05-19 09:49:20.494851,0,1,-6,0,3,0,87,89,134,100,61,129.60,271,0.00,-53.00,-1042.00
2024-05-19 09:49:20.544729,0,2,-6,0,3,0,87,89,134,100,61,129.59,271,-9.00,-73.00,-1036.00
2024-05-19 09:49:20.732496,0,2,-6,0,2,0,87,89,135,100,61,129.58,271,0.00,-61.00,-1000.00
2024-05-19 09:49:20.748731,0,2,-6,0,2,0,87,89,134,100,61,129.62,271,9.00,-68.00,-917.00
2024-05-19 09:49:20.937272,0,2,-6,0,2,0,87,89,135,100,61,129.66,271,6.00,-56.00,-952.00
2024-05-19 09:49:20.952655,-1,2,-6,0,2,0,87,89,134,100,61,129.66,272,-3.00,-61.00,-995.00
2024-05-19 09:49:21.142076,0,2,-6,0,2,0,87,89,135,100,61,129.57,272,17.00,-55.00,-980.00
2024-05-19 09:49:21.208019,0,2,-6,0,2,0,87,89,134,100,61,129.63,272,5.00,-48.00,-974.00
2024-05-19 09:49:21.258543,0,2,-6,0,2,0,87,89,133,100,61,129.61,272,12.00,-47.00,-984.00
2024-05-19 09:49:21.449287,0,1,-6,0,2,0,87,89,132,100,61,129.65,272,7.00,-51.00,-932.00
2024-05-19 09:49:21.462964,0,1,-6,0,2,0,87,89,131,100,61,129.59,272,18.00,-61.00,-1004.00
2024-05-19 09:49:21.654978,0,0,-6,0,1,0,87,89,130,100,61,129.58,272,29.00,-58.00,-1045.00
2024-05-19 09:49:21.666593,0,0,-6,0,1,0,87,89,129,100,61,129.58,272,-1.00,-46.00,-1040.00
2024-05-19 09:49:21.858923,0,-1,-6,0,0,0,87,89,129,100,61,129.54,272,6.00,-49.00,-1068.00
2024-05-19 09:49:21.871032,0,0,-6,0,0,0,87,89,128,100,61,129.51,272,-4.00,-46.00,-1006.00
2024-05-19 09:49:21.972808,0,1,-6,0,0,0,87,89,128,100,61,129.56,273,4.00,-49.00,-986.00
2024-05-19 09:49:22.166119,0,2,-6,0,0,0,87,89,127,100,61,129.58,273,20.00,-59.00,-979.00
2024-05-19 09:49:22.176711,0,2,-6,0,0,0,87,89,127,100,61,129.55,273,3.00,-43.00,-1002.00
2024-05-19 09:49:22.370951,0,2,-6,0,0,0,87,89,126,100,61,129.51,273,15.00,-46.00,-985.00
2024-05-19 09:49:22.380749,0,2,-6,0,0,0,87,89,125,100,61,129.52,273,-8.00,-53.00,-1027.00
2024-05-19 09:49:22.575769,0,3,-6,0,0,0,87,89,124,90,61,129.53,273,-7.00,-44.00,-1050.00
2024-05-19 09:49:22.585531,0,3,-6,0,0,0,87,89,124,90,61,129.50,273,7.00,-41.00,-940.00
2024-05-19 09:49:22.780684,0,3,-6,0,0,0,87,89,124,90,61,129.51,273,-11.00,-28.00,-1038.00
2024-05-19 09:49:22.789593,0,2,-6,0,0,0,87,89,124,90,61,129.45,273,-14.00,-34.00,-1060.00
2024-05-19 09:49:22.985302,0,2,-6,0,0,0,87,89,124,90,61,129.45,273,20.00,-27.00,-1060.00
2024-05-19 09:49:22.996030,0,2,-6,0,0,0,87,89,124,90,61,129.41,274,30.00,-43.00,-981.00
2024-05-19 09:49:23.095676,0,2,-6,0,0,0,87,89,125,90,61,129.46,274,9.00,-47.00,-1004.00
2024-05-19 09:49:23.293078,0,2,-6,0,0,0,86,89,126,90,61,129.48,274,1.00,-41.00,-1028.00
2024-05-19 09:49:23.299845,0,2,-6,0,0,0,86,89,126,90,61,129.50,274,-1.00,-44.00,-994.00
2024-05-19 09:49:23.497706,0,2,-6,0,0,0,86,89,128,90,61,129.52,274,0.00,-38.00,-968.00
2024-05-19 09:49:23.503797,0,2,-6,0,0,0,86,89,128,100,61,129.50,274,-2.00,-31.00,-1007.00
2024-05-19 09:49:23.702074,0,2,-6,0,0,0,86,89,130,100,61,129.50,274,0.00,-36.00,-975.00
2024-05-19 09:49:23.707709,0,2,-6,0,0,0,86,89,131,100,61,129.53,274,0.00,-37.00,-995.00
2024-05-19 09:49:23.874258,0,2,-6,0,0,0,86,89,132,100,61,129.53,274,-19.00,-30.00,-1000.00
2024-05-19 09:49:23.911697,0,2,-6,0,0,0,86,89,132,100,61,129.54,274,-3.00,-19.00,-1003.00
2024-05-19 09:49:24.111622,0,1,-6,0,0,0,86,89,133,100,61,129.64,275,-9.00,-34.00,-946.00
2024-05-19 09:49:24.115633,-1,1,-2,0,0,0,86,89,133,100,61,129.47,275,14.00,-12.00,-958.00
2024-05-19 09:49:24.316389,-1,1,2,0,0,0,87,89,134,100,61,129.55,275,-21.00,-30.00,-972.00
2024-05-19 09:49:24.319428,-1,1,8,0,0,0,87,89,134,100,61,129.47,275,-54.00,-40.00,-1017.00
2024-05-19 09:49:24.421461,-1,0,14,0,0,0,87,89,134,100,61,129.51,275,-7.00,-25.00,-1016.00
2024-05-19 09:49:24.523492,-2,1,19,0,0,0,87,89,135,100,61,129.51,275,20.00,-30.00,-896.00
2024-05-19 09:49:24.625512,-2,0,25,0,0,0,87,89,135,100,61,129.58,275,4.00,-30.00,-886.00
2024-05-19 09:49:24.828473,-2,1,31,0,0,0,87,89,134,100,61,129.49,275,-31.00,-37.00,-1037.00
2024-05-19 09:49:24.829553,-2,1,36,0,0,0,87,89,135,100,61,129.51,275,-31.00,-32.00,-1023.00
2024-05-19 09:49:24.881061,-2,1,42,0,0,0,87,89,135,100,61,129.46,275,-38.00,-34.00,-930.00
2024-05-19 09:49:24.983878,-2,1,48,0,0,0,87,89,135,100,61,129.45,276,-36.00,-21.00,-956.00
2024-05-19 09:49:25.084652,-2,1,53,0,0,0,87,89,134,100,60,129.46,276,-28.00,-19.00,-956.00
2024-05-19 09:49:25.238029,-3,1,59,0,0,0,87,89,134,100,60,129.43,276,-68.00,-26.00,-1038.00
2024-05-19 09:49:25.288449,-3,1,65,0,0,0,87,89,134,100,60,129.42,276,-64.00,-5.00,-1101.00
2024-05-19 09:49:25.442856,-3,1,71,0,0,0,87,89,135,100,60,129.48,276,-61.00,-18.00,-961.00
2024-05-19 09:49:25.492501,-3,0,77,0,0,0,87,89,135,100,60,129.46,276,-40.00,-3.00,-999.00
2024-05-19 09:49:25.647570,-3,0,83,0,0,0,87,89,135,100,60,129.53,276,-22.00,9.00,-1002.00
2024-05-19 09:49:25.696421,-3,0,88,0,0,0,87,89,136,100,60,129.46,276,-47.00,10.00,-985.00
2024-05-19 09:49:25.852400,-3,0,94,0,0,0,87,89,136,100,60,129.34,276,-28.00,6.00,-961.00
2024-05-19 09:49:25.900525,-3,0,100,0,0,0,87,89,137,100,60,129.45,276,-57.00,1.00,-993.00
2024-05-19 09:49:26.057277,-2,0,106,0,0,0,87,89,137,100,60,129.45,277,-47.00,27.00,-1034.00
2024-05-19 09:49:26.105459,-2,0,112,0,0,0,87,89,137,100,60,129.44,277,-32.00,29.00,-973.00
2024-05-19 09:49:26.262048,-3,0,118,0,0,0,87,89,137,100,60,129.51,277,-57.00,5.00,-940.00
2024-05-19 09:49:26.309365,-2,-1,124,0,0,0,87,89,136,100,60,129.42,277,-48.00,39.00,-1010.00
2024-05-19 09:49:26.466831,-2,-1,130,0,0,0,87,89,136,100,60,129.47,277,-59.00,32.00,-965.00
2024-05-19 09:49:26.513310,-2,-1,136,0,0,0,87,89,135,100,60,129.42,277,-48.00,45.00,-987.00
2024-05-19 09:49:26.671531,-1,-2,142,0,0,0,87,89,134,100,60,129.58,277,-18.00,49.00,-960.00
2024-05-19 09:49:26.717343,-1,-2,148,0,0,0,87,89,134,100,60,129.53,277,-43.00,41.00,-984.00
2024-05-19 09:49:26.876345,-1,-1,154,0,0,0,87,89,133,100,60,129.54,277,-34.00,47.00,-1015.00
2024-05-19 09:49:26.921317,-1,-1,160,0,0,0,87,89,133,100,60,129.45,277,-30.00,48.00,-1012.00
2024-05-19 09:49:27.081063,-1,-1,165,0,0,0,87,89,133,100,60,129.52,278,-7.00,44.00,-995.00
2024-05-19 09:49:27.125323,0,-1,171,0,0,0,87,89,132,100,60,129.61,278,1.00,57.00,-1031.00
2024-05-19 09:49:27.285946,0,-1,178,0,0,0,86,89,133,100,60,129.51,278,-12.00,50.00,-1101.00
2024-05-19 09:49:27.329323,0,-1,-175,0,0,0,86,89,133,100,60,129.53,278,15.00,39.00,-994.00
2024-05-19 09:49:27.490732,0,-1,-169,0,0,0,86,89,133,100,60,129.52,278,3.00,59.00,-1011.00
2024-05-19 09:49:27.533635,0,-2,-163,0,0,0,86,89,132,100,60,129.57,278,-21.00,56.00,-974.00
2024-05-19 09:49:27.695557,0,-2,-157,0,0,0,86,89,133,100,60,129.55,278,31.00,40.00,-952.00
2024-05-19 09:49:27.737269,0,-2,-150,0,0,0,86,89,132,100,60,129.49,278,16.00,40.00,-1002.00
2024-05-19 09:49:27.900416,0,-2,-144,0,0,0,86,89,131,100,60,129.42,278,20.00,30.00,-953.00
2024-05-19 09:49:27.941372,0,-1,-138,0,0,0,86,89,130,100,60,129.48,278,0.00,49.00,-1013.00
2024-05-19 09:49:28.105139,0,0,-132,0,0,0,86,89,130,100,60,129.44,279,6.00,53.00,-1105.00
2024-05-19 09:49:28.145278,0,0,-126,0,0,0,86,89,130,100,60,129.42,279,34.00,48.00,-1082.00
2024-05-19 09:49:28.309906,0,0,-120,0,0,0,86,88,130,100,60,129.42,279,26.00,13.00,-988.00
2024-05-19 09:49:28.349222,0,0,-114,0,0,0,86,88,131,100,60,129.39,279,47.00,26.00,-977.00
2024-05-19 09:49:28.451431,1,0,-107,0,0,0,86,88,130,100,60,129.39,279,52.00,29.00,-964.00
2024-05-19 09:49:28.617114,1,0,-101,0,0,0,86,88,130,100,60,129.44,279,31.00,29.00,-1053.00
2024-05-19 09:49:28.617193,1,0,-95,0,0,0,86,88,131,100,60,129.42,279,22.00,24.00,-1025.00
2024-05-19 09:49:28.706253,1,0,-89,0,0,0,86,88,131,100,60,129.40,279,38.00,20.00,-998.00
2024-05-19 09:49:28.821909,1,0,-83,0,0,0,86,88,130,100,60,129.36,279,30.00,-8.00,-945.00
2024-05-19 09:49:28.910288,1,0,-77,0,0,0,86,88,130,100,60,129.33,279,46.00,-8.00,-895.00
2024-05-19 09:49:29.026706,1,0,-71,0,0,0,86,88,130,100,60,129.38,280,35.00,-4.00,-968.00
2024-05-19 09:49:29.114200,1,1,-65,0,0,0,86,88,131,100,60,129.37,280,48.00,-9.00,-979.00
2024-05-19 09:49:29.267812,1,1,-53,0,0,0,86,89,131,100,60,129.35,280,39.00,-7.00,-956.00
2024-05-19 09:49:29.318200,1,1,-47,0,0,0,86,89,131,100,60,129.40,280,60.00,-3.00,-983.00
2024-05-19 09:49:29.436319,1,1,-41,0,0,0,86,89,130,100,60,129.35,280,15.00,5.00,-1080.00
2024-05-19 09:49:29.522180,0,1,-35,0,0,0,86,89,131,100,60,129.42,280,-12.00,0.00,-1021.00
2024-05-19 09:49:29.641137,0,1,-29,0,0,0,86,89,131,100,60,129.40,280,19.00,-12.00,-938.00
2024-05-19 09:49:29.726169,0,1,-24,0,0,0,86,89,130,100,60,129.42,280,24.00,-12.00,-968.00
2024-05-19 09:49:29.845963,0,1,-19,0,0,0,86,89,131,100,60,129.46,280,14.00,-19.00,-996.00
2024-05-19 09:49:29.934389,0,1,-16,0,0,0,86,89,130,100,60,129.41,281,22.00,-17.00,-982.00
2024-05-19 09:49:30.032105,0,1,-13,0,0,0,86,89,129,100,60,129.46,281,23.00,-26.00,-977.00
2024-05-19 09:49:30.153109,0,1,-11,0,0,0,86,89,129,100,60,129.37,281,-1.00,-16.00,-1077.00
2024-05-19 09:49:30.236268,0,2,-10,0,0,0,86,89,129,100,60,129.40,281,13.00,-15.00,-1034.00
2024-05-19 09:49:30.357850,0,2,-9,0,0,0,86,89,128,100,60,129.44,281,-19.00,-27.00,-974.00
2024-05-19 09:49:30.440089,0,1,-8,0,0,0,86,89,129,100,60,129.49,281,-10.00,-20.00,-1016.00
2024-05-19 09:49:30.542251,0,2,-7,0,0,0,86,89,129,100,60,129.43,281,-27.00,-14.00,-1049.00
2024-05-19 09:49:30.665219,0,1,-7,0,0,0,86,89,130,100,60,129.45,281,-3.00,-11.00,-1008.00
2024-05-19 09:49:30.746444,0,1,-7,0,0,0,86,89,130,100,60,129.45,281,4.00,-19.00,-1051.00
2024-05-19 09:49:30.869953,0,1,-8,0,0,0,86,89,131,100,60,129.49,281,7.00,-32.00,-928.00
2024-05-19 09:49:30.950534,0,2,-8,0,0,0,86,89,132,100,60,129.47,282,17.00,-17.00,-998.00
2024-05-19 09:49:31.074862,0,2,-8,0,0,0,86,89,132,100,60,129.49,282,-6.00,-16.00,-1096.00
2024-05-19 09:49:31.154178,0,1,-8,0,0,-1,86,89,134,100,60,129.51,282,2.00,-6.00,-1009.00
2024-05-19 09:49:31.279721,0,1,-8,0,0,0,86,89,136,100,60,129.43,282,9.00,-24.00,-916.00
2024-05-19 09:49:31.358259,0,1,-8,0,0,0,86,89,136,100,60,129.50,282,-4.00,-14.00,-981.00
2024-05-19 09:49:31.484312,0,1,-8,0,0,0,86,89,136,100,60,129.53,282,-2.00,-11.00,-985.00
2024-05-19 09:49:31.562469,0,1,-8,0,0,0,86,89,136,100,60,129.51,282,1.00,-24.00,-974.00
2024-05-19 09:49:31.689650,0,1,-8,0,0,0,86,89,137,100,60,129.51,282,5.00,-27.00,-940.00
2024-05-19 09:49:31.767696,0,1,-8,0,0,0,86,89,138,100,60,129.48,282,4.00,-10.00,-925.00
2024-05-19 09:49:31.894401,0,1,-7,0,0,0,86,89,138,100,60,129.54,282,18.00,-13.00,-980.00
2024-05-19 09:49:31.972005,0,1,-7,0,0,0,86,89,139,100,60,129.56,283,-7.00,-12.00,-1030.00
2024-05-19 09:49:32.072574,0,1,-8,0,0,0,86,89,139,100,60,129.61,283,-3.00,-14.00,-1005.00
2024-05-19 09:49:32.174873,0,1,-8,0,0,0,86,89,139,100,60,129.56,283,-14.00,-20.00,-1017.00
2024-05-19 09:49:32.276164,-1,1,-8,0,0,0,87,89,141,100,60,129.48,283,6.00,-5.00,-1002.00
2024-05-19 09:49:32.406173,-1,1,-7,0,0,0,87,89,142,100,60,129.51,283,3.00,-7.00,-954.00
2024-05-19 09:49:32.480188,0,0,-7,0,0,0,87,89,142,100,60,129.50,283,23.00,-22.00,-904.00
2024-05-19 09:49:32.582016,0,0,-7,0,0,0,87,89,143,100,60,129.44,283,-3.00,-7.00,-1068.00
2024-05-19 09:49:32.712996,0,0,-10,0,0,0,87,89,143,110,60,129.50,283,-16.00,13.00,-968.00
2024-05-19 09:49:32.737360,0,1,-15,0,0,0,87,89,142,110,60,129.51,283,14.00,-20.00,-970.00
2024-05-19 09:49:32.836926,0,0,-21,0,0,0,87,89,143,110,60,129.49,283,15.00,-27.00,-975.00
2024-05-19 09:49:33.020422,1,0,-26,0,0,0,87,89,142,110,60,129.47,284,-3.00,-17.00,-958.00
2024-05-19 09:49:33.041019,1,0,-32,0,0,0,87,89,141,110,60,129.47,284,21.00,-4.00,-1003.00
2024-05-19 09:49:33.225060,1,0,-37,0,0,0,87,89,140,100,59,129.52,284,12.00,1.00,-1007.00
2024-05-19 09:49:33.244950,2,0,-43,0,0,0,86,89,140,100,59,129.56,284,25.00,-10.00,-1013.00
2024-05-19 09:49:33.429889,2,0,-49,0,0,0,86,89,140,100,59,129.55,284,17.00,-10.00,-981.00
2024-05-19 09:49:33.448955,2,0,-55,0,0,0,86,89,139,100,59,129.47,284,27.00,-2.00,-1047.00
2024-05-19 09:49:33.634696,2,0,-61,0,0,0,86,89,138,100,59,129.41,284,27.00,-8.00,-980.00
2024-05-19 09:49:33.653281,2,0,-66,0,0,0,86,89,137,100,59,129.52,284,54.00,-4.00,-991.00
2024-05-19 09:49:33.839468,2,0,-72,0,0,0,86,89,137,100,59,129.42,284,49.00,10.00,-1038.00
2024-05-19 09:49:33.856919,2,0,-78,0,0,0,86,89,136,100,59,129.35,284,30.00,10.00,-1020.00
2024-05-19 09:49:34.044336,2,0,-84,0,0,0,86,89,136,100,59,129.33,285,48.00,12.00,-979.00
2024-05-19 09:49:34.060939,2,0,-90,0,0,0,86,89,135,100,59,129.47,285,30.00,37.00,-994.00
2024-05-19 09:49:34.249061,2,-1,-96,0,0,0,86,89,135,100,59,129.36,285,49.00,14.00,-975.00
2024-05-19 09:49:34.264951,2,-1,-102,0,0,0,87,88,135,100,59,129.40,285,31.00,34.00,-1025.00
2024-05-19 09:49:34.453847,2,-1,-108,0,0,0,87,88,135,100,59,129.44,285,28.00,34.00,-1042.00
2024-05-19 09:49:34.469936,1,-2,-114,0,0,0,87,88,134,100,59,129.41,285,22.00,30.00,-996.00
2024-05-19 09:49:34.662001,1,-2,-120,0,0,0,87,88,134,100,59,129.47,285,31.00,41.00,-1005.00
2024-05-19 09:49:34.673857,1,-2,-126,0,0,0,87,88,134,100,59,129.42,285,20.00,42.00,-989.00
2024-05-19 09:49:34.863463,0,-2,-132,0,0,0,87,88,133,100,59,129.45,285,23.00,42.00,-1025.00
2024-05-19 09:49:34.877923,0,-2,-138,0,0,0,87,88,133,100,59,129.37,285,19.00,40.00,-1042.00
2024-05-19 09:49:34.980220,0,-2,-144,0,0,0,87,88,133,100,59,129.43,286,8.00,61.00,-1048.00
2024-05-19 09:49:35.170940,0,-2,-149,0,0,0,87,88,132,100,59,129.46,286,28.00,57.00,-986.00
2024-05-19 09:49:35.183840,0,-2,-155,0,0,0,87,88,132,100,59,129.45,286,25.00,40.00,-959.00
2024-05-19 09:49:35.375440,0,-2,-161,0,0,0,86,88,132,100,59,129.48,286,-1.00,51.00,-1023.00
2024-05-19 09:49:35.387799,0,-2,-168,0,0,0,86,88,132,100,59,129.53,286,-13.00,48.00,-1031.00
2024-05-19 09:49:35.580276,0,-2,-174,0,0,0,86,88,132,100,59,129.45,286,6.00,44.00,-979.00
2024-05-19 09:49:35.591907,0,-1,179,0,0,0,86,88,132,100,59,129.45,286,-26.00,42.00,-1000.00
2024-05-19 09:49:35.785096,-1,-1,173,0,0,0,86,88,132,100,59,129.50,286,-29.00,45.00,-1039.00
2024-05-19 09:49:35.795708,-1,-1,167,0,0,0,86,88,132,100,59,129.51,286,-36.00,37.00,-995.00
2024-05-19 09:49:35.989903,-2,-1,161,0,0,0,86,88,132,100,59,129.47,286,-19.00,44.00,-1017.00
2024-05-19 09:49:35.999751,-2,-1,155,0,0,0,86,88,133,100,59,129.56,287,-36.00,34.00,-1000.00
2024-05-19 09:49:36.194697,-2,0,150,0,0,0,86,88,133,100,59,129.51,287,-24.00,39.00,-1047.00
2024-05-19 09:49:36.203843,-1,0,144,0,0,0,86,88,133,100,59,129.46,287,-42.00,39.00,-1012.00
2024-05-19 09:49:36.399476,-1,0,138,0,0,0,86,88,133,100,59,129.52,287,-28.00,29.00,-953.00
2024-05-19 09:49:36.407885,-1,0,133,0,0,0,86,88,133,100,59,129.47,287,-18.00,31.00,-990.00
2024-05-19 09:49:36.604280,-1,0,127,0,0,0,86,88,133,100,59,129.43,287,-25.00,28.00,-999.00
2024-05-19 09:49:36.611816,-1,-1,121,0,0,0,86,88,132,100,59,129.36,287,-23.00,8.00,-1015.00
2024-05-19 09:49:36.662850,-1,0,114,0,0,0,86,88,132,100,59,129.33,287,-34.00,7.00,-1060.00
2024-05-19 09:49:36.809185,-1,0,108,0,0,0,86,88,133,100,59,129.43,287,-51.00,-4.00,-984.00
2024-05-19 09:49:36.866981,-1,0,102,0,0,0,86,88,133,100,59,129.47,287,-35.00,3.00,-1035.00
2024-05-19 09:49:37.013958,-1,1,96,0,0,0,86,88,133,100,59,129.48,288,-25.00,-3.00,-993.00
2024-05-19 09:49:37.070750,-1,0,90,0,0,0,86,88,133,100,59,129.43,288,-7.00,-17.00,-963.00
2024-05-19 09:49:37.218647,-1,1,84,0,0,0,86,88,133,100,59,129.46,288,-14.00,-1.00,-1051.00
2024-05-19 09:49:37.274769,0,1,78,0,0,0,86,88,132,100,59,129.42,288,-4.00,-18.00,-1000.00
2024-05-19 09:49:37.423427,0,1,71,0,0,0,86,88,132,100,59,129.45,288,1.00,-34.00,-1003.00
2024-05-19 09:49:37.478750,0,1,65,0,0,0,86,88,132,100,59,129.43,288,20.00,-15.00,-964.00
2024-05-19 09:49:37.628175,0,1,59,0,0,0,86,88,132,100,59,129.39,288,25.00,-23.00,-958.00
2024-05-19 09:49:37.682737,1,2,53,0,0,0,86,88,132,100,59,129.37,288,8.00,-21.00,-1000.00
2024-05-19 09:49:37.833019,1,1,48,0,0,0,86,88,133,100,59,129.38,288,-6.00,-22.00,-1002.00
2024-05-19 09:49:37.887142,1,1,42,0,0,0,86,88,133,100,59,129.36,288,0.00,-25.00,-995.00
2024-05-19 09:49:37.988738,1,1,36,0,0,0,86,88,133,100,59,129.37,289,27.00,-26.00,-1002.00
2024-05-19 09:49:38.140203,1,1,30,0,0,0,86,88,133,100,59,129.42,289,12.00,-21.00,-987.00
2024-05-19 09:49:38.192701,1,1,24,0,0,0,86,88,133,100,59,129.45,289,37.00,-18.00,-968.00
2024-05-19 09:49:38.345030,2,1,18,0,0,0,85,88,134,100,59,129.42,289,28.00,-20.00,-964.00
2024-05-19 09:49:38.397115,2,1,12,0,0,0,85,88,134,100,59,129.45,289,47.00,-3.00,-1009.00
2024-05-19 09:49:38.549815,2,0,7,0,0,0,85,88,134,100,59,129.41,289,36.00,-15.00,-1003.00
2024-05-19 09:49:38.600794,2,0,3,0,0,0,85,88,134,100,59,129.43,289,39.00,-17.00,-1001.00
2024-05-19 09:49:38.754617,2,0,0,0,0,0,85,88,135,100,59,129.46,289,27.00,-13.00,-1026.00
2024-05-19 09:49:38.804825,2,0,-1,0,0,0,85,88,135,100,59,129.41,289,68.00,-10.00,-905.00
2024-05-19 09:49:38.959615,2,0,-2,0,0,0,85,88,135,100,59,129.42,289,41.00,-4.00,-1017.00
2024-05-19 09:49:39.008695,2,0,-4,0,0,0,85,88,135,100,59,129.38,290,37.00,-2.00,-982.00
2024-05-19 09:49:39.164196,3,0,-5,0,0,0,85,88,135,100,59,129.42,290,57.00,-20.00,-952.00
2024-05-19 09:49:39.213188,2,0,-5,0,0,0,85,88,135,100,59,129.48,290,47.00,0.00,-1025.00
2024-05-19 09:49:39.369229,2,0,-6,0,0,0,86,88,136,100,59,129.48,290,44.00,0.00,-1009.00
2024-05-19 09:49:39.416848,2,0,-6,0,0,0,86,88,136,100,59,129.46,290,53.00,-6.00,-982.00
2024-05-19 09:49:39.574010,2,0,-6,0,0,0,86,88,136,100,59,129.50,290,38.00,5.00,-1044.00
2024-05-19 09:49:39.620861,3,0,-6,0,0,0,86,88,135,100,59,129.47,290,46.00,-25.00,-993.00
2024-05-19 09:49:39.778744,3,1,-6,0,0,0,86,88,135,100,59,129.43,290,60.00,-7.00,-950.00
2024-05-19 09:49:39.824717,2,1,-5,0,0,0,86,88,134,100,59,129.46,290,35.00,0.00,-1007.00
2024-05-19 09:49:39.983572,3,0,-6,0,0,0,86,88,134,100,59,129.48,290,43.00,-6.00,-969.00
2024-05-19 09:49:40.029236,3,0,-6,0,0,0,86,88,133,100,59,129.38,291,56.00,-9.00,-1009.00
2024-05-19 09:49:40.188384,3,0,-6,0,0,0,86,88,133,100,58,129.32,291,55.00,-27.00,-1020.00
2024-05-19 09:49:40.234133,3,1,-6,0,0,0,86,88,133,100,58,129.42,291,37.00,-2.00,-1048.00
2024-05-19 09:49:40.393551,2,1,-6,0,0,0,87,88,134,100,58,129.41,291,52.00,-13.00,-992.00
2024-05-19 09:49:40.436838,2,0,-6,0,0,0,87,88,133,100,58,129.49,291,59.00,1.00,-1035.00
2024-05-19 09:49:40.597949,2,0,-6,0,0,0,87,88,133,100,58,129.49,291,52.00,-18.00,-997.00
2024-05-19 09:49:40.640736,2,0,-6,0,0,0,87,88,133,100,58,129.50,291,55.00,-6.00,-982.00
2024-05-19 09:49:40.691564,2,0,-6,0,0,0,87,88,133,100,58,129.44,291,47.00,-20.00,-986.00
2024-05-19 09:49:40.802739,2,0,-6,0,0,0,87,88,133,100,58,129.47,291,46.00,3.00,-1020.00
2024-05-19 09:49:40.895789,2,0,-6,0,0,0,87,88,133,100,58,129.45,291,59.00,-5.00,-987.00
2024-05-19 09:49:40.997757,2,0,-6,0,0,0,87,88,133,100,58,129.39,292,33.00,10.00,-1012.00
2024-05-19 09:49:41.109906,3,0,-6,0,0,0,87,88,133,100,58,129.47,292,46.00,-7.00,-1008.00
2024-05-19 09:49:41.201739,2,0,-6,0,0,0,87,88,133,100,58,129.44,292,44.00,16.00,-1010.00
2024-05-19 09:49:41.303697,2,0,-6,0,0,0,86,89,133,100,58,129.44,292,37.00,5.00,-1014.00
2024-05-19 09:49:41.417018,1,0,-6,0,0,0,86,89,134,100,58,129.48,292,35.00,-1.00,-975.00
2024-05-19 09:49:41.507563,0,-2,-6,0,0,-5,86,89,144,100,58,129.54,292,26.00,1.00,-1184.00
2024-05-19 09:49:41.621804,0,-19,-6,0,-1,-11,86,89,301,110,58,129.83,292,72.00,-15.00,-1573.00
2024-05-19 09:49:41.711537,0,-119,-5,0,-8,-9,86,89,486,120,58,129.83,292,55.00,83.00,-1262.00
2024-05-19 09:49:41.826572,3,115,-5,0,-11,5,86,89,241,130,58,129.92,292,-4.00,545.00,-1025.00
2024-05-19 09:49:41.915532,0,10,-10,0,-4,12,86,89,146,120,58,129.50,292,-7.00,552.00,-945.00
2024-05-19 09:49:42.017454,-2,-8,-9,1,-5,10,86,89,134,100,58,129.35,293,-6.00,295.00,-1458.00
2024-05-19 09:49:42.133783,1,5,-8,1,-6,6,86,89,129,100,58,129.42,293,42.00,-118.00,-1447.00
2024-05-19 09:49:42.221644,3,6,-6,1,-4,2,86,89,128,90,58,129.34,293,57.00,39.00,-1369.00
2024-05-19 09:49:42.338551,2,3,-6,1,-3,0,86,88,128,90,58,129.44,293,2.00,0.00,-1146.00
2024-05-19 09:49:42.425855,2,2,-6,1,-2,-1,86,88,130,90,58,129.38,293,27.00,9.00,-1049.00
2024-05-19 09:49:42.543390,2,1,-6,1,-2,-1,86,88,131,90,58,129.48,293,33.00,8.00,-987.00
2024-05-19 09:49:42.629550,2,1,-6,1,-2,-1,86,88,133,90,58,129.43,293,30.00,7.00,-981.00
2024-05-19 09:49:42.748158,1,1,-6,0,-2,-1,86,88,135,100,58,129.45,293,12.00,3.00,-947.00
2024-05-19 09:49:42.833542,1,1,-6,0,-2,-1,86,88,136,100,58,129.47,293,29.00,7.00,-982.00
2024-05-19 09:49:42.952971,1,1,-6,0,-1,0,86,88,137,100,58,129.45,293,36.00,-16.00,-912.00
2024-05-19 09:49:43.037647,2,3,-6,0,-1,0,86,88,137,100,58,129.49,294,17.00,17.00,-1010.00
2024-05-19 09:49:43.157782,2,4,-6,0,-1,0,86,88,137,100,58,129.49,294,35.00,-10.00,-954.00
2024-05-19 09:49:43.241526,2,3,-6,0,0,0,86,88,136,100,58,129.48,294,19.00,9.00,-1055.00
2024-05-19 09:49:43.362830,2,2,-6,0,0,0,86,89,136,100,58,129.39,294,1.00,4.00,-1034.00
2024-05-19 09:49:43.445455,2,2,-6,0,0,0,86,89,135,100,58,129.42,294,21.00,-15.00,-960.00
2024-05-19 09:49:43.567387,2,1,-6,0,0,0,86,89,135,100,58,129.44,294,29.00,-11.00,-983.00
2024-05-19 09:49:43.649719,2,1,-5,0,0,0,86,89,135,100,58,129.47,294,20.00,-15.00,-1001.00
2024-05-19 09:49:43.772112,1,1,-5,0,0,0,86,89,134,100,58,129.49,294,34.00,-5.00,-1006.00
2024-05-19 09:49:43.853375,1,2,-5,0,0,0,86,89,134,100,58,129.47,294,21.00,-1.00,-1065.00
2024-05-19 09:49:43.976993,1,2,-6,0,0,0,86,89,133,100,58,129.47,295,6.00,-14.00,-1028.00
2024-05-19 09:49:44.057458,1,2,-6,0,0,0,86,89,133,100,58,129.40,295,38.00,-2.00,-1003.00
2024-05-19 09:49:44.181758,1,2,-6,0,0,0,86,89,132,100,57,129.41,295,31.00,-3.00,-1044.00
2024-05-19 09:49:44.261507,1,1,-6,0,0,0,86,89,132,100,57,129.45,295,51.00,-5.00,-996.00
2024-05-19 09:49:44.386562,1,1,-6,0,0,0,86,89,133,100,57,129.35,295,52.00,-22.00,-1005.00
2024-05-19 09:49:44.465398,1,1,-6,0,0,0,86,89,133,100,57,129.42,295,27.00,-9.00,-1003.00
2024-05-19 09:49:44.591371,1,1,-6,0,0,0,86,89,133,100,57,129.37,295,29.00,-8.00,-963.00
2024-05-19 09:49:44.669572,1,1,-6,0,0,0,86,89,133,100,57,129.52,295,35.00,-16.00,-959.00
2024-05-19 09:49:44.796098,1,2,-6,0,0,0,86,89,134,100,57,129.43,295,46.00,-8.00,-1010.00
2024-05-19 09:49:44.823801,1,2,-6,0,0,0,86,89,134,100,57,129.44,295,52.00,-29.00,-957.00
2024-05-19 09:49:44.924425,1,2,-6,0,0,0,86,89,134,100,57,129.40,296,21.00,-18.00,-1045.00
2024-05-19 09:49:45.028492,1,2,-6,0,0,0,86,89,134,100,57,129.45,296,33.00,-17.00,-972.00
2024-05-19 09:49:45.128945,1,2,-6,0,0,0,86,89,135,100,57,129.53,296,49.00,-10.00,-998.00
2024-05-19 09:49:45.231250,2,2,-6,0,0,0,86,89,136,100,57,129.50,296,62.00,-6.00,-997.00
2024-05-19 09:49:45.332417,1,1,-6,0,0,0,86,89,136,100,57,129.55,296,32.00,-18.00,-979.00
2024-05-19 09:49:45.513010,1,1,-6,0,0,0,86,89,136,100,57,129.55,296,15.00,-20.00,-1012.00
2024-05-19 09:49:45.536608,0,1,-6,0,0,0,86,89,137,100,57,129.51,296,5.00,-5.00,-1014.00
2024-05-19 09:49:45.717901,0,1,-5,0,1,0,86,89,138,100,57,129.50,296,19.00,-7.00,-1017.00
2024-05-19 09:49:45.740513,1,0,-6,0,1,0,86,89,138,100,57,129.45,296,31.00,-7.00,-1028.00
2024-05-19 09:49:45.922645,1,0,-6,0,0,0,86,89,139,100,57,129.53,296,12.00,-25.00,-1003.00
2024-05-19 09:49:45.944521,1,1,-6,0,0,0,86,89,139,100,57,129.54,297,35.00,-11.00,-955.00
2024-05-19 09:49:46.046470,1,1,-6,0,0,0,86,89,139,100,57,129.47,297,23.00,-11.00,-1017.00
2024-05-19 09:49:46.229907,1,0,-6,0,0,0,86,89,140,100,57,129.60,297,17.00,-26.00,-948.00
2024-05-19 09:49:46.250301,1,1,-6,0,0,0,86,89,141,100,57,129.50,297,25.00,-31.00,-1006.00
2024-05-19 09:49:46.434751,0,1,-6,0,0,0,86,89,141,100,57,129.48,297,29.00,-20.00,-963.00
2024-05-19 09:49:46.454482,0,1,-6,0,0,0,86,89,142,100,57,129.51,297,30.00,-10.00,-1065.00
2024-05-19 09:49:46.639711,1,1,-6,0,0,0,86,89,142,100,57,129.52,297,36.00,-33.00,-957.00
2024-05-19 09:49:46.658305,1,1,-6,0,0,0,86,89,143,100,57,129.50,297,39.00,-33.00,-952.00
2024-05-19 09:49:46.844191,2,1,-6,0,0,0,86,89,142,100,57,129.45,297,2.00,-15.00,-1010.00
2024-05-19 09:49:46.862361,2,1,-6,0,0,0,86,89,142,100,57,129.46,297,34.00,-33.00,-961.00
2024-05-19 09:49:47.049153,2,1,-6,0,0,0,86,89,141,100,57,129.58,298,-5.00,-10.00,-979.00
2024-05-19 09:49:47.066465,1,1,-6,0,0,0,86,89,140,100,57,129.60,298,20.00,-12.00,-975.00
2024-05-19 09:49:47.254043,1,0,-6,0,0,0,86,89,138,100,57,129.50,298,5.00,-16.00,-972.00
2024-05-19 09:49:47.270397,1,0,-6,0,0,1,86,89,137,100,57,129.57,298,42.00,-14.00,-977.00
2024-05-19 09:49:47.460307,1,0,-6,0,0,0,86,88,136,100,57,129.53,298,32.00,-15.00,-1020.00
2024-05-19 09:49:47.474349,1,0,-6,0,0,0,86,88,135,100,57,129.51,298,34.00,-18.00,-1005.00
2024-05-19 09:49:47.663661,1,1,-6,0,0,0,86,88,134,100,57,129.55,298,20.00,-8.00,-956.00
2024-05-19 09:49:47.678317,1,1,-6,0,0,0,86,88,134,100,57,129.56,298,-5.00,-16.00,-1018.00
2024-05-19 09:49:47.828037,1,0,-6,0,0,0,86,88,133,100,57,129.46,298,35.00,-20.00,-991.00
2024-05-19 09:49:47.882190,1,1,-6,0,0,0,86,88,133,100,57,129.46,298,-3.00,-14.00,-1097.00
2024-05-19 09:49:48.072918,0,1,-6,0,0,0,86,88,135,100,57,129.55,299,6.00,-14.00,-1176.00
2024-05-19 09:49:48.086310,0,1,-6,0,0,-5,86,88,139,100,57,129.63,299,4.00,-41.00,-1659.00
2024-05-19 09:49:48.277765,0,14,-6,0,0,-12,86,88,161,110,56,129.64,299,11.00,-79.00,-1632.00
2024-05-19 09:49:48.277814,0,103,-5,0,6,-11,86,88,617,120,56,129.77,299,19.00,374.00,-1401.00
2024-05-19 09:49:48.392315,0,-123,-6,0,8,3,87,88,676,130,56,129.60,299,12.00,-31.00,-1659.00
2024-05-19 09:49:48.443087,0,-14,-4,0,2,10,87,88,156,120,56,130.14,299,16.00,744.00,-1087.00
2024-05-19 09:49:48.584931,-1,6,-3,0,3,9,87,88,145,110,56,129.51,299,-11.00,832.00,-905.00
2024-05-19 09:49:48.647438,0,-3,-3,0,3,4,87,88,139,100,56,129.47,299,-9.00,461.00,-947.00
2024-05-19 09:49:48.789837,0,-4,-5,0,1,1,87,88,136,100,56,129.57,299,-26.00,-21.00,-1429.00
2024-05-19 09:49:48.851248,0,-1,-5,0,0,0,87,88,135,100,56,129.50,299,-36.00,-60.00,-1515.00
2024-05-19 09:49:48.994918,0,0,-6,0,0,-1,87,88,136,100,56,129.49,300,32.00,-26.00,-1242.00
2024-05-19 09:49:49.055183,0,0,-6,0,0,0,87,88,135,100,56,129.53,300,0.00,-30.00,-1114.00
2024-05-19 09:49:49.199371,0,1,-5,0,0,0,87,88,136,100,56,129.44,300,39.00,-38.00,-1010.00
2024-05-19 09:49:49.259216,0,0,-6,0,0,0,87,88,136,100,56,129.44,300,-3.00,-34.00,-998.00
2024-05-19 09:49:49.404408,0,0,-6,0,0,0,86,89,137,100,56,129.45,300,11.00,-28.00,-989.00
2024-05-19 09:49:49.463190,0,1,-6,0,0,0,86,89,136,100,56,129.45,300,13.00,-35.00,-964.00
2024-05-19 09:49:49.608972,1,1,-6,0,0,0,86,89,136,100,56,129.52,300,49.00,-39.00,-969.00
2024-05-19 09:49:49.667260,1,1,-6,0,0,0,86,89,135,100,56,129.47,300,32.00,-53.00,-955.00
2024-05-19 09:49:49.813753,1,1,-6,0,0,0,86,89,134,100,56,129.52,300,39.00,-12.00,-988.00
2024-05-19 09:49:49.871298,1,1,-6,0,0,0,86,89,134,100,56,129.47,300,15.00,-48.00,-980.00
2024-05-19 09:49:50.023476,1,1,-6,0,0,0,86,89,133,90,56,129.45,301,29.00,-52.00,-965.00
2024-05-19 09:49:50.076078,1,1,-6,0,0,0,86,89,133,90,55,129.46,301,26.00,-27.00,-1031.00
2024-05-19 09:49:50.223366,1,1,-6,0,0,0,86,89,132,90,55,129.47,301,30.00,-37.00,-1046.00
2024-05-19 09:49:50.280112,1,1,-6,0,0,0,86,89,132,90,55,129.47,301,39.00,-34.00,-989.00
2024-05-19 09:49:50.428173,1,1,-6,0,0,0,86,89,131,90,55,129.42,301,21.00,-39.00,-951.00
2024-05-19 09:49:50.484068,1,1,-6,0,0,0,86,89,131,90,55,129.53,301,0.00,-34.00,-1033.00
2024-05-19 09:49:50.632960,1,1,-6,0,0,0,86,89,131,90,55,129.35,301,19.00,-42.00,-981.00
2024-05-19 09:49:50.688008,1,1,-5,0,0,0,86,89,130,90,55,129.41,301,10.00,-23.00,-1021.00
2024-05-19 09:49:50.838654,1,1,-5,0,0,0,86,89,130,90,55,129.43,301,35.00,-36.00,-1025.00
2024-05-19 09:49:50.892436,2,1,-5,0,0,0,86,89,130,90,55,129.40,301,19.00,-30.00,-971.00
2024-05-19 09:49:51.042554,1,1,-6,0,0,0,86,89,129,90,55,129.37,302,26.00,-24.00,-1016.00
2024-05-19 09:49:51.097238,1,1,-6,0,0,0,86,89,129,90,55,129.44,302,26.00,-16.00,-1029.00
2024-05-19 09:49:51.247366,1,1,-6,0,0,0,86,89,129,90,55,129.40,302,28.00,-5.00,-1091.00
2024-05-19 09:49:51.299994,1,1,-6,0,0,0,86,89,129,90,55,129.40,302,47.00,-25.00,-929.00
2024-05-19 09:49:51.452005,1,0,-6,0,0,0,87,89,130,90,55,129.46,302,18.00,-29.00,-1023.00
2024-05-19 09:49:51.504159,2,0,-6,0,0,0,87,89,130,90,55,129.45,302,55.00,-41.00,-923.00
2024-05-19 09:49:51.656989,1,0,-6,0,0,0,87,89,130,90,55,129.43,302,36.00,-12.00,-1052.00
2024-05-19 09:49:51.708052,2,0,-6,0,0,0,87,89,130,90,55,129.42,302,32.00,-1.00,-969.00
2024-05-19 09:49:51.861813,2,0,-6,0,0,0,87,89,130,90,55,129.40,302,37.00,-15.00,-960.00
2024-05-19 09:49:51.912254,2,0,-6,0,0,0,87,89,131,90,55,129.45,302,20.00,-1.00,-1020.00
2024-05-19 09:49:51.963827,2,0,-5,0,0,0,87,89,130,90,55,129.42,303,40.00,-23.00,-919.00
2024-05-19 09:49:52.066305,2,0,-5,0,0,0,87,89,131,90,55,129.38,303,22.00,3.00,-1029.00
2024-05-19 09:49:52.169137,2,0,-5,0,0,0,87,89,131,90,55,129.47,303,31.00,-11.00,-1000.00
2024-05-19 09:49:52.269398,1,0,-5,0,0,0,87,89,131,90,55,129.41,303,42.00,-30.00,-980.00
2024-05-19 09:49:52.426960,1,0,-5,0,0,0,87,89,130,90,55,129.43,303,36.00,7.00,-1062.00
2024-05-19 09:49:52.473434,1,0,-6,0,0,0,87,89,131,90,55,129.46,303,38.00,-22.00,-968.00
2024-05-19 09:49:52.578612,1,0,-6,0,0,0,87,89,131,90,55,129.45,303,87.00,-8.00,-994.00
2024-05-19 09:49:52.677226,1,0,-6,0,0,0,87,89,132,90,55,129.34,303,28.00,-9.00,-993.00
2024-05-19 09:49:52.783578,1,0,-6,0,0,0,87,89,133,90,55,129.43,303,25.00,-3.00,-1043.00
2024-05-19 09:49:52.881113,1,0,-6,0,0,0,87,89,134,90,55,129.44,303,23.00,5.00,-1038.00
2024-05-19 09:49:52.988122,1,0,-6,0,0,0,87,89,135,90,55,129.47,304,12.00,-6.00,-960.00
2024-05-19 09:49:53.085434,1,0,-6,0,0,0,87,89,136,90,55,129.46,304,33.00,8.00,-985.00
2024-05-19 09:49:53.192926,1,0,-6,0,0,0,87,89,137,90,55,129.45,304,7.00,7.00,-1014.00
2024-05-19 09:49:53.289235,1,0,-6,0,0,0,87,89,137,90,55,129.43,304,14.00,8.00,-968.00
2024-05-19 09:49:53.397790,0,0,-6,0,0,0,86,89,138,90,55,129.43,304,24.00,18.00,-990.00
2024-05-19 09:49:53.493583,0,0,-6,0,0,0,86,89,138,90,55,129.43,304,23.00,0.00,-1000.00
2024-05-19 09:49:53.602693,0,0,-6,0,0,0,86,89,138,90,55,129.44,304,47.00,-7.00,-975.00
