TS,pitch,roll,yaw,vgx,vgy,vgz,templ,temph,tof,h,bat,baro,time,agx,agy,agz
2024-05-17 15:56:42.977260,0,0,0,0,0,0,73,77,10,0,72,191.03,85,-1.00,7.00,-1003.00
2024-05-17 15:56:43.060019,0,0,0,0,0,0,73,77,10,0,72,191.11,85,-1.00,7.00,-1000.00
2024-05-17 15:56:43.181854,0,0,0,0,0,0,73,77,10,0,72,191.07,85,-1.00,6.00,-1000.00
2024-05-17 15:56:43.263845,0,0,0,0,0,0,73,77,10,0,72,191.05,85,-2.00,7.00,-998.00
2024-05-17 15:56:43.390832,0,0,0,0,0,0,73,77,10,0,72,191.08,85,-1.00,6.00,-1003.00
2024-05-17 15:56:43.470783,0,0,0,0,0,0,73,77,10,0,72,191.10,85,-1.00,5.00,-1001.00
2024-05-17 15:56:43.569857,0,0,0,0,0,0,73,77,10,0,72,191.01,85,-3.00,6.00,-997.00
2024-05-17 15:56:43.676769,0,0,0,0,0,0,74,77,10,0,72,191.05,85,-1.00,7.00,-1001.00
2024-05-17 15:56:43.774227,0,0,0,0,0,0,74,77,10,0,72,191.03,85,-1.00,5.00,-1000.00
2024-05-17 15:56:43.898558,0,0,0,0,0,0,74,77,10,0,72,191.07,85,-1.00,7.00,-1000.00
2024-05-17 15:56:43.977671,0,0,0,0,0,0,74,77,10,0,72,191.12,85,-2.00,7.00,-999.00
2024-05-17 15:56:44.079488,0,0,0,0,0,0,74,77,10,0,72,191.08,85,-1.00,7.00,-999.00
2024-05-17 15:56:44.205738,0,0,0,0,0,0,74,77,10,0,72,191.05,85,-2.00,5.00,-999.00
2024-05-17 15:56:44.286088,0,0,0,0,0,0,74,77,10,0,72,191.09,85,-2.00,7.00,-1003.00
2024-05-17 15:56:44.386698,0,0,0,0,0,0,74,77,10,0,72,191.01,85,0.00,5.00,-999.00
2024-05-17 15:56:44.514341,0,0,0,0,0,0,74,77,10,0,72,191.09,85,-2.00,5.00,-999.00
2024-05-17 15:56:44.538693,0,0,0,0,0,0,74,77,10,0,72,191.01,85,-2.00,6.00,-999.00
2024-05-17 15:56:44.717834,0,0,0,0,0,0,75,77,10,0,72,191.06,85,-2.00,6.00,-1004.00
2024-05-17 15:56:44.793823,0,0,0,0,0,0,75,77,10,0,72,191.08,85,-1.00,5.00,-997.00
2024-05-17 15:56:44.844631,0,0,0,0,0,0,75,77,10,0,72,191.02,85,-2.00,6.00,-1003.00
2024-05-17 15:56:45.026590,0,0,0,0,0,0,75,77,10,0,72,191.06,85,-2.00,5.00,-999.00
2024-05-17 15:56:45.049054,0,0,0,0,0,0,75,77,10,0,72,191.07,85,-1.00,6.00,-1000.00
2024-05-17 15:56:45.230088,0,0,0,0,0,0,75,77,10,0,72,191.06,85,-3.00,5.00,-999.00
2024-05-17 15:56:45.252596,0,0,0,0,0,0,75,77,10,0,72,191.10,85,-1.00,7.00,-1000.00
2024-05-17 15:56:45.434476,0,0,0,0,0,0,75,77,10,0,72,191.08,85,-3.00,5.00,-999.00
2024-05-17 15:56:45.456505,0,0,0,0,0,0,75,77,10,0,72,191.09,85,-3.00,6.00,-1001.00
2024-05-17 15:56:45.639631,0,0,0,0,0,0,75,77,10,0,72,191.08,85,-1.00,6.00,-998.00
2024-05-17 15:56:45.660677,0,0,0,0,0,0,74,77,10,0,72,191.07,85,-2.00,5.00,-998.00
2024-05-17 15:56:45.844223,0,0,0,0,0,0,74,77,10,0,72,191.08,85,-2.00,6.00,-1001.00
2024-05-17 15:56:45.864678,0,0,0,0,0,0,74,77,10,0,72,191.12,85,-1.00,5.00,-1000.00
2024-05-17 15:56:45.966660,0,0,0,0,0,0,74,77,10,0,72,191.07,85,-1.00,5.00,-999.00
2024-05-17 15:56:46.153135,0,0,0,0,0,0,74,77,10,0,72,191.07,85,6.00,14.00,-1002.00
2024-05-17 15:56:46.170723,0,0,0,0,0,0,74,77,10,0,72,191.07,85,-4.00,-2.00,-999.00
2024-05-17 15:56:46.356393,0,0,0,0,0,0,74,77,10,0,72,191.07,85,-19.00,-5.00,-1006.00
2024-05-17 15:56:46.374498,0,0,1,0,0,0,74,77,10,0,72,191.07,85,11.00,-3.00,-1019.00
2024-05-17 15:56:46.560728,0,0,3,0,0,0,74,77,10,0,72,191.07,85,0.00,20.00,-1020.00
2024-05-17 15:56:46.578583,0,0,3,0,0,0,74,77,10,0,72,191.07,86,-42.00,3.00,-1150.00
2024-05-17 15:56:46.766626,0,0,3,0,0,-1,74,77,10,0,72,191.07,86,34.00,-45.00,-1348.00
2024-05-17 15:56:46.782559,0,0,4,0,0,-5,74,77,13,0,72,191.07,86,-45.00,-12.00,-1310.00
2024-05-17 15:56:46.884450,-1,0,4,0,0,-7,74,77,19,0,72,191.35,86,-32.00,-12.00,-1094.00
2024-05-17 15:56:47.072845,-1,0,3,0,0,-7,74,77,26,0,72,191.57,86,-14.00,0.00,-1027.00
2024-05-17 15:56:47.088554,-1,0,3,0,0,-7,74,77,35,10,72,191.62,86,-7.00,-10.00,-956.00
2024-05-17 15:56:47.277577,0,0,3,0,0,-7,74,77,43,10,72,191.72,86,-50.00,-4.00,-916.00
2024-05-17 15:56:47.292486,-1,0,3,0,0,-6,74,77,52,20,72,191.71,86,40.00,-14.00,-938.00
2024-05-17 15:56:47.482372,-1,0,3,0,0,-5,74,77,59,20,72,191.78,86,-36.00,-20.00,-887.00
2024-05-17 15:56:47.496529,-1,0,3,0,0,-4,74,77,63,30,72,191.84,86,-11.00,-2.00,-916.00
2024-05-17 15:56:47.687193,-1,0,3,0,0,-3,74,77,69,30,72,191.96,87,8.00,-10.00,-911.00
2024-05-17 15:56:47.700529,0,0,3,0,0,-2,75,77,75,30,72,192.04,87,-15.00,-4.00,-905.00
2024-05-17 15:56:47.893603,0,0,3,0,0,-1,75,77,79,30,72,192.09,87,-30.00,4.00,-954.00
2024-05-17 15:56:47.906633,0,0,3,0,0,0,75,77,81,40,72,192.18,87,-32.00,16.00,-941.00
2024-05-17 15:56:48.006413,0,0,3,0,0,0,75,77,85,40,72,192.23,87,-27.00,-4.00,-974.00
2024-05-17 15:56:48.108716,0,0,3,0,0,0,75,77,88,40,72,192.18,87,-7.00,0.00,-981.00
2024-05-17 15:56:48.301551,0,0,3,0,0,0,75,77,91,40,72,192.19,87,9.00,-9.00,-971.00
2024-05-17 15:56:48.301949,0,0,3,0,0,0,75,77,92,40,72,192.24,87,-27.00,-12.00,-981.00
2024-05-17 15:56:48.365667,0,0,3,0,0,0,75,77,93,40,72,192.28,87,37.00,-20.00,-978.00
2024-05-17 15:56:48.466115,0,0,3,0,0,0,75,77,94,50,72,192.21,87,8.00,-26.00,-977.00
2024-05-17 15:56:48.567342,0,0,3,0,0,0,75,77,95,50,72,192.26,88,-12.00,-20.00,-931.00
2024-05-17 15:56:48.669369,0,0,3,0,0,0,74,77,96,50,72,192.22,88,12.00,-30.00,-963.00
2024-05-17 15:56:48.813526,0,0,3,0,0,0,74,77,97,50,72,192.28,88,-24.00,-12.00,-981.00
2024-05-17 15:56:48.873469,0,0,3,0,0,0,74,77,97,50,72,192.27,88,-23.00,4.00,-985.00
2024-05-17 15:56:49.018982,0,0,3,0,0,1,74,77,96,50,72,192.28,88,9.00,-17.00,-989.00
2024-05-17 15:56:49.077635,0,0,3,0,0,1,74,77,96,50,72,192.29,88,-16.00,13.00,-937.00
2024-05-17 15:56:49.223814,0,0,3,0,0,1,74,77,95,50,72,192.24,88,-19.00,-2.00,-943.00
2024-05-17 15:56:49.281925,0,0,3,0,0,1,74,77,94,50,72,192.30,88,-46.00,2.00,-980.00
2024-05-17 15:56:49.427972,0,0,3,0,0,1,74,77,93,50,72,192.21,88,0.00,-6.00,-984.00
2024-05-17 15:56:49.488258,0,0,3,0,0,1,74,77,92,50,72,192.23,88,22.00,-5.00,-1023.00
2024-05-17 15:56:49.587266,0,0,3,0,0,1,74,77,91,50,72,192.17,89,-23.00,-17.00,-980.00
2024-05-17 15:56:49.735127,0,0,3,0,0,1,75,77,90,50,72,192.19,89,-10.00,-17.00,-963.00
2024-05-17 15:56:49.791359,0,0,4,0,0,1,75,77,89,50,72,192.16,89,5.00,-16.00,-1005.00
2024-05-17 15:56:49.939925,0,0,4,0,0,1,75,77,88,50,72,192.20,89,-59.00,10.00,-991.00
2024-05-17 15:56:49.995286,0,0,4,0,0,1,75,77,87,50,72,192.16,89,-1.00,-12.00,-997.00
2024-05-17 15:56:50.099281,0,0,4,0,0,0,75,77,85,40,72,192.15,89,34.00,-12.00,-954.00
2024-05-17 15:56:50.199213,0,0,4,0,0,1,75,77,84,40,72,192.18,89,-49.00,21.00,-1029.00
2024-05-17 15:56:50.351357,0,0,4,0,0,1,75,77,81,40,72,192.09,89,-23.00,14.00,-1033.00
2024-05-17 15:56:50.406406,0,0,4,0,0,0,75,77,80,40,72,192.17,89,-1.00,-12.00,-1004.00
2024-05-17 15:56:50.506770,0,0,4,0,0,0,75,77,78,40,72,192.20,89,6.00,-12.00,-1037.00
2024-05-17 15:56:50.608032,0,0,4,0,0,0,75,77,77,40,72,192.12,90,-12.00,-14.00,-993.00
2024-05-17 15:56:50.709204,0,0,4,0,0,0,74,77,76,40,72,192.20,90,5.00,-21.00,-1029.00
2024-05-17 15:56:50.862031,0,0,4,0,0,0,74,77,74,40,72,192.06,90,18.00,-25.00,-1014.00
2024-05-17 15:56:50.913198,0,0,4,0,0,0,74,77,75,40,72,192.04,90,-22.00,0.00,-1047.00
2024-05-17 15:56:51.015227,0,0,3,0,0,0,74,77,73,40,72,192.01,90,0.00,-14.00,-1021.00
2024-05-17 15:56:51.117099,0,0,3,0,0,0,74,77,71,30,72,192.04,90,-41.00,-14.00,-1021.00
2024-05-17 15:56:51.271103,0,0,4,0,0,0,74,77,70,30,72,192.03,90,-11.00,-4.00,-1007.00
2024-05-17 15:56:51.321239,0,0,4,0,0,0,74,77,69,30,72,192.02,90,11.00,-25.00,-1013.00
2024-05-17 15:56:51.423203,0,0,4,0,0,0,74,77,68,30,72,192.02,90,-54.00,2.00,-1043.00
2024-05-17 15:56:51.525317,0,0,4,0,0,0,74,77,68,30,72,192.01,90,-6.00,-21.00,-995.00
2024-05-17 15:56:51.627213,0,0,4,0,0,0,74,77,67,30,72,192.00,91,3.00,-11.00,-1012.00
2024-05-17 15:56:51.783098,0,0,4,0,0,0,74,76,65,30,72,192.01,91,-30.00,7.00,-1022.00
2024-05-17 15:56:51.832862,0,0,4,0,0,0,74,76,65,30,72,192.00,91,16.00,-22.00,-1018.00
2024-05-17 15:56:51.882233,0,0,4,0,0,0,74,76,63,30,72,191.97,91,-5.00,7.00,-1047.00
2024-05-17 15:56:51.987801,0,0,4,0,0,0,74,76,63,30,72,191.98,91,-34.00,13.00,-1014.00
2024-05-17 15:56:52.086836,0,0,4,0,0,0,74,76,61,30,72,191.93,91,-17.00,4.00,-998.00
2024-05-17 15:56:52.193202,0,0,4,0,0,0,74,76,61,30,72,191.97,91,-41.00,9.00,-1125.00
2024-05-17 15:56:52.290463,0,0,4,0,0,0,74,76,59,30,72,191.91,91,-24.00,-18.00,-1044.00
2024-05-17 15:56:52.392276,0,0,3,0,0,0,74,76,58,30,72,191.95,91,-15.00,19.00,-1092.00
2024-05-17 15:56:52.494223,0,0,3,0,0,-1,74,76,58,30,72,191.93,91,16.00,-9.00,-976.00
2024-05-17 15:56:52.602327,0,0,3,0,0,-1,74,76,56,30,72,191.94,92,-37.00,8.00,-1049.00
2024-05-17 15:56:52.698265,0,0,3,0,0,-1,74,76,54,30,72,191.95,92,-19.00,10.00,-1003.00
2024-05-17 15:56:52.809951,0,0,3,0,0,-1,74,76,53,30,72,191.89,92,-12.00,1.00,-1025.00
2024-05-17 15:56:52.902190,0,0,3,0,0,-1,74,76,52,30,72,191.85,92,-17.00,-14.00,-1031.00
2024-05-17 15:56:53.011971,0,0,3,0,0,-1,74,76,50,30,72,191.88,92,-55.00,4.00,-1012.00
2024-05-17 15:56:53.108429,0,0,3,0,0,-1,74,76,50,40,72,191.97,92,-23.00,-4.00,-1009.00
2024-05-17 15:56:53.208299,0,0,3,0,0,-2,74,76,50,40,72,191.86,92,-11.00,0.00,-1051.00
2024-05-17 15:56:53.325342,0,0,3,0,0,-2,74,76,50,40,72,191.87,92,-19.00,-2.00,-1024.00
2024-05-17 15:56:53.412080,0,0,3,0,0,-2,74,76,49,40,72,191.91,92,-5.00,-12.00,-1014.00
2024-05-17 15:56:53.525192,0,0,3,0,0,-2,74,76,48,50,72,191.89,92,-12.00,-4.00,-1018.00
2024-05-17 15:56:53.616183,0,0,3,0,0,-2,74,76,48,50,72,191.84,93,-9.00,-8.00,-1059.00
2024-05-17 15:56:53.736040,0,0,3,0,0,-2,73,76,48,50,72,191.85,93,-28.00,34.00,-945.00
2024-05-17 15:56:53.820205,0,0,3,0,0,-2,73,76,47,50,72,191.80,93,0.00,-26.00,-946.00
2024-05-17 15:56:53.933465,0,-1,3,0,0,0,73,76,46,50,72,191.83,93,-22.00,-10.00,-976.00
2024-05-17 15:56:54.024279,0,0,3,0,0,1,73,76,45,50,72,191.80,93,-35.00,7.00,-1058.00
2024-05-17 15:56:54.126307,0,0,3,0,0,1,73,76,43,50,72,191.90,93,-28.00,12.00,-1003.00
2024-05-17 15:56:54.228270,0,-1,3,0,0,0,73,76,46,50,72,191.83,93,-12.00,1.00,-1007.00
2024-05-17 15:56:54.343133,0,-1,3,0,0,0,73,76,46,50,72,191.75,93,-17.00,-1.00,-1055.00
2024-05-17 15:56:54.432248,0,0,3,0,0,0,73,76,46,50,72,191.83,93,-38.00,2.00,-1034.00
2024-05-17 15:56:54.548273,0,0,3,0,0,0,73,76,46,50,72,191.75,93,-20.00,-4.00,-1079.00
2024-05-17 15:56:54.636336,0,0,3,0,0,0,73,76,47,50,72,191.77,94,14.00,7.00,-1010.00
2024-05-17 15:56:54.752912,0,0,3,0,0,0,74,76,46,50,72,191.79,94,-27.00,-5.00,-977.00
2024-05-17 15:56:54.841470,0,0,3,0,0,0,74,76,44,50,72,191.78,94,0.00,25.00,-991.00
2024-05-17 15:56:54.959685,0,0,3,0,0,0,74,76,44,50,72,191.73,94,-34.00,11.00,-957.00
2024-05-17 15:56:55.045856,0,0,3,0,0,0,74,76,45,50,72,191.82,94,-3.00,6.00,-978.00
2024-05-17 15:56:55.148390,0,0,3,0,0,0,74,76,45,50,72,191.74,94,-17.00,2.00,-992.00
2024-05-17 15:56:55.248179,0,0,3,0,0,0,74,76,44,50,72,191.81,94,12.00,-12.00,-998.00
2024-05-17 15:56:55.350484,0,0,3,0,0,0,74,76,43,50,72,191.83,94,-14.00,4.00,-1036.00
2024-05-17 15:56:55.469707,0,0,3,0,0,0,74,76,44,50,72,191.78,94,-44.00,8.00,-1063.00
2024-05-17 15:56:55.554266,0,0,3,0,0,0,74,76,45,50,72,191.78,94,38.00,-30.00,-952.00
2024-05-17 15:56:55.605146,0,0,3,0,0,0,74,76,45,50,72,191.79,95,-12.00,-5.00,-1017.00
2024-05-17 15:56:55.778758,0,0,3,0,0,0,75,76,45,50,72,191.81,95,-53.00,24.00,-990.00
2024-05-17 15:56:55.813269,0,0,3,0,0,0,75,76,44,50,72,191.80,95,0.00,-21.00,-978.00
2024-05-17 15:56:55.911786,0,0,3,0,0,0,75,76,44,50,72,191.83,95,-19.00,12.00,-1031.00
2024-05-17 15:56:56.084023,0,0,3,0,0,0,75,76,45,50,72,191.81,95,-25.00,4.00,-1014.00
2024-05-17 15:56:56.166587,0,0,3,0,0,0,75,76,45,50,72,191.87,95,-3.00,-7.00,-997.00
2024-05-17 15:56:56.289142,0,0,3,0,0,0,75,76,46,50,72,191.87,95,6.00,-3.00,-965.00
2024-05-17 15:56:56.321699,0,0,3,0,0,0,75,76,46,50,72,191.85,95,-7.00,3.00,-977.00
2024-05-17 15:56:56.421251,0,0,3,0,0,0,75,76,47,50,72,191.77,95,-30.00,-6.00,-1013.00
2024-05-17 15:56:56.601220,0,0,3,0,0,0,75,76,46,50,72,191.75,96,-34.00,7.00,-1015.00
2024-05-17 15:56:56.625128,0,0,3,0,0,0,75,76,46,50,72,191.84,96,12.00,-14.00,-995.00
2024-05-17 15:56:56.727068,0,0,3,0,0,0,73,75,46,50,72,191.82,96,-42.00,15.00,-1008.00
2024-05-17 15:56:56.903111,0,0,3,0,0,0,73,75,46,50,72,191.87,96,-25.00,-2.00,-1081.00
2024-05-17 15:56:56.931026,0,0,3,0,0,-1,73,75,46,50,72,191.91,96,-21.00,-22.00,-1075.00
2024-05-17 15:56:57.107984,0,0,3,0,0,-2,73,75,48,50,72,191.85,96,-32.00,34.00,-1099.00
2024-05-17 15:56:57.134920,0,0,3,0,0,-3,73,75,52,60,72,191.86,96,-47.00,36.00,-1094.00
2024-05-17 15:56:57.312710,0,0,3,0,0,-4,73,75,57,60,72,191.96,96,-52.00,17.00,-1082.00
2024-05-17 15:56:57.339279,0,0,3,0,0,-4,73,75,63,60,72,191.98,96,-53.00,11.00,-1062.00
2024-05-17 15:56:57.517475,0,0,3,0,0,-5,73,75,67,70,72,192.02,96,15.00,-22.00,-1015.00
2024-05-17 15:56:57.542922,0,0,3,0,0,-5,73,75,71,80,72,191.96,97,-62.00,13.00,-1051.00
2024-05-17 15:56:57.729965,0,0,3,0,0,-6,73,75,77,80,72,192.08,97,8.00,-20.00,-1031.00
2024-05-17 15:56:57.749987,0,0,3,0,0,-5,74,76,82,90,72,192.12,97,-2.00,5.00,-965.00
2024-05-17 15:56:57.849390,0,0,3,0,0,-5,74,76,89,90,72,192.19,97,9.00,-10.00,-1007.00
2024-05-17 15:56:58.029577,0,0,3,0,0,-5,74,76,94,100,72,192.24,97,-19.00,0.00,-983.00
2024-05-17 15:56:58.052937,0,0,3,0,0,-5,74,76,100,110,72,192.29,97,-2.00,2.00,-969.00
2024-05-17 15:56:58.154911,0,0,3,0,0,-4,74,76,105,110,72,192.38,97,13.00,-16.00,-967.00
2024-05-17 15:56:58.338228,0,0,3,0,0,-4,74,76,110,110,72,192.47,97,-14.00,-7.00,-967.00
2024-05-17 15:56:58.358879,0,0,3,0,0,-4,74,76,115,120,72,192.46,97,23.00,3.00,-955.00
2024-05-17 15:56:58.543218,0,0,3,0,0,-3,74,76,119,120,72,192.54,97,-28.00,13.00,-1001.00
2024-05-17 15:56:58.563580,0,0,3,0,0,-3,74,76,123,130,72,192.55,98,10.00,-6.00,-908.00
2024-05-17 15:56:58.747101,0,0,3,0,0,-3,74,76,127,130,72,192.55,98,21.00,-13.00,-967.00
2024-05-17 15:56:58.766882,0,0,3,0,0,-2,73,76,130,130,72,192.63,98,29.00,11.00,-973.00
2024-05-17 15:56:58.951123,0,0,3,0,0,-2,73,76,133,140,72,192.60,98,40.00,-8.00,-955.00
2024-05-17 15:56:58.970871,0,0,3,0,0,-2,73,76,135,140,72,192.68,98,-7.00,-8.00,-976.00
2024-05-17 15:56:59.155991,0,0,3,0,0,-1,73,76,138,140,72,192.64,98,-24.00,31.00,-947.00
2024-05-17 15:56:59.174803,0,0,3,0,0,-1,73,76,140,140,72,192.64,98,26.00,8.00,-988.00
2024-05-17 15:56:59.276993,0,0,3,0,0,-1,73,76,141,140,72,192.78,98,8.00,10.00,-984.00
2024-05-17 15:56:59.327995,1,0,3,0,0,-1,73,76,144,150,72,192.78,98,15.00,-13.00,-949.00
2024-05-17 15:56:59.463592,1,0,3,0,0,0,73,76,146,150,72,192.66,98,13.00,1.00,-944.00
2024-05-17 15:56:59.531969,1,0,3,0,0,0,73,76,147,150,72,192.74,99,2.00,-14.00,-996.00
2024-05-17 15:56:59.672167,1,0,3,0,0,0,73,76,147,150,72,192.78,99,4.00,-10.00,-953.00
2024-05-17 15:56:59.872914,0,0,3,0,0,0,73,76,148,150,72,192.77,99,-16.00,6.00,-1006.00
2024-05-17 15:56:59.888847,0,0,3,0,0,0,73,76,148,150,72,192.73,99,18.00,-1.00,-953.00
2024-05-17 15:57:00.077602,0,0,3,0,0,0,73,76,148,150,72,192.76,99,-4.00,-11.00,-985.00
2024-05-17 15:57:00.077833,0,0,3,0,0,0,73,76,149,150,72,192.74,99,-6.00,31.00,-1026.00
2024-05-17 15:57:00.143852,0,0,3,0,0,0,73,76,149,150,72,192.83,99,-15.00,8.00,-1022.00
2024-05-17 15:57:00.283805,0,0,3,0,0,0,73,76,150,150,72,192.77,99,-6.00,-4.00,-1009.00
2024-05-17 15:57:00.347925,0,0,3,0,0,0,73,76,151,150,72,192.80,99,23.00,0.00,-1014.00
2024-05-17 15:57:00.487162,0,0,3,0,0,0,73,76,151,150,72,192.88,99,12.00,17.00,-1014.00
2024-05-17 15:57:00.552063,0,0,3,0,0,0,73,76,152,150,72,192.80,100,-4.00,-3.00,-986.00
2024-05-17 15:57:00.654227,0,0,3,0,0,0,73,76,152,150,72,192.84,100,-5.00,-7.00,-1008.00
2024-05-17 15:57:00.756614,0,0,3,0,0,0,73,77,153,150,72,192.81,100,19.00,-8.00,-951.00
2024-05-17 15:57:00.858355,0,0,3,0,0,0,73,77,153,150,72,192.86,100,7.00,34.00,-970.00
2024-05-17 15:57:00.999162,0,0,3,0,0,0,73,77,153,150,72,192.87,100,3.00,-18.00,-982.00
2024-05-17 15:57:01.062225,0,0,3,0,0,0,73,77,153,150,72,192.82,100,1.00,-3.00,-1002.00
2024-05-17 15:57:01.164372,0,0,3,0,0,0,73,77,153,150,72,192.78,100,-24.00,-5.00,-923.00
2024-05-17 15:57:01.266382,0,0,3,0,0,0,73,77,153,150,72,192.85,100,-9.00,3.00,-985.00
2024-05-17 15:57:01.408608,0,0,3,0,0,0,73,77,152,150,72,192.87,100,-24.00,14.00,-980.00
2024-05-17 15:57:01.469790,0,0,3,0,0,0,73,77,152,150,72,192.85,100,15.00,-22.00,-982.00
2024-05-17 15:57:01.614201,0,0,3,0,0,0,73,77,151,150,72,192.81,101,10.00,-5.00,-957.00
2024-05-17 15:57:01.674719,0,0,3,0,0,1,73,77,150,150,72,192.79,101,22.00,-2.00,-936.00
2024-05-17 15:57:01.776810,0,0,3,0,0,1,74,76,149,150,72,192.78,101,-8.00,6.00,-977.00
2024-05-17 15:57:01.925583,0,0,3,0,0,1,74,76,147,150,72,192.77,101,9.00,-3.00,-971.00
2024-05-17 15:57:01.987284,0,0,3,0,0,2,74,76,145,150,72,192.76,101,14.00,-7.00,-973.00
2024-05-17 15:57:02.083144,0,0,3,0,0,2,74,76,142,140,72,192.73,101,-20.00,-10.00,-992.00
2024-05-17 15:57:02.189930,0,0,3,0,0,2,74,76,140,140,72,192.72,101,33.00,-23.00,-970.00
2024-05-17 15:57:02.288806,0,0,3,0,0,2,74,76,136,140,72,192.76,101,24.00,-26.00,-991.00
2024-05-17 15:57:02.389132,0,0,3,0,0,2,74,76,133,140,72,192.70,101,0.00,-6.00,-981.00
2024-05-17 15:57:02.491325,0,0,3,0,0,2,74,76,130,130,72,192.58,101,20.00,-24.00,-1062.00
2024-05-17 15:57:02.595387,0,0,3,0,0,2,74,76,127,130,72,192.59,102,-1.00,-6.00,-1010.00
2024-05-17 15:57:02.693807,0,0,3,0,0,2,74,76,124,130,72,192.55,102,26.00,-19.00,-1022.00
2024-05-17 15:57:02.842337,0,0,3,0,0,2,73,75,122,130,72,192.60,102,22.00,-15.00,-1009.00
2024-05-17 15:57:02.897775,0,0,3,0,0,2,73,75,119,120,72,192.51,102,-10.00,4.00,-1013.00
2024-05-17 15:57:03.046915,0,0,3,0,0,2,73,75,117,120,72,192.43,102,18.00,-9.00,-981.00
2024-05-17 15:57:03.101980,0,0,3,0,0,2,73,75,114,120,72,192.46,102,-19.00,6.00,-1011.00
2024-05-17 15:57:03.251805,0,0,3,0,0,2,73,75,111,120,72,192.42,102,1.00,-8.00,-1024.00
2024-05-17 15:57:03.305617,0,0,3,0,0,1,73,75,109,110,72,192.42,102,4.00,-3.00,-1033.00
2024-05-17 15:57:03.458697,0,0,3,0,0,1,73,75,106,110,72,192.45,102,-19.00,10.00,-975.00
2024-05-17 15:57:03.509885,0,0,3,0,0,1,73,75,104,110,72,192.40,102,31.00,0.00,-1059.00
2024-05-17 15:57:03.612578,0,0,3,0,0,1,73,75,102,110,72,192.37,103,-26.00,1.00,-994.00
2024-05-17 15:57:03.662763,0,0,3,0,0,1,73,75,101,110,72,192.38,103,-35.00,14.00,-1033.00
2024-05-17 15:57:03.868647,0,0,3,0,0,0,74,76,100,110,72,192.39,103,-66.00,20.00,-1040.00
2024-05-17 15:57:03.868847,0,0,3,0,0,0,74,76,99,100,72,192.27,103,20.00,10.00,-1036.00
2024-05-17 15:57:03.970624,0,0,3,0,0,0,74,76,98,100,72,192.36,103,13.00,-14.00,-992.00
2024-05-17 15:57:04.071113,0,0,3,0,0,0,74,76,97,100,72,192.34,103,-7.00,17.00,-1010.00
2024-05-17 15:57:04.173127,0,0,3,0,0,0,74,76,97,100,72,192.30,103,-13.00,10.00,-983.00
2024-05-17 15:57:04.275929,0,0,3,0,0,0,74,76,97,100,72,192.35,103,-56.00,9.00,-1039.00
2024-05-17 15:57:04.378257,0,0,3,0,0,0,74,76,96,100,72,192.33,103,-64.00,16.00,-1031.00
2024-05-17 15:57:04.478682,0,0,3,0,0,0,74,76,97,100,72,192.28,103,12.00,-19.00,-1010.00
2024-05-17 15:57:04.586201,0,0,3,0,0,0,74,76,97,100,72,192.32,104,0.00,-26.00,-969.00
2024-05-17 15:57:04.687803,0,0,3,0,0,0,74,76,98,100,72,192.29,104,24.00,-10.00,-982.00
2024-05-17 15:57:04.785856,0,0,3,0,0,0,74,76,98,100,72,192.33,104,0.00,-1.00,-986.00
2024-05-17 15:57:04.890350,0,0,3,0,0,0,74,76,99,100,72,192.31,104,-22.00,2.00,-1022.00
2024-05-17 15:57:04.988663,0,0,3,0,0,0,74,76,99,100,72,192.28,104,-43.00,2.00,-1010.00
2024-05-17 15:57:05.097054,0,0,3,0,0,0,74,76,100,100,72,192.40,104,11.00,-1.00,-1026.00
2024-05-17 15:57:05.192732,0,0,3,0,0,0,74,76,100,100,72,192.29,104,1.00,-14.00,-1011.00
2024-05-17 15:57:05.302497,0,0,3,0,0,0,74,76,101,100,72,192.28,104,-20.00,20.00,-1002.00
2024-05-17 15:57:05.396690,0,0,3,0,0,0,74,76,101,100,72,192.38,104,-17.00,-5.00,-982.00
2024-05-17 15:57:05.504882,0,0,3,0,0,0,74,76,101,100,72,192.36,104,-8.00,-32.00,-997.00
2024-05-17 15:57:05.600765,0,0,3,0,0,0,74,76,101,100,72,192.40,105,-47.00,12.00,-989.00
2024-05-17 15:57:05.714329,0,0,3,0,0,0,74,76,101,100,72,192.40,105,-20.00,-11.00,-1034.00
2024-05-17 15:57:05.806209,-3,0,3,0,0,0,73,75,102,110,72,192.42,105,-29.00,13.00,-1035.00
2024-05-17 15:57:05.906619,-8,0,3,0,0,0,73,75,103,110,72,192.33,105,-22.00,-4.00,-1010.00
2024-05-17 15:57:06.009142,-8,0,3,2,0,0,73,75,103,100,72,192.38,105,-5.00,-3.00,-984.00
2024-05-17 15:57:06.112492,-8,0,3,4,0,0,73,75,103,100,72,192.30,105,-14.00,-11.00,-979.00
2024-05-17 15:57:06.212423,-7,0,3,5,0,0,73,75,103,110,72,192.30,105,-25.00,-5.00,-1094.00
2024-05-17 15:57:06.323723,-6,0,3,6,0,0,73,75,101,110,72,192.30,105,-15.00,-3.00,-1024.00
2024-05-17 15:57:06.417582,-6,0,3,6,0,0,73,75,101,110,72,192.31,105,-64.00,10.00,-996.00
2024-05-17 15:57:06.528544,-5,0,3,7,0,0,73,75,101,110,72,192.16,105,-78.00,22.00,-992.00
2024-05-17 15:57:06.620539,-4,0,3,7,0,0,73,75,102,110,72,192.22,106,-63.00,3.00,-992.00
2024-05-17 15:57:06.733346,-1,0,3,7,0,0,73,75,103,110,72,192.21,106,-25.00,-2.00,-1025.00
2024-05-17 15:57:06.824574,0,-1,3,6,0,0,73,76,104,110,72,192.27,106,-53.00,30.00,-1008.00
2024-05-17 15:57:06.938148,2,0,3,5,0,0,73,76,103,110,72,192.30,106,-84.00,12.00,-951.00
2024-05-17 15:57:07.028459,3,0,3,4,0,0,73,76,102,110,72,192.32,106,-36.00,-8.00,-1014.00
2024-05-17 15:57:07.142941,2,0,3,3,0,0,73,76,101,110,72,192.28,106,-36.00,-4.00,-1009.00
2024-05-17 15:57:07.232768,0,0,3,3,0,0,73,76,100,100,72,192.32,106,-17.00,-1.00,-964.00
2024-05-17 15:57:07.334335,0,0,3,3,0,0,73,76,99,100,72,192.31,106,-59.00,18.00,-991.00
2024-05-17 15:57:07.450158,0,0,3,3,0,0,73,76,99,100,72,192.30,106,1.00,0.00,-1043.00
2024-05-17 15:57:07.487484,0,0,3,2,0,0,73,76,98,100,72,192.33,106,-26.00,3.00,-995.00
2024-05-17 15:57:07.654940,0,0,3,2,0,0,73,76,98,100,72,192.30,107,-35.00,13.00,-1028.00
2024-05-17 15:57:07.692184,0,0,3,2,0,0,73,76,98,100,72,192.29,107,-23.00,10.00,-1016.00
2024-05-17 15:57:07.859824,0,0,3,2,0,0,73,75,97,100,72,192.27,107,-25.00,12.00,-1025.00
2024-05-17 15:57:07.946339,0,0,3,2,0,0,73,75,98,100,72,192.22,107,-17.00,9.00,-1009.00
2024-05-17 15:57:08.065209,0,0,3,2,0,0,73,75,98,100,72,192.28,107,-14.00,2.00,-1024.00
2024-05-17 15:57:08.153223,0,0,3,2,0,0,73,75,100,100,72,192.35,107,34.00,-17.00,-999.00
2024-05-17 15:57:08.211697,3,0,3,2,0,0,73,75,101,100,72,192.32,107,-46.00,10.00,-1046.00
2024-05-17 15:57:08.303684,3,0,3,1,0,0,73,75,102,100,72,192.34,107,-19.00,9.00,-1026.00
2024-05-17 15:57:08.474659,1,0,3,0,0,0,73,75,101,100,72,192.32,107,17.00,-12.00,-1025.00
2024-05-17 15:57:08.507634,0,0,3,0,0,0,73,75,101,100,72,192.35,107,0.00,13.00,-957.00
2024-05-17 15:57:08.679060,0,0,3,0,0,0,73,75,102,100,72,192.40,108,35.00,-12.00,-1024.00
2024-05-17 15:57:08.711716,0,0,3,0,0,0,73,75,102,110,72,192.31,108,-3.00,2.00,-1045.00
2024-05-17 15:57:08.885049,0,0,3,0,0,0,73,76,102,110,72,192.31,108,-38.00,0.00,-978.00
2024-05-17 15:57:08.915673,0,0,3,0,0,0,73,76,103,110,72,192.31,108,-22.00,5.00,-962.00
2024-05-17 15:57:09.095931,0,0,3,0,0,0,73,76,103,110,72,192.34,108,-46.00,-1.00,-998.00
2024-05-17 15:57:09.119776,0,0,3,0,0,0,73,76,103,110,72,192.31,108,-1.00,16.00,-980.00
2024-05-17 15:57:09.222224,0,0,3,0,0,0,73,76,102,110,72,192.29,108,4.00,10.00,-944.00
2024-05-17 15:57:09.396231,0,0,3,0,0,0,73,76,103,110,72,192.36,108,-23.00,-3.00,-989.00
2024-05-17 15:57:09.425656,0,0,3,0,0,0,73,76,103,110,72,192.34,108,1.00,5.00,-989.00
2024-05-17 15:57:09.600644,0,0,3,0,0,0,73,76,103,110,72,192.31,108,0.00,23.00,-1039.00
2024-05-17 15:57:09.629536,0,0,3,0,0,0,73,76,104,110,72,192.39,109,0.00,5.00,-978.00
2024-05-17 15:57:09.807403,0,0,3,0,0,0,73,76,105,110,72,192.33,109,6.00,9.00,-995.00
2024-05-17 15:57:09.833967,0,0,3,0,0,0,73,75,105,110,72,192.38,109,2.00,-7.00,-991.00
2024-05-17 15:57:10.010724,0,0,3,0,0,0,73,75,105,110,72,192.32,109,29.00,-20.00,-1014.00
2024-05-17 15:57:10.037515,0,0,3,0,0,0,73,75,105,110,72,192.41,109,-8.00,-3.00,-1000.00
2024-05-17 15:57:10.139913,0,0,3,0,0,0,73,75,106,110,72,192.37,109,-8.00,7.00,-1001.00
2024-05-17 15:57:10.306921,0,0,3,0,0,0,73,75,106,110,72,192.46,109,-22.00,23.00,-1026.00
2024-05-17 15:57:10.343279,0,0,3,0,0,0,73,75,105,110,72,192.41,109,-14.00,1.00,-977.00
2024-05-17 15:57:10.522108,0,0,3,0,0,0,73,75,105,110,72,192.34,109,-4.00,15.00,-1002.00
2024-05-17 15:57:10.547313,6,0,3,0,0,0,73,75,106,110,72,192.38,110,-31.00,7.00,-967.00
2024-05-17 15:57:10.726897,8,0,3,-2,0,0,73,75,106,110,72,192.39,110,24.00,-33.00,-1029.00
2024-05-17 15:57:10.751338,8,0,3,-3,0,0,73,75,106,110,72,192.40,110,36.00,-20.00,-1012.00
2024-05-17 15:57:10.856754,7,0,3,-5,0,0,73,75,105,110,72,192.36,110,2.00,10.00,-997.00
2024-05-17 15:57:10.955272,6,0,3,-6,0,0,73,75,105,110,72,192.35,110,24.00,-1.00,-1014.00
2024-05-17 15:57:11.136553,5,1,3,-6,0,0,73,75,103,110,72,192.38,110,45.00,-33.00,-1012.00
2024-05-17 15:57:11.159395,5,2,3,-6,0,0,73,75,103,110,72,192.40,110,46.00,6.00,-1019.00
2024-05-17 15:57:11.342402,4,1,3,-7,0,0,73,75,103,110,72,192.33,110,45.00,-10.00,-1018.00
2024-05-17 15:57:11.363363,2,1,3,-7,0,0,73,75,104,110,72,192.39,110,45.00,-36.00,-977.00
2024-05-17 15:57:11.546544,0,0,3,-6,0,0,73,75,103,110,72,192.35,110,26.00,1.00,-981.00
2024-05-17 15:57:11.567319,-2,0,3,-5,0,0,73,75,103,110,72,192.39,111,32.00,-20.00,-1000.00
2024-05-17 15:57:11.752424,-3,0,3,-4,0,0,73,75,103,110,72,192.38,111,41.00,-13.00,-1003.00
2024-05-17 15:57:11.752471,-2,0,3,-3,0,0,73,75,103,110,72,192.32,111,59.00,-35.00,-1012.00
2024-05-17 15:57:11.822145,-1,0,3,-3,0,0,72,76,103,110,72,192.24,111,24.00,2.00,-982.00
2024-05-17 15:57:11.955810,0,0,3,-3,0,0,72,76,103,110,72,192.35,111,0.00,-16.00,-1012.00
2024-05-17 15:57:12.027924,0,0,3,-3,0,0,72,76,103,110,72,192.37,111,0.00,-6.00,-990.00
2024-05-17 15:57:12.128537,0,0,3,-3,0,0,72,76,103,110,72,192.34,111,26.00,-12.00,-973.00
2024-05-17 15:57:12.267395,0,0,3,-3,0,0,72,76,104,110,72,192.31,111,-27.00,-11.00,-979.00
2024-05-17 15:57:12.332193,0,0,3,-3,0,0,72,76,103,110,72,192.34,111,29.00,7.00,-1042.00
2024-05-17 15:57:12.470699,0,0,3,-3,0,0,72,76,103,110,72,192.41,111,9.00,21.00,-946.00
2024-05-17 15:57:12.538924,-1,0,3,-2,0,0,72,76,103,110,72,192.33,112,9.00,-7.00,-1016.00
2024-05-17 15:57:12.638153,-4,0,3,-2,0,0,72,76,104,110,72,192.40,112,33.00,2.00,-992.00
2024-05-17 15:57:12.776339,-5,0,3,-1,0,0,72,76,104,110,72,192.38,112,16.00,32.00,-988.00
2024-05-17 15:57:12.842277,-2,0,3,0,0,0,73,76,104,110,72,192.36,112,-4.00,-16.00,-1025.00
2024-05-17 15:57:12.944692,-1,0,3,0,0,0,73,76,105,110,72,192.38,112,-18.00,-12.00,-951.00
2024-05-17 15:57:13.084092,0,0,3,0,0,0,73,76,104,110,72,192.39,112,-13.00,-22.00,-990.00
2024-05-17 15:57:13.148815,0,0,3,0,0,0,73,76,103,110,72,192.35,112,-36.00,0.00,-995.00
2024-05-17 15:57:13.250325,0,0,3,0,0,0,73,76,103,110,72,192.40,112,11.00,-12.00,-973.00
2024-05-17 15:57:13.396136,-1,0,3,0,0,0,73,76,104,110,72,192.34,112,-17.00,-3.00,-964.00
2024-05-17 15:57:13.455003,-1,0,3,0,0,0,73,76,104,110,72,192.41,112,13.00,-6.00,-991.00
2024-05-17 15:57:13.556796,-1,0,3,0,0,0,73,76,104,110,72,192.30,113,0.00,-18.00,-1031.00
2024-05-17 15:57:13.658211,0,0,3,0,0,0,73,76,104,110,72,192.34,113,-6.00,-14.00,-970.00
2024-05-17 15:57:13.760252,0,0,3,0,0,0,73,76,104,110,72,192.34,113,4.00,-17.00,-968.00
2024-05-17 15:57:13.901444,0,0,3,0,0,0,74,76,104,110,72,192.33,113,33.00,-50.00,-1082.00
2024-05-17 15:57:13.969952,0,0,3,0,0,0,74,76,105,110,72,192.33,113,45.00,-14.00,-1018.00
2024-05-17 15:57:14.066676,0,1,3,0,0,0,74,76,105,110,72,192.42,113,2.00,7.00,-940.00
2024-05-17 15:57:14.168091,0,0,3,0,0,0,74,76,106,110,72,192.35,113,31.00,-29.00,-1015.00
2024-05-17 15:57:14.312190,0,0,3,0,0,0,74,76,106,110,72,192.40,113,-15.00,-11.00,-962.00
2024-05-17 15:57:14.375588,0,0,3,0,0,0,74,76,107,110,72,192.45,113,-21.00,8.00,-1015.00
2024-05-17 15:57:14.474567,0,0,3,0,0,0,74,76,109,110,72,192.42,113,10.00,-9.00,-997.00
2024-05-17 15:57:14.622367,-1,0,3,0,0,0,74,76,110,110,72,192.43,114,17.00,-38.00,-977.00
2024-05-17 15:57:14.678205,0,0,3,0,0,0,74,76,110,110,72,192.44,114,-7.00,9.00,-986.00
2024-05-17 15:57:14.826921,0,0,3,0,0,0,74,76,110,110,72,192.40,114,-20.00,30.00,-970.00
2024-05-17 15:57:14.886612,0,0,3,0,0,0,72,76,110,110,72,192.40,114,-7.00,-24.00,-947.00
2024-05-17 15:57:14.984030,0,0,3,0,0,0,72,76,110,110,72,192.48,114,19.00,-16.00,-976.00
2024-05-17 15:57:15.130845,0,-1,3,0,0,0,72,76,111,110,72,192.36,114,-18.00,22.00,-943.00
2024-05-17 15:57:15.187921,0,-7,3,0,0,0,72,76,111,110,72,192.45,114,2.00,3.00,-996.00
2024-05-17 15:57:15.334875,0,-7,3,0,-2,0,72,76,111,110,72,192.50,114,-13.00,11.00,-1006.00
2024-05-17 15:57:15.394273,0,-4,3,0,-3,0,72,76,111,110,72,192.51,114,-2.00,-5.00,-1073.00
2024-05-17 15:57:15.494757,0,-1,3,0,-4,0,72,76,110,110,72,192.42,114,17.00,32.00,-1037.00
2024-05-17 15:57:15.596021,0,0,3,0,-3,0,72,76,109,110,72,192.42,115,-42.00,43.00,-982.00
2024-05-17 15:57:15.647083,0,1,3,0,-2,0,72,76,109,110,72,192.46,115,7.00,23.00,-1007.00
2024-05-17 15:57:15.753210,0,0,3,0,-2,0,72,76,109,110,72,192.44,115,-8.00,21.00,-949.00
2024-05-17 15:57:15.949872,0,0,3,0,-2,0,73,75,108,110,72,192.48,115,11.00,4.00,-1045.00
2024-05-17 15:57:16.006399,0,-1,3,0,-2,0,73,75,107,110,72,192.45,115,1.00,-7.00,-993.00
2024-05-17 15:57:16.055118,0,-1,3,0,-2,0,73,75,106,110,72,192.37,115,1.00,22.00,-990.00
2024-05-17 15:57:16.158514,0,0,3,0,-2,0,73,75,105,110,72,192.37,115,17.00,3.00,-1006.00
2024-05-17 15:57:16.366483,0,0,3,0,-2,0,73,75,103,110,72,192.36,115,15.00,23.00,-1026.00
2024-05-17 15:57:16.366537,0,0,3,0,-2,0,73,75,102,110,72,192.31,115,-2.00,-11.00,-1013.00
2024-05-17 15:57:16.463886,0,0,3,0,-2,0,73,75,101,110,72,192.40,115,11.00,-1.00,-993.00
2024-05-17 15:57:16.565862,0,0,3,0,-2,0,73,75,99,110,72,192.31,116,-8.00,-6.00,-987.00
2024-05-17 15:57:16.669575,0,0,3,0,-2,0,73,75,98,100,72,192.31,116,5.00,29.00,-988.00
2024-05-17 15:57:16.772194,0,0,3,0,-2,0,73,75,97,100,72,192.30,116,2.00,22.00,-1051.00
2024-05-17 15:57:16.871844,0,4,3,0,-2,0,73,76,96,100,72,192.28,116,-34.00,31.00,-992.00
2024-05-17 15:57:17.076045,0,4,3,0,-1,0,73,76,95,100,72,192.21,116,0.00,5.00,-972.00
2024-05-17 15:57:17.076567,0,2,3,0,0,0,73,76,93,100,72,192.24,116,3.00,25.00,-985.00
2024-05-17 15:57:17.178574,0,0,3,0,0,0,73,76,93,100,72,192.31,116,-4.00,-10.00,-1060.00
2024-05-17 15:57:17.280341,0,0,3,0,0,0,73,76,93,100,72,192.24,116,-7.00,1.00,-1032.00
2024-05-17 15:57:17.383046,0,0,3,0,0,0,73,76,92,100,72,192.22,116,-19.00,24.00,-1004.00
2024-05-17 15:57:17.485367,0,0,3,0,0,0,73,76,91,100,72,192.29,116,4.00,12.00,-1031.00
2024-05-17 15:57:17.588701,0,0,3,0,0,0,73,76,91,100,72,192.21,117,21.00,5.00,-1028.00
2024-05-17 15:57:17.690698,0,0,3,0,0,0,73,76,91,100,72,192.25,117,-11.00,0.00,-1016.00
2024-05-17 15:57:17.793920,0,0,3,0,0,0,73,76,91,100,72,192.26,117,-34.00,5.00,-1030.00
2024-05-17 15:57:17.896099,0,0,3,0,0,0,73,76,92,100,72,192.22,117,-14.00,2.00,-1002.00
2024-05-17 15:57:17.999315,0,0,3,0,0,0,73,76,93,100,72,192.30,117,1.00,-2.00,-1001.00
2024-05-17 15:57:18.097157,0,0,3,0,0,0,73,76,93,100,72,192.26,117,15.00,-9.00,-984.00
2024-05-17 15:57:18.198039,0,0,3,0,0,0,73,76,94,100,72,192.26,117,20.00,-11.00,-986.00
2024-05-17 15:57:18.304617,0,0,3,0,0,0,73,76,94,100,72,192.31,117,0.00,0.00,-1001.00
2024-05-17 15:57:18.402362,0,0,3,0,0,0,73,76,95,100,72,192.31,117,-17.00,5.00,-981.00
2024-05-17 15:57:18.509325,0,0,3,0,0,0,73,76,96,100,72,192.27,117,0.00,-12.00,-1026.00
2024-05-17 15:57:18.606098,0,0,3,0,0,0,73,76,96,100,72,192.30,118,13.00,-13.00,-981.00
2024-05-17 15:57:18.716019,0,0,3,0,0,0,73,76,98,100,72,192.30,118,2.00,2.00,-970.00
2024-05-17 15:57:18.810939,0,0,3,0,0,0,73,76,98,100,72,192.33,118,21.00,12.00,-1024.00
2024-05-17 15:57:18.919110,0,0,3,0,0,0,73,76,99,100,72,192.34,118,-14.00,13.00,-980.00
2024-05-17 15:57:19.015692,0,0,3,0,0,0,73,76,100,100,72,192.36,118,-15.00,7.00,-967.00
2024-05-17 15:57:19.118065,0,0,3,0,0,0,73,76,100,100,72,192.35,118,4.00,26.00,-986.00
2024-05-17 15:57:19.217847,0,0,3,0,0,0,73,76,101,100,72,192.28,118,-2.00,3.00,-971.00
2024-05-17 15:57:19.328472,0,2,3,0,0,0,73,76,101,100,72,192.42,118,5.00,-4.00,-1010.00
2024-05-17 15:57:19.424542,0,8,3,0,1,0,73,76,101,110,72,192.36,118,-15.00,14.00,-1005.00
2024-05-17 15:57:19.524971,0,6,3,0,2,0,73,76,99,110,72,192.42,118,-19.00,9.00,-936.00
2024-05-17 15:57:19.575124,0,3,3,0,4,0,73,76,101,100,72,192.34,119,-56.00,6.00,-1001.00
2024-05-17 15:57:19.737972,0,0,3,0,4,0,73,76,100,100,72,192.35,119,33.00,-13.00,-1019.00
2024-05-17 15:57:19.779037,0,-1,3,0,3,0,73,76,100,100,72,192.36,119,-15.00,-21.00,-1054.00
2024-05-17 15:57:19.942845,0,-1,3,0,3,0,72,76,100,100,72,192.34,119,-18.00,-18.00,-1048.00
2024-05-17 15:57:19.983021,0,0,3,0,2,0,72,76,100,100,72,192.36,119,9.00,2.00,-999.00
2024-05-17 15:57:20.085500,0,0,3,0,2,0,72,76,100,100,72,192.38,119,-12.00,-3.00,-971.00
2024-05-17 15:57:20.186961,0,0,3,0,2,0,72,76,100,100,72,192.41,119,-20.00,-4.00,-1022.00
2024-05-17 15:57:20.356905,0,0,3,0,2,0,72,76,100,100,72,192.40,119,-7.00,-14.00,-1005.00
2024-05-17 15:57:20.391080,0,0,3,0,2,0,72,76,100,100,72,192.36,119,-22.00,0.00,-1004.00
2024-05-17 15:57:20.557131,0,0,3,0,2,0,72,76,100,100,72,192.30,119,-14.00,-17.00,-1016.00
2024-05-17 15:57:20.595061,0,0,3,0,2,0,72,76,100,100,72,192.30,120,-15.00,-16.00,-971.00
2024-05-17 15:57:20.762126,0,0,3,0,2,0,72,76,100,110,72,192.43,120,-9.00,15.00,-980.00
2024-05-17 15:57:20.804700,0,0,3,0,2,0,72,76,100,110,72,192.24,120,13.00,-6.00,-1023.00
2024-05-17 15:57:20.902346,0,0,3,0,2,0,73,76,100,100,72,192.42,120,-13.00,-7.00,-956.00
2024-05-17 15:57:21.071081,0,0,3,0,1,0,73,76,101,100,72,192.34,120,-13.00,-18.00,-957.00
2024-05-17 15:57:21.105190,0,-4,3,0,1,0,73,76,101,100,72,192.44,120,-14.00,-24.00,-1026.00
2024-05-17 15:57:21.207707,0,-2,3,0,0,0,73,76,100,100,72,192.36,120,3.00,-46.00,-958.00
2024-05-17 15:57:21.376626,0,0,3,0,0,0,73,76,100,100,72,192.36,120,5.00,-19.00,-1021.00
2024-05-17 15:57:21.411809,0,0,3,0,0,0,73,76,100,100,72,192.39,120,33.00,-14.00,-1003.00
2024-05-17 15:57:21.581755,0,0,3,0,0,0,73,76,100,100,72,192.31,120,37.00,-19.00,-1021.00
2024-05-17 15:57:21.617481,0,0,3,0,0,0,73,76,99,100,72,192.25,121,4.00,-9.00,-984.00
2024-05-17 15:57:21.717862,0,0,4,0,0,0,73,76,99,100,72,192.24,121,-12.00,-8.00,-1019.00
2024-05-17 15:57:21.888622,0,0,3,0,0,0,73,76,99,100,72,192.32,121,-19.00,-7.00,-991.00
2024-05-17 15:57:21.922437,0,0,3,0,0,0,73,76,100,100,72,192.36,121,-5.00,2.00,-984.00
2024-05-17 15:57:22.024595,0,0,3,0,0,0,73,76,100,100,72,192.29,121,32.00,-17.00,-1002.00
2024-05-17 15:57:22.138103,0,0,3,0,0,0,73,76,100,100,72,192.30,121,-5.00,10.00,-995.00
2024-05-17 15:57:22.227712,0,0,3,0,0,0,73,76,99,100,72,192.34,121,32.00,-8.00,-985.00
2024-05-17 15:57:22.400539,0,0,3,0,0,0,73,76,100,100,72,192.31,121,34.00,-5.00,-965.00
2024-05-17 15:57:22.431809,0,0,3,0,0,0,73,76,100,100,72,192.33,121,-1.00,-15.00,-977.00
2024-05-17 15:57:22.605413,0,0,3,0,0,0,73,76,100,100,72,192.37,121,11.00,-13.00,-1002.00
2024-05-17 15:57:22.635679,0,0,3,0,0,0,73,76,100,100,72,192.31,122,44.00,3.00,-1021.00
2024-05-17 15:57:22.810741,0,0,3,0,0,0,73,76,100,100,72,192.30,122,-40.00,7.00,-987.00
2024-05-17 15:57:22.840022,0,0,3,0,0,0,73,76,99,100,72,192.36,122,20.00,-25.00,-1035.00
2024-05-17 15:57:23.017154,0,0,3,0,0,0,73,76,99,100,72,192.35,122,-24.00,-3.00,-1008.00
2024-05-17 15:57:23.043648,0,0,3,0,0,0,73,76,99,100,72,192.31,122,-31.00,24.00,-962.00
2024-05-17 15:57:23.214096,0,0,3,0,0,0,73,76,99,100,72,192.39,122,-12.00,-15.00,-987.00
2024-05-17 15:57:23.247673,0,0,3,0,0,0,73,76,100,100,72,192.34,122,37.00,-45.00,-967.00
2024-05-17 15:57:23.424399,0,0,3,0,0,0,73,76,99,100,72,192.33,122,54.00,-60.00,-1004.00
2024-05-17 15:57:23.451649,0,0,6,0,0,0,73,76,100,100,72,192.30,122,5.00,-17.00,-976.00
2024-05-17 15:57:23.502834,0,0,11,0,0,0,73,76,100,100,72,192.33,122,-5.00,-27.00,-1000.00
2024-05-17 15:57:23.629832,0,0,17,0,0,0,73,76,101,100,72,192.30,123,22.00,-46.00,-1025.00
2024-05-17 15:57:23.706804,0,0,23,0,0,0,73,76,101,100,72,192.41,123,-22.00,-2.00,-1036.00
2024-05-17 15:57:23.834190,0,0,28,0,0,0,73,76,102,100,72,192.36,123,18.00,19.00,-994.00
2024-05-17 15:57:23.961653,0,0,34,0,0,0,73,75,103,100,72,192.37,123,18.00,4.00,-997.00
2024-05-17 15:57:24.154120,0,0,46,0,0,0,73,75,103,110,72,192.42,123,-26.00,23.00,-960.00
2024-05-17 15:57:24.154430,0,0,52,0,0,0,73,75,104,110,72,192.37,123,-12.00,-4.00,-996.00
2024-05-17 15:57:24.216785,0,0,58,0,0,0,73,75,104,110,72,192.38,123,45.00,-8.00,-1029.00
2024-05-17 15:57:24.345990,0,0,64,0,0,0,73,75,104,110,72,192.36,123,-19.00,11.00,-961.00
2024-05-17 15:57:24.420988,0,0,70,0,0,0,73,75,105,110,72,192.30,123,-12.00,-26.00,-963.00
2024-05-17 15:57:24.550814,0,0,76,0,0,0,73,75,105,110,72,192.47,124,-34.00,13.00,-950.00
2024-05-17 15:57:24.624863,0,0,81,0,0,0,73,75,105,110,72,192.40,124,10.00,-28.00,-966.00
2024-05-17 15:57:24.756294,0,0,87,0,0,0,73,75,105,110,72,192.43,124,15.00,-13.00,-1046.00
2024-05-17 15:57:24.829034,0,0,93,0,0,0,73,75,104,110,72,192.33,124,15.00,-10.00,-1013.00
2024-05-17 15:57:24.960251,0,0,99,0,0,0,73,76,104,110,72,192.43,124,13.00,-1.00,-951.00
2024-05-17 15:57:25.033706,0,0,105,0,0,0,73,76,104,110,72,192.37,124,-7.00,-23.00,-1034.00
2024-05-17 15:57:25.166404,0,0,111,0,0,0,73,76,104,110,72,192.42,124,-5.00,0.00,-1008.00
2024-05-17 15:57:25.236692,0,0,117,0,0,0,73,76,104,110,72,192.35,124,20.00,-23.00,-1018.00
2024-05-17 15:57:25.369930,0,0,123,0,0,0,73,76,104,110,72,192.31,124,-27.00,19.00,-974.00
2024-05-17 15:57:25.440669,0,0,129,0,0,0,73,76,104,110,72,192.38,124,14.00,-24.00,-990.00
2024-05-17 15:57:25.575164,0,0,135,0,0,0,73,76,104,110,72,192.45,125,-3.00,-13.00,-988.00
2024-05-17 15:57:25.644636,0,0,141,0,0,0,73,76,104,110,72,192.36,125,-7.00,-31.00,-959.00
2024-05-17 15:57:25.751735,0,0,147,0,0,0,73,76,104,110,72,192.40,125,-25.00,-25.00,-1011.00
2024-05-17 15:57:25.852558,0,0,152,0,0,0,73,76,104,110,71,192.38,125,18.00,-33.00,-1053.00
2024-05-17 15:57:25.950642,0,0,158,0,0,0,73,76,104,110,71,192.38,125,-7.00,-40.00,-998.00
2024-05-17 15:57:26.052806,0,0,164,0,0,0,73,76,104,110,71,192.34,125,15.00,-19.00,-985.00
2024-05-17 15:57:26.154797,0,0,169,0,0,0,73,76,104,110,71,192.42,125,0.00,9.00,-968.00
2024-05-17 15:57:26.258392,0,0,175,0,0,0,73,76,104,110,71,192.48,125,7.00,-38.00,-995.00
2024-05-17 15:57:26.359518,0,0,-178,0,0,0,73,76,104,110,71,192.39,125,-19.00,2.00,-990.00
2024-05-17 15:57:26.461940,0,0,-173,0,0,0,73,76,105,110,71,192.43,125,-19.00,-1.00,-991.00
2024-05-17 15:57:26.564272,0,0,-167,0,0,0,73,76,105,110,71,192.45,126,-10.00,-27.00,-997.00
2024-05-17 15:57:26.664705,0,0,-161,0,0,0,73,76,105,110,71,192.40,126,3.00,-9.00,-1041.00
2024-05-17 15:57:26.803489,0,0,-155,0,0,0,73,76,105,110,71,192.47,126,-3.00,-12.00,-978.00
2024-05-17 15:57:26.871459,0,0,-150,0,0,0,73,76,106,110,71,192.42,126,-23.00,-28.00,-1010.00
2024-05-17 15:57:26.970679,0,0,-144,0,0,0,72,76,106,110,71,192.41,126,-19.00,-10.00,-951.00
2024-05-17 15:57:27.076465,0,0,-138,0,0,0,72,76,106,110,71,192.52,126,19.00,-34.00,-959.00
2024-05-17 15:57:27.174832,0,0,-133,0,0,0,72,76,106,110,71,192.40,126,0.00,-7.00,-985.00
2024-05-17 15:57:27.315536,0,0,-127,0,0,0,72,76,106,110,71,192.42,126,-7.00,-17.00,-1035.00
2024-05-17 15:57:27.327389,0,0,-121,0,0,0,72,76,106,110,71,192.50,126,-7.00,24.00,-994.00
2024-05-17 15:57:27.521141,0,0,-116,0,0,0,72,76,106,110,71,192.55,126,-6.00,40.00,-1027.00
2024-05-17 15:57:27.531406,0,0,-110,0,0,0,72,76,106,110,71,192.48,127,2.00,17.00,-981.00
2024-05-17 15:57:27.725804,0,0,-104,0,0,0,72,76,106,110,71,192.45,127,-1.00,-24.00,-951.00
2024-05-17 15:57:27.737159,0,0,-98,0,0,0,72,76,105,110,71,192.48,127,1.00,-27.00,-1032.00
2024-05-17 15:57:27.837637,0,0,-92,0,0,0,72,76,105,110,71,192.41,127,-33.00,-21.00,-1031.00
2024-05-17 15:57:28.037415,0,0,-86,0,0,0,74,76,105,110,71,192.45,127,-7.00,19.00,-987.00
2024-05-17 15:57:28.042557,0,0,-81,0,0,0,74,76,104,110,71,192.41,127,15.00,-32.00,-1026.00
2024-05-17 15:57:28.143795,0,0,-75,0,0,0,74,76,104,110,71,192.42,127,-25.00,0.00,-990.00
2024-05-17 15:57:28.245254,0,0,-69,0,0,0,74,76,104,110,71,192.39,127,1.00,16.00,-989.00
2024-05-17 15:57:28.441918,0,0,-63,0,0,0,74,76,103,110,71,192.36,127,36.00,-12.00,-1043.00
2024-05-17 15:57:28.449316,0,0,-56,0,0,0,74,76,103,110,71,192.39,127,-8.00,-12.00,-1029.00
2024-05-17 15:57:28.647309,0,0,-50,0,0,0,74,76,103,110,71,192.37,128,1.00,18.00,-1054.00
2024-05-17 15:57:28.654023,0,0,-44,0,0,0,74,76,103,110,71,192.33,128,-14.00,14.00,-1021.00
2024-05-17 15:57:28.855809,0,0,-38,0,0,0,74,76,103,110,71,192.38,128,-14.00,-1.00,-985.00
2024-05-17 15:57:28.858121,0,0,-32,0,0,0,74,76,102,110,71,192.35,128,35.00,7.00,-1012.00
2024-05-17 15:57:29.056281,0,0,-26,0,0,0,74,76,101,100,71,192.28,128,3.00,3.00,-995.00
2024-05-17 15:57:29.063799,0,0,-20,0,0,0,74,76,101,100,71,192.34,128,-19.00,17.00,-1009.00
2024-05-17 15:57:29.163663,0,0,-14,0,0,0,74,76,101,100,71,192.38,128,-10.00,-9.00,-974.00
2024-05-17 15:57:29.268313,0,0,-10,0,0,0,74,76,102,100,71,192.35,128,-6.00,20.00,-1021.00
2024-05-17 15:57:29.367311,0,0,-6,0,0,0,74,76,102,100,71,192.34,128,3.00,0.00,-1060.00
2024-05-17 15:57:29.569940,0,0,-4,0,0,0,74,76,103,100,71,192.35,128,-19.00,26.00,-991.00
2024-05-17 15:57:29.571258,0,0,-2,0,0,0,74,76,103,100,71,192.41,129,0.00,-4.00,-1012.00
2024-05-17 15:57:29.673298,0,0,0,0,0,0,74,76,103,100,71,192.42,129,-10.00,2.00,-1017.00
2024-05-17 15:57:29.775280,0,0,0,0,0,0,74,76,103,110,71,192.39,129,-2.00,10.00,-993.00
2024-05-17 15:57:29.878201,0,0,1,0,0,0,74,76,104,110,71,192.35,129,-19.00,11.00,-990.00
2024-05-17 15:57:29.979584,0,0,2,0,0,0,73,76,105,110,71,192.36,129,-16.00,7.00,-1030.00
2024-05-17 15:57:30.185555,0,0,2,0,0,0,73,76,106,110,71,192.46,129,7.00,-13.00,-1040.00
2024-05-17 15:57:30.185717,0,0,2,0,0,0,73,76,107,110,71,192.43,129,25.00,-6.00,-1003.00
2024-05-17 15:57:30.287182,0,0,2,0,0,0,73,76,107,110,71,192.42,129,0.00,-8.00,-987.00
2024-05-17 15:57:30.387629,0,0,2,0,0,0,73,76,107,110,71,192.36,129,-7.00,-6.00,-973.00
2024-05-17 15:57:30.492269,0,0,2,0,0,0,73,76,108,110,71,192.37,129,-2.00,17.00,-983.00
2024-05-17 15:57:30.592407,0,0,2,0,0,0,73,76,108,110,71,192.43,130,10.00,9.00,-968.00
2024-05-17 15:57:30.694833,0,0,2,0,0,0,73,76,108,110,71,192.36,130,7.00,8.00,-973.00
2024-05-17 15:57:30.799150,0,0,2,0,0,0,73,76,107,110,71,192.39,130,-8.00,-13.00,-1003.00
2024-05-17 15:57:30.897676,0,0,2,0,0,0,73,76,106,110,71,192.41,130,8.00,-7.00,-1004.00
2024-05-17 15:57:31.002645,0,0,2,0,0,0,73,76,106,110,71,192.42,130,-21.00,2.00,-1002.00
2024-05-17 15:57:31.101697,0,0,2,0,0,0,73,76,105,110,71,192.42,130,24.00,-23.00,-1000.00
2024-05-17 15:57:31.215661,0,0,2,0,0,0,73,76,103,110,71,192.38,130,8.00,31.00,-1007.00
2024-05-17 15:57:31.305360,0,0,2,0,0,0,73,76,103,110,71,192.39,130,-5.00,13.00,-1008.00
2024-05-17 15:57:31.411736,0,0,2,0,0,0,73,76,102,110,71,192.39,130,23.00,-21.00,-1050.00
2024-05-17 15:57:31.509603,0,0,2,0,0,0,73,76,101,100,71,192.40,130,22.00,0.00,-960.00
2024-05-17 15:57:31.560648,0,0,2,0,0,0,73,76,101,100,71,192.33,131,24.00,1.00,-963.00
2024-05-17 15:57:31.718734,0,0,2,0,0,0,73,76,101,100,71,192.32,131,-2.00,8.00,-1030.00
2024-05-17 15:57:31.764547,0,0,2,0,0,0,73,76,101,100,71,192.30,131,-19.00,26.00,-1005.00
2024-05-17 15:57:31.923618,0,0,2,0,0,0,73,76,102,100,71,192.36,131,16.00,9.00,-977.00
2024-05-17 15:57:32.019278,0,0,2,0,0,0,73,75,102,100,71,192.34,131,-34.00,31.00,-975.00
2024-05-17 15:57:32.121275,0,0,1,0,0,0,73,75,101,100,71,192.39,131,52.00,-84.00,-996.00
2024-05-17 15:57:32.230618,0,0,-3,0,0,0,73,75,102,100,71,192.34,131,-13.00,0.00,-997.00
2024-05-17 15:57:32.274297,0,0,-9,0,0,0,73,75,101,100,71,192.37,131,8.00,-24.00,-996.00
2024-05-17 15:57:32.376431,0,0,-15,0,0,0,73,75,101,100,71,192.35,131,32.00,-14.00,-970.00
2024-05-17 15:57:32.538038,0,0,-21,0,0,0,73,75,101,100,71,192.35,131,-23.00,7.00,-981.00
2024-05-17 15:57:32.580612,0,0,-26,0,0,0,73,75,100,100,71,192.33,132,28.00,-4.00,-979.00
2024-05-17 15:57:32.682377,0,0,-32,0,0,0,73,75,99,100,71,192.38,132,13.00,5.00,-1008.00
2024-05-17 15:57:32.784316,0,0,-38,0,0,0,73,75,99,100,71,192.37,132,-15.00,23.00,-994.00
2024-05-17 15:57:32.947430,0,0,-44,0,0,0,73,75,98,100,71,192.29,132,-2.00,25.00,-987.00
2024-05-17 15:57:32.988400,0,0,-50,0,0,0,73,76,98,100,71,192.28,132,-8.00,5.00,-1032.00
2024-05-17 15:57:33.152236,0,0,-56,0,0,0,73,76,97,100,71,192.38,132,-39.00,14.00,-1030.00
2024-05-17 15:57:33.193161,0,0,-61,0,0,0,73,76,97,100,71,192.36,132,-5.00,-8.00,-1020.00
2024-05-17 15:57:33.294560,0,0,-67,0,0,0,73,76,97,100,71,192.33,132,-23.00,23.00,-1017.00
2024-05-17 15:57:33.459419,0,0,-73,0,0,0,73,76,96,100,71,192.32,132,5.00,17.00,-989.00
2024-05-17 15:57:33.498887,0,0,-79,0,0,0,73,76,95,100,71,192.28,132,-18.00,4.00,-1022.00
2024-05-17 15:57:33.600457,0,0,-85,0,0,0,73,76,96,100,71,192.33,133,23.00,-14.00,-1004.00
2024-05-17 15:57:33.766632,0,0,-90,0,0,0,73,76,95,100,71,192.32,133,-35.00,11.00,-1020.00
2024-05-17 15:57:33.805240,0,0,-96,0,0,0,73,76,95,100,70,192.30,133,8.00,-23.00,-1008.00
2024-05-17 15:57:33.971421,0,0,-101,0,0,0,73,76,94,100,70,192.23,133,-3.00,-10.00,-989.00
2024-05-17 15:57:34.009443,0,0,-107,0,0,0,73,75,94,100,70,192.31,133,-40.00,6.00,-1014.00
2024-05-17 15:57:34.111921,0,0,-113,0,0,0,73,75,93,100,70,192.28,133,-24.00,-30.00,-1011.00
2024-05-17 15:57:34.214733,0,0,-119,0,0,0,73,75,93,100,70,192.31,133,1.00,-18.00,-998.00
2024-05-17 15:57:34.316961,0,0,-125,0,0,0,73,75,92,100,70,192.26,133,-38.00,13.00,-1006.00
2024-05-17 15:57:34.418073,0,0,-130,0,0,0,73,75,92,100,70,192.23,133,14.00,-46.00,-1019.00
2024-05-17 15:57:34.519400,0,0,-136,0,0,0,73,75,93,100,70,192.30,133,-26.00,-3.00,-1006.00
2024-05-17 15:57:34.621861,0,0,-142,0,0,0,73,75,92,100,70,192.30,134,9.00,-34.00,-1006.00
2024-05-17 15:57:34.722986,0,0,-148,0,0,0,73,75,92,100,70,192.34,134,-13.00,-10.00,-985.00
2024-05-17 15:57:34.893013,0,0,-154,0,0,0,73,75,92,100,70,192.24,134,-15.00,-23.00,-1040.00
2024-05-17 15:57:34.927023,0,0,-160,0,0,0,73,75,92,100,70,192.25,134,16.00,-31.00,-1004.00
2024-05-17 15:57:35.097800,0,0,-167,0,0,0,73,75,92,100,70,192.35,134,-34.00,7.00,-992.00
2024-05-17 15:57:35.133225,0,0,-173,0,0,0,73,75,92,100,70,192.33,134,-23.00,-13.00,-1019.00
2024-05-17 15:57:35.234485,0,0,-179,0,0,0,73,75,92,100,70,192.30,134,-27.00,-7.00,-1002.00
2024-05-17 15:57:35.335106,0,0,173,0,0,0,73,75,93,100,70,192.33,134,12.00,-8.00,-1023.00
2024-05-17 15:57:35.508023,0,0,167,0,0,0,73,75,93,100,70,192.30,134,-29.00,-18.00,-992.00
2024-05-17 15:57:35.539089,0,0,161,0,0,0,73,75,94,100,70,192.23,134,2.00,-38.00,-989.00
2024-05-17 15:57:35.640989,0,0,155,0,0,0,73,75,94,100,70,192.27,135,-29.00,-27.00,-995.00
2024-05-17 15:57:35.814584,0,1,149,0,0,0,73,75,95,100,70,192.26,135,12.00,-26.00,-989.00
2024-05-17 15:57:35.845360,0,1,143,0,0,0,73,75,96,100,70,192.30,135,4.00,-31.00,-1027.00
2024-05-17 15:57:35.896299,0,1,137,0,0,0,73,75,96,100,70,192.31,135,-34.00,-11.00,-1009.00
2024-05-17 15:57:36.053301,0,0,131,0,0,0,73,75,97,100,70,192.27,135,31.00,-28.00,-1018.00
2024-05-17 15:57:36.100448,0,0,125,0,0,0,73,75,98,100,70,192.28,135,-9.00,-11.00,-1021.00
2024-05-17 15:57:36.224445,0,0,119,0,0,0,73,75,98,100,70,192.34,135,-22.00,-15.00,-988.00
2024-05-17 15:57:36.304191,0,0,113,0,0,0,73,75,99,100,70,192.34,135,0.00,-6.00,-991.00
2024-05-17 15:57:36.429012,0,0,107,0,0,0,73,75,101,100,70,192.39,135,7.00,-6.00,-954.00
2024-05-17 15:57:36.508218,0,0,101,0,0,0,73,75,101,100,70,192.44,135,9.00,-2.00,-1008.00
2024-05-17 15:57:36.633931,0,0,95,0,0,0,73,75,103,100,70,192.40,136,15.00,-13.00,-1008.00
2024-05-17 15:57:36.712286,0,0,89,0,0,0,73,75,103,100,70,192.29,136,25.00,-6.00,-958.00
2024-05-17 15:57:36.838624,0,0,83,0,0,0,73,75,103,110,70,192.34,136,1.00,-12.00,-989.00
2024-05-17 15:57:36.917162,0,0,77,0,0,0,73,75,104,110,70,192.39,136,0.00,-13.00,-991.00
2024-05-17 15:57:37.018266,0,0,65,0,0,0,73,76,104,110,70,192.33,136,-12.00,14.00,-1001.00
2024-05-17 15:57:37.145782,0,0,59,0,0,0,73,76,104,110,70,192.37,136,1.00,-16.00,-1000.00
2024-05-17 15:57:37.222431,0,0,53,0,0,0,73,76,104,110,70,192.36,136,0.00,-10.00,-981.00
2024-05-17 15:57:37.350574,0,0,47,0,0,0,73,76,104,110,70,192.46,136,-23.00,10.00,-987.00
2024-05-17 15:57:37.429050,0,0,40,0,0,0,73,76,103,110,70,192.40,136,-17.00,-1.00,-996.00
2024-05-17 15:57:37.528276,0,0,34,0,0,0,73,76,102,110,70,192.37,137,5.00,-1.00,-1025.00
2024-05-17 15:57:37.657729,0,0,28,0,0,0,73,76,102,110,70,192.39,137,-1.00,1.00,-985.00
2024-05-17 15:57:37.732270,0,0,22,0,0,0,73,76,102,110,70,192.38,137,-19.00,9.00,-1021.00
2024-05-17 15:57:37.836695,0,0,17,0,0,0,73,76,101,110,70,192.45,137,31.00,-11.00,-1064.00
2024-05-17 15:57:37.936145,0,0,14,0,0,0,73,76,101,100,70,192.39,137,-19.00,38.00,-969.00
2024-05-17 15:57:38.067356,0,0,11,0,0,0,73,76,101,100,70,192.37,137,-14.00,4.00,-1056.00
2024-05-17 15:57:38.140086,0,0,9,0,0,0,73,76,100,100,70,192.34,137,23.00,11.00,-978.00
2024-05-17 15:57:38.272448,0,0,7,0,0,0,73,76,100,100,70,192.35,137,-19.00,3.00,-998.00
2024-05-17 15:57:38.343963,0,0,6,0,0,0,73,76,100,100,70,192.39,137,-7.00,9.00,-987.00
2024-05-17 15:57:38.476996,0,0,5,0,0,0,73,76,100,100,70,192.43,137,-12.00,4.00,-996.00
2024-05-17 15:57:38.548094,0,0,4,0,0,0,73,76,100,100,70,192.43,138,11.00,-11.00,-1028.00
2024-05-17 15:57:38.682097,0,0,4,0,0,0,73,76,101,100,70,192.40,138,6.00,15.00,-1012.00
2024-05-17 15:57:38.752596,0,0,4,0,0,0,73,76,100,100,70,192.38,138,20.00,11.00,-963.00
2024-05-17 15:57:38.889482,0,0,4,0,0,0,73,76,100,100,70,192.38,138,-21.00,0.00,-1003.00
2024-05-17 15:57:38.956173,0,0,4,0,0,0,73,76,101,100,70,192.38,138,1.00,4.00,-1003.00
2024-05-17 15:57:39.091577,0,0,4,0,0,0,73,76,101,100,70,192.42,138,-10.00,0.00,-1021.00
2024-05-17 15:57:39.160237,0,0,4,0,0,0,73,76,101,100,70,192.34,138,16.00,-13.00,-1015.00
2024-05-17 15:57:39.262300,0,0,4,0,0,0,73,76,101,100,70,192.33,138,20.00,-3.00,-1019.00
2024-05-17 15:57:39.366115,0,0,4,0,0,0,73,76,101,100,70,192.34,138,-14.00,2.00,-969.00
2024-05-17 15:57:39.468031,0,0,4,0,0,0,73,76,102,100,70,192.43,138,-31.00,16.00,-1005.00
2024-05-17 15:57:39.569929,0,0,4,0,0,0,73,76,101,100,70,192.34,139,-6.00,-6.00,-977.00
2024-05-17 15:57:39.671477,0,0,4,0,0,0,73,76,101,100,70,192.36,139,-25.00,18.00,-968.00
2024-05-17 15:57:39.772431,0,0,4,0,0,0,73,76,101,100,70,192.41,139,-39.00,6.00,-967.00
2024-05-17 15:57:39.911103,0,0,4,0,0,0,73,76,100,100,70,192.38,139,20.00,-4.00,-1030.00
2024-05-17 15:57:39.924835,0,0,4,0,0,0,73,76,100,100,70,192.38,139,1.00,0.00,-989.00
2024-05-17 15:57:40.115616,0,0,4,0,0,0,72,76,100,100,70,192.41,139,3.00,-16.00,-1087.00
2024-05-17 15:57:40.180161,0,0,4,0,0,0,72,76,99,100,70,192.38,139,12.00,-24.00,-1042.00
2024-05-17 15:57:40.285342,0,0,4,0,0,0,72,76,98,100,70,192.38,139,-14.00,43.00,-998.00
2024-05-17 15:57:40.385680,0,0,4,0,0,0,72,76,98,100,70,192.30,139,-15.00,38.00,-979.00
2024-05-17 15:57:40.487557,0,0,4,0,0,0,72,76,97,100,70,192.37,139,-9.00,45.00,-986.00
2024-05-17 15:57:40.590088,0,0,4,0,0,0,72,76,96,100,70,192.29,140,13.00,12.00,-1002.00
2024-05-17 15:57:40.639005,0,0,4,0,0,0,72,76,95,100,70,192.29,140,18.00,10.00,-974.00
2024-05-17 15:57:40.740753,0,0,4,0,0,0,72,76,95,100,70,192.38,140,6.00,3.00,-966.00
2024-05-17 15:57:40.935435,0,0,4,0,0,-2,72,76,97,100,69,192.53,140,19.00,-32.00,-1039.00
2024-05-17 15:57:40.945032,0,-1,5,0,0,-9,72,76,105,110,69,192.51,140,7.00,18.00,-969.00
2024-05-17 15:57:41.048469,0,-58,5,0,-2,-13,73,76,248,120,69,192.59,140,78.00,398.00,-1159.00
2024-05-17 15:57:41.148686,0,175,4,0,-10,-3,73,76,206,130,69,192.72,140,25.00,615.00,-1209.00
2024-05-17 15:57:41.344288,0,53,3,0,-6,10,73,76,156,120,69,192.93,140,22.00,250.00,-1480.00
2024-05-17 15:57:41.352660,0,0,2,0,-1,9,73,76,101,110,69,192.35,140,37.00,-102.00,-1461.00
2024-05-17 15:57:41.551335,0,1,2,0,-2,6,73,76,93,100,69,192.28,140,69.00,-169.00,-1502.00
2024-05-17 15:57:41.556713,0,1,4,0,-1,2,73,76,89,100,69,192.28,141,-20.00,12.00,-1219.00
2024-05-17 15:57:41.753816,0,0,4,0,-1,0,73,76,87,100,69,192.24,141,-17.00,-1.00,-1192.00
2024-05-17 15:57:41.761400,0,0,4,0,-1,0,73,76,85,100,69,192.20,141,10.00,-12.00,-1123.00
2024-05-17 15:57:41.862775,0,0,4,0,0,-1,73,76,85,100,69,192.18,141,-16.00,4.00,-1016.00
2024-05-17 15:57:41.964719,0,2,4,0,0,-1,73,76,85,100,69,192.19,141,9.00,9.00,-964.00
2024-05-17 15:57:42.066817,0,0,4,0,0,-1,73,76,85,100,69,192.23,141,-1.00,4.00,-1025.00
2024-05-17 15:57:42.174769,0,0,4,0,0,-1,73,76,85,100,69,192.20,141,-29.00,8.00,-921.00
2024-05-17 15:57:42.273001,0,0,4,0,0,0,73,76,85,100,69,192.20,141,11.00,0.00,-1006.00
2024-05-17 15:57:42.470863,0,0,4,0,0,0,73,76,85,100,69,192.23,141,34.00,18.00,-981.00
2024-05-17 15:57:42.477195,0,0,4,0,0,0,73,76,84,100,69,192.16,141,-21.00,32.00,-1015.00
2024-05-17 15:57:42.580448,0,0,4,0,0,0,73,76,84,110,69,192.27,142,30.00,-16.00,-1009.00
2024-05-17 15:57:42.679934,0,0,4,0,0,0,73,76,84,110,69,192.25,142,4.00,17.00,-1027.00
2024-05-17 15:57:42.880167,0,0,4,0,0,0,73,76,84,110,69,192.24,142,12.00,2.00,-990.00
2024-05-17 15:57:42.883865,0,0,4,0,0,0,73,76,83,110,69,192.22,142,-3.00,28.00,-982.00
2024-05-17 15:57:43.085028,0,0,4,0,0,0,73,76,83,110,69,192.25,142,10.00,16.00,-993.00
2024-05-17 15:57:43.087903,0,0,4,0,0,0,73,76,83,110,69,192.27,142,-10.00,34.00,-988.00
2024-05-17 15:57:43.189922,0,0,4,0,0,0,73,76,82,110,69,192.21,142,1.00,7.00,-1000.00
2024-05-17 15:57:43.292375,0,0,4,0,0,0,73,76,82,110,69,192.19,142,-14.00,16.00,-1044.00
2024-05-17 15:57:43.394247,0,0,4,0,0,0,73,76,82,110,69,192.31,142,-8.00,-3.00,-995.00
2024-05-17 15:57:43.597433,0,0,4,0,0,0,73,76,82,110,69,192.15,142,-21.00,33.00,-957.00
2024-05-17 15:57:43.597797,0,0,4,0,0,0,73,76,81,110,69,192.21,143,29.00,-8.00,-1007.00
2024-05-17 15:57:43.802086,0,0,4,0,0,0,73,76,81,110,69,192.14,143,15.00,17.00,-982.00
2024-05-17 15:57:43.802247,0,0,4,0,0,0,73,76,81,110,68,192.21,143,16.00,1.00,-990.00
2024-05-17 15:57:43.905021,0,0,4,0,0,0,73,76,81,110,68,192.16,143,-6.00,7.00,-978.00
2024-05-17 15:57:44.007792,0,0,4,0,0,0,73,76,81,110,68,192.15,143,5.00,-7.00,-1055.00
2024-05-17 15:57:44.110454,0,0,4,0,0,0,73,76,82,110,68,192.22,143,-20.00,4.00,-964.00
2024-05-17 15:57:44.210984,0,0,4,0,0,0,73,76,82,110,68,192.20,143,-22.00,13.00,-1054.00
2024-05-17 15:57:44.311909,0,0,4,0,0,0,73,76,83,110,68,192.17,143,-16.00,10.00,-966.00
2024-05-17 15:57:44.416128,0,0,4,0,0,0,73,76,83,110,68,192.17,143,-23.00,33.00,-967.00
2024-05-17 15:57:44.469540,0,0,4,0,0,0,73,76,84,110,68,192.17,143,-14.00,33.00,-961.00
2024-05-17 15:57:44.582068,0,0,4,0,0,0,73,76,84,110,68,192.28,144,16.00,-22.00,-989.00
2024-05-17 15:57:44.671957,0,0,4,0,0,0,73,76,85,110,68,192.23,144,-31.00,21.00,-980.00
2024-05-17 15:57:44.774292,0,0,4,0,0,0,73,76,85,110,68,192.24,144,-35.00,2.00,-1000.00
2024-05-17 15:57:44.873483,0,0,4,0,0,0,73,76,86,110,68,192.25,144,-3.00,24.00,-951.00
2024-05-17 15:57:44.975412,0,0,4,0,0,0,73,76,86,110,68,192.26,144,-2.00,-15.00,-962.00
2024-05-17 15:57:45.135335,0,0,4,0,0,0,73,76,87,110,68,192.31,144,-7.00,12.00,-974.00
2024-05-17 15:57:45.178717,0,0,4,0,0,0,73,76,88,110,68,192.26,144,-4.00,22.00,-972.00
2024-05-17 15:57:45.280581,0,0,4,0,0,0,73,76,88,110,68,192.27,144,-33.00,7.00,-993.00
2024-05-17 15:57:45.440240,0,0,4,0,0,0,73,76,90,110,68,192.31,144,-43.00,34.00,-951.00
2024-05-17 15:57:45.484634,0,0,4,0,0,0,73,76,91,110,68,192.34,144,0.00,2.00,-956.00
2024-05-17 15:57:45.587335,0,0,4,0,0,0,73,76,92,110,68,192.36,145,-18.00,6.00,-982.00
2024-05-17 15:57:45.688673,0,0,4,0,0,0,73,76,92,120,68,192.34,145,20.00,-11.00,-970.00
2024-05-17 15:57:45.849920,0,0,4,0,0,0,73,76,94,120,68,192.25,145,18.00,-9.00,-975.00
2024-05-17 15:57:45.892627,0,0,4,0,0,0,73,76,94,120,68,192.37,145,5.00,15.00,-1030.00
2024-05-17 15:57:46.061706,0,0,4,0,0,0,73,76,94,120,68,192.24,145,2.00,3.00,-948.00
2024-05-17 15:57:46.096813,0,0,4,0,0,0,73,75,95,120,68,192.30,145,-4.00,0.00,-1001.00
2024-05-17 15:57:46.201102,0,0,4,0,0,0,73,75,95,120,68,192.29,145,-13.00,-1.00,-986.00
2024-05-17 15:57:46.300590,0,0,4,0,0,0,73,75,95,120,68,192.34,145,-8.00,-15.00,-984.00
2024-05-17 15:57:46.464119,0,0,4,0,0,0,73,75,94,120,68,192.31,145,14.00,16.00,-1010.00
2024-05-17 15:57:46.504401,0,0,4,0,0,0,73,75,94,120,68,192.34,145,2.00,6.00,-991.00
2024-05-17 15:57:46.607089,0,0,4,0,0,0,73,75,93,120,68,192.24,146,-24.00,4.00,-982.00
2024-05-17 15:57:46.771379,0,0,4,0,0,0,73,75,92,120,68,192.29,146,10.00,-30.00,-967.00
2024-05-17 15:57:46.810681,0,0,4,0,0,0,73,75,91,120,68,192.34,146,-1.00,3.00,-988.00
2024-05-17 15:57:46.976088,0,0,4,0,0,0,73,75,91,120,68,192.33,146,-29.00,15.00,-966.00
2024-05-17 15:57:47.014478,0,0,4,0,0,0,73,75,90,120,68,192.32,146,-3.00,43.00,-966.00
2024-05-17 15:57:47.181051,0,0,4,0,0,0,73,75,89,110,68,192.35,146,12.00,-21.00,-1057.00
2024-05-17 15:57:47.218613,0,0,4,0,0,0,73,75,88,110,68,192.25,146,3.00,0.00,-987.00
2024-05-17 15:57:47.320389,0,0,4,0,0,0,73,75,88,110,68,192.29,146,-3.00,-8.00,-1014.00
2024-05-17 15:57:47.488025,0,0,4,0,0,0,73,75,90,110,68,192.39,146,-10.00,40.00,-1539.00
2024-05-17 15:57:47.524308,0,0,4,0,0,-6,73,75,98,120,68,192.49,146,18.00,-11.00,-1776.00
2024-05-17 15:57:47.692892,0,32,4,0,1,-13,73,75,331,130,68,192.69,147,30.00,175.00,-1882.00
2024-05-17 15:57:47.728385,0,145,3,-1,10,-8,73,75,264,140,68,192.76,147,18.00,776.00,-1140.00
2024-05-17 15:57:47.897699,2,-94,5,0,9,7,73,75,122,140,68,192.90,147,-5.00,732.00,-989.00
2024-05-17 15:57:47.932805,0,0,6,0,4,10,73,75,93,130,68,192.41,147,-45.00,322.00,-888.00
2024-05-17 15:57:47.983521,0,2,6,0,5,8,73,75,84,120,68,192.16,147,53.00,-105.00,-1485.00
2024-05-17 15:57:48.137581,0,-5,6,-1,5,3,72,76,79,110,68,192.19,147,-69.00,50.00,-1236.00
2024-05-17 15:57:48.307164,-1,-4,4,0,4,1,72,76,77,110,68,192.17,147,-53.00,-2.00,-1165.00
2024-05-17 15:57:48.341867,0,-2,4,0,3,0,72,76,75,110,68,192.17,147,-5.00,1.00,-1055.00
2024-05-17 15:57:48.442295,0,-1,4,0,2,-1,72,76,76,110,68,192.12,147,-73.00,14.00,-1064.00
2024-05-17 15:57:48.616901,-1,-1,4,0,2,-1,72,76,75,110,68,192.15,147,0.00,3.00,-1001.00
2024-05-17 15:57:48.617102,0,-1,4,0,1,-1,72,76,74,110,68,192.10,148,-28.00,28.00,-998.00
2024-05-17 15:57:48.697484,0,0,4,0,1,-1,72,76,74,120,68,192.12,148,-33.00,0.00,-964.00
2024-05-17 15:57:48.826149,0,0,4,0,1,0,72,76,73,120,68,192.10,148,-41.00,53.00,-1005.00
2024-05-17 15:57:48.901655,-1,-2,4,0,1,0,72,76,71,110,68,192.07,148,-9.00,-32.00,-1014.00
2024-05-17 15:57:49.026131,-1,-3,4,0,1,0,72,76,69,110,68,192.06,148,-17.00,-4.00,-1054.00
2024-05-17 15:57:49.105502,-1,-3,4,0,0,0,73,76,66,110,68,192.10,148,13.00,-15.00,-1016.00
2024-05-17 15:57:49.228979,0,-2,4,0,0,0,73,76,65,110,68,192.09,148,-34.00,1.00,-1011.00
2024-05-17 15:57:49.309445,0,-1,4,0,0,0,73,76,65,110,68,192.06,148,-23.00,-10.00,-1038.00
2024-05-17 15:57:49.433636,-1,-1,4,0,0,0,73,76,64,110,68,191.99,148,-24.00,9.00,-979.00
2024-05-17 15:57:49.515414,-1,-1,4,0,0,0,73,76,62,110,68,192.01,148,-24.00,18.00,-1071.00
2024-05-17 15:57:49.615832,-1,-1,4,0,0,0,73,76,62,110,68,192.06,149,-3.00,-37.00,-1022.00
2024-05-17 15:57:49.718138,-1,-1,4,0,0,0,73,76,62,110,68,191.95,149,-23.00,0.00,-1031.00
2024-05-17 15:57:49.819834,-1,-1,4,0,0,-1,73,76,63,110,68,191.99,149,-26.00,-3.00,-978.00
2024-05-17 15:57:49.947692,0,-1,4,0,0,-1,73,76,64,110,68,191.99,149,-15.00,30.00,-1039.00
2024-05-17 15:57:50.024808,0,-1,4,0,0,0,73,76,65,110,68,192.03,149,2.00,-5.00,-1015.00
2024-05-17 15:57:50.125429,0,-1,4,0,0,0,73,76,65,110,68,192.01,149,-31.00,-8.00,-1029.00
2024-05-17 15:57:50.252827,0,-1,4,0,0,0,73,76,65,110,68,192.02,149,-33.00,31.00,-958.00
2024-05-17 15:57:50.329551,0,-2,4,0,0,0,73,76,66,110,68,192.01,149,-16.00,12.00,-985.00
2024-05-17 15:57:50.457629,-1,-2,4,0,0,0,73,76,67,110,68,192.06,149,-14.00,-3.00,-1001.00
2024-05-17 15:57:50.533486,-1,-2,4,0,0,0,73,76,67,110,68,192.00,149,4.00,11.00,-995.00
2024-05-17 15:57:50.663173,-1,-2,4,0,0,0,73,76,67,110,68,192.05,150,2.00,-20.00,-998.00
2024-05-17 15:57:50.737593,0,-1,4,0,0,0,73,76,68,110,68,192.06,150,-53.00,41.00,-958.00
2024-05-17 15:57:50.868392,0,-1,4,0,0,0,73,76,68,110,67,192.10,150,-53.00,34.00,-1011.00
2024-05-17 15:57:50.941737,0,-1,4,0,0,0,73,76,69,110,67,192.11,150,-11.00,11.00,-1028.00
2024-05-17 15:57:51.072496,-1,-2,4,0,0,0,73,76,69,110,67,192.11,150,1.00,4.00,-980.00
