TS,pitch,roll,yaw,vgx,vgy,vgz,templ,temph,tof,h,bat,baro,time,agx,agy,agz
2024-06-07 00:23:18.362008,0,0,0,0,0,0,52,55,10,0,66,120.39,0,-6.00,10.00,-1000.00
2024-06-07 00:23:18.428474,0,0,0,0,0,0,52,55,10,0,66,120.35,0,-5.00,9.00,-1002.00
2024-06-07 00:23:18.628868,0,0,0,0,0,0,52,55,10,0,66,120.36,0,-5.00,11.00,-998.00
2024-06-07 00:23:18.632464,0,0,0,0,0,0,52,55,10,0,66,120.34,0,-6.00,11.00,-999.00
2024-06-07 00:23:18.833407,0,0,0,0,0,0,52,55,10,0,66,120.36,0,-5.00,13.00,-999.00
2024-06-07 00:23:18.836275,0,0,0,0,0,0,52,55,10,0,66,120.32,0,-4.00,11.00,-999.00
2024-06-07 00:23:18.938704,0,0,0,0,0,0,53,55,10,0,66,120.33,0,-5.00,12.00,-995.00
2024-06-07 00:23:18.989100,0,0,0,0,0,0,53,55,10,0,66,120.37,0,-5.00,11.00,-999.00
2024-06-07 00:23:19.140845,0,0,0,0,0,0,53,55,10,0,66,120.35,0,-5.00,11.00,-998.00
2024-06-07 00:23:19.192953,0,0,0,0,0,0,53,55,10,0,66,120.37,0,-4.00,10.00,-997.00
2024-06-07 00:23:19.345295,0,0,0,0,0,0,53,55,10,0,66,120.39,0,-6.00,10.00,-998.00
2024-06-07 00:23:19.397052,0,0,0,0,0,0,53,55,10,0,66,120.33,0,-4.00,9.00,-999.00
2024-06-07 00:23:19.551199,0,0,0,0,0,0,53,55,10,0,66,120.32,0,-5.00,11.00,-996.00
2024-06-07 00:23:19.601075,0,0,0,0,0,0,53,55,10,0,66,120.33,0,-4.00,11.00,-998.00
2024-06-07 00:23:19.754748,0,0,0,0,0,0,53,55,10,0,66,120.37,0,-5.00,11.00,-996.00
2024-06-07 00:23:19.805040,0,0,0,0,0,0,53,55,10,0,66,120.32,0,-4.00,12.00,-1000.00
2024-06-07 00:23:19.960334,0,0,0,0,0,0,53,55,10,0,66,120.32,0,-4.00,10.00,-998.00
2024-06-07 00:23:20.011386,0,0,0,0,0,0,53,55,10,0,66,120.38,0,-6.00,11.00,-999.00
2024-06-07 00:23:20.111099,0,0,0,0,0,0,53,55,10,0,66,120.36,0,-4.00,12.00,-1000.00
2024-06-07 00:23:20.213171,0,0,0,0,0,0,53,55,10,0,66,120.38,0,-4.00,11.00,-999.00
2024-06-07 00:23:20.369397,0,0,0,0,0,0,53,55,10,0,66,120.34,0,-4.00,11.00,-1001.00
2024-06-07 00:23:20.417262,0,0,0,0,0,0,53,55,10,0,66,120.37,0,-3.00,10.00,-998.00
2024-06-07 00:23:20.574400,0,0,0,0,0,0,53,55,10,0,66,120.36,0,-5.00,10.00,-1000.00
2024-06-07 00:23:20.622271,0,0,0,0,0,0,53,55,10,0,66,120.34,0,-5.00,10.00,-1000.00
2024-06-07 00:23:20.778991,0,0,0,0,0,0,53,55,10,0,66,120.41,0,-4.00,10.00,-999.00
2024-06-07 00:23:20.824937,0,0,0,0,0,0,53,55,10,0,66,120.33,0,-4.00,10.00,-997.00
2024-06-07 00:23:20.983938,0,0,0,0,0,0,54,56,10,0,66,120.34,0,-5.00,11.00,-998.00
2024-06-07 00:23:21.028917,0,0,0,0,0,0,54,56,10,0,66,120.38,0,-4.00,11.00,-997.00
2024-06-07 00:23:21.188690,0,0,0,0,0,0,54,56,10,0,66,120.37,0,-5.00,10.00,-999.00
2024-06-07 00:23:21.232940,0,0,0,0,0,0,54,56,10,0,66,120.37,0,-4.00,11.00,-1001.00
2024-06-07 00:23:21.393210,0,0,0,0,0,0,54,56,10,0,66,120.34,0,-5.00,11.00,-999.00
2024-06-07 00:23:21.436823,0,0,0,0,0,0,54,56,10,0,66,120.37,0,-3.00,11.00,-1001.00
2024-06-07 00:23:21.489242,0,0,0,0,0,0,54,56,10,0,66,120.39,0,-5.00,11.00,-1000.00
2024-06-07 00:23:21.597961,0,0,0,0,0,0,54,56,10,0,66,120.38,0,-5.00,9.00,-998.00
2024-06-07 00:23:21.694031,0,0,0,0,0,0,54,56,10,0,66,120.36,0,-4.00,12.00,-998.00
2024-06-07 00:23:21.796635,0,0,0,0,0,0,54,56,10,0,66,120.35,0,-5.00,11.00,-998.00
2024-06-07 00:23:21.895760,0,0,0,0,0,0,54,55,10,0,66,120.34,0,-5.00,11.00,-1000.00
2024-06-07 00:23:22.114156,0,0,0,0,0,0,54,55,10,0,66,120.35,0,-4.00,11.00,-1000.00
2024-06-07 00:23:22.114240,0,0,0,0,0,0,54,55,10,0,66,120.35,0,-5.00,9.00,-1000.00
2024-06-07 00:23:22.256657,0,0,0,0,0,0,54,55,10,0,66,120.35,0,-1.00,10.00,-1001.00
2024-06-07 00:23:22.363382,0,0,0,0,0,0,54,55,10,0,66,120.35,0,-2.00,11.00,-1001.00
2024-06-07 00:23:22.416818,0,0,2,0,0,0,54,55,10,0,66,120.35,0,3.00,6.00,-994.00
2024-06-07 00:23:22.526126,0,0,3,0,0,0,54,55,10,0,66,120.35,0,-4.00,-46.00,-993.00
2024-06-07 00:23:22.609615,0,0,4,0,0,-1,54,55,10,0,66,120.35,0,-15.00,-13.00,-940.00
2024-06-07 00:23:22.724583,0,1,4,0,0,-3,54,55,16,0,66,120.35,0,-4.00,-6.00,-1091.00
2024-06-07 00:23:22.857807,0,1,4,0,0,-6,54,55,16,0,66,120.35,0,7.00,-3.00,-1155.00
2024-06-07 00:23:23.012182,0,1,4,0,0,-7,54,57,16,10,66,120.63,0,-9.00,-27.00,-1331.00
2024-06-07 00:23:23.017771,0,0,4,0,0,-7,54,57,24,10,66,120.79,1,4.00,-58.00,-1184.00
2024-06-07 00:23:23.216951,0,0,4,0,0,-7,54,57,33,20,66,120.83,1,-23.00,-2.00,-1080.00
2024-06-07 00:23:23.221545,0,0,4,0,0,-7,54,57,40,30,66,120.95,1,-12.00,-15.00,-1051.00
2024-06-07 00:23:23.338931,0,0,4,0,0,-6,54,57,49,30,66,120.98,1,-14.00,-12.00,-989.00
2024-06-07 00:23:23.452195,0,0,4,0,0,-5,54,57,56,40,66,121.03,1,8.00,-29.00,-922.00
2024-06-07 00:23:23.596940,-1,0,4,0,0,-4,54,57,63,40,66,121.13,1,-6.00,-17.00,-908.00
2024-06-07 00:23:23.629584,-1,0,4,0,0,-3,54,57,68,50,66,121.27,1,-24.00,9.00,-896.00
2024-06-07 00:23:23.758912,-1,0,4,0,0,-2,54,57,73,50,66,121.28,1,0.00,-29.00,-891.00
2024-06-07 00:23:23.902295,-1,0,4,0,0,-1,54,57,77,50,66,121.33,1,-21.00,-1.00,-892.00
2024-06-07 00:23:23.935527,-1,0,4,0,0,-1,55,57,81,50,66,121.30,1,-11.00,-5.00,-929.00
2024-06-07 00:23:24.068568,-1,0,4,0,0,0,55,57,83,60,66,121.29,2,-21.00,-1.00,-936.00
2024-06-07 00:23:24.212134,-1,0,4,0,0,0,55,57,84,60,65,121.34,2,-7.00,-15.00,-970.00
2024-06-07 00:23:24.241571,0,0,4,0,0,0,55,57,85,60,65,121.32,2,-19.00,-4.00,-960.00
2024-06-07 00:23:24.373325,0,0,4,0,0,0,55,57,86,60,65,121.38,2,-12.00,-23.00,-977.00
2024-06-07 00:23:24.516752,0,0,4,0,0,0,55,57,86,60,65,121.37,2,-33.00,-2.00,-975.00
2024-06-07 00:23:24.556548,0,0,4,0,0,0,55,57,87,60,65,121.31,2,-34.00,6.00,-978.00
2024-06-07 00:23:24.671938,0,0,4,0,0,0,55,57,88,60,65,121.37,2,-19.00,-5.00,-983.00
2024-06-07 00:23:24.751535,-1,0,4,0,0,0,55,57,88,60,65,121.39,2,-18.00,-10.00,-981.00
2024-06-07 00:23:24.853476,-1,0,4,0,0,0,55,57,88,60,65,121.44,2,-14.00,-7.00,-991.00
2024-06-07 00:23:24.976889,0,0,4,0,0,0,54,57,89,60,65,121.43,2,-26.00,-5.00,-965.00
2024-06-07 00:23:25.058152,0,0,4,0,0,0,54,57,89,60,65,121.42,3,-1.00,-21.00,-991.00
2024-06-07 00:23:25.181699,0,0,4,0,0,0,54,57,89,60,65,121.47,3,-7.00,-3.00,-965.00
2024-06-07 00:23:25.210548,0,0,4,0,0,0,54,57,89,60,65,121.35,3,-14.00,-16.00,-981.00
2024-06-07 00:23:25.386517,0,0,4,0,0,0,54,57,88,60,65,121.34,3,-6.00,-10.00,-996.00
2024-06-07 00:23:25.414443,0,0,4,0,0,0,54,57,88,60,65,121.35,3,-37.00,-7.00,-1011.00
2024-06-07 00:23:25.593628,0,0,4,0,0,0,54,57,87,60,65,121.36,3,-25.00,-1.00,-1003.00
2024-06-07 00:23:25.621234,0,0,3,0,0,0,54,57,87,60,65,121.34,3,-38.00,-7.00,-967.00
2024-06-07 00:23:25.725159,0,0,3,0,0,0,54,57,86,60,65,121.46,3,-12.00,-2.00,-999.00
2024-06-07 00:23:25.822388,0,0,3,0,0,0,54,57,86,60,65,121.32,3,-18.00,-3.00,-972.00
2024-06-07 00:23:26.000847,0,0,3,0,0,0,55,57,85,60,65,121.37,3,-8.00,-2.00,-983.00
2024-06-07 00:23:26.026388,0,0,3,0,0,0,55,57,84,60,65,121.33,4,-21.00,1.00,-1004.00
2024-06-07 00:23:26.128371,0,0,3,0,0,0,55,57,84,60,65,121.38,4,7.00,-6.00,-1014.00
2024-06-07 00:23:26.308050,0,0,3,0,0,0,55,57,83,60,65,121.42,4,-20.00,-16.00,-1004.00
2024-06-07 00:23:26.332457,0,0,3,0,0,0,55,57,82,60,65,121.39,4,-9.00,-11.00,-998.00
2024-06-07 00:23:26.462565,0,0,3,0,0,0,55,57,82,60,65,121.33,4,-39.00,1.00,-975.00
2024-06-07 00:23:26.538753,0,0,3,0,0,0,55,57,81,60,65,121.34,4,-1.00,-2.00,-998.00
2024-06-07 00:23:26.638352,0,0,3,0,0,0,55,57,81,60,65,121.35,4,-22.00,-3.00,-1004.00
2024-06-07 00:23:26.740360,0,0,3,0,0,0,55,57,80,60,65,121.36,4,0.00,-18.00,-994.00
2024-06-07 00:23:26.842296,0,0,3,0,0,0,55,57,80,60,65,121.38,4,-15.00,0.00,-998.00
2024-06-07 00:23:27.024823,0,0,3,0,0,0,55,58,79,60,65,121.38,4,-34.00,-1.00,-1007.00
2024-06-07 00:23:27.046264,0,0,3,0,0,0,55,58,79,60,64,121.33,5,-11.00,-4.00,-997.00
2024-06-07 00:23:27.229588,0,0,3,0,0,0,55,58,78,60,64,121.32,5,-11.00,-18.00,-1035.00
2024-06-07 00:23:27.250464,0,0,3,0,0,0,55,58,78,60,64,121.31,5,2.00,-7.00,-988.00
2024-06-07 00:23:27.434390,0,0,3,0,0,0,55,58,78,60,64,121.33,5,-7.00,-8.00,-1018.00
2024-06-07 00:23:27.454331,0,0,3,0,0,0,55,58,78,60,64,121.33,5,1.00,-2.00,-1009.00
2024-06-07 00:23:27.639161,0,0,3,0,0,0,55,58,77,60,64,121.37,5,-7.00,-1.00,-1000.00
2024-06-07 00:23:27.658245,0,0,3,0,0,0,55,58,77,60,64,121.38,5,-4.00,1.00,-1016.00
2024-06-07 00:23:27.843961,0,0,3,0,0,0,55,58,77,60,64,121.38,5,-34.00,-6.00,-978.00
2024-06-07 00:23:27.862203,0,0,3,0,0,0,55,58,78,60,64,121.40,5,-15.00,-3.00,-1001.00
2024-06-07 00:23:28.050266,0,0,3,0,0,0,55,57,78,60,64,121.37,5,-26.00,-3.00,-1010.00
2024-06-07 00:23:28.066303,0,0,3,0,0,0,55,57,78,60,64,121.31,6,-37.00,-2.00,-1005.00
2024-06-07 00:23:28.168374,0,0,3,0,0,0,55,57,78,60,64,121.36,6,-26.00,-14.00,-999.00
2024-06-07 00:23:28.356036,0,0,3,0,0,0,55,57,78,60,64,121.35,6,-20.00,-2.00,-992.00
2024-06-07 00:23:28.372268,0,0,3,0,0,0,55,57,78,60,64,121.38,6,9.00,-18.00,-1029.00
2024-06-07 00:23:28.560882,0,0,3,0,0,0,55,57,78,60,64,121.30,6,-2.00,-19.00,-1003.00
2024-06-07 00:23:28.576221,0,0,3,0,0,0,55,57,78,60,64,121.36,6,2.00,-23.00,-1000.00
2024-06-07 00:23:28.627261,0,0,3,0,0,0,55,57,78,60,64,121.38,6,-25.00,1.00,-988.00
2024-06-07 00:23:28.765759,0,0,3,0,0,0,55,57,78,60,64,121.39,6,5.00,-15.00,-989.00
2024-06-07 00:23:28.831415,0,0,3,0,0,0,55,57,78,60,64,121.30,6,-34.00,3.00,-951.00
2024-06-07 00:23:28.970325,0,0,3,0,0,0,55,58,78,60,64,121.33,6,-11.00,10.00,-987.00
2024-06-07 00:23:29.035794,0,0,3,0,0,0,55,58,78,60,63,121.32,7,-10.00,-13.00,-997.00
2024-06-07 00:23:29.137275,0,0,3,0,0,0,55,58,78,60,63,121.38,7,-19.00,-5.00,-995.00
2024-06-07 00:23:29.277829,0,0,3,0,0,0,55,58,78,60,63,121.34,7,-10.00,-4.00,-1027.00
2024-06-07 00:23:29.342271,0,0,3,0,0,0,55,58,78,60,63,121.46,7,-8.00,-6.00,-1005.00
2024-06-07 00:23:29.482259,0,0,3,0,0,0,55,58,79,60,63,121.39,7,-15.00,-14.00,-983.00
2024-06-07 00:23:29.545106,0,0,3,0,0,0,55,58,79,60,63,121.34,7,-9.00,-7.00,-1004.00
2024-06-07 00:23:29.687127,0,0,3,0,0,0,55,58,79,60,63,121.39,7,-16.00,-10.00,-979.00
2024-06-07 00:23:29.749155,0,0,3,0,0,0,55,58,79,60,63,121.35,7,-11.00,-8.00,-988.00
2024-06-07 00:23:29.851119,0,0,3,0,0,0,55,58,79,60,63,121.39,7,-7.00,-21.00,-995.00
2024-06-07 00:23:29.994483,0,0,3,0,0,0,55,58,79,60,63,121.33,7,-13.00,0.00,-1016.00
2024-06-07 00:23:30.055014,0,0,3,0,0,0,55,58,79,60,63,121.35,8,11.00,-4.00,-971.00
2024-06-07 00:23:30.156929,0,0,3,0,0,0,55,58,79,60,63,121.41,8,-38.00,12.00,-1012.00
2024-06-07 00:23:30.301361,0,0,3,0,0,0,55,58,79,60,63,121.43,8,-16.00,-10.00,-1049.00
2024-06-07 00:23:30.362634,0,0,3,0,0,0,55,58,79,60,63,121.35,8,-12.00,-9.00,-1085.00
2024-06-07 00:23:30.462968,0,0,3,0,0,-1,55,58,80,60,63,121.45,8,-21.00,-11.00,-1114.00
2024-06-07 00:23:30.608597,0,0,3,0,0,-2,55,58,82,60,63,121.37,8,-25.00,0.00,-1095.00
2024-06-07 00:23:30.667089,0,0,3,0,0,-2,55,58,85,60,63,121.42,8,-13.00,-4.00,-1081.00
2024-06-07 00:23:30.813343,0,0,3,0,0,-3,55,58,89,70,63,121.48,8,-38.00,-2.00,-1094.00
2024-06-07 00:23:30.871133,0,0,3,0,0,-4,55,58,93,70,63,121.54,8,-19.00,-1.00,-1053.00
2024-06-07 00:23:31.018166,0,0,3,0,0,-4,56,59,101,70,63,121.58,8,-12.00,-15.00,-1040.00
2024-06-07 00:23:31.075503,0,0,3,0,0,-5,56,59,106,80,62,121.63,9,-22.00,1.00,-1030.00
2024-06-07 00:23:31.222940,0,0,3,0,0,-5,56,59,113,90,62,121.69,9,-28.00,1.00,-1004.00
2024-06-07 00:23:31.278928,0,0,3,0,0,-5,56,59,117,90,62,121.75,9,-38.00,0.00,-1013.00
2024-06-07 00:23:31.380793,0,0,3,0,0,-5,56,59,123,100,62,121.78,9,-29.00,-7.00,-989.00
2024-06-07 00:23:31.532834,0,0,3,0,0,-5,56,59,129,100,62,121.86,9,-21.00,-13.00,-974.00
2024-06-07 00:23:31.584879,0,0,3,0,0,-5,56,59,134,110,62,121.87,9,-9.00,-1.00,-984.00
2024-06-07 00:23:31.734919,0,0,3,0,0,-5,56,59,139,110,62,121.92,9,-9.00,-5.00,-965.00
2024-06-07 00:23:31.788891,0,0,3,0,0,-4,56,59,145,120,62,121.98,9,-48.00,18.00,-931.00
2024-06-07 00:23:31.939784,0,0,3,0,0,-4,56,59,149,120,62,122.00,9,-15.00,3.00,-964.00
2024-06-07 00:23:31.992926,0,0,3,0,0,-4,57,59,153,130,62,122.06,9,-12.00,-25.00,-957.00
2024-06-07 00:23:32.128115,0,0,3,0,0,-3,57,59,156,130,62,122.07,10,6.00,-9.00,-965.00
2024-06-07 00:23:32.196830,0,0,3,0,0,-3,57,59,158,130,62,122.13,10,-9.00,-8.00,-974.00
2024-06-07 00:23:32.349701,0,0,3,0,0,-3,57,59,161,140,62,122.17,10,-2.00,-35.00,-996.00
2024-06-07 00:23:32.401016,0,0,3,0,0,-2,57,59,165,140,62,122.17,10,-15.00,-9.00,-956.00
2024-06-07 00:23:32.554077,0,0,3,0,0,-2,57,59,167,140,62,122.14,10,-10.00,-5.00,-956.00
2024-06-07 00:23:32.604785,0,0,3,0,0,-2,57,59,169,150,62,122.25,10,-20.00,-7.00,-937.00
2024-06-07 00:23:32.656954,0,0,3,0,0,-1,57,59,170,150,62,122.23,10,-16.00,-2.00,-992.00
2024-06-07 00:23:32.759118,0,0,3,0,0,-1,57,59,172,150,62,122.26,10,-12.00,-6.00,-980.00
2024-06-07 00:23:32.860968,0,0,3,0,0,-1,57,59,173,150,62,122.32,10,-24.00,8.00,-972.00
2024-06-07 00:23:33.014470,0,0,3,0,0,-1,57,59,175,150,62,122.26,10,-3.00,-13.00,-1029.00
2024-06-07 00:23:33.114839,0,0,3,0,0,-1,57,59,176,150,61,122.36,11,-10.00,-29.00,-965.00
2024-06-07 00:23:33.270985,0,0,3,0,0,0,57,59,176,150,61,122.28,11,-6.00,-8.00,-995.00
2024-06-07 00:23:33.271172,0,0,3,0,0,0,57,59,177,150,61,122.26,11,-20.00,-18.00,-961.00
2024-06-07 00:23:33.370116,0,0,3,0,0,0,57,59,177,150,61,122.36,11,4.00,-46.00,-986.00
2024-06-07 00:23:33.475640,0,0,3,0,0,0,57,59,177,160,61,122.35,11,-24.00,-9.00,-988.00
2024-06-07 00:23:33.573761,0,0,3,0,0,0,57,59,179,160,61,122.33,11,-13.00,4.00,-985.00
2024-06-07 00:23:33.682239,0,0,3,0,0,0,57,59,179,160,61,122.35,11,-6.00,-12.00,-1002.00
2024-06-07 00:23:33.777839,0,0,3,0,0,0,57,59,178,160,61,122.33,11,-9.00,-13.00,-990.00
2024-06-07 00:23:33.879883,0,0,3,0,0,0,57,59,178,160,61,122.34,11,-11.00,-9.00,-989.00
2024-06-07 00:23:33.988115,0,0,3,0,0,0,58,60,179,160,61,122.35,11,-19.00,-1.00,-1015.00
2024-06-07 00:23:34.084050,0,0,3,0,0,0,58,60,178,160,61,122.31,12,-9.00,-11.00,-976.00
2024-06-07 00:23:34.192852,0,0,3,0,0,0,58,60,178,160,61,122.33,12,-9.00,7.00,-991.00
2024-06-07 00:23:34.289507,0,0,3,0,0,0,58,60,177,160,61,122.35,12,-24.00,-8.00,-1005.00
2024-06-07 00:23:34.391522,0,0,3,0,0,0,58,60,178,160,61,122.35,12,-25.00,-19.00,-1011.00
2024-06-07 00:23:34.493897,0,0,3,0,0,0,58,60,178,160,61,122.36,12,1.00,-8.00,-1012.00
2024-06-07 00:23:34.594690,0,0,3,0,0,0,58,60,178,160,61,122.28,12,3.00,-4.00,-1015.00
2024-06-07 00:23:34.696133,0,0,3,0,0,0,58,60,178,160,61,122.34,12,-16.00,-15.00,-995.00
2024-06-07 00:23:34.807030,0,0,3,0,0,0,58,60,179,160,61,122.32,12,9.00,-6.00,-974.00
2024-06-07 00:23:34.900154,0,0,3,0,0,0,58,60,179,160,61,122.34,12,-15.00,-6.00,-1018.00
2024-06-07 00:23:35.011782,0,0,3,0,0,0,58,60,179,160,61,122.35,12,-14.00,-14.00,-977.00
2024-06-07 00:23:35.103569,0,0,3,0,0,0,58,60,180,160,60,122.31,13,-11.00,-18.00,-1022.00
2024-06-07 00:23:35.217376,0,0,3,0,0,0,58,60,180,160,60,122.33,13,-15.00,-6.00,-972.00
2024-06-07 00:23:35.307860,0,0,3,0,0,0,58,60,180,160,60,122.31,13,-3.00,-8.00,-952.00
2024-06-07 00:23:35.409904,0,0,3,0,0,0,58,60,179,160,60,122.29,13,-15.00,-13.00,-947.00
2024-06-07 00:23:35.523868,0,0,3,0,0,0,58,60,179,160,60,122.35,13,-4.00,-8.00,-946.00
2024-06-07 00:23:35.614254,0,0,3,0,0,1,58,60,178,150,60,122.32,13,29.00,-37.00,-962.00
2024-06-07 00:23:35.728352,0,0,3,0,0,1,58,60,176,150,60,122.27,13,-17.00,0.00,-955.00
2024-06-07 00:23:35.821756,0,0,3,0,0,2,58,60,173,150,60,122.31,13,-14.00,-4.00,-962.00
2024-06-07 00:23:35.920408,0,0,3,0,0,2,58,60,171,150,60,122.33,13,-13.00,-23.00,-953.00
2024-06-07 00:23:36.035526,0,0,3,0,0,2,57,60,168,140,60,122.18,14,-4.00,-13.00,-990.00
2024-06-07 00:23:36.124542,0,0,3,0,0,2,57,60,165,140,60,122.19,14,-12.00,-18.00,-1008.00
2024-06-07 00:23:36.240316,0,0,3,0,0,2,57,60,162,140,60,122.17,14,-13.00,-10.00,-998.00
2024-06-07 00:23:36.328453,0,0,3,0,0,2,57,60,160,140,60,122.09,14,-27.00,-13.00,-1000.00
2024-06-07 00:23:36.445114,0,0,3,0,0,2,57,60,157,130,60,122.04,14,7.00,-2.00,-1034.00
2024-06-07 00:23:36.532454,0,0,3,0,0,2,57,60,154,130,60,122.05,14,-25.00,12.00,-997.00
2024-06-07 00:23:36.649874,0,0,3,0,0,2,57,60,152,130,60,122.06,14,-14.00,8.00,-1003.00
2024-06-07 00:23:36.736525,0,0,4,0,0,2,57,60,149,130,60,122.07,14,-28.00,0.00,-933.00
2024-06-07 00:23:36.787283,0,0,4,0,0,2,57,60,146,120,60,122.00,14,4.00,-20.00,-1032.00
2024-06-07 00:23:36.889665,0,0,4,0,0,2,57,60,145,120,60,122.01,14,-9.00,-13.00,-1008.00
2024-06-07 00:23:37.162120,0,0,4,0,0,1,58,61,142,120,60,122.02,15,-3.00,-9.00,-1002.00
2024-06-07 00:23:37.277334,0,0,4,0,0,1,58,61,139,120,59,121.96,15,-7.00,1.00,-1005.00
2024-06-07 00:23:37.277421,0,0,4,0,0,1,58,61,138,120,59,122.02,15,-5.00,-21.00,-990.00
2024-06-07 00:23:37.297319,0,0,4,0,0,1,58,61,136,110,59,121.92,15,-8.00,-27.00,-1034.00
2024-06-07 00:23:37.399352,0,0,4,0,0,1,58,61,134,110,59,121.91,15,-37.00,-18.00,-983.00
2024-06-07 00:23:37.548495,0,0,4,0,0,1,58,61,132,110,59,121.94,15,0.00,-30.00,-1009.00
2024-06-07 00:23:37.621300,0,0,4,0,0,1,58,61,131,110,59,121.87,15,-2.00,-26.00,-1046.00
2024-06-07 00:23:37.730622,0,0,4,0,0,1,58,61,129,110,59,121.84,15,-24.00,-30.00,-1015.00
2024-06-07 00:23:37.815616,0,0,4,0,0,0,58,61,128,110,59,121.91,15,-26.00,15.00,-1091.00
2024-06-07 00:23:37.964938,0,0,4,0,0,0,58,61,127,110,59,121.87,15,23.00,-29.00,-1020.00
2024-06-07 00:23:38.013473,0,0,4,0,0,0,58,61,127,110,59,121.81,16,-24.00,-2.00,-1035.00
2024-06-07 00:23:38.196918,0,0,4,0,0,0,58,61,127,110,59,121.85,16,-14.00,-8.00,-1008.00
2024-06-07 00:23:38.215351,0,0,3,0,0,0,58,61,127,110,59,121.86,16,-14.00,-17.00,-1020.00
2024-06-07 00:23:38.391227,0,0,3,0,0,0,58,61,127,110,59,121.86,16,-2.00,-2.00,-1016.00
2024-06-07 00:23:38.504518,0,0,3,0,0,0,58,61,127,110,59,121.86,16,-41.00,14.00,-983.00
2024-06-07 00:23:38.521304,0,0,3,0,0,0,58,61,127,110,59,121.86,16,5.00,-17.00,-1025.00
2024-06-07 00:23:38.647483,0,0,3,0,0,0,58,61,128,110,59,121.88,16,-33.00,16.00,-1011.00
2024-06-07 00:23:38.811194,0,0,3,0,0,0,58,61,127,110,59,121.90,16,-3.00,-7.00,-996.00
2024-06-07 00:23:38.829553,0,0,3,0,0,0,58,61,128,110,59,121.87,16,-4.00,-14.00,-990.00
2024-06-07 00:23:38.954697,-1,0,3,0,0,0,58,61,129,110,59,121.92,16,-20.00,-26.00,-962.00
2024-06-07 00:23:39.118360,-1,0,3,0,0,0,59,62,129,110,59,121.86,17,-18.00,1.00,-1003.00
2024-06-07 00:23:39.133771,0,0,3,0,0,0,59,62,129,110,58,121.85,17,29.00,-28.00,-1008.00
2024-06-07 00:23:39.312218,0,0,3,0,0,0,59,62,130,110,58,121.86,17,-60.00,1.00,-987.00
2024-06-07 00:23:39.341742,0,0,3,0,0,0,59,62,130,110,58,121.91,17,-14.00,5.00,-985.00
2024-06-07 00:23:39.439222,0,0,3,0,0,0,59,62,130,110,58,121.91,17,-16.00,-8.00,-1000.00
2024-06-07 00:23:39.555710,0,0,3,0,0,0,59,62,130,110,58,121.91,17,-28.00,-16.00,-984.00
2024-06-07 00:23:39.643179,0,0,3,0,0,0,59,62,130,110,58,121.87,17,-8.00,-11.00,-995.00
2024-06-07 00:23:39.826584,-3,0,3,0,0,0,59,62,129,110,58,121.91,17,-18.00,-9.00,-1008.00
2024-06-07 00:23:39.847371,-8,0,3,0,0,0,59,62,131,110,58,121.90,17,5.00,-17.00,-964.00
2024-06-07 00:23:40.033905,-8,0,3,2,0,0,59,62,132,110,58,121.79,17,-20.00,-31.00,-1015.00
2024-06-07 00:23:40.054096,-8,0,3,3,0,0,59,62,131,110,58,121.92,18,-26.00,-26.00,-1028.00
2024-06-07 00:23:40.153123,-8,0,3,4,0,0,59,62,131,110,58,121.84,18,-43.00,-21.00,-1015.00
2024-06-07 00:23:40.336180,-8,1,3,5,0,0,59,62,131,110,58,121.92,18,-44.00,-16.00,-993.00
2024-06-07 00:23:40.357593,-7,1,3,6,0,0,59,62,130,110,58,121.88,18,-64.00,-10.00,-1008.00
2024-06-07 00:23:40.540969,-6,1,3,6,0,0,59,62,129,110,58,121.77,18,-48.00,-12.00,-978.00
2024-06-07 00:23:40.561085,-6,0,3,7,0,0,59,62,129,110,58,121.81,18,-65.00,-1.00,-1016.00
2024-06-07 00:23:40.745752,-3,0,3,7,0,0,59,62,129,110,58,121.72,18,-32.00,-20.00,-983.00
2024-06-07 00:23:40.745804,0,0,3,7,0,0,59,62,130,110,58,121.78,18,-66.00,5.00,-1036.00
2024-06-07 00:23:40.816680,2,0,3,6,0,0,59,62,129,110,58,121.78,18,-39.00,-18.00,-993.00
2024-06-07 00:23:40.950552,3,0,3,5,0,0,59,62,129,110,58,121.78,18,-52.00,7.00,-993.00
2024-06-07 00:23:41.071430,1,0,3,4,0,0,60,62,130,110,57,121.79,19,-55.00,-2.00,-1005.00
2024-06-07 00:23:41.121909,0,0,3,3,0,0,60,62,129,110,57,121.86,19,-43.00,-14.00,-983.00
2024-06-07 00:23:41.258041,0,0,3,3,0,0,60,62,129,110,57,121.90,19,-25.00,-8.00,-983.00
2024-06-07 00:23:41.325937,0,0,3,3,0,0,60,62,129,110,57,121.84,19,-33.00,-8.00,-959.00
2024-06-07 00:23:41.462811,0,0,3,3,0,0,60,62,129,110,57,121.85,19,-29.00,-16.00,-984.00
2024-06-07 00:23:41.531908,0,0,3,3,0,0,60,62,129,110,57,121.85,19,-33.00,-8.00,-983.00
2024-06-07 00:23:41.667416,0,0,3,2,0,0,60,62,129,110,57,121.90,19,-16.00,-17.00,-992.00
2024-06-07 00:23:41.737926,0,0,3,2,0,0,60,62,129,110,57,121.88,19,-59.00,-10.00,-1000.00
2024-06-07 00:23:41.838333,0,0,3,2,0,0,60,62,129,110,57,121.95,19,-13.00,-16.00,-998.00
2024-06-07 00:23:41.974884,1,0,3,2,0,0,60,62,129,110,57,121.92,19,2.00,-33.00,-1029.00
2024-06-07 00:23:42.041909,3,0,3,1,0,0,59,62,129,110,57,121.92,20,-49.00,-10.00,-1003.00
2024-06-07 00:23:42.179340,2,0,3,0,0,0,59,62,129,110,57,121.92,20,-12.00,-3.00,-1018.00
2024-06-07 00:23:42.246200,0,0,3,0,0,0,59,62,128,110,57,121.91,20,-14.00,0.00,-983.00
2024-06-07 00:23:42.385924,0,0,3,0,0,0,59,62,128,110,57,121.92,20,-13.00,-6.00,-984.00
2024-06-07 00:23:42.449967,0,0,3,0,0,0,59,62,127,110,57,121.87,20,-24.00,-8.00,-1049.00
2024-06-07 00:23:42.589011,0,0,3,0,0,0,59,62,127,110,57,121.93,20,-44.00,6.00,-991.00
2024-06-07 00:23:42.654019,0,0,3,0,0,0,59,62,127,110,57,121.96,20,-20.00,-6.00,-1011.00
2024-06-07 00:23:42.793764,0,0,3,0,0,0,59,62,127,110,57,121.96,20,-25.00,-2.00,-1002.00
2024-06-07 00:23:42.858468,0,0,3,0,0,0,59,62,127,110,57,121.87,20,-8.00,-15.00,-1032.00
2024-06-07 00:23:42.960480,0,0,3,0,0,0,59,62,127,110,57,121.93,20,-47.00,0.00,-1046.00
2024-06-07 00:23:43.101040,0,0,3,0,0,0,60,62,127,110,56,121.91,21,-5.00,-19.00,-1001.00
2024-06-07 00:23:43.164095,0,0,3,0,0,0,60,62,126,110,56,121.94,21,-29.00,1.00,-1000.00
2024-06-07 00:23:43.305886,-1,0,3,0,0,0,60,62,126,110,56,121.99,21,-30.00,7.00,-1010.00
2024-06-07 00:23:43.368498,0,0,3,0,0,0,60,62,126,110,56,121.96,21,-9.00,-9.00,-993.00
2024-06-07 00:23:43.510490,0,0,3,0,0,0,60,62,126,110,56,121.98,21,-5.00,-7.00,-994.00
2024-06-07 00:23:43.571909,0,0,3,0,0,0,60,62,127,110,56,122.01,21,-31.00,13.00,-997.00
2024-06-07 00:23:43.715291,0,0,3,0,0,0,60,62,127,110,56,121.96,21,-12.00,-19.00,-986.00
2024-06-07 00:23:43.776002,0,0,3,0,0,0,60,62,127,110,56,121.98,21,-1.00,-3.00,-1012.00
2024-06-07 00:23:43.879746,-1,0,3,0,0,0,60,62,127,110,56,121.92,21,-24.00,-16.00,-970.00
2024-06-07 00:23:43.979904,-1,0,3,0,0,0,60,62,126,110,56,121.91,21,-17.00,-3.00,-1032.00
2024-06-07 00:23:44.124906,-1,0,3,0,0,0,60,62,127,110,56,122.01,22,-11.00,-3.00,-992.00
2024-06-07 00:23:44.183891,-1,0,3,0,0,0,60,62,127,110,56,121.94,22,-10.00,-20.00,-987.00
2024-06-07 00:23:44.286460,0,0,3,0,0,0,60,62,127,110,56,121.93,22,-26.00,0.00,-999.00
2024-06-07 00:23:44.432336,0,0,3,0,0,0,60,62,127,110,56,121.97,22,4.00,-21.00,-976.00
2024-06-07 00:23:44.489801,4,0,3,0,0,0,60,62,128,110,56,122.05,22,-39.00,-10.00,-1037.00
2024-06-07 00:23:44.636777,7,0,3,-1,0,0,60,62,129,110,56,122.00,22,-10.00,12.00,-1014.00
2024-06-07 00:23:44.693885,8,0,3,-3,0,0,60,62,128,110,56,122.00,22,-8.00,-15.00,-1021.00
2024-06-07 00:23:44.841567,7,0,3,-4,0,0,60,62,127,110,56,121.99,22,38.00,-7.00,-991.00
2024-06-07 00:23:44.847602,6,0,3,-5,0,0,60,62,128,110,56,121.99,22,46.00,-40.00,-1007.00
2024-06-07 00:23:45.046400,5,2,4,-6,0,0,60,62,127,110,56,122.00,22,23.00,-15.00,-981.00
2024-06-07 00:23:45.050690,5,2,4,-6,0,0,60,63,126,110,55,122.02,23,45.00,-15.00,-1001.00
2024-06-07 00:23:45.251135,4,1,4,-7,0,0,60,63,127,110,55,121.96,23,42.00,-34.00,-1016.00
2024-06-07 00:23:45.254724,2,1,3,-7,0,0,60,63,127,110,55,122.02,23,34.00,-1.00,-1030.00
2024-06-07 00:23:45.357422,0,0,3,-7,0,0,60,63,127,110,55,121.94,23,35.00,-9.00,-1016.00
2024-06-07 00:23:45.458623,-3,0,3,-6,0,0,60,63,127,110,55,121.94,23,48.00,-22.00,-967.00
2024-06-07 00:23:45.560903,-4,0,3,-5,0,0,60,63,126,110,55,122.05,23,17.00,-5.00,-1020.00
2024-06-07 00:23:45.662692,-3,0,3,-4,0,0,60,63,127,110,55,122.03,23,-16.00,3.00,-995.00
2024-06-07 00:23:45.865340,-2,0,3,-3,0,0,60,63,127,110,55,122.04,23,25.00,-19.00,-1006.00
2024-06-07 00:23:45.869760,-1,0,3,-3,0,0,60,63,127,110,55,122.06,23,-1.00,-5.00,-1004.00
2024-06-07 00:23:45.968934,0,0,3,-3,0,0,60,63,127,110,55,122.04,23,16.00,-3.00,-991.00
2024-06-07 00:23:46.070689,0,0,3,-3,0,0,61,63,127,110,55,122.00,24,6.00,-2.00,-1087.00
2024-06-07 00:23:46.172662,0,0,3,-3,0,0,61,63,128,110,55,122.04,24,7.00,-25.00,-984.00
2024-06-07 00:23:46.275102,0,0,3,-3,0,0,61,63,127,110,55,122.07,24,23.00,-29.00,-977.00
2024-06-07 00:23:46.377417,0,0,3,-2,0,0,61,63,128,110,55,122.03,24,-24.00,8.00,-990.00
2024-06-07 00:23:46.479880,0,1,3,-2,0,0,61,63,128,110,55,122.07,24,14.00,-17.00,-977.00
2024-06-07 00:23:46.582192,-3,0,3,-2,0,0,61,63,128,110,55,122.03,24,-25.00,10.00,-994.00
2024-06-07 00:23:46.682604,-6,0,3,-1,0,0,61,63,129,110,55,122.02,24,-20.00,-6.00,-1002.00
2024-06-07 00:23:46.784554,-3,0,3,0,0,0,61,63,129,110,55,122.04,24,-11.00,-22.00,-1014.00
2024-06-07 00:23:46.886989,-1,0,3,0,0,0,61,63,129,110,55,121.98,24,-34.00,0.00,-1005.00
2024-06-07 00:23:46.991848,-1,1,3,0,0,0,61,63,129,110,55,121.98,24,15.00,-24.00,-1008.00
2024-06-07 00:23:47.090590,-1,1,3,0,0,0,62,63,129,110,54,122.09,25,-23.00,-6.00,-989.00
2024-06-07 00:23:47.196976,-1,1,3,0,0,0,62,63,129,110,54,122.03,25,-9.00,-26.00,-980.00
2024-06-07 00:23:47.295653,-2,0,3,0,0,0,62,63,129,110,54,122.06,25,14.00,-21.00,-995.00
2024-06-07 00:23:47.396648,-2,0,3,0,0,0,62,63,130,110,54,121.99,25,-33.00,-15.00,-992.00
2024-06-07 00:23:47.503942,-2,0,3,0,0,0,62,63,129,110,54,122.02,25,-27.00,0.00,-994.00
2024-06-07 00:23:47.600529,-1,0,3,0,0,0,62,63,128,110,54,121.95,25,-38.00,9.00,-987.00
2024-06-07 00:23:47.709345,-1,0,3,0,0,0,62,63,129,110,54,122.02,25,-2.00,-29.00,-992.00
2024-06-07 00:23:47.805227,-1,0,3,0,0,0,62,63,128,110,54,121.97,25,-16.00,-9.00,-992.00
2024-06-07 00:23:47.906610,-1,0,3,0,0,0,62,63,128,110,54,122.02,25,-39.00,-11.00,-1026.00
2024-06-07 00:23:48.016062,-1,0,3,0,0,0,62,63,128,110,54,122.00,25,-35.00,1.00,-993.00
2024-06-07 00:23:48.112251,-1,0,3,0,0,0,61,63,129,110,54,122.01,26,-12.00,-16.00,-998.00
2024-06-07 00:23:48.212723,-1,0,3,0,0,0,61,63,128,110,54,121.98,26,-23.00,-3.00,-999.00
2024-06-07 00:23:48.323022,-1,0,3,0,0,0,61,63,128,110,54,121.94,26,-10.00,-17.00,-968.00
2024-06-07 00:23:48.416970,0,0,3,0,0,0,61,63,129,110,54,121.99,26,-24.00,-8.00,-996.00
2024-06-07 00:23:48.527907,0,0,3,0,0,0,61,63,128,110,54,122.00,26,-50.00,-8.00,-992.00
2024-06-07 00:23:48.620605,0,0,3,0,0,0,61,63,128,110,54,122.02,26,-2.00,-21.00,-1000.00
2024-06-07 00:23:48.732742,0,0,3,0,0,0,61,63,128,110,54,121.99,26,-9.00,-16.00,-993.00
2024-06-07 00:23:48.773432,-1,0,3,0,0,0,61,63,129,110,54,121.99,26,-24.00,-12.00,-980.00
2024-06-07 00:23:48.937443,-1,0,3,0,0,0,61,63,128,110,54,121.99,26,-32.00,3.00,-968.00
2024-06-07 00:23:48.977310,0,-3,3,0,0,0,61,63,130,110,54,122.00,26,-56.00,-5.00,-1025.00
2024-06-07 00:23:49.142178,0,-6,3,0,-2,0,62,64,128,110,53,122.01,27,-30.00,5.00,-1053.00
2024-06-07 00:23:49.181785,0,-3,4,0,-3,0,62,64,129,110,53,122.01,27,-27.00,5.00,-967.00
2024-06-07 00:23:49.346918,0,0,3,0,-4,0,62,64,129,110,53,122.00,27,-14.00,11.00,-1011.00
2024-06-07 00:23:49.385346,-1,2,3,0,-3,0,62,64,129,110,53,122.06,27,-2.00,14.00,-981.00
2024-06-07 00:23:49.551636,-1,2,3,0,-3,0,62,64,129,110,53,122.05,27,-12.00,15.00,-978.00
2024-06-07 00:23:49.589469,-1,0,3,0,-2,0,62,64,130,110,53,122.01,27,-13.00,7.00,-999.00
2024-06-07 00:23:49.691366,0,0,3,0,-2,0,62,64,130,110,53,121.96,27,-1.00,4.00,-991.00
2024-06-07 00:23:49.858994,0,0,3,0,-2,0,62,64,129,110,53,121.98,27,5.00,-4.00,-1009.00
2024-06-07 00:23:49.895288,0,0,3,0,-2,0,62,64,129,110,53,121.99,27,-18.00,8.00,-1019.00
2024-06-07 00:23:50.063669,0,0,3,0,-2,0,62,64,128,110,53,122.03,28,-37.00,13.00,-1022.00
2024-06-07 00:23:50.099266,0,0,3,0,-2,0,61,64,128,110,53,122.02,28,22.00,-27.00,-989.00
2024-06-07 00:23:50.268761,0,0,4,0,-2,0,61,64,128,110,53,121.97,28,-12.00,-18.00,-989.00
2024-06-07 00:23:50.303294,0,0,4,0,-2,0,61,64,127,110,53,122.08,28,-25.00,-17.00,-997.00
2024-06-07 00:23:50.473247,0,0,4,0,-2,0,61,64,127,110,53,122.08,28,-31.00,24.00,-974.00
2024-06-07 00:23:50.507116,0,1,4,0,-2,0,61,64,127,110,53,122.05,28,-8.00,-4.00,-1010.00
2024-06-07 00:23:50.678020,0,2,4,0,-2,0,61,64,127,110,53,122.03,28,2.00,-22.00,-1028.00
2024-06-07 00:23:50.711180,0,5,4,0,-1,0,61,64,127,110,53,122.03,28,-14.00,-15.00,-1017.00
2024-06-07 00:23:50.813213,0,4,4,0,0,0,61,64,127,110,53,121.98,28,-7.00,16.00,-995.00
2024-06-07 00:23:50.915193,0,2,4,0,0,0,61,64,126,110,53,122.03,28,14.00,-46.00,-1022.00
2024-06-07 00:23:51.088163,0,1,4,0,0,0,61,64,127,110,53,122.07,29,-14.00,-34.00,-976.00
2024-06-07 00:23:51.119442,0,1,4,0,0,0,62,64,127,110,52,121.99,29,-22.00,2.00,-1022.00
2024-06-07 00:23:51.293143,0,1,4,0,0,0,62,64,127,110,52,121.93,29,0.00,-19.00,-993.00
2024-06-07 00:23:51.323679,0,1,4,0,0,0,62,64,127,110,52,121.96,29,-18.00,-12.00,-996.00
2024-06-07 00:23:51.425964,0,1,4,0,0,0,62,64,127,110,52,121.97,29,-7.00,-26.00,-1006.00
2024-06-07 00:23:51.600613,0,1,4,0,0,0,62,64,128,110,52,122.01,29,-19.00,-17.00,-979.00
2024-06-07 00:23:51.629973,0,1,4,0,0,0,62,64,128,110,52,122.00,29,29.00,-15.00,-1013.00
2024-06-07 00:23:51.804535,0,1,4,0,0,0,62,64,127,110,52,122.01,29,-18.00,-6.00,-986.00
2024-06-07 00:23:51.833270,0,1,4,0,0,0,62,64,128,110,52,122.00,29,-1.00,-32.00,-965.00
2024-06-07 00:23:51.935334,0,1,4,0,0,0,62,64,127,110,52,122.00,29,-46.00,-9.00,-1011.00
2024-06-07 00:23:52.214570,0,1,4,0,0,0,62,64,127,110,52,122.05,30,-27.00,0.00,-1023.00
2024-06-07 00:23:52.330070,0,1,4,0,0,0,61,64,127,110,52,122.05,30,-25.00,-7.00,-1000.00
2024-06-07 00:23:52.330254,-1,0,4,0,0,0,61,64,127,110,52,122.00,30,-23.00,-6.00,-1033.00
2024-06-07 00:23:52.343010,0,0,4,0,0,0,61,64,127,110,52,122.00,30,-48.00,35.00,-1016.00
2024-06-07 00:23:52.521723,-1,0,4,0,0,0,61,64,127,110,52,122.03,30,6.00,-31.00,-1044.00
2024-06-07 00:23:52.592193,0,0,4,0,0,0,61,64,127,110,52,121.99,30,-41.00,-28.00,-1012.00
2024-06-07 00:23:52.657783,-1,0,4,0,0,0,61,64,127,110,52,122.01,30,-43.00,21.00,-1006.00
2024-06-07 00:23:52.772675,-1,0,4,0,0,0,61,64,127,110,52,121.98,30,-48.00,-17.00,-1009.00
2024-06-07 00:23:52.853614,-1,0,4,0,0,0,61,64,127,110,52,121.98,30,-45.00,1.00,-1007.00
2024-06-07 00:23:52.912648,-1,0,4,0,0,0,61,64,127,110,52,121.99,30,-39.00,0.00,-975.00
2024-06-07 00:23:53.067139,-1,0,4,0,0,0,61,64,127,110,52,121.99,31,33.00,-96.00,-989.00
2024-06-07 00:23:53.129535,-1,6,3,0,0,0,62,65,128,110,51,122.06,31,-27.00,-1.00,-992.00
2024-06-07 00:23:53.275918,-1,8,3,0,1,0,62,65,128,110,51,122.04,31,0.00,-71.00,-1025.00
2024-06-07 00:23:53.415397,-1,7,3,0,3,0,62,65,128,110,51,121.99,31,-11.00,-45.00,-988.00
2024-06-07 00:23:53.415622,-1,4,3,0,4,0,62,65,127,110,51,121.96,31,-8.00,-67.00,-1000.00
2024-06-07 00:23:53.559272,-1,1,3,0,4,0,62,65,127,110,51,121.98,31,-27.00,-40.00,-1005.00
2024-06-07 00:23:53.702202,-1,0,3,0,3,0,62,65,127,110,51,122.02,31,-25.00,-62.00,-1019.00
2024-06-07 00:23:53.721468,-1,0,3,0,2,0,62,65,127,110,51,122.01,31,-48.00,-40.00,-997.00
2024-06-07 00:23:53.863535,-1,1,3,0,2,0,62,65,128,110,51,121.99,31,-42.00,-18.00,-1012.00
2024-06-07 00:23:54.017823,-2,1,3,0,2,0,62,65,128,110,51,121.98,31,-60.00,9.00,-984.00
2024-06-07 00:23:54.025948,-2,1,3,0,2,0,62,65,128,110,51,122.03,32,-19.00,-25.00,-1001.00
2024-06-07 00:23:54.134082,-1,2,3,0,2,0,63,65,129,110,51,122.04,32,-13.00,-38.00,-984.00
2024-06-07 00:23:54.229870,-1,1,3,0,2,0,63,65,129,110,51,121.92,32,-52.00,-22.00,-1034.00
2024-06-07 00:23:54.367821,-1,1,3,0,2,0,63,65,129,110,51,121.99,32,-34.00,-20.00,-1019.00
2024-06-07 00:23:54.433892,-1,1,3,0,2,0,63,65,129,110,51,121.96,32,-12.00,-30.00,-1029.00
2024-06-07 00:23:54.571066,-1,1,3,0,2,0,63,65,130,110,51,121.99,32,-36.00,-2.00,-990.00
2024-06-07 00:23:54.637855,-1,0,3,0,2,0,63,65,130,110,51,122.01,32,-27.00,-35.00,-992.00
2024-06-07 00:23:54.774638,-1,0,3,0,2,0,63,65,129,110,51,121.98,32,-7.00,-34.00,-1000.00
2024-06-07 00:23:54.841894,0,-3,3,0,2,0,63,65,130,110,51,122.01,32,-12.00,-26.00,-1002.00
2024-06-07 00:23:54.943821,0,-3,3,0,1,0,63,65,130,110,51,122.09,32,-15.00,-22.00,-1019.00
2024-06-07 00:23:55.045937,0,-1,3,0,0,0,63,65,130,110,51,122.04,33,-2.00,-38.00,-977.00
2024-06-07 00:23:55.184188,-1,0,3,0,0,0,63,65,130,110,50,121.99,33,-21.00,-15.00,-989.00
2024-06-07 00:23:55.249990,-1,0,3,0,0,0,63,65,129,110,50,122.07,33,-5.00,-16.00,-959.00
2024-06-07 00:23:55.388308,0,0,3,0,0,0,63,65,129,110,50,122.05,33,-12.00,-29.00,-1001.00
2024-06-07 00:23:55.454763,-1,0,3,0,0,0,63,65,128,110,50,122.00,33,-44.00,-8.00,-969.00
2024-06-07 00:23:55.579135,-1,0,3,0,0,0,63,65,128,110,50,122.04,33,-35.00,-12.00,-1024.00
2024-06-07 00:23:55.659186,-1,0,3,0,0,0,63,65,128,110,50,122.03,33,-24.00,-7.00,-1050.00
2024-06-07 00:23:55.797979,-1,0,3,0,0,0,63,65,128,110,50,122.05,33,-25.00,-4.00,-997.00
2024-06-07 00:23:55.863000,0,0,3,0,0,0,63,65,127,110,50,122.03,33,-33.00,-14.00,-1049.00
2024-06-07 00:23:56.003109,-1,0,3,0,0,0,63,65,128,110,50,122.10,33,-42.00,10.00,-1062.00
2024-06-07 00:23:56.015779,-1,0,3,0,0,0,63,65,129,110,50,122.03,34,-8.00,3.00,-974.00
2024-06-07 00:23:56.207566,-1,0,3,0,0,0,62,65,129,110,50,122.04,34,-33.00,-20.00,-1015.00
2024-06-07 00:23:56.270913,0,0,3,0,0,0,62,65,129,110,50,122.11,34,-22.00,-11.00,-995.00
2024-06-07 00:23:56.412466,0,0,3,0,0,0,62,65,129,110,50,122.02,34,5.00,-10.00,-973.00
2024-06-07 00:23:56.423685,0,0,3,0,0,0,62,65,128,110,50,122.06,34,-18.00,-33.00,-1019.00
2024-06-07 00:23:56.617054,0,0,3,0,0,0,62,65,129,110,50,122.08,34,-2.00,-13.00,-1011.00
2024-06-07 00:23:56.627819,0,0,3,0,0,0,62,65,128,110,50,122.00,34,-8.00,0.00,-997.00
2024-06-07 00:23:56.822104,0,0,3,0,0,0,62,65,128,110,50,122.08,34,-17.00,-6.00,-991.00
2024-06-07 00:23:56.831820,0,0,3,0,0,0,62,65,127,110,50,122.11,34,-17.00,-24.00,-1017.00
2024-06-07 00:23:56.933630,0,1,3,0,0,0,62,65,126,110,50,122.08,34,-6.00,-28.00,-965.00
2024-06-07 00:23:57.035781,0,1,3,0,0,0,62,65,125,110,49,121.98,35,-24.00,1.00,-1000.00
2024-06-07 00:23:57.231372,-1,0,5,0,0,0,62,66,125,100,49,122.00,35,26.00,-49.00,-1044.00
2024-06-07 00:23:57.239979,-1,0,10,0,0,0,62,66,125,100,49,122.06,35,8.00,-6.00,-983.00
2024-06-07 00:23:57.437818,0,0,16,0,0,0,62,66,126,100,49,122.02,35,-18.00,3.00,-1026.00
2024-06-07 00:23:57.443618,0,0,21,0,0,0,62,66,126,100,49,122.05,35,-24.00,2.00,-1030.00
2024-06-07 00:23:57.640950,0,0,27,0,0,0,62,66,127,100,49,122.10,35,-32.00,-19.00,-1034.00
2024-06-07 00:23:57.647773,-1,0,33,0,0,0,62,66,128,100,49,122.09,35,-6.00,9.00,-935.00
2024-06-07 00:23:57.845932,-1,0,39,0,0,0,62,66,129,110,49,122.14,35,-5.00,-9.00,-997.00
2024-06-07 00:23:57.851483,-1,0,44,0,0,0,62,66,131,110,49,122.19,35,5.00,-8.00,-1007.00
2024-06-07 00:23:57.955205,-1,0,50,0,0,0,62,66,131,110,49,122.08,35,-19.00,-18.00,-998.00
2024-06-07 00:23:58.055684,0,0,56,0,0,0,62,66,133,110,49,122.09,36,-28.00,17.00,-927.00
2024-06-07 00:23:58.255651,0,0,62,0,0,0,63,66,133,110,49,122.13,36,24.00,-14.00,-937.00
2024-06-07 00:23:58.259488,-1,0,67,0,0,0,63,66,133,110,49,122.16,36,0.00,-21.00,-989.00
2024-06-07 00:23:58.460045,0,0,73,0,0,0,63,66,134,110,49,122.11,36,-9.00,-14.00,-974.00
2024-06-07 00:23:58.463554,-1,1,79,0,0,0,63,66,134,110,49,122.10,36,-10.00,-14.00,-975.00
2024-06-07 00:23:58.565549,-1,1,85,0,0,0,63,66,134,110,49,122.06,36,-20.00,0.00,-994.00
2024-06-07 00:23:58.667693,-1,1,91,0,0,0,63,66,134,110,49,122.06,36,-10.00,-34.00,-1055.00
2024-06-07 00:23:58.769543,-1,1,97,0,0,0,63,66,133,110,49,122.13,36,-1.00,6.00,-955.00
2024-06-07 00:23:58.871663,-1,0,103,0,0,0,63,66,132,110,49,122.07,36,-17.00,-11.00,-982.00
2024-06-07 00:23:58.974628,-1,1,109,0,0,0,63,66,131,110,49,122.04,36,-20.00,-16.00,-1014.00
2024-06-07 00:23:59.076478,-1,0,115,0,0,0,63,66,132,110,48,122.05,37,-30.00,1.00,-1002.00
2024-06-07 00:23:59.179658,-1,0,121,0,0,0,63,66,130,110,48,122.04,37,-39.00,-2.00,-1048.00
2024-06-07 00:23:59.280432,-1,0,127,0,0,0,63,66,130,110,48,122.09,37,8.00,-13.00,-955.00
2024-06-07 00:23:59.382798,-1,0,133,0,0,0,63,66,128,110,48,122.06,37,12.00,-12.00,-1024.00
2024-06-07 00:23:59.588012,0,0,139,0,0,0,63,66,127,110,48,121.99,37,-22.00,0.00,-993.00
2024-06-07 00:23:59.588073,-1,0,145,0,0,0,63,66,127,110,48,122.02,37,3.00,-16.00,-1031.00
2024-06-07 00:23:59.688877,-1,0,151,0,0,0,63,66,126,110,48,122.04,37,-14.00,-19.00,-1013.00
2024-06-07 00:23:59.791130,-1,0,157,0,0,0,63,66,125,110,48,122.06,37,-25.00,-5.00,-1014.00
2024-06-07 00:23:59.893320,-1,0,163,0,0,0,63,66,125,100,48,121.98,37,19.00,-26.00,-986.00
2024-06-07 00:23:59.995644,-1,0,170,0,0,0,63,66,125,100,48,122.00,37,-19.00,-23.00,-1040.00
2024-06-07 00:24:00.098644,0,0,176,0,0,0,63,66,125,100,48,121.90,38,10.00,-14.00,-1005.00
2024-06-07 00:24:00.198467,0,0,-177,0,0,0,64,66,125,100,48,121.93,38,3.00,-5.00,-1009.00
2024-06-07 00:24:00.249328,0,0,-171,0,0,0,64,66,126,100,48,122.08,38,-11.00,-18.00,-1011.00
2024-06-07 00:24:00.405612,0,0,-165,0,0,0,64,66,126,100,48,122.06,38,-17.00,-10.00,-1022.00
2024-06-07 00:24:00.453354,0,0,-159,0,0,0,64,66,127,100,48,121.97,38,0.00,-17.00,-999.00
2024-06-07 00:24:00.610454,0,0,-153,0,0,0,64,66,127,100,48,121.99,38,-14.00,-11.00,-1014.00
2024-06-07 00:24:00.657403,0,0,-147,0,0,0,64,66,128,100,48,122.05,38,-23.00,9.00,-1019.00
2024-06-07 00:24:00.815227,0,0,-140,0,0,0,64,66,128,100,48,122.05,38,-8.00,-17.00,-1010.00
2024-06-07 00:24:00.861326,0,-1,-134,0,0,0,64,66,130,110,48,122.12,38,0.00,0.00,-979.00
2024-06-07 00:24:00.963381,0,-1,-128,0,0,0,64,66,131,110,48,122.09,38,-3.00,14.00,-1010.00
2024-06-07 00:24:01.122411,0,-1,-122,0,0,0,64,66,131,110,47,122.07,39,-12.00,7.00,-994.00
2024-06-07 00:24:01.167643,0,-1,-116,0,0,0,64,67,132,110,47,122.11,39,-6.00,-2.00,-973.00
2024-06-07 00:24:01.327198,0,-1,-109,0,0,0,64,67,131,110,47,122.09,39,-5.00,12.00,-976.00
2024-06-07 00:24:01.371644,0,-1,-103,0,0,0,64,67,131,110,47,122.09,39,-21.00,17.00,-973.00
2024-06-07 00:24:01.531908,0,-1,-97,0,0,0,64,67,131,110,47,122.12,39,25.00,-18.00,-1000.00
2024-06-07 00:24:01.575262,0,0,-91,0,0,0,64,67,131,110,47,122.05,39,53.00,-29.00,-977.00
2024-06-07 00:24:01.677314,0,0,-85,0,0,0,64,67,131,110,47,122.13,39,-5.00,2.00,-1022.00
2024-06-07 00:24:01.839135,0,0,-79,0,0,0,64,67,130,110,47,122.11,39,-2.00,-1.00,-1010.00
2024-06-07 00:24:01.881231,0,0,-72,0,0,0,64,67,129,110,47,122.07,39,0.00,2.00,-957.00
2024-06-07 00:24:02.043831,0,0,-66,0,0,0,64,67,128,110,47,122.10,39,21.00,-4.00,-1004.00
2024-06-07 00:24:02.085112,0,0,-60,0,0,0,64,67,128,110,47,122.02,40,-12.00,1.00,-980.00
2024-06-07 00:24:02.248752,0,0,-54,0,0,0,64,67,128,110,47,122.03,40,12.00,-22.00,-1005.00
2024-06-07 00:24:02.289168,0,0,-48,0,0,0,64,67,128,110,47,122.08,40,6.00,-13.00,-1016.00
2024-06-07 00:24:02.453440,0,0,-41,0,0,0,64,67,127,110,47,122.09,40,1.00,-15.00,-1004.00
2024-06-07 00:24:02.493160,0,0,-35,0,0,0,64,67,129,110,47,122.08,40,2.00,-5.00,-1017.00
2024-06-07 00:24:02.658313,0,0,-29,0,0,0,64,67,128,110,47,122.04,40,16.00,0.00,-1022.00
2024-06-07 00:24:02.697170,0,0,-23,0,0,0,64,67,129,110,47,122.14,40,20.00,-6.00,-977.00
2024-06-07 00:24:02.863361,0,0,-17,0,0,0,64,67,128,110,47,122.07,40,13.00,-3.00,-1040.00
2024-06-07 00:24:02.901226,0,0,-12,0,0,0,64,67,129,110,47,122.13,40,-1.00,-12.00,-984.00
2024-06-07 00:24:03.067892,0,0,-8,0,0,0,64,67,129,110,47,122.10,40,31.00,-19.00,-1010.00
2024-06-07 00:24:03.105250,0,0,-6,0,0,0,64,67,130,110,46,122.11,41,-36.00,9.00,-977.00
2024-06-07 00:24:03.272710,0,0,-3,0,0,0,65,66,131,110,46,122.13,41,7.00,-13.00,-957.00
2024-06-07 00:24:03.309118,0,0,-2,0,0,0,65,66,130,110,46,122.10,41,20.00,-51.00,-1022.00
2024-06-07 00:24:03.411066,0,0,0,0,0,0,65,66,131,110,46,122.09,41,0.00,-19.00,-985.00
2024-06-07 00:24:03.579856,0,0,0,0,0,0,65,66,131,110,46,122.23,41,-13.00,-21.00,-1001.00
2024-06-07 00:24:03.615100,0,0,1,0,0,0,65,66,131,110,46,122.17,41,-25.00,-2.00,-977.00
2024-06-07 00:24:03.717246,0,0,1,0,0,0,65,66,131,110,46,122.10,41,-35.00,10.00,-995.00
2024-06-07 00:24:03.838959,0,0,2,0,0,0,65,66,131,110,46,122.15,41,-20.00,-11.00,-995.00
2024-06-07 00:24:03.870286,0,0,2,0,0,0,65,66,133,110,46,122.14,41,2.00,-26.00,-984.00
2024-06-07 00:24:03.972206,0,0,2,0,0,0,65,66,132,110,46,122.11,41,0.00,-6.00,-984.00
2024-06-07 00:24:04.092571,0,0,2,0,0,0,65,66,132,110,46,122.08,42,-23.00,6.00,-1014.00
2024-06-07 00:24:04.176120,0,0,2,0,0,0,65,66,132,110,46,122.12,42,-9.00,-13.00,-1026.00
2024-06-07 00:24:04.296605,0,0,2,0,0,0,65,66,133,110,46,122.08,42,-25.00,3.00,-995.00
2024-06-07 00:24:04.381196,0,0,2,0,0,0,65,66,133,110,46,122.13,42,22.00,-23.00,-964.00
2024-06-07 00:24:04.502014,0,0,2,0,0,0,65,66,132,110,46,122.12,42,-11.00,-6.00,-1007.00
2024-06-07 00:24:04.584052,0,0,2,0,0,0,65,66,133,110,46,122.18,42,-9.00,-32.00,-1014.00
2024-06-07 00:24:04.686318,0,0,2,0,0,0,65,66,132,110,46,122.13,42,4.00,-21.00,-927.00
2024-06-07 00:24:04.808655,0,0,2,0,0,0,65,66,132,110,46,122.18,42,-16.00,-22.00,-1008.00
2024-06-07 00:24:04.891707,0,0,2,0,0,0,65,66,132,110,46,122.13,42,-17.00,-6.00,-1010.00
2024-06-07 00:24:04.991984,0,0,2,0,0,0,65,66,132,110,46,122.12,42,-25.00,-24.00,-1003.00
2024-06-07 00:24:05.115883,0,0,2,0,0,0,65,66,132,110,45,122.12,43,-21.00,-16.00,-986.00
2024-06-07 00:24:05.196080,0,0,2,0,0,0,65,67,132,110,45,122.03,43,-4.00,-9.00,-972.00
2024-06-07 00:24:05.321646,-1,0,2,0,0,0,65,67,132,110,45,122.10,43,0.00,-36.00,-1016.00
2024-06-07 00:24:05.400061,-1,0,2,0,0,0,65,67,132,110,45,122.13,43,9.00,-35.00,-999.00
2024-06-07 00:24:05.525511,-1,0,2,0,0,0,65,67,132,110,45,122.11,43,-11.00,-26.00,-986.00
2024-06-07 00:24:05.604094,-1,0,2,0,0,0,65,67,132,110,45,122.12,43,6.00,-37.00,-985.00
2024-06-07 00:24:05.705904,0,0,2,0,0,0,65,67,131,110,45,122.10,43,-11.00,-10.00,-1024.00
2024-06-07 00:24:05.832509,0,0,0,0,0,0,65,67,132,110,45,122.07,43,18.00,-25.00,-990.00
2024-06-07 00:24:05.909825,0,0,-5,0,0,0,65,67,132,110,45,122.13,43,-1.00,-7.00,-1010.00
2024-06-07 00:24:06.037365,0,0,-11,0,0,0,65,67,132,110,45,122.15,44,-27.00,0.00,-978.00
2024-06-07 00:24:06.113962,0,0,-17,0,0,0,65,67,132,110,45,122.15,44,-2.00,-22.00,-984.00
2024-06-07 00:24:06.242050,0,0,-23,0,0,0,64,67,132,110,45,122.13,44,-22.00,-13.00,-1010.00
2024-06-07 00:24:06.317750,0,0,-30,0,0,0,64,67,131,110,45,122.12,44,-28.00,-1.00,-979.00
2024-06-07 00:24:06.446936,-1,0,-36,0,0,0,64,67,131,110,45,122.15,44,31.00,-11.00,-991.00
2024-06-07 00:24:06.522029,0,0,-42,0,0,0,64,67,130,110,45,122.14,44,-39.00,-3.00,-1024.00
2024-06-07 00:24:06.651618,0,0,-48,0,0,0,64,67,130,110,45,122.18,44,5.00,-32.00,-994.00
2024-06-07 00:24:06.727376,0,0,-54,0,0,0,64,67,130,110,45,122.14,44,10.00,-3.00,-1032.00
2024-06-07 00:24:06.827818,0,0,-60,0,0,0,64,67,130,110,45,122.14,44,9.00,-25.00,-989.00
2024-06-07 00:24:06.929959,0,1,-66,0,0,0,64,67,130,110,45,122.17,44,-19.00,-14.00,-1024.00
2024-06-07 00:24:07.111104,0,0,-72,0,0,0,64,67,129,110,45,122.12,45,5.00,-6.00,-993.00
2024-06-07 00:24:07.133833,0,0,-78,0,0,0,64,67,129,110,44,122.22,45,0.00,-13.00,-990.00
2024-06-07 00:24:07.253613,0,0,-84,0,0,0,65,67,128,110,44,122.13,45,17.00,-20.00,-1007.00
2024-06-07 00:24:07.361325,0,0,-90,0,0,0,65,67,130,110,44,122.12,45,-20.00,9.00,-1046.00
2024-06-07 00:24:07.442618,0,0,-96,0,0,0,65,67,129,110,44,122.13,45,7.00,-15.00,-992.00
2024-06-07 00:24:07.521972,0,0,-103,0,0,0,65,67,129,110,44,122.21,45,-32.00,0.00,-991.00
2024-06-07 00:24:07.593066,0,0,-109,0,0,0,65,67,129,110,44,122.16,45,-21.00,-2.00,-1009.00
2024-06-07 00:24:07.819304,0,0,-115,0,0,0,65,67,129,110,44,122.20,45,26.00,-17.00,-995.00
2024-06-07 00:24:07.819368,0,0,-121,0,0,0,65,67,130,110,44,122.21,45,-6.00,-4.00,-961.00
2024-06-07 00:24:07.901501,0,0,-127,0,0,0,65,67,131,110,44,122.21,45,-14.00,10.00,-957.00
2024-06-07 00:24:08.053687,0,0,-133,0,0,0,65,67,130,110,44,122.18,46,19.00,1.00,-1024.00
2024-06-07 00:24:08.115210,0,0,-140,0,0,0,65,67,131,110,44,122.19,46,-9.00,1.00,-1009.00
2024-06-07 00:24:08.301073,0,0,-146,0,0,0,65,67,130,110,44,122.21,46,-10.00,-27.00,-1013.00
2024-06-07 00:24:08.306801,0,0,-152,0,0,0,65,67,131,110,44,122.17,46,-13.00,16.00,-962.00
2024-06-07 00:24:08.444173,0,0,-159,0,0,0,65,67,130,110,44,122.26,46,-20.00,-13.00,-975.00
2024-06-07 00:24:08.607993,0,0,-165,0,0,0,65,67,129,110,44,122.21,46,-3.00,-21.00,-1017.00
2024-06-07 00:24:08.612594,0,0,-171,0,0,0,65,67,130,110,44,122.21,46,4.00,7.00,-969.00
2024-06-07 00:24:08.751393,0,0,-178,0,0,0,65,67,129,110,44,122.19,46,-22.00,13.00,-980.00
2024-06-07 00:24:08.915297,0,0,175,0,0,0,65,67,130,110,44,122.15,46,8.00,6.00,-1008.00
2024-06-07 00:24:08.918902,0,0,169,0,0,0,65,67,129,110,44,122.13,46,5.00,4.00,-1017.00
2024-06-07 00:24:09.069474,0,0,162,0,0,0,65,67,129,110,44,122.19,47,-4.00,-4.00,-1047.00
2024-06-07 00:24:09.134978,0,0,156,0,0,0,65,67,129,110,43,122.13,47,15.00,5.00,-995.00
2024-06-07 00:24:09.224477,0,0,150,0,0,0,66,68,129,110,43,122.13,47,16.00,-29.00,-982.00
2024-06-07 00:24:09.416329,0,0,144,0,0,0,66,68,129,110,43,122.13,47,-38.00,3.00,-979.00
2024-06-07 00:24:09.428518,0,0,138,0,0,0,66,68,129,110,43,122.16,47,-6.00,5.00,-1005.00
2024-06-07 00:24:09.621442,0,0,131,0,0,0,66,68,130,110,43,122.24,47,-22.00,3.00,-1073.00
2024-06-07 00:24:09.632587,0,0,125,0,0,0,66,68,129,110,43,122.20,47,41.00,-19.00,-946.00
2024-06-07 00:24:09.825934,0,0,119,0,0,0,66,68,130,110,43,122.18,47,-30.00,4.00,-982.00
2024-06-07 00:24:09.836495,0,0,113,0,0,0,66,68,130,110,43,122.15,47,-4.00,0.00,-1005.00
2024-06-07 00:24:10.031391,0,0,107,0,0,0,66,68,130,110,43,122.16,47,-18.00,9.00,-1025.00
2024-06-07 00:24:10.041445,0,0,100,0,0,0,66,68,130,110,43,122.16,48,0.00,-2.00,-1015.00
2024-06-07 00:24:10.235842,0,0,94,0,0,0,66,68,130,110,43,122.17,48,-40.00,-6.00,-1059.00
2024-06-07 00:24:10.245364,0,0,88,0,0,0,65,69,131,110,43,122.19,48,-12.00,10.00,-1006.00
2024-06-07 00:24:10.440241,0,0,82,0,0,0,65,69,130,110,43,122.20,48,-15.00,12.00,-933.00
2024-06-07 00:24:10.449364,0,0,76,0,0,0,65,69,131,110,43,122.17,48,-23.00,-5.00,-1048.00
2024-06-07 00:24:10.592433,0,0,69,0,0,0,65,69,132,110,43,122.17,48,-24.00,-9.00,-1033.00
2024-06-07 00:24:10.653680,0,0,63,0,0,0,65,69,131,110,43,122.20,48,-24.00,22.00,-961.00
2024-06-07 00:24:10.849888,0,0,57,0,0,0,65,69,132,110,43,122.21,48,-45.00,-6.00,-981.00
2024-06-07 00:24:10.857562,0,0,51,0,0,0,65,69,131,110,43,122.24,48,-19.00,5.00,-997.00
2024-06-07 00:24:10.959415,0,0,45,0,0,0,65,69,132,110,43,122.13,48,-6.00,2.00,-971.00
2024-06-07 00:24:11.156990,0,0,39,0,0,0,65,69,132,110,42,122.23,49,-14.00,-4.00,-1042.00
2024-06-07 00:24:11.163430,-1,0,33,0,0,0,65,69,133,110,42,122.13,49,1.00,-14.00,-994.00
2024-06-07 00:24:11.361802,0,0,27,0,0,0,65,68,133,110,42,122.18,49,0.00,-12.00,-1053.00
2024-06-07 00:24:11.367394,0,0,21,0,0,0,65,68,132,110,42,122.20,49,-17.00,8.00,-992.00
2024-06-07 00:24:11.566576,0,0,16,0,0,0,65,68,132,110,42,122.15,49,-8.00,0.00,-1002.00
2024-06-07 00:24:11.571355,0,0,13,0,0,0,65,68,132,110,42,122.17,49,-4.00,13.00,-1000.00
2024-06-07 00:24:11.771351,0,0,10,0,0,0,65,68,131,110,42,122.17,49,-9.00,-9.00,-985.00
2024-06-07 00:24:11.771580,0,0,8,0,0,0,65,68,131,110,42,122.20,49,-20.00,-14.00,-1094.00
2024-06-07 00:24:11.826608,0,0,6,0,0,0,65,68,130,110,42,122.16,49,-20.00,-23.00,-1003.00
2024-06-07 00:24:11.981908,-1,0,5,0,0,0,65,68,130,110,42,122.14,49,-11.00,0.00,-979.00
2024-06-07 00:24:12.030324,-1,0,4,0,0,0,65,68,129,110,42,122.12,50,-8.00,-5.00,-974.00
2024-06-07 00:24:12.181020,-1,0,4,0,0,0,65,68,128,110,42,122.11,50,15.00,6.00,-1006.00
2024-06-07 00:24:12.234386,0,0,3,0,0,0,66,68,128,110,42,122.13,50,-34.00,-18.00,-938.00
2024-06-07 00:24:12.385960,-1,0,3,0,0,0,66,68,128,100,42,122.12,50,-25.00,-11.00,-1066.00
2024-06-07 00:24:12.438578,-1,0,3,0,0,0,66,68,127,100,42,122.08,50,8.00,-20.00,-1050.00
2024-06-07 00:24:12.590778,0,0,3,0,0,0,66,68,127,100,42,122.15,50,6.00,-3.00,-993.00
2024-06-07 00:24:12.642258,0,0,3,0,0,0,66,68,128,100,42,122.10,50,-17.00,0.00,-968.00
2024-06-07 00:24:12.795475,0,0,3,0,0,0,66,68,128,100,42,122.18,50,-24.00,-7.00,-1022.00
2024-06-07 00:24:12.846503,0,0,3,0,0,0,66,68,129,110,42,122.14,50,-8.00,11.00,-975.00
2024-06-07 00:24:13.001834,0,0,3,0,0,0,66,68,130,110,42,122.09,50,-3.00,-28.00,-1019.00
2024-06-07 00:24:13.050318,0,0,3,0,0,0,66,68,130,110,41,122.10,51,-36.00,0.00,-948.00
2024-06-07 00:24:13.152307,-1,0,3,0,0,0,66,68,130,110,41,122.17,51,-9.00,-15.00,-1017.00
2024-06-07 00:24:13.254627,0,0,3,0,0,0,66,68,131,110,41,122.23,51,-4.00,-28.00,-982.00
2024-06-07 00:24:13.357462,0,0,3,0,0,0,66,68,130,110,41,122.16,51,-4.00,-12.00,-976.00
2024-06-07 00:24:13.459259,0,0,3,0,0,0,66,68,131,110,41,122.19,51,7.00,-7.00,-947.00
2024-06-07 00:24:13.595990,0,0,3,0,0,0,66,68,131,110,41,122.15,51,-8.00,-8.00,-1001.00
2024-06-07 00:24:13.663455,0,0,3,0,0,0,66,68,131,110,41,122.13,51,-2.00,0.00,-998.00
2024-06-07 00:24:13.819541,0,0,3,0,0,0,66,68,131,110,41,122.19,51,0.00,-13.00,-985.00
2024-06-07 00:24:13.867258,0,0,3,0,0,0,66,68,131,110,41,122.17,51,-5.00,-5.00,-963.00
2024-06-07 00:24:13.969613,0,0,3,0,0,0,66,68,132,110,41,122.19,51,-19.00,-11.00,-983.00
2024-06-07 00:24:14.126702,0,0,3,0,0,0,66,68,133,110,41,122.24,52,-1.00,0.00,-1025.00
2024-06-07 00:24:14.173343,-1,0,3,0,0,0,66,68,133,110,41,122.25,52,-35.00,13.00,-933.00
2024-06-07 00:24:14.278326,-1,0,3,0,0,0,66,68,134,110,41,122.15,52,-13.00,0.00,-989.00
2024-06-07 00:24:14.377483,0,0,3,0,0,0,66,68,134,110,41,122.25,52,-9.00,0.00,-947.00
2024-06-07 00:24:14.536374,0,0,3,0,0,0,66,68,134,110,41,122.26,52,-28.00,-2.00,-1005.00
2024-06-07 00:24:14.581440,0,0,3,0,0,0,66,68,134,110,41,122.21,52,-43.00,1.00,-964.00
2024-06-07 00:24:14.741499,0,0,3,0,0,0,66,68,134,110,41,122.25,52,-34.00,5.00,-988.00
2024-06-07 00:24:14.785268,-1,0,3,0,0,0,66,68,134,110,41,122.20,52,-22.00,-1.00,-960.00
2024-06-07 00:24:14.945838,-1,0,3,0,0,0,66,68,134,110,41,122.24,52,21.00,-34.00,-1008.00
2024-06-07 00:24:14.989366,0,0,3,0,0,0,66,68,134,110,41,122.19,52,-7.00,-15.00,-1026.00
2024-06-07 00:24:15.150745,0,0,3,0,0,0,66,68,135,110,40,122.21,53,-38.00,3.00,-976.00
2024-06-07 00:24:15.195485,0,0,3,0,0,0,66,68,134,110,40,122.20,53,-3.00,-6.00,-1018.00
2024-06-07 00:24:15.296017,0,0,3,0,0,0,66,68,135,110,40,122.18,53,15.00,-8.00,-934.00
2024-06-07 00:24:15.397096,0,0,3,0,0,0,66,68,134,110,40,122.25,53,-36.00,8.00,-996.00
2024-06-07 00:24:15.565564,0,0,3,0,0,0,66,68,134,110,40,122.23,53,-28.00,-1.00,-1008.00
2024-06-07 00:24:15.565844,-1,0,3,0,0,0,66,68,134,110,40,122.21,53,-4.00,7.00,-978.00
2024-06-07 00:24:15.652124,-1,0,3,0,0,0,66,68,133,110,40,122.22,53,-10.00,-23.00,-1004.00
2024-06-07 00:24:15.765485,-1,0,3,0,0,0,66,68,133,110,40,122.22,53,0.00,-13.00,-1011.00
2024-06-07 00:24:15.856292,0,0,3,0,0,0,66,68,132,110,40,122.21,53,-75.00,26.00,-1030.00
2024-06-07 00:24:15.969958,0,0,3,0,0,0,66,68,132,110,40,122.19,53,-29.00,6.00,-1019.00
2024-06-07 00:24:16.060050,0,0,3,0,0,0,66,68,131,110,40,122.17,54,-27.00,6.00,-1002.00
2024-06-07 00:24:16.174568,0,0,3,0,0,0,66,68,130,110,40,122.16,54,-9.00,-6.00,-965.00
2024-06-07 00:24:16.264129,0,0,3,0,0,0,66,69,129,110,40,122.18,54,27.00,-20.00,-975.00
2024-06-07 00:24:16.379339,0,0,3,0,0,0,66,69,128,110,40,122.13,54,40.00,-31.00,-1043.00
2024-06-07 00:24:16.468366,0,0,3,0,0,0,66,69,128,110,40,122.16,54,-14.00,-6.00,-1018.00
2024-06-07 00:24:16.584548,0,0,3,0,0,0,66,69,127,110,40,122.12,54,-2.00,-7.00,-1067.00
2024-06-07 00:24:16.672039,0,0,3,0,0,0,66,69,126,110,40,122.16,54,7.00,-21.00,-1031.00
2024-06-07 00:24:16.789033,0,0,3,0,0,0,66,69,125,100,40,122.15,54,-17.00,-17.00,-998.00
2024-06-07 00:24:16.876408,0,0,3,0,0,0,66,69,125,100,40,122.17,54,-1.00,-15.00,-1012.00
2024-06-07 00:24:16.977934,-1,0,3,0,0,0,66,69,126,100,40,122.18,54,12.00,-16.00,-1059.00
2024-06-07 00:24:17.096410,0,0,3,0,0,0,66,69,126,100,39,122.16,55,1.00,-6.00,-1009.00
2024-06-07 00:24:17.182079,0,0,3,0,0,0,66,69,126,100,39,122.14,55,-2.00,-7.00,-963.00
2024-06-07 00:24:17.283908,0,0,3,0,0,0,67,69,126,100,39,122.19,55,9.00,-19.00,-1005.00
2024-06-07 00:24:17.386147,0,0,3,0,0,0,67,69,127,100,39,122.16,55,26.00,-29.00,-1050.00
2024-06-07 00:24:17.505728,0,0,3,0,0,0,67,69,127,100,39,122.15,55,14.00,-25.00,-1028.00
2024-06-07 00:24:17.590024,0,0,3,0,0,0,67,69,128,100,39,122.21,55,-15.00,-11.00,-986.00
2024-06-07 00:24:17.710585,0,0,3,0,0,0,67,69,129,110,39,122.21,55,1.00,-9.00,-942.00
2024-06-07 00:24:17.794084,0,0,3,0,0,0,67,69,129,110,39,122.22,55,-21.00,-10.00,-1017.00
2024-06-07 00:24:17.915369,0,0,3,0,0,0,67,69,130,110,39,122.29,55,-59.00,2.00,-1013.00
2024-06-07 00:24:17.999356,-1,0,3,0,0,0,67,69,131,110,39,122.21,55,-27.00,-5.00,-978.00
2024-06-07 00:24:18.120032,-1,0,3,0,0,0,67,69,132,110,39,122.24,56,-25.00,5.00,-982.00
2024-06-07 00:24:18.202048,-1,0,3,0,0,0,67,69,133,110,39,122.20,56,-7.00,-17.00,-976.00
2024-06-07 00:24:18.324930,0,0,3,0,0,0,67,69,133,110,39,122.27,56,-16.00,-6.00,-980.00
2024-06-07 00:24:18.406175,0,0,3,0,0,0,67,69,133,110,39,122.24,56,-16.00,0.00,-971.00
2024-06-07 00:24:18.532516,0,0,3,0,0,0,67,69,134,110,39,122.30,56,5.00,-27.00,-982.00
2024-06-07 00:24:18.609847,0,0,3,0,0,0,67,69,134,110,39,122.19,56,-9.00,-2.00,-979.00
2024-06-07 00:24:18.734373,0,0,3,0,0,0,67,69,135,110,39,122.19,56,-31.00,-10.00,-1020.00
2024-06-07 00:24:18.813869,0,0,3,0,0,0,67,69,134,110,39,122.21,56,8.00,0.00,-941.00
2024-06-07 00:24:18.939142,0,0,3,0,0,0,67,69,134,110,39,122.24,56,1.00,-26.00,-1001.00
2024-06-07 00:24:19.017864,0,0,3,0,0,0,67,69,134,110,39,122.23,56,-15.00,-1.00,-1010.00
2024-06-07 00:24:19.144265,0,0,3,0,0,0,67,69,134,110,38,122.24,57,-36.00,-22.00,-1007.00
2024-06-07 00:24:19.170938,0,0,3,0,0,0,67,69,134,110,38,122.14,57,0.00,-3.00,-975.00
2024-06-07 00:24:19.348872,0,0,3,0,0,0,67,68,134,110,38,122.26,57,11.00,-14.00,-987.00
2024-06-07 00:24:19.426048,0,0,3,0,0,0,67,68,133,110,38,122.24,57,-38.00,6.00,-1009.00
2024-06-07 00:24:19.553620,0,0,3,0,0,0,67,68,133,110,38,122.22,57,-24.00,1.00,-1016.00
2024-06-07 00:24:19.629719,0,0,3,0,0,0,67,68,133,110,38,122.25,57,23.00,-17.00,-966.00
2024-06-07 00:24:19.680716,0,0,3,0,0,0,67,68,133,110,38,122.19,57,-38.00,-1.00,-995.00
2024-06-07 00:24:19.784427,0,0,3,0,0,0,67,68,131,110,38,122.20,57,7.00,-13.00,-991.00
2024-06-07 00:24:19.884869,0,0,3,0,0,0,67,68,131,110,38,122.21,57,-17.00,-10.00,-990.00
2024-06-07 00:24:19.989079,0,0,3,0,0,0,67,68,131,110,38,122.19,58,-21.00,-8.00,-961.00
2024-06-07 00:24:20.088827,0,0,3,0,0,0,67,68,131,110,38,122.13,58,-11.00,-10.00,-1056.00
2024-06-07 00:24:20.237406,0,0,3,0,0,0,67,68,131,110,38,122.13,58,-19.00,-1.00,-1043.00
2024-06-07 00:24:20.299583,0,0,3,0,0,0,66,69,130,110,38,122.17,58,-14.00,-19.00,-963.00
2024-06-07 00:24:20.394773,0,0,3,0,0,0,66,69,131,110,38,122.24,58,-4.00,-7.00,-992.00
2024-06-07 00:24:20.577575,0,0,3,0,0,0,66,69,130,110,38,122.19,58,-14.00,13.00,-1051.00
2024-06-07 00:24:20.598582,0,0,3,0,0,0,66,69,130,110,38,122.25,58,-27.00,-4.00,-1005.00
2024-06-07 00:24:20.782456,0,0,3,0,0,0,66,69,131,110,38,122.21,58,-2.00,-16.00,-997.00
2024-06-07 00:24:20.802646,0,0,3,0,0,0,66,69,130,110,38,122.23,58,-10.00,16.00,-1012.00
2024-06-07 00:24:20.987323,0,0,3,0,0,0,66,69,131,110,38,122.24,58,2.00,-15.00,-960.00
2024-06-07 00:24:21.010798,0,0,3,0,0,0,66,69,131,110,38,122.22,59,1.00,3.00,-963.00
2024-06-07 00:24:21.109396,0,0,3,0,0,0,66,69,131,110,37,122.28,59,-13.00,0.00,-967.00
2024-06-07 00:24:21.298438,0,0,3,0,0,0,66,69,131,110,37,122.24,59,11.00,-13.00,-987.00
2024-06-07 00:24:21.314458,0,0,3,0,0,0,66,69,131,110,37,122.27,59,12.00,-1.00,-988.00
2024-06-07 00:24:21.414634,0,0,3,0,0,0,66,69,130,110,37,122.22,59,-20.00,5.00,-1027.00
2024-06-07 00:24:21.601592,0,0,3,0,0,0,66,69,130,110,37,122.34,59,21.00,-22.00,-980.00
2024-06-07 00:24:21.618852,0,0,3,0,0,0,66,69,130,110,37,122.21,59,-56.00,1.00,-1004.00
2024-06-07 00:24:21.806360,0,0,3,0,0,0,66,69,130,110,37,122.19,59,-15.00,-7.00,-993.00
2024-06-07 00:24:21.823107,0,0,3,0,0,0,66,69,130,110,37,122.20,59,37.00,-13.00,-997.00
2024-06-07 00:24:22.011228,0,0,3,0,0,0,66,69,129,110,37,122.21,59,7.00,-21.00,-1009.00
2024-06-07 00:24:22.026620,0,0,3,0,0,0,66,69,129,110,37,122.25,60,-23.00,-5.00,-995.00
2024-06-07 00:24:22.319223,0,0,3,0,0,0,66,69,129,110,37,122.23,60,29.00,-27.00,-989.00
2024-06-07 00:24:22.353266,0,0,3,0,0,0,66,69,129,110,37,122.18,60,-7.00,-12.00,-954.00
2024-06-07 00:24:22.356406,0,0,3,0,0,0,67,70,129,110,37,122.18,60,-21.00,15.00,-1015.00
2024-06-07 00:24:22.472422,0,0,3,0,0,0,67,70,129,110,37,122.22,60,-48.00,29.00,-988.00
2024-06-07 00:24:22.536539,0,0,3,0,0,0,67,70,129,110,37,122.27,60,20.00,-18.00,-976.00
2024-06-07 00:24:22.749713,0,0,3,0,0,0,67,70,129,110,37,122.26,60,-33.00,12.00,-995.00
2024-06-07 00:24:22.749876,0,0,3,0,0,0,67,70,130,110,37,122.25,60,-8.00,-2.00,-986.00
2024-06-07 00:24:22.842506,0,0,3,0,0,0,67,70,130,110,37,122.21,60,-3.00,-2.00,-988.00
2024-06-07 00:24:23.045841,0,0,3,0,0,0,67,70,130,110,37,122.26,60,-62.00,15.00,-1045.00
2024-06-07 00:24:23.046635,0,0,3,0,0,0,67,70,130,110,37,122.19,61,-6.00,-7.00,-965.00
2024-06-07 00:24:23.189278,0,0,3,0,0,0,67,70,130,110,36,122.27,61,-22.00,-22.00,-987.00
2024-06-07 00:24:23.353004,0,0,3,0,0,0,67,70,130,110,36,122.24,61,5.00,-9.00,-1018.00
2024-06-07 00:24:23.353598,0,0,3,0,0,0,67,70,130,110,36,122.17,61,-26.00,-12.00,-1014.00
2024-06-07 00:24:23.496561,0,0,3,0,0,0,67,70,131,110,36,122.15,61,-7.00,7.00,-998.00
2024-06-07 00:24:23.660359,0,0,3,0,0,0,67,70,130,110,36,122.20,61,-16.00,-14.00,-1052.00
2024-06-07 00:24:23.660818,0,0,3,0,0,0,67,70,130,110,36,122.21,61,6.00,-11.00,-988.00
2024-06-07 00:24:23.804079,0,0,3,0,0,0,67,70,130,110,36,122.21,61,23.00,-38.00,-1012.00
2024-06-07 00:24:23.811848,0,0,3,0,0,0,67,70,130,110,36,122.16,61,-50.00,18.00,-981.00
2024-06-07 00:24:23.967417,0,0,3,0,0,0,67,70,130,110,36,122.19,61,-25.00,-3.00,-1030.00
2024-06-07 00:24:24.111201,0,0,3,0,0,0,67,70,129,110,36,122.21,62,-10.00,-3.00,-947.00
2024-06-07 00:24:24.117747,0,0,3,0,0,0,67,70,129,110,36,122.21,62,3.00,-3.00,-971.00
2024-06-07 00:24:24.274733,0,0,3,0,0,0,67,70,129,110,36,122.20,62,1.00,-32.00,-983.00
2024-06-07 00:24:24.418249,0,0,3,0,0,0,67,70,128,110,36,122.18,62,-5.00,-10.00,-990.00
2024-06-07 00:24:24.423581,0,0,3,0,0,0,67,70,128,110,36,122.19,62,13.00,-12.00,-1002.00
2024-06-07 00:24:24.582088,0,0,3,0,0,0,67,70,128,110,36,122.24,62,-38.00,14.00,-1006.00
2024-06-07 00:24:24.736269,0,0,3,0,0,0,67,70,128,110,36,122.22,62,-15.00,-22.00,-1033.00
2024-06-07 00:24:24.736472,0,0,3,0,0,0,67,70,127,110,36,122.20,62,2.00,-10.00,-1015.00
2024-06-07 00:24:24.831358,0,0,3,0,0,0,67,70,127,110,36,122.16,62,-20.00,-10.00,-1011.00
2024-06-07 00:24:24.980598,0,0,3,0,0,0,67,70,127,110,36,122.15,62,-5.00,-7.00,-1006.00
2024-06-07 00:24:25.036331,0,0,3,0,0,0,67,70,126,110,35,122.17,63,0.00,-4.00,-961.00
2024-06-07 00:24:25.185432,0,0,3,0,0,0,67,70,126,110,35,122.21,63,3.00,0.00,-1048.00
2024-06-07 00:24:25.239273,0,0,3,0,0,0,67,70,125,100,35,122.19,63,23.00,-23.00,-973.00
2024-06-07 00:24:25.396847,0,0,3,0,0,0,67,70,125,100,35,122.14,63,0.00,-25.00,-1009.00
2024-06-07 00:24:25.443393,0,0,3,0,0,0,67,70,125,100,35,122.07,63,-14.00,-10.00,-1019.00
2024-06-07 00:24:25.594955,0,0,3,0,0,0,67,70,125,100,35,122.11,63,-48.00,7.00,-1031.00
2024-06-07 00:24:25.647342,0,0,3,0,0,0,67,70,125,100,35,122.10,63,-5.00,-19.00,-970.00
2024-06-07 00:24:25.799708,0,0,3,0,0,0,67,70,125,100,35,122.15,63,29.00,-6.00,-1063.00
2024-06-07 00:24:25.851391,0,0,3,0,0,0,67,70,125,100,35,122.10,63,-25.00,12.00,-978.00
2024-06-07 00:24:26.004293,0,0,3,0,0,0,67,70,125,100,35,122.16,63,-11.00,-9.00,-1020.00
2024-06-07 00:24:26.056277,0,0,3,0,0,0,67,70,125,100,35,122.16,64,-9.00,-43.00,-990.00
2024-06-07 00:24:26.210047,0,0,3,0,0,0,67,70,125,100,35,122.14,64,-2.00,-12.00,-971.00
2024-06-07 00:24:26.260099,0,1,3,0,0,0,67,70,126,100,35,122.13,64,-21.00,-41.00,-968.00
2024-06-07 00:24:26.362707,0,1,3,0,0,0,68,69,126,100,35,122.13,64,6.00,-11.00,-1015.00
2024-06-07 00:24:26.500802,0,0,3,0,0,0,68,69,126,100,35,122.13,64,-6.00,-23.00,-997.00
2024-06-07 00:24:26.566054,0,0,3,0,0,0,68,69,127,110,35,122.11,64,0.00,-14.00,-1005.00
2024-06-07 00:24:26.668137,0,0,3,0,0,0,68,69,127,110,35,122.17,64,9.00,-27.00,-991.00
