TS,pitch,roll,yaw,vgx,vgy,vgz,templ,temph,tof,h,bat,baro,time,agx,agy,agz
2024-06-07 00:24:56.621432,0,0,-3,0,0,0,72,74,10,0,33,120.67,69,-4.00,15.00,-1001.00
2024-06-07 00:24:56.705922,0,0,-3,0,0,0,72,74,10,0,33,120.66,69,-2.00,15.00,-1000.00
2024-06-07 00:24:56.825777,0,0,-3,0,0,0,72,74,10,0,33,120.70,69,-3.00,14.00,-998.00
2024-06-07 00:24:56.909620,0,0,-3,0,0,0,72,74,10,0,33,120.63,69,-2.00,15.00,-998.00
2024-06-07 00:24:57.030302,0,0,-3,0,0,0,72,74,10,0,33,120.68,69,-2.00,17.00,-1001.00
2024-06-07 00:24:57.113365,0,0,-3,0,0,0,72,74,10,0,33,120.65,69,-4.00,16.00,-999.00
2024-06-07 00:24:57.235012,0,0,-3,0,0,0,72,74,10,0,33,120.69,69,-3.00,15.00,-998.00
2024-06-07 00:24:57.317579,0,0,-3,0,0,0,72,74,10,0,33,120.67,69,-3.00,13.00,-998.00
2024-06-07 00:24:57.419909,0,0,-3,0,0,0,72,74,10,0,33,120.61,69,-2.00,16.00,-1001.00
2024-06-07 00:24:57.542090,0,0,-3,0,0,0,72,74,10,0,33,120.63,69,-4.00,15.00,-1001.00
2024-06-07 00:24:57.623498,0,0,-3,0,0,0,72,74,10,0,33,120.65,69,-4.00,15.00,-997.00
2024-06-07 00:24:57.747056,0,0,-3,0,0,0,72,74,10,0,33,120.68,69,-3.00,15.00,-1000.00
2024-06-07 00:24:57.827695,0,0,-3,0,0,0,72,74,10,0,33,120.66,69,-3.00,14.00,-999.00
2024-06-07 00:24:57.951863,0,0,-3,0,0,0,72,74,10,0,33,120.69,69,-3.00,13.00,-1002.00
2024-06-07 00:24:58.031575,0,0,-3,0,0,0,72,74,10,0,33,120.64,69,-1.00,14.00,-998.00
2024-06-07 00:24:58.156789,0,0,-3,0,0,0,72,74,10,0,33,120.70,69,-4.00,14.00,-999.00
2024-06-07 00:24:58.235384,0,0,-3,0,0,0,72,74,10,0,33,120.61,69,-1.00,14.00,-1000.00
2024-06-07 00:24:58.287421,0,0,-3,0,0,0,72,74,10,0,33,120.61,69,-3.00,15.00,-998.00
2024-06-07 00:24:58.463581,0,0,-3,0,0,0,72,74,10,0,33,120.62,69,-3.00,13.00,-999.00
2024-06-07 00:24:58.542081,0,0,-3,0,0,0,72,75,10,0,33,120.69,69,-2.00,13.00,-1001.00
2024-06-07 00:24:58.668542,0,0,-3,0,0,0,72,75,10,0,33,120.60,69,-3.00,14.00,-999.00
2024-06-07 00:24:58.745423,0,0,-3,0,0,0,72,75,10,0,33,120.65,69,-2.00,14.00,-1000.00
2024-06-07 00:24:58.873427,0,0,-3,0,0,0,72,75,10,0,33,120.65,69,-2.00,15.00,-1001.00
2024-06-07 00:24:58.907107,0,0,-3,0,0,0,72,75,10,0,33,120.63,69,-3.00,14.00,-999.00
2024-06-07 00:24:59.000426,0,0,-3,0,0,0,72,75,10,0,33,120.69,69,-3.00,15.00,-1001.00
2024-06-07 00:24:59.102345,0,0,-3,0,0,0,72,75,10,0,33,120.62,69,-2.00,15.00,-1000.00
2024-06-07 00:24:59.282976,0,0,-3,0,0,0,72,75,10,0,33,120.62,69,-3.00,14.00,-997.00
2024-06-07 00:24:59.306302,0,0,-3,0,0,0,72,75,10,0,33,120.65,69,-2.00,14.00,-999.00
2024-06-07 00:24:59.408250,0,0,-3,0,0,0,72,75,10,0,33,120.63,69,-3.00,16.00,-999.00
2024-06-07 00:24:59.590101,0,0,-3,0,0,0,72,75,10,0,33,120.62,69,-1.00,16.00,-1000.00
2024-06-07 00:24:59.612359,0,0,-3,0,0,0,72,75,10,0,33,120.63,69,-2.00,15.00,-1001.00
2024-06-07 00:24:59.795002,0,0,-3,0,0,0,72,75,10,0,33,120.67,69,-3.00,15.00,-1001.00
2024-06-07 00:24:59.816125,0,0,-3,0,0,0,72,75,10,0,33,120.67,69,-3.00,14.00,-1001.00
2024-06-07 00:24:59.999727,0,0,-3,0,0,0,72,75,10,0,33,120.65,69,-2.00,14.00,-1000.00
2024-06-07 00:25:00.020218,0,0,-3,0,0,0,72,75,10,0,33,120.68,69,-1.00,16.00,-1000.00
2024-06-07 00:25:00.122192,0,0,-3,0,0,0,72,75,10,0,33,120.60,69,-3.00,15.00,-1001.00
2024-06-07 00:25:00.224153,0,0,-3,0,0,0,72,75,10,0,33,120.63,69,-3.00,15.00,-1000.00
2024-06-07 00:25:00.326883,0,0,-3,0,0,0,72,75,10,0,33,120.63,69,-3.00,17.00,-1000.00
2024-06-07 00:25:00.511911,0,0,-3,0,0,0,72,75,10,0,33,120.63,69,-12.00,20.00,-998.00
2024-06-07 00:25:00.530194,0,0,-3,0,0,0,73,75,10,0,33,120.63,69,-3.00,-4.00,-998.00
2024-06-07 00:25:00.706789,0,0,-1,0,0,0,73,75,10,0,33,120.63,69,19.00,2.00,-998.00
2024-06-07 00:25:00.734018,0,0,-1,0,0,0,73,75,10,0,33,120.63,69,4.00,-1.00,-929.00
2024-06-07 00:25:00.921090,0,0,0,0,0,0,73,75,10,0,33,120.63,69,-14.00,-5.00,-1115.00
2024-06-07 00:25:00.938924,0,0,0,0,0,-2,73,75,10,0,33,120.63,69,3.00,5.00,-1267.00
2024-06-07 00:25:01.125934,0,0,0,0,0,-5,73,75,10,0,33,120.63,69,-39.00,43.00,-1234.00
2024-06-07 00:25:01.142047,-1,0,0,0,0,-6,73,75,17,10,33,120.84,69,-15.00,-3.00,-1170.00
2024-06-07 00:25:01.270762,-2,0,0,0,0,-7,73,75,24,10,33,121.02,70,1.00,-3.00,-1081.00
2024-06-07 00:25:01.346090,-1,0,0,0,0,-8,73,75,32,20,33,121.13,70,-18.00,7.00,-1024.00
2024-06-07 00:25:01.535509,0,0,0,0,0,-7,73,75,38,30,33,121.14,70,-31.00,6.00,-979.00
2024-06-07 00:25:01.551271,0,0,0,0,0,-7,73,75,44,40,33,121.23,70,20.00,-35.00,-989.00
2024-06-07 00:25:01.740300,0,0,0,0,0,-6,73,75,51,40,33,121.32,70,-31.00,6.00,-904.00
2024-06-07 00:25:01.753955,0,0,0,0,0,-5,73,75,57,50,33,121.33,70,-30.00,4.00,-895.00
2024-06-07 00:25:01.945103,-1,0,0,0,0,-4,73,75,62,50,33,121.48,70,11.00,-29.00,-898.00
2024-06-07 00:25:01.945185,-1,0,0,0,0,-3,73,75,65,60,33,121.51,70,-22.00,-8.00,-869.00
2024-06-07 00:25:02.008977,0,0,0,0,0,-2,73,75,69,60,33,121.50,70,-54.00,16.00,-932.00
2024-06-07 00:25:02.110992,0,0,0,0,0,-1,73,75,71,60,33,121.57,70,-39.00,-7.00,-865.00
2024-06-07 00:25:02.252307,0,0,0,0,0,-1,73,75,72,60,33,121.52,71,-17.00,27.00,-978.00
2024-06-07 00:25:02.314889,0,0,0,0,0,0,73,75,74,60,33,121.53,71,10.00,-31.00,-1003.00
2024-06-07 00:25:02.457065,0,0,0,0,0,0,73,75,75,70,33,121.63,71,6.00,1.00,-966.00
2024-06-07 00:25:02.519114,0,0,0,0,0,0,72,75,76,70,33,121.55,71,39.00,-35.00,-1009.00
2024-06-07 00:25:02.661807,0,0,0,0,0,0,72,75,77,70,33,121.61,71,-33.00,9.00,-1100.00
2024-06-07 00:25:02.722976,0,0,0,0,0,0,72,75,78,70,33,121.69,71,-20.00,5.00,-950.00
2024-06-07 00:25:02.866610,0,0,0,0,0,0,72,75,80,70,33,121.68,71,-47.00,16.00,-1046.00
2024-06-07 00:25:02.926920,0,0,0,0,0,0,72,75,81,70,33,121.74,71,13.00,-11.00,-1004.00
2024-06-07 00:25:03.071442,0,0,0,0,0,0,72,75,82,70,33,121.75,71,-18.00,11.00,-992.00
2024-06-07 00:25:03.130861,0,0,0,0,0,0,72,75,84,70,33,121.78,71,-19.00,8.00,-976.00
2024-06-07 00:25:03.276268,0,0,0,0,0,0,72,75,85,70,33,121.69,72,-2.00,-5.00,-974.00
2024-06-07 00:25:03.334879,0,0,0,0,0,0,72,75,86,70,33,121.78,72,-39.00,-3.00,-953.00
2024-06-07 00:25:03.485462,0,0,0,0,0,0,72,75,87,80,33,121.73,72,-29.00,3.00,-981.00
2024-06-07 00:25:03.539352,-1,0,0,0,0,0,73,75,87,80,33,121.73,72,0.00,-24.00,-1002.00
2024-06-07 00:25:03.685827,0,0,0,0,0,0,73,75,88,80,33,121.78,72,-17.00,-15.00,-969.00
2024-06-07 00:25:03.742818,0,0,0,0,0,0,73,75,89,80,33,121.78,72,24.00,-36.00,-991.00
2024-06-07 00:25:03.890593,0,0,0,0,0,0,73,75,89,80,33,121.75,72,-5.00,-10.00,-958.00
2024-06-07 00:25:03.946844,0,0,0,0,0,0,73,75,90,80,33,121.79,72,3.00,-18.00,-975.00
2024-06-07 00:25:04.097400,0,0,0,0,0,0,73,75,90,80,33,121.74,72,-7.00,2.00,-1024.00
2024-06-07 00:25:04.150722,0,0,0,0,0,0,73,75,91,80,33,121.75,72,-6.00,-19.00,-951.00
2024-06-07 00:25:04.274485,0,0,0,0,0,0,73,75,92,80,33,121.77,73,-14.00,9.00,-990.00
2024-06-07 00:25:04.354755,0,0,0,0,0,0,73,75,92,80,33,121.74,73,-6.00,-4.00,-944.00
2024-06-07 00:25:04.504981,0,0,0,0,0,0,73,75,93,80,33,121.80,73,-35.00,1.00,-1041.00
2024-06-07 00:25:04.558766,0,0,0,0,0,0,73,75,93,80,33,121.76,73,-18.00,-2.00,-1100.00
2024-06-07 00:25:04.709666,0,0,0,0,0,0,73,75,93,80,33,121.84,73,27.00,-2.00,-903.00
2024-06-07 00:25:04.762707,0,0,0,0,0,0,73,75,92,80,33,121.77,73,18.00,-25.00,-954.00
2024-06-07 00:25:04.914557,0,0,0,0,0,1,73,75,90,80,33,121.77,73,-59.00,1.00,-975.00
2024-06-07 00:25:04.967145,0,0,0,0,0,1,73,75,89,80,33,121.85,73,17.00,-12.00,-1008.00
2024-06-07 00:25:05.119343,0,0,0,0,0,1,73,75,87,80,33,121.71,73,20.00,-6.00,-968.00
2024-06-07 00:25:05.171168,0,0,0,0,0,1,73,75,86,80,33,121.72,73,-3.00,-10.00,-1070.00
2024-06-07 00:25:05.324123,0,0,0,0,0,1,73,75,85,80,33,121.65,74,-4.00,5.00,-995.00
2024-06-07 00:25:05.374813,0,0,0,0,0,0,73,75,84,80,33,121.66,74,16.00,-6.00,-979.00
2024-06-07 00:25:05.528934,0,0,0,0,0,0,73,75,84,80,33,121.66,74,-1.00,-7.00,-1034.00
2024-06-07 00:25:05.579526,0,0,0,0,0,0,73,75,83,80,33,121.70,74,-29.00,2.00,-1052.00
2024-06-07 00:25:05.681202,0,0,0,0,0,0,73,75,82,70,33,121.60,74,-25.00,-14.00,-1019.00
2024-06-07 00:25:05.783633,0,0,0,0,0,0,73,75,81,70,33,121.67,74,-20.00,7.00,-945.00
2024-06-07 00:25:05.886063,0,0,0,0,0,0,73,75,80,70,33,121.68,74,-14.00,-12.00,-987.00
2024-06-07 00:25:05.988464,0,0,0,0,0,0,73,75,79,70,33,121.69,74,-15.00,2.00,-1024.00
2024-06-07 00:25:06.037605,0,0,0,0,0,0,73,75,78,70,33,121.63,74,-27.00,1.00,-1086.00
2024-06-07 00:25:06.139626,0,0,0,0,0,0,73,75,77,70,33,121.63,74,-1.00,-12.00,-972.00
2024-06-07 00:25:06.245664,0,0,0,0,0,0,73,75,76,70,33,121.62,75,0.00,-21.00,-931.00
2024-06-07 00:25:06.343693,0,0,0,0,0,0,73,75,75,70,33,121.60,75,-51.00,-5.00,-1027.00
2024-06-07 00:25:06.450817,0,0,0,0,0,0,73,75,74,70,33,121.60,75,14.00,-26.00,-1058.00
2024-06-07 00:25:06.547819,0,0,0,0,0,0,72,75,74,70,33,121.62,75,-47.00,11.00,-1002.00
2024-06-07 00:25:06.655411,0,0,0,0,0,0,72,75,73,70,33,121.65,75,-52.00,-3.00,-1086.00
2024-06-07 00:25:06.752429,0,0,0,0,0,0,72,75,72,70,33,121.60,75,-44.00,-7.00,-981.00
2024-06-07 00:25:06.860125,0,0,0,0,0,0,72,75,71,70,33,121.54,75,0.00,-17.00,-1027.00
2024-06-07 00:25:06.957876,0,0,0,0,0,0,72,75,70,70,33,121.52,75,-2.00,-3.00,-983.00
2024-06-07 00:25:07.110993,0,0,0,0,0,0,72,75,69,70,33,121.47,75,22.00,-12.00,-964.00
2024-06-07 00:25:07.159617,0,0,0,0,0,0,72,75,68,60,33,121.55,75,-8.00,7.00,-963.00
2024-06-07 00:25:07.282735,0,0,0,0,0,0,72,75,68,60,33,121.53,76,-6.00,0.00,-989.00
2024-06-07 00:25:07.390862,0,0,0,0,0,0,72,75,68,60,33,121.54,76,-29.00,4.00,-1048.00
2024-06-07 00:25:07.465785,0,0,0,0,0,0,72,75,68,60,33,121.56,76,-35.00,21.00,-1021.00
2024-06-07 00:25:07.576936,0,0,0,0,0,-1,73,75,68,60,33,121.59,76,-8.00,3.00,-1009.00
2024-06-07 00:25:07.719701,0,0,0,0,0,0,73,75,68,60,33,121.58,76,-2.00,0.00,-986.00
2024-06-07 00:25:07.772689,0,0,0,0,0,0,73,75,69,60,33,121.58,76,-1.00,-25.00,-1033.00
2024-06-07 00:25:07.902802,0,0,0,0,0,0,73,75,69,60,33,121.60,76,20.00,-2.00,-978.00
2024-06-07 00:25:08.057329,0,0,0,0,0,0,73,75,69,60,33,121.55,76,38.00,-19.00,-955.00
2024-06-07 00:25:08.077545,0,0,0,0,0,0,73,75,70,60,33,121.60,76,-18.00,11.00,-967.00
2024-06-07 00:25:08.262183,0,0,0,0,0,0,73,75,70,60,33,121.60,76,7.00,-1.00,-975.00
2024-06-07 00:25:08.281736,0,0,0,0,0,0,73,75,69,60,33,121.65,77,-33.00,-2.00,-960.00
2024-06-07 00:25:08.396416,0,0,0,0,0,0,73,75,69,60,33,121.51,77,-9.00,-4.00,-968.00
2024-06-07 00:25:08.509313,0,0,0,0,0,0,73,75,69,60,33,121.57,77,-13.00,-8.00,-1003.00
2024-06-07 00:25:08.652755,0,0,0,0,0,0,73,75,68,60,33,121.65,77,-28.00,-11.00,-978.00
2024-06-07 00:25:08.689472,0,0,0,0,0,0,73,75,68,60,33,121.54,77,-44.00,13.00,-988.00
2024-06-07 00:25:08.816527,0,0,0,0,0,0,73,75,68,60,33,121.57,77,-55.00,28.00,-1007.00
2024-06-07 00:25:08.959918,0,0,0,0,0,0,73,75,68,60,33,121.56,77,-33.00,8.00,-1025.00
2024-06-07 00:25:08.999747,0,0,0,0,0,0,73,75,68,60,33,121.54,77,19.00,-11.00,-994.00
2024-06-07 00:25:09.123749,0,0,0,0,0,0,73,75,68,60,33,121.61,77,22.00,-30.00,-988.00
2024-06-07 00:25:09.200543,0,0,0,0,0,0,73,75,68,60,33,121.65,77,2.00,-5.00,-1017.00
2024-06-07 00:25:09.317729,0,0,0,0,0,0,73,75,68,60,33,121.64,78,-31.00,0.00,-1068.00
2024-06-07 00:25:09.404788,0,0,0,0,0,0,73,75,68,60,33,121.65,78,-34.00,12.00,-1023.00
2024-06-07 00:25:09.455667,0,0,0,0,0,0,73,75,68,60,33,121.59,78,32.00,-22.00,-988.00
2024-06-07 00:25:09.624938,0,0,0,0,0,0,72,75,68,60,33,121.65,78,-8.00,6.00,-1024.00
2024-06-07 00:25:09.710867,0,0,0,0,0,0,72,75,69,60,33,121.63,78,-19.00,16.00,-978.00
2024-06-07 00:25:09.761538,0,0,0,0,0,0,72,75,69,60,33,121.62,78,-30.00,-8.00,-1011.00
2024-06-07 00:25:09.932085,0,0,0,0,0,0,72,75,69,60,33,121.60,78,7.00,-29.00,-1033.00
2024-06-07 00:25:09.965511,0,0,0,0,0,0,72,75,70,60,33,121.62,78,-22.00,-4.00,-1007.00
2024-06-07 00:25:10.136831,0,0,0,0,0,0,72,75,70,60,33,121.61,78,15.00,-25.00,-1066.00
2024-06-07 00:25:10.169445,0,0,0,0,0,0,72,75,70,60,33,121.57,78,4.00,1.00,-1012.00
2024-06-07 00:25:10.281415,0,0,0,0,0,0,72,75,71,60,33,121.60,79,-51.00,4.00,-984.00
2024-06-07 00:25:10.373513,0,0,0,0,0,0,72,75,71,60,33,121.60,79,-5.00,-2.00,-958.00
2024-06-07 00:25:10.546499,0,0,0,0,0,0,72,75,72,60,33,121.54,79,-68.00,33.00,-1037.00
2024-06-07 00:25:10.577428,0,0,0,0,0,0,73,75,73,60,33,121.53,79,24.00,-26.00,-1057.00
2024-06-07 00:25:10.751586,0,0,0,0,0,0,73,75,73,60,33,121.63,79,-18.00,-12.00,-1023.00
2024-06-07 00:25:10.781776,0,0,0,0,0,0,73,75,74,60,33,121.61,79,2.00,2.00,-983.00
2024-06-07 00:25:10.956125,0,0,0,0,0,0,73,75,74,60,33,121.64,79,-18.00,2.00,-1009.00
2024-06-07 00:25:10.986095,0,0,0,0,0,0,73,75,75,60,33,121.63,79,-3.00,-6.00,-948.00
2024-06-07 00:25:11.160654,0,0,0,0,0,0,73,75,75,70,33,121.60,79,-13.00,12.00,-989.00
2024-06-07 00:25:11.190347,0,0,0,0,0,0,73,75,75,70,33,121.64,79,1.00,-8.00,-1074.00
2024-06-07 00:25:11.365453,0,0,0,0,0,0,73,75,76,70,33,121.62,80,-42.00,11.00,-1068.00
2024-06-07 00:25:11.393355,0,0,0,0,0,-1,73,75,78,70,33,121.70,80,1.00,-5.00,-1095.00
2024-06-07 00:25:11.570282,0,0,0,0,0,-2,73,75,81,70,33,121.72,80,21.00,0.00,-1091.00
2024-06-07 00:25:11.597242,0,0,0,0,0,-4,73,75,85,80,33,121.75,80,-36.00,-9.00,-1075.00
2024-06-07 00:25:11.778028,0,0,0,0,0,-5,73,75,91,80,33,121.87,80,-9.00,-20.00,-1125.00
2024-06-07 00:25:11.805103,0,0,0,0,0,-5,73,75,96,90,33,121.89,80,-19.00,9.00,-999.00
2024-06-07 00:25:11.903174,0,0,0,0,0,-5,73,75,102,90,33,121.91,80,-18.00,27.00,-1042.00
2024-06-07 00:25:12.082198,0,0,0,0,0,-5,73,75,108,100,33,121.95,80,-31.00,-15.00,-1002.00
2024-06-07 00:25:12.107352,0,0,0,0,0,-5,73,75,115,100,33,121.99,80,15.00,-1.00,-997.00
2024-06-07 00:25:12.287041,0,0,0,0,0,-6,73,75,121,110,33,122.12,81,4.00,8.00,-990.00
2024-06-07 00:25:12.316324,0,0,0,0,0,-5,73,75,127,120,33,122.16,81,-1.00,-18.00,-987.00
2024-06-07 00:25:12.413088,0,0,0,0,0,-5,73,75,133,120,33,122.23,81,-15.00,-3.00,-962.00
2024-06-07 00:25:12.594191,0,0,0,0,0,-5,73,75,138,130,33,122.24,81,-23.00,18.00,-1004.00
2024-06-07 00:25:12.617145,0,0,0,0,0,-4,72,75,144,130,33,122.26,81,4.00,7.00,-948.00
2024-06-07 00:25:12.722979,0,0,0,0,0,-4,72,75,148,140,33,122.38,81,8.00,-13.00,-877.00
2024-06-07 00:25:12.821297,0,0,0,0,0,-3,72,75,152,140,33,122.30,81,-8.00,-2.00,-975.00
2024-06-07 00:25:13.003875,0,0,0,0,0,-3,72,75,155,150,33,122.36,81,-20.00,15.00,-996.00
2024-06-07 00:25:13.025697,0,0,0,0,0,-2,72,75,158,150,33,122.48,81,-9.00,8.00,-950.00
2024-06-07 00:25:13.128206,0,0,0,0,0,-2,72,75,163,150,33,122.49,81,30.00,-4.00,-982.00
2024-06-07 00:25:13.177996,0,0,0,0,0,-2,72,75,165,150,33,122.49,82,-59.00,34.00,-967.00
2024-06-07 00:25:13.284513,0,0,0,0,0,-1,72,75,167,160,33,122.48,82,-7.00,0.00,-988.00
2024-06-07 00:25:13.381994,0,0,0,0,0,-1,72,75,170,160,33,122.61,82,-3.00,-25.00,-988.00
2024-06-07 00:25:13.516018,0,0,0,0,0,-1,72,75,172,160,33,122.58,82,-20.00,2.00,-961.00
2024-06-07 00:25:13.586121,0,0,0,0,0,-1,72,75,174,160,33,122.51,82,-22.00,5.00,-947.00
2024-06-07 00:25:13.721499,0,0,0,0,0,0,72,75,174,160,33,122.54,82,-11.00,1.00,-983.00
2024-06-07 00:25:13.790061,0,0,0,0,0,0,72,75,174,160,33,122.63,82,-13.00,0.00,-900.00
2024-06-07 00:25:13.926069,0,0,0,0,0,0,72,75,176,170,33,122.53,82,1.00,-10.00,-975.00
2024-06-07 00:25:13.994108,0,0,0,0,0,0,72,75,177,170,33,122.54,82,-34.00,7.00,-990.00
2024-06-07 00:25:14.130462,0,0,0,0,0,0,72,75,176,170,33,122.56,82,-61.00,-1.00,-1039.00
2024-06-07 00:25:14.200633,0,0,0,0,0,0,72,75,176,170,33,122.53,83,31.00,-34.00,-1010.00
2024-06-07 00:25:14.300054,0,0,0,0,0,0,72,75,176,170,33,122.60,83,-7.00,-10.00,-1032.00
2024-06-07 00:25:14.437501,0,0,0,0,0,0,72,75,177,170,33,122.52,83,-42.00,-3.00,-1000.00
2024-06-07 00:25:14.504041,0,0,0,0,0,0,72,75,176,170,33,122.60,83,14.00,-16.00,-1003.00
2024-06-07 00:25:14.642303,0,0,0,0,0,0,72,75,175,170,33,122.57,83,9.00,-35.00,-970.00
2024-06-07 00:25:14.708062,0,0,0,0,0,0,72,75,176,160,33,122.61,83,-36.00,29.00,-1012.00
2024-06-07 00:25:14.847152,0,0,0,0,0,0,72,75,174,160,33,122.54,83,-41.00,14.00,-1032.00
2024-06-07 00:25:14.914605,0,0,0,0,0,0,72,75,174,160,33,122.53,83,34.00,-15.00,-968.00
2024-06-07 00:25:15.014449,0,0,0,0,0,0,72,75,175,160,33,122.59,83,-2.00,7.00,-999.00
2024-06-07 00:25:15.155145,0,0,0,0,0,0,72,75,175,160,33,122.60,83,-58.00,2.00,-1034.00
2024-06-07 00:25:15.218108,0,0,0,0,0,0,72,75,175,170,33,122.50,84,43.00,-36.00,-1027.00
2024-06-07 00:25:15.359147,0,0,0,0,0,0,72,75,174,170,33,122.52,84,-15.00,-4.00,-1022.00
2024-06-07 00:25:15.422052,0,0,0,0,0,0,72,75,174,170,33,122.60,84,-5.00,-9.00,-1059.00
2024-06-07 00:25:15.523964,0,0,0,0,0,0,72,75,173,170,33,122.62,84,11.00,-6.00,-933.00
2024-06-07 00:25:15.668564,0,0,0,0,0,0,73,75,174,160,33,122.47,84,-33.00,-5.00,-1034.00
2024-06-07 00:25:15.727920,0,0,0,0,0,0,73,75,172,160,33,122.56,84,-1.00,4.00,-958.00
2024-06-07 00:25:15.876080,0,0,0,0,0,0,73,75,171,160,33,122.48,84,-46.00,20.00,-950.00
2024-06-07 00:25:15.931869,0,0,0,0,0,1,73,75,170,160,33,122.56,84,-24.00,6.00,-978.00
2024-06-07 00:25:16.075742,0,0,0,0,0,1,73,75,169,160,33,122.51,84,-16.00,6.00,-938.00
2024-06-07 00:25:16.136063,0,0,0,0,0,2,73,75,166,160,33,122.49,84,-65.00,-4.00,-919.00
2024-06-07 00:25:16.280558,0,0,0,0,0,2,73,75,163,160,33,122.45,85,51.00,-13.00,-933.00
2024-06-07 00:25:16.339816,0,0,0,0,0,2,73,75,161,150,33,122.44,85,1.00,-5.00,-934.00
2024-06-07 00:25:16.485332,0,0,0,0,0,2,73,75,158,150,33,122.41,85,-31.00,25.00,-980.00
2024-06-07 00:25:16.543805,0,0,0,0,0,2,73,75,155,150,33,122.38,85,-83.00,30.00,-1015.00
2024-06-07 00:25:16.690021,0,0,0,0,0,2,72,75,151,140,33,122.33,85,-8.00,12.00,-982.00
2024-06-07 00:25:16.747812,0,0,0,0,0,2,72,75,150,140,33,122.29,85,9.00,11.00,-980.00
2024-06-07 00:25:16.894860,0,0,0,0,0,2,72,75,146,140,33,122.25,85,-30.00,18.00,-1051.00
2024-06-07 00:25:16.951828,0,0,0,0,0,2,72,75,145,140,33,122.34,85,-9.00,1.00,-1029.00
2024-06-07 00:25:17.099709,0,0,0,0,0,2,72,75,142,130,33,122.25,85,9.00,-10.00,-995.00
2024-06-07 00:25:17.155808,0,0,0,0,0,2,72,75,140,130,33,122.23,85,-25.00,-7.00,-1046.00
2024-06-07 00:25:17.206720,0,0,0,0,0,1,72,75,138,130,33,122.23,86,-6.00,-8.00,-998.00
2024-06-07 00:25:17.407091,0,0,0,0,0,1,72,75,136,130,33,122.19,86,24.00,-25.00,-983.00
2024-06-07 00:25:17.410781,0,0,0,0,0,1,72,75,134,130,33,122.22,86,-4.00,-11.00,-1055.00
2024-06-07 00:25:17.611691,0,0,0,0,0,1,72,75,133,120,33,122.20,86,-14.00,0.00,-977.00
2024-06-07 00:25:17.614659,0,0,0,0,0,1,72,75,132,120,33,122.20,86,-24.00,-17.00,-1026.00
2024-06-07 00:25:17.716467,0,0,0,0,0,1,72,75,130,120,33,122.18,86,16.00,-15.00,-1025.00
2024-06-07 00:25:17.818730,0,0,0,0,0,0,72,75,130,120,33,122.12,86,-11.00,0.00,-956.00
2024-06-07 00:25:17.920863,0,0,0,0,0,0,72,75,129,120,33,122.12,86,-2.00,-12.00,-1054.00
2024-06-07 00:25:18.022821,0,0,0,0,0,0,72,75,128,120,33,122.09,86,-12.00,-11.00,-987.00
2024-06-07 00:25:18.226291,0,0,0,0,0,0,72,75,128,120,33,122.17,86,-12.00,-1.00,-1014.00
2024-06-07 00:25:18.226657,0,0,0,0,0,0,72,75,127,120,33,122.15,87,37.00,-20.00,-1039.00
2024-06-07 00:25:18.329047,0,0,0,0,0,0,72,75,127,120,33,122.16,87,-46.00,4.00,-984.00
2024-06-07 00:25:18.431696,0,0,0,0,0,0,72,75,127,120,33,122.11,87,20.00,-25.00,-987.00
2024-06-07 00:25:18.533042,0,0,0,0,0,0,72,75,127,120,33,122.13,87,-33.00,16.00,-1053.00
2024-06-07 00:25:18.635408,0,0,0,0,0,0,72,75,127,120,33,122.14,87,4.00,-12.00,-1019.00
2024-06-07 00:25:18.738139,0,0,0,0,0,0,72,75,127,120,33,122.15,87,-11.00,0.00,-958.00
2024-06-07 00:25:18.840936,0,0,0,0,0,0,72,75,127,120,33,122.14,87,-16.00,3.00,-1008.00
2024-06-07 00:25:18.941133,0,0,0,0,0,0,72,75,127,120,33,122.13,87,-25.00,13.00,-940.00
2024-06-07 00:25:19.042762,0,0,0,0,0,0,72,75,128,120,33,122.13,87,-3.00,-1.00,-1006.00
2024-06-07 00:25:19.152717,0,0,0,0,0,0,72,75,128,120,33,122.09,87,23.00,-39.00,-975.00
2024-06-07 00:25:19.247074,0,0,0,0,0,0,72,75,128,120,33,122.09,88,27.00,-12.00,-941.00
2024-06-07 00:25:19.348840,0,0,0,0,0,0,72,75,127,120,33,122.11,88,-12.00,3.00,-951.00
2024-06-07 00:25:19.454978,0,0,0,0,0,0,72,75,128,120,33,122.16,88,-14.00,-7.00,-960.00
2024-06-07 00:25:19.552623,0,0,0,0,0,0,72,75,127,120,33,122.10,88,-11.00,-11.00,-973.00
2024-06-07 00:25:19.659667,0,0,0,0,0,0,73,75,127,120,33,122.09,88,-23.00,24.00,-1015.00
2024-06-07 00:25:19.757210,0,0,0,0,0,0,73,75,127,120,33,122.03,88,-13.00,17.00,-1004.00
2024-06-07 00:25:19.864751,0,0,0,0,0,0,73,75,127,120,33,122.06,88,6.00,-7.00,-1042.00
2024-06-07 00:25:19.963687,0,0,0,0,0,0,73,75,127,120,33,122.13,88,13.00,-18.00,-1018.00
2024-06-07 00:25:20.064061,0,0,0,0,0,0,73,75,127,120,33,122.10,88,-14.00,29.00,-987.00
2024-06-07 00:25:20.164353,-4,0,0,0,0,0,73,75,127,120,33,122.12,88,22.00,-5.00,-986.00
2024-06-07 00:25:20.273983,-8,0,0,0,0,0,73,75,129,120,33,122.11,89,-18.00,6.00,-961.00
2024-06-07 00:25:20.368463,-8,0,0,2,0,0,73,75,128,120,33,122.07,89,16.00,-14.00,-1103.00
2024-06-07 00:25:20.478680,-8,0,0,3,0,0,73,75,128,120,33,122.04,89,-35.00,3.00,-1005.00
2024-06-07 00:25:20.572411,-8,0,0,5,0,0,73,75,128,120,33,122.12,89,-41.00,15.00,-1015.00
2024-06-07 00:25:20.683515,-7,0,0,6,0,0,73,75,128,120,33,122.05,89,-29.00,-1.00,-1016.00
2024-06-07 00:25:20.776757,-6,0,0,6,0,0,73,75,126,120,33,122.03,89,-23.00,-11.00,-1009.00
2024-06-07 00:25:20.888305,-5,0,0,7,0,0,73,75,128,120,33,122.05,89,-44.00,-2.00,-999.00
2024-06-07 00:25:20.980791,-4,0,0,7,0,0,73,75,127,120,33,122.00,89,-6.00,-17.00,-1002.00
2024-06-07 00:25:21.093149,-1,0,0,7,0,0,73,75,127,120,33,121.96,89,-32.00,13.00,-938.00
2024-06-07 00:25:21.184394,0,0,0,6,0,0,73,75,126,120,33,122.01,89,-77.00,24.00,-1046.00
2024-06-07 00:25:21.300785,2,0,0,5,0,0,73,75,126,120,33,121.98,90,-31.00,-7.00,-969.00
2024-06-07 00:25:21.337711,3,0,0,4,0,0,73,75,125,120,33,122.01,90,-50.00,-4.00,-1046.00
2024-06-07 00:25:21.502699,1,0,0,3,0,0,73,75,124,120,33,122.02,90,-36.00,6.00,-1003.00
2024-06-07 00:25:21.541369,0,0,0,3,0,0,73,75,124,120,33,122.03,90,-23.00,8.00,-1042.00
2024-06-07 00:25:21.708060,0,0,0,3,0,0,72,75,123,120,33,122.00,90,-29.00,20.00,-998.00
2024-06-07 00:25:21.746094,0,0,0,3,0,0,72,75,122,120,33,122.01,90,-10.00,5.00,-1067.00
2024-06-07 00:25:21.912286,0,0,0,3,0,0,72,75,122,120,33,121.96,90,-70.00,20.00,-1064.00
2024-06-07 00:25:21.949236,0,0,0,3,0,0,72,75,122,120,33,122.02,90,-55.00,14.00,-996.00
2024-06-07 00:25:22.111641,0,0,0,3,0,0,72,75,122,120,33,122.02,90,-77.00,15.00,-979.00
2024-06-07 00:25:22.153594,0,0,0,2,0,0,72,75,121,120,33,121.95,90,-42.00,-5.00,-985.00
2024-06-07 00:25:22.334858,1,0,0,2,0,0,72,75,120,120,33,121.99,91,-10.00,-3.00,-977.00
2024-06-07 00:25:22.357502,3,0,0,2,0,0,72,75,121,110,33,122.02,91,12.00,-7.00,-995.00
2024-06-07 00:25:22.526640,3,0,0,1,0,0,72,75,121,110,33,122.03,91,-45.00,17.00,-994.00
2024-06-07 00:25:22.609885,1,0,0,0,0,0,72,75,120,110,33,122.03,91,-25.00,-4.00,-1074.00
2024-06-07 00:25:22.675455,0,0,0,0,0,0,72,76,120,110,33,122.01,91,-7.00,-16.00,-977.00
2024-06-07 00:25:22.772101,0,0,0,0,0,0,72,76,120,110,33,121.98,91,-15.00,11.00,-1002.00
2024-06-07 00:25:22.872653,0,0,0,0,0,0,72,76,120,110,33,121.98,91,-18.00,20.00,-1037.00
2024-06-07 00:25:23.093288,0,0,0,0,0,0,72,76,121,110,33,121.95,91,-5.00,-16.00,-1015.00
2024-06-07 00:25:23.093435,0,0,0,0,0,0,72,76,121,110,33,122.01,91,-23.00,-10.00,-1016.00
2024-06-07 00:25:23.173694,0,0,0,0,0,0,72,76,121,110,33,122.06,91,-36.00,29.00,-983.00
2024-06-07 00:25:23.305992,0,0,0,0,0,0,72,76,121,110,33,122.03,92,-19.00,11.00,-1009.00
2024-06-07 00:25:23.377252,0,0,0,0,0,0,72,76,122,110,33,122.08,92,-17.00,-6.00,-1015.00
2024-06-07 00:25:23.561863,0,0,0,0,0,0,72,76,122,110,33,122.01,92,18.00,-11.00,-967.00
2024-06-07 00:25:23.581331,0,0,0,0,0,0,72,76,123,110,33,122.02,92,-4.00,-1.00,-980.00
2024-06-07 00:25:23.704916,0,0,0,0,0,0,72,75,123,110,33,122.10,92,-10.00,0.00,-959.00
2024-06-07 00:25:23.868966,0,0,0,0,0,0,72,75,124,110,33,122.02,92,9.00,14.00,-972.00
2024-06-07 00:25:23.887756,0,0,0,0,0,0,72,75,125,110,33,122.13,92,-28.00,17.00,-1016.00
2024-06-07 00:25:24.012170,0,0,0,0,0,0,72,75,127,120,33,122.12,92,-24.00,-1.00,-1003.00
2024-06-07 00:25:24.175848,0,0,0,0,0,0,72,75,128,120,33,122.13,92,28.00,4.00,-1023.00
2024-06-07 00:25:24.195002,0,0,0,0,0,-1,72,75,131,120,33,122.08,92,-5.00,16.00,-975.00
2024-06-07 00:25:24.306790,0,0,0,0,0,0,72,75,132,120,33,122.10,93,2.00,-17.00,-1021.00
2024-06-07 00:25:24.397329,0,0,0,0,0,-1,72,75,134,120,33,122.13,93,-16.00,7.00,-956.00
2024-06-07 00:25:24.531275,0,0,0,0,0,-1,72,75,136,120,33,122.18,93,-39.00,13.00,-991.00
2024-06-07 00:25:24.601116,0,0,0,0,0,0,72,75,137,120,33,122.17,93,-31.00,17.00,-938.00
2024-06-07 00:25:24.779594,0,0,0,0,0,0,73,75,137,130,33,122.16,93,37.00,2.00,-911.00
2024-06-07 00:25:24.805053,2,0,0,0,0,0,73,75,138,130,33,122.21,93,9.00,-20.00,-966.00
2024-06-07 00:25:24.984073,7,0,0,-1,0,0,73,75,138,130,33,122.17,93,11.00,4.00,-977.00
2024-06-07 00:25:25.008949,8,0,0,-2,0,0,73,75,138,130,33,122.14,93,16.00,-21.00,-1018.00
2024-06-07 00:25:25.188951,8,0,0,-4,0,0,73,75,138,130,33,122.26,93,16.00,7.00,-976.00
2024-06-07 00:25:25.212963,7,0,0,-5,0,0,73,75,137,130,33,122.21,93,-27.00,-4.00,-1079.00
2024-06-07 00:25:25.315480,5,0,0,-6,0,0,73,75,137,120,33,122.15,94,29.00,-5.00,-1003.00
2024-06-07 00:25:25.367837,4,0,0,-7,0,0,73,75,135,120,33,122.16,94,30.00,22.00,-1014.00
2024-06-07 00:25:25.468367,4,0,0,-7,0,0,73,75,135,120,33,122.19,94,62.00,-31.00,-971.00
2024-06-07 00:25:25.598477,3,0,0,-7,0,0,73,75,134,120,33,122.11,94,54.00,-6.00,-1058.00
2024-06-07 00:25:25.723051,-2,0,0,-6,0,0,73,75,133,120,33,122.15,94,22.00,-10.00,-928.00
2024-06-07 00:25:25.905691,-3,0,0,-5,0,0,73,75,133,120,33,122.13,94,33.00,-2.00,-1137.00
2024-06-07 00:25:25.905754,-3,0,0,-4,0,0,73,75,132,120,33,122.08,94,55.00,-14.00,-960.00
2024-06-07 00:25:25.977789,-1,0,0,-3,0,0,73,75,131,120,33,122.08,94,0.00,7.00,-1030.00
2024-06-07 00:25:26.110508,0,0,0,-3,0,0,73,75,130,120,33,122.12,94,13.00,8.00,-995.00
2024-06-07 00:25:26.182771,0,0,0,-3,0,0,73,75,130,120,33,122.08,95,-5.00,7.00,-995.00
2024-06-07 00:25:26.315210,0,0,0,-3,0,0,73,75,129,120,33,122.09,95,56.00,-4.00,-959.00
2024-06-07 00:25:26.386312,0,0,0,-3,0,0,73,75,129,120,33,122.04,95,6.00,0.00,-1037.00
2024-06-07 00:25:26.520063,0,0,0,-3,0,0,73,75,129,120,33,122.06,95,-5.00,7.00,-979.00
2024-06-07 00:25:26.589932,0,0,0,-3,0,0,73,75,130,120,33,122.07,95,-48.00,20.00,-1031.00
2024-06-07 00:25:26.726003,0,0,0,-3,0,0,73,75,130,120,33,122.19,95,11.00,13.00,-1060.00
2024-06-07 00:25:26.793925,-1,0,0,-3,0,0,73,75,130,120,33,122.06,95,5.00,14.00,-999.00
2024-06-07 00:25:26.929642,-5,0,0,-2,0,0,73,75,131,120,33,122.11,95,4.00,3.00,-1042.00
2024-06-07 00:25:26.997771,-4,0,0,-1,0,0,73,75,131,120,33,122.12,95,-19.00,20.00,-970.00
2024-06-07 00:25:27.134397,-2,0,0,0,0,0,73,75,131,120,33,122.12,95,24.00,-24.00,-988.00
2024-06-07 00:25:27.202956,-1,0,0,0,0,0,73,75,132,120,33,122.14,96,-41.00,10.00,-1012.00
2024-06-07 00:25:27.339211,0,0,0,0,0,0,73,75,132,120,33,122.08,96,33.00,-18.00,-1054.00
2024-06-07 00:25:27.409717,0,0,0,0,0,0,73,75,132,120,33,122.15,96,-12.00,1.00,-1089.00
2024-06-07 00:25:27.508984,-1,0,0,0,0,0,73,75,131,120,33,122.12,96,0.00,-4.00,-994.00
2024-06-07 00:25:27.646552,-1,0,0,0,0,0,73,75,131,120,33,122.10,96,-14.00,2.00,-1002.00
2024-06-07 00:25:27.712912,-1,0,0,0,0,0,73,75,130,120,33,122.06,96,-27.00,19.00,-1005.00
2024-06-07 00:25:27.851705,-1,0,0,0,0,0,73,75,129,120,33,122.11,96,-12.00,9.00,-943.00
2024-06-07 00:25:27.919220,0,0,0,0,0,0,73,75,128,120,33,122.05,96,-23.00,4.00,-984.00
2024-06-07 00:25:28.019740,0,0,0,0,0,0,73,75,126,120,33,122.10,96,-1.00,8.00,-985.00
2024-06-07 00:25:28.120928,0,0,0,0,0,0,73,75,124,120,33,121.98,96,-24.00,15.00,-1016.00
2024-06-07 00:25:28.222903,0,0,0,0,0,0,73,75,124,120,33,122.13,97,4.00,-14.00,-1011.00
2024-06-07 00:25:28.324919,0,0,0,0,0,0,73,75,124,120,33,122.09,97,5.00,-6.00,-1032.00
2024-06-07 00:25:28.465926,0,0,0,0,0,0,73,75,122,120,33,122.00,97,15.00,-1.00,-980.00
2024-06-07 00:25:28.528829,0,0,0,0,0,0,73,75,122,120,33,122.02,97,18.00,1.00,-1038.00
2024-06-07 00:25:28.670505,0,0,0,0,0,0,73,75,121,120,33,122.03,97,11.00,3.00,-999.00
2024-06-07 00:25:28.732845,0,0,0,0,0,0,73,75,120,110,33,122.03,97,19.00,-20.00,-1001.00
2024-06-07 00:25:28.834898,0,0,0,0,0,0,73,75,120,110,33,122.02,97,-21.00,-1.00,-955.00
2024-06-07 00:25:28.978230,0,0,0,0,0,0,73,75,121,110,33,121.99,97,-51.00,24.00,-994.00
2024-06-07 00:25:29.038747,0,0,0,0,0,0,73,75,121,110,33,121.95,97,-41.00,2.00,-951.00
2024-06-07 00:25:29.140769,0,0,0,0,0,0,73,75,120,110,33,122.02,97,-11.00,-24.00,-984.00
2024-06-07 00:25:29.284724,0,0,0,0,0,0,73,75,121,110,33,122.02,98,27.00,-31.00,-992.00
2024-06-07 00:25:29.344645,0,-4,0,0,0,0,73,75,121,110,33,122.03,98,8.00,0.00,-978.00
2024-06-07 00:25:29.493475,0,-8,0,0,-1,0,73,75,121,110,33,121.97,98,10.00,-6.00,-1032.00
2024-06-07 00:25:29.548625,0,-7,0,0,-2,0,73,75,120,110,33,122.04,98,17.00,-12.00,-996.00
2024-06-07 00:25:29.599712,0,-4,0,0,-3,0,73,75,120,110,33,121.98,98,-2.00,15.00,-969.00
2024-06-07 00:25:29.796777,0,-1,0,0,-4,0,73,76,121,110,33,122.06,98,-14.00,33.00,-973.00
2024-06-07 00:25:29.803562,0,1,0,0,-3,0,73,76,120,120,33,121.97,98,33.00,31.00,-951.00
2024-06-07 00:25:29.905590,0,1,0,0,-3,0,73,76,119,120,33,122.01,98,13.00,6.00,-949.00
2024-06-07 00:25:30.103835,0,0,0,0,-2,0,73,76,120,120,33,121.92,98,-26.00,20.00,-1028.00
2024-06-07 00:25:30.109504,0,0,0,0,-2,0,73,76,120,120,33,121.94,98,-25.00,17.00,-1059.00
2024-06-07 00:25:30.211619,0,-1,0,0,-2,0,73,76,121,110,33,121.99,99,-31.00,23.00,-1041.00
2024-06-07 00:25:30.416096,0,-1,0,0,-2,0,73,76,120,110,33,122.02,99,19.00,-15.00,-994.00
2024-06-07 00:25:30.420082,0,0,0,0,-2,0,73,76,120,110,33,121.99,99,8.00,3.00,-1019.00
2024-06-07 00:25:30.517635,0,0,0,0,-2,0,73,76,120,120,33,121.92,99,-13.00,30.00,-1039.00
2024-06-07 00:25:30.718237,0,0,0,0,-2,0,73,76,120,120,33,121.92,99,-46.00,33.00,-990.00
2024-06-07 00:25:30.721559,0,0,0,0,-2,0,73,75,120,120,33,121.94,99,-23.00,33.00,-1048.00
2024-06-07 00:25:30.823789,0,0,0,0,-2,0,73,75,120,120,33,121.92,99,-13.00,19.00,-992.00
2024-06-07 00:25:30.926151,0,0,0,0,-2,0,73,75,120,120,33,121.99,99,17.00,4.00,-992.00
2024-06-07 00:25:31.027617,0,0,0,0,-2,0,73,75,121,110,33,122.02,99,-56.00,36.00,-1013.00
2024-06-07 00:25:31.129906,0,5,0,0,-1,0,73,75,121,110,33,121.98,99,-18.00,12.00,-967.00
2024-06-07 00:25:31.231665,0,3,0,0,0,0,73,75,120,110,33,121.97,100,6.00,-15.00,-995.00
2024-06-07 00:25:31.335080,0,1,0,0,0,0,73,75,120,110,33,122.04,100,30.00,-26.00,-1003.00
2024-06-07 00:25:31.436996,0,0,0,0,0,0,73,75,121,110,33,121.94,100,4.00,10.00,-1063.00
2024-06-07 00:25:31.639960,0,0,0,0,0,0,73,75,121,110,33,121.98,100,-15.00,4.00,-1039.00
2024-06-07 00:25:31.640379,0,0,0,0,0,0,73,75,122,110,33,122.04,100,-28.00,20.00,-972.00
2024-06-07 00:25:31.742711,0,0,0,0,0,0,73,75,122,120,33,121.96,100,-38.00,19.00,-971.00
2024-06-07 00:25:31.845046,0,0,0,0,0,0,73,75,123,120,33,122.02,100,-15.00,24.00,-973.00
2024-06-07 00:25:31.947313,0,0,0,0,0,0,73,75,125,120,33,122.01,100,-25.00,9.00,-957.00
2024-06-07 00:25:32.049720,0,0,0,0,0,0,73,75,124,120,33,122.06,100,24.00,-27.00,-954.00
2024-06-07 00:25:32.151869,0,0,0,0,0,0,73,75,126,120,33,122.07,100,17.00,-3.00,-957.00
2024-06-07 00:25:32.252602,0,0,0,0,0,0,73,75,126,120,33,122.07,101,-54.00,24.00,-981.00
2024-06-07 00:25:32.354635,0,0,0,0,0,0,73,75,127,120,33,122.05,101,57.00,-36.00,-978.00
2024-06-07 00:25:32.456587,0,0,0,0,0,0,73,75,126,120,33,121.98,101,-36.00,5.00,-998.00
2024-06-07 00:25:32.561342,0,0,0,0,0,0,73,75,126,120,33,122.06,101,7.00,-6.00,-957.00
2024-06-07 00:25:32.660584,0,0,0,0,0,0,73,75,126,120,33,122.04,101,-38.00,13.00,-1013.00
2024-06-07 00:25:32.766178,0,0,0,0,0,0,73,75,125,120,33,122.07,101,32.00,-14.00,-955.00
2024-06-07 00:25:32.864468,0,0,0,0,0,0,73,75,125,120,33,122.02,101,5.00,8.00,-997.00
2024-06-07 00:25:32.971020,0,0,0,0,0,0,73,75,127,120,33,121.97,101,-20.00,1.00,-1041.00
2024-06-07 00:25:33.068657,0,0,0,0,0,0,73,75,127,120,33,122.05,101,5.00,-26.00,-998.00
2024-06-07 00:25:33.175946,0,0,0,0,0,0,73,75,126,120,33,122.04,101,0.00,2.00,-989.00
2024-06-07 00:25:33.273358,0,0,0,0,0,0,73,75,126,120,33,122.05,102,23.00,-19.00,-1025.00
2024-06-07 00:25:33.323873,0,0,0,0,0,0,73,75,127,120,33,122.05,102,-6.00,-4.00,-981.00
2024-06-07 00:25:33.482926,0,4,0,0,0,0,73,75,127,120,33,122.04,102,-7.00,1.00,-1012.00
2024-06-07 00:25:33.527380,0,8,0,0,1,0,73,75,126,120,33,122.05,102,-15.00,9.00,-1013.00
2024-06-07 00:25:33.687724,0,6,0,0,2,0,73,75,126,120,33,122.02,102,-36.00,2.00,-992.00
2024-06-07 00:25:33.734977,0,3,0,0,3,0,74,76,126,120,33,121.99,102,0.00,-40.00,-1008.00
2024-06-07 00:25:33.835391,0,1,0,0,4,0,74,76,125,120,33,122.04,102,-31.00,-11.00,-917.00
2024-06-07 00:25:33.935237,0,-1,0,0,3,0,74,76,124,120,33,121.95,102,-28.00,-6.00,-1012.00
2024-06-07 00:25:34.097981,0,-1,0,0,3,0,74,76,124,120,33,122.02,102,-1.00,-47.00,-1027.00
2024-06-07 00:25:34.139353,0,0,0,0,2,0,74,76,122,120,33,122.03,102,17.00,-5.00,-992.00
2024-06-07 00:25:34.302433,0,0,0,0,2,0,74,76,122,120,33,122.04,103,-28.00,-9.00,-1048.00
2024-06-07 00:25:34.343277,0,1,0,0,2,0,74,76,121,120,33,122.01,103,-35.00,-1.00,-1048.00
2024-06-07 00:25:34.506858,0,1,0,0,2,0,74,76,121,120,33,121.97,103,37.00,-34.00,-968.00
2024-06-07 00:25:34.547207,0,1,0,0,2,0,74,76,122,110,33,122.00,103,10.00,-28.00,-1052.00
2024-06-07 00:25:34.711707,0,0,0,0,2,0,74,76,121,110,33,122.05,103,5.00,-26.00,-1013.00
2024-06-07 00:25:34.751217,0,0,0,0,2,0,73,75,122,110,33,122.01,103,-28.00,-18.00,-1016.00
2024-06-07 00:25:34.916503,0,0,0,0,2,0,73,75,122,110,33,121.99,103,-4.00,-1.00,-1030.00
2024-06-07 00:25:34.955239,0,0,0,0,2,0,73,75,122,110,33,122.05,103,4.00,-31.00,-1039.00
2024-06-07 00:25:35.121166,0,0,0,0,2,0,73,75,120,120,33,121.96,103,-17.00,-28.00,-1010.00
2024-06-07 00:25:35.159384,0,-3,0,0,2,0,73,75,123,120,33,122.00,103,-4.00,-33.00,-961.00
2024-06-07 00:25:35.325922,0,-5,0,0,1,0,73,75,125,120,33,121.98,104,-19.00,17.00,-970.00
2024-06-07 00:25:35.363459,0,-1,0,0,0,0,73,75,123,120,33,122.00,104,-14.00,-19.00,-998.00
2024-06-07 00:25:35.531543,0,0,0,0,0,0,73,75,122,120,33,121.99,104,-19.00,8.00,-1008.00
2024-06-07 00:25:35.567299,0,0,0,0,0,0,73,75,124,120,33,121.95,104,11.00,-17.00,-974.00
2024-06-07 00:25:35.735629,0,0,0,0,0,0,73,75,124,120,33,121.99,104,22.00,-32.00,-922.00
2024-06-07 00:25:35.771557,0,0,0,0,0,0,73,76,126,120,33,121.98,104,-27.00,17.00,-1032.00
2024-06-07 00:25:35.940510,0,0,0,0,0,0,73,76,126,120,33,122.01,104,13.00,-47.00,-970.00
2024-06-07 00:25:35.975595,0,0,0,0,0,0,73,76,126,120,33,121.96,104,-13.00,-9.00,-955.00
2024-06-07 00:25:36.145649,0,0,0,0,0,0,73,76,126,120,33,121.90,104,-14.00,-19.00,-1027.00
2024-06-07 00:25:36.179523,0,0,0,0,0,0,73,76,126,120,33,122.00,104,9.00,-14.00,-1010.00
2024-06-07 00:25:36.350076,0,0,0,0,0,0,73,76,126,120,33,121.96,105,-8.00,10.00,-936.00
2024-06-07 00:25:36.383595,0,0,0,0,0,0,73,76,126,120,33,121.93,105,4.00,-23.00,-981.00
2024-06-07 00:25:36.554856,0,0,0,0,0,0,73,76,127,120,33,122.03,105,-32.00,8.00,-979.00
2024-06-07 00:25:36.587156,0,0,0,0,0,0,73,76,128,120,33,121.99,105,-67.00,23.00,-1066.00
2024-06-07 00:25:36.759591,0,0,0,0,0,0,73,76,128,120,33,122.03,105,-29.00,20.00,-980.00
2024-06-07 00:25:36.791159,0,0,0,0,0,0,73,76,129,120,33,122.04,105,-37.00,17.00,-1061.00
2024-06-07 00:25:36.964586,0,0,0,0,0,0,73,76,128,120,33,122.04,105,-4.00,-26.00,-953.00
2024-06-07 00:25:36.995037,0,0,0,0,0,0,73,76,129,120,33,122.01,105,15.00,-15.00,-989.00
2024-06-07 00:25:37.114058,0,0,0,0,0,0,73,76,129,120,33,121.98,105,-19.00,-6.00,-985.00
2024-06-07 00:25:37.199395,0,0,0,0,0,0,73,76,129,120,33,121.98,105,-12.00,11.00,-960.00
2024-06-07 00:25:37.352235,0,0,0,0,0,0,73,76,127,120,33,122.01,106,-19.00,10.00,-1051.00
2024-06-07 00:25:37.446963,0,0,0,0,0,0,73,76,127,120,33,122.01,106,-33.00,11.00,-988.00
2024-06-07 00:25:37.453973,0,0,0,0,0,0,73,76,128,120,33,121.99,106,18.00,-21.00,-945.00
2024-06-07 00:25:37.579068,0,0,3,0,0,0,73,76,126,120,33,121.94,106,-9.00,-18.00,-950.00
2024-06-07 00:25:37.886762,0,0,9,0,0,0,73,76,126,120,33,122.00,106,0.00,-3.00,-968.00
2024-06-07 00:25:37.999196,0,0,14,0,0,0,73,76,126,120,33,121.96,106,-28.00,14.00,-989.00
2024-06-07 00:25:37.999250,0,0,20,0,0,0,73,76,125,120,33,121.97,106,-56.00,10.00,-1064.00
2024-06-07 00:25:37.999540,0,0,26,0,0,0,73,76,125,120,33,121.95,106,-26.00,-2.00,-1016.00
2024-06-07 00:25:38.142556,-1,0,32,0,0,0,73,76,126,120,33,122.01,106,-5.00,-21.00,-929.00
2024-06-07 00:25:38.168568,-1,0,38,0,0,0,73,76,126,120,33,121.98,106,30.00,-17.00,-940.00
2024-06-07 00:25:38.306257,0,0,44,0,0,0,73,76,126,120,33,121.95,107,-10.00,17.00,-981.00
2024-06-07 00:25:38.449656,0,0,50,0,0,0,73,76,126,120,33,121.94,107,-10.00,16.00,-974.00
2024-06-07 00:25:38.473812,0,0,56,0,0,0,73,76,125,120,33,121.94,107,29.00,6.00,-995.00
2024-06-07 00:25:38.613502,0,0,63,0,0,0,73,76,125,120,33,121.95,107,-5.00,-21.00,-1003.00
2024-06-07 00:25:38.756798,0,0,69,0,0,0,73,76,125,120,33,121.97,107,39.00,-15.00,-960.00
2024-06-07 00:25:38.780502,0,0,75,0,0,0,73,76,125,120,33,121.92,107,41.00,-8.00,-995.00
2024-06-07 00:25:38.921634,0,0,81,0,0,0,73,76,125,120,33,121.88,107,-15.00,-5.00,-1050.00
2024-06-07 00:25:39.065091,0,0,86,0,0,0,73,76,125,120,33,121.89,107,28.00,16.00,-944.00
2024-06-07 00:25:39.087059,0,0,92,0,0,0,73,76,124,120,33,121.96,107,-3.00,-2.00,-961.00
2024-06-07 00:25:39.228048,0,0,98,0,0,0,73,76,124,120,33,121.95,107,10.00,6.00,-993.00
2024-06-07 00:25:39.371260,0,0,104,0,0,0,73,76,123,120,33,121.94,108,2.00,-16.00,-1011.00
2024-06-07 00:25:39.391759,0,0,110,0,0,0,73,76,123,120,33,121.87,108,-4.00,3.00,-1016.00
2024-06-07 00:25:39.535147,0,0,116,0,0,0,73,76,122,120,33,121.94,108,-17.00,4.00,-977.00
2024-06-07 00:25:39.689390,0,0,123,0,0,0,73,76,122,120,33,121.85,108,-26.00,21.00,-953.00
2024-06-07 00:25:39.697784,0,0,129,0,0,0,73,76,120,120,33,121.87,108,30.00,-13.00,-966.00
2024-06-07 00:25:39.806004,0,0,141,0,0,0,73,76,119,120,33,121.88,108,6.00,-14.00,-1016.00
2024-06-07 00:25:39.901787,0,0,147,0,0,0,73,76,119,110,33,121.83,108,-27.00,11.00,-984.00
2024-06-07 00:25:40.036238,0,0,153,0,0,0,73,76,117,110,33,121.80,108,17.00,-11.00,-1037.00
2024-06-07 00:25:40.107054,0,0,159,0,0,0,73,76,116,110,32,121.83,108,14.00,-26.00,-981.00
2024-06-07 00:25:40.241167,0,0,165,0,0,0,73,76,115,110,32,121.86,109,0.00,-22.00,-1038.00
2024-06-07 00:25:40.310987,0,0,171,0,0,0,73,76,114,110,32,121.83,109,-4.00,-3.00,-1002.00
2024-06-07 00:25:40.445815,0,0,177,0,0,0,73,76,113,110,32,121.81,109,0.00,11.00,-1011.00
2024-06-07 00:25:40.513803,-1,0,-177,0,0,0,73,76,113,110,32,121.80,109,-43.00,3.00,-1007.00
2024-06-07 00:25:40.650529,-1,0,-171,0,0,0,73,76,113,110,32,121.86,109,-2.00,9.00,-1031.00
2024-06-07 00:25:40.717976,0,0,-165,0,0,0,73,76,114,110,32,121.80,109,47.00,-31.00,-1081.00
2024-06-07 00:25:40.855401,0,0,-159,0,0,0,73,77,114,110,32,121.82,109,-64.00,0.00,-1109.00
2024-06-07 00:25:40.921737,0,0,-153,0,0,0,73,77,115,110,32,121.86,109,10.00,2.00,-1010.00
2024-06-07 00:25:41.060351,-1,0,-147,0,0,-1,73,77,117,110,32,121.91,109,17.00,-10.00,-987.00
2024-06-07 00:25:41.125729,0,0,-141,0,0,0,73,77,118,110,32,121.92,109,16.00,-17.00,-979.00
2024-06-07 00:25:41.228660,0,0,-135,0,0,-1,73,77,120,110,32,121.83,110,-54.00,22.00,-936.00
2024-06-07 00:25:41.279069,0,0,-129,0,0,0,73,77,121,110,32,121.90,110,30.00,0.00,-979.00
2024-06-07 00:25:41.383235,0,0,-123,0,0,-1,73,77,122,110,32,121.90,110,-25.00,5.00,-1020.00
2024-06-07 00:25:41.482617,0,0,-117,0,0,0,73,77,123,120,32,121.90,110,-9.00,2.00,-986.00
2024-06-07 00:25:41.674557,0,0,-111,0,0,0,73,77,123,120,32,121.87,110,-6.00,9.00,-983.00
2024-06-07 00:25:41.686855,0,0,-105,0,0,0,73,77,124,120,32,121.90,110,1.00,-3.00,-1056.00
2024-06-07 00:25:41.879277,0,0,-99,0,0,0,73,76,125,120,32,121.87,110,-2.00,6.00,-971.00
2024-06-07 00:25:41.890489,0,0,-93,0,0,0,73,76,125,120,32,121.82,110,21.00,17.00,-948.00
2024-06-07 00:25:42.084058,0,0,-87,0,0,0,73,76,125,120,32,121.93,110,-15.00,36.00,-1050.00
2024-06-07 00:25:42.094542,0,0,-81,0,0,0,73,76,125,120,32,121.91,110,-16.00,-4.00,-1000.00
2024-06-07 00:25:42.289015,0,0,-76,0,0,0,73,76,124,120,32,121.85,111,-21.00,18.00,-910.00
2024-06-07 00:25:42.299558,0,0,-70,0,0,0,73,76,124,120,32,121.89,111,1.00,25.00,-1017.00
2024-06-07 00:25:42.494137,0,0,-64,0,0,0,73,76,123,120,32,121.88,111,10.00,-9.00,-1032.00
2024-06-07 00:25:42.503533,0,0,-58,0,0,0,73,76,123,120,32,121.84,111,10.00,-14.00,-989.00
2024-06-07 00:25:42.701308,0,0,-52,0,0,0,73,76,123,120,32,121.88,111,-37.00,-2.00,-1010.00
2024-06-07 00:25:42.707501,0,0,-46,0,0,0,73,76,122,120,32,121.84,111,-3.00,-4.00,-1053.00
2024-06-07 00:25:42.903326,0,0,-40,0,0,0,73,76,123,120,32,121.89,111,3.00,11.00,-949.00
2024-06-07 00:25:42.911502,0,0,-34,0,0,0,73,76,122,120,32,121.89,111,-9.00,2.00,-1044.00
2024-06-07 00:25:43.109310,0,0,-28,0,0,0,73,76,123,120,32,121.84,111,3.00,16.00,-982.00
2024-06-07 00:25:43.115535,0,0,-22,0,0,0,73,76,123,120,32,121.90,111,9.00,11.00,-983.00
2024-06-07 00:25:43.313065,0,0,-17,0,0,0,73,76,124,120,32,121.87,112,40.00,-20.00,-1052.00
2024-06-07 00:25:43.319930,0,0,-13,0,0,0,73,76,124,120,32,121.86,112,-55.00,42.00,-995.00
2024-06-07 00:25:43.517686,0,0,-10,0,0,0,73,76,125,120,32,121.86,112,-13.00,13.00,-948.00
2024-06-07 00:25:43.523452,0,0,-7,0,0,0,73,76,125,120,32,121.87,112,-43.00,19.00,-986.00
2024-06-07 00:25:43.722419,0,0,-5,0,0,0,73,76,126,120,32,121.92,112,44.00,-1.00,-1014.00
2024-06-07 00:25:43.727514,0,0,-4,0,0,0,73,76,126,120,32,121.88,112,6.00,-19.00,-1016.00
2024-06-07 00:25:43.829467,0,0,-3,0,0,0,74,75,127,120,32,121.87,112,-25.00,0.00,-990.00
2024-06-07 00:25:44.029644,0,0,-2,0,0,0,74,75,127,120,32,121.86,112,33.00,-19.00,-968.00
2024-06-07 00:25:44.034493,0,0,-1,0,0,0,74,75,127,120,32,121.94,112,-48.00,16.00,-1022.00
2024-06-07 00:25:44.234577,0,0,-1,0,0,0,74,75,127,120,32,121.91,112,1.00,-12.00,-983.00
2024-06-07 00:25:44.238609,0,0,-1,0,0,0,74,75,127,120,32,121.90,113,17.00,-35.00,-968.00
2024-06-07 00:25:44.439314,0,0,-1,0,0,0,74,75,127,120,32,121.95,113,0.00,3.00,-1054.00
2024-06-07 00:25:44.442936,0,0,-1,0,0,0,74,75,128,120,32,121.91,113,54.00,-38.00,-991.00
2024-06-07 00:25:44.544502,0,0,-1,0,0,0,74,75,128,120,32,121.92,113,49.00,-45.00,-967.00
2024-06-07 00:25:44.646518,0,0,-1,0,0,0,74,75,127,120,32,121.92,113,6.00,0.00,-974.00
2024-06-07 00:25:44.748624,0,0,-1,0,0,0,74,75,128,120,32,121.96,113,-16.00,-12.00,-1042.00
2024-06-07 00:25:44.850478,0,0,-1,0,0,0,74,76,127,120,32,121.87,113,46.00,-24.00,-978.00
2024-06-07 00:25:45.053572,0,0,-1,0,0,0,74,76,127,120,32,121.91,113,-10.00,8.00,-1028.00
2024-06-07 00:25:45.053748,0,0,-1,0,0,0,74,76,128,120,32,121.90,113,-5.00,-1.00,-936.00
2024-06-07 00:25:45.105431,0,0,-1,0,0,0,74,76,128,120,31,121.94,113,8.00,-25.00,-1006.00
2024-06-07 00:25:45.258596,0,0,-1,0,0,0,74,76,128,120,31,121.91,114,0.00,5.00,-1008.00
2024-06-07 00:25:45.310444,0,0,-1,0,0,0,74,76,127,120,31,121.94,114,-34.00,22.00,-1017.00
2024-06-07 00:25:45.411422,0,0,-1,0,0,0,74,76,128,120,31,121.87,114,-12.00,-3.00,-930.00
2024-06-07 00:25:45.513994,0,0,-1,0,0,0,74,76,127,120,31,121.92,114,-1.00,-16.00,-1020.00
2024-06-07 00:25:45.615393,0,0,-1,0,0,0,74,76,129,120,31,121.92,114,-37.00,14.00,-1025.00
2024-06-07 00:25:45.717744,0,0,-1,0,0,0,74,76,128,120,31,121.91,114,12.00,-35.00,-1004.00
2024-06-07 00:25:45.872879,0,0,-1,0,0,0,73,76,129,120,31,121.93,114,3.00,14.00,-1002.00
2024-06-07 00:25:45.921404,0,0,-1,0,0,0,73,76,129,120,31,121.91,114,-28.00,33.00,-982.00
2024-06-07 00:25:46.033170,0,0,-1,0,0,0,73,76,129,120,31,121.99,114,7.00,-20.00,-1036.00
2024-06-07 00:25:46.125334,0,0,-1,0,0,0,73,76,130,120,31,121.92,114,-33.00,18.00,-1010.00
2024-06-07 00:25:46.227601,0,0,-5,0,0,0,73,76,131,120,31,121.93,115,-44.00,87.00,-1032.00
2024-06-07 00:25:46.384710,0,0,-11,0,0,0,73,76,131,120,31,121.94,115,12.00,-21.00,-977.00
2024-06-07 00:25:46.431211,0,0,-17,0,0,0,73,76,131,120,31,121.99,115,-45.00,32.00,-1013.00
2024-06-07 00:25:46.589506,0,0,-23,0,0,0,73,76,131,120,31,121.92,115,-18.00,7.00,-1000.00
2024-06-07 00:25:46.635956,0,0,-29,0,0,0,73,76,132,120,31,121.96,115,25.00,10.00,-999.00
2024-06-07 00:25:46.794216,0,0,-35,0,0,0,73,76,133,120,31,121.95,115,20.00,-15.00,-970.00
2024-06-07 00:25:46.839244,0,0,-41,0,0,0,73,75,132,120,31,121.96,115,31.00,-18.00,-965.00
2024-06-07 00:25:46.999154,0,0,-47,0,0,0,73,75,133,120,31,121.94,115,-21.00,10.00,-1003.00
2024-06-07 00:25:47.043147,0,0,-53,0,0,0,73,75,133,120,31,121.95,115,-1.00,7.00,-986.00
2024-06-07 00:25:47.203898,0,0,-59,0,0,0,73,75,133,120,31,121.91,115,-22.00,6.00,-948.00
2024-06-07 00:25:47.247147,0,0,-65,0,0,0,73,75,133,120,31,121.93,116,-7.00,0.00,-956.00
2024-06-07 00:25:47.408882,0,0,-71,0,0,0,73,75,132,120,31,121.91,116,35.00,-23.00,-930.00
2024-06-07 00:25:47.452151,0,0,-77,0,0,0,73,75,133,120,31,121.92,116,22.00,-16.00,-964.00
2024-06-07 00:25:47.613812,0,0,-83,0,0,0,73,75,132,120,31,121.98,116,-31.00,10.00,-984.00
2024-06-07 00:25:47.656177,0,0,-89,0,0,0,73,75,132,120,31,122.00,116,-6.00,-12.00,-1001.00
2024-06-07 00:25:47.818269,0,0,-95,0,0,0,73,75,132,120,31,121.96,116,-23.00,17.00,-956.00
2024-06-07 00:25:47.860144,0,0,-101,0,0,0,73,76,132,120,31,121.89,116,-18.00,5.00,-1028.00
2024-06-07 00:25:48.023043,0,0,-107,0,0,0,73,76,132,120,31,122.00,116,-49.00,8.00,-1014.00
2024-06-07 00:25:48.064086,0,0,-113,0,0,0,73,76,131,120,31,121.94,116,-34.00,20.00,-1024.00
2024-06-07 00:25:48.227869,0,0,-119,0,0,0,73,76,131,120,31,121.94,116,-29.00,16.00,-979.00
2024-06-07 00:25:48.267905,0,0,-125,0,0,0,73,76,130,120,31,121.95,117,31.00,-9.00,-1008.00
2024-06-07 00:25:48.432638,0,0,-130,0,0,0,73,76,131,120,31,121.93,117,34.00,-18.00,-1006.00
2024-06-07 00:25:48.472043,0,0,-136,0,0,0,73,76,131,120,31,121.93,117,-10.00,12.00,-973.00
2024-06-07 00:25:48.523089,0,0,-142,0,0,0,73,76,130,120,31,121.94,117,-19.00,23.00,-1060.00
2024-06-07 00:25:48.637410,0,0,-148,0,0,0,73,76,130,120,31,121.92,117,-28.00,18.00,-994.00
2024-06-07 00:25:48.726923,0,0,-154,0,0,0,73,76,130,120,31,121.93,117,42.00,-15.00,-1069.00
2024-06-07 00:25:48.880005,0,0,-160,0,0,0,74,76,130,120,31,121.94,117,-37.00,0.00,-964.00
2024-06-07 00:25:49.047349,0,0,-166,0,0,0,74,76,130,120,31,121.90,117,15.00,14.00,-1051.00
2024-06-07 00:25:49.047512,0,0,-172,0,0,0,74,76,130,120,31,121.91,117,-10.00,14.00,-947.00
2024-06-07 00:25:49.135210,0,0,-178,0,0,0,74,76,130,120,31,121.90,117,6.00,17.00,-943.00
2024-06-07 00:25:49.251860,0,0,175,0,0,0,74,76,130,120,31,121.94,118,-19.00,5.00,-1022.00
2024-06-07 00:25:49.340823,0,0,169,0,0,0,74,76,130,120,31,121.91,118,-21.00,-7.00,-1020.00
2024-06-07 00:25:49.441172,0,0,163,0,0,0,74,76,130,120,31,122.00,118,40.00,-23.00,-1024.00
2024-06-07 00:25:49.545171,0,0,156,0,0,0,74,76,131,120,31,121.93,118,-22.00,23.00,-993.00
2024-06-07 00:25:49.644886,0,0,150,0,0,0,74,76,130,120,31,121.92,118,28.00,-6.00,-966.00
2024-06-07 00:25:49.763781,0,0,144,0,0,0,74,76,131,120,31,121.87,118,-4.00,14.00,-965.00
2024-06-07 00:25:49.848917,0,0,138,0,0,0,73,77,131,120,31,121.88,118,17.00,-12.00,-1008.00
2024-06-07 00:25:49.968595,-1,0,132,0,0,0,73,77,131,120,31,121.87,118,-12.00,1.00,-1013.00
2024-06-07 00:25:50.053861,-1,0,126,0,0,0,73,77,131,120,30,121.91,118,-8.00,7.00,-1020.00
2024-06-07 00:25:50.173370,0,0,119,0,0,0,73,77,131,120,30,121.85,118,-9.00,8.00,-988.00
2024-06-07 00:25:50.258929,0,0,113,0,0,0,73,77,131,120,30,121.92,119,-37.00,10.00,-1027.00
2024-06-07 00:25:50.358908,0,0,107,0,0,0,73,77,131,120,30,121.91,119,-27.00,-10.00,-1021.00
2024-06-07 00:25:50.480558,0,0,101,0,0,0,73,77,130,120,30,121.89,119,-36.00,27.00,-1040.00
2024-06-07 00:25:50.562870,0,0,95,0,0,0,73,77,130,120,30,121.91,119,-2.00,4.00,-971.00
2024-06-07 00:25:50.685330,0,0,89,0,0,0,73,77,130,120,30,121.89,119,20.00,-18.00,-1034.00
2024-06-07 00:25:50.767431,0,0,82,0,0,0,73,77,130,120,30,121.88,119,0.00,-25.00,-995.00
2024-06-07 00:25:50.890065,0,0,76,0,0,0,74,76,129,120,30,121.91,119,-19.00,-10.00,-983.00
2024-06-07 00:25:50.970846,0,0,70,0,0,0,74,76,129,120,30,121.91,119,19.00,-20.00,-996.00
2024-06-07 00:25:51.094898,0,0,64,0,0,0,74,76,128,120,30,121.94,119,11.00,-19.00,-1025.00
2024-06-07 00:25:51.174797,0,0,58,0,0,0,74,76,129,120,30,121.90,119,7.00,7.00,-953.00
2024-06-07 00:25:51.277286,0,0,52,0,0,0,74,76,128,120,30,121.91,120,37.00,-16.00,-955.00
2024-06-07 00:25:51.378788,0,0,46,0,0,0,74,76,128,120,30,121.92,120,-18.00,11.00,-1014.00
2024-06-07 00:25:51.504496,0,0,40,0,0,0,74,76,128,120,30,121.86,120,-65.00,29.00,-1011.00
2024-06-07 00:25:51.582759,0,0,34,0,0,0,74,76,128,120,30,121.88,120,15.00,-14.00,-1050.00
2024-06-07 00:25:51.709609,0,0,27,0,0,0,74,76,128,120,30,121.84,120,-7.00,0.00,-967.00
2024-06-07 00:25:51.787169,0,0,21,0,0,0,74,76,127,120,30,121.89,120,-23.00,5.00,-1021.00
2024-06-07 00:25:51.913973,0,0,16,0,0,0,73,76,126,120,30,121.86,120,26.00,-9.00,-1030.00
2024-06-07 00:25:51.990751,0,0,11,0,0,0,73,76,126,120,30,121.84,120,7.00,-24.00,-1040.00
2024-06-07 00:25:52.132769,0,0,8,0,0,0,73,76,126,120,30,121.91,120,-31.00,14.00,-983.00
2024-06-07 00:25:52.274938,0,0,5,0,0,0,73,76,126,120,30,121.86,120,16.00,0.00,-1085.00
2024-06-07 00:25:52.296676,0,0,3,0,0,0,73,76,127,120,30,121.82,121,13.00,4.00,-983.00
2024-06-07 00:25:52.402764,0,0,1,0,0,0,73,76,127,120,30,121.90,121,-4.00,22.00,-1016.00
2024-06-07 00:25:52.501191,0,0,0,0,0,0,73,76,128,120,30,121.94,121,36.00,-5.00,-975.00
2024-06-07 00:25:52.570948,0,0,0,0,0,0,73,76,129,120,30,121.87,121,-20.00,-2.00,-998.00
2024-06-07 00:25:52.653880,0,0,0,0,0,0,73,76,129,120,30,121.87,121,8.00,-10.00,-982.00
2024-06-07 00:25:52.838051,0,0,0,0,0,0,73,76,129,120,30,121.89,121,2.00,-8.00,-993.00
2024-06-07 00:25:52.903601,-1,0,0,0,0,0,74,77,130,120,30,121.94,121,-26.00,12.00,-946.00
2024-06-07 00:25:53.062315,-1,0,0,0,0,0,74,77,130,120,30,121.93,121,-42.00,-6.00,-1033.00
2024-06-07 00:25:53.062497,0,0,0,0,0,0,74,77,131,120,30,121.92,121,10.00,-23.00,-1003.00
2024-06-07 00:25:53.245764,0,0,0,0,0,0,74,77,132,120,30,121.95,121,21.00,-10.00,-1079.00
2024-06-07 00:25:53.359020,0,0,0,0,0,0,74,77,132,120,30,121.92,122,2.00,-16.00,-986.00
2024-06-07 00:25:53.368192,0,0,0,0,0,0,74,77,132,120,30,121.92,122,-2.00,-18.00,-997.00
2024-06-07 00:25:53.501993,0,0,0,0,0,0,74,77,132,120,30,121.96,122,2.00,1.00,-1017.00
2024-06-07 00:25:53.665959,0,0,0,0,0,0,74,77,132,120,30,121.94,122,9.00,-15.00,-983.00
2024-06-07 00:25:53.674161,0,0,0,0,0,0,74,77,131,120,30,121.92,122,-11.00,21.00,-958.00
2024-06-07 00:25:53.809215,0,0,0,0,0,0,74,77,131,120,30,121.92,122,20.00,11.00,-979.00
2024-06-07 00:25:53.973086,0,0,0,0,0,0,74,77,130,120,30,121.92,122,10.00,-12.00,-1014.00
2024-06-07 00:25:53.979602,0,0,0,0,0,0,74,77,130,120,30,121.93,122,12.00,-6.00,-1072.00
2024-06-07 00:25:54.127584,0,0,0,0,0,0,74,77,129,120,30,121.88,122,-60.00,5.00,-1082.00
2024-06-07 00:25:54.192789,0,0,0,0,0,0,74,77,128,120,30,121.93,122,5.00,5.00,-1047.00
2024-06-07 00:25:54.285600,0,0,0,0,0,0,74,77,129,120,30,121.87,123,22.00,4.00,-1006.00
2024-06-07 00:25:54.474041,0,0,0,0,0,0,74,77,128,120,30,121.95,123,-39.00,29.00,-960.00
2024-06-07 00:25:54.489412,0,0,0,0,0,0,74,77,128,120,30,121.95,123,9.00,-16.00,-1074.00
2024-06-07 00:25:54.679689,0,0,0,0,0,0,74,77,128,120,30,121.96,123,26.00,8.00,-935.00
2024-06-07 00:25:54.693529,0,0,0,0,0,0,74,77,129,120,30,121.92,123,-23.00,-6.00,-1005.00
2024-06-07 00:25:54.883722,0,0,0,0,0,0,74,77,130,120,30,121.95,123,-10.00,13.00,-996.00
2024-06-07 00:25:54.897468,0,0,0,0,0,0,74,76,130,120,30,121.89,123,-28.00,-3.00,-1008.00
2024-06-07 00:25:55.088411,0,0,0,0,0,0,74,76,131,120,30,121.87,123,-23.00,9.00,-1006.00
2024-06-07 00:25:55.101786,0,0,0,0,0,0,74,76,131,120,30,121.95,123,3.00,8.00,-939.00
2024-06-07 00:25:55.293178,0,0,0,0,0,0,74,76,132,120,30,121.91,124,-10.00,13.00,-1001.00
2024-06-07 00:25:55.305473,0,0,0,0,0,0,74,76,131,120,30,121.92,124,-11.00,-8.00,-979.00
2024-06-07 00:25:55.407605,0,0,0,0,0,0,74,76,131,120,30,121.93,124,-38.00,23.00,-1001.00
2024-06-07 00:25:55.600748,0,0,0,0,0,0,74,76,131,120,30,121.87,124,3.00,-33.00,-964.00
2024-06-07 00:25:55.611801,0,0,0,0,0,0,74,76,129,120,30,121.88,124,0.00,-2.00,-958.00
2024-06-07 00:25:55.805636,0,0,0,0,0,0,74,76,129,120,30,121.84,124,1.00,-3.00,-962.00
2024-06-07 00:25:55.815672,0,0,0,0,0,0,74,76,128,120,30,121.90,124,-24.00,16.00,-1035.00
2024-06-07 00:25:56.009946,0,0,0,0,0,0,74,76,128,120,30,121.90,124,27.00,-4.00,-988.00
2024-06-07 00:25:56.019839,0,0,0,0,0,0,74,76,128,120,30,121.85,124,0.00,10.00,-993.00
2024-06-07 00:25:56.214776,0,0,0,0,0,0,74,76,127,120,29,121.91,124,-4.00,-4.00,-1007.00
2024-06-07 00:25:56.223424,0,0,0,0,0,0,74,76,127,120,29,121.92,125,-25.00,24.00,-1020.00
2024-06-07 00:25:56.275155,0,0,0,0,0,0,74,76,127,120,29,121.90,125,14.00,-11.00,-987.00
2024-06-07 00:25:56.419495,0,0,0,0,0,0,74,76,127,120,29,121.91,125,-20.00,-1.00,-1029.00
2024-06-07 00:25:56.478536,0,0,0,0,0,0,74,76,126,120,29,121.87,125,18.00,-8.00,-964.00
2024-06-07 00:25:56.624445,0,0,0,0,0,0,74,76,127,120,29,121.81,125,-45.00,16.00,-949.00
2024-06-07 00:25:56.683643,0,0,0,0,0,0,74,76,127,120,29,121.86,125,-62.00,21.00,-1070.00
2024-06-07 00:25:56.829202,0,0,0,0,0,0,74,76,127,120,29,121.87,125,-11.00,-2.00,-1042.00
2024-06-07 00:25:56.886436,0,0,0,0,0,0,74,76,127,120,29,121.92,125,6.00,-11.00,-984.00
2024-06-07 00:25:57.033951,0,0,0,0,0,0,74,76,127,120,29,121.93,125,26.00,-30.00,-992.00
2024-06-07 00:25:57.090364,0,0,0,0,0,0,74,76,127,120,29,121.88,125,-5.00,1.00,-1028.00
2024-06-07 00:25:57.239066,0,0,0,0,0,0,74,76,128,120,29,121.87,126,13.00,-17.00,-932.00
2024-06-07 00:25:57.296282,0,0,0,0,0,0,74,76,127,120,29,121.96,126,-42.00,1.00,-1041.00
2024-06-07 00:25:57.396322,0,0,0,0,0,0,74,76,128,120,29,121.92,126,27.00,-13.00,-999.00
2024-06-07 00:25:57.499093,0,0,0,0,0,0,74,76,129,120,29,121.92,126,17.00,-6.00,-1055.00
2024-06-07 00:25:57.600330,0,0,0,0,0,0,74,76,128,120,29,121.90,126,-20.00,10.00,-940.00
2024-06-07 00:25:57.750668,0,0,0,0,0,0,74,76,129,120,29,121.89,126,-7.00,-4.00,-1026.00
2024-06-07 00:25:57.804163,0,0,0,0,0,0,74,76,129,120,29,121.93,126,-4.00,0.00,-989.00
2024-06-07 00:25:57.955476,0,0,0,0,0,0,74,76,129,120,29,121.92,126,-19.00,-7.00,-1021.00
2024-06-07 00:25:58.008342,0,0,0,0,0,0,74,76,128,120,29,121.96,126,6.00,-12.00,-951.00
2024-06-07 00:25:58.160695,0,0,0,0,0,0,74,76,129,120,29,121.90,126,-27.00,0.00,-1033.00
2024-06-07 00:25:58.212783,0,0,0,0,0,0,74,76,129,120,29,121.93,127,25.00,-4.00,-1021.00
2024-06-07 00:25:58.314138,0,0,0,0,0,0,74,76,129,120,29,121.97,127,-19.00,-3.00,-964.00
2024-06-07 00:25:58.467426,0,0,0,0,0,0,74,76,129,120,29,121.99,127,-43.00,-2.00,-1019.00
2024-06-07 00:25:58.518187,0,0,0,0,0,0,74,76,129,120,29,121.97,127,-14.00,4.00,-1007.00
2024-06-07 00:25:58.620247,0,0,0,0,0,0,74,76,129,120,29,122.01,127,22.00,-7.00,-935.00
2024-06-07 00:25:58.722798,0,0,0,0,0,0,74,76,129,120,29,121.95,127,-29.00,4.00,-1030.00
2024-06-07 00:25:58.825161,0,0,0,0,0,0,74,76,129,120,29,121.97,127,32.00,-39.00,-991.00
2024-06-07 00:25:58.926185,0,0,0,0,0,0,74,77,129,120,29,121.92,127,-2.00,-9.00,-915.00
2024-06-07 00:25:59.028159,0,0,0,0,0,0,74,77,129,120,29,121.95,127,9.00,-18.00,-1010.00
2024-06-07 00:25:59.130100,0,0,0,0,0,0,74,77,128,120,29,121.97,127,7.00,-5.00,-980.00
2024-06-07 00:25:59.286703,0,0,0,0,0,0,74,77,127,120,29,121.88,128,-38.00,17.00,-1041.00
2024-06-07 00:25:59.335278,0,0,0,0,0,0,74,77,127,120,29,122.00,128,1.00,1.00,-1095.00
2024-06-07 00:25:59.491483,0,0,0,0,0,0,74,77,127,120,29,121.88,128,-38.00,14.00,-995.00
2024-06-07 00:25:59.539151,0,0,0,0,0,0,74,77,127,120,29,121.85,128,23.00,-11.00,-1058.00
2024-06-07 00:25:59.696193,0,0,0,0,0,0,74,77,127,120,29,121.88,128,12.00,4.00,-955.00
2024-06-07 00:25:59.743561,0,0,0,0,0,0,74,77,127,120,29,121.86,128,-12.00,-7.00,-1022.00
2024-06-07 00:25:59.901043,0,0,0,0,0,0,74,77,125,120,29,121.84,128,-9.00,7.00,-989.00
2024-06-07 00:25:59.947114,0,0,0,0,0,0,74,76,126,120,29,121.88,128,-15.00,-6.00,-1063.00
2024-06-07 00:26:00.106030,0,0,0,0,0,0,74,76,126,120,29,121.84,128,20.00,10.00,-1002.00
2024-06-07 00:26:00.151931,0,0,0,0,0,0,74,76,125,120,29,121.85,128,0.00,-14.00,-991.00
2024-06-07 00:26:00.203636,0,0,0,0,0,0,74,76,125,120,29,121.84,129,25.00,-32.00,-1026.00
2024-06-07 00:26:00.305946,0,0,0,0,0,0,74,76,125,120,29,121.88,129,-1.00,6.00,-1015.00
2024-06-07 00:26:00.406107,0,0,0,0,0,0,74,76,125,120,29,121.84,129,-2.00,-9.00,-996.00
2024-06-07 00:26:00.508108,0,0,0,0,0,0,74,76,125,120,29,121.79,129,18.00,-30.00,-990.00
2024-06-07 00:26:00.610018,0,0,0,0,0,0,74,76,125,120,29,121.82,129,-9.00,-1.00,-1004.00
2024-06-07 00:26:00.720201,0,0,0,0,0,0,74,76,124,120,29,121.87,129,7.00,-3.00,-963.00
2024-06-07 00:26:00.814074,0,0,0,0,0,0,74,76,124,120,29,121.82,129,-26.00,4.00,-985.00
2024-06-07 00:26:00.925041,0,0,0,0,0,0,74,76,124,120,29,121.84,129,-39.00,5.00,-1062.00
2024-06-07 00:26:01.018512,0,0,0,0,0,0,74,76,124,120,29,121.86,129,-36.00,12.00,-1011.00
2024-06-07 00:26:01.129806,0,0,0,0,0,0,74,76,124,120,29,121.88,129,-20.00,-18.00,-1030.00
2024-06-07 00:26:01.222149,0,0,0,0,0,0,74,76,124,120,29,121.89,130,-5.00,-3.00,-1000.00
2024-06-07 00:26:01.324137,0,0,0,0,0,0,74,76,124,120,29,121.84,130,8.00,-2.00,-986.00
2024-06-07 00:26:01.436995,0,0,0,0,0,0,74,76,124,120,29,121.88,130,-4.00,-18.00,-1025.00
2024-06-07 00:26:01.528094,0,0,0,0,0,0,74,76,125,120,29,121.89,130,-19.00,18.00,-990.00
2024-06-07 00:26:01.641747,0,0,0,0,0,0,74,76,125,120,29,121.93,130,26.00,-17.00,-1000.00
2024-06-07 00:26:01.733105,0,0,0,0,0,0,74,76,125,120,29,121.88,130,25.00,-7.00,-973.00
2024-06-07 00:26:01.846590,0,0,0,0,0,0,74,76,125,120,29,121.85,130,16.00,2.00,-938.00
2024-06-07 00:26:01.937636,0,0,0,0,0,0,73,76,125,120,29,121.90,130,33.00,-42.00,-1019.00
2024-06-07 00:26:02.051353,0,0,0,0,0,0,73,76,126,120,29,121.91,130,-14.00,13.00,-978.00
2024-06-07 00:26:02.140570,0,0,0,0,0,0,73,76,126,120,29,121.92,130,10.00,3.00,-1014.00
2024-06-07 00:26:02.256066,0,0,0,0,0,0,73,76,127,120,29,121.87,131,3.00,0.00,-989.00
2024-06-07 00:26:02.345322,0,0,0,0,0,0,73,76,127,120,29,121.91,131,-11.00,2.00,-961.00
2024-06-07 00:26:02.446326,0,0,0,0,0,0,73,76,127,120,29,121.87,131,-20.00,8.00,-974.00
2024-06-07 00:26:02.563308,0,0,0,0,0,0,73,76,128,120,29,121.87,131,0.00,1.00,-984.00
2024-06-07 00:26:02.649872,0,0,0,0,0,0,73,76,128,120,29,121.90,131,-19.00,33.00,-995.00
2024-06-07 00:26:02.767999,0,0,0,0,0,0,73,76,129,120,29,121.91,131,-23.00,25.00,-989.00
2024-06-07 00:26:02.853803,0,0,0,0,0,0,73,76,129,120,29,121.81,131,15.00,2.00,-994.00
2024-06-07 00:26:02.972817,0,0,0,0,0,0,75,77,129,120,29,121.91,131,33.00,-23.00,-989.00
2024-06-07 00:26:03.057900,0,0,0,0,0,0,75,77,130,120,29,121.92,131,-21.00,11.00,-991.00
2024-06-07 00:26:03.177593,0,0,0,0,0,0,75,77,130,120,29,121.91,131,-56.00,16.00,-995.00
2024-06-07 00:26:03.262084,0,0,0,0,0,0,75,77,131,120,29,121.95,132,6.00,-8.00,-984.00
2024-06-07 00:26:03.363924,0,0,0,0,0,0,75,77,131,120,29,121.89,132,-5.00,-3.00,-1008.00
2024-06-07 00:26:03.465893,0,0,0,0,0,0,75,77,131,120,29,121.96,132,27.00,-24.00,-928.00
2024-06-07 00:26:03.567850,0,0,0,0,0,0,75,77,132,120,29,121.91,132,26.00,4.00,-1026.00
2024-06-07 00:26:03.689775,0,0,0,0,0,0,75,77,131,120,29,121.96,132,-14.00,13.00,-985.00
2024-06-07 00:26:03.722369,0,0,0,0,0,0,75,77,131,120,29,121.97,132,1.00,-1.00,-986.00
2024-06-07 00:26:03.822886,0,0,0,0,0,0,75,77,131,120,29,121.95,132,19.00,-9.00,-1049.00
2024-06-07 00:26:03.996826,0,0,0,0,0,0,74,76,131,120,29,121.95,132,14.00,-11.00,-968.00
2024-06-07 00:26:04.077816,0,0,0,0,0,0,74,76,131,120,29,121.93,132,-14.00,-25.00,-1003.00
2024-06-07 00:26:04.129549,0,0,0,0,0,0,74,76,131,120,29,121.91,132,15.00,-6.00,-951.00
2024-06-07 00:26:04.304437,0,0,0,0,0,0,74,76,131,120,29,121.89,133,2.00,-6.00,-970.00
2024-06-07 00:26:04.334197,0,0,0,0,0,0,74,76,130,120,29,121.98,133,56.00,-35.00,-934.00
2024-06-07 00:26:04.434767,0,0,0,0,0,0,74,76,131,120,29,121.97,133,-19.00,-4.00,-1025.00
2024-06-07 00:26:04.611158,0,0,0,0,0,0,74,76,131,120,29,121.90,133,-34.00,14.00,-1030.00
2024-06-07 00:26:04.638720,0,0,0,0,0,0,74,76,130,120,29,121.90,133,0.00,-7.00,-1013.00
