TS,pitch,roll,yaw,vgx,vgy,vgz,templ,temph,tof,h,bat,baro,time,agx,agy,agz
2024-06-07 00:26:31.008464,0,0,-8,0,0,0,77,79,10,0,28,120.72,139,-3.00,15.00,-1001.00
2024-06-07 00:26:31.132136,0,0,-8,0,0,0,77,80,10,0,28,120.71,139,-3.00,17.00,-999.00
2024-06-07 00:26:31.212699,0,0,-8,0,0,0,77,80,10,0,28,120.74,139,-1.00,15.00,-999.00
2024-06-07 00:26:31.314747,0,0,-8,0,0,0,77,80,10,0,28,120.68,139,-4.00,16.00,-998.00
2024-06-07 00:26:31.416453,0,0,-8,0,0,0,77,80,10,0,28,120.67,139,-2.00,15.00,-999.00
2024-06-07 00:26:31.541010,0,0,-8,0,0,0,77,80,10,0,28,120.72,139,-3.00,15.00,-998.00
2024-06-07 00:26:31.620696,0,0,-8,0,0,0,77,80,10,0,28,120.71,139,-2.00,14.00,-999.00
2024-06-07 00:26:31.671265,0,0,-8,0,0,0,77,80,10,0,28,120.70,139,-3.00,13.00,-1000.00
2024-06-07 00:26:31.848244,0,0,-8,0,0,0,77,80,10,0,28,120.71,139,-2.00,15.00,-1000.00
2024-06-07 00:26:31.875733,0,0,-8,0,0,0,77,80,10,0,28,120.69,139,-2.00,16.00,-1002.00
2024-06-07 00:26:32.053558,0,0,-8,0,0,0,77,80,10,0,28,120.74,139,-2.00,14.00,-999.00
2024-06-07 00:26:32.079412,0,0,-8,0,0,0,77,80,10,0,28,120.71,139,-3.00,15.00,-999.00
2024-06-07 00:26:32.257862,0,0,-8,0,0,0,77,80,10,0,28,120.73,139,-2.00,16.00,-999.00
2024-06-07 00:26:32.284181,0,0,-8,0,0,0,77,80,10,0,28,120.69,139,-4.00,15.00,-1002.00
2024-06-07 00:26:32.385310,0,0,-8,0,0,0,77,80,10,0,28,120.68,139,-3.00,16.00,-1001.00
2024-06-07 00:26:32.565106,0,0,-8,0,0,0,77,80,10,0,28,120.72,139,-3.00,15.00,-999.00
2024-06-07 00:26:32.589194,0,0,-8,0,0,0,77,80,10,0,28,120.74,139,-5.00,16.00,-1000.00
2024-06-07 00:26:32.770959,0,0,-8,0,0,0,77,80,10,0,28,120.80,139,-3.00,17.00,-997.00
2024-06-07 00:26:32.793265,0,0,-8,0,0,0,77,80,10,0,28,120.69,139,-2.00,14.00,-998.00
2024-06-07 00:26:32.974754,0,0,-8,0,0,0,77,80,10,0,28,120.70,139,-4.00,14.00,-999.00
2024-06-07 00:26:32.997205,0,0,-8,0,0,0,77,80,10,0,28,120.77,139,-3.00,17.00,-997.00
2024-06-07 00:26:33.179517,0,0,-8,0,0,0,77,80,10,0,28,120.76,139,-3.00,15.00,-997.00
2024-06-07 00:26:33.201210,0,0,-8,0,0,0,77,80,10,0,28,120.72,139,-3.00,16.00,-999.00
2024-06-07 00:26:33.384371,0,0,-8,0,0,0,77,80,10,0,28,120.74,139,-2.00,15.00,-999.00
2024-06-07 00:26:33.405012,0,0,-8,0,0,0,77,80,10,0,28,120.74,139,-3.00,17.00,-998.00
2024-06-07 00:26:33.589195,0,0,-8,0,0,0,77,80,10,0,28,120.71,139,-3.00,15.00,-1000.00
2024-06-07 00:26:33.609433,0,0,-8,0,0,0,77,80,10,0,28,120.77,139,-3.00,14.00,-998.00
2024-06-07 00:26:33.793959,0,0,-8,0,0,0,77,80,10,0,28,120.72,139,-4.00,14.00,-1001.00
2024-06-07 00:26:33.813132,0,0,-8,0,0,0,77,80,10,0,28,120.73,139,-1.00,16.00,-1000.00
2024-06-07 00:26:33.998514,0,0,-8,0,0,0,77,80,10,0,28,120.73,139,-2.00,15.00,-999.00
2024-06-07 00:26:34.017050,0,0,-8,0,0,0,77,80,10,0,28,120.72,139,-2.00,13.00,-1000.00
2024-06-07 00:26:34.204747,0,0,-8,0,0,0,78,80,10,0,28,120.72,139,-2.00,13.00,-1001.00
2024-06-07 00:26:34.221614,0,0,-8,0,0,0,78,80,10,0,28,120.72,140,-1.00,16.00,-998.00
2024-06-07 00:26:34.405407,0,0,-8,0,0,0,78,80,10,0,28,120.72,140,-3.00,14.00,-999.00
2024-06-07 00:26:34.424998,0,0,-8,0,0,0,78,80,10,0,28,120.72,140,-6.00,20.00,-1002.00
2024-06-07 00:26:34.613233,0,0,-6,0,0,0,78,80,10,0,28,120.72,140,4.00,8.00,-1001.00
2024-06-07 00:26:34.628909,0,0,-5,0,0,0,78,80,10,0,28,120.72,140,-22.00,5.00,-1004.00
2024-06-07 00:26:34.817709,0,0,-5,0,0,0,78,80,10,0,28,120.72,140,-43.00,-24.00,-1043.00
2024-06-07 00:26:34.832999,0,0,-4,0,0,-1,78,80,10,0,28,120.72,140,-27.00,9.00,-969.00
2024-06-07 00:26:34.934937,0,0,-4,0,0,-3,78,80,11,0,28,120.72,140,18.00,-11.00,-1078.00
2024-06-07 00:26:35.128109,0,0,-4,0,0,-5,78,80,18,0,28,120.90,140,-37.00,-12.00,-1196.00
2024-06-07 00:26:35.139076,-1,0,-4,0,0,-6,78,81,26,0,28,121.16,140,9.00,-19.00,-1093.00
2024-06-07 00:26:35.330436,0,0,-4,0,0,-7,78,81,35,0,28,121.19,141,-11.00,9.00,-1112.00
2024-06-07 00:26:35.342937,0,0,-4,0,0,-7,78,81,40,10,28,121.30,141,-22.00,-10.00,-986.00
2024-06-07 00:26:35.534373,0,0,-4,0,0,-7,78,81,50,10,28,121.35,141,4.00,12.00,-931.00
2024-06-07 00:26:35.548052,0,0,-4,0,0,-6,78,81,59,20,28,121.52,141,-17.00,9.00,-913.00
2024-06-07 00:26:35.598951,0,0,-4,0,0,-5,78,81,66,30,28,121.56,141,-50.00,22.00,-899.00
2024-06-07 00:26:35.741091,0,0,-4,0,0,-4,78,81,73,30,28,121.62,141,-23.00,-6.00,-844.00
2024-06-07 00:26:35.803859,0,0,-4,0,0,-3,78,81,79,30,28,121.72,141,-35.00,4.00,-875.00
2024-06-07 00:26:35.944111,0,0,-4,0,0,-2,78,81,84,40,28,121.75,141,-9.00,0.00,-888.00
2024-06-07 00:26:36.006958,0,0,-4,0,0,-1,78,81,87,40,28,121.82,141,-15.00,4.00,-891.00
2024-06-07 00:26:36.148844,0,0,-4,0,0,0,78,81,90,40,28,121.85,141,21.00,-27.00,-902.00
2024-06-07 00:26:36.210916,0,0,-4,0,0,0,78,81,92,50,28,121.86,142,-25.00,3.00,-916.00
2024-06-07 00:26:36.353624,0,0,-4,0,0,0,78,81,94,50,28,121.89,142,-32.00,-10.00,-959.00
2024-06-07 00:26:36.414852,0,0,-4,0,0,0,78,81,95,50,28,121.84,142,9.00,-30.00,-933.00
2024-06-07 00:26:36.558719,0,0,-4,0,0,0,78,81,95,50,28,121.85,142,-12.00,25.00,-964.00
2024-06-07 00:26:36.618914,0,0,-4,0,0,0,78,81,96,50,28,121.84,142,14.00,9.00,-988.00
2024-06-07 00:26:36.763273,0,0,-4,0,0,1,78,81,95,50,28,121.86,142,-7.00,16.00,-961.00
2024-06-07 00:26:36.822907,0,0,-4,0,0,1,78,81,95,50,28,121.91,142,7.00,-24.00,-999.00
2024-06-07 00:26:36.968075,0,0,-4,0,0,0,78,81,95,50,28,121.89,142,-1.00,5.00,-954.00
2024-06-07 00:26:37.109697,0,0,-4,0,0,1,78,81,94,50,28,121.88,142,1.00,5.00,-976.00
2024-06-07 00:26:37.128813,0,0,-4,0,0,1,77,80,93,50,28,121.87,142,-21.00,21.00,-955.00
2024-06-07 00:26:37.288198,0,0,-4,0,0,1,77,80,93,50,28,121.89,143,-44.00,0.00,-1018.00
2024-06-07 00:26:37.392219,0,0,-4,0,0,0,77,80,92,50,28,121.88,143,-28.00,-11.00,-1032.00
2024-06-07 00:26:37.463691,0,0,-5,0,0,0,77,80,91,50,28,121.93,143,-32.00,-7.00,-1005.00
2024-06-07 00:26:37.558972,0,0,-5,0,0,0,77,80,90,50,28,121.86,143,3.00,-26.00,-962.00
2024-06-07 00:26:37.638733,0,0,-5,0,0,1,77,80,88,50,28,121.85,143,-48.00,17.00,-942.00
2024-06-07 00:26:37.745394,0,0,-5,0,0,1,77,80,86,50,28,121.80,143,35.00,-35.00,-973.00
2024-06-07 00:26:37.896925,0,0,-4,0,0,1,77,80,84,50,28,121.81,143,-28.00,12.00,-1016.00
2024-06-07 00:26:37.948129,0,0,-4,0,0,1,77,80,82,50,28,121.81,143,18.00,8.00,-1021.00
2024-06-07 00:26:38.091481,0,0,-4,0,0,1,77,80,80,40,28,121.80,143,-40.00,18.00,-1019.00
2024-06-07 00:26:38.254289,0,0,-4,0,0,0,78,80,79,40,28,121.78,143,-13.00,24.00,-1004.00
2024-06-07 00:26:38.254369,0,0,-4,0,0,0,78,80,77,40,28,121.76,144,-24.00,-4.00,-1030.00
2024-06-07 00:26:38.397608,0,0,-4,0,0,0,78,80,75,40,28,121.71,144,-24.00,-6.00,-1027.00
2024-06-07 00:26:38.541049,0,0,-4,0,0,0,78,80,74,40,28,121.72,144,34.00,9.00,-997.00
2024-06-07 00:26:38.556728,0,0,-4,0,0,0,78,80,73,40,28,121.73,144,49.00,-9.00,-985.00
2024-06-07 00:26:38.684400,0,0,-4,0,0,0,78,80,72,40,28,121.76,144,2.00,0.00,-1026.00
2024-06-07 00:26:38.827827,0,0,-4,0,0,0,78,80,71,40,28,121.71,144,29.00,5.00,-1011.00
2024-06-07 00:26:38.980320,0,0,-4,0,0,0,78,80,70,40,28,121.69,144,-11.00,8.00,-1018.00
2024-06-07 00:26:38.980413,0,0,-4,0,0,0,78,80,70,30,28,121.71,144,-1.00,10.00,-1009.00
2024-06-07 00:26:39.066597,0,0,-4,0,0,0,78,80,70,30,28,121.68,144,-24.00,2.00,-1020.00
2024-06-07 00:26:39.168620,0,0,-4,0,0,0,78,80,70,30,28,121.61,144,-39.00,34.00,-1008.00
2024-06-07 00:26:39.270562,0,0,-4,0,0,0,78,80,70,30,28,121.69,145,-14.00,-9.00,-1052.00
2024-06-07 00:26:39.372547,0,0,-4,0,0,0,78,80,71,30,28,121.60,145,-5.00,-10.00,-941.00
2024-06-07 00:26:39.527857,0,0,-4,0,0,0,78,80,71,30,28,121.72,145,-19.00,12.00,-1009.00
2024-06-07 00:26:39.576740,0,0,-4,0,0,0,78,80,72,30,28,121.63,145,-9.00,18.00,-976.00
2024-06-07 00:26:39.627652,0,0,-4,0,0,0,78,80,72,30,28,121.68,145,-34.00,-5.00,-978.00
2024-06-07 00:26:39.732622,0,0,-4,0,0,0,78,80,73,30,28,121.76,145,-10.00,29.00,-1004.00
2024-06-07 00:26:39.831712,0,0,-4,0,0,0,78,80,74,40,28,121.76,145,-13.00,20.00,-970.00
2024-06-07 00:26:39.937419,0,0,-4,0,0,0,78,80,74,40,28,121.76,145,9.00,-2.00,-991.00
2024-06-07 00:26:40.035643,0,0,-4,0,0,0,78,80,74,40,28,121.74,145,22.00,-11.00,-980.00
2024-06-07 00:26:40.142174,0,0,-4,0,0,0,77,80,74,40,28,121.74,145,-52.00,13.00,-981.00
2024-06-07 00:26:40.240476,0,0,-4,0,0,0,77,80,73,40,28,121.69,146,-46.00,25.00,-935.00
2024-06-07 00:26:40.346981,0,0,-4,0,0,0,77,80,73,40,28,121.75,146,11.00,4.00,-969.00
2024-06-07 00:26:40.445162,0,0,-4,0,0,0,77,80,73,40,28,121.76,146,3.00,-16.00,-1031.00
2024-06-07 00:26:40.545805,0,0,-4,0,0,0,77,80,73,40,28,121.71,146,-26.00,20.00,-1015.00
2024-06-07 00:26:40.654153,0,0,-4,0,0,0,77,80,72,40,28,121.69,146,-8.00,-4.00,-1006.00
2024-06-07 00:26:40.749638,0,0,-4,0,0,0,77,80,72,40,28,121.72,146,-20.00,23.00,-989.00
2024-06-07 00:26:40.858989,0,0,-4,0,0,0,77,80,71,40,28,121.70,146,-4.00,13.00,-976.00
2024-06-07 00:26:40.953774,0,0,-4,0,0,0,77,80,71,40,28,121.68,146,0.00,0.00,-1051.00
2024-06-07 00:26:41.063797,0,0,-4,0,0,0,77,80,70,40,28,121.62,146,-36.00,0.00,-1006.00
2024-06-07 00:26:41.157568,0,0,-4,0,0,0,77,80,68,40,28,121.61,146,-6.00,13.00,-1034.00
2024-06-07 00:26:41.268618,0,0,-4,0,0,0,77,80,68,30,28,121.67,147,-12.00,-12.00,-978.00
2024-06-07 00:26:41.361778,0,0,-4,0,0,0,77,80,67,30,28,121.60,147,16.00,1.00,-1086.00
2024-06-07 00:26:41.473420,0,0,-4,0,0,0,77,80,66,30,28,121.65,147,-29.00,3.00,-1037.00
2024-06-07 00:26:41.566445,0,0,-4,0,0,0,77,80,65,30,28,121.64,147,-1.00,3.00,-1039.00
2024-06-07 00:26:41.678120,0,0,-4,0,0,0,77,80,65,30,28,121.63,147,-24.00,-1.00,-1047.00
2024-06-07 00:26:41.771185,0,0,-4,0,0,0,77,80,64,30,28,121.63,147,0.00,-11.00,-988.00
2024-06-07 00:26:41.883029,0,0,-4,0,0,0,77,80,63,30,28,121.65,147,1.00,-7.00,-1066.00
2024-06-07 00:26:41.974458,0,0,-4,0,0,0,77,80,62,30,28,121.60,147,-6.00,35.00,-1008.00
2024-06-07 00:26:42.087775,0,0,-4,0,0,0,77,80,61,30,28,121.60,147,-25.00,14.00,-966.00
2024-06-07 00:26:42.180533,0,0,-4,0,0,0,78,80,60,30,28,121.62,147,-64.00,27.00,-1021.00
2024-06-07 00:26:42.280951,0,0,-4,0,0,1,78,80,59,30,28,121.61,148,7.00,-19.00,-1020.00
2024-06-07 00:26:42.394969,0,0,-4,0,0,0,78,80,59,20,28,121.60,148,24.00,-42.00,-1019.00
2024-06-07 00:26:42.485032,0,0,-4,0,0,0,78,80,58,20,28,121.63,148,-3.00,20.00,-1029.00
2024-06-07 00:26:42.599773,0,0,-4,0,0,0,78,80,58,20,28,121.60,148,-24.00,4.00,-1001.00
2024-06-07 00:26:42.688816,0,0,-4,0,0,0,78,80,59,20,28,121.62,148,-2.00,-3.00,-1067.00
2024-06-07 00:26:42.804594,0,0,-4,0,0,0,78,80,59,30,28,121.61,148,-42.00,10.00,-1039.00
2024-06-07 00:26:42.892440,0,0,-4,0,0,0,78,80,60,30,28,121.65,148,-8.00,-2.00,-964.00
2024-06-07 00:26:43.009454,0,0,-4,0,0,0,78,80,60,30,28,121.67,148,-10.00,10.00,-989.00
2024-06-07 00:26:43.096606,0,0,-4,0,0,0,78,80,61,30,28,121.67,148,-54.00,29.00,-1034.00
2024-06-07 00:26:43.214086,0,0,-4,0,0,0,78,80,62,30,28,121.70,148,-39.00,31.00,-1013.00
2024-06-07 00:26:43.300451,0,-1,-4,0,0,0,78,80,62,30,28,121.65,149,-22.00,0.00,-1035.00
2024-06-07 00:26:43.405711,0,0,-4,0,0,0,78,80,63,30,28,121.72,149,-37.00,9.00,-1006.00
2024-06-07 00:26:43.504443,0,0,-4,0,0,0,78,80,63,30,28,121.67,149,-21.00,8.00,-965.00
2024-06-07 00:26:43.556834,0,0,-4,0,0,0,78,80,64,30,28,121.65,149,-30.00,13.00,-994.00
2024-06-07 00:26:43.728076,0,0,-4,0,0,0,78,80,64,30,28,121.69,149,-7.00,19.00,-1004.00
2024-06-07 00:26:43.761132,0,0,-4,0,0,0,78,80,64,30,28,121.66,149,-39.00,18.00,-935.00
2024-06-07 00:26:43.861876,0,0,-4,0,0,0,78,80,64,30,28,121.74,149,-43.00,32.00,-961.00
2024-06-07 00:26:44.033754,0,0,-4,0,0,0,78,80,65,30,28,121.65,149,-35.00,22.00,-982.00
2024-06-07 00:26:44.065538,0,0,-4,0,0,0,78,80,65,30,28,121.68,149,-20.00,14.00,-995.00
2024-06-07 00:26:44.238242,0,0,-4,0,0,0,78,80,66,30,28,121.69,149,3.00,-3.00,-998.00
2024-06-07 00:26:44.269378,0,0,-4,0,0,0,78,80,66,30,28,121.67,150,14.00,1.00,-989.00
2024-06-07 00:26:44.443168,0,0,-4,0,0,0,78,80,67,30,28,121.66,150,3.00,9.00,-968.00
2024-06-07 00:26:44.473709,0,0,-4,0,0,0,78,80,67,30,28,121.71,150,-15.00,8.00,-997.00
2024-06-07 00:26:44.647686,0,0,-4,0,0,0,78,80,68,30,28,121.72,150,-29.00,34.00,-1014.00
2024-06-07 00:26:44.678543,0,0,-4,0,0,0,78,80,68,30,28,121.72,150,-44.00,30.00,-1038.00
2024-06-07 00:26:44.807030,0,0,-4,0,0,0,78,80,69,30,28,121.71,150,-32.00,32.00,-956.00
2024-06-07 00:26:44.883511,0,0,-4,0,0,0,78,80,69,30,28,121.79,150,-38.00,2.00,-1016.00
2024-06-07 00:26:44.983971,0,0,-4,0,0,0,78,80,69,30,28,121.77,150,-59.00,37.00,-1066.00
2024-06-07 00:26:45.085354,0,0,-4,0,0,0,78,80,70,30,28,121.73,150,-33.00,39.00,-1102.00
2024-06-07 00:26:45.262051,0,0,-4,0,0,-2,76,79,71,40,28,121.73,151,13.00,-26.00,-1114.00
2024-06-07 00:26:45.289336,0,0,-4,0,0,-3,76,79,74,40,28,121.80,151,10.00,0.00,-1044.00
2024-06-07 00:26:45.391422,-1,0,-4,0,0,-3,76,79,77,40,28,121.82,151,-17.00,0.00,-1063.00
2024-06-07 00:26:45.569287,-1,0,-5,0,0,-4,76,79,81,50,28,121.88,151,-7.00,-10.00,-1066.00
2024-06-07 00:26:45.595333,0,0,-5,0,0,-4,76,79,85,50,28,121.89,151,-16.00,-5.00,-1011.00
2024-06-07 00:26:45.774055,0,0,-5,0,0,-5,76,79,90,60,28,121.90,151,-42.00,6.00,-1099.00
2024-06-07 00:26:45.801916,-1,0,-5,0,0,-5,76,79,95,60,28,122.01,151,8.00,-6.00,-1049.00
2024-06-07 00:26:45.901346,-1,0,-5,0,0,-5,76,79,101,70,28,121.95,151,-33.00,22.00,-961.00
2024-06-07 00:26:46.081229,0,0,-5,0,0,-5,76,79,106,70,28,122.04,151,-27.00,33.00,-1014.00
2024-06-07 00:26:46.105203,0,0,-4,0,0,-5,76,79,113,80,28,122.13,151,-13.00,27.00,-998.00
2024-06-07 00:26:46.286374,0,0,-4,0,0,-5,77,79,118,80,28,122.19,152,-33.00,-9.00,-1013.00
2024-06-07 00:26:46.310738,0,0,-4,0,0,-5,77,79,125,90,28,122.25,152,-41.00,21.00,-1022.00
2024-06-07 00:26:46.411572,0,0,-4,0,0,-5,77,79,130,100,28,122.30,152,33.00,-29.00,-947.00
2024-06-07 00:26:46.593532,0,0,-5,0,0,-4,77,79,136,100,28,122.26,152,-35.00,9.00,-948.00
2024-06-07 00:26:46.615367,0,0,-5,0,0,-4,77,79,140,110,28,122.37,152,0.00,-23.00,-954.00
2024-06-07 00:26:46.798315,0,0,-4,0,0,-4,77,79,145,110,28,122.40,152,7.00,0.00,-969.00
2024-06-07 00:26:46.819228,0,0,-4,0,0,-3,77,79,150,120,28,122.47,152,-31.00,10.00,-948.00
2024-06-07 00:26:47.002776,0,0,-4,0,0,-3,77,79,154,120,28,122.49,152,-31.00,14.00,-958.00
2024-06-07 00:26:47.002831,0,0,-4,0,0,-3,77,79,157,120,28,122.54,152,26.00,-22.00,-893.00
2024-06-07 00:26:47.073967,0,0,-4,0,0,-2,77,79,161,130,28,122.58,152,-16.00,0.00,-937.00
2024-06-07 00:26:47.227196,0,0,-4,0,0,-2,76,79,163,130,28,122.53,153,-32.00,-7.00,-981.00
2024-06-07 00:26:47.278110,0,0,-4,0,0,-1,76,79,165,130,28,122.63,153,-34.00,17.00,-950.00
2024-06-07 00:26:47.380343,0,0,-5,0,0,-1,76,79,167,130,28,122.67,153,2.00,-25.00,-958.00
2024-06-07 00:26:47.517952,0,0,-5,0,0,0,76,79,169,130,28,122.68,153,21.00,0.00,-913.00
2024-06-07 00:26:47.584102,0,0,-5,0,0,0,76,79,169,130,28,122.66,153,0.00,-15.00,-935.00
2024-06-07 00:26:47.719983,0,0,-5,0,0,0,76,79,169,130,28,122.63,153,-6.00,2.00,-1016.00
2024-06-07 00:26:47.788032,0,0,-4,0,0,0,76,79,170,130,28,122.68,153,4.00,-8.00,-957.00
2024-06-07 00:26:47.924583,0,0,-4,0,0,0,76,79,170,130,28,122.69,153,-21.00,10.00,-972.00
2024-06-07 00:26:47.991976,0,0,-4,0,0,0,76,79,169,140,28,122.71,153,-7.00,-4.00,-975.00
2024-06-07 00:26:48.129261,0,0,-4,0,0,0,76,79,171,140,28,122.67,153,12.00,3.00,-1041.00
2024-06-07 00:26:48.196103,0,0,-4,0,0,0,76,79,170,140,28,122.65,154,22.00,4.00,-964.00
2024-06-07 00:26:48.334091,0,0,-4,0,0,0,76,79,170,140,28,122.72,154,-4.00,-8.00,-961.00
2024-06-07 00:26:48.400143,0,0,-4,0,0,0,76,79,171,140,28,122.72,154,38.00,-9.00,-963.00
2024-06-07 00:26:48.538944,0,0,-4,0,0,0,76,79,171,140,28,122.65,154,-39.00,6.00,-1014.00
2024-06-07 00:26:48.603912,0,0,-4,0,0,0,76,79,171,140,28,122.70,154,-20.00,15.00,-1002.00
2024-06-07 00:26:48.743903,0,0,-4,0,0,0,76,79,172,140,28,122.66,154,13.00,22.00,-1018.00
2024-06-07 00:26:48.807997,0,0,-4,0,0,0,76,79,171,140,28,122.70,154,-9.00,4.00,-1023.00
2024-06-07 00:26:48.948406,0,0,-4,0,0,0,76,79,173,140,28,122.71,154,-12.00,9.00,-999.00
2024-06-07 00:26:49.011946,0,0,-4,0,0,0,76,79,171,140,28,122.67,154,22.00,11.00,-954.00
2024-06-07 00:26:49.153226,0,0,-4,0,0,0,76,79,171,140,28,122.67,154,-31.00,-13.00,-1031.00
2024-06-07 00:26:49.217443,0,0,-4,0,0,0,77,79,172,140,28,122.69,155,1.00,-2.00,-993.00
2024-06-07 00:26:49.317766,0,0,-4,0,0,0,77,79,173,140,28,122.64,155,-15.00,17.00,-1013.00
2024-06-07 00:26:49.460351,0,0,-4,0,0,0,77,79,173,140,28,122.70,155,0.00,11.00,-960.00
2024-06-07 00:26:49.521729,0,0,-4,0,0,0,77,79,173,140,28,122.70,155,-5.00,8.00,-947.00
2024-06-07 00:26:49.665000,0,0,-4,0,0,0,77,79,173,140,28,122.70,155,8.00,-13.00,-950.00
2024-06-07 00:26:49.725739,0,0,-4,0,0,1,77,79,170,140,28,122.66,155,-11.00,0.00,-930.00
2024-06-07 00:26:49.869745,0,0,-4,0,0,1,77,79,169,130,28,122.63,155,-12.00,3.00,-948.00
2024-06-07 00:26:49.929865,0,0,-4,0,0,2,77,79,167,130,28,122.64,155,-10.00,0.00,-950.00
2024-06-07 00:26:50.074691,0,0,-4,0,0,2,77,79,165,130,28,122.61,155,26.00,-12.00,-1001.00
2024-06-07 00:26:50.133743,0,0,-4,0,0,2,77,79,164,130,28,122.59,155,-1.00,6.00,-952.00
2024-06-07 00:26:50.279438,0,0,-4,0,0,2,77,79,161,130,28,122.63,156,8.00,-16.00,-959.00
2024-06-07 00:26:50.337724,0,0,-4,0,0,2,77,79,158,120,28,122.53,156,-3.00,-4.00,-986.00
2024-06-07 00:26:50.439705,0,0,-4,0,0,2,77,79,155,120,28,122.50,156,28.00,-18.00,-945.00
2024-06-07 00:26:50.586872,0,0,-4,0,0,2,77,79,152,120,28,122.47,156,-9.00,-3.00,-964.00
2024-06-07 00:26:50.643754,0,0,-4,0,0,2,77,79,150,120,28,122.49,156,9.00,10.00,-966.00
2024-06-07 00:26:50.791413,0,0,-4,0,0,2,77,79,147,110,28,122.45,156,-13.00,6.00,-1033.00
2024-06-07 00:26:50.847786,0,0,-4,0,0,2,77,79,145,110,28,122.42,156,5.00,-10.00,-1043.00
2024-06-07 00:26:50.996180,0,0,-4,0,0,2,77,79,142,110,28,122.36,156,-24.00,-5.00,-1031.00
2024-06-07 00:26:51.051606,0,0,-4,0,0,2,77,79,139,110,28,122.35,156,0.00,-13.00,-1022.00
2024-06-07 00:26:51.200929,0,0,-4,0,0,2,77,79,137,100,28,122.32,156,13.00,4.00,-1043.00
2024-06-07 00:26:51.255603,0,0,-4,0,0,2,76,79,135,100,28,122.34,157,-55.00,25.00,-1017.00
2024-06-07 00:26:51.405949,0,0,-4,0,0,1,76,79,132,100,28,122.36,157,-13.00,0.00,-960.00
2024-06-07 00:26:51.459592,0,0,-4,0,0,1,76,79,131,100,28,122.25,157,13.00,-21.00,-993.00
2024-06-07 00:26:51.510929,0,0,-4,0,0,1,76,79,129,100,28,122.24,157,0.00,7.00,-1001.00
2024-06-07 00:26:51.613189,0,0,-4,0,0,1,76,79,128,90,28,122.22,157,-20.00,8.00,-973.00
2024-06-07 00:26:51.714797,0,0,-4,0,0,1,76,79,126,90,28,122.25,157,3.00,-1.00,-1046.00
2024-06-07 00:26:51.819314,0,0,-4,0,0,1,76,79,125,90,28,122.22,157,46.00,-39.00,-965.00
2024-06-07 00:26:51.918813,0,0,-4,0,0,1,76,79,123,90,28,122.22,157,-36.00,24.00,-1047.00
2024-06-07 00:26:52.104274,0,0,-4,0,0,0,76,79,122,90,28,122.21,157,-15.00,10.00,-1048.00
2024-06-07 00:26:52.122891,0,0,-4,0,0,0,76,79,122,90,28,122.15,157,-45.00,30.00,-1038.00
2024-06-07 00:26:52.225595,0,0,-4,0,0,0,76,80,121,90,28,122.18,158,-35.00,17.00,-1019.00
2024-06-07 00:26:52.532909,0,0,-4,0,0,0,76,80,121,90,28,122.17,158,-10.00,-21.00,-1097.00
2024-06-07 00:26:52.553446,0,0,-4,0,0,0,76,80,120,90,28,122.17,158,-56.00,34.00,-979.00
2024-06-07 00:26:52.553925,0,0,-4,0,0,0,76,80,120,90,28,122.13,158,-3.00,-23.00,-1035.00
2024-06-07 00:26:52.743777,0,0,-4,0,0,0,76,80,120,90,28,122.08,158,-27.00,10.00,-1029.00
2024-06-07 00:26:52.743885,-1,0,-4,0,0,0,76,80,120,90,28,122.17,158,15.00,0.00,-946.00
2024-06-07 00:26:52.836870,-1,0,-4,0,0,0,76,80,121,90,28,122.14,158,20.00,-30.00,-997.00
2024-06-07 00:26:52.952740,0,0,-4,0,0,0,76,80,121,90,28,122.23,158,34.00,-14.00,-945.00
2024-06-07 00:26:53.047807,0,0,-4,0,0,0,76,80,120,90,28,122.15,158,-14.00,31.00,-1038.00
2024-06-07 00:26:53.142889,0,0,-4,0,0,0,76,80,120,90,28,122.20,158,-11.00,4.00,-1011.00
2024-06-07 00:26:53.259841,0,0,-4,0,0,0,77,79,120,90,28,122.15,159,-20.00,0.00,-1004.00
2024-06-07 00:26:53.403286,0,0,-4,0,0,0,77,79,120,90,28,122.20,159,-6.00,7.00,-978.00
2024-06-07 00:26:53.449758,0,0,-4,0,0,0,77,79,121,90,28,122.04,159,52.00,-33.00,-1050.00
2024-06-07 00:26:53.567049,0,0,-4,0,0,0,77,79,121,90,28,122.13,159,-16.00,12.00,-960.00
2024-06-07 00:26:53.710386,0,0,-4,0,0,0,77,79,120,90,28,122.15,159,0.00,-7.00,-958.00
2024-06-07 00:26:53.756939,0,0,-4,0,0,0,77,79,121,90,28,122.20,159,16.00,6.00,-980.00
2024-06-07 00:26:53.874174,0,0,-4,0,0,0,77,79,121,90,28,122.14,159,16.00,-16.00,-1017.00
2024-06-07 00:26:54.017501,0,0,-4,0,0,0,77,79,121,90,28,122.13,159,-6.00,-1.00,-973.00
2024-06-07 00:26:54.061341,0,0,-4,0,0,0,77,79,121,90,28,122.11,159,-45.00,7.00,-1025.00
2024-06-07 00:26:54.181407,-5,0,-4,0,0,0,77,79,121,90,28,122.09,159,-17.00,-22.00,-968.00
2024-06-07 00:26:54.324622,-8,0,-4,1,0,0,76,78,123,90,28,122.12,160,-33.00,-1.00,-1061.00
2024-06-07 00:26:54.367337,-8,0,-4,3,0,0,76,78,122,90,28,122.17,160,-1.00,-16.00,-976.00
2024-06-07 00:26:54.488633,-8,0,-4,4,0,0,76,78,123,90,28,122.21,160,6.00,-2.00,-993.00
2024-06-07 00:26:54.631856,-8,0,-4,5,0,0,76,78,121,90,28,122.18,160,-4.00,-8.00,-990.00
2024-06-07 00:26:54.673355,-7,0,-4,6,0,0,76,78,121,90,28,122.22,160,-85.00,-19.00,-1038.00
2024-06-07 00:26:54.795732,-6,0,-4,6,0,0,76,78,122,90,28,122.13,160,-22.00,-3.00,-984.00
2024-06-07 00:26:54.949941,-6,0,-4,7,0,0,76,78,122,90,28,122.12,160,-20.00,-21.00,-992.00
2024-06-07 00:26:54.979365,-5,0,-5,7,0,0,76,78,123,90,28,122.15,160,-129.00,10.00,-1078.00
2024-06-07 00:26:55.030558,-2,0,-5,7,0,0,76,78,123,90,28,122.07,160,-53.00,-25.00,-1034.00
2024-06-07 00:26:55.194387,0,1,-5,6,0,0,76,78,124,90,28,122.10,160,-48.00,-4.00,-1006.00
2024-06-07 00:26:55.285936,2,0,-4,5,0,0,76,79,125,90,28,122.04,161,-49.00,7.00,-1027.00
2024-06-07 00:26:55.336778,3,0,-4,4,0,0,76,79,126,90,28,122.12,161,-58.00,-7.00,-997.00
2024-06-07 00:26:55.502218,1,0,-4,3,0,0,76,79,125,90,28,122.08,161,-46.00,-21.00,-1019.00
2024-06-07 00:26:55.540497,0,0,-4,3,0,0,76,79,126,90,28,122.15,161,-48.00,-8.00,-1054.00
2024-06-07 00:26:55.706410,0,0,-4,3,0,0,76,79,126,90,28,122.17,161,-64.00,5.00,-961.00
2024-06-07 00:26:55.744474,-1,0,-4,3,0,0,76,79,126,90,28,122.23,161,-4.00,-3.00,-982.00
2024-06-07 00:26:55.911083,0,0,-4,3,0,0,76,79,126,90,28,122.18,161,-65.00,9.00,-950.00
2024-06-07 00:26:55.949287,0,0,-4,2,0,0,76,79,126,90,28,122.17,161,-42.00,0.00,-971.00
2024-06-07 00:26:56.116298,-1,0,-4,2,0,0,76,79,126,90,28,122.21,161,-22.00,-10.00,-1000.00
2024-06-07 00:26:56.152575,-1,0,-4,2,0,0,76,79,126,90,28,122.20,161,-35.00,2.00,-977.00
2024-06-07 00:26:56.320736,-1,0,-4,2,0,0,76,79,126,90,28,122.16,162,-23.00,15.00,-1054.00
2024-06-07 00:26:56.356667,-1,0,-4,2,0,0,76,79,125,90,28,122.20,162,-55.00,17.00,-1022.00
2024-06-07 00:26:56.458406,0,0,-4,2,0,0,76,79,125,90,28,122.15,162,-35.00,-3.00,-1027.00
2024-06-07 00:26:56.627999,0,0,-4,2,0,0,76,79,125,90,28,122.21,162,-11.00,-12.00,-940.00
2024-06-07 00:26:56.662314,3,0,-4,1,0,0,76,79,126,90,28,122.19,162,-25.00,5.00,-964.00
2024-06-07 00:26:56.838305,2,0,-4,0,0,0,76,79,124,90,28,122.15,162,-14.00,4.00,-996.00
2024-06-07 00:26:56.867178,0,0,-4,0,0,0,76,79,124,90,28,122.21,162,12.00,-7.00,-991.00
2024-06-07 00:26:57.037959,0,0,-4,0,0,0,76,79,123,90,28,122.18,162,-6.00,8.00,-999.00
2024-06-07 00:26:57.073556,0,0,-4,0,0,0,76,79,123,90,28,122.22,162,0.00,-9.00,-1030.00
2024-06-07 00:26:57.173275,0,0,-4,0,0,0,76,79,121,90,28,122.22,162,17.00,4.00,-1007.00
2024-06-07 00:26:57.344908,0,0,-4,0,0,0,77,79,121,90,28,122.18,163,-35.00,10.00,-994.00
2024-06-07 00:26:57.377412,0,0,-4,0,0,0,77,79,120,90,28,122.14,163,-51.00,23.00,-1034.00
2024-06-07 00:26:57.479376,0,0,-4,0,0,0,77,79,120,90,28,122.18,163,6.00,-15.00,-992.00
2024-06-07 00:26:57.653016,0,0,-4,0,0,0,77,79,120,90,28,122.18,163,-45.00,22.00,-1015.00
2024-06-07 00:26:57.686065,-1,0,-4,0,0,0,77,79,120,90,28,122.16,163,24.00,-8.00,-987.00
2024-06-07 00:26:57.785270,-1,0,-4,0,0,0,77,79,120,90,28,122.18,163,-24.00,1.00,-1016.00
2024-06-07 00:26:57.959382,-1,0,-4,0,0,0,77,79,120,90,28,122.18,163,10.00,-20.00,-996.00
2024-06-07 00:26:57.989865,-1,0,-4,0,0,0,77,79,120,90,28,122.23,163,-27.00,3.00,-1049.00
2024-06-07 00:26:58.164403,0,0,-4,0,0,0,77,79,121,90,28,122.15,163,-32.00,3.00,-1034.00
2024-06-07 00:26:58.194647,0,0,-4,0,0,0,77,79,121,90,28,122.16,163,-25.00,8.00,-1008.00
2024-06-07 00:26:58.295487,0,0,-4,0,0,0,77,79,122,90,28,122.22,164,-33.00,15.00,-1026.00
2024-06-07 00:26:58.397512,0,0,-4,0,0,0,77,79,122,90,28,122.21,164,-34.00,14.00,-960.00
2024-06-07 00:26:58.499160,-1,0,-4,0,0,0,77,79,123,90,28,122.23,164,-17.00,0.00,-975.00
2024-06-07 00:26:58.676568,0,0,-4,0,0,0,77,79,123,90,28,122.22,164,-42.00,4.00,-970.00
2024-06-07 00:26:58.703048,0,0,-4,0,0,0,77,79,123,90,28,122.21,164,-23.00,10.00,-965.00
2024-06-07 00:26:58.834990,0,0,-4,0,0,0,77,79,124,90,28,122.25,164,-17.00,21.00,-1055.00
2024-06-07 00:26:58.907001,0,0,-4,0,0,0,77,79,124,90,28,122.19,164,25.00,7.00,-1000.00
2024-06-07 00:26:59.085372,1,0,-4,0,0,0,77,79,124,90,28,122.25,164,15.00,-15.00,-971.00
2024-06-07 00:26:59.110908,7,0,-4,0,0,0,77,79,125,90,28,122.22,164,-24.00,1.00,-1028.00
2024-06-07 00:26:59.290199,8,0,-4,-2,0,0,77,79,126,90,28,122.20,165,4.00,3.00,-983.00
2024-06-07 00:26:59.316040,8,0,-4,-4,0,0,76,79,124,90,28,122.24,165,-1.00,3.00,-1039.00
2024-06-07 00:26:59.417125,6,0,-4,-5,0,0,76,79,124,90,28,122.22,165,44.00,-3.00,-1050.00
2024-06-07 00:26:59.597372,5,0,-4,-6,0,0,76,79,124,90,28,122.21,165,41.00,-21.00,-1058.00
2024-06-07 00:26:59.597454,5,0,-4,-6,0,0,76,79,124,90,28,122.19,165,34.00,13.00,-979.00
2024-06-07 00:26:59.673275,4,0,-4,-7,0,0,76,79,123,90,28,122.21,165,45.00,4.00,-984.00
2024-06-07 00:26:59.802080,3,0,-4,-7,0,0,76,79,124,90,28,122.24,165,22.00,6.00,-1039.00
2024-06-07 00:26:59.878340,0,0,-4,-7,0,0,76,79,124,90,28,122.24,165,90.00,-22.00,-1030.00
2024-06-07 00:26:59.978123,-2,0,-4,-6,0,0,76,79,124,90,28,122.29,165,36.00,-5.00,-914.00
2024-06-07 00:27:00.109334,-3,0,-4,-5,0,0,76,79,124,90,28,122.12,165,51.00,-26.00,-1037.00
2024-06-07 00:27:00.182020,-3,0,-4,-4,0,0,76,79,125,90,28,122.20,166,29.00,-10.00,-923.00
2024-06-07 00:27:00.314138,-2,0,-4,-3,0,0,76,79,125,90,28,122.20,166,3.00,5.00,-1042.00
2024-06-07 00:27:00.386100,-1,0,-4,-3,0,0,76,79,125,90,28,122.21,166,25.00,-16.00,-1024.00
2024-06-07 00:27:00.487978,0,0,-4,-3,0,0,76,79,125,90,28,122.16,166,30.00,-14.00,-964.00
2024-06-07 00:27:00.621310,0,0,-5,-3,0,0,76,79,125,90,28,122.14,166,62.00,-13.00,-995.00
2024-06-07 00:27:00.692117,0,0,-5,-3,0,0,76,79,125,90,28,122.20,166,32.00,-24.00,-994.00
2024-06-07 00:27:00.826121,-1,0,-5,-3,0,0,76,79,125,90,28,122.25,166,29.00,-7.00,-934.00
2024-06-07 00:27:00.895988,-1,0,-5,-2,0,0,76,79,125,90,28,122.15,166,13.00,2.00,-990.00
2024-06-07 00:27:01.030865,-1,0,-5,-2,0,0,76,79,125,90,28,122.18,166,66.00,-21.00,-1025.00
2024-06-07 00:27:01.099905,-2,0,-5,-2,0,0,76,79,124,90,28,122.26,166,10.00,4.00,-1041.00
2024-06-07 00:27:01.236012,-3,2,-5,-1,0,0,76,79,124,90,28,122.19,167,1.00,-12.00,-985.00
2024-06-07 00:27:01.303924,-3,5,-5,-1,0,0,77,79,124,90,28,122.14,167,9.00,-6.00,-1068.00
2024-06-07 00:27:01.405912,-1,3,-5,0,1,0,77,79,123,90,28,122.14,167,-19.00,17.00,-1046.00
2024-06-07 00:27:01.510923,-1,-3,-4,0,1,0,77,79,122,90,28,122.16,167,4.00,-25.00,-973.00
2024-06-07 00:27:01.610036,-1,-2,-4,0,0,0,77,79,122,90,28,122.19,167,1.00,-7.00,-998.00
2024-06-07 00:27:01.747684,0,0,-5,0,0,0,77,79,121,90,28,122.25,167,-1.00,-26.00,-1036.00
2024-06-07 00:27:01.814070,0,0,-5,0,0,0,77,79,120,90,28,122.15,167,-9.00,18.00,-1004.00
2024-06-07 00:27:01.952477,0,1,-4,0,0,0,77,79,121,90,28,122.10,167,22.00,2.00,-965.00
2024-06-07 00:27:02.017926,0,0,-4,0,0,0,77,79,120,90,28,122.18,167,-5.00,4.00,-1037.00
2024-06-07 00:27:02.157453,0,0,-4,0,0,0,77,79,120,90,28,122.14,167,1.00,6.00,-999.00
2024-06-07 00:27:02.222051,0,0,-4,0,0,0,77,79,120,90,28,122.13,168,24.00,-25.00,-1018.00
2024-06-07 00:27:02.324079,0,0,-4,0,0,0,76,79,119,90,28,122.10,168,-44.00,-12.00,-953.00
2024-06-07 00:27:02.464624,0,0,-4,0,0,0,76,79,119,90,28,122.08,168,-26.00,11.00,-1039.00
2024-06-07 00:27:02.527876,0,0,-4,0,0,0,76,79,120,90,28,122.17,168,12.00,-12.00,-976.00
2024-06-07 00:27:02.669425,0,0,-4,0,0,0,76,79,119,90,28,122.15,168,-12.00,11.00,-1015.00
2024-06-07 00:27:02.731940,0,0,-4,0,0,0,76,79,119,90,28,122.13,168,-3.00,0.00,-1037.00
2024-06-07 00:27:02.874647,0,0,-4,0,0,0,76,79,119,90,28,122.19,168,17.00,-1.00,-928.00
2024-06-07 00:27:02.936278,0,0,-4,0,0,0,76,79,119,90,28,122.20,168,-9.00,-7.00,-1034.00
2024-06-07 00:27:03.078844,0,0,-4,0,0,0,76,79,120,90,28,122.10,168,19.00,4.00,-935.00
2024-06-07 00:27:03.139920,0,0,-4,0,0,0,76,79,119,90,28,122.09,168,-25.00,2.00,-1065.00
2024-06-07 00:27:03.283721,0,0,-4,0,0,0,76,79,120,90,28,122.16,169,19.00,4.00,-935.00
2024-06-07 00:27:03.343959,0,0,-4,0,0,0,76,79,119,90,28,122.19,169,33.00,-47.00,-1009.00
2024-06-07 00:27:03.488571,0,0,-4,0,0,0,76,79,119,90,28,122.13,169,-26.00,29.00,-1003.00
2024-06-07 00:27:03.547827,0,0,-4,0,0,0,76,79,119,90,28,122.14,169,-60.00,19.00,-1009.00
2024-06-07 00:27:03.649721,0,0,-4,0,0,0,76,79,119,90,28,122.13,169,38.00,0.00,-955.00
2024-06-07 00:27:03.795643,0,0,-4,0,0,0,76,79,119,90,28,122.14,169,-2.00,-18.00,-972.00
2024-06-07 00:27:03.856276,-1,-4,-4,0,0,0,76,79,119,90,28,122.08,169,28.00,-16.00,-992.00
2024-06-07 00:27:03.904504,-1,-8,-4,0,-1,0,76,79,119,90,28,122.17,169,27.00,-44.00,-1044.00
2024-06-07 00:27:04.103998,-1,-6,-4,0,-2,0,76,79,119,90,28,122.18,169,-12.00,17.00,-1038.00
2024-06-07 00:27:04.108511,0,-3,-4,0,-3,0,76,79,118,90,28,122.08,169,27.00,5.00,-965.00
2024-06-07 00:27:04.315788,0,-1,-4,0,-4,0,76,79,118,90,28,122.05,170,-38.00,9.00,-1014.00
2024-06-07 00:27:04.316040,0,1,-4,0,-3,0,76,79,119,90,28,122.13,170,3.00,11.00,-979.00
2024-06-07 00:27:04.414519,0,1,-4,0,-2,0,76,79,118,90,28,122.08,170,45.00,-16.00,-974.00
2024-06-07 00:27:04.516408,0,0,-5,0,-2,0,76,79,118,90,28,122.11,170,21.00,-2.00,-967.00
2024-06-07 00:27:04.717167,-1,-1,-5,0,-2,0,76,79,117,90,28,122.12,170,-5.00,0.00,-1022.00
2024-06-07 00:27:04.720451,-1,-1,-5,0,-2,0,76,79,117,90,28,122.10,170,-72.00,21.00,-987.00
2024-06-07 00:27:04.823076,0,0,-5,0,-2,0,76,79,117,90,28,122.06,170,-6.00,20.00,-993.00
2024-06-07 00:27:04.925178,0,0,-5,0,-2,0,76,79,117,90,28,122.06,170,0.00,2.00,-1021.00
2024-06-07 00:27:05.026436,1,0,-5,0,-2,0,76,79,118,90,28,122.10,170,-4.00,-8.00,-1013.00
2024-06-07 00:27:05.128406,0,0,-5,0,-2,0,76,79,117,90,28,122.05,170,-75.00,40.00,-1039.00
2024-06-07 00:27:05.331841,-2,0,-5,0,-2,0,76,79,117,90,28,122.08,171,-56.00,33.00,-1019.00
2024-06-07 00:27:05.332580,-1,0,-5,0,-2,0,76,80,117,90,28,122.02,171,56.00,10.00,-970.00
2024-06-07 00:27:05.536537,0,0,-5,0,-2,0,76,80,116,90,28,122.06,171,7.00,14.00,-984.00
2024-06-07 00:27:05.536755,0,1,-5,0,-2,0,76,80,116,90,28,122.05,171,-18.00,25.00,-1017.00
2024-06-07 00:27:05.638564,0,4,-5,0,-1,0,76,80,116,90,28,122.02,171,-29.00,19.00,-1016.00
2024-06-07 00:27:05.740823,0,2,-5,0,0,0,76,80,115,90,28,122.03,171,-12.00,-8.00,-1005.00
2024-06-07 00:27:05.843311,0,0,-4,0,0,0,76,80,115,90,28,122.05,171,-29.00,1.00,-1070.00
2024-06-07 00:27:05.946059,0,0,-4,0,0,0,76,80,115,90,28,122.04,171,24.00,-13.00,-1158.00
2024-06-07 00:27:06.046503,-1,0,-4,0,0,0,76,80,116,90,27,122.03,171,12.00,-4.00,-1004.00
2024-06-07 00:27:06.148499,0,0,-4,0,0,0,76,80,115,90,27,122.07,171,-10.00,-6.00,-972.00
2024-06-07 00:27:06.250422,0,0,-4,0,0,0,76,80,115,90,27,122.09,172,-16.00,-9.00,-984.00
2024-06-07 00:27:06.355637,0,0,-4,0,0,0,76,79,114,90,27,122.06,172,9.00,-22.00,-963.00
2024-06-07 00:27:06.456101,0,1,-4,0,0,0,76,79,114,90,27,122.07,172,-19.00,-18.00,-1002.00
2024-06-07 00:27:06.556441,0,1,-4,0,0,0,76,79,113,90,27,122.12,172,-27.00,15.00,-978.00
2024-06-07 00:27:06.663295,0,1,-4,0,0,0,76,79,113,90,27,122.08,172,-26.00,-9.00,-1001.00
2024-06-07 00:27:06.760528,0,0,-4,0,0,0,76,79,112,90,27,122.07,172,-19.00,13.00,-1054.00
2024-06-07 00:27:06.867645,0,0,-4,0,0,0,76,79,112,90,27,122.01,172,-11.00,-4.00,-981.00
2024-06-07 00:27:06.966071,0,0,-4,0,0,0,76,79,112,80,27,122.06,172,3.00,-1.00,-995.00
2024-06-07 00:27:07.113923,0,0,-4,0,0,0,76,79,111,80,27,122.10,172,-27.00,17.00,-989.00
2024-06-07 00:27:07.256506,0,0,-4,0,0,0,76,79,111,80,27,122.06,172,1.00,-27.00,-986.00
2024-06-07 00:27:07.257499,0,0,-4,0,0,0,76,79,111,80,27,121.98,173,-3.00,-8.00,-1041.00
2024-06-07 00:27:07.376084,0,0,-4,0,0,0,76,79,111,80,27,121.95,173,0.00,-19.00,-1009.00
2024-06-07 00:27:07.528338,0,0,-4,0,0,0,76,79,112,80,27,122.01,173,7.00,-1.00,-1047.00
2024-06-07 00:27:07.576449,0,0,-4,0,0,0,76,79,112,80,27,122.08,173,0.00,16.00,-987.00
2024-06-07 00:27:07.698266,0,0,-4,0,0,0,76,79,112,80,27,122.04,173,-19.00,20.00,-947.00
2024-06-07 00:27:07.789167,0,0,-4,0,0,0,76,79,113,80,27,121.99,173,-4.00,8.00,-1008.00
2024-06-07 00:27:07.831472,0,0,-4,0,0,0,76,79,113,80,27,122.08,173,-19.00,-16.00,-1022.00
2024-06-07 00:27:07.980258,0,0,-4,0,0,0,76,79,114,80,27,122.01,173,28.00,-18.00,-1022.00
2024-06-07 00:27:08.035910,0,6,-4,0,0,0,76,79,115,80,27,122.03,173,-24.00,20.00,-962.00
2024-06-07 00:27:08.183520,0,8,-4,0,1,0,76,79,115,90,27,122.13,173,-5.00,-21.00,-1012.00
2024-06-07 00:27:08.244946,0,5,-4,0,2,0,76,79,116,90,27,122.08,174,-16.00,-39.00,-1018.00
2024-06-07 00:27:08.388329,0,3,-4,0,3,0,76,79,116,90,27,122.04,174,-4.00,-34.00,-918.00
2024-06-07 00:27:08.443427,0,0,-4,0,3,0,76,79,116,90,27,122.07,174,-25.00,-30.00,-1001.00
2024-06-07 00:27:08.619043,0,-1,-4,0,3,0,76,79,117,90,27,122.10,174,9.00,-30.00,-981.00
2024-06-07 00:27:08.762312,0,0,-4,0,3,0,76,79,117,90,27,122.04,174,-4.00,-20.00,-939.00
2024-06-07 00:27:08.762376,0,0,-4,0,2,0,76,79,117,90,27,122.08,174,-21.00,-28.00,-986.00
2024-06-07 00:27:08.926114,-1,0,-4,0,2,0,76,79,116,90,27,122.04,174,-21.00,-13.00,-954.00
2024-06-07 00:27:09.069563,-1,0,-4,0,2,0,76,79,116,90,27,122.06,174,32.00,-23.00,-1053.00
2024-06-07 00:27:09.069643,0,0,-4,0,2,0,76,79,116,90,27,122.01,174,31.00,-23.00,-959.00
2024-06-07 00:27:09.233471,0,0,-4,0,2,0,76,79,117,90,27,122.01,174,-18.00,2.00,-1032.00
2024-06-07 00:27:09.259501,-1,1,-4,0,2,0,76,79,118,90,27,122.01,175,0.00,-22.00,-997.00
2024-06-07 00:27:09.361383,0,1,-4,0,2,0,76,78,118,90,27,122.03,175,-13.00,-20.00,-966.00
2024-06-07 00:27:09.463318,0,0,-4,0,2,0,76,78,118,90,27,122.08,175,1.00,-31.00,-992.00
2024-06-07 00:27:09.632146,0,0,-4,0,2,0,76,78,118,90,27,122.05,175,-4.00,-33.00,-1033.00
2024-06-07 00:27:09.667470,0,0,-4,0,2,0,76,78,119,90,27,122.05,175,27.00,-18.00,-971.00
2024-06-07 00:27:09.836958,0,0,-4,0,2,0,76,78,120,90,27,122.10,175,-7.00,-33.00,-1017.00
2024-06-07 00:27:09.871563,0,-1,-4,0,1,0,76,78,119,90,27,122.11,175,7.00,-7.00,-1041.00
2024-06-07 00:27:10.047396,0,-3,-4,0,1,0,76,78,120,90,27,122.09,175,17.00,-11.00,-938.00
2024-06-07 00:27:10.075259,0,-2,-4,0,0,0,76,78,120,90,26,122.07,175,-52.00,0.00,-983.00
2024-06-07 00:27:10.247200,0,0,-4,0,0,0,76,78,121,90,26,122.05,175,-42.00,10.00,-1004.00
2024-06-07 00:27:10.279377,0,0,-4,0,0,0,76,78,120,90,26,122.04,176,25.00,-43.00,-1019.00
2024-06-07 00:27:10.451515,0,0,-4,0,0,0,77,79,120,90,26,122.08,176,-43.00,-5.00,-975.00
2024-06-07 00:27:10.483367,0,0,-4,0,0,0,77,79,121,90,26,122.06,176,18.00,-13.00,-1016.00
2024-06-07 00:27:10.656207,0,0,-4,0,0,0,77,79,121,90,26,122.05,176,-32.00,-9.00,-1004.00
2024-06-07 00:27:10.687418,0,0,-4,0,0,0,77,79,121,90,26,122.01,176,-6.00,-1.00,-972.00
2024-06-07 00:27:10.861010,0,0,-4,0,0,0,77,79,121,90,26,122.10,176,-54.00,14.00,-1049.00
2024-06-07 00:27:10.891751,0,0,-4,0,0,0,77,79,122,90,26,122.08,176,23.00,-8.00,-967.00
2024-06-07 00:27:11.066731,0,0,-4,0,0,0,77,79,122,90,26,122.09,176,-43.00,4.00,-973.00
2024-06-07 00:27:11.096541,-1,0,-4,0,0,0,77,79,123,90,26,122.09,176,-13.00,-2.00,-981.00
2024-06-07 00:27:11.270494,-1,0,-4,0,0,0,77,79,122,90,26,122.05,176,15.00,-18.00,-973.00
2024-06-07 00:27:11.299250,-1,0,-4,0,0,0,77,79,123,90,26,122.05,177,-16.00,-13.00,-1010.00
2024-06-07 00:27:11.404177,-1,0,-4,0,0,0,76,79,124,90,26,122.10,177,-10.00,0.00,-993.00
2024-06-07 00:27:11.503192,0,0,-4,0,0,0,76,79,123,90,26,122.13,177,-19.00,12.00,-950.00
2024-06-07 00:27:11.553992,0,0,-4,0,0,0,76,79,123,90,26,122.03,177,-20.00,-3.00,-951.00
2024-06-07 00:27:11.680153,0,0,-4,0,0,0,76,79,124,90,26,122.08,177,1.00,-2.00,-994.00
2024-06-07 00:27:11.757991,0,0,-4,0,0,0,76,79,124,90,26,122.07,177,-47.00,8.00,-1004.00
2024-06-07 00:27:11.884976,0,0,-4,0,0,0,76,79,125,90,26,122.09,177,-31.00,-4.00,-962.00
2024-06-07 00:27:11.963442,0,0,-4,0,0,0,76,79,125,90,26,122.09,177,-2.00,8.00,-1030.00
2024-06-07 00:27:12.063852,0,0,-4,0,0,0,76,79,125,90,25,122.05,177,-32.00,13.00,-1040.00
2024-06-07 00:27:12.192009,0,0,-4,0,0,0,76,79,126,90,25,122.08,177,14.00,-30.00,-1004.00
2024-06-07 00:27:12.267951,-1,0,-2,0,0,0,76,79,126,90,25,122.05,178,-15.00,-12.00,-973.00
2024-06-07 00:27:12.396762,-1,0,9,0,0,0,77,79,126,90,25,122.05,178,-63.00,3.00,-1051.00
2024-06-07 00:27:12.473324,0,0,15,0,0,0,77,79,126,90,25,122.07,178,-55.00,8.00,-988.00
2024-06-07 00:27:12.573933,0,0,21,0,0,0,77,79,126,90,25,122.05,178,28.00,-5.00,-954.00
2024-06-07 00:27:12.704002,0,0,28,0,0,0,77,79,126,90,25,122.11,178,6.00,7.00,-1008.00
2024-06-07 00:27:12.778008,-1,0,34,0,0,0,77,79,126,90,25,122.06,178,-11.00,18.00,-967.00
2024-06-07 00:27:12.909375,-1,0,40,0,0,0,77,79,126,90,25,122.08,178,-17.00,15.00,-971.00
2024-06-07 00:27:12.981804,0,0,46,0,0,0,77,79,125,90,25,122.09,178,-16.00,-4.00,-1012.00
2024-06-07 00:27:13.118433,0,0,52,0,0,0,77,79,125,90,25,122.13,178,2.00,-4.00,-1014.00
2024-06-07 00:27:13.185786,0,0,58,0,0,0,77,79,125,90,25,122.09,179,31.00,-32.00,-980.00
2024-06-07 00:27:13.318423,0,0,65,0,0,0,77,79,125,90,25,122.07,179,25.00,-9.00,-969.00
2024-06-07 00:27:13.389604,0,0,71,0,0,0,76,79,125,90,25,122.01,179,28.00,-20.00,-976.00
2024-06-07 00:27:13.523380,0,0,77,0,0,0,76,79,125,90,25,122.14,179,-7.00,1.00,-923.00
2024-06-07 00:27:13.593698,0,0,83,0,0,0,76,79,125,90,25,122.16,179,22.00,-27.00,-932.00
2024-06-07 00:27:13.727948,0,0,89,0,0,0,76,79,125,90,25,122.05,179,28.00,-22.00,-994.00
2024-06-07 00:27:13.800652,0,0,95,0,0,0,76,79,126,90,25,122.02,179,45.00,-10.00,-951.00
2024-06-07 00:27:13.899700,0,0,101,0,0,0,76,79,126,90,25,122.12,179,-27.00,4.00,-988.00
2024-06-07 00:27:14.035116,0,0,107,0,0,0,76,79,126,90,25,122.13,179,-79.00,52.00,-994.00
2024-06-07 00:27:14.103694,0,0,113,0,0,0,76,79,126,90,25,122.05,179,-23.00,8.00,-926.00
2024-06-07 00:27:14.239913,0,0,119,0,0,0,76,79,126,90,25,122.04,180,8.00,15.00,-954.00
2024-06-07 00:27:14.307571,0,0,125,0,0,0,76,79,127,90,25,122.06,180,49.00,-29.00,-986.00
2024-06-07 00:27:14.430624,0,0,131,0,0,0,76,79,127,90,25,122.15,180,23.00,-12.00,-996.00
2024-06-07 00:27:14.512228,0,0,137,0,0,0,76,79,127,90,25,122.11,180,45.00,-28.00,-911.00
2024-06-07 00:27:14.649511,0,0,143,0,0,0,76,79,127,90,25,122.09,180,-36.00,15.00,-1053.00
2024-06-07 00:27:14.715663,0,0,149,0,0,0,76,79,127,90,25,122.13,180,-16.00,15.00,-958.00
2024-06-07 00:27:14.854294,0,0,155,0,0,0,76,79,127,90,25,122.15,180,-7.00,8.00,-1015.00
2024-06-07 00:27:14.919581,0,0,161,0,0,0,76,79,127,90,25,122.11,180,10.00,-1.00,-1055.00
2024-06-07 00:27:15.059087,0,0,167,0,0,0,76,79,126,90,25,122.13,180,5.00,0.00,-960.00
2024-06-07 00:27:15.123619,0,0,173,0,0,0,76,79,126,90,24,122.09,180,12.00,-22.00,-982.00
2024-06-07 00:27:15.174871,0,0,179,0,0,0,76,79,126,90,24,122.04,181,10.00,-19.00,-999.00
2024-06-07 00:27:15.366120,0,0,-174,0,0,0,76,79,125,90,24,122.04,181,-33.00,19.00,-1058.00
2024-06-07 00:27:15.429509,0,0,-168,0,0,0,77,79,125,90,24,122.10,181,13.00,-24.00,-1004.00
2024-06-07 00:27:15.531480,0,0,-162,0,0,0,77,79,126,90,24,122.00,181,-25.00,24.00,-1017.00
2024-06-07 00:27:15.673427,0,0,-156,0,0,0,77,79,126,90,24,122.05,181,36.00,-5.00,-920.00
2024-06-07 00:27:15.735497,0,0,-150,0,0,0,77,79,125,90,24,122.00,181,-25.00,21.00,-989.00
2024-06-07 00:27:15.786805,0,0,-144,0,0,0,77,79,125,90,24,122.11,181,-18.00,-4.00,-1021.00
2024-06-07 00:27:15.980695,0,0,-138,0,0,0,77,79,126,90,24,122.10,181,-52.00,1.00,-996.00
2024-06-07 00:27:15.990876,0,0,-132,0,0,0,77,79,126,90,24,121.98,181,-6.00,16.00,-999.00
2024-06-07 00:27:16.185400,0,0,-126,0,0,0,77,79,126,90,24,122.06,181,41.00,-30.00,-1028.00
2024-06-07 00:27:16.195439,0,0,-120,0,0,0,77,79,126,90,24,122.04,182,9.00,-29.00,-983.00
2024-06-07 00:27:16.390208,0,0,-114,0,0,0,77,79,126,90,24,122.03,182,-11.00,6.00,-979.00
2024-06-07 00:27:16.398731,0,0,-109,0,0,0,76,79,126,90,24,122.08,182,-32.00,11.00,-1022.00
2024-06-07 00:27:16.595388,0,0,-103,0,0,0,76,79,126,90,24,122.05,182,0.00,-15.00,-977.00
2024-06-07 00:27:16.602635,0,0,-97,0,0,0,76,79,126,90,24,122.07,182,-24.00,1.00,-971.00
2024-06-07 00:27:16.799872,0,0,-91,0,0,0,76,79,126,90,24,122.08,182,-25.00,20.00,-1028.00
2024-06-07 00:27:16.806715,0,0,-85,0,0,0,76,79,126,90,24,121.95,182,17.00,-27.00,-1014.00
2024-06-07 00:27:17.007228,0,0,-79,0,0,0,76,79,126,90,24,122.04,182,11.00,6.00,-943.00
2024-06-07 00:27:17.010881,0,0,-73,0,0,0,76,79,127,90,24,122.04,182,-29.00,5.00,-1012.00
2024-06-07 00:27:17.209407,0,0,-67,0,0,0,76,79,127,90,24,122.06,182,-5.00,-13.00,-1038.00
2024-06-07 00:27:17.214713,0,0,-61,0,0,0,76,79,127,90,24,122.11,183,-8.00,-15.00,-1008.00
2024-06-07 00:27:17.414041,0,0,-55,0,0,0,76,79,128,90,24,122.08,183,12.00,-20.00,-1015.00
2024-06-07 00:27:17.418624,0,0,-49,0,0,0,77,79,128,90,24,122.11,183,-8.00,0.00,-1008.00
2024-06-07 00:27:17.619457,0,0,-43,0,0,0,77,79,128,90,24,122.04,183,21.00,0.00,-968.00
2024-06-07 00:27:17.622614,0,0,-37,0,0,0,77,79,129,90,24,122.05,183,6.00,1.00,-981.00
2024-06-07 00:27:17.724588,0,0,-31,0,0,0,77,79,129,90,24,122.09,183,-28.00,-4.00,-1030.00
2024-06-07 00:27:17.826565,0,0,-25,0,0,0,77,79,129,90,24,122.03,183,3.00,-23.00,-974.00
2024-06-07 00:27:17.928674,-1,0,-21,0,0,0,77,79,128,90,24,122.03,183,-35.00,2.00,-1004.00
2024-06-07 00:27:18.030699,0,0,-17,0,0,0,77,79,128,90,24,122.05,183,-28.00,5.00,-936.00
2024-06-07 00:27:18.132564,0,0,-14,0,0,0,77,79,128,90,24,122.11,183,-28.00,3.00,-1039.00
2024-06-07 00:27:18.335733,0,0,-12,0,0,0,77,79,128,90,24,122.01,184,-26.00,3.00,-967.00
2024-06-07 00:27:18.336463,0,0,-10,0,0,0,77,79,127,90,24,122.09,184,3.00,13.00,-998.00
2024-06-07 00:27:18.438594,0,0,-9,0,0,0,76,79,126,90,24,122.03,184,-57.00,15.00,-947.00
2024-06-07 00:27:18.541887,0,0,-8,0,0,0,76,79,126,90,24,121.93,184,20.00,-3.00,-938.00
2024-06-07 00:27:18.642567,0,0,-7,0,0,0,76,79,125,90,24,122.00,184,-36.00,23.00,-1007.00
2024-06-07 00:27:18.745320,0,0,-6,0,0,0,76,79,124,90,24,122.06,184,-4.00,-19.00,-1040.00
2024-06-07 00:27:18.847793,0,0,-6,0,0,0,76,79,124,90,24,122.01,184,-28.00,7.00,-949.00
2024-06-07 00:27:18.950115,0,0,-6,0,0,0,76,79,123,90,24,121.97,184,-19.00,3.00,-1084.00
2024-06-07 00:27:19.050620,-1,0,-6,0,0,0,76,79,122,90,23,121.99,184,-16.00,6.00,-1042.00
2024-06-07 00:27:19.152618,-1,0,-6,0,0,0,76,79,122,90,23,122.01,184,4.00,-12.00,-991.00
2024-06-07 00:27:19.257334,0,0,-6,0,0,0,76,79,122,90,23,122.06,185,2.00,2.00,-992.00
2024-06-07 00:27:19.305762,0,0,-6,0,0,0,76,79,122,90,23,122.01,185,-41.00,18.00,-990.00
2024-06-07 00:27:19.465114,0,0,-6,0,0,0,76,79,123,90,23,121.99,185,-10.00,4.00,-1037.00
2024-06-07 00:27:19.560648,0,0,-6,0,0,0,76,79,123,90,23,122.01,185,5.00,-1.00,-1105.00
2024-06-07 00:27:19.611354,0,0,-6,0,0,0,76,79,123,90,23,122.00,185,-3.00,25.00,-944.00
2024-06-07 00:27:19.769739,0,0,-6,0,0,0,76,79,123,90,23,121.98,185,-27.00,-4.00,-977.00
2024-06-07 00:27:19.815249,0,0,-6,0,0,0,76,79,124,90,23,121.99,185,-31.00,-1.00,-964.00
2024-06-07 00:27:19.975650,0,0,-6,0,0,0,76,79,124,90,23,122.05,185,2.00,-12.00,-957.00
2024-06-07 00:27:20.019598,0,0,-6,0,0,0,76,79,124,90,23,122.00,185,-31.00,-10.00,-1002.00
2024-06-07 00:27:20.178925,-1,0,-6,0,0,0,76,79,123,90,23,122.02,185,13.00,-10.00,-939.00
2024-06-07 00:27:20.223114,-1,0,-6,0,0,0,76,79,122,90,23,121.98,186,-31.00,5.00,-986.00
2024-06-07 00:27:20.383689,-1,0,-6,0,0,0,76,79,121,90,23,122.05,186,-26.00,0.00,-996.00
2024-06-07 00:27:20.427240,-1,0,-6,0,0,0,76,80,121,90,23,121.98,186,-31.00,0.00,-991.00
2024-06-07 00:27:20.588620,-1,0,-6,0,0,0,76,80,121,90,23,122.03,186,17.00,19.00,-970.00
2024-06-07 00:27:20.631024,-1,0,-6,0,0,0,76,80,121,90,23,122.01,186,8.00,-29.00,-1012.00
2024-06-07 00:27:20.747933,0,0,-6,0,0,0,76,80,121,90,23,122.05,186,17.00,-15.00,-1002.00
2024-06-07 00:27:20.835019,0,0,-6,0,0,0,76,80,121,90,23,121.95,186,14.00,-15.00,-985.00
2024-06-07 00:27:20.997896,0,0,-10,0,0,0,76,80,121,90,23,122.00,186,7.00,-51.00,-952.00
2024-06-07 00:27:21.038968,0,0,-16,0,0,0,76,80,120,90,23,121.98,186,6.00,-8.00,-948.00
2024-06-07 00:27:21.203181,0,0,-22,0,0,0,76,80,120,90,23,122.02,186,27.00,-20.00,-1014.00
2024-06-07 00:27:21.243080,-1,0,-28,0,0,0,76,80,121,90,23,122.02,187,-37.00,13.00,-993.00
2024-06-07 00:27:21.398806,-1,0,-34,0,0,0,76,80,120,90,23,122.07,187,33.00,-10.00,-1029.00
2024-06-07 00:27:21.448312,0,0,-40,0,0,0,76,78,121,90,23,121.99,187,6.00,10.00,-921.00
2024-06-07 00:27:21.550355,-1,0,-46,0,0,0,76,78,121,90,23,121.99,187,-31.00,-1.00,-979.00
2024-06-07 00:27:21.714779,-1,0,-52,0,0,0,76,78,121,90,23,122.05,187,8.00,-16.00,-980.00
2024-06-07 00:27:21.754195,-1,0,-58,0,0,0,76,78,121,90,23,122.03,187,4.00,-4.00,-972.00
2024-06-07 00:27:21.919618,-1,0,-64,0,0,0,76,78,121,90,23,122.03,187,-5.00,-15.00,-1032.00
2024-06-07 00:27:21.958267,-1,0,-70,0,0,0,76,78,121,90,23,122.04,187,-26.00,-8.00,-985.00
2024-06-07 00:27:22.137864,-1,0,-76,0,0,0,76,78,121,90,23,122.00,187,-15.00,25.00,-958.00
2024-06-07 00:27:22.162000,0,0,-82,0,0,0,76,78,121,90,23,121.97,187,-17.00,9.00,-1020.00
2024-06-07 00:27:22.280365,0,0,-88,0,0,0,76,78,121,90,23,122.00,188,39.00,-15.00,-953.00
2024-06-07 00:27:22.405998,0,0,-94,0,0,0,76,78,121,90,23,122.05,188,-21.00,1.00,-1030.00
2024-06-07 00:27:22.476252,0,0,-100,0,0,0,76,78,121,90,23,121.99,188,-25.00,1.00,-999.00
2024-06-07 00:27:22.572902,0,0,-106,0,0,0,76,78,121,90,23,122.01,188,0.00,-6.00,-1038.00
2024-06-07 00:27:22.672262,0,0,-112,0,0,0,76,78,121,90,23,122.03,188,23.00,-10.00,-984.00
2024-06-07 00:27:22.945050,0,0,-118,0,0,0,76,78,121,90,23,122.06,188,17.00,-9.00,-998.00
2024-06-07 00:27:23.067703,0,0,-124,0,0,0,76,78,121,90,23,122.00,188,-19.00,23.00,-1018.00
2024-06-07 00:27:23.067782,0,0,-129,0,0,0,76,78,120,90,23,121.97,188,-26.00,15.00,-1025.00
2024-06-07 00:27:23.072368,0,0,-135,0,0,0,76,78,121,90,23,122.05,188,3.00,5.00,-943.00
2024-06-07 00:27:23.131267,0,0,-141,0,0,0,76,78,121,90,23,121.99,188,-55.00,30.00,-985.00
2024-06-07 00:27:23.251189,0,0,-147,0,0,0,76,78,120,90,23,121.88,189,0.00,-7.00,-1014.00
2024-06-07 00:27:23.364128,0,0,-153,0,0,0,76,78,121,90,23,121.97,189,-31.00,21.00,-977.00
2024-06-07 00:27:23.507402,0,0,-159,0,0,0,76,79,121,90,23,122.03,189,0.00,7.00,-993.00
2024-06-07 00:27:23.539048,0,0,-165,0,0,0,76,79,121,90,23,122.03,189,-14.00,-7.00,-1022.00
2024-06-07 00:27:23.671333,0,0,-171,0,0,0,76,79,120,90,23,122.01,189,-10.00,9.00,-985.00
2024-06-07 00:27:23.814651,0,0,-177,0,0,0,76,79,120,90,23,121.94,189,27.00,-12.00,-977.00
2024-06-07 00:27:23.844868,0,0,176,0,0,0,76,79,120,90,23,121.94,189,0.00,-8.00,-1034.00
2024-06-07 00:27:23.978344,0,0,171,0,0,0,76,79,120,90,23,121.98,189,67.00,-47.00,-1048.00
2024-06-07 00:27:24.132668,0,0,165,0,0,0,76,79,120,90,23,122.06,189,-15.00,-10.00,-952.00
2024-06-07 00:27:24.150743,0,0,159,0,0,0,76,79,121,90,23,121.98,189,13.00,5.00,-1022.00
2024-06-07 00:27:24.253356,0,0,153,0,0,0,76,79,121,90,23,122.03,190,-35.00,5.00,-1013.00
2024-06-07 00:27:24.377171,0,0,148,0,0,0,76,79,122,90,23,121.94,190,2.00,-3.00,-1103.00
2024-06-07 00:27:24.456795,0,0,142,0,0,0,76,79,122,90,23,121.98,190,-14.00,3.00,-983.00
2024-06-07 00:27:24.559095,0,0,136,0,0,0,76,79,123,90,23,122.03,190,-45.00,21.00,-1043.00
2024-06-07 00:27:24.684282,0,0,131,0,0,0,76,79,123,90,23,122.04,190,-5.00,-4.00,-998.00
2024-06-07 00:27:24.762976,0,0,125,0,0,0,76,79,124,90,23,122.05,190,-9.00,8.00,-1010.00
2024-06-07 00:27:24.889083,0,0,119,0,0,0,76,79,125,90,23,122.07,190,-32.00,-5.00,-963.00
2024-06-07 00:27:24.966648,0,0,113,0,0,0,76,79,126,90,23,121.98,190,3.00,-1.00,-1016.00
2024-06-07 00:27:25.093867,0,0,108,0,0,0,76,79,128,90,22,122.09,190,11.00,6.00,-1011.00
2024-06-07 00:27:25.170730,0,0,102,0,0,0,76,79,128,90,22,122.06,190,-23.00,2.00,-979.00
2024-06-07 00:27:25.298625,0,0,96,0,0,0,76,79,129,90,22,122.05,191,25.00,-40.00,-980.00
2024-06-07 00:27:25.374704,0,0,90,0,0,0,76,79,130,90,22,122.05,191,-58.00,23.00,-1016.00
2024-06-07 00:27:25.503774,0,0,84,0,0,0,77,79,131,90,22,122.07,191,-43.00,11.00,-980.00
2024-06-07 00:27:25.578738,0,0,78,0,0,0,77,79,131,90,22,122.07,191,32.00,-23.00,-1001.00
2024-06-07 00:27:25.708250,0,0,72,0,0,0,77,79,131,90,22,122.11,191,-15.00,12.00,-992.00
2024-06-07 00:27:25.783119,0,0,67,0,0,0,77,79,131,90,22,122.06,191,-33.00,-13.00,-972.00
2024-06-07 00:27:25.912982,0,0,61,0,0,0,77,79,131,90,22,122.14,191,19.00,-28.00,-1003.00
2024-06-07 00:27:25.992394,-1,0,55,0,0,0,77,79,131,90,22,122.09,191,-10.00,-29.00,-971.00
2024-06-07 00:27:26.092800,-1,0,49,0,0,0,77,79,131,90,22,122.13,191,-30.00,20.00,-986.00
2024-06-07 00:27:26.190590,-1,0,43,0,0,0,77,79,130,90,22,122.03,191,-25.00,3.00,-1065.00
2024-06-07 00:27:26.322582,-1,0,36,0,0,0,77,79,130,90,22,122.04,192,-19.00,14.00,-1019.00
2024-06-07 00:27:26.394591,-1,0,30,0,0,0,77,79,130,90,22,122.03,192,2.00,-16.00,-987.00
2024-06-07 00:27:26.527405,-1,0,24,0,0,0,76,79,129,90,22,122.14,192,3.00,3.00,-1064.00
2024-06-07 00:27:26.598518,0,0,12,0,0,0,76,79,129,90,22,122.07,192,-11.00,-11.00,-956.00
2024-06-07 00:27:26.732628,0,0,7,0,0,0,76,79,129,90,22,122.08,192,-14.00,11.00,-972.00
2024-06-07 00:27:26.802600,0,0,4,0,0,0,76,79,128,90,22,122.04,192,-12.00,-1.00,-1078.00
2024-06-07 00:27:26.905268,0,0,1,0,0,0,76,79,127,90,22,122.03,192,36.00,-23.00,-1061.00
2024-06-07 00:27:27.039711,0,0,0,0,0,0,76,79,127,90,22,122.05,192,14.00,0.00,-990.00
2024-06-07 00:27:27.108544,0,0,-2,0,0,0,76,79,126,90,22,122.03,192,27.00,-5.00,-972.00
2024-06-07 00:27:27.244160,0,0,-3,0,0,0,76,79,125,90,22,122.02,193,-26.00,12.00,-1023.00
2024-06-07 00:27:27.312730,0,0,-4,0,0,0,76,79,124,90,22,121.99,193,24.00,3.00,-909.00
2024-06-07 00:27:27.363722,0,0,-4,0,0,0,76,79,124,90,22,121.94,193,-46.00,6.00,-1051.00
2024-06-07 00:27:27.465882,0,0,-5,0,0,0,76,79,123,90,22,121.98,193,-31.00,2.00,-1060.00
2024-06-07 00:27:27.569593,-1,0,-5,0,0,0,76,79,123,90,22,121.94,193,-2.00,-3.00,-918.00
2024-06-07 00:27:27.669891,0,0,-5,0,0,0,76,79,122,90,22,121.92,193,1.00,-19.00,-1063.00
2024-06-07 00:27:27.858604,0,0,-5,0,0,0,76,79,121,90,22,121.95,193,-12.00,5.00,-1048.00
2024-06-07 00:27:27.873823,-1,0,-5,0,0,0,76,79,122,90,22,121.93,193,-7.00,-29.00,-1028.00
2024-06-07 00:27:28.063384,0,0,-5,0,0,0,76,79,121,90,22,121.95,193,29.00,-13.00,-944.00
2024-06-07 00:27:28.077892,0,0,-5,0,0,0,76,79,121,90,22,121.90,193,-27.00,12.00,-1028.00
2024-06-07 00:27:28.268200,0,0,-5,0,0,0,76,79,120,90,22,121.91,194,6.00,-12.00,-1029.00
2024-06-07 00:27:28.281756,0,0,-5,0,0,0,76,79,120,90,22,121.92,194,-22.00,24.00,-961.00
2024-06-07 00:27:28.473785,0,0,-5,0,0,0,76,79,119,90,22,121.93,194,-5.00,14.00,-1012.00
2024-06-07 00:27:28.485728,0,0,-5,0,0,0,77,79,120,90,22,121.98,194,-60.00,25.00,-1030.00
2024-06-07 00:27:28.587838,0,0,-5,0,0,0,77,79,119,90,22,121.95,194,-3.00,0.00,-1054.00
2024-06-07 00:27:28.780550,0,0,-5,0,0,0,77,79,119,90,22,122.03,194,-28.00,9.00,-986.00
2024-06-07 00:27:28.791613,0,0,-5,0,0,0,77,79,120,90,22,121.97,194,-10.00,0.00,-975.00
2024-06-07 00:27:28.984944,0,0,-5,0,0,0,77,79,120,90,22,121.99,194,-30.00,2.00,-973.00
2024-06-07 00:27:28.995685,0,0,-5,0,0,0,77,79,120,90,22,121.97,194,18.00,6.00,-970.00
2024-06-07 00:27:29.189793,0,0,-5,0,0,0,77,79,121,90,22,121.99,194,5.00,8.00,-969.00
2024-06-07 00:27:29.199838,0,0,-5,0,0,0,77,79,120,90,22,121.99,195,7.00,-4.00,-970.00
2024-06-07 00:27:29.394472,0,0,-5,0,0,0,77,79,121,90,22,122.03,195,49.00,-7.00,-989.00
2024-06-07 00:27:29.403566,0,0,-5,0,0,0,77,79,122,90,22,122.01,195,8.00,-53.00,-1032.00
2024-06-07 00:27:29.505894,0,0,-5,0,0,0,76,79,123,90,22,122.01,195,-8.00,-7.00,-960.00
2024-06-07 00:27:29.607714,0,0,-5,0,0,0,76,79,123,90,22,122.05,195,-2.00,-2.00,-1006.00
2024-06-07 00:27:29.804091,0,0,-5,0,0,0,76,79,124,90,22,122.05,195,33.00,15.00,-940.00
2024-06-07 00:27:29.811612,0,0,-5,0,0,0,76,79,124,90,22,122.03,195,-41.00,6.00,-1018.00
2024-06-07 00:27:30.009026,0,0,-5,0,0,0,76,79,124,90,22,122.07,195,23.00,-27.00,-978.00
2024-06-07 00:27:30.015514,0,0,-5,0,0,0,76,79,125,90,22,122.03,195,-30.00,-7.00,-988.00
2024-06-07 00:27:30.213715,0,0,-5,0,0,0,76,79,125,90,22,122.04,195,3.00,6.00,-1001.00
2024-06-07 00:27:30.219487,0,0,-5,0,0,0,76,79,124,90,22,122.08,196,5.00,2.00,-1009.00
2024-06-07 00:27:30.406355,0,0,-5,0,0,0,76,79,125,90,22,122.06,196,-67.00,-12.00,-1053.00
2024-06-07 00:27:30.423457,0,0,-5,0,0,0,76,79,124,90,22,122.03,196,0.00,10.00,-981.00
2024-06-07 00:27:30.623536,0,0,-5,0,0,0,76,79,124,90,22,122.08,196,9.00,-9.00,-967.00
2024-06-07 00:27:30.627554,0,0,-5,0,0,0,76,79,123,90,22,122.08,196,48.00,-20.00,-990.00
2024-06-07 00:27:30.828048,0,0,-5,0,0,0,76,79,123,90,22,122.03,196,15.00,-6.00,-1027.00
2024-06-07 00:27:30.831578,1,0,-5,0,0,0,76,79,123,90,22,122.06,196,-2.00,-2.00,-1071.00
2024-06-07 00:27:30.933606,0,0,-5,0,0,0,76,79,123,90,22,122.03,196,-8.00,9.00,-919.00
2024-06-07 00:27:31.035521,0,0,-5,0,0,0,76,79,123,90,22,122.07,196,11.00,4.00,-1049.00
2024-06-07 00:27:31.086257,0,0,-5,0,0,0,76,79,124,90,22,122.03,196,-14.00,0.00,-982.00
2024-06-07 00:27:31.237700,0,0,-5,0,0,0,76,79,124,90,22,122.02,197,-7.00,-9.00,-951.00
2024-06-07 00:27:31.290134,0,0,-5,0,0,0,76,79,125,90,22,122.05,197,45.00,-13.00,-944.00
2024-06-07 00:27:31.393405,0,0,-5,0,0,0,76,79,125,90,22,122.08,197,-13.00,4.00,-1005.00
2024-06-07 00:27:31.544694,0,0,-5,0,0,0,76,79,126,90,22,122.05,197,51.00,-29.00,-1062.00
2024-06-07 00:27:31.596221,-1,0,-5,0,0,0,76,79,126,90,22,122.09,197,-22.00,24.00,-945.00
2024-06-07 00:27:31.698273,-1,0,-5,0,0,0,76,79,127,90,22,122.07,197,-16.00,12.00,-1020.00
2024-06-07 00:27:31.800735,0,0,-5,0,0,0,76,79,128,90,22,122.04,197,-11.00,8.00,-934.00
2024-06-07 00:27:31.902150,0,0,-5,0,0,0,76,79,129,90,22,122.05,197,5.00,-5.00,-1008.00
2024-06-07 00:27:32.004586,0,0,-5,0,0,0,76,79,129,90,22,122.06,197,23.00,-31.00,-953.00
2024-06-07 00:27:32.159249,-1,0,-5,0,0,0,76,79,130,90,22,122.09,197,-56.00,0.00,-1023.00
2024-06-07 00:27:32.208298,0,0,-5,0,0,0,76,79,131,90,22,122.14,198,50.00,10.00,-962.00
2024-06-07 00:27:32.363965,0,0,-5,0,0,0,76,79,132,90,22,122.09,198,8.00,-7.00,-982.00
2024-06-07 00:27:32.412148,0,0,-5,0,0,0,76,79,131,90,22,122.15,198,-11.00,1.00,-1012.00
2024-06-07 00:27:32.513978,-1,0,-5,0,0,0,76,79,132,90,22,122.10,198,21.00,-15.00,-1052.00
2024-06-07 00:27:32.616058,0,0,-5,0,0,0,76,79,133,100,22,122.18,198,5.00,3.00,-945.00
2024-06-07 00:27:32.774108,0,0,-5,0,0,0,76,79,133,100,22,122.15,198,-9.00,9.00,-945.00
2024-06-07 00:27:32.820420,0,0,-5,0,0,0,76,79,133,100,22,122.15,198,-47.00,-5.00,-942.00
2024-06-07 00:27:32.978204,0,0,-5,0,0,0,76,79,132,100,22,122.18,198,-20.00,8.00,-1019.00
2024-06-07 00:27:33.024067,0,0,-5,0,0,0,76,79,131,100,22,122.11,198,-16.00,7.00,-1038.00
2024-06-07 00:27:33.183204,0,0,-5,0,0,0,76,79,131,100,22,122.15,198,-15.00,28.00,-980.00
2024-06-07 00:27:33.229617,0,0,-5,0,0,0,76,79,130,90,22,122.16,199,-36.00,-2.00,-1003.00
2024-06-07 00:27:33.330047,0,0,-5,0,0,0,76,79,129,90,22,122.13,199,-32.00,4.00,-1086.00
2024-06-07 00:27:33.432289,0,0,-5,0,0,0,76,79,128,90,22,122.09,199,-4.00,6.00,-962.00
2024-06-07 00:27:33.593284,0,0,-5,0,0,0,76,79,125,90,22,122.15,199,-17.00,5.00,-989.00
2024-06-07 00:27:33.635983,0,0,-5,0,0,0,76,79,124,90,22,122.08,199,6.00,-8.00,-996.00
2024-06-07 00:27:33.797997,0,0,-5,0,0,0,76,79,121,90,22,121.98,199,-32.00,-4.00,-1029.00
2024-06-07 00:27:33.840081,0,0,-5,0,0,1,76,79,119,90,22,121.97,199,-44.00,5.00,-968.00
2024-06-07 00:27:34.002197,0,0,-5,0,0,1,76,79,117,90,22,122.02,199,-30.00,-14.00,-1071.00
2024-06-07 00:27:34.044015,0,0,-5,0,0,1,76,79,115,90,21,121.98,199,5.00,7.00,-967.00
2024-06-07 00:27:34.207003,0,0,-5,0,0,1,76,79,113,80,21,121.96,199,-2.00,-25.00,-1048.00
2024-06-07 00:27:34.248065,0,0,-5,0,0,0,76,79,112,80,21,121.96,200,-4.00,3.00,-1048.00
2024-06-07 00:27:34.412316,0,0,-5,0,0,0,76,79,111,80,21,121.98,200,-67.00,-4.00,-1050.00
2024-06-07 00:27:34.452164,0,0,-5,0,0,0,76,79,111,80,21,121.96,200,-17.00,2.00,-1015.00
2024-06-07 00:27:34.616686,0,0,-5,0,0,0,76,79,110,80,21,121.97,200,5.00,20.00,-996.00
2024-06-07 00:27:34.656158,0,0,-5,0,0,0,76,79,111,80,21,121.91,200,24.00,-8.00,-1016.00
2024-06-07 00:27:34.821424,0,0,-5,0,0,0,76,79,111,80,21,121.97,200,-44.00,11.00,-1128.00
2024-06-07 00:27:34.860200,-1,0,-5,0,0,0,76,79,112,80,21,121.85,200,-50.00,9.00,-1035.00
2024-06-07 00:27:35.026173,0,0,-5,0,0,0,76,79,112,80,21,121.92,200,6.00,-10.00,-1008.00
2024-06-07 00:27:35.064307,-1,0,-5,0,0,0,76,79,112,80,21,121.92,200,-8.00,28.00,-955.00
2024-06-07 00:27:35.118112,0,0,-5,0,0,0,76,79,113,80,21,121.95,200,-12.00,10.00,-958.00
2024-06-07 00:27:35.218623,0,0,-5,0,0,0,76,79,113,80,21,122.00,201,2.00,-28.00,-1034.00
2024-06-07 00:27:35.319324,-1,0,-5,0,0,0,76,79,113,80,21,121.92,201,43.00,-22.00,-1091.00
2024-06-07 00:27:35.421211,0,0,-5,0,0,0,76,79,113,80,21,121.92,201,29.00,-8.00,-995.00
2024-06-07 00:27:35.524157,0,0,-5,0,0,0,78,79,112,80,21,121.94,201,3.00,-21.00,-1005.00
2024-06-07 00:27:35.626001,0,0,-5,0,0,0,78,79,112,80,21,121.90,201,1.00,2.00,-1051.00
2024-06-07 00:27:35.743039,1,0,-5,0,0,0,78,79,111,80,21,121.87,201,-36.00,7.00,-1042.00
2024-06-07 00:27:35.829307,0,0,-5,0,0,0,78,79,111,80,21,121.91,201,-5.00,11.00,-1031.00
2024-06-07 00:27:35.947810,0,0,-5,0,0,0,78,79,110,80,21,121.89,201,12.00,-5.00,-998.00
2024-06-07 00:27:36.036993,0,0,-5,0,0,0,78,79,110,80,21,121.86,201,-7.00,7.00,-1010.00
2024-06-07 00:27:36.135057,0,0,-5,0,0,0,78,79,109,80,21,121.93,201,7.00,-2.00,-1083.00
2024-06-07 00:27:36.255020,0,0,-5,0,0,0,78,79,109,80,21,121.92,202,-24.00,-4.00,-1043.00
2024-06-07 00:27:36.339205,0,0,-5,0,0,0,78,79,108,80,21,121.92,202,-14.00,-2.00,-1010.00
2024-06-07 00:27:36.441162,0,0,-5,0,0,0,78,79,108,80,21,121.90,202,9.00,24.00,-996.00
2024-06-07 00:27:36.562175,0,0,-5,0,0,0,77,79,108,80,21,121.90,202,-2.00,25.00,-979.00
2024-06-07 00:27:36.645233,0,0,-5,0,0,0,77,79,108,80,21,121.88,202,28.00,1.00,-969.00
2024-06-07 00:27:36.767048,0,0,-5,0,0,0,77,79,108,80,21,121.87,202,-33.00,6.00,-1024.00
2024-06-07 00:27:36.849192,0,0,-5,0,0,0,77,79,108,80,21,121.99,202,-13.00,6.00,-946.00
2024-06-07 00:27:36.972167,-1,0,-5,0,0,0,77,79,109,80,21,121.96,202,-5.00,-14.00,-1020.00
2024-06-07 00:27:37.053453,0,0,-5,0,0,0,77,79,109,80,21,121.86,202,-3.00,-2.00,-972.00
2024-06-07 00:27:37.190035,0,0,-5,0,0,0,77,79,110,80,21,121.97,202,-43.00,26.00,-1013.00
2024-06-07 00:27:37.333051,0,0,-5,0,0,0,77,79,111,80,21,121.96,203,-67.00,27.00,-1027.00
2024-06-07 00:27:37.359041,0,0,-5,0,0,0,77,79,112,80,21,121.94,203,50.00,-53.00,-976.00
2024-06-07 00:27:37.532243,0,0,-5,0,0,0,77,79,113,80,21,122.04,203,-24.00,1.00,-975.00
2024-06-07 00:27:37.628448,0,0,-5,0,0,0,77,79,114,80,21,122.02,203,37.00,-3.00,-944.00
2024-06-07 00:27:37.679473,0,0,-5,0,0,0,77,79,115,80,21,122.02,203,-53.00,-6.00,-1060.00
2024-06-07 00:27:37.802688,0,0,-5,0,0,0,77,79,116,80,21,121.95,203,-46.00,8.00,-976.00
2024-06-07 00:27:37.879215,0,0,-5,0,0,0,77,79,118,90,21,121.97,203,21.00,-27.00,-998.00
2024-06-07 00:27:37.971164,0,0,-5,0,0,0,77,79,119,90,21,122.01,203,-1.00,-39.00,-1005.00
2024-06-07 00:27:38.169145,0,0,-5,0,0,0,77,79,121,90,21,122.03,203,3.00,-35.00,-1034.00
2024-06-07 00:27:38.174905,0,0,-5,0,0,-1,77,79,122,90,21,122.11,203,2.00,-13.00,-943.00
2024-06-07 00:27:38.303470,0,0,-5,0,0,0,77,79,123,90,21,122.03,204,-2.00,-18.00,-961.00
2024-06-07 00:27:38.416234,0,0,-5,0,0,0,77,79,124,90,21,122.12,204,-58.00,0.00,-966.00
2024-06-07 00:27:38.429520,0,0,-5,0,0,0,77,79,125,90,21,122.08,204,-24.00,4.00,-1019.00
2024-06-07 00:27:38.582935,0,0,-5,0,0,0,77,80,125,90,21,122.09,204,-14.00,-9.00,-1002.00
2024-06-07 00:27:38.723777,0,0,-5,0,0,0,77,80,126,90,21,122.10,204,-37.00,16.00,-944.00
