TS,pitch,roll,yaw,vgx,vgy,vgz,templ,temph,tof,h,bat,baro,time,agx,agy,agz
2024-06-07 00:28:04.004376,0,0,-7,0,0,0,80,81,10,0,20,120.76,212,-3.00,15.00,-1000.00
2024-06-07 00:28:04.084072,0,0,-7,0,0,0,80,81,10,0,20,120.79,212,-4.00,16.00,-999.00
2024-06-07 00:28:04.183674,0,0,-7,0,0,0,80,81,10,0,20,120.77,212,-3.00,15.00,-998.00
2024-06-07 00:28:04.311596,0,0,-7,0,0,0,80,81,10,0,20,120.73,212,-3.00,16.00,-999.00
2024-06-07 00:28:04.388090,0,0,-7,0,0,0,80,81,10,0,20,120.78,212,-3.00,15.00,-1000.00
2024-06-07 00:28:04.515859,0,0,-7,0,0,0,80,81,10,0,20,120.75,212,-2.00,14.00,-998.00
2024-06-07 00:28:04.591549,0,0,-7,0,0,0,80,81,10,0,20,120.78,212,-4.00,15.00,-999.00
2024-06-07 00:28:04.698046,0,0,-7,0,0,0,80,81,10,0,20,120.75,212,-2.00,16.00,-999.00
2024-06-07 00:28:04.795345,0,0,-7,0,0,0,80,81,10,0,20,120.71,212,-3.00,16.00,-1002.00
2024-06-07 00:28:04.925708,0,0,-7,0,0,0,80,81,10,0,20,120.75,212,-3.00,14.00,-999.00
2024-06-07 00:28:05.000664,0,0,-7,0,0,0,80,81,10,0,20,120.73,212,-3.00,15.00,-999.00
2024-06-07 00:28:05.130475,0,0,-7,0,0,0,80,81,10,0,20,120.76,212,-3.00,15.00,-999.00
2024-06-07 00:28:05.203341,0,0,-7,0,0,0,80,81,10,0,20,120.77,212,-2.00,14.00,-1000.00
2024-06-07 00:28:05.335233,0,0,-7,0,0,0,80,81,10,0,20,120.75,212,-4.00,15.00,-998.00
2024-06-07 00:28:05.407350,0,0,-7,0,0,0,80,81,10,0,20,120.78,212,-3.00,14.00,-999.00
2024-06-07 00:28:05.539947,0,0,-7,0,0,0,80,81,10,0,20,120.70,212,-2.00,16.00,-1000.00
2024-06-07 00:28:05.611378,0,0,-7,0,0,0,80,81,10,0,20,120.70,212,-2.00,15.00,-999.00
2024-06-07 00:28:05.713366,0,0,-7,0,0,0,80,81,10,0,20,120.69,212,-1.00,15.00,-1003.00
2024-06-07 00:28:05.847658,0,0,-7,0,0,0,80,81,10,0,20,120.75,212,-3.00,14.00,-1002.00
2024-06-07 00:28:05.917248,0,0,-7,0,0,0,80,81,10,0,20,120.74,212,-2.00,15.00,-1000.00
2024-06-07 00:28:06.052041,0,0,-7,0,0,0,80,81,10,0,20,120.68,212,-2.00,15.00,-1001.00
2024-06-07 00:28:06.121065,0,0,-7,0,0,0,80,81,10,0,20,120.68,212,-4.00,15.00,-1001.00
2024-06-07 00:28:06.256933,0,0,-7,0,0,0,80,81,10,0,20,120.69,212,-3.00,14.00,-998.00
2024-06-07 00:28:06.325684,0,0,-7,0,0,0,80,81,10,0,20,120.76,212,-2.00,16.00,-1001.00
2024-06-07 00:28:06.461710,0,0,-7,0,0,0,80,81,10,0,20,120.74,212,-4.00,16.00,-997.00
2024-06-07 00:28:06.529244,0,0,-7,0,0,0,80,81,10,0,20,120.75,212,-3.00,16.00,-999.00
2024-06-07 00:28:06.631086,0,0,-7,0,0,0,80,81,10,0,20,120.75,212,-2.00,14.00,-998.00
2024-06-07 00:28:06.768770,0,0,-7,0,0,0,80,82,10,0,20,120.76,212,-2.00,14.00,-999.00
2024-06-07 00:28:06.835084,0,0,-7,0,0,0,80,82,10,0,20,120.75,212,-7.00,6.00,-996.00
2024-06-07 00:28:06.973802,0,0,-7,0,0,0,80,82,10,0,20,120.75,212,-3.00,12.00,-999.00
2024-06-07 00:28:07.106904,0,0,-7,0,0,0,80,82,10,0,20,120.75,212,-3.00,3.00,-1003.00
2024-06-07 00:28:07.158920,0,0,-5,0,0,0,80,82,10,0,20,120.75,212,-42.00,-7.00,-1004.00
2024-06-07 00:28:07.200382,0,0,-3,0,0,0,80,82,10,0,20,120.75,212,-31.00,-8.00,-993.00
2024-06-07 00:28:07.293956,0,0,-2,0,0,0,80,82,10,0,20,120.75,212,-17.00,8.00,-1078.00
2024-06-07 00:28:07.396132,0,0,-2,0,0,0,80,82,10,0,20,120.75,212,-43.00,17.00,-1209.00
2024-06-07 00:28:07.793628,0,0,-1,0,0,-3,80,82,10,0,20,120.75,212,-10.00,-16.00,-1361.00
2024-06-07 00:28:07.906580,-1,1,-2,0,0,-6,80,82,16,0,20,120.75,212,10.00,-33.00,-1197.00
2024-06-07 00:28:07.906914,-1,0,-2,0,0,-7,79,82,23,0,20,120.97,213,-18.00,35.00,-1024.00
2024-06-07 00:28:07.907170,-1,0,-2,0,0,-7,79,82,32,10,20,121.13,213,-13.00,0.00,-1024.00
2024-06-07 00:28:07.907388,0,0,-2,0,0,-8,79,82,38,20,20,121.22,213,15.00,-33.00,-931.00
2024-06-07 00:28:08.008070,0,0,-2,0,0,-7,79,82,44,30,20,121.26,213,-37.00,28.00,-944.00
2024-06-07 00:28:08.213117,0,0,-2,0,0,-6,79,82,52,30,20,121.35,213,-31.00,-2.00,-950.00
2024-06-07 00:28:08.213185,0,0,-2,0,0,-5,79,82,59,40,20,121.43,213,-8.00,-12.00,-906.00
2024-06-07 00:28:08.356476,0,0,-2,0,0,-4,79,82,64,40,20,121.43,213,-39.00,10.00,-922.00
2024-06-07 00:28:08.520236,0,0,-2,0,0,-3,79,82,69,50,20,121.53,213,-26.00,8.00,-926.00
2024-06-07 00:28:08.520291,0,0,-2,0,0,-2,79,82,72,50,20,121.58,213,-9.00,-26.00,-926.00
2024-06-07 00:28:08.663656,0,0,-2,0,0,-1,79,82,75,50,20,121.56,213,10.00,-4.00,-919.00
2024-06-07 00:28:08.829094,1,0,-2,0,0,0,80,83,76,50,20,121.59,214,-15.00,-5.00,-923.00
2024-06-07 00:28:08.829151,1,0,-2,0,0,0,80,83,77,50,20,121.60,214,14.00,-2.00,-982.00
2024-06-07 00:28:08.972409,0,0,-2,0,0,0,80,83,78,50,20,121.62,214,7.00,-28.00,-959.00
2024-06-07 00:28:09.134598,0,0,-2,0,0,0,80,83,78,50,20,121.68,214,24.00,-5.00,-970.00
2024-06-07 00:28:09.134655,0,0,-2,0,0,0,80,83,78,50,20,121.61,214,-11.00,0.00,-1072.00
2024-06-07 00:28:09.277883,0,0,-2,0,0,0,80,83,79,50,20,121.60,214,-45.00,-9.00,-1042.00
2024-06-07 00:28:09.441934,0,0,-2,0,0,0,80,83,79,50,20,121.65,214,-17.00,0.00,-1021.00
2024-06-07 00:28:09.442278,0,0,-2,0,0,0,80,83,80,60,20,121.64,214,3.00,-13.00,-983.00
2024-06-07 00:28:09.585162,0,0,-2,0,0,0,80,83,80,60,20,121.67,214,-10.00,8.00,-994.00
2024-06-07 00:28:09.748992,0,0,-2,0,0,0,80,83,81,60,20,121.69,214,-35.00,10.00,-981.00
2024-06-07 00:28:09.749321,0,0,-2,0,0,0,80,82,81,60,20,121.67,215,-16.00,5.00,-984.00
2024-06-07 00:28:09.903250,0,0,-2,0,0,0,80,82,81,60,20,121.67,215,-15.00,5.00,-1003.00
2024-06-07 00:28:09.968768,0,0,-2,0,0,0,80,82,81,60,20,121.66,215,-4.00,-27.00,-1003.00
2024-06-07 00:28:10.047805,0,0,-2,0,0,0,80,82,82,60,20,121.67,215,2.00,12.00,-1019.00
2024-06-07 00:28:10.149939,0,0,-2,0,0,0,80,82,82,60,20,121.63,215,-7.00,5.00,-965.00
2024-06-07 00:28:10.251737,0,0,-2,0,0,0,80,82,83,60,20,121.63,215,15.00,-27.00,-988.00
2024-06-07 00:28:10.454876,0,0,-2,0,0,0,80,82,83,60,20,121.73,215,22.00,-9.00,-987.00
2024-06-07 00:28:10.455696,0,0,-2,0,0,0,80,82,84,60,20,121.65,215,-9.00,8.00,-977.00
2024-06-07 00:28:10.659863,0,0,-2,0,0,0,80,82,84,60,20,121.65,215,0.00,5.00,-930.00
2024-06-07 00:28:10.660118,0,0,-2,0,0,0,80,82,85,60,20,121.67,215,22.00,-6.00,-1024.00
2024-06-07 00:28:10.761853,0,0,-2,0,0,0,80,82,86,60,20,121.70,216,-29.00,-2.00,-1014.00
2024-06-07 00:28:10.864357,0,0,-2,0,0,0,80,82,86,60,20,121.69,216,18.00,-18.00,-960.00
2024-06-07 00:28:10.967059,0,0,-2,0,0,0,80,82,87,60,20,121.69,216,-38.00,13.00,-991.00
2024-06-07 00:28:11.069441,0,0,-2,0,0,0,80,82,86,60,20,121.69,216,31.00,-31.00,-960.00
2024-06-07 00:28:11.171572,0,0,-2,0,0,0,80,82,86,60,20,121.63,216,-55.00,15.00,-1012.00
2024-06-07 00:28:11.220751,0,0,-2,0,0,0,80,82,86,60,20,121.68,216,30.00,-18.00,-1033.00
2024-06-07 00:28:11.376713,0,0,-2,0,0,0,80,82,86,60,20,121.70,216,-62.00,31.00,-986.00
2024-06-07 00:28:11.426018,0,0,-2,0,0,0,80,82,85,60,20,121.73,216,19.00,-9.00,-958.00
2024-06-07 00:28:11.581381,0,0,-2,0,0,0,80,82,85,60,20,121.67,216,-22.00,2.00,-1008.00
2024-06-07 00:28:11.629734,0,0,-2,0,0,0,80,82,84,60,20,121.65,216,-26.00,-6.00,-1043.00
2024-06-07 00:28:11.731867,0,0,-2,0,0,0,79,82,83,60,20,121.73,217,-4.00,-1.00,-977.00
2024-06-07 00:28:11.888550,0,0,-2,0,0,0,79,82,83,60,20,121.69,217,-28.00,0.00,-1079.00
2024-06-07 00:28:11.935767,0,0,-2,0,0,0,79,82,82,60,20,121.72,217,0.00,12.00,-974.00
2024-06-07 00:28:12.093340,0,0,-2,0,0,0,79,82,82,60,20,121.60,217,5.00,-12.00,-1050.00
2024-06-07 00:28:12.139891,0,0,-2,0,0,0,79,82,81,60,20,121.58,217,-17.00,2.00,-1027.00
2024-06-07 00:28:12.298039,0,0,-2,0,0,0,79,82,81,60,20,121.59,217,-31.00,26.00,-1017.00
2024-06-07 00:28:12.343688,0,0,-2,0,0,0,79,82,80,60,20,121.64,217,-16.00,2.00,-1063.00
2024-06-07 00:28:12.502975,0,0,-2,0,0,0,79,82,80,60,20,121.64,217,31.00,-36.00,-992.00
2024-06-07 00:28:12.547642,0,0,-2,0,0,0,79,82,79,60,20,121.62,217,-39.00,6.00,-1018.00
2024-06-07 00:28:12.662983,0,0,-2,0,0,0,79,82,79,60,20,121.59,217,-12.00,5.00,-981.00
2024-06-07 00:28:12.753358,0,0,-2,0,0,0,79,82,79,60,20,121.64,218,-14.00,-16.00,-1027.00
2024-06-07 00:28:12.853839,0,0,-2,0,0,0,79,82,79,60,20,121.73,218,6.00,-25.00,-1002.00
2024-06-07 00:28:13.015776,0,0,-2,0,0,0,79,82,79,60,20,121.68,218,-19.00,-1.00,-1076.00
2024-06-07 00:28:13.057586,0,0,-2,0,0,-1,79,82,81,60,20,121.61,218,-24.00,-41.00,-1087.00
2024-06-07 00:28:13.219530,0,0,-2,0,0,-2,79,82,83,60,20,121.71,218,0.00,-11.00,-1112.00
2024-06-07 00:28:13.261473,0,0,-2,0,0,-3,79,82,88,60,20,121.76,218,0.00,-9.00,-1099.00
2024-06-07 00:28:13.363462,0,0,-2,0,0,-4,79,82,92,70,20,121.78,218,22.00,-27.00,-1158.00
2024-06-07 00:28:13.526737,0,0,-2,0,0,-5,79,82,97,70,20,121.89,218,-48.00,21.00,-1061.00
2024-06-07 00:28:13.567483,0,0,-2,0,0,-5,79,82,103,80,20,121.88,218,29.00,-28.00,-974.00
2024-06-07 00:28:13.731496,0,0,-2,0,0,-5,79,82,109,80,20,121.88,218,-58.00,3.00,-1038.00
2024-06-07 00:28:13.771358,0,0,-2,0,0,-5,79,82,116,90,20,122.00,219,-28.00,11.00,-1021.00
2024-06-07 00:28:13.936242,0,0,-2,0,0,-5,79,82,122,90,20,122.06,219,3.00,-18.00,-1017.00
2024-06-07 00:28:13.976557,0,0,-2,0,0,-5,79,82,127,100,20,122.13,219,0.00,-24.00,-988.00
2024-06-07 00:28:14.141119,0,0,-2,0,0,-5,79,82,134,100,20,122.16,219,15.00,-22.00,-936.00
2024-06-07 00:28:14.180113,0,0,-2,0,0,-5,79,82,140,110,20,122.24,219,-30.00,-15.00,-961.00
2024-06-07 00:28:14.281403,0,0,-2,0,0,-5,79,82,146,120,20,122.28,219,-33.00,1.00,-977.00
2024-06-07 00:28:14.448665,0,0,-2,0,0,-5,79,82,151,120,20,122.30,219,-28.00,3.00,-974.00
2024-06-07 00:28:14.485763,0,0,-2,0,0,-4,79,82,156,130,20,122.38,219,-7.00,3.00,-939.00
2024-06-07 00:28:14.653099,0,0,-2,0,0,-4,79,82,161,130,20,122.41,219,20.00,-4.00,-946.00
2024-06-07 00:28:14.689374,0,0,-2,0,0,-3,79,82,164,140,20,122.46,219,6.00,-5.00,-934.00
2024-06-07 00:28:14.857873,0,0,-2,0,0,-3,80,81,168,140,20,122.42,220,-10.00,-8.00,-1019.00
2024-06-07 00:28:14.893305,0,0,-2,0,0,-3,80,81,171,140,20,122.56,220,23.00,-5.00,-956.00
2024-06-07 00:28:15.062659,0,0,-2,0,0,-2,80,81,173,150,20,122.53,220,-26.00,31.00,-983.00
2024-06-07 00:28:15.062721,0,0,-2,0,0,-2,80,81,175,150,20,122.53,220,29.00,6.00,-919.00
2024-06-07 00:28:15.148761,0,0,-2,0,0,-1,80,81,176,150,20,122.61,220,0.00,1.00,-950.00
2024-06-07 00:28:15.250842,0,0,-2,0,0,-1,80,81,178,150,20,122.55,220,-1.00,-2.00,-977.00
2024-06-07 00:28:15.352420,0,0,-2,0,0,0,80,81,180,150,20,122.64,220,-10.00,-16.00,-1000.00
2024-06-07 00:28:15.472582,0,0,-2,0,0,0,80,81,179,150,20,122.63,220,4.00,-10.00,-960.00
2024-06-07 00:28:15.556684,0,0,-2,0,0,0,80,81,180,160,20,122.61,220,-25.00,25.00,-971.00
2024-06-07 00:28:15.677186,0,0,-2,0,0,0,80,81,180,160,20,122.59,220,-4.00,12.00,-1046.00
2024-06-07 00:28:15.760612,0,0,-2,0,0,0,79,81,181,160,20,122.57,221,15.00,-11.00,-1011.00
2024-06-07 00:28:15.882067,0,0,-2,0,0,0,79,81,181,160,20,122.65,221,46.00,-35.00,-1007.00
2024-06-07 00:28:15.964658,0,0,-2,0,0,0,79,81,181,160,20,122.64,221,23.00,3.00,-1020.00
2024-06-07 00:28:16.087684,0,0,-2,0,0,0,79,81,181,160,20,122.57,221,13.00,-3.00,-985.00
2024-06-07 00:28:16.168718,0,0,-2,0,0,0,79,81,180,160,20,122.65,221,17.00,6.00,-981.00
2024-06-07 00:28:16.291929,0,0,-2,0,0,0,79,81,181,160,20,122.66,221,14.00,-32.00,-953.00
2024-06-07 00:28:16.372479,0,0,-2,0,0,0,79,81,180,160,20,122.65,221,1.00,5.00,-970.00
2024-06-07 00:28:16.496843,0,0,-2,0,0,0,79,81,179,160,20,122.65,221,-11.00,19.00,-963.00
2024-06-07 00:28:16.576436,0,0,-2,0,0,0,79,81,178,160,20,122.61,221,-1.00,5.00,-1017.00
2024-06-07 00:28:16.702431,0,0,-2,0,0,0,79,81,177,160,20,122.57,221,-13.00,-15.00,-1026.00
2024-06-07 00:28:16.780393,0,0,-2,0,0,0,78,81,175,150,20,122.52,222,-2.00,-7.00,-934.00
2024-06-07 00:28:16.906013,0,0,-2,0,0,0,78,81,174,150,20,122.57,222,0.00,1.00,-963.00
2024-06-07 00:28:16.984848,0,0,-2,0,0,0,78,81,173,150,20,122.56,222,-17.00,14.00,-997.00
2024-06-07 00:28:17.099184,0,0,-2,0,0,0,78,81,172,150,20,122.54,222,-19.00,-3.00,-1006.00
2024-06-07 00:28:17.188211,0,0,-2,0,0,0,78,81,171,150,20,122.52,222,-14.00,-1.00,-1075.00
2024-06-07 00:28:17.290741,0,0,-2,0,0,0,78,81,170,150,20,122.53,222,1.00,9.00,-925.00
2024-06-07 00:28:17.392727,0,0,-2,0,0,1,78,81,171,150,20,122.52,222,-13.00,25.00,-929.00
2024-06-07 00:28:17.520106,0,0,-2,0,0,1,78,81,169,150,20,122.46,222,-23.00,27.00,-957.00
2024-06-07 00:28:17.597094,0,0,-2,0,0,2,78,81,169,150,20,122.44,222,6.00,1.00,-984.00
2024-06-07 00:28:17.827549,0,0,-2,0,0,2,78,81,167,140,20,122.45,223,12.00,27.00,-985.00
2024-06-07 00:28:17.827610,0,0,-2,0,0,2,78,81,166,140,20,122.46,223,16.00,-19.00,-987.00
2024-06-07 00:28:17.904585,0,0,-2,0,0,2,78,81,165,140,20,122.45,223,38.00,-2.00,-985.00
2024-06-07 00:28:18.004159,0,0,-2,0,0,2,78,81,163,140,20,122.48,223,-50.00,20.00,-1048.00
2024-06-07 00:28:18.134644,0,0,-2,0,0,2,78,81,160,140,20,122.50,223,34.00,21.00,-916.00
2024-06-07 00:28:18.208261,0,0,-2,0,0,2,78,81,159,130,20,122.42,223,12.00,4.00,-983.00
2024-06-07 00:28:18.339284,0,0,-2,0,0,2,78,81,158,130,20,122.42,223,36.00,7.00,-977.00
2024-06-07 00:28:18.412146,0,0,-2,0,0,2,78,81,156,130,20,122.41,223,-26.00,20.00,-998.00
2024-06-07 00:28:18.544205,0,0,-2,0,0,2,78,81,155,130,20,122.40,223,9.00,1.00,-943.00
2024-06-07 00:28:18.565568,0,0,-2,0,0,1,78,81,152,130,20,122.44,223,-18.00,-6.00,-1019.00
2024-06-07 00:28:18.749153,0,0,-2,0,0,1,78,81,150,130,20,122.40,224,-21.00,7.00,-1013.00
2024-06-07 00:28:18.820068,0,0,-2,0,0,1,77,81,148,120,20,122.35,224,-55.00,9.00,-1019.00
2024-06-07 00:28:18.871100,0,0,-2,0,0,1,77,81,147,120,20,122.38,224,-20.00,8.00,-1023.00
2024-06-07 00:28:19.056478,0,0,-2,0,0,1,77,81,146,120,20,122.29,224,-18.00,7.00,-989.00
2024-06-07 00:28:19.075127,0,0,-2,0,0,1,77,81,144,120,20,122.31,224,-17.00,1.00,-978.00
2024-06-07 00:28:19.260922,0,0,-2,0,0,1,77,81,142,120,20,122.26,224,4.00,7.00,-990.00
2024-06-07 00:28:19.278957,0,0,-2,0,0,1,77,81,140,120,20,122.33,224,6.00,0.00,-982.00
2024-06-07 00:28:19.380983,0,0,-2,0,0,1,77,81,138,110,20,122.30,224,-38.00,4.00,-1049.00
2024-06-07 00:28:19.568146,0,0,-2,0,0,1,77,81,137,110,20,122.25,224,3.00,28.00,-1007.00
2024-06-07 00:28:19.585419,0,0,-2,0,0,1,77,81,135,110,20,122.24,224,-7.00,8.00,-952.00
2024-06-07 00:28:19.773449,0,0,-2,0,0,1,77,81,134,110,20,122.19,225,-14.00,4.00,-1012.00
2024-06-07 00:28:19.788964,0,0,-2,0,0,1,79,81,132,110,20,122.19,225,5.00,-13.00,-1056.00
2024-06-07 00:28:19.977749,0,0,-2,0,0,1,79,81,130,110,20,122.19,225,27.00,10.00,-1060.00
2024-06-07 00:28:19.993009,0,0,-2,0,0,1,79,81,128,110,20,122.18,225,-11.00,11.00,-983.00
2024-06-07 00:28:20.182985,0,0,-2,0,0,1,79,81,126,110,20,122.21,225,2.00,-27.00,-994.00
2024-06-07 00:28:20.199740,0,0,-2,0,0,0,79,81,126,100,20,122.15,225,-34.00,10.00,-1025.00
2024-06-07 00:28:20.299488,0,0,-2,0,0,0,79,81,124,100,20,122.21,225,5.00,-14.00,-1038.00
2024-06-07 00:28:20.490092,0,0,-2,0,0,0,79,81,123,100,20,122.17,225,10.00,-10.00,-1018.00
2024-06-07 00:28:20.503010,0,0,-2,0,0,0,79,81,122,100,20,122.13,225,-3.00,11.00,-1025.00
2024-06-07 00:28:20.694577,0,0,-2,0,0,0,79,81,122,100,20,122.13,225,-3.00,15.00,-985.00
2024-06-07 00:28:20.707668,0,0,-2,0,0,0,79,81,122,100,20,122.11,226,-27.00,21.00,-1025.00
2024-06-07 00:28:20.899402,0,0,-2,0,0,0,78,80,121,100,20,122.15,226,-17.00,-24.00,-1020.00
2024-06-07 00:28:20.911083,0,0,-2,0,0,0,78,80,121,100,20,122.16,226,19.00,22.00,-1048.00
2024-06-07 00:28:21.104095,0,0,-2,0,0,0,78,80,120,100,20,122.15,226,3.00,-3.00,-1019.00
2024-06-07 00:28:21.115031,0,0,-2,0,0,0,78,80,120,100,20,122.11,226,-14.00,-14.00,-978.00
2024-06-07 00:28:21.216977,0,0,-2,0,0,0,78,80,119,100,20,122.04,226,-9.00,15.00,-997.00
2024-06-07 00:28:21.374912,0,0,-2,0,0,0,78,80,119,100,20,122.03,226,-18.00,1.00,-1013.00
2024-06-07 00:28:21.420910,0,0,-2,0,0,0,78,80,118,100,20,122.07,226,-3.00,0.00,-997.00
2024-06-07 00:28:21.616185,0,0,-2,0,0,0,78,80,118,100,20,122.11,226,-37.00,29.00,-1014.00
2024-06-07 00:28:21.625270,0,0,-2,0,0,0,78,80,118,100,20,122.10,226,-20.00,-9.00,-1010.00
2024-06-07 00:28:21.726828,0,0,-2,0,0,0,78,80,118,100,20,122.07,227,1.00,6.00,-1000.00
2024-06-07 00:28:21.923457,0,0,-2,0,0,0,78,81,119,100,20,122.08,227,2.00,-16.00,-981.00
2024-06-07 00:28:21.930885,0,0,-2,0,0,0,78,81,119,100,20,122.13,227,23.00,10.00,-1024.00
2024-06-07 00:28:22.118416,0,0,-2,0,0,0,78,81,120,100,20,122.14,227,-14.00,9.00,-1017.00
2024-06-07 00:28:22.134859,0,0,-2,0,0,0,78,81,121,100,20,122.07,227,13.00,-5.00,-983.00
2024-06-07 00:28:22.345852,0,0,-2,0,0,0,78,81,122,100,20,122.20,227,-14.00,9.00,-935.00
2024-06-07 00:28:22.346527,0,0,-2,0,0,0,78,81,124,100,20,122.18,227,-18.00,22.00,-997.00
2024-06-07 00:28:22.454123,-4,0,-2,0,0,0,78,81,125,100,20,122.20,227,-2.00,8.00,-1082.00
2024-06-07 00:28:22.542909,-8,0,-2,1,0,0,78,81,127,100,20,122.17,227,46.00,-13.00,-1003.00
2024-06-07 00:28:22.845251,-8,0,-2,2,0,0,78,81,128,100,20,122.15,227,7.00,-22.00,-958.00
2024-06-07 00:28:22.887001,-8,0,-2,4,0,0,78,81,128,100,20,122.17,228,-17.00,-14.00,-1004.00
2024-06-07 00:28:22.887435,-7,0,-2,5,0,0,77,81,129,100,20,122.19,228,-10.00,-5.00,-961.00
2024-06-07 00:28:23.016153,-6,0,-2,6,0,0,77,81,130,110,20,122.19,228,-22.00,-7.00,-946.00
2024-06-07 00:28:23.067712,-6,0,-2,6,0,0,77,81,129,110,20,122.20,228,-50.00,21.00,-993.00
2024-06-07 00:28:23.108241,-5,0,-2,7,0,0,77,81,129,110,20,122.18,228,-40.00,0.00,-1018.00
2024-06-07 00:28:23.265158,-4,0,-2,7,0,0,77,81,130,110,20,122.03,228,-43.00,-1.00,-989.00
2024-06-07 00:28:23.325925,-1,0,-2,7,0,0,77,81,128,100,20,122.08,228,-61.00,-1.00,-998.00
2024-06-07 00:28:23.409627,1,0,-2,6,0,0,77,81,129,100,20,122.07,228,-79.00,31.00,-978.00
2024-06-07 00:28:23.572361,3,0,-2,5,0,0,77,81,127,100,20,122.04,228,-93.00,-7.00,-1002.00
2024-06-07 00:28:23.716113,3,0,-2,4,0,0,77,81,128,100,20,122.13,228,-49.00,1.00,-1019.00
2024-06-07 00:28:23.716341,1,0,-2,3,0,0,77,81,127,100,20,122.11,229,-40.00,-20.00,-1070.00
2024-06-07 00:28:23.879538,0,0,-2,3,0,0,78,81,127,100,20,122.11,229,-30.00,-4.00,-972.00
2024-06-07 00:28:24.022936,0,0,-2,3,0,0,78,81,126,100,20,122.20,229,-43.00,2.00,-981.00
2024-06-07 00:28:24.023019,0,0,-2,2,0,0,78,81,125,100,20,122.14,229,-15.00,-4.00,-993.00
2024-06-07 00:28:24.186779,0,0,-2,2,0,0,78,81,125,100,20,122.07,229,-77.00,13.00,-1050.00
2024-06-07 00:28:24.341023,0,0,-2,2,0,0,78,81,124,100,20,122.10,229,11.00,-26.00,-948.00
2024-06-07 00:28:24.341193,0,0,-2,2,0,0,78,81,124,100,20,122.07,229,-55.00,9.00,-969.00
2024-06-07 00:28:24.432568,0,0,-2,2,0,0,78,81,124,100,20,122.12,229,25.00,-27.00,-996.00
2024-06-07 00:28:24.531545,0,0,-2,2,0,0,78,81,123,100,20,122.10,229,-36.00,6.00,-1037.00
2024-06-07 00:28:24.687875,0,0,-2,2,0,0,78,81,123,100,20,122.17,229,-20.00,-3.00,-987.00
2024-06-07 00:28:24.737225,0,0,-2,2,0,0,78,81,123,100,20,122.15,230,-32.00,10.00,-1069.00
2024-06-07 00:28:24.837707,1,0,-2,1,0,0,78,81,123,100,20,122.15,230,15.00,-28.00,-993.00
2024-06-07 00:28:24.995028,4,0,-2,1,0,0,78,81,123,100,20,122.09,230,-42.00,1.00,-1033.00
2024-06-07 00:28:25.041643,1,0,-2,0,0,0,78,81,123,100,20,122.18,230,-6.00,-31.00,-991.00
2024-06-07 00:28:25.200014,0,0,-2,0,0,0,78,81,123,100,20,122.14,230,-62.00,14.00,-952.00
2024-06-07 00:28:25.245538,0,0,-2,0,0,0,78,81,123,100,20,122.15,230,2.00,-14.00,-1064.00
2024-06-07 00:28:25.404991,0,0,-2,0,0,0,78,81,123,100,20,122.16,230,22.00,-31.00,-945.00
2024-06-07 00:28:25.449557,0,0,-2,0,0,0,78,81,122,100,20,122.15,230,-9.00,0.00,-997.00
2024-06-07 00:28:25.609914,0,0,-2,0,0,0,78,81,122,100,20,122.11,230,-6.00,1.00,-978.00
2024-06-07 00:28:25.653552,0,0,-2,0,0,0,78,81,121,100,20,122.13,230,-31.00,-4.00,-1024.00
2024-06-07 00:28:25.755657,0,0,-2,0,0,0,78,81,121,100,20,122.08,231,-29.00,17.00,-970.00
2024-06-07 00:28:25.916891,0,0,-2,0,0,0,77,81,120,100,20,122.06,231,-20.00,-5.00,-1034.00
2024-06-07 00:28:25.959539,0,0,-2,0,0,0,77,81,120,100,20,122.12,231,27.00,-9.00,-959.00
2024-06-07 00:28:26.121457,0,0,-2,0,0,0,77,81,120,100,20,122.14,231,-7.00,0.00,-991.00
2024-06-07 00:28:26.163536,0,0,-2,0,0,0,77,81,119,100,20,122.14,231,-22.00,8.00,-1029.00
2024-06-07 00:28:26.326734,0,0,-2,0,0,0,77,81,118,100,20,122.21,231,-3.00,4.00,-1029.00
2024-06-07 00:28:26.367421,0,0,-2,0,0,0,77,81,119,100,20,122.15,231,11.00,-11.00,-1029.00
2024-06-07 00:28:26.531062,0,0,-2,0,0,0,77,81,119,100,20,122.14,231,28.00,-18.00,-999.00
2024-06-07 00:28:26.573483,0,0,-2,0,0,0,77,81,120,100,20,122.23,231,-6.00,-1.00,-1067.00
2024-06-07 00:28:26.623466,0,0,-2,0,0,0,77,81,120,100,20,122.13,231,-31.00,17.00,-1032.00
2024-06-07 00:28:26.736087,0,0,-2,0,0,0,77,81,121,100,20,122.13,232,-17.00,4.00,-981.00
2024-06-07 00:28:26.826511,0,0,-2,0,0,0,78,80,122,100,20,122.13,232,-1.00,3.00,-977.00
2024-06-07 00:28:26.928469,0,0,-2,0,0,0,78,80,122,100,20,122.20,232,26.00,-2.00,-983.00
2024-06-07 00:28:27.030367,0,0,-2,0,0,0,78,80,123,100,20,122.08,232,19.00,5.00,-989.00
2024-06-07 00:28:27.145358,0,0,-2,0,0,0,78,80,124,100,20,122.18,232,-31.00,2.00,-1017.00
2024-06-07 00:28:27.234371,5,0,-2,0,0,0,78,80,125,100,20,122.16,232,-53.00,7.00,-1000.00
2024-06-07 00:28:27.351194,8,0,-2,-1,0,0,78,80,125,100,20,122.18,232,12.00,-16.00,-1003.00
2024-06-07 00:28:27.438292,8,0,-2,-3,0,0,78,80,127,100,20,122.17,232,-33.00,16.00,-981.00
2024-06-07 00:28:27.555001,7,0,-2,-4,0,0,78,80,127,100,20,122.20,232,-17.00,19.00,-1028.00
2024-06-07 00:28:27.642303,6,1,-2,-5,0,0,78,80,126,100,20,122.21,232,79.00,-9.00,-1044.00
2024-06-07 00:28:27.744673,6,1,-2,-6,0,0,78,80,129,100,20,122.27,233,64.00,1.00,-982.00
2024-06-07 00:28:27.862106,5,0,-2,-6,0,0,77,81,129,100,20,122.27,233,0.00,11.00,-984.00
2024-06-07 00:28:27.948788,5,0,-2,-7,0,0,77,81,129,100,20,122.23,233,50.00,-6.00,-1051.00
2024-06-07 00:28:28.067010,3,0,-2,-7,0,0,77,81,130,100,20,122.17,233,57.00,-21.00,-940.00
2024-06-07 00:28:28.153296,0,-1,-2,-6,0,0,77,81,130,100,20,122.19,233,95.00,-2.00,-955.00
2024-06-07 00:28:28.271682,-2,0,-2,-6,0,0,77,81,131,100,20,122.21,233,42.00,-19.00,-1040.00
2024-06-07 00:28:28.362123,-3,0,-2,-5,0,0,77,81,131,100,20,122.18,233,53.00,-12.00,-1014.00
2024-06-07 00:28:28.458277,-3,0,-2,-4,0,0,77,81,131,110,20,122.26,233,31.00,21.00,-1003.00
2024-06-07 00:28:28.578918,-1,1,-2,-3,0,0,77,81,131,110,20,122.25,233,73.00,-4.00,-961.00
2024-06-07 00:28:28.662544,0,2,-2,-3,0,0,77,81,130,110,20,122.24,233,23.00,-19.00,-997.00
2024-06-07 00:28:28.764735,0,2,-2,-3,0,0,77,81,129,110,20,122.16,234,37.00,1.00,-933.00
2024-06-07 00:28:28.886146,0,1,-2,-3,0,0,79,81,128,110,20,122.14,234,17.00,-2.00,-1076.00
2024-06-07 00:28:28.968208,0,-1,-2,-3,0,0,79,81,128,110,20,122.22,234,82.00,-47.00,-1064.00
2024-06-07 00:28:29.090910,0,-1,-2,-2,0,0,79,81,127,100,20,122.14,234,24.00,0.00,-983.00
2024-06-07 00:28:29.172248,0,0,-2,-2,0,0,79,81,126,100,20,122.19,234,-20.00,6.00,-1002.00
2024-06-07 00:28:29.295718,-1,0,-2,-2,0,0,79,81,126,100,20,122.15,234,0.00,-16.00,-1028.00
2024-06-07 00:28:29.376209,-4,0,-2,-2,0,0,79,81,126,100,20,122.17,234,0.00,4.00,-942.00
2024-06-07 00:28:29.500474,-4,0,-2,-1,0,0,79,81,125,100,20,122.24,234,26.00,-22.00,-1001.00
2024-06-07 00:28:29.580630,-1,0,-2,0,0,0,79,81,125,100,20,122.20,234,50.00,-22.00,-995.00
2024-06-07 00:28:29.705354,0,0,-2,0,0,0,79,81,125,100,20,122.13,234,24.00,-24.00,-967.00
2024-06-07 00:28:29.784295,0,0,-2,0,0,0,79,81,124,100,20,122.19,235,20.00,11.00,-970.00
2024-06-07 00:28:29.911336,0,0,-2,0,0,0,78,81,123,100,20,122.10,235,0.00,7.00,-1005.00
2024-06-07 00:28:29.988262,0,0,-2,0,0,0,78,81,123,100,20,122.10,235,27.00,-3.00,-1068.00
2024-06-07 00:28:30.115135,-1,0,-2,0,0,0,78,81,122,100,20,122.08,235,-67.00,21.00,-1060.00
2024-06-07 00:28:30.192239,-1,0,-2,0,0,0,78,81,121,100,20,122.16,235,-11.00,-2.00,-960.00
2024-06-07 00:28:30.294282,-1,0,-2,0,0,0,78,81,120,100,20,122.12,235,32.00,-21.00,-1022.00
2024-06-07 00:28:30.422133,0,0,-2,0,0,0,78,81,120,100,20,122.16,235,10.00,-15.00,-1010.00
2024-06-07 00:28:30.498297,0,0,-2,0,0,0,78,81,120,100,20,122.15,235,-6.00,15.00,-1054.00
2024-06-07 00:28:30.626881,0,0,-2,0,0,0,78,81,120,100,20,122.10,235,32.00,2.00,-989.00
2024-06-07 00:28:30.702088,0,0,-2,0,0,0,78,81,120,100,20,122.13,236,-10.00,-10.00,-1038.00
2024-06-07 00:28:30.832134,0,0,-2,0,0,0,78,81,121,100,20,122.09,236,62.00,-16.00,-936.00
2024-06-07 00:28:30.907246,0,0,-2,0,0,0,78,80,120,100,20,122.16,236,-21.00,15.00,-1075.00
2024-06-07 00:28:31.036500,0,0,-2,0,0,0,78,80,121,100,20,122.16,236,-27.00,0.00,-1028.00
2024-06-07 00:28:31.111159,0,0,-2,0,0,0,78,80,121,100,20,122.12,236,-8.00,6.00,-989.00
2024-06-07 00:28:31.165464,0,0,-2,0,0,0,78,80,121,100,20,122.16,236,25.00,-3.00,-911.00
2024-06-07 00:28:31.265779,0,0,-2,0,0,0,78,80,121,100,20,122.10,236,30.00,4.00,-1014.00
2024-06-07 00:28:31.366096,0,0,-2,0,0,0,78,80,120,100,20,122.07,236,5.00,13.00,-1033.00
2024-06-07 00:28:31.503004,0,0,-2,0,0,0,78,80,120,100,20,122.19,236,-14.00,-18.00,-1053.00
2024-06-07 00:28:31.569892,0,0,-2,0,0,0,78,80,120,100,20,122.17,236,13.00,0.00,-980.00
2024-06-07 00:28:31.753204,0,-4,-2,0,0,0,78,80,119,100,20,122.21,237,52.00,-19.00,-941.00
2024-06-07 00:28:31.773948,0,-8,-2,0,-1,0,78,80,120,100,20,122.14,237,-15.00,-14.00,-1051.00
2024-06-07 00:28:31.957995,0,-6,-2,0,-2,0,77,80,119,100,20,122.17,237,25.00,2.00,-965.00
2024-06-07 00:28:31.977903,0,-3,-2,0,-4,0,77,80,119,100,20,122.13,237,49.00,6.00,-1031.00
2024-06-07 00:28:32.162776,0,0,-2,0,-4,0,77,80,120,100,20,122.11,237,2.00,11.00,-996.00
2024-06-07 00:28:32.183771,0,2,-2,0,-3,0,77,80,120,100,20,122.14,237,-26.00,36.00,-1017.00
2024-06-07 00:28:32.284778,0,1,-2,0,-2,0,77,80,121,100,20,122.14,237,16.00,0.00,-988.00
2024-06-07 00:28:32.386071,0,0,-2,0,-2,0,77,80,123,100,20,122.13,237,33.00,-29.00,-1002.00
2024-06-07 00:28:32.572353,0,0,-2,0,-2,0,77,80,125,100,20,122.12,237,39.00,-1.00,-981.00
2024-06-07 00:28:32.589815,0,0,-2,0,-2,0,77,80,126,100,20,122.15,237,31.00,12.00,-985.00
2024-06-07 00:28:32.691792,0,0,-2,0,-2,0,77,80,127,100,20,122.20,238,-2.00,33.00,-973.00
2024-06-07 00:28:32.793771,0,0,-2,0,-2,0,77,80,129,100,20,122.14,238,-7.00,22.00,-993.00
2024-06-07 00:28:32.982919,0,0,-2,0,-2,0,78,80,130,100,20,122.16,238,-6.00,20.00,-942.00
2024-06-07 00:28:32.997786,0,0,-2,0,-2,0,78,80,131,110,20,122.19,238,9.00,10.00,-1011.00
2024-06-07 00:28:33.187650,0,0,-2,0,-2,0,78,80,131,110,20,122.19,238,0.00,9.00,-1034.00
2024-06-07 00:28:33.201895,0,1,-2,0,-2,0,78,80,131,110,20,122.21,238,-2.00,26.00,-994.00
2024-06-07 00:28:33.391488,0,3,-2,0,-2,0,78,80,131,110,20,122.18,238,-18.00,25.00,-971.00
2024-06-07 00:28:33.405996,0,4,-2,0,-1,0,78,80,130,110,20,122.19,238,1.00,14.00,-994.00
2024-06-07 00:28:33.596285,0,2,-2,0,0,0,78,80,130,110,20,122.14,238,-1.00,2.00,-1029.00
2024-06-07 00:28:33.609845,0,1,-2,0,0,0,78,80,128,110,20,122.18,238,7.00,3.00,-954.00
2024-06-07 00:28:33.801296,0,0,-2,0,0,0,78,80,127,100,20,122.19,239,19.00,-16.00,-1005.00
2024-06-07 00:28:33.813792,0,0,-2,0,0,0,78,80,126,100,20,122.21,239,23.00,17.00,-979.00
2024-06-07 00:28:34.006155,0,1,-2,0,0,0,79,80,125,100,20,122.20,239,-9.00,-20.00,-1029.00
2024-06-07 00:28:34.017731,0,2,-2,0,0,0,79,80,124,100,20,122.19,239,-27.00,13.00,-963.00
2024-06-07 00:28:34.211074,0,2,-2,0,0,0,79,80,124,100,19,122.18,239,-55.00,1.00,-1055.00
2024-06-07 00:28:34.221873,-1,1,-2,0,0,0,79,80,123,100,19,122.14,239,17.00,-20.00,-1048.00
2024-06-07 00:28:34.415497,0,0,-2,0,0,0,79,80,123,100,19,122.11,239,47.00,-6.00,-997.00
2024-06-07 00:28:34.425819,0,0,-2,0,0,0,79,80,122,100,19,122.12,239,26.00,-9.00,-971.00
2024-06-07 00:28:34.620354,0,1,-2,0,0,0,79,80,122,100,19,122.14,239,7.00,1.00,-1100.00
2024-06-07 00:28:34.629837,0,0,-2,0,0,0,79,80,122,100,19,122.12,239,-2.00,-17.00,-1037.00
2024-06-07 00:28:34.825797,0,0,-2,0,0,0,79,80,123,100,19,122.23,240,9.00,-24.00,-1019.00
2024-06-07 00:28:34.833691,0,0,-2,0,0,0,79,80,123,100,19,122.14,240,-14.00,1.00,-1028.00
2024-06-07 00:28:35.029851,0,0,-2,0,0,0,78,81,124,100,19,122.11,240,21.00,13.00,-1037.00
2024-06-07 00:28:35.037826,0,0,-2,0,0,0,78,81,124,100,19,122.18,240,-14.00,3.00,-1032.00
2024-06-07 00:28:35.088740,0,0,-2,0,0,0,78,81,124,100,19,122.17,240,-30.00,0.00,-1051.00
2024-06-07 00:28:35.235128,0,0,-2,0,0,0,78,81,124,100,19,122.21,240,-10.00,13.00,-980.00
2024-06-07 00:28:35.293143,0,0,-2,0,0,0,78,81,125,100,19,122.19,240,15.00,-16.00,-989.00
2024-06-07 00:28:35.394769,0,1,-2,0,0,0,78,81,124,100,19,122.12,240,-16.00,-25.00,-995.00
2024-06-07 00:28:35.542183,0,1,-2,0,0,0,78,81,125,100,19,122.21,240,1.00,-16.00,-943.00
2024-06-07 00:28:35.598778,0,0,-2,0,0,0,78,81,125,100,19,122.19,240,13.00,-5.00,-998.00
2024-06-07 00:28:35.750430,0,0,-2,0,0,0,78,81,126,100,19,122.20,241,-3.00,8.00,-939.00
2024-06-07 00:28:35.802648,0,5,-2,0,0,0,78,81,126,100,19,122.18,241,8.00,11.00,-1001.00
2024-06-07 00:28:35.951394,0,8,-2,0,1,0,78,81,128,100,19,122.16,241,-12.00,-14.00,-1040.00
2024-06-07 00:28:36.006616,0,6,-2,0,2,0,78,81,126,100,19,122.13,241,6.00,-2.00,-980.00
2024-06-07 00:28:36.156123,0,4,-2,0,3,0,78,81,127,100,19,122.08,241,-26.00,-21.00,-1008.00
2024-06-07 00:28:36.210534,0,1,-2,0,3,0,78,81,127,100,19,122.09,241,32.00,-42.00,-1008.00
2024-06-07 00:28:36.361010,0,0,-2,0,3,0,78,81,127,100,19,122.12,241,0.00,-19.00,-986.00
2024-06-07 00:28:36.414675,1,0,-2,0,2,0,78,81,128,100,19,122.16,241,-13.00,-23.00,-994.00
2024-06-07 00:28:36.516554,1,1,-2,0,2,0,78,81,127,100,19,122.16,241,-38.00,-22.00,-1064.00
2024-06-07 00:28:36.668502,1,1,-2,0,2,0,78,81,127,100,19,122.14,241,25.00,-24.00,-958.00
2024-06-07 00:28:36.720583,0,1,-2,0,2,0,78,81,126,100,19,122.15,242,13.00,-29.00,-970.00
2024-06-07 00:28:36.872946,0,1,-2,0,2,0,78,81,126,100,19,122.13,242,2.00,-31.00,-991.00
2024-06-07 00:28:36.924473,0,1,-2,0,2,0,77,81,126,100,19,122.08,242,18.00,-25.00,-983.00
2024-06-07 00:28:37.111622,0,1,-2,0,2,0,77,81,125,100,19,122.08,242,19.00,0.00,-1019.00
2024-06-07 00:28:37.128604,0,1,-2,0,2,0,77,81,125,100,19,122.15,242,42.00,-41.00,-983.00
2024-06-07 00:28:37.253731,0,0,-2,0,2,0,77,81,125,100,19,122.12,242,-36.00,-4.00,-1045.00
2024-06-07 00:28:37.341285,0,0,-2,0,2,0,77,81,124,100,19,122.13,242,-1.00,-5.00,-975.00
2024-06-07 00:28:37.434483,0,0,-2,0,2,0,77,81,124,100,19,122.12,242,-7.00,-19.00,-988.00
2024-06-07 00:28:37.896957,0,-1,-2,0,2,0,77,81,125,100,19,122.08,242,31.00,-26.00,-1000.00
2024-06-07 00:28:37.897026,0,-2,-2,0,2,0,77,81,124,100,19,122.13,242,-20.00,-6.00,-1017.00
2024-06-07 00:28:37.897369,0,-3,-2,0,1,0,77,81,125,100,19,122.06,243,-42.00,-1.00,-1059.00
2024-06-07 00:28:37.925149,0,-1,-2,0,0,0,77,81,123,100,19,122.09,243,21.00,-16.00,-1018.00
2024-06-07 00:28:37.944358,0,0,-2,0,0,0,78,81,124,100,19,122.14,243,27.00,-28.00,-1010.00
2024-06-07 00:28:38.127709,0,0,-2,0,0,0,78,81,123,100,18,122.12,243,-4.00,-14.00,-989.00
2024-06-07 00:28:38.148480,0,0,-2,0,0,0,78,81,123,100,18,122.09,243,48.00,-30.00,-1040.00
2024-06-07 00:28:38.332826,0,0,-2,0,0,0,78,81,123,100,18,122.06,243,10.00,-17.00,-961.00
2024-06-07 00:28:38.352427,0,0,-2,0,0,0,78,81,122,100,18,122.06,243,13.00,-10.00,-968.00
2024-06-07 00:28:38.475784,0,0,-2,0,0,0,78,81,122,100,18,122.09,243,49.00,-22.00,-1000.00
2024-06-07 00:28:38.624681,0,0,-2,0,0,0,78,81,122,100,18,122.10,243,13.00,-10.00,-1016.00
2024-06-07 00:28:38.768069,0,0,-2,0,0,0,78,81,121,100,18,122.14,243,-47.00,18.00,-1009.00
2024-06-07 00:28:38.768214,0,0,-2,0,0,0,78,81,122,100,18,122.13,244,22.00,2.00,-1056.00
2024-06-07 00:28:38.811339,0,0,-2,0,0,0,78,81,121,100,18,122.07,244,45.00,-18.00,-998.00
2024-06-07 00:28:39.126591,0,0,-2,0,0,0,79,80,121,100,18,122.10,244,-7.00,3.00,-927.00
2024-06-07 00:28:39.164924,0,0,-2,0,0,0,79,80,121,100,18,122.16,244,3.00,-10.00,-1039.00
2024-06-07 00:28:39.168430,0,0,-2,0,0,0,79,80,121,100,18,122.14,244,-10.00,-2.00,-950.00
2024-06-07 00:28:39.219325,0,0,-2,0,0,0,79,80,121,100,18,122.15,244,12.00,-7.00,-1024.00
2024-06-07 00:28:39.330674,0,0,-2,0,0,0,79,80,122,100,18,122.12,244,-29.00,35.00,-997.00
2024-06-07 00:28:39.425157,0,0,-2,0,0,0,79,80,122,100,18,122.14,244,19.00,-7.00,-1009.00
2024-06-07 00:28:39.535300,0,0,-2,0,0,0,79,80,122,100,18,122.13,244,6.00,-15.00,-1011.00
2024-06-07 00:28:39.628379,0,0,-2,0,0,0,79,80,121,100,18,122.12,244,21.00,-15.00,-983.00
2024-06-07 00:28:39.741258,0,0,-2,0,0,0,79,80,122,100,18,122.11,245,-31.00,24.00,-1017.00
2024-06-07 00:28:39.833065,0,0,-2,0,0,0,79,80,122,100,18,122.11,245,51.00,-33.00,-1019.00
2024-06-07 00:28:39.934202,0,0,-2,0,0,0,77,81,123,100,18,122.11,245,0.00,-14.00,-998.00
2024-06-07 00:28:40.047151,0,0,-2,0,0,0,77,81,123,100,18,122.08,245,-13.00,-2.00,-977.00
2024-06-07 00:28:40.140419,0,0,1,0,0,0,77,81,124,100,18,122.13,245,0.00,8.00,-975.00
2024-06-07 00:28:40.240320,0,0,7,0,0,0,77,81,124,100,18,122.16,245,11.00,4.00,-1002.00
2024-06-07 00:28:40.354769,0,0,13,0,0,0,77,81,125,100,18,122.10,245,30.00,-21.00,-972.00
2024-06-07 00:28:40.448475,0,0,19,0,0,0,77,81,125,100,18,122.11,245,29.00,-8.00,-1121.00
2024-06-07 00:28:40.546173,0,0,25,0,0,0,77,81,126,100,18,122.19,245,-40.00,11.00,-1004.00
2024-06-07 00:28:40.661575,0,0,31,0,0,0,77,81,127,100,18,122.11,245,-24.00,14.00,-964.00
2024-06-07 00:28:40.750381,0,1,37,0,0,0,77,81,127,100,18,122.14,246,-51.00,9.00,-989.00
2024-06-07 00:28:40.866363,0,0,43,0,0,0,77,81,128,100,18,122.12,246,3.00,2.00,-940.00
2024-06-07 00:28:40.954064,0,0,49,0,0,0,78,81,128,100,18,122.20,246,-12.00,-21.00,-978.00
2024-06-07 00:28:41.071491,0,0,56,0,0,0,78,81,128,110,18,122.17,246,2.00,-3.00,-975.00
2024-06-07 00:28:41.159955,0,0,62,0,0,0,78,81,128,110,18,122.15,246,-33.00,25.00,-1008.00
2024-06-07 00:28:41.260335,0,0,68,0,0,0,78,81,128,110,18,122.14,246,-18.00,8.00,-994.00
2024-06-07 00:28:41.362043,0,0,74,0,0,0,78,81,127,100,18,122.12,246,29.00,-25.00,-954.00
2024-06-07 00:28:41.480673,0,0,80,0,0,0,78,81,126,100,18,122.12,246,-19.00,-10.00,-983.00
2024-06-07 00:28:41.566066,-1,0,87,0,0,0,78,81,126,100,18,122.20,246,-3.00,-15.00,-1033.00
2024-06-07 00:28:41.685562,-1,0,93,0,0,0,78,81,125,100,18,122.17,246,4.00,-34.00,-1040.00
2024-06-07 00:28:41.770453,-1,0,99,0,0,0,78,81,125,100,18,122.14,247,-2.00,-25.00,-988.00
2024-06-07 00:28:41.890315,-1,0,105,0,0,0,78,81,124,100,18,122.13,247,2.00,0.00,-977.00
2024-06-07 00:28:41.974036,-1,0,111,0,0,0,78,80,125,100,18,122.10,247,0.00,-26.00,-999.00
2024-06-07 00:28:42.095141,-1,0,117,0,0,0,78,80,125,100,17,122.14,247,-24.00,-6.00,-1081.00
2024-06-07 00:28:42.178318,-1,0,123,0,0,0,78,80,124,100,17,122.11,247,-3.00,-19.00,-992.00
2024-06-07 00:28:42.280068,-1,0,129,0,0,0,78,80,124,100,17,122.10,247,-47.00,5.00,-1004.00
2024-06-07 00:28:42.402254,-1,0,135,0,0,0,78,80,124,100,17,122.12,247,-46.00,-4.00,-1045.00
2024-06-07 00:28:42.484056,-1,0,141,0,0,0,78,80,125,100,17,122.08,247,-38.00,13.00,-1067.00
2024-06-07 00:28:42.607123,-1,0,147,0,0,0,78,80,126,100,17,122.18,247,-10.00,-23.00,-956.00
2024-06-07 00:28:42.687981,-1,-1,153,0,0,0,78,80,127,100,17,122.21,247,-8.00,-1.00,-977.00
2024-06-07 00:28:42.741305,-1,0,159,0,0,0,78,80,126,100,17,122.17,248,-69.00,38.00,-1016.00
2024-06-07 00:28:42.840926,0,0,165,0,0,0,78,80,127,100,17,122.17,248,-5.00,9.00,-937.00
2024-06-07 00:28:43.016626,0,0,170,0,0,0,78,81,127,100,17,122.21,248,37.00,-23.00,-1017.00
2024-06-07 00:28:43.096452,0,0,176,0,0,0,78,81,128,100,17,122.18,248,10.00,11.00,-961.00
2024-06-07 00:28:43.146962,0,0,-177,0,0,0,78,81,128,100,17,122.21,248,-4.00,18.00,-1002.00
2024-06-07 00:28:43.323802,0,0,-171,0,0,0,78,81,128,100,17,122.16,248,19.00,-13.00,-1007.00
2024-06-07 00:28:43.351407,0,0,-165,0,0,0,78,81,128,100,17,122.21,248,-27.00,6.00,-1044.00
2024-06-07 00:28:43.528662,0,0,-160,0,0,0,78,81,129,100,17,122.14,248,-45.00,19.00,-984.00
2024-06-07 00:28:43.561150,0,0,-154,0,0,0,78,81,128,100,17,122.20,248,-100.00,53.00,-994.00
2024-06-07 00:28:43.656981,0,0,-148,0,0,0,78,81,129,100,17,122.23,248,-16.00,-7.00,-959.00
2024-06-07 00:28:43.836146,0,0,-142,0,0,0,78,81,129,100,17,122.25,249,14.00,-21.00,-974.00
2024-06-07 00:28:43.860988,0,0,-136,0,0,0,78,81,128,100,17,122.23,249,-8.00,30.00,-952.00
2024-06-07 00:28:44.040778,0,0,-130,0,0,0,79,81,128,100,17,122.17,249,1.00,-9.00,-1007.00
2024-06-07 00:28:44.064952,0,0,-119,0,0,0,79,81,127,100,17,122.11,249,-14.00,-4.00,-1022.00
2024-06-07 00:28:44.245424,0,0,-113,0,0,0,79,81,127,100,17,122.13,249,-20.00,32.00,-935.00
2024-06-07 00:28:44.268887,0,0,-107,0,0,0,79,81,126,100,17,122.23,249,22.00,-3.00,-915.00
2024-06-07 00:28:44.414673,0,0,-101,0,0,0,79,81,127,100,17,122.12,249,23.00,-14.00,-1020.00
2024-06-07 00:28:44.472901,0,0,-95,0,0,0,79,81,126,100,17,122.15,249,0.00,-7.00,-1047.00
2024-06-07 00:28:44.654922,0,0,-89,0,0,0,79,81,126,100,17,122.16,249,-35.00,2.00,-1054.00
2024-06-07 00:28:44.676898,0,0,-83,0,0,0,79,81,126,100,17,122.15,250,2.00,-14.00,-1001.00
2024-06-07 00:28:44.860074,0,0,-78,0,0,0,79,81,126,100,17,122.23,250,5.00,7.00,-950.00
2024-06-07 00:28:44.880816,0,0,-72,0,0,0,79,81,126,100,17,122.15,250,21.00,-20.00,-980.00
2024-06-07 00:28:45.065717,0,0,-66,0,0,0,77,80,126,100,17,122.16,250,-25.00,0.00,-996.00
2024-06-07 00:28:45.085189,0,0,-60,0,0,0,77,80,126,100,17,122.14,250,-3.00,-9.00,-1002.00
2024-06-07 00:28:45.211420,0,0,-54,0,0,0,77,80,126,100,17,122.13,250,42.00,-22.00,-1040.00
2024-06-07 00:28:45.288891,0,0,-49,0,0,0,77,80,125,100,17,122.15,250,5.00,-4.00,-957.00
2024-06-07 00:28:45.393903,0,0,-43,0,0,0,77,80,126,100,17,122.16,250,41.00,5.00,-1026.00
2024-06-07 00:28:45.492845,0,0,-37,0,0,0,77,80,126,100,17,122.17,250,-5.00,-15.00,-972.00
2024-06-07 00:28:45.678987,0,0,-31,0,0,0,77,80,127,100,17,122.21,250,-18.00,-2.00,-986.00
2024-06-07 00:28:45.696645,0,0,-25,0,0,0,77,80,127,100,17,122.19,251,-6.00,12.00,-989.00
2024-06-07 00:28:45.798708,0,0,-20,0,0,0,77,80,126,100,17,122.17,251,35.00,-12.00,-973.00
2024-06-07 00:28:45.986062,0,0,-16,0,0,0,77,80,126,100,17,122.14,251,-9.00,0.00,-1038.00
2024-06-07 00:28:46.003073,0,0,-13,0,0,0,77,81,126,100,17,122.17,251,28.00,-5.00,-941.00
2024-06-07 00:28:46.190935,0,0,-10,0,0,0,77,81,125,100,17,122.15,251,14.00,-12.00,-967.00
2024-06-07 00:28:46.206611,0,0,-8,0,0,0,77,81,125,100,17,122.13,251,-7.00,13.00,-984.00
2024-06-07 00:28:46.395695,0,0,-7,0,0,0,77,81,124,100,17,122.23,251,23.00,-20.00,-1039.00
2024-06-07 00:28:46.410705,0,0,-6,0,0,0,77,81,124,100,17,122.13,251,-10.00,-2.00,-1038.00
2024-06-07 00:28:46.600470,0,0,-5,0,0,0,77,81,124,100,17,122.19,251,40.00,-31.00,-942.00
2024-06-07 00:28:46.600631,0,0,-4,0,0,0,77,81,124,100,17,122.18,251,-4.00,-2.00,-976.00
2024-06-07 00:28:46.665750,0,0,-4,0,0,0,77,81,123,100,17,122.20,252,13.00,-9.00,-1037.00
2024-06-07 00:28:46.805737,0,0,-4,0,0,0,77,81,122,100,17,122.17,252,-1.00,-2.00,-1037.00
2024-06-07 00:28:46.869873,0,0,-4,0,0,0,77,81,123,100,17,122.15,252,-44.00,28.00,-1036.00
2024-06-07 00:28:47.010195,0,0,-4,0,0,0,78,81,122,100,17,122.14,252,-22.00,0.00,-994.00
2024-06-07 00:28:47.073785,0,0,-4,0,0,0,78,81,122,100,17,122.05,252,-25.00,15.00,-987.00
2024-06-07 00:28:47.214888,0,0,-4,0,0,0,78,81,122,100,17,122.13,252,-30.00,6.00,-1019.00
2024-06-07 00:28:47.277759,0,0,-4,0,0,0,78,81,122,100,17,122.11,252,0.00,-2.00,-986.00
2024-06-07 00:28:47.379716,0,0,-4,0,0,0,78,81,121,100,17,122.09,252,-10.00,19.00,-957.00
2024-06-07 00:28:47.522167,0,0,-4,0,0,0,78,81,121,100,17,122.10,252,44.00,-30.00,-992.00
2024-06-07 00:28:47.583682,0,0,-4,0,0,0,78,81,120,100,17,122.10,252,17.00,-19.00,-1021.00
2024-06-07 00:28:47.727804,0,0,-4,0,0,0,78,81,120,100,17,122.13,253,35.00,-10.00,-991.00
2024-06-07 00:28:47.788452,0,0,-4,0,0,0,78,81,119,100,17,122.13,253,-1.00,8.00,-1039.00
2024-06-07 00:28:47.931742,0,0,-4,0,0,0,78,81,119,100,17,122.08,253,-16.00,19.00,-967.00
2024-06-07 00:28:47.992521,0,0,-4,0,0,0,77,80,118,100,17,122.02,253,14.00,-33.00,-1040.00
2024-06-07 00:28:48.136513,0,0,-4,0,0,0,77,80,117,100,17,122.11,253,26.00,-13.00,-973.00
2024-06-07 00:28:48.196684,0,0,-4,0,0,0,77,80,117,100,17,122.09,253,64.00,-13.00,-950.00
2024-06-07 00:28:48.298665,0,0,-4,0,0,0,77,80,117,100,17,122.10,253,-1.00,14.00,-1030.00
2024-06-07 00:28:48.443763,0,0,-4,0,0,0,77,80,117,100,17,122.11,253,-28.00,12.00,-1023.00
2024-06-07 00:28:48.503555,0,0,-4,0,0,0,77,80,118,100,17,122.13,253,-34.00,-10.00,-990.00
2024-06-07 00:28:48.649768,0,0,-4,0,0,0,77,80,119,100,17,122.13,253,-12.00,-3.00,-1071.00
2024-06-07 00:28:48.707362,0,0,-4,0,0,-1,77,80,119,100,17,122.13,254,3.00,2.00,-967.00
2024-06-07 00:28:48.808430,0,0,-5,0,0,0,77,80,119,100,17,122.12,254,0.00,2.00,-965.00
2024-06-07 00:28:48.955598,0,0,-11,0,0,0,77,80,119,100,17,122.02,254,-4.00,8.00,-955.00
2024-06-07 00:28:49.012496,0,0,-17,0,0,0,78,81,118,100,17,122.11,254,-31.00,1.00,-991.00
2024-06-07 00:28:49.160468,0,0,-23,0,0,0,78,81,117,100,16,122.13,254,18.00,0.00,-958.00
2024-06-07 00:28:49.216390,0,0,-29,0,0,0,78,81,116,100,16,122.13,254,-11.00,18.00,-996.00
2024-06-07 00:28:49.365178,0,0,-35,0,0,0,78,81,116,100,16,122.09,254,32.00,-30.00,-1047.00
2024-06-07 00:28:49.420459,0,0,-41,0,0,0,78,81,116,100,16,122.03,254,36.00,-17.00,-956.00
2024-06-07 00:28:49.569993,0,0,-47,0,0,0,78,81,117,100,16,122.07,254,14.00,3.00,-994.00
2024-06-07 00:28:49.624438,0,0,-53,0,0,0,78,81,117,100,16,122.08,254,17.00,10.00,-946.00
2024-06-07 00:28:49.774748,0,0,-59,0,0,0,78,81,117,100,16,122.13,255,32.00,-18.00,-980.00
2024-06-07 00:28:49.828411,0,0,-65,0,0,0,78,81,118,100,16,122.10,255,-2.00,5.00,-939.00
2024-06-07 00:28:49.979559,0,0,-71,0,0,0,78,81,119,100,16,122.08,255,46.00,-25.00,-1035.00
2024-06-07 00:28:50.032408,0,0,-77,0,0,0,78,80,120,100,16,122.08,255,-7.00,19.00,-1015.00
2024-06-07 00:28:50.184361,0,-1,-83,0,0,0,78,80,121,100,16,122.10,255,-26.00,13.00,-967.00
2024-06-07 00:28:50.238604,0,-1,-89,0,0,0,78,80,124,100,16,122.17,255,0.00,10.00,-985.00
2024-06-07 00:28:50.287342,0,0,-95,0,0,0,78,80,125,100,16,122.16,255,1.00,12.00,-997.00
2024-06-07 00:28:50.389600,0,0,-101,0,0,0,78,80,127,100,16,122.14,255,2.00,18.00,-991.00
2024-06-07 00:28:50.491856,0,0,-107,0,0,0,78,80,129,100,16,122.24,255,-3.00,23.00,-984.00
2024-06-07 00:28:50.593842,0,0,-113,0,0,0,78,80,131,100,16,122.18,255,3.00,29.00,-960.00
2024-06-07 00:28:50.696302,0,0,-119,0,0,0,78,80,133,110,16,122.21,256,-14.00,14.00,-989.00
2024-06-07 00:28:50.799104,0,0,-125,0,0,0,78,80,135,110,16,122.27,256,-2.00,20.00,-978.00
2024-06-07 00:28:50.899272,0,0,-131,0,0,-1,78,80,137,110,16,122.24,256,-11.00,-24.00,-942.00
2024-06-07 00:28:51.003525,0,0,-138,0,0,0,77,81,138,110,16,122.31,256,16.00,-30.00,-957.00
2024-06-07 00:28:51.103389,0,0,-144,0,0,0,77,81,139,110,16,122.27,256,14.00,14.00,-909.00
2024-06-07 00:28:51.208303,0,0,-150,0,0,0,77,81,139,110,16,122.36,256,9.00,-5.00,-937.00
2024-06-07 00:28:51.307901,0,0,-156,0,0,0,77,81,138,110,16,122.30,256,4.00,-18.00,-995.00
2024-06-07 00:28:51.413056,0,0,-162,0,0,0,77,81,138,110,16,122.25,256,-28.00,3.00,-963.00
2024-06-07 00:28:51.512545,0,0,-168,0,0,0,77,81,137,110,16,122.25,256,-35.00,23.00,-927.00
2024-06-07 00:28:51.617897,0,0,-174,0,0,1,77,81,136,110,16,122.32,256,-38.00,-6.00,-1031.00
2024-06-07 00:28:51.717235,0,0,179,0,0,0,77,81,134,110,16,122.24,257,25.00,-25.00,-992.00
2024-06-07 00:28:51.819718,0,0,173,0,0,1,77,81,133,110,16,122.30,257,-15.00,9.00,-1017.00
2024-06-07 00:28:51.925056,0,0,167,0,0,1,77,81,130,110,16,122.21,257,24.00,0.00,-995.00
2024-06-07 00:28:52.022388,0,0,160,0,0,1,78,81,128,110,16,122.25,257,-27.00,8.00,-978.00
2024-06-07 00:28:52.143466,0,0,154,0,0,1,78,81,127,110,16,122.27,257,-37.00,-2.00,-1033.00
2024-06-07 00:28:52.286007,0,0,148,0,0,1,78,81,125,100,16,122.17,257,4.00,9.00,-1019.00
2024-06-07 00:28:52.328495,-1,0,142,0,0,0,78,81,124,100,16,122.23,257,-5.00,-1.00,-1048.00
2024-06-07 00:28:52.481372,-1,0,135,0,0,0,78,81,123,100,16,122.20,257,5.00,14.00,-977.00
2024-06-07 00:28:52.585786,0,0,129,0,0,0,78,81,122,100,16,122.13,257,-20.00,-23.00,-1015.00
2024-06-07 00:28:52.634082,0,0,123,0,0,0,78,81,121,100,16,122.17,257,1.00,-8.00,-1126.00
2024-06-07 00:28:52.759898,0,0,117,0,0,0,78,81,121,100,16,122.21,258,0.00,-18.00,-1004.00
2024-06-07 00:28:52.839377,0,0,111,0,0,0,78,81,121,100,16,122.20,258,6.00,-10.00,-997.00
2024-06-07 00:28:52.941326,0,0,105,0,0,0,78,81,121,100,16,122.19,258,-4.00,6.00,-1000.00
2024-06-07 00:28:53.049010,0,0,99,0,0,0,78,80,122,100,16,122.20,258,-7.00,-5.00,-1054.00
2024-06-07 00:28:53.200169,0,0,93,0,0,0,78,80,123,100,16,122.17,258,8.00,-17.00,-1020.00
2024-06-07 00:28:53.251592,0,0,87,0,0,0,78,80,123,100,16,122.17,258,-20.00,-7.00,-1070.00
2024-06-07 00:28:53.407532,0,0,81,0,0,0,78,80,125,100,16,122.21,258,-17.00,-16.00,-1011.00
2024-06-07 00:28:53.550797,0,0,75,0,0,0,78,80,126,100,16,122.15,258,16.00,-1.00,-979.00
2024-06-07 00:28:53.552068,0,0,70,0,0,0,78,80,127,100,16,122.17,258,-43.00,3.00,-1017.00
2024-06-07 00:28:53.694083,0,0,64,0,0,0,78,80,126,100,16,122.20,258,-22.00,5.00,-997.00
2024-06-07 00:28:53.837524,0,0,58,0,0,0,78,80,127,100,16,122.12,259,12.00,-9.00,-1016.00
2024-06-07 00:28:53.860066,0,0,53,0,0,0,78,80,127,100,16,122.18,259,22.00,-8.00,-992.00
2024-06-07 00:28:53.984082,0,0,47,0,0,0,78,80,127,100,16,122.21,259,4.00,-9.00,-968.00
2024-06-07 00:28:54.138051,0,0,42,0,0,0,78,80,126,100,16,122.23,259,37.00,-10.00,-1065.00
2024-06-07 00:28:54.165823,0,0,36,0,0,0,78,80,125,100,16,122.21,259,31.00,5.00,-992.00
2024-06-07 00:28:54.278389,0,0,31,0,0,0,78,80,125,100,16,122.25,259,-9.00,-6.00,-951.00
2024-06-07 00:28:54.368043,0,0,25,0,0,0,78,80,125,100,16,122.25,259,16.00,-12.00,-987.00
2024-06-07 00:28:54.485311,0,0,19,0,0,0,78,80,125,100,16,122.26,259,-56.00,35.00,-1072.00
2024-06-07 00:28:54.521002,0,0,14,0,0,0,78,80,125,100,16,122.20,259,57.00,-11.00,-938.00
2024-06-07 00:28:54.689747,0,0,10,0,0,0,78,80,124,100,16,122.19,259,24.00,8.00,-978.00
2024-06-07 00:28:54.724931,0,0,7,0,0,0,78,80,124,100,16,122.21,260,-24.00,19.00,-1088.00
2024-06-07 00:28:54.826982,0,0,4,0,0,0,78,80,124,100,16,122.20,260,-8.00,2.00,-996.00
2024-06-07 00:28:54.996972,0,0,2,0,0,0,78,80,125,100,16,122.19,260,-5.00,-13.00,-962.00
2024-06-07 00:28:55.030949,0,0,1,0,0,0,78,80,125,100,16,122.21,260,-43.00,30.00,-1046.00
2024-06-07 00:28:55.201645,0,0,0,0,0,0,78,80,126,100,16,122.16,260,40.00,-12.00,-927.00
2024-06-07 00:28:55.234974,0,0,0,0,0,0,78,80,127,100,16,122.17,260,-17.00,0.00,-1046.00
2024-06-07 00:28:55.406678,0,0,-1,0,0,0,78,80,126,100,16,122.20,260,9.00,-16.00,-952.00
2024-06-07 00:28:55.439282,0,0,-2,0,0,0,78,80,126,100,16,122.27,260,-31.00,10.00,-995.00
2024-06-07 00:28:55.611846,0,0,-2,0,0,0,78,80,125,100,16,122.20,260,-5.00,15.00,-1017.00
2024-06-07 00:28:55.643112,0,0,-2,0,0,0,78,80,125,100,16,122.18,260,-24.00,-2.00,-1036.00
2024-06-07 00:28:55.816421,0,0,-2,0,0,0,78,80,125,100,16,122.18,261,-17.00,11.00,-1028.00
2024-06-07 00:28:55.847961,0,0,-2,0,0,0,78,80,125,100,16,122.14,261,8.00,-2.00,-1008.00
2024-06-07 00:28:56.021317,0,0,-2,0,0,0,78,80,124,100,16,122.16,261,-19.00,15.00,-1071.00
2024-06-07 00:28:56.050965,0,0,-2,0,0,0,77,80,124,100,16,122.19,261,12.00,6.00,-933.00
2024-06-07 00:28:56.228402,0,0,-2,0,0,0,77,80,124,100,16,122.22,261,-5.00,12.00,-1001.00
2024-06-07 00:28:56.255196,0,0,-2,0,0,0,77,80,122,100,16,122.17,261,-14.00,-10.00,-1008.00
2024-06-07 00:28:56.430627,0,0,-2,0,0,0,77,80,122,100,16,122.25,261,-8.00,-23.00,-1027.00
2024-06-07 00:28:56.458971,0,0,-2,0,0,0,77,80,121,100,16,122.23,261,-42.00,10.00,-1007.00
2024-06-07 00:28:56.635472,0,0,-2,0,0,0,77,80,121,100,16,122.22,261,-16.00,-18.00,-986.00
2024-06-07 00:28:56.662894,0,0,-2,0,0,0,77,80,121,100,16,122.20,261,-33.00,1.00,-1038.00
2024-06-07 00:28:56.840350,0,0,-2,0,0,0,77,80,120,100,16,122.18,262,-16.00,18.00,-962.00
2024-06-07 00:28:56.866835,0,0,-2,0,0,0,77,80,120,100,16,122.14,262,13.00,-26.00,-1034.00
2024-06-07 00:28:57.044937,0,0,-2,0,0,0,77,80,120,100,16,122.19,262,24.00,-10.00,-1009.00
2024-06-07 00:28:57.070900,0,0,-2,0,0,0,77,80,120,100,15,122.20,262,-32.00,14.00,-997.00
2024-06-07 00:28:57.250322,0,0,-2,0,0,0,77,80,120,100,15,122.22,262,-10.00,21.00,-1007.00
2024-06-07 00:28:57.274883,0,0,-2,0,0,0,77,80,121,100,15,122.22,262,3.00,8.00,-989.00
2024-06-07 00:28:57.377481,0,0,-2,0,0,0,77,80,121,100,15,122.20,262,17.00,3.00,-1009.00
2024-06-07 00:28:57.479397,0,0,-2,0,0,0,77,80,122,100,15,122.17,262,29.00,10.00,-963.00
2024-06-07 00:28:57.661183,0,0,-2,0,0,0,77,80,123,100,15,122.21,262,-8.00,-2.00,-975.00
2024-06-07 00:28:57.683730,0,0,-2,0,0,0,77,80,124,100,15,122.16,262,-15.00,-13.00,-1044.00
2024-06-07 00:28:57.864332,0,0,-2,0,0,0,77,80,125,100,15,122.26,263,4.00,6.00,-1021.00
2024-06-07 00:28:57.886799,-1,0,-2,0,0,0,77,80,127,100,15,122.20,263,-24.00,19.00,-993.00
2024-06-07 00:28:58.068939,-1,0,-2,0,0,0,77,80,127,100,15,122.23,263,22.00,-18.00,-992.00
2024-06-07 00:28:58.090843,-1,0,-2,0,0,0,78,80,127,100,15,122.32,263,5.00,-14.00,-982.00
2024-06-07 00:28:58.274172,0,0,-2,0,0,0,78,80,128,100,15,122.32,263,23.00,5.00,-956.00
2024-06-07 00:28:58.294690,0,0,-2,0,0,0,78,80,129,100,15,122.31,263,-21.00,41.00,-975.00
2024-06-07 00:28:58.478496,0,0,-2,0,0,0,78,80,129,100,15,122.31,263,7.00,1.00,-996.00
2024-06-07 00:28:58.478659,0,0,-2,0,0,0,78,80,129,100,15,122.30,263,24.00,-29.00,-1056.00
2024-06-07 00:28:58.550148,0,0,-2,0,0,0,78,80,130,100,15,122.24,263,-18.00,18.00,-963.00
2024-06-07 00:28:58.683307,0,0,-2,0,0,0,78,80,130,100,15,122.27,263,12.00,1.00,-1033.00
2024-06-07 00:28:58.753630,0,0,-2,0,0,0,78,80,130,110,15,122.28,264,-31.00,26.00,-964.00
2024-06-07 00:28:58.855656,0,0,-2,0,0,0,78,80,130,110,15,122.26,264,18.00,-20.00,-1003.00
2024-06-07 00:28:58.990488,0,0,-2,0,0,0,78,80,130,110,15,122.26,264,16.00,7.00,-922.00
2024-06-07 00:28:59.059691,0,0,-2,0,0,0,78,80,130,110,15,122.27,264,22.00,3.00,-997.00
2024-06-07 00:28:59.195373,0,0,-2,0,0,0,78,80,130,110,15,122.25,264,-30.00,1.00,-1082.00
2024-06-07 00:28:59.264155,0,0,-2,0,0,0,78,80,130,110,15,122.26,264,-37.00,0.00,-993.00
2024-06-07 00:28:59.365747,0,0,-2,0,0,0,78,80,130,110,15,122.23,264,-5.00,10.00,-1026.00
2024-06-07 00:28:59.502585,0,0,-2,0,0,0,78,80,130,110,15,122.22,264,-14.00,28.00,-929.00
2024-06-07 00:28:59.569712,0,0,-2,0,0,0,78,80,129,110,15,122.21,264,27.00,-5.00,-980.00
2024-06-07 00:28:59.707772,0,0,-2,0,0,0,78,80,129,100,15,122.23,265,21.00,-14.00,-978.00
2024-06-07 00:28:59.773618,0,0,-2,0,0,0,78,80,129,100,15,122.19,265,24.00,-3.00,-964.00
2024-06-07 00:28:59.875516,0,0,-2,0,0,0,78,80,127,100,15,122.18,265,3.00,-35.00,-962.00
2024-06-07 00:29:00.014584,0,0,-2,0,0,0,78,80,127,100,15,122.31,265,-54.00,14.00,-1031.00
2024-06-07 00:29:00.079619,0,0,-2,0,0,0,77,80,126,100,15,122.21,265,-4.00,-22.00,-940.00
2024-06-07 00:29:00.219477,0,0,-2,0,0,0,77,80,125,100,15,122.21,265,16.00,-31.00,-1012.00
2024-06-07 00:29:00.284153,0,0,-2,0,0,0,77,80,125,100,15,122.24,265,3.00,9.00,-1005.00
2024-06-07 00:29:00.423948,0,0,-2,0,0,0,77,80,125,100,15,122.16,265,-15.00,4.00,-1032.00
2024-06-07 00:29:00.490178,0,0,-2,0,0,0,77,80,125,100,15,122.14,265,-5.00,0.00,-1085.00
2024-06-07 00:29:00.589444,0,0,-2,0,0,0,77,80,124,100,15,122.26,265,14.00,-12.00,-1010.00
2024-06-07 00:29:00.731072,0,0,-2,0,0,0,77,80,124,100,15,122.22,266,15.00,-8.00,-959.00
2024-06-07 00:29:00.793991,0,0,-2,0,0,0,77,80,124,100,15,122.25,266,30.00,-1.00,-1009.00
2024-06-07 00:29:00.935831,0,0,-2,0,0,0,77,80,124,100,15,122.17,266,34.00,-12.00,-1101.00
2024-06-07 00:29:00.997743,0,0,-2,0,0,0,77,80,123,100,15,122.17,266,-9.00,15.00,-994.00
2024-06-07 00:29:01.143349,0,0,-2,0,0,0,77,80,124,100,15,122.19,266,-12.00,-32.00,-1018.00
2024-06-07 00:29:01.201645,0,0,-2,0,0,0,77,80,123,100,15,122.21,266,17.00,11.00,-944.00
2024-06-07 00:29:01.345931,0,0,-2,0,0,0,77,80,123,100,15,122.22,266,4.00,6.00,-980.00
2024-06-07 00:29:01.405577,0,0,-2,0,0,0,77,80,124,100,15,122.19,266,18.00,-20.00,-998.00
2024-06-07 00:29:01.550316,0,0,-2,0,0,0,77,80,123,100,15,122.21,266,-14.00,28.00,-995.00
2024-06-07 00:29:01.610312,0,0,-2,0,0,0,77,80,123,100,15,122.19,266,-46.00,22.00,-994.00
2024-06-07 00:29:01.755119,0,0,-2,0,0,0,77,80,123,100,15,122.20,267,-16.00,6.00,-1007.00
2024-06-07 00:29:01.814692,0,0,-2,0,0,0,77,80,124,100,15,122.15,267,50.00,-13.00,-1062.00
2024-06-07 00:29:01.917148,0,0,-2,0,0,0,77,80,124,100,15,122.19,267,-10.00,11.00,-967.00
2024-06-07 00:29:01.966360,0,0,-2,0,0,0,77,80,125,100,15,122.29,267,-31.00,5.00,-1036.00
2024-06-07 00:29:02.165177,0,0,-2,0,0,0,77,80,125,100,15,122.28,267,3.00,-13.00,-985.00
2024-06-07 00:29:02.221506,0,0,-2,0,0,0,77,80,126,100,15,122.31,267,9.00,21.00,-1003.00
2024-06-07 00:29:02.373235,0,0,-2,0,0,0,77,80,126,100,15,122.23,267,24.00,7.00,-976.00
2024-06-07 00:29:02.425416,0,0,-2,0,0,0,77,80,127,100,15,122.24,267,-71.00,1.00,-1059.00
2024-06-07 00:29:02.476411,0,0,-2,0,0,0,77,80,127,100,15,122.25,267,-30.00,11.00,-1019.00
2024-06-07 00:29:02.677086,0,0,-2,0,0,0,77,80,128,100,15,122.26,267,11.00,1.00,-1048.00
2024-06-07 00:29:02.680427,0,0,-2,0,0,0,77,80,128,100,15,122.21,268,-24.00,21.00,-1071.00
2024-06-07 00:29:02.782369,0,0,-2,0,0,0,77,80,128,100,15,122.24,268,15.00,-22.00,-967.00
2024-06-07 00:29:02.884396,0,0,-2,0,0,0,77,80,128,100,15,122.30,268,-62.00,22.00,-983.00
2024-06-07 00:29:02.986326,0,0,-2,0,0,0,77,80,128,100,15,122.32,268,-21.00,15.00,-976.00
2024-06-07 00:29:03.088651,0,0,-2,0,0,0,78,80,129,100,15,122.22,268,-6.00,4.00,-1052.00
2024-06-07 00:29:03.190378,0,0,-2,0,0,0,78,80,129,110,15,122.26,268,27.00,-5.00,-1018.00
2024-06-07 00:29:03.393545,0,0,-2,0,0,0,78,80,129,110,15,122.24,268,-27.00,-13.00,-982.00
2024-06-07 00:29:03.394275,0,0,-2,0,0,0,78,80,129,110,15,122.25,268,-13.00,18.00,-958.00
2024-06-07 00:29:03.496392,-1,0,-2,0,0,0,78,80,128,110,15,122.26,268,0.00,15.00,-1015.00
2024-06-07 00:29:03.598767,-1,0,-2,0,0,0,78,80,128,110,15,122.25,268,-8.00,-7.00,-954.00
2024-06-07 00:29:03.700970,0,0,-2,0,0,0,78,80,127,100,15,122.23,269,-31.00,45.00,-996.00
2024-06-07 00:29:03.803147,0,0,-2,0,0,0,78,80,126,100,15,122.24,269,-41.00,52.00,-970.00
2024-06-07 00:29:03.905362,0,0,-2,0,0,0,78,80,126,100,15,122.16,269,-7.00,25.00,-937.00
2024-06-07 00:29:04.008104,0,0,-2,0,0,0,78,80,125,100,15,122.21,269,-43.00,14.00,-1006.00
2024-06-07 00:29:04.108496,0,0,-2,0,0,0,78,80,124,100,15,122.27,269,-22.00,2.00,-1017.00
2024-06-07 00:29:04.214518,0,0,-2,0,0,0,78,80,124,100,15,122.20,269,-12.00,6.00,-1034.00
2024-06-07 00:29:04.312239,0,0,-2,0,0,0,78,80,123,100,15,122.22,269,-16.00,-21.00,-1044.00
2024-06-07 00:29:04.417455,0,0,-2,0,0,0,78,80,123,100,15,122.25,269,-23.00,31.00,-994.00
2024-06-07 00:29:04.517094,0,0,-2,0,0,0,78,80,124,100,15,122.22,269,-10.00,3.00,-1057.00
2024-06-07 00:29:04.622581,0,0,-2,0,0,0,78,80,123,100,15,122.21,269,0.00,-3.00,-1010.00
2024-06-07 00:29:04.720271,0,0,-2,0,0,0,78,80,123,100,15,122.31,270,9.00,-1.00,-1011.00
2024-06-07 00:29:04.827150,0,0,-2,0,0,0,78,80,124,100,15,122.27,270,-3.00,27.00,-952.00
2024-06-07 00:29:04.924230,0,0,-2,0,0,0,78,80,125,100,15,122.28,270,17.00,0.00,-973.00
2024-06-07 00:29:05.032144,0,0,-2,0,0,0,78,80,125,100,15,122.20,270,10.00,2.00,-1036.00
2024-06-07 00:29:05.128191,0,0,-2,0,0,0,77,80,126,100,15,122.24,270,-5.00,14.00,-1080.00
2024-06-07 00:29:05.239689,0,0,-2,0,0,0,77,80,127,100,15,122.22,270,-30.00,35.00,-971.00
2024-06-07 00:29:05.332288,0,0,-2,0,0,0,77,80,129,100,15,122.27,270,19.00,-2.00,-965.00
2024-06-07 00:29:05.442096,0,0,-2,0,0,0,77,80,129,100,15,122.31,270,-4.00,4.00,-1003.00
2024-06-07 00:29:05.536185,0,0,-2,0,0,0,77,80,130,100,15,122.27,270,-4.00,32.00,-991.00
2024-06-07 00:29:05.646110,0,0,-2,0,0,0,77,80,131,110,15,122.36,270,-3.00,19.00,-952.00
2024-06-07 00:29:05.740155,0,-1,-2,0,0,0,77,80,131,110,15,122.28,271,0.00,-10.00,-989.00
2024-06-07 00:29:05.842012,0,0,-2,0,0,0,77,80,131,110,15,122.27,271,-10.00,32.00,-974.00
2024-06-07 00:29:05.944144,0,0,-2,0,0,0,77,80,131,110,15,122.32,271,-44.00,26.00,-1015.00
2024-06-07 00:29:06.055718,0,0,-2,0,0,0,77,80,131,110,15,122.30,271,-16.00,2.00,-986.00
2024-06-07 00:29:06.148091,0,0,-2,0,0,0,78,81,131,110,15,122.25,271,-40.00,25.00,-1028.00
2024-06-07 00:29:06.260907,0,0,-2,0,0,0,78,81,130,110,15,122.26,271,6.00,9.00,-962.00
2024-06-07 00:29:06.301047,0,0,-2,0,0,0,78,81,130,110,15,122.28,271,7.00,3.00,-922.00
2024-06-07 00:29:06.449704,0,0,-2,0,0,0,78,81,130,110,15,122.29,271,15.00,-4.00,-977.00
2024-06-07 00:29:06.505053,0,0,-2,0,0,0,78,81,128,110,15,122.26,271,-7.00,-18.00,-1013.00
2024-06-07 00:29:06.670074,0,0,-2,0,0,0,78,81,128,100,15,122.26,271,-8.00,13.00,-967.00
2024-06-07 00:29:06.708956,0,0,-2,0,0,0,78,81,127,100,15,122.24,272,-22.00,0.00,-1028.00
2024-06-07 00:29:06.875287,0,0,-2,0,0,0,78,81,127,100,15,122.28,272,-23.00,32.00,-1012.00
2024-06-07 00:29:06.912920,0,0,-2,0,0,0,78,81,127,100,15,122.22,272,-4.00,-7.00,-1028.00
2024-06-07 00:29:07.016586,0,0,-2,0,0,0,78,81,126,100,14,122.25,272,13.00,-6.00,-1014.00
2024-06-07 00:29:07.196013,0,0,-2,0,0,0,77,80,126,100,14,122.32,272,-43.00,8.00,-1029.00
2024-06-07 00:29:07.219021,0,0,-2,0,0,0,77,80,125,100,14,122.27,272,-18.00,11.00,-1031.00
2024-06-07 00:29:07.339302,0,0,-2,0,0,0,77,80,125,100,14,122.27,272,-47.00,18.00,-1023.00
2024-06-07 00:29:07.461979,0,0,-2,0,0,0,77,80,124,100,14,122.18,272,-30.00,20.00,-1031.00
2024-06-07 00:29:07.537735,0,0,-2,0,0,0,77,80,125,100,14,122.26,272,-5.00,0.00,-1004.00
2024-06-07 00:29:07.643528,0,0,-2,0,0,0,77,80,124,100,14,122.23,272,10.00,13.00,-920.00
2024-06-07 00:29:07.728895,0,0,-2,0,0,0,77,80,123,100,14,122.19,273,-22.00,8.00,-1060.00
2024-06-07 00:29:07.899379,0,0,-2,0,0,0,77,80,123,100,14,122.26,273,6.00,21.00,-997.00
2024-06-07 00:29:07.976126,0,0,-2,0,0,0,77,80,123,100,14,122.16,273,16.00,1.00,-1005.00
2024-06-07 00:29:08.129761,0,0,-2,0,0,0,77,80,123,100,14,122.19,273,-15.00,-4.00,-1036.00
2024-06-07 00:29:08.136928,0,0,-2,0,0,0,77,80,125,100,14,122.19,273,-43.00,25.00,-1038.00
2024-06-07 00:29:08.309030,0,0,-2,0,0,0,77,80,126,100,14,122.22,273,-7.00,7.00,-1002.00
2024-06-07 00:29:08.421756,0,0,-2,0,0,0,77,80,126,100,14,122.23,273,-21.00,20.00,-1006.00
2024-06-07 00:29:08.442810,-1,0,-2,0,0,0,77,80,127,100,14,122.19,273,-6.00,7.00,-942.00
2024-06-07 00:29:08.565148,-1,0,-2,0,0,0,77,80,129,100,14,122.17,273,-10.00,3.00,-970.00
2024-06-07 00:29:08.728832,0,0,-2,0,0,0,77,80,130,100,14,122.22,273,-19.00,-15.00,-984.00
2024-06-07 00:29:08.749392,0,0,-2,0,0,0,77,80,131,110,14,122.26,274,-16.00,5.00,-936.00
2024-06-07 00:29:08.872323,0,0,-2,0,0,0,77,80,131,110,14,122.28,274,-66.00,13.00,-1040.00
2024-06-07 00:29:09.036057,0,0,-2,0,0,0,77,80,131,110,14,122.26,274,3.00,2.00,-1001.00
2024-06-07 00:29:09.054653,0,0,-2,0,0,0,77,80,132,110,14,122.26,274,-30.00,13.00,-1000.00
2024-06-07 00:29:09.190289,0,0,-2,0,0,0,77,80,131,110,14,122.20,274,0.00,-16.00,-970.00
2024-06-07 00:29:09.258808,0,0,-2,0,0,0,77,80,130,110,14,122.22,274,6.00,-6.00,-960.00
2024-06-07 00:29:09.360721,0,0,-2,0,0,0,77,80,131,110,14,122.21,274,-52.00,0.00,-1014.00
2024-06-07 00:29:09.462790,0,0,-2,0,0,0,77,80,129,110,14,122.21,274,-6.00,3.00,-963.00
2024-06-07 00:29:09.640053,0,0,-2,0,0,0,77,80,127,110,14,122.22,274,-36.00,5.00,-994.00
2024-06-07 00:29:09.666609,0,0,-2,0,0,0,77,80,126,100,14,122.20,274,-17.00,14.00,-971.00
2024-06-07 00:29:09.844318,0,-1,-2,0,0,1,77,80,124,100,14,122.18,275,-32.00,23.00,-1037.00
2024-06-07 00:29:09.844562,0,0,-2,0,0,1,77,80,122,100,14,122.14,275,-22.00,-9.00,-976.00
2024-06-07 00:29:09.922672,0,0,-2,0,0,1,77,80,121,100,14,122.13,275,-6.00,4.00,-998.00
2024-06-07 00:29:10.049063,0,0,-2,0,0,1,77,80,120,100,14,122.10,275,-1.00,16.00,-1001.00
2024-06-07 00:29:10.126659,0,0,-2,0,0,1,78,80,118,100,14,122.10,275,-12.00,32.00,-944.00
2024-06-07 00:29:10.253795,0,0,-2,0,0,2,78,80,115,90,14,122.01,275,-60.00,24.00,-939.00
2024-06-07 00:29:10.331890,-1,-1,-2,0,0,2,78,80,113,90,14,122.03,275,-11.00,39.00,-900.00
2024-06-07 00:29:10.458643,-1,-1,-2,0,0,3,78,80,110,90,14,122.03,275,5.00,-11.00,-1028.00
2024-06-07 00:29:10.536091,-1,-1,-2,0,0,3,78,80,105,90,14,121.96,275,-13.00,7.00,-845.00
2024-06-07 00:29:10.663404,0,0,-2,0,0,5,78,80,99,80,14,121.97,275,-20.00,-8.00,-891.00
2024-06-07 00:29:10.738734,0,0,-2,0,0,6,78,80,93,80,14,121.97,276,-27.00,-12.00,-976.00
2024-06-07 00:29:10.868781,0,0,-2,0,0,6,78,80,86,70,14,121.82,276,2.00,-27.00,-994.00
2024-06-07 00:29:10.945854,0,0,-2,0,0,6,78,80,79,60,14,121.77,276,24.00,-2.00,-988.00
2024-06-07 00:29:11.044503,0,0,-2,0,0,6,78,80,73,60,14,121.82,276,13.00,20.00,-1030.00
2024-06-07 00:29:11.177644,0,0,-2,0,0,6,77,80,67,50,14,121.74,276,25.00,6.00,-1021.00
