TS,pitch,roll,yaw,vgx,vgy,vgz,templ,temph,tof,h,bat,baro,time,agx,agy,agz
2024-06-07 00:30:31.195490,0,0,0,0,0,0,77,81,10,0,86,120.91,0,-4.00,10.00,-1000.00
2024-06-07 00:30:31.315557,0,0,0,0,0,0,77,81,10,0,86,120.95,0,-4.00,10.00,-999.00
2024-06-07 00:30:31.399760,0,0,0,0,0,0,77,81,10,0,86,120.96,0,-4.00,11.00,-1001.00
2024-06-07 00:30:31.524739,0,0,0,0,0,0,78,81,10,0,86,120.98,0,-5.00,10.00,-1000.00
2024-06-07 00:30:31.604229,0,0,0,0,0,0,78,81,10,0,86,120.90,0,-5.00,12.00,-1001.00
2024-06-07 00:30:31.724676,0,0,0,0,0,0,78,81,10,0,86,120.89,0,-5.00,10.00,-1002.00
2024-06-07 00:30:31.807355,0,0,0,0,0,0,78,81,10,0,86,120.95,0,-5.00,11.00,-999.00
2024-06-07 00:30:31.909142,0,0,0,0,0,0,78,81,10,0,86,120.89,0,-6.00,10.00,-1000.00
2024-06-07 00:30:32.011262,0,0,0,0,0,0,78,81,10,0,86,120.94,0,-5.00,10.00,-1001.00
2024-06-07 00:30:32.134280,0,0,0,0,0,0,78,81,10,0,86,120.93,0,-4.00,9.00,-998.00
2024-06-07 00:30:32.215196,0,0,0,0,0,0,78,81,10,0,86,120.92,0,-6.00,8.00,-1000.00
2024-06-07 00:30:32.339061,0,0,0,0,0,0,78,81,10,0,86,120.93,0,-5.00,10.00,-998.00
2024-06-07 00:30:32.421413,0,0,0,0,0,0,78,81,10,0,86,120.93,0,-6.00,9.00,-1001.00
2024-06-07 00:30:32.521096,0,0,0,0,0,0,77,80,10,0,86,120.90,0,-3.00,11.00,-1001.00
2024-06-07 00:30:32.646348,0,0,0,0,0,0,77,80,10,0,86,120.93,0,-4.00,9.00,-1000.00
2024-06-07 00:30:32.725054,0,0,0,0,0,0,77,80,10,0,86,120.97,0,-4.00,10.00,-1000.00
2024-06-07 00:30:32.850913,0,0,0,0,0,0,77,80,10,0,86,120.94,0,-5.00,10.00,-998.00
2024-06-07 00:30:32.929273,0,0,0,0,0,0,77,80,10,0,86,120.93,0,-5.00,11.00,-997.00
2024-06-07 00:30:33.056198,0,0,0,0,0,0,77,80,10,0,86,120.97,0,-5.00,9.00,-1000.00
2024-06-07 00:30:33.082489,0,0,0,0,0,0,77,80,10,0,86,120.91,0,-4.00,11.00,-1000.00
2024-06-07 00:30:33.260724,0,0,0,0,0,0,77,80,10,0,86,120.91,0,-4.00,10.00,-997.00
2024-06-07 00:30:33.286450,0,0,0,0,0,0,77,80,10,0,86,120.93,0,-4.00,11.00,-1002.00
2024-06-07 00:30:33.471741,0,0,0,0,0,0,77,80,10,0,86,120.93,0,-6.00,11.00,-1000.00
2024-06-07 00:30:33.489918,0,0,0,0,0,0,79,81,10,0,86,120.94,0,-5.00,9.00,-999.00
2024-06-07 00:30:33.670280,0,0,0,0,0,0,79,81,10,0,86,120.95,0,-5.00,10.00,-1001.00
2024-06-07 00:30:33.693967,0,0,0,0,0,0,79,81,10,0,86,120.95,0,-6.00,10.00,-1000.00
2024-06-07 00:30:33.875170,0,0,0,0,0,0,79,81,10,0,86,120.96,0,-4.00,10.00,-998.00
2024-06-07 00:30:33.897968,0,0,0,0,0,0,79,81,10,0,86,120.95,0,-6.00,11.00,-1000.00
2024-06-07 00:30:34.013665,0,0,0,0,0,0,79,81,10,0,86,120.93,0,-5.00,11.00,-1000.00
2024-06-07 00:30:34.107754,0,0,0,0,0,0,79,81,10,0,86,120.93,0,-5.00,11.00,-1002.00
2024-06-07 00:30:34.204797,0,0,0,0,0,0,79,81,10,0,86,120.92,0,-16.00,-1.00,-1000.00
2024-06-07 00:30:34.386919,0,0,0,0,0,0,79,81,10,0,86,120.92,0,-8.00,10.00,-1000.00
2024-06-07 00:30:34.409333,0,0,0,0,0,0,79,81,10,0,86,120.92,0,-34.00,-37.00,-995.00
2024-06-07 00:30:34.591963,0,0,2,0,0,0,79,81,10,0,86,120.92,0,11.00,12.00,-971.00
2024-06-07 00:30:34.612993,0,0,3,0,0,0,79,81,10,0,86,120.92,0,-33.00,-9.00,-1030.00
2024-06-07 00:30:34.796425,0,0,4,0,0,0,79,81,10,0,86,120.92,0,-34.00,-2.00,-1159.00
2024-06-07 00:30:34.816758,0,0,5,0,0,-2,79,81,10,0,86,120.92,0,-8.00,-50.00,-1326.00
2024-06-07 00:30:34.928933,-1,1,5,0,0,-5,79,81,16,0,86,120.92,0,3.00,-18.00,-1219.00
2024-06-07 00:30:35.021936,-1,1,5,0,0,-7,79,81,24,0,86,121.21,0,-57.00,5.00,-1061.00
2024-06-07 00:30:35.205983,0,0,5,0,0,-7,79,81,32,10,86,121.39,0,32.00,-16.00,-1020.00
2024-06-07 00:30:35.224648,0,0,5,0,0,-7,79,81,38,20,86,121.43,1,-12.00,17.00,-979.00
2024-06-07 00:30:35.410882,0,0,5,0,0,-7,79,81,45,30,86,121.48,1,-33.00,15.00,-982.00
2024-06-07 00:30:35.428623,0,0,4,0,0,-6,79,81,53,30,86,121.61,1,-54.00,6.00,-904.00
2024-06-07 00:30:35.616010,0,0,4,0,0,-6,79,81,59,40,86,121.63,1,5.00,-12.00,-903.00
2024-06-07 00:30:35.632675,0,0,4,0,0,-4,79,81,64,40,86,121.70,1,-14.00,-6.00,-899.00
2024-06-07 00:30:35.822200,0,0,4,0,0,-3,79,81,68,50,86,121.79,1,-16.00,-9.00,-874.00
2024-06-07 00:30:35.823007,0,0,4,0,0,-2,79,81,72,50,86,121.73,1,-15.00,-3.00,-920.00
2024-06-07 00:30:35.889002,0,0,4,0,0,-1,79,81,74,50,86,121.85,1,2.00,-21.00,-921.00
2024-06-07 00:30:36.025418,0,0,4,0,0,-1,79,81,77,60,86,121.88,1,-29.00,16.00,-1011.00
2024-06-07 00:30:36.093735,0,0,4,0,0,0,79,81,78,60,86,121.88,1,-13.00,-20.00,-963.00
2024-06-07 00:30:36.193943,0,0,4,0,0,0,79,81,80,60,86,121.86,2,8.00,-25.00,-988.00
2024-06-07 00:30:36.295891,0,0,4,0,0,0,79,81,81,60,86,121.87,2,-19.00,3.00,-986.00
2024-06-07 00:30:36.435300,0,0,4,0,0,0,79,81,82,60,86,121.88,2,-9.00,-7.00,-1043.00
2024-06-07 00:30:36.499837,0,0,4,0,0,0,78,81,83,60,86,121.95,2,-5.00,-15.00,-967.00
2024-06-07 00:30:36.639621,0,0,4,0,0,0,78,81,85,60,86,121.94,2,-31.00,7.00,-991.00
2024-06-07 00:30:36.703868,0,0,4,0,0,0,78,81,86,60,86,121.98,2,-49.00,5.00,-973.00
2024-06-07 00:30:36.844443,0,0,4,0,0,0,78,81,87,60,86,121.96,2,-44.00,-11.00,-1012.00
2024-06-07 00:30:36.907815,0,0,4,0,0,0,78,81,88,70,86,122.01,2,-24.00,-14.00,-981.00
2024-06-07 00:30:37.049627,0,0,4,0,0,0,78,81,89,70,86,121.93,2,3.00,-8.00,-1009.00
2024-06-07 00:30:37.165242,0,0,4,0,0,0,78,81,89,70,86,121.98,2,21.00,-26.00,-998.00
2024-06-07 00:30:37.307767,0,0,4,0,0,0,78,81,89,70,86,121.95,3,-12.00,7.00,-984.00
2024-06-07 00:30:37.315678,0,0,4,0,0,0,78,81,89,70,86,121.96,3,17.00,-39.00,-983.00
2024-06-07 00:30:37.440043,0,0,4,0,0,0,78,81,89,70,86,122.00,3,15.00,-12.00,-969.00
2024-06-07 00:30:37.607558,0,0,4,0,0,0,78,81,88,70,86,121.97,3,-3.00,-10.00,-962.00
2024-06-07 00:30:37.621891,0,0,4,0,0,0,78,81,87,70,86,121.96,3,-8.00,-13.00,-1039.00
2024-06-07 00:30:37.775029,0,0,4,0,0,0,78,81,86,70,86,121.97,3,26.00,-32.00,-1009.00
2024-06-07 00:30:37.875025,0,0,4,0,0,0,78,81,86,70,86,121.97,3,-4.00,-5.00,-970.00
2024-06-07 00:30:37.936759,0,0,4,0,0,0,78,81,85,70,86,121.97,3,26.00,-24.00,-968.00
2024-06-07 00:30:38.029598,0,0,4,0,0,0,78,81,84,70,86,121.93,3,-29.00,18.00,-998.00
2024-06-07 00:30:38.180931,0,0,4,0,0,0,78,81,83,70,86,121.95,3,-30.00,11.00,-1019.00
2024-06-07 00:30:38.247361,0,0,4,0,0,0,78,81,82,70,86,121.96,4,-18.00,-11.00,-1006.00
2024-06-07 00:30:38.392285,0,0,4,0,0,0,78,81,81,70,86,121.95,4,-33.00,13.00,-1026.00
2024-06-07 00:30:38.534519,0,0,4,0,0,0,78,81,80,60,86,121.87,4,-29.00,16.00,-1002.00
2024-06-07 00:30:38.539656,0,0,4,0,0,0,79,81,79,60,86,121.92,4,-36.00,0.00,-976.00
2024-06-07 00:30:38.698467,0,0,4,0,0,0,79,81,79,60,86,121.91,4,-5.00,13.00,-1031.00
2024-06-07 00:30:38.841551,0,0,4,0,0,0,79,81,78,60,85,121.89,4,2.00,-17.00,-1003.00
2024-06-07 00:30:38.845617,0,0,4,0,0,0,79,81,77,60,85,121.92,4,-24.00,4.00,-1045.00
2024-06-07 00:30:39.005937,0,0,4,0,0,0,79,81,77,60,85,121.91,4,-77.00,24.00,-980.00
2024-06-07 00:30:39.159839,0,0,4,0,0,0,79,81,77,60,85,121.93,4,23.00,-27.00,-1060.00
2024-06-07 00:30:39.159919,0,0,4,0,0,0,79,81,76,60,85,121.86,4,-29.00,5.00,-990.00
2024-06-07 00:30:39.225340,0,0,4,0,0,0,79,81,76,60,85,121.92,5,-12.00,0.00,-1064.00
2024-06-07 00:30:39.304317,0,0,4,0,0,0,79,81,76,60,85,121.89,5,-22.00,-20.00,-963.00
2024-06-07 00:30:39.406619,0,0,4,0,0,0,79,81,76,60,85,121.91,5,-20.00,16.00,-1005.00
2024-06-07 00:30:39.609238,0,0,4,0,0,0,78,80,75,60,85,121.82,5,-4.00,-15.00,-1002.00
2024-06-07 00:30:39.661648,0,0,4,0,0,0,78,80,75,60,85,121.90,5,-6.00,0.00,-994.00
2024-06-07 00:30:39.814228,0,0,4,0,0,0,78,80,76,60,85,121.84,5,-20.00,0.00,-985.00
2024-06-07 00:30:39.814300,0,0,4,0,0,0,78,80,76,60,85,121.85,5,-39.00,16.00,-1044.00
2024-06-07 00:30:39.916692,0,0,4,0,0,0,78,80,76,60,85,121.86,5,-46.00,5.00,-969.00
2024-06-07 00:30:40.019158,0,0,4,0,0,0,78,80,76,60,85,121.91,5,40.00,-47.00,-1114.00
2024-06-07 00:30:40.121405,0,0,4,0,0,0,78,80,76,60,85,121.89,6,-17.00,-12.00,-1006.00
2024-06-07 00:30:40.223601,0,0,4,0,0,0,78,80,76,60,85,121.93,6,-41.00,25.00,-973.00
2024-06-07 00:30:40.326331,0,0,4,0,0,0,78,80,76,60,85,121.87,6,11.00,-1.00,-948.00
2024-06-07 00:30:40.428124,0,0,4,0,0,0,78,80,76,60,85,121.91,6,-31.00,-4.00,-1029.00
2024-06-07 00:30:40.529054,0,0,4,0,0,0,78,80,76,60,85,121.91,6,-6.00,4.00,-1054.00
2024-06-07 00:30:40.630323,0,0,4,0,0,0,78,80,76,60,85,121.87,6,-56.00,-1.00,-994.00
2024-06-07 00:30:40.735561,0,0,4,0,0,0,78,80,76,60,84,121.92,6,9.00,4.00,-1010.00
2024-06-07 00:30:40.834367,0,0,4,0,0,0,78,80,76,60,84,121.88,6,-30.00,-9.00,-1019.00
2024-06-07 00:30:40.936746,0,0,4,0,0,0,78,80,76,60,84,121.88,6,-11.00,-6.00,-1030.00
2024-06-07 00:30:41.042797,0,0,4,0,0,0,78,80,76,60,84,121.90,6,-24.00,14.00,-986.00
2024-06-07 00:30:41.140387,0,0,4,0,0,0,78,80,75,60,84,121.87,7,-59.00,8.00,-995.00
2024-06-07 00:30:41.247586,0,0,4,0,0,0,78,80,75,60,84,121.88,7,2.00,-10.00,-1027.00
2024-06-07 00:30:41.349698,0,0,4,0,0,0,78,80,75,60,84,121.91,7,13.00,1.00,-1021.00
2024-06-07 00:30:41.446282,0,0,4,0,0,0,78,80,75,60,84,121.86,7,-36.00,15.00,-966.00
2024-06-07 00:30:41.554958,0,0,4,0,0,0,78,80,75,60,84,121.86,7,-35.00,12.00,-970.00
2024-06-07 00:30:41.650406,0,0,4,0,0,0,78,80,74,60,84,121.86,7,0.00,3.00,-1017.00
2024-06-07 00:30:41.759642,0,0,4,0,0,0,78,80,74,60,84,121.88,7,-14.00,-21.00,-1022.00
2024-06-07 00:30:41.854179,0,0,4,0,0,0,78,80,73,60,84,121.84,7,-7.00,-16.00,-1054.00
2024-06-07 00:30:41.964360,0,0,4,0,0,0,78,80,73,60,84,121.87,7,10.00,-31.00,-1001.00
2024-06-07 00:30:42.071821,0,0,4,0,0,0,78,80,73,60,84,121.86,7,-3.00,-18.00,-1027.00
2024-06-07 00:30:42.160175,0,0,4,0,0,0,78,80,72,60,84,121.86,8,-36.00,5.00,-1026.00
2024-06-07 00:30:42.271854,0,0,4,0,0,0,78,80,73,60,84,121.89,8,-48.00,5.00,-1058.00
2024-06-07 00:30:42.364068,0,0,4,0,0,-1,78,80,74,60,84,121.94,8,4.00,-18.00,-1133.00
2024-06-07 00:30:42.466914,0,0,4,0,0,-2,78,80,76,60,84,121.97,8,24.00,-24.00,-1102.00
2024-06-07 00:30:42.578651,0,0,4,0,0,-3,78,81,81,60,84,121.97,8,33.00,-14.00,-1015.00
2024-06-07 00:30:42.670177,0,0,4,0,0,-4,78,81,85,70,84,122.00,8,-3.00,-15.00,-1034.00
2024-06-07 00:30:42.783710,0,0,4,0,0,-5,78,81,90,70,83,121.99,8,-42.00,-15.00,-1026.00
2024-06-07 00:30:42.873984,0,0,4,0,0,-5,78,81,95,80,83,122.01,8,-17.00,-27.00,-1088.00
2024-06-07 00:30:42.988156,0,0,4,0,0,-5,78,81,101,80,83,122.13,8,-55.00,-5.00,-1053.00
2024-06-07 00:30:43.078016,0,0,4,0,0,-5,78,81,106,90,83,122.16,8,-41.00,-9.00,-1032.00
2024-06-07 00:30:43.194994,0,0,4,0,0,-5,78,81,111,90,83,122.13,9,-15.00,-6.00,-988.00
2024-06-07 00:30:43.282904,0,0,4,0,0,-5,78,81,117,100,83,122.22,9,-41.00,-3.00,-924.00
2024-06-07 00:30:43.384240,0,0,4,0,0,-5,78,81,123,100,83,122.31,9,10.00,-16.00,-978.00
2024-06-07 00:30:43.435954,0,0,4,0,0,-5,78,81,128,110,83,122.35,9,-30.00,-16.00,-981.00
2024-06-07 00:30:43.602566,0,0,4,0,0,-4,78,80,133,110,83,122.39,9,-69.00,-1.00,-998.00
2024-06-07 00:30:43.640035,0,0,4,0,0,-4,78,80,138,120,83,122.45,9,-9.00,-16.00,-992.00
2024-06-07 00:30:43.807373,0,0,4,0,0,-4,78,80,142,120,83,122.47,9,21.00,-27.00,-989.00
2024-06-07 00:30:43.843957,1,0,4,0,0,-3,78,80,146,130,83,122.48,9,4.00,6.00,-962.00
2024-06-07 00:30:43.946035,0,0,4,0,0,-3,78,80,150,130,83,122.59,9,-23.00,-7.00,-921.00
2024-06-07 00:30:44.048445,0,0,4,0,0,-3,78,80,153,130,83,122.63,9,-21.00,10.00,-970.00
2024-06-07 00:30:44.217229,0,0,4,0,0,-3,78,80,158,140,83,122.62,10,43.00,-30.00,-976.00
2024-06-07 00:30:44.252081,0,0,4,0,0,-2,78,80,160,140,83,122.65,10,-27.00,-9.00,-995.00
2024-06-07 00:30:44.421726,1,0,4,0,0,-2,78,80,163,140,83,122.70,10,29.00,-11.00,-910.00
2024-06-07 00:30:44.456116,1,0,4,0,0,-2,78,80,166,150,83,122.76,10,22.00,-7.00,-981.00
2024-06-07 00:30:44.626486,1,0,4,0,0,-1,78,80,168,150,83,122.71,10,-64.00,14.00,-950.00
2024-06-07 00:30:44.660746,0,0,4,-1,0,-1,78,80,169,150,83,122.76,10,-37.00,8.00,-1012.00
2024-06-07 00:30:44.831620,0,0,4,-1,0,-1,78,80,171,150,82,122.75,10,-6.00,13.00,-947.00
2024-06-07 00:30:44.865325,0,0,4,-1,0,-1,78,80,174,150,82,122.80,10,-18.00,-22.00,-992.00
2024-06-07 00:30:44.966277,0,0,4,-1,0,-1,78,80,174,150,82,122.73,10,-56.00,9.00,-960.00
2024-06-07 00:30:45.138589,0,0,4,-1,0,0,78,80,176,160,82,122.78,10,-43.00,4.00,-973.00
2024-06-07 00:30:45.169924,0,0,4,0,0,0,78,80,176,160,82,122.72,11,-9.00,-1.00,-1034.00
2024-06-07 00:30:45.343563,0,0,4,0,0,0,78,80,176,160,82,122.76,11,-31.00,15.00,-983.00
2024-06-07 00:30:45.374684,1,0,4,0,0,0,78,80,177,160,82,122.81,11,-54.00,9.00,-1025.00
2024-06-07 00:30:45.476688,0,0,4,0,0,0,78,80,177,160,82,122.76,11,-15.00,8.00,-957.00
2024-06-07 00:30:45.650576,0,0,4,-1,0,0,77,80,176,160,82,122.80,11,-40.00,14.00,-946.00
2024-06-07 00:30:45.679924,0,0,4,0,0,0,77,80,177,160,82,122.79,11,-11.00,-1.00,-1002.00
2024-06-07 00:30:45.855236,0,0,4,0,0,0,77,80,176,160,82,122.75,11,19.00,-26.00,-1044.00
2024-06-07 00:30:45.883656,1,0,4,0,0,0,77,80,176,160,82,122.81,11,-81.00,0.00,-1052.00
2024-06-07 00:30:46.060054,0,0,4,0,0,0,77,80,177,160,82,122.79,11,0.00,1.00,-981.00
2024-06-07 00:30:46.089066,0,0,4,-1,0,0,77,80,177,160,82,122.82,11,-53.00,11.00,-969.00
2024-06-07 00:30:46.265010,0,0,4,-1,0,0,77,80,179,160,82,122.73,12,0.00,-11.00,-1043.00
2024-06-07 00:30:46.293037,0,0,4,-1,0,0,77,80,177,160,82,122.80,12,-58.00,5.00,-1038.00
2024-06-07 00:30:46.469774,0,0,4,-1,0,0,77,80,177,160,82,122.76,12,-59.00,14.00,-958.00
2024-06-07 00:30:46.497068,0,0,4,-1,0,0,77,80,177,160,82,122.84,12,-20.00,-5.00,-982.00
2024-06-07 00:30:46.674587,0,0,4,0,0,0,77,79,177,160,82,122.73,12,-2.00,4.00,-993.00
2024-06-07 00:30:46.701037,1,0,4,0,0,0,77,79,176,160,81,122.83,12,-20.00,-7.00,-1048.00
2024-06-07 00:30:46.835083,1,0,4,0,0,0,77,79,176,160,81,122.83,12,0.00,-12.00,-991.00
2024-06-07 00:30:46.905062,1,1,4,0,0,0,77,79,177,160,81,122.78,12,33.00,-30.00,-1007.00
2024-06-07 00:30:47.007530,1,1,4,0,0,0,77,79,176,160,81,122.80,12,-41.00,-2.00,-1044.00
2024-06-07 00:30:47.057783,0,1,4,0,0,0,77,79,176,160,81,122.81,12,-2.00,-29.00,-996.00
2024-06-07 00:30:47.189687,0,0,4,-1,0,0,77,79,175,160,81,122.78,13,5.00,-15.00,-935.00
2024-06-07 00:30:47.261737,0,0,4,0,0,1,77,79,173,160,81,122.77,13,-9.00,-5.00,-962.00
2024-06-07 00:30:47.363966,1,0,4,0,0,2,77,79,171,150,81,122.69,13,-2.00,-9.00,-897.00
2024-06-07 00:30:47.469414,1,0,4,0,0,2,77,79,169,150,81,122.67,13,39.00,-1.00,-955.00
2024-06-07 00:30:47.567711,1,0,4,-1,0,2,77,80,165,150,81,122.71,13,-12.00,-10.00,-946.00
2024-06-07 00:30:47.698701,0,0,4,-1,0,2,77,80,162,150,81,122.59,13,5.00,-7.00,-996.00
2024-06-07 00:30:47.771674,0,0,4,-1,0,3,77,80,160,140,81,122.64,13,7.00,1.00,-994.00
2024-06-07 00:30:47.903161,0,0,4,-1,0,3,77,80,157,140,81,122.64,13,-38.00,0.00,-1023.00
2024-06-07 00:30:47.975698,0,0,4,0,0,2,77,80,153,140,81,122.57,13,-33.00,8.00,-978.00
2024-06-07 00:30:48.107939,0,0,4,-1,0,2,77,80,151,130,81,122.49,13,18.00,-35.00,-1048.00
2024-06-07 00:30:48.179640,0,0,4,-1,0,2,77,80,148,130,81,122.52,14,-23.00,-7.00,-1040.00
2024-06-07 00:30:48.312740,0,0,4,-1,0,2,77,80,146,130,81,122.52,14,-30.00,5.00,-958.00
2024-06-07 00:30:48.383620,0,0,4,0,0,2,77,80,144,130,81,122.48,14,-2.00,-4.00,-1047.00
2024-06-07 00:30:48.486368,0,0,4,0,0,2,77,80,141,120,81,122.46,14,-38.00,-13.00,-1034.00
2024-06-07 00:30:48.619854,0,0,4,0,0,1,77,79,139,120,81,122.48,14,-69.00,-11.00,-1025.00
2024-06-07 00:30:48.689599,0,0,4,0,0,1,77,79,137,120,80,122.40,14,5.00,-21.00,-985.00
2024-06-07 00:30:48.824703,0,0,4,0,0,1,77,79,135,120,80,122.43,14,-27.00,5.00,-992.00
2024-06-07 00:30:48.893530,0,0,4,0,0,1,77,79,133,120,80,122.39,14,-5.00,-6.00,-958.00
2024-06-07 00:30:49.029413,0,0,4,0,0,1,77,79,132,120,80,122.39,14,19.00,-10.00,-990.00
2024-06-07 00:30:49.100818,0,0,4,0,0,1,77,79,130,110,80,122.34,14,5.00,-9.00,-1005.00
2024-06-07 00:30:49.199671,0,0,4,0,0,1,77,79,129,110,80,122.40,15,27.00,4.00,-993.00
2024-06-07 00:30:49.336753,0,0,4,0,0,1,77,79,128,110,80,122.42,15,-3.00,-31.00,-1048.00
2024-06-07 00:30:49.404174,0,0,4,0,0,0,77,79,128,110,80,122.31,15,26.00,-27.00,-1067.00
2024-06-07 00:30:49.505717,0,0,4,0,0,0,77,79,128,110,80,122.38,15,-59.00,-5.00,-1030.00
2024-06-07 00:30:49.646132,0,1,4,0,0,0,78,79,128,110,80,122.30,15,-14.00,2.00,-989.00
2024-06-07 00:30:49.709649,0,0,4,0,0,0,78,79,127,110,80,122.40,15,-43.00,-2.00,-1097.00
2024-06-07 00:30:49.852094,0,0,4,0,0,0,78,79,128,110,80,122.39,15,14.00,4.00,-965.00
2024-06-07 00:30:49.913848,0,0,4,0,0,0,78,79,128,110,80,122.37,15,-10.00,-12.00,-1014.00
2024-06-07 00:30:50.015500,0,0,4,0,0,0,78,79,128,110,80,122.39,15,-59.00,3.00,-965.00
2024-06-07 00:30:50.156013,0,0,4,0,0,0,78,79,127,110,80,122.36,15,-6.00,-16.00,-963.00
2024-06-07 00:30:50.219947,0,0,4,0,0,0,78,79,127,110,80,122.30,16,-35.00,-1.00,-1083.00
2024-06-07 00:30:50.360665,0,0,4,0,0,0,78,79,127,110,80,122.33,16,-16.00,3.00,-968.00
2024-06-07 00:30:50.423634,0,0,4,0,0,0,78,79,127,110,80,122.27,16,-35.00,-17.00,-998.00
2024-06-07 00:30:50.565557,0,0,4,0,0,0,78,79,127,110,80,122.34,16,0.00,-9.00,-902.00
2024-06-07 00:30:50.627893,0,0,4,0,0,0,78,79,126,110,80,122.37,16,-16.00,0.00,-963.00
2024-06-07 00:30:50.770273,0,0,4,0,0,0,78,79,126,110,79,122.38,16,-35.00,-4.00,-1042.00
2024-06-07 00:30:50.831536,0,0,4,0,0,0,78,79,126,110,79,122.31,16,4.00,-8.00,-1011.00
2024-06-07 00:30:50.885288,0,0,4,0,0,0,78,79,127,110,79,122.30,16,-14.00,-21.00,-996.00
2024-06-07 00:30:50.984708,0,0,4,0,0,0,78,79,127,110,79,122.35,16,-25.00,3.00,-1001.00
2024-06-07 00:30:51.152010,0,0,4,0,0,0,78,79,127,110,79,122.39,16,1.00,-25.00,-1048.00
2024-06-07 00:30:51.188642,0,0,4,0,0,0,78,79,128,110,79,122.29,17,-6.00,-8.00,-1062.00
2024-06-07 00:30:51.384580,0,0,4,0,0,0,78,79,128,110,79,122.41,17,14.00,-16.00,-1001.00
2024-06-07 00:30:51.392526,-5,0,4,0,0,0,78,79,131,110,79,122.33,17,-41.00,6.00,-961.00
2024-06-07 00:30:51.494711,-8,0,4,1,0,0,78,79,129,110,79,122.35,17,-31.00,-12.00,-1080.00
2024-06-07 00:30:51.691793,-8,0,4,2,0,0,77,80,129,110,79,122.33,17,-26.00,-17.00,-991.00
2024-06-07 00:30:51.698613,-8,0,4,4,0,0,77,80,129,110,79,122.32,17,-50.00,-18.00,-1008.00
2024-06-07 00:30:51.896553,-7,0,4,5,0,0,77,80,129,110,79,122.23,17,-31.00,-33.00,-996.00
2024-06-07 00:30:51.902797,-7,0,4,6,0,0,77,80,128,110,79,122.22,17,-43.00,-16.00,-1022.00
2024-06-07 00:30:52.219074,-6,0,4,6,0,0,77,80,127,110,79,122.16,17,-68.00,-9.00,-1018.00
2024-06-07 00:30:52.219172,-6,0,4,6,0,0,77,80,127,110,79,122.19,17,-33.00,-16.00,-974.00
2024-06-07 00:30:52.219420,-4,0,4,7,0,0,77,80,127,110,79,122.05,18,-102.00,13.00,-988.00
2024-06-07 00:30:52.359882,-1,0,4,7,0,0,77,80,127,110,79,122.20,18,-69.00,-9.00,-988.00
2024-06-07 00:30:52.487588,1,0,4,6,0,0,77,80,128,110,79,122.14,18,-63.00,-21.00,-1012.00
2024-06-07 00:30:52.567641,3,0,4,5,0,0,77,80,128,110,79,122.12,18,-64.00,-15.00,-1055.00
2024-06-07 00:30:52.671954,2,0,4,4,0,0,76,80,127,110,79,122.16,18,-69.00,16.00,-979.00
2024-06-07 00:30:52.760944,0,0,4,3,0,0,76,80,128,110,78,122.22,18,-50.00,-18.00,-995.00
2024-06-07 00:30:52.854121,0,1,4,3,0,0,76,80,128,110,78,122.20,18,-45.00,-12.00,-1004.00
2024-06-07 00:30:52.931512,0,2,4,3,0,0,76,80,129,110,78,122.28,18,-37.00,-16.00,-1024.00
2024-06-07 00:30:53.025567,0,2,4,3,0,0,76,80,128,110,78,122.28,18,-41.00,-1.00,-997.00
2024-06-07 00:30:53.127237,0,1,4,3,0,0,76,80,129,110,78,122.29,18,-37.00,-4.00,-967.00
2024-06-07 00:30:53.257553,0,0,4,3,0,0,76,80,129,110,78,122.27,19,-50.00,-18.00,-998.00
2024-06-07 00:30:53.331216,0,0,4,2,0,0,76,80,129,110,78,122.27,19,-33.00,-8.00,-1032.00
2024-06-07 00:30:53.462461,1,0,4,2,0,0,76,80,131,110,78,122.32,19,-6.00,-5.00,-943.00
2024-06-07 00:30:53.605834,4,0,4,2,0,0,76,80,130,110,78,122.32,19,2.00,-21.00,-1035.00
2024-06-07 00:30:53.637521,3,1,4,1,0,0,77,79,131,110,78,122.33,19,-49.00,-6.00,-1011.00
2024-06-07 00:30:53.750685,1,1,4,0,0,0,77,79,130,110,78,122.29,19,4.00,-25.00,-1013.00
2024-06-07 00:30:53.894186,0,0,4,0,0,0,77,79,131,110,78,122.33,19,12.00,-14.00,-982.00
2024-06-07 00:30:53.944259,0,0,4,0,0,0,77,79,131,110,78,122.27,19,-43.00,-14.00,-1043.00
2024-06-07 00:30:54.099677,0,0,4,0,0,0,77,79,130,110,78,122.34,19,-40.00,13.00,-956.00
2024-06-07 00:30:54.201236,0,0,4,0,0,0,77,79,131,110,78,122.29,19,-33.00,-14.00,-1022.00
2024-06-07 00:30:54.249258,1,0,4,0,0,0,77,79,131,110,78,122.29,20,-31.00,-8.00,-1013.00
2024-06-07 00:30:54.365095,1,0,4,0,0,0,77,79,131,110,78,122.28,20,-8.00,-14.00,-1002.00
2024-06-07 00:30:54.421007,0,0,4,0,0,0,77,79,130,110,78,122.25,20,-46.00,-14.00,-1031.00
2024-06-07 00:30:54.504277,0,0,4,0,0,0,77,79,130,110,78,122.32,20,-43.00,-19.00,-1006.00
2024-06-07 00:30:54.661362,0,0,4,0,0,0,77,79,129,110,78,122.28,20,-22.00,3.00,-976.00
2024-06-07 00:30:54.759606,0,0,4,0,0,0,77,79,129,110,77,122.29,20,-8.00,-2.00,-950.00
2024-06-07 00:30:54.866085,0,0,4,0,0,0,77,79,129,110,77,122.27,20,33.00,-36.00,-976.00
2024-06-07 00:30:54.912884,0,0,4,0,0,0,77,79,130,110,77,122.31,20,-26.00,2.00,-1018.00
2024-06-07 00:30:55.071009,0,0,4,0,0,0,77,79,129,110,77,122.28,20,46.00,-19.00,-1027.00
2024-06-07 00:30:55.116307,0,0,4,0,0,0,77,79,129,110,77,122.29,21,-33.00,-9.00,-1003.00
2024-06-07 00:30:55.276101,0,0,4,0,0,0,77,79,128,110,77,122.29,21,-26.00,-20.00,-987.00
2024-06-07 00:30:55.320382,0,0,4,0,0,0,77,79,127,110,77,122.25,21,-29.00,13.00,-953.00
2024-06-07 00:30:55.480268,0,0,4,0,0,0,77,79,126,110,77,122.29,21,-26.00,0.00,-970.00
2024-06-07 00:30:55.524279,0,0,4,0,0,0,77,79,126,110,77,122.25,21,-53.00,20.00,-1016.00
2024-06-07 00:30:55.653234,0,0,4,0,0,0,76,79,125,110,77,122.29,21,-4.00,-15.00,-964.00
2024-06-07 00:30:55.728242,0,0,4,0,0,0,76,79,125,110,77,122.22,21,28.00,-7.00,-995.00
2024-06-07 00:30:55.889920,3,0,4,0,0,0,76,79,125,110,77,122.31,21,2.00,2.00,-1021.00
2024-06-07 00:30:55.932274,7,0,4,-1,0,0,76,79,125,110,77,122.28,21,26.00,-51.00,-998.00
2024-06-07 00:30:56.034214,8,0,4,-2,0,0,76,79,126,110,77,122.20,21,-44.00,13.00,-952.00
2024-06-07 00:30:56.197210,7,0,4,-4,0,0,76,79,125,110,77,122.26,22,-9.00,-7.00,-1069.00
2024-06-07 00:30:56.237997,6,0,4,-5,0,0,76,79,126,110,77,122.26,22,25.00,-9.00,-1023.00
2024-06-07 00:30:56.401981,5,1,4,-6,0,0,76,79,126,110,77,122.26,22,-12.00,-14.00,-1071.00
2024-06-07 00:30:56.442158,4,1,4,-6,0,0,76,79,126,110,77,122.24,22,26.00,-24.00,-1014.00
2024-06-07 00:30:56.606711,4,2,4,-7,0,0,76,79,126,110,77,122.21,22,-1.00,7.00,-961.00
2024-06-07 00:30:56.646058,3,1,4,-7,0,0,76,80,127,110,77,122.26,22,20.00,-7.00,-950.00
2024-06-07 00:30:56.811559,0,0,4,-7,0,0,76,80,127,110,76,122.23,22,46.00,-5.00,-976.00
2024-06-07 00:30:56.850026,-2,0,4,-6,0,0,76,80,127,110,76,122.22,22,28.00,0.00,-986.00
2024-06-07 00:30:57.016309,-4,0,4,-5,0,0,76,80,126,110,76,122.25,22,69.00,-20.00,-1018.00
2024-06-07 00:30:57.054093,-4,0,4,-4,0,0,76,80,125,110,76,122.23,22,-23.00,8.00,-1068.00
2024-06-07 00:30:57.221456,-2,0,4,-3,0,0,76,80,127,110,76,122.25,23,32.00,-6.00,-967.00
2024-06-07 00:30:57.258023,-1,0,4,-3,0,0,76,80,126,110,76,122.19,23,-46.00,0.00,-1038.00
2024-06-07 00:30:57.425867,0,1,4,-3,0,0,76,80,126,110,76,122.17,23,-39.00,16.00,-1028.00
2024-06-07 00:30:57.462051,0,1,4,-3,0,0,76,80,126,110,76,122.23,23,5.00,-30.00,-989.00
2024-06-07 00:30:57.637099,0,0,4,-3,0,0,76,80,126,110,76,122.23,23,18.00,-18.00,-997.00
2024-06-07 00:30:57.666008,0,0,4,-3,0,0,76,80,126,110,76,122.25,23,-18.00,-26.00,-1013.00
2024-06-07 00:30:57.835496,0,0,4,-2,0,0,76,80,126,110,76,122.22,23,18.00,-24.00,-1007.00
2024-06-07 00:30:57.869952,0,0,4,-2,0,0,76,80,126,110,76,122.28,23,15.00,-38.00,-1015.00
2024-06-07 00:30:58.040270,0,0,4,-2,0,0,76,80,126,110,76,122.24,23,30.00,-5.00,-948.00
2024-06-07 00:30:58.074770,-2,0,4,-2,0,0,76,80,127,110,76,122.24,23,-36.00,10.00,-1005.00
2024-06-07 00:30:58.245053,-5,0,4,-1,0,0,76,80,126,110,76,122.23,24,16.00,-25.00,-978.00
2024-06-07 00:30:58.279468,-2,0,4,0,0,0,76,80,127,110,76,122.29,24,-23.00,-4.00,-988.00
2024-06-07 00:30:58.449982,-1,0,4,0,0,0,76,80,127,110,76,122.25,24,-21.00,-1.00,-1001.00
2024-06-07 00:30:58.450136,0,0,4,0,0,0,76,80,127,110,76,122.23,24,0.00,-27.00,-1008.00
2024-06-07 00:30:58.534420,0,0,4,0,0,0,76,80,127,110,76,122.26,24,-12.00,-7.00,-941.00
2024-06-07 00:30:58.655422,-1,0,4,0,0,0,77,80,127,110,76,122.25,24,-52.00,-10.00,-1023.00
2024-06-07 00:30:58.738053,-1,0,4,0,0,0,77,80,127,110,75,122.22,24,-21.00,-2.00,-969.00
2024-06-07 00:30:58.859583,-1,0,4,0,0,0,77,80,126,110,75,122.25,24,-43.00,-11.00,-1036.00
2024-06-07 00:30:58.943176,-1,0,4,0,0,0,77,80,127,110,75,122.22,24,-60.00,9.00,-1011.00
2024-06-07 00:30:59.064416,-1,0,4,0,0,0,77,80,127,110,75,122.24,24,-7.00,-27.00,-1028.00
2024-06-07 00:30:59.146071,0,0,4,0,0,0,77,80,128,110,75,122.26,25,-67.00,-10.00,-1010.00
2024-06-07 00:30:59.269314,0,1,4,0,0,0,77,80,128,110,75,122.23,25,-24.00,-14.00,-990.00
2024-06-07 00:30:59.350623,0,1,4,0,0,0,77,80,128,110,75,122.24,25,4.00,-30.00,-973.00
2024-06-07 00:30:59.473963,0,1,4,0,0,0,77,80,129,110,75,122.24,25,-31.00,7.00,-951.00
2024-06-07 00:30:59.554637,0,1,4,0,0,0,77,80,128,110,75,122.24,25,-58.00,3.00,-1033.00
2024-06-07 00:30:59.679458,0,0,4,0,0,0,77,79,129,110,75,122.18,25,-7.00,-12.00,-979.00
2024-06-07 00:30:59.757936,0,0,4,0,0,0,77,79,129,110,75,122.21,25,-10.00,-12.00,-961.00
2024-06-07 00:30:59.883925,0,0,4,0,0,0,77,79,129,110,75,122.20,25,10.00,-21.00,-975.00
2024-06-07 00:30:59.962101,0,0,4,0,0,0,77,79,129,110,75,122.24,25,4.00,-19.00,-1009.00
2024-06-07 00:31:00.089005,0,0,4,0,0,0,77,79,130,110,75,122.20,25,-18.00,-16.00,-1033.00
2024-06-07 00:31:00.165976,0,0,4,0,0,0,77,79,130,110,75,122.16,26,0.00,-12.00,-957.00
2024-06-07 00:31:00.283072,0,1,4,0,0,0,77,79,131,110,75,122.22,26,-58.00,8.00,-1038.00
2024-06-07 00:31:00.369777,0,0,4,0,0,0,77,79,130,110,75,122.19,26,-17.00,-22.00,-1018.00
2024-06-07 00:31:00.497767,0,-2,4,0,0,0,77,79,132,110,75,122.21,26,-7.00,-10.00,-1010.00
2024-06-07 00:31:00.575205,0,-8,4,0,0,0,77,79,132,110,75,122.24,26,-16.00,-20.00,-1032.00
2024-06-07 00:31:00.702892,0,-6,4,0,-2,0,77,79,132,110,74,122.22,26,-63.00,37.00,-961.00
2024-06-07 00:31:00.778768,0,-4,4,0,-3,0,77,79,131,110,74,122.30,26,-28.00,9.00,-1003.00
2024-06-07 00:31:00.908104,0,-1,4,0,-4,0,77,79,131,110,74,122.26,26,-57.00,12.00,-1030.00
2024-06-07 00:31:00.981769,0,1,4,0,-3,0,77,79,130,110,74,122.22,26,-19.00,28.00,-987.00
2024-06-07 00:31:01.112190,-1,1,4,0,-3,0,77,79,130,110,74,122.20,26,-49.00,18.00,-1036.00
2024-06-07 00:31:01.185891,-1,0,4,0,-2,0,77,79,129,110,74,122.23,27,-27.00,5.00,-950.00
2024-06-07 00:31:01.316932,-1,0,4,0,-2,0,77,79,128,110,74,122.24,27,20.00,-10.00,-970.00
2024-06-07 00:31:01.389733,0,0,4,0,-2,0,77,79,128,110,74,122.22,27,-2.00,-15.00,-1015.00
2024-06-07 00:31:01.523164,0,0,4,0,-2,0,77,79,128,110,74,122.19,27,27.00,-14.00,-1001.00
2024-06-07 00:31:01.593791,0,0,4,0,-2,0,77,79,128,110,74,122.25,27,8.00,-7.00,-959.00
2024-06-07 00:31:01.726550,0,0,4,0,-2,0,76,79,127,110,74,122.21,27,-12.00,6.00,-1023.00
2024-06-07 00:31:01.797689,0,0,4,0,-2,0,76,79,127,110,74,122.22,27,5.00,19.00,-941.00
2024-06-07 00:31:01.931318,0,0,4,0,-2,0,76,79,127,110,74,122.24,27,-12.00,13.00,-981.00
2024-06-07 00:31:02.001764,0,0,4,0,-2,0,76,79,126,110,74,122.23,27,7.00,-30.00,-1023.00
2024-06-07 00:31:02.136030,0,0,4,0,-2,0,76,79,127,110,74,122.20,27,-45.00,14.00,-1010.00
2024-06-07 00:31:02.206075,0,2,4,0,-2,0,76,79,127,110,74,122.22,28,-1.00,2.00,-1012.00
2024-06-07 00:31:02.257381,-1,5,4,0,-1,0,76,79,127,110,74,122.25,28,-22.00,6.00,-976.00
2024-06-07 00:31:02.444019,0,3,4,0,0,0,76,79,127,110,74,122.23,28,-50.00,15.00,-1007.00
2024-06-07 00:31:02.461232,0,1,4,0,0,0,76,79,127,110,74,122.29,28,2.00,8.00,-981.00
2024-06-07 00:31:02.648636,0,0,4,0,0,0,76,79,128,110,74,122.21,28,7.00,-27.00,-1016.00
2024-06-07 00:31:02.668600,0,0,4,0,0,0,76,79,128,110,73,122.26,28,-36.00,1.00,-1070.00
2024-06-07 00:31:02.769014,0,1,4,0,0,0,76,79,129,110,73,122.20,28,5.00,-25.00,-954.00
2024-06-07 00:31:02.868182,0,1,4,0,0,0,76,79,129,110,73,122.17,28,-8.00,-23.00,-956.00
2024-06-07 00:31:03.057683,0,1,4,0,0,0,76,79,130,110,73,122.24,28,29.00,-16.00,-944.00
2024-06-07 00:31:03.072327,0,1,4,0,0,0,76,79,130,110,73,122.20,28,-31.00,0.00,-1056.00
2024-06-07 00:31:03.262950,0,1,4,0,0,0,76,79,130,110,73,122.19,29,-11.00,-14.00,-978.00
2024-06-07 00:31:03.276489,0,1,4,0,0,0,76,79,131,110,73,122.25,29,31.00,-30.00,-992.00
2024-06-07 00:31:03.468550,0,1,4,0,0,0,76,79,131,110,73,122.19,29,-2.00,-24.00,-1013.00
2024-06-07 00:31:03.480627,0,0,4,0,0,0,76,79,131,110,73,122.24,29,-4.00,-18.00,-978.00
2024-06-07 00:31:03.672139,0,1,4,0,0,0,76,79,130,110,73,122.24,29,9.00,-13.00,-959.00
2024-06-07 00:31:03.684614,0,1,4,0,0,0,77,79,131,110,73,122.25,29,-50.00,-6.00,-985.00
2024-06-07 00:31:03.876986,0,1,4,0,0,0,77,79,131,110,73,122.20,29,-10.00,-14.00,-1010.00
2024-06-07 00:31:03.889389,0,1,4,0,0,0,77,79,131,110,73,122.26,29,-35.00,-9.00,-966.00
2024-06-07 00:31:04.089732,0,1,4,0,0,0,77,79,130,110,73,122.22,29,-2.00,-3.00,-1003.00
2024-06-07 00:31:04.093904,0,0,4,0,0,0,77,79,130,110,73,122.22,29,2.00,-20.00,-984.00
2024-06-07 00:31:04.194389,0,0,4,0,0,0,77,79,131,110,73,122.18,30,8.00,-17.00,-991.00
2024-06-07 00:31:04.392353,0,0,4,0,0,0,77,79,130,110,73,122.19,30,-47.00,1.00,-936.00
2024-06-07 00:31:04.398335,0,0,4,0,0,0,77,79,130,110,73,122.22,30,-19.00,4.00,-1023.00
2024-06-07 00:31:04.503793,0,0,4,0,0,0,77,79,130,110,73,122.20,30,11.00,-32.00,-994.00
2024-06-07 00:31:04.604373,0,0,4,0,0,0,77,79,130,110,73,122.12,30,7.00,-13.00,-1019.00
2024-06-07 00:31:04.707211,-1,5,4,0,0,0,77,79,130,110,72,122.22,30,19.00,-7.00,-931.00
2024-06-07 00:31:04.807529,-1,8,4,0,1,0,77,79,130,110,72,122.22,30,22.00,-28.00,-1017.00
2024-06-07 00:31:05.003463,-1,7,4,0,3,0,77,79,131,110,72,122.26,30,-27.00,-17.00,-1047.00
2024-06-07 00:31:05.011365,-1,4,4,0,4,0,77,79,130,110,72,122.19,30,-13.00,-21.00,-992.00
2024-06-07 00:31:05.208205,-1,1,4,0,4,0,77,79,130,110,72,122.17,30,-34.00,-23.00,-959.00
2024-06-07 00:31:05.215351,0,0,4,0,3,0,77,79,130,110,72,122.18,31,-32.00,-24.00,-972.00
2024-06-07 00:31:05.412727,0,0,4,0,2,0,77,79,130,110,72,122.22,31,-28.00,-15.00,-977.00
2024-06-07 00:31:05.419507,0,0,4,0,2,0,77,79,131,110,72,122.10,31,-33.00,-31.00,-1014.00
2024-06-07 00:31:05.521343,0,1,4,0,2,0,77,79,131,110,72,122.17,31,-27.00,-22.00,-996.00
2024-06-07 00:31:05.719924,0,1,4,0,2,0,77,79,131,110,72,122.22,31,-74.00,-3.00,-1010.00
2024-06-07 00:31:05.725258,0,1,4,0,2,0,76,79,131,110,72,122.27,31,-41.00,-23.00,-1013.00
2024-06-07 00:31:05.924689,0,1,4,0,2,0,76,79,130,110,72,122.26,31,-36.00,-13.00,-993.00
2024-06-07 00:31:05.929357,0,1,4,0,2,0,76,79,131,110,72,122.25,31,3.00,-50.00,-981.00
2024-06-07 00:31:06.031424,0,1,4,0,2,0,76,79,131,110,72,122.21,31,5.00,-28.00,-990.00
2024-06-07 00:31:06.081979,0,1,4,0,2,0,76,79,130,110,72,122.26,31,-31.00,-8.00,-974.00
2024-06-07 00:31:06.231897,0,1,4,0,2,0,76,79,130,110,72,122.22,32,5.00,-36.00,-984.00
2024-06-07 00:31:06.288663,-2,0,4,0,2,0,76,79,130,110,72,122.14,32,-40.00,-30.00,-966.00
2024-06-07 00:31:06.388080,-1,0,4,0,2,0,76,79,130,110,72,122.18,32,-17.00,-19.00,-981.00
2024-06-07 00:31:06.539308,0,0,4,0,2,0,76,79,130,110,72,122.18,32,-9.00,-22.00,-986.00
2024-06-07 00:31:06.592053,0,-3,4,0,1,0,76,79,132,110,72,122.21,32,-23.00,-6.00,-997.00
2024-06-07 00:31:06.744370,0,-2,4,0,0,0,76,80,132,110,71,122.22,32,-3.00,-22.00,-1039.00
2024-06-07 00:31:06.796149,0,0,4,0,0,0,76,80,130,110,71,122.21,32,13.00,-20.00,-1033.00
2024-06-07 00:31:06.948753,0,0,4,0,0,0,76,80,131,110,71,122.17,32,-48.00,13.00,-1023.00
2024-06-07 00:31:07.000076,0,0,4,0,0,0,76,80,131,110,71,122.19,32,-24.00,2.00,-990.00
2024-06-07 00:31:07.107018,-1,0,4,0,0,0,76,80,130,110,71,122.20,32,-86.00,29.00,-983.00
2024-06-07 00:31:07.204330,-1,0,4,0,0,0,76,80,130,110,71,122.21,33,-12.00,-3.00,-947.00
2024-06-07 00:31:07.358328,0,0,4,0,0,0,76,80,130,110,71,122.15,33,-15.00,10.00,-1003.00
2024-06-07 00:31:07.447967,0,0,4,0,0,0,76,80,130,110,71,122.18,33,-24.00,-17.00,-1014.00
2024-06-07 00:31:07.510137,0,0,4,0,0,0,76,80,130,110,71,122.17,33,-11.00,6.00,-996.00
2024-06-07 00:31:07.767998,0,0,4,0,0,0,76,80,129,110,71,122.16,33,0.00,-30.00,-996.00
2024-06-07 00:31:07.768196,-1,0,4,0,0,0,75,79,129,110,71,122.19,33,45.00,-50.00,-1014.00
2024-06-07 00:31:07.816044,-1,0,4,0,0,0,75,79,128,110,71,122.18,33,-63.00,0.00,-1023.00
2024-06-07 00:31:07.959438,0,0,4,0,0,0,75,79,128,110,71,122.21,33,-46.00,0.00,-1010.00
2024-06-07 00:31:08.019973,0,0,4,0,0,0,75,79,127,110,71,122.22,33,14.00,-13.00,-967.00
2024-06-07 00:31:08.189819,0,0,4,0,0,0,75,79,127,110,71,122.18,33,-28.00,-6.00,-1036.00
2024-06-07 00:31:08.331729,0,0,4,0,0,0,75,79,127,110,71,122.14,34,24.00,-28.00,-1017.00
2024-06-07 00:31:08.331976,0,0,4,0,0,0,75,79,125,110,71,122.21,34,-69.00,0.00,-1028.00
2024-06-07 00:31:08.496398,0,0,4,0,0,0,75,79,125,110,71,122.13,34,-10.00,-3.00,-1001.00
2024-06-07 00:31:08.639217,0,0,4,0,0,0,75,79,125,110,71,122.09,34,37.00,-29.00,-975.00
2024-06-07 00:31:08.639382,0,0,4,0,0,0,75,79,126,110,71,122.11,34,-14.00,-5.00,-1033.00
2024-06-07 00:31:08.803664,0,0,4,0,0,0,76,79,126,110,70,122.16,34,-24.00,-14.00,-1021.00
2024-06-07 00:31:08.946015,0,0,4,0,0,0,76,79,126,110,70,122.15,34,-51.00,0.00,-1035.00
2024-06-07 00:31:08.946069,0,0,6,0,0,0,76,79,126,110,70,122.14,34,16.00,-17.00,-1028.00
2024-06-07 00:31:09.110720,0,0,11,0,0,0,76,79,126,110,70,122.16,34,-34.00,-5.00,-974.00
2024-06-07 00:31:09.253194,0,0,17,0,0,0,76,79,126,110,70,122.22,35,-33.00,17.00,-1031.00
2024-06-07 00:31:09.253229,-1,0,23,0,0,0,76,79,127,110,70,122.18,35,-21.00,-3.00,-1009.00
2024-06-07 00:31:09.418589,-1,0,29,0,0,0,76,79,127,110,70,122.26,35,-5.00,9.00,-983.00
2024-06-07 00:31:09.560433,-1,0,35,0,0,0,76,79,128,110,70,122.22,35,6.00,-9.00,-1051.00
2024-06-07 00:31:09.560609,-1,0,42,0,0,0,76,79,128,110,70,122.17,35,-62.00,5.00,-979.00
2024-06-07 00:31:09.725635,-1,0,48,0,0,0,76,79,128,110,70,122.23,35,-10.00,4.00,-999.00
2024-06-07 00:31:09.780174,-1,0,54,0,0,0,77,79,129,110,70,122.19,35,16.00,-34.00,-986.00
2024-06-07 00:31:09.855933,-1,0,60,0,0,0,77,79,130,110,70,122.21,35,9.00,-12.00,-1011.00
2024-06-07 00:31:10.020517,-1,0,66,0,0,0,77,79,130,110,70,122.24,35,-12.00,-4.00,-988.00
2024-06-07 00:31:10.059693,-1,0,72,0,0,0,77,79,130,110,70,122.22,35,-22.00,0.00,-1040.00
2024-06-07 00:31:10.226266,-1,0,77,0,0,0,77,79,130,110,70,122.20,36,-6.00,-15.00,-1008.00
2024-06-07 00:31:10.274646,-1,0,83,0,0,0,77,79,130,110,70,122.20,36,5.00,8.00,-934.00
2024-06-07 00:31:10.365807,-1,0,89,0,0,0,77,79,130,110,70,122.25,36,-20.00,4.00,-982.00
2024-06-07 00:31:10.532526,0,0,95,0,0,0,77,79,129,110,70,122.21,36,-29.00,-13.00,-960.00
2024-06-07 00:31:10.569974,0,0,101,0,0,0,77,79,130,110,70,122.16,36,-11.00,-17.00,-993.00
2024-06-07 00:31:10.620965,-1,0,107,0,0,0,77,79,130,110,70,122.18,36,5.00,-16.00,-976.00
2024-06-07 00:31:10.722964,-1,0,113,0,0,0,77,79,130,110,69,122.18,36,29.00,-23.00,-995.00
2024-06-07 00:31:10.824845,-1,0,119,0,0,0,77,79,130,110,69,122.27,36,-16.00,-15.00,-1008.00
2024-06-07 00:31:10.926967,-1,0,125,0,0,0,77,79,130,110,69,122.20,36,-13.00,17.00,-967.00
2024-06-07 00:31:11.044420,0,0,131,0,0,0,77,79,129,110,69,122.29,36,-43.00,0.00,-998.00
2024-06-07 00:31:11.130949,0,0,137,0,0,0,77,79,129,110,69,122.18,37,9.00,2.00,-959.00
2024-06-07 00:31:11.249591,0,0,143,0,0,0,77,79,128,110,69,122.22,37,25.00,-17.00,-972.00
2024-06-07 00:31:11.335178,0,0,149,0,0,0,77,79,128,110,69,122.22,37,0.00,-6.00,-997.00
2024-06-07 00:31:11.454432,0,0,155,0,0,0,77,79,128,110,69,122.18,37,-33.00,1.00,-1021.00
2024-06-07 00:31:11.538829,0,0,161,0,0,0,77,79,127,110,69,122.12,37,-16.00,7.00,-955.00
2024-06-07 00:31:11.658845,0,0,167,0,0,0,77,79,127,110,69,122.22,37,-56.00,28.00,-976.00
2024-06-07 00:31:11.742885,0,0,173,0,0,0,77,80,126,110,69,122.23,37,-41.00,12.00,-1008.00
2024-06-07 00:31:11.863633,0,0,179,0,0,0,77,80,125,110,69,122.17,37,27.00,-16.00,-1066.00
2024-06-07 00:31:11.946962,0,0,-174,0,0,0,77,80,125,110,69,122.15,37,-18.00,-10.00,-1082.00
2024-06-07 00:31:12.049109,0,0,-168,0,0,0,77,80,124,110,69,122.13,37,5.00,-21.00,-983.00
2024-06-07 00:31:12.170838,0,0,-162,0,0,0,77,80,124,110,69,122.11,38,-20.00,-12.00,-1014.00
2024-06-07 00:31:12.252936,0,0,-156,0,0,0,77,80,123,110,69,122.13,38,-24.00,29.00,-986.00
2024-06-07 00:31:12.375616,0,0,-150,0,0,0,77,80,122,110,69,122.08,38,0.00,-6.00,-1008.00
2024-06-07 00:31:12.456841,0,0,-145,0,0,0,77,80,122,110,69,122.12,38,-8.00,-4.00,-1036.00
2024-06-07 00:31:12.558924,0,0,-139,0,0,0,77,80,122,110,69,122.15,38,-47.00,22.00,-1017.00
2024-06-07 00:31:12.682807,0,0,-133,0,0,0,77,80,121,100,69,122.21,38,-13.00,18.00,-977.00
2024-06-07 00:31:12.762835,0,0,-127,0,0,0,77,79,122,100,68,122.15,38,13.00,-12.00,-1006.00
2024-06-07 00:31:12.888867,0,0,-121,0,0,0,77,79,123,100,68,122.20,38,-10.00,2.00,-1094.00
2024-06-07 00:31:12.966788,0,0,-115,0,0,0,77,79,123,110,68,122.21,38,-3.00,-17.00,-978.00
2024-06-07 00:31:13.094025,0,0,-109,0,0,0,77,79,124,110,68,122.17,38,20.00,-19.00,-986.00
2024-06-07 00:31:13.170791,0,0,-103,0,0,0,77,79,124,110,68,122.14,39,-3.00,-17.00,-994.00
2024-06-07 00:31:13.302497,0,0,-97,0,0,0,77,79,125,110,68,122.18,39,-36.00,-4.00,-977.00
2024-06-07 00:31:13.374587,0,0,-91,0,0,0,77,79,125,110,68,122.16,39,-36.00,14.00,-986.00
2024-06-07 00:31:13.501847,0,0,-85,0,0,0,77,79,125,110,68,122.14,39,-45.00,0.00,-1038.00
2024-06-07 00:31:13.578792,0,0,-79,0,0,0,77,79,125,110,68,122.18,39,15.00,0.00,-946.00
2024-06-07 00:31:13.707168,0,0,-73,0,0,0,77,79,125,110,68,122.21,39,-41.00,-8.00,-1021.00
2024-06-07 00:31:13.782888,0,0,-67,0,0,0,77,79,126,110,68,122.16,39,9.00,0.00,-972.00
2024-06-07 00:31:13.913824,0,0,-61,0,0,0,77,79,126,110,68,122.16,39,-25.00,6.00,-1034.00
2024-06-07 00:31:13.987724,0,0,-55,0,0,0,77,79,125,110,68,122.17,39,-41.00,0.00,-1037.00
2024-06-07 00:31:14.088684,0,0,-49,0,0,0,77,79,126,110,68,122.18,39,-5.00,-10.00,-985.00
2024-06-07 00:31:14.219567,0,0,-43,0,0,0,77,79,126,110,68,122.26,40,15.00,4.00,-985.00
2024-06-07 00:31:14.292682,0,0,-37,0,0,0,77,79,126,110,68,122.22,40,26.00,-8.00,-1001.00
2024-06-07 00:31:14.423559,0,0,-31,0,0,0,77,79,126,110,68,122.25,40,1.00,9.00,-1037.00
2024-06-07 00:31:14.496766,0,0,-25,0,0,0,77,79,127,110,68,122.26,40,-13.00,9.00,-1028.00
2024-06-07 00:31:14.628420,0,0,-19,0,0,0,77,79,127,110,68,122.19,40,-14.00,2.00,-994.00
2024-06-07 00:31:14.649548,0,0,-13,0,0,0,77,79,128,110,67,122.25,40,46.00,-22.00,-951.00
2024-06-07 00:31:14.833904,0,0,-9,0,0,0,76,80,128,110,67,122.25,40,14.00,-9.00,-997.00
2024-06-07 00:31:14.904561,0,0,-6,0,0,0,76,80,128,110,67,122.25,40,-11.00,1.00,-1002.00
2024-06-07 00:31:14.956176,0,0,-3,0,0,0,76,80,129,110,67,122.25,40,13.00,-17.00,-1019.00
2024-06-07 00:31:15.140246,0,0,-1,0,0,0,76,80,129,110,67,122.26,40,6.00,-1.00,-935.00
2024-06-07 00:31:15.159847,0,0,0,0,0,0,76,80,129,110,67,122.21,41,-8.00,-13.00,-938.00
2024-06-07 00:31:15.345002,0,0,1,0,0,0,76,80,129,110,67,122.24,41,6.00,-14.00,-943.00
2024-06-07 00:31:15.363513,0,0,1,0,0,0,76,80,130,110,67,122.21,41,-50.00,8.00,-1006.00
2024-06-07 00:31:15.549838,0,0,2,0,0,0,76,80,129,110,67,122.29,41,12.00,-10.00,-1055.00
2024-06-07 00:31:15.567539,0,0,3,0,0,0,76,80,129,110,67,122.27,41,-21.00,-3.00,-963.00
2024-06-07 00:31:15.758788,0,0,3,0,0,0,76,80,130,110,67,122.26,41,-36.00,-4.00,-1002.00
2024-06-07 00:31:15.771313,0,0,3,0,0,0,76,79,129,110,67,122.26,41,-5.00,-12.00,-1001.00
2024-06-07 00:31:15.959652,0,0,3,0,0,0,76,79,130,110,67,122.24,41,-36.00,8.00,-1077.00
2024-06-07 00:31:15.975415,0,0,3,0,0,0,76,79,129,110,67,122.20,41,-7.00,0.00,-1112.00
2024-06-07 00:31:16.164343,0,0,3,0,0,0,76,79,129,110,67,122.27,41,23.00,-13.00,-962.00
2024-06-07 00:31:16.179245,0,0,3,0,0,0,76,79,129,110,67,122.21,42,21.00,-17.00,-1062.00
2024-06-07 00:31:16.369211,0,0,3,0,0,0,76,79,128,110,67,122.19,42,-11.00,-9.00,-942.00
2024-06-07 00:31:16.383324,0,0,3,0,0,0,76,79,128,110,67,122.22,42,46.00,-16.00,-1014.00
2024-06-07 00:31:16.574056,0,0,3,0,0,0,76,79,127,110,67,122.21,42,14.00,-11.00,-964.00
2024-06-07 00:31:16.587187,0,0,3,0,0,0,76,79,128,110,67,122.25,42,-53.00,7.00,-1009.00
2024-06-07 00:31:16.778912,0,0,3,0,0,0,76,79,128,110,66,122.24,42,6.00,-9.00,-1026.00
2024-06-07 00:31:16.791159,0,0,3,0,0,0,77,79,127,110,66,122.22,42,8.00,-31.00,-993.00
2024-06-07 00:31:16.983653,0,0,3,0,0,0,77,79,127,110,66,122.28,42,-7.00,3.00,-979.00
2024-06-07 00:31:16.995752,0,0,3,0,0,0,77,79,127,110,66,122.25,42,-3.00,3.00,-1009.00
2024-06-07 00:31:17.189522,0,0,3,0,0,0,77,79,127,110,66,122.26,42,-21.00,-23.00,-1016.00
2024-06-07 00:31:17.201180,0,0,3,0,0,0,77,79,126,110,66,122.19,43,-28.00,-5.00,-979.00
2024-06-07 00:31:17.302110,0,0,3,0,0,0,77,79,126,110,66,122.20,43,-28.00,-5.00,-1030.00
2024-06-07 00:31:17.495533,0,0,3,0,0,0,77,79,127,110,66,122.23,43,-27.00,-14.00,-1000.00
2024-06-07 00:31:17.505234,0,0,3,0,0,0,77,79,126,110,66,122.25,43,-67.00,11.00,-1054.00
2024-06-07 00:31:17.607494,0,0,3,0,0,0,77,79,127,110,66,122.26,43,-29.00,-7.00,-1027.00
2024-06-07 00:31:17.802580,0,0,3,0,0,0,77,79,128,110,66,122.24,43,-36.00,6.00,-1008.00
2024-06-07 00:31:17.811128,0,0,-1,0,0,0,76,79,128,110,66,122.21,43,-3.00,-3.00,-1029.00
2024-06-07 00:31:18.007342,0,0,-6,0,0,0,76,79,128,110,66,122.21,43,-19.00,-14.00,-980.00
2024-06-07 00:31:18.015007,0,0,-12,0,0,0,76,79,128,110,66,122.27,43,22.00,-13.00,-1001.00
2024-06-07 00:31:18.212409,0,0,-18,0,0,0,76,79,128,110,66,122.30,43,1.00,-11.00,-1024.00
2024-06-07 00:31:18.219182,0,0,-24,0,0,0,76,79,128,110,66,122.21,44,-61.00,15.00,-999.00
2024-06-07 00:31:18.416923,0,0,-30,0,0,0,76,79,129,110,66,122.33,44,18.00,-24.00,-1004.00
2024-06-07 00:31:18.423426,0,0,-35,0,0,0,76,79,129,110,66,122.30,44,13.00,-11.00,-989.00
2024-06-07 00:31:18.622075,0,0,-41,0,0,0,76,79,129,110,66,122.23,44,0.00,-23.00,-1015.00
2024-06-07 00:31:18.627056,0,0,-47,0,0,0,76,79,129,110,66,122.29,44,23.00,-25.00,-991.00
2024-06-07 00:31:18.678280,0,0,-52,0,0,0,76,79,129,110,65,122.25,44,-26.00,-4.00,-967.00
2024-06-07 00:31:18.833914,0,0,-58,0,0,0,76,79,129,110,65,122.29,44,-43.00,13.00,-1045.00
2024-06-07 00:31:18.882926,0,0,-64,0,0,0,76,79,129,110,65,122.34,44,0.00,-14.00,-1000.00
2024-06-07 00:31:19.031283,0,0,-70,0,0,0,76,79,129,110,65,122.28,44,-8.00,5.00,-971.00
2024-06-07 00:31:19.086278,0,0,-75,0,0,0,76,79,130,110,65,122.28,44,14.00,-35.00,-1023.00
2024-06-07 00:31:19.236971,0,0,-81,0,0,0,76,79,130,110,65,122.36,45,-4.00,-16.00,-1019.00
2024-06-07 00:31:19.290044,0,0,-87,0,0,0,76,79,130,110,65,122.32,45,-3.00,-4.00,-1023.00
2024-06-07 00:31:19.440875,0,0,-93,0,0,0,76,79,130,110,65,122.28,45,24.00,-15.00,-974.00
2024-06-07 00:31:19.494205,0,0,-99,0,0,0,76,79,130,110,65,122.32,45,-13.00,-14.00,-990.00
2024-06-07 00:31:19.596299,0,0,-105,0,0,0,76,79,130,110,65,122.32,45,18.00,-17.00,-981.00
2024-06-07 00:31:19.748075,0,0,-110,0,0,0,76,79,131,110,65,122.26,45,-9.00,-6.00,-1014.00
2024-06-07 00:31:19.800207,0,0,-116,0,0,0,76,79,130,110,65,122.29,45,-1.00,-11.00,-1030.00
2024-06-07 00:31:19.952802,-1,0,-122,0,0,0,76,79,130,110,65,122.27,45,-33.00,-5.00,-982.00
2024-06-07 00:31:20.004738,-1,0,-128,0,0,0,76,79,130,110,65,122.27,45,-42.00,15.00,-1012.00
2024-06-07 00:31:20.157692,0,0,-134,0,0,0,76,79,130,110,65,122.26,45,10.00,-19.00,-1037.00
2024-06-07 00:31:20.209887,0,0,-140,0,0,0,76,79,130,110,65,122.30,46,-26.00,8.00,-996.00
2024-06-07 00:31:20.362447,0,0,-146,0,0,0,76,79,131,110,65,122.29,46,-48.00,20.00,-1033.00
2024-06-07 00:31:20.412756,0,0,-152,0,0,0,76,79,131,110,65,122.33,46,-45.00,6.00,-1011.00
2024-06-07 00:31:20.567247,0,0,-157,0,0,0,76,79,131,110,65,122.25,46,-51.00,3.00,-1008.00
2024-06-07 00:31:20.616806,0,0,-163,0,0,0,76,79,131,110,65,122.33,46,-46.00,14.00,-1038.00
2024-06-07 00:31:20.771958,-1,0,-169,0,0,0,76,79,132,110,64,122.30,46,-24.00,-21.00,-984.00
2024-06-07 00:31:20.820813,-1,0,-175,0,0,0,76,79,131,110,64,122.36,46,-25.00,-10.00,-986.00
2024-06-07 00:31:20.976778,-1,0,178,0,0,0,76,79,132,110,64,122.30,46,-55.00,0.00,-1038.00
2024-06-07 00:31:21.024834,-1,0,172,0,0,0,76,79,132,110,64,122.30,46,-45.00,-5.00,-1000.00
2024-06-07 00:31:21.181637,-1,0,166,0,0,0,76,79,131,110,64,122.31,46,-4.00,-20.00,-950.00
2024-06-07 00:31:21.228821,-1,0,160,0,0,0,76,79,132,110,64,122.32,47,-2.00,-31.00,-990.00
2024-06-07 00:31:21.386443,-1,0,154,0,0,0,76,79,132,110,64,122.26,47,-51.00,10.00,-1033.00
2024-06-07 00:31:21.432852,-1,0,148,0,0,0,76,79,131,110,64,122.33,47,-35.00,7.00,-973.00
2024-06-07 00:31:21.591175,-1,0,142,0,0,0,76,79,132,110,64,122.34,47,-24.00,-6.00,-1018.00
2024-06-07 00:31:21.636901,-1,0,136,0,0,0,76,79,131,110,64,122.31,47,-47.00,-17.00,-1013.00
2024-06-07 00:31:21.795984,-1,0,130,0,0,0,76,79,131,110,64,122.25,47,-8.00,-13.00,-1000.00
2024-06-07 00:31:21.840956,-1,0,124,0,0,0,77,79,131,110,64,122.29,47,-34.00,-21.00,-983.00
2024-06-07 00:31:22.205586,0,0,118,0,0,0,77,79,131,110,64,122.34,47,-22.00,-6.00,-1011.00
2024-06-07 00:31:22.320982,-1,0,112,0,0,0,77,79,131,110,64,122.28,47,-27.00,-4.00,-971.00
2024-06-07 00:31:22.321420,-1,0,106,0,0,0,77,79,130,110,64,122.37,47,-50.00,3.00,-1005.00
2024-06-07 00:31:22.321638,-1,0,100,0,0,0,77,79,130,110,64,122.38,48,17.00,-38.00,-997.00
2024-06-07 00:31:22.321921,-1,0,94,0,0,0,77,79,130,110,64,122.32,48,25.00,-35.00,-956.00
2024-06-07 00:31:22.429420,-1,0,88,0,0,0,77,79,130,110,64,122.30,48,-12.00,-11.00,-1010.00
2024-06-07 00:31:22.504845,0,0,81,0,0,0,77,79,130,110,64,122.34,48,-44.00,-27.00,-975.00
2024-06-07 00:31:22.605928,0,0,75,0,0,0,77,79,129,110,64,122.27,48,-18.00,-7.00,-1009.00
2024-06-07 00:31:22.757747,0,0,69,0,0,0,77,79,129,110,63,122.35,48,23.00,-31.00,-935.00
2024-06-07 00:31:22.922259,0,0,57,0,0,0,76,79,129,110,63,122.23,48,-22.00,-17.00,-982.00
2024-06-07 00:31:22.922307,0,0,51,0,0,0,76,79,128,110,63,122.30,48,-4.00,2.00,-1004.00
2024-06-07 00:31:23.102802,0,0,45,0,0,0,76,79,128,110,63,122.33,48,-57.00,10.00,-985.00
2024-06-07 00:31:23.115739,0,0,39,0,0,0,76,79,128,110,63,122.36,49,-3.00,-14.00,-1035.00
2024-06-07 00:31:23.345511,0,0,32,0,0,0,76,79,129,110,63,122.35,49,20.00,-16.00,-969.00
2024-06-07 00:31:23.345575,0,0,26,0,0,0,76,79,129,110,63,122.36,49,-6.00,2.00,-1056.00
2024-06-07 00:31:23.422119,0,0,21,0,0,0,76,79,129,110,63,122.29,49,-13.00,-7.00,-1007.00
2024-06-07 00:31:23.548137,0,0,16,0,0,0,76,79,130,110,63,122.36,49,-38.00,18.00,-990.00
2024-06-07 00:31:23.691833,0,0,13,0,0,0,76,79,129,110,63,122.32,49,50.00,-46.00,-1023.00
2024-06-07 00:31:23.728909,0,0,10,0,0,0,76,79,129,110,63,122.30,49,-63.00,7.00,-1002.00
2024-06-07 00:31:23.854974,0,0,9,0,0,0,76,79,129,110,63,122.36,49,-38.00,-5.00,-1004.00
2024-06-07 00:31:23.997967,0,0,7,0,0,0,76,79,129,110,63,122.34,49,-42.00,-4.00,-1002.00
2024-06-07 00:31:24.038291,0,0,6,0,0,0,76,79,129,110,63,122.36,49,-51.00,-6.00,-998.00
2024-06-07 00:31:24.162132,0,0,5,0,0,0,76,79,129,110,63,122.34,50,-6.00,-12.00,-986.00
2024-06-07 00:31:24.240041,0,0,4,0,0,0,76,79,129,110,63,122.26,50,16.00,-32.00,-1045.00
2024-06-07 00:31:24.342580,0,0,4,0,0,0,76,79,128,110,63,122.30,50,2.00,-33.00,-999.00
2024-06-07 00:31:24.443883,0,0,4,0,0,0,76,79,128,110,63,122.38,50,-13.00,-10.00,-961.00
2024-06-07 00:31:24.545370,0,0,4,0,0,0,76,79,128,110,63,122.30,50,-3.00,-8.00,-996.00
2024-06-07 00:31:24.648717,0,0,4,0,0,0,76,79,128,110,63,122.35,50,-13.00,-4.00,-1032.00
2024-06-07 00:31:24.748860,0,0,4,0,0,0,76,79,128,110,62,122.25,50,20.00,-23.00,-988.00
2024-06-07 00:31:24.867829,0,0,4,0,0,0,75,78,127,110,62,122.29,50,16.00,-13.00,-1005.00
2024-06-07 00:31:24.953013,0,0,4,0,0,0,75,78,128,110,62,122.28,50,0.00,-26.00,-1017.00
2024-06-07 00:31:25.073107,0,0,4,0,0,0,75,78,127,110,62,122.37,50,-39.00,-1.00,-983.00
2024-06-07 00:31:25.157381,0,0,4,0,0,0,75,78,128,110,62,122.27,51,-48.00,3.00,-1014.00
2024-06-07 00:31:25.277578,0,0,4,0,0,0,75,78,128,110,62,122.31,51,-13.00,-11.00,-1064.00
2024-06-07 00:31:25.360650,0,0,4,0,0,0,75,78,127,110,62,122.31,51,14.00,-5.00,-992.00
2024-06-07 00:31:25.485462,0,0,4,0,0,0,75,78,127,110,62,122.36,51,-38.00,2.00,-952.00
2024-06-07 00:31:25.566886,0,0,4,0,0,0,75,78,127,110,62,122.33,51,-16.00,-5.00,-1002.00
2024-06-07 00:31:25.666627,0,0,4,0,0,0,75,78,127,110,62,122.32,51,-75.00,13.00,-1044.00
2024-06-07 00:31:25.790824,0,0,4,0,0,0,75,78,127,110,62,122.35,51,9.00,-29.00,-988.00
2024-06-07 00:31:25.870483,0,0,4,0,0,0,76,79,127,110,62,122.35,51,-14.00,-1.00,-947.00
2024-06-07 00:31:25.994329,0,0,4,0,0,0,76,79,128,110,62,122.30,51,10.00,-29.00,-1005.00
2024-06-07 00:31:26.074494,0,0,4,0,0,0,76,79,128,110,62,122.31,51,9.00,-18.00,-1048.00
2024-06-07 00:31:26.191912,0,0,4,0,0,0,76,79,128,110,62,122.36,52,28.00,-35.00,-979.00
2024-06-07 00:31:26.278404,0,0,4,0,0,0,76,79,128,110,62,122.35,52,-43.00,17.00,-987.00
2024-06-07 00:31:26.403775,0,0,5,0,0,-1,76,79,130,110,62,122.41,52,-14.00,-7.00,-1534.00
2024-06-07 00:31:26.482447,0,0,5,0,0,-8,76,79,137,120,62,122.44,52,32.00,-31.00,-1781.00
2024-06-07 00:31:26.537697,1,-45,7,0,-2,-13,76,79,231,130,62,122.58,52,8.00,300.00,-1106.00
2024-06-07 00:31:26.635554,1,-165,1,0,-11,-5,76,79,169,140,62,122.75,52,22.00,725.00,-1025.00
2024-06-07 00:31:26.813227,-3,71,5,0,-9,9,76,79,6553,140,62,122.77,52,43.00,536.00,-1037.00
2024-06-07 00:31:26.839461,0,-2,7,0,-3,10,77,80,136,130,62,122.44,52,29.00,-164.00,-1650.00
2024-06-07 00:31:27.018091,0,1,6,0,-3,7,77,80,125,120,62,122.32,52,11.00,-71.00,-1407.00
2024-06-07 00:31:27.043458,0,3,4,0,-3,3,77,80,118,110,62,122.23,52,-54.00,-21.00,-1321.00
2024-06-07 00:31:27.222956,0,1,4,0,-2,1,77,80,115,110,62,122.20,53,-1.00,-6.00,-1209.00
2024-06-07 00:31:27.247497,0,1,4,0,-2,0,77,80,113,110,62,122.16,53,-24.00,-16.00,-1199.00
2024-06-07 00:31:27.427733,0,1,4,0,-2,-1,77,80,112,110,62,122.19,53,-25.00,-13.00,-1032.00
2024-06-07 00:31:27.451488,0,0,4,0,-1,-1,77,80,113,110,62,122.25,53,5.00,-10.00,-1028.00
2024-06-07 00:31:27.632621,0,0,4,0,-1,-1,77,80,113,110,62,122.18,53,3.00,31.00,-1006.00
2024-06-07 00:31:27.655451,0,1,4,0,-1,-1,77,80,113,110,62,122.18,53,-3.00,-2.00,-1001.00
2024-06-07 00:31:27.837321,0,3,4,0,0,-1,77,80,113,110,62,122.20,53,22.00,6.00,-993.00
2024-06-07 00:31:27.859398,0,2,4,0,0,0,76,79,112,110,62,122.28,53,14.00,6.00,-981.00
2024-06-07 00:31:28.042056,0,1,4,0,0,0,76,79,112,110,62,122.22,53,6.00,0.00,-1048.00
2024-06-07 00:31:28.063426,0,1,4,0,0,0,76,79,112,110,62,122.31,53,-12.00,6.00,-1076.00
2024-06-07 00:31:28.247264,0,1,4,0,0,0,76,79,112,100,62,122.20,54,18.00,-8.00,-982.00
2024-06-07 00:31:28.267464,0,1,4,0,0,0,76,79,111,100,62,122.23,54,9.00,-10.00,-991.00
2024-06-07 00:31:28.451630,0,2,4,0,0,0,76,79,111,100,62,122.23,54,-17.00,-17.00,-1030.00
2024-06-07 00:31:28.472020,0,2,4,0,0,0,76,79,112,100,62,122.18,54,15.00,-2.00,-1017.00
2024-06-07 00:31:28.656606,0,2,4,0,0,0,76,79,112,100,62,122.31,54,-5.00,7.00,-1046.00
2024-06-07 00:31:28.676862,0,2,4,0,0,0,76,79,113,100,61,122.29,54,3.00,5.00,-965.00
2024-06-07 00:31:28.861268,0,2,4,0,0,0,76,79,113,100,61,122.25,54,-41.00,16.00,-985.00
2024-06-07 00:31:28.880070,0,1,4,0,0,0,77,79,115,100,61,122.29,54,5.00,-19.00,-1044.00
2024-06-07 00:31:29.066056,0,2,4,0,0,0,77,79,116,100,61,122.24,54,-59.00,-7.00,-1020.00
2024-06-07 00:31:29.084218,0,2,4,0,0,0,77,79,118,100,61,122.26,54,17.00,0.00,-962.00
2024-06-07 00:31:29.271275,0,2,4,0,0,0,77,79,119,100,61,122.33,55,-12.00,-15.00,-1014.00
2024-06-07 00:31:29.288303,-1,2,4,0,0,0,77,79,120,110,61,122.29,55,-1.00,0.00,-947.00
2024-06-07 00:31:29.475957,-1,2,4,0,0,0,77,79,120,110,61,122.38,55,-66.00,12.00,-902.00
2024-06-07 00:31:29.492267,-1,1,4,0,0,0,77,79,120,110,61,122.32,55,-18.00,0.00,-962.00
2024-06-07 00:31:29.594038,-1,1,4,0,0,0,77,79,121,110,61,122.33,55,-53.00,7.00,-997.00
2024-06-07 00:31:29.696751,-1,0,4,0,1,0,77,79,121,110,61,122.28,55,-5.00,0.00,-988.00
2024-06-07 00:31:29.798133,0,0,4,0,1,0,77,79,121,110,61,122.32,55,17.00,-9.00,-981.00
2024-06-07 00:31:29.987729,0,1,4,0,0,0,76,79,122,110,61,122.36,55,-17.00,-20.00,-1035.00
2024-06-07 00:31:30.002182,0,1,4,0,0,0,76,79,123,110,61,122.36,55,-9.00,-15.00,-1031.00
2024-06-07 00:31:30.053253,0,1,4,0,0,0,76,79,123,110,61,122.37,55,-39.00,-17.00,-1035.00
2024-06-07 00:31:30.192859,0,1,4,0,0,0,76,79,123,110,61,122.33,56,-28.00,-8.00,-978.00
2024-06-07 00:31:30.257396,0,1,4,0,0,0,76,79,124,110,61,122.42,56,7.00,-10.00,-974.00
2024-06-07 00:31:30.397281,0,1,4,0,1,0,76,79,124,110,61,122.36,56,-3.00,-10.00,-974.00
2024-06-07 00:31:30.461354,0,0,4,0,1,0,76,79,126,110,61,122.41,56,-20.00,0.00,-1031.00
2024-06-07 00:31:30.602171,0,0,4,0,1,0,76,79,125,110,61,122.39,56,-29.00,-16.00,-1010.00
2024-06-07 00:31:30.665285,0,0,4,0,0,0,76,79,125,110,60,122.36,56,-32.00,7.00,-962.00
2024-06-07 00:31:30.806758,0,0,4,0,0,0,76,79,126,110,60,122.33,56,-11.00,-5.00,-973.00
2024-06-07 00:31:30.869218,0,0,4,0,1,0,76,80,126,110,60,122.43,56,-16.00,9.00,-1017.00
2024-06-07 00:31:31.011840,0,0,4,0,0,0,76,80,127,110,60,122.37,56,-41.00,-18.00,-1029.00
2024-06-07 00:31:31.073320,0,0,4,0,0,0,76,80,126,110,60,122.43,56,0.00,0.00,-966.00
2024-06-07 00:31:31.216882,0,1,4,0,0,0,76,80,125,110,60,122.41,57,-40.00,3.00,-1035.00
2024-06-07 00:31:31.277518,0,0,4,0,0,0,76,80,127,110,60,122.42,57,18.00,-10.00,-964.00
2024-06-07 00:31:31.421141,0,1,4,0,0,0,76,80,126,110,60,122.43,57,-15.00,-18.00,-1023.00
2024-06-07 00:31:31.480917,0,1,4,0,0,0,76,80,125,110,60,122.38,57,-48.00,-1.00,-924.00
2024-06-07 00:31:31.626566,-1,1,4,0,0,0,76,80,124,110,60,122.38,57,-8.00,-10.00,-971.00
2024-06-07 00:31:31.684931,-1,1,4,0,0,0,76,80,123,110,60,122.41,57,-57.00,-5.00,-993.00
2024-06-07 00:31:31.830932,0,1,4,0,0,0,76,80,123,110,60,122.37,57,4.00,-12.00,-1011.00
2024-06-07 00:31:31.888979,0,0,4,0,0,0,77,79,122,110,60,122.33,57,-12.00,2.00,-1040.00
2024-06-07 00:31:32.036528,0,0,4,0,0,0,77,79,121,110,60,122.33,57,-33.00,-25.00,-1063.00
2024-06-07 00:31:32.093968,0,0,4,0,0,0,77,79,121,110,60,122.33,57,6.00,-32.00,-1008.00
2024-06-07 00:31:32.240806,0,0,4,0,0,0,77,79,120,110,60,122.34,58,-4.00,-2.00,-1011.00
2024-06-07 00:31:32.297907,0,1,4,0,0,0,77,79,120,110,60,122.41,58,3.00,-10.00,-983.00
2024-06-07 00:31:32.445194,0,1,4,0,0,0,77,79,120,110,60,122.34,58,-59.00,5.00,-958.00
2024-06-07 00:31:32.502046,0,1,4,0,0,0,77,79,119,110,60,122.36,58,0.00,-11.00,-1046.00
2024-06-07 00:31:32.603828,0,0,4,0,0,0,77,79,119,110,60,122.41,58,-7.00,-16.00,-1003.00
2024-06-07 00:31:32.706541,0,0,4,0,0,0,77,79,118,110,60,122.37,58,-8.00,-30.00,-998.00
2024-06-07 00:31:32.807934,0,0,4,0,0,0,77,79,118,110,60,122.37,58,-8.00,-12.00,-989.00
2024-06-07 00:31:32.957056,0,1,5,0,0,0,77,79,118,100,60,122.47,58,-31.00,-15.00,-1509.00
2024-06-07 00:31:33.012342,0,1,5,0,0,-3,77,79,123,110,60,122.52,58,-47.00,12.00,-1704.00
2024-06-07 00:31:33.162210,0,7,5,0,0,-11,77,79,180,110,60,122.58,58,-37.00,70.00,-1807.00
2024-06-07 00:31:33.215786,-1,86,5,-1,6,-13,77,79,189,130,60,122.71,59,7.00,812.00,-1101.00
2024-06-07 00:31:33.366576,2,-148,2,-1,11,1,77,79,369,130,60,122.75,59,5.00,807.00,-807.00
2024-06-07 00:31:33.419742,2,-33,8,-1,5,10,77,79,125,130,60,122.78,59,43.00,399.00,-1038.00
2024-06-07 00:31:33.571356,0,5,10,-1,3,9,77,79,115,120,60,122.30,59,-15.00,-32.00,-1366.00
2024-06-07 00:31:33.623750,0,-1,11,-1,4,5,77,79,108,110,60,122.18,59,-31.00,-37.00,-1358.00
2024-06-07 00:31:33.776220,0,-4,10,-1,3,1,77,79,103,100,60,122.21,59,-41.00,-4.00,-1195.00
2024-06-07 00:31:33.827900,-1,-2,5,-1,2,0,77,79,100,100,60,122.17,59,-10.00,6.00,-1103.00
2024-06-07 00:31:33.981019,0,-1,4,-1,2,0,76,80,98,100,60,122.29,59,-5.00,-7.00,-1049.00
2024-06-07 00:31:34.031675,0,0,4,0,1,-1,76,80,97,100,60,122.32,59,-9.00,-7.00,-1080.00
2024-06-07 00:31:34.185730,0,0,4,0,1,-2,76,80,96,110,60,122.22,59,-11.00,-10.00,-1009.00
2024-06-07 00:31:34.235668,0,0,4,0,0,-2,76,80,95,110,60,122.25,60,-36.00,-24.00,-992.00
2024-06-07 00:31:34.390599,0,0,4,0,0,-1,76,80,93,110,60,122.20,60,-19.00,-9.00,-975.00
2024-06-07 00:31:34.390650,-1,-2,4,0,1,-1,76,80,92,110,60,122.16,60,-21.00,-11.00,-1033.00
2024-06-07 00:31:34.491242,-1,-2,4,0,0,-1,76,80,91,110,60,122.12,60,-12.00,-7.00,-1004.00
2024-06-07 00:31:34.593561,-1,-1,4,0,0,-1,76,80,90,110,60,122.14,60,25.00,-28.00,-1019.00
2024-06-07 00:31:34.697852,-1,-1,4,0,0,-1,76,80,90,110,60,122.14,60,-25.00,-23.00,-1005.00
2024-06-07 00:31:34.797688,-1,-1,4,0,0,-1,76,80,89,120,60,122.15,60,38.00,-33.00,-983.00
2024-06-07 00:31:34.902567,-1,0,4,0,0,-1,76,79,89,120,60,122.09,60,-4.00,-44.00,-1043.00
2024-06-07 00:31:35.001637,-1,0,4,0,0,-1,76,79,88,120,60,122.16,60,-18.00,-4.00,-1044.00
2024-06-07 00:31:35.107307,-1,0,4,0,0,-1,76,79,88,120,60,122.13,60,30.00,-49.00,-1007.00
2024-06-07 00:31:35.205616,-1,0,4,0,0,-2,76,79,88,120,60,122.11,61,-23.00,-6.00,-1039.00
2024-06-07 00:31:35.312115,-1,-1,4,0,0,-2,76,79,88,120,60,122.06,61,-20.00,2.00,-1048.00
2024-06-07 00:31:35.409522,-1,-1,4,0,0,-2,76,79,87,130,60,122.12,61,-44.00,6.00,-1003.00
2024-06-07 00:31:35.516941,-1,-1,4,0,0,-2,76,79,88,130,60,122.11,61,2.00,-26.00,-985.00
2024-06-07 00:31:35.614139,-1,-1,4,0,0,0,76,79,87,120,60,122.10,61,-25.00,22.00,-931.00
2024-06-07 00:31:35.715536,-1,-1,4,0,0,0,76,79,86,120,59,122.12,61,-20.00,14.00,-986.00
2024-06-07 00:31:35.824140,-1,-1,4,0,0,0,76,79,87,120,59,122.10,61,-21.00,2.00,-1002.00
2024-06-07 00:31:35.919527,0,-1,4,0,0,0,77,80,86,120,59,122.17,61,-32.00,-3.00,-1055.00
2024-06-07 00:31:36.021684,0,-1,4,0,0,0,77,80,87,120,59,122.22,61,30.00,-12.00,-980.00
2024-06-07 00:31:36.131311,0,-1,4,0,0,0,77,80,87,120,59,122.11,61,18.00,-19.00,-1037.00
2024-06-07 00:31:36.225545,0,0,4,0,0,0,77,80,87,120,59,122.13,62,-31.00,5.00,-1012.00
2024-06-07 00:31:36.336138,0,0,4,0,0,0,77,80,88,120,59,122.10,62,0.00,-7.00,-976.00
2024-06-07 00:31:36.430974,0,0,4,0,0,0,77,80,89,120,59,122.10,62,-1.00,8.00,-985.00
2024-06-07 00:31:36.532920,0,0,4,0,0,0,77,80,91,120,59,122.18,62,-17.00,2.00,-981.00
2024-06-07 00:31:36.635212,0,0,4,0,0,0,77,80,92,120,59,122.19,62,-49.00,4.00,-1006.00
2024-06-07 00:31:36.745879,0,0,4,0,0,0,77,80,92,130,59,122.19,62,0.00,-27.00,-1024.00
2024-06-07 00:31:36.839018,0,0,4,0,0,0,77,80,94,130,59,122.18,62,-17.00,14.00,-952.00
2024-06-07 00:31:36.950738,0,0,4,0,0,0,77,79,94,130,59,122.18,62,-48.00,18.00,-983.00
2024-06-07 00:31:37.118705,0,0,4,0,0,0,77,79,95,130,59,122.19,62,33.00,-15.00,-967.00
2024-06-07 00:31:37.144647,0,0,4,0,0,0,77,79,95,130,59,122.19,63,-56.00,13.00,-1018.00
2024-06-07 00:31:37.258070,0,0,4,0,0,0,77,79,96,130,59,122.23,63,26.00,-20.00,-1019.00
2024-06-07 00:31:37.373239,0,0,4,0,0,0,77,79,96,130,59,122.19,63,-40.00,-6.00,-985.00
2024-06-07 00:31:37.481565,0,0,4,0,0,0,77,79,96,130,59,122.21,63,14.00,-10.00,-1020.00
2024-06-07 00:31:37.552678,0,0,4,0,0,0,77,79,96,130,59,122.23,63,-53.00,14.00,-973.00
2024-06-07 00:31:37.654502,0,0,4,0,0,0,77,79,96,130,59,122.26,63,18.00,-24.00,-1025.00
2024-06-07 00:31:37.813983,0,0,4,0,0,0,77,79,96,130,59,122.22,63,2.00,0.00,-929.00
2024-06-07 00:31:37.869272,0,0,4,0,0,0,77,79,96,130,59,122.16,63,-34.00,4.00,-1031.00
2024-06-07 00:31:37.960907,0,0,4,0,0,0,77,79,97,130,59,122.21,63,7.00,-30.00,-1024.00
2024-06-07 00:31:38.111442,0,0,4,0,0,0,77,79,96,130,59,122.18,63,-4.00,-9.00,-958.00
2024-06-07 00:31:38.172334,0,0,4,0,0,0,77,79,96,130,59,122.21,64,-28.00,13.00,-1007.00
2024-06-07 00:31:38.317245,0,0,4,0,0,0,77,79,96,130,59,122.21,64,-16.00,-8.00,-1011.00
2024-06-07 00:31:38.317444,0,0,4,0,0,0,77,79,97,130,59,122.24,64,-23.00,-10.00,-1012.00
2024-06-07 00:31:38.459278,0,0,4,0,0,0,77,79,96,130,59,122.18,64,36.00,-18.00,-1005.00
2024-06-07 00:31:38.602571,0,0,4,0,0,0,77,79,96,130,59,122.31,64,-31.00,21.00,-1013.00
2024-06-07 00:31:38.623456,0,0,4,0,0,0,77,79,97,130,59,122.24,64,-5.00,5.00,-988.00
2024-06-07 00:31:38.745818,0,0,4,0,0,0,77,79,97,130,59,122.25,64,-41.00,15.00,-1022.00
2024-06-07 00:31:38.907241,0,0,4,0,0,0,77,79,97,130,59,122.26,64,21.00,-29.00,-992.00
2024-06-07 00:31:38.930566,0,0,4,0,0,0,76,80,96,130,59,122.27,64,0.00,7.00,-999.00
2024-06-07 00:31:39.061204,0,0,4,0,0,0,76,80,96,130,59,122.22,64,-5.00,-7.00,-990.00
2024-06-07 00:31:39.136276,0,0,4,0,0,0,76,80,96,130,59,122.22,65,13.00,-7.00,-960.00
2024-06-07 00:31:39.235193,0,0,4,0,0,0,76,80,96,130,59,122.25,65,-7.00,-17.00,-961.00
2024-06-07 00:31:39.340561,0,0,4,0,0,0,76,80,96,130,59,122.22,65,-20.00,-19.00,-996.00
2024-06-07 00:31:39.439187,0,0,4,0,0,0,76,80,95,130,59,122.26,65,2.00,-71.00,-1284.00
