TS,pitch,roll,yaw,vgx,vgy,vgz,templ,temph,tof,h,bat,baro,time,agx,agy,agz
2024-06-07 00:32:14.427510,0,0,-3,0,0,0,80,82,10,0,56,121.27,82,-3.00,15.00,-1000.00
2024-06-07 00:32:14.474830,0,0,-3,0,0,0,80,82,10,0,56,121.29,82,-4.00,18.00,-999.00
2024-06-07 00:32:14.632091,0,0,-3,0,0,0,80,82,10,0,56,121.32,82,-3.00,16.00,-1001.00
2024-06-07 00:32:14.632282,0,0,-3,0,0,0,80,82,10,0,56,121.31,82,-4.00,15.00,-998.00
2024-06-07 00:32:14.729239,0,0,-3,0,0,0,80,82,10,0,56,121.29,82,-4.00,15.00,-997.00
2024-06-07 00:32:14.836797,0,0,-3,0,0,0,80,82,10,0,56,121.32,82,-4.00,16.00,-1000.00
2024-06-07 00:32:14.933225,0,0,-3,0,0,0,80,82,10,0,56,121.28,82,-5.00,15.00,-1000.00
2024-06-07 00:32:15.041552,0,0,-3,0,0,0,80,82,10,0,56,121.25,82,-5.00,13.00,-999.00
2024-06-07 00:32:15.137279,0,0,-3,0,0,0,80,82,10,0,56,121.29,82,-4.00,14.00,-1000.00
2024-06-07 00:32:15.246707,0,0,-3,0,0,0,80,82,10,0,56,121.30,82,-4.00,14.00,-999.00
2024-06-07 00:32:15.341130,0,0,-3,0,0,0,80,82,10,0,56,121.34,82,-4.00,15.00,-1001.00
2024-06-07 00:32:15.451204,0,0,-3,0,0,0,80,82,10,0,56,121.31,82,-4.00,15.00,-998.00
2024-06-07 00:32:15.545118,0,0,-3,0,0,0,80,82,10,0,56,121.25,82,-4.00,14.00,-999.00
2024-06-07 00:32:15.655974,0,0,-3,0,0,0,80,82,10,0,56,121.32,82,-5.00,14.00,-998.00
2024-06-07 00:32:15.749041,0,0,-3,0,0,0,80,82,10,0,56,121.27,82,-5.00,13.00,-997.00
2024-06-07 00:32:15.860842,0,0,-3,0,0,0,80,82,10,0,56,121.30,82,-5.00,16.00,-999.00
2024-06-07 00:32:15.953293,0,0,-3,0,0,0,80,82,10,0,56,121.27,82,-4.00,14.00,-1001.00
2024-06-07 00:32:16.065591,0,0,-3,0,0,0,80,82,10,0,56,121.26,82,-4.00,14.00,-999.00
2024-06-07 00:32:16.157243,0,0,-3,0,0,0,80,82,10,0,56,121.23,82,-5.00,15.00,-998.00
2024-06-07 00:32:16.270317,0,0,-3,0,0,0,80,82,10,0,56,121.27,82,-5.00,13.00,-1000.00
2024-06-07 00:32:16.361076,0,0,-3,0,0,0,80,82,10,0,56,121.22,82,-5.00,11.00,-1001.00
2024-06-07 00:32:16.475160,0,0,-3,0,0,0,80,82,10,0,56,121.27,82,-4.00,15.00,-999.00
2024-06-07 00:32:16.565204,0,0,-3,0,0,0,80,82,10,0,56,121.25,82,-5.00,15.00,-1001.00
2024-06-07 00:32:16.680193,0,0,-3,0,0,0,80,82,10,0,56,121.25,82,-4.00,15.00,-999.00
2024-06-07 00:32:16.769115,0,0,-3,0,0,0,80,82,10,0,56,121.27,82,-3.00,15.00,-999.00
2024-06-07 00:32:16.884733,0,0,-3,0,0,0,80,82,10,0,56,121.29,82,-4.00,15.00,-999.00
2024-06-07 00:32:16.973976,0,0,-3,0,0,0,80,82,10,0,56,121.27,82,-5.00,16.00,-1001.00
2024-06-07 00:32:17.074982,0,0,-3,0,0,0,80,82,10,0,56,121.30,82,-5.00,16.00,-1000.00
2024-06-07 00:32:17.177029,0,0,-3,0,0,0,80,83,10,0,56,121.22,82,-4.00,14.00,-996.00
2024-06-07 00:32:17.294237,0,0,-3,0,0,0,80,83,10,0,56,121.25,82,-5.00,17.00,-1001.00
2024-06-07 00:32:17.380980,0,0,-3,0,0,0,80,83,10,0,56,121.32,82,-5.00,14.00,-998.00
2024-06-07 00:32:17.483011,0,0,-3,0,0,0,80,83,10,0,56,121.27,82,-3.00,15.00,-1003.00
2024-06-07 00:32:17.601278,0,0,-3,0,0,0,80,83,10,0,56,121.27,82,-4.00,15.00,-1002.00
2024-06-07 00:32:17.686963,0,0,-3,0,0,0,80,83,10,0,56,121.27,82,-11.00,16.00,-1002.00
2024-06-07 00:32:17.789768,0,0,-3,0,0,0,80,83,10,0,56,121.27,82,8.00,-10.00,-1007.00
2024-06-07 00:32:17.908536,0,0,-2,0,0,0,80,83,10,0,56,121.27,82,2.00,-18.00,-1033.00
2024-06-07 00:32:17.942881,0,0,0,0,0,0,80,83,10,0,56,121.27,82,16.00,20.00,-986.00
2024-06-07 00:32:18.044824,0,0,0,0,0,0,80,83,10,0,56,121.27,82,18.00,-7.00,-1057.00
2024-06-07 00:32:18.217421,0,0,1,0,0,0,80,82,10,0,56,121.27,82,-28.00,-9.00,-1139.00
2024-06-07 00:32:18.248915,0,0,1,0,0,-2,80,82,10,0,56,121.27,82,-38.00,-12.00,-1366.00
2024-06-07 00:32:18.420509,0,2,1,0,0,-5,80,82,14,0,56,121.27,82,19.00,4.00,-1208.00
2024-06-07 00:32:18.453007,0,1,1,0,0,-6,80,82,22,0,56,121.55,82,10.00,-15.00,-1115.00
2024-06-07 00:32:18.625292,0,0,1,0,0,-7,80,82,31,0,56,121.65,83,20.00,8.00,-999.00
2024-06-07 00:32:18.656754,0,0,1,0,0,-7,80,82,38,0,56,121.71,83,-25.00,-14.00,-1017.00
2024-06-07 00:32:18.758826,0,0,1,0,0,-6,80,82,44,10,56,121.79,83,-28.00,6.00,-960.00
2024-06-07 00:32:18.932505,0,0,1,0,0,-6,80,82,53,10,56,121.88,83,-57.00,40.00,-963.00
2024-06-07 00:32:18.962753,0,0,1,0,0,-5,80,82,62,20,56,121.97,83,0.00,-6.00,-885.00
2024-06-07 00:32:19.137239,-1,0,1,0,0,-4,80,82,69,20,56,122.07,83,38.00,-29.00,-933.00
2024-06-07 00:32:19.166821,0,0,1,0,0,-3,80,83,76,30,56,122.14,83,-69.00,12.00,-934.00
2024-06-07 00:32:19.342561,0,0,1,0,0,-2,80,83,81,30,56,122.25,83,-39.00,11.00,-873.00
2024-06-07 00:32:19.370772,-1,0,1,0,0,-1,80,83,86,30,56,122.22,83,-26.00,-4.00,-834.00
2024-06-07 00:32:19.546840,-1,0,1,0,0,-1,80,83,89,40,56,122.28,83,12.00,-14.00,-900.00
2024-06-07 00:32:19.578019,-1,0,1,0,0,0,80,83,92,40,56,122.31,84,9.00,-24.00,-943.00
2024-06-07 00:32:19.676697,0,0,1,0,0,0,80,83,93,40,56,122.27,84,-17.00,10.00,-930.00
2024-06-07 00:32:19.778698,0,0,1,0,0,0,80,83,95,40,56,122.30,84,34.00,-11.00,-993.00
2024-06-07 00:32:19.956426,0,0,1,0,0,0,80,83,96,40,56,122.36,84,-8.00,-26.00,-961.00
2024-06-07 00:32:19.982664,0,0,1,0,0,1,80,83,96,40,56,122.37,84,-54.00,4.00,-1007.00
2024-06-07 00:32:20.161210,0,0,1,0,0,1,80,83,96,40,56,122.32,84,11.00,-20.00,-1056.00
2024-06-07 00:32:20.186728,0,0,1,0,0,1,80,83,96,40,56,122.37,84,-14.00,-23.00,-983.00
2024-06-07 00:32:20.365962,0,0,1,0,0,1,80,83,96,50,56,122.33,84,-22.00,-4.00,-971.00
2024-06-07 00:32:20.390572,0,0,1,0,0,1,80,83,96,50,56,122.33,84,-11.00,-9.00,-983.00
2024-06-07 00:32:20.570836,0,0,1,0,0,1,80,83,96,50,56,122.33,84,2.00,-19.00,-982.00
2024-06-07 00:32:20.594589,0,0,1,0,0,1,80,83,96,50,56,122.31,85,-41.00,0.00,-943.00
2024-06-07 00:32:20.734529,-1,0,1,0,0,1,80,83,95,50,56,122.28,85,0.00,-5.00,-948.00
2024-06-07 00:32:20.798610,-1,0,1,0,0,1,80,83,94,50,56,122.24,85,-30.00,-3.00,-973.00
2024-06-07 00:32:20.980373,0,0,1,0,0,1,80,83,93,50,56,122.30,85,-21.00,-16.00,-1020.00
2024-06-07 00:32:21.002593,0,0,1,0,0,1,80,83,93,50,56,122.34,85,-30.00,12.00,-948.00
2024-06-07 00:32:21.053768,0,0,1,0,0,1,80,83,92,40,56,122.21,85,-16.00,-17.00,-992.00
2024-06-07 00:32:21.206563,0,0,1,0,0,1,80,82,91,40,56,122.29,85,-39.00,14.00,-972.00
2024-06-07 00:32:21.389924,0,0,1,0,0,1,80,82,89,40,56,122.25,85,-22.00,-4.00,-1025.00
2024-06-07 00:32:21.410433,0,0,1,0,0,1,80,82,88,40,56,122.23,85,-42.00,18.00,-926.00
2024-06-07 00:32:21.594716,-1,0,1,0,0,1,80,82,87,40,56,122.19,85,-65.00,13.00,-981.00
2024-06-07 00:32:21.614500,-1,0,1,0,0,0,80,82,85,40,56,122.20,86,21.00,-23.00,-999.00
2024-06-07 00:32:21.716542,-1,0,1,0,0,1,80,82,83,40,56,122.17,86,-31.00,-4.00,-990.00
2024-06-07 00:32:21.767511,0,0,1,0,0,1,80,82,82,40,56,122.17,86,-7.00,-3.00,-986.00
2024-06-07 00:32:21.901934,0,0,1,0,0,0,80,82,80,40,56,122.16,86,-50.00,14.00,-974.00
2024-06-07 00:32:21.972437,0,0,1,0,0,0,80,82,79,40,56,122.18,86,-36.00,-1.00,-1042.00
2024-06-07 00:32:22.093822,0,0,1,0,0,0,80,82,77,40,56,122.08,86,1.00,-15.00,-1041.00
2024-06-07 00:32:22.176485,0,0,1,0,0,0,81,82,75,30,56,122.06,86,-41.00,-4.00,-999.00
2024-06-07 00:32:22.414397,0,0,1,0,0,0,81,82,74,30,56,122.08,86,-24.00,8.00,-1018.00
2024-06-07 00:32:22.483564,0,0,1,0,0,0,81,82,73,30,56,122.05,86,-22.00,-9.00,-1046.00
2024-06-07 00:32:22.483603,0,0,1,0,0,0,81,82,72,30,56,122.03,86,-32.00,5.00,-1002.00
2024-06-07 00:32:22.721489,0,0,1,0,0,0,81,82,72,30,56,121.99,87,37.00,5.00,-1005.00
2024-06-07 00:32:22.835272,0,0,1,0,0,0,81,82,72,30,56,122.01,87,1.00,-10.00,-991.00
2024-06-07 00:32:22.836895,0,0,1,0,0,0,81,82,72,30,56,121.99,87,-34.00,-13.00,-1038.00
2024-06-07 00:32:22.894479,0,0,1,0,0,0,81,82,72,30,56,122.04,87,6.00,-20.00,-1031.00
2024-06-07 00:32:22.992515,-1,0,1,0,0,0,81,82,72,30,56,122.09,87,-54.00,10.00,-976.00
2024-06-07 00:32:23.141582,-1,0,1,0,0,0,81,82,72,30,56,122.07,87,-15.00,-3.00,-982.00
2024-06-07 00:32:23.284963,-1,0,1,0,0,0,80,82,72,30,56,122.03,87,-55.00,19.00,-963.00
2024-06-07 00:32:23.298379,0,0,1,0,0,0,80,82,71,30,56,122.07,87,-16.00,-15.00,-953.00
2024-06-07 00:32:23.448778,0,0,1,0,0,0,80,82,71,30,56,122.10,87,-37.00,17.00,-1001.00
2024-06-07 00:32:23.592183,0,0,1,0,0,0,80,82,70,30,56,122.07,87,1.00,-12.00,-1022.00
2024-06-07 00:32:23.604381,0,0,1,0,0,0,80,82,70,30,56,122.11,88,9.00,-6.00,-1042.00
2024-06-07 00:32:23.755990,0,0,1,0,0,0,80,82,70,30,56,122.06,88,-10.00,13.00,-1005.00
2024-06-07 00:32:23.899338,0,0,1,0,0,0,80,82,70,30,56,122.14,88,-16.00,-11.00,-989.00
2024-06-07 00:32:23.911202,0,0,1,0,0,0,80,82,70,30,56,122.02,88,-13.00,5.00,-1029.00
2024-06-07 00:32:24.063295,0,0,1,0,0,0,80,82,71,30,56,122.06,88,7.00,-36.00,-1024.00
2024-06-07 00:32:24.206474,0,0,1,0,0,0,80,82,71,30,56,122.10,88,0.00,4.00,-963.00
2024-06-07 00:32:24.218740,0,0,1,0,0,0,80,82,71,30,56,122.09,88,-24.00,7.00,-990.00
2024-06-07 00:32:24.370340,0,0,1,0,0,0,80,82,72,30,56,122.05,88,-68.00,11.00,-1049.00
2024-06-07 00:32:24.513726,0,0,1,0,0,0,80,82,73,30,56,122.12,88,-42.00,12.00,-1029.00
2024-06-07 00:32:24.523443,0,0,1,0,0,0,80,82,74,30,56,122.11,88,-45.00,9.00,-980.00
2024-06-07 00:32:24.679871,0,0,1,0,0,0,80,82,74,30,56,122.12,89,12.00,-5.00,-1003.00
2024-06-07 00:32:24.832026,0,0,1,0,0,0,80,82,75,30,56,122.07,89,-42.00,-1.00,-1034.00
2024-06-07 00:32:24.832354,0,0,1,0,0,0,80,82,77,30,56,122.09,89,-42.00,10.00,-988.00
2024-06-07 00:32:24.941167,0,0,1,0,0,0,80,82,78,30,56,122.09,89,-3.00,-4.00,-1006.00
2024-06-07 00:32:25.033296,0,0,1,0,0,0,80,82,79,30,56,122.10,89,-58.00,-8.00,-1084.00
2024-06-07 00:32:25.178659,0,0,1,0,0,0,80,82,80,30,56,122.19,89,-27.00,2.00,-1004.00
2024-06-07 00:32:25.237324,0,0,1,0,0,0,80,82,81,30,56,122.18,89,-48.00,10.00,-992.00
2024-06-07 00:32:25.383446,0,0,1,0,0,0,80,82,82,30,56,122.19,89,-34.00,8.00,-1026.00
2024-06-07 00:32:25.441368,0,0,1,0,0,0,80,82,82,40,56,122.13,89,-24.00,7.00,-992.00
2024-06-07 00:32:25.492256,0,0,1,0,0,0,80,82,83,40,56,122.13,89,-25.00,10.00,-959.00
2024-06-07 00:32:25.690646,0,0,1,0,0,0,80,82,83,40,56,122.18,90,-54.00,4.00,-974.00
2024-06-07 00:32:25.696186,0,0,1,0,0,0,80,82,84,40,56,122.18,90,35.00,-27.00,-1003.00
2024-06-07 00:32:25.798271,0,0,1,0,0,0,80,82,84,40,56,122.18,90,-36.00,0.00,-951.00
2024-06-07 00:32:25.997851,0,0,1,0,0,0,80,82,84,40,56,122.13,90,15.00,-23.00,-1006.00
2024-06-07 00:32:26.002682,0,0,1,0,0,0,80,82,83,40,56,122.19,90,2.00,9.00,-910.00
2024-06-07 00:32:26.202663,0,0,1,0,0,0,80,82,83,40,56,122.17,90,-54.00,1.00,-1020.00
2024-06-07 00:32:26.206107,0,0,1,0,0,0,80,82,82,40,56,122.18,90,-5.00,-20.00,-1018.00
2024-06-07 00:32:26.308415,0,0,1,0,0,0,80,82,82,40,56,122.14,90,0.00,-16.00,-979.00
2024-06-07 00:32:26.410314,0,0,1,0,0,0,80,82,81,40,56,122.13,90,52.00,-24.00,-1029.00
2024-06-07 00:32:26.512441,0,0,1,0,0,0,80,82,81,40,56,122.16,91,16.00,-8.00,-918.00
2024-06-07 00:32:26.614260,0,0,1,0,0,0,80,82,81,40,56,122.08,91,-4.00,-28.00,-1070.00
2024-06-07 00:32:26.817020,0,0,1,0,0,0,80,82,80,40,56,122.10,91,8.00,-23.00,-1064.00
2024-06-07 00:32:26.818185,0,0,1,0,0,0,80,82,80,40,56,122.12,91,14.00,-3.00,-980.00
2024-06-07 00:32:27.024553,0,0,1,0,0,0,80,82,80,40,56,122.15,91,-31.00,-6.00,-988.00
2024-06-07 00:32:27.028318,0,0,1,0,0,0,80,82,79,40,56,122.10,91,-14.00,-5.00,-1011.00
2024-06-07 00:32:27.124268,0,0,1,0,0,0,80,82,80,40,56,122.09,91,12.00,3.00,-1041.00
2024-06-07 00:32:27.226633,0,0,1,0,0,0,79,82,80,40,56,122.18,91,22.00,-6.00,-1007.00
2024-06-07 00:32:27.328995,0,0,1,0,0,0,79,82,80,40,56,122.17,91,14.00,-6.00,-966.00
2024-06-07 00:32:27.431473,0,0,1,0,0,0,79,82,80,40,56,122.13,91,-5.00,-21.00,-996.00
2024-06-07 00:32:27.534245,0,0,1,0,0,0,79,82,80,40,56,122.22,92,-32.00,19.00,-1042.00
2024-06-07 00:32:27.634176,0,0,1,0,0,0,79,82,81,40,56,122.13,92,-17.00,-3.00,-1031.00
2024-06-07 00:32:27.736296,0,0,1,0,0,0,79,82,81,40,56,122.10,92,3.00,1.00,-999.00
2024-06-07 00:32:27.841027,0,0,1,0,0,0,79,82,82,40,56,122.16,92,-6.00,-21.00,-964.00
2024-06-07 00:32:27.940214,0,0,1,0,0,0,79,82,82,40,56,122.21,92,-34.00,-6.00,-969.00
2024-06-07 00:32:28.042007,0,0,1,0,0,0,79,82,83,40,56,122.15,92,-22.00,-10.00,-1003.00
2024-06-07 00:32:28.148120,0,0,1,0,0,0,79,82,84,40,56,122.20,92,-50.00,18.00,-1004.00
2024-06-07 00:32:28.245960,0,0,1,0,0,0,79,82,84,40,56,122.13,92,-23.00,6.00,-957.00
2024-06-07 00:32:28.352859,0,0,1,0,0,0,79,82,86,40,56,122.13,92,20.00,2.00,-1026.00
2024-06-07 00:32:28.450064,0,0,1,0,0,0,79,82,87,40,56,122.24,92,-38.00,-32.00,-1130.00
2024-06-07 00:32:28.557615,0,0,1,0,0,-1,79,82,89,40,56,122.26,93,-2.00,-9.00,-1091.00
2024-06-07 00:32:28.653951,0,0,1,0,0,-2,79,82,92,40,56,122.25,93,0.00,-40.00,-1057.00
2024-06-07 00:32:28.762626,0,0,1,0,0,-3,79,82,96,50,56,122.26,93,-48.00,10.00,-1159.00
2024-06-07 00:32:28.859002,0,0,1,0,0,-4,79,82,101,50,56,122.30,93,-25.00,-7.00,-990.00
2024-06-07 00:32:28.967223,0,0,1,0,0,-5,79,82,107,60,56,122.34,93,3.00,0.00,-1005.00
2024-06-07 00:32:29.062927,0,0,1,0,0,-5,79,82,111,60,56,122.35,93,16.00,-9.00,-1051.00
2024-06-07 00:32:29.164948,0,0,1,0,0,-5,79,82,118,70,56,122.45,93,-61.00,14.00,-1029.00
2024-06-07 00:32:29.276567,0,0,1,0,0,-5,80,82,123,70,56,122.49,93,-1.00,-8.00,-1047.00
2024-06-07 00:32:29.368891,0,0,1,0,0,-5,80,82,130,80,56,122.53,93,-25.00,-11.00,-1003.00
2024-06-07 00:32:29.479194,0,0,1,0,0,-5,80,82,136,90,56,122.55,93,-8.00,-8.00,-975.00
2024-06-07 00:32:29.572898,0,0,1,0,0,-5,80,82,142,90,56,122.64,94,-5.00,-15.00,-951.00
2024-06-07 00:32:29.684018,0,0,1,0,0,-5,80,82,147,100,56,122.65,94,3.00,-12.00,-910.00
2024-06-07 00:32:29.777058,0,0,1,0,0,-5,80,82,152,100,56,122.74,94,-18.00,1.00,-941.00
2024-06-07 00:32:29.888899,0,0,1,0,0,-4,80,82,157,110,56,122.76,94,6.00,-8.00,-969.00
2024-06-07 00:32:29.980806,0,0,1,0,0,-4,80,82,161,110,56,122.80,94,-8.00,-17.00,-998.00
2024-06-07 00:32:30.032563,0,0,1,0,0,-3,80,82,165,120,56,122.82,94,21.00,-10.00,-968.00
2024-06-07 00:32:30.196343,0,0,1,0,0,-3,80,82,169,120,56,122.94,94,27.00,-28.00,-891.00
2024-06-07 00:32:30.235793,0,0,1,0,0,-2,79,82,172,120,56,123.00,94,-18.00,2.00,-927.00
2024-06-07 00:32:30.401529,0,0,1,0,0,-2,79,82,175,130,56,123.02,94,10.00,-12.00,-984.00
2024-06-07 00:32:30.439824,0,0,1,0,0,-2,79,82,176,130,56,123.00,94,-2.00,-1.00,-1014.00
2024-06-07 00:32:30.605599,0,0,1,0,0,-1,79,82,178,130,56,123.02,95,-22.00,1.00,-998.00
2024-06-07 00:32:30.644017,0,0,1,0,0,-1,79,82,180,130,56,123.01,95,4.00,1.00,-1034.00
2024-06-07 00:32:30.746069,0,0,1,0,0,-1,79,82,182,130,56,122.97,95,-16.00,7.00,-1033.00
2024-06-07 00:32:30.913206,0,0,1,0,0,0,79,82,182,140,56,123.01,95,21.00,-5.00,-919.00
2024-06-07 00:32:30.949941,0,0,1,0,0,0,79,82,181,140,56,123.03,95,2.00,-23.00,-1006.00
2024-06-07 00:32:31.117629,0,0,1,0,0,0,79,82,182,140,56,122.97,95,-19.00,14.00,-981.00
2024-06-07 00:32:31.154189,0,0,1,0,0,0,79,82,181,140,56,123.04,95,7.00,-12.00,-994.00
2024-06-07 00:32:31.322517,0,0,1,0,0,0,79,81,182,140,56,123.02,95,-8.00,-15.00,-1011.00
2024-06-07 00:32:31.357954,0,0,1,0,0,0,79,81,182,140,56,122.99,95,-37.00,3.00,-1021.00
2024-06-07 00:32:31.532809,0,0,1,0,0,0,79,81,182,140,56,122.99,95,-33.00,7.00,-996.00
2024-06-07 00:32:31.563582,0,0,1,0,0,0,79,81,182,140,56,123.04,96,24.00,-7.00,-1045.00
2024-06-07 00:32:31.663783,0,0,1,0,0,0,79,81,180,140,56,123.01,96,53.00,-16.00,-968.00
2024-06-07 00:32:31.834816,0,0,1,0,0,0,79,81,181,140,56,123.00,96,-43.00,5.00,-1007.00
2024-06-07 00:32:31.867819,0,0,1,0,0,0,79,81,179,130,56,122.94,96,-4.00,5.00,-943.00
2024-06-07 00:32:32.039539,0,0,1,0,0,0,79,81,180,130,56,122.94,96,-18.00,-9.00,-1037.00
2024-06-07 00:32:32.072524,0,0,1,0,0,0,79,81,179,130,56,122.95,96,33.00,-5.00,-976.00
2024-06-07 00:32:32.244436,0,0,1,0,0,0,79,81,179,130,56,122.92,96,-31.00,7.00,-1028.00
2024-06-07 00:32:32.276061,0,0,1,0,0,0,79,81,179,130,56,122.99,96,29.00,-13.00,-973.00
2024-06-07 00:32:32.450765,0,0,1,0,0,0,79,81,179,130,56,123.02,96,-13.00,-9.00,-1035.00
2024-06-07 00:32:32.479696,0,0,1,0,0,0,79,81,179,130,56,122.95,96,-2.00,-2.00,-1035.00
2024-06-07 00:32:32.647580,0,0,1,0,0,0,79,81,179,140,56,122.95,97,-2.00,-2.00,-973.00
2024-06-07 00:32:32.683926,0,0,1,0,0,0,79,81,179,140,56,123.00,97,-4.00,-1.00,-1050.00
2024-06-07 00:32:32.785539,0,0,1,0,0,0,79,81,180,130,56,122.88,97,21.00,-18.00,-1027.00
2024-06-07 00:32:32.887815,0,0,1,0,0,0,79,81,178,130,56,122.96,97,20.00,-14.00,-966.00
2024-06-07 00:32:33.022540,0,0,1,0,0,0,79,81,178,130,56,122.95,97,-20.00,17.00,-934.00
2024-06-07 00:32:33.091672,0,0,1,0,0,1,79,81,176,130,56,122.84,97,-27.00,1.00,-914.00
2024-06-07 00:32:33.267808,0,0,1,0,0,1,79,81,173,130,56,122.85,97,7.00,-1.00,-956.00
2024-06-07 00:32:33.296763,0,0,1,0,0,2,78,81,174,130,56,122.88,97,-17.00,13.00,-963.00
2024-06-07 00:32:33.472598,0,0,1,0,0,2,78,81,170,130,56,122.89,97,14.00,2.00,-983.00
2024-06-07 00:32:33.501614,0,0,1,0,0,2,78,81,167,120,56,122.83,97,12.00,-10.00,-974.00
2024-06-07 00:32:33.550505,0,0,1,0,0,3,78,81,165,120,56,122.74,98,-15.00,12.00,-1033.00
2024-06-07 00:32:33.652508,0,0,1,0,0,2,78,81,162,120,56,122.76,98,45.00,-19.00,-990.00
2024-06-07 00:32:33.755111,0,0,1,0,0,2,78,81,159,120,56,122.77,98,-38.00,-8.00,-1011.00
2024-06-07 00:32:33.882528,0,0,1,0,0,2,78,81,156,110,56,122.71,98,2.00,1.00,-1048.00
2024-06-07 00:32:33.958595,0,0,1,0,0,2,78,81,154,110,56,122.69,98,-18.00,-6.00,-1031.00
2024-06-07 00:32:34.086982,0,0,1,0,0,2,78,81,151,110,56,122.71,98,13.00,0.00,-989.00
2024-06-07 00:32:34.163484,0,0,1,0,0,2,78,81,147,110,56,122.63,98,-28.00,-5.00,-1006.00
2024-06-07 00:32:34.291764,0,0,1,0,0,2,79,81,145,100,56,122.65,98,-10.00,-19.00,-999.00
2024-06-07 00:32:34.367427,0,0,1,0,0,2,79,81,142,100,56,122.57,98,-1.00,-5.00,-1007.00
2024-06-07 00:32:34.496899,0,0,1,0,0,2,79,81,139,100,56,122.53,98,-13.00,-12.00,-1047.00
2024-06-07 00:32:34.571377,0,0,1,0,0,2,79,81,137,90,56,122.55,99,-38.00,1.00,-1005.00
2024-06-07 00:32:34.705816,0,0,1,0,0,1,79,81,135,90,56,122.49,99,0.00,-21.00,-1021.00
2024-06-07 00:32:34.779225,0,0,1,0,0,1,79,81,134,90,56,122.43,99,6.00,-44.00,-1057.00
2024-06-07 00:32:34.877528,0,0,1,0,0,1,79,81,132,90,56,122.48,99,-14.00,-9.00,-1052.00
2024-06-07 00:32:35.012854,0,0,1,0,0,1,79,81,130,90,56,122.42,99,-10.00,-5.00,-1021.00
2024-06-07 00:32:35.081568,0,0,1,0,0,0,79,81,129,90,56,122.44,99,24.00,-38.00,-1046.00
2024-06-07 00:32:35.213337,0,0,1,0,0,0,79,81,128,90,56,122.44,99,-11.00,-4.00,-1008.00
2024-06-07 00:32:35.285441,0,0,1,0,0,0,79,81,128,90,56,122.44,99,1.00,-4.00,-962.00
2024-06-07 00:32:35.418183,0,0,1,0,0,0,79,81,127,90,56,122.50,99,-3.00,-34.00,-1046.00
2024-06-07 00:32:35.489511,0,0,1,0,0,0,79,81,128,90,56,122.46,99,-24.00,14.00,-1015.00
2024-06-07 00:32:35.626392,0,0,1,0,0,0,79,81,127,90,56,122.43,100,-20.00,-4.00,-1009.00
2024-06-07 00:32:35.693432,0,0,1,0,0,0,79,81,128,90,56,122.43,100,-6.00,-1.00,-1000.00
2024-06-07 00:32:35.795485,0,0,1,0,0,0,79,81,127,90,56,122.43,100,29.00,-4.00,-982.00
2024-06-07 00:32:35.897607,0,0,1,0,0,0,79,81,127,90,56,122.38,100,-26.00,0.00,-1045.00
2024-06-07 00:32:36.032831,0,0,1,0,0,0,79,81,127,90,56,122.39,100,-41.00,17.00,-976.00
2024-06-07 00:32:36.104531,0,0,1,0,0,0,79,81,127,90,56,122.41,100,-44.00,-1.00,-1013.00
2024-06-07 00:32:36.204788,0,0,1,0,0,0,79,81,128,90,56,122.44,100,-30.00,13.00,-966.00
2024-06-07 00:32:36.306017,0,0,1,0,0,0,79,81,128,90,56,122.40,100,-21.00,-2.00,-1023.00
2024-06-07 00:32:36.407731,0,0,1,0,0,0,79,81,128,90,56,122.36,100,-51.00,15.00,-1015.00
2024-06-07 00:32:36.547689,0,0,1,0,0,0,79,81,128,90,56,122.38,100,13.00,10.00,-952.00
2024-06-07 00:32:36.611716,0,0,1,0,0,0,79,81,127,90,56,122.41,101,-15.00,-5.00,-993.00
2024-06-07 00:32:36.713809,0,0,1,0,0,0,79,81,128,90,56,122.39,101,-4.00,7.00,-1039.00
2024-06-07 00:32:36.820349,0,0,1,0,0,0,79,81,128,90,56,122.36,101,-30.00,19.00,-977.00
2024-06-07 00:32:36.917216,0,0,1,0,0,0,79,81,128,90,56,122.36,101,11.00,-1.00,-1012.00
2024-06-07 00:32:37.161684,0,0,1,0,0,0,79,81,128,90,56,122.38,101,-14.00,8.00,-1071.00
2024-06-07 00:32:37.276767,-6,0,1,0,0,0,79,81,130,80,56,122.40,101,-8.00,9.00,-1018.00
2024-06-07 00:32:37.278243,-8,0,1,1,0,0,79,81,129,80,56,122.44,101,4.00,0.00,-1051.00
2024-06-07 00:32:37.390417,-8,0,1,2,0,0,79,81,131,80,56,122.35,101,15.00,-24.00,-980.00
2024-06-07 00:32:37.439748,-8,0,1,4,0,0,79,81,129,80,56,122.40,101,-52.00,7.00,-983.00
2024-06-07 00:32:37.531772,-7,0,1,5,0,0,79,81,130,90,56,122.39,101,-40.00,-2.00,-994.00
2024-06-07 00:32:37.610642,-7,0,1,6,0,0,79,81,130,90,56,122.33,102,-53.00,7.00,-977.00
2024-06-07 00:32:37.711058,-6,0,1,6,0,0,79,81,128,90,56,122.30,102,-62.00,-4.00,-1000.00
2024-06-07 00:32:37.794743,-5,0,1,6,0,0,79,81,128,90,56,122.26,102,-57.00,-31.00,-1036.00
2024-06-07 00:32:38.007988,-4,0,1,7,0,0,79,81,128,90,56,122.32,102,-83.00,-11.00,-1037.00
2024-06-07 00:32:38.008219,-1,1,1,7,0,0,79,81,128,90,56,122.28,102,-25.00,-29.00,-991.00
2024-06-07 00:32:38.090456,1,2,1,6,0,0,79,81,128,90,56,122.30,102,-107.00,8.00,-1012.00
2024-06-07 00:32:38.212740,3,1,1,5,0,0,79,81,128,90,56,122.34,102,-43.00,-9.00,-945.00
2024-06-07 00:32:38.356111,2,1,1,4,0,0,78,81,127,80,56,122.29,102,-7.00,-38.00,-1005.00
2024-06-07 00:32:38.500825,1,1,1,3,0,0,78,81,127,80,56,122.38,102,1.00,-22.00,-1012.00
2024-06-07 00:32:38.500911,0,1,1,3,0,0,78,81,126,80,56,122.34,102,-63.00,4.00,-1055.00
2024-06-07 00:32:38.644439,0,1,1,3,0,0,78,81,126,80,56,122.31,103,-29.00,-24.00,-967.00
2024-06-07 00:32:38.808053,0,1,1,3,0,0,78,81,126,80,56,122.34,103,-23.00,-13.00,-1064.00
2024-06-07 00:32:38.809585,0,1,1,3,0,0,78,81,126,80,56,122.23,103,-31.00,-9.00,-960.00
2024-06-07 00:32:38.962270,0,0,1,3,0,0,78,81,127,80,56,122.37,103,-24.00,-23.00,-1008.00
2024-06-07 00:32:39.030886,0,0,1,2,0,0,78,81,127,80,56,122.38,103,-24.00,-16.00,-997.00
2024-06-07 00:32:39.111312,0,0,1,2,0,0,78,81,127,80,56,122.31,103,-19.00,-18.00,-955.00
2024-06-07 00:32:39.309176,2,0,1,2,0,0,78,81,127,80,56,122.35,103,-55.00,-6.00,-1011.00
2024-06-07 00:32:39.314325,4,0,1,1,0,0,79,82,128,80,56,122.27,103,-25.00,-15.00,-1018.00
2024-06-07 00:32:39.514135,2,0,1,0,0,0,79,82,127,80,56,122.32,103,3.00,-10.00,-948.00
2024-06-07 00:32:39.518037,0,0,1,0,0,0,79,82,127,80,56,122.34,103,-64.00,-5.00,-1021.00
2024-06-07 00:32:39.718853,0,0,1,0,0,0,79,82,127,80,56,122.41,104,8.00,-23.00,-1000.00
2024-06-07 00:32:39.722035,0,0,1,0,0,0,79,82,127,80,56,122.40,104,5.00,-11.00,-1041.00
2024-06-07 00:32:39.824095,0,0,1,0,0,0,79,82,126,80,56,122.32,104,-8.00,-9.00,-968.00
2024-06-07 00:32:39.926048,0,0,1,0,0,0,79,82,126,80,56,122.30,104,-17.00,-11.00,-1000.00
2024-06-07 00:32:40.039660,0,0,1,0,0,0,79,82,126,80,56,122.31,104,-31.00,-3.00,-1040.00
2024-06-07 00:32:40.129976,0,0,1,0,0,0,79,82,126,80,56,122.38,104,-16.00,-10.00,-1033.00
2024-06-07 00:32:40.333576,0,0,1,0,0,0,79,82,126,80,56,122.35,104,46.00,-15.00,-965.00
2024-06-07 00:32:40.333787,0,0,1,0,0,0,79,81,126,80,56,122.34,104,-27.00,11.00,-985.00
2024-06-07 00:32:40.540404,0,0,1,0,0,0,79,81,126,80,56,122.35,104,2.00,-3.00,-981.00
2024-06-07 00:32:40.540627,0,0,1,0,0,0,79,81,126,80,56,122.38,104,-24.00,3.00,-1018.00
2024-06-07 00:32:40.641914,0,0,1,0,0,0,79,81,126,80,56,122.40,105,-18.00,-17.00,-1026.00
2024-06-07 00:32:40.742512,0,0,1,0,0,0,79,81,126,80,56,122.37,105,18.00,-15.00,-1053.00
2024-06-07 00:32:40.795736,0,0,1,0,0,0,79,81,126,80,56,122.30,105,-34.00,-5.00,-997.00
2024-06-07 00:32:40.947581,0,0,1,0,0,0,79,81,126,80,56,122.24,105,15.00,-27.00,-987.00
2024-06-07 00:32:41.048407,0,0,1,0,0,0,79,81,127,80,56,122.31,105,2.00,-14.00,-998.00
2024-06-07 00:32:41.150033,0,0,1,0,0,0,79,81,127,80,56,122.32,105,23.00,-19.00,-1023.00
2024-06-07 00:32:41.254732,0,0,1,0,0,0,79,81,127,80,56,122.33,105,-41.00,-6.00,-1014.00
2024-06-07 00:32:41.303030,0,0,1,0,0,0,78,81,128,80,56,122.29,105,-6.00,-19.00,-1004.00
2024-06-07 00:32:41.459624,0,0,1,0,0,0,78,81,128,90,56,122.32,105,-39.00,14.00,-976.00
2024-06-07 00:32:41.511406,0,0,1,0,0,0,78,81,129,90,56,122.38,106,-16.00,-2.00,-987.00
2024-06-07 00:32:41.608806,0,0,1,0,0,0,78,81,129,90,56,122.32,106,2.00,-22.00,-1010.00
2024-06-07 00:32:41.767302,4,0,1,0,0,0,78,81,130,90,56,122.36,106,-17.00,16.00,-967.00
2024-06-07 00:32:41.812865,8,0,1,-1,0,0,78,81,131,90,56,122.37,106,-19.00,0.00,-999.00
2024-06-07 00:32:41.971610,8,0,1,-3,0,0,78,81,132,90,56,122.38,106,15.00,-4.00,-994.00
2024-06-07 00:32:42.016757,7,0,1,-4,0,0,78,81,133,90,56,122.36,106,-14.00,12.00,-1052.00
2024-06-07 00:32:42.176222,6,0,1,-5,0,0,78,81,133,90,56,122.40,106,28.00,5.00,-1022.00
2024-06-07 00:32:42.220770,6,0,1,-6,0,0,78,81,132,90,56,122.42,106,11.00,5.00,-980.00
2024-06-07 00:32:42.380999,5,0,1,-6,0,0,79,81,133,90,56,122.36,106,16.00,7.00,-998.00
2024-06-07 00:32:42.424696,4,0,1,-7,0,0,79,81,134,90,56,122.36,106,32.00,-17.00,-1009.00
2024-06-07 00:32:42.585819,3,0,1,-7,0,0,79,81,134,90,56,122.38,107,31.00,-7.00,-1055.00
2024-06-07 00:32:42.629101,0,0,1,-7,0,0,79,81,135,90,56,122.35,107,58.00,-18.00,-972.00
2024-06-07 00:32:42.730710,-2,0,1,-6,0,0,79,81,136,90,56,122.32,107,20.00,-15.00,-1028.00
2024-06-07 00:32:42.832810,-4,0,1,-5,0,0,79,81,139,90,56,122.44,107,67.00,-23.00,-1021.00
2024-06-07 00:32:42.995424,-3,0,1,-4,0,0,79,81,139,90,56,122.39,107,86.00,-33.00,-970.00
2024-06-07 00:32:43.036837,-1,0,1,-3,0,0,79,81,140,90,56,122.37,107,45.00,-24.00,-1000.00
2024-06-07 00:32:43.200184,-1,0,1,-3,0,0,79,81,141,90,56,122.41,107,36.00,-2.00,-953.00
2024-06-07 00:32:43.240747,0,0,1,-3,0,0,79,81,141,90,56,122.52,107,2.00,-8.00,-921.00
2024-06-07 00:32:43.405019,0,0,1,-3,0,0,78,81,141,90,56,122.47,107,1.00,2.00,-923.00
2024-06-07 00:32:43.444674,0,0,1,-2,0,0,78,81,142,90,56,122.41,107,40.00,-25.00,-975.00
2024-06-07 00:32:43.609813,0,0,1,-3,0,0,78,81,142,90,56,122.37,108,41.00,3.00,-958.00
2024-06-07 00:32:43.648697,0,0,1,-2,0,0,78,81,141,90,56,122.47,108,34.00,-9.00,-985.00
2024-06-07 00:32:43.814620,0,0,1,-2,0,0,78,81,140,90,56,122.39,108,42.00,-25.00,-998.00
2024-06-07 00:32:43.852707,0,0,1,-2,0,0,78,81,140,90,56,122.34,108,40.00,-16.00,-984.00
2024-06-07 00:32:44.020784,0,0,1,-2,0,0,78,81,138,90,56,122.47,108,-12.00,5.00,-1013.00
2024-06-07 00:32:44.058549,-5,0,1,-2,0,0,78,81,139,90,56,122.37,108,18.00,-29.00,-1014.00
2024-06-07 00:32:44.224089,-4,0,1,-1,0,0,78,81,137,90,56,122.39,108,-28.00,9.00,-994.00
2024-06-07 00:32:44.262081,-1,0,1,0,0,0,78,81,136,90,56,122.37,108,22.00,3.00,-924.00
2024-06-07 00:32:44.429129,0,0,1,0,0,0,78,81,136,90,56,122.34,108,-2.00,0.00,-992.00
2024-06-07 00:32:44.466016,0,0,1,0,0,0,78,81,134,90,56,122.33,108,15.00,-27.00,-997.00
2024-06-07 00:32:44.634150,0,0,1,0,0,0,78,81,135,90,56,122.43,109,4.00,-1.00,-1025.00
2024-06-07 00:32:44.672115,-1,0,1,0,0,0,78,81,134,90,56,122.28,109,-3.00,-27.00,-1038.00
2024-06-07 00:32:44.771840,-1,0,1,0,0,0,78,81,133,90,56,122.30,109,10.00,1.00,-990.00
2024-06-07 00:32:44.941100,-1,0,1,0,0,0,78,81,133,90,56,122.41,109,10.00,7.00,-1006.00
2024-06-07 00:32:44.978520,0,0,1,0,0,0,78,81,132,90,56,122.39,109,-5.00,-7.00,-976.00
2024-06-07 00:32:45.028002,0,0,1,0,0,0,78,81,131,90,56,122.35,109,-21.00,-4.00,-986.00
2024-06-07 00:32:45.146080,0,0,1,0,0,0,78,81,131,90,56,122.30,109,-12.00,-8.00,-1041.00
2024-06-07 00:32:45.231502,0,0,1,0,0,0,78,81,129,90,56,122.25,109,-6.00,-10.00,-957.00
2024-06-07 00:32:45.350796,0,0,1,0,0,0,79,81,129,90,56,122.35,109,39.00,-31.00,-1048.00
2024-06-07 00:32:45.435633,0,0,1,0,0,0,79,81,129,90,56,122.35,109,-21.00,13.00,-973.00
2024-06-07 00:32:45.555430,0,0,1,0,0,0,79,81,128,80,56,122.25,110,-22.00,-4.00,-1035.00
2024-06-07 00:32:45.639754,0,0,1,0,0,0,79,81,128,80,56,122.29,110,-55.00,24.00,-972.00
2024-06-07 00:32:45.741732,0,0,1,0,0,0,79,81,129,80,56,122.29,110,-36.00,-4.00,-1044.00
2024-06-07 00:32:45.845967,0,0,1,0,0,0,79,81,128,80,56,122.31,110,3.00,-2.00,-1003.00
2024-06-07 00:32:45.945689,0,0,1,0,0,0,79,81,128,80,56,122.30,110,-8.00,-15.00,-1039.00
2024-06-07 00:32:46.050286,0,0,1,0,0,0,79,81,128,80,56,122.30,110,-13.00,1.00,-1002.00
2024-06-07 00:32:46.149642,0,0,1,0,0,0,79,81,128,80,56,122.39,110,-37.00,-6.00,-998.00
2024-06-07 00:32:46.251563,0,0,1,0,0,0,79,81,128,80,56,122.33,110,-41.00,-16.00,-1033.00
2024-06-07 00:32:46.374398,0,0,1,0,0,0,79,81,128,80,56,122.25,110,-25.00,-28.00,-1027.00
2024-06-07 00:32:46.455740,0,-5,1,0,0,0,79,81,128,80,56,122.26,110,7.00,-20.00,-1025.00
2024-06-07 00:32:46.579269,0,-8,1,0,-1,0,79,81,128,80,56,122.24,111,-43.00,17.00,-977.00
2024-06-07 00:32:46.659467,0,-5,1,0,-2,0,79,81,127,80,56,122.24,111,-8.00,0.00,-1002.00
2024-06-07 00:32:46.784054,0,-3,1,0,-3,0,79,81,127,80,56,122.31,111,39.00,-3.00,-957.00
2024-06-07 00:32:46.863442,0,0,1,0,-4,0,79,81,126,80,56,122.31,111,-6.00,5.00,-1033.00
2024-06-07 00:32:46.990402,0,1,1,0,-3,0,79,81,126,80,56,122.26,111,7.00,-9.00,-976.00
2024-06-07 00:32:47.067373,0,1,1,0,-2,0,79,81,125,80,56,122.24,111,-27.00,24.00,-978.00
2024-06-07 00:32:47.193640,0,0,1,0,-2,0,79,81,126,80,56,122.26,111,-62.00,8.00,-996.00
2024-06-07 00:32:47.271369,0,0,1,0,-2,0,79,81,125,80,56,122.24,111,-6.00,1.00,-1039.00
2024-06-07 00:32:47.398470,0,0,1,0,-2,0,78,81,124,80,56,122.27,111,13.00,1.00,-1007.00
2024-06-07 00:32:47.475494,0,0,1,0,-2,0,78,81,123,80,56,122.23,111,-21.00,-6.00,-1037.00
2024-06-07 00:32:47.603577,0,0,1,0,-2,0,78,81,124,80,56,122.25,112,-10.00,15.00,-1052.00
2024-06-07 00:32:47.679339,0,0,1,0,-2,0,78,81,123,80,56,122.27,112,-27.00,22.00,-967.00
2024-06-07 00:32:47.808023,0,0,1,0,-2,0,78,81,123,80,56,122.23,112,44.00,-12.00,-999.00
2024-06-07 00:32:47.883260,0,0,1,0,-2,0,78,81,123,80,56,122.31,112,10.00,5.00,-1045.00
2024-06-07 00:32:48.012826,0,0,1,0,-2,0,78,81,123,80,56,122.28,112,-36.00,23.00,-937.00
2024-06-07 00:32:48.087321,0,0,1,0,-2,0,78,81,123,80,56,122.26,112,-13.00,21.00,-991.00
2024-06-07 00:32:48.217505,0,0,1,0,-2,0,78,81,123,80,56,122.29,112,-12.00,22.00,-1021.00
2024-06-07 00:32:48.291206,0,2,1,0,-2,0,78,81,123,80,56,122.32,112,-34.00,10.00,-999.00
2024-06-07 00:32:48.422308,0,6,1,0,-1,0,78,81,124,80,56,122.32,112,18.00,14.00,-949.00
2024-06-07 00:32:48.495443,0,3,1,0,0,0,78,81,124,80,56,122.24,112,-53.00,23.00,-1019.00
2024-06-07 00:32:48.627305,0,1,1,0,0,0,78,81,125,80,56,122.21,113,3.00,-15.00,-1020.00
2024-06-07 00:32:48.699461,0,0,1,0,0,0,78,81,125,80,56,122.19,113,-18.00,-5.00,-954.00
2024-06-07 00:32:48.801447,0,0,1,0,0,0,78,81,126,80,56,122.29,113,-52.00,4.00,-1001.00
2024-06-07 00:32:48.852333,0,1,1,0,0,0,78,81,127,80,56,122.24,113,-24.00,17.00,-1011.00
2024-06-07 00:32:49.036826,0,1,1,0,0,0,78,81,127,80,56,122.28,113,-2.00,10.00,-985.00
2024-06-07 00:32:49.056339,0,1,1,0,0,0,78,81,128,80,56,122.28,113,-5.00,5.00,-1024.00
2024-06-07 00:32:49.158326,0,1,1,0,0,0,78,81,128,90,56,122.28,113,-28.00,-8.00,-1010.00
2024-06-07 00:32:49.344057,0,0,1,0,0,0,78,81,129,90,56,122.29,113,-12.00,-2.00,-934.00
2024-06-07 00:32:49.414047,0,0,1,0,0,0,79,81,129,90,56,122.30,113,-14.00,2.00,-969.00
2024-06-07 00:32:49.464301,0,0,1,0,0,0,79,81,129,90,56,122.31,113,8.00,-19.00,-1008.00
2024-06-07 00:32:49.651245,0,0,1,0,0,0,79,81,129,90,56,122.27,114,-12.00,6.00,-979.00
2024-06-07 00:32:49.668344,0,0,1,0,0,0,79,81,128,90,56,122.31,114,5.00,-15.00,-947.00
2024-06-07 00:32:49.856135,0,0,1,0,0,0,79,81,129,90,56,122.29,114,44.00,-35.00,-1000.00
2024-06-07 00:32:49.872312,0,0,1,0,0,0,79,81,128,90,56,122.31,114,-13.00,-22.00,-1006.00
2024-06-07 00:32:50.061699,0,0,1,0,0,0,79,81,128,90,56,122.29,114,-30.00,-8.00,-974.00
2024-06-07 00:32:50.076190,0,0,1,0,0,0,79,81,128,90,56,122.32,114,-13.00,2.00,-1006.00
2024-06-07 00:32:50.265613,0,0,1,0,0,0,79,81,128,90,56,122.24,114,-1.00,1.00,-1033.00
2024-06-07 00:32:50.280136,0,0,1,0,0,0,79,81,128,90,56,122.28,114,-20.00,1.00,-1039.00
2024-06-07 00:32:50.447674,0,0,1,0,0,0,78,80,128,90,56,122.26,114,11.00,-2.00,-996.00
2024-06-07 00:32:50.484121,0,0,1,0,0,0,78,80,128,80,56,122.31,114,-16.00,4.00,-1007.00
2024-06-07 00:32:50.675033,0,0,1,0,0,0,78,80,129,80,56,122.27,115,-28.00,-20.00,-1006.00
2024-06-07 00:32:50.688751,0,4,1,0,0,0,78,80,130,80,56,122.25,115,-8.00,-4.00,-976.00
2024-06-07 00:32:50.879849,0,8,1,0,1,0,78,80,130,90,56,122.31,115,-26.00,-5.00,-1024.00
2024-06-07 00:32:50.893667,0,6,1,0,2,0,78,80,130,90,56,122.30,115,-9.00,-1.00,-943.00
2024-06-07 00:32:51.085173,0,4,1,0,3,0,78,80,130,90,56,122.34,115,20.00,-50.00,-990.00
2024-06-07 00:32:51.096988,0,1,1,0,4,0,78,80,131,90,56,122.27,115,-30.00,-12.00,-980.00
2024-06-07 00:32:51.289819,0,-1,1,0,3,0,78,80,131,90,56,122.30,115,9.00,-22.00,-971.00
2024-06-07 00:32:51.303287,0,0,1,0,3,0,78,80,130,90,56,122.32,115,-13.00,-28.00,-999.00
2024-06-07 00:32:51.404095,0,0,1,0,2,0,78,80,131,90,56,122.31,115,-33.00,-4.00,-1032.00
2024-06-07 00:32:51.505925,0,0,1,0,2,0,78,80,131,90,56,122.36,115,-7.00,2.00,-951.00
2024-06-07 00:32:51.607092,0,1,1,0,2,0,78,80,131,90,56,122.30,116,-12.00,5.00,-988.00
2024-06-07 00:32:51.709111,0,1,1,0,2,0,78,80,130,90,56,122.24,116,21.00,-51.00,-993.00
2024-06-07 00:32:51.815612,0,1,1,0,2,0,78,80,131,90,56,122.34,116,40.00,-46.00,-1027.00
2024-06-07 00:32:51.912919,0,1,1,0,2,0,78,80,130,90,56,122.31,116,-32.00,-16.00,-981.00
2024-06-07 00:32:52.111105,0,0,1,0,2,0,78,80,131,90,56,122.39,116,4.00,-19.00,-1038.00
2024-06-07 00:32:52.116958,0,0,1,0,2,0,78,80,131,90,56,122.31,116,2.00,-26.00,-1022.00
2024-06-07 00:32:52.326669,0,0,1,0,2,0,78,80,130,90,56,122.36,116,4.00,-37.00,-1020.00
2024-06-07 00:32:52.327736,0,0,1,0,2,0,78,80,131,90,56,122.33,116,9.00,-30.00,-992.00
2024-06-07 00:32:52.425228,0,-1,1,0,2,0,78,81,130,90,56,122.28,116,-38.00,-10.00,-982.00
2024-06-07 00:32:52.525069,0,-4,1,0,1,0,78,81,131,90,56,122.28,116,-32.00,-7.00,-1035.00
2024-06-07 00:32:52.691686,0,-2,1,0,0,0,78,81,130,90,56,122.33,117,-21.00,11.00,-1011.00
2024-06-07 00:32:52.776080,0,0,1,0,0,0,78,81,131,90,56,122.32,117,17.00,-19.00,-1034.00
2024-06-07 00:32:52.868983,0,0,1,0,0,0,78,81,131,90,56,122.41,117,17.00,-16.00,-1043.00
2024-06-07 00:32:52.933228,0,0,1,0,0,0,78,81,131,90,56,122.39,117,-20.00,2.00,-1044.00
2024-06-07 00:32:53.080708,0,0,1,0,0,0,78,81,131,90,56,122.31,117,-68.00,8.00,-986.00
2024-06-07 00:32:53.085970,0,0,1,0,0,0,78,81,131,90,56,122.40,117,-32.00,-4.00,-1043.00
2024-06-07 00:32:53.297118,0,0,1,0,0,0,78,81,130,90,56,122.30,117,-17.00,-15.00,-1005.00
2024-06-07 00:32:53.297253,0,0,1,0,0,0,78,81,129,90,56,122.33,117,24.00,-4.00,-1016.00
2024-06-07 00:32:53.394603,0,0,1,0,0,0,78,81,130,90,56,122.34,117,24.00,-27.00,-1019.00
2024-06-07 00:32:53.553423,0,0,1,0,0,0,78,81,129,90,56,122.33,117,29.00,-33.00,-1009.00
2024-06-07 00:32:53.696466,0,0,1,0,0,0,78,81,129,90,56,122.27,118,-6.00,-8.00,-995.00
2024-06-07 00:32:53.697906,0,0,1,0,0,0,78,81,129,90,55,122.28,118,-5.00,-19.00,-1028.00
2024-06-07 00:32:53.860654,0,0,1,0,0,0,78,81,128,90,55,122.29,118,26.00,-39.00,-1021.00
2024-06-07 00:32:54.003867,0,0,1,0,0,0,78,81,128,90,55,122.31,118,24.00,-18.00,-976.00
2024-06-07 00:32:54.004032,0,0,1,0,0,0,78,81,127,90,55,122.36,118,-14.00,3.00,-977.00
2024-06-07 00:32:54.167567,0,0,1,0,0,0,78,81,127,90,55,122.35,118,-55.00,18.00,-1026.00
2024-06-07 00:32:54.223477,0,0,1,0,0,0,78,81,126,80,55,122.30,118,-19.00,-1.00,-1008.00
2024-06-07 00:32:54.312567,0,0,1,0,0,0,78,81,126,80,55,122.27,118,-16.00,25.00,-993.00
2024-06-07 00:32:54.411909,0,0,1,0,0,0,79,81,126,80,55,122.31,118,0.00,-3.00,-1027.00
2024-06-07 00:32:54.566137,0,0,1,0,0,0,79,81,126,80,55,122.33,119,-18.00,0.00,-993.00
2024-06-07 00:32:54.615734,0,0,1,0,0,0,79,81,127,80,55,122.35,119,1.00,1.00,-1040.00
2024-06-07 00:32:54.730735,0,0,2,0,0,0,79,81,126,80,55,122.27,119,-11.00,0.00,-969.00
2024-06-07 00:32:54.820864,0,0,8,0,0,0,79,81,126,80,55,122.30,119,26.00,-4.00,-1028.00
2024-06-07 00:32:54.975674,0,0,13,0,0,0,79,81,127,80,55,122.29,119,27.00,1.00,-944.00
2024-06-07 00:32:55.026797,0,0,19,0,0,0,79,81,127,80,55,122.37,119,5.00,23.00,-973.00
2024-06-07 00:32:55.127227,0,0,25,0,0,0,79,81,128,90,55,122.34,119,7.00,1.00,-1034.00
2024-06-07 00:32:55.227711,0,0,30,0,0,0,79,81,128,90,55,122.34,119,-1.00,10.00,-956.00
2024-06-07 00:32:55.385242,0,0,36,0,0,0,79,81,129,90,55,122.40,119,-22.00,7.00,-962.00
2024-06-07 00:32:55.431790,0,0,42,0,0,0,78,81,129,90,55,122.34,119,7.00,-20.00,-1061.00
2024-06-07 00:32:55.589903,0,0,48,0,0,0,78,81,130,90,55,122.32,120,32.00,-24.00,-1010.00
2024-06-07 00:32:55.635664,0,1,53,0,0,0,78,81,131,90,55,122.37,120,3.00,4.00,-986.00
2024-06-07 00:32:55.794759,0,0,59,0,0,0,78,81,131,90,55,122.41,120,-9.00,0.00,-965.00
2024-06-07 00:32:55.839897,0,0,65,0,0,0,78,81,132,90,55,122.38,120,35.00,-15.00,-1035.00
2024-06-07 00:32:55.999632,0,0,71,0,0,0,78,81,133,90,55,122.36,120,-40.00,-4.00,-973.00
2024-06-07 00:32:56.043820,-1,0,77,0,0,0,78,81,134,90,55,122.40,120,-24.00,-23.00,-992.00
2024-06-07 00:32:56.204447,-1,0,84,0,0,0,78,81,135,90,55,122.37,120,-46.00,2.00,-1009.00
2024-06-07 00:32:56.247570,0,0,90,0,0,0,78,81,136,90,55,122.44,120,2.00,-29.00,-1012.00
2024-06-07 00:32:56.409212,-1,0,96,0,0,0,78,81,135,90,55,122.37,120,-1.00,-8.00,-971.00
2024-06-07 00:32:56.451644,0,0,102,0,0,0,78,81,135,90,55,122.38,120,-1.00,-11.00,-999.00
2024-06-07 00:32:56.613913,0,0,109,0,0,0,78,81,136,90,55,122.43,121,11.00,-10.00,-996.00
2024-06-07 00:32:56.655640,0,0,115,0,0,0,78,81,135,90,55,122.46,121,-31.00,-1.00,-989.00
2024-06-07 00:32:56.818799,0,0,121,0,0,0,78,81,134,90,55,122.40,121,-64.00,0.00,-1003.00
2024-06-07 00:32:56.859585,0,0,127,0,0,0,78,81,134,90,55,122.40,121,9.00,-26.00,-995.00
2024-06-07 00:32:56.911268,-1,0,133,0,0,0,78,81,133,90,55,122.39,121,1.00,-26.00,-1022.00
2024-06-07 00:32:57.023578,-1,0,139,0,0,0,78,81,133,90,55,122.49,121,-33.00,-29.00,-1001.00
2024-06-07 00:32:57.114852,-1,0,145,0,0,0,78,81,133,90,55,122.39,121,27.00,-29.00,-1025.00
2024-06-07 00:32:57.228411,-1,0,152,0,0,0,78,81,133,90,55,122.43,121,0.00,-10.00,-997.00
2024-06-07 00:32:57.318494,-1,0,158,0,0,0,78,81,133,90,55,122.39,121,-24.00,-1.00,-1045.00
2024-06-07 00:32:57.420563,-1,0,164,0,0,0,77,81,132,90,55,122.38,121,9.00,-39.00,-985.00
2024-06-07 00:32:57.535563,0,0,170,0,0,0,77,81,132,90,55,122.34,122,-44.00,-11.00,-1013.00
2024-06-07 00:32:57.624490,-1,0,176,0,0,0,77,81,132,90,55,122.44,122,-11.00,-20.00,-972.00
2024-06-07 00:32:57.740258,0,0,-177,0,0,0,77,81,132,90,55,122.44,122,-13.00,-6.00,-967.00
2024-06-07 00:32:57.828666,0,0,-171,0,0,0,77,81,132,90,55,122.48,122,-45.00,11.00,-987.00
2024-06-07 00:32:57.930457,0,0,-165,0,0,0,77,81,132,90,55,122.42,122,-19.00,6.00,-993.00
2024-06-07 00:32:58.032437,0,0,-159,0,0,0,77,81,132,90,55,122.48,122,-8.00,-17.00,-970.00
2024-06-07 00:32:58.149938,0,0,-153,0,0,0,77,81,132,90,55,122.45,122,-23.00,4.00,-1015.00
2024-06-07 00:32:58.236352,0,0,-146,0,0,0,77,81,132,90,55,122.47,122,-29.00,-7.00,-1006.00
2024-06-07 00:32:58.354747,0,0,-140,0,0,0,77,81,132,90,55,122.48,122,-25.00,0.00,-1042.00
2024-06-07 00:32:58.441596,0,0,-134,0,0,0,78,81,132,90,55,122.49,122,-5.00,2.00,-1020.00
2024-06-07 00:32:58.559510,0,0,-128,0,0,0,78,81,132,90,55,122.48,123,-4.00,-11.00,-987.00
2024-06-07 00:32:58.644422,0,0,-122,0,0,0,78,81,132,90,55,122.47,123,-39.00,0.00,-969.00
2024-06-07 00:32:58.764307,0,0,-116,0,0,0,78,81,131,90,54,122.47,123,6.00,5.00,-988.00
2024-06-07 00:32:58.850067,0,0,-110,0,0,0,78,81,132,90,54,122.47,123,-1.00,19.00,-954.00
2024-06-07 00:32:58.950538,0,-1,-104,0,0,0,78,81,131,90,54,122.45,123,-25.00,24.00,-963.00
2024-06-07 00:32:59.071502,0,-1,-98,0,0,0,78,81,132,90,54,122.52,123,-13.00,3.00,-991.00
2024-06-07 00:32:59.155753,0,-1,-92,0,0,0,78,81,131,90,54,122.45,123,36.00,-11.00,-1048.00
2024-06-07 00:32:59.276628,0,-1,-86,0,0,0,78,81,131,90,54,122.44,123,-6.00,23.00,-1015.00
2024-06-07 00:32:59.358362,0,0,-80,0,0,0,78,81,132,90,54,122.47,123,-24.00,22.00,-1040.00
2024-06-07 00:32:59.481119,0,0,-74,0,0,0,79,81,132,90,54,122.48,123,-58.00,19.00,-1002.00
2024-06-07 00:32:59.562271,0,0,-68,0,0,0,79,81,132,90,54,122.48,124,-54.00,25.00,-995.00
2024-06-07 00:32:59.685797,0,0,-62,0,0,0,79,81,133,90,54,122.49,124,-10.00,2.00,-990.00
2024-06-07 00:32:59.766145,0,0,-55,0,0,0,79,81,133,90,54,122.52,124,-41.00,20.00,-1032.00
2024-06-07 00:32:59.868260,0,0,-50,0,0,0,79,81,132,90,54,122.45,124,7.00,-11.00,-1018.00
2024-06-07 00:32:59.993037,0,0,-44,0,0,0,79,81,133,90,54,122.47,124,-11.00,8.00,-969.00
2024-06-07 00:33:00.072288,0,0,-38,0,0,0,79,81,132,90,54,122.49,124,38.00,-16.00,-1021.00
2024-06-07 00:33:00.198006,0,0,-32,0,0,0,79,81,133,90,54,122.53,124,4.00,10.00,-979.00
2024-06-07 00:33:00.276365,0,0,-26,0,0,0,79,81,132,90,54,122.49,124,-15.00,18.00,-973.00
2024-06-07 00:33:00.402613,0,0,-20,0,0,0,79,81,131,90,54,122.53,124,17.00,-15.00,-980.00
2024-06-07 00:33:00.480251,0,0,-14,0,0,0,78,80,131,90,54,122.48,124,-11.00,0.00,-1024.00
2024-06-07 00:33:00.607438,0,0,-11,0,0,0,78,80,131,90,54,122.51,125,22.00,3.00,-983.00
2024-06-07 00:33:00.684261,0,0,-8,0,0,0,78,80,130,90,54,122.49,125,-38.00,20.00,-1026.00
2024-06-07 00:33:00.812220,0,0,-5,0,0,0,78,80,130,90,54,122.54,125,10.00,5.00,-1004.00
2024-06-07 00:33:00.888830,0,0,-3,0,0,0,78,80,129,90,54,122.53,125,-14.00,26.00,-1000.00
2024-06-07 00:33:00.991121,0,0,-2,0,0,0,78,80,129,90,54,122.54,125,-23.00,4.00,-1063.00
2024-06-07 00:33:01.041712,0,0,-1,0,0,0,78,80,129,90,54,122.55,125,28.00,-10.00,-1036.00
2024-06-07 00:33:01.221936,0,0,0,0,0,0,78,80,130,90,54,122.57,125,-8.00,10.00,-984.00
2024-06-07 00:33:01.246220,0,0,0,0,0,0,78,80,129,90,54,122.55,125,-12.00,14.00,-1011.00
2024-06-07 00:33:01.426738,0,0,0,0,0,0,78,80,129,90,54,122.50,125,-13.00,9.00,-1021.00
2024-06-07 00:33:01.450275,0,0,0,0,0,0,77,81,128,90,54,122.47,125,10.00,-10.00,-1005.00
2024-06-07 00:33:01.631606,0,0,0,0,0,0,77,81,129,90,54,122.46,126,-25.00,25.00,-996.00
2024-06-07 00:33:01.654509,0,0,0,0,0,0,77,81,128,90,54,122.39,126,-17.00,3.00,-1021.00
2024-06-07 00:33:01.836323,0,0,0,0,0,0,77,81,129,90,54,122.45,126,-14.00,12.00,-970.00
2024-06-07 00:33:01.858977,0,0,0,0,0,0,77,81,129,90,54,122.51,126,-9.00,11.00,-1022.00
2024-06-07 00:33:02.043187,0,0,0,0,0,0,77,81,129,90,54,122.44,126,-10.00,11.00,-991.00
2024-06-07 00:33:02.064462,0,0,0,0,0,0,77,81,129,90,54,122.52,126,-25.00,23.00,-1010.00
2024-06-07 00:33:02.167268,0,0,0,0,0,0,77,81,130,90,54,122.43,126,-7.00,6.00,-1052.00
2024-06-07 00:33:02.267577,0,0,0,0,0,0,77,81,130,90,54,122.51,126,15.00,0.00,-983.00
2024-06-07 00:33:02.450628,0,0,0,0,0,0,77,81,130,90,54,122.56,126,-4.00,9.00,-1001.00
2024-06-07 00:33:02.471697,0,0,0,0,0,0,77,81,131,90,54,122.51,126,-42.00,16.00,-1001.00
2024-06-07 00:33:02.655680,0,0,0,0,0,0,77,81,130,90,54,122.50,127,-33.00,24.00,-1036.00
2024-06-07 00:33:02.677880,0,0,0,0,0,0,77,81,131,90,54,122.52,127,3.00,-6.00,-984.00
2024-06-07 00:33:02.777079,0,0,0,0,0,0,77,81,131,90,54,122.46,127,19.00,-8.00,-1013.00
2024-06-07 00:33:02.879423,0,0,0,0,0,0,77,81,131,90,54,122.48,127,-7.00,-2.00,-1025.00
2024-06-07 00:33:03.064914,0,0,0,0,0,0,77,81,131,90,54,122.53,127,11.00,11.00,-999.00
2024-06-07 00:33:03.084340,0,0,0,0,0,0,77,81,132,90,54,122.51,127,37.00,-14.00,-970.00
2024-06-07 00:33:03.225266,0,0,0,0,0,0,77,81,131,90,54,122.56,127,16.00,-17.00,-1026.00
2024-06-07 00:33:03.287235,0,0,0,0,0,0,77,81,132,90,54,122.50,127,12.00,3.00,-997.00
2024-06-07 00:33:03.474400,0,0,0,0,0,0,77,81,131,90,54,122.51,127,-46.00,28.00,-1011.00
2024-06-07 00:33:03.490949,0,0,-5,0,0,0,77,81,131,90,54,122.57,127,-12.00,9.00,-987.00
2024-06-07 00:33:03.679231,0,0,-11,0,0,0,77,81,131,90,54,122.53,128,-13.00,43.00,-1012.00
2024-06-07 00:33:03.694854,0,0,-17,0,0,0,77,81,132,90,53,122.49,128,28.00,-11.00,-951.00
2024-06-07 00:33:03.889453,0,0,-23,0,0,0,77,81,131,90,53,122.50,128,-21.00,-6.00,-987.00
2024-06-07 00:33:03.898994,0,0,-29,0,0,0,77,81,131,90,53,122.61,128,15.00,3.00,-972.00
2024-06-07 00:33:04.089064,0,0,-35,0,0,0,77,81,132,90,53,122.53,128,24.00,-7.00,-982.00
2024-06-07 00:33:04.102841,0,0,-41,0,0,0,77,81,131,90,53,122.48,128,-18.00,9.00,-999.00
2024-06-07 00:33:04.293530,0,0,-47,0,0,0,77,81,132,90,53,122.52,128,-10.00,-3.00,-1036.00
2024-06-07 00:33:04.306804,0,0,-53,0,0,0,77,81,132,90,53,122.49,128,-21.00,9.00,-1009.00
2024-06-07 00:33:04.499805,0,0,-59,0,0,0,77,81,132,90,53,122.47,128,-17.00,10.00,-1037.00
2024-06-07 00:33:04.510802,0,0,-64,0,0,0,78,81,132,90,53,122.51,128,-19.00,-12.00,-962.00
2024-06-07 00:33:04.703228,0,0,-70,0,0,0,78,81,132,90,53,122.51,129,-14.00,0.00,-1022.00
2024-06-07 00:33:04.715522,0,0,-76,0,0,0,78,81,132,90,53,122.50,129,-32.00,17.00,-990.00
2024-06-07 00:33:04.908580,0,0,-82,0,0,0,78,81,133,90,53,122.46,129,-23.00,-25.00,-1007.00
2024-06-07 00:33:04.918796,0,0,-88,0,0,0,78,81,133,90,53,122.54,129,-23.00,5.00,-991.00
2024-06-07 00:33:04.969745,0,0,-94,0,0,0,78,81,132,90,53,122.55,129,-8.00,15.00,-996.00
2024-06-07 00:33:05.113077,0,0,-100,0,0,0,78,81,132,90,53,122.52,129,-43.00,0.00,-1016.00
2024-06-07 00:33:05.174971,0,0,-106,0,0,0,78,81,133,90,53,122.53,129,-20.00,20.00,-1055.00
2024-06-07 00:33:05.319710,-1,0,-112,0,0,0,78,81,133,90,53,122.57,129,-27.00,18.00,-1022.00
2024-06-07 00:33:05.378444,-1,-1,-118,0,0,0,78,81,133,90,53,122.49,129,-5.00,7.00,-1006.00
2024-06-07 00:33:05.522310,-1,-1,-124,0,0,0,78,81,133,90,53,122.51,129,-28.00,14.00,-1013.00
2024-06-07 00:33:05.581759,-1,-1,-130,0,0,0,78,81,134,90,53,122.54,130,6.00,-29.00,-1008.00
2024-06-07 00:33:05.727128,-1,0,-136,0,0,0,78,81,133,90,53,122.52,130,-8.00,-31.00,-977.00
2024-06-07 00:33:05.785756,0,0,-142,0,0,0,78,81,133,90,53,122.47,130,-10.00,-21.00,-1019.00
2024-06-07 00:33:05.887709,0,0,-148,0,0,0,78,81,133,90,53,122.46,130,-3.00,-10.00,-944.00
2024-06-07 00:33:06.034730,0,0,-154,0,0,0,78,81,132,90,53,122.41,130,-7.00,-6.00,-1003.00
2024-06-07 00:33:06.091695,0,0,-160,0,0,0,78,81,132,90,53,122.57,130,-42.00,12.00,-1015.00
2024-06-07 00:33:06.239042,0,0,-166,0,0,0,78,81,132,90,53,122.57,130,-23.00,2.00,-980.00
2024-06-07 00:33:06.296302,-1,0,-172,0,0,0,78,81,132,90,53,122.52,130,-2.00,-1.00,-973.00
2024-06-07 00:33:06.443889,-1,0,-179,0,0,0,78,81,131,90,53,122.55,130,-3.00,-21.00,-1016.00
2024-06-07 00:33:06.499625,-1,0,174,0,0,0,78,81,131,90,53,122.52,130,1.00,-17.00,-1001.00
2024-06-07 00:33:06.648692,-1,0,168,0,0,0,78,81,131,90,53,122.52,131,12.00,-18.00,-942.00
2024-06-07 00:33:06.703600,0,0,162,0,0,0,78,81,131,90,53,122.60,131,-28.00,-4.00,-1009.00
2024-06-07 00:33:06.853849,0,0,156,0,0,0,78,81,131,90,53,122.60,131,-75.00,28.00,-1017.00
2024-06-07 00:33:06.907611,0,0,150,0,0,0,78,81,131,90,53,122.51,131,-14.00,-17.00,-1014.00
2024-06-07 00:33:07.119644,-1,0,143,0,0,0,78,81,131,90,53,122.58,131,-46.00,10.00,-1007.00
2024-06-07 00:33:07.119727,-1,0,137,0,0,0,78,81,131,90,53,122.60,131,-45.00,9.00,-979.00
2024-06-07 00:33:07.467925,-1,0,131,0,0,0,78,81,131,90,53,122.59,131,-60.00,9.00,-995.00
2024-06-07 00:33:07.468758,0,0,125,0,0,0,78,81,132,90,53,122.53,131,-33.00,0.00,-948.00
2024-06-07 00:33:07.538747,0,0,119,0,0,0,78,81,131,90,53,122.51,131,-43.00,15.00,-989.00
2024-06-07 00:33:07.538830,0,0,113,0,0,0,77,81,131,90,53,122.54,131,-39.00,-10.00,-1005.00
2024-06-07 00:33:07.621575,0,0,106,0,0,0,77,81,131,90,53,122.53,132,-12.00,-3.00,-986.00
2024-06-07 00:33:07.734296,0,0,101,0,0,0,77,81,130,90,53,122.53,132,8.00,-54.00,-1006.00
2024-06-07 00:33:07.841868,0,0,95,0,0,0,77,81,131,90,53,122.54,132,-10.00,-11.00,-1011.00
2024-06-07 00:33:08.006300,0,0,88,0,0,0,77,81,131,90,53,122.57,132,-24.00,-14.00,-1017.00
2024-06-07 00:33:08.063024,0,0,82,0,0,0,77,81,131,90,53,122.54,132,-20.00,-16.00,-992.00
2024-06-07 00:33:08.131506,0,0,76,0,0,0,77,81,131,90,53,122.56,132,-36.00,6.00,-998.00
2024-06-07 00:33:08.297875,0,0,70,0,0,0,77,81,132,90,53,122.56,132,0.00,-12.00,-973.00
2024-06-07 00:33:08.441180,0,0,64,0,0,0,77,81,132,90,53,122.57,132,-42.00,20.00,-1027.00
2024-06-07 00:33:08.441264,0,0,58,0,0,0,77,81,132,90,53,122.52,132,-21.00,5.00,-982.00
2024-06-07 00:33:08.607301,0,0,46,0,0,0,78,81,132,90,53,122.58,133,-34.00,8.00,-1036.00
2024-06-07 00:33:08.750354,0,0,40,0,0,0,78,81,132,90,53,122.57,133,50.00,-17.00,-958.00
2024-06-07 00:33:08.750438,0,0,34,0,0,0,78,81,132,90,52,122.57,133,5.00,-12.00,-997.00
2024-06-07 00:33:08.912207,0,0,28,0,0,0,78,81,132,90,52,122.64,133,-41.00,17.00,-1027.00
2024-06-07 00:33:09.066473,0,0,22,0,0,0,78,81,133,90,52,122.58,133,42.00,-25.00,-1029.00
2024-06-07 00:33:09.066557,0,0,16,0,0,0,78,81,132,90,52,122.61,133,3.00,0.00,-977.00
2024-06-07 00:33:09.100458,0,0,12,0,0,0,78,81,133,90,52,122.59,133,-27.00,-5.00,-963.00
2024-06-07 00:33:09.202406,0,0,9,0,0,0,78,81,133,90,52,122.57,133,8.00,-1.00,-927.00
2024-06-07 00:33:09.310898,0,0,6,0,0,0,78,81,133,90,52,122.57,133,-36.00,-2.00,-979.00
2024-06-07 00:33:09.406399,0,0,5,0,0,0,78,81,132,90,52,122.59,133,17.00,0.00,-1019.00
2024-06-07 00:33:09.516088,0,0,3,0,0,0,78,80,132,90,52,122.66,134,-22.00,0.00,-1006.00
2024-06-07 00:33:09.610329,0,0,2,0,0,0,78,80,134,90,52,122.62,134,-3.00,8.00,-989.00
2024-06-07 00:33:09.720542,0,0,1,0,0,0,78,80,134,90,52,122.67,134,12.00,6.00,-988.00
2024-06-07 00:33:09.814696,0,0,1,0,0,0,78,80,135,90,52,122.65,134,36.00,-9.00,-943.00
2024-06-07 00:33:09.916574,0,0,1,0,0,0,78,80,136,90,52,122.68,134,42.00,-12.00,-1000.00
2024-06-07 00:33:10.018945,0,0,1,0,0,0,78,80,137,90,52,122.67,134,4.00,0.00,-941.00
2024-06-07 00:33:10.130233,0,0,1,0,0,0,78,80,139,90,52,122.66,134,29.00,-17.00,-965.00
2024-06-07 00:33:10.222855,0,0,1,0,0,0,78,80,139,90,52,122.68,134,9.00,-2.00,-1002.00
2024-06-07 00:33:10.335330,0,0,1,0,0,0,78,80,140,90,52,122.64,134,58.00,-35.00,-971.00
2024-06-07 00:33:10.426516,0,0,1,0,0,0,78,80,140,90,52,122.72,134,12.00,0.00,-973.00
2024-06-07 00:33:10.539831,0,0,1,0,0,0,77,80,141,90,52,122.69,135,-37.00,12.00,-939.00
2024-06-07 00:33:10.630624,0,0,1,0,0,0,77,80,141,90,52,122.62,135,21.00,-4.00,-998.00
2024-06-07 00:33:10.744586,0,0,1,0,0,0,77,80,140,90,52,122.60,135,2.00,-3.00,-1004.00
2024-06-07 00:33:10.834445,0,0,1,0,0,0,77,80,140,90,52,122.66,135,-1.00,-9.00,-995.00
2024-06-07 00:33:10.936451,0,0,1,0,0,0,77,80,140,90,52,122.61,135,-20.00,23.00,-978.00
2024-06-07 00:33:11.051746,0,0,1,0,0,0,77,80,138,90,52,122.65,135,6.00,0.00,-992.00
2024-06-07 00:33:11.141309,0,0,1,0,0,0,77,80,138,90,52,122.63,135,17.00,0.00,-979.00
2024-06-07 00:33:11.257262,0,0,1,0,0,0,77,80,137,90,52,122.65,135,-7.00,0.00,-1013.00
2024-06-07 00:33:11.344481,0,0,1,0,0,0,77,80,137,90,52,122.65,135,9.00,-21.00,-1049.00
2024-06-07 00:33:11.461359,0,0,1,0,0,0,77,80,135,90,52,122.58,135,-2.00,2.00,-1003.00
2024-06-07 00:33:11.548568,0,0,1,0,0,0,78,81,134,90,52,122.62,136,9.00,-5.00,-988.00
2024-06-07 00:33:11.666193,0,0,1,0,0,0,78,81,134,90,52,122.58,136,2.00,0.00,-983.00
2024-06-07 00:33:11.752876,0,0,1,0,0,0,78,81,133,90,52,122.60,136,-6.00,1.00,-1066.00
2024-06-07 00:33:11.854240,0,0,1,0,0,0,78,81,133,90,52,122.66,136,-47.00,28.00,-995.00
2024-06-07 00:33:11.973206,0,0,1,0,0,-2,78,81,133,90,52,122.75,136,-24.00,-13.00,-1641.00
2024-06-07 00:33:12.058110,0,0,1,0,0,-8,78,81,141,90,52,122.71,136,-6.00,25.00,-1642.00
2024-06-07 00:33:12.179747,0,-47,1,0,-1,-13,78,81,255,100,52,122.87,136,2.00,317.00,-1076.00
2024-06-07 00:33:12.265276,0,-170,2,0,-9,-4,78,81,165,120,52,123.03,136,-19.00,713.00,-1048.00
2024-06-07 00:33:12.364458,1,65,0,0,-7,9,78,81,217,110,52,123.03,136,10.00,448.00,-1125.00
2024-06-07 00:33:12.485197,0,-5,0,0,-2,10,78,81,140,100,52,122.73,136,0.00,-218.00,-1532.00
2024-06-07 00:33:12.568128,0,1,0,0,-3,7,79,81,129,90,52,122.50,137,14.00,-36.00,-1456.00
2024-06-07 00:33:12.689998,0,3,0,0,-2,3,79,81,124,90,52,122.50,137,-63.00,80.00,-1367.00
2024-06-07 00:33:12.772096,0,2,1,0,-2,1,79,81,121,80,52,122.47,137,-31.00,-21.00,-1169.00
2024-06-07 00:33:12.894739,0,1,1,0,-1,0,79,81,119,80,52,122.50,137,7.00,-3.00,-1084.00
2024-06-07 00:33:12.925103,0,1,1,0,-1,-1,79,81,119,80,52,122.51,137,19.00,-5.00,-1071.00
2024-06-07 00:33:13.100208,0,1,1,0,-1,-1,79,81,119,80,52,122.55,137,8.00,7.00,-1004.00
2024-06-07 00:33:13.131189,0,0,1,0,0,-1,79,81,120,80,52,122.54,137,-19.00,16.00,-992.00
2024-06-07 00:33:13.231202,0,2,1,0,0,-1,79,81,120,90,52,122.49,137,-18.00,26.00,-947.00
2024-06-07 00:33:13.406764,0,1,1,0,0,-1,79,81,120,90,52,122.45,137,42.00,-18.00,-972.00
2024-06-07 00:33:13.435198,0,0,1,0,0,-1,79,81,121,90,52,122.57,137,-10.00,28.00,-970.00
2024-06-07 00:33:13.611550,0,0,1,0,0,0,78,81,121,90,52,122.45,138,-12.00,9.00,-996.00
2024-06-07 00:33:13.638946,0,0,1,0,0,0,78,81,120,90,52,122.50,138,11.00,-4.00,-1034.00
2024-06-07 00:33:13.816371,0,0,1,0,0,0,78,81,120,80,52,122.48,138,10.00,5.00,-978.00
2024-06-07 00:33:13.842966,0,0,1,0,0,0,78,81,119,80,52,122.46,138,38.00,7.00,-956.00
2024-06-07 00:33:13.945446,0,1,1,0,0,0,78,81,119,80,52,122.52,138,-21.00,-8.00,-1018.00
2024-06-07 00:33:14.047044,0,1,1,0,0,0,78,81,118,80,52,122.60,138,10.00,-3.00,-992.00
2024-06-07 00:33:14.225930,0,1,1,0,0,0,78,81,117,80,52,122.49,138,15.00,-7.00,-926.00
2024-06-07 00:33:14.251054,0,1,1,0,0,0,78,81,116,80,52,122.48,138,13.00,5.00,-1021.00
2024-06-07 00:33:14.431407,0,1,1,0,0,0,78,81,116,80,52,122.51,138,-33.00,22.00,-1100.00
2024-06-07 00:33:14.454987,0,0,1,0,0,0,78,81,115,80,52,122.44,138,-20.00,7.00,-1059.00
2024-06-07 00:33:14.635498,0,0,1,0,0,0,77,81,116,80,52,122.48,139,-8.00,0.00,-996.00
2024-06-07 00:33:14.658987,0,0,1,0,0,0,77,81,115,80,51,122.47,139,28.00,-26.00,-1007.00
2024-06-07 00:33:14.760952,0,0,1,0,0,0,77,81,115,80,51,122.54,139,18.00,-1.00,-1002.00
2024-06-07 00:33:14.942687,0,0,1,0,0,0,77,81,115,80,51,122.49,139,27.00,-13.00,-968.00
2024-06-07 00:33:14.965306,0,1,1,0,0,0,77,81,114,80,51,122.44,139,11.00,0.00,-996.00
2024-06-07 00:33:15.147507,0,1,1,0,0,0,77,81,115,80,51,122.43,139,-26.00,-13.00,-1015.00
2024-06-07 00:33:15.168924,0,1,1,0,0,0,77,81,115,80,51,122.45,139,-24.00,-19.00,-1010.00
2024-06-07 00:33:15.352275,0,1,1,0,0,0,77,81,116,80,51,122.46,139,1.00,-12.00,-1031.00
2024-06-07 00:33:15.372997,0,1,1,0,0,0,77,81,116,80,51,122.46,139,-4.00,-29.00,-1025.00
2024-06-07 00:33:15.558099,0,1,1,0,0,0,77,81,117,80,51,122.46,139,-4.00,-10.00,-992.00
2024-06-07 00:33:15.577781,0,1,1,0,0,0,78,80,118,80,51,122.51,140,-68.00,17.00,-1005.00
2024-06-07 00:33:15.685963,0,1,1,0,0,0,78,80,118,80,51,122.49,140,7.00,-1.00,-993.00
2024-06-07 00:33:15.782304,0,1,1,0,0,0,78,80,119,80,51,122.45,140,-4.00,-9.00,-953.00
2024-06-07 00:33:15.967048,0,0,1,0,0,0,78,80,119,80,51,122.56,140,-19.00,-5.00,-948.00
2024-06-07 00:33:15.986618,0,0,1,0,0,0,78,80,121,80,51,122.56,140,1.00,-8.00,-963.00
2024-06-07 00:33:16.171579,0,0,1,0,0,0,78,80,122,80,51,122.57,140,-13.00,4.00,-1011.00
2024-06-07 00:33:16.190051,0,0,1,0,0,0,78,80,122,80,51,122.53,140,17.00,-19.00,-944.00
2024-06-07 00:33:16.376327,0,0,1,0,0,0,78,80,122,80,51,122.51,140,-47.00,2.00,-983.00
2024-06-07 00:33:16.393927,0,0,1,0,0,0,78,80,123,80,51,122.55,140,-48.00,13.00,-1014.00
2024-06-07 00:33:16.581191,0,0,1,0,0,0,78,80,123,80,51,122.58,140,-36.00,0.00,-1010.00
2024-06-07 00:33:16.597804,0,0,1,0,0,0,78,81,124,80,51,122.54,141,-62.00,8.00,-975.00
2024-06-07 00:33:16.785841,0,0,1,0,0,0,78,81,124,80,50,122.57,141,-47.00,11.00,-1012.00
2024-06-07 00:33:16.801827,0,0,1,0,0,0,78,81,124,80,50,122.53,141,-60.00,17.00,-1026.00
2024-06-07 00:33:16.990876,0,0,1,0,0,0,78,81,124,80,50,122.55,141,-43.00,9.00,-950.00
2024-06-07 00:33:17.006066,0,0,1,0,0,0,78,81,124,80,50,122.52,141,-34.00,7.00,-996.00
2024-06-07 00:33:17.195526,0,0,1,0,0,0,78,81,124,80,50,122.54,141,-11.00,-3.00,-1008.00
2024-06-07 00:33:17.212914,0,0,1,0,0,0,78,81,124,80,50,122.52,141,-36.00,12.00,-997.00
2024-06-07 00:33:17.312792,0,0,1,0,0,0,78,81,124,80,50,122.53,141,-15.00,3.00,-1029.00
2024-06-07 00:33:17.363153,0,0,1,0,0,0,78,81,124,80,50,122.50,141,34.00,-22.00,-1000.00
2024-06-07 00:33:17.502757,0,0,1,0,0,0,78,81,124,80,50,122.52,141,-41.00,14.00,-989.00
2024-06-07 00:33:17.567853,0,0,1,0,0,0,79,81,123,80,50,122.49,142,21.00,-29.00,-963.00
2024-06-07 00:33:17.707669,0,0,1,0,0,0,79,81,124,80,50,122.53,142,-29.00,7.00,-980.00
2024-06-07 00:33:17.770671,0,0,1,0,0,0,79,81,123,80,50,122.52,142,-51.00,13.00,-1012.00
2024-06-07 00:33:17.912489,0,0,1,0,0,0,79,81,123,80,50,122.54,142,-3.00,0.00,-1006.00
2024-06-07 00:33:17.975009,0,0,1,0,0,0,79,81,123,80,50,122.60,142,-27.00,0.00,-1007.00
2024-06-07 00:33:18.117073,0,0,1,0,0,0,79,81,123,80,50,122.58,142,0.00,2.00,-969.00
2024-06-07 00:33:18.178776,0,0,1,0,0,0,79,81,123,80,50,122.60,142,-4.00,-5.00,-1051.00
2024-06-07 00:33:18.321981,0,0,1,0,0,0,79,81,123,80,50,122.59,142,1.00,-11.00,-990.00
2024-06-07 00:33:18.383515,0,0,1,0,0,0,79,81,123,80,50,122.59,142,-20.00,1.00,-983.00
2024-06-07 00:33:18.527043,0,0,1,0,0,0,79,81,123,80,50,122.67,142,-32.00,0.00,-999.00
2024-06-07 00:33:18.587786,0,0,1,0,0,0,77,80,123,80,50,122.57,143,-3.00,0.00,-998.00
2024-06-07 00:33:18.689876,0,0,1,0,0,0,77,80,123,80,49,122.54,143,0.00,5.00,-1001.00
2024-06-07 00:33:18.833930,0,0,1,0,0,0,77,80,123,80,49,122.51,143,26.00,2.00,-929.00
2024-06-07 00:33:18.894121,0,0,1,0,0,0,77,80,123,80,49,122.55,143,1.00,-10.00,-999.00
2024-06-07 00:33:19.039243,0,0,1,0,0,0,77,80,123,80,49,122.62,143,-16.00,4.00,-963.00
2024-06-07 00:33:19.097779,-1,0,1,0,0,0,77,80,123,80,49,122.58,143,6.00,-10.00,-1010.00
2024-06-07 00:33:19.243473,0,0,1,0,0,0,77,80,123,80,49,122.63,143,-4.00,-6.00,-982.00
2024-06-07 00:33:19.301552,0,0,1,0,0,0,77,80,123,80,49,122.57,143,3.00,5.00,-987.00
2024-06-07 00:33:19.448454,0,0,1,0,0,0,77,80,124,80,49,122.61,143,40.00,-16.00,-1026.00
2024-06-07 00:33:19.506041,0,0,1,0,0,0,77,80,124,80,49,122.60,143,8.00,-18.00,-1006.00
2024-06-07 00:33:19.653337,0,0,1,0,0,0,77,81,124,80,49,122.65,144,0.00,9.00,-1010.00
2024-06-07 00:33:19.710015,0,0,1,0,0,0,77,81,124,80,49,122.61,144,12.00,-3.00,-987.00
2024-06-07 00:33:19.857872,0,0,1,0,0,0,77,81,125,80,49,122.58,144,20.00,2.00,-974.00
2024-06-07 00:33:19.913888,0,0,1,0,0,0,77,81,125,80,49,122.62,144,19.00,11.00,-945.00
2024-06-07 00:33:20.015792,0,0,1,0,0,0,77,81,125,80,49,122.59,144,-24.00,0.00,-965.00
2024-06-07 00:33:20.165202,0,0,1,0,0,0,77,81,125,80,49,122.59,144,-3.00,5.00,-983.00
2024-06-07 00:33:20.219580,-1,0,1,0,0,0,77,81,125,80,49,122.60,144,10.00,-3.00,-927.00
2024-06-07 00:33:20.374020,-1,0,1,0,0,0,77,81,125,80,49,122.58,144,-3.00,12.00,-973.00
2024-06-07 00:33:20.423438,0,0,1,0,0,0,77,81,125,80,49,122.46,144,-2.00,-4.00,-983.00
2024-06-07 00:33:20.574619,0,0,1,0,0,0,77,81,125,80,49,122.57,144,3.00,-11.00,-960.00
2024-06-07 00:33:20.627575,0,0,1,0,0,0,77,80,125,80,49,122.61,145,-22.00,-9.00,-1015.00
2024-06-07 00:33:20.779412,0,0,1,0,0,0,77,80,124,80,49,122.57,145,-12.00,4.00,-962.00
2024-06-07 00:33:20.831875,0,0,1,0,0,0,77,80,124,80,49,122.58,145,13.00,8.00,-986.00
2024-06-07 00:33:20.933598,0,0,1,0,0,0,77,80,124,80,49,122.59,145,-11.00,-11.00,-1011.00
2024-06-07 00:33:21.086501,0,0,1,0,0,0,77,80,124,80,49,122.60,145,-22.00,-29.00,-1036.00
2024-06-07 00:33:21.137425,0,0,1,0,0,0,77,80,124,80,49,122.63,145,-21.00,24.00,-966.00
2024-06-07 00:33:21.291324,0,0,1,0,0,0,77,80,123,80,49,122.56,145,-4.00,13.00,-1035.00
2024-06-07 00:33:21.291488,0,0,1,0,0,0,77,80,123,80,49,122.59,145,-5.00,9.00,-999.00
2024-06-07 00:33:21.443462,0,0,1,0,0,0,77,80,123,80,49,122.63,145,21.00,-3.00,-973.00
2024-06-07 00:33:21.598541,0,0,1,0,0,0,77,80,124,80,49,122.62,146,-26.00,0.00,-982.00
2024-06-07 00:33:21.647643,0,0,1,0,0,0,77,81,124,80,49,122.51,146,32.00,-18.00,-1066.00
2024-06-07 00:33:21.698422,0,0,1,0,0,0,77,81,123,80,49,122.59,146,-1.00,-14.00,-968.00
2024-06-07 00:33:21.803302,0,0,1,0,0,0,77,81,124,80,49,122.63,146,11.00,9.00,-992.00
2024-06-07 00:33:21.903316,0,0,1,0,0,0,77,81,124,80,49,122.60,146,16.00,-10.00,-1005.00
2024-06-07 00:33:22.004400,0,0,1,0,0,0,77,81,124,80,49,122.59,146,-47.00,5.00,-1023.00
2024-06-07 00:33:22.315899,0,0,1,0,0,0,77,81,124,80,49,122.58,146,13.00,-4.00,-1029.00
2024-06-07 00:33:22.394430,0,0,1,0,0,0,77,81,124,80,49,122.53,146,-30.00,3.00,-1026.00
2024-06-07 00:33:22.394687,0,0,1,0,0,0,77,81,124,80,49,122.62,146,-1.00,6.00,-986.00
2024-06-07 00:33:22.412635,0,0,1,0,0,0,77,81,124,80,49,122.57,146,7.00,-1.00,-962.00
2024-06-07 00:33:22.574599,0,0,1,0,0,0,77,81,123,80,49,122.53,147,9.00,0.00,-946.00
2024-06-07 00:33:22.616305,0,0,1,0,0,0,78,81,122,80,49,122.60,147,-6.00,-2.00,-1010.00
2024-06-07 00:33:22.786572,0,0,1,0,0,0,78,81,122,80,49,122.61,147,24.00,-15.00,-1015.00
