TS,pitch,roll,yaw,vgx,vgy,vgz,templ,temph,tof,h,bat,baro,time,agx,agy,agz
2024-06-07 15:06:28.319297,0,0,3,0,0,0,62,65,10,0,100,159.03,0,15.00,8.00,-999.00
2024-06-07 15:06:28.410009,0,0,3,0,0,0,62,65,10,0,100,158.98,0,14.00,7.00,-995.00
2024-06-07 15:06:28.521247,0,0,3,0,0,0,62,65,10,0,100,159.00,0,15.00,8.00,-997.00
2024-06-07 15:06:28.613970,0,0,3,0,0,0,62,65,10,0,100,158.99,0,15.00,8.00,-1000.00
2024-06-07 15:06:28.732420,0,0,3,0,0,0,62,65,10,0,100,158.97,0,15.00,7.00,-1001.00
2024-06-07 15:06:28.817763,0,0,3,0,0,0,62,65,10,0,100,158.99,0,16.00,7.00,-999.00
2024-06-07 15:06:28.930976,0,0,3,0,0,0,62,65,10,0,100,158.96,0,15.00,7.00,-998.00
2024-06-07 15:06:29.021876,0,0,3,0,0,0,62,65,10,0,100,158.98,0,15.00,7.00,-997.00
2024-06-07 15:06:29.135676,0,0,3,0,0,0,63,65,10,0,100,159.03,0,15.00,6.00,-999.00
2024-06-07 15:06:29.226609,0,0,3,0,0,0,63,65,10,0,100,159.02,0,17.00,7.00,-999.00
2024-06-07 15:06:29.340445,0,0,3,0,0,0,63,65,10,0,100,159.01,0,15.00,7.00,-998.00
2024-06-07 15:06:29.430309,0,0,3,0,0,0,63,65,10,0,100,159.04,0,14.00,6.00,-999.00
2024-06-07 15:06:29.531939,0,0,3,0,0,0,63,65,10,0,100,159.02,0,16.00,6.00,-994.00
2024-06-07 15:06:29.647547,0,0,3,0,0,0,63,65,10,0,100,159.04,0,15.00,5.00,-998.00
2024-06-07 15:06:29.735786,0,0,3,0,0,0,63,65,10,0,100,158.98,0,16.00,7.00,-998.00
2024-06-07 15:06:29.852348,0,0,3,0,0,0,63,65,10,0,100,159.00,0,15.00,8.00,-997.00
2024-06-07 15:06:29.939932,0,0,3,0,0,0,63,65,10,0,100,159.05,0,16.00,7.00,-999.00
2024-06-07 15:06:30.041955,0,0,3,0,0,0,63,65,10,0,100,159.03,0,15.00,8.00,-1000.00
2024-06-07 15:06:30.159537,0,0,3,0,0,0,63,66,10,0,100,159.00,0,16.00,8.00,-1000.00
2024-06-07 15:06:30.245946,0,0,3,0,0,0,63,66,10,0,100,158.98,0,15.00,8.00,-1000.00
2024-06-07 15:06:30.364457,0,0,3,0,0,0,63,66,10,0,100,159.00,0,16.00,6.00,-1001.00
2024-06-07 15:06:30.450012,0,0,3,0,0,0,63,66,10,0,100,159.00,0,17.00,7.00,-1000.00
2024-06-07 15:06:30.569279,0,0,3,0,0,0,63,66,10,0,100,158.99,0,16.00,7.00,-999.00
2024-06-07 15:06:30.603168,0,0,3,0,0,0,63,66,10,0,100,159.02,0,15.00,6.00,-1000.00
2024-06-07 15:06:30.705068,0,0,3,0,0,0,63,66,10,0,100,159.01,0,16.00,7.00,-1000.00
2024-06-07 15:06:30.807172,0,0,3,0,0,0,63,66,10,0,100,159.02,0,16.00,6.00,-999.00
2024-06-07 15:06:30.978828,0,0,3,0,0,0,63,66,10,0,100,159.00,0,14.00,7.00,-1001.00
2024-06-07 15:06:31.010957,0,0,3,0,0,0,63,66,10,0,100,158.99,0,16.00,7.00,-1000.00
2024-06-07 15:06:31.183497,0,0,3,0,0,0,63,66,10,0,100,159.01,0,15.00,7.00,-1000.00
2024-06-07 15:06:31.214999,0,0,3,0,0,0,63,66,10,0,100,158.98,0,16.00,8.00,-997.00
2024-06-07 15:06:31.388515,0,0,3,0,0,0,63,66,10,0,100,158.95,0,16.00,7.00,-998.00
2024-06-07 15:06:31.418993,0,0,3,0,0,0,63,66,10,0,100,159.02,0,17.00,7.00,-999.00
2024-06-07 15:06:31.521069,0,0,3,0,0,0,63,66,10,0,100,159.04,0,16.00,7.00,-998.00
2024-06-07 15:06:31.695521,0,0,3,0,0,0,63,66,10,0,100,158.96,0,17.00,6.00,-1000.00
2024-06-07 15:06:31.724909,0,0,3,0,0,0,63,66,10,0,100,158.99,0,16.00,7.00,-997.00
2024-06-07 15:06:31.900450,0,0,3,0,0,0,63,66,10,0,100,159.00,0,16.00,6.00,-1002.00
2024-06-07 15:06:31.928988,0,0,3,0,0,0,63,66,10,0,100,159.02,0,14.00,6.00,-1000.00
2024-06-07 15:06:32.031201,0,0,3,0,0,0,63,66,10,0,100,158.98,0,17.00,5.00,-997.00
2024-06-07 15:06:32.207407,0,0,3,0,0,0,64,66,10,0,100,159.02,0,15.00,6.00,-997.00
2024-06-07 15:06:32.234901,0,0,3,0,0,0,64,66,10,0,100,159.02,0,15.00,5.00,-998.00
2024-06-07 15:06:32.349009,0,0,3,0,0,0,64,66,10,0,100,158.96,0,15.00,8.00,-998.00
2024-06-07 15:06:32.439026,0,0,3,0,0,0,64,66,10,0,100,159.01,0,17.00,5.00,-997.00
2024-06-07 15:06:32.617124,0,0,3,0,0,0,64,66,10,0,100,159.00,0,14.00,-9.00,-999.00
2024-06-07 15:06:32.642984,0,0,3,0,0,0,64,66,10,0,100,159.00,0,13.00,-2.00,-1000.00
2024-06-07 15:06:32.821929,0,0,5,0,0,0,64,66,10,0,100,159.00,0,26.00,21.00,-986.00
2024-06-07 15:06:32.846974,0,0,6,0,0,0,64,66,10,0,100,159.00,0,-34.00,34.00,-981.00
2024-06-07 15:06:33.026723,0,0,6,0,0,0,64,66,10,0,100,159.00,0,-41.00,23.00,-1084.00
2024-06-07 15:06:33.050797,0,1,6,0,0,-2,64,66,10,0,100,159.00,0,-24.00,23.00,-1160.00
2024-06-07 15:06:33.152836,0,0,6,0,0,-5,65,66,10,0,100,159.00,0,-11.00,1.00,-1091.00
2024-06-07 15:06:33.255176,0,-2,6,0,1,-7,65,66,13,0,100,159.20,0,8.00,24.00,-1316.00
2024-06-07 15:06:33.436277,0,-3,6,0,1,-7,65,66,22,10,100,159.42,0,-14.00,103.00,-1325.00
2024-06-07 15:06:33.473541,0,-3,6,0,0,-7,65,66,28,10,100,159.49,1,-2.00,56.00,-1076.00
2024-06-07 15:06:33.560853,0,-3,6,0,0,-7,65,66,37,20,100,159.62,1,21.00,30.00,-1037.00
2024-06-07 15:06:33.743521,0,-3,6,0,0,-6,65,66,45,20,100,159.68,1,-15.00,45.00,-941.00
2024-06-07 15:06:33.764829,0,-2,6,0,0,-5,65,66,53,30,100,159.69,1,-16.00,29.00,-959.00
2024-06-07 15:06:33.948320,0,-2,6,0,0,-4,65,66,60,30,100,159.73,1,33.00,14.00,-878.00
2024-06-07 15:06:33.973868,0,-2,6,0,0,-3,65,66,66,30,100,159.77,1,-19.00,38.00,-927.00
2024-06-07 15:06:34.070832,0,-1,6,0,0,-2,65,66,71,40,100,159.79,1,-7.00,10.00,-942.00
2024-06-07 15:06:34.255340,0,-1,6,0,0,-1,64,67,75,40,100,159.88,1,3.00,21.00,-895.00
2024-06-07 15:06:34.275048,0,-2,6,0,0,-1,64,67,80,40,100,159.89,1,-19.00,34.00,-913.00
2024-06-07 15:06:34.460420,0,-2,6,0,0,0,64,67,83,50,100,160.04,1,-4.00,22.00,-983.00
2024-06-07 15:06:34.460485,0,-2,6,0,0,0,64,67,86,50,100,160.02,2,-11.00,31.00,-959.00
2024-06-07 15:06:34.529612,0,-1,6,0,0,0,64,67,88,50,100,160.04,2,15.00,22.00,-991.00
2024-06-07 15:06:34.665089,0,-1,6,0,0,0,64,67,90,50,100,160.14,2,9.00,2.00,-973.00
2024-06-07 15:06:34.733546,0,-1,6,0,0,0,64,67,92,50,100,160.07,2,55.00,-51.00,-969.00
2024-06-07 15:06:34.835490,0,-1,7,0,0,0,64,67,94,50,100,160.10,2,6.00,-16.00,-1005.00
2024-06-07 15:06:34.972297,0,-1,7,0,0,0,64,67,94,60,100,160.02,2,-17.00,89.00,-987.00
2024-06-07 15:06:35.039479,0,-1,7,0,0,0,64,67,95,60,100,160.06,2,7.00,27.00,-969.00
2024-06-07 15:06:35.177650,0,-1,6,0,0,0,64,66,96,60,100,160.11,2,94.00,-92.00,-915.00
2024-06-07 15:06:35.243901,1,-1,6,0,0,0,64,66,95,60,100,160.10,2,-5.00,40.00,-1004.00
2024-06-07 15:06:35.382002,1,-1,6,0,0,0,64,66,95,60,100,160.07,2,18.00,0.00,-980.00
2024-06-07 15:06:35.447898,1,-1,6,0,0,0,64,66,95,60,100,160.14,3,-7.00,31.00,-1014.00
2024-06-07 15:06:35.549498,0,-2,6,0,0,0,64,66,95,60,100,160.07,3,32.00,3.00,-992.00
2024-06-07 15:06:35.690911,1,-2,6,0,0,0,64,66,96,60,100,160.07,3,39.00,8.00,-987.00
2024-06-07 15:06:35.753458,1,-1,6,0,0,1,64,66,94,60,100,160.06,3,76.00,-18.00,-1002.00
2024-06-07 15:06:35.855330,2,-1,6,0,0,1,64,66,94,60,100,160.00,3,3.00,26.00,-1041.00
2024-06-07 15:06:35.996242,2,-1,6,0,0,1,64,66,93,60,100,160.07,3,-6.00,41.00,-1001.00
2024-06-07 15:06:36.059409,1,-2,6,0,0,1,64,66,91,60,100,160.01,3,11.00,14.00,-965.00
2024-06-07 15:06:36.172009,0,-2,6,0,0,1,64,68,91,60,100,160.09,3,0.00,41.00,-969.00
2024-06-07 15:06:36.263966,0,-2,6,0,0,1,64,68,90,60,100,160.05,3,2.00,40.00,-988.00
2024-06-07 15:06:36.405881,1,-2,6,0,0,1,64,68,88,60,100,160.05,3,31.00,-3.00,-1005.00
2024-06-07 15:06:36.467417,0,-2,6,0,0,1,64,68,87,60,100,160.01,4,21.00,31.00,-1009.00
2024-06-07 15:06:36.610664,0,-3,5,0,0,1,64,68,86,50,100,160.02,4,16.00,24.00,-1023.00
2024-06-07 15:06:36.671419,0,-2,5,0,0,1,64,68,85,50,100,160.07,4,2.00,54.00,-944.00
2024-06-07 15:06:36.815445,1,-2,6,0,0,1,64,68,83,50,100,160.13,4,5.00,44.00,-994.00
2024-06-07 15:06:36.875500,0,-2,6,0,0,1,64,68,83,50,100,160.04,4,1.00,39.00,-1012.00
2024-06-07 15:06:37.020214,0,-2,6,0,0,0,64,68,82,50,100,159.98,4,31.00,27.00,-1000.00
2024-06-07 15:06:37.079494,0,-2,6,0,0,0,64,68,81,50,100,160.03,4,-20.00,15.00,-1029.00
2024-06-07 15:06:37.225033,0,-2,6,0,0,0,65,68,80,50,100,159.99,4,-7.00,39.00,-962.00
2024-06-07 15:06:37.283349,0,-2,6,0,0,0,65,68,78,50,100,160.04,4,12.00,28.00,-991.00
2024-06-07 15:06:37.429862,0,-2,6,0,0,0,65,68,78,50,100,159.96,4,15.00,41.00,-978.00
2024-06-07 15:06:37.491562,0,-2,6,0,0,0,65,68,78,50,100,160.01,5,-6.00,34.00,-987.00
2024-06-07 15:06:37.589586,0,-2,6,0,0,0,65,68,78,50,100,160.01,5,7.00,24.00,-1032.00
2024-06-07 15:06:37.737076,0,-2,6,0,0,0,65,68,78,50,100,159.94,5,5.00,34.00,-1044.00
2024-06-07 15:06:37.793403,0,-3,6,0,0,0,65,68,79,50,100,159.94,5,-7.00,35.00,-1012.00
2024-06-07 15:06:37.941856,0,-2,6,0,0,0,65,68,78,50,100,159.90,5,-19.00,49.00,-992.00
2024-06-07 15:06:37.946589,0,-2,6,0,0,0,65,68,79,50,100,160.05,5,-2.00,26.00,-983.00
2024-06-07 15:06:38.048679,0,-2,6,0,0,0,65,68,79,50,100,159.99,5,-18.00,38.00,-985.00
2024-06-07 15:06:38.249027,0,-2,6,0,0,0,65,67,79,50,100,159.96,5,-10.00,31.00,-987.00
2024-06-07 15:06:38.303382,0,-2,6,0,0,0,65,67,79,50,100,159.95,5,-30.00,35.00,-1025.00
2024-06-07 15:06:38.453822,0,-2,6,0,0,0,65,67,80,50,100,159.95,5,-9.00,23.00,-1041.00
2024-06-07 15:06:38.456561,0,-2,6,0,0,0,65,67,80,50,100,160.03,6,-18.00,38.00,-993.00
2024-06-07 15:06:38.558714,0,-2,6,0,0,0,65,67,80,50,100,159.93,6,-7.00,20.00,-1059.00
2024-06-07 15:06:38.660711,0,-2,6,0,0,0,65,67,79,50,100,160.00,6,-21.00,53.00,-999.00
2024-06-07 15:06:38.863508,0,-2,6,0,0,0,65,67,80,50,100,160.03,6,7.00,36.00,-983.00
2024-06-07 15:06:38.864718,0,-1,6,0,0,0,65,67,80,50,100,159.93,6,24.00,7.00,-974.00
2024-06-07 15:06:39.068535,0,-1,6,0,0,0,65,67,80,50,100,159.90,6,-1.00,16.00,-1015.00
2024-06-07 15:06:39.068740,0,-1,6,0,0,0,65,67,80,50,100,159.91,6,-13.00,30.00,-1045.00
2024-06-07 15:06:39.170732,0,-1,6,0,0,0,66,67,80,50,100,159.89,6,-24.00,24.00,-1008.00
2024-06-07 15:06:39.273239,0,-1,6,0,0,0,66,67,80,50,100,159.98,6,-24.00,32.00,-1049.00
2024-06-07 15:06:39.376869,0,-1,6,0,0,0,66,67,80,50,100,159.96,6,-17.00,12.00,-1011.00
2024-06-07 15:06:39.477850,0,-1,6,0,0,0,66,67,80,50,100,159.97,7,-13.00,30.00,-999.00
2024-06-07 15:06:39.580689,0,-1,6,0,0,0,66,67,80,50,100,159.92,7,3.00,15.00,-992.00
2024-06-07 15:06:39.680671,0,-1,6,0,0,0,66,67,80,50,100,159.97,7,49.00,19.00,-958.00
2024-06-07 15:06:39.785129,0,-1,6,0,0,0,66,67,81,50,100,159.99,7,15.00,14.00,-987.00
2024-06-07 15:06:39.885585,0,-1,6,0,0,0,66,67,80,50,100,159.92,7,-6.00,14.00,-1014.00
2024-06-07 15:06:39.986916,0,-1,6,0,0,0,66,67,81,50,100,159.90,7,15.00,23.00,-950.00
2024-06-07 15:06:40.092315,0,-1,6,0,0,0,66,67,81,50,100,160.00,7,-18.00,23.00,-1058.00
2024-06-07 15:06:40.191199,0,-1,6,0,0,0,65,68,81,50,100,159.90,7,-28.00,24.00,-1009.00
2024-06-07 15:06:40.297343,0,-1,6,0,0,0,65,68,81,50,100,159.93,7,-17.00,41.00,-994.00
2024-06-07 15:06:40.394767,0,-1,6,0,0,0,65,68,80,50,100,159.90,7,9.00,30.00,-1005.00
2024-06-07 15:06:40.496746,0,-2,6,0,0,0,65,68,81,50,100,159.92,8,-3.00,26.00,-963.00
2024-06-07 15:06:40.598768,0,-2,6,0,0,0,65,68,81,50,100,159.96,8,-7.00,31.00,-1020.00
2024-06-07 15:06:40.700560,0,-1,6,0,0,0,65,68,81,50,100,159.92,8,-31.00,57.00,-1061.00
2024-06-07 15:06:40.808993,0,-1,6,0,0,0,65,68,81,50,100,159.91,8,7.00,30.00,-1081.00
2024-06-07 15:06:40.904523,0,-2,6,0,0,0,65,68,81,50,100,160.04,8,-48.00,30.00,-1122.00
2024-06-07 15:06:41.006639,0,-2,6,0,0,-1,65,68,83,50,100,160.02,8,-24.00,62.00,-1130.00
2024-06-07 15:06:41.116218,0,-1,6,0,0,-2,65,68,85,50,100,160.05,8,-39.00,63.00,-1117.00
2024-06-07 15:06:41.210509,0,-2,6,0,0,-3,66,68,89,60,100,160.10,8,-22.00,52.00,-1065.00
2024-06-07 15:06:41.321049,0,-2,6,0,0,-4,66,68,94,60,100,160.17,8,26.00,3.00,-1006.00
2024-06-07 15:06:41.414480,0,-2,6,0,0,-4,66,68,99,60,100,160.13,8,-10.00,-15.00,-1074.00
2024-06-07 15:06:41.525955,0,-1,6,0,0,-4,66,68,104,70,100,160.16,9,-42.00,23.00,-1047.00
2024-06-07 15:06:41.618144,0,-1,6,0,0,-5,66,68,110,70,100,160.23,9,-36.00,44.00,-1055.00
2024-06-07 15:06:41.730640,0,-1,6,0,0,-5,66,68,115,80,100,160.32,9,-24.00,32.00,-987.00
2024-06-07 15:06:41.822583,0,-1,6,0,0,-5,66,68,122,90,100,160.40,9,-6.00,20.00,-973.00
2024-06-07 15:06:41.924435,0,-1,6,0,0,-5,66,68,126,90,100,160.41,9,-9.00,19.00,-960.00
2024-06-07 15:06:42.037812,0,-1,6,0,0,-5,66,68,133,100,100,160.47,9,-15.00,21.00,-974.00
2024-06-07 15:06:42.128161,0,-1,6,0,0,-5,66,68,137,100,100,160.48,9,-13.00,1.00,-973.00
2024-06-07 15:06:42.242649,0,-1,6,0,0,-4,67,69,145,110,100,160.50,9,-14.00,10.00,-959.00
2024-06-07 15:06:42.332482,0,-1,6,0,0,-4,67,69,150,110,100,160.53,9,-9.00,6.00,-889.00
2024-06-07 15:06:42.438033,0,-1,6,0,0,-3,67,69,152,120,100,160.64,9,0.00,-12.00,-957.00
2024-06-07 15:06:42.485138,0,0,6,0,0,-3,67,69,156,120,100,160.61,10,-16.00,3.00,-1019.00
2024-06-07 15:06:42.652467,0,0,6,0,0,-3,67,69,161,120,100,160.70,10,-34.00,21.00,-1009.00
2024-06-07 15:06:42.690474,0,0,6,0,0,-3,67,69,162,130,100,160.72,10,-40.00,-14.00,-979.00
2024-06-07 15:06:42.857029,0,0,6,0,0,-2,67,69,164,130,100,160.70,10,-25.00,4.00,-956.00
2024-06-07 15:06:42.893138,0,0,6,0,0,-2,67,69,167,130,100,160.75,10,-38.00,0.00,-1011.00
2024-06-07 15:06:43.062002,0,0,6,0,0,-2,67,69,169,130,100,160.78,10,-56.00,16.00,-970.00
2024-06-07 15:06:43.097192,0,0,6,0,0,-1,67,69,172,140,100,160.80,10,-12.00,-8.00,-927.00
2024-06-07 15:06:43.266609,0,0,6,0,0,-1,67,68,175,140,100,160.84,10,-11.00,14.00,-1001.00
2024-06-07 15:06:43.301167,0,0,6,0,0,-1,67,68,177,140,100,160.86,10,-14.00,1.00,-1012.00
2024-06-07 15:06:43.471777,0,0,6,0,0,-1,67,68,180,140,100,160.88,10,9.00,19.00,-972.00
2024-06-07 15:06:43.506257,0,0,6,0,0,-1,67,68,181,140,100,160.83,11,-19.00,20.00,-980.00
2024-06-07 15:06:43.676938,0,0,6,0,0,-1,67,68,183,150,100,160.91,11,-6.00,10.00,-979.00
2024-06-07 15:06:43.710395,0,-1,6,0,0,-1,67,68,183,150,100,160.91,11,-20.00,31.00,-979.00
2024-06-07 15:06:43.883275,0,-1,6,0,0,0,67,68,181,150,100,160.91,11,-17.00,25.00,-935.00
2024-06-07 15:06:43.914480,0,-1,6,0,0,0,67,68,180,150,100,160.93,11,-29.00,31.00,-1022.00
2024-06-07 15:06:44.086186,0,-1,6,0,0,0,67,68,180,150,100,160.89,11,6.00,-2.00,-969.00
2024-06-07 15:06:44.118107,0,-1,6,0,0,0,67,68,179,150,100,160.89,11,1.00,20.00,-994.00
2024-06-07 15:06:44.293861,0,-1,6,0,0,0,67,69,183,150,100,160.94,11,-25.00,5.00,-995.00
2024-06-07 15:06:44.324987,0,-1,6,0,0,0,67,69,182,150,100,160.93,11,3.00,-1.00,-994.00
2024-06-07 15:06:44.424775,0,0,6,0,0,0,67,69,181,150,100,160.97,11,29.00,-3.00,-936.00
2024-06-07 15:06:44.598803,0,0,6,0,0,0,67,69,180,150,100,160.92,12,19.00,8.00,-1027.00
2024-06-07 15:06:44.630429,0,0,6,0,0,0,67,69,181,150,100,160.93,12,-7.00,11.00,-991.00
2024-06-07 15:06:44.730923,0,-1,6,0,0,0,67,69,181,150,100,160.91,12,-7.00,23.00,-941.00
2024-06-07 15:06:44.832596,0,-1,6,0,0,0,67,69,182,150,100,160.89,12,-16.00,14.00,-1005.00
2024-06-07 15:06:45.007565,0,-1,6,0,0,0,67,69,183,150,100,160.95,12,-33.00,24.00,-987.00
2024-06-07 15:06:45.036644,0,-1,6,0,0,0,67,69,184,150,100,160.92,12,37.00,-19.00,-977.00
2024-06-07 15:06:45.214622,0,-1,6,0,0,0,67,69,183,150,100,160.99,12,-18.00,-2.00,-1007.00
2024-06-07 15:06:45.245789,0,0,6,0,0,0,67,69,182,150,100,160.95,12,0.00,16.00,-975.00
2024-06-07 15:06:45.342943,0,0,6,0,0,0,67,69,181,150,100,160.91,12,-10.00,-5.00,-1023.00
2024-06-07 15:06:45.475004,0,0,6,0,0,0,67,69,182,150,100,160.95,12,-3.00,33.00,-964.00
2024-06-07 15:06:45.546232,0,-1,6,0,0,0,67,69,181,150,100,160.97,13,2.00,5.00,-1025.00
2024-06-07 15:06:45.724135,0,-1,6,0,0,0,67,69,184,150,100,160.93,13,4.00,-8.00,-952.00
2024-06-07 15:06:45.757544,0,-1,6,0,0,0,67,69,180,150,100,160.88,13,7.00,28.00,-920.00
2024-06-07 15:06:45.800885,0,-1,6,0,0,0,67,69,180,150,100,160.93,13,-13.00,42.00,-969.00
2024-06-07 15:06:45.929098,0,-1,6,0,0,1,67,69,178,150,100,160.95,13,-24.00,33.00,-953.00
2024-06-07 15:06:46.005284,0,-1,6,0,0,1,67,69,177,150,100,160.89,13,-62.00,15.00,-1019.00
2024-06-07 15:06:46.135728,0,-1,6,0,0,2,67,69,174,140,100,160.82,13,-73.00,35.00,-969.00
2024-06-07 15:06:46.209109,0,-1,6,0,0,2,66,69,172,140,100,160.86,13,-35.00,35.00,-952.00
2024-06-07 15:06:46.338686,0,-1,6,0,0,2,66,69,169,140,100,160.88,13,-25.00,32.00,-945.00
2024-06-07 15:06:46.413043,-1,-1,6,0,0,2,66,69,165,140,100,160.79,13,-26.00,36.00,-990.00
2024-06-07 15:06:46.514988,-1,-1,6,0,0,2,66,69,162,130,100,160.75,14,-53.00,26.00,-1023.00
2024-06-07 15:06:46.647945,-1,-1,6,0,0,2,66,69,161,130,100,160.80,14,0.00,31.00,-940.00
2024-06-07 15:06:46.718932,-1,-1,6,0,0,2,66,69,157,130,100,160.78,14,-28.00,25.00,-1006.00
2024-06-07 15:06:46.850637,0,-1,6,0,0,2,66,69,154,130,100,160.67,14,-12.00,41.00,-1033.00
2024-06-07 15:06:46.922998,0,-1,6,0,0,2,66,69,152,120,100,160.67,14,-27.00,23.00,-1102.00
2024-06-07 15:06:47.055760,0,-1,6,0,0,2,66,69,150,120,100,160.68,14,-12.00,31.00,-1022.00
2024-06-07 15:06:47.126862,0,-1,6,0,0,2,66,69,148,120,100,160.63,14,24.00,7.00,-1014.00
2024-06-07 15:06:47.260405,0,-1,6,0,0,1,67,69,146,110,100,160.59,14,-14.00,12.00,-972.00
2024-06-07 15:06:47.330914,0,-1,6,0,0,1,67,69,143,110,100,160.61,14,-1.00,27.00,-1022.00
2024-06-07 15:06:47.465099,0,0,6,0,0,1,67,69,142,110,100,160.61,15,21.00,9.00,-1056.00
2024-06-07 15:06:47.534956,0,-1,6,0,0,1,67,69,138,110,100,160.62,15,-10.00,34.00,-1017.00
2024-06-07 15:06:47.669921,0,-1,6,0,0,1,67,69,141,110,100,160.60,15,-1.00,28.00,-996.00
2024-06-07 15:06:47.738974,0,-1,6,0,0,1,67,69,138,110,100,160.49,15,-14.00,23.00,-985.00
2024-06-07 15:06:47.874612,0,-1,6,0,0,0,67,69,137,110,100,160.47,15,-24.00,39.00,-1052.00
2024-06-07 15:06:47.942917,0,-1,6,0,0,0,67,69,138,110,100,160.47,15,-29.00,45.00,-1019.00
2024-06-07 15:06:48.079565,0,-1,6,0,0,0,67,69,137,100,100,160.53,15,-27.00,16.00,-1023.00
2024-06-07 15:06:48.146925,0,-1,6,0,0,0,67,69,137,100,100,160.53,15,-8.00,31.00,-982.00
2024-06-07 15:06:48.284410,0,-1,6,0,0,0,67,70,136,100,100,160.48,15,7.00,9.00,-1019.00
2024-06-07 15:06:48.350952,0,-1,6,0,0,0,67,70,135,100,100,160.52,15,-7.00,28.00,-1015.00
2024-06-07 15:06:48.489052,0,-1,6,0,0,0,67,70,134,100,100,160.44,16,2.00,33.00,-1005.00
2024-06-07 15:06:48.556261,0,-1,6,0,0,0,67,70,135,100,100,160.58,16,-2.00,14.00,-1014.00
2024-06-07 15:06:48.693887,0,-1,6,0,0,0,67,70,135,100,100,160.59,16,-12.00,24.00,-987.00
2024-06-07 15:06:48.758921,0,-1,6,0,0,0,67,70,133,100,100,160.51,16,-22.00,26.00,-1010.00
2024-06-07 15:06:48.898858,0,-1,6,0,0,0,67,70,134,100,100,160.52,16,0.00,23.00,-1000.00
2024-06-07 15:06:48.962946,0,-1,6,0,0,0,67,70,135,100,100,160.54,16,-11.00,17.00,-996.00
2024-06-07 15:06:49.065002,0,-1,6,0,0,0,67,70,133,100,100,160.53,16,-2.00,30.00,-984.00
2024-06-07 15:06:49.206089,0,-1,6,0,0,0,67,70,135,100,100,160.53,16,-30.00,30.00,-1026.00
2024-06-07 15:06:49.268999,0,-1,6,0,0,0,67,70,136,100,100,160.49,16,-28.00,38.00,-983.00
2024-06-07 15:06:49.410975,0,-1,6,0,0,0,67,70,136,100,100,160.57,16,2.00,5.00,-966.00
2024-06-07 15:06:49.473267,0,-1,6,0,0,0,67,70,137,100,100,160.52,17,-17.00,30.00,-1038.00
2024-06-07 15:06:49.617501,0,-1,6,0,0,0,67,70,137,100,100,160.50,17,20.00,1.00,-947.00
2024-06-07 15:06:49.678877,0,-1,6,0,0,0,67,70,138,100,100,160.56,17,2.00,4.00,-968.00
2024-06-07 15:06:49.822314,0,-1,6,0,0,0,67,70,138,110,100,160.51,17,10.00,15.00,-960.00
2024-06-07 15:06:49.881773,0,-1,6,0,0,0,67,70,138,110,100,160.56,17,-18.00,27.00,-980.00
2024-06-07 15:06:50.024930,0,-1,6,0,0,0,67,70,138,110,100,160.56,17,-31.00,37.00,-945.00
2024-06-07 15:06:50.035062,0,-1,6,0,0,0,67,70,139,110,100,160.50,17,-11.00,29.00,-969.00
2024-06-07 15:06:50.136660,0,-1,6,0,0,0,67,70,138,110,100,160.64,17,-11.00,7.00,-995.00
2024-06-07 15:06:50.332382,-3,-1,6,0,0,0,68,70,140,110,100,160.55,17,8.00,-32.00,-997.00
2024-06-07 15:06:50.340640,-8,-1,6,0,0,0,68,70,142,110,100,160.53,17,-48.00,54.00,-1010.00
2024-06-07 15:06:50.538183,-8,0,6,2,0,0,68,70,141,110,100,160.55,18,-68.00,31.00,-1066.00
2024-06-07 15:06:50.544657,-8,-1,6,3,0,0,68,70,142,110,100,160.56,18,-21.00,16.00,-994.00
2024-06-07 15:06:50.741616,-8,0,6,4,0,0,68,70,141,110,100,160.48,18,-18.00,3.00,-972.00
2024-06-07 15:06:50.748897,-8,0,6,5,0,0,68,70,141,110,100,160.42,18,-43.00,22.00,-966.00
2024-06-07 15:06:50.946585,-7,0,6,6,0,0,68,70,142,110,100,160.39,18,-42.00,0.00,-993.00
2024-06-07 15:06:50.952584,-6,0,6,6,0,0,68,70,141,110,100,160.42,18,-57.00,14.00,-1016.00
2024-06-07 15:06:51.151594,-5,0,6,7,0,0,68,70,140,110,100,160.47,18,-61.00,6.00,-994.00
2024-06-07 15:06:51.156657,-2,0,6,7,0,0,68,70,140,110,100,160.42,18,-64.00,-8.00,-984.00
2024-06-07 15:06:51.355981,0,0,6,6,0,0,69,71,141,110,100,160.45,18,-63.00,-33.00,-989.00
2024-06-07 15:06:51.362542,2,0,6,5,0,0,69,71,138,110,100,160.52,18,-54.00,17.00,-970.00
2024-06-07 15:06:51.463006,3,0,6,4,0,0,69,71,140,110,100,160.44,19,-60.00,12.00,-1016.00
2024-06-07 15:06:51.564683,1,0,6,3,0,0,69,71,138,110,100,160.59,19,-70.00,-4.00,-989.00
2024-06-07 15:06:51.666591,0,0,6,3,0,0,69,71,139,110,100,160.55,19,-32.00,8.00,-963.00
2024-06-07 15:06:51.768950,0,0,6,3,0,0,69,71,138,110,100,160.56,19,-76.00,41.00,-967.00
2024-06-07 15:06:51.870584,0,0,6,3,0,0,69,71,138,110,100,160.53,19,-71.00,32.00,-973.00
2024-06-07 15:06:51.972579,0,-1,6,3,0,0,69,71,138,110,100,160.55,19,-46.00,10.00,-1014.00
2024-06-07 15:06:52.074567,0,-1,6,2,0,0,69,71,139,110,100,160.52,19,-39.00,10.00,-989.00
2024-06-07 15:06:52.277573,-1,-1,6,2,0,0,69,71,139,110,100,160.56,19,-52.00,24.00,-987.00
2024-06-07 15:06:52.278535,-1,-1,6,2,0,0,69,71,139,110,100,160.47,19,-32.00,0.00,-1000.00
2024-06-07 15:06:52.482619,0,-1,6,2,0,0,69,71,137,110,100,160.52,19,-42.00,10.00,-1000.00
2024-06-07 15:06:52.482774,2,0,6,2,0,0,69,71,137,110,100,160.43,20,-1.00,-26.00,-1006.00
2024-06-07 15:06:52.596829,3,0,6,1,0,0,69,71,138,110,100,160.56,20,-29.00,-9.00,-999.00
2024-06-07 15:06:52.687088,1,0,6,0,0,0,69,71,137,110,100,160.51,20,-7.00,-15.00,-1009.00
2024-06-07 15:06:52.789626,0,0,6,0,0,0,69,71,137,110,100,160.57,20,-71.00,32.00,-957.00
2024-06-07 15:06:52.892076,0,0,6,0,0,0,69,71,136,110,100,160.54,20,-18.00,23.00,-999.00
2024-06-07 15:06:52.994604,-1,0,6,0,0,0,69,71,136,110,100,160.52,20,-11.00,-2.00,-1031.00
2024-06-07 15:06:53.094579,0,0,6,0,0,0,69,71,137,100,100,160.52,20,-4.00,4.00,-980.00
2024-06-07 15:06:53.199328,0,0,6,0,0,0,69,71,137,110,100,160.58,20,-39.00,5.00,-1049.00
2024-06-07 15:06:53.298798,0,0,6,0,0,0,69,71,137,110,100,160.58,20,-43.00,4.00,-982.00
2024-06-07 15:06:53.404079,0,0,6,0,0,0,69,71,137,110,100,160.55,20,-17.00,0.00,-986.00
2024-06-07 15:06:53.504065,0,0,6,0,0,0,69,71,137,110,100,160.49,21,-34.00,8.00,-981.00
2024-06-07 15:06:53.604561,0,0,6,0,0,0,69,71,136,110,100,160.56,21,-17.00,0.00,-962.00
2024-06-07 15:06:53.711204,-1,0,6,0,0,0,69,71,137,110,100,160.64,21,-36.00,11.00,-976.00
2024-06-07 15:06:53.808686,-1,0,6,0,0,0,69,71,139,110,100,160.55,21,3.00,-1.00,-939.00
2024-06-07 15:06:53.916133,-1,0,6,0,0,0,69,71,137,110,100,160.56,21,-1.00,-8.00,-995.00
2024-06-07 15:06:53.961710,-1,0,6,0,0,0,69,71,136,110,100,160.50,21,-31.00,25.00,-966.00
2024-06-07 15:06:54.122277,0,0,6,0,0,0,69,71,137,110,100,160.52,21,-19.00,17.00,-983.00
2024-06-07 15:06:54.165802,0,0,6,0,0,0,69,71,136,110,100,160.54,21,-19.00,9.00,-1006.00
2024-06-07 15:06:54.326217,0,0,6,0,0,0,69,71,135,100,100,160.60,21,6.00,-22.00,-970.00
2024-06-07 15:06:54.420908,0,0,6,0,0,0,69,71,136,100,100,160.58,21,-28.00,13.00,-1035.00
2024-06-07 15:06:54.531002,0,0,6,0,0,0,69,71,137,100,100,160.57,22,-37.00,9.00,-1011.00
2024-06-07 15:06:54.624703,0,0,6,0,0,0,69,71,136,100,100,160.65,22,-12.00,8.00,-981.00
2024-06-07 15:06:54.726485,0,0,6,0,0,0,69,71,136,100,100,160.59,22,-2.00,-16.00,-994.00
2024-06-07 15:06:54.779747,0,0,6,0,0,0,69,71,136,100,100,160.61,22,-31.00,29.00,-1002.00
2024-06-07 15:06:54.880177,0,0,6,0,0,0,69,71,136,100,100,160.57,22,-16.00,7.00,-985.00
2024-06-07 15:06:54.981469,6,-1,6,0,0,0,69,71,136,100,100,160.55,22,26.00,11.00,-989.00
2024-06-07 15:06:55.083436,8,-1,6,-1,0,0,69,71,137,100,100,160.54,22,2.00,8.00,-1016.00
2024-06-07 15:06:55.247249,8,-1,6,-3,0,0,69,71,138,100,100,160.58,22,-1.00,17.00,-995.00
2024-06-07 15:06:55.287467,7,-1,6,-4,0,0,69,72,139,100,100,160.59,22,5.00,2.00,-998.00
2024-06-07 15:06:55.460284,6,-1,6,-5,0,0,69,72,138,100,100,160.66,22,-31.00,39.00,-990.00
2024-06-07 15:06:55.492041,5,-1,6,-6,0,0,69,72,139,100,100,160.55,23,-21.00,25.00,-1078.00
2024-06-07 15:06:55.656995,5,-1,6,-6,0,0,69,72,140,110,100,160.62,23,17.00,9.00,-933.00
2024-06-07 15:06:55.695375,4,-1,6,-7,0,0,69,72,140,110,100,160.53,23,34.00,-12.00,-1045.00
2024-06-07 15:06:55.861726,2,-1,6,-7,0,0,69,72,140,110,100,160.59,23,81.00,-30.00,-956.00
2024-06-07 15:06:55.899629,0,0,6,-7,-1,0,69,72,141,110,100,160.61,23,24.00,24.00,-977.00
2024-06-07 15:06:56.066635,-1,0,6,-6,0,0,69,72,142,110,100,160.60,23,48.00,-10.00,-941.00
2024-06-07 15:06:56.103633,-3,0,6,-5,0,0,69,72,142,110,100,160.54,23,39.00,-13.00,-986.00
2024-06-07 15:06:56.271233,-3,0,6,-4,0,0,69,72,143,110,100,160.66,23,37.00,8.00,-973.00
2024-06-07 15:06:56.307853,-2,0,6,-3,0,0,70,72,143,110,100,160.63,23,13.00,3.00,-973.00
2024-06-07 15:06:56.476190,0,0,6,-2,0,0,70,72,143,110,100,160.63,23,37.00,-14.00,-961.00
2024-06-07 15:06:56.511653,0,0,6,-2,0,0,70,72,144,110,100,160.66,24,20.00,12.00,-935.00
2024-06-07 15:06:56.680762,0,0,6,-2,0,0,70,72,144,110,100,160.71,24,12.00,7.00,-982.00
2024-06-07 15:06:56.715297,0,0,6,-2,0,0,70,72,142,110,100,160.68,24,7.00,3.00,-964.00
2024-06-07 15:06:56.885941,0,0,6,-2,0,0,70,72,142,110,100,160.71,24,-8.00,-10.00,-1003.00
2024-06-07 15:06:56.919384,0,0,6,-2,0,0,70,72,141,110,100,160.57,24,21.00,-4.00,-1000.00
2024-06-07 15:06:57.021369,0,0,6,-2,0,0,70,72,139,110,100,160.59,24,70.00,-50.00,-1018.00
2024-06-07 15:06:57.123673,0,0,6,-2,0,0,70,72,139,110,100,160.64,24,-1.00,-20.00,-1044.00
2024-06-07 15:06:57.295344,1,0,6,-2,0,0,70,72,138,110,100,160.58,24,18.00,-17.00,-1008.00
2024-06-07 15:06:57.327785,0,0,6,-2,0,0,69,71,139,110,100,160.65,24,37.00,-52.00,-1011.00
2024-06-07 15:06:57.500015,1,0,6,-1,0,0,69,71,137,110,100,160.64,24,-21.00,-8.00,-1008.00
2024-06-07 15:06:57.533225,1,1,6,-1,0,0,69,71,137,110,100,160.62,25,-11.00,-15.00,-973.00
2024-06-07 15:06:57.633673,1,1,6,-1,0,0,69,71,137,100,100,160.54,25,36.00,-34.00,-1057.00
2024-06-07 15:06:57.807612,1,1,6,-1,0,0,69,71,138,100,100,160.59,25,25.00,-50.00,-1016.00
2024-06-07 15:06:57.837291,1,1,6,-1,0,0,69,71,138,100,100,160.54,25,-8.00,-19.00,-1011.00
2024-06-07 15:06:58.012148,0,1,6,-2,0,0,69,71,138,100,100,160.48,25,-5.00,-9.00,-964.00
2024-06-07 15:06:58.041501,-5,0,6,-1,0,0,69,71,141,100,100,160.62,25,5.00,-15.00,-966.00
2024-06-07 15:06:58.143753,-3,0,6,0,0,0,69,71,140,110,100,160.67,25,23.00,-43.00,-980.00
2024-06-07 15:06:58.194427,-1,0,6,0,0,0,69,71,140,110,100,160.62,25,-17.00,-14.00,-962.00
2024-06-07 15:06:58.349722,0,0,6,0,0,0,70,72,139,110,100,160.62,25,-21.00,22.00,-1034.00
2024-06-07 15:06:58.398438,0,0,6,0,0,0,70,72,140,110,100,160.67,25,-3.00,-43.00,-986.00
2024-06-07 15:06:58.524455,0,0,6,0,0,0,70,72,138,110,100,160.63,26,-44.00,35.00,-1060.00
2024-06-07 15:06:58.603339,0,0,6,0,0,0,70,72,140,110,100,160.67,26,18.00,-7.00,-966.00
2024-06-07 15:06:58.729417,0,0,6,0,0,0,70,72,140,110,100,160.64,26,19.00,-24.00,-1052.00
2024-06-07 15:06:58.806432,0,0,6,0,0,0,70,72,140,110,100,160.59,26,-25.00,-10.00,-962.00
2024-06-07 15:06:58.908443,0,0,6,0,0,0,70,72,140,110,100,160.60,26,-15.00,12.00,-1062.00
2024-06-07 15:06:59.036093,0,0,6,0,0,0,70,72,141,110,100,160.61,26,-22.00,-2.00,-931.00
2024-06-07 15:06:59.112356,0,0,6,0,0,0,70,72,141,110,100,160.69,26,-21.00,13.00,-992.00
2024-06-07 15:06:59.241202,0,0,6,0,0,0,70,72,142,110,100,160.60,26,-38.00,12.00,-968.00
2024-06-07 15:06:59.318573,0,0,6,0,0,0,70,72,143,110,100,160.58,26,-9.00,10.00,-971.00
2024-06-07 15:06:59.418653,0,0,6,0,0,0,70,72,143,110,100,160.62,26,0.00,-5.00,-958.00
2024-06-07 15:06:59.520325,0,0,6,0,0,0,70,72,140,110,100,160.62,27,-46.00,26.00,-1011.00
2024-06-07 15:06:59.650836,0,0,6,0,0,0,70,72,141,110,100,160.70,27,-7.00,15.00,-964.00
2024-06-07 15:06:59.724267,0,0,6,0,0,0,70,72,140,110,100,160.62,27,6.00,8.00,-996.00
2024-06-07 15:06:59.855263,0,0,6,0,0,0,70,72,139,110,100,160.69,27,-3.00,-10.00,-1076.00
2024-06-07 15:06:59.928360,0,0,6,0,0,0,70,72,139,110,100,160.67,27,-33.00,23.00,-995.00
2024-06-07 15:07:00.030192,0,0,6,0,0,0,70,72,139,110,100,160.64,27,-33.00,17.00,-1018.00
2024-06-07 15:07:00.132256,0,0,6,0,0,0,70,72,138,110,100,160.60,27,-36.00,4.00,-1032.00
2024-06-07 15:07:00.234154,0,0,6,0,0,0,70,72,137,110,100,160.62,27,5.00,21.00,-956.00
2024-06-07 15:07:00.367153,-1,-8,6,0,0,0,70,73,138,100,100,160.62,27,-44.00,30.00,-1050.00
2024-06-07 15:07:00.438152,0,-8,6,0,-1,0,70,73,139,100,100,160.53,28,-30.00,37.00,-1018.00
2024-06-07 15:07:00.571909,0,-6,6,0,-3,0,70,73,137,100,100,160.58,28,-22.00,49.00,-1043.00
2024-06-07 15:07:00.642179,0,-3,6,0,-3,0,70,73,136,100,100,160.66,28,-4.00,39.00,-956.00
2024-06-07 15:07:00.746584,0,0,6,0,-3,0,70,73,134,100,100,160.58,28,-5.00,41.00,-996.00
2024-06-07 15:07:00.846085,0,0,6,0,-3,0,70,73,134,100,100,160.55,28,-16.00,38.00,-934.00
2024-06-07 15:07:00.948232,0,0,6,0,-2,0,70,73,133,100,100,160.61,28,-53.00,67.00,-975.00
2024-06-07 15:07:01.084283,0,-1,6,0,-1,0,70,73,134,100,100,160.61,28,-27.00,38.00,-983.00
2024-06-07 15:07:01.152092,0,-2,6,0,-1,0,70,73,132,100,100,160.61,28,-26.00,44.00,-978.00
2024-06-07 15:07:01.288661,0,-2,6,0,-2,0,70,73,131,100,100,160.58,28,-27.00,27.00,-1047.00
2024-06-07 15:07:01.356090,0,-2,6,0,-2,0,71,73,131,100,100,160.59,28,-42.00,51.00,-1005.00
2024-06-07 15:07:01.493499,0,-1,6,0,-2,0,71,73,130,100,100,160.56,29,-15.00,29.00,-1028.00
2024-06-07 15:07:01.560102,0,-1,6,0,-2,0,71,73,128,100,100,160.58,29,-4.00,50.00,-998.00
2024-06-07 15:07:01.698380,0,-1,6,0,-2,0,71,73,128,100,100,160.52,29,-21.00,49.00,-1011.00
2024-06-07 15:07:01.764262,0,-1,6,0,-2,0,71,73,128,100,100,160.57,29,2.00,32.00,-991.00
2024-06-07 15:07:01.866185,1,-1,6,0,-2,0,71,73,128,100,100,160.59,29,0.00,35.00,-1004.00
2024-06-07 15:07:01.969082,2,0,6,0,-2,0,71,73,127,100,100,160.60,29,-31.00,56.00,-1053.00
2024-06-07 15:07:02.019163,2,0,6,0,-2,0,71,73,127,100,100,160.58,29,-32.00,50.00,-1004.00
2024-06-07 15:07:02.121535,2,0,6,-1,-1,0,71,73,126,100,100,160.52,29,-6.00,37.00,-950.00
2024-06-07 15:07:02.313596,1,2,6,-1,-1,0,71,73,127,100,100,160.62,29,-33.00,48.00,-992.00
2024-06-07 15:07:02.376036,-4,1,6,-1,0,0,70,73,127,100,100,160.58,29,-14.00,33.00,-980.00
2024-06-07 15:07:02.426985,-3,0,6,0,0,0,70,73,128,100,100,160.57,30,-43.00,40.00,-1016.00
2024-06-07 15:07:02.529195,-1,0,6,0,0,0,70,73,128,100,100,160.58,30,-3.00,6.00,-969.00
2024-06-07 15:07:02.722621,0,0,6,0,0,0,70,73,129,100,100,160.53,30,0.00,22.00,-896.00
2024-06-07 15:07:02.733042,0,0,6,0,0,0,70,73,129,100,100,160.54,30,-3.00,11.00,-998.00
2024-06-07 15:07:02.927315,0,0,6,0,0,0,70,73,129,100,100,160.60,30,-1.00,27.00,-933.00
2024-06-07 15:07:02.936995,0,0,6,0,0,0,70,73,131,100,100,160.58,30,-2.00,41.00,-990.00
2024-06-07 15:07:03.132028,0,0,6,0,0,0,70,73,131,100,100,160.53,30,6.00,8.00,-959.00
2024-06-07 15:07:03.141174,0,0,6,0,0,0,70,73,132,100,100,160.63,30,-35.00,4.00,-1001.00
2024-06-07 15:07:03.336829,0,0,6,0,0,0,70,73,132,100,100,160.59,30,-13.00,7.00,-1027.00
2024-06-07 15:07:03.344938,0,0,6,0,0,0,71,73,131,100,100,160.61,30,-33.00,16.00,-1002.00
2024-06-07 15:07:03.541780,0,0,6,0,0,0,71,73,133,100,100,160.61,31,2.00,9.00,-1038.00
2024-06-07 15:07:03.549354,0,0,6,0,0,0,71,73,132,100,100,160.57,31,2.00,-11.00,-1017.00
2024-06-07 15:07:03.651299,0,0,6,0,0,0,71,73,133,100,100,160.59,31,-22.00,-17.00,-981.00
2024-06-07 15:07:03.848883,0,0,6,0,0,0,71,73,133,100,100,160.58,31,-28.00,19.00,-951.00
2024-06-07 15:07:03.855404,0,0,6,0,0,0,71,73,134,100,100,160.63,31,34.00,-20.00,-978.00
2024-06-07 15:07:03.984839,0,0,6,0,0,0,71,73,135,100,100,160.59,31,-28.00,13.00,-1038.00
2024-06-07 15:07:04.059045,0,0,6,0,0,0,71,73,134,100,100,160.59,31,-50.00,7.00,-976.00
2024-06-07 15:07:04.160995,0,0,6,0,0,0,71,73,136,100,100,160.64,31,-23.00,14.00,-1019.00
2024-06-07 15:07:04.360899,0,0,6,0,0,0,71,73,135,100,100,160.67,31,5.00,-9.00,-956.00
2024-06-07 15:07:04.365818,0,0,6,0,0,0,71,73,135,100,100,160.62,31,-13.00,4.00,-974.00
2024-06-07 15:07:04.467025,0,0,6,0,0,0,71,73,135,100,100,160.62,32,-2.00,-11.00,-1055.00
2024-06-07 15:07:04.568905,0,0,6,0,0,0,71,73,135,100,100,160.67,32,-26.00,6.00,-1096.00
2024-06-07 15:07:04.671045,0,2,6,0,0,0,71,73,134,110,100,160.67,32,42.00,-30.00,-979.00
2024-06-07 15:07:04.773364,-1,7,6,0,1,0,71,73,137,110,100,160.63,32,-2.00,0.00,-987.00
2024-06-07 15:07:04.875174,0,6,6,0,2,0,71,73,136,110,100,160.65,32,-57.00,15.00,-1000.00
2024-06-07 15:07:04.976920,0,4,6,0,3,0,71,73,136,100,100,160.60,32,-39.00,0.00,-1042.00
2024-06-07 15:07:05.179831,0,1,6,0,4,0,71,73,136,100,100,160.62,32,-9.00,-16.00,-1075.00
2024-06-07 15:07:05.180967,0,-1,6,0,3,0,71,73,137,100,100,160.56,32,-3.00,-50.00,-1005.00
2024-06-07 15:07:05.384692,0,-1,6,0,2,0,71,73,138,110,100,160.67,32,-13.00,-9.00,-956.00
2024-06-07 15:07:05.385939,0,0,6,0,2,0,71,73,138,110,100,160.60,32,-28.00,-10.00,-1007.00
2024-06-07 15:07:05.487363,-1,0,6,0,1,0,71,73,138,110,100,160.61,33,-37.00,-14.00,-969.00
2024-06-07 15:07:05.589153,-2,1,6,0,2,0,71,73,137,110,100,160.61,33,-50.00,-4.00,-952.00
2024-06-07 15:07:05.692132,-1,1,6,0,2,0,71,73,135,110,100,160.60,33,-46.00,10.00,-995.00
2024-06-07 15:07:05.794494,-1,0,6,0,2,0,71,73,136,110,100,160.62,33,-6.00,-3.00,-944.00
2024-06-07 15:07:05.894840,0,0,6,0,2,0,71,73,134,110,100,160.69,33,-36.00,12.00,-1023.00
2024-06-07 15:07:05.999321,0,0,6,0,2,0,71,73,134,100,100,160.62,33,15.00,0.00,-978.00
2024-06-07 15:07:06.101457,2,0,6,0,2,0,71,73,132,100,100,160.59,33,-19.00,-20.00,-1061.00
2024-06-07 15:07:06.200982,2,0,6,0,2,0,71,73,133,100,100,160.65,33,-38.00,-17.00,-1112.00
2024-06-07 15:07:06.306634,1,0,6,-1,1,0,71,73,133,100,100,160.62,33,-3.00,-22.00,-1001.00
2024-06-07 15:07:06.404875,0,0,6,-1,1,0,71,74,132,100,100,160.62,33,-48.00,2.00,-943.00
2024-06-07 15:07:06.510948,-3,1,6,0,1,0,71,74,131,100,100,160.67,34,13.00,-6.00,-985.00
2024-06-07 15:07:06.557903,-1,0,6,0,2,0,71,74,132,100,100,160.60,34,-4.00,1.00,-952.00
2024-06-07 15:07:06.717142,0,-5,6,0,1,0,71,74,133,100,100,160.64,34,-38.00,-17.00,-1038.00
2024-06-07 15:07:06.761820,0,-3,6,0,1,0,71,74,132,100,100,160.58,34,-41.00,1.00,-1023.00
2024-06-07 15:07:06.920683,2,-1,6,0,0,0,71,74,131,100,100,160.58,34,9.00,-24.00,-1029.00
2024-06-07 15:07:06.965775,4,0,6,0,0,0,71,74,132,100,100,160.64,34,-43.00,20.00,-1007.00
2024-06-07 15:07:07.125883,3,0,6,-1,0,0,71,74,131,100,100,160.54,34,-9.00,-9.00,-975.00
2024-06-07 15:07:07.169831,-2,0,6,-1,0,0,71,74,132,100,100,160.67,34,13.00,-9.00,-995.00
2024-06-07 15:07:07.330570,-3,0,6,0,0,0,71,74,131,100,100,160.55,34,-23.00,12.00,-985.00
2024-06-07 15:07:07.373865,-1,0,6,0,0,0,71,74,131,100,100,160.53,34,28.00,-20.00,-1009.00
2024-06-07 15:07:07.535818,0,0,6,0,0,0,71,74,130,100,100,160.61,35,-37.00,27.00,-1019.00
2024-06-07 15:07:07.577828,0,0,6,0,0,0,71,74,131,100,100,160.62,35,13.00,-22.00,-1030.00
2024-06-07 15:07:07.739966,0,0,6,0,0,0,71,74,132,100,100,160.59,35,-8.00,10.00,-1030.00
2024-06-07 15:07:07.781835,0,0,6,0,0,0,71,74,131,100,100,160.61,35,-25.00,-15.00,-985.00
2024-06-07 15:07:07.945193,0,0,6,0,0,0,71,74,131,100,100,160.68,35,24.00,-24.00,-970.00
2024-06-07 15:07:07.989231,0,0,6,0,0,0,71,74,131,100,100,160.59,35,-42.00,12.00,-984.00
2024-06-07 15:07:08.087942,0,0,6,0,0,0,71,74,130,100,100,160.63,35,-2.00,9.00,-954.00
2024-06-07 15:07:08.258539,0,0,6,0,0,0,71,74,130,100,100,160.65,35,-69.00,28.00,-1000.00
2024-06-07 15:07:08.291768,0,0,6,0,0,0,71,74,130,100,100,160.58,35,-7.00,0.00,-1021.00
2024-06-07 15:07:08.396241,0,0,6,0,0,0,72,74,131,100,100,160.60,35,-29.00,4.00,-1108.00
2024-06-07 15:07:08.499582,0,0,6,0,0,0,72,74,131,100,100,160.64,36,5.00,-4.00,-1009.00
2024-06-07 15:07:08.597770,0,0,6,0,0,0,72,74,130,100,100,160.63,36,16.00,0.00,-971.00
2024-06-07 15:07:08.764313,0,0,6,0,0,0,72,74,131,100,100,160.62,36,-36.00,16.00,-1015.00
2024-06-07 15:07:08.801844,0,0,6,0,0,0,72,74,131,100,100,160.64,36,21.00,-29.00,-980.00
2024-06-07 15:07:08.969105,0,0,6,0,0,0,72,74,131,100,100,160.65,36,-32.00,2.00,-969.00
2024-06-07 15:07:09.005815,0,0,6,0,0,0,72,74,131,100,100,160.64,36,-18.00,-12.00,-982.00
2024-06-07 15:07:09.129647,0,0,6,0,0,0,72,74,132,100,100,160.59,36,5.00,-17.00,-947.00
2024-06-07 15:07:09.209681,0,0,6,0,0,0,72,74,131,100,100,160.61,36,-7.00,10.00,-989.00
2024-06-07 15:07:09.378285,0,0,6,0,0,0,72,74,131,100,100,160.60,36,-8.00,2.00,-992.00
2024-06-07 15:07:09.413640,0,0,12,0,0,0,72,75,131,100,100,160.64,36,2.00,-3.00,-1014.00
2024-06-07 15:07:09.515646,0,0,18,0,0,0,72,75,131,100,100,160.66,37,-38.00,9.00,-976.00
2024-06-07 15:07:09.685657,0,0,24,0,0,0,72,75,132,100,100,160.64,37,59.00,-19.00,-952.00
2024-06-07 15:07:09.719639,0,0,30,0,0,0,72,75,132,100,100,160.58,37,-13.00,-7.00,-1240.00
2024-06-07 15:07:09.890197,0,0,36,0,0,0,72,75,132,100,100,160.60,37,-5.00,-11.00,-997.00
2024-06-07 15:07:09.923715,0,0,42,0,0,0,72,75,131,100,100,160.55,37,-27.00,26.00,-924.00
2024-06-07 15:07:10.025757,0,1,48,0,0,0,72,75,128,100,100,160.56,37,-46.00,20.00,-953.00
2024-06-07 15:07:10.127953,0,0,54,0,0,0,72,75,129,100,100,160.58,37,-20.00,-21.00,-1069.00
2024-06-07 15:07:10.301128,0,0,59,0,0,0,72,75,129,100,100,160.57,37,-2.00,11.00,-980.00
2024-06-07 15:07:10.333536,0,0,65,0,0,0,72,75,128,100,100,160.64,37,29.00,-16.00,-986.00
2024-06-07 15:07:10.433995,0,0,71,0,0,0,72,75,128,100,100,160.63,37,6.00,-19.00,-1061.00
2024-06-07 15:07:10.607518,0,0,77,0,0,0,72,75,128,100,100,160.61,38,29.00,-17.00,-1023.00
2024-06-07 15:07:10.640744,0,1,82,0,0,0,72,75,128,100,100,160.61,38,-5.00,-20.00,-1035.00
2024-06-07 15:07:10.739712,0,1,88,0,0,0,72,75,129,100,100,160.62,38,-22.00,7.00,-1024.00
2024-06-07 15:07:10.914269,0,1,93,0,0,0,72,75,129,100,100,160.68,38,-6.00,-22.00,-1016.00
2024-06-07 15:07:10.914359,-1,1,99,0,0,0,72,75,131,100,100,160.57,38,-1.00,-26.00,-1072.00
2024-06-07 15:07:10.994619,-1,0,105,0,0,0,72,75,130,100,100,160.62,38,-31.00,-15.00,-1045.00
2024-06-07 15:07:11.097285,-1,0,110,0,0,0,72,75,130,100,100,160.62,38,-13.00,-18.00,-1055.00
2024-06-07 15:07:11.221528,0,1,116,0,0,0,72,75,130,100,100,160.60,38,-33.00,-6.00,-1029.00
2024-06-07 15:07:11.300707,-1,1,122,0,0,0,72,75,130,100,100,160.66,38,-29.00,12.00,-963.00
2024-06-07 15:07:11.426185,-1,1,128,0,0,0,72,75,130,100,100,160.59,38,-41.00,12.00,-925.00
2024-06-07 15:07:11.505376,-1,0,134,0,0,0,72,75,129,100,100,160.54,39,-12.00,-24.00,-977.00
2024-06-07 15:07:11.733525,-1,1,140,0,0,0,72,75,129,100,100,160.58,39,-12.00,-9.00,-1050.00
2024-06-07 15:07:11.733574,0,1,146,0,0,0,72,75,129,100,100,160.58,39,-38.00,15.00,-1071.00
2024-06-07 15:07:11.811862,0,2,153,0,0,0,72,75,130,100,100,160.59,39,27.00,-19.00,-1010.00
2024-06-07 15:07:11.938283,0,1,159,0,0,0,72,75,131,100,100,160.67,39,19.00,-32.00,-1103.00
2024-06-07 15:07:12.014619,0,1,165,0,0,0,72,75,132,100,100,160.64,39,-11.00,-3.00,-928.00
2024-06-07 15:07:12.146025,-1,1,171,0,0,0,72,75,132,100,100,160.63,39,-32.00,-9.00,-1046.00
2024-06-07 15:07:12.219191,-1,0,177,0,0,0,72,75,133,100,100,160.61,39,34.00,-54.00,-943.00
2024-06-07 15:07:12.347859,-1,0,-176,0,0,0,72,75,131,100,100,160.64,39,-22.00,-29.00,-998.00
2024-06-07 15:07:12.422574,-1,0,-163,0,0,0,73,76,131,100,100,160.60,40,-1.00,-16.00,-948.00
2024-06-07 15:07:12.553494,-1,0,-157,0,0,0,73,76,131,100,100,160.62,40,-20.00,-17.00,-1060.00
2024-06-07 15:07:12.626622,-1,0,-151,0,0,0,73,76,131,100,100,160.56,40,-12.00,0.00,-991.00
2024-06-07 15:07:12.728622,0,0,-145,0,0,0,73,76,130,100,100,160.57,40,-5.00,-29.00,-1006.00
2024-06-07 15:07:12.859843,0,0,-139,0,0,0,73,76,131,100,100,160.60,40,-3.00,-5.00,-959.00
2024-06-07 15:07:12.932612,0,0,-133,0,0,0,73,76,129,100,100,160.54,40,-20.00,-2.00,-1052.00
2024-06-07 15:07:13.064985,0,0,-127,0,0,0,73,76,132,100,100,160.59,40,39.00,-23.00,-1006.00
2024-06-07 15:07:13.136595,0,0,-121,0,0,0,73,76,132,100,100,160.56,40,-13.00,2.00,-1013.00
2024-06-07 15:07:13.269476,0,0,-115,0,0,0,73,76,133,100,100,160.67,40,-8.00,-7.00,-1005.00
2024-06-07 15:07:13.340607,0,0,-109,0,0,0,73,76,134,100,100,160.69,40,35.00,-20.00,-915.00
2024-06-07 15:07:13.443581,0,0,-103,0,0,0,73,76,134,100,100,160.70,41,24.00,-13.00,-951.00
2024-06-07 15:07:13.544527,-1,0,-97,0,0,0,73,76,137,100,100,160.72,41,-10.00,-20.00,-1048.00
2024-06-07 15:07:13.679019,-1,0,-91,0,0,0,73,76,139,100,100,160.77,41,-35.00,-19.00,-1020.00
2024-06-07 15:07:13.748508,-1,0,-85,0,0,-1,73,76,139,110,100,160.72,41,0.00,2.00,-1030.00
2024-06-07 15:07:13.884192,0,0,-79,0,0,0,73,76,142,110,100,160.71,41,-13.00,-3.00,-1021.00
2024-06-07 15:07:13.954307,0,0,-73,0,0,0,73,76,142,110,100,160.78,41,36.00,-15.00,-902.00
2024-06-07 15:07:14.054815,0,0,-67,0,0,0,73,76,146,110,100,160.72,41,-19.00,-3.00,-962.00
2024-06-07 15:07:14.156524,-1,0,-61,0,0,0,73,76,147,110,100,160.77,41,17.00,-26.00,-967.00
2024-06-07 15:07:14.294678,-1,0,-55,0,0,0,73,76,149,110,100,160.74,41,-11.00,-23.00,-973.00
2024-06-07 15:07:14.360483,0,0,-49,0,0,0,73,76,148,110,100,160.73,41,20.00,-6.00,-982.00
2024-06-07 15:07:14.498291,0,0,-43,0,0,0,73,75,148,110,100,160.78,42,-12.00,23.00,-896.00
2024-06-07 15:07:14.567195,0,-1,-37,0,0,0,73,75,147,110,100,160.76,42,-43.00,17.00,-1008.00
2024-06-07 15:07:14.666535,0,-1,-32,0,0,1,73,75,146,110,100,160.70,42,-52.00,45.00,-912.00
2024-06-07 15:07:14.805570,-1,-1,-26,0,0,0,73,75,145,110,100,160.75,42,-72.00,42.00,-1000.00
2024-06-07 15:07:14.870496,-1,-1,-20,0,0,0,73,75,144,110,100,160.70,42,-41.00,38.00,-1024.00
2024-06-07 15:07:14.972431,-1,-2,-14,0,0,0,73,75,144,110,100,160.71,42,-31.00,-3.00,-1001.00
2024-06-07 15:07:15.112600,-1,-2,-9,0,0,0,73,75,142,110,100,160.73,42,-15.00,1.00,-967.00
2024-06-07 15:07:15.125707,-1,-1,-6,0,0,0,73,75,141,110,100,160.65,42,-11.00,27.00,-975.00
2024-06-07 15:07:15.227504,0,-1,-3,0,0,0,73,75,140,110,100,160.70,42,-9.00,9.00,-989.00
2024-06-07 15:07:15.419820,0,-1,0,0,0,0,73,75,138,110,100,160.66,42,8.00,-13.00,-1004.00
2024-06-07 15:07:15.482398,0,0,0,0,0,0,73,76,136,110,100,160.68,43,51.00,3.00,-941.00
2024-06-07 15:07:15.627205,0,0,2,0,0,0,73,76,134,110,100,160.63,43,9.00,-8.00,-1045.00
2024-06-07 15:07:15.635397,0,0,3,0,0,0,73,76,134,100,100,160.62,43,-9.00,1.00,-1148.00
2024-06-07 15:07:15.829473,0,0,3,0,0,0,73,76,132,100,100,160.60,43,-16.00,13.00,-1014.00
2024-06-07 15:07:15.842726,0,0,4,0,0,0,73,76,130,100,100,160.61,43,-8.00,16.00,-970.00
2024-06-07 15:07:15.941540,0,0,4,0,0,0,73,76,128,100,100,160.58,43,9.00,-11.00,-991.00
2024-06-07 15:07:16.136961,0,0,4,0,0,0,73,76,125,100,100,160.60,43,-16.00,-5.00,-1049.00
2024-06-07 15:07:16.145840,0,0,4,0,0,0,73,76,126,100,100,160.61,43,26.00,1.00,-1073.00
2024-06-07 15:07:16.247596,0,0,4,0,0,0,73,76,125,100,100,160.60,43,2.00,25.00,-1012.00
2024-06-07 15:07:16.448235,0,0,4,0,0,0,73,76,125,100,100,160.57,43,10.00,6.00,-979.00
2024-06-07 15:07:16.452058,0,0,4,0,0,0,73,76,124,100,100,160.58,44,-55.00,29.00,-1039.00
2024-06-07 15:07:16.648932,-1,0,4,0,0,0,73,76,125,100,100,160.54,44,-23.00,8.00,-1030.00
2024-06-07 15:07:16.655580,-1,-1,4,0,0,0,73,76,126,100,100,160.70,44,-11.00,4.00,-978.00
2024-06-07 15:07:16.853397,-1,-1,4,0,0,0,73,76,127,100,100,160.63,44,-8.00,15.00,-981.00
2024-06-07 15:07:16.859358,-1,0,4,0,0,0,73,76,126,100,100,160.69,44,-6.00,13.00,-1004.00
2024-06-07 15:07:16.961616,-1,0,4,0,0,0,73,76,127,100,100,160.63,44,-25.00,29.00,-965.00
2024-06-07 15:07:17.160664,0,0,4,0,0,0,73,76,129,100,100,160.64,44,9.00,17.00,-1024.00
2024-06-07 15:07:17.165808,0,0,4,0,0,0,73,76,129,100,100,160.67,44,-13.00,20.00,-980.00
2024-06-07 15:07:17.365700,0,0,4,0,0,0,73,76,130,100,100,160.66,44,10.00,15.00,-973.00
2024-06-07 15:07:17.369403,0,0,4,0,0,0,73,76,129,100,100,160.61,44,-9.00,11.00,-967.00
2024-06-07 15:07:17.472062,0,0,4,0,0,0,74,76,132,100,100,160.61,45,-14.00,14.00,-1043.00
2024-06-07 15:07:17.573560,0,0,4,0,0,0,74,76,129,100,100,160.70,45,-37.00,-1.00,-968.00
2024-06-07 15:07:17.675483,0,0,4,0,0,0,74,76,131,100,100,160.65,45,-37.00,16.00,-1064.00
2024-06-07 15:07:17.778562,0,0,4,0,0,0,74,76,131,100,100,160.68,45,4.00,-26.00,-1021.00
2024-06-07 15:07:17.882350,0,0,4,0,0,0,74,76,132,100,100,160.64,45,-32.00,25.00,-1033.00
2024-06-07 15:07:17.981235,0,0,4,0,0,0,74,76,133,100,100,160.72,45,-51.00,51.00,-1029.00
2024-06-07 15:07:18.184587,0,0,-1,0,0,0,74,76,133,100,100,160.79,45,43.00,-13.00,-956.00
2024-06-07 15:07:18.185208,0,0,-7,0,0,0,74,76,133,100,100,160.76,45,19.00,-30.00,-1031.00
2024-06-07 15:07:18.290585,0,0,-13,0,0,0,74,76,133,100,100,160.66,45,15.00,0.00,-944.00
2024-06-07 15:07:18.389543,0,0,-19,0,0,0,74,76,132,100,100,160.69,45,-4.00,-8.00,-1080.00
2024-06-07 15:07:18.491593,0,0,-25,0,0,0,74,76,134,100,100,160.70,46,-27.00,20.00,-909.00
2024-06-07 15:07:18.594176,0,0,-30,0,0,0,74,76,132,100,100,160.65,46,-13.00,8.00,-971.00
2024-06-07 15:07:18.696682,0,0,-36,0,0,0,74,76,133,100,100,160.65,46,-11.00,-22.00,-1061.00
2024-06-07 15:07:18.799538,0,0,-42,0,0,0,74,76,132,100,100,160.58,46,-38.00,11.00,-1000.00
2024-06-07 15:07:18.899518,-1,0,-48,0,0,0,74,76,132,100,100,160.62,46,-26.00,-6.00,-970.00
2024-06-07 15:07:19.003761,-1,0,-54,0,0,0,74,76,132,100,100,160.65,46,-38.00,12.00,-1040.00
2024-06-07 15:07:19.103370,0,0,-59,0,0,0,74,76,132,100,100,160.64,46,-46.00,-1.00,-939.00
2024-06-07 15:07:19.209193,0,0,-65,0,0,0,74,76,132,100,100,160.75,46,-70.00,6.00,-1061.00
2024-06-07 15:07:19.307480,0,0,-71,0,0,0,74,76,131,100,100,160.68,46,-28.00,-10.00,-980.00
2024-06-07 15:07:19.358369,-1,0,-77,0,0,0,74,76,131,100,100,160.69,46,11.00,-19.00,-904.00
2024-06-07 15:07:19.515737,-1,0,-82,0,0,0,74,76,131,100,100,160.63,47,-21.00,-13.00,-1014.00
2024-06-07 15:07:19.562297,-1,0,-88,0,0,0,74,76,131,100,100,160.66,47,34.00,-29.00,-914.00
2024-06-07 15:07:19.720597,-1,0,-94,0,0,0,74,76,132,100,100,160.67,47,-69.00,21.00,-1037.00
2024-06-07 15:07:19.766241,-1,0,-100,0,0,0,74,76,131,100,100,160.67,47,-38.00,4.00,-973.00
2024-06-07 15:07:19.925389,-1,0,-106,0,0,0,74,76,132,100,100,160.69,47,-14.00,9.00,-1052.00
2024-06-07 15:07:19.973223,-1,0,-112,0,0,0,74,76,132,100,100,160.65,47,-21.00,-14.00,-1200.00
2024-06-07 15:07:20.072346,-1,0,-118,0,0,0,74,76,132,100,100,160.65,47,-56.00,-6.00,-981.00
2024-06-07 15:07:20.174293,-1,0,-124,0,0,0,74,76,132,100,100,160.68,47,-12.00,-29.00,-1014.00
2024-06-07 15:07:20.334972,-1,0,-130,0,0,0,74,76,131,100,100,160.63,47,-8.00,-5.00,-976.00
2024-06-07 15:07:20.378385,-1,0,-136,0,0,0,74,76,131,100,100,160.66,47,-34.00,-16.00,-1042.00
2024-06-07 15:07:20.539749,-1,0,-142,0,0,0,73,77,131,100,100,160.65,48,-4.00,-40.00,-1006.00
2024-06-07 15:07:20.584331,0,0,-148,0,0,0,73,77,129,100,100,160.64,48,-10.00,-18.00,-897.00
2024-06-07 15:07:20.684152,0,1,-154,0,0,0,73,77,129,100,100,160.69,48,2.00,-35.00,-1010.00
2024-06-07 15:07:20.786205,0,0,-159,0,0,0,73,77,130,100,100,160.62,48,-7.00,-30.00,-976.00
2024-06-07 15:07:20.949440,0,0,-165,0,0,0,73,77,128,100,100,160.64,48,2.00,-19.00,-1026.00
2024-06-07 15:07:20.990272,0,0,-171,0,0,0,73,77,128,100,100,160.64,48,26.00,-70.00,-1022.00
2024-06-07 15:07:21.154199,0,0,-177,0,0,0,73,77,130,100,100,160.62,48,-4.00,-38.00,-999.00
2024-06-07 15:07:21.194136,0,0,176,0,0,0,73,77,128,100,100,160.69,48,-7.00,-24.00,-1026.00
2024-06-07 15:07:21.358945,0,0,170,0,0,0,73,77,128,100,100,160.65,48,-25.00,-2.00,-1004.00
2024-06-07 15:07:21.398162,0,0,164,0,0,0,73,77,129,100,100,160.65,48,-38.00,-18.00,-1031.00
2024-06-07 15:07:21.564270,0,0,157,0,0,0,75,77,128,100,100,160.66,49,-22.00,-9.00,-1077.00
2024-06-07 15:07:21.603446,0,0,151,0,0,0,75,77,128,100,100,160.66,49,-9.00,-11.00,-970.00
2024-06-07 15:07:21.768596,0,0,145,0,0,0,75,77,128,100,100,160.68,49,50.00,-19.00,-926.00
2024-06-07 15:07:21.807396,0,0,139,0,0,0,75,77,129,100,100,160.70,49,26.00,-7.00,-934.00
2024-06-07 15:07:21.973356,0,0,133,0,0,0,75,77,128,100,100,160.64,49,-8.00,2.00,-994.00
2024-06-07 15:07:22.011105,0,0,127,0,0,0,75,77,128,100,100,160.69,49,4.00,-26.00,-1020.00
2024-06-07 15:07:22.178164,0,0,121,0,0,0,75,77,128,100,100,160.67,49,-17.00,1.00,-998.00
2024-06-07 15:07:22.215064,0,0,115,0,0,0,75,77,127,100,100,160.72,49,56.00,-14.00,-979.00
2024-06-07 15:07:22.382950,0,0,110,0,0,0,75,77,127,100,100,160.64,49,13.00,5.00,-1044.00
2024-06-07 15:07:22.419073,0,0,104,0,0,0,75,77,127,100,100,160.66,49,-10.00,11.00,-1113.00
2024-06-07 15:07:22.587837,0,0,98,0,0,0,75,77,127,100,100,160.67,50,32.00,-26.00,-1039.00
2024-06-07 15:07:22.623092,0,0,92,0,0,0,75,77,127,100,100,160.65,50,44.00,-26.00,-964.00
2024-06-07 15:07:22.792705,0,0,86,0,0,0,75,77,126,100,100,160.64,50,5.00,3.00,-1009.00
2024-06-07 15:07:22.827280,0,0,80,0,0,0,75,77,128,100,100,160.66,50,-15.00,0.00,-965.00
2024-06-07 15:07:22.959502,0,0,74,0,0,0,75,77,128,100,100,160.66,50,-15.00,27.00,-1006.00
2024-06-07 15:07:23.031545,0,0,68,0,0,0,75,77,129,100,100,160.73,50,25.00,-9.00,-1018.00
2024-06-07 15:07:23.202183,0,0,62,0,0,0,75,77,129,100,100,160.63,50,15.00,-12.00,-1009.00
2024-06-07 15:07:23.202484,-1,0,56,0,0,0,75,77,128,100,100,160.68,50,-31.00,11.00,-1014.00
2024-06-07 15:07:23.286081,0,0,50,0,0,0,75,77,128,100,100,160.63,50,-37.00,25.00,-1049.00
2024-06-07 15:07:23.406965,0,0,44,0,0,0,75,77,129,100,100,160.71,50,-12.00,8.00,-955.00
2024-06-07 15:07:23.542132,0,0,38,0,0,0,75,77,128,100,100,160.64,51,-6.00,-2.00,-1123.00
2024-06-07 15:07:23.714182,0,0,32,0,0,0,75,77,130,100,100,160.69,51,-36.00,17.00,-912.00
2024-06-07 15:07:23.714906,0,0,26,0,0,0,75,77,128,100,100,160.68,51,3.00,-21.00,-959.00
2024-06-07 15:07:23.796012,0,0,21,0,0,0,75,77,131,100,100,160.69,51,-42.00,14.00,-983.00
2024-06-07 15:07:23.923503,-1,0,17,0,0,0,75,77,130,100,100,160.71,51,-26.00,0.00,-1042.00
2024-06-07 15:07:24.000067,-1,0,14,0,0,0,75,77,131,100,100,160.65,51,-32.00,13.00,-934.00
2024-06-07 15:07:24.126479,-1,0,12,0,0,0,75,77,131,100,100,160.67,51,-26.00,-10.00,-1040.00
2024-06-07 15:07:24.204061,-1,0,10,0,0,0,75,77,132,100,100,160.67,51,-24.00,-5.00,-1010.00
2024-06-07 15:07:24.307544,-1,0,9,0,0,0,75,77,131,100,100,160.64,51,-32.00,0.00,-980.00
2024-06-07 15:07:24.408053,-1,0,8,0,0,0,75,77,132,100,100,160.70,51,-37.00,5.00,-951.00
2024-06-07 15:07:24.510060,-1,0,7,0,0,0,74,77,133,100,100,160.70,52,-36.00,26.00,-1044.00
2024-06-07 15:07:24.636168,0,0,6,0,0,0,74,77,132,100,100,160.73,52,-49.00,10.00,-1021.00
2024-06-07 15:07:24.714094,0,0,6,0,0,0,74,77,133,100,100,160.68,52,-11.00,-5.00,-1060.00
2024-06-07 15:07:24.841144,0,0,6,0,0,0,74,77,134,100,100,160.70,52,-23.00,-3.00,-997.00
2024-06-07 15:07:24.917925,0,0,6,0,0,0,74,77,135,100,100,160.68,52,-29.00,15.00,-950.00
2024-06-07 15:07:25.045459,0,0,6,0,0,0,74,77,135,100,100,160.70,52,4.00,-21.00,-1024.00
2024-06-07 15:07:25.122111,-1,0,6,0,0,0,74,77,135,100,100,160.72,52,-50.00,9.00,-975.00
2024-06-07 15:07:25.251271,-1,0,6,0,0,0,74,77,134,100,100,160.73,52,-23.00,10.00,-979.00
2024-06-07 15:07:25.326025,-1,0,6,0,0,0,74,77,136,100,100,160.79,52,-27.00,-7.00,-983.00
2024-06-07 15:07:25.428051,0,0,6,0,0,0,74,77,136,100,100,160.74,52,-13.00,14.00,-998.00
2024-06-07 15:07:25.530005,0,0,6,0,0,0,74,77,136,100,100,160.71,53,9.00,0.00,-1001.00
2024-06-07 15:07:25.662271,0,0,6,0,0,0,74,77,138,100,100,160.65,53,13.00,-33.00,-984.00
2024-06-07 15:07:25.734032,0,0,6,0,0,0,74,77,136,100,100,160.73,53,-43.00,22.00,-969.00
2024-06-07 15:07:25.864584,0,0,6,0,0,0,74,77,137,100,100,160.74,53,-13.00,4.00,-933.00
2024-06-07 15:07:25.938090,0,0,6,0,0,0,74,77,138,100,100,160.73,53,-3.00,0.00,-973.00
2024-06-07 15:07:26.039958,0,0,6,0,0,0,74,77,138,100,100,160.79,53,-21.00,28.00,-1058.00
2024-06-07 15:07:26.172484,0,0,6,0,0,0,74,77,139,110,100,160.72,53,-13.00,12.00,-1034.00
2024-06-07 15:07:26.245887,0,0,6,0,0,0,74,77,139,110,100,160.73,53,-19.00,-1.00,-977.00
2024-06-07 15:07:26.376640,0,0,6,0,0,0,74,77,140,110,100,160.76,53,-27.00,25.00,-914.00
2024-06-07 15:07:26.448960,0,0,6,0,0,0,74,77,142,110,100,160.84,53,0.00,13.00,-972.00
2024-06-07 15:07:26.551483,0,0,6,0,0,0,75,77,140,110,100,160.82,54,27.00,-3.00,-942.00
2024-06-07 15:07:26.652868,0,0,6,0,0,0,75,77,143,110,100,160.79,54,-8.00,10.00,-946.00
2024-06-07 15:07:26.786665,0,0,6,0,0,0,75,77,144,110,100,160.84,54,41.00,-34.00,-1098.00
2024-06-07 15:07:26.856916,0,0,6,0,0,-8,75,77,147,110,100,160.94,54,-3.00,-31.00,-1957.00
2024-06-07 15:07:26.990920,0,-47,7,0,0,-15,75,77,161,120,100,161.04,54,-29.00,326.00,-1476.00
2024-06-07 15:07:27.060823,0,-167,5,0,-7,-8,75,77,6553,140,100,161.22,54,27.00,512.00,-1033.00
2024-06-07 15:07:27.195999,0,70,6,0,-4,6,75,77,6553,140,100,161.04,54,29.00,570.00,-924.00
2024-06-07 15:07:27.265466,0,3,7,0,1,6,75,77,170,130,100,160.97,54,1.00,26.00,-1668.00
2024-06-07 15:07:27.315844,0,0,7,0,1,2,75,77,150,130,100,160.78,54,-19.00,25.00,-1548.00
2024-06-07 15:07:27.503368,0,0,6,0,0,1,75,77,145,120,100,160.75,55,-10.00,-93.00,-1127.00
2024-06-07 15:07:27.519722,0,0,6,0,0,0,75,77,141,120,100,160.80,55,-32.00,-3.00,-1025.00
2024-06-07 15:07:27.708046,0,0,6,0,0,0,75,77,136,120,100,160.77,55,20.00,4.00,-1015.00
2024-06-07 15:07:27.724221,0,0,6,0,0,0,75,77,132,120,100,160.58,55,-33.00,6.00,-1042.00
2024-06-07 15:07:27.912400,-1,-1,6,0,0,0,75,77,129,120,100,160.65,55,-11.00,15.00,-916.00
2024-06-07 15:07:27.927816,-1,0,6,0,-1,0,75,77,124,120,100,160.52,55,-32.00,20.00,-1073.00
2024-06-07 15:07:28.118179,0,2,6,0,-1,0,75,77,121,120,100,160.58,55,-34.00,22.00,-1015.00
2024-06-07 15:07:28.131824,0,2,6,0,0,0,75,77,118,120,100,160.55,55,27.00,-42.00,-1038.00
2024-06-07 15:07:28.322138,0,2,6,0,0,0,75,77,115,120,100,160.48,55,-32.00,9.00,-990.00
2024-06-07 15:07:28.338851,0,1,6,0,0,0,75,77,112,120,100,160.49,55,-37.00,15.00,-1128.00
2024-06-07 15:07:28.437876,0,1,6,0,0,-1,75,77,110,120,100,160.47,56,-5.00,-27.00,-1067.00
2024-06-07 15:07:28.629294,0,1,6,0,0,-1,75,78,108,120,100,160.54,56,-17.00,-6.00,-1047.00
2024-06-07 15:07:28.642284,0,1,6,0,0,-1,75,78,107,120,100,160.55,56,2.00,-12.00,-969.00
2024-06-07 15:07:28.834058,0,1,6,0,0,-2,75,78,106,120,100,160.47,56,-33.00,-7.00,-1069.00
2024-06-07 15:07:28.845681,0,1,6,0,0,-2,75,78,104,130,100,160.43,56,3.00,-20.00,-996.00
2024-06-07 15:07:28.966188,0,1,6,0,0,-2,75,78,104,130,100,160.41,56,-32.00,-9.00,-1032.00
2024-06-07 15:07:29.049743,0,1,6,0,0,-2,75,78,104,130,100,160.43,56,21.00,0.00,-964.00
2024-06-07 15:07:29.243887,0,1,6,0,0,-2,75,78,105,130,100,160.50,56,-13.00,-6.00,-1031.00
2024-06-07 15:07:29.253726,0,1,6,0,0,-2,75,78,105,130,100,160.43,56,-16.00,-21.00,-989.00
2024-06-07 15:07:29.448486,0,1,6,0,0,0,75,78,105,130,100,160.49,56,-10.00,-16.00,-877.00
2024-06-07 15:07:29.457708,0,1,6,0,0,0,75,78,104,130,100,160.49,57,-52.00,26.00,-920.00
2024-06-07 15:07:29.564202,0,0,6,0,0,1,75,78,104,130,100,160.45,57,-18.00,-9.00,-1020.00
2024-06-07 15:07:29.661734,0,0,6,0,0,0,75,78,103,130,100,160.38,57,-15.00,-19.00,-1029.00
2024-06-07 15:07:29.858099,0,0,6,0,0,0,75,78,103,130,100,160.40,57,0.00,-27.00,-1017.00
2024-06-07 15:07:29.865775,0,1,6,0,0,0,75,78,103,130,100,160.40,57,60.00,-18.00,-924.00
2024-06-07 15:07:30.062930,0,1,6,0,0,0,75,78,103,130,100,160.38,57,22.00,-29.00,-957.00
2024-06-07 15:07:30.069726,0,1,6,0,0,0,75,78,103,130,100,160.44,57,-36.00,-6.00,-1049.00
2024-06-07 15:07:30.270670,0,1,6,0,0,0,75,78,104,130,100,160.45,57,15.00,-16.00,-971.00
2024-06-07 15:07:30.273767,0,0,6,0,0,0,75,78,106,130,100,160.44,57,-13.00,-19.00,-998.00
2024-06-07 15:07:30.472974,0,0,6,0,0,0,75,78,107,130,100,160.46,57,5.00,-5.00,-965.00
2024-06-07 15:07:30.477700,0,0,6,0,0,0,75,78,108,130,100,160.45,58,-32.00,7.00,-990.00
2024-06-07 15:07:30.678000,0,0,6,0,0,0,76,77,108,130,100,160.45,58,-29.00,-7.00,-1049.00
2024-06-07 15:07:30.681599,0,0,6,0,0,0,76,77,109,130,100,160.45,58,3.00,-16.00,-994.00
2024-06-07 15:07:30.882210,0,0,6,0,0,0,76,77,109,130,100,160.44,58,-2.00,-25.00,-968.00
2024-06-07 15:07:30.885756,0,0,6,0,0,0,76,77,110,130,100,160.44,58,15.00,-29.00,-947.00
2024-06-07 15:07:30.987751,0,0,6,0,0,0,76,77,110,130,100,160.50,58,-29.00,11.00,-1014.00
2024-06-07 15:07:31.089789,0,0,6,0,0,0,76,77,109,130,100,160.45,58,-57.00,29.00,-914.00
2024-06-07 15:07:31.140959,0,0,6,0,0,0,76,77,109,130,100,160.47,58,-6.00,5.00,-970.00
2024-06-07 15:07:31.291544,0,0,6,0,0,0,76,77,110,130,100,160.47,58,8.00,-17.00,-1004.00
2024-06-07 15:07:31.344750,0,0,6,0,0,0,76,77,109,130,100,160.47,58,19.00,-34.00,-983.00
2024-06-07 15:07:31.446829,0,0,6,0,0,0,76,77,109,130,100,160.50,59,-21.00,10.00,-993.00
2024-06-07 15:07:31.702320,0,0,6,0,0,0,76,78,110,130,100,160.48,59,47.00,-10.00,-895.00
2024-06-07 15:07:31.702466,0,0,6,0,0,0,76,78,109,130,100,160.46,59,-15.00,9.00,-991.00
2024-06-07 15:07:31.752873,0,0,6,0,0,0,76,78,109,130,100,160.49,59,13.00,-4.00,-993.00
2024-06-07 15:07:31.854844,0,0,6,0,0,0,76,78,109,130,100,160.53,59,6.00,-3.00,-986.00
2024-06-07 15:07:31.969868,0,0,6,0,0,0,76,78,111,130,100,160.54,59,-32.00,26.00,-991.00
2024-06-07 15:07:32.059540,0,0,6,0,0,0,76,78,110,130,100,160.56,59,-49.00,20.00,-1027.00
2024-06-07 15:07:32.213462,0,0,6,0,0,0,76,78,109,130,100,160.58,59,24.00,-25.00,-1025.00
2024-06-07 15:07:32.264069,0,0,6,0,0,0,76,78,110,130,100,160.53,59,-7.00,-14.00,-1027.00
2024-06-07 15:07:32.366708,0,0,6,0,0,0,76,78,111,130,100,160.52,59,12.00,0.00,-906.00
2024-06-07 15:07:32.466952,0,0,6,0,0,0,76,78,111,130,100,160.55,60,30.00,-10.00,-951.00
2024-06-07 15:07:32.625858,0,0,6,0,0,0,76,78,112,130,100,160.59,60,-4.00,-2.00,-1012.00
2024-06-07 15:07:32.670658,0,0,6,0,0,0,76,78,112,130,100,160.56,60,9.00,-28.00,-1032.00
2024-06-07 15:07:32.828630,0,0,6,0,0,0,76,78,112,130,100,160.54,60,28.00,-9.00,-1029.00
2024-06-07 15:07:32.874580,0,0,6,0,0,0,76,78,112,130,100,160.52,60,-1.00,0.00,-1069.00
2024-06-07 15:07:33.032814,0,0,6,0,0,0,76,78,112,130,100,160.47,60,7.00,7.00,-866.00
2024-06-07 15:07:33.078665,0,0,6,0,0,0,76,78,111,130,100,160.47,60,21.00,6.00,-966.00
2024-06-07 15:07:33.238505,0,0,6,0,0,0,76,78,112,130,100,160.57,60,-28.00,-10.00,-1044.00
2024-06-07 15:07:33.282811,0,0,6,0,0,0,76,78,110,130,100,160.54,60,0.00,-1.00,-910.00
2024-06-07 15:07:33.442210,0,0,6,0,0,0,76,78,111,130,100,160.62,60,0.00,-7.00,-1039.00
2024-06-07 15:07:33.486684,0,0,6,0,0,-4,76,78,115,130,100,160.61,61,-18.00,-23.00,-2356.00
2024-06-07 15:07:33.588585,0,22,6,0,0,-13,75,78,138,140,100,160.85,61,-46.00,8.00,-2297.00
2024-06-07 15:07:33.749226,0,127,5,-1,10,-11,75,78,6553,160,100,160.92,61,-5.00,710.00,-1221.00
2024-06-07 15:07:33.792681,1,-112,6,-1,11,4,75,78,6553,160,100,160.98,61,5.00,697.00,-815.00
2024-06-07 15:07:33.954359,0,-11,7,0,5,9,75,78,123,150,100,160.65,61,-8.00,543.00,-1161.00
2024-06-07 15:07:33.996518,0,1,8,-1,5,5,75,78,113,150,100,160.56,61,39.00,-9.00,-1400.00
2024-06-07 15:07:34.159467,0,-3,8,-1,5,2,75,78,106,140,100,160.39,61,-55.00,-61.00,-1258.00
2024-06-07 15:07:34.200771,0,-3,6,-1,4,0,75,78,102,140,99,160.42,61,-72.00,49.00,-1113.00
2024-06-07 15:07:34.366481,0,-2,6,0,3,0,75,78,99,140,99,160.35,61,31.00,-40.00,-1041.00
2024-06-07 15:07:34.408346,0,-1,6,0,0,0,75,78,96,140,99,160.40,61,-19.00,-31.00,-991.00
2024-06-07 15:07:34.507363,0,1,6,0,0,0,75,78,94,140,99,160.41,62,-10.00,0.00,-981.00
2024-06-07 15:07:34.608432,0,2,6,0,1,0,76,78,93,130,99,160.37,62,-7.00,-25.00,-990.00
2024-06-07 15:07:34.773226,0,1,6,0,1,0,76,78,90,130,99,160.35,62,41.00,-42.00,-1044.00
2024-06-07 15:07:34.812509,0,0,6,0,1,0,76,78,89,130,99,160.39,62,11.00,-19.00,-975.00
2024-06-07 15:07:34.864136,0,0,6,0,1,0,76,78,89,130,99,160.36,62,4.00,-18.00,-969.00
2024-06-07 15:07:34.973037,0,-3,6,0,1,0,76,78,88,130,99,160.36,62,31.00,-36.00,-978.00
2024-06-07 15:07:35.067509,0,-3,6,0,0,0,76,78,88,130,99,160.35,62,-28.00,-3.00,-1064.00
2024-06-07 15:07:35.184407,0,-2,6,0,0,-1,76,78,89,130,99,160.39,62,-29.00,7.00,-989.00
2024-06-07 15:07:35.271416,0,-2,6,0,0,-1,76,78,90,140,99,160.39,62,-54.00,25.00,-1007.00
2024-06-07 15:07:35.387590,0,-1,6,0,0,-1,76,78,91,140,99,160.38,62,-54.00,5.00,-1038.00
2024-06-07 15:07:35.475487,0,-1,6,0,0,-1,76,78,92,140,99,160.32,63,-28.00,15.00,-1043.00
2024-06-07 15:07:35.628427,0,-1,6,0,0,-1,76,79,94,140,99,160.39,63,-24.00,1.00,-994.00
2024-06-07 15:07:35.679369,0,-1,6,0,0,-1,76,79,94,140,99,160.44,63,-5.00,-12.00,-980.00
2024-06-07 15:07:35.781408,0,-1,6,0,0,-1,76,79,95,140,99,160.40,63,-2.00,-29.00,-1009.00
2024-06-07 15:07:35.884444,0,-1,6,0,0,-1,76,79,96,140,99,160.39,63,-5.00,-25.00,-1025.00
