TS,pitch,roll,yaw,vgx,vgy,vgz,templ,temph,tof,h,bat,baro,time,agx,agy,agz
2024-06-07 15:08:17.883644,1,0,-2,0,0,0,81,83,10,0,91,159.40,82,34.00,-2.00,-999.00
2024-06-07 15:08:17.959585,1,0,-2,0,0,0,81,83,10,0,91,159.42,82,35.00,-3.00,-998.00
2024-06-07 15:08:18.010796,1,0,-2,0,0,0,81,83,10,0,91,159.38,82,35.00,-4.00,-1000.00
2024-06-07 15:08:18.190717,1,0,-2,0,0,0,81,83,10,0,91,159.42,82,33.00,-4.00,-999.00
2024-06-07 15:08:18.214469,1,0,-2,0,0,0,81,83,10,0,91,159.38,82,34.00,-2.00,-1000.00
2024-06-07 15:08:18.395692,1,0,-2,0,0,0,81,83,10,0,91,159.32,82,35.00,-4.00,-999.00
2024-06-07 15:08:18.418169,1,0,-2,0,0,0,81,83,10,0,91,159.41,82,34.00,-2.00,-1000.00
2024-06-07 15:08:18.600028,1,0,-2,0,0,0,81,83,10,0,91,159.40,82,35.00,-2.00,-1000.00
2024-06-07 15:08:18.622216,1,0,-2,0,0,0,81,83,10,0,91,159.40,82,34.00,-2.00,-997.00
2024-06-07 15:08:18.804912,1,0,-2,0,0,0,81,83,10,0,91,159.41,82,33.00,-5.00,-998.00
2024-06-07 15:08:18.826337,1,0,-2,0,0,0,81,83,10,0,91,159.37,82,33.00,-4.00,-1000.00
2024-06-07 15:08:19.010365,1,0,-2,0,0,0,81,83,10,0,91,159.40,82,33.00,-4.00,-998.00
2024-06-07 15:08:19.030282,1,0,-2,0,0,0,81,83,10,0,91,159.36,82,34.00,-3.00,-1001.00
2024-06-07 15:08:19.215589,1,0,-2,0,0,0,81,83,10,0,91,159.34,82,34.00,-4.00,-998.00
2024-06-07 15:08:19.234161,1,0,-2,0,0,0,81,83,10,0,91,159.42,82,35.00,-3.00,-1000.00
2024-06-07 15:08:19.336340,1,0,-2,0,0,0,81,83,10,0,91,159.42,82,35.00,-3.00,-1002.00
2024-06-07 15:08:19.521565,1,0,-2,0,0,0,81,83,10,0,91,159.35,82,34.00,-3.00,-1000.00
2024-06-07 15:08:19.540240,1,0,-2,0,0,0,81,83,10,0,91,159.39,82,35.00,-3.00,-997.00
2024-06-07 15:08:19.726453,1,0,-2,0,0,0,81,83,10,0,91,159.43,82,35.00,-3.00,-999.00
2024-06-07 15:08:19.744408,1,0,-2,0,0,0,81,83,10,0,91,159.38,82,33.00,-5.00,-1000.00
2024-06-07 15:08:19.931242,1,0,-2,0,0,0,81,84,10,0,91,159.44,82,34.00,-2.00,-996.00
2024-06-07 15:08:19.948040,1,0,-2,0,0,0,81,84,10,0,91,159.36,82,33.00,-3.00,-1001.00
2024-06-07 15:08:20.136046,1,0,-2,0,0,0,81,84,10,0,91,159.42,82,33.00,-5.00,-999.00
2024-06-07 15:08:20.152086,1,0,-2,0,0,0,81,84,10,0,91,159.37,82,34.00,-3.00,-999.00
2024-06-07 15:08:20.345999,1,0,-2,0,0,0,81,84,10,0,91,159.40,82,34.00,-4.00,-998.00
2024-06-07 15:08:20.356182,1,0,-2,0,0,0,81,84,10,0,91,159.43,82,33.00,-3.00,-998.00
2024-06-07 15:08:20.458114,1,0,-2,0,0,0,81,84,10,0,91,159.42,82,36.00,-3.00,-998.00
2024-06-07 15:08:20.647989,1,0,-2,0,0,0,81,84,10,0,91,159.40,82,34.00,-3.00,-1001.00
2024-06-07 15:08:20.662078,1,0,-2,0,0,0,81,84,10,0,91,159.40,83,34.00,-3.00,-1003.00
2024-06-07 15:08:20.852713,1,0,-2,0,0,0,81,84,10,0,91,159.40,83,44.00,2.00,-1006.00
2024-06-07 15:08:20.866124,1,0,-3,0,0,0,81,83,10,0,91,159.40,83,37.00,-83.00,-977.00
2024-06-07 15:08:21.057564,1,0,-3,0,0,0,81,83,10,0,91,159.40,83,-7.00,6.00,-1040.00
2024-06-07 15:08:21.069969,0,0,-2,0,0,0,81,83,10,0,91,159.40,83,8.00,-14.00,-1177.00
2024-06-07 15:08:21.262349,0,0,-2,0,0,-2,81,83,10,0,91,159.40,83,-31.00,13.00,-1370.00
2024-06-07 15:08:21.274042,-1,0,-2,0,0,-5,81,83,14,0,91,159.40,83,-31.00,-3.00,-1282.00
2024-06-07 15:08:21.376106,0,0,-2,0,0,-7,81,83,22,0,91,159.63,83,4.00,-9.00,-1185.00
2024-06-07 15:08:21.569512,0,0,-2,0,0,-8,81,83,25,10,91,159.77,83,18.00,-32.00,-1039.00
2024-06-07 15:08:21.580148,0,0,-2,0,0,-8,81,83,35,10,91,159.85,83,-3.00,-8.00,-962.00
2024-06-07 15:08:21.631073,0,0,-2,0,0,-7,81,83,44,20,91,159.97,84,29.00,-9.00,-927.00
2024-06-07 15:08:21.774348,0,0,-2,0,0,-6,81,83,52,30,91,160.04,84,-15.00,5.00,-882.00
2024-06-07 15:08:21.835070,0,0,-2,0,0,-5,82,85,59,30,91,160.09,84,-1.00,-2.00,-833.00
2024-06-07 15:08:21.980123,0,-1,-2,0,0,-4,82,85,64,40,91,160.22,84,10.00,1.00,-846.00
2024-06-07 15:08:22.039104,0,-1,-2,0,0,-2,82,85,69,40,91,160.25,84,-9.00,9.00,-846.00
2024-06-07 15:08:22.184036,0,0,-2,0,0,-1,82,85,72,40,91,160.22,84,1.00,5.00,-956.00
2024-06-07 15:08:22.243075,0,0,-2,0,0,-1,82,85,74,40,91,160.27,84,14.00,-16.00,-914.00
2024-06-07 15:08:22.345070,0,0,-2,0,0,0,82,85,76,40,91,160.33,84,-52.00,19.00,-897.00
2024-06-07 15:08:22.447188,0,0,-2,0,0,0,82,85,78,40,91,160.34,84,-25.00,0.00,-1026.00
2024-06-07 15:08:22.550104,0,0,-2,0,0,0,82,85,79,50,91,160.39,84,34.00,-17.00,-963.00
2024-06-07 15:08:22.651512,0,0,-2,0,0,0,82,85,81,50,91,160.31,85,8.00,-9.00,-1036.00
2024-06-07 15:08:22.754344,0,0,-2,0,0,0,82,85,82,50,91,160.32,85,-30.00,33.00,-993.00
2024-06-07 15:08:22.857024,0,0,-2,0,0,0,82,84,84,50,91,160.35,85,-28.00,24.00,-1029.00
2024-06-07 15:08:22.957197,0,0,-2,0,0,0,82,84,85,50,91,160.39,85,-1.00,-1.00,-1050.00
2024-06-07 15:08:23.105501,0,0,-2,0,0,0,82,84,87,50,91,160.35,85,34.00,-29.00,-997.00
2024-06-07 15:08:23.163916,0,0,-2,0,0,0,82,84,88,50,91,160.38,85,-4.00,-11.00,-929.00
2024-06-07 15:08:23.264396,0,0,-2,0,0,0,82,84,90,50,91,160.43,85,15.00,-11.00,-1017.00
2024-06-07 15:08:23.365053,0,0,-2,0,0,0,82,84,91,50,91,160.40,85,1.00,9.00,-975.00
2024-06-07 15:08:23.515035,0,0,-2,0,0,0,82,84,91,60,91,160.47,85,41.00,-13.00,-952.00
2024-06-07 15:08:23.569012,0,0,-2,0,0,0,82,84,92,60,91,160.49,85,-2.00,6.00,-896.00
2024-06-07 15:08:23.721823,0,0,-2,0,0,0,82,84,93,60,91,160.39,86,22.00,-10.00,-1073.00
2024-06-07 15:08:23.787490,0,0,-2,0,0,0,82,84,93,60,91,160.42,86,-30.00,-3.00,-986.00
2024-06-07 15:08:23.874978,0,0,-2,0,0,0,82,84,92,60,91,160.45,86,45.00,-3.00,-891.00
2024-06-07 15:08:23.977886,0,0,-2,0,0,0,82,84,93,60,91,160.50,86,39.00,-25.00,-984.00
2024-06-07 15:08:24.078903,0,0,-2,0,0,0,82,84,92,60,91,160.39,86,-5.00,-15.00,-983.00
2024-06-07 15:08:24.231904,0,0,-2,0,0,0,82,84,92,60,91,160.35,86,16.00,5.00,-946.00
2024-06-07 15:08:24.282987,0,0,-2,0,0,1,82,84,91,60,91,160.39,86,-4.00,5.00,-993.00
2024-06-07 15:08:24.384966,0,0,-2,0,0,1,82,84,90,60,91,160.40,86,-8.00,12.00,-1017.00
2024-06-07 15:08:24.488246,0,0,-2,0,0,1,82,84,89,60,91,160.37,86,26.00,-15.00,-1053.00
2024-06-07 15:08:24.588886,0,0,-2,0,0,0,82,84,89,60,91,160.40,86,-11.00,2.00,-1033.00
2024-06-07 15:08:24.743899,0,0,-2,0,0,0,82,84,88,60,91,160.39,87,16.00,-31.00,-968.00
2024-06-07 15:08:24.795588,0,0,-2,0,0,0,82,84,86,60,91,160.34,87,-7.00,1.00,-991.00
2024-06-07 15:08:24.894845,0,0,-2,0,0,1,82,84,85,60,91,160.39,87,0.00,9.00,-1048.00
2024-06-07 15:08:25.053963,0,0,-2,0,0,0,82,84,84,50,91,160.29,87,8.00,-3.00,-1042.00
2024-06-07 15:08:25.099423,0,0,-2,0,0,0,82,84,83,50,91,160.32,87,-44.00,28.00,-958.00
2024-06-07 15:08:25.249843,0,0,-2,0,0,0,82,84,81,50,91,160.40,87,-17.00,14.00,-979.00
2024-06-07 15:08:25.303706,0,0,-2,0,0,0,82,84,79,50,91,160.35,87,15.00,6.00,-1030.00
2024-06-07 15:08:25.354877,0,0,-2,0,0,0,82,84,78,50,91,160.39,87,-32.00,37.00,-1023.00
2024-06-07 15:08:25.460670,0,0,-2,0,0,0,82,84,77,50,91,160.30,87,-17.00,8.00,-1109.00
2024-06-07 15:08:25.558788,0,0,-2,0,0,0,82,84,76,50,91,160.31,87,2.00,13.00,-1054.00
2024-06-07 15:08:25.768908,0,0,-2,0,0,0,82,84,76,50,91,160.30,88,46.00,-30.00,-1070.00
2024-06-07 15:08:25.768970,0,0,-2,0,0,0,82,84,76,50,91,160.29,88,-23.00,12.00,-1025.00
2024-06-07 15:08:25.864878,0,0,-2,0,0,0,82,84,76,50,91,160.34,88,20.00,-19.00,-1016.00
2024-06-07 15:08:25.972651,0,0,-2,0,0,0,82,84,76,50,91,160.33,88,49.00,-38.00,-1017.00
2024-06-07 15:08:26.075863,0,0,-2,0,0,0,82,84,76,50,91,160.28,88,0.00,-12.00,-991.00
2024-06-07 15:08:26.170871,0,0,-2,0,0,0,82,84,76,50,91,160.28,88,-8.00,19.00,-892.00
2024-06-07 15:08:26.280159,0,0,-2,0,0,0,82,84,75,50,91,160.34,88,22.00,-10.00,-957.00
2024-06-07 15:08:26.374852,0,0,-2,0,0,0,82,84,76,50,91,160.32,88,6.00,-8.00,-1025.00
2024-06-07 15:08:26.485032,0,0,-2,0,0,0,82,84,75,50,91,160.35,88,-9.00,-11.00,-1002.00
2024-06-07 15:08:26.579103,0,0,-2,0,0,0,82,84,76,50,91,160.30,88,-54.00,11.00,-1014.00
2024-06-07 15:08:26.689474,0,0,-2,0,0,0,82,84,75,50,91,160.34,89,-18.00,-13.00,-1066.00
2024-06-07 15:08:26.782774,0,0,-2,0,0,0,82,84,76,50,91,160.32,89,16.00,-26.00,-991.00
2024-06-07 15:08:26.884850,0,0,-2,0,0,0,81,84,75,50,91,160.38,89,-47.00,2.00,-1061.00
2024-06-07 15:08:26.996666,0,0,-2,0,0,0,81,84,75,50,91,160.34,89,23.00,-13.00,-972.00
2024-06-07 15:08:27.089813,0,0,-2,0,0,0,81,84,75,50,91,160.30,89,1.00,-9.00,-955.00
2024-06-07 15:08:27.201423,0,0,-2,0,0,0,81,84,75,50,91,160.27,89,-4.00,1.00,-985.00
2024-06-07 15:08:27.292771,0,0,-2,0,0,0,81,84,75,50,91,160.24,89,-32.00,0.00,-1052.00
2024-06-07 15:08:27.394774,0,0,-2,0,0,0,81,84,74,50,91,160.31,89,-38.00,1.00,-959.00
2024-06-07 15:08:27.509228,0,0,-2,0,0,0,81,84,74,50,91,160.25,89,13.00,-22.00,-1060.00
2024-06-07 15:08:27.598770,0,0,-2,0,0,0,81,84,74,50,91,160.25,89,1.00,-19.00,-1043.00
2024-06-07 15:08:27.713471,0,0,-2,0,0,0,81,84,74,50,91,160.26,90,-13.00,-9.00,-1004.00
2024-06-07 15:08:27.803042,0,0,-2,0,0,0,81,84,73,50,91,160.20,90,51.00,-43.00,-932.00
2024-06-07 15:08:27.918213,0,0,-2,0,0,0,82,84,73,50,91,160.24,90,20.00,-21.00,-929.00
2024-06-07 15:08:28.007223,0,0,-2,0,0,0,82,84,72,50,91,160.24,90,13.00,-40.00,-1013.00
2024-06-07 15:08:28.123018,0,0,-2,0,0,0,82,84,71,40,91,160.18,90,-7.00,-20.00,-996.00
2024-06-07 15:08:28.210864,0,0,-2,0,0,0,82,84,70,40,91,160.25,90,39.00,-19.00,-900.00
2024-06-07 15:08:28.312737,0,0,-2,0,0,0,82,84,70,40,91,160.22,90,8.00,0.00,-955.00
2024-06-07 15:08:28.430753,0,0,-2,0,0,0,82,84,69,40,91,160.21,90,-35.00,-15.00,-1080.00
2024-06-07 15:08:28.516715,0,0,-2,0,0,0,82,84,68,40,91,160.21,90,-3.00,1.00,-999.00
2024-06-07 15:08:28.642880,0,0,-2,0,0,0,82,84,68,40,91,160.22,90,-3.00,-36.00,-1085.00
2024-06-07 15:08:28.721186,0,0,-2,0,0,0,82,84,67,40,91,160.21,91,32.00,-11.00,-954.00
2024-06-07 15:08:28.839809,0,0,-2,0,0,0,82,84,67,40,91,160.16,91,31.00,-31.00,-1017.00
2024-06-07 15:08:28.924693,0,0,-2,0,0,0,82,83,67,40,91,160.19,91,-53.00,-5.00,-1021.00
2024-06-07 15:08:29.048432,0,0,-2,0,0,0,82,83,67,40,91,160.19,91,4.00,-32.00,-1025.00
2024-06-07 15:08:29.129254,0,1,-2,0,0,0,82,83,68,40,91,160.25,91,-12.00,-17.00,-998.00
2024-06-07 15:08:29.251273,0,0,-2,0,0,0,82,83,69,40,91,160.25,91,7.00,-9.00,-951.00
2024-06-07 15:08:29.332799,0,0,-2,0,0,0,82,83,70,40,91,160.24,91,36.00,-28.00,-1019.00
2024-06-07 15:08:29.454335,0,0,-2,0,0,0,82,83,71,40,91,160.27,91,-18.00,-12.00,-982.00
2024-06-07 15:08:29.536727,0,0,-2,0,0,0,82,83,71,40,91,160.31,91,-41.00,-7.00,-1014.00
2024-06-07 15:08:29.587727,0,0,-2,0,0,0,82,83,72,40,91,160.20,91,44.00,-4.00,-1005.00
2024-06-07 15:08:29.761968,0,0,-2,0,0,0,82,83,73,40,91,160.21,92,-27.00,-26.00,-997.00
2024-06-07 15:08:29.791674,0,0,-2,0,0,0,82,83,73,40,91,160.21,92,21.00,-4.00,-951.00
2024-06-07 15:08:29.966420,0,0,-2,0,0,0,81,84,74,40,91,160.22,92,-10.00,-8.00,-1026.00
2024-06-07 15:08:29.995704,0,0,-2,0,0,0,81,84,74,40,91,160.26,92,-40.00,2.00,-1006.00
2024-06-07 15:08:30.171575,0,0,-2,0,0,0,81,84,74,40,91,160.25,92,-6.00,-16.00,-947.00
2024-06-07 15:08:30.199824,0,0,-2,0,0,0,81,84,75,40,91,160.24,92,-43.00,-4.00,-1022.00
2024-06-07 15:08:30.478408,0,0,-2,0,0,0,81,84,75,40,91,160.25,92,-26.00,-1.00,-1003.00
2024-06-07 15:08:30.478587,0,0,-2,0,0,0,81,84,75,40,91,160.23,92,0.00,-20.00,-960.00
2024-06-07 15:08:30.505714,0,0,-2,0,0,0,81,84,76,40,91,160.27,92,-31.00,11.00,-981.00
2024-06-07 15:08:30.683096,0,0,-2,0,0,0,81,84,75,40,91,160.27,92,-13.00,-7.00,-970.00
2024-06-07 15:08:30.709638,0,0,-2,0,0,0,81,84,75,40,91,160.23,93,-21.00,-9.00,-996.00
2024-06-07 15:08:30.887935,0,0,-2,0,0,0,81,84,75,40,91,160.20,93,6.00,-23.00,-1011.00
2024-06-07 15:08:30.913668,0,0,-2,0,0,0,81,84,75,40,91,160.27,93,-37.00,-2.00,-983.00
2024-06-07 15:08:31.052114,0,0,-2,0,0,0,81,84,75,40,91,160.25,93,18.00,-39.00,-977.00
2024-06-07 15:08:31.117603,0,0,-2,0,0,0,81,84,75,40,91,160.28,93,-41.00,25.00,-993.00
2024-06-07 15:08:31.256363,0,0,-2,0,0,0,81,84,75,40,91,160.25,93,2.00,-22.00,-1006.00
2024-06-07 15:08:31.321564,0,0,-2,0,0,0,81,84,76,40,91,160.29,93,-5.00,-21.00,-1158.00
2024-06-07 15:08:31.423693,0,0,-2,0,0,-1,81,84,78,40,91,160.33,93,-6.00,-24.00,-1094.00
2024-06-07 15:08:31.525543,0,0,-2,0,0,-2,81,84,81,50,91,160.33,93,9.00,-27.00,-1016.00
2024-06-07 15:08:31.721125,0,1,-2,0,0,-3,81,84,84,50,91,160.38,93,6.00,-17.00,-1108.00
2024-06-07 15:08:31.736843,0,1,-2,0,0,-4,81,84,89,50,91,160.38,94,-45.00,-8.00,-1109.00
2024-06-07 15:08:31.831507,0,1,-2,0,0,-4,81,84,95,60,91,160.43,94,30.00,-42.00,-979.00
2024-06-07 15:08:32.117453,0,0,-2,0,0,-5,81,84,99,70,91,160.48,94,-51.00,-15.00,-1077.00
2024-06-07 15:08:32.117512,0,0,-2,0,0,-5,81,84,106,70,91,160.48,94,26.00,-16.00,-1033.00
2024-06-07 15:08:32.138682,0,0,-2,0,0,-5,81,84,110,80,91,160.57,94,-30.00,-2.00,-1048.00
2024-06-07 15:08:32.323159,0,0,-2,0,0,-5,81,84,116,90,91,160.72,94,-38.00,0.00,-994.00
2024-06-07 15:08:32.341447,0,0,-2,0,0,-5,81,84,122,90,91,160.67,94,6.00,-26.00,-972.00
2024-06-07 15:08:32.446056,0,0,-2,0,0,-5,81,84,129,100,91,160.73,94,0.00,-20.00,-1004.00
2024-06-07 15:08:32.546438,0,0,-2,0,0,-5,81,84,134,100,91,160.79,94,-40.00,9.00,-934.00
2024-06-07 15:08:32.734063,0,0,-2,0,0,-4,81,84,138,110,91,160.81,95,-7.00,1.00,-973.00
2024-06-07 15:08:32.749903,0,0,-2,0,0,-4,81,84,143,110,91,160.89,95,1.00,-27.00,-935.00
2024-06-07 15:08:32.942711,0,0,-2,0,0,-4,81,84,146,120,91,160.89,95,2.00,-26.00,-983.00
2024-06-07 15:08:32.954240,0,0,-2,0,0,-3,82,84,150,120,91,160.92,95,30.00,-34.00,-945.00
2024-06-07 15:08:33.140832,0,0,-2,0,0,-3,82,84,155,120,91,161.01,95,-39.00,-6.00,-912.00
2024-06-07 15:08:33.157405,0,0,-2,0,0,-2,82,84,156,130,91,160.97,95,-26.00,-24.00,-920.00
2024-06-07 15:08:33.261066,0,1,-2,0,0,-2,82,84,160,130,91,161.02,95,-39.00,5.00,-992.00
2024-06-07 15:08:33.361532,0,1,-2,0,0,-2,82,84,163,130,91,161.05,95,-4.00,-23.00,-952.00
2024-06-07 15:08:33.550195,0,1,-2,0,0,-1,82,84,163,130,91,161.09,95,0.00,-30.00,-981.00
2024-06-07 15:08:33.550839,0,1,-2,0,0,-1,82,84,166,130,91,161.06,95,3.00,-21.00,-946.00
2024-06-07 15:08:33.616475,0,1,-2,0,0,-1,82,84,167,140,91,161.07,96,-18.00,-11.00,-921.00
2024-06-07 15:08:33.755042,0,1,-2,0,0,0,82,84,168,140,91,161.08,96,-28.00,-19.00,-906.00
2024-06-07 15:08:33.820430,0,1,-2,0,0,0,82,84,169,140,91,161.05,96,-31.00,-6.00,-1031.00
2024-06-07 15:08:33.960102,0,1,-2,0,0,0,82,84,170,140,91,161.13,96,27.00,-40.00,-986.00
2024-06-07 15:08:34.024330,0,1,-2,0,0,0,82,84,168,140,91,161.11,96,-43.00,7.00,-1000.00
2024-06-07 15:08:34.164695,0,1,-2,0,0,0,82,84,170,140,91,161.09,96,-35.00,-7.00,-964.00
2024-06-07 15:08:34.228705,0,1,-2,0,0,0,82,84,169,140,91,161.09,96,-28.00,-9.00,-975.00
2024-06-07 15:08:34.370131,0,1,-2,0,0,0,82,84,171,140,91,161.12,96,-17.00,-40.00,-1061.00
2024-06-07 15:08:34.432475,0,1,-2,0,0,0,82,84,172,140,91,161.10,96,-11.00,-21.00,-1025.00
2024-06-07 15:08:34.574965,0,1,-2,0,0,0,82,84,170,140,91,161.08,96,12.00,-26.00,-1049.00
2024-06-07 15:08:34.636880,0,1,-2,0,0,0,82,84,173,140,91,161.11,97,0.00,-34.00,-982.00
2024-06-07 15:08:34.742391,0,1,-2,0,0,0,82,84,169,140,91,161.16,97,-35.00,-9.00,-912.00
2024-06-07 15:08:34.840788,0,1,-2,0,0,0,82,84,170,140,91,161.12,97,10.00,-45.00,-984.00
2024-06-07 15:08:34.942919,0,1,-2,0,0,0,81,84,171,140,91,161.12,97,-2.00,-21.00,-1013.00
2024-06-07 15:08:35.086665,0,1,-2,0,0,0,81,84,170,140,91,161.14,97,20.00,-53.00,-989.00
2024-06-07 15:08:35.146447,0,1,-2,0,0,0,81,84,171,140,91,161.06,97,-29.00,-42.00,-1050.00
2024-06-07 15:08:35.248538,0,1,-2,0,0,0,81,84,170,140,91,161.04,97,-35.00,-10.00,-1020.00
2024-06-07 15:08:35.393962,0,1,-2,0,0,0,81,84,170,140,91,161.07,97,-1.00,-30.00,-983.00
2024-06-07 15:08:35.452466,0,1,-2,0,0,0,81,84,168,140,91,161.05,97,0.00,-29.00,-960.00
2024-06-07 15:08:35.555572,-1,1,-2,0,0,0,81,84,168,140,91,161.07,97,4.00,-25.00,-968.00
2024-06-07 15:08:35.700872,0,1,-2,0,0,0,81,84,169,140,91,161.04,98,-15.00,-27.00,-927.00
2024-06-07 15:08:35.760244,0,1,-2,0,0,0,81,84,165,140,91,161.02,98,-12.00,-38.00,-1035.00
2024-06-07 15:08:35.867562,0,1,-2,0,0,0,81,84,164,140,91,161.04,98,5.00,-39.00,-1134.00
2024-06-07 15:08:35.963443,0,1,-2,0,0,0,81,84,164,140,91,161.07,98,-10.00,-40.00,-975.00
2024-06-07 15:08:36.067784,0,1,-2,0,0,0,81,84,163,140,91,161.03,98,-44.00,-23.00,-1042.00
2024-06-07 15:08:36.179086,0,1,-2,0,0,0,81,84,162,140,91,161.01,98,9.00,-39.00,-959.00
2024-06-07 15:08:36.281728,0,1,-2,0,0,0,81,84,161,130,91,160.99,98,-33.00,-21.00,-858.00
2024-06-07 15:08:36.373167,0,1,-2,0,0,0,81,84,160,130,91,161.00,98,-3.00,-44.00,-958.00
2024-06-07 15:08:36.474232,0,1,-2,0,0,1,81,84,158,130,91,161.00,98,-3.00,-14.00,-944.00
2024-06-07 15:08:36.576045,0,1,-2,0,0,2,81,84,154,130,91,160.98,98,-9.00,-24.00,-1057.00
2024-06-07 15:08:36.677731,0,1,-2,0,0,2,81,84,152,130,91,160.87,99,-8.00,-55.00,-948.00
2024-06-07 15:08:36.780945,0,1,-2,0,0,2,81,84,151,120,91,160.90,99,-11.00,-35.00,-982.00
2024-06-07 15:08:36.881322,0,2,-2,0,0,3,81,84,146,120,91,160.76,99,-57.00,-25.00,-1050.00
2024-06-07 15:08:36.993821,0,1,-2,0,0,2,81,84,145,120,91,160.76,99,-39.00,-46.00,-930.00
2024-06-07 15:08:37.085324,-1,1,-2,0,0,2,81,84,140,110,91,160.83,99,-17.00,-43.00,-990.00
2024-06-07 15:08:37.236685,0,2,-2,0,0,2,81,84,138,110,91,160.83,99,33.00,-67.00,-993.00
2024-06-07 15:08:37.289279,0,2,-2,0,0,2,81,84,135,110,91,160.77,99,-10.00,-44.00,-1001.00
2024-06-07 15:08:37.340651,0,2,-2,0,0,2,81,84,131,110,91,160.77,99,28.00,-81.00,-975.00
2024-06-07 15:08:37.442584,0,2,-2,0,0,2,81,84,129,100,91,160.72,99,4.00,-28.00,-985.00
2024-06-07 15:08:37.544263,0,2,-2,0,0,2,81,84,125,100,91,160.65,99,-18.00,-33.00,-988.00
2024-06-07 15:08:37.646470,0,2,-2,0,0,2,81,84,123,100,91,160.69,100,-22.00,-34.00,-1083.00
2024-06-07 15:08:37.748551,0,1,-2,0,0,2,81,84,121,100,91,160.70,100,-8.00,-37.00,-1033.00
2024-06-07 15:08:37.852658,-1,1,-2,0,0,1,81,84,120,90,91,160.65,100,-21.00,-52.00,-1046.00
2024-06-07 15:08:37.953225,0,2,-2,0,0,1,81,84,118,90,91,160.59,100,-4.00,-29.00,-982.00
2024-06-07 15:08:38.055490,0,2,-2,0,0,1,81,84,117,90,91,160.62,100,-30.00,-19.00,-960.00
2024-06-07 15:08:38.156219,0,2,-2,0,0,0,81,84,117,90,91,160.62,100,0.00,-44.00,-1058.00
2024-06-07 15:08:38.260612,0,2,-2,0,0,0,81,84,117,90,91,160.67,100,8.00,-36.00,-1066.00
2024-06-07 15:08:38.360658,0,1,-2,0,0,0,81,84,117,90,91,160.60,100,27.00,-62.00,-942.00
2024-06-07 15:08:38.466885,0,1,-2,0,0,0,81,84,117,90,91,160.67,100,-11.00,-35.00,-996.00
2024-06-07 15:08:38.564305,0,1,-2,0,0,0,81,84,118,90,91,160.60,100,5.00,-75.00,-1022.00
2024-06-07 15:08:38.670306,0,2,-2,0,0,0,81,84,119,90,91,160.62,101,-27.00,-39.00,-1047.00
2024-06-07 15:08:38.768368,-1,2,-2,0,0,0,81,84,120,90,91,160.57,101,-71.00,-14.00,-954.00
2024-06-07 15:08:38.875240,-1,2,-2,0,0,0,81,84,120,90,91,160.67,101,7.00,-53.00,-951.00
2024-06-07 15:08:38.972294,0,2,-2,0,0,0,82,84,119,90,91,160.67,101,0.00,-43.00,-950.00
2024-06-07 15:08:39.082673,0,2,-2,0,0,0,82,84,119,90,91,160.62,101,-55.00,-31.00,-960.00
2024-06-07 15:08:39.176191,0,1,-2,0,0,0,82,84,118,90,91,160.65,101,-5.00,-39.00,-994.00
2024-06-07 15:08:39.285702,0,2,-2,0,0,0,82,84,119,90,91,160.60,101,-39.00,-40.00,-1035.00
2024-06-07 15:08:39.380568,0,2,-2,0,0,0,82,84,119,90,91,160.53,101,19.00,-74.00,-1006.00
2024-06-07 15:08:39.489767,0,2,-2,0,0,0,82,84,118,90,91,160.55,101,-7.00,-51.00,-988.00
2024-06-07 15:08:39.584407,0,2,-2,0,0,0,82,84,118,90,91,160.58,101,15.00,-58.00,-1076.00
2024-06-07 15:08:39.694925,-1,2,-2,0,0,0,82,84,118,90,91,160.55,102,-6.00,-49.00,-983.00
2024-06-07 15:08:39.788222,0,2,-2,0,0,0,82,84,117,90,91,160.58,102,-17.00,-76.00,-988.00
2024-06-07 15:08:39.899063,0,2,-2,0,0,0,82,84,118,90,91,160.56,102,-30.00,-29.00,-1016.00
2024-06-07 15:08:39.992241,0,2,-2,0,0,0,81,84,116,90,91,160.60,102,17.00,-70.00,-984.00
2024-06-07 15:08:40.094118,0,2,-2,0,0,0,81,84,117,90,91,160.50,102,-26.00,-59.00,-1200.00
2024-06-07 15:08:40.207573,-1,2,-2,0,0,0,81,84,117,90,91,160.59,102,-52.00,-33.00,-1001.00
2024-06-07 15:08:40.298074,-7,2,-2,0,0,0,81,84,118,90,91,160.55,102,-12.00,-67.00,-952.00
2024-06-07 15:08:40.400709,-8,2,-2,1,0,0,81,84,117,90,91,160.52,102,-55.00,-38.00,-1020.00
2024-06-07 15:08:40.513297,-8,2,-2,2,0,0,81,84,115,90,91,160.52,102,-32.00,-62.00,-974.00
2024-06-07 15:08:40.603958,-8,2,-2,4,0,0,81,84,115,90,91,160.49,102,-66.00,-41.00,-1056.00
2024-06-07 15:08:40.718147,-8,3,-2,5,0,0,81,84,114,90,91,160.46,103,-22.00,-36.00,-1011.00
2024-06-07 15:08:40.756992,-8,3,-2,6,0,0,81,84,113,90,91,160.42,103,-91.00,-16.00,-1028.00
2024-06-07 15:08:40.922916,-7,3,-2,6,0,0,81,84,113,80,91,160.31,103,-83.00,-46.00,-1008.00
2024-06-07 15:08:41.012043,-6,3,-2,7,0,0,82,84,112,80,91,160.38,103,-55.00,-44.00,-1019.00
2024-06-07 15:08:41.127718,-5,2,-2,7,0,0,82,84,110,80,91,160.47,103,-19.00,-87.00,-969.00
2024-06-07 15:08:41.216053,-1,2,-2,7,0,0,82,84,109,80,91,160.43,103,-6.00,-85.00,-1018.00
2024-06-07 15:08:41.332569,1,2,-2,6,0,0,82,84,109,80,91,160.39,103,-59.00,-41.00,-955.00
2024-06-07 15:08:41.420040,3,3,-2,5,0,0,82,84,110,80,91,160.40,103,-60.00,-53.00,-1007.00
2024-06-07 15:08:41.471956,2,3,-2,4,0,0,82,84,110,80,91,160.36,103,-91.00,-43.00,-1026.00
2024-06-07 15:08:41.642466,1,3,-2,3,0,0,82,84,108,80,91,160.42,103,-26.00,-71.00,-982.00
2024-06-07 15:08:41.677170,0,3,-2,3,0,0,82,84,110,80,91,160.44,104,-34.00,-48.00,-990.00
2024-06-07 15:08:41.844541,0,3,-2,3,0,0,82,84,109,80,91,160.42,104,-51.00,-74.00,-1034.00
2024-06-07 15:08:41.880025,-1,3,-2,3,0,0,82,84,110,80,91,160.46,104,-34.00,-59.00,-992.00
2024-06-07 15:08:42.050846,0,3,-2,3,0,0,82,84,110,80,91,160.45,104,-31.00,-68.00,-1012.00
2024-06-07 15:08:42.083986,0,3,-2,2,0,0,82,84,111,80,91,160.47,104,-82.00,-33.00,-1018.00
2024-06-07 15:08:42.254094,0,3,-2,2,0,0,82,84,112,80,91,160.47,104,-9.00,-80.00,-997.00
2024-06-07 15:08:42.289119,0,3,-2,2,0,0,82,84,112,80,91,160.43,104,-49.00,-53.00,-1002.00
2024-06-07 15:08:42.459775,1,3,-2,2,0,0,82,84,113,80,91,160.54,104,15.00,-78.00,-964.00
2024-06-07 15:08:42.493155,2,2,-2,1,0,0,82,84,114,80,91,160.48,104,-63.00,-43.00,-883.00
2024-06-07 15:08:42.663575,1,2,-2,0,0,0,82,84,115,90,91,160.52,104,-7.00,-78.00,-978.00
2024-06-07 15:08:42.697629,0,2,-2,0,0,0,82,84,116,90,91,160.57,105,-36.00,-39.00,-990.00
2024-06-07 15:08:42.868628,0,3,-2,0,0,0,82,84,117,90,91,160.53,105,-32.00,-55.00,-1013.00
2024-06-07 15:08:42.903420,0,3,-2,0,0,0,82,84,117,90,91,160.59,105,6.00,-95.00,-1027.00
2024-06-07 15:08:43.003248,0,3,-2,0,0,0,82,84,119,90,91,160.54,105,-28.00,-49.00,-980.00
2024-06-07 15:08:43.175835,0,3,-2,0,0,0,82,84,118,90,91,160.59,105,-3.00,-78.00,-1038.00
2024-06-07 15:08:43.207139,0,3,-2,0,0,0,82,84,119,90,91,160.61,105,21.00,-84.00,-966.00
2024-06-07 15:08:43.310400,0,3,-2,0,0,0,82,84,119,90,91,160.60,105,-8.00,-78.00,-1008.00
2024-06-07 15:08:43.411010,0,4,-2,0,0,0,82,84,119,90,91,160.55,105,-11.00,-70.00,-987.00
2024-06-07 15:08:43.513062,-1,4,-2,0,0,0,82,84,119,90,91,160.59,105,-33.00,-60.00,-994.00
2024-06-07 15:08:43.689140,-1,4,-2,0,0,0,82,84,119,90,91,160.61,105,-9.00,-74.00,-1028.00
2024-06-07 15:08:43.717221,-1,4,-2,0,0,0,82,84,117,90,91,160.61,106,38.00,-119.00,-974.00
2024-06-07 15:08:43.894032,0,4,-2,0,0,0,82,84,118,90,91,160.58,106,-31.00,-67.00,-1050.00
2024-06-07 15:08:43.920986,0,4,-2,0,0,0,82,84,118,90,91,160.62,106,11.00,-58.00,-923.00
2024-06-07 15:08:44.097360,0,4,-2,0,0,0,82,84,118,90,91,160.65,106,0.00,-79.00,-1018.00
2024-06-07 15:08:44.124952,0,4,-2,0,0,0,82,84,119,90,91,160.61,106,3.00,-67.00,-880.00
2024-06-07 15:08:44.302280,0,4,-2,0,0,0,82,84,118,90,91,160.63,106,-27.00,-65.00,-1016.00
2024-06-07 15:08:44.328876,0,4,-2,0,0,0,82,84,117,90,91,160.60,106,7.00,-83.00,-1251.00
2024-06-07 15:08:44.430957,0,4,-2,0,0,0,82,84,118,90,91,160.66,106,19.00,-70.00,-960.00
2024-06-07 15:08:44.533022,0,4,-2,0,0,0,82,84,117,90,91,160.59,106,1.00,-99.00,-1015.00
2024-06-07 15:08:44.667566,0,4,-2,0,0,0,82,84,116,90,91,160.60,106,29.00,-117.00,-1026.00
2024-06-07 15:08:44.736870,0,5,-2,0,0,0,82,84,116,90,91,160.55,107,-34.00,-83.00,-1060.00
2024-06-07 15:08:44.916903,0,5,-2,0,0,0,82,84,116,90,91,160.67,107,34.00,-76.00,-905.00
2024-06-07 15:08:44.917018,2,4,-2,0,0,0,82,84,117,90,91,160.65,107,-4.00,-92.00,-983.00
2024-06-07 15:08:45.121410,7,3,-2,0,0,0,81,84,117,90,91,160.68,107,22.00,-100.00,-969.00
2024-06-07 15:08:45.121557,7,3,-2,-2,0,0,81,84,118,90,91,160.70,107,47.00,-104.00,-1008.00
2024-06-07 15:08:45.195807,7,4,-2,-3,0,0,81,84,117,90,91,160.65,107,13.00,-72.00,-1024.00
2024-06-07 15:08:45.326101,7,5,-2,-4,0,0,81,84,118,90,91,160.55,107,29.00,-54.00,-1076.00
2024-06-07 15:08:45.400100,7,5,-2,-5,0,0,81,84,118,90,91,160.68,107,-5.00,-61.00,-856.00
2024-06-07 15:08:45.534107,8,4,-2,-6,0,0,81,84,117,90,91,160.70,107,11.00,-119.00,-984.00
2024-06-07 15:08:45.605163,6,5,-2,-7,0,0,81,84,117,90,91,160.70,107,37.00,-95.00,-1018.00
2024-06-07 15:08:45.706902,3,6,-2,-8,0,0,81,84,118,90,91,160.65,108,17.00,-95.00,-1033.00
2024-06-07 15:08:45.841169,1,7,-2,-8,0,0,81,84,118,90,91,160.65,108,26.00,-89.00,-1053.00
2024-06-07 15:08:45.910760,-1,6,-2,-7,0,0,81,84,117,90,91,160.79,108,29.00,-117.00,-973.00
2024-06-07 15:08:46.044206,-3,5,-3,-6,0,0,81,84,118,90,91,160.70,108,25.00,-124.00,-993.00
2024-06-07 15:08:46.114704,-4,5,-3,-5,0,0,81,84,119,90,91,160.75,108,10.00,-140.00,-1072.00
2024-06-07 15:08:46.250749,-3,6,-3,-4,0,0,81,84,121,90,91,160.77,108,39.00,-107.00,-996.00
2024-06-07 15:08:46.318804,-2,7,-3,-3,0,0,81,84,123,90,91,160.80,108,74.00,-94.00,-1010.00
2024-06-07 15:08:46.421887,-1,7,-3,-2,0,0,81,84,124,90,91,160.73,108,38.00,-59.00,-928.00
2024-06-07 15:08:46.554812,0,7,-3,-2,0,-1,81,84,126,90,91,160.71,108,61.00,-92.00,-903.00
2024-06-07 15:08:46.624875,0,6,-2,-2,0,0,81,84,128,90,91,160.72,108,3.00,-81.00,-951.00
2024-06-07 15:08:46.760790,0,4,-2,-2,0,0,81,84,130,90,91,160.81,109,45.00,-121.00,-908.00
2024-06-07 15:08:46.828743,0,5,-2,-2,0,0,81,84,131,90,91,160.76,109,36.00,-120.00,-1010.00
2024-06-07 15:08:46.964725,0,6,-2,-2,0,0,81,84,133,100,91,160.83,109,-35.00,-77.00,-938.00
2024-06-07 15:08:47.032730,-5,2,-2,-2,0,0,81,85,133,100,91,160.75,109,16.00,-113.00,-929.00
2024-06-07 15:08:47.169481,-4,2,-2,-1,0,0,81,85,131,100,91,160.70,109,0.00,-142.00,-1081.00
2024-06-07 15:08:47.236901,-2,4,-2,0,0,0,81,85,133,100,90,160.76,109,24.00,-133.00,-952.00
2024-06-07 15:08:47.374162,-1,6,-2,0,-1,0,81,85,133,100,90,160.72,109,-6.00,-130.00,-967.00
2024-06-07 15:08:47.440959,-1,7,-2,0,-1,0,81,85,132,100,90,160.85,109,8.00,-144.00,-983.00
2024-06-07 15:08:47.542843,-1,7,-2,-1,-1,0,81,85,133,100,90,160.87,109,-20.00,-130.00,-966.00
2024-06-07 15:08:47.682980,-2,7,-2,-1,-1,0,81,85,132,100,90,160.94,110,-32.00,-134.00,-1036.00
2024-06-07 15:08:47.746843,-3,7,-2,-1,0,0,81,85,131,100,90,160.76,110,-69.00,-148.00,-1016.00
2024-06-07 15:08:47.886162,-4,7,-3,-1,-1,0,81,85,132,100,90,160.86,110,-49.00,-156.00,-959.00
2024-06-07 15:08:47.950819,-4,7,-3,0,-1,0,81,85,131,100,90,160.83,110,-47.00,-131.00,-938.00
2024-06-07 15:08:48.052819,-4,8,-3,0,-1,0,82,85,131,100,90,160.80,110,-40.00,-171.00,-1063.00
2024-06-07 15:08:48.193961,-3,8,-2,0,-1,0,82,85,131,100,90,160.80,110,-33.00,-119.00,-977.00
2024-06-07 15:08:48.256811,-2,8,-2,0,0,0,82,85,131,90,90,160.72,110,-24.00,-124.00,-994.00
2024-06-07 15:08:48.398195,-2,8,-2,0,0,0,82,85,130,90,90,160.72,110,-50.00,-116.00,-954.00
2024-06-07 15:08:48.460858,-2,8,-2,0,0,0,82,85,128,90,90,160.76,110,-45.00,-155.00,-967.00
2024-06-07 15:08:48.603472,-3,8,-2,0,0,0,82,85,129,90,90,160.74,110,-71.00,-123.00,-989.00
2024-06-07 15:08:48.664753,-3,7,-2,0,0,0,82,85,127,90,90,160.73,111,-36.00,-137.00,-960.00
2024-06-07 15:08:48.715676,-3,8,-2,0,0,0,82,85,128,90,90,160.67,111,-57.00,-147.00,-975.00
2024-06-07 15:08:48.911342,-3,7,-2,0,0,0,82,85,127,90,90,160.65,111,-47.00,-112.00,-1047.00
2024-06-07 15:08:48.919682,-3,7,-2,0,0,0,82,85,126,90,90,160.75,111,-11.00,-133.00,-1016.00
2024-06-07 15:08:49.115777,-2,7,-2,0,0,0,82,84,127,90,90,160.67,111,-11.00,-152.00,-996.00
2024-06-07 15:08:49.123590,-1,8,-2,0,0,0,82,84,126,90,90,160.60,111,-43.00,-124.00,-1073.00
2024-06-07 15:08:49.225724,-1,8,-2,0,0,0,82,84,126,90,90,160.59,111,-59.00,-162.00,-1025.00
2024-06-07 15:08:49.422807,-1,5,-2,0,0,0,82,84,125,90,90,160.62,111,-25.00,-131.00,-979.00
2024-06-07 15:08:49.429625,-1,-3,-2,0,0,0,82,84,123,90,90,160.61,111,-40.00,-159.00,-977.00
2024-06-07 15:08:49.531611,-2,-1,-2,0,-2,0,82,84,122,90,90,160.61,111,-106.00,-95.00,-979.00
2024-06-07 15:08:49.729178,-2,1,-2,0,-4,0,82,84,121,90,90,160.48,112,-84.00,-61.00,-1069.00
2024-06-07 15:08:49.735537,-2,4,-2,0,-4,0,82,84,120,90,90,160.51,112,-66.00,-137.00,-1087.00
2024-06-07 15:08:49.934095,-2,7,-2,0,-4,0,82,84,121,90,90,160.44,112,-5.00,-139.00,-938.00
2024-06-07 15:08:49.940155,-2,8,-2,0,-3,0,82,84,122,90,90,160.51,112,-58.00,-86.00,-1040.00
2024-06-07 15:08:50.144181,-2,6,-2,0,-2,0,82,85,121,90,90,160.64,112,-77.00,-120.00,-1021.00
2024-06-07 15:08:50.144445,-2,5,-2,0,-2,0,82,85,121,90,90,160.60,112,-20.00,-138.00,-989.00
2024-06-07 15:08:50.245543,-2,5,-2,0,-2,0,82,85,122,90,90,160.59,112,-58.00,-121.00,-950.00
2024-06-07 15:08:50.347486,-2,6,-2,0,-3,0,82,85,121,90,90,160.57,112,-94.00,-100.00,-997.00
2024-06-07 15:08:50.449582,-3,6,-3,0,-3,0,82,85,121,90,90,160.63,112,-45.00,-104.00,-966.00
2024-06-07 15:08:50.551520,-3,7,-3,0,-3,0,82,85,122,90,90,160.62,112,-12.00,-145.00,-1031.00
2024-06-07 15:08:50.653496,-2,8,-2,0,-3,0,82,85,122,90,90,160.56,113,-32.00,-131.00,-1005.00
2024-06-07 15:08:50.755535,-1,9,-2,0,-3,0,82,85,121,90,90,160.60,113,-36.00,-88.00,-991.00
2024-06-07 15:08:50.857598,-1,8,-2,0,-2,0,82,85,122,90,90,160.54,113,-53.00,-128.00,-994.00
2024-06-07 15:08:50.960550,-1,8,-2,0,-2,0,82,85,121,90,90,160.48,113,0.00,-130.00,-1017.00
2024-06-07 15:08:51.062544,-1,8,-3,0,-2,0,82,85,121,90,90,160.52,113,-24.00,-120.00,-979.00
2024-06-07 15:08:51.164179,-1,8,-2,0,-1,0,82,85,121,90,90,160.45,113,-11.00,-139.00,-977.00
2024-06-07 15:08:51.268320,-2,8,-2,0,-1,0,82,85,122,90,89,160.40,113,-31.00,-107.00,-1008.00
2024-06-07 15:08:51.470177,-1,8,-2,0,-1,0,82,85,121,90,89,160.47,113,-43.00,-122.00,-960.00
2024-06-07 15:08:51.470598,-2,8,-2,0,-1,0,82,85,122,90,89,160.47,113,-20.00,-126.00,-1008.00
2024-06-07 15:08:51.573009,-2,8,-2,0,-1,0,82,85,121,90,89,160.61,113,-42.00,-115.00,-982.00
2024-06-07 15:08:51.675538,-1,8,-3,0,0,0,82,85,122,90,89,160.60,114,-33.00,-110.00,-964.00
2024-06-07 15:08:51.788078,-1,8,-3,0,0,0,82,85,123,90,89,160.56,114,-36.00,-97.00,-946.00
2024-06-07 15:08:51.882563,-1,8,-3,0,0,0,82,85,123,90,89,160.55,114,-89.00,-108.00,-1016.00
2024-06-07 15:08:51.982062,-1,7,-3,0,0,0,82,85,124,90,89,160.51,114,-47.00,-102.00,-1006.00
2024-06-07 15:08:52.084501,-1,7,-2,0,0,0,82,86,124,90,89,160.48,114,-35.00,-123.00,-960.00
2024-06-07 15:08:52.184657,-1,6,-2,0,0,0,82,86,123,90,89,160.44,114,-43.00,-97.00,-962.00
2024-06-07 15:08:52.286566,-1,6,-2,0,0,0,82,86,124,90,89,160.43,114,-16.00,-144.00,-1006.00
2024-06-07 15:08:52.392859,-2,6,-2,0,0,0,82,86,123,90,89,160.52,114,-68.00,-94.00,-948.00
2024-06-07 15:08:52.491164,-2,6,-2,0,0,0,82,86,124,90,89,160.48,114,-59.00,-108.00,-1021.00
2024-06-07 15:08:52.592653,-2,7,-2,0,0,0,82,86,125,90,89,160.49,114,-62.00,-109.00,-1001.00
2024-06-07 15:08:52.699751,-3,6,-2,0,0,0,82,86,124,90,89,160.51,115,-6.00,-120.00,-961.00
2024-06-07 15:08:52.796995,-2,5,-2,0,0,0,82,86,125,90,89,160.49,115,-33.00,-106.00,-1008.00
2024-06-07 15:08:52.847460,-3,5,-2,0,0,0,82,86,124,90,89,160.47,115,-48.00,-116.00,-972.00
2024-06-07 15:08:53.007833,-3,5,-2,0,0,0,82,86,125,90,89,160.50,115,-75.00,-114.00,-1023.00
2024-06-07 15:08:53.052161,-3,6,-3,0,0,0,82,86,125,90,89,160.52,115,-44.00,-105.00,-1017.00
2024-06-07 15:08:53.153385,-2,6,-3,0,0,0,82,86,125,90,89,160.53,115,-77.00,-95.00,-948.00
2024-06-07 15:08:53.314123,-2,7,-3,0,0,0,82,86,126,90,89,160.44,115,-86.00,-108.00,-1064.00
2024-06-07 15:08:53.358275,-1,9,-2,0,0,0,82,86,126,90,89,160.40,115,-16.00,-109.00,-956.00
2024-06-07 15:08:53.459487,-1,9,-3,0,1,0,82,86,125,90,89,160.49,115,-7.00,-143.00,-994.00
2024-06-07 15:08:53.620363,-1,8,-3,0,1,0,82,86,125,90,89,160.47,115,-24.00,-135.00,-968.00
2024-06-07 15:08:53.665484,-1,8,-3,0,1,0,82,86,125,90,89,160.47,116,-18.00,-113.00,-954.00
2024-06-07 15:08:53.765449,-1,8,-3,0,2,0,82,86,124,90,89,160.53,116,-2.00,-129.00,-959.00
2024-06-07 15:08:53.929238,-1,8,-2,0,2,0,82,86,123,90,89,160.56,116,19.00,-131.00,-987.00
2024-06-07 15:08:53.969366,0,7,-2,0,2,0,82,86,123,90,89,160.52,116,10.00,-127.00,-1024.00
2024-06-07 15:08:54.132358,0,6,-2,0,2,0,83,85,122,90,89,160.44,116,-9.00,-122.00,-1003.00
2024-06-07 15:08:54.173336,0,6,-2,0,2,0,83,85,121,90,89,160.44,116,-50.00,-106.00,-988.00
2024-06-07 15:08:54.339562,0,6,-2,0,2,0,83,85,120,90,89,160.51,116,-24.00,-123.00,-1010.00
2024-06-07 15:08:54.377665,-1,6,-2,0,2,0,83,85,118,90,89,160.51,116,-36.00,-114.00,-973.00
2024-06-07 15:08:54.479345,-1,6,-2,0,2,0,83,85,117,90,89,160.44,116,33.00,-138.00,-955.00
2024-06-07 15:08:54.647574,0,7,-2,0,2,0,83,85,116,90,89,160.45,116,-65.00,-108.00,-1053.00
2024-06-07 15:08:54.683327,0,6,-2,0,2,0,83,85,114,90,89,160.36,117,-40.00,-112.00,-1028.00
2024-06-07 15:08:54.850025,-1,6,-2,0,2,0,83,85,113,90,89,160.47,117,-29.00,-109.00,-977.00
2024-06-07 15:08:54.887315,-2,6,-3,0,2,0,83,85,111,90,89,160.42,117,-26.00,-100.00,-1001.00
2024-06-07 15:08:55.054788,-1,6,-3,0,2,0,83,85,110,80,89,160.42,117,-37.00,-108.00,-1076.00
2024-06-07 15:08:55.091314,0,5,-3,0,3,0,83,86,109,80,89,160.35,117,-31.00,-97.00,-1084.00
2024-06-07 15:08:55.259097,0,2,-2,0,2,0,83,86,108,80,88,160.32,117,21.00,-106.00,-1036.00
2024-06-07 15:08:55.295248,0,0,-2,0,2,0,83,86,107,80,88,160.36,117,-5.00,-102.00,-1074.00
2024-06-07 15:08:55.464136,2,2,-2,0,1,0,83,86,108,80,88,160.30,117,-29.00,-99.00,-1044.00
2024-06-07 15:08:55.499322,4,3,-2,0,0,0,83,86,108,80,88,160.31,117,46.00,-129.00,-996.00
2024-06-07 15:08:55.668329,3,4,-2,0,0,0,83,86,109,80,88,160.35,117,-4.00,-97.00,-999.00
2024-06-07 15:08:55.703243,2,5,-2,-1,0,0,83,86,110,80,88,160.39,118,-25.00,-81.00,-921.00
2024-06-07 15:08:55.873807,0,4,-2,-1,0,0,83,86,110,80,88,160.39,118,23.00,-110.00,-1055.00
2024-06-07 15:08:55.907407,-5,4,-3,0,0,0,83,86,110,80,88,160.44,118,14.00,-87.00,-957.00
2024-06-07 15:08:55.958465,-2,4,-2,0,0,0,83,86,111,80,88,160.40,118,39.00,-89.00,-1025.00
2024-06-07 15:08:56.113162,-1,4,-2,0,0,0,83,85,112,80,88,160.45,118,-22.00,-81.00,-1023.00
2024-06-07 15:08:56.213536,0,4,-2,1,0,0,83,85,113,80,88,160.31,118,23.00,-99.00,-1006.00
2024-06-07 15:08:56.315537,1,4,-2,1,0,-1,83,85,114,80,88,160.40,118,-8.00,-71.00,-970.00
2024-06-07 15:08:56.366276,1,3,-2,0,0,-1,83,85,115,90,88,160.46,118,42.00,-84.00,-844.00
2024-06-07 15:08:56.469033,1,3,-2,0,0,0,83,85,114,90,88,160.38,118,-20.00,-73.00,-1019.00
2024-06-07 15:08:56.570411,0,3,-2,0,0,0,83,85,115,90,88,160.37,118,8.00,-72.00,-968.00
2024-06-07 15:08:56.672744,0,3,-2,0,0,0,83,85,114,90,88,160.35,119,37.00,-79.00,-951.00
2024-06-07 15:08:56.794889,0,3,-2,0,0,0,83,85,112,90,88,160.32,119,10.00,-66.00,-1003.00
2024-06-07 15:08:56.877809,0,3,-2,0,0,0,83,85,113,90,88,160.35,119,-80.00,-40.00,-1035.00
2024-06-07 15:08:56.978329,-1,3,-2,0,0,0,83,85,114,80,88,160.38,119,28.00,-80.00,-955.00
2024-06-07 15:08:57.102065,-1,3,-2,0,0,0,83,85,113,80,88,160.40,119,-10.00,-84.00,-1059.00
2024-06-07 15:08:57.183335,-1,3,-2,0,0,0,83,85,114,80,88,160.41,119,-33.00,-49.00,-962.00
2024-06-07 15:08:57.284212,0,2,-2,0,0,0,83,85,114,80,88,160.43,119,-16.00,-62.00,-990.00
2024-06-07 15:08:57.410542,0,2,-2,0,0,0,83,85,116,80,88,160.45,119,-22.00,-59.00,-1120.00
2024-06-07 15:08:57.489894,0,3,-2,0,0,0,83,85,118,90,88,160.48,119,-24.00,-60.00,-1038.00
2024-06-07 15:08:57.590784,0,3,-2,0,0,0,83,85,119,90,88,160.50,119,-7.00,-71.00,-966.00
2024-06-07 15:08:57.716420,0,3,-2,0,0,0,83,85,120,90,88,160.41,120,-1.00,-73.00,-976.00
2024-06-07 15:08:57.794332,0,3,-2,0,0,0,83,85,121,90,88,160.46,120,-11.00,-24.00,-947.00
2024-06-07 15:08:57.896158,0,2,-2,0,0,0,83,85,122,90,88,160.49,120,-11.00,-54.00,-962.00
2024-06-07 15:08:57.998166,0,2,-2,0,0,0,83,85,123,90,88,160.45,120,20.00,-66.00,-921.00
2024-06-07 15:08:58.125880,0,3,1,0,0,0,83,85,125,90,88,160.48,120,-51.00,-58.00,-1054.00
2024-06-07 15:08:58.202327,0,3,6,0,0,0,83,85,125,90,88,160.50,120,-74.00,-52.00,-978.00
2024-06-07 15:08:58.331627,-2,3,12,0,0,0,83,85,125,90,88,160.53,120,-51.00,-31.00,-964.00
2024-06-07 15:08:58.406195,-2,2,18,0,0,0,83,85,125,90,88,160.46,120,-19.00,-64.00,-1089.00
2024-06-07 15:08:58.535421,-2,2,24,0,0,0,83,85,127,90,88,160.42,120,-43.00,-50.00,-1037.00
2024-06-07 15:08:58.610151,-2,2,30,0,0,0,83,85,127,90,88,160.43,120,-62.00,-50.00,-952.00
2024-06-07 15:08:58.742100,-2,2,36,0,0,0,83,85,127,90,88,160.39,121,-96.00,-4.00,-932.00
2024-06-07 15:08:58.814124,-3,2,42,0,0,0,83,85,127,90,88,160.40,121,-45.00,-27.00,-966.00
2024-06-07 15:08:58.945092,-3,1,48,0,0,0,83,85,125,90,88,160.40,121,-10.00,-32.00,-989.00
2024-06-07 15:08:59.018090,-4,1,54,0,0,0,83,85,125,90,88,160.45,121,-85.00,-48.00,-1149.00
2024-06-07 15:08:59.120716,-4,0,60,0,0,0,83,85,123,90,88,160.45,121,-85.00,-7.00,-1002.00
2024-06-07 15:08:59.257667,-4,0,66,0,0,0,83,85,124,90,88,160.37,121,-9.00,-13.00,-906.00
2024-06-07 15:08:59.324093,-4,0,72,0,0,0,83,85,125,90,88,160.40,121,-53.00,-11.00,-949.00
2024-06-07 15:08:59.457061,-4,0,78,0,0,0,83,85,123,90,88,160.37,121,-79.00,1.00,-984.00
2024-06-07 15:08:59.528074,-4,0,84,0,0,0,83,85,124,90,88,160.36,121,-55.00,-10.00,-995.00
2024-06-07 15:08:59.661792,-5,-1,90,0,0,0,83,85,124,90,88,160.35,121,-60.00,-5.00,-991.00
2024-06-07 15:08:59.732087,-5,-1,96,0,0,0,83,85,124,90,88,160.32,122,-83.00,18.00,-946.00
2024-06-07 15:08:59.867402,-4,-2,102,0,0,0,83,85,124,90,88,160.32,122,-72.00,7.00,-1004.00
2024-06-07 15:08:59.936064,-4,-2,108,0,0,0,83,85,122,90,88,160.32,122,-82.00,30.00,-901.00
2024-06-07 15:09:00.071459,-4,-2,114,0,0,0,83,85,122,90,88,160.36,122,-94.00,49.00,-1040.00
2024-06-07 15:09:00.140065,-3,-2,120,0,0,0,83,85,121,90,88,160.49,122,-77.00,42.00,-1082.00
2024-06-07 15:09:00.389394,-3,-2,126,0,0,0,83,85,120,90,87,160.48,122,-51.00,23.00,-1030.00
2024-06-07 15:09:00.389426,-3,-2,132,0,0,0,83,85,119,90,87,160.53,122,-24.00,28.00,-1032.00
2024-06-07 15:09:00.395026,-3,-2,138,0,0,0,83,85,119,90,87,160.47,122,-80.00,66.00,-1033.00
2024-06-07 15:09:00.497078,-2,-2,144,0,0,0,83,85,119,90,87,160.55,122,-12.00,67.00,-991.00
2024-06-07 15:09:00.599057,-1,-3,150,0,0,0,83,85,119,90,87,160.61,122,0.00,50.00,-986.00
2024-06-07 15:09:00.788734,0,-3,156,0,0,0,83,85,120,90,87,160.53,123,-19.00,58.00,-1085.00
2024-06-07 15:09:00.805276,0,-3,162,0,0,0,83,85,120,90,87,160.49,123,2.00,97.00,-972.00
2024-06-07 15:09:00.905050,0,-2,167,0,0,0,83,85,120,90,87,160.64,123,-10.00,77.00,-1007.00
2024-06-07 15:09:01.096555,0,-3,173,0,0,0,83,85,120,90,87,160.70,123,-16.00,88.00,-979.00
2024-06-07 15:09:01.109145,1,-4,-174,0,0,0,82,86,120,90,87,160.62,123,15.00,77.00,-975.00
2024-06-07 15:09:01.300253,1,-4,-168,0,0,0,82,86,121,90,87,160.63,123,7.00,106.00,-981.00
2024-06-07 15:09:01.312957,2,-4,-162,0,0,0,82,86,120,90,87,160.65,123,35.00,93.00,-912.00
2024-06-07 15:09:01.505593,2,-4,-155,0,0,0,82,86,120,90,87,160.58,123,107.00,42.00,-937.00
2024-06-07 15:09:01.517011,3,-4,-149,0,0,0,82,86,121,90,87,160.60,123,93.00,48.00,-1008.00
2024-06-07 15:09:01.619000,4,-3,-143,0,0,0,82,86,121,90,87,160.58,124,94.00,30.00,-990.00
2024-06-07 15:09:01.812719,5,-2,-137,0,0,0,82,86,121,90,87,160.51,124,46.00,46.00,-1042.00
2024-06-07 15:09:01.822914,5,-2,-131,0,0,0,82,86,122,90,87,160.54,124,97.00,39.00,-956.00
2024-06-07 15:09:02.017379,5,-2,-124,0,0,0,82,86,122,90,87,160.56,124,30.00,83.00,-971.00
2024-06-07 15:09:02.026911,5,-1,-118,0,0,0,82,86,122,90,87,160.50,124,66.00,21.00,-1001.00
2024-06-07 15:09:02.221848,6,-1,-112,0,0,0,82,85,122,90,87,160.55,124,83.00,13.00,-1003.00
2024-06-07 15:09:02.233414,6,0,-106,0,0,0,82,85,121,90,87,160.44,124,139.00,-16.00,-1019.00
2024-06-07 15:09:02.332949,6,0,-100,0,0,0,82,85,121,90,87,160.34,124,130.00,-30.00,-926.00
2024-06-07 15:09:02.529685,7,1,-94,0,0,0,82,85,122,90,87,160.34,124,66.00,13.00,-1011.00
2024-06-07 15:09:02.536946,7,1,-88,0,0,0,82,85,121,90,87,160.40,124,52.00,-2.00,-1014.00
2024-06-07 15:09:02.735350,7,3,-82,0,0,0,82,85,122,90,87,160.49,125,97.00,-32.00,-965.00
2024-06-07 15:09:02.740938,6,3,-76,0,0,0,82,85,121,90,87,160.47,125,35.00,-54.00,-1023.00
2024-06-07 15:09:03.042456,5,3,-70,0,0,0,82,85,121,90,87,160.55,125,38.00,-39.00,-970.00
2024-06-07 15:09:03.042498,4,4,-64,0,0,0,82,85,120,90,87,160.61,125,43.00,-47.00,-964.00
2024-06-07 15:09:03.046877,2,4,-58,0,1,0,82,85,121,90,87,160.55,125,32.00,-88.00,-1060.00
2024-06-07 15:09:03.245861,1,5,-52,0,1,0,82,85,120,90,87,160.56,125,16.00,-102.00,-988.00
2024-06-07 15:09:03.251925,0,5,-46,0,1,0,82,85,120,90,87,160.57,125,63.00,-80.00,-953.00
2024-06-07 15:09:03.450669,0,5,-40,0,0,0,82,85,120,90,87,160.49,125,25.00,-97.00,-1014.00
2024-06-07 15:09:03.455143,0,5,-34,0,0,0,82,85,119,90,87,160.50,125,10.00,-71.00,-1011.00
2024-06-07 15:09:03.557163,0,5,-28,0,0,0,82,85,119,90,87,160.55,125,32.00,-48.00,-991.00
2024-06-07 15:09:03.757868,0,4,-22,0,1,0,82,85,119,90,87,160.42,126,-12.00,-33.00,-986.00
2024-06-07 15:09:03.760986,0,3,-17,1,1,0,82,85,119,90,87,160.53,126,71.00,-59.00,-947.00
2024-06-07 15:09:03.862905,2,2,-13,1,0,0,82,85,119,90,87,160.47,126,11.00,-24.00,-1036.00
2024-06-07 15:09:03.965144,2,2,-10,1,0,0,82,85,120,90,87,160.51,126,43.00,-79.00,-1060.00
2024-06-07 15:09:04.066891,3,2,-9,1,0,0,82,85,121,90,87,160.50,126,21.00,-58.00,-1045.00
2024-06-07 15:09:04.269834,2,3,-7,1,0,0,82,84,121,90,87,160.45,126,-7.00,-44.00,-998.00
2024-06-07 15:09:04.270896,2,3,-6,0,0,0,82,84,121,90,87,160.47,126,32.00,-53.00,-1023.00
2024-06-07 15:09:04.474669,1,3,-5,0,0,0,82,84,121,90,87,160.43,126,3.00,-34.00,-929.00
2024-06-07 15:09:04.474864,1,2,-5,0,1,0,82,84,120,90,87,160.45,126,-8.00,-13.00,-918.00
2024-06-07 15:09:04.576959,2,1,-5,0,1,0,82,84,121,90,87,160.49,126,3.00,-21.00,-939.00
2024-06-07 15:09:04.679194,1,1,-5,0,1,0,82,84,120,90,87,160.58,127,20.00,-67.00,-1053.00
2024-06-07 15:09:04.731434,1,0,-5,0,0,0,82,84,119,90,87,160.56,127,5.00,-41.00,-1020.00
2024-06-07 15:09:04.831837,1,1,-4,0,0,0,82,84,118,90,87,160.54,127,-7.00,-61.00,-1028.00
2024-06-07 15:09:04.936433,1,2,-4,0,0,0,82,84,119,90,87,160.46,127,-26.00,-46.00,-999.00
2024-06-07 15:09:05.035994,1,4,-4,0,0,0,82,84,119,90,87,160.42,127,-6.00,-49.00,-928.00
2024-06-07 15:09:05.191813,1,4,-4,0,0,0,82,86,119,90,87,160.48,127,-6.00,-54.00,-968.00
2024-06-07 15:09:05.242926,1,4,-4,0,0,0,82,86,117,90,87,160.48,127,10.00,-81.00,-1058.00
2024-06-07 15:09:05.344172,1,3,-4,0,0,0,82,86,117,90,87,160.55,127,31.00,-59.00,-978.00
2024-06-07 15:09:05.446616,1,3,-4,0,0,0,82,86,116,90,87,160.50,127,61.00,-69.00,-955.00
2024-06-07 15:09:05.550662,1,2,-4,0,0,0,82,86,115,90,87,160.41,127,27.00,-73.00,-991.00
2024-06-07 15:09:05.648858,2,3,-4,0,0,0,82,86,116,90,87,160.48,128,-5.00,-60.00,-1005.00
2024-06-07 15:09:05.805916,1,3,-4,0,0,0,82,86,114,90,87,160.44,128,-34.00,-41.00,-1031.00
2024-06-07 15:09:05.857875,0,3,-4,0,0,0,82,86,114,90,87,160.46,128,-11.00,-49.00,-980.00
2024-06-07 15:09:05.955266,0,3,-4,-1,0,0,82,86,115,90,87,160.46,128,-22.00,-78.00,-1017.00
2024-06-07 15:09:06.057389,-1,3,-4,-1,0,0,82,86,114,80,87,160.46,128,-71.00,-16.00,-988.00
2024-06-07 15:09:06.162324,0,3,-4,-1,0,0,82,86,114,80,87,160.47,128,-5.00,-139.00,-1015.00
2024-06-07 15:09:06.260977,-1,3,-4,-1,0,0,82,86,112,80,87,160.48,128,-30.00,-107.00,-973.00
2024-06-07 15:09:06.420341,-1,3,-4,-1,0,0,82,86,114,80,87,160.42,128,-28.00,-63.00,-968.00
2024-06-07 15:09:06.466962,-2,3,-4,-1,0,0,82,86,114,80,87,160.36,128,-22.00,-101.00,-961.00
2024-06-07 15:09:06.566864,-2,3,-4,-1,0,0,82,86,114,80,87,160.55,128,-40.00,-57.00,-985.00
2024-06-07 15:09:06.727560,-2,4,-4,-1,0,0,82,86,115,90,87,160.52,129,-48.00,-57.00,-1003.00
2024-06-07 15:09:06.770855,-2,3,-4,0,0,0,82,86,115,90,87,160.53,129,-10.00,-54.00,-982.00
2024-06-07 15:09:06.887847,-1,3,-4,0,0,0,82,86,115,90,87,160.51,129,-12.00,-76.00,-1012.00
2024-06-07 15:09:06.974592,0,3,-4,0,0,0,82,86,116,90,87,160.59,129,-30.00,-72.00,-1075.00
2024-06-07 15:09:07.136914,0,4,-6,0,0,0,82,86,116,90,87,160.48,129,-119.00,39.00,-1057.00
2024-06-07 15:09:07.178668,0,4,-12,0,0,0,83,85,118,90,86,160.50,129,-4.00,-73.00,-980.00
2024-06-07 15:09:07.280629,0,4,-18,0,0,0,83,85,118,90,86,160.53,129,17.00,-87.00,-1017.00
2024-06-07 15:09:07.444134,0,5,-24,0,0,0,83,85,119,90,86,160.58,129,3.00,-72.00,-982.00
2024-06-07 15:09:07.484652,0,4,-30,0,0,0,83,85,119,90,86,160.58,129,29.00,-73.00,-954.00
2024-06-07 15:09:07.586673,0,4,-36,0,0,0,83,85,119,90,86,160.63,129,46.00,-113.00,-983.00
2024-06-07 15:09:07.751676,0,4,-43,0,0,0,83,85,120,90,86,160.65,130,25.00,-107.00,-997.00
2024-06-07 15:09:07.790560,1,4,-49,0,0,0,83,85,121,90,86,160.65,130,17.00,-75.00,-908.00
2024-06-07 15:09:07.956112,1,3,-55,0,0,0,83,85,122,90,86,160.54,130,26.00,-57.00,-1001.00
2024-06-07 15:09:07.994708,2,3,-61,0,0,0,83,85,121,90,86,160.54,130,5.00,-53.00,-1018.00
2024-06-07 15:09:08.160932,2,3,-67,0,0,0,83,85,122,90,86,160.50,130,83.00,-62.00,-1038.00
2024-06-07 15:09:08.198716,3,3,-73,0,0,0,83,85,121,90,86,160.51,130,24.00,-67.00,-982.00
2024-06-07 15:09:08.365692,3,2,-79,0,0,0,83,85,123,90,86,160.51,130,48.00,-46.00,-944.00
2024-06-07 15:09:08.402561,3,2,-85,0,0,0,83,85,121,90,86,160.45,130,43.00,-46.00,-1001.00
2024-06-07 15:09:08.454621,3,1,-91,0,0,0,83,85,120,90,86,160.46,130,43.00,-15.00,-990.00
2024-06-07 15:09:08.570656,3,1,-97,0,0,0,83,85,119,90,86,160.46,130,47.00,-36.00,-990.00
2024-06-07 15:09:08.657621,3,1,-103,0,0,0,83,85,119,90,86,160.48,131,71.00,-37.00,-961.00
2024-06-07 15:09:08.777065,3,1,-109,0,0,0,83,85,118,90,86,160.44,131,3.00,-1.00,-1048.00
2024-06-07 15:09:08.862042,3,0,-116,0,0,0,83,85,116,90,86,160.39,131,9.00,14.00,-941.00
2024-06-07 15:09:08.980129,3,0,-122,0,0,0,83,85,116,90,86,160.45,131,68.00,9.00,-1070.00
2024-06-07 15:09:09.065591,3,0,-128,0,0,0,83,85,115,90,86,160.42,131,27.00,15.00,-1111.00
2024-06-07 15:09:09.185608,3,-1,-134,0,0,0,82,86,115,90,86,160.49,131,0.00,34.00,-1101.00
2024-06-07 15:09:09.270223,3,-2,-140,0,0,0,82,86,113,80,86,160.45,131,26.00,39.00,-1042.00
2024-06-07 15:09:09.492297,2,-3,-146,0,0,0,82,86,113,80,86,160.47,131,63.00,22.00,-952.00
2024-06-07 15:09:09.492558,2,-3,-152,0,0,0,82,86,113,80,86,160.51,131,67.00,17.00,-1069.00
2024-06-07 15:09:09.575486,1,-3,-158,0,0,0,82,86,115,80,86,160.49,131,69.00,47.00,-1021.00
2024-06-07 15:09:09.696889,1,-3,-164,0,0,0,82,86,114,80,86,160.52,132,29.00,64.00,-974.00
2024-06-07 15:09:09.779449,1,-3,-169,0,0,0,82,86,114,80,86,160.69,132,37.00,58.00,-1031.00
2024-06-07 15:09:09.904336,1,-3,-175,0,0,0,82,86,115,80,86,160.59,132,28.00,27.00,-1025.00
2024-06-07 15:09:09.983500,0,-3,178,0,0,0,82,86,117,80,86,160.56,132,-15.00,89.00,-1009.00
2024-06-07 15:09:10.106509,0,-4,172,0,0,0,82,86,117,90,86,160.64,132,-79.00,73.00,-999.00
2024-06-07 15:09:10.187479,-1,-3,166,0,0,0,82,86,117,90,86,160.72,132,-20.00,74.00,-1027.00
2024-06-07 15:09:10.312496,-2,-2,160,0,0,0,82,86,118,90,86,160.57,132,-47.00,52.00,-925.00
2024-06-07 15:09:10.392867,-2,-1,154,0,0,0,82,86,119,90,86,160.49,132,-52.00,41.00,-985.00
2024-06-07 15:09:10.493505,-3,-1,149,0,0,0,82,86,119,90,86,160.47,132,-47.00,41.00,-1021.00
2024-06-07 15:09:10.596226,-3,-1,143,0,0,0,82,86,120,90,86,160.62,132,-87.00,46.00,-956.00
2024-06-07 15:09:10.729727,-4,-1,137,0,0,0,82,86,120,90,86,160.44,133,-57.00,14.00,-971.00
2024-06-07 15:09:10.802496,-4,-1,131,0,0,0,82,86,121,90,86,160.49,133,-18.00,1.00,-952.00
2024-06-07 15:09:10.902324,-4,0,125,0,0,0,82,86,122,90,86,160.57,133,-43.00,18.00,-978.00
2024-06-07 15:09:11.030951,-4,0,119,0,0,0,82,86,121,90,86,160.54,133,-132.00,68.00,-996.00
2024-06-07 15:09:11.107328,-4,0,113,0,0,0,82,86,121,90,86,160.49,133,-70.00,0.00,-1004.00
2024-06-07 15:09:11.207412,-4,0,107,0,0,0,83,86,121,90,86,160.56,133,-108.00,47.00,-998.00
2024-06-07 15:09:11.309645,-4,0,102,0,0,0,83,86,121,90,86,160.55,133,-31.00,-52.00,-980.00
2024-06-07 15:09:11.437704,-4,0,96,0,0,0,83,86,121,90,86,160.47,133,-21.00,-18.00,-949.00
2024-06-07 15:09:11.513445,-3,0,89,0,0,0,83,86,121,90,86,160.54,133,-71.00,30.00,-930.00
2024-06-07 15:09:11.642481,-3,0,83,0,0,0,83,86,122,90,86,160.51,133,-100.00,28.00,-1134.00
2024-06-07 15:09:11.717397,-3,0,76,0,0,0,83,86,122,90,86,160.46,134,-102.00,19.00,-1055.00
2024-06-07 15:09:11.847435,-3,0,70,0,0,0,83,86,124,90,86,160.54,134,-33.00,-11.00,-948.00
2024-06-07 15:09:11.921549,-4,0,64,0,0,0,83,86,125,90,86,160.49,134,-52.00,-24.00,-1106.00
2024-06-07 15:09:12.052164,-3,0,57,0,0,0,83,86,125,90,86,160.50,134,-86.00,-10.00,-932.00
2024-06-07 15:09:12.125381,-3,0,51,0,0,0,83,86,126,90,86,160.62,134,-54.00,-43.00,-930.00
2024-06-07 15:09:12.257695,-3,1,46,0,0,0,82,85,125,90,86,160.55,134,-21.00,-46.00,-955.00
2024-06-07 15:09:12.329490,-3,1,40,0,0,0,82,85,127,90,86,160.56,134,-89.00,-17.00,-953.00
2024-06-07 15:09:12.462552,-2,1,34,0,0,0,82,85,126,90,86,160.52,134,-61.00,-57.00,-1014.00
2024-06-07 15:09:12.533437,-2,1,28,0,0,0,82,85,127,90,86,160.60,134,-6.00,-89.00,-937.00
2024-06-07 15:09:12.769340,-2,2,22,0,0,0,82,85,128,90,86,160.57,134,-28.00,-78.00,-1009.00
2024-06-07 15:09:12.769432,-2,2,16,0,0,0,82,85,127,90,86,160.55,135,-75.00,-47.00,-1066.00
2024-06-07 15:09:12.788321,-2,2,11,0,0,0,82,85,126,90,86,160.60,135,-48.00,-68.00,-1137.00
2024-06-07 15:09:12.944181,-2,2,7,0,0,0,82,85,126,90,86,160.60,135,-67.00,-56.00,-1064.00
2024-06-07 15:09:12.992365,-2,3,4,0,0,0,82,85,124,90,86,160.67,135,-7.00,-72.00,-979.00
2024-06-07 15:09:13.178473,-2,2,2,0,0,0,82,85,124,90,86,160.61,135,-56.00,-54.00,-983.00
2024-06-07 15:09:13.196374,-1,3,0,0,0,0,82,85,122,90,86,160.69,135,-3.00,-60.00,-1003.00
2024-06-07 15:09:13.383252,-1,2,-1,0,0,0,82,85,123,90,86,160.61,135,39.00,-71.00,-991.00
2024-06-07 15:09:13.400470,0,3,-2,0,0,0,82,85,120,90,86,160.64,135,-3.00,-61.00,-915.00
2024-06-07 15:09:13.502775,0,3,-3,0,0,0,82,85,121,90,86,160.64,135,-4.00,-53.00,-1058.00
2024-06-07 15:09:13.604806,0,3,-3,0,0,0,82,85,120,90,86,160.62,135,-19.00,-73.00,-1020.00
2024-06-07 15:09:13.706589,0,3,-3,0,0,0,82,85,120,90,86,160.66,136,-16.00,-70.00,-991.00
2024-06-07 15:09:13.895364,0,3,-4,0,0,0,82,85,121,90,86,160.63,136,17.00,-76.00,-1014.00
2024-06-07 15:09:13.910409,0,3,-4,0,0,0,82,85,120,90,86,160.61,136,13.00,-84.00,-1042.00
2024-06-07 15:09:14.100908,0,3,-4,0,0,0,82,85,121,90,86,160.57,136,-1.00,-42.00,-970.00
2024-06-07 15:09:14.114402,0,3,-4,0,0,0,82,85,121,90,86,160.51,136,-5.00,-69.00,-1186.00
2024-06-07 15:09:14.407468,0,2,-3,0,0,0,82,85,120,90,85,160.60,136,-23.00,-45.00,-1027.00
2024-06-07 15:09:14.407617,0,2,-3,0,0,0,82,85,121,90,85,160.53,136,-12.00,-88.00,-968.00
2024-06-07 15:09:14.420324,0,2,-3,0,0,0,82,85,119,90,85,160.50,136,-3.00,-29.00,-967.00
2024-06-07 15:09:14.522415,-1,2,-3,0,0,0,82,85,119,90,85,160.56,136,-7.00,-44.00,-1007.00
2024-06-07 15:09:14.715239,-1,2,-4,0,0,0,82,85,119,90,85,160.55,136,7.00,-50.00,-970.00
2024-06-07 15:09:14.726315,-1,2,-4,0,0,0,82,85,119,90,85,160.53,137,-45.00,-33.00,-1050.00
2024-06-07 15:09:14.919346,-1,2,-4,0,0,0,82,85,118,90,85,160.55,137,-8.00,-26.00,-942.00
2024-06-07 15:09:14.930264,-1,2,-4,0,0,0,82,85,118,90,85,160.55,137,-7.00,-25.00,-952.00
2024-06-07 15:09:15.124121,-1,1,-4,0,0,0,82,85,118,90,85,160.57,137,-60.00,-45.00,-1039.00
2024-06-07 15:09:15.134276,0,1,-4,0,0,0,82,85,117,90,85,160.55,137,-12.00,-41.00,-997.00
2024-06-07 15:09:15.329442,-1,1,-4,0,0,0,83,85,118,90,85,160.55,137,8.00,-43.00,-1103.00
2024-06-07 15:09:15.338367,-1,2,-4,0,0,0,83,85,115,90,85,160.46,137,23.00,-67.00,-955.00
2024-06-07 15:09:15.442010,0,2,-4,0,0,0,83,85,115,90,85,160.52,137,-14.00,-52.00,-974.00
2024-06-07 15:09:15.542250,0,0,-4,0,0,0,83,85,113,90,85,160.62,137,8.00,-53.00,-1058.00
2024-06-07 15:09:15.738500,0,-1,-3,0,0,-7,83,85,115,90,85,160.71,138,-65.00,329.00,-1923.00
2024-06-07 15:09:15.746228,0,-48,-2,0,-1,-14,83,85,128,100,85,160.81,138,-36.00,101.00,-1481.00
2024-06-07 15:09:15.943381,0,-168,-5,-1,-10,-6,83,85,6553,110,85,160.91,138,45.00,622.00,-1109.00
2024-06-07 15:09:15.950183,-2,69,-2,0,-8,8,83,85,6553,110,85,160.93,138,26.00,574.00,-904.00
2024-06-07 15:09:16.052350,0,-1,-1,0,-3,8,83,85,127,100,85,160.93,138,26.00,28.00,-1636.00
2024-06-07 15:09:16.250681,0,2,-1,-1,-3,5,83,85,110,100,85,160.76,138,-29.00,-60.00,-1329.00
2024-06-07 15:09:16.257972,-1,3,-2,-1,-3,2,82,85,103,90,85,160.60,138,-102.00,21.00,-1368.00
2024-06-07 15:09:16.358395,-1,3,-3,-1,-2,0,82,85,98,90,85,160.45,138,-132.00,57.00,-1250.00
2024-06-07 15:09:16.549113,-1,2,-4,-1,-2,0,82,85,94,90,85,160.43,138,-8.00,-5.00,-1129.00
2024-06-07 15:09:16.562300,-1,1,-4,0,-2,-1,82,85,91,90,85,160.43,138,-42.00,-55.00,-1078.00
2024-06-07 15:09:16.614202,-1,3,-4,0,-2,-1,82,85,90,90,85,160.38,139,-22.00,-26.00,-1055.00
2024-06-07 15:09:16.762985,-1,3,-4,0,-2,-1,82,85,88,90,85,160.32,139,5.00,-25.00,-972.00
2024-06-07 15:09:16.817165,-1,3,-4,0,-2,-2,82,85,87,90,85,160.37,139,-49.00,-35.00,-1109.00
2024-06-07 15:09:16.967333,-1,5,-4,0,-1,-2,82,85,86,90,85,160.33,139,0.00,-19.00,-934.00
2024-06-07 15:09:17.021255,-1,4,-4,0,-1,-2,82,85,85,100,85,160.30,139,4.00,-31.00,-974.00
2024-06-07 15:09:17.172221,-1,3,-4,0,0,-2,82,85,84,100,85,160.36,139,-21.00,-10.00,-986.00
2024-06-07 15:09:17.230704,-1,2,-4,0,0,-2,82,86,82,100,85,160.36,139,-63.00,0.00,-988.00
2024-06-07 15:09:17.327271,-1,2,-4,0,0,-2,82,86,81,100,85,160.33,139,21.00,-48.00,-1021.00
2024-06-07 15:09:17.430584,-1,2,-4,0,0,-2,82,86,79,100,85,160.33,139,13.00,-30.00,-982.00
2024-06-07 15:09:17.532171,-1,3,-4,0,0,-2,82,86,78,110,85,160.28,139,-32.00,-5.00,-1001.00
2024-06-07 15:09:17.684683,-1,3,-4,0,0,-2,82,86,77,110,85,160.22,140,-30.00,-48.00,-1156.00
2024-06-07 15:09:17.736208,-1,3,-4,0,0,-2,82,86,77,110,85,160.24,140,-58.00,-13.00,-968.00
2024-06-07 15:09:17.892268,-1,3,-4,0,0,-2,82,86,77,110,85,160.24,140,32.00,-49.00,-1040.00
2024-06-07 15:09:17.941255,0,4,-4,0,0,-2,82,86,76,110,85,160.15,140,-27.00,-25.00,-973.00
2024-06-07 15:09:18.094084,-1,3,-4,0,0,-2,82,86,76,110,85,160.23,140,-20.00,-20.00,-969.00
2024-06-07 15:09:18.144108,-1,3,-4,0,0,1,82,86,75,110,85,160.23,140,-10.00,-23.00,-890.00
2024-06-07 15:09:18.248382,0,3,-3,0,0,1,83,85,72,110,84,160.18,140,-8.00,-22.00,-1008.00
2024-06-07 15:09:18.348209,0,3,-3,0,0,1,83,85,71,100,84,160.27,140,-36.00,-57.00,-1058.00
2024-06-07 15:09:18.503366,0,3,-3,0,0,0,83,85,70,100,84,160.22,140,-7.00,-51.00,-1013.00
2024-06-07 15:09:18.552021,0,3,-4,0,0,0,83,85,70,100,84,160.22,140,-7.00,-36.00,-1039.00
2024-06-07 15:09:18.708561,0,3,-4,0,0,0,83,85,69,100,84,160.15,141,-24.00,-57.00,-1066.00
2024-06-07 15:09:18.756098,0,3,-4,0,0,0,83,85,69,100,84,160.20,141,-25.00,-22.00,-968.00
2024-06-07 15:09:18.912891,-1,3,-4,0,0,0,83,85,70,110,84,160.20,141,-49.00,-36.00,-973.00
2024-06-07 15:09:18.960379,-1,3,-4,0,0,0,83,85,69,110,84,160.14,141,-9.00,-53.00,-909.00
2024-06-07 15:09:19.067465,-1,3,-4,0,0,0,83,85,69,110,84,160.09,141,-42.00,-29.00,-979.00
2024-06-07 15:09:19.164376,-1,3,-4,0,0,0,83,85,69,110,84,160.10,141,-38.00,-55.00,-974.00
2024-06-07 15:09:19.322694,-1,3,-4,0,0,0,83,86,69,110,84,160.13,141,-59.00,-25.00,-988.00
2024-06-07 15:09:19.368259,-1,2,-4,0,0,0,83,86,69,110,84,160.15,141,-49.00,-30.00,-1031.00
2024-06-07 15:09:19.527429,-1,2,-4,0,0,0,83,86,69,110,84,160.16,141,-46.00,-34.00,-993.00
2024-06-07 15:09:19.573080,-1,3,-4,0,0,0,83,86,69,110,84,160.13,141,-16.00,-27.00,-967.00
2024-06-07 15:09:19.732261,-1,3,-4,0,0,0,83,86,70,110,84,160.16,142,8.00,-23.00,-902.00
2024-06-07 15:09:19.776990,0,3,-4,0,0,0,83,86,70,110,84,160.16,142,-28.00,-22.00,-994.00
2024-06-07 15:09:19.937001,0,3,-4,0,0,0,83,86,70,110,84,160.14,142,-34.00,-34.00,-1032.00
2024-06-07 15:09:19.981260,0,2,-4,0,1,0,83,86,70,110,84,160.15,142,-14.00,-12.00,-985.00
2024-06-07 15:09:20.083793,0,2,-4,0,1,0,83,86,71,110,84,160.19,142,-2.00,-12.00,-932.00
2024-06-07 15:09:20.185113,0,2,-4,0,1,0,83,86,71,110,84,160.25,142,-19.00,-3.00,-956.00
2024-06-07 15:09:20.347409,-1,1,-4,0,1,0,83,86,71,110,84,160.24,142,-15.00,-8.00,-979.00
2024-06-07 15:09:20.392102,-1,1,-4,0,1,0,83,86,71,110,84,160.24,142,3.00,0.00,-998.00
2024-06-07 15:09:20.491508,0,0,-4,0,1,0,83,86,71,110,84,160.26,142,-19.00,-1.00,-1163.00
2024-06-07 15:09:20.597217,0,0,-4,0,1,0,83,86,70,110,84,160.37,142,7.00,8.00,-997.00
2024-06-07 15:09:20.698323,0,0,-4,0,1,0,83,86,69,110,84,160.38,143,49.00,-9.00,-969.00
2024-06-07 15:09:20.746075,0,0,-4,0,1,0,83,86,69,110,84,160.35,143,27.00,-12.00,-1107.00
2024-06-07 15:09:20.858462,0,-1,-4,0,1,0,83,86,67,110,84,160.35,143,49.00,38.00,-980.00
2024-06-07 15:09:20.949993,0,-1,-4,0,1,0,83,86,65,110,84,160.36,143,-13.00,29.00,-988.00
2024-06-07 15:09:21.064466,0,-1,-4,0,1,0,83,86,63,110,84,160.34,143,7.00,21.00,-1032.00
2024-06-07 15:09:21.154313,0,-1,-4,0,1,0,83,86,61,100,84,160.24,143,43.00,23.00,-952.00
2024-06-07 15:09:21.268918,1,-1,-4,0,1,0,83,86,59,100,84,160.29,143,47.00,28.00,-967.00
2024-06-07 15:09:21.358032,1,-1,-4,0,1,0,83,86,58,100,84,160.20,143,32.00,7.00,-963.00
2024-06-07 15:09:21.460312,2,-1,-3,0,1,0,83,86,56,100,84,160.22,143,45.00,23.00,-1017.00
2024-06-07 15:09:21.562995,2,-1,-3,0,1,0,83,86,55,100,84,160.21,143,25.00,36.00,-1076.00
2024-06-07 15:09:21.677783,1,-1,-3,0,0,0,83,86,55,100,84,160.19,144,42.00,34.00,-1049.00
2024-06-07 15:09:21.766945,1,-2,-3,0,0,0,83,86,54,100,84,160.18,144,18.00,5.00,-1082.00
2024-06-07 15:09:21.882656,1,-1,-3,0,0,0,83,86,54,100,84,160.16,144,51.00,21.00,-943.00
2024-06-07 15:09:21.970979,1,-1,-3,0,0,0,83,86,53,100,84,160.16,144,35.00,23.00,-1129.00
2024-06-07 15:09:22.073070,2,-1,-3,0,0,0,83,86,54,100,84,160.16,144,21.00,29.00,-981.00
2024-06-07 15:09:22.189611,1,0,-3,0,0,0,83,86,55,100,84,160.14,144,17.00,6.00,-1430.00
2024-06-07 15:09:22.276892,0,2,-3,0,0,-6,82,87,61,100,84,160.24,144,47.00,31.00,-1745.00
2024-06-07 15:09:22.394412,-1,39,-2,0,3,-13,82,87,104,110,84,160.54,144,52.00,224.00,-1826.00
2024-06-07 15:09:22.482903,-1,153,-7,1,13,-6,82,87,6553,120,84,160.46,144,71.00,765.00,-1172.00
2024-06-07 15:09:22.583036,6,-86,-2,1,10,8,82,87,204,120,84,160.63,144,61.00,752.00,-992.00
2024-06-07 15:09:22.701637,0,1,3,1,5,9,82,87,65,110,84,160.17,145,28.00,465.00,-1112.00
2024-06-07 15:09:22.786902,0,0,4,1,7,5,82,87,55,110,84,160.02,145,31.00,-11.00,-1393.00
2024-06-07 15:09:22.906969,1,-5,2,1,6,2,82,87,50,100,84,159.92,145,37.00,-102.00,-1163.00
2024-06-07 15:09:22.991148,1,-4,-2,1,5,0,82,87,46,100,84,160.00,145,12.00,-10.00,-1122.00
2024-06-07 15:09:23.111226,1,-3,-3,1,4,0,82,87,44,100,84,160.08,145,57.00,-13.00,-1040.00
2024-06-07 15:09:23.194879,2,-2,-3,1,3,0,82,87,42,100,83,160.00,145,37.00,-10.00,-1063.00
2024-06-07 15:09:23.316558,2,-2,-3,1,3,-1,83,86,42,100,83,160.02,145,11.00,5.00,-948.00
2024-06-07 15:09:23.398860,1,-2,-3,1,2,-1,83,86,42,100,83,159.98,145,49.00,-15.00,-924.00
2024-06-07 15:09:23.521435,1,-1,-3,1,2,-1,83,86,41,100,83,159.98,145,25.00,4.00,-988.00
2024-06-07 15:09:23.603903,1,-1,-3,1,1,-1,83,86,41,100,83,160.01,145,13.00,4.00,-1007.00
2024-06-07 15:09:23.706439,1,0,-3,0,0,-1,83,86,41,110,83,159.97,146,46.00,-24.00,-1010.00
2024-06-07 15:09:23.807843,0,0,-3,0,0,-1,83,86,40,110,83,159.99,146,44.00,-2.00,-976.00
2024-06-07 15:09:23.931027,0,1,-3,0,0,-1,83,86,40,110,83,160.03,146,0.00,13.00,-1044.00
2024-06-07 15:09:24.011822,0,0,-3,0,0,0,83,86,40,110,83,159.99,146,16.00,-8.00,-976.00
2024-06-07 15:09:24.113804,1,-2,-3,0,0,0,83,86,40,110,83,159.98,146,0.00,-21.00,-1036.00
2024-06-07 15:09:24.215761,1,-1,-3,0,0,0,83,86,41,110,83,159.91,146,27.00,-32.00,-1008.00
2024-06-07 15:09:24.339989,1,-1,-3,0,0,-1,83,86,42,110,83,160.07,146,3.00,9.00,-1015.00
2024-06-07 15:09:24.419767,1,0,-3,0,0,-1,83,86,43,110,83,160.07,146,40.00,-15.00,-987.00
2024-06-07 15:09:24.544783,1,-1,-3,0,0,-1,83,86,44,110,83,160.05,146,21.00,10.00,-966.00
2024-06-07 15:09:24.572796,0,-1,-3,0,0,-1,83,86,45,110,83,159.99,146,-33.00,7.00,-1033.00
2024-06-07 15:09:24.749638,1,-1,-3,0,0,0,83,86,46,110,83,159.97,147,8.00,-6.00,-1102.00
