TS,pitch,roll,yaw,vgx,vgy,vgz,templ,temph,tof,h,bat,baro,time,agx,agy,agz
2024-06-07 15:10:07.922951,1,0,-11,0,0,0,85,88,10,0,80,159.28,167,31.00,0.00,-1004.00
2024-06-07 15:10:08.045243,1,0,-11,0,0,0,85,88,10,0,80,159.26,167,32.00,-1.00,-1000.00
2024-06-07 15:10:08.126800,1,0,-11,0,0,0,85,88,10,0,80,159.30,167,35.00,-1.00,-999.00
2024-06-07 15:10:08.269222,1,0,-11,0,0,0,85,88,10,0,80,159.28,167,33.00,-1.00,-1001.00
2024-06-07 15:10:08.330663,1,0,-11,0,0,0,85,88,10,0,80,159.27,167,34.00,0.00,-999.00
2024-06-07 15:10:08.474534,1,0,-11,0,0,0,85,88,10,0,80,159.30,167,35.00,0.00,-1003.00
2024-06-07 15:10:08.534536,1,0,-11,0,0,0,85,88,10,0,80,159.24,167,34.00,-1.00,-1000.00
2024-06-07 15:10:08.678977,1,0,-11,0,0,0,85,88,10,0,80,159.32,167,33.00,0.00,-998.00
2024-06-07 15:10:08.738719,1,0,-11,0,0,0,85,88,10,0,80,159.28,167,34.00,-1.00,-999.00
2024-06-07 15:10:08.883444,1,0,-11,0,0,0,85,88,10,0,80,159.26,167,33.00,0.00,-996.00
2024-06-07 15:10:08.942781,1,0,-11,0,0,0,85,88,10,0,80,159.29,167,33.00,0.00,-997.00
2024-06-07 15:10:09.088445,1,0,-11,0,0,0,85,88,10,0,80,159.27,167,32.00,0.00,-998.00
2024-06-07 15:10:09.146854,1,0,-11,0,0,0,85,88,10,0,80,159.27,167,33.00,-2.00,-1000.00
2024-06-07 15:10:09.293729,1,0,-11,0,0,0,85,88,10,0,80,159.34,167,32.00,0.00,-998.00
2024-06-07 15:10:09.351012,1,0,-11,0,0,0,85,88,10,0,80,159.28,167,31.00,-1.00,-999.00
2024-06-07 15:10:09.498060,1,0,-11,0,0,0,85,88,10,0,80,159.23,167,34.00,0.00,-1002.00
2024-06-07 15:10:09.554684,1,0,-11,0,0,0,85,88,10,0,80,159.30,167,34.00,0.00,-999.00
2024-06-07 15:10:09.703299,1,0,-11,0,0,0,85,88,10,0,80,159.31,167,34.00,0.00,-998.00
2024-06-07 15:10:09.759146,1,0,-11,0,0,0,85,88,10,0,80,159.33,167,33.00,-1.00,-998.00
2024-06-07 15:10:09.892575,1,0,-11,0,0,0,85,88,10,0,80,159.33,167,34.00,-1.00,-999.00
2024-06-07 15:10:09.962562,1,0,-11,0,0,0,85,88,10,0,80,159.30,167,34.00,0.00,-1001.00
2024-06-07 15:10:10.112422,1,0,-11,0,0,0,85,88,10,0,80,159.26,167,33.00,0.00,-1002.00
2024-06-07 15:10:10.171482,1,0,-11,0,0,0,85,88,10,0,80,159.26,167,34.00,-1.00,-999.00
2024-06-07 15:10:10.268613,1,0,-11,0,0,0,85,88,10,0,80,159.29,167,32.00,0.00,-998.00
2024-06-07 15:10:10.404017,1,0,-11,0,0,0,85,88,10,0,80,159.33,167,33.00,-1.00,-999.00
2024-06-07 15:10:10.472396,1,0,-11,0,0,0,85,88,10,0,80,159.31,167,34.00,0.00,-1002.00
2024-06-07 15:10:10.574403,1,0,-11,0,0,0,86,88,10,0,80,159.31,167,38.00,-4.00,-996.00
2024-06-07 15:10:10.676531,1,0,-11,0,0,0,86,88,10,0,80,159.31,167,35.00,-5.00,-995.00
2024-06-07 15:10:10.829075,1,0,-11,0,0,0,86,88,10,0,80,159.31,167,44.00,17.00,-993.00
2024-06-07 15:10:10.880419,1,0,-12,0,0,0,86,88,10,0,80,159.31,167,27.00,5.00,-1005.00
2024-06-07 15:10:10.982326,1,0,-12,0,0,0,86,88,10,0,80,159.31,167,13.00,-21.00,-991.00
2024-06-07 15:10:11.085922,0,0,-12,0,0,0,86,88,10,0,80,159.31,167,-38.00,4.00,-1210.00
2024-06-07 15:10:11.136231,0,0,-11,0,0,-2,86,88,10,0,80,159.31,167,11.00,-47.00,-1302.00
2024-06-07 15:10:11.240077,0,0,-11,0,0,-5,86,88,10,0,80,159.31,167,-23.00,-4.00,-1209.00
2024-06-07 15:10:11.339363,-1,1,-11,0,0,-7,86,88,16,10,80,159.57,167,-17.00,-63.00,-1106.00
2024-06-07 15:10:11.443514,0,1,-11,0,0,-8,86,88,25,20,80,159.66,168,7.00,-13.00,-1013.00
2024-06-07 15:10:11.650151,0,1,-11,0,0,-8,87,89,34,20,80,159.76,168,-27.00,-18.00,-884.00
2024-06-07 15:10:11.650704,0,1,-11,0,0,-8,87,89,39,30,80,159.83,168,8.00,-32.00,-950.00
2024-06-07 15:10:11.747321,0,2,-11,0,0,-7,87,89,48,40,80,159.95,168,-2.00,-36.00,-937.00
2024-06-07 15:10:11.856396,0,2,-11,0,0,-6,87,89,55,50,80,159.98,168,-76.00,22.00,-854.00
2024-06-07 15:10:11.951308,0,0,-11,0,0,-5,87,89,60,50,80,160.04,168,14.00,-37.00,-900.00
2024-06-07 15:10:12.058188,0,1,-11,0,0,-3,87,89,64,60,80,160.03,168,-22.00,-24.00,-869.00
2024-06-07 15:10:12.156622,0,1,-11,0,0,-2,87,89,67,60,80,160.04,168,12.00,-28.00,-851.00
2024-06-07 15:10:12.264501,0,1,-11,0,0,-1,87,89,69,60,80,160.13,168,-28.00,-23.00,-974.00
2024-06-07 15:10:12.359380,0,1,-11,0,0,-1,87,89,71,60,80,160.18,168,6.00,-38.00,-839.00
2024-06-07 15:10:12.467440,0,2,-11,0,0,-1,87,89,73,60,80,160.15,169,17.00,-34.00,-957.00
2024-06-07 15:10:12.563378,0,2,-11,0,0,0,86,89,74,60,80,160.10,169,-7.00,-14.00,-985.00
2024-06-07 15:10:12.774900,0,1,-11,0,0,0,86,89,74,70,80,160.17,169,-5.00,-19.00,-941.00
2024-06-07 15:10:12.774947,0,1,-11,0,0,0,86,89,75,70,80,160.15,169,0.00,-38.00,-1082.00
2024-06-07 15:10:12.869267,0,1,-11,0,0,0,86,89,76,70,80,160.17,169,2.00,-45.00,-987.00
2024-06-07 15:10:12.973411,0,1,-11,0,0,0,86,89,77,70,80,160.22,169,32.00,-36.00,-967.00
2024-06-07 15:10:13.073216,0,2,-11,0,0,0,86,89,78,70,80,160.21,169,-7.00,-10.00,-1019.00
2024-06-07 15:10:13.184595,0,1,-11,0,0,0,86,89,79,70,80,160.18,169,19.00,-45.00,-891.00
2024-06-07 15:10:13.277266,0,1,-11,0,0,0,86,89,80,70,80,160.18,169,-5.00,-54.00,-1139.00
2024-06-07 15:10:13.379355,0,1,-11,0,0,0,86,89,82,70,80,160.13,169,23.00,-31.00,-935.00
2024-06-07 15:10:13.491309,0,1,-11,0,0,0,86,89,82,70,80,160.18,170,-18.00,-40.00,-993.00
2024-06-07 15:10:13.583277,0,1,-11,0,0,0,86,89,82,70,80,160.21,170,6.00,-53.00,-968.00
2024-06-07 15:10:13.685549,0,1,-11,0,0,0,86,89,82,70,80,160.17,170,65.00,-46.00,-865.00
2024-06-07 15:10:13.798666,0,2,-11,0,0,0,86,89,81,70,80,160.19,170,8.00,-32.00,-945.00
2024-06-07 15:10:13.889231,0,2,-11,0,0,0,86,89,80,70,80,160.16,170,-6.00,-43.00,-1059.00
2024-06-07 15:10:14.003456,0,1,-11,0,0,0,86,89,79,70,80,160.15,170,-27.00,-34.00,-1117.00
2024-06-07 15:10:14.094252,0,1,-11,0,0,0,86,89,79,70,80,160.15,170,18.00,-22.00,-1014.00
2024-06-07 15:10:14.208159,0,1,-11,0,0,0,86,89,78,70,80,160.13,170,9.00,-38.00,-1050.00
2024-06-07 15:10:14.299438,0,1,-11,0,0,0,86,89,76,70,80,160.11,170,25.00,-51.00,-966.00
2024-06-07 15:10:14.399875,0,1,-11,0,0,0,86,89,75,70,80,160.15,170,20.00,-39.00,-878.00
2024-06-07 15:10:14.515705,0,1,-11,0,0,0,86,89,74,70,80,160.14,171,-25.00,-37.00,-1025.00
2024-06-07 15:10:14.603843,0,1,-11,0,0,0,86,89,74,70,80,160.13,171,-11.00,-52.00,-1123.00
2024-06-07 15:10:14.705203,0,1,-11,0,0,0,86,89,73,70,80,160.09,171,14.00,-43.00,-1086.00
2024-06-07 15:10:14.826161,0,1,-11,0,0,0,86,89,73,70,80,160.08,171,18.00,-55.00,-1097.00
2024-06-07 15:10:14.909777,0,1,-11,0,0,0,86,89,73,70,80,160.15,171,3.00,-20.00,-1028.00
2024-06-07 15:10:15.031301,0,1,-11,0,0,0,86,89,72,70,80,160.11,171,34.00,-28.00,-953.00
2024-06-07 15:10:15.114216,0,1,-11,0,0,0,86,89,72,70,80,160.06,171,9.00,-42.00,-1017.00
2024-06-07 15:10:15.165495,0,1,-11,0,0,0,86,89,72,70,80,160.11,171,-12.00,-44.00,-1049.00
2024-06-07 15:10:15.334640,0,1,-11,0,0,0,86,89,72,70,80,160.15,171,-6.00,-34.00,-979.00
2024-06-07 15:10:15.370263,0,1,-11,0,0,0,86,89,72,70,80,160.12,171,-26.00,-17.00,-1039.00
2024-06-07 15:10:15.471068,0,1,-11,0,0,0,86,89,72,70,80,160.14,172,92.00,-60.00,-926.00
2024-06-07 15:10:15.641788,0,1,-11,0,0,0,86,89,73,70,80,160.08,172,30.00,-51.00,-999.00
2024-06-07 15:10:15.674462,0,1,-11,0,0,0,86,89,74,70,80,160.18,172,-62.00,-8.00,-1026.00
2024-06-07 15:10:15.846634,0,1,-11,0,0,0,86,89,75,70,80,160.09,172,-46.00,-23.00,-1061.00
2024-06-07 15:10:15.878277,0,1,-11,0,0,0,86,89,75,70,80,160.05,172,-2.00,-46.00,-961.00
2024-06-07 15:10:16.051445,-1,1,-11,0,0,-1,86,89,77,70,80,160.10,172,11.00,-41.00,-952.00
2024-06-07 15:10:16.082168,0,1,-11,0,0,0,86,89,79,70,80,160.14,172,1.00,-42.00,-1061.00
2024-06-07 15:10:16.256251,0,1,-11,0,0,0,86,89,79,70,80,160.20,172,21.00,-43.00,-951.00
2024-06-07 15:10:16.286273,0,1,-11,0,0,0,86,89,80,70,80,160.11,172,-24.00,-43.00,-1025.00
2024-06-07 15:10:16.462234,0,1,-11,0,0,0,86,89,80,70,80,160.10,172,37.00,-45.00,-943.00
2024-06-07 15:10:16.490398,0,1,-11,0,0,0,86,89,81,70,80,160.12,173,14.00,-40.00,-1029.00
2024-06-07 15:10:16.667246,0,1,-11,0,0,0,87,88,81,70,80,160.11,173,-22.00,-23.00,-978.00
2024-06-07 15:10:16.694143,0,1,-11,0,0,0,87,88,81,70,80,160.12,173,18.00,-46.00,-955.00
2024-06-07 15:10:16.871780,0,1,-11,0,0,0,87,88,80,70,80,160.15,173,-64.00,-21.00,-1079.00
2024-06-07 15:10:16.898251,0,1,-11,0,0,0,87,88,80,70,80,160.21,173,8.00,-48.00,-968.00
2024-06-07 15:10:17.051510,0,1,-11,0,0,0,87,88,79,70,80,160.08,173,17.00,-32.00,-947.00
2024-06-07 15:10:17.102268,0,1,-11,0,0,0,87,88,78,70,80,160.07,173,40.00,-56.00,-979.00
2024-06-07 15:10:17.281825,0,1,-11,0,0,0,87,88,78,70,80,160.18,173,20.00,-44.00,-945.00
2024-06-07 15:10:17.308890,0,1,-11,0,0,0,87,88,77,70,80,160.14,173,42.00,-43.00,-914.00
2024-06-07 15:10:17.408154,0,1,-11,0,0,0,87,88,77,70,80,160.10,173,-18.00,-47.00,-994.00
2024-06-07 15:10:17.510155,0,1,-11,0,0,0,87,88,77,70,80,160.12,174,-5.00,-43.00,-976.00
2024-06-07 15:10:17.689961,0,1,-11,0,0,0,86,89,76,70,80,160.16,174,-9.00,-35.00,-1019.00
2024-06-07 15:10:17.713988,0,1,-11,0,0,0,86,89,76,70,80,160.11,174,25.00,-43.00,-975.00
2024-06-07 15:10:17.897019,0,1,-11,0,0,0,86,89,76,70,80,160.13,174,-13.00,-34.00,-962.00
2024-06-07 15:10:17.918348,0,1,-11,0,0,0,86,89,76,70,80,160.12,174,-12.00,-32.00,-1034.00
2024-06-07 15:10:18.099646,0,1,-11,0,0,0,86,89,76,70,80,160.16,174,0.00,-40.00,-958.00
2024-06-07 15:10:18.122231,0,2,-11,0,0,0,86,89,76,70,80,160.17,174,-26.00,-24.00,-1034.00
2024-06-07 15:10:18.305315,0,2,-11,0,0,0,86,89,76,70,80,160.11,174,-37.00,-46.00,-986.00
2024-06-07 15:10:18.326105,0,1,-11,0,0,0,86,89,76,70,80,160.10,174,-25.00,-45.00,-1079.00
2024-06-07 15:10:18.480870,0,1,-11,0,0,0,86,89,76,70,80,160.12,174,36.00,-48.00,-961.00
2024-06-07 15:10:18.530448,0,1,-12,0,0,0,86,89,77,70,80,160.08,175,-37.00,-39.00,-1075.00
2024-06-07 15:10:18.713843,0,1,-12,0,0,0,86,89,77,70,80,160.13,175,10.00,-39.00,-959.00
2024-06-07 15:10:18.734057,0,1,-12,0,0,0,86,89,76,70,80,160.19,175,-10.00,-74.00,-1001.00
2024-06-07 15:10:18.918662,0,1,-11,0,0,0,86,89,76,70,80,160.14,175,-15.00,-44.00,-1020.00
2024-06-07 15:10:18.938929,0,1,-11,0,0,0,86,89,76,70,80,160.11,175,-5.00,-36.00,-997.00
2024-06-07 15:10:19.123487,0,2,-11,0,0,0,86,89,75,70,80,160.06,175,-39.00,-14.00,-973.00
2024-06-07 15:10:19.141949,0,2,-11,0,0,0,86,89,75,70,80,160.13,175,-32.00,-32.00,-1035.00
2024-06-07 15:10:19.193133,0,1,-11,0,0,0,86,89,74,70,80,160.02,175,6.00,-32.00,-1010.00
2024-06-07 15:10:19.329988,0,1,-11,0,0,0,86,89,74,70,80,160.09,175,34.00,-79.00,-1057.00
2024-06-07 15:10:19.397142,0,1,-11,0,0,0,86,89,73,70,80,160.07,175,19.00,-77.00,-980.00
2024-06-07 15:10:19.514555,0,1,-11,0,0,0,86,89,73,70,80,160.12,176,3.00,-52.00,-1007.00
2024-06-07 15:10:19.651921,0,1,-11,0,0,0,86,89,72,70,80,160.12,176,14.00,-59.00,-983.00
2024-06-07 15:10:19.840212,0,1,-11,0,0,0,86,89,72,70,80,160.15,176,5.00,-37.00,-1156.00
2024-06-07 15:10:19.840251,0,1,-11,0,0,-1,86,89,73,70,80,160.08,176,-57.00,-20.00,-1099.00
2024-06-07 15:10:19.906852,0,1,-12,0,0,-2,86,89,74,70,80,160.15,176,-9.00,-32.00,-1080.00
2024-06-07 15:10:20.047712,0,1,-11,0,0,-3,86,89,76,70,80,160.18,176,-48.00,-38.00,-1046.00
2024-06-07 15:10:20.111008,0,1,-11,0,0,-3,86,89,80,80,80,160.19,176,-50.00,-17.00,-1123.00
2024-06-07 15:10:20.249720,0,1,-11,0,0,-4,86,89,83,80,80,160.21,176,-17.00,-52.00,-1123.00
2024-06-07 15:10:20.314890,0,1,-11,0,0,-5,86,89,88,80,80,160.26,176,-34.00,-35.00,-1024.00
2024-06-07 15:10:20.454855,0,1,-11,0,0,-5,86,89,92,90,80,160.31,177,-83.00,1.00,-999.00
2024-06-07 15:10:20.518908,0,2,-11,0,0,-5,86,89,96,90,80,160.37,177,-19.00,-47.00,-1025.00
2024-06-07 15:10:20.659445,0,2,-12,0,0,-5,86,89,101,100,80,160.38,177,12.00,-46.00,-976.00
2024-06-07 15:10:20.722952,0,2,-11,0,0,-5,86,89,105,100,80,160.41,177,37.00,-80.00,-982.00
2024-06-07 15:10:20.865741,0,2,-11,0,0,-4,86,89,110,110,80,160.45,177,-28.00,-25.00,-959.00
2024-06-07 15:10:20.926883,0,2,-11,0,0,-4,86,89,114,110,80,160.53,177,2.00,-55.00,-1044.00
2024-06-07 15:10:21.069343,0,2,-12,0,0,-4,86,89,118,120,80,160.48,177,22.00,-41.00,-929.00
2024-06-07 15:10:21.130893,0,1,-12,0,0,-4,86,89,122,120,80,160.53,177,-6.00,-54.00,-963.00
2024-06-07 15:10:21.376165,0,1,-12,0,0,-3,86,89,126,130,80,160.57,177,20.00,-64.00,-939.00
2024-06-07 15:10:21.376407,0,2,-12,0,0,-3,86,89,129,130,80,160.59,177,-13.00,-47.00,-1025.00
2024-06-07 15:10:21.436862,0,2,-11,0,0,-3,86,89,133,130,80,160.68,178,7.00,-65.00,-1027.00
2024-06-07 15:10:21.538734,0,2,-12,0,0,-3,86,89,137,140,80,160.72,178,-12.00,-26.00,-977.00
2024-06-07 15:10:21.683359,0,2,-12,0,0,-3,85,88,139,140,80,160.76,178,-26.00,-20.00,-991.00
2024-06-07 15:10:21.742975,0,1,-11,0,0,-2,85,88,142,140,80,160.77,178,-21.00,-24.00,-1009.00
2024-06-07 15:10:21.889174,0,1,-11,0,0,-2,85,88,145,140,80,160.81,178,-7.00,-43.00,-931.00
2024-06-07 15:10:21.946789,0,1,-11,0,0,-2,85,88,151,150,80,160.78,178,-1.00,-59.00,-994.00
2024-06-07 15:10:22.049038,0,2,-12,0,0,-2,85,88,152,150,80,160.86,178,-22.00,-28.00,-958.00
2024-06-07 15:10:22.297868,0,2,-11,0,0,-2,85,88,153,150,80,160.90,178,-9.00,-36.00,-998.00
2024-06-07 15:10:22.297910,0,2,-11,0,0,-2,85,88,158,150,80,160.89,178,-48.00,-28.00,-1060.00
2024-06-07 15:10:22.356604,0,2,-12,0,0,-2,85,88,159,160,80,160.93,178,-1.00,-38.00,-964.00
2024-06-07 15:10:22.456798,0,2,-12,0,0,-2,85,88,162,160,80,160.97,179,-19.00,-43.00,-989.00
2024-06-07 15:10:22.605742,0,2,-11,0,0,-1,85,88,163,160,80,160.89,179,-20.00,-10.00,-962.00
2024-06-07 15:10:22.662918,0,2,-12,0,0,-1,86,88,165,160,80,160.98,179,-42.00,-23.00,-965.00
2024-06-07 15:10:22.764780,0,2,-12,0,0,0,86,88,166,160,80,160.95,179,2.00,-33.00,-878.00
2024-06-07 15:10:22.866043,0,2,-12,0,0,0,86,88,167,160,80,160.95,179,39.00,-43.00,-953.00
2024-06-07 15:10:23.015103,0,2,-12,0,0,0,86,88,169,160,80,160.96,179,-5.00,-54.00,-1068.00
2024-06-07 15:10:23.071311,-1,1,-12,0,0,0,86,88,167,170,80,160.98,179,0.00,-48.00,-1162.00
2024-06-07 15:10:23.219335,0,2,-11,0,0,0,86,88,168,170,80,160.98,179,3.00,-42.00,-963.00
2024-06-07 15:10:23.273928,0,2,-11,0,0,0,86,88,166,170,80,160.96,179,-44.00,-19.00,-1037.00
2024-06-07 15:10:23.326081,0,2,-11,0,0,0,86,88,168,170,80,160.91,179,10.00,-52.00,-953.00
2024-06-07 15:10:23.426956,-1,2,-11,0,0,0,86,88,169,170,80,160.94,180,-53.00,-21.00,-972.00
2024-06-07 15:10:23.528905,-1,2,-11,0,0,0,86,88,168,170,80,160.99,180,-13.00,-43.00,-1001.00
2024-06-07 15:10:23.833975,-1,2,-11,0,0,0,86,88,167,170,80,160.97,180,25.00,-40.00,-948.00
2024-06-07 15:10:23.834120,0,2,-11,0,0,0,86,88,165,160,80,160.94,180,-43.00,-20.00,-1048.00
2024-06-07 15:10:23.834660,0,2,-11,0,0,0,86,88,166,160,80,160.94,180,-13.00,-35.00,-919.00
2024-06-07 15:10:24.040047,0,2,-11,0,0,0,86,88,166,160,80,160.94,180,0.00,-78.00,-851.00
2024-06-07 15:10:24.040165,0,1,-11,0,0,0,86,88,165,170,80,160.93,180,-73.00,-8.00,-985.00
2024-06-07 15:10:24.141043,-1,1,-11,0,0,0,86,88,164,160,80,160.92,180,-25.00,-35.00,-985.00
2024-06-07 15:10:24.247550,-1,1,-11,0,0,0,86,88,164,160,80,160.93,180,21.00,-74.00,-993.00
2024-06-07 15:10:24.345451,0,2,-12,0,0,0,86,88,161,160,80,160.87,180,-29.00,-43.00,-1030.00
2024-06-07 15:10:24.448189,0,2,-12,0,0,0,86,88,160,160,80,160.92,181,-33.00,-37.00,-962.00
2024-06-07 15:10:24.550699,0,2,-11,0,0,0,86,88,164,160,80,160.91,181,19.00,-73.00,-967.00
2024-06-07 15:10:24.650951,0,2,-11,0,0,0,86,88,162,160,80,160.90,181,10.00,-59.00,-1059.00
2024-06-07 15:10:24.752710,0,2,-11,0,0,0,86,88,161,160,80,160.91,181,4.00,-44.00,-1000.00
2024-06-07 15:10:24.857654,0,2,-11,0,0,0,86,88,163,160,80,160.88,181,-30.00,-43.00,-942.00
2024-06-07 15:10:24.956605,0,2,-11,0,0,0,86,88,163,160,80,160.87,181,-37.00,-22.00,-915.00
2024-06-07 15:10:25.062459,-1,2,-12,0,0,0,86,88,162,160,80,160.89,181,-8.00,-41.00,-919.00
2024-06-07 15:10:25.160714,-1,2,-12,0,0,0,86,88,163,160,80,160.84,181,4.00,-41.00,-914.00
2024-06-07 15:10:25.267331,-1,2,-11,0,0,0,86,88,164,160,80,160.84,181,-27.00,-32.00,-885.00
2024-06-07 15:10:25.364578,-1,2,-11,0,0,1,86,88,159,160,80,160.89,181,0.00,-35.00,-909.00
2024-06-07 15:10:25.466774,-1,2,-11,0,0,1,86,88,158,160,80,160.81,182,-2.00,-48.00,-925.00
2024-06-07 15:10:25.782067,-1,2,-11,0,0,2,86,88,155,160,80,160.78,182,-20.00,-40.00,-984.00
2024-06-07 15:10:25.782227,-1,2,-11,0,0,2,85,88,152,150,80,160.78,182,-33.00,-35.00,-983.00
2024-06-07 15:10:25.782566,-1,2,-11,0,0,2,85,88,150,150,80,160.78,182,-57.00,-39.00,-1009.00
2024-06-07 15:10:25.874730,-1,2,-12,0,0,3,85,88,147,150,80,160.74,182,-37.00,-53.00,-945.00
2024-06-07 15:10:25.984169,-1,3,-12,0,0,3,85,88,142,140,80,160.62,182,-47.00,-30.00,-1065.00
2024-06-07 15:10:26.078613,-1,3,-12,0,0,3,85,88,142,140,80,160.59,182,18.00,-40.00,-983.00
2024-06-07 15:10:26.180570,0,2,-12,0,0,3,85,88,137,140,80,160.63,182,8.00,-53.00,-1016.00
2024-06-07 15:10:26.282505,0,2,-12,0,0,2,85,88,136,130,80,160.49,182,-10.00,-42.00,-989.00
2024-06-07 15:10:26.384530,0,2,-12,0,0,2,85,88,134,130,80,160.62,182,27.00,-61.00,-972.00
2024-06-07 15:10:26.496038,0,2,-12,0,0,2,85,88,132,130,80,160.61,183,-15.00,-43.00,-1015.00
2024-06-07 15:10:26.588519,0,2,-12,0,0,1,85,88,131,130,80,160.59,183,-34.00,-45.00,-1093.00
2024-06-07 15:10:26.700861,0,2,-12,0,0,1,85,88,129,130,80,160.59,183,-22.00,-20.00,-1017.00
2024-06-07 15:10:26.792535,0,2,-12,0,0,1,85,88,128,120,80,160.54,183,-32.00,-42.00,-1060.00
2024-06-07 15:10:27.008101,0,2,-12,0,0,0,85,88,127,120,80,160.52,183,-15.00,-42.00,-792.00
2024-06-07 15:10:27.008348,0,2,-12,0,0,0,85,88,125,120,80,160.46,183,-32.00,-52.00,-976.00
2024-06-07 15:10:27.098511,-1,2,-11,0,0,1,85,88,122,120,80,160.47,183,-27.00,-49.00,-936.00
2024-06-07 15:10:27.212846,0,2,-11,0,0,1,85,88,118,120,80,160.43,183,-32.00,-46.00,-993.00
2024-06-07 15:10:27.302759,-1,3,-11,0,0,2,85,88,116,120,80,160.35,183,-57.00,-19.00,-1014.00
2024-06-07 15:10:27.353675,-1,3,-11,0,0,2,85,88,112,120,80,160.32,183,-17.00,-50.00,-1014.00
2024-06-07 15:10:27.456676,-1,3,-11,0,0,2,85,88,110,110,80,160.39,184,-46.00,-47.00,-1114.00
2024-06-07 15:10:27.557875,-1,3,-11,0,0,1,85,88,107,110,80,160.31,184,-45.00,-39.00,-995.00
2024-06-07 15:10:27.727291,-1,2,-11,0,0,1,85,88,105,110,80,160.25,184,-19.00,-53.00,-884.00
2024-06-07 15:10:27.813655,-1,2,-11,0,0,1,85,88,103,110,80,160.35,184,-32.00,-57.00,-1071.00
2024-06-07 15:10:27.864592,-1,2,-11,0,0,1,85,88,100,100,80,160.29,184,-21.00,-38.00,-993.00
2024-06-07 15:10:28.032606,-1,2,-11,0,0,1,85,88,99,100,80,160.30,184,-37.00,-43.00,-1002.00
2024-06-07 15:10:28.068580,-1,2,-11,0,0,0,85,88,97,100,80,160.25,184,-21.00,-45.00,-972.00
2024-06-07 15:10:28.171264,-1,2,-11,0,0,0,85,88,96,100,80,160.24,184,-51.00,-65.00,-1057.00
2024-06-07 15:10:28.339636,-1,2,-11,0,0,0,85,88,96,100,80,160.25,184,-16.00,-56.00,-1037.00
2024-06-07 15:10:28.375428,-1,2,-12,0,0,0,85,88,96,100,80,160.18,184,-56.00,-55.00,-1081.00
2024-06-07 15:10:28.551433,-2,2,-12,0,0,0,85,88,96,100,80,160.28,185,-53.00,-3.00,-900.00
2024-06-07 15:10:28.579885,-1,1,-12,0,0,0,85,88,96,100,80,160.19,185,-35.00,-20.00,-1051.00
2024-06-07 15:10:28.748956,-1,1,-12,0,0,0,86,88,96,100,80,160.29,185,-28.00,-52.00,-1012.00
2024-06-07 15:10:28.785013,-1,1,-12,0,0,0,86,88,97,100,80,160.29,185,8.00,-62.00,-993.00
2024-06-07 15:10:28.884864,-1,1,-11,0,0,0,86,88,96,100,80,160.21,185,1.00,-44.00,-1018.00
2024-06-07 15:10:29.063287,-1,1,-12,0,0,0,86,88,96,100,80,160.25,185,-7.00,-66.00,-953.00
2024-06-07 15:10:29.088450,-1,1,-12,0,0,0,86,88,98,100,80,160.26,185,24.00,-44.00,-899.00
2024-06-07 15:10:29.260987,-1,1,-12,0,0,0,86,88,98,100,80,160.26,185,-56.00,-24.00,-1057.00
2024-06-07 15:10:29.292480,-1,2,-12,0,0,0,86,88,99,100,80,160.26,185,-60.00,-26.00,-1002.00
2024-06-07 15:10:29.409319,-1,2,-12,0,0,0,86,88,99,100,80,160.26,185,-3.00,-44.00,-965.00
2024-06-07 15:10:29.497458,-1,2,-11,0,0,0,86,88,99,100,80,160.31,186,-18.00,-44.00,-964.00
2024-06-07 15:10:29.670438,-1,2,-11,0,0,0,86,88,100,100,80,160.32,186,-45.00,-57.00,-1008.00
2024-06-07 15:10:29.701473,-7,2,-12,0,0,0,85,87,102,100,80,160.30,186,-63.00,-19.00,-984.00
2024-06-07 15:10:29.887446,-8,1,-12,1,0,0,85,87,101,100,80,160.19,186,-55.00,-22.00,-977.00
2024-06-07 15:10:29.905386,-8,1,-12,2,0,0,85,87,102,100,80,160.23,186,-51.00,-27.00,-966.00
2024-06-07 15:10:30.080018,-8,1,-12,3,0,0,85,87,102,100,80,160.24,186,-67.00,-22.00,-1002.00
2024-06-07 15:10:30.109471,-8,1,-12,4,-1,0,85,87,103,100,80,160.16,186,-77.00,-40.00,-1024.00
2024-06-07 15:10:30.284824,-8,2,-12,4,-1,0,85,87,102,100,80,160.15,186,-33.00,-41.00,-961.00
2024-06-07 15:10:30.313443,-8,2,-12,5,-1,0,85,87,104,100,80,160.16,186,-43.00,-62.00,-1120.00
2024-06-07 15:10:30.491612,-8,2,-12,6,-1,0,85,87,103,100,80,160.14,186,-78.00,-43.00,-1017.00
2024-06-07 15:10:30.517771,-8,3,-12,6,-1,0,85,87,102,100,80,160.18,187,-107.00,-51.00,-1037.00
2024-06-07 15:10:30.694512,-6,4,-12,6,-1,0,85,87,102,100,80,160.20,187,-105.00,-82.00,-966.00
2024-06-07 15:10:30.721803,-2,3,-12,6,-1,0,86,88,104,100,80,160.16,187,-73.00,-51.00,-930.00
2024-06-07 15:10:30.823484,0,2,-11,6,-1,0,86,88,104,100,80,160.32,187,-84.00,-67.00,-980.00
2024-06-07 15:10:30.926166,1,2,-11,4,0,0,86,88,105,100,80,160.21,187,-105.00,-43.00,-1016.00
2024-06-07 15:10:31.108185,0,3,-11,3,0,0,86,88,106,100,80,160.21,187,-65.00,-50.00,-1025.00
2024-06-07 15:10:31.129426,-1,3,-11,2,0,0,86,88,107,100,80,160.23,187,-46.00,-75.00,-1033.00
2024-06-07 15:10:31.312785,-2,3,-12,2,0,0,86,88,109,100,80,160.17,187,-64.00,-86.00,-1021.00
2024-06-07 15:10:31.333353,-2,3,-12,2,0,0,86,88,110,100,80,160.20,187,-128.00,-20.00,-1023.00
2024-06-07 15:10:31.384359,-2,3,-12,2,0,0,86,88,112,110,80,160.21,187,-22.00,-91.00,-939.00
2024-06-07 15:10:31.515366,-3,2,-12,2,0,0,86,88,113,110,80,160.26,188,-54.00,-67.00,-968.00
2024-06-07 15:10:31.588384,-2,3,-12,2,0,0,86,88,114,110,80,160.27,188,-71.00,-46.00,-979.00
2024-06-07 15:10:31.690650,-2,3,-12,2,0,0,85,88,115,110,80,160.37,188,-82.00,-47.00,-996.00
2024-06-07 15:10:31.833076,-3,2,-12,2,0,0,85,88,116,110,80,160.36,188,-88.00,-58.00,-943.00
2024-06-07 15:10:31.894377,-3,2,-12,2,0,0,85,88,116,110,80,160.38,188,-93.00,-67.00,-952.00
2024-06-07 15:10:32.026274,-3,3,-12,1,0,0,85,88,117,110,80,160.37,188,-92.00,-91.00,-945.00
2024-06-07 15:10:32.098386,-4,3,-12,1,0,0,85,88,117,110,80,160.42,188,-66.00,-75.00,-976.00
2024-06-07 15:10:32.231879,-4,3,-12,1,0,0,85,88,116,110,80,160.40,188,-96.00,-64.00,-978.00
2024-06-07 15:10:32.302320,0,2,-11,1,0,0,85,88,117,110,80,160.45,188,-161.00,-54.00,-930.00
2024-06-07 15:10:32.436550,0,3,-11,0,0,1,85,88,117,110,80,160.44,188,-91.00,-123.00,-973.00
2024-06-07 15:10:32.506308,-2,4,-11,0,0,1,85,88,116,110,80,160.44,189,-102.00,-88.00,-1002.00
2024-06-07 15:10:32.640831,-4,4,-12,-1,0,1,85,88,116,110,80,160.44,189,-126.00,-67.00,-1061.00
2024-06-07 15:10:32.710633,-5,5,-12,-1,0,0,85,88,116,110,80,160.45,189,-171.00,-68.00,-1049.00
2024-06-07 15:10:32.844886,-5,5,-12,-1,0,0,85,88,117,110,80,160.34,189,-115.00,-75.00,-983.00
2024-06-07 15:10:32.914826,-6,5,-12,-1,0,0,85,88,117,110,80,160.35,189,-119.00,-95.00,-926.00
2024-06-07 15:10:33.050920,-6,5,-12,-1,0,0,85,88,116,110,80,160.36,189,-124.00,-96.00,-976.00
2024-06-07 15:10:33.118315,-7,4,-12,-1,0,0,85,88,117,110,80,160.35,189,-117.00,-114.00,-973.00
2024-06-07 15:10:33.220303,-7,4,-12,-1,0,0,85,88,116,110,79,160.27,189,-191.00,-68.00,-913.00
2024-06-07 15:10:33.322293,-7,5,-12,-1,0,0,85,88,116,110,79,160.37,189,-153.00,-77.00,-947.00
2024-06-07 15:10:33.459417,-7,6,-12,-1,0,0,85,88,115,110,79,160.35,189,-105.00,-77.00,-912.00
2024-06-07 15:10:33.526213,-7,4,-12,-1,0,0,85,88,113,100,79,160.34,190,-126.00,-74.00,-1054.00
2024-06-07 15:10:33.666692,-7,4,-12,-2,0,0,85,88,114,100,79,160.34,190,-119.00,-109.00,-999.00
2024-06-07 15:10:33.731303,-7,4,-12,-2,0,0,85,88,113,100,79,160.40,190,-86.00,-114.00,-943.00
2024-06-07 15:10:33.971334,-7,4,-12,-1,0,0,85,88,112,100,79,160.30,190,-155.00,-84.00,-973.00
2024-06-07 15:10:33.971689,-7,5,-12,-1,0,0,85,88,112,100,79,160.29,190,-163.00,-95.00,-991.00
2024-06-07 15:10:34.037503,-6,5,-12,-1,0,0,85,88,112,100,79,160.33,190,-124.00,-123.00,-976.00
2024-06-07 15:10:34.176204,-7,4,-12,-1,0,0,85,88,112,100,79,160.29,190,-160.00,-89.00,-1045.00
2024-06-07 15:10:34.241417,-7,5,-12,-1,0,0,85,88,112,100,79,160.32,190,-156.00,-73.00,-1042.00
2024-06-07 15:10:34.383005,-7,5,-12,-1,0,0,85,88,112,100,79,160.24,190,-108.00,-86.00,-997.00
2024-06-07 15:10:34.446332,-7,5,-12,0,0,0,85,88,113,100,79,160.23,191,-87.00,-67.00,-976.00
2024-06-07 15:10:34.547211,-7,5,-12,0,0,0,85,88,114,100,79,160.21,191,-73.00,-88.00,-1013.00
2024-06-07 15:10:34.690317,-2,6,-12,0,0,0,85,88,114,100,79,160.12,191,-107.00,-58.00,-899.00
2024-06-07 15:10:34.751317,5,4,-11,-1,0,0,85,88,114,100,79,160.24,191,-145.00,-78.00,-1144.00
2024-06-07 15:10:34.892754,4,4,-11,-3,0,0,85,88,114,100,79,160.33,191,-107.00,-64.00,-954.00
2024-06-07 15:10:34.955709,2,4,-11,-5,0,0,85,88,115,100,79,160.33,191,-98.00,-86.00,-1042.00
2024-06-07 15:10:35.063254,1,5,-11,-6,0,0,85,88,115,100,79,160.15,191,-95.00,-125.00,-1039.00
2024-06-07 15:10:35.159291,-1,5,-11,-7,1,0,85,88,117,100,79,160.36,191,-103.00,-95.00,-986.00
2024-06-07 15:10:35.210035,-2,6,-11,-7,1,0,85,88,117,100,79,160.38,191,-81.00,-98.00,-929.00
2024-06-07 15:10:35.406913,-2,7,-11,-8,1,0,85,88,117,100,79,160.39,191,-63.00,-151.00,-1023.00
2024-06-07 15:10:35.414205,-5,6,-12,-8,1,0,85,88,118,100,79,160.39,192,-87.00,-130.00,-919.00
2024-06-07 15:10:35.516928,-6,5,-12,-7,1,0,85,88,119,100,79,160.42,192,-70.00,-126.00,-930.00
2024-06-07 15:10:35.618126,-6,4,-12,-7,0,0,85,88,120,100,79,160.38,192,-132.00,-113.00,-1001.00
2024-06-07 15:10:35.816547,-6,4,-12,-7,0,0,85,88,121,100,79,160.44,192,-90.00,-58.00,-933.00
2024-06-07 15:10:35.822033,-7,5,-12,-6,0,0,85,88,120,100,79,160.43,192,-114.00,2.00,-1079.00
2024-06-07 15:10:35.924331,-6,5,-12,-6,0,0,85,88,122,100,79,160.41,192,-75.00,-135.00,-969.00
2024-06-07 15:10:36.121571,-6,6,-12,-6,0,0,85,88,121,100,79,160.37,192,-72.00,-93.00,-995.00
2024-06-07 15:10:36.128037,-7,4,-12,-6,0,0,85,88,121,110,79,160.49,192,-96.00,-91.00,-1026.00
2024-06-07 15:10:36.328047,-7,4,-12,-5,0,0,85,88,121,110,79,160.48,192,-100.00,-88.00,-1016.00
2024-06-07 15:10:36.335356,-7,5,-12,-5,0,0,85,88,121,110,79,160.56,192,-31.00,-147.00,-943.00
2024-06-07 15:10:36.434077,-7,5,-12,-5,0,0,85,88,122,110,79,160.42,193,-60.00,-116.00,-1023.00
2024-06-07 15:10:36.535993,-8,4,-12,-4,0,0,85,88,121,110,79,160.37,193,-76.00,-103.00,-961.00
2024-06-07 15:10:36.637984,-7,5,-12,-3,0,0,85,88,121,110,79,160.26,193,-82.00,-91.00,-994.00
2024-06-07 15:10:36.740275,-7,5,-12,-3,-1,0,85,88,119,110,79,160.32,193,-85.00,-94.00,-958.00
2024-06-07 15:10:36.841976,-6,5,-12,-3,-1,0,85,88,120,100,79,160.35,193,-153.00,-82.00,-1000.00
2024-06-07 15:10:36.943989,-6,5,-12,-3,-1,0,85,88,120,100,79,160.40,193,-56.00,-122.00,-952.00
2024-06-07 15:10:37.045970,-6,5,-12,-3,-1,0,85,88,120,100,79,160.32,193,-111.00,-131.00,-923.00
2024-06-07 15:10:37.147941,-6,5,-12,-2,-1,0,85,88,118,100,79,160.21,193,-148.00,-105.00,-1006.00
2024-06-07 15:10:37.250076,-6,5,-12,-2,-2,0,85,88,118,100,78,160.32,193,-76.00,-147.00,-921.00
2024-06-07 15:10:37.556332,-6,6,-12,-2,-2,0,85,88,118,100,78,160.33,193,-62.00,-146.00,-983.00
2024-06-07 15:10:37.556978,-5,7,-12,-1,-2,0,85,88,118,100,78,160.29,194,-54.00,-108.00,-986.00
2024-06-07 15:10:37.557375,-5,7,-12,-1,-2,0,85,88,118,100,78,160.33,194,-141.00,-81.00,-1015.00
2024-06-07 15:10:37.659346,-6,6,-12,-1,-1,0,85,88,119,100,78,160.20,194,-115.00,-85.00,-1010.00
2024-06-07 15:10:37.760247,-5,6,-12,-1,-1,0,85,89,117,100,78,160.10,194,-126.00,-108.00,-1004.00
2024-06-07 15:10:37.862917,-5,6,-12,-1,-1,0,85,89,116,100,78,160.22,194,-87.00,-116.00,-923.00
2024-06-07 15:10:37.964680,-6,6,-12,-1,-2,0,85,89,116,100,78,160.24,194,-102.00,-118.00,-992.00
2024-06-07 15:10:38.067325,-5,6,-12,-1,-2,0,85,89,115,100,78,160.14,194,-98.00,-124.00,-992.00
2024-06-07 15:10:38.273818,-5,7,-12,-1,-2,0,85,89,114,100,78,160.18,194,-108.00,-89.00,-972.00
2024-06-07 15:10:38.274045,-5,6,-12,-1,-2,0,85,89,113,100,78,160.29,194,-94.00,-120.00,-919.00
2024-06-07 15:10:38.372124,-5,6,-12,-1,-1,0,85,89,112,100,78,160.22,194,-158.00,-99.00,-999.00
2024-06-07 15:10:38.476824,-5,6,-12,-1,-2,0,85,89,112,100,78,160.15,195,-60.00,-116.00,-947.00
2024-06-07 15:10:38.577000,-5,7,-12,-1,-2,0,85,89,111,100,78,160.21,195,-118.00,-110.00,-1028.00
2024-06-07 15:10:38.677937,-5,7,-12,-1,-2,0,85,89,111,100,78,160.23,195,-75.00,-137.00,-967.00
2024-06-07 15:10:38.780008,-4,7,-12,-1,-2,0,86,88,110,100,78,160.15,195,-123.00,-108.00,-995.00
2024-06-07 15:10:38.886504,-4,7,-12,-1,-1,0,86,88,111,100,78,160.14,195,-154.00,-106.00,-1049.00
2024-06-07 15:10:38.984007,-5,7,-12,-1,-1,0,86,88,111,100,78,160.16,195,-90.00,-116.00,-942.00
2024-06-07 15:10:39.092497,-5,7,-12,-1,-1,0,86,88,112,100,78,160.14,195,-86.00,-108.00,-967.00
2024-06-07 15:10:39.187997,-5,7,-12,-1,-1,0,86,88,111,100,78,160.13,195,-103.00,-123.00,-1030.00
2024-06-07 15:10:39.297912,-5,6,-12,-1,-1,0,86,88,112,100,78,160.26,195,-69.00,-134.00,-1005.00
2024-06-07 15:10:39.391986,-5,7,-12,-1,-1,0,86,88,113,100,78,160.19,195,-124.00,-111.00,-1020.00
2024-06-07 15:10:39.443146,-5,7,-12,-1,-1,0,86,88,113,100,78,160.19,196,-95.00,-122.00,-970.00
2024-06-07 15:10:39.548371,-5,7,-12,-1,-1,0,86,88,114,100,78,160.06,196,-80.00,-111.00,-984.00
2024-06-07 15:10:39.647153,-5,7,-12,-1,0,0,86,88,114,100,78,160.12,196,-123.00,-116.00,-936.00
2024-06-07 15:10:39.808424,-6,7,-12,-1,0,0,85,89,114,100,78,160.12,196,-88.00,-148.00,-915.00
2024-06-07 15:10:39.853694,-8,0,-12,-1,-1,0,85,89,113,100,78,160.03,196,-110.00,-151.00,-1086.00
2024-06-07 15:10:39.953845,-7,0,-12,0,-2,0,85,89,114,100,78,160.13,196,-97.00,-114.00,-1022.00
2024-06-07 15:10:40.115531,-6,3,-12,0,-4,0,85,89,113,100,78,160.15,196,-83.00,-96.00,-941.00
2024-06-07 15:10:40.157860,-5,5,-12,0,-4,0,85,89,113,100,78,160.19,196,-105.00,-74.00,-1003.00
2024-06-07 15:10:40.319903,-4,7,-12,0,-4,0,85,89,113,100,78,160.13,196,-129.00,-102.00,-1029.00
2024-06-07 15:10:40.361908,-5,7,-12,-1,-3,0,85,89,113,100,78,160.17,196,-109.00,-115.00,-1074.00
2024-06-07 15:10:40.524672,-6,7,-12,-1,-2,0,85,89,115,100,78,160.13,197,-129.00,-104.00,-994.00
2024-06-07 15:10:40.565789,-8,6,-12,-1,-2,0,85,89,115,100,78,160.03,197,-96.00,-125.00,-903.00
2024-06-07 15:10:40.667878,-7,6,-12,0,-3,0,85,89,115,100,78,160.19,197,-76.00,-123.00,-923.00
2024-06-07 15:10:40.769946,-7,7,-12,0,-3,0,86,88,115,100,78,160.11,197,-135.00,-104.00,-995.00
2024-06-07 15:10:40.934418,-5,7,-12,0,-3,0,86,88,115,100,78,160.00,197,-94.00,-134.00,-970.00
2024-06-07 15:10:40.973897,-6,8,-12,0,-3,0,86,88,115,100,78,160.12,197,-113.00,-129.00,-1054.00
2024-06-07 15:10:41.139327,-6,8,-12,0,-2,0,86,88,115,100,78,160.02,197,-115.00,-122.00,-952.00
2024-06-07 15:10:41.177851,-7,8,-12,0,-2,0,86,88,115,100,77,160.06,197,-148.00,-82.00,-979.00
2024-06-07 15:10:41.343930,-6,8,-12,0,-2,0,86,88,115,100,77,160.05,197,-112.00,-113.00,-943.00
2024-06-07 15:10:41.381778,-6,8,-12,0,-2,0,86,88,114,100,77,160.08,197,-110.00,-88.00,-999.00
2024-06-07 15:10:41.548825,-6,8,-12,0,-1,0,86,88,114,100,77,160.10,198,-89.00,-91.00,-994.00
2024-06-07 15:10:41.587072,-5,8,-12,0,-1,0,86,88,114,100,77,160.05,198,-121.00,-109.00,-1060.00
2024-06-07 15:10:41.755347,-5,9,-12,0,-1,0,86,88,115,100,77,160.09,198,-106.00,-101.00,-966.00
2024-06-07 15:10:41.790965,-5,8,-12,0,0,0,85,89,114,100,77,160.12,198,-118.00,-100.00,-1026.00
2024-06-07 15:10:41.958792,-6,7,-12,0,0,0,85,89,115,100,77,160.03,198,-105.00,-118.00,-966.00
2024-06-07 15:10:41.998610,-7,6,-12,0,0,0,85,89,115,100,77,160.16,198,-48.00,-137.00,-1036.00
2024-06-07 15:10:42.097052,-6,6,-12,0,0,0,85,89,116,100,77,160.13,198,-134.00,-86.00,-979.00
2024-06-07 15:10:42.473053,-5,6,-12,0,0,0,85,89,115,100,77,160.08,198,-75.00,-139.00,-918.00
2024-06-07 15:10:42.473315,-5,7,-12,0,0,0,85,89,114,100,77,160.09,198,-85.00,-132.00,-947.00
2024-06-07 15:10:42.473408,-5,7,-12,0,0,0,85,89,115,100,77,160.04,198,-122.00,-104.00,-980.00
2024-06-07 15:10:42.473470,-5,7,-12,0,0,0,85,89,115,100,77,160.14,199,-112.00,-118.00,-971.00
2024-06-07 15:10:42.555843,-6,7,-12,0,0,0,85,89,116,100,77,160.11,199,-105.00,-116.00,-981.00
2024-06-07 15:10:42.657745,-6,6,-12,0,0,0,85,89,114,100,77,160.03,199,-127.00,-106.00,-942.00
2024-06-07 15:10:42.810807,-5,6,-12,0,0,0,85,88,114,100,77,160.01,199,-105.00,-127.00,-1014.00
2024-06-07 15:10:42.983927,-5,11,-12,0,0,0,85,88,115,100,77,160.07,199,-135.00,-116.00,-998.00
2024-06-07 15:10:42.984073,-5,14,-12,0,1,0,85,88,115,100,77,160.06,199,-170.00,-107.00,-997.00
2024-06-07 15:10:43.065708,-6,13,-12,0,2,0,85,88,114,100,77,160.03,199,-118.00,-145.00,-973.00
2024-06-07 15:10:43.191223,-7,10,-12,0,3,0,85,88,112,100,77,159.99,199,-150.00,-132.00,-985.00
2024-06-07 15:10:43.269686,-7,7,-12,0,4,0,85,88,110,100,77,159.89,199,-158.00,-101.00,-1009.00
2024-06-07 15:10:43.371978,-7,4,-12,0,3,0,85,88,109,100,77,159.90,199,-105.00,-120.00,-1022.00
2024-06-07 15:10:43.495263,-7,5,-12,0,2,0,85,88,108,100,77,159.97,200,-130.00,-158.00,-988.00
2024-06-07 15:10:43.575605,-7,6,-12,0,2,0,85,88,108,100,77,159.89,200,-94.00,-136.00,-971.00
2024-06-07 15:10:43.699279,-7,8,-12,0,1,0,85,88,107,100,77,159.90,200,-66.00,-190.00,-1015.00
2024-06-07 15:10:43.780038,-7,8,-12,0,1,0,87,89,106,100,77,159.85,200,-107.00,-123.00,-979.00
2024-06-07 15:10:44.007502,-6,7,-12,0,2,0,87,89,104,100,77,159.85,200,-95.00,-169.00,-969.00
2024-06-07 15:10:44.007715,-6,6,-12,0,1,0,87,89,102,90,77,159.79,200,-137.00,-146.00,-996.00
2024-06-07 15:10:44.085703,-6,6,-12,0,1,0,87,89,102,90,77,159.79,200,-81.00,-193.00,-1000.00
2024-06-07 15:10:44.211454,-6,6,-12,0,1,0,87,89,101,90,77,159.78,200,-133.00,-91.00,-1077.00
2024-06-07 15:10:44.289728,-6,6,-12,0,1,0,87,89,102,90,77,159.91,200,-75.00,-118.00,-973.00
2024-06-07 15:10:44.415944,-5,3,-12,0,1,0,87,89,101,90,77,159.84,200,-128.00,-138.00,-1023.00
2024-06-07 15:10:44.493778,-5,4,-12,0,0,0,87,89,102,90,77,159.90,201,-118.00,-127.00,-922.00
2024-06-07 15:10:44.723443,-5,5,-12,0,0,0,87,89,102,90,77,159.93,201,-95.00,-206.00,-1020.00
2024-06-07 15:10:44.723814,-6,6,-12,0,0,0,87,89,103,90,77,160.02,201,-114.00,-153.00,-971.00
2024-06-07 15:10:44.799814,-7,7,-12,0,0,0,86,88,104,90,77,159.93,201,-109.00,-103.00,-1048.00
2024-06-07 15:10:44.901699,-8,7,-12,0,0,0,86,88,105,90,77,159.90,201,-80.00,-136.00,-952.00
2024-06-07 15:10:45.030630,-7,6,-12,0,0,0,86,88,105,90,77,159.88,201,-117.00,-116.00,-964.00
2024-06-07 15:10:45.105644,-6,6,-12,0,0,0,86,88,105,90,77,159.95,201,-108.00,-115.00,-1053.00
2024-06-07 15:10:45.207672,-5,6,-12,0,0,0,86,88,105,100,77,159.94,201,-114.00,-124.00,-980.00
2024-06-07 15:10:45.337896,-5,6,-12,0,0,0,86,88,106,100,77,159.91,201,-77.00,-118.00,-969.00
2024-06-07 15:10:45.411640,-5,6,-12,0,0,0,86,88,107,100,77,159.96,201,-91.00,-149.00,-947.00
2024-06-07 15:10:45.513660,-5,6,-12,0,0,0,86,88,108,100,77,159.88,202,-124.00,-113.00,-938.00
2024-06-07 15:10:45.645265,-6,6,-12,0,0,0,86,88,109,100,77,159.94,202,-131.00,-116.00,-1012.00
2024-06-07 15:10:45.717742,-6,6,-12,0,0,0,86,88,111,100,77,159.86,202,-136.00,-105.00,-992.00
2024-06-07 15:10:45.819620,-7,6,-12,0,0,0,86,88,111,100,77,160.03,202,-133.00,-108.00,-1017.00
2024-06-07 15:10:45.951867,-7,6,-10,0,0,0,86,88,112,100,77,159.93,202,-154.00,-100.00,-986.00
2024-06-07 15:10:46.023515,-7,5,-5,0,0,0,86,88,112,100,77,159.93,202,-142.00,-98.00,-982.00
2024-06-07 15:10:46.260821,-7,4,0,0,0,0,86,88,113,100,77,159.79,202,-123.00,-67.00,-952.00
2024-06-07 15:10:46.260881,-7,4,6,0,0,0,86,88,114,100,76,159.90,202,-118.00,-97.00,-949.00
2024-06-07 15:10:46.329496,-7,4,12,0,0,0,86,88,113,100,76,159.78,202,-184.00,-38.00,-987.00
2024-06-07 15:10:46.566400,-7,3,18,0,0,0,86,88,113,100,76,159.76,202,-168.00,-52.00,-905.00
2024-06-07 15:10:46.566473,-9,3,23,0,0,0,86,88,113,100,76,159.76,203,-151.00,-62.00,-929.00
2024-06-07 15:10:46.584710,-10,2,29,0,0,0,86,88,113,100,76,159.83,203,-156.00,-30.00,-1086.00
2024-06-07 15:10:47.078346,-10,1,35,0,0,0,86,88,112,100,76,159.52,203,-174.00,-38.00,-975.00
2024-06-07 15:10:47.078733,-9,0,41,0,0,0,86,89,112,100,76,159.76,203,-234.00,85.00,-1004.00
2024-06-07 15:10:47.078923,-9,1,44,0,0,0,86,89,112,100,76,159.70,203,-187.00,50.00,-1049.00
2024-06-07 15:10:47.079398,-10,0,43,0,0,0,86,89,112,100,76,159.70,203,-171.00,15.00,-961.00
2024-06-07 15:10:47.094645,-10,0,43,0,0,0,86,89,112,100,76,159.83,203,-153.00,43.00,-967.00
2024-06-07 15:10:47.388499,-10,-1,44,0,0,0,86,89,112,100,76,159.59,203,-162.00,13.00,-1040.00
2024-06-07 15:10:47.388679,-10,-1,44,0,0,0,86,89,111,100,76,159.60,203,-153.00,-6.00,-978.00
2024-06-07 15:10:47.401565,-10,-1,44,0,0,0,86,89,112,100,76,159.65,203,-154.00,7.00,-994.00
2024-06-07 15:10:47.502986,-10,-1,43,0,0,0,86,89,112,100,76,159.73,204,-174.00,40.00,-975.00
2024-06-07 15:10:47.795361,-10,0,43,0,0,0,86,89,112,100,76,159.76,204,-176.00,32.00,-981.00
2024-06-07 15:10:47.795501,-9,0,43,0,0,0,86,89,113,100,76,159.75,204,-167.00,41.00,-1059.00
2024-06-07 15:10:47.808530,-9,-1,44,0,0,0,85,89,112,100,76,159.63,204,-153.00,17.00,-997.00
2024-06-07 15:10:47.999920,-9,-2,44,0,0,0,85,89,113,100,76,159.69,204,-191.00,42.00,-990.00
2024-06-07 15:10:48.013106,-9,-2,44,0,0,0,85,89,112,100,76,159.78,204,-179.00,70.00,-989.00
2024-06-07 15:10:48.716950,-10,-2,44,0,0,0,85,89,113,100,76,159.66,204,-134.00,32.00,-967.00
2024-06-07 15:10:48.717159,-9,-2,44,0,0,0,85,89,113,100,76,159.55,204,-150.00,38.00,-935.00
2024-06-07 15:10:48.719536,-9,-1,44,0,0,0,85,89,111,100,76,159.78,204,-144.00,41.00,-941.00
2024-06-07 15:10:48.719746,-9,-1,44,0,0,0,85,89,111,100,76,159.80,204,-185.00,31.00,-1018.00
2024-06-07 15:10:48.720368,-8,-1,44,0,0,0,85,89,111,100,76,159.72,205,-156.00,44.00,-942.00
2024-06-07 15:10:48.720563,-9,-1,44,0,0,0,85,89,111,100,76,159.76,205,-158.00,21.00,-979.00
2024-06-07 15:10:48.726723,-9,-2,44,0,0,0,85,89,110,100,76,159.73,205,-178.00,46.00,-1013.00
2024-06-07 15:10:48.828931,-9,-1,44,0,0,0,86,88,110,100,76,159.69,205,-166.00,24.00,-946.00
2024-06-07 15:10:49.026858,-9,-1,44,0,0,0,86,88,110,100,76,159.72,205,-162.00,49.00,-1010.00
2024-06-07 15:10:49.032544,-9,-1,44,0,0,0,86,88,110,100,76,159.75,205,-184.00,48.00,-994.00
2024-06-07 15:10:49.135347,-9,-1,44,0,0,0,86,88,109,100,76,159.74,205,-171.00,9.00,-996.00
2024-06-07 15:10:49.330987,-9,-1,41,0,0,0,86,88,109,100,76,159.62,205,-200.00,57.00,-970.00
2024-06-07 15:10:49.338450,-9,0,35,0,0,0,86,88,109,100,76,159.67,205,-137.00,-63.00,-1001.00
2024-06-07 15:10:49.537392,-9,1,29,0,0,0,86,88,109,100,76,159.51,206,-174.00,-25.00,-1042.00
2024-06-07 15:10:49.543244,-9,2,23,0,0,0,86,88,109,100,76,159.72,206,-203.00,-46.00,-990.00
2024-06-07 15:10:50.049634,-9,3,18,0,0,0,86,88,109,100,76,159.68,206,-152.00,-69.00,-967.00
2024-06-07 15:10:50.049700,-9,4,12,0,0,0,86,88,111,100,76,159.81,206,-149.00,-76.00,-960.00
2024-06-07 15:10:50.050605,-8,5,6,0,0,0,86,89,111,100,76,159.87,206,-169.00,-67.00,-1028.00
2024-06-07 15:10:50.050834,-8,6,1,0,0,0,86,89,111,100,76,159.83,206,-166.00,-90.00,-965.00
2024-06-07 15:10:50.053853,-8,7,-4,0,0,0,86,89,111,100,76,159.91,206,-160.00,-100.00,-1009.00
2024-06-07 15:10:50.154845,-8,7,-9,0,0,0,86,89,113,100,76,159.94,206,-139.00,-116.00,-1015.00
2024-06-07 15:10:50.256776,-8,6,-11,0,0,0,86,89,113,100,76,159.99,206,-69.00,-160.00,-1019.00
2024-06-07 15:10:50.662492,-6,6,-11,0,0,0,86,89,113,100,76,159.96,206,-136.00,-106.00,-1082.00
2024-06-07 15:10:50.662624,-6,7,-11,0,0,0,86,89,112,100,76,159.93,207,-115.00,-124.00,-932.00
2024-06-07 15:10:50.662663,-6,8,-11,0,0,0,86,89,113,100,76,159.88,207,-148.00,-124.00,-1042.00
2024-06-07 15:10:50.662924,-6,7,-11,0,0,0,86,89,112,100,76,159.91,207,-132.00,-74.00,-991.00
2024-06-07 15:10:50.715374,-7,7,-11,0,0,0,86,89,111,100,76,159.94,207,-129.00,-127.00,-973.00
2024-06-07 15:10:50.817595,-7,6,-11,0,0,0,85,88,111,100,76,159.87,207,-173.00,-110.00,-979.00
2024-06-07 15:10:50.971496,-7,6,-11,0,0,0,85,88,110,100,76,159.93,207,-143.00,-113.00,-997.00
2024-06-07 15:10:51.021604,-7,6,-11,0,0,0,85,88,108,100,76,159.89,207,-100.00,-106.00,-1000.00
2024-06-07 15:10:51.174774,-7,6,-11,0,0,0,85,88,106,100,76,159.86,207,-126.00,-77.00,-926.00
2024-06-07 15:10:51.225443,-7,5,-11,0,0,0,85,88,104,100,76,159.84,207,-96.00,-137.00,-963.00
2024-06-07 15:10:51.380933,-7,6,-11,0,0,1,85,88,103,90,76,159.90,207,-174.00,-76.00,-948.00
2024-06-07 15:10:51.433370,-7,5,-11,0,0,0,85,88,102,90,76,159.88,208,-93.00,-179.00,-1028.00
2024-06-07 15:10:51.531504,-7,4,-11,0,1,0,85,88,100,90,76,159.75,208,-137.00,-88.00,-1082.00
2024-06-07 15:10:51.688854,-6,4,-11,0,0,0,85,88,100,90,76,159.77,208,-168.00,-60.00,-1035.00
2024-06-07 15:10:51.739643,-7,4,-11,0,0,0,85,88,99,90,76,159.77,208,-98.00,-131.00,-949.00
2024-06-07 15:10:51.837348,-7,5,-11,0,0,0,85,88,100,90,76,159.86,208,-111.00,-97.00,-997.00
2024-06-07 15:10:51.993953,-7,5,-11,0,0,0,85,88,99,90,76,159.82,208,-134.00,-61.00,-1053.00
2024-06-07 15:10:52.041372,-7,4,-11,0,0,0,85,88,100,90,76,159.81,208,-141.00,-46.00,-991.00
2024-06-07 15:10:52.144462,-7,4,-11,0,0,0,85,88,101,90,76,159.78,208,-172.00,-85.00,-1001.00
2024-06-07 15:10:52.300837,-7,4,-11,0,0,0,85,88,102,90,76,159.81,208,-159.00,-85.00,-1058.00
2024-06-07 15:10:52.348479,-6,4,-11,0,0,0,85,88,103,90,76,159.82,208,-142.00,-89.00,-1015.00
2024-06-07 15:10:52.450570,-6,5,-11,0,0,0,85,88,104,90,76,159.84,209,-88.00,-89.00,-961.00
2024-06-07 15:10:52.610653,-6,5,-11,0,0,0,85,88,105,100,76,159.85,209,-100.00,-80.00,-977.00
2024-06-07 15:10:52.654554,-6,5,-11,0,0,-1,85,88,107,100,76,159.90,209,-73.00,-80.00,-1030.00
2024-06-07 15:10:52.756844,-6,4,-11,0,0,0,85,88,107,100,76,159.98,209,-154.00,-56.00,-959.00
2024-06-07 15:10:52.858669,-5,3,-11,0,0,0,85,88,106,100,76,159.91,209,-115.00,-99.00,-959.00
2024-06-07 15:10:53.017625,-6,3,-11,0,0,0,85,88,107,100,76,159.93,209,-129.00,-59.00,-975.00
2024-06-07 15:10:53.062995,-6,4,-11,0,0,0,85,88,106,100,76,159.94,209,-110.00,-88.00,-991.00
2024-06-07 15:10:53.222342,-6,4,-11,0,0,0,85,88,105,100,76,159.94,209,-111.00,-79.00,-1021.00
2024-06-07 15:10:53.268521,-7,4,-11,0,0,0,85,88,104,100,76,159.90,209,-107.00,-97.00,-970.00
2024-06-07 15:10:53.370036,-6,5,-11,0,0,0,85,88,104,90,76,159.86,209,-159.00,-77.00,-941.00
2024-06-07 15:10:53.470877,-6,4,-11,0,0,0,85,88,104,90,76,159.91,210,-104.00,-77.00,-955.00
2024-06-07 15:10:53.575531,-6,3,-11,0,0,0,85,88,104,90,76,159.85,210,-98.00,-108.00,-1052.00
2024-06-07 15:10:53.674440,-5,3,-11,0,0,0,85,88,104,90,76,159.93,210,-82.00,-80.00,-1071.00
2024-06-07 15:10:53.839232,-4,3,-11,0,0,0,85,88,104,90,76,159.86,210,-107.00,-97.00,-1045.00
2024-06-07 15:10:53.878342,-4,5,-11,0,0,0,85,88,106,90,76,159.87,210,-16.00,-122.00,-912.00
2024-06-07 15:10:54.043841,-4,6,-11,0,0,0,85,88,105,100,76,159.90,210,-90.00,-92.00,-945.00
2024-06-07 15:10:54.082437,-4,6,-11,0,0,0,85,88,106,100,76,159.95,210,-109.00,-95.00,-1024.00
2024-06-07 15:10:54.246740,-4,5,-11,0,0,0,85,88,107,100,75,159.90,210,-87.00,-82.00,-937.00
2024-06-07 15:10:54.287323,-4,5,-11,0,0,0,85,88,107,100,75,159.89,210,-90.00,-69.00,-1008.00
2024-06-07 15:10:54.448225,-4,5,-11,0,0,0,85,88,108,100,75,159.95,210,-90.00,-90.00,-987.00
2024-06-07 15:10:54.490860,-4,4,-11,0,0,0,85,88,107,100,75,159.92,211,-118.00,-78.00,-994.00
2024-06-07 15:10:54.541242,-4,5,-11,0,0,0,85,88,106,100,75,159.92,211,-73.00,-86.00,-981.00
2024-06-07 15:10:54.655922,-5,4,-11,0,0,0,85,88,106,100,75,159.93,211,-64.00,-115.00,-942.00
2024-06-07 15:10:54.746548,-5,4,-11,0,0,0,85,88,107,100,75,160.07,211,-105.00,-85.00,-998.00
2024-06-07 15:10:54.847252,-5,5,-11,0,0,0,84,88,106,100,75,160.01,211,-114.00,-88.00,-1027.00
2024-06-07 15:10:55.067454,-5,5,-11,0,0,0,84,88,106,100,75,159.88,211,-125.00,-67.00,-958.00
2024-06-07 15:10:55.067588,-6,5,-11,0,0,0,84,88,106,100,75,159.91,211,-93.00,-88.00,-1012.00
2024-06-07 15:10:55.153164,-5,5,-11,0,0,0,84,88,106,100,75,159.95,211,-69.00,-102.00,-990.00
2024-06-07 15:10:55.270737,-5,5,-11,0,0,0,84,88,106,100,75,159.93,211,-66.00,-86.00,-1037.00
2024-06-07 15:10:55.357430,-5,5,-11,0,0,0,84,88,106,100,75,159.84,211,-38.00,-112.00,-1000.00
2024-06-07 15:10:55.475390,-5,5,-11,0,0,0,84,88,107,100,75,159.91,212,-98.00,-79.00,-1029.00
2024-06-07 15:10:55.562806,-5,5,-11,0,0,0,84,88,107,100,75,159.94,212,-93.00,-112.00,-945.00
2024-06-07 15:10:55.680442,-5,5,-11,0,0,0,84,88,107,100,75,159.99,212,-110.00,-72.00,-985.00
2024-06-07 15:10:55.766385,-5,4,-11,0,0,0,84,88,108,100,75,159.99,212,-118.00,-84.00,-976.00
2024-06-07 15:10:55.868418,-6,3,-11,0,0,0,84,89,109,100,75,160.04,212,-129.00,-109.00,-970.00
2024-06-07 15:10:55.987793,-6,4,-11,0,0,0,84,89,109,100,75,160.00,212,-61.00,-113.00,-960.00
2024-06-07 15:10:56.072352,-6,5,-11,0,0,0,84,89,110,100,75,160.08,212,-85.00,-95.00,-1012.00
2024-06-07 15:10:56.193405,-6,5,-11,0,0,0,84,89,110,100,75,160.04,212,-153.00,-84.00,-998.00
2024-06-07 15:10:56.276430,-6,5,-11,0,0,0,84,89,110,100,75,160.02,212,-108.00,-108.00,-944.00
2024-06-07 15:10:56.397079,-6,4,-11,0,0,0,84,89,110,100,75,160.02,212,-104.00,-106.00,-1055.00
2024-06-07 15:10:56.480319,-6,5,-11,0,0,0,84,89,110,100,75,160.04,213,-82.00,-97.00,-1007.00
2024-06-07 15:10:56.603134,-6,5,-11,0,0,0,84,89,110,100,75,160.09,213,-113.00,-75.00,-955.00
2024-06-07 15:10:56.684298,-6,6,-11,0,0,0,84,89,110,100,75,160.01,213,-102.00,-104.00,-1034.00
2024-06-07 15:10:56.806528,-6,5,-11,0,0,0,84,89,111,100,75,160.04,213,-102.00,-128.00,-929.00
2024-06-07 15:10:56.888540,-6,6,-11,0,0,0,84,88,111,100,75,160.06,213,-93.00,-109.00,-997.00
2024-06-07 15:10:57.011785,-6,6,-11,0,0,0,84,88,111,100,75,160.01,213,-78.00,-104.00,-983.00
2024-06-07 15:10:57.092427,-5,6,-11,0,0,0,84,88,112,100,75,160.04,213,-81.00,-102.00,-1000.00
2024-06-07 15:10:57.215914,-5,6,-11,0,0,0,84,88,112,100,75,160.05,213,-103.00,-75.00,-1017.00
2024-06-07 15:10:57.296360,-5,5,-11,0,0,0,84,88,112,100,75,160.07,213,-113.00,-64.00,-1000.00
2024-06-07 15:10:57.398921,-6,4,-11,0,0,0,84,88,112,100,75,160.02,213,-85.00,-67.00,-964.00
2024-06-07 15:10:57.501170,-6,4,-11,0,0,0,84,88,113,100,75,159.93,214,-101.00,-103.00,-932.00
2024-06-07 15:10:57.625594,-6,4,-11,0,0,0,84,88,112,100,75,159.98,214,-134.00,-54.00,-1004.00
2024-06-07 15:10:57.704221,-6,4,-11,0,0,0,84,88,111,100,75,160.03,214,-91.00,-76.00,-936.00
2024-06-07 15:10:57.832850,-5,4,-11,0,0,0,84,88,110,100,75,160.01,214,-101.00,-78.00,-1072.00
2024-06-07 15:10:57.908347,-5,4,-11,0,0,0,85,88,110,100,75,160.11,214,-69.00,-95.00,-992.00
2024-06-07 15:10:58.035123,-5,4,-11,0,0,0,85,88,109,100,75,160.16,214,-122.00,-89.00,-1015.00
2024-06-07 15:10:58.112221,-5,4,-11,0,0,0,85,88,108,100,75,160.09,214,-84.00,-134.00,-1020.00
2024-06-07 15:10:58.214791,-5,5,-11,0,0,0,85,88,108,100,75,160.05,214,-105.00,-65.00,-998.00
2024-06-07 15:10:58.342314,-4,6,-11,0,0,0,85,88,108,100,75,160.04,214,-77.00,-112.00,-1046.00
2024-06-07 15:10:58.366911,-5,5,-11,0,0,0,85,88,108,100,75,160.15,214,-77.00,-102.00,-938.00
2024-06-07 15:10:58.549863,-5,5,-11,0,0,0,85,88,109,100,75,160.03,215,-109.00,-112.00,-1029.00
2024-06-07 15:10:58.571016,-4,6,-11,0,0,0,85,88,109,100,75,159.99,215,-136.00,-96.00,-1040.00
2024-06-07 15:10:58.751949,-5,6,-11,0,0,0,85,88,109,100,75,160.00,215,-115.00,-109.00,-983.00
2024-06-07 15:10:58.774939,-5,6,-11,0,0,0,85,88,109,100,75,160.05,215,-100.00,-98.00,-1032.00
2024-06-07 15:10:58.876999,-5,6,-11,0,0,0,85,88,112,100,75,159.99,215,-113.00,-100.00,-1018.00
2024-06-07 15:10:59.059148,-5,6,-11,0,0,0,85,88,112,100,75,159.97,215,-95.00,-95.00,-1002.00
2024-06-07 15:10:59.081325,-5,6,-11,0,0,0,85,88,114,100,75,159.99,215,-96.00,-91.00,-985.00
2024-06-07 15:10:59.265588,-5,5,-11,0,0,0,85,88,113,100,74,160.02,215,-66.00,-93.00,-913.00
2024-06-07 15:10:59.286310,-5,4,-11,0,0,0,85,88,114,100,74,160.01,215,-36.00,-97.00,-1045.00
2024-06-07 15:10:59.468753,-4,5,-11,0,0,0,85,88,115,100,74,159.99,215,-65.00,-83.00,-941.00
2024-06-07 15:10:59.489246,-4,4,-11,0,0,0,85,88,117,100,74,160.01,216,-117.00,-79.00,-1036.00
2024-06-07 15:10:59.591104,-3,5,-11,0,0,0,85,88,119,100,74,160.09,216,-69.00,-56.00,-987.00
2024-06-07 15:10:59.693089,-3,5,-11,0,0,0,85,88,119,100,74,160.11,216,-63.00,-106.00,-955.00
2024-06-07 15:10:59.878260,-4,5,-11,0,0,0,85,88,121,100,74,160.11,216,-85.00,-103.00,-977.00
2024-06-07 15:10:59.896946,-4,5,-11,0,0,0,85,88,121,100,74,160.10,216,-71.00,-72.00,-993.00
2024-06-07 15:11:00.083041,-4,5,-11,0,0,0,85,88,122,110,74,160.12,216,-47.00,-103.00,-991.00
2024-06-07 15:11:00.100917,-5,5,-11,0,0,0,85,88,123,110,74,160.15,216,-12.00,-122.00,-927.00
2024-06-07 15:11:00.202899,-4,4,-11,0,0,0,85,88,123,110,74,160.13,216,-60.00,-97.00,-944.00
2024-06-07 15:11:00.305033,-3,5,-11,0,0,0,85,88,123,110,74,160.14,216,-109.00,-74.00,-1006.00
2024-06-07 15:11:00.406940,-4,5,-11,0,0,0,85,88,122,110,74,160.19,216,-50.00,-120.00,-990.00
2024-06-07 15:11:00.509009,-4,5,-11,0,0,0,85,88,121,110,74,160.16,217,-98.00,-80.00,-916.00
2024-06-07 15:11:00.703410,-4,5,-11,0,0,0,85,88,121,110,74,160.12,217,-116.00,-67.00,-1027.00
2024-06-07 15:11:00.712823,-4,5,-11,0,0,0,85,88,121,110,74,160.17,217,-88.00,-91.00,-916.00
2024-06-07 15:11:00.814990,-4,5,-11,0,0,0,85,88,120,110,74,160.15,217,-107.00,-83.00,-1028.00
2024-06-07 15:11:00.916979,-5,4,-11,0,0,0,85,89,119,110,74,160.11,217,-121.00,-75.00,-1014.00
2024-06-07 15:11:01.018923,-5,4,-11,0,0,0,85,89,119,110,74,160.18,217,-90.00,-95.00,-997.00
2024-06-07 15:11:01.120943,-6,5,-11,0,0,0,85,89,116,100,74,160.10,217,-41.00,-113.00,-910.00
2024-06-07 15:11:01.222823,-5,5,-11,0,0,0,85,89,115,100,74,160.20,217,-115.00,-71.00,-1059.00
2024-06-07 15:11:01.415155,-5,5,-11,0,0,0,85,89,113,100,74,160.11,217,-15.00,-142.00,-1371.00
2024-06-07 15:11:01.426813,1,3,-10,0,0,-1,85,89,116,100,74,159.93,217,-108.00,-108.00,-2080.00
2024-06-07 15:11:01.528699,7,1,-8,-2,0,-9,85,89,148,110,74,160.05,218,94.00,-77.00,-1429.00
2024-06-07 15:11:01.721291,69,13,3,-9,1,-14,85,89,6553,120,74,160.27,218,402.00,-30.00,-1083.00
2024-06-07 15:11:01.732766,-12,179,164,-17,1,0,85,89,324,130,74,160.23,218,365.00,-88.00,-853.00
2024-06-07 15:11:01.834979,-47,-2,-7,-11,0,10,85,89,116,120,74,160.31,218,5.00,-80.00,-1774.00
2024-06-07 15:11:02.030839,26,-2,-8,-11,-1,8,85,88,109,110,74,160.34,218,50.00,-206.00,-1676.00
2024-06-07 15:11:02.038961,5,0,0,-16,-2,6,85,88,93,110,74,159.90,218,-15.00,-71.00,-1394.00
2024-06-07 15:11:02.233409,-7,0,6,-16,-3,2,85,88,87,100,74,159.82,218,-128.00,79.00,-1214.00
2024-06-07 15:11:02.242747,-8,2,1,-15,-3,0,85,88,83,100,74,159.85,218,40.00,-152.00,-1105.00
2024-06-07 15:11:02.294226,-7,4,-9,-13,-3,-1,85,88,80,100,74,159.75,218,-24.00,-48.00,-1089.00
2024-06-07 15:11:02.438471,-7,5,-12,-12,-3,-1,85,88,78,100,74,159.84,218,-26.00,-57.00,-1063.00
2024-06-07 15:11:02.498980,-7,5,-12,-11,-3,-2,85,88,76,100,74,159.78,219,18.00,-92.00,-1199.00
2024-06-07 15:11:02.644845,-7,5,-12,-10,-3,-2,85,88,74,100,74,159.79,219,-27.00,-51.00,-968.00
2024-06-07 15:11:02.702319,-7,5,-12,-9,-2,-2,85,88,72,100,74,159.78,219,-43.00,-66.00,-1057.00
2024-06-07 15:11:02.849510,-7,5,-12,-8,-2,-2,85,88,70,110,74,159.72,219,-55.00,-53.00,-958.00
2024-06-07 15:11:02.908798,-7,5,-11,-6,-2,-2,85,88,69,110,74,159.74,219,-23.00,-63.00,-974.00
2024-06-07 15:11:03.015244,-7,5,-12,-5,-2,-2,85,88,66,110,74,159.66,219,-89.00,-43.00,-1005.00
2024-06-07 15:11:03.110933,-6,5,-11,-4,-2,-1,85,88,64,110,74,159.61,219,-96.00,-20.00,-959.00
2024-06-07 15:11:03.257972,-6,6,-11,-3,-2,-1,85,88,61,110,74,159.68,219,-39.00,-73.00,-962.00
2024-06-07 15:11:03.315937,-5,6,-11,-3,-1,0,85,88,58,110,74,159.73,219,-103.00,-42.00,-1002.00
2024-06-07 15:11:03.418361,-5,5,-12,-3,-1,0,85,88,54,110,74,159.58,220,-38.00,-85.00,-957.00
2024-06-07 15:11:03.521047,-5,5,-11,-2,-1,0,85,88,50,110,74,159.55,220,-76.00,-61.00,-977.00
2024-06-07 15:11:03.624161,-5,5,-11,-2,-1,0,85,88,45,110,74,159.49,220,-82.00,-56.00,-1000.00
2024-06-07 15:11:03.725056,-5,4,-11,-2,-1,0,85,88,41,110,74,159.53,220,-41.00,-92.00,-935.00
2024-06-07 15:11:03.826957,-5,4,-11,-2,-1,0,85,88,36,110,74,159.44,220,-94.00,-82.00,-990.00
2024-06-07 15:11:03.927880,-5,5,-11,-1,-1,0,85,88,31,110,74,159.39,220,-37.00,-107.00,-960.00
2024-06-07 15:11:04.077945,-4,5,-11,-1,-1,3,85,88,27,100,74,159.41,220,-93.00,-76.00,-1049.00
2024-06-07 15:11:04.135754,-5,6,-11,-1,-1,3,85,88,23,100,74,159.28,220,-59.00,-83.00,-1102.00
2024-06-07 15:11:04.232716,-6,5,-11,-1,0,2,85,88,24,90,73,159.21,220,-53.00,-87.00,-1039.00
2024-06-07 15:11:04.334841,-5,5,-11,0,0,1,85,88,20,90,73,159.12,220,-54.00,-71.00,-1087.00
2024-06-07 15:11:04.488326,-3,5,-11,0,0,0,85,88,17,90,73,159.17,221,-11.00,-90.00,-974.00
2024-06-07 15:11:04.538705,-3,5,-11,0,0,0,85,88,16,90,73,159.13,221,-79.00,-87.00,-1019.00
2024-06-07 15:11:04.691185,-3,5,-11,0,0,0,85,88,15,90,73,159.07,221,-125.00,-87.00,-1073.00
2024-06-07 15:11:04.742686,-4,4,-11,0,0,0,85,88,15,90,73,158.94,221,-62.00,-63.00,-1029.00
2024-06-07 15:11:04.847078,-3,4,-11,0,0,0,85,88,15,90,73,159.03,221,-77.00,-70.00,-976.00
2024-06-07 15:11:04.946505,-4,4,-11,0,0,0,86,88,15,90,73,159.09,221,-44.00,-80.00,-921.00
2024-06-07 15:11:05.048665,-4,4,-11,0,0,0,86,88,16,90,73,159.17,221,-54.00,-90.00,-1105.00
2024-06-07 15:11:05.202916,-3,4,-11,0,0,0,86,88,16,90,73,159.17,221,-63.00,-99.00,-916.00
2024-06-07 15:11:05.252579,-4,5,-11,0,0,0,86,88,16,90,73,159.25,221,-80.00,-85.00,-930.00
2024-06-07 15:11:05.407705,-4,5,-11,0,0,0,86,88,16,90,73,159.32,221,-152.00,-78.00,-975.00
2024-06-07 15:11:05.456688,-5,5,-11,0,0,0,86,88,16,90,73,159.36,222,-107.00,-108.00,-951.00
2024-06-07 15:11:05.558716,-5,6,-11,0,0,1,86,88,15,90,73,159.26,222,-92.00,-105.00,-837.00
2024-06-07 15:11:05.714935,-5,5,-11,0,0,1,86,88,14,90,73,159.06,222,-89.00,-75.00,-877.00
2024-06-07 15:11:05.715014,-5,4,-11,0,0,2,86,88,12,90,73,158.90,222,-84.00,-104.00,-907.00
2024-06-07 15:11:05.814056,-5,5,-11,0,0,3,86,88,12,90,73,158.39,222,-82.00,-66.00,-945.00
2024-06-07 15:11:05.966537,-4,5,-11,0,0,3,85,88,10,80,73,157.70,222,-19.00,-90.00,-996.00
2024-06-07 15:11:06.017728,-3,4,-11,0,0,3,85,88,10,80,73,156.78,222,-45.00,-30.00,-1056.00
2024-06-07 15:11:06.124487,2,1,-11,0,0,1,85,88,10,80,73,156.10,222,-47.00,-42.00,-1027.00
2024-06-07 15:11:06.221788,-2,4,-12,0,0,0,85,88,10,80,73,156.73,222,-42.00,-20.00,-875.00
2024-06-07 15:11:06.329408,-1,3,-13,0,0,0,85,88,10,80,73,157.01,222,4.00,-125.00,-972.00
2024-06-07 15:11:06.425957,-2,4,-14,0,0,0,85,88,10,80,73,157.25,223,-12.00,-75.00,-1050.00
2024-06-07 15:11:06.527770,-2,6,-17,0,0,0,85,88,10,80,73,157.00,223,-157.00,-562.00,-1593.00
2024-06-07 15:11:06.629833,-1,6,-18,0,0,0,85,88,10,80,73,157.40,223,6.00,-56.00,-810.00
2024-06-07 15:11:06.740272,0,4,-16,0,0,0,85,88,10,80,73,157.89,223,-14.00,-108.00,-964.00
2024-06-07 15:11:06.834057,0,4,-15,0,0,0,85,88,10,80,73,157.72,223,68.00,-38.00,-969.00
2024-06-07 15:11:06.944121,0,5,-15,0,0,0,85,88,10,80,73,158.07,223,31.00,-85.00,-996.00
2024-06-07 15:11:07.037665,0,5,-15,0,0,0,85,88,10,80,73,158.22,223,-18.00,-130.00,-945.00
2024-06-07 15:11:07.148528,0,5,-15,0,0,0,85,88,10,90,73,158.27,223,18.00,-86.00,-987.00
2024-06-07 15:11:07.242366,0,4,-15,0,0,0,85,88,10,90,73,158.27,223,19.00,-70.00,-985.00
2024-06-07 15:11:07.354875,0,4,-15,0,0,0,85,88,10,90,73,158.56,223,-5.00,-87.00,-991.00
2024-06-07 15:11:07.446074,0,5,-15,0,0,0,85,88,10,0,73,158.86,224,17.00,-97.00,-995.00
2024-06-07 15:11:07.548522,0,5,-15,0,0,0,85,88,10,0,73,159.05,224,10.00,-87.00,-987.00
2024-06-07 15:11:07.649801,0,5,-15,0,0,0,85,88,10,0,73,159.14,224,18.00,-84.00,-986.00
2024-06-07 15:11:07.763891,0,5,-15,0,0,0,85,88,10,0,73,159.21,224,19.00,-82.00,-981.00
2024-06-07 15:11:07.854543,0,5,-15,0,0,0,85,88,10,0,73,159.18,224,16.00,-79.00,-992.00
2024-06-07 15:11:07.968594,0,5,-15,0,0,0,84,88,10,0,73,159.19,224,24.00,-100.00,-983.00
2024-06-07 15:11:08.057842,0,4,-15,0,0,0,84,88,10,0,73,159.24,224,8.00,-70.00,-989.00
2024-06-07 15:11:08.173964,0,4,-15,0,0,0,84,88,10,0,73,159.22,224,15.00,-75.00,-1000.00
2024-06-07 15:11:08.263686,0,4,-15,0,0,0,84,88,10,0,73,159.29,224,18.00,-61.00,-996.00
2024-06-07 15:11:08.364296,0,4,-15,0,0,0,84,88,10,0,73,159.22,224,12.00,-82.00,-996.00
2024-06-07 15:11:08.466023,0,4,-15,0,0,0,84,88,10,0,73,159.30,224,10.00,-81.00,-992.00
2024-06-07 15:11:08.583135,0,4,-15,0,0,-1,84,88,10,0,73,159.28,224,13.00,-82.00,-994.00
2024-06-07 15:11:08.669592,0,4,-15,0,0,-1,84,88,10,0,73,159.22,224,11.00,-83.00,-995.00
2024-06-07 15:11:08.889741,0,4,-15,0,0,-1,84,88,10,0,73,159.32,224,13.00,-82.00,-996.00
2024-06-07 15:11:08.892358,0,4,-15,0,0,-2,84,88,10,0,73,159.29,224,12.00,-82.00,-997.00
2024-06-07 15:11:08.976768,0,4,-15,0,0,-2,85,87,10,0,73,159.25,224,11.00,-84.00,-998.00
2024-06-07 15:11:09.094552,0,4,-16,0,0,-2,85,87,10,0,73,159.31,224,13.00,-82.00,-999.00
2024-06-07 15:11:09.181288,0,4,-16,0,0,-3,85,87,10,0,73,159.30,224,15.00,-83.00,-997.00
2024-06-07 15:11:09.287616,0,4,-16,0,0,0,85,87,10,0,73,159.32,224,13.00,-83.00,-999.00
2024-06-07 15:11:09.387654,0,4,-16,0,0,0,85,87,10,0,73,159.33,224,13.00,-83.00,-999.00
2024-06-07 15:11:09.488853,0,4,-16,0,0,0,85,87,10,0,73,159.29,224,12.00,-82.00,-1000.00
2024-06-07 15:11:09.589156,0,4,-16,0,0,0,85,87,10,0,73,159.30,224,14.00,-83.00,-997.00
2024-06-07 15:11:09.638477,0,4,-16,0,0,0,85,87,10,0,73,159.33,224,14.00,-84.00,-997.00
2024-06-07 15:11:09.811142,0,4,-16,0,0,0,85,87,10,0,73,159.28,224,14.00,-82.00,-1001.00
2024-06-07 15:11:09.843324,0,4,-16,0,0,0,85,87,10,0,73,159.24,224,14.00,-82.00,-998.00
2024-06-07 15:11:10.018707,0,4,-16,0,0,0,85,87,10,0,73,159.22,224,13.00,-83.00,-998.00
2024-06-07 15:11:10.049199,0,4,-16,0,0,0,85,87,10,0,73,159.23,224,13.00,-82.00,-1000.00
2024-06-07 15:11:10.149699,0,4,-16,0,0,0,85,87,10,0,73,159.26,224,13.00,-82.00,-997.00
2024-06-07 15:11:10.323198,0,4,-16,0,0,0,85,87,10,0,73,159.30,224,14.00,-82.00,-1000.00
2024-06-07 15:11:10.353614,0,4,-16,0,0,0,85,87,10,0,73,159.30,224,13.00,-82.00,-997.00
2024-06-07 15:11:10.528035,0,4,-16,0,0,0,85,87,10,0,73,159.23,224,14.00,-82.00,-998.00
2024-06-07 15:11:10.557688,0,4,-16,0,0,0,85,87,10,0,73,159.29,224,12.00,-83.00,-997.00
2024-06-07 15:11:10.660096,0,4,-16,0,0,0,85,87,10,0,73,159.26,224,13.00,-83.00,-997.00
2024-06-07 15:11:10.837059,0,4,-15,0,0,0,85,87,10,0,73,159.29,224,15.00,-83.00,-997.00
2024-06-07 15:11:10.863766,0,4,-15,0,0,0,85,87,10,0,73,159.21,224,12.00,-82.00,-996.00
2024-06-07 15:11:11.039965,0,4,-15,0,0,0,85,88,10,0,73,159.23,224,14.00,-84.00,-998.00
2024-06-07 15:11:11.067573,0,4,-15,0,0,0,85,88,10,0,73,159.22,224,12.00,-84.00,-998.00
2024-06-07 15:11:11.169694,0,4,-15,0,0,0,85,88,10,0,73,159.27,224,13.00,-83.00,-999.00
2024-06-07 15:11:11.271313,0,4,-15,0,0,0,85,88,10,0,73,159.25,224,13.00,-83.00,-997.00
2024-06-07 15:11:11.451165,0,4,-15,0,0,0,85,88,10,0,73,159.20,224,13.00,-83.00,-1000.00
2024-06-07 15:11:11.475466,0,4,-15,0,0,0,85,88,10,0,73,159.26,224,12.00,-84.00,-998.00
2024-06-07 15:11:11.654189,0,4,-15,0,0,0,85,88,10,0,73,159.21,224,13.00,-83.00,-1000.00
2024-06-07 15:11:11.679428,0,4,-15,0,0,0,85,88,10,0,73,159.23,224,13.00,-82.00,-997.00
2024-06-07 15:11:11.862091,0,4,-15,0,0,0,85,88,10,0,73,159.26,224,14.00,-84.00,-996.00
2024-06-07 15:11:11.883361,0,4,-15,0,0,0,85,88,10,0,73,159.21,224,14.00,-81.00,-997.00
2024-06-07 15:11:12.065994,0,4,-15,0,0,0,84,87,10,0,73,159.21,224,12.00,-83.00,-998.00
2024-06-07 15:11:12.087526,0,4,-15,0,0,0,84,87,10,0,73,159.25,224,13.00,-83.00,-1001.00
2024-06-07 15:11:12.268732,0,4,-15,0,0,0,84,87,10,0,73,159.24,224,12.00,-83.00,-998.00
2024-06-07 15:11:12.291451,0,4,-15,0,0,0,84,87,10,0,73,159.25,224,12.00,-83.00,-998.00
2024-06-07 15:11:12.435853,0,4,-15,0,0,0,84,87,10,0,73,159.21,224,12.00,-82.00,-997.00
2024-06-07 15:11:12.495634,0,4,-15,0,0,0,84,87,10,0,73,159.23,224,13.00,-84.00,-998.00
