TS,pitch,roll,yaw,vgx,vgy,vgz,templ,temph,tof,h,bat,baro,time,agx,agy,agz
2024-06-07 15:11:50.978300,0,0,-7,0,0,0,88,90,10,0,72,159.16,224,6.00,3.00,-998.00
2024-06-07 15:11:51.053996,0,0,-7,0,0,0,88,90,10,0,72,159.16,224,7.00,2.00,-1000.00
2024-06-07 15:11:51.180373,0,0,-7,0,0,0,88,90,10,0,72,159.23,224,8.00,3.00,-1002.00
2024-06-07 15:11:51.257685,0,0,-7,0,0,0,88,90,10,0,72,159.16,224,7.00,3.00,-999.00
2024-06-07 15:11:51.384896,0,0,-7,0,0,0,88,90,10,0,72,159.17,224,9.00,3.00,-1000.00
2024-06-07 15:11:51.461474,0,0,-7,0,0,0,88,90,10,0,72,159.19,224,9.00,2.00,-1001.00
2024-06-07 15:11:51.563404,0,0,-7,0,0,0,88,90,10,0,72,159.21,224,9.00,3.00,-999.00
2024-06-07 15:11:51.692023,0,0,-7,0,0,0,88,90,10,0,72,159.17,224,8.00,2.00,-999.00
2024-06-07 15:11:51.767468,0,0,-7,0,0,0,88,90,10,0,72,159.17,224,10.00,3.00,-1002.00
2024-06-07 15:11:51.896794,0,0,-7,0,0,0,88,90,10,0,72,159.16,224,7.00,1.00,-999.00
2024-06-07 15:11:51.971663,0,0,-7,0,0,0,88,90,10,0,72,159.09,224,9.00,2.00,-1001.00
2024-06-07 15:11:52.101696,0,0,-7,0,0,0,88,90,10,0,72,159.14,224,8.00,0.00,-1002.00
2024-06-07 15:11:52.175251,0,0,-7,0,0,0,88,90,10,0,72,159.21,224,9.00,3.00,-999.00
2024-06-07 15:11:52.306421,0,0,-7,0,0,0,88,90,10,0,72,159.15,224,7.00,3.00,-1000.00
2024-06-07 15:11:52.384053,0,0,-7,0,0,0,88,90,10,0,72,159.17,224,8.00,4.00,-999.00
2024-06-07 15:11:52.481494,0,0,-7,0,0,0,88,90,10,0,72,159.14,224,8.00,1.00,-998.00
2024-06-07 15:11:52.613452,0,0,-7,0,0,0,88,90,10,0,72,159.17,224,9.00,3.00,-998.00
2024-06-07 15:11:52.685543,0,0,-7,0,0,0,88,90,10,0,72,159.11,224,7.00,2.00,-999.00
2024-06-07 15:11:52.818368,0,0,-7,0,0,0,88,90,10,0,72,159.14,224,6.00,3.00,-999.00
2024-06-07 15:11:52.889465,0,0,-7,0,0,0,88,90,10,0,72,159.17,224,7.00,4.00,-998.00
2024-06-07 15:11:52.991260,0,0,-7,0,0,0,88,90,10,0,72,159.19,224,8.00,4.00,-1000.00
2024-06-07 15:11:53.042156,0,0,-7,0,0,0,88,90,10,0,72,159.16,224,7.00,2.00,-1001.00
2024-06-07 15:11:53.228188,0,0,-7,0,0,0,88,90,10,0,72,159.18,224,7.00,1.00,-997.00
2024-06-07 15:11:53.246095,0,0,-7,0,0,0,88,90,10,0,72,159.19,224,8.00,3.00,-999.00
2024-06-07 15:11:53.348438,0,0,-7,0,0,0,88,90,10,0,72,159.16,224,9.00,0.00,-1000.00
2024-06-07 15:11:53.535298,0,0,-7,0,0,0,88,90,10,0,72,159.16,224,7.00,3.00,-998.00
2024-06-07 15:11:53.553448,0,0,-7,0,0,0,88,90,10,0,72,159.16,224,8.00,2.00,-1002.00
2024-06-07 15:11:53.655357,0,0,-7,0,0,0,88,90,10,0,72,159.18,224,8.00,4.00,-998.00
2024-06-07 15:11:53.757207,0,0,-7,0,0,0,88,90,10,0,72,159.22,224,8.00,4.00,-999.00
2024-06-07 15:11:53.944793,0,0,-7,0,0,0,88,90,10,0,72,159.20,224,0.00,-2.00,-1000.00
2024-06-07 15:11:53.961519,0,0,-7,0,0,0,88,90,10,0,72,159.20,224,17.00,9.00,-1001.00
2024-06-07 15:11:54.149600,0,0,-7,0,0,0,88,90,10,0,72,159.20,224,20.00,4.00,-997.00
2024-06-07 15:11:54.164924,0,0,-6,0,0,0,88,91,10,0,72,159.20,224,15.00,-42.00,-997.00
2024-06-07 15:11:54.354278,0,0,-4,0,0,0,88,91,10,0,72,159.20,224,0.00,-10.00,-1012.00
2024-06-07 15:11:54.369021,1,0,-3,0,0,0,88,91,10,0,72,159.20,224,-21.00,-28.00,-1100.00
2024-06-07 15:11:54.559170,1,0,-3,-1,0,-1,88,91,10,0,72,159.20,224,33.00,-29.00,-1134.00
2024-06-07 15:11:54.573414,0,0,-3,-1,0,-3,88,91,10,0,72,159.20,224,-54.00,75.00,-1293.00
2024-06-07 15:11:54.769298,-3,1,-3,-1,0,-6,88,91,17,0,72,159.20,224,-22.00,-53.00,-1148.00
2024-06-07 15:11:54.776982,-2,2,-3,0,0,-7,88,91,23,10,72,159.52,224,-23.00,-29.00,-1032.00
2024-06-07 15:11:54.968794,-2,2,-3,0,0,-8,88,91,28,20,72,159.61,225,-23.00,-32.00,-1011.00
2024-06-07 15:11:54.981411,-1,2,-3,0,0,-7,88,91,36,20,72,159.68,225,9.00,-39.00,-983.00
2024-06-07 15:11:55.173548,0,2,-3,0,0,-7,88,91,42,30,72,159.78,225,-39.00,-18.00,-987.00
2024-06-07 15:11:55.189883,0,2,-3,0,0,-6,88,91,49,40,72,159.78,225,-23.00,-53.00,-824.00
2024-06-07 15:11:55.286988,0,1,-3,0,0,-5,88,91,55,40,72,159.91,225,22.00,-66.00,-838.00
2024-06-07 15:11:55.480716,0,2,-3,0,0,-4,88,91,61,50,72,159.95,225,-20.00,-43.00,-832.00
2024-06-07 15:11:55.491450,0,3,-3,0,0,-3,88,91,65,50,72,159.95,225,-17.00,-47.00,-968.00
2024-06-07 15:11:55.685586,0,3,-3,0,0,-2,88,91,68,50,72,159.96,225,-33.00,-33.00,-897.00
2024-06-07 15:11:55.695199,0,3,-3,0,0,-1,88,91,71,60,72,159.99,225,-16.00,-46.00,-943.00
2024-06-07 15:11:55.890421,0,3,-3,0,0,-1,88,91,72,60,72,159.97,225,-25.00,-42.00,-941.00
2024-06-07 15:11:55.898919,0,3,-3,0,0,-1,88,91,74,60,72,159.96,226,-68.00,-36.00,-1002.00
2024-06-07 15:11:56.001056,-1,3,-3,0,0,-1,88,91,74,60,72,160.01,226,-5.00,-44.00,-974.00
2024-06-07 15:11:56.197565,-1,3,-3,0,0,0,88,91,76,60,72,160.07,226,-24.00,-43.00,-931.00
2024-06-07 15:11:56.205337,-1,3,-3,0,0,0,89,91,76,60,72,160.03,226,-17.00,-55.00,-1052.00
2024-06-07 15:11:56.306930,-1,2,-3,0,0,0,89,91,77,60,72,160.01,226,21.00,-37.00,-894.00
2024-06-07 15:11:56.504709,0,3,-3,0,0,0,89,91,76,60,72,159.98,226,-9.00,-33.00,-948.00
2024-06-07 15:11:56.510905,0,3,-3,0,0,0,89,91,76,60,72,160.06,226,-20.00,-59.00,-1007.00
2024-06-07 15:11:56.709641,0,3,-3,0,0,0,89,91,77,60,72,160.03,226,-35.00,-45.00,-1019.00
2024-06-07 15:11:56.714908,-1,2,-3,0,0,0,89,91,76,60,72,160.02,226,-27.00,-41.00,-945.00
2024-06-07 15:11:56.915122,-1,2,-3,0,0,0,89,91,75,60,72,159.99,226,-15.00,-31.00,-998.00
2024-06-07 15:11:56.915176,-1,2,-3,0,0,0,89,91,75,60,72,160.04,227,1.00,-30.00,-995.00
2024-06-07 15:11:56.970729,0,2,-3,0,0,0,89,91,74,60,72,160.02,227,-19.00,-50.00,-1029.00
2024-06-07 15:11:57.119131,0,1,-3,0,0,0,89,91,74,60,72,160.00,227,-13.00,-43.00,-1011.00
2024-06-07 15:11:57.323917,0,2,-3,0,0,0,89,91,74,60,72,160.04,227,-1.00,-67.00,-1026.00
2024-06-07 15:11:57.327959,0,2,-3,0,0,0,89,91,75,60,72,160.07,227,-28.00,-50.00,-1027.00
2024-06-07 15:11:57.378884,0,2,-3,0,0,0,89,91,76,60,72,159.99,227,15.00,-52.00,-967.00
2024-06-07 15:11:57.481646,0,2,-3,0,0,0,89,91,77,60,72,160.01,227,-6.00,-54.00,-1031.00
2024-06-07 15:11:57.631208,0,2,-3,0,0,-1,89,91,78,60,72,159.95,227,-27.00,-53.00,-1087.00
2024-06-07 15:11:57.684756,0,1,-3,0,0,0,89,91,78,70,72,159.96,227,-9.00,-44.00,-1190.00
2024-06-07 15:11:57.836145,0,1,-3,0,0,0,89,91,79,70,72,159.98,227,-43.00,-40.00,-949.00
2024-06-07 15:11:57.888765,0,2,-3,0,0,0,89,91,79,70,72,159.90,228,-31.00,-48.00,-935.00
2024-06-07 15:11:58.041139,0,2,-3,0,0,0,89,91,79,70,72,159.99,228,-67.00,-58.00,-1089.00
2024-06-07 15:11:58.094928,-1,3,-3,0,0,0,89,91,79,70,72,159.94,228,-41.00,-58.00,-907.00
2024-06-07 15:11:58.194926,0,3,-3,0,0,0,87,91,79,70,72,159.98,228,-25.00,-61.00,-1006.00
2024-06-07 15:11:58.348532,0,3,-3,0,0,0,87,91,79,70,72,160.00,228,16.00,-66.00,-973.00
2024-06-07 15:11:58.398745,0,3,-3,0,0,0,87,91,78,60,72,159.92,228,-1.00,-52.00,-1019.00
2024-06-07 15:11:58.553382,0,3,-3,0,0,0,87,91,77,60,72,160.00,228,-19.00,-76.00,-1000.00
2024-06-07 15:11:58.602744,0,3,-3,0,0,0,87,91,78,60,72,160.02,228,-7.00,-64.00,-1052.00
2024-06-07 15:11:58.704795,0,3,-3,0,0,0,87,91,77,60,72,159.98,228,26.00,-67.00,-941.00
2024-06-07 15:11:58.865179,0,2,-3,0,0,0,87,91,78,60,72,159.98,228,-11.00,-44.00,-1056.00
2024-06-07 15:11:58.908668,0,2,-3,0,0,0,87,91,76,60,72,159.84,229,0.00,-48.00,-960.00
2024-06-07 15:11:59.010712,0,2,-3,0,0,0,87,91,76,60,72,159.91,229,49.00,-77.00,-894.00
2024-06-07 15:11:59.167187,0,2,-3,0,0,0,87,91,76,60,72,159.91,229,-15.00,-45.00,-976.00
2024-06-07 15:11:59.214784,0,2,-3,0,0,0,88,90,74,60,72,159.90,229,-14.00,-51.00,-976.00
2024-06-07 15:11:59.372966,0,2,-3,0,0,0,88,90,73,60,72,159.88,229,-30.00,-30.00,-986.00
2024-06-07 15:11:59.419095,0,2,-3,0,0,0,88,90,73,60,72,159.85,229,-11.00,-50.00,-1030.00
2024-06-07 15:11:59.521315,0,2,-3,0,0,0,88,90,72,60,72,159.89,229,4.00,-55.00,-948.00
2024-06-07 15:11:59.625835,0,3,-3,0,0,0,88,90,71,60,72,159.91,229,-40.00,-45.00,-1026.00
2024-06-07 15:11:59.724993,0,2,-3,0,0,0,88,90,71,60,72,159.86,229,47.00,-80.00,-952.00
2024-06-07 15:11:59.883976,0,2,-3,0,0,0,88,90,70,60,72,159.91,229,1.00,-47.00,-974.00
2024-06-07 15:11:59.929111,0,2,-3,0,0,0,88,90,70,60,72,159.86,230,13.00,-57.00,-977.00
2024-06-07 15:12:00.030728,0,2,-3,0,0,0,88,90,70,60,72,159.87,230,16.00,-60.00,-1200.00
2024-06-07 15:12:00.191197,0,2,-3,0,0,0,88,90,70,60,72,159.86,230,-4.00,-49.00,-1126.00
2024-06-07 15:12:00.234731,-1,2,-3,0,0,0,88,90,71,60,72,159.89,230,2.00,-19.00,-981.00
2024-06-07 15:12:00.336903,-1,2,-3,0,0,0,88,90,70,60,72,159.92,230,-38.00,-47.00,-1003.00
2024-06-07 15:12:00.498329,-1,2,-3,0,0,0,88,90,70,60,72,159.85,230,1.00,-31.00,-961.00
2024-06-07 15:12:00.544536,-1,2,-3,0,0,0,88,90,70,60,72,159.81,230,-30.00,-15.00,-998.00
2024-06-07 15:12:00.642762,-2,2,-3,0,0,0,88,90,69,60,72,159.84,230,-19.00,-44.00,-983.00
2024-06-07 15:12:00.752286,-2,1,-3,0,0,0,88,90,69,60,72,159.86,230,14.00,-79.00,-1003.00
2024-06-07 15:12:00.846736,-2,2,-3,0,0,0,88,90,69,60,72,159.84,231,-66.00,-56.00,-1143.00
2024-06-07 15:12:01.010304,-2,2,-3,0,0,0,88,90,69,60,72,159.73,231,0.00,-58.00,-921.00
2024-06-07 15:12:01.010523,-2,2,-3,0,0,0,88,90,69,60,72,159.87,231,-31.00,-38.00,-936.00
2024-06-07 15:12:01.101595,-1,2,-3,0,0,0,88,90,69,60,72,159.84,231,-47.00,-35.00,-990.00
2024-06-07 15:12:01.257907,-1,2,-3,0,0,0,88,91,69,60,72,159.81,231,-8.00,-38.00,-1157.00
2024-06-07 15:12:01.305581,-1,2,-3,0,0,-1,88,91,69,60,72,159.85,231,-5.00,-65.00,-1018.00
2024-06-07 15:12:01.422660,-1,2,-3,0,0,-1,88,91,70,60,72,159.92,231,-5.00,-51.00,-1095.00
2024-06-07 15:12:01.509578,-1,1,-3,0,0,-2,88,91,72,60,72,159.94,231,15.00,-32.00,-1053.00
2024-06-07 15:12:01.611574,-1,1,-3,0,0,-3,88,91,75,70,72,159.92,231,-7.00,-82.00,-1162.00
2024-06-07 15:12:01.726969,-1,1,-3,0,0,-4,88,91,80,70,72,159.96,231,-7.00,-64.00,-1076.00
2024-06-07 15:12:01.815644,-2,1,-3,0,0,-5,88,91,86,80,72,160.00,232,-39.00,-51.00,-1031.00
2024-06-07 15:12:01.931854,-2,1,-3,0,0,-5,88,91,91,80,72,160.06,232,-2.00,-38.00,-1045.00
2024-06-07 15:12:02.019707,-1,1,-3,0,0,-5,88,91,97,90,72,160.10,232,-21.00,-33.00,-997.00
2024-06-07 15:12:02.136559,-1,2,-3,0,0,-6,88,91,103,90,72,160.14,232,-24.00,-39.00,-1053.00
2024-06-07 15:12:02.223625,-1,1,-3,0,0,-6,88,90,109,100,72,160.23,232,-39.00,-30.00,-1028.00
2024-06-07 15:12:02.341386,-2,0,-3,0,0,-5,88,90,116,110,72,160.29,232,-35.00,-37.00,-962.00
2024-06-07 15:12:02.427570,-2,0,-3,0,0,-5,88,90,121,110,72,160.31,232,-10.00,-46.00,-961.00
2024-06-07 15:12:02.550091,-2,0,-3,0,0,-5,88,90,128,120,72,160.38,232,-5.00,-41.00,-934.00
2024-06-07 15:12:02.631597,-2,0,-3,0,0,-5,88,90,135,120,72,160.49,232,-22.00,-30.00,-982.00
2024-06-07 15:12:02.751673,-2,1,-3,0,0,-4,88,90,139,130,72,160.50,232,1.00,-24.00,-941.00
2024-06-07 15:12:02.835493,-2,1,-3,0,0,-4,88,90,145,130,72,160.52,233,-27.00,-26.00,-942.00
2024-06-07 15:12:02.956365,-2,1,-3,0,0,-4,88,90,149,140,72,160.56,233,-13.00,-34.00,-975.00
2024-06-07 15:12:03.039475,-2,1,-3,0,0,-3,88,90,154,140,72,160.59,233,-52.00,-29.00,-904.00
2024-06-07 15:12:03.165371,-2,1,-3,0,0,-3,88,90,158,150,72,160.65,233,-11.00,-26.00,-966.00
2024-06-07 15:12:03.243475,-1,1,-3,0,0,-3,88,89,162,150,72,160.72,233,15.00,-35.00,-932.00
2024-06-07 15:12:03.365356,-1,1,-3,0,0,-2,88,89,167,150,72,160.72,233,51.00,-51.00,-956.00
2024-06-07 15:12:03.449950,-1,1,-3,0,0,-2,88,89,171,160,72,160.75,233,-7.00,-25.00,-962.00
2024-06-07 15:12:03.549547,-1,1,-3,0,0,-1,88,89,173,160,72,160.71,233,7.00,-29.00,-868.00
2024-06-07 15:12:03.651643,-1,1,-3,0,0,0,88,89,172,160,72,160.83,233,22.00,-36.00,-888.00
2024-06-07 15:12:03.753689,-1,1,-3,0,0,-1,88,89,175,160,72,160.80,233,-32.00,-16.00,-1054.00
2024-06-07 15:12:03.855586,-1,1,-3,0,0,0,88,89,176,160,72,160.78,234,0.00,-50.00,-915.00
2024-06-07 15:12:03.981719,-1,1,-3,0,0,0,88,89,177,170,72,160.77,234,-40.00,-27.00,-1030.00
2024-06-07 15:12:04.062536,-2,1,-3,0,0,0,88,89,176,170,72,160.84,234,-19.00,-26.00,-934.00
2024-06-07 15:12:04.161937,-2,1,-3,0,0,0,88,89,177,170,72,160.80,234,-17.00,-29.00,-1048.00
2024-06-07 15:12:04.289881,-1,1,-3,0,0,0,87,90,177,170,72,160.82,234,8.00,-71.00,-1053.00
2024-06-07 15:12:04.365527,-1,2,-3,0,0,0,87,90,175,170,72,160.81,234,-3.00,-46.00,-942.00
2024-06-07 15:12:04.491829,0,2,-3,0,0,0,87,90,174,170,72,160.80,234,-15.00,-42.00,-997.00
2024-06-07 15:12:04.569646,-1,2,-3,0,0,0,87,90,176,170,72,160.77,234,-5.00,-29.00,-958.00
2024-06-07 15:12:04.671937,-1,2,-3,0,0,0,87,90,175,170,72,160.88,234,-8.00,-6.00,-989.00
2024-06-07 15:12:04.773657,-1,2,-3,0,0,0,87,90,176,170,72,160.83,234,-13.00,-50.00,-996.00
2024-06-07 15:12:04.901515,-1,1,-3,0,0,0,87,90,177,170,72,160.82,235,-10.00,-26.00,-913.00
2024-06-07 15:12:04.977622,-1,1,-3,0,0,0,87,90,175,170,72,160.75,235,-10.00,-27.00,-1002.00
2024-06-07 15:12:05.028606,-1,1,-3,0,0,0,87,90,176,170,72,160.76,235,-22.00,-20.00,-939.00
2024-06-07 15:12:05.209057,-1,2,-3,0,0,0,87,90,178,170,72,160.75,235,12.00,-64.00,-1095.00
2024-06-07 15:12:05.283613,0,2,-3,0,0,0,87,90,179,170,72,160.90,235,26.00,-65.00,-949.00
2024-06-07 15:12:05.401714,-1,2,-3,0,0,0,87,90,175,170,72,160.83,235,8.00,-34.00,-880.00
2024-06-07 15:12:05.488570,-1,2,-3,0,0,0,87,90,176,170,72,160.82,235,-40.00,-54.00,-1046.00
2024-06-07 15:12:05.589521,-1,2,-3,0,0,0,87,90,174,170,72,160.76,235,1.00,-61.00,-1008.00
2024-06-07 15:12:05.640470,-1,2,-3,0,0,1,87,90,174,170,72,160.71,235,-9.00,-49.00,-985.00
2024-06-07 15:12:05.826451,0,2,-3,0,0,1,87,90,173,170,72,160.70,235,-61.00,-36.00,-1055.00
2024-06-07 15:12:05.864020,-1,2,-3,0,0,1,87,90,170,160,72,160.67,236,-6.00,-23.00,-914.00
2024-06-07 15:12:06.027792,-1,2,-3,0,0,2,87,90,168,160,72,160.69,236,-37.00,-18.00,-863.00
2024-06-07 15:12:06.048786,-1,2,-3,0,0,2,87,90,164,160,72,160.65,236,-60.00,-29.00,-1060.00
2024-06-07 15:12:06.233423,-1,2,-3,0,0,2,87,90,162,160,72,160.59,236,5.00,-62.00,-949.00
2024-06-07 15:12:06.252959,-2,2,-3,0,0,3,87,89,159,150,72,160.69,236,-31.00,-55.00,-969.00
2024-06-07 15:12:06.440733,-2,2,-3,0,0,3,87,89,158,150,72,160.52,236,-34.00,-50.00,-1026.00
2024-06-07 15:12:06.456320,-2,2,-3,0,0,3,87,89,153,150,72,160.48,236,28.00,-30.00,-943.00
2024-06-07 15:12:06.642194,-2,1,-3,0,0,3,87,89,150,140,72,160.50,236,-99.00,-39.00,-1117.00
2024-06-07 15:12:06.662117,-1,1,-3,0,0,2,87,89,147,140,72,160.49,236,-21.00,-53.00,-1128.00
2024-06-07 15:12:06.762878,-2,1,-3,0,0,2,87,89,147,140,72,160.46,236,-25.00,-36.00,-973.00
2024-06-07 15:12:06.864373,-2,2,-3,0,0,2,87,89,144,140,72,160.47,237,-45.00,-31.00,-1123.00
2024-06-07 15:12:07.051886,-1,2,-3,0,0,1,87,89,141,140,72,160.45,237,-31.00,-76.00,-1090.00
2024-06-07 15:12:07.068434,-1,2,-3,0,0,1,87,89,140,130,72,160.47,237,-2.00,-67.00,-1026.00
2024-06-07 15:12:07.256711,0,2,-3,0,0,1,87,89,137,130,72,160.42,237,10.00,-65.00,-1063.00
2024-06-07 15:12:07.272772,0,3,-3,0,0,1,86,89,135,130,72,160.39,237,-26.00,-66.00,-1030.00
2024-06-07 15:12:07.464725,0,3,-3,0,0,1,86,89,133,130,72,160.44,237,6.00,-71.00,-993.00
2024-06-07 15:12:07.476290,-1,3,-3,0,0,1,86,89,131,130,72,160.36,237,0.00,-58.00,-1009.00
2024-06-07 15:12:07.666203,-1,3,-3,0,0,1,86,89,129,120,72,160.39,237,-11.00,-33.00,-963.00
2024-06-07 15:12:07.680244,-1,3,-3,0,0,1,86,89,126,120,72,160.29,237,0.00,-74.00,-1002.00
2024-06-07 15:12:07.782422,0,3,-3,0,0,1,86,89,126,120,72,160.27,237,-6.00,-52.00,-1053.00
2024-06-07 15:12:07.973590,0,3,-3,0,0,0,86,89,125,120,72,160.33,238,6.00,-61.00,-1076.00
2024-06-07 15:12:07.986483,0,2,-3,0,0,0,86,89,123,120,72,160.28,238,-18.00,-34.00,-977.00
2024-06-07 15:12:08.088421,0,2,-3,0,0,0,86,89,123,120,72,160.25,238,-28.00,-36.00,-1000.00
2024-06-07 15:12:08.190828,0,2,-3,0,0,0,86,89,122,120,72,160.31,238,-28.00,-47.00,-1064.00
2024-06-07 15:12:08.292797,0,2,-3,0,0,0,86,90,122,120,72,160.35,238,-20.00,-24.00,-953.00
2024-06-07 15:12:08.394440,0,2,-3,0,0,0,86,90,121,120,72,160.36,238,-4.00,-52.00,-992.00
2024-06-07 15:12:08.587881,0,2,-3,0,0,0,86,90,120,120,72,160.26,238,-35.00,-24.00,-1015.00
2024-06-07 15:12:08.598218,0,2,-3,0,0,0,86,90,121,120,72,160.33,238,-19.00,-2.00,-995.00
2024-06-07 15:12:08.700436,0,2,-3,0,0,0,86,90,122,120,72,160.26,238,10.00,-26.00,-965.00
2024-06-07 15:12:08.900478,-1,1,-3,0,0,0,86,90,121,120,72,160.28,238,-7.00,-57.00,-1026.00
2024-06-07 15:12:08.904917,-1,2,-3,0,0,0,86,90,121,120,72,160.21,239,-23.00,-64.00,-1015.00
2024-06-07 15:12:09.099832,-1,2,-3,0,0,0,86,90,122,120,72,160.25,239,-23.00,-44.00,-1020.00
2024-06-07 15:12:09.108948,-1,1,-3,0,0,0,86,90,124,120,72,160.26,239,-12.00,-42.00,-978.00
2024-06-07 15:12:09.304985,-2,1,-3,0,0,0,86,90,123,120,72,160.29,239,22.00,-46.00,-1003.00
2024-06-07 15:12:09.313044,-1,2,-3,0,0,0,87,89,124,120,72,160.29,239,-49.00,-44.00,-1029.00
2024-06-07 15:12:09.509440,-2,2,-3,0,0,0,87,89,124,120,72,160.32,239,-5.00,-53.00,-945.00
2024-06-07 15:12:09.516374,-2,2,-3,0,0,0,87,89,126,120,72,160.31,239,-55.00,-18.00,-939.00
2024-06-07 15:12:09.567382,-2,2,-3,0,0,0,87,89,126,120,72,160.25,239,-35.00,-16.00,-1019.00
2024-06-07 15:12:09.669534,-2,2,-3,0,0,0,87,89,125,120,72,160.33,239,-67.00,-22.00,-965.00
2024-06-07 15:12:09.816561,-2,2,-3,0,0,0,87,89,127,120,72,160.30,239,-100.00,-36.00,-1006.00
2024-06-07 15:12:09.873207,-4,2,-3,0,0,0,87,89,127,120,72,160.33,240,-12.00,-34.00,-973.00
2024-06-07 15:12:10.024422,-8,2,-3,0,0,0,87,89,127,120,72,160.30,240,-47.00,-32.00,-1063.00
2024-06-07 15:12:10.080940,-8,2,-3,2,0,0,87,89,127,120,72,160.25,240,-41.00,-21.00,-1001.00
2024-06-07 15:12:10.181341,-8,2,-3,3,0,0,87,89,127,120,72,160.16,240,-39.00,-51.00,-1023.00
2024-06-07 15:12:10.281208,-8,2,-3,4,0,0,87,90,128,120,72,160.12,240,-46.00,-58.00,-996.00
2024-06-07 15:12:10.430940,-8,3,-3,4,0,0,87,90,129,120,72,160.19,240,-48.00,-27.00,-973.00
2024-06-07 15:12:10.485433,-8,3,-3,5,0,0,87,90,129,120,72,160.21,240,-18.00,-28.00,-948.00
2024-06-07 15:12:10.587447,-8,3,-3,5,0,0,87,90,128,120,72,160.19,240,-62.00,-38.00,-1026.00
2024-06-07 15:12:10.690224,-8,2,-3,6,0,0,87,90,129,120,72,160.07,240,-99.00,-30.00,-1011.00
2024-06-07 15:12:10.792663,-8,2,-3,7,0,0,87,90,128,120,72,160.06,240,-89.00,-7.00,-993.00
2024-06-07 15:12:10.893210,-4,2,-3,7,0,0,87,90,128,120,72,160.10,241,-52.00,-46.00,-1159.00
2024-06-07 15:12:11.001530,-1,2,-3,7,0,0,87,90,128,120,72,160.04,241,-54.00,-61.00,-1044.00
2024-06-07 15:12:11.097300,1,2,-3,6,0,0,87,90,128,120,72,160.16,241,-86.00,-36.00,-961.00
2024-06-07 15:12:11.250167,2,1,-3,5,0,0,87,90,128,120,72,160.18,241,-86.00,-26.00,-1018.00
2024-06-07 15:12:11.301140,1,2,-3,3,0,0,86,89,127,120,72,160.19,241,-86.00,-33.00,-1031.00
2024-06-07 15:12:11.454968,0,2,-3,3,0,0,86,89,129,120,72,160.22,241,-18.00,-45.00,-961.00
2024-06-07 15:12:11.505141,-1,2,-3,2,0,0,86,89,127,120,72,160.20,241,-53.00,-45.00,-961.00
2024-06-07 15:12:11.659763,-2,1,-3,2,0,0,86,89,129,120,72,160.16,241,-72.00,-37.00,-1120.00
2024-06-07 15:12:11.710240,-2,1,-3,2,0,0,86,89,129,120,72,160.22,241,-37.00,-36.00,-1008.00
2024-06-07 15:12:11.865028,-2,1,-3,2,0,0,86,89,130,120,72,160.21,241,-63.00,-36.00,-982.00
2024-06-07 15:12:11.914742,-2,1,-3,2,0,0,86,89,129,120,72,160.19,242,-85.00,-11.00,-1020.00
2024-06-07 15:12:12.015571,-2,1,-3,2,0,0,86,89,130,120,72,160.21,242,19.00,-49.00,-888.00
2024-06-07 15:12:12.117096,-2,1,-3,2,0,0,86,89,131,120,72,160.25,242,-34.00,-21.00,-1008.00
2024-06-07 15:12:12.219196,-2,1,-3,2,0,0,86,89,131,120,72,160.25,242,-58.00,-4.00,-1003.00
2024-06-07 15:12:12.321329,-2,1,-3,2,0,0,87,89,131,120,72,160.27,242,-52.00,-34.00,-956.00
2024-06-07 15:12:12.491046,-2,1,-3,2,0,0,87,89,131,120,72,160.25,242,-29.00,-30.00,-977.00
2024-06-07 15:12:12.525183,-2,0,-3,2,0,0,87,89,129,120,72,160.28,242,-63.00,-18.00,-1010.00
2024-06-07 15:12:12.683836,-2,-1,-3,1,0,0,87,89,130,120,72,160.25,242,-59.00,-28.00,-970.00
2024-06-07 15:12:12.729517,-1,-2,-3,1,0,0,87,89,129,120,72,160.28,242,-43.00,-19.00,-1005.00
2024-06-07 15:12:12.892007,-2,0,-3,1,-1,0,87,89,130,120,72,160.23,242,-9.00,-51.00,-987.00
2024-06-07 15:12:12.933120,0,5,-3,1,0,0,87,89,130,120,72,160.28,243,9.00,-61.00,-1026.00
2024-06-07 15:12:13.035997,1,3,-3,1,0,0,87,89,131,120,72,160.35,243,-15.00,-35.00,-937.00
2024-06-07 15:12:13.142959,0,2,-3,0,0,0,87,89,130,120,72,160.27,243,-5.00,-16.00,-987.00
2024-06-07 15:12:13.243305,-1,1,-3,0,0,0,87,89,132,120,71,160.32,243,-4.00,-24.00,-963.00
2024-06-07 15:12:13.341203,-1,0,-3,0,0,0,86,89,131,120,71,160.32,243,-13.00,-34.00,-922.00
2024-06-07 15:12:13.503306,-1,1,-3,0,0,0,86,89,131,120,71,160.26,243,-80.00,9.00,-1025.00
2024-06-07 15:12:13.545824,-1,0,-3,0,0,0,86,89,132,120,71,160.31,243,-18.00,-23.00,-965.00
2024-06-07 15:12:13.707848,-1,1,-3,0,0,0,86,89,133,120,71,160.28,243,-16.00,-12.00,-1075.00
2024-06-07 15:12:13.750739,-1,0,-3,0,0,0,86,89,134,120,71,160.29,243,-61.00,-4.00,-980.00
2024-06-07 15:12:13.800229,-1,0,-3,0,0,0,86,89,133,120,71,160.33,244,-40.00,7.00,-982.00
2024-06-07 15:12:13.902207,-2,0,-3,0,0,0,86,89,135,120,71,160.35,244,-2.00,-1.00,-969.00
2024-06-07 15:12:14.015041,-1,0,-3,0,0,0,86,89,134,120,71,160.29,244,-41.00,15.00,-987.00
2024-06-07 15:12:14.107156,-2,0,-3,0,0,0,86,89,133,120,71,160.40,244,-32.00,18.00,-962.00
2024-06-07 15:12:14.220435,-2,0,-3,0,0,0,86,89,133,120,71,160.30,244,-11.00,-16.00,-982.00
2024-06-07 15:12:14.313607,-1,0,-3,0,0,0,86,89,133,120,71,160.37,244,-28.00,-31.00,-1054.00
2024-06-07 15:12:14.417768,-2,1,-3,0,0,0,86,89,132,120,71,160.34,244,-34.00,-23.00,-987.00
2024-06-07 15:12:14.515030,-2,1,-3,0,0,0,86,89,131,120,71,160.32,244,-46.00,-26.00,-1018.00
2024-06-07 15:12:14.629304,-2,1,-3,0,0,0,86,89,130,120,71,160.31,244,-24.00,-9.00,-907.00
2024-06-07 15:12:14.719008,-2,1,-3,0,0,0,86,89,129,120,71,160.25,244,23.00,-57.00,-1147.00
2024-06-07 15:12:14.843508,-2,1,-3,0,0,0,86,89,129,120,71,160.21,245,-28.00,-7.00,-1008.00
2024-06-07 15:12:14.923543,-2,1,-3,0,0,0,86,89,128,120,71,160.20,245,-16.00,-27.00,-996.00
2024-06-07 15:12:15.041998,-2,1,-3,0,0,0,86,89,127,120,71,160.25,245,-9.00,-8.00,-1000.00
2024-06-07 15:12:15.126923,-2,1,-3,0,0,0,86,89,125,120,71,160.29,245,-29.00,-29.00,-1198.00
2024-06-07 15:12:15.247209,2,1,-3,0,0,0,86,89,123,120,71,160.19,245,-11.00,-1.00,-986.00
2024-06-07 15:12:15.331346,6,1,-3,-1,0,0,86,88,123,120,71,160.14,245,-69.00,-17.00,-1054.00
2024-06-07 15:12:15.448601,6,0,-3,-3,0,0,86,88,123,120,71,160.27,245,-11.00,-17.00,-1043.00
2024-06-07 15:12:15.538783,5,0,-3,-4,0,0,86,88,122,120,71,160.24,245,-30.00,6.00,-951.00
2024-06-07 15:12:15.640536,4,0,-3,-6,0,0,86,88,120,110,71,160.27,245,-21.00,19.00,-968.00
2024-06-07 15:12:15.742612,3,0,-3,-6,0,0,86,88,119,110,71,160.24,245,-11.00,-27.00,-1051.00
2024-06-07 15:12:15.844805,3,0,-3,-7,0,0,86,88,118,110,71,160.20,246,15.00,-12.00,-1018.00
2024-06-07 15:12:15.942843,2,0,-3,-7,0,0,86,88,119,110,71,160.26,246,15.00,-20.00,-1058.00
2024-06-07 15:12:16.068579,0,0,-3,-7,0,0,86,88,119,110,71,160.27,246,41.00,-50.00,-1036.00
2024-06-07 15:12:16.148990,-3,1,-3,-7,0,0,86,88,120,110,71,160.28,246,0.00,-7.00,-1000.00
2024-06-07 15:12:16.255690,-5,1,-3,-6,0,0,86,88,121,110,71,160.22,246,-15.00,-7.00,-1039.00
2024-06-07 15:12:16.351000,-6,1,-3,-5,0,0,86,89,124,110,71,160.19,246,32.00,-43.00,-1046.00
2024-06-07 15:12:16.576229,-4,1,-3,-4,0,0,86,89,124,120,71,160.24,246,-20.00,-3.00,-972.00
2024-06-07 15:12:16.576400,-3,1,-3,-3,0,0,86,89,125,120,71,160.30,246,0.00,-36.00,-1019.00
2024-06-07 15:12:16.656913,-2,1,-3,-3,0,-1,86,89,127,120,71,160.25,246,8.00,-18.00,-1066.00
2024-06-07 15:12:16.758840,-2,1,-3,-3,0,0,86,89,127,120,71,160.26,246,-10.00,-20.00,-970.00
2024-06-07 15:12:16.861216,-2,1,-3,-3,0,0,86,89,126,120,71,160.27,247,-30.00,3.00,-938.00
2024-06-07 15:12:16.984709,-2,1,-3,-3,0,0,86,89,126,120,71,160.27,247,0.00,-26.00,-1082.00
2024-06-07 15:12:17.064736,-3,1,-3,-3,0,0,86,89,126,120,71,160.24,247,22.00,-25.00,-956.00
2024-06-07 15:12:17.166796,-5,1,-3,-2,0,0,86,89,126,120,71,160.26,247,-43.00,-20.00,-974.00
2024-06-07 15:12:17.217828,-6,1,-3,-1,0,0,86,89,125,120,71,160.26,247,28.00,-55.00,-1003.00
2024-06-07 15:12:17.393953,-4,1,-3,0,0,0,86,89,123,120,71,160.22,247,-57.00,17.00,-1026.00
2024-06-07 15:12:17.421977,-3,1,-3,0,0,0,86,89,122,120,71,160.17,247,-20.00,-26.00,-927.00
2024-06-07 15:12:17.527478,-2,1,-3,0,0,0,86,89,120,120,71,160.24,247,-8.00,-3.00,-975.00
2024-06-07 15:12:17.628083,-2,1,-3,0,0,0,86,89,118,120,71,160.12,247,-53.00,2.00,-1031.00
2024-06-07 15:12:17.729256,-3,0,-3,0,0,0,86,89,118,120,71,160.15,247,-3.00,-21.00,-1033.00
2024-06-07 15:12:17.830421,-3,0,-3,0,0,0,86,89,118,110,71,160.14,248,-21.00,-26.00,-1024.00
2024-06-07 15:12:18.015706,-3,0,-3,0,0,0,86,89,117,110,71,160.20,248,0.00,-59.00,-1054.00
2024-06-07 15:12:18.034224,-3,0,-3,0,0,0,86,89,117,110,71,160.11,248,-49.00,4.00,-1033.00
2024-06-07 15:12:18.213860,-3,0,-3,0,0,0,86,89,117,110,71,160.10,248,-52.00,-29.00,-1088.00
2024-06-07 15:12:18.237828,-2,0,-3,0,0,0,86,89,119,110,70,160.12,248,-73.00,0.00,-1082.00
2024-06-07 15:12:18.418018,-2,0,-3,0,0,0,86,88,120,110,70,160.12,248,7.00,-17.00,-1002.00
2024-06-07 15:12:18.441678,-2,0,-3,0,0,0,86,88,121,110,70,160.14,248,-19.00,-12.00,-971.00
2024-06-07 15:12:18.625619,-2,0,-3,0,0,0,86,88,123,120,70,160.22,248,-51.00,-6.00,-1013.00
2024-06-07 15:12:18.645887,-2,0,-3,0,0,0,86,88,124,120,70,160.17,248,-63.00,8.00,-966.00
2024-06-07 15:12:18.829750,-2,0,-3,0,0,0,86,88,126,120,70,160.19,248,-22.00,-38.00,-955.00
2024-06-07 15:12:18.849798,-2,0,-3,0,0,0,86,88,127,120,70,160.23,249,7.00,-36.00,-1006.00
2024-06-07 15:12:19.044915,-2,0,-3,0,0,0,86,88,128,120,70,160.25,249,-63.00,6.00,-1023.00
2024-06-07 15:12:19.054502,-2,0,-3,0,0,0,86,88,129,120,70,160.26,249,-57.00,9.00,-967.00
2024-06-07 15:12:19.249366,-2,0,-3,0,0,0,86,88,133,120,70,160.28,249,-20.00,-29.00,-939.00
2024-06-07 15:12:19.257743,-2,0,-3,0,0,0,86,88,132,120,70,160.34,249,-21.00,-15.00,-988.00
2024-06-07 15:12:19.397929,-2,0,-3,0,0,0,86,89,133,120,70,160.26,249,5.00,10.00,-980.00
2024-06-07 15:12:19.461657,-2,0,-3,0,0,0,86,89,132,120,70,160.27,249,-36.00,20.00,-926.00
2024-06-07 15:12:19.647101,-1,0,-3,0,0,0,86,89,133,120,70,160.25,249,-30.00,29.00,-974.00
2024-06-07 15:12:19.665600,-1,-8,-3,0,0,0,86,89,135,120,70,160.25,249,-23.00,-19.00,-968.00
2024-06-07 15:12:19.771212,-2,-8,-3,0,-1,0,86,89,136,120,70,160.34,249,-17.00,29.00,-985.00
2024-06-07 15:12:19.869613,-2,-7,-3,0,-2,0,86,89,137,120,70,160.35,250,-23.00,39.00,-1023.00
2024-06-07 15:12:20.056329,-2,-4,-3,0,-3,0,86,89,134,120,70,160.32,250,-23.00,19.00,-984.00
2024-06-07 15:12:20.073673,-1,0,-3,0,-3,0,86,89,134,130,70,160.34,250,-35.00,27.00,-970.00
2024-06-07 15:12:20.261246,-2,0,-3,0,-2,0,86,89,136,130,70,160.35,250,-16.00,20.00,-942.00
2024-06-07 15:12:20.277648,-2,0,-3,0,-1,0,86,89,133,130,70,160.34,250,-68.00,32.00,-1015.00
2024-06-07 15:12:20.466003,-2,-1,-3,0,-1,0,85,88,133,130,70,160.31,250,-50.00,29.00,-930.00
2024-06-07 15:12:20.481681,-2,-2,-3,0,-1,0,85,88,133,120,70,160.25,250,-42.00,11.00,-993.00
2024-06-07 15:12:20.670836,-2,-2,-3,0,-1,0,85,88,132,120,70,160.28,250,-29.00,40.00,-971.00
2024-06-07 15:12:20.686621,-2,-1,-3,0,-2,0,85,88,133,120,70,160.34,250,0.00,13.00,-971.00
2024-06-07 15:12:20.787623,-2,-1,-3,0,-2,0,85,88,131,120,70,160.34,250,-39.00,22.00,-1049.00
2024-06-07 15:12:20.893563,-2,-1,-3,0,-2,0,85,88,131,120,70,160.31,251,-14.00,38.00,-936.00
2024-06-07 15:12:20.995241,-1,-1,-3,0,-2,0,85,88,132,120,70,160.29,251,-38.00,42.00,-972.00
2024-06-07 15:12:21.093581,-1,-1,-3,0,-2,0,85,88,132,120,70,160.23,251,-69.00,25.00,-1009.00
2024-06-07 15:12:21.145021,-1,-1,-3,0,-2,0,85,88,133,120,70,160.31,251,-42.00,38.00,-1050.00
2024-06-07 15:12:21.246582,-2,-1,-3,0,-2,0,85,88,132,120,70,160.33,251,-24.00,34.00,-966.00
2024-06-07 15:12:21.348866,-2,-1,-3,0,-2,0,85,88,133,120,70,160.31,251,-41.00,46.00,-1034.00
2024-06-07 15:12:21.450648,-2,-1,-3,0,-2,0,85,88,135,120,70,160.32,251,-74.00,53.00,-1035.00
2024-06-07 15:12:21.592319,-2,-1,-3,0,-2,0,85,88,135,120,70,160.37,251,-5.00,37.00,-981.00
2024-06-07 15:12:21.655375,-1,-1,-3,0,-2,0,85,88,135,120,70,160.40,251,-59.00,40.00,-984.00
2024-06-07 15:12:21.797097,-2,-1,-3,0,-1,0,85,88,136,120,70,160.39,251,-14.00,12.00,-990.00
2024-06-07 15:12:21.861482,-1,3,-3,0,-1,0,85,88,137,120,70,160.39,252,-54.00,54.00,-1121.00
2024-06-07 15:12:21.960557,-1,2,-3,0,0,0,85,88,136,130,70,160.45,252,-72.00,36.00,-1035.00
2024-06-07 15:12:22.104972,-1,0,-3,0,0,0,85,88,136,130,70,160.39,252,-62.00,32.00,-998.00
2024-06-07 15:12:22.164778,-2,0,-3,0,0,0,85,88,136,130,69,160.37,252,-14.00,15.00,-893.00
2024-06-07 15:12:22.309973,-2,-1,-3,0,0,0,85,88,135,130,69,160.37,252,-49.00,24.00,-987.00
2024-06-07 15:12:22.368711,-2,-1,-3,0,0,0,85,88,135,120,69,160.34,252,-22.00,10.00,-1011.00
2024-06-07 15:12:22.514994,-2,0,-3,0,0,0,85,88,133,120,69,160.35,252,-44.00,26.00,-1005.00
2024-06-07 15:12:22.572761,-2,0,-3,0,0,0,85,88,133,120,69,160.37,252,-34.00,20.00,-907.00
2024-06-07 15:12:22.674968,-2,0,-3,0,0,0,85,88,133,120,69,160.38,252,-33.00,19.00,-1051.00
2024-06-07 15:12:22.778529,-2,0,-3,0,0,0,85,88,132,120,69,160.33,252,-42.00,17.00,-1011.00
2024-06-07 15:12:22.879089,-1,0,-3,0,0,0,85,88,131,120,69,160.41,253,-37.00,17.00,-1044.00
2024-06-07 15:12:23.026217,-1,0,-3,0,0,0,85,88,132,120,69,160.30,253,-40.00,39.00,-1002.00
2024-06-07 15:12:23.082737,-1,-1,-3,0,0,0,85,88,131,120,69,160.28,253,-27.00,20.00,-1069.00
2024-06-07 15:12:23.230902,-1,-1,-3,0,0,0,85,88,129,120,69,160.34,253,20.00,0.00,-978.00
2024-06-07 15:12:23.289294,-2,-1,-3,0,0,0,85,88,130,120,69,160.25,253,16.00,-14.00,-982.00
2024-06-07 15:12:23.389703,-1,-1,-3,0,0,0,86,88,129,120,69,160.30,253,-34.00,25.00,-1017.00
2024-06-07 15:12:23.493384,-1,-1,-3,0,0,0,86,88,129,120,69,160.36,253,-43.00,20.00,-1036.00
2024-06-07 15:12:23.593885,-1,-1,-3,0,0,0,86,88,131,120,69,160.27,253,-72.00,34.00,-1123.00
2024-06-07 15:12:23.698130,-1,-1,-3,0,0,0,86,88,131,120,69,160.26,253,-63.00,23.00,-990.00
2024-06-07 15:12:23.797613,-1,-1,-3,0,0,0,86,88,132,120,69,160.28,253,-45.00,11.00,-1215.00
2024-06-07 15:12:23.947738,-1,-1,-3,0,0,0,86,88,132,120,69,160.23,254,-36.00,15.00,-941.00
2024-06-07 15:12:24.002098,-2,-1,-3,0,0,0,86,88,132,120,69,160.32,254,-11.00,14.00,-933.00
2024-06-07 15:12:24.103485,-2,-1,-3,0,0,0,86,88,133,120,69,160.31,254,-60.00,38.00,-998.00
2024-06-07 15:12:24.207193,-1,2,-3,0,0,0,86,88,134,120,69,160.36,254,-78.00,36.00,-1026.00
2024-06-07 15:12:24.307500,-1,8,-3,0,0,0,86,88,133,120,69,160.28,254,-16.00,11.00,-935.00
2024-06-07 15:12:24.459508,-1,6,-3,0,2,0,85,88,133,120,69,160.31,254,3.00,-23.00,-1001.00
2024-06-07 15:12:24.511801,-1,4,-3,0,3,0,85,88,133,120,69,160.31,254,-12.00,5.00,-978.00
2024-06-07 15:12:24.664889,-1,1,-3,0,4,0,85,88,133,120,69,160.29,254,22.00,-19.00,-956.00
2024-06-07 15:12:24.717186,-1,-1,-3,0,4,0,85,88,132,120,69,160.27,254,-45.00,15.00,-1005.00
2024-06-07 15:12:24.817395,-1,-2,-3,0,3,0,85,88,134,120,69,160.27,254,-21.00,10.00,-980.00
2024-06-07 15:12:24.868735,-1,-1,-3,0,3,0,85,88,134,120,69,160.34,255,-60.00,-22.00,-1050.00
2024-06-07 15:12:24.971448,-1,0,-3,0,2,0,85,88,137,120,69,160.29,255,-36.00,0.00,-930.00
2024-06-07 15:12:25.074327,-1,0,-3,0,2,0,85,88,135,120,69,160.28,255,-48.00,8.00,-996.00
2024-06-07 15:12:25.176561,-2,0,-3,0,2,0,85,88,137,120,69,160.31,255,-50.00,2.00,-1040.00
2024-06-07 15:12:25.276367,-2,0,-3,0,2,0,85,88,138,120,69,160.33,255,-38.00,21.00,-985.00
2024-06-07 15:12:25.384172,-2,0,-3,0,2,0,84,87,140,120,69,160.37,255,-83.00,39.00,-958.00
2024-06-07 15:12:25.481150,-2,-1,-3,0,2,0,84,87,140,120,69,160.35,255,-53.00,25.00,-1048.00
2024-06-07 15:12:25.595762,-2,-1,-3,0,2,0,84,87,143,120,69,160.38,255,-20.00,0.00,-952.00
2024-06-07 15:12:25.684348,-2,-2,-3,0,2,0,84,87,144,130,69,160.38,255,-30.00,10.00,-953.00
2024-06-07 15:12:25.786350,-2,-3,-3,0,2,0,84,87,144,130,69,160.36,255,-54.00,37.00,-995.00
2024-06-07 15:12:25.888354,-2,-5,-3,0,2,0,84,87,145,130,69,160.39,256,-41.00,16.00,-1024.00
2024-06-07 15:12:25.996352,-2,-5,-3,0,1,0,84,87,144,130,69,160.45,256,1.00,0.00,-935.00
2024-06-07 15:12:26.093398,-2,-4,-3,0,1,0,84,87,145,130,69,160.46,256,-44.00,38.00,-1016.00
2024-06-07 15:12:26.200595,-1,-3,-3,0,0,0,84,87,143,130,69,160.43,256,-18.00,1.00,-961.00
2024-06-07 15:12:26.297430,-2,-2,-3,0,0,0,84,87,143,130,69,160.45,256,-60.00,43.00,-1029.00
2024-06-07 15:12:26.405352,-2,-2,-3,0,0,0,85,88,142,130,69,160.47,256,-12.00,14.00,-1023.00
2024-06-07 15:12:26.501496,-2,-2,-3,0,0,0,85,88,140,130,69,160.38,256,-41.00,44.00,-1015.00
2024-06-07 15:12:26.610009,-2,-2,-3,0,0,1,85,88,140,130,69,160.35,256,-28.00,40.00,-1011.00
2024-06-07 15:12:26.705389,-2,-2,-3,0,0,1,85,88,139,130,69,160.40,256,1.00,3.00,-985.00
2024-06-07 15:12:26.814842,-1,-2,-3,0,0,1,85,88,138,130,69,160.38,256,-47.00,14.00,-1109.00
2024-06-07 15:12:26.909501,-1,-2,-3,0,0,0,85,88,137,120,69,160.33,257,-14.00,42.00,-1026.00
2024-06-07 15:12:27.019498,-1,-2,-3,0,0,0,85,88,137,120,69,160.32,257,-38.00,48.00,-974.00
2024-06-07 15:12:27.113378,-2,-2,-3,0,0,0,85,88,136,120,69,160.31,257,-39.00,51.00,-1033.00
2024-06-07 15:12:27.225669,-1,-2,-3,0,0,0,85,88,135,120,69,160.33,257,-15.00,40.00,-992.00
2024-06-07 15:12:27.317632,-1,-2,-3,0,0,0,85,88,133,120,69,160.26,257,-51.00,60.00,-986.00
2024-06-07 15:12:27.429166,0,-2,-3,0,0,0,85,87,133,120,69,160.35,257,-62.00,53.00,-992.00
2024-06-07 15:12:27.521319,-1,-2,-3,0,0,0,85,87,134,120,69,160.32,257,-81.00,64.00,-987.00
2024-06-07 15:12:27.633934,-2,-2,-3,0,0,0,85,87,133,120,69,160.40,257,-49.00,39.00,-1094.00
2024-06-07 15:12:27.725857,-3,-2,-3,0,0,0,85,87,133,120,69,160.38,257,-7.00,21.00,-1026.00
2024-06-07 15:12:27.827439,-2,-1,-3,0,0,0,85,87,131,120,69,160.37,258,-61.00,65.00,-956.00
2024-06-07 15:12:27.941235,-2,-1,-3,0,0,0,85,87,131,120,69,160.30,258,-21.00,34.00,-940.00
2024-06-07 15:12:28.031317,-1,-1,-3,0,0,0,85,87,131,120,69,160.39,258,-53.00,38.00,-1061.00
2024-06-07 15:12:28.133209,-1,-2,-3,0,0,0,85,87,130,120,69,160.30,258,-23.00,16.00,-946.00
2024-06-07 15:12:28.248569,-1,-1,1,0,0,0,85,87,130,120,68,160.22,258,-40.00,20.00,-1061.00
2024-06-07 15:12:28.337168,-1,-1,7,0,0,0,85,87,128,120,68,160.26,258,-36.00,36.00,-1041.00
2024-06-07 15:12:28.440213,-1,-1,12,0,0,0,85,88,127,120,68,160.21,258,-32.00,44.00,-1055.00
2024-06-07 15:12:28.555825,0,-1,18,0,0,0,85,88,127,120,68,160.29,258,-37.00,58.00,-1037.00
2024-06-07 15:12:28.643271,-1,-1,25,0,0,0,85,88,126,120,68,160.28,258,-27.00,65.00,-1022.00
2024-06-07 15:12:28.769318,-1,-2,31,0,0,0,85,88,128,120,68,160.31,258,-20.00,73.00,-1018.00
2024-06-07 15:12:28.847661,-1,-2,37,0,0,0,85,88,126,120,68,160.33,259,-12.00,50.00,-991.00
2024-06-07 15:12:28.949178,0,-2,43,0,0,0,85,88,126,120,68,160.31,259,-5.00,33.00,-1003.00
2024-06-07 15:12:29.071269,0,-2,49,0,0,0,85,88,126,120,68,160.27,259,19.00,42.00,-1031.00
2024-06-07 15:12:29.103164,0,-2,55,0,0,0,85,88,126,120,68,160.24,259,29.00,44.00,-952.00
2024-06-07 15:12:29.272217,0,-1,61,0,0,0,85,88,126,120,68,160.27,259,22.00,37.00,-927.00
2024-06-07 15:12:29.307115,0,-1,67,0,0,0,85,88,125,120,68,160.22,259,43.00,44.00,-938.00
2024-06-07 15:12:29.409209,1,-1,74,0,0,0,85,88,126,120,68,160.15,259,56.00,12.00,-979.00
2024-06-07 15:12:29.511570,1,-1,80,0,0,0,85,88,125,120,68,160.20,259,24.00,27.00,-1072.00
2024-06-07 15:12:29.681849,1,-1,86,0,0,0,85,88,126,120,68,160.19,259,58.00,17.00,-934.00
2024-06-07 15:12:29.715194,1,-1,92,0,0,0,85,88,126,120,68,160.19,259,38.00,35.00,-991.00
2024-06-07 15:12:29.886600,1,-1,99,0,0,0,85,88,125,120,68,160.15,260,54.00,-2.00,-1007.00
2024-06-07 15:12:29.919125,2,0,105,0,0,0,85,88,124,120,68,160.13,260,55.00,20.00,-962.00
2024-06-07 15:12:30.091974,2,0,111,0,0,0,85,88,127,120,68,160.17,260,57.00,18.00,-985.00
2024-06-07 15:12:30.123131,2,0,117,0,0,0,85,88,127,120,68,160.18,260,24.00,22.00,-1015.00
2024-06-07 15:12:30.296558,3,0,123,0,0,0,85,88,128,120,68,160.20,260,38.00,17.00,-994.00
2024-06-07 15:12:30.327095,2,0,129,0,0,0,85,88,127,120,68,160.21,260,47.00,-17.00,-1038.00
2024-06-07 15:12:30.501015,3,1,134,0,0,0,84,87,127,120,68,160.21,260,46.00,-4.00,-1223.00
2024-06-07 15:12:30.531534,3,1,140,0,0,0,84,87,126,120,68,160.23,260,62.00,-9.00,-965.00
2024-06-07 15:12:30.633765,3,1,146,0,0,0,84,87,127,120,68,160.19,260,54.00,-16.00,-1007.00
2024-06-07 15:12:30.813154,3,1,152,0,0,0,84,87,127,120,68,160.18,260,32.00,-31.00,-969.00
2024-06-07 15:12:30.837039,2,2,158,0,0,0,84,87,127,120,68,160.21,261,29.00,-25.00,-948.00
2024-06-07 15:12:31.012978,2,2,164,0,0,0,84,87,127,120,68,160.15,261,46.00,-21.00,-1015.00
2024-06-07 15:12:31.041041,2,2,170,0,0,0,84,87,126,120,68,160.12,261,16.00,-62.00,-953.00
2024-06-07 15:12:31.143148,2,2,176,0,0,0,84,87,126,120,68,160.23,261,40.00,-33.00,-987.00
2024-06-07 15:12:31.321434,2,3,-177,0,0,0,84,87,125,120,68,160.14,261,41.00,-54.00,-1029.00
2024-06-07 15:12:31.347112,1,3,-171,0,0,0,84,87,125,120,68,160.16,261,42.00,-65.00,-969.00
2024-06-07 15:12:31.525373,2,4,-166,0,0,0,84,87,126,120,68,160.17,261,10.00,-31.00,-991.00
2024-06-07 15:12:31.553367,1,4,-160,0,0,0,84,87,124,120,68,160.22,261,-10.00,-52.00,-1037.00
2024-06-07 15:12:31.729812,1,4,-154,0,0,0,84,87,125,120,68,160.18,261,6.00,-83.00,-1035.00
2024-06-07 15:12:31.756088,0,4,-148,0,0,0,84,87,124,120,68,160.23,261,64.00,-64.00,-1012.00
2024-06-07 15:12:31.858162,0,4,-142,0,0,0,84,87,124,120,68,160.19,262,33.00,-89.00,-978.00
2024-06-07 15:12:32.042447,0,4,-136,0,0,0,84,87,125,120,68,160.20,262,-9.00,-65.00,-961.00
2024-06-07 15:12:32.062422,0,4,-130,0,0,0,84,87,124,120,68,160.17,262,19.00,-90.00,-1032.00
2024-06-07 15:12:32.241928,-1,4,-124,0,0,0,84,87,123,120,68,160.20,262,-56.00,-56.00,-995.00
2024-06-07 15:12:32.267069,-2,3,-118,0,0,0,84,87,124,120,68,160.14,262,-34.00,-59.00,-1036.00
2024-06-07 15:12:32.369065,-2,3,-112,0,0,0,84,87,124,120,68,160.00,262,-1.00,-84.00,-995.00
2024-06-07 15:12:32.549129,-2,3,-106,0,0,0,85,88,124,120,68,160.13,262,-29.00,-70.00,-965.00
2024-06-07 15:12:32.574244,-2,2,-99,0,0,0,85,88,123,120,68,160.03,262,-62.00,-50.00,-1038.00
2024-06-07 15:12:32.753920,-2,2,-93,0,0,0,85,88,124,120,68,160.11,262,-78.00,-36.00,-1045.00
2024-06-07 15:12:32.777062,-2,1,-87,0,0,0,85,88,124,120,68,160.05,262,-44.00,-33.00,-1155.00
2024-06-07 15:12:32.828043,-3,1,-82,0,0,0,85,88,125,120,68,160.09,263,-64.00,-23.00,-1016.00
2024-06-07 15:12:32.958637,-3,1,-76,0,0,0,85,88,126,120,68,160.06,263,-39.00,-40.00,-961.00
2024-06-07 15:12:33.032077,-3,1,-70,0,0,0,85,88,127,120,68,160.07,263,-67.00,-33.00,-1139.00
2024-06-07 15:12:33.137239,-3,1,-64,0,0,0,85,88,126,120,68,159.96,263,-15.00,-35.00,-915.00
2024-06-07 15:12:33.236653,-3,1,-57,0,0,0,85,88,127,120,68,160.16,263,-47.00,-26.00,-983.00
2024-06-07 15:12:33.338064,-4,1,-51,0,0,0,85,88,127,120,68,160.00,263,-48.00,-38.00,-934.00
2024-06-07 15:12:33.491595,-4,0,-45,0,0,0,85,88,129,120,68,159.99,263,-65.00,-12.00,-948.00
2024-06-07 15:12:33.543035,-4,0,-39,0,0,0,85,88,128,120,68,160.00,263,-41.00,-32.00,-1005.00
2024-06-07 15:12:33.675877,-3,0,-33,0,0,0,85,88,128,120,68,160.06,263,-89.00,24.00,-969.00
2024-06-07 15:12:33.747315,-3,0,-27,0,0,0,85,88,127,120,68,160.08,263,-47.00,-1.00,-1011.00
2024-06-07 15:12:33.880388,-4,0,-22,0,0,0,85,88,127,120,68,160.16,264,-56.00,38.00,-1027.00
2024-06-07 15:12:33.952380,-3,-1,-18,0,0,0,85,88,128,120,68,160.06,264,-89.00,0.00,-1061.00
2024-06-07 15:12:34.085065,-3,0,-15,0,0,0,85,88,129,120,68,160.12,264,-114.00,-23.00,-1017.00
2024-06-07 15:12:34.155058,-4,0,-12,0,0,0,85,88,130,120,68,160.01,264,-69.00,-38.00,-1025.00
2024-06-07 15:12:34.289821,-4,1,-10,0,-1,0,85,88,132,120,68,160.11,264,-27.00,-9.00,-922.00
2024-06-07 15:12:34.359541,-4,1,-9,0,0,0,85,88,132,120,68,160.05,264,-70.00,-11.00,-1046.00
2024-06-07 15:12:34.494667,-3,1,-7,0,0,0,84,88,135,120,68,160.13,264,-65.00,13.00,-1005.00
2024-06-07 15:12:34.562939,-3,0,-6,0,0,0,84,88,134,120,68,160.08,264,-47.00,-19.00,-967.00
2024-06-07 15:12:34.699470,-2,0,-6,0,0,0,84,88,135,120,68,160.26,264,-49.00,8.00,-983.00
2024-06-07 15:12:34.767145,-3,0,-5,0,0,0,84,88,136,120,68,160.16,264,-124.00,49.00,-1017.00
2024-06-07 15:12:34.869033,-3,0,-5,0,0,0,84,88,137,130,68,160.21,265,-42.00,-10.00,-954.00
2024-06-07 15:12:35.006928,-3,0,-5,0,0,0,84,88,138,130,68,160.10,265,-78.00,8.00,-969.00
2024-06-07 15:12:35.073122,-3,0,-5,0,0,0,84,88,137,130,68,160.23,265,-54.00,2.00,-983.00
2024-06-07 15:12:35.175138,-4,-1,-5,0,0,0,84,88,138,130,68,160.13,265,-67.00,-22.00,-1007.00
2024-06-07 15:12:35.315274,-3,0,-5,0,0,0,84,88,137,130,68,160.22,265,-62.00,-24.00,-961.00
2024-06-07 15:12:35.379016,-3,0,-5,0,0,0,84,88,139,130,68,160.16,265,-27.00,2.00,-969.00
2024-06-07 15:12:35.481932,-3,1,-5,0,0,0,85,88,137,130,68,160.13,265,-51.00,9.00,-1004.00
2024-06-07 15:12:35.623422,-2,0,-5,0,0,0,85,88,137,130,68,160.15,265,-52.00,-6.00,-1034.00
2024-06-07 15:12:35.686098,-2,0,-5,0,0,0,85,88,135,130,68,160.16,265,-61.00,-2.00,-957.00
2024-06-07 15:12:35.826008,-3,0,-5,0,0,0,85,88,134,130,68,160.19,265,-53.00,-27.00,-925.00
2024-06-07 15:12:35.890060,-3,0,-5,0,0,0,85,88,134,130,68,160.12,266,-104.00,-15.00,-1053.00
2024-06-07 15:12:36.032370,-4,0,-5,0,0,0,85,88,134,120,68,160.14,266,-69.00,-21.00,-960.00
2024-06-07 15:12:36.094020,-4,0,-5,0,0,0,85,88,132,120,68,160.12,266,-74.00,-37.00,-971.00
2024-06-07 15:12:36.235948,-5,1,-5,0,0,0,85,88,130,120,67,160.03,266,-98.00,-3.00,-1048.00
2024-06-07 15:12:36.298651,-5,1,-5,0,0,0,85,88,131,120,67,160.02,266,-36.00,-4.00,-994.00
2024-06-07 15:12:36.348917,-4,1,-5,0,0,0,85,88,130,120,67,160.00,266,-53.00,-30.00,-985.00
2024-06-07 15:12:36.542953,-4,0,-5,0,0,0,85,88,128,120,67,159.97,266,-68.00,-2.00,-1005.00
2024-06-07 15:12:36.603953,-3,2,-4,0,0,0,85,88,127,120,67,159.99,266,-123.00,-10.00,-1047.00
2024-06-07 15:12:36.719314,-4,1,-5,0,0,0,85,88,125,120,67,159.95,266,-89.00,-13.00,-1032.00
2024-06-07 15:12:36.807900,-5,0,-5,0,0,0,85,88,124,120,67,160.03,266,-86.00,-2.00,-1014.00
2024-06-07 15:12:36.952156,-6,0,-5,0,0,0,85,88,124,120,67,159.84,267,-92.00,-5.00,-1005.00
2024-06-07 15:12:36.961976,-6,0,-12,0,0,0,85,88,123,120,67,160.09,267,-81.00,-36.00,-1015.00
2024-06-07 15:12:37.066076,-6,0,-18,0,0,0,85,88,122,120,67,160.04,267,-67.00,-59.00,-1050.00
2024-06-07 15:12:37.164948,-5,2,-25,0,0,0,85,88,123,120,67,159.93,267,0.00,-49.00,-986.00
2024-06-07 15:12:37.362004,-3,3,-32,0,0,0,85,88,122,120,67,160.27,267,-31.00,-66.00,-1027.00
2024-06-07 15:12:37.368868,-1,3,-38,0,0,0,85,88,121,120,67,160.36,267,-26.00,-64.00,-959.00
2024-06-07 15:12:37.567015,0,3,-44,0,0,0,85,88,122,120,67,160.37,267,-33.00,-98.00,-1018.00
2024-06-07 15:12:37.572810,0,5,-50,0,0,0,85,88,125,120,67,160.31,267,-116.00,-71.00,-954.00
2024-06-07 15:12:37.771426,-1,6,-55,0,0,0,85,88,124,120,67,160.20,267,-60.00,-89.00,-937.00
2024-06-07 15:12:37.776780,-2,5,-61,0,0,0,85,88,124,120,67,160.23,267,-91.00,-62.00,-1000.00
2024-06-07 15:12:37.878790,-3,4,-67,0,1,0,85,88,123,120,67,160.24,268,-89.00,-112.00,-1013.00
2024-06-07 15:12:38.078627,-4,5,-72,0,1,0,85,88,124,120,67,160.26,268,-87.00,-98.00,-935.00
2024-06-07 15:12:38.086171,-3,5,-78,0,1,0,85,88,124,120,67,160.40,268,-28.00,-85.00,-1017.00
2024-06-07 15:12:38.186476,-3,5,-84,0,0,0,85,88,125,120,67,160.55,268,34.00,-130.00,-1049.00
2024-06-07 15:12:38.385843,-2,6,-91,0,0,0,85,88,125,120,67,160.40,268,19.00,-121.00,-1013.00
2024-06-07 15:12:38.389818,0,7,-96,0,0,0,85,88,125,120,67,160.46,268,22.00,-103.00,-958.00
2024-06-07 15:12:38.590663,3,6,-103,0,0,0,85,87,126,120,67,160.43,268,24.00,-83.00,-994.00
2024-06-07 15:12:38.593863,3,5,-109,0,0,0,85,87,125,120,67,160.35,268,12.00,-64.00,-1020.00
2024-06-07 15:12:38.696154,3,4,-116,0,0,0,85,87,126,120,67,160.10,268,47.00,-78.00,-1000.00
2024-06-07 15:12:38.797791,2,2,-122,1,0,0,85,87,126,120,67,160.23,268,-3.00,-77.00,-1056.00
2024-06-07 15:12:38.899741,2,2,-127,1,0,0,85,87,126,120,67,160.22,269,-17.00,-55.00,-1023.00
2024-06-07 15:12:39.102643,0,2,-133,0,0,0,85,87,126,120,67,160.30,269,8.00,-69.00,-934.00
2024-06-07 15:12:39.103983,0,3,-138,0,0,0,85,87,127,120,67,160.31,269,33.00,-71.00,-1083.00
2024-06-07 15:12:39.206217,1,3,-144,0,0,0,85,87,129,120,67,160.43,269,34.00,-72.00,-1060.00
2024-06-07 15:12:39.307614,2,3,-150,0,0,0,85,87,128,120,67,160.33,269,34.00,-41.00,-958.00
2024-06-07 15:12:39.409776,3,4,-156,0,0,0,85,87,129,120,67,160.39,269,106.00,-55.00,-931.00
2024-06-07 15:12:39.512372,4,2,-162,0,0,0,85,87,130,120,67,160.27,269,47.00,1.00,-962.00
2024-06-07 15:12:39.614538,5,1,-168,0,0,0,85,87,128,120,67,160.35,269,102.00,-27.00,-958.00
2024-06-07 15:12:39.716978,5,1,-174,0,0,0,85,87,127,120,67,160.09,269,106.00,-35.00,-894.00
2024-06-07 15:12:39.819452,5,0,179,0,0,0,85,87,126,120,67,160.22,269,108.00,-16.00,-1022.00
2024-06-07 15:12:39.919726,5,0,173,0,0,0,85,87,126,120,67,160.22,270,47.00,5.00,-985.00
2024-06-07 15:12:40.021768,4,0,167,0,0,0,85,87,125,120,67,160.17,270,74.00,28.00,-917.00
2024-06-07 15:12:40.126595,4,0,161,0,0,0,85,87,124,120,67,160.19,270,122.00,-5.00,-1014.00
2024-06-07 15:12:40.226461,5,-1,155,0,0,0,85,87,124,120,67,160.29,270,97.00,34.00,-1027.00
2024-06-07 15:12:40.276702,5,-2,149,0,0,0,85,87,124,120,67,160.29,270,147.00,13.00,-969.00
2024-06-07 15:12:40.434982,6,-3,144,0,0,0,85,87,124,120,67,160.31,270,107.00,33.00,-1000.00
2024-06-07 15:12:40.531709,6,-3,137,0,0,0,85,88,123,120,67,160.20,270,111.00,59.00,-933.00
2024-06-07 15:12:40.638606,6,-3,131,0,0,0,85,88,124,120,67,160.27,270,130.00,59.00,-950.00
2024-06-07 15:12:40.735715,5,-4,125,0,0,0,85,88,124,120,67,160.25,270,90.00,63.00,-1072.00
2024-06-07 15:12:40.786669,3,-6,120,0,0,0,85,88,125,120,67,160.23,270,99.00,57.00,-966.00
2024-06-07 15:12:40.945820,3,-6,114,0,0,0,85,88,126,120,67,160.15,271,103.00,65.00,-1005.00
2024-06-07 15:12:40.991183,4,-6,109,0,0,0,85,88,126,120,67,160.33,271,90.00,78.00,-940.00
2024-06-07 15:12:41.092944,3,-5,103,0,0,0,85,88,126,120,67,160.18,271,2.00,75.00,-1026.00
2024-06-07 15:12:41.253016,2,-5,97,0,0,0,85,88,128,120,67,160.19,271,-35.00,97.00,-1012.00
2024-06-07 15:12:41.296652,0,-5,91,0,0,0,85,88,129,120,67,160.30,271,-22.00,118.00,-931.00
2024-06-07 15:12:41.457750,-1,-5,85,0,0,0,85,88,130,120,67,160.30,271,28.00,70.00,-955.00
2024-06-07 15:12:41.500853,-3,-6,80,0,0,0,85,88,131,120,67,160.24,271,-39.00,87.00,-972.00
2024-06-07 15:12:41.662602,-2,-6,74,0,0,0,85,88,131,120,67,160.23,271,-20.00,67.00,-1061.00
2024-06-07 15:12:41.704596,-3,-5,68,0,0,0,85,88,130,120,67,160.25,271,-16.00,46.00,-937.00
2024-06-07 15:12:41.867519,-2,-4,62,0,0,0,85,88,129,120,67,160.17,271,-46.00,5.00,-1100.00
2024-06-07 15:12:41.908577,-2,-4,56,1,0,0,85,88,128,120,67,160.11,272,-69.00,32.00,-1007.00
2024-06-07 15:12:42.072069,-3,-2,50,1,0,0,85,88,127,120,67,159.96,272,-51.00,21.00,-1010.00
2024-06-07 15:12:42.112602,-3,-1,44,1,0,0,85,88,126,120,67,160.06,272,-102.00,13.00,-1106.00
2024-06-07 15:12:42.280881,-3,0,38,1,0,0,85,88,126,120,67,160.09,272,-68.00,32.00,-1120.00
2024-06-07 15:12:42.316475,-3,0,32,0,0,0,85,88,127,120,67,160.00,272,-96.00,32.00,-948.00
2024-06-07 15:12:42.481656,-4,0,25,0,0,0,85,88,125,120,67,159.94,272,-134.00,-10.00,-1044.00
2024-06-07 15:12:42.520469,-6,0,14,0,0,0,86,88,126,120,67,159.87,272,-73.00,-23.00,-1019.00
2024-06-07 15:12:42.686822,-6,0,9,0,0,0,86,88,126,120,67,159.91,272,-92.00,-38.00,-970.00
2024-06-07 15:12:42.724448,-7,1,6,0,0,0,86,88,126,120,67,159.83,272,-78.00,-57.00,-959.00
2024-06-07 15:12:42.891271,-6,2,3,0,0,0,86,88,126,120,67,159.82,273,-119.00,-22.00,-1040.00
2024-06-07 15:12:42.928961,-6,2,1,0,0,0,86,88,126,120,67,159.96,273,-97.00,-31.00,-928.00
2024-06-07 15:12:43.096184,-6,1,0,0,0,0,86,88,126,120,67,159.86,273,-117.00,-24.00,-1067.00
2024-06-07 15:12:43.132662,-5,1,0,0,0,0,86,88,127,120,67,159.81,273,-102.00,-16.00,-1039.00
2024-06-07 15:12:43.234845,-4,2,-1,0,0,0,86,88,126,120,66,159.72,273,-85.00,-65.00,-955.00
2024-06-07 15:12:43.403221,-5,1,-1,0,0,0,86,88,127,120,66,159.89,273,-84.00,-57.00,-986.00
2024-06-07 15:12:43.438998,-6,1,-1,0,0,0,86,88,126,120,66,159.82,273,-139.00,54.00,-1024.00
2024-06-07 15:12:43.540478,-6,0,-2,0,1,0,85,87,126,120,66,159.85,273,-88.00,-90.00,-1030.00
2024-06-07 15:12:43.710439,-6,0,-3,0,1,0,85,87,126,120,66,159.79,273,-121.00,-42.00,-1026.00
2024-06-07 15:12:43.744716,-6,0,-3,0,1,0,85,87,128,120,66,159.66,273,-105.00,11.00,-1061.00
2024-06-07 15:12:43.915394,-8,-1,-3,0,0,0,85,87,128,120,66,159.85,274,-143.00,-11.00,-1006.00
2024-06-07 15:12:43.948564,-7,0,-3,0,0,0,85,87,129,120,66,159.77,274,-111.00,-49.00,-966.00
2024-06-07 15:12:44.120120,-7,0,-4,0,0,0,85,87,128,120,66,160.03,274,-124.00,-66.00,-1017.00
2024-06-07 15:12:44.152419,-6,1,-4,0,0,0,85,87,130,120,66,159.85,274,-123.00,-38.00,-965.00
2024-06-07 15:12:44.325005,-5,2,-4,0,0,0,85,87,129,120,66,159.55,274,-75.00,-38.00,-1062.00
2024-06-07 15:12:44.358009,-6,1,-4,0,0,0,85,87,130,120,66,159.82,274,-88.00,-13.00,-943.00
2024-06-07 15:12:44.407418,-6,0,-4,0,0,0,85,87,130,120,66,159.75,274,-105.00,-1.00,-905.00
2024-06-07 15:12:44.560895,-7,-1,-3,0,0,0,85,88,130,120,66,159.78,274,-110.00,-32.00,-946.00
2024-06-07 15:12:44.662434,-7,-1,-3,0,0,0,85,88,131,120,66,159.73,274,-114.00,-28.00,-1001.00
2024-06-07 15:12:44.715348,-7,-1,-3,0,0,0,85,88,129,120,66,159.91,274,-97.00,-31.00,-963.00
2024-06-07 15:12:44.815524,-7,0,-3,0,0,0,85,88,129,120,66,159.84,275,-108.00,-83.00,-1019.00
2024-06-07 15:12:44.917380,-6,1,-3,0,0,0,85,88,129,120,66,159.94,275,-134.00,-46.00,-1022.00
2024-06-07 15:12:45.019640,-7,2,-3,0,0,0,85,88,128,120,66,159.87,275,-62.00,-128.00,-944.00
2024-06-07 15:12:45.144295,-7,1,-3,0,0,0,85,88,127,120,66,159.86,275,-47.00,-124.00,-982.00
2024-06-07 15:12:45.223441,-7,1,-3,0,0,0,85,88,127,120,66,159.86,275,-83.00,-131.00,-1011.00
2024-06-07 15:12:45.348978,-7,1,-3,0,0,0,85,88,127,120,66,159.82,275,-9.00,-125.00,-992.00
2024-06-07 15:12:45.427301,-6,1,-3,0,0,0,85,88,126,120,66,159.81,275,-191.00,61.00,-1016.00
2024-06-07 15:12:45.529516,-5,1,-3,0,0,0,85,88,125,120,66,159.82,275,-96.00,44.00,-1010.00
2024-06-07 15:12:45.656073,-5,1,-3,0,0,0,85,88,126,120,66,159.89,275,-71.00,-44.00,-1037.00
2024-06-07 15:12:45.733286,-4,1,-3,0,0,0,85,88,126,120,66,159.75,275,-63.00,-88.00,-984.00
2024-06-07 15:12:45.870785,-3,0,-3,0,0,0,85,88,126,120,66,159.81,276,-113.00,11.00,-985.00
2024-06-07 15:12:45.937284,0,-3,-1,0,0,-5,85,88,132,120,66,159.88,276,-191.00,12.00,-1884.00
2024-06-07 15:12:46.065627,2,-20,2,-1,0,-11,85,88,157,130,66,160.14,276,-116.00,322.00,-1483.00
2024-06-07 15:12:46.141573,12,-117,-7,-3,-7,-10,85,88,6553,140,66,160.20,276,3.00,495.00,-955.00
2024-06-07 15:12:46.243273,-16,110,-9,-4,-9,5,85,88,6553,140,66,160.12,276,187.00,854.00,-1033.00
2024-06-07 15:12:46.372776,-1,7,22,-4,-2,10,85,88,135,140,66,159.92,276,39.00,308.00,-1561.00
2024-06-07 15:12:46.447263,1,0,24,-6,-2,7,85,88,121,130,66,160.08,276,-104.00,-125.00,-1466.00
2024-06-07 15:12:46.577734,-5,2,22,-7,-2,3,85,88,116,120,66,159.83,276,-109.00,30.00,-1428.00
2024-06-07 15:12:46.651308,-7,0,13,-6,-1,0,85,88,112,120,66,159.74,276,-138.00,89.00,-1197.00
2024-06-07 15:12:46.785187,-7,0,2,-5,-1,0,85,88,109,120,66,159.81,276,-48.00,4.00,-1139.00
2024-06-07 15:12:46.855405,-6,1,-4,-3,-3,-1,85,88,108,120,66,159.78,277,-2.00,-69.00,-1101.00
2024-06-07 15:12:46.987255,-3,3,-5,-2,-3,-1,85,88,106,120,66,159.68,277,-51.00,-27.00,-955.00
2024-06-07 15:12:47.059242,-2,4,-4,-2,-2,-1,85,88,105,120,66,159.65,277,-23.00,-13.00,-908.00
2024-06-07 15:12:47.161201,-2,4,-4,-2,-2,-1,85,88,104,120,66,159.64,277,-85.00,-4.00,-1051.00
2024-06-07 15:12:47.294550,-2,3,-4,-2,-1,-1,85,88,103,120,66,159.73,277,-49.00,-9.00,-923.00
2024-06-07 15:12:47.365338,-3,2,-4,-3,-1,-1,85,88,101,120,66,159.74,277,-85.00,-8.00,-1132.00
2024-06-07 15:12:47.499373,-4,1,-4,-3,0,-1,85,88,101,120,66,159.67,277,-84.00,-4.00,-1006.00
2024-06-07 15:12:47.569429,-5,0,-4,-3,0,-1,85,88,99,130,66,159.61,277,-39.00,3.00,-960.00
2024-06-07 15:12:47.704513,-5,0,-4,-2,0,-1,85,88,99,130,66,159.68,277,-106.00,12.00,-1005.00
2024-06-07 15:12:47.773304,-5,1,-4,-2,-1,-1,85,88,98,130,66,159.48,277,-87.00,-2.00,-1035.00
2024-06-07 15:12:47.908929,-5,1,-4,-2,-1,-1,85,88,97,130,66,159.61,278,-140.00,17.00,-1052.00
2024-06-07 15:12:47.977312,-5,1,-4,-2,-1,-1,85,88,97,130,66,159.66,278,-54.00,-10.00,-1010.00
2024-06-07 15:12:48.028931,-4,2,-4,-2,0,-1,85,88,97,130,66,159.46,278,-62.00,-30.00,-1001.00
2024-06-07 15:12:48.216871,-4,1,-4,-2,0,-1,85,88,97,130,66,159.62,278,-106.00,2.00,-1012.00
2024-06-07 15:12:48.232272,-6,2,-4,-2,0,-1,85,88,98,130,65,159.62,278,-77.00,-27.00,-1003.00
2024-06-07 15:12:48.420901,-7,1,-4,-1,0,-2,85,88,98,130,65,159.58,278,-143.00,-3.00,-1028.00
2024-06-07 15:12:48.436249,-7,2,-4,-1,0,-1,85,88,98,130,65,159.45,278,-138.00,-7.00,-933.00
2024-06-07 15:12:48.625753,-6,3,-4,-1,0,0,85,88,99,130,65,159.45,278,-116.00,-1.00,-896.00
2024-06-07 15:12:48.640349,-5,3,-4,-1,0,1,85,88,98,130,65,159.51,278,-131.00,-26.00,-1020.00
2024-06-07 15:12:48.830510,-6,2,-4,-1,0,0,85,88,99,130,65,159.56,278,-114.00,-1.00,-970.00
2024-06-07 15:12:48.844175,-8,2,-4,-1,0,0,85,88,99,130,65,159.51,279,-137.00,-29.00,-1047.00
2024-06-07 15:12:49.035321,-8,1,-4,-1,0,0,85,88,100,130,65,159.62,279,-144.00,23.00,-990.00
2024-06-07 15:12:49.048227,-8,1,-4,-1,0,0,85,88,101,130,65,159.72,279,-125.00,27.00,-985.00
2024-06-07 15:12:49.155319,-7,2,-4,0,0,0,85,88,103,130,65,159.75,279,-170.00,74.00,-1016.00
2024-06-07 15:12:49.253187,-7,0,-4,0,1,0,85,88,103,130,65,159.52,279,-144.00,57.00,-1003.00
2024-06-07 15:12:49.355321,-8,0,-4,0,0,0,85,88,105,130,65,159.56,279,-111.00,-3.00,-986.00
2024-06-07 15:12:49.547375,-7,0,-4,0,0,0,85,88,106,130,65,159.42,279,-103.00,0.00,-984.00
2024-06-07 15:12:49.559238,-6,0,-4,0,0,0,85,88,106,130,65,159.52,279,-135.00,2.00,-972.00
2024-06-07 15:12:49.661579,-6,0,-4,0,0,0,85,88,108,140,65,159.69,279,-140.00,-17.00,-976.00
2024-06-07 15:12:49.854537,-6,1,-4,0,0,0,85,88,109,140,65,159.63,279,-137.00,-17.00,-993.00
2024-06-07 15:12:49.865198,-6,2,-4,0,0,0,85,88,109,140,65,159.63,280,-138.00,-10.00,-1073.00
2024-06-07 15:12:50.059294,-6,2,-4,0,0,0,85,88,110,140,65,159.70,280,-81.00,-38.00,-899.00
2024-06-07 15:12:50.069214,-6,2,-4,0,0,0,85,88,111,140,65,159.73,280,-94.00,-74.00,-944.00
2024-06-07 15:12:50.171183,-6,3,-4,0,0,0,85,88,110,140,65,159.69,280,-87.00,-61.00,-892.00
2024-06-07 15:12:50.366654,-5,3,-4,0,0,0,85,88,109,140,65,159.65,280,-133.00,-23.00,-963.00
2024-06-07 15:12:50.375341,-5,3,-4,0,0,0,85,88,109,140,65,159.72,280,-116.00,-59.00,-959.00
2024-06-07 15:12:50.477687,-5,4,-4,0,0,0,85,88,108,140,65,159.68,280,-125.00,-39.00,-970.00
2024-06-07 15:12:50.674158,-5,4,-4,0,0,1,85,88,107,140,65,159.56,280,-153.00,-19.00,-935.00
2024-06-07 15:12:50.681065,-5,3,-4,0,0,0,85,88,106,140,65,159.60,280,-114.00,-63.00,-1042.00
2024-06-07 15:12:50.878515,-6,3,-4,0,0,0,85,88,105,140,65,159.65,280,-124.00,-4.00,-1025.00
2024-06-07 15:12:50.885160,-5,3,-4,0,0,0,85,88,104,140,65,159.62,281,-93.00,-63.00,-1034.00
2024-06-07 15:12:51.083283,-5,3,-4,0,0,0,85,88,103,140,65,159.64,281,-78.00,-48.00,-950.00
2024-06-07 15:12:51.089789,-4,4,-4,0,0,0,85,88,102,140,65,159.51,281,-73.00,-7.00,-974.00
2024-06-07 15:12:51.191436,-4,2,-4,0,0,0,85,88,102,140,64,159.35,281,-92.00,-56.00,-1033.00
2024-06-07 15:12:51.391545,-4,2,-4,0,0,0,85,88,101,130,64,159.67,281,-91.00,-73.00,-949.00
2024-06-07 15:12:51.395406,-4,2,-4,0,0,0,85,88,100,130,64,159.53,281,-117.00,-28.00,-936.00
2024-06-07 15:12:51.595529,-5,3,-4,0,0,0,85,88,99,130,64,159.57,281,-105.00,-41.00,-966.00
2024-06-07 15:12:51.599288,-5,2,-4,0,0,0,85,88,98,130,64,159.60,281,-92.00,-30.00,-916.00
2024-06-07 15:12:51.800336,-5,2,-4,0,0,1,85,88,96,130,64,159.53,281,-149.00,-7.00,-991.00
2024-06-07 15:12:51.803231,-5,1,-4,0,0,0,85,88,96,130,64,159.54,281,-148.00,-50.00,-1019.00
2024-06-07 15:12:51.905697,-7,1,-4,0,1,1,85,88,95,130,64,159.45,282,-94.00,-41.00,-1025.00
2024-06-07 15:12:52.007207,-7,2,-3,0,1,0,85,88,95,130,64,159.43,282,-76.00,-78.00,-1008.00
2024-06-07 15:12:52.058167,-6,1,-4,0,1,0,85,88,95,130,64,159.41,282,-135.00,19.00,-1014.00
2024-06-07 15:12:52.210294,-5,0,-4,0,1,0,85,88,95,130,64,159.34,282,-176.00,3.00,-1016.00
2024-06-07 15:12:52.262252,-5,0,-4,0,1,0,85,88,96,130,64,159.28,282,-80.00,3.00,-958.00
2024-06-07 15:12:52.364089,-5,0,-4,0,1,0,85,88,97,130,64,159.45,282,-121.00,8.00,-1039.00
2024-06-07 15:12:52.519542,-4,1,-4,0,1,0,85,88,98,130,64,159.57,282,-167.00,78.00,-1514.00
2024-06-07 15:12:52.568007,0,4,-2,0,2,-5,86,88,104,130,64,159.45,282,-79.00,-42.00,-1777.00
2024-06-07 15:12:52.721606,-1,19,0,-1,3,-12,86,88,123,140,64,159.83,282,-58.00,46.00,-1794.00
2024-06-07 15:12:52.772164,-4,112,-5,-1,11,-12,86,88,6553,150,64,159.98,282,-40.00,839.00,-1134.00
2024-06-07 15:12:52.926425,4,-118,-5,-2,12,3,86,88,6553,160,64,160.01,283,-5.00,765.00,-866.00
2024-06-07 15:12:52.976079,0,-10,-3,-3,5,9,86,88,117,150,64,159.58,283,-54.00,387.00,-1137.00
2024-06-07 15:12:53.078070,1,10,-8,-4,7,6,86,88,111,140,64,160.03,283,-83.00,37.00,-1511.00
2024-06-07 15:12:53.180066,-3,-4,-16,-4,8,2,86,88,104,140,64,159.68,283,-42.00,-120.00,-1283.00
2024-06-07 15:12:53.336064,-6,-6,-17,-4,6,0,86,88,101,140,64,159.58,283,-47.00,-122.00,-1242.00
2024-06-07 15:12:53.384048,-5,-4,-8,-4,4,0,86,88,98,140,64,159.49,283,-89.00,9.00,-1015.00
2024-06-07 15:12:53.543766,-5,-2,-3,-4,4,0,86,88,96,130,64,159.71,283,1.00,-73.00,-1036.00
2024-06-07 15:12:53.588102,-5,-1,-3,-4,3,0,85,88,94,130,64,159.54,283,-111.00,-23.00,-999.00
2024-06-07 15:12:53.747454,-6,-1,-3,-2,1,0,85,88,92,130,64,159.60,283,-39.00,-24.00,-1002.00
2024-06-07 15:12:53.793164,-4,0,-3,-2,1,0,85,88,88,130,64,159.59,283,-74.00,-3.00,-1017.00
2024-06-07 15:12:53.893993,-3,0,-3,-1,1,0,85,88,86,130,64,159.43,284,-72.00,-44.00,-1010.00
2024-06-07 15:12:53.996320,-3,0,-3,-2,1,0,85,88,84,130,64,159.34,284,-63.00,-59.00,-1010.00
2024-06-07 15:12:54.099826,-3,1,-3,-1,1,0,85,88,82,130,64,159.45,284,-107.00,78.00,-1002.00
2024-06-07 15:12:54.199950,-3,0,-3,-1,1,0,85,88,80,130,64,159.37,284,-49.00,-92.00,-967.00
2024-06-07 15:12:54.365388,-3,0,-3,-1,1,0,85,88,79,130,64,159.42,284,-55.00,-33.00,-1037.00
2024-06-07 15:12:54.405855,-5,-1,-3,-1,1,0,85,88,79,130,64,159.29,284,-75.00,0.00,-987.00
2024-06-07 15:12:54.506153,-6,-2,-3,-1,0,0,85,88,78,130,64,159.39,284,-148.00,49.00,-1077.00
2024-06-07 15:12:54.667094,-5,-1,-3,-1,0,0,85,88,79,130,64,159.46,284,-97.00,27.00,-953.00
2024-06-07 15:12:54.710232,-4,-1,-3,0,0,0,85,88,79,130,64,159.48,284,-98.00,-31.00,-1051.00
2024-06-07 15:12:54.871884,-4,0,-3,0,0,0,85,88,79,130,64,159.39,284,-98.00,-8.00,-998.00
2024-06-07 15:12:54.913846,-4,0,-3,0,0,0,85,88,81,130,64,159.44,285,-52.00,-27.00,-1004.00
2024-06-07 15:12:55.077016,-3,0,-3,0,0,0,85,88,81,130,64,159.41,285,-115.00,88.00,-1047.00
2024-06-07 15:12:55.121653,-3,0,-3,0,0,0,85,88,83,130,64,159.46,285,-136.00,25.00,-1008.00
2024-06-07 15:12:55.219850,-3,0,-3,0,0,0,85,88,84,130,64,159.54,285,-60.00,-5.00,-1011.00
2024-06-07 15:12:55.386924,-3,0,-3,0,0,0,85,88,86,130,64,159.38,285,-113.00,-2.00,-1079.00
2024-06-07 15:12:55.386985,-3,0,-3,0,0,0,85,88,87,130,64,159.47,285,-103.00,17.00,-1041.00
2024-06-07 15:12:55.475050,-3,0,-4,0,0,0,85,88,88,130,64,159.39,285,-134.00,2.00,-952.00
2024-06-07 15:12:55.627793,-4,0,-4,0,0,0,85,88,90,130,64,159.47,285,-112.00,15.00,-987.00
2024-06-07 15:12:55.678779,-4,0,-4,0,0,0,85,88,91,130,64,159.60,285,-91.00,-5.00,-932.00
2024-06-07 15:12:55.795596,-4,0,-4,0,0,0,85,88,91,130,64,159.48,285,-110.00,11.00,-969.00
2024-06-07 15:12:55.882754,-3,0,-4,0,0,0,85,88,92,130,64,159.51,286,-72.00,-23.00,-1010.00
2024-06-07 15:12:55.984900,-2,0,-3,0,0,0,85,88,93,130,64,159.54,286,-49.00,-17.00,-970.00
2024-06-07 15:12:56.100892,-3,0,-3,0,0,0,85,88,93,140,64,159.57,286,-80.00,-36.00,-997.00
2024-06-07 15:12:56.189169,-3,0,-3,0,0,0,85,88,93,140,63,159.58,286,-86.00,-32.00,-964.00
2024-06-07 15:12:56.306677,-3,0,-3,0,0,0,85,88,92,140,63,159.57,286,-66.00,9.00,-970.00
2024-06-07 15:12:56.393021,-4,1,-3,0,0,0,85,88,93,140,63,159.45,286,-50.00,-35.00,-993.00
2024-06-07 15:12:56.510761,-4,1,-3,0,0,0,85,88,92,130,63,159.55,286,-64.00,-36.00,-959.00
2024-06-07 15:12:56.597814,-4,1,-3,0,0,0,85,87,92,130,63,159.54,286,-57.00,-20.00,-946.00
2024-06-07 15:12:56.715518,-4,0,-4,0,0,0,85,87,93,130,63,159.58,286,-79.00,-5.00,-1033.00
