TS,pitch,roll,yaw,vgx,vgy,vgz,templ,temph,tof,h,bat,baro,time,agx,agy,agz
2024-05-17 15:58:45.138863,0,0,-6,0,0,0,78,80,10,0,64,191.04,169,-1.00,8.00,-997.00
2024-05-17 15:58:45.209218,0,0,-6,0,0,0,78,80,10,0,64,191.01,169,0.00,8.00,-1000.00
2024-05-17 15:58:45.343689,0,0,-6,0,0,0,78,80,10,0,64,191.02,169,0.00,9.00,-999.00
2024-05-17 15:58:45.412571,0,0,-6,0,0,0,78,80,10,0,64,191.03,169,1.00,8.00,-997.00
2024-05-17 15:58:45.552190,0,0,-6,0,0,0,78,80,10,0,64,190.98,169,0.00,8.00,-999.00
2024-05-17 15:58:45.616852,0,0,-6,0,0,0,78,80,10,0,64,191.02,169,0.00,8.00,-1001.00
2024-05-17 15:58:45.718459,0,0,-6,0,0,0,78,80,10,0,64,191.02,169,-1.00,9.00,-1001.00
2024-05-17 15:58:45.820810,0,0,-6,0,0,0,78,80,10,0,64,191.06,169,0.00,7.00,-997.00
2024-05-17 15:58:45.957889,0,0,-6,0,0,0,78,80,10,0,64,191.02,169,0.00,8.00,-999.00
2024-05-17 15:58:46.025523,0,0,-6,0,0,0,78,80,10,0,64,191.04,169,0.00,8.00,-1001.00
2024-05-17 15:58:46.126824,0,0,-6,0,0,0,78,80,10,0,64,191.01,169,0.00,7.00,-999.00
2024-05-17 15:58:46.230802,0,0,-6,0,0,0,78,80,10,0,64,191.11,169,0.00,8.00,-1000.00
2024-05-17 15:58:46.332578,0,0,-6,0,0,0,78,80,10,0,64,191.05,169,0.00,7.00,-1000.00
2024-05-17 15:58:46.433033,0,0,-6,0,0,0,78,81,10,0,64,191.04,169,0.00,10.00,-999.00
2024-05-17 15:58:46.574046,0,0,-6,0,0,0,78,81,10,0,64,191.01,169,0.00,9.00,-999.00
2024-05-17 15:58:46.636559,0,0,-6,0,0,0,78,81,10,0,64,191.06,169,0.00,7.00,-1005.00
2024-05-17 15:58:46.777067,0,0,-6,0,0,0,78,81,10,0,64,191.06,169,0.00,8.00,-998.00
2024-05-17 15:58:46.840554,0,0,-6,0,0,0,78,81,10,0,64,191.05,169,-2.00,8.00,-997.00
2024-05-17 15:58:46.981883,0,0,-6,0,0,0,78,81,10,0,64,191.05,169,-1.00,8.00,-1000.00
2024-05-17 15:58:47.049498,0,0,-6,0,0,0,78,81,10,0,64,190.95,169,-2.00,8.00,-1002.00
2024-05-17 15:58:47.146496,0,0,-6,0,0,0,78,81,10,0,64,191.02,169,0.00,8.00,-1000.00
2024-05-17 15:58:47.292156,0,0,-6,0,0,0,78,81,10,0,64,191.03,169,-1.00,8.00,-1000.00
2024-05-17 15:58:47.352447,0,0,-6,0,0,0,78,81,10,0,64,191.03,169,-1.00,8.00,-1002.00
2024-05-17 15:58:47.452845,0,0,-6,0,0,0,79,80,10,0,64,191.06,169,0.00,8.00,-1001.00
2024-05-17 15:58:47.599366,0,0,-6,0,0,0,79,80,10,0,64,191.06,169,-1.00,8.00,-999.00
2024-05-17 15:58:47.656266,0,0,-6,0,0,0,79,80,10,0,64,191.06,169,-7.00,-10.00,-997.00
2024-05-17 15:58:47.800900,0,0,-6,0,0,0,79,80,10,0,64,191.06,170,-3.00,3.00,-990.00
2024-05-17 15:58:47.860343,0,0,-5,0,0,0,79,80,10,0,64,191.06,170,-52.00,-34.00,-989.00
2024-05-17 15:58:47.911296,0,0,-3,0,0,0,79,80,10,0,64,191.06,170,9.00,-6.00,-1055.00
2024-05-17 15:58:48.108209,0,0,-3,0,0,0,79,80,10,0,64,191.06,170,-7.00,-11.00,-988.00
2024-05-17 15:58:48.115379,0,0,-3,0,0,0,79,80,10,0,64,191.06,170,3.00,-9.00,-1138.00
2024-05-17 15:58:48.312959,0,0,-3,0,0,-3,79,80,10,0,64,191.06,170,55.00,-19.00,-1385.00
2024-05-17 15:58:48.319395,0,2,-3,0,0,-5,79,80,13,0,64,191.06,170,14.00,35.00,-1193.00
2024-05-17 15:58:48.518729,0,0,-3,0,0,-7,79,81,20,0,64,191.32,170,-5.00,-19.00,-1101.00
2024-05-17 15:58:48.524299,0,0,-3,0,0,-7,79,81,26,10,64,191.50,170,7.00,-9.00,-1076.00
2024-05-17 15:58:48.722619,0,0,-3,0,0,-7,79,81,34,20,64,191.55,170,-13.00,-13.00,-977.00
2024-05-17 15:58:48.728283,0,0,-3,0,0,-7,79,81,42,20,64,191.64,171,-2.00,-8.00,-955.00
2024-05-17 15:58:48.927345,0,0,-3,0,0,-6,79,81,50,30,64,191.66,171,-6.00,-9.00,-888.00
2024-05-17 15:58:48.932247,0,0,-3,0,0,-5,79,81,57,30,64,191.72,171,-2.00,-6.00,-856.00
2024-05-17 15:58:49.132727,0,0,-3,0,0,-4,79,81,63,40,64,191.81,171,-34.00,0.00,-894.00
2024-05-17 15:58:49.136224,-2,0,-3,0,0,-3,79,81,65,40,64,191.87,171,-27.00,6.00,-884.00
2024-05-17 15:58:49.336925,-2,0,-3,0,0,-2,79,81,70,40,64,192.01,171,1.00,-31.00,-899.00
2024-05-17 15:58:49.340338,-1,0,-3,0,0,-1,79,81,73,50,64,192.06,171,-30.00,9.00,-948.00
2024-05-17 15:58:49.443186,-1,0,-3,0,0,0,78,81,76,50,64,192.00,171,-7.00,-5.00,-909.00
2024-05-17 15:58:49.544212,0,0,-3,0,0,0,78,81,78,50,64,192.01,171,-19.00,-15.00,-953.00
2024-05-17 15:58:49.647332,0,0,-3,0,0,0,78,81,80,50,64,192.05,171,-7.00,-12.00,-1006.00
2024-05-17 15:58:49.748724,0,0,-3,0,0,0,78,81,82,50,64,192.03,172,-13.00,-8.00,-959.00
2024-05-17 15:58:49.951886,0,0,-3,0,0,0,78,81,84,50,64,192.00,172,-7.00,-14.00,-1000.00
2024-05-17 15:58:49.952100,0,0,-3,0,0,0,78,81,85,50,64,192.10,172,-57.00,2.00,-987.00
2024-05-17 15:58:50.156489,0,0,-3,0,0,0,78,81,86,50,64,192.08,172,2.00,-21.00,-1017.00
2024-05-17 15:58:50.157202,0,0,-3,0,0,0,78,81,88,60,64,192.06,172,-31.00,18.00,-940.00
2024-05-17 15:58:50.258253,0,0,-3,0,0,0,78,81,88,60,64,192.11,172,11.00,-9.00,-1009.00
2024-05-17 15:58:50.360902,0,0,-3,0,0,0,78,81,89,60,64,192.11,172,-49.00,13.00,-977.00
2024-05-17 15:58:50.471158,0,0,-3,0,0,0,79,81,90,60,64,192.11,172,29.00,-18.00,-989.00
2024-05-17 15:58:50.565365,0,0,-3,0,0,0,79,81,90,60,64,192.17,172,-19.00,13.00,-989.00
2024-05-17 15:58:50.668118,0,0,-3,0,0,0,79,81,90,60,64,192.13,172,-14.00,-6.00,-962.00
2024-05-17 15:58:50.772809,0,0,-3,0,0,0,79,81,90,60,64,192.10,173,-10.00,-12.00,-999.00
2024-05-17 15:58:50.872920,-1,0,-3,0,0,0,79,81,89,60,64,192.10,173,-7.00,-7.00,-997.00
2024-05-17 15:58:50.972289,-1,0,-3,0,0,0,79,81,90,60,64,192.08,173,-2.00,-16.00,-987.00
2024-05-17 15:58:51.077708,0,0,-3,0,0,0,79,81,88,60,64,192.04,173,-6.00,9.00,-965.00
2024-05-17 15:58:51.176154,0,0,-3,0,0,0,79,81,87,60,64,192.08,173,-2.00,3.00,-978.00
2024-05-17 15:58:51.278573,-1,0,-3,0,0,0,79,81,87,60,64,192.05,173,-27.00,-10.00,-1002.00
2024-05-17 15:58:51.380124,-1,0,-3,0,0,0,79,81,86,60,64,192.02,173,-37.00,19.00,-985.00
2024-05-17 15:58:51.482559,-1,0,-3,0,0,0,79,81,84,60,64,192.05,173,-24.00,30.00,-963.00
2024-05-17 15:58:51.589716,-1,0,-3,0,0,0,79,81,83,60,64,192.06,173,-20.00,-2.00,-990.00
2024-05-17 15:58:51.686219,-1,-1,-3,0,0,0,79,81,81,60,64,192.04,173,10.00,-2.00,-1031.00
2024-05-17 15:58:51.737121,-1,-1,-3,0,0,0,79,81,80,60,64,191.98,174,-35.00,28.00,-988.00
2024-05-17 15:58:51.896899,-1,-1,-3,0,0,0,79,81,79,50,64,192.02,174,-57.00,14.00,-1063.00
2024-05-17 15:58:51.941100,-1,0,-3,0,0,0,79,81,78,50,64,192.02,174,0.00,3.00,-1019.00
2024-05-17 15:58:52.101719,-1,0,-3,0,0,0,79,81,77,50,64,191.99,174,12.00,6.00,-995.00
2024-05-17 15:58:52.145060,-1,0,-3,0,0,0,79,81,76,50,64,192.03,174,-35.00,-1.00,-1022.00
2024-05-17 15:58:52.306487,-1,0,-3,0,0,0,79,81,76,50,64,191.99,174,-9.00,-13.00,-1022.00
2024-05-17 15:58:52.350348,-1,0,-3,0,0,0,79,81,75,50,64,192.03,174,-27.00,13.00,-988.00
2024-05-17 15:58:52.451559,-1,0,-3,0,0,0,78,81,74,50,64,191.95,174,1.00,27.00,-969.00
2024-05-17 15:58:52.613703,-1,0,-3,0,0,0,78,81,74,50,64,191.94,174,12.00,-9.00,-1076.00
2024-05-17 15:58:52.655300,-1,0,-3,0,0,0,78,81,73,50,64,191.96,174,19.00,7.00,-981.00
2024-05-17 15:58:52.818487,-2,-1,-3,0,0,0,78,81,72,50,64,191.91,175,-33.00,23.00,-985.00
2024-05-17 15:58:52.859707,-1,0,-3,0,0,0,78,81,72,50,64,191.97,175,-22.00,29.00,-973.00
2024-05-17 15:58:53.023540,-1,0,-3,0,0,0,78,81,73,50,64,191.99,175,-15.00,-3.00,-1037.00
2024-05-17 15:58:53.065911,-1,0,-3,0,0,0,78,81,73,50,64,191.92,175,-4.00,12.00,-1044.00
2024-05-17 15:58:53.166105,-1,0,-3,0,0,0,78,81,72,50,64,191.96,175,-40.00,16.00,-998.00
2024-05-17 15:58:53.268354,-1,0,-3,0,0,0,78,81,73,50,64,191.92,175,-3.00,4.00,-979.00
2024-05-17 15:58:53.371331,-1,0,-3,0,0,0,78,81,72,50,64,192.03,175,-15.00,0.00,-981.00
2024-05-17 15:58:53.471614,-1,0,-3,0,0,0,77,80,73,50,64,191.90,175,-53.00,13.00,-1005.00
2024-05-17 15:58:53.574449,-1,0,-3,0,0,0,77,80,73,50,64,191.95,175,-24.00,-7.00,-1011.00
2024-05-17 15:58:53.677563,-1,0,-3,0,0,0,77,80,72,50,64,191.97,175,-14.00,3.00,-1003.00
2024-05-17 15:58:53.785775,-1,0,-3,0,0,0,77,80,73,50,64,191.90,176,45.00,-19.00,-1032.00
2024-05-17 15:58:53.882929,-1,0,-3,0,0,0,77,80,72,50,64,191.93,176,-13.00,19.00,-1000.00
2024-05-17 15:58:53.984191,-1,0,-3,0,0,0,77,80,72,50,64,191.88,176,0.00,-5.00,-1028.00
2024-05-17 15:58:54.083110,-1,0,-3,0,0,0,77,80,70,50,64,191.93,176,6.00,-5.00,-1014.00
2024-05-17 15:58:54.258848,-1,0,-3,0,0,0,77,80,70,50,64,191.90,176,-40.00,32.00,-994.00
2024-05-17 15:58:54.287083,-1,0,-3,0,0,0,77,80,69,50,64,191.88,176,17.00,-2.00,-1016.00
2024-05-17 15:58:54.456872,-1,0,-3,0,0,0,77,80,69,50,64,191.89,176,-75.00,2.00,-1052.00
2024-05-17 15:58:54.491400,-1,0,-3,0,0,0,77,80,69,50,64,191.90,176,-56.00,16.00,-1018.00
2024-05-17 15:58:54.661764,-2,0,-3,0,0,0,77,80,68,50,64,191.90,176,-8.00,-5.00,-1077.00
2024-05-17 15:58:54.695477,-2,-1,-3,0,0,0,77,80,69,50,64,191.90,176,-9.00,10.00,-1023.00
2024-05-17 15:58:54.866528,-1,0,-3,0,0,0,77,80,70,50,64,191.93,177,-35.00,31.00,-994.00
2024-05-17 15:58:54.899077,-1,0,-3,0,0,0,77,80,70,50,64,191.96,177,-34.00,-7.00,-978.00
2024-05-17 15:58:55.071495,-1,0,-3,0,0,0,77,80,71,50,64,192.01,177,33.00,20.00,-1011.00
2024-05-17 15:58:55.103019,-1,0,-3,0,0,0,77,80,72,50,64,191.94,177,-9.00,0.00,-1035.00
2024-05-17 15:58:55.276143,-1,0,-3,0,0,0,77,80,73,50,64,191.99,177,-51.00,13.00,-981.00
2024-05-17 15:58:55.276205,-1,0,-3,0,0,0,77,80,74,50,64,192.00,177,-2.00,-10.00,-975.00
2024-05-17 15:58:55.358134,-1,0,-3,0,0,0,77,80,74,50,64,191.99,177,-28.00,19.00,-937.00
2024-05-17 15:58:55.511636,-1,0,-3,0,0,0,77,80,75,50,64,192.02,177,-38.00,-15.00,-949.00
2024-05-17 15:58:55.685830,-1,0,-3,0,0,0,77,80,76,50,64,191.97,177,-9.00,-6.00,-987.00
2024-05-17 15:58:55.715066,-1,0,-3,0,0,0,77,80,76,50,64,192.01,177,-2.00,-7.00,-981.00
2024-05-17 15:58:55.890522,-1,0,-3,0,0,0,77,80,76,50,64,191.97,178,28.00,-11.00,-986.00
2024-05-17 15:58:55.919009,-1,0,-3,0,0,0,77,80,75,50,64,192.04,178,2.00,3.00,-954.00
2024-05-17 15:58:55.969944,-1,0,-3,0,0,0,77,80,75,50,64,192.05,178,-1.00,0.00,-996.00
2024-05-17 15:58:56.095424,-1,0,-3,0,0,0,77,80,75,50,64,192.04,178,-12.00,-1.00,-983.00
2024-05-17 15:58:56.174113,-1,0,-3,0,0,0,77,80,76,50,64,191.97,178,8.00,9.00,-982.00
2024-05-17 15:58:56.300142,-1,0,-3,0,0,0,77,80,76,50,64,191.99,178,-37.00,15.00,-1075.00
2024-05-17 15:58:56.378071,-1,0,-3,0,0,0,77,80,76,50,64,191.97,178,-8.00,7.00,-989.00
2024-05-17 15:58:56.505135,-1,0,-3,0,0,0,77,80,76,50,64,192.00,178,-25.00,11.00,-957.00
2024-05-17 15:58:56.582024,-1,0,-3,0,0,0,77,80,76,50,64,192.02,178,29.00,-16.00,-1001.00
2024-05-17 15:58:56.709874,-1,0,-3,0,0,0,77,80,75,50,64,191.97,178,-11.00,17.00,-1029.00
2024-05-17 15:58:56.786096,-1,0,-3,0,0,0,77,80,76,50,64,191.96,179,-42.00,18.00,-939.00
2024-05-17 15:58:56.915812,-1,0,-3,0,0,0,77,80,75,50,64,191.94,179,10.00,-10.00,-1034.00
2024-05-17 15:58:56.990219,-1,0,-3,0,0,0,77,80,75,50,64,191.96,179,-30.00,16.00,-994.00
2024-05-17 15:58:57.119464,-1,0,-3,0,0,0,77,80,76,50,64,191.89,179,4.00,-14.00,-958.00
2024-05-17 15:58:57.196612,-1,0,-3,0,0,0,77,80,76,50,64,192.02,179,10.00,-4.00,-1057.00
2024-05-17 15:58:57.296046,-1,0,-3,0,0,0,77,80,77,50,64,191.94,179,-6.00,-4.00,-1023.00
2024-05-17 15:58:57.426667,-1,0,-3,0,0,0,77,80,76,50,64,191.97,179,14.00,4.00,-987.00
2024-05-17 15:58:57.502342,-1,0,-3,0,0,0,77,79,76,50,64,191.96,179,-8.00,29.00,-961.00
2024-05-17 15:58:57.602406,0,0,-3,0,0,0,77,79,76,50,64,192.05,179,-25.00,4.00,-966.00
2024-05-17 15:58:57.733854,-1,0,-3,0,0,0,77,79,76,50,64,191.94,179,-20.00,11.00,-997.00
2024-05-17 15:58:57.806051,-1,0,-3,0,0,0,77,79,77,50,64,191.96,180,-7.00,32.00,-1029.00
2024-05-17 15:58:57.938560,-1,0,-3,0,0,0,77,79,77,50,64,192.00,180,-16.00,6.00,-1083.00
2024-05-17 15:58:58.009958,-1,0,-3,0,0,0,77,79,76,50,64,192.00,180,9.00,-25.00,-982.00
2024-05-17 15:58:58.112250,-1,0,-3,0,0,0,77,79,76,50,64,191.97,180,-10.00,-3.00,-988.00
2024-05-17 15:58:58.213877,-1,0,-3,0,0,0,77,79,76,50,64,192.01,180,-23.00,13.00,-1017.00
2024-05-17 15:58:58.348118,-1,0,-3,0,0,0,77,79,78,50,64,191.97,180,-8.00,-7.00,-1123.00
2024-05-17 15:58:58.420879,-1,0,-3,0,0,0,77,79,79,50,64,192.01,180,38.00,0.00,-1038.00
2024-05-17 15:58:58.519869,-1,0,-3,0,0,-1,76,80,81,50,64,192.08,180,-11.00,6.00,-1064.00
2024-05-17 15:58:58.658624,-1,0,-3,0,0,-2,76,80,82,50,64,192.05,180,6.00,-21.00,-1050.00
2024-05-17 15:58:58.723883,0,0,-3,0,0,-3,76,80,86,60,64,192.11,180,-1.00,-14.00,-1086.00
2024-05-17 15:58:58.962418,0,0,-3,0,0,-4,76,80,90,60,64,192.11,181,-15.00,-7.00,-1050.00
2024-05-17 15:58:58.962726,-1,0,-3,0,0,-4,76,80,94,60,64,192.20,181,-9.00,2.00,-1129.00
2024-05-17 15:58:59.029886,-1,0,-3,0,0,-5,76,80,100,70,64,192.23,181,-20.00,0.00,-999.00
2024-05-17 15:58:59.082117,-2,0,-3,0,0,-5,76,80,104,70,64,192.25,181,16.00,-11.00,-1013.00
2024-05-17 15:58:59.269706,-2,0,-3,0,0,-5,76,80,109,80,64,192.29,181,-3.00,-15.00,-990.00
2024-05-17 15:58:59.284967,-1,0,-3,0,0,-5,76,80,113,80,64,192.38,181,4.00,-13.00,-1029.00
2024-05-17 15:58:59.474412,-1,0,-3,0,0,-5,76,80,116,90,64,192.39,181,-5.00,-10.00,-1034.00
2024-05-17 15:58:59.539803,-1,0,-3,0,0,-4,77,80,121,90,64,192.37,181,-2.00,6.00,-964.00
2024-05-17 15:58:59.590805,-1,0,-3,0,0,-4,77,80,124,100,64,192.44,181,8.00,-1.00,-977.00
2024-05-17 15:58:59.781678,-1,0,-3,0,0,-4,77,80,129,100,64,192.44,181,-1.00,-3.00,-988.00
2024-05-17 15:58:59.794883,-1,0,-3,0,0,-3,77,80,133,110,64,192.50,182,-7.00,-12.00,-1006.00
2024-05-17 15:58:59.986496,-2,0,-3,0,0,-3,77,80,136,110,64,192.56,182,-38.00,11.00,-967.00
2024-05-17 15:58:59.998802,-2,0,-3,0,0,-3,77,80,141,110,64,192.55,182,-42.00,11.00,-966.00
2024-05-17 15:59:00.191461,-2,0,-3,0,0,-3,77,80,144,120,64,192.70,182,-21.00,13.00,-1012.00
2024-05-17 15:59:00.202663,-1,-1,-3,0,0,-3,77,80,147,120,64,192.67,182,6.00,31.00,-1002.00
2024-05-17 15:59:00.396026,-1,-1,-3,0,0,-3,77,80,151,120,64,192.77,182,-24.00,23.00,-997.00
2024-05-17 15:59:00.406671,-1,0,-3,0,0,-3,77,80,155,130,64,192.75,182,32.00,-12.00,-1015.00
2024-05-17 15:59:00.508690,-1,0,-3,0,0,-2,77,80,158,130,64,192.77,182,-10.00,17.00,-970.00
2024-05-17 15:59:00.610726,-1,0,-3,0,0,-2,77,80,161,130,64,192.83,182,-54.00,40.00,-939.00
2024-05-17 15:59:00.806734,0,0,-3,0,0,-2,77,80,163,130,64,192.81,182,-6.00,5.00,-974.00
2024-05-17 15:59:00.814857,0,0,-3,0,0,-2,77,80,165,140,64,192.90,183,15.00,-9.00,-965.00
2024-05-17 15:59:01.011675,-1,0,-3,0,0,-2,77,80,168,140,64,192.91,183,10.00,18.00,-980.00
2024-05-17 15:59:01.018688,-1,0,-3,0,0,-1,77,80,169,140,64,192.83,183,-16.00,21.00,-988.00
2024-05-17 15:59:01.215277,-1,0,-3,0,0,-1,77,80,171,140,64,192.93,183,0.00,18.00,-995.00
2024-05-17 15:59:01.222827,-1,0,-3,0,0,-1,77,80,172,140,64,192.97,183,23.00,2.00,-977.00
2024-05-17 15:59:01.324951,-1,0,-3,0,0,-1,77,80,173,150,64,192.89,183,-35.00,17.00,-949.00
2024-05-17 15:59:01.427550,-1,0,-3,0,0,0,77,80,174,150,64,192.94,183,19.00,4.00,-954.00
2024-05-17 15:59:01.530569,-1,0,-3,0,0,0,78,79,174,150,64,192.96,183,-25.00,16.00,-1007.00
2024-05-17 15:59:01.631542,-1,0,-3,0,0,0,78,79,174,150,64,192.90,183,34.00,-7.00,-989.00
2024-05-17 15:59:01.736083,0,0,-3,0,0,0,78,79,174,150,64,192.89,184,-1.00,-15.00,-995.00
2024-05-17 15:59:01.835718,0,0,-3,0,0,0,78,79,175,150,64,193.02,184,-13.00,-6.00,-996.00
2024-05-17 15:59:01.938633,0,0,-3,0,0,0,78,79,174,150,64,192.88,184,-16.00,15.00,-987.00
2024-05-17 15:59:02.038815,-1,0,-3,0,0,0,78,79,174,150,64,192.92,184,14.00,-3.00,-991.00
2024-05-17 15:59:02.143307,-1,0,-3,0,0,0,78,79,174,150,64,192.91,184,65.00,-29.00,-975.00
2024-05-17 15:59:02.245787,-1,0,-3,0,0,0,78,79,174,150,64,192.96,184,-20.00,15.00,-982.00
2024-05-17 15:59:02.347947,-1,0,-3,0,0,0,78,79,173,150,64,192.95,184,-5.00,13.00,-988.00
2024-05-17 15:59:02.446829,-1,0,-3,0,0,0,78,79,173,150,64,192.97,184,-8.00,19.00,-967.00
2024-05-17 15:59:02.548665,-1,0,-3,0,0,0,76,79,173,150,64,192.94,184,-11.00,18.00,-1024.00
2024-05-17 15:59:02.651592,-1,0,-3,0,0,0,76,79,172,150,64,192.91,184,-14.00,10.00,-1020.00
2024-05-17 15:59:02.752654,-1,0,-3,0,0,0,76,79,173,150,64,192.91,185,29.00,-8.00,-986.00
2024-05-17 15:59:02.956676,0,0,-3,0,0,0,76,79,172,150,64,192.91,185,-5.00,5.00,-1054.00
2024-05-17 15:59:02.956819,0,0,-3,0,0,0,76,79,173,150,64,192.90,185,-39.00,30.00,-985.00
2024-05-17 15:59:03.058869,0,0,-3,0,0,0,76,79,173,150,64,192.92,185,47.00,-29.00,-1000.00
2024-05-17 15:59:03.161620,0,0,-3,0,0,0,76,79,173,150,64,192.88,185,-10.00,-2.00,-1015.00
2024-05-17 15:59:03.263150,0,0,-3,0,0,0,76,79,173,150,64,192.94,185,-14.00,16.00,-1017.00
2024-05-17 15:59:03.313586,0,0,-3,0,0,0,76,79,173,150,64,192.90,185,15.00,-11.00,-960.00
2024-05-17 15:59:03.415968,0,0,-3,0,0,0,76,79,173,150,64,192.87,185,10.00,-11.00,-952.00
2024-05-17 15:59:03.568613,0,0,-3,0,0,0,76,79,172,150,64,192.89,185,18.00,14.00,-913.00
2024-05-17 15:59:03.670566,0,0,-3,0,0,1,76,79,171,140,64,192.85,185,10.00,-16.00,-965.00
2024-05-17 15:59:03.721603,0,0,-3,0,0,1,76,79,170,140,64,192.85,186,-16.00,16.00,-942.00
2024-05-17 15:59:03.877634,0,0,-3,0,0,2,76,79,168,140,64,192.84,186,-22.00,12.00,-948.00
2024-05-17 15:59:03.925718,0,0,-3,0,0,2,76,79,165,140,64,192.85,186,11.00,-11.00,-969.00
2024-05-17 15:59:04.083238,-1,0,-3,0,0,2,76,79,162,140,64,192.81,186,26.00,-4.00,-999.00
2024-05-17 15:59:04.129497,-1,0,-3,0,0,2,76,79,160,130,64,192.76,186,-11.00,6.00,-997.00
2024-05-17 15:59:04.231593,-1,0,-3,0,0,2,76,79,157,130,64,192.76,186,-22.00,22.00,-953.00
2024-05-17 15:59:04.389625,-1,0,-3,0,0,2,76,79,154,130,64,192.76,186,-20.00,8.00,-1028.00
2024-05-17 15:59:04.436390,-1,0,-3,0,0,2,76,79,152,120,64,192.69,186,8.00,8.00,-1020.00
2024-05-17 15:59:04.537531,-1,0,-3,0,0,2,76,79,147,120,64,192.72,186,10.00,-24.00,-1009.00
2024-05-17 15:59:04.696874,-1,0,-3,0,0,2,76,79,144,120,64,192.65,186,-35.00,14.00,-1006.00
2024-05-17 15:59:04.741677,-1,0,-3,0,0,2,76,79,141,120,64,192.59,187,10.00,-2.00,-1047.00
2024-05-17 15:59:04.901626,-1,0,-3,0,0,2,76,79,139,110,64,192.62,187,59.00,-26.00,-993.00
2024-05-17 15:59:04.945456,-1,0,-3,0,0,2,76,79,137,110,64,192.58,187,-20.00,6.00,-1051.00
2024-05-17 15:59:05.108383,-1,0,-3,0,0,1,76,79,135,110,64,192.61,187,-13.00,-2.00,-998.00
2024-05-17 15:59:05.151725,-1,0,-3,0,0,1,76,79,133,110,64,192.62,187,5.00,-13.00,-1033.00
2024-05-17 15:59:05.251543,-1,0,-3,0,0,1,76,79,131,110,64,192.59,187,-24.00,20.00,-999.00
2024-05-17 15:59:05.413616,-1,0,-3,0,0,1,76,79,130,100,64,192.55,187,2.00,-7.00,-1014.00
2024-05-17 15:59:05.455508,0,0,-3,0,0,1,76,79,129,100,64,192.53,187,-38.00,35.00,-1044.00
2024-05-17 15:59:05.557995,0,0,-3,0,0,1,76,79,127,100,64,192.54,187,3.00,2.00,-990.00
2024-05-17 15:59:05.721405,0,0,-3,0,0,1,76,79,127,100,64,192.54,187,0.00,4.00,-1014.00
2024-05-17 15:59:05.762604,0,0,-3,0,0,0,76,79,127,100,64,192.46,188,-7.00,-5.00,-1000.00
2024-05-17 15:59:05.925701,0,0,-3,0,0,0,76,79,127,100,64,192.53,188,-27.00,17.00,-1015.00
2024-05-17 15:59:05.965816,0,0,-3,0,0,0,76,79,127,100,64,192.51,188,0.00,-12.00,-1053.00
2024-05-17 15:59:06.130651,0,0,-3,0,0,0,76,79,127,100,64,192.50,188,-30.00,14.00,-948.00
2024-05-17 15:59:06.170036,0,0,-3,0,0,0,76,79,127,100,64,192.54,188,-31.00,21.00,-1030.00
2024-05-17 15:59:06.335698,0,0,-3,0,0,0,76,79,128,100,64,192.51,188,0.00,5.00,-993.00
2024-05-17 15:59:06.375103,0,0,-3,0,0,0,76,79,128,100,64,192.57,188,-5.00,-7.00,-1014.00
2024-05-17 15:59:06.475969,0,0,-3,0,0,0,76,79,128,100,64,192.50,188,-23.00,-11.00,-989.00
2024-05-17 15:59:06.578558,0,0,-3,0,0,0,76,79,128,100,64,192.55,188,-15.00,8.00,-970.00
2024-05-17 15:59:06.745042,-1,0,-3,0,0,0,76,79,128,100,64,192.55,188,2.00,13.00,-987.00
2024-05-17 15:59:06.782537,-1,0,-3,0,0,0,76,79,128,100,64,192.52,189,-28.00,5.00,-977.00
2024-05-17 15:59:06.949711,-1,0,-3,0,0,0,76,79,127,100,64,192.58,189,5.00,-26.00,-1027.00
2024-05-17 15:59:06.986658,-1,0,-3,0,0,0,76,79,127,100,64,192.55,189,-16.00,25.00,-994.00
2024-05-17 15:59:07.154476,-1,0,-3,0,0,0,76,79,127,100,64,192.53,189,11.00,-3.00,-1051.00
2024-05-17 15:59:07.154645,-1,0,-3,0,0,0,76,79,127,100,64,192.46,189,-23.00,-6.00,-940.00
2024-05-17 15:59:07.241479,-1,0,-3,0,0,0,76,79,126,100,64,192.48,189,-7.00,11.00,-1021.00
2024-05-17 15:59:07.359257,-1,0,-3,0,0,0,76,79,126,100,64,192.45,189,-28.00,9.00,-996.00
2024-05-17 15:59:07.445665,-1,0,-3,0,0,0,76,79,126,100,64,192.50,189,-4.00,8.00,-998.00
2024-05-17 15:59:07.598468,-1,0,-3,0,0,0,76,78,126,100,64,192.53,189,0.00,-8.00,-993.00
2024-05-17 15:59:07.768811,-1,0,-3,0,0,0,76,78,126,100,64,192.44,189,-5.00,8.00,-1014.00
2024-05-17 15:59:07.768869,-3,0,-3,0,0,0,76,78,127,100,64,192.48,190,32.00,-12.00,-1041.00
2024-05-17 15:59:07.853428,-7,0,-3,1,0,0,76,78,126,100,64,192.48,190,25.00,0.00,-939.00
2024-05-17 15:59:07.973612,-8,0,-3,2,0,0,76,78,127,100,64,192.55,190,-29.00,25.00,-994.00
2024-05-17 15:59:08.057402,-8,0,-3,3,0,0,76,78,127,100,64,192.43,190,0.00,-5.00,-1051.00
2024-05-17 15:59:08.178376,-8,0,-3,4,0,0,76,78,127,100,64,192.47,190,-56.00,6.00,-1024.00
2024-05-17 15:59:08.261312,-7,0,-3,5,0,0,76,78,127,100,64,192.46,190,-24.00,-23.00,-999.00
2024-05-17 15:59:08.385269,-7,1,-3,6,0,0,76,78,125,100,64,192.43,190,-55.00,8.00,-1009.00
2024-05-17 15:59:08.465532,-6,0,-3,7,0,0,76,78,126,100,64,192.38,190,-89.00,11.00,-1043.00
2024-05-17 15:59:08.567337,-5,0,-3,7,0,0,76,79,126,100,64,192.35,190,-25.00,5.00,-977.00
2024-05-17 15:59:08.692522,-2,0,-3,7,0,0,76,79,127,100,64,192.35,190,-31.00,-3.00,-1006.00
2024-05-17 15:59:08.772715,0,0,-3,7,0,0,76,79,127,100,64,192.39,191,-71.00,13.00,-1039.00
2024-05-17 15:59:08.896988,2,0,-3,6,0,0,76,79,128,100,64,192.47,191,-50.00,7.00,-971.00
2024-05-17 15:59:08.976258,3,0,-3,5,0,0,76,79,128,100,64,192.53,191,-63.00,31.00,-994.00
2024-05-17 15:59:09.101646,2,0,-3,4,0,0,76,79,128,100,64,192.50,191,-52.00,10.00,-1023.00
2024-05-17 15:59:09.179582,0,0,-3,3,0,0,76,79,126,100,64,192.52,191,-50.00,14.00,-1026.00
2024-05-17 15:59:09.281641,0,0,-3,3,0,0,76,79,125,100,64,192.41,191,-27.00,20.00,-1036.00
2024-05-17 15:59:09.395067,0,0,-3,2,0,0,76,79,126,100,64,192.44,191,-10.00,-8.00,-1025.00
2024-05-17 15:59:09.486147,-1,0,-3,2,0,0,76,79,126,100,64,192.39,191,-15.00,29.00,-961.00
2024-05-17 15:59:09.588726,-1,0,-3,2,0,0,77,78,126,100,64,192.43,191,-43.00,14.00,-982.00
2024-05-17 15:59:09.715525,-1,0,-3,2,0,0,77,78,125,100,64,192.49,191,-9.00,7.00,-1002.00
2024-05-17 15:59:09.793029,-1,0,-3,2,0,0,77,78,125,100,64,192.46,192,-8.00,5.00,-997.00
2024-05-17 15:59:09.920268,0,0,-3,2,0,0,77,78,125,100,64,192.47,192,-34.00,8.00,-1035.00
2024-05-17 15:59:10.000353,0,0,-3,2,0,0,77,78,125,100,64,192.40,192,-52.00,22.00,-1011.00
2024-05-17 15:59:10.098554,0,0,-3,2,0,0,77,78,125,100,64,192.44,192,-42.00,23.00,-952.00
2024-05-17 15:59:10.227219,0,0,-3,2,0,0,77,78,125,100,64,192.45,192,-10.00,-17.00,-1000.00
2024-05-17 15:59:10.302263,0,0,-3,1,0,0,77,78,124,100,64,192.44,192,-30.00,27.00,-1044.00
2024-05-17 15:59:10.433352,0,-2,-3,1,0,0,77,78,126,100,64,192.44,192,2.00,10.00,-1079.00
2024-05-17 15:59:10.506331,0,-4,-3,1,0,0,77,78,126,100,64,192.47,192,-47.00,17.00,-994.00
2024-05-17 15:59:10.635906,1,1,-3,1,0,0,77,78,126,100,64,192.45,192,-42.00,31.00,-996.00
2024-05-17 15:59:10.710385,2,1,-3,0,0,0,77,78,125,100,64,192.47,192,-8.00,-9.00,-984.00
2024-05-17 15:59:10.841069,0,0,-3,0,0,0,77,78,125,100,64,192.52,193,13.00,14.00,-994.00
2024-05-17 15:59:10.914516,0,0,-3,0,0,0,77,78,124,100,64,192.51,193,-20.00,29.00,-978.00
2024-05-17 15:59:11.019730,0,0,-3,0,0,0,77,78,123,100,64,192.51,193,-30.00,45.00,-990.00
2024-05-17 15:59:11.118424,0,0,-3,0,0,0,77,78,123,100,64,192.47,193,-9.00,-10.00,-965.00
2024-05-17 15:59:11.255258,0,0,-3,0,0,0,77,78,124,100,64,192.42,193,-8.00,28.00,-1001.00
2024-05-17 15:59:11.322683,0,0,-3,0,0,0,77,78,124,100,64,192.45,193,3.00,10.00,-960.00
2024-05-17 15:59:11.373386,0,0,-3,0,0,0,77,78,124,100,64,192.45,193,7.00,-1.00,-1018.00
2024-05-17 15:59:11.558578,0,0,-3,0,0,0,77,78,124,100,64,192.48,193,-21.00,31.00,-959.00
2024-05-17 15:59:11.579871,0,0,-3,0,0,0,76,78,125,100,64,192.47,193,0.00,17.00,-1023.00
2024-05-17 15:59:11.679323,0,0,-3,0,0,0,76,78,124,100,64,192.51,193,8.00,23.00,-964.00
2024-05-17 15:59:11.864861,0,0,-3,0,0,0,76,78,124,100,64,192.45,194,57.00,-23.00,-1002.00
2024-05-17 15:59:11.883473,-1,0,-3,0,0,0,76,78,123,100,64,192.50,194,-8.00,2.00,-950.00
2024-05-17 15:59:12.071132,-1,-1,-3,0,0,0,76,78,123,100,64,192.49,194,12.00,4.00,-997.00
2024-05-17 15:59:12.089761,-1,-1,-3,0,0,0,76,78,122,100,64,192.50,194,-4.00,23.00,-1025.00
2024-05-17 15:59:12.190495,-1,0,-3,0,0,0,76,78,122,100,64,192.48,194,-17.00,19.00,-1029.00
2024-05-17 15:59:12.292422,-1,0,-3,0,0,0,76,78,121,100,64,192.48,194,-15.00,12.00,-999.00
2024-05-17 15:59:12.480663,-1,-1,-3,0,0,0,76,78,121,100,64,192.45,194,-7.00,24.00,-1040.00
2024-05-17 15:59:12.496292,-1,0,-3,0,0,0,76,78,121,100,64,192.51,194,7.00,33.00,-985.00
2024-05-17 15:59:12.683968,-1,-1,-3,0,0,0,75,78,121,100,64,192.49,194,24.00,-2.00,-1026.00
2024-05-17 15:59:12.700154,0,0,-3,0,0,0,75,78,121,100,64,192.43,194,-39.00,38.00,-1039.00
2024-05-17 15:59:12.802058,0,0,-3,0,0,0,75,78,121,100,64,192.49,195,-11.00,18.00,-995.00
2024-05-17 15:59:12.991139,1,0,-3,0,0,0,75,78,123,100,64,192.43,195,-1.00,30.00,-1008.00
2024-05-17 15:59:13.006111,7,-1,-3,0,0,0,75,78,124,100,64,192.44,195,-5.00,28.00,-1000.00
2024-05-17 15:59:13.195830,8,0,-3,-1,0,0,75,78,125,100,64,192.45,195,0.00,29.00,-1048.00
2024-05-17 15:59:13.210047,8,-1,-3,-3,0,0,75,78,126,100,64,192.49,195,21.00,13.00,-1029.00
2024-05-17 15:59:13.402237,7,0,-3,-4,0,0,75,78,126,100,64,192.49,195,46.00,15.00,-1045.00
2024-05-17 15:59:13.414190,6,0,-3,-5,0,0,75,78,126,100,64,192.50,195,31.00,8.00,-999.00
2024-05-17 15:59:13.605700,6,0,-3,-6,0,0,75,78,126,100,64,192.48,195,42.00,22.00,-1016.00
2024-05-17 15:59:13.618570,5,0,-3,-7,0,0,75,78,127,100,64,192.45,195,25.00,-27.00,-1001.00
2024-05-17 15:59:13.811258,4,0,-3,-7,0,0,75,78,129,100,64,192.43,195,20.00,0.00,-942.00
2024-05-17 15:59:13.822061,1,-1,-3,-7,0,0,75,78,129,100,64,192.47,196,51.00,9.00,-1051.00
2024-05-17 15:59:14.018103,-1,-1,-3,-6,0,0,75,78,129,100,64,192.49,196,72.00,4.00,-966.00
2024-05-17 15:59:14.026150,-3,-1,-3,-6,0,0,75,78,130,100,64,192.51,196,60.00,2.00,-1012.00
2024-05-17 15:59:14.128159,-4,0,-3,-4,0,0,75,78,131,100,64,192.55,196,48.00,-9.00,-993.00
2024-05-17 15:59:14.322309,-3,0,-3,-4,0,0,75,78,131,100,64,192.50,196,47.00,5.00,-1011.00
2024-05-17 15:59:14.332143,-1,0,-3,-3,0,0,75,78,132,100,64,192.52,196,12.00,20.00,-1002.00
2024-05-17 15:59:14.527836,0,0,-3,-3,0,0,75,78,132,100,64,192.49,196,13.00,3.00,-1008.00
2024-05-17 15:59:14.537903,0,0,-3,-3,0,0,75,78,132,100,64,192.54,196,6.00,37.00,-951.00
2024-05-17 15:59:14.638037,0,0,-3,-3,0,0,75,78,133,100,64,192.56,196,14.00,1.00,-1017.00
2024-05-17 15:59:14.835185,-1,0,-3,-3,0,0,75,78,133,100,64,192.56,196,-21.00,-9.00,-1023.00
2024-05-17 15:59:14.842001,-1,0,-3,-3,0,0,75,78,135,100,64,192.59,197,-17.00,8.00,-957.00
2024-05-17 15:59:15.039123,-3,0,-3,-2,0,0,75,78,135,100,64,192.58,197,-31.00,10.00,-983.00
2024-05-17 15:59:15.046901,-3,2,-3,-2,0,0,75,78,137,100,64,192.54,197,3.00,28.00,-917.00
2024-05-17 15:59:15.243931,-4,4,-3,-1,0,0,75,78,137,110,64,192.55,197,-10.00,-2.00,-1015.00
2024-05-17 15:59:15.250014,-2,2,-3,0,1,0,75,78,137,110,64,192.65,197,-41.00,-10.00,-1003.00
2024-05-17 15:59:15.300933,-2,-3,-3,0,1,0,75,78,137,110,64,192.62,197,-48.00,7.00,-972.00
2024-05-17 15:59:15.403180,-1,-2,-3,0,0,0,75,78,136,110,64,192.56,197,5.00,4.00,-1016.00
2024-05-17 15:59:15.551337,-1,0,-3,0,0,0,75,78,136,110,64,192.55,197,-22.00,12.00,-1016.00
2024-05-17 15:59:15.759882,-1,0,-3,0,0,0,75,78,136,110,64,192.59,197,-9.00,0.00,-963.00
2024-05-17 15:59:15.760146,-1,1,-3,0,0,0,75,78,135,110,64,192.54,198,8.00,-22.00,-982.00
2024-05-17 15:59:15.828598,0,0,-3,0,0,0,75,78,135,110,64,192.56,198,7.00,1.00,-930.00
2024-05-17 15:59:15.913054,0,0,-3,0,0,0,75,78,135,110,64,192.56,198,-47.00,0.00,-993.00
2024-05-17 15:59:16.063411,0,0,-3,0,0,0,75,78,134,100,64,192.57,198,20.00,-11.00,-1007.00
2024-05-17 15:59:16.117053,-1,0,-3,0,0,0,75,78,134,100,64,192.54,198,30.00,-21.00,-1001.00
2024-05-17 15:59:16.267963,-1,0,-3,0,0,0,75,78,133,100,64,192.52,198,4.00,0.00,-1025.00
2024-05-17 15:59:16.323797,0,0,-3,0,0,0,75,78,133,100,64,192.62,198,-8.00,6.00,-977.00
2024-05-17 15:59:16.423148,0,0,-3,0,0,0,75,78,132,100,64,192.51,198,10.00,-21.00,-1028.00
2024-05-17 15:59:16.575902,0,0,-3,0,0,0,75,78,131,100,64,192.53,198,0.00,-21.00,-1002.00
2024-05-17 15:59:16.628411,0,0,-3,0,0,0,74,78,131,100,64,192.61,198,-32.00,0.00,-982.00
2024-05-17 15:59:16.781616,0,0,-3,0,0,0,74,78,130,100,64,192.49,199,-29.00,6.00,-998.00
2024-05-17 15:59:16.832122,0,0,-3,0,0,0,74,78,130,100,64,192.54,199,-15.00,-9.00,-1041.00
2024-05-17 15:59:16.934519,0,0,-3,0,0,0,74,78,130,100,64,192.49,199,-12.00,0.00,-949.00
2024-05-17 15:59:17.035950,0,0,-3,0,0,0,74,78,129,100,64,192.48,199,-6.00,-34.00,-1026.00
2024-05-17 15:59:17.140852,0,0,-3,0,0,0,74,78,129,100,64,192.53,199,-6.00,-25.00,-977.00
2024-05-17 15:59:17.239880,-1,0,-3,0,0,0,74,78,128,100,64,192.51,199,23.00,-4.00,-1018.00
2024-05-17 15:59:17.355374,0,0,-3,0,0,0,74,78,127,100,64,192.47,199,-24.00,-15.00,-1010.00
2024-05-17 15:59:17.443848,0,0,-3,0,0,0,74,78,126,100,64,192.52,199,-23.00,-3.00,-940.00
2024-05-17 15:59:17.546285,0,-4,-3,0,0,0,74,78,126,100,64,192.52,199,-23.00,3.00,-975.00
2024-05-17 15:59:17.647898,0,-8,-3,0,-1,0,75,77,127,100,64,192.49,199,-22.00,-25.00,-1061.00
2024-05-17 15:59:17.803844,-1,-6,-3,0,-2,0,75,77,127,100,64,192.44,200,8.00,0.00,-1098.00
2024-05-17 15:59:17.851909,-1,-3,-3,0,-3,0,75,77,125,100,64,192.48,200,-15.00,3.00,-1028.00
2024-05-17 15:59:18.008896,0,-1,-3,0,-4,0,75,77,126,100,64,192.50,200,-41.00,0.00,-1015.00
2024-05-17 15:59:18.056851,-1,1,-3,0,-3,0,75,77,125,100,64,192.47,200,49.00,19.00,-1037.00
2024-05-17 15:59:18.213814,0,1,-3,0,-2,0,75,77,125,100,64,192.45,200,-23.00,27.00,-1006.00
2024-05-17 15:59:18.261923,0,0,-3,0,-2,0,75,77,126,100,64,192.49,200,-20.00,32.00,-1001.00
2024-05-17 15:59:18.362398,0,0,-3,0,-2,0,75,77,126,100,64,192.54,200,-17.00,17.00,-972.00
2024-05-17 15:59:18.520671,0,-1,-3,0,-2,0,75,77,126,100,64,192.49,200,-13.00,11.00,-1023.00
2024-05-17 15:59:18.566214,0,-1,-3,0,-2,0,75,77,127,100,64,192.59,200,26.00,2.00,-1002.00
2024-05-17 15:59:18.725466,0,0,-3,0,-2,0,75,78,127,100,64,192.49,200,10.00,13.00,-998.00
2024-05-17 15:59:18.769760,0,0,-3,0,-2,0,75,78,127,100,64,192.50,201,-11.00,29.00,-929.00
2024-05-17 15:59:18.871966,0,0,-3,0,-2,0,75,78,128,100,63,192.55,201,0.00,14.00,-970.00
2024-05-17 15:59:18.976752,0,0,-3,0,-2,0,75,78,128,100,63,192.49,201,-57.00,32.00,-985.00
2024-05-17 15:59:19.078463,0,0,-3,0,-2,0,75,78,128,100,63,192.50,201,-8.00,22.00,-967.00
2024-05-17 15:59:19.177880,0,0,-3,0,-2,0,75,78,129,100,63,192.49,201,24.00,25.00,-1045.00
2024-05-17 15:59:19.341571,0,0,-3,0,-2,0,75,78,129,100,63,192.52,201,13.00,11.00,-1016.00
2024-05-17 15:59:19.341630,0,1,-3,0,-2,0,75,78,130,100,63,192.56,201,-17.00,25.00,-972.00
2024-05-17 15:59:19.434397,0,3,-3,0,-1,0,75,78,131,100,63,192.56,201,-32.00,31.00,-947.00
2024-05-17 15:59:19.545916,0,1,-3,0,0,0,75,78,131,100,63,192.54,201,-30.00,0.00,-1004.00
2024-05-17 15:59:19.637932,0,1,-3,0,0,0,75,77,130,100,63,192.48,201,3.00,25.00,-1009.00
2024-05-17 15:59:19.750107,0,0,-3,0,0,0,75,77,130,100,63,192.44,202,-12.00,40.00,-982.00
2024-05-17 15:59:19.842213,0,0,-3,0,0,0,75,77,130,100,63,192.56,202,-13.00,8.00,-945.00
2024-05-17 15:59:19.954416,0,0,-3,0,0,0,75,77,130,100,63,192.51,202,10.00,17.00,-991.00
2024-05-17 15:59:20.045917,0,0,-3,0,0,0,75,77,130,100,63,192.54,202,-20.00,11.00,-993.00
2024-05-17 15:59:20.148049,0,0,-3,0,0,0,75,77,131,100,63,192.51,202,19.00,-9.00,-988.00
2024-05-17 15:59:20.261464,0,0,-3,0,0,0,75,77,131,100,63,192.51,202,-25.00,19.00,-1019.00
2024-05-17 15:59:20.353614,0,0,-3,0,0,0,75,77,131,100,63,192.55,202,23.00,20.00,-1007.00
2024-05-17 15:59:20.454035,0,0,-3,0,0,0,75,77,131,100,63,192.57,202,25.00,14.00,-954.00
2024-05-17 15:59:20.568842,0,0,-3,0,0,0,75,77,131,100,63,192.52,202,16.00,18.00,-1010.00
2024-05-17 15:59:20.657859,0,0,-3,0,0,0,75,77,132,100,63,192.54,202,-25.00,-6.00,-1018.00
2024-05-17 15:59:20.776008,0,0,-3,0,0,0,75,77,132,100,63,192.60,203,10.00,8.00,-974.00
2024-05-17 15:59:20.862239,0,0,-3,0,0,0,75,77,132,100,63,192.63,203,4.00,-25.00,-982.00
2024-05-17 15:59:20.963858,0,0,-3,0,0,0,75,77,132,100,63,192.60,203,-2.00,-5.00,-1018.00
2024-05-17 15:59:21.088182,0,0,-3,0,0,0,75,77,132,100,63,192.58,203,-24.00,0.00,-1011.00
2024-05-17 15:59:21.167838,0,0,-3,0,0,0,75,77,132,100,63,192.52,203,-43.00,5.00,-1006.00
2024-05-17 15:59:21.289674,0,0,-3,0,0,0,75,77,133,100,63,192.54,203,8.00,9.00,-976.00
2024-05-17 15:59:21.372595,0,0,-3,0,0,0,75,77,133,100,63,192.58,203,-19.00,-2.00,-990.00
2024-05-17 15:59:21.491590,0,0,-3,0,0,0,75,77,133,100,63,192.51,203,-22.00,0.00,-983.00
2024-05-17 15:59:21.575624,0,0,-3,0,0,0,75,77,133,100,63,192.49,203,20.00,0.00,-991.00
2024-05-17 15:59:21.699097,0,0,-3,0,0,0,75,78,133,100,63,192.54,203,32.00,-34.00,-1017.00
2024-05-17 15:59:21.780704,0,6,-3,0,0,0,75,78,134,100,63,192.50,204,2.00,-1.00,-1005.00
2024-05-17 15:59:21.900663,0,8,-3,0,1,0,75,78,135,100,63,192.47,204,7.00,17.00,-1023.00
2024-05-17 15:59:21.984481,0,6,-3,0,2,0,75,78,133,100,63,192.53,204,18.00,-6.00,-990.00
2024-05-17 15:59:22.104620,0,3,-3,0,3,0,75,78,133,100,63,192.55,204,-2.00,3.00,-984.00
2024-05-17 15:59:22.187709,0,0,-3,0,4,0,75,78,131,100,63,192.54,204,-23.00,-11.00,-1014.00
2024-05-17 15:59:22.310443,0,-1,-3,0,3,0,75,78,131,100,63,192.56,204,4.00,-33.00,-987.00
2024-05-17 15:59:22.391720,0,0,-3,0,2,0,75,78,130,100,63,192.51,204,-1.00,-15.00,-1019.00
2024-05-17 15:59:22.517102,0,0,-3,0,2,0,75,78,130,100,63,192.50,204,-7.00,-23.00,-1011.00
2024-05-17 15:59:22.595530,0,0,-3,0,2,0,75,78,130,100,63,192.53,204,8.00,-20.00,-1016.00
2024-05-17 15:59:22.719079,0,1,-3,0,2,0,75,77,129,100,63,192.51,204,-24.00,1.00,-979.00
2024-05-17 15:59:22.800177,0,1,-3,0,2,0,75,77,129,100,62,192.47,205,-28.00,-6.00,-999.00
2024-05-17 15:59:22.923792,0,1,-3,0,2,0,75,77,129,100,62,192.47,205,-4.00,-3.00,-1013.00
2024-05-17 15:59:23.003654,0,0,-3,0,2,0,75,77,128,100,62,192.47,205,3.00,-34.00,-1036.00
2024-05-17 15:59:23.128595,0,0,-3,0,2,0,75,77,129,100,62,192.43,205,-5.00,-12.00,-1020.00
2024-05-17 15:59:23.156652,0,0,-3,0,2,0,75,77,129,100,62,192.49,205,7.00,-36.00,-952.00
2024-05-17 15:59:23.333414,0,0,-3,0,2,0,75,77,128,100,62,192.48,205,8.00,-41.00,-1014.00
2024-05-17 15:59:23.360646,0,0,-3,0,2,0,75,77,128,100,62,192.50,205,-10.00,0.00,-1038.00
2024-05-17 15:59:23.538466,0,0,-3,0,2,0,75,77,128,100,62,192.51,205,-18.00,-33.00,-961.00
2024-05-17 15:59:23.564849,0,-3,-3,0,1,0,75,77,130,100,62,192.49,205,-4.00,-42.00,-1030.00
2024-05-17 15:59:23.743014,-1,-3,-3,0,1,0,75,78,129,100,62,192.51,205,-38.00,-19.00,-955.00
2024-05-17 15:59:23.768656,-1,-1,-3,0,0,0,75,78,128,100,62,192.46,206,-15.00,-3.00,-960.00
2024-05-17 15:59:23.949568,0,0,-3,0,0,0,75,78,128,100,62,192.49,206,-5.00,5.00,-1014.00
2024-05-17 15:59:23.972699,0,0,-3,0,0,0,75,78,128,100,62,192.43,206,-14.00,2.00,-988.00
2024-05-17 15:59:24.155850,0,0,-3,0,0,0,75,78,127,100,62,192.49,206,-32.00,10.00,-972.00
2024-05-17 15:59:24.176714,-1,0,-3,0,0,0,75,78,127,100,62,192.46,206,-3.00,3.00,-983.00
2024-05-17 15:59:24.361076,-1,0,-3,0,0,0,75,78,126,100,62,192.43,206,-40.00,0.00,-987.00
2024-05-17 15:59:24.380592,-1,0,-3,0,0,0,75,78,126,100,62,192.45,206,14.00,-17.00,-996.00
2024-05-17 15:59:24.562356,-1,0,-3,0,0,0,75,78,126,100,62,192.47,206,-16.00,-10.00,-1014.00
2024-05-17 15:59:24.586500,0,0,-3,0,0,0,75,78,126,100,62,192.44,206,-4.00,16.00,-1001.00
2024-05-17 15:59:24.687057,0,0,-3,0,0,0,76,77,126,100,62,192.39,206,6.00,6.00,-996.00
2024-05-17 15:59:24.869542,0,0,-3,0,0,0,76,77,125,100,62,192.45,207,12.00,-12.00,-1030.00
2024-05-17 15:59:24.890573,0,0,-3,0,0,0,76,77,125,100,62,192.43,207,-32.00,30.00,-975.00
2024-05-17 15:59:25.074395,0,0,-3,0,0,0,76,77,124,100,62,192.38,207,-2.00,-26.00,-1022.00
2024-05-17 15:59:25.094589,0,0,-3,0,0,0,76,77,124,100,62,192.39,207,-27.00,26.00,-974.00
2024-05-17 15:59:25.279656,0,0,-3,0,0,0,76,77,123,100,62,192.44,207,-26.00,3.00,-1000.00
2024-05-17 15:59:25.298802,-1,0,-3,0,0,0,76,77,123,100,62,192.40,207,-12.00,-16.00,-1009.00
2024-05-17 15:59:25.483924,-1,0,-3,0,0,0,76,77,123,100,62,192.35,207,12.00,-6.00,-1005.00
2024-05-17 15:59:25.502715,-1,0,-3,0,0,0,76,77,124,100,62,192.37,207,-26.00,-11.00,-1006.00
2024-05-17 15:59:25.606692,-1,0,-3,0,0,0,76,77,123,100,62,192.39,207,0.00,7.00,-971.00
2024-05-17 15:59:25.707055,-1,0,-3,0,0,0,75,77,123,100,62,192.39,207,-38.00,11.00,-951.00
2024-05-17 15:59:25.808405,0,0,-3,0,0,0,75,77,123,100,62,192.45,208,-7.00,-25.00,-1043.00
2024-05-17 15:59:25.995715,0,0,-3,0,0,0,75,77,123,100,62,192.41,208,31.00,-30.00,-977.00
2024-05-17 15:59:26.016264,0,0,2,0,0,0,75,77,123,100,62,192.45,208,8.00,30.00,-961.00
2024-05-17 15:59:26.114931,0,0,7,0,0,0,75,77,124,100,62,192.41,208,-5.00,-21.00,-1005.00
2024-05-17 15:59:26.305972,0,0,13,0,0,0,75,77,125,100,62,192.46,208,2.00,-5.00,-926.00
2024-05-17 15:59:26.318350,0,0,19,0,0,0,75,77,126,100,62,192.40,208,-2.00,15.00,-1039.00
2024-05-17 15:59:26.507733,0,0,25,0,0,0,75,77,126,100,62,192.43,208,13.00,-25.00,-980.00
2024-05-17 15:59:26.522704,0,0,31,0,0,0,75,77,127,100,62,192.41,208,-19.00,-16.00,-1000.00
2024-05-17 15:59:26.624366,0,0,37,0,0,0,75,77,127,100,62,192.44,208,-1.00,-22.00,-1035.00
2024-05-17 15:59:26.814909,0,0,43,0,0,0,76,78,128,100,62,192.56,208,-1.00,4.00,-1035.00
2024-05-17 15:59:26.828542,0,0,49,0,0,0,76,78,128,100,62,192.49,209,-10.00,3.00,-973.00
2024-05-17 15:59:27.019698,0,0,55,0,0,0,76,78,129,100,62,192.55,209,-18.00,4.00,-1002.00
2024-05-17 15:59:27.019779,0,0,62,0,0,0,76,78,130,100,62,192.53,209,6.00,2.00,-979.00
2024-05-17 15:59:27.083991,0,0,68,0,0,0,76,78,130,100,62,192.46,209,28.00,-10.00,-984.00
2024-05-17 15:59:27.229642,0,0,74,0,0,0,76,78,131,100,62,192.52,209,30.00,-5.00,-993.00
2024-05-17 15:59:27.287377,0,0,80,0,0,0,76,78,132,100,62,192.50,209,23.00,-8.00,-979.00
2024-05-17 15:59:27.429399,0,0,86,0,0,0,76,78,130,100,62,192.52,209,1.00,3.00,-952.00
2024-05-17 15:59:27.491380,0,0,92,0,0,0,76,78,130,100,62,192.51,209,25.00,-22.00,-1036.00
2024-05-17 15:59:27.593796,0,0,99,0,0,0,76,78,129,100,62,192.47,209,-6.00,-10.00,-1020.00
2024-05-17 15:59:27.746478,0,0,105,0,0,0,75,77,128,100,62,192.44,209,13.00,0.00,-968.00
2024-05-17 15:59:27.798632,0,0,111,0,0,0,75,77,127,100,61,192.46,210,18.00,-12.00,-1010.00
2024-05-17 15:59:27.941292,0,0,117,0,0,0,75,77,126,100,61,192.44,210,21.00,-26.00,-1006.00
2024-05-17 15:59:28.001317,0,0,123,0,0,0,75,77,125,100,61,192.43,210,48.00,-24.00,-1022.00
2024-05-17 15:59:28.103301,0,0,130,0,0,0,75,77,123,100,61,192.47,210,3.00,-1.00,-1020.00
2024-05-17 15:59:28.254247,0,0,136,0,0,0,75,77,122,100,61,192.46,210,-30.00,-19.00,-988.00
2024-05-17 15:59:28.307298,0,0,142,0,0,0,75,77,123,100,61,192.43,210,1.00,-8.00,-990.00
2024-05-17 15:59:28.455971,0,0,148,0,0,0,75,77,123,100,61,192.50,210,-6.00,15.00,-1030.00
2024-05-17 15:59:28.511291,0,0,154,0,0,0,75,77,123,100,61,192.47,210,-26.00,-19.00,-1017.00
2024-05-17 15:59:28.613448,0,0,160,0,0,0,75,77,123,100,61,192.46,210,30.00,-12.00,-1024.00
2024-05-17 15:59:28.761313,0,0,166,0,0,0,75,78,123,100,61,192.44,210,-8.00,23.00,-1000.00
2024-05-17 15:59:28.817343,0,0,172,0,0,0,75,78,124,100,61,192.47,211,-10.00,-15.00,-990.00
2024-05-17 15:59:28.965291,0,0,179,0,0,0,75,78,124,100,61,192.43,211,3.00,-19.00,-989.00
2024-05-17 15:59:29.021321,0,0,-174,0,0,0,75,78,124,100,61,192.38,211,-30.00,-14.00,-937.00
2024-05-17 15:59:29.172730,0,0,-168,0,0,0,75,78,124,100,61,192.45,211,3.00,13.00,-1021.00
2024-05-17 15:59:29.225316,0,0,-163,0,0,0,75,78,125,100,61,192.40,211,-12.00,-25.00,-1083.00
2024-05-17 15:59:29.374882,0,0,-157,0,0,0,75,78,126,100,61,192.40,211,-24.00,20.00,-944.00
2024-05-17 15:59:29.429184,0,0,-151,0,0,0,75,78,126,100,61,192.39,211,3.00,-9.00,-974.00
2024-05-17 15:59:29.579704,0,0,-145,0,0,0,75,78,124,100,61,192.37,211,-9.00,0.00,-981.00
2024-05-17 15:59:29.633615,0,0,-139,0,0,0,75,78,124,100,61,192.39,211,15.00,-19.00,-1002.00
2024-05-17 15:59:29.737293,0,0,-127,0,0,0,75,78,123,100,61,192.45,212,17.00,21.00,-992.00
2024-05-17 15:59:29.837203,0,0,-121,0,0,0,75,78,123,100,61,192.44,212,-25.00,9.00,-937.00
2024-05-17 15:59:29.939747,0,0,-114,0,0,0,75,78,122,100,61,192.37,212,-28.00,-17.00,-997.00
2024-05-17 15:59:30.041212,-1,0,-108,0,0,0,75,78,123,100,61,192.44,212,-12.00,-4.00,-1032.00
2024-05-17 15:59:30.145769,-1,0,-102,0,0,0,75,78,123,100,61,192.45,212,-53.00,-18.00,-955.00
2024-05-17 15:59:30.245187,-1,0,-96,0,0,0,75,78,123,100,61,192.45,212,-7.00,-18.00,-1077.00
2024-05-17 15:59:30.347283,-1,0,-90,0,0,0,75,78,123,100,61,192.31,212,-8.00,-19.00,-983.00
2024-05-17 15:59:30.504894,0,0,-84,0,0,0,75,78,123,100,61,192.38,212,-15.00,-4.00,-1004.00
2024-05-17 15:59:30.551312,0,0,-78,0,0,0,75,78,124,100,61,192.43,212,-34.00,-5.00,-976.00
2024-05-17 15:59:30.653710,0,0,-72,0,0,0,75,78,124,100,61,192.40,212,-44.00,3.00,-1021.00
2024-05-17 15:59:30.755428,-1,0,-65,0,0,0,76,78,125,100,61,192.41,213,-21.00,13.00,-984.00
2024-05-17 15:59:30.857263,0,0,-59,0,0,0,76,78,125,100,61,192.43,213,-15.00,19.00,-984.00
2024-05-17 15:59:31.013373,0,0,-53,0,0,0,76,78,124,100,61,192.43,213,-32.00,13.00,-1009.00
2024-05-17 15:59:31.061233,0,0,-47,0,0,0,76,78,124,100,61,192.46,213,22.00,-4.00,-1038.00
2024-05-17 15:59:31.112105,0,0,-41,0,0,0,76,78,123,100,61,192.38,213,12.00,-26.00,-1001.00
2024-05-17 15:59:31.218125,0,0,-34,0,0,0,76,78,123,100,61,192.46,213,-34.00,8.00,-959.00
2024-05-17 15:59:31.316636,0,0,-28,0,0,0,76,78,123,100,61,192.50,213,27.00,-29.00,-1011.00
2024-05-17 15:59:31.425814,0,0,-22,0,0,0,76,78,123,100,61,192.44,213,15.00,-19.00,-981.00
2024-05-17 15:59:31.520197,0,0,-17,0,0,0,76,78,123,100,61,192.43,213,-23.00,25.00,-984.00
2024-05-17 15:59:31.622212,0,0,-14,0,0,0,76,78,122,100,61,192.35,213,-24.00,10.00,-996.00
2024-05-17 15:59:31.730092,0,0,-11,0,0,0,75,78,122,100,61,192.44,214,-13.00,12.00,-1022.00
2024-05-17 15:59:31.826191,0,0,-9,0,0,0,75,78,122,100,61,192.45,214,-36.00,15.00,-1010.00
2024-05-17 15:59:31.934909,0,0,-7,0,0,0,75,78,121,100,61,192.40,214,3.00,7.00,-1002.00
2024-05-17 15:59:32.030156,0,0,-6,0,0,0,75,78,121,100,61,192.43,214,-17.00,1.00,-1031.00
2024-05-17 15:59:32.132358,0,0,-5,0,0,0,75,78,122,100,61,192.41,214,-19.00,-6.00,-1034.00
2024-05-17 15:59:32.242244,0,0,-4,0,0,0,75,78,122,100,61,192.39,214,7.00,3.00,-986.00
2024-05-17 15:59:32.336100,0,0,-4,0,0,0,75,78,122,100,61,192.39,214,14.00,-9.00,-985.00
2024-05-17 15:59:32.438122,0,0,-4,0,0,0,75,78,122,100,61,192.38,214,-32.00,13.00,-989.00
2024-05-17 15:59:32.552435,0,0,-4,0,0,0,75,78,122,100,61,192.39,214,-14.00,14.00,-1032.00
2024-05-17 15:59:32.642114,0,0,-4,0,0,0,75,78,121,100,61,192.38,214,15.00,-11.00,-1037.00
2024-05-17 15:59:32.754558,0,0,-4,0,0,0,75,77,122,100,61,192.44,215,12.00,1.00,-1009.00
2024-05-17 15:59:32.846734,0,0,-4,0,0,0,75,77,122,100,60,192.45,215,-44.00,26.00,-1033.00
2024-05-17 15:59:32.958946,0,0,-4,0,0,0,75,77,122,100,60,192.42,215,50.00,-3.00,-968.00
2024-05-17 15:59:33.050592,0,0,-4,0,0,0,75,77,123,100,60,192.42,215,14.00,-27.00,-970.00
2024-05-17 15:59:33.163870,0,0,-4,0,0,0,75,77,123,100,60,192.43,215,-3.00,-14.00,-1044.00
2024-05-17 15:59:33.255399,0,0,-4,0,0,0,75,77,123,100,60,192.40,215,69.00,-29.00,-965.00
2024-05-17 15:59:33.368554,0,0,-4,0,0,0,75,77,123,100,60,192.41,215,4.00,-12.00,-999.00
2024-05-17 15:59:33.458231,0,0,-4,0,0,0,75,77,124,100,60,192.45,215,-5.00,-9.00,-1008.00
2024-05-17 15:59:33.573774,0,0,-4,0,0,0,75,77,123,100,60,192.45,215,-21.00,20.00,-1025.00
2024-05-17 15:59:33.662249,0,0,-4,0,0,0,75,77,124,100,60,192.42,215,-17.00,5.00,-1001.00
2024-05-17 15:59:33.778478,0,0,-4,0,0,0,74,78,124,100,60,192.45,216,-8.00,9.00,-1008.00
2024-05-17 15:59:33.872612,0,0,-4,0,0,0,74,78,124,100,60,192.49,216,8.00,-12.00,-962.00
2024-05-17 15:59:33.968703,0,0,-4,0,0,0,74,78,124,100,60,192.47,216,13.00,0.00,-955.00
2024-05-17 15:59:34.071179,0,0,-4,0,0,0,74,78,124,100,60,192.46,216,-7.00,17.00,-984.00
2024-05-17 15:59:34.173099,0,0,-4,0,0,0,74,78,124,100,60,192.46,216,41.00,-12.00,-1016.00
2024-05-17 15:59:34.275777,0,0,-4,0,0,0,74,78,124,100,60,192.45,216,11.00,3.00,-994.00
2024-05-17 15:59:34.379796,0,0,-10,0,0,0,74,78,125,100,60,192.39,216,76.00,-38.00,-997.00
2024-05-17 15:59:34.480646,0,0,-16,0,0,0,74,78,125,100,60,192.46,216,26.00,12.00,-956.00
2024-05-17 15:59:34.580172,0,0,-23,0,0,0,74,78,125,100,60,192.37,216,23.00,4.00,-1112.00
2024-05-17 15:59:34.683306,0,0,-29,0,0,0,74,78,126,100,60,192.45,216,-6.00,24.00,-963.00
2024-05-17 15:59:34.785085,0,0,-35,0,0,0,75,77,126,100,60,192.38,217,-14.00,-10.00,-1036.00
2024-05-17 15:59:34.887002,0,0,-41,0,0,0,75,77,126,100,60,192.41,217,3.00,-4.00,-965.00
2024-05-17 15:59:35.009242,0,0,-47,0,0,0,75,77,126,100,60,192.44,217,-31.00,20.00,-983.00
2024-05-17 15:59:35.039892,0,0,-53,0,0,0,75,77,125,100,60,192.45,217,-10.00,-12.00,-1034.00
2024-05-17 15:59:35.211747,0,0,-59,0,0,0,75,77,125,100,60,192.46,217,13.00,-13.00,-970.00
2024-05-17 15:59:35.244329,0,0,-65,0,0,0,75,77,125,100,60,192.47,217,4.00,4.00,-970.00
2024-05-17 15:59:35.422318,0,0,-71,0,0,0,75,77,124,100,60,192.41,217,15.00,-11.00,-993.00
2024-05-17 15:59:35.449570,0,0,-77,0,0,0,75,77,124,100,60,192.41,217,-15.00,-12.00,-1002.00
2024-05-17 15:59:35.549912,0,0,-82,0,0,0,75,77,124,100,60,192.48,217,-32.00,18.00,-986.00
2024-05-17 15:59:35.652207,0,0,-88,0,0,0,75,77,124,100,60,192.40,217,-13.00,26.00,-991.00
2024-05-17 15:59:35.826057,0,0,-94,0,0,0,75,78,123,100,60,192.38,218,-29.00,0.00,-986.00
2024-05-17 15:59:35.857030,0,0,-99,0,0,0,75,78,123,100,60,192.41,218,-6.00,-11.00,-1002.00
2024-05-17 15:59:36.030849,0,0,-105,0,0,0,75,78,122,100,60,192.37,218,12.00,-38.00,-1006.00
2024-05-17 15:59:36.060281,0,0,-111,0,0,0,75,78,122,100,60,192.39,218,-33.00,13.00,-1003.00
2024-05-17 15:59:36.237472,0,0,-117,0,0,0,75,78,122,100,60,192.39,218,-2.00,-35.00,-1008.00
2024-05-17 15:59:36.264049,0,0,-123,0,0,0,75,78,122,100,60,192.33,218,-7.00,-30.00,-998.00
2024-05-17 15:59:36.443242,-1,0,-129,0,0,0,75,78,121,100,60,192.41,218,-25.00,-9.00,-1006.00
2024-05-17 15:59:36.470056,0,0,-135,0,0,0,75,78,121,100,60,192.41,218,-6.00,-19.00,-969.00
2024-05-17 15:59:36.570568,0,0,-141,0,0,0,75,78,121,100,60,192.35,218,-54.00,4.00,-1035.00
2024-05-17 15:59:36.672346,-1,0,-147,0,0,0,75,78,121,100,60,192.41,218,14.00,-21.00,-1012.00
2024-05-17 15:59:36.774054,0,0,-153,0,0,0,75,78,120,100,60,192.42,219,2.00,-16.00,-965.00
2024-05-17 15:59:36.952480,-1,0,-159,0,0,0,75,78,121,100,60,192.37,219,-14.00,0.00,-1045.00
2024-05-17 15:59:36.979877,0,0,-165,0,0,0,75,78,121,100,60,192.48,219,-52.00,-3.00,-1024.00
2024-05-17 15:59:37.080285,0,0,-171,0,0,0,75,78,121,100,60,192.32,219,-4.00,-19.00,-1015.00
2024-05-17 15:59:37.263028,0,0,-177,0,0,0,75,78,121,100,60,192.40,219,-53.00,3.00,-1007.00
2024-05-17 15:59:37.284794,0,0,176,0,0,0,75,78,121,100,60,192.41,219,-5.00,-25.00,-1008.00
2024-05-17 15:59:37.468661,0,0,170,0,0,0,75,78,122,100,60,192.39,219,-49.00,16.00,-986.00
2024-05-17 15:59:37.487872,0,0,164,0,0,0,75,78,122,100,60,192.40,219,-15.00,-5.00,-1026.00
2024-05-17 15:59:37.669186,0,0,158,0,0,0,75,78,123,100,60,192.38,219,12.00,-12.00,-1022.00
2024-05-17 15:59:37.691775,0,0,152,0,0,0,75,78,123,100,60,192.34,219,-13.00,5.00,-1029.00
2024-05-17 15:59:37.874569,0,0,147,0,0,0,75,78,124,100,60,192.42,220,-10.00,-7.00,-1012.00
2024-05-17 15:59:37.895813,0,0,141,0,0,0,75,78,124,100,60,192.41,220,18.00,-35.00,-956.00
2024-05-17 15:59:38.079064,0,0,135,0,0,0,75,78,124,100,60,192.36,220,-9.00,3.00,-975.00
2024-05-17 15:59:38.100756,0,0,129,0,0,0,75,78,125,100,60,192.41,220,35.00,-30.00,-1018.00
2024-05-17 15:59:38.283598,0,0,123,0,0,0,75,78,125,100,60,192.37,220,38.00,-43.00,-974.00
2024-05-17 15:59:38.304845,0,0,117,0,0,0,75,78,125,100,60,192.43,220,-8.00,-10.00,-984.00
2024-05-17 15:59:38.488427,0,0,111,0,0,0,75,78,126,100,60,192.43,220,-8.00,10.00,-997.00
2024-05-17 15:59:38.508810,0,0,104,0,0,0,75,78,126,100,60,192.43,220,-22.00,16.00,-976.00
2024-05-17 15:59:38.693435,0,0,98,0,0,0,75,78,126,100,60,192.49,220,-4.00,9.00,-964.00
2024-05-17 15:59:38.715769,0,0,92,0,0,0,75,78,126,100,60,192.36,220,21.00,-20.00,-993.00
2024-05-17 15:59:38.814820,0,0,86,0,0,0,74,77,126,100,60,192.39,221,29.00,-7.00,-1008.00
2024-05-17 15:59:39.000405,0,0,80,0,0,0,74,77,126,100,60,192.46,221,65.00,-24.00,-1015.00
2024-05-17 15:59:39.018944,0,0,74,0,0,0,74,77,127,100,60,192.38,221,31.00,-1.00,-1002.00
2024-05-17 15:59:39.206827,0,0,68,0,0,0,74,77,127,100,60,192.45,221,20.00,10.00,-999.00
2024-05-17 15:59:39.222840,0,0,61,0,0,0,74,77,127,100,60,192.45,221,-4.00,6.00,-994.00
2024-05-17 15:59:39.277888,0,0,55,0,0,0,74,77,127,100,60,192.44,221,-14.00,7.00,-964.00
2024-05-17 15:59:39.375848,0,0,49,0,0,0,74,77,127,100,60,192.42,221,-11.00,30.00,-1026.00
2024-05-17 15:59:39.515120,0,0,43,0,0,0,74,77,127,100,60,192.42,221,2.00,12.00,-997.00
2024-05-17 15:59:39.580502,0,0,37,0,0,0,74,77,126,100,60,192.38,221,14.00,-8.00,-976.00
2024-05-17 15:59:39.717249,0,0,31,0,0,0,74,77,126,100,60,192.47,221,28.00,20.00,-995.00
2024-05-17 15:59:39.785393,0,0,25,0,0,0,75,77,126,100,59,192.43,222,8.00,-11.00,-979.00
2024-05-17 15:59:39.922086,0,0,19,0,0,0,75,77,126,100,59,192.46,222,10.00,0.00,-978.00
2024-05-17 15:59:39.989458,0,0,13,0,0,0,75,77,125,100,59,192.39,222,-22.00,9.00,-1021.00
2024-05-17 15:59:40.126998,0,0,9,0,0,0,75,77,125,100,59,192.43,222,1.00,-4.00,-1000.00
2024-05-17 15:59:40.192935,0,0,5,0,0,0,75,77,125,100,59,192.43,222,-1.00,2.00,-1056.00
2024-05-17 15:59:40.331501,0,0,3,0,0,0,75,77,125,100,59,192.43,222,10.00,-7.00,-1009.00
2024-05-17 15:59:40.396804,0,0,1,0,0,0,75,77,124,100,59,192.41,222,3.00,11.00,-1028.00
2024-05-17 15:59:40.536386,0,0,0,0,0,0,75,77,124,100,59,192.40,222,8.00,14.00,-957.00
2024-05-17 15:59:40.601725,0,0,-1,0,0,0,75,77,123,100,59,192.47,222,-8.00,5.00,-1000.00
2024-05-17 15:59:40.741151,0,0,-2,0,0,0,75,77,123,100,59,192.38,222,2.00,-4.00,-1022.00
2024-05-17 15:59:40.804800,0,0,-2,0,0,0,75,78,123,100,59,192.44,223,8.00,19.00,-961.00
2024-05-17 15:59:40.946049,0,0,-2,0,0,0,75,78,122,100,59,192.41,223,-23.00,26.00,-1002.00
2024-05-17 15:59:41.008768,0,0,-2,0,0,0,75,78,122,100,59,192.40,223,24.00,7.00,-998.00
2024-05-17 15:59:41.150906,0,0,-2,0,0,0,75,78,122,100,59,192.42,223,49.00,-13.00,-994.00
2024-05-17 15:59:41.213038,0,0,-2,0,0,0,75,78,122,100,59,192.39,223,3.00,-6.00,-1091.00
2024-05-17 15:59:41.355919,0,0,-2,0,0,0,75,78,122,100,59,192.36,223,-35.00,44.00,-978.00
2024-05-17 15:59:41.416912,0,0,-2,0,0,0,75,78,122,100,59,192.41,223,-1.00,14.00,-989.00
2024-05-17 15:59:41.560671,0,0,-2,0,0,0,75,78,122,100,59,192.40,223,31.00,-15.00,-1035.00
2024-05-17 15:59:41.621837,0,0,-2,0,0,0,75,78,122,100,59,192.41,223,-6.00,19.00,-1014.00
2024-05-17 15:59:41.766342,0,0,-2,0,0,0,75,78,122,100,59,192.41,223,-16.00,-8.00,-974.00
2024-05-17 15:59:41.825013,0,0,-2,0,0,0,75,78,122,100,59,192.41,224,2.00,11.00,-1004.00
2024-05-17 15:59:41.970519,0,0,-2,0,0,0,75,78,122,100,59,192.40,224,-22.00,26.00,-978.00
2024-05-17 15:59:42.029497,0,0,-2,0,0,0,75,78,122,100,59,192.41,224,-32.00,26.00,-985.00
2024-05-17 15:59:42.130668,0,0,-2,0,0,0,75,78,122,100,59,192.36,224,-25.00,22.00,-1057.00
2024-05-17 15:59:42.277244,0,0,-2,0,0,0,75,78,123,100,59,192.46,224,19.00,-9.00,-1002.00
2024-05-17 15:59:42.335466,0,0,-2,0,0,0,75,78,123,100,59,192.43,224,-18.00,11.00,-956.00
2024-05-17 15:59:42.482258,0,0,-2,0,0,0,75,78,123,100,59,192.40,224,14.00,1.00,-1020.00
2024-05-17 15:59:42.542983,0,0,-2,0,0,0,75,78,123,100,59,192.36,224,27.00,-10.00,-1006.00
2024-05-17 15:59:42.642052,0,0,-2,0,0,0,75,78,124,100,59,192.44,224,19.00,-4.00,-1031.00
2024-05-17 15:59:42.757266,0,0,-2,0,0,0,75,78,124,100,59,192.39,224,-15.00,24.00,-994.00
2024-05-17 15:59:42.844568,0,0,-2,0,0,0,75,77,124,100,59,192.42,225,13.00,22.00,-1018.00
2024-05-17 15:59:42.993925,0,0,-2,0,0,0,75,77,125,100,59,192.51,225,-34.00,37.00,-1641.00
2024-05-17 15:59:43.048623,0,0,-2,0,0,-4,75,77,131,100,59,192.59,225,28.00,75.00,-1584.00
2024-05-17 15:59:43.151553,0,-6,-2,0,0,-10,75,77,190,110,59,192.67,225,-7.00,374.00,-1103.00
2024-05-17 15:59:43.201587,0,-85,-2,0,-4,-12,75,77,182,120,59,192.77,225,3.00,656.00,-1127.00
2024-05-17 15:59:43.303540,0,144,-1,0,-10,1,75,77,342,130,59,192.85,225,-23.00,408.00,-1285.00
2024-05-17 15:59:43.405522,0,30,-4,0,-3,11,75,77,132,120,59,192.56,225,-30.00,-115.00,-1500.00
2024-05-17 15:59:43.507570,0,0,-4,0,-1,9,75,77,122,110,59,192.40,225,-38.00,53.00,-1401.00
2024-05-17 15:59:43.615193,0,2,-4,0,-1,6,75,77,116,100,59,192.37,225,51.00,-46.00,-1405.00
2024-05-17 15:59:43.711497,0,1,-3,0,-1,2,75,77,113,90,59,192.27,225,28.00,-24.00,-1149.00
2024-05-17 15:59:43.916041,0,0,-2,0,0,0,75,77,112,90,59,192.34,226,-19.00,-6.00,-1059.00
2024-05-17 15:59:43.916313,0,0,-2,0,0,-1,75,77,111,90,59,192.29,226,-19.00,0.00,-1080.00
2024-05-17 15:59:44.018469,0,1,-2,0,0,-1,75,77,111,90,59,192.27,226,-51.00,42.00,-1027.00
2024-05-17 15:59:44.119983,0,0,-2,0,0,-1,75,77,111,90,59,192.32,226,14.00,-31.00,-956.00
2024-05-17 15:59:44.222739,0,0,-2,0,0,0,75,77,111,90,59,192.29,226,-4.00,39.00,-992.00
2024-05-17 15:59:44.325072,0,0,-2,0,0,0,75,77,112,90,59,192.22,226,-4.00,-5.00,-1010.00
2024-05-17 15:59:44.425506,0,0,-2,0,0,0,75,77,112,90,59,192.30,226,-13.00,27.00,-973.00
2024-05-17 15:59:44.527504,0,0,-2,0,0,0,75,77,112,90,59,192.34,226,-14.00,8.00,-993.00
2024-05-17 15:59:44.629455,0,0,-2,0,0,0,75,77,113,90,59,192.27,226,31.00,27.00,-1048.00
2024-05-17 15:59:44.734744,0,0,-2,0,0,0,75,77,113,90,59,192.30,227,16.00,1.00,-1060.00
2024-05-17 15:59:44.833557,0,0,-2,0,0,0,74,77,114,90,59,192.35,227,6.00,46.00,-980.00
2024-05-17 15:59:44.941976,0,0,-2,0,0,0,74,77,114,90,59,192.33,227,27.00,7.00,-1000.00
2024-05-17 15:59:45.037445,0,0,-2,0,0,0,74,77,114,90,59,192.31,227,0.00,32.00,-980.00
2024-05-17 15:59:45.153222,0,0,-2,0,0,0,74,77,115,90,59,192.31,227,16.00,22.00,-1001.00
2024-05-17 15:59:45.241433,0,0,-2,0,0,0,74,77,116,90,59,192.30,227,-14.00,27.00,-1025.00
2024-05-17 15:59:45.349234,0,0,-2,0,0,0,74,77,116,90,59,192.38,227,-32.00,33.00,-1038.00
2024-05-17 15:59:45.445430,0,0,-2,0,0,0,74,77,117,90,59,192.40,227,40.00,2.00,-977.00
2024-05-17 15:59:45.554214,0,0,-2,0,0,0,74,77,119,90,59,192.38,227,36.00,7.00,-956.00
2024-05-17 15:59:45.652043,0,0,-2,0,0,0,74,77,120,90,59,192.34,227,-43.00,34.00,-994.00
2024-05-17 15:59:45.751549,0,0,-2,0,0,0,74,77,121,90,59,192.39,228,3.00,8.00,-951.00
2024-05-17 15:59:45.863874,0,0,-2,0,0,0,75,77,122,90,58,192.41,228,24.00,-1.00,-991.00
2024-05-17 15:59:45.955880,0,0,-2,0,0,0,75,77,122,90,58,192.36,228,9.00,26.00,-985.00
2024-05-17 15:59:46.066428,0,0,-2,0,0,0,75,77,123,90,58,192.41,228,3.00,17.00,-991.00
2024-05-17 15:59:46.159852,0,0,-2,0,0,0,75,77,124,90,58,192.37,228,5.00,0.00,-994.00
2024-05-17 15:59:46.270673,0,1,-2,0,0,0,75,77,124,90,58,192.38,228,33.00,1.00,-983.00
2024-05-17 15:59:46.363559,0,0,-2,0,0,0,75,77,125,90,58,192.39,228,-24.00,26.00,-1031.00
2024-05-17 15:59:46.475751,0,0,-2,0,0,0,75,77,126,100,58,192.43,228,20.00,0.00,-973.00
2024-05-17 15:59:46.567664,0,0,-2,0,0,0,75,77,127,100,58,192.37,228,26.00,-5.00,-1000.00
2024-05-17 15:59:46.669836,0,0,-2,0,0,0,75,77,127,100,58,192.41,228,15.00,-1.00,-972.00
2024-05-17 15:59:46.721272,0,0,-2,0,0,0,75,77,128,100,58,192.40,229,19.00,0.00,-974.00
2024-05-17 15:59:46.886574,0,0,-2,0,0,0,75,77,128,100,58,192.41,229,25.00,-10.00,-1007.00
2024-05-17 15:59:46.975754,0,0,-2,0,0,0,75,77,129,100,58,192.40,229,27.00,19.00,-946.00
2024-05-17 15:59:47.090587,0,0,-2,0,0,0,75,77,129,100,58,192.37,229,-9.00,41.00,-997.00
2024-05-17 15:59:47.179717,0,0,-2,0,0,0,75,77,129,100,58,192.44,229,1.00,6.00,-969.00
2024-05-17 15:59:47.281467,0,0,-2,0,0,0,75,77,129,100,58,192.40,229,2.00,8.00,-1016.00
2024-05-17 15:59:47.397295,0,0,-2,0,0,0,75,77,129,100,58,192.39,229,-15.00,27.00,-998.00
2024-05-17 15:59:47.434499,0,0,-2,0,0,0,75,77,129,100,58,192.39,229,-2.00,5.00,-984.00
2024-05-17 15:59:47.602189,0,0,-2,0,0,0,75,77,129,100,58,192.45,229,-45.00,35.00,-977.00
2024-05-17 15:59:47.642651,0,0,-2,0,0,0,75,77,129,100,58,192.45,229,18.00,-8.00,-966.00
2024-05-17 15:59:47.742723,0,0,-2,0,0,0,75,77,128,100,58,192.41,230,-22.00,23.00,-962.00
2024-05-17 15:59:47.842374,0,0,-2,0,0,0,75,77,128,100,57,192.44,230,-24.00,9.00,-955.00
2024-05-17 15:59:48.011551,0,0,-2,0,0,0,75,77,128,100,57,192.45,230,-5.00,36.00,-968.00
2024-05-17 15:59:48.046734,0,0,-2,0,0,0,75,77,127,100,57,192.45,230,-20.00,4.00,-1005.00
2024-05-17 15:59:48.149319,0,0,-2,0,0,0,75,77,126,100,57,192.46,230,19.00,29.00,-988.00
2024-05-17 15:59:48.324759,0,0,-2,0,0,0,75,77,125,100,57,192.46,230,26.00,-79.00,-995.00
2024-05-17 15:59:48.352455,0,0,-2,0,0,0,75,77,124,100,57,192.44,230,21.00,-95.00,-1028.00
2024-05-17 15:59:48.524600,0,0,-2,0,0,0,75,77,123,100,57,192.48,230,72.00,-152.00,-961.00
2024-05-17 15:59:48.556432,0,0,-2,0,0,0,75,77,122,90,57,192.43,230,58.00,-43.00,-1018.00
2024-05-17 15:59:48.665741,0,0,-2,0,0,0,75,77,121,90,57,192.46,230,7.00,-36.00,-1074.00
2024-05-17 15:59:48.762575,0,0,-2,0,0,0,75,77,120,90,57,192.41,231,-45.00,30.00,-1033.00
2024-05-17 15:59:48.862600,0,0,-2,0,0,0,74,77,119,90,57,192.46,231,-6.00,39.00,-1004.00
2024-05-17 15:59:49.035704,0,0,-2,0,0,0,74,77,119,90,57,192.41,231,1.00,0.00,-1035.00
2024-05-17 15:59:49.066732,0,0,-2,0,0,0,74,77,119,90,57,192.38,231,-80.00,122.00,-978.00
2024-05-17 15:59:49.247875,0,0,-2,0,0,0,74,77,119,90,57,192.37,231,0.00,75.00,-1039.00
2024-05-17 15:59:49.270682,0,0,-2,0,0,0,74,77,119,90,57,192.31,231,57.00,-18.00,-1022.00
2024-05-17 15:59:49.372543,0,0,-2,0,0,0,74,77,120,90,57,192.33,231,5.00,54.00,-1074.00
2024-05-17 15:59:49.548346,0,0,-2,0,0,0,74,77,120,90,57,192.50,231,30.00,-29.00,-1484.00
2024-05-17 15:59:49.577302,0,0,0,0,0,-5,74,77,125,90,57,192.61,231,47.00,-39.00,-1722.00
2024-05-17 15:59:49.678286,-2,16,7,0,0,-12,74,77,147,100,57,192.76,231,5.00,23.00,-1752.00
2024-05-17 15:59:49.856652,-15,114,-6,0,7,-10,74,77,313,120,57,192.90,232,263.00,837.00,-1228.00
2024-05-17 15:59:49.883733,17,-119,-12,0,9,5,74,77,273,120,57,192.88,232,275.00,913.00,-895.00
2024-05-17 15:59:49.985290,4,-11,21,0,2,11,74,77,139,110,57,192.84,232,206.00,385.00,-939.00
2024-05-17 15:59:50.086395,-3,7,25,0,4,9,74,77,129,100,57,192.30,232,-25.00,15.00,-1451.00
2024-05-17 15:59:50.268899,1,-4,26,0,5,5,74,77,122,90,57,192.44,232,23.00,-69.00,-1411.00
2024-05-17 15:59:50.292334,2,-5,21,0,3,2,74,77,118,90,57,192.46,232,-41.00,-1.00,-1147.00
2024-05-17 15:59:50.470558,0,-3,10,0,2,0,74,77,117,90,57,192.30,232,26.00,-59.00,-1107.00
2024-05-17 15:59:50.497068,-1,-2,0,0,1,0,74,77,116,90,57,192.27,232,12.00,5.00,-1038.00
2024-05-17 15:59:50.599483,-1,-1,-3,0,2,-1,74,77,118,90,57,192.35,232,-19.00,-21.00,-1017.00
2024-05-17 15:59:50.649371,-1,-1,-4,0,1,-1,74,77,119,90,57,192.38,232,6.00,-12.00,-1041.00
2024-05-17 15:59:50.752080,0,-1,-3,0,1,-1,74,77,120,90,57,192.36,233,-43.00,16.00,-943.00
2024-05-17 15:59:50.903392,0,-3,-3,0,1,-1,74,77,122,90,57,192.39,233,-9.00,-5.00,-988.00
2024-05-17 15:59:50.954791,0,-4,-3,0,0,0,74,77,124,90,57,192.36,233,-51.00,-14.00,-978.00
2024-05-17 15:59:51.084493,0,-2,-3,0,0,0,74,77,124,90,57,192.38,233,21.00,-8.00,-948.00
2024-05-17 15:59:51.160338,0,-1,-3,0,0,0,74,77,125,90,57,192.40,233,-39.00,5.00,-965.00
2024-05-17 15:59:51.260161,0,0,-3,0,0,0,74,77,125,90,57,192.39,233,2.00,-4.00,-978.00
2024-05-17 15:59:51.395708,0,0,-3,0,0,0,74,77,126,90,57,192.40,233,-14.00,12.00,-964.00
2024-05-17 15:59:51.464277,0,0,-3,0,0,0,74,77,127,90,57,192.45,233,-17.00,-11.00,-984.00
2024-05-17 15:59:51.596349,0,0,-3,0,0,0,74,77,127,90,57,192.42,233,-15.00,-12.00,-1006.00
2024-05-17 15:59:51.668118,0,-1,-3,0,0,0,74,77,128,90,57,192.46,233,-19.00,-10.00,-983.00
2024-05-17 15:59:51.804885,0,-1,-3,0,0,0,74,77,128,90,56,192.38,234,21.00,-10.00,-1020.00
2024-05-17 15:59:51.872204,0,-1,-3,0,0,0,75,77,129,90,56,192.39,234,-11.00,-14.00,-992.00
2024-05-17 15:59:52.007431,0,-1,-3,0,0,0,75,77,129,90,56,192.42,234,-28.00,30.00,-962.00
2024-05-17 15:59:52.076402,0,-1,-3,0,0,0,75,77,129,90,56,192.45,234,47.00,-10.00,-1003.00
