TS,pitch,roll,yaw,vgx,vgy,vgz,templ,temph,tof,h,bat,baro,time,agx,agy,agz
2024-06-07 15:13:33.420119,0,0,-8,0,0,0,87,89,10,0,61,158.85,304,3.00,11.00,-997.00
2024-06-07 15:13:33.522407,0,0,-8,0,0,0,87,89,10,0,61,158.89,304,4.00,10.00,-996.00
2024-06-07 15:13:33.681233,0,0,-8,0,0,0,87,89,10,0,61,158.88,304,5.00,11.00,-998.00
2024-06-07 15:13:33.725966,0,0,-8,0,0,0,87,89,10,0,61,158.80,304,3.00,12.00,-998.00
2024-06-07 15:13:33.885860,0,0,-8,0,0,0,86,89,10,0,61,158.87,304,4.00,10.00,-997.00
2024-06-07 15:13:33.929861,0,0,-8,0,0,0,86,89,10,0,61,158.87,304,2.00,10.00,-1001.00
2024-06-07 15:13:34.091964,0,0,-8,0,0,0,86,89,10,0,61,158.86,304,4.00,11.00,-1000.00
2024-06-07 15:13:34.133940,0,0,-8,0,0,0,86,89,10,0,61,158.91,304,4.00,11.00,-997.00
2024-06-07 15:13:34.296142,0,0,-8,0,0,0,86,89,10,0,61,158.88,304,3.00,10.00,-998.00
2024-06-07 15:13:34.338924,0,0,-8,0,0,0,86,89,10,0,61,158.82,304,5.00,11.00,-998.00
2024-06-07 15:13:34.503330,0,0,-8,0,0,0,86,89,10,0,61,158.84,304,5.00,12.00,-998.00
2024-06-07 15:13:34.543008,0,0,-8,0,0,0,86,89,10,0,61,158.90,304,2.00,12.00,-1000.00
2024-06-07 15:13:34.644976,0,0,-8,0,0,0,86,89,10,0,61,158.91,304,2.00,12.00,-998.00
2024-06-07 15:13:34.807565,0,0,-8,0,0,0,86,89,10,0,61,158.92,304,4.00,11.00,-1000.00
2024-06-07 15:13:34.849059,0,0,-8,0,0,0,87,89,10,0,61,158.93,304,4.00,12.00,-999.00
2024-06-07 15:13:35.012418,0,0,-8,0,0,0,87,89,10,0,61,158.84,304,4.00,11.00,-998.00
2024-06-07 15:13:35.052971,0,0,-8,0,0,0,87,89,10,0,61,158.84,304,3.00,11.00,-1000.00
2024-06-07 15:13:35.155071,0,0,-8,0,0,0,87,89,10,0,61,158.91,304,3.00,12.00,-998.00
2024-06-07 15:13:35.205960,0,0,-8,0,0,0,87,89,10,0,61,158.91,304,3.00,11.00,-999.00
2024-06-07 15:13:35.308119,0,0,-8,0,0,0,87,89,10,0,61,158.86,304,4.00,11.00,-1003.00
2024-06-07 15:13:35.422222,0,0,-8,0,0,0,87,89,10,0,61,158.85,304,3.00,9.00,-1000.00
2024-06-07 15:13:35.511845,0,0,-8,0,0,0,87,89,10,0,61,158.89,304,4.00,11.00,-998.00
2024-06-07 15:13:35.629431,0,0,-8,0,0,0,87,89,10,0,61,158.89,304,14.00,12.00,-998.00
2024-06-07 15:13:35.715794,0,0,-8,0,0,0,87,89,10,0,61,158.89,304,9.00,-3.00,-993.00
2024-06-07 15:13:35.831371,0,0,-8,0,0,0,86,89,10,0,61,158.89,304,8.00,4.00,-992.00
2024-06-07 15:13:35.919927,0,0,-9,0,0,0,86,89,10,0,61,158.89,304,-14.00,27.00,-1012.00
2024-06-07 15:13:36.036244,0,0,-8,0,0,0,86,89,10,0,61,158.89,304,-45.00,62.00,-985.00
2024-06-07 15:13:36.123744,0,0,-8,0,0,0,86,89,10,0,61,158.89,304,9.00,-19.00,-1002.00
2024-06-07 15:13:36.240939,1,0,-7,0,0,-1,86,89,10,0,61,158.89,304,-31.00,-15.00,-1171.00
2024-06-07 15:13:36.327945,-1,0,-7,-1,0,-4,86,89,10,0,61,158.89,304,-70.00,2.00,-1405.00
2024-06-07 15:13:36.445761,-4,0,-7,-1,0,-7,86,89,15,0,61,158.89,304,-33.00,-12.00,-1199.00
2024-06-07 15:13:36.531696,-4,0,-7,-1,0,-8,86,89,22,10,61,159.21,305,-76.00,0.00,-1130.00
2024-06-07 15:13:36.650534,-4,0,-7,-1,0,-8,86,89,30,20,61,159.25,305,-68.00,28.00,-972.00
2024-06-07 15:13:36.735587,-4,0,-7,-1,0,-7,86,89,37,30,61,159.30,305,-34.00,18.00,-950.00
2024-06-07 15:13:36.837835,-4,-1,-7,-1,0,-7,87,89,44,30,61,159.33,305,-73.00,27.00,-923.00
2024-06-07 15:13:36.957787,-4,-1,-7,0,0,-6,87,89,50,40,61,159.49,305,-96.00,32.00,-908.00
2024-06-07 15:13:37.041618,-3,-1,-7,0,0,-5,87,89,56,40,61,159.52,305,-35.00,4.00,-996.00
2024-06-07 15:13:37.162552,-4,-2,-7,0,0,-4,87,89,60,50,61,159.66,305,-79.00,38.00,-902.00
2024-06-07 15:13:37.245669,-4,-2,-7,0,0,-2,87,89,63,50,61,159.68,305,-62.00,19.00,-838.00
2024-06-07 15:13:37.347784,-4,-2,-7,0,0,-1,87,89,65,50,61,159.62,305,-11.00,-4.00,-899.00
2024-06-07 15:13:37.469736,-4,-1,-7,0,0,-1,87,89,66,50,61,159.62,305,-55.00,29.00,-1048.00
2024-06-07 15:13:37.551676,-3,-1,-7,0,0,-1,87,89,67,60,61,159.57,306,-110.00,43.00,-1090.00
2024-06-07 15:13:37.674829,-3,-2,-7,0,0,-1,87,89,67,60,61,159.57,306,-51.00,1.00,-1036.00
2024-06-07 15:13:37.757588,-3,-2,-7,0,0,-1,87,89,68,60,61,159.56,306,-102.00,26.00,-993.00
2024-06-07 15:13:37.857649,-4,-1,-7,0,0,-1,87,90,67,60,61,159.59,306,-81.00,-11.00,-963.00
2024-06-07 15:13:37.981715,-5,-1,-7,0,0,-1,87,90,67,60,61,159.73,306,-45.00,-9.00,-949.00
2024-06-07 15:13:38.064620,-5,-1,-8,0,0,0,87,90,67,60,61,159.49,306,-67.00,10.00,-963.00
2024-06-07 15:13:38.163491,-4,-1,-7,0,0,0,87,90,66,60,61,159.66,306,-28.00,-4.00,-1063.00
2024-06-07 15:13:38.289218,-2,0,-7,0,0,-1,87,90,66,60,61,159.64,306,-82.00,10.00,-1094.00
2024-06-07 15:13:38.367759,-2,0,-8,0,0,0,87,90,66,60,61,159.50,306,-61.00,1.00,-1006.00
2024-06-07 15:13:38.493816,-3,0,-7,0,0,0,87,90,66,60,61,159.50,306,-40.00,2.00,-1024.00
2024-06-07 15:13:38.571650,-3,0,-7,0,0,-1,87,90,66,60,61,159.42,307,-61.00,11.00,-1003.00
2024-06-07 15:13:38.622574,-4,-1,-7,0,0,-1,87,90,66,60,61,159.51,307,-70.00,-1.00,-996.00
2024-06-07 15:13:38.800950,-4,-1,-7,0,0,-1,87,90,66,60,61,159.50,307,-68.00,11.00,-972.00
2024-06-07 15:13:38.877566,-5,-1,-7,0,0,-1,88,90,67,60,61,159.56,307,-135.00,19.00,-1041.00
2024-06-07 15:13:38.979525,-6,-1,-7,0,0,-1,88,90,66,60,61,159.65,307,-97.00,21.00,-951.00
2024-06-07 15:13:39.108414,-6,-1,-7,0,0,-1,88,90,66,60,61,159.58,307,-131.00,35.00,-995.00
2024-06-07 15:13:39.132492,-5,-1,-7,0,0,0,88,90,64,60,61,159.55,307,-95.00,20.00,-949.00
2024-06-07 15:13:39.312879,-4,-2,-7,0,0,-1,88,90,64,70,61,159.49,307,-74.00,2.00,-933.00
2024-06-07 15:13:39.337111,-4,-2,-7,0,0,-1,88,90,64,70,61,159.51,307,-67.00,33.00,-999.00
2024-06-07 15:13:39.517694,-4,-1,-7,0,0,-1,88,90,64,70,61,159.46,307,-98.00,23.00,-1046.00
2024-06-07 15:13:39.540482,-3,-1,-7,0,0,-1,88,90,63,70,61,159.50,308,-98.00,22.00,-1040.00
2024-06-07 15:13:39.644757,-3,-1,-7,0,0,-1,88,90,63,70,61,159.46,308,-41.00,1.00,-1018.00
2024-06-07 15:13:39.744482,-3,-1,-7,0,0,-1,88,90,63,70,61,159.49,308,-47.00,13.00,-1042.00
2024-06-07 15:13:39.927614,-3,-2,-7,0,0,-1,87,90,63,70,61,159.51,308,-52.00,22.00,-982.00
2024-06-07 15:13:39.948482,-4,-2,-7,0,0,-2,87,90,64,70,61,159.50,308,-47.00,19.00,-1058.00
2024-06-07 15:13:40.132429,-3,-2,-7,0,0,-2,87,90,65,80,61,159.53,308,-42.00,20.00,-1033.00
2024-06-07 15:13:40.152519,-3,-1,-7,0,0,-2,87,90,66,80,61,159.52,308,-48.00,4.00,-981.00
2024-06-07 15:13:40.337325,-3,-1,-7,0,0,-1,87,90,67,80,61,159.45,308,-29.00,-14.00,-1084.00
2024-06-07 15:13:40.356444,-3,-1,-7,0,0,-2,87,90,68,80,61,159.56,308,-33.00,-8.00,-1075.00
2024-06-07 15:13:40.459023,-3,-1,-7,0,0,-2,87,90,70,80,61,159.54,308,-20.00,31.00,-986.00
2024-06-07 15:13:40.644109,-3,-2,-7,0,0,-2,87,90,72,80,61,159.53,309,-76.00,24.00,-984.00
2024-06-07 15:13:40.662440,-3,-2,-7,0,0,-2,87,90,73,90,61,159.62,309,-28.00,26.00,-998.00
2024-06-07 15:13:40.848919,-3,-2,-7,0,0,-2,87,90,74,90,61,159.62,309,-27.00,43.00,-900.00
2024-06-07 15:13:40.869587,-1,-2,-8,1,0,-1,87,90,75,90,61,159.72,309,-20.00,5.00,-961.00
2024-06-07 15:13:40.968581,-1,-1,-8,0,0,-1,87,90,76,90,61,159.65,309,-53.00,33.00,-973.00
2024-06-07 15:13:41.156086,-1,-2,-8,0,0,-1,87,90,77,90,61,159.63,309,-80.00,37.00,-990.00
2024-06-07 15:13:41.172632,-1,-2,-8,0,0,-1,87,90,78,90,61,159.80,309,-48.00,59.00,-987.00
2024-06-07 15:13:41.361012,-2,-2,-8,0,0,-1,87,90,80,90,61,159.71,309,-63.00,51.00,-979.00
2024-06-07 15:13:41.376511,-3,-2,-8,0,0,-1,87,90,81,100,61,159.66,309,-46.00,22.00,-996.00
2024-06-07 15:13:41.566097,-3,-3,-8,0,0,-1,87,90,82,100,61,159.57,309,-65.00,33.00,-1096.00
2024-06-07 15:13:41.580499,-3,-2,-8,0,0,-1,87,90,83,100,61,159.55,310,-75.00,14.00,-983.00
2024-06-07 15:13:41.770574,-3,-2,-7,0,0,0,87,90,85,100,61,159.59,310,-120.00,10.00,-1043.00
2024-06-07 15:13:41.784489,-3,0,-7,0,0,0,87,90,86,100,61,159.57,310,-64.00,21.00,-1009.00
2024-06-07 15:13:41.975711,-3,0,-7,0,0,-1,86,89,88,100,61,159.62,310,-79.00,-8.00,-939.00
2024-06-07 15:13:41.988522,-4,0,-7,0,0,0,86,89,88,100,61,159.70,310,-84.00,38.00,-980.00
2024-06-07 15:13:42.180172,-4,0,-7,0,0,0,86,89,89,100,61,159.74,310,-67.00,34.00,-953.00
2024-06-07 15:13:42.192374,-4,-1,-8,0,0,0,86,89,90,100,61,159.67,310,-54.00,-22.00,-996.00
2024-06-07 15:13:42.384918,-3,-3,-8,0,0,0,86,89,91,100,61,159.55,310,-85.00,-19.00,-1074.00
2024-06-07 15:13:42.396403,-4,0,-7,0,-1,0,86,89,92,100,61,159.53,310,-72.00,-22.00,-981.00
2024-06-07 15:13:42.589732,-4,1,-7,0,-1,0,86,89,93,100,61,159.61,310,-41.00,-51.00,-953.00
2024-06-07 15:13:42.600991,-4,1,-7,0,-1,0,86,89,94,100,61,159.68,311,-83.00,-2.00,-917.00
2024-06-07 15:13:42.794591,-5,2,-7,0,0,0,86,89,94,100,61,159.81,311,-22.00,-18.00,-967.00
2024-06-07 15:13:42.804835,-4,1,-8,0,0,0,86,89,94,100,61,159.78,311,-63.00,-9.00,-1002.00
2024-06-07 15:13:42.999336,-3,0,-8,0,0,0,86,89,93,110,61,159.63,311,-70.00,-8.00,-1015.00
2024-06-07 15:13:43.008337,-3,0,-7,0,0,0,86,89,94,100,61,159.59,311,-46.00,-2.00,-1035.00
2024-06-07 15:13:43.059387,-3,0,-8,0,0,0,86,89,94,100,61,159.55,311,-5.00,9.00,-967.00
2024-06-07 15:13:43.204173,-3,0,-8,0,0,0,86,89,94,100,61,159.80,311,-80.00,38.00,-1040.00
2024-06-07 15:13:43.263272,-2,0,-8,0,0,0,86,89,94,100,61,159.85,311,-33.00,14.00,-965.00
2024-06-07 15:13:43.408990,-3,0,-8,0,0,0,86,89,94,100,61,159.84,311,-49.00,4.00,-937.00
2024-06-07 15:13:43.468150,-2,0,-8,0,0,0,86,89,94,110,61,159.83,311,-58.00,0.00,-975.00
2024-06-07 15:13:43.613766,-1,0,-8,0,0,0,86,89,94,110,61,159.81,312,-42.00,-22.00,-979.00
2024-06-07 15:13:43.672651,-1,0,-8,0,0,0,86,89,94,110,61,159.81,312,-71.00,-5.00,-1047.00
2024-06-07 15:13:43.819312,-2,0,-8,0,0,0,86,89,94,110,61,159.81,312,-34.00,7.00,-926.00
2024-06-07 15:13:43.876440,-2,0,-8,0,0,0,86,89,95,110,61,159.73,312,-38.00,-28.00,-1030.00
2024-06-07 15:13:44.024004,-2,0,-8,0,0,0,86,89,94,110,61,159.82,312,-111.00,2.00,-1092.00
2024-06-07 15:13:44.082096,-2,0,-8,0,0,0,86,89,94,110,61,159.78,312,-63.00,-21.00,-1005.00
2024-06-07 15:13:44.182574,-2,0,-7,0,0,0,86,89,94,110,61,159.77,312,-94.00,17.00,-1049.00
2024-06-07 15:13:44.287283,-2,0,-7,0,0,0,86,89,96,110,61,159.73,312,-32.00,7.00,-1027.00
2024-06-07 15:13:44.387762,-2,0,-7,0,0,0,86,89,95,110,61,159.78,312,-63.00,16.00,-1013.00
2024-06-07 15:13:44.489839,-2,0,-7,0,0,0,86,89,95,110,61,159.70,312,-76.00,17.00,-1060.00
2024-06-07 15:13:44.590394,-2,0,-7,0,0,0,86,89,94,110,61,159.79,313,-35.00,4.00,-954.00
2024-06-07 15:13:44.740241,-2,0,-7,0,0,0,86,89,93,110,61,159.88,313,-86.00,36.00,-998.00
2024-06-07 15:13:44.794605,-3,0,-7,0,0,0,86,89,92,110,61,159.86,313,-48.00,15.00,-964.00
2024-06-07 15:13:44.945091,-3,-1,-7,0,0,0,86,88,90,110,61,159.83,313,-53.00,25.00,-999.00
2024-06-07 15:13:45.003827,-3,-2,-7,0,0,0,86,88,90,100,61,159.78,313,-26.00,10.00,-982.00
2024-06-07 15:13:45.100453,-2,-2,-7,0,0,0,86,88,88,100,61,159.72,313,-62.00,17.00,-976.00
2024-06-07 15:13:45.252625,-2,-1,-7,0,0,0,86,88,88,100,61,159.75,313,-106.00,19.00,-999.00
2024-06-07 15:13:45.304746,-3,-1,-7,0,0,0,86,88,88,100,61,159.67,313,-50.00,4.00,-1005.00
2024-06-07 15:13:45.458641,-3,0,-7,0,0,0,86,88,88,100,61,159.76,313,-55.00,-20.00,-1036.00
2024-06-07 15:13:45.510746,-3,0,-7,0,0,0,86,88,87,100,61,159.76,313,-103.00,22.00,-997.00
2024-06-07 15:13:45.610651,-3,0,-7,0,0,0,86,88,87,100,61,159.69,314,-20.00,14.00,-994.00
2024-06-07 15:13:45.764472,-3,0,-7,0,0,0,86,88,87,100,61,159.74,314,-42.00,0.00,-1077.00
2024-06-07 15:13:45.814398,-3,-1,-7,0,0,0,86,88,88,100,61,159.72,314,-47.00,-14.00,-1048.00
2024-06-07 15:13:45.971614,-3,-1,-7,0,0,0,86,89,88,100,61,159.73,314,-88.00,35.00,-940.00
2024-06-07 15:13:46.018464,-2,-1,-7,0,0,0,86,89,89,100,61,159.81,314,-101.00,24.00,-982.00
2024-06-07 15:13:46.174212,-2,0,-7,0,0,0,86,89,90,100,61,159.74,314,-37.00,15.00,-955.00
2024-06-07 15:13:46.222860,-2,-1,-7,0,0,0,86,89,90,100,61,159.82,314,-49.00,21.00,-980.00
2024-06-07 15:13:46.324337,-2,-1,-7,0,0,0,86,89,91,100,61,159.81,314,-7.00,16.00,-947.00
2024-06-07 15:13:46.492292,-2,-1,-8,0,0,0,86,89,90,100,61,159.80,314,-46.00,34.00,-942.00
2024-06-07 15:13:46.492367,-2,-2,-8,0,0,0,86,89,91,100,61,159.81,314,-70.00,16.00,-1147.00
2024-06-07 15:13:46.579278,-2,-1,-8,0,0,-1,86,89,93,100,61,159.76,315,-49.00,6.00,-1116.00
2024-06-07 15:13:46.685685,-2,-1,-8,0,0,-2,86,89,96,110,61,159.79,315,-16.00,18.00,-1044.00
2024-06-07 15:13:46.783253,-2,0,-8,0,0,-3,86,89,99,110,61,159.84,315,-50.00,8.00,-1108.00
2024-06-07 15:13:46.890524,-2,0,-8,0,0,-4,86,88,104,110,61,159.90,315,-35.00,3.00,-984.00
2024-06-07 15:13:46.987382,-2,0,-7,0,0,-4,86,88,108,120,61,159.98,315,-31.00,-1.00,-994.00
2024-06-07 15:13:47.095307,-2,0,-7,0,0,-5,86,88,114,120,61,160.00,315,-33.00,-6.00,-988.00
2024-06-07 15:13:47.191336,-2,0,-7,0,0,-5,86,88,120,130,61,160.05,315,-15.00,27.00,-987.00
2024-06-07 15:13:47.300645,-2,0,-7,0,0,-5,86,88,127,130,61,160.10,315,-5.00,-4.00,-934.00
2024-06-07 15:13:47.395233,-2,0,-7,0,0,-5,86,88,132,140,61,160.23,315,-83.00,10.00,-1019.00
2024-06-07 15:13:47.497184,-2,0,-7,0,0,-5,86,88,138,150,61,160.24,316,-25.00,-11.00,-993.00
2024-06-07 15:13:47.607279,-2,0,-7,0,0,-5,86,88,143,150,61,160.33,316,-4.00,-6.00,-941.00
2024-06-07 15:13:47.701144,-1,0,-7,0,0,-5,86,88,150,160,61,160.38,316,-50.00,30.00,-951.00
2024-06-07 15:13:47.812046,-2,-1,-7,0,0,-4,86,88,154,160,61,160.43,316,-16.00,25.00,-980.00
2024-06-07 15:13:47.905217,-2,-1,-7,0,0,-4,85,88,161,170,61,160.47,316,-45.00,34.00,-981.00
2024-06-07 15:13:48.017187,-2,-2,-7,0,0,-4,85,88,166,170,61,160.47,316,-65.00,45.00,-963.00
2024-06-07 15:13:48.109141,-2,-2,-7,0,0,-4,85,88,170,180,61,160.57,316,-13.00,27.00,-1074.00
2024-06-07 15:13:48.221695,-2,-2,-7,0,0,-4,85,88,177,180,61,160.55,316,-110.00,61.00,-969.00
2024-06-07 15:13:48.313483,-3,-2,-7,0,0,-3,85,88,184,190,61,160.66,316,-33.00,47.00,-916.00
2024-06-07 15:13:48.528932,-3,-2,-7,0,0,-3,85,88,182,190,61,160.67,316,-44.00,43.00,-938.00
2024-06-07 15:13:48.528964,-2,-2,-7,0,0,-3,85,88,187,200,61,160.69,317,-87.00,33.00,-977.00
2024-06-07 15:13:48.619429,-3,-2,-7,0,0,-2,85,88,193,200,61,160.79,317,-44.00,27.00,-897.00
2024-06-07 15:13:48.733975,-3,-1,-7,0,0,-2,85,88,193,200,61,160.67,317,-84.00,59.00,-837.00
2024-06-07 15:13:48.823313,-3,-1,-7,0,0,-1,85,88,197,200,61,160.73,317,-55.00,45.00,-1032.00
2024-06-07 15:13:48.938630,-3,-1,-7,0,0,0,85,88,198,210,61,160.74,317,-64.00,24.00,-1049.00
2024-06-07 15:13:49.027356,-3,-1,-7,0,0,0,85,88,199,210,61,160.69,317,0.00,8.00,-942.00
2024-06-07 15:13:49.143520,-2,-1,-7,0,0,0,85,88,201,210,61,160.79,317,-45.00,43.00,-941.00
2024-06-07 15:13:49.231487,-2,-1,-7,0,0,0,85,88,199,210,61,160.74,317,-58.00,13.00,-1060.00
2024-06-07 15:13:49.333881,-2,-1,-7,0,0,0,85,88,202,210,61,160.71,317,-52.00,48.00,-968.00
2024-06-07 15:13:49.450861,-3,-1,-7,0,0,0,85,88,201,210,61,160.85,317,-56.00,41.00,-872.00
2024-06-07 15:13:49.538959,-4,-1,-7,0,0,0,85,88,204,210,61,160.77,318,-56.00,33.00,-1042.00
2024-06-07 15:13:49.639436,-4,-1,-7,0,0,0,85,88,200,210,61,160.69,318,-121.00,98.00,-1010.00
2024-06-07 15:13:49.741731,-4,-1,-7,0,0,0,85,88,202,210,61,160.70,318,-21.00,-12.00,-1021.00
2024-06-07 15:13:49.843280,-4,-2,-7,0,0,0,85,88,199,210,61,160.79,318,-100.00,42.00,-1032.00
2024-06-07 15:13:49.945473,-4,-2,-7,0,0,0,85,88,201,210,61,160.64,318,-101.00,40.00,-943.00
2024-06-07 15:13:50.064999,-4,-1,-7,0,0,0,85,88,200,210,61,160.70,318,-68.00,21.00,-1051.00
2024-06-07 15:13:50.149191,-3,-1,-7,0,0,0,85,88,201,210,61,160.75,318,-90.00,28.00,-1074.00
2024-06-07 15:13:50.251209,-4,-1,-7,0,0,0,85,88,196,210,61,160.69,318,-31.00,16.00,-945.00
2024-06-07 15:13:50.353221,-3,-2,-7,0,0,0,85,88,196,210,61,160.68,318,-27.00,29.00,-982.00
2024-06-07 15:13:50.474633,-3,-2,-7,0,0,0,85,88,199,210,61,160.64,318,-41.00,42.00,-1054.00
2024-06-07 15:13:50.557264,-3,-2,-7,0,0,0,85,88,197,210,61,160.63,319,-56.00,30.00,-975.00
2024-06-07 15:13:50.659002,-2,-1,-7,0,0,0,85,88,200,210,61,160.67,319,-67.00,44.00,-1025.00
2024-06-07 15:13:50.761037,-3,-1,-8,0,0,0,85,88,199,210,61,160.66,319,-58.00,40.00,-979.00
2024-06-07 15:13:50.812985,-3,-1,-7,0,0,0,85,88,199,210,61,160.63,319,-56.00,11.00,-984.00
2024-06-07 15:13:50.986438,-3,-1,-7,0,0,0,85,88,201,210,61,160.64,319,-75.00,41.00,-924.00
2024-06-07 15:13:51.068869,-3,-1,-7,0,0,0,85,88,203,210,61,160.62,319,-92.00,41.00,-939.00
2024-06-07 15:13:51.118024,-3,-1,-7,0,0,1,85,88,197,210,61,160.64,319,-55.00,25.00,-1024.00
2024-06-07 15:13:51.298606,-3,0,-7,0,0,1,85,88,195,210,61,160.60,319,-68.00,31.00,-1022.00
2024-06-07 15:13:51.322296,-3,-1,-7,0,0,2,85,88,193,200,61,160.63,319,-67.00,2.00,-931.00
2024-06-07 15:13:51.498454,-3,0,-7,0,0,2,85,88,191,200,61,160.63,319,-62.00,21.00,-986.00
2024-06-07 15:13:51.525990,-3,0,-7,0,0,2,85,88,191,200,61,160.54,320,-30.00,15.00,-967.00
2024-06-07 15:13:51.703265,-3,0,-7,0,0,3,85,88,186,200,61,160.61,320,-66.00,29.00,-1019.00
2024-06-07 15:13:51.729956,-3,-1,-7,0,0,3,85,88,185,190,61,160.59,320,-63.00,25.00,-986.00
2024-06-07 15:13:51.908028,-3,-1,-7,0,0,3,85,88,181,190,61,160.58,320,-42.00,31.00,-1004.00
2024-06-07 15:13:51.933937,-3,-1,-7,0,0,3,85,87,179,190,61,160.60,320,-40.00,58.00,-950.00
2024-06-07 15:13:52.112786,-2,-1,-7,0,0,3,85,87,175,180,61,160.55,320,-83.00,46.00,-1004.00
2024-06-07 15:13:52.138279,-2,-1,-7,0,0,2,85,87,171,180,61,160.49,320,-38.00,15.00,-974.00
2024-06-07 15:13:52.328289,-2,-2,-7,0,0,2,85,87,172,180,61,160.41,320,-73.00,62.00,-1027.00
2024-06-07 15:13:52.341928,-2,-2,-8,0,0,2,85,87,167,180,61,160.41,320,-50.00,11.00,-1043.00
2024-06-07 15:13:52.522467,-2,-2,-8,0,0,1,85,87,165,180,61,160.43,320,-64.00,32.00,-1025.00
2024-06-07 15:13:52.546023,-2,-2,-7,0,0,1,85,87,165,170,61,160.35,321,-73.00,40.00,-1018.00
2024-06-07 15:13:52.727200,-2,-2,-7,0,0,1,85,87,160,170,61,160.41,321,-57.00,19.00,-1061.00
2024-06-07 15:13:52.750320,-2,-1,-7,0,0,1,85,87,160,170,61,160.36,321,-64.00,24.00,-1061.00
2024-06-07 15:13:52.932017,-1,-1,-7,0,0,1,85,87,158,170,61,160.35,321,-75.00,67.00,-965.00
2024-06-07 15:13:52.953890,-2,-1,-7,0,0,1,86,88,157,170,61,160.38,321,-31.00,-13.00,-1051.00
2024-06-07 15:13:53.055958,-2,-2,-7,0,0,1,86,88,158,170,61,160.36,321,-16.00,57.00,-1055.00
2024-06-07 15:13:53.239248,-3,-1,-7,0,0,1,86,88,155,170,61,160.37,321,-93.00,17.00,-1093.00
2024-06-07 15:13:53.259807,-3,-1,-7,0,0,1,86,88,157,170,61,160.30,321,-75.00,6.00,-994.00
2024-06-07 15:13:53.361895,-3,-1,-7,0,0,0,86,88,154,160,61,160.21,321,-36.00,29.00,-918.00
2024-06-07 15:13:53.520097,-3,0,-7,0,0,0,86,88,156,160,61,160.28,321,-85.00,15.00,-1023.00
2024-06-07 15:13:53.565901,-3,-1,-7,0,0,0,86,88,154,160,61,160.31,322,-50.00,-14.00,-1007.00
2024-06-07 15:13:53.751244,-4,-1,-7,0,0,0,86,88,152,160,61,160.35,322,-64.00,19.00,-998.00
2024-06-07 15:13:53.770396,-4,-1,-7,0,0,0,86,88,153,160,61,160.21,322,-47.00,3.00,-998.00
2024-06-07 15:13:53.956433,-3,0,-8,0,0,0,86,88,152,160,61,160.20,322,-73.00,16.00,-991.00
2024-06-07 15:13:53.973963,-3,0,-8,0,0,0,85,87,151,160,61,160.23,322,-59.00,-39.00,-1042.00
2024-06-07 15:13:54.076009,-3,0,-7,0,0,0,85,87,149,160,61,160.20,322,-70.00,12.00,-949.00
2024-06-07 15:13:54.263445,-3,0,-8,0,0,0,85,87,147,160,61,160.25,322,-31.00,-2.00,-1146.00
2024-06-07 15:13:54.279917,-3,0,-8,0,0,0,85,87,147,160,61,160.14,322,-88.00,31.00,-962.00
2024-06-07 15:13:54.381984,-3,0,-7,0,0,0,85,87,144,160,61,160.13,322,-33.00,15.00,-1008.00
2024-06-07 15:13:54.570456,-3,0,-7,0,0,0,85,87,144,160,61,160.22,322,-84.00,20.00,-1038.00
2024-06-07 15:13:54.585965,-3,0,-7,0,0,0,85,87,141,160,61,160.11,323,-38.00,-33.00,-967.00
2024-06-07 15:13:54.775630,-3,0,-7,0,0,0,85,87,139,160,61,160.15,323,-96.00,19.00,-1025.00
2024-06-07 15:13:54.776370,-3,0,-7,0,0,0,85,87,138,150,61,160.12,323,-63.00,10.00,-888.00
2024-06-07 15:13:54.840873,-3,1,-7,0,0,1,85,87,137,150,61,160.10,323,-39.00,3.00,-1032.00
2024-06-07 15:13:54.993939,-2,0,-7,0,0,0,85,87,136,150,61,160.17,323,-98.00,40.00,-1021.00
2024-06-07 15:13:55.045159,-2,0,-7,0,0,0,85,87,136,150,61,160.12,323,-39.00,11.00,-1029.00
2024-06-07 15:13:55.186773,-3,0,-7,0,0,0,85,87,136,150,61,160.21,323,-86.00,25.00,-1124.00
2024-06-07 15:13:55.248972,-2,-1,-7,0,0,0,85,87,139,150,61,160.21,323,-61.00,1.00,-1068.00
2024-06-07 15:13:55.350984,-3,0,-7,0,0,-1,85,87,141,150,61,160.21,323,-65.00,0.00,-1030.00
2024-06-07 15:13:55.492102,-3,0,-7,0,0,-1,85,87,142,150,61,160.20,323,-34.00,-1.00,-947.00
2024-06-07 15:13:55.555066,-3,0,-7,0,0,-1,85,87,144,160,61,160.19,324,-63.00,5.00,-1010.00
2024-06-07 15:13:55.696881,-3,0,-7,0,0,-1,85,87,146,160,61,160.23,324,-85.00,28.00,-1024.00
2024-06-07 15:13:55.758774,-3,0,-7,0,0,-1,85,87,148,160,61,160.24,324,-79.00,18.00,-983.00
2024-06-07 15:13:55.901740,-3,-1,-7,0,0,-1,85,87,150,160,61,160.25,324,-72.00,30.00,-1010.00
2024-06-07 15:13:55.969436,-4,-2,-7,0,0,0,85,88,151,160,61,160.21,324,-54.00,19.00,-930.00
2024-06-07 15:13:56.064744,-3,-1,-7,0,0,0,85,88,151,160,61,160.22,324,-59.00,39.00,-969.00
2024-06-07 15:13:56.208825,-3,-1,-7,0,0,0,85,88,152,160,61,160.24,324,-99.00,40.00,-996.00
2024-06-07 15:13:56.268828,-7,-1,-7,0,0,0,85,88,153,160,61,160.23,324,-41.00,31.00,-907.00
2024-06-07 15:13:56.370719,-8,0,-7,0,0,0,85,88,154,160,61,160.27,324,-77.00,41.00,-1057.00
2024-06-07 15:13:56.515920,-8,0,-7,1,0,0,85,88,155,160,61,160.15,324,-80.00,21.00,-964.00
2024-06-07 15:13:56.574636,-8,0,-7,2,0,0,85,88,156,160,61,160.19,325,-86.00,25.00,-989.00
2024-06-07 15:13:56.721089,-8,0,-7,3,0,0,85,88,156,160,61,160.18,325,-86.00,13.00,-1014.00
2024-06-07 15:13:56.778587,-8,0,-7,4,0,0,85,88,156,160,61,160.17,325,-88.00,0.00,-964.00
2024-06-07 15:13:56.881884,-8,0,-7,4,0,0,85,88,155,160,61,160.08,325,-115.00,6.00,-955.00
2024-06-07 15:13:56.983089,-8,0,-7,4,0,0,85,87,157,170,61,160.17,325,-112.00,25.00,-891.00
2024-06-07 15:13:57.130366,-8,0,-7,5,0,0,85,87,156,170,61,160.12,325,-75.00,-16.00,-1000.00
2024-06-07 15:13:57.189279,-8,0,-7,5,0,0,85,87,157,170,61,160.19,325,-116.00,12.00,-978.00
2024-06-07 15:13:57.289636,-8,0,-7,6,0,0,85,87,158,170,61,160.10,325,-99.00,10.00,-915.00
2024-06-07 15:13:57.394104,-5,0,-7,6,0,0,85,87,156,170,61,160.10,325,-113.00,30.00,-944.00
2024-06-07 15:13:57.492965,-1,0,-8,6,0,0,85,87,156,170,61,160.10,325,-109.00,21.00,-857.00
2024-06-07 15:13:57.645257,0,0,-8,5,0,0,85,87,155,170,61,160.09,326,-82.00,6.00,-891.00
2024-06-07 15:13:57.696630,0,0,-8,3,0,0,85,87,155,170,61,160.15,326,-90.00,15.00,-933.00
2024-06-07 15:13:57.803579,-2,0,-7,3,0,0,85,87,156,170,61,160.09,326,-77.00,-3.00,-1007.00
2024-06-07 15:13:57.903977,-3,0,-8,2,0,0,85,87,156,170,61,160.19,326,-61.00,25.00,-974.00
2024-06-07 15:13:58.006795,-4,0,-8,3,0,0,85,87,156,170,61,160.20,326,-87.00,5.00,-959.00
2024-06-07 15:13:58.106097,-3,0,-8,3,0,0,85,87,157,170,61,160.20,326,-75.00,18.00,-1014.00
2024-06-07 15:13:58.206836,-3,0,-8,3,0,0,85,87,157,170,60,160.17,326,-67.00,10.00,-1003.00
2024-06-07 15:13:58.359195,-2,0,-7,3,0,0,85,87,156,170,60,160.26,326,-74.00,-17.00,-1150.00
2024-06-07 15:13:58.411610,-2,0,-7,3,0,0,85,87,158,170,60,160.20,326,-58.00,2.00,-948.00
2024-06-07 15:13:58.563946,-3,0,-7,2,0,0,85,87,157,170,60,160.24,326,-2.00,-14.00,-894.00
2024-06-07 15:13:58.564564,-3,0,-7,2,0,0,85,87,157,170,60,160.25,327,-65.00,8.00,-1027.00
2024-06-07 15:13:58.666817,-2,0,-7,2,0,0,85,87,159,170,60,160.32,327,-44.00,20.00,-993.00
2024-06-07 15:13:58.768982,2,-1,-7,2,0,0,85,87,159,170,60,160.33,327,-98.00,13.00,-1059.00
2024-06-07 15:13:58.875127,1,-1,-8,1,0,0,85,87,161,170,60,160.34,327,-61.00,46.00,-1048.00
2024-06-07 15:13:58.973783,0,0,-7,0,0,0,85,86,160,170,60,160.33,327,-68.00,32.00,-985.00
2024-06-07 15:13:59.078270,-1,0,-7,0,0,0,85,86,162,170,60,160.38,327,-36.00,1.00,-978.00
2024-06-07 15:13:59.176779,-1,0,-7,0,0,0,85,86,163,170,60,160.44,327,-34.00,1.00,-992.00
2024-06-07 15:13:59.280879,-1,0,-7,1,0,0,85,86,166,170,60,160.39,327,-80.00,27.00,-893.00
2024-06-07 15:13:59.381013,0,0,-7,1,0,0,85,86,165,170,60,160.39,327,-40.00,-18.00,-1065.00
2024-06-07 15:13:59.485856,0,0,-7,0,0,0,85,86,165,170,60,160.48,327,-18.00,0.00,-1089.00
2024-06-07 15:13:59.584703,0,0,-7,0,0,0,85,86,165,170,60,160.46,328,21.00,-50.00,-972.00
2024-06-07 15:13:59.690896,-1,0,-7,0,0,0,85,86,164,170,60,160.53,328,-58.00,14.00,-988.00
2024-06-07 15:13:59.788790,-1,0,-7,0,0,0,85,86,162,170,60,160.47,328,-42.00,20.00,-1005.00
2024-06-07 15:13:59.895538,-1,0,-7,0,0,0,85,86,161,170,60,160.50,328,-19.00,-8.00,-939.00
2024-06-07 15:13:59.992630,-1,0,-7,0,0,1,84,87,157,170,60,160.46,328,-11.00,6.00,-1028.00
2024-06-07 15:14:00.100012,-1,0,-7,0,0,1,84,87,157,170,60,160.49,328,-44.00,18.00,-1016.00
2024-06-07 15:14:00.196675,-1,0,-8,0,0,1,84,87,156,170,60,160.47,328,-44.00,29.00,-1028.00
2024-06-07 15:14:00.304929,-1,0,-8,0,0,1,84,87,154,170,60,160.44,328,-18.00,22.00,-933.00
2024-06-07 15:14:00.400923,-1,0,-8,0,0,0,84,87,154,160,60,160.41,328,-48.00,4.00,-1038.00
2024-06-07 15:14:00.512390,-2,0,-8,0,0,0,84,87,154,160,60,160.30,328,-25.00,14.00,-980.00
2024-06-07 15:14:00.604930,-2,0,-8,0,0,0,84,87,153,160,60,160.37,329,-36.00,4.00,-977.00
2024-06-07 15:14:00.714813,-3,0,-8,0,0,0,84,87,152,160,60,160.41,329,-71.00,7.00,-1066.00
2024-06-07 15:14:00.808701,-3,0,-8,0,0,0,84,87,150,160,60,160.41,329,-86.00,33.00,-1107.00
2024-06-07 15:14:00.919291,-3,0,-7,0,0,0,84,87,151,160,60,160.45,329,-58.00,19.00,-950.00
2024-06-07 15:14:01.014982,-3,0,-8,0,0,0,84,87,150,160,60,160.39,329,-81.00,0.00,-1072.00
2024-06-07 15:14:01.114514,-3,0,-8,0,0,0,84,87,151,160,60,160.37,329,-39.00,17.00,-907.00
2024-06-07 15:14:01.226304,2,-1,-7,0,0,0,84,87,151,160,60,160.40,329,-58.00,16.00,-1016.00
2024-06-07 15:14:01.318592,6,0,-8,-1,0,0,84,87,150,160,60,160.39,329,-75.00,19.00,-1096.00
2024-06-07 15:14:01.431134,7,0,-8,-2,0,0,84,87,153,160,60,160.45,329,-46.00,10.00,-968.00
2024-06-07 15:14:01.522491,6,0,-8,-4,0,0,84,87,152,160,60,160.40,329,-9.00,1.00,-1053.00
2024-06-07 15:14:01.635904,4,0,-7,-5,0,0,84,87,154,160,60,160.44,330,-17.00,0.00,-1057.00
2024-06-07 15:14:01.726648,3,0,-7,-6,0,0,84,87,155,160,60,160.54,330,-22.00,0.00,-1002.00
2024-06-07 15:14:01.840738,3,0,-7,-7,1,0,84,87,154,160,60,160.56,330,-60.00,37.00,-934.00
2024-06-07 15:14:01.930440,1,0,-7,-7,1,0,84,87,158,160,60,160.51,330,-59.00,8.00,-1041.00
2024-06-07 15:14:02.032405,-2,0,-8,-8,1,0,84,87,158,160,60,160.50,330,6.00,5.00,-934.00
2024-06-07 15:14:02.148411,-5,0,-8,-7,1,0,84,87,158,170,60,160.54,330,21.00,-46.00,-955.00
2024-06-07 15:14:02.236431,-6,0,-8,-6,1,0,84,87,159,170,59,160.59,330,-31.00,5.00,-975.00
2024-06-07 15:14:02.352683,-7,0,-8,-5,0,0,84,87,158,170,59,160.51,330,-33.00,28.00,-970.00
2024-06-07 15:14:02.441573,-6,0,-8,-4,0,0,84,87,159,170,59,160.51,330,-36.00,15.00,-1044.00
2024-06-07 15:14:02.557511,-4,0,-8,-3,0,0,84,87,157,170,59,160.50,331,-37.00,18.00,-950.00
2024-06-07 15:14:02.593427,-4,0,-8,-3,0,0,84,87,157,170,59,160.55,331,-55.00,22.00,-1055.00
2024-06-07 15:14:02.695371,-4,-1,-8,-3,0,0,84,87,156,170,59,160.51,331,-75.00,-5.00,-951.00
2024-06-07 15:14:02.797454,-4,-1,-7,-3,0,0,84,87,157,170,59,160.49,331,20.00,5.00,-931.00
2024-06-07 15:14:02.967114,-5,0,-7,-3,0,0,84,87,156,170,59,160.45,331,-54.00,15.00,-1005.00
2024-06-07 15:14:03.001729,-8,0,-7,-2,0,0,85,88,154,170,59,160.43,331,-47.00,5.00,-1009.00
2024-06-07 15:14:03.103490,-8,0,-7,-2,0,0,85,88,156,160,59,160.47,331,-57.00,4.00,-1007.00
2024-06-07 15:14:03.274344,-6,0,-7,-1,0,0,85,88,154,160,59,160.39,331,-51.00,-13.00,-1138.00
2024-06-07 15:14:03.307338,-5,0,-7,0,0,0,85,88,152,160,59,160.38,331,-57.00,-5.00,-1068.00
2024-06-07 15:14:03.412316,-4,0,-7,0,0,0,85,88,154,160,59,160.37,331,-19.00,-3.00,-953.00
2024-06-07 15:14:03.511488,-3,0,-7,0,0,0,85,88,151,160,59,160.34,332,-54.00,0.00,-1006.00
2024-06-07 15:14:03.684082,-3,0,-7,0,0,0,85,88,153,160,59,160.37,332,-70.00,14.00,-979.00
2024-06-07 15:14:03.715402,-4,0,-7,0,0,0,85,88,153,160,59,160.31,332,-7.00,11.00,-945.00
2024-06-07 15:14:03.888724,-3,0,-8,0,0,0,85,88,152,160,59,160.23,332,-39.00,13.00,-888.00
2024-06-07 15:14:03.922569,-3,0,-8,0,0,0,85,88,153,160,59,160.34,332,-81.00,8.00,-1082.00
2024-06-07 15:14:04.021467,-4,-1,-8,0,0,0,84,88,151,160,59,160.27,332,-60.00,20.00,-999.00
2024-06-07 15:14:04.123463,-3,-1,-8,0,0,0,84,88,151,160,59,160.36,332,-48.00,20.00,-1013.00
2024-06-07 15:14:04.298446,-4,0,-8,0,0,0,84,88,150,160,59,160.30,332,-37.00,3.00,-1007.00
2024-06-07 15:14:04.327505,-3,0,-8,0,0,0,84,88,151,160,59,160.27,332,-78.00,7.00,-1006.00
2024-06-07 15:14:04.503229,-4,0,-8,0,0,0,84,88,150,160,59,160.25,332,-104.00,-21.00,-1079.00
2024-06-07 15:14:04.531305,-4,0,-8,0,0,0,84,88,149,160,59,160.26,333,-66.00,8.00,-934.00
2024-06-07 15:14:04.707996,-4,0,-8,0,0,0,84,88,149,160,59,160.24,333,-84.00,1.00,-1068.00
2024-06-07 15:14:04.735440,-4,0,-7,0,0,0,84,88,150,160,59,160.34,333,-37.00,7.00,-981.00
2024-06-07 15:14:04.914707,-3,0,-7,0,0,0,84,88,149,160,59,160.35,333,-31.00,32.00,-1017.00
2024-06-07 15:14:04.939296,-2,-1,-7,0,0,0,84,88,148,160,59,160.39,333,-30.00,50.00,-933.00
2024-06-07 15:14:05.117989,-2,-1,-7,0,0,0,84,87,150,160,59,160.39,333,-30.00,63.00,-987.00
2024-06-07 15:14:05.143305,-2,-1,-7,0,0,0,84,87,148,160,59,160.33,333,-55.00,41.00,-1041.00
2024-06-07 15:14:05.278574,-2,-1,-8,0,0,0,84,87,147,160,59,160.36,333,-79.00,46.00,-1035.00
2024-06-07 15:14:05.347292,-2,-1,-7,0,0,0,84,87,147,160,59,160.40,333,-17.00,37.00,-971.00
2024-06-07 15:14:05.527040,-2,-3,-7,0,0,0,84,87,149,160,59,160.33,333,-12.00,49.00,-941.00
2024-06-07 15:14:05.551656,0,-8,-7,0,0,0,84,87,150,160,59,160.40,334,-47.00,22.00,-964.00
2024-06-07 15:14:05.736185,-1,-8,-7,0,-1,0,84,87,150,160,59,160.43,334,-9.00,43.00,-982.00
2024-06-07 15:14:05.755288,-1,-9,-7,0,-2,0,84,87,150,160,59,160.43,334,-79.00,72.00,-1081.00
2024-06-07 15:14:05.857275,-1,-5,-7,0,-3,0,84,87,150,160,59,160.43,334,19.00,61.00,-964.00
2024-06-07 15:14:06.039838,-1,-1,-7,0,-3,0,84,87,152,160,59,160.50,334,1.00,30.00,-1017.00
2024-06-07 15:14:06.061622,-1,0,-7,0,-3,0,84,88,151,160,59,160.48,334,-23.00,99.00,-940.00
2024-06-07 15:14:06.244218,0,-1,-7,0,-2,0,84,88,150,160,59,160.54,334,-61.00,92.00,-966.00
2024-06-07 15:14:06.265213,0,-2,-7,0,-1,0,84,88,151,160,59,160.54,334,-11.00,71.00,-1055.00
2024-06-07 15:14:06.448507,0,-3,-7,0,-1,0,84,88,154,160,59,160.47,334,-9.00,84.00,-971.00
2024-06-07 15:14:06.449191,0,-4,-7,0,-1,0,84,88,152,160,59,160.45,334,14.00,47.00,-928.00
2024-06-07 15:14:06.520275,0,-4,-7,0,-2,0,84,88,152,160,59,160.45,335,-10.00,60.00,-942.00
2024-06-07 15:14:06.653442,0,-3,-7,0,-2,0,84,88,152,160,59,160.52,335,1.00,60.00,-951.00
2024-06-07 15:14:06.724230,0,-2,-7,0,-2,0,84,88,152,160,59,160.50,335,-47.00,89.00,-1047.00
2024-06-07 15:14:06.858283,0,-2,-7,0,-2,0,84,88,152,160,59,160.49,335,-21.00,86.00,-1027.00
2024-06-07 15:14:06.928184,0,-2,-7,0,-1,0,84,88,151,160,59,160.48,335,-41.00,65.00,-1080.00
2024-06-07 15:14:07.063028,0,-3,-7,0,-1,0,84,86,150,160,59,160.54,335,31.00,32.00,-978.00
2024-06-07 15:14:07.132144,0,-3,-7,0,-1,0,84,86,151,160,59,160.51,335,5.00,49.00,-1035.00
2024-06-07 15:14:07.270272,0,-3,-7,0,-1,0,84,86,150,160,58,160.52,335,-22.00,85.00,-990.00
2024-06-07 15:14:07.344731,0,-3,-7,0,-1,0,84,86,150,160,58,160.55,335,-45.00,115.00,-994.00
2024-06-07 15:14:07.438144,0,-3,-7,0,-1,0,84,86,150,160,58,160.55,335,15.00,67.00,-999.00
2024-06-07 15:14:07.540174,0,-3,-8,0,-1,0,84,86,151,160,58,160.49,336,11.00,63.00,-952.00
2024-06-07 15:14:07.677470,0,-3,-8,-1,-1,0,84,86,148,160,58,160.54,336,25.00,34.00,-1008.00
2024-06-07 15:14:07.747365,-2,1,-8,-1,-1,0,84,86,149,160,58,160.69,336,-43.00,88.00,-935.00
2024-06-07 15:14:07.846289,-3,0,-8,0,0,0,84,86,150,160,58,160.56,336,-8.00,55.00,-1018.00
2024-06-07 15:14:07.948338,-2,-1,-7,0,0,0,84,86,149,160,58,160.50,336,-29.00,55.00,-930.00
2024-06-07 15:14:08.087249,-2,-2,-7,0,0,0,84,86,153,160,58,160.50,336,-34.00,62.00,-1014.00
2024-06-07 15:14:08.152087,-1,-2,-7,0,0,0,84,86,151,160,58,160.47,336,-25.00,59.00,-976.00
2024-06-07 15:14:08.291846,-2,-2,-7,0,0,0,84,86,150,160,58,160.55,336,-90.00,67.00,-963.00
2024-06-07 15:14:08.356270,-2,-2,-7,0,0,0,84,86,150,160,58,160.51,336,-32.00,31.00,-948.00
2024-06-07 15:14:08.496938,-2,-1,-7,0,0,0,84,86,151,160,58,160.57,336,-14.00,47.00,-1066.00
2024-06-07 15:14:08.560988,-1,-1,-7,0,0,0,84,86,150,160,58,160.53,337,9.00,32.00,-956.00
2024-06-07 15:14:08.701485,-1,-1,-7,0,0,0,84,86,150,160,58,160.52,337,-29.00,47.00,-1012.00
2024-06-07 15:14:08.764250,-1,-1,-7,0,0,0,84,86,151,160,58,160.55,337,9.00,29.00,-1008.00
2024-06-07 15:14:08.866687,-1,-2,-7,0,0,0,84,86,152,160,58,160.44,337,-20.00,20.00,-1070.00
2024-06-07 15:14:09.008932,-1,-2,-7,0,0,0,84,86,150,160,58,160.53,337,7.00,23.00,-970.00
2024-06-07 15:14:09.070149,-1,-2,-7,0,0,0,83,87,150,160,58,160.47,337,-27.00,29.00,-1008.00
2024-06-07 15:14:09.213740,-1,-2,-7,0,0,0,83,87,151,160,58,160.49,337,-43.00,48.00,-973.00
2024-06-07 15:14:09.274055,-1,-1,-7,0,0,0,83,87,150,160,58,160.55,337,-54.00,35.00,-985.00
2024-06-07 15:14:09.418417,-2,-1,-7,0,0,0,83,87,150,160,58,160.50,337,-38.00,53.00,-1014.00
2024-06-07 15:14:09.478196,-2,-1,-7,0,0,0,83,87,150,160,58,160.55,337,-48.00,37.00,-1037.00
2024-06-07 15:14:09.623104,-2,-1,-7,0,0,0,83,87,150,160,58,160.55,338,-24.00,36.00,-906.00
2024-06-07 15:14:09.682133,-2,-2,-7,0,0,0,83,87,150,160,58,160.49,338,-21.00,44.00,-1001.00
2024-06-07 15:14:09.784374,-1,-2,-7,0,0,0,83,87,150,160,58,160.48,338,-38.00,50.00,-966.00
2024-06-07 15:14:09.904515,-2,-2,-7,0,0,0,83,87,151,160,58,160.51,338,-60.00,43.00,-992.00
2024-06-07 15:14:09.988814,-2,-1,-7,0,0,0,83,87,151,160,58,160.50,338,-18.00,23.00,-993.00
2024-06-07 15:14:10.135048,-2,0,-7,0,0,0,84,87,150,160,58,160.48,338,-29.00,30.00,-976.00
2024-06-07 15:14:10.193993,-1,6,-8,0,0,0,84,87,150,160,58,160.48,338,-11.00,26.00,-913.00
2024-06-07 15:14:10.294409,-1,7,-8,0,1,0,84,87,153,160,58,160.53,338,-63.00,20.00,-1015.00
2024-06-07 15:14:10.398372,-1,4,-8,0,3,0,84,87,152,160,58,160.50,338,-26.00,12.00,-1091.00
2024-06-07 15:14:10.498822,-1,1,-7,0,3,0,84,87,153,160,58,160.52,338,-68.00,17.00,-1002.00
2024-06-07 15:14:10.604121,-2,-1,-7,0,4,0,84,87,156,160,58,160.54,339,-68.00,22.00,-1017.00
2024-06-07 15:14:10.702053,-1,-2,-7,0,3,0,84,87,157,160,58,160.52,339,-35.00,-18.00,-990.00
2024-06-07 15:14:10.851842,-1,-2,-7,0,3,0,84,87,158,160,58,160.48,339,-66.00,17.00,-993.00
2024-06-07 15:14:10.854990,-1,-1,-7,0,2,0,84,87,159,170,58,160.51,339,-27.00,11.00,-972.00
2024-06-07 15:14:10.957721,-1,-1,-7,0,2,0,84,87,159,170,58,160.51,339,-27.00,6.00,-1007.00
2024-06-07 15:14:11.059688,-1,-1,-7,0,2,0,84,86,159,170,58,160.61,339,-37.00,6.00,-941.00
2024-06-07 15:14:11.161113,-1,-1,-7,0,2,0,84,86,161,170,58,160.51,339,-60.00,36.00,-977.00
2024-06-07 15:14:11.265371,-2,-1,-7,0,2,0,84,86,162,170,58,160.65,339,0.00,9.00,-943.00
2024-06-07 15:14:11.365257,-4,-1,-7,0,2,0,84,86,161,170,58,160.65,339,-45.00,8.00,-1047.00
2024-06-07 15:14:11.568722,-5,-1,-7,0,2,0,84,86,161,170,58,160.62,339,11.00,5.00,-891.00
2024-06-07 15:14:11.568958,-5,-1,-7,0,2,0,84,86,163,170,58,160.52,340,-48.00,2.00,-968.00
2024-06-07 15:14:11.670969,-5,-1,-7,1,1,0,84,86,162,170,58,160.54,340,-50.00,22.00,-1013.00
2024-06-07 15:14:11.773346,-4,-1,-7,1,1,0,84,86,161,170,58,160.64,340,-81.00,43.00,-1042.00
2024-06-07 15:14:11.875355,1,-3,-7,1,1,0,84,86,159,170,58,160.56,340,-63.00,17.00,-1026.00
2024-06-07 15:14:11.978161,0,-5,-7,1,0,1,84,86,157,170,58,160.56,340,-30.00,7.00,-1020.00
2024-06-07 15:14:12.080404,0,-3,-7,0,0,0,84,86,157,170,58,160.55,340,-47.00,47.00,-990.00
2024-06-07 15:14:12.183031,-1,-2,-7,0,0,0,84,86,153,170,57,160.61,340,-37.00,28.00,-1012.00
2024-06-07 15:14:12.283141,-2,-1,-7,0,0,0,84,86,153,170,57,160.53,340,-29.00,41.00,-965.00
2024-06-07 15:14:12.395755,-2,-1,-7,0,0,0,84,86,151,170,57,160.41,340,-33.00,14.00,-1019.00
2024-06-07 15:14:12.487043,-2,-1,-7,0,0,0,84,86,148,160,57,160.52,340,-51.00,20.00,-1037.00
2024-06-07 15:14:12.592936,-2,-1,-7,0,0,0,84,86,149,160,57,160.53,341,-87.00,57.00,-1023.00
2024-06-07 15:14:12.691069,-1,-1,-7,0,0,0,84,86,149,160,57,160.46,341,-29.00,30.00,-968.00
2024-06-07 15:14:12.804091,-1,-1,-7,0,0,0,84,86,147,160,57,160.59,341,-30.00,35.00,-1079.00
2024-06-07 15:14:12.894943,0,-1,-7,0,0,0,84,86,147,160,57,160.51,341,7.00,7.00,-1102.00
2024-06-07 15:14:13.002301,0,-1,-7,0,0,0,84,86,146,160,57,160.48,341,-69.00,92.00,-1006.00
2024-06-07 15:14:13.098920,0,0,-7,0,0,0,84,86,146,160,57,160.55,341,-22.00,11.00,-1022.00
2024-06-07 15:14:13.207158,0,0,-7,0,0,0,84,86,146,160,57,160.49,341,-72.00,73.00,-1061.00
2024-06-07 15:14:13.302784,0,-1,-7,0,0,0,84,86,147,160,57,160.47,341,26.00,-9.00,-1047.00
2024-06-07 15:14:13.412045,0,-1,-8,0,0,0,84,86,149,160,57,160.51,341,-4.00,16.00,-1060.00
2024-06-07 15:14:13.507801,0,-1,-8,0,0,0,84,86,149,160,57,160.45,341,-42.00,48.00,-1070.00
2024-06-07 15:14:13.616786,0,-2,-7,0,0,0,84,86,147,160,57,160.55,342,14.00,15.00,-952.00
2024-06-07 15:14:13.710991,0,-2,-8,0,0,0,84,86,150,160,57,160.59,342,-56.00,33.00,-955.00
2024-06-07 15:14:13.821403,0,-2,-7,0,0,0,84,86,149,160,57,160.50,342,-22.00,51.00,-949.00
2024-06-07 15:14:13.914944,0,-1,-7,0,0,0,84,86,147,160,57,160.56,342,-63.00,37.00,-1011.00
2024-06-07 15:14:14.026458,0,-1,-7,0,0,0,84,86,147,160,57,160.53,342,-48.00,29.00,-984.00
2024-06-07 15:14:14.118913,0,-1,-7,0,0,0,84,86,146,160,57,160.55,342,-27.00,22.00,-886.00
2024-06-07 15:14:14.221083,0,-1,-7,0,0,0,84,86,144,160,57,160.51,342,41.00,5.00,-957.00
2024-06-07 15:14:14.333297,0,-1,-2,0,0,0,84,86,145,160,57,160.46,342,14.00,30.00,-968.00
2024-06-07 15:14:14.424909,0,-1,3,0,0,0,84,86,143,160,57,160.57,342,-39.00,59.00,-966.00
2024-06-07 15:14:14.475870,0,-1,9,0,0,0,84,86,145,160,57,160.49,342,-20.00,33.00,-990.00
2024-06-07 15:14:14.577773,0,-1,15,0,0,0,84,86,144,160,57,160.59,343,9.00,31.00,-1032.00
2024-06-07 15:14:14.742870,0,-1,21,0,0,0,84,86,144,160,57,160.57,343,12.00,59.00,-1123.00
2024-06-07 15:14:14.782022,0,-2,27,0,0,0,84,86,145,160,57,160.54,343,-5.00,34.00,-963.00
2024-06-07 15:14:14.884002,0,-2,33,0,0,0,84,86,147,160,57,160.46,343,-17.00,51.00,-1050.00
2024-06-07 15:14:14.986085,0,-2,40,0,0,0,84,86,147,160,57,160.48,343,65.00,0.00,-983.00
2024-06-07 15:14:15.152704,0,-1,46,0,0,0,83,87,149,160,57,160.45,343,6.00,40.00,-1052.00
2024-06-07 15:14:15.191286,0,-1,52,0,0,0,83,87,150,160,57,160.46,343,4.00,40.00,-941.00
2024-06-07 15:14:15.293288,1,0,59,0,0,0,83,87,151,160,57,160.53,343,76.00,-14.00,-994.00
2024-06-07 15:14:15.396265,1,0,65,0,0,0,83,87,151,160,57,160.59,343,19.00,28.00,-967.00
2024-06-07 15:14:15.498679,1,0,71,0,0,0,83,87,152,160,57,160.57,343,0.00,23.00,-975.00
2024-06-07 15:14:15.599179,2,0,77,0,0,0,83,87,151,160,57,160.62,344,4.00,15.00,-973.00
2024-06-07 15:14:15.700712,2,0,83,0,0,0,83,87,153,160,57,160.52,344,64.00,-5.00,-951.00
2024-06-07 15:14:15.802700,2,0,89,0,0,0,83,87,150,160,57,160.59,344,63.00,1.00,-999.00
2024-06-07 15:14:15.972460,2,1,95,0,0,0,83,87,150,160,57,160.52,344,63.00,0.00,-1009.00
2024-06-07 15:14:16.036287,2,1,101,0,0,0,83,87,152,160,57,160.53,344,85.00,-33.00,-943.00
2024-06-07 15:14:16.108665,2,1,113,0,0,0,84,86,153,160,57,160.55,344,31.00,-27.00,-1024.00
2024-06-07 15:14:16.278856,2,2,119,0,0,0,84,86,153,160,57,160.54,344,51.00,-49.00,-1020.00
2024-06-07 15:14:16.316676,1,2,125,0,0,0,84,86,153,160,57,160.51,344,19.00,-39.00,-965.00
2024-06-07 15:14:16.414988,1,2,131,0,0,0,84,86,153,160,57,160.54,344,38.00,-41.00,-979.00
2024-06-07 15:14:16.588605,0,2,136,0,0,0,84,86,154,160,57,160.56,345,3.00,-43.00,-997.00
2024-06-07 15:14:16.618684,0,2,142,0,0,0,84,86,153,160,57,160.55,345,31.00,-53.00,-993.00
2024-06-07 15:14:16.790920,0,2,148,0,0,0,84,86,155,160,57,160.54,345,31.00,-40.00,-899.00
2024-06-07 15:14:16.822683,0,2,154,0,0,0,84,86,153,160,57,160.64,345,30.00,-38.00,-950.00
2024-06-07 15:14:17.000067,0,2,160,0,0,0,84,86,153,160,57,160.55,345,33.00,-82.00,-979.00
2024-06-07 15:14:17.030476,0,2,166,0,0,0,84,86,153,160,57,160.55,345,-9.00,-24.00,-911.00
2024-06-07 15:14:17.128804,0,2,172,0,0,0,84,86,153,160,57,160.53,345,-17.00,-52.00,-1009.00
2024-06-07 15:14:17.302903,0,2,178,0,0,0,84,86,153,160,57,160.47,345,-61.00,-24.00,-975.00
2024-06-07 15:14:17.332600,-1,2,-175,0,0,0,84,86,151,160,57,160.55,345,-37.00,-18.00,-995.00
2024-06-07 15:14:17.434665,-1,2,-169,0,0,0,84,86,151,160,57,160.52,345,-25.00,-32.00,-1000.00
2024-06-07 15:14:17.536594,-1,2,-163,0,0,0,84,86,152,160,57,160.52,346,-78.00,-21.00,-992.00
2024-06-07 15:14:17.638639,-1,2,-156,0,0,0,84,86,151,160,57,160.54,346,-60.00,-18.00,-1014.00
2024-06-07 15:14:17.814919,-2,1,-150,0,0,0,84,86,151,160,57,160.59,346,-9.00,-28.00,-1115.00
2024-06-07 15:14:17.842634,-2,1,-144,0,0,0,84,86,150,160,57,160.51,346,-25.00,-35.00,-1037.00
2024-06-07 15:14:18.019675,-2,1,-138,0,0,0,84,86,151,160,57,160.49,346,-34.00,-37.00,-986.00
2024-06-07 15:14:18.047560,-2,0,-132,0,0,0,84,86,147,160,57,160.51,346,-73.00,-2.00,-1026.00
2024-06-07 15:14:18.224844,-2,0,-126,0,0,0,84,87,149,160,57,160.50,346,-43.00,-20.00,-924.00
2024-06-07 15:14:18.250608,-2,0,-120,0,0,0,84,87,149,160,57,160.44,346,-57.00,-2.00,-994.00
2024-06-07 15:14:18.429178,-2,0,-114,0,0,0,84,87,148,160,57,160.48,346,-74.00,5.00,-1062.00
2024-06-07 15:14:18.429611,-2,0,-108,0,0,0,84,87,147,160,57,160.50,346,-50.00,2.00,-1016.00
2024-06-07 15:14:18.505753,-2,0,-102,0,0,0,84,87,149,160,57,160.50,347,-2.00,-20.00,-989.00
2024-06-07 15:14:18.634096,-1,0,-96,0,0,0,84,87,148,160,57,160.48,347,-61.00,17.00,-982.00
2024-06-07 15:14:18.709562,-1,0,-90,0,0,0,84,87,148,160,57,160.52,347,-77.00,15.00,-969.00
2024-06-07 15:14:18.811996,-1,-1,-85,0,0,0,84,87,148,160,57,160.47,347,-10.00,12.00,-1005.00
2024-06-07 15:14:18.941266,-1,0,-79,0,0,0,84,87,149,160,57,160.46,347,-24.00,-3.00,-1003.00
2024-06-07 15:14:19.018021,-1,0,-73,0,0,0,84,87,149,160,57,160.56,347,-37.00,2.00,-970.00
2024-06-07 15:14:19.118470,0,-1,-67,0,0,0,84,87,150,160,57,160.52,347,-4.00,22.00,-965.00
2024-06-07 15:14:19.219756,0,-1,-61,0,0,0,84,87,148,160,57,160.59,347,-11.00,23.00,-995.00
2024-06-07 15:14:19.321577,0,-1,-55,0,0,0,84,87,149,160,57,160.64,347,-29.00,21.00,-989.00
2024-06-07 15:14:19.424330,0,-1,-50,0,0,0,84,87,149,160,57,160.54,347,-4.00,5.00,-953.00
2024-06-07 15:14:19.525730,0,-1,-44,0,0,0,84,87,146,160,57,160.54,348,7.00,26.00,-950.00
2024-06-07 15:14:19.658066,0,-1,-38,0,0,0,84,87,148,160,57,160.51,348,0.00,33.00,-1064.00
2024-06-07 15:14:19.729491,0,-1,-32,0,0,0,84,87,144,160,57,160.50,348,-29.00,23.00,-962.00
2024-06-07 15:14:19.862851,0,-1,-27,0,0,0,84,87,145,160,57,160.51,348,12.00,39.00,-961.00
2024-06-07 15:14:19.935218,0,0,-22,0,0,1,84,87,141,160,57,160.53,348,-10.00,24.00,-991.00
2024-06-07 15:14:20.035424,0,0,-19,0,0,0,84,87,138,160,57,160.48,348,22.00,20.00,-962.00
2024-06-07 15:14:20.170504,0,0,-17,0,0,0,84,87,138,160,57,160.45,348,23.00,36.00,-1027.00
2024-06-07 15:14:20.239440,0,0,-14,0,0,0,84,87,137,160,57,160.44,348,-61.00,41.00,-1054.00
2024-06-07 15:14:20.374877,0,0,-13,0,0,0,84,87,134,150,57,160.41,348,8.00,0.00,-1018.00
2024-06-07 15:14:20.443466,0,0,-12,0,0,0,84,87,134,150,57,160.41,348,-18.00,30.00,-1110.00
2024-06-07 15:14:20.575992,0,0,-11,0,0,0,84,87,134,150,57,160.43,349,0.00,12.00,-1049.00
2024-06-07 15:14:20.647480,0,0,-10,0,0,0,84,87,134,150,57,160.42,349,-24.00,21.00,-1095.00
2024-06-07 15:14:20.749547,0,0,-10,0,0,0,84,87,134,150,57,160.48,349,5.00,10.00,-1009.00
2024-06-07 15:14:20.886826,0,0,-9,0,0,-1,84,87,135,150,57,160.42,349,-4.00,-8.00,-1167.00
2024-06-07 15:14:20.953578,0,0,-9,0,0,-1,84,87,135,150,57,160.41,349,-9.00,26.00,-1012.00
2024-06-07 15:14:21.055471,0,0,-9,0,0,0,84,87,136,150,57,160.44,349,31.00,22.00,-1008.00
2024-06-07 15:14:21.194199,0,0,-9,0,0,0,84,86,135,150,57,160.54,349,-21.00,18.00,-1059.00
2024-06-07 15:14:21.259439,0,-1,-9,0,0,0,84,86,136,150,56,160.48,349,-42.00,48.00,-1011.00
2024-06-07 15:14:21.398997,0,-1,-9,0,0,0,84,86,135,150,56,160.48,349,16.00,33.00,-1049.00
2024-06-07 15:14:21.463590,0,-1,-9,0,0,0,84,86,137,160,56,160.51,349,20.00,3.00,-957.00
2024-06-07 15:14:21.603662,0,-1,-9,0,0,0,84,86,135,160,56,160.52,350,-17.00,27.00,-1038.00
2024-06-07 15:14:21.669097,0,-1,-9,0,0,0,84,86,136,160,56,160.48,350,-16.00,14.00,-963.00
2024-06-07 15:14:21.769865,0,-1,-9,0,0,0,84,86,135,150,56,160.55,350,23.00,-6.00,-1024.00
2024-06-07 15:14:21.910913,0,-1,-9,0,0,0,84,86,135,150,56,160.55,350,13.00,34.00,-1015.00
2024-06-07 15:14:21.922441,0,0,-9,0,0,0,84,86,135,150,56,160.46,350,20.00,-2.00,-1022.00
2024-06-07 15:14:22.024513,0,0,-9,0,0,0,84,86,138,150,56,160.54,350,-10.00,21.00,-1076.00
2024-06-07 15:14:22.177963,0,0,-9,0,0,0,84,86,137,150,56,160.46,350,10.00,15.00,-997.00
2024-06-07 15:14:22.320513,0,0,-9,0,0,0,84,86,138,150,56,160.50,350,-9.00,14.00,-955.00
2024-06-07 15:14:22.384280,0,0,-9,0,0,0,84,86,139,150,56,160.50,350,21.00,13.00,-1008.00
2024-06-07 15:14:22.432948,0,0,-9,0,0,0,84,86,140,160,56,160.56,350,-21.00,10.00,-1032.00
2024-06-07 15:14:22.628906,0,-1,-9,0,0,-1,84,86,140,160,56,160.47,351,10.00,9.00,-1022.00
2024-06-07 15:14:22.636416,0,-1,-9,0,0,-1,84,86,142,160,56,160.55,351,-2.00,16.00,-998.00
2024-06-07 15:14:22.738500,0,-1,-9,0,0,0,84,86,142,160,56,160.50,351,-2.00,22.00,-988.00
2024-06-07 15:14:22.840520,0,-1,-9,0,0,0,84,86,144,160,56,160.58,351,19.00,4.00,-839.00
2024-06-07 15:14:22.942430,0,0,-9,0,0,0,84,86,145,160,56,160.58,351,-13.00,24.00,-1002.00
2024-06-07 15:14:23.139651,0,0,-11,0,0,0,84,86,145,160,56,160.55,351,34.00,10.00,-1072.00
2024-06-07 15:14:23.146457,0,-1,-17,0,0,0,84,87,148,160,56,160.63,351,-21.00,13.00,-1014.00
2024-06-07 15:14:23.344458,-1,-1,-23,0,0,0,84,87,148,160,56,160.63,351,-36.00,43.00,-927.00
2024-06-07 15:14:23.350333,-1,-1,-29,0,0,0,84,87,150,160,56,160.63,351,-39.00,45.00,-1055.00
2024-06-07 15:14:23.452420,-1,-1,-35,0,0,0,84,87,150,160,56,160.63,351,-68.00,35.00,-966.00
2024-06-07 15:14:23.554328,-1,-1,-41,0,0,0,84,87,152,160,56,160.67,352,9.00,19.00,-886.00
2024-06-07 15:14:23.656349,-1,-1,-47,0,0,0,84,87,154,160,56,160.65,352,-11.00,25.00,-1005.00
2024-06-07 15:14:23.761261,-1,0,-53,0,0,0,84,87,154,160,56,160.66,352,-37.00,21.00,-901.00
2024-06-07 15:14:23.860288,-1,0,-59,0,0,0,84,87,155,170,56,160.64,352,-58.00,14.00,-1003.00
2024-06-07 15:14:23.965902,-1,0,-65,0,0,0,84,87,156,170,56,160.63,352,-46.00,-12.00,-1042.00
2024-06-07 15:14:24.064342,-2,0,-72,0,0,0,84,87,158,170,56,160.59,352,-21.00,-43.00,-988.00
2024-06-07 15:14:24.166435,-2,0,-78,0,0,0,84,86,157,170,56,160.55,352,-44.00,-14.00,-1063.00
2024-06-07 15:14:24.268582,-2,0,-84,0,0,0,84,86,161,170,56,160.65,352,-65.00,-4.00,-982.00
2024-06-07 15:14:24.370240,-2,0,-89,0,0,0,84,86,161,170,56,160.61,352,-41.00,-25.00,-952.00
2024-06-07 15:14:24.472316,-2,0,-95,0,0,0,84,86,162,170,56,160.69,352,-18.00,-37.00,-1035.00
2024-06-07 15:14:24.675965,-2,0,-101,0,0,0,84,86,161,170,56,160.70,353,-65.00,-20.00,-1008.00
2024-06-07 15:14:24.676314,-2,1,-107,0,0,0,84,86,162,170,56,160.63,353,-60.00,-22.00,-950.00
2024-06-07 15:14:24.778329,-2,1,-113,0,0,0,84,86,159,170,56,160.63,353,-32.00,-22.00,-1001.00
2024-06-07 15:14:24.880665,-1,1,-119,0,0,0,84,86,159,170,56,160.64,353,-21.00,-51.00,-991.00
2024-06-07 15:14:24.982468,-1,1,-125,0,0,1,84,86,156,170,56,160.62,353,-30.00,-61.00,-1025.00
2024-06-07 15:14:25.097286,-1,2,-131,0,0,0,84,86,157,170,56,160.61,353,-14.00,-36.00,-924.00
2024-06-07 15:14:25.187500,-1,2,-137,0,0,1,84,87,154,170,56,160.60,353,-30.00,-36.00,-997.00
2024-06-07 15:14:25.289986,0,2,-143,0,0,1,84,87,154,170,56,160.57,353,-30.00,-62.00,-1082.00
2024-06-07 15:14:25.390417,0,2,-149,0,0,0,84,87,155,160,56,160.59,353,0.00,-37.00,-955.00
2024-06-07 15:14:25.492529,0,3,-155,0,0,0,84,87,154,160,56,160.64,353,-16.00,-74.00,-1132.00
2024-06-07 15:14:25.597170,0,3,-161,0,0,0,84,87,154,160,56,160.56,354,-27.00,-41.00,-1029.00
2024-06-07 15:14:25.696411,0,2,-167,0,0,0,84,87,154,160,56,160.64,354,9.00,-38.00,-1021.00
2024-06-07 15:14:25.802031,0,2,-173,0,0,0,84,87,154,160,56,160.66,354,-14.00,-30.00,-972.00
2024-06-07 15:14:25.900192,0,2,-179,0,0,0,84,87,154,160,56,160.63,354,-19.00,-24.00,-1047.00
2024-06-07 15:14:26.006777,0,1,174,0,0,0,84,87,154,170,56,160.61,354,2.00,-24.00,-1227.00
2024-06-07 15:14:26.104223,0,1,168,0,0,0,84,87,154,170,56,160.57,354,-1.00,-23.00,-1516.00
2024-06-07 15:14:26.211570,0,1,162,0,0,0,84,86,151,170,55,160.60,354,4.00,-56.00,-933.00
2024-06-07 15:14:26.308313,0,1,156,0,0,0,84,86,149,170,55,160.65,354,2.00,-46.00,-967.00
2024-06-07 15:14:26.416397,0,1,151,0,0,0,84,86,148,170,55,160.59,354,-23.00,-26.00,-1021.00
2024-06-07 15:14:26.512242,0,1,145,0,0,0,84,86,145,170,55,160.54,354,26.00,-36.00,-987.00
2024-06-07 15:14:26.563203,1,1,139,0,0,0,84,86,144,160,55,160.53,355,3.00,-30.00,-1027.00
2024-06-07 15:14:26.665364,1,1,134,0,0,1,84,86,140,160,55,160.58,355,-7.00,-26.00,-1104.00
2024-06-07 15:14:26.825977,1,1,128,0,0,1,84,86,139,160,55,160.50,355,5.00,-30.00,-1023.00
2024-06-07 15:14:26.869145,1,1,122,0,0,1,84,86,137,160,55,160.52,355,42.00,-42.00,-1052.00
2024-06-07 15:14:27.030797,1,1,116,0,0,1,84,86,135,150,55,160.48,355,1.00,-3.00,-948.00
2024-06-07 15:14:27.073120,2,1,110,0,0,1,84,86,135,150,55,160.48,355,82.00,-60.00,-970.00
2024-06-07 15:14:27.235917,2,1,104,0,0,0,84,87,134,150,55,160.44,355,62.00,-39.00,-1012.00
2024-06-07 15:14:27.277205,2,0,98,0,0,0,84,87,134,150,55,160.46,355,45.00,-3.00,-987.00
2024-06-07 15:14:27.440403,2,0,92,0,0,0,84,87,133,150,55,160.48,355,59.00,-43.00,-1029.00
2024-06-07 15:14:27.481456,2,0,86,0,0,0,84,87,134,150,55,160.48,355,77.00,-48.00,-1056.00
2024-06-07 15:14:27.645159,3,0,81,0,0,0,84,87,134,150,55,160.41,356,55.00,-18.00,-998.00
2024-06-07 15:14:27.685317,3,0,75,0,0,0,84,87,137,150,55,160.46,356,53.00,0.00,-958.00
2024-06-07 15:14:27.864964,3,0,69,0,0,0,84,87,137,150,55,160.49,356,53.00,-2.00,-1087.00
2024-06-07 15:14:27.889465,2,0,63,0,0,0,84,87,138,150,55,160.46,356,31.00,-9.00,-1010.00
2024-06-07 15:14:28.054771,2,0,57,0,0,-1,84,87,140,150,55,160.46,356,49.00,-8.00,-943.00
2024-06-07 15:14:28.093743,2,0,50,0,0,-1,84,87,141,150,55,160.48,356,39.00,7.00,-1003.00
2024-06-07 15:14:28.259579,2,0,44,0,0,0,83,87,139,160,55,160.54,356,3.00,49.00,-988.00
2024-06-07 15:14:28.297219,2,-1,38,0,0,0,83,87,140,160,55,160.43,356,16.00,31.00,-936.00
2024-06-07 15:14:28.399055,1,-1,32,0,0,0,83,87,141,160,55,160.56,356,-13.00,46.00,-998.00
2024-06-07 15:14:28.503458,0,-2,26,0,0,0,83,87,141,160,55,160.56,356,55.00,37.00,-908.00
2024-06-07 15:14:28.603046,0,-2,20,0,0,0,83,87,141,160,55,160.54,357,-1.00,39.00,-1010.00
2024-06-07 15:14:28.771622,0,-2,14,0,0,0,83,87,138,160,55,160.53,357,36.00,39.00,-931.00
2024-06-07 15:14:28.807126,0,-2,8,0,0,0,83,87,139,160,55,160.48,357,-18.00,71.00,-1053.00
2024-06-07 15:14:28.987886,0,-2,4,0,0,0,83,87,139,160,55,160.50,357,0.00,41.00,-995.00
2024-06-07 15:14:29.011060,0,-3,0,0,0,0,83,87,141,160,55,160.53,357,-23.00,51.00,-947.00
2024-06-07 15:14:29.182102,0,-3,-1,0,0,0,83,87,140,150,55,160.52,357,-5.00,45.00,-1079.00
2024-06-07 15:14:29.220603,0,-3,-3,0,0,0,84,87,141,150,55,160.63,357,-2.00,40.00,-1013.00
2024-06-07 15:14:29.317255,0,-3,-4,0,0,0,84,87,142,150,55,160.59,357,-58.00,71.00,-1009.00
2024-06-07 15:14:29.491078,0,-3,-6,0,0,0,84,87,144,150,55,160.61,357,-35.00,58.00,-1028.00
2024-06-07 15:14:29.522827,0,-3,-7,0,0,-1,84,87,147,160,55,160.63,357,-31.00,71.00,-950.00
2024-06-07 15:14:29.623924,0,-2,-7,0,0,-1,84,87,149,160,55,160.63,358,-4.00,50.00,-1237.00
2024-06-07 15:14:29.795655,0,-2,-7,0,0,-1,84,87,150,160,55,160.59,358,-19.00,61.00,-980.00
2024-06-07 15:14:29.827018,0,-2,-7,0,0,-1,84,87,153,160,55,160.70,358,46.00,18.00,-1040.00
2024-06-07 15:14:30.008274,0,-2,-7,0,0,0,84,87,152,160,55,160.68,358,-14.00,37.00,-931.00
2024-06-07 15:14:30.032742,0,-2,-7,0,0,0,84,87,153,160,55,160.71,358,-19.00,45.00,-976.00
2024-06-07 15:14:30.083237,0,-2,-7,0,0,0,84,87,156,160,55,160.73,358,36.00,28.00,-956.00
2024-06-07 15:14:30.235098,0,-2,-7,0,0,0,84,86,155,160,55,160.72,358,-21.00,38.00,-1038.00
2024-06-07 15:14:30.410049,0,-2,-7,0,0,0,84,86,156,170,55,160.73,358,-35.00,29.00,-1076.00
2024-06-07 15:14:30.439077,0,-2,-7,0,0,0,84,86,158,170,55,160.67,358,-13.00,23.00,-1019.00
2024-06-07 15:14:30.541355,0,-2,-7,0,0,0,84,86,158,170,55,160.79,359,26.00,27.00,-901.00
2024-06-07 15:14:30.717217,0,-2,-7,0,0,0,84,86,159,170,55,160.68,359,-6.00,33.00,-1059.00
2024-06-07 15:14:30.717357,0,-1,-7,0,0,0,84,86,160,170,55,160.74,359,-9.00,24.00,-950.00
2024-06-07 15:14:30.796258,0,-1,-7,0,0,0,84,86,161,170,55,160.71,359,-7.00,18.00,-945.00
2024-06-07 15:14:30.898475,0,-1,-7,0,0,0,84,86,161,170,55,160.78,359,15.00,17.00,-1018.00
2024-06-07 15:14:31.035678,0,-2,-7,0,0,0,84,86,164,170,55,160.81,359,-25.00,49.00,-993.00
2024-06-07 15:14:31.102029,0,-2,-7,0,0,0,84,86,162,170,55,160.79,359,-16.00,30.00,-957.00
2024-06-07 15:14:31.232206,-1,-1,-7,0,0,0,84,87,163,170,55,160.70,359,-32.00,34.00,-987.00
2024-06-07 15:14:31.306046,-1,-1,-7,0,0,0,84,87,164,170,55,160.76,359,-50.00,50.00,-987.00
2024-06-07 15:14:31.434063,-1,-1,-7,0,0,0,84,87,162,170,55,160.76,359,-40.00,40.00,-957.00
2024-06-07 15:14:31.510012,-1,-1,-7,0,0,0,84,87,161,170,55,160.73,360,-6.00,19.00,-1008.00
2024-06-07 15:14:31.612046,0,-1,-8,0,0,0,84,87,161,170,55,160.77,360,-6.00,37.00,-1000.00
2024-06-07 15:14:31.741170,0,-1,-8,0,0,0,84,87,159,170,55,160.89,360,-31.00,10.00,-1476.00
2024-06-07 15:14:31.815945,0,-1,-7,0,0,-6,84,87,162,170,55,160.95,360,-71.00,97.00,-1693.00
2024-06-07 15:14:31.945926,0,-24,-7,0,0,-12,84,87,173,180,55,160.86,360,3.00,131.00,-1335.00
2024-06-07 15:14:32.019930,1,-125,-7,-1,-6,-10,84,87,407,190,55,160.97,360,-11.00,541.00,-879.00
2024-06-07 15:14:32.150694,1,97,-7,-2,-7,4,84,87,6553,200,55,160.92,360,-41.00,724.00,-1096.00
2024-06-07 15:14:32.223858,0,1,-9,-1,0,9,84,86,213,190,55,161.35,360,-59.00,102.00,-1652.00
2024-06-07 15:14:32.355613,-1,-3,-9,-1,-1,7,84,86,175,180,55,160.76,360,8.00,-30.00,-1236.00
2024-06-07 15:14:32.427915,0,4,-9,-1,-1,3,84,86,166,180,55,160.78,360,40.00,29.00,-1311.00
2024-06-07 15:14:32.560429,0,3,-8,0,0,0,84,86,163,170,55,160.78,361,39.00,19.00,-1077.00
2024-06-07 15:14:32.631845,0,0,-7,0,0,0,84,86,161,170,55,160.73,361,5.00,53.00,-1087.00
2024-06-07 15:14:32.777308,0,-1,-7,0,0,-1,84,86,162,170,55,160.76,361,31.00,52.00,-955.00
2024-06-07 15:14:32.835889,0,-2,-7,0,0,0,84,86,163,170,55,160.79,361,25.00,20.00,-1020.00
2024-06-07 15:14:32.976949,0,-1,-7,0,0,0,84,86,161,170,55,160.74,361,12.00,73.00,-979.00
2024-06-07 15:14:33.039825,0,-1,-7,0,0,0,84,86,162,170,55,160.76,361,2.00,-6.00,-962.00
2024-06-07 15:14:33.174676,1,-1,-7,0,0,0,84,86,162,170,55,160.75,361,0.00,33.00,-1003.00
2024-06-07 15:14:33.243868,1,-1,-7,0,0,0,83,86,161,170,54,160.72,361,-7.00,18.00,-988.00
2024-06-07 15:14:33.379440,0,-1,-7,0,0,0,83,86,160,170,54,160.69,361,-25.00,54.00,-964.00
2024-06-07 15:14:33.447998,0,-1,-7,0,0,0,83,86,161,170,54,160.69,361,20.00,0.00,-1018.00
2024-06-07 15:14:33.598884,0,-1,-7,0,0,0,83,86,161,170,54,160.74,362,5.00,42.00,-1050.00
2024-06-07 15:14:33.652812,0,-1,-7,0,0,0,83,86,162,170,54,160.76,362,21.00,31.00,-951.00
2024-06-07 15:14:33.789063,1,-1,-7,0,0,0,83,86,165,170,54,160.66,362,26.00,35.00,-964.00
2024-06-07 15:14:33.857649,1,-1,-7,0,0,0,83,86,165,170,54,160.78,362,10.00,7.00,-1002.00
2024-06-07 15:14:33.993913,1,0,-7,0,0,0,83,86,165,170,54,160.65,362,16.00,59.00,-1170.00
2024-06-07 15:14:34.060832,1,0,-7,0,0,0,83,86,165,170,54,160.73,362,28.00,15.00,-955.00
2024-06-07 15:14:34.198771,1,0,-7,0,0,0,83,86,167,170,54,160.73,362,16.00,46.00,-917.00
2024-06-07 15:14:34.264962,1,0,-7,0,0,0,84,87,169,170,54,160.78,362,5.00,39.00,-978.00
2024-06-07 15:14:34.367356,1,0,-7,0,0,0,84,87,168,180,54,160.85,362,-34.00,57.00,-992.00
2024-06-07 15:14:34.417763,1,0,-7,0,0,0,84,87,170,180,54,160.85,362,26.00,25.00,-994.00
2024-06-07 15:14:34.519822,0,0,-7,0,0,0,84,87,168,180,54,160.86,363,66.00,1.00,-931.00
2024-06-07 15:14:34.710709,0,0,-7,0,0,0,84,87,170,180,54,160.77,363,-5.00,53.00,-943.00
2024-06-07 15:14:34.723732,1,0,-7,0,0,0,84,87,167,180,54,160.80,363,81.00,3.00,-903.00
2024-06-07 15:14:34.915453,0,0,-7,0,0,0,84,87,168,180,54,160.80,363,17.00,27.00,-983.00
2024-06-07 15:14:34.927782,0,0,-7,0,0,0,84,87,169,180,54,160.80,363,4.00,40.00,-1012.00
2024-06-07 15:14:35.120317,0,0,-7,0,0,0,84,87,167,180,54,160.73,363,20.00,7.00,-1054.00
2024-06-07 15:14:35.132681,1,0,-7,0,0,0,84,87,168,180,54,160.77,363,49.00,38.00,-978.00
2024-06-07 15:14:35.327075,1,0,-7,0,0,0,84,87,168,180,54,160.79,363,-6.00,37.00,-994.00
2024-06-07 15:14:35.336794,1,0,-7,0,0,0,84,87,165,180,54,160.75,363,7.00,32.00,-1044.00
2024-06-07 15:14:35.529990,1,0,-7,0,0,0,84,87,166,180,54,160.82,363,3.00,32.00,-1009.00
2024-06-07 15:14:35.540954,1,0,-7,0,0,0,84,87,167,180,54,160.73,364,21.00,48.00,-987.00
2024-06-07 15:14:35.644920,1,0,-7,0,0,0,84,87,169,180,54,160.82,364,43.00,34.00,-1008.00
2024-06-07 15:14:35.745888,1,0,-7,0,0,0,84,87,166,180,54,160.78,364,3.00,44.00,-1035.00
2024-06-07 15:14:35.848226,1,0,-7,0,0,0,84,87,167,180,54,160.76,364,35.00,33.00,-982.00
2024-06-07 15:14:35.948788,1,0,-7,0,0,0,84,87,167,180,54,160.70,364,27.00,29.00,-1007.00
2024-06-07 15:14:36.144709,1,0,-7,0,0,0,84,87,168,180,54,160.70,364,41.00,-9.00,-1052.00
2024-06-07 15:14:36.156418,1,0,-7,0,0,0,84,87,166,180,54,160.80,364,41.00,0.00,-985.00
2024-06-07 15:14:36.254872,1,0,-7,0,0,0,84,86,168,180,53,160.79,364,-7.00,26.00,-1008.00
2024-06-07 15:14:36.356783,1,0,-8,0,0,0,84,86,168,180,53,160.76,364,55.00,-1.00,-944.00
2024-06-07 15:14:36.459001,1,0,-8,0,0,0,84,86,169,180,53,160.84,364,59.00,0.00,-1028.00
2024-06-07 15:14:36.560812,1,0,-8,0,0,0,84,86,168,180,53,160.80,365,56.00,1.00,-1096.00
2024-06-07 15:14:36.663754,1,0,-8,0,0,0,84,86,167,180,53,160.75,365,39.00,2.00,-964.00
2024-06-07 15:14:36.764839,1,0,-8,0,0,0,84,86,166,180,53,160.82,365,21.00,26.00,-1013.00
2024-06-07 15:14:36.963532,1,0,-7,0,0,0,84,86,169,180,53,160.80,365,11.00,44.00,-956.00
2024-06-07 15:14:36.968666,1,-1,-7,0,0,0,84,86,167,180,53,160.76,365,19.00,28.00,-1021.00
2024-06-07 15:14:37.168770,1,-1,-7,0,0,0,84,86,170,170,53,160.76,365,21.00,37.00,-947.00
2024-06-07 15:14:37.172902,0,-1,-7,0,0,0,84,86,167,170,53,160.90,365,-17.00,47.00,-1019.00
2024-06-07 15:14:37.274970,1,-1,-7,0,0,0,84,87,169,170,53,160.85,365,-20.00,22.00,-1085.00
2024-06-07 15:14:37.475430,1,-1,-7,0,0,0,84,87,169,170,53,160.73,365,34.00,-7.00,-1012.00
2024-06-07 15:14:37.479198,1,0,-7,0,0,0,84,87,171,170,53,160.77,365,30.00,10.00,-926.00
2024-06-07 15:14:37.680368,0,0,-7,0,0,0,84,87,173,170,53,160.85,366,22.00,21.00,-1021.00
2024-06-07 15:14:37.684052,0,0,-8,0,0,0,84,87,172,170,53,160.86,366,-25.00,16.00,-1042.00
2024-06-07 15:14:37.785980,0,0,-8,0,0,0,84,87,175,180,53,160.86,366,4.00,12.00,-986.00
2024-06-07 15:14:37.888829,0,0,-7,0,0,0,84,87,173,180,53,160.80,366,-23.00,27.00,-1074.00
2024-06-07 15:14:37.939784,0,-1,-7,0,0,0,84,87,175,180,53,160.88,366,31.00,-4.00,-936.00
2024-06-07 15:14:38.089969,0,-1,-7,0,0,0,84,87,176,180,53,160.93,366,32.00,24.00,-1002.00
2024-06-07 15:14:38.143357,0,-1,-7,0,0,0,84,87,180,180,53,160.89,366,41.00,-23.00,-1005.00
2024-06-07 15:14:38.294612,0,0,-7,0,0,0,84,86,181,180,53,160.98,366,-4.00,-33.00,-1227.00
2024-06-07 15:14:38.346572,0,1,-7,0,0,-3,84,86,182,180,53,161.06,366,4.00,81.00,-1699.00
2024-06-07 15:14:38.500042,0,5,-7,0,1,-10,84,86,192,190,53,161.12,366,-38.00,-23.00,-1686.00
2024-06-07 15:14:38.550437,0,76,-7,0,6,-14,84,86,509,200,53,161.24,367,4.00,700.00,-1233.00
2024-06-07 15:14:38.652589,1,-160,-9,1,12,-1,84,86,6553,210,53,161.14,367,39.00,731.00,-799.00
2024-06-07 15:14:38.806653,1,-42,-5,0,7,9,84,86,241,210,53,161.45,367,-38.00,677.00,-1527.00
2024-06-07 15:14:38.856528,0,19,-5,0,6,8,84,86,201,200,53,160.90,367,-34.00,74.00,-1124.00
2024-06-07 15:14:39.011266,0,0,-5,1,9,5,84,86,179,190,53,160.84,367,0.00,-53.00,-1452.00
2024-06-07 15:14:39.060498,0,-7,-6,1,8,2,84,86,174,180,53,160.78,367,-33.00,-7.00,-1257.00
2024-06-07 15:14:39.216214,0,-8,-7,0,7,0,84,86,171,180,53,160.81,367,-18.00,-35.00,-1118.00
2024-06-07 15:14:39.264659,0,-6,-7,0,5,0,83,86,166,180,53,160.74,367,-27.00,16.00,-1088.00
2024-06-07 15:14:39.421028,0,-4,-8,0,4,0,83,86,164,180,53,160.76,367,10.00,11.00,-994.00
2024-06-07 15:14:39.469090,0,-3,-8,0,2,0,83,86,164,170,53,160.65,367,39.00,-20.00,-1060.00
