TS,pitch,roll,yaw,vgx,vgy,vgz,templ,temph,tof,h,bat,baro,time,agx,agy,agz
2024-06-07 15:15:17.976983,0,0,-10,0,0,0,86,88,10,0,50,158.95,388,8.00,4.00,-998.00
2024-06-07 15:15:18.129771,0,0,-10,0,0,0,86,88,10,0,50,159.02,388,11.00,5.00,-997.00
2024-06-07 15:15:18.182498,0,0,-10,0,0,0,86,88,10,0,50,159.06,388,9.00,4.00,-1001.00
2024-06-07 15:15:18.332461,0,0,-10,0,0,0,86,88,10,0,50,159.14,388,10.00,6.00,-1003.00
2024-06-07 15:15:18.384467,0,0,-10,0,0,0,86,88,10,0,50,158.99,388,10.00,4.00,-999.00
2024-06-07 15:15:18.537402,0,0,-10,0,0,0,86,88,10,0,50,159.01,388,9.00,6.00,-1000.00
2024-06-07 15:15:18.639839,0,0,-10,0,0,0,86,88,10,0,50,159.05,388,9.00,5.00,-1000.00
2024-06-07 15:15:18.690569,0,0,-10,0,0,0,86,88,10,0,50,159.04,388,10.00,6.00,-1000.00
2024-06-07 15:15:18.844736,0,0,-10,0,0,0,86,88,10,0,50,159.04,388,8.00,7.00,-1001.00
2024-06-07 15:15:18.894472,0,0,-10,0,0,0,86,88,10,0,50,159.00,388,8.00,6.00,-999.00
2024-06-07 15:15:19.049519,0,0,-10,0,0,0,86,88,10,0,50,159.03,388,10.00,5.00,-1000.00
2024-06-07 15:15:19.098387,0,0,-10,0,0,0,86,88,10,0,50,159.03,388,8.00,7.00,-998.00
2024-06-07 15:15:19.254103,0,0,-10,0,0,0,86,88,10,0,50,159.01,388,10.00,6.00,-1000.00
2024-06-07 15:15:19.308318,0,0,-10,0,0,0,86,88,10,0,50,159.01,388,8.00,5.00,-1000.00
2024-06-07 15:15:19.409515,0,0,-10,0,0,0,86,88,10,0,50,158.97,388,11.00,4.00,-1002.00
2024-06-07 15:15:19.506407,0,0,-10,0,0,0,86,89,10,0,50,159.02,388,9.00,5.00,-1001.00
2024-06-07 15:15:19.663817,0,0,-10,0,0,0,86,89,10,0,50,158.98,388,10.00,6.00,-1001.00
2024-06-07 15:15:19.710417,0,0,-10,0,0,0,86,89,10,0,50,159.03,388,9.00,5.00,-1000.00
2024-06-07 15:15:19.868568,0,0,-10,0,0,0,86,89,10,0,50,159.00,388,9.00,6.00,-998.00
2024-06-07 15:15:19.914395,0,0,-10,0,0,0,86,89,10,0,50,159.05,388,9.00,5.00,-999.00
2024-06-07 15:15:20.073240,0,0,-10,0,0,0,86,89,10,0,50,159.00,388,11.00,5.00,-997.00
2024-06-07 15:15:20.118319,0,0,-10,0,0,0,86,89,10,0,50,159.00,388,10.00,6.00,-999.00
2024-06-07 15:15:20.278188,0,0,-10,0,0,0,86,89,10,0,50,159.05,388,8.00,5.00,-1002.00
2024-06-07 15:15:20.322505,0,0,-10,0,0,0,86,89,10,0,50,159.00,388,9.00,4.00,-999.00
2024-06-07 15:15:20.482934,0,0,-10,0,0,0,86,89,10,0,50,159.01,388,9.00,6.00,-997.00
2024-06-07 15:15:20.526474,0,0,-10,0,0,0,86,89,10,0,50,159.07,388,10.00,5.00,-998.00
2024-06-07 15:15:20.628423,0,0,-10,0,0,0,86,89,10,0,50,159.06,388,9.00,4.00,-1001.00
2024-06-07 15:15:20.790078,0,0,-10,0,0,0,86,89,10,0,50,158.98,388,9.00,4.00,-999.00
2024-06-07 15:15:20.832348,0,0,-10,0,0,0,86,89,10,0,50,159.01,388,12.00,4.00,-998.00
2024-06-07 15:15:20.994862,0,0,-10,0,0,0,86,89,10,0,50,159.01,388,9.00,6.00,-999.00
2024-06-07 15:15:21.036469,0,0,-10,0,0,0,86,89,10,0,50,159.01,388,9.00,4.00,-999.00
2024-06-07 15:15:21.199697,0,0,-10,0,0,0,86,89,10,0,50,159.02,388,3.00,5.00,-1009.00
2024-06-07 15:15:21.240317,0,0,-10,0,0,0,86,89,10,0,50,159.02,388,-3.00,-10.00,-1002.00
2024-06-07 15:15:21.404449,0,0,-10,0,0,0,86,89,10,0,50,159.02,388,17.00,6.00,-994.00
2024-06-07 15:15:21.444419,0,0,-10,0,0,0,86,89,10,0,50,159.02,388,-6.00,-6.00,-993.00
2024-06-07 15:15:21.609099,0,0,-8,0,0,0,87,89,10,0,50,159.02,388,-52.00,-13.00,-1050.00
2024-06-07 15:15:21.649413,0,0,-7,0,0,0,87,89,10,0,50,159.02,388,-1.00,6.00,-1015.00
2024-06-07 15:15:21.700211,1,1,-6,0,0,0,87,89,10,0,50,159.02,388,-2.00,0.00,-1083.00
2024-06-07 15:15:21.802375,1,0,-6,0,0,-2,87,89,10,0,50,159.02,388,-3.00,-69.00,-1355.00
2024-06-07 15:15:21.904266,-2,1,-6,-1,0,-5,87,89,10,0,50,159.02,388,-107.00,120.00,-1227.00
2024-06-07 15:15:22.018791,-3,0,-6,0,0,-7,87,89,19,10,50,159.20,388,-24.00,-7.00,-1123.00
2024-06-07 15:15:22.108293,-2,0,-6,0,0,-8,87,89,25,20,50,159.33,389,25.00,-12.00,-1038.00
2024-06-07 15:15:22.210387,-2,0,-6,0,0,-8,87,89,32,20,50,159.33,389,-17.00,-19.00,-992.00
2024-06-07 15:15:22.313314,-2,0,-6,0,0,-8,87,89,39,30,50,159.49,389,-45.00,-14.00,-972.00
2024-06-07 15:15:22.428442,-2,0,-6,0,0,-7,87,89,46,40,50,159.52,389,-67.00,10.00,-923.00
2024-06-07 15:15:22.516476,-3,0,-6,-1,0,-6,86,90,58,50,50,159.63,389,-20.00,-8.00,-861.00
2024-06-07 15:15:22.634594,-4,0,-6,0,0,-5,86,90,63,50,50,159.70,389,-41.00,3.00,-796.00
2024-06-07 15:15:22.720209,-3,0,-6,0,0,-3,86,90,67,60,50,159.75,389,-26.00,-9.00,-864.00
2024-06-07 15:15:22.840466,-3,0,-6,0,0,-2,86,90,70,60,50,159.79,389,-18.00,-1.00,-888.00
2024-06-07 15:15:22.924149,-2,0,-6,0,0,-1,86,90,72,60,50,159.82,389,-23.00,5.00,-920.00
2024-06-07 15:15:23.042650,-2,0,-6,0,0,-1,86,90,74,60,50,159.79,389,-6.00,-16.00,-899.00
2024-06-07 15:15:23.128139,-3,0,-6,0,0,0,86,90,75,60,50,159.91,390,-40.00,-10.00,-947.00
2024-06-07 15:15:23.230179,-3,0,-6,0,0,0,86,90,75,60,50,159.92,390,-92.00,29.00,-970.00
2024-06-07 15:15:23.332214,-3,0,-6,0,0,0,86,90,75,60,50,159.82,390,-4.00,-34.00,-978.00
2024-06-07 15:15:23.452510,-3,0,-6,0,0,0,86,90,75,60,50,159.87,390,-32.00,-17.00,-1017.00
2024-06-07 15:15:23.536175,-2,0,-6,0,0,0,87,90,75,60,50,159.83,390,-106.00,28.00,-969.00
2024-06-07 15:15:23.638280,-2,0,-6,0,0,0,87,90,76,60,50,159.84,390,-30.00,-14.00,-1021.00
2024-06-07 15:15:23.740280,-2,0,-6,0,0,0,87,90,77,70,50,159.86,390,-63.00,-16.00,-991.00
2024-06-07 15:15:23.842320,-2,0,-6,0,0,0,87,90,78,70,50,159.87,390,-81.00,-3.00,-979.00
2024-06-07 15:15:23.964440,-2,0,-6,0,0,0,87,90,78,70,50,159.92,390,-39.00,-22.00,-1015.00
2024-06-07 15:15:24.046225,-2,0,-6,0,0,0,87,90,79,70,50,159.84,390,-51.00,-36.00,-1050.00
2024-06-07 15:15:24.169198,-2,0,-6,0,0,0,87,90,79,70,50,159.89,391,-41.00,-24.00,-1006.00
2024-06-07 15:15:24.250163,-3,0,-6,0,0,0,87,90,80,70,50,159.92,391,-24.00,-25.00,-1015.00
2024-06-07 15:15:24.373996,-3,0,-6,0,0,0,87,90,81,70,50,159.92,391,-67.00,1.00,-1021.00
2024-06-07 15:15:24.454141,-2,0,-6,0,0,0,87,90,81,70,50,159.93,391,-91.00,10.00,-1029.00
2024-06-07 15:15:24.578758,-2,0,-6,0,0,0,88,89,82,70,50,159.96,391,-98.00,8.00,-1050.00
2024-06-07 15:15:24.658135,-2,0,-6,0,0,0,88,89,82,70,50,159.91,391,-95.00,22.00,-926.00
2024-06-07 15:15:24.760118,-2,0,-6,0,0,0,88,89,82,70,50,159.89,391,-15.00,-32.00,-961.00
2024-06-07 15:15:24.886015,-2,0,-6,0,0,0,88,89,82,70,50,159.82,391,-62.00,15.00,-1027.00
2024-06-07 15:15:24.964111,-2,0,-6,0,0,0,88,89,81,70,50,159.81,391,-18.00,-39.00,-987.00
2024-06-07 15:15:25.066136,-2,0,-6,0,0,0,88,89,81,70,50,159.94,391,-47.00,3.00,-1011.00
2024-06-07 15:15:25.168100,-2,0,-6,0,0,0,88,89,81,70,50,159.93,392,-37.00,-23.00,-981.00
2024-06-07 15:15:25.296077,-2,0,-6,0,0,0,88,89,80,70,50,159.91,392,-51.00,5.00,-969.00
2024-06-07 15:15:25.373092,-2,0,-6,0,0,0,88,89,80,70,50,159.93,392,-50.00,18.00,-969.00
2024-06-07 15:15:25.474376,-2,0,-6,0,0,0,88,89,80,70,50,159.93,392,-81.00,16.00,-1002.00
2024-06-07 15:15:25.603032,-2,0,-6,0,0,0,87,89,80,70,50,159.86,392,-16.00,-13.00,-963.00
2024-06-07 15:15:25.678310,-2,0,-6,0,0,0,87,89,80,70,50,159.89,392,-68.00,12.00,-1025.00
2024-06-07 15:15:25.780277,-2,0,-6,0,0,0,87,89,79,70,50,159.92,392,-44.00,6.00,-838.00
2024-06-07 15:15:25.831326,-2,0,-6,0,0,0,87,89,78,70,50,159.87,392,-65.00,17.00,-987.00
2024-06-07 15:15:25.938379,-2,0,-6,0,0,0,87,89,78,70,50,159.84,392,-57.00,10.00,-1132.00
2024-06-07 15:15:26.035231,-1,0,-6,0,0,0,87,89,78,70,50,159.87,392,-25.00,-15.00,-1054.00
2024-06-07 15:15:26.137375,-2,0,-6,0,0,0,87,89,78,70,50,159.93,393,-65.00,15.00,-1080.00
2024-06-07 15:15:26.319600,-2,0,-6,0,0,0,87,89,77,70,50,159.81,393,-15.00,-25.00,-954.00
2024-06-07 15:15:26.341156,-2,0,-6,0,0,0,87,89,78,70,50,159.83,393,-36.00,0.00,-991.00
2024-06-07 15:15:26.524527,-2,0,-7,0,0,0,87,89,79,70,50,159.82,393,-53.00,-1.00,-1051.00
2024-06-07 15:15:26.545249,-2,0,-7,0,0,0,86,89,79,70,50,159.79,393,-42.00,-7.00,-1035.00
2024-06-07 15:15:26.647331,-2,0,-7,0,0,0,86,89,80,70,50,159.78,393,-55.00,-25.00,-1010.00
2024-06-07 15:15:26.831806,-2,0,-7,0,0,0,86,89,82,70,50,159.91,393,-13.00,2.00,-857.00
2024-06-07 15:15:26.851200,-3,0,-7,0,0,0,86,89,82,70,50,159.89,393,-63.00,7.00,-969.00
2024-06-07 15:15:27.036912,-3,0,-7,0,0,0,86,89,83,70,50,159.90,393,-40.00,-17.00,-983.00
2024-06-07 15:15:27.055259,-3,0,-7,0,0,0,86,89,83,70,50,159.88,393,-68.00,-21.00,-965.00
2024-06-07 15:15:27.157423,-2,0,-7,0,0,0,86,89,83,70,50,159.91,394,-16.00,-26.00,-949.00
2024-06-07 15:15:27.343721,-2,1,-7,0,0,0,86,89,82,70,50,159.84,394,-53.00,-18.00,-913.00
2024-06-07 15:15:27.361183,-2,1,-7,0,0,0,86,89,81,70,50,159.82,394,-34.00,-29.00,-935.00
2024-06-07 15:15:27.463204,-2,1,-7,0,0,0,86,89,80,70,50,159.91,394,-34.00,-32.00,-953.00
2024-06-07 15:15:27.650745,-1,1,-7,0,0,0,86,89,79,70,50,159.84,394,-41.00,-3.00,-903.00
2024-06-07 15:15:27.667924,-1,1,-7,0,0,0,86,89,78,70,50,159.87,394,-56.00,-41.00,-1152.00
2024-06-07 15:15:27.855547,-1,1,-6,0,0,0,86,89,78,70,50,159.85,394,-48.00,-31.00,-1107.00
2024-06-07 15:15:27.872000,-1,1,-6,0,0,-1,86,89,81,70,50,159.89,394,-48.00,-34.00,-1089.00
2024-06-07 15:15:28.060350,-1,1,-6,0,0,-2,86,89,82,70,50,159.84,394,-44.00,8.00,-1272.00
2024-06-07 15:15:28.075973,-1,2,-6,0,0,-4,86,89,86,70,50,159.99,394,14.00,-57.00,-1110.00
2024-06-07 15:15:28.178016,-2,1,-6,0,0,-4,86,89,90,80,50,159.94,395,-66.00,-29.00,-1067.00
2024-06-07 15:15:28.367761,-1,1,-6,0,0,-5,86,89,93,80,50,159.93,395,-54.00,-4.00,-878.00
2024-06-07 15:15:28.382072,-1,1,-6,0,0,-5,86,89,98,90,50,160.01,395,-23.00,-51.00,-991.00
2024-06-07 15:15:28.484874,-1,1,-6,0,0,-5,86,89,102,90,50,160.12,395,-93.00,17.00,-975.00
2024-06-07 15:15:28.585976,-2,0,-6,0,0,-5,87,89,107,100,50,160.14,395,-64.00,-7.00,-1021.00
2024-06-07 15:15:28.687953,-2,0,-6,0,0,-5,87,89,111,100,50,160.11,395,-39.00,-24.00,-996.00
2024-06-07 15:15:28.789924,-2,0,-6,0,0,-5,87,89,115,110,50,160.18,395,-48.00,6.00,-1000.00
2024-06-07 15:15:28.981965,-2,0,-6,0,0,-4,87,89,118,110,50,160.15,395,-57.00,14.00,-1010.00
2024-06-07 15:15:28.993842,-2,0,-6,0,0,-4,87,89,122,120,50,160.26,395,-42.00,10.00,-1015.00
2024-06-07 15:15:29.186729,-1,0,-6,0,0,-4,87,89,126,120,50,160.29,395,-32.00,-30.00,-1010.00
2024-06-07 15:15:29.199246,-1,0,-6,0,0,-4,87,89,130,120,50,160.37,396,-68.00,-7.00,-980.00
2024-06-07 15:15:29.393890,-2,0,-6,0,0,-3,87,89,133,130,50,160.41,396,-82.00,21.00,-992.00
2024-06-07 15:15:29.403299,-1,0,-6,0,0,-3,87,89,138,130,50,160.40,396,-37.00,-1.00,-1011.00
2024-06-07 15:15:29.453293,-2,0,-6,0,0,-3,87,89,139,130,50,160.47,396,-31.00,-30.00,-1083.00
2024-06-07 15:15:29.608869,-2,0,-6,0,0,-3,87,89,144,140,50,160.52,396,-59.00,-29.00,-999.00
2024-06-07 15:15:29.656995,-1,0,-6,0,0,-3,87,89,147,140,50,160.53,396,-6.00,-19.00,-1001.00
2024-06-07 15:15:29.759979,-1,0,-6,0,0,-2,87,89,152,140,50,160.51,396,-62.00,-14.00,-1036.00
2024-06-07 15:15:29.861132,-1,0,-6,0,0,-2,87,89,155,140,50,160.60,396,-12.00,-29.00,-951.00
2024-06-07 15:15:30.006062,-1,0,-6,0,0,-2,87,89,158,150,50,160.58,396,6.00,-37.00,-926.00
2024-06-07 15:15:30.065032,-1,1,-6,0,0,-2,87,89,158,150,50,160.67,396,7.00,-43.00,-1043.00
2024-06-07 15:15:30.214267,-1,1,-6,0,0,-2,87,89,162,150,50,160.72,397,-18.00,-40.00,-951.00
2024-06-07 15:15:30.268934,-1,1,-6,0,0,-2,87,89,164,160,50,160.67,397,-59.00,1.00,-1005.00
2024-06-07 15:15:30.415510,-1,1,-6,0,0,-2,87,89,167,160,50,160.75,397,-57.00,-15.00,-964.00
2024-06-07 15:15:30.473087,-1,1,-6,0,0,-1,87,89,170,160,50,160.75,397,-7.00,-33.00,-953.00
2024-06-07 15:15:30.620317,-1,1,-6,0,0,-1,86,88,171,160,50,160.77,397,-25.00,-31.00,-975.00
2024-06-07 15:15:30.677586,-1,1,-6,0,0,-1,86,88,172,160,50,160.75,397,-39.00,-8.00,-959.00
2024-06-07 15:15:30.828109,-1,0,-6,0,0,-1,86,88,174,160,50,160.71,397,-20.00,-28.00,-919.00
2024-06-07 15:15:30.884394,-1,1,-6,0,0,-1,86,88,175,160,50,160.81,397,-52.00,-21.00,-1045.00
2024-06-07 15:15:30.986876,-1,1,-6,0,0,-1,86,88,176,170,50,160.80,397,-19.00,-25.00,-946.00
2024-06-07 15:15:31.085066,-1,1,-6,0,0,0,86,88,175,170,50,160.83,397,-47.00,-31.00,-962.00
2024-06-07 15:15:31.235934,-1,1,-6,0,0,0,86,88,177,170,50,160.78,398,-103.00,-15.00,-1098.00
2024-06-07 15:15:31.289362,-1,1,-6,0,0,0,86,88,175,170,50,160.82,398,-2.00,-61.00,-974.00
2024-06-07 15:15:31.439682,-1,1,-6,0,0,0,86,88,176,170,50,160.85,398,-111.00,15.00,-967.00
2024-06-07 15:15:31.501239,-2,1,-6,0,0,0,86,88,176,170,50,160.83,398,-114.00,10.00,-1078.00
2024-06-07 15:15:31.595812,-1,1,-6,0,0,0,85,88,176,170,50,160.89,398,-18.00,-37.00,-935.00
2024-06-07 15:15:31.697088,-1,1,-6,0,0,0,85,88,177,170,50,160.74,398,-7.00,-35.00,-1012.00
2024-06-07 15:15:31.824195,-1,1,-6,0,0,0,85,88,171,170,50,160.79,398,-37.00,-19.00,-1001.00
2024-06-07 15:15:31.901360,-1,1,-6,0,0,0,85,88,174,170,50,160.71,398,-44.00,-30.00,-1008.00
2024-06-07 15:15:32.053976,-2,1,-6,0,0,0,85,88,176,170,50,160.74,398,-26.00,-40.00,-1002.00
2024-06-07 15:15:32.104948,-1,1,-6,0,0,0,85,88,174,160,50,160.73,398,-70.00,-10.00,-1026.00
2024-06-07 15:15:32.258838,-1,1,-6,0,0,0,85,88,174,160,50,160.74,399,-35.00,-31.00,-1006.00
2024-06-07 15:15:32.309091,-2,1,-6,0,0,0,85,88,174,160,50,160.74,399,-12.00,-59.00,-1022.00
2024-06-07 15:15:32.463562,-1,1,-6,0,0,0,85,88,173,160,50,160.78,399,-30.00,-32.00,-950.00
2024-06-07 15:15:32.513129,-1,1,-6,0,0,0,85,88,172,160,50,160.81,399,4.00,-72.00,-985.00
2024-06-07 15:15:32.673723,-1,2,-6,0,0,0,86,88,174,160,50,160.76,399,-40.00,-29.00,-960.00
2024-06-07 15:15:32.716967,-1,2,-6,0,0,0,86,88,175,160,50,160.75,399,-26.00,-38.00,-1019.00
2024-06-07 15:15:32.878746,-1,2,-6,0,0,0,86,88,174,160,50,160.77,399,-21.00,-35.00,-920.00
2024-06-07 15:15:32.920954,-1,2,-6,0,0,0,86,88,175,160,50,160.77,399,-90.00,-23.00,-1040.00
2024-06-07 15:15:33.024902,-1,2,-6,0,0,0,86,88,178,160,50,160.74,399,-32.00,-35.00,-1141.00
2024-06-07 15:15:33.125639,-1,2,-6,0,0,-1,86,88,175,160,50,160.73,399,-28.00,-42.00,-908.00
2024-06-07 15:15:33.282864,-2,1,-6,0,0,0,86,88,178,170,50,160.78,400,-80.00,-5.00,-930.00
2024-06-07 15:15:33.282925,-2,1,-6,0,0,0,86,88,174,170,50,160.80,400,-20.00,-31.00,-874.00
2024-06-07 15:15:33.383288,-2,1,-6,0,0,0,86,88,175,170,50,160.82,400,-30.00,-38.00,-940.00
2024-06-07 15:15:33.482167,-1,1,-6,0,0,1,86,88,175,170,50,160.79,400,-7.00,-28.00,-946.00
2024-06-07 15:15:33.634675,0,2,-6,0,0,2,86,88,169,160,50,160.74,400,-30.00,-46.00,-951.00
2024-06-07 15:15:33.794928,0,2,-6,0,0,3,86,88,167,160,50,160.66,400,-42.00,-25.00,-932.00
2024-06-07 15:15:33.838749,-1,2,-6,0,0,3,86,88,162,150,50,160.65,400,-4.00,-89.00,-1178.00
2024-06-07 15:15:34.002695,-1,2,-6,0,0,3,86,88,159,150,50,160.64,400,-31.00,-48.00,-992.00
2024-06-07 15:15:34.003363,-1,3,-6,0,0,4,86,88,154,150,50,160.66,400,-20.00,-38.00,-955.00
2024-06-07 15:15:34.093635,-1,3,-6,0,0,4,86,88,151,140,50,160.50,401,-40.00,-43.00,-1041.00
2024-06-07 15:15:34.195652,-1,3,-6,0,0,3,86,88,149,140,50,160.46,401,-41.00,-49.00,-1018.00
2024-06-07 15:15:34.307311,-1,3,-6,0,0,3,86,88,146,130,50,160.51,401,-13.00,-57.00,-968.00
2024-06-07 15:15:34.399637,-1,3,-6,0,0,2,86,88,143,130,50,160.38,401,-39.00,-52.00,-1013.00
2024-06-07 15:15:34.511350,-1,3,-6,0,0,2,86,88,141,130,50,160.46,401,-10.00,-57.00,-1045.00
2024-06-07 15:15:34.603497,-2,3,-6,0,0,2,86,88,140,130,50,160.46,401,-45.00,-74.00,-1022.00
2024-06-07 15:15:34.705617,-2,2,-6,0,0,1,86,88,139,130,50,160.41,401,-26.00,-66.00,-1011.00
2024-06-07 15:15:34.818662,-2,2,-6,0,0,0,86,88,139,120,50,160.44,401,-55.00,-49.00,-936.00
2024-06-07 15:15:34.909575,-2,2,-6,0,0,0,86,88,137,120,50,160.35,401,-55.00,-42.00,-1004.00
2024-06-07 15:15:35.023405,-1,1,-6,0,0,0,86,88,137,120,50,160.40,401,-65.00,-37.00,-953.00
2024-06-07 15:15:35.113723,-1,1,-6,0,0,0,86,88,136,120,50,160.40,402,-26.00,-39.00,-980.00
2024-06-07 15:15:35.228266,-1,1,-6,0,0,0,86,88,135,120,50,160.38,402,-12.00,-60.00,-1019.00
2024-06-07 15:15:35.317604,-1,2,-6,0,0,0,86,88,135,120,50,160.43,402,-35.00,-33.00,-1034.00
2024-06-07 15:15:35.420075,-1,2,-6,0,0,0,86,88,134,120,50,160.39,402,-76.00,-28.00,-1009.00
2024-06-07 15:15:35.522396,-1,2,-6,0,0,0,86,88,133,120,50,160.38,402,-39.00,-44.00,-960.00
2024-06-07 15:15:35.623625,-1,2,-6,0,0,0,85,88,131,120,50,160.38,402,-4.00,-84.00,-974.00
2024-06-07 15:15:35.742757,-1,2,-6,0,0,0,85,88,130,120,50,160.43,402,-28.00,-52.00,-1057.00
2024-06-07 15:15:35.828130,-1,2,-6,0,0,0,85,88,130,120,50,160.33,402,-34.00,-49.00,-921.00
2024-06-07 15:15:35.945460,-1,2,-6,0,0,0,85,88,129,120,50,160.33,402,-22.00,-29.00,-1047.00
2024-06-07 15:15:36.031559,-1,2,-6,0,0,0,85,88,129,120,50,160.33,402,-42.00,-42.00,-1063.00
2024-06-07 15:15:36.149948,-1,2,-6,0,0,0,85,88,128,120,50,160.31,403,-46.00,-40.00,-1015.00
2024-06-07 15:15:36.235705,-1,1,-6,0,0,0,85,88,128,120,50,160.34,403,-39.00,-26.00,-1002.00
2024-06-07 15:15:36.354738,-1,2,-6,0,0,0,85,88,128,120,50,160.39,403,-14.00,-63.00,-974.00
2024-06-07 15:15:36.439695,-1,2,-6,0,0,0,85,88,127,120,50,160.24,403,-70.00,-38.00,-979.00
2024-06-07 15:15:36.542503,-1,2,-6,0,0,0,85,88,128,120,50,160.32,403,-42.00,-39.00,-1087.00
2024-06-07 15:15:36.644623,-1,2,-6,0,0,0,85,88,126,120,50,160.32,403,-26.00,-49.00,-1005.00
2024-06-07 15:15:36.746704,-1,2,-6,0,0,0,85,88,125,120,50,160.33,403,-20.00,-49.00,-911.00
2024-06-07 15:15:36.847835,-1,2,-6,0,0,0,85,88,125,120,50,160.28,403,-21.00,-53.00,-994.00
2024-06-07 15:15:36.971907,-2,2,-6,0,0,0,85,88,125,120,50,160.33,403,35.00,-95.00,-968.00
2024-06-07 15:15:37.051584,-1,2,-6,0,0,0,85,88,123,120,50,160.27,403,-61.00,-42.00,-1023.00
2024-06-07 15:15:37.187688,-1,2,-6,0,0,0,85,88,124,110,50,160.31,404,-41.00,-48.00,-1120.00
2024-06-07 15:15:37.255587,-1,2,-6,0,0,0,85,88,123,110,50,160.24,404,-35.00,-48.00,-1091.00
2024-06-07 15:15:37.378930,-2,2,-6,0,0,0,85,88,124,110,50,160.26,404,-81.00,-15.00,-920.00
2024-06-07 15:15:37.459632,-2,2,-6,0,0,0,85,88,124,110,50,160.25,404,-51.00,-55.00,-1114.00
2024-06-07 15:15:37.586139,-2,2,-6,0,0,0,85,88,124,120,50,160.29,404,-8.00,-64.00,-1075.00
2024-06-07 15:15:37.663599,-2,2,-6,0,0,0,86,88,123,120,50,160.32,404,-26.00,-55.00,-966.00
2024-06-07 15:15:37.765963,-2,3,-6,0,0,0,86,88,122,120,50,160.28,404,-16.00,-60.00,-967.00
2024-06-07 15:15:37.867410,-2,3,-6,0,0,0,86,88,122,110,50,160.21,404,-67.00,-28.00,-994.00
2024-06-07 15:15:37.918625,-2,3,-6,0,0,0,86,88,122,110,50,160.22,404,-38.00,-56.00,-1009.00
2024-06-07 15:15:38.095430,-6,2,-6,0,0,0,86,88,122,110,50,160.28,404,-52.00,-57.00,-961.00
2024-06-07 15:15:38.122639,-8,1,-6,0,0,0,86,88,122,110,50,160.16,405,-23.00,-50.00,-1039.00
2024-06-07 15:15:38.300216,-8,1,-6,1,0,0,86,88,122,110,50,160.22,405,-56.00,-47.00,-1080.00
2024-06-07 15:15:38.326591,-8,1,-6,2,0,0,86,88,123,110,50,160.21,405,-71.00,-59.00,-1014.00
2024-06-07 15:15:38.508964,-8,1,-7,3,0,0,86,88,123,110,50,160.18,405,-88.00,-44.00,-1152.00
2024-06-07 15:15:38.530767,-8,1,-7,4,0,0,86,88,123,110,50,160.24,405,-113.00,-14.00,-997.00
2024-06-07 15:15:38.710824,-8,1,-7,4,-1,-1,86,88,125,110,50,160.14,405,-83.00,-76.00,-1069.00
2024-06-07 15:15:38.734504,-8,2,-7,5,-1,0,86,88,125,110,50,160.21,405,-53.00,-65.00,-942.00
2024-06-07 15:15:38.836752,-8,2,-7,5,-1,0,86,88,126,120,50,160.19,405,-87.00,-39.00,-943.00
2024-06-07 15:15:38.938501,-8,3,-7,6,-1,0,86,88,126,120,50,160.18,405,-51.00,-63.00,-962.00
2024-06-07 15:15:39.119366,-7,4,-7,6,-1,0,86,88,127,120,50,160.08,405,-66.00,-40.00,-1025.00
2024-06-07 15:15:39.142730,-3,4,-6,6,0,0,86,88,127,120,50,160.15,406,-165.00,-17.00,-976.00
2024-06-07 15:15:39.244567,0,3,-6,6,0,0,86,88,127,120,50,160.26,406,-72.00,-42.00,-965.00
2024-06-07 15:15:39.426612,1,2,-6,5,0,0,86,88,127,120,50,160.24,406,-120.00,-31.00,-898.00
2024-06-07 15:15:39.448520,0,2,-6,3,0,0,86,88,129,120,50,160.27,406,-114.00,-28.00,-1048.00
2024-06-07 15:15:39.631387,-2,2,-6,2,0,0,86,88,131,120,50,160.16,406,-73.00,-33.00,-1053.00
2024-06-07 15:15:39.652830,-3,2,-6,2,0,0,85,88,132,120,50,160.28,406,-89.00,-50.00,-1029.00
2024-06-07 15:15:39.836212,-3,2,-6,2,0,0,85,88,133,120,50,160.25,406,-70.00,-50.00,-929.00
2024-06-07 15:15:39.856471,-3,2,-6,2,0,0,85,88,133,120,50,160.21,406,-136.00,-16.00,-1053.00
2024-06-07 15:15:40.041010,-3,2,-6,3,0,0,85,88,136,120,50,160.32,406,-67.00,-64.00,-1002.00
2024-06-07 15:15:40.060411,-2,2,-6,3,0,0,85,88,134,120,50,160.22,406,-84.00,-43.00,-1004.00
2024-06-07 15:15:40.253204,-2,2,-6,3,0,0,85,88,136,120,50,160.24,407,-78.00,-44.00,-1026.00
2024-06-07 15:15:40.264443,-2,3,-6,3,0,0,85,88,137,120,50,160.36,407,-80.00,-44.00,-936.00
2024-06-07 15:15:40.450579,-2,3,-6,2,0,0,85,88,135,120,50,160.25,407,-42.00,-67.00,-1053.00
2024-06-07 15:15:40.468423,-1,2,-6,2,0,0,85,88,137,120,50,160.27,407,-54.00,-90.00,-972.00
2024-06-07 15:15:40.655366,2,2,-6,2,0,0,85,88,138,120,50,160.26,407,-81.00,-20.00,-989.00
2024-06-07 15:15:40.673645,1,2,-6,1,0,0,86,88,138,120,50,160.22,407,-92.00,-39.00,-982.00
2024-06-07 15:15:40.774827,0,2,-6,0,0,0,86,88,139,120,50,160.31,407,-49.00,-88.00,-1013.00
2024-06-07 15:15:40.962968,-1,3,-6,0,0,0,86,88,136,120,50,160.37,407,-17.00,-66.00,-1000.00
2024-06-07 15:15:40.980045,-1,3,-6,0,0,0,86,88,138,120,50,160.31,407,-32.00,-65.00,-962.00
2024-06-07 15:15:41.080953,-1,3,-6,0,0,0,86,88,136,120,50,160.41,407,-84.00,-16.00,-1059.00
2024-06-07 15:15:41.269843,-1,4,-7,0,0,0,86,88,137,120,50,160.49,408,-54.00,-38.00,-961.00
2024-06-07 15:15:41.286173,-1,3,-7,0,0,0,86,88,136,120,50,160.51,408,-53.00,-48.00,-1012.00
2024-06-07 15:15:41.387287,0,2,-6,0,0,0,86,88,134,120,50,160.45,408,-2.00,-68.00,-860.00
2024-06-07 15:15:41.488843,0,2,-6,0,0,0,86,88,133,120,50,160.33,408,-88.00,-28.00,-983.00
2024-06-07 15:15:41.682127,0,2,-6,0,0,1,86,88,131,120,50,160.40,408,-42.00,-81.00,-1026.00
2024-06-07 15:15:41.692640,-1,3,-6,0,0,1,86,88,130,120,50,160.45,408,-37.00,-54.00,-944.00
2024-06-07 15:15:41.884691,-1,3,-6,0,0,1,86,88,128,120,50,160.36,408,-62.00,-65.00,-1077.00
2024-06-07 15:15:41.896529,-2,3,-6,0,0,0,86,88,127,120,50,160.39,408,-26.00,-74.00,-994.00
2024-06-07 15:15:41.998922,-2,2,-6,0,0,0,86,88,125,120,50,160.39,408,-2.00,-30.00,-1077.00
2024-06-07 15:15:42.191363,-2,1,-6,0,0,0,86,88,124,110,50,160.29,408,-34.00,-25.00,-1061.00
2024-06-07 15:15:42.203700,-2,1,-6,0,0,0,86,88,122,110,50,160.32,409,-23.00,-47.00,-955.00
2024-06-07 15:15:42.253297,-2,1,-6,0,0,0,86,88,123,110,50,160.27,409,-39.00,-46.00,-973.00
2024-06-07 15:15:42.396393,-2,2,-6,0,0,0,86,88,122,110,50,160.28,409,-29.00,-66.00,-1006.00
2024-06-07 15:15:42.457326,-2,2,-7,0,0,0,86,88,124,110,50,160.37,409,-30.00,-51.00,-1260.00
2024-06-07 15:15:42.604579,-2,2,-7,0,0,-1,86,88,124,110,50,160.27,409,-43.00,-30.00,-939.00
2024-06-07 15:15:42.661736,-3,2,-7,0,0,0,86,88,126,110,50,160.30,409,-37.00,-45.00,-996.00
2024-06-07 15:15:42.763248,-2,1,-6,0,0,0,86,88,126,110,50,160.30,409,-64.00,-20.00,-922.00
2024-06-07 15:15:42.908181,-2,1,-6,0,0,0,86,88,127,120,50,160.32,409,-26.00,-64.00,-993.00
2024-06-07 15:15:42.967253,0,1,-6,0,0,0,86,88,127,120,50,160.23,409,-42.00,-73.00,-952.00
2024-06-07 15:15:43.112952,4,2,-6,-1,0,0,86,88,128,120,50,160.34,409,-39.00,-60.00,-1003.00
2024-06-07 15:15:43.171143,5,2,-6,-3,0,0,86,88,128,120,50,160.41,410,-65.00,-48.00,-967.00
2024-06-07 15:15:43.317989,5,2,-6,-4,0,0,86,88,128,120,50,160.36,410,-41.00,-20.00,-976.00
2024-06-07 15:15:43.376628,4,2,-6,-5,0,0,86,88,128,120,50,160.39,410,-31.00,-1.00,-1008.00
2024-06-07 15:15:43.522736,3,2,-6,-6,0,0,86,88,129,120,50,160.41,410,31.00,-107.00,-1006.00
2024-06-07 15:15:43.581328,2,2,-6,-7,0,0,86,88,129,120,50,160.47,410,-42.00,-54.00,-977.00
2024-06-07 15:15:43.684090,2,2,-6,-7,0,0,86,88,131,120,50,160.41,410,-26.00,-64.00,-1013.00
2024-06-07 15:15:43.785494,0,2,-6,-8,0,0,86,88,132,120,50,160.49,410,-21.00,-40.00,-1039.00
2024-06-07 15:15:43.932121,-3,3,-6,-7,0,0,86,88,132,120,50,160.42,410,-31.00,-38.00,-1128.00
2024-06-07 15:15:43.988343,-6,3,-7,-7,0,0,86,88,133,120,50,160.48,410,-53.00,-57.00,-967.00
2024-06-07 15:15:44.094656,-7,3,-7,-6,0,0,86,88,135,120,50,160.50,410,-32.00,-45.00,-1008.00
2024-06-07 15:15:44.196138,-7,1,-7,-4,0,0,86,88,135,120,49,160.43,411,-50.00,-29.00,-1014.00
2024-06-07 15:15:44.294380,-5,1,-7,-4,0,0,86,88,136,120,49,160.47,411,-37.00,-72.00,-940.00
2024-06-07 15:15:44.444489,-4,2,-7,-3,0,0,86,88,135,120,49,160.47,411,-15.00,-59.00,-1002.00
2024-06-07 15:15:44.498158,-3,3,-7,-3,0,0,86,88,139,120,49,160.52,411,-57.00,-42.00,-988.00
2024-06-07 15:15:44.651746,-3,3,-7,-3,0,0,86,88,138,120,49,160.57,411,-4.00,-35.00,-981.00
2024-06-07 15:15:44.708119,-3,3,-7,-3,0,0,86,88,137,120,49,160.50,411,0.00,-56.00,-960.00
2024-06-07 15:15:44.804285,-3,2,-7,-2,0,0,86,88,138,120,49,160.49,411,-26.00,-55.00,-965.00
2024-06-07 15:15:44.956183,-4,2,-7,-2,0,0,86,88,136,120,49,160.46,411,-3.00,-61.00,-1010.00
2024-06-07 15:15:45.008281,-5,2,-7,-1,0,0,86,88,137,120,49,160.35,411,-20.00,-65.00,-1033.00
2024-06-07 15:15:45.160915,-6,3,-7,-1,0,0,86,88,137,120,49,160.43,411,-12.00,-68.00,-930.00
2024-06-07 15:15:45.212445,-4,4,-7,0,0,0,86,88,137,120,49,160.34,412,-40.00,-73.00,-992.00
2024-06-07 15:15:45.374351,-2,7,-7,0,0,0,86,88,136,120,49,160.37,412,10.00,-83.00,-943.00
2024-06-07 15:15:45.416257,-1,8,-7,0,0,0,86,88,135,120,49,160.47,412,-21.00,-76.00,-973.00
2024-06-07 15:15:45.518243,-1,7,-7,0,1,0,86,88,133,120,49,160.36,412,-92.00,-39.00,-937.00
2024-06-07 15:15:45.620622,-1,5,-6,0,1,0,86,88,130,120,49,160.36,412,-46.00,-40.00,-886.00
2024-06-07 15:15:45.722410,-2,0,-6,0,1,0,86,88,128,120,49,160.39,412,-8.00,-77.00,-989.00
2024-06-07 15:15:45.773167,-1,0,-6,0,0,1,86,88,126,120,49,160.33,412,-39.00,-60.00,-944.00
2024-06-07 15:15:45.878037,-1,2,-6,0,0,1,86,88,125,120,49,160.33,412,-38.00,-60.00,-1032.00
2024-06-07 15:15:45.980404,-2,3,-6,0,0,1,86,88,125,120,49,160.22,412,11.00,-70.00,-1066.00
2024-06-07 15:15:46.082945,-1,4,-6,0,0,0,86,88,123,110,49,160.22,412,-6.00,-61.00,-994.00
2024-06-07 15:15:46.181396,-2,4,-6,0,0,0,86,88,123,110,49,160.19,413,-29.00,-37.00,-956.00
2024-06-07 15:15:46.289474,-1,3,-6,0,0,0,86,88,121,110,49,160.31,413,-63.00,-74.00,-1099.00
2024-06-07 15:15:46.385170,-1,3,-6,0,0,0,86,88,121,110,49,160.28,413,-82.00,-62.00,-1079.00
2024-06-07 15:15:46.492655,-1,3,-6,0,0,0,86,88,122,110,49,160.29,413,-10.00,-79.00,-942.00
2024-06-07 15:15:46.588941,-1,3,-7,0,0,0,86,88,121,110,49,160.28,413,-61.00,-67.00,-1030.00
2024-06-07 15:15:46.697200,-1,3,-6,0,0,0,85,88,123,110,49,160.16,413,-19.00,-68.00,-1059.00
2024-06-07 15:15:46.793336,-1,4,-6,0,0,0,85,88,124,110,49,160.28,413,-12.00,-94.00,-1019.00
2024-06-07 15:15:46.902039,-1,4,-6,0,0,0,85,88,124,110,49,160.25,413,-52.00,-75.00,-997.00
2024-06-07 15:15:46.997065,-1,4,-6,0,0,0,85,88,126,110,49,160.32,413,-101.00,-60.00,-1008.00
2024-06-07 15:15:47.106714,-2,3,-6,0,0,0,85,88,127,110,49,160.35,413,-64.00,-57.00,-991.00
2024-06-07 15:15:47.201028,-2,3,-6,0,0,-1,85,88,131,120,48,160.37,414,-45.00,-62.00,-934.00
2024-06-07 15:15:47.311480,-3,4,-6,0,0,0,85,88,131,120,48,160.34,414,-74.00,-71.00,-1010.00
2024-06-07 15:15:47.406479,-3,4,-7,0,0,0,85,88,133,120,48,160.38,414,-42.00,-75.00,-920.00
2024-06-07 15:15:47.507160,-2,5,-6,0,0,0,85,88,133,120,48,160.35,414,-41.00,-87.00,-984.00
2024-06-07 15:15:47.608992,-2,5,-6,0,0,0,85,88,133,120,48,160.38,414,-51.00,-86.00,-918.00
2024-06-07 15:15:47.710971,-2,2,-6,0,0,0,85,88,134,120,48,160.31,414,-50.00,-56.00,-912.00
2024-06-07 15:15:47.823267,-2,-4,-6,0,-1,0,85,88,134,120,48,160.35,414,-34.00,-98.00,-1030.00
2024-06-07 15:15:47.914959,-2,-3,-6,0,-2,0,85,88,133,120,48,160.27,414,-40.00,-68.00,-1003.00
2024-06-07 15:15:48.028122,-2,0,-6,0,-3,0,85,88,134,120,48,160.41,414,-47.00,-38.00,-965.00
2024-06-07 15:15:48.118953,-2,2,-6,0,-4,0,85,88,134,120,48,160.36,415,-44.00,-47.00,-1039.00
2024-06-07 15:15:48.232915,-3,5,-6,0,-4,0,85,88,136,120,48,160.36,415,-76.00,-25.00,-966.00
2024-06-07 15:15:48.322970,-3,5,-7,0,-3,0,85,88,136,120,48,160.38,415,-91.00,-15.00,-971.00
2024-06-07 15:15:48.437669,-3,4,-7,0,-2,0,85,88,138,120,48,160.35,415,-58.00,-44.00,-972.00
2024-06-07 15:15:48.527169,-3,2,-6,0,-2,0,85,88,139,120,48,160.33,415,-47.00,-60.00,-1008.00
2024-06-07 15:15:48.642464,-3,2,-6,0,-2,0,85,88,140,120,48,160.43,415,-48.00,-55.00,-952.00
2024-06-07 15:15:48.730894,-2,2,-6,0,-2,0,85,88,138,120,48,160.45,415,-54.00,-49.00,-955.00
2024-06-07 15:15:48.847327,-2,3,-6,0,-3,0,85,88,138,130,48,160.44,415,-70.00,-70.00,-991.00
2024-06-07 15:15:48.934870,-2,3,-6,0,-3,0,85,88,140,130,48,160.45,415,-55.00,-55.00,-950.00
2024-06-07 15:15:49.052314,-2,3,-6,0,-3,0,85,88,139,130,48,160.49,415,-57.00,-42.00,-980.00
2024-06-07 15:15:49.139886,-2,3,-6,0,-2,0,85,88,138,120,48,160.42,416,-77.00,-52.00,-995.00
2024-06-07 15:15:49.241048,-2,3,-7,0,-2,0,85,88,137,120,48,160.49,416,-33.00,-67.00,-1017.00
2024-06-07 15:15:49.362784,-2,3,-7,0,-2,0,85,88,136,120,48,160.46,416,-22.00,-56.00,-961.00
2024-06-07 15:15:49.444984,-1,7,-7,0,-2,0,85,88,137,120,48,160.42,416,-60.00,-28.00,-1099.00
2024-06-07 15:15:49.495992,-1,8,-6,0,-1,0,85,88,135,120,48,160.45,416,-82.00,-66.00,-1067.00
2024-06-07 15:15:49.666449,-2,6,-6,0,0,0,85,88,134,120,48,160.44,416,-4.00,-75.00,-1002.00
2024-06-07 15:15:49.750970,-2,4,-6,0,0,0,85,88,132,120,48,160.37,416,-34.00,-58.00,-1087.00
2024-06-07 15:15:49.871413,-3,3,-6,0,0,0,85,88,132,120,48,160.43,416,-54.00,-62.00,-942.00
2024-06-07 15:15:49.904090,-3,3,-7,0,0,0,85,88,131,120,48,160.42,416,-95.00,-54.00,-934.00
2024-06-07 15:15:50.076284,-2,4,-7,0,0,0,85,88,129,120,48,160.52,416,-52.00,-69.00,-968.00
2024-06-07 15:15:50.108247,-2,4,-7,0,-1,0,85,88,129,120,48,160.52,417,-32.00,-98.00,-1032.00
2024-06-07 15:15:50.257088,-1,6,-7,0,-1,0,85,88,128,120,48,160.57,417,-42.00,-99.00,-1060.00
2024-06-07 15:15:50.312115,-1,7,-7,0,-1,0,85,88,129,120,48,160.39,417,-66.00,-80.00,-1089.00
2024-06-07 15:15:50.485986,-1,7,-7,0,0,0,85,88,129,120,48,160.43,417,-64.00,-77.00,-1027.00
2024-06-07 15:15:50.519735,-1,7,-6,0,0,0,85,88,129,120,48,160.47,417,-73.00,-108.00,-1055.00
2024-06-07 15:15:50.618551,-2,6,-7,0,0,0,85,88,129,120,48,160.42,417,-17.00,-111.00,-957.00
2024-06-07 15:15:50.721293,-2,6,-6,0,0,0,85,88,128,120,48,160.48,417,-30.00,-100.00,-1020.00
2024-06-07 15:15:50.895458,-2,6,-6,0,0,0,85,88,128,120,48,160.43,417,-113.00,-101.00,-1017.00
2024-06-07 15:15:50.924062,-2,6,-6,0,0,0,85,88,128,120,48,160.55,417,-67.00,-112.00,-988.00
2024-06-07 15:15:51.100319,-2,7,-6,0,0,0,85,88,127,120,48,160.46,417,-104.00,-105.00,-1040.00
2024-06-07 15:15:51.128125,-3,7,-6,0,0,0,85,88,127,120,48,160.44,418,-87.00,-107.00,-994.00
2024-06-07 15:15:51.306369,-4,7,-6,0,0,0,85,88,126,120,48,160.51,418,-98.00,-97.00,-909.00
2024-06-07 15:15:51.332081,-4,7,-6,0,0,0,85,88,126,120,48,160.47,418,-138.00,-106.00,-1058.00
2024-06-07 15:15:51.509961,-4,7,-6,-1,0,0,85,88,127,120,48,160.52,418,-90.00,-122.00,-985.00
2024-06-07 15:15:51.536020,-5,7,-7,-1,0,0,85,88,126,110,48,160.54,418,-92.00,-105.00,-983.00
2024-06-07 15:15:51.671156,-5,6,-7,-1,0,0,85,88,127,110,48,160.55,418,-70.00,-123.00,-1002.00
2024-06-07 15:15:51.739953,-5,6,-7,-1,0,0,85,88,128,120,48,160.45,418,-145.00,-109.00,-976.00
2024-06-07 15:15:51.919229,-5,6,-7,-1,0,0,85,88,128,120,48,160.40,418,-98.00,-92.00,-947.00
2024-06-07 15:15:51.943940,-3,8,-6,-1,0,0,85,88,129,120,48,160.43,418,-103.00,-88.00,-991.00
2024-06-07 15:15:52.124116,-3,8,-6,-1,0,0,85,88,131,120,48,160.42,418,-85.00,-149.00,-1016.00
2024-06-07 15:15:52.147897,-4,7,-7,-1,1,0,85,88,131,120,48,160.39,419,-146.00,-113.00,-951.00
2024-06-07 15:15:52.328835,-5,6,-7,-2,1,0,85,88,133,120,47,160.39,419,-91.00,-110.00,-981.00
2024-06-07 15:15:52.351918,-6,6,-7,-2,1,0,85,88,134,120,47,160.49,419,-116.00,-110.00,-968.00
2024-06-07 15:15:52.533637,-7,5,-7,-2,1,0,85,88,136,120,47,160.49,419,-132.00,-90.00,-1026.00
2024-06-07 15:15:52.555844,-7,5,-7,-2,1,0,85,88,135,120,47,160.47,419,-88.00,-127.00,-999.00
2024-06-07 15:15:52.657806,-7,5,-7,-2,1,0,85,88,138,120,47,160.46,419,-143.00,-75.00,-966.00
2024-06-07 15:15:52.759919,-7,5,-7,-2,1,0,85,88,138,120,47,160.47,419,-112.00,-109.00,-994.00
2024-06-07 15:15:52.948303,-7,5,-7,-2,1,0,85,88,139,120,47,160.39,419,-172.00,-51.00,-963.00
2024-06-07 15:15:52.964152,-8,4,-7,-2,1,0,85,88,140,120,47,160.45,419,-101.00,-104.00,-999.00
2024-06-07 15:15:53.148046,-8,4,-7,-2,1,0,85,88,140,120,47,160.39,419,-60.00,-131.00,-932.00
2024-06-07 15:15:53.167858,-7,4,-7,-1,0,0,85,88,140,120,47,160.42,420,-129.00,-78.00,-952.00
2024-06-07 15:15:53.352799,-7,5,-7,-1,0,0,85,88,139,120,47,160.42,420,-125.00,-63.00,-967.00
2024-06-07 15:15:53.371933,-7,5,-7,-1,0,0,85,88,141,120,47,160.50,420,-110.00,-82.00,-974.00
2024-06-07 15:15:53.473947,-7,5,-7,-1,0,0,85,88,142,120,47,160.40,420,-54.00,-137.00,-959.00
2024-06-07 15:15:53.575877,-7,5,-7,-1,0,0,85,88,143,120,47,160.43,420,-144.00,-46.00,-1088.00
2024-06-07 15:15:53.626740,-7,5,-7,0,0,0,85,88,142,120,47,160.37,420,-107.00,-88.00,-980.00
2024-06-07 15:15:53.779900,-7,5,-7,0,0,0,85,88,145,120,47,160.40,420,-105.00,-91.00,-1061.00
2024-06-07 15:15:53.830641,-7,5,-7,0,0,0,85,88,145,120,47,160.39,420,-108.00,-67.00,-978.00
2024-06-07 15:15:53.967205,-7,5,-7,0,0,0,85,88,145,130,47,160.44,420,-119.00,-97.00,-976.00
2024-06-07 15:15:54.034616,-7,5,-7,0,0,0,85,88,147,130,47,160.41,420,-91.00,-99.00,-910.00
2024-06-07 15:15:54.179499,-7,4,-7,0,0,0,85,88,148,130,47,160.45,421,-102.00,-78.00,-931.00
2024-06-07 15:15:54.238612,-7,4,-7,0,0,0,85,88,148,130,47,160.44,421,-86.00,-93.00,-990.00
2024-06-07 15:15:54.377274,-7,4,-7,0,0,0,85,88,147,130,47,160.46,421,-136.00,-73.00,-952.00
2024-06-07 15:15:54.442881,-6,5,-7,0,0,0,85,88,148,130,47,160.41,421,-138.00,-75.00,-973.00
2024-06-07 15:15:54.581626,-7,5,-7,0,0,0,85,88,147,130,47,160.45,421,-158.00,-77.00,-1030.00
2024-06-07 15:15:54.647006,-7,4,-7,0,0,0,85,88,146,130,47,160.41,421,-127.00,-86.00,-943.00
2024-06-07 15:15:54.748586,-7,5,-7,0,0,0,85,88,145,130,47,160.41,421,-88.00,-110.00,-1024.00
2024-06-07 15:15:54.888751,-6,5,-7,0,0,1,85,88,142,130,47,160.31,421,-118.00,-106.00,-947.00
2024-06-07 15:15:54.959378,-6,5,-7,0,0,1,85,88,141,130,47,160.35,421,-103.00,-111.00,-947.00
2024-06-07 15:15:55.056728,-6,5,-7,0,0,1,85,88,140,120,47,160.34,421,-140.00,-91.00,-1012.00
2024-06-07 15:15:55.156572,-7,4,-7,0,0,1,85,88,139,120,47,160.39,422,-126.00,-95.00,-951.00
2024-06-07 15:15:55.298395,-7,5,-7,0,0,1,85,88,137,120,47,160.34,422,-149.00,-106.00,-982.00
2024-06-07 15:15:55.367330,-7,5,-7,0,0,0,85,88,137,120,47,160.22,422,-140.00,-102.00,-991.00
2024-06-07 15:15:55.462657,-7,5,-7,0,0,0,85,88,136,120,47,160.36,422,-137.00,-123.00,-1058.00
2024-06-07 15:15:55.605586,-7,5,-7,0,0,0,85,88,135,120,47,160.27,422,-98.00,-99.00,-983.00
2024-06-07 15:15:55.667617,-6,6,-7,0,0,0,85,88,134,120,47,160.24,422,-95.00,-101.00,-1019.00
2024-06-07 15:15:55.769728,-6,6,-7,0,0,0,85,88,133,120,47,160.24,422,-117.00,-110.00,-958.00
2024-06-07 15:15:55.912732,-6,5,-7,0,0,0,85,88,133,120,47,160.31,422,-163.00,-81.00,-976.00
2024-06-07 15:15:55.973763,-6,6,-7,0,0,0,85,88,132,120,47,160.27,422,-131.00,-78.00,-1042.00
2024-06-07 15:15:56.122928,-6,6,-7,0,0,0,85,88,131,120,47,160.18,422,-73.00,-122.00,-988.00
2024-06-07 15:15:56.177849,-6,6,-7,0,0,0,85,88,131,120,47,160.20,423,-108.00,-58.00,-993.00
2024-06-07 15:15:56.322387,-7,5,-7,0,0,0,85,88,131,120,47,160.22,423,-88.00,-105.00,-1050.00
2024-06-07 15:15:56.381746,-6,5,-7,0,0,0,85,88,129,120,47,160.26,423,-47.00,-111.00,-1027.00
2024-06-07 15:15:56.527195,-6,5,-7,0,0,0,85,88,129,120,47,160.22,423,-78.00,-85.00,-1039.00
2024-06-07 15:15:56.586988,-6,5,-7,0,0,0,85,88,128,120,47,160.18,423,-129.00,-87.00,-956.00
2024-06-07 15:15:56.688745,-6,6,-7,1,0,0,85,88,128,120,47,160.14,423,-62.00,-89.00,-1001.00
2024-06-07 15:15:56.790561,-5,6,-7,1,0,0,85,88,128,120,47,160.25,423,-59.00,-113.00,-972.00
2024-06-07 15:15:56.893385,-5,6,-7,1,0,0,85,88,127,120,47,160.20,423,-99.00,-67.00,-977.00
2024-06-07 15:15:56.996211,-5,7,-7,1,0,0,85,88,127,120,47,160.22,423,-133.00,-101.00,-1062.00
2024-06-07 15:15:57.095558,-5,6,-7,1,0,0,85,88,129,120,47,160.15,423,-69.00,-144.00,-973.00
2024-06-07 15:15:57.244441,-5,6,-7,1,0,0,85,88,129,120,47,160.25,424,-70.00,-108.00,-1025.00
2024-06-07 15:15:57.299523,-5,7,-7,1,0,0,85,88,129,120,47,160.31,424,-146.00,-106.00,-1017.00
2024-06-07 15:15:57.448749,-5,7,-7,1,0,0,85,88,129,120,47,160.32,424,-139.00,-86.00,-970.00
2024-06-07 15:15:57.452659,-6,6,-7,1,1,0,85,88,130,120,47,160.23,424,-68.00,-115.00,-953.00
2024-06-07 15:15:57.653554,-6,6,-7,1,1,0,85,88,131,120,47,160.30,424,-131.00,-53.00,-920.00
2024-06-07 15:15:57.656727,-5,6,-7,1,1,0,85,88,133,120,47,160.17,424,-128.00,-177.00,-1028.00
2024-06-07 15:15:57.758422,-6,6,-7,1,1,0,86,88,133,120,47,160.30,424,-109.00,-103.00,-991.00
2024-06-07 15:15:57.860573,-7,6,-7,1,1,0,86,88,135,120,47,160.36,424,-83.00,-134.00,-944.00
2024-06-07 15:15:57.962508,-6,6,-7,1,0,0,86,88,134,120,47,160.26,424,-81.00,-115.00,-980.00
2024-06-07 15:15:58.165571,-5,7,-7,2,0,0,86,88,133,120,47,160.26,424,-88.00,-102.00,-969.00
2024-06-07 15:15:58.166410,-4,7,-7,2,1,0,86,88,134,120,47,160.26,425,-61.00,-126.00,-950.00
2024-06-07 15:15:58.269349,-4,6,-7,2,1,0,86,88,133,120,47,160.23,425,-85.00,-116.00,-943.00
2024-06-07 15:15:58.370587,-4,6,-7,1,1,0,86,88,133,120,47,160.24,425,-126.00,-71.00,-951.00
2024-06-07 15:15:58.473546,-4,6,-7,1,1,0,86,88,133,120,47,160.35,425,-90.00,-131.00,-937.00
2024-06-07 15:15:58.574822,-5,6,-7,1,1,0,86,88,132,120,47,160.36,425,-108.00,-101.00,-1043.00
2024-06-07 15:15:58.677619,-4,7,-7,1,1,0,86,88,133,120,47,160.30,425,-122.00,-91.00,-963.00
2024-06-07 15:15:58.779571,-4,6,-7,1,1,0,86,89,133,120,47,160.22,425,-135.00,-85.00,-997.00
2024-06-07 15:15:58.882334,-4,7,-7,1,1,0,86,89,134,120,47,160.19,425,-135.00,-101.00,-1020.00
2024-06-07 15:15:58.982398,-5,6,-7,0,1,0,86,89,135,120,47,160.19,425,-134.00,-108.00,-941.00
2024-06-07 15:15:59.084367,-6,5,-7,0,1,0,86,89,136,120,47,160.20,425,-79.00,-112.00,-991.00
2024-06-07 15:15:59.189557,-7,5,-7,0,1,0,86,89,135,120,46,160.27,426,-134.00,-73.00,-1025.00
2024-06-07 15:15:59.288327,-8,4,-7,0,2,0,86,89,137,120,46,160.21,426,-63.00,-92.00,-949.00
2024-06-07 15:15:59.394336,-8,3,-7,1,1,0,86,89,137,120,46,160.16,426,-142.00,-26.00,-981.00
2024-06-07 15:15:59.492262,-8,1,-7,1,1,0,86,89,136,120,46,160.08,426,-29.00,-63.00,-876.00
2024-06-07 15:15:59.602489,-1,0,-6,1,1,0,86,89,136,120,46,160.26,426,-146.00,-36.00,-1064.00
2024-06-07 15:15:59.696663,-2,0,-6,0,1,0,86,89,136,120,46,160.18,426,-112.00,-70.00,-953.00
2024-06-07 15:15:59.798609,-4,1,-6,0,0,0,86,89,134,120,46,160.22,426,-103.00,-87.00,-979.00
2024-06-07 15:15:59.900542,-5,3,-7,0,0,0,86,89,134,120,46,160.02,426,-110.00,-40.00,-960.00
2024-06-07 15:16:00.008847,-6,4,-7,0,0,0,86,89,134,120,46,160.06,426,-145.00,-14.00,-1059.00
2024-06-07 15:16:00.104446,-6,3,-7,0,0,0,86,89,135,120,46,160.22,426,-145.00,-72.00,-997.00
2024-06-07 15:16:00.213681,-7,1,-7,0,0,0,86,89,136,120,46,160.23,427,-95.00,-98.00,-989.00
2024-06-07 15:16:00.308595,-7,2,-7,0,0,0,86,89,136,120,46,160.25,427,-106.00,-102.00,-928.00
2024-06-07 15:16:00.418895,-7,3,-7,0,0,0,86,89,136,120,46,160.22,427,-148.00,-50.00,-999.00
2024-06-07 15:16:00.512542,-7,4,-7,0,0,0,86,89,136,120,46,160.23,427,-117.00,-79.00,-977.00
2024-06-07 15:16:00.623303,-7,4,-7,0,0,0,86,89,136,120,46,160.22,427,-108.00,-90.00,-953.00
2024-06-07 15:16:00.717476,-7,4,-7,0,0,0,86,89,134,120,46,160.23,427,-119.00,-57.00,-988.00
2024-06-07 15:16:00.818518,-7,4,-7,0,0,0,85,88,134,120,46,160.26,427,-113.00,-82.00,-1013.00
2024-06-07 15:16:00.930801,-7,4,-7,0,0,0,85,88,135,120,46,160.21,427,-86.00,-79.00,-1008.00
2024-06-07 15:16:01.022752,-6,4,-7,0,0,0,85,88,135,120,46,160.24,427,-125.00,-65.00,-960.00
2024-06-07 15:16:01.135098,-6,4,-7,0,0,0,85,88,135,120,46,160.12,427,-112.00,-69.00,-1016.00
2024-06-07 15:16:01.226502,-7,4,-7,0,0,0,85,88,136,120,46,160.13,428,-123.00,-83.00,-981.00
2024-06-07 15:16:01.278055,-7,4,-7,0,0,0,85,88,135,120,46,160.16,428,-137.00,-96.00,-997.00
2024-06-07 15:16:01.442387,-7,3,-7,0,0,0,85,88,136,120,46,160.21,428,-146.00,-67.00,-929.00
2024-06-07 15:16:01.482223,-7,4,-7,0,0,0,85,88,137,120,46,160.20,428,-153.00,-57.00,-930.00
2024-06-07 15:16:01.584742,-7,4,-7,0,0,0,85,88,137,120,46,160.22,428,-145.00,-63.00,-956.00
2024-06-07 15:16:01.686245,-7,4,-7,0,0,0,85,88,135,120,46,160.14,428,-133.00,-41.00,-1028.00
2024-06-07 15:16:01.851911,-7,3,-2,0,0,0,85,89,136,120,46,160.14,428,-77.00,-57.00,-918.00
2024-06-07 15:16:01.941505,-6,2,3,0,0,0,85,89,136,120,46,160.05,428,-100.00,-52.00,-938.00
2024-06-07 15:16:01.992172,-6,2,8,0,0,0,85,89,135,120,46,159.83,428,-155.00,10.00,-958.00
2024-06-07 15:16:02.159105,-6,0,14,0,0,0,85,89,135,120,46,159.92,429,-104.00,-5.00,-967.00
2024-06-07 15:16:02.196212,-6,0,20,0,0,0,85,89,134,120,46,159.90,429,-119.00,-4.00,-964.00
2024-06-07 15:16:02.363899,-6,0,26,0,0,0,85,89,135,120,46,159.95,429,-50.00,-29.00,-992.00
2024-06-07 15:16:02.400323,-6,0,31,0,0,0,85,89,134,120,46,159.94,429,-90.00,-16.00,-973.00
2024-06-07 15:16:02.502192,-6,0,36,0,0,0,85,89,135,120,46,160.09,429,-144.00,48.00,-1023.00
2024-06-07 15:16:02.671092,-6,-1,42,0,0,0,85,89,135,120,46,160.07,429,-63.00,44.00,-908.00
2024-06-07 15:16:02.706193,-6,-2,47,0,0,0,85,89,135,120,46,160.13,429,-83.00,58.00,-1027.00
2024-06-07 15:16:02.808192,-5,-3,53,0,0,0,85,89,135,120,46,160.09,429,-73.00,43.00,-984.00
2024-06-07 15:16:02.978281,-5,-4,59,0,0,0,85,89,134,120,46,160.18,429,-82.00,77.00,-938.00
2024-06-07 15:16:03.014593,-4,-4,64,0,0,0,85,89,133,120,46,160.15,429,-65.00,56.00,-922.00
2024-06-07 15:16:03.114160,-4,-4,70,0,0,0,85,89,132,120,46,160.16,430,-105.00,55.00,-998.00
2024-06-07 15:16:03.285503,-4,-4,75,0,0,0,85,89,131,120,45,160.14,430,-56.00,30.00,-1001.00
2024-06-07 15:16:03.318150,-4,-4,81,0,0,0,85,89,132,120,45,160.12,430,-111.00,89.00,-1000.00
2024-06-07 15:16:03.490304,-3,-4,87,0,0,0,85,89,130,120,45,160.20,430,-38.00,70.00,-928.00
2024-06-07 15:16:03.522651,-3,-4,93,0,0,0,85,89,128,120,45,160.24,430,-92.00,112.00,-1017.00
2024-06-07 15:16:03.695069,-3,-5,98,0,0,0,85,89,127,120,45,160.30,430,-26.00,58.00,-983.00
2024-06-07 15:16:03.726165,-2,-5,104,0,0,0,85,89,126,120,45,160.31,430,1.00,78.00,-1042.00
2024-06-07 15:16:03.899873,-1,-5,110,0,0,0,86,88,124,120,45,160.28,430,-21.00,88.00,-1029.00
2024-06-07 15:16:03.930166,0,-4,115,0,0,0,86,88,124,110,45,160.38,430,25.00,55.00,-1010.00
2024-06-07 15:16:04.104669,0,-4,122,0,0,0,86,88,123,110,45,160.34,430,15.00,63.00,-978.00
2024-06-07 15:16:04.134080,0,-3,128,0,0,0,86,88,122,110,45,160.31,431,10.00,70.00,-995.00
2024-06-07 15:16:04.309474,0,-4,135,0,0,0,86,88,121,110,45,160.27,431,16.00,98.00,-1039.00
2024-06-07 15:16:04.338120,0,-4,142,0,0,0,86,88,124,110,45,160.20,431,25.00,75.00,-1048.00
2024-06-07 15:16:04.514266,1,-3,148,0,0,0,86,88,124,110,45,160.27,431,45.00,69.00,-1009.00
2024-06-07 15:16:04.542036,2,-2,154,0,0,0,86,88,124,120,45,160.22,431,37.00,72.00,-974.00
2024-06-07 15:16:04.644512,2,-2,160,0,0,0,86,88,125,120,45,160.29,431,36.00,66.00,-977.00
2024-06-07 15:16:04.823112,3,-3,167,0,0,0,86,88,125,120,45,160.24,431,56.00,36.00,-1061.00
2024-06-07 15:16:04.848168,2,-2,173,0,0,0,85,88,124,120,45,160.28,431,39.00,74.00,-951.00
2024-06-07 15:16:05.026563,3,-2,179,0,0,0,85,88,125,120,45,160.27,431,92.00,34.00,-1025.00
2024-06-07 15:16:05.052057,4,-1,-174,0,0,0,85,88,124,120,45,160.24,431,88.00,28.00,-969.00
2024-06-07 15:16:05.154085,5,-1,-167,0,0,0,85,88,124,120,45,160.20,432,58.00,20.00,-1068.00
2024-06-07 15:16:05.256084,5,0,-161,0,0,0,85,88,125,120,45,160.14,432,66.00,-4.00,-986.00
2024-06-07 15:16:05.443897,5,0,-155,0,0,0,85,88,125,120,45,160.11,432,99.00,-20.00,-971.00
2024-06-07 15:16:05.460220,5,0,-149,0,0,0,85,88,124,120,45,160.12,432,99.00,-48.00,-1002.00
2024-06-07 15:16:05.562036,5,2,-143,0,0,0,85,88,122,120,45,160.18,432,125.00,-56.00,-943.00
2024-06-07 15:16:05.613278,4,2,-137,0,0,0,85,88,123,120,45,160.11,432,56.00,-21.00,-1054.00
2024-06-07 15:16:05.743060,5,2,-132,0,0,0,85,88,122,120,45,160.08,432,85.00,-17.00,-999.00
2024-06-07 15:16:05.947844,5,2,-126,0,0,0,86,88,121,110,45,160.08,432,86.00,-40.00,-968.00
2024-06-07 15:16:05.948000,5,2,-120,0,0,0,86,88,122,110,45,160.12,432,42.00,-36.00,-1001.00
2024-06-07 15:16:06.021815,4,2,-114,0,0,0,86,88,119,110,45,159.99,432,64.00,-44.00,-1013.00
2024-06-07 15:16:06.152661,4,3,-109,0,0,0,86,88,121,110,45,160.07,433,50.00,-43.00,-989.00
2024-06-07 15:16:06.225234,3,3,-103,0,0,0,86,88,119,110,45,160.18,433,62.00,-72.00,-999.00
2024-06-07 15:16:06.327182,3,4,-97,0,0,0,86,88,119,110,45,160.23,433,33.00,-94.00,-1056.00
2024-06-07 15:16:06.459841,2,4,-90,0,0,0,86,88,120,110,45,160.30,433,3.00,-82.00,-1007.00
2024-06-07 15:16:06.531202,1,4,-84,0,0,0,86,88,119,110,45,160.24,433,47.00,-130.00,-1017.00
2024-06-07 15:16:06.664641,0,5,-78,0,0,0,86,88,120,110,45,160.25,433,32.00,-94.00,-1070.00
2024-06-07 15:16:06.735188,0,5,-72,0,0,0,86,88,120,110,45,160.36,433,-18.00,-88.00,-972.00
2024-06-07 15:16:06.869439,0,6,-66,0,0,0,85,88,120,110,45,160.27,433,-17.00,-85.00,-1010.00
2024-06-07 15:16:06.940354,0,5,-60,0,0,0,85,88,121,110,45,160.27,433,-6.00,-74.00,-980.00
2024-06-07 15:16:07.074236,0,6,-54,0,0,0,85,88,122,110,45,160.19,433,4.00,-111.00,-1007.00
2024-06-07 15:16:07.143251,-1,6,-48,0,0,0,85,88,121,110,45,160.22,434,-50.00,-78.00,-923.00
2024-06-07 15:16:07.279026,-1,6,-42,0,0,0,85,88,122,110,45,160.18,434,-22.00,-88.00,-1022.00
2024-06-07 15:16:07.347194,-2,5,-37,0,0,0,85,88,122,110,45,160.15,434,-19.00,-118.00,-1012.00
2024-06-07 15:16:07.484032,-2,4,-30,0,0,0,85,88,123,110,45,160.11,434,-60.00,-101.00,-936.00
2024-06-07 15:16:07.551293,-2,5,-25,0,0,0,85,88,123,110,45,160.12,434,-63.00,-69.00,-982.00
2024-06-07 15:16:07.688631,-3,5,-21,0,0,0,85,88,124,110,45,160.09,434,-66.00,-104.00,-1031.00
2024-06-07 15:16:07.757837,-3,5,-17,0,0,0,85,88,125,110,45,160.08,434,-40.00,-103.00,-994.00
2024-06-07 15:16:07.858220,-3,4,-15,0,0,0,85,88,125,120,45,160.14,434,-53.00,-106.00,-1053.00
2024-06-07 15:16:07.959081,-3,4,-12,0,0,0,85,88,127,120,45,160.16,434,-85.00,-96.00,-971.00
2024-06-07 15:16:08.098235,-4,4,-11,0,0,0,85,88,127,120,45,160.16,434,-79.00,-51.00,-988.00
2024-06-07 15:16:08.163124,-4,4,-10,0,0,0,85,88,127,120,44,160.15,435,-85.00,-70.00,-974.00
2024-06-07 15:16:08.303003,-3,4,-9,0,0,0,85,88,129,120,44,160.19,435,-78.00,-78.00,-1005.00
2024-06-07 15:16:08.368078,-4,4,-8,0,0,0,85,88,130,120,44,160.21,435,-91.00,-67.00,-992.00
2024-06-07 15:16:08.507982,-4,4,-8,0,0,0,85,88,131,120,44,160.26,435,-85.00,-87.00,-932.00
2024-06-07 15:16:08.572378,-4,4,-8,0,0,0,85,88,132,120,44,160.17,435,-110.00,-36.00,-937.00
2024-06-07 15:16:08.718217,-4,3,-8,0,0,0,85,88,131,120,44,160.17,435,-95.00,-87.00,-967.00
2024-06-07 15:16:08.776325,-4,4,-8,0,0,0,85,88,131,120,44,160.15,435,-74.00,-75.00,-995.00
2024-06-07 15:16:08.877916,-4,4,-8,0,0,0,85,88,130,120,44,160.24,435,-77.00,-83.00,-897.00
2024-06-07 15:16:09.019832,-3,4,-8,0,0,0,85,88,132,120,44,160.15,435,-89.00,-60.00,-999.00
2024-06-07 15:16:09.082073,-4,3,-8,0,0,0,85,88,133,120,44,160.24,435,-78.00,-87.00,-1040.00
2024-06-07 15:16:09.183967,-4,4,-8,0,0,0,85,88,134,120,44,160.20,436,-48.00,-96.00,-938.00
2024-06-07 15:16:09.327504,-4,4,-8,0,0,0,85,88,137,120,44,160.23,436,-67.00,-74.00,-1037.00
2024-06-07 15:16:09.337857,-4,3,-8,0,0,0,85,88,137,120,44,160.30,436,-136.00,-68.00,-1006.00
2024-06-07 15:16:09.446887,-4,3,-8,0,0,0,85,88,137,120,44,160.21,436,-109.00,-50.00,-974.00
2024-06-07 15:16:09.541803,-4,4,-8,0,0,0,85,88,138,120,44,160.28,436,-24.00,-93.00,-966.00
2024-06-07 15:16:09.736712,-3,3,-8,0,0,0,85,88,140,120,44,160.27,436,-68.00,-70.00,-917.00
2024-06-07 15:16:09.745447,-4,3,-8,0,0,0,85,88,140,120,44,160.22,436,-88.00,-86.00,-1005.00
2024-06-07 15:16:09.947997,-4,3,-8,0,0,0,85,88,143,130,44,160.28,436,-101.00,-62.00,-925.00
2024-06-07 15:16:10.000341,-4,4,-8,0,0,0,85,88,143,130,44,160.24,436,-113.00,-65.00,-1004.00
2024-06-07 15:16:10.052705,-5,4,-8,0,0,0,85,88,143,130,44,160.26,436,-62.00,-64.00,-1026.00
2024-06-07 15:16:10.153370,-5,3,-8,0,0,0,85,88,143,130,44,160.39,437,-118.00,-59.00,-988.00
2024-06-07 15:16:10.307580,-5,3,-8,0,0,0,85,88,143,130,44,160.30,437,-74.00,-76.00,-954.00
2024-06-07 15:16:10.356980,-5,3,-8,0,0,0,85,88,142,130,44,160.32,437,-75.00,-75.00,-1012.00
2024-06-07 15:16:10.555799,-5,3,-9,0,0,0,85,88,141,130,44,160.27,437,-154.00,28.00,-1013.00
2024-06-07 15:16:10.561003,-3,3,-14,0,0,0,85,88,140,130,44,160.28,437,-74.00,-56.00,-982.00
2024-06-07 15:16:10.662986,-3,4,-20,0,0,1,85,88,140,130,44,160.31,437,-63.00,-97.00,-993.00
2024-06-07 15:16:10.765676,-3,5,-26,0,0,1,85,88,137,120,44,160.34,437,-56.00,-88.00,-980.00
2024-06-07 15:16:10.866957,-3,5,-32,0,0,1,86,88,135,120,44,160.36,437,-71.00,-73.00,-1029.00
2024-06-07 15:16:11.067785,-2,4,-38,0,0,1,86,88,135,120,44,160.38,437,-34.00,-103.00,-1040.00
2024-06-07 15:16:11.071103,-1,5,-44,0,0,1,86,88,135,120,44,160.41,437,-48.00,-115.00,-994.00
2024-06-07 15:16:11.173068,0,5,-50,0,0,1,86,88,132,120,44,160.36,438,8.00,-131.00,-961.00
2024-06-07 15:16:11.275306,0,6,-55,0,0,1,86,88,132,120,44,160.41,438,-40.00,-98.00,-1112.00
2024-06-07 15:16:11.376980,1,6,-61,0,0,0,86,88,131,120,44,160.46,438,-17.00,-111.00,-1057.00
2024-06-07 15:16:11.580439,1,6,-67,0,0,0,86,88,130,120,44,160.35,438,-12.00,-92.00,-1098.00
2024-06-07 15:16:11.581566,1,5,-74,0,0,0,86,88,131,120,44,160.43,438,0.00,-101.00,-1026.00
2024-06-07 15:16:11.784610,1,6,-80,0,0,0,86,88,130,120,44,160.36,438,59.00,-41.00,-994.00
2024-06-07 15:16:11.785206,2,5,-86,0,0,0,86,88,130,120,44,160.31,438,54.00,-70.00,-957.00
2024-06-07 15:16:11.886940,3,3,-92,0,0,0,86,88,130,120,44,160.34,438,89.00,-91.00,-1018.00
2024-06-07 15:16:11.989332,4,2,-98,0,0,0,86,88,131,120,44,160.34,438,24.00,-68.00,-1077.00
2024-06-07 15:16:12.091758,5,1,-105,0,0,0,86,88,132,120,44,160.31,438,50.00,-89.00,-993.00
2024-06-07 15:16:12.194157,5,2,-111,0,0,0,86,88,132,120,44,160.28,439,20.00,-62.00,-1041.00
2024-06-07 15:16:12.296557,4,2,-117,0,0,0,86,88,134,120,44,160.23,439,94.00,-73.00,-950.00
2024-06-07 15:16:12.397126,5,2,-124,0,0,0,86,88,133,120,44,160.28,439,79.00,-44.00,-968.00
2024-06-07 15:16:12.499177,5,2,-130,0,0,0,86,88,132,120,44,160.28,439,124.00,-79.00,-978.00
2024-06-07 15:16:12.603772,5,1,-136,0,0,0,86,88,130,120,44,160.22,439,111.00,-74.00,-988.00
2024-06-07 15:16:12.703471,5,0,-142,0,0,0,86,88,129,120,44,160.20,439,78.00,-35.00,-1016.00
2024-06-07 15:16:12.805228,5,0,-148,0,0,0,86,88,127,120,44,160.23,439,46.00,-37.00,-1020.00
2024-06-07 15:16:12.910963,4,1,-154,0,1,0,85,88,126,120,44,160.14,439,92.00,-33.00,-948.00
2024-06-07 15:16:13.008908,5,1,-161,0,1,0,85,88,124,120,44,160.04,439,82.00,-8.00,-1061.00
2024-06-07 15:16:13.115691,5,1,-167,0,1,0,85,88,123,120,44,160.03,439,75.00,15.00,-990.00
2024-06-07 15:16:13.213063,6,0,-173,0,0,0,85,88,122,110,44,159.98,440,83.00,-16.00,-1026.00
2024-06-07 15:16:13.320592,5,0,-179,0,0,0,85,88,120,110,44,160.15,440,91.00,5.00,-1008.00
2024-06-07 15:16:13.417012,5,-1,174,0,0,0,85,88,119,110,44,160.06,440,108.00,-12.00,-1013.00
2024-06-07 15:16:13.467891,5,-1,169,0,0,0,85,88,118,110,44,160.09,440,67.00,19.00,-994.00
2024-06-07 15:16:13.627755,5,-2,163,0,1,0,85,88,117,110,44,160.05,440,55.00,5.00,-1073.00
2024-06-07 15:16:13.671629,5,0,158,0,1,0,85,88,116,110,44,160.05,440,78.00,-53.00,-1040.00
2024-06-07 15:16:13.832692,4,-1,152,0,1,0,85,88,116,110,44,159.94,440,40.00,12.00,-1072.00
2024-06-07 15:16:13.875637,3,-1,147,0,0,0,85,89,117,110,44,160.06,440,57.00,38.00,-1052.00
2024-06-07 15:16:14.037360,3,-2,141,0,0,0,85,89,117,110,44,160.04,440,53.00,34.00,-970.00
2024-06-07 15:16:14.079791,2,-2,135,0,0,0,85,89,117,110,44,160.09,440,48.00,72.00,-1041.00
2024-06-07 15:16:14.243157,2,-3,129,0,0,-1,85,89,119,110,44,160.20,441,40.00,91.00,-1000.00
2024-06-07 15:16:14.284571,1,-4,123,0,0,0,85,89,119,110,44,160.28,441,12.00,88.00,-1014.00
2024-06-07 15:16:14.385749,0,-5,117,0,0,0,85,89,119,110,44,160.33,441,39.00,63.00,-903.00
2024-06-07 15:16:14.487423,0,-4,111,0,0,0,85,89,119,110,44,160.25,441,10.00,47.00,-981.00
2024-06-07 15:16:14.589434,0,-4,105,0,0,0,85,89,121,110,44,160.27,441,-44.00,98.00,-1016.00
2024-06-07 15:16:14.754134,0,-4,99,0,0,0,85,89,121,110,44,160.17,441,-64.00,112.00,-1014.00
2024-06-07 15:16:14.795033,-2,-4,93,0,0,0,85,89,122,110,44,160.19,441,-7.00,60.00,-972.00
2024-06-07 15:16:14.958929,-2,-4,86,0,0,0,85,88,123,110,44,160.14,441,-79.00,77.00,-1020.00
2024-06-07 15:16:14.997787,-2,-3,80,0,0,0,85,88,124,110,44,160.06,441,-32.00,66.00,-978.00
2024-06-07 15:16:15.165702,-3,-3,73,0,0,0,85,88,124,110,44,160.08,441,-74.00,62.00,-1016.00
2024-06-07 15:16:15.201496,-3,-2,67,0,0,0,85,88,124,110,44,160.13,442,-91.00,48.00,-1025.00
2024-06-07 15:16:15.368527,-3,-2,60,0,0,0,85,88,125,120,44,160.08,442,-55.00,49.00,-951.00
2024-06-07 15:16:15.405526,-3,-1,54,0,0,0,85,88,126,120,44,160.07,442,-116.00,51.00,-1009.00
2024-06-07 15:16:15.507791,-4,-1,48,0,0,0,85,88,127,120,44,160.05,442,-90.00,14.00,-1090.00
2024-06-07 15:16:15.675736,-5,0,42,0,0,0,85,88,126,120,44,160.08,442,-37.00,17.00,-886.00
2024-06-07 15:16:15.711496,-5,0,36,0,0,0,85,88,126,120,44,160.05,442,-43.00,15.00,-915.00
2024-06-07 15:16:15.813503,-4,0,30,0,0,0,85,88,124,120,44,159.96,442,-60.00,1.00,-1005.00
2024-06-07 15:16:15.982930,-4,0,24,0,0,0,86,88,125,120,44,159.90,442,-81.00,15.00,-925.00
2024-06-07 15:16:16.017502,-4,0,18,0,0,0,86,88,124,120,44,159.90,442,-101.00,-16.00,-1017.00
2024-06-07 15:16:16.187700,-4,0,12,0,0,0,86,88,124,120,44,159.92,442,-99.00,-20.00,-1036.00
2024-06-07 15:16:16.221493,-4,0,7,0,0,0,86,88,125,110,43,159.87,443,-92.00,-3.00,-1009.00
2024-06-07 15:16:16.392524,-5,0,3,0,0,0,86,88,123,110,43,159.99,443,-134.00,-20.00,-1052.00
2024-06-07 15:16:16.425404,-6,0,0,0,0,0,86,88,124,110,43,159.91,443,-48.00,-88.00,-989.00
2024-06-07 15:16:16.597320,-5,1,-1,0,0,0,86,88,125,110,43,159.93,443,-70.00,-14.00,-944.00
2024-06-07 15:16:16.597358,-4,1,-3,0,0,0,86,88,125,110,43,159.90,443,-92.00,-62.00,-1065.00
2024-06-07 15:16:16.680799,-4,1,-4,0,0,0,86,88,126,110,43,159.94,443,-82.00,-45.00,-949.00
2024-06-07 15:16:16.783113,-5,0,-5,0,0,0,86,88,127,120,43,159.97,443,-76.00,-54.00,-974.00
2024-06-07 15:16:16.935527,-5,0,-6,0,0,0,85,89,128,120,43,159.96,443,-118.00,-17.00,-995.00
2024-06-07 15:16:17.109306,-5,0,-6,0,0,0,85,89,127,120,43,159.99,443,-96.00,-3.00,-994.00
2024-06-07 15:16:17.141480,-4,1,-6,0,0,0,85,89,127,120,43,159.94,444,-110.00,-15.00,-1035.00
2024-06-07 15:16:17.241537,-4,1,-6,0,0,0,85,89,127,120,43,160.03,444,-65.00,-25.00,-1015.00
2024-06-07 15:16:17.292677,-4,1,-6,0,0,0,85,89,127,120,43,160.02,444,-49.00,-44.00,-1026.00
2024-06-07 15:16:17.416718,-4,1,-6,0,0,0,85,89,128,120,43,160.05,444,-98.00,-41.00,-1053.00
2024-06-07 15:16:17.496860,-4,1,-6,0,0,0,85,89,129,120,43,160.10,444,-86.00,-25.00,-1010.00
2024-06-07 15:16:17.622896,-4,1,-6,0,0,0,85,89,129,120,43,160.00,444,-122.00,2.00,-1057.00
2024-06-07 15:16:17.700997,-4,1,-6,0,0,0,85,89,130,120,43,160.02,444,-63.00,-5.00,-958.00
2024-06-07 15:16:17.826387,-3,0,-6,0,0,0,85,89,130,120,43,160.10,444,-75.00,-10.00,-988.00
2024-06-07 15:16:17.904846,-3,0,-6,0,0,0,85,87,130,120,43,160.04,444,-34.00,-46.00,-1089.00
2024-06-07 15:16:18.031047,-3,0,-6,0,0,0,85,87,131,120,43,160.11,444,-93.00,-54.00,-1009.00
2024-06-07 15:16:18.108954,-3,0,-6,0,0,0,85,87,132,120,43,160.13,445,-58.00,-36.00,-873.00
2024-06-07 15:16:18.236897,-3,1,-6,0,0,0,85,87,132,120,43,159.96,445,-91.00,-1.00,-962.00
2024-06-07 15:16:18.312760,-3,0,-6,0,0,0,85,87,132,120,43,160.08,445,-51.00,-32.00,-965.00
2024-06-07 15:16:18.440990,-3,0,-6,0,0,0,85,87,132,120,43,160.13,445,-70.00,-25.00,-1015.00
2024-06-07 15:16:18.516934,-2,0,-6,0,0,0,85,87,131,120,43,160.06,445,-72.00,-26.00,-1010.00
2024-06-07 15:16:18.645778,-3,1,-6,0,0,0,85,87,130,120,43,160.06,445,-18.00,-12.00,-944.00
2024-06-07 15:16:18.720721,-2,1,-6,0,0,0,85,87,129,120,43,160.13,445,-39.00,8.00,-942.00
2024-06-07 15:16:18.828321,-2,0,-6,0,0,0,85,87,130,120,43,160.14,445,-80.00,36.00,-965.00
2024-06-07 15:16:18.924900,-2,0,-6,0,0,0,84,88,129,120,43,160.18,445,-68.00,2.00,-1012.00
2024-06-07 15:16:19.055036,-2,0,-6,0,0,0,84,88,130,120,43,160.17,445,-53.00,-15.00,-1014.00
2024-06-07 15:16:19.128553,-2,0,-6,0,0,0,84,88,132,120,43,160.10,446,-73.00,15.00,-1094.00
2024-06-07 15:16:19.259789,-2,0,-6,0,0,0,84,88,133,120,43,160.13,446,-24.00,-42.00,-1074.00
2024-06-07 15:16:19.332709,-2,0,-6,0,0,0,84,88,133,120,43,160.23,446,-56.00,14.00,-946.00
2024-06-07 15:16:19.464613,-2,0,-6,0,0,0,84,88,134,120,43,160.21,446,-70.00,6.00,-968.00
2024-06-07 15:16:19.536649,-2,0,-6,0,0,0,84,88,137,120,43,160.21,446,-34.00,-6.00,-960.00
2024-06-07 15:16:19.669392,-2,0,-6,0,0,0,84,88,137,120,43,160.18,446,-46.00,-3.00,-945.00
2024-06-07 15:16:19.740718,-2,0,-6,0,0,0,84,88,140,120,43,160.22,446,-83.00,9.00,-924.00
2024-06-07 15:16:19.842549,-3,0,-6,0,0,0,84,88,140,120,43,160.17,446,-48.00,15.00,-908.00
2024-06-07 15:16:19.976629,-3,0,-6,0,0,0,85,87,138,120,43,160.22,446,-71.00,13.00,-967.00
2024-06-07 15:16:20.046586,-3,0,-6,0,0,0,85,87,139,120,43,160.28,446,-80.00,-1.00,-983.00
2024-06-07 15:16:20.181363,-4,0,-6,0,0,0,85,87,139,120,43,160.18,447,-82.00,0.00,-930.00
2024-06-07 15:16:20.250792,-3,0,-6,0,0,0,85,87,136,120,43,160.20,447,-76.00,10.00,-978.00
2024-06-07 15:16:20.386443,-3,0,-6,0,0,0,85,87,137,120,43,160.19,447,-59.00,-9.00,-1010.00
2024-06-07 15:16:20.454561,-3,0,-6,0,0,0,85,87,136,120,43,160.19,447,-49.00,-12.00,-922.00
2024-06-07 15:16:20.556705,-2,0,-6,0,0,0,85,87,135,120,43,160.17,447,-70.00,20.00,-1012.00
2024-06-07 15:16:20.607394,-3,0,-6,0,0,0,85,87,135,120,43,160.11,447,-66.00,-5.00,-1004.00
2024-06-07 15:16:20.795855,-3,0,-6,0,0,0,85,87,134,120,43,160.22,447,-67.00,-22.00,-1145.00
2024-06-07 15:16:20.811702,-3,0,-6,0,0,0,85,87,133,120,43,160.15,447,-66.00,22.00,-976.00
2024-06-07 15:16:21.000685,-2,0,-6,0,0,0,85,88,132,120,43,160.19,447,-13.00,-28.00,-958.00
2024-06-07 15:16:21.015342,-2,0,-6,0,0,0,85,88,131,120,43,160.17,447,-103.00,29.00,-1090.00
2024-06-07 15:16:21.205926,-2,0,-6,0,0,0,85,88,131,120,43,160.18,448,-45.00,-14.00,-980.00
2024-06-07 15:16:21.219445,-2,0,-6,0,0,0,85,88,129,120,42,160.14,448,-58.00,14.00,-983.00
2024-06-07 15:16:21.321743,-3,0,-6,0,0,0,85,88,128,120,42,160.15,448,-77.00,29.00,-1006.00
2024-06-07 15:16:21.426964,-3,0,-6,0,0,0,85,88,127,120,42,160.10,448,-48.00,5.00,-1014.00
2024-06-07 15:16:21.525400,-3,0,-6,0,0,0,85,88,127,120,42,160.05,448,-66.00,31.00,-974.00
2024-06-07 15:16:21.717461,-3,-1,-6,0,0,0,85,88,126,120,42,160.13,448,-103.00,35.00,-1004.00
2024-06-07 15:16:21.729252,-4,-1,-6,0,0,0,85,88,126,110,42,160.14,448,-107.00,44.00,-1043.00
2024-06-07 15:16:21.831344,-5,-1,-6,0,0,0,85,88,124,110,42,160.08,448,-54.00,10.00,-1036.00
2024-06-07 15:16:22.024633,-4,-1,-6,0,0,0,86,88,124,110,42,160.15,448,-36.00,0.00,-916.00
2024-06-07 15:16:22.036734,-4,-1,-6,0,0,0,86,88,126,110,42,160.13,448,-68.00,-7.00,-1032.00
2024-06-07 15:16:22.137281,-4,-1,-6,0,0,0,86,88,126,110,42,160.05,449,-62.00,40.00,-983.00
2024-06-07 15:16:22.331962,-3,-1,-6,0,0,0,86,88,126,110,42,160.15,449,-34.00,6.00,-1005.00
2024-06-07 15:16:22.341228,-3,-1,-6,0,0,0,86,88,128,110,42,160.12,449,-56.00,24.00,-973.00
2024-06-07 15:16:22.537045,-3,-1,-6,0,0,0,86,88,129,120,42,160.12,449,-101.00,28.00,-1104.00
2024-06-07 15:16:22.545855,-4,-1,-6,0,0,-1,86,88,129,120,42,160.21,449,-72.00,37.00,-1058.00
2024-06-07 15:16:22.741567,-3,-1,-6,0,0,0,86,88,131,120,42,160.21,449,-57.00,44.00,-931.00
2024-06-07 15:16:22.749954,-3,-2,-6,0,0,0,86,88,130,120,42,160.10,449,-34.00,29.00,-1002.00
2024-06-07 15:16:22.851204,-2,-1,-6,0,0,0,86,88,130,120,42,160.10,449,-56.00,50.00,-944.00
2024-06-07 15:16:23.049397,-2,-2,-6,0,0,0,85,87,131,120,42,160.10,449,-59.00,47.00,-1047.00
2024-06-07 15:16:23.055164,-2,-2,-6,0,0,0,85,87,132,120,42,160.16,449,-80.00,41.00,-1012.00
2024-06-07 15:16:23.253780,-2,-2,-6,0,0,0,85,87,132,120,42,160.18,450,-51.00,22.00,-976.00
2024-06-07 15:16:23.259351,-3,-2,-6,0,0,0,85,87,133,120,42,160.15,450,-35.00,10.00,-1006.00
2024-06-07 15:16:23.458573,-3,-2,-6,0,0,0,85,87,133,120,42,160.19,450,-41.00,15.00,-931.00
2024-06-07 15:16:23.463585,-3,-1,-6,0,0,0,85,87,133,120,42,160.20,450,-56.00,19.00,-1050.00
