TS,pitch,roll,yaw,vgx,vgy,vgz,templ,temph,tof,h,bat,baro,time,agx,agy,agz
2024-05-17 15:54:44.298152,0,0,0,0,0,0,63,65,10,0,90,190.87,0,-2.00,7.00,-997.00
2024-05-17 15:54:44.330678,0,0,0,0,0,0,63,65,10,0,90,190.91,0,-2.00,7.00,-998.00
2024-05-17 15:54:44.429033,0,0,0,0,0,0,63,65,10,0,90,190.85,0,-2.00,7.00,-999.00
2024-05-17 15:54:44.604654,0,0,0,0,0,0,63,65,10,0,90,190.83,0,-2.00,7.00,-1001.00
2024-05-17 15:54:44.633108,0,0,0,0,0,0,63,65,10,0,90,190.79,0,0.00,7.00,-999.00
2024-05-17 15:54:44.737938,0,0,0,0,0,0,63,65,10,0,90,190.88,0,0.00,5.00,-1000.00
2024-05-17 15:54:44.837758,0,0,0,0,0,0,63,65,10,0,90,190.81,0,-3.00,6.00,-998.00
2024-05-17 15:54:45.014316,0,0,0,0,0,0,63,65,10,0,90,190.76,0,-2.00,5.00,-1000.00
2024-05-17 15:54:45.040668,0,0,0,0,0,0,63,65,10,0,90,190.79,0,-1.00,5.00,-999.00
2024-05-17 15:54:45.219437,0,0,0,0,0,0,63,65,10,0,90,190.87,0,-1.00,5.00,-999.00
2024-05-17 15:54:45.247882,0,0,0,0,0,0,63,65,10,0,90,190.81,0,-1.00,8.00,-998.00
2024-05-17 15:54:45.347213,0,0,0,0,0,0,63,65,10,0,90,190.86,0,-2.00,6.00,-1000.00
2024-05-17 15:54:45.526420,0,0,0,0,0,0,63,65,10,0,90,190.86,0,0.00,7.00,-1000.00
2024-05-17 15:54:45.550627,0,0,0,0,0,0,63,65,10,0,90,190.87,0,-1.00,6.00,-1001.00
2024-05-17 15:54:45.730048,0,0,0,0,0,0,63,65,10,0,90,190.85,0,-2.00,8.00,-998.00
2024-05-17 15:54:45.754467,0,0,0,0,0,0,63,65,10,0,90,190.83,0,-1.00,5.00,-1001.00
2024-05-17 15:54:45.857225,0,0,0,0,0,0,63,65,10,0,90,190.88,0,0.00,7.00,-999.00
2024-05-17 15:54:46.037596,0,0,0,0,0,0,63,65,10,0,90,190.85,0,-1.00,6.00,-1000.00
2024-05-17 15:54:46.060600,0,0,0,0,0,0,63,65,10,0,90,190.85,0,-1.00,7.00,-999.00
2024-05-17 15:54:46.162704,0,0,0,0,0,0,63,65,10,0,90,190.82,0,-1.00,6.00,-997.00
2024-05-17 15:54:46.348887,0,0,0,0,0,0,63,65,10,0,90,190.87,0,-1.00,8.00,-999.00
2024-05-17 15:54:46.366634,0,0,0,0,0,0,63,65,10,0,90,190.87,0,-1.00,5.00,-1001.00
2024-05-17 15:54:46.549807,0,0,0,0,0,0,63,65,10,0,90,190.83,0,0.00,5.00,-999.00
2024-05-17 15:54:46.570601,0,0,0,0,0,0,63,65,10,0,90,190.85,0,-1.00,6.00,-998.00
2024-05-17 15:54:46.754436,0,0,0,0,0,0,63,65,10,0,90,190.90,0,-1.00,7.00,-1002.00
2024-05-17 15:54:46.755297,0,0,0,0,0,0,63,65,10,0,90,190.90,0,-1.00,5.00,-998.00
2024-05-17 15:54:46.826967,0,0,0,0,0,0,63,65,10,0,90,190.86,0,0.00,6.00,-998.00
2024-05-17 15:54:46.960248,0,0,0,0,0,0,63,65,10,0,90,190.91,0,-1.00,6.00,-999.00
2024-05-17 15:54:47.029747,0,0,0,0,0,0,63,65,10,0,90,190.90,0,-1.00,6.00,-995.00
2024-05-17 15:54:47.168267,0,0,0,0,0,0,63,65,10,0,90,190.84,0,-2.00,5.00,-999.00
2024-05-17 15:54:47.233554,0,0,0,0,0,0,63,65,10,0,90,190.87,0,-1.00,8.00,-997.00
2024-05-17 15:54:47.336198,0,0,0,0,0,0,63,65,10,0,90,190.89,0,-2.00,6.00,-999.00
2024-05-17 15:54:47.470831,0,0,0,0,0,0,63,65,10,0,90,190.88,0,-1.00,6.00,-998.00
2024-05-17 15:54:47.539773,0,0,0,0,0,0,63,65,10,0,90,190.88,0,-2.00,8.00,-1001.00
2024-05-17 15:54:47.641917,0,0,0,0,0,0,63,65,10,0,90,190.88,0,0.00,7.00,-999.00
2024-05-17 15:54:47.743436,0,0,1,0,0,0,63,65,10,0,90,190.88,0,-59.00,5.00,-1009.00
2024-05-17 15:54:47.880365,0,0,2,0,0,0,63,65,10,0,90,190.88,0,-20.00,42.00,-1060.00
2024-05-17 15:54:47.948488,0,0,2,0,0,0,63,65,10,0,90,190.88,0,27.00,-55.00,-1107.00
2024-05-17 15:54:48.085223,0,0,2,0,0,-2,63,65,10,0,90,190.88,0,2.00,-7.00,-1204.00
2024-05-17 15:54:48.153738,0,1,2,0,0,-4,63,65,10,0,90,190.88,0,-19.00,21.00,-1296.00
2024-05-17 15:54:48.254167,-1,1,2,0,0,-5,63,65,14,0,90,191.15,0,-12.00,-3.00,-1162.00
2024-05-17 15:54:48.355385,0,0,2,0,0,-6,63,65,22,0,90,191.31,0,16.00,-22.00,-1099.00
2024-05-17 15:54:48.494763,0,0,2,0,0,-6,63,65,32,0,90,191.33,1,6.00,-39.00,-1052.00
2024-05-17 15:54:48.562683,0,0,2,0,0,-6,63,65,41,0,90,191.45,1,-19.00,-12.00,-955.00
2024-05-17 15:54:48.661384,0,0,2,0,0,-5,63,65,51,0,90,191.57,1,-18.00,-3.00,-952.00
2024-05-17 15:54:48.763562,0,0,2,0,0,-4,63,65,59,0,90,191.65,1,-12.00,-10.00,-924.00
2024-05-17 15:54:48.867036,0,0,2,0,0,-3,63,65,69,10,90,191.63,1,-14.00,4.00,-932.00
2024-05-17 15:54:48.967632,0,0,2,0,0,-2,63,65,76,10,90,191.80,1,-11.00,-24.00,-919.00
2024-05-17 15:54:49.069556,0,0,2,0,0,-1,63,65,86,10,90,191.81,1,10.00,-16.00,-924.00
2024-05-17 15:54:49.172791,0,0,2,0,0,-1,63,65,92,20,90,191.86,1,-17.00,1.00,-918.00
2024-05-17 15:54:49.314691,0,0,2,0,0,0,63,65,97,20,90,192.00,1,-19.00,12.00,-903.00
2024-05-17 15:54:49.375354,0,0,2,0,0,0,63,65,101,20,90,192.03,1,3.00,-15.00,-923.00
2024-05-17 15:54:49.523253,0,0,2,0,0,0,63,65,105,30,90,192.06,2,-10.00,-10.00,-905.00
2024-05-17 15:54:49.579355,0,0,2,0,0,0,63,65,108,30,90,192.05,2,-3.00,-16.00,-946.00
2024-05-17 15:54:49.725025,0,0,2,0,0,1,63,65,110,30,90,192.10,2,-3.00,4.00,-944.00
2024-05-17 15:54:49.783295,0,0,2,0,0,1,63,65,112,30,90,192.12,2,-19.00,4.00,-945.00
2024-05-17 15:54:49.929805,0,0,2,0,0,1,63,65,113,30,89,192.15,2,9.00,3.00,-949.00
2024-05-17 15:54:49.988154,0,0,2,0,0,1,64,66,114,40,89,192.22,2,3.00,-26.00,-904.00
2024-05-17 15:54:50.135329,0,0,2,0,0,2,64,66,114,40,89,192.11,2,-13.00,-1.00,-981.00
2024-05-17 15:54:50.191224,0,0,2,0,0,2,64,66,114,40,89,192.17,2,-1.00,-12.00,-968.00
2024-05-17 15:54:50.338280,0,0,2,0,0,2,64,66,114,40,89,192.16,2,9.00,5.00,-977.00
2024-05-17 15:54:50.395277,0,0,2,0,0,2,64,66,114,40,89,192.14,2,22.00,-27.00,-987.00
2024-05-17 15:54:50.546677,0,0,2,0,0,2,64,66,113,40,89,192.17,3,0.00,0.00,-986.00
2024-05-17 15:54:50.551828,0,0,2,0,0,2,64,66,112,40,89,192.15,3,-13.00,-7.00,-963.00
2024-05-17 15:54:50.659107,0,0,2,0,0,2,64,66,110,40,89,192.13,3,-13.00,-2.00,-975.00
2024-05-17 15:54:50.753360,0,0,2,0,0,2,64,66,109,40,89,192.12,3,35.00,-3.00,-994.00
2024-05-17 15:54:50.854295,0,0,2,0,0,2,64,66,107,40,89,192.12,3,-9.00,-12.00,-988.00
2024-05-17 15:54:51.065115,0,0,2,0,0,2,63,66,105,40,89,192.10,3,6.00,-2.00,-984.00
2024-05-17 15:54:51.065201,0,0,2,0,0,2,63,66,103,40,89,191.99,3,-14.00,-3.00,-991.00
2024-05-17 15:54:51.160245,0,0,2,0,0,2,63,66,101,30,89,192.07,3,7.00,7.00,-986.00
2024-05-17 15:54:51.263003,0,0,2,0,0,2,63,66,99,30,89,192.05,3,-15.00,8.00,-1021.00
2024-05-17 15:54:51.364368,0,0,2,0,0,2,63,66,96,30,89,192.04,3,18.00,-4.00,-1006.00
2024-05-17 15:54:51.466287,0,0,2,0,0,2,63,66,95,30,89,192.01,4,-20.00,-1.00,-1002.00
2024-05-17 15:54:51.568475,0,0,2,0,0,2,63,66,93,30,89,191.92,4,13.00,-12.00,-1026.00
2024-05-17 15:54:51.771547,0,0,2,0,0,2,63,66,90,30,89,192.00,4,3.00,2.00,-999.00
2024-05-17 15:54:51.772172,0,0,2,0,0,1,63,66,88,20,89,191.94,4,-27.00,21.00,-991.00
2024-05-17 15:54:51.874284,0,0,2,0,0,1,63,66,86,20,89,191.92,4,3.00,-1.00,-1012.00
2024-05-17 15:54:51.976240,0,0,2,0,0,1,64,67,84,20,89,191.89,4,6.00,-14.00,-998.00
2024-05-17 15:54:52.079618,0,0,2,0,0,1,64,67,83,20,89,191.92,4,-19.00,-6.00,-1024.00
2024-05-17 15:54:52.181435,0,0,2,0,0,1,64,67,81,20,89,191.87,4,7.00,0.00,-1027.00
2024-05-17 15:54:52.283206,0,0,2,0,0,1,64,67,79,20,89,191.87,4,-7.00,-19.00,-1000.00
2024-05-17 15:54:52.385937,0,0,2,0,0,1,64,67,78,20,89,191.85,4,5.00,-15.00,-1044.00
2024-05-17 15:54:52.486413,0,0,2,0,0,1,64,67,76,20,89,191.82,5,0.00,-11.00,-1009.00
2024-05-17 15:54:52.588245,0,0,2,0,0,0,64,67,75,10,89,191.84,5,8.00,-21.00,-1031.00
2024-05-17 15:54:52.693233,0,0,2,0,0,0,64,67,74,10,89,191.78,5,-5.00,-10.00,-1023.00
2024-05-17 15:54:52.792243,0,0,2,0,0,0,64,67,73,10,89,191.81,5,-6.00,8.00,-1009.00
2024-05-17 15:54:52.897918,0,0,2,0,0,0,64,67,72,10,88,191.86,5,-15.00,-10.00,-1014.00
2024-05-17 15:54:52.996249,0,0,2,0,0,0,64,66,72,10,88,191.80,5,-9.00,-24.00,-1023.00
2024-05-17 15:54:53.102708,0,0,2,0,0,0,64,66,71,10,88,191.81,5,-36.00,4.00,-990.00
2024-05-17 15:54:53.200182,0,0,2,0,0,0,64,66,71,10,88,191.75,5,15.00,-27.00,-996.00
2024-05-17 15:54:53.307506,0,0,2,0,0,0,64,66,70,10,88,191.75,5,0.00,-3.00,-1021.00
2024-05-17 15:54:53.404173,0,0,2,0,0,0,64,66,70,10,88,191.75,5,7.00,-4.00,-1027.00
2024-05-17 15:54:53.512337,0,0,2,0,0,0,64,66,69,10,88,191.80,6,-14.00,6.00,-1007.00
2024-05-17 15:54:53.608470,0,0,2,0,0,0,64,66,69,10,88,191.81,6,8.00,0.00,-1004.00
2024-05-17 15:54:53.819449,0,0,2,0,0,0,64,66,69,10,88,191.74,6,-8.00,-7.00,-1027.00
2024-05-17 15:54:53.819639,0,0,2,0,0,0,64,66,69,10,88,191.76,6,13.00,-21.00,-1011.00
2024-05-17 15:54:53.914537,0,0,2,0,0,0,64,66,69,10,88,191.80,6,3.00,3.00,-1017.00
2024-05-17 15:54:54.024312,0,0,2,0,0,0,64,66,69,10,88,191.75,6,-2.00,-21.00,-1014.00
2024-05-17 15:54:54.118131,0,0,2,0,0,0,64,66,69,10,88,191.76,6,-18.00,8.00,-987.00
2024-05-17 15:54:54.229371,0,0,2,0,0,0,64,66,69,10,88,191.74,6,-16.00,25.00,-1001.00
2024-05-17 15:54:54.271163,0,0,2,0,0,0,64,66,70,10,88,191.80,6,12.00,-24.00,-1035.00
2024-05-17 15:54:54.374004,0,0,2,0,0,0,64,66,70,10,88,191.78,6,3.00,-11.00,-1001.00
2024-05-17 15:54:54.475489,0,0,2,0,0,0,64,66,70,10,88,191.79,7,-12.00,15.00,-1017.00
2024-05-17 15:54:54.578612,0,0,2,0,0,0,64,66,70,10,88,191.78,7,12.00,-13.00,-984.00
2024-05-17 15:54:54.679030,0,0,2,0,0,0,64,66,70,10,88,191.75,7,7.00,-4.00,-1005.00
2024-05-17 15:54:54.781381,0,0,2,0,0,0,64,66,71,10,87,191.79,7,-23.00,15.00,-1029.00
2024-05-17 15:54:54.945887,0,0,2,0,0,0,64,66,71,10,87,191.83,7,-7.00,0.00,-1000.00
2024-05-17 15:54:54.988910,0,0,2,0,0,0,64,66,71,10,87,191.78,7,-26.00,29.00,-1017.00
2024-05-17 15:54:55.087157,0,0,2,0,0,0,64,66,72,10,87,191.74,7,-20.00,21.00,-988.00
2024-05-17 15:54:55.253428,0,0,2,0,0,0,64,66,72,10,87,191.84,7,-12.00,-16.00,-993.00
2024-05-17 15:54:55.291075,0,0,2,0,0,0,64,66,72,10,87,191.85,7,-3.00,4.00,-1037.00
2024-05-17 15:54:55.457868,0,0,2,0,0,0,64,66,73,10,87,191.84,7,26.00,0.00,-998.00
2024-05-17 15:54:55.495001,0,0,2,0,0,0,64,66,73,10,87,191.85,8,0.00,7.00,-971.00
2024-05-17 15:54:55.664882,0,0,2,0,0,0,64,66,73,10,87,191.77,8,-15.00,15.00,-1000.00
2024-05-17 15:54:55.699168,0,0,2,0,0,0,64,66,74,10,87,191.78,8,-15.00,6.00,-1006.00
2024-05-17 15:54:55.867589,0,0,2,0,0,0,64,66,74,10,87,191.87,8,13.00,2.00,-994.00
2024-05-17 15:54:55.904138,0,0,2,0,0,0,64,66,74,10,87,191.86,8,-9.00,2.00,-991.00
2024-05-17 15:54:56.072309,0,0,2,0,0,0,63,66,74,10,87,191.86,8,6.00,4.00,-964.00
2024-05-17 15:54:56.109409,0,0,2,0,0,0,63,66,74,10,87,191.82,8,1.00,6.00,-948.00
2024-05-17 15:54:56.277169,0,0,2,0,0,0,63,66,73,10,87,191.83,8,6.00,-1.00,-976.00
2024-05-17 15:54:56.312244,0,0,2,0,0,0,63,66,73,10,87,191.80,8,-4.00,-4.00,-982.00
2024-05-17 15:54:56.482218,0,0,2,0,0,0,63,66,72,10,87,191.80,8,-35.00,0.00,-993.00
2024-05-17 15:54:56.516109,0,0,2,0,0,0,63,66,72,10,87,191.80,9,0.00,-22.00,-1002.00
2024-05-17 15:54:56.686847,0,0,2,0,0,0,63,66,72,10,87,191.77,9,11.00,11.00,-980.00
2024-05-17 15:54:56.720105,0,0,2,0,0,0,63,66,72,10,87,191.81,9,12.00,4.00,-1012.00
2024-05-17 15:54:56.825675,0,0,2,0,0,0,63,66,71,10,86,191.86,9,21.00,10.00,-999.00
2024-05-17 15:54:56.924124,0,0,2,0,0,0,63,66,71,10,86,191.90,9,-3.00,2.00,-1097.00
2024-05-17 15:54:57.096600,0,0,2,0,0,0,64,66,71,10,86,191.81,9,-34.00,8.00,-974.00
2024-05-17 15:54:57.128175,0,0,2,0,0,0,64,66,70,10,86,191.81,9,-26.00,12.00,-995.00
2024-05-17 15:54:57.301416,0,0,2,0,0,0,64,66,70,10,86,191.81,9,11.00,-8.00,-1012.00
2024-05-17 15:54:57.332204,0,0,2,0,0,0,64,66,70,10,86,191.79,9,12.00,-6.00,-1012.00
2024-05-17 15:54:57.507401,0,0,2,0,0,0,64,66,70,10,86,191.83,9,-30.00,8.00,-995.00
2024-05-17 15:54:57.536080,0,0,2,0,0,0,64,66,70,10,86,191.79,10,-21.00,12.00,-996.00
2024-05-17 15:54:57.710853,0,0,2,0,0,0,64,66,70,10,86,191.74,10,19.00,-2.00,-1018.00
2024-05-17 15:54:57.741143,0,0,2,0,0,0,64,66,71,10,86,191.84,10,-8.00,-3.00,-970.00
2024-05-17 15:54:57.915687,0,0,2,0,0,0,64,66,71,10,86,191.83,10,-25.00,2.00,-1008.00
2024-05-17 15:54:57.915995,0,0,2,0,0,0,64,66,71,10,86,191.87,10,-9.00,12.00,-992.00
2024-05-17 15:54:58.076155,0,0,2,0,0,0,63,66,71,10,86,191.75,10,-2.00,-23.00,-1003.00
2024-05-17 15:54:58.152128,0,0,2,0,0,0,63,66,71,10,86,191.88,10,-10.00,-1.00,-995.00
2024-05-17 15:54:58.252689,0,0,2,0,0,0,63,66,71,10,86,191.82,10,-19.00,17.00,-1022.00
2024-05-17 15:54:58.300996,0,0,2,0,0,0,63,66,72,10,86,191.81,10,-22.00,6.00,-1066.00
2024-05-17 15:54:58.427526,0,0,2,0,0,-1,63,66,74,10,86,191.89,10,-9.00,22.00,-1084.00
2024-05-17 15:54:58.504974,0,0,2,0,0,-2,63,66,76,10,86,191.84,11,-30.00,-1.00,-1068.00
2024-05-17 15:54:58.633000,0,0,2,0,0,-3,63,66,79,10,86,191.90,11,-13.00,0.00,-1058.00
2024-05-17 15:54:58.709266,0,0,2,0,0,-3,63,66,83,20,86,191.93,11,0.00,-5.00,-1093.00
2024-05-17 15:54:58.837149,0,0,2,0,0,-4,63,66,88,20,86,191.99,11,-10.00,-2.00,-1052.00
2024-05-17 15:54:58.912884,0,0,2,0,0,-5,63,66,93,30,86,192.02,11,-6.00,0.00,-1010.00
2024-05-17 15:54:59.041880,0,0,2,0,0,-5,64,67,99,30,86,192.08,11,0.00,-15.00,-1026.00
2024-05-17 15:54:59.116883,0,0,2,0,0,-5,64,67,105,40,86,192.14,11,-14.00,15.00,-1009.00
2024-05-17 15:54:59.253886,0,0,2,0,0,-5,64,67,110,40,86,192.18,11,-15.00,-18.00,-983.00
2024-05-17 15:54:59.321481,0,0,2,0,0,-5,64,67,115,50,86,192.23,11,9.00,-7.00,-1003.00
2024-05-17 15:54:59.424152,0,0,2,0,0,-5,64,67,121,50,86,192.27,11,-12.00,22.00,-1019.00
2024-05-17 15:54:59.524859,0,0,2,0,0,-5,64,67,126,60,86,192.31,12,11.00,-26.00,-977.00
2024-05-17 15:54:59.657376,0,0,2,0,0,-5,64,67,131,60,86,192.40,12,-19.00,0.00,-999.00
2024-05-17 15:54:59.729159,0,0,2,0,0,-4,64,67,136,70,86,192.42,12,-12.00,12.00,-988.00
2024-05-17 15:54:59.862028,0,0,2,0,0,-4,64,67,140,70,85,192.45,12,-24.00,2.00,-964.00
2024-05-17 15:54:59.932988,0,0,2,0,0,-4,64,67,144,80,85,192.53,12,-10.00,30.00,-970.00
2024-05-17 15:55:00.066280,0,0,2,0,0,-3,65,66,148,80,85,192.55,12,7.00,5.00,-953.00
2024-05-17 15:55:00.138052,0,0,2,0,0,-3,65,66,151,80,85,192.57,12,1.00,5.00,-1003.00
2024-05-17 15:55:00.289662,0,0,2,0,0,-3,65,66,154,90,85,192.59,12,27.00,-27.00,-973.00
2024-05-17 15:55:00.341799,0,0,2,0,0,-2,65,66,157,90,85,192.63,12,-21.00,13.00,-963.00
2024-05-17 15:55:00.475532,1,0,2,0,0,-2,65,66,160,90,85,192.67,12,0.00,-14.00,-970.00
2024-05-17 15:55:00.544801,0,0,2,0,0,-2,65,66,162,100,85,192.68,13,0.00,16.00,-981.00
2024-05-17 15:55:00.685716,1,0,2,0,0,-1,65,66,164,100,85,192.69,13,16.00,8.00,-979.00
2024-05-17 15:55:00.749506,1,0,2,0,0,-1,65,66,166,100,85,192.72,13,-19.00,6.00,-967.00
2024-05-17 15:55:00.887507,1,0,2,0,0,-1,65,66,168,100,85,192.70,13,29.00,-6.00,-998.00
2024-05-17 15:55:00.953223,1,0,2,0,0,-1,65,66,169,100,85,192.69,13,12.00,13.00,-962.00
2024-05-17 15:55:01.090569,1,0,2,0,0,0,65,66,171,110,85,192.79,13,-20.00,7.00,-968.00
2024-05-17 15:55:01.156865,0,0,2,0,0,0,65,66,171,110,85,192.67,13,4.00,0.00,-987.00
2024-05-17 15:55:01.297016,0,0,2,0,0,0,65,66,172,110,85,192.70,13,27.00,14.00,-1000.00
2024-05-17 15:55:01.361483,0,0,2,0,0,0,65,66,172,110,85,192.71,13,6.00,-22.00,-975.00
2024-05-17 15:55:01.499624,1,0,2,0,0,0,65,66,173,110,85,192.74,14,8.00,3.00,-964.00
2024-05-17 15:55:01.565031,0,0,2,0,0,0,65,66,173,110,85,192.76,14,19.00,11.00,-984.00
2024-05-17 15:55:01.704416,1,0,2,0,0,0,65,66,173,110,85,192.77,14,-2.00,-11.00,-1009.00
2024-05-17 15:55:01.768919,1,0,2,0,0,0,65,66,174,110,85,192.78,14,6.00,2.00,-980.00
2024-05-17 15:55:01.918382,0,0,2,0,0,0,65,66,174,110,84,192.76,14,4.00,4.00,-1019.00
2024-05-17 15:55:01.921874,0,0,2,0,0,0,65,66,174,110,84,192.73,14,-5.00,21.00,-1017.00
2024-05-17 15:55:02.114009,1,0,2,0,0,0,65,67,174,110,84,192.75,14,3.00,3.00,-997.00
2024-05-17 15:55:02.177468,1,0,2,0,0,0,65,67,173,110,84,192.77,14,24.00,-4.00,-1007.00
2024-05-17 15:55:02.228028,1,0,2,0,0,0,65,67,173,110,84,192.74,14,7.00,-8.00,-965.00
2024-05-17 15:55:02.421144,1,0,2,0,0,0,65,67,173,110,84,192.75,14,23.00,-14.00,-984.00
2024-05-17 15:55:02.431809,0,0,2,0,0,0,65,67,172,110,84,192.71,15,15.00,0.00,-989.00
2024-05-17 15:55:02.640595,0,0,2,0,0,0,65,67,172,110,84,192.75,15,19.00,-19.00,-1017.00
2024-05-17 15:55:02.641360,0,0,2,0,0,0,65,67,172,110,84,192.73,15,8.00,-6.00,-1005.00
2024-05-17 15:55:02.738148,0,0,2,0,0,0,65,67,172,110,84,192.76,15,-19.00,18.00,-1001.00
2024-05-17 15:55:02.893881,0,0,2,0,0,0,65,67,171,110,84,192.68,15,-19.00,28.00,-1028.00
2024-05-17 15:55:02.941710,0,0,2,0,0,0,65,67,171,110,84,192.68,15,-15.00,10.00,-1035.00
2024-05-17 15:55:03.137921,0,0,2,0,0,0,65,67,171,110,84,192.68,15,-6.00,10.00,-1001.00
2024-05-17 15:55:03.145891,0,0,2,0,0,0,65,67,171,110,84,192.69,15,15.00,5.00,-1017.00
2024-05-17 15:55:03.342836,0,0,2,0,0,0,65,67,171,110,84,192.70,15,-23.00,0.00,-964.00
2024-05-17 15:55:03.350196,0,0,2,0,0,1,65,67,170,110,84,192.69,15,-4.00,2.00,-906.00
2024-05-17 15:55:03.451714,0,0,2,0,0,2,65,67,168,100,84,192.67,16,12.00,-8.00,-961.00
2024-05-17 15:55:03.650157,0,0,2,0,0,2,65,67,166,100,84,192.67,16,21.00,20.00,-941.00
2024-05-17 15:55:03.656707,0,0,2,0,0,2,65,67,163,100,84,192.62,16,-28.00,-4.00,-956.00
2024-05-17 15:55:03.857565,0,0,2,0,0,2,65,67,161,100,84,192.60,16,4.00,13.00,-984.00
2024-05-17 15:55:03.860048,0,0,2,0,0,2,65,67,158,90,83,192.59,16,-27.00,0.00,-960.00
2024-05-17 15:55:04.059415,0,0,2,0,0,2,65,67,155,90,83,192.50,16,5.00,-1.00,-992.00
2024-05-17 15:55:04.065962,0,0,2,0,0,2,65,67,150,90,83,192.53,16,-29.00,25.00,-1014.00
2024-05-17 15:55:04.168084,0,0,2,0,0,2,65,67,148,90,83,192.46,16,-32.00,3.00,-995.00
2024-05-17 15:55:04.267646,0,0,2,0,0,2,65,67,144,80,83,192.47,16,1.00,-3.00,-993.00
2024-05-17 15:55:04.369975,0,0,2,0,0,2,65,67,142,80,83,192.41,16,-36.00,0.00,-1021.00
2024-05-17 15:55:04.572392,0,0,2,0,0,2,65,67,139,80,83,192.35,17,24.00,-5.00,-1029.00
2024-05-17 15:55:04.573603,0,0,2,0,0,2,65,67,136,80,83,192.36,17,-2.00,-4.00,-1022.00
2024-05-17 15:55:04.675637,0,0,2,0,0,2,65,67,134,70,83,192.31,17,-4.00,21.00,-1018.00
2024-05-17 15:55:04.777611,0,0,2,0,0,1,65,67,132,70,83,192.33,17,27.00,-14.00,-1031.00
2024-05-17 15:55:04.879868,0,0,2,0,0,1,65,67,129,70,83,192.33,17,20.00,-10.00,-998.00
2024-05-17 15:55:04.981570,0,0,2,0,0,1,65,67,126,70,83,192.33,17,-5.00,2.00,-1034.00
2024-05-17 15:55:05.083630,0,0,2,0,0,1,65,67,125,70,83,192.26,17,17.00,-5.00,-1012.00
2024-05-17 15:55:05.188298,0,0,2,0,0,1,65,67,123,60,83,192.27,17,50.00,-16.00,-1041.00
2024-05-17 15:55:05.287981,0,0,2,0,0,1,65,67,121,60,83,192.21,17,-11.00,17.00,-1003.00
2024-05-17 15:55:05.390761,0,0,2,0,0,1,65,67,120,60,83,192.24,17,-14.00,11.00,-1062.00
2024-05-17 15:55:05.493453,0,0,2,0,0,0,65,67,118,60,83,192.18,18,15.00,4.00,-1038.00
2024-05-17 15:55:05.596736,0,0,2,0,0,0,65,67,118,60,83,192.18,18,4.00,-1.00,-1043.00
2024-05-17 15:55:05.695609,0,0,2,0,0,0,65,67,117,60,83,192.17,18,9.00,8.00,-1019.00
2024-05-17 15:55:05.803612,0,0,2,0,0,0,65,67,117,60,83,192.22,18,-7.00,8.00,-1013.00
2024-05-17 15:55:05.899857,0,0,2,0,0,0,65,67,117,60,82,192.17,18,-19.00,16.00,-1002.00
2024-05-17 15:55:06.107482,0,0,2,0,0,0,65,67,116,60,82,192.20,18,15.00,-32.00,-1010.00
2024-05-17 15:55:06.107732,0,0,2,0,0,0,64,67,117,60,82,192.17,18,9.00,0.00,-994.00
2024-05-17 15:55:06.154653,0,0,2,0,0,0,64,67,117,60,82,192.20,18,-33.00,0.00,-980.00
2024-05-17 15:55:06.312323,0,0,2,0,0,0,64,67,117,60,82,192.19,18,1.00,26.00,-1050.00
2024-05-17 15:55:06.358902,0,0,2,0,0,0,64,67,117,60,82,192.17,18,0.00,-15.00,-945.00
2024-05-17 15:55:06.517508,0,0,2,0,0,0,64,67,116,60,82,192.16,19,2.00,-4.00,-991.00
2024-05-17 15:55:06.563190,0,0,2,0,0,0,64,67,116,60,82,192.23,19,-10.00,11.00,-1008.00
2024-05-17 15:55:06.722162,0,0,2,0,0,0,64,67,116,60,82,192.16,19,0.00,-2.00,-1007.00
2024-05-17 15:55:06.767867,0,0,2,0,0,0,64,67,116,60,82,192.18,19,-8.00,5.00,-993.00
2024-05-17 15:55:06.926754,0,0,2,0,0,0,64,67,116,60,82,192.12,19,-30.00,23.00,-988.00
2024-05-17 15:55:06.971701,0,0,2,0,0,0,64,67,116,60,82,192.24,19,17.00,5.00,-974.00
2024-05-17 15:55:07.132417,0,0,2,0,0,0,64,67,116,60,82,192.15,19,-34.00,8.00,-1043.00
2024-05-17 15:55:07.175623,0,0,2,0,0,0,64,67,116,60,82,192.18,19,8.00,-21.00,-1011.00
2024-05-17 15:55:07.278014,0,0,2,0,0,0,64,67,116,60,82,192.14,19,8.00,-16.00,-986.00
2024-05-17 15:55:07.439898,0,0,2,0,0,0,64,67,116,60,82,192.13,19,-32.00,6.00,-1013.00
2024-05-17 15:55:07.481679,-6,0,2,0,0,0,64,67,116,60,82,192.15,20,13.00,13.00,-1013.00
2024-05-17 15:55:07.644103,-8,0,2,1,0,0,64,67,118,60,82,192.16,20,-35.00,1.00,-1008.00
2024-05-17 15:55:07.685492,-8,0,2,3,0,0,64,67,118,60,82,192.16,20,-7.00,5.00,-1025.00
2024-05-17 15:55:07.787405,-8,0,2,4,0,0,64,67,119,60,82,192.14,20,-1.00,-15.00,-1026.00
2024-05-17 15:55:07.950632,-7,0,2,5,0,0,64,67,118,60,82,192.09,20,-9.00,-6.00,-1028.00
2024-05-17 15:55:07.991450,-5,1,2,6,0,0,64,67,117,60,82,192.05,20,-32.00,-23.00,-1000.00
2024-05-17 15:55:08.155443,-4,1,2,6,0,0,65,67,119,60,82,192.13,20,-26.00,19.00,-987.00
2024-05-17 15:55:08.195428,-5,1,2,7,0,0,65,67,119,60,82,192.12,20,-25.00,2.00,-976.00
2024-05-17 15:55:08.360267,-3,0,2,7,0,0,65,67,118,60,82,192.17,20,-36.00,15.00,-985.00
2024-05-17 15:55:08.399442,0,0,2,6,0,0,65,67,118,60,82,192.15,20,-26.00,6.00,-1005.00
2024-05-17 15:55:08.565023,1,-1,2,6,0,0,65,67,121,60,82,192.23,21,-20.00,8.00,-1002.00
2024-05-17 15:55:08.603545,3,0,2,5,0,0,65,67,121,60,82,192.20,21,-31.00,-12.00,-1005.00
2024-05-17 15:55:08.705444,3,0,2,4,0,0,65,67,120,60,82,192.18,21,-57.00,2.00,-1056.00
2024-05-17 15:55:08.808814,1,0,2,3,0,0,65,67,119,60,81,192.20,21,-24.00,14.00,-1002.00
2024-05-17 15:55:08.909599,0,0,2,3,0,0,65,67,119,60,81,192.24,21,-46.00,2.00,-999.00
2024-05-17 15:55:09.077009,0,0,2,3,0,0,65,67,119,60,81,192.19,21,-3.00,17.00,-1040.00
2024-05-17 15:55:09.113390,0,0,2,3,0,0,65,67,119,60,81,192.15,21,-41.00,18.00,-1014.00
2024-05-17 15:55:09.282289,0,0,2,3,0,0,65,67,118,60,81,192.17,21,-22.00,-24.00,-959.00
2024-05-17 15:55:09.317418,0,0,2,3,0,0,65,67,118,60,81,192.21,21,4.00,-6.00,-974.00
2024-05-17 15:55:09.486604,0,0,2,2,0,0,65,67,118,60,81,192.14,21,-10.00,15.00,-970.00
2024-05-17 15:55:09.521412,0,0,2,2,0,0,65,67,117,60,81,192.13,22,-50.00,10.00,-1012.00
2024-05-17 15:55:09.691428,0,0,2,2,0,0,65,67,117,60,81,192.11,22,-5.00,13.00,-1037.00
2024-05-17 15:55:09.735380,0,0,2,2,0,0,65,67,116,60,81,192.15,22,-46.00,19.00,-995.00
2024-05-17 15:55:09.827609,0,0,2,1,0,0,65,67,116,60,81,192.14,22,-16.00,12.00,-1020.00
2024-05-17 15:55:09.998533,3,0,2,1,0,0,65,67,117,60,81,192.23,22,-21.00,4.00,-1056.00
2024-05-17 15:55:10.031508,1,0,2,0,0,0,65,67,116,60,81,192.21,22,-17.00,4.00,-978.00
2024-05-17 15:55:10.133425,0,0,2,0,0,0,65,67,115,60,81,192.12,22,-76.00,17.00,-969.00
2024-05-17 15:55:10.305933,0,0,2,0,0,0,65,67,115,60,81,192.12,22,-42.00,28.00,-987.00
2024-05-17 15:55:10.337424,-1,0,2,0,0,0,65,67,115,60,81,192.16,22,-18.00,12.00,-1035.00
2024-05-17 15:55:10.388409,-1,0,2,0,0,0,65,67,115,60,81,192.21,22,-22.00,32.00,-1005.00
2024-05-17 15:55:10.490423,0,0,2,0,0,0,65,67,115,60,81,192.19,23,-8.00,19.00,-1004.00
2024-05-17 15:55:10.615072,0,0,2,0,0,0,65,67,115,60,81,192.15,23,-14.00,0.00,-993.00
2024-05-17 15:55:10.694772,0,0,2,0,0,0,65,67,116,60,81,192.22,23,-5.00,19.00,-987.00
2024-05-17 15:55:10.798419,0,0,2,0,0,0,65,67,116,60,81,192.23,23,3.00,9.00,-1027.00
2024-05-17 15:55:10.898904,0,0,2,0,0,0,65,67,116,60,81,192.18,23,-18.00,36.00,-999.00
2024-05-17 15:55:11.000461,0,0,2,0,0,0,65,67,116,60,81,192.21,23,16.00,2.00,-976.00
2024-05-17 15:55:11.127310,0,0,2,0,0,0,65,67,115,60,81,192.16,23,20.00,-13.00,-1010.00
2024-05-17 15:55:11.205831,0,0,2,0,0,0,65,67,115,60,81,192.19,23,6.00,16.00,-968.00
2024-05-17 15:55:11.331573,0,0,2,0,0,0,65,67,114,60,81,192.16,23,-14.00,10.00,-991.00
2024-05-17 15:55:11.409638,0,0,2,0,0,0,65,67,113,60,81,192.12,23,-4.00,18.00,-1038.00
2024-05-17 15:55:11.536647,0,0,2,0,0,0,65,67,112,50,81,192.13,24,-12.00,20.00,-1035.00
2024-05-17 15:55:11.618537,0,0,2,0,0,0,65,67,112,50,81,192.11,24,0.00,10.00,-995.00
2024-05-17 15:55:11.714619,0,0,2,0,0,0,65,67,111,50,81,192.09,24,-29.00,12.00,-1032.00
2024-05-17 15:55:11.816299,0,0,2,0,0,0,65,67,111,50,80,192.14,24,-6.00,0.00,-1017.00
2024-05-17 15:55:11.926889,0,0,2,0,0,0,65,67,110,50,80,192.07,24,-15.00,14.00,-948.00
2024-05-17 15:55:12.020151,0,0,2,0,0,0,65,67,111,50,80,192.10,24,-3.00,23.00,-1052.00
2024-05-17 15:55:12.126275,0,0,2,0,0,0,65,67,111,50,80,192.14,24,18.00,6.00,-1007.00
2024-05-17 15:55:12.224523,2,0,2,0,0,0,65,67,112,50,80,192.15,24,14.00,-5.00,-1089.00
2024-05-17 15:55:12.355092,7,0,2,0,0,0,65,67,114,50,80,192.12,24,19.00,9.00,-1058.00
2024-05-17 15:55:12.429392,8,0,2,-2,0,0,65,67,114,50,80,192.14,24,-7.00,1.00,-982.00
2024-05-17 15:55:12.558609,8,0,2,-3,0,0,65,67,114,50,80,192.08,25,1.00,29.00,-1010.00
2024-05-17 15:55:12.633462,8,0,2,-5,0,0,65,67,114,50,80,192.13,25,16.00,5.00,-990.00
2024-05-17 15:55:12.738828,6,0,2,-6,0,0,65,67,114,50,80,192.11,25,31.00,3.00,-999.00
2024-05-17 15:55:12.836715,6,0,2,-6,0,0,65,67,112,50,80,192.11,25,35.00,3.00,-971.00
2024-05-17 15:55:12.968106,5,0,2,-7,0,0,65,67,114,50,80,192.18,25,57.00,1.00,-1031.00
2024-05-17 15:55:13.040174,4,0,2,-7,0,0,65,67,115,50,80,192.15,25,47.00,5.00,-1003.00
2024-05-17 15:55:13.174873,1,0,2,-7,0,0,66,68,114,50,80,192.13,25,31.00,12.00,-966.00
2024-05-17 15:55:13.244196,-1,0,2,-6,0,0,66,68,115,50,80,192.09,25,37.00,-11.00,-996.00
2024-05-17 15:55:13.380059,-3,0,2,-5,0,0,66,68,116,50,80,192.09,25,31.00,21.00,-966.00
2024-05-17 15:55:13.448118,-3,0,2,-4,0,0,66,68,116,50,80,192.10,25,11.00,-11.00,-967.00
2024-05-17 15:55:13.584137,-2,0,2,-3,0,0,66,68,117,50,80,192.14,26,18.00,15.00,-1016.00
2024-05-17 15:55:13.652118,0,0,2,-3,0,0,66,68,117,50,80,192.14,26,2.00,8.00,-1026.00
2024-05-17 15:55:13.788795,0,0,2,-3,0,0,66,68,118,60,80,192.09,26,-6.00,8.00,-992.00
2024-05-17 15:55:13.805124,0,0,2,-3,0,0,66,68,119,60,80,192.09,26,15.00,-21.00,-1028.00
2024-05-17 15:55:13.993358,0,0,2,-3,0,0,66,68,120,60,80,192.18,26,31.00,-27.00,-990.00
2024-05-17 15:55:14.016267,0,0,2,-3,0,0,66,68,120,60,80,192.20,26,12.00,0.00,-981.00
2024-05-17 15:55:14.117574,0,0,2,-2,0,0,66,68,121,60,80,192.21,26,12.00,7.00,-995.00
2024-05-17 15:55:14.213102,0,0,2,-2,0,0,66,68,122,60,80,192.18,26,24.00,4.00,-1000.00
2024-05-17 15:55:14.504182,0,0,2,-2,0,0,66,68,122,60,80,192.18,26,26.00,-2.00,-998.00
2024-05-17 15:55:14.504376,0,0,2,-2,0,0,66,68,124,60,80,192.16,26,-11.00,10.00,-996.00
2024-05-17 15:55:14.521099,-2,0,2,-2,0,0,66,68,124,60,80,192.23,27,3.00,15.00,-990.00
2024-05-17 15:55:14.621486,-4,0,2,-1,0,0,66,68,125,60,80,192.24,27,39.00,-1.00,-981.00
2024-05-17 15:55:14.723585,-2,0,2,0,0,0,66,68,125,60,80,192.22,27,-27.00,12.00,-951.00
2024-05-17 15:55:14.825199,-1,0,2,0,0,0,66,68,126,60,80,192.26,27,10.00,18.00,-1003.00
2024-05-17 15:55:15.021739,0,0,2,0,0,0,66,68,126,60,80,192.27,27,-53.00,13.00,-973.00
2024-05-17 15:55:15.031008,0,0,2,0,0,0,66,68,127,60,80,192.24,27,-20.00,2.00,-980.00
2024-05-17 15:55:15.131840,0,0,2,0,0,0,67,68,127,60,80,192.26,27,-3.00,-5.00,-997.00
2024-05-17 15:55:15.324342,-1,0,2,0,0,0,67,68,127,60,80,192.29,27,5.00,9.00,-987.00
2024-05-17 15:55:15.335183,0,0,2,0,0,0,67,68,127,60,80,192.24,27,-31.00,7.00,-1013.00
2024-05-17 15:55:15.528350,0,0,2,0,0,0,67,68,127,60,80,192.29,28,3.00,-23.00,-1003.00
2024-05-17 15:55:15.539127,0,0,2,0,0,0,67,68,127,60,80,192.23,28,-41.00,8.00,-978.00
2024-05-17 15:55:15.736040,0,0,2,0,0,0,67,68,127,60,80,192.31,28,-10.00,-2.00,-995.00
2024-05-17 15:55:15.751150,0,0,2,0,0,0,67,68,127,60,80,192.29,28,-27.00,-6.00,-981.00
2024-05-17 15:55:15.845175,0,0,2,0,0,0,67,68,127,60,80,192.24,28,-7.00,-2.00,-989.00
2024-05-17 15:55:16.040720,0,0,2,0,0,0,67,68,127,60,80,192.23,28,-14.00,32.00,-999.00
2024-05-17 15:55:16.051009,0,0,2,0,0,0,67,68,127,60,80,192.18,28,-15.00,10.00,-994.00
2024-05-17 15:55:16.151117,0,0,2,0,0,0,66,68,127,60,80,192.25,28,-30.00,-3.00,-986.00
2024-05-17 15:55:16.348285,0,0,2,0,0,0,66,68,127,60,80,192.26,28,14.00,-3.00,-990.00
2024-05-17 15:55:16.355101,0,0,2,0,0,0,66,68,127,60,80,192.25,28,-14.00,18.00,-975.00
2024-05-17 15:55:16.552194,0,0,2,0,0,0,66,68,127,60,80,192.26,29,-21.00,11.00,-945.00
2024-05-17 15:55:16.561300,0,0,2,0,0,0,66,68,127,60,80,192.21,29,20.00,-19.00,-992.00
2024-05-17 15:55:16.661117,0,0,2,0,0,0,66,68,126,60,80,192.25,29,-10.00,6.00,-1006.00
2024-05-17 15:55:16.763085,0,0,2,0,0,0,66,68,126,60,80,192.24,29,8.00,27.00,-936.00
2024-05-17 15:55:16.865407,0,-3,2,0,0,0,66,68,126,60,79,192.31,29,-31.00,56.00,-963.00
2024-05-17 15:55:16.967065,0,-8,2,0,-1,0,66,68,127,60,79,192.21,29,14.00,-14.00,-1028.00
2024-05-17 15:55:17.166554,0,-7,2,0,-2,0,66,68,128,60,79,192.26,29,-27.00,8.00,-996.00
2024-05-17 15:55:17.171013,0,-4,2,0,-3,0,65,67,125,60,79,192.24,29,-23.00,27.00,-986.00
2024-05-17 15:55:17.371352,0,-2,2,0,-4,0,65,67,127,60,79,192.29,29,13.00,30.00,-998.00
2024-05-17 15:55:17.371411,0,0,2,0,-3,0,65,67,126,60,79,192.20,29,-9.00,42.00,-994.00
2024-05-17 15:55:17.426147,0,0,2,0,-3,0,65,67,126,60,79,192.14,30,-5.00,10.00,-1026.00
2024-05-17 15:55:17.577314,0,0,2,0,-2,0,65,67,127,60,79,192.26,30,24.00,47.00,-978.00
2024-05-17 15:55:17.629969,0,-1,2,0,-2,0,65,67,126,60,79,192.21,30,-20.00,28.00,-966.00
2024-05-17 15:55:17.780941,0,-1,2,0,-2,0,65,67,127,60,79,192.25,30,16.00,20.00,-975.00
2024-05-17 15:55:17.834586,0,-1,2,0,-2,0,65,67,127,60,79,192.18,30,19.00,27.00,-1017.00
2024-05-17 15:55:17.985730,0,-1,2,0,-2,0,65,67,127,60,79,192.30,30,2.00,19.00,-980.00
2024-05-17 15:55:18.037974,0,0,2,0,-2,0,65,67,126,60,79,192.27,30,6.00,18.00,-991.00
2024-05-17 15:55:18.142859,0,0,2,0,-2,0,66,68,125,60,79,192.24,30,-24.00,56.00,-981.00
2024-05-17 15:55:18.243141,0,0,2,0,-2,0,66,68,125,60,79,192.21,30,10.00,21.00,-1011.00
2024-05-17 15:55:18.344259,0,0,2,0,-2,0,66,68,125,60,79,192.28,30,10.00,11.00,-1030.00
2024-05-17 15:55:18.446120,0,0,2,0,-2,0,66,68,125,60,79,192.27,31,2.00,50.00,-995.00
2024-05-17 15:55:18.547995,0,-1,2,0,-2,0,66,68,125,60,79,192.24,31,-29.00,10.00,-942.00
2024-05-17 15:55:18.650083,0,4,2,0,-2,0,66,68,125,60,79,192.27,31,-18.00,20.00,-1004.00
2024-05-17 15:55:18.751780,0,3,2,0,-1,0,66,68,126,60,79,192.29,31,-10.00,20.00,-989.00
2024-05-17 15:55:18.854410,0,1,2,0,0,0,66,68,125,60,79,192.28,31,-4.00,46.00,-974.00
2024-05-17 15:55:18.955960,0,0,2,0,0,0,66,68,125,60,79,192.30,31,-9.00,-3.00,-1038.00
2024-05-17 15:55:19.057954,0,0,2,0,0,0,66,68,125,60,79,192.27,31,-2.00,9.00,-986.00
2024-05-17 15:55:19.215241,0,0,2,0,0,0,66,68,125,60,79,192.19,31,-23.00,0.00,-1015.00
2024-05-17 15:55:19.262001,0,0,2,0,0,0,66,68,126,60,79,192.25,31,-19.00,-2.00,-1001.00
2024-05-17 15:55:19.367296,0,0,2,0,0,0,66,68,126,60,79,192.25,31,-21.00,1.00,-1000.00
2024-05-17 15:55:19.468734,0,0,2,0,0,0,66,68,127,60,79,192.25,32,-12.00,22.00,-1006.00
2024-05-17 15:55:19.568023,0,0,2,0,0,0,66,68,127,60,79,192.24,32,13.00,13.00,-972.00
2024-05-17 15:55:19.726619,0,0,2,0,0,0,66,68,127,60,79,192.24,32,6.00,15.00,-978.00
2024-05-17 15:55:19.778147,0,0,2,0,0,0,66,68,127,60,79,192.29,32,-52.00,1.00,-1017.00
2024-05-17 15:55:19.873944,0,0,2,0,0,0,66,68,128,60,79,192.23,32,10.00,-8.00,-988.00
2024-05-17 15:55:20.039127,0,0,2,0,0,0,66,68,128,60,79,192.21,32,2.00,16.00,-1032.00
2024-05-17 15:55:20.078227,0,0,2,0,0,0,66,68,128,60,79,192.23,32,-9.00,20.00,-1029.00
2024-05-17 15:55:20.240079,0,0,2,0,0,0,66,69,127,60,79,192.29,32,10.00,-2.00,-976.00
2024-05-17 15:55:20.281966,0,0,2,0,0,0,66,69,127,60,79,192.20,32,-25.00,35.00,-997.00
2024-05-17 15:55:20.443611,0,0,2,0,0,0,66,69,126,60,79,192.27,32,-16.00,4.00,-958.00
2024-05-17 15:55:20.486332,0,0,2,0,0,0,66,69,126,60,79,192.24,33,-10.00,5.00,-970.00
2024-05-17 15:55:20.590566,0,0,2,0,0,0,66,69,125,60,79,192.24,33,-13.00,-20.00,-1003.00
2024-05-17 15:55:20.690622,0,0,2,0,0,0,66,69,125,60,79,192.23,33,-6.00,11.00,-1058.00
2024-05-17 15:55:20.791892,0,0,2,0,0,0,66,69,125,60,79,192.25,33,7.00,26.00,-970.00
2024-05-17 15:55:20.893752,0,0,2,0,0,0,66,69,124,60,78,192.29,33,2.00,0.00,-1015.00
2024-05-17 15:55:20.995779,0,1,2,0,0,0,66,69,124,60,78,192.29,33,-8.00,-10.00,-1061.00
2024-05-17 15:55:21.160038,0,7,2,0,0,0,66,69,126,60,78,192.30,33,-23.00,25.00,-928.00
2024-05-17 15:55:21.206482,0,7,2,0,2,0,66,68,125,60,78,192.28,33,-29.00,4.00,-1010.00
2024-05-17 15:55:21.301771,0,4,2,0,3,0,66,68,124,60,78,192.28,33,13.00,-4.00,-975.00
2024-05-17 15:55:21.470245,0,2,2,0,4,0,66,68,123,60,78,192.26,33,20.00,-28.00,-992.00
2024-05-17 15:55:21.470322,0,0,2,0,3,0,66,68,123,60,78,192.28,34,16.00,-31.00,-1019.00
2024-05-17 15:55:21.672014,0,-1,2,0,3,0,66,68,123,60,78,192.24,34,-14.00,-28.00,-1005.00
2024-05-17 15:55:21.672076,0,0,2,0,2,0,66,68,122,60,78,192.22,34,2.00,-24.00,-984.00
2024-05-17 15:55:21.761938,0,0,2,0,2,0,66,68,122,60,78,192.23,34,-18.00,5.00,-997.00
2024-05-17 15:55:21.862919,0,0,2,0,2,0,66,68,121,60,78,192.22,34,1.00,-22.00,-994.00
2024-05-17 15:55:21.979257,0,1,2,0,2,0,66,68,120,60,78,192.25,34,18.00,-26.00,-982.00
2024-05-17 15:55:22.067037,0,0,2,0,2,0,66,68,120,60,78,192.26,34,-4.00,-11.00,-995.00
2024-05-17 15:55:22.184034,0,0,2,0,2,0,66,69,120,60,78,192.28,34,5.00,-35.00,-1014.00
2024-05-17 15:55:22.271766,0,0,2,0,2,0,66,69,119,60,78,192.24,34,-6.00,-3.00,-1000.00
2024-05-17 15:55:22.389257,0,0,2,0,2,0,66,69,119,60,78,192.26,34,19.00,-6.00,-988.00
2024-05-17 15:55:22.476632,0,0,2,0,2,0,66,69,118,60,78,192.27,35,2.00,-39.00,-1022.00
2024-05-17 15:55:22.593623,0,0,2,0,2,0,66,69,119,60,78,192.24,35,35.00,-35.00,-1049.00
2024-05-17 15:55:22.679666,0,0,2,0,2,0,66,69,119,60,78,192.25,35,12.00,-39.00,-1058.00
2024-05-17 15:55:22.799615,0,0,2,0,1,0,66,69,119,60,78,192.21,35,0.00,-7.00,-999.00
2024-05-17 15:55:22.884339,0,-2,2,0,1,0,66,69,120,60,78,192.21,35,-12.00,-16.00,-969.00
2024-05-17 15:55:23.007685,0,-3,2,0,0,0,66,69,120,60,78,192.27,35,5.00,-11.00,-1023.00
2024-05-17 15:55:23.087735,0,-1,2,0,0,0,66,69,119,60,78,192.26,35,23.00,-3.00,-1002.00
2024-05-17 15:55:23.208810,0,0,2,0,0,0,65,68,119,60,78,192.26,35,11.00,21.00,-1003.00
2024-05-17 15:55:23.291718,0,0,2,0,0,0,65,68,119,60,78,192.24,35,-14.00,-12.00,-988.00
2024-05-17 15:55:23.414229,0,0,2,0,0,0,65,68,119,60,78,192.24,35,-25.00,8.00,-991.00
2024-05-17 15:55:23.495727,0,0,2,0,0,0,65,68,119,60,78,192.23,36,8.00,-4.00,-996.00
2024-05-17 15:55:23.618826,0,0,2,0,0,0,65,68,119,60,78,192.25,36,29.00,2.00,-1001.00
2024-05-17 15:55:23.699890,0,0,2,0,0,0,65,68,119,60,78,192.26,36,0.00,13.00,-1023.00
2024-05-17 15:55:23.822540,0,0,2,0,0,0,65,68,119,60,78,192.24,36,15.00,-19.00,-987.00
2024-05-17 15:55:23.904744,0,0,2,0,0,0,65,68,118,60,78,192.31,36,42.00,-10.00,-1017.00
2024-05-17 15:55:24.029463,0,0,2,0,0,0,65,68,118,60,78,192.27,36,-7.00,27.00,-973.00
2024-05-17 15:55:24.109044,0,0,2,0,0,0,65,68,118,60,78,192.30,36,3.00,17.00,-978.00
2024-05-17 15:55:24.232159,0,0,2,0,0,0,66,69,118,60,78,192.22,36,-3.00,15.00,-990.00
2024-05-17 15:55:24.312762,0,0,2,0,0,0,66,69,117,60,78,192.30,36,-14.00,10.00,-1053.00
2024-05-17 15:55:24.437397,0,0,2,0,0,0,66,69,117,60,78,192.20,36,-16.00,-13.00,-937.00
2024-05-17 15:55:24.516748,0,0,2,0,0,0,66,69,116,60,78,192.26,37,20.00,-10.00,-995.00
2024-05-17 15:55:24.618746,0,0,2,0,0,0,66,69,115,60,78,192.19,37,22.00,13.00,-1014.00
2024-05-17 15:55:24.744246,0,0,2,0,0,0,66,69,115,60,78,192.29,37,2.00,9.00,-1038.00
2024-05-17 15:55:24.771635,0,0,2,0,0,0,66,69,115,50,78,192.24,37,15.00,21.00,-1040.00
2024-05-17 15:55:24.873724,0,0,2,0,0,0,66,69,115,50,78,192.26,37,-11.00,-8.00,-1095.00
2024-05-17 15:55:25.040693,0,0,2,0,0,0,66,69,115,50,78,192.22,37,-13.00,-11.00,-1034.00
2024-05-17 15:55:25.077558,0,0,2,0,0,0,66,69,115,50,78,192.26,37,45.00,2.00,-1052.00
2024-05-17 15:55:25.256006,0,0,3,0,0,0,67,69,115,50,78,192.26,37,-33.00,54.00,-1012.00
2024-05-17 15:55:25.332569,0,0,9,0,0,0,67,69,116,50,78,192.28,37,4.00,15.00,-977.00
2024-05-17 15:55:25.383523,0,0,15,0,0,0,67,69,116,50,78,192.29,37,16.00,-25.00,-1053.00
2024-05-17 15:55:25.485773,0,0,21,0,0,0,67,69,116,60,78,192.25,38,-7.00,4.00,-926.00
2024-05-17 15:55:25.666456,0,0,27,0,0,0,67,69,116,60,78,192.27,38,-24.00,9.00,-1029.00
2024-05-17 15:55:25.689480,0,0,33,0,0,0,67,69,116,60,78,192.24,38,-37.00,18.00,-979.00
2024-05-17 15:55:25.792006,0,0,39,0,0,0,67,69,116,60,78,192.28,38,9.00,-3.00,-988.00
2024-05-17 15:55:25.893514,0,0,45,0,0,0,67,69,117,60,78,192.33,38,29.00,-11.00,-995.00
2024-05-17 15:55:25.997195,1,0,51,0,0,0,67,69,118,60,78,192.20,38,31.00,16.00,-974.00
2024-05-17 15:55:26.098285,1,0,57,0,0,0,67,69,118,60,78,192.23,38,19.00,23.00,-1012.00
2024-05-17 15:55:26.199536,0,0,63,0,0,0,66,69,118,60,78,192.31,38,18.00,-1.00,-1009.00
2024-05-17 15:55:26.384108,0,0,69,0,0,0,66,69,118,60,78,192.25,38,2.00,-35.00,-970.00
2024-05-17 15:55:26.403531,0,0,74,0,0,0,66,69,117,60,78,192.26,38,-4.00,-16.00,-1011.00
2024-05-17 15:55:26.587203,0,0,80,0,0,0,66,69,118,60,78,192.29,39,-13.00,24.00,-978.00
2024-05-17 15:55:26.607985,0,0,86,0,0,0,66,69,119,60,78,192.26,39,8.00,-47.00,-989.00
2024-05-17 15:55:26.712459,0,0,92,0,0,0,66,69,119,60,78,192.28,39,10.00,-14.00,-1024.00
2024-05-17 15:55:26.812310,0,0,98,0,0,0,66,69,120,60,78,192.30,39,-1.00,15.00,-998.00
2024-05-17 15:55:26.914115,0,0,104,0,0,0,66,69,121,60,78,192.27,39,-9.00,-32.00,-988.00
2024-05-17 15:55:27.016761,0,0,110,0,0,0,66,69,121,60,78,192.33,39,9.00,-23.00,-991.00
2024-05-17 15:55:27.118899,0,0,116,0,0,0,66,69,121,60,78,192.33,39,24.00,-18.00,-1023.00
2024-05-17 15:55:27.221273,0,0,122,0,0,0,66,69,122,60,78,192.37,39,8.00,-31.00,-994.00
2024-05-17 15:55:27.323693,0,0,127,0,0,0,66,69,123,60,78,192.28,39,5.00,5.00,-990.00
2024-05-17 15:55:27.424525,0,0,133,0,0,0,66,69,123,60,78,192.30,39,29.00,-33.00,-1003.00
2024-05-17 15:55:27.525857,0,0,139,0,0,0,66,69,123,60,78,192.23,40,-2.00,11.00,-978.00
2024-05-17 15:55:27.630560,0,0,145,0,0,0,66,69,123,60,78,192.36,40,-7.00,-11.00,-985.00
2024-05-17 15:55:27.730218,0,0,151,0,0,0,66,69,123,60,78,192.33,40,37.00,-12.00,-1018.00
2024-05-17 15:55:27.918471,0,0,158,0,0,0,66,69,123,60,78,192.29,40,27.00,-15.00,-1027.00
2024-05-17 15:55:27.934365,0,0,164,0,0,0,66,69,123,60,78,192.28,40,3.00,-3.00,-979.00
2024-05-17 15:55:28.123882,0,0,170,0,0,0,66,69,122,60,78,192.27,40,-4.00,-27.00,-994.00
2024-05-17 15:55:28.137435,0,0,176,0,0,0,66,69,122,60,78,192.31,40,-16.00,-27.00,-1014.00
2024-05-17 15:55:28.328017,0,0,-177,0,0,0,67,69,122,60,78,192.36,40,25.00,-25.00,-991.00
2024-05-17 15:55:28.341418,0,0,-171,0,0,0,67,69,122,60,78,192.29,40,-2.00,1.00,-976.00
2024-05-17 15:55:28.532795,0,0,-165,0,0,0,67,69,123,60,78,192.36,40,-5.00,-11.00,-1039.00
2024-05-17 15:55:28.545574,-1,0,-159,0,0,0,67,69,123,60,78,192.37,41,-28.00,-6.00,-1010.00
2024-05-17 15:55:28.737617,-1,0,-153,0,0,0,67,69,124,60,78,192.38,41,-3.00,-12.00,-1008.00
2024-05-17 15:55:28.751620,0,0,-147,0,0,0,67,69,124,60,78,192.34,41,-21.00,2.00,-1030.00
2024-05-17 15:55:28.851399,0,0,-141,0,0,0,67,69,124,60,77,192.34,41,13.00,-12.00,-1005.00
2024-05-17 15:55:29.044826,0,0,-135,0,0,0,67,69,124,60,77,192.41,41,-31.00,3.00,-959.00
2024-05-17 15:55:29.055329,0,0,-129,0,0,0,67,69,125,60,77,192.36,41,13.00,1.00,-987.00
2024-05-17 15:55:29.106350,0,0,-123,0,0,0,67,69,125,60,77,192.38,41,-8.00,3.00,-973.00
2024-05-17 15:55:29.262455,0,0,-117,0,0,0,67,70,124,60,77,192.34,41,-33.00,39.00,-970.00
2024-05-17 15:55:29.362772,0,0,-111,0,0,0,67,70,124,60,77,192.37,41,-16.00,6.00,-1007.00
2024-05-17 15:55:29.557001,0,0,-105,0,0,0,67,70,124,60,77,192.31,41,-14.00,-21.00,-978.00
2024-05-17 15:55:29.557075,0,0,-99,0,0,0,67,70,123,60,77,192.34,42,-5.00,38.00,-993.00
2024-05-17 15:55:29.617506,0,0,-93,0,0,0,67,70,123,60,77,192.32,42,15.00,-32.00,-1014.00
2024-05-17 15:55:29.761576,0,0,-86,0,0,0,67,70,122,60,77,192.25,42,-8.00,14.00,-1024.00
2024-05-17 15:55:29.820692,0,0,-80,0,0,0,67,70,122,60,77,192.34,42,0.00,-19.00,-1028.00
2024-05-17 15:55:29.966556,0,0,-74,0,0,0,67,70,121,60,77,192.38,42,-28.00,6.00,-1012.00
2024-05-17 15:55:30.025628,0,0,-68,0,0,0,67,70,121,60,77,192.30,42,-23.00,7.00,-1009.00
2024-05-17 15:55:30.126482,0,0,-61,0,0,0,67,70,120,60,77,192.29,42,-5.00,-28.00,-1017.00
2024-05-17 15:55:30.273573,0,0,-49,0,0,0,68,70,120,60,77,192.25,42,21.00,-15.00,-1013.00
2024-05-17 15:55:30.330295,0,0,-43,0,0,0,68,70,119,60,77,192.26,42,23.00,4.00,-973.00
2024-05-17 15:55:30.480054,0,0,-37,0,0,0,68,70,118,60,77,192.31,43,5.00,-8.00,-1015.00
2024-05-17 15:55:30.534960,0,0,-31,0,0,0,68,70,117,60,77,192.29,43,-35.00,3.00,-980.00
2024-05-17 15:55:30.683299,0,0,-24,0,0,0,68,70,117,60,77,192.20,43,-4.00,-11.00,-999.00
2024-05-17 15:55:30.738320,0,0,-18,0,0,0,68,70,117,60,77,192.24,43,1.00,-5.00,-1030.00
2024-05-17 15:55:30.840271,0,0,-13,0,0,0,68,70,117,60,77,192.26,43,15.00,-19.00,-1018.00
2024-05-17 15:55:30.990338,0,0,-9,0,0,0,68,70,117,60,77,192.22,43,-15.00,-16.00,-1019.00
2024-05-17 15:55:31.045649,0,0,-6,0,0,0,68,70,116,60,77,192.32,43,3.00,-8.00,-1010.00
2024-05-17 15:55:31.195157,0,0,-4,0,0,0,68,70,116,60,77,192.21,43,11.00,-9.00,-1010.00
2024-05-17 15:55:31.248264,0,0,-2,0,0,0,67,70,116,60,77,192.23,43,-16.00,14.00,-984.00
2024-05-17 15:55:31.502248,0,0,-1,0,0,0,67,70,116,60,77,192.25,43,-9.00,-37.00,-982.00
2024-05-17 15:55:31.502310,0,0,0,0,0,0,67,70,116,60,77,192.23,44,-6.00,17.00,-1007.00
2024-05-17 15:55:31.557416,0,0,0,0,0,0,67,70,116,60,77,192.20,44,-7.00,-6.00,-970.00
2024-05-17 15:55:31.656387,0,0,1,0,0,0,67,70,116,60,77,192.29,44,28.00,-9.00,-992.00
2024-05-17 15:55:31.809820,0,0,1,0,0,0,67,70,116,60,77,192.18,44,-13.00,-13.00,-996.00
2024-05-17 15:55:31.860343,0,0,1,0,0,0,67,70,116,60,77,192.28,44,-6.00,-23.00,-987.00
2024-05-17 15:55:31.962375,0,0,1,0,0,0,67,70,116,60,77,192.25,44,16.00,-34.00,-1005.00
2024-05-17 15:55:32.064454,0,0,1,0,0,0,67,70,116,60,77,192.27,44,-10.00,8.00,-1040.00
2024-05-17 15:55:32.167596,0,0,0,0,0,0,67,70,116,60,77,192.26,44,-7.00,-12.00,-1019.00
2024-05-17 15:55:32.268418,0,0,1,0,0,0,67,70,116,60,77,192.20,44,-31.00,-5.00,-972.00
2024-05-17 15:55:32.427282,0,0,1,0,0,0,67,70,116,60,77,192.19,44,-30.00,2.00,-1001.00
2024-05-17 15:55:32.472328,0,0,1,0,0,0,67,70,116,60,77,192.24,45,-8.00,-30.00,-1008.00
2024-05-17 15:55:32.574654,0,0,0,0,0,0,67,70,116,60,77,192.26,45,-8.00,0.00,-998.00
2024-05-17 15:55:32.676332,0,0,0,0,0,0,67,70,117,60,77,192.29,45,-2.00,12.00,-1012.00
2024-05-17 15:55:32.837301,0,0,0,0,0,0,67,70,117,60,77,192.26,45,5.00,-12.00,-987.00
2024-05-17 15:55:32.880315,0,0,0,0,0,0,67,70,117,60,77,192.22,45,-14.00,25.00,-1057.00
2024-05-17 15:55:32.931314,0,0,0,0,0,0,67,70,118,60,77,192.27,45,-4.00,-28.00,-982.00
2024-05-17 15:55:33.040475,0,0,0,0,0,0,67,70,119,60,77,192.21,45,-23.00,0.00,-982.00
2024-05-17 15:55:33.135602,0,0,0,0,0,0,67,70,118,60,77,192.34,45,2.00,-9.00,-980.00
2024-05-17 15:55:33.288294,0,0,0,0,0,0,67,70,120,60,77,192.35,45,24.00,-2.00,-1023.00
2024-05-17 15:55:33.390309,0,0,0,0,0,0,67,70,120,60,77,192.28,45,-15.00,17.00,-942.00
2024-05-17 15:55:33.550643,0,0,0,0,0,0,67,70,121,60,77,192.24,46,-9.00,0.00,-984.00
2024-05-17 15:55:33.550783,0,0,0,0,0,0,67,70,120,60,77,192.28,46,-31.00,-9.00,-949.00
2024-05-17 15:55:33.645313,0,0,0,0,0,0,67,70,120,60,77,192.29,46,-13.00,-23.00,-1007.00
2024-05-17 15:55:33.755190,0,0,-1,0,0,0,67,70,120,60,77,192.37,46,-18.00,11.00,-1039.00
2024-05-17 15:55:33.849720,0,0,-7,0,0,0,67,70,120,60,77,192.31,46,19.00,-2.00,-1030.00
2024-05-17 15:55:33.959960,0,0,-13,0,0,0,67,70,120,60,77,192.41,46,-8.00,-15.00,-947.00
2024-05-17 15:55:34.053227,0,0,-19,0,0,0,67,70,120,60,77,192.38,46,-5.00,14.00,-1025.00
2024-05-17 15:55:34.155826,0,0,-26,0,0,0,67,70,120,60,77,192.30,46,4.00,-1.00,-997.00
2024-05-17 15:55:34.267234,0,0,-32,0,0,0,68,70,120,60,77,192.29,46,6.00,6.00,-1028.00
2024-05-17 15:55:34.359107,0,0,-38,0,0,0,68,70,120,60,77,192.27,46,0.00,-7.00,-991.00
2024-05-17 15:55:34.472396,0,0,-44,0,0,0,68,70,120,60,77,192.31,47,12.00,-12.00,-1014.00
2024-05-17 15:55:34.563188,0,0,-50,0,0,0,68,70,121,60,77,192.31,47,13.00,-16.00,-991.00
2024-05-17 15:55:34.676747,0,0,-56,0,0,0,68,70,120,60,77,192.32,47,4.00,-18.00,-1021.00
2024-05-17 15:55:34.767082,0,0,-62,0,0,0,68,70,120,60,77,192.28,47,-44.00,9.00,-978.00
2024-05-17 15:55:34.871815,0,0,-68,0,0,0,68,70,120,60,77,192.32,47,3.00,-18.00,-982.00
2024-05-17 15:55:34.971144,0,0,-73,0,0,0,68,70,120,60,77,192.26,47,6.00,-12.00,-990.00
2024-05-17 15:55:35.086372,0,0,-79,0,0,0,68,70,119,60,77,192.33,47,-12.00,-10.00,-1007.00
2024-05-17 15:55:35.175152,0,0,-85,0,0,0,68,70,120,60,77,192.26,47,-28.00,36.00,-976.00
2024-05-17 15:55:35.291209,-1,0,-91,0,0,0,67,70,120,60,77,192.33,47,-52.00,19.00,-961.00
2024-05-17 15:55:35.380061,-1,0,-97,0,0,0,67,70,119,60,77,192.30,47,-3.00,-14.00,-989.00
2024-05-17 15:55:35.496393,-1,0,-102,0,0,0,67,70,119,60,77,192.24,48,-15.00,-2.00,-1002.00
2024-05-17 15:55:35.586750,-1,0,-108,0,0,0,67,70,118,60,77,192.27,48,-36.00,-9.00,-983.00
2024-05-17 15:55:35.689058,-1,0,-114,0,0,0,67,70,117,60,77,192.25,48,-33.00,-3.00,-1005.00
2024-05-17 15:55:35.788822,-1,0,-120,0,0,0,67,70,117,60,77,192.29,48,-42.00,8.00,-1036.00
2024-05-17 15:55:35.888997,-1,0,-126,0,0,0,67,70,116,60,77,192.26,48,10.00,-27.00,-1017.00
2024-05-17 15:55:36.007904,-1,0,-132,0,0,0,67,70,116,60,77,192.19,48,-26.00,-12.00,-1030.00
2024-05-17 15:55:36.092974,-1,1,-137,0,0,0,67,70,116,60,77,192.25,48,19.00,-23.00,-998.00
2024-05-17 15:55:36.212702,0,1,-143,0,0,0,67,70,116,60,77,192.21,48,-42.00,-3.00,-976.00
2024-05-17 15:55:36.298014,0,1,-149,0,0,0,67,70,116,60,77,192.30,48,-37.00,-1.00,-1002.00
2024-05-17 15:55:36.398898,0,0,-155,0,0,0,67,70,116,60,77,192.23,48,-12.00,-14.00,-1021.00
2024-05-17 15:55:36.519892,0,0,-160,0,0,0,67,70,117,60,77,192.35,49,-37.00,-15.00,-1016.00
2024-05-17 15:55:36.603244,0,0,-166,0,0,0,67,70,117,60,77,192.32,49,-9.00,-25.00,-991.00
2024-05-17 15:55:36.725630,0,1,-172,0,0,0,67,70,117,60,77,192.26,49,8.00,-45.00,-998.00
2024-05-17 15:55:36.807601,0,1,-178,0,0,0,67,70,118,60,77,192.42,49,-20.00,-21.00,-1008.00
2024-05-17 15:55:36.908972,0,1,176,0,0,0,67,70,118,60,77,192.29,49,21.00,-31.00,-1010.00
2024-05-17 15:55:37.031909,0,0,170,0,0,0,67,70,118,60,77,192.25,49,-10.00,-11.00,-1023.00
2024-05-17 15:55:37.113020,0,0,164,0,0,0,67,70,117,60,77,192.26,49,-8.00,-35.00,-1000.00
2024-05-17 15:55:37.237372,0,0,158,0,0,0,67,70,117,60,77,192.30,49,-1.00,-18.00,-1010.00
2024-05-17 15:55:37.316908,0,0,153,0,0,0,67,70,117,60,77,192.27,49,-1.00,-12.00,-975.00
2024-05-17 15:55:37.441476,0,0,147,0,0,0,67,70,118,60,77,192.25,49,7.00,-8.00,-997.00
2024-05-17 15:55:37.470458,0,0,141,0,0,0,67,70,117,60,77,192.25,50,-4.00,-9.00,-1003.00
2024-05-17 15:55:37.572028,0,0,135,0,0,0,67,70,118,60,77,192.33,50,19.00,-25.00,-1007.00
2024-05-17 15:55:37.748662,0,0,129,0,0,0,67,70,118,60,77,192.29,50,-23.00,0.00,-996.00
2024-05-17 15:55:37.777654,0,0,123,0,0,0,67,70,118,60,77,192.32,50,5.00,-29.00,-994.00
2024-05-17 15:55:37.879035,0,0,118,0,0,0,67,70,117,60,77,192.30,50,-35.00,20.00,-1002.00
2024-05-17 15:55:38.056405,0,0,112,0,0,0,67,70,117,60,77,192.31,50,32.00,-7.00,-989.00
2024-05-17 15:55:38.084079,0,0,106,0,0,0,67,70,117,60,77,192.37,50,-1.00,6.00,-998.00
2024-05-17 15:55:38.184523,0,0,100,0,0,0,67,70,117,60,77,192.31,50,4.00,-28.00,-990.00
2024-05-17 15:55:38.363126,0,0,94,0,0,0,67,70,117,60,77,192.32,50,16.00,-7.00,-989.00
2024-05-17 15:55:38.391208,0,0,88,0,0,0,67,70,117,60,77,192.31,50,13.00,-8.00,-997.00
2024-05-17 15:55:38.489959,0,0,82,0,0,0,67,70,117,60,77,192.30,51,43.00,-35.00,-1019.00
2024-05-17 15:55:38.671309,0,0,76,0,0,0,67,70,117,60,77,192.29,51,5.00,6.00,-1008.00
2024-05-17 15:55:38.693932,0,0,70,0,0,0,67,70,117,60,77,192.25,51,-25.00,24.00,-993.00
2024-05-17 15:55:38.875105,0,0,64,0,0,0,67,70,117,60,77,192.32,51,-17.00,-7.00,-974.00
2024-05-17 15:55:38.897851,0,0,58,0,0,0,67,70,117,60,77,192.31,51,-11.00,12.00,-992.00
2024-05-17 15:55:39.079864,0,0,51,0,0,0,67,70,117,60,77,192.25,51,17.00,6.00,-990.00
2024-05-17 15:55:39.102016,0,0,45,0,0,0,67,70,117,60,77,192.29,51,-9.00,-4.00,-999.00
2024-05-17 15:55:39.203850,0,0,39,0,0,0,67,70,117,60,77,192.32,51,-23.00,0.00,-972.00
2024-05-17 15:55:39.387047,0,0,33,0,0,0,68,71,117,60,77,192.31,51,-34.00,-5.00,-981.00
2024-05-17 15:55:39.410475,0,0,27,0,0,0,68,71,118,60,77,192.32,51,15.00,-4.00,-1022.00
2024-05-17 15:55:39.509826,0,0,22,0,0,0,68,71,118,60,77,192.29,52,32.00,-23.00,-969.00
2024-05-17 15:55:39.694844,0,0,17,0,0,0,68,71,118,60,77,192.38,52,23.00,-8.00,-1024.00
2024-05-17 15:55:39.714082,0,0,13,0,0,0,68,71,118,60,77,192.34,52,29.00,-17.00,-983.00
2024-05-17 15:55:39.899044,0,0,10,0,0,0,68,71,118,60,76,192.31,52,-17.00,27.00,-1041.00
2024-05-17 15:55:39.925789,0,0,8,0,0,0,68,71,119,60,76,192.36,52,-5.00,-19.00,-982.00
2024-05-17 15:55:40.021947,0,0,7,0,0,0,68,71,119,60,76,192.33,52,-27.00,11.00,-1032.00
2024-05-17 15:55:40.121983,0,0,5,0,0,0,68,71,119,60,76,192.37,52,-22.00,1.00,-994.00
2024-05-17 15:55:40.308926,0,0,4,0,0,0,68,71,119,60,76,192.33,52,-12.00,0.00,-999.00
2024-05-17 15:55:40.325953,0,0,3,0,0,0,68,70,119,60,76,192.35,52,0.00,-17.00,-995.00
2024-05-17 15:55:40.513592,0,0,3,0,0,0,68,70,118,60,76,192.34,52,-33.00,5.00,-991.00
2024-05-17 15:55:40.529752,0,0,2,0,0,0,68,70,118,60,76,192.35,53,-52.00,17.00,-973.00
2024-05-17 15:55:40.718614,0,0,2,0,0,0,68,70,119,60,76,192.30,53,-15.00,-9.00,-979.00
2024-05-17 15:55:40.733814,0,0,2,0,0,0,68,70,119,60,76,192.34,53,2.00,0.00,-1013.00
2024-05-17 15:55:40.923142,0,0,2,0,0,0,68,70,119,60,76,192.33,53,1.00,5.00,-1001.00
2024-05-17 15:55:40.937916,0,0,2,0,0,0,68,70,119,60,76,192.39,53,-6.00,15.00,-999.00
2024-05-17 15:55:41.128117,0,0,2,0,0,0,68,70,119,60,76,192.35,53,6.00,-17.00,-998.00
2024-05-17 15:55:41.141809,0,0,2,0,0,0,68,70,120,60,76,192.38,53,22.00,-14.00,-1024.00
2024-05-17 15:55:41.332654,0,0,2,0,0,0,68,70,120,60,76,192.37,53,-10.00,17.00,-1015.00
2024-05-17 15:55:41.347217,0,0,2,0,0,0,67,71,120,60,76,192.35,53,-8.00,-5.00,-980.00
2024-05-17 15:55:41.537631,0,0,2,0,0,0,67,71,119,60,76,192.34,53,-28.00,9.00,-990.00
2024-05-17 15:55:41.549770,0,0,2,0,0,0,67,71,119,60,76,192.41,54,4.00,-4.00,-1037.00
2024-05-17 15:55:41.600751,0,0,2,0,0,0,67,71,119,60,76,192.39,54,-31.00,13.00,-1017.00
2024-05-17 15:55:41.746613,0,0,2,0,0,0,67,71,119,60,76,192.32,54,14.00,-10.00,-988.00
2024-05-17 15:55:41.806242,0,0,2,0,0,0,67,71,118,60,76,192.31,54,15.00,9.00,-968.00
2024-05-17 15:55:41.906802,0,0,2,0,0,0,67,71,118,60,76,192.35,54,7.00,-10.00,-978.00
2024-05-17 15:55:42.008857,0,0,2,0,0,0,67,71,117,60,76,192.37,54,-13.00,3.00,-983.00
2024-05-17 15:55:42.152580,0,0,2,0,0,0,67,71,117,60,76,192.38,54,25.00,-7.00,-1006.00
2024-05-17 15:55:42.214538,0,0,2,0,0,0,67,71,117,60,76,192.31,54,-11.00,4.00,-1052.00
2024-05-17 15:55:42.315446,0,0,2,0,0,0,68,70,116,60,76,192.38,54,-20.00,11.00,-1023.00
2024-05-17 15:55:42.417967,0,0,2,0,0,0,68,70,116,60,76,192.34,54,14.00,-6.00,-970.00
2024-05-17 15:55:42.520291,0,0,2,0,0,0,68,70,115,60,76,192.41,55,-26.00,-8.00,-1061.00
2024-05-17 15:55:42.620817,0,0,2,0,0,0,68,70,115,60,76,192.45,55,-35.00,41.00,-1250.00
2024-05-17 15:55:42.768022,0,0,3,0,0,-1,68,70,118,60,76,192.47,55,8.00,-12.00,-1763.00
2024-05-17 15:55:42.825678,0,0,5,0,0,-8,68,70,132,60,76,192.47,55,1.00,148.00,-1283.00
2024-05-17 15:55:42.926985,4,-47,8,0,-2,-13,68,70,277,70,76,192.71,55,79.00,681.00,-1013.00
2024-05-17 15:55:43.028727,3,-165,-5,0,-11,-5,68,70,315,80,76,192.53,55,96.00,640.00,-1013.00
2024-05-17 15:55:43.176056,-10,70,6,0,-8,9,68,70,134,80,76,192.95,55,49.00,162.00,-1631.00
2024-05-17 15:55:43.237756,0,0,13,0,-2,10,68,70,116,70,76,192.32,55,-90.00,74.00,-1414.00
2024-05-17 15:55:43.334715,0,1,13,0,-2,6,68,70,110,60,76,192.31,55,10.00,-22.00,-1334.00
2024-05-17 15:55:43.483098,0,2,10,0,-2,3,68,70,107,50,76,192.23,55,5.00,-39.00,-1250.00
2024-05-17 15:55:43.538712,0,1,2,0,-2,0,68,70,105,50,76,192.27,56,-16.00,-43.00,-1158.00
2024-05-17 15:55:43.641009,0,1,1,0,-2,0,68,70,104,50,76,192.28,56,-11.00,7.00,-1076.00
2024-05-17 15:55:43.742675,0,2,1,0,-2,-1,68,70,104,50,76,192.20,56,7.00,7.00,-1029.00
2024-05-17 15:55:43.892587,0,4,1,0,-1,-1,68,70,105,50,76,192.21,56,13.00,31.00,-1000.00
2024-05-17 15:55:43.946941,0,3,1,0,0,-1,68,70,104,50,76,192.16,56,11.00,2.00,-983.00
2024-05-17 15:55:44.097488,0,1,2,0,0,-1,68,70,105,50,76,192.31,56,-6.00,34.00,-972.00
2024-05-17 15:55:44.152344,0,0,2,0,0,-1,68,70,106,60,76,192.28,56,-3.00,6.00,-1022.00
2024-05-17 15:55:44.252651,1,0,2,0,0,-1,68,70,106,60,76,192.36,56,-11.00,-21.00,-993.00
2024-05-17 15:55:44.404585,0,0,2,0,0,0,68,70,105,60,76,192.34,56,-6.00,0.00,-1002.00
2024-05-17 15:55:44.456971,0,1,2,0,0,0,68,70,105,60,76,192.31,57,14.00,-25.00,-963.00
2024-05-17 15:55:44.609499,0,1,2,0,0,0,68,70,104,60,76,192.31,57,3.00,-6.00,-1001.00
2024-05-17 15:55:44.660723,0,1,2,0,0,0,68,70,105,60,76,192.28,57,0.00,18.00,-1034.00
2024-05-17 15:55:44.765406,0,0,2,0,0,0,68,70,105,60,76,192.25,57,42.00,12.00,-1069.00
2024-05-17 15:55:44.864681,0,0,2,0,0,0,68,70,106,70,75,192.25,57,-7.00,50.00,-994.00
2024-05-17 15:55:45.019081,0,0,2,0,0,0,68,70,106,70,75,192.29,57,22.00,-4.00,-1019.00
2024-05-17 15:55:45.069634,0,0,2,0,0,-1,68,70,107,70,75,192.23,57,-4.00,41.00,-1000.00
2024-05-17 15:55:45.123109,0,0,2,0,0,-1,68,70,107,70,75,192.23,57,-4.00,25.00,-1023.00
2024-05-17 15:55:45.223507,0,0,2,0,0,0,68,70,107,70,75,192.26,57,21.00,4.00,-980.00
2024-05-17 15:55:45.328159,0,0,2,0,0,0,68,70,108,60,75,192.27,57,1.00,-14.00,-949.00
2024-05-17 15:55:45.426597,0,0,2,0,0,0,68,70,108,70,75,192.26,58,-7.00,5.00,-1000.00
2024-05-17 15:55:45.531032,0,0,2,0,0,0,68,70,108,70,75,192.21,58,48.00,-9.00,-1017.00
2024-05-17 15:55:45.630592,0,1,2,0,0,0,68,70,107,70,75,192.19,58,0.00,26.00,-1036.00
2024-05-17 15:55:45.741639,0,0,2,0,0,0,68,70,107,70,75,192.25,58,-14.00,35.00,-964.00
2024-05-17 15:55:45.834646,0,0,2,0,0,0,68,70,107,60,75,192.24,58,-5.00,0.00,-1024.00
2024-05-17 15:55:45.936613,0,1,2,0,0,0,68,70,107,60,75,192.23,58,0.00,-5.00,-1001.00
2024-05-17 15:55:46.043064,0,1,2,0,0,0,68,70,106,60,75,192.26,58,-12.00,-6.00,-999.00
2024-05-17 15:55:46.156591,0,1,2,0,0,0,68,70,106,60,75,192.18,58,0.00,6.00,-1049.00
2024-05-17 15:55:46.242584,0,0,2,0,0,0,68,70,106,60,75,192.26,58,12.00,25.00,-1001.00
2024-05-17 15:55:46.350376,0,0,2,0,0,0,68,71,107,60,75,192.25,58,37.00,-1.00,-1015.00
2024-05-17 15:55:46.446669,0,0,2,0,0,0,68,71,107,60,75,192.25,59,7.00,-28.00,-1009.00
2024-05-17 15:55:46.555237,0,0,2,0,0,0,68,71,108,70,75,192.25,59,14.00,1.00,-1036.00
2024-05-17 15:55:46.652986,0,0,2,0,0,0,68,71,108,70,75,192.25,59,1.00,23.00,-1009.00
2024-05-17 15:55:46.752714,0,0,2,0,0,0,68,71,109,70,75,192.25,59,1.00,10.00,-981.00
2024-05-17 15:55:46.854725,0,0,2,0,0,0,68,71,110,70,74,192.30,59,-13.00,17.00,-984.00
2024-05-17 15:55:46.956586,0,0,2,0,0,0,68,71,110,70,74,192.32,59,-30.00,3.00,-983.00
2024-05-17 15:55:47.067088,0,0,2,0,0,0,68,71,111,70,74,192.28,59,-29.00,-8.00,-1018.00
2024-05-17 15:55:47.160675,0,0,2,0,0,0,68,71,111,70,74,192.33,59,48.00,-18.00,-995.00
2024-05-17 15:55:47.271935,0,0,2,0,0,0,68,71,111,70,74,192.27,59,16.00,-5.00,-1008.00
2024-05-17 15:55:47.364716,0,0,2,0,0,0,68,70,111,70,74,192.36,59,-10.00,0.00,-985.00
2024-05-17 15:55:47.477178,0,0,2,0,0,0,68,70,112,70,74,192.32,60,2.00,-4.00,-1011.00
2024-05-17 15:55:47.568677,0,0,2,0,0,0,68,70,112,70,74,192.40,60,18.00,-18.00,-955.00
2024-05-17 15:55:47.685064,0,0,2,0,0,0,68,70,112,70,74,192.33,60,15.00,-14.00,-1018.00
2024-05-17 15:55:47.772763,0,0,2,0,0,0,68,70,112,70,74,192.23,60,-16.00,-7.00,-1023.00
2024-05-17 15:55:47.886729,0,0,2,0,0,0,68,70,112,70,74,192.29,60,-22.00,41.00,-977.00
2024-05-17 15:55:47.976601,0,0,2,0,0,0,68,70,112,70,74,192.29,60,-47.00,-2.00,-968.00
2024-05-17 15:55:48.091283,0,0,2,0,0,0,68,70,112,70,74,192.25,60,-10.00,-20.00,-979.00
2024-05-17 15:55:48.180588,0,0,2,0,0,0,68,70,113,70,74,192.28,60,32.00,-41.00,-1012.00
2024-05-17 15:55:48.295871,0,0,2,0,0,0,68,70,113,70,74,192.37,60,-2.00,12.00,-1011.00
2024-05-17 15:55:48.384522,0,0,2,0,0,0,68,71,114,70,74,192.31,60,-12.00,20.00,-966.00
2024-05-17 15:55:48.500639,0,0,2,0,0,0,68,71,114,70,74,192.35,61,13.00,11.00,-968.00
2024-05-17 15:55:48.588515,0,0,2,0,0,0,68,71,114,70,74,192.37,61,19.00,-13.00,-977.00
2024-05-17 15:55:48.707354,0,0,2,0,0,0,68,71,114,70,74,192.36,61,-10.00,1.00,-999.00
2024-05-17 15:55:48.793628,0,0,2,0,0,0,68,71,115,70,74,192.32,61,22.00,-17.00,-990.00
2024-05-17 15:55:48.910368,0,0,2,0,0,0,68,71,114,70,74,192.35,61,-48.00,9.00,-998.00
2024-05-17 15:55:48.945469,0,0,2,0,0,0,68,71,114,70,74,192.31,61,13.00,-9.00,-980.00
2024-05-17 15:55:49.115063,0,0,2,0,0,0,68,71,114,70,74,192.33,61,-2.00,9.00,-992.00
2024-05-17 15:55:49.149452,0,0,2,0,0,0,68,71,114,70,74,192.36,61,-40.00,0.00,-952.00
2024-05-17 15:55:49.260974,0,0,2,0,0,0,68,71,114,70,74,192.40,61,-9.00,-30.00,-1293.00
2024-05-17 15:55:49.354233,0,1,2,0,0,-5,68,71,118,70,74,192.48,61,-47.00,47.00,-1866.00
2024-05-17 15:55:49.524799,0,21,2,0,0,-12,68,71,143,80,74,192.54,62,-10.00,-14.00,-1984.00
2024-05-17 15:55:49.557289,0,127,1,0,9,-10,68,71,257,90,74,192.81,62,6.00,783.00,-1253.00
2024-05-17 15:55:49.729350,2,-111,2,0,9,5,68,71,277,100,74,192.57,62,17.00,707.00,-838.00
2024-05-17 15:55:49.761297,0,-9,4,0,3,11,68,71,124,90,74,193.04,62,-29.00,573.00,-1089.00
2024-05-17 15:55:49.934214,0,2,4,0,4,8,68,71,112,80,74,192.23,62,28.00,-81.00,-1432.00
2024-05-17 15:55:49.966784,0,-3,4,-1,4,4,68,71,105,70,74,192.17,62,-82.00,65.00,-1432.00
2024-05-17 15:55:50.138965,-1,-3,3,0,3,1,68,71,101,70,74,192.12,62,-24.00,11.00,-1212.00
2024-05-17 15:55:50.169281,0,-2,2,0,2,0,68,71,97,70,74,192.16,62,9.00,-12.00,-1143.00
2024-05-17 15:55:50.343740,0,-1,2,0,2,0,68,71,95,60,74,192.23,62,5.00,-26.00,-1056.00
2024-05-17 15:55:50.373276,0,-1,2,0,1,-1,68,71,94,60,74,192.03,62,-22.00,4.00,-1033.00
2024-05-17 15:55:50.548806,0,-1,2,0,1,-1,68,71,94,60,74,192.14,63,-43.00,13.00,-1043.00
2024-05-17 15:55:50.581227,0,0,2,0,1,-1,68,71,93,60,74,192.09,63,-26.00,-11.00,-1040.00
2024-05-17 15:55:50.679249,0,0,2,0,1,-1,68,71,93,60,74,192.07,63,-25.00,3.00,-973.00
2024-05-17 15:55:50.855683,-1,-3,2,0,0,0,68,71,92,60,74,192.13,63,-32.00,2.00,-1009.00
2024-05-17 15:55:50.883685,-1,-2,2,0,0,0,68,71,91,60,74,192.14,63,-33.00,-14.00,-982.00
2024-05-17 15:55:50.985304,-1,-1,2,0,0,0,68,71,91,60,74,192.15,63,-20.00,-2.00,-1000.00
2024-05-17 15:55:51.165819,0,0,2,0,0,0,68,71,92,60,74,192.14,63,-29.00,16.00,-974.00
2024-05-17 15:55:51.190384,0,0,2,0,0,0,68,71,92,60,74,192.12,63,-54.00,6.00,-991.00
2024-05-17 15:55:51.291303,0,0,2,0,0,0,68,71,92,60,74,192.11,63,-25.00,-13.00,-994.00
2024-05-17 15:55:51.477247,0,0,2,0,0,0,68,71,92,60,74,192.11,63,20.00,-1.00,-986.00
2024-05-17 15:55:51.514487,0,-1,2,0,0,0,68,71,93,60,74,192.12,64,-43.00,6.00,-1029.00
2024-05-17 15:55:51.599602,0,-1,2,0,0,-1,68,71,93,60,74,192.15,64,-27.00,9.00,-973.00
2024-05-17 15:55:51.699262,0,-1,2,0,0,-1,68,71,94,60,74,192.17,64,-12.00,4.00,-1015.00
2024-05-17 15:55:51.881758,0,-1,2,0,0,-1,68,71,95,60,74,192.19,64,7.00,-9.00,-970.00
2024-05-17 15:55:51.903440,0,-1,2,0,0,-1,68,71,96,60,74,192.17,64,-26.00,-3.00,-993.00
2024-05-17 15:55:52.098006,0,-1,2,0,0,0,68,71,97,60,74,192.16,64,-5.00,-9.00,-968.00
2024-05-17 15:55:52.109739,0,-1,2,0,0,0,68,71,97,60,74,192.15,64,-8.00,16.00,-976.00
2024-05-17 15:55:52.210273,0,-1,2,0,0,0,68,71,97,60,74,192.28,64,34.00,-32.00,-1003.00
2024-05-17 15:55:52.261501,0,-1,2,0,0,0,68,71,98,60,74,192.24,64,9.00,-8.00,-956.00
2024-05-17 15:55:52.414170,0,-1,2,0,0,0,68,71,98,60,74,192.22,64,-2.00,2.00,-988.00
2024-05-17 15:55:52.466467,0,-1,2,0,0,0,68,71,99,60,74,192.24,65,2.00,4.00,-998.00
2024-05-17 15:55:52.600742,0,-1,2,0,0,0,68,71,99,60,74,192.21,65,-30.00,32.00,-983.00
2024-05-17 15:55:52.670440,0,-1,2,0,0,0,68,71,99,60,74,192.26,65,3.00,4.00,-998.00
2024-05-17 15:55:52.778080,0,-1,2,0,0,0,68,71,100,60,74,192.18,65,-21.00,11.00,-986.00
2024-05-17 15:55:52.886333,0,0,2,0,0,0,68,71,100,60,74,192.19,65,6.00,-6.00,-991.00
2024-05-17 15:55:52.986759,0,0,2,0,0,0,68,71,100,60,74,192.17,65,-7.00,14.00,-965.00
2024-05-17 15:55:53.080295,0,0,2,0,0,0,68,71,100,60,74,192.23,65,-4.00,-14.00,-984.00
2024-05-17 15:55:53.181156,0,0,2,0,0,0,68,71,101,60,74,192.24,65,6.00,-11.00,-975.00
2024-05-17 15:55:53.285473,0,0,2,0,0,0,68,71,101,60,74,192.22,65,7.00,-12.00,-981.00
2024-05-17 15:55:53.396823,0,0,2,0,0,0,69,71,101,60,74,192.27,65,-8.00,33.00,-992.00
2024-05-17 15:55:53.488680,0,0,2,0,0,0,69,71,101,60,74,192.18,66,-11.00,-2.00,-991.00
2024-05-17 15:55:53.588912,0,0,2,0,0,0,69,71,102,60,74,192.15,66,-18.00,-16.00,-978.00
