TS,pitch,roll,yaw,vgx,vgy,vgz,templ,temph,tof,h,bat,baro,time,agx,agy,agz
2024-05-17 16:00:38.290642,0,0,-3,0,0,0,78,80,10,0,51,190.95,255,0.00,10.00,-1000.00
2024-05-17 16:00:38.337928,0,0,-3,0,0,0,78,80,10,0,51,190.96,255,0.00,8.00,-1000.00
2024-05-17 16:00:38.494185,0,0,-3,0,0,0,78,80,10,0,51,190.97,255,-1.00,9.00,-998.00
2024-05-17 16:00:38.541919,0,0,-3,0,0,0,78,80,10,0,51,190.93,255,0.00,7.00,-998.00
2024-05-17 16:00:38.698859,0,0,-3,0,0,0,78,80,10,0,51,190.95,255,1.00,8.00,-1003.00
2024-05-17 16:00:38.745932,0,0,-3,0,0,0,78,80,10,0,51,190.94,255,0.00,6.00,-1002.00
2024-05-17 16:00:38.847960,0,0,-3,0,0,0,78,80,10,0,51,190.92,255,-1.00,9.00,-1000.00
2024-05-17 16:00:38.950260,0,0,-3,0,0,0,78,80,10,0,51,190.95,255,0.00,9.00,-1004.00
2024-05-17 16:00:39.053003,0,0,-3,0,0,0,78,80,10,0,51,190.94,255,0.00,8.00,-998.00
2024-05-17 16:00:39.211092,0,0,-3,0,0,0,79,81,10,0,51,190.95,255,0.00,7.00,-1001.00
2024-05-17 16:00:39.255855,0,0,-3,0,0,0,79,81,10,0,51,190.93,255,0.00,7.00,-1000.00
2024-05-17 16:00:39.416248,0,0,-3,0,0,0,79,81,10,0,51,190.97,255,0.00,9.00,-1001.00
2024-05-17 16:00:39.463238,0,0,-3,0,0,0,79,81,10,0,51,190.99,255,1.00,10.00,-1000.00
2024-05-17 16:00:39.561771,0,0,-3,0,0,0,79,81,10,0,51,190.97,255,2.00,9.00,-1000.00
2024-05-17 16:00:39.666223,0,0,-3,0,0,0,79,81,10,0,51,190.91,255,0.00,7.00,-1001.00
2024-05-17 16:00:39.765902,0,0,-3,0,0,0,79,81,10,0,51,190.93,255,0.00,9.00,-999.00
2024-05-17 16:00:39.867661,0,0,-3,0,0,0,79,81,10,0,51,190.94,255,0.00,9.00,-999.00
2024-05-17 16:00:40.030241,0,0,-3,0,0,0,79,81,10,0,51,190.95,255,2.00,8.00,-999.00
2024-05-17 16:00:40.077163,0,0,-3,0,0,0,79,81,10,0,51,190.97,255,0.00,8.00,-999.00
2024-05-17 16:00:40.174876,0,0,-3,0,0,0,79,80,10,0,51,191.01,255,1.00,7.00,-1001.00
2024-05-17 16:00:40.337531,0,0,-3,0,0,0,79,80,10,0,51,190.99,255,0.00,9.00,-1000.00
2024-05-17 16:00:40.378852,0,0,-3,0,0,0,79,80,10,0,51,190.97,255,1.00,9.00,-999.00
2024-05-17 16:00:40.542584,0,0,-3,0,0,0,79,80,10,0,51,190.98,255,0.00,8.00,-1001.00
2024-05-17 16:00:40.583624,0,0,-3,0,0,0,79,80,10,0,51,190.90,255,0.00,9.00,-1000.00
2024-05-17 16:00:40.634256,0,0,-3,0,0,0,79,80,10,0,51,190.96,255,-2.00,8.00,-1000.00
2024-05-17 16:00:40.747051,0,0,-3,0,0,0,79,80,10,0,51,191.00,255,0.00,8.00,-1000.00
2024-05-17 16:00:40.839129,0,0,-3,0,0,0,79,80,10,0,51,190.92,255,0.00,7.00,-996.00
2024-05-17 16:00:40.952041,0,0,-3,0,0,0,79,80,10,0,51,190.95,255,0.00,8.00,-1002.00
2024-05-17 16:00:41.041838,0,0,-3,0,0,0,79,80,10,0,51,191.01,255,0.00,9.00,-1001.00
2024-05-17 16:00:41.145522,0,0,-3,0,0,0,78,81,10,0,51,190.99,255,0.00,10.00,-997.00
2024-05-17 16:00:41.246012,0,0,-3,0,0,0,78,81,10,0,51,190.99,255,0.00,9.00,-1000.00
2024-05-17 16:00:41.347656,0,0,-3,0,0,0,78,81,10,0,51,190.93,255,1.00,10.00,-999.00
2024-05-17 16:00:41.465055,0,0,-3,0,0,0,78,81,10,0,51,190.97,255,0.00,9.00,-1001.00
2024-05-17 16:00:41.551692,0,0,-3,0,0,0,78,81,10,0,51,190.97,256,0.00,9.00,-999.00
2024-05-17 16:00:41.668410,0,0,-3,0,0,0,78,81,10,0,51,190.97,256,3.00,12.00,-1003.00
2024-05-17 16:00:41.755804,0,0,-3,0,0,0,78,81,10,0,51,190.97,256,6.00,16.00,-1001.00
2024-05-17 16:00:41.874381,0,0,-1,0,0,0,78,81,10,0,51,190.97,256,10.00,-9.00,-997.00
2024-05-17 16:00:41.959633,0,0,-1,0,0,0,78,81,10,0,51,190.97,256,-52.00,-48.00,-971.00
2024-05-17 16:00:42.078030,0,0,0,0,0,0,78,81,10,0,51,190.97,256,-11.00,6.00,-997.00
2024-05-17 16:00:42.163636,1,0,0,0,0,-2,78,81,10,0,51,190.97,256,-34.00,-30.00,-1327.00
2024-05-17 16:00:42.282857,0,0,0,0,0,-5,78,81,16,0,51,190.97,256,-18.00,-8.00,-1212.00
2024-05-17 16:00:42.372059,-1,0,0,0,0,-6,78,81,22,0,51,191.26,256,13.00,-21.00,-1096.00
2024-05-17 16:00:42.472541,-1,0,0,0,0,-7,78,81,29,10,51,191.41,256,15.00,-12.00,-1017.00
2024-05-17 16:00:42.571725,0,0,0,0,0,-7,78,81,37,10,51,191.45,257,1.00,10.00,-1018.00
2024-05-17 16:00:42.692481,0,0,0,0,0,-7,78,81,45,20,51,191.57,257,-21.00,29.00,-975.00
2024-05-17 16:00:42.775514,0,0,0,0,0,-6,78,81,52,30,51,191.64,257,5.00,-20.00,-896.00
2024-05-17 16:00:42.897212,-1,0,0,0,0,-5,78,81,59,30,51,191.73,257,-16.00,11.00,-899.00
2024-05-17 16:00:42.979514,-1,0,0,0,0,-4,78,81,62,40,51,191.69,257,0.00,-4.00,-923.00
2024-05-17 16:00:43.101999,-1,0,0,0,0,-3,78,81,68,40,51,191.79,257,-5.00,21.00,-891.00
2024-05-17 16:00:43.185674,0,0,0,0,0,-2,80,82,71,40,51,191.77,257,-25.00,36.00,-904.00
2024-05-17 16:00:43.285723,0,0,0,0,0,-1,80,82,74,50,51,191.91,257,0.00,14.00,-940.00
2024-05-17 16:00:43.409438,0,0,0,0,0,-1,80,82,76,50,51,191.92,257,-44.00,7.00,-922.00
2024-05-17 16:00:43.489973,0,-1,0,0,0,0,80,82,79,50,51,191.85,257,4.00,0.00,-975.00
2024-05-17 16:00:43.613989,0,0,0,0,0,0,80,82,80,50,51,191.95,258,-42.00,2.00,-987.00
2024-05-17 16:00:43.693529,0,0,0,0,0,0,80,82,81,50,51,191.92,258,-45.00,-6.00,-971.00
2024-05-17 16:00:43.819224,0,0,0,0,0,0,80,82,83,50,51,191.93,258,-14.00,14.00,-968.00
2024-05-17 16:00:43.897496,0,0,0,0,0,0,80,82,84,50,51,191.97,258,0.00,0.00,-1001.00
2024-05-17 16:00:44.023612,0,0,0,0,0,0,80,82,85,50,51,192.00,258,0.00,-15.00,-989.00
2024-05-17 16:00:44.101530,0,0,0,0,0,0,80,82,85,60,51,192.05,258,11.00,-14.00,-970.00
2024-05-17 16:00:44.228376,0,0,0,0,0,0,79,81,86,60,51,191.97,258,4.00,-4.00,-1006.00
2024-05-17 16:00:44.305440,0,0,0,0,0,0,79,81,87,60,51,191.98,258,10.00,-23.00,-1021.00
2024-05-17 16:00:44.407471,0,0,0,0,0,0,79,81,87,60,51,191.97,258,-13.00,7.00,-947.00
2024-05-17 16:00:44.535702,0,0,0,0,0,0,79,81,87,60,51,191.99,258,-3.00,-7.00,-1000.00
2024-05-17 16:00:44.612082,0,0,0,0,0,0,79,81,87,60,51,192.06,259,-24.00,28.00,-962.00
2024-05-17 16:00:44.740383,0,0,0,0,0,0,79,81,88,60,51,192.01,259,24.00,-25.00,-979.00
2024-05-17 16:00:44.765178,0,0,0,0,0,0,79,81,87,60,51,192.02,259,0.00,25.00,-982.00
2024-05-17 16:00:44.945230,0,0,0,0,0,0,79,81,86,60,51,192.03,259,21.00,-35.00,-1030.00
2024-05-17 16:00:44.970439,0,0,0,0,0,0,79,81,86,60,51,192.01,259,-16.00,-1.00,-949.00
2024-05-17 16:00:45.070409,0,0,0,0,0,0,79,81,86,60,51,192.01,259,20.00,-30.00,-1009.00
2024-05-17 16:00:45.252627,0,0,0,0,0,0,78,81,85,60,51,192.05,259,1.00,0.00,-1002.00
2024-05-17 16:00:45.274407,0,0,0,0,0,0,78,81,84,60,51,191.98,259,34.00,-8.00,-1003.00
2024-05-17 16:00:45.457167,0,0,0,0,0,0,78,81,84,60,51,192.02,259,-27.00,-23.00,-995.00
2024-05-17 16:00:45.478340,0,0,0,0,0,0,78,81,83,60,51,191.95,259,13.00,-5.00,-985.00
2024-05-17 16:00:45.581069,0,0,0,0,0,0,78,81,82,60,51,191.97,260,-11.00,18.00,-991.00
2024-05-17 16:00:45.765051,0,0,0,0,0,0,78,81,81,60,51,192.01,260,-14.00,-13.00,-1033.00
2024-05-17 16:00:45.784592,0,0,0,0,0,0,78,81,80,60,51,192.00,260,-1.00,1.00,-999.00
2024-05-17 16:00:45.969177,0,0,0,0,0,0,78,81,79,60,51,191.98,260,-43.00,3.00,-1003.00
2024-05-17 16:00:45.989488,0,0,0,0,0,0,78,81,78,60,51,191.92,260,13.00,-17.00,-998.00
2024-05-17 16:00:46.174192,0,0,0,0,0,0,78,81,78,50,51,191.99,260,-12.00,-7.00,-1034.00
2024-05-17 16:00:46.194796,0,0,0,0,0,0,79,81,76,50,51,191.90,260,-13.00,4.00,-976.00
2024-05-17 16:00:46.379068,0,0,0,0,0,0,79,81,75,50,51,191.94,260,13.00,-27.00,-1037.00
2024-05-17 16:00:46.399471,0,0,0,0,0,0,79,81,74,50,51,191.98,260,-6.00,5.00,-996.00
2024-05-17 16:00:46.500751,0,0,0,0,0,0,79,81,73,50,51,191.97,260,18.00,0.00,-981.00
2024-05-17 16:00:46.605167,0,0,0,0,0,0,79,81,72,50,51,191.86,261,17.00,16.00,-1027.00
2024-05-17 16:00:46.704725,0,0,0,0,0,0,79,81,72,50,51,191.90,261,-3.00,12.00,-1034.00
2024-05-17 16:00:46.807634,0,0,0,0,0,0,79,81,72,50,51,191.94,261,9.00,-3.00,-1017.00
2024-05-17 16:00:46.993161,0,0,0,0,0,0,79,81,72,50,51,191.93,261,12.00,0.00,-1066.00
2024-05-17 16:00:47.012145,0,0,-1,0,0,0,79,81,72,50,51,191.89,261,15.00,11.00,-1038.00
2024-05-17 16:00:47.112333,0,0,-1,0,0,0,79,81,73,50,51,191.94,261,6.00,12.00,-989.00
2024-05-17 16:00:47.214569,0,0,-1,0,0,0,78,80,73,50,51,191.94,261,4.00,11.00,-1019.00
2024-05-17 16:00:47.403266,0,0,0,0,0,0,78,80,73,50,51,191.87,261,0.00,3.00,-1019.00
2024-05-17 16:00:47.418271,0,0,0,0,0,0,78,80,74,50,51,191.91,261,3.00,8.00,-1018.00
2024-05-17 16:00:47.607460,0,0,0,0,0,0,78,80,75,50,51,191.84,261,51.00,-6.00,-974.00
2024-05-17 16:00:47.626961,0,0,-1,0,0,0,78,80,75,50,51,191.90,262,-15.00,-3.00,-1009.00
2024-05-17 16:00:47.727359,0,0,0,0,0,0,78,80,76,50,51,191.87,262,3.00,-7.00,-989.00
2024-05-17 16:00:47.826974,0,0,0,0,0,0,78,80,76,50,51,191.94,262,27.00,-7.00,-987.00
2024-05-17 16:00:47.883066,0,0,0,0,0,0,78,80,77,50,51,191.94,262,35.00,10.00,-1001.00
2024-05-17 16:00:47.979297,0,0,-1,0,0,0,78,80,77,50,51,191.91,262,10.00,9.00,-1006.00
2024-05-17 16:00:48.119988,0,0,-1,0,0,0,78,80,78,50,51,191.92,262,7.00,7.00,-985.00
2024-05-17 16:00:48.324354,0,0,-1,0,0,0,77,81,77,50,51,191.94,262,0.00,0.00,-964.00
2024-05-17 16:00:48.324417,0,0,-1,0,0,0,77,81,78,50,51,191.96,262,44.00,-13.00,-989.00
2024-05-17 16:00:48.387292,0,0,-1,0,0,0,77,81,78,50,51,191.90,262,10.00,4.00,-1038.00
2024-05-17 16:00:48.529158,0,0,-1,0,0,0,77,81,77,50,51,191.93,262,2.00,-15.00,-959.00
2024-05-17 16:00:48.595647,0,0,-1,0,0,0,77,81,77,50,51,191.98,263,-2.00,-20.00,-1007.00
2024-05-17 16:00:48.693654,0,0,-1,0,0,0,77,81,76,50,51,191.89,263,0.00,6.00,-967.00
2024-05-17 16:00:48.838642,0,0,-1,0,0,0,77,81,74,50,51,191.93,263,3.00,16.00,-1004.00
2024-05-17 16:00:48.897284,0,0,-1,0,0,0,77,81,73,50,51,191.85,263,23.00,17.00,-1021.00
2024-05-17 16:00:49.041125,0,0,-1,0,0,0,77,81,72,50,51,191.93,263,-10.00,-17.00,-1035.00
2024-05-17 16:00:49.101212,0,0,-1,0,0,0,77,81,71,50,51,191.85,263,1.00,10.00,-1011.00
2024-05-17 16:00:49.245934,0,0,-1,0,0,0,78,81,70,50,51,191.89,263,-23.00,-11.00,-1071.00
2024-05-17 16:00:49.305208,0,0,-1,0,0,0,78,81,69,50,51,191.84,263,11.00,-9.00,-1017.00
2024-05-17 16:00:49.450724,0,0,-1,0,0,0,78,81,68,40,51,191.86,263,24.00,22.00,-1003.00
2024-05-17 16:00:49.509377,0,0,-1,0,0,0,78,81,71,40,51,191.89,263,14.00,7.00,-1028.00
2024-05-17 16:00:49.656211,0,0,-1,0,0,0,78,81,70,40,51,191.83,264,-20.00,43.00,-988.00
2024-05-17 16:00:49.714381,0,0,-1,0,0,0,78,81,70,50,51,191.86,264,-5.00,-3.00,-1056.00
2024-05-17 16:00:49.818579,-1,0,-1,0,0,0,78,81,70,50,51,191.87,264,3.00,0.00,-988.00
2024-05-17 16:00:49.918398,-1,0,-1,0,0,0,78,81,70,50,51,191.91,264,-5.00,-1.00,-1007.00
2024-05-17 16:00:50.065127,-1,0,-1,0,0,0,78,81,70,50,51,191.88,264,24.00,0.00,-940.00
2024-05-17 16:00:50.122396,-1,0,-1,0,0,0,78,81,71,50,51,191.91,264,-28.00,20.00,-985.00
2024-05-17 16:00:50.270273,-1,0,-1,0,0,0,78,80,72,50,51,191.92,264,-18.00,14.00,-990.00
2024-05-17 16:00:50.326321,-1,0,-1,0,0,0,78,80,73,50,51,191.90,264,37.00,6.00,-989.00
2024-05-17 16:00:50.428372,0,0,-1,0,0,0,78,80,74,50,51,191.89,264,-26.00,-18.00,-1006.00
2024-05-17 16:00:50.533484,0,0,-1,0,0,0,78,80,74,50,51,191.98,265,-20.00,9.00,-1020.00
2024-05-17 16:00:50.632263,-1,0,-1,0,0,0,78,80,74,50,51,191.91,265,0.00,0.00,-935.00
2024-05-17 16:00:50.736528,0,0,-1,0,0,0,78,80,75,50,51,191.92,265,25.00,-4.00,-990.00
2024-05-17 16:00:50.836440,0,0,-1,0,0,0,78,80,75,50,51,191.99,265,-3.00,-28.00,-1035.00
2024-05-17 16:00:50.986914,-1,0,0,0,0,0,78,80,76,50,51,191.94,265,18.00,-20.00,-1015.00
2024-05-17 16:00:51.040922,0,0,0,0,0,0,78,80,77,50,51,192.00,265,31.00,13.00,-978.00
2024-05-17 16:00:51.142670,0,0,0,0,0,0,78,80,78,50,51,191.94,265,-1.00,7.00,-1016.00
2024-05-17 16:00:51.244462,0,0,0,0,0,0,77,80,79,50,51,191.88,265,34.00,-32.00,-995.00
2024-05-17 16:00:51.346261,0,0,0,0,0,0,77,80,80,50,51,191.96,265,-12.00,16.00,-995.00
2024-05-17 16:00:51.448317,0,0,0,0,0,0,77,80,80,50,51,192.01,265,23.00,-2.00,-989.00
2024-05-17 16:00:51.550807,0,0,0,0,0,0,77,80,81,60,51,191.98,266,-33.00,39.00,-976.00
2024-05-17 16:00:51.652381,0,0,0,0,0,0,77,80,82,60,51,192.01,266,26.00,-16.00,-1002.00
2024-05-17 16:00:51.754135,0,0,0,0,0,0,77,80,82,60,51,191.97,266,11.00,10.00,-979.00
2024-05-17 16:00:51.856782,0,0,0,0,0,0,77,80,82,60,51,192.02,266,-15.00,9.00,-998.00
2024-05-17 16:00:51.958107,-1,0,0,0,0,0,77,80,83,60,51,192.03,266,-27.00,21.00,-1109.00
2024-05-17 16:00:52.010332,-1,0,0,0,0,-2,77,80,84,60,51,192.03,266,-10.00,-34.00,-1108.00
2024-05-17 16:00:52.113278,-1,0,0,0,0,-2,77,80,87,60,51,191.98,266,7.00,7.00,-1152.00
2024-05-17 16:00:52.213103,0,0,0,0,0,-3,77,80,90,60,51,192.04,266,-7.00,4.00,-1102.00
2024-05-17 16:00:52.317891,0,0,0,0,0,-4,77,80,94,70,51,192.11,266,28.00,-4.00,-1031.00
2024-05-17 16:00:52.417054,0,0,0,0,0,-5,77,80,99,70,51,192.18,266,0.00,-7.00,-1024.00
2024-05-17 16:00:52.519129,0,0,0,0,0,-5,77,80,104,80,51,192.23,267,19.00,-9.00,-977.00
2024-05-17 16:00:52.620908,0,0,0,0,0,-5,77,80,109,80,51,192.20,267,15.00,-6.00,-994.00
2024-05-17 16:00:52.727386,0,0,0,0,0,-5,77,80,113,90,51,192.25,267,0.00,-4.00,-978.00
2024-05-17 16:00:52.826047,0,0,0,0,0,-5,77,80,120,90,51,192.35,267,-27.00,22.00,-1004.00
2024-05-17 16:00:52.932287,0,0,-1,0,0,-5,77,80,125,100,51,192.34,267,9.00,-26.00,-991.00
2024-05-17 16:00:53.029217,0,0,-1,0,0,-5,77,80,130,110,51,192.50,267,-22.00,22.00,-939.00
2024-05-17 16:00:53.145694,-1,0,0,0,0,-4,77,80,134,110,51,192.50,267,-22.00,18.00,-945.00
2024-05-17 16:00:53.233022,-1,-1,0,0,0,-4,77,80,139,110,51,192.54,267,-18.00,19.00,-971.00
2024-05-17 16:00:53.341896,-1,-1,0,0,0,-4,77,80,143,120,51,192.59,267,-4.00,0.00,-1009.00
2024-05-17 16:00:53.438543,-1,0,0,0,0,-3,77,80,148,120,51,192.66,267,12.00,-19.00,-984.00
2024-05-17 16:00:53.539285,0,0,0,0,0,-3,77,80,153,130,51,192.63,268,-6.00,23.00,-939.00
2024-05-17 16:00:53.641060,0,0,0,0,0,-3,77,80,156,130,51,192.70,268,48.00,-19.00,-961.00
2024-05-17 16:00:53.754373,-1,0,0,0,0,-3,77,80,159,130,51,192.72,268,21.00,12.00,-972.00
2024-05-17 16:00:53.845201,-1,0,0,0,0,-2,77,80,162,140,51,192.80,268,10.00,1.00,-970.00
2024-05-17 16:00:53.956195,-1,0,0,0,0,-2,77,80,165,140,51,192.81,268,21.00,-8.00,-980.00
2024-05-17 16:00:54.049448,-1,0,0,0,0,-2,77,80,167,140,51,192.77,268,-6.00,16.00,-918.00
2024-05-17 16:00:54.161143,-1,0,0,0,0,-2,77,80,169,140,51,192.85,268,48.00,-21.00,-995.00
2024-05-17 16:00:54.253032,-1,0,0,0,0,-1,77,80,173,150,51,192.83,268,19.00,6.00,-997.00
2024-05-17 16:00:54.356201,-1,0,-1,0,0,-1,77,80,175,150,51,192.91,268,37.00,-19.00,-951.00
2024-05-17 16:00:54.457025,-1,0,-1,0,0,-1,77,80,176,150,51,192.90,268,5.00,6.00,-996.00
2024-05-17 16:00:54.572741,-1,0,-1,0,0,-1,77,80,177,150,51,192.91,269,-1.00,-26.00,-989.00
2024-05-17 16:00:54.661293,-1,0,-1,0,0,-1,77,80,178,150,51,192.88,269,8.00,-11.00,-970.00
2024-05-17 16:00:54.775684,-1,0,-1,0,0,0,77,80,179,150,51,192.87,269,-42.00,37.00,-929.00
2024-05-17 16:00:54.865054,-2,0,-1,0,0,0,77,80,180,150,51,192.92,269,0.00,14.00,-983.00
2024-05-17 16:00:54.986758,-2,0,-1,0,0,0,77,80,180,150,51,192.86,269,-4.00,-14.00,-1006.00
2024-05-17 16:00:55.069199,-2,0,0,0,0,0,77,80,181,150,51,192.94,269,-5.00,7.00,-969.00
2024-05-17 16:00:55.185643,-1,0,0,0,0,0,77,80,180,150,51,192.92,269,-44.00,25.00,-967.00
2024-05-17 16:00:55.273142,-1,0,0,0,0,0,77,80,180,150,51,192.87,269,-15.00,-2.00,-964.00
2024-05-17 16:00:55.375489,-1,0,0,0,0,0,77,80,179,150,51,192.90,269,-18.00,13.00,-1001.00
2024-05-17 16:00:55.492487,-1,0,0,0,0,0,77,80,180,150,51,192.91,269,9.00,8.00,-955.00
2024-05-17 16:00:55.579121,-1,0,0,0,0,0,77,80,180,150,51,192.87,270,4.00,0.00,-1026.00
2024-05-17 16:00:55.681211,-1,0,0,0,0,0,77,80,179,150,51,192.90,270,15.00,-3.00,-1023.00
2024-05-17 16:00:55.783567,-1,0,0,0,0,0,77,80,180,150,51,192.91,270,35.00,-16.00,-1001.00
2024-05-17 16:00:55.885845,-1,0,0,0,0,0,77,80,180,150,51,192.93,270,-29.00,-3.00,-966.00
2024-05-17 16:00:55.937573,-1,0,0,0,0,0,77,80,181,150,51,192.91,270,-34.00,31.00,-1015.00
2024-05-17 16:00:56.039509,-1,0,0,0,0,0,77,80,181,150,51,192.91,270,-26.00,7.00,-1058.00
2024-05-17 16:00:56.144069,-1,0,0,0,0,0,77,80,182,150,51,192.96,270,17.00,4.00,-948.00
2024-05-17 16:00:56.311775,-1,0,0,0,0,0,77,80,182,150,51,192.93,270,-2.00,-1.00,-995.00
2024-05-17 16:00:56.395200,-1,0,0,1,0,0,77,80,182,160,51,192.95,270,-11.00,-4.00,-1020.00
2024-05-17 16:00:56.446496,-1,0,0,1,0,0,77,80,182,160,51,192.97,270,-4.00,-10.00,-947.00
2024-05-17 16:00:56.576309,-1,0,0,1,0,0,77,80,182,160,51,192.92,271,-7.00,-4.00,-1049.00
2024-05-17 16:00:56.649794,-1,0,0,1,0,0,77,80,183,160,51,192.98,271,13.00,-12.00,-947.00
2024-05-17 16:00:56.823498,-1,0,0,0,0,0,77,80,182,160,51,192.90,271,-9.00,11.00,-982.00
2024-05-17 16:00:56.858757,-1,0,0,0,0,0,77,80,182,150,51,192.92,271,0.00,5.00,-1007.00
2024-05-17 16:00:56.955908,-1,0,0,0,0,1,77,80,181,150,51,192.86,271,26.00,-10.00,-965.00
2024-05-17 16:00:57.131369,-1,0,0,0,0,1,77,80,180,150,51,192.90,271,12.00,-10.00,-958.00
2024-05-17 16:00:57.165845,-1,0,0,1,0,1,77,80,178,150,51,192.85,271,8.00,18.00,-916.00
2024-05-17 16:00:57.262548,-1,0,0,0,0,2,77,80,176,150,51,192.87,271,-27.00,17.00,-991.00
2024-05-17 16:00:57.437899,-1,0,0,0,0,2,77,80,174,150,51,192.82,271,15.00,5.00,-1035.00
2024-05-17 16:00:57.465843,-1,0,0,0,0,2,77,80,172,150,51,192.78,271,32.00,-29.00,-1031.00
2024-05-17 16:00:57.643063,-1,0,0,1,0,2,77,80,170,140,51,192.80,272,35.00,2.00,-971.00
2024-05-17 16:00:57.669765,-1,0,0,1,0,2,77,80,167,140,51,192.78,272,-26.00,-9.00,-957.00
2024-05-17 16:00:57.848042,-1,0,0,1,0,2,77,80,165,140,51,192.76,272,-39.00,5.00,-989.00
2024-05-17 16:00:57.873780,0,0,0,1,0,2,77,80,162,140,51,192.70,272,-26.00,22.00,-992.00
2024-05-17 16:00:58.052500,0,0,0,0,0,2,77,80,160,130,51,192.72,272,-7.00,-7.00,-1029.00
2024-05-17 16:00:58.078410,-1,0,0,0,0,2,77,80,157,130,51,192.75,272,11.00,-26.00,-1022.00
2024-05-17 16:00:58.257579,-1,0,0,0,0,2,77,80,154,130,51,192.66,272,-13.00,28.00,-1005.00
2024-05-17 16:00:58.292936,-1,0,0,0,0,2,77,80,152,130,51,192.64,272,-5.00,-1.00,-995.00
2024-05-17 16:00:58.385232,-1,0,0,0,0,2,77,80,149,120,51,192.66,272,15.00,1.00,-1026.00
2024-05-17 16:00:58.568844,0,0,0,0,0,2,77,80,147,120,51,192.65,272,-11.00,17.00,-970.00
2024-05-17 16:00:58.588671,-1,0,0,0,0,1,77,80,146,120,51,192.52,273,5.00,-15.00,-1064.00
2024-05-17 16:00:58.690323,-1,0,-1,0,0,1,77,80,143,120,51,192.59,273,32.00,6.00,-1013.00
2024-05-17 16:00:58.871410,-1,0,-1,0,0,1,77,80,142,120,51,192.59,273,53.00,-24.00,-1056.00
2024-05-17 16:00:58.893946,-1,0,0,0,0,1,77,80,140,110,51,192.55,273,-4.00,-17.00,-1027.00
2024-05-17 16:00:59.076298,-1,0,0,0,0,1,77,80,138,110,51,192.58,273,39.00,0.00,-987.00
2024-05-17 16:00:59.097747,-1,0,0,0,0,1,77,80,136,110,51,192.53,273,39.00,-6.00,-992.00
2024-05-17 16:00:59.199902,-1,0,0,0,0,1,77,80,135,110,51,192.53,273,16.00,-15.00,-990.00
2024-05-17 16:00:59.383634,-1,0,0,0,0,1,77,80,133,110,51,192.52,273,26.00,-9.00,-1057.00
2024-05-17 16:00:59.403663,0,0,0,0,0,0,77,80,132,110,51,192.46,273,17.00,-14.00,-985.00
2024-05-17 16:00:59.593729,0,0,0,0,0,0,77,80,131,110,51,192.49,273,16.00,-29.00,-1026.00
2024-05-17 16:00:59.607702,-1,0,0,0,0,0,77,80,129,110,51,192.51,274,0.00,4.00,-1078.00
2024-05-17 16:00:59.794554,-1,0,0,0,0,0,77,80,128,110,51,192.46,274,0.00,14.00,-1032.00
2024-05-17 16:00:59.811967,-1,0,0,0,0,0,77,80,127,100,51,192.39,274,-3.00,21.00,-1036.00
2024-05-17 16:01:00.002606,-1,0,0,0,0,0,77,80,127,100,51,192.39,274,-12.00,6.00,-988.00
2024-05-17 16:01:00.002822,-1,0,0,0,0,0,77,80,126,100,51,192.47,274,18.00,0.00,-1007.00
2024-05-17 16:01:00.068067,-1,0,0,0,0,0,77,80,126,100,51,192.40,274,-20.00,-6.00,-1036.00
2024-05-17 16:01:00.170208,-1,0,0,0,0,0,77,80,126,100,51,192.41,274,16.00,-7.00,-1059.00
2024-05-17 16:01:00.305710,-1,0,-1,0,0,0,76,79,127,100,51,192.47,274,4.00,-1.00,-999.00
2024-05-17 16:01:00.373810,-1,0,-1,0,0,0,76,79,127,100,51,192.42,274,-30.00,23.00,-981.00
2024-05-17 16:01:00.513687,-1,0,-1,0,0,0,76,79,127,100,51,192.49,274,21.00,-28.00,-1041.00
2024-05-17 16:01:00.577990,-1,0,-1,0,0,0,76,79,128,100,51,192.50,275,-7.00,-3.00,-1010.00
2024-05-17 16:01:00.679914,-1,0,-1,0,0,0,76,79,128,100,51,192.52,275,-22.00,8.00,-1036.00
2024-05-17 16:01:00.781861,-1,0,-1,0,0,0,76,79,129,100,51,192.53,275,-1.00,6.00,-941.00
2024-05-17 16:01:00.883760,-1,0,-1,0,0,0,76,79,129,100,51,192.56,275,32.00,-15.00,-1040.00
2024-05-17 16:01:01.021981,-1,0,-1,0,0,0,76,79,129,110,51,192.46,275,-49.00,42.00,-1005.00
2024-05-17 16:01:01.087806,-1,0,0,0,0,0,76,79,129,110,51,192.51,275,-37.00,1.00,-991.00
2024-05-17 16:01:01.189566,-1,0,0,0,0,0,76,79,129,110,51,192.48,275,-12.00,13.00,-968.00
2024-05-17 16:01:01.329394,-1,0,0,0,0,0,76,80,129,110,51,192.47,275,-22.00,20.00,-992.00
2024-05-17 16:01:01.393691,-2,0,-1,0,0,0,76,80,129,100,51,192.44,275,-12.00,20.00,-988.00
2024-05-17 16:01:01.533849,-6,0,-1,1,0,0,76,80,129,100,51,192.48,275,-19.00,16.00,-1021.00
2024-05-17 16:01:01.602222,-8,0,-1,2,0,0,76,80,129,100,51,192.47,276,-87.00,52.00,-1057.00
2024-05-17 16:01:01.701461,-8,0,0,3,0,0,76,80,131,100,51,192.50,276,-9.00,22.00,-1005.00
2024-05-17 16:01:01.802014,-8,0,0,4,0,0,76,80,130,100,51,192.44,276,-40.00,26.00,-954.00
2024-05-17 16:01:01.903880,-8,0,0,5,0,0,76,80,128,110,51,192.38,276,-21.00,-20.00,-989.00
2024-05-17 16:01:02.047276,-7,0,0,6,0,0,76,80,127,110,51,192.30,276,-52.00,19.00,-973.00
2024-05-17 16:01:02.107612,-6,0,-1,7,0,0,76,80,128,110,51,192.30,276,-40.00,0.00,-976.00
2024-05-17 16:01:02.251461,-5,0,-1,7,0,0,76,80,129,110,51,192.32,276,-33.00,-18.00,-1009.00
2024-05-17 16:01:02.313028,-3,0,-1,7,0,0,77,79,129,100,51,192.38,276,-84.00,-9.00,-981.00
2024-05-17 16:01:02.458843,0,0,-1,7,0,0,77,79,128,110,51,192.38,276,-52.00,9.00,-970.00
2024-05-17 16:01:02.515660,1,0,-1,6,0,0,77,79,130,100,51,192.34,276,-70.00,11.00,-1006.00
2024-05-17 16:01:02.660245,3,0,-1,5,0,0,77,79,130,110,51,192.40,277,-68.00,0.00,-1085.00
2024-05-17 16:01:02.719990,2,0,-1,4,0,0,77,79,130,100,51,192.47,277,-50.00,25.00,-1018.00
2024-05-17 16:01:02.864975,0,0,-1,3,0,0,77,79,129,100,51,192.46,277,-5.00,0.00,-1013.00
2024-05-17 16:01:02.923704,0,0,-1,3,0,0,77,79,129,100,51,192.39,277,-7.00,-6.00,-978.00
2024-05-17 16:01:03.029178,0,0,-1,3,0,0,77,79,129,100,51,192.42,277,-36.00,22.00,-1002.00
2024-05-17 16:01:03.128633,-1,0,-1,2,0,0,77,79,130,100,51,192.50,277,1.00,-10.00,-991.00
2024-05-17 16:01:03.229703,-1,0,0,3,0,0,77,79,131,100,51,192.43,277,-14.00,-5.00,-1025.00
2024-05-17 16:01:03.331551,0,0,0,2,0,0,77,79,132,110,51,192.42,277,43.00,-14.00,-986.00
2024-05-17 16:01:03.479566,0,0,0,2,0,0,77,79,133,110,51,192.50,277,2.00,4.00,-1019.00
2024-05-17 16:01:03.541207,0,0,0,2,0,0,77,79,133,110,51,192.49,277,20.00,-10.00,-1005.00
2024-05-17 16:01:03.638509,0,0,0,2,0,0,77,79,134,110,51,192.49,278,0.00,39.00,-1019.00
2024-05-17 16:01:03.786635,0,0,0,2,0,0,77,79,134,110,51,192.49,278,4.00,-1.00,-1024.00
2024-05-17 16:01:03.791654,0,0,0,2,0,0,77,79,134,110,51,192.49,278,30.00,-16.00,-992.00
2024-05-17 16:01:03.892433,0,-2,0,1,0,0,77,79,136,110,51,192.54,278,0.00,0.00,-1022.00
2024-05-17 16:01:03.995184,0,-4,0,1,0,0,77,79,136,110,51,192.49,278,-10.00,10.00,-1014.00
2024-05-17 16:01:04.096476,0,-4,0,1,0,0,77,79,136,110,51,192.52,278,40.00,0.00,-987.00
2024-05-17 16:01:04.198459,0,-3,-1,1,-1,0,77,79,135,110,51,192.56,278,19.00,-9.00,-1011.00
2024-05-17 16:01:04.300462,0,1,-1,1,-1,0,77,80,136,110,51,192.50,278,46.00,-11.00,-978.00
2024-05-17 16:01:04.503368,3,1,-1,1,0,0,77,80,136,110,51,192.49,278,26.00,27.00,-1027.00
2024-05-17 16:01:04.504454,1,0,-1,0,0,0,77,80,137,110,51,192.50,278,19.00,0.00,-972.00
2024-05-17 16:01:04.708927,0,0,-1,0,0,0,77,80,135,110,51,192.48,279,2.00,6.00,-1012.00
2024-05-17 16:01:04.709117,0,-1,-1,0,0,0,77,80,134,110,51,192.50,279,6.00,8.00,-973.00
2024-05-17 16:01:04.810754,0,-1,0,0,0,0,77,80,134,110,51,192.50,279,-6.00,27.00,-988.00
2024-05-17 16:01:04.912776,0,-1,0,0,0,0,77,80,134,110,51,192.58,279,-22.00,13.00,-1031.00
2024-05-17 16:01:05.015817,0,0,0,0,0,0,77,80,134,110,51,192.55,279,27.00,-4.00,-994.00
2024-05-17 16:01:05.117874,0,0,0,0,0,0,77,80,134,110,51,192.56,279,29.00,-8.00,-967.00
2024-05-17 16:01:05.220906,0,0,0,0,0,0,77,80,134,110,51,192.56,279,-1.00,-8.00,-979.00
2024-05-17 16:01:05.320559,0,0,0,0,0,0,76,79,134,110,51,192.57,279,-20.00,15.00,-989.00
2024-05-17 16:01:05.425541,0,0,0,0,0,0,76,79,134,110,51,192.56,279,26.00,-9.00,-998.00
2024-05-17 16:01:05.524649,0,0,-1,0,0,0,76,79,134,110,51,192.56,280,4.00,18.00,-1029.00
2024-05-17 16:01:05.639586,0,0,-1,0,0,0,76,79,133,110,51,192.52,280,21.00,10.00,-1035.00
2024-05-17 16:01:05.728857,0,0,-1,0,0,0,76,79,133,110,51,192.57,280,0.00,37.00,-989.00
2024-05-17 16:01:05.836325,0,0,-1,0,0,0,76,79,133,110,51,192.55,280,32.00,-23.00,-997.00
2024-05-17 16:01:05.932531,0,0,-1,0,0,0,76,79,133,110,51,192.59,280,-2.00,40.00,-966.00
2024-05-17 16:01:06.042799,0,0,-1,0,0,0,76,79,133,110,51,192.62,280,12.00,24.00,-1011.00
2024-05-17 16:01:06.136606,0,0,-1,0,0,0,76,79,133,110,51,192.57,280,11.00,9.00,-1050.00
2024-05-17 16:01:06.244403,0,0,-1,0,0,0,76,79,133,110,51,192.61,280,11.00,25.00,-952.00
2024-05-17 16:01:06.340498,0,0,-1,0,0,0,76,79,133,110,51,192.55,280,18.00,0.00,-1095.00
2024-05-17 16:01:06.449122,0,0,-1,0,0,0,76,79,134,110,51,192.58,280,-31.00,29.00,-975.00
2024-05-17 16:01:06.544585,0,0,-1,0,0,0,76,79,134,110,51,192.60,281,62.00,-14.00,-1025.00
2024-05-17 16:01:06.654145,1,0,-1,0,0,0,76,79,134,110,51,192.56,281,29.00,21.00,-991.00
2024-05-17 16:01:06.748554,7,0,-1,0,0,0,76,79,136,110,51,192.61,281,17.00,24.00,-996.00
2024-05-17 16:01:06.859330,8,0,-1,-1,0,0,76,79,138,110,51,192.61,281,57.00,25.00,-1017.00
2024-05-17 16:01:06.952415,8,0,-1,-3,0,0,76,79,138,110,51,192.62,281,33.00,13.00,-984.00
2024-05-17 16:01:07.063329,8,0,-1,-4,0,0,76,79,137,110,51,192.55,281,17.00,29.00,-967.00
2024-05-17 16:01:07.156430,7,-1,-1,-5,0,0,76,79,137,110,51,192.61,281,45.00,14.00,-982.00
2024-05-17 16:01:07.268227,6,0,-1,-6,0,0,76,79,136,110,51,192.58,281,75.00,12.00,-979.00
2024-05-17 16:01:07.360391,5,0,0,-6,0,0,75,79,135,110,51,192.55,281,81.00,-36.00,-1040.00
2024-05-17 16:01:07.472975,4,0,0,-7,0,0,75,79,133,110,51,192.56,281,8.00,6.00,-958.00
2024-05-17 16:01:07.564317,1,0,0,-7,0,0,75,79,133,110,51,192.63,282,48.00,-16.00,-989.00
2024-05-17 16:01:07.615348,0,0,-1,-6,0,0,75,79,131,110,51,192.57,282,80.00,-19.00,-975.00
2024-05-17 16:01:07.780124,-3,0,-1,-5,0,0,75,79,129,110,51,192.55,282,91.00,-5.00,-1027.00
2024-05-17 16:01:07.819398,-3,0,-1,-4,0,0,75,79,128,110,51,192.52,282,67.00,-49.00,-978.00
2024-05-17 16:01:07.921344,-2,0,0,-3,0,0,75,79,127,110,51,192.54,282,63.00,-7.00,-1024.00
2024-05-17 16:01:08.087311,0,0,0,-3,0,0,75,79,125,100,51,192.48,282,44.00,-5.00,-1082.00
2024-05-17 16:01:08.125294,0,0,-1,-3,0,0,75,79,124,100,51,192.51,282,6.00,-12.00,-1015.00
2024-05-17 16:01:08.292184,0,0,-1,-3,0,0,75,79,124,100,51,192.52,282,69.00,-17.00,-1044.00
2024-05-17 16:01:08.329377,0,0,-1,-3,0,0,76,79,124,100,51,192.45,282,40.00,-15.00,-990.00
2024-05-17 16:01:08.496973,0,0,-1,-3,0,0,76,79,124,100,51,192.52,282,47.00,-26.00,-1046.00
2024-05-17 16:01:08.533251,0,0,-1,-2,0,0,76,79,124,100,51,192.53,283,-14.00,21.00,-975.00
2024-05-17 16:01:08.701800,-2,0,-1,-2,0,0,76,79,125,100,51,192.53,283,19.00,-15.00,-1039.00
2024-05-17 16:01:08.738786,-4,0,-1,-2,0,0,76,79,126,100,51,192.56,283,26.00,-26.00,-1034.00
2024-05-17 16:01:08.840160,-3,0,-1,-1,0,0,76,79,126,100,51,192.47,283,53.00,-32.00,-1049.00
2024-05-17 16:01:08.941460,-2,0,-1,0,0,0,76,79,126,100,51,192.51,283,-11.00,10.00,-946.00
2024-05-17 16:01:09.111724,-1,0,-1,0,0,0,76,79,126,100,51,192.53,283,-11.00,4.00,-995.00
2024-05-17 16:01:09.145731,0,0,0,0,0,0,76,79,126,110,51,192.55,283,34.00,-24.00,-1011.00
2024-05-17 16:01:09.316318,0,0,0,0,0,0,76,79,126,110,51,192.60,283,21.00,-3.00,-967.00
2024-05-17 16:01:09.350125,-1,0,0,0,0,0,76,79,127,110,51,192.54,283,9.00,-31.00,-1012.00
2024-05-17 16:01:09.521103,-1,0,0,0,0,0,76,79,127,110,51,192.55,283,12.00,18.00,-935.00
2024-05-17 16:01:09.553720,-1,0,0,0,0,0,76,79,127,110,51,192.56,284,-5.00,14.00,-1018.00
2024-05-17 16:01:09.725944,-1,0,0,0,0,0,76,79,128,110,51,192.61,284,19.00,2.00,-1027.00
2024-05-17 16:01:09.757707,0,0,0,0,0,0,76,79,128,110,51,192.61,284,-13.00,17.00,-984.00
2024-05-17 16:01:09.931673,0,0,0,0,0,0,76,79,128,110,51,192.69,284,2.00,-9.00,-1003.00
2024-05-17 16:01:09.961365,0,0,0,0,0,0,76,79,127,110,51,192.63,284,-21.00,5.00,-1020.00
2024-05-17 16:01:10.135565,0,0,0,0,0,0,76,79,128,110,51,192.60,284,41.00,-13.00,-1010.00
2024-05-17 16:01:10.169974,0,0,0,0,0,0,76,79,128,110,51,192.62,284,-7.00,16.00,-965.00
2024-05-17 16:01:10.269784,-1,0,0,0,0,0,76,79,128,110,51,192.60,284,-3.00,0.00,-954.00
2024-05-17 16:01:10.369288,0,0,0,0,0,0,75,78,128,100,51,192.61,284,4.00,-6.00,-1054.00
2024-05-17 16:01:10.545742,0,0,0,0,0,0,75,78,128,100,51,192.56,284,8.00,-15.00,-1019.00
2024-05-17 16:01:10.574485,0,0,0,0,0,0,75,78,128,100,51,192.57,285,-9.00,9.00,-1054.00
2024-05-17 16:01:10.753397,0,0,0,0,0,0,75,78,128,100,51,192.53,285,27.00,-13.00,-1010.00
2024-05-17 16:01:10.777289,0,0,0,0,0,0,75,78,129,100,51,192.51,285,-17.00,-22.00,-1023.00
2024-05-17 16:01:10.879489,0,0,-1,0,0,0,75,78,129,100,51,192.48,285,1.00,-11.00,-993.00
2024-05-17 16:01:10.982229,-1,0,-1,0,0,0,75,78,129,100,51,192.55,285,19.00,7.00,-985.00
2024-05-17 16:01:11.159358,-1,-1,-1,0,0,0,75,78,130,110,51,192.61,285,1.00,26.00,-980.00
2024-05-17 16:01:11.159417,0,-6,-1,0,0,0,75,78,131,110,51,192.55,285,0.00,-6.00,-1018.00
2024-05-17 16:01:11.237170,0,-8,-1,0,-1,0,75,78,133,110,51,192.60,285,33.00,24.00,-1029.00
2024-05-17 16:01:11.390993,0,-7,-1,0,-2,0,76,79,132,110,51,192.64,285,-19.00,6.00,-1047.00
2024-05-17 16:01:11.493191,0,-5,-1,0,-3,0,76,79,132,110,51,192.61,285,-20.00,34.00,-1030.00
2024-05-17 16:01:11.543171,0,-1,-1,0,-3,0,76,79,130,110,51,192.61,286,-29.00,33.00,-1036.00
2024-05-17 16:01:11.645459,0,0,-1,0,-3,0,76,79,129,110,51,192.58,286,-9.00,36.00,-975.00
2024-05-17 16:01:11.747661,0,0,-1,0,-2,0,76,79,129,110,51,192.61,286,40.00,10.00,-982.00
2024-05-17 16:01:11.876729,0,-1,-1,0,-2,0,76,79,128,110,51,192.60,286,2.00,25.00,-952.00
2024-05-17 16:01:11.953381,0,-2,-1,0,-1,0,76,79,129,110,51,192.56,286,-15.00,45.00,-1010.00
2024-05-17 16:01:12.054360,0,-2,-1,0,-2,0,76,79,128,100,51,192.62,286,24.00,14.00,-1053.00
2024-05-17 16:01:12.161703,0,-1,-1,0,-2,0,76,79,128,100,51,192.60,286,-3.00,39.00,-966.00
2024-05-17 16:01:12.259139,0,-1,0,0,-2,0,76,79,126,100,51,192.61,286,-7.00,43.00,-1006.00
2024-05-17 16:01:12.359174,0,-1,0,0,-2,0,76,79,126,100,51,192.57,286,-42.00,36.00,-1009.00
2024-05-17 16:01:12.491264,0,-1,0,0,-2,0,76,79,126,100,51,192.56,286,3.00,17.00,-979.00
2024-05-17 16:01:12.563118,0,0,0,0,-2,0,76,79,126,100,51,192.55,287,-17.00,24.00,-974.00
2024-05-17 16:01:12.696209,0,0,0,0,-2,0,76,79,127,100,51,192.56,287,25.00,32.00,-984.00
2024-05-17 16:01:12.767246,0,0,0,0,-2,0,76,79,128,100,50,192.59,287,6.00,18.00,-992.00
2024-05-17 16:01:12.904584,0,0,0,0,-2,0,76,79,128,100,50,192.56,287,6.00,22.00,-1052.00
2024-05-17 16:01:12.977012,0,2,0,0,-2,0,76,79,130,100,50,192.54,287,44.00,5.00,-1008.00
2024-05-17 16:01:13.074872,0,4,0,0,-1,0,76,79,131,110,50,192.59,287,10.00,6.00,-993.00
2024-05-17 16:01:13.175344,0,2,0,0,0,0,76,79,131,110,50,192.53,287,-38.00,5.00,-1011.00
2024-05-17 16:01:13.310761,0,1,0,0,0,0,76,79,130,110,50,192.56,287,-12.00,-4.00,-1000.00
2024-05-17 16:01:13.379310,0,0,0,0,0,0,76,79,131,110,50,192.60,287,27.00,-2.00,-978.00
2024-05-17 16:01:13.514703,0,0,0,0,0,0,76,79,131,110,50,192.55,287,-1.00,3.00,-976.00
2024-05-17 16:01:13.583527,0,0,0,0,0,0,76,79,132,110,50,192.57,288,-13.00,15.00,-1004.00
2024-05-17 16:01:13.722585,0,1,0,0,0,0,76,79,133,110,50,192.66,288,28.00,-15.00,-1003.00
2024-05-17 16:01:13.788657,0,1,-1,0,0,0,76,79,133,110,50,192.67,288,49.00,-16.00,-996.00
2024-05-17 16:01:13.889589,0,1,-1,0,0,0,76,79,134,110,50,192.66,288,19.00,0.00,-966.00
2024-05-17 16:01:13.991095,0,1,-1,0,0,0,76,79,134,110,50,192.63,288,9.00,-11.00,-1004.00
2024-05-17 16:01:14.129292,0,1,-1,0,0,0,76,79,135,110,50,192.58,288,-3.00,-37.00,-1015.00
2024-05-17 16:01:14.195449,0,0,-1,0,0,0,76,79,135,110,50,192.64,288,32.00,-2.00,-954.00
2024-05-17 16:01:14.298596,0,0,-1,0,0,0,76,79,136,110,50,192.60,288,-15.00,2.00,-1030.00
2024-05-17 16:01:14.399937,0,0,-1,0,0,0,75,78,136,110,50,192.64,288,-12.00,-28.00,-979.00
2024-05-17 16:01:14.501216,0,0,-1,0,0,0,75,78,136,110,50,192.58,288,35.00,-6.00,-994.00
2024-05-17 16:01:14.641764,0,0,-1,0,0,0,75,78,137,110,50,192.62,289,12.00,-16.00,-1007.00
2024-05-17 16:01:14.705181,0,0,-1,0,0,0,75,78,137,110,50,192.71,289,25.00,1.00,-947.00
2024-05-17 16:01:14.846733,0,0,0,0,0,0,75,78,138,110,50,192.66,289,17.00,1.00,-999.00
2024-05-17 16:01:14.909225,0,0,0,0,0,0,75,78,139,110,50,192.66,289,12.00,0.00,-1042.00
2024-05-17 16:01:15.050601,0,0,0,0,0,0,75,78,139,110,50,192.64,289,9.00,15.00,-1030.00
2024-05-17 16:01:15.113162,0,0,0,0,0,0,75,78,139,110,50,192.67,289,26.00,-3.00,-1013.00
2024-05-17 16:01:15.214948,0,0,0,0,0,0,75,78,139,110,50,192.68,289,22.00,-22.00,-1012.00
2024-05-17 16:01:15.358420,0,0,0,0,0,0,75,78,139,110,50,192.77,289,17.00,14.00,-1014.00
2024-05-17 16:01:15.419120,0,2,0,0,0,0,76,79,139,110,50,192.66,289,31.00,-16.00,-978.00
2024-05-17 16:01:15.563212,0,7,0,0,1,0,76,79,140,110,50,192.68,289,-34.00,45.00,-959.00
2024-05-17 16:01:15.571851,0,6,0,0,2,0,76,79,138,110,50,192.59,290,-13.00,7.00,-1018.00
2024-05-17 16:01:15.769671,0,3,-1,0,3,0,76,79,138,110,50,192.71,290,26.00,-23.00,-975.00
2024-05-17 16:01:15.785817,0,1,-1,0,4,0,76,79,136,110,50,192.71,290,21.00,-34.00,-937.00
2024-05-17 16:01:15.881994,0,-1,0,0,3,0,76,79,136,110,50,192.69,290,-40.00,-10.00,-1009.00
2024-05-17 16:01:15.980133,0,-1,0,0,3,0,76,79,135,110,50,192.66,290,-7.00,-8.00,-1002.00
2024-05-17 16:01:16.177097,0,0,0,0,2,0,76,79,135,110,50,192.71,290,37.00,-21.00,-966.00
2024-05-17 16:01:16.184605,0,0,0,0,2,0,76,79,135,110,50,192.70,290,-10.00,-39.00,-1026.00
2024-05-17 16:01:16.383344,0,0,0,0,2,0,76,79,134,110,50,192.70,290,13.00,-25.00,-1048.00
2024-05-17 16:01:16.388209,0,0,-1,0,2,0,75,78,134,110,50,192.70,290,-28.00,5.00,-994.00
2024-05-17 16:01:16.489947,0,0,-1,0,2,0,75,78,134,110,50,192.68,290,-29.00,-17.00,-968.00
2024-05-17 16:01:16.689688,0,0,-1,0,2,0,75,78,134,110,50,192.71,291,-5.00,-44.00,-1032.00
2024-05-17 16:01:16.695801,0,0,-1,0,2,0,75,78,135,110,50,192.64,291,-45.00,8.00,-1032.00
2024-05-17 16:01:16.795968,0,0,-1,0,2,0,75,78,135,110,50,192.69,291,26.00,-12.00,-1002.00
2024-05-17 16:01:16.997492,0,0,-1,0,2,0,75,78,136,110,50,192.74,291,9.00,-12.00,-923.00
2024-05-17 16:01:17.001697,0,-2,-1,0,2,0,75,78,138,110,50,192.63,291,-24.00,17.00,-1034.00
2024-05-17 16:01:17.202531,0,-4,-1,0,1,0,75,78,138,110,50,192.69,291,9.00,-7.00,-957.00
2024-05-17 16:01:17.204838,0,-2,-1,0,0,0,75,78,137,110,50,192.70,291,-30.00,6.00,-1039.00
2024-05-17 16:01:17.307005,-2,-1,-1,0,0,0,75,78,137,110,50,192.67,291,23.00,-19.00,-1018.00
2024-05-17 16:01:17.508929,-4,0,0,0,0,0,76,79,138,110,50,192.66,291,13.00,0.00,-939.00
2024-05-17 16:01:17.510952,-4,0,0,0,0,0,76,79,138,110,50,192.67,291,-34.00,24.00,-984.00
2024-05-17 16:01:17.613417,-2,0,0,1,0,0,76,79,139,110,50,192.74,292,-44.00,11.00,-1014.00
2024-05-17 16:01:17.815584,3,-1,-1,1,0,0,76,79,140,110,50,192.72,292,-49.00,32.00,-1017.00
2024-05-17 16:01:17.817116,1,-1,-1,0,0,0,76,79,138,110,49,192.69,292,2.00,-19.00,-985.00
2024-05-17 16:01:17.922245,0,-1,-1,0,0,0,76,79,136,110,49,192.66,292,1.00,16.00,-978.00
2024-05-17 16:01:18.025565,0,0,-1,0,0,0,76,79,136,110,49,192.68,292,-17.00,25.00,-989.00
2024-05-17 16:01:18.123012,-1,0,-1,0,0,0,76,79,136,110,49,192.69,292,-3.00,-7.00,-979.00
2024-05-17 16:01:18.224937,-1,0,-1,0,0,0,76,79,136,110,49,192.66,292,20.00,13.00,-1024.00
2024-05-17 16:01:18.327384,-1,0,-1,0,0,0,76,79,135,110,49,192.66,292,-18.00,13.00,-1056.00
2024-05-17 16:01:18.429832,-1,0,-1,0,0,0,76,78,134,110,49,192.69,292,-45.00,5.00,-976.00
2024-05-17 16:01:18.532111,0,0,-1,0,0,0,76,78,133,110,49,192.68,292,19.00,-11.00,-1023.00
2024-05-17 16:01:18.634729,0,0,-1,0,0,0,76,78,134,110,49,192.66,293,26.00,3.00,-1030.00
2024-05-17 16:01:18.735260,0,0,-1,0,0,0,76,78,133,110,49,192.65,293,5.00,0.00,-995.00
2024-05-17 16:01:18.837188,0,0,0,0,0,0,76,78,133,110,49,192.60,293,-36.00,13.00,-975.00
2024-05-17 16:01:18.965940,0,0,0,0,0,0,76,78,133,110,49,192.61,293,1.00,5.00,-1030.00
2024-05-17 16:01:19.042596,0,0,0,0,0,0,76,78,133,110,49,192.66,293,2.00,3.00,-1021.00
2024-05-17 16:01:19.144543,0,0,0,0,0,0,76,78,133,110,49,192.68,293,2.00,-4.00,-1016.00
2024-05-17 16:01:19.195381,0,0,0,0,0,0,76,78,134,110,49,192.67,293,2.00,9.00,-990.00
2024-05-17 16:01:19.295822,0,0,0,0,0,0,76,78,133,110,49,192.66,293,24.00,-6.00,-1028.00
2024-05-17 16:01:19.453781,0,0,0,0,0,0,76,78,134,110,49,192.67,293,8.00,8.00,-1005.00
2024-05-17 16:01:19.551286,0,0,0,0,0,0,76,78,134,110,49,192.65,294,19.00,-5.00,-999.00
2024-05-17 16:01:19.658455,0,0,0,0,0,0,76,78,134,110,49,192.70,294,51.00,-50.00,-975.00
2024-05-17 16:01:19.704777,0,0,6,0,0,0,76,78,134,110,49,192.63,294,-5.00,-13.00,-982.00
2024-05-17 16:01:19.863230,0,0,12,0,0,0,76,78,134,110,49,192.66,294,-2.00,3.00,-958.00
2024-05-17 16:01:19.909387,0,0,18,0,0,0,76,78,134,110,49,192.61,294,14.00,10.00,-969.00
2024-05-17 16:01:20.010069,0,0,24,0,0,0,76,78,133,110,49,192.63,294,-4.00,1.00,-1014.00
2024-05-17 16:01:20.111704,0,0,30,0,0,0,76,78,133,110,49,192.67,294,-17.00,7.00,-986.00
2024-05-17 16:01:20.273276,0,0,36,0,0,0,76,78,133,110,49,192.64,294,24.00,-14.00,-1056.00
2024-05-17 16:01:20.315722,0,0,42,0,0,0,76,78,135,110,49,192.68,294,-33.00,11.00,-1052.00
2024-05-17 16:01:20.477581,0,0,48,0,0,0,75,78,135,110,49,192.66,294,9.00,-18.00,-1031.00
2024-05-17 16:01:20.519790,0,0,53,0,0,0,75,78,135,110,49,192.62,295,16.00,1.00,-1162.00
2024-05-17 16:01:20.622845,0,0,59,0,0,0,75,78,136,110,49,192.66,295,-13.00,23.00,-976.00
2024-05-17 16:01:20.723715,0,0,65,0,0,0,75,78,136,110,49,192.53,295,7.00,-15.00,-975.00
2024-05-17 16:01:20.887164,0,0,71,0,0,0,75,78,135,110,49,192.62,295,-8.00,-18.00,-957.00
2024-05-17 16:01:20.928638,0,0,77,0,0,0,75,78,135,110,49,192.67,295,4.00,-41.00,-936.00
2024-05-17 16:01:21.091900,0,0,82,0,0,0,75,78,135,110,49,192.58,295,-32.00,13.00,-965.00
2024-05-17 16:01:21.131730,-1,0,88,0,0,0,75,78,135,110,49,192.61,295,1.00,-11.00,-1018.00
2024-05-17 16:01:21.296767,0,0,94,0,0,0,75,78,134,110,49,192.61,295,-7.00,-29.00,-1037.00
2024-05-17 16:01:21.335549,0,0,100,0,0,0,75,78,133,110,49,192.66,295,-16.00,2.00,-1008.00
2024-05-17 16:01:21.501563,0,0,106,0,0,0,76,79,133,110,49,192.64,295,-14.00,-20.00,-1035.00
2024-05-17 16:01:21.539635,0,0,112,0,0,0,76,79,133,110,49,192.63,296,-40.00,6.00,-1030.00
2024-05-17 16:01:21.706767,0,0,118,0,0,0,76,79,133,110,49,192.64,296,0.00,20.00,-966.00
2024-05-17 16:01:21.747200,0,0,124,0,0,0,76,79,133,110,49,192.56,296,-9.00,-3.00,-1014.00
2024-05-17 16:01:21.849520,0,0,130,0,0,0,76,79,133,110,48,192.64,296,-12.00,-17.00,-1035.00
2024-05-17 16:01:21.957515,0,0,136,0,0,0,76,79,134,110,48,192.66,296,14.00,-17.00,-982.00
2024-05-17 16:01:22.049787,0,0,142,0,0,0,76,79,134,110,48,192.62,296,-24.00,7.00,-979.00
2024-05-17 16:01:22.218531,0,0,148,0,0,0,76,79,136,110,48,192.64,296,-12.00,-26.00,-981.00
2024-05-17 16:01:22.254976,0,0,154,0,0,0,76,79,136,110,48,192.67,296,-5.00,16.00,-940.00
2024-05-17 16:01:22.425152,0,0,160,0,0,0,76,79,136,110,48,192.65,296,-13.00,-3.00,-969.00
2024-05-17 16:01:22.458631,0,0,166,0,0,0,75,79,137,110,48,192.72,296,-26.00,-1.00,-992.00
2024-05-17 16:01:22.561402,0,0,172,0,0,0,75,79,136,110,48,192.65,297,-13.00,-40.00,-994.00
2024-05-17 16:01:22.663103,0,0,179,0,0,0,75,79,137,110,48,192.65,297,1.00,21.00,-999.00
2024-05-17 16:01:22.851620,0,0,-174,0,0,0,75,79,136,110,48,192.72,297,-29.00,-13.00,-1023.00
2024-05-17 16:01:22.866546,0,0,-168,0,0,0,75,79,136,110,48,192.64,297,-5.00,8.00,-987.00
2024-05-17 16:01:22.970934,0,0,-162,0,0,0,75,79,136,110,48,192.71,297,4.00,-1.00,-993.00
2024-05-17 16:01:23.071326,0,0,-155,0,0,0,75,79,136,110,48,192.65,297,41.00,1.00,-997.00
2024-05-17 16:01:23.172580,0,0,-149,0,0,0,75,79,135,110,48,192.68,297,6.00,1.00,-1011.00
2024-05-17 16:01:23.348521,0,0,-143,0,0,0,75,79,135,110,48,192.65,297,-13.00,7.00,-982.00
2024-05-17 16:01:23.348558,0,0,-137,0,0,0,75,79,134,110,48,192.71,297,-44.00,7.00,-1028.00
2024-05-17 16:01:23.549593,0,0,-132,0,0,0,75,79,134,110,48,192.63,297,-23.00,-20.00,-997.00
2024-05-17 16:01:23.549625,0,0,-126,0,0,0,75,79,133,110,48,192.69,298,-29.00,-5.00,-1003.00
2024-05-17 16:01:23.639456,0,0,-120,0,0,0,75,79,132,110,48,192.65,298,-12.00,39.00,-1029.00
2024-05-17 16:01:23.733523,0,0,-114,0,0,0,75,79,132,110,48,192.69,298,0.00,-9.00,-1013.00
2024-05-17 16:01:23.856746,0,0,-108,0,0,0,75,79,131,110,48,192.57,298,-29.00,11.00,-979.00
2024-05-17 16:01:23.937808,0,0,-103,0,0,0,75,79,130,110,48,192.57,298,10.00,-14.00,-1031.00
2024-05-17 16:01:24.061528,0,0,-97,0,0,0,75,79,130,110,48,192.58,298,15.00,-3.00,-987.00
2024-05-17 16:01:24.142139,0,0,-91,0,0,0,75,79,129,100,48,192.61,298,-25.00,4.00,-1017.00
2024-05-17 16:01:24.272546,0,0,-85,0,0,0,75,79,129,100,48,192.57,298,-54.00,16.00,-991.00
2024-05-17 16:01:24.345469,0,0,-79,0,0,0,75,79,128,100,48,192.65,298,-30.00,-3.00,-1055.00
2024-05-17 16:01:24.471125,0,0,-73,0,0,0,75,79,128,100,48,192.58,298,-37.00,15.00,-980.00
2024-05-17 16:01:24.549455,0,0,-67,0,0,0,75,79,129,100,48,192.59,299,-13.00,-3.00,-1019.00
2024-05-17 16:01:24.675867,0,0,-61,0,0,0,75,79,129,100,48,192.56,299,-3.00,-5.00,-1052.00
2024-05-17 16:01:24.753468,0,0,-55,0,0,0,75,79,129,100,48,192.59,299,-10.00,6.00,-976.00
2024-05-17 16:01:24.880719,0,0,-49,0,0,0,75,79,130,100,48,192.63,299,-11.00,26.00,-959.00
2024-05-17 16:01:24.957468,0,0,-43,0,0,0,75,79,130,110,48,192.62,299,12.00,-10.00,-979.00
2024-05-17 16:01:25.062790,0,0,-37,0,0,0,75,79,130,110,48,192.57,299,1.00,5.00,-1024.00
2024-05-17 16:01:25.164037,0,0,-32,0,0,0,75,79,130,110,48,192.58,299,14.00,0.00,-997.00
2024-05-17 16:01:25.263409,0,0,-25,0,0,0,75,79,129,110,48,192.55,299,-4.00,21.00,-1002.00
2024-05-17 16:01:25.392891,0,0,-20,0,0,0,75,79,129,110,48,192.58,299,-35.00,-2.00,-958.00
2024-05-17 16:01:25.469594,0,0,-15,0,0,0,75,78,129,110,48,192.58,299,-22.00,13.00,-950.00
2024-05-17 16:01:25.569437,0,0,-12,0,0,0,75,78,129,100,48,192.57,300,-11.00,-3.00,-1032.00
2024-05-17 16:01:25.699908,0,0,-9,0,0,0,75,78,129,100,48,192.65,300,20.00,-11.00,-1011.00
2024-05-17 16:01:25.773386,0,0,-7,0,0,0,75,78,129,100,48,192.57,300,15.00,-1.00,-968.00
2024-05-17 16:01:25.904724,0,0,-6,0,0,0,75,78,129,100,48,192.59,300,-17.00,0.00,-1022.00
2024-05-17 16:01:25.977465,0,0,-4,0,0,0,75,78,129,100,48,192.57,300,0.00,7.00,-1000.00
2024-05-17 16:01:26.109451,0,0,-4,0,0,0,75,78,130,110,48,192.67,300,-16.00,12.00,-1100.00
2024-05-17 16:01:26.181394,0,0,-3,0,0,0,75,78,130,110,48,192.61,300,-31.00,-14.00,-981.00
2024-05-17 16:01:26.283714,0,0,-2,0,0,0,75,78,130,110,48,192.59,300,-17.00,1.00,-991.00
2024-05-17 16:01:26.416874,0,0,-2,0,0,0,75,78,130,110,48,192.60,300,-1.00,14.00,-1048.00
2024-05-17 16:01:26.487586,0,0,-2,0,0,0,75,78,130,110,48,192.51,300,5.00,-5.00,-1023.00
2024-05-17 16:01:26.621553,0,0,-2,0,0,0,75,78,131,110,48,192.59,301,14.00,-19.00,-1005.00
2024-05-17 16:01:26.691606,0,0,-2,0,0,0,75,78,130,110,48,192.59,301,-26.00,-6.00,-1000.00
2024-05-17 16:01:26.826774,0,0,-2,0,0,0,75,78,130,110,47,192.58,301,-30.00,6.00,-1029.00
2024-05-17 16:01:26.895483,0,0,-2,0,0,0,75,78,129,110,47,192.60,301,-13.00,6.00,-1053.00
2024-05-17 16:01:26.997488,0,0,-2,0,0,0,75,78,129,110,47,192.57,301,-6.00,9.00,-994.00
2024-05-17 16:01:27.102441,0,0,-2,0,0,0,75,78,129,110,47,192.60,301,8.00,0.00,-1019.00
2024-05-17 16:01:27.201658,0,0,-2,0,0,0,75,78,128,100,47,192.52,301,-9.00,16.00,-976.00
2024-05-17 16:01:27.252481,0,0,-2,0,0,0,75,78,128,100,47,192.54,301,51.00,-7.00,-1075.00
2024-05-17 16:01:27.441052,0,0,-2,0,0,0,75,78,128,100,47,192.57,301,-9.00,5.00,-997.00
2024-05-17 16:01:27.508951,0,0,-2,0,0,0,75,78,128,100,47,192.58,301,-9.00,5.00,-1027.00
2024-05-17 16:01:27.645536,0,0,-2,0,0,0,75,78,128,100,47,192.52,302,-49.00,11.00,-1028.00
2024-05-17 16:01:27.712242,0,0,-2,0,0,0,75,78,128,100,47,192.59,302,-6.00,23.00,-960.00
2024-05-17 16:01:27.762746,0,0,-2,0,0,0,75,78,128,100,47,192.59,302,-26.00,21.00,-992.00
2024-05-17 16:01:27.952878,0,0,-2,0,0,0,75,78,128,100,47,192.59,302,37.00,-6.00,-1029.00
2024-05-17 16:01:27.966336,0,0,-2,0,0,0,75,78,128,100,47,192.51,302,-22.00,10.00,-1031.00
2024-05-17 16:01:28.157741,0,0,-2,0,0,0,75,78,129,100,47,192.60,302,-25.00,46.00,-1053.00
2024-05-17 16:01:28.171690,0,0,-2,0,0,0,75,78,129,100,47,192.62,302,-19.00,13.00,-1001.00
2024-05-17 16:01:28.274222,0,0,-2,0,0,0,75,78,129,100,47,192.57,302,5.00,6.00,-1038.00
2024-05-17 16:01:28.375426,0,0,-3,0,0,0,75,78,130,100,47,192.56,302,-21.00,-19.00,-1021.00
2024-05-17 16:01:28.567104,0,0,-8,0,0,0,75,78,130,110,47,192.61,302,1.00,20.00,-986.00
2024-05-17 16:01:28.581266,0,0,-14,0,0,0,75,78,130,110,47,192.60,303,-33.00,37.00,-975.00
2024-05-17 16:01:28.681375,0,0,-20,0,0,0,75,78,131,110,47,192.53,303,-12.00,1.00,-1013.00
2024-05-17 16:01:28.874350,0,0,-26,0,0,0,75,78,131,110,47,192.49,303,9.00,5.00,-980.00
2024-05-17 16:01:28.885380,0,0,-32,0,0,0,75,78,132,110,47,192.56,303,-16.00,9.00,-1007.00
2024-05-17 16:01:28.987536,-1,0,-38,0,0,0,75,78,132,110,47,192.52,303,-36.00,20.00,-955.00
2024-05-17 16:01:29.186089,-1,0,-44,0,0,0,75,78,132,110,47,192.61,303,-4.00,8.00,-1001.00
2024-05-17 16:01:29.191194,-1,0,-50,0,0,0,75,78,132,110,47,192.50,303,23.00,-21.00,-1030.00
2024-05-17 16:01:29.386271,-1,0,-55,0,0,0,75,78,132,110,47,192.56,303,12.00,-13.00,-1010.00
2024-05-17 16:01:29.395191,-1,0,-61,0,0,0,75,78,133,110,47,192.57,303,5.00,-1.00,-1051.00
2024-05-17 16:01:29.591070,-1,0,-67,0,0,0,75,78,134,110,47,192.59,303,3.00,-18.00,-960.00
2024-05-17 16:01:29.599168,0,0,-73,0,0,0,75,78,134,110,47,192.54,304,-11.00,14.00,-1051.00
2024-05-17 16:01:29.795802,0,0,-79,0,0,0,75,78,134,110,47,192.60,304,-16.00,0.00,-987.00
2024-05-17 16:01:29.803145,0,0,-85,0,0,0,75,78,134,110,47,192.59,304,-59.00,12.00,-1012.00
2024-05-17 16:01:30.000655,0,0,-91,0,0,0,75,78,134,110,47,192.57,304,-36.00,18.00,-1006.00
2024-05-17 16:01:30.008327,0,0,-96,0,0,0,75,78,134,110,47,192.57,304,2.00,-13.00,-994.00
2024-05-17 16:01:30.110170,0,0,-102,0,0,0,75,78,134,110,47,192.58,304,-25.00,-11.00,-981.00
2024-05-17 16:01:30.213258,0,0,-108,0,0,0,75,78,133,110,47,192.54,304,-17.00,-18.00,-975.00
2024-05-17 16:01:30.314085,0,0,-114,0,0,0,75,78,133,110,47,192.58,304,-7.00,-25.00,-976.00
2024-05-17 16:01:30.512680,0,0,-120,0,0,0,75,78,133,110,47,192.60,304,13.00,-13.00,-987.00
2024-05-17 16:01:30.518169,0,0,-126,0,0,0,74,78,134,110,47,192.58,304,-51.00,33.00,-1020.00
2024-05-17 16:01:30.717449,0,0,-132,0,0,0,74,78,134,110,47,192.60,305,-26.00,-18.00,-1031.00
2024-05-17 16:01:30.722699,0,0,-138,0,0,0,74,78,134,110,47,192.59,305,-7.00,-5.00,-981.00
2024-05-17 16:01:30.922247,0,0,-144,0,0,0,74,78,133,110,47,192.56,305,-8.00,10.00,-975.00
2024-05-17 16:01:30.926087,0,0,-150,0,0,0,74,78,132,110,47,192.56,305,-45.00,8.00,-976.00
2024-05-17 16:01:31.029657,0,0,-156,0,0,0,74,78,133,110,47,192.53,305,-12.00,2.00,-1026.00
2024-05-17 16:01:31.130116,0,0,-161,0,0,0,74,78,134,110,47,192.53,305,-6.00,-22.00,-1011.00
2024-05-17 16:01:31.331850,0,0,-167,0,0,0,74,78,134,110,47,192.56,305,-10.00,-25.00,-985.00
2024-05-17 16:01:31.331930,0,0,-173,0,0,0,74,78,133,110,47,192.58,305,0.00,-16.00,-980.00
2024-05-17 16:01:31.385224,0,0,-179,0,0,0,74,78,133,110,47,192.59,305,14.00,10.00,-993.00
2024-05-17 16:01:31.487363,0,0,174,0,0,0,75,78,134,110,47,192.57,305,-12.00,6.00,-1021.00
2024-05-17 16:01:31.589502,0,0,167,0,0,0,75,78,134,110,47,192.62,306,-17.00,-8.00,-1032.00
2024-05-17 16:01:31.694440,0,0,161,0,0,0,75,78,134,110,47,192.62,306,-65.00,-11.00,-990.00
2024-05-17 16:01:31.793141,0,0,155,0,0,0,75,78,134,110,46,192.57,306,-8.00,-22.00,-973.00
2024-05-17 16:01:31.946445,0,0,149,0,0,0,75,78,135,110,46,192.59,306,29.00,-22.00,-973.00
2024-05-17 16:01:31.997428,0,0,143,0,0,0,75,78,135,110,46,192.60,306,-18.00,-14.00,-997.00
2024-05-17 16:01:32.099046,0,0,137,0,0,0,75,78,135,110,46,192.65,306,-14.00,10.00,-1017.00
2024-05-17 16:01:32.201748,0,0,131,0,0,0,75,78,135,110,46,192.60,306,-32.00,-22.00,-998.00
2024-05-17 16:01:32.355783,0,0,124,0,0,0,75,78,136,110,46,192.56,306,32.00,-15.00,-1000.00
2024-05-17 16:01:32.405139,0,0,118,0,0,0,75,78,136,110,46,192.58,306,-16.00,-9.00,-959.00
2024-05-17 16:01:32.560621,0,0,112,0,0,0,76,77,137,110,46,192.60,306,-14.00,-2.00,-999.00
2024-05-17 16:01:32.609025,0,0,106,0,0,0,76,77,137,110,46,192.55,307,-3.00,4.00,-991.00
2024-05-17 16:01:32.770903,0,0,100,0,0,0,76,77,138,110,46,192.61,307,2.00,-25.00,-1011.00
2024-05-17 16:01:32.813118,0,0,94,0,0,0,76,77,139,110,46,192.66,307,22.00,-7.00,-1004.00
2024-05-17 16:01:32.970218,0,0,88,0,0,0,76,77,139,110,46,192.60,307,22.00,-18.00,-977.00
2024-05-17 16:01:33.018423,0,0,81,0,0,0,76,77,140,110,46,192.61,307,-4.00,-4.00,-1005.00
2024-05-17 16:01:33.119467,0,0,75,0,0,0,76,77,140,110,46,192.61,307,17.00,-15.00,-954.00
2024-05-17 16:01:33.221165,0,0,69,0,0,0,76,77,140,110,46,192.63,307,-19.00,20.00,-970.00
2024-05-17 16:01:33.379819,0,0,64,0,0,0,76,77,140,110,46,192.61,307,5.00,8.00,-981.00
2024-05-17 16:01:33.425640,0,0,58,0,0,0,76,77,139,110,46,192.53,307,-17.00,16.00,-1008.00
2024-05-17 16:01:33.527309,0,0,45,0,0,0,75,78,139,110,46,192.61,308,6.00,11.00,-985.00
2024-05-17 16:01:33.687057,0,0,40,0,0,0,75,78,139,110,46,192.72,308,32.00,-5.00,-1014.00
2024-05-17 16:01:33.731297,0,0,34,0,0,0,75,78,139,110,46,192.61,308,39.00,0.00,-1024.00
2024-05-17 16:01:33.833042,0,0,28,0,0,0,75,78,138,110,46,192.56,308,6.00,19.00,-957.00
2024-05-17 16:01:33.994854,0,0,22,0,0,0,75,78,138,110,46,192.59,308,10.00,7.00,-1052.00
2024-05-17 16:01:34.037019,0,0,17,0,0,0,75,78,138,110,46,192.55,308,4.00,-4.00,-1018.00
2024-05-17 16:01:34.139122,0,0,12,0,0,0,75,78,138,110,46,192.62,308,-18.00,16.00,-1004.00
2024-05-17 16:01:34.304772,0,0,9,0,0,0,75,78,137,110,46,192.60,308,33.00,8.00,-987.00
2024-05-17 16:01:34.343079,0,0,6,0,0,0,75,78,138,110,46,192.62,308,-16.00,6.00,-985.00
2024-05-17 16:01:34.506286,0,0,4,0,0,0,75,78,137,110,46,192.66,308,2.00,12.00,-988.00
2024-05-17 16:01:34.547279,0,0,2,0,0,0,75,78,137,110,46,192.67,309,-7.00,1.00,-995.00
2024-05-17 16:01:34.710935,0,0,1,0,0,0,75,78,137,110,46,192.59,309,4.00,2.00,-952.00
2024-05-17 16:01:34.751009,0,0,0,0,0,0,75,78,136,110,46,192.66,309,42.00,-10.00,-1036.00
2024-05-17 16:01:34.915851,0,0,0,0,0,0,75,78,136,110,46,192.53,309,38.00,-3.00,-938.00
2024-05-17 16:01:34.955055,0,0,0,0,0,0,75,78,136,110,46,192.66,309,10.00,3.00,-1009.00
2024-05-17 16:01:35.006561,0,0,0,0,0,0,75,78,136,110,46,192.65,309,47.00,-2.00,-1016.00
2024-05-17 16:01:35.109220,0,0,0,0,0,0,75,78,136,110,46,192.66,309,16.00,-1.00,-998.00
2024-05-17 16:01:35.210621,0,0,0,0,0,0,75,78,136,110,46,192.58,309,39.00,8.00,-975.00
2024-05-17 16:01:35.312063,0,0,0,0,0,0,75,78,135,110,46,192.62,309,24.00,6.00,-956.00
2024-05-17 16:01:35.415611,0,0,0,0,0,0,75,78,135,110,46,192.57,309,10.00,-10.00,-1024.00
2024-05-17 16:01:35.530426,0,0,0,0,0,0,75,77,135,110,46,192.53,310,-69.00,43.00,-1034.00
2024-05-17 16:01:35.618137,0,0,0,0,0,0,75,77,134,110,46,192.63,310,24.00,0.00,-945.00
2024-05-17 16:01:35.735356,0,0,0,0,0,0,75,77,134,110,46,192.59,310,13.00,1.00,-1010.00
2024-05-17 16:01:35.822036,0,0,0,0,0,0,75,77,133,110,45,192.58,310,-14.00,21.00,-974.00
2024-05-17 16:01:35.924452,0,0,0,0,0,0,75,77,133,110,45,192.57,310,13.00,14.00,-991.00
2024-05-17 16:01:36.026904,0,0,0,0,0,0,75,77,132,110,45,192.55,310,-6.00,0.00,-974.00
2024-05-17 16:01:36.129364,0,0,0,0,0,0,75,77,132,110,45,192.48,310,26.00,3.00,-977.00
2024-05-17 16:01:36.247054,0,0,0,0,0,0,75,77,133,110,45,192.48,310,-19.00,38.00,-1024.00
2024-05-17 16:01:36.331830,0,0,0,0,0,0,75,77,132,110,45,192.53,310,-38.00,15.00,-1014.00
2024-05-17 16:01:36.451919,0,0,-1,0,0,0,75,77,132,110,45,192.53,310,-33.00,19.00,-1026.00
2024-05-17 16:01:36.535911,0,0,-1,0,0,0,75,78,132,110,45,192.55,311,-28.00,18.00,-1015.00
2024-05-17 16:01:36.656744,0,0,-1,0,0,0,75,78,132,110,45,192.57,311,3.00,-7.00,-942.00
2024-05-17 16:01:36.740016,0,0,-1,0,0,0,75,78,132,110,45,192.47,311,3.00,-12.00,-1082.00
2024-05-17 16:01:36.862705,0,0,-1,0,0,0,75,78,132,110,45,192.57,311,4.00,1.00,-970.00
2024-05-17 16:01:36.943934,0,0,-1,0,0,0,75,78,132,110,45,192.51,311,-15.00,27.00,-1026.00
2024-05-17 16:01:37.060309,0,0,-1,0,0,0,75,78,132,110,45,192.46,311,12.00,-8.00,-1038.00
2024-05-17 16:01:37.149532,0,0,-1,0,0,0,75,78,132,110,45,192.49,311,-10.00,5.00,-1011.00
2024-05-17 16:01:37.251387,0,0,-1,0,0,0,75,78,131,110,45,192.51,311,11.00,-1.00,-966.00
2024-05-17 16:01:37.351989,0,0,-1,0,0,0,75,78,130,110,45,192.48,311,1.00,-7.00,-1009.00
2024-05-17 16:01:37.476040,0,0,-1,0,0,0,75,78,130,110,45,192.49,311,4.00,-1.00,-1000.00
2024-05-17 16:01:37.556911,0,0,0,0,0,0,76,77,130,110,45,192.50,312,44.00,-12.00,-1030.00
2024-05-17 16:01:37.680722,0,0,0,0,0,0,76,77,130,110,45,192.45,312,27.00,-1.00,-939.00
2024-05-17 16:01:37.760424,0,0,0,0,0,0,76,77,130,110,45,192.41,312,-30.00,27.00,-1005.00
2024-05-17 16:01:37.885628,0,0,0,0,0,0,76,77,129,110,45,192.43,312,8.00,12.00,-1001.00
2024-05-17 16:01:37.963851,0,0,0,0,0,0,76,77,129,110,45,192.47,312,-6.00,0.00,-1003.00
2024-05-17 16:01:38.065989,0,0,0,0,0,0,76,77,129,110,45,192.42,312,22.00,7.00,-987.00
2024-05-17 16:01:38.194025,0,0,0,0,0,0,76,77,129,110,45,192.49,312,-40.00,30.00,-1013.00
2024-05-17 16:01:38.270212,0,0,-1,0,0,0,76,77,129,110,45,192.44,312,-4.00,8.00,-1020.00
2024-05-17 16:01:38.397487,0,0,-1,0,0,0,76,77,129,110,45,192.53,312,39.00,24.00,-990.00
2024-05-17 16:01:38.476800,0,0,0,0,0,0,76,77,129,110,45,192.51,312,-21.00,13.00,-1011.00
2024-05-17 16:01:38.577312,0,0,0,0,0,0,74,77,129,110,45,192.49,313,13.00,7.00,-1065.00
2024-05-17 16:01:38.677989,0,0,0,0,0,0,74,77,129,110,45,192.47,313,-62.00,46.00,-978.00
2024-05-17 16:01:38.808427,0,0,-1,0,0,0,74,77,130,110,45,192.55,313,27.00,-26.00,-1038.00
2024-05-17 16:01:38.882116,0,0,-1,0,0,0,74,77,130,110,45,192.48,313,-18.00,29.00,-959.00
2024-05-17 16:01:38.936222,0,0,-1,0,0,0,74,77,130,110,45,192.48,313,-7.00,12.00,-1046.00
2024-05-17 16:01:39.034783,0,0,-1,0,0,0,74,77,130,110,45,192.50,313,-7.00,10.00,-998.00
2024-05-17 16:01:39.216757,0,0,-1,0,0,0,74,77,131,110,45,192.50,313,-25.00,3.00,-937.00
2024-05-17 16:01:39.239908,0,0,-1,0,0,0,74,77,132,110,45,192.48,313,-9.00,5.00,-980.00
2024-05-17 16:01:39.422706,0,0,-1,0,0,0,74,77,133,110,45,192.49,313,7.00,-10.00,-1010.00
2024-05-17 16:01:39.442962,0,0,-1,0,0,0,74,77,134,110,45,192.49,313,15.00,18.00,-1029.00
2024-05-17 16:01:39.626287,0,0,-1,0,0,0,75,77,135,110,45,192.52,314,-5.00,13.00,-992.00
2024-05-17 16:01:39.646995,0,0,-1,0,0,0,75,77,136,110,45,192.55,314,12.00,-2.00,-978.00
2024-05-17 16:01:39.831552,0,0,-1,0,0,0,75,77,138,110,45,192.61,314,23.00,11.00,-1008.00
2024-05-17 16:01:39.850847,0,0,0,0,0,0,75,77,139,110,45,192.62,314,-28.00,1.00,-948.00
2024-05-17 16:01:40.036108,0,0,-1,0,0,0,75,77,140,110,45,192.64,314,-16.00,3.00,-926.00
2024-05-17 16:01:40.054942,0,0,-1,0,0,0,75,77,141,110,45,192.61,314,28.00,0.00,-953.00
2024-05-17 16:01:40.157869,0,0,-1,0,0,0,75,77,143,110,45,192.55,314,32.00,0.00,-986.00
2024-05-17 16:01:40.344032,0,0,-1,0,0,0,75,77,143,110,45,192.61,314,3.00,15.00,-1016.00
2024-05-17 16:01:40.361778,0,0,0,0,0,0,75,77,145,110,45,192.60,314,1.00,13.00,-983.00
2024-05-17 16:01:40.547951,0,0,0,0,0,0,75,77,146,110,45,192.63,314,8.00,-4.00,-982.00
2024-05-17 16:01:40.565816,0,0,0,0,0,0,75,77,147,110,45,192.62,315,15.00,12.00,-982.00
2024-05-17 16:01:40.672125,0,0,0,0,0,0,75,77,148,120,45,192.61,315,6.00,10.00,-965.00
2024-05-17 16:01:40.769903,0,0,0,0,0,0,75,77,149,120,45,192.64,315,-13.00,-2.00,-981.00
2024-05-17 16:01:40.958811,0,0,0,0,0,0,75,77,150,120,45,192.68,315,7.00,2.00,-1015.00
2024-05-17 16:01:40.973906,0,0,0,0,0,0,75,77,150,120,45,192.72,315,-24.00,23.00,-1030.00
2024-05-17 16:01:41.162504,0,0,0,0,0,0,75,77,151,120,45,192.65,315,-8.00,15.00,-953.00
2024-05-17 16:01:41.177742,0,0,0,0,0,0,75,77,151,120,45,192.67,315,3.00,8.00,-977.00
2024-05-17 16:01:41.367457,0,0,0,0,0,0,75,77,150,120,45,192.65,315,-6.00,5.00,-939.00
2024-05-17 16:01:41.381754,0,0,0,0,0,0,75,77,150,120,45,192.67,315,-50.00,8.00,-938.00
2024-05-17 16:01:41.571886,0,0,0,0,0,0,75,77,149,120,45,192.61,315,17.00,-8.00,-1008.00
2024-05-17 16:01:41.588173,0,0,0,0,0,0,74,77,149,120,45,192.60,316,17.00,-8.00,-996.00
2024-05-17 16:01:41.687882,0,0,0,0,0,0,74,77,148,120,45,192.62,316,-21.00,-3.00,-1024.00
2024-05-17 16:01:41.879105,0,0,0,0,0,0,74,77,148,120,44,192.60,316,12.00,-4.00,-999.00
2024-05-17 16:01:41.893086,0,0,0,0,0,0,74,77,147,120,44,192.62,316,-39.00,12.00,-1013.00
2024-05-17 16:01:42.084078,0,0,0,0,0,0,74,77,146,120,44,192.54,316,14.00,6.00,-975.00
2024-05-17 16:01:42.095693,0,0,0,0,0,0,74,77,145,120,44,192.61,316,-5.00,26.00,-1034.00
2024-05-17 16:01:42.290209,0,0,0,0,0,0,74,77,143,110,44,192.54,316,11.00,0.00,-983.00
2024-05-17 16:01:42.300088,0,0,0,0,0,0,74,77,142,110,44,192.53,316,-4.00,35.00,-990.00
2024-05-17 16:01:42.494251,0,0,0,0,0,0,74,77,141,110,44,192.51,316,7.00,-27.00,-1038.00
2024-05-17 16:01:42.494468,0,0,0,0,0,0,74,77,140,110,44,192.52,316,-31.00,2.00,-994.00
2024-05-17 16:01:42.699965,0,0,0,0,0,0,75,77,138,110,44,192.55,317,-34.00,5.00,-1022.00
2024-05-17 16:01:42.707731,0,0,0,0,0,0,75,77,137,110,44,192.50,317,-9.00,3.00,-955.00
2024-05-17 16:01:42.809695,0,0,0,0,0,0,75,77,135,110,44,192.56,317,-27.00,11.00,-1015.00
2024-05-17 16:01:43.005659,0,0,0,0,0,0,75,77,134,110,44,192.48,317,14.00,-15.00,-963.00
2024-05-17 16:01:43.005852,0,0,0,0,0,0,75,77,132,110,44,192.48,317,-22.00,16.00,-1054.00
2024-05-17 16:01:43.064746,0,0,0,0,0,0,75,77,132,110,44,192.45,317,-3.00,14.00,-1041.00
2024-05-17 16:01:43.166985,0,0,0,0,0,0,75,77,130,110,44,192.53,317,-41.00,14.00,-1031.00
2024-05-17 16:01:43.312616,0,0,0,0,0,0,75,77,130,110,44,192.47,317,32.00,-7.00,-1031.00
2024-05-17 16:01:43.370682,0,0,0,0,0,0,75,77,130,100,44,192.46,317,-48.00,33.00,-1074.00
2024-05-17 16:01:43.517613,0,0,0,0,0,0,75,77,129,100,44,192.45,317,16.00,-8.00,-1018.00
2024-05-17 16:01:43.574812,0,0,0,0,0,0,74,77,128,100,44,192.45,318,26.00,-16.00,-986.00
2024-05-17 16:01:43.722624,0,0,0,0,0,0,74,77,127,100,44,192.47,318,-24.00,26.00,-1045.00
2024-05-17 16:01:43.778827,0,0,0,0,0,0,74,77,127,100,44,192.46,318,0.00,-4.00,-1038.00
2024-05-17 16:01:43.881746,0,0,0,0,0,0,74,77,127,100,44,192.41,318,-26.00,31.00,-988.00
2024-05-17 16:01:43.984253,0,0,0,0,0,0,74,77,126,100,44,192.44,318,8.00,-1.00,-1047.00
2024-05-17 16:01:44.085169,0,0,0,0,0,0,74,77,127,100,44,192.46,318,-54.00,27.00,-1066.00
2024-05-17 16:01:44.234328,0,0,0,0,0,0,74,77,126,100,44,192.47,318,-7.00,4.00,-1014.00
2024-05-17 16:01:44.289283,0,0,0,0,0,0,74,77,126,100,44,192.39,318,10.00,11.00,-976.00
2024-05-17 16:01:44.391556,0,0,0,0,0,0,74,77,125,100,44,192.44,318,48.00,-9.00,-985.00
2024-05-17 16:01:44.492894,0,0,0,0,0,0,74,77,125,100,44,192.41,318,14.00,-20.00,-998.00
2024-05-17 16:01:44.596804,0,0,0,0,0,0,74,77,126,100,44,192.46,319,2.00,-22.00,-1030.00
2024-05-17 16:01:44.700616,0,0,0,0,0,0,74,77,126,100,44,192.41,319,15.00,14.00,-996.00
2024-05-17 16:01:44.798589,0,0,0,0,0,0,74,77,126,100,44,192.47,319,-18.00,3.00,-965.00
2024-05-17 16:01:44.900619,0,0,0,0,0,0,74,77,127,100,44,192.40,319,-19.00,10.00,-1008.00
2024-05-17 16:01:45.056937,0,0,0,0,0,0,74,77,126,100,44,192.38,319,0.00,15.00,-1015.00
2024-05-17 16:01:45.105487,0,0,0,0,0,0,74,77,127,100,44,192.45,319,3.00,3.00,-1024.00
2024-05-17 16:01:45.207567,0,0,0,0,0,0,74,77,127,100,44,192.40,319,0.00,3.00,-971.00
2024-05-17 16:01:45.309561,0,0,0,0,0,0,74,77,128,100,44,192.35,319,-23.00,17.00,-1000.00
2024-05-17 16:01:45.412240,0,0,0,0,0,0,74,77,128,100,44,192.42,319,22.00,7.00,-1038.00
2024-05-17 16:01:45.514373,0,0,0,0,0,0,74,77,128,100,44,192.46,319,34.00,-13.00,-1013.00
2024-05-17 16:01:45.615597,0,0,0,0,0,0,74,76,129,100,44,192.38,320,38.00,-15.00,-993.00
2024-05-17 16:01:45.717616,0,0,0,0,0,0,74,76,130,100,44,192.45,320,-25.00,23.00,-1023.00
2024-05-17 16:01:45.819698,0,0,0,0,0,0,74,76,131,110,44,192.41,320,0.00,28.00,-1002.00
