TS,pitch,roll,yaw,vgx,vgy,vgz,templ,temph,tof,h,bat,baro,time,agx,agy,agz
2024-05-17 16:02:26.832434,0,0,-4,0,0,0,79,82,10,0,42,191.11,328,1.00,10.00,-1000.00
2024-05-17 16:02:26.929512,0,0,-4,0,0,0,79,82,10,0,42,191.07,328,2.00,10.00,-999.00
2024-05-17 16:02:27.037147,0,0,-4,0,0,0,79,82,10,0,42,191.06,328,1.00,9.00,-998.00
2024-05-17 16:02:27.133482,0,0,-4,0,0,0,79,82,10,0,42,191.10,328,0.00,10.00,-1000.00
2024-05-17 16:02:27.241638,0,0,-4,0,0,0,79,82,10,0,42,191.07,328,0.00,10.00,-998.00
2024-05-17 16:02:27.337291,0,0,-4,0,0,0,79,82,10,0,42,191.09,328,0.00,10.00,-1000.00
2024-05-17 16:02:27.446443,0,0,-4,0,0,0,79,82,10,0,42,191.10,328,0.00,11.00,-998.00
2024-05-17 16:02:27.541485,0,0,-4,0,0,0,79,82,10,0,42,191.04,328,0.00,9.00,-998.00
2024-05-17 16:02:27.592490,0,0,-4,0,0,0,79,82,10,0,42,191.01,328,0.00,10.00,-1000.00
2024-05-17 16:02:27.753783,0,0,-4,0,0,0,79,82,10,0,42,191.06,328,0.00,8.00,-999.00
2024-05-17 16:02:27.856184,0,0,-4,0,0,0,80,82,10,0,42,191.05,328,2.00,9.00,-1001.00
2024-05-17 16:02:27.958634,0,0,-4,0,0,0,80,82,10,0,42,191.03,328,1.00,9.00,-998.00
2024-05-17 16:02:28.000324,0,0,-4,0,0,0,80,82,10,0,42,191.09,328,1.00,10.00,-1001.00
2024-05-17 16:02:28.103195,0,0,-4,0,0,0,80,82,10,0,42,191.04,328,0.00,10.00,-1001.00
2024-05-17 16:02:28.205608,0,0,-4,0,0,0,80,82,10,0,42,191.11,328,1.00,9.00,-1000.00
2024-05-17 16:02:28.368524,0,0,-4,0,0,0,80,82,10,0,42,191.05,328,1.00,9.00,-998.00
2024-05-17 16:02:28.409409,0,0,-4,0,0,0,80,82,10,0,42,191.06,328,0.00,11.00,-1003.00
2024-05-17 16:02:28.577643,0,0,-4,0,0,0,80,82,10,0,42,191.12,328,-1.00,10.00,-999.00
2024-05-17 16:02:28.613145,0,0,-4,0,0,0,80,82,10,0,42,191.06,328,1.00,8.00,-999.00
2024-05-17 16:02:28.778038,0,0,-4,0,0,0,80,82,10,0,42,191.11,328,1.00,11.00,-1001.00
2024-05-17 16:02:28.819786,0,0,-4,0,0,0,80,82,10,0,42,191.10,328,0.00,9.00,-1000.00
2024-05-17 16:02:28.919370,0,0,-4,0,0,0,80,82,10,0,42,191.09,328,1.00,9.00,-1000.00
2024-05-17 16:02:29.088552,0,0,-4,0,0,0,80,82,10,0,42,191.12,328,1.00,9.00,-1002.00
2024-05-17 16:02:29.123682,0,0,-4,0,0,0,80,82,10,0,42,191.04,328,0.00,9.00,-999.00
2024-05-17 16:02:29.289755,0,0,-4,0,0,0,80,82,10,0,42,191.02,328,0.00,9.00,-1000.00
2024-05-17 16:02:29.328441,0,0,-4,0,0,0,80,82,10,0,42,191.08,328,0.00,9.00,-998.00
2024-05-17 16:02:29.429176,0,0,-4,0,0,0,80,82,10,0,42,191.11,328,0.00,10.00,-998.00
2024-05-17 16:02:29.597329,0,0,-4,0,0,0,80,82,10,0,42,191.11,328,-4.00,19.00,-999.00
2024-05-17 16:02:29.633149,0,0,-4,0,0,0,80,82,10,0,42,191.11,328,2.00,15.00,-999.00
2024-05-17 16:02:29.801832,0,0,-3,0,0,0,80,82,10,0,42,191.11,328,-10.00,-13.00,-989.00
2024-05-17 16:02:29.837192,0,0,-2,0,0,0,80,82,10,0,42,191.11,328,20.00,7.00,-1000.00
2024-05-17 16:02:30.007031,0,0,-1,0,0,0,80,82,10,0,42,191.11,329,-27.00,-10.00,-1009.00
2024-05-17 16:02:30.041477,0,0,0,0,0,0,80,82,10,0,42,191.11,329,-30.00,-24.00,-1086.00
2024-05-17 16:02:30.143889,0,0,0,0,0,-1,80,82,10,0,42,191.11,329,20.00,-8.00,-1192.00
2024-05-17 16:02:30.313996,0,0,0,0,0,-4,80,82,10,0,42,191.11,329,-45.00,28.00,-1309.00
2024-05-17 16:02:30.349646,-1,0,0,0,0,-7,80,82,17,0,42,191.11,329,-21.00,1.00,-1142.00
2024-05-17 16:02:30.449243,-2,0,0,0,0,-8,80,82,24,10,42,191.45,329,-32.00,4.00,-1059.00
2024-05-17 16:02:30.621148,-1,1,0,0,0,-8,80,82,32,20,42,191.60,329,7.00,-6.00,-968.00
2024-05-17 16:02:30.653120,-1,0,0,0,0,-7,80,82,40,30,42,191.65,329,-8.00,-22.00,-977.00
2024-05-17 16:02:30.827454,-1,0,0,0,0,-7,80,82,48,30,42,191.66,329,-13.00,-3.00,-932.00
2024-05-17 16:02:30.857405,0,0,0,0,0,-6,79,83,56,40,42,191.81,329,-16.00,-7.00,-912.00
2024-05-17 16:02:31.030562,-1,0,0,0,0,-5,79,83,63,40,42,191.83,330,-6.00,-14.00,-912.00
2024-05-17 16:02:31.062733,0,0,0,0,0,-4,79,83,66,50,42,191.86,330,-30.00,24.00,-899.00
2024-05-17 16:02:31.112628,0,0,0,0,0,-3,79,83,71,50,42,191.95,330,-18.00,-17.00,-923.00
2024-05-17 16:02:31.237280,0,0,0,0,0,-2,79,83,75,60,42,191.96,330,0.00,-2.00,-869.00
2024-05-17 16:02:31.316706,0,0,0,0,0,-1,79,83,78,60,42,192.03,330,1.00,-6.00,-920.00
2024-05-17 16:02:31.441477,0,0,0,0,0,0,79,83,80,60,42,192.07,330,3.00,-5.00,-964.00
2024-05-17 16:02:31.520312,0,0,0,0,0,0,79,83,81,60,42,192.05,330,22.00,-7.00,-960.00
2024-05-17 16:02:31.646109,0,0,0,0,0,0,79,83,83,60,42,192.02,330,-10.00,-8.00,-968.00
2024-05-17 16:02:31.725348,0,0,0,0,0,0,79,83,83,60,42,192.07,330,9.00,3.00,-963.00
2024-05-17 16:02:31.850766,0,0,0,0,0,0,80,83,84,60,42,192.19,330,7.00,-24.00,-989.00
2024-05-17 16:02:31.928643,0,0,0,0,0,0,80,83,85,60,42,192.05,331,2.00,-6.00,-1013.00
2024-05-17 16:02:32.055777,0,0,0,0,0,0,80,83,86,60,42,192.11,331,-5.00,-8.00,-983.00
2024-05-17 16:02:32.136900,0,0,0,0,0,0,80,83,86,60,42,192.11,331,-40.00,10.00,-987.00
2024-05-17 16:02:32.234270,0,0,0,0,0,0,80,83,87,60,42,192.06,331,25.00,-15.00,-1015.00
2024-05-17 16:02:32.367167,0,0,0,0,0,0,80,83,87,60,42,192.09,331,-62.00,14.00,-981.00
2024-05-17 16:02:32.439595,0,0,0,0,0,0,80,83,87,70,42,192.07,331,54.00,-47.00,-1003.00
2024-05-17 16:02:32.540692,0,0,0,0,0,0,80,83,87,70,42,192.06,331,3.00,1.00,-997.00
2024-05-17 16:02:32.642363,0,0,0,0,0,0,80,83,87,70,42,192.07,331,9.00,-3.00,-980.00
2024-05-17 16:02:32.771532,0,0,0,0,0,0,80,83,86,70,42,192.01,331,20.00,-5.00,-987.00
2024-05-17 16:02:32.846246,0,0,0,0,0,0,80,82,86,70,42,192.10,331,-7.00,17.00,-976.00
2024-05-17 16:02:32.976692,0,0,0,0,0,0,80,82,86,70,42,192.09,332,7.00,-21.00,-996.00
2024-05-17 16:02:33.050788,0,0,0,0,0,0,80,82,84,70,42,192.05,332,-27.00,-7.00,-960.00
2024-05-17 16:02:33.181203,0,0,0,0,0,0,80,82,84,70,42,192.09,332,-22.00,-5.00,-970.00
2024-05-17 16:02:33.257212,0,0,0,0,0,0,80,82,84,60,42,191.98,332,11.00,-25.00,-1052.00
2024-05-17 16:02:33.359315,0,0,0,0,0,0,80,82,83,60,42,192.01,332,10.00,-19.00,-1009.00
2024-05-17 16:02:33.460382,0,0,0,0,0,0,80,82,82,60,42,192.03,332,24.00,-31.00,-986.00
2024-05-17 16:02:33.560030,0,0,0,0,0,0,80,82,82,60,42,192.09,332,5.00,-33.00,-1023.00
2024-05-17 16:02:33.693057,0,0,0,0,0,0,80,82,81,60,42,192.02,332,4.00,5.00,-971.00
2024-05-17 16:02:33.764320,0,0,0,0,0,0,80,82,80,60,42,191.99,332,18.00,-10.00,-1004.00
2024-05-17 16:02:33.897885,0,0,0,0,0,0,80,82,80,60,42,192.00,332,20.00,-15.00,-1026.00
2024-05-17 16:02:33.968192,0,0,0,0,0,0,80,82,79,60,42,192.03,333,-9.00,-21.00,-1036.00
2024-05-17 16:02:34.103341,0,0,0,0,0,0,80,82,78,60,42,191.98,333,35.00,-44.00,-999.00
2024-05-17 16:02:34.172246,0,0,0,0,0,0,80,82,77,60,42,191.97,333,-26.00,-1.00,-1004.00
2024-05-17 16:02:34.307100,0,0,0,0,0,0,80,82,76,60,42,192.02,333,6.00,-15.00,-994.00
2024-05-17 16:02:34.378118,0,0,0,0,0,0,80,82,76,60,42,191.94,333,-2.00,6.00,-1027.00
2024-05-17 16:02:34.478214,0,0,0,0,0,0,80,82,76,60,42,191.93,333,11.00,-19.00,-1042.00
2024-05-17 16:02:34.614209,0,-1,0,0,0,0,80,82,75,60,42,191.95,333,12.00,-9.00,-1023.00
2024-05-17 16:02:34.682708,0,-1,0,0,0,0,80,82,75,60,42,192.01,333,12.00,-15.00,-984.00
2024-05-17 16:02:34.819407,0,0,0,0,0,0,80,82,75,60,42,192.02,333,-4.00,-7.00,-1054.00
2024-05-17 16:02:34.886352,0,0,0,0,0,0,80,82,75,60,42,191.97,333,22.00,-10.00,-1009.00
2024-05-17 16:02:35.024229,0,0,0,0,0,0,80,82,75,60,42,191.98,334,-38.00,14.00,-1032.00
2024-05-17 16:02:35.093905,0,0,0,0,0,0,80,82,75,60,42,192.02,334,-25.00,-23.00,-1014.00
2024-05-17 16:02:35.192993,0,0,0,0,0,0,80,82,75,60,42,192.02,334,1.00,-3.00,-1036.00
2024-05-17 16:02:35.294256,0,0,0,0,0,0,80,82,76,60,42,192.02,334,9.00,-12.00,-974.00
2024-05-17 16:02:35.346459,0,0,0,0,0,0,80,82,76,60,42,192.04,334,14.00,-14.00,-1028.00
2024-05-17 16:02:35.538279,0,0,0,0,0,0,80,82,76,60,42,192.02,334,-11.00,4.00,-988.00
2024-05-17 16:02:35.549983,0,0,0,0,0,0,80,82,76,60,42,191.96,334,6.00,-22.00,-988.00
2024-05-17 16:02:35.745204,0,0,0,0,0,0,80,82,76,60,42,192.02,334,-3.00,-9.00,-987.00
2024-05-17 16:02:35.753017,0,0,0,0,0,0,80,82,75,60,42,192.03,334,26.00,6.00,-988.00
2024-05-17 16:02:35.945746,0,0,0,0,0,0,80,82,75,60,42,192.03,334,-24.00,15.00,-961.00
2024-05-17 16:02:35.957118,0,0,0,0,0,0,80,82,75,60,42,192.03,335,-32.00,19.00,-1041.00
2024-05-17 16:02:36.150786,0,0,0,0,0,0,80,82,75,60,42,191.99,335,23.00,-21.00,-1012.00
2024-05-17 16:02:36.161844,0,0,0,0,0,0,80,82,76,60,42,192.02,335,9.00,2.00,-993.00
2024-05-17 16:02:36.368739,0,0,0,0,0,0,80,82,75,60,42,192.01,335,46.00,-14.00,-994.00
2024-05-17 16:02:36.368955,0,0,0,0,0,0,80,82,75,60,42,192.00,335,-7.00,-3.00,-1015.00
2024-05-17 16:02:36.467015,0,0,0,0,0,0,80,82,75,60,42,191.97,335,3.00,-9.00,-956.00
2024-05-17 16:02:36.662839,0,0,0,0,0,0,80,82,75,60,42,192.00,335,25.00,-5.00,-967.00
2024-05-17 16:02:36.671020,0,0,0,0,0,0,80,82,75,60,42,192.05,335,25.00,-30.00,-986.00
2024-05-17 16:02:36.867256,0,0,0,0,0,0,80,82,75,60,42,191.99,335,3.00,5.00,-989.00
2024-05-17 16:02:36.874944,0,0,0,0,0,0,79,81,75,60,42,191.98,335,14.00,8.00,-979.00
2024-05-17 16:02:37.071974,0,0,0,0,0,0,79,81,75,60,42,191.94,336,3.00,7.00,-1026.00
2024-05-17 16:02:37.079715,0,0,0,0,0,0,79,81,75,60,42,192.04,336,22.00,6.00,-1027.00
2024-05-17 16:02:37.180875,0,0,0,0,0,0,79,81,75,60,42,192.03,336,-8.00,9.00,-983.00
2024-05-17 16:02:37.282859,0,0,0,0,0,0,79,81,75,60,42,191.95,336,50.00,-35.00,-958.00
2024-05-17 16:02:37.483018,0,0,0,0,0,0,79,81,75,60,42,192.00,336,-4.00,13.00,-1002.00
2024-05-17 16:02:37.486841,0,0,0,0,0,0,79,81,75,60,42,191.99,336,11.00,2.00,-1105.00
2024-05-17 16:02:37.588824,0,0,0,0,0,-1,79,81,76,60,42,192.01,336,8.00,16.00,-1083.00
2024-05-17 16:02:37.789022,0,0,0,0,0,-1,79,81,78,60,42,192.07,336,-19.00,-1.00,-1143.00
2024-05-17 16:02:37.792797,0,0,0,0,0,-3,79,81,81,60,42,192.02,336,-22.00,24.00,-1112.00
2024-05-17 16:02:37.897746,0,0,0,0,0,-3,77,81,85,70,42,192.10,336,-2.00,8.00,-1042.00
2024-05-17 16:02:37.996788,0,0,0,0,0,-4,77,81,89,70,42,192.15,337,28.00,-26.00,-1090.00
2024-05-17 16:02:38.098741,0,0,0,0,0,-5,77,81,94,70,42,192.14,337,18.00,-4.00,-1037.00
2024-05-17 16:02:38.200736,0,0,0,0,0,-5,77,81,99,80,42,192.25,337,8.00,-1.00,-1000.00
2024-05-17 16:02:38.302785,0,0,0,0,0,-5,77,81,104,80,42,192.28,337,-16.00,12.00,-1031.00
2024-05-17 16:02:38.404909,0,0,0,0,0,-5,77,81,109,90,42,192.33,337,28.00,-3.00,-990.00
2024-05-17 16:02:38.607808,0,0,0,0,0,-5,77,81,114,100,42,192.44,337,5.00,-9.00,-1011.00
2024-05-17 16:02:38.608776,0,0,0,0,0,-5,77,81,119,100,42,192.38,337,-17.00,24.00,-1004.00
2024-05-17 16:02:38.711052,0,0,0,0,0,-5,77,81,123,110,42,192.45,337,-13.00,6.00,-913.00
2024-05-17 16:02:38.813052,0,0,0,0,0,-4,77,81,128,110,42,192.49,337,-33.00,21.00,-962.00
2024-05-17 16:02:38.914793,0,0,0,0,0,-4,79,81,134,110,42,192.60,337,-6.00,0.00,-971.00
2024-05-17 16:02:39.017443,0,0,0,0,0,-4,79,81,138,120,42,192.59,338,-21.00,8.00,-948.00
2024-05-17 16:02:39.119770,0,0,0,0,0,-3,79,81,142,120,42,192.65,338,-25.00,2.00,-948.00
2024-05-17 16:02:39.170179,0,0,0,0,0,-3,79,81,146,130,42,192.66,338,18.00,0.00,-992.00
2024-05-17 16:02:39.271879,0,0,0,0,0,-3,79,81,149,130,42,192.73,338,27.00,-11.00,-973.00
2024-05-17 16:02:39.427050,0,0,0,0,0,-3,79,81,152,130,42,192.77,338,-4.00,15.00,-957.00
2024-05-17 16:02:39.476053,0,0,0,0,0,-2,79,81,154,130,42,192.77,338,4.00,20.00,-957.00
2024-05-17 16:02:39.634309,0,0,0,0,0,-2,79,81,156,140,42,192.75,338,19.00,10.00,-929.00
2024-05-17 16:02:39.679830,0,0,0,0,0,-2,79,81,159,140,42,192.82,338,53.00,18.00,-1013.00
2024-05-17 16:02:39.836700,0,0,0,0,0,-2,79,81,162,140,42,192.88,338,18.00,0.00,-1001.00
2024-05-17 16:02:39.884156,0,0,0,0,0,-1,79,81,164,140,42,192.88,338,-21.00,28.00,-950.00
2024-05-17 16:02:40.041843,0,0,0,0,0,-1,79,81,167,140,42,192.90,339,13.00,-12.00,-994.00
2024-05-17 16:02:40.088224,-1,0,0,0,0,-1,79,81,169,150,42,192.84,339,-3.00,30.00,-983.00
2024-05-17 16:02:40.190815,0,0,0,0,0,-1,79,81,171,150,42,192.89,339,26.00,6.00,-997.00
2024-05-17 16:02:40.349316,0,0,0,0,0,-1,79,81,174,150,42,192.93,339,-1.00,1.00,-1002.00
2024-05-17 16:02:40.395713,0,0,0,0,0,-1,79,81,175,150,42,192.97,339,11.00,29.00,-909.00
2024-05-17 16:02:40.555602,0,0,0,0,0,-1,79,81,177,150,42,193.05,339,29.00,0.00,-960.00
2024-05-17 16:02:40.600411,0,0,0,0,0,0,79,81,178,160,42,193.00,339,4.00,18.00,-969.00
2024-05-17 16:02:40.701513,0,0,0,0,0,0,79,81,180,160,42,193.03,339,14.00,-11.00,-996.00
2024-05-17 16:02:40.862351,0,0,0,0,0,0,79,81,181,160,42,192.99,339,20.00,17.00,-955.00
2024-05-17 16:02:40.906073,0,0,0,0,0,0,78,81,182,160,42,193.04,339,-29.00,-4.00,-940.00
2024-05-17 16:02:41.007107,0,0,0,0,0,0,78,81,183,160,42,192.97,340,-40.00,21.00,-942.00
2024-05-17 16:02:41.167877,0,0,0,0,0,0,78,81,183,160,42,193.05,340,-13.00,38.00,-963.00
2024-05-17 16:02:41.212645,0,0,0,0,0,0,78,81,183,160,42,192.97,340,-31.00,36.00,-976.00
2024-05-17 16:02:41.313216,0,0,0,0,0,0,78,81,182,160,42,193.09,340,-36.00,12.00,-978.00
2024-05-17 16:02:41.414742,0,0,0,0,0,0,78,81,183,160,42,193.00,340,3.00,-7.00,-991.00
2024-05-17 16:02:41.577747,0,0,0,0,0,0,78,81,183,160,42,193.05,340,7.00,2.00,-970.00
2024-05-17 16:02:41.619473,0,0,0,0,0,0,78,81,182,160,42,193.04,340,1.00,13.00,-981.00
2024-05-17 16:02:41.721387,0,0,0,0,0,0,78,81,182,160,42,193.04,340,3.00,2.00,-976.00
2024-05-17 16:02:41.823708,0,0,0,0,0,0,78,81,181,160,42,193.02,340,0.00,25.00,-939.00
2024-05-17 16:02:41.988183,0,0,0,0,0,0,79,80,180,160,42,192.97,340,19.00,14.00,-955.00
2024-05-17 16:02:42.033743,0,0,0,0,0,0,79,80,179,160,42,193.05,341,16.00,-2.00,-994.00
2024-05-17 16:02:42.134024,0,0,0,0,0,0,79,80,178,160,42,192.93,341,32.00,-2.00,-1025.00
2024-05-17 16:02:42.230649,0,0,0,0,0,0,79,80,178,160,42,193.00,341,19.00,-18.00,-1079.00
2024-05-17 16:02:42.352824,0,0,0,0,0,0,79,80,177,160,42,192.90,341,16.00,1.00,-980.00
2024-05-17 16:02:42.434587,0,0,0,0,0,0,79,80,177,160,42,193.01,341,-4.00,15.00,-1047.00
2024-05-17 16:02:42.601707,0,0,0,0,0,0,79,80,177,160,42,193.01,341,16.00,-8.00,-1033.00
2024-05-17 16:02:42.638576,0,0,0,0,0,0,79,80,177,160,42,192.93,341,-11.00,15.00,-981.00
2024-05-17 16:02:42.806283,0,0,0,0,0,0,79,80,176,160,42,193.03,341,14.00,10.00,-928.00
2024-05-17 16:02:42.806319,0,0,0,0,0,0,79,80,175,160,42,192.94,341,-59.00,27.00,-969.00
2024-05-17 16:02:42.946151,0,0,0,0,0,1,78,80,173,150,42,192.89,342,36.00,-15.00,-946.00
2024-05-17 16:02:43.046698,0,0,0,0,0,2,78,80,170,150,42,192.95,342,10.00,0.00,-956.00
2024-05-17 16:02:43.216198,0,0,0,0,0,2,78,80,168,150,42,192.87,342,-9.00,-5.00,-969.00
2024-05-17 16:02:43.255271,0,0,0,0,0,2,78,80,165,150,42,192.85,342,-9.00,10.00,-1029.00
2024-05-17 16:02:43.352525,0,0,0,0,0,3,78,80,162,140,42,192.80,342,27.00,-11.00,-996.00
2024-05-17 16:02:43.405531,0,0,0,0,0,2,78,80,159,140,42,192.88,342,-28.00,11.00,-1062.00
2024-05-17 16:02:43.511006,0,0,0,0,0,2,78,80,156,140,42,192.80,342,2.00,5.00,-1014.00
2024-05-17 16:02:43.607825,0,0,0,0,0,2,78,80,152,130,42,192.72,342,-25.00,34.00,-995.00
2024-05-17 16:02:43.727785,0,0,0,0,0,2,78,80,148,130,42,192.72,342,31.00,-12.00,-1051.00
2024-05-17 16:02:43.811858,0,0,0,0,0,2,78,80,145,130,42,192.80,342,-26.00,13.00,-1021.00
2024-05-17 16:02:43.932628,0,0,0,0,0,2,77,81,143,130,42,192.68,343,-9.00,4.00,-1027.00
2024-05-17 16:02:44.015861,0,0,0,0,0,2,77,81,140,120,42,192.67,343,-14.00,-2.00,-1054.00
2024-05-17 16:02:44.117772,0,0,0,0,0,2,77,81,137,120,42,192.59,343,-13.00,1.00,-1025.00
2024-05-17 16:02:44.219729,0,0,0,0,0,2,77,81,134,120,42,192.53,343,-15.00,9.00,-988.00
2024-05-17 16:02:44.342244,-1,0,0,0,0,1,77,81,131,120,42,192.52,343,-7.00,17.00,-1003.00
2024-05-17 16:02:44.423840,0,0,0,0,0,1,77,81,129,110,42,192.61,343,-2.00,-6.00,-1039.00
2024-05-17 16:02:44.525767,0,0,0,0,0,1,77,81,127,110,42,192.56,343,14.00,-2.00,-1068.00
2024-05-17 16:02:44.649768,0,0,0,0,0,1,77,81,125,110,42,192.54,343,14.00,-7.00,-1057.00
2024-05-17 16:02:44.730683,0,0,0,0,0,0,77,81,123,110,42,192.52,343,33.00,-17.00,-1038.00
2024-05-17 16:02:44.854667,0,0,0,0,0,0,77,81,122,110,42,192.46,343,5.00,8.00,-1005.00
2024-05-17 16:02:44.934583,0,0,0,0,0,0,78,80,122,110,42,192.45,344,15.00,-1.00,-1088.00
2024-05-17 16:02:45.062441,0,0,0,0,0,0,78,80,121,110,42,192.55,344,-7.00,8.00,-958.00
2024-05-17 16:02:45.142156,0,0,0,0,0,0,78,80,120,110,42,192.45,344,-6.00,-8.00,-1057.00
2024-05-17 16:02:45.239888,0,0,0,0,0,0,78,80,119,100,42,192.46,344,65.00,-31.00,-976.00
2024-05-17 16:02:45.371865,0,0,0,0,0,0,78,80,118,100,42,192.48,344,7.00,15.00,-1008.00
2024-05-17 16:02:45.443853,0,0,0,0,0,0,78,80,118,100,42,192.49,344,-4.00,8.00,-1031.00
2024-05-17 16:02:45.571152,0,0,0,0,0,0,78,80,117,100,42,192.46,344,1.00,4.00,-1036.00
2024-05-17 16:02:45.648241,0,0,0,0,0,0,78,80,117,100,42,192.44,344,-30.00,32.00,-1039.00
2024-05-17 16:02:45.778736,0,0,0,0,0,0,78,80,116,100,42,192.42,344,-3.00,19.00,-1026.00
2024-05-17 16:02:45.851713,0,0,0,0,0,0,78,80,116,100,42,192.41,344,16.00,13.00,-998.00
2024-05-17 16:02:45.980733,0,0,0,0,0,0,77,80,116,100,42,192.35,345,-27.00,24.00,-1021.00
2024-05-17 16:02:46.057495,0,0,0,0,0,0,77,80,115,100,42,192.37,345,10.00,-23.00,-1028.00
2024-05-17 16:02:46.162539,0,0,0,0,0,0,77,80,115,100,42,192.37,345,-16.00,34.00,-966.00
2024-05-17 16:02:46.260959,0,0,0,0,0,0,77,80,115,100,42,192.41,345,0.00,-22.00,-1015.00
2024-05-17 16:02:46.390297,-1,0,0,0,0,0,77,80,115,100,42,192.37,345,-4.00,10.00,-1012.00
2024-05-17 16:02:46.463747,-1,0,0,0,0,0,77,80,114,100,42,192.41,345,-26.00,19.00,-987.00
2024-05-17 16:02:46.565534,0,0,0,0,0,0,77,80,115,100,42,192.41,345,-24.00,4.00,-997.00
2024-05-17 16:02:46.697596,-2,0,0,0,0,0,77,80,116,100,42,192.45,345,16.00,4.00,-1113.00
2024-05-17 16:02:46.769661,-6,0,0,1,0,0,77,80,114,100,42,192.41,345,49.00,-2.00,-974.00
2024-05-17 16:02:46.902245,-8,0,0,2,0,0,77,80,117,100,42,192.40,345,0.00,-19.00,-979.00
2024-05-17 16:02:46.974258,-8,0,0,3,0,0,77,80,117,100,42,192.41,346,2.00,16.00,-978.00
2024-05-17 16:02:47.109530,-8,0,0,4,0,0,77,80,118,100,42,192.38,346,-22.00,-20.00,-1017.00
2024-05-17 16:02:47.177942,-7,0,0,5,0,0,77,80,115,100,42,192.40,346,-27.00,1.00,-998.00
2024-05-17 16:02:47.228334,-7,0,0,6,0,0,77,80,115,100,42,192.40,346,-56.00,3.00,-1013.00
2024-05-17 16:02:47.414930,-6,0,0,6,0,0,77,80,116,100,42,192.38,346,-33.00,11.00,-979.00
2024-05-17 16:02:47.432267,-6,0,0,7,0,0,77,80,117,100,42,192.36,346,-66.00,8.00,-1025.00
2024-05-17 16:02:47.619006,-4,0,0,7,0,0,77,80,120,100,42,192.34,346,-24.00,-10.00,-994.00
2024-05-17 16:02:47.636243,0,0,0,7,0,0,77,80,119,100,42,192.36,346,-82.00,-1.00,-1013.00
2024-05-17 16:02:47.823746,1,0,0,6,0,0,77,80,121,110,42,192.41,346,-84.00,5.00,-967.00
2024-05-17 16:02:47.840426,3,0,0,5,0,0,77,80,121,110,42,192.42,346,-40.00,-20.00,-976.00
2024-05-17 16:02:47.942387,3,0,0,4,0,0,77,80,122,110,42,192.44,347,-38.00,2.00,-998.00
2024-05-17 16:02:48.131031,1,0,0,3,0,0,77,80,122,110,42,192.43,347,-10.00,-6.00,-1004.00
2024-05-17 16:02:48.146291,0,0,0,3,0,0,77,80,121,110,42,192.36,347,-26.00,13.00,-1019.00
2024-05-17 16:02:48.248319,0,0,0,3,0,0,77,80,121,110,42,192.39,347,-34.00,3.00,-1024.00
2024-05-17 16:02:48.438196,0,0,0,2,0,0,77,80,121,110,42,192.48,347,16.00,2.00,-1074.00
2024-05-17 16:02:48.452271,0,0,0,2,0,0,77,80,121,110,42,192.49,347,-49.00,17.00,-950.00
2024-05-17 16:02:48.554494,0,0,0,2,0,0,77,80,121,110,42,192.47,347,-17.00,14.00,-1046.00
2024-05-17 16:02:48.656821,0,0,0,2,0,0,77,80,121,110,42,192.47,347,-6.00,7.00,-973.00
2024-05-17 16:02:48.759044,0,0,0,2,0,0,77,80,121,110,42,192.47,347,-32.00,13.00,-989.00
2024-05-17 16:02:48.861477,0,0,0,2,0,0,77,80,121,110,42,192.52,347,-8.00,-1.00,-995.00
2024-05-17 16:02:48.962388,0,0,0,2,0,0,77,80,121,110,42,192.39,348,5.00,14.00,-976.00
2024-05-17 16:02:49.155003,0,0,0,2,0,0,77,80,120,110,42,192.40,348,-45.00,6.00,-983.00
2024-05-17 16:02:49.168082,0,0,0,1,0,0,77,80,120,110,42,192.47,348,-21.00,13.00,-1026.00
2024-05-17 16:02:49.268245,0,0,0,1,0,0,77,80,120,110,42,192.39,348,-1.00,-1.00,-991.00
2024-05-17 16:02:49.462140,0,0,0,1,0,0,77,80,119,110,42,192.41,348,-40.00,22.00,-994.00
2024-05-17 16:02:49.472180,0,-3,0,1,0,0,77,80,121,110,42,192.42,348,-6.00,13.00,-982.00
2024-05-17 16:02:49.667178,1,-4,0,1,0,0,77,80,122,100,42,192.41,348,19.00,-14.00,-1037.00
2024-05-17 16:02:49.686197,2,0,0,0,-1,0,77,80,122,100,42,192.46,348,-8.00,13.00,-1089.00
2024-05-17 16:02:49.778320,0,2,0,0,0,0,77,80,122,110,42,192.44,348,-16.00,37.00,-979.00
2024-05-17 16:02:49.974317,0,0,0,0,0,0,77,80,121,110,42,192.32,348,18.00,6.00,-1027.00
2024-05-17 16:02:49.982326,0,0,0,0,0,0,77,80,122,110,42,192.46,349,-23.00,16.00,-1009.00
2024-05-17 16:02:50.179237,0,0,0,0,0,0,77,80,122,110,42,192.42,349,12.00,31.00,-966.00
2024-05-17 16:02:50.186686,-1,0,0,0,0,0,77,80,122,110,42,192.46,349,-24.00,38.00,-991.00
2024-05-17 16:02:50.383887,-1,0,0,0,0,0,77,80,122,110,42,192.40,349,-10.00,10.00,-984.00
2024-05-17 16:02:50.390302,-1,0,0,0,0,0,77,80,122,110,42,192.41,349,5.00,-4.00,-961.00
2024-05-17 16:02:50.588601,-1,0,0,0,0,0,77,80,123,110,42,192.45,349,6.00,17.00,-987.00
2024-05-17 16:02:50.594229,-1,0,0,0,0,0,77,80,123,110,42,192.51,349,7.00,-3.00,-1006.00
2024-05-17 16:02:50.793362,-1,0,0,0,0,0,77,80,124,110,42,192.49,349,-4.00,-2.00,-1003.00
2024-05-17 16:02:50.798262,-1,0,0,0,0,0,77,80,125,110,42,192.46,349,-30.00,2.00,-1074.00
2024-05-17 16:02:50.999753,-1,0,0,0,0,0,77,80,126,110,42,192.47,349,-35.00,18.00,-997.00
2024-05-17 16:02:51.002678,-1,0,0,0,0,0,77,80,126,110,42,192.48,350,1.00,23.00,-1039.00
2024-05-17 16:02:51.205486,-1,0,0,0,0,0,77,80,126,110,42,192.48,350,8.00,-15.00,-986.00
2024-05-17 16:02:51.206251,0,0,0,0,0,0,77,80,126,110,42,192.47,350,-27.00,3.00,-979.00
2024-05-17 16:02:51.308627,0,0,0,0,0,0,77,80,126,110,42,192.49,350,25.00,-9.00,-1027.00
2024-05-17 16:02:51.359405,-1,0,0,0,0,0,77,80,126,110,42,192.47,350,-6.00,6.00,-986.00
2024-05-17 16:02:51.461453,-1,0,0,0,0,0,77,80,126,110,42,192.49,350,-16.00,17.00,-943.00
2024-05-17 16:02:51.613194,-1,0,0,0,0,0,77,80,125,110,42,192.50,350,0.00,-9.00,-999.00
2024-05-17 16:02:51.666536,-1,0,0,0,0,0,77,80,125,110,42,192.46,350,17.00,-11.00,-995.00
2024-05-17 16:02:51.782730,-1,0,0,0,0,0,77,80,124,110,42,192.36,350,-43.00,14.00,-1045.00
2024-05-17 16:02:51.869407,-1,0,0,0,0,0,77,80,124,110,42,192.39,350,-21.00,10.00,-983.00
2024-05-17 16:02:51.973536,0,0,0,0,0,0,76,80,125,110,42,192.40,351,22.00,-3.00,-1023.00
2024-05-17 16:02:52.073998,7,0,0,0,0,0,76,80,125,110,42,192.44,351,-10.00,1.00,-1002.00
2024-05-17 16:02:52.176156,8,0,0,-2,0,0,76,80,124,110,42,192.47,351,9.00,11.00,-1002.00
2024-05-17 16:02:52.278151,8,0,0,-3,0,0,76,80,123,110,42,192.54,351,-20.00,14.00,-1009.00
2024-05-17 16:02:52.380113,7,0,0,-5,0,0,76,80,123,110,42,192.47,351,40.00,-3.00,-1034.00
2024-05-17 16:02:52.534158,6,0,0,-5,0,0,76,80,122,110,42,192.36,351,64.00,-11.00,-958.00
2024-05-17 16:02:52.586184,5,0,0,-6,0,0,76,80,121,110,42,192.41,351,29.00,-2.00,-1000.00
2024-05-17 16:02:52.686074,5,0,0,-6,0,0,76,80,120,110,42,192.32,351,85.00,-6.00,-1044.00
2024-05-17 16:02:52.841352,4,0,0,-7,0,0,76,80,121,110,42,192.40,351,95.00,-7.00,-1016.00
2024-05-17 16:02:52.898935,1,0,0,-7,0,0,76,80,121,110,42,192.42,351,55.00,-18.00,-940.00
2024-05-17 16:02:52.992104,-1,0,0,-6,0,0,76,79,119,110,42,192.36,352,68.00,-1.00,-1031.00
2024-05-17 16:02:53.148701,-3,0,0,-5,0,0,76,79,118,110,42,192.40,352,48.00,4.00,-998.00
2024-05-17 16:02:53.196266,-3,0,0,-4,0,0,76,79,118,110,42,192.40,352,61.00,-21.00,-992.00
2024-05-17 16:02:53.355035,-2,0,0,-3,0,0,76,79,117,110,42,192.40,352,12.00,8.00,-999.00
2024-05-17 16:02:53.402376,-1,0,0,-3,0,0,76,79,117,110,42,192.41,352,44.00,-23.00,-1047.00
2024-05-17 16:02:53.502025,0,0,0,-3,0,0,76,79,117,110,42,192.30,352,39.00,-46.00,-1011.00
2024-05-17 16:02:53.660530,0,0,0,-3,0,0,76,79,117,100,42,192.40,352,25.00,11.00,-999.00
2024-05-17 16:02:53.706285,0,0,0,-3,0,0,76,79,118,100,42,192.43,352,13.00,22.00,-1029.00
2024-05-17 16:02:53.865347,0,0,0,-3,0,0,76,79,118,100,42,192.35,352,15.00,11.00,-1005.00
2024-05-17 16:02:53.909996,0,0,0,-3,0,0,76,79,119,100,42,192.33,352,12.00,12.00,-973.00
2024-05-17 16:02:54.012008,-1,0,0,-2,0,0,77,80,120,110,42,192.40,353,16.00,2.00,-1025.00
2024-05-17 16:02:54.114272,-5,0,0,-2,0,0,77,80,119,110,42,192.45,353,37.00,-31.00,-1022.00
2024-05-17 16:02:54.216383,-4,0,0,-1,0,0,77,80,121,110,42,192.42,353,7.00,1.00,-1033.00
2024-05-17 16:02:54.377566,-2,0,0,0,0,0,77,80,121,110,42,192.45,353,-10.00,10.00,-980.00
2024-05-17 16:02:54.419968,-1,0,0,0,0,0,77,80,121,110,42,192.37,353,11.00,-8.00,-984.00
2024-05-17 16:02:54.583332,0,0,0,0,0,0,77,80,122,110,42,192.40,353,27.00,-40.00,-991.00
2024-05-17 16:02:54.623950,0,0,0,0,0,0,77,80,122,110,42,192.36,353,-18.00,-31.00,-1030.00
2024-05-17 16:02:54.790223,-1,0,0,0,0,0,77,80,124,110,42,192.39,353,-1.00,22.00,-993.00
2024-05-17 16:02:54.828048,-1,0,0,0,0,0,77,80,125,110,41,192.47,353,12.00,1.00,-963.00
2024-05-17 16:02:54.879221,-1,0,0,0,0,0,77,80,124,110,41,192.39,353,3.00,0.00,-918.00
2024-05-17 16:02:55.032025,0,0,0,0,0,0,77,79,125,110,41,192.46,354,6.00,-11.00,-957.00
2024-05-17 16:02:55.196708,0,0,0,0,0,0,77,79,125,110,41,192.40,354,3.00,-6.00,-989.00
2024-05-17 16:02:55.197228,0,0,0,0,0,0,77,79,125,110,41,192.43,354,16.00,10.00,-982.00
2024-05-17 16:02:55.287315,0,0,0,0,0,0,77,79,125,110,41,192.38,354,0.00,4.00,-974.00
2024-05-17 16:02:55.401717,0,0,0,0,0,0,77,79,125,110,41,192.38,354,5.00,-1.00,-999.00
2024-05-17 16:02:55.491283,0,0,0,0,0,0,77,79,125,110,41,192.43,354,6.00,14.00,-950.00
2024-05-17 16:02:55.606536,0,0,0,0,0,0,77,79,125,110,41,192.41,354,72.00,-20.00,-1090.00
2024-05-17 16:02:55.695684,0,0,0,0,0,0,77,79,125,110,41,192.45,354,-7.00,0.00,-1009.00
2024-05-17 16:02:55.812143,0,0,0,0,0,0,77,79,124,110,41,192.39,354,0.00,-34.00,-996.00
2024-05-17 16:02:55.904086,0,0,0,0,0,0,77,79,124,110,41,192.40,354,-1.00,4.00,-1016.00
2024-05-17 16:02:56.001746,0,0,0,0,0,0,77,80,125,110,41,192.34,355,18.00,1.00,-971.00
2024-05-17 16:02:56.103285,0,0,0,0,0,0,77,80,125,110,41,192.38,355,17.00,-4.00,-945.00
2024-05-17 16:02:56.205718,0,0,0,0,0,0,77,80,125,110,41,192.36,355,22.00,12.00,-972.00
2024-05-17 16:02:56.307209,0,0,0,0,0,0,77,80,126,110,41,192.37,355,45.00,8.00,-1013.00
2024-05-17 16:02:56.425296,0,0,0,0,0,0,77,80,127,110,41,192.43,355,6.00,-23.00,-937.00
2024-05-17 16:02:56.512762,0,-7,0,0,0,0,77,80,128,110,41,192.40,355,-31.00,6.00,-1023.00
2024-05-17 16:02:56.613403,0,-8,0,0,-1,0,77,80,128,110,41,192.38,355,-11.00,9.00,-1192.00
2024-05-17 16:02:56.733079,0,-6,0,0,-3,0,77,80,128,110,41,192.41,355,-5.00,25.00,-964.00
2024-05-17 16:02:56.819157,0,-3,0,0,-4,0,77,80,126,110,40,192.38,355,12.00,-19.00,-967.00
2024-05-17 16:02:56.919571,0,0,0,0,-4,0,77,80,126,110,40,192.39,355,4.00,29.00,-954.00
2024-05-17 16:02:57.021253,0,0,0,0,-2,0,77,79,126,110,40,192.40,356,7.00,14.00,-978.00
2024-05-17 16:02:57.144563,0,0,0,0,-2,0,77,79,126,110,40,192.42,356,15.00,23.00,-1003.00
2024-05-17 16:02:57.233380,0,-1,0,0,-2,0,77,79,125,110,40,192.42,356,26.00,-8.00,-980.00
2024-05-17 16:02:57.327039,0,-1,0,0,-2,0,77,79,125,110,40,192.39,356,-10.00,27.00,-995.00
2024-05-17 16:02:57.449286,0,-1,0,0,-2,0,77,79,125,110,40,192.39,356,-1.00,-7.00,-982.00
2024-05-17 16:02:57.531067,0,-1,0,0,-2,0,77,79,124,110,40,192.39,356,-19.00,45.00,-958.00
2024-05-17 16:02:57.654232,0,0,0,0,-2,0,77,79,123,110,40,192.36,356,-27.00,31.00,-988.00
2024-05-17 16:02:57.735981,0,0,0,0,-2,0,77,79,123,110,40,192.39,356,-11.00,17.00,-1002.00
2024-05-17 16:02:57.860911,0,0,0,0,-2,0,77,79,124,110,40,192.34,356,35.00,18.00,-977.00
2024-05-17 16:02:57.939172,0,0,0,0,-2,0,77,79,124,110,40,192.33,357,19.00,7.00,-971.00
2024-05-17 16:02:58.063668,0,0,0,0,-2,0,75,80,124,110,40,192.38,357,-37.00,19.00,-983.00
2024-05-17 16:02:58.143765,0,1,0,0,-2,0,75,80,123,110,40,192.40,357,29.00,16.00,-1016.00
2024-05-17 16:02:58.247771,0,4,0,0,-1,0,75,80,126,110,40,192.40,357,12.00,10.00,-1009.00
2024-05-17 16:02:58.347762,0,3,0,0,0,0,75,80,126,110,40,192.34,357,16.00,21.00,-1007.00
2024-05-17 16:02:58.449920,0,0,0,0,0,0,75,80,125,110,40,192.35,357,0.00,-3.00,-1006.00
2024-05-17 16:02:58.575856,0,0,0,0,0,0,75,80,125,110,40,192.39,357,16.00,15.00,-987.00
2024-05-17 16:02:58.653682,0,0,0,0,0,0,75,80,125,110,40,192.36,357,52.00,-8.00,-989.00
2024-05-17 16:02:58.705162,0,0,0,0,0,0,75,80,126,110,40,192.40,357,-3.00,31.00,-984.00
2024-05-17 16:02:58.883121,0,0,0,0,0,0,75,80,125,110,40,192.38,357,25.00,-2.00,-984.00
2024-05-17 16:02:58.909079,0,0,0,0,0,0,75,80,126,110,40,192.37,358,-7.00,22.00,-1021.00
2024-05-17 16:02:59.087857,0,0,0,0,0,0,75,79,125,110,40,192.37,358,-3.00,12.00,-1007.00
2024-05-17 16:02:59.113091,0,0,0,0,0,0,75,79,126,110,40,192.37,358,24.00,4.00,-1000.00
2024-05-17 16:02:59.294344,0,0,0,0,0,0,75,79,126,110,40,192.43,358,3.00,-4.00,-957.00
2024-05-17 16:02:59.317059,0,0,0,0,0,0,75,79,126,110,40,192.38,358,9.00,-2.00,-1004.00
2024-05-17 16:02:59.497823,0,0,0,0,0,0,75,79,126,110,40,192.41,358,-32.00,32.00,-952.00
2024-05-17 16:02:59.521472,0,0,0,0,0,0,75,79,126,110,40,192.37,358,7.00,1.00,-1011.00
2024-05-17 16:02:59.623206,0,0,0,0,0,0,75,79,125,110,40,192.36,358,20.00,7.00,-981.00
2024-05-17 16:02:59.804730,0,0,0,0,0,0,75,79,125,110,40,192.38,358,-9.00,5.00,-965.00
2024-05-17 16:02:59.827427,0,0,0,0,0,0,75,79,125,110,39,192.36,358,-50.00,23.00,-1030.00
2024-05-17 16:03:00.111826,0,0,0,0,0,0,75,79,124,110,39,192.35,359,-14.00,-5.00,-1010.00
2024-05-17 16:03:00.112005,0,0,0,0,0,0,77,79,123,110,39,192.35,359,-9.00,22.00,-1006.00
2024-05-17 16:03:00.133015,0,0,0,0,0,0,77,79,122,110,39,192.32,359,-44.00,25.00,-1020.00
2024-05-17 16:03:00.317603,0,-1,0,0,0,0,77,79,121,110,39,192.25,359,5.00,23.00,-1002.00
2024-05-17 16:03:00.339237,0,-1,0,0,0,0,77,79,121,110,39,192.33,359,-34.00,10.00,-1018.00
2024-05-17 16:03:00.439288,-1,-1,0,0,0,0,77,79,121,110,39,192.30,359,7.00,7.00,-1027.00
2024-05-17 16:03:00.623711,0,0,0,0,0,0,77,79,121,110,39,192.23,359,-19.00,-23.00,-1012.00
2024-05-17 16:03:00.643159,0,7,0,0,0,0,77,79,123,110,39,192.33,359,-28.00,25.00,-998.00
2024-05-17 16:03:00.746269,0,7,0,0,2,0,77,79,122,110,39,192.32,359,2.00,-6.00,-991.00
2024-05-17 16:03:00.846927,0,4,0,0,3,0,77,79,122,110,39,192.31,359,-43.00,10.00,-1091.00
2024-05-17 16:03:01.035387,0,1,0,0,4,0,77,79,121,110,39,192.31,360,31.00,-27.00,-1033.00
2024-05-17 16:03:01.050864,0,-1,0,0,4,0,76,79,122,110,39,192.29,360,-7.00,-27.00,-1011.00
2024-05-17 16:03:01.238172,0,-2,0,0,3,0,76,79,123,110,39,192.31,360,-5.00,-10.00,-994.00
2024-05-17 16:03:01.254864,0,-1,0,0,2,0,76,79,122,110,39,192.39,360,-12.00,-17.00,-1022.00
2024-05-17 16:03:01.442857,0,0,0,0,2,0,76,79,123,110,39,192.34,360,7.00,-14.00,-1006.00
2024-05-17 16:03:01.458807,0,0,0,0,2,0,76,79,123,110,39,192.39,360,13.00,19.00,-1045.00
2024-05-17 16:03:01.647669,0,0,0,0,2,0,76,79,124,110,39,192.36,360,0.00,-5.00,-1007.00
2024-05-17 16:03:01.662914,0,0,0,0,2,0,76,79,125,110,39,192.34,360,0.00,-19.00,-1011.00
2024-05-17 16:03:01.852366,0,0,0,0,2,0,76,79,125,110,39,192.48,360,-10.00,-11.00,-955.00
2024-05-17 16:03:01.866738,0,0,0,0,3,0,76,79,126,110,38,192.37,360,-3.00,0.00,-1056.00
2024-05-17 16:03:02.057576,0,0,0,0,2,0,76,79,125,110,38,192.40,361,20.00,-16.00,-948.00
2024-05-17 16:03:02.070776,0,0,0,0,2,0,77,80,125,110,38,192.39,361,-47.00,19.00,-948.00
2024-05-17 16:03:02.262033,0,-1,0,0,2,0,77,80,126,110,38,192.34,361,-20.00,18.00,-1081.00
2024-05-17 16:03:02.274812,0,-5,0,0,2,0,77,80,125,110,38,192.39,361,-4.00,-1.00,-991.00
2024-05-17 16:03:02.467055,0,-4,0,0,1,0,77,80,127,110,38,192.39,361,8.00,3.00,-1023.00
2024-05-17 16:03:02.478836,0,-2,0,0,0,0,77,80,126,110,38,192.35,361,4.00,-4.00,-1031.00
2024-05-17 16:03:02.674621,0,-1,0,0,0,0,77,80,125,110,38,192.36,361,10.00,25.00,-1006.00
2024-05-17 16:03:02.683454,-1,0,0,0,0,0,77,80,125,110,38,192.36,361,8.00,18.00,-950.00
2024-05-17 16:03:02.876559,0,0,0,0,0,0,77,80,125,110,38,192.32,361,16.00,-1.00,-1038.00
2024-05-17 16:03:02.876800,0,-1,0,0,0,0,77,80,125,110,38,192.29,361,4.00,3.00,-989.00
2024-05-17 16:03:02.937639,0,-1,0,0,0,0,77,80,125,110,38,192.38,362,22.00,-19.00,-1005.00
2024-05-17 16:03:03.083541,0,-1,0,0,0,0,76,79,125,110,38,192.32,362,-33.00,7.00,-982.00
2024-05-17 16:03:03.141572,0,0,0,0,0,0,76,79,124,110,38,192.35,362,-31.00,19.00,-960.00
2024-05-17 16:03:03.286245,0,0,0,0,0,0,76,79,125,110,38,192.29,362,-35.00,19.00,-980.00
2024-05-17 16:03:03.345606,0,0,0,0,0,0,76,79,125,110,38,192.36,362,-5.00,20.00,-1002.00
2024-05-17 16:03:03.490910,-1,0,0,0,0,0,76,79,126,110,38,192.37,362,0.00,12.00,-1043.00
2024-05-17 16:03:03.549623,0,0,0,0,0,0,76,79,126,110,38,192.39,362,-4.00,-7.00,-1007.00
2024-05-17 16:03:03.695722,0,0,0,0,0,0,76,79,126,110,38,192.34,362,-33.00,3.00,-1002.00
2024-05-17 16:03:03.753536,0,0,0,0,0,0,76,79,126,110,38,192.37,362,1.00,-10.00,-996.00
2024-05-17 16:03:03.859649,0,0,0,0,0,0,76,79,127,110,38,192.39,362,-27.00,8.00,-979.00
2024-05-17 16:03:03.957748,0,0,0,0,0,0,76,79,127,110,38,192.39,363,-4.00,2.00,-978.00
2024-05-17 16:03:04.062513,0,0,0,0,0,0,76,79,128,110,38,192.34,363,-8.00,-10.00,-973.00
2024-05-17 16:03:04.161717,0,0,0,0,0,0,76,79,128,110,38,192.36,363,-26.00,-5.00,-1019.00
2024-05-17 16:03:04.263594,0,0,0,0,0,0,76,79,128,110,38,192.41,363,39.00,-2.00,-947.00
2024-05-17 16:03:04.365593,0,0,0,0,0,0,76,79,128,110,38,192.44,363,55.00,-32.00,-1027.00
2024-05-17 16:03:04.471743,0,0,0,0,0,0,76,79,128,110,38,192.44,363,-8.00,7.00,-949.00
2024-05-17 16:03:04.570493,0,0,0,0,0,0,76,79,128,110,38,192.43,363,-42.00,-12.00,-1003.00
2024-05-17 16:03:04.672129,0,0,2,0,0,0,76,79,128,110,38,192.35,363,26.00,-18.00,-988.00
2024-05-17 16:03:04.773583,0,0,8,0,0,0,76,79,127,110,38,192.36,363,9.00,-19.00,-1044.00
2024-05-17 16:03:04.924556,0,0,14,0,0,0,76,79,127,110,38,192.35,363,1.00,-12.00,-981.00
2024-05-17 16:03:04.977512,0,0,20,0,0,0,76,79,127,110,38,192.33,364,-6.00,9.00,-1033.00
2024-05-17 16:03:05.082646,0,0,26,0,0,0,76,78,128,110,38,192.44,364,5.00,6.00,-1041.00
2024-05-17 16:03:05.181492,0,0,33,0,0,0,76,78,128,110,38,192.38,364,27.00,-1.00,-1018.00
2024-05-17 16:03:05.283333,0,0,39,0,0,0,76,78,127,110,38,192.39,364,32.00,14.00,-953.00
2024-05-17 16:03:05.385701,0,-1,45,0,0,0,76,78,127,110,38,192.39,364,29.00,9.00,-996.00
2024-05-17 16:03:05.538796,0,0,52,0,0,0,76,78,127,110,38,192.39,364,-12.00,17.00,-982.00
2024-05-17 16:03:05.589440,0,0,58,0,0,0,76,78,127,110,38,192.37,364,13.00,-6.00,-1027.00
2024-05-17 16:03:05.691619,0,0,64,0,0,0,76,78,127,110,38,192.33,364,-15.00,12.00,-980.00
2024-05-17 16:03:05.845996,0,0,70,0,0,0,76,78,126,110,37,192.36,364,21.00,-7.00,-984.00
2024-05-17 16:03:05.895380,0,0,77,0,0,0,76,78,126,110,37,192.38,364,1.00,8.00,-1031.00
2024-05-17 16:03:06.055166,0,0,83,0,0,0,76,78,125,110,37,192.36,365,-12.00,7.00,-1047.00
2024-05-17 16:03:06.099315,0,0,89,0,0,0,76,78,125,110,37,192.33,365,24.00,-21.00,-1002.00
2024-05-17 16:03:06.259640,0,0,95,0,0,0,76,78,124,110,37,192.37,365,-27.00,16.00,-987.00
2024-05-17 16:03:06.303537,0,0,102,0,0,0,76,78,124,110,37,192.32,365,24.00,7.00,-1013.00
2024-05-17 16:03:06.461352,0,0,108,0,0,0,76,78,124,110,37,192.28,365,-6.00,-9.00,-1021.00
2024-05-17 16:03:06.507499,0,0,114,0,0,0,76,78,124,110,37,192.35,365,11.00,-21.00,-974.00
2024-05-17 16:03:06.670396,0,0,120,0,0,0,76,78,124,110,37,192.31,365,-5.00,-8.00,-966.00
2024-05-17 16:03:06.711272,0,0,126,0,0,0,76,78,123,110,37,192.36,365,6.00,-21.00,-972.00
2024-05-17 16:03:06.763683,0,0,131,0,0,0,76,78,124,110,37,192.37,365,4.00,-16.00,-1004.00
2024-05-17 16:03:06.870967,0,0,137,0,0,0,76,78,124,110,37,192.36,365,34.00,-15.00,-990.00
2024-05-17 16:03:06.966874,0,0,143,0,0,0,76,78,124,110,37,192.30,366,12.00,-8.00,-1032.00
2024-05-17 16:03:07.077561,0,0,149,0,0,0,76,78,125,110,37,192.29,366,12.00,-13.00,-943.00
2024-05-17 16:03:07.170519,0,0,155,0,0,0,76,78,125,110,37,192.29,366,-40.00,14.00,-995.00
2024-05-17 16:03:07.273335,0,0,161,0,0,0,76,78,125,110,37,192.37,366,26.00,-50.00,-1030.00
2024-05-17 16:03:07.381918,0,0,167,0,0,0,76,78,125,110,37,192.31,366,-7.00,-18.00,-974.00
2024-05-17 16:03:07.478400,0,0,173,0,0,0,76,78,125,110,37,192.32,366,-30.00,-23.00,-998.00
2024-05-17 16:03:07.578848,0,0,-179,0,0,0,76,78,125,110,37,192.33,366,23.00,-18.00,-1014.00
2024-05-17 16:03:07.690174,0,0,-173,0,0,0,76,78,125,110,37,192.34,366,0.00,-13.00,-1001.00
2024-05-17 16:03:07.785475,0,0,-167,0,0,0,76,78,126,110,37,192.31,366,-18.00,4.00,-1030.00
2024-05-17 16:03:07.885864,0,0,-161,0,0,0,76,78,126,110,37,192.26,366,-30.00,0.00,-1025.00
2024-05-17 16:03:07.987134,0,0,-155,0,0,0,76,78,125,110,37,192.32,367,-33.00,-4.00,-994.00
2024-05-17 16:03:08.090421,0,0,-149,0,0,0,75,79,125,110,37,192.37,367,-32.00,7.00,-974.00
2024-05-17 16:03:08.190845,0,0,-142,0,0,0,75,79,125,110,37,192.34,367,-27.00,0.00,-1018.00
2024-05-17 16:03:08.292494,0,0,-136,0,0,0,75,79,125,110,37,192.26,367,-27.00,-3.00,-995.00
2024-05-17 16:03:08.408563,0,0,-130,0,0,0,75,79,125,110,37,192.35,367,24.00,-1.00,-943.00
2024-05-17 16:03:08.496439,0,0,-124,0,0,0,75,79,124,110,37,192.30,367,-32.00,22.00,-1003.00
2024-05-17 16:03:08.598584,0,0,-118,0,0,0,75,79,124,110,37,192.41,367,-19.00,11.00,-1020.00
2024-05-17 16:03:08.713706,0,0,-111,0,0,0,75,79,124,110,37,192.36,367,-21.00,4.00,-1008.00
2024-05-17 16:03:08.804217,0,0,-105,0,0,0,75,79,124,110,37,192.38,367,-18.00,19.00,-1023.00
2024-05-17 16:03:08.904396,0,0,-99,0,0,0,75,79,125,110,37,192.40,367,-2.00,-10.00,-994.00
2024-05-17 16:03:09.007106,0,0,-93,0,0,0,75,79,125,110,37,192.42,368,1.00,-6.00,-994.00
2024-05-17 16:03:09.108445,0,0,-87,0,0,0,76,78,124,110,37,192.39,368,-32.00,27.00,-1037.00
2024-05-17 16:03:09.227257,0,0,-81,0,0,0,76,78,124,110,37,192.37,368,-26.00,-1.00,-984.00
2024-05-17 16:03:09.312472,0,0,-75,0,0,0,76,78,124,110,37,192.35,368,-13.00,6.00,-1030.00
2024-05-17 16:03:09.431609,0,0,-69,0,0,0,76,78,123,110,37,192.32,368,6.00,-27.00,-1029.00
2024-05-17 16:03:09.516419,0,0,-63,0,0,0,76,78,123,110,37,192.32,368,-48.00,19.00,-1006.00
2024-05-17 16:03:09.637678,0,0,-58,0,0,0,76,78,123,110,37,192.33,368,20.00,26.00,-950.00
2024-05-17 16:03:09.720392,0,0,-52,0,0,0,76,78,123,110,37,192.34,368,31.00,-9.00,-1029.00
2024-05-17 16:03:09.840898,0,0,-46,0,0,0,76,78,123,110,36,192.33,368,-19.00,11.00,-983.00
2024-05-17 16:03:09.924358,0,0,-40,0,0,0,76,78,122,110,36,192.32,368,-21.00,38.00,-980.00
2024-05-17 16:03:10.044287,0,0,-34,0,0,0,76,78,122,110,36,192.34,369,-36.00,28.00,-1000.00
2024-05-17 16:03:10.128936,0,0,-23,0,0,0,76,79,122,110,36,192.34,369,26.00,-11.00,-983.00
2024-05-17 16:03:10.250246,0,0,-18,0,0,0,76,79,123,110,36,192.31,369,11.00,22.00,-1050.00
2024-05-17 16:03:10.332767,0,0,-14,0,0,0,76,79,122,110,36,192.35,369,-27.00,-1.00,-970.00
2024-05-17 16:03:10.453884,0,0,-11,0,0,0,76,79,123,110,36,192.36,369,-5.00,3.00,-961.00
2024-05-17 16:03:10.536363,0,0,-8,0,0,0,76,79,123,110,36,192.37,369,0.00,0.00,-1044.00
2024-05-17 16:03:10.659574,0,0,-6,0,0,0,76,79,123,110,36,192.33,369,4.00,16.00,-980.00
2024-05-17 16:03:10.740749,0,0,-5,0,0,0,76,79,122,110,36,192.35,369,5.00,-10.00,-989.00
2024-05-17 16:03:10.865197,0,0,-4,0,0,0,76,79,122,110,36,192.30,369,-22.00,13.00,-1002.00
2024-05-17 16:03:10.944868,0,0,-3,0,0,0,76,79,122,110,36,192.34,370,-11.00,-19.00,-1009.00
2024-05-17 16:03:11.068925,0,0,-2,0,0,0,76,79,122,110,36,192.34,370,-31.00,11.00,-989.00
2024-05-17 16:03:11.156781,0,0,-2,0,0,0,75,79,122,110,36,192.22,370,-6.00,13.00,-1018.00
2024-05-17 16:03:11.250432,0,0,-2,0,0,0,75,79,122,110,36,192.25,370,-15.00,-7.00,-1029.00
2024-05-17 16:03:11.376083,0,0,-2,0,0,0,75,79,122,110,36,192.24,370,1.00,5.00,-1004.00
2024-05-17 16:03:11.403274,0,0,-2,0,0,0,75,79,121,110,36,192.32,370,-39.00,0.00,-992.00
2024-05-17 16:03:11.580703,0,0,-2,0,0,0,75,79,121,110,36,192.30,370,32.00,-9.00,-987.00
2024-05-17 16:03:11.607251,0,0,-2,0,0,0,75,79,121,110,36,192.31,370,27.00,-18.00,-1000.00
2024-05-17 16:03:11.785432,0,0,-2,0,0,0,75,79,121,110,36,192.30,370,-3.00,-21.00,-968.00
2024-05-17 16:03:11.832772,0,0,-2,0,0,0,75,79,121,110,36,192.30,370,-6.00,7.00,-977.00
2024-05-17 16:03:11.916632,0,0,-2,0,0,0,75,79,121,110,36,192.34,371,22.00,8.00,-964.00
2024-05-17 16:03:12.017088,0,-1,-2,0,0,0,75,79,121,110,36,192.33,371,28.00,-18.00,-1080.00
2024-05-17 16:03:12.117444,0,-1,-2,0,0,0,75,78,121,110,36,192.27,371,13.00,13.00,-1025.00
2024-05-17 16:03:12.297560,0,-1,-2,0,0,0,75,78,122,110,36,192.29,371,-14.00,19.00,-984.00
2024-05-17 16:03:12.321760,0,0,-2,0,0,0,75,78,122,110,36,192.34,371,22.00,-2.00,-960.00
2024-05-17 16:03:12.503787,0,0,-2,0,0,0,75,78,122,110,36,192.29,371,-3.00,42.00,-964.00
2024-05-17 16:03:12.526628,0,-1,-2,0,0,0,75,78,122,110,36,192.28,371,10.00,4.00,-991.00
2024-05-17 16:03:12.627401,0,0,-2,0,0,0,75,78,122,110,36,192.28,371,-26.00,7.00,-982.00
2024-05-17 16:03:12.729210,0,0,-2,0,0,0,75,78,122,110,36,192.26,371,-10.00,17.00,-960.00
2024-05-17 16:03:12.911686,0,0,-2,0,0,0,75,78,122,110,35,192.29,371,24.00,28.00,-960.00
2024-05-17 16:03:12.933592,0,0,-2,0,0,0,75,78,122,110,35,192.29,372,0.00,-2.00,-1019.00
2024-05-17 16:03:13.116365,0,0,-2,0,0,0,75,78,122,110,35,192.24,372,9.00,35.00,-973.00
2024-05-17 16:03:13.141331,0,0,-2,0,0,0,76,78,123,110,35,192.28,372,-13.00,0.00,-965.00
2024-05-17 16:03:13.239667,0,0,-2,0,0,0,76,78,123,110,35,192.29,372,-11.00,23.00,-1047.00
2024-05-17 16:03:13.423664,0,0,-7,0,0,0,76,78,124,110,35,192.29,372,-23.00,12.00,-976.00
2024-05-17 16:03:13.443167,0,0,-13,0,0,0,76,78,124,110,35,192.30,372,6.00,16.00,-981.00
2024-05-17 16:03:13.628304,0,0,-19,0,0,0,76,78,124,110,35,192.28,372,-35.00,44.00,-991.00
2024-05-17 16:03:13.647068,0,0,-25,0,0,0,76,78,125,110,35,192.32,372,-1.00,-2.00,-1002.00
2024-05-17 16:03:13.836175,0,0,-31,0,0,0,76,78,126,110,35,192.35,372,-18.00,23.00,-1027.00
2024-05-17 16:03:13.850932,0,0,-37,0,0,0,76,78,126,110,35,192.30,372,-13.00,45.00,-977.00
2024-05-17 16:03:14.037898,0,0,-43,0,0,0,76,78,127,110,35,192.31,373,-4.00,-9.00,-1028.00
2024-05-17 16:03:14.055249,0,0,-49,0,0,0,76,78,128,110,35,192.35,373,-6.00,0.00,-957.00
2024-05-17 16:03:14.242702,0,0,-55,0,0,0,76,78,128,110,35,192.33,373,28.00,-46.00,-1032.00
2024-05-17 16:03:14.258991,0,0,-60,0,0,0,76,78,128,110,35,192.36,373,19.00,-8.00,-957.00
2024-05-17 16:03:14.447497,0,0,-66,0,0,0,76,78,129,110,35,192.34,373,-33.00,6.00,-949.00
2024-05-17 16:03:14.462950,0,0,-72,0,0,0,76,78,128,110,35,192.37,373,19.00,-8.00,-963.00
2024-05-17 16:03:14.654960,0,0,-78,0,0,0,76,78,128,110,35,192.40,373,-42.00,-10.00,-978.00
2024-05-17 16:03:14.666936,0,0,-84,0,0,0,76,78,129,110,35,192.32,373,-12.00,0.00,-963.00
2024-05-17 16:03:14.857084,0,0,-90,0,0,0,76,78,128,110,35,192.32,373,-25.00,10.00,-990.00
2024-05-17 16:03:14.872336,0,0,-96,0,0,0,76,78,128,110,35,192.29,373,34.00,-25.00,-1003.00
2024-05-17 16:03:14.973046,-1,0,-102,0,0,0,76,78,128,110,35,192.27,374,-11.00,4.00,-1013.00
2024-05-17 16:03:15.024124,0,0,-107,0,0,0,76,78,127,110,35,192.29,374,-25.00,-2.00,-968.00
2024-05-17 16:03:15.266587,0,0,-113,0,0,0,76,78,126,110,35,192.29,374,-37.00,-7.00,-983.00
2024-05-17 16:03:15.281808,-1,0,-119,0,0,0,76,78,126,110,35,192.26,374,-65.00,20.00,-1005.00
2024-05-17 16:03:15.330129,-1,0,-125,0,0,0,76,78,125,110,35,192.34,374,1.00,-26.00,-1020.00
2024-05-17 16:03:15.432710,-1,0,-131,0,0,0,76,78,125,110,35,192.35,374,2.00,-4.00,-967.00
2024-05-17 16:03:15.575603,0,0,-136,0,0,0,76,78,124,110,35,192.32,374,-20.00,10.00,-949.00
2024-05-17 16:03:15.636018,0,0,-142,0,0,0,76,78,124,110,35,192.30,374,-30.00,-2.00,-1063.00
2024-05-17 16:03:15.778630,0,0,-148,0,0,0,76,78,123,110,35,192.32,374,16.00,-39.00,-1020.00
2024-05-17 16:03:15.840139,0,0,-154,0,0,0,76,78,122,110,35,192.29,374,-1.00,9.00,-1005.00
2024-05-17 16:03:15.988496,0,0,-160,0,0,0,76,78,122,110,35,192.26,375,-24.00,1.00,-1006.00
2024-05-17 16:03:16.044206,0,0,-165,0,0,0,76,78,121,110,35,192.29,375,10.00,-18.00,-1012.00
2024-05-17 16:03:16.188624,0,0,-171,0,0,0,76,78,121,110,35,192.28,375,31.00,-22.00,-1042.00
2024-05-17 16:03:16.249711,0,0,-177,0,0,0,76,78,121,110,35,192.29,375,-22.00,-7.00,-1019.00
2024-05-17 16:03:16.393019,0,0,176,0,0,0,76,78,120,110,35,192.30,375,-26.00,-12.00,-1028.00
2024-05-17 16:03:16.452857,0,0,170,0,0,0,76,78,120,110,35,192.29,375,45.00,-16.00,-1020.00
2024-05-17 16:03:16.597840,0,0,164,0,0,0,76,78,120,110,35,192.27,375,-58.00,-19.00,-967.00
2024-05-17 16:03:16.656810,0,0,158,0,0,0,76,78,120,110,35,192.28,375,-17.00,-1.00,-973.00
2024-05-17 16:03:16.802937,0,0,152,0,0,0,76,78,119,110,34,192.28,375,-22.00,-10.00,-1020.00
2024-05-17 16:03:16.860986,0,0,145,0,0,0,76,78,119,110,34,192.28,375,-16.00,14.00,-984.00
2024-05-17 16:03:17.008766,0,0,139,0,0,0,76,78,119,110,34,192.31,376,-1.00,-27.00,-1012.00
2024-05-17 16:03:17.064797,0,0,133,0,0,0,76,78,119,110,34,192.29,376,1.00,-6.00,-986.00
2024-05-17 16:03:17.212159,0,0,127,0,0,0,75,78,119,110,34,192.24,376,-40.00,16.00,-1004.00
2024-05-17 16:03:17.268931,0,0,121,0,0,0,75,78,119,110,34,192.21,376,13.00,2.00,-995.00
2024-05-17 16:03:17.421517,0,0,115,0,0,0,75,78,120,110,34,192.31,376,-5.00,-19.00,-1005.00
2024-05-17 16:03:17.473526,0,0,109,0,0,0,75,78,120,110,34,192.21,376,-5.00,9.00,-977.00
2024-05-17 16:03:17.574775,0,0,103,0,0,0,75,78,119,110,34,192.28,376,17.00,2.00,-1012.00
2024-05-17 16:03:17.724204,0,0,97,0,0,0,75,78,120,110,34,192.29,376,5.00,-15.00,-973.00
2024-05-17 16:03:17.782022,0,0,91,0,0,0,75,78,120,110,34,192.27,376,15.00,-16.00,-977.00
2024-05-17 16:03:17.880803,0,0,85,0,0,0,75,78,120,110,34,192.27,376,21.00,-18.00,-984.00
2024-05-17 16:03:17.982780,0,0,78,0,0,0,75,78,119,110,34,192.34,377,-16.00,-3.00,-1001.00
2024-05-17 16:03:18.133903,0,0,72,0,0,0,75,78,119,110,34,192.27,377,0.00,9.00,-979.00
2024-05-17 16:03:18.189962,0,0,66,0,0,0,76,78,120,110,34,192.21,377,0.00,9.00,-991.00
2024-05-17 16:03:18.292953,0,0,60,0,0,0,76,78,120,110,34,192.26,377,-12.00,12.00,-1014.00
2024-05-17 16:03:18.390777,0,0,54,0,0,0,76,78,120,110,34,192.25,377,30.00,3.00,-1004.00
2024-05-17 16:03:18.543371,0,0,48,0,0,0,76,78,121,110,34,192.29,377,-23.00,28.00,-981.00
2024-05-17 16:03:18.594800,0,-1,42,0,0,0,76,78,121,110,34,192.29,377,-12.00,2.00,-995.00
2024-05-17 16:03:18.696686,0,0,36,0,0,0,76,78,122,110,34,192.32,377,-24.00,1.00,-985.00
2024-05-17 16:03:18.850616,0,0,30,0,0,0,76,78,123,110,34,192.35,377,-19.00,-5.00,-1012.00
2024-05-17 16:03:18.900684,0,0,24,0,0,0,76,78,124,110,34,192.39,377,-3.00,-11.00,-1023.00
2024-05-17 16:03:19.055360,0,0,18,0,0,0,76,78,124,110,34,192.38,378,38.00,-19.00,-995.00
2024-05-17 16:03:19.105068,0,0,13,0,0,0,76,78,126,110,34,192.41,378,-35.00,8.00,-971.00
2024-05-17 16:03:19.260132,0,0,9,0,0,0,76,77,126,110,34,192.38,378,-39.00,-11.00,-941.00
2024-05-17 16:03:19.308689,0,0,7,0,0,0,76,77,127,110,34,192.34,378,-3.00,22.00,-1016.00
2024-05-17 16:03:19.464982,0,-1,4,0,0,0,76,77,128,110,34,192.37,378,18.00,0.00,-1005.00
2024-05-17 16:03:19.465059,0,-1,3,0,0,0,76,77,129,110,34,192.37,378,-5.00,-11.00,-944.00
2024-05-17 16:03:19.563630,0,0,1,0,0,0,76,77,129,110,34,192.37,378,29.00,0.00,-994.00
2024-05-17 16:03:19.671760,0,0,0,0,0,0,76,77,130,110,34,192.36,378,-45.00,-5.00,-945.00
2024-05-17 16:03:19.767618,0,0,0,0,0,0,76,77,130,110,34,192.38,378,-5.00,-12.00,-995.00
2024-05-17 16:03:19.874710,0,0,0,0,0,0,76,77,131,110,34,192.46,378,23.00,4.00,-1032.00
2024-05-17 16:03:19.972517,0,0,-1,0,0,0,76,77,131,110,34,192.38,379,3.00,-17.00,-1051.00
2024-05-17 16:03:20.080004,0,0,-1,0,0,0,76,77,131,110,34,192.40,379,1.00,14.00,-1000.00
2024-05-17 16:03:20.175994,0,0,-1,0,0,0,75,78,132,110,34,192.39,379,19.00,0.00,-980.00
2024-05-17 16:03:20.284387,0,-1,-1,0,0,0,75,78,131,110,34,192.41,379,-24.00,31.00,-1010.00
2024-05-17 16:03:20.381712,0,-1,-1,0,0,0,75,78,130,110,34,192.38,379,-3.00,13.00,-1038.00
2024-05-17 16:03:20.489112,0,-1,-1,0,0,0,75,78,130,110,34,192.43,379,-19.00,39.00,-972.00
2024-05-17 16:03:20.587062,0,-1,-1,0,0,0,75,78,129,110,34,192.41,379,5.00,12.00,-959.00
2024-05-17 16:03:20.687112,0,-1,-1,0,0,0,75,78,129,110,34,192.37,379,0.00,13.00,-1031.00
2024-05-17 16:03:20.798715,0,0,-1,0,0,0,75,78,129,110,33,192.33,379,-32.00,15.00,-978.00
2024-05-17 16:03:20.892198,0,0,-1,0,0,0,75,78,128,110,33,192.37,379,24.00,-4.00,-1012.00
2024-05-17 16:03:20.992879,0,0,-1,0,0,0,75,78,128,110,33,192.36,380,-2.00,31.00,-1012.00
2024-05-17 16:03:21.096156,0,0,-1,0,0,0,75,78,127,110,33,192.42,380,5.00,8.00,-953.00
2024-05-17 16:03:21.198854,0,-1,-1,0,0,0,75,77,127,110,33,192.36,380,8.00,16.00,-952.00
2024-05-17 16:03:21.301416,0,-1,-1,0,0,0,75,77,127,110,33,192.34,380,15.00,6.00,-1003.00
2024-05-17 16:03:21.400817,0,-1,-1,0,0,0,75,77,125,110,33,192.41,380,3.00,4.00,-971.00
2024-05-17 16:03:21.515895,0,-1,-1,0,0,0,75,77,125,110,33,192.42,380,11.00,6.00,-1038.00
2024-05-17 16:03:21.604735,0,-1,-1,0,0,0,75,77,124,110,33,192.40,380,0.00,5.00,-1028.00
2024-05-17 16:03:21.717994,0,-1,-1,0,0,0,75,77,124,110,33,192.42,380,-21.00,14.00,-1014.00
2024-05-17 16:03:21.808616,0,0,-1,0,0,0,75,77,124,110,33,192.37,380,-4.00,2.00,-979.00
2024-05-17 16:03:21.926372,0,0,-1,0,0,0,75,77,123,110,33,192.37,380,20.00,-1.00,-1045.00
2024-05-17 16:03:22.012769,0,0,-1,0,0,0,75,77,122,110,33,192.37,381,-18.00,30.00,-983.00
2024-05-17 16:03:22.114556,0,0,-1,0,0,0,75,77,121,110,33,192.36,381,-38.00,26.00,-1023.00
2024-05-17 16:03:22.229978,0,0,-1,0,0,0,75,78,121,110,33,192.36,381,13.00,12.00,-943.00
2024-05-17 16:03:22.319500,0,0,-1,0,0,0,75,78,121,110,33,192.34,381,-5.00,24.00,-1006.00
2024-05-17 16:03:22.435088,0,0,-1,0,0,0,75,78,120,110,33,192.33,381,3.00,-3.00,-1010.00
2024-05-17 16:03:22.522683,0,0,-1,0,0,0,75,78,120,110,33,192.32,381,-2.00,4.00,-994.00
2024-05-17 16:03:22.641469,0,0,-1,0,0,0,75,78,120,110,33,192.34,381,-29.00,19.00,-965.00
2024-05-17 16:03:22.729704,0,0,-1,0,0,0,75,78,119,110,33,192.28,381,-6.00,14.00,-998.00
2024-05-17 16:03:22.830705,0,0,-1,0,0,0,75,78,119,110,33,192.34,381,20.00,-9.00,-1019.00
2024-05-17 16:03:22.930782,0,0,-1,0,0,0,75,78,118,110,33,192.35,381,-2.00,9.00,-1009.00
2024-05-17 16:03:22.981950,0,0,-1,0,0,0,75,78,119,100,33,192.32,382,17.00,-22.00,-1022.00
2024-05-17 16:03:23.151722,0,0,-1,0,0,0,75,78,119,100,33,192.29,382,-26.00,10.00,-1033.00
2024-05-17 16:03:23.236774,0,0,-1,0,0,0,75,77,119,100,33,192.32,382,-16.00,14.00,-1036.00
2024-05-17 16:03:23.288456,0,0,-1,0,0,0,75,77,120,110,33,192.39,382,8.00,-2.00,-999.00
2024-05-17 16:03:23.458689,0,0,-1,0,0,0,75,77,120,110,33,192.39,382,13.00,-21.00,-994.00
2024-05-17 16:03:23.491633,0,0,-1,0,0,0,75,77,120,110,33,192.39,382,-26.00,12.00,-1028.00
2024-05-17 16:03:23.594688,0,0,-1,0,0,0,75,77,121,110,33,192.31,382,-37.00,30.00,-1024.00
2024-05-17 16:03:23.695643,0,0,-1,0,0,0,75,77,121,110,33,192.38,382,-16.00,18.00,-977.00
2024-05-17 16:03:23.868546,0,0,-1,0,0,0,75,77,121,110,33,192.34,382,-7.00,11.00,-1000.00
2024-05-17 16:03:23.899539,0,0,-1,0,0,0,75,77,122,110,33,192.38,382,-17.00,17.00,-1013.00
2024-05-17 16:03:24.073636,0,0,-1,0,0,0,75,77,122,110,33,192.34,383,-6.00,11.00,-1009.00
2024-05-17 16:03:24.103449,0,-1,-1,0,0,0,75,77,123,110,33,192.38,383,-30.00,23.00,-973.00
2024-05-17 16:03:24.278344,0,-1,-1,0,0,0,75,78,123,110,33,192.34,383,-13.00,10.00,-1028.00
2024-05-17 16:03:24.310954,0,0,-1,0,0,0,75,78,123,110,33,192.30,383,-9.00,-8.00,-994.00
2024-05-17 16:03:24.409613,0,0,-1,0,0,0,75,78,124,110,33,192.26,383,15.00,5.00,-1012.00
2024-05-17 16:03:24.585690,0,0,-1,0,0,0,75,78,124,110,33,192.37,383,8.00,0.00,-1016.00
2024-05-17 16:03:24.613844,0,0,-1,0,0,0,75,78,124,110,33,192.37,383,20.00,6.00,-993.00
2024-05-17 16:03:24.792639,0,0,-1,0,0,0,75,78,124,110,33,192.38,383,2.00,14.00,-993.00
2024-05-17 16:03:24.822888,0,-1,-1,0,0,0,75,78,125,110,32,192.39,383,0.00,-8.00,-1001.00
2024-05-17 16:03:24.919632,0,-1,-1,0,0,0,75,78,125,110,32,192.38,383,34.00,3.00,-966.00
2024-05-17 16:03:25.097676,0,-1,-1,0,0,0,75,78,125,110,32,192.34,384,-33.00,23.00,-1035.00
2024-05-17 16:03:25.123670,0,-1,-1,0,0,0,75,78,125,110,32,192.28,384,-29.00,9.00,-972.00
2024-05-17 16:03:25.226709,0,0,-1,0,0,0,75,78,125,110,32,192.36,384,12.00,28.00,-981.00
2024-05-17 16:03:25.328099,0,0,-1,0,0,0,75,78,125,110,32,192.39,384,12.00,24.00,-1030.00
2024-05-17 16:03:25.506608,0,0,-1,0,0,0,75,78,125,110,32,192.29,384,14.00,8.00,-964.00
2024-05-17 16:03:25.531583,0,0,-1,0,0,0,75,78,125,110,32,192.34,384,2.00,19.00,-1000.00
2024-05-17 16:03:25.712031,0,0,-1,0,0,0,75,78,125,110,32,192.38,384,14.00,0.00,-1043.00
2024-05-17 16:03:25.737376,0,0,-1,0,0,0,75,78,125,110,32,192.32,384,36.00,22.00,-987.00
2024-05-17 16:03:25.837878,0,0,-1,0,0,0,75,78,125,110,32,192.35,384,28.00,-11.00,-1022.00
2024-05-17 16:03:26.021737,0,0,-1,0,0,0,75,78,124,110,32,192.27,385,0.00,17.00,-979.00
2024-05-17 16:03:26.042066,0,0,-1,0,0,0,75,78,124,110,32,192.30,385,-6.00,-11.00,-998.00
2024-05-17 16:03:26.143704,0,0,-1,0,0,0,75,78,124,110,32,192.36,385,12.00,-1.00,-1002.00
2024-05-17 16:03:26.325873,0,0,-1,0,0,0,75,77,124,110,32,192.29,385,18.00,0.00,-1018.00
2024-05-17 16:03:26.347617,0,0,-1,0,0,0,75,77,124,110,32,192.35,385,-16.00,-6.00,-968.00
2024-05-17 16:03:26.530730,0,0,-1,0,0,0,75,77,123,110,32,192.27,385,15.00,3.00,-982.00
2024-05-17 16:03:26.551636,0,0,-1,0,0,0,75,77,123,110,32,192.32,385,6.00,13.00,-965.00
2024-05-17 16:03:26.653562,0,0,-1,0,0,0,75,77,122,110,32,192.33,385,22.00,-8.00,-980.00
2024-05-17 16:03:26.838017,0,0,-1,0,0,0,75,77,121,110,32,192.34,385,-27.00,9.00,-999.00
2024-05-17 16:03:26.838196,0,0,-1,0,0,0,75,77,120,110,32,192.31,385,-30.00,18.00,-1046.00
2024-05-17 16:03:26.908504,0,0,-1,0,0,0,75,77,118,110,32,192.31,386,0.00,32.00,-1047.00
2024-05-17 16:03:27.045092,0,0,-1,0,0,0,75,77,118,100,32,192.31,386,9.00,-5.00,-972.00
2024-05-17 16:03:27.112677,0,0,-1,0,0,0,75,77,116,100,32,192.22,386,-6.00,26.00,-1031.00
2024-05-17 16:03:27.250859,0,0,-1,0,0,0,75,78,116,100,32,192.22,386,33.00,-8.00,-951.00
2024-05-17 16:03:27.322974,0,0,-1,0,0,0,75,78,115,100,32,192.30,386,2.00,3.00,-1032.00
2024-05-17 16:03:27.418512,0,0,-1,0,0,0,75,78,115,100,32,192.21,386,22.00,4.00,-1000.00
2024-05-17 16:03:27.556819,0,0,-1,0,0,0,75,78,114,100,32,192.23,386,15.00,-11.00,-1038.00
2024-05-17 16:03:27.623816,0,0,-1,0,0,0,75,78,114,100,32,192.24,386,3.00,0.00,-997.00
2024-05-17 16:03:27.726186,0,0,-1,0,0,0,75,78,114,100,32,192.23,386,21.00,-5.00,-1009.00
2024-05-17 16:03:27.826744,0,0,-1,0,0,0,75,78,114,100,31,192.21,386,18.00,-10.00,-1027.00
2024-05-17 16:03:27.929519,0,0,-1,0,0,0,75,78,115,100,31,192.24,387,-30.00,23.00,-1013.00
2024-05-17 16:03:28.072458,0,0,-1,0,0,0,75,78,116,100,31,192.13,387,17.00,-6.00,-1057.00
2024-05-17 16:03:28.135736,0,0,-1,0,0,0,75,78,117,100,31,192.28,387,28.00,6.00,-969.00
2024-05-17 16:03:28.234382,0,0,-1,0,0,0,75,78,117,100,31,192.25,387,0.00,8.00,-1014.00
2024-05-17 16:03:28.338743,0,0,-1,0,0,0,75,78,118,100,31,192.25,387,-35.00,14.00,-1008.00
2024-05-17 16:03:28.442633,0,0,-1,0,0,0,75,78,118,100,31,192.26,387,-23.00,6.00,-1000.00
2024-05-17 16:03:28.543065,0,0,-1,0,0,0,75,78,119,100,31,192.26,387,37.00,-12.00,-987.00
2024-05-17 16:03:28.644040,0,0,-1,0,0,0,75,78,119,100,31,192.34,387,37.00,11.00,-945.00
2024-05-17 16:03:28.744654,0,0,-1,0,0,0,75,78,120,110,31,192.31,387,13.00,-2.00,-995.00
2024-05-17 16:03:28.846769,0,0,-1,0,0,0,75,78,120,110,31,192.24,387,-37.00,-3.00,-961.00
2024-05-17 16:03:28.988247,0,0,-1,0,0,0,75,78,121,110,31,192.32,388,10.00,-4.00,-983.00
2024-05-17 16:03:29.050351,0,0,-1,0,0,0,75,78,122,110,31,192.33,388,13.00,-6.00,-967.00
2024-05-17 16:03:29.193636,0,0,-1,0,0,0,75,78,123,110,31,192.40,388,0.00,1.00,-978.00
2024-05-17 16:03:29.254289,0,0,-1,0,0,0,75,77,123,110,31,192.35,388,-11.00,28.00,-1000.00
2024-05-17 16:03:29.356347,0,0,-1,0,0,0,75,77,123,110,31,192.38,388,-14.00,0.00,-1035.00
2024-05-17 16:03:29.500198,0,0,-1,0,0,0,75,77,124,110,31,192.39,388,-3.00,11.00,-954.00
2024-05-17 16:03:29.560344,0,0,-1,0,0,0,75,77,124,110,31,192.36,388,-26.00,0.00,-923.00
2024-05-17 16:03:29.705187,0,0,-1,0,0,0,75,77,123,110,31,192.30,388,-35.00,3.00,-1001.00
2024-05-17 16:03:29.764279,-1,0,-1,0,0,0,75,77,122,110,31,192.36,388,-6.00,23.00,-963.00
2024-05-17 16:03:29.866423,0,0,-1,0,0,0,75,77,121,110,31,192.38,388,-24.00,9.00,-965.00
2024-05-17 16:03:30.012240,-1,0,-1,0,0,0,75,77,121,110,31,192.29,389,-45.00,21.00,-1001.00
2024-05-17 16:03:30.070352,-1,-1,-1,0,0,0,75,77,120,110,31,192.31,389,28.00,3.00,-1037.00
2024-05-17 16:03:30.217029,0,0,-1,0,0,0,75,77,120,110,31,192.39,389,1.00,10.00,-1064.00
2024-05-17 16:03:30.274284,0,0,-1,0,0,0,75,77,120,110,31,192.36,389,-19.00,6.00,-1013.00
2024-05-17 16:03:30.377778,0,0,-1,0,0,0,75,77,120,110,31,192.37,389,-5.00,-13.00,-1088.00
2024-05-17 16:03:30.478588,0,0,-1,0,0,0,75,77,120,110,31,192.38,389,-16.00,1.00,-946.00
2024-05-17 16:03:30.580386,0,0,-1,0,0,0,75,77,120,110,31,192.37,389,-50.00,20.00,-1028.00
2024-05-17 16:03:30.682331,-1,0,-1,0,0,0,75,77,121,110,31,192.35,389,-68.00,25.00,-1035.00
2024-05-17 16:03:30.784913,0,0,-1,0,0,0,75,77,120,110,31,192.41,389,-27.00,39.00,-1033.00
2024-05-17 16:03:30.835293,0,0,-1,0,0,0,75,77,120,110,31,192.36,389,10.00,-24.00,-1022.00
2024-05-17 16:03:30.937714,0,0,-1,0,0,0,75,77,121,110,31,192.35,390,11.00,8.00,-950.00
2024-05-17 16:03:31.138562,0,0,-1,0,0,0,75,77,121,110,31,192.34,390,21.00,-24.00,-1001.00
2024-05-17 16:03:31.141677,0,0,-1,0,0,0,75,77,122,110,31,192.35,390,-16.00,12.00,-1038.00
2024-05-17 16:03:31.243500,0,0,-1,0,0,0,75,77,122,110,31,192.34,390,16.00,-5.00,-1034.00
2024-05-17 16:03:31.345546,0,0,-1,0,0,0,75,77,122,110,31,192.36,390,34.00,-23.00,-996.00
2024-05-17 16:03:31.447253,0,0,-1,0,0,0,75,77,122,110,31,192.47,390,15.00,3.00,-952.00
2024-05-17 16:03:31.550801,0,0,-1,0,0,0,75,77,123,110,31,192.37,390,-3.00,3.00,-974.00
2024-05-17 16:03:31.653529,0,0,-1,0,0,0,75,77,123,110,31,192.37,390,-4.00,17.00,-986.00
2024-05-17 16:03:31.753518,0,0,-1,0,0,0,75,77,123,110,31,192.36,390,49.00,-21.00,-975.00
2024-05-17 16:03:31.855630,0,0,-1,0,0,0,75,77,123,110,31,192.28,390,-14.00,13.00,-1001.00
2024-05-17 16:03:31.957760,0,0,-1,0,0,0,75,77,123,110,31,192.40,391,18.00,14.00,-972.00
2024-05-17 16:03:32.060460,0,0,-1,0,0,0,75,77,123,110,31,192.37,391,-16.00,39.00,-997.00
2024-05-17 16:03:32.163681,0,0,-1,0,0,0,75,77,123,110,31,192.40,391,-32.00,23.00,-998.00
2024-05-17 16:03:32.263569,0,-1,-1,0,0,0,74,77,124,110,31,192.42,391,-54.00,56.00,-1009.00
2024-05-17 16:03:32.365183,0,-1,-1,0,0,0,74,77,124,110,31,192.41,391,6.00,21.00,-974.00
2024-05-17 16:03:32.470279,0,-1,-1,0,0,0,74,77,125,110,31,192.37,391,-48.00,38.00,-1027.00
2024-05-17 16:03:32.569052,0,-1,-1,0,0,0,74,77,126,110,31,192.39,391,-9.00,17.00,-980.00
2024-05-17 16:03:32.678437,0,0,-1,0,0,0,74,77,127,110,31,192.45,391,-39.00,42.00,-987.00
2024-05-17 16:03:32.773666,0,0,-1,0,0,0,74,77,127,110,30,192.51,391,8.00,33.00,-1008.00
2024-05-17 16:03:32.879420,0,-1,-1,0,0,0,74,77,128,110,30,192.49,391,-6.00,33.00,-1010.00
2024-05-17 16:03:32.977156,0,0,-1,0,0,0,74,77,128,110,30,192.43,392,8.00,28.00,-944.00
2024-05-17 16:03:33.084174,0,0,-1,0,0,0,74,77,129,110,30,192.42,392,-4.00,14.00,-1009.00
2024-05-17 16:03:33.181571,0,-1,-1,0,0,0,74,77,129,110,30,192.41,392,26.00,10.00,-998.00
2024-05-17 16:03:33.289309,0,0,-1,0,0,0,75,78,129,110,30,192.45,392,12.00,13.00,-987.00
2024-05-17 16:03:33.385462,0,-1,-1,0,0,0,75,78,129,110,30,192.43,392,42.00,-3.00,-995.00
2024-05-17 16:03:33.493763,0,-1,-1,0,0,0,75,78,129,110,30,192.42,392,-1.00,14.00,-1012.00
2024-05-17 16:03:33.592367,0,-1,-1,0,0,0,75,78,128,110,30,192.44,392,50.00,-4.00,-978.00
2024-05-17 16:03:33.691323,0,-1,-1,0,0,0,75,78,127,110,30,192.43,392,1.00,22.00,-1010.00
2024-05-17 16:03:33.802295,0,0,-1,0,0,0,75,78,127,110,30,192.40,392,41.00,0.00,-950.00
2024-05-17 16:03:33.895670,0,0,-1,0,0,0,75,78,126,110,30,192.40,392,13.00,0.00,-1026.00
2024-05-17 16:03:33.996935,0,0,-1,0,0,0,75,78,125,110,30,192.36,393,-16.00,26.00,-965.00
2024-05-17 16:03:34.098976,0,0,-1,0,0,0,75,78,125,110,30,192.40,393,0.00,5.00,-1034.00
2024-05-17 16:03:34.210526,0,-1,-1,0,0,0,75,78,124,110,30,192.34,393,3.00,26.00,-1028.00
2024-05-17 16:03:34.302866,0,-1,-1,0,0,0,74,77,124,110,30,192.38,393,-10.00,26.00,-972.00
2024-05-17 16:03:34.415273,0,-1,-1,0,0,0,74,77,124,110,30,192.43,393,18.00,2.00,-971.00
