TS,pitch,roll,yaw,vgx,vgy,vgz,templ,temph,tof,h,bat,baro,time,agx,agy,agz
2024-05-19 08:40:35.490582,0,0,0,0,0,0,68,71,10,0,92,131.73,0,-3.00,9.00,-998.00
2024-05-19 08:40:35.566248,0,0,0,0,0,0,68,71,10,0,92,131.77,0,-3.00,8.00,-999.00
2024-05-19 08:40:35.689445,0,0,0,0,0,0,68,71,10,0,92,131.72,0,-1.00,10.00,-1003.00
2024-05-19 08:40:35.770219,0,0,0,0,0,0,68,71,10,0,92,131.70,0,-3.00,8.00,-998.00
2024-05-19 08:40:35.899866,0,0,0,0,0,0,68,71,10,0,92,131.73,0,-3.00,9.00,-1003.00
2024-05-19 08:40:35.974173,0,0,0,0,0,0,68,71,10,0,92,131.75,0,-3.00,8.00,-998.00
2024-05-19 08:40:36.104706,0,0,0,0,0,0,68,71,10,0,92,131.76,0,-4.00,7.00,-1000.00
2024-05-19 08:40:36.178269,0,0,0,0,0,0,68,71,10,0,92,131.76,0,-3.00,8.00,-1000.00
2024-05-19 08:40:36.309504,0,0,0,0,0,0,68,71,10,0,92,131.74,0,-4.00,7.00,-999.00
2024-05-19 08:40:36.382329,0,0,0,0,0,0,68,71,10,0,92,131.75,0,-4.00,9.00,-1000.00
2024-05-19 08:40:36.514586,0,0,0,0,0,0,68,71,10,0,92,131.72,0,-3.00,9.00,-1001.00
2024-05-19 08:40:36.586209,0,0,0,0,0,0,69,71,10,0,92,131.73,0,-5.00,9.00,-999.00
2024-05-19 08:40:36.719080,0,0,0,0,0,0,69,71,10,0,92,131.72,0,-3.00,9.00,-999.00
2024-05-19 08:40:36.790294,0,0,0,0,0,0,69,71,10,0,92,131.71,0,-3.00,7.00,-1001.00
2024-05-19 08:40:36.923927,0,0,0,0,0,0,69,71,10,0,92,131.76,0,-3.00,9.00,-998.00
2024-05-19 08:40:36.994294,0,0,0,0,0,0,69,71,10,0,92,131.75,0,-2.00,8.00,-999.00
2024-05-19 08:40:37.128619,0,0,0,0,0,0,69,71,10,0,92,131.79,0,-3.00,8.00,-1001.00
2024-05-19 08:40:37.198148,0,0,0,0,0,0,69,71,10,0,92,131.76,0,-3.00,8.00,-998.00
2024-05-19 08:40:37.333528,0,0,0,0,0,0,69,71,10,0,92,131.75,0,-2.00,9.00,-998.00
2024-05-19 08:40:37.402185,0,0,0,0,0,0,69,71,10,0,92,131.72,0,-3.00,8.00,-998.00
2024-05-19 08:40:37.538521,0,0,0,0,0,0,69,71,10,0,92,131.70,0,-3.00,9.00,-1001.00
2024-05-19 08:40:37.606233,0,0,0,0,0,0,68,71,10,0,92,131.74,0,-4.00,8.00,-999.00
2024-05-19 08:40:37.743177,0,0,0,0,0,0,68,71,10,0,92,131.75,0,-5.00,7.00,-1000.00
2024-05-19 08:40:37.810159,0,0,0,0,0,0,68,71,10,0,92,131.74,0,-3.00,10.00,-997.00
2024-05-19 08:40:37.912158,0,0,0,0,0,0,68,71,10,0,92,131.73,0,-5.00,7.00,-998.00
2024-05-19 08:40:38.050502,0,0,0,0,0,0,68,71,10,0,92,131.70,0,-2.00,8.00,-999.00
2024-05-19 08:40:38.065124,0,0,0,0,0,0,68,71,10,0,92,131.74,0,-5.00,8.00,-1001.00
2024-05-19 08:40:38.254833,0,0,0,0,0,0,68,71,10,0,92,131.75,0,-3.00,8.00,-1001.00
2024-05-19 08:40:38.269024,0,0,0,0,0,0,68,71,10,0,92,131.78,0,-4.00,8.00,-999.00
2024-05-19 08:40:38.371264,0,0,0,0,0,0,68,71,10,0,92,131.78,0,-3.00,6.00,-1000.00
2024-05-19 08:40:38.562335,0,0,0,0,0,0,68,71,10,0,92,131.72,0,-2.00,8.00,-1002.00
2024-05-19 08:40:38.575110,0,0,0,0,0,0,69,70,10,0,92,131.71,0,-4.00,6.00,-997.00
2024-05-19 08:40:38.767648,0,0,0,0,0,0,69,70,10,0,92,131.74,0,-3.00,7.00,-998.00
2024-05-19 08:40:38.779451,0,0,0,0,0,0,69,70,10,0,92,131.81,0,-2.00,8.00,-1001.00
2024-05-19 08:40:38.971914,0,0,0,0,0,0,69,70,10,0,92,131.77,0,-3.00,8.00,-1001.00
2024-05-19 08:40:38.983110,0,0,0,0,0,0,69,70,10,0,92,131.75,0,-3.00,7.00,-1000.00
2024-05-19 08:40:39.176696,0,0,0,0,0,0,69,70,10,0,92,131.83,0,-4.00,7.00,-1000.00
2024-05-19 08:40:39.187513,0,0,0,0,0,0,69,70,10,0,92,131.82,0,-4.00,9.00,-1000.00
2024-05-19 08:40:39.381324,0,0,0,0,0,0,69,70,10,0,92,131.81,0,-4.00,8.00,-1000.00
2024-05-19 08:40:39.391089,0,0,0,0,0,0,69,70,10,0,92,131.80,0,-2.00,8.00,-999.00
2024-05-19 08:40:39.586345,0,0,0,0,0,0,69,70,10,0,92,131.78,0,-4.00,8.00,-1001.00
2024-05-19 08:40:39.595095,0,0,0,0,0,0,70,71,10,0,92,131.77,0,-3.00,9.00,-1000.00
2024-05-19 08:40:39.791050,0,0,0,0,0,0,70,71,10,0,92,131.82,0,-3.00,8.00,-1002.00
2024-05-19 08:40:39.799339,0,0,0,0,0,0,70,71,10,0,92,131.80,0,-4.00,8.00,-999.00
2024-05-19 08:40:39.995957,0,0,0,0,0,0,70,71,10,0,92,131.78,0,-4.00,7.00,-1001.00
2024-05-19 08:40:40.002888,0,0,0,0,0,0,70,71,10,0,92,131.78,0,-3.00,8.00,-999.00
2024-05-19 08:40:40.200724,0,0,0,0,0,0,70,71,10,0,92,131.81,0,-3.00,9.00,-998.00
2024-05-19 08:40:40.207534,0,0,0,0,0,0,70,71,10,0,92,131.77,0,-3.00,7.00,-1000.00
2024-05-19 08:40:40.309052,0,0,0,0,0,0,70,71,10,0,92,131.82,0,-3.00,9.00,-998.00
2024-05-19 08:40:40.507825,0,0,0,0,0,0,70,71,10,0,92,131.79,0,-6.00,8.00,-999.00
2024-05-19 08:40:40.513010,0,0,0,0,0,0,70,71,10,0,92,131.70,0,-2.00,10.00,-996.00
2024-05-19 08:40:40.712670,0,0,0,0,0,0,69,71,10,0,92,131.78,0,-3.00,9.00,-999.00
2024-05-19 08:40:40.717036,0,0,0,0,0,0,69,71,10,0,92,131.78,0,-2.00,7.00,-997.00
2024-05-19 08:40:40.848685,0,0,0,0,0,0,69,71,10,0,92,131.81,0,-5.00,10.00,-998.00
2024-05-19 08:40:40.920997,0,0,0,0,0,0,69,71,10,0,92,131.78,0,-2.00,7.00,-998.00
2024-05-19 08:40:41.023027,0,0,0,0,0,0,69,71,10,0,92,131.73,0,-5.00,9.00,-1000.00
2024-05-19 08:40:41.125136,0,0,0,0,0,0,69,71,10,0,92,131.82,0,-5.00,7.00,-999.00
2024-05-19 08:40:41.227429,0,0,0,0,0,0,69,71,10,0,92,131.79,0,-3.00,8.00,-999.00
2024-05-19 08:40:41.329280,0,0,0,0,0,0,69,71,10,0,92,131.79,0,-2.00,9.00,-1001.00
2024-05-19 08:40:41.380041,0,0,0,0,0,0,69,71,10,0,92,131.82,0,-4.00,8.00,-1001.00
2024-05-19 08:40:41.531708,0,0,0,0,0,0,69,71,10,0,92,131.79,0,6.00,24.00,-1004.00
2024-05-19 08:40:41.583750,0,0,0,0,0,0,70,72,10,0,92,131.79,0,-3.00,7.00,-997.00
2024-05-19 08:40:41.736557,0,0,0,0,0,0,70,72,10,0,92,131.79,0,-19.00,9.00,-998.00
2024-05-19 08:40:41.787858,0,0,1,0,0,0,70,72,10,0,92,131.79,0,-3.00,8.00,-1004.00
2024-05-19 08:40:41.941371,0,0,1,0,0,0,70,72,10,0,92,131.79,0,-47.00,2.00,-1004.00
2024-05-19 08:40:41.991900,0,0,1,0,0,-1,70,72,10,0,92,131.79,0,48.00,19.00,-988.00
2024-05-19 08:40:42.146094,0,0,1,0,0,-4,70,72,10,0,92,131.79,0,-46.00,6.00,-1090.00
2024-05-19 08:40:42.195806,0,0,2,0,0,-6,70,72,10,0,92,131.79,0,12.00,-1.00,-1170.00
2024-05-19 08:40:42.350949,0,-1,2,0,0,-7,70,72,19,0,92,132.23,0,67.00,-33.00,-1345.00
2024-05-19 08:40:42.399749,1,-1,2,0,0,-7,70,72,28,10,92,132.26,1,40.00,22.00,-1170.00
2024-05-19 08:40:42.555731,1,-1,2,0,0,-7,70,72,38,10,91,132.41,1,13.00,42.00,-1086.00
2024-05-19 08:40:42.603730,2,-1,2,0,0,-6,70,72,44,20,91,132.40,1,69.00,4.00,-961.00
2024-05-19 08:40:42.760563,2,-1,2,0,0,-5,70,72,51,20,91,132.44,1,58.00,8.00,-913.00
2024-05-19 08:40:42.807880,2,-1,2,0,0,-4,70,72,58,30,91,132.57,1,34.00,18.00,-887.00
2024-05-19 08:40:42.965265,3,-1,2,0,0,-3,70,72,63,30,91,132.56,1,14.00,23.00,-884.00
2024-05-19 08:40:43.011714,3,-1,1,0,0,-2,70,72,68,30,91,132.61,1,33.00,25.00,-924.00
2024-05-19 08:40:43.170164,3,-1,1,0,0,-1,70,72,72,40,91,132.71,1,18.00,23.00,-926.00
2024-05-19 08:40:43.215747,3,-1,1,0,0,-1,70,72,75,40,91,132.70,1,45.00,17.00,-968.00
2024-05-19 08:40:43.374955,3,-1,1,0,0,0,70,72,78,40,91,132.69,1,18.00,4.00,-965.00
2024-05-19 08:40:43.419736,3,-2,1,0,0,0,70,72,81,40,91,132.77,2,44.00,25.00,-950.00
2024-05-19 08:40:43.579718,3,-2,1,0,0,0,70,72,83,40,91,132.87,2,51.00,9.00,-1014.00
2024-05-19 08:40:43.623724,2,-1,1,0,0,0,70,73,86,40,91,132.85,2,17.00,32.00,-1025.00
2024-05-19 08:40:43.784505,2,-1,1,0,0,0,70,73,88,50,91,132.85,2,47.00,22.00,-1002.00
2024-05-19 08:40:43.828815,2,-1,1,0,0,0,70,73,90,50,91,132.84,2,50.00,52.00,-993.00
2024-05-19 08:40:43.930806,2,-2,1,0,0,0,70,73,91,50,91,132.86,2,3.00,30.00,-922.00
2024-05-19 08:40:44.091764,2,-2,1,0,0,0,70,73,92,50,91,132.90,2,18.00,24.00,-976.00
2024-05-19 08:40:44.134790,2,-2,1,0,0,0,70,73,92,50,91,132.84,2,10.00,39.00,-997.00
2024-05-19 08:40:44.296478,2,-1,1,0,0,0,70,73,93,50,91,132.84,2,44.00,26.00,-956.00
2024-05-19 08:40:44.339268,2,-2,1,0,0,0,70,73,94,50,91,132.87,2,-1.00,58.00,-995.00
2024-05-19 08:40:44.501349,2,-1,1,0,0,0,70,73,94,50,91,132.95,3,24.00,37.00,-970.00
2024-05-19 08:40:44.542967,2,-2,1,0,0,0,70,73,94,50,91,132.93,3,22.00,56.00,-937.00
2024-05-19 08:40:44.707304,2,-2,1,0,0,0,70,73,93,50,91,132.90,3,22.00,58.00,-947.00
2024-05-19 08:40:44.746732,2,-2,1,0,0,1,70,73,92,50,91,132.89,3,-4.00,35.00,-994.00
2024-05-19 08:40:44.910866,1,-2,1,0,0,1,70,73,91,50,91,132.83,3,1.00,48.00,-997.00
2024-05-19 08:40:44.950735,0,-2,1,0,0,0,70,73,91,50,91,132.88,3,-8.00,51.00,-973.00
2024-05-19 08:40:45.115738,0,-3,1,0,0,1,70,73,90,50,91,132.92,3,20.00,32.00,-1014.00
2024-05-19 08:40:45.154749,1,-3,1,0,0,1,70,73,89,50,91,132.79,3,3.00,31.00,-1000.00
2024-05-19 08:40:45.205718,1,-2,1,0,0,0,70,73,88,50,91,132.82,3,3.00,47.00,-983.00
2024-05-19 08:40:45.320572,1,-2,1,0,0,0,70,73,87,50,91,132.85,3,20.00,49.00,-978.00
2024-05-19 08:40:45.409799,1,-3,1,0,0,0,70,73,86,50,91,132.83,4,7.00,26.00,-1006.00
2024-05-19 08:40:45.525348,1,-3,1,0,0,0,70,73,85,50,91,132.84,4,3.00,29.00,-975.00
2024-05-19 08:40:45.664824,0,-3,1,0,0,0,70,72,84,50,91,132.92,4,-9.00,54.00,-1022.00
2024-05-19 08:40:45.715601,0,-3,2,-1,0,0,70,72,83,50,91,132.88,4,-46.00,58.00,-1043.00
2024-05-19 08:40:45.832591,0,-2,2,-1,0,0,70,72,83,50,91,132.73,4,30.00,39.00,-1015.00
2024-05-19 08:40:45.919666,0,-3,2,0,0,0,70,72,82,50,91,132.88,4,-5.00,26.00,-1049.00
2024-05-19 08:40:46.037319,0,-3,1,0,0,0,70,72,81,50,91,132.91,4,14.00,32.00,-1048.00
2024-05-19 08:40:46.123716,0,-3,1,0,0,0,70,72,80,50,91,132.86,4,-32.00,71.00,-949.00
2024-05-19 08:40:46.242844,0,-3,1,0,0,0,70,72,79,50,91,132.93,4,-20.00,70.00,-1005.00
2024-05-19 08:40:46.327785,0,-3,2,0,0,0,70,72,78,40,91,132.89,4,13.00,50.00,-1031.00
2024-05-19 08:40:46.446944,0,-3,2,0,0,0,70,72,78,40,91,132.86,5,25.00,48.00,-944.00
2024-05-19 08:40:46.532611,0,-3,2,0,0,0,70,72,77,40,91,132.85,5,46.00,43.00,-1028.00
2024-05-19 08:40:46.651598,1,-3,2,0,0,0,70,73,76,40,91,132.79,5,34.00,31.00,-1055.00
2024-05-19 08:40:46.737736,1,-3,1,0,0,0,70,73,75,40,91,132.75,5,29.00,39.00,-1018.00
2024-05-19 08:40:46.838094,1,-3,1,0,0,0,70,73,75,40,91,132.84,5,30.00,54.00,-1055.00
2024-05-19 08:40:46.940074,1,-2,1,0,0,0,70,73,75,40,91,132.79,5,42.00,51.00,-1037.00
2024-05-19 08:40:47.061384,1,-3,1,0,0,0,70,73,74,40,91,132.80,5,-24.00,56.00,-1037.00
2024-05-19 08:40:47.143638,1,-3,1,0,0,0,70,73,75,40,91,132.73,5,29.00,26.00,-1029.00
2024-05-19 08:40:47.266123,1,-3,1,0,0,0,70,73,75,40,91,132.70,5,-12.00,33.00,-1034.00
2024-05-19 08:40:47.347788,1,-3,1,0,0,0,70,73,75,40,91,132.75,5,-10.00,30.00,-941.00
2024-05-19 08:40:47.470888,0,-3,1,0,0,0,70,73,76,40,91,132.77,6,-8.00,53.00,-1009.00
2024-05-19 08:40:47.551565,0,-3,1,0,0,0,70,73,77,40,91,132.84,6,26.00,11.00,-998.00
2024-05-19 08:40:47.653680,0,-3,1,0,0,0,70,72,77,40,91,132.82,6,24.00,25.00,-1008.00
2024-05-19 08:40:47.778358,0,-2,1,0,0,0,70,72,78,40,91,132.75,6,33.00,-9.00,-1075.00
2024-05-19 08:40:47.857779,0,-2,1,0,0,0,70,72,79,40,91,132.73,6,3.00,11.00,-964.00
2024-05-19 08:40:47.983242,0,-2,1,0,0,0,70,72,80,40,91,132.84,6,14.00,17.00,-1002.00
2024-05-19 08:40:48.061627,0,-2,1,0,0,0,70,72,80,40,91,132.82,6,0.00,58.00,-955.00
2024-05-19 08:40:48.187885,0,-2,1,0,0,0,70,72,81,40,91,132.84,6,3.00,56.00,-1037.00
2024-05-19 08:40:48.265621,0,-3,1,0,0,0,70,72,81,50,91,132.80,6,-14.00,70.00,-968.00
2024-05-19 08:40:48.367655,0,-3,1,0,0,0,70,72,81,50,91,132.82,6,-17.00,58.00,-1021.00
2024-05-19 08:40:48.494860,0,-3,1,0,0,0,70,72,81,50,91,132.85,7,-7.00,66.00,-972.00
2024-05-19 08:40:48.571666,0,-3,1,0,0,0,70,72,81,50,91,132.85,7,-18.00,50.00,-911.00
2024-05-19 08:40:48.699775,0,-2,1,0,0,0,71,72,81,50,91,132.84,7,-33.00,42.00,-924.00
2024-05-19 08:40:48.775763,0,-2,1,0,0,0,71,72,80,50,91,132.86,7,-3.00,55.00,-1013.00
2024-05-19 08:40:48.904603,0,-2,1,0,0,0,71,72,80,50,91,132.82,7,10.00,32.00,-1012.00
2024-05-19 08:40:48.979730,0,-2,1,0,0,0,71,72,79,40,91,132.83,7,-22.00,83.00,-984.00
2024-05-19 08:40:49.114484,0,-3,1,0,0,0,71,72,79,40,91,132.72,7,-35.00,48.00,-979.00
2024-05-19 08:40:49.183688,0,-3,1,0,0,0,71,72,78,40,91,132.78,7,2.00,20.00,-1004.00
2024-05-19 08:40:49.314176,0,-3,1,0,0,0,71,72,77,40,91,132.77,7,31.00,44.00,-1014.00
2024-05-19 08:40:49.387617,0,-3,1,0,0,0,71,72,77,40,91,132.83,7,-8.00,57.00,-999.00
2024-05-19 08:40:49.438615,0,-3,1,0,0,0,71,72,76,40,91,132.78,8,15.00,29.00,-1051.00
2024-05-19 08:40:49.605868,0,-3,1,0,0,0,71,72,76,40,91,132.76,8,-1.00,43.00,-1018.00
2024-05-19 08:40:49.693572,0,-2,1,0,0,0,70,72,76,40,91,132.74,8,0.00,39.00,-989.00
2024-05-19 08:40:49.744875,0,-2,1,0,0,0,70,72,76,40,91,132.73,8,16.00,47.00,-1160.00
2024-05-19 08:40:49.856651,0,-2,1,0,0,0,70,72,77,40,91,132.79,8,-5.00,45.00,-1003.00
2024-05-19 08:40:49.948428,0,-2,1,0,0,-1,70,72,78,40,91,132.90,8,-25.00,67.00,-1091.00
2024-05-19 08:40:50.133227,0,-3,1,0,0,-2,70,72,81,40,91,132.85,8,-1.00,36.00,-1096.00
2024-05-19 08:40:50.152425,0,-3,1,0,0,-3,70,72,85,50,91,132.86,8,40.00,30.00,-1080.00
2024-05-19 08:40:50.254602,0,-2,1,0,0,-4,70,72,89,50,91,132.91,8,3.00,44.00,-1003.00
2024-05-19 08:40:50.358455,0,-2,1,0,0,-4,70,72,94,60,91,132.96,8,-26.00,69.00,-1007.00
2024-05-19 08:40:50.458963,0,-2,1,0,0,-5,70,72,100,60,91,132.94,9,21.00,20.00,-1029.00
2024-05-19 08:40:50.645229,0,-2,1,0,0,-5,70,72,105,70,91,133.03,9,-7.00,45.00,-1006.00
2024-05-19 08:40:50.662408,0,-1,1,0,0,-5,71,74,111,70,91,133.13,9,0.00,35.00,-1011.00
2024-05-19 08:40:50.764515,0,-1,1,0,0,-5,71,74,117,80,91,133.14,9,-52.00,46.00,-957.00
2024-05-19 08:40:50.952405,0,-1,1,0,0,-5,71,74,123,80,91,133.19,9,-9.00,29.00,-982.00
2024-05-19 08:40:50.970171,0,-1,1,0,0,-5,71,74,129,90,91,133.23,9,45.00,13.00,-977.00
2024-05-19 08:40:51.070613,0,-2,1,0,0,-5,71,74,135,90,91,133.23,9,8.00,34.00,-963.00
2024-05-19 08:40:51.259621,0,-1,1,0,0,-5,71,74,140,100,91,133.33,9,-4.00,31.00,-1007.00
2024-05-19 08:40:51.274373,0,-1,1,0,0,-4,71,74,145,100,91,133.36,9,-7.00,44.00,-989.00
2024-05-19 08:40:51.376420,0,-1,1,0,0,-4,71,74,149,110,91,133.42,9,42.00,10.00,-970.00
2024-05-19 08:40:51.566791,0,-1,1,0,0,-4,71,74,154,110,91,133.46,10,-16.00,22.00,-915.00
2024-05-19 08:40:51.580384,0,-1,1,0,0,-3,71,74,158,120,91,133.47,10,47.00,5.00,-1044.00
2024-05-19 08:40:51.771602,0,-1,1,0,0,-3,70,73,161,120,91,133.55,10,-11.00,50.00,-924.00
2024-05-19 08:40:51.784342,0,-1,1,0,0,-3,70,73,165,120,91,133.58,10,19.00,30.00,-931.00
2024-05-19 08:40:51.976444,0,-1,1,0,0,-2,70,73,167,130,91,133.62,10,3.00,24.00,-973.00
2024-05-19 08:40:51.988336,0,-1,1,0,0,-2,70,73,170,130,91,133.60,10,7.00,19.00,-949.00
2024-05-19 08:40:52.181211,0,-1,1,0,0,-2,70,73,173,130,91,133.60,10,24.00,18.00,-1006.00
2024-05-19 08:40:52.192919,0,-2,1,0,0,-1,70,73,175,140,91,133.60,10,9.00,41.00,-982.00
2024-05-19 08:40:52.386530,0,-1,1,0,0,-1,70,73,176,140,91,133.66,10,-21.00,60.00,-941.00
2024-05-19 08:40:52.396558,0,-2,1,0,0,-1,70,73,179,140,91,133.67,10,28.00,30.00,-985.00
2024-05-19 08:40:52.590910,0,-2,1,0,0,0,70,73,179,140,91,133.64,11,35.00,2.00,-958.00
2024-05-19 08:40:52.604284,0,-2,2,0,0,0,70,73,182,140,91,133.70,11,25.00,59.00,-946.00
2024-05-19 08:40:52.702360,1,-2,2,0,0,0,71,73,182,140,91,133.71,11,56.00,27.00,-973.00
2024-05-19 08:40:52.860535,1,-2,2,0,0,0,71,73,183,140,91,133.71,11,39.00,21.00,-1012.00
2024-05-19 08:40:52.906388,2,-2,1,0,0,0,71,73,184,140,91,133.70,11,56.00,27.00,-1040.00
2024-05-19 08:40:53.102981,2,-1,1,0,0,0,71,73,185,140,91,133.67,11,18.00,48.00,-990.00
2024-05-19 08:40:53.110544,2,-1,1,0,0,0,71,73,184,140,91,133.69,11,66.00,9.00,-1013.00
2024-05-19 08:40:53.307985,1,-2,1,0,0,0,71,73,185,140,91,133.73,11,24.00,41.00,-949.00
2024-05-19 08:40:53.314716,1,-2,1,0,0,0,71,73,186,150,91,133.77,11,37.00,12.00,-983.00
2024-05-19 08:40:53.416451,1,-2,1,0,0,0,71,73,185,150,91,133.66,11,21.00,39.00,-969.00
2024-05-19 08:40:53.615318,2,-1,1,0,0,0,71,73,186,150,91,133.70,12,33.00,7.00,-982.00
2024-05-19 08:40:53.615500,2,-1,1,0,0,0,71,73,186,150,91,133.74,12,24.00,21.00,-1003.00
2024-05-19 08:40:53.722422,1,-1,1,0,0,0,70,72,186,150,91,133.69,12,38.00,11.00,-980.00
2024-05-19 08:40:53.922480,1,-1,1,0,0,0,70,72,186,150,91,133.62,12,37.00,6.00,-1029.00
2024-05-19 08:40:53.926528,2,-1,1,0,0,0,70,72,184,150,91,133.72,12,45.00,31.00,-979.00
2024-05-19 08:40:54.127528,2,0,1,0,0,0,70,72,185,150,91,133.71,12,29.00,17.00,-1019.00
2024-05-19 08:40:54.127799,2,-1,1,0,0,0,70,72,185,150,91,133.73,12,34.00,47.00,-985.00
2024-05-19 08:40:54.181478,2,-1,1,0,0,0,70,72,185,150,91,133.69,12,61.00,1.00,-941.00
2024-05-19 08:40:54.283200,2,0,1,0,0,0,70,72,185,150,91,133.69,12,62.00,-12.00,-1013.00
2024-05-19 08:40:54.386681,2,0,1,0,0,0,70,72,184,150,91,133.72,13,50.00,-7.00,-932.00
2024-05-19 08:40:54.487255,2,0,1,0,0,0,70,72,184,140,91,133.67,13,16.00,19.00,-987.00
2024-05-19 08:40:54.638796,2,0,1,0,0,1,70,72,183,140,91,133.65,13,56.00,21.00,-985.00
2024-05-19 08:40:54.691980,2,0,1,0,0,1,71,73,182,140,91,133.70,13,24.00,3.00,-887.00
2024-05-19 08:40:54.843635,2,0,1,0,0,2,71,73,181,140,91,133.65,13,32.00,22.00,-943.00
2024-05-19 08:40:54.895184,2,0,2,0,0,2,71,73,178,140,91,133.64,13,42.00,-9.00,-951.00
2024-05-19 08:40:55.049144,2,0,2,0,0,2,71,73,176,140,91,133.55,13,61.00,0.00,-974.00
2024-05-19 08:40:55.099409,2,0,2,0,0,2,71,73,173,130,91,133.53,13,16.00,23.00,-999.00
2024-05-19 08:40:55.253146,2,0,1,0,0,2,71,73,171,130,91,133.49,13,32.00,-21.00,-982.00
2024-05-19 08:40:55.306952,2,0,1,0,0,2,71,73,169,130,91,133.54,13,35.00,6.00,-991.00
2024-05-19 08:40:55.406391,2,0,1,0,0,2,71,73,165,130,91,133.43,14,75.00,9.00,-1036.00
2024-05-19 08:40:55.560367,2,0,1,0,0,2,71,73,162,120,91,133.51,14,4.00,13.00,-968.00
2024-05-19 08:40:55.611866,2,0,1,0,0,2,71,73,159,120,91,133.51,14,47.00,6.00,-1009.00
2024-05-19 08:40:55.712428,3,0,1,0,0,2,71,73,156,120,91,133.54,14,56.00,17.00,-1101.00
2024-05-19 08:40:55.813119,2,0,1,0,0,2,71,73,152,120,91,133.45,14,8.00,26.00,-997.00
2024-05-19 08:40:55.915791,2,0,1,0,0,2,71,73,149,110,91,133.40,14,58.00,0.00,-996.00
2024-05-19 08:40:56.072352,2,0,1,0,0,2,71,73,147,110,91,133.36,14,12.00,25.00,-1012.00
2024-05-19 08:40:56.119028,2,0,1,0,0,2,71,73,144,110,91,133.38,14,1.00,36.00,-955.00
2024-05-19 08:40:56.277153,2,0,1,0,0,2,71,73,142,110,91,133.33,14,50.00,1.00,-1047.00
2024-05-19 08:40:56.323088,2,0,1,0,0,1,71,73,140,100,91,133.30,14,26.00,-6.00,-1026.00
2024-05-19 08:40:56.425133,2,0,1,0,0,1,71,73,138,100,91,133.35,15,22.00,-5.00,-987.00
2024-05-19 08:40:56.584365,2,0,1,0,0,1,71,73,136,100,91,133.33,15,11.00,-22.00,-1038.00
2024-05-19 08:40:56.629251,2,0,1,0,0,1,71,73,135,100,91,133.30,15,-17.00,2.00,-1010.00
2024-05-19 08:40:56.789248,1,1,1,0,0,0,72,73,134,100,91,133.30,15,37.00,-21.00,-1052.00
2024-05-19 08:40:56.833153,1,1,1,0,0,0,72,73,133,100,91,133.28,15,48.00,0.00,-1095.00
2024-05-19 08:40:56.994157,0,0,1,0,0,0,72,73,132,100,91,133.24,15,56.00,-29.00,-997.00
2024-05-19 08:40:57.037549,1,0,1,0,0,0,72,73,133,100,91,133.27,15,-21.00,-9.00,-1007.00
2024-05-19 08:40:57.199212,2,0,1,0,0,0,72,73,133,100,91,133.20,15,52.00,3.00,-1018.00
2024-05-19 08:40:57.241217,2,0,1,0,0,0,72,73,133,100,91,133.24,15,60.00,6.00,-991.00
2024-05-19 08:40:57.403706,2,0,1,0,0,0,72,73,133,100,91,133.18,15,27.00,13.00,-1003.00
2024-05-19 08:40:57.445725,2,0,1,0,0,0,72,73,133,100,91,133.16,16,22.00,-8.00,-973.00
2024-05-19 08:40:57.608531,2,0,1,0,0,0,72,73,133,100,91,133.23,16,39.00,-6.00,-1079.00
2024-05-19 08:40:57.649322,2,0,1,0,0,0,72,73,133,100,91,133.28,16,24.00,8.00,-1007.00
2024-05-19 08:40:57.815992,1,0,1,0,0,0,71,73,133,100,91,133.22,16,66.00,-27.00,-1014.00
2024-05-19 08:40:57.853263,1,0,1,0,0,0,71,73,133,100,91,133.21,16,21.00,12.00,-982.00
2024-05-19 08:40:58.018469,1,0,1,0,0,0,71,73,133,100,91,133.20,16,1.00,0.00,-1002.00
2024-05-19 08:40:58.018579,2,0,1,0,0,0,71,73,133,100,91,133.23,16,35.00,-7.00,-979.00
2024-05-19 08:40:58.108243,2,0,1,0,0,0,71,73,134,100,91,133.28,16,15.00,-2.00,-1039.00
2024-05-19 08:40:58.222913,2,0,1,0,0,0,71,73,134,100,91,133.20,16,67.00,-40.00,-1003.00
2024-05-19 08:40:58.312148,2,0,1,0,0,0,71,73,134,100,91,133.32,16,45.00,10.00,-951.00
2024-05-19 08:40:58.414295,2,0,1,0,0,0,71,73,135,100,91,133.24,17,21.00,3.00,-979.00
2024-05-19 08:40:58.530296,2,0,1,0,0,0,71,73,134,100,91,133.24,17,-1.00,0.00,-990.00
2024-05-19 08:40:58.618540,2,0,1,0,0,0,71,73,134,100,91,133.23,17,14.00,-10.00,-1006.00
2024-05-19 08:40:58.734812,1,0,1,0,0,0,71,73,134,100,91,133.25,17,13.00,6.00,-972.00
2024-05-19 08:40:58.822103,-4,-1,2,0,0,0,71,73,134,100,91,133.29,17,44.00,-38.00,-963.00
2024-05-19 08:40:58.923991,-7,0,2,1,0,0,71,73,133,100,91,133.15,17,15.00,-11.00,-988.00
2024-05-19 08:40:59.042014,-7,0,1,3,0,0,71,73,133,100,91,133.22,17,44.00,-12.00,-974.00
2024-05-19 08:40:59.128037,-6,0,1,4,0,0,71,73,132,100,91,133.25,17,-27.00,10.00,-1005.00
2024-05-19 08:40:59.246836,-5,0,1,5,0,0,71,73,132,100,91,133.27,17,33.00,-22.00,-1032.00
2024-05-19 08:40:59.332004,-4,0,2,6,0,0,71,73,131,100,91,133.22,17,24.00,-28.00,-1019.00
2024-05-19 08:40:59.433943,-4,0,2,6,0,0,71,73,132,100,91,133.29,18,14.00,0.00,-1048.00
2024-05-19 08:40:59.553891,-3,0,2,7,0,0,71,73,131,100,91,133.27,18,-26.00,9.00,-1016.00
2024-05-19 08:40:59.638398,-1,0,2,7,0,0,71,73,131,100,91,133.30,18,-46.00,14.00,-988.00
2024-05-19 08:40:59.759074,0,0,1,7,0,0,72,74,131,100,91,133.24,18,-46.00,12.00,-967.00
2024-05-19 08:40:59.842068,3,1,1,6,0,0,72,74,130,100,91,133.24,18,37.00,-29.00,-1003.00
2024-05-19 08:40:59.964921,5,1,1,5,0,0,72,74,130,100,91,133.28,18,-15.00,1.00,-1009.00
2024-05-19 08:41:00.045893,5,0,1,4,0,0,72,74,130,100,91,133.23,18,-12.00,22.00,-1059.00
2024-05-19 08:41:00.168331,3,0,1,3,0,0,72,74,130,90,91,133.21,18,-12.00,33.00,-970.00
2024-05-19 08:41:00.249913,1,0,1,3,0,0,72,74,129,90,91,133.23,18,0.00,10.00,-1010.00
2024-05-19 08:41:00.373109,1,0,1,2,0,0,72,74,129,90,91,133.33,18,-10.00,17.00,-1004.00
2024-05-19 08:41:00.453990,0,1,1,3,0,0,72,74,129,90,91,133.26,19,10.00,2.00,-1057.00
2024-05-19 08:41:00.577955,1,1,1,2,0,0,72,74,130,90,91,133.25,19,-28.00,5.00,-1037.00
2024-05-19 08:41:00.664521,1,0,1,2,0,0,72,74,130,100,91,133.27,19,-20.00,2.00,-993.00
2024-05-19 08:41:00.759953,1,0,1,2,0,0,72,74,131,100,91,133.31,19,4.00,7.00,-999.00
2024-05-19 08:41:00.885125,0,-2,1,2,0,0,72,74,132,100,91,133.35,19,-15.00,-2.00,-985.00
2024-05-19 08:41:00.963874,1,0,1,2,0,0,72,74,132,100,91,133.34,19,32.00,4.00,-996.00
2024-05-19 08:41:01.094702,1,0,1,2,0,0,72,74,133,100,91,133.28,19,49.00,-27.00,-1026.00
2024-05-19 08:41:01.167881,3,0,1,2,0,0,72,74,134,100,91,133.24,19,5.00,-24.00,-1023.00
2024-05-19 08:41:01.294720,4,4,2,1,0,0,72,74,135,100,91,133.34,19,-4.00,10.00,-993.00
2024-05-19 08:41:01.371867,4,4,2,0,0,0,72,74,135,100,91,133.32,19,23.00,-7.00,-971.00
2024-05-19 08:41:01.499491,2,-2,1,0,1,0,72,74,136,100,91,133.27,20,-14.00,-16.00,-1058.00
2024-05-19 08:41:01.527475,1,-2,1,0,0,0,72,74,136,100,91,133.28,20,26.00,-13.00,-958.00
2024-05-19 08:41:01.628207,0,-1,1,0,0,0,72,74,136,100,91,133.32,20,2.00,-7.00,-1011.00
2024-05-19 08:41:01.782531,0,0,1,0,0,0,71,74,136,100,91,133.32,20,-17.00,3.00,-984.00
2024-05-19 08:41:01.882354,0,0,1,0,0,0,71,74,136,100,91,133.32,20,20.00,0.00,-988.00
2024-05-19 08:41:02.014396,0,0,1,0,0,0,71,74,135,100,91,133.36,20,-7.00,18.00,-1005.00
2024-05-19 08:41:02.034874,1,0,1,0,0,0,71,74,135,100,91,133.35,20,44.00,26.00,-1031.00
2024-05-19 08:41:02.216490,1,0,1,0,0,0,71,74,134,100,91,133.30,20,63.00,-51.00,-1002.00
2024-05-19 08:41:02.238903,1,0,1,0,0,0,71,74,133,100,91,133.27,20,-9.00,18.00,-979.00
2024-05-19 08:41:02.421580,1,0,1,0,0,0,71,74,132,100,91,133.29,20,44.00,0.00,-997.00
2024-05-19 08:41:02.442873,1,0,1,0,0,0,71,74,132,100,91,133.26,21,6.00,24.00,-996.00
2024-05-19 08:41:02.626001,0,0,1,0,0,0,71,74,131,100,91,133.25,21,32.00,-9.00,-969.00
2024-05-19 08:41:02.646852,0,0,1,0,0,0,71,74,131,100,91,133.26,21,-12.00,9.00,-1013.00
2024-05-19 08:41:02.830860,0,0,1,0,0,0,72,74,131,100,91,133.24,21,19.00,5.00,-946.00
2024-05-19 08:41:02.850888,0,0,1,0,0,0,72,74,131,100,91,133.30,21,-38.00,-18.00,-984.00
2024-05-19 08:41:03.036056,0,0,1,0,0,0,72,74,131,100,91,133.34,21,2.00,-11.00,-1038.00
2024-05-19 08:41:03.054690,0,0,1,0,0,0,72,74,131,100,91,133.36,21,-20.00,-5.00,-1030.00
2024-05-19 08:41:03.240480,0,0,1,0,0,0,72,74,131,100,91,133.36,21,2.00,9.00,-986.00
2024-05-19 08:41:03.258967,0,0,1,0,0,0,72,74,131,100,91,133.33,21,30.00,9.00,-1022.00
2024-05-19 08:41:03.445230,-1,0,1,0,0,0,72,74,131,100,91,133.31,21,18.00,-1.00,-1034.00
2024-05-19 08:41:03.462863,0,0,1,0,0,0,72,74,132,100,91,133.28,22,9.00,-7.00,-1007.00
2024-05-19 08:41:03.565428,0,0,1,0,0,0,72,74,132,100,91,133.31,22,-15.00,11.00,-995.00
2024-05-19 08:41:03.752290,0,0,1,0,0,0,72,74,133,100,91,133.34,22,12.00,-34.00,-982.00
2024-05-19 08:41:03.768766,4,0,1,0,0,0,72,74,133,100,91,133.27,22,9.00,-13.00,-1038.00
2024-05-19 08:41:03.959658,8,0,1,-1,0,0,72,74,134,100,91,133.32,22,-18.00,-1.00,-980.00
2024-05-19 08:41:03.975299,8,0,1,-3,0,0,72,74,135,100,91,133.28,22,-12.00,4.00,-995.00
2024-05-19 08:41:04.074836,8,0,1,-4,0,0,72,74,135,100,91,133.27,22,6.00,15.00,-1012.00
2024-05-19 08:41:04.264391,7,0,1,-6,0,0,72,74,135,100,91,133.29,22,35.00,13.00,-1046.00
2024-05-19 08:41:04.278891,6,0,1,-6,0,0,72,74,135,100,91,133.31,22,8.00,10.00,-959.00
2024-05-19 08:41:04.469179,5,0,1,-7,0,0,72,74,135,100,91,133.33,22,51.00,27.00,-1007.00
2024-05-19 08:41:04.482571,4,0,1,-7,0,0,72,74,135,100,91,133.31,23,36.00,20.00,-1021.00
2024-05-19 08:41:04.674141,2,-1,1,-7,0,0,72,74,136,100,91,133.25,23,33.00,47.00,-979.00
2024-05-19 08:41:04.686648,0,-1,1,-7,0,0,72,74,136,100,91,133.27,23,35.00,11.00,-1006.00
2024-05-19 08:41:04.878704,-2,-1,2,-6,0,0,72,75,136,100,91,133.36,23,16.00,10.00,-1001.00
2024-05-19 08:41:04.892087,-3,-1,2,-5,0,0,72,75,136,100,91,133.35,23,5.00,29.00,-938.00
2024-05-19 08:41:05.083519,-2,-1,2,-4,0,0,72,75,137,100,91,133.37,23,52.00,25.00,-1025.00
2024-05-19 08:41:05.095049,-1,-1,2,-3,0,0,72,75,137,100,91,133.37,23,9.00,11.00,-979.00
2024-05-19 08:41:05.288367,0,-1,1,-3,0,0,72,75,137,100,91,133.34,23,44.00,0.00,-1045.00
2024-05-19 08:41:05.298701,0,0,1,-3,0,0,72,75,136,100,91,133.33,23,51.00,-2.00,-961.00
2024-05-19 08:41:05.493128,1,0,1,-3,0,0,72,75,136,100,91,133.31,23,47.00,-7.00,-1027.00
2024-05-19 08:41:05.503348,0,0,2,-3,0,0,72,75,135,100,90,133.32,24,31.00,27.00,-944.00
2024-05-19 08:41:05.554425,0,0,2,-3,0,0,72,75,135,100,90,133.32,24,13.00,-4.00,-987.00
2024-05-19 08:41:05.697944,0,0,1,-3,0,0,72,75,134,100,90,133.33,24,29.00,-26.00,-1039.00
2024-05-19 08:41:05.809206,-2,0,1,-2,0,0,72,75,134,100,90,133.36,24,11.00,-12.00,-964.00
2024-05-19 08:41:06.005139,-3,0,1,-2,0,0,72,75,134,100,90,133.29,24,67.00,-3.00,-1026.00
2024-05-19 08:41:06.005206,-3,0,1,-1,0,0,72,75,134,100,90,133.42,24,-6.00,27.00,-982.00
2024-05-19 08:41:06.063688,-1,0,1,0,0,0,72,75,133,100,90,133.39,24,30.00,-12.00,-994.00
2024-05-19 08:41:06.210104,0,0,1,0,0,0,72,75,133,100,90,133.39,24,36.00,-12.00,-991.00
2024-05-19 08:41:06.269708,0,0,1,0,0,0,72,75,133,100,90,133.36,24,-1.00,18.00,-985.00
2024-05-19 08:41:06.369836,0,0,1,0,0,0,72,75,133,100,90,133.35,24,13.00,-5.00,-1012.00
2024-05-19 08:41:06.517161,0,0,1,0,0,0,72,75,133,100,90,133.45,25,8.00,14.00,-991.00
2024-05-19 08:41:06.573809,0,0,1,0,0,0,72,75,133,100,90,133.37,25,7.00,-4.00,-1048.00
2024-05-19 08:41:06.722017,0,0,1,0,0,0,72,75,133,100,90,133.33,25,-5.00,-16.00,-965.00
2024-05-19 08:41:06.777783,0,0,1,0,0,0,73,75,133,100,90,133.30,25,35.00,-23.00,-1053.00
2024-05-19 08:41:06.926834,0,0,1,0,0,0,73,75,134,100,90,133.33,25,28.00,-2.00,-961.00
2024-05-19 08:41:06.981732,0,0,1,0,0,0,73,75,134,100,90,133.36,25,14.00,1.00,-986.00
2024-05-19 08:41:07.131697,0,0,1,0,0,0,73,75,134,100,90,133.37,25,12.00,-16.00,-1017.00
2024-05-19 08:41:07.185711,0,0,1,0,0,0,73,75,134,100,90,133.33,25,14.00,8.00,-1009.00
2024-05-19 08:41:07.336435,0,0,1,0,0,0,73,75,133,100,90,133.32,25,-6.00,-8.00,-992.00
2024-05-19 08:41:07.396313,0,0,1,0,0,0,73,75,133,100,90,133.35,25,-11.00,29.00,-969.00
2024-05-19 08:41:07.491820,0,0,1,0,0,0,73,75,133,100,90,133.38,26,7.00,29.00,-1046.00
2024-05-19 08:41:07.643575,0,0,1,0,0,0,73,75,133,100,90,133.34,26,31.00,33.00,-979.00
2024-05-19 08:41:07.695660,0,0,1,0,0,0,73,75,134,100,90,133.41,26,13.00,-16.00,-1017.00
2024-05-19 08:41:07.797722,0,0,1,0,0,0,73,75,134,100,90,133.42,26,-26.00,-12.00,-990.00
2024-05-19 08:41:07.950861,0,0,1,0,0,0,73,75,134,100,90,133.41,26,-28.00,15.00,-985.00
2024-05-19 08:41:08.001659,0,0,1,0,0,0,73,75,134,100,90,133.36,26,35.00,0.00,-1002.00
2024-05-19 08:41:08.104386,0,0,1,0,0,0,73,75,135,100,90,133.41,26,7.00,2.00,-978.00
2024-05-19 08:41:08.257914,0,-6,1,0,0,0,73,75,135,100,90,133.40,26,22.00,32.00,-1001.00
2024-05-19 08:41:08.308698,0,-8,1,0,-1,0,73,75,136,100,90,133.45,26,3.00,15.00,-1007.00
2024-05-19 08:41:08.462712,0,-7,2,0,-2,0,73,75,136,100,90,133.40,27,-14.00,14.00,-1027.00
2024-05-19 08:41:08.513349,0,-4,2,0,-3,0,73,75,134,100,90,133.34,27,4.00,20.00,-992.00
2024-05-19 08:41:08.667481,0,0,2,0,-4,0,73,75,134,100,90,133.34,27,-67.00,47.00,-914.00
2024-05-19 08:41:08.718992,0,0,2,0,-3,0,73,75,134,100,90,133.32,27,18.00,8.00,-1085.00
2024-05-19 08:41:08.819435,0,0,2,0,-2,0,72,76,133,100,90,133.30,27,3.00,36.00,-1002.00
2024-05-19 08:41:08.921565,0,0,2,0,-2,0,72,76,133,100,90,133.33,27,30.00,1.00,-966.00
2024-05-19 08:41:09.022752,0,0,2,0,-2,0,72,76,132,100,90,133.28,27,-18.00,45.00,-976.00
2024-05-19 08:41:09.124527,0,-1,2,0,-2,0,72,76,132,100,90,133.27,27,50.00,25.00,-986.00
2024-05-19 08:41:09.281899,0,-1,2,0,-2,0,72,76,131,100,90,133.34,27,-18.00,29.00,-965.00
2024-05-19 08:41:09.281960,0,-1,1,0,-2,0,72,76,130,100,90,133.33,27,6.00,13.00,-949.00
2024-05-19 08:41:09.382122,0,0,1,0,-2,0,72,76,129,100,90,133.28,28,27.00,48.00,-1053.00
2024-05-19 08:41:09.482854,0,-1,1,0,-2,0,72,76,128,100,89,133.29,28,-10.00,44.00,-1025.00
2024-05-19 08:41:09.583562,0,-1,1,0,-2,0,72,76,128,100,89,133.32,28,-9.00,50.00,-959.00
2024-05-19 08:41:09.691868,0,-1,1,0,-2,0,72,76,127,90,89,133.31,28,-4.00,-7.00,-1029.00
2024-05-19 08:41:09.787710,0,-1,1,0,-2,0,72,76,126,90,89,133.29,28,-6.00,45.00,-1039.00
2024-05-19 08:41:09.896301,0,0,1,0,-2,0,72,76,126,90,89,133.22,28,0.00,25.00,-1005.00
2024-05-19 08:41:09.991462,0,3,1,0,-2,0,72,76,125,90,89,133.32,28,5.00,13.00,-952.00
2024-05-19 08:41:10.101069,0,3,1,0,-1,0,72,76,126,90,89,133.31,28,-26.00,32.00,-979.00
2024-05-19 08:41:10.195846,0,1,1,0,0,0,72,76,126,90,89,133.31,28,10.00,45.00,-1021.00
2024-05-19 08:41:10.305993,0,0,1,0,0,0,72,76,126,90,89,133.29,28,-17.00,-10.00,-1005.00
2024-05-19 08:41:10.399698,0,0,1,0,0,0,72,76,127,90,89,133.35,29,-15.00,13.00,-1016.00
2024-05-19 08:41:10.518421,0,0,1,0,0,0,72,76,127,90,89,133.35,29,0.00,-13.00,-1015.00
2024-05-19 08:41:10.603510,0,1,1,0,0,0,72,76,128,90,89,133.40,29,11.00,-15.00,-1014.00
2024-05-19 08:41:10.705604,0,1,1,0,0,0,72,76,129,90,89,133.36,29,2.00,-13.00,-1076.00
2024-05-19 08:41:10.818390,0,2,1,0,0,0,72,76,130,100,89,133.49,29,-25.00,4.00,-985.00
2024-05-19 08:41:10.911653,0,1,1,0,0,0,72,76,131,100,89,133.37,29,26.00,33.00,-976.00
2024-05-19 08:41:11.012016,0,1,1,0,0,0,72,76,131,100,89,133.39,29,-27.00,-29.00,-973.00
2024-05-19 08:41:11.113836,0,1,1,0,0,0,72,76,132,100,89,133.41,29,-18.00,-49.00,-999.00
2024-05-19 08:41:11.227708,-1,1,1,0,0,0,72,76,133,100,89,133.36,29,-12.00,-64.00,-947.00
2024-05-19 08:41:11.317524,-1,1,1,0,0,0,72,76,133,100,89,133.44,29,-35.00,-52.00,-1031.00
2024-05-19 08:41:11.432384,-1,1,1,0,0,0,72,76,133,100,89,133.38,30,-15.00,3.00,-974.00
2024-05-19 08:41:11.521541,-1,1,2,0,0,0,72,76,134,100,89,133.38,30,-50.00,-41.00,-950.00
2024-05-19 08:41:11.637249,-1,0,2,0,0,0,72,76,133,100,89,133.42,30,7.00,27.00,-978.00
2024-05-19 08:41:11.725617,-1,0,2,0,0,0,72,76,133,100,89,133.36,30,-1.00,-43.00,-972.00
2024-05-19 08:41:11.845543,-1,0,2,0,0,0,73,75,134,100,89,133.36,30,-64.00,10.00,-977.00
2024-05-19 08:41:11.930548,-1,0,2,0,0,0,73,75,134,100,89,133.35,30,-26.00,-35.00,-1024.00
2024-05-19 08:41:12.046742,-1,0,2,0,0,0,73,75,134,100,89,133.36,30,21.00,-45.00,-1060.00
2024-05-19 08:41:12.134523,0,1,2,0,0,0,73,75,134,100,89,133.23,30,-39.00,4.00,-996.00
2024-05-19 08:41:12.237384,-1,1,2,0,0,0,73,75,134,100,89,133.32,30,8.00,-23.00,-958.00
2024-05-19 08:41:12.355490,-1,1,2,0,0,0,73,75,135,100,89,133.31,30,-31.00,-10.00,-984.00
2024-05-19 08:41:12.440264,0,6,2,0,0,0,73,75,135,100,89,133.23,31,-11.00,0.00,-1011.00
2024-05-19 08:41:12.558589,-1,8,2,0,1,0,73,75,136,100,88,133.32,31,-32.00,-19.00,-998.00
2024-05-19 08:41:12.644403,-1,6,2,0,2,0,73,75,135,100,88,133.33,31,-9.00,-41.00,-975.00
2024-05-19 08:41:12.763391,-1,4,2,0,3,0,73,75,134,100,88,133.33,31,-17.00,-39.00,-1009.00
2024-05-19 08:41:12.848274,0,1,1,0,4,0,74,76,134,100,88,133.33,31,-35.00,-36.00,-1047.00
2024-05-19 08:41:12.968189,0,0,1,0,3,0,74,76,134,100,88,133.36,31,-22.00,-19.00,-1001.00
2024-05-19 08:41:13.052677,0,0,1,0,2,0,74,76,134,100,88,133.30,31,4.00,-8.00,-1062.00
2024-05-19 08:41:13.172978,0,0,1,0,2,0,74,76,133,100,88,133.40,31,-4.00,1.00,-1021.00
2024-05-19 08:41:13.256292,0,1,1,0,2,0,74,76,133,100,88,133.32,31,8.00,-36.00,-1058.00
2024-05-19 08:41:13.377795,0,1,1,0,2,0,74,76,133,100,88,133.35,31,-2.00,-30.00,-1010.00
2024-05-19 08:41:13.460345,0,1,1,0,2,0,74,76,133,100,88,133.40,32,4.00,-27.00,-945.00
2024-05-19 08:41:13.582581,0,0,1,0,2,0,74,76,133,100,88,133.41,32,-2.00,-16.00,-1000.00
2024-05-19 08:41:13.664234,-1,0,1,0,2,0,74,76,133,100,88,133.39,32,-4.00,-13.00,-1016.00
2024-05-19 08:41:13.716099,0,0,1,0,2,0,74,76,132,100,88,133.37,32,-3.00,18.00,-1017.00
2024-05-19 08:41:13.889777,-1,0,1,0,2,0,74,76,133,100,88,133.38,32,-44.00,-22.00,-950.00
2024-05-19 08:41:13.970191,-1,0,1,0,2,0,74,76,132,100,88,133.37,32,-52.00,21.00,-927.00
2024-05-19 08:41:14.021280,0,-4,2,0,2,0,74,76,132,100,88,133.27,32,-33.00,3.00,-1016.00
2024-05-19 08:41:14.197212,-1,-5,2,0,1,0,74,76,132,100,88,133.36,32,-9.00,-9.00,-1102.00
2024-05-19 08:41:14.225858,-1,-3,2,0,0,0,74,76,132,100,88,133.35,32,-1.00,-14.00,-1015.00
2024-05-19 08:41:14.401884,0,-1,2,0,0,0,74,76,132,100,88,133.43,32,-12.00,9.00,-980.00
2024-05-19 08:41:14.429698,0,0,2,0,0,0,74,76,131,100,88,133.47,33,-36.00,6.00,-1056.00
2024-05-19 08:41:14.606817,0,0,1,0,0,0,74,76,131,100,88,133.43,33,-4.00,14.00,-988.00
2024-05-19 08:41:14.633348,0,0,1,0,0,0,74,76,131,100,88,133.39,33,-11.00,-2.00,-970.00
2024-05-19 08:41:14.811573,0,0,1,0,0,0,74,76,131,100,88,133.43,33,-14.00,-31.00,-1059.00
2024-05-19 08:41:14.837739,0,0,1,0,0,0,73,76,130,100,88,133.43,33,-1.00,16.00,-974.00
2024-05-19 08:41:15.016341,-1,0,1,0,0,0,73,76,129,100,88,133.37,33,-19.00,0.00,-976.00
2024-05-19 08:41:15.041264,-1,0,1,0,0,0,73,76,128,100,88,133.44,33,-39.00,-3.00,-1005.00
2024-05-19 08:41:15.223110,-1,0,1,0,0,0,73,76,127,100,88,133.39,33,4.00,-3.00,-1055.00
2024-05-19 08:41:15.245236,-1,0,1,0,0,0,73,76,126,90,88,133.35,33,-13.00,-2.00,-1034.00
2024-05-19 08:41:15.426665,-1,0,1,0,0,0,73,76,125,90,88,133.33,33,-39.00,2.00,-1019.00
2024-05-19 08:41:15.449284,-1,0,1,0,0,0,73,76,125,90,88,133.31,34,-21.00,18.00,-1001.00
2024-05-19 08:41:15.630743,-1,0,1,0,0,0,73,76,125,90,88,133.30,34,-31.00,-32.00,-1032.00
2024-05-19 08:41:15.653276,-1,0,1,0,0,0,73,76,125,90,88,133.32,34,-27.00,-5.00,-1059.00
2024-05-19 08:41:15.835565,-1,0,1,0,0,0,73,76,126,90,88,133.24,34,-22.00,-12.00,-1033.00
2024-05-19 08:41:15.857367,-1,0,1,0,0,0,73,77,126,90,88,133.29,34,-52.00,-8.00,-1026.00
2024-05-19 08:41:16.040325,-1,0,1,0,0,0,73,77,127,90,88,133.28,34,-21.00,-18.00,-1071.00
2024-05-19 08:41:16.061175,-1,0,1,0,0,0,73,77,128,90,88,133.25,34,-45.00,12.00,-1026.00
2024-05-19 08:41:16.228602,-1,0,1,0,0,0,73,77,128,90,88,133.26,34,-41.00,-8.00,-952.00
2024-05-19 08:41:16.264985,0,0,1,0,0,0,73,77,129,100,88,133.24,34,-22.00,-23.00,-989.00
2024-05-19 08:41:16.449746,-1,0,1,0,0,0,73,77,129,100,88,133.21,34,-36.00,12.00,-966.00
2024-05-19 08:41:16.469071,0,0,6,0,0,0,73,77,130,100,88,133.25,35,-34.00,-18.00,-957.00
2024-05-19 08:41:16.654574,-1,0,12,0,0,0,73,77,130,100,88,133.18,35,10.00,-31.00,-1028.00
2024-05-19 08:41:16.673019,-1,0,18,0,0,0,73,77,131,100,88,133.24,35,-14.00,21.00,-942.00
2024-05-19 08:41:16.775630,-1,0,25,0,0,0,73,77,131,100,88,133.23,35,-56.00,-8.00,-986.00
2024-05-19 08:41:16.961742,-1,0,31,0,0,0,74,76,131,100,88,133.31,35,-47.00,1.00,-884.00
2024-05-19 08:41:16.979575,-1,0,37,0,0,0,74,76,132,100,88,133.28,35,-25.00,36.00,-971.00
2024-05-19 08:41:17.081080,-1,0,43,0,0,0,74,76,131,100,88,133.34,35,-76.00,5.00,-973.00
2024-05-19 08:41:17.268938,-1,0,50,0,0,0,74,76,131,100,88,133.42,35,-15.00,12.00,-1010.00
2024-05-19 08:41:17.285074,-1,0,56,0,0,0,74,76,131,100,88,133.37,35,-16.00,13.00,-1002.00
2024-05-19 08:41:17.473748,-1,0,63,0,0,0,74,76,131,100,88,133.33,35,-5.00,14.00,-987.00
2024-05-19 08:41:17.489033,-1,0,69,0,0,0,74,76,131,100,88,133.32,36,-31.00,19.00,-945.00
2024-05-19 08:41:17.678532,0,0,76,0,0,0,74,76,131,100,88,133.33,36,7.00,25.00,-972.00
2024-05-19 08:41:17.678611,0,0,83,0,0,0,74,76,132,100,88,133.40,36,-6.00,36.00,-1055.00
2024-05-19 08:41:17.745532,0,0,89,0,0,0,74,76,132,100,88,133.43,36,23.00,0.00,-999.00
2024-05-19 08:41:17.883332,0,-1,96,0,0,0,73,76,133,100,88,133.38,36,6.00,0.00,-985.00
2024-05-19 08:41:17.949246,0,-1,102,0,0,0,73,76,133,100,88,133.44,36,5.00,14.00,-1011.00
2024-05-19 08:41:18.088129,0,0,109,0,0,0,73,76,134,100,88,133.39,36,41.00,-10.00,-1026.00
2024-05-19 08:41:18.153039,0,0,116,0,0,0,73,76,134,100,88,133.34,36,12.00,18.00,-1026.00
2024-05-19 08:41:18.297598,0,0,122,0,0,0,73,76,134,100,88,133.27,36,-4.00,-6.00,-972.00
2024-05-19 08:41:18.357599,0,0,128,0,0,0,73,76,134,100,88,133.34,36,-30.00,36.00,-947.00
2024-05-19 08:41:18.458935,0,0,134,0,0,0,73,76,134,100,87,133.37,37,15.00,18.00,-960.00
2024-05-19 08:41:18.600158,0,0,140,0,0,0,73,76,134,100,87,133.40,37,-22.00,-2.00,-1003.00
2024-05-19 08:41:18.662948,0,0,146,0,0,0,73,76,134,100,87,133.44,37,-11.00,-9.00,-974.00
2024-05-19 08:41:18.804924,0,0,151,0,0,0,73,76,135,100,87,133.37,37,3.00,21.00,-1046.00
2024-05-19 08:41:18.867153,0,0,157,0,0,0,74,77,134,100,87,133.37,37,14.00,12.00,-1010.00
2024-05-19 08:41:19.009939,0,0,162,0,0,0,74,77,135,100,87,133.36,37,6.00,12.00,-1027.00
2024-05-19 08:41:19.070912,0,0,168,0,0,0,74,77,135,100,87,133.47,37,-8.00,-18.00,-1022.00
2024-05-19 08:41:19.214510,0,0,174,0,0,0,74,77,135,100,87,133.37,37,26.00,-27.00,-1027.00
2024-05-19 08:41:19.274897,0,0,-179,0,0,0,74,77,135,100,87,133.39,37,-22.00,15.00,-963.00
2024-05-19 08:41:19.419349,0,0,-174,0,0,0,74,77,135,100,87,133.38,37,2.00,-8.00,-980.00
2024-05-19 08:41:19.478982,0,0,-168,0,0,0,74,77,134,100,87,133.40,38,21.00,-25.00,-994.00
2024-05-19 08:41:19.626203,0,0,-162,0,0,0,74,77,134,100,87,133.40,38,40.00,9.00,-996.00
2024-05-19 08:41:19.683772,0,0,-156,0,0,0,74,77,133,100,87,133.43,38,1.00,2.00,-1017.00
2024-05-19 08:41:19.785796,0,0,-150,0,0,0,74,77,133,100,87,133.42,38,1.00,7.00,-1005.00
2024-05-19 08:41:19.931286,0,0,-144,0,0,0,73,77,133,100,87,133.36,38,29.00,9.00,-998.00
2024-05-19 08:41:19.988878,0,0,-138,0,0,0,73,77,133,100,87,133.35,38,-5.00,-21.00,-1044.00
2024-05-19 08:41:20.136050,0,0,-132,0,0,0,73,77,132,100,87,133.30,38,24.00,-25.00,-970.00
2024-05-19 08:41:20.193234,0,0,-126,0,0,0,73,77,132,100,87,133.30,38,1.00,-4.00,-952.00
2024-05-19 08:41:20.340902,0,0,-120,0,0,0,73,77,132,100,87,133.27,38,5.00,-27.00,-1007.00
2024-05-19 08:41:20.397097,0,0,-114,0,0,0,73,77,132,100,87,133.26,38,1.00,4.00,-955.00
2024-05-19 08:41:20.498842,0,0,-108,0,0,0,73,77,131,100,87,133.38,39,-1.00,-7.00,-964.00
2024-05-19 08:41:20.648079,0,1,-102,0,0,0,73,77,131,100,87,133.37,39,-22.00,-6.00,-990.00
2024-05-19 08:41:20.702783,0,0,-96,0,0,0,73,77,131,100,87,133.31,39,0.00,-12.00,-981.00
2024-05-19 08:41:20.852895,0,0,-90,0,0,0,73,77,130,100,87,133.26,39,0.00,-29.00,-1042.00
2024-05-19 08:41:20.906771,0,1,-84,0,0,0,74,77,131,100,87,133.38,39,3.00,-8.00,-1033.00
2024-05-19 08:41:21.057737,0,1,-78,0,0,0,74,77,131,100,87,133.42,39,-48.00,-13.00,-1071.00
2024-05-19 08:41:21.110802,0,2,-72,0,0,0,74,77,131,100,87,133.39,39,-39.00,-36.00,-1020.00
2024-05-19 08:41:21.262471,-1,1,-66,0,0,0,74,77,131,100,87,133.40,39,-9.00,-7.00,-1002.00
2024-05-19 08:41:21.314993,-1,1,-60,0,0,0,74,77,131,100,87,133.42,39,-24.00,-34.00,-970.00
2024-05-19 08:41:21.468294,-1,0,-54,0,0,0,74,77,133,100,87,133.40,39,-21.00,-15.00,-992.00
2024-05-19 08:41:21.468739,-1,0,-48,0,0,0,74,77,132,100,87,133.42,40,-3.00,-26.00,-1090.00
2024-05-19 08:41:21.675768,-1,0,-42,0,0,0,74,77,134,100,87,133.41,40,-4.00,8.00,-964.00
2024-05-19 08:41:21.675818,-1,1,-37,0,0,0,74,77,135,100,87,133.42,40,-33.00,3.00,-992.00
2024-05-19 08:41:21.774799,-1,1,-31,0,0,0,74,77,136,100,87,133.37,40,-23.00,-33.00,-1052.00
2024-05-19 08:41:21.877170,-1,1,-19,0,0,0,75,77,137,100,87,133.37,40,-5.00,-18.00,-958.00
2024-05-19 08:41:21.979332,-1,0,-14,0,0,0,75,77,138,100,87,133.41,40,-59.00,12.00,-915.00
2024-05-19 08:41:22.081486,-1,0,-10,0,0,0,75,77,138,100,87,133.39,40,-62.00,0.00,-947.00
2024-05-19 08:41:22.184170,-2,0,-7,0,0,0,75,77,138,100,87,133.41,40,-22.00,-6.00,-1000.00
2024-05-19 08:41:22.286543,-1,0,-5,0,0,0,75,77,138,100,87,133.48,40,-46.00,5.00,-987.00
2024-05-19 08:41:22.386873,-2,0,-3,0,0,0,75,77,139,100,87,133.48,41,-6.00,-24.00,-1019.00
2024-05-19 08:41:22.488808,-2,0,-2,0,0,0,75,77,139,100,87,133.43,41,-4.00,13.00,-1066.00
2024-05-19 08:41:22.593717,-1,0,-1,0,0,0,75,77,139,100,87,133.44,41,4.00,0.00,-945.00
2024-05-19 08:41:22.692871,-1,0,0,0,0,0,75,77,139,100,87,133.45,41,-55.00,22.00,-1000.00
2024-05-19 08:41:22.798452,-1,0,0,0,0,0,75,77,139,100,87,133.41,41,-57.00,-4.00,-992.00
2024-05-19 08:41:22.897022,-1,0,0,0,0,0,75,78,139,100,87,133.40,41,-36.00,-5.00,-978.00
2024-05-19 08:41:23.003468,-1,0,0,0,0,0,75,78,138,100,87,133.39,41,-52.00,-5.00,-940.00
2024-05-19 08:41:23.100833,-1,0,0,0,0,0,75,78,139,100,87,133.39,41,-3.00,-28.00,-1000.00
2024-05-19 08:41:23.208214,-1,0,0,0,0,0,75,78,138,100,87,133.48,41,-29.00,-15.00,-1016.00
2024-05-19 08:41:23.304937,-1,0,0,0,0,0,75,78,138,100,87,133.39,41,-37.00,23.00,-991.00
2024-05-19 08:41:23.414340,-1,0,0,0,0,0,75,78,138,100,87,133.40,42,-42.00,4.00,-1005.00
2024-05-19 08:41:23.508739,-2,0,0,0,0,0,75,78,137,100,87,133.42,42,-36.00,-9.00,-1020.00
2024-05-19 08:41:23.617847,-1,0,0,0,0,0,75,78,137,100,87,133.41,42,-7.00,-7.00,-1028.00
2024-05-19 08:41:23.712894,-1,0,0,0,0,0,75,78,137,100,87,133.40,42,-52.00,-8.00,-1020.00
2024-05-19 08:41:23.815618,0,0,0,0,0,0,75,78,137,100,87,133.31,42,-24.00,-7.00,-977.00
2024-05-19 08:41:23.916955,0,0,0,0,0,0,74,77,136,100,87,133.36,42,6.00,-5.00,-971.00
2024-05-19 08:41:24.028814,0,0,0,0,0,0,74,77,136,100,87,133.36,42,-38.00,16.00,-973.00
2024-05-19 08:41:24.120974,0,0,0,0,0,0,74,77,136,100,87,133.37,42,-20.00,6.00,-996.00
2024-05-19 08:41:24.234622,0,0,0,0,0,0,74,77,136,100,87,133.41,42,-44.00,-3.00,-1001.00
2024-05-19 08:41:24.324946,-1,0,0,0,0,0,74,77,135,100,87,133.39,42,-1.00,22.00,-1026.00
2024-05-19 08:41:24.437098,-1,0,0,0,0,0,74,77,135,100,87,133.37,43,-27.00,-7.00,-1013.00
2024-05-19 08:41:24.530101,-1,-1,0,0,0,0,74,77,135,100,87,133.38,43,-20.00,11.00,-974.00
2024-05-19 08:41:24.642390,-1,-1,0,0,0,0,74,77,135,100,87,133.36,43,-15.00,2.00,-1067.00
2024-05-19 08:41:24.733797,-1,0,0,0,0,0,74,77,135,100,87,133.39,43,-13.00,8.00,-1089.00
2024-05-19 08:41:24.784703,-1,0,0,0,0,0,74,77,135,100,87,133.37,43,-8.00,-6.00,-993.00
2024-05-19 08:41:24.937721,-1,0,0,0,0,0,75,78,135,100,87,133.44,43,-3.00,-2.00,-944.00
2024-05-19 08:41:25.051337,-1,0,-3,0,0,0,75,78,135,100,87,133.31,43,-26.00,6.00,-1021.00
2024-05-19 08:41:25.144819,-1,0,-8,0,0,0,75,78,135,100,87,133.40,43,-50.00,-7.00,-984.00
2024-05-19 08:41:25.243588,-1,0,-14,0,0,0,75,78,135,100,87,133.35,43,2.00,-12.00,-976.00
2024-05-19 08:41:25.345672,-2,0,-19,0,0,0,75,78,134,100,87,133.37,43,-24.00,24.00,-1012.00
2024-05-19 08:41:25.396828,-1,0,-25,0,0,0,75,78,134,100,87,133.37,44,-9.00,-14.00,-1026.00
2024-05-19 08:41:25.498968,-1,0,-30,0,0,0,75,78,133,100,86,133.27,44,-17.00,16.00,-965.00
2024-05-19 08:41:25.600646,-2,0,-36,0,0,0,75,78,133,100,86,133.29,44,-23.00,-15.00,-1052.00
2024-05-19 08:41:25.768005,-2,0,-42,0,0,0,75,78,133,100,86,133.32,44,-63.00,27.00,-978.00
2024-05-19 08:41:25.804854,-2,0,-47,0,0,0,75,78,133,100,86,133.32,44,21.00,-24.00,-1031.00
2024-05-19 08:41:25.972926,-2,0,-53,0,0,0,75,77,133,100,86,133.28,44,-23.00,-10.00,-976.00
2024-05-19 08:41:26.008629,-1,0,-58,0,0,0,75,77,133,100,86,133.36,44,-49.00,-14.00,-982.00
2024-05-19 08:41:26.177714,-1,0,-64,0,0,0,75,77,133,100,86,133.32,44,-8.00,-47.00,-999.00
2024-05-19 08:41:26.212721,-1,0,-69,0,0,0,75,77,133,100,86,133.27,44,-55.00,25.00,-979.00
2024-05-19 08:41:26.382533,-1,0,-75,0,0,0,75,77,133,100,86,133.35,44,-23.00,3.00,-982.00
2024-05-19 08:41:26.416948,-1,0,-80,0,0,0,75,77,133,100,86,133.34,45,-25.00,-37.00,-1032.00
2024-05-19 08:41:26.518672,-1,0,-85,0,0,0,75,77,133,100,86,133.35,45,-22.00,-11.00,-1014.00
2024-05-19 08:41:26.689726,-1,0,-91,0,0,0,75,77,134,100,86,133.33,45,17.00,-36.00,-1049.00
2024-05-19 08:41:26.722620,-1,0,-97,0,0,0,75,77,134,100,86,133.37,45,-65.00,-3.00,-977.00
2024-05-19 08:41:26.884525,-1,0,-102,0,0,0,75,77,134,100,86,133.34,45,-31.00,0.00,-994.00
2024-05-19 08:41:26.926735,-1,0,-108,0,0,0,75,77,134,100,86,133.38,45,-6.00,-26.00,-1020.00
2024-05-19 08:41:27.099327,0,0,-114,0,0,0,75,77,134,100,86,133.33,45,-7.00,-30.00,-958.00
2024-05-19 08:41:27.130440,0,1,-120,0,0,0,75,77,134,100,86,133.40,45,-9.00,-6.00,-1017.00
2024-05-19 08:41:27.303967,0,0,-126,0,0,0,75,77,134,100,86,133.28,45,-28.00,1.00,-1032.00
2024-05-19 08:41:27.334681,0,0,-132,0,0,0,75,77,135,100,86,133.40,45,-55.00,7.00,-1005.00
2024-05-19 08:41:27.508961,-1,0,-138,0,0,0,75,77,135,100,86,133.36,46,13.00,-22.00,-979.00
2024-05-19 08:41:27.538521,-1,0,-143,0,0,0,75,77,134,100,86,133.35,46,-66.00,11.00,-986.00
2024-05-19 08:41:27.713711,-1,0,-149,0,0,0,75,77,134,100,86,133.38,46,-44.00,0.00,-1010.00
2024-05-19 08:41:27.742551,-1,0,-155,0,0,0,75,77,134,100,86,133.40,46,26.00,-38.00,-1012.00
2024-05-19 08:41:27.844699,-1,0,-161,0,0,0,75,77,134,100,86,133.37,46,-25.00,-21.00,-992.00
2024-05-19 08:41:28.020893,-1,0,-167,0,0,0,75,78,133,100,86,133.41,46,-28.00,-13.00,-982.00
2024-05-19 08:41:28.049010,0,0,-173,0,0,0,75,78,134,100,86,133.39,46,-17.00,-15.00,-1019.00
2024-05-19 08:41:28.225703,0,0,-179,0,0,0,75,78,134,100,86,133.38,46,0.00,-39.00,-973.00
2024-05-19 08:41:28.253563,0,1,174,0,0,0,75,78,134,100,86,133.40,46,-15.00,5.00,-1011.00
2024-05-19 08:41:28.430531,0,0,168,0,0,0,75,78,133,100,86,133.39,46,-39.00,4.00,-984.00
2024-05-19 08:41:28.457037,0,0,162,0,0,0,75,78,133,100,86,133.34,47,21.00,-2.00,-1035.00
2024-05-19 08:41:28.635291,0,0,156,0,0,0,75,78,133,100,86,133.40,47,10.00,-29.00,-999.00
2024-05-19 08:41:28.663211,0,0,149,0,0,0,75,78,132,100,86,133.42,47,2.00,-29.00,-1007.00
2024-05-19 08:41:28.763625,0,0,143,0,0,0,75,78,132,100,86,133.38,47,-16.00,-25.00,-1021.00
2024-05-19 08:41:28.866029,0,0,137,0,0,0,75,78,132,100,86,133.37,47,-11.00,-21.00,-1000.00
2024-05-19 08:41:28.968451,0,0,131,0,0,0,75,77,132,100,86,133.29,47,26.00,-18.00,-1030.00
2024-05-19 08:41:29.069634,0,0,125,0,0,0,75,77,132,100,86,133.36,47,36.00,-31.00,-1028.00
2024-05-19 08:41:29.249693,0,1,119,0,0,0,75,77,132,100,86,133.37,47,-34.00,-5.00,-954.00
2024-05-19 08:41:29.249742,0,1,113,0,0,0,75,77,132,100,86,133.28,47,43.00,-43.00,-1002.00
2024-05-19 08:41:29.324507,0,1,107,0,0,0,75,77,131,100,86,133.36,47,8.00,-28.00,-1044.00
2024-05-19 08:41:29.454497,0,1,101,0,0,0,75,77,131,100,86,133.33,48,-37.00,20.00,-961.00
2024-05-19 08:41:29.528448,0,1,95,0,0,0,75,77,131,100,86,133.34,48,-23.00,7.00,-948.00
2024-05-19 08:41:29.659305,0,1,89,0,0,0,75,77,130,100,86,133.37,48,-4.00,-30.00,-1015.00
2024-05-19 08:41:29.732542,0,1,84,0,0,0,75,77,130,100,86,133.31,48,-21.00,0.00,-1022.00
2024-05-19 08:41:29.864053,0,1,78,0,0,0,75,77,130,100,86,133.35,48,-7.00,-11.00,-979.00
2024-05-19 08:41:29.936556,0,1,72,0,0,0,75,78,130,100,86,133.33,48,49.00,-44.00,-1048.00
2024-05-19 08:41:30.038419,0,1,66,0,0,0,75,78,130,100,86,133.27,48,-2.00,-37.00,-987.00
2024-05-19 08:41:30.171260,0,1,61,0,0,0,75,78,130,100,86,133.32,48,1.00,-22.00,-988.00
2024-05-19 08:41:30.245796,0,1,55,0,0,0,75,78,130,100,86,133.42,48,-2.00,12.00,-1036.00
2024-05-19 08:41:30.344405,0,1,49,0,0,0,75,78,130,100,86,133.41,48,48.00,-65.00,-1020.00
2024-05-19 08:41:30.479913,1,1,43,0,0,0,75,78,131,100,86,133.39,49,22.00,-24.00,-1032.00
2024-05-19 08:41:30.548384,1,0,37,0,0,0,75,78,131,100,86,133.34,49,55.00,-31.00,-987.00
2024-05-19 08:41:30.689307,1,0,31,0,0,0,75,78,131,100,86,133.35,49,50.00,-6.00,-1027.00
2024-05-19 08:41:30.752530,1,0,25,0,0,0,75,78,131,100,86,133.39,49,8.00,-17.00,-1023.00
2024-05-19 08:41:30.854394,1,0,19,0,0,0,75,78,131,100,86,133.37,49,39.00,-39.00,-1001.00
2024-05-19 08:41:30.956573,1,0,15,0,0,0,75,78,131,100,86,133.30,49,10.00,-17.00,-997.00
2024-05-19 08:41:31.092877,1,0,11,0,0,0,75,78,131,100,86,133.32,49,44.00,-22.00,-1013.00
2024-05-19 08:41:31.160426,1,0,8,0,0,0,75,78,131,100,86,133.39,49,-15.00,5.00,-1013.00
2024-05-19 08:41:31.297631,1,0,6,0,0,0,75,78,131,100,86,133.39,49,13.00,-9.00,-1012.00
2024-05-19 08:41:31.364377,1,0,5,0,0,0,75,78,131,100,86,133.30,49,28.00,-12.00,-1016.00
2024-05-19 08:41:31.502424,1,0,3,0,0,0,75,78,132,100,86,133.30,50,-6.00,-12.00,-982.00
2024-05-19 08:41:31.568476,1,0,2,0,0,0,75,78,131,100,86,133.40,50,68.00,2.00,-1028.00
2024-05-19 08:41:31.707318,0,0,2,0,0,0,75,78,131,100,86,133.31,50,0.00,23.00,-958.00
2024-05-19 08:41:31.773639,1,0,1,0,0,0,75,78,131,100,86,133.40,50,22.00,-1.00,-1036.00
2024-05-19 08:41:31.912159,0,0,1,0,0,0,75,78,131,100,86,133.34,50,22.00,-25.00,-981.00
2024-05-19 08:41:31.976551,0,0,1,0,0,0,74,78,131,100,86,133.33,50,-17.00,-8.00,-994.00
2024-05-19 08:41:32.116962,0,0,1,0,0,0,74,78,130,100,86,133.30,50,36.00,-30.00,-1007.00
2024-05-19 08:41:32.180465,0,0,2,0,0,0,74,78,131,100,86,133.31,50,32.00,-29.00,-1006.00
2024-05-19 08:41:32.321923,0,0,2,0,0,0,74,78,130,100,86,133.34,50,-9.00,-1.00,-997.00
2024-05-19 08:41:32.384627,0,0,2,0,0,0,74,78,130,100,86,133.40,50,3.00,-2.00,-1004.00
2024-05-19 08:41:32.526721,0,0,2,0,0,0,74,78,130,100,86,133.44,51,23.00,-16.00,-1023.00
2024-05-19 08:41:32.589355,0,0,2,0,0,0,74,78,129,100,86,133.38,51,-10.00,-24.00,-1002.00
2024-05-19 08:41:32.731332,0,1,2,0,0,0,74,78,129,100,86,133.41,51,44.00,-28.00,-1045.00
2024-05-19 08:41:32.793687,0,1,2,0,0,0,74,78,129,100,86,133.38,51,19.00,-21.00,-1034.00
2024-05-19 08:41:32.844292,0,1,2,0,0,0,74,78,129,100,86,133.34,51,-43.00,40.00,-1004.00
2024-05-19 08:41:33.038527,0,0,2,0,0,0,75,79,129,100,86,133.40,51,-25.00,-6.00,-976.00
2024-05-19 08:41:33.099359,0,0,2,0,0,0,75,79,129,90,86,133.36,51,3.00,-18.00,-1011.00
2024-05-19 08:41:33.243714,0,0,2,0,0,0,75,79,129,90,86,133.33,51,-18.00,-7.00,-985.00
2024-05-19 08:41:33.303467,0,0,1,0,0,0,75,79,129,90,86,133.28,51,-23.00,1.00,-967.00
2024-05-19 08:41:33.354284,0,0,1,0,0,0,75,79,129,90,86,133.31,51,11.00,-36.00,-970.00
2024-05-19 08:41:33.551121,0,0,1,0,0,0,75,79,129,90,86,133.32,52,-24.00,-27.00,-992.00
2024-05-19 08:41:33.558399,0,0,1,0,0,0,75,79,129,100,86,133.35,52,15.00,-17.00,-948.00
2024-05-19 08:41:33.660295,0,0,1,0,0,0,75,79,129,100,86,133.39,52,-38.00,75.00,-1110.00
2024-05-19 08:41:33.851976,0,0,2,0,0,-1,75,79,133,100,86,133.46,52,10.00,-34.00,-1865.00
2024-05-19 08:41:33.864201,0,-1,2,0,0,-8,75,79,153,100,86,133.57,52,-29.00,408.00,-1526.00
2024-05-19 08:41:34.062449,1,-58,2,0,-2,-14,76,78,601,110,86,133.72,52,34.00,603.00,-1156.00
2024-05-19 08:41:34.068977,0,179,0,0,-11,-4,76,78,6553,120,86,133.50,52,-22.00,625.00,-859.00
2024-05-19 08:41:34.267239,-1,59,2,0,-8,9,76,78,142,120,86,133.97,52,-57.00,2.00,-1627.00
2024-05-19 08:41:34.272067,0,-2,2,0,-3,8,76,78,130,110,86,133.31,52,109.00,-64.00,-1276.00
2024-05-19 08:41:34.471844,0,2,2,0,-3,5,76,78,124,100,86,133.25,52,-42.00,71.00,-1359.00
2024-05-19 08:41:34.476726,0,2,2,0,-3,2,76,78,119,100,85,133.29,53,4.00,-85.00,-1213.00
2024-05-19 08:41:34.676793,0,1,2,0,-2,0,76,78,116,100,85,133.22,53,3.00,2.00,-1163.00
2024-05-19 08:41:34.680265,0,1,2,0,-2,0,76,78,115,100,85,133.32,53,36.00,-55.00,-1042.00
2024-05-19 08:41:34.782340,0,1,1,0,-2,0,76,78,113,100,85,133.42,53,-12.00,33.00,-1044.00
2024-05-19 08:41:34.884124,0,1,1,0,-1,-1,76,78,112,100,85,133.33,53,12.00,7.00,-1001.00
2024-05-19 08:41:34.986354,-1,0,1,0,-1,-1,76,78,112,100,85,133.29,53,-23.00,14.00,-985.00
2024-05-19 08:41:35.088195,-1,2,1,0,0,-1,76,78,111,100,85,133.15,53,6.00,-17.00,-956.00
2024-05-19 08:41:35.291236,0,1,1,0,0,-1,76,78,109,100,85,133.25,53,-32.00,6.00,-1002.00
2024-05-19 08:41:35.292154,0,1,1,0,0,-1,76,78,108,100,85,133.21,53,-24.00,-4.00,-977.00
2024-05-19 08:41:35.497164,0,1,1,0,0,-1,76,78,107,100,85,133.18,53,-48.00,11.00,-1051.00
2024-05-19 08:41:35.497254,-1,1,1,0,0,-1,76,78,106,110,85,133.14,54,-2.00,13.00,-982.00
2024-05-19 08:41:35.598243,-1,1,1,0,0,-1,76,78,106,110,85,133.21,54,-58.00,12.00,-1043.00
2024-05-19 08:41:35.700802,-1,1,1,0,0,-1,76,78,105,110,85,133.09,54,-52.00,26.00,-945.00
2024-05-19 08:41:35.802851,-1,1,1,0,0,-1,76,78,104,110,85,133.11,54,-8.00,-26.00,-1018.00
2024-05-19 08:41:35.905576,-1,1,1,0,0,-1,76,78,103,110,85,133.08,54,-30.00,26.00,-1020.00
2024-05-19 08:41:36.007843,-2,1,1,0,0,-1,75,78,102,110,85,133.15,54,-39.00,-2.00,-1029.00
2024-05-19 08:41:36.108003,-2,1,1,0,0,-1,75,78,101,110,85,133.03,54,-2.00,3.00,-928.00
2024-05-19 08:41:36.210198,-1,1,1,0,0,-1,75,78,100,110,85,133.06,54,-6.00,1.00,-1006.00
2024-05-19 08:41:36.315219,-1,1,1,0,0,0,75,78,99,110,85,132.96,54,-34.00,1.00,-962.00
2024-05-19 08:41:36.414523,-1,1,1,0,0,1,75,78,97,110,85,133.08,55,-54.00,14.00,-925.00
2024-05-19 08:41:36.516278,-1,1,1,0,0,1,75,78,95,110,84,133.04,55,-26.00,-13.00,-1049.00
2024-05-19 08:41:36.622407,-1,0,1,0,0,1,75,78,93,110,84,132.98,55,-60.00,5.00,-1004.00
2024-05-19 08:41:36.721513,-2,0,1,0,0,1,75,78,92,100,84,133.02,55,-19.00,12.00,-1015.00
2024-05-19 08:41:36.771013,-2,0,1,0,0,0,75,78,90,100,84,132.97,55,-28.00,11.00,-1003.00
2024-05-19 08:41:36.873027,-2,0,1,0,0,0,75,78,90,100,84,132.94,55,-23.00,15.00,-1044.00
2024-05-19 08:41:37.032028,-2,0,1,0,0,0,75,78,89,100,84,132.94,55,-22.00,23.00,-1080.00
2024-05-19 08:41:37.077274,-2,0,1,0,0,0,75,78,90,100,84,133.01,55,-9.00,-14.00,-1055.00
2024-05-19 08:41:37.236917,-2,0,1,0,0,0,75,78,91,100,84,132.88,55,-58.00,2.00,-987.00
2024-05-19 08:41:37.281142,-2,0,1,0,0,0,75,78,92,100,84,132.91,55,-79.00,23.00,-1035.00
2024-05-19 08:41:37.441744,-1,0,1,0,0,0,75,78,93,100,84,132.93,56,-47.00,-10.00,-961.00
2024-05-19 08:41:37.486008,-2,0,1,0,0,-1,75,78,94,110,84,132.91,56,-47.00,11.00,-991.00
2024-05-19 08:41:37.646506,-2,0,1,0,0,0,75,78,95,110,84,133.05,56,-61.00,10.00,-1012.00
2024-05-19 08:41:37.690217,-2,0,1,0,0,0,75,78,96,110,84,132.98,56,-4.00,-14.00,-927.00
2024-05-19 08:41:37.792208,-1,0,1,0,0,0,75,78,97,110,84,132.99,56,-17.00,18.00,-1051.00
2024-05-19 08:41:37.954565,-1,0,1,0,0,0,75,78,97,110,84,132.96,56,-57.00,27.00,-966.00
2024-05-19 08:41:37.996157,-1,0,1,0,0,0,75,78,97,110,84,132.97,56,-58.00,14.00,-958.00
2024-05-19 08:41:38.160363,-1,0,1,0,0,0,75,78,98,110,84,133.02,56,-15.00,5.00,-993.00
2024-05-19 08:41:38.200007,-1,0,1,0,0,0,75,78,98,110,84,133.06,56,-36.00,27.00,-1002.00
2024-05-19 08:41:38.363682,-1,0,1,0,0,0,75,78,98,110,84,133.08,56,-32.00,18.00,-1000.00
2024-05-19 08:41:38.404126,-1,0,1,0,0,0,75,78,98,110,84,133.04,57,-25.00,10.00,-1004.00
2024-05-19 08:41:38.568171,-2,0,1,0,0,0,75,78,98,110,84,133.03,57,-35.00,0.00,-956.00
2024-05-19 08:41:38.608062,-2,0,1,0,0,0,75,78,98,110,84,133.07,57,-65.00,32.00,-988.00
2024-05-19 08:41:38.772965,-3,0,1,0,0,0,75,78,98,110,84,132.98,57,-39.00,4.00,-964.00
2024-05-19 08:41:38.812163,-3,0,2,0,0,0,75,78,99,110,84,133.05,57,-56.00,33.00,-1033.00
2024-05-19 08:41:38.977698,-2,0,2,0,0,0,75,78,99,110,84,133.00,57,-66.00,24.00,-972.00
2024-05-19 08:41:39.017484,-2,0,1,0,0,0,76,79,99,110,84,133.02,57,-12.00,26.00,-1067.00
2024-05-19 08:41:39.118085,-2,0,1,0,0,0,76,79,99,110,84,132.99,57,-18.00,30.00,-931.00
2024-05-19 08:41:39.284910,-1,0,1,0,0,0,76,79,98,110,84,133.04,57,-59.00,33.00,-1021.00
2024-05-19 08:41:39.322072,-2,-1,1,0,0,0,76,79,99,110,84,133.00,57,-47.00,30.00,-889.00
2024-05-19 08:41:39.489670,-1,-1,1,0,0,0,76,79,100,110,84,133.03,58,-41.00,18.00,-1027.00
2024-05-19 08:41:39.526109,-1,-1,1,0,0,0,76,79,100,110,84,133.08,58,-11.00,57.00,-1037.00
2024-05-19 08:41:39.691300,-1,-1,1,0,0,0,76,79,101,110,84,133.09,58,-25.00,14.00,-998.00
2024-05-19 08:41:39.730071,-1,-1,1,0,0,0,76,79,102,110,84,133.08,58,-12.00,32.00,-961.00
2024-05-19 08:41:39.857120,0,-1,1,0,0,0,76,79,104,110,84,133.12,58,-19.00,40.00,-1002.00
2024-05-19 08:41:39.883027,0,-2,1,0,0,0,76,79,105,110,84,133.06,58,-14.00,25.00,-1002.00
2024-05-19 08:41:40.036205,-1,-2,1,0,0,0,75,79,107,110,84,133.09,58,-9.00,21.00,-994.00
2024-05-19 08:41:40.206439,-1,-2,1,0,0,0,75,79,108,110,84,133.12,58,-11.00,37.00,-977.00
2024-05-19 08:41:40.240042,-1,-2,1,0,0,0,75,79,109,120,84,133.16,58,-38.00,30.00,-946.00
2024-05-19 08:41:40.411177,-1,-1,1,0,0,0,75,79,110,120,84,133.11,58,6.00,15.00,-987.00
2024-05-19 08:41:40.443899,0,1,1,0,0,-2,75,79,112,120,84,133.38,59,-41.00,57.00,-1748.00
2024-05-19 08:41:40.545938,0,6,1,0,1,-11,75,79,121,120,84,133.42,59,-36.00,-74.00,-1832.00
2024-05-19 08:41:40.596822,0,81,1,-1,8,-17,75,79,378,140,84,133.50,59,-5.00,501.00,-1390.00
2024-05-19 08:41:40.718366,1,-158,1,-1,14,-3,75,79,510,150,84,133.42,59,-7.00,712.00,-830.00
2024-05-19 08:41:40.800885,0,-42,2,-1,9,8,75,79,156,150,84,133.59,59,16.00,710.00,-1206.00
2024-05-19 08:41:40.923075,1,10,2,-2,8,6,75,79,120,140,84,133.35,59,-25.00,163.00,-1054.00
2024-05-19 08:41:41.004894,0,-1,2,-2,10,3,76,79,109,140,84,132.98,59,-18.00,-52.00,-1325.00
2024-05-19 08:41:41.127955,-2,-8,2,-2,9,1,76,79,105,130,84,132.98,59,-26.00,-13.00,-1108.00
2024-05-19 08:41:41.208867,-2,-8,2,-2,7,0,76,79,100,130,84,132.90,59,14.00,-34.00,-1065.00
2024-05-19 08:41:41.332710,-2,-6,2,-1,6,0,76,79,95,130,84,133.07,59,-23.00,-26.00,-1099.00
2024-05-19 08:41:41.412866,-2,-4,2,-1,5,0,76,79,92,130,84,132.93,60,-52.00,35.00,-1010.00
2024-05-19 08:41:41.537713,-1,-3,2,-1,3,0,76,79,89,130,84,132.94,60,-75.00,47.00,-1050.00
2024-05-19 08:41:41.619542,-1,-2,2,-1,2,0,76,79,86,130,84,132.83,60,-23.00,13.00,-1003.00
2024-05-19 08:41:41.719021,-1,-1,2,-1,2,0,76,79,83,130,84,132.93,60,-53.00,36.00,-972.00
2024-05-19 08:41:41.844692,-1,-1,2,0,2,0,76,79,82,130,84,132.83,60,-15.00,64.00,-1102.00
2024-05-19 08:41:41.922846,0,-2,2,0,2,-1,76,79,80,130,84,132.82,60,9.00,6.00,-1007.00
2024-05-19 08:41:42.049537,0,-2,1,0,2,-1,75,79,79,130,84,132.83,60,7.00,-12.00,-1016.00
2024-05-19 08:41:42.126839,0,-2,1,0,2,-1,75,79,79,130,84,132.84,60,6.00,30.00,-961.00
2024-05-19 08:41:42.254336,0,-2,1,0,2,-1,75,79,78,130,84,132.80,60,-12.00,6.00,-977.00
2024-05-19 08:41:42.330831,-1,-5,1,0,1,-1,75,79,77,130,84,132.83,60,-27.00,18.00,-954.00
2024-05-19 08:41:42.459128,-1,-5,2,0,1,-2,75,79,77,140,84,132.83,61,-71.00,39.00,-1014.00
2024-05-19 08:41:42.535510,-1,-4,2,0,0,-2,75,79,77,140,83,132.82,61,-8.00,27.00,-1051.00
2024-05-19 08:41:42.663966,-1,-4,2,0,0,-2,75,79,77,140,83,132.81,61,-26.00,40.00,-1015.00
2024-05-19 08:41:42.738784,-1,-3,2,0,0,-2,75,79,77,140,83,132.79,61,1.00,39.00,-995.00
2024-05-19 08:41:42.858009,-1,-3,2,0,0,-2,75,79,76,140,83,132.79,61,-21.00,37.00,-915.00
2024-05-19 08:41:42.942766,-1,-3,2,0,0,-2,75,79,76,140,83,132.75,61,-4.00,46.00,-1035.00
2024-05-19 08:41:43.073527,-1,-3,1,0,0,0,75,79,76,140,83,132.79,61,-26.00,34.00,-913.00
2024-05-19 08:41:43.146775,-1,-3,1,0,0,0,75,79,75,140,83,132.76,61,-36.00,26.00,-980.00
2024-05-19 08:41:43.278376,-1,-4,1,0,0,0,75,79,74,140,83,132.75,61,-29.00,22.00,-994.00
2024-05-19 08:41:43.350773,-2,-4,1,0,0,0,75,79,73,140,83,132.80,61,-51.00,28.00,-935.00
2024-05-19 08:41:43.483145,-2,-3,1,0,0,0,75,79,74,140,83,132.77,62,-20.00,53.00,-1026.00
2024-05-19 08:41:43.554801,-2,-3,1,0,0,0,75,79,74,140,83,132.71,62,-24.00,16.00,-1010.00
2024-05-19 08:41:43.687874,-2,-3,1,0,0,0,75,79,75,140,83,132.78,62,-41.00,71.00,-989.00
2024-05-19 08:41:43.759766,-2,-3,1,0,0,0,75,79,76,140,83,132.78,62,-12.00,37.00,-1063.00
2024-05-19 08:41:43.860775,-1,-2,1,0,0,0,75,79,78,140,83,132.76,62,-40.00,41.00,-1021.00
2024-05-19 08:41:43.995219,-1,-2,1,0,0,0,75,79,79,140,83,132.86,62,-37.00,58.00,-917.00
