TS,pitch,roll,yaw,vgx,vgy,vgz,templ,temph,tof,h,bat,baro,time,agx,agy,agz
2024-05-19 08:42:32.719599,0,0,2,0,0,0,80,83,10,0,80,131.76,82,-5.00,10.00,-999.00
2024-05-19 08:42:32.839824,0,0,2,0,0,0,80,83,10,0,80,131.76,82,-6.00,8.00,-999.00
2024-05-19 08:42:32.923736,0,0,2,0,0,0,80,83,10,0,80,131.79,82,-5.00,8.00,-1001.00
2024-05-19 08:42:33.044307,0,0,2,0,0,0,80,83,10,0,80,131.81,82,-4.00,10.00,-1002.00
2024-05-19 08:42:33.127256,0,0,2,0,0,0,80,83,10,0,80,131.78,82,-4.00,8.00,-999.00
2024-05-19 08:42:33.248935,0,0,2,0,0,0,80,83,10,0,80,131.77,82,-5.00,8.00,-1000.00
2024-05-19 08:42:33.331198,0,0,2,0,0,0,81,83,10,0,80,131.78,82,-5.00,10.00,-999.00
2024-05-19 08:42:33.453904,0,0,2,0,0,0,81,83,10,0,80,131.77,82,-4.00,9.00,-998.00
2024-05-19 08:42:33.535312,0,0,2,0,0,0,81,83,10,0,80,131.73,82,-6.00,10.00,-999.00
2024-05-19 08:42:33.658705,0,0,2,0,0,0,81,83,10,0,80,131.76,82,-5.00,9.00,-1001.00
2024-05-19 08:42:33.740393,0,0,2,0,0,0,81,83,10,0,80,131.77,82,-6.00,11.00,-1000.00
2024-05-19 08:42:33.863456,0,0,2,0,0,0,81,83,10,0,80,131.74,82,-4.00,9.00,-1000.00
2024-05-19 08:42:33.944247,0,0,2,0,0,0,81,83,10,0,80,131.74,82,-6.00,9.00,-999.00
2024-05-19 08:42:34.068237,0,0,2,0,0,0,81,83,10,0,80,131.73,82,-6.00,8.00,-1000.00
2024-05-19 08:42:34.148275,0,0,2,0,0,0,81,83,10,0,80,131.77,82,-5.00,8.00,-1000.00
2024-05-19 08:42:34.273158,0,0,2,0,0,0,81,83,10,0,80,131.74,82,-5.00,9.00,-1000.00
2024-05-19 08:42:34.352382,0,0,2,0,0,0,80,83,10,0,80,131.77,82,-4.00,8.00,-998.00
2024-05-19 08:42:34.477771,0,0,2,0,0,0,80,83,10,0,80,131.79,82,-5.00,11.00,-1002.00
2024-05-19 08:42:34.556278,0,0,2,0,0,0,80,83,10,0,80,131.77,82,-4.00,8.00,-998.00
2024-05-19 08:42:34.682675,0,0,2,0,0,0,80,83,10,0,80,131.74,82,-4.00,8.00,-1000.00
2024-05-19 08:42:34.709263,0,0,2,0,0,0,80,83,10,0,80,131.78,82,-6.00,11.00,-998.00
2024-05-19 08:42:34.887436,0,0,2,0,0,0,80,83,10,0,80,131.77,82,-3.00,8.00,-1001.00
2024-05-19 08:42:34.913273,0,0,2,0,0,0,80,83,10,0,80,131.76,82,-6.00,8.00,-1000.00
2024-05-19 08:42:35.092310,0,0,2,0,0,0,80,83,10,0,80,131.79,82,-6.00,8.00,-1002.00
2024-05-19 08:42:35.117131,0,0,2,0,0,0,80,83,10,0,80,131.76,82,-4.00,10.00,-1002.00
2024-05-19 08:42:35.297160,0,0,2,0,0,0,80,83,10,0,80,131.75,82,-5.00,9.00,-1002.00
2024-05-19 08:42:35.321271,0,0,2,0,0,0,80,83,10,0,80,131.77,82,-5.00,10.00,-1000.00
2024-05-19 08:42:35.501884,0,0,2,0,0,0,80,83,10,0,80,131.76,82,-5.00,8.00,-999.00
2024-05-19 08:42:35.525171,0,0,2,0,0,0,80,83,10,0,80,131.74,82,-6.00,9.00,-997.00
2024-05-19 08:42:35.627222,0,0,2,0,0,0,80,83,10,0,80,131.69,82,-5.00,7.00,-999.00
2024-05-19 08:42:35.729372,0,0,2,0,0,0,80,83,10,0,80,131.78,82,-6.00,8.00,-998.00
2024-05-19 08:42:35.911509,0,0,2,0,0,0,80,83,10,0,80,131.74,82,-5.00,8.00,-1000.00
2024-05-19 08:42:35.933220,0,0,2,0,0,0,80,83,10,0,80,131.75,82,-5.00,10.00,-1001.00
2024-05-19 08:42:36.120077,0,0,2,0,0,0,80,83,10,0,80,131.77,82,-4.00,8.00,-999.00
2024-05-19 08:42:36.137189,0,0,2,0,0,0,80,83,10,0,80,131.68,82,-4.00,8.00,-1000.00
2024-05-19 08:42:36.287853,0,0,2,0,0,0,80,83,10,0,80,131.75,82,-6.00,9.00,-998.00
2024-05-19 08:42:36.341093,0,0,2,0,0,0,81,83,10,0,80,131.75,82,-6.00,10.00,-996.00
2024-05-19 08:42:36.525888,0,0,2,0,0,0,81,83,10,0,80,131.74,82,3.00,18.00,-1000.00
2024-05-19 08:42:36.545050,0,0,2,0,0,0,81,83,10,0,80,131.74,82,-4.00,19.00,-984.00
2024-05-19 08:42:36.730476,0,0,2,0,0,0,81,83,10,0,80,131.74,82,-7.00,-25.00,-998.00
2024-05-19 08:42:36.748953,0,0,2,0,0,0,81,83,10,0,80,131.74,82,10.00,43.00,-981.00
2024-05-19 08:42:36.935376,0,0,3,0,0,0,81,83,10,0,80,131.74,82,-30.00,-4.00,-967.00
2024-05-19 08:42:36.953108,0,0,4,0,0,0,81,83,10,0,80,131.74,83,-4.00,-5.00,-1168.00
2024-05-19 08:42:37.140623,0,0,4,0,0,-2,81,83,10,0,80,131.74,83,4.00,50.00,-1358.00
2024-05-19 08:42:37.157035,0,0,4,0,0,-5,81,83,11,0,80,131.74,83,-63.00,44.00,-1220.00
2024-05-19 08:42:37.344992,-1,0,4,0,0,-7,81,83,18,10,80,131.97,83,11.00,-3.00,-1082.00
2024-05-19 08:42:37.362623,-1,-1,4,0,0,-8,81,83,26,20,80,132.18,83,-15.00,30.00,-1032.00
2024-05-19 08:42:37.463011,0,-1,4,0,0,-8,81,83,34,30,80,132.18,83,-35.00,31.00,-975.00
2024-05-19 08:42:37.564927,-1,-1,4,0,0,-8,81,83,43,30,80,132.25,83,10.00,-27.00,-965.00
2024-05-19 08:42:37.754557,0,-1,4,0,0,-7,81,83,47,40,80,132.37,83,-38.00,23.00,-892.00
2024-05-19 08:42:37.768992,0,0,4,0,0,-6,81,83,54,50,80,132.39,83,8.00,-6.00,-906.00
2024-05-19 08:42:37.820133,0,0,4,0,0,-5,81,83,59,50,80,132.41,83,6.00,18.00,-891.00
2024-05-19 08:42:37.959364,0,0,4,0,0,-4,81,83,63,60,80,132.41,84,33.00,-12.00,-924.00
2024-05-19 08:42:38.026361,0,0,4,0,0,-3,81,83,67,60,80,132.53,84,-6.00,13.00,-885.00
2024-05-19 08:42:38.126774,0,0,4,0,0,-1,81,83,68,60,80,132.49,84,38.00,10.00,-957.00
2024-05-19 08:42:38.227929,1,0,4,0,0,-1,81,83,68,70,80,132.47,84,-2.00,-20.00,-996.00
2024-05-19 08:42:38.368947,1,0,4,0,0,0,82,84,69,70,80,132.54,84,-1.00,17.00,-979.00
2024-05-19 08:42:38.431896,0,0,4,0,0,0,82,84,70,70,80,132.50,84,32.00,17.00,-935.00
2024-05-19 08:42:38.573723,0,-1,4,0,0,0,82,84,70,70,80,132.53,84,24.00,9.00,-1083.00
2024-05-19 08:42:38.635915,0,-1,4,0,0,0,82,84,71,70,80,132.59,84,2.00,20.00,-992.00
2024-05-19 08:42:38.737993,0,0,4,0,0,0,82,84,72,70,80,132.55,84,6.00,12.00,-995.00
2024-05-19 08:42:38.880959,0,0,4,0,0,-1,82,84,72,70,80,132.56,84,53.00,-17.00,-1040.00
2024-05-19 08:42:38.941897,0,0,4,0,0,0,82,84,73,70,80,132.58,85,25.00,25.00,-951.00
2024-05-19 08:42:39.085768,0,0,4,0,0,0,82,84,73,70,80,132.54,85,-2.00,8.00,-1006.00
2024-05-19 08:42:39.145916,0,0,4,0,0,-1,82,84,74,70,80,132.60,85,-2.00,17.00,-1005.00
2024-05-19 08:42:39.290638,0,-1,4,0,0,-1,82,84,74,70,80,132.49,85,0.00,17.00,-991.00
2024-05-19 08:42:39.349922,0,-1,4,0,0,0,81,83,75,70,80,132.56,85,18.00,8.00,-992.00
2024-05-19 08:42:39.497714,0,-1,4,0,0,0,81,83,75,70,80,132.56,85,-9.00,-5.00,-989.00
2024-05-19 08:42:39.553917,0,0,4,0,0,0,81,83,76,70,80,132.60,85,27.00,-15.00,-1091.00
2024-05-19 08:42:39.700217,0,-1,4,0,0,0,81,83,76,70,80,132.56,85,-24.00,36.00,-1013.00
2024-05-19 08:42:39.758072,0,-1,4,0,0,0,81,83,76,70,80,132.58,85,11.00,17.00,-1023.00
2024-05-19 08:42:39.904931,0,-1,4,0,0,0,81,83,77,70,80,132.54,85,4.00,16.00,-1050.00
2024-05-19 08:42:39.961865,0,-1,4,0,0,0,81,83,77,70,80,132.52,86,32.00,28.00,-1012.00
2024-05-19 08:42:40.063743,0,-1,4,0,0,0,81,83,77,70,80,132.58,86,-18.00,4.00,-976.00
2024-05-19 08:42:40.214250,0,-1,4,0,0,0,81,83,77,70,80,132.58,86,0.00,22.00,-1012.00
2024-05-19 08:42:40.267782,0,-1,4,0,0,0,81,83,78,70,80,132.55,86,-12.00,15.00,-980.00
2024-05-19 08:42:40.416856,0,-1,4,0,0,0,81,83,78,70,80,132.52,86,8.00,21.00,-966.00
2024-05-19 08:42:40.471915,0,-1,4,0,0,0,81,83,78,70,80,132.61,86,24.00,10.00,-946.00
2024-05-19 08:42:40.573949,0,0,4,0,0,0,81,83,78,70,80,132.55,86,-35.00,10.00,-916.00
2024-05-19 08:42:40.724058,1,0,4,0,0,0,81,83,78,70,80,132.61,86,-25.00,25.00,-932.00
2024-05-19 08:42:40.777775,0,0,4,0,0,0,81,83,78,70,80,132.53,86,12.00,16.00,-1009.00
2024-05-19 08:42:40.928852,0,0,4,0,0,0,81,83,78,70,80,132.52,86,35.00,13.00,-1019.00
2024-05-19 08:42:40.981791,0,0,4,0,0,0,81,83,78,70,80,132.48,87,1.00,13.00,-1049.00
2024-05-19 08:42:41.133644,0,0,4,0,0,0,81,83,78,70,80,132.49,87,28.00,-13.00,-968.00
2024-05-19 08:42:41.185754,0,0,4,0,0,0,81,83,79,70,80,132.51,87,36.00,22.00,-1021.00
2024-05-19 08:42:41.338424,1,0,4,0,0,0,81,83,79,70,80,132.49,87,0.00,22.00,-968.00
2024-05-19 08:42:41.389779,1,0,4,0,0,0,81,84,78,70,80,132.48,87,24.00,-8.00,-988.00
2024-05-19 08:42:41.543384,1,0,4,0,0,0,81,84,78,70,80,132.54,87,4.00,-18.00,-1014.00
2024-05-19 08:42:41.593792,0,0,4,0,0,0,81,84,77,70,80,132.55,87,-36.00,19.00,-924.00
2024-05-19 08:42:41.748139,0,0,4,0,0,0,81,84,76,70,80,132.48,87,55.00,22.00,-1017.00
2024-05-19 08:42:41.798039,0,0,4,0,0,0,81,84,76,70,80,132.54,87,5.00,-4.00,-1033.00
2024-05-19 08:42:41.953015,0,0,4,0,0,0,81,84,76,70,80,132.50,87,23.00,-21.00,-1025.00
2024-05-19 08:42:41.953249,0,0,4,0,0,0,81,84,77,70,80,132.49,88,-2.00,17.00,-969.00
2024-05-19 08:42:42.053304,0,0,4,0,0,0,81,84,78,70,80,132.63,88,-25.00,22.00,-988.00
2024-05-19 08:42:42.154895,0,0,4,0,0,0,81,84,79,70,80,132.61,88,-8.00,6.00,-1008.00
2024-05-19 08:42:42.260181,0,0,4,0,0,0,81,84,80,70,80,132.55,88,69.00,-28.00,-1070.00
2024-05-19 08:42:42.360651,0,0,4,0,0,0,81,83,82,70,80,132.55,88,-23.00,-14.00,-960.00
2024-05-19 08:42:42.461306,0,0,4,0,0,-1,81,83,84,70,80,132.58,88,57.00,-25.00,-987.00
2024-05-19 08:42:42.567523,0,0,4,0,0,0,81,83,85,80,80,132.57,88,33.00,-3.00,-963.00
2024-05-19 08:42:42.667924,0,0,4,0,0,0,81,83,85,80,80,132.61,88,21.00,-7.00,-912.00
2024-05-19 08:42:42.766799,0,0,4,0,0,0,81,83,86,80,80,132.62,88,60.00,-44.00,-1035.00
2024-05-19 08:42:42.874627,1,0,4,0,0,0,81,83,86,80,80,132.55,88,16.00,-9.00,-963.00
2024-05-19 08:42:42.970836,0,0,4,0,0,0,81,83,87,80,80,132.62,89,46.00,-21.00,-1044.00
2024-05-19 08:42:43.079561,1,0,4,0,0,0,81,83,88,80,80,132.58,89,17.00,-30.00,-975.00
2024-05-19 08:42:43.174875,1,0,4,0,0,0,81,83,88,80,80,132.65,89,33.00,-30.00,-1009.00
2024-05-19 08:42:43.284055,0,1,4,0,0,0,81,83,88,80,80,132.50,89,18.00,-15.00,-971.00
2024-05-19 08:42:43.378636,0,0,4,0,0,0,82,84,88,80,80,132.54,89,13.00,-35.00,-1007.00
2024-05-19 08:42:43.488909,0,1,4,0,0,0,82,84,88,80,80,132.47,89,61.00,-47.00,-1023.00
2024-05-19 08:42:43.582740,0,2,4,0,0,-1,82,84,88,80,80,132.57,89,49.00,-54.00,-1134.00
2024-05-19 08:42:43.694353,0,2,4,0,0,-2,82,84,90,80,80,132.63,89,72.00,-43.00,-1146.00
2024-05-19 08:42:43.786705,1,1,4,0,0,-2,82,84,92,90,80,132.69,89,60.00,-3.00,-1081.00
2024-05-19 08:42:43.898409,1,0,4,0,0,-3,82,84,95,90,80,132.69,90,45.00,-25.00,-1066.00
2024-05-19 08:42:43.990666,1,0,4,0,0,-4,82,84,99,90,80,132.61,90,9.00,-15.00,-1040.00
2024-05-19 08:42:44.103296,1,0,4,0,0,-4,82,84,103,100,80,132.68,90,38.00,-33.00,-1067.00
2024-05-19 08:42:44.194613,1,0,4,0,0,-4,82,84,108,100,80,132.67,90,17.00,-11.00,-1026.00
2024-05-19 08:42:44.308113,1,0,4,0,0,-5,82,84,113,110,80,132.77,90,34.00,-41.00,-1099.00
2024-05-19 08:42:44.398583,1,0,4,0,0,-5,81,84,119,110,80,132.87,90,10.00,-20.00,-986.00
2024-05-19 08:42:44.512952,1,1,4,0,0,-5,81,84,124,120,80,132.81,90,16.00,-29.00,-1005.00
2024-05-19 08:42:44.602664,1,1,4,0,0,-5,81,84,130,120,80,132.88,90,12.00,-25.00,-953.00
2024-05-19 08:42:44.718161,1,0,4,0,0,-5,81,84,135,130,80,133.02,90,-20.00,-29.00,-947.00
2024-05-19 08:42:44.807689,0,0,4,0,0,-5,81,84,140,130,80,133.04,90,6.00,-31.00,-1011.00
2024-05-19 08:42:44.922421,0,1,4,0,0,-4,81,84,146,140,80,133.06,91,28.00,-27.00,-996.00
2024-05-19 08:42:45.011639,0,1,4,0,0,-4,81,84,151,140,80,133.16,91,18.00,-11.00,-922.00
2024-05-19 08:42:45.127849,0,1,4,0,0,-4,81,84,155,150,80,133.13,91,65.00,-38.00,-976.00
2024-05-19 08:42:45.215557,1,1,4,0,0,-4,81,84,160,150,80,133.20,91,27.00,-42.00,-956.00
2024-05-19 08:42:45.331953,0,1,4,0,0,-3,81,84,163,160,80,133.25,91,66.00,-50.00,-973.00
2024-05-19 08:42:45.419554,0,1,4,0,0,-3,81,84,168,160,80,133.31,91,14.00,-40.00,-1011.00
2024-05-19 08:42:45.537132,0,1,4,0,0,-2,81,84,170,160,80,133.28,91,-30.00,3.00,-970.00
2024-05-19 08:42:45.623744,0,1,4,0,0,-2,81,84,173,170,80,133.30,91,45.00,-43.00,-955.00
2024-05-19 08:42:45.725556,0,1,4,0,0,-2,81,84,175,170,80,133.30,91,24.00,-25.00,-974.00
2024-05-19 08:42:45.776561,0,2,4,0,0,-1,81,84,177,170,80,133.44,91,49.00,-74.00,-973.00
2024-05-19 08:42:45.946352,0,3,4,0,0,-1,81,84,180,170,80,133.43,92,11.00,-42.00,-958.00
2024-05-19 08:42:45.980544,1,2,4,0,0,-1,81,84,181,170,80,133.43,92,42.00,-83.00,-1021.00
2024-05-19 08:42:46.082887,1,3,4,0,0,-1,81,84,182,180,80,133.39,92,7.00,-54.00,-953.00
2024-05-19 08:42:46.253763,0,3,4,0,0,0,81,84,183,180,80,133.39,92,-2.00,-49.00,-929.00
2024-05-19 08:42:46.286789,0,3,4,0,0,0,81,84,184,180,80,133.45,92,11.00,-33.00,-951.00
2024-05-19 08:42:46.458523,0,2,4,0,0,0,81,83,184,180,80,133.44,92,-8.00,-21.00,-894.00
2024-05-19 08:42:46.490563,0,2,4,0,0,0,81,83,184,180,80,133.41,92,48.00,-66.00,-1014.00
2024-05-19 08:42:46.592696,0,2,4,0,0,0,81,83,183,180,80,133.37,92,-42.00,-17.00,-984.00
2024-05-19 08:42:46.766101,0,2,4,0,0,0,81,83,183,180,80,133.44,92,49.00,-64.00,-1029.00
2024-05-19 08:42:46.796622,0,2,4,0,0,0,81,83,183,180,80,133.35,92,0.00,-42.00,-985.00
2024-05-19 08:42:46.970497,0,3,4,0,0,0,81,83,182,180,80,133.37,93,26.00,-59.00,-1036.00
2024-05-19 08:42:47.000439,0,3,4,0,0,0,81,83,181,180,80,133.41,93,24.00,-49.00,-1046.00
2024-05-19 08:42:47.175346,0,2,4,0,0,0,81,83,179,180,80,133.45,93,50.00,-46.00,-983.00
2024-05-19 08:42:47.204687,0,2,4,0,0,0,81,83,179,170,80,133.38,93,19.00,-57.00,-994.00
2024-05-19 08:42:47.380092,0,2,4,0,0,0,81,83,178,170,80,133.37,93,-12.00,-46.00,-976.00
2024-05-19 08:42:47.408695,0,2,4,0,0,0,81,84,178,170,80,133.31,93,3.00,-26.00,-1039.00
2024-05-19 08:42:47.513152,0,2,4,0,0,0,81,84,178,170,80,133.38,93,19.00,-68.00,-990.00
2024-05-19 08:42:47.612675,0,2,4,0,0,0,81,84,177,170,80,133.37,93,-8.00,-34.00,-1003.00
2024-05-19 08:42:47.790436,0,2,4,0,0,0,81,84,176,170,80,133.33,93,0.00,-59.00,-1047.00
2024-05-19 08:42:47.816646,0,2,4,0,0,0,81,84,176,170,80,133.34,93,-7.00,-32.00,-985.00
2024-05-19 08:42:47.994469,0,2,4,0,0,0,81,84,176,170,80,133.39,94,2.00,-21.00,-1015.00
2024-05-19 08:42:48.020697,0,2,4,0,0,0,81,84,178,170,80,133.36,94,31.00,-77.00,-1034.00
2024-05-19 08:42:48.127770,-1,2,4,0,0,0,81,84,178,170,80,133.34,94,0.00,-28.00,-984.00
2024-05-19 08:42:48.226450,-1,2,4,0,0,0,81,84,179,170,80,133.29,94,11.00,-66.00,-962.00
2024-05-19 08:42:48.326451,0,2,4,0,0,0,81,84,178,170,80,133.30,94,-34.00,-21.00,-938.00
2024-05-19 08:42:48.506509,0,2,4,0,0,0,82,83,177,170,80,133.36,94,-7.00,-51.00,-915.00
2024-05-19 08:42:48.530361,-1,2,4,0,0,1,82,83,177,170,80,133.35,94,-55.00,-12.00,-901.00
2024-05-19 08:42:48.711197,0,2,4,0,0,1,82,83,175,170,80,133.34,94,-50.00,-17.00,-946.00
2024-05-19 08:42:48.734327,-1,2,4,0,0,2,82,83,174,170,80,133.33,94,-40.00,-55.00,-948.00
2024-05-19 08:42:48.836549,-1,2,4,0,0,2,82,83,171,170,80,133.29,94,8.00,-56.00,-988.00
2024-05-19 08:42:49.018434,-1,2,4,0,0,2,82,83,170,160,80,133.27,95,-53.00,-39.00,-979.00
2024-05-19 08:42:49.040389,-2,2,4,0,0,2,82,83,166,160,80,133.20,95,-16.00,-65.00,-1008.00
2024-05-19 08:42:49.223722,-2,3,4,0,0,2,82,83,164,160,80,133.12,95,-12.00,-20.00,-1043.00
2024-05-19 08:42:49.244474,-2,3,4,0,0,2,82,83,162,160,80,133.14,95,-46.00,-30.00,-998.00
2024-05-19 08:42:49.427879,-2,2,4,0,0,2,82,83,158,150,80,133.10,95,-84.00,-45.00,-977.00
2024-05-19 08:42:49.448432,-3,2,4,0,0,2,81,84,156,150,80,133.11,95,-54.00,-62.00,-957.00
2024-05-19 08:42:49.574213,-3,3,4,0,0,2,81,84,154,150,80,133.15,95,-31.00,-63.00,-951.00
2024-05-19 08:42:49.652467,-3,3,4,0,0,2,81,84,152,150,80,133.15,95,-13.00,-71.00,-998.00
2024-05-19 08:42:49.703672,-2,3,4,0,0,2,81,84,150,140,80,133.12,95,-37.00,-88.00,-960.00
2024-05-19 08:42:49.805305,-1,3,4,0,0,2,81,84,149,140,80,133.17,95,-39.00,-40.00,-1003.00
2024-05-19 08:42:49.939891,-1,3,4,0,0,1,81,84,147,140,80,133.07,96,6.00,-50.00,-983.00
2024-05-19 08:42:50.009269,-1,3,4,0,0,1,81,84,145,140,80,133.10,96,11.00,-68.00,-1024.00
2024-05-19 08:42:50.144817,0,3,4,0,0,1,81,84,144,140,80,133.00,96,-35.00,-24.00,-1017.00
2024-05-19 08:42:50.213381,-1,2,4,0,0,0,81,84,143,140,80,132.98,96,-72.00,-40.00,-995.00
2024-05-19 08:42:50.349631,-2,2,4,0,0,1,81,84,141,140,80,133.01,96,-14.00,-26.00,-1002.00
2024-05-19 08:42:50.417395,-3,2,4,0,0,1,81,84,140,130,80,133.00,96,14.00,-10.00,-983.00
2024-05-19 08:42:50.555144,-1,1,4,1,0,0,81,84,139,130,80,132.99,96,19.00,-53.00,-1042.00
2024-05-19 08:42:50.623742,0,1,4,1,0,1,81,84,138,130,80,132.95,96,0.00,-33.00,-1060.00
2024-05-19 08:42:50.723626,0,1,4,1,0,0,81,84,137,130,80,132.94,96,-4.00,-41.00,-1073.00
2024-05-19 08:42:50.861612,0,1,4,1,0,0,81,84,136,130,80,132.93,96,36.00,-35.00,-1001.00
2024-05-19 08:42:50.929472,0,2,4,1,0,0,81,84,134,130,80,132.83,97,35.00,-49.00,-977.00
2024-05-19 08:42:51.029317,0,2,4,1,0,0,81,84,133,130,80,132.83,97,42.00,-51.00,-988.00
2024-05-19 08:42:51.131401,0,3,4,1,0,0,81,84,131,130,80,132.86,97,47.00,-71.00,-1031.00
2024-05-19 08:42:51.271214,1,3,4,1,0,0,81,84,130,130,80,132.80,97,48.00,-78.00,-1021.00
2024-05-19 08:42:51.335628,1,4,4,1,0,0,81,84,129,130,80,132.85,97,0.00,-29.00,-1033.00
2024-05-19 08:42:51.475974,0,3,4,0,0,0,81,83,129,130,80,132.90,97,44.00,-89.00,-1001.00
2024-05-19 08:42:51.539369,0,3,4,0,0,0,81,83,127,120,80,132.83,97,11.00,-72.00,-1024.00
2024-05-19 08:42:51.681071,0,3,4,0,0,0,81,83,126,120,80,132.87,97,8.00,-65.00,-1006.00
2024-05-19 08:42:51.743660,0,3,4,0,0,0,81,83,126,120,80,132.80,97,36.00,-48.00,-1031.00
2024-05-19 08:42:51.885766,0,3,4,0,0,0,81,83,126,120,80,132.79,97,62.00,-68.00,-1030.00
2024-05-19 08:42:51.947669,0,3,4,0,0,0,81,83,126,120,80,132.84,98,42.00,-61.00,-1053.00
2024-05-19 08:42:52.090600,1,2,4,0,0,0,81,83,125,120,80,132.81,98,34.00,-74.00,-985.00
2024-05-19 08:42:52.151714,0,2,4,0,0,0,81,83,126,120,80,132.71,98,22.00,-59.00,-1019.00
2024-05-19 08:42:52.295349,0,2,4,0,0,0,81,83,126,120,80,132.83,98,17.00,-60.00,-1023.00
2024-05-19 08:42:52.355293,0,2,4,0,0,0,81,83,127,120,80,132.87,98,18.00,-48.00,-955.00
2024-05-19 08:42:52.499964,0,2,4,0,0,0,81,84,128,120,80,132.80,98,10.00,-73.00,-1021.00
2024-05-19 08:42:52.559421,0,3,4,0,0,0,81,84,129,120,80,132.86,98,46.00,-70.00,-1018.00
2024-05-19 08:42:52.661671,0,3,4,0,0,0,81,84,130,120,80,132.76,98,7.00,5.00,-953.00
2024-05-19 08:42:52.765859,0,2,4,0,0,0,81,84,130,130,80,132.87,98,28.00,-6.00,-949.00
2024-05-19 08:42:52.866278,0,1,4,0,0,0,81,84,131,130,80,132.86,98,28.00,-10.00,-980.00
2024-05-19 08:42:52.967377,0,0,4,0,0,0,81,84,131,130,80,132.90,99,-18.00,-15.00,-1026.00
2024-05-19 08:42:53.083785,0,0,4,0,0,0,81,84,131,130,80,132.86,99,52.00,-33.00,-948.00
2024-05-19 08:42:53.171248,0,0,4,0,0,0,81,84,133,130,80,132.88,99,62.00,-39.00,-983.00
2024-05-19 08:42:53.320370,1,1,4,0,0,0,81,84,133,130,80,132.87,99,-4.00,-12.00,-997.00
2024-05-19 08:42:53.375239,-3,2,4,1,0,0,81,84,135,130,80,132.84,99,40.00,-41.00,-997.00
2024-05-19 08:42:53.528121,-6,2,4,2,0,0,82,84,135,130,80,132.91,99,6.00,-34.00,-987.00
2024-05-19 08:42:53.579191,-7,3,4,3,0,0,82,84,137,130,80,132.93,99,33.00,-57.00,-1001.00
2024-05-19 08:42:53.630176,-7,2,4,4,0,0,82,84,138,130,80,132.86,99,-4.00,-13.00,-1005.00
2024-05-19 08:42:53.831403,-6,2,4,5,0,0,82,84,139,130,80,132.88,99,-9.00,-22.00,-961.00
2024-05-19 08:42:53.835230,-5,1,4,6,0,0,82,84,139,130,80,132.90,99,7.00,-53.00,-965.00
2024-05-19 08:42:54.035895,-4,2,4,7,0,0,82,84,140,130,80,132.90,100,-2.00,-60.00,-992.00
2024-05-19 08:42:54.039448,-3,2,4,7,0,0,82,84,140,130,80,132.91,100,8.00,-53.00,-1005.00
2024-05-19 08:42:54.141540,-1,2,4,7,0,0,82,84,140,130,80,132.97,100,6.00,-45.00,-1000.00
2024-05-19 08:42:54.243191,1,2,4,7,0,0,82,84,141,130,80,132.99,100,-19.00,-29.00,-1017.00
2024-05-19 08:42:54.345147,4,2,4,6,0,0,82,84,141,130,80,132.96,100,9.00,-53.00,-1026.00
2024-05-19 08:42:54.548640,5,1,4,5,0,0,82,84,142,130,80,132.94,100,-33.00,-32.00,-1003.00
2024-05-19 08:42:54.549121,4,1,4,4,0,0,82,84,142,130,80,133.06,100,29.00,-57.00,-1018.00
2024-05-19 08:42:54.752729,3,1,4,3,0,0,82,84,142,130,80,133.00,100,43.00,-66.00,-1022.00
2024-05-19 08:42:54.753089,2,1,4,3,0,0,82,84,141,130,80,132.94,100,32.00,-34.00,-979.00
2024-05-19 08:42:54.855085,1,1,4,3,0,0,82,84,142,130,80,132.93,100,12.00,-28.00,-1003.00
2024-05-19 08:42:54.957176,1,1,4,3,0,0,82,84,141,130,80,132.99,101,19.00,-43.00,-976.00
2024-05-19 08:42:55.060264,1,1,4,3,0,0,82,84,142,130,80,132.92,101,29.00,-28.00,-968.00
2024-05-19 08:42:55.162451,1,0,4,3,0,0,82,84,141,130,80,132.95,101,27.00,-39.00,-1011.00
2024-05-19 08:42:55.264755,1,0,4,3,0,0,82,84,141,130,80,132.95,101,16.00,-23.00,-992.00
2024-05-19 08:42:55.365132,1,0,4,2,0,0,82,84,141,130,80,132.96,101,23.00,-32.00,-995.00
2024-05-19 08:42:55.467550,1,0,4,2,0,0,81,84,142,130,80,133.02,101,75.00,-41.00,-1031.00
2024-05-19 08:42:55.569123,1,1,4,2,0,0,81,84,142,130,80,133.06,101,32.00,-30.00,-1014.00
2024-05-19 08:42:55.673998,2,1,4,2,0,0,81,84,141,130,80,132.95,101,40.00,-20.00,-1042.00
2024-05-19 08:42:55.773819,2,1,4,1,0,0,81,84,141,130,80,132.90,101,4.00,-34.00,-949.00
2024-05-19 08:42:55.879131,5,1,4,1,0,0,81,84,141,130,80,133.00,101,8.00,-2.00,-990.00
2024-05-19 08:42:55.979484,3,1,4,0,0,0,81,84,141,130,80,132.96,102,62.00,-40.00,-994.00
2024-05-19 08:42:56.079215,2,1,4,0,0,0,81,84,140,130,80,132.98,102,9.00,-10.00,-974.00
2024-05-19 08:42:56.181323,1,1,4,0,0,0,81,84,139,130,80,133.00,102,71.00,-49.00,-1020.00
2024-05-19 08:42:56.289417,1,1,4,0,0,0,81,84,138,130,80,132.91,102,24.00,-1.00,-968.00
2024-05-19 08:42:56.385130,1,1,4,0,0,0,81,84,137,130,80,132.99,102,25.00,-28.00,-1047.00
2024-05-19 08:42:56.493605,0,1,4,0,0,0,81,84,137,130,80,133.04,102,33.00,14.00,-1062.00
2024-05-19 08:42:56.589317,0,1,4,0,0,0,81,84,136,130,80,133.01,102,30.00,4.00,-965.00
2024-05-19 08:42:56.698469,0,0,4,0,0,0,81,84,135,130,80,133.00,102,38.00,6.00,-1044.00
2024-05-19 08:42:56.793131,0,0,4,0,0,0,81,84,135,130,80,133.03,102,-15.00,-13.00,-1035.00
2024-05-19 08:42:56.903174,0,0,4,0,0,0,81,84,134,130,80,132.98,102,35.00,21.00,-1018.00
2024-05-19 08:42:56.996944,0,0,4,0,0,0,81,84,134,130,80,132.86,103,28.00,19.00,-1076.00
2024-05-19 08:42:57.108007,0,0,4,0,0,0,81,84,134,130,80,133.04,103,20.00,39.00,-926.00
2024-05-19 08:42:57.150128,0,0,4,0,0,0,81,84,135,130,80,132.96,103,12.00,11.00,-963.00
2024-05-19 08:42:57.312827,0,-1,4,0,0,0,81,84,135,130,80,132.90,103,36.00,31.00,-1005.00
2024-05-19 08:42:57.354430,0,-1,4,0,0,0,81,84,136,130,80,133.00,103,67.00,28.00,-1030.00
2024-05-19 08:42:57.517549,0,-1,4,0,0,0,81,84,136,130,80,132.98,103,-48.00,60.00,-973.00
2024-05-19 08:42:57.558133,0,-1,4,0,0,0,81,84,136,130,80,132.98,103,39.00,34.00,-996.00
2024-05-19 08:42:57.722548,0,-1,4,0,0,0,81,84,137,130,80,133.02,103,27.00,14.00,-916.00
2024-05-19 08:42:57.762061,0,-1,4,0,0,0,81,84,137,130,80,133.05,103,33.00,-2.00,-1005.00
2024-05-19 08:42:57.927524,0,-1,4,0,0,0,81,84,137,130,80,133.05,103,32.00,49.00,-968.00
2024-05-19 08:42:57.965983,0,-1,4,0,0,0,81,84,136,130,80,133.02,104,15.00,48.00,-989.00
2024-05-19 08:42:58.131900,0,-1,4,0,0,0,81,84,135,130,80,133.02,104,13.00,41.00,-1016.00
2024-05-19 08:42:58.170781,4,0,4,0,0,0,81,84,136,130,80,133.07,104,13.00,16.00,-1000.00
2024-05-19 08:42:58.337375,8,0,4,-1,0,0,81,84,136,130,80,133.08,104,35.00,24.00,-1018.00
2024-05-19 08:42:58.373893,8,-1,4,-2,0,0,81,84,135,130,80,133.02,104,51.00,-28.00,-1062.00
2024-05-19 08:42:58.543068,8,-1,4,-4,0,0,82,84,134,130,80,133.03,104,58.00,11.00,-1048.00
2024-05-19 08:42:58.577904,8,0,4,-5,0,0,82,84,134,130,80,132.99,104,75.00,-15.00,-1051.00
2024-05-19 08:42:58.679851,7,-1,4,-6,0,0,82,84,134,130,80,133.03,104,82.00,-15.00,-1004.00
2024-05-19 08:42:58.781866,7,0,4,-6,0,0,82,84,134,130,80,133.06,104,83.00,-16.00,-1087.00
2024-05-19 08:42:58.953123,7,0,4,-6,0,0,82,84,133,130,80,132.98,104,62.00,0.00,-993.00
2024-05-19 08:42:58.985906,4,0,4,-7,0,0,82,84,133,130,80,132.96,105,80.00,-1.00,-974.00
2024-05-19 08:42:59.155831,0,0,4,-7,0,0,82,84,132,130,80,132.96,105,105.00,-34.00,-963.00
2024-05-19 08:42:59.189835,-1,0,4,-5,0,0,82,84,132,130,80,132.97,105,123.00,-13.00,-1054.00
2024-05-19 08:42:59.360680,-2,0,4,-4,0,0,82,84,131,130,80,132.96,105,47.00,-10.00,-979.00
2024-05-19 08:42:59.393827,0,0,4,-3,0,0,82,84,131,130,80,133.01,105,51.00,4.00,-989.00
2024-05-19 08:42:59.565456,1,1,4,-3,0,0,81,85,131,130,80,132.94,105,56.00,38.00,-977.00
2024-05-19 08:42:59.598134,1,0,4,-3,0,0,81,85,131,130,80,133.00,105,76.00,24.00,-985.00
2024-05-19 08:42:59.770286,0,-1,4,-3,0,0,81,85,130,130,80,132.97,105,40.00,8.00,-1023.00
2024-05-19 08:42:59.801829,0,-1,4,-3,0,0,81,85,130,130,80,132.87,105,54.00,23.00,-1048.00
2024-05-19 08:42:59.975145,0,-3,4,-3,0,0,81,85,130,130,80,132.93,106,39.00,20.00,-958.00
2024-05-19 08:43:00.005814,0,-4,4,-2,0,0,81,85,130,130,80,132.88,106,25.00,34.00,-947.00
2024-05-19 08:43:00.179788,-1,-4,4,-2,0,0,81,85,129,130,80,132.97,106,64.00,6.00,-1046.00
2024-05-19 08:43:00.209954,-2,-1,4,-1,-1,0,81,85,129,120,80,132.95,106,31.00,34.00,-1033.00
2024-05-19 08:43:00.385529,-1,2,4,-1,0,0,81,85,129,120,80,132.99,106,49.00,31.00,-977.00
2024-05-19 08:43:00.413785,0,0,4,0,0,0,81,85,129,120,80,132.97,106,66.00,10.00,-1044.00
2024-05-19 08:43:00.589638,0,0,4,0,0,0,81,84,129,120,80,133.05,106,2.00,38.00,-1021.00
2024-05-19 08:43:00.618587,0,-1,4,0,0,0,81,84,130,120,80,132.97,106,47.00,52.00,-1036.00
2024-05-19 08:43:00.794565,0,-2,4,0,0,0,81,84,131,120,80,132.95,106,51.00,-12.00,-1014.00
2024-05-19 08:43:00.821921,0,-2,4,0,0,0,81,84,132,130,80,133.05,106,38.00,40.00,-1089.00
2024-05-19 08:43:00.873243,0,-1,4,0,0,0,81,84,133,130,80,133.06,107,57.00,38.00,-1022.00
2024-05-19 08:43:00.999621,0,-1,4,0,0,0,81,84,134,130,80,133.08,107,-2.00,41.00,-997.00
2024-05-19 08:43:01.077260,0,-1,4,0,0,0,81,84,135,130,80,133.11,107,35.00,43.00,-999.00
2024-05-19 08:43:01.203919,0,-1,4,0,0,0,81,84,135,130,80,133.09,107,18.00,47.00,-1007.00
2024-05-19 08:43:01.280926,0,-1,4,0,0,0,81,84,137,130,80,133.14,107,57.00,25.00,-1003.00
2024-05-19 08:43:01.408858,0,-2,4,0,0,0,81,84,138,130,80,133.03,107,61.00,-2.00,-1018.00
2024-05-19 08:43:01.484955,0,-2,4,0,0,0,80,83,138,130,80,133.11,107,59.00,-11.00,-1000.00
2024-05-19 08:43:01.587703,0,-1,4,0,0,0,80,83,139,130,80,133.07,107,26.00,12.00,-978.00
2024-05-19 08:43:01.716041,0,-1,4,0,0,0,80,83,139,130,80,133.14,107,49.00,-7.00,-981.00
2024-05-19 08:43:01.790772,0,-1,4,0,0,0,80,83,139,130,80,133.15,107,13.00,31.00,-971.00
2024-05-19 08:43:01.920743,0,-1,4,0,0,0,80,83,140,130,80,133.12,108,25.00,34.00,-1023.00
2024-05-19 08:43:01.994892,0,-1,4,0,0,0,80,83,140,130,80,133.12,108,25.00,17.00,-972.00
2024-05-19 08:43:02.126537,0,-1,4,0,0,0,80,83,140,130,80,133.15,108,27.00,64.00,-956.00
2024-05-19 08:43:02.199123,0,-1,4,0,0,0,80,83,140,130,80,133.09,108,0.00,10.00,-918.00
2024-05-19 08:43:02.330406,0,-1,4,0,0,0,80,83,139,130,80,133.13,108,22.00,36.00,-1012.00
2024-05-19 08:43:02.402885,0,-2,4,0,0,0,80,83,138,130,80,133.11,108,-5.00,53.00,-950.00
2024-05-19 08:43:02.504766,0,-2,4,0,0,0,81,84,136,130,80,133.09,108,18.00,50.00,-935.00
2024-05-19 08:43:02.637531,1,-5,4,0,0,0,81,84,136,130,80,133.12,108,-5.00,38.00,-1019.00
2024-05-19 08:43:02.708845,1,-8,4,0,-1,0,81,84,135,130,80,133.08,108,25.00,41.00,-985.00
2024-05-19 08:43:02.810644,0,-8,4,0,-2,1,81,84,133,130,80,133.12,108,21.00,18.00,-1081.00
2024-05-19 08:43:02.949976,0,-5,4,0,-3,0,81,84,132,130,80,133.13,109,-13.00,73.00,-983.00
2024-05-19 08:43:03.014703,-1,-2,4,0,-3,0,81,84,131,130,80,133.11,109,26.00,87.00,-1017.00
2024-05-19 08:43:03.149476,-1,0,4,0,-3,0,81,84,131,130,80,133.17,109,-9.00,86.00,-981.00
2024-05-19 08:43:03.218702,0,0,4,0,-2,0,81,84,131,130,80,133.10,109,31.00,59.00,-995.00
2024-05-19 08:43:03.354327,0,-2,4,0,-1,0,81,84,131,130,80,133.13,109,21.00,56.00,-1034.00
2024-05-19 08:43:03.422806,0,-2,4,0,-1,0,81,84,132,130,80,133.24,109,57.00,14.00,-979.00
2024-05-19 08:43:03.558985,0,-3,4,0,-1,0,82,84,131,130,80,133.23,109,4.00,66.00,-1030.00
2024-05-19 08:43:03.626868,0,-3,4,0,-1,0,82,84,131,130,80,133.13,109,21.00,80.00,-1007.00
2024-05-19 08:43:03.763800,0,-3,4,0,-1,0,82,84,131,130,80,133.18,109,37.00,58.00,-992.00
2024-05-19 08:43:03.832017,0,-3,4,0,-1,0,82,84,131,130,80,133.16,109,27.00,28.00,-998.00
2024-05-19 08:43:03.968627,-1,-2,4,0,-1,0,82,84,129,130,80,133.12,110,78.00,22.00,-1026.00
2024-05-19 08:43:04.034633,-1,-2,4,0,-1,0,82,84,129,130,80,133.12,110,16.00,74.00,-990.00
2024-05-19 08:43:04.173491,0,-3,4,0,-1,0,82,84,129,120,80,133.14,110,31.00,32.00,-1006.00
2024-05-19 08:43:04.238672,0,-3,4,0,-1,0,82,84,129,120,80,133.12,110,-13.00,53.00,-1032.00
2024-05-19 08:43:04.378320,0,-3,4,0,-1,0,82,84,129,120,80,133.04,110,-20.00,63.00,-1030.00
2024-05-19 08:43:04.442594,0,-3,4,1,-1,0,82,84,130,120,80,133.03,110,21.00,56.00,-1064.00
2024-05-19 08:43:04.583090,0,-2,4,1,-1,0,82,84,130,120,80,133.02,110,-39.00,49.00,-959.00
2024-05-19 08:43:04.647044,-1,-2,4,1,-1,0,82,84,130,120,80,133.08,110,4.00,52.00,-981.00
2024-05-19 08:43:04.787840,-1,-1,4,1,-1,0,82,84,130,130,80,133.07,110,-30.00,63.00,-1010.00
2024-05-19 08:43:04.850746,-1,0,4,1,-1,0,82,84,131,130,80,133.09,110,4.00,51.00,-1035.00
2024-05-19 08:43:04.992721,0,1,4,1,0,0,82,84,131,130,80,133.08,111,61.00,10.00,-995.00
2024-05-19 08:43:05.054656,4,0,4,1,0,0,82,84,132,130,80,133.00,111,12.00,27.00,-993.00
2024-05-19 08:43:05.197511,4,0,4,1,0,0,82,84,133,130,80,133.01,111,23.00,42.00,-1009.00
2024-05-19 08:43:05.209529,2,-1,4,0,0,0,82,84,133,130,80,133.00,111,-9.00,51.00,-986.00
2024-05-19 08:43:05.309783,1,-1,4,0,0,0,82,84,133,130,80,132.97,111,63.00,34.00,-984.00
2024-05-19 08:43:05.504766,1,-1,4,0,0,0,82,84,133,130,80,133.13,111,34.00,56.00,-1006.00
2024-05-19 08:43:05.513751,1,-1,4,0,0,0,81,83,133,130,80,133.02,111,27.00,40.00,-1002.00
2024-05-19 08:43:05.709541,1,-1,4,0,0,0,81,83,132,130,80,132.98,111,-16.00,49.00,-1003.00
2024-05-19 08:43:05.718554,1,-1,4,0,0,0,81,83,132,130,80,132.96,111,-19.00,42.00,-940.00
2024-05-19 08:43:05.820627,1,-1,4,0,0,0,81,83,132,130,80,132.87,111,31.00,40.00,-1021.00
2024-05-19 08:43:06.016788,1,-1,4,0,0,0,81,83,132,130,80,132.99,112,47.00,15.00,-1023.00
2024-05-19 08:43:06.024634,0,-1,4,0,0,0,81,83,132,130,80,133.00,112,11.00,26.00,-990.00
2024-05-19 08:43:06.221549,0,-1,4,0,0,0,81,83,132,130,80,133.04,112,-9.00,62.00,-1003.00
2024-05-19 08:43:06.228838,0,-1,4,0,0,0,81,83,132,130,80,133.08,112,12.00,25.00,-1004.00
2024-05-19 08:43:06.429761,0,-1,4,0,0,0,81,83,132,130,80,133.09,112,20.00,24.00,-1020.00
2024-05-19 08:43:06.432588,0,-1,4,0,0,0,81,83,132,130,79,133.05,112,5.00,29.00,-981.00
2024-05-19 08:43:06.631095,0,-1,4,0,0,0,80,82,132,130,79,133.06,112,-33.00,27.00,-927.00
2024-05-19 08:43:06.636536,0,-1,4,0,0,0,80,82,132,130,79,133.01,112,37.00,-5.00,-1016.00
2024-05-19 08:43:06.835996,0,-1,4,0,0,0,80,82,132,130,79,133.01,112,6.00,37.00,-1027.00
2024-05-19 08:43:06.841479,0,-2,4,0,0,0,80,82,132,130,79,133.06,112,34.00,12.00,-1049.00
2024-05-19 08:43:07.040699,0,-1,4,0,0,0,80,82,133,130,79,133.04,113,63.00,0.00,-1071.00
2024-05-19 08:43:07.044620,0,-1,4,0,0,0,80,82,134,130,79,133.06,113,15.00,22.00,-1047.00
2024-05-19 08:43:07.201148,0,-1,4,0,0,0,80,82,134,130,79,133.04,113,30.00,12.00,-1001.00
2024-05-19 08:43:07.248436,0,-1,4,0,0,0,80,82,136,130,79,133.04,113,-3.00,4.00,-967.00
2024-05-19 08:43:07.350457,0,-1,4,0,0,0,80,82,137,130,79,133.15,113,23.00,21.00,-1024.00
2024-05-19 08:43:07.452451,0,4,4,0,0,0,80,82,138,130,79,133.14,113,46.00,26.00,-969.00
2024-05-19 08:43:07.655143,0,6,4,0,1,0,81,84,138,130,79,133.09,113,51.00,19.00,-1039.00
2024-05-19 08:43:07.656584,0,4,4,0,2,0,81,84,139,130,79,133.07,113,25.00,2.00,-1002.00
2024-05-19 08:43:07.860079,0,2,4,0,3,0,81,84,138,130,79,133.00,113,58.00,-15.00,-1030.00
2024-05-19 08:43:07.860677,0,0,4,0,3,0,81,84,139,130,79,132.99,113,25.00,34.00,-997.00
2024-05-19 08:43:07.962445,0,-2,4,0,3,0,81,84,139,130,79,133.11,114,-26.00,32.00,-961.00
2024-05-19 08:43:08.064942,0,-2,4,0,3,0,81,84,140,130,79,133.18,114,-23.00,21.00,-973.00
2024-05-19 08:43:08.166743,0,-1,4,0,2,0,81,84,139,130,79,133.09,114,25.00,-30.00,-1005.00
2024-05-19 08:43:08.269392,0,-1,4,0,2,0,81,84,139,130,79,133.11,114,15.00,-5.00,-1009.00
2024-05-19 08:43:08.371686,0,0,4,0,2,0,81,84,139,130,79,133.10,114,6.00,3.00,-1024.00
2024-05-19 08:43:08.474168,0,0,4,0,2,0,81,84,139,130,79,133.14,114,31.00,-11.00,-1032.00
2024-05-19 08:43:08.574640,0,0,4,0,2,0,81,84,139,130,79,133.06,114,-35.00,32.00,-977.00
2024-05-19 08:43:08.676986,0,0,4,0,2,0,81,84,140,130,79,133.07,114,6.00,27.00,-1020.00
2024-05-19 08:43:08.779318,0,0,4,0,1,0,81,84,140,130,79,133.11,114,49.00,-12.00,-1039.00
2024-05-19 08:43:08.880322,0,0,4,0,2,0,81,84,140,130,79,133.12,114,78.00,-13.00,-1065.00
2024-05-19 08:43:08.986661,0,0,4,0,2,0,81,84,141,130,79,133.07,115,26.00,18.00,-986.00
2024-05-19 08:43:09.033326,0,0,4,0,2,0,81,84,141,130,79,133.13,115,1.00,21.00,-1012.00
2024-05-19 08:43:09.190985,0,-1,4,0,1,0,81,84,141,130,79,133.11,115,50.00,9.00,-1029.00
2024-05-19 08:43:09.237316,0,-1,4,0,1,0,81,84,142,130,79,133.12,115,17.00,14.00,-1034.00
2024-05-19 08:43:09.395794,1,-3,4,0,1,0,81,84,142,130,79,133.11,115,13.00,16.00,-964.00
2024-05-19 08:43:09.441341,1,-4,4,0,0,0,81,84,143,130,79,133.15,115,15.00,10.00,-995.00
2024-05-19 08:43:09.543516,0,-2,4,0,0,0,80,83,143,130,79,133.15,115,-25.00,16.00,-935.00
2024-05-19 08:43:09.703547,0,-2,4,0,0,0,80,83,142,130,79,133.07,115,6.00,33.00,-1040.00
2024-05-19 08:43:09.747562,0,-1,4,0,0,0,80,83,143,130,79,133.07,115,10.00,18.00,-1027.00
2024-05-19 08:43:09.907954,0,-1,4,0,0,0,80,83,143,130,79,133.10,115,57.00,-13.00,-1007.00
2024-05-19 08:43:09.952456,1,-1,4,0,0,0,80,83,142,130,79,133.12,116,52.00,11.00,-1011.00
2024-05-19 08:43:10.112683,0,-1,4,0,0,0,80,83,142,130,79,133.09,116,36.00,1.00,-953.00
2024-05-19 08:43:10.156592,0,-1,4,0,0,0,80,83,142,130,79,133.07,116,9.00,20.00,-1016.00
2024-05-19 08:43:10.317657,0,-1,4,0,0,0,80,83,142,130,79,133.11,116,0.00,33.00,-933.00
2024-05-19 08:43:10.360395,0,-1,4,0,0,0,80,83,142,130,79,133.02,116,42.00,-4.00,-1007.00
2024-05-19 08:43:10.522281,1,-1,4,0,0,0,80,83,141,130,78,132.97,116,37.00,9.00,-997.00
2024-05-19 08:43:10.564326,1,0,4,0,0,0,80,83,140,130,78,133.16,116,17.00,12.00,-969.00
2024-05-19 08:43:10.727552,1,0,4,0,0,0,80,83,140,130,78,133.09,116,59.00,-30.00,-997.00
2024-05-19 08:43:10.768439,1,0,4,0,0,0,80,83,139,130,78,133.05,116,7.00,16.00,-1020.00
2024-05-19 08:43:10.931794,0,0,4,0,0,0,80,83,138,130,78,132.96,116,17.00,-2.00,-981.00
2024-05-19 08:43:10.972606,0,0,4,0,0,0,80,83,138,130,78,133.05,117,-13.00,31.00,-966.00
2024-05-19 08:43:11.136688,0,0,4,0,0,0,80,83,137,130,78,133.07,117,36.00,23.00,-984.00
2024-05-19 08:43:11.176475,0,0,4,0,0,0,80,83,137,130,78,133.11,117,41.00,15.00,-1009.00
2024-05-19 08:43:11.341633,1,0,4,0,0,0,80,83,138,130,78,133.08,117,23.00,10.00,-1009.00
2024-05-19 08:43:11.380303,1,0,4,0,0,0,80,83,138,130,78,133.07,117,-7.00,7.00,-1060.00
2024-05-19 08:43:11.495657,1,0,4,0,0,0,80,83,138,130,78,133.14,117,30.00,8.00,-984.00
2024-05-19 08:43:11.584364,1,0,4,0,0,0,80,83,138,130,78,133.07,117,11.00,-2.00,-995.00
2024-05-19 08:43:11.750945,0,0,4,0,0,0,80,83,138,130,78,133.05,117,-23.00,56.00,-996.00
2024-05-19 08:43:11.788513,0,0,9,0,0,0,80,83,138,130,78,133.09,117,27.00,18.00,-992.00
2024-05-19 08:43:11.956254,0,0,15,0,0,0,80,83,138,130,78,133.08,117,14.00,42.00,-965.00
2024-05-19 08:43:11.992134,0,0,21,0,0,0,80,83,138,130,78,133.07,118,-8.00,-12.00,-994.00
2024-05-19 08:43:12.094163,0,0,26,0,0,0,80,83,138,130,78,133.18,118,3.00,20.00,-961.00
2024-05-19 08:43:12.262938,0,0,32,0,0,0,80,83,138,130,78,133.05,118,29.00,6.00,-991.00
2024-05-19 08:43:12.298167,0,0,38,0,0,0,80,83,138,130,78,133.09,118,-19.00,2.00,-990.00
2024-05-19 08:43:12.467760,0,0,43,0,0,0,80,83,138,130,78,133.12,118,2.00,24.00,-933.00
2024-05-19 08:43:12.502197,0,0,48,0,0,0,80,83,137,130,78,133.09,118,18.00,-8.00,-971.00
2024-05-19 08:43:12.672919,0,0,54,0,0,0,80,84,137,130,78,133.06,118,26.00,22.00,-928.00
2024-05-19 08:43:12.706194,0,0,59,0,0,0,80,84,137,130,78,133.04,118,2.00,37.00,-980.00
2024-05-19 08:43:12.808196,0,0,64,0,0,0,80,84,136,130,78,133.09,118,40.00,4.00,-946.00
2024-05-19 08:43:12.861856,0,0,70,0,0,0,80,84,137,130,78,133.03,118,36.00,1.00,-1011.00
2024-05-19 08:43:12.961108,0,0,76,0,0,0,80,84,136,130,78,132.98,119,32.00,5.00,-1052.00
2024-05-19 08:43:13.082103,0,0,81,0,0,0,80,84,136,130,78,133.03,119,10.00,-14.00,-993.00
2024-05-19 08:43:13.165081,0,0,87,0,0,0,80,84,135,130,78,133.01,119,8.00,-14.00,-982.00
2024-05-19 08:43:13.286922,0,0,93,0,0,0,80,84,135,130,78,132.94,119,44.00,22.00,-986.00
2024-05-19 08:43:13.369088,0,0,99,0,0,0,80,84,135,130,78,132.93,119,12.00,-11.00,-985.00
2024-05-19 08:43:13.492009,1,0,105,0,0,0,80,84,134,130,78,132.95,119,54.00,-49.00,-1044.00
2024-05-19 08:43:13.573404,1,0,117,0,0,0,81,84,134,130,78,133.10,119,14.00,-21.00,-950.00
2024-05-19 08:43:13.696519,1,0,123,0,0,0,81,84,133,130,78,132.92,119,26.00,4.00,-973.00
2024-05-19 08:43:13.777310,0,0,130,0,0,0,81,84,132,130,78,132.93,119,1.00,-10.00,-985.00
2024-05-19 08:43:13.902002,0,0,136,0,0,0,81,84,131,130,78,132.98,120,66.00,-49.00,-1015.00
2024-05-19 08:43:13.981117,0,0,143,0,0,0,81,84,131,130,78,133.01,120,35.00,-30.00,-1027.00
2024-05-19 08:43:14.106119,0,1,149,0,0,0,81,84,130,130,78,133.02,120,18.00,-13.00,-974.00
2024-05-19 08:43:14.185090,0,1,155,0,0,0,81,84,130,130,78,132.97,120,30.00,-61.00,-1023.00
2024-05-19 08:43:14.310927,0,2,161,0,0,0,81,84,129,120,78,132.92,120,-11.00,-30.00,-1004.00
2024-05-19 08:43:14.389924,0,2,167,0,0,0,81,84,130,120,78,133.03,120,-27.00,-14.00,-1026.00
2024-05-19 08:43:14.515743,0,2,173,0,0,0,81,84,130,120,78,133.00,120,-10.00,-46.00,-1038.00
2024-05-19 08:43:14.593037,0,1,179,0,0,0,80,83,130,120,78,133.02,120,-10.00,-12.00,-988.00
2024-05-19 08:43:14.720543,0,1,-174,0,0,0,80,83,129,130,78,133.06,120,12.00,-27.00,-1033.00
2024-05-19 08:43:14.797201,0,1,-168,0,0,0,80,83,130,130,78,133.03,120,9.00,-33.00,-1003.00
2024-05-19 08:43:14.926560,0,1,-163,0,0,0,80,83,130,130,78,132.92,121,-20.00,-60.00,-1074.00
2024-05-19 08:43:15.001114,0,2,-157,0,0,0,80,83,130,130,78,133.04,121,17.00,-28.00,-1023.00
2024-05-19 08:43:15.130129,-1,1,-151,0,0,0,80,83,130,130,78,132.96,121,-61.00,-6.00,-1034.00
2024-05-19 08:43:15.205182,-2,1,-144,0,0,0,80,83,130,130,78,132.98,121,-36.00,-24.00,-1004.00
2024-05-19 08:43:15.334922,-3,1,-138,0,0,0,80,83,130,130,78,132.98,121,-72.00,1.00,-984.00
2024-05-19 08:43:15.409021,-2,0,-132,0,0,0,80,83,131,130,78,132.93,121,-15.00,-13.00,-1032.00
2024-05-19 08:43:15.539696,-2,0,-125,0,0,0,80,83,130,130,78,133.06,121,-33.00,-2.00,-972.00
2024-05-19 08:43:15.613030,-2,0,-118,0,0,0,81,83,131,130,78,133.09,121,-26.00,-7.00,-985.00
2024-05-19 08:43:15.744534,-2,0,-112,0,0,0,81,83,130,130,78,133.15,121,-8.00,-1.00,-1014.00
2024-05-19 08:43:15.817086,-1,0,-105,0,0,0,81,83,130,130,78,133.15,121,12.00,-18.00,-1021.00
2024-05-19 08:43:15.949315,-1,0,-98,0,0,0,81,83,130,130,78,133.05,122,-26.00,23.00,-1009.00
2024-05-19 08:43:16.021012,0,0,-92,0,0,0,81,83,130,130,78,133.01,122,-62.00,26.00,-968.00
2024-05-19 08:43:16.154104,0,0,-85,0,0,0,81,83,130,130,78,133.03,122,-40.00,5.00,-1015.00
2024-05-19 08:43:16.224985,0,0,-79,0,0,0,81,83,130,130,78,133.06,122,-32.00,-2.00,-1010.00
2024-05-19 08:43:16.360536,0,0,-73,0,0,0,81,83,129,130,78,133.01,122,17.00,-1.00,-1051.00
2024-05-19 08:43:16.377941,0,0,-67,0,0,0,81,83,130,130,78,133.09,122,1.00,-1.00,-1053.00
2024-05-19 08:43:16.563634,0,0,-61,0,0,0,81,83,130,130,77,133.09,122,-15.00,16.00,-1026.00
2024-05-19 08:43:16.632910,0,-1,-55,0,0,0,80,84,130,130,77,133.10,122,-49.00,29.00,-974.00
2024-05-19 08:43:16.768548,0,-1,-49,0,0,0,80,84,130,130,77,133.07,122,-10.00,16.00,-978.00
2024-05-19 08:43:16.836943,-1,0,-43,0,0,0,80,84,131,130,77,133.05,122,-33.00,19.00,-968.00
2024-05-19 08:43:16.973298,0,0,-37,0,0,0,80,84,131,130,77,133.05,123,22.00,-22.00,-1009.00
2024-05-19 08:43:16.989897,0,0,-31,0,0,0,80,84,132,130,77,133.05,123,28.00,5.00,-997.00
2024-05-19 08:43:17.178111,0,0,-25,0,0,0,80,84,133,130,77,133.06,123,-4.00,16.00,-1027.00
2024-05-19 08:43:17.194031,0,-1,-19,0,0,0,80,84,134,130,77,133.08,123,14.00,34.00,-1038.00
2024-05-19 08:43:17.383250,1,-1,-13,0,0,0,80,84,135,130,77,133.06,123,8.00,21.00,-1002.00
2024-05-19 08:43:17.398245,1,-1,-8,0,0,0,80,84,135,130,77,133.13,123,-3.00,28.00,-958.00
2024-05-19 08:43:17.590987,1,-1,-5,0,0,0,80,84,135,130,77,133.11,123,13.00,24.00,-936.00
2024-05-19 08:43:17.601879,1,0,-3,0,0,0,81,84,135,130,77,132.98,123,7.00,35.00,-1004.00
2024-05-19 08:43:17.792552,1,0,-1,0,0,0,81,84,136,130,77,133.00,123,13.00,11.00,-995.00
2024-05-19 08:43:17.806788,1,0,0,0,0,0,81,84,135,130,77,133.04,123,-33.00,40.00,-952.00
2024-05-19 08:43:17.997286,1,0,0,0,0,0,81,84,135,130,77,133.05,124,25.00,-1.00,-1002.00
2024-05-19 08:43:18.009835,1,0,1,0,0,0,81,84,135,130,77,133.10,124,14.00,17.00,-987.00
2024-05-19 08:43:18.202296,1,0,2,0,0,0,81,84,135,130,77,133.04,124,50.00,-16.00,-1025.00
2024-05-19 08:43:18.216445,1,0,2,0,0,0,81,84,135,130,77,133.07,124,52.00,-4.00,-1042.00
2024-05-19 08:43:18.315956,1,0,2,0,0,0,81,84,135,130,77,133.07,124,19.00,19.00,-1012.00
2024-05-19 08:43:18.509345,1,0,2,0,0,0,81,84,134,130,77,133.05,124,14.00,8.00,-958.00
2024-05-19 08:43:18.519920,1,0,2,0,0,0,81,84,135,130,77,132.98,124,3.00,-21.00,-1039.00
2024-05-19 08:43:18.714573,1,0,2,0,0,0,81,83,134,130,77,132.98,124,35.00,6.00,-1029.00
2024-05-19 08:43:18.723882,1,0,2,0,0,0,81,83,134,130,77,132.91,124,16.00,-20.00,-939.00
2024-05-19 08:43:18.826373,2,0,2,0,0,0,81,83,134,130,77,132.93,124,28.00,33.00,-1047.00
2024-05-19 08:43:19.021405,1,0,2,0,0,0,81,83,134,130,77,133.00,125,44.00,13.00,-998.00
2024-05-19 08:43:19.029908,1,-1,2,0,0,0,81,83,134,130,77,133.08,125,31.00,6.00,-974.00
2024-05-19 08:43:19.226189,1,-1,2,0,0,0,81,83,133,130,77,132.92,125,3.00,7.00,-1011.00
2024-05-19 08:43:19.233889,1,-1,2,0,0,0,81,83,134,130,77,132.98,125,32.00,-25.00,-988.00
2024-05-19 08:43:19.431084,1,-1,2,0,0,0,81,83,134,130,77,133.04,125,21.00,31.00,-1003.00
2024-05-19 08:43:19.437828,2,0,2,0,0,0,81,83,133,130,77,133.00,125,31.00,1.00,-958.00
2024-05-19 08:43:19.635757,2,0,2,0,0,0,81,83,133,130,77,132.97,125,25.00,5.00,-1007.00
2024-05-19 08:43:19.642252,1,-1,2,0,0,0,80,84,133,130,77,132.99,125,51.00,-10.00,-1027.00
2024-05-19 08:43:19.840706,1,-1,2,0,0,0,80,84,133,130,77,132.95,125,5.00,17.00,-1008.00
2024-05-19 08:43:19.846330,1,-1,2,0,0,0,80,84,134,130,77,133.02,125,48.00,-17.00,-997.00
2024-05-19 08:43:20.045570,1,0,2,0,0,0,80,84,134,130,77,132.96,126,33.00,-16.00,-998.00
2024-05-19 08:43:20.050288,1,0,2,0,0,0,80,84,134,130,77,133.00,126,24.00,-15.00,-995.00
2024-05-19 08:43:20.152084,1,0,2,0,0,0,80,84,134,130,77,132.98,126,33.00,-26.00,-1006.00
2024-05-19 08:43:20.253806,0,0,2,0,0,0,80,84,135,130,77,132.98,126,8.00,-18.00,-1023.00
2024-05-19 08:43:20.454881,0,0,1,0,0,0,80,84,135,130,77,133.10,126,-5.00,22.00,-932.00
2024-05-19 08:43:20.457752,1,0,-3,0,0,0,80,84,135,130,77,133.04,126,15.00,-24.00,-1011.00
2024-05-19 08:43:20.508761,1,1,-9,0,0,0,80,84,136,130,77,133.01,126,46.00,-42.00,-1010.00
2024-05-19 08:43:20.661850,1,0,-16,0,0,0,80,84,136,130,77,133.05,126,26.00,-7.00,-961.00
2024-05-19 08:43:20.763771,1,0,-22,0,0,0,80,84,137,130,77,133.02,126,63.00,-48.00,-978.00
2024-05-19 08:43:20.865799,1,0,-29,0,0,0,80,84,137,130,77,132.93,126,38.00,3.00,-953.00
2024-05-19 08:43:20.967714,1,0,-35,0,0,0,80,84,137,130,77,133.00,127,12.00,13.00,-984.00
2024-05-19 08:43:21.018749,1,0,-41,0,0,0,80,84,137,130,77,133.03,127,6.00,34.00,-962.00
2024-05-19 08:43:21.171653,1,-1,-46,0,0,0,80,84,137,130,77,132.93,127,6.00,27.00,-984.00
2024-05-19 08:43:21.222736,1,-2,-52,0,0,0,80,84,137,130,77,132.95,127,49.00,12.00,-1024.00
2024-05-19 08:43:21.376838,1,-2,-57,0,0,0,80,84,137,130,77,132.89,127,8.00,44.00,-983.00
2024-05-19 08:43:21.427372,1,-2,-63,0,0,0,80,84,137,130,77,132.97,127,8.00,19.00,-1024.00
2024-05-19 08:43:21.581256,1,-1,-69,0,0,0,80,84,137,130,77,132.97,127,0.00,51.00,-1038.00
2024-05-19 08:43:21.631339,1,-1,-76,0,0,0,80,84,136,130,77,132.93,127,21.00,22.00,-994.00
2024-05-19 08:43:21.786152,0,-2,-82,0,0,0,80,84,137,130,77,132.96,127,-8.00,44.00,-986.00
2024-05-19 08:43:21.834876,0,-2,-88,0,0,0,80,84,136,130,77,132.98,127,36.00,38.00,-1006.00
2024-05-19 08:43:21.956409,0,-2,-94,0,0,0,80,84,136,130,77,132.95,128,28.00,38.00,-1019.00
2024-05-19 08:43:22.038702,0,-3,-101,0,0,0,80,84,136,130,77,132.98,128,-9.00,59.00,-914.00
2024-05-19 08:43:22.195620,0,-3,-107,0,0,0,80,84,136,130,77,133.03,128,31.00,31.00,-1038.00
2024-05-19 08:43:22.242739,0,-2,-113,0,0,0,80,84,136,130,77,133.00,128,-40.00,45.00,-999.00
2024-05-19 08:43:22.400491,0,-2,-119,0,0,0,80,84,136,130,77,133.00,128,-43.00,38.00,-996.00
2024-05-19 08:43:22.446752,-1,-2,-126,0,0,0,80,84,135,130,76,132.96,128,-32.00,51.00,-994.00
2024-05-19 08:43:22.605302,-1,-1,-132,0,0,0,80,84,135,130,76,133.00,128,-11.00,14.00,-1033.00
2024-05-19 08:43:22.650877,-1,-1,-138,0,0,0,82,83,134,130,76,132.94,128,-66.00,55.00,-980.00
2024-05-19 08:43:22.810143,-2,0,-144,0,0,0,82,83,134,130,76,132.85,128,-42.00,42.00,-1034.00
2024-05-19 08:43:22.854677,-3,-1,-150,0,0,0,82,83,134,130,76,132.81,128,-44.00,29.00,-1057.00
2024-05-19 08:43:23.015034,-2,-1,-157,0,0,0,82,83,135,130,76,132.97,129,-47.00,10.00,-1002.00
2024-05-19 08:43:23.058716,-3,-1,-163,0,0,0,82,83,134,130,76,132.97,129,-25.00,-11.00,-1074.00
2024-05-19 08:43:23.219813,-2,-1,-169,0,0,0,82,83,135,130,76,132.92,129,-75.00,43.00,-995.00
2024-05-19 08:43:23.262719,-2,-1,-175,0,0,0,82,83,136,130,76,132.83,129,-48.00,-5.00,-1012.00
2024-05-19 08:43:23.424507,-2,0,178,0,0,0,82,83,135,130,76,132.84,129,-81.00,-1.00,-956.00
2024-05-19 08:43:23.466671,-2,0,172,0,0,0,82,83,137,130,76,132.91,129,-73.00,17.00,-959.00
2024-05-19 08:43:23.629313,-2,0,166,0,0,0,82,83,137,130,76,132.83,129,-30.00,-29.00,-1012.00
2024-05-19 08:43:23.670810,-2,0,160,0,0,0,81,83,138,130,76,132.88,129,-67.00,-7.00,-991.00
2024-05-19 08:43:23.772636,-2,0,154,0,0,0,81,83,139,130,76,132.85,129,-24.00,-42.00,-991.00
2024-05-19 08:43:23.874665,-2,0,148,0,0,0,81,83,140,130,76,132.91,129,-54.00,-11.00,-957.00
2024-05-19 08:43:23.976644,-2,0,142,0,0,0,81,83,140,130,76,132.89,130,-19.00,-30.00,-1056.00
2024-05-19 08:43:24.141302,-1,0,136,0,0,0,81,83,140,130,76,133.01,130,26.00,-48.00,-1039.00
2024-05-19 08:43:24.180712,-1,1,130,0,0,0,81,83,141,130,76,132.90,130,-52.00,-26.00,-981.00
2024-05-19 08:43:24.346133,-1,1,124,0,0,0,81,83,141,130,76,132.87,130,-11.00,-10.00,-969.00
2024-05-19 08:43:24.384674,-2,1,118,0,0,0,81,83,141,130,76,132.91,130,-69.00,2.00,-989.00
2024-05-19 08:43:24.551210,-2,1,112,0,0,0,81,83,141,130,76,132.93,130,-47.00,-10.00,-928.00
2024-05-19 08:43:24.551252,-2,1,106,0,0,0,81,83,142,130,76,132.93,130,-29.00,-32.00,-1035.00
2024-05-19 08:43:24.755646,-2,1,100,0,0,0,81,83,141,130,76,132.92,130,17.00,-34.00,-1014.00
2024-05-19 08:43:24.792754,-1,1,94,0,0,0,81,83,140,130,76,132.93,130,26.00,-86.00,-993.00
2024-05-19 08:43:24.940758,-1,1,88,0,0,0,81,83,140,130,76,132.91,130,11.00,-58.00,-995.00
2024-05-19 08:43:24.996694,0,2,82,0,0,0,81,83,139,130,76,132.91,131,17.00,-42.00,-1001.00
2024-05-19 08:43:25.165298,0,2,75,0,0,0,81,83,137,130,76,132.87,131,30.00,-63.00,-983.00
2024-05-19 08:43:25.165389,0,2,69,0,0,0,81,83,137,130,76,132.87,131,54.00,-72.00,-1119.00
2024-05-19 08:43:25.251603,0,2,63,0,0,0,81,83,136,130,76,132.85,131,-3.00,-15.00,-993.00
2024-05-19 08:43:25.370027,0,2,57,0,0,0,81,83,135,130,76,132.89,131,-10.00,-55.00,-1018.00
2024-05-19 08:43:25.457729,1,2,51,0,0,0,81,83,134,130,76,132.91,131,11.00,-44.00,-966.00
2024-05-19 08:43:25.557534,1,2,45,0,0,0,81,83,134,130,76,132.83,131,37.00,-78.00,-1007.00
2024-05-19 08:43:25.677306,1,2,38,0,0,0,81,84,133,130,76,132.77,131,57.00,-11.00,-991.00
2024-05-19 08:43:25.761806,1,2,31,0,0,0,81,84,132,130,76,132.86,131,19.00,-2.00,-932.00
2024-05-19 08:43:25.863542,2,1,24,0,0,0,81,84,131,130,76,132.86,131,67.00,2.00,-1044.00
2024-05-19 08:43:25.984453,2,0,18,0,0,0,81,84,131,130,76,132.81,132,47.00,23.00,-1006.00
2024-05-19 08:43:26.067517,2,0,14,0,1,0,81,84,130,130,76,132.76,132,92.00,-34.00,-1000.00
2024-05-19 08:43:26.189280,3,0,11,0,1,0,81,84,130,130,76,132.82,132,103.00,-12.00,-1010.00
2024-05-19 08:43:26.271758,3,-1,9,0,0,0,81,84,130,130,76,132.68,132,80.00,-12.00,-975.00
2024-05-19 08:43:26.394055,4,-1,8,0,0,0,81,84,129,130,76,132.69,132,52.00,-28.00,-1009.00
2024-05-19 08:43:26.475662,4,0,7,0,0,0,81,84,129,120,76,132.66,132,51.00,-11.00,-1036.00
2024-05-19 08:43:26.598855,4,0,6,0,0,0,81,84,129,120,76,132.77,132,126.00,-61.00,-1032.00
2024-05-19 08:43:26.679507,4,2,5,0,0,0,81,84,129,120,76,132.80,132,52.00,-30.00,-957.00
2024-05-19 08:43:26.803678,4,2,4,0,0,0,81,84,128,120,76,132.72,132,73.00,-44.00,-970.00
2024-05-19 08:43:26.883543,3,2,3,0,0,0,81,84,128,120,76,132.78,133,87.00,-34.00,-1046.00
2024-05-19 08:43:27.008560,2,1,3,0,0,0,81,84,127,120,76,132.69,133,42.00,-31.00,-1001.00
2024-05-19 08:43:27.087710,3,1,4,0,0,0,81,84,127,120,76,132.75,133,86.00,7.00,-1024.00
2024-05-19 08:43:27.213587,3,0,4,0,0,0,81,84,128,120,76,132.74,133,86.00,-32.00,-1030.00
2024-05-19 08:43:27.291651,4,1,4,0,0,0,81,84,127,120,76,132.74,133,99.00,-30.00,-1008.00
2024-05-19 08:43:27.418136,4,1,4,0,0,0,81,84,127,120,76,132.69,133,42.00,-44.00,-960.00
2024-05-19 08:43:27.495532,3,2,4,0,0,0,81,84,127,120,76,132.60,133,24.00,-16.00,-988.00
2024-05-19 08:43:27.622984,3,2,4,0,0,0,81,84,126,120,76,132.71,133,84.00,-24.00,-1052.00
2024-05-19 08:43:27.699501,3,2,4,0,0,0,81,84,127,120,76,132.73,133,72.00,-20.00,-1000.00
2024-05-19 08:43:27.801538,4,1,4,0,0,0,81,84,126,120,76,132.70,133,98.00,-36.00,-997.00
2024-05-19 08:43:27.930609,4,1,4,0,0,0,81,84,127,120,76,132.74,134,94.00,-28.00,-1030.00
2024-05-19 08:43:28.005578,5,0,4,0,0,0,81,84,127,120,76,132.65,134,85.00,-8.00,-974.00
2024-05-19 08:43:28.135329,5,0,3,0,0,0,81,84,127,120,76,132.67,134,75.00,12.00,-1003.00
2024-05-19 08:43:28.209885,5,0,4,0,0,0,81,84,128,120,76,132.60,134,49.00,3.00,-1016.00
2024-05-19 08:43:28.339727,4,0,3,0,0,0,81,84,128,120,76,132.63,134,88.00,-10.00,-964.00
2024-05-19 08:43:28.413587,4,0,3,0,0,0,81,84,129,120,76,132.67,134,53.00,29.00,-1006.00
2024-05-19 08:43:28.544467,4,0,4,0,0,0,81,84,129,120,76,132.75,134,40.00,0.00,-973.00
2024-05-19 08:43:28.617532,4,0,4,0,0,0,81,84,130,120,76,132.76,134,84.00,18.00,-1023.00
2024-05-19 08:43:28.749438,4,0,4,0,0,0,81,83,130,120,76,132.78,134,94.00,25.00,-990.00
2024-05-19 08:43:28.821772,4,-2,4,0,0,0,81,83,130,120,76,132.69,134,88.00,1.00,-978.00
2024-05-19 08:43:28.923321,4,-2,4,0,0,0,81,83,131,130,76,132.70,135,105.00,-30.00,-1059.00
2024-05-19 08:43:28.974352,1,-3,4,0,0,-2,81,83,131,130,76,132.80,135,128.00,-41.00,-1392.00
2024-05-19 08:43:29.158784,0,-5,6,0,-1,-8,81,83,136,130,76,132.85,135,142.00,-16.00,-1692.00
2024-05-19 08:43:29.178330,1,-60,6,2,-4,-12,81,83,162,140,76,133.08,135,118.00,216.00,-1231.00
2024-05-19 08:43:29.364172,0,174,5,3,-13,-2,81,83,572,150,76,132.98,135,86.00,660.00,-999.00
2024-05-19 08:43:29.382374,3,50,0,4,-8,11,81,83,6553,150,76,132.95,135,10.00,473.00,-992.00
2024-05-19 08:43:29.484348,-1,-1,-6,5,-4,9,81,83,139,130,76,132.79,135,64.00,-72.00,-1766.00
2024-05-19 08:43:29.670753,2,2,-7,5,-4,6,81,83,130,130,76,132.88,135,101.00,37.00,-1369.00
2024-05-19 08:43:29.688367,4,1,-6,5,-3,2,81,85,124,120,76,132.97,135,88.00,8.00,-1324.00
2024-05-19 08:43:29.790357,5,1,1,5,-2,0,81,85,121,120,76,132.70,135,47.00,25.00,-1207.00
2024-05-19 08:43:29.892565,4,0,3,3,0,0,81,85,119,120,76,132.67,136,51.00,52.00,-1094.00
2024-05-19 08:43:30.080370,3,-1,4,3,0,0,81,85,118,120,76,132.69,136,46.00,33.00,-1090.00
2024-05-19 08:43:30.096243,2,-2,4,2,0,-1,81,85,118,120,76,132.69,136,42.00,27.00,-1029.00
2024-05-19 08:43:30.285162,2,-1,4,2,0,-1,81,85,118,120,76,132.60,136,52.00,-2.00,-1050.00
2024-05-19 08:43:30.300218,2,-1,4,2,0,0,81,85,117,120,76,132.63,136,-23.00,40.00,-1003.00
2024-05-19 08:43:30.489964,2,-1,4,2,0,0,81,85,118,120,76,132.67,136,-17.00,63.00,-974.00
2024-05-19 08:43:30.504306,3,-1,4,2,0,0,81,85,118,120,75,132.69,136,59.00,29.00,-958.00
2024-05-19 08:43:30.694763,3,-1,4,2,0,0,81,85,118,120,75,132.57,136,44.00,19.00,-1040.00
2024-05-19 08:43:30.708168,5,0,4,2,0,0,81,84,118,120,75,132.62,136,22.00,34.00,-994.00
2024-05-19 08:43:30.899543,5,0,4,1,0,0,81,84,118,120,75,132.62,136,14.00,14.00,-1039.00
2024-05-19 08:43:30.912322,4,0,4,0,0,0,81,84,119,120,75,132.56,137,29.00,30.00,-985.00
2024-05-19 08:43:31.014259,3,0,4,0,0,0,81,84,120,120,75,132.62,137,39.00,4.00,-1040.00
2024-05-19 08:43:31.206990,3,0,4,0,0,0,81,84,121,120,75,132.61,137,61.00,2.00,-1049.00
2024-05-19 08:43:31.218177,2,0,4,0,0,0,81,84,122,120,75,132.64,137,38.00,48.00,-984.00
2024-05-19 08:43:31.413581,2,0,3,0,0,0,81,84,124,120,75,132.66,137,42.00,15.00,-1005.00
2024-05-19 08:43:31.422316,3,0,3,0,0,0,81,84,125,120,75,132.67,137,42.00,45.00,-1042.00
2024-05-19 08:43:31.616590,3,-1,4,0,0,0,81,84,127,120,75,132.69,137,3.00,36.00,-966.00
2024-05-19 08:43:31.630938,3,-1,4,0,0,0,81,84,128,120,75,132.60,137,76.00,32.00,-984.00
2024-05-19 08:43:31.728189,3,-1,4,0,0,0,81,83,129,120,75,132.77,137,79.00,25.00,-1015.00
2024-05-19 08:43:31.923529,3,-1,4,0,0,0,81,83,130,120,75,132.81,137,55.00,40.00,-953.00
2024-05-19 08:43:31.933175,2,-1,4,0,0,0,81,83,131,120,75,132.82,138,24.00,17.00,-1002.00
2024-05-19 08:43:32.128491,1,0,4,0,0,0,81,83,132,120,75,132.86,138,43.00,50.00,-966.00
2024-05-19 08:43:32.137191,1,0,4,0,0,0,81,83,133,120,75,132.81,138,15.00,61.00,-975.00
2024-05-19 08:43:32.333055,1,-1,4,0,0,0,81,83,133,130,75,132.75,138,16.00,36.00,-959.00
2024-05-19 08:43:32.340061,1,-1,3,0,0,0,81,83,135,130,75,132.80,138,11.00,40.00,-962.00
2024-05-19 08:43:32.442248,1,0,3,0,0,0,81,83,135,130,75,132.87,138,27.00,35.00,-1017.00
2024-05-19 08:43:32.640419,1,0,3,0,0,0,81,83,137,130,74,132.97,138,-13.00,66.00,-971.00
2024-05-19 08:43:32.646241,1,-1,3,0,0,0,81,83,136,130,74,132.99,138,18.00,90.00,-937.00
2024-05-19 08:43:32.845166,0,-2,3,-1,1,0,82,83,137,130,74,132.97,138,27.00,85.00,-1030.00
2024-05-19 08:43:32.850850,0,-4,3,0,1,0,82,83,137,130,74,133.02,138,40.00,60.00,-941.00
2024-05-19 08:43:33.050150,0,-4,3,0,1,0,82,83,137,130,74,133.02,139,72.00,35.00,-1020.00
2024-05-19 08:43:33.055805,1,-3,4,0,0,0,82,83,137,130,74,132.94,139,43.00,32.00,-1000.00
2024-05-19 08:43:33.156404,2,-2,4,0,0,0,82,83,137,130,74,132.86,139,82.00,18.00,-1016.00
2024-05-19 08:43:33.357646,3,-2,4,0,0,0,82,83,137,130,74,132.92,139,51.00,12.00,-973.00
2024-05-19 08:43:33.357819,3,-2,4,0,0,0,82,83,136,130,74,132.93,139,73.00,-18.00,-991.00
2024-05-19 08:43:33.411490,3,0,4,0,0,0,82,83,136,130,74,132.96,139,63.00,-16.00,-1032.00
2024-05-19 08:43:33.562501,3,0,4,0,0,0,82,83,135,130,74,132.92,139,34.00,-26.00,-1020.00
2024-05-19 08:43:33.615242,2,0,4,0,0,0,82,83,134,130,74,132.75,139,49.00,-23.00,-1024.00
2024-05-19 08:43:33.766913,2,0,3,0,0,0,81,84,133,130,74,132.76,139,58.00,-41.00,-981.00
2024-05-19 08:43:33.819346,2,1,4,0,0,0,81,84,133,130,74,132.82,139,49.00,-35.00,-947.00
2024-05-19 08:43:33.921125,3,2,4,0,0,0,81,84,132,130,74,132.81,140,85.00,-25.00,-1005.00
2024-05-19 08:43:34.023156,3,1,3,0,0,0,81,84,131,130,74,132.77,140,27.00,-9.00,-966.00
2024-05-19 08:43:34.176437,2,1,3,0,0,0,81,84,130,130,74,132.82,140,9.00,25.00,-951.00
2024-05-19 08:43:34.227287,2,0,3,0,0,0,81,84,129,120,74,132.78,140,-2.00,-4.00,-955.00
2024-05-19 08:43:34.381858,2,0,3,0,0,0,81,84,128,120,74,132.81,140,34.00,-7.00,-990.00
2024-05-19 08:43:34.431176,2,0,3,0,0,0,81,84,128,120,74,132.72,140,14.00,0.00,-984.00
2024-05-19 08:43:34.585901,1,0,3,0,0,0,81,84,127,120,74,132.73,140,36.00,2.00,-1016.00
2024-05-19 08:43:34.635276,1,0,4,0,0,0,81,84,127,120,74,132.86,140,47.00,-2.00,-1068.00
2024-05-19 08:43:34.790884,1,0,4,0,0,0,81,84,127,120,74,132.72,140,70.00,27.00,-1019.00
2024-05-19 08:43:34.840968,1,0,4,0,0,0,81,84,127,120,74,132.71,140,43.00,-18.00,-1004.00
2024-05-19 08:43:34.942346,1,0,3,0,0,0,81,84,126,120,74,132.77,141,-1.00,18.00,-1005.00
2024-05-19 08:43:35.044565,1,0,3,0,0,0,81,84,126,120,74,132.68,141,29.00,15.00,-1029.00
2024-05-19 08:43:35.147044,1,0,3,0,0,0,81,84,126,120,74,132.81,141,25.00,17.00,-1077.00
2024-05-19 08:43:35.249579,0,0,3,0,0,0,81,84,127,120,74,132.82,141,29.00,12.00,-1028.00
2024-05-19 08:43:35.350320,0,0,3,0,0,0,81,84,127,120,74,132.82,141,6.00,-5.00,-982.00
2024-05-19 08:43:35.451881,0,0,3,0,0,0,81,84,126,120,74,132.81,141,6.00,0.00,-1016.00
2024-05-19 08:43:35.609904,0,0,3,0,0,0,81,84,126,120,74,132.89,141,-14.00,72.00,-1274.00
2024-05-19 08:43:35.655946,0,1,4,0,1,-5,81,84,129,120,74,133.00,141,-9.00,44.00,-1769.00
2024-05-19 08:43:35.757931,0,15,4,0,1,-12,81,83,148,130,74,133.17,141,21.00,-6.00,-1768.00
2024-05-19 08:43:35.917155,-1,114,2,0,10,-11,81,83,572,150,74,133.26,141,53.00,813.00,-1259.00
2024-05-19 08:43:35.961975,3,-124,2,0,12,4,81,83,657,150,74,133.26,142,36.00,750.00,-865.00
2024-05-19 08:43:36.100535,1,-17,8,0,5,11,81,83,140,140,74,132.91,142,115.00,494.00,-1206.00
2024-05-19 08:43:36.165956,0,4,7,0,6,9,81,83,125,130,74,132.75,142,-8.00,39.00,-1419.00
2024-05-19 08:43:36.326657,0,-3,6,0,6,4,81,83,117,120,74,132.70,142,73.00,-85.00,-1403.00
2024-05-19 08:43:36.369969,0,-5,4,0,5,1,81,83,112,120,74,132.75,142,-31.00,4.00,-1226.00
2024-05-19 08:43:36.531451,0,-4,3,0,4,0,81,83,109,120,74,132.72,142,2.00,-5.00,-1162.00
2024-05-19 08:43:36.573981,0,-2,3,0,3,0,81,83,107,120,74,132.65,142,0.00,6.00,-1063.00
2024-05-19 08:43:36.736279,0,-2,4,0,2,-1,81,83,106,120,74,132.68,142,10.00,25.00,-1050.00
2024-05-19 08:43:36.777991,0,-1,4,0,2,-1,81,84,106,120,74,132.71,142,9.00,-11.00,-1046.00
2024-05-19 08:43:36.879961,0,-1,4,0,2,-1,81,84,106,120,74,132.68,142,37.00,-48.00,-1004.00
2024-05-19 08:43:36.931151,0,-1,4,0,1,-1,81,84,107,120,74,132.71,143,4.00,0.00,-1006.00
2024-05-19 08:43:37.032904,0,0,4,0,1,-1,81,84,108,120,74,132.71,143,-53.00,9.00,-987.00
2024-05-19 08:43:37.145882,0,0,4,0,1,0,81,84,108,120,74,132.66,143,-5.00,-44.00,-1027.00
2024-05-19 08:43:37.236832,0,-2,4,0,1,0,81,84,108,110,74,132.73,143,-38.00,-61.00,-1012.00
2024-05-19 08:43:37.350641,0,-2,4,0,0,0,81,84,109,110,74,132.71,143,-4.00,-44.00,-1024.00
2024-05-19 08:43:37.440968,0,-1,4,0,0,0,81,84,109,110,73,132.71,143,-15.00,22.00,-996.00
2024-05-19 08:43:37.555475,0,0,4,0,0,0,81,84,110,110,73,132.73,143,3.00,-10.00,-1004.00
2024-05-19 08:43:37.644952,0,0,4,0,0,0,81,84,111,110,73,132.72,143,27.00,-43.00,-1007.00
2024-05-19 08:43:37.760333,0,0,4,0,0,0,81,84,112,110,73,132.73,143,-16.00,-1.00,-1011.00
2024-05-19 08:43:37.849174,0,0,4,0,0,0,81,84,114,110,73,132.70,143,-15.00,13.00,-1028.00
2024-05-19 08:43:37.965080,0,0,4,0,0,-1,81,84,115,120,73,132.72,144,14.00,-41.00,-996.00
2024-05-19 08:43:38.052861,0,0,4,0,0,-1,81,84,117,120,73,132.76,144,79.00,-116.00,-1011.00
2024-05-19 08:43:38.170329,0,0,4,0,0,0,81,84,118,120,73,132.74,144,117.00,-163.00,-1033.00
2024-05-19 08:43:38.256910,1,0,4,0,0,0,81,84,119,120,73,132.77,144,57.00,-130.00,-1045.00
2024-05-19 08:43:38.374726,1,0,4,0,0,0,81,84,120,120,73,132.71,144,65.00,-117.00,-974.00
2024-05-19 08:43:38.461037,1,0,4,0,0,0,81,84,121,120,73,132.74,144,14.00,-14.00,-990.00
2024-05-19 08:43:38.579535,0,0,4,0,0,0,81,84,122,120,73,132.71,144,-25.00,-3.00,-966.00
2024-05-19 08:43:38.664962,0,0,3,0,0,0,81,84,122,120,73,132.80,144,-31.00,6.00,-965.00
2024-05-19 08:43:38.784311,0,0,3,0,0,0,81,84,124,120,73,132.80,144,38.00,-24.00,-984.00
2024-05-19 08:43:38.869044,0,1,4,0,0,0,81,84,124,120,73,132.77,144,-16.00,-16.00,-987.00
2024-05-19 08:43:38.989210,1,1,4,0,0,0,81,84,125,120,73,132.78,145,-6.00,-12.00,-969.00
2024-05-19 08:43:39.074272,1,0,3,0,0,0,81,84,125,120,73,132.79,145,40.00,-41.00,-990.00
2024-05-19 08:43:39.194077,0,0,3,0,0,0,81,84,125,120,73,132.79,145,-13.00,-18.00,-965.00
2024-05-19 08:43:39.277849,0,0,3,0,0,0,81,84,125,120,73,132.74,145,50.00,-17.00,-1025.00
2024-05-19 08:43:39.399481,0,0,3,0,0,0,81,84,126,120,73,132.76,145,38.00,-46.00,-994.00
2024-05-19 08:43:39.481646,0,0,3,0,0,0,81,84,126,120,72,132.79,145,5.00,5.00,-1017.00
2024-05-19 08:43:39.603509,0,0,3,0,0,0,81,84,127,130,72,132.86,145,12.00,7.00,-949.00
2024-05-19 08:43:39.685574,0,0,3,0,0,0,81,84,127,130,72,132.78,145,5.00,4.00,-1003.00
2024-05-19 08:43:39.787187,0,0,3,0,0,0,81,84,127,130,72,132.86,145,2.00,-28.00,-977.00
2024-05-19 08:43:39.888955,0,0,3,0,0,0,81,84,127,130,72,132.88,145,-3.00,-14.00,-996.00
2024-05-19 08:43:39.990987,0,0,3,0,0,0,81,84,126,130,72,132.89,146,-13.00,-9.00,-999.00
2024-05-19 08:43:40.115677,0,0,3,0,0,0,81,84,127,130,72,132.82,146,22.00,-17.00,-1007.00
2024-05-19 08:43:40.195027,0,0,3,0,0,0,81,84,126,130,72,132.86,146,-36.00,3.00,-970.00
2024-05-19 08:43:40.320492,0,0,3,0,0,0,81,84,125,130,72,132.92,146,-10.00,46.00,-963.00
