TS,pitch,roll,yaw,vgx,vgy,vgz,templ,temph,tof,h,bat,baro,time,agx,agy,agz
2024-05-19 08:44:15.750298,0,0,2,0,0,0,83,86,10,0,69,131.30,164,-6.00,0.00,-995.00
2024-05-19 08:44:15.793197,0,0,2,0,0,0,83,86,10,0,69,131.27,164,-7.00,0.00,-1000.00
2024-05-19 08:44:15.955307,0,0,2,0,0,0,83,86,10,0,69,131.27,164,-8.00,0.00,-997.00
2024-05-19 08:44:15.997493,0,0,2,0,0,0,83,86,10,0,69,131.29,164,-6.00,0.00,-1000.00
2024-05-19 08:44:16.159992,0,0,2,0,0,0,83,86,10,0,69,131.23,164,-8.00,0.00,-1000.00
2024-05-19 08:44:16.200925,0,0,2,0,0,0,83,86,10,0,69,131.28,164,-8.00,1.00,-1000.00
2024-05-19 08:44:16.364706,0,0,2,0,0,0,83,86,10,0,69,131.29,164,-6.00,0.00,-998.00
2024-05-19 08:44:16.405076,0,0,2,0,0,0,83,86,10,0,69,131.29,164,-6.00,0.00,-1000.00
2024-05-19 08:44:16.569494,0,0,2,0,0,0,83,86,10,0,69,131.23,164,-8.00,0.00,-1000.00
2024-05-19 08:44:16.609067,0,0,2,0,0,0,83,86,10,0,69,131.29,164,-7.00,0.00,-1001.00
2024-05-19 08:44:16.774247,0,0,2,0,0,0,83,86,10,0,69,131.24,164,-8.00,0.00,-1000.00
2024-05-19 08:44:16.813184,0,0,2,0,0,0,83,86,10,0,69,131.23,164,-8.00,1.00,-1001.00
2024-05-19 08:44:16.979254,0,0,2,0,0,0,83,86,10,0,69,131.29,164,-7.00,0.00,-998.00
2024-05-19 08:44:17.017107,0,0,2,0,0,0,83,86,10,0,69,131.25,164,-6.00,0.00,-999.00
2024-05-19 08:44:17.067840,0,0,2,0,0,0,83,86,10,0,69,131.26,164,-7.00,0.00,-997.00
2024-05-19 08:44:17.169948,0,0,2,0,0,0,83,86,10,0,69,131.25,164,-8.00,0.00,-999.00
2024-05-19 08:44:17.286449,0,0,2,0,0,0,83,86,10,0,69,131.26,164,-6.00,0.00,-999.00
2024-05-19 08:44:17.373935,0,0,2,0,0,0,83,86,10,0,69,131.24,164,-7.00,1.00,-999.00
2024-05-19 08:44:17.491210,0,0,2,0,0,0,83,86,10,0,69,131.32,164,-6.00,0.00,-1000.00
2024-05-19 08:44:17.578012,0,0,2,0,0,0,83,86,10,0,69,131.28,164,-6.00,-1.00,-1000.00
2024-05-19 08:44:17.696008,0,0,2,0,0,0,83,86,10,0,69,131.26,164,-7.00,0.00,-1001.00
2024-05-19 08:44:17.781928,0,0,2,0,0,0,83,86,10,0,69,131.29,164,-7.00,0.00,-999.00
2024-05-19 08:44:17.900792,0,0,2,0,0,0,83,86,10,0,69,131.28,164,-7.00,0.00,-1000.00
2024-05-19 08:44:17.986114,0,0,2,0,0,0,83,86,10,0,69,131.31,164,-7.00,1.00,-1000.00
2024-05-19 08:44:18.105570,0,0,2,0,0,0,83,86,10,0,69,131.30,164,-8.00,0.00,-1000.00
2024-05-19 08:44:18.189890,0,0,2,0,0,0,83,86,10,0,69,131.28,164,-7.00,1.00,-1000.00
2024-05-19 08:44:18.310439,0,0,2,0,0,0,83,86,10,0,69,131.28,164,-7.00,0.00,-999.00
2024-05-19 08:44:18.393961,0,0,2,0,0,0,83,86,10,0,69,131.27,164,-8.00,0.00,-1000.00
2024-05-19 08:44:18.495606,0,0,2,0,0,0,83,86,10,0,69,131.31,164,-6.00,0.00,-1000.00
2024-05-19 08:44:18.617534,0,0,2,0,0,0,83,86,10,0,69,131.31,164,-4.00,1.00,-1001.00
2024-05-19 08:44:18.699822,0,0,2,0,0,0,83,86,10,0,69,131.31,164,-6.00,-1.00,-997.00
2024-05-19 08:44:18.822312,0,0,2,0,0,0,83,86,10,0,69,131.31,164,-10.00,7.00,-1007.00
2024-05-19 08:44:18.903853,0,0,3,0,0,0,83,86,10,0,69,131.31,164,-19.00,-28.00,-984.00
2024-05-19 08:44:19.027019,0,0,5,0,0,0,84,86,10,0,69,131.31,164,-2.00,0.00,-980.00
2024-05-19 08:44:19.107744,0,0,5,0,0,0,84,86,10,0,69,131.31,164,-3.00,-1.00,-1027.00
2024-05-19 08:44:19.231848,1,0,6,0,0,-1,84,86,10,0,69,131.31,164,-23.00,-5.00,-1174.00
2024-05-19 08:44:19.311732,0,1,6,0,0,-4,84,86,10,0,69,131.31,164,21.00,-96.00,-1319.00
2024-05-19 08:44:19.436685,-2,0,6,0,0,-7,84,86,15,0,69,131.31,165,39.00,-37.00,-1211.00
2024-05-19 08:44:19.515811,-2,0,6,0,0,-8,84,86,22,10,69,131.64,165,-3.00,-18.00,-1049.00
2024-05-19 08:44:19.641425,0,0,6,0,0,-8,84,86,30,20,69,131.82,165,-14.00,3.00,-1033.00
2024-05-19 08:44:19.719768,0,1,6,0,0,-7,84,86,38,30,69,131.82,165,0.00,9.00,-933.00
2024-05-19 08:44:19.847212,0,1,6,0,0,-7,84,86,46,30,69,131.86,165,-26.00,1.00,-893.00
2024-05-19 08:44:19.923869,0,0,5,0,0,-6,84,86,50,40,69,131.89,165,2.00,-29.00,-904.00
2024-05-19 08:44:20.025749,0,0,5,0,0,-5,85,87,60,40,69,131.98,165,31.00,-18.00,-865.00
2024-05-19 08:44:20.154118,1,0,5,0,0,-3,85,87,66,50,69,132.05,165,39.00,-2.00,-864.00
2024-05-19 08:44:20.229665,2,0,6,1,0,-2,85,87,68,50,69,132.08,165,48.00,-39.00,-922.00
2024-05-19 08:44:20.358212,3,1,6,0,0,-2,85,87,71,50,69,132.12,165,40.00,-11.00,-955.00
2024-05-19 08:44:20.433672,2,1,6,0,0,-1,85,87,74,50,69,132.21,166,14.00,-5.00,-875.00
2024-05-19 08:44:20.563036,2,0,6,0,0,0,85,87,76,60,69,132.20,166,20.00,-5.00,-966.00
2024-05-19 08:44:20.637662,2,0,6,0,0,0,85,87,78,60,69,132.23,166,37.00,10.00,-1003.00
2024-05-19 08:44:20.688841,2,0,6,0,0,0,85,87,79,60,69,132.33,166,47.00,-27.00,-1012.00
2024-05-19 08:44:20.870222,2,0,6,0,0,0,85,87,81,60,69,132.27,166,22.00,-30.00,-978.00
2024-05-19 08:44:20.892779,2,1,6,0,0,0,85,87,82,60,69,132.24,166,48.00,-10.00,-1019.00
2024-05-19 08:44:21.075598,2,1,5,0,0,0,85,88,84,60,69,132.37,166,12.00,-21.00,-938.00
2024-05-19 08:44:21.096722,2,1,6,0,0,0,85,88,86,60,69,132.35,166,0.00,-3.00,-979.00
2024-05-19 08:44:21.198933,1,1,6,0,0,0,85,88,87,60,69,132.35,166,0.00,-24.00,-935.00
2024-05-19 08:44:21.382509,1,1,5,0,0,0,85,88,88,70,69,132.32,166,43.00,-2.00,-1009.00
2024-05-19 08:44:21.402805,2,1,5,0,0,0,85,88,89,70,69,132.41,167,47.00,-29.00,-977.00
2024-05-19 08:44:21.504879,1,0,5,0,0,0,85,88,89,70,69,132.43,167,7.00,-22.00,-917.00
2024-05-19 08:44:21.690256,1,0,5,0,0,0,85,88,89,70,69,132.40,167,10.00,-4.00,-958.00
2024-05-19 08:44:21.708818,1,0,5,0,0,0,85,88,89,70,69,132.36,167,28.00,-19.00,-1018.00
2024-05-19 08:44:21.894279,2,0,5,0,0,0,85,88,89,70,69,132.37,167,28.00,2.00,-952.00
2024-05-19 08:44:21.912838,2,0,5,0,0,0,85,88,90,70,69,132.39,167,25.00,-3.00,-973.00
2024-05-19 08:44:22.099158,2,0,5,0,0,0,84,87,90,70,69,132.36,167,37.00,-9.00,-1015.00
2024-05-19 08:44:22.116735,2,0,5,0,0,0,84,87,90,70,69,132.33,167,31.00,4.00,-1060.00
2024-05-19 08:44:22.303771,2,0,5,0,0,0,84,87,90,70,69,132.34,167,5.00,-13.00,-991.00
2024-05-19 08:44:22.320728,1,0,5,0,0,0,84,87,90,70,69,132.41,167,11.00,-10.00,-949.00
2024-05-19 08:44:22.508570,1,-1,6,0,0,0,84,87,90,70,69,132.43,168,32.00,0.00,-1034.00
2024-05-19 08:44:22.524703,0,-1,6,0,0,0,84,87,89,70,69,132.44,168,29.00,-16.00,-922.00
2024-05-19 08:44:22.713416,1,0,6,0,0,0,84,87,89,70,69,132.44,168,25.00,26.00,-985.00
2024-05-19 08:44:22.728714,1,0,6,0,0,0,84,87,88,70,69,132.44,168,-15.00,3.00,-980.00
2024-05-19 08:44:22.918171,1,0,6,0,0,0,84,87,87,70,69,132.37,168,5.00,25.00,-1021.00
2024-05-19 08:44:22.932745,1,0,6,0,0,0,84,87,87,70,69,132.31,168,12.00,0.00,-977.00
2024-05-19 08:44:23.034672,2,0,6,0,0,0,84,87,86,70,69,132.36,168,27.00,-6.00,-960.00
2024-05-19 08:44:23.225303,1,-1,6,0,0,0,84,87,85,70,69,132.26,168,31.00,2.00,-990.00
2024-05-19 08:44:23.238809,2,0,6,0,0,0,84,87,84,70,69,132.31,168,2.00,17.00,-967.00
2024-05-19 08:44:23.430209,2,0,6,0,0,0,84,87,83,70,69,132.41,168,60.00,-44.00,-1033.00
2024-05-19 08:44:23.442692,2,0,6,0,0,0,84,87,83,70,69,132.31,169,17.00,-24.00,-1000.00
2024-05-19 08:44:23.634970,2,0,6,0,0,0,84,87,82,70,69,132.36,169,64.00,-31.00,-1033.00
2024-05-19 08:44:23.646717,2,0,6,0,0,0,84,87,82,60,69,132.29,169,14.00,0.00,-951.00
2024-05-19 08:44:23.840260,2,0,6,0,0,0,84,87,82,60,69,132.31,169,13.00,-26.00,-980.00
2024-05-19 08:44:23.850612,2,0,6,0,0,0,84,87,82,60,69,132.32,169,3.00,-7.00,-970.00
2024-05-19 08:44:24.045104,3,1,6,0,0,0,84,87,82,60,69,132.35,169,37.00,-41.00,-994.00
2024-05-19 08:44:24.054579,3,1,5,0,0,0,84,87,82,60,69,132.31,169,55.00,-42.00,-1020.00
2024-05-19 08:44:24.156614,2,1,5,0,0,0,84,87,82,60,69,132.31,169,62.00,-39.00,-1072.00
2024-05-19 08:44:24.351740,2,1,5,0,0,0,84,87,81,60,69,132.28,169,70.00,-24.00,-1017.00
2024-05-19 08:44:24.360569,2,1,5,0,0,0,84,87,81,60,69,132.29,169,40.00,-24.00,-982.00
2024-05-19 08:44:24.556582,2,1,5,0,0,0,84,87,81,60,69,132.30,170,55.00,-20.00,-1007.00
2024-05-19 08:44:24.564696,2,1,5,0,0,0,84,87,81,60,69,132.31,170,4.00,17.00,-1005.00
2024-05-19 08:44:24.615370,2,0,5,0,0,0,84,87,81,60,69,132.34,170,55.00,-43.00,-1004.00
2024-05-19 08:44:24.761362,2,0,6,0,0,0,84,87,81,60,69,132.33,170,22.00,-15.00,-1014.00
2024-05-19 08:44:24.819436,2,1,6,0,0,0,84,87,81,60,69,132.29,170,6.00,23.00,-989.00
2024-05-19 08:44:24.966192,2,0,5,0,0,0,84,87,80,60,69,132.25,170,37.00,-25.00,-1035.00
2024-05-19 08:44:25.074619,2,0,5,0,0,0,84,87,80,60,69,132.30,170,18.00,-18.00,-989.00
2024-05-19 08:44:25.125360,2,0,5,0,0,0,84,87,80,60,69,132.28,170,7.00,-12.00,-961.00
2024-05-19 08:44:25.273378,1,0,6,0,0,0,84,87,79,60,69,132.36,170,54.00,-14.00,-1061.00
2024-05-19 08:44:25.329527,2,0,6,0,0,0,84,87,79,60,69,132.26,170,19.00,-58.00,-971.00
2024-05-19 08:44:25.478568,1,0,6,0,0,0,84,87,78,60,69,132.37,171,5.00,-11.00,-1048.00
2024-05-19 08:44:25.533706,1,1,6,0,0,0,84,87,77,60,69,132.34,171,47.00,-28.00,-1001.00
2024-05-19 08:44:25.683091,1,1,6,0,0,0,84,87,76,60,69,132.37,171,72.00,-21.00,-1027.00
2024-05-19 08:44:25.737738,0,0,6,0,0,0,84,87,76,60,69,132.28,171,21.00,-25.00,-976.00
2024-05-19 08:44:25.887897,0,0,6,0,0,0,84,87,75,60,69,132.31,171,0.00,-22.00,-1013.00
2024-05-19 08:44:25.941492,0,0,6,0,0,0,84,87,75,60,69,132.27,171,-24.00,9.00,-986.00
2024-05-19 08:44:26.043405,0,0,6,0,0,0,84,86,74,60,69,132.28,171,45.00,-29.00,-1032.00
2024-05-19 08:44:26.195068,0,0,6,0,0,0,84,86,74,60,69,132.35,171,10.00,0.00,-980.00
2024-05-19 08:44:26.247543,0,1,6,0,0,0,84,86,74,60,69,132.27,171,71.00,-32.00,-1066.00
2024-05-19 08:44:26.349588,0,1,6,0,0,0,84,86,74,60,69,132.34,171,4.00,-27.00,-960.00
2024-05-19 08:44:26.502473,0,0,5,0,0,0,84,86,75,60,69,132.29,172,9.00,-15.00,-1017.00
2024-05-19 08:44:26.553740,0,0,5,0,0,0,84,86,75,60,69,132.28,172,6.00,-8.00,-1026.00
2024-05-19 08:44:26.707107,0,0,5,0,0,0,84,86,76,60,69,132.32,172,-8.00,-41.00,-972.00
2024-05-19 08:44:26.758478,0,0,5,0,0,0,84,86,76,60,69,132.40,172,5.00,-26.00,-982.00
2024-05-19 08:44:26.915720,1,1,5,0,0,0,84,86,77,60,69,132.36,172,-16.00,3.00,-959.00
2024-05-19 08:44:26.961816,0,0,5,0,0,0,84,86,77,60,69,132.29,172,20.00,-31.00,-1020.00
2024-05-19 08:44:27.063383,0,0,5,0,0,0,84,86,77,60,69,132.46,172,-25.00,-14.00,-949.00
2024-05-19 08:44:27.167497,0,0,5,0,0,0,84,86,78,60,69,132.37,172,52.00,-4.00,-1047.00
2024-05-19 08:44:27.267572,0,0,5,0,0,0,84,86,78,60,69,132.37,172,41.00,1.00,-1009.00
2024-05-19 08:44:27.369574,1,0,5,0,0,0,84,86,79,60,69,132.42,172,0.00,13.00,-988.00
2024-05-19 08:44:27.526155,1,0,5,0,0,0,84,86,79,60,69,132.38,173,45.00,7.00,-1163.00
2024-05-19 08:44:27.573292,1,0,5,0,0,0,84,86,80,60,69,132.45,173,24.00,-6.00,-1126.00
2024-05-19 08:44:27.730975,1,0,5,0,0,-1,84,86,82,60,69,132.44,173,0.00,-9.00,-1023.00
2024-05-19 08:44:27.777317,1,0,5,0,0,-2,84,86,84,70,69,132.48,173,46.00,-37.00,-1148.00
2024-05-19 08:44:27.936248,1,1,5,0,0,-3,84,86,88,70,69,132.52,173,41.00,-13.00,-1045.00
2024-05-19 08:44:27.936424,2,1,6,0,0,-4,84,86,92,70,69,132.57,173,39.00,-23.00,-1084.00
2024-05-19 08:44:28.083411,2,1,6,0,0,-4,84,87,99,80,69,132.69,173,25.00,-9.00,-1039.00
2024-05-19 08:44:28.243405,2,1,6,0,0,-4,84,87,104,80,69,132.67,173,41.00,-29.00,-1047.00
2024-05-19 08:44:28.287453,2,0,6,0,0,-5,84,87,110,90,69,132.82,173,100.00,-69.00,-1051.00
2024-05-19 08:44:28.447836,2,0,6,0,0,-5,84,87,116,90,69,132.75,173,79.00,-54.00,-1020.00
2024-05-19 08:44:28.491235,3,2,6,0,0,-5,84,87,121,100,69,132.93,174,38.00,-41.00,-973.00
2024-05-19 08:44:28.653704,3,2,6,0,0,-5,84,87,127,100,69,132.92,174,76.00,-66.00,-948.00
2024-05-19 08:44:28.695209,3,2,6,0,0,-5,84,87,132,110,69,133.00,174,29.00,-56.00,-944.00
2024-05-19 08:44:28.746574,3,2,6,0,0,-5,84,87,138,120,69,133.05,174,113.00,-61.00,-1030.00
2024-05-19 08:44:28.858666,3,3,5,0,0,-5,84,87,142,120,69,133.11,174,65.00,-75.00,-920.00
2024-05-19 08:44:28.950298,4,3,5,0,0,-4,84,87,147,130,69,133.19,174,54.00,-15.00,-961.00
2024-05-19 08:44:29.052320,4,3,5,0,0,-4,85,87,150,130,69,133.09,174,71.00,-37.00,-953.00
2024-05-19 08:44:29.164538,4,2,5,0,0,-3,85,87,152,130,69,133.14,174,64.00,-30.00,-1026.00
2024-05-19 08:44:29.256391,4,2,6,0,0,-3,85,87,155,140,69,133.19,174,97.00,-81.00,-923.00
2024-05-19 08:44:29.371406,4,2,5,0,0,-2,85,87,157,140,69,133.17,174,51.00,-35.00,-926.00
2024-05-19 08:44:29.460376,4,3,5,0,0,-2,85,87,158,140,69,133.19,175,69.00,-56.00,-944.00
2024-05-19 08:44:29.574111,4,3,5,0,0,-1,85,87,159,140,69,133.29,175,51.00,-37.00,-950.00
2024-05-19 08:44:29.664487,4,3,5,0,0,-1,85,87,161,140,69,133.21,175,90.00,-40.00,-1029.00
2024-05-19 08:44:29.766314,4,3,5,0,0,-1,85,87,163,150,69,133.29,175,68.00,-65.00,-1014.00
2024-05-19 08:44:29.882690,4,3,6,0,0,-1,85,87,163,150,69,133.25,175,70.00,-65.00,-990.00
2024-05-19 08:44:29.970302,4,2,5,0,0,0,85,87,164,150,69,133.29,175,77.00,-69.00,-964.00
2024-05-19 08:44:30.072451,4,3,6,0,0,0,84,87,165,150,69,133.22,175,78.00,-56.00,-1025.00
2024-05-19 08:44:30.174310,5,2,6,0,0,0,84,87,165,150,69,133.29,175,40.00,-32.00,-980.00
2024-05-19 08:44:30.292051,4,2,6,0,0,0,84,87,166,150,69,133.32,175,45.00,-42.00,-992.00
2024-05-19 08:44:30.378778,4,2,6,0,0,0,84,87,166,150,69,133.31,175,122.00,-74.00,-1043.00
2024-05-19 08:44:30.496892,4,3,5,0,0,-1,84,87,167,150,69,133.34,176,60.00,-74.00,-987.00
2024-05-19 08:44:30.582458,3,3,5,0,0,-1,84,87,168,150,69,133.32,176,77.00,-96.00,-959.00
2024-05-19 08:44:30.700545,4,3,6,0,0,0,84,87,168,150,69,133.46,176,14.00,-95.00,-1004.00
2024-05-19 08:44:30.786410,3,3,6,0,0,0,84,87,169,150,69,133.37,176,13.00,-80.00,-909.00
2024-05-19 08:44:30.905530,2,5,5,0,0,0,84,87,169,150,69,133.39,176,54.00,-86.00,-1026.00
2024-05-19 08:44:30.990207,2,5,5,-1,0,0,84,87,169,150,69,133.31,176,24.00,-61.00,-946.00
2024-05-19 08:44:31.092283,2,3,6,0,0,0,84,87,170,150,69,133.37,176,16.00,-58.00,-1032.00
2024-05-19 08:44:31.212478,2,4,5,0,0,0,84,87,169,150,69,133.26,176,24.00,-80.00,-945.00
2024-05-19 08:44:31.296438,2,4,6,0,0,0,84,87,169,150,69,133.26,176,68.00,-37.00,-1060.00
2024-05-19 08:44:31.417405,2,2,6,0,0,0,84,87,171,150,69,133.24,177,25.00,-55.00,-964.00
2024-05-19 08:44:31.500407,2,2,6,0,0,0,84,87,171,150,69,133.26,177,50.00,-76.00,-1026.00
2024-05-19 08:44:31.622606,2,2,6,0,0,0,84,87,172,150,69,133.29,177,73.00,-75.00,-1015.00
2024-05-19 08:44:31.704499,2,3,5,0,0,0,84,87,171,150,69,133.17,177,5.00,-92.00,-978.00
2024-05-19 08:44:31.828297,2,4,5,0,0,0,84,87,173,150,69,133.17,177,-13.00,-62.00,-994.00
2024-05-19 08:44:31.908514,1,4,5,0,0,0,84,87,173,150,69,133.19,177,36.00,-40.00,-985.00
2024-05-19 08:44:32.031769,1,3,5,0,0,0,84,87,174,160,69,133.23,177,54.00,-19.00,-982.00
2024-05-19 08:44:32.112463,1,2,5,0,0,0,83,86,173,160,69,133.18,177,64.00,-29.00,-1046.00
2024-05-19 08:44:32.237355,1,1,5,0,1,0,83,86,173,160,69,133.06,177,29.00,-24.00,-997.00
2024-05-19 08:44:32.316542,1,0,6,0,0,0,83,86,173,160,69,133.13,177,39.00,-17.00,-936.00
2024-05-19 08:44:32.441852,2,0,6,0,0,0,83,86,173,160,69,133.04,178,7.00,-24.00,-993.00
2024-05-19 08:44:32.472021,2,1,6,0,0,0,83,86,174,160,69,133.10,178,9.00,-9.00,-982.00
2024-05-19 08:44:32.572482,1,1,6,0,0,0,83,86,173,160,69,133.09,178,51.00,0.00,-996.00
2024-05-19 08:44:32.673229,1,1,6,0,0,0,83,86,174,160,69,133.10,178,33.00,-22.00,-969.00
2024-05-19 08:44:32.851118,1,1,6,0,0,0,83,86,174,160,69,133.11,178,58.00,-60.00,-1018.00
2024-05-19 08:44:32.877229,1,1,6,0,0,0,83,86,174,160,69,133.10,178,57.00,-53.00,-1008.00
2024-05-19 08:44:33.055823,2,1,6,0,0,0,83,86,175,160,69,133.08,178,52.00,-56.00,-974.00
2024-05-19 08:44:33.081183,2,1,6,0,0,0,84,87,175,160,69,133.11,178,-7.00,3.00,-956.00
2024-05-19 08:44:33.183136,2,1,6,0,0,0,84,87,175,160,69,133.11,178,23.00,-38.00,-999.00
2024-05-19 08:44:33.299736,1,1,6,0,0,0,84,87,176,160,69,133.10,178,57.00,-35.00,-1042.00
2024-05-19 08:44:33.387176,1,1,6,0,0,0,84,87,175,160,69,133.15,179,41.00,-26.00,-984.00
2024-05-19 08:44:33.567671,1,1,5,0,0,0,84,87,176,160,69,133.12,179,2.00,-24.00,-945.00
2024-05-19 08:44:33.590986,1,1,5,0,0,0,84,87,176,160,69,133.16,179,-3.00,-7.00,-898.00
2024-05-19 08:44:33.692961,2,1,5,0,0,1,84,87,176,160,69,133.07,179,47.00,-51.00,-953.00
2024-05-19 08:44:33.795073,2,1,5,0,0,1,84,87,174,150,69,133.15,179,34.00,-9.00,-938.00
2024-05-19 08:44:33.977262,2,1,5,0,0,2,84,87,172,150,69,133.13,179,5.00,-6.00,-849.00
2024-05-19 08:44:33.998960,2,0,5,0,0,2,84,87,169,150,69,133.13,179,26.00,-4.00,-948.00
2024-05-19 08:44:34.100955,1,0,5,0,0,2,83,86,165,150,69,133.05,179,30.00,-14.00,-1055.00
2024-05-19 08:44:34.284477,1,0,5,0,0,2,83,86,162,150,69,133.08,179,28.00,-9.00,-1007.00
2024-05-19 08:44:34.304948,1,0,5,0,0,3,83,86,159,140,69,133.12,179,6.00,16.00,-1004.00
2024-05-19 08:44:34.490476,1,0,5,0,0,2,83,86,156,140,69,132.99,180,49.00,-44.00,-1000.00
2024-05-19 08:44:34.508987,1,1,5,0,0,3,83,86,153,140,69,132.97,180,28.00,-6.00,-984.00
2024-05-19 08:44:34.694133,1,1,6,0,0,2,83,86,149,130,69,132.99,180,32.00,-35.00,-1040.00
2024-05-19 08:44:34.713407,1,1,6,0,0,2,83,86,147,130,69,132.90,180,36.00,-44.00,-1017.00
2024-05-19 08:44:34.814985,1,2,6,0,0,2,83,86,144,130,69,132.93,180,21.00,-26.00,-1034.00
2024-05-19 08:44:34.916921,1,2,6,0,0,2,83,86,141,130,69,132.91,180,24.00,-25.00,-965.00
2024-05-19 08:44:35.104915,1,1,6,0,0,2,83,86,138,120,69,132.83,180,-5.00,-19.00,-999.00
2024-05-19 08:44:35.120912,0,1,6,0,0,2,84,87,136,120,69,132.88,180,29.00,-11.00,-1004.00
2024-05-19 08:44:35.308440,0,1,6,0,0,2,84,87,134,120,69,132.79,180,16.00,-20.00,-1009.00
2024-05-19 08:44:35.324882,0,1,6,0,0,2,84,87,132,120,69,132.80,180,30.00,-34.00,-1014.00
2024-05-19 08:44:35.513263,0,1,6,0,0,1,84,87,131,110,69,132.77,181,19.00,-21.00,-1056.00
2024-05-19 08:44:35.528969,0,2,6,0,0,1,84,87,130,110,69,132.82,181,39.00,-46.00,-1077.00
2024-05-19 08:44:35.718076,0,2,6,0,0,1,84,87,129,110,69,132.83,181,-10.00,-27.00,-1007.00
2024-05-19 08:44:35.734108,0,1,6,0,0,0,84,87,129,110,69,132.82,181,-16.00,0.00,-973.00
2024-05-19 08:44:35.923242,0,1,6,0,0,0,84,87,128,110,69,132.82,181,15.00,-50.00,-1025.00
2024-05-19 08:44:35.938256,0,1,6,0,0,0,84,87,129,110,69,132.84,181,29.00,-63.00,-1030.00
2024-05-19 08:44:36.127915,0,1,5,0,0,0,84,87,129,110,69,132.79,181,-3.00,-27.00,-1033.00
2024-05-19 08:44:36.142240,0,1,5,0,0,0,84,86,129,110,69,132.96,181,-7.00,-23.00,-990.00
2024-05-19 08:44:36.244336,0,1,5,0,0,0,84,86,129,110,69,132.86,181,-23.00,10.00,-1015.00
2024-05-19 08:44:36.333877,0,1,5,0,0,0,84,86,129,110,69,132.89,181,21.00,-33.00,-1023.00
2024-05-19 08:44:36.397044,0,0,5,0,0,0,84,86,129,110,69,132.80,182,-14.00,-3.00,-970.00
2024-05-19 08:44:36.537629,0,0,5,0,0,0,84,86,129,110,69,132.82,182,10.00,-42.00,-1013.00
2024-05-19 08:44:36.601016,0,0,5,0,0,0,84,86,129,110,69,132.82,182,2.00,-5.00,-949.00
2024-05-19 08:44:36.742176,0,0,5,0,0,0,84,86,128,110,69,132.82,182,54.00,-34.00,-1049.00
2024-05-19 08:44:36.804951,0,0,5,0,0,0,84,86,128,110,69,132.77,182,13.00,-32.00,-947.00
2024-05-19 08:44:36.948255,0,0,5,0,0,0,84,86,128,110,69,132.83,182,2.00,-26.00,-957.00
2024-05-19 08:44:37.008967,0,0,5,0,0,0,84,86,128,110,69,132.79,182,1.00,-15.00,-1032.00
2024-05-19 08:44:37.110884,0,0,5,0,0,0,84,86,129,110,69,132.86,182,2.00,-23.00,-972.00
2024-05-19 08:44:37.254535,0,0,5,0,0,0,84,86,128,110,69,132.84,182,18.00,-19.00,-956.00
2024-05-19 08:44:37.314974,0,0,5,0,0,0,84,86,129,110,69,132.91,182,33.00,-23.00,-1030.00
2024-05-19 08:44:37.417550,0,0,5,0,0,0,84,86,128,110,69,132.89,183,-8.00,-7.00,-958.00
2024-05-19 08:44:37.561396,0,0,5,0,0,0,84,86,129,110,69,132.90,183,10.00,-6.00,-1035.00
2024-05-19 08:44:37.620879,0,0,5,0,0,0,84,86,128,110,69,132.82,183,-7.00,-20.00,-1026.00
2024-05-19 08:44:37.723111,0,0,6,0,0,0,84,86,128,110,69,132.90,183,-26.00,3.00,-937.00
2024-05-19 08:44:37.868477,0,0,6,0,0,0,84,86,127,110,69,132.84,183,-1.00,-24.00,-1017.00
2024-05-19 08:44:37.926936,-2,1,6,0,0,0,84,86,127,110,69,132.87,183,-7.00,9.00,-1014.00
2024-05-19 08:44:38.073238,-7,1,5,0,0,0,84,86,127,110,69,132.80,183,-6.00,-29.00,-991.00
2024-05-19 08:44:38.130785,-8,1,5,2,0,0,84,87,128,110,69,132.81,183,-28.00,-27.00,-997.00
2024-05-19 08:44:38.278027,-8,1,5,3,0,0,84,87,126,110,69,132.88,183,-14.00,-22.00,-1013.00
2024-05-19 08:44:38.334779,-6,1,5,5,0,0,84,87,126,110,69,132.86,183,13.00,-19.00,-1058.00
2024-05-19 08:44:38.484117,-6,1,5,5,0,0,84,87,126,110,69,132.90,184,-10.00,-24.00,-1027.00
2024-05-19 08:44:38.538789,-6,1,5,6,0,0,84,87,126,110,69,132.78,184,-53.00,-57.00,-986.00
2024-05-19 08:44:38.687666,-5,1,5,6,0,0,84,87,127,110,69,132.86,184,-28.00,-39.00,-1015.00
2024-05-19 08:44:38.745710,-5,1,5,7,0,0,84,87,126,110,69,132.90,184,-46.00,0.00,-1000.00
2024-05-19 08:44:38.844733,-2,2,5,7,0,0,84,87,126,110,69,132.85,184,-33.00,-28.00,-1021.00
2024-05-19 08:44:38.994822,1,2,5,7,0,0,84,87,127,110,69,132.91,184,-30.00,-48.00,-1001.00
2024-05-19 08:44:39.048793,3,1,5,6,0,0,84,87,127,110,69,132.92,184,-16.00,-69.00,-983.00
2024-05-19 08:44:39.151976,5,2,5,5,0,0,84,87,126,110,69,132.86,184,29.00,-35.00,-1016.00
2024-05-19 08:44:39.302019,4,3,5,4,0,0,84,87,127,110,69,132.93,184,-35.00,-40.00,-976.00
2024-05-19 08:44:39.355915,3,3,5,3,0,0,84,87,127,110,69,132.86,184,16.00,-56.00,-982.00
2024-05-19 08:44:39.506828,2,3,5,3,0,0,84,87,127,110,69,132.89,185,29.00,-34.00,-1047.00
2024-05-19 08:44:39.559902,2,3,5,3,0,0,84,87,127,110,69,132.86,185,37.00,-48.00,-1019.00
2024-05-19 08:44:39.711667,2,3,5,3,0,0,84,87,127,110,69,132.83,185,-39.00,-21.00,-979.00
2024-05-19 08:44:39.763928,2,2,6,3,0,0,84,87,127,110,69,132.87,185,-17.00,-11.00,-1002.00
2024-05-19 08:44:39.814813,2,0,6,3,0,0,84,87,128,110,69,132.88,185,5.00,-26.00,-1025.00
2024-05-19 08:44:39.916727,2,0,6,3,0,0,84,87,129,110,69,132.99,185,68.00,-72.00,-1013.00
2024-05-19 08:44:40.018782,5,1,6,3,0,0,84,87,130,110,69,132.95,185,24.00,-26.00,-955.00
2024-05-19 08:44:40.223509,7,2,6,2,0,0,83,87,131,110,69,132.92,185,36.00,-26.00,-1021.00
2024-05-19 08:44:40.274589,5,2,6,1,0,0,83,87,131,110,69,132.96,185,16.00,3.00,-1006.00
2024-05-19 08:44:40.326540,3,1,5,0,0,0,83,87,131,110,69,132.93,185,33.00,-32.00,-1031.00
2024-05-19 08:44:40.426797,3,0,5,0,0,0,83,87,132,110,69,132.92,186,30.00,5.00,-1017.00
2024-05-19 08:44:40.529145,3,0,6,1,0,0,83,87,133,110,69,133.01,186,42.00,-16.00,-1020.00
2024-05-19 08:44:40.633678,3,0,6,0,0,0,83,87,133,110,69,132.97,186,17.00,-11.00,-946.00
2024-05-19 08:44:40.733740,3,0,6,0,0,0,83,87,133,110,69,132.99,186,31.00,-28.00,-1034.00
2024-05-19 08:44:40.834726,3,1,6,0,0,0,83,87,134,110,69,132.96,186,38.00,-30.00,-994.00
2024-05-19 08:44:40.940579,3,1,6,0,0,0,83,87,135,110,69,132.93,186,37.00,-34.00,-951.00
2024-05-19 08:44:41.038794,2,0,6,0,0,0,83,87,135,110,69,132.89,186,15.00,4.00,-996.00
2024-05-19 08:44:41.140775,1,0,6,0,0,0,84,86,135,110,69,132.90,186,55.00,-37.00,-1043.00
2024-05-19 08:44:41.247911,1,0,6,0,0,0,84,86,135,110,69,132.89,186,33.00,-28.00,-1041.00
2024-05-19 08:44:41.344754,1,1,5,0,0,0,84,86,135,110,69,132.82,186,60.00,-47.00,-988.00
2024-05-19 08:44:41.452602,2,1,5,0,0,0,84,86,136,110,69,132.89,187,43.00,-53.00,-965.00
2024-05-19 08:44:41.548761,2,1,5,0,0,0,84,86,136,120,69,132.90,187,-3.00,-5.00,-979.00
2024-05-19 08:44:41.657310,2,2,5,0,0,0,84,86,136,120,69,132.96,187,34.00,4.00,-929.00
2024-05-19 08:44:41.752976,1,1,5,0,0,0,84,86,136,120,69,132.92,187,26.00,-4.00,-885.00
2024-05-19 08:44:41.862195,1,1,5,0,0,0,84,86,135,120,69,132.85,187,38.00,-37.00,-1017.00
2024-05-19 08:44:41.956782,1,1,5,0,0,0,84,86,135,120,69,132.85,187,57.00,-28.00,-1052.00
2024-05-19 08:44:42.066901,1,1,5,0,0,0,84,86,134,110,69,132.89,187,-10.00,-17.00,-1000.00
2024-05-19 08:44:42.160717,0,0,5,0,0,0,84,86,133,110,69,132.95,187,36.00,-21.00,-1027.00
2024-05-19 08:44:42.262536,1,0,5,0,0,0,84,86,132,110,69,132.88,187,2.00,-13.00,-954.00
2024-05-19 08:44:42.374096,1,0,5,0,0,0,84,86,132,110,69,132.89,187,4.00,0.00,-1014.00
2024-05-19 08:44:42.466750,3,0,5,0,0,0,84,86,131,110,69,132.80,188,18.00,-37.00,-1008.00
2024-05-19 08:44:42.578881,8,1,5,-1,0,0,84,86,132,110,69,132.79,188,8.00,-8.00,-997.00
2024-05-19 08:44:42.670623,8,0,5,-2,0,0,84,86,131,110,69,132.82,188,53.00,-2.00,-1008.00
2024-05-19 08:44:42.783713,8,1,5,-3,0,0,84,86,131,110,69,132.91,188,45.00,0.00,-1044.00
2024-05-19 08:44:42.875186,8,1,6,-4,0,0,84,86,131,110,69,132.76,188,88.00,-5.00,-1051.00
2024-05-19 08:44:42.988440,8,1,5,-5,0,0,84,86,131,110,69,132.72,188,86.00,-7.00,-989.00
2024-05-19 08:44:43.078582,8,1,5,-5,0,0,84,86,131,110,69,132.78,188,82.00,-29.00,-1056.00
2024-05-19 08:44:43.193260,8,0,6,-6,0,0,84,87,131,110,69,132.76,188,85.00,-19.00,-941.00
2024-05-19 08:44:43.282728,8,1,6,-6,0,0,84,87,131,110,69,132.73,188,77.00,0.00,-1067.00
2024-05-19 08:44:43.399616,6,0,6,-7,0,0,84,87,131,110,69,132.69,188,104.00,-18.00,-989.00
2024-05-19 08:44:43.435824,2,0,6,-7,0,0,84,87,131,110,69,132.78,189,82.00,-19.00,-957.00
2024-05-19 08:44:43.602827,0,2,5,-6,0,0,84,87,131,110,69,132.83,189,65.00,20.00,-940.00
2024-05-19 08:44:43.639682,-1,2,5,-5,0,0,84,87,131,110,69,132.88,189,59.00,20.00,-1019.00
2024-05-19 08:44:43.809112,0,0,5,-3,0,0,84,87,132,110,69,132.86,189,64.00,-14.00,-945.00
2024-05-19 08:44:43.843715,1,0,5,-3,0,0,84,87,132,110,69,132.91,189,83.00,5.00,-1049.00
2024-05-19 08:44:44.012368,2,0,5,-2,0,0,84,87,131,110,69,132.87,189,82.00,-23.00,-977.00
2024-05-19 08:44:44.047777,3,-1,5,-2,0,0,84,87,131,110,69,132.81,189,57.00,12.00,-924.00
2024-05-19 08:44:44.149703,3,-1,6,-2,0,0,83,86,131,110,69,132.85,189,43.00,0.00,-996.00
2024-05-19 08:44:44.320691,2,-1,6,-3,0,0,83,86,130,110,69,132.77,189,52.00,-44.00,-1017.00
2024-05-19 08:44:44.353715,1,0,6,-3,0,0,83,86,130,110,69,132.78,189,3.00,22.00,-988.00
2024-05-19 08:44:44.524716,1,0,6,-3,0,0,83,86,130,110,69,132.82,190,35.00,-15.00,-1003.00
2024-05-19 08:44:44.557663,1,-1,6,-3,0,0,83,86,129,110,69,132.80,190,20.00,13.00,-1025.00
2024-05-19 08:44:44.729225,0,1,6,-2,0,0,83,86,128,110,69,132.83,190,47.00,20.00,-963.00
2024-05-19 08:44:44.762120,-2,1,6,-2,0,0,83,86,128,110,69,132.81,190,40.00,0.00,-977.00
2024-05-19 08:44:44.934065,-3,0,6,-1,0,0,83,86,127,110,69,132.88,190,4.00,19.00,-1014.00
2024-05-19 08:44:44.965827,-1,0,5,-1,0,0,83,86,127,110,69,132.74,190,16.00,-19.00,-1000.00
2024-05-19 08:44:45.139514,0,0,5,0,0,0,83,86,126,110,69,132.78,190,9.00,20.00,-974.00
2024-05-19 08:44:45.169793,0,0,5,0,0,0,84,87,126,110,69,132.83,190,40.00,1.00,-986.00
2024-05-19 08:44:45.343961,1,0,5,0,0,0,84,87,125,110,69,132.83,190,20.00,0.00,-1012.00
2024-05-19 08:44:45.373760,1,0,5,0,0,0,84,87,125,110,69,132.80,190,-11.00,36.00,-965.00
2024-05-19 08:44:45.548452,1,0,5,0,0,0,84,87,124,110,69,132.81,191,67.00,-20.00,-995.00
2024-05-19 08:44:45.577908,0,-1,5,0,0,0,84,87,124,110,69,132.87,191,25.00,8.00,-1022.00
2024-05-19 08:44:45.736719,1,0,6,0,0,0,84,87,124,110,69,132.81,191,82.00,-12.00,-1030.00
2024-05-19 08:44:45.782295,1,0,6,0,0,0,84,87,123,110,69,132.77,191,-7.00,12.00,-967.00
2024-05-19 08:44:45.958788,2,1,6,0,0,0,84,87,122,110,69,132.77,191,19.00,-7.00,-961.00
2024-05-19 08:44:45.985984,2,1,6,0,0,0,84,87,121,110,69,132.88,191,31.00,-1.00,-969.00
2024-05-19 08:44:46.163331,2,1,6,0,0,0,84,87,120,110,69,132.77,191,63.00,5.00,-1044.00
2024-05-19 08:44:46.189870,2,0,5,0,0,0,84,87,120,110,69,132.82,191,41.00,-15.00,-1044.00
2024-05-19 08:44:46.367813,2,0,5,0,0,0,84,87,120,110,69,132.74,191,58.00,2.00,-1007.00
2024-05-19 08:44:46.393652,3,1,5,0,0,0,84,87,120,110,69,132.73,192,72.00,-9.00,-1089.00
2024-05-19 08:44:46.573890,4,0,5,0,0,0,84,87,121,110,68,132.79,192,88.00,-3.00,-984.00
2024-05-19 08:44:46.597609,4,0,5,0,0,0,84,87,121,110,68,132.82,192,51.00,-17.00,-990.00
2024-05-19 08:44:46.777171,4,0,5,0,0,0,84,87,122,110,68,132.77,192,34.00,20.00,-944.00
2024-05-19 08:44:46.801563,4,0,5,0,0,0,84,87,122,110,68,132.80,192,102.00,-13.00,-1079.00
2024-05-19 08:44:46.937485,3,0,5,0,0,0,84,87,124,110,68,132.78,192,36.00,-9.00,-980.00
2024-05-19 08:44:47.006293,3,0,5,0,0,0,84,87,124,110,68,132.80,192,29.00,-32.00,-1003.00
2024-05-19 08:44:47.188698,2,-2,5,0,0,0,84,87,125,110,68,132.77,192,24.00,45.00,-954.00
2024-05-19 08:44:47.209520,1,-8,5,0,0,0,83,87,126,110,68,132.77,192,67.00,-21.00,-1091.00
2024-05-19 08:44:47.391587,2,-7,5,0,-2,0,83,87,127,110,68,132.75,192,29.00,-4.00,-992.00
2024-05-19 08:44:47.413573,3,-4,5,0,-3,0,83,87,128,110,68,132.83,193,13.00,14.00,-969.00
2024-05-19 08:44:47.515682,3,0,5,0,-4,0,83,87,129,110,68,132.77,193,13.00,24.00,-1003.00
2024-05-19 08:44:47.698650,2,1,6,0,-3,0,83,87,130,110,68,132.80,193,59.00,-16.00,-1000.00
2024-05-19 08:44:47.698816,2,1,5,0,-2,0,83,87,131,110,68,132.86,193,70.00,-7.00,-1000.00
2024-05-19 08:44:47.770293,2,0,5,0,-2,0,83,87,132,110,68,132.84,193,7.00,37.00,-967.00
2024-05-19 08:44:47.903549,2,-1,5,0,-1,0,83,87,134,110,68,132.82,193,37.00,15.00,-908.00
2024-05-19 08:44:47.974309,2,-1,5,0,-1,0,83,87,135,110,68,132.88,193,33.00,15.00,-993.00
2024-05-19 08:44:48.108475,2,-1,5,0,-2,0,83,87,136,120,68,132.88,193,32.00,27.00,-958.00
2024-05-19 08:44:48.178290,2,-1,5,0,-2,0,83,86,136,120,68,132.84,193,30.00,-4.00,-996.00
2024-05-19 08:44:48.313142,2,0,5,0,-2,0,83,86,136,120,68,132.88,193,41.00,6.00,-961.00
2024-05-19 08:44:48.382771,2,0,5,0,-2,0,83,86,136,120,68,132.86,194,72.00,-14.00,-973.00
2024-05-19 08:44:48.517903,2,0,5,0,-2,0,83,86,136,120,68,132.87,194,33.00,34.00,-988.00
2024-05-19 08:44:48.590287,2,0,5,0,-2,0,83,86,136,120,68,132.88,194,38.00,22.00,-1002.00
2024-05-19 08:44:48.688503,2,0,5,0,-2,0,83,86,136,120,68,132.82,194,64.00,14.00,-1000.00
2024-05-19 08:44:48.825120,2,0,5,0,-2,0,83,86,135,120,68,132.82,194,43.00,17.00,-987.00
2024-05-19 08:44:48.892198,2,0,5,0,-2,0,83,86,135,120,68,132.92,194,4.00,9.00,-1026.00
2024-05-19 08:44:49.030016,1,5,5,0,-1,0,83,86,134,110,68,132.83,194,28.00,31.00,-966.00
2024-05-19 08:44:49.096428,1,3,5,0,0,0,83,86,134,110,68,132.87,194,46.00,-22.00,-1078.00
2024-05-19 08:44:49.234776,2,2,5,0,0,0,84,86,132,110,68,132.85,194,-13.00,18.00,-906.00
2024-05-19 08:44:49.300304,2,1,5,0,0,0,84,86,131,110,68,132.83,194,36.00,7.00,-999.00
2024-05-19 08:44:49.441047,2,0,6,0,0,0,84,86,129,110,68,132.82,195,41.00,19.00,-1008.00
2024-05-19 08:44:49.504329,2,0,6,0,0,0,84,86,129,110,68,132.73,195,14.00,21.00,-998.00
2024-05-19 08:44:49.644482,1,0,6,0,0,0,84,86,128,110,68,132.80,195,6.00,16.00,-1024.00
2024-05-19 08:44:49.708429,1,0,5,0,0,0,84,86,127,110,68,132.80,195,9.00,43.00,-970.00
2024-05-19 08:44:49.849645,1,0,5,0,0,0,84,86,126,110,68,132.82,195,8.00,34.00,-986.00
2024-05-19 08:44:49.912279,2,0,5,0,0,0,84,86,127,110,68,132.80,195,26.00,28.00,-1027.00
2024-05-19 08:44:50.054090,2,-1,5,0,0,0,84,86,126,110,68,132.81,195,71.00,20.00,-1046.00
2024-05-19 08:44:50.117276,2,-1,5,0,0,0,84,86,127,110,68,132.78,195,30.00,6.00,-960.00
2024-05-19 08:44:50.258837,2,-1,5,0,0,0,83,86,127,110,68,132.76,195,11.00,10.00,-1043.00
2024-05-19 08:44:50.321433,2,-1,5,0,0,0,83,86,127,110,68,132.77,195,54.00,23.00,-998.00
2024-05-19 08:44:50.423633,2,0,5,0,0,0,83,86,127,110,68,132.81,196,21.00,20.00,-1024.00
2024-05-19 08:44:50.566424,2,0,5,0,0,0,83,86,127,110,68,132.78,196,22.00,-7.00,-1023.00
2024-05-19 08:44:50.627546,1,0,5,0,0,0,83,86,128,110,68,132.82,196,20.00,15.00,-975.00
2024-05-19 08:44:50.770863,1,0,5,0,0,0,83,86,128,110,68,132.80,196,36.00,3.00,-1056.00
2024-05-19 08:44:50.831469,1,0,5,0,0,0,83,86,128,110,68,132.86,196,15.00,32.00,-1021.00
2024-05-19 08:44:50.975660,1,0,6,0,0,0,83,86,129,110,68,132.77,196,36.00,3.00,-1008.00
2024-05-19 08:44:51.035784,1,-1,6,0,0,0,83,86,129,110,68,132.79,196,67.00,-5.00,-1026.00
2024-05-19 08:44:51.140729,1,-1,6,0,0,0,83,86,129,110,68,132.77,196,24.00,28.00,-1011.00
2024-05-19 08:44:51.241708,1,0,5,0,0,0,83,86,129,110,68,132.85,196,45.00,-11.00,-1025.00
2024-05-19 08:44:51.342171,1,5,6,0,0,0,83,86,130,110,68,132.82,196,31.00,23.00,-941.00
2024-05-19 08:44:51.443411,0,7,6,0,1,0,83,86,130,110,68,132.85,197,76.00,-3.00,-1048.00
2024-05-19 08:44:51.493953,0,5,6,0,3,0,83,86,129,110,67,132.87,197,0.00,-11.00,-1021.00
2024-05-19 08:44:51.692280,0,2,6,0,3,0,83,86,129,110,67,132.80,197,37.00,-50.00,-1012.00
2024-05-19 08:44:51.698042,1,0,6,0,3,0,83,86,129,110,67,132.86,197,50.00,-34.00,-982.00
2024-05-19 08:44:51.800009,1,-1,5,0,3,0,83,86,128,110,67,132.86,197,30.00,-19.00,-1024.00
2024-05-19 08:44:51.999481,1,0,5,0,2,0,83,86,128,110,67,132.84,197,25.00,-7.00,-1018.00
2024-05-19 08:44:52.003996,1,0,5,0,2,0,83,86,127,110,67,132.84,197,-19.00,-19.00,-995.00
2024-05-19 08:44:52.206225,1,1,5,0,2,0,83,86,127,110,67,132.92,197,-14.00,4.00,-949.00
2024-05-19 08:44:52.208019,1,1,5,0,2,0,83,86,126,110,67,132.82,197,20.00,-27.00,-943.00
2024-05-19 08:44:52.310104,1,1,5,0,2,0,83,86,126,110,67,132.84,197,14.00,13.00,-998.00
2024-05-19 08:44:52.412231,0,0,5,0,2,0,83,86,126,110,67,132.85,198,12.00,7.00,-1012.00
2024-05-19 08:44:52.514590,1,0,5,0,2,0,83,86,126,110,67,132.84,198,63.00,-38.00,-1063.00
2024-05-19 08:44:52.616506,1,0,5,0,2,0,83,86,127,110,67,132.89,198,13.00,-18.00,-1009.00
2024-05-19 08:44:52.718015,2,0,5,0,2,0,83,86,127,110,67,132.84,198,41.00,-30.00,-1009.00
2024-05-19 08:44:52.921150,2,-1,5,0,2,0,83,86,128,110,67,132.84,198,3.00,15.00,-912.00
2024-05-19 08:44:52.922007,2,-1,5,0,2,0,83,86,128,110,67,132.88,198,47.00,-2.00,-973.00
2024-05-19 08:44:53.024243,2,-1,5,0,2,0,83,86,127,110,67,132.85,198,42.00,2.00,-991.00
2024-05-19 08:44:53.126397,4,-2,5,0,1,0,83,86,127,110,67,132.85,198,26.00,28.00,-984.00
2024-05-19 08:44:53.228453,5,-3,5,0,1,0,83,87,127,110,67,132.88,198,12.00,19.00,-958.00
2024-05-19 08:44:53.330304,0,-3,5,0,1,0,83,87,126,110,67,132.83,198,20.00,-1.00,-1019.00
2024-05-19 08:44:53.433076,0,-2,5,0,1,0,83,87,126,110,67,132.87,199,26.00,40.00,-1035.00
2024-05-19 08:44:53.535600,0,-2,5,0,0,0,83,87,126,110,67,132.88,199,22.00,40.00,-1060.00
2024-05-19 08:44:53.637997,1,-2,5,0,0,0,83,87,126,110,67,132.92,199,0.00,54.00,-952.00
2024-05-19 08:44:53.740816,1,-2,5,0,0,0,83,87,126,110,67,132.84,199,-3.00,56.00,-963.00
2024-05-19 08:44:53.840231,1,-2,5,0,0,0,83,87,126,110,67,132.86,199,48.00,49.00,-1024.00
2024-05-19 08:44:53.945264,1,-2,5,0,0,0,83,87,126,110,67,132.80,199,-7.00,25.00,-971.00
2024-05-19 08:44:54.044099,0,-2,5,0,0,0,83,87,126,110,67,132.84,199,24.00,13.00,-992.00
2024-05-19 08:44:54.146334,0,-2,5,0,0,0,83,87,126,110,67,132.86,199,29.00,24.00,-935.00
2024-05-19 08:44:54.252434,0,-1,5,0,0,0,84,85,127,110,67,132.89,199,39.00,5.00,-1002.00
2024-05-19 08:44:54.350479,0,-1,5,0,0,0,84,85,127,110,67,132.87,199,18.00,46.00,-1048.00
2024-05-19 08:44:54.457109,0,-1,5,0,0,0,84,85,127,110,67,132.87,200,-26.00,15.00,-991.00
2024-05-19 08:44:54.554002,0,-1,6,0,0,0,84,85,127,110,67,132.92,200,35.00,26.00,-1048.00
2024-05-19 08:44:54.662442,0,-1,6,0,0,0,84,85,128,110,67,132.93,200,-8.00,41.00,-1012.00
2024-05-19 08:44:54.758095,0,-2,6,0,0,0,84,85,127,110,67,132.98,200,-20.00,33.00,-967.00
2024-05-19 08:44:54.866882,0,-1,6,0,0,0,84,85,128,110,67,132.96,200,-15.00,22.00,-1024.00
2024-05-19 08:44:54.962146,0,-1,6,0,0,0,84,85,129,110,67,132.88,200,-17.00,47.00,-966.00
2024-05-19 08:44:55.071723,0,0,6,0,0,0,84,85,129,110,67,132.93,200,29.00,52.00,-1017.00
2024-05-19 08:44:55.166137,0,0,5,0,0,0,84,85,129,110,67,132.98,200,11.00,37.00,-1003.00
2024-05-19 08:44:55.276391,0,-1,5,0,0,0,84,86,129,110,67,132.95,200,9.00,58.00,-980.00
2024-05-19 08:44:55.370020,0,-1,5,0,0,0,84,86,130,110,67,132.85,200,-4.00,33.00,-924.00
2024-05-19 08:44:55.471865,0,-1,5,0,0,0,84,86,129,110,66,132.94,201,23.00,20.00,-1023.00
2024-05-19 08:44:55.583402,0,-1,5,0,0,0,84,86,130,110,66,132.88,201,-29.00,51.00,-1020.00
2024-05-19 08:44:55.625118,0,-1,9,0,0,0,84,86,130,110,66,132.92,201,12.00,11.00,-1034.00
2024-05-19 08:44:55.788431,0,-2,14,0,0,0,84,86,131,110,66,132.91,201,-18.00,21.00,-988.00
2024-05-19 08:44:55.829067,-1,-2,20,0,0,0,84,86,130,110,66,132.87,201,-5.00,46.00,-971.00
2024-05-19 08:44:55.994625,-1,-2,27,0,0,0,84,86,131,110,66,132.88,201,-16.00,38.00,-960.00
2024-05-19 08:44:56.033171,-1,-2,33,0,0,0,84,86,131,110,66,132.93,201,-21.00,36.00,-963.00
2024-05-19 08:44:56.198006,-1,-2,39,0,0,0,84,86,131,110,66,132.97,201,32.00,45.00,-985.00
2024-05-19 08:44:56.237117,0,-2,46,0,0,0,84,86,131,110,66,132.93,201,-7.00,31.00,-949.00
2024-05-19 08:44:56.402647,0,-2,52,0,0,0,84,86,132,110,66,132.99,201,-23.00,52.00,-988.00
2024-05-19 08:44:56.441072,0,-2,59,0,0,0,84,86,132,110,66,133.03,202,6.00,32.00,-1005.00
2024-05-19 08:44:56.607418,0,-1,65,0,0,0,84,86,132,110,66,132.92,202,-22.00,30.00,-991.00
2024-05-19 08:44:56.645015,0,-1,72,0,0,0,84,86,132,110,66,132.96,202,27.00,11.00,-957.00
2024-05-19 08:44:56.812253,0,-1,78,0,0,0,84,86,132,110,66,132.95,202,14.00,3.00,-1068.00
2024-05-19 08:44:56.849115,0,-1,84,0,0,0,84,86,132,110,66,132.97,202,33.00,0.00,-911.00
2024-05-19 08:44:57.017023,0,-1,90,0,0,0,84,86,132,110,66,132.92,202,-15.00,19.00,-982.00
2024-05-19 08:44:57.053031,0,0,97,0,0,0,84,86,132,110,66,132.92,202,-5.00,4.00,-972.00
2024-05-19 08:44:57.155004,0,0,103,0,0,0,84,86,132,110,66,132.97,202,-6.00,2.00,-1023.00
2024-05-19 08:44:57.324133,0,0,109,0,0,0,83,86,132,110,66,132.94,202,38.00,-39.00,-1062.00
2024-05-19 08:44:57.358903,0,1,115,0,0,0,83,86,131,110,66,132.92,202,-2.00,29.00,-953.00
2024-05-19 08:44:57.529017,0,0,121,0,0,0,83,86,132,110,66,132.86,203,31.00,-27.00,-1019.00
2024-05-19 08:44:57.563031,0,0,127,0,0,0,83,86,132,110,66,132.91,203,-19.00,-17.00,-963.00
2024-05-19 08:44:57.735406,0,0,133,0,0,0,83,86,132,110,66,132.88,203,9.00,-13.00,-1031.00
2024-05-19 08:44:57.767512,0,0,139,0,0,0,83,86,133,110,66,132.85,203,-3.00,-7.00,-986.00
2024-05-19 08:44:57.938612,0,1,145,0,0,0,83,86,133,110,66,132.90,203,-39.00,-9.00,-972.00
2024-05-19 08:44:57.970996,0,1,152,0,0,0,83,86,132,110,66,132.93,203,-40.00,-6.00,-935.00
2024-05-19 08:44:58.143425,-1,1,158,0,0,0,83,86,132,110,66,132.90,203,-70.00,8.00,-882.00
2024-05-19 08:44:58.175049,-1,1,164,0,0,0,83,86,131,110,66,132.86,203,-15.00,2.00,-1048.00
2024-05-19 08:44:58.348220,-2,0,170,0,0,0,83,86,131,110,66,132.89,203,-55.00,7.00,-944.00
2024-05-19 08:44:58.379050,-1,0,176,0,0,0,83,86,130,110,66,132.86,203,-37.00,-19.00,-992.00
2024-05-19 08:44:58.553026,-2,0,-177,0,0,0,83,86,129,110,66,132.89,204,-15.00,-19.00,-1016.00
2024-05-19 08:44:58.583671,-2,0,-171,0,0,0,83,86,129,110,66,132.88,204,-18.00,-8.00,-1069.00
2024-05-19 08:44:58.757825,-2,0,-165,0,0,0,83,86,128,110,66,132.95,204,-21.00,-1.00,-1012.00
2024-05-19 08:44:58.788284,-2,0,-159,0,0,0,83,86,128,110,66,132.84,204,-29.00,-31.00,-1006.00
2024-05-19 08:44:58.962633,-1,0,-153,0,0,0,83,86,128,110,66,132.90,204,-24.00,-12.00,-1044.00
2024-05-19 08:44:58.993386,-1,0,-147,0,0,0,83,86,128,110,66,132.91,204,-29.00,10.00,-1007.00
2024-05-19 08:44:59.093839,-1,0,-141,0,0,0,83,86,128,110,66,132.94,204,-12.00,33.00,-940.00
2024-05-19 08:44:59.194871,-1,-1,-136,0,0,0,83,86,129,110,66,132.91,204,-4.00,0.00,-1031.00
2024-05-19 08:44:59.374315,-1,-1,-130,0,0,0,83,86,128,110,66,132.95,204,-18.00,-7.00,-962.00
2024-05-19 08:44:59.402929,0,-1,-125,0,0,0,83,86,129,110,66,132.93,204,15.00,15.00,-1023.00
2024-05-19 08:44:59.449811,0,-1,-120,0,0,0,83,86,129,110,66,132.96,205,-19.00,23.00,-946.00
2024-05-19 08:44:59.576994,0,0,-114,0,0,0,83,86,129,110,66,132.93,205,-11.00,6.00,-1061.00
2024-05-19 08:44:59.653738,0,0,-109,0,0,0,83,86,128,110,66,132.91,205,-6.00,-8.00,-970.00
2024-05-19 08:44:59.755643,0,0,-104,0,0,0,83,86,127,110,66,132.90,205,-12.00,-14.00,-921.00
2024-05-19 08:44:59.887491,0,0,-98,0,0,0,83,86,127,110,66,132.90,205,-6.00,20.00,-1030.00
2024-05-19 08:44:59.959805,0,0,-93,0,0,0,83,86,126,110,66,132.88,205,15.00,19.00,-1023.00
2024-05-19 08:45:00.088947,0,0,-88,0,0,0,83,86,125,110,66,132.90,205,-20.00,23.00,-1004.00
2024-05-19 08:45:00.163635,0,0,-83,0,0,0,83,86,124,110,66,132.73,205,-19.00,-9.00,-1015.00
2024-05-19 08:45:00.293817,0,0,-77,0,0,0,83,86,124,110,66,132.85,205,-23.00,1.00,-1043.00
2024-05-19 08:45:00.367653,0,0,-71,0,0,0,83,86,124,110,66,132.83,205,-22.00,22.00,-1015.00
2024-05-19 08:45:00.500214,0,-1,-66,0,0,0,83,86,124,110,65,132.89,206,-38.00,28.00,-993.00
2024-05-19 08:45:00.576880,0,-1,-60,0,0,0,83,86,124,110,65,132.90,206,0.00,14.00,-1013.00
2024-05-19 08:45:00.673656,-1,-1,-55,0,0,0,83,86,124,110,65,132.87,206,-8.00,33.00,-1008.00
2024-05-19 08:45:00.805784,-1,-1,-49,0,0,0,83,86,124,110,65,132.84,206,10.00,19.00,-1026.00
2024-05-19 08:45:00.877670,0,-1,-42,0,0,0,83,86,125,110,65,132.88,206,13.00,17.00,-1028.00
2024-05-19 08:45:01.012459,0,-2,-36,0,0,0,83,86,125,110,65,132.92,206,0.00,16.00,-1007.00
2024-05-19 08:45:01.081631,0,-2,-29,0,0,0,83,86,126,110,65,132.87,206,12.00,25.00,-1019.00
2024-05-19 08:45:01.183647,0,-2,-23,0,0,0,83,86,126,110,65,132.88,206,34.00,17.00,-1066.00
2024-05-19 08:45:01.319685,0,-1,-10,0,0,0,83,87,127,110,65,132.87,206,11.00,-5.00,-953.00
2024-05-19 08:45:01.391660,1,-1,-5,0,0,0,83,87,128,110,65,132.91,207,28.00,30.00,-995.00
2024-05-19 08:45:01.489692,1,0,-2,0,0,0,83,87,128,110,65,132.91,207,14.00,5.00,-982.00
2024-05-19 08:45:01.625066,1,0,0,0,0,0,83,87,128,110,65,132.91,207,24.00,28.00,-956.00
2024-05-19 08:45:01.694334,1,0,2,0,0,0,83,87,129,110,65,132.92,207,24.00,6.00,-994.00
2024-05-19 08:45:01.795754,1,0,3,0,0,0,83,87,129,110,65,132.90,207,-1.00,7.00,-1017.00
2024-05-19 08:45:01.932345,1,0,4,0,0,0,83,87,128,110,65,132.88,207,7.00,1.00,-992.00
2024-05-19 08:45:01.999817,1,0,5,0,0,0,83,87,128,110,65,132.91,207,0.00,19.00,-998.00
2024-05-19 08:45:02.137164,1,0,7,0,0,0,83,87,129,110,65,132.94,207,-3.00,-19.00,-1027.00
2024-05-19 08:45:02.203650,0,0,8,0,0,0,83,87,128,110,65,132.94,207,-31.00,49.00,-991.00
2024-05-19 08:45:02.343939,0,0,8,0,0,0,83,86,129,110,65,132.93,207,32.00,-74.00,-1019.00
2024-05-19 08:45:02.407709,0,0,9,0,0,0,83,86,129,110,65,132.92,208,18.00,-58.00,-993.00
2024-05-19 08:45:02.548447,0,0,10,0,0,0,83,86,129,110,65,132.88,208,6.00,-36.00,-1020.00
2024-05-19 08:45:02.611557,0,0,10,0,0,0,83,86,129,110,65,132.82,208,7.00,-48.00,-956.00
2024-05-19 08:45:02.751643,0,1,10,0,0,0,83,86,129,110,65,132.86,208,35.00,-46.00,-1017.00
2024-05-19 08:45:02.815649,0,1,10,0,0,0,83,86,129,110,65,132.92,208,10.00,-32.00,-1012.00
2024-05-19 08:45:02.867383,0,1,10,0,0,0,83,86,130,110,65,132.87,208,31.00,-23.00,-973.00
2024-05-19 08:45:03.058839,0,1,10,0,0,0,83,86,131,110,65,132.94,208,-21.00,-27.00,-934.00
2024-05-19 08:45:03.070825,0,1,10,0,0,0,83,86,130,110,65,132.95,208,-21.00,-14.00,-958.00
2024-05-19 08:45:03.172813,0,1,10,0,0,0,83,86,130,110,65,132.90,208,32.00,-48.00,-1019.00
2024-05-19 08:45:03.366130,0,1,10,0,0,0,82,86,131,110,65,132.87,208,22.00,-9.00,-1054.00
2024-05-19 08:45:03.377401,0,1,10,0,0,0,82,86,130,110,65,132.88,209,7.00,-14.00,-980.00
2024-05-19 08:45:03.570755,0,1,10,0,0,0,82,86,130,110,65,132.86,209,25.00,-36.00,-1023.00
2024-05-19 08:45:03.582190,0,1,10,0,0,0,82,86,130,110,65,132.80,209,-16.00,-15.00,-957.00
2024-05-19 08:45:03.775503,0,1,10,0,0,0,82,86,130,110,65,132.86,209,8.00,-20.00,-992.00
2024-05-19 08:45:03.784704,0,0,10,0,0,0,82,86,130,110,65,132.85,209,-8.00,-5.00,-983.00
2024-05-19 08:45:03.886728,0,1,9,0,0,0,82,86,130,110,65,132.89,209,-19.00,17.00,-991.00
2024-05-19 08:45:04.082803,0,1,4,0,0,0,82,86,131,110,65,132.95,209,-30.00,31.00,-965.00
2024-05-19 08:45:04.092724,0,0,-1,0,0,0,82,86,130,110,65,132.87,209,35.00,-33.00,-1007.00
2024-05-19 08:45:04.192713,0,0,-7,0,0,0,82,86,130,110,65,132.95,209,47.00,-58.00,-997.00
2024-05-19 08:45:04.389763,1,0,-13,0,0,0,82,86,130,110,65,132.91,209,14.00,9.00,-1036.00
2024-05-19 08:45:04.396961,1,0,-19,0,0,0,82,86,130,110,65,132.85,210,46.00,-30.00,-1073.00
2024-05-19 08:45:04.594531,1,0,-25,0,0,0,82,86,130,110,65,132.85,210,52.00,-34.00,-1046.00
2024-05-19 08:45:04.601021,1,0,-31,0,0,0,82,86,130,110,65,132.87,210,25.00,-25.00,-1026.00
2024-05-19 08:45:04.799391,1,0,-36,0,0,0,82,86,130,110,65,132.87,210,8.00,14.00,-978.00
2024-05-19 08:45:04.804646,1,0,-42,0,0,0,82,86,130,110,65,132.88,210,-12.00,3.00,-942.00
2024-05-19 08:45:05.006159,1,0,-48,0,0,0,82,86,129,110,65,132.90,210,22.00,-3.00,-976.00
2024-05-19 08:45:05.008613,1,0,-54,0,0,0,82,86,129,110,65,132.86,210,18.00,-22.00,-1013.00
2024-05-19 08:45:05.110819,1,0,-60,0,0,0,82,86,128,110,65,132.95,210,23.00,2.00,-966.00
2024-05-19 08:45:05.212759,1,0,-66,0,0,0,82,86,129,110,65,132.92,210,60.00,-7.00,-1046.00
2024-05-19 08:45:05.413876,2,0,-72,0,0,0,83,86,128,110,65,132.90,210,41.00,-7.00,-1015.00
2024-05-19 08:45:05.416693,2,0,-78,0,0,0,83,86,128,110,65,132.85,211,75.00,-15.00,-1020.00
2024-05-19 08:45:05.618621,2,-1,-84,0,0,0,83,86,128,110,65,132.84,211,26.00,-3.00,-941.00
2024-05-19 08:45:05.620651,2,-1,-90,0,0,0,83,86,127,110,65,132.85,211,28.00,14.00,-992.00
2024-05-19 08:45:05.722635,2,-1,-96,0,0,0,83,86,127,110,65,132.90,211,62.00,10.00,-1046.00
2024-05-19 08:45:05.925773,1,-2,-102,0,0,0,83,86,127,110,65,132.94,211,31.00,28.00,-963.00
2024-05-19 08:45:05.926605,1,-3,-108,0,0,0,83,86,127,110,65,132.97,211,-18.00,69.00,-1001.00
2024-05-19 08:45:06.028614,1,-3,-114,0,0,0,83,86,126,110,65,132.87,211,33.00,66.00,-1070.00
2024-05-19 08:45:06.131180,0,-2,-120,0,0,0,83,86,126,110,65,132.85,211,50.00,38.00,-1031.00
2024-05-19 08:45:06.233045,0,-2,-127,0,0,0,83,86,126,110,65,132.82,211,3.00,49.00,-1035.00
2024-05-19 08:45:06.335407,0,-2,-133,0,0,0,84,86,125,110,65,132.92,211,-16.00,55.00,-924.00
2024-05-19 08:45:06.437797,0,-2,-139,0,0,0,84,86,125,110,65,132.96,212,-61.00,90.00,-986.00
2024-05-19 08:45:06.540101,-1,-2,-145,0,0,0,84,86,124,110,64,132.84,212,-9.00,45.00,-947.00
2024-05-19 08:45:06.640837,-2,-2,-152,0,0,0,84,86,124,110,64,132.90,212,-32.00,21.00,-931.00
2024-05-19 08:45:06.742704,-2,-3,-158,0,0,0,84,86,123,110,64,132.84,212,-48.00,38.00,-1019.00
2024-05-19 08:45:06.847273,-2,-3,-164,0,0,0,84,86,124,110,64,132.90,212,-25.00,53.00,-1048.00
2024-05-19 08:45:06.895315,-3,-2,-170,0,0,0,84,86,124,110,64,132.88,212,-21.00,-4.00,-993.00
2024-05-19 08:45:07.052203,-1,-1,-175,0,0,0,84,86,124,110,64,132.91,212,-135.00,176.00,-950.00
2024-05-19 08:45:07.100782,-1,-2,178,0,0,0,84,86,124,110,64,132.87,212,-74.00,100.00,-1026.00
2024-05-19 08:45:07.201456,-1,-2,172,0,0,0,84,86,124,110,64,132.96,212,-40.00,52.00,-940.00
2024-05-19 08:45:07.359538,-2,-2,166,0,0,0,83,85,125,110,64,132.88,212,-19.00,18.00,-974.00
2024-05-19 08:45:07.405483,-3,-1,160,0,0,0,83,85,125,110,64,132.94,213,7.00,25.00,-1081.00
2024-05-19 08:45:07.564093,-2,-1,153,0,0,0,83,85,125,110,64,132.84,213,-17.00,34.00,-1022.00
2024-05-19 08:45:07.609270,-1,-1,147,0,0,0,83,85,126,110,64,132.81,213,-61.00,-12.00,-992.00
2024-05-19 08:45:07.769078,-1,-2,141,0,0,0,83,85,126,110,64,132.69,213,-76.00,-2.00,-1007.00
2024-05-19 08:45:07.813337,-2,-1,135,0,0,0,83,85,128,110,64,132.80,213,-77.00,-10.00,-980.00
2024-05-19 08:45:07.973915,-3,0,130,0,0,0,83,85,128,110,64,132.81,213,-78.00,17.00,-998.00
2024-05-19 08:45:08.017265,-3,0,124,0,0,0,83,85,130,110,64,132.86,213,-125.00,64.00,-947.00
2024-05-19 08:45:08.178592,-3,0,119,0,0,0,83,85,130,110,64,132.95,213,-36.00,-25.00,-950.00
2024-05-19 08:45:08.221137,-3,0,113,0,0,0,83,85,130,110,64,132.87,213,-74.00,6.00,-962.00
2024-05-19 08:45:08.385182,-3,0,106,0,0,0,82,86,130,110,64,133.00,213,-35.00,-19.00,-1032.00
2024-05-19 08:45:08.426666,-3,0,100,0,0,0,82,86,131,110,64,132.89,214,-42.00,8.00,-945.00
2024-05-19 08:45:08.588306,-2,0,94,0,0,0,82,86,130,110,64,132.89,214,-70.00,2.00,-993.00
2024-05-19 08:45:08.629256,-2,0,89,0,0,0,82,86,130,110,64,132.98,214,-87.00,40.00,-984.00
2024-05-19 08:45:08.793002,-3,0,82,0,0,0,82,86,130,110,64,132.91,214,-31.00,-7.00,-1021.00
2024-05-19 08:45:08.833445,-3,0,77,0,0,0,82,86,130,110,64,132.97,214,-49.00,20.00,-968.00
2024-05-19 08:45:08.997793,-3,0,71,0,0,0,82,86,129,110,64,132.92,214,-47.00,11.00,-942.00
2024-05-19 08:45:09.037836,-3,0,65,0,0,0,82,86,128,110,64,132.91,214,-88.00,-3.00,-996.00
2024-05-19 08:45:09.204380,-3,0,59,0,0,0,82,86,128,110,64,132.91,214,-33.00,-66.00,-1072.00
2024-05-19 08:45:09.243021,-4,0,53,0,0,0,82,86,128,110,64,132.89,214,-72.00,13.00,-994.00
2024-05-19 08:45:09.343432,-4,0,48,0,0,0,83,86,128,110,64,132.73,214,-85.00,-29.00,-1044.00
2024-05-19 08:45:09.445613,-4,1,42,0,0,0,83,86,128,110,64,132.82,215,-29.00,-74.00,-1023.00
2024-05-19 08:45:09.547210,-4,1,36,0,0,0,83,86,128,110,64,132.90,215,-102.00,16.00,-990.00
2024-05-19 08:45:09.715993,-4,0,31,0,0,0,83,86,128,110,64,132.89,215,-70.00,-28.00,-1038.00
2024-05-19 08:45:09.751427,-4,0,26,0,0,0,83,86,128,110,64,133.01,215,-48.00,-47.00,-1018.00
2024-05-19 08:45:09.921178,-4,0,22,0,0,0,83,86,128,110,64,133.07,215,-50.00,-49.00,-994.00
2024-05-19 08:45:09.955165,-3,1,19,0,0,0,83,86,129,110,64,133.01,215,25.00,-98.00,-1071.00
2024-05-19 08:45:10.124091,-2,2,17,0,0,0,83,86,129,110,64,132.97,215,-49.00,-77.00,-1028.00
2024-05-19 08:45:10.159228,-1,3,17,0,0,0,83,86,129,110,64,132.98,215,-1.00,-193.00,-1005.00
2024-05-19 08:45:10.329026,-1,4,16,0,0,0,83,86,129,110,64,132.98,215,-61.00,-158.00,-1008.00
2024-05-19 08:45:10.363136,-3,3,15,0,0,0,83,86,130,110,64,132.98,215,-12.00,-98.00,-956.00
2024-05-19 08:45:10.533753,-4,3,14,0,0,0,83,86,130,110,64,132.89,216,-11.00,-151.00,-1019.00
2024-05-19 08:45:10.567099,-4,3,14,0,0,0,83,86,130,110,64,132.87,216,-30.00,-163.00,-1005.00
2024-05-19 08:45:10.738640,-4,3,13,0,0,0,83,86,131,110,64,132.85,216,-27.00,-92.00,-986.00
2024-05-19 08:45:10.773673,-3,4,12,0,0,0,83,86,131,110,64,132.94,216,-16.00,-69.00,-965.00
2024-05-19 08:45:10.943542,-2,4,12,0,0,0,83,86,130,110,64,132.90,216,-20.00,-34.00,-1004.00
2024-05-19 08:45:10.943747,-2,3,12,0,0,0,83,86,130,110,64,132.86,216,-42.00,-82.00,-985.00
2024-05-19 08:45:11.027178,-2,3,12,0,0,0,83,86,131,110,64,132.96,216,-6.00,-98.00,-1021.00
2024-05-19 08:45:11.148207,-3,3,11,0,0,0,83,86,131,110,64,132.94,216,23.00,-82.00,-1027.00
2024-05-19 08:45:11.231189,-2,3,12,0,0,0,83,86,131,110,64,132.95,216,0.00,-85.00,-982.00
2024-05-19 08:45:11.355139,-1,3,12,1,0,0,83,86,132,110,64,132.87,216,-66.00,-79.00,-1003.00
2024-05-19 08:45:11.435224,0,4,12,1,0,0,83,86,132,110,63,132.88,217,-52.00,-101.00,-963.00
2024-05-19 08:45:11.559731,-1,4,12,0,0,0,83,86,132,110,63,132.89,217,-78.00,-19.00,-946.00
2024-05-19 08:45:11.639191,-1,5,12,0,0,0,83,86,132,110,63,132.93,217,-16.00,-103.00,-965.00
2024-05-19 08:45:11.765059,-2,4,12,0,0,0,83,86,132,110,63,132.99,217,-30.00,-90.00,-974.00
2024-05-19 08:45:11.843166,-2,4,12,0,0,0,83,86,132,110,63,132.93,217,14.00,-83.00,-1031.00
2024-05-19 08:45:11.970621,-1,4,12,0,0,0,83,86,132,110,63,132.97,217,-29.00,-88.00,-955.00
2024-05-19 08:45:12.047610,-1,4,12,0,0,0,83,86,132,110,63,132.89,217,0.00,-126.00,-1031.00
2024-05-19 08:45:12.172837,-1,4,12,0,0,0,83,86,131,110,63,132.85,217,-26.00,-68.00,-975.00
2024-05-19 08:45:12.251337,-1,4,11,0,0,0,83,86,131,110,63,132.90,217,-46.00,-63.00,-982.00
2024-05-19 08:45:12.377084,-1,4,11,0,0,0,83,86,132,110,63,132.71,217,-28.00,-45.00,-1010.00
2024-05-19 08:45:12.455128,-1,3,11,0,0,0,83,86,131,110,63,132.68,218,5.00,-75.00,-1013.00
2024-05-19 08:45:12.581708,0,4,12,0,0,0,83,86,131,110,63,132.71,218,-22.00,-74.00,-1007.00
2024-05-19 08:45:12.663687,0,3,12,0,0,0,83,86,131,110,63,132.77,218,-67.00,-59.00,-925.00
2024-05-19 08:45:12.761056,-1,3,12,0,0,0,83,86,131,110,63,132.72,218,-9.00,-94.00,-1076.00
2024-05-19 08:45:12.863320,-2,3,12,0,0,0,83,86,130,110,63,132.79,218,-57.00,-44.00,-974.00
2024-05-19 08:45:12.993448,-1,1,12,0,0,0,83,86,131,110,63,132.80,218,-64.00,-43.00,-1500.00
2024-05-19 08:45:13.066985,0,-2,14,0,0,-5,83,86,139,110,63,132.73,218,-104.00,-77.00,-1715.00
2024-05-19 08:45:13.197663,1,-17,18,-1,-2,-12,83,86,255,120,63,133.11,218,-73.00,207.00,-1234.00
2024-05-19 08:45:13.273524,9,-112,9,0,-10,-11,83,86,459,140,63,133.04,218,69.00,764.00,-1014.00
2024-05-19 08:45:13.373048,-10,123,5,0,-13,3,82,86,246,140,63,132.95,218,95.00,447.00,-1502.00
2024-05-19 08:45:13.505164,-1,12,26,-1,-7,10,82,86,149,130,63,132.60,219,-61.00,-216.00,-1706.00
2024-05-19 08:45:13.577054,10,-16,28,-1,-10,7,82,86,133,120,63,132.75,219,-30.00,128.00,-1230.00
2024-05-19 08:45:13.710015,-1,2,35,-2,-12,5,82,86,127,120,63,132.66,219,-54.00,-33.00,-1283.00
2024-05-19 08:45:13.782049,-5,5,38,-2,-11,1,82,86,124,110,63,132.62,219,-46.00,-24.00,-1169.00
2024-05-19 08:45:13.912955,-6,6,31,-2,-10,0,82,86,123,110,63,132.69,219,-14.00,-11.00,-1030.00
2024-05-19 08:45:13.985128,-4,7,19,-2,-9,0,82,86,123,110,63,132.61,219,27.00,-86.00,-1002.00
2024-05-19 08:45:14.119862,-3,8,11,-1,-8,-1,82,86,123,110,63,132.71,219,6.00,-87.00,-1033.00
2024-05-19 08:45:14.189109,-3,8,10,-1,-6,-1,82,86,123,110,63,132.75,219,4.00,-108.00,-1042.00
2024-05-19 08:45:14.322529,-2,8,11,0,-5,-1,82,86,122,110,63,132.81,219,-9.00,-65.00,-983.00
2024-05-19 08:45:14.394277,-2,7,11,0,-4,-1,83,86,122,110,63,132.76,219,-53.00,-45.00,-902.00
2024-05-19 08:45:14.495887,-1,5,11,0,-3,0,83,86,121,110,63,132.68,220,-6.00,-75.00,-1003.00
2024-05-19 08:45:14.630618,-2,5,11,0,-3,0,83,86,121,110,63,132.74,220,42.00,-98.00,-1057.00
2024-05-19 08:45:14.700101,-2,5,11,0,-3,0,83,86,121,110,63,132.74,220,-18.00,-62.00,-988.00
2024-05-19 08:45:14.750929,-1,5,11,0,-3,0,83,86,120,110,63,132.69,220,4.00,-109.00,-998.00
2024-05-19 08:45:14.939069,-1,5,11,0,-3,0,83,86,120,110,63,132.70,220,-21.00,-91.00,-1052.00
2024-05-19 08:45:14.955029,0,6,11,0,-3,0,83,86,120,100,63,132.70,220,-46.00,-86.00,-974.00
2024-05-19 08:45:15.141709,0,7,11,0,-3,0,83,86,120,100,63,132.76,220,-33.00,-58.00,-1012.00
2024-05-19 08:45:15.159613,0,7,11,0,-3,0,83,86,120,100,63,132.77,220,34.00,-97.00,-992.00
2024-05-19 08:45:15.346473,0,7,11,0,-3,0,83,86,119,100,63,132.72,220,2.00,-92.00,-1092.00
2024-05-19 08:45:15.362890,0,7,11,0,-2,0,83,86,119,100,63,132.61,221,-1.00,-103.00,-992.00
2024-05-19 08:45:15.551208,0,7,11,0,-2,0,83,86,120,100,62,132.71,221,-43.00,-52.00,-1037.00
2024-05-19 08:45:15.566909,0,6,12,0,-2,0,83,86,120,100,62,132.67,221,-48.00,-53.00,-960.00
2024-05-19 08:45:15.757663,-1,7,12,0,-2,0,83,86,121,100,62,132.59,221,-9.00,-122.00,-968.00
2024-05-19 08:45:15.770918,-2,8,11,0,-1,0,83,86,121,100,62,132.63,221,-111.00,-42.00,-963.00
2024-05-19 08:45:15.960902,-3,7,11,0,-1,0,83,86,121,100,62,132.71,221,-32.00,-61.00,-985.00
2024-05-19 08:45:15.974904,-2,7,11,0,0,0,83,86,120,100,62,132.70,221,-42.00,-77.00,-1025.00
2024-05-19 08:45:16.165715,-2,6,11,0,0,0,83,86,121,100,62,132.67,221,-48.00,-74.00,-967.00
2024-05-19 08:45:16.179338,-1,6,11,0,0,0,83,86,120,100,62,132.65,221,-6.00,-103.00,-1029.00
2024-05-19 08:45:16.370508,-1,6,11,0,0,0,83,86,120,100,62,132.72,221,24.00,-113.00,-1004.00
2024-05-19 08:45:16.383174,-1,6,11,0,0,0,82,86,121,100,62,132.72,222,-22.00,-100.00,-1005.00
2024-05-19 08:45:16.575364,0,7,12,0,0,0,82,86,121,100,62,132.76,222,-19.00,-92.00,-1003.00
2024-05-19 08:45:16.586952,0,6,12,0,0,0,82,86,121,100,62,132.74,222,-42.00,-116.00,-1043.00
2024-05-19 08:45:16.780160,0,7,12,0,0,0,82,86,122,100,62,132.76,222,-125.00,-18.00,-963.00
2024-05-19 08:45:16.791052,-2,7,12,0,0,0,82,86,122,100,62,132.59,222,-25.00,-159.00,-969.00
2024-05-19 08:45:16.985288,-2,7,12,0,0,0,82,86,122,100,62,132.79,222,-6.00,-92.00,-960.00
2024-05-19 08:45:16.996163,-3,6,12,0,0,0,82,86,122,100,62,132.72,222,-22.00,-162.00,-1006.00
2024-05-19 08:45:17.189702,-2,6,12,0,0,0,82,86,122,100,62,132.66,222,-9.00,-71.00,-990.00
2024-05-19 08:45:17.199072,-1,6,12,0,0,0,82,86,123,100,62,132.79,222,-25.00,-97.00,-973.00
2024-05-19 08:45:17.303160,-1,6,11,0,0,0,82,86,122,100,62,132.77,222,-12.00,-104.00,-986.00
2024-05-19 08:45:17.402899,-1,5,11,0,0,0,83,86,123,100,62,132.74,223,4.00,-122.00,-959.00
2024-05-19 08:45:17.599547,0,6,11,0,0,0,83,86,123,100,62,132.75,223,-22.00,-94.00,-941.00
2024-05-19 08:45:17.606876,0,6,11,0,0,0,83,86,122,100,62,132.83,223,22.00,-121.00,-1005.00
2024-05-19 08:45:17.804095,0,6,11,0,0,0,83,86,123,100,62,132.84,223,12.00,-95.00,-950.00
2024-05-19 08:45:17.811022,0,6,12,0,0,0,83,86,123,100,62,132.79,223,4.00,-76.00,-1027.00
2024-05-19 08:45:18.008898,0,6,12,0,0,0,83,86,123,100,62,132.77,223,10.00,-76.00,-1027.00
2024-05-19 08:45:18.015619,0,5,12,0,0,0,83,86,123,100,62,132.76,223,-23.00,-71.00,-958.00
2024-05-19 08:45:18.213784,0,5,12,0,0,0,83,86,124,100,62,132.82,223,6.00,-139.00,-990.00
2024-05-19 08:45:18.213941,0,6,12,0,0,0,83,86,124,100,62,132.83,223,-25.00,-96.00,-996.00
2024-05-19 08:45:18.270586,0,6,12,0,0,0,83,86,125,100,62,132.85,223,-17.00,-129.00,-967.00
2024-05-19 08:45:18.423455,0,6,11,0,0,0,83,86,126,100,62,132.84,224,32.00,-132.00,-952.00
2024-05-19 08:45:18.474075,0,6,12,0,0,0,83,86,126,100,62,132.80,224,38.00,-101.00,-963.00
2024-05-19 08:45:18.623660,1,6,12,0,0,0,83,86,125,100,62,132.80,224,-31.00,-95.00,-948.00
2024-05-19 08:45:18.678171,1,6,12,0,0,0,83,86,125,100,62,132.87,224,-22.00,-105.00,-976.00
2024-05-19 08:45:18.830082,0,6,12,0,0,0,83,86,125,100,62,132.90,224,2.00,-118.00,-1036.00
2024-05-19 08:45:18.882902,0,6,12,0,0,0,83,86,125,100,62,132.89,224,-43.00,-150.00,-960.00
2024-05-19 08:45:19.032995,-1,7,12,0,0,0,83,86,125,100,62,132.92,224,-52.00,-121.00,-984.00
2024-05-19 08:45:19.085815,-1,7,12,0,0,0,83,86,126,100,62,132.81,224,-8.00,-148.00,-970.00
2024-05-19 08:45:19.237863,-1,7,12,0,0,0,83,86,125,100,62,132.67,224,-21.00,-110.00,-1050.00
2024-05-19 08:45:19.290023,-1,7,12,0,0,0,83,86,126,100,62,132.81,224,-26.00,-128.00,-1010.00
2024-05-19 08:45:19.391878,0,8,12,0,0,0,84,86,125,100,62,132.82,225,-58.00,-132.00,-985.00
2024-05-19 08:45:19.546919,0,8,12,0,0,0,84,86,126,100,62,132.72,225,21.00,-134.00,-956.00
2024-05-19 08:45:19.595721,0,8,14,0,0,-4,84,86,130,110,62,132.87,225,-78.00,-132.00,-1575.00
2024-05-19 08:45:19.749634,0,14,16,-1,1,-11,84,86,143,110,62,132.89,225,-93.00,-193.00,-1743.00
2024-05-19 08:45:19.803077,-6,83,15,-3,6,-13,84,86,6553,130,62,132.95,225,20.00,120.00,-1337.00
2024-05-19 08:45:19.901985,3,-146,7,-4,11,0,84,86,554,130,62,132.71,225,121.00,956.00,-1244.00
2024-05-19 08:45:20.058384,3,-21,22,-2,2,9,84,86,145,130,62,133.17,225,122.00,867.00,-1655.00
2024-05-19 08:45:20.106149,0,8,23,-3,2,8,84,86,129,120,62,132.34,225,-36.00,160.00,-742.00
2024-05-19 08:45:20.261693,0,-4,22,-3,1,4,84,86,119,110,62,132.66,225,-91.00,-98.00,-1541.00
2024-05-19 08:45:20.309897,-3,-1,19,-3,0,1,84,86,114,110,62,132.44,225,-55.00,-78.00,-1361.00
2024-05-19 08:45:20.467641,-3,2,13,-2,-1,0,84,86,111,110,62,132.49,226,22.00,-153.00,-1192.00
2024-05-19 08:45:20.513880,-3,4,11,-2,-1,-1,84,86,108,110,62,132.50,226,-16.00,-76.00,-1125.00
2024-05-19 08:45:20.671240,-3,4,11,-2,0,-1,84,86,107,110,62,132.52,226,-35.00,-101.00,-1073.00
2024-05-19 08:45:20.717919,-3,3,11,-1,0,-2,84,86,105,110,62,132.58,226,-24.00,-97.00,-1012.00
2024-05-19 08:45:20.875962,-2,3,11,-1,0,-2,84,86,104,110,62,132.54,226,-20.00,-88.00,-991.00
2024-05-19 08:45:20.921976,-2,2,11,-1,0,-1,84,86,103,120,62,132.48,226,-9.00,-72.00,-959.00
2024-05-19 08:45:21.080789,-3,1,11,-1,0,-1,84,86,102,120,62,132.46,226,-3.00,-98.00,-966.00
2024-05-19 08:45:21.125887,-3,1,11,0,0,-1,84,86,100,120,62,132.50,226,-40.00,-64.00,-1003.00
2024-05-19 08:45:21.227730,-3,2,11,0,0,-1,84,86,98,120,62,132.36,226,-20.00,-98.00,-1009.00
2024-05-19 08:45:21.387985,-2,3,11,0,0,-1,84,86,96,120,62,132.37,226,-4.00,-82.00,-983.00
2024-05-19 08:45:21.431754,-2,3,12,0,0,-1,83,86,95,120,62,132.41,227,-50.00,-71.00,-935.00
2024-05-19 08:45:21.593038,-2,2,12,0,0,-1,83,86,93,120,61,132.28,227,-2.00,-79.00,-1036.00
2024-05-19 08:45:21.635834,-2,2,12,0,0,-1,83,86,92,120,61,132.29,227,-28.00,-78.00,-991.00
2024-05-19 08:45:21.797619,-2,2,12,0,0,-1,83,86,92,120,61,132.35,227,-41.00,-72.00,-1031.00
2024-05-19 08:45:21.839733,-2,2,12,0,0,-2,83,86,91,120,61,132.25,227,-32.00,-49.00,-1045.00
2024-05-19 08:45:22.002430,-3,1,12,0,0,-2,83,86,91,120,61,132.29,227,-77.00,-25.00,-998.00
2024-05-19 08:45:22.002482,-3,1,12,0,0,-2,83,86,91,130,61,132.26,227,-5.00,-118.00,-1077.00
2024-05-19 08:45:22.094538,-3,0,12,0,0,-2,83,86,91,130,61,132.28,227,-94.00,4.00,-1025.00
2024-05-19 08:45:22.207306,-3,0,12,0,0,0,83,86,91,120,61,132.37,227,-26.00,-42.00,-1009.00
2024-05-19 08:45:22.298546,-3,0,12,0,0,0,83,86,91,120,61,132.41,227,-43.00,-71.00,-962.00
2024-05-19 08:45:22.451726,-3,1,12,0,0,0,83,87,91,120,61,132.45,228,-67.00,-101.00,-1005.00
2024-05-19 08:45:22.502549,-3,3,12,0,-1,0,83,87,91,120,61,132.49,228,-19.00,-143.00,-1011.00
2024-05-19 08:45:22.617231,-3,4,12,0,-1,0,83,87,91,120,61,132.48,228,-40.00,-128.00,-1029.00
