TS,pitch,roll,yaw,vgx,vgy,vgz,templ,temph,tof,h,bat,baro,time,agx,agy,agz
2024-05-19 08:45:59.070976,0,0,2,0,0,0,85,87,10,0,59,131.42,241,-3.00,8.00,-999.00
2024-05-19 08:45:59.122640,0,0,2,0,0,0,85,87,10,0,59,131.44,241,-4.00,6.00,-998.00
2024-05-19 08:45:59.275764,0,0,2,0,0,0,85,87,10,0,59,131.48,241,-3.00,9.00,-1000.00
2024-05-19 08:45:59.326935,0,0,2,0,0,0,85,87,10,0,59,131.47,241,-3.00,7.00,-999.00
2024-05-19 08:45:59.480487,0,0,2,0,0,0,85,87,10,0,59,131.43,241,-3.00,7.00,-1000.00
2024-05-19 08:45:59.530551,0,0,2,0,0,0,85,87,10,0,59,131.46,241,-2.00,7.00,-1000.00
2024-05-19 08:45:59.685230,0,0,2,0,0,0,86,87,10,0,59,131.44,241,-3.00,6.00,-999.00
2024-05-19 08:45:59.734951,0,0,2,0,0,0,86,87,10,0,59,131.48,241,-3.00,7.00,-1001.00
2024-05-19 08:45:59.890107,0,0,2,0,0,0,86,87,10,0,59,131.45,241,-3.00,7.00,-1000.00
2024-05-19 08:45:59.938718,0,0,2,0,0,0,86,87,10,0,59,131.44,241,-3.00,6.00,-1001.00
2024-05-19 08:46:00.040672,0,0,2,0,0,0,86,87,10,0,59,131.45,241,-4.00,7.00,-997.00
2024-05-19 08:46:00.197311,0,0,2,0,0,0,86,87,10,0,59,131.46,241,-4.00,8.00,-998.00
2024-05-19 08:46:00.244652,0,0,2,0,0,0,86,87,10,0,59,131.46,241,-4.00,7.00,-1002.00
2024-05-19 08:46:00.346719,0,0,2,0,0,0,86,87,10,0,59,131.49,241,-4.00,7.00,-998.00
2024-05-19 08:46:00.504364,0,0,2,0,0,0,86,87,10,0,59,131.46,241,-3.00,8.00,-1001.00
2024-05-19 08:46:00.550553,0,0,2,0,0,0,86,87,10,0,59,131.47,241,-4.00,9.00,-999.00
2024-05-19 08:46:00.709164,0,0,2,0,0,0,85,88,10,0,59,131.49,241,-3.00,7.00,-1001.00
2024-05-19 08:46:00.754478,0,0,2,0,0,0,85,88,10,0,59,131.45,241,-2.00,8.00,-998.00
2024-05-19 08:46:00.856602,0,0,2,0,0,0,85,88,10,0,59,131.42,241,-4.00,7.00,-999.00
2024-05-19 08:46:01.016442,0,0,2,0,0,0,85,88,10,0,59,131.43,241,-5.00,8.00,-998.00
2024-05-19 08:46:01.060626,0,0,2,0,0,0,85,88,10,0,59,131.37,241,-4.00,8.00,-998.00
2024-05-19 08:46:01.221330,0,0,2,0,0,0,85,88,10,0,59,131.42,241,-5.00,7.00,-997.00
2024-05-19 08:46:01.264647,0,0,2,0,0,0,85,88,10,0,59,131.47,241,-4.00,7.00,-1002.00
2024-05-19 08:46:01.366807,0,0,2,0,0,0,85,88,10,0,59,131.42,241,-1.00,7.00,-999.00
2024-05-19 08:46:01.528769,0,0,2,0,0,0,85,88,10,0,59,131.47,241,-3.00,6.00,-1002.00
2024-05-19 08:46:01.570599,0,0,2,0,0,0,85,88,10,0,59,131.47,241,-3.00,7.00,-999.00
2024-05-19 08:46:01.733320,0,0,2,0,0,0,86,87,10,0,59,131.42,241,-2.00,8.00,-1000.00
2024-05-19 08:46:01.733805,0,0,2,0,0,0,86,87,10,0,59,131.41,241,-3.00,9.00,-999.00
2024-05-19 08:46:01.825628,0,0,2,0,0,0,86,87,10,0,59,131.40,241,-2.00,7.00,-998.00
2024-05-19 08:46:01.938131,0,0,2,0,0,0,86,87,10,0,59,131.46,241,-3.00,8.00,-1000.00
2024-05-19 08:46:02.029598,0,0,2,0,0,0,86,87,10,0,59,131.39,241,-4.00,8.00,-999.00
2024-05-19 08:46:02.142863,0,0,2,0,0,0,86,87,10,0,59,131.42,241,-4.00,7.00,-999.00
2024-05-19 08:46:02.233727,0,0,2,0,0,0,86,87,10,0,59,131.40,241,-3.00,7.00,-1002.00
2024-05-19 08:46:02.335885,0,0,2,0,0,0,86,87,10,0,59,131.44,241,-4.00,7.00,-1001.00
2024-05-19 08:46:02.450132,0,0,2,0,0,0,86,87,10,0,59,131.44,242,-6.00,6.00,-993.00
2024-05-19 08:46:02.540425,0,0,2,0,0,0,86,87,10,0,59,131.44,242,-11.00,-2.00,-994.00
2024-05-19 08:46:02.654794,0,0,2,0,0,0,86,88,10,0,59,131.44,242,0.00,12.00,-1003.00
2024-05-19 08:46:02.744497,0,0,3,0,0,0,86,88,10,0,59,131.44,242,5.00,-37.00,-1034.00
2024-05-19 08:46:02.859503,0,0,5,0,0,0,86,88,10,0,59,131.44,242,24.00,26.00,-1016.00
2024-05-19 08:46:02.948444,0,0,6,0,0,0,86,88,10,0,59,131.44,242,-3.00,-13.00,-1048.00
2024-05-19 08:46:03.064404,0,0,7,0,0,0,86,88,10,0,59,131.44,242,-12.00,19.00,-1198.00
2024-05-19 08:46:03.152492,1,0,7,0,0,-3,86,88,10,0,59,131.44,242,-69.00,48.00,-1315.00
2024-05-19 08:46:03.269138,-2,0,7,-1,0,-6,86,88,19,0,59,131.44,242,-78.00,143.00,-1126.00
2024-05-19 08:46:03.356397,-2,0,7,0,0,-7,86,88,26,10,59,131.67,242,-9.00,-24.00,-1051.00
2024-05-19 08:46:03.473811,-2,0,7,0,0,-8,86,88,34,20,59,131.83,243,-44.00,-21.00,-1052.00
2024-05-19 08:46:03.560398,-1,0,7,0,0,-8,86,88,42,30,59,131.87,243,-21.00,-17.00,-927.00
2024-05-19 08:46:03.678683,-1,0,7,0,0,-7,86,89,46,30,59,131.98,243,9.00,-36.00,-929.00
2024-05-19 08:46:03.764334,-1,0,7,0,0,-7,86,89,52,40,59,132.03,243,-16.00,-8.00,-922.00
2024-05-19 08:46:03.883512,-1,0,7,0,0,-6,86,89,58,50,59,132.18,243,-19.00,-33.00,-862.00
2024-05-19 08:46:03.969456,0,0,7,0,0,-4,86,89,62,50,59,132.14,243,-25.00,19.00,-889.00
2024-05-19 08:46:04.088624,-1,0,7,0,0,-3,86,89,65,50,59,132.16,243,35.00,-10.00,-934.00
2024-05-19 08:46:04.172280,0,0,7,0,0,-2,86,89,68,60,59,132.22,243,14.00,-21.00,-964.00
2024-05-19 08:46:04.296102,0,0,7,0,0,-1,86,89,70,60,59,132.19,243,-39.00,13.00,-915.00
2024-05-19 08:46:04.376337,0,0,7,0,0,-1,86,89,72,60,59,132.26,243,10.00,-31.00,-947.00
2024-05-19 08:46:04.497816,0,0,7,0,0,0,86,89,73,60,59,132.28,244,-20.00,-7.00,-943.00
2024-05-19 08:46:04.580250,0,0,7,0,0,0,86,89,75,60,59,132.27,244,-11.00,-15.00,-977.00
2024-05-19 08:46:04.703276,0,0,7,0,0,0,85,89,76,60,59,132.39,244,-43.00,-12.00,-976.00
2024-05-19 08:46:04.784478,0,0,7,0,0,0,85,89,77,60,59,132.35,244,-1.00,-33.00,-995.00
2024-05-19 08:46:04.907509,0,0,7,0,0,0,85,89,78,60,59,132.50,244,-23.00,-24.00,-1035.00
2024-05-19 08:46:04.988328,0,0,7,0,0,0,85,89,79,70,59,132.33,244,-13.00,-42.00,-1026.00
2024-05-19 08:46:05.112562,0,0,7,0,0,0,85,89,80,70,59,132.39,244,-44.00,34.00,-959.00
2024-05-19 08:46:05.192319,0,0,7,0,0,0,85,89,82,70,59,132.36,244,-5.00,3.00,-1004.00
2024-05-19 08:46:05.317104,0,0,7,0,0,0,85,89,83,70,59,132.42,244,-5.00,17.00,-955.00
2024-05-19 08:46:05.396302,0,0,7,0,0,0,85,89,84,70,59,132.44,244,20.00,-15.00,-1020.00
2024-05-19 08:46:05.521915,0,0,6,0,0,0,85,89,84,70,59,132.41,245,26.00,-11.00,-1068.00
2024-05-19 08:46:05.600310,0,0,6,0,0,0,85,89,85,70,59,132.44,245,30.00,-14.00,-1043.00
2024-05-19 08:46:05.726717,0,-1,6,0,0,0,86,88,86,70,59,132.45,245,16.00,4.00,-1019.00
2024-05-19 08:46:05.805233,0,-1,6,0,0,0,86,88,87,70,59,132.45,245,-7.00,18.00,-967.00
2024-05-19 08:46:05.856285,0,-1,6,0,0,0,86,88,87,70,59,132.46,245,-18.00,-11.00,-1022.00
2024-05-19 08:46:06.034694,-1,-1,6,0,0,0,86,88,87,80,59,132.46,245,-33.00,2.00,-934.00
2024-05-19 08:46:06.060597,-1,-1,6,0,0,0,86,88,87,80,59,132.41,245,-17.00,27.00,-995.00
2024-05-19 08:46:06.239411,-1,-1,6,0,0,0,86,88,87,80,59,132.33,245,1.00,24.00,-968.00
2024-05-19 08:46:06.264286,-1,0,6,0,0,0,86,88,86,70,59,132.45,245,-41.00,-19.00,-1026.00
2024-05-19 08:46:06.366304,-1,-1,6,0,0,0,86,88,85,70,59,132.43,246,4.00,8.00,-985.00
2024-05-19 08:46:06.545926,0,-1,6,0,0,0,86,88,85,70,59,132.39,246,-15.00,18.00,-945.00
2024-05-19 08:46:06.570278,0,-1,6,0,0,0,86,88,84,70,59,132.46,246,-13.00,1.00,-1013.00
2024-05-19 08:46:06.750670,-1,-1,6,0,0,0,85,88,83,70,59,132.37,246,-46.00,-25.00,-1012.00
2024-05-19 08:46:06.774287,-1,0,6,0,0,0,85,88,82,70,59,132.30,246,-45.00,0.00,-1019.00
2024-05-19 08:46:06.955478,-2,0,6,0,0,0,85,88,82,70,59,132.22,246,-17.00,-7.00,-1051.00
2024-05-19 08:46:06.978266,-2,0,6,0,-1,0,85,88,82,70,59,132.30,246,-48.00,5.00,-984.00
2024-05-19 08:46:07.160554,-2,0,6,0,0,0,85,88,82,70,59,132.35,246,-16.00,7.00,-1011.00
2024-05-19 08:46:07.182353,-2,0,6,0,0,0,85,88,82,70,59,132.27,246,-54.00,-28.00,-998.00
2024-05-19 08:46:07.284249,-2,0,6,0,-1,0,85,88,82,70,59,132.33,246,-32.00,-36.00,-985.00
2024-05-19 08:46:07.386372,-2,2,6,0,-1,0,85,88,82,70,59,132.30,247,-30.00,-61.00,-1003.00
2024-05-19 08:46:07.570347,-2,3,6,0,0,0,85,88,83,70,59,132.31,247,-24.00,-22.00,-1030.00
2024-05-19 08:46:07.590212,-3,2,6,0,0,0,85,88,83,70,59,132.27,247,-23.00,-18.00,-1012.00
2024-05-19 08:46:07.774682,-3,1,6,0,0,0,85,88,83,70,59,132.26,247,-39.00,-9.00,-986.00
2024-05-19 08:46:07.794209,-2,1,6,0,0,0,85,88,83,70,59,132.36,247,-38.00,-32.00,-992.00
2024-05-19 08:46:07.979528,-2,0,7,0,0,0,85,88,83,70,59,132.37,247,-28.00,-2.00,-978.00
2024-05-19 08:46:07.998295,-2,0,7,0,0,0,85,88,83,70,59,132.34,247,-42.00,-11.00,-986.00
2024-05-19 08:46:08.184948,-2,0,7,0,0,0,85,88,83,70,59,132.42,247,-38.00,-8.00,-945.00
2024-05-19 08:46:08.202307,-2,1,8,0,0,0,85,88,83,70,59,132.36,247,-56.00,17.00,-1010.00
2024-05-19 08:46:08.389146,-1,2,8,0,0,0,85,88,83,70,59,132.45,247,-22.00,-22.00,-1022.00
2024-05-19 08:46:08.406230,-1,1,8,0,0,0,85,88,83,70,59,132.38,248,-22.00,20.00,-995.00
2024-05-19 08:46:08.594683,-2,0,8,0,0,0,85,88,83,70,59,132.28,248,-59.00,23.00,-1027.00
2024-05-19 08:46:08.610168,-2,-1,8,0,0,0,85,88,82,70,59,132.37,248,-35.00,1.00,-1011.00
2024-05-19 08:46:08.802406,-3,-1,8,0,0,0,86,89,82,70,59,132.47,248,-11.00,0.00,-990.00
2024-05-19 08:46:08.814089,-2,-1,8,0,0,0,86,89,81,70,59,132.44,248,-65.00,8.00,-1001.00
2024-05-19 08:46:09.006289,-2,0,8,0,0,0,86,89,80,70,59,132.34,248,-17.00,4.00,-1007.00
2024-05-19 08:46:09.018140,-1,0,7,1,0,0,86,89,80,70,59,132.37,248,45.00,-86.00,-1017.00
2024-05-19 08:46:09.208333,0,1,7,1,0,0,86,89,79,70,59,132.37,248,38.00,-46.00,-990.00
2024-05-19 08:46:09.208382,0,0,7,1,0,0,86,89,78,70,59,132.32,248,90.00,-129.00,-1010.00
2024-05-19 08:46:09.273159,0,0,7,1,0,0,86,89,78,70,59,132.36,248,-6.00,4.00,-1041.00
2024-05-19 08:46:09.375970,1,0,6,0,0,0,86,89,78,70,59,132.29,249,1.00,11.00,-990.00
2024-05-19 08:46:09.515767,1,-1,6,0,0,0,86,89,78,70,59,132.32,249,-3.00,14.00,-1011.00
2024-05-19 08:46:09.579879,0,-1,6,0,0,0,86,89,77,70,59,132.33,249,6.00,9.00,-991.00
2024-05-19 08:46:09.732101,0,-1,7,0,0,0,85,88,77,70,59,132.25,249,-20.00,3.00,-980.00
2024-05-19 08:46:09.783042,0,-1,7,0,0,0,85,88,77,70,59,132.29,249,-18.00,15.00,-1008.00
2024-05-19 08:46:09.925099,0,-1,7,0,0,0,85,88,77,70,59,132.25,249,15.00,-28.00,-991.00
2024-05-19 08:46:09.987182,0,-1,6,0,0,0,85,88,77,70,59,132.30,249,-27.00,-17.00,-954.00
2024-05-19 08:46:10.129938,-1,-1,6,0,0,0,85,88,77,70,59,132.31,249,37.00,-10.00,-1030.00
2024-05-19 08:46:10.191258,0,0,7,0,0,0,85,88,78,70,59,132.32,249,4.00,5.00,-978.00
2024-05-19 08:46:10.334823,0,0,7,0,0,0,85,88,78,70,59,132.35,249,-6.00,-4.00,-958.00
2024-05-19 08:46:10.395130,0,0,6,0,0,0,85,88,78,70,59,132.34,250,-10.00,29.00,-924.00
2024-05-19 08:46:10.539643,0,-1,6,0,0,0,85,88,78,70,59,132.30,250,36.00,9.00,-1017.00
2024-05-19 08:46:10.599034,0,-1,6,0,0,0,85,88,78,70,59,132.30,250,-6.00,30.00,-971.00
2024-05-19 08:46:10.744433,0,-1,6,0,0,0,85,87,78,70,59,132.38,250,-39.00,39.00,-954.00
2024-05-19 08:46:10.803229,0,-1,6,0,0,0,85,87,78,70,59,132.36,250,10.00,42.00,-990.00
2024-05-19 08:46:10.949241,0,-1,6,0,0,0,85,87,78,70,59,132.35,250,-8.00,16.00,-1010.00
2024-05-19 08:46:11.007172,0,-1,6,0,0,0,85,87,78,70,59,132.31,250,-25.00,21.00,-982.00
2024-05-19 08:46:11.156537,0,-2,6,0,0,0,85,87,78,70,59,132.36,250,-22.00,29.00,-1015.00
2024-05-19 08:46:11.211325,-1,-2,6,0,0,0,85,87,78,70,59,132.37,250,10.00,9.00,-1025.00
2024-05-19 08:46:11.361790,-1,-2,6,0,0,0,85,87,78,70,59,132.42,250,-6.00,52.00,-1001.00
2024-05-19 08:46:11.415113,-1,-2,6,0,0,0,85,87,77,70,59,132.39,251,-22.00,39.00,-970.00
2024-05-19 08:46:11.566063,-1,-1,6,0,0,0,85,87,77,70,59,132.42,251,-10.00,16.00,-959.00
2024-05-19 08:46:11.619873,-1,0,7,0,0,0,85,87,76,70,59,132.41,251,-25.00,29.00,-1011.00
2024-05-19 08:46:11.770734,-1,-1,7,0,0,0,86,87,76,70,59,132.30,251,-20.00,-17.00,-987.00
2024-05-19 08:46:11.823996,-1,-1,7,0,0,0,86,87,76,70,59,132.33,251,-1.00,45.00,-1116.00
2024-05-19 08:46:11.978777,-1,-1,7,0,0,0,86,87,76,70,59,132.29,251,-17.00,55.00,-959.00
2024-05-19 08:46:12.028080,0,-2,7,0,0,0,86,87,76,70,59,132.33,251,19.00,17.00,-982.00
2024-05-19 08:46:12.178669,-1,-2,7,0,0,0,86,87,76,70,59,132.30,251,-14.00,18.00,-1000.00
2024-05-19 08:46:12.231880,-1,-2,7,0,0,0,86,87,76,70,59,132.30,251,-41.00,27.00,-985.00
2024-05-19 08:46:12.382627,-2,-2,7,0,0,0,86,87,76,70,59,132.38,251,-7.00,26.00,-1127.00
2024-05-19 08:46:12.435979,-2,-1,7,0,0,0,86,87,77,70,59,132.35,252,8.00,-6.00,-1000.00
2024-05-19 08:46:12.587436,-2,-1,7,0,0,-1,86,87,78,70,59,132.42,252,-55.00,33.00,-1030.00
2024-05-19 08:46:12.639863,-2,-1,7,0,0,-2,86,87,80,70,59,132.43,252,-19.00,24.00,-1078.00
2024-05-19 08:46:12.792202,-2,-1,7,0,0,-3,85,88,84,70,59,132.51,252,-21.00,30.00,-1031.00
2024-05-19 08:46:12.843836,-2,-2,7,0,0,-4,85,88,88,80,59,132.44,252,-18.00,33.00,-1061.00
2024-05-19 08:46:12.997824,-1,-3,7,0,0,-4,85,88,93,80,59,132.54,252,-43.00,39.00,-943.00
2024-05-19 08:46:13.047910,-1,-3,7,0,0,-5,85,88,98,80,59,132.53,252,-47.00,51.00,-970.00
2024-05-19 08:46:13.202579,-2,-3,7,0,0,-5,85,88,103,90,59,132.66,252,-47.00,79.00,-956.00
2024-05-19 08:46:13.251857,-2,-3,7,0,0,-5,85,88,108,100,59,132.70,252,-32.00,80.00,-1048.00
2024-05-19 08:46:13.304508,-3,-3,6,0,0,-5,85,88,115,100,59,132.82,252,46.00,20.00,-931.00
2024-05-19 08:46:13.511792,-2,-4,7,0,0,-5,85,88,120,110,59,132.71,253,-3.00,-10.00,-961.00
2024-05-19 08:46:13.511875,0,-3,7,1,0,-4,85,88,125,110,59,132.72,253,29.00,-22.00,-1000.00
2024-05-19 08:46:13.608903,0,0,7,1,-1,-4,85,88,131,120,59,132.71,253,52.00,4.00,-1033.00
2024-05-19 08:46:13.714717,0,1,6,1,-1,-4,84,88,136,120,59,132.79,253,-28.00,62.00,-904.00
2024-05-19 08:46:13.812850,0,0,6,0,0,-5,84,88,141,130,59,132.90,253,31.00,18.00,-990.00
2024-05-19 08:46:13.918610,0,-2,6,0,0,-4,84,88,146,130,59,132.99,253,45.00,-13.00,-1046.00
2024-05-19 08:46:14.016829,0,-2,6,0,0,-4,84,88,151,140,59,133.00,253,17.00,14.00,-962.00
2024-05-19 08:46:14.126229,0,-2,7,1,0,-3,84,88,154,140,59,132.99,253,9.00,23.00,-920.00
2024-05-19 08:46:14.220788,0,-1,7,1,0,-3,84,88,159,140,59,133.04,253,58.00,11.00,-974.00
2024-05-19 08:46:14.333654,0,0,7,1,0,-3,84,88,163,150,59,133.08,253,82.00,7.00,-953.00
2024-05-19 08:46:14.424790,1,0,7,1,0,-3,84,88,166,150,59,133.12,254,81.00,5.00,-993.00
2024-05-19 08:46:14.533873,2,0,7,2,0,-2,84,88,168,150,59,133.21,254,116.00,-24.00,-1008.00
2024-05-19 08:46:14.628754,3,0,7,1,0,-2,84,88,170,160,59,133.14,254,37.00,28.00,-993.00
2024-05-19 08:46:14.738371,3,0,7,1,0,-2,85,87,172,160,59,133.18,254,76.00,0.00,-964.00
2024-05-19 08:46:14.832937,3,0,7,1,0,-1,85,87,174,160,59,133.25,254,47.00,23.00,-855.00
2024-05-19 08:46:14.942729,4,0,7,1,0,0,85,87,176,160,59,133.24,254,69.00,22.00,-943.00
2024-05-19 08:46:15.036970,3,0,7,1,0,0,85,87,176,160,59,133.28,254,59.00,-4.00,-1004.00
2024-05-19 08:46:15.148453,3,0,7,1,0,0,85,87,174,160,59,133.28,254,42.00,44.00,-975.00
2024-05-19 08:46:15.240899,3,-1,7,1,0,0,85,87,175,160,59,133.24,254,63.00,29.00,-1033.00
2024-05-19 08:46:15.352437,3,-1,7,0,0,0,85,87,176,160,59,133.27,254,23.00,41.00,-956.00
2024-05-19 08:46:15.444892,3,-2,7,0,0,0,85,87,175,160,59,133.31,255,34.00,-3.00,-1030.00
2024-05-19 08:46:15.561189,3,-1,7,0,0,0,85,87,176,160,59,133.26,255,40.00,39.00,-969.00
2024-05-19 08:46:15.648972,2,0,7,0,0,0,85,87,178,160,59,133.26,255,65.00,0.00,-1021.00
2024-05-19 08:46:15.750700,2,0,7,0,0,0,85,86,177,160,59,133.28,255,15.00,25.00,-1004.00
2024-05-19 08:46:15.864390,2,0,7,0,0,0,85,86,179,160,59,133.27,255,90.00,16.00,-971.00
2024-05-19 08:46:15.954988,2,0,7,0,0,0,85,86,180,170,59,133.23,255,32.00,52.00,-937.00
2024-05-19 08:46:16.070042,2,-1,7,0,0,0,85,86,180,170,59,133.26,255,25.00,48.00,-988.00
2024-05-19 08:46:16.158795,2,-2,7,0,0,0,85,86,181,170,59,133.30,255,25.00,33.00,-970.00
2024-05-19 08:46:16.274107,2,-2,7,0,0,0,85,86,181,170,59,133.27,255,68.00,30.00,-1033.00
2024-05-19 08:46:16.363002,2,-1,7,0,0,0,85,86,182,170,59,133.37,255,53.00,47.00,-1016.00
2024-05-19 08:46:16.479034,2,-1,7,0,0,0,85,86,182,170,59,133.30,256,32.00,43.00,-975.00
2024-05-19 08:46:16.566867,2,-1,7,0,0,0,85,86,182,170,59,133.42,256,27.00,34.00,-999.00
2024-05-19 08:46:16.684583,2,-1,7,0,0,0,85,86,182,170,59,133.32,256,-7.00,43.00,-1029.00
2024-05-19 08:46:16.770689,2,-1,6,0,0,0,84,86,183,170,59,133.40,256,5.00,42.00,-982.00
2024-05-19 08:46:16.888321,1,-1,6,0,0,0,84,86,182,170,59,133.41,256,13.00,29.00,-1031.00
2024-05-19 08:46:16.978146,0,-2,7,0,0,0,84,86,183,170,59,133.41,256,0.00,50.00,-955.00
2024-05-19 08:46:17.076698,0,-2,7,0,0,0,84,86,182,170,59,133.41,256,46.00,27.00,-963.00
2024-05-19 08:46:17.127541,0,-3,7,0,0,1,84,86,182,170,59,133.41,256,-12.00,62.00,-928.00
2024-05-19 08:46:17.297818,0,-3,7,0,0,1,84,86,180,170,59,133.36,256,2.00,44.00,-935.00
2024-05-19 08:46:17.331743,0,-2,7,0,0,1,84,86,179,160,59,133.32,256,9.00,24.00,-941.00
2024-05-19 08:46:17.433811,0,-2,7,0,0,1,84,86,176,160,59,133.25,257,28.00,34.00,-936.00
2024-05-19 08:46:17.605298,0,-2,7,0,0,2,84,86,174,160,59,133.27,257,-14.00,33.00,-947.00
2024-05-19 08:46:17.643044,0,-2,6,0,0,2,84,86,172,160,59,133.17,257,5.00,45.00,-954.00
2024-05-19 08:46:17.740597,0,-3,7,0,0,2,84,86,169,160,59,133.17,257,-28.00,67.00,-939.00
2024-05-19 08:46:17.913145,-1,-3,7,0,0,2,84,86,167,150,59,133.20,257,-3.00,39.00,-1000.00
2024-05-19 08:46:17.944722,-1,-3,7,0,0,2,84,86,164,150,59,133.12,257,-49.00,75.00,-975.00
2024-05-19 08:46:18.046562,-1,-3,7,0,0,2,84,86,162,150,59,133.10,257,10.00,69.00,-963.00
2024-05-19 08:46:18.148683,0,-2,7,0,0,2,84,86,159,150,59,133.11,257,-3.00,62.00,-1066.00
2024-05-19 08:46:18.321788,0,-2,7,0,0,2,84,86,156,150,59,133.13,257,-10.00,54.00,-954.00
2024-05-19 08:46:18.353277,0,-2,7,0,0,2,84,86,153,140,59,133.13,257,14.00,66.00,-957.00
2024-05-19 08:46:18.526626,-1,-3,7,0,0,2,84,86,151,140,59,133.07,258,-18.00,42.00,-978.00
2024-05-19 08:46:18.558306,-1,-3,7,0,0,2,84,86,149,140,59,133.03,258,-18.00,47.00,-1019.00
2024-05-19 08:46:18.658797,-2,-3,7,0,0,2,84,86,147,130,59,133.13,258,3.00,57.00,-1017.00
2024-05-19 08:46:18.833975,-2,-3,7,0,0,2,84,87,145,130,59,133.11,258,-26.00,73.00,-990.00
2024-05-19 08:46:18.863095,-2,-3,6,0,0,2,84,87,143,130,59,133.03,258,-26.00,58.00,-1035.00
2024-05-19 08:46:19.042736,-2,-3,6,0,0,1,84,87,142,130,59,132.98,258,-37.00,60.00,-981.00
2024-05-19 08:46:19.066541,-1,-2,7,0,0,1,84,87,141,130,59,133.02,258,-20.00,47.00,-1056.00
2024-05-19 08:46:19.243390,-1,-2,7,0,0,0,84,87,140,130,59,132.96,258,-18.00,44.00,-1055.00
2024-05-19 08:46:19.270612,-1,-2,7,0,0,0,84,87,139,130,59,133.01,258,-9.00,47.00,-1016.00
2024-05-19 08:46:19.449236,-1,-1,7,0,0,0,84,87,138,130,59,132.93,258,-19.00,31.00,-994.00
2024-05-19 08:46:19.474730,-1,-1,6,0,0,0,84,87,137,130,59,132.95,259,-76.00,82.00,-910.00
2024-05-19 08:46:19.654081,-1,-3,6,0,0,0,84,87,137,120,59,132.92,259,-27.00,50.00,-1032.00
2024-05-19 08:46:19.678623,-2,-3,6,0,0,0,84,87,136,120,59,132.88,259,-33.00,49.00,-978.00
2024-05-19 08:46:19.780648,-2,-2,7,0,0,0,84,86,136,120,59,132.98,259,-32.00,84.00,-1034.00
2024-05-19 08:46:19.961254,-3,-2,7,0,0,0,84,86,135,120,59,132.95,259,-44.00,77.00,-1042.00
2024-05-19 08:46:19.984659,-3,-3,7,0,0,0,84,86,135,120,59,132.94,259,-5.00,78.00,-988.00
2024-05-19 08:46:20.165362,-3,-3,7,0,0,0,84,86,134,120,59,132.90,259,-28.00,114.00,-993.00
2024-05-19 08:46:20.188621,-2,-3,7,0,0,0,84,86,134,120,59,132.93,259,-40.00,65.00,-993.00
2024-05-19 08:46:20.370032,-2,-4,7,0,0,0,84,86,134,120,59,132.94,259,0.00,96.00,-1027.00
2024-05-19 08:46:20.392697,-2,-4,7,0,0,0,84,86,136,120,59,133.08,259,9.00,73.00,-975.00
2024-05-19 08:46:20.574678,-1,-4,7,0,0,0,84,86,136,120,59,133.08,260,30.00,60.00,-1035.00
2024-05-19 08:46:20.596599,0,-5,7,1,0,0,84,86,136,120,59,132.94,260,28.00,54.00,-987.00
2024-05-19 08:46:20.779413,0,-4,7,1,0,0,84,86,137,120,59,132.98,260,8.00,43.00,-1009.00
2024-05-19 08:46:20.800475,0,-2,7,0,0,0,84,86,137,120,59,133.01,260,-19.00,38.00,-1024.00
2024-05-19 08:46:20.984240,0,-2,7,0,0,0,84,86,138,120,59,132.98,260,0.00,13.00,-1018.00
2024-05-19 08:46:21.004578,-1,-1,7,0,0,0,84,86,138,120,59,133.00,260,0.00,10.00,-1032.00
2024-05-19 08:46:21.189373,0,-1,7,0,0,0,84,86,138,120,59,132.99,260,-8.00,4.00,-1035.00
2024-05-19 08:46:21.208683,0,-1,7,0,0,0,84,86,137,120,59,132.98,260,10.00,25.00,-939.00
2024-05-19 08:46:21.259473,-1,-1,7,0,0,0,84,86,138,120,59,133.00,260,41.00,16.00,-995.00
2024-05-19 08:46:21.397312,-1,-2,7,0,0,0,84,86,138,120,59,132.95,261,-20.00,46.00,-945.00
2024-05-19 08:46:21.463605,-1,-2,7,0,0,0,84,86,138,120,59,132.99,261,-28.00,53.00,-1001.00
2024-05-19 08:46:21.599503,-1,-2,7,0,0,0,84,86,138,120,59,133.04,261,-24.00,47.00,-1029.00
2024-05-19 08:46:21.668894,-1,-2,7,0,0,0,84,86,138,120,59,133.08,261,-57.00,75.00,-997.00
2024-05-19 08:46:21.769461,-1,-2,7,0,0,0,83,86,138,120,59,133.03,261,-32.00,63.00,-963.00
2024-05-19 08:46:21.872210,-2,-3,7,0,0,0,83,86,138,120,59,133.15,261,-34.00,69.00,-1015.00
2024-05-19 08:46:22.009113,-6,-3,7,0,0,0,83,86,138,120,59,133.04,261,48.00,63.00,-984.00
2024-05-19 08:46:22.075496,-8,-3,7,2,0,0,83,86,138,120,59,133.06,261,56.00,35.00,-1041.00
2024-05-19 08:46:22.213652,-7,-2,7,4,0,0,83,86,138,120,59,133.02,261,-8.00,79.00,-1015.00
2024-05-19 08:46:22.279466,-6,-2,7,5,0,0,83,86,137,120,59,133.01,261,-19.00,83.00,-1000.00
2024-05-19 08:46:22.421482,-5,-3,7,6,1,0,83,86,137,120,59,133.02,262,-20.00,79.00,-1062.00
2024-05-19 08:46:22.483469,-5,-3,7,6,1,0,83,86,137,120,59,132.95,262,-1.00,45.00,-1033.00
2024-05-19 08:46:22.626287,-4,-3,7,7,1,0,83,86,137,120,59,132.91,262,-4.00,33.00,-996.00
2024-05-19 08:46:22.687416,-4,-3,7,7,1,0,83,86,138,120,59,132.92,262,-24.00,48.00,-989.00
2024-05-19 08:46:22.830653,-1,-3,7,7,1,0,83,86,138,120,59,132.84,262,20.00,55.00,-994.00
2024-05-19 08:46:22.891438,1,-3,7,7,0,0,83,86,139,120,59,132.85,262,-50.00,54.00,-1025.00
2024-05-19 08:46:23.032184,3,-4,7,6,0,0,83,86,139,120,59,132.90,262,-16.00,43.00,-1020.00
2024-05-19 08:46:23.095395,4,-3,7,5,0,0,83,86,140,120,59,132.96,262,3.00,51.00,-976.00
2024-05-19 08:46:23.238101,3,-3,6,4,0,0,83,86,140,120,59,132.97,262,-1.00,85.00,-1051.00
2024-05-19 08:46:23.299387,2,-3,6,4,0,0,83,86,140,130,59,132.98,262,21.00,68.00,-993.00
2024-05-19 08:46:23.444836,1,-3,6,3,0,0,83,86,141,130,59,132.98,263,31.00,30.00,-973.00
2024-05-19 08:46:23.503332,1,-4,6,3,0,0,83,86,140,130,59,133.00,263,17.00,43.00,-987.00
2024-05-19 08:46:23.606797,1,-3,6,3,0,0,83,86,140,130,59,132.97,263,-14.00,31.00,-965.00
2024-05-19 08:46:23.749649,1,-2,6,3,0,0,83,86,141,130,59,132.99,263,-6.00,41.00,-1056.00
2024-05-19 08:46:23.809273,0,-2,6,3,0,0,83,86,141,130,59,132.98,263,-13.00,58.00,-952.00
2024-05-19 08:46:23.954700,1,-2,6,2,0,0,83,86,141,130,59,133.01,263,-20.00,34.00,-953.00
2024-05-19 08:46:24.013398,0,-2,6,2,0,0,83,86,140,130,59,132.91,263,-32.00,43.00,-989.00
2024-05-19 08:46:24.158581,0,-3,6,2,0,0,83,86,140,130,59,132.92,263,-25.00,28.00,-948.00
2024-05-19 08:46:24.217367,4,-2,6,1,0,0,83,86,140,130,59,132.91,263,-16.00,77.00,-1020.00
2024-05-19 08:46:24.363349,2,-2,6,0,0,0,83,86,139,130,59,132.99,263,11.00,59.00,-986.00
2024-05-19 08:46:24.421812,1,-2,6,0,0,0,83,86,138,130,59,133.02,264,12.00,40.00,-996.00
2024-05-19 08:46:24.553352,0,-3,6,0,0,0,83,86,137,120,58,132.85,264,-7.00,56.00,-1066.00
2024-05-19 08:46:24.625687,0,-3,7,0,0,0,83,86,137,120,58,132.97,264,-1.00,36.00,-995.00
2024-05-19 08:46:24.773054,0,-3,7,0,0,0,83,86,136,120,58,132.89,264,13.00,73.00,-1054.00
2024-05-19 08:46:24.829294,0,-3,7,0,0,0,83,85,136,120,58,132.93,264,15.00,67.00,-1066.00
2024-05-19 08:46:24.978992,0,-2,6,0,0,0,83,85,136,120,58,132.92,264,-17.00,59.00,-964.00
2024-05-19 08:46:25.036693,0,-2,6,0,0,0,83,85,135,120,58,132.87,264,-8.00,61.00,-1046.00
2024-05-19 08:46:25.084490,-1,-2,6,0,0,0,83,85,135,120,58,132.94,264,11.00,55.00,-956.00
2024-05-19 08:46:25.285093,-1,-3,7,0,0,0,83,85,134,120,58,133.00,264,34.00,43.00,-975.00
2024-05-19 08:46:25.291782,-1,-4,7,0,0,0,83,85,133,120,58,132.88,264,3.00,56.00,-971.00
2024-05-19 08:46:25.391454,-1,-3,7,0,0,0,83,85,133,120,58,132.76,265,16.00,30.00,-1066.00
2024-05-19 08:46:25.592159,0,-2,7,0,0,0,83,85,131,120,58,132.65,265,28.00,49.00,-1021.00
2024-05-19 08:46:25.595392,0,-1,7,0,0,0,83,85,131,120,58,132.83,265,55.00,41.00,-968.00
2024-05-19 08:46:25.697544,0,-2,7,0,0,0,83,85,130,120,58,132.62,265,20.00,48.00,-1001.00
2024-05-19 08:46:25.799412,1,-1,7,0,0,0,83,85,130,120,58,132.70,265,41.00,-5.00,-1006.00
2024-05-19 08:46:25.901575,1,0,7,0,0,0,83,85,129,120,58,132.65,265,90.00,-1.00,-1027.00
2024-05-19 08:46:26.003452,1,0,6,0,0,0,83,85,129,120,58,132.55,265,-22.00,70.00,-1067.00
2024-05-19 08:46:26.206621,0,-1,6,0,0,0,83,85,130,120,58,132.68,265,-22.00,29.00,-999.00
2024-05-19 08:46:26.207402,0,-2,6,0,0,0,83,85,130,120,58,132.65,265,-15.00,34.00,-984.00
2024-05-19 08:46:26.309435,0,-1,7,0,0,0,83,85,130,120,58,132.65,265,9.00,45.00,-1034.00
2024-05-19 08:46:26.411510,0,-1,7,0,0,0,83,85,130,120,58,132.71,266,-24.00,26.00,-1019.00
2024-05-19 08:46:26.513981,0,-1,7,0,0,0,83,85,132,120,58,132.72,266,-4.00,32.00,-977.00
2024-05-19 08:46:26.616052,6,-3,7,0,0,0,83,85,133,120,58,132.71,266,-6.00,19.00,-998.00
2024-05-19 08:46:26.718705,8,-2,7,-2,0,0,83,85,135,120,58,132.73,266,4.00,21.00,-991.00
2024-05-19 08:46:26.820904,8,-1,7,-3,0,0,83,85,135,120,58,132.78,266,38.00,33.00,-968.00
2024-05-19 08:46:26.921402,7,-1,7,-4,0,0,83,85,134,120,58,132.72,266,53.00,27.00,-1078.00
2024-05-19 08:46:27.023236,7,-1,7,-5,0,0,83,85,133,120,58,132.78,266,44.00,59.00,-915.00
2024-05-19 08:46:27.129186,7,-2,7,-6,0,0,83,85,132,120,58,132.74,266,84.00,54.00,-1015.00
2024-05-19 08:46:27.226982,6,-3,7,-6,0,0,83,85,132,120,58,132.73,266,75.00,54.00,-1031.00
2024-05-19 08:46:27.332928,6,-3,7,-6,0,0,83,85,132,120,58,132.71,266,55.00,57.00,-942.00
2024-05-19 08:46:27.431196,3,-2,7,-6,0,0,83,85,130,120,57,132.57,267,76.00,28.00,-999.00
2024-05-19 08:46:27.540625,1,-2,7,-6,0,0,83,85,129,120,57,132.57,267,69.00,20.00,-1020.00
2024-05-19 08:46:27.635206,-1,-2,7,-5,-1,0,83,85,129,120,57,132.65,267,41.00,24.00,-1064.00
2024-05-19 08:46:27.742669,-2,-1,7,-4,-1,0,83,85,128,120,57,132.67,267,59.00,-2.00,-983.00
2024-05-19 08:46:27.839118,-2,0,7,-3,-1,0,83,86,128,120,57,132.63,267,36.00,39.00,-945.00
2024-05-19 08:46:27.947286,0,0,7,-3,0,0,83,86,128,120,57,132.69,267,19.00,46.00,-938.00
2024-05-19 08:46:28.043657,0,-1,7,-3,0,0,83,86,128,120,57,132.68,267,9.00,57.00,-937.00
2024-05-19 08:46:28.152408,0,-1,7,-3,0,0,83,86,127,120,57,132.69,267,69.00,51.00,-1077.00
2024-05-19 08:46:28.247068,0,-2,7,-3,0,0,83,86,128,120,57,132.68,267,38.00,43.00,-941.00
2024-05-19 08:46:28.357364,0,-2,7,-2,0,0,83,86,127,120,57,132.71,267,73.00,40.00,-994.00
2024-05-19 08:46:28.451053,1,-2,7,-2,0,0,83,86,128,120,57,132.64,268,37.00,35.00,-980.00
2024-05-19 08:46:28.561628,2,-1,7,-2,0,0,83,86,129,120,57,132.65,268,15.00,4.00,-988.00
2024-05-19 08:46:28.655048,2,0,7,-2,0,0,83,86,129,120,57,132.63,268,60.00,7.00,-1045.00
2024-05-19 08:46:28.766793,0,0,7,-2,0,0,83,86,128,120,57,132.64,268,54.00,35.00,-1033.00
2024-05-19 08:46:28.858944,-1,-1,7,-1,0,0,83,86,128,120,57,132.76,268,58.00,37.00,-997.00
2024-05-19 08:46:28.971231,-3,-1,7,0,0,0,83,86,129,120,57,132.73,268,26.00,2.00,-969.00
2024-05-19 08:46:29.063152,0,-1,7,0,0,0,83,86,129,120,57,132.68,268,41.00,29.00,-979.00
2024-05-19 08:46:29.179057,1,0,7,0,0,0,83,86,130,120,57,132.66,268,86.00,13.00,-1030.00
2024-05-19 08:46:29.266951,1,1,7,0,0,0,83,86,130,120,57,132.72,268,46.00,12.00,-1000.00
2024-05-19 08:46:29.318631,1,1,7,0,0,0,83,86,131,120,57,132.54,268,17.00,16.00,-1055.00
2024-05-19 08:46:29.483776,1,0,7,0,0,0,83,86,132,120,57,132.58,269,52.00,-2.00,-984.00
2024-05-19 08:46:29.522347,1,0,7,0,0,0,83,86,132,120,57,132.62,269,119.00,-53.00,-1012.00
2024-05-19 08:46:29.688106,2,-2,7,1,0,0,83,86,133,120,57,132.64,269,42.00,-11.00,-977.00
2024-05-19 08:46:29.726247,3,-3,7,1,0,0,83,86,133,120,57,132.71,269,62.00,-12.00,-1006.00
2024-05-19 08:46:29.892823,3,-1,7,1,0,0,83,86,135,120,57,132.70,269,26.00,20.00,-958.00
2024-05-19 08:46:29.930176,3,0,7,1,-1,0,83,86,134,120,57,132.65,269,56.00,-21.00,-999.00
2024-05-19 08:46:30.097727,3,0,7,1,0,0,83,86,134,120,57,132.57,269,73.00,-30.00,-1006.00
2024-05-19 08:46:30.135601,2,0,7,0,0,0,83,86,135,120,57,132.65,269,15.00,18.00,-962.00
2024-05-19 08:46:30.302635,3,0,7,1,0,0,83,86,135,120,57,132.70,269,70.00,-27.00,-976.00
2024-05-19 08:46:30.338210,3,0,7,1,0,0,83,86,135,120,57,132.64,269,73.00,0.00,-974.00
2024-05-19 08:46:30.440012,4,0,6,1,0,0,83,86,135,120,57,132.67,270,69.00,10.00,-1003.00
2024-05-19 08:46:30.544266,4,0,7,0,0,0,83,86,134,120,57,132.66,270,31.00,36.00,-993.00
2024-05-19 08:46:30.644049,4,0,7,0,0,0,83,86,134,120,57,132.67,270,74.00,-50.00,-958.00
2024-05-19 08:46:30.746031,3,0,7,0,-1,0,83,86,134,120,57,132.70,270,85.00,-47.00,-1070.00
2024-05-19 08:46:30.916842,4,2,7,0,-1,0,83,86,134,120,57,132.76,270,63.00,-83.00,-1001.00
2024-05-19 08:46:30.949998,4,3,7,0,-1,0,83,86,134,120,57,132.68,270,78.00,-29.00,-1017.00
2024-05-19 08:46:31.121791,4,3,7,0,0,0,83,86,133,120,57,132.69,270,52.00,-28.00,-960.00
2024-05-19 08:46:31.154533,3,2,7,0,0,0,83,86,132,120,57,132.68,270,22.00,-46.00,-978.00
2024-05-19 08:46:31.326609,2,2,7,0,0,0,83,86,130,120,57,132.84,270,22.00,-66.00,-1009.00
2024-05-19 08:46:31.358431,2,3,7,0,0,0,83,86,130,120,57,132.72,270,25.00,-54.00,-1073.00
2024-05-19 08:46:31.461386,1,3,7,0,0,0,83,86,129,120,57,132.74,271,20.00,-60.00,-1011.00
2024-05-19 08:46:31.562871,0,3,6,0,0,0,83,86,129,120,57,132.70,271,48.00,-83.00,-1024.00
2024-05-19 08:46:31.736588,0,3,6,0,0,0,83,86,128,120,57,132.70,271,1.00,-32.00,-1013.00
2024-05-19 08:46:31.765978,0,-1,6,0,0,0,83,86,129,120,57,132.79,271,-22.00,-36.00,-1073.00
2024-05-19 08:46:31.940854,0,-7,6,0,-1,0,82,86,128,120,57,132.66,271,-7.00,-48.00,-1065.00
2024-05-19 08:46:31.970505,-2,-5,6,0,-3,0,82,86,127,120,57,132.87,271,-13.00,3.00,-1012.00
2024-05-19 08:46:32.145665,-2,-2,6,0,-4,0,82,86,127,120,57,132.68,271,-47.00,66.00,-996.00
2024-05-19 08:46:32.173892,-2,0,6,0,-4,0,82,86,126,120,57,132.54,271,-34.00,20.00,-1024.00
2024-05-19 08:46:32.350465,-2,1,6,0,-4,0,82,86,125,120,57,132.64,271,-35.00,25.00,-966.00
2024-05-19 08:46:32.377970,-2,2,6,0,-3,0,82,86,125,120,57,132.69,271,-26.00,39.00,-1011.00
2024-05-19 08:46:32.479891,-3,0,7,0,-2,0,82,86,124,120,56,132.76,272,-65.00,30.00,-986.00
2024-05-19 08:46:32.657637,-4,0,7,0,-2,0,82,86,123,120,56,132.78,272,-42.00,33.00,-1018.00
2024-05-19 08:46:32.688992,-5,0,7,0,-2,0,82,86,123,120,56,132.64,272,-21.00,3.00,-1067.00
2024-05-19 08:46:32.734970,-5,0,7,0,-2,0,82,86,122,120,56,132.71,272,-22.00,6.00,-1002.00
2024-05-19 08:46:32.887897,-4,0,7,0,-2,0,83,87,122,120,56,132.68,272,-34.00,34.00,-973.00
2024-05-19 08:46:33.067909,-3,0,7,0,-2,0,83,87,122,120,56,132.68,272,-57.00,51.00,-974.00
2024-05-19 08:46:33.093250,-4,0,7,0,-2,0,83,87,122,110,56,132.70,272,-45.00,27.00,-1062.00
2024-05-19 08:46:33.272041,-4,0,7,0,-1,0,83,87,122,110,56,132.71,272,-68.00,5.00,-1021.00
2024-05-19 08:46:33.272088,-4,1,7,0,-1,0,83,87,122,110,56,132.71,272,-52.00,26.00,-1061.00
2024-05-19 08:46:33.346889,-4,1,7,1,-1,0,83,87,123,120,56,132.71,272,-81.00,34.00,-932.00
2024-05-19 08:46:33.448849,-4,1,7,1,0,0,83,87,124,120,56,132.79,273,-40.00,2.00,-1038.00
2024-05-19 08:46:33.551185,-3,0,7,1,0,0,83,87,124,120,56,132.82,273,-77.00,7.00,-983.00
2024-05-19 08:46:33.681867,-3,0,7,1,0,0,83,87,125,120,56,132.85,273,-51.00,9.00,-989.00
2024-05-19 08:46:33.756828,-3,0,7,1,0,0,83,87,126,120,56,132.78,273,-2.00,-1.00,-993.00
2024-05-19 08:46:33.856788,-1,0,7,1,0,0,84,86,127,120,56,132.81,273,-62.00,-26.00,-1068.00
2024-05-19 08:46:33.988834,3,0,7,1,0,0,84,86,128,120,56,132.88,273,-18.00,-9.00,-1024.00
2024-05-19 08:46:34.060981,0,0,7,0,0,0,84,86,129,120,56,132.91,273,-23.00,37.00,-955.00
2024-05-19 08:46:34.193747,0,0,7,0,0,0,84,86,130,120,56,132.92,273,-18.00,23.00,-1011.00
2024-05-19 08:46:34.265067,-1,0,7,0,0,0,84,86,132,120,56,133.03,273,-17.00,36.00,-1016.00
2024-05-19 08:46:34.398596,-1,-2,7,0,0,0,84,86,134,120,56,133.00,273,45.00,-11.00,-967.00
2024-05-19 08:46:34.468909,0,-2,7,0,0,0,84,86,135,120,56,132.99,274,-29.00,28.00,-966.00
2024-05-19 08:46:34.603315,0,-1,7,0,0,0,84,86,135,120,56,132.91,274,0.00,22.00,-983.00
2024-05-19 08:46:34.672922,0,-1,7,0,0,0,84,86,136,120,56,133.07,274,-55.00,40.00,-982.00
2024-05-19 08:46:34.808200,0,0,7,0,0,0,84,86,136,120,56,133.06,274,-12.00,16.00,-1002.00
2024-05-19 08:46:34.877011,0,0,7,0,0,0,83,86,136,120,56,133.05,274,51.00,16.00,-1032.00
2024-05-19 08:46:35.013330,0,0,6,0,0,0,83,86,136,120,56,133.02,274,59.00,-5.00,-971.00
2024-05-19 08:46:35.081008,1,0,7,0,0,0,83,86,137,120,56,133.02,274,-51.00,59.00,-912.00
2024-05-19 08:46:35.217722,0,-2,7,0,0,0,83,86,136,120,56,133.01,274,-32.00,28.00,-1002.00
2024-05-19 08:46:35.284970,0,-2,7,0,0,0,83,86,136,120,56,133.08,274,-17.00,33.00,-1012.00
2024-05-19 08:46:35.422778,0,-2,7,0,0,0,83,86,135,120,56,133.03,275,10.00,-5.00,-1020.00
2024-05-19 08:46:35.488964,0,-1,7,0,0,0,83,86,134,120,56,133.01,275,-11.00,15.00,-973.00
2024-05-19 08:46:35.627343,-1,-2,6,0,0,0,83,86,133,120,56,133.00,275,-37.00,36.00,-986.00
2024-05-19 08:46:35.693228,-2,-3,7,0,0,0,83,86,131,120,56,133.10,275,22.00,56.00,-995.00
2024-05-19 08:46:35.794862,-1,-3,7,0,0,0,83,86,131,120,56,132.99,275,-22.00,72.00,-1034.00
2024-05-19 08:46:35.934740,-1,-2,7,0,0,0,83,86,130,120,56,132.96,275,9.00,61.00,-971.00
2024-05-19 08:46:35.998857,0,-3,7,0,0,0,83,86,129,120,56,133.06,275,-47.00,30.00,-948.00
2024-05-19 08:46:36.100868,0,-4,6,0,0,0,83,86,128,120,56,132.99,275,-49.00,34.00,-989.00
2024-05-19 08:46:36.241646,-1,0,6,0,0,0,83,86,128,120,56,132.75,275,-38.00,42.00,-1095.00
2024-05-19 08:46:36.304792,-2,5,6,-1,1,0,83,86,127,120,56,132.96,275,-36.00,45.00,-1021.00
2024-05-19 08:46:36.446346,-4,3,7,-1,3,0,83,86,128,120,56,132.76,276,-37.00,14.00,-1065.00
2024-05-19 08:46:36.509738,-3,1,7,0,3,0,83,86,128,120,55,133.08,276,-48.00,29.00,-1012.00
2024-05-19 08:46:36.611750,-2,0,7,0,4,0,83,86,129,120,55,133.05,276,-37.00,68.00,-981.00
2024-05-19 08:46:36.662670,-1,-2,7,0,3,0,83,86,130,120,55,133.10,276,11.00,-17.00,-1039.00
2024-05-19 08:46:36.856003,0,-2,7,0,3,0,83,86,130,120,55,133.19,276,76.00,-10.00,-1026.00
2024-05-19 08:46:36.917812,0,-3,7,0,3,0,82,87,132,120,55,133.14,276,-21.00,72.00,-965.00
2024-05-19 08:46:36.968627,0,-3,7,0,3,0,82,87,133,120,55,133.17,276,77.00,-34.00,-990.00
2024-05-19 08:46:37.163216,0,-2,7,0,3,0,82,87,134,120,55,133.07,276,16.00,12.00,-994.00
2024-05-19 08:46:37.172754,0,-2,7,0,2,0,82,87,135,120,55,133.04,276,-2.00,39.00,-971.00
2024-05-19 08:46:37.367868,0,-2,7,0,2,0,82,87,135,120,55,133.08,276,30.00,12.00,-1023.00
2024-05-19 08:46:37.376697,1,-2,7,0,2,0,82,87,136,120,55,133.09,277,-12.00,50.00,-965.00
2024-05-19 08:46:37.478652,1,-2,7,0,2,0,82,87,137,120,55,133.14,277,8.00,9.00,-956.00
2024-05-19 08:46:37.675201,2,-2,6,0,2,0,82,87,138,120,55,133.09,277,44.00,4.00,-999.00
2024-05-19 08:46:37.682682,6,-2,6,0,1,0,82,87,139,120,55,133.11,277,6.00,-14.00,-1033.00
2024-05-19 08:46:37.784977,5,-1,6,0,1,0,82,87,139,120,55,133.09,277,25.00,71.00,-1012.00
2024-05-19 08:46:37.982355,3,-4,6,-1,1,0,82,86,139,120,55,133.22,277,-28.00,70.00,-970.00
2024-05-19 08:46:37.988991,-2,-5,6,-1,1,0,82,86,138,120,55,133.08,277,-6.00,32.00,-1019.00
2024-05-19 08:46:38.187206,-3,-5,6,-1,1,0,82,86,139,120,55,133.09,277,60.00,54.00,-1020.00
2024-05-19 08:46:38.192677,-1,-4,6,0,1,0,82,86,139,120,55,133.24,277,9.00,64.00,-1012.00
2024-05-19 08:46:38.391945,0,-4,6,0,0,0,82,86,138,130,55,133.16,277,-7.00,68.00,-976.00
2024-05-19 08:46:38.396835,1,-4,6,0,0,0,82,86,139,130,55,133.24,278,-12.00,59.00,-953.00
2024-05-19 08:46:38.498762,1,-4,6,0,0,0,82,86,138,120,55,133.21,278,1.00,25.00,-1036.00
2024-05-19 08:46:38.701432,0,-3,6,0,0,0,82,86,137,120,55,133.19,278,33.00,57.00,-1039.00
2024-05-19 08:46:38.702756,0,-2,6,0,0,0,82,86,137,120,55,133.14,278,29.00,81.00,-951.00
2024-05-19 08:46:38.804770,0,-2,6,0,0,0,82,86,136,120,55,133.20,278,3.00,71.00,-972.00
2024-05-19 08:46:38.907674,0,-3,6,0,0,0,82,86,136,120,55,133.12,278,-16.00,60.00,-1074.00
2024-05-19 08:46:39.009546,0,-3,6,0,0,0,82,86,136,120,55,133.08,278,29.00,59.00,-984.00
2024-05-19 08:46:39.110724,0,-3,6,0,0,0,82,86,136,120,55,133.14,278,13.00,50.00,-1005.00
2024-05-19 08:46:39.313648,0,-3,6,0,0,0,82,86,136,120,55,133.05,278,44.00,58.00,-1024.00
2024-05-19 08:46:39.314554,0,-2,7,0,0,0,82,86,136,120,55,133.10,278,4.00,60.00,-949.00
2024-05-19 08:46:39.416809,1,-3,7,0,0,0,82,86,136,120,55,133.04,279,42.00,21.00,-1001.00
2024-05-19 08:46:39.522640,1,-2,7,0,0,0,82,86,137,120,55,132.99,279,53.00,27.00,-989.00
2024-05-19 08:46:39.620758,2,-1,7,0,0,0,82,86,137,120,55,133.06,279,36.00,7.00,-1002.00
2024-05-19 08:46:39.723180,2,0,7,0,0,0,82,86,137,130,55,133.09,279,35.00,9.00,-958.00
2024-05-19 08:46:39.825679,2,0,7,0,0,0,82,86,137,130,55,133.00,279,17.00,45.00,-962.00
2024-05-19 08:46:39.930608,2,0,7,1,0,0,83,85,137,130,55,133.01,279,52.00,3.00,-1009.00
2024-05-19 08:46:40.031938,3,0,7,1,0,0,83,85,138,120,55,132.95,279,36.00,24.00,-959.00
2024-05-19 08:46:40.130671,4,0,7,1,0,0,83,85,137,120,55,132.95,279,23.00,2.00,-940.00
2024-05-19 08:46:40.232638,4,0,7,0,0,0,83,85,137,120,55,132.89,279,10.00,7.00,-954.00
2024-05-19 08:46:40.337572,3,1,8,0,0,0,83,85,137,120,55,133.00,279,30.00,-5.00,-1036.00
2024-05-19 08:46:40.436603,1,2,13,0,0,0,83,85,137,120,55,133.00,280,44.00,-1.00,-983.00
2024-05-19 08:46:40.542303,2,2,20,0,0,0,83,85,137,120,54,132.94,280,23.00,-27.00,-967.00
2024-05-19 08:46:40.590543,1,2,27,0,0,0,83,85,137,120,54,132.98,280,-1.00,8.00,-1005.00
2024-05-19 08:46:40.747176,0,2,33,0,0,0,83,85,136,120,54,132.97,280,41.00,-56.00,-1038.00
2024-05-19 08:46:40.793478,0,2,39,0,0,0,83,85,136,120,54,132.95,280,11.00,-11.00,-995.00
2024-05-19 08:46:40.951971,0,3,45,0,0,0,82,86,136,120,54,132.90,280,26.00,-37.00,-996.00
2024-05-19 08:46:41.048799,0,3,52,0,0,0,82,86,137,120,54,132.92,280,29.00,-62.00,-1030.00
2024-05-19 08:46:41.156768,0,2,58,0,0,0,82,86,137,120,54,133.01,280,-33.00,-25.00,-1010.00
2024-05-19 08:46:41.252537,0,2,65,0,0,0,82,86,137,120,54,132.94,280,26.00,-58.00,-996.00
2024-05-19 08:46:41.303511,0,2,72,0,0,0,82,86,137,120,54,132.95,280,-29.00,-22.00,-1012.00
2024-05-19 08:46:41.463873,-1,2,79,0,0,0,82,86,138,120,54,132.90,281,-22.00,-60.00,-1021.00
2024-05-19 08:46:41.507453,-2,3,86,0,0,0,82,86,138,120,54,132.94,281,27.00,-67.00,-1014.00
2024-05-19 08:46:41.670859,-2,2,93,0,0,0,82,86,138,120,54,132.92,281,-3.00,-37.00,-977.00
2024-05-19 08:46:41.711594,-2,2,100,0,0,0,82,86,137,120,54,132.89,281,-63.00,-22.00,-985.00
2024-05-19 08:46:41.873470,-2,1,107,0,0,0,82,86,137,120,54,132.89,281,-8.00,-56.00,-1008.00
2024-05-19 08:46:41.915422,-3,0,114,0,0,0,83,85,137,120,54,132.82,281,19.00,-123.00,-991.00
2024-05-19 08:46:42.078377,-3,0,120,0,0,0,83,85,137,120,54,132.81,281,-73.00,-29.00,-952.00
2024-05-19 08:46:42.119386,-4,-1,127,0,0,0,83,85,137,120,54,132.90,281,-53.00,-8.00,-1030.00
2024-05-19 08:46:42.283132,-4,-2,133,0,0,0,83,85,137,120,54,132.92,281,-61.00,-25.00,-1017.00
2024-05-19 08:46:42.324035,-4,-1,139,0,0,0,83,85,137,120,54,132.84,281,-67.00,-9.00,-1022.00
2024-05-19 08:46:42.491303,-3,0,144,0,1,0,83,85,137,120,54,132.84,282,-27.00,-34.00,-971.00
2024-05-19 08:46:42.527570,-2,0,150,0,1,0,83,85,137,120,54,132.91,282,-52.00,-51.00,-970.00
2024-05-19 08:46:42.629550,-2,1,156,0,1,0,83,85,137,120,54,132.93,282,-66.00,-31.00,-922.00
2024-05-19 08:46:42.795073,-1,1,162,0,1,0,83,85,136,130,54,132.96,282,-6.00,-43.00,-995.00
2024-05-19 08:46:42.833459,-1,1,169,0,1,0,83,85,136,130,54,132.98,282,-19.00,-63.00,-992.00
2024-05-19 08:46:42.999952,-1,0,176,0,0,0,83,86,136,120,54,133.09,282,-3.00,-44.00,-995.00
2024-05-19 08:46:43.037813,-1,0,-176,0,0,0,83,86,136,120,54,132.98,282,-39.00,58.00,-990.00
2024-05-19 08:46:43.204784,-1,0,-169,0,0,0,83,86,136,120,54,133.00,282,-31.00,18.00,-974.00
2024-05-19 08:46:43.241474,-1,0,-162,0,0,0,83,86,135,120,54,133.07,282,-37.00,50.00,-1006.00
2024-05-19 08:46:43.409945,-1,-1,-155,0,0,0,83,86,134,120,54,133.07,282,-134.00,147.00,-1015.00
2024-05-19 08:46:43.450593,0,0,-149,0,0,0,83,86,133,120,54,133.08,283,31.00,-57.00,-1028.00
2024-05-19 08:46:43.547338,0,0,-142,0,0,0,83,86,133,120,54,133.10,283,31.00,34.00,-992.00
2024-05-19 08:46:43.716740,0,-1,-136,0,0,0,83,86,134,120,54,133.04,283,59.00,-52.00,-1042.00
2024-05-19 08:46:43.751487,0,-2,-129,0,0,0,83,86,133,120,54,133.08,283,-109.00,148.00,-953.00
2024-05-19 08:46:43.921557,0,-2,-123,0,0,0,83,86,133,120,54,133.03,283,-22.00,19.00,-991.00
2024-05-19 08:46:43.955245,0,-1,-117,0,0,0,83,85,132,120,54,133.01,283,-12.00,54.00,-968.00
2024-05-19 08:46:44.126483,1,0,-111,0,0,0,83,85,133,120,54,133.05,283,10.00,39.00,-973.00
2024-05-19 08:46:44.161997,1,0,-105,0,0,0,83,85,133,120,54,132.94,283,18.00,25.00,-967.00
2024-05-19 08:46:44.261479,1,-1,-100,0,0,0,83,85,133,120,54,133.00,283,46.00,15.00,-1018.00
2024-05-19 08:46:44.435119,2,0,-95,0,0,0,83,85,134,120,54,133.03,283,-46.00,29.00,-967.00
2024-05-19 08:46:44.465627,2,0,-90,0,0,0,83,85,135,120,53,132.93,284,-1.00,-4.00,-994.00
2024-05-19 08:46:44.638777,1,0,-84,0,0,0,83,85,135,120,53,132.98,284,3.00,-2.00,-959.00
2024-05-19 08:46:44.669913,1,0,-79,0,0,0,83,85,135,120,53,132.96,284,2.00,-4.00,-1049.00
2024-05-19 08:46:44.848321,0,0,-74,0,0,0,83,85,136,120,53,133.02,284,28.00,-2.00,-961.00
2024-05-19 08:46:44.875125,0,0,-68,0,0,0,83,85,136,120,53,133.04,284,7.00,0.00,-993.00
2024-05-19 08:46:44.975547,0,0,-62,0,0,0,83,85,136,120,53,132.96,284,-1.00,-4.00,-984.00
2024-05-19 08:46:45.026218,0,0,-56,0,0,0,83,85,136,120,53,133.01,284,40.00,-19.00,-1033.00
2024-05-19 08:46:45.150355,0,0,-50,0,0,0,83,85,135,120,53,133.06,284,-19.00,2.00,-961.00
2024-05-19 08:46:45.230366,0,0,-44,0,0,0,83,85,135,120,53,132.99,284,-9.00,-41.00,-1006.00
2024-05-19 08:46:45.355118,0,0,-38,0,0,0,83,85,134,120,53,132.94,284,-29.00,-5.00,-953.00
2024-05-19 08:46:45.434422,-1,1,-33,0,0,0,83,85,134,120,53,133.02,285,13.00,-35.00,-1014.00
2024-05-19 08:46:45.557976,-1,0,-27,0,0,0,83,85,134,120,53,133.10,285,-38.00,-20.00,-982.00
2024-05-19 08:46:45.647197,-1,0,-21,0,0,0,83,85,134,120,53,133.01,285,15.00,-51.00,-1023.00
2024-05-19 08:46:45.741177,-1,1,-15,0,0,0,83,85,133,120,53,133.09,285,15.00,-49.00,-1066.00
2024-05-19 08:46:45.867377,-1,1,-10,0,0,0,83,85,134,120,53,132.98,285,-6.00,-38.00,-1019.00
2024-05-19 08:46:45.947171,-1,1,-6,0,0,0,83,86,133,120,53,133.07,285,-40.00,0.00,-1068.00
2024-05-19 08:46:46.046217,-2,1,-3,0,0,0,83,86,133,120,53,133.07,285,-38.00,-6.00,-1001.00
2024-05-19 08:46:46.174384,-2,1,-1,0,0,0,83,86,134,120,53,133.12,285,-48.00,0.00,-999.00
2024-05-19 08:46:46.255819,-2,1,0,0,0,0,83,86,133,120,53,133.04,285,-45.00,-19.00,-1013.00
2024-05-19 08:46:46.352278,-2,1,0,0,0,0,83,86,133,120,53,133.05,285,-49.00,-16.00,-1043.00
2024-05-19 08:46:46.481474,-3,0,1,0,0,0,83,86,133,120,53,133.03,286,-74.00,-5.00,-973.00
2024-05-19 08:46:46.557019,-3,0,1,0,0,0,83,86,132,120,53,132.96,286,-53.00,2.00,-942.00
2024-05-19 08:46:46.686238,-3,0,2,0,0,0,83,86,132,120,53,133.07,286,-60.00,2.00,-977.00
2024-05-19 08:46:46.761912,-3,0,3,0,0,0,83,86,132,120,53,133.07,286,-40.00,3.00,-1019.00
2024-05-19 08:46:46.862261,-3,0,3,0,0,0,83,86,132,120,53,132.97,286,-29.00,23.00,-1045.00
2024-05-19 08:46:46.993428,-3,-2,4,0,0,0,83,86,131,120,53,132.95,286,-74.00,-15.00,-1001.00
2024-05-19 08:46:47.066388,-3,-1,4,0,0,0,83,86,132,120,53,133.05,286,-35.00,-5.00,-951.00
2024-05-19 08:46:47.168164,-2,0,5,0,0,0,83,86,131,120,53,132.99,286,-31.00,-43.00,-1007.00
2024-05-19 08:46:47.300784,-2,2,5,0,0,0,83,86,131,120,53,133.08,286,-48.00,-11.00,-969.00
2024-05-19 08:46:47.372425,-2,2,6,0,0,0,83,86,131,120,53,133.10,286,-32.00,-19.00,-1014.00
2024-05-19 08:46:47.505662,-1,1,6,0,0,0,83,86,132,120,53,133.02,287,-21.00,-14.00,-1062.00
2024-05-19 08:46:47.577315,-2,1,7,0,0,0,83,86,132,120,53,133.08,287,-67.00,-6.00,-978.00
2024-05-19 08:46:47.710403,-2,0,7,0,0,0,83,86,132,120,53,133.00,287,-42.00,-28.00,-976.00
2024-05-19 08:46:47.781211,-2,0,7,0,0,0,83,86,132,120,53,133.09,287,-59.00,-7.00,-998.00
2024-05-19 08:46:47.915195,-1,0,7,0,0,0,83,86,131,120,53,133.10,287,-27.00,-20.00,-946.00
2024-05-19 08:46:47.987944,-1,0,7,0,0,0,83,86,130,120,53,133.00,287,-39.00,-5.00,-973.00
2024-05-19 08:46:48.087640,-1,1,7,0,0,0,83,86,130,120,53,132.97,287,-52.00,0.00,-969.00
2024-05-19 08:46:48.222407,-2,2,7,0,0,0,83,86,130,120,53,132.92,287,-26.00,-29.00,-1000.00
2024-05-19 08:46:48.291247,-2,1,7,0,0,0,83,86,128,120,53,132.99,287,-44.00,-35.00,-993.00
2024-05-19 08:46:48.427983,-2,1,7,0,0,0,83,86,128,120,53,132.98,287,33.00,-97.00,-1044.00
2024-05-19 08:46:48.495196,-3,2,7,0,0,0,83,86,127,120,53,132.77,288,-5.00,-61.00,-1023.00
2024-05-19 08:46:48.597072,-3,2,7,0,0,0,83,86,128,120,53,132.80,288,-49.00,-20.00,-994.00
2024-05-19 08:46:48.737193,-3,0,7,0,0,0,83,86,127,120,53,132.76,288,-83.00,18.00,-1032.00
2024-05-19 08:46:48.750159,-3,0,7,0,0,0,83,86,127,120,53,132.94,288,-86.00,30.00,-991.00
2024-05-19 08:46:48.939547,-3,0,7,0,0,0,83,86,127,120,53,133.00,288,-18.00,-6.00,-1014.00
2024-05-19 08:46:49.006376,-3,0,7,0,0,0,83,86,128,120,53,132.78,288,-28.00,-30.00,-968.00
2024-05-19 08:46:49.120890,-2,0,7,0,0,0,83,86,128,120,53,132.98,288,-81.00,16.00,-973.00
2024-05-19 08:46:49.160777,-2,0,7,0,0,0,83,86,129,120,53,132.78,288,-17.00,-28.00,-1019.00
2024-05-19 08:46:49.260139,-2,0,4,0,0,0,83,86,130,120,53,132.71,288,-67.00,4.00,-1004.00
2024-05-19 08:46:49.451002,-3,0,-1,0,0,0,83,86,130,120,53,132.74,289,-23.00,22.00,-996.00
2024-05-19 08:46:49.464255,-4,0,-6,0,0,0,83,86,131,120,52,132.80,289,-55.00,1.00,-981.00
2024-05-19 08:46:49.655797,-4,0,-12,0,0,0,83,86,131,120,52,132.83,289,-73.00,2.00,-1001.00
2024-05-19 08:46:49.667929,-4,0,-17,0,0,0,83,86,131,120,52,132.81,289,-79.00,45.00,-979.00
2024-05-19 08:46:49.770025,-4,0,-23,0,0,0,83,86,132,120,52,132.61,289,-56.00,-21.00,-988.00
2024-05-19 08:46:49.963023,-3,0,-29,0,0,0,83,86,132,120,52,132.82,289,-43.00,3.00,-1015.00
2024-05-19 08:46:49.974036,-3,0,-34,0,0,0,83,87,133,120,52,132.93,289,-16.00,-37.00,-1003.00
2024-05-19 08:46:50.167827,-3,0,-40,0,0,0,83,87,133,120,52,132.94,289,-17.00,-25.00,-1003.00
2024-05-19 08:46:50.178005,-3,0,-46,0,0,0,83,87,133,120,52,132.91,289,-32.00,-21.00,-978.00
2024-05-19 08:46:50.372602,-3,1,-52,0,0,0,83,87,133,120,52,132.94,289,-6.00,-32.00,-996.00
2024-05-19 08:46:50.382010,-2,1,-58,0,0,0,83,87,134,120,52,132.99,290,1.00,-41.00,-989.00
2024-05-19 08:46:50.577501,-2,0,-64,0,0,0,83,87,134,120,52,132.96,290,-2.00,-44.00,-993.00
2024-05-19 08:46:50.586384,-1,1,-69,0,0,0,83,87,133,120,52,132.89,290,-49.00,-23.00,-1001.00
2024-05-19 08:46:50.782114,-1,1,-75,0,0,0,83,87,134,120,52,132.93,290,0.00,-69.00,-989.00
2024-05-19 08:46:50.789911,0,1,-80,0,0,0,83,87,134,120,52,132.97,290,1.00,-88.00,-1014.00
2024-05-19 08:46:50.986994,0,1,-86,0,0,0,83,87,134,120,52,132.91,290,50.00,-92.00,-1017.00
2024-05-19 08:46:50.994547,0,0,-92,0,0,0,83,86,134,120,52,132.95,290,-2.00,-33.00,-978.00
2024-05-19 08:46:51.191786,0,0,-97,0,0,0,83,86,134,120,52,132.93,290,6.00,-78.00,-985.00
2024-05-19 08:46:51.200431,0,1,-103,0,0,0,83,86,134,120,52,132.85,290,-1.00,-29.00,-999.00
2024-05-19 08:46:51.300972,0,1,-109,0,0,0,83,86,133,120,52,132.96,290,-30.00,-24.00,-980.00
2024-05-19 08:46:51.402213,0,1,-115,0,0,0,83,86,134,120,52,132.96,291,-20.00,-42.00,-969.00
2024-05-19 08:46:51.503842,0,1,-120,0,0,0,83,86,134,120,52,132.80,291,10.00,-36.00,-999.00
2024-05-19 08:46:51.605880,0,1,-126,0,0,0,83,86,134,120,52,132.95,291,5.00,-21.00,-977.00
2024-05-19 08:46:51.806159,0,1,-132,0,0,0,83,86,134,120,52,132.96,291,-4.00,-8.00,-967.00
2024-05-19 08:46:51.809995,1,1,-138,0,0,0,83,86,134,120,52,132.94,291,11.00,-47.00,-1022.00
2024-05-19 08:46:52.011012,1,1,-143,0,0,0,83,86,134,120,52,132.92,291,30.00,-61.00,-1011.00
2024-05-19 08:46:52.013845,1,1,-148,0,0,0,83,86,135,120,52,132.86,291,-31.00,25.00,-993.00
2024-05-19 08:46:52.115845,1,1,-154,0,0,0,83,86,135,120,52,132.95,291,55.00,-159.00,-1029.00
2024-05-19 08:46:52.218072,1,0,-159,0,0,0,83,86,134,120,52,132.87,291,93.00,-151.00,-1027.00
2024-05-19 08:46:52.319911,0,1,-165,0,0,0,83,86,134,120,52,132.94,291,33.00,-69.00,-983.00
2024-05-19 08:46:52.523058,0,0,-171,0,0,0,83,86,134,120,52,132.97,292,14.00,-37.00,-990.00
2024-05-19 08:46:52.523973,0,1,-178,0,0,0,83,86,134,120,52,132.94,292,22.00,-20.00,-993.00
2024-05-19 08:46:52.708310,0,0,175,0,0,0,83,86,134,120,52,132.89,292,-22.00,-12.00,-1061.00
2024-05-19 08:46:52.727835,0,0,169,0,0,0,83,86,133,120,52,132.92,292,23.00,-33.00,-1013.00
2024-05-19 08:46:52.785022,0,0,163,0,0,0,83,86,134,120,52,132.93,292,-7.00,-2.00,-999.00
2024-05-19 08:46:52.880879,0,0,157,0,0,0,83,86,134,120,52,132.89,292,-2.00,-9.00,-996.00
2024-05-19 08:46:53.035038,0,0,151,0,0,0,83,85,134,120,52,132.94,292,-5.00,-28.00,-1001.00
2024-05-19 08:46:53.084882,0,0,146,0,0,0,83,85,133,120,52,132.91,292,6.00,-63.00,-1018.00
2024-05-19 08:46:53.239904,0,0,140,0,0,0,83,85,134,120,52,132.92,292,-29.00,-23.00,-988.00
2024-05-19 08:46:53.291192,0,1,133,0,0,0,83,85,134,120,52,132.90,292,13.00,-40.00,-1022.00
2024-05-19 08:46:53.390993,0,1,127,0,0,0,83,85,134,120,52,132.92,293,-6.00,-25.00,-978.00
2024-05-19 08:46:53.546986,1,2,120,0,0,0,83,85,134,120,52,132.89,293,-4.00,-27.00,-1017.00
2024-05-19 08:46:53.594764,1,2,113,0,0,0,83,85,134,120,52,132.95,293,-9.00,-3.00,-972.00
2024-05-19 08:46:53.753929,1,1,107,0,0,0,83,85,135,120,52,132.90,293,47.00,-45.00,-1051.00
2024-05-19 08:46:53.798681,1,0,101,0,0,0,83,85,135,120,52,132.99,293,41.00,-27.00,-966.00
2024-05-19 08:46:53.956565,1,0,94,0,0,0,83,85,136,120,52,132.89,293,33.00,-18.00,-1017.00
2024-05-19 08:46:54.002779,2,0,88,0,0,0,83,86,136,120,52,132.83,293,34.00,-35.00,-980.00
2024-05-19 08:46:54.161773,2,0,82,0,0,0,83,86,136,120,52,132.87,293,46.00,-12.00,-1036.00
2024-05-19 08:46:54.206892,2,0,77,0,0,0,83,86,136,120,52,132.92,293,49.00,-42.00,-974.00
2024-05-19 08:46:54.366161,3,0,71,0,0,0,83,86,137,120,52,132.89,293,70.00,-57.00,-1011.00
2024-05-19 08:46:54.410757,2,0,64,0,0,0,83,86,136,120,52,132.98,294,54.00,-20.00,-961.00
2024-05-19 08:46:54.512747,3,0,58,0,0,0,83,86,136,120,52,132.86,294,62.00,-7.00,-979.00
2024-05-19 08:46:54.617797,3,0,52,0,0,0,83,86,137,120,52,132.93,294,47.00,-6.00,-987.00
2024-05-19 08:46:54.716727,3,0,45,0,0,0,83,86,136,120,52,132.97,294,23.00,3.00,-981.00
2024-05-19 08:46:54.878139,3,-1,39,0,0,0,83,86,136,120,52,132.99,294,14.00,24.00,-986.00
2024-05-19 08:46:54.920691,2,-2,33,0,0,0,83,86,136,120,52,132.98,294,18.00,25.00,-976.00
2024-05-19 08:46:55.022791,2,-1,27,0,0,0,82,86,135,120,52,132.89,294,66.00,0.00,-999.00
2024-05-19 08:46:55.185306,3,-1,22,0,0,0,82,86,135,120,52,132.89,294,3.00,1.00,-1009.00
2024-05-19 08:46:55.226622,3,0,18,0,0,0,82,86,136,120,52,132.94,294,45.00,26.00,-992.00
2024-05-19 08:46:55.390156,3,-1,14,0,0,0,82,86,136,120,52,132.97,294,96.00,41.00,-1025.00
2024-05-19 08:46:55.430762,4,-1,12,0,0,0,82,86,136,120,51,132.93,295,57.00,51.00,-1027.00
2024-05-19 08:46:55.532673,4,-2,10,0,0,0,82,86,135,120,51,132.94,295,30.00,46.00,-965.00
2024-05-19 08:46:55.697989,4,-2,9,0,0,0,82,86,136,120,51,132.89,295,65.00,7.00,-1013.00
2024-05-19 08:46:55.737616,3,-2,9,0,0,0,82,86,136,120,51,132.93,295,53.00,17.00,-1024.00
2024-05-19 08:46:55.902425,4,-2,9,0,0,0,82,86,136,120,51,132.96,295,42.00,25.00,-1036.00
2024-05-19 08:46:55.941836,4,-1,8,0,0,0,82,86,136,120,51,132.96,295,63.00,40.00,-1024.00
2024-05-19 08:46:56.107439,4,-1,8,0,0,0,82,86,136,120,51,132.89,295,57.00,48.00,-980.00
2024-05-19 08:46:56.145765,3,-2,8,0,0,0,82,86,136,120,51,132.83,295,33.00,55.00,-1025.00
2024-05-19 08:46:56.311981,3,-2,8,0,0,0,82,86,136,120,51,132.87,295,55.00,44.00,-969.00
2024-05-19 08:46:56.349780,3,-2,8,0,0,0,82,86,136,120,51,132.91,295,38.00,28.00,-1036.00
2024-05-19 08:46:56.516753,3,-2,8,0,0,0,82,86,136,120,51,132.90,296,30.00,50.00,-971.00
2024-05-19 08:46:56.553726,2,-2,8,0,0,0,82,86,134,120,51,132.92,296,62.00,-3.00,-992.00
2024-05-19 08:46:56.605394,2,-2,8,0,0,0,82,86,134,120,51,132.95,296,33.00,40.00,-977.00
2024-05-19 08:46:56.721677,2,-2,8,0,0,0,82,86,134,120,51,133.02,296,13.00,73.00,-986.00
2024-05-19 08:46:56.808861,2,-2,8,0,0,0,82,86,133,120,51,132.95,296,29.00,11.00,-1042.00
2024-05-19 08:46:56.926313,1,-2,8,-1,0,0,82,86,133,120,51,132.93,296,43.00,54.00,-1112.00
2024-05-19 08:46:57.013276,1,-2,9,-1,0,0,83,85,132,120,51,132.93,296,24.00,6.00,-1021.00
2024-05-19 08:46:57.131613,1,-2,9,-1,0,0,83,85,132,120,51,132.87,296,4.00,49.00,-947.00
2024-05-19 08:46:57.220781,0,-2,9,0,0,0,83,85,132,120,51,132.93,296,38.00,58.00,-986.00
2024-05-19 08:46:57.318715,0,-2,9,0,0,0,83,85,132,120,51,132.93,296,29.00,41.00,-1011.00
2024-05-19 08:46:57.442901,1,-2,9,0,0,0,83,85,132,120,51,132.95,297,8.00,44.00,-978.00
2024-05-19 08:46:57.522768,1,-2,9,0,0,0,83,85,132,120,51,132.93,297,18.00,28.00,-968.00
2024-05-19 08:46:57.624742,1,-1,9,0,0,0,83,85,132,120,51,132.93,297,43.00,12.00,-1065.00
2024-05-19 08:46:57.740612,1,-1,9,0,0,0,83,85,132,120,51,132.90,297,18.00,-14.00,-1008.00
2024-05-19 08:46:57.829607,0,0,9,0,0,0,83,85,132,120,51,132.99,297,8.00,10.00,-1009.00
2024-05-19 08:46:57.950149,0,0,8,0,0,-1,83,85,133,120,51,132.99,297,45.00,-21.00,-1605.00
2024-05-19 08:46:58.033906,0,0,8,0,0,-7,83,86,140,130,51,133.19,297,29.00,117.00,-1449.00
2024-05-19 08:46:58.154916,0,-31,8,0,0,-12,83,86,193,140,51,133.27,297,64.00,297.00,-959.00
2024-05-19 08:46:58.237577,-1,-135,8,1,-8,-7,83,86,494,150,51,133.42,297,34.00,746.00,-782.00
2024-05-19 08:46:58.359747,-1,85,10,1,-8,6,83,86,344,150,51,133.29,297,52.00,455.00,-1485.00
2024-05-19 08:46:58.441824,1,-2,12,0,-2,8,83,86,148,140,51,132.85,298,-30.00,-200.00,-1544.00
2024-05-19 08:46:58.543527,1,0,18,0,-3,6,83,86,139,130,51,132.99,298,40.00,-55.00,-1401.00
2024-05-19 08:46:58.666882,-2,4,27,0,-3,2,83,86,135,130,51,132.85,298,-14.00,23.00,-1213.00
2024-05-19 08:46:58.748701,-3,2,35,0,-2,0,83,86,133,120,51,132.80,298,-49.00,34.00,-1126.00
2024-05-19 08:46:58.871700,-2,1,37,0,-2,0,83,86,133,120,51,132.85,298,-40.00,35.00,-1038.00
2024-05-19 08:46:58.952008,-2,1,32,0,-1,0,83,86,133,120,51,132.90,298,-48.00,29.00,-991.00
2024-05-19 08:46:59.076426,-2,0,20,0,-1,0,82,85,134,120,51,132.92,298,-73.00,13.00,-1005.00
2024-05-19 08:46:59.155527,-2,0,9,0,-1,0,82,85,134,120,51,132.93,298,-17.00,-60.00,-959.00
2024-05-19 08:46:59.281285,-2,0,6,0,-1,0,82,85,135,120,51,132.87,298,-13.00,-52.00,-949.00
2024-05-19 08:46:59.360605,-1,3,7,0,-1,0,82,85,135,120,51,132.98,298,-40.00,-18.00,-980.00
2024-05-19 08:46:59.486211,0,3,7,0,0,0,82,85,135,120,51,133.16,299,-14.00,-28.00,-937.00
2024-05-19 08:46:59.563807,0,2,7,0,0,0,82,85,135,120,51,133.34,299,4.00,-28.00,-986.00
2024-05-19 08:46:59.690877,0,2,7,0,0,0,82,85,135,120,51,133.07,299,47.00,-35.00,-1005.00
2024-05-19 08:46:59.767691,0,2,7,0,0,0,82,85,136,120,51,133.08,299,42.00,-1.00,-954.00
2024-05-19 08:46:59.895698,0,1,7,0,0,0,82,85,136,120,51,132.99,299,11.00,26.00,-1007.00
2024-05-19 08:46:59.920437,1,1,8,1,0,0,82,85,137,120,51,133.02,299,102.00,18.00,-1030.00
2024-05-19 08:47:00.100497,2,0,8,1,0,0,83,86,137,120,51,133.05,299,61.00,-36.00,-955.00
2024-05-19 08:47:00.175575,3,0,8,1,0,0,83,86,138,120,51,133.13,299,60.00,-15.00,-1017.00
2024-05-19 08:47:00.226380,3,1,8,1,0,0,83,86,139,120,51,133.09,299,65.00,-2.00,-1008.00
2024-05-19 08:47:00.407710,4,1,8,1,0,0,83,86,139,120,51,133.06,299,83.00,19.00,-1037.00
2024-05-19 08:47:00.430441,5,2,8,1,0,0,83,86,141,120,50,133.03,300,61.00,-2.00,-976.00
2024-05-19 08:47:00.532393,5,2,9,1,0,0,83,86,141,120,50,132.99,300,91.00,-9.00,-984.00
2024-05-19 08:47:00.634435,5,2,9,1,0,0,83,86,142,130,50,132.95,300,36.00,10.00,-939.00
2024-05-19 08:47:00.817354,5,1,9,0,0,0,83,86,143,130,50,133.06,300,57.00,-37.00,-944.00
2024-05-19 08:47:00.838423,5,1,9,0,0,0,83,86,144,130,50,133.02,300,123.00,-20.00,-1021.00
2024-05-19 08:47:01.022079,5,2,9,0,0,0,83,86,143,130,50,132.99,300,30.00,14.00,-899.00
2024-05-19 08:47:01.042504,5,1,9,0,0,0,82,86,144,130,50,133.02,300,58.00,-22.00,-1003.00
2024-05-19 08:47:01.226906,5,1,9,0,0,0,82,86,143,130,50,132.98,300,47.00,-19.00,-973.00
2024-05-19 08:47:01.246362,4,1,9,0,0,0,82,86,143,130,50,133.00,300,22.00,-10.00,-946.00
2024-05-19 08:47:01.348541,4,2,9,0,0,0,82,86,142,130,50,132.96,300,49.00,-23.00,-1036.00
2024-05-19 08:47:01.450600,4,2,9,0,0,0,82,86,142,130,50,133.02,301,59.00,-40.00,-980.00
2024-05-19 08:47:01.552409,4,2,9,0,0,0,82,86,141,130,50,132.97,301,37.00,-32.00,-967.00
2024-05-19 08:47:01.739069,4,2,9,0,0,0,82,86,139,130,50,132.97,301,13.00,-28.00,-965.00
2024-05-19 08:47:01.756500,4,2,9,0,0,0,82,86,138,130,50,132.94,301,68.00,-30.00,-999.00
2024-05-19 08:47:01.943883,3,2,9,0,0,0,82,86,137,130,50,132.90,301,64.00,-50.00,-1033.00
2024-05-19 08:47:01.960606,3,2,9,0,0,0,82,86,137,120,50,132.84,301,40.00,-41.00,-975.00
2024-05-19 08:47:02.148548,3,2,9,0,0,0,82,86,135,120,50,132.82,301,68.00,-36.00,-999.00
2024-05-19 08:47:02.164598,3,2,9,0,0,0,82,86,135,120,50,132.79,301,35.00,-53.00,-1024.00
2024-05-19 08:47:02.355217,3,2,9,0,0,0,82,86,134,120,50,132.84,301,73.00,-10.00,-1075.00
2024-05-19 08:47:02.368363,3,2,9,0,0,0,82,86,133,120,50,132.85,301,125.00,-64.00,-1038.00
2024-05-19 08:47:02.558169,4,2,9,0,0,0,82,86,133,120,50,132.74,302,79.00,-35.00,-1019.00
2024-05-19 08:47:02.572298,4,1,9,0,0,0,82,86,132,120,50,132.80,302,65.00,-18.00,-966.00
2024-05-19 08:47:02.763054,4,1,9,0,0,0,82,86,133,120,50,132.82,302,141.00,-24.00,-1104.00
2024-05-19 08:47:02.776428,4,1,9,0,0,0,82,86,133,120,50,132.75,302,89.00,-35.00,-1018.00
2024-05-19 08:47:02.967829,4,1,9,0,0,0,82,86,133,120,50,132.78,302,45.00,5.00,-992.00
2024-05-19 08:47:02.983355,4,1,9,0,0,0,82,86,133,120,50,132.76,302,75.00,-13.00,-952.00
2024-05-19 08:47:03.082398,4,1,9,0,0,0,83,86,134,120,50,132.74,302,85.00,-13.00,-1020.00
2024-05-19 08:47:03.274987,4,1,9,0,0,0,83,86,133,120,50,132.80,302,67.00,-9.00,-985.00
2024-05-19 08:47:03.286324,4,1,9,0,0,0,83,86,134,120,50,132.76,302,81.00,-14.00,-1050.00
2024-05-19 08:47:03.479920,4,1,9,0,0,0,83,86,133,120,50,132.76,302,88.00,-22.00,-951.00
2024-05-19 08:47:03.490349,4,1,9,0,0,0,83,86,133,120,50,132.75,303,112.00,-44.00,-1066.00
2024-05-19 08:47:03.688605,4,1,9,0,0,0,83,86,133,120,50,132.76,303,78.00,-34.00,-1020.00
2024-05-19 08:47:03.688766,4,1,9,0,0,0,83,86,133,120,50,132.77,303,70.00,-33.00,-1000.00
2024-05-19 08:47:03.745892,4,2,9,0,0,0,83,86,132,120,50,132.84,303,76.00,-59.00,-962.00
2024-05-19 08:47:03.889623,4,3,9,0,0,0,83,86,132,120,50,132.85,303,103.00,-52.00,-1037.00
2024-05-19 08:47:03.949413,4,3,9,0,0,0,83,86,132,120,50,132.88,303,83.00,-14.00,-941.00
2024-05-19 08:47:04.094514,4,2,9,0,0,0,83,86,132,120,50,132.67,303,86.00,-23.00,-1006.00
2024-05-19 08:47:04.153635,4,2,9,0,0,0,83,86,132,120,50,132.88,303,75.00,-29.00,-987.00
2024-05-19 08:47:04.299381,5,1,9,0,0,0,83,86,132,120,50,132.82,303,60.00,-31.00,-990.00
2024-05-19 08:47:04.357596,5,1,9,0,0,0,83,86,131,120,50,132.77,303,95.00,19.00,-976.00
2024-05-19 08:47:04.503750,4,1,9,0,0,0,83,86,132,120,50,132.88,304,74.00,-21.00,-978.00
2024-05-19 08:47:04.561412,5,1,9,0,0,0,83,86,131,120,50,132.81,304,71.00,2.00,-983.00
2024-05-19 08:47:04.709178,4,2,9,0,0,0,83,86,131,120,50,132.78,304,74.00,-21.00,-978.00
2024-05-19 08:47:04.765459,4,1,9,0,0,0,83,86,131,120,50,132.86,304,101.00,-29.00,-1048.00
2024-05-19 08:47:04.913628,5,0,9,0,0,0,83,86,132,120,50,132.86,304,75.00,15.00,-989.00
2024-05-19 08:47:04.969344,5,0,9,0,0,0,83,86,133,120,50,132.86,304,96.00,-47.00,-1032.00
2024-05-19 08:47:05.118169,5,1,9,0,0,0,83,86,134,120,50,132.72,304,74.00,-19.00,-1014.00
2024-05-19 08:47:05.173654,4,1,9,0,0,0,83,86,134,120,50,132.67,304,95.00,2.00,-978.00
2024-05-19 08:47:05.322970,4,1,9,0,0,0,83,86,135,120,50,132.85,304,81.00,-26.00,-944.00
2024-05-19 08:47:05.377288,5,1,9,0,0,0,83,86,135,120,50,132.79,305,75.00,-24.00,-969.00
2024-05-19 08:47:05.527800,4,0,9,0,0,0,83,86,136,120,49,132.77,305,87.00,-20.00,-983.00
2024-05-19 08:47:05.581230,3,0,9,0,0,0,83,86,137,120,49,132.85,305,55.00,-46.00,-1008.00
2024-05-19 08:47:05.733222,3,1,9,0,0,0,83,86,137,120,49,132.84,305,61.00,-15.00,-971.00
2024-05-19 08:47:05.785275,4,1,9,0,0,0,83,86,138,120,49,132.83,305,47.00,-2.00,-982.00
2024-05-19 08:47:05.937627,4,1,9,0,0,0,83,86,139,120,49,132.80,305,40.00,-34.00,-1020.00
2024-05-19 08:47:05.989606,4,1,9,0,0,0,83,86,139,120,49,132.83,305,87.00,-21.00,-1015.00
2024-05-19 08:47:06.142177,4,1,9,0,0,0,83,86,141,120,49,132.89,305,42.00,5.00,-931.00
