TS,pitch,roll,yaw,vgx,vgy,vgz,templ,temph,tof,h,bat,baro,time,agx,agy,agz
2024-05-19 08:47:40.445772,0,-1,1,0,0,0,86,88,10,0,48,131.77,317,3.00,17.00,-999.00
2024-05-19 08:47:40.465478,0,-1,1,0,0,0,86,88,10,0,48,131.75,317,2.00,18.00,-997.00
2024-05-19 08:47:40.650618,0,-1,1,0,0,0,86,88,10,0,48,131.76,317,4.00,18.00,-1000.00
2024-05-19 08:47:40.669518,0,-1,1,0,0,0,86,88,10,0,48,131.73,317,2.00,17.00,-999.00
2024-05-19 08:47:40.855452,0,-1,1,0,0,0,86,88,10,0,48,131.72,317,2.00,17.00,-999.00
2024-05-19 08:47:40.873502,0,-1,1,0,0,0,86,88,10,0,48,131.75,317,4.00,17.00,-999.00
2024-05-19 08:47:41.060056,0,-1,1,0,0,0,86,88,10,0,48,131.75,317,3.00,18.00,-1000.00
2024-05-19 08:47:41.077412,0,-1,1,0,0,0,86,88,10,0,48,131.75,317,4.00,17.00,-999.00
2024-05-19 08:47:41.264988,0,-1,1,0,0,0,86,88,10,0,48,131.73,317,3.00,17.00,-996.00
2024-05-19 08:47:41.281534,0,-1,1,0,0,0,86,88,10,0,48,131.81,317,2.00,16.00,-999.00
2024-05-19 08:47:41.469695,0,-1,1,0,0,0,86,88,10,0,48,131.78,317,3.00,17.00,-998.00
2024-05-19 08:47:41.485306,0,-1,1,0,0,0,86,88,10,0,48,131.72,317,3.00,17.00,-998.00
2024-05-19 08:47:41.674417,0,-1,1,0,0,0,86,88,10,0,48,131.74,317,2.00,18.00,-1001.00
2024-05-19 08:47:41.689291,0,-1,1,0,0,0,86,88,10,0,48,131.75,317,3.00,15.00,-1002.00
2024-05-19 08:47:41.791289,0,-1,1,0,0,0,86,88,10,0,48,131.73,317,3.00,18.00,-1001.00
2024-05-19 08:47:41.981548,0,-1,1,0,0,0,86,88,10,0,48,131.73,317,4.00,16.00,-1001.00
2024-05-19 08:47:41.995403,0,-1,1,0,0,0,86,88,10,0,48,131.69,317,3.00,18.00,-999.00
2024-05-19 08:47:42.186589,0,-1,1,0,0,0,86,88,10,0,48,131.78,317,4.00,17.00,-1000.00
2024-05-19 08:47:42.199366,0,-1,1,0,0,0,86,88,10,0,48,131.72,317,3.00,17.00,-1000.00
2024-05-19 08:47:42.301368,0,-1,1,0,0,0,86,88,10,0,48,131.75,317,3.00,18.00,-1002.00
2024-05-19 08:47:42.493832,0,-1,1,0,0,0,86,88,10,0,48,131.72,317,3.00,17.00,-1000.00
2024-05-19 08:47:42.505361,0,-1,1,0,0,0,86,88,10,0,48,131.76,317,4.00,18.00,-1001.00
2024-05-19 08:47:42.698659,0,-1,1,0,0,0,86,88,10,0,48,131.78,317,3.00,16.00,-1000.00
2024-05-19 08:47:42.709305,0,-1,1,0,0,0,86,88,10,0,48,131.82,317,3.00,17.00,-1000.00
2024-05-19 08:47:42.760337,0,-1,1,0,0,0,86,88,10,0,48,131.75,317,4.00,18.00,-1001.00
2024-05-19 08:47:42.903455,0,-1,1,0,0,0,86,88,10,0,48,131.81,317,4.00,17.00,-997.00
2024-05-19 08:47:42.964486,0,-1,1,0,0,0,86,88,10,0,48,131.74,317,4.00,19.00,-1000.00
2024-05-19 08:47:43.066431,0,-1,1,0,0,0,86,88,10,0,48,131.74,317,3.00,17.00,-999.00
2024-05-19 08:47:43.210685,0,-1,1,0,0,0,86,88,10,0,48,131.78,317,2.00,17.00,-1000.00
2024-05-19 08:47:43.270360,0,-1,1,0,0,0,85,88,10,0,48,131.73,317,1.00,17.00,-1001.00
2024-05-19 08:47:43.415426,0,-1,1,0,0,0,85,88,10,0,48,131.81,317,3.00,17.00,-1000.00
2024-05-19 08:47:43.474366,0,-1,1,0,0,0,85,88,10,0,48,131.79,317,2.00,16.00,-1000.00
2024-05-19 08:47:43.620202,0,-1,1,0,0,0,85,88,10,0,48,131.70,317,3.00,16.00,-999.00
2024-05-19 08:47:43.678277,0,-1,1,0,0,0,85,88,10,0,48,131.81,317,3.00,16.00,-1000.00
2024-05-19 08:47:43.780361,0,-1,1,0,0,0,85,88,10,0,48,131.76,317,5.00,16.00,-999.00
2024-05-19 08:47:43.927426,0,-1,1,0,0,0,85,88,10,0,48,131.78,317,2.00,16.00,-1001.00
2024-05-19 08:47:43.984278,0,-1,1,0,0,0,85,88,10,0,48,131.74,317,1.00,17.00,-1003.00
2024-05-19 08:47:44.132207,0,-1,1,0,0,0,85,88,10,0,48,131.74,317,2.00,16.00,-1001.00
2024-05-19 08:47:44.188371,0,-1,1,0,0,0,85,88,10,0,48,131.77,317,4.00,17.00,-1000.00
2024-05-19 08:47:44.337152,0,-1,1,0,0,0,86,88,10,0,48,131.75,317,3.00,18.00,-1000.00
2024-05-19 08:47:44.392313,0,-1,1,0,0,0,86,88,10,0,48,131.76,317,4.00,17.00,-1000.00
2024-05-19 08:47:44.541853,0,-1,1,0,0,0,86,88,10,0,48,131.78,317,2.00,17.00,-1000.00
2024-05-19 08:47:44.596410,0,-1,1,0,0,0,86,88,10,0,48,131.75,317,3.00,17.00,-1001.00
2024-05-19 08:47:44.698266,0,-1,1,0,0,0,86,88,10,0,48,131.79,317,3.00,17.00,-999.00
2024-05-19 08:47:44.849140,0,-1,1,0,0,0,86,88,10,0,48,131.77,317,5.00,24.00,-995.00
2024-05-19 08:47:44.902216,0,-1,1,0,0,0,86,88,10,0,48,131.77,317,-3.00,8.00,-1000.00
2024-05-19 08:47:45.053959,0,-1,1,0,0,0,86,88,10,0,48,131.77,317,-8.00,17.00,-1011.00
2024-05-19 08:47:45.106170,0,0,1,0,0,0,86,88,10,0,48,131.77,317,0.00,15.00,-1011.00
2024-05-19 08:47:45.258539,0,0,2,0,0,0,86,88,10,0,48,131.77,318,0.00,-21.00,-1033.00
2024-05-19 08:47:45.310177,0,0,3,0,0,0,87,89,10,0,48,131.77,318,-4.00,16.00,-1056.00
2024-05-19 08:47:45.463249,1,1,3,-1,0,0,87,89,10,0,48,131.77,318,-73.00,52.00,-1088.00
2024-05-19 08:47:45.514168,0,0,4,-2,0,-2,87,89,10,0,48,131.77,318,12.00,-60.00,-1385.00
2024-05-19 08:47:45.669905,-6,0,4,-2,0,-5,87,89,14,0,48,131.77,318,-25.00,0.00,-1236.00
2024-05-19 08:47:45.718188,-4,-1,4,-1,0,-6,87,89,22,0,48,132.03,318,-50.00,25.00,-1059.00
2024-05-19 08:47:45.873888,-3,-1,4,0,0,-7,87,89,30,0,48,132.09,318,-30.00,6.00,-1049.00
2024-05-19 08:47:45.922466,-3,-1,3,0,0,-7,87,89,40,10,48,132.26,318,-71.00,25.00,-979.00
2024-05-19 08:47:46.063617,-3,0,3,0,0,-7,87,89,44,20,48,132.29,318,-43.00,12.00,-958.00
2024-05-19 08:47:46.126278,-3,0,3,0,0,-6,87,89,51,20,48,132.39,318,-49.00,0.00,-952.00
2024-05-19 08:47:46.282337,-3,0,3,0,0,-5,87,89,59,30,48,132.44,319,-44.00,6.00,-907.00
2024-05-19 08:47:46.330147,0,0,3,0,0,-4,87,89,65,30,48,132.46,319,-13.00,6.00,-878.00
2024-05-19 08:47:46.489391,0,0,3,0,0,-3,87,89,71,40,48,132.58,319,-25.00,15.00,-909.00
2024-05-19 08:47:46.489433,0,0,3,0,0,-2,87,89,76,40,48,132.59,319,0.00,-22.00,-968.00
2024-05-19 08:47:46.585053,0,0,3,0,0,-1,87,89,79,40,48,132.69,319,-35.00,0.00,-963.00
2024-05-19 08:47:46.687755,0,0,3,0,0,-1,87,89,82,50,48,132.69,319,-17.00,5.00,-930.00
2024-05-19 08:47:46.796787,0,-1,3,0,0,0,87,89,84,50,48,132.74,319,-47.00,18.00,-949.00
2024-05-19 08:47:46.891408,-1,-1,3,0,0,0,87,89,86,50,48,132.81,319,-57.00,31.00,-935.00
2024-05-19 08:47:46.999965,-1,-1,3,0,0,0,87,89,88,50,48,132.78,319,-48.00,10.00,-984.00
2024-05-19 08:47:47.095093,-1,-1,3,0,0,0,87,89,89,50,48,132.73,319,-47.00,25.00,-992.00
2024-05-19 08:47:47.204346,-1,-1,3,0,0,0,87,89,89,50,48,132.76,320,-31.00,32.00,-941.00
2024-05-19 08:47:47.299186,-1,-1,3,0,0,0,87,89,90,50,48,132.74,320,-41.00,-5.00,-992.00
2024-05-19 08:47:47.408840,-2,-1,3,0,0,0,87,89,90,50,48,132.77,320,-32.00,12.00,-973.00
2024-05-19 08:47:47.503069,-2,-1,3,0,0,0,87,89,91,50,48,132.81,320,-13.00,14.00,-1002.00
2024-05-19 08:47:47.613632,-1,-1,3,0,0,0,87,89,91,50,48,132.78,320,-48.00,32.00,-974.00
2024-05-19 08:47:47.708837,-1,-1,3,0,0,0,87,89,91,50,48,132.82,320,-40.00,23.00,-929.00
2024-05-19 08:47:47.809115,-2,-1,3,0,0,0,87,89,91,50,48,132.79,320,-19.00,17.00,-999.00
2024-05-19 08:47:47.920825,-2,-1,3,0,0,0,87,89,91,50,48,132.84,320,-12.00,46.00,-964.00
2024-05-19 08:47:48.013123,-2,-1,3,0,0,0,87,89,90,60,48,132.78,320,-36.00,22.00,-1004.00
2024-05-19 08:47:48.125484,-2,-1,3,0,0,0,87,89,90,50,48,132.72,320,-32.00,6.00,-959.00
2024-05-19 08:47:48.217110,-2,-1,3,0,0,0,87,89,89,50,48,132.72,321,-41.00,18.00,-953.00
2024-05-19 08:47:48.332773,-2,-1,3,0,0,0,86,89,88,50,48,132.76,321,-21.00,25.00,-967.00
2024-05-19 08:47:48.421038,-2,-1,3,0,0,0,86,89,88,50,48,132.74,321,-43.00,21.00,-1007.00
2024-05-19 08:47:48.535357,-2,-1,3,0,0,0,86,89,87,50,48,132.60,321,-26.00,15.00,-1016.00
2024-05-19 08:47:48.625148,-3,-1,3,0,0,0,86,89,86,50,48,132.61,321,-38.00,7.00,-949.00
2024-05-19 08:47:48.740266,-3,0,3,0,0,0,86,89,86,50,48,132.71,321,-51.00,22.00,-1020.00
2024-05-19 08:47:48.829028,-3,0,3,0,0,0,86,89,84,50,48,132.65,321,-64.00,-14.00,-1042.00
2024-05-19 08:47:48.944823,-3,0,3,0,0,0,86,89,83,50,48,132.73,321,-42.00,21.00,-1037.00
2024-05-19 08:47:49.033041,-3,0,3,0,0,0,86,89,83,50,48,132.65,321,-38.00,23.00,-1007.00
2024-05-19 08:47:49.135055,-3,0,3,0,0,0,86,89,82,50,48,132.58,321,-43.00,-6.00,-1059.00
2024-05-19 08:47:49.252138,-3,0,3,0,0,0,86,89,82,50,48,132.55,322,-37.00,38.00,-1014.00
2024-05-19 08:47:49.342765,-3,0,3,0,0,0,87,90,81,50,48,132.59,322,-23.00,-1.00,-978.00
2024-05-19 08:47:49.440943,-3,0,4,0,0,0,87,90,80,50,48,132.63,322,-26.00,-21.00,-1043.00
2024-05-19 08:47:49.559322,-2,0,4,0,0,0,87,90,79,50,48,132.72,322,-26.00,43.00,-986.00
2024-05-19 08:47:49.645019,-2,0,4,0,0,0,87,90,79,50,48,132.63,322,-15.00,30.00,-1046.00
2024-05-19 08:47:49.747073,-2,-1,4,0,0,0,87,90,79,50,48,132.50,322,-35.00,-3.00,-1020.00
2024-05-19 08:47:49.866423,-2,-1,4,0,0,0,87,90,78,50,48,132.53,322,-1.00,14.00,-974.00
2024-05-19 08:47:49.950903,-2,0,4,0,0,0,87,90,77,50,48,132.64,322,23.00,4.00,-1013.00
2024-05-19 08:47:50.071615,-2,-1,4,0,0,0,87,90,77,50,48,132.67,322,-16.00,28.00,-993.00
2024-05-19 08:47:50.154958,-2,0,4,0,0,0,87,90,76,40,48,132.65,322,-54.00,24.00,-996.00
2024-05-19 08:47:50.205960,-2,0,4,0,0,0,87,90,76,40,48,132.61,323,-16.00,19.00,-1002.00
2024-05-19 08:47:50.379612,-3,-1,4,0,0,0,86,89,75,40,48,132.61,323,-14.00,-4.00,-946.00
2024-05-19 08:47:50.460935,-2,-1,3,0,0,0,86,89,75,40,48,132.54,323,-14.00,16.00,-965.00
2024-05-19 08:47:50.584944,-2,0,3,0,0,0,86,89,75,40,48,132.52,323,2.00,45.00,-1002.00
2024-05-19 08:47:50.613809,-2,-1,3,0,0,0,86,89,74,40,48,132.59,323,1.00,38.00,-1023.00
2024-05-19 08:47:50.715838,-2,-1,3,0,0,0,86,89,74,40,48,132.51,323,-15.00,28.00,-958.00
2024-05-19 08:47:50.817946,-2,-1,4,0,0,0,86,89,74,40,48,132.52,323,-2.00,14.00,-1000.00
2024-05-19 08:47:50.992947,-1,-1,4,0,0,0,86,89,74,40,48,132.53,323,-2.00,56.00,-991.00
2024-05-19 08:47:51.021933,-1,-2,4,0,0,0,86,89,73,40,48,132.53,323,-17.00,19.00,-993.00
2024-05-19 08:47:51.198755,-1,-2,4,0,0,0,86,89,73,40,48,132.52,323,-14.00,20.00,-957.00
2024-05-19 08:47:51.225928,-1,-1,4,0,0,0,86,89,72,40,48,132.62,324,-5.00,22.00,-986.00
2024-05-19 08:47:51.402532,-1,-1,4,1,0,0,86,89,72,40,48,132.53,324,34.00,-3.00,-1009.00
2024-05-19 08:47:51.429912,-1,-1,4,1,0,0,86,89,72,40,48,132.52,324,47.00,-26.00,-1050.00
2024-05-19 08:47:51.608868,0,0,4,1,0,0,86,89,71,40,48,132.51,324,43.00,-35.00,-1014.00
2024-05-19 08:47:51.634087,1,0,4,1,0,0,86,89,71,40,48,132.55,324,60.00,-27.00,-1018.00
2024-05-19 08:47:51.815691,1,0,4,1,0,0,86,89,71,40,48,132.57,324,2.00,6.00,-1004.00
2024-05-19 08:47:51.844670,0,0,4,1,0,0,86,89,71,40,48,132.56,324,85.00,-18.00,-957.00
2024-05-19 08:47:51.943464,1,0,4,1,0,0,86,89,71,40,48,132.60,324,31.00,-13.00,-957.00
2024-05-19 08:47:52.043035,1,0,4,1,0,0,86,89,71,40,48,132.56,324,40.00,18.00,-994.00
2024-05-19 08:47:52.144983,1,0,4,1,0,0,86,89,70,40,48,132.52,324,26.00,14.00,-1079.00
2024-05-19 08:47:52.324247,1,0,4,1,0,0,86,89,70,40,48,132.56,325,30.00,-6.00,-1045.00
2024-05-19 08:47:52.348939,1,0,4,0,0,0,86,88,70,40,48,132.55,325,73.00,0.00,-1076.00
2024-05-19 08:47:52.529144,1,0,4,0,0,0,86,88,71,40,48,132.55,325,60.00,-18.00,-1053.00
2024-05-19 08:47:52.552848,1,0,4,0,0,0,86,88,71,40,48,132.60,325,74.00,-8.00,-995.00
2024-05-19 08:47:52.734224,1,0,4,1,0,0,86,88,72,40,48,132.65,325,27.00,2.00,-977.00
2024-05-19 08:47:52.756946,1,0,4,1,0,0,86,88,72,40,48,132.62,325,51.00,21.00,-961.00
2024-05-19 08:47:52.858791,2,0,4,1,0,0,86,88,73,40,48,132.57,325,43.00,2.00,-1016.00
2024-05-19 08:47:53.040764,2,0,4,0,0,0,86,88,74,40,48,132.61,325,82.00,-26.00,-1025.00
2024-05-19 08:47:53.062777,1,0,4,0,0,0,86,88,75,40,48,132.59,325,41.00,2.00,-1100.00
2024-05-19 08:47:53.245709,1,0,4,0,0,-1,86,88,77,40,48,132.57,325,83.00,-49.00,-1113.00
2024-05-19 08:47:53.266926,1,0,4,0,0,-2,86,88,80,50,48,132.67,326,79.00,-1.00,-1124.00
2024-05-19 08:47:53.450331,1,0,4,0,0,-3,86,88,84,50,48,132.68,326,74.00,-11.00,-1093.00
2024-05-19 08:47:53.471253,1,0,3,0,0,-4,86,88,88,50,48,132.71,326,75.00,7.00,-1067.00
2024-05-19 08:47:53.655166,1,0,4,0,0,-4,86,88,94,60,48,132.81,326,54.00,-20.00,-1039.00
2024-05-19 08:47:53.675680,2,0,4,1,0,-5,86,88,99,60,48,132.86,326,72.00,-10.00,-1045.00
2024-05-19 08:47:53.776892,2,0,4,0,0,-5,86,88,105,70,48,132.78,326,70.00,0.00,-917.00
2024-05-19 08:47:53.962903,2,0,4,0,0,-5,86,88,111,70,48,132.91,326,13.00,0.00,-948.00
2024-05-19 08:47:53.980823,2,0,4,0,0,-5,86,88,116,80,48,132.92,326,86.00,-13.00,-1065.00
2024-05-19 08:47:54.167977,1,0,4,0,0,-5,86,88,121,80,48,132.98,326,38.00,-11.00,-988.00
2024-05-19 08:47:54.170164,1,0,4,0,0,-5,86,88,127,90,48,133.08,326,63.00,2.00,-992.00
2024-05-19 08:47:54.235742,1,0,4,0,0,-5,86,88,132,90,48,133.05,327,61.00,-22.00,-967.00
2024-05-19 08:47:54.388736,1,0,4,0,0,-4,86,89,136,100,48,133.12,327,37.00,5.00,-966.00
2024-05-19 08:47:54.439688,1,0,4,0,0,-4,86,89,141,100,48,133.21,327,58.00,6.00,-956.00
2024-05-19 08:47:54.577121,1,0,4,0,0,-4,86,89,145,110,48,133.18,327,83.00,-2.00,-942.00
2024-05-19 08:47:54.643735,1,0,4,0,0,-3,86,89,149,110,48,133.20,327,54.00,18.00,-946.00
2024-05-19 08:47:54.781965,2,0,4,0,0,-3,86,89,152,120,48,133.33,327,28.00,1.00,-937.00
2024-05-19 08:47:54.847726,2,0,4,0,0,-3,86,89,155,120,48,133.34,327,87.00,-18.00,-1008.00
2024-05-19 08:47:54.986337,1,0,3,0,0,-3,86,89,159,120,48,133.30,327,72.00,-13.00,-972.00
2024-05-19 08:47:55.051568,1,0,3,0,0,-2,86,89,161,130,48,133.40,327,46.00,7.00,-1021.00
2024-05-19 08:47:55.153835,1,0,3,0,0,-2,86,89,163,130,48,133.41,327,83.00,12.00,-1024.00
2024-05-19 08:47:55.293526,1,0,3,0,0,-2,86,89,166,130,48,133.51,328,57.00,-8.00,-949.00
2024-05-19 08:47:55.357826,2,0,3,0,0,-1,85,88,166,130,48,133.50,328,55.00,3.00,-1001.00
2024-05-19 08:47:55.459689,2,0,3,0,0,-1,85,88,167,140,48,133.51,328,91.00,-26.00,-940.00
2024-05-19 08:47:55.561738,2,0,3,0,0,-1,85,88,169,140,48,133.47,328,74.00,-8.00,-1003.00
2024-05-19 08:47:55.703557,2,0,3,0,0,0,85,88,169,140,48,133.53,328,86.00,-24.00,-958.00
2024-05-19 08:47:55.765668,2,0,4,0,0,0,85,88,169,140,48,133.52,328,6.00,5.00,-993.00
2024-05-19 08:47:55.908055,1,0,3,0,0,0,85,88,169,140,48,133.50,328,28.00,29.00,-914.00
2024-05-19 08:47:55.972232,1,0,3,0,0,0,85,88,169,140,48,133.45,328,63.00,11.00,-958.00
2024-05-19 08:47:56.071725,1,0,3,0,0,0,85,88,169,140,48,133.42,328,62.00,-5.00,-1012.00
2024-05-19 08:47:56.215601,1,-1,3,0,0,0,85,88,170,140,48,133.50,328,82.00,11.00,-990.00
2024-05-19 08:47:56.275735,2,-1,4,0,0,0,85,88,170,140,48,133.41,329,83.00,6.00,-1018.00
2024-05-19 08:47:56.420037,2,-1,4,1,0,0,86,88,170,140,48,133.54,329,61.00,22.00,-1031.00
2024-05-19 08:47:56.479751,2,0,3,1,0,0,86,88,170,140,48,133.44,329,84.00,-27.00,-1014.00
2024-05-19 08:47:56.624776,2,0,3,0,0,0,86,88,170,140,48,133.42,329,78.00,3.00,-1011.00
2024-05-19 08:47:56.684507,2,0,3,0,0,0,86,88,170,140,48,133.50,329,70.00,5.00,-979.00
2024-05-19 08:47:56.829784,2,0,3,0,0,0,86,88,169,140,48,133.48,329,53.00,10.00,-958.00
2024-05-19 08:47:56.888642,1,0,3,0,0,0,86,88,171,140,48,133.54,329,77.00,7.00,-971.00
2024-05-19 08:47:57.035004,2,0,3,0,0,0,86,88,170,140,48,133.50,329,83.00,24.00,-984.00
2024-05-19 08:47:57.095710,1,-1,3,0,0,0,86,88,170,140,48,133.52,329,53.00,23.00,-997.00
2024-05-19 08:47:57.194655,1,-1,3,0,0,0,86,88,170,140,48,133.55,330,14.00,56.00,-923.00
2024-05-19 08:47:57.341585,1,-1,3,0,0,0,86,88,170,140,48,133.48,330,65.00,-9.00,-1034.00
2024-05-19 08:47:57.398674,1,0,3,0,0,0,84,88,170,140,48,133.48,330,40.00,15.00,-1043.00
2024-05-19 08:47:57.515319,1,-1,4,0,0,0,84,88,170,140,48,133.44,330,29.00,27.00,-957.00
2024-05-19 08:47:57.602678,1,0,4,0,0,0,84,88,170,140,48,133.47,330,58.00,24.00,-1045.00
2024-05-19 08:47:57.709128,1,0,3,0,0,0,84,88,170,140,48,133.49,330,44.00,-27.00,-992.00
2024-05-19 08:47:57.806511,1,0,3,0,0,0,84,88,170,140,48,133.54,330,51.00,-5.00,-941.00
2024-05-19 08:47:57.955954,1,0,3,0,0,0,84,88,170,140,48,133.41,330,69.00,-12.00,-950.00
2024-05-19 08:47:57.959515,1,0,4,0,0,1,84,88,170,140,48,133.42,330,30.00,-17.00,-952.00
2024-05-19 08:47:58.071938,1,0,4,0,0,1,84,88,169,140,48,133.45,330,25.00,4.00,-964.00
2024-05-19 08:47:58.163702,1,0,4,0,0,2,84,88,167,130,48,133.48,331,38.00,2.00,-943.00
2024-05-19 08:47:58.265552,1,0,4,0,0,2,84,88,164,130,48,133.39,331,66.00,-25.00,-1000.00
2024-05-19 08:47:58.367617,1,0,4,0,0,2,85,89,162,130,48,133.39,331,71.00,-17.00,-981.00
2024-05-19 08:47:58.469509,1,0,4,0,0,3,85,89,160,130,48,133.39,331,25.00,3.00,-997.00
2024-05-19 08:47:58.673227,1,0,4,0,0,3,85,89,156,120,48,133.38,331,4.00,8.00,-989.00
2024-05-19 08:47:58.674524,1,1,3,0,0,2,85,89,154,120,48,133.31,331,57.00,-15.00,-1052.00
2024-05-19 08:47:58.878898,1,1,3,0,0,2,85,89,151,120,48,133.32,331,55.00,-26.00,-1044.00
2024-05-19 08:47:58.880100,1,1,3,0,0,2,85,89,148,120,48,133.23,331,93.00,-6.00,-1072.00
2024-05-19 08:47:58.979488,1,0,4,0,0,2,85,89,146,110,48,133.29,331,15.00,0.00,-974.00
2024-05-19 08:47:59.082443,0,0,4,0,0,2,85,89,143,110,48,133.27,331,39.00,-22.00,-1006.00
2024-05-19 08:47:59.185227,0,0,4,0,0,2,85,89,141,110,48,133.18,332,26.00,-1.00,-1024.00
2024-05-19 08:47:59.287455,0,0,4,0,0,2,85,89,139,110,48,133.19,332,16.00,19.00,-947.00
2024-05-19 08:47:59.389472,0,0,4,0,0,2,85,88,136,100,48,133.16,332,38.00,-12.00,-1029.00
2024-05-19 08:47:59.489466,0,0,4,0,0,1,85,88,134,100,48,133.04,332,20.00,-4.00,-1026.00
2024-05-19 08:47:59.594273,0,0,4,0,0,1,85,88,132,100,48,133.16,332,26.00,-8.00,-1029.00
2024-05-19 08:47:59.693700,0,0,3,0,0,1,85,88,131,100,48,133.08,332,19.00,-2.00,-1056.00
2024-05-19 08:47:59.799054,0,0,3,0,0,1,85,88,130,100,48,133.11,332,93.00,-9.00,-972.00
2024-05-19 08:47:59.898441,0,0,3,0,0,1,85,88,129,100,48,133.13,332,53.00,5.00,-1002.00
2024-05-19 08:48:00.003752,0,0,3,0,0,0,85,88,128,100,48,133.07,332,31.00,18.00,-1027.00
2024-05-19 08:48:00.103138,0,0,3,0,0,0,85,88,128,90,48,133.13,332,52.00,11.00,-982.00
2024-05-19 08:48:00.208597,0,0,3,0,0,0,85,88,127,90,48,133.11,333,53.00,14.00,-948.00
2024-05-19 08:48:00.306376,0,0,3,0,0,0,85,88,126,90,48,133.04,333,78.00,7.00,-1076.00
2024-05-19 08:48:00.413455,0,0,3,0,0,0,85,88,126,90,48,133.00,333,14.00,34.00,-931.00
2024-05-19 08:48:00.510442,0,-1,3,0,0,0,85,88,125,90,48,133.07,333,42.00,17.00,-1049.00
2024-05-19 08:48:00.620904,0,-1,3,1,0,0,85,88,124,90,48,133.02,333,101.00,4.00,-1047.00
2024-05-19 08:48:00.714383,1,0,3,1,0,0,85,88,124,90,48,133.05,333,54.00,24.00,-999.00
2024-05-19 08:48:00.825825,0,0,3,0,0,0,85,88,124,90,48,133.09,333,22.00,12.00,-984.00
2024-05-19 08:48:00.918585,0,0,3,0,0,0,85,88,123,90,48,133.08,333,98.00,3.00,-1065.00
2024-05-19 08:48:01.030562,1,0,3,1,0,0,85,88,123,90,48,132.98,333,8.00,20.00,-1013.00
2024-05-19 08:48:01.122440,0,0,3,0,0,0,85,88,123,90,48,133.06,333,7.00,15.00,-982.00
2024-05-19 08:48:01.233966,0,0,3,0,0,0,85,88,124,90,48,133.01,334,71.00,15.00,-1030.00
2024-05-19 08:48:01.326415,0,-1,3,0,0,0,85,88,124,90,48,133.16,334,24.00,35.00,-975.00
2024-05-19 08:48:01.439295,0,-1,3,0,0,0,85,87,124,90,48,133.06,334,17.00,47.00,-953.00
2024-05-19 08:48:01.537732,0,-1,3,0,0,0,85,87,125,90,48,133.15,334,46.00,26.00,-1004.00
2024-05-19 08:48:01.632463,1,-1,4,1,0,0,85,87,125,90,48,133.02,334,38.00,7.00,-968.00
2024-05-19 08:48:01.734557,1,0,4,1,0,0,85,87,126,90,48,133.03,334,49.00,-5.00,-933.00
2024-05-19 08:48:01.785552,1,0,4,0,0,0,85,87,126,90,48,133.06,334,34.00,22.00,-970.00
2024-05-19 08:48:01.952584,1,0,4,0,0,0,85,87,127,90,48,133.03,334,47.00,-9.00,-957.00
2024-05-19 08:48:01.989649,1,0,4,0,0,0,85,87,128,90,48,133.09,334,40.00,-7.00,-989.00
2024-05-19 08:48:02.156941,0,0,4,0,0,0,85,87,128,90,48,133.08,334,52.00,-1.00,-992.00
2024-05-19 08:48:02.193519,0,0,4,0,0,0,85,87,127,90,48,133.04,335,75.00,-15.00,-977.00
2024-05-19 08:48:02.361760,0,0,4,0,0,0,85,87,127,90,48,133.07,335,28.00,25.00,-988.00
2024-05-19 08:48:02.397572,0,0,4,0,0,0,85,87,127,90,48,133.03,335,56.00,-3.00,-980.00
2024-05-19 08:48:02.499312,0,0,4,0,0,0,85,87,127,90,48,133.11,335,33.00,1.00,-985.00
2024-05-19 08:48:02.666682,0,0,4,0,0,0,85,87,127,90,48,133.06,335,55.00,-10.00,-977.00
2024-05-19 08:48:02.703403,-2,0,4,0,0,0,85,87,127,90,48,133.04,335,30.00,-13.00,-1017.00
2024-05-19 08:48:02.873643,-6,0,4,1,0,0,85,87,127,90,48,133.04,335,17.00,5.00,-1048.00
2024-05-19 08:48:02.907187,-7,0,3,2,0,0,85,87,127,90,48,133.12,335,20.00,-1.00,-1014.00
2024-05-19 08:48:03.075776,-7,0,3,4,0,0,85,87,127,90,48,133.13,335,34.00,-24.00,-961.00
2024-05-19 08:48:03.111189,-6,0,3,5,0,0,85,87,127,90,48,133.08,335,49.00,-17.00,-1095.00
2024-05-19 08:48:03.280920,-5,0,3,6,0,0,85,87,128,90,48,133.14,336,5.00,-23.00,-1007.00
2024-05-19 08:48:03.315179,-4,1,3,6,0,0,85,87,127,90,48,133.16,336,-13.00,-6.00,-937.00
2024-05-19 08:48:03.485352,-3,1,3,7,0,0,84,87,128,90,48,133.14,336,-37.00,-2.00,-942.00
2024-05-19 08:48:03.519303,-3,2,3,7,0,0,84,87,128,90,48,133.12,336,12.00,-37.00,-1003.00
2024-05-19 08:48:03.690243,-1,1,3,7,0,0,84,87,128,90,48,133.14,336,-3.00,-11.00,-997.00
2024-05-19 08:48:03.723346,1,0,3,7,0,0,84,87,128,90,48,133.18,336,-23.00,12.00,-945.00
2024-05-19 08:48:03.894935,4,0,3,6,0,0,84,87,129,90,48,133.14,336,15.00,-10.00,-1042.00
2024-05-19 08:48:03.927195,5,0,3,5,0,0,84,87,128,90,48,133.17,336,4.00,-29.00,-956.00
2024-05-19 08:48:04.102264,4,0,3,4,0,0,84,87,128,90,48,133.13,336,33.00,-5.00,-1054.00
2024-05-19 08:48:04.131367,3,1,3,3,0,0,84,87,128,90,48,133.08,336,51.00,-26.00,-1085.00
2024-05-19 08:48:04.309053,2,1,3,3,0,0,84,87,127,90,48,133.08,337,25.00,-21.00,-989.00
2024-05-19 08:48:04.337374,2,2,3,3,0,0,84,87,127,90,48,133.13,337,43.00,-3.00,-966.00
2024-05-19 08:48:04.437172,2,2,4,3,0,0,85,87,126,90,48,133.11,337,23.00,-6.00,-987.00
2024-05-19 08:48:04.611766,2,1,4,2,0,0,85,87,125,90,48,133.13,337,31.00,-22.00,-989.00
2024-05-19 08:48:04.641146,1,0,4,2,0,0,85,87,124,90,48,133.12,337,37.00,-4.00,-1004.00
2024-05-19 08:48:04.743097,0,0,4,2,0,0,85,87,122,90,48,133.10,337,-16.00,7.00,-943.00
2024-05-19 08:48:04.919081,0,-1,4,2,0,0,85,87,121,90,48,133.05,337,27.00,-39.00,-1005.00
2024-05-19 08:48:04.947105,0,0,4,2,0,0,85,87,120,90,48,133.08,337,32.00,-12.00,-1057.00
2024-05-19 08:48:05.123863,0,0,4,2,0,0,85,87,120,90,48,133.10,337,46.00,3.00,-972.00
2024-05-19 08:48:05.151061,1,0,3,2,0,0,85,87,119,90,48,132.98,337,21.00,-18.00,-1032.00
2024-05-19 08:48:05.331417,1,1,3,1,0,0,85,87,119,90,48,133.06,338,50.00,-44.00,-1068.00
2024-05-19 08:48:05.355061,1,3,3,1,0,0,85,87,118,90,48,133.06,338,3.00,2.00,-1034.00
2024-05-19 08:48:05.533710,1,3,3,1,0,0,85,87,118,90,48,133.04,338,45.00,0.00,-944.00
2024-05-19 08:48:05.559101,0,-1,3,1,0,0,85,87,118,90,48,133.00,338,29.00,-5.00,-1085.00
2024-05-19 08:48:05.738169,0,-1,3,1,0,0,85,87,118,90,48,132.97,338,2.00,-6.00,-999.00
2024-05-19 08:48:05.763061,0,0,3,1,0,0,85,87,117,90,48,133.01,338,3.00,-26.00,-991.00
2024-05-19 08:48:05.947633,2,0,3,1,0,0,85,87,117,90,48,133.06,338,9.00,0.00,-968.00
2024-05-19 08:48:05.947715,5,1,3,0,0,0,85,87,117,90,48,133.08,338,-12.00,-26.00,-996.00
2024-05-19 08:48:06.018143,2,4,3,0,0,0,85,87,118,90,48,133.05,338,26.00,-5.00,-968.00
2024-05-19 08:48:06.147751,1,4,3,0,0,0,85,87,118,90,48,133.05,338,-4.00,-14.00,-979.00
2024-05-19 08:48:06.222010,1,2,3,0,1,0,85,87,118,90,48,133.04,339,36.00,-23.00,-1026.00
2024-05-19 08:48:06.352523,-1,-1,3,0,1,0,85,87,119,90,48,133.05,339,23.00,-34.00,-990.00
2024-05-19 08:48:06.428197,-2,-2,3,0,0,0,85,88,120,90,48,133.06,339,46.00,-19.00,-968.00
2024-05-19 08:48:06.528265,0,0,3,1,0,0,85,88,121,90,48,133.09,339,64.00,2.00,-1027.00
2024-05-19 08:48:06.659908,1,0,3,1,0,0,85,88,122,90,48,133.10,339,66.00,-10.00,-1022.00
2024-05-19 08:48:06.732187,1,0,3,1,0,0,85,88,123,90,48,133.07,339,16.00,-4.00,-1014.00
2024-05-19 08:48:06.864841,1,0,3,0,0,0,85,88,123,90,48,133.20,339,36.00,14.00,-966.00
2024-05-19 08:48:06.936289,1,0,4,0,0,0,85,88,124,90,48,133.15,339,21.00,-3.00,-968.00
2024-05-19 08:48:07.070301,2,-1,4,0,0,0,85,88,124,90,48,133.19,339,30.00,-2.00,-998.00
2024-05-19 08:48:07.140080,2,-1,4,0,0,0,85,88,125,90,48,133.05,339,56.00,-25.00,-1004.00
2024-05-19 08:48:07.275445,1,-1,4,0,0,0,85,88,125,90,48,133.10,340,48.00,-10.00,-970.00
2024-05-19 08:48:07.344063,1,0,4,0,0,0,85,88,126,90,48,133.08,340,29.00,-21.00,-1007.00
2024-05-19 08:48:07.479155,1,0,4,0,0,0,85,87,126,90,48,133.17,340,9.00,10.00,-981.00
2024-05-19 08:48:07.548190,0,0,4,0,0,0,85,87,126,90,48,133.18,340,11.00,7.00,-986.00
2024-05-19 08:48:07.684588,0,0,3,0,0,0,85,87,126,90,48,133.22,340,25.00,6.00,-1002.00
2024-05-19 08:48:07.753219,0,0,3,0,0,0,85,87,127,90,48,133.06,340,47.00,-8.00,-1035.00
2024-05-19 08:48:07.891795,0,0,4,0,0,0,85,87,127,90,48,133.14,340,65.00,1.00,-981.00
2024-05-19 08:48:07.956185,0,0,4,0,0,0,85,87,128,90,48,133.05,340,6.00,-13.00,-972.00
2024-05-19 08:48:08.096621,1,0,4,0,0,0,85,87,128,90,48,133.14,340,41.00,-15.00,-1038.00
2024-05-19 08:48:08.160065,1,0,4,0,0,0,85,87,128,90,48,133.08,340,-17.00,14.00,-916.00
2024-05-19 08:48:08.299045,0,0,3,0,0,0,85,87,129,90,48,133.10,341,33.00,-3.00,-1023.00
2024-05-19 08:48:08.367257,0,0,3,0,0,0,85,87,129,90,48,133.13,341,-8.00,29.00,-975.00
2024-05-19 08:48:08.466054,0,0,3,0,0,0,84,87,130,90,47,133.12,341,18.00,11.00,-922.00
2024-05-19 08:48:08.605448,1,0,3,0,0,0,84,87,130,100,47,133.13,341,39.00,0.00,-987.00
2024-05-19 08:48:08.669995,7,0,3,0,0,0,84,87,132,100,47,133.20,341,3.00,15.00,-1001.00
2024-05-19 08:48:08.772185,8,0,3,-1,0,0,84,87,132,100,47,133.11,341,3.00,31.00,-1013.00
2024-05-19 08:48:08.913116,8,0,3,-2,0,0,84,87,131,100,47,133.08,341,50.00,-8.00,-1000.00
2024-05-19 08:48:08.976432,8,0,3,-4,0,0,84,87,132,100,47,133.07,341,59.00,10.00,-990.00
2024-05-19 08:48:09.118333,8,1,4,-5,0,0,84,87,131,100,47,133.15,341,48.00,28.00,-955.00
2024-05-19 08:48:09.179877,8,1,4,-5,0,0,84,87,131,100,47,133.09,341,88.00,30.00,-1006.00
2024-05-19 08:48:09.322071,8,1,4,-6,0,0,84,87,131,100,47,133.09,342,91.00,14.00,-1049.00
2024-05-19 08:48:09.383733,7,0,4,-6,0,0,84,87,129,100,47,133.04,342,88.00,-15.00,-1034.00
2024-05-19 08:48:09.526822,5,0,4,-7,0,0,85,88,128,100,47,133.14,342,97.00,13.00,-998.00
2024-05-19 08:48:09.590350,2,0,4,-7,0,0,85,88,127,100,47,133.09,342,112.00,4.00,-941.00
2024-05-19 08:48:09.690725,0,0,4,-6,0,0,85,88,126,90,47,133.10,342,39.00,21.00,-977.00
2024-05-19 08:48:09.792549,-2,0,4,-5,0,0,85,88,126,90,47,133.09,342,94.00,-3.00,-983.00
2024-05-19 08:48:09.936666,-1,0,4,-4,0,0,85,88,124,90,47,133.02,342,61.00,-6.00,-1008.00
2024-05-19 08:48:09.944881,0,0,4,-3,0,0,85,88,125,90,47,133.01,342,80.00,6.00,-972.00
2024-05-19 08:48:10.144484,0,0,4,-3,0,0,85,88,125,90,47,133.07,342,62.00,-21.00,-993.00
2024-05-19 08:48:10.148808,1,0,4,-3,0,0,85,88,124,90,47,133.03,342,95.00,-30.00,-994.00
2024-05-19 08:48:10.346066,1,0,4,-3,0,0,85,88,123,90,47,133.02,343,30.00,-5.00,-1061.00
2024-05-19 08:48:10.359871,1,0,4,-3,0,0,85,88,123,90,47,133.08,343,47.00,-4.00,-937.00
2024-05-19 08:48:10.454783,1,0,3,-3,0,0,85,88,123,90,47,133.07,343,44.00,32.00,-1009.00
2024-05-19 08:48:10.558349,-3,0,4,-3,0,0,85,88,122,90,47,133.06,343,12.00,6.00,-959.00
2024-05-19 08:48:10.658940,-4,-1,4,-2,0,0,85,88,122,90,47,133.08,343,48.00,-1.00,-998.00
2024-05-19 08:48:10.760830,-2,0,4,-1,0,0,85,88,122,90,47,132.97,343,82.00,-6.00,-1030.00
2024-05-19 08:48:10.862966,0,0,3,0,0,0,85,88,121,90,47,133.06,343,43.00,-8.00,-1021.00
2024-05-19 08:48:11.063555,0,0,3,0,0,0,85,88,122,90,47,133.04,343,41.00,31.00,-1038.00
2024-05-19 08:48:11.067278,0,0,3,0,0,0,85,88,122,90,47,133.06,343,17.00,1.00,-995.00
2024-05-19 08:48:11.267916,0,0,3,0,0,0,85,88,123,90,47,133.04,344,91.00,-16.00,-1076.00
2024-05-19 08:48:11.270973,0,0,3,0,0,0,85,88,122,90,47,133.05,344,14.00,18.00,-965.00
2024-05-19 08:48:11.372904,0,0,3,0,0,0,85,88,122,90,47,133.08,344,42.00,6.00,-995.00
2024-05-19 08:48:11.474946,0,0,3,0,0,0,84,88,122,90,46,133.05,344,36.00,-3.00,-1074.00
2024-05-19 08:48:11.576868,1,0,3,0,0,0,84,88,122,90,46,133.03,344,33.00,1.00,-959.00
2024-05-19 08:48:11.779823,0,0,3,0,0,0,84,88,121,90,46,133.05,344,69.00,-24.00,-985.00
2024-05-19 08:48:11.781204,0,0,3,0,0,0,84,88,119,90,46,133.09,344,4.00,19.00,-1030.00
2024-05-19 08:48:11.984449,0,0,3,0,0,0,84,88,118,90,46,133.01,344,-26.00,41.00,-909.00
2024-05-19 08:48:11.985021,0,-1,3,0,0,0,84,88,116,90,46,132.98,344,71.00,-17.00,-1025.00
2024-05-19 08:48:12.087918,0,-1,3,0,0,0,84,88,115,90,46,132.94,344,16.00,24.00,-1020.00
2024-05-19 08:48:12.190383,0,0,3,0,0,0,84,88,113,80,46,133.03,345,7.00,2.00,-1047.00
2024-05-19 08:48:12.292152,0,0,3,0,0,0,84,88,112,80,46,132.98,345,41.00,-6.00,-1056.00
2024-05-19 08:48:12.394168,0,0,3,0,0,0,84,88,111,80,46,132.99,345,-12.00,24.00,-1115.00
2024-05-19 08:48:12.494882,0,0,3,0,0,0,85,87,111,80,46,132.91,345,21.00,8.00,-1058.00
2024-05-19 08:48:12.601968,0,0,3,0,0,0,85,87,111,80,46,132.96,345,4.00,-19.00,-1002.00
2024-05-19 08:48:12.698997,0,0,4,0,0,0,85,87,112,80,46,133.03,345,0.00,23.00,-1032.00
2024-05-19 08:48:12.857036,0,0,4,0,0,0,85,87,113,80,46,132.96,345,10.00,14.00,-1025.00
2024-05-19 08:48:12.902535,0,0,3,0,0,0,85,87,114,80,46,133.05,345,15.00,34.00,-987.00
2024-05-19 08:48:13.013229,0,-2,3,0,0,0,85,87,114,90,46,133.01,345,1.00,57.00,-987.00
2024-05-19 08:48:13.106719,2,-8,3,0,0,0,85,87,116,90,46,132.99,345,19.00,-25.00,-1063.00
2024-05-19 08:48:13.214001,1,-8,3,0,-1,0,85,87,117,90,46,133.07,346,12.00,-11.00,-975.00
2024-05-19 08:48:13.310642,1,-5,3,0,-3,0,85,87,117,90,46,133.00,346,10.00,46.00,-993.00
2024-05-19 08:48:13.418009,1,-3,4,0,-4,0,85,87,117,90,46,132.99,346,23.00,32.00,-1019.00
2024-05-19 08:48:13.514628,0,0,4,0,-3,0,84,87,118,90,46,133.08,346,44.00,17.00,-1006.00
2024-05-19 08:48:13.622847,0,1,4,0,-3,0,84,87,119,90,46,133.02,346,30.00,52.00,-974.00
2024-05-19 08:48:13.718645,0,0,4,0,-2,0,84,87,119,90,46,133.03,346,36.00,20.00,-980.00
2024-05-19 08:48:13.856968,1,0,4,0,-2,0,84,87,120,90,46,133.10,346,-14.00,42.00,-967.00
2024-05-19 08:48:13.923795,1,-1,4,0,-2,0,84,87,122,90,46,133.09,346,71.00,13.00,-963.00
2024-05-19 08:48:14.032418,1,-1,3,0,-2,0,84,87,123,90,46,133.10,346,35.00,0.00,-943.00
2024-05-19 08:48:14.076644,1,-1,3,0,-2,0,84,87,124,90,46,133.13,346,-14.00,49.00,-1035.00
2024-05-19 08:48:14.237185,1,-1,3,0,-2,0,84,87,124,90,46,133.13,347,-1.00,49.00,-1050.00
2024-05-19 08:48:14.280595,1,-1,3,0,-2,0,84,87,126,90,46,133.16,347,53.00,14.00,-997.00
2024-05-19 08:48:14.442038,1,-1,3,0,-2,0,84,87,127,90,46,133.17,347,24.00,7.00,-977.00
2024-05-19 08:48:14.484702,1,0,3,0,-2,0,85,88,127,90,45,133.10,347,21.00,-9.00,-999.00
2024-05-19 08:48:14.646818,1,0,4,0,-2,0,85,88,128,90,45,133.16,347,37.00,20.00,-976.00
2024-05-19 08:48:14.689489,1,1,4,0,-2,0,85,88,129,90,45,133.11,347,-22.00,29.00,-982.00
2024-05-19 08:48:14.790587,1,4,4,0,-1,0,85,88,129,90,45,133.12,347,36.00,2.00,-985.00
2024-05-19 08:48:14.954000,0,3,4,0,0,0,85,88,130,90,45,133.03,347,17.00,26.00,-978.00
2024-05-19 08:48:14.994665,1,0,4,0,0,0,85,88,130,90,45,133.17,347,58.00,-27.00,-974.00
2024-05-19 08:48:15.158900,1,0,3,0,0,0,85,88,130,90,45,133.14,347,-3.00,3.00,-988.00
2024-05-19 08:48:15.198867,0,0,3,0,0,0,85,88,131,100,45,133.12,348,18.00,-4.00,-963.00
2024-05-19 08:48:15.363917,0,0,3,0,0,0,85,88,131,100,45,133.13,348,12.00,15.00,-953.00
2024-05-19 08:48:15.402705,0,0,3,0,0,0,85,88,132,100,45,133.14,348,65.00,3.00,-1063.00
2024-05-19 08:48:15.568544,0,0,3,0,0,0,85,87,131,100,45,133.12,348,-4.00,31.00,-919.00
2024-05-19 08:48:15.606668,0,0,3,0,0,0,85,87,132,100,45,133.20,348,16.00,31.00,-952.00
2024-05-19 08:48:15.773625,0,0,3,0,0,0,85,87,132,100,45,133.16,348,28.00,-14.00,-1020.00
2024-05-19 08:48:15.810585,0,0,3,0,0,0,85,87,132,100,45,133.20,348,39.00,21.00,-1008.00
2024-05-19 08:48:15.978256,0,0,3,0,0,0,85,87,133,100,45,133.19,348,-31.00,13.00,-1019.00
2024-05-19 08:48:16.014678,0,0,3,0,0,0,85,87,133,100,45,133.15,348,48.00,-12.00,-1036.00
2024-05-19 08:48:16.182983,0,0,4,0,0,0,85,87,134,100,45,133.26,348,20.00,-18.00,-965.00
2024-05-19 08:48:16.218675,0,0,4,0,0,0,85,87,133,100,45,133.16,349,22.00,30.00,-989.00
2024-05-19 08:48:16.388500,0,0,4,0,0,0,85,87,134,100,45,133.12,349,23.00,11.00,-1047.00
2024-05-19 08:48:16.422696,0,0,4,0,0,0,85,87,135,100,45,133.19,349,0.00,20.00,-990.00
2024-05-19 08:48:16.603319,0,0,4,0,0,0,84,87,135,100,45,133.20,349,15.00,27.00,-1036.00
2024-05-19 08:48:16.626684,1,0,4,0,0,0,84,87,136,100,45,133.25,349,29.00,10.00,-1047.00
2024-05-19 08:48:16.797427,1,0,3,0,0,0,84,87,135,100,45,133.17,349,21.00,-1.00,-960.00
2024-05-19 08:48:16.831040,1,0,3,0,0,0,84,87,136,100,45,133.12,349,13.00,9.00,-1006.00
2024-05-19 08:48:16.957071,0,0,3,0,0,0,84,87,135,100,45,133.18,349,26.00,13.00,-1002.00
2024-05-19 08:48:17.034879,0,0,3,0,0,0,84,87,134,100,45,133.20,349,48.00,-3.00,-1010.00
2024-05-19 08:48:17.206778,0,0,3,0,0,0,84,87,134,100,45,133.21,349,-12.00,20.00,-988.00
2024-05-19 08:48:17.239610,0,6,4,0,0,0,84,87,135,100,45,133.15,350,70.00,-20.00,-1073.00
2024-05-19 08:48:17.411487,0,7,4,0,1,0,84,87,134,100,45,133.18,350,-14.00,-9.00,-955.00
2024-05-19 08:48:17.444569,0,5,4,0,3,0,84,87,133,100,44,133.17,350,-9.00,38.00,-961.00
2024-05-19 08:48:17.545161,0,2,4,0,3,0,84,87,132,100,44,133.19,350,43.00,-20.00,-1037.00
2024-05-19 08:48:17.718781,0,0,4,0,3,0,84,87,131,100,44,133.16,350,11.00,-12.00,-995.00
2024-05-19 08:48:17.749124,0,-1,4,0,3,0,84,87,131,100,44,133.17,350,13.00,-18.00,-1009.00
2024-05-19 08:48:17.925402,0,-1,3,0,2,0,84,87,130,90,44,133.17,350,-13.00,3.00,-980.00
2024-05-19 08:48:17.952430,0,0,3,0,2,0,84,87,129,90,44,133.11,350,34.00,-21.00,-1059.00
2024-05-19 08:48:18.128351,0,0,3,0,2,0,84,87,128,90,44,133.21,350,18.00,-20.00,-964.00
2024-05-19 08:48:18.131379,1,0,3,0,2,0,84,87,128,90,44,133.11,350,-12.00,0.00,-987.00
2024-05-19 08:48:18.207701,1,0,3,0,2,0,84,87,127,90,44,133.16,351,31.00,-33.00,-1004.00
2024-05-19 08:48:18.333156,0,0,3,0,2,0,84,87,126,90,44,133.06,351,17.00,-30.00,-964.00
2024-05-19 08:48:18.411487,0,0,3,0,2,0,84,87,126,90,44,133.00,351,4.00,3.00,-1006.00
2024-05-19 08:48:18.564363,0,0,3,0,2,0,85,88,126,90,44,133.01,351,5.00,-17.00,-1048.00
2024-05-19 08:48:18.615704,0,0,3,0,2,0,85,88,126,90,44,133.08,351,-27.00,-12.00,-997.00
2024-05-19 08:48:18.724613,0,0,3,0,2,0,85,88,126,90,44,133.13,351,17.00,-6.00,-1022.00
2024-05-19 08:48:18.819382,0,-1,3,0,2,0,85,88,127,90,44,133.10,351,5.00,3.00,-957.00
2024-05-19 08:48:18.947561,1,-3,3,0,1,0,85,88,127,90,44,133.13,351,40.00,-10.00,-1014.00
2024-05-19 08:48:19.023902,1,-4,3,0,1,0,85,88,127,90,44,133.20,351,32.00,-6.00,-1129.00
2024-05-19 08:48:19.125495,0,-2,3,0,0,0,85,88,128,90,44,133.15,351,-8.00,0.00,-954.00
2024-05-19 08:48:19.255165,0,0,3,0,0,0,85,88,128,90,44,133.13,352,-4.00,-4.00,-1006.00
2024-05-19 08:48:19.330312,0,0,3,0,0,0,85,88,128,90,44,133.17,352,33.00,-20.00,-1048.00
2024-05-19 08:48:19.459715,0,0,3,0,0,0,85,88,128,90,44,133.10,352,27.00,9.00,-1002.00
2024-05-19 08:48:19.533580,0,0,3,0,0,0,84,87,128,90,44,133.13,352,16.00,24.00,-994.00
2024-05-19 08:48:19.664535,0,0,3,0,0,0,84,87,128,90,44,133.07,352,-14.00,15.00,-959.00
2024-05-19 08:48:19.738990,1,0,3,0,0,0,84,87,128,90,44,133.12,352,52.00,-24.00,-1044.00
2024-05-19 08:48:19.869630,1,0,3,0,0,0,84,87,127,90,44,133.08,352,28.00,17.00,-990.00
2024-05-19 08:48:19.942470,1,0,3,0,0,0,84,87,127,90,44,133.09,352,11.00,0.00,-1010.00
2024-05-19 08:48:20.074480,1,0,3,0,0,0,84,87,127,90,44,133.08,352,0.00,15.00,-1020.00
2024-05-19 08:48:20.146423,1,0,3,0,0,0,84,87,127,90,44,133.04,352,42.00,18.00,-986.00
2024-05-19 08:48:20.278908,0,0,3,0,0,0,84,87,126,90,44,133.04,353,60.00,-25.00,-1023.00
2024-05-19 08:48:20.350535,0,0,3,0,0,0,84,87,126,90,44,133.05,353,3.00,-5.00,-991.00
2024-05-19 08:48:20.483650,0,0,3,0,0,0,84,87,126,90,43,133.09,353,22.00,-3.00,-971.00
2024-05-19 08:48:20.554410,0,0,4,0,0,0,84,88,126,90,43,133.11,353,30.00,13.00,-956.00
2024-05-19 08:48:20.688574,0,0,4,0,0,0,84,88,125,90,43,133.07,353,-21.00,20.00,-950.00
2024-05-19 08:48:20.758725,0,0,4,0,0,0,84,88,124,90,43,133.14,353,23.00,-10.00,-983.00
2024-05-19 08:48:20.893849,0,0,4,0,0,0,84,88,124,90,43,133.14,353,30.00,-10.00,-955.00
2024-05-19 08:48:20.963774,0,0,4,0,0,0,84,88,124,90,43,133.11,353,34.00,-13.00,-999.00
2024-05-19 08:48:21.077201,0,0,4,0,0,0,84,88,123,90,43,133.05,353,8.00,33.00,-1004.00
2024-05-19 08:48:21.166663,0,0,4,0,0,0,84,88,122,90,43,133.17,353,22.00,10.00,-1006.00
2024-05-19 08:48:21.302717,0,0,4,0,0,0,84,88,122,90,43,133.03,354,38.00,7.00,-981.00
2024-05-19 08:48:21.370715,0,0,10,0,0,0,84,88,121,90,43,133.14,354,10.00,4.00,-982.00
2024-05-19 08:48:21.507468,0,0,16,0,0,0,84,88,121,90,43,133.04,354,10.00,0.00,-1006.00
2024-05-19 08:48:21.574251,1,0,22,0,0,0,84,87,120,90,43,133.04,354,24.00,-17.00,-1054.00
2024-05-19 08:48:21.712333,1,0,28,0,0,0,84,87,120,90,43,133.05,354,27.00,7.00,-1021.00
2024-05-19 08:48:21.782359,1,0,34,0,0,0,84,87,119,90,43,133.05,354,55.00,-9.00,-997.00
2024-05-19 08:48:21.880131,1,1,40,0,0,0,84,87,118,90,43,133.05,354,32.00,25.00,-1003.00
2024-05-19 08:48:22.019535,0,0,46,0,0,0,84,87,117,90,43,133.03,354,44.00,-21.00,-1036.00
2024-05-19 08:48:22.084255,0,0,52,0,0,0,84,87,116,90,43,133.02,354,8.00,-28.00,-973.00
2024-05-19 08:48:22.137300,0,0,58,0,0,0,84,87,115,90,43,132.99,354,10.00,-15.00,-1060.00
2024-05-19 08:48:22.237420,0,0,64,0,0,0,84,87,114,90,43,132.99,355,14.00,-23.00,-926.00
2024-05-19 08:48:22.429149,0,0,70,0,0,0,84,87,113,90,43,132.97,355,-39.00,-2.00,-981.00
2024-05-19 08:48:22.441345,0,0,76,0,0,0,84,87,113,90,43,132.99,355,-13.00,-4.00,-1027.00
2024-05-19 08:48:22.633915,0,0,82,0,0,0,84,87,112,80,43,133.00,355,-35.00,-26.00,-1016.00
2024-05-19 08:48:22.645192,0,0,89,0,0,0,84,87,112,80,43,133.03,355,-46.00,-1.00,-972.00
2024-05-19 08:48:22.838944,0,1,95,0,0,0,84,87,112,80,43,133.03,355,20.00,-34.00,-980.00
2024-05-19 08:48:22.849187,0,0,101,0,0,0,84,87,112,80,43,133.02,355,0.00,-12.00,-1015.00
2024-05-19 08:48:23.043485,0,0,107,0,0,0,84,87,113,80,43,133.00,355,17.00,-25.00,-1073.00
2024-05-19 08:48:23.053166,0,0,113,0,0,0,84,87,114,80,43,132.99,355,-28.00,-5.00,-1018.00
2024-05-19 08:48:23.248301,0,0,118,0,0,0,84,87,115,80,43,132.96,355,-24.00,-1.00,-994.00
2024-05-19 08:48:23.257149,0,0,124,0,0,-1,84,87,117,90,43,133.08,356,-29.00,-3.00,-965.00
2024-05-19 08:48:23.453149,-1,0,130,0,0,0,84,87,119,90,43,133.03,356,-31.00,11.00,-930.00
2024-05-19 08:48:23.462753,-1,0,135,0,0,0,84,87,120,90,43,133.03,356,-39.00,-12.00,-949.00
2024-05-19 08:48:23.563442,-1,0,141,0,0,0,84,87,122,90,43,133.04,356,-61.00,23.00,-1061.00
2024-05-19 08:48:23.760303,-1,0,153,0,0,-1,84,87,124,90,43,133.09,356,-47.00,1.00,-1000.00
2024-05-19 08:48:23.768957,-1,0,159,0,0,0,84,87,125,90,43,133.03,356,-50.00,2.00,-972.00
2024-05-19 08:48:23.965096,-1,0,165,0,0,0,84,87,127,90,43,133.07,356,-28.00,4.00,-1020.00
2024-05-19 08:48:23.974102,-1,0,171,0,0,0,84,87,128,90,43,133.13,356,2.00,3.00,-1030.00
2024-05-19 08:48:24.074703,-1,0,177,0,0,0,84,87,128,100,43,133.09,356,-12.00,0.00,-946.00
2024-05-19 08:48:24.272308,-1,0,-176,0,0,0,84,87,129,100,43,133.14,357,-24.00,10.00,-939.00
2024-05-19 08:48:24.278145,-1,0,-170,0,0,0,84,87,128,100,43,133.08,357,-11.00,0.00,-937.00
2024-05-19 08:48:24.477095,-1,0,-164,0,0,0,84,87,128,100,43,133.08,357,-25.00,4.00,-1055.00
2024-05-19 08:48:24.485994,-1,0,-158,0,0,0,84,87,127,90,42,133.09,357,-13.00,3.00,-993.00
2024-05-19 08:48:24.584019,-1,0,-152,0,0,0,84,87,126,90,42,133.04,357,42.00,-24.00,-1021.00
2024-05-19 08:48:24.784359,0,0,-146,0,0,0,84,87,125,90,42,133.06,357,-2.00,5.00,-1057.00
2024-05-19 08:48:24.787968,0,0,-140,0,0,0,84,87,124,90,42,133.04,357,-7.00,3.00,-1035.00
2024-05-19 08:48:24.989056,0,-1,-134,0,0,0,84,87,123,90,42,133.08,357,-1.00,-13.00,-1040.00
2024-05-19 08:48:24.991981,0,0,-128,0,0,0,84,87,122,90,42,133.04,357,-13.00,30.00,-1043.00
2024-05-19 08:48:25.094564,0,-1,-122,0,0,0,84,87,121,90,42,133.09,357,-6.00,20.00,-967.00
2024-05-19 08:48:25.196003,0,-1,-116,0,0,0,84,87,121,90,42,133.07,358,-3.00,-7.00,-993.00
2024-05-19 08:48:25.298091,0,-1,-109,0,0,0,84,87,120,90,42,132.98,358,19.00,22.00,-1039.00
2024-05-19 08:48:25.501067,0,-1,-103,0,0,0,84,87,120,90,42,133.05,358,-1.00,39.00,-1047.00
2024-05-19 08:48:25.502074,0,-1,-97,0,0,0,84,87,120,90,42,133.15,358,-35.00,26.00,-992.00
2024-05-19 08:48:25.705990,0,-1,-91,0,0,0,84,87,121,90,42,133.08,358,9.00,30.00,-1041.00
2024-05-19 08:48:25.710097,0,-1,-85,0,0,0,84,87,121,90,42,133.11,358,43.00,8.00,-999.00
2024-05-19 08:48:25.808341,0,0,-79,0,0,0,84,87,123,90,42,133.06,358,43.00,-1.00,-990.00
2024-05-19 08:48:25.910669,1,0,-73,0,0,0,84,87,124,90,42,133.02,358,-3.00,18.00,-976.00
2024-05-19 08:48:26.013089,1,0,-67,0,0,0,84,87,124,90,42,133.03,358,19.00,8.00,-1009.00
2024-05-19 08:48:26.064364,1,0,-61,0,0,0,84,87,125,90,42,133.02,358,17.00,-3.00,-983.00
2024-05-19 08:48:26.221496,1,0,-55,0,0,0,84,87,125,90,42,133.05,359,-1.00,15.00,-976.00
2024-05-19 08:48:26.267203,1,0,-49,0,0,0,84,87,125,90,42,133.01,359,14.00,9.00,-954.00
2024-05-19 08:48:26.422692,1,0,-43,0,0,0,84,87,124,90,42,133.04,359,22.00,1.00,-1024.00
2024-05-19 08:48:26.471069,1,0,-37,0,0,0,84,87,124,90,42,133.05,359,40.00,9.00,-963.00
2024-05-19 08:48:26.627493,1,1,-31,0,0,0,83,88,122,90,42,133.07,359,0.00,-17.00,-1004.00
2024-05-19 08:48:26.726211,1,1,-24,0,0,0,83,88,121,90,42,133.04,359,40.00,-8.00,-996.00
2024-05-19 08:48:26.777282,0,0,-18,0,0,0,83,88,121,90,42,133.06,359,2.00,-12.00,-942.00
2024-05-19 08:48:26.934638,0,0,-13,0,0,0,83,88,120,90,42,133.00,359,-21.00,18.00,-1004.00
2024-05-19 08:48:26.981071,0,0,-8,0,0,0,83,88,119,90,42,133.04,359,14.00,-9.00,-1041.00
2024-05-19 08:48:27.083031,0,0,-5,0,0,0,83,88,119,90,42,133.02,359,8.00,-28.00,-1048.00
2024-05-19 08:48:27.241870,0,0,-3,0,0,0,83,88,119,90,42,133.00,360,9.00,-26.00,-1045.00
2024-05-19 08:48:27.287280,0,0,-1,0,0,0,83,88,120,90,42,133.05,360,18.00,-19.00,-997.00
2024-05-19 08:48:27.446753,0,0,0,0,0,0,83,88,120,90,42,133.05,360,22.00,-28.00,-1024.00
2024-05-19 08:48:27.491110,0,0,1,0,0,0,83,88,121,90,41,132.97,360,-7.00,-22.00,-1055.00
2024-05-19 08:48:27.651436,0,0,1,0,0,0,84,87,122,90,41,133.03,360,-31.00,12.00,-976.00
2024-05-19 08:48:27.695554,0,0,2,0,0,0,84,87,123,90,41,133.06,360,-26.00,0.00,-994.00
2024-05-19 08:48:27.797241,0,0,2,0,0,0,84,87,124,90,41,133.09,360,-16.00,13.00,-962.00
2024-05-19 08:48:27.958897,0,0,2,0,0,0,84,87,124,90,41,133.10,360,0.00,-36.00,-967.00
2024-05-19 08:48:28.001226,0,0,2,0,0,0,84,87,125,90,41,133.04,360,10.00,-34.00,-988.00
2024-05-19 08:48:28.103512,0,0,2,0,0,0,84,87,125,90,41,133.12,360,9.00,-17.00,-957.00
2024-05-19 08:48:28.265908,0,0,2,0,0,0,84,87,126,90,41,133.08,361,24.00,-15.00,-988.00
2024-05-19 08:48:28.307119,0,0,2,0,0,0,84,87,126,90,41,133.12,361,-42.00,17.00,-953.00
2024-05-19 08:48:28.470792,0,0,2,0,0,0,84,87,127,90,41,133.17,361,19.00,-3.00,-1011.00
2024-05-19 08:48:28.511707,0,0,2,0,0,0,84,87,127,90,41,133.07,361,11.00,10.00,-955.00
2024-05-19 08:48:28.613033,0,0,2,0,0,0,84,87,127,90,41,133.11,361,46.00,-1.00,-1039.00
2024-05-19 08:48:28.781337,1,0,2,0,0,0,84,87,128,90,41,133.17,361,-23.00,8.00,-949.00
2024-05-19 08:48:28.819753,1,0,2,0,0,0,84,87,129,90,41,133.15,361,24.00,-16.00,-1054.00
2024-05-19 08:48:28.920594,1,0,2,0,0,0,84,87,129,90,41,133.14,361,76.00,-17.00,-968.00
2024-05-19 08:48:29.021279,1,0,2,0,0,0,84,87,130,100,41,133.20,361,31.00,-1.00,-973.00
2024-05-19 08:48:29.187679,1,0,2,0,0,0,84,87,130,100,41,133.16,361,48.00,2.00,-953.00
2024-05-19 08:48:29.224920,1,0,2,0,0,0,84,87,130,100,41,133.13,362,26.00,0.00,-963.00
2024-05-19 08:48:29.392421,1,0,2,0,0,0,84,87,130,100,41,133.13,362,42.00,-6.00,-1045.00
2024-05-19 08:48:29.428934,1,0,2,0,0,0,84,87,130,100,41,133.08,362,59.00,-42.00,-989.00
2024-05-19 08:48:29.597136,1,0,2,0,0,0,84,87,129,100,41,133.17,362,49.00,18.00,-994.00
2024-05-19 08:48:29.633486,1,0,2,0,0,0,83,86,130,100,41,133.12,362,10.00,-15.00,-954.00
2024-05-19 08:48:29.735305,1,0,2,0,0,0,83,86,130,100,41,133.09,362,11.00,13.00,-954.00
2024-05-19 08:48:29.836950,1,0,0,0,0,0,83,86,129,100,41,133.09,362,-13.00,25.00,-983.00
2024-05-19 08:48:30.006610,0,0,-5,0,0,0,83,86,128,100,41,133.11,362,43.00,-10.00,-1012.00
2024-05-19 08:48:30.040897,0,0,-11,0,0,0,83,86,127,90,41,133.08,362,30.00,4.00,-1005.00
2024-05-19 08:48:30.142831,0,0,-16,0,0,0,83,86,126,90,41,133.18,362,-23.00,15.00,-962.00
2024-05-19 08:48:30.193793,0,0,-22,0,0,0,83,86,125,90,41,133.24,363,15.00,-11.00,-1050.00
2024-05-19 08:48:30.313829,0,-1,-28,0,0,0,83,86,125,90,41,133.05,363,9.00,3.00,-1037.00
2024-05-19 08:48:30.397801,0,-1,-34,0,0,0,83,86,124,90,40,133.18,363,29.00,25.00,-1037.00
2024-05-19 08:48:30.518611,0,-1,-39,0,0,0,83,86,124,90,40,133.10,363,-33.00,54.00,-1006.00
2024-05-19 08:48:30.653054,0,-1,-45,0,0,0,84,87,124,90,40,133.12,363,36.00,-12.00,-1009.00
2024-05-19 08:48:30.703886,0,-1,-51,0,0,0,84,87,124,90,40,133.08,363,15.00,-10.00,-1012.00
2024-05-19 08:48:30.805773,0,-1,-57,0,0,0,84,87,123,90,40,133.06,363,-19.00,39.00,-1004.00
2024-05-19 08:48:30.928157,0,0,-62,0,0,0,84,87,123,90,40,133.05,363,-14.00,20.00,-958.00
2024-05-19 08:48:31.009739,0,-1,-68,0,0,0,84,87,123,90,40,133.04,363,-7.00,14.00,-1029.00
2024-05-19 08:48:31.111794,0,-1,-75,0,0,0,84,87,123,90,40,133.06,363,-8.00,24.00,-988.00
2024-05-19 08:48:31.235334,0,0,-81,0,0,0,84,87,124,90,40,133.07,364,5.00,3.00,-972.00
2024-05-19 08:48:31.315733,-1,-1,-87,0,0,0,84,87,124,90,40,133.09,364,-10.00,3.00,-1006.00
2024-05-19 08:48:31.440196,-1,-1,-93,0,0,0,84,87,124,90,40,133.12,364,-29.00,37.00,-1054.00
2024-05-19 08:48:31.519771,-1,-2,-100,0,0,0,84,87,125,90,40,133.10,364,-21.00,38.00,-983.00
2024-05-19 08:48:31.644977,-1,-1,-106,0,0,0,84,87,125,90,40,133.08,364,27.00,-27.00,-1011.00
2024-05-19 08:48:31.723856,-1,-1,-112,0,0,0,84,87,125,90,40,133.15,364,-51.00,23.00,-955.00
2024-05-19 08:48:31.825723,-1,-1,-118,0,0,0,84,87,125,90,40,133.14,364,-5.00,-14.00,-1002.00
2024-05-19 08:48:31.952215,-1,-1,-124,0,0,0,84,87,125,90,40,133.10,364,-29.00,28.00,-1035.00
2024-05-19 08:48:32.029741,-1,0,-130,0,0,0,84,87,125,90,40,133.13,364,3.00,15.00,-972.00
2024-05-19 08:48:32.156989,-1,0,-136,0,0,0,84,87,124,90,40,133.13,364,-20.00,29.00,-985.00
2024-05-19 08:48:32.233808,-1,0,-141,0,0,0,84,87,123,90,40,133.10,365,-12.00,2.00,-1037.00
2024-05-19 08:48:32.361777,-1,0,-147,0,0,0,84,87,123,90,40,133.11,365,-32.00,-9.00,-1062.00
2024-05-19 08:48:32.437815,-1,0,-153,0,0,0,84,87,122,90,40,132.98,365,-2.00,-3.00,-1037.00
2024-05-19 08:48:32.566575,-1,0,-159,0,0,0,84,87,121,90,40,133.07,365,-35.00,-18.00,-965.00
2024-05-19 08:48:32.641692,-1,0,-165,0,0,0,83,87,120,90,40,133.01,365,0.00,-50.00,-996.00
2024-05-19 08:48:32.771307,-1,0,-170,0,0,0,83,87,120,90,40,133.10,365,-94.00,116.00,-995.00
2024-05-19 08:48:32.845652,-1,0,-175,0,0,0,83,87,120,90,40,132.98,365,79.00,-147.00,-1079.00
2024-05-19 08:48:32.976179,-1,0,179,0,0,0,83,87,120,90,40,133.03,365,17.00,-96.00,-1055.00
2024-05-19 08:48:33.049622,-1,0,173,0,0,0,83,87,121,90,40,132.92,365,-122.00,112.00,-986.00
2024-05-19 08:48:33.181002,-2,0,168,0,0,0,83,87,121,90,40,133.05,365,18.00,-94.00,-1039.00
2024-05-19 08:48:33.253630,-3,-1,162,0,0,0,83,87,121,90,40,133.10,366,3.00,-88.00,-1013.00
2024-05-19 08:48:33.385792,-2,0,157,0,0,0,83,87,122,90,40,133.11,366,-132.00,106.00,-995.00
2024-05-19 08:48:33.457852,-2,0,152,0,0,0,83,87,122,90,40,133.05,366,-11.00,-39.00,-997.00
2024-05-19 08:48:33.590550,-2,0,147,0,0,0,83,87,123,90,40,133.06,366,-53.00,-22.00,-991.00
2024-05-19 08:48:33.661629,-3,0,142,0,0,0,83,86,122,90,40,133.09,366,-38.00,-21.00,-967.00
2024-05-19 08:48:33.763586,-3,0,137,0,0,0,83,86,123,90,40,133.15,366,-66.00,24.00,-1046.00
2024-05-19 08:48:33.897805,-2,0,132,0,0,0,83,86,124,90,40,133.08,366,-7.00,-34.00,-1024.00
2024-05-19 08:48:33.967641,-1,0,126,0,0,0,83,86,123,90,40,133.17,366,-31.00,-40.00,-998.00
2024-05-19 08:48:34.069624,-1,0,121,0,0,0,83,86,124,90,40,133.12,366,-47.00,-1.00,-977.00
2024-05-19 08:48:34.171736,-1,0,116,0,0,0,83,86,123,90,40,133.16,366,-62.00,16.00,-989.00
2024-05-19 08:48:34.307280,-1,0,111,0,0,0,83,86,123,90,40,133.14,367,-11.00,-47.00,-1011.00
2024-05-19 08:48:34.324763,-2,0,106,0,0,0,83,86,122,90,40,133.05,367,-108.00,98.00,-986.00
2024-05-19 08:48:34.512110,-2,0,101,0,0,0,83,86,122,90,40,133.02,367,46.00,-119.00,-1021.00
2024-05-19 08:48:34.528668,-1,0,96,0,0,0,83,86,122,90,40,133.11,367,-101.00,91.00,-1005.00
2024-05-19 08:48:34.716927,-1,0,91,0,0,0,84,86,121,90,40,133.06,367,61.00,-112.00,-1018.00
2024-05-19 08:48:34.783566,-1,0,86,0,0,0,84,86,121,90,40,133.06,367,-15.00,-4.00,-1047.00
2024-05-19 08:48:34.834884,-1,0,81,0,0,0,84,86,121,90,40,133.07,367,11.00,-107.00,-1013.00
2024-05-19 08:48:35.024146,-1,0,75,0,0,0,84,86,120,90,40,133.10,367,-59.00,18.00,-1039.00
2024-05-19 08:48:35.038712,-2,0,70,0,0,0,84,86,120,90,40,133.14,367,-50.00,20.00,-997.00
2024-05-19 08:48:35.228927,-2,0,64,0,0,0,84,86,120,90,40,133.06,367,5.00,-72.00,-1033.00
2024-05-19 08:48:35.242569,-2,0,59,0,0,0,84,86,121,90,40,133.02,368,-88.00,24.00,-990.00
2024-05-19 08:48:35.433762,-1,0,53,0,0,0,84,86,121,90,40,133.05,368,-17.00,-43.00,-1024.00
2024-05-19 08:48:35.446645,-1,1,47,0,0,0,84,86,121,90,39,133.05,368,-42.00,-26.00,-959.00
2024-05-19 08:48:35.548496,-2,1,41,0,0,0,84,86,121,90,39,133.12,368,-6.00,-31.00,-1014.00
2024-05-19 08:48:35.740929,-2,1,35,0,0,0,83,86,121,90,39,133.07,368,15.00,-80.00,-1034.00
2024-05-19 08:48:35.752477,-1,1,29,0,0,0,83,86,122,90,39,133.03,368,15.00,-69.00,-993.00
2024-05-19 08:48:35.854759,-1,1,23,0,0,0,83,86,122,90,39,133.11,368,-43.00,20.00,-942.00
2024-05-19 08:48:36.048142,-1,1,18,0,0,0,83,86,122,90,39,133.08,368,20.00,-117.00,-977.00
2024-05-19 08:48:36.058419,-1,1,14,0,0,0,83,86,123,90,39,133.09,368,4.00,-51.00,-1006.00
2024-05-19 08:48:36.252938,0,2,11,0,0,0,83,86,123,90,39,133.08,368,-57.00,31.00,-972.00
2024-05-19 08:48:36.262558,0,2,9,0,0,0,83,86,123,90,39,133.14,369,39.00,-123.00,-1040.00
2024-05-19 08:48:36.457825,0,2,7,0,0,0,83,86,123,90,39,133.06,369,-22.00,-46.00,-998.00
2024-05-19 08:48:36.466614,0,2,6,0,0,0,83,86,123,90,39,133.12,369,-9.00,-71.00,-1008.00
2024-05-19 08:48:36.662691,-1,2,4,0,0,0,83,86,124,90,39,133.16,369,-24.00,-53.00,-985.00
2024-05-19 08:48:36.670534,0,2,4,0,0,0,84,87,124,90,39,133.17,369,25.00,-117.00,-1022.00
2024-05-19 08:48:36.867667,0,3,4,0,0,0,84,87,124,90,39,133.19,369,-14.00,-62.00,-985.00
2024-05-19 08:48:36.875502,0,3,4,0,0,0,84,87,124,90,39,133.27,369,-67.00,34.00,-1023.00
2024-05-19 08:48:37.044141,0,2,3,0,0,0,84,87,123,90,39,133.24,369,-66.00,-33.00,-991.00
2024-05-19 08:48:37.079541,0,2,4,0,0,0,84,87,123,90,39,133.18,369,-123.00,65.00,-966.00
2024-05-19 08:48:37.276954,0,2,4,0,0,0,84,87,123,90,39,133.21,370,-65.00,-21.00,-991.00
2024-05-19 08:48:37.283621,-1,3,4,0,0,0,84,87,123,90,39,132.96,370,-47.00,6.00,-969.00
2024-05-19 08:48:37.481815,-1,3,3,0,0,0,84,87,122,90,39,133.02,370,-140.00,105.00,-921.00
2024-05-19 08:48:37.487565,0,2,3,0,0,0,84,87,122,90,38,133.02,370,69.00,-178.00,-1052.00
2024-05-19 08:48:37.686727,0,2,3,0,0,0,84,87,121,90,38,133.06,370,-27.00,-17.00,-1014.00
2024-05-19 08:48:37.691693,0,2,3,0,0,0,84,86,120,90,38,133.08,370,9.00,-64.00,-1006.00
2024-05-19 08:48:37.891641,0,2,3,0,0,0,84,86,121,90,38,133.12,370,28.00,-106.00,-992.00
2024-05-19 08:48:37.896698,0,2,3,0,0,0,84,86,120,90,38,133.06,370,14.00,-98.00,-1028.00
2024-05-19 08:48:38.096316,0,2,3,0,0,0,84,86,120,90,38,132.97,370,32.00,-67.00,-1005.00
2024-05-19 08:48:38.100636,-1,2,3,0,0,0,84,86,120,90,38,132.94,370,21.00,-98.00,-971.00
2024-05-19 08:48:38.301063,0,2,3,0,0,0,84,86,120,90,38,133.04,371,-22.00,-45.00,-1014.00
2024-05-19 08:48:38.304613,0,2,3,0,0,0,84,86,121,90,38,132.96,371,-25.00,-31.00,-1002.00
2024-05-19 08:48:38.355673,0,2,3,0,0,0,84,86,120,90,38,132.96,371,-34.00,-40.00,-988.00
2024-05-19 08:48:38.505961,0,2,3,0,0,0,84,86,121,90,38,133.00,371,-5.00,-24.00,-1030.00
2024-05-19 08:48:38.559642,0,1,3,0,0,0,84,86,121,90,38,133.05,371,4.00,-44.00,-1029.00
2024-05-19 08:48:38.666352,0,1,3,0,0,0,84,86,121,90,38,133.05,371,2.00,-49.00,-1004.00
2024-05-19 08:48:38.763618,0,1,3,0,0,0,84,86,122,90,38,133.08,371,23.00,-54.00,-1033.00
2024-05-19 08:48:38.865601,0,2,3,0,0,0,84,86,123,90,38,133.13,371,-3.00,-28.00,-956.00
2024-05-19 08:48:39.017899,1,2,3,0,0,0,84,86,124,90,38,133.15,371,87.00,-22.00,-1017.00
2024-05-19 08:48:39.069606,2,1,3,0,0,0,84,86,124,90,38,133.11,371,41.00,-32.00,-988.00
2024-05-19 08:48:39.222665,2,1,3,0,0,0,84,86,125,90,38,133.07,372,13.00,-25.00,-1001.00
2024-05-19 08:48:39.274378,2,0,3,0,0,0,84,86,124,90,38,132.99,372,53.00,-27.00,-983.00
2024-05-19 08:48:39.427604,1,0,3,0,0,0,84,86,125,90,38,133.04,372,27.00,-16.00,-980.00
2024-05-19 08:48:39.478667,2,0,3,0,0,0,84,86,124,90,38,133.04,372,34.00,-39.00,-1008.00
2024-05-19 08:48:39.632194,2,0,3,0,0,0,84,86,124,90,38,133.10,372,2.00,-18.00,-999.00
2024-05-19 08:48:39.683459,1,1,3,0,0,0,83,86,123,90,38,133.03,372,20.00,-39.00,-977.00
2024-05-19 08:48:39.785885,1,1,3,0,0,0,83,86,123,90,38,133.08,372,53.00,-72.00,-1006.00
2024-05-19 08:48:39.886750,1,1,3,0,0,0,83,86,122,90,38,133.07,372,41.00,-43.00,-1035.00
2024-05-19 08:48:39.989033,1,1,3,0,0,0,83,86,122,90,38,133.02,372,-23.00,12.00,-1001.00
2024-05-19 08:48:40.093219,1,1,3,0,0,0,83,86,122,90,38,133.12,372,25.00,-49.00,-1017.00
2024-05-19 08:48:40.192967,1,1,3,0,0,0,83,86,122,90,38,133.04,373,15.00,-30.00,-1022.00
2024-05-19 08:48:40.349070,2,2,3,0,0,0,83,86,122,90,38,133.02,373,49.00,-27.00,-1000.00
2024-05-19 08:48:40.396568,1,2,3,0,0,0,83,86,123,90,38,133.07,373,25.00,-44.00,-974.00
2024-05-19 08:48:40.553856,1,1,3,0,0,0,83,86,123,90,38,133.08,373,0.00,-23.00,-973.00
2024-05-19 08:48:40.600637,1,1,3,0,0,0,83,86,123,90,38,133.08,373,25.00,-16.00,-984.00
2024-05-19 08:48:40.758667,1,1,3,0,0,0,84,86,123,90,38,133.09,373,56.00,-33.00,-946.00
2024-05-19 08:48:40.804425,1,1,3,0,0,0,84,86,124,90,38,133.01,373,42.00,-22.00,-1036.00
2024-05-19 08:48:40.963722,2,1,3,0,0,0,84,86,125,90,38,133.07,373,40.00,-35.00,-990.00
2024-05-19 08:48:41.008399,3,1,3,0,0,0,84,86,125,90,38,133.05,373,34.00,7.00,-1027.00
2024-05-19 08:48:41.168156,3,1,3,0,0,0,84,86,125,90,38,133.06,373,22.00,12.00,-964.00
2024-05-19 08:48:41.212379,2,0,3,0,0,0,84,86,125,90,38,133.05,374,31.00,-18.00,-1123.00
2024-05-19 08:48:41.373509,1,0,3,0,0,0,84,86,126,90,38,133.03,374,49.00,-29.00,-972.00
2024-05-19 08:48:41.417574,1,1,3,0,0,0,84,86,125,90,38,133.05,374,43.00,-47.00,-952.00
2024-05-19 08:48:41.577833,1,0,3,0,0,0,84,86,124,90,38,133.05,374,31.00,-10.00,-1007.00
2024-05-19 08:48:41.620802,1,1,3,0,0,0,84,86,123,90,38,133.01,374,55.00,-37.00,-1013.00
2024-05-19 08:48:41.722650,1,2,3,0,0,0,83,87,122,90,38,133.03,374,16.00,-26.00,-981.00
2024-05-19 08:48:41.884939,2,2,3,0,0,0,83,87,121,90,38,133.03,374,67.00,-38.00,-997.00
2024-05-19 08:48:41.929295,2,2,3,0,0,0,83,87,120,90,38,132.94,374,46.00,-41.00,-1045.00
2024-05-19 08:48:42.028413,2,2,3,0,0,0,83,87,119,90,38,133.07,374,79.00,-14.00,-989.00
2024-05-19 08:48:42.192125,3,1,3,0,0,0,83,87,119,90,38,132.94,374,80.00,0.00,-983.00
2024-05-19 08:48:42.232457,3,1,3,0,0,0,83,87,119,90,38,133.00,375,48.00,-45.00,-1010.00
2024-05-19 08:48:42.283272,3,1,4,0,0,0,83,87,119,90,38,132.97,375,58.00,-75.00,-1025.00
2024-05-19 08:48:42.396954,3,2,4,0,0,0,83,87,120,90,38,132.99,375,25.00,-1.00,-975.00
2024-05-19 08:48:42.487257,2,3,3,0,0,0,83,87,121,90,38,132.97,375,32.00,-19.00,-982.00
2024-05-19 08:48:42.601813,2,2,3,0,0,0,83,87,122,90,38,132.98,375,96.00,-26.00,-1028.00
2024-05-19 08:48:42.691360,2,2,3,0,0,0,84,87,122,90,38,133.00,375,43.00,-15.00,-970.00
2024-05-19 08:48:42.806715,2,2,3,0,0,0,84,87,124,90,38,133.05,375,39.00,-44.00,-988.00
2024-05-19 08:48:42.895302,3,2,3,0,0,0,84,87,125,90,38,133.00,375,13.00,-6.00,-1033.00
2024-05-19 08:48:43.011453,3,2,3,0,0,-1,84,87,127,90,38,133.05,375,58.00,-53.00,-1029.00
2024-05-19 08:48:43.099320,3,2,3,0,0,-1,84,87,129,90,38,133.04,375,100.00,-6.00,-1058.00
2024-05-19 08:48:43.222687,3,1,3,0,0,0,84,87,130,90,38,133.02,376,58.00,-4.00,-933.00
2024-05-19 08:48:43.303373,3,1,3,0,0,0,84,87,130,100,38,133.08,376,69.00,-13.00,-987.00
2024-05-19 08:48:43.422750,3,1,3,0,0,0,84,87,131,100,38,133.05,376,72.00,-14.00,-990.00
2024-05-19 08:48:43.511675,3,1,3,0,0,0,84,87,132,100,38,133.01,376,66.00,-59.00,-962.00
2024-05-19 08:48:43.609304,3,1,3,0,0,0,84,87,132,100,38,133.03,376,57.00,-37.00,-1007.00
2024-05-19 08:48:43.728492,3,2,3,0,0,0,84,87,131,100,38,132.99,376,34.00,-19.00,-982.00
2024-05-19 08:48:43.813448,2,1,4,0,0,0,84,87,131,100,38,133.10,376,56.00,-29.00,-972.00
2024-05-19 08:48:43.933040,3,1,4,0,0,0,84,87,131,100,38,133.12,376,43.00,2.00,-1026.00
2024-05-19 08:48:44.017188,3,1,4,0,0,0,84,87,131,100,38,133.10,376,87.00,-24.00,-986.00
2024-05-19 08:48:44.137765,3,2,3,0,0,0,84,87,131,100,38,133.06,376,16.00,-54.00,-940.00
2024-05-19 08:48:44.222073,2,3,4,0,0,0,84,87,131,100,38,133.05,377,54.00,-46.00,-1025.00
2024-05-19 08:48:44.342664,2,3,4,0,0,0,84,87,130,100,38,133.08,377,8.00,-46.00,-967.00
2024-05-19 08:48:44.425257,2,2,4,0,0,0,84,87,130,100,37,133.03,377,60.00,-42.00,-1001.00
2024-05-19 08:48:44.547654,2,2,4,0,0,0,84,87,130,100,37,133.04,377,43.00,-31.00,-1023.00
2024-05-19 08:48:44.629284,2,2,3,0,0,0,84,87,129,100,37,133.04,377,15.00,-24.00,-947.00
2024-05-19 08:48:44.731216,2,2,3,0,0,0,84,87,129,90,37,133.06,377,45.00,-24.00,-1015.00
2024-05-19 08:48:44.854634,2,3,3,0,0,0,84,87,129,90,37,133.03,377,47.00,-55.00,-1004.00
2024-05-19 08:48:44.935360,1,3,3,0,0,0,84,87,128,90,37,133.06,377,50.00,-26.00,-955.00
2024-05-19 08:48:45.059404,1,2,4,0,0,0,84,87,128,90,37,133.09,377,35.00,-25.00,-947.00
2024-05-19 08:48:45.139272,1,1,4,0,0,0,84,87,128,90,37,132.98,377,41.00,-52.00,-1043.00
2024-05-19 08:48:45.265887,1,1,4,0,0,0,84,87,128,90,37,133.02,378,51.00,-35.00,-1081.00
2024-05-19 08:48:45.343113,1,1,4,0,0,0,84,87,128,90,37,132.98,378,44.00,-39.00,-1025.00
2024-05-19 08:48:45.469005,1,1,4,0,0,0,84,87,128,90,37,133.03,378,25.00,-35.00,-1012.00
2024-05-19 08:48:45.547290,1,2,4,0,0,0,84,87,129,90,37,132.98,378,45.00,-49.00,-1003.00
2024-05-19 08:48:45.673884,2,2,4,0,0,0,84,87,129,90,37,133.01,378,24.00,-38.00,-1037.00
2024-05-19 08:48:45.751193,2,2,4,0,0,0,84,86,129,90,37,133.06,378,64.00,-55.00,-962.00
2024-05-19 08:48:45.853260,2,2,4,0,0,0,84,86,130,90,37,133.09,378,39.00,-48.00,-1050.00
2024-05-19 08:48:45.957486,2,2,4,0,0,0,84,86,130,100,37,133.06,378,35.00,-40.00,-996.00
2024-05-19 08:48:46.057181,1,2,4,0,0,0,84,86,130,100,37,133.06,378,30.00,-32.00,-985.00
2024-05-19 08:48:46.185650,1,2,4,0,0,0,84,86,130,100,37,133.05,378,54.00,-34.00,-1019.00
2024-05-19 08:48:46.261033,0,1,4,0,0,0,84,86,130,100,37,133.08,379,65.00,-66.00,-1004.00
2024-05-19 08:48:46.390525,0,1,4,0,0,0,84,86,129,90,37,133.03,379,59.00,-77.00,-1009.00
2024-05-19 08:48:46.414162,1,2,4,0,0,0,84,86,129,90,37,133.02,379,0.00,-45.00,-1006.00
2024-05-19 08:48:46.595356,1,2,4,0,0,0,84,86,129,90,37,132.98,379,103.00,-84.00,-1045.00
2024-05-19 08:48:46.618159,0,2,4,0,0,0,84,86,129,90,37,132.94,379,8.00,-57.00,-1015.00
2024-05-19 08:48:46.800103,1,3,4,0,0,0,84,86,128,90,37,133.04,379,-4.00,-72.00,-955.00
2024-05-19 08:48:46.822414,0,3,4,0,0,0,84,86,128,90,37,133.00,379,0.00,-41.00,-994.00
2024-05-19 08:48:47.004898,0,3,4,0,0,0,84,86,128,90,37,132.96,379,27.00,-77.00,-1013.00
2024-05-19 08:48:47.026200,0,4,3,0,0,0,84,86,127,90,37,132.98,379,-17.00,-42.00,-986.00
2024-05-19 08:48:47.209713,0,4,3,0,0,0,84,86,127,90,37,133.07,379,-9.00,-46.00,-1014.00
2024-05-19 08:48:47.230136,0,3,3,0,0,0,84,86,126,90,37,133.11,380,25.00,-83.00,-988.00
2024-05-19 08:48:47.414568,0,4,3,0,0,0,84,86,126,90,37,133.01,380,7.00,-85.00,-1019.00
2024-05-19 08:48:47.434304,0,4,3,0,0,0,84,86,126,90,37,133.03,380,36.00,-95.00,-1018.00
2024-05-19 08:48:47.619351,1,4,3,0,0,0,84,86,126,90,37,133.06,380,8.00,-33.00,-1019.00
2024-05-19 08:48:47.638330,1,4,3,0,0,0,84,86,126,90,37,133.12,380,19.00,-85.00,-962.00
2024-05-19 08:48:47.741681,1,4,3,0,0,0,84,87,126,90,37,133.15,380,-1.00,-63.00,-991.00
2024-05-19 08:48:47.843779,1,3,3,0,0,0,84,87,124,90,37,133.12,380,25.00,-76.00,-956.00
2024-05-19 08:48:47.944526,1,3,3,0,0,0,84,87,124,90,37,133.15,380,6.00,-82.00,-987.00
2024-05-19 08:48:48.131391,1,3,4,0,0,0,84,87,124,90,37,133.13,380,46.00,-104.00,-1090.00
2024-05-19 08:48:48.147903,1,4,3,0,0,0,84,87,124,90,37,133.09,380,49.00,-106.00,-1032.00
2024-05-19 08:48:48.336086,0,4,3,0,0,0,84,87,123,90,37,133.06,381,-11.00,-88.00,-919.00
2024-05-19 08:48:48.351869,1,4,3,0,0,0,84,87,123,90,37,133.09,381,25.00,-75.00,-1010.00
