TS,pitch,roll,yaw,vgx,vgy,vgz,templ,temph,tof,h,bat,baro,time,agx,agy,agz
2025-08-06T12:45:27.303559,1,0,0,0,0,0,59,62,10,0,66,155.96,0,20.00,-10.00,-983.00
2025-08-06T12:45:27.404963,1,0,0,0,0,0,59,62,10,0,66,155.93,0,20.00,-10.00,-999.00
2025-08-06T12:45:27.456246,1,0,0,0,0,0,59,62,10,0,66,155.96,0,21.00,-13.00,-1002.00
2025-08-06T12:45:27.605498,1,0,0,0,0,0,59,62,10,0,66,155.91,0,20.00,-13.00,-1003.00
2025-08-06T12:45:27.659738,1,0,0,0,0,0,59,62,10,0,66,155.79,0,22.00,-10.00,-997.00
2025-08-06T12:45:27.809332,1,0,0,0,0,0,59,62,10,0,66,156.00,0,23.00,-14.00,-999.00
2025-08-06T12:45:27.864580,1,0,0,0,0,0,59,62,10,0,66,155.83,0,21.00,-13.00,-998.00
2025-08-06T12:45:28.014332,1,0,0,0,0,0,59,62,10,0,66,155.89,0,22.00,-11.00,-994.00
2025-08-06T12:45:28.068567,1,0,0,0,0,0,59,62,10,0,66,156.08,0,21.00,-13.00,-996.00
2025-08-06T12:45:28.219092,1,0,0,0,0,0,59,62,10,0,66,155.90,0,21.00,-12.00,-1004.00
2025-08-06T12:45:28.272443,1,0,0,0,0,0,59,62,10,0,66,155.83,0,20.00,-14.00,-1004.00
2025-08-06T12:45:28.423909,1,0,0,0,0,0,59,62,10,0,66,156.18,0,23.00,-12.00,-996.00
2025-08-06T12:45:28.476456,1,0,0,0,0,0,59,62,10,0,66,155.98,0,21.00,-11.00,-998.00
2025-08-06T12:45:28.628645,1,0,0,0,0,0,59,62,10,0,66,155.87,0,21.00,-10.00,-997.00
2025-08-06T12:45:28.680514,1,0,0,0,0,0,59,62,10,0,66,155.94,0,20.00,-14.00,-1000.00
2025-08-06T12:45:28.833574,1,0,0,0,0,0,59,62,10,0,66,156.13,0,20.00,-12.00,-997.00
2025-08-06T12:45:28.885232,1,0,0,0,0,0,60,62,10,0,66,156.12,0,22.00,-12.00,-997.00
2025-08-06T12:45:29.039222,1,0,0,0,0,0,60,62,10,0,66,155.93,0,21.00,-12.00,-997.00
2025-08-06T12:45:29.088918,1,0,0,0,0,0,60,62,10,0,66,155.98,0,21.00,-12.00,-986.00
2025-08-06T12:45:29.243130,1,0,0,0,0,0,60,62,10,0,66,155.94,0,20.00,-13.00,-992.00
2025-08-06T12:45:29.295299,1,0,0,0,0,0,60,62,10,0,66,155.83,0,22.00,-11.00,-998.00
2025-08-06T12:45:29.396695,1,0,0,0,0,0,60,62,10,0,66,155.95,0,19.00,-12.00,-1000.00
2025-08-06T12:45:29.497740,1,0,0,0,0,0,60,62,10,0,66,155.83,0,20.00,-12.00,-999.00
2025-08-06T12:45:29.654021,1,0,0,0,0,0,60,62,10,0,66,155.83,0,21.00,-13.00,-997.00
2025-08-06T12:45:29.700645,1,0,0,0,0,0,60,62,10,0,66,155.49,0,20.00,-13.00,-999.00
2025-08-06T12:45:29.802506,1,0,0,0,0,0,60,62,10,0,66,155.81,0,23.00,-12.00,-1000.00
2025-08-06T12:45:29.959479,1,0,0,0,0,0,60,62,10,0,66,156.05,0,21.00,-11.00,-1001.00
2025-08-06T12:45:29.960075,1,0,0,0,0,0,60,62,10,0,66,156.04,0,21.00,-12.00,-999.00
2025-08-06T12:45:30.057090,1,0,0,0,0,0,60,62,10,0,66,155.83,0,21.00,-14.00,-1000.00
2025-08-06T12:45:30.159079,1,0,0,0,0,0,60,62,10,0,66,155.99,0,21.00,-14.00,-999.00
2025-08-06T12:45:30.260953,1,0,0,0,0,0,60,62,10,0,66,155.88,0,21.00,-14.00,-995.00
2025-08-06T12:45:30.369050,1,0,0,0,0,0,60,62,10,0,66,155.83,0,21.00,-13.00,-1000.00
2025-08-06T12:45:30.465011,1,0,0,0,0,0,60,62,10,0,66,155.82,0,20.00,-13.00,-996.00
2025-08-06T12:45:30.572020,1,0,0,0,0,0,60,62,10,0,66,155.95,0,20.00,-13.00,-999.00
2025-08-06T12:45:30.669227,1,0,0,0,0,0,60,62,10,0,66,155.96,0,20.00,-13.00,-1000.00
2025-08-06T12:45:30.771229,1,0,0,0,0,0,60,62,10,0,66,156.03,0,21.00,-12.00,-997.00
2025-08-06T12:45:30.881067,1,0,0,0,0,0,61,62,10,0,66,156.03,0,22.00,-12.00,-1004.00
2025-08-06T12:45:30.975007,1,0,0,0,0,0,61,62,10,0,66,155.91,0,21.00,-11.00,-990.00
2025-08-06T12:45:31.078328,1,0,0,0,0,0,61,62,10,0,66,156.13,0,21.00,-10.00,-994.00
2025-08-06T12:45:31.179256,1,0,0,0,0,0,61,62,10,0,66,155.99,0,23.00,-13.00,-1002.00
2025-08-06T12:45:31.281102,1,0,0,0,0,0,61,62,10,0,66,155.91,0,20.00,-12.00,-1003.00
2025-08-06T12:45:31.383269,1,0,0,0,0,0,61,62,10,0,66,155.81,0,17.00,-14.00,-1002.00
2025-08-06T12:45:31.495386,1,1,0,0,0,0,61,62,10,0,66,155.88,0,-181.00,569.00,-1433.00
2025-08-06T12:45:31.587084,-1,11,-15,0,3,-1,61,62,10,0,66,155.94,0,67.00,-123.00,-1106.00
2025-08-06T12:45:31.688955,3,5,-20,0,6,-1,61,62,10,0,66,155.86,0,-77.00,-172.00,-989.00
2025-08-06T12:45:31.791029,8,1,-18,0,6,0,61,62,84,0,66,155.78,0,-65.00,40.00,-653.00
2025-08-06T12:45:31.909386,6,0,-14,-1,6,3,61,63,56,0,66,155.77,0,95.00,-123.00,-663.00
2025-08-06T12:45:31.994801,9,-5,-13,-1,4,4,61,63,32,0,66,155.73,0,256.00,-33.00,-1027.00
2025-08-06T12:45:32.112067,9,-9,-16,-1,3,4,61,63,10,0,66,155.94,0,255.00,-118.00,-956.00
2025-08-06T12:45:32.198846,9,-10,-17,0,2,3,61,63,40,0,66,155.61,0,136.00,20.00,-1072.00
2025-08-06T12:45:32.417175,3,-11,-29,0,0,3,61,63,64,0,66,156.02,0,274.00,365.00,-893.00
2025-08-06T12:45:32.417382,3,-14,-35,0,0,3,61,63,62,0,66,155.79,0,-116.00,367.00,-1215.00
2025-08-06T12:45:32.504937,2,-16,-34,0,0,2,61,63,62,0,66,155.59,0,-124.00,300.00,-885.00
2025-08-06T12:45:32.555881,3,-16,-32,0,-1,2,61,63,59,0,66,155.79,0,-113.00,-17.00,-866.00
2025-08-06T12:45:32.724422,2,-14,-33,0,-1,4,61,63,55,0,66,155.25,0,393.00,210.00,-921.00
2025-08-06T12:45:32.759864,0,-13,-28,1,-1,2,61,63,51,0,66,155.83,0,320.00,163.00,-1095.00
2025-08-06T12:45:32.928993,-2,-13,-33,0,-2,1,61,63,49,0,66,155.65,0,-33.00,331.00,-1318.00
2025-08-06T12:45:32.963886,-3,-10,-29,1,-2,-1,61,63,49,0,66,155.61,0,-60.00,232.00,-1213.00
2025-08-06T12:45:33.137286,-2,-7,-29,1,-2,-2,61,63,51,0,66,155.62,0,-153.00,331.00,-1102.00
2025-08-06T12:45:33.167879,-1,-8,-26,1,-1,-3,61,63,54,0,66,155.82,0,-264.00,350.00,-986.00
2025-08-06T12:45:33.338743,-4,-7,-26,1,0,-3,61,63,59,0,66,155.55,0,-39.00,174.00,-838.00
2025-08-06T12:45:33.373921,-6,-8,-26,1,0,-2,61,63,62,0,66,155.89,0,-124.00,174.00,-941.00
2025-08-06T12:45:33.475668,-9,-9,-27,0,0,-2,61,63,66,0,66,155.78,0,-126.00,41.00,-913.00
2025-08-06T12:45:33.575732,-9,-8,-29,0,0,-1,61,63,68,0,66,155.70,0,-180.00,185.00,-925.00
2025-08-06T12:45:33.759065,-10,-7,-30,0,0,-1,61,63,70,0,66,155.71,0,-177.00,182.00,-992.00
2025-08-06T12:45:33.779774,-10,-7,-34,0,0,-1,61,63,71,0,66,155.74,0,-177.00,108.00,-943.00
2025-08-06T12:45:33.952935,-9,-6,-38,0,0,-1,61,64,72,0,66,155.94,0,-144.00,171.00,-950.00
2025-08-06T12:45:33.983717,-10,-6,-40,0,0,0,61,64,74,0,66,155.69,0,-108.00,74.00,-936.00
2025-08-06T12:45:34.158048,-12,-6,-42,0,0,0,61,64,75,0,66,155.73,0,-175.00,113.00,-1016.00
2025-08-06T12:45:34.187811,-11,-7,-45,0,0,0,61,64,77,0,66,156.07,0,-199.00,29.00,-975.00
2025-08-06T12:45:34.363079,-10,-7,-43,0,0,0,61,64,77,0,66,155.92,0,-199.00,162.00,-893.00
2025-08-06T12:45:34.391765,-9,-7,-39,0,0,0,61,64,77,0,66,155.88,0,-122.00,188.00,-1106.00
2025-08-06T12:45:34.493586,-8,-7,-38,0,0,0,61,64,76,0,66,155.84,0,-162.00,104.00,-957.00
2025-08-06T12:45:34.595605,-8,-7,-39,0,0,0,61,64,76,0,66,156.08,0,-169.00,162.00,-991.00
2025-08-06T12:45:34.772271,-8,-7,-39,0,0,0,61,64,76,0,66,155.79,0,-111.00,124.00,-976.00
2025-08-06T12:45:34.799802,-8,-7,-39,0,0,0,61,64,76,0,66,155.87,0,-157.00,141.00,-974.00
2025-08-06T12:45:34.976829,-8,-7,-38,0,0,0,61,64,76,0,66,156.03,0,-117.00,137.00,-1065.00
2025-08-06T12:45:35.004531,-8,-6,-38,0,0,0,61,64,77,0,66,155.79,0,-98.00,119.00,-928.00
2025-08-06T12:45:35.055549,-7,-6,-38,0,0,0,61,64,76,0,66,155.72,0,-155.00,119.00,-962.00
2025-08-06T12:45:35.181974,-7,-6,-37,0,0,0,61,64,76,0,66,156.01,0,-88.00,55.00,-950.00
2025-08-06T12:45:35.259578,-6,-6,-37,0,0,0,61,64,76,0,66,155.46,0,-149.00,118.00,-977.00
2025-08-06T12:45:35.386711,-7,-6,-37,0,0,0,61,64,76,0,66,155.79,0,-93.00,83.00,-1008.00
2025-08-06T12:45:35.463571,-7,-6,-37,0,0,0,61,64,76,0,66,156.00,0,-133.00,129.00,-944.00
2025-08-06T12:45:35.591491,-7,-7,-37,0,0,0,61,64,76,0,66,156.06,0,-104.00,136.00,-1048.00
2025-08-06T12:45:35.667659,-7,-7,-37,0,0,0,61,64,75,0,66,155.75,0,-124.00,109.00,-938.00
2025-08-06T12:45:35.796065,-7,-7,-37,0,0,0,61,64,76,0,66,155.87,0,-111.00,161.00,-1033.00
2025-08-06T12:45:35.871515,-6,-7,-38,0,0,0,62,64,75,0,66,155.69,0,-124.00,94.00,-961.00
2025-08-06T12:45:36.001820,-6,-7,-38,0,0,0,62,64,74,0,66,156.05,0,-126.00,113.00,-975.00
2025-08-06T12:45:36.075528,-6,-7,-38,0,0,0,62,64,75,0,66,155.93,0,-73.00,170.00,-1040.00
2025-08-06T12:45:36.205735,-6,-7,-39,0,0,0,62,64,75,0,66,155.73,0,-111.00,115.00,-942.00
2025-08-06T12:45:36.279545,-6,-7,-38,0,0,0,62,64,75,0,66,155.88,0,-83.00,159.00,-1053.00
2025-08-06T12:45:36.410553,-7,-7,-32,0,0,0,62,64,75,0,66,155.72,0,8.00,38.00,-998.00
2025-08-06T12:45:36.483629,2,-7,-31,0,-1,-1,62,64,73,0,66,155.69,0,-29.00,98.00,-1175.00
2025-08-06T12:45:36.615803,5,-4,-37,0,-1,-1,62,64,48,0,66,156.09,0,2.00,99.00,-723.00
2025-08-06T12:45:36.687657,4,-6,-38,0,0,2,62,64,39,0,66,155.89,0,11.00,92.00,-557.00
2025-08-06T12:45:36.789375,-6,-10,-27,0,0,4,62,64,71,0,66,155.57,0,-65.00,295.00,-967.00
2025-08-06T12:45:36.891379,-10,-16,-21,0,0,3,62,65,74,0,66,155.76,0,-148.00,242.00,-1073.00
2025-08-06T12:45:37.024913,-3,-16,-16,-1,0,2,62,65,70,0,66,155.60,0,1.00,356.00,-1211.00
2025-08-06T12:45:37.095433,0,-16,-7,0,0,0,62,65,68,0,66,155.74,0,15.00,311.00,-1114.00
2025-08-06T12:45:37.230756,-1,-16,-5,0,0,0,62,65,68,0,66,155.75,0,71.00,215.00,-823.00
2025-08-06T12:45:37.299394,1,-15,-1,0,0,1,62,65,66,0,66,155.71,0,89.00,274.00,-989.00
2025-08-06T12:45:37.401325,1,-16,4,0,0,0,62,65,65,0,66,155.64,0,-72.00,316.00,-1096.00
2025-08-06T12:45:37.537185,0,-16,1,0,-1,-1,62,65,66,0,66,155.60,0,-4.00,436.00,-1199.00
2025-08-06T12:45:37.554463,-2,-14,-10,0,-1,-3,62,65,68,0,66,155.75,0,-1.00,235.00,-1188.00
2025-08-06T12:45:37.741717,0,-10,-13,1,-1,-4,62,65,70,0,66,155.74,0,-56.00,170.00,-814.00
2025-08-06T12:45:37.758420,2,-7,-15,0,0,-1,62,65,73,0,66,155.71,0,-200.00,49.00,-439.00
2025-08-06T12:45:37.860365,-1,-12,-15,0,1,4,62,65,72,0,66,156.00,0,-72.00,494.00,-734.00
2025-08-06T12:45:38.048800,-4,-20,-15,0,1,3,62,65,71,0,66,155.65,0,153.00,-32.00,-1107.00
2025-08-06T12:45:38.064241,-3,-17,-18,0,0,2,62,65,69,0,66,155.91,0,146.00,92.00,-854.00
2025-08-06T12:45:38.253719,-4,-17,-14,0,0,2,62,65,64,0,66,155.55,0,-9.00,328.00,-854.00
2025-08-06T12:45:38.268377,-4,-18,-15,0,0,1,62,65,62,0,66,155.70,0,-132.00,378.00,-1024.00
2025-08-06T12:45:38.458465,-6,-18,-15,0,0,0,62,65,61,0,66,155.53,0,-27.00,325.00,-1335.00
2025-08-06T12:45:38.472331,-3,-16,-17,0,-1,-3,62,65,62,0,66,156.01,0,-124.00,441.00,-1222.00
2025-08-06T12:45:38.663329,-2,-12,-18,1,-1,-6,62,65,66,0,66,155.78,0,77.00,237.00,-1142.00
2025-08-06T12:45:38.676341,0,-5,-18,1,-1,-6,62,65,70,0,66,155.73,0,120.00,146.00,-751.00
2025-08-06T12:45:38.867999,5,0,-17,2,0,-2,62,65,74,10,66,155.83,0,-113.00,193.00,-258.00
2025-08-06T12:45:38.880393,2,-8,-17,1,1,4,62,65,72,10,66,155.87,0,-281.00,15.00,-667.00
2025-08-06T12:45:39.072805,-2,-16,-16,0,0,4,62,65,66,0,66,155.84,0,129.00,30.00,-1369.00
2025-08-06T12:45:39.084405,-3,-13,-18,-1,-1,-1,62,65,68,0,66,155.79,0,332.00,378.00,-1716.00
2025-08-06T12:45:39.277676,2,-5,-18,1,-1,-6,62,65,69,0,66,155.88,0,4.00,253.00,-1118.00
2025-08-06T12:45:39.288253,5,2,-17,1,0,-5,62,65,74,10,66,155.95,0,52.00,76.00,-534.00
2025-08-06T12:45:39.483574,4,3,-17,1,0,1,62,65,78,10,66,155.55,0,56.00,235.00,-265.00
2025-08-06T12:45:39.493399,2,-9,-17,1,1,5,62,65,74,10,66,155.81,0,-270.00,85.00,-1122.00
2025-08-06T12:45:39.687161,-1,-16,-18,0,0,2,62,65,61,0,66,155.62,0,13.00,185.00,-1437.00
2025-08-06T12:45:39.696193,-2,-14,-19,0,-1,0,62,65,69,0,66,155.92,0,92.00,304.00,-1235.00
2025-08-06T12:45:39.891976,0,-11,-19,1,-2,-2,62,65,71,0,66,155.84,0,16.00,145.00,-1217.00
2025-08-06T12:45:39.900944,2,-5,-19,1,-3,-4,62,65,72,10,66,155.94,0,148.00,203.00,-953.00
2025-08-06T12:45:40.096741,4,0,-17,2,-1,-2,62,65,77,10,66,155.95,0,76.00,232.00,-487.00
2025-08-06T12:45:40.104196,5,-6,-19,2,0,3,62,65,38,0,66,155.92,0,-230.00,263.00,-615.00
2025-08-06T12:45:40.156645,0,-19,-18,0,0,4,62,65,10,0,66,155.82,0,-207.00,182.00,-1369.00
2025-08-06T12:45:40.301483,-2,-16,-16,0,-3,-1,62,65,43,0,66,155.64,0,115.00,289.00,-1802.00
2025-08-06T12:45:40.359047,3,-3,-17,1,-4,-6,62,65,74,0,66,155.77,0,161.00,285.00,-846.00
2025-08-06T12:45:40.506379,9,2,-17,3,-1,-2,62,65,54,0,66,155.83,0,-93.00,115.00,-217.00
2025-08-06T12:45:40.563138,7,-6,-28,1,0,6,62,65,31,0,66,155.92,0,-231.00,207.00,-583.00
2025-08-06T12:45:40.711217,-4,-16,-25,0,0,7,62,65,49,0,66,155.67,0,14.00,82.00,-1325.00
2025-08-06T12:45:40.767188,-1,-19,-24,0,-1,1,62,65,53,-10,66,155.66,0,211.00,286.00,-1953.00
2025-08-06T12:45:40.868983,5,-11,-20,2,-4,-5,62,65,67,0,66,155.88,0,172.00,389.00,-1212.00
2025-08-06T12:45:41.019678,10,-1,-19,2,-2,-4,62,65,30,0,66,155.61,0,-36.00,158.00,-456.00
2025-08-06T12:45:41.073083,10,0,-19,0,0,2,62,65,34,0,66,155.69,0,63.00,86.00,-384.00
2025-08-06T12:45:41.175111,4,-8,-17,0,0,6,62,65,34,0,66,155.85,0,-67.00,195.00,-998.00
2025-08-06T12:45:41.277269,0,-12,-22,0,0,5,62,65,68,-10,66,156.05,0,50.00,177.00,-1239.00
2025-08-06T12:45:41.428051,0,-10,-27,0,0,1,62,65,65,-10,66,155.58,0,200.00,231.00,-1375.00
2025-08-06T12:45:41.481058,0,-8,-25,0,0,-2,62,65,65,-10,66,155.73,0,215.00,134.00,-1273.00
2025-08-06T12:45:41.636054,6,-2,-27,0,0,-4,62,65,68,0,66,155.94,0,94.00,92.00,-828.00
2025-08-06T12:45:41.685120,10,1,-29,0,0,0,62,65,72,0,66,156.18,0,12.00,104.00,-412.00
2025-08-06T12:45:41.788369,9,-3,-30,0,0,4,62,65,69,0,66,155.94,0,145.00,194.00,-618.00
2025-08-06T12:45:41.889060,10,-16,-32,0,0,6,62,65,38,0,66,155.76,0,47.00,159.00,-1209.00
2025-08-06T12:45:41.991631,5,-16,-30,0,0,1,62,65,41,0,66,155.74,0,505.00,401.00,-1648.00
2025-08-06T12:45:42.144790,8,-12,-27,0,0,-3,62,65,63,0,66,155.82,0,194.00,267.00,-1145.00
2025-08-06T12:45:42.196358,10,-7,-28,0,0,-3,62,65,64,0,66,155.71,0,65.00,137.00,-592.00
2025-08-06T12:45:42.349410,9,-6,-27,0,0,1,62,65,65,0,66,155.68,0,59.00,90.00,-506.00
2025-08-06T12:45:42.401069,5,-10,-29,0,0,4,62,65,64,0,66,155.70,0,324.00,233.00,-918.00
2025-08-06T12:45:42.501403,8,-15,-26,0,0,0,62,65,59,0,66,155.64,0,243.00,134.00,-1854.00
2025-08-06T12:45:42.604654,11,-10,-26,0,0,-5,62,65,37,0,66,155.67,0,238.00,219.00,-1233.00
2025-08-06T12:45:42.654049,14,-4,-32,0,0,-4,62,65,10,0,66,155.76,0,147.00,205.00,-598.00
2025-08-06T12:45:42.756670,13,-1,-45,0,0,0,62,65,32,0,66,155.80,0,20.00,44.00,-354.00
2025-08-06T12:45:42.857894,4,-2,-47,0,0,5,62,65,69,0,66,155.65,0,174.00,-6.00,-806.00
2025-08-06T12:45:42.959852,0,-7,-43,0,0,5,62,65,64,0,66,155.69,0,26.00,124.00,-1082.00
2025-08-06T12:45:43.066252,-1,-11,-43,0,0,2,62,65,59,0,66,155.76,0,102.00,210.00,-1613.00
2025-08-06T12:45:43.163851,1,-9,-39,0,0,-2,62,65,59,0,66,155.56,0,138.00,216.00,-1377.00
2025-08-06T12:45:43.271056,9,-4,-33,0,0,-5,62,65,63,0,66,155.70,0,113.00,79.00,-811.00
2025-08-06T12:45:43.368178,15,1,-23,0,0,-1,62,65,65,0,66,155.56,0,11.00,194.00,-478.00
2025-08-06T12:45:43.469889,11,-1,-18,0,0,3,62,65,63,0,66,155.74,0,-15.00,132.00,-663.00
2025-08-06T12:45:43.579594,8,-6,-18,0,0,5,62,65,65,0,66,155.46,0,276.00,78.00,-1000.00
2025-08-06T12:45:43.673896,7,-12,-17,0,0,3,62,65,59,0,66,155.78,0,-41.00,125.00,-1287.00
2025-08-06T12:45:43.783015,5,-11,-17,0,0,0,62,65,59,0,66,155.72,0,123.00,96.00,-1217.00
2025-08-06T12:45:43.877870,4,-5,-17,0,0,-1,63,66,58,0,66,155.50,0,196.00,86.00,-1119.00
2025-08-06T12:45:43.987794,2,-9,-17,0,0,-2,63,66,60,0,66,155.69,0,184.00,198.00,-1443.00
2025-08-06T12:45:44.081748,3,-4,-17,0,0,-3,63,66,64,0,66,155.81,0,-12.00,173.00,-922.00
2025-08-06T12:45:44.192462,5,-2,-22,0,0,-3,63,66,68,0,66,156.06,0,136.00,97.00,-958.00
2025-08-06T12:45:44.285982,6,-1,-27,0,0,-2,63,66,71,0,66,155.78,0,70.00,36.00,-807.00
2025-08-06T12:45:44.398049,8,-1,-34,0,0,0,63,66,71,0,66,155.57,0,187.00,108.00,-757.00
2025-08-06T12:45:44.489828,3,-7,-44,0,0,2,63,66,69,0,66,155.65,0,40.00,-13.00,-781.00
2025-08-06T12:45:44.602399,-1,-11,-47,0,0,3,63,66,60,0,66,155.51,0,97.00,185.00,-957.00
2025-08-06T12:45:44.693710,-6,-12,-52,0,0,4,63,66,66,0,66,155.89,0,-28.00,122.00,-840.00
2025-08-06T12:45:44.806946,-11,-15,-49,0,0,3,63,66,65,0,66,155.86,0,1.00,269.00,-1026.00
2025-08-06T12:45:44.897713,-14,-12,-51,0,-1,3,63,66,64,0,66,155.51,0,-180.00,36.00,-795.00
2025-08-06T12:45:45.011809,-11,-10,-53,0,-1,2,63,66,59,0,66,155.50,0,-257.00,338.00,-1160.00
2025-08-06T12:45:45.102518,-11,-9,-56,0,-1,2,63,66,56,0,66,155.57,0,-149.00,296.00,-1095.00
2025-08-06T12:45:45.216497,-11,-9,-55,0,-1,1,63,66,54,0,66,155.64,0,-292.00,230.00,-1083.00
2025-08-06T12:45:45.306002,-11,-9,-52,1,-1,1,63,66,53,0,66,155.47,0,-200.00,214.00,-983.00
2025-08-06T12:45:45.357078,-6,-10,-51,1,-1,0,63,66,52,0,66,155.42,0,-120.00,119.00,-1035.00
2025-08-06T12:45:45.523593,0,-9,-51,0,-1,0,63,66,51,0,66,155.79,0,-47.00,197.00,-992.00
2025-08-06T12:45:45.560662,5,-10,-50,0,-1,0,63,66,51,0,66,155.62,0,95.00,198.00,-981.00
2025-08-06T12:45:45.728553,8,-11,-49,0,-1,0,63,66,51,0,66,155.74,0,157.00,215.00,-870.00
2025-08-06T12:45:45.764647,7,-20,-49,0,-1,0,63,66,52,0,66,155.53,0,96.00,451.00,-1068.00
2025-08-06T12:45:45.866720,5,-20,-43,0,-1,0,64,66,52,0,66,155.57,0,149.00,325.00,-999.00
2025-08-06T12:45:46.035664,0,-18,-42,0,-1,-1,64,66,53,0,66,155.38,0,36.00,422.00,-1028.00
2025-08-06T12:45:46.070788,2,-16,-45,0,-1,-2,64,66,52,0,66,155.55,0,68.00,303.00,-1088.00
2025-08-06T12:45:46.240446,4,-15,-44,0,-1,-2,64,66,56,0,66,155.51,0,31.00,253.00,-975.00
2025-08-06T12:45:46.274646,5,-14,-43,0,0,-2,64,66,59,0,66,155.90,0,133.00,259.00,-884.00
2025-08-06T12:45:46.445223,5,-12,-41,0,0,-1,64,66,61,0,66,155.56,0,127.00,242.00,-790.00
2025-08-06T12:45:46.478667,8,-14,-40,0,0,-1,64,66,62,0,66,155.64,0,254.00,229.00,-1060.00
2025-08-06T12:45:46.649989,12,-14,-40,1,0,-2,64,66,64,0,66,155.50,0,355.00,243.00,-634.00
2025-08-06T12:45:46.682588,17,-16,-45,0,0,-2,64,66,51,0,66,155.83,0,261.00,238.00,-1243.00
2025-08-06T12:45:46.855905,7,-8,-44,1,0,-1,64,66,66,0,66,155.50,0,282.00,190.00,-668.00
2025-08-06T12:45:46.886686,14,-11,-45,1,0,-1,63,66,10,0,66,155.71,0,369.00,219.00,-1075.00
2025-08-06T12:45:47.060981,14,-9,-44,2,0,-2,63,66,10,0,66,155.64,0,227.00,173.00,-953.00
2025-08-06T12:45:47.090450,14,-6,-43,1,0,-2,63,66,10,0,66,155.65,0,209.00,48.00,-941.00
2025-08-06T12:45:47.264402,12,-4,-42,0,0,-1,63,66,10,0,66,155.87,0,154.00,37.00,-925.00
2025-08-06T12:45:47.294540,9,-3,-42,0,0,0,63,66,10,0,66,155.84,0,181.00,86.00,-875.00
2025-08-06T12:45:47.396454,8,-4,-42,0,0,0,63,66,10,0,66,155.86,0,102.00,15.00,-952.00
2025-08-06T12:45:47.574865,5,-3,-43,0,0,0,63,66,10,0,66,155.90,0,104.00,78.00,-1025.00
2025-08-06T12:45:47.600492,5,-4,-44,0,0,0,63,66,10,0,66,155.65,0,124.00,3.00,-941.00
2025-08-06T12:45:47.776413,4,-6,-46,0,0,0,63,66,10,0,66,155.80,0,159.00,-26.00,-906.00
2025-08-06T12:45:47.804474,2,-6,-46,0,0,1,63,66,10,0,66,155.52,0,201.00,133.00,-832.00
2025-08-06T12:45:47.982527,0,-8,-46,0,0,3,64,67,10,0,66,155.92,0,78.00,22.00,-902.00
2025-08-06T12:45:48.008464,-2,-7,-44,0,0,3,64,67,10,0,66,155.81,0,-123.00,39.00,-1006.00
2025-08-06T12:45:48.185974,-4,-6,-43,0,0,2,64,67,65,0,66,155.45,0,-54.00,177.00,-1050.00
2025-08-06T12:45:48.214213,-4,-7,-43,0,0,2,64,67,64,0,66,155.69,0,-178.00,108.00,-1120.00
2025-08-06T12:45:48.314526,-5,-8,-43,0,0,1,64,67,64,0,66,155.75,0,-175.00,117.00,-971.00
2025-08-06T12:45:48.490707,-6,-8,-42,0,0,1,64,67,62,0,66,155.93,0,-138.00,201.00,-1073.00
2025-08-06T12:45:48.518419,-5,-9,-41,0,0,1,64,67,62,0,66,155.63,0,-146.00,65.00,-945.00
2025-08-06T12:45:48.697988,-3,-9,-41,0,-1,0,64,67,61,0,66,155.61,0,-17.00,254.00,-1076.00
2025-08-06T12:45:48.698144,-4,-9,-41,0,0,0,64,67,61,0,66,155.57,0,-41.00,189.00,-1002.00
2025-08-06T12:45:48.773445,-4,-9,-41,0,0,0,64,67,61,0,66,155.58,0,-57.00,160.00,-978.00
2025-08-06T12:45:48.875411,-4,-9,-40,0,0,0,64,66,61,0,66,155.64,0,-40.00,190.00,-1045.00
2025-08-06T12:45:49.005130,-3,-9,-40,0,-1,0,64,66,62,0,66,155.55,0,-39.00,88.00,-1115.00
2025-08-06T12:45:49.079337,0,-7,-38,0,-1,-2,64,66,62,0,66,155.55,0,-2.00,139.00,-1181.00
2025-08-06T12:45:49.210168,1,-5,-39,0,-1,-3,64,66,66,0,66,155.69,0,33.00,113.00,-1039.00
2025-08-06T12:45:49.283815,3,-3,-42,0,-1,-3,64,66,69,0,66,155.64,0,77.00,68.00,-963.00
2025-08-06T12:45:49.414815,4,-2,-44,0,0,-2,64,66,71,0,66,155.59,0,79.00,59.00,-886.00
2025-08-06T12:45:49.487268,4,-1,-48,0,0,-1,64,66,72,0,66,155.73,0,58.00,44.00,-751.00
2025-08-06T12:45:49.619556,3,-2,-50,0,0,1,64,66,64,0,66,155.78,0,8.00,-25.00,-684.00
2025-08-06T12:45:49.696314,1,-5,-48,0,0,3,64,66,55,0,66,155.55,0,59.00,55.00,-922.00
2025-08-06T12:45:49.793357,1,-10,-44,0,0,3,64,66,10,0,66,155.81,0,-91.00,110.00,-1104.00
2025-08-06T12:45:49.895341,1,-12,-41,0,0,2,63,67,40,0,66,155.71,0,33.00,143.00,-1124.00
2025-08-06T12:45:50.033888,2,-13,-40,0,-1,2,63,67,52,0,66,155.85,0,49.00,273.00,-1080.00
2025-08-06T12:45:50.099235,1,-13,-42,0,-1,1,63,67,57,0,66,155.50,0,82.00,296.00,-1147.00
2025-08-06T12:45:50.233885,0,-13,-43,0,-1,0,63,67,59,0,66,155.71,0,102.00,224.00,-1096.00
2025-08-06T12:45:50.303262,1,-11,-43,0,-1,-1,63,67,61,0,66,155.78,0,46.00,258.00,-1074.00
2025-08-06T12:45:50.438790,1,-9,-43,0,0,-2,63,67,63,0,66,155.69,0,38.00,198.00,-1013.00
2025-08-06T12:45:50.507231,1,-8,-43,0,0,-2,63,67,65,0,66,155.44,0,24.00,190.00,-1011.00
2025-08-06T12:45:50.643695,1,-6,-43,1,0,-2,63,67,67,0,66,155.62,0,56.00,139.00,-1003.00
2025-08-06T12:45:50.711579,2,-4,-43,1,0,-2,63,67,69,0,66,155.90,0,50.00,56.00,-958.00
2025-08-06T12:45:50.848369,3,-3,-44,0,0,-2,63,67,64,0,66,155.79,0,76.00,47.00,-960.00
2025-08-06T12:45:50.915230,3,-2,-47,0,0,-2,64,68,65,0,66,156.03,0,55.00,58.00,-908.00
2025-08-06T12:45:51.052914,0,0,-50,1,0,0,64,68,71,0,66,155.88,0,76.00,8.00,-802.00
2025-08-06T12:45:51.119204,0,-2,-53,0,0,1,64,68,59,0,66,155.68,0,30.00,-77.00,-864.00
2025-08-06T12:45:51.257855,-2,-5,-55,0,0,2,64,68,49,0,66,155.92,0,-10.00,-40.00,-873.00
2025-08-06T12:45:51.323113,-3,-7,-59,-1,-1,3,64,68,64,0,66,155.58,0,-42.00,-60.00,-1030.00
2025-08-06T12:45:51.427380,-4,-6,-55,0,-1,3,64,68,65,0,66,155.37,0,121.00,232.00,-855.00
2025-08-06T12:45:51.527441,-3,-6,-61,0,-2,4,64,68,61,0,66,155.62,0,-91.00,104.00,-1085.00
2025-08-06T12:45:51.629206,-5,-1,-62,0,-1,3,64,68,58,0,66,155.52,0,17.00,235.00,-1137.00
2025-08-06T12:45:51.680079,-5,-2,-65,0,-2,2,64,68,55,0,66,155.42,0,-234.00,98.00,-1019.00
2025-08-06T12:45:51.872301,-7,-3,-63,0,-1,2,64,68,53,0,66,155.67,0,-197.00,-18.00,-939.00
2025-08-06T12:45:51.935223,-8,-4,-61,0,-1,2,64,66,50,0,66,155.55,0,-119.00,142.00,-1070.00
2025-08-06T12:45:52.076778,-4,-8,-58,0,-2,1,64,66,48,0,66,155.66,0,-109.00,50.00,-1013.00
2025-08-06T12:45:52.088001,0,-10,-56,0,-2,1,64,66,47,0,66,155.59,0,44.00,116.00,-1027.00
2025-08-06T12:45:52.281803,0,-11,-57,0,-2,1,64,66,46,0,66,155.69,0,-3.00,102.00,-932.00
2025-08-06T12:45:52.292365,0,-10,-60,0,-2,1,64,66,45,0,66,155.71,0,21.00,212.00,-928.00
2025-08-06T12:45:52.393969,-3,-7,-60,0,-1,1,64,66,43,0,66,155.21,0,-19.00,217.00,-957.00
2025-08-06T12:45:52.588962,-4,-6,-61,0,-1,1,64,66,41,0,66,155.28,0,-40.00,163.00,-1012.00
2025-08-06T12:45:52.598019,-4,-3,-63,0,0,1,64,66,39,0,66,155.46,0,-79.00,62.00,-1007.00
2025-08-06T12:45:52.793710,-5,-1,-62,0,0,1,64,66,38,0,66,155.44,0,-81.00,-23.00,-1063.00
2025-08-06T12:45:52.802038,-6,-1,-61,0,0,0,64,66,37,0,66,155.64,0,-67.00,43.00,-1000.00
2025-08-06T12:45:52.903901,-6,-1,-61,0,0,0,65,67,36,0,66,155.24,0,-74.00,29.00,-998.00
2025-08-06T12:45:53.006178,-6,0,-62,0,0,1,65,67,35,0,66,155.38,0,-80.00,61.00,-938.00
2025-08-06T12:45:53.107965,-6,0,-62,0,0,1,65,67,34,0,66,155.72,0,-60.00,-4.00,-967.00
2025-08-06T12:45:53.210175,-6,0,-61,0,0,1,65,67,32,0,66,155.43,0,-70.00,52.00,-966.00
2025-08-06T12:45:53.408154,-5,0,-60,0,0,1,65,67,30,0,66,155.46,0,-49.00,-17.00,-981.00
2025-08-06T12:45:53.414035,-5,0,-59,0,0,2,65,67,10,0,66,155.57,0,-85.00,-14.00,-989.00
2025-08-06T12:45:53.613167,-5,0,-58,0,0,1,65,67,10,0,66,155.26,0,-91.00,-5.00,-1035.00
2025-08-06T12:45:53.618102,-5,-1,-59,0,-1,1,65,67,10,0,66,155.37,0,-97.00,15.00,-1065.00
2025-08-06T12:45:53.820795,-3,-1,-62,0,-1,0,65,67,10,0,66,155.52,0,-92.00,52.00,-1063.00
2025-08-06T12:45:53.821948,-3,-2,-62,0,-1,0,65,67,10,0,66,155.10,0,-59.00,5.00,-1072.00
2025-08-06T12:45:54.022273,-2,-4,-61,0,-1,0,65,67,10,0,66,155.23,0,-8.00,94.00,-1080.00
2025-08-06T12:45:54.025928,-2,-6,-60,1,-1,-1,65,67,10,0,66,155.10,0,19.00,88.00,-1081.00
2025-08-06T12:45:54.127809,-1,-8,-58,0,-1,-2,65,67,30,0,66,155.46,0,-50.00,79.00,-1024.00
2025-08-06T12:45:54.229803,-1,-9,-57,0,-1,-2,65,67,33,0,66,155.29,0,33.00,114.00,-1066.00
2025-08-06T12:45:54.332092,-1,-11,-59,0,0,-2,65,67,37,0,66,155.30,0,52.00,190.00,-1079.00
2025-08-06T12:45:54.433883,0,-14,-63,0,-1,-3,65,67,41,0,66,155.40,0,141.00,250.00,-1025.00
2025-08-06T12:45:54.636939,-1,-17,-68,0,-1,-4,65,67,46,0,66,155.52,0,63.00,349.00,-969.00
2025-08-06T12:45:54.637983,-2,-21,-70,0,-1,-4,65,67,51,0,66,155.54,0,-60.00,373.00,-890.00
2025-08-06T12:45:54.841662,-3,-23,-72,0,0,-3,65,67,55,0,66,155.29,0,-143.00,351.00,-818.00
2025-08-06T12:45:54.841862,-3,-23,-71,0,0,-3,65,67,57,0,66,155.81,0,-104.00,428.00,-847.00
2025-08-06T12:45:54.943756,-5,-22,-70,0,0,-3,65,68,56,0,66,155.60,0,1.00,347.00,-932.00
2025-08-06T12:45:55.045876,-5,-21,-70,0,0,-3,65,68,46,0,66,155.98,0,-59.00,384.00,-963.00
2025-08-06T12:45:55.096957,-3,-20,-70,0,0,-3,65,68,45,0,66,155.45,0,14.00,352.00,-856.00
2025-08-06T12:45:55.251187,0,-17,-68,0,0,-3,65,68,47,0,66,155.60,0,-36.00,333.00,-978.00
2025-08-06T12:45:55.300700,6,-15,-65,1,0,-3,65,68,10,0,66,155.99,0,21.00,329.00,-1128.00
2025-08-06T12:45:55.402880,10,-14,-60,0,0,-3,65,68,10,0,66,155.70,0,86.00,321.00,-769.00
2025-08-06T12:45:55.558393,11,-8,-53,0,0,-3,65,68,34,0,66,155.73,0,117.00,213.00,-988.00
2025-08-06T12:45:55.610633,9,-4,-47,0,0,-3,65,68,42,0,66,155.84,0,216.00,211.00,-956.00
2025-08-06T12:45:55.708663,10,-1,-42,0,0,-3,65,68,55,0,66,156.06,0,264.00,92.00,-978.00
2025-08-06T12:45:55.865652,9,0,-40,0,0,-3,65,68,68,0,66,155.99,0,174.00,52.00,-990.00
2025-08-06T12:45:55.912762,10,3,-39,0,0,-2,66,67,88,0,66,156.13,0,165.00,-16.00,-634.00
2025-08-06T12:45:56.070557,10,4,-40,1,0,0,66,67,89,0,66,155.87,0,21.00,-63.00,-766.00
2025-08-06T12:45:56.116741,8,1,-42,0,0,3,66,67,65,0,66,155.81,0,1.00,-75.00,-917.00
2025-08-06T12:45:56.275199,6,-1,-43,0,0,5,66,67,47,0,66,155.85,0,-67.00,154.00,-1034.00
2025-08-06T12:45:56.320834,4,-2,-47,0,0,5,66,67,60,0,66,155.57,0,261.00,98.00,-1184.00
2025-08-06T12:45:56.480388,0,-2,-51,0,0,5,66,67,71,-10,66,155.97,0,294.00,58.00,-1053.00
2025-08-06T12:45:56.525820,-4,0,-49,0,0,4,66,67,68,-10,66,155.56,0,74.00,71.00,-873.00
2025-08-06T12:45:56.684756,-4,0,-47,0,0,4,66,67,63,-20,66,155.64,0,-2.00,76.00,-991.00
2025-08-06T12:45:56.728705,-1,-3,-48,0,-1,4,66,67,58,-20,66,155.57,0,-182.00,-233.00,-927.00
2025-08-06T12:45:56.889452,-1,-5,-51,0,-1,5,66,67,53,-30,66,155.47,0,-108.00,120.00,-1034.00
2025-08-06T12:45:56.932662,-4,-7,-52,0,-1,4,65,68,48,-30,66,155.52,0,-65.00,349.00,-1511.00
2025-08-06T12:45:57.094205,-9,-9,-52,0,-1,0,65,68,48,-30,66,155.37,0,-97.00,323.00,-1447.00
2025-08-06T12:45:57.137018,-10,-12,-56,0,-1,-4,65,68,51,-30,66,155.61,0,-266.00,419.00,-1260.00
2025-08-06T12:45:57.299237,-12,-15,-60,1,0,-7,65,68,62,-30,66,155.47,0,-272.00,420.00,-881.00
2025-08-06T12:45:57.342051,-12,-26,-55,1,1,-7,65,68,10,-20,66,156.00,0,-67.00,375.00,-934.00
2025-08-06T12:45:57.442594,-5,-36,-49,1,0,-7,65,68,10,-10,66,155.82,0,298.00,202.00,-860.00
2025-08-06T12:45:57.606229,6,-34,-46,0,-4,-5,65,68,30,-10,66,155.90,0,419.00,135.00,-716.00
2025-08-06T12:45:57.646557,16,-22,-40,0,-8,-2,65,68,30,-10,66,155.77,0,517.00,221.00,-681.00
2025-08-06T12:45:57.811213,14,-4,-29,2,-9,0,65,68,10,-10,66,155.88,0,58.00,-140.00,-640.00
2025-08-06T12:45:57.850634,13,-1,-23,1,-9,2,65,68,10,-10,66,155.72,0,-283.00,350.00,-1017.00
2025-08-06T12:45:58.015767,10,-1,-20,0,-6,2,65,68,10,-10,66,155.70,0,-133.00,231.00,-1071.00
2025-08-06T12:45:58.054599,6,-5,-13,0,-4,1,65,68,10,-10,66,156.07,0,167.00,228.00,-1096.00
2025-08-06T12:45:58.221084,5,-5,-9,0,-3,0,65,68,10,0,66,155.80,0,-24.00,148.00,-945.00
2025-08-06T12:45:58.258533,7,-7,-12,0,-3,0,65,68,10,0,66,155.81,0,251.00,111.00,-1011.00
2025-08-06T12:45:58.425487,8,-7,-15,0,-3,0,65,68,10,0,66,155.65,0,203.00,123.00,-925.00
2025-08-06T12:45:58.425714,6,-5,-12,0,-3,0,65,68,10,0,66,155.81,0,142.00,154.00,-945.00
2025-08-06T12:45:58.513505,5,-4,-11,0,-3,0,65,68,10,0,66,155.56,0,122.00,-23.00,-992.00
2025-08-06T12:45:58.630157,3,-2,-11,0,-3,0,65,68,10,0,66,155.85,0,233.00,26.00,-1108.00
2025-08-06T12:45:58.717541,0,0,-11,1,-3,0,65,68,10,0,66,155.61,0,-172.00,-53.00,-992.00
2025-08-06T12:45:58.835074,0,0,-11,0,-3,0,65,68,10,0,66,155.50,0,23.00,-12.00,-999.00
2025-08-06T12:45:58.921606,0,0,-11,0,-3,0,66,69,10,0,66,155.66,0,24.00,-13.00,-1002.00
2025-08-06T12:45:59.023661,0,0,-11,0,-3,0,66,69,10,0,66,155.69,0,23.00,-12.00,-1000.00
2025-08-06T12:45:59.125421,0,0,-11,1,-3,0,66,69,10,0,66,155.55,0,24.00,-12.00,-998.00
2025-08-06T12:45:59.244547,0,0,-11,1,-3,0,66,69,10,0,66,155.83,0,21.00,-10.00,-999.00
2025-08-06T12:45:59.329536,0,0,-11,1,-3,0,66,69,10,0,66,155.72,0,21.00,-9.00,-981.00
2025-08-06T12:45:59.431294,0,0,-11,1,-4,0,66,69,10,0,66,155.76,0,22.00,-10.00,-991.00
2025-08-06T12:45:59.551721,0,0,-11,1,-4,0,66,69,10,0,66,155.92,0,22.00,-12.00,-1002.00
2025-08-06T12:45:59.635467,0,0,-11,0,0,0,66,69,10,0,66,155.63,0,22.00,-12.00,-1003.00
2025-08-06T12:45:59.756648,0,0,-11,0,0,0,66,69,10,0,66,155.66,0,24.00,-12.00,-1004.00
2025-08-06T12:45:59.839439,0,0,-11,0,0,0,66,69,10,0,66,155.79,0,24.00,-13.00,-1002.00
2025-08-06T12:45:59.961192,0,0,-11,0,0,0,66,69,10,0,66,155.86,0,23.00,-12.00,-1000.00
2025-08-06T12:46:00.044321,0,0,-11,0,0,0,66,69,10,0,66,155.65,0,23.00,-12.00,-994.00
2025-08-06T12:46:00.166015,0,0,-11,0,0,0,66,69,10,0,66,155.99,0,23.00,-12.00,-999.00
2025-08-06T12:46:00.248289,0,0,-11,0,0,0,66,69,10,0,66,155.49,0,22.00,-13.00,-998.00
2025-08-06T12:46:00.370953,0,0,-11,0,0,0,66,69,10,0,66,155.75,0,23.00,-11.00,-1000.00
2025-08-06T12:46:00.452309,0,0,-11,0,0,0,66,69,10,0,66,155.83,0,22.00,-13.00,-1000.00
2025-08-06T12:46:00.575569,0,0,-11,0,0,0,66,69,10,0,66,155.76,0,22.00,-13.00,-1001.00
2025-08-06T12:46:00.656374,0,0,-11,0,0,0,66,69,10,0,66,155.50,0,23.00,-13.00,-1000.00
2025-08-06T12:46:00.780473,0,0,-11,0,0,0,66,69,10,0,66,155.80,0,22.00,-13.00,-998.00
2025-08-06T12:46:00.860331,0,0,-11,0,0,0,66,69,10,0,66,155.61,0,23.00,-13.00,-1000.00
2025-08-06T12:46:00.985133,0,0,-11,0,0,0,65,69,10,0,66,155.79,0,23.00,-12.00,-1002.00
2025-08-06T12:46:01.064978,0,0,-11,0,0,0,65,69,10,0,65,155.30,0,22.00,-11.00,-1000.00
2025-08-06T12:46:01.167175,0,0,-11,0,0,0,65,69,10,0,65,155.89,0,22.00,-11.00,-1000.00
2025-08-06T12:46:01.269013,0,0,-11,0,0,0,65,69,10,0,65,155.91,0,23.00,-12.00,-1000.00
2025-08-06T12:46:01.374433,0,0,-11,0,0,0,65,69,10,0,65,155.58,0,22.00,-12.00,-998.00
2025-08-06T12:46:01.472262,0,0,-11,0,0,0,65,69,10,0,65,155.81,0,21.00,-12.00,-998.00
2025-08-06T12:46:01.599537,0,0,-11,0,0,0,65,69,10,0,65,155.66,0,23.00,-12.00,-999.00
2025-08-06T12:46:01.676808,0,0,-11,0,0,0,65,69,10,0,65,156.21,0,22.00,-14.00,-998.00
2025-08-06T12:46:01.727422,0,0,-11,0,0,0,65,69,10,0,65,155.84,0,21.00,-12.00,-1002.00
2025-08-06T12:46:01.907047,0,0,-11,0,0,0,65,69,10,0,65,155.79,0,23.00,-14.00,-999.00
2025-08-06T12:46:01.931772,0,0,-11,0,0,0,65,69,10,0,65,155.86,0,23.00,-13.00,-1003.00
2025-08-06T12:46:02.111970,0,0,-11,0,0,0,65,69,10,0,65,155.84,0,23.00,-12.00,-998.00
2025-08-06T12:46:02.135980,0,0,-11,0,0,0,65,69,10,0,65,155.93,0,23.00,-12.00,-999.00
2025-08-06T12:46:02.316724,0,0,-11,0,0,0,65,69,10,0,65,155.83,0,23.00,-11.00,-1003.00
2025-08-06T12:46:02.339492,1,0,-11,0,0,0,65,69,10,0,65,155.76,0,22.00,-14.00,-996.00
2025-08-06T12:46:02.521701,1,0,-11,0,0,0,65,69,10,0,65,155.77,0,22.00,-11.00,-1002.00
2025-08-06T12:46:02.543512,1,0,-11,0,0,0,65,69,10,0,65,155.66,0,24.00,-12.00,-998.00
