TS,pitch,roll,yaw,vgx,vgy,vgz,templ,temph,tof,h,bat,baro,time,agx,agy,agz
2025-08-06T12:48:00.305109,0,1,-14,0,0,0,79,83,10,0,61,155.59,0,-16.00,-21.00,-1004.00
2025-08-06T12:48:00.480762,0,1,-14,0,0,0,79,83,10,0,61,155.58,0,-16.00,-21.00,-1007.00
2025-08-06T12:48:00.508821,0,1,-14,0,0,0,80,82,10,0,61,155.68,0,-15.00,-24.00,-1000.00
2025-08-06T12:48:00.685480,0,1,-14,0,0,0,80,82,10,0,61,155.60,0,-18.00,-22.00,-998.00
2025-08-06T12:48:00.712784,0,1,-14,0,0,0,80,82,10,0,61,155.86,0,-17.00,-22.00,-1009.00
2025-08-06T12:48:00.890631,0,1,-14,0,0,0,80,82,10,0,61,155.73,0,-17.00,-22.00,-1001.00
2025-08-06T12:48:00.917380,0,1,-14,0,0,0,80,82,10,0,61,155.85,0,-17.00,-22.00,-999.00
2025-08-06T12:48:01.094969,0,1,-14,0,0,0,80,82,10,0,61,155.37,0,-15.00,-22.00,-1001.00
2025-08-06T12:48:01.131594,0,1,-14,0,0,0,80,82,10,0,61,155.93,0,-17.00,-23.00,-1002.00
2025-08-06T12:48:01.222877,0,1,-14,0,0,0,80,82,10,0,61,155.87,0,-17.00,-24.00,-999.00
2025-08-06T12:48:01.404488,0,1,-14,0,0,0,80,82,10,0,61,155.66,0,-17.00,-21.00,-993.00
2025-08-06T12:48:01.426931,0,1,-14,0,0,0,80,82,10,0,61,155.76,0,-18.00,-23.00,-995.00
2025-08-06T12:48:01.609102,0,1,-14,0,0,0,79,82,10,0,61,155.60,0,-15.00,-22.00,-998.00
2025-08-06T12:48:01.630777,0,1,-14,0,0,0,79,82,10,0,61,155.93,0,-16.00,-23.00,-994.00
2025-08-06T12:48:01.811703,0,1,-14,0,0,0,79,82,10,0,61,155.90,0,-18.00,-23.00,-1007.00
2025-08-06T12:48:01.834916,0,1,-14,0,0,0,79,82,10,0,61,155.72,0,-15.00,-24.00,-1000.00
2025-08-06T12:48:02.016592,0,1,-14,0,0,0,79,82,10,0,61,155.76,0,-15.00,-21.00,-1010.00
2025-08-06T12:48:02.038861,0,1,-14,0,0,0,79,82,10,0,61,155.70,0,-16.00,-22.00,-1009.00
2025-08-06T12:48:02.221136,0,1,-14,0,0,0,79,82,10,0,61,155.72,0,-21.00,-18.00,-1003.00
2025-08-06T12:48:02.243252,0,1,-14,0,0,0,79,82,10,0,61,155.60,0,-19.00,-20.00,-971.00
2025-08-06T12:48:02.426055,-1,1,-14,0,0,0,79,82,10,0,61,155.85,0,-19.00,-19.00,-984.00
2025-08-06T12:48:02.446485,0,1,-14,0,0,0,79,82,10,0,61,155.65,0,-16.00,-20.00,-1022.00
2025-08-06T12:48:02.630943,0,1,-14,0,0,0,80,83,10,0,61,155.84,0,-19.00,-21.00,-1008.00
2025-08-06T12:48:02.650433,-1,1,-14,0,0,0,80,83,10,0,61,155.53,0,-19.00,-19.00,-1018.00
2025-08-06T12:48:02.835518,0,1,-14,0,0,0,80,83,10,0,61,155.91,0,-20.00,-19.00,-983.00
2025-08-06T12:48:02.854222,-1,1,-14,0,0,0,80,83,10,0,61,155.54,0,-19.00,-17.00,-967.00
2025-08-06T12:48:03.040531,0,1,-14,0,0,0,80,83,10,0,61,155.50,0,101.00,-151.00,-960.00
2025-08-06T12:48:03.040619,0,2,-16,0,-1,0,80,83,10,0,61,155.88,0,-379.00,325.00,-1225.00
2025-08-06T12:48:03.109541,0,4,-19,0,1,0,80,83,10,0,61,155.89,0,518.00,245.00,-1507.00
2025-08-06T12:48:03.245137,-2,7,-9,4,3,-5,80,83,10,0,61,155.95,0,308.00,543.00,-860.00
2025-08-06T12:48:03.313643,1,11,6,9,9,-4,80,83,10,0,61,155.81,0,0.00,239.00,-419.00
2025-08-06T12:48:03.415884,-4,14,30,9,11,1,80,83,10,0,61,156.27,0,-324.00,-297.00,-657.00
2025-08-06T12:48:03.552488,-13,7,48,7,10,4,80,83,72,0,61,156.03,0,-317.00,-176.00,-1266.00
2025-08-06T12:48:03.619571,-8,6,63,6,9,2,80,83,10,0,61,155.66,0,73.00,-139.00,-1501.00
2025-08-06T12:48:03.721554,-14,7,67,4,6,1,80,83,10,0,61,155.74,0,-349.00,319.00,-972.00
2025-08-06T12:48:03.859486,-12,7,76,1,4,2,80,83,10,0,61,155.79,0,-516.00,-128.00,-1243.00
2025-08-06T12:48:03.926775,-13,6,80,1,2,0,80,83,10,0,61,155.81,0,-513.00,163.00,-949.00
2025-08-06T12:48:04.027061,-15,6,82,1,1,0,80,83,33,0,61,155.62,0,-993.00,-430.00,-829.00
2025-08-06T12:48:04.166555,-7,0,86,3,1,1,80,83,62,0,61,155.64,0,-199.00,83.00,-989.00
2025-08-06T12:48:04.231475,-10,0,97,4,2,2,80,83,10,0,61,155.84,0,-228.00,309.00,-967.00
2025-08-06T12:48:04.383418,-7,-1,108,2,2,2,80,83,10,0,61,155.76,0,-293.00,279.00,-1115.00
2025-08-06T12:48:04.435277,-5,-4,115,0,0,1,80,83,10,0,61,155.28,0,-202.00,318.00,-1041.00
2025-08-06T12:48:04.579093,-4,-5,117,0,0,0,80,82,10,0,61,155.52,0,-83.00,129.00,-982.00
2025-08-06T12:48:04.639164,-4,-8,118,0,0,0,80,82,10,0,61,155.40,0,-17.00,93.00,-959.00
2025-08-06T12:48:04.741056,-3,-7,118,0,0,0,80,82,10,0,61,155.64,0,-23.00,165.00,-1003.00
2025-08-06T12:48:04.843130,-3,-7,119,0,0,0,80,82,10,0,61,155.64,0,-117.00,196.00,-1046.00
2025-08-06T12:48:04.985781,-2,-8,118,0,0,0,80,82,10,0,61,155.63,0,-77.00,144.00,-1025.00
2025-08-06T12:48:05.046989,-3,-8,118,0,0,0,80,82,10,0,61,155.61,0,-88.00,164.00,-924.00
2025-08-06T12:48:05.190479,-4,-8,116,0,0,0,80,82,10,0,61,155.49,0,-169.00,231.00,-999.00
2025-08-06T12:48:05.252473,-4,-8,113,0,0,0,80,82,10,0,61,155.56,0,-381.00,270.00,-978.00
2025-08-06T12:48:05.395149,-6,-7,107,0,0,0,80,82,10,0,61,155.26,0,-220.00,52.00,-889.00
2025-08-06T12:48:05.455857,-9,-6,98,0,0,0,80,82,63,0,61,155.63,0,-303.00,67.00,-859.00
2025-08-06T12:48:05.599977,-7,-3,91,0,0,2,80,83,61,0,61,155.70,0,23.00,114.00,-638.00
2025-08-06T12:48:05.659966,2,-5,85,0,0,4,80,83,56,0,61,155.68,0,439.00,74.00,-1034.00
2025-08-06T12:48:05.805328,6,-7,87,0,0,5,80,83,52,0,61,155.63,0,380.00,163.00,-988.00
2025-08-06T12:48:05.864046,9,-8,87,0,0,5,80,83,46,-10,61,155.28,0,510.00,292.00,-877.00
2025-08-06T12:48:06.009690,12,-10,92,0,0,5,80,83,41,-10,61,155.30,0,378.00,255.00,-858.00
2025-08-06T12:48:06.068025,13,-11,96,0,0,4,80,83,35,-20,61,155.38,0,296.00,157.00,-1111.00
2025-08-06T12:48:06.214447,7,-8,108,0,0,4,80,83,30,-20,61,155.26,0,121.00,223.00,-891.00
2025-08-06T12:48:06.221787,6,-5,113,0,0,5,80,83,10,-30,61,155.00,0,160.00,215.00,-1038.00
2025-08-06T12:48:06.419116,9,-7,119,0,0,5,80,83,10,-30,61,155.31,0,312.00,231.00,-1088.00
2025-08-06T12:48:06.425907,10,-8,119,0,0,4,80,83,10,-40,61,155.05,0,690.00,238.00,-925.00
2025-08-06T12:48:06.624053,8,-9,119,0,0,3,80,83,10,-40,61,155.20,0,220.00,147.00,-1133.00
2025-08-06T12:48:06.629928,9,-10,118,0,0,1,80,83,10,-40,61,155.07,0,82.00,137.00,-1212.00
2025-08-06T12:48:06.828798,10,-11,117,0,0,0,80,83,10,-40,61,154.78,0,99.00,137.00,-1238.00
2025-08-06T12:48:06.833965,8,-10,117,0,0,-2,80,83,10,-40,61,155.32,0,69.00,158.00,-1141.00
2025-08-06T12:48:07.033571,12,-9,111,0,0,-3,80,83,10,0,61,155.18,0,271.00,246.00,-1142.00
2025-08-06T12:48:07.037901,13,-9,105,0,0,-5,80,83,10,0,61,155.39,0,299.00,319.00,-1069.00
2025-08-06T12:48:07.238301,11,-11,103,0,0,-6,80,83,36,0,61,155.27,0,390.00,253.00,-1014.00
2025-08-06T12:48:07.241839,9,-10,100,0,0,-7,80,83,45,10,61,155.53,0,292.00,208.00,-1006.00
2025-08-06T12:48:07.343822,7,-8,98,0,0,-8,80,83,53,20,61,155.25,0,262.00,164.00,-957.00
2025-08-06T12:48:07.445755,5,-6,94,0,0,-8,80,83,62,30,61,155.64,0,265.00,134.00,-843.00
2025-08-06T12:48:07.553169,0,-3,92,0,0,-7,80,83,68,40,61,155.61,0,202.00,0.00,-752.00
2025-08-06T12:48:07.649728,-3,-2,94,0,0,-5,80,83,72,40,61,155.68,0,101.00,-83.00,-697.00
2025-08-06T12:48:07.751776,-3,-2,98,0,0,-2,80,83,10,50,61,155.60,0,39.00,-29.00,-761.00
2025-08-06T12:48:07.853783,-1,-4,105,0,0,0,80,83,10,50,61,155.78,0,56.00,4.00,-895.00
2025-08-06T12:48:08.057543,0,-6,116,0,0,1,80,83,10,50,61,155.59,0,-20.00,82.00,-891.00
2025-08-06T12:48:08.057801,2,-6,128,0,0,2,80,83,10,50,61,155.58,0,-51.00,195.00,-968.00
2025-08-06T12:48:08.160125,5,-5,139,0,0,2,80,83,40,0,61,155.64,0,77.00,203.00,-950.00
2025-08-06T12:48:08.263983,6,-5,151,0,0,2,80,83,61,0,61,155.47,0,163.00,368.00,-932.00
2025-08-06T12:48:08.364327,6,-2,160,0,0,2,80,83,59,0,61,155.67,0,130.00,244.00,-943.00
2025-08-06T12:48:08.466690,6,-6,167,0,0,3,80,83,56,0,61,155.55,0,22.00,323.00,-1144.00
2025-08-06T12:48:08.569382,7,-7,168,0,0,0,80,83,54,0,61,155.85,0,-88.00,505.00,-1224.00
2025-08-06T12:48:08.671437,3,-6,158,0,0,-2,80,83,54,0,61,155.35,0,-131.00,430.00,-1228.00
2025-08-06T12:48:08.771749,-2,-5,146,2,-7,-2,80,83,51,0,61,155.40,0,-43.00,401.00,-1012.00
2025-08-06T12:48:08.873856,-6,-5,133,0,-7,-1,80,83,10,0,61,155.45,0,44.00,228.00,-837.00
2025-08-06T12:48:08.982222,-6,-5,123,0,0,0,80,83,10,0,61,155.71,0,238.00,0.00,-767.00
2025-08-06T12:48:09.077584,-3,-2,114,0,0,1,80,83,10,0,61,155.75,0,219.00,-15.00,-978.00
2025-08-06T12:48:09.179708,-1,0,109,0,0,0,80,83,10,0,61,155.68,0,70.00,-10.00,-1132.00
2025-08-06T12:48:09.281981,0,0,106,0,0,0,80,83,10,0,61,155.56,0,65.00,4.00,-1065.00
2025-08-06T12:48:09.383663,0,0,104,0,0,-1,80,83,10,0,61,155.55,0,-45.00,30.00,-1083.00
2025-08-06T12:48:09.491066,-2,0,103,0,0,-2,80,83,10,0,61,155.65,0,-173.00,65.00,-1049.00
2025-08-06T12:48:09.587523,-4,0,101,0,0,-2,80,84,10,0,61,155.65,0,-18.00,16.00,-1058.00
2025-08-06T12:48:09.689943,-6,0,97,0,0,-1,80,84,10,0,61,155.67,0,-153.00,21.00,-894.00
2025-08-06T12:48:09.740599,-6,0,94,0,0,0,80,84,10,0,61,155.46,0,-68.00,-20.00,-827.00
2025-08-06T12:48:09.922688,-6,-1,91,0,0,0,80,84,43,0,61,155.67,0,-153.00,21.00,-894.00
2025-08-06T12:48:09.944604,-5,-2,92,0,0,2,80,84,65,0,61,155.62,0,87.00,-17.00,-938.00
2025-08-06T12:48:10.109081,-2,-2,92,0,0,2,80,84,63,0,61,155.48,0,11.00,1.00,-983.00
2025-08-06T12:48:10.148527,-3,-3,95,0,0,3,80,84,60,0,61,155.46,0,100.00,118.00,-949.00
2025-08-06T12:48:10.250509,-1,-2,95,0,0,3,80,84,57,0,61,155.65,0,78.00,118.00,-1052.00
2025-08-06T12:48:10.412789,0,-3,95,0,0,2,80,84,53,0,61,155.52,0,3.00,143.00,-1287.00
2025-08-06T12:48:10.454750,2,-3,91,0,0,0,80,84,52,0,61,155.84,0,42.00,106.00,-1374.00
2025-08-06T12:48:10.617546,0,-3,89,0,0,-3,81,83,55,0,61,155.49,0,248.00,76.00,-1149.00
2025-08-06T12:48:10.658544,-4,-2,87,0,2,-4,81,83,60,0,61,155.94,0,267.00,0.00,-921.00
2025-08-06T12:48:10.822226,-4,-1,86,0,4,-3,81,83,64,0,61,155.59,0,124.00,-105.00,-914.00
2025-08-06T12:48:10.862612,-5,0,91,0,6,-2,81,83,68,0,61,155.47,0,98.00,-99.00,-815.00
2025-08-06T12:48:11.043109,-4,0,100,0,8,0,81,83,10,0,61,155.65,0,-29.00,3.00,-844.00
2025-08-06T12:48:11.066585,-2,-1,112,0,9,1,81,83,10,0,61,155.76,0,91.00,0.00,-846.00
2025-08-06T12:48:11.231820,0,1,124,0,0,2,81,83,6553,0,61,155.75,0,-34.00,121.00,-916.00
2025-08-06T12:48:11.270537,5,1,137,0,0,3,81,83,10,0,61,155.52,0,40.00,174.00,-925.00
2025-08-06T12:48:11.436696,8,0,150,0,0,3,81,83,61,0,61,155.42,0,123.00,284.00,-1042.00
2025-08-06T12:48:11.475144,11,-1,156,0,0,1,81,83,61,0,61,155.64,0,-46.00,367.00,-1256.00
2025-08-06T12:48:11.576393,11,-1,155,0,0,0,81,82,60,0,61,155.68,0,-120.00,273.00,-1265.00
2025-08-06T12:48:11.679321,7,-2,150,0,0,-2,81,82,60,0,61,155.45,0,-106.00,317.00,-1149.00
2025-08-06T12:48:11.846286,3,-2,140,0,0,-2,81,82,58,0,61,155.48,0,-28.00,273.00,-968.00
2025-08-06T12:48:11.882404,-1,-2,128,0,0,-2,81,82,10,0,61,155.87,0,-18.00,189.00,-940.00
2025-08-06T12:48:12.051042,-4,-1,116,0,0,-1,81,82,10,0,61,155.71,0,11.00,149.00,-865.00
2025-08-06T12:48:12.086574,-5,-1,104,0,0,0,81,82,10,0,61,155.74,0,54.00,73.00,-860.00
2025-08-06T12:48:12.255854,-4,-1,95,0,0,1,81,82,59,0,61,155.69,0,200.00,-119.00,-797.00
2025-08-06T12:48:12.290421,-2,-3,91,0,0,3,81,82,65,0,61,155.49,0,172.00,-104.00,-890.00
2025-08-06T12:48:12.460400,-1,-2,89,0,0,4,81,82,61,0,61,155.70,0,275.00,25.00,-948.00
2025-08-06T12:48:12.494257,0,-3,91,0,0,4,81,82,57,0,61,155.36,0,223.00,149.00,-1079.00
2025-08-06T12:48:12.665341,2,-6,93,0,0,2,80,83,51,0,61,155.42,0,108.00,154.00,-1290.00
2025-08-06T12:48:12.698457,5,-6,93,0,0,0,80,83,51,0,61,155.60,0,-11.00,249.00,-1291.00
2025-08-06T12:48:12.870488,4,-5,86,0,0,-3,80,83,54,0,61,155.35,0,179.00,80.00,-1332.00
2025-08-06T12:48:12.902412,0,-3,82,0,1,-5,80,83,58,0,61,155.55,0,286.00,70.00,-1025.00
2025-08-06T12:48:13.074836,-3,-2,83,0,3,-4,80,83,63,0,61,155.57,0,182.00,-32.00,-869.00
2025-08-06T12:48:13.074922,-4,0,86,0,5,-3,80,83,67,0,61,155.59,0,124.00,-55.00,-852.00
2025-08-06T12:48:13.157287,-4,1,92,0,7,-1,80,83,68,10,61,155.50,0,131.00,3.00,-856.00
2025-08-06T12:48:13.259332,-3,1,101,0,8,0,80,83,10,10,61,155.51,0,27.00,28.00,-904.00
2025-08-06T12:48:13.382118,-1,0,110,0,8,0,80,83,10,10,61,155.84,0,98.00,19.00,-819.00
2025-08-06T12:48:13.463178,0,0,121,0,0,2,80,83,10,0,61,156.25,0,97.00,53.00,-920.00
2025-08-06T12:48:13.587083,4,0,131,0,0,2,81,83,10,0,61,155.66,0,17.00,215.00,-1007.00
2025-08-06T12:48:13.667287,8,-2,138,0,0,1,81,83,48,0,61,155.81,0,-73.00,194.00,-1139.00
2025-08-06T12:48:13.791823,9,-2,142,0,0,0,81,83,61,0,61,155.61,0,-6.00,233.00,-1130.00
2025-08-06T12:48:13.871161,10,-1,142,0,0,0,81,83,61,0,61,155.60,0,-76.00,227.00,-1100.00
2025-08-06T12:48:13.996653,8,-1,138,0,0,-1,81,83,10,0,61,155.72,0,-7.00,302.00,-1052.00
2025-08-06T12:48:14.075196,5,-2,130,0,0,-1,81,83,10,0,61,155.64,0,5.00,227.00,-1031.00
2025-08-06T12:48:14.177217,2,-2,121,0,0,-1,81,83,10,0,61,155.60,0,63.00,150.00,-952.00
2025-08-06T12:48:14.279197,0,-1,110,0,0,-1,81,83,10,0,61,155.69,0,46.00,153.00,-912.00
2025-08-06T12:48:14.406094,-1,-2,99,0,0,0,81,83,10,0,61,155.52,0,123.00,77.00,-851.00
2025-08-06T12:48:14.483144,0,-2,89,0,0,1,81,83,64,0,61,155.68,0,188.00,7.00,-802.00
2025-08-06T12:48:14.611397,1,-3,83,0,0,2,80,84,62,0,61,155.93,0,181.00,-20.00,-915.00
2025-08-06T12:48:14.687074,3,-4,78,0,0,3,80,84,58,0,61,155.48,0,289.00,71.00,-1015.00
2025-08-06T12:48:14.815571,7,-4,76,0,0,2,80,84,56,0,61,155.48,0,224.00,46.00,-1076.00
2025-08-06T12:48:14.891242,8,-4,76,0,0,1,80,84,55,0,61,155.43,0,376.00,143.00,-1185.00
2025-08-06T12:48:15.020475,8,-4,76,0,0,-1,80,84,56,0,61,155.46,0,284.00,111.00,-1367.00
2025-08-06T12:48:15.095139,4,-2,76,0,0,-4,80,84,60,0,61,155.51,0,224.00,53.00,-1093.00
2025-08-06T12:48:15.225107,0,0,76,0,2,-4,80,84,65,0,61,155.73,0,8.00,-52.00,-822.00
2025-08-06T12:48:15.299235,-1,1,77,0,1,-2,80,84,68,0,61,155.67,0,-109.00,12.00,-673.00
2025-08-06T12:48:15.401016,-2,1,78,0,0,0,80,84,67,0,61,155.34,0,-69.00,25.00,-716.00
2025-08-06T12:48:15.532371,-1,0,78,0,0,2,80,84,64,0,61,155.87,0,81.00,-163.00,-830.00
2025-08-06T12:48:15.605038,0,-2,79,1,0,3,80,83,60,0,61,155.64,0,87.00,79.00,-1079.00
2025-08-06T12:48:15.737231,4,-2,79,0,0,2,80,83,58,0,61,155.48,0,14.00,88.00,-1205.00
2025-08-06T12:48:15.809196,4,-3,79,0,0,0,80,83,57,0,61,155.39,0,139.00,120.00,-1169.00
2025-08-06T12:48:15.941997,5,-3,78,0,0,0,80,83,58,0,61,155.65,0,114.00,47.00,-1167.00
2025-08-06T12:48:16.013083,5,-3,77,0,0,-2,80,83,61,0,61,155.61,0,152.00,63.00,-1176.00
2025-08-06T12:48:16.147560,4,-2,77,0,0,-4,80,83,65,0,61,155.61,0,115.00,45.00,-1102.00
2025-08-06T12:48:16.166130,5,-1,76,0,0,-5,80,83,71,0,61,155.59,0,54.00,79.00,-1062.00
2025-08-06T12:48:16.268047,4,1,75,0,0,-5,80,83,77,0,61,156.03,0,10.00,87.00,-1039.00
2025-08-06T12:48:16.453819,4,3,73,-1,0,-5,80,83,83,10,61,155.78,0,56.00,-46.00,-999.00
2025-08-06T12:48:16.472050,2,4,71,-1,-1,-6,80,83,90,10,61,155.92,0,14.00,-113.00,-1050.00
2025-08-06T12:48:16.658627,-1,3,69,-1,-1,-6,81,83,95,20,61,156.10,0,17.00,-89.00,-991.00
2025-08-06T12:48:16.675906,-4,2,70,0,-1,-6,81,83,101,30,61,156.10,0,23.00,-4.00,-936.00
2025-08-06T12:48:16.866265,-2,5,71,0,0,-5,81,83,110,30,61,156.28,0,60.00,-35.00,-934.00
2025-08-06T12:48:16.879841,-3,7,73,-1,0,-5,81,83,114,40,61,155.96,0,-1.00,-26.00,-895.00
2025-08-06T12:48:17.070952,-5,7,75,-1,1,-3,81,83,118,40,61,156.00,0,29.00,-35.00,-708.00
2025-08-06T12:48:17.083853,-9,5,76,0,2,-1,81,83,101,50,61,156.17,0,-53.00,-115.00,-794.00
2025-08-06T12:48:17.273050,-8,6,76,0,2,0,81,83,111,50,61,156.41,0,-53.00,-191.00,-683.00
2025-08-06T12:48:17.287797,-7,7,78,1,2,3,81,83,116,50,61,155.93,0,-15.00,-173.00,-661.00
2025-08-06T12:48:17.389884,0,14,77,1,2,7,81,83,114,40,61,155.96,0,-26.00,-54.00,-661.00
2025-08-06T12:48:17.583189,1,17,76,0,3,11,81,83,102,30,61,155.85,0,43.00,-187.00,-623.00
2025-08-06T12:48:17.593837,6,9,77,0,3,13,81,84,85,20,61,155.81,0,103.00,-85.00,-939.00
2025-08-06T12:48:17.784992,7,-2,81,0,4,12,81,84,70,10,61,155.75,0,165.00,30.00,-1531.00
2025-08-06T12:48:17.797920,5,-5,87,1,3,7,81,84,61,0,61,155.72,0,182.00,98.00,-1460.00
2025-08-06T12:48:17.989756,5,-3,92,1,2,3,81,84,57,0,61,155.37,0,83.00,275.00,-1178.00
2025-08-06T12:48:18.001851,7,-4,92,0,2,1,81,84,54,0,61,155.64,0,-60.00,195.00,-1339.00
2025-08-06T12:48:18.194550,7,-3,87,1,1,-1,81,84,54,0,61,155.66,0,299.00,246.00,-839.00
2025-08-06T12:48:18.205852,4,-4,92,0,1,0,81,84,54,0,61,155.44,0,157.00,79.00,-922.00
2025-08-06T12:48:18.307913,4,-7,93,0,1,0,81,84,52,0,61,155.60,0,113.00,73.00,-979.00
2025-08-06T12:48:18.501940,3,-8,94,0,1,0,81,84,50,0,61,155.59,0,146.00,230.00,-969.00
2025-08-06T12:48:18.511767,4,-9,94,0,1,0,81,84,49,0,61,155.71,0,59.00,141.00,-1049.00
2025-08-06T12:48:18.613787,3,-8,94,0,0,0,81,84,50,0,61,155.71,0,117.00,182.00,-938.00
2025-08-06T12:48:18.808925,3,-8,94,0,0,0,81,84,50,0,61,155.39,0,67.00,95.00,-1023.00
2025-08-06T12:48:18.817728,2,-7,95,0,0,0,81,84,50,0,61,155.39,0,98.00,141.00,-991.00
2025-08-06T12:48:19.013699,2,-7,95,0,0,0,81,84,50,0,61,155.51,0,42.00,74.00,-997.00
2025-08-06T12:48:19.021643,1,-5,95,0,0,0,81,84,51,0,61,155.55,0,55.00,115.00,-975.00
2025-08-06T12:48:19.218514,0,-4,94,0,1,0,81,84,51,0,61,155.72,0,-6.00,99.00,-980.00
2025-08-06T12:48:19.227031,0,-4,93,0,0,0,81,84,51,0,61,155.52,0,70.00,76.00,-1016.00
2025-08-06T12:48:19.327642,1,-4,92,0,0,0,81,84,50,0,61,155.41,0,-1.00,104.00,-994.00
2025-08-06T12:48:19.429707,1,-5,93,0,0,0,81,84,50,0,61,155.65,0,25.00,80.00,-1012.00
2025-08-06T12:48:19.480617,1,-5,92,0,0,0,81,84,50,0,61,155.40,0,46.00,102.00,-1004.00
2025-08-06T12:48:19.633756,0,-6,93,0,0,0,81,84,50,0,61,155.59,0,14.00,54.00,-1011.00
2025-08-06T12:48:19.684636,0,-5,93,0,0,0,81,84,50,0,61,155.73,0,38.00,126.00,-999.00
2025-08-06T12:48:19.832881,0,-6,93,0,0,0,81,84,50,0,61,155.81,0,-5.00,61.00,-987.00
2025-08-06T12:48:19.889012,0,-5,93,0,0,0,81,84,50,0,61,155.59,0,27.00,129.00,-1026.00
2025-08-06T12:48:20.037642,0,-5,93,0,0,0,81,84,50,0,61,155.51,0,2.00,78.00,-992.00
2025-08-06T12:48:20.092616,0,-5,92,0,0,0,81,84,50,0,61,155.50,0,29.00,116.00,-1002.00
2025-08-06T12:48:20.242697,0,-5,93,0,0,0,81,84,50,0,61,155.66,0,20.00,146.00,-932.00
2025-08-06T12:48:20.296538,0,-6,93,0,0,0,81,84,50,0,61,155.49,0,-3.00,62.00,-1018.00
2025-08-06T12:48:20.465146,0,-6,93,0,0,0,81,84,50,0,61,155.45,0,3.00,154.00,-992.00
2025-08-06T12:48:20.501015,0,-6,92,0,0,0,81,84,50,0,61,155.43,0,-5.00,38.00,-1029.00
2025-08-06T12:48:20.652048,0,-6,91,0,0,0,81,84,51,0,61,155.44,0,-103.00,124.00,-1268.00
2025-08-06T12:48:20.705557,0,-6,90,0,0,-3,81,84,53,0,61,155.47,0,-56.00,105.00,-1265.00
2025-08-06T12:48:20.858214,0,-5,91,0,0,-5,81,84,58,0,61,155.48,0,19.00,199.00,-1091.00
2025-08-06T12:48:20.910357,0,-6,91,0,0,-6,81,84,64,0,61,155.69,0,-82.00,172.00,-1127.00
2025-08-06T12:48:21.010806,-1,-5,90,0,0,-7,81,84,71,10,61,155.78,0,-18.00,125.00,-1012.00
2025-08-06T12:48:21.112590,-4,-4,90,0,0,-7,81,84,79,20,61,155.89,0,-83.00,77.00,-979.00
2025-08-06T12:48:21.266367,-4,0,86,0,0,-7,81,84,88,20,61,155.84,0,0.00,-5.00,-925.00
2025-08-06T12:48:21.316477,-5,0,85,-1,0,-6,81,84,96,30,61,156.18,0,-84.00,-31.00,-959.00
2025-08-06T12:48:21.418452,-5,-1,84,0,0,-6,81,84,101,40,61,156.26,0,-27.00,-88.00,-926.00
2025-08-06T12:48:21.578872,-4,-2,84,0,0,-6,81,84,104,40,61,156.03,0,25.00,2.00,-865.00
2025-08-06T12:48:21.622462,-3,1,80,0,1,-4,81,84,114,50,61,156.24,0,-67.00,-52.00,-880.00
2025-08-06T12:48:21.778497,0,8,76,0,0,-3,81,84,119,50,61,156.24,0,-57.00,-20.00,-741.00
2025-08-06T12:48:21.826498,-2,9,80,0,0,0,81,84,122,60,61,156.03,0,-54.00,-116.00,-750.00
2025-08-06T12:48:21.988387,-4,8,78,0,1,1,81,84,120,60,61,156.01,0,-33.00,-153.00,-683.00
2025-08-06T12:48:22.030400,-4,4,78,0,0,4,81,84,115,50,61,155.97,0,93.00,-55.00,-742.00
2025-08-06T12:48:22.191829,-3,0,81,1,0,7,81,84,108,40,61,156.22,0,-70.00,126.00,-780.00
2025-08-06T12:48:22.234553,0,-3,84,0,0,9,81,84,99,40,61,155.76,0,0.00,96.00,-874.00
2025-08-06T12:48:22.392734,1,-5,86,0,0,11,81,84,87,30,61,155.87,0,56.00,168.00,-1106.00
2025-08-06T12:48:22.438440,6,-7,88,0,0,10,81,84,79,20,61,155.81,0,90.00,91.00,-1093.00
2025-08-06T12:48:22.597542,3,-6,95,0,0,9,81,84,69,10,61,155.82,0,108.00,198.00,-1070.00
2025-08-06T12:48:22.642458,6,-5,97,0,0,7,80,84,62,0,61,155.81,0,88.00,233.00,-1116.00
2025-08-06T12:48:22.802299,4,-5,97,0,0,6,80,84,56,0,61,155.53,0,34.00,156.00,-1110.00
2025-08-06T12:48:22.846287,5,-7,97,0,0,4,80,84,50,0,61,155.41,0,96.00,74.00,-1229.00
2025-08-06T12:48:23.008749,7,-8,95,0,0,2,80,84,48,0,61,155.37,0,158.00,117.00,-1127.00
2025-08-06T12:48:23.008836,9,-8,94,0,0,1,80,84,47,-10,61,155.48,0,160.00,79.00,-1072.00
2025-08-06T12:48:23.101424,9,-9,95,1,0,0,80,84,47,-10,61,155.73,0,132.00,118.00,-1058.00
2025-08-06T12:48:23.211905,6,-8,96,1,0,-1,80,84,48,-10,61,155.46,0,79.00,115.00,-1223.00
2025-08-06T12:48:23.305448,3,-5,97,2,0,-3,80,84,50,0,61,155.61,0,88.00,138.00,-1248.00
2025-08-06T12:48:23.407483,3,-3,96,1,0,-5,80,84,56,0,61,155.64,0,68.00,96.00,-1144.00
2025-08-06T12:48:23.519042,2,-2,96,0,0,-6,80,84,62,0,61,155.64,0,131.00,98.00,-1018.00
2025-08-06T12:48:23.611341,2,0,95,0,0,-7,81,85,74,10,61,155.91,0,21.00,-18.00,-1047.00
2025-08-06T12:48:23.713295,1,3,93,0,0,-7,81,85,81,20,61,155.89,0,-2.00,-70.00,-949.00
2025-08-06T12:48:23.826283,2,7,86,0,0,-7,81,85,89,30,61,155.74,0,-120.00,-43.00,-925.00
2025-08-06T12:48:23.917315,-3,7,87,-1,-1,-6,81,85,97,30,61,155.83,0,-101.00,-106.00,-878.00
2025-08-06T12:48:24.019237,-4,5,88,-1,-1,-6,81,85,102,40,61,155.95,0,-94.00,-110.00,-960.00
2025-08-06T12:48:24.121262,-8,3,87,-1,-1,-5,81,85,109,50,61,155.88,0,-61.00,-125.00,-927.00
2025-08-06T12:48:24.235960,-11,6,87,0,-1,-5,81,85,113,50,61,156.24,0,-125.00,-76.00,-823.00
2025-08-06T12:48:24.325276,-13,8,85,-1,-1,-3,81,85,90,60,61,156.13,0,-117.00,-120.00,-839.00
2025-08-06T12:48:24.440944,-15,8,86,-1,0,-2,81,85,6553,60,61,155.95,0,-212.00,-195.00,-825.00
2025-08-06T12:48:24.529372,-16,8,87,0,0,-1,81,85,6553,60,61,155.97,0,-147.00,-182.00,-803.00
2025-08-06T12:48:24.654686,-15,9,87,0,0,0,81,84,80,60,61,156.16,0,-155.00,-152.00,-720.00
2025-08-06T12:48:24.733449,-13,9,87,0,0,2,81,84,109,60,61,155.74,0,4.00,-126.00,-753.00
2025-08-06T12:48:24.835346,-10,7,87,0,1,4,81,84,108,0,61,155.85,0,-95.00,-40.00,-774.00
2025-08-06T12:48:24.937360,-5,6,85,0,2,6,81,84,101,0,61,155.93,0,66.00,-45.00,-828.00
2025-08-06T12:48:25.055459,0,3,85,0,3,8,81,84,91,-10,61,155.82,0,67.00,-88.00,-1030.00
2025-08-06T12:48:25.141138,4,0,84,0,3,9,81,84,82,-20,61,155.84,0,-60.00,-32.00,-1030.00
2025-08-06T12:48:25.259898,7,-2,85,0,2,8,81,84,73,-30,61,155.85,0,90.00,55.00,-1133.00
2025-08-06T12:48:25.345263,10,-2,83,1,1,7,81,84,64,-40,61,155.77,0,167.00,40.00,-1166.00
2025-08-06T12:48:25.464589,10,0,77,1,1,5,81,84,60,-40,61,155.41,0,276.00,6.00,-1408.00
2025-08-06T12:48:25.549201,11,3,72,0,1,2,81,84,55,-50,61,155.45,0,307.00,-21.00,-1289.00
2025-08-06T12:48:25.669341,14,1,67,0,1,-1,81,83,58,-50,61,155.46,0,270.00,14.00,-1150.00
2025-08-06T12:48:25.753109,12,1,57,-1,1,-3,81,83,59,-50,61,155.77,0,260.00,47.00,-970.00
2025-08-06T12:48:25.874297,13,7,52,-2,1,-3,81,83,69,-50,61,155.48,0,94.00,-50.00,-863.00
2025-08-06T12:48:25.957114,4,8,49,-3,1,-1,81,83,53,-40,61,155.67,0,21.00,-154.00,-920.00
2025-08-06T12:48:26.079086,-12,2,48,-3,2,0,81,83,10,0,61,155.73,0,94.00,-279.00,-985.00
2025-08-06T12:48:26.161124,-1,-1,47,0,2,0,81,83,10,0,61,155.83,0,38.00,63.00,-1215.00
2025-08-06T12:48:26.284048,0,-2,54,0,2,0,81,83,10,0,61,155.68,0,-283.00,41.00,-1214.00
2025-08-06T12:48:26.365216,-8,3,50,0,1,0,81,83,10,0,61,155.74,0,-210.00,55.00,-689.00
2025-08-06T12:48:26.416002,-3,4,52,0,1,0,81,83,10,0,61,155.88,0,-19.00,-162.00,-1321.00
2025-08-06T12:48:26.590945,-4,8,52,0,0,-1,81,83,10,0,61,155.39,0,145.00,-41.00,-1046.00
2025-08-06T12:48:26.620094,-2,1,43,0,-1,0,80,84,10,0,61,155.71,0,-80.00,225.00,-1152.00
2025-08-06T12:48:26.722133,3,-5,35,0,0,-1,80,84,10,0,61,155.84,0,105.00,198.00,-980.00
2025-08-06T12:48:26.823964,8,-7,33,0,0,-1,80,84,31,0,61,155.84,0,96.00,183.00,-919.00
2025-08-06T12:48:27.000750,7,-6,34,0,0,0,80,84,10,0,61,155.74,0,201.00,174.00,-1065.00
2025-08-06T12:48:27.027968,6,-4,34,0,1,-1,80,84,32,0,61,155.80,0,154.00,-2.00,-1023.00
2025-08-06T12:48:27.207104,7,-5,34,0,1,-2,80,84,38,0,61,155.89,0,177.00,29.00,-1063.00
2025-08-06T12:48:27.232158,6,-2,37,0,0,-2,80,84,55,0,61,155.92,0,170.00,-7.00,-905.00
2025-08-06T12:48:27.334016,5,0,37,1,0,-1,80,84,70,0,61,155.65,0,188.00,-43.00,-776.00
2025-08-06T12:48:27.512551,2,0,39,3,0,0,80,84,79,0,61,155.79,0,124.00,55.00,-835.00
2025-08-06T12:48:27.537976,0,0,40,3,1,2,80,84,81,0,61,155.86,0,53.00,93.00,-981.00
2025-08-06T12:48:27.717345,0,-3,40,3,1,3,80,84,78,0,61,155.92,0,-144.00,45.00,-872.00
2025-08-06T12:48:27.742029,1,-5,38,2,0,3,80,84,74,0,61,155.63,0,-149.00,185.00,-1025.00
2025-08-06T12:48:27.922449,0,-6,35,1,0,3,80,84,72,0,61,155.87,0,-30.00,307.00,-1066.00
2025-08-06T12:48:27.945918,0,-8,32,0,0,2,80,84,70,0,61,155.66,0,5.00,213.00,-970.00
2025-08-06T12:48:28.127019,0,-10,30,0,1,2,80,84,68,0,61,155.67,0,-15.00,163.00,-1065.00
2025-08-06T12:48:28.149972,-5,-11,29,1,0,1,80,84,65,0,61,155.75,0,40.00,181.00,-1053.00
2025-08-06T12:48:28.332949,-6,-10,33,1,0,1,80,84,63,0,61,155.58,0,-115.00,-21.00,-712.00
2025-08-06T12:48:28.353799,0,-5,42,1,0,1,80,84,63,0,61,155.53,0,204.00,155.00,-971.00
2025-08-06T12:48:28.539207,14,-5,38,0,0,1,80,84,59,0,61,155.51,0,233.00,154.00,-1175.00
2025-08-06T12:48:28.557881,13,-10,27,0,0,0,80,84,59,0,61,155.77,0,316.00,125.00,-1137.00
2025-08-06T12:48:28.741451,17,-7,29,0,0,-2,81,84,63,0,61,155.71,0,304.00,168.00,-1073.00
2025-08-06T12:48:28.761917,14,-7,27,0,0,-3,81,84,67,0,61,155.51,0,284.00,68.00,-1131.00
2025-08-06T12:48:28.948610,6,-5,30,0,0,-3,81,84,72,0,61,155.53,0,146.00,137.00,-1009.00
2025-08-06T12:48:28.965786,6,-3,31,0,0,-5,81,84,78,0,61,155.93,0,79.00,125.00,-1011.00
2025-08-06T12:48:29.068865,10,-4,29,0,0,-5,81,84,81,0,61,155.87,0,151.00,68.00,-928.00
2025-08-06T12:48:29.169888,10,-3,30,-1,0,-4,81,84,85,0,61,155.66,0,128.00,25.00,-859.00
2025-08-06T12:48:29.357136,11,-2,32,-1,0,-3,81,84,89,10,61,155.79,0,160.00,-9.00,-825.00
2025-08-06T12:48:29.373884,12,-1,30,-1,0,-2,81,84,92,10,61,155.94,0,216.00,-5.00,-748.00
2025-08-06T12:48:29.424917,12,0,30,0,0,0,81,84,91,10,61,155.83,0,202.00,60.00,-698.00
2025-08-06T12:48:29.560450,10,-1,31,0,0,2,81,84,89,10,61,155.91,0,236.00,36.00,-910.00
2025-08-06T12:48:29.765151,5,-5,33,0,0,3,81,84,84,0,61,155.90,0,219.00,20.00,-1013.00
2025-08-06T12:48:29.781662,4,-6,34,1,0,2,81,84,81,0,61,155.93,0,175.00,82.00,-1039.00
2025-08-06T12:48:29.975677,3,-7,35,2,0,2,81,84,78,0,61,155.77,0,141.00,53.00,-1020.00
2025-08-06T12:48:29.975921,3,-7,36,2,0,2,81,84,75,0,61,156.05,0,63.00,82.00,-943.00
2025-08-06T12:48:30.036920,2,-7,36,2,0,2,81,84,73,0,61,155.84,0,-2.00,136.00,-1060.00
2025-08-06T12:48:30.177413,2,-8,34,1,0,2,81,84,72,0,61,155.81,0,29.00,111.00,-1058.00
2025-08-06T12:48:30.240738,0,-8,34,1,0,1,81,84,71,0,61,155.63,0,7.00,135.00,-1081.00
2025-08-06T12:48:30.342806,0,-9,32,0,0,1,81,84,70,0,61,155.76,0,-100.00,168.00,-976.00
2025-08-06T12:48:30.487498,1,-10,31,0,0,1,81,84,69,0,61,155.89,0,-7.00,232.00,-1008.00
2025-08-06T12:48:30.546735,1,-10,30,0,0,0,81,84,68,0,61,155.80,0,50.00,232.00,-1069.00
2025-08-06T12:48:30.686905,1,-10,30,0,0,0,81,84,68,0,61,155.72,0,59.00,208.00,-997.00
2025-08-06T12:48:30.752015,0,-9,31,0,0,-2,81,84,69,0,61,155.94,0,13.00,224.00,-1103.00
2025-08-06T12:48:30.891719,2,-7,31,0,0,-4,81,84,73,0,61,155.74,0,25.00,201.00,-1190.00
2025-08-06T12:48:30.954725,5,-4,31,0,-1,-5,81,84,78,0,61,155.74,0,7.00,154.00,-1159.00
2025-08-06T12:48:31.096504,6,-2,30,-1,-1,-5,81,84,84,0,61,156.02,0,17.00,121.00,-1132.00
2025-08-06T12:48:31.158848,7,-1,30,-1,0,-4,81,84,90,10,61,155.82,0,13.00,124.00,-1027.00
2025-08-06T12:48:31.304143,7,0,30,-2,0,-3,81,84,93,10,61,155.84,0,91.00,87.00,-944.00
2025-08-06T12:48:31.363058,7,0,28,-2,0,-2,81,84,96,20,61,155.51,0,115.00,17.00,-945.00
2025-08-06T12:48:31.511250,7,0,27,-2,0,-2,81,84,99,20,61,155.93,0,149.00,-20.00,-1036.00
2025-08-06T12:48:31.566839,7,0,26,-2,0,-3,81,84,101,20,61,155.64,0,206.00,-10.00,-868.00
2025-08-06T12:48:31.715968,9,1,26,-1,0,0,82,85,104,0,61,155.71,0,220.00,-59.00,-519.00
2025-08-06T12:48:31.770796,6,1,27,0,0,3,82,85,102,0,61,156.02,0,183.00,19.00,-682.00
2025-08-06T12:48:31.920747,1,-1,30,0,1,4,82,85,77,0,61,155.97,0,-52.00,10.00,-1073.00
2025-08-06T12:48:31.974679,1,-4,30,-1,0,2,82,85,45,0,61,155.91,0,-241.00,65.00,-1193.00
2025-08-06T12:48:32.131267,0,-4,31,-4,-1,1,82,85,33,0,61,155.61,0,-148.00,143.00,-1109.00
2025-08-06T12:48:32.178845,0,-6,26,-5,-1,0,82,85,32,0,61,155.89,0,-186.00,48.00,-1074.00
2025-08-06T12:48:32.326669,0,-7,18,-6,-3,0,82,85,47,0,61,155.94,0,-70.00,106.00,-1040.00
2025-08-06T12:48:32.382559,0,-6,8,-7,-3,0,82,85,67,0,61,155.97,0,-40.00,231.00,-1079.00
2025-08-06T12:48:32.530053,1,-5,-3,-7,-2,0,82,85,10,0,61,155.78,0,22.00,290.00,-959.00
2025-08-06T12:48:32.586586,3,-4,-13,-6,-1,0,82,85,10,0,61,155.73,0,79.00,265.00,-841.00
2025-08-06T12:48:32.734972,4,-3,-23,-5,0,1,82,84,10,0,61,155.88,0,167.00,220.00,-716.00
2025-08-06T12:48:32.790841,2,-4,-31,-4,1,3,82,84,36,0,61,155.67,0,183.00,144.00,-861.00
2025-08-06T12:48:32.940282,3,-8,-44,-4,0,4,82,84,33,0,61,155.78,0,206.00,188.00,-933.00
2025-08-06T12:48:32.994647,3,-12,-51,-2,0,4,82,84,33,0,61,155.59,0,37.00,212.00,-1182.00
2025-08-06T12:48:33.144364,2,-13,-46,-1,0,3,82,84,41,0,61,155.60,0,310.00,586.00,-1133.00
2025-08-06T12:48:33.198635,1,-16,-33,0,0,2,82,84,54,-10,61,155.56,0,-148.00,107.00,-804.00
2025-08-06T12:48:33.250297,-5,-16,-23,0,-1,3,82,84,70,-10,61,155.57,0,256.00,84.00,-700.00
2025-08-06T12:48:33.352299,-5,-17,-20,1,-2,5,82,84,66,-10,61,155.63,0,-29.00,-64.00,-664.00
2025-08-06T12:48:33.453360,-4,-19,-21,1,-3,7,82,84,59,-20,61,155.51,0,-16.00,186.00,-787.00
2025-08-06T12:48:33.656281,-1,-18,-25,0,-3,8,82,84,51,-30,61,155.22,0,-9.00,310.00,-955.00
2025-08-06T12:48:33.657408,0,-16,-26,1,-2,6,82,83,38,-40,61,155.38,0,28.00,459.00,-1224.00
2025-08-06T12:48:33.861201,-3,-19,-28,1,-1,4,82,83,35,-40,61,155.40,0,-21.00,488.00,-1198.00
2025-08-06T12:48:33.861424,-7,-22,-26,1,-1,0,82,83,34,-50,61,155.35,0,-147.00,438.00,-1216.00
2025-08-06T12:48:33.963572,-7,-25,-26,0,-1,-1,82,83,36,-50,61,155.45,0,-281.00,487.00,-1018.00
2025-08-06T12:48:34.065369,-5,-22,-29,0,0,-3,82,83,40,-40,61,155.35,0,-154.00,548.00,-1152.00
2025-08-06T12:48:34.168405,-6,-17,-33,0,0,-5,82,83,45,-40,61,155.20,0,-154.00,520.00,-969.00
2025-08-06T12:48:34.270258,-6,-16,-41,0,2,-6,82,83,51,-30,61,155.40,0,-187.00,453.00,-990.00
2025-08-06T12:48:34.372531,-6,-14,-39,0,2,-5,82,83,56,-20,61,155.58,0,15.00,269.00,-858.00
2025-08-06T12:48:34.473397,-3,-13,-25,0,3,-4,82,83,59,-20,61,155.77,0,46.00,229.00,-872.00
2025-08-06T12:48:34.575610,0,-14,-17,0,2,-3,82,83,65,-10,61,155.71,0,63.00,114.00,-1068.00
2025-08-06T12:48:34.677407,0,-16,-18,0,2,-4,82,84,71,-10,61,155.41,0,211.00,440.00,-1055.00
2025-08-06T12:48:34.779394,0,-18,-16,3,1,-6,82,84,35,0,61,155.57,0,339.00,220.00,-1026.00
2025-08-06T12:48:34.881233,9,-16,-14,6,0,-6,82,84,10,0,61,155.51,0,285.00,256.00,-814.00
2025-08-06T12:48:34.987506,14,-14,-4,8,0,-5,82,84,10,0,61,155.61,0,411.00,55.00,-800.00
2025-08-06T12:48:35.085203,16,-5,16,9,0,-3,82,84,43,0,61,155.96,0,364.00,123.00,-772.00
2025-08-06T12:48:35.188500,12,3,32,11,0,-1,82,84,37,10,61,155.85,0,581.00,134.00,-737.00
2025-08-06T12:48:35.294693,10,4,41,11,2,0,82,84,32,10,61,155.92,0,509.00,96.00,-682.00
2025-08-06T12:48:35.391861,10,-1,45,11,2,3,82,84,77,0,61,155.51,0,-111.00,22.00,-712.00
2025-08-06T12:48:35.499336,6,-3,42,8,1,6,82,84,75,0,61,155.85,0,-122.00,55.00,-738.00
2025-08-06T12:48:35.595239,1,-5,40,5,0,7,82,84,70,0,61,155.82,0,-248.00,250.00,-736.00
2025-08-06T12:48:35.704333,2,-5,36,3,0,7,81,84,61,-10,61,155.66,0,-161.00,209.00,-905.00
2025-08-06T12:48:35.799187,3,-6,32,1,0,7,81,84,53,-10,61,155.37,0,44.00,263.00,-1051.00
2025-08-06T12:48:35.909125,1,-9,32,0,0,6,81,84,45,-20,61,155.10,0,53.00,322.00,-1068.00
2025-08-06T12:48:36.003228,0,-11,31,0,0,5,81,84,39,-30,61,155.34,0,-4.00,481.00,-1122.00
2025-08-06T12:48:36.116881,0,-13,29,0,1,2,81,84,36,-30,61,155.66,0,117.00,329.00,-1121.00
2025-08-06T12:48:36.207165,0,-15,29,0,1,1,81,84,34,-30,61,155.55,0,179.00,177.00,-1186.00
2025-08-06T12:48:36.318859,0,-16,28,1,0,-1,81,84,34,-40,61,155.33,0,-1.00,377.00,-1190.00
2025-08-06T12:48:36.360467,-1,-17,29,1,1,-4,81,84,39,-30,61,155.44,0,87.00,363.00,-1414.00
2025-08-06T12:48:36.523263,3,-14,32,3,2,-10,81,84,45,-30,61,155.59,0,27.00,391.00,-1536.00
2025-08-06T12:48:36.564237,12,-8,32,-1,2,-13,81,84,48,-10,61,155.74,0,-86.00,424.00,-1047.00
2025-08-06T12:48:36.729551,19,-8,31,-6,1,-12,81,85,35,0,61,155.64,0,-239.00,146.00,-788.00
2025-08-06T12:48:36.768267,20,-9,30,-9,0,-8,81,85,10,0,61,155.70,0,-39.00,30.00,-691.00
2025-08-06T12:48:36.932994,19,-11,24,-10,-2,-5,81,85,42,10,61,155.81,0,51.00,-203.00,-655.00
2025-08-06T12:48:36.972269,16,-7,15,-10,-5,-2,81,85,36,10,61,155.86,0,130.00,-24.00,-787.00
2025-08-06T12:48:37.138745,12,-5,3,0,0,0,81,85,43,10,61,155.97,0,186.00,8.00,-864.00
2025-08-06T12:48:37.176129,12,-6,-8,0,0,0,81,85,10,10,61,155.78,0,215.00,46.00,-983.00
2025-08-06T12:48:37.342788,11,-2,-13,0,0,0,81,85,10,10,61,155.86,0,413.00,204.00,-859.00
2025-08-06T12:48:37.381151,13,0,-13,0,0,1,81,85,10,0,61,155.81,0,418.00,536.00,-942.00
2025-08-06T12:48:37.548817,3,-2,-11,0,0,2,81,85,10,0,61,155.70,0,183.00,45.00,-817.00
2025-08-06T12:48:37.584975,3,-6,-5,0,0,3,81,85,10,0,61,156.02,0,3.00,169.00,-1119.00
2025-08-06T12:48:37.752164,2,-6,-4,0,0,1,82,84,10,0,61,155.80,0,145.00,112.00,-1110.00
2025-08-06T12:48:37.789125,2,-3,-6,0,0,1,82,84,10,0,61,155.81,0,-34.00,263.00,-1003.00
2025-08-06T12:48:37.959567,1,0,-6,0,0,0,82,84,10,0,61,155.59,0,-11.00,-27.00,-1049.00
2025-08-06T12:48:37.993399,1,0,-6,0,0,0,82,84,10,0,61,155.66,0,16.00,-7.00,-1000.00
2025-08-06T12:48:38.162155,1,0,-6,0,0,0,82,84,10,0,61,155.97,0,20.00,-8.00,-990.00
2025-08-06T12:48:38.198373,1,0,-6,0,0,0,82,84,10,0,61,155.71,0,21.00,-8.00,-994.00
2025-08-06T12:48:38.366529,1,0,-6,0,0,0,82,84,10,0,61,155.57,0,21.00,-10.00,-999.00
2025-08-06T12:48:38.402977,1,0,-6,0,0,0,82,84,10,0,61,155.57,0,19.00,-7.00,-981.00
2025-08-06T12:48:38.502873,1,0,-6,0,0,0,82,84,10,0,61,155.90,0,19.00,-9.00,-1032.00
2025-08-06T12:48:38.673684,1,0,-6,0,0,0,82,84,10,0,61,155.69,0,23.00,-12.00,-1013.00
2025-08-06T12:48:38.706955,1,0,-6,0,0,0,81,85,10,0,61,155.61,0,19.00,-10.00,-991.00
2025-08-06T12:48:38.878471,1,0,-6,0,0,0,81,85,10,0,61,155.86,0,20.00,-9.00,-999.00
2025-08-06T12:48:38.910948,1,0,-6,0,0,0,81,85,10,0,61,155.79,0,20.00,-11.00,-1008.00
2025-08-06T12:48:39.083587,1,0,-6,0,0,0,81,85,10,0,61,155.78,0,20.00,-9.00,-1011.00
2025-08-06T12:48:39.115352,1,0,-6,0,0,0,81,85,10,0,61,155.60,0,23.00,-7.00,-979.00
2025-08-06T12:48:39.288661,1,0,-6,0,0,0,81,85,10,0,61,155.66,0,17.00,-9.00,-959.00
2025-08-06T12:48:39.319152,1,0,-6,0,0,0,81,85,10,0,61,155.73,0,21.00,-9.00,-997.00
2025-08-06T12:48:39.421374,1,0,-6,0,0,0,81,85,10,0,61,155.79,0,21.00,-10.00,-1005.00
