TS,pitch,roll,yaw,vgx,vgy,vgz,templ,temph,tof,h,bat,baro,time,agx,agy,agz
2025-08-06T12:49:51.328245,1,0,-11,0,0,0,85,88,10,0,58,155.78,0,18.00,-8.00,-996.00
2025-08-06T12:49:51.428910,1,0,-11,0,0,0,85,88,10,0,58,155.37,0,21.00,-8.00,-983.00
2025-08-06T12:49:51.532272,1,0,-11,0,0,0,85,88,10,0,58,155.43,0,19.00,-8.00,-997.00
2025-08-06T12:49:51.634364,1,0,-11,0,0,0,85,88,10,0,58,155.67,0,19.00,-8.00,-999.00
2025-08-06T12:49:51.736581,1,0,-11,0,0,0,85,88,10,0,58,155.51,0,20.00,-8.00,-992.00
2025-08-06T12:49:51.838531,1,0,-11,0,0,0,85,88,10,0,58,155.52,0,18.00,-7.00,-994.00
2025-08-06T12:49:51.940828,1,0,-11,0,0,0,85,88,10,0,58,155.57,0,19.00,-8.00,-995.00
2025-08-06T12:49:52.043544,1,0,-11,0,0,0,85,88,10,0,58,155.92,0,20.00,-9.00,-998.00
2025-08-06T12:49:52.143542,1,0,-11,0,0,0,85,88,10,0,58,155.84,0,16.00,-9.00,-990.00
2025-08-06T12:49:52.296855,1,0,-11,0,0,0,85,88,10,0,58,155.74,0,16.00,-8.00,-990.00
2025-08-06T12:49:52.352436,1,0,-11,0,0,0,85,88,10,0,58,155.80,0,28.00,-12.00,-995.00
2025-08-06T12:49:52.449213,1,0,-11,0,0,0,85,88,10,0,58,155.82,0,20.00,-8.00,-998.00
2025-08-06T12:49:52.604289,1,0,-11,0,0,0,85,88,10,0,58,155.58,0,55.00,-190.00,-956.00
2025-08-06T12:49:52.653504,1,0,-11,0,0,0,85,88,10,0,58,155.60,0,-121.00,250.00,-1022.00
2025-08-06T12:49:52.807605,3,2,-19,0,1,0,85,88,10,0,58,155.74,0,74.00,-83.00,-1216.00
2025-08-06T12:49:52.857508,1,0,-17,0,2,-1,85,88,10,0,58,155.68,0,152.00,212.00,-1079.00
2025-08-06T12:49:53.016833,0,1,-14,0,4,-2,85,88,87,0,58,155.97,0,-28.00,158.00,-898.00
2025-08-06T12:49:53.061309,4,0,-13,0,7,-1,84,88,87,0,58,155.58,0,-120.00,199.00,-681.00
2025-08-06T12:49:53.217414,0,-5,-3,0,8,1,84,88,73,0,58,155.68,0,-28.00,-52.00,-772.00
2025-08-06T12:49:53.265348,-2,-15,3,0,6,4,84,88,50,0,58,155.77,0,-90.00,-110.00,-1052.00
2025-08-06T12:49:53.316265,-1,-23,3,-1,2,3,84,88,41,0,58,155.40,0,-261.00,248.00,-954.00
2025-08-06T12:49:53.418041,-1,-24,1,-3,0,3,84,88,77,0,58,155.61,0,-92.00,161.00,-879.00
2025-08-06T12:49:53.520242,-3,-23,2,-2,-1,4,84,88,75,0,58,155.59,0,-235.00,372.00,-1057.00
2025-08-06T12:49:53.626644,-4,-26,0,-3,-1,4,84,88,72,0,58,155.66,0,-99.00,504.00,-810.00
2025-08-06T12:49:53.724143,-7,-28,-3,-3,-1,5,84,88,68,0,58,155.38,0,113.00,447.00,-920.00
2025-08-06T12:49:53.826662,-12,-27,-4,-1,-2,5,84,88,58,0,58,155.42,0,-251.00,528.00,-911.00
2025-08-06T12:49:53.928088,-8,-22,-12,-1,-1,3,84,88,51,-10,58,155.36,0,-137.00,569.00,-897.00
2025-08-06T12:49:54.037201,-8,-18,-21,-1,0,2,84,88,46,-10,58,155.61,0,-284.00,375.00,-1006.00
2025-08-06T12:49:54.132083,-7,-19,-21,-1,0,1,84,88,45,-10,58,155.31,0,-154.00,371.00,-999.00
2025-08-06T12:49:54.233979,-9,-21,-21,-1,0,0,84,88,43,-10,58,155.25,0,-111.00,396.00,-950.00
2025-08-06T12:49:54.343545,-9,-21,-22,0,0,0,84,88,42,0,58,155.38,0,-155.00,322.00,-960.00
2025-08-06T12:49:54.438217,-9,-21,-27,0,-1,0,84,88,41,0,58,155.33,0,-165.00,309.00,-953.00
2025-08-06T12:49:54.548481,-9,-20,-30,0,0,0,84,88,40,0,58,155.15,0,-184.00,428.00,-926.00
2025-08-06T12:49:54.641920,-9,-21,-35,0,0,0,84,88,40,0,58,155.27,0,-201.00,386.00,-966.00
2025-08-06T12:49:54.756047,-9,-22,-41,0,0,0,84,88,40,0,58,155.10,0,-209.00,424.00,-992.00
2025-08-06T12:49:54.845860,-12,-25,-46,0,0,-2,84,88,42,0,58,155.42,0,-182.00,491.00,-1030.00
2025-08-06T12:49:54.957888,-13,-28,-52,0,0,-4,84,88,49,0,58,155.28,0,-210.00,489.00,-974.00
2025-08-06T12:49:55.050059,-16,-30,-55,0,0,-4,86,89,55,0,58,155.51,0,-124.00,553.00,-1132.00
2025-08-06T12:49:55.162637,-20,-31,-56,0,1,-4,86,89,62,0,58,155.42,0,-360.00,541.00,-884.00
2025-08-06T12:49:55.253940,-22,-33,-55,0,0,-3,86,89,70,0,58,155.69,0,-342.00,533.00,-739.00
2025-08-06T12:49:55.367660,-24,-33,-56,0,0,-3,86,89,49,0,58,155.30,0,-345.00,482.00,-756.00
2025-08-06T12:49:55.457894,-25,-31,-58,0,0,-2,86,89,30,0,58,155.56,0,-364.00,446.00,-761.00
2025-08-06T12:49:55.572975,-25,-31,-56,0,0,-2,86,89,10,0,58,155.46,0,-381.00,424.00,-696.00
2025-08-06T12:49:55.662022,-24,-32,-55,0,0,-3,86,89,10,0,58,155.41,0,-489.00,449.00,-792.00
2025-08-06T12:49:55.777120,-20,-28,-54,0,0,-2,86,89,31,0,58,155.55,0,-393.00,540.00,-817.00
2025-08-06T12:49:55.865884,-20,-24,-52,0,0,-3,86,89,33,0,58,155.77,0,-348.00,377.00,-869.00
2025-08-06T12:49:55.968007,-17,-18,-52,0,0,-3,86,89,47,0,58,155.74,0,-396.00,406.00,-806.00
2025-08-06T12:49:56.084274,-13,-10,-50,1,0,-4,85,88,77,0,58,155.72,0,-163.00,306.00,-918.00
2025-08-06T12:49:56.171822,-7,-5,-48,2,0,-3,85,88,80,0,58,155.83,0,-47.00,228.00,-875.00
2025-08-06T12:49:56.293154,-3,-4,-40,3,1,-2,85,88,75,0,58,155.75,0,-25.00,197.00,-794.00
2025-08-06T12:49:56.376063,2,-6,-25,4,2,-1,85,88,31,0,58,155.86,0,42.00,112.00,-802.00
2025-08-06T12:49:56.493817,7,-8,-13,4,2,0,85,88,10,0,58,155.93,0,50.00,111.00,-953.00
2025-08-06T12:49:56.579749,9,-10,-4,3,2,1,85,88,10,0,58,155.90,0,-4.00,194.00,-967.00
2025-08-06T12:49:56.698647,5,-10,2,2,1,1,85,88,10,0,58,155.88,0,-74.00,173.00,-1102.00
2025-08-06T12:49:56.784098,2,-7,6,2,1,1,85,88,10,0,58,155.76,0,-139.00,192.00,-1055.00
2025-08-06T12:49:56.834972,0,-7,8,0,0,1,85,88,10,0,58,155.55,0,-263.00,-7.00,-1102.00
2025-08-06T12:49:57.005933,-4,-8,7,-1,0,1,85,88,10,0,58,155.75,0,-145.00,76.00,-1049.00
2025-08-06T12:49:57.038977,-6,-10,4,-1,0,0,85,88,10,0,58,155.75,0,-112.00,108.00,-944.00
2025-08-06T12:49:57.210651,-9,-14,1,-2,0,0,85,88,10,0,58,155.63,0,-226.00,260.00,-998.00
2025-08-06T12:49:57.242986,-14,-15,-3,-2,0,0,85,88,10,0,58,155.57,0,-296.00,360.00,-968.00
2025-08-06T12:49:57.415986,-18,-15,-11,-1,0,0,85,88,10,0,58,155.50,0,-160.00,238.00,-986.00
2025-08-06T12:49:57.446912,-18,-14,-14,-1,0,0,85,88,10,0,58,155.68,0,-355.00,264.00,-909.00
2025-08-06T12:49:57.624850,-20,-14,-17,-1,0,0,85,88,10,0,58,155.64,0,-258.00,181.00,-872.00
2025-08-06T12:49:57.650957,-21,-14,-20,-1,0,0,85,88,64,0,58,155.60,0,-352.00,251.00,-871.00
2025-08-06T12:49:57.825085,-21,-15,-22,-1,0,1,85,88,76,0,58,155.67,0,-451.00,225.00,-874.00
2025-08-06T12:49:57.854922,-22,-15,-25,-2,-1,1,85,88,75,0,58,155.51,0,-459.00,258.00,-948.00
2025-08-06T12:49:58.029783,-23,-10,-30,-1,-1,1,85,88,72,0,58,155.75,0,-316.00,205.00,-863.00
2025-08-06T12:49:58.058998,-19,-10,-32,-1,0,2,84,88,67,0,58,155.66,0,-264.00,180.00,-876.00
2025-08-06T12:49:58.235042,-17,-12,-34,0,0,2,84,88,63,0,58,155.62,0,-209.00,133.00,-836.00
2025-08-06T12:49:58.262803,-14,-13,-35,0,0,3,84,88,59,0,58,155.50,0,-292.00,248.00,-941.00
2025-08-06T12:49:58.439336,-12,-15,-32,0,0,3,84,88,57,0,58,155.41,0,-115.00,290.00,-898.00
2025-08-06T12:49:58.467067,-7,-18,-33,0,0,2,84,88,53,0,58,155.55,0,-198.00,343.00,-963.00
2025-08-06T12:49:58.644254,-6,-22,-32,0,0,2,84,88,52,0,58,155.21,0,-63.00,344.00,-966.00
2025-08-06T12:49:58.670839,-6,-22,-34,0,0,2,84,88,48,0,58,155.40,0,-144.00,446.00,-916.00
2025-08-06T12:49:58.849055,-9,-21,-36,0,0,1,84,88,47,0,58,155.35,0,-243.00,402.00,-928.00
2025-08-06T12:49:58.874870,-9,-20,-39,0,0,1,84,88,45,0,58,155.18,0,-165.00,412.00,-996.00
2025-08-06T12:49:59.053728,-12,-22,-39,0,0,0,84,88,45,0,58,155.45,0,-215.00,398.00,-996.00
2025-08-06T12:49:59.078574,-13,-22,-37,0,0,0,85,89,45,0,58,155.39,0,-226.00,406.00,-952.00
2025-08-06T12:49:59.258444,-14,-24,-36,0,0,0,85,89,46,0,58,155.37,0,-273.00,410.00,-935.00
2025-08-06T12:49:59.282719,-12,-24,-37,0,0,-1,85,89,47,0,58,155.29,0,-222.00,425.00,-1014.00
2025-08-06T12:49:59.384631,-11,-24,-39,0,0,-2,85,89,49,0,58,155.45,0,-332.00,492.00,-970.00
2025-08-06T12:49:59.570263,-19,-25,-40,0,0,-3,85,89,58,0,58,155.42,0,-208.00,325.00,-1064.00
2025-08-06T12:49:59.588733,-26,-23,-42,0,0,-4,85,89,63,0,58,155.50,0,-460.00,452.00,-820.00
2025-08-06T12:49:59.770546,-32,-23,-45,1,0,-4,85,89,75,0,58,155.32,0,-452.00,363.00,-728.00
2025-08-06T12:49:59.792768,-37,-22,-46,2,0,-4,85,89,84,0,58,155.55,0,-474.00,338.00,-603.00
2025-08-06T12:49:59.975308,-37,-23,-43,2,1,-3,85,89,89,0,58,155.47,0,-580.00,317.00,-692.00
2025-08-06T12:49:59.996466,-35,-23,-41,2,1,-2,85,89,87,0,58,155.62,0,-462.00,284.00,-733.00
2025-08-06T12:50:00.180197,-30,-22,-38,2,1,-2,85,89,72,0,58,155.92,0,-456.00,350.00,-779.00
2025-08-06T12:50:00.200533,-26,-22,-34,3,1,-2,85,89,10,0,58,155.79,0,-380.00,330.00,-809.00
2025-08-06T12:50:00.384902,-22,-21,-29,3,1,-2,85,89,10,0,58,155.85,0,-413.00,348.00,-779.00
2025-08-06T12:50:00.404683,-19,-21,-23,3,1,-1,85,89,30,0,58,155.89,0,-331.00,301.00,-741.00
2025-08-06T12:50:00.507667,-18,-23,-16,2,1,0,85,89,10,0,58,155.56,0,-348.00,264.00,-823.00
2025-08-06T12:50:00.557613,-18,-24,-10,1,0,0,85,89,10,0,58,155.63,0,-389.00,337.00,-908.00
2025-08-06T12:50:00.691936,-19,-23,-8,0,0,0,85,89,10,0,58,155.96,0,-383.00,378.00,-977.00
2025-08-06T12:50:00.761381,-19,-22,-8,0,0,-1,85,89,10,0,58,155.72,0,-441.00,366.00,-869.00
2025-08-06T12:50:00.896820,-19,-22,-10,0,0,0,85,89,10,0,58,155.66,0,-360.00,268.00,-787.00
2025-08-06T12:50:00.965362,-20,-22,-14,-2,0,0,85,89,32,0,58,155.64,0,-420.00,284.00,-791.00
2025-08-06T12:50:01.101583,-22,-22,-21,-2,-1,0,85,89,10,0,58,155.66,0,-227.00,294.00,-743.00
2025-08-06T12:50:01.169356,-24,-22,-31,-3,-1,1,85,89,10,0,58,155.54,0,-244.00,262.00,-676.00
2025-08-06T12:50:01.306770,-28,-21,-40,-2,-1,2,85,89,51,0,58,155.87,0,-420.00,366.00,-729.00
2025-08-06T12:50:01.373349,-33,-18,-50,-1,-1,2,85,89,80,0,58,155.58,0,-445.00,347.00,-800.00
2025-08-06T12:50:01.511138,-33,-19,-54,0,-1,3,85,89,80,0,58,155.52,0,-741.00,299.00,-808.00
2025-08-06T12:50:01.577976,-34,-19,-51,0,0,2,85,89,79,0,58,155.36,0,-442.00,367.00,-689.00
2025-08-06T12:50:01.715923,-32,-21,-54,0,-1,3,85,89,75,0,58,155.46,0,-554.00,283.00,-859.00
2025-08-06T12:50:01.781647,-31,-21,-51,0,0,3,85,89,70,0,58,155.89,0,-422.00,381.00,-763.00
2025-08-06T12:50:01.921183,-23,-25,-47,0,0,2,85,89,63,0,58,155.52,0,-470.00,430.00,-891.00
2025-08-06T12:50:01.985316,-17,-24,-42,0,0,2,85,89,58,0,58,155.31,0,-323.00,415.00,-876.00
2025-08-06T12:50:02.125578,-12,-24,-40,0,0,1,85,88,53,0,58,155.46,0,-335.00,458.00,-1010.00
2025-08-06T12:50:02.189236,-12,-22,-44,0,0,1,85,88,51,0,58,155.33,0,-209.00,396.00,-1045.00
2025-08-06T12:50:02.330432,-14,-19,-50,0,0,0,85,88,50,0,58,155.67,0,-219.00,318.00,-935.00
2025-08-06T12:50:02.393348,-19,-19,-62,0,0,0,85,88,51,0,58,155.40,0,-297.00,248.00,-899.00
2025-08-06T12:50:02.535918,-22,-18,-66,0,0,0,85,88,51,0,58,155.37,0,-322.00,293.00,-885.00
2025-08-06T12:50:02.597232,-21,-16,-69,0,0,0,85,88,51,0,58,155.31,0,-348.00,330.00,-961.00
2025-08-06T12:50:02.739835,-21,-15,-71,0,0,-1,85,88,53,0,58,155.33,0,-382.00,331.00,-932.00
2025-08-06T12:50:02.801312,-19,-17,-73,0,0,-2,85,88,55,0,58,155.76,0,-336.00,307.00,-891.00
2025-08-06T12:50:02.944842,-16,-17,-74,1,0,-2,85,88,56,0,58,155.46,0,-320.00,304.00,-956.00
2025-08-06T12:50:03.005269,-19,-16,-70,1,0,-3,85,88,62,0,58,155.29,0,-233.00,286.00,-967.00
2025-08-06T12:50:03.149587,-19,-16,-67,1,0,-3,86,88,64,0,58,155.33,0,-332.00,321.00,-922.00
2025-08-06T12:50:03.209167,-19,-14,-64,2,0,-3,86,88,64,0,58,155.53,0,-348.00,324.00,-808.00
2025-08-06T12:50:03.366364,-19,-13,-61,2,0,-3,86,88,43,0,58,155.61,0,-340.00,286.00,-838.00
2025-08-06T12:50:03.413162,-20,-14,-57,3,0,-2,86,88,10,0,58,155.78,0,-391.00,247.00,-882.00
2025-08-06T12:50:03.559125,-22,-16,-50,3,0,-2,86,88,10,0,58,155.67,0,-396.00,294.00,-891.00
2025-08-06T12:50:03.617250,-23,-19,-44,3,0,-2,86,88,10,0,58,155.78,0,-404.00,281.00,-848.00
2025-08-06T12:50:03.763821,-21,-21,-37,3,0,-2,86,88,10,0,58,155.64,0,-294.00,358.00,-866.00
2025-08-06T12:50:03.769993,-18,-23,-29,3,0,-2,86,88,10,0,58,155.43,0,-310.00,306.00,-863.00
2025-08-06T12:50:03.871990,-13,-22,-22,3,0,-2,86,88,10,0,58,155.94,0,-120.00,385.00,-879.00
2025-08-06T12:50:04.071148,-7,-20,-14,4,-1,-1,86,88,10,0,58,155.60,0,-88.00,313.00,-1001.00
2025-08-06T12:50:04.076182,0,-15,-6,5,-1,-2,85,89,33,0,58,155.88,0,-47.00,321.00,-946.00
2025-08-06T12:50:04.276755,3,-12,0,6,0,-2,85,89,31,0,58,155.87,0,-34.00,119.00,-940.00
2025-08-06T12:50:04.280064,3,-6,5,6,0,0,85,89,30,0,58,155.81,0,-41.00,175.00,-881.00
2025-08-06T12:50:04.382072,3,0,14,6,0,0,85,89,10,0,58,155.96,0,-76.00,160.00,-975.00
2025-08-06T12:50:04.587890,2,0,24,5,1,1,85,89,10,0,58,156.05,0,-149.00,70.00,-941.00
2025-08-06T12:50:04.588132,2,0,29,4,0,2,85,89,48,0,58,155.89,0,-85.00,100.00,-1096.00
2025-08-06T12:50:04.788039,0,1,34,3,0,1,85,89,79,0,58,155.71,0,-154.00,-30.00,-1012.00
2025-08-06T12:50:04.791066,1,-1,37,0,0,1,85,89,78,0,58,156.03,0,-54.00,55.00,-1133.00
2025-08-06T12:50:04.893239,1,-5,41,0,0,0,85,89,76,0,58,155.90,0,-302.00,156.00,-1101.00
2025-08-06T12:50:04.996350,3,-3,42,0,0,0,85,89,79,0,58,155.80,0,-181.00,222.00,-1107.00
2025-08-06T12:50:05.096907,1,-3,41,0,0,-1,86,89,49,0,58,155.74,0,-55.00,79.00,-996.00
2025-08-06T12:50:05.304329,-1,-6,31,0,0,-1,86,89,10,0,58,155.41,0,-124.00,96.00,-1034.00
2025-08-06T12:50:05.304533,0,-1,38,0,0,-1,86,89,10,0,58,155.79,0,17.00,262.00,-1066.00
2025-08-06T12:50:05.403121,-1,2,35,0,0,0,86,89,34,0,58,155.72,0,68.00,112.00,-954.00
2025-08-06T12:50:05.608569,0,-1,20,0,0,0,86,89,44,0,58,156.10,0,-40.00,122.00,-832.00
2025-08-06T12:50:05.608807,1,-2,10,0,0,1,86,89,46,0,58,156.07,0,-46.00,34.00,-840.00
2025-08-06T12:50:05.708921,0,-1,-5,0,0,1,86,89,31,0,58,155.88,0,-7.00,58.00,-975.00
2025-08-06T12:50:05.811223,1,0,-19,0,0,2,86,89,10,0,58,155.44,0,36.00,181.00,-1007.00
2025-08-06T12:50:05.913657,2,-5,-25,0,0,4,86,89,10,0,58,155.78,0,76.00,100.00,-798.00
2025-08-06T12:50:06.016450,5,-9,-32,0,0,4,86,89,10,0,58,155.71,0,241.00,239.00,-775.00
2025-08-06T12:50:06.118940,2,-13,-33,0,0,3,85,89,33,0,58,155.50,0,105.00,251.00,-983.00
2025-08-06T12:50:06.219125,2,-19,-26,0,0,3,85,89,60,0,58,155.81,0,78.00,547.00,-1126.00
2025-08-06T12:50:06.320832,1,-22,-28,0,0,1,85,89,65,0,58,155.55,0,82.00,498.00,-977.00
2025-08-06T12:50:06.423613,0,-23,-30,0,0,1,85,89,65,0,58,155.33,0,20.00,349.00,-969.00
2025-08-06T12:50:06.524800,2,-24,-31,0,0,1,85,89,48,0,58,155.66,0,28.00,400.00,-959.00
2025-08-06T12:50:06.627481,1,-24,-31,0,0,0,85,89,63,0,58,155.84,0,2.00,440.00,-872.00
2025-08-06T12:50:06.728883,1,-24,-34,0,0,0,85,89,62,0,58,155.50,0,49.00,516.00,-907.00
2025-08-06T12:50:06.831066,0,-25,-33,0,0,0,85,89,62,0,58,155.43,0,4.00,409.00,-925.00
2025-08-06T12:50:06.932817,-1,-26,-36,0,0,0,85,89,59,0,58,155.38,0,49.00,310.00,-740.00
2025-08-06T12:50:06.983804,0,-27,-40,0,0,1,85,89,59,0,58,155.37,0,-29.00,300.00,-830.00
2025-08-06T12:50:07.143084,-2,-27,-41,-1,0,2,85,89,67,0,58,155.46,0,-141.00,628.00,-1053.00
2025-08-06T12:50:07.188252,-6,-26,-41,0,0,0,85,89,66,0,58,155.55,0,-8.00,571.00,-1097.00
2025-08-06T12:50:07.347700,-4,-23,-42,0,0,-2,85,89,67,0,58,155.84,0,-74.00,416.00,-1040.00
2025-08-06T12:50:07.391992,-2,-20,-44,0,0,-3,85,89,68,0,58,155.60,0,26.00,392.00,-1213.00
2025-08-06T12:50:07.494073,5,-18,-44,1,0,-4,85,89,47,0,58,155.71,0,244.00,426.00,-683.00
2025-08-06T12:50:07.655071,1,-14,-41,3,0,-3,85,89,34,0,58,155.72,0,154.00,290.00,-868.00
2025-08-06T12:50:07.698025,5,-14,-37,4,0,-2,85,89,10,0,58,155.69,0,224.00,334.00,-928.00
2025-08-06T12:50:07.859555,5,-13,-30,6,0,-2,85,89,10,0,58,156.05,0,203.00,275.00,-889.00
2025-08-06T12:50:07.901717,7,-11,-22,0,0,-2,85,89,10,0,58,155.71,0,158.00,288.00,-825.00
2025-08-06T12:50:08.064436,8,-11,-13,0,0,-1,85,89,31,0,58,155.79,0,121.00,258.00,-904.00
2025-08-06T12:50:08.105761,6,-11,-4,0,0,0,85,89,37,0,58,155.64,0,97.00,191.00,-908.00
2025-08-06T12:50:08.269361,3,-10,4,0,0,0,85,89,34,0,58,155.72,0,40.00,121.00,-881.00
2025-08-06T12:50:08.309655,2,-7,13,0,0,0,85,89,10,0,58,155.85,0,10.00,183.00,-850.00
2025-08-06T12:50:08.474309,2,-7,23,0,0,1,85,89,10,0,58,155.94,0,-299.00,206.00,-993.00
2025-08-06T12:50:08.513721,3,-8,29,0,0,1,85,89,10,0,58,155.95,0,-73.00,92.00,-837.00
2025-08-06T12:50:08.616837,2,-13,33,0,0,1,85,89,34,0,58,155.71,0,-125.00,212.00,-1104.00
2025-08-06T12:50:08.784074,0,-12,36,0,0,2,85,89,45,0,58,155.96,0,-21.00,303.00,-1019.00
2025-08-06T12:50:08.820145,-3,-11,38,0,0,1,85,89,71,0,58,155.92,0,-88.00,249.00,-1173.00
2025-08-06T12:50:08.986140,-2,-11,36,0,0,0,85,89,73,0,58,156.11,0,-155.00,288.00,-1154.00
2025-08-06T12:50:09.023956,-3,-9,35,0,0,-2,85,89,75,0,58,155.83,0,-225.00,167.00,-1067.00
2025-08-06T12:50:09.191513,-2,-9,32,0,0,-3,86,89,79,0,58,155.75,0,-274.00,160.00,-1068.00
2025-08-06T12:50:09.227961,-2,-4,18,0,0,-4,86,89,71,0,58,155.84,0,-91.00,133.00,-883.00
2025-08-06T12:50:09.395816,0,-7,9,0,0,-3,86,89,31,0,58,155.85,0,-107.00,195.00,-901.00
2025-08-06T12:50:09.433107,2,-6,7,0,0,-2,86,89,10,0,58,155.81,0,-71.00,116.00,-824.00
2025-08-06T12:50:09.601169,0,-5,2,0,0,0,86,89,10,0,58,155.87,0,-7.00,70.00,-946.00
2025-08-06T12:50:09.635921,0,-9,-3,0,0,0,86,89,10,0,58,155.70,0,77.00,190.00,-1007.00
2025-08-06T12:50:09.805270,0,-11,-6,0,0,0,86,89,10,0,58,156.08,0,-43.00,315.00,-1053.00
2025-08-06T12:50:09.839559,0,-6,-10,0,0,0,86,89,10,0,58,155.94,0,48.00,369.00,-910.00
2025-08-06T12:50:09.941546,-2,-3,-14,0,0,0,86,89,10,0,58,156.00,0,110.00,256.00,-948.00
2025-08-06T12:50:10.112389,0,-7,-22,0,0,0,86,89,31,0,58,155.80,0,159.00,254.00,-949.00
2025-08-06T12:50:10.145546,0,-8,-23,0,0,1,86,89,34,0,58,155.72,0,238.00,66.00,-1047.00
2025-08-06T12:50:10.317208,4,-8,-14,0,0,1,86,89,10,0,58,155.87,0,244.00,180.00,-982.00
2025-08-06T12:50:10.349760,12,-11,-11,0,0,1,86,89,10,0,58,155.64,0,164.00,99.00,-941.00
2025-08-06T12:50:10.523231,12,-14,-9,0,0,1,86,89,10,0,58,155.81,0,205.00,108.00,-1166.00
2025-08-06T12:50:10.523461,11,-13,-11,0,0,0,86,89,10,0,58,155.71,0,387.00,126.00,-1029.00
2025-08-06T12:50:10.605340,11,-12,-10,0,0,0,86,89,33,0,58,155.82,0,277.00,109.00,-1037.00
2025-08-06T12:50:10.726651,10,-10,-5,0,0,-1,86,89,64,0,58,156.11,0,231.00,77.00,-978.00
2025-08-06T12:50:10.809364,7,-5,-3,0,0,-2,86,89,81,0,58,155.83,0,280.00,70.00,-920.00
2025-08-06T12:50:10.931602,7,-1,-2,0,0,-2,86,89,84,0,58,155.60,0,296.00,388.00,-1117.00
2025-08-06T12:50:11.013480,3,5,0,0,0,-1,86,89,10,0,58,155.95,0,265.00,269.00,-834.00
2025-08-06T12:50:11.138272,-1,6,11,0,0,0,86,89,10,0,58,155.87,0,-123.00,3.00,-893.00
2025-08-06T12:50:11.217735,8,1,16,0,0,0,86,89,10,0,58,155.72,0,98.00,58.00,-911.00
2025-08-06T12:50:11.341135,7,2,23,0,0,1,86,89,10,0,58,155.93,0,43.00,41.00,-1004.00
2025-08-06T12:50:11.421489,7,0,29,0,0,1,86,89,10,0,58,156.00,0,228.00,83.00,-967.00
2025-08-06T12:50:11.546683,7,-4,36,0,0,2,86,89,32,0,58,155.60,0,228.00,50.00,-1023.00
2025-08-06T12:50:11.625424,5,-7,45,0,0,2,86,89,10,0,58,155.78,0,192.00,132.00,-848.00
2025-08-06T12:50:11.750554,6,-8,54,0,0,2,86,89,10,0,58,155.76,0,-119.00,101.00,-803.00
2025-08-06T12:50:11.829608,6,-12,61,0,0,4,86,89,10,0,58,155.79,0,-179.00,325.00,-1019.00
2025-08-06T12:50:11.955725,1,-15,68,0,0,4,86,89,10,0,58,155.55,0,-372.00,461.00,-1179.00
2025-08-06T12:50:12.033297,0,-16,69,0,0,2,86,89,10,0,58,155.53,0,-149.00,471.00,-1206.00
2025-08-06T12:50:12.160439,0,-16,69,0,0,0,85,89,10,0,58,155.71,0,-87.00,332.00,-1060.00
2025-08-06T12:50:12.237857,1,-14,67,0,0,0,85,89,10,0,58,155.71,0,-103.00,258.00,-1053.00
2025-08-06T12:50:12.365094,1,-11,65,0,0,-1,85,89,10,0,58,155.93,0,-107.00,252.00,-1078.00
2025-08-06T12:50:12.441385,3,-9,61,0,0,-2,85,89,10,0,58,155.68,0,-102.00,198.00,-986.00
2025-08-06T12:50:12.569897,6,-8,56,0,0,-2,85,89,10,0,58,156.08,0,-10.00,236.00,-1025.00
2025-08-06T12:50:12.646469,5,-5,49,0,0,-2,85,89,10,0,58,155.86,0,-31.00,202.00,-929.00
2025-08-06T12:50:12.774673,5,-3,42,0,0,-1,85,89,30,0,58,155.91,0,-23.00,128.00,-875.00
2025-08-06T12:50:12.849699,4,-1,33,0,0,0,85,89,10,0,58,155.58,0,76.00,155.00,-815.00
2025-08-06T12:50:12.979460,3,-1,23,0,0,0,85,89,10,0,58,155.96,0,88.00,316.00,-900.00
2025-08-06T12:50:13.053318,1,-1,12,0,0,1,85,89,10,0,58,155.72,0,145.00,271.00,-793.00
2025-08-06T12:50:13.184149,2,-5,2,0,0,2,85,89,10,0,58,155.30,0,241.00,152.00,-953.00
2025-08-06T12:50:13.257298,1,-10,-8,0,0,2,85,89,10,0,58,155.80,0,280.00,186.00,-909.00
2025-08-06T12:50:13.389081,2,-14,-17,0,0,3,85,89,10,0,58,155.38,0,255.00,183.00,-1112.00
2025-08-06T12:50:13.461266,2,-18,-25,0,0,2,85,89,10,0,58,155.59,0,332.00,260.00,-1106.00
2025-08-06T12:50:13.593836,4,-16,-29,0,0,1,85,89,10,0,58,155.98,0,448.00,323.00,-1277.00
2025-08-06T12:50:13.614438,4,-13,-28,0,0,-1,85,89,30,0,58,155.63,0,227.00,344.00,-1043.00
2025-08-06T12:50:13.798441,6,-9,-24,0,0,-3,85,89,10,0,58,155.95,0,232.00,506.00,-754.00
2025-08-06T12:50:13.818174,9,-11,-23,0,0,-2,85,89,10,0,58,155.55,0,247.00,294.00,-981.00
2025-08-06T12:50:14.009405,2,-14,-19,0,0,-1,85,89,10,0,58,155.76,0,100.00,227.00,-923.00
2025-08-06T12:50:14.022572,-1,-10,-9,0,0,-1,85,89,30,0,58,155.84,0,134.00,254.00,-846.00
2025-08-06T12:50:14.208310,2,-9,6,0,0,0,86,89,37,0,58,155.75,0,245.00,173.00,-803.00
2025-08-06T12:50:14.237380,0,-8,19,0,0,0,86,89,38,0,58,155.71,0,157.00,294.00,-922.00
2025-08-06T12:50:14.328951,0,-11,27,0,0,1,86,89,10,0,58,155.94,0,-309.00,174.00,-867.00
2025-08-06T12:50:14.519139,-2,-12,35,0,0,1,86,89,10,0,58,155.77,0,-215.00,300.00,-915.00
2025-08-06T12:50:14.532125,-4,-10,37,0,0,2,86,89,10,0,58,155.76,0,-380.00,122.00,-910.00
2025-08-06T12:50:14.634082,-6,-9,38,0,0,2,86,89,10,0,58,155.83,0,-323.00,184.00,-937.00
2025-08-06T12:50:14.822497,-5,-9,36,0,0,1,86,89,30,0,58,155.71,0,-238.00,199.00,-1131.00
2025-08-06T12:50:14.838350,0,-7,34,0,0,1,86,89,34,0,58,155.63,0,-333.00,80.00,-901.00
2025-08-06T12:50:15.027289,-2,0,38,0,0,0,86,89,71,0,58,155.52,0,-164.00,84.00,-1095.00
2025-08-06T12:50:15.042155,1,-1,38,0,0,-1,86,89,71,0,58,155.81,0,-103.00,79.00,-1202.00
2025-08-06T12:50:15.232586,8,-2,39,0,0,-2,85,89,61,0,58,155.68,0,-24.00,-5.00,-1194.00
2025-08-06T12:50:15.246069,5,-4,38,0,0,-2,85,89,67,0,58,155.99,0,81.00,76.00,-1050.00
2025-08-06T12:50:15.437018,5,-11,37,0,0,-3,85,89,49,0,58,155.95,0,76.00,137.00,-864.00
2025-08-06T12:50:15.450023,4,-11,31,0,0,-3,85,89,30,0,58,155.75,0,-56.00,104.00,-1004.00
2025-08-06T12:50:15.643345,10,-8,26,0,0,-3,85,89,10,0,58,155.61,0,-24.00,153.00,-1012.00
2025-08-06T12:50:15.653953,15,-4,17,0,0,-2,85,89,30,0,58,155.76,0,-39.00,66.00,-860.00
2025-08-06T12:50:15.846423,16,-1,11,0,0,0,85,89,35,0,58,155.87,0,221.00,221.00,-781.00
2025-08-06T12:50:15.861724,15,1,2,0,0,0,85,89,10,0,58,155.82,0,280.00,172.00,-841.00
2025-08-06T12:50:15.959933,12,0,-10,0,0,2,85,89,10,0,58,155.84,0,194.00,163.00,-870.00
2025-08-06T12:50:16.153870,11,-1,-23,0,0,2,85,89,10,0,58,155.89,0,281.00,252.00,-970.00
2025-08-06T12:50:16.163953,8,-4,-34,0,0,3,86,89,32,0,58,155.71,0,264.00,161.00,-900.00
2025-08-06T12:50:16.358507,6,-8,-42,0,0,4,86,89,34,0,58,155.77,0,255.00,204.00,-903.00
2025-08-06T12:50:16.367995,1,-13,-52,0,0,2,86,89,31,0,58,155.59,0,373.00,207.00,-839.00
2025-08-06T12:50:16.563308,0,-12,-55,0,0,0,86,89,33,0,58,155.66,0,331.00,300.00,-959.00
2025-08-06T12:50:16.571931,3,-10,-58,0,0,0,86,89,72,0,58,155.80,0,180.00,299.00,-1059.00
2025-08-06T12:50:16.673969,5,-11,-57,0,0,0,86,89,67,0,58,155.71,0,118.00,343.00,-1154.00
2025-08-06T12:50:16.775835,7,-12,-56,0,0,0,86,89,57,0,58,155.71,0,88.00,207.00,-928.00
2025-08-06T12:50:16.972870,7,-12,-56,0,0,0,86,89,47,0,58,155.48,0,111.00,245.00,-937.00
2025-08-06T12:50:16.973224,8,-13,-55,0,0,0,86,89,39,0,58,155.54,0,174.00,154.00,-997.00
2025-08-06T12:50:17.030936,9,-14,-54,0,0,0,86,89,32,0,58,155.68,0,197.00,263.00,-933.00
2025-08-06T12:50:17.183996,10,-14,-52,1,0,0,85,89,10,0,58,155.63,0,137.00,255.00,-967.00
2025-08-06T12:50:17.234801,12,-14,-49,0,0,0,85,89,10,0,58,155.91,0,248.00,145.00,-994.00
2025-08-06T12:50:17.382677,15,-11,-44,0,0,-1,85,89,10,0,58,155.90,0,298.00,271.00,-992.00
2025-08-06T12:50:17.438808,12,-11,-42,0,0,-1,85,89,10,0,58,155.73,0,393.00,235.00,-980.00
2025-08-06T12:50:17.587596,10,-9,-35,0,0,-1,85,89,31,0,58,155.78,0,309.00,178.00,-858.00
2025-08-06T12:50:17.642969,11,-8,-30,3,-2,-1,85,89,10,0,58,155.77,0,331.00,101.00,-1091.00
2025-08-06T12:50:17.744719,10,-6,-22,4,-5,-1,85,89,10,0,58,155.80,0,116.00,-130.00,-972.00
2025-08-06T12:50:17.847057,11,-6,-19,0,0,-1,85,89,10,0,58,156.13,0,-325.00,-289.00,-988.00
2025-08-06T12:50:18.006900,7,-1,-27,0,0,0,85,89,10,0,58,156.02,0,-121.00,42.00,-635.00
2025-08-06T12:50:18.051506,3,1,-29,0,0,3,85,89,10,0,58,155.85,0,429.00,812.00,-1119.00
2025-08-06T12:50:18.221235,3,-1,-26,0,0,1,86,89,10,0,58,155.48,0,-27.00,167.00,-1023.00
2025-08-06T12:50:18.256909,0,0,-27,0,0,0,86,89,10,0,58,155.84,0,-252.00,88.00,-1141.00
2025-08-06T12:50:18.356688,0,0,-27,0,0,0,86,89,10,0,58,155.87,0,21.00,-9.00,-999.00
2025-08-06T12:50:18.508789,0,0,-27,0,0,0,86,89,10,0,58,155.67,0,22.00,-9.00,-1000.00
2025-08-06T12:50:18.563585,0,0,-27,0,0,0,86,89,10,0,58,155.50,0,20.00,-8.00,-1002.00
2025-08-06T12:50:18.662714,0,0,-27,0,0,0,86,89,10,0,58,155.49,0,20.00,-6.00,-1002.00
2025-08-06T12:50:18.815937,0,0,-27,0,0,0,86,89,10,0,58,155.68,0,21.00,-7.00,-999.00
2025-08-06T12:50:18.866608,0,0,-27,0,0,0,86,89,10,0,58,155.88,0,20.00,-8.00,-1003.00
2025-08-06T12:50:19.020806,0,0,-27,0,0,0,86,89,10,0,58,155.81,0,19.00,-7.00,-998.00
2025-08-06T12:50:19.070781,0,0,-27,0,0,0,86,89,10,0,58,155.67,0,19.00,-9.00,-1000.00
2025-08-06T12:50:19.225516,0,0,-27,0,0,0,86,89,10,0,58,155.59,0,21.00,-6.00,-999.00
2025-08-06T12:50:19.275296,0,0,-27,0,0,0,86,89,10,0,58,155.68,0,21.00,-7.00,-999.00
2025-08-06T12:50:19.376580,0,0,-27,0,0,0,86,89,10,0,58,155.50,0,22.00,-8.00,-1000.00
2025-08-06T12:50:19.536869,1,0,-27,0,0,0,86,89,10,0,58,155.95,0,21.00,-8.00,-1005.00
2025-08-06T12:50:19.580611,1,0,-27,0,0,0,86,89,10,0,58,155.84,0,21.00,-8.00,-1002.00
2025-08-06T12:50:19.682572,1,0,-27,0,0,0,86,89,10,0,58,155.43,0,21.00,-8.00,-1005.00
2025-08-06T12:50:19.839948,1,0,-27,0,0,0,86,89,10,0,58,155.70,0,21.00,-9.00,-1007.00
2025-08-06T12:50:19.886557,1,0,-27,0,0,0,86,89,10,0,58,155.83,0,21.00,-9.00,-997.00
2025-08-06T12:50:20.044637,1,0,-27,0,0,0,86,89,10,0,58,155.89,0,20.00,-8.00,-998.00
2025-08-06T12:50:20.090573,1,0,-27,0,0,0,86,89,10,0,58,155.56,0,21.00,-9.00,-997.00
2025-08-06T12:50:20.256991,1,0,-27,0,0,0,86,89,10,0,58,155.86,0,21.00,-8.00,-1007.00
2025-08-06T12:50:20.294575,1,0,-27,0,0,0,86,89,10,0,58,155.90,0,21.00,-8.00,-991.00
2025-08-06T12:50:20.396576,1,0,-27,0,0,0,86,89,10,0,58,155.84,0,21.00,-7.00,-998.00
2025-08-06T12:50:20.498515,1,0,-27,0,0,0,86,89,10,0,58,155.69,0,22.00,-8.00,-1001.00
2025-08-06T12:50:20.549485,1,0,-27,0,0,0,86,89,10,0,58,155.74,0,21.00,-8.00,-998.00
2025-08-06T12:50:20.651514,1,0,-27,0,0,0,86,89,10,0,58,155.64,0,20.00,-7.00,-1000.00
2025-08-06T12:50:20.761561,1,0,-27,0,0,0,86,89,10,0,58,155.71,0,21.00,-9.00,-999.00
2025-08-06T12:50:20.855637,1,0,-27,0,0,0,86,89,10,0,58,155.68,0,21.00,-8.00,-999.00
2025-08-06T12:50:20.971510,1,0,-27,0,0,0,86,89,10,0,58,156.03,0,22.00,-9.00,-1002.00
2025-08-06T12:50:21.059649,1,0,-27,0,0,0,86,89,10,0,58,155.47,0,21.00,-7.00,-1001.00
2025-08-06T12:50:21.171296,1,0,-27,0,0,0,85,88,10,0,58,155.68,0,23.00,-6.00,-1001.00
2025-08-06T12:50:21.263845,1,0,-27,0,0,0,85,88,10,0,58,155.98,0,22.00,-9.00,-1000.00
2025-08-06T12:50:21.376255,1,0,-27,0,0,0,85,88,10,0,58,155.66,0,22.00,-8.00,-1002.00
2025-08-06T12:50:21.467521,1,0,-27,0,0,0,85,88,10,0,58,155.84,0,21.00,-7.00,-1000.00
2025-08-06T12:50:21.580523,1,0,-27,0,0,0,85,88,10,0,58,155.90,0,21.00,-7.00,-1002.00
2025-08-06T12:50:21.671358,1,0,-27,0,0,0,85,88,10,0,58,155.71,0,21.00,-8.00,-1002.00
2025-08-06T12:50:21.785522,1,0,-27,0,0,0,85,88,10,0,58,155.60,0,23.00,-7.00,-1002.00
2025-08-06T12:50:21.875559,1,0,-27,0,0,0,85,88,10,0,58,155.84,0,-24.00,23.00,-989.00
2025-08-06T12:50:21.990214,3,2,-27,0,0,0,85,88,10,0,58,155.80,0,63.00,125.00,-1045.00
2025-08-06T12:50:22.079336,2,2,-19,0,0,-2,85,88,10,0,58,155.86,0,227.00,488.00,-1215.00
2025-08-06T12:50:22.194980,7,1,-19,0,0,-3,86,89,10,0,58,155.78,0,405.00,327.00,-914.00
2025-08-06T12:50:22.283409,5,-3,-16,0,0,-2,86,89,10,0,58,155.76,0,186.00,105.00,-787.00
2025-08-06T12:50:22.404047,1,-7,-6,0,0,0,86,89,10,0,58,155.81,0,-31.00,-1.00,-743.00
2025-08-06T12:50:22.487740,1,-6,9,0,0,1,86,89,39,0,58,155.75,0,75.00,43.00,-846.00
2025-08-06T12:50:22.604749,3,-8,22,0,0,2,86,89,33,0,58,155.85,0,26.00,152.00,-885.00
2025-08-06T12:50:22.691291,3,-8,35,0,0,2,86,89,10,0,58,155.90,0,-60.00,278.00,-1011.00
2025-08-06T12:50:22.793411,4,-12,43,0,0,1,86,89,10,0,58,155.68,0,-42.00,209.00,-1097.00
2025-08-06T12:50:22.911752,3,-12,52,0,0,2,86,89,10,0,58,156.00,0,-288.00,221.00,-1021.00
2025-08-06T12:50:22.997375,0,-10,58,0,0,1,86,89,10,0,58,155.52,0,-271.00,284.00,-1033.00
2025-08-06T12:50:23.099506,-1,-9,57,0,0,0,86,89,10,0,58,155.89,0,-71.00,234.00,-1153.00
2025-08-06T12:50:23.218967,0,-13,56,0,0,0,86,89,10,0,58,156.02,0,-15.00,281.00,-1043.00
2025-08-06T12:50:23.303274,4,-12,61,0,0,0,86,89,10,0,58,155.59,0,65.00,241.00,-1131.00
2025-08-06T12:50:23.405211,3,-10,62,0,0,-1,86,89,10,0,58,155.64,0,-6.00,210.00,-1077.00
2025-08-06T12:50:23.526108,4,-9,62,0,0,-2,86,89,10,0,58,155.94,0,-46.00,270.00,-1139.00
2025-08-06T12:50:23.609332,7,-9,58,0,0,-3,86,89,10,0,58,155.81,0,-60.00,221.00,-1000.00
2025-08-06T12:50:23.733084,13,-6,52,0,0,-3,86,89,31,0,58,155.78,0,163.00,134.00,-1065.00
2025-08-06T12:50:23.762206,16,-4,52,0,0,-3,86,89,32,0,58,155.85,0,219.00,125.00,-914.00
2025-08-06T12:50:23.864254,15,-1,46,0,0,-2,86,89,10,0,58,155.88,0,144.00,144.00,-832.00
2025-08-06T12:50:23.966555,13,-2,34,0,0,0,86,89,10,0,58,156.02,0,191.00,101.00,-838.00
2025-08-06T12:50:24.140595,13,-4,22,0,0,0,86,89,32,0,58,155.81,0,239.00,169.00,-924.00
2025-08-06T12:50:24.170250,13,-5,8,0,0,0,86,90,39,0,58,155.66,0,248.00,227.00,-906.00
2025-08-06T12:50:24.349484,14,-6,-4,0,0,1,86,90,30,0,58,155.61,0,294.00,209.00,-846.00
2025-08-06T12:50:24.374185,13,-6,-14,0,0,2,86,90,10,0,58,155.62,0,330.00,173.00,-905.00
2025-08-06T12:50:24.550237,9,-6,-18,0,0,2,86,90,10,0,58,155.48,0,300.00,187.00,-960.00
2025-08-06T12:50:24.578251,5,-6,-22,0,0,2,86,90,31,0,58,155.85,0,277.00,379.00,-930.00
2025-08-06T12:50:24.680065,4,-10,-23,0,0,3,86,90,51,0,58,155.71,0,-104.00,155.00,-1087.00
2025-08-06T12:50:24.782072,1,-10,-21,0,0,3,86,90,69,0,58,155.46,0,114.00,311.00,-1034.00
2025-08-06T12:50:24.884100,3,-13,-22,0,0,3,86,90,66,0,58,155.56,0,16.00,220.00,-1038.00
2025-08-06T12:50:25.066012,2,-15,-24,0,0,3,86,90,65,0,58,155.60,0,70.00,375.00,-893.00
2025-08-06T12:50:25.088150,-1,-19,-36,0,0,3,86,90,63,0,58,155.55,0,28.00,397.00,-1042.00
2025-08-06T12:50:25.266835,-6,-18,-49,0,0,1,85,88,62,0,58,155.44,0,-130.00,394.00,-1173.00
2025-08-06T12:50:25.292143,-7,-17,-54,0,0,0,85,88,61,0,58,155.78,0,-183.00,395.00,-1098.00
2025-08-06T12:50:25.394051,-6,-16,-56,0,0,-1,85,88,62,0,58,155.63,0,-126.00,305.00,-1112.00
2025-08-06T12:50:25.573926,-4,-14,-57,0,0,-2,85,88,64,0,58,155.32,0,-63.00,276.00,-1080.00
2025-08-06T12:50:25.597990,-2,-11,-58,0,0,-3,85,88,66,0,58,155.75,0,-15.00,271.00,-1017.00
2025-08-06T12:50:25.699972,0,-7,-58,1,0,-4,85,88,70,0,58,155.54,0,103.00,271.00,-946.00
2025-08-06T12:50:25.881217,3,-6,-56,2,0,-3,85,88,72,0,58,155.83,0,211.00,229.00,-965.00
2025-08-06T12:50:25.904436,5,-4,-50,4,0,-3,85,88,37,0,58,155.84,0,288.00,200.00,-950.00
2025-08-06T12:50:26.086360,7,-1,-40,0,0,-3,85,88,31,0,58,155.60,0,266.00,207.00,-900.00
2025-08-06T12:50:26.108032,9,0,-27,0,0,-2,85,88,31,0,58,155.79,0,219.00,229.00,-770.00
2025-08-06T12:50:26.291484,9,0,-11,0,0,0,86,89,63,0,58,155.69,0,116.00,166.00,-862.00
2025-08-06T12:50:26.312048,8,-1,3,0,0,1,86,89,35,0,58,155.84,0,-44.00,204.00,-1016.00
2025-08-06T12:50:26.496383,7,-5,17,0,0,1,86,89,10,0,58,155.99,0,-239.00,116.00,-1143.00
2025-08-06T12:50:26.515992,4,-5,27,0,0,1,86,89,10,0,58,155.81,0,-130.00,234.00,-1129.00
2025-08-06T12:50:26.702020,4,-7,35,0,0,0,86,89,10,0,58,155.75,0,-102.00,211.00,-1052.00
2025-08-06T12:50:26.720051,5,-8,42,0,0,0,86,89,31,0,58,155.90,0,-37.00,142.00,-1026.00
2025-08-06T12:50:26.905049,5,-9,46,0,0,0,86,89,39,0,58,155.98,0,-24.00,174.00,-901.00
2025-08-06T12:50:26.905159,5,-9,50,0,0,1,86,89,66,0,58,155.87,0,-110.00,196.00,-939.00
2025-08-06T12:50:26.974934,5,-11,51,0,0,1,86,89,71,0,58,155.57,0,-184.00,162.00,-1161.00
2025-08-06T12:50:27.109834,2,-6,51,0,0,0,86,89,59,0,58,155.67,0,-19.00,335.00,-1245.00
2025-08-06T12:50:27.178910,4,-5,49,0,0,-2,86,89,52,0,58,155.60,0,-47.00,213.00,-1236.00
2025-08-06T12:50:27.314773,8,-4,44,0,0,-3,86,89,47,0,58,155.72,0,13.00,267.00,-1218.00
2025-08-06T12:50:27.382818,11,-2,40,0,0,-3,86,89,55,0,58,155.90,0,-41.00,108.00,-1142.00
2025-08-06T12:50:27.519482,12,0,35,0,0,-1,86,89,74,0,58,155.87,0,-51.00,129.00,-898.00
2025-08-06T12:50:27.586898,11,1,30,0,0,0,86,89,31,0,58,155.67,0,16.00,93.00,-857.00
2025-08-06T12:50:27.688821,13,1,21,0,0,0,86,89,30,0,58,155.84,0,92.00,44.00,-918.00
2025-08-06T12:50:27.826625,13,1,11,0,0,0,86,89,33,0,58,155.56,0,117.00,63.00,-911.00
2025-08-06T12:50:27.892884,13,0,-2,0,0,0,86,89,45,0,58,156.01,0,164.00,57.00,-1004.00
2025-08-06T12:50:28.031437,12,-2,-15,0,0,1,86,89,37,0,58,155.68,0,186.00,111.00,-946.00
2025-08-06T12:50:28.096871,11,-3,-25,0,0,1,86,89,10,0,58,155.89,0,248.00,153.00,-900.00
2025-08-06T12:50:28.236629,8,-1,-33,0,0,2,86,89,10,0,58,155.93,0,306.00,180.00,-1038.00
2025-08-06T12:50:28.300873,6,1,-35,0,0,2,86,89,40,0,58,155.77,0,90.00,116.00,-896.00
2025-08-06T12:50:28.454485,5,0,-33,0,0,3,86,89,52,0,58,155.72,0,217.00,-36.00,-1174.00
2025-08-06T12:50:28.505198,3,-3,-30,0,0,2,86,89,70,0,58,155.83,0,168.00,156.00,-1017.00
2025-08-06T12:50:28.645837,5,-2,-28,0,0,2,86,89,68,0,58,155.61,0,385.00,151.00,-1091.00
2025-08-06T12:50:28.710012,8,-3,-25,0,0,1,86,89,66,0,58,155.56,0,163.00,146.00,-1058.00
2025-08-06T12:50:28.810783,10,-7,-26,0,0,0,86,89,65,0,58,155.62,0,170.00,185.00,-1075.00
2025-08-06T12:50:28.953083,10,-9,-26,0,0,0,86,89,65,0,58,155.56,0,159.00,175.00,-1057.00
2025-08-06T12:50:29.014819,11,-8,-29,0,0,0,86,89,66,0,58,155.49,0,253.00,190.00,-1027.00
2025-08-06T12:50:29.157756,12,-10,-32,0,0,-1,86,89,63,0,58,155.68,0,270.00,153.00,-1048.00
2025-08-06T12:50:29.218677,13,-10,-34,0,0,-2,85,89,46,0,58,155.70,0,308.00,134.00,-994.00
2025-08-06T12:50:29.362608,14,-8,-37,0,0,-3,85,89,31,0,58,155.95,0,339.00,136.00,-985.00
2025-08-06T12:50:29.422771,15,-5,-37,1,0,-3,85,89,10,0,58,155.72,0,389.00,97.00,-904.00
2025-08-06T12:50:29.574737,16,-2,-33,2,0,-3,85,89,10,0,58,155.75,0,525.00,145.00,-762.00
2025-08-06T12:50:29.626871,15,1,-25,0,0,-2,85,89,31,0,58,155.59,0,338.00,82.00,-756.00
2025-08-06T12:50:29.772171,18,0,-16,0,0,-1,85,89,35,0,58,155.54,0,290.00,154.00,-888.00
2025-08-06T12:50:29.830745,16,0,-4,0,0,0,85,89,53,0,58,155.85,0,115.00,259.00,-913.00
2025-08-06T12:50:29.977139,16,-2,9,0,0,0,85,89,34,0,58,156.14,0,156.00,192.00,-1066.00
2025-08-06T12:50:30.034762,14,-4,22,0,0,0,85,89,10,0,58,155.63,0,52.00,163.00,-965.00
2025-08-06T12:50:30.085598,14,-8,32,0,0,1,85,89,10,0,58,155.86,0,275.00,166.00,-976.00
2025-08-06T12:50:30.284224,11,-8,40,0,0,1,86,88,32,0,58,155.59,0,55.00,234.00,-990.00
2025-08-06T12:50:30.340759,11,-10,45,0,0,1,86,88,34,0,58,155.55,0,-8.00,278.00,-965.00
2025-08-06T12:50:30.391597,10,-11,50,0,0,1,86,88,68,0,58,155.53,0,10.00,176.00,-996.00
2025-08-06T12:50:30.592206,9,-13,52,0,0,1,86,88,10,0,58,155.61,0,145.00,243.00,-982.00
2025-08-06T12:50:30.595646,7,-10,53,0,0,1,86,88,10,0,58,155.97,0,21.00,224.00,-856.00
2025-08-06T12:50:30.697613,7,-9,55,0,0,1,86,88,10,0,58,155.73,0,91.00,259.00,-1096.00
2025-08-06T12:50:30.799583,4,-9,57,0,0,0,86,88,10,0,58,155.62,0,95.00,230.00,-1178.00
2025-08-06T12:50:30.901574,7,-8,57,0,0,-1,86,88,10,0,58,155.80,0,30.00,173.00,-1135.00
2025-08-06T12:50:31.003528,9,-7,54,0,0,-3,86,88,10,0,58,155.93,0,-32.00,126.00,-1040.00
2025-08-06T12:50:31.105463,13,-7,49,0,0,-3,86,88,36,0,58,155.75,0,122.00,167.00,-944.00
2025-08-06T12:50:31.207635,15,-6,44,0,0,-3,86,89,50,0,58,155.63,0,68.00,182.00,-796.00
2025-08-06T12:50:31.410709,16,-4,36,0,0,-1,86,89,52,0,58,155.66,0,89.00,261.00,-708.00
2025-08-06T12:50:31.411611,13,-3,29,0,0,1,86,89,10,0,58,155.65,0,210.00,163.00,-945.00
2025-08-06T12:50:31.615932,11,-5,23,0,0,1,86,89,10,0,58,155.80,0,239.00,117.00,-1035.00
2025-08-06T12:50:31.616045,10,-7,12,0,0,1,86,89,10,0,58,155.52,0,197.00,119.00,-1013.00
2025-08-06T12:50:31.717464,9,-8,0,0,0,0,86,89,10,0,58,155.47,0,166.00,171.00,-916.00
2025-08-06T12:50:31.819659,7,-7,-10,0,0,1,86,89,10,0,58,155.66,0,140.00,275.00,-949.00
2025-08-06T12:50:31.922346,6,-7,-20,0,0,1,86,89,10,0,58,155.62,0,187.00,171.00,-825.00
2025-08-06T12:50:32.025176,6,-7,-31,0,0,2,86,89,10,0,58,155.59,0,109.00,282.00,-856.00
2025-08-06T12:50:32.127165,4,-7,-37,0,0,4,86,89,10,0,58,155.49,0,173.00,246.00,-1219.00
2025-08-06T12:50:32.227697,3,-10,-38,0,0,3,86,88,10,0,58,155.56,0,106.00,219.00,-1051.00
2025-08-06T12:50:32.329824,4,-11,-44,0,0,2,86,88,10,0,58,155.60,0,70.00,126.00,-754.00
2025-08-06T12:50:32.434516,2,-13,-51,0,0,5,86,88,62,0,58,155.15,0,297.00,202.00,-1061.00
2025-08-06T12:50:32.533433,-8,-16,-55,0,0,5,86,88,59,0,58,155.38,0,188.00,262.00,-1029.00
2025-08-06T12:50:32.635589,-3,-15,-57,0,0,2,86,88,55,0,58,155.38,0,44.00,373.00,-940.00
2025-08-06T12:50:32.737359,-3,-12,-58,0,0,2,86,88,53,-10,58,155.55,0,-286.00,241.00,-714.00
2025-08-06T12:50:32.839640,-2,-15,-62,0,0,4,86,88,49,-10,58,155.35,0,-19.00,273.00,-1086.00
2025-08-06T12:50:32.941364,-4,-14,-57,0,0,3,86,88,48,-10,58,155.53,0,32.00,517.00,-1358.00
2025-08-06T12:50:33.045799,-5,-13,-55,0,0,0,86,88,50,0,58,155.61,0,-192.00,372.00,-1110.00
2025-08-06T12:50:33.145436,0,-15,-59,0,0,-3,86,88,54,0,58,155.35,0,5.00,388.00,-1070.00
2025-08-06T12:50:33.253686,0,-15,-58,0,0,-4,85,88,61,0,58,155.62,0,32.00,391.00,-1020.00
2025-08-06T12:50:33.349302,4,-18,-58,0,1,-5,85,88,50,0,58,155.62,0,212.00,393.00,-967.00
2025-08-06T12:50:33.458486,5,-18,-53,1,1,-5,85,88,10,0,58,155.67,0,363.00,387.00,-938.00
2025-08-06T12:50:33.502347,7,-16,-49,2,0,-6,85,88,10,10,58,155.80,0,418.00,434.00,-816.00
2025-08-06T12:50:33.663137,12,-16,-44,5,0,-6,85,88,30,20,58,155.39,0,325.00,273.00,-459.00
2025-08-06T12:50:33.706262,17,-17,-39,0,0,-2,85,88,41,20,58,155.78,0,128.00,297.00,-652.00
2025-08-06T12:50:33.871848,15,-19,-23,0,0,1,85,88,36,20,58,155.83,0,183.00,433.00,-870.00
2025-08-06T12:50:33.910309,11,-14,-5,0,0,2,85,88,10,20,58,155.91,0,177.00,342.00,-979.00
2025-08-06T12:50:34.072892,9,-12,9,0,0,0,85,88,10,20,58,155.88,0,258.00,248.00,-950.00
2025-08-06T12:50:34.114357,9,-11,19,0,0,0,85,88,10,20,58,155.96,0,245.00,232.00,-840.00
2025-08-06T12:50:34.277594,8,-10,28,0,0,0,85,89,30,0,58,155.91,0,88.00,202.00,-836.00
2025-08-06T12:50:34.318362,7,-8,34,0,0,1,85,89,38,0,58,155.74,0,6.00,284.00,-1082.00
2025-08-06T12:50:34.483092,5,-8,42,0,0,0,85,89,55,0,58,156.01,0,-256.00,129.00,-1299.00
2025-08-06T12:50:34.522322,6,-8,41,0,0,-2,85,89,56,0,58,155.71,0,-322.00,171.00,-1070.00
2025-08-06T12:50:34.692103,10,-7,36,0,0,-3,85,89,61,0,58,155.62,0,-144.00,111.00,-949.00
2025-08-06T12:50:34.726224,12,-10,31,0,0,-2,85,89,33,0,58,155.84,0,-135.00,231.00,-980.00
2025-08-06T12:50:34.892790,15,-14,29,0,0,-1,85,89,10,0,58,155.96,0,94.00,292.00,-929.00
2025-08-06T12:50:34.930285,13,-12,23,0,0,-1,85,89,10,0,58,155.82,0,361.00,323.00,-939.00
2025-08-06T12:50:35.096738,14,-7,14,0,0,-1,85,89,10,0,58,155.93,0,500.00,188.00,-773.00
2025-08-06T12:50:35.134401,12,-7,19,0,0,0,85,89,10,0,58,155.92,0,363.00,16.00,-810.00
2025-08-06T12:50:35.301559,7,-3,3,0,0,0,86,89,10,0,58,155.98,0,479.00,227.00,-883.00
2025-08-06T12:50:35.338259,3,-1,-14,0,0,1,86,89,10,0,58,155.59,0,249.00,222.00,-972.00
2025-08-06T12:50:35.506163,3,-2,-19,0,0,1,86,89,10,0,58,155.92,0,-126.00,127.00,-1451.00
2025-08-06T12:50:35.542621,1,0,-15,0,0,0,86,89,10,0,58,155.73,0,41.00,107.00,-1026.00
2025-08-06T12:50:35.712455,1,0,-16,0,0,0,86,89,10,0,58,155.69,0,-58.00,83.00,-1151.00
2025-08-06T12:50:35.746183,1,0,-16,0,0,0,86,89,10,0,58,155.62,0,21.00,-9.00,-1003.00
2025-08-06T12:50:35.915808,1,0,-16,0,0,0,86,89,10,0,58,155.65,0,22.00,-9.00,-998.00
2025-08-06T12:50:35.950252,1,0,-16,0,0,0,86,89,10,0,58,155.79,0,19.00,-7.00,-998.00
2025-08-06T12:50:36.120818,1,0,-16,0,0,0,86,89,10,0,58,155.84,0,20.00,-9.00,-1003.00
2025-08-06T12:50:36.154088,1,0,-16,0,0,0,86,89,10,0,58,155.94,0,21.00,-8.00,-1000.00
2025-08-06T12:50:36.325453,1,0,-16,0,0,0,86,89,10,0,58,155.89,0,20.00,-8.00,-1003.00
2025-08-06T12:50:36.358086,1,0,-16,0,0,0,86,89,10,0,58,155.98,0,20.00,-8.00,-1007.00
2025-08-06T12:50:36.533763,1,0,-16,0,0,0,86,89,10,0,58,155.83,0,20.00,-8.00,-994.00
2025-08-06T12:50:36.562211,1,0,-16,0,0,0,86,89,10,0,58,155.65,0,20.00,-7.00,-1001.00
2025-08-06T12:50:36.612964,1,0,-16,0,0,0,86,89,10,0,58,155.91,0,19.00,-8.00,-992.00
2025-08-06T12:50:36.715987,1,0,-16,0,0,0,86,89,10,0,58,155.54,0,20.00,-9.00,-999.00
2025-08-06T12:50:36.837286,1,0,-16,0,0,0,86,89,10,0,58,155.62,0,21.00,-7.00,-997.00
2025-08-06T12:50:36.918960,1,0,-16,0,0,0,86,89,10,0,58,155.75,0,21.00,-7.00,-994.00
2025-08-06T12:50:37.042227,1,0,-16,0,0,0,86,89,10,0,58,155.78,0,21.00,-10.00,-996.00
2025-08-06T12:50:37.123681,1,0,-16,0,0,0,86,89,10,0,58,155.92,0,21.00,-10.00,-999.00
2025-08-06T12:50:37.246960,1,0,-16,0,0,0,86,88,10,0,58,155.74,0,21.00,-9.00,-1000.00
2025-08-06T12:50:37.327477,1,0,-16,0,0,0,86,88,10,0,58,155.62,0,21.00,-9.00,-999.00
2025-08-06T12:50:37.451800,1,0,-16,0,0,0,86,88,10,0,58,155.87,0,21.00,-10.00,-1000.00
2025-08-06T12:50:37.530988,1,0,-16,0,0,0,86,88,10,0,58,156.02,0,19.00,-9.00,-1000.00
2025-08-06T12:50:37.656580,1,0,-16,0,0,0,86,88,10,0,58,156.13,0,22.00,-9.00,-999.00
2025-08-06T12:50:37.735297,1,0,-16,0,0,0,86,88,10,0,58,155.88,0,20.00,-9.00,-999.00
2025-08-06T12:50:37.866637,1,0,-16,0,0,0,86,88,10,0,58,155.76,0,21.00,-10.00,-1003.00
2025-08-06T12:50:37.938943,1,0,-16,0,0,0,86,88,10,0,58,155.52,0,21.00,-10.00,-1001.00
2025-08-06T12:50:38.068036,1,0,-16,0,0,0,86,88,10,0,58,155.86,0,20.00,-8.00,-998.00
2025-08-06T12:50:38.142860,1,0,-16,0,0,0,86,88,10,0,58,155.62,0,21.00,-7.00,-1001.00
2025-08-06T12:50:38.271304,1,0,-16,0,0,0,86,88,10,0,58,155.89,0,20.00,-10.00,-1000.00
2025-08-06T12:50:38.347093,1,0,-16,0,0,0,86,88,10,0,58,155.72,0,21.00,-8.00,-1001.00
2025-08-06T12:50:38.475758,1,0,-16,0,0,0,86,88,10,0,58,155.86,0,21.00,-10.00,-999.00
2025-08-06T12:50:38.551662,1,0,-16,0,0,0,86,88,10,0,58,155.69,0,20.00,-9.00,-1001.00
2025-08-06T12:50:38.686042,1,0,-16,0,0,0,86,88,10,0,58,155.72,0,21.00,-10.00,-997.00
2025-08-06T12:50:38.754861,1,0,-16,0,0,0,86,88,10,0,58,155.69,0,21.00,-9.00,-994.00
2025-08-06T12:50:38.857595,1,0,-16,0,0,0,86,88,10,0,58,155.46,0,21.00,-9.00,-998.00
2025-08-06T12:50:38.958939,1,0,-16,0,0,0,86,88,10,0,58,155.77,0,20.00,-8.00,-1000.00
2025-08-06T12:50:39.060901,1,0,-16,0,0,0,86,88,10,0,58,155.84,0,21.00,-8.00,-1000.00
2025-08-06T12:50:39.192643,1,0,-16,0,0,0,86,88,10,0,58,156.15,0,21.00,-9.00,-1002.00
2025-08-06T12:50:39.264769,1,0,-16,0,0,0,86,89,10,0,58,155.42,0,20.00,-10.00,-1004.00
2025-08-06T12:50:39.402375,1,0,-16,0,0,0,86,89,10,0,58,155.65,0,20.00,-9.00,-1004.00
2025-08-06T12:50:39.468750,1,0,-16,0,0,0,86,89,10,0,58,155.51,0,20.00,-9.00,-1001.00
2025-08-06T12:50:39.606285,1,0,-16,0,0,0,86,89,10,0,58,155.59,0,21.00,-9.00,-999.00
2025-08-06T12:50:39.673108,1,0,-16,0,0,0,86,89,10,0,58,155.64,0,21.00,-10.00,-999.00
2025-08-06T12:50:39.810690,1,0,-16,0,0,0,86,89,10,0,58,155.91,0,21.00,-8.00,-998.00
2025-08-06T12:50:39.876659,1,0,-16,0,0,0,86,89,10,0,58,155.81,0,20.00,-10.00,-1001.00
2025-08-06T12:50:40.012425,1,0,-16,0,0,0,86,89,10,0,58,155.94,0,22.00,-10.00,-1001.00
2025-08-06T12:50:40.030138,1,0,-16,0,0,0,86,89,10,0,58,155.79,0,23.00,-9.00,-1005.00
2025-08-06T12:50:40.219309,1,0,-16,0,0,0,86,89,10,0,58,155.47,0,21.00,-12.00,-1002.00
2025-08-06T12:50:40.234186,1,0,-16,0,0,0,86,88,10,0,58,155.61,0,23.00,-9.00,-1001.00
2025-08-06T12:50:40.421487,1,0,-16,0,0,0,86,88,10,0,58,155.66,0,22.00,-10.00,-996.00
2025-08-06T12:50:40.438004,1,0,-16,0,0,0,86,88,10,0,58,155.88,0,21.00,-10.00,-992.00
