TS,pitch,roll,yaw,vgx,vgy,vgz,templ,temph,tof,h,bat,baro,time,agx,agy,agz
2025-08-06T12:50:48.497595,1,0,-16,0,0,0,86,90,10,0,58,155.82,0,22.00,-11.00,-989.00
2025-08-06T12:50:48.618460,1,0,-16,0,0,0,86,90,10,0,58,155.79,0,21.00,-9.00,-998.00
2025-08-06T12:50:48.701274,1,0,-16,0,0,0,86,90,10,0,58,155.89,0,23.00,-10.00,-999.00
2025-08-06T12:50:48.817980,1,0,-16,0,0,0,86,90,10,0,58,155.84,0,21.00,-11.00,-999.00
2025-08-06T12:50:48.905344,1,0,-16,0,0,0,86,90,10,0,58,155.95,0,22.00,-11.00,-1000.00
2025-08-06T12:50:49.024451,1,0,-16,0,0,0,86,90,10,0,58,155.64,0,21.00,-11.00,-1000.00
2025-08-06T12:50:49.109143,1,0,-16,0,0,0,86,90,10,0,58,155.93,0,23.00,-10.00,-1003.00
2025-08-06T12:50:49.227723,1,0,-16,0,0,0,86,90,10,0,58,155.58,0,22.00,-10.00,-1001.00
2025-08-06T12:50:49.312922,1,0,-16,0,0,0,86,89,10,0,58,155.61,0,22.00,-11.00,-999.00
2025-08-06T12:50:49.414886,1,0,-16,0,0,0,86,89,10,0,58,155.85,0,22.00,-10.00,-1000.00
2025-08-06T12:50:49.534338,1,0,-16,0,0,0,86,89,10,0,58,155.92,0,21.00,-11.00,-1000.00
2025-08-06T12:50:49.619113,1,0,-16,0,0,0,86,89,10,0,58,155.49,0,20.00,-9.00,-999.00
2025-08-06T12:50:49.720797,1,0,-16,0,0,0,86,89,10,0,58,155.80,0,22.00,-9.00,-998.00
2025-08-06T12:50:49.771850,1,0,-16,0,0,0,86,89,10,0,58,155.90,0,21.00,-9.00,-999.00
2025-08-06T12:50:49.943910,1,0,-16,0,0,0,86,89,10,0,58,156.12,0,20.00,-7.00,-997.00
2025-08-06T12:50:49.975761,1,0,-16,0,0,0,86,89,10,0,58,155.70,0,21.00,-8.00,-1003.00
2025-08-06T12:50:50.154081,1,0,-16,0,0,0,86,89,10,0,58,155.76,0,22.00,-10.00,-1001.00
2025-08-06T12:50:50.179723,1,0,-16,0,0,0,86,89,10,0,58,155.60,0,21.00,-8.00,-1006.00
2025-08-06T12:50:50.281781,1,0,-16,0,0,0,85,90,10,0,58,156.21,0,22.00,-8.00,-995.00
2025-08-06T12:50:50.383856,1,0,-16,0,0,0,85,90,10,0,58,156.09,0,23.00,-9.00,-1003.00
2025-08-06T12:50:50.558317,1,0,-16,0,0,0,85,90,10,0,58,155.79,0,24.00,-20.00,-1034.00
2025-08-06T12:50:50.587853,1,0,-16,0,0,0,85,90,10,0,58,156.04,0,69.00,-60.00,-994.00
2025-08-06T12:50:50.763332,1,0,-16,0,0,0,85,90,10,0,58,155.68,0,-6.00,207.00,-1067.00
2025-08-06T12:50:50.791770,1,4,-16,0,0,-1,85,90,10,0,58,155.64,0,435.00,171.00,-1291.00
2025-08-06T12:50:50.968004,-3,11,-23,3,2,-3,85,90,10,0,58,156.02,0,199.00,92.00,-938.00
2025-08-06T12:50:50.995875,0,11,-34,6,4,-3,85,90,10,0,58,155.98,0,104.00,68.00,-885.00
2025-08-06T12:50:51.173044,-3,5,-23,8,6,-1,85,90,10,0,58,155.80,0,-40.00,-1.00,-826.00
2025-08-06T12:50:51.199715,-2,1,-8,8,6,0,85,90,10,0,58,155.91,0,-56.00,-93.00,-921.00
2025-08-06T12:50:51.301751,0,0,-1,7,5,1,86,89,10,0,58,155.94,0,-85.00,-131.00,-903.00
2025-08-06T12:50:51.403868,0,0,6,7,4,2,86,89,10,0,58,155.74,0,-23.00,40.00,-864.00
2025-08-06T12:50:51.582354,-2,1,17,6,4,3,86,89,10,0,58,155.72,0,-115.00,111.00,-813.00
2025-08-06T12:50:51.608945,-5,1,24,5,4,4,86,89,74,0,58,155.56,0,-289.00,23.00,-870.00
2025-08-06T12:50:51.789446,-6,-1,26,3,3,5,86,89,72,0,58,155.66,0,-499.00,44.00,-1088.00
2025-08-06T12:50:51.811677,-11,-1,29,0,2,4,86,89,67,0,58,155.72,0,-473.00,-82.00,-1307.00
2025-08-06T12:50:51.992756,-13,-6,28,0,0,1,86,89,66,-10,58,155.70,0,-316.00,136.00,-1292.00
2025-08-06T12:50:52.017865,-12,-7,28,0,0,-2,86,89,67,-10,58,155.76,0,-402.00,80.00,-1222.00
2025-08-06T12:50:52.117612,-10,-5,25,-1,-1,-4,86,89,70,0,58,155.69,0,-303.00,46.00,-1092.00
2025-08-06T12:50:52.299124,-8,-3,19,-2,-2,-6,86,89,74,0,58,155.91,0,-295.00,27.00,-922.00
2025-08-06T12:50:52.321677,-5,0,12,-4,-3,-6,86,90,74,0,58,155.86,0,-221.00,-30.00,-752.00
2025-08-06T12:50:52.503905,-1,0,5,-5,-4,-4,86,90,40,0,58,155.92,0,-161.00,15.00,-803.00
2025-08-06T12:50:52.525599,0,0,0,-7,-4,-1,86,90,32,10,58,155.66,0,-137.00,104.00,-919.00
2025-08-06T12:50:52.708714,0,0,-8,-8,-3,0,86,90,10,10,58,155.76,0,-37.00,138.00,-926.00
2025-08-06T12:50:52.729960,0,0,-21,-8,-1,0,86,90,10,10,58,155.95,0,41.00,136.00,-854.00
2025-08-06T12:50:52.913372,0,-1,-32,0,0,0,86,90,10,10,58,155.98,0,26.00,148.00,-875.00
2025-08-06T12:50:52.933599,1,-6,-41,0,0,1,86,90,10,0,58,155.87,0,94.00,207.00,-998.00
2025-08-06T12:50:53.118518,1,-8,-51,0,0,1,86,90,10,0,58,155.80,0,20.00,220.00,-929.00
2025-08-06T12:50:53.118742,0,-7,-56,0,0,2,86,90,10,0,58,155.77,0,116.00,283.00,-997.00
2025-08-06T12:50:53.188580,1,-5,-57,0,0,2,86,90,10,0,58,155.72,0,182.00,145.00,-1172.00
2025-08-06T12:50:53.323067,0,-3,-54,0,0,0,86,90,67,0,58,155.68,0,34.00,133.00,-1000.00
2025-08-06T12:50:53.392475,-1,-1,-53,0,0,0,86,90,68,0,58,155.85,0,70.00,90.00,-1007.00
2025-08-06T12:50:53.527670,0,-4,-54,0,0,0,86,90,59,0,58,155.45,0,48.00,145.00,-957.00
2025-08-06T12:50:53.596433,1,-5,-56,0,0,0,86,90,41,0,58,155.72,0,73.00,169.00,-989.00
2025-08-06T12:50:53.732866,1,-8,-55,0,0,1,86,90,10,0,58,155.79,0,39.00,192.00,-1019.00
2025-08-06T12:50:53.800516,1,-11,-56,0,0,0,86,90,10,0,58,155.70,0,20.00,131.00,-1042.00
2025-08-06T12:50:53.937867,1,-13,-57,0,0,0,86,90,10,0,58,155.78,0,73.00,225.00,-1020.00
2025-08-06T12:50:54.004470,1,-10,-58,0,0,0,86,90,32,0,58,155.88,0,133.00,255.00,-971.00
2025-08-06T12:50:54.142185,2,-9,-58,0,0,0,86,90,31,0,58,155.79,0,172.00,191.00,-1044.00
2025-08-06T12:50:54.208378,2,-8,-55,1,-1,-1,86,90,33,0,58,155.80,0,218.00,239.00,-1064.00
2025-08-06T12:50:54.313520,3,-4,-50,3,-1,-2,86,90,32,0,58,156.22,0,190.00,197.00,-990.00
2025-08-06T12:50:54.412647,5,-2,-42,4,-1,-2,86,90,30,0,58,156.05,0,192.00,170.00,-968.00
2025-08-06T12:50:54.556529,5,0,-32,6,-1,-2,86,90,10,0,58,156.02,0,221.00,192.00,-841.00
2025-08-06T12:50:54.617543,5,1,-20,8,0,-1,86,90,10,0,58,155.83,0,116.00,69.00,-804.00
2025-08-06T12:50:54.756956,4,-1,-8,7,1,0,86,90,10,0,58,155.90,0,193.00,254.00,-902.00
2025-08-06T12:50:54.820462,0,0,2,0,0,0,86,90,32,0,58,155.73,0,-125.00,80.00,-978.00
2025-08-06T12:50:54.922387,0,-4,10,0,0,1,86,90,10,0,58,155.60,0,-174.00,125.00,-941.00
2025-08-06T12:50:55.063992,-3,-5,19,0,0,1,86,90,10,0,58,155.74,0,-178.00,95.00,-903.00
2025-08-06T12:50:55.126384,-3,-10,26,0,0,1,86,90,10,0,58,155.71,0,-377.00,72.00,-1069.00
2025-08-06T12:50:55.371512,-3,-10,28,0,0,1,86,90,30,0,58,155.63,0,-307.00,200.00,-1099.00
2025-08-06T12:50:55.371767,-5,-8,29,0,0,0,86,90,34,0,58,155.84,0,-294.00,184.00,-1069.00
2025-08-06T12:50:55.433354,-3,-8,28,0,0,-1,86,90,30,0,58,155.65,0,-322.00,107.00,-1072.00
2025-08-06T12:50:55.575943,-3,-6,25,0,0,-1,86,90,30,0,58,155.73,0,-266.00,93.00,-1062.00
2025-08-06T12:50:55.637683,-2,-5,19,0,0,-2,86,90,10,0,58,155.63,0,-220.00,41.00,-979.00
2025-08-06T12:50:55.780594,0,-3,10,0,0,-2,86,90,30,0,58,155.75,0,-174.00,64.00,-882.00
2025-08-06T12:50:55.841296,3,-1,0,0,0,-1,86,90,10,0,58,155.93,0,-45.00,117.00,-889.00
2025-08-06T12:50:55.985358,2,0,-10,-7,-2,0,86,90,10,0,58,155.87,0,31.00,147.00,-946.00
2025-08-06T12:50:56.045220,2,-1,-21,-7,-1,0,86,90,10,0,58,156.06,0,31.00,161.00,-986.00
2025-08-06T12:50:56.190503,2,-2,-31,0,0,1,86,90,10,0,58,156.04,0,102.00,199.00,-1030.00
2025-08-06T12:50:56.249267,1,-1,-39,0,0,1,86,90,10,0,58,155.71,0,33.00,260.00,-878.00
2025-08-06T12:50:56.400117,3,-2,-46,0,0,2,87,90,36,0,58,155.67,0,63.00,151.00,-959.00
2025-08-06T12:50:56.453250,3,-6,-52,0,0,2,87,90,36,0,58,155.59,0,150.00,171.00,-1031.00
2025-08-06T12:50:56.599698,2,-7,-57,0,0,2,87,90,39,0,58,155.60,0,175.00,212.00,-1006.00
2025-08-06T12:50:56.606215,1,-10,-61,0,0,1,87,90,35,0,58,155.67,0,166.00,235.00,-1033.00
2025-08-06T12:50:56.804901,0,-12,-63,0,0,1,87,90,37,0,58,155.72,0,93.00,265.00,-995.00
2025-08-06T12:50:56.810084,1,-12,-64,0,0,1,87,90,39,0,58,155.67,0,127.00,255.00,-1036.00
2025-08-06T12:50:57.009268,1,-13,-64,0,0,0,87,90,37,0,58,155.73,0,79.00,266.00,-1043.00
2025-08-06T12:50:57.014316,3,-13,-64,0,0,0,87,90,36,0,58,155.96,0,82.00,246.00,-1036.00
2025-08-06T12:50:57.214028,3,-13,-64,0,0,-1,87,90,37,0,58,155.71,0,139.00,255.00,-1049.00
2025-08-06T12:50:57.218336,4,-10,-62,0,0,-1,87,90,38,0,58,155.83,0,129.00,233.00,-954.00
2025-08-06T12:50:57.320136,5,-9,-59,1,0,-1,86,89,34,0,58,155.67,0,218.00,183.00,-969.00
2025-08-06T12:50:57.521254,5,-8,-55,2,-1,-1,86,89,30,0,58,155.95,0,210.00,186.00,-993.00
2025-08-06T12:50:57.524130,6,-9,-48,3,-1,-2,86,89,32,0,58,155.78,0,219.00,199.00,-971.00
2025-08-06T12:50:57.626097,5,-5,-38,4,-1,-2,86,89,10,0,58,155.60,0,181.00,169.00,-857.00
2025-08-06T12:50:57.728283,3,-2,-26,5,-1,-1,86,89,10,0,58,155.61,0,183.00,120.00,-943.00
2025-08-06T12:50:57.830210,1,0,-13,6,-1,0,86,89,10,0,58,155.80,0,195.00,129.00,-920.00
2025-08-06T12:50:58.033257,4,2,1,0,0,0,86,89,10,0,58,155.83,0,163.00,125.00,-914.00
2025-08-06T12:50:58.034015,6,3,17,0,0,0,86,89,10,0,58,155.84,0,39.00,153.00,-924.00
2025-08-06T12:50:58.238547,4,1,31,0,0,1,86,89,10,0,58,155.70,0,-26.00,174.00,-961.00
2025-08-06T12:50:58.238752,2,-1,46,0,0,1,86,89,30,0,58,155.75,0,-209.00,248.00,-962.00
2025-08-06T12:50:58.340975,0,-3,61,0,0,2,86,90,54,0,58,155.83,0,-275.00,299.00,-1021.00
2025-08-06T12:50:58.443925,2,-9,65,0,0,1,86,90,38,0,58,155.68,0,-231.00,252.00,-1160.00
2025-08-06T12:50:58.546479,5,-13,62,0,0,0,86,90,43,0,58,156.06,0,-230.00,383.00,-1209.00
2025-08-06T12:50:58.647180,4,-12,54,0,0,-1,86,90,53,0,58,155.73,0,-157.00,317.00,-1211.00
2025-08-06T12:50:58.750019,5,-12,43,0,0,-3,86,90,73,0,58,155.73,0,-234.00,219.00,-1175.00
2025-08-06T12:50:58.850065,5,-7,27,0,0,-4,86,90,79,0,58,155.79,0,-97.00,125.00,-974.00
2025-08-06T12:50:58.952341,3,-4,8,0,0,-3,86,90,10,0,58,155.87,0,-83.00,111.00,-825.00
2025-08-06T12:50:59.054076,4,-2,-4,0,0,-2,86,90,10,0,58,155.75,0,-49.00,120.00,-894.00
2025-08-06T12:50:59.159945,4,0,-11,0,0,0,86,90,10,0,58,155.85,0,40.00,147.00,-931.00
2025-08-06T12:50:59.258116,2,0,-21,0,0,0,86,90,10,0,58,155.53,0,39.00,158.00,-941.00
2025-08-06T12:50:59.360501,-1,0,-44,0,0,1,86,89,10,0,58,155.83,0,109.00,267.00,-1013.00
2025-08-06T12:50:59.461988,-3,2,-48,0,0,1,86,89,10,0,58,155.87,0,91.00,142.00,-1013.00
2025-08-06T12:50:59.564352,-1,-2,-54,0,0,1,86,89,66,0,58,155.63,0,-51.00,172.00,-973.00
2025-08-06T12:50:59.665910,0,-6,-58,0,0,1,86,89,38,0,58,155.69,0,95.00,67.00,-1075.00
2025-08-06T12:50:59.767923,-1,-8,-57,0,0,2,86,89,49,0,58,156.01,0,82.00,156.00,-898.00
2025-08-06T12:50:59.876194,-4,-11,-55,0,0,2,86,89,66,0,58,155.22,0,23.00,116.00,-991.00
2025-08-06T12:50:59.920826,-2,-11,-45,0,0,1,86,89,75,0,58,155.54,0,52.00,226.00,-1018.00
2025-08-06T12:51:00.022858,7,-15,-26,0,0,1,86,89,72,0,58,155.48,0,54.00,385.00,-1000.00
2025-08-06T12:51:00.184069,4,-17,-8,0,0,1,86,89,74,0,58,155.67,0,276.00,292.00,-1040.00
2025-08-06T12:51:00.226925,-3,-6,-7,0,0,1,86,89,71,0,58,155.48,0,90.00,223.00,-907.00
2025-08-06T12:51:00.388194,-3,-6,-26,0,0,0,86,90,68,0,58,155.78,0,0.00,387.00,-1011.00
2025-08-06T12:51:00.430841,1,-9,-36,0,0,-1,86,90,69,0,58,156.07,0,-112.00,306.00,-1141.00
2025-08-06T12:51:00.593125,2,-8,-36,0,0,-1,86,90,70,0,58,155.52,0,-46.00,110.00,-1081.00
2025-08-06T12:51:00.634866,3,-4,-40,0,0,-2,86,90,73,0,58,155.61,0,79.00,150.00,-1093.00
2025-08-06T12:51:00.798000,3,-5,-42,0,0,-2,86,90,72,0,58,155.63,0,54.00,145.00,-1109.00
2025-08-06T12:51:00.838871,3,-4,-38,0,0,-1,86,90,38,0,58,155.80,0,168.00,154.00,-1059.00
2025-08-06T12:51:01.006760,1,-2,-30,0,0,0,86,90,31,0,58,155.91,0,104.00,80.00,-962.00
2025-08-06T12:51:01.042776,2,-5,-19,0,0,0,86,90,10,0,58,155.67,0,176.00,168.00,-900.00
2025-08-06T12:51:01.207732,3,-4,-8,0,0,0,86,90,31,0,58,155.45,0,208.00,143.00,-883.00
2025-08-06T12:51:01.246816,0,1,11,0,0,1,86,90,61,0,58,155.93,0,108.00,135.00,-1004.00
2025-08-06T12:51:01.412403,-6,0,32,0,0,3,87,90,48,0,58,155.83,0,-429.00,248.00,-773.00
2025-08-06T12:51:01.451779,-4,-6,42,0,0,2,87,90,10,0,58,155.73,0,-192.00,-35.00,-1258.00
2025-08-06T12:51:01.616889,-8,-4,54,0,0,0,87,90,10,0,58,155.73,0,-399.00,192.00,-889.00
2025-08-06T12:51:01.655805,-2,-5,58,0,0,0,87,90,10,0,58,155.76,0,-269.00,195.00,-1151.00
2025-08-06T12:51:01.822317,-3,-3,64,0,0,0,87,90,30,0,58,155.57,0,-217.00,167.00,-999.00
2025-08-06T12:51:01.859752,-1,-4,67,0,0,-1,87,90,33,0,58,155.64,0,-293.00,111.00,-1050.00
2025-08-06T12:51:02.028390,-1,-1,70,0,0,-1,87,90,34,0,58,155.92,0,-165.00,114.00,-1007.00
2025-08-06T12:51:02.064138,0,0,71,0,0,-2,87,90,48,0,58,155.64,0,-252.00,115.00,-1098.00
2025-08-06T12:51:02.231818,-2,1,66,0,0,-2,87,90,38,0,58,155.71,0,-219.00,118.00,-961.00
2025-08-06T12:51:02.268016,0,2,47,0,0,-2,87,90,10,0,58,155.86,0,-75.00,118.00,-932.00
2025-08-06T12:51:02.445450,1,2,28,0,0,-1,86,89,10,0,58,155.63,0,-76.00,139.00,-953.00
2025-08-06T12:51:02.471687,0,6,13,0,0,0,86,89,10,0,58,155.44,0,3.00,140.00,-909.00
2025-08-06T12:51:02.640996,0,9,0,0,0,0,86,89,10,0,58,155.53,0,-1.00,39.00,-943.00
2025-08-06T12:51:02.675627,-1,8,-11,0,0,2,86,89,10,0,58,155.72,0,88.00,34.00,-887.00
2025-08-06T12:51:02.777651,-6,2,-17,0,0,2,86,89,10,0,58,155.82,0,-9.00,78.00,-1086.00
2025-08-06T12:51:02.948264,-6,1,-25,0,0,2,86,89,71,0,58,155.75,0,-30.00,163.00,-1020.00
2025-08-06T12:51:02.948499,-5,-2,-30,0,0,2,86,89,77,0,58,155.65,0,-64.00,57.00,-936.00
2025-08-06T12:51:03.032702,-10,-6,-34,0,0,2,86,89,76,0,58,155.67,0,23.00,121.00,-1044.00
2025-08-06T12:51:03.152799,-12,-11,-38,0,0,2,86,89,76,0,58,155.86,0,-38.00,222.00,-1052.00
2025-08-06T12:51:03.236493,-8,-13,-38,0,0,1,86,89,74,0,58,155.66,0,-60.00,120.00,-1085.00
2025-08-06T12:51:03.389606,-6,-13,-35,0,0,1,86,89,70,0,58,155.62,0,-85.00,191.00,-1004.00
2025-08-06T12:51:03.440565,-1,-12,-34,0,0,1,86,89,68,0,58,155.71,0,-9.00,168.00,-986.00
2025-08-06T12:51:03.562713,0,-12,-34,0,0,1,86,89,66,0,58,155.78,0,60.00,241.00,-997.00
2025-08-06T12:51:03.644685,0,-13,-35,0,0,0,86,89,62,0,58,155.32,0,6.00,246.00,-1032.00
2025-08-06T12:51:03.767404,1,-14,-36,0,0,0,86,89,66,0,58,155.65,0,-17.00,232.00,-1014.00
2025-08-06T12:51:03.849187,1,-13,-37,0,0,0,86,89,67,0,58,155.31,0,46.00,244.00,-1011.00
2025-08-06T12:51:03.972411,1,-12,-37,0,0,0,86,89,64,0,58,155.51,0,79.00,204.00,-1035.00
2025-08-06T12:51:04.053205,1,-11,-37,0,0,-1,86,89,69,0,58,155.62,0,63.00,228.00,-1036.00
2025-08-06T12:51:04.177013,1,-8,-37,0,0,-2,86,89,70,0,58,155.51,0,83.00,217.00,-1067.00
2025-08-06T12:51:04.257046,3,-7,-37,1,0,-3,86,89,63,0,58,155.15,0,119.00,154.00,-974.00
2025-08-06T12:51:04.381731,4,-5,-34,2,-1,-2,86,89,32,0,58,155.95,0,284.00,135.00,-916.00
2025-08-06T12:51:04.460532,4,-3,-27,5,-2,-2,86,89,30,0,58,155.94,0,335.00,169.00,-938.00
2025-08-06T12:51:04.586777,6,-1,-16,7,-2,-2,86,89,10,0,58,155.88,0,281.00,183.00,-841.00
2025-08-06T12:51:04.664435,5,0,-2,0,0,0,86,89,33,0,58,155.51,0,268.00,289.00,-884.00
2025-08-06T12:51:04.797018,5,0,13,0,0,0,86,89,41,0,58,155.94,0,224.00,237.00,-886.00
2025-08-06T12:51:04.868440,4,-1,29,0,0,1,86,89,10,0,58,155.71,0,25.00,154.00,-948.00
2025-08-06T12:51:04.995941,4,-6,40,0,0,1,86,89,10,0,58,155.58,0,-414.00,98.00,-1154.00
2025-08-06T12:51:05.072311,0,-5,43,0,0,0,86,89,10,0,58,155.59,0,-558.00,67.00,-726.00
2025-08-06T12:51:05.200896,0,-6,42,0,0,0,86,89,43,0,58,155.79,0,-240.00,198.00,-1136.00
2025-08-06T12:51:05.276391,1,-6,42,0,0,0,86,89,65,0,58,156.00,0,-205.00,201.00,-1049.00
2025-08-06T12:51:05.378611,0,-6,42,0,0,0,86,89,71,0,58,155.71,0,-132.00,137.00,-1056.00
2025-08-06T12:51:05.508073,0,-5,40,0,0,-1,86,89,73,0,58,156.00,0,-102.00,104.00,-1121.00
2025-08-06T12:51:05.582615,1,-4,37,0,0,-2,86,89,76,0,58,155.90,0,-142.00,99.00,-1051.00
2025-08-06T12:51:05.712787,2,-3,32,0,0,-2,86,89,69,0,58,155.76,0,-138.00,33.00,-1013.00
2025-08-06T12:51:05.786310,2,-2,25,0,0,-3,86,89,35,0,58,155.73,0,-32.00,-42.00,-1051.00
2025-08-06T12:51:05.919150,2,1,19,0,0,-2,86,89,31,0,58,155.84,0,-115.00,93.00,-895.00
2025-08-06T12:51:05.990332,2,4,10,0,0,-1,86,89,10,0,58,155.76,0,-85.00,95.00,-846.00
2025-08-06T12:51:06.092478,0,5,1,0,0,0,86,89,10,0,58,156.06,0,13.00,77.00,-930.00
2025-08-06T12:51:06.224793,0,4,-8,0,0,0,86,89,10,0,58,155.72,0,-35.00,45.00,-938.00
2025-08-06T12:51:06.245283,0,2,-18,0,0,0,86,89,10,0,58,155.78,0,-19.00,23.00,-923.00
2025-08-06T12:51:06.436674,0,1,-28,0,0,1,87,90,10,0,58,155.93,0,100.00,86.00,-924.00
2025-08-06T12:51:06.504839,0,-1,-38,0,0,1,87,90,32,0,58,155.50,0,53.00,82.00,-909.00
2025-08-06T12:51:06.551330,0,-2,-43,0,0,2,87,90,57,0,58,155.80,0,110.00,201.00,-906.00
2025-08-06T12:51:06.741138,3,-6,-44,0,0,2,87,90,39,0,58,155.78,0,108.00,20.00,-988.00
2025-08-06T12:51:06.755534,4,-6,-41,0,0,3,87,90,71,0,58,155.51,0,231.00,271.00,-937.00
2025-08-06T12:51:06.941402,3,-9,-38,0,0,3,87,90,66,0,58,155.95,0,253.00,96.00,-1014.00
2025-08-06T12:51:06.959177,2,-13,-40,0,0,2,87,90,45,0,58,155.53,0,145.00,198.00,-1073.00
2025-08-06T12:51:07.254391,1,-17,-41,0,0,2,87,90,45,0,58,155.60,0,-44.00,255.00,-1006.00
2025-08-06T12:51:07.254798,-1,-16,-41,-1,0,2,87,90,66,0,58,155.45,0,-53.00,350.00,-973.00
2025-08-06T12:51:07.265180,-1,-17,-42,-1,0,1,87,90,66,0,58,155.40,0,3.00,361.00,-1087.00
2025-08-06T12:51:07.367227,-1,-17,-43,0,0,0,86,90,66,0,58,155.57,0,14.00,331.00,-1090.00
2025-08-06T12:51:07.556009,0,-16,-44,0,0,-1,86,90,67,0,58,155.71,0,14.00,294.00,-1041.00
2025-08-06T12:51:07.571258,0,-15,-45,0,0,-2,86,90,66,0,58,155.51,0,29.00,279.00,-1033.00
2025-08-06T12:51:07.760731,1,-12,-44,0,0,-2,86,90,69,0,58,155.83,0,167.00,286.00,-1026.00
2025-08-06T12:51:07.775436,3,-10,-42,1,-1,-3,86,90,55,0,58,155.42,0,161.00,211.00,-996.00
2025-08-06T12:51:07.965365,5,-7,-39,2,-1,-3,86,90,40,0,58,155.59,0,244.00,168.00,-949.00
2025-08-06T12:51:07.979098,5,-3,-32,4,-1,-3,86,90,34,0,58,155.58,0,277.00,155.00,-915.00
2025-08-06T12:51:08.170368,6,-1,-24,6,-1,-3,86,90,32,0,58,156.03,0,259.00,163.00,-926.00
2025-08-06T12:51:08.183245,5,0,-19,7,0,-2,86,90,32,0,58,156.08,0,67.00,154.00,-810.00
2025-08-06T12:51:08.375134,4,-3,-13,0,0,0,86,90,36,0,58,155.95,0,112.00,131.00,-885.00
2025-08-06T12:51:08.387145,3,-2,-1,0,0,0,87,89,45,0,58,155.81,0,-19.00,171.00,-860.00
2025-08-06T12:51:08.580890,2,0,9,0,0,0,87,89,32,0,58,155.70,0,35.00,218.00,-904.00
2025-08-06T12:51:08.591133,2,-3,18,0,0,0,87,89,10,0,58,155.95,0,-38.00,163.00,-960.00
2025-08-06T12:51:08.784831,0,-6,24,0,0,1,87,89,31,0,58,155.79,0,-46.00,100.00,-1088.00
2025-08-06T12:51:08.795100,0,-9,31,0,0,2,87,89,34,0,58,155.67,0,-226.00,157.00,-922.00
2025-08-06T12:51:08.989537,-2,-10,35,0,0,2,87,89,34,0,58,155.53,0,-195.00,161.00,-1020.00
2025-08-06T12:51:08.999084,-3,-12,35,0,0,0,87,89,34,0,58,155.99,0,-303.00,147.00,-1177.00
2025-08-06T12:51:09.194229,-4,-11,35,0,0,-1,87,89,38,0,58,155.79,0,-212.00,234.00,-1156.00
2025-08-06T12:51:09.203077,-2,-9,32,0,0,-3,87,89,47,0,58,155.75,0,-193.00,151.00,-1073.00
2025-08-06T12:51:09.399176,0,-6,29,0,0,-3,87,89,69,0,58,156.12,0,-117.00,143.00,-1009.00
2025-08-06T12:51:09.411412,2,-4,24,0,0,-3,86,90,64,0,58,155.75,0,-113.00,92.00,-987.00
2025-08-06T12:51:09.508923,3,0,17,-5,-3,-2,86,90,30,0,58,156.01,0,-67.00,82.00,-937.00
2025-08-06T12:51:09.707282,4,0,10,-6,-3,-1,86,90,10,0,58,155.96,0,-53.00,68.00,-896.00
2025-08-06T12:51:09.713200,3,0,2,0,0,0,86,90,10,0,58,155.67,0,-14.00,50.00,-931.00
2025-08-06T12:51:09.814959,2,0,-7,0,0,0,86,90,10,0,58,155.77,0,25.00,109.00,-981.00
2025-08-06T12:51:09.866337,1,0,-18,0,0,0,86,90,10,0,58,155.80,0,65.00,149.00,-933.00
2025-08-06T12:51:10.013254,1,-1,-27,0,0,1,86,90,10,0,58,155.70,0,117.00,199.00,-903.00
2025-08-06T12:51:10.070003,0,-4,-35,0,0,2,86,90,30,0,58,155.69,0,49.00,244.00,-916.00
2025-08-06T12:51:10.218420,0,-8,-40,0,0,2,86,90,10,0,58,155.76,0,-66.00,237.00,-1018.00
2025-08-06T12:51:10.274214,-1,-10,-45,0,0,2,86,90,10,0,58,155.53,0,71.00,195.00,-857.00
2025-08-06T12:51:10.422989,0,-12,-44,0,0,3,86,89,10,0,58,155.43,0,196.00,190.00,-1040.00
2025-08-06T12:51:10.478348,-2,-15,-42,0,0,3,86,89,10,0,58,155.65,0,100.00,144.00,-870.00
2025-08-06T12:51:10.628019,1,-18,-41,0,0,1,86,89,10,0,58,155.67,0,207.00,348.00,-928.00
2025-08-06T12:51:10.681947,0,-16,-42,0,0,1,86,89,50,0,58,155.89,0,142.00,241.00,-1200.00
2025-08-06T12:51:10.832704,0,-15,-44,0,0,0,86,89,62,0,58,155.69,0,-52.00,256.00,-1005.00
2025-08-06T12:51:10.885942,1,-15,-46,0,0,0,86,89,40,0,58,155.68,0,40.00,400.00,-1049.00
2025-08-06T12:51:11.037292,2,-13,-44,1,0,-1,86,89,36,0,58,155.49,0,56.00,300.00,-1030.00
2025-08-06T12:51:11.093434,3,-11,-41,1,0,-2,86,89,36,0,58,155.72,0,73.00,245.00,-991.00
2025-08-06T12:51:11.192363,2,-7,-37,2,-1,-2,86,89,35,0,58,155.96,0,183.00,289.00,-1022.00
2025-08-06T12:51:11.344571,5,-3,-29,5,-2,-2,86,89,10,0,58,156.01,0,316.00,202.00,-1041.00
2025-08-06T12:51:11.395851,8,-1,-19,7,-1,-2,86,89,10,0,58,155.76,0,237.00,217.00,-891.00
2025-08-06T12:51:11.551549,7,1,-6,8,0,0,86,89,10,0,58,155.75,0,184.00,207.00,-892.00
2025-08-06T12:51:11.599809,9,0,7,8,2,0,86,89,10,0,58,156.01,0,178.00,113.00,-978.00
2025-08-06T12:51:11.754141,8,1,18,0,0,0,86,89,30,0,58,156.12,0,135.00,237.00,-979.00
2025-08-06T12:51:11.804117,7,1,28,0,0,0,86,89,33,0,58,155.90,0,-283.00,15.00,-751.00
2025-08-06T12:51:11.958756,8,-8,32,0,0,2,86,89,47,0,58,155.90,0,-217.00,242.00,-994.00
2025-08-06T12:51:12.007733,2,-6,40,0,0,3,86,89,52,0,58,155.87,0,-266.00,118.00,-1004.00
2025-08-06T12:51:12.163701,3,-13,42,0,0,2,86,89,33,0,58,155.65,0,-144.00,138.00,-1049.00
2025-08-06T12:51:12.211831,1,-13,44,0,0,1,86,89,32,0,58,155.65,0,-134.00,189.00,-1108.00
2025-08-06T12:51:12.368494,0,-13,42,0,0,0,86,89,35,0,58,155.78,0,-111.00,244.00,-1131.00
2025-08-06T12:51:12.415672,2,-11,40,0,0,-2,86,89,46,0,58,155.78,0,-110.00,197.00,-1103.00
2025-08-06T12:51:12.573281,4,-7,37,0,0,-3,86,89,76,0,58,155.98,0,-93.00,154.00,-1009.00
2025-08-06T12:51:12.619743,6,-4,31,-3,-3,-3,86,89,82,0,58,155.98,0,-70.00,116.00,-906.00
2025-08-06T12:51:12.778052,6,-1,24,-5,-4,-2,86,89,36,0,58,155.83,0,-37.00,117.00,-855.00
2025-08-06T12:51:12.823626,5,1,15,-7,-3,0,86,89,10,0,58,156.05,0,-6.00,57.00,-919.00
2025-08-06T12:51:12.983004,3,1,4,0,0,0,86,89,10,0,58,155.85,0,28.00,92.00,-896.00
2025-08-06T12:51:13.028278,1,1,-6,0,0,0,86,89,10,0,58,155.96,0,-32.00,143.00,-913.00
2025-08-06T12:51:13.129649,0,0,-18,0,0,1,86,89,10,0,58,155.74,0,37.00,158.00,-908.00
2025-08-06T12:51:13.180680,0,-2,-29,0,0,2,86,89,10,0,58,155.78,0,87.00,58.00,-927.00
2025-08-06T12:51:13.289897,0,-7,-39,0,0,3,86,89,10,0,58,155.75,0,146.00,353.00,-1034.00
2025-08-06T12:51:13.384572,-3,-7,-47,0,0,3,87,90,42,0,58,155.83,0,184.00,382.00,-983.00
2025-08-06T12:51:13.494770,-2,-12,-50,0,0,3,87,90,31,0,58,155.65,0,31.00,216.00,-1025.00
2025-08-06T12:51:13.588785,0,-16,-52,0,0,2,87,90,10,0,58,155.75,0,-64.00,246.00,-912.00
2025-08-06T12:51:13.699558,1,-16,-53,0,0,2,87,90,39,0,58,155.77,0,41.00,249.00,-998.00
2025-08-06T12:51:13.792562,0,-15,-53,0,0,2,87,90,61,0,58,155.80,0,119.00,377.00,-927.00
2025-08-06T12:51:13.904424,-1,-16,-54,0,0,2,87,90,62,0,58,155.83,0,2.00,304.00,-1187.00
2025-08-06T12:51:13.996664,-2,-19,-55,0,0,1,87,90,62,0,58,155.58,0,-17.00,347.00,-1180.00
2025-08-06T12:51:14.109276,-2,-17,-56,0,0,-1,87,90,63,0,58,155.51,0,-36.00,352.00,-1063.00
2025-08-06T12:51:14.200681,-1,-15,-57,0,0,-2,87,90,64,0,58,155.53,0,31.00,340.00,-1042.00
2025-08-06T12:51:14.314003,3,-16,-58,0,0,-3,87,90,62,0,58,155.43,0,145.00,285.00,-1042.00
2025-08-06T12:51:14.404507,1,-10,-53,0,0,-4,86,90,42,0,58,155.72,0,227.00,316.00,-912.00
2025-08-06T12:51:14.518800,6,-12,-51,0,0,-4,86,90,10,0,58,155.63,0,294.00,204.00,-961.00
2025-08-06T12:51:14.608454,7,-10,-44,0,0,-3,86,90,10,0,58,155.79,0,292.00,192.00,-912.00
2025-08-06T12:51:14.723659,10,-7,-34,0,0,-3,86,90,32,0,58,155.69,0,262.00,153.00,-853.00
2025-08-06T12:51:14.812523,12,-3,-22,0,0,-2,86,90,10,0,58,155.66,0,185.00,144.00,-777.00
2025-08-06T12:51:14.928808,12,0,-10,0,0,-1,86,90,10,0,58,155.96,0,274.00,214.00,-827.00
2025-08-06T12:51:15.016500,11,2,2,0,0,0,86,90,10,0,58,156.05,0,187.00,208.00,-932.00
2025-08-06T12:51:15.118751,10,1,15,0,0,0,86,90,33,0,58,155.84,0,77.00,220.00,-891.00
2025-08-06T12:51:15.235883,8,-3,27,0,0,2,86,90,44,0,58,155.77,0,-147.00,190.00,-941.00
2025-08-06T12:51:15.322484,6,-7,36,0,0,2,86,90,38,0,58,155.78,0,-285.00,172.00,-968.00
2025-08-06T12:51:15.443108,3,-11,42,0,0,2,87,89,34,0,58,155.72,0,-470.00,197.00,-1059.00
2025-08-06T12:51:15.526494,1,-14,43,0,0,2,87,89,32,0,58,155.87,0,-292.00,238.00,-1280.00
2025-08-06T12:51:15.645204,0,-13,42,0,0,0,87,89,34,0,58,155.84,0,-275.00,200.00,-1131.00
2025-08-06T12:51:15.730466,1,-11,37,0,0,-2,87,89,44,0,58,155.74,0,-157.00,210.00,-1035.00
2025-08-06T12:51:15.832565,2,-8,31,0,0,-2,87,89,43,0,58,155.86,0,-167.00,200.00,-965.00
2025-08-06T12:51:15.934696,4,-5,22,0,0,-2,87,89,30,0,58,155.93,0,-75.00,185.00,-931.00
2025-08-06T12:51:16.036676,4,-2,12,-6,-2,-1,87,89,10,0,58,155.52,0,-4.00,124.00,-1014.00
2025-08-06T12:51:16.138986,2,0,1,-7,-2,-1,87,89,10,0,58,155.63,0,51.00,102.00,-920.00
2025-08-06T12:51:16.259511,2,-1,-10,-7,0,0,87,89,10,0,58,155.78,0,16.00,125.00,-886.00
2025-08-06T12:51:16.342316,1,-1,-22,0,0,0,87,89,10,0,58,155.79,0,38.00,248.00,-870.00
2025-08-06T12:51:16.464301,1,-2,-32,0,0,1,87,91,10,0,58,155.71,0,-3.00,267.00,-927.00
2025-08-06T12:51:16.546447,0,-4,-40,0,0,2,87,91,31,0,58,156.01,0,153.00,270.00,-1008.00
2025-08-06T12:51:16.669150,-1,-7,-47,0,0,2,87,91,10,0,58,155.76,0,189.00,220.00,-1011.00
2025-08-06T12:51:16.750410,-2,-12,-51,0,0,2,87,91,10,0,58,155.63,0,199.00,145.00,-974.00
2025-08-06T12:51:16.802360,-1,-16,-55,0,0,2,87,91,10,0,58,155.71,0,64.00,301.00,-983.00
2025-08-06T12:51:16.976118,-2,-15,-53,0,0,2,87,91,35,0,58,155.73,0,85.00,331.00,-1019.00
2025-08-06T12:51:17.006226,-1,-15,-51,0,0,1,87,91,45,0,57,155.28,0,-31.00,410.00,-924.00
2025-08-06T12:51:17.181092,-1,-17,-50,0,0,1,87,91,10,0,57,155.60,0,-67.00,200.00,-1058.00
2025-08-06T12:51:17.210335,-1,-19,-49,0,0,1,87,91,10,0,57,155.66,0,28.00,329.00,-1208.00
2025-08-06T12:51:17.386009,0,-19,-51,0,0,-1,87,91,10,0,57,155.68,0,45.00,369.00,-1134.00
2025-08-06T12:51:17.414337,0,-17,-51,0,0,-3,86,89,10,0,57,155.48,0,199.00,364.00,-1072.00
2025-08-06T12:51:17.590651,3,-15,-50,0,0,-4,86,89,10,0,57,155.93,0,317.00,329.00,-960.00
2025-08-06T12:51:17.618416,6,-11,-46,0,0,-4,86,89,31,0,57,155.63,0,359.00,266.00,-869.00
2025-08-06T12:51:17.795402,7,-5,-37,0,0,-3,86,89,30,0,57,155.83,0,310.00,274.00,-870.00
2025-08-06T12:51:17.822287,7,-2,-25,7,-1,-2,86,89,10,0,57,155.79,0,248.00,192.00,-898.00
2025-08-06T12:51:18.000095,8,-1,-13,8,0,-2,86,89,10,0,57,155.82,0,172.00,232.00,-976.00
2025-08-06T12:51:18.026180,8,0,0,9,1,-1,86,89,10,0,57,155.74,0,-4.00,189.00,-995.00
2025-08-06T12:51:18.205001,9,0,12,0,0,0,86,89,30,0,57,156.04,0,3.00,271.00,-922.00
2025-08-06T12:51:18.230280,9,0,23,0,0,0,86,89,54,0,57,155.74,0,-87.00,187.00,-845.00
2025-08-06T12:51:18.409825,9,-7,30,0,0,1,86,89,57,0,57,155.73,0,-1.00,121.00,-929.00
2025-08-06T12:51:18.434182,6,-11,35,0,0,3,86,90,57,0,57,155.84,0,-150.00,206.00,-1008.00
2025-08-06T12:51:18.614704,4,-16,38,0,0,3,86,90,53,0,57,155.76,0,-368.00,141.00,-1147.00
2025-08-06T12:51:18.638175,0,-16,38,0,0,2,86,90,49,0,57,155.90,0,-158.00,362.00,-1221.00
2025-08-06T12:51:18.819979,-1,-13,37,0,0,-1,86,90,61,0,57,155.79,0,-130.00,292.00,-1151.00
2025-08-06T12:51:18.842133,0,-11,34,0,0,-3,86,90,74,0,57,155.72,0,-174.00,173.00,-1044.00
2025-08-06T12:51:19.024333,1,-7,29,0,0,-4,86,90,81,0,57,156.01,0,-171.00,164.00,-892.00
2025-08-06T12:51:19.046059,4,-6,21,0,0,-3,86,90,82,0,57,155.74,0,-124.00,140.00,-885.00
2025-08-06T12:51:19.228928,6,-6,12,-6,-4,-2,86,90,31,0,57,155.99,0,-26.00,134.00,-918.00
2025-08-06T12:51:19.250175,7,-5,2,-8,-4,0,86,90,10,0,57,155.76,0,-27.00,154.00,-977.00
2025-08-06T12:51:19.434172,7,-4,-8,-9,-4,0,86,90,10,0,57,155.90,0,4.00,174.00,-948.00
2025-08-06T12:51:19.454164,2,-3,-33,0,0,1,86,90,10,0,57,156.02,0,50.00,251.00,-873.00
2025-08-06T12:51:19.638373,0,-5,-42,0,0,2,86,90,10,0,57,155.74,0,80.00,332.00,-898.00
2025-08-06T12:51:19.658380,1,-9,-50,0,0,2,86,90,10,0,57,156.08,0,143.00,310.00,-959.00
2025-08-06T12:51:19.843493,2,-13,-58,0,0,3,86,90,10,0,57,155.87,0,165.00,290.00,-991.00
2025-08-06T12:51:19.862116,5,-15,-60,0,0,3,86,90,10,0,57,155.48,0,163.00,375.00,-950.00
2025-08-06T12:51:20.047962,4,-16,-59,0,0,1,86,90,10,0,57,155.85,0,259.00,362.00,-1106.00
2025-08-06T12:51:20.065998,4,-18,-57,0,0,0,86,90,10,0,57,155.52,0,284.00,325.00,-1146.00
2025-08-06T12:51:20.117103,5,-19,-57,0,0,-1,86,90,10,0,57,155.58,0,236.00,335.00,-1068.00
2025-08-06T12:51:20.252781,6,-19,-52,0,0,-2,86,90,10,0,57,155.55,0,220.00,399.00,-978.00
2025-08-06T12:51:20.322939,8,-17,-45,0,0,-2,86,90,10,0,57,155.57,0,248.00,353.00,-932.00
2025-08-06T12:51:20.423029,9,-16,-36,0,0,-2,86,89,10,0,57,155.78,0,266.00,354.00,-981.00
2025-08-06T12:51:20.561331,9,-13,-28,0,0,-2,86,89,10,0,57,155.69,0,300.00,411.00,-915.00
2025-08-06T12:51:20.626972,9,-8,-18,0,0,-2,86,89,10,0,57,155.87,0,236.00,263.00,-960.00
2025-08-06T12:51:20.764901,9,-6,-8,0,0,-1,86,89,34,0,57,155.70,0,317.00,284.00,-969.00
2025-08-06T12:51:20.830948,8,-5,2,0,0,0,86,89,46,0,57,155.99,0,299.00,297.00,-984.00
2025-08-06T12:51:20.969953,8,-6,12,0,0,0,86,89,33,0,57,155.92,0,207.00,240.00,-877.00
2025-08-06T12:51:21.034943,8,-6,20,0,0,1,86,89,10,0,57,155.81,0,215.00,207.00,-901.00
2025-08-06T12:51:21.174509,7,-7,26,0,0,2,86,89,30,0,57,155.64,0,188.00,246.00,-941.00
2025-08-06T12:51:21.239000,7,-9,31,0,0,3,86,89,56,0,57,155.77,0,34.00,283.00,-909.00
2025-08-06T12:51:21.379452,3,-10,36,0,0,3,86,89,58,0,57,155.92,0,-155.00,88.00,-847.00
2025-08-06T12:51:21.442991,2,-12,37,0,0,1,86,90,55,0,57,155.70,0,-175.00,204.00,-1233.00
2025-08-06T12:51:21.583878,2,-11,37,0,0,0,86,90,64,0,57,155.90,0,-201.00,243.00,-1148.00
2025-08-06T12:51:21.646862,2,-11,37,0,0,-2,86,90,62,0,57,156.20,0,-199.00,249.00,-1103.00
2025-08-06T12:51:21.788822,3,-11,35,0,0,-3,86,90,48,0,57,155.98,0,-185.00,250.00,-1101.00
2025-08-06T12:51:21.850920,4,-9,31,0,0,-3,86,90,34,0,57,155.85,0,-153.00,208.00,-952.00
2025-08-06T12:51:21.993660,5,-9,24,0,0,-2,86,90,31,0,57,156.29,0,-102.00,135.00,-845.00
2025-08-06T12:51:22.055008,8,-11,15,0,0,-1,86,90,32,0,57,156.11,0,-170.00,35.00,-818.00
2025-08-06T12:51:22.198471,10,-10,0,0,0,1,86,90,10,0,57,155.98,0,-17.00,233.00,-817.00
2025-08-06T12:51:22.258880,6,-7,-12,0,0,2,86,90,10,0,57,155.90,0,241.00,335.00,-906.00
2025-08-06T12:51:22.403315,1,0,-18,0,0,3,86,90,10,0,57,155.72,0,537.00,638.00,-1089.00
2025-08-06T12:51:22.462818,1,-2,-10,0,0,2,87,90,10,0,57,155.65,0,45.00,-4.00,-954.00
2025-08-06T12:51:22.609212,2,-1,-9,0,0,0,87,90,10,0,57,156.01,0,-210.00,228.00,-987.00
2025-08-06T12:51:22.666839,2,-1,-9,0,0,0,87,90,10,0,57,155.93,0,20.00,0.00,-971.00
2025-08-06T12:51:22.812802,2,-1,-9,0,0,0,87,90,10,0,57,155.83,0,19.00,-8.00,-1003.00
2025-08-06T12:51:22.870853,2,-1,-9,0,0,0,87,90,10,0,57,155.51,0,20.00,-10.00,-1027.00
2025-08-06T12:51:23.022026,2,-1,-9,0,0,0,87,90,10,0,57,155.73,0,20.00,-11.00,-997.00
2025-08-06T12:51:23.074703,2,0,-9,0,0,0,87,90,10,0,57,155.83,0,19.00,-7.00,-961.00
2025-08-06T12:51:23.222545,2,0,-9,0,0,0,87,90,10,0,57,155.66,0,20.00,-6.00,-1002.00
2025-08-06T12:51:23.278761,2,0,-9,0,0,0,87,90,10,0,57,155.76,0,21.00,-6.00,-999.00
2025-08-06T12:51:23.329966,2,0,-9,0,0,0,87,90,10,0,57,156.03,0,20.00,-10.00,-1008.00
2025-08-06T12:51:23.529498,2,0,-9,0,0,0,86,90,10,0,57,155.89,0,19.00,-9.00,-991.00
2025-08-06T12:51:23.585081,2,0,-9,0,0,0,86,90,10,0,57,155.83,0,20.00,-10.00,-993.00
2025-08-06T12:51:23.687665,2,0,-9,0,0,0,86,90,10,0,57,155.95,0,19.00,-7.00,-984.00
2025-08-06T12:51:23.737581,2,0,-9,0,0,0,86,90,10,0,57,155.90,0,19.00,-9.00,-977.00
2025-08-06T12:51:23.840066,2,0,-9,0,0,0,86,90,10,0,57,155.72,0,20.00,-8.00,-967.00
2025-08-06T12:51:23.942079,2,0,-9,0,0,0,86,90,10,0,57,155.75,0,20.00,-12.00,-981.00
2025-08-06T12:51:24.043893,2,0,-9,0,0,0,86,90,10,0,57,155.95,0,20.00,-12.00,-1005.00
2025-08-06T12:51:24.145931,1,0,-9,0,0,0,86,90,10,0,57,155.78,0,22.00,-11.00,-1012.00
2025-08-06T12:51:24.349073,1,0,-9,0,0,0,86,90,10,0,57,155.81,0,22.00,-10.00,-1001.00
2025-08-06T12:51:24.349969,1,0,-9,0,0,0,86,90,10,0,57,155.62,0,21.00,-10.00,-1006.00
