TS,pitch,roll,yaw,vgx,vgy,vgz,templ,temph,tof,h,bat,baro,time,agx,agy,agz
2025-08-06T12:52:17.085411,1,0,-2,0,0,0,88,91,10,0,55,155.81,0,21.00,-12.00,-997.00
2025-08-06T12:52:17.187855,1,0,-2,0,0,0,88,91,10,0,55,155.66,0,22.00,-11.00,-996.00
2025-08-06T12:52:17.289248,1,0,-2,0,0,0,88,91,10,0,55,155.99,0,21.00,-13.00,-1005.00
2025-08-06T12:52:17.392203,1,0,-2,0,0,0,88,91,10,0,55,155.82,0,20.00,-13.00,-1002.00
2025-08-06T12:52:17.492875,1,0,-2,0,0,0,88,91,10,0,55,155.80,0,21.00,-13.00,-1000.00
2025-08-06T12:52:17.697990,1,0,-2,0,0,0,88,91,10,0,55,155.78,0,22.00,-13.00,-1004.00
2025-08-06T12:52:17.698236,1,0,-2,0,0,0,88,91,10,0,55,155.85,0,21.00,-8.00,-967.00
2025-08-06T12:52:17.798680,1,0,-2,0,0,0,88,91,10,0,55,156.03,0,20.00,-9.00,-991.00
2025-08-06T12:52:17.900850,1,0,-2,0,0,0,88,91,10,0,55,155.87,0,21.00,-9.00,-994.00
2025-08-06T12:52:18.003957,1,0,-2,0,0,0,88,91,10,0,55,155.84,0,22.00,-10.00,-997.00
2025-08-06T12:52:18.105446,1,0,-2,0,0,0,88,91,10,0,55,155.85,0,22.00,-11.00,-995.00
2025-08-06T12:52:18.207958,1,0,-2,0,0,0,88,91,10,0,55,156.07,0,21.00,-12.00,-996.00
2025-08-06T12:52:18.310652,1,0,-2,0,0,0,88,91,10,0,55,155.83,0,19.00,-12.00,-996.00
2025-08-06T12:52:18.410858,1,0,-2,0,0,0,88,91,10,0,55,156.16,0,7.00,86.00,-1012.00
2025-08-06T12:52:18.512676,0,2,-7,0,1,0,88,91,10,0,55,156.14,0,192.00,207.00,-1097.00
2025-08-06T12:52:18.614692,0,0,-8,1,2,-1,88,91,10,0,55,156.09,0,33.00,269.00,-1108.00
2025-08-06T12:52:18.721231,1,-3,-10,2,4,-2,88,91,10,0,55,155.95,0,30.00,227.00,-982.00
2025-08-06T12:52:18.818605,2,-6,-13,3,5,-2,88,91,10,0,55,156.09,0,91.00,12.00,-829.00
2025-08-06T12:52:18.920669,4,-6,-1,3,5,0,88,91,10,0,55,156.02,0,108.00,29.00,-904.00
2025-08-06T12:52:19.022458,2,-6,12,3,4,0,88,91,10,0,55,156.16,0,-17.00,45.00,-935.00
2025-08-06T12:52:19.124735,0,-8,25,3,4,1,88,91,32,0,55,155.89,0,-21.00,107.00,-953.00
2025-08-06T12:52:19.233965,-1,-11,34,2,2,1,88,91,32,0,55,155.82,0,-224.00,296.00,-1035.00
2025-08-06T12:52:19.328553,-1,-9,42,1,2,1,88,91,32,0,55,155.62,0,-254.00,260.00,-1081.00
2025-08-06T12:52:19.437096,-2,-9,45,0,1,0,88,91,31,0,55,155.69,0,-295.00,222.00,-954.00
2025-08-06T12:52:19.532547,0,-10,39,-1,0,0,88,91,10,0,55,156.00,0,-213.00,232.00,-971.00
2025-08-06T12:52:19.641983,-1,-10,31,-3,0,0,88,91,10,0,55,155.92,0,-193.00,301.00,-1036.00
2025-08-06T12:52:19.736422,-1,-9,19,-5,0,0,88,91,10,0,55,155.62,0,-161.00,280.00,-984.00
2025-08-06T12:52:19.847139,0,-9,4,-6,0,-1,88,91,10,0,55,155.72,0,49.00,321.00,-856.00
2025-08-06T12:52:19.940562,1,-10,-11,-6,1,0,88,91,10,0,55,156.04,0,174.00,160.00,-1017.00
2025-08-06T12:52:20.042493,1,-11,-24,0,0,0,88,91,30,0,55,155.71,0,197.00,209.00,-963.00
2025-08-06T12:52:20.144477,0,-10,-34,0,0,0,88,91,53,0,55,156.01,0,294.00,135.00,-1043.00
2025-08-06T12:52:20.246589,-1,-9,-37,0,0,-1,88,91,76,0,55,155.83,0,346.00,88.00,-1079.00
2025-08-06T12:52:20.297418,-1,-7,-35,0,0,-1,88,91,83,0,55,155.96,0,315.00,128.00,-964.00
2025-08-06T12:52:20.461252,-1,-3,-30,0,0,-1,88,91,84,0,55,156.23,0,150.00,136.00,-945.00
2025-08-06T12:52:20.501422,-1,0,-22,0,0,-1,88,91,76,0,55,155.99,0,53.00,195.00,-986.00
2025-08-06T12:52:20.670078,0,-1,-12,0,0,-1,88,91,10,0,55,155.92,0,78.00,151.00,-944.00
2025-08-06T12:52:20.705416,0,0,-3,0,0,0,88,91,10,0,55,155.95,0,105.00,330.00,-760.00
2025-08-06T12:52:20.870968,-3,0,7,0,0,1,88,91,10,0,55,156.10,0,-103.00,363.00,-978.00
2025-08-06T12:52:20.909399,-5,-2,22,0,0,1,88,91,10,0,55,155.92,0,-184.00,370.00,-994.00
2025-08-06T12:52:21.011628,-6,-4,37,0,0,1,88,91,39,0,55,155.86,0,-203.00,327.00,-949.00
2025-08-06T12:52:21.178084,-5,-7,51,0,0,1,88,91,10,0,55,156.05,0,-453.00,244.00,-1077.00
2025-08-06T12:52:21.215383,-1,-11,61,0,0,0,88,91,10,0,55,155.84,0,-576.00,97.00,-1161.00
2025-08-06T12:52:21.384601,0,-13,63,0,0,-1,88,91,10,0,55,155.86,0,-741.00,151.00,-1141.00
2025-08-06T12:52:21.419687,-7,-11,57,0,0,-1,88,91,43,0,55,155.74,0,-142.00,500.00,-1051.00
2025-08-06T12:52:21.587565,-11,-7,49,0,0,-2,88,91,41,0,55,156.00,0,-167.00,172.00,-941.00
2025-08-06T12:52:21.623423,-7,-8,36,0,0,-2,88,91,10,0,55,156.17,0,-190.00,118.00,-856.00
2025-08-06T12:52:21.725219,-7,-5,26,0,0,0,88,91,10,0,55,155.60,0,-146.00,226.00,-886.00
2025-08-06T12:52:21.896054,-6,-1,16,0,0,0,88,91,10,0,55,155.99,0,30.00,428.00,-807.00
2025-08-06T12:52:21.929164,-1,0,6,0,0,1,88,91,10,0,55,156.10,0,67.00,206.00,-999.00
2025-08-06T12:52:22.031155,3,-3,0,0,0,2,88,91,10,0,55,155.82,0,72.00,181.00,-839.00
2025-08-06T12:52:22.210881,9,-6,-5,0,0,2,88,91,10,0,55,155.83,0,345.00,22.00,-1099.00
2025-08-06T12:52:22.235335,7,-8,-10,0,0,1,88,91,10,0,55,155.89,0,294.00,36.00,-1065.00
2025-08-06T12:52:22.407091,8,-8,-14,0,0,0,88,91,10,0,55,155.86,0,240.00,169.00,-932.00
2025-08-06T12:52:22.439218,14,-7,-16,0,0,0,88,91,10,0,55,155.73,0,401.00,79.00,-928.00
2025-08-06T12:52:22.611782,19,-6,-16,0,0,0,88,91,10,0,55,155.80,0,620.00,15.00,-1020.00
2025-08-06T12:52:22.643253,20,-5,-17,0,0,0,88,91,10,0,55,155.78,0,645.00,145.00,-959.00
2025-08-06T12:52:22.816862,17,-1,-7,0,0,-1,87,91,10,0,55,155.96,0,435.00,157.00,-956.00
2025-08-06T12:52:22.847270,13,-2,0,0,0,0,87,91,10,0,55,156.10,0,157.00,200.00,-714.00
2025-08-06T12:52:23.021107,6,-4,1,0,0,0,87,91,10,0,55,156.01,0,322.00,164.00,-1200.00
2025-08-06T12:52:23.051282,4,-7,13,0,0,0,87,91,10,0,55,155.84,0,-84.00,199.00,-799.00
2025-08-06T12:52:23.225651,-1,-8,21,0,0,0,87,91,42,0,55,156.20,0,134.00,81.00,-1128.00
2025-08-06T12:52:23.255066,-12,-4,29,0,0,1,87,91,47,0,55,156.03,0,-203.00,46.00,-851.00
2025-08-06T12:52:23.357480,-9,-8,41,0,0,0,87,91,48,0,55,155.92,0,-27.00,132.00,-872.00
2025-08-06T12:52:23.533504,-10,-9,49,0,0,0,87,91,51,0,55,156.08,0,-153.00,238.00,-1107.00
2025-08-06T12:52:23.561179,-9,-7,53,0,0,0,87,91,43,0,55,155.62,0,-177.00,233.00,-807.00
2025-08-06T12:52:23.612127,-6,-1,56,0,0,1,87,91,10,0,55,155.97,0,-96.00,134.00,-973.00
2025-08-06T12:52:23.765090,-3,-3,58,0,0,1,88,91,10,0,55,155.88,0,-171.00,167.00,-982.00
2025-08-06T12:52:23.816142,0,-3,51,0,0,1,88,91,10,0,55,156.09,0,-138.00,104.00,-840.00
2025-08-06T12:52:23.942897,-5,-6,43,0,0,0,88,91,10,0,55,155.66,0,-156.00,117.00,-1010.00
2025-08-06T12:52:24.020050,-3,-7,39,0,0,-2,88,91,10,0,55,155.81,0,-141.00,52.00,-1160.00
2025-08-06T12:52:24.123850,-2,-3,33,0,0,-3,88,91,10,0,55,156.17,0,-213.00,-62.00,-1058.00
2025-08-06T12:52:24.224209,-1,-3,24,0,0,-2,88,91,10,0,55,155.88,0,-333.00,134.00,-1106.00
2025-08-06T12:52:24.352675,-8,-5,13,0,0,-2,88,91,34,0,55,156.05,0,-319.00,87.00,-918.00
2025-08-06T12:52:24.428124,-7,-5,-2,0,0,0,88,91,42,0,55,155.89,0,-209.00,63.00,-955.00
2025-08-06T12:52:24.557404,-4,-3,-14,0,0,0,88,91,10,0,55,155.64,0,-263.00,123.00,-790.00
2025-08-06T12:52:24.632002,-3,-3,-25,0,0,1,88,91,10,0,55,155.98,0,-293.00,193.00,-865.00
2025-08-06T12:52:24.761713,-1,-6,-33,0,0,1,88,91,10,0,55,156.09,0,68.00,289.00,-893.00
2025-08-06T12:52:24.835996,0,-8,-39,0,0,2,88,91,10,0,55,156.08,0,140.00,364.00,-912.00
2025-08-06T12:52:24.966587,0,-13,-41,0,0,1,88,91,10,0,55,155.95,0,164.00,311.00,-1038.00
2025-08-06T12:52:25.040036,4,-19,-46,0,0,1,88,91,10,0,55,155.40,0,74.00,257.00,-1048.00
2025-08-06T12:52:25.172089,6,-21,-49,0,0,0,88,91,10,0,55,155.61,0,30.00,249.00,-972.00
2025-08-06T12:52:25.243913,4,-22,-55,0,0,1,88,91,10,0,55,156.10,0,217.00,346.00,-870.00
2025-08-06T12:52:25.376765,4,-20,-58,0,0,1,88,91,10,0,55,155.76,0,185.00,377.00,-937.00
2025-08-06T12:52:25.447994,4,-20,-61,0,0,0,88,91,10,0,55,156.06,0,183.00,425.00,-967.00
2025-08-06T12:52:25.581181,4,-20,-62,0,0,0,88,91,10,0,55,155.38,0,188.00,363.00,-987.00
2025-08-06T12:52:25.651984,5,-19,-62,0,0,0,88,91,10,0,55,155.87,0,137.00,364.00,-936.00
2025-08-06T12:52:25.786145,6,-18,-61,0,0,-1,88,92,10,0,55,155.52,0,166.00,367.00,-955.00
2025-08-06T12:52:25.855926,7,-16,-58,0,0,-1,88,92,31,0,55,155.84,0,196.00,316.00,-925.00
2025-08-06T12:52:25.991070,8,-14,-54,1,0,-1,88,92,31,0,55,155.88,0,274.00,333.00,-965.00
2025-08-06T12:52:26.060853,9,-11,-47,2,-1,-1,88,92,31,0,55,155.68,0,309.00,277.00,-1000.00
2025-08-06T12:52:26.196177,10,-8,-38,4,-1,-1,88,92,31,0,55,155.76,0,285.00,235.00,-966.00
2025-08-06T12:52:26.264858,10,-3,-26,5,0,-1,88,92,31,0,55,155.97,0,226.00,249.00,-829.00
2025-08-06T12:52:26.400495,9,-3,-13,5,0,0,88,92,32,0,55,155.94,0,246.00,130.00,-843.00
2025-08-06T12:52:26.468870,8,0,0,5,1,0,88,92,10,0,55,155.68,0,239.00,130.00,-950.00
2025-08-06T12:52:26.605275,7,2,14,5,3,1,88,92,10,0,55,156.11,0,149.00,154.00,-893.00
2025-08-06T12:52:26.672785,7,4,29,0,0,2,88,92,10,0,55,155.98,0,-35.00,206.00,-853.00
2025-08-06T12:52:26.810109,9,0,37,0,0,3,88,91,10,0,55,156.08,0,-326.00,-28.00,-1085.00
2025-08-06T12:52:26.876922,2,4,30,0,0,2,88,91,10,0,55,155.71,0,-77.00,-162.00,-1056.00
2025-08-06T12:52:27.017953,0,1,31,0,0,2,88,91,10,0,55,155.69,0,-203.00,-229.00,-1094.00
2025-08-06T12:52:27.080738,-1,-4,32,0,0,0,88,91,10,0,55,155.93,0,-213.00,121.00,-1153.00
2025-08-06T12:52:27.131740,-3,-8,26,0,0,0,88,91,10,0,55,156.13,0,-181.00,66.00,-1042.00
2025-08-06T12:52:27.322288,-1,-8,19,0,0,0,88,91,10,0,55,156.15,0,-181.00,105.00,-1088.00
2025-08-06T12:52:27.335970,0,-4,13,0,0,-1,88,91,30,0,55,155.90,0,-250.00,143.00,-958.00
2025-08-06T12:52:27.526223,2,2,6,0,0,0,88,91,10,0,55,155.86,0,-57.00,68.00,-1038.00
2025-08-06T12:52:27.539726,4,3,0,0,0,0,88,91,10,0,55,155.81,0,-88.00,2.00,-1041.00
2025-08-06T12:52:27.731418,4,1,0,0,0,0,88,91,10,0,55,155.75,0,20.00,172.00,-972.00
2025-08-06T12:52:27.743776,1,1,-10,0,0,0,88,91,10,0,55,155.97,0,135.00,136.00,-844.00
2025-08-06T12:52:27.935792,2,0,-17,0,0,1,88,91,10,0,55,156.14,0,101.00,125.00,-992.00
2025-08-06T12:52:27.947718,4,-1,-20,0,0,2,88,91,56,0,55,155.72,0,188.00,117.00,-806.00
2025-08-06T12:52:28.049695,5,-2,-26,0,0,3,88,91,65,0,55,155.85,0,271.00,99.00,-1039.00
2025-08-06T12:52:28.243765,7,-7,-38,0,0,1,88,91,43,0,55,155.91,0,301.00,111.00,-1176.00
2025-08-06T12:52:28.253707,9,-10,-50,0,0,0,88,91,37,0,55,155.73,0,285.00,161.00,-1070.00
2025-08-06T12:52:28.448082,11,-9,-48,0,0,0,88,91,43,0,55,155.87,0,209.00,230.00,-1003.00
2025-08-06T12:52:28.457723,13,-6,-43,0,0,0,88,91,48,0,55,155.99,0,214.00,236.00,-850.00
2025-08-06T12:52:28.652795,16,-8,-37,0,0,0,88,91,32,0,55,155.91,0,270.00,92.00,-972.00
2025-08-06T12:52:28.661659,18,-8,-33,0,0,0,88,91,30,0,55,155.92,0,269.00,196.00,-982.00
2025-08-06T12:52:28.857407,17,-6,-33,0,0,0,87,91,31,0,55,155.70,0,330.00,104.00,-921.00
2025-08-06T12:52:28.868806,16,-5,-32,0,0,0,87,91,32,0,55,155.93,0,425.00,103.00,-990.00
2025-08-06T12:52:28.973141,15,-3,-31,2,0,-1,87,91,32,0,55,155.98,0,453.00,99.00,-976.00
2025-08-06T12:52:29.070287,12,0,-25,4,-1,-2,87,91,31,0,55,155.93,0,469.00,8.00,-993.00
2025-08-06T12:52:29.267203,11,4,-13,6,-1,-2,87,91,10,0,55,155.91,0,396.00,68.00,-947.00
2025-08-06T12:52:29.273606,9,6,-3,8,-1,-2,87,91,10,0,55,156.26,0,280.00,-45.00,-925.00
2025-08-06T12:52:29.375701,7,5,8,9,0,-1,87,91,10,0,55,155.86,0,62.00,-15.00,-862.00
2025-08-06T12:52:29.574938,3,5,19,0,0,0,87,91,10,0,55,155.75,0,77.00,66.00,-966.00
2025-08-06T12:52:29.579536,0,11,34,0,0,0,87,91,10,0,55,155.84,0,0.00,83.00,-803.00
2025-08-06T12:52:29.779109,2,14,55,0,0,0,87,91,10,0,55,155.97,0,-21.00,-44.00,-860.00
2025-08-06T12:52:29.783553,0,11,77,0,0,1,88,91,90,0,55,155.95,0,-169.00,7.00,-929.00
2025-08-06T12:52:29.984337,0,2,83,0,0,2,88,91,86,0,55,155.76,0,-277.00,-5.00,-881.00
2025-08-06T12:52:29.987551,3,0,69,0,0,2,88,91,83,0,55,156.18,0,-295.00,291.00,-920.00
2025-08-06T12:52:30.089647,2,-5,47,0,0,2,88,91,78,0,55,155.97,0,-5.00,8.00,-1268.00
2025-08-06T12:52:30.191632,-1,-8,50,0,0,0,88,91,80,0,55,155.85,0,-153.00,304.00,-1224.00
2025-08-06T12:52:30.245005,3,-10,45,0,0,-1,88,91,77,0,55,155.91,0,5.00,281.00,-1249.00
2025-08-06T12:52:30.344465,4,-8,43,0,0,-2,88,91,80,0,55,156.17,0,-50.00,142.00,-1050.00
2025-08-06T12:52:30.496313,5,-4,40,0,0,-3,88,91,86,0,55,155.76,0,-53.00,119.00,-934.00
2025-08-06T12:52:30.549581,6,-4,38,0,0,-2,88,91,10,0,55,155.85,0,-58.00,144.00,-906.00
2025-08-06T12:52:30.700584,7,-4,33,0,0,-1,88,91,10,0,55,155.89,0,-59.00,125.00,-945.00
2025-08-06T12:52:30.752602,5,-1,26,0,0,-1,88,91,10,0,55,155.81,0,28.00,142.00,-930.00
2025-08-06T12:52:30.906012,4,0,17,0,0,0,88,91,10,0,55,155.81,0,80.00,144.00,-905.00
2025-08-06T12:52:30.956508,2,-1,8,0,0,0,88,91,10,0,55,156.02,0,112.00,104.00,-915.00
2025-08-06T12:52:31.058434,0,-1,0,0,0,1,88,91,10,0,55,156.01,0,131.00,182.00,-957.00
2025-08-06T12:52:31.213097,2,-2,-7,0,0,1,88,91,10,0,55,155.93,0,139.00,138.00,-961.00
2025-08-06T12:52:31.262363,5,-3,-16,0,0,1,88,91,10,0,55,155.83,0,156.00,97.00,-927.00
2025-08-06T12:52:31.364309,6,-4,-24,0,0,2,88,91,35,0,55,155.92,0,275.00,123.00,-852.00
2025-08-06T12:52:31.519789,6,-7,-29,0,0,3,88,91,39,0,55,156.27,0,283.00,124.00,-1016.00
2025-08-06T12:52:31.568373,6,-9,-32,0,0,2,88,91,51,0,55,155.94,0,309.00,133.00,-1053.00
2025-08-06T12:52:31.725256,6,-10,-32,0,0,1,88,91,65,0,55,155.45,0,250.00,116.00,-1151.00
2025-08-06T12:52:31.772389,5,-10,-31,0,0,0,88,91,75,0,55,155.57,0,251.00,171.00,-1129.00
2025-08-06T12:52:31.929338,5,-9,-29,0,0,-1,88,91,77,0,55,155.95,0,257.00,178.00,-1006.00
2025-08-06T12:52:31.976523,7,-7,-24,0,0,-1,88,91,77,0,55,155.87,0,230.00,163.00,-1018.00
2025-08-06T12:52:32.135764,7,-4,-18,2,-2,-2,88,91,78,0,55,155.96,0,318.00,73.00,-978.00
2025-08-06T12:52:32.180285,8,-2,-11,3,-2,-2,88,91,64,0,55,155.72,0,188.00,59.00,-978.00
2025-08-06T12:52:32.282485,6,0,-4,4,-1,-2,88,91,10,0,55,156.11,0,215.00,22.00,-994.00
2025-08-06T12:52:32.384405,5,1,3,5,-1,-2,88,91,10,0,55,155.73,0,182.00,2.00,-987.00
2025-08-06T12:52:32.543726,3,3,11,0,0,-1,88,91,10,0,55,156.14,0,241.00,-9.00,-981.00
2025-08-06T12:52:32.588272,3,4,19,0,0,-1,88,91,10,0,55,156.13,0,185.00,25.00,-958.00
2025-08-06T12:52:32.748604,2,4,28,0,0,0,88,91,10,0,55,155.92,0,71.00,87.00,-857.00
2025-08-06T12:52:32.792182,2,3,38,0,0,0,88,91,10,0,55,155.97,0,47.00,93.00,-940.00
2025-08-06T12:52:32.953248,1,0,47,0,0,2,88,91,10,0,55,155.91,0,-140.00,276.00,-960.00
2025-08-06T12:52:32.996320,3,-2,54,0,0,2,88,91,53,0,55,156.25,0,-177.00,245.00,-1040.00
2025-08-06T12:52:33.098184,4,-5,57,0,0,2,88,91,81,0,55,155.61,0,-335.00,323.00,-1082.00
2025-08-06T12:52:33.200114,2,-10,61,0,0,1,88,91,61,0,55,155.92,0,-285.00,228.00,-1319.00
2025-08-06T12:52:33.362979,3,-12,58,0,0,-1,88,91,37,0,55,155.84,0,-305.00,90.00,-1269.00
2025-08-06T12:52:33.404171,1,-10,54,0,0,-2,88,91,10,0,55,155.91,0,-225.00,219.00,-905.00
2025-08-06T12:52:33.455148,0,-8,48,0,0,-2,88,91,10,0,55,156.08,0,-89.00,201.00,-1066.00
2025-08-06T12:52:33.557123,0,-6,40,0,0,-2,88,91,10,0,55,155.89,0,-108.00,169.00,-967.00
2025-08-06T12:52:33.659175,1,-4,31,0,0,-1,88,91,10,0,55,155.76,0,-78.00,147.00,-814.00
2025-08-06T12:52:33.762109,1,-4,22,0,0,0,88,91,10,0,55,155.79,0,-37.00,128.00,-909.00
2025-08-06T12:52:33.863149,4,-5,10,0,0,0,88,91,10,0,55,155.66,0,25.00,78.00,-1032.00
2025-08-06T12:52:33.977224,3,-1,3,0,0,0,88,91,10,0,55,155.91,0,95.00,299.00,-1052.00
2025-08-06T12:52:34.067103,3,3,-7,0,0,0,88,91,10,0,55,156.01,0,421.00,150.00,-975.00
2025-08-06T12:52:34.181908,3,2,-9,0,0,0,88,91,10,0,55,155.98,0,227.00,-50.00,-1071.00
2025-08-06T12:52:34.271143,1,1,-9,0,0,1,88,91,10,0,55,155.77,0,238.00,-15.00,-1004.00
2025-08-06T12:52:34.387342,1,0,-9,0,0,0,88,91,10,0,55,155.81,0,63.00,-123.00,-1267.00
2025-08-06T12:52:34.475014,0,0,-6,0,0,0,88,91,10,0,55,155.66,0,-159.00,106.00,-1004.00
2025-08-06T12:52:34.591865,0,0,-6,0,0,0,88,91,10,0,55,155.89,0,18.00,-7.00,-997.00
2025-08-06T12:52:34.679132,0,0,-6,0,0,0,88,91,10,0,55,155.99,0,16.00,-7.00,-1002.00
2025-08-06T12:52:34.796859,0,0,-6,0,0,0,88,91,10,0,55,155.64,0,18.00,-7.00,-994.00
2025-08-06T12:52:34.883062,0,0,-6,0,0,0,88,91,10,0,55,155.87,0,18.00,-5.00,-999.00
2025-08-06T12:52:35.001770,0,0,-6,0,0,0,88,91,10,0,55,155.59,0,18.00,-7.00,-1000.00
2025-08-06T12:52:35.086972,0,0,-6,0,0,0,88,91,10,0,55,155.79,0,19.00,-13.00,-1053.00
2025-08-06T12:52:35.205859,0,0,-6,0,0,0,88,91,10,0,55,155.98,0,20.00,-9.00,-1027.00
2025-08-06T12:52:35.291035,0,0,-6,0,0,0,88,91,10,0,55,155.99,0,18.00,-6.00,-978.00
2025-08-06T12:52:35.393034,0,0,-6,0,0,0,88,91,10,0,55,155.89,0,20.00,-6.00,-985.00
2025-08-06T12:52:35.514094,0,0,-6,0,0,0,88,91,10,0,55,155.84,0,18.00,-8.00,-1016.00
2025-08-06T12:52:35.597365,0,0,-6,0,0,0,88,91,10,0,55,155.78,0,18.00,-8.00,-1005.00
2025-08-06T12:52:35.719138,0,0,-6,0,0,0,88,91,10,0,55,155.79,0,19.00,-7.00,-1006.00
2025-08-06T12:52:35.801231,0,0,-6,0,0,0,87,91,10,0,55,155.79,0,19.00,-7.00,-993.00
2025-08-06T12:52:35.923057,0,0,-6,0,0,0,87,91,10,0,55,155.76,0,18.00,-8.00,-994.00
2025-08-06T12:52:36.005707,0,0,-6,0,0,0,87,91,10,0,55,155.87,0,18.00,-7.00,-991.00
