TS,pitch,roll,yaw,vgx,vgy,vgz,templ,temph,tof,h,bat,baro,time,agx,agy,agz
2024-05-17 16:28:33.019746,1,0,0,0,0,0,55,56,10,0,92,166.30,0,20.00,6.00,-999.00
2024-05-17 16:28:33.108507,1,0,0,0,0,0,55,56,10,0,92,166.52,0,20.00,5.00,-998.00
2024-05-17 16:28:33.225586,1,0,0,0,0,0,55,56,10,0,92,166.48,0,18.00,5.00,-998.00
2024-05-17 16:28:33.312537,1,0,0,0,0,0,55,56,10,0,92,166.44,0,20.00,5.00,-995.00
2024-05-17 16:28:33.429257,1,0,0,0,0,0,55,56,10,0,92,166.44,0,20.00,6.00,-1001.00
2024-05-17 16:28:33.517698,1,0,0,0,0,0,55,56,10,0,92,166.20,0,19.00,5.00,-999.00
2024-05-17 16:28:33.634023,1,0,0,0,0,0,55,56,10,0,92,166.67,0,21.00,6.00,-1000.00
2024-05-17 16:28:33.720450,1,0,0,0,0,0,55,56,10,0,92,166.26,0,20.00,5.00,-999.00
2024-05-17 16:28:33.838912,1,0,0,0,0,0,55,56,10,0,92,166.50,0,21.00,5.00,-1000.00
2024-05-17 16:28:33.924456,1,0,0,0,0,0,55,57,10,0,92,166.30,0,21.00,5.00,-999.00
2024-05-17 16:28:34.043668,1,0,0,0,0,0,55,57,10,0,92,166.33,0,21.00,5.00,-999.00
2024-05-17 16:28:34.128430,1,0,0,0,0,0,55,57,10,0,92,166.04,0,20.00,5.00,-999.00
2024-05-17 16:28:34.248493,1,0,0,0,0,0,55,57,10,0,92,166.33,0,21.00,5.00,-998.00
2024-05-17 16:28:34.332411,1,0,0,0,0,0,55,57,10,0,92,166.28,0,20.00,6.00,-999.00
2024-05-17 16:28:34.453167,1,0,0,0,0,0,55,57,10,0,92,166.40,0,19.00,5.00,-998.00
2024-05-17 16:28:34.536397,1,0,0,0,0,0,55,57,10,0,92,166.41,0,19.00,6.00,-999.00
2024-05-17 16:28:34.658136,1,0,0,0,0,0,55,57,10,0,92,166.44,0,19.00,6.00,-1001.00
2024-05-17 16:28:34.740413,1,0,0,0,0,0,55,57,10,0,92,166.24,0,20.00,5.00,-1001.00
2024-05-17 16:28:34.862891,1,0,0,0,0,0,55,57,10,0,92,166.74,0,20.00,7.00,-999.00
2024-05-17 16:28:34.944433,1,0,0,0,0,0,55,57,10,0,92,166.64,0,20.00,6.00,-999.00
2024-05-17 16:28:35.067435,1,0,0,0,0,0,55,57,10,0,92,166.40,0,20.00,5.00,-1000.00
2024-05-17 16:28:35.148384,1,0,0,0,0,0,55,57,10,0,92,166.29,0,20.00,5.00,-1000.00
2024-05-17 16:28:35.272446,1,0,0,0,0,0,55,57,10,0,92,166.41,0,21.00,3.00,-999.00
2024-05-17 16:28:35.301023,1,0,0,0,0,0,55,57,10,0,92,166.59,0,21.00,5.00,-1002.00
2024-05-17 16:28:35.477287,1,0,0,0,0,0,55,57,10,0,92,166.37,0,21.00,5.00,-999.00
2024-05-17 16:28:35.505552,1,0,0,0,0,0,55,57,10,0,92,166.44,0,18.00,6.00,-999.00
2024-05-17 16:28:35.682106,1,0,0,0,0,0,55,57,10,0,92,166.75,0,20.00,5.00,-1000.00
2024-05-17 16:28:35.709079,1,0,0,0,0,0,55,57,10,0,92,166.20,0,20.00,5.00,-1000.00
2024-05-17 16:28:35.888798,1,0,0,0,0,0,55,57,10,0,92,166.20,0,19.00,3.00,-997.00
2024-05-17 16:28:35.913003,1,0,0,0,0,0,55,57,10,0,92,166.32,0,20.00,4.00,-999.00
2024-05-17 16:28:36.091666,1,0,0,0,0,0,55,57,10,0,92,166.50,0,19.00,6.00,-998.00
2024-05-17 16:28:36.117128,1,0,0,0,0,0,55,57,10,0,92,166.40,0,20.00,5.00,-998.00
2024-05-17 16:28:36.299662,1,0,0,0,0,0,55,57,10,0,92,166.63,0,20.00,6.00,-999.00
2024-05-17 16:28:36.321409,1,0,0,0,0,0,55,57,10,0,92,166.37,0,19.00,4.00,-999.00
2024-05-17 16:28:36.501305,1,0,0,0,0,0,55,57,10,0,92,166.28,0,20.00,6.00,-999.00
2024-05-17 16:28:36.524921,1,0,0,0,0,0,55,57,10,0,92,166.45,0,21.00,5.00,-998.00
2024-05-17 16:28:36.706240,1,0,0,0,0,0,55,57,10,0,92,166.43,0,20.00,6.00,-1000.00
2024-05-17 16:28:36.728960,1,0,0,0,0,0,55,57,10,0,92,166.24,0,20.00,5.00,-997.00
2024-05-17 16:28:36.911144,1,0,0,0,0,0,55,57,10,0,92,166.70,0,20.00,4.00,-998.00
2024-05-17 16:28:36.933022,1,0,0,0,0,0,55,57,10,0,92,166.30,0,20.00,5.00,-1000.00
2024-05-17 16:28:37.115493,1,0,0,0,0,0,55,57,10,0,92,166.27,0,20.00,5.00,-996.00
2024-05-17 16:28:37.136991,1,0,0,0,0,0,55,57,10,0,92,166.29,0,19.00,5.00,-999.00
2024-05-17 16:28:37.320552,1,0,0,0,0,0,55,57,10,0,92,166.49,0,19.00,4.00,-998.00
2024-05-17 16:28:37.341133,1,0,0,0,0,0,55,57,10,0,92,166.40,0,19.00,5.00,-1001.00
2024-05-17 16:28:37.525295,1,0,0,0,0,0,55,57,10,0,92,166.25,0,19.00,5.00,-997.00
2024-05-17 16:28:37.545010,1,0,0,0,0,0,55,57,10,0,92,166.29,0,20.00,5.00,-997.00
2024-05-17 16:28:37.646785,1,0,0,0,0,0,55,57,10,0,92,166.49,0,20.00,4.00,-997.00
2024-05-17 16:28:37.749006,1,0,0,0,0,0,55,57,10,0,92,166.33,0,21.00,6.00,-998.00
2024-05-17 16:28:37.934686,1,0,0,0,0,0,55,57,10,0,92,166.33,0,19.00,6.00,-999.00
2024-05-17 16:28:37.952877,1,0,0,0,0,0,56,59,10,0,92,166.33,0,33.00,10.00,-1005.00
2024-05-17 16:28:38.139508,1,0,0,0,0,0,56,59,10,0,92,166.33,0,-8.00,-6.00,-1017.00
2024-05-17 16:28:38.156784,1,0,0,0,0,0,56,59,10,0,92,166.33,0,6.00,11.00,-1104.00
2024-05-17 16:28:38.344968,0,0,0,0,0,0,56,59,10,0,92,166.33,0,-46.00,26.00,-1195.00
2024-05-17 16:28:38.360769,0,-1,0,0,0,-2,56,59,11,0,92,166.33,0,-4.00,-1.00,-1370.00
2024-05-17 16:28:38.549092,0,0,0,0,0,-5,56,59,10,10,92,166.33,0,10.00,-13.00,-1224.00
2024-05-17 16:28:38.564749,0,1,0,0,0,-8,56,59,13,10,92,166.57,0,-2.00,-4.00,-1090.00
2024-05-17 16:28:38.754523,0,1,0,0,0,-8,56,59,23,20,92,166.46,0,9.00,-23.00,-986.00
2024-05-17 16:28:38.770786,0,1,0,0,0,-8,56,59,31,30,92,166.79,1,-1.00,-25.00,-941.00
2024-05-17 16:28:38.820091,0,0,0,0,0,-8,56,59,39,40,92,166.82,1,-19.00,8.00,-897.00
2024-05-17 16:28:39.061045,0,0,0,0,0,-7,57,59,48,50,92,166.88,1,13.00,-8.00,-889.00
2024-05-17 16:28:39.077937,0,0,0,0,0,-6,57,59,53,60,92,166.78,1,-17.00,13.00,-869.00
2024-05-17 16:28:39.126266,0,0,0,0,0,-5,57,59,55,60,92,166.79,1,7.00,-8.00,-850.00
2024-05-17 16:28:39.267440,0,-1,0,0,0,-3,57,59,57,70,92,167.13,1,-1.00,14.00,-910.00
2024-05-17 16:28:39.329968,0,0,0,0,0,-2,57,59,58,70,92,166.89,1,1.00,2.00,-948.00
2024-05-17 16:28:39.470706,0,-1,0,0,0,-2,57,59,59,70,92,166.80,1,15.00,-13.00,-977.00
2024-05-17 16:28:39.533953,0,-1,0,0,0,-1,57,59,57,70,92,166.83,1,-32.00,8.00,-958.00
2024-05-17 16:28:39.675413,0,-1,0,0,0,-1,57,59,58,70,92,166.88,1,-25.00,13.00,-1016.00
2024-05-17 16:28:39.737921,0,-1,0,0,0,-1,57,59,58,70,92,166.97,2,-3.00,19.00,-1006.00
2024-05-17 16:28:39.880491,0,-1,0,0,0,-1,57,59,59,70,92,167.04,2,-29.00,19.00,-1007.00
2024-05-17 16:28:39.942222,0,-1,0,0,0,-1,57,59,60,70,92,166.78,2,-41.00,28.00,-979.00
2024-05-17 16:28:40.085407,0,-1,0,0,0,-1,57,59,61,70,92,166.92,2,46.00,10.00,-1073.00
2024-05-17 16:28:40.145875,0,-1,0,0,0,-1,57,59,62,70,91,167.09,2,-16.00,46.00,-970.00
2024-05-17 16:28:40.289890,0,-1,0,0,0,-1,57,59,63,80,91,167.03,2,0.00,31.00,-1065.00
2024-05-17 16:28:40.351834,0,-1,0,0,0,-2,57,59,65,80,91,166.71,2,-30.00,22.00,-998.00
2024-05-17 16:28:40.452985,0,-1,0,0,0,-2,57,59,67,80,91,167.26,2,4.00,13.00,-1003.00
2024-05-17 16:28:40.553963,0,-1,0,0,0,-2,57,59,68,80,91,167.11,2,-21.00,12.00,-983.00
2024-05-17 16:28:40.699485,0,-1,0,0,0,-1,57,59,70,80,91,167.05,2,-10.00,1.00,-988.00
2024-05-17 16:28:40.758197,0,-1,0,0,0,-1,57,59,71,80,91,167.13,3,-27.00,23.00,-963.00
2024-05-17 16:28:40.906072,0,-1,0,0,0,-1,57,59,72,80,91,166.87,3,38.00,1.00,-1013.00
2024-05-17 16:28:40.964485,0,-1,0,0,0,-1,57,59,73,80,91,167.08,3,-16.00,25.00,-981.00
2024-05-17 16:28:41.063811,0,-1,0,0,0,-1,57,59,74,80,91,167.15,3,3.00,25.00,-1005.00
2024-05-17 16:28:41.212545,0,-1,0,0,0,-1,57,59,75,90,91,166.79,3,40.00,9.00,-955.00
2024-05-17 16:28:41.268919,0,-1,0,0,0,-1,57,59,75,90,91,167.00,3,23.00,20.00,-986.00
2024-05-17 16:28:41.369799,0,-1,0,0,0,-1,57,59,76,90,91,167.07,3,10.00,18.00,-976.00
2024-05-17 16:28:41.518897,0,-1,0,0,0,0,57,59,77,90,91,166.96,3,0.00,21.00,-952.00
2024-05-17 16:28:41.574554,0,-1,0,0,0,0,57,59,78,90,91,166.92,3,27.00,23.00,-1000.00
2024-05-17 16:28:41.825949,0,-1,0,0,0,0,57,59,79,90,91,167.17,3,16.00,8.00,-998.00
2024-05-17 16:28:41.826028,0,-1,0,0,0,0,57,59,80,90,91,166.94,4,43.00,14.00,-993.00
2024-05-17 16:28:41.880766,0,-1,0,0,0,0,57,59,80,90,91,167.17,4,7.00,23.00,-961.00
2024-05-17 16:28:41.981905,0,-1,0,0,0,0,57,59,81,90,91,166.98,4,50.00,-7.00,-1014.00
2024-05-17 16:28:42.133197,0,-1,0,0,0,0,57,59,82,90,91,167.17,4,24.00,7.00,-1033.00
2024-05-17 16:28:42.185815,0,-1,0,0,0,0,57,59,82,90,91,167.27,4,0.00,5.00,-978.00
2024-05-17 16:28:42.337883,0,-1,0,0,0,0,57,59,83,90,91,166.84,4,9.00,14.00,-970.00
2024-05-17 16:28:42.389788,0,-1,0,0,0,0,57,59,82,90,91,167.01,4,1.00,14.00,-1050.00
2024-05-17 16:28:42.440698,0,-1,0,0,0,0,57,59,82,90,91,167.13,4,-8.00,28.00,-961.00
2024-05-17 16:28:42.543836,0,-1,0,0,0,0,57,59,82,90,91,167.06,4,-20.00,23.00,-906.00
2024-05-17 16:28:42.644723,0,-1,0,0,0,0,57,59,81,90,91,167.14,4,-5.00,38.00,-995.00
2024-05-17 16:28:42.747473,0,-1,0,0,0,0,57,59,81,90,91,167.32,5,-17.00,18.00,-992.00
2024-05-17 16:28:42.849844,0,-1,0,0,0,0,57,59,80,90,91,167.43,5,21.00,9.00,-1025.00
2024-05-17 16:28:42.950572,0,-1,0,0,0,0,57,60,80,90,91,167.08,5,0.00,26.00,-1021.00
2024-05-17 16:28:43.052680,0,-1,0,0,0,0,57,60,79,90,91,167.20,5,13.00,7.00,-1042.00
2024-05-17 16:28:43.157176,0,-1,0,0,0,0,57,60,78,90,90,167.38,5,21.00,10.00,-974.00
2024-05-17 16:28:43.256816,0,-1,0,0,0,0,57,60,78,90,90,167.07,5,-2.00,22.00,-1012.00
2024-05-17 16:28:43.361980,0,0,0,0,0,0,57,60,78,90,90,167.15,5,-4.00,11.00,-992.00
2024-05-17 16:28:43.460875,0,0,0,0,0,0,57,60,77,90,90,167.37,5,-18.00,25.00,-1021.00
2024-05-17 16:28:43.566766,0,0,0,0,0,0,57,60,77,90,90,167.25,5,-17.00,0.00,-979.00
2024-05-17 16:28:43.666479,0,0,0,0,0,0,57,60,76,90,90,167.21,5,28.00,40.00,-962.00
2024-05-17 16:28:43.766683,0,0,0,0,0,0,57,60,77,90,90,167.11,6,30.00,-12.00,-1008.00
2024-05-17 16:28:43.873946,0,0,0,0,0,0,57,60,77,90,90,166.90,6,14.00,10.00,-999.00
2024-05-17 16:28:43.970535,0,0,0,0,0,0,58,60,77,90,90,167.03,6,-3.00,18.00,-952.00
2024-05-17 16:28:44.078753,0,0,0,0,0,0,58,60,77,90,90,167.11,6,19.00,-1.00,-993.00
2024-05-17 16:28:44.175695,0,0,0,0,0,0,58,60,77,90,90,166.90,6,2.00,13.00,-985.00
2024-05-17 16:28:44.283490,0,0,0,0,0,0,58,60,77,90,90,167.31,6,-5.00,26.00,-1074.00
2024-05-17 16:28:44.380118,0,0,0,0,0,0,58,60,77,90,90,166.92,6,6.00,12.00,-997.00
2024-05-17 16:28:44.481065,0,0,0,0,0,0,58,60,78,90,90,167.17,6,11.00,6.00,-1000.00
2024-05-17 16:28:44.585093,0,0,0,0,0,0,58,60,78,90,90,166.80,6,22.00,6.00,-1083.00
2024-05-17 16:28:44.684742,0,-1,0,0,0,0,58,60,78,90,90,167.21,7,-23.00,21.00,-991.00
2024-05-17 16:28:44.795583,0,-1,0,0,0,0,58,60,78,90,90,167.40,7,19.00,4.00,-997.00
2024-05-17 16:28:44.888594,0,0,0,0,0,0,58,60,79,90,90,167.08,7,5.00,9.00,-1014.00
2024-05-17 16:28:45.001764,0,0,0,0,0,0,59,60,79,90,90,167.17,7,51.00,-22.00,-1048.00
2024-05-17 16:28:45.092703,0,0,0,0,0,0,59,60,80,90,90,167.19,7,4.00,10.00,-997.00
2024-05-17 16:28:45.207370,0,-1,0,0,0,0,59,60,80,90,89,167.26,7,-6.00,-4.00,-1098.00
2024-05-17 16:28:45.296457,0,-1,0,0,0,-1,59,60,81,90,89,167.08,7,8.00,22.00,-1087.00
2024-05-17 16:28:45.412567,0,-1,0,0,0,-2,59,60,83,90,89,167.14,7,-5.00,35.00,-1202.00
2024-05-17 16:28:45.500422,0,-1,0,0,0,-3,59,60,86,100,89,167.21,7,-1.00,-10.00,-1076.00
2024-05-17 16:28:45.614548,0,-1,0,0,0,-4,59,60,90,100,89,167.27,7,15.00,11.00,-1070.00
2024-05-17 16:28:45.704496,0,-1,0,0,0,-4,59,60,94,100,89,167.63,8,-4.00,18.00,-1053.00
2024-05-17 16:28:45.820947,0,-1,0,0,0,-5,59,60,99,110,89,167.40,8,32.00,7.00,-1015.00
2024-05-17 16:28:45.908575,0,-1,0,0,0,-5,59,60,104,110,89,167.25,8,-25.00,16.00,-1009.00
2024-05-17 16:28:46.024219,0,-1,0,0,0,-5,59,61,110,120,89,167.46,8,6.00,9.00,-1020.00
2024-05-17 16:28:46.112440,0,-1,0,0,0,-5,59,61,116,120,89,167.63,8,20.00,17.00,-1036.00
2024-05-17 16:28:46.229033,0,-1,0,0,0,-5,59,61,122,130,89,167.42,8,-12.00,30.00,-1033.00
2024-05-17 16:28:46.265821,0,-1,0,0,0,-5,59,61,127,130,89,167.33,8,28.00,5.00,-963.00
2024-05-17 16:28:46.433825,0,-1,0,0,0,-4,59,61,133,140,89,167.64,8,-24.00,22.00,-971.00
2024-05-17 16:28:46.470919,0,-1,0,0,0,-4,59,61,138,140,89,167.48,8,1.00,16.00,-1015.00
2024-05-17 16:28:46.638632,0,-1,0,0,0,-4,59,61,143,150,89,167.56,8,36.00,8.00,-931.00
2024-05-17 16:28:46.675610,0,-1,0,0,0,-4,59,61,148,150,89,167.61,9,-24.00,57.00,-941.00
2024-05-17 16:28:46.775646,0,-1,0,0,0,-4,59,61,152,160,89,167.93,9,-28.00,42.00,-932.00
2024-05-17 16:28:46.945829,0,-1,0,0,0,-3,59,61,156,160,89,167.73,9,22.00,15.00,-947.00
2024-05-17 16:28:46.979630,0,-1,0,0,0,-3,58,61,163,170,89,167.85,9,-17.00,36.00,-995.00
2024-05-17 16:28:47.150615,0,-1,0,0,0,-3,58,61,166,170,89,168.06,9,-5.00,8.00,-971.00
2024-05-17 16:28:47.184703,0,-1,0,0,0,-2,58,61,169,170,88,167.79,9,61.00,-19.00,-1030.00
2024-05-17 16:28:47.355392,0,-1,0,0,0,-2,58,61,172,170,88,167.83,9,6.00,7.00,-977.00
2024-05-17 16:28:47.388791,0,-1,0,0,0,-2,58,61,175,180,88,167.82,9,3.00,5.00,-1013.00
2024-05-17 16:28:47.560420,0,-1,0,0,0,-1,58,61,177,180,88,168.14,9,0.00,25.00,-989.00
2024-05-17 16:28:47.592966,0,-1,0,0,0,-1,58,61,179,180,88,167.83,9,14.00,-4.00,-983.00
2024-05-17 16:28:47.765137,0,-1,0,0,0,-1,58,61,181,180,88,167.66,10,4.00,20.00,-979.00
2024-05-17 16:28:47.795657,0,-1,0,0,0,-1,58,61,182,190,88,168.03,10,-10.00,18.00,-987.00
2024-05-17 16:28:47.969946,0,-1,0,0,0,0,58,61,183,190,88,168.23,10,-25.00,10.00,-986.00
2024-05-17 16:28:47.999545,0,-1,0,0,0,0,59,62,184,190,88,167.78,10,1.00,31.00,-948.00
2024-05-17 16:28:48.174599,0,-1,0,0,0,0,59,62,184,190,88,167.74,10,18.00,25.00,-983.00
2024-05-17 16:28:48.203635,0,-1,0,0,0,0,59,62,185,190,88,167.83,10,8.00,11.00,-946.00
2024-05-17 16:28:48.379374,0,-1,0,0,0,0,59,62,184,190,88,167.79,10,9.00,16.00,-979.00
2024-05-17 16:28:48.407702,0,-1,0,0,0,0,59,62,185,190,88,168.07,10,7.00,5.00,-980.00
2024-05-17 16:28:48.510538,0,-1,0,0,0,0,59,62,185,190,88,167.75,10,13.00,9.00,-1017.00
2024-05-17 16:28:48.687100,0,-1,0,0,0,0,59,62,185,190,88,167.75,10,14.00,8.00,-1038.00
2024-05-17 16:28:48.713881,0,-1,0,0,0,0,59,62,184,190,88,168.03,11,33.00,20.00,-953.00
2024-05-17 16:28:48.891750,0,-1,0,0,0,0,59,62,185,190,88,168.16,11,-16.00,18.00,-1008.00
2024-05-17 16:28:48.917683,0,-1,0,0,0,0,59,62,184,190,88,167.85,11,8.00,21.00,-1019.00
2024-05-17 16:28:49.096358,0,-1,0,0,0,0,60,62,184,190,88,167.90,11,11.00,9.00,-1015.00
2024-05-17 16:28:49.122018,0,-1,0,0,0,0,60,62,184,190,88,168.06,11,31.00,13.00,-1072.00
2024-05-17 16:28:49.301506,0,-1,0,0,0,0,60,62,184,190,87,168.02,11,-38.00,36.00,-975.00
2024-05-17 16:28:49.326429,0,-1,0,0,0,0,60,62,183,190,87,168.07,11,-11.00,25.00,-997.00
2024-05-17 16:28:49.506920,0,-1,0,0,0,0,60,62,183,190,87,168.17,11,-4.00,13.00,-986.00
2024-05-17 16:28:49.529510,0,-1,0,0,0,0,60,62,183,190,87,168.15,11,8.00,15.00,-1002.00
2024-05-17 16:28:49.710745,0,-1,0,0,0,0,60,62,184,190,87,167.98,11,-10.00,26.00,-1009.00
2024-05-17 16:28:49.733527,0,-1,0,0,0,0,60,62,184,190,87,168.13,12,-1.00,17.00,-1030.00
2024-05-17 16:28:49.839294,0,-1,0,0,0,0,60,62,184,190,87,168.26,12,1.00,20.00,-973.00
2024-05-17 16:28:49.937832,0,-2,0,0,0,0,60,62,184,190,87,168.12,12,-16.00,22.00,-966.00
2024-05-17 16:28:50.039802,0,-2,0,0,0,0,61,62,184,190,87,168.35,12,-23.00,40.00,-1010.00
2024-05-17 16:28:50.224948,0,-1,0,0,0,0,61,62,183,190,87,167.83,12,33.00,20.00,-962.00
2024-05-17 16:28:50.243578,1,-1,0,0,0,1,61,62,182,190,87,167.50,12,16.00,7.00,-950.00
2024-05-17 16:28:50.427352,1,-1,0,0,0,1,61,62,181,190,87,167.75,12,24.00,-2.00,-941.00
2024-05-17 16:28:50.427392,1,-1,0,0,0,1,61,62,179,190,87,168.10,12,-10.00,38.00,-933.00
2024-05-17 16:28:50.498155,1,-1,0,0,0,2,61,62,177,180,87,167.79,12,2.00,20.00,-969.00
2024-05-17 16:28:50.632308,1,-1,0,0,0,2,61,62,174,180,87,167.87,12,20.00,18.00,-945.00
2024-05-17 16:28:50.702137,0,-1,0,0,0,2,61,62,172,180,87,167.98,13,29.00,0.00,-1008.00
2024-05-17 16:28:50.804315,1,-1,0,0,0,2,61,62,170,180,87,167.94,13,50.00,-17.00,-1014.00
2024-05-17 16:28:50.906647,0,-1,0,0,0,2,61,62,167,170,87,167.44,13,19.00,17.00,-999.00
2024-05-17 16:28:51.044240,0,-1,0,0,0,2,60,63,165,170,87,168.05,13,-10.00,33.00,-976.00
2024-05-17 16:28:51.110325,0,-1,0,0,0,2,60,63,163,170,86,167.61,13,-3.00,37.00,-1011.00
2024-05-17 16:28:51.250444,0,-2,0,0,0,2,60,63,160,170,86,167.75,13,20.00,19.00,-986.00
2024-05-17 16:28:51.314396,0,-2,0,0,0,2,60,63,158,170,86,167.68,13,4.00,26.00,-990.00
2024-05-17 16:28:51.451440,0,-2,0,0,0,2,60,63,155,160,86,167.36,13,15.00,11.00,-992.00
2024-05-17 16:28:51.518074,0,-2,0,0,0,2,60,63,153,160,86,167.58,13,13.00,48.00,-1000.00
2024-05-17 16:28:51.661654,0,-2,0,0,0,1,60,63,151,160,86,167.78,13,6.00,20.00,-976.00
2024-05-17 16:28:51.722114,0,-2,0,0,0,1,60,63,149,160,86,167.73,14,0.00,26.00,-1018.00
2024-05-17 16:28:51.860948,0,-2,0,0,0,1,60,63,147,160,86,167.49,14,0.00,43.00,-991.00
2024-05-17 16:28:51.928368,0,-2,0,0,0,1,60,63,145,150,86,167.49,14,3.00,23.00,-1010.00
2024-05-17 16:28:52.028078,0,-2,0,0,0,1,60,63,143,150,86,167.75,14,19.00,22.00,-1055.00
2024-05-17 16:28:52.168143,0,-2,0,0,0,1,60,63,141,150,86,167.48,14,19.00,9.00,-1027.00
2024-05-17 16:28:52.232111,0,-2,0,0,0,1,60,63,139,150,86,167.37,14,-20.00,34.00,-1001.00
2024-05-17 16:28:52.373401,0,-2,0,0,0,1,60,63,138,150,86,167.58,14,22.00,9.00,-1008.00
2024-05-17 16:28:52.436049,0,-1,0,0,0,1,60,63,137,150,86,167.49,14,-31.00,39.00,-985.00
2024-05-17 16:28:52.538234,0,-1,0,0,0,1,60,63,135,150,86,167.74,14,31.00,8.00,-1033.00
2024-05-17 16:28:52.680257,0,-1,0,0,0,1,60,63,134,140,86,167.34,14,2.00,28.00,-1016.00
2024-05-17 16:28:52.742155,0,-1,0,0,0,0,60,63,133,140,86,167.39,15,16.00,33.00,-1061.00
2024-05-17 16:28:52.885347,0,-1,0,0,0,0,60,63,133,140,86,167.21,15,-9.00,9.00,-1036.00
2024-05-17 16:28:52.948659,0,-1,0,0,0,0,60,63,132,140,86,167.39,15,-7.00,40.00,-960.00
2024-05-17 16:28:53.048049,0,-1,0,0,0,0,61,63,131,140,86,167.43,15,-26.00,51.00,-982.00
2024-05-17 16:28:53.294780,0,-1,0,0,0,0,61,63,131,140,85,167.47,15,14.00,26.00,-1056.00
2024-05-17 16:28:53.294961,0,-1,0,0,0,0,61,63,131,140,85,167.37,15,21.00,9.00,-988.00
2024-05-17 16:28:53.354140,0,-2,0,0,0,0,61,63,131,140,85,167.50,15,12.00,11.00,-1021.00
2024-05-17 16:28:53.456658,0,-2,0,0,0,0,61,63,132,140,85,167.22,15,26.00,14.00,-986.00
2024-05-17 16:28:53.601998,0,-1,0,0,0,0,61,63,133,140,85,167.61,15,-27.00,18.00,-1023.00
2024-05-17 16:28:53.609757,0,-1,0,0,0,0,61,63,133,140,85,167.24,15,-1.00,16.00,-956.00
2024-05-17 16:28:53.806709,0,-1,0,0,0,0,61,63,134,140,85,167.24,16,-10.00,16.00,-998.00
2024-05-17 16:28:53.813387,0,-1,0,0,0,0,61,63,134,140,85,167.48,16,36.00,-3.00,-1013.00
2024-05-17 16:28:54.012566,0,-1,0,0,0,0,61,63,134,140,85,167.26,16,-13.00,16.00,-1014.00
2024-05-17 16:28:54.068028,0,-1,0,0,0,0,62,64,135,140,85,167.16,16,15.00,13.00,-958.00
2024-05-17 16:28:54.170229,0,-1,0,0,0,0,62,64,135,140,85,167.33,16,1.00,5.00,-957.00
2024-05-17 16:28:54.221469,0,-1,0,0,0,0,62,64,135,140,85,167.43,16,4.00,18.00,-995.00
2024-05-17 16:28:54.323353,0,-1,0,0,0,0,62,64,135,140,85,167.50,16,1.00,22.00,-997.00
2024-05-17 16:28:54.425393,0,-1,0,0,0,0,62,64,135,140,85,167.62,16,15.00,0.00,-984.00
2024-05-17 16:28:54.527586,0,-1,0,0,0,0,62,64,135,140,85,167.44,16,11.00,6.00,-992.00
2024-05-17 16:28:54.629833,1,-1,0,0,0,0,62,64,135,140,85,167.34,16,16.00,14.00,-993.00
2024-05-17 16:28:54.732286,0,0,0,0,0,0,62,64,134,140,85,167.43,17,-33.00,46.00,-955.00
2024-05-17 16:28:54.834593,-5,0,0,0,0,0,62,64,134,140,85,167.47,17,16.00,19.00,-978.00
2024-05-17 16:28:54.936811,-8,0,0,1,0,0,62,64,137,140,85,167.55,17,9.00,18.00,-1011.00
2024-05-17 16:28:55.039384,-8,-1,0,3,0,0,62,64,136,140,85,167.61,17,9.00,15.00,-1063.00
2024-05-17 16:28:55.140868,-8,-1,0,4,0,0,62,64,135,140,84,167.27,17,-22.00,14.00,-993.00
2024-05-17 16:28:55.241143,-7,-1,0,5,0,0,62,64,135,140,84,167.57,17,-35.00,28.00,-1009.00
2024-05-17 16:28:55.343579,-6,-1,0,6,0,0,62,64,134,140,84,167.21,17,-43.00,8.00,-985.00
2024-05-17 16:28:55.446058,-5,-1,0,7,0,0,62,64,130,140,84,167.42,17,-47.00,37.00,-1035.00
2024-05-17 16:28:55.547240,-5,-1,0,7,0,0,62,64,132,140,84,167.26,17,-45.00,27.00,-935.00
2024-05-17 16:28:55.651501,-3,-1,0,8,0,0,62,64,133,140,84,167.15,17,-44.00,4.00,-984.00
2024-05-17 16:28:55.753163,0,-1,0,8,0,0,62,64,132,140,84,167.28,18,-38.00,16.00,-1019.00
2024-05-17 16:28:55.854149,2,-1,0,7,0,0,62,64,132,140,84,167.31,18,-39.00,28.00,-1035.00
2024-05-17 16:28:55.956847,5,-1,0,6,0,0,62,64,131,140,84,167.64,18,-36.00,17.00,-1011.00
2024-05-17 16:28:56.057548,5,-2,0,5,0,0,63,64,130,140,84,167.19,18,-42.00,37.00,-993.00
2024-05-17 16:28:56.161722,3,-2,0,4,0,0,63,64,129,140,84,167.39,18,-6.00,10.00,-1009.00
2024-05-17 16:28:56.261065,2,-3,0,3,0,0,63,64,129,140,84,167.43,18,-7.00,14.00,-1018.00
2024-05-17 16:28:56.366508,1,-2,0,3,0,0,63,64,128,140,84,167.54,18,-31.00,34.00,-1016.00
2024-05-17 16:28:56.465055,1,-3,0,2,0,0,63,64,128,140,84,167.20,18,-40.00,46.00,-977.00
2024-05-17 16:28:56.576168,1,-3,0,2,0,0,63,64,128,140,84,167.24,18,-27.00,46.00,-1000.00
2024-05-17 16:28:56.669351,0,-3,0,2,0,0,63,64,127,140,84,167.40,18,0.00,28.00,-978.00
2024-05-17 16:28:56.775955,0,-3,0,2,0,0,63,64,127,140,84,167.36,19,-19.00,49.00,-1016.00
2024-05-17 16:28:56.873018,0,-3,0,2,-1,0,63,64,127,140,84,167.46,19,-7.00,30.00,-995.00
2024-05-17 16:28:56.983410,0,-3,0,1,-1,0,63,64,127,140,84,167.03,19,3.00,39.00,-1017.00
2024-05-17 16:28:57.078119,0,-3,0,1,-1,0,62,64,127,140,84,167.25,19,-28.00,51.00,-978.00
2024-05-17 16:28:57.185683,4,-3,0,1,-1,0,62,64,127,140,83,167.26,19,-4.00,27.00,-1063.00
2024-05-17 16:28:57.282265,2,1,0,0,-1,0,62,64,126,140,83,167.15,19,-15.00,59.00,-993.00
2024-05-17 16:28:57.383153,1,1,0,0,0,0,62,64,127,140,83,167.23,19,14.00,37.00,-1005.00
2024-05-17 16:28:57.492981,0,0,0,0,0,0,62,64,127,140,83,167.54,19,7.00,15.00,-938.00
2024-05-17 16:28:57.587249,0,-1,0,0,0,0,62,64,129,140,83,167.21,19,9.00,1.00,-1032.00
2024-05-17 16:28:57.637904,0,-1,0,0,0,0,62,64,129,140,83,167.36,19,2.00,32.00,-1003.00
2024-05-17 16:28:57.802735,0,-1,0,0,0,0,62,64,129,140,83,167.24,20,-3.00,23.00,-1021.00
2024-05-17 16:28:57.841893,0,-1,0,0,0,0,62,64,130,140,83,167.26,20,-14.00,27.00,-1001.00
2024-05-17 16:28:58.007007,0,-1,0,0,0,0,62,64,130,140,83,167.09,20,12.00,11.00,-1043.00
2024-05-17 16:28:58.045829,0,-2,0,0,0,0,62,64,130,140,83,167.28,20,22.00,11.00,-1004.00
2024-05-17 16:28:58.210233,0,-2,0,0,0,0,62,64,131,140,83,167.21,20,-5.00,23.00,-1014.00
2024-05-17 16:28:58.249942,0,-2,0,0,0,0,62,64,132,140,83,167.39,20,12.00,11.00,-984.00
2024-05-17 16:28:58.416557,0,-2,0,0,0,0,62,64,133,140,83,167.35,20,11.00,-2.00,-975.00
2024-05-17 16:28:58.453974,0,-2,0,0,0,0,62,64,133,140,83,167.21,20,9.00,13.00,-976.00
2024-05-17 16:28:58.621556,0,-2,0,0,0,0,62,64,135,140,83,167.56,20,16.00,-11.00,-1011.00
2024-05-17 16:28:58.659192,0,-1,0,0,0,0,62,64,136,140,83,167.29,20,23.00,20.00,-1004.00
2024-05-17 16:28:58.825786,0,-1,0,0,0,0,62,64,136,140,83,167.42,21,17.00,15.00,-1000.00
2024-05-17 16:28:58.862989,0,-1,0,0,0,0,62,64,137,140,83,167.48,21,11.00,18.00,-1026.00
2024-05-17 16:28:59.030835,0,-1,0,0,0,0,62,64,137,140,83,167.49,21,19.00,23.00,-1021.00
2024-05-17 16:28:59.067028,0,-1,0,0,0,0,63,65,137,140,83,167.47,21,0.00,30.00,-985.00
2024-05-17 16:28:59.234943,0,-1,0,0,0,0,63,65,137,140,82,167.27,21,-10.00,40.00,-984.00
2024-05-17 16:28:59.271741,0,-2,0,0,0,0,63,65,137,140,82,167.37,21,49.00,-3.00,-1002.00
2024-05-17 16:28:59.372878,0,-2,0,0,0,0,63,65,137,140,82,167.51,21,8.00,23.00,-998.00
2024-05-17 16:28:59.541825,2,-1,0,0,0,0,63,65,137,140,82,167.35,21,37.00,31.00,-966.00
2024-05-17 16:28:59.578952,7,-1,0,0,0,0,63,65,137,140,82,167.64,21,5.00,28.00,-1044.00
2024-05-17 16:28:59.679115,8,-1,0,-2,0,0,63,65,137,140,82,167.22,22,13.00,24.00,-1023.00
2024-05-17 16:28:59.850028,8,-1,0,-3,0,0,63,65,137,140,82,167.31,22,21.00,17.00,-990.00
2024-05-17 16:28:59.882942,8,-1,0,-4,0,0,63,65,136,140,82,167.27,22,51.00,12.00,-1002.00
2024-05-17 16:29:00.055346,7,-2,0,-5,0,0,63,65,136,140,82,167.49,22,29.00,26.00,-975.00
2024-05-17 16:29:00.087433,7,-1,0,-6,0,0,63,65,135,140,82,167.38,22,30.00,-3.00,-976.00
2024-05-17 16:29:00.257662,6,-1,0,-7,0,0,63,65,133,140,82,167.47,22,68.00,28.00,-970.00
2024-05-17 16:29:00.290905,4,-1,0,-7,0,0,63,65,133,140,82,167.20,22,30.00,32.00,-1012.00
2024-05-17 16:29:00.462433,1,-1,0,-8,0,0,63,65,133,140,82,167.22,22,53.00,45.00,-951.00
2024-05-17 16:29:00.494833,-1,-2,0,-7,0,0,63,65,131,140,82,166.99,22,82.00,-4.00,-990.00
2024-05-17 16:29:00.669048,-3,-3,0,-6,0,0,63,65,132,140,82,167.11,22,88.00,3.00,-1005.00
2024-05-17 16:29:00.702246,-4,-3,0,-5,0,0,63,65,130,140,82,167.30,23,88.00,-15.00,-953.00
2024-05-17 16:29:00.801009,-2,-2,0,-4,0,0,63,65,130,140,82,167.43,23,33.00,20.00,-1001.00
2024-05-17 16:29:00.976281,-1,-2,0,-3,0,0,63,65,130,140,82,167.55,23,58.00,11.00,-985.00
2024-05-17 16:29:01.005029,0,-2,0,-3,0,0,63,65,129,140,82,167.45,23,2.00,34.00,-1008.00
2024-05-17 16:29:01.106796,0,-2,0,-3,0,0,63,65,128,140,82,167.49,23,27.00,19.00,-989.00
2024-05-17 16:29:01.281926,0,-2,0,-2,0,0,63,65,128,140,81,166.93,23,34.00,11.00,-1001.00
2024-05-17 16:29:01.315902,0,-2,0,-2,-1,0,63,65,128,140,81,167.32,23,47.00,17.00,-1032.00
2024-05-17 16:29:01.412850,0,-1,0,-2,-1,0,63,65,129,140,81,167.58,23,-7.00,14.00,-1012.00
2024-05-17 16:29:01.463653,0,1,0,-2,0,0,63,65,129,140,81,167.55,23,64.00,1.00,-969.00
2024-05-17 16:29:01.588962,-1,0,0,-2,0,0,63,65,129,140,81,167.61,23,76.00,-2.00,-1020.00
2024-05-17 16:29:01.667526,-3,0,0,-1,0,0,63,65,130,140,81,167.29,24,47.00,-2.00,-970.00
2024-05-17 16:29:01.769637,-1,-1,0,0,0,0,63,65,130,140,81,167.46,24,-7.00,24.00,-1000.00
2024-05-17 16:29:01.898177,0,-1,0,0,0,0,63,65,130,140,81,167.29,24,49.00,-11.00,-948.00
2024-05-17 16:29:01.974016,0,-1,0,0,0,0,63,65,131,140,81,167.21,24,-1.00,27.00,-1032.00
2024-05-17 16:29:02.109989,0,-1,0,0,0,0,63,66,130,140,81,167.26,24,-1.00,30.00,-981.00
2024-05-17 16:29:02.178500,0,-1,0,0,0,0,63,66,130,140,81,167.31,24,4.00,10.00,-1010.00
2024-05-17 16:29:02.307239,0,-1,0,0,0,0,63,66,130,140,81,167.40,24,-23.00,30.00,-998.00
2024-05-17 16:29:02.381673,0,-1,0,0,0,0,63,66,130,140,81,167.50,24,15.00,12.00,-1036.00
2024-05-17 16:29:02.512596,0,-1,0,0,0,0,63,66,130,140,81,167.51,24,-14.00,26.00,-969.00
2024-05-17 16:29:02.585608,0,-1,0,0,0,0,63,66,130,140,81,167.30,24,18.00,20.00,-992.00
2024-05-17 16:29:02.716618,0,-1,0,0,0,0,63,66,130,140,81,167.18,25,-3.00,30.00,-975.00
2024-05-17 16:29:02.789683,0,-1,0,0,0,0,63,66,130,140,81,167.38,25,13.00,30.00,-988.00
2024-05-17 16:29:02.920855,0,-2,0,0,0,0,63,66,130,140,81,166.99,25,-17.00,39.00,-966.00
2024-05-17 16:29:02.995712,0,-2,0,0,0,0,63,66,130,140,81,167.59,25,-39.00,32.00,-979.00
2024-05-17 16:29:03.095496,0,-2,0,0,0,0,64,66,129,140,81,167.60,25,24.00,1.00,-1056.00
2024-05-17 16:29:03.197729,0,-2,0,0,0,0,64,66,130,140,80,167.18,25,23.00,0.00,-1001.00
2024-05-17 16:29:03.330660,0,-2,0,0,0,0,64,66,130,140,80,167.26,25,23.00,7.00,-995.00
2024-05-17 16:29:03.401515,0,-1,0,0,0,0,64,66,129,140,80,167.30,25,9.00,6.00,-1013.00
2024-05-17 16:29:03.503663,0,-1,0,0,0,0,64,66,129,140,80,167.18,25,13.00,0.00,-1024.00
2024-05-17 16:29:03.606080,0,-1,0,0,0,0,64,66,129,140,80,167.15,25,-1.00,18.00,-1031.00
2024-05-17 16:29:03.707626,0,-1,0,0,0,0,64,66,130,140,80,167.26,26,21.00,4.00,-1008.00
2024-05-17 16:29:03.809516,0,-1,0,0,0,0,64,66,130,140,80,167.22,26,-7.00,24.00,-990.00
2024-05-17 16:29:03.943895,0,-2,0,0,0,0,64,66,131,140,80,167.52,26,46.00,16.00,-998.00
2024-05-17 16:29:04.013380,0,-7,0,0,0,0,64,66,132,140,80,167.30,26,21.00,12.00,-982.00
2024-05-17 16:29:04.148748,0,-8,0,0,-1,0,64,67,133,140,80,167.40,26,24.00,3.00,-996.00
2024-05-17 16:29:04.217521,0,-6,0,0,-3,0,64,67,132,140,80,167.49,26,5.00,22.00,-1021.00
2024-05-17 16:29:04.354922,0,-4,0,0,-3,0,64,67,133,140,80,167.27,26,-14.00,48.00,-986.00
2024-05-17 16:29:04.421370,0,-2,0,0,-3,0,64,67,133,140,80,167.38,26,-1.00,19.00,-979.00
2024-05-17 16:29:04.523497,0,0,0,0,-3,0,64,67,133,140,80,167.44,26,-23.00,45.00,-1013.00
2024-05-17 16:29:04.661808,0,-1,0,0,-2,0,64,67,134,140,80,167.27,26,16.00,19.00,-1000.00
2024-05-17 16:29:04.728163,0,-1,0,0,-2,0,64,67,134,140,80,167.46,27,6.00,46.00,-1009.00
2024-05-17 16:29:04.866225,0,-1,0,0,-2,0,64,67,134,140,80,167.42,27,-6.00,47.00,-987.00
2024-05-17 16:29:04.931728,0,-1,0,0,-2,0,64,67,135,140,80,167.37,27,-20.00,34.00,-1003.00
2024-05-17 16:29:04.983213,0,-1,0,0,-2,0,64,67,135,140,80,167.70,27,-10.00,37.00,-951.00
2024-05-17 16:29:05.177991,0,-1,0,0,-2,0,65,66,136,140,80,167.37,27,1.00,33.00,-952.00
2024-05-17 16:29:05.192313,0,-1,0,0,-2,0,65,66,136,140,79,167.40,27,57.00,16.00,-962.00
2024-05-17 16:29:05.288564,0,-1,0,0,-2,0,65,66,136,140,79,167.11,27,32.00,2.00,-1029.00
2024-05-17 16:29:05.583062,1,-1,0,0,-2,0,65,66,136,140,79,167.60,27,-3.00,26.00,-938.00
2024-05-17 16:29:05.583143,1,-1,0,0,-2,0,65,66,136,140,79,167.43,27,5.00,7.00,-1021.00
2024-05-17 16:29:05.607476,0,-1,0,0,-2,0,65,66,136,140,79,167.09,27,8.00,29.00,-981.00
2024-05-17 16:29:05.699489,0,-1,0,0,-2,0,65,66,136,140,79,167.37,28,27.00,9.00,-1052.00
2024-05-17 16:29:05.798843,0,0,0,0,-2,0,65,66,135,140,79,167.27,28,-9.00,28.00,-976.00
2024-05-17 16:29:05.995634,0,3,0,0,-1,0,65,66,134,140,79,167.61,28,-21.00,42.00,-968.00
2024-05-17 16:29:06.004809,0,2,0,0,0,0,65,66,133,140,79,167.39,28,-3.00,16.00,-1020.00
2024-05-17 16:29:06.109328,0,0,0,0,0,0,65,66,133,140,79,167.69,28,-32.00,58.00,-962.00
2024-05-17 16:29:06.215734,0,0,0,0,0,0,65,66,133,140,79,167.52,28,17.00,10.00,-1019.00
2024-05-17 16:29:06.308759,0,0,0,0,0,0,65,66,133,140,79,167.62,28,-1.00,26.00,-1024.00
2024-05-17 16:29:06.504731,0,0,0,0,0,0,65,66,133,140,79,167.49,28,-1.00,39.00,-1002.00
2024-05-17 16:29:06.512646,0,0,0,0,0,0,65,66,133,140,79,167.50,28,3.00,38.00,-1001.00
2024-05-17 16:29:06.709773,0,-1,0,0,0,0,65,66,134,140,79,167.49,28,23.00,13.00,-988.00
2024-05-17 16:29:06.717008,0,-1,0,0,0,0,65,66,134,140,79,167.24,29,23.00,0.00,-1002.00
2024-05-17 16:29:06.914805,0,-1,0,0,0,0,65,66,133,140,79,167.20,29,37.00,0.00,-982.00
2024-05-17 16:29:06.920628,0,-1,0,0,0,0,65,66,133,140,79,167.60,29,-7.00,30.00,-974.00
2024-05-17 16:29:07.022627,0,-1,0,0,0,0,65,66,133,140,79,167.14,29,11.00,-7.00,-989.00
2024-05-17 16:29:07.226772,0,-1,0,0,0,0,65,67,133,140,79,167.58,29,12.00,16.00,-986.00
2024-05-17 16:29:07.227727,0,-1,0,0,0,0,65,67,133,140,79,167.14,29,22.00,23.00,-991.00
2024-05-17 16:29:07.425676,0,-1,0,0,0,0,65,67,133,140,79,167.14,29,36.00,4.00,-1018.00
2024-05-17 16:29:07.430557,0,-2,0,0,0,0,65,67,133,140,79,167.24,29,-8.00,28.00,-978.00
2024-05-17 16:29:07.630429,0,-1,0,0,0,0,65,67,134,140,79,167.28,29,8.00,46.00,-1030.00
2024-05-17 16:29:07.634553,0,-1,0,0,0,0,65,67,135,140,79,167.12,29,11.00,8.00,-981.00
2024-05-17 16:29:07.835237,0,-1,0,0,0,0,65,67,135,140,79,167.25,30,-23.00,28.00,-947.00
2024-05-17 16:29:07.838710,0,-1,0,0,0,0,65,67,136,140,79,167.45,30,33.00,19.00,-999.00
2024-05-17 16:29:07.940867,0,-1,0,0,0,0,65,67,136,140,79,167.07,30,14.00,0.00,-949.00
2024-05-17 16:29:08.042606,0,-1,0,0,0,0,65,67,137,140,79,167.48,30,3.00,20.00,-1032.00
2024-05-17 16:29:08.144498,0,-1,0,0,0,0,64,67,137,140,78,167.55,30,7.00,22.00,-970.00
2024-05-17 16:29:08.347163,0,0,0,0,0,0,64,67,136,140,78,167.40,30,1.00,17.00,-992.00
2024-05-17 16:29:08.349008,0,7,0,0,0,0,64,67,137,140,78,167.59,30,17.00,10.00,-997.00
2024-05-17 16:29:08.551900,0,6,0,0,2,0,64,67,137,140,78,167.25,30,-25.00,21.00,-981.00
2024-05-17 16:29:08.553166,0,3,0,0,3,0,64,67,136,140,78,167.40,30,29.00,-5.00,-1001.00
2024-05-17 16:29:08.655485,0,1,0,0,3,0,64,67,135,140,78,167.23,30,-18.00,3.00,-958.00
2024-05-17 16:29:08.757192,0,0,0,0,3,0,64,67,135,140,78,167.72,31,5.00,-35.00,-997.00
2024-05-17 16:29:08.813499,0,-1,0,0,3,0,64,67,136,140,78,167.25,31,-35.00,-4.00,-971.00
2024-05-17 16:29:08.911546,0,-1,0,0,2,0,64,67,135,140,78,167.67,31,13.00,-11.00,-981.00
2024-05-17 16:29:09.012648,0,0,0,0,2,0,64,67,135,140,78,167.25,31,-18.00,17.00,-1013.00
2024-05-17 16:29:09.166371,0,0,0,0,2,0,65,67,135,140,78,167.38,31,2.00,25.00,-993.00
2024-05-17 16:29:09.216335,0,0,0,0,2,0,65,67,135,140,78,167.44,31,14.00,-22.00,-1028.00
2024-05-17 16:29:09.371191,0,0,0,0,2,0,65,67,134,140,78,167.62,31,1.00,0.00,-927.00
2024-05-17 16:29:09.420504,0,-1,0,0,2,0,65,67,134,140,78,167.87,31,12.00,-15.00,-977.00
2024-05-17 16:29:09.575885,-1,-1,0,0,2,0,65,67,134,140,78,167.32,31,2.00,-12.00,-1043.00
2024-05-17 16:29:09.624056,-3,-2,0,0,2,0,65,67,134,140,78,167.37,31,-17.00,20.00,-995.00
2024-05-17 16:29:09.726302,-3,-2,0,0,2,0,65,67,134,140,78,167.39,32,37.00,-12.00,-983.00
2024-05-17 16:29:09.883124,-1,-2,0,1,2,0,65,67,133,140,78,167.08,32,-39.00,43.00,-956.00
2024-05-17 16:29:09.930539,2,-3,0,0,1,0,65,67,133,140,78,167.17,32,-2.00,-1.00,-1004.00
2024-05-17 16:29:10.033508,1,-5,0,0,1,0,65,67,132,140,78,167.40,32,-3.00,16.00,-1008.00
2024-05-17 16:29:10.134421,0,-3,0,0,0,0,66,68,133,140,78,167.21,32,-34.00,-5.00,-996.00
2024-05-17 16:29:10.293025,0,-2,0,0,0,0,66,68,132,140,78,167.21,32,17.00,25.00,-983.00
2024-05-17 16:29:10.338425,0,-2,0,0,0,0,66,68,131,140,78,167.42,32,0.00,19.00,-1004.00
2024-05-17 16:29:10.497655,0,-1,0,0,0,0,66,68,131,140,78,167.19,32,-18.00,16.00,-1067.00
2024-05-17 16:29:10.547690,0,-1,0,0,0,0,66,68,131,140,78,167.37,32,66.00,-3.00,-987.00
2024-05-17 16:29:10.651192,0,-2,0,0,0,0,66,68,131,140,78,167.06,32,7.00,31.00,-1046.00
2024-05-17 16:29:10.750171,0,-2,0,0,0,0,66,68,131,140,78,167.37,33,-7.00,22.00,-997.00
2024-05-17 16:29:10.849733,0,-2,0,0,0,0,66,68,131,140,78,167.39,33,-35.00,54.00,-984.00
2024-05-17 16:29:10.951061,-1,-2,0,0,0,0,66,68,131,140,78,167.38,33,-2.00,20.00,-1044.00
2024-05-17 16:29:11.052374,-1,-2,0,0,0,0,66,68,131,140,78,167.40,33,50.00,-9.00,-1072.00
2024-05-17 16:29:11.217031,-1,-2,0,0,0,0,65,67,131,140,78,167.31,33,-35.00,51.00,-1031.00
2024-05-17 16:29:11.258064,0,-2,0,0,0,0,65,67,131,140,78,167.20,33,-8.00,5.00,-928.00
2024-05-17 16:29:11.358385,0,-1,0,0,0,0,65,67,130,140,78,167.28,33,13.00,37.00,-996.00
2024-05-17 16:29:11.460989,0,-1,0,0,0,0,65,67,130,140,78,167.55,33,-4.00,17.00,-1008.00
2024-05-17 16:29:11.623856,0,-1,0,0,0,0,65,67,130,140,78,167.11,33,-34.00,27.00,-937.00
2024-05-17 16:29:11.680837,0,-1,0,0,0,0,65,67,130,140,78,167.32,33,0.00,13.00,-943.00
2024-05-17 16:29:11.766081,0,-1,0,0,0,0,65,67,130,140,78,167.21,34,0.00,8.00,-1008.00
2024-05-17 16:29:11.931721,0,-1,0,0,0,0,65,67,130,140,78,166.98,34,12.00,18.00,-1008.00
2024-05-17 16:29:11.970690,0,-1,0,0,0,0,65,67,131,140,78,167.14,34,-8.00,12.00,-955.00
2024-05-17 16:29:12.072201,0,-1,0,0,0,0,65,67,130,140,78,167.01,34,-9.00,39.00,-950.00
2024-05-17 16:29:12.174571,0,-1,0,0,0,0,66,68,130,140,77,167.27,34,-8.00,37.00,-1003.00
2024-05-17 16:29:12.276211,0,-1,1,0,0,0,66,68,130,140,77,167.52,34,-38.00,37.00,-1001.00
2024-05-17 16:29:12.443107,0,-1,6,0,0,0,66,68,130,140,77,167.41,34,-17.00,29.00,-954.00
2024-05-17 16:29:12.480282,0,-1,12,0,0,0,66,68,129,140,77,167.32,34,-57.00,45.00,-945.00
2024-05-17 16:29:12.647935,0,-2,18,0,0,0,66,68,128,140,77,167.40,34,58.00,16.00,-1049.00
2024-05-17 16:29:12.684756,0,-2,24,0,0,0,66,68,127,140,77,167.19,34,-28.00,10.00,-993.00
2024-05-17 16:29:12.735685,0,-2,30,0,0,0,66,68,126,140,77,167.15,35,-6.00,44.00,-1033.00
2024-05-17 16:29:12.857085,0,-2,36,0,0,0,66,68,125,140,77,167.30,35,25.00,14.00,-1118.00
2024-05-17 16:29:12.941754,0,-1,42,0,0,0,66,68,125,140,77,167.26,35,33.00,21.00,-1117.00
2024-05-17 16:29:13.040837,0,-1,48,0,0,0,66,68,124,140,77,167.14,35,5.00,28.00,-994.00
2024-05-17 16:29:13.159905,0,-1,54,0,0,0,65,68,123,140,77,167.30,35,21.00,13.00,-1034.00
2024-05-17 16:29:13.245533,0,-1,60,0,0,0,65,68,121,140,77,167.17,35,14.00,15.00,-982.00
2024-05-17 16:29:13.347883,0,-1,67,0,0,0,65,68,120,140,77,167.27,35,45.00,1.00,-1289.00
2024-05-17 16:29:13.448889,0,0,73,0,0,0,65,68,120,130,77,167.28,35,-22.00,32.00,-932.00
2024-05-17 16:29:13.569568,0,0,79,0,0,0,65,68,119,130,77,167.03,35,-15.00,24.00,-996.00
2024-05-17 16:29:13.652796,0,0,85,0,0,0,65,68,119,130,77,166.76,35,40.00,-6.00,-937.00
2024-05-17 16:29:13.774387,0,0,91,0,0,0,65,68,119,130,77,166.98,36,1.00,8.00,-971.00
2024-05-17 16:29:13.856917,0,0,97,0,0,0,65,68,119,130,77,167.30,36,51.00,-29.00,-1071.00
2024-05-17 16:29:13.979128,0,0,103,0,0,0,65,68,119,130,77,166.98,36,-7.00,19.00,-967.00
2024-05-17 16:29:14.060763,1,0,109,0,0,0,65,68,119,130,77,167.31,36,28.00,-15.00,-1055.00
2024-05-17 16:29:14.183910,1,0,115,0,0,0,67,69,119,130,77,167.19,36,31.00,2.00,-1009.00
2024-05-17 16:29:14.265314,1,0,121,0,0,0,67,69,120,130,77,167.15,36,2.00,41.00,-993.00
2024-05-17 16:29:14.389967,1,0,127,0,0,0,67,69,121,130,77,167.33,36,68.00,-32.00,-1075.00
2024-05-17 16:29:14.468930,1,0,133,0,0,0,67,69,121,130,77,167.18,36,-3.00,-7.00,-978.00
2024-05-17 16:29:14.593486,1,0,139,0,0,0,67,69,122,130,77,167.38,36,-20.00,14.00,-1026.00
2024-05-17 16:29:14.674237,0,0,145,0,0,0,67,69,123,130,77,167.30,36,18.00,-7.00,-986.00
2024-05-17 16:29:14.798291,0,0,151,0,0,-1,67,69,124,140,77,167.13,37,-19.00,16.00,-935.00
2024-05-17 16:29:14.878147,0,0,157,0,0,0,67,69,124,140,77,167.13,37,-42.00,32.00,-959.00
2024-05-17 16:29:15.007259,0,0,163,0,0,0,67,69,125,140,77,167.18,37,-26.00,-3.00,-1018.00
2024-05-17 16:29:15.082140,0,0,169,0,0,0,67,69,126,140,77,166.89,37,15.00,-4.00,-1025.00
2024-05-17 16:29:15.209591,0,0,-178,0,0,0,67,69,126,140,77,167.34,37,23.00,-12.00,-1066.00
2024-05-17 16:29:15.286170,0,0,-172,0,0,0,67,69,127,140,77,167.24,37,1.00,-14.00,-929.00
2024-05-17 16:29:15.412677,0,0,-166,0,0,0,67,69,128,140,77,167.33,37,-55.00,54.00,-994.00
2024-05-17 16:29:15.490329,0,0,-160,0,0,0,67,69,129,140,77,167.25,37,22.00,12.00,-1192.00
2024-05-17 16:29:15.617488,0,0,-154,0,0,0,67,69,130,140,77,167.31,37,-35.00,33.00,-935.00
2024-05-17 16:29:15.694232,0,0,-148,0,0,0,67,69,130,140,77,167.16,38,-19.00,9.00,-1017.00
2024-05-17 16:29:15.822275,0,0,-141,0,0,0,67,69,130,140,77,167.12,38,-3.00,14.00,-1021.00
2024-05-17 16:29:15.897934,0,0,-135,0,0,0,67,69,131,140,77,167.42,38,-31.00,18.00,-961.00
2024-05-17 16:29:16.027082,0,0,-129,0,0,0,67,69,131,140,77,167.03,38,-19.00,15.00,-1008.00
2024-05-17 16:29:16.101753,0,0,-123,0,0,0,67,69,131,140,77,167.15,38,-23.00,36.00,-988.00
2024-05-17 16:29:16.231930,0,0,-117,0,0,0,67,69,131,140,77,167.24,38,13.00,0.00,-1003.00
2024-05-17 16:29:16.305985,0,0,-111,0,0,0,67,69,132,140,77,167.36,38,12.00,20.00,-1014.00
2024-05-17 16:29:16.437326,0,0,-105,0,0,0,67,69,132,140,77,167.22,38,12.00,-13.00,-997.00
2024-05-17 16:29:16.458961,0,0,-99,0,0,0,67,69,133,140,77,167.53,38,10.00,4.00,-1005.00
2024-05-17 16:29:16.641536,0,0,-93,0,0,0,67,69,133,140,77,167.42,38,-4.00,3.00,-944.00
2024-05-17 16:29:16.662736,0,0,-87,0,0,0,67,69,133,140,77,167.52,39,-40.00,41.00,-1008.00
2024-05-17 16:29:16.846488,0,0,-81,0,0,0,67,69,133,140,77,167.07,39,-28.00,32.00,-988.00
2024-05-17 16:29:16.866606,0,0,-75,0,0,0,67,69,134,140,77,167.06,39,-3.00,3.00,-995.00
2024-05-17 16:29:17.051283,0,0,-69,0,0,0,67,69,134,140,77,167.32,39,0.00,27.00,-994.00
2024-05-17 16:29:17.071983,0,-1,-63,0,0,0,67,69,134,140,77,167.21,39,39.00,-20.00,-1069.00
2024-05-17 16:29:17.255843,0,-1,-57,0,0,0,67,70,134,140,77,167.70,39,-9.00,15.00,-1003.00
2024-05-17 16:29:17.275782,0,0,-51,0,0,0,67,70,134,140,77,167.32,39,16.00,31.00,-982.00
2024-05-17 16:29:17.462370,0,0,-45,0,0,0,67,70,134,140,77,167.21,39,-10.00,36.00,-953.00
2024-05-17 16:29:17.478651,0,-1,-39,0,0,0,67,70,134,140,77,167.15,39,-11.00,33.00,-954.00
2024-05-17 16:29:17.665464,0,-1,-33,0,0,0,67,70,135,140,77,167.26,39,14.00,5.00,-945.00
2024-05-17 16:29:17.682709,0,-1,-27,0,0,0,67,70,135,140,77,167.53,40,-5.00,27.00,-1064.00
2024-05-17 16:29:17.870224,0,-1,-21,0,0,0,67,70,136,140,77,167.37,40,34.00,10.00,-999.00
2024-05-17 16:29:17.886641,0,-1,-15,0,0,0,67,70,136,140,77,167.38,40,20.00,13.00,-1022.00
2024-05-17 16:29:18.075065,0,-1,-11,0,0,0,67,70,137,140,77,167.50,40,54.00,-12.00,-1007.00
2024-05-17 16:29:18.090919,0,-1,-8,0,0,0,67,70,137,140,77,167.34,40,8.00,34.00,-1016.00
2024-05-17 16:29:18.279891,0,-1,-6,0,0,0,67,70,139,140,77,167.46,40,58.00,-22.00,-994.00
2024-05-17 16:29:18.294575,1,0,-4,0,0,0,67,70,139,150,77,167.65,40,17.00,24.00,-997.00
2024-05-17 16:29:18.485498,1,0,-3,0,0,0,67,70,140,150,77,167.24,40,-22.00,17.00,-921.00
2024-05-17 16:29:18.498436,1,0,-2,0,0,0,67,70,140,150,77,167.37,40,-16.00,36.00,-952.00
2024-05-17 16:29:18.689474,1,0,-1,0,0,0,67,70,141,150,77,167.58,40,-7.00,41.00,-1001.00
2024-05-17 16:29:18.703001,1,0,-1,0,0,0,67,70,141,150,77,167.27,41,31.00,19.00,-1018.00
2024-05-17 16:29:18.895743,1,-1,-1,0,0,0,67,70,141,150,77,167.37,41,10.00,34.00,-951.00
2024-05-17 16:29:18.911652,1,-1,-1,0,0,0,67,70,141,150,77,167.10,41,-23.00,40.00,-984.00
2024-05-17 16:29:19.010220,1,-1,-1,0,0,0,67,70,140,150,77,167.19,41,13.00,0.00,-962.00
2024-05-17 16:29:19.111379,0,-1,-1,0,0,0,67,70,141,150,77,167.34,41,48.00,-14.00,-949.00
2024-05-17 16:29:19.212997,0,-1,-1,0,0,0,68,70,140,150,77,167.35,41,-25.00,31.00,-1008.00
2024-05-17 16:29:19.314735,0,-1,-1,0,0,0,68,70,141,150,77,167.24,41,-14.00,41.00,-1013.00
2024-05-17 16:29:19.423255,0,-1,-1,0,0,0,68,70,140,150,77,167.34,41,32.00,-13.00,-1004.00
2024-05-17 16:29:19.519302,0,-1,-1,0,0,0,68,70,140,150,77,167.33,41,-9.00,30.00,-1014.00
2024-05-17 16:29:19.716237,0,-1,-1,0,0,0,68,70,141,150,77,167.28,41,11.00,4.00,-932.00
2024-05-17 16:29:19.722675,0,-1,-1,0,0,0,68,70,141,150,77,167.64,42,36.00,-7.00,-1012.00
2024-05-17 16:29:19.918384,0,0,-1,0,0,0,68,70,141,150,77,167.06,42,-3.00,17.00,-1019.00
2024-05-17 16:29:19.926535,0,-1,-1,0,0,0,68,70,141,150,77,167.25,42,-2.00,0.00,-995.00
2024-05-17 16:29:20.123625,0,-1,-1,0,0,0,68,70,140,150,77,167.46,42,22.00,2.00,-1014.00
2024-05-17 16:29:20.130761,0,-1,-1,0,0,0,68,70,141,150,77,167.57,42,-30.00,11.00,-977.00
2024-05-17 16:29:20.327985,0,-1,-1,0,0,0,68,70,141,150,76,167.25,42,-7.00,42.00,-978.00
2024-05-17 16:29:20.328165,0,-1,-1,0,0,0,68,70,141,150,76,167.40,42,6.00,21.00,-970.00
2024-05-17 16:29:20.385759,0,-1,-1,0,0,0,68,70,141,150,76,166.99,42,6.00,-1.00,-1011.00
2024-05-17 16:29:20.532963,0,-1,-1,0,0,0,68,70,141,150,76,167.20,42,-8.00,19.00,-985.00
2024-05-17 16:29:20.589535,0,0,-1,0,0,0,68,70,141,150,76,167.47,42,55.00,12.00,-1039.00
2024-05-17 16:29:20.696364,0,0,-1,0,0,0,68,70,141,150,76,167.05,43,20.00,-31.00,-1031.00
2024-05-17 16:29:20.793445,0,0,-1,0,0,0,68,70,141,150,76,167.23,43,-45.00,77.00,-975.00
2024-05-17 16:29:20.943228,0,0,-7,0,0,0,68,70,141,150,76,167.05,43,0.00,14.00,-971.00
2024-05-17 16:29:20.998695,0,0,-13,0,0,0,68,70,141,150,76,166.98,43,-10.00,16.00,-1000.00
2024-05-17 16:29:21.100481,0,-1,-19,0,0,0,68,70,140,150,76,167.34,43,46.00,-14.00,-1039.00
2024-05-17 16:29:21.251777,0,-1,-25,0,0,0,67,70,139,150,76,167.19,43,-2.00,24.00,-975.00
2024-05-17 16:29:21.305398,0,-1,-31,0,0,0,67,70,139,150,76,166.99,43,20.00,20.00,-989.00
2024-05-17 16:29:21.405930,0,-1,-37,0,0,0,67,70,138,150,76,167.29,43,36.00,-13.00,-1032.00
2024-05-17 16:29:21.508036,0,0,-43,0,0,0,67,70,138,140,76,167.44,43,-32.00,9.00,-964.00
2024-05-17 16:29:21.610075,0,0,-50,0,0,0,67,70,137,140,76,167.21,43,-36.00,26.00,-952.00
2024-05-17 16:29:21.713048,0,0,-56,0,0,0,67,70,137,140,76,167.25,44,-1.00,24.00,-1015.00
2024-05-17 16:29:21.970879,0,0,-62,0,0,0,67,70,137,140,76,167.31,44,-1.00,27.00,-981.00
2024-05-17 16:29:21.970929,0,0,-68,0,0,0,67,70,137,140,76,167.28,44,-19.00,28.00,-998.00
2024-05-17 16:29:22.019281,0,0,-74,0,0,0,67,70,137,140,76,167.38,44,-21.00,11.00,-973.00
2024-05-17 16:29:22.119344,0,0,-80,0,0,0,67,70,137,140,76,167.04,44,31.00,-15.00,-1020.00
2024-05-17 16:29:22.273397,0,0,-86,0,0,0,67,70,138,140,76,166.98,44,-31.00,29.00,-994.00
2024-05-17 16:29:22.323350,0,0,-92,0,0,0,67,70,137,140,76,167.12,44,-20.00,27.00,-959.00
2024-05-17 16:29:22.479105,0,0,-98,0,0,0,67,70,137,140,76,167.20,44,23.00,1.00,-1024.00
2024-05-17 16:29:22.527332,0,0,-105,0,0,0,67,70,137,140,76,167.06,44,4.00,2.00,-976.00
2024-05-17 16:29:22.683623,0,0,-111,0,0,0,67,70,136,140,76,167.19,44,9.00,37.00,-949.00
2024-05-17 16:29:22.731317,0,0,-117,0,0,0,67,70,136,140,76,166.94,45,2.00,19.00,-1017.00
2024-05-17 16:29:22.891804,0,0,-123,0,0,0,67,70,136,140,76,167.24,45,-14.00,6.00,-1017.00
2024-05-17 16:29:22.935313,0,0,-129,0,0,0,67,70,136,140,76,167.36,45,-22.00,31.00,-1018.00
2024-05-17 16:29:23.092958,0,0,-135,0,0,0,67,70,135,140,76,167.28,45,-13.00,27.00,-999.00
2024-05-17 16:29:23.139613,0,0,-141,0,0,0,67,70,135,140,76,167.16,45,-23.00,28.00,-991.00
2024-05-17 16:29:23.243395,0,0,-147,0,0,0,68,70,135,140,76,167.31,45,9.00,22.00,-1016.00
2024-05-17 16:29:23.345054,0,0,-153,0,0,0,68,70,134,140,76,167.19,45,8.00,1.00,-1000.00
2024-05-17 16:29:23.445839,0,0,-159,0,0,0,68,70,134,140,76,167.24,45,1.00,11.00,-946.00
2024-05-17 16:29:23.605240,0,0,-165,0,0,0,68,70,134,140,76,167.47,45,-26.00,23.00,-991.00
2024-05-17 16:29:23.649947,0,0,-171,0,0,0,68,70,133,140,76,167.05,45,-52.00,34.00,-988.00
2024-05-17 16:29:23.809447,0,0,-177,0,0,0,68,70,133,140,76,167.15,46,6.00,21.00,-1018.00
2024-05-17 16:29:23.809498,0,0,176,0,0,0,68,70,133,140,76,167.08,46,-45.00,19.00,-1015.00
2024-05-17 16:29:23.904397,0,0,170,0,0,0,68,70,132,140,76,167.33,46,-3.00,9.00,-1045.00
2024-05-17 16:29:24.014425,0,0,164,0,0,0,68,70,132,140,76,167.21,46,32.00,4.00,-1044.00
2024-05-17 16:29:24.108279,0,0,158,0,0,0,68,70,132,140,76,167.21,46,-4.00,16.00,-1022.00
2024-05-17 16:29:24.210576,0,0,152,0,0,0,67,71,132,140,76,167.28,46,-20.00,-12.00,-1015.00
2024-05-17 16:29:24.312316,0,0,146,0,0,0,67,71,133,140,76,167.36,46,26.00,19.00,-1012.00
2024-05-17 16:29:24.423712,0,0,140,0,0,0,67,71,133,140,76,167.24,46,30.00,-15.00,-1014.00
2024-05-17 16:29:24.516275,0,0,134,0,0,0,67,71,133,140,76,167.08,46,-9.00,-6.00,-976.00
2024-05-17 16:29:24.628831,0,0,128,0,0,0,67,71,134,140,76,167.34,46,-2.00,15.00,-1000.00
2024-05-17 16:29:24.720264,0,0,122,0,0,0,67,71,134,140,76,167.12,47,-20.00,4.00,-984.00
2024-05-17 16:29:24.833619,0,0,116,0,0,0,67,71,134,140,76,167.15,47,-4.00,5.00,-958.00
2024-05-17 16:29:24.924209,0,0,110,0,0,0,67,71,135,140,76,167.05,47,-20.00,7.00,-1049.00
2024-05-17 16:29:25.038441,0,0,104,0,0,0,67,71,135,140,76,167.16,47,22.00,-7.00,-981.00
2024-05-17 16:29:25.128233,0,0,99,0,0,0,67,71,135,140,76,167.07,47,22.00,14.00,-994.00
2024-05-17 16:29:25.243248,1,0,93,0,0,0,68,71,135,140,76,167.19,47,-10.00,16.00,-1011.00
2024-05-17 16:29:25.332302,1,0,87,0,0,0,68,71,136,140,76,167.26,47,6.00,2.00,-975.00
2024-05-17 16:29:25.448408,1,0,81,0,0,0,68,71,136,140,76,167.49,47,19.00,28.00,-990.00
2024-05-17 16:29:25.536356,1,0,75,0,0,0,68,71,136,140,76,167.00,47,6.00,7.00,-985.00
2024-05-17 16:29:25.652638,1,0,69,0,0,0,68,71,136,140,76,167.03,47,0.00,-6.00,-993.00
2024-05-17 16:29:25.740262,0,0,63,0,0,0,68,71,136,140,76,167.24,48,0.00,12.00,-991.00
2024-05-17 16:29:25.842383,0,0,57,0,0,0,68,71,136,140,76,167.39,48,25.00,-2.00,-1012.00
2024-05-17 16:29:25.944206,0,0,51,0,0,0,68,71,136,140,76,167.06,48,11.00,30.00,-991.00
2024-05-17 16:29:26.062418,0,0,45,0,0,0,68,71,137,140,76,167.00,48,6.00,15.00,-978.00
2024-05-17 16:29:26.151099,1,0,38,0,0,0,68,71,137,140,76,167.38,48,-18.00,48.00,-982.00
2024-05-17 16:29:26.250611,1,0,32,0,0,0,69,71,136,140,76,167.17,48,5.00,-2.00,-1030.00
2024-05-17 16:29:26.369389,0,-1,26,0,0,0,69,71,136,140,76,167.19,48,10.00,5.00,-1047.00
2024-05-17 16:29:26.455291,0,0,20,0,0,0,69,71,136,140,76,167.18,48,-4.00,14.00,-974.00
2024-05-17 16:29:26.557260,1,0,15,0,0,0,69,71,136,140,76,167.10,48,46.00,6.00,-974.00
2024-05-17 16:29:26.660588,1,0,11,0,0,0,69,71,136,140,76,167.13,48,-3.00,29.00,-993.00
2024-05-17 16:29:26.760040,0,0,8,0,0,0,69,71,135,140,76,167.26,49,24.00,7.00,-1001.00
2024-05-17 16:29:26.883111,0,0,6,0,0,0,69,71,135,140,76,167.09,49,5.00,29.00,-1044.00
2024-05-17 16:29:26.964097,0,0,4,0,0,0,69,71,135,140,76,167.22,49,4.00,28.00,-1018.00
2024-05-17 16:29:27.086333,0,0,3,0,0,0,69,71,134,140,76,167.00,49,25.00,15.00,-967.00
2024-05-17 16:29:27.168097,0,0,2,0,0,0,69,71,133,140,76,166.92,49,6.00,22.00,-963.00
2024-05-17 16:29:27.290939,0,0,1,0,0,0,69,71,134,140,76,166.78,49,29.00,2.00,-1073.00
2024-05-17 16:29:27.372313,0,0,0,0,0,0,69,71,133,140,76,167.00,49,29.00,14.00,-986.00
2024-05-17 16:29:27.496019,0,0,0,0,0,0,69,71,133,140,76,167.04,49,-11.00,2.00,-1029.00
2024-05-17 16:29:27.576152,0,0,0,0,0,0,69,71,133,140,76,167.34,49,23.00,19.00,-1018.00
2024-05-17 16:29:27.627099,0,0,0,0,0,0,69,71,133,140,76,167.16,49,15.00,5.00,-983.00
2024-05-17 16:29:27.803031,0,0,0,0,0,0,69,71,133,140,76,166.88,50,40.00,-7.00,-981.00
2024-05-17 16:29:27.831087,0,0,0,0,0,0,69,71,133,140,76,167.03,50,32.00,3.00,-1003.00
2024-05-17 16:29:28.007826,0,0,0,0,0,0,69,71,133,140,76,167.17,50,20.00,7.00,-995.00
2024-05-17 16:29:28.035753,0,0,0,0,0,0,69,71,133,140,76,167.12,50,7.00,2.00,-1004.00
2024-05-17 16:29:28.212634,0,0,0,0,0,0,69,71,133,140,76,167.16,50,22.00,1.00,-998.00
2024-05-17 16:29:28.239143,0,0,0,0,0,0,69,70,133,140,76,167.30,50,-7.00,2.00,-980.00
2024-05-17 16:29:28.417499,0,0,0,0,0,0,69,70,133,140,76,167.30,50,0.00,6.00,-1008.00
2024-05-17 16:29:28.443050,0,-1,0,0,0,0,69,70,134,140,76,167.32,50,9.00,37.00,-975.00
2024-05-17 16:29:28.622206,0,-1,0,0,0,0,69,70,134,140,76,167.15,50,-6.00,27.00,-1055.00
2024-05-17 16:29:28.647075,0,-1,0,0,0,0,69,70,134,140,76,167.12,50,-14.00,26.00,-1005.00
2024-05-17 16:29:28.827263,0,-1,0,0,0,0,69,70,134,140,76,167.07,51,-1.00,22.00,-986.00
2024-05-17 16:29:28.851076,0,-1,0,0,0,0,69,70,135,140,76,166.87,51,28.00,-3.00,-1027.00
2024-05-17 16:29:29.031801,0,-1,0,0,0,0,69,70,135,140,76,167.12,51,11.00,14.00,-995.00
2024-05-17 16:29:29.055722,0,-1,0,0,0,0,69,70,135,140,76,167.06,51,0.00,19.00,-992.00
2024-05-17 16:29:29.239707,0,-1,0,0,0,0,69,70,136,140,76,167.26,51,3.00,20.00,-1010.00
2024-05-17 16:29:29.261538,1,-1,0,0,0,0,68,71,137,140,76,167.03,51,25.00,8.00,-995.00
2024-05-17 16:29:29.368913,1,-1,0,0,0,0,68,71,137,140,76,167.22,51,-26.00,41.00,-976.00
2024-05-17 16:29:29.462893,1,-1,0,0,0,0,68,71,137,140,76,167.07,51,-32.00,70.00,-1324.00
2024-05-17 16:29:29.646137,0,-1,0,0,0,-2,68,71,141,140,76,167.47,51,31.00,12.00,-1890.00
2024-05-17 16:29:29.666925,0,-6,0,0,0,-10,68,71,196,150,76,167.74,51,-29.00,331.00,-1568.00
2024-05-17 16:29:29.850935,0,-85,0,0,-5,-14,68,71,187,160,76,167.78,52,42.00,501.00,-1268.00
2024-05-17 16:29:29.870947,1,152,1,1,-12,0,68,71,412,170,76,167.43,52,-48.00,509.00,-866.00
2024-05-17 16:29:30.058878,1,37,-1,1,-6,11,68,71,145,170,76,167.16,52,-8.00,-67.00,-1546.00
2024-05-17 16:29:30.076717,1,-4,-2,1,-4,8,68,71,135,160,76,167.06,52,-60.00,86.00,-1664.00
2024-05-17 16:29:30.177190,0,2,-1,0,-4,3,68,71,126,150,76,167.36,52,-10.00,48.00,-1130.00
2024-05-17 16:29:30.278973,0,3,0,0,-3,1,68,71,120,150,76,167.10,52,2.00,0.00,-1043.00
2024-05-17 16:29:30.383054,0,2,0,1,-3,0,68,71,115,140,76,167.12,52,-63.00,43.00,-1025.00
2024-05-17 16:29:30.483415,0,1,0,0,-2,0,68,71,109,140,76,166.98,52,6.00,7.00,-1104.00
2024-05-17 16:29:30.670118,0,1,0,0,-2,0,68,71,104,140,76,167.01,52,30.00,-11.00,-1076.00
2024-05-17 16:29:30.686898,0,0,0,0,-1,-1,68,71,99,140,76,167.06,52,13.00,9.00,-943.00
2024-05-17 16:29:30.875437,0,0,0,0,0,-1,68,71,95,150,76,166.73,53,-13.00,34.00,-1048.00
2024-05-17 16:29:30.875498,0,0,0,0,0,-1,68,71,90,150,76,166.55,53,31.00,-10.00,-1033.00
2024-05-17 16:29:30.942012,0,0,0,0,0,-1,68,71,86,150,76,166.64,53,42.00,1.00,-968.00
2024-05-17 16:29:31.084912,0,1,0,0,0,-1,68,71,82,150,76,166.86,53,16.00,-1.00,-1053.00
2024-05-17 16:29:31.152850,0,0,0,0,0,-2,68,71,78,150,75,166.75,53,10.00,-15.00,-959.00
2024-05-17 16:29:31.247908,0,0,0,0,0,-1,69,71,73,150,75,166.12,53,39.00,-14.00,-1004.00
2024-05-17 16:29:31.386949,0,0,0,0,0,-1,69,71,69,150,75,166.55,53,37.00,-20.00,-918.00
2024-05-17 16:29:31.452389,0,0,0,0,0,0,69,71,65,150,75,166.28,53,24.00,0.00,-1065.00
2024-05-17 16:29:31.591960,0,0,0,0,0,0,69,71,60,150,75,166.43,53,13.00,10.00,-970.00
2024-05-17 16:29:31.655960,0,0,0,0,0,0,69,71,56,150,75,166.01,53,-9.00,28.00,-1002.00
2024-05-17 16:29:31.796508,0,0,0,0,0,0,69,71,50,150,75,166.43,54,-9.00,17.00,-936.00
2024-05-17 16:29:31.859781,0,0,0,0,0,0,69,71,44,150,75,166.39,54,-8.00,13.00,-1023.00
2024-05-17 16:29:31.962167,0,0,0,0,0,0,69,71,42,140,75,166.19,54,4.00,0.00,-1038.00
2024-05-17 16:29:32.103824,0,0,0,0,0,0,69,71,37,140,75,166.13,54,-2.00,20.00,-975.00
2024-05-17 16:29:32.165935,0,0,0,0,0,4,69,71,32,130,75,165.94,54,-20.00,33.00,-1004.00
2024-05-17 16:29:32.308495,0,0,0,0,0,2,69,72,28,120,75,165.97,54,-36.00,36.00,-1157.00
2024-05-17 16:29:32.369787,0,0,0,0,0,0,69,72,26,120,75,165.88,54,15.00,6.00,-1064.00
2024-05-17 16:29:32.615762,0,0,0,0,0,0,69,72,25,120,75,166.30,54,10.00,12.00,-980.00
2024-05-17 16:29:32.615803,0,0,0,0,0,0,69,72,23,120,75,166.05,54,3.00,2.00,-965.00
2024-05-17 16:29:32.678250,0,0,0,0,0,0,69,72,23,120,75,165.91,55,3.00,-1.00,-983.00
2024-05-17 16:29:32.777815,0,0,0,0,0,0,69,72,23,120,75,165.62,55,-6.00,15.00,-1026.00
2024-05-17 16:29:32.931165,0,0,0,0,0,0,69,72,23,120,75,165.98,55,-20.00,24.00,-1027.00
2024-05-17 16:29:32.982002,0,0,0,0,0,0,69,72,24,120,75,166.10,55,27.00,-8.00,-1013.00
2024-05-17 16:29:33.129831,0,0,0,0,0,0,69,72,25,120,75,166.25,55,-7.00,3.00,-978.00
2024-05-17 16:29:33.185910,0,0,0,0,0,0,69,72,25,120,74,166.08,55,0.00,15.00,-982.00
2024-05-17 16:29:33.434951,0,0,0,0,0,0,70,72,26,120,74,166.02,55,15.00,0.00,-989.00
2024-05-17 16:29:33.435116,0,0,0,0,0,0,70,72,28,120,74,166.21,55,-22.00,21.00,-1035.00
2024-05-17 16:29:33.491741,0,0,0,0,0,0,70,72,29,120,74,166.22,55,20.00,14.00,-993.00
2024-05-17 16:29:33.647937,0,0,0,0,0,0,70,72,30,130,74,166.28,55,6.00,9.00,-962.00
2024-05-17 16:29:33.695876,0,0,0,0,0,0,70,72,31,130,74,166.04,56,0.00,15.00,-1022.00
2024-05-17 16:29:33.799835,0,0,0,0,0,0,70,72,32,130,74,165.90,56,22.00,4.00,-1006.00
2024-05-17 16:29:33.899802,0,0,0,0,0,0,70,72,33,130,74,166.13,56,-3.00,8.00,-960.00
2024-05-17 16:29:34.001976,0,0,0,0,0,0,70,72,34,130,74,165.92,56,-36.00,23.00,-959.00
2024-05-17 16:29:34.103978,0,0,0,0,0,0,70,72,34,130,74,166.16,56,25.00,17.00,-946.00
2024-05-17 16:29:34.254139,0,-1,0,0,0,0,70,72,35,130,74,165.97,56,-18.00,19.00,-975.00
2024-05-17 16:29:34.307745,0,-1,0,0,0,0,69,72,35,130,74,165.95,56,4.00,13.00,-995.00
2024-05-17 16:29:34.460104,0,0,0,0,0,0,69,72,35,130,74,166.22,56,-10.00,27.00,-1004.00
2024-05-17 16:29:34.511712,0,0,0,0,0,0,69,72,35,130,74,166.35,56,2.00,13.00,-985.00
2024-05-17 16:29:34.664077,0,0,0,0,0,0,69,72,35,130,74,166.18,56,-6.00,15.00,-956.00
2024-05-17 16:29:34.715747,0,0,0,0,0,0,69,72,36,130,74,165.95,57,-20.00,20.00,-1015.00
2024-05-17 16:29:34.766685,0,0,0,0,0,0,69,72,36,130,74,166.05,57,-46.00,49.00,-956.00
2024-05-17 16:29:34.869137,0,0,0,0,0,0,69,72,37,130,74,166.30,57,9.00,6.00,-987.00
2024-05-17 16:29:34.974396,0,-1,0,0,0,0,69,72,37,130,74,166.29,57,16.00,13.00,-1015.00
2024-05-17 16:29:35.073916,0,-1,0,0,0,0,69,72,37,130,74,166.34,57,-21.00,34.00,-970.00
2024-05-17 16:29:35.175861,0,-1,0,0,0,0,69,72,38,130,74,166.00,57,-10.00,3.00,-986.00
2024-05-17 16:29:35.278590,0,-1,0,0,0,0,70,72,39,130,74,166.43,57,23.00,4.00,-1069.00
2024-05-17 16:29:35.380569,0,-1,0,0,0,0,70,72,39,130,74,165.89,57,-1.00,23.00,-985.00
2024-05-17 16:29:35.482924,0,0,0,0,0,0,70,72,40,130,74,166.14,57,12.00,-1.00,-989.00
2024-05-17 16:29:35.585331,0,0,0,0,0,0,70,72,40,130,74,166.09,57,-6.00,10.00,-984.00
2024-05-17 16:29:35.685793,0,0,0,0,0,0,70,72,41,130,74,165.99,58,-3.00,20.00,-967.00
2024-05-17 16:29:35.792843,0,0,0,0,0,0,70,72,41,130,74,166.49,58,5.00,2.00,-950.00
2024-05-17 16:29:35.889704,0,0,0,0,0,0,70,72,41,130,74,165.99,58,-17.00,16.00,-1012.00
2024-05-17 16:29:35.994845,0,0,0,0,0,0,70,72,42,130,74,166.18,58,-5.00,27.00,-957.00
2024-05-17 16:29:36.093722,0,0,0,0,0,-1,70,72,45,130,74,166.10,58,22.00,-1.00,-1919.00
2024-05-17 16:29:36.199701,0,4,0,0,0,-10,70,72,49,140,74,166.41,58,-16.00,-44.00,-1940.00
2024-05-17 16:29:36.297513,0,76,0,0,6,-15,70,73,358,150,74,166.64,58,-37.00,570.00,-1523.00
2024-05-17 16:29:36.406246,1,-159,0,0,13,0,70,73,292,160,74,166.59,58,-11.00,792.00,-968.00
2024-05-17 16:29:36.501570,0,-43,2,0,7,9,70,73,66,160,74,166.87,58,11.00,723.00,-1063.00
2024-05-17 16:29:36.711532,0,1,2,0,5,7,70,73,42,150,74,165.85,58,6.00,151.00,-1186.00
2024-05-17 16:29:36.711614,0,-2,1,0,5,4,70,73,35,140,74,166.26,59,-17.00,-2.00,-957.00
2024-05-17 16:29:36.807757,0,-4,0,0,4,1,70,73,27,140,74,166.14,59,-18.00,-30.00,-1692.00
2024-05-17 16:29:36.916397,0,-2,0,0,3,0,70,73,22,140,74,166.16,59,-6.00,0.00,-980.00
2024-05-17 16:29:37.011518,0,-2,0,0,3,0,70,73,17,140,74,165.76,59,1.00,22.00,-919.00
2024-05-17 16:29:37.114785,0,-2,0,0,3,0,70,73,12,140,74,165.48,59,-34.00,11.00,-1038.00
2024-05-17 16:29:37.223612,0,-2,0,0,2,-1,70,73,10,140,74,164.65,59,-11.00,11.00,-1103.00
2024-05-17 16:29:37.317898,0,-1,0,0,2,-1,71,73,10,140,74,163.98,59,-21.00,7.00,-1036.00
2024-05-17 16:29:37.419471,0,-1,0,0,2,-2,71,73,10,140,74,162.63,59,-47.00,26.00,-999.00
2024-05-17 16:29:37.521525,0,-1,0,0,2,-2,71,73,10,140,74,161.86,59,183.00,-338.00,-1650.00
2024-05-17 16:29:37.633861,0,-1,0,0,0,-5,71,73,10,150,74,163.05,59,16.00,-13.00,-837.00
2024-05-17 16:29:37.727636,0,0,0,0,0,-3,71,73,10,150,74,162.56,60,3.00,33.00,-825.00
2024-05-17 16:29:37.827430,0,0,0,0,0,-3,71,73,10,160,74,162.80,60,-17.00,-53.00,-889.00
2024-05-17 16:29:37.940413,0,0,0,0,0,-4,71,73,10,160,74,162.56,60,-20.00,-32.00,-865.00
2024-05-17 16:29:38.031427,0,0,1,0,0,-3,71,73,10,160,74,163.51,60,21.00,-3.00,-960.00
2024-05-17 16:29:38.135131,0,-1,1,1,-1,-3,71,73,10,160,74,163.94,60,-23.00,18.00,-988.00
2024-05-17 16:29:38.184451,0,0,0,1,-1,-3,71,73,10,160,74,163.59,60,-22.00,61.00,-960.00
2024-05-17 16:29:38.350276,1,0,0,1,-1,-2,70,73,10,170,74,163.77,60,12.00,-69.00,-1006.00
2024-05-17 16:29:38.447165,2,1,0,1,-1,-2,70,73,10,170,74,163.66,60,-3.00,-34.00,-985.00
2024-05-17 16:29:38.541960,2,1,0,1,-1,-2,70,73,10,170,74,163.74,60,71.00,-23.00,-977.00
2024-05-17 16:29:38.592386,3,2,0,1,-1,-2,70,73,10,170,74,163.87,60,58.00,-53.00,-964.00
2024-05-17 16:29:38.764842,4,3,0,1,-2,-1,70,73,10,170,74,163.76,61,29.00,-21.00,-942.00
2024-05-17 16:29:38.796347,4,4,0,1,-2,-1,70,73,10,170,74,164.24,61,95.00,-85.00,-935.00
2024-05-17 16:29:38.964407,4,4,0,1,-2,-1,70,73,10,170,74,164.20,61,93.00,-104.00,-949.00
2024-05-17 16:29:39.000295,4,5,1,2,-2,0,70,73,10,170,74,164.77,61,73.00,-117.00,-988.00
2024-05-17 16:29:39.169990,4,5,1,2,-3,0,70,73,10,170,73,164.69,61,110.00,-125.00,-986.00
2024-05-17 16:29:39.204406,4,6,2,2,-3,0,70,73,10,170,73,164.93,61,51.00,-149.00,-944.00
2024-05-17 16:29:39.373977,4,7,1,0,0,0,70,72,10,160,73,164.27,61,99.00,-124.00,-910.00
2024-05-17 16:29:39.408371,4,4,1,0,0,0,70,72,10,160,73,163.38,61,60.00,-76.00,-950.00
2024-05-17 16:29:39.511969,2,2,0,0,0,1,70,72,10,160,73,162.23,61,45.00,-58.00,-1018.00
2024-05-17 16:29:39.681377,2,2,0,0,0,0,70,72,10,160,73,162.28,61,-33.00,70.00,-1000.00
2024-05-17 16:29:39.714462,1,1,0,0,0,0,70,72,10,160,73,162.61,62,-5.00,7.00,-1061.00
2024-05-17 16:29:39.887117,1,1,0,0,0,0,70,72,10,160,73,163.18,62,3.00,23.00,-1102.00
2024-05-17 16:29:39.918538,0,0,0,0,0,0,70,72,10,160,73,163.98,62,12.00,20.00,-1042.00
2024-05-17 16:29:40.090965,0,0,0,0,0,0,70,72,10,160,73,165.03,62,9.00,5.00,-1025.00
2024-05-17 16:29:40.122328,0,0,0,0,0,0,70,72,11,160,73,165.19,62,10.00,6.00,-978.00
2024-05-17 16:29:40.295647,0,0,0,0,0,0,70,72,13,160,73,165.76,62,13.00,-3.00,-1034.00
2024-05-17 16:29:40.326342,0,0,0,0,0,0,70,72,16,160,73,165.78,62,19.00,-14.00,-988.00
2024-05-17 16:29:40.500546,0,0,0,0,0,0,70,72,19,160,73,165.98,62,-34.00,1.00,-1031.00
2024-05-17 16:29:40.530290,0,0,0,0,0,-1,70,72,23,160,73,165.82,62,18.00,-6.00,-978.00
2024-05-17 16:29:40.707653,0,0,0,0,0,-1,70,72,27,170,73,166.13,62,42.00,-23.00,-1041.00
2024-05-17 16:29:40.734286,0,0,0,0,0,-1,70,72,31,170,73,166.12,63,11.00,-26.00,-991.00
2024-05-17 16:29:40.912222,0,0,0,0,0,-1,70,72,35,170,73,166.05,63,7.00,-16.00,-938.00
2024-05-17 16:29:40.938286,0,0,0,0,0,-1,70,72,38,170,73,166.04,63,50.00,-31.00,-977.00
2024-05-17 16:29:41.117029,0,0,0,0,0,0,70,72,42,170,73,166.13,63,18.00,-8.00,-973.00
2024-05-17 16:29:41.142245,0,0,0,0,0,0,70,72,45,180,73,166.06,63,15.00,-16.00,-969.00
2024-05-17 16:29:41.319845,0,0,0,0,0,0,70,72,48,180,73,166.27,63,30.00,-38.00,-957.00
2024-05-17 16:29:41.346700,1,0,0,-1,4,0,70,73,50,180,73,166.12,63,27.00,-26.00,-986.00
2024-05-17 16:29:41.525134,-2,-5,0,0,3,0,70,73,50,180,73,166.37,63,32.00,-1.00,-931.00
2024-05-17 16:29:41.551795,-1,-4,0,0,2,0,70,73,53,180,73,166.01,63,27.00,-15.00,-997.00
