TS,pitch,roll,yaw,vgx,vgy,vgz,templ,temph,tof,h,bat,baro,time,agx,agy,agz
2024-06-07 00:46:59.204420,0,0,0,0,0,0,53,55,10,0,65,95.36,0,14.00,8.00,-1000.00
2024-06-07 00:46:59.258842,0,0,0,0,0,0,53,55,10,0,65,95.47,0,15.00,7.00,-1001.00
2024-06-07 00:46:59.360479,0,0,0,0,0,0,53,55,10,0,65,95.44,0,15.00,6.00,-998.00
2024-06-07 00:46:59.511245,0,0,0,0,0,0,53,55,10,0,65,95.39,0,14.00,6.00,-1003.00
2024-06-07 00:46:59.564991,0,0,0,0,0,0,53,55,10,0,65,95.24,0,14.00,8.00,-998.00
2024-06-07 00:46:59.713942,0,0,0,0,0,0,53,55,10,0,65,95.71,0,15.00,8.00,-998.00
2024-06-07 00:46:59.768523,0,0,0,0,0,0,53,55,10,0,65,95.55,0,13.00,9.00,-999.00
2024-06-07 00:46:59.870413,0,0,0,0,0,0,53,55,10,0,65,95.32,0,13.00,6.00,-1000.00
2024-06-07 00:47:00.020431,0,0,0,0,0,0,53,55,10,0,65,95.35,0,14.00,9.00,-999.00
2024-06-07 00:47:00.074395,0,0,0,0,0,0,53,55,10,0,65,95.23,0,13.00,6.00,-999.00
2024-06-07 00:47:00.226434,0,0,0,0,0,0,53,55,10,0,65,95.60,0,13.00,7.00,-1000.00
2024-06-07 00:47:00.279579,0,0,0,0,0,0,53,55,10,0,65,95.55,0,13.00,7.00,-1000.00
2024-06-07 00:47:00.380316,0,0,0,0,0,0,54,55,10,0,65,95.31,0,13.00,8.00,-996.00
2024-06-07 00:47:00.482282,0,0,0,0,0,0,54,55,10,0,65,95.34,0,14.00,7.00,-1000.00
2024-06-07 00:47:00.635432,0,0,0,0,0,0,54,55,10,0,65,95.47,0,15.00,8.00,-1001.00
2024-06-07 00:47:00.686970,0,0,0,0,0,0,54,55,10,0,65,95.70,0,13.00,8.00,-998.00
2024-06-07 00:47:00.840756,0,0,0,0,0,0,54,55,10,0,65,95.59,0,13.00,4.00,-998.00
2024-06-07 00:47:00.840888,0,0,0,0,0,0,54,55,10,0,65,95.56,0,13.00,7.00,-1001.00
2024-06-07 00:47:00.943058,0,0,0,0,0,0,54,55,10,0,65,95.20,0,15.00,6.00,-998.00
2024-06-07 00:47:01.045053,0,0,0,0,0,0,54,55,10,0,65,95.44,0,15.00,8.00,-1001.00
2024-06-07 00:47:01.147177,0,0,0,0,0,0,54,55,10,0,65,95.43,0,14.00,7.00,-999.00
2024-06-07 00:47:01.249597,0,0,0,0,0,0,54,55,10,0,65,95.49,0,15.00,8.00,-999.00
2024-06-07 00:47:01.352304,0,0,0,0,0,0,54,56,10,0,65,95.49,0,13.00,8.00,-998.00
2024-06-07 00:47:01.454167,0,0,0,0,0,0,54,56,10,0,65,95.33,0,14.00,8.00,-1001.00
2024-06-07 00:47:01.556792,0,0,0,0,0,0,54,56,10,0,65,95.46,0,15.00,6.00,-997.00
2024-06-07 00:47:01.657282,0,0,0,0,0,0,54,56,10,0,65,95.33,0,14.00,7.00,-1000.00
2024-06-07 00:47:01.757369,0,0,0,0,0,0,54,56,10,0,65,95.30,0,15.00,6.00,-999.00
2024-06-07 00:47:01.864462,0,0,0,0,0,0,54,56,10,0,65,95.47,0,15.00,7.00,-998.00
2024-06-07 00:47:01.961550,0,0,0,0,0,0,54,56,10,0,65,95.17,0,14.00,8.00,-997.00
2024-06-07 00:47:02.071331,0,0,0,0,0,0,54,56,10,0,65,95.44,0,12.00,6.00,-1000.00
2024-06-07 00:47:02.165312,0,0,0,0,0,0,54,56,10,0,65,95.43,0,15.00,9.00,-999.00
2024-06-07 00:47:02.273363,0,0,0,0,0,0,54,56,10,0,65,95.22,0,15.00,7.00,-1000.00
2024-06-07 00:47:02.369730,0,0,0,0,0,0,53,56,10,0,65,95.52,0,15.00,7.00,-996.00
2024-06-07 00:47:02.480970,0,0,0,0,0,0,53,56,10,0,65,95.49,0,15.00,7.00,-1000.00
2024-06-07 00:47:02.574514,0,0,0,0,0,0,53,56,10,0,65,95.24,0,16.00,7.00,-1000.00
2024-06-07 00:47:02.682914,0,0,0,0,0,0,53,56,10,0,65,95.24,0,14.00,7.00,-1001.00
2024-06-07 00:47:02.781718,0,0,0,0,0,0,53,56,10,0,65,95.35,0,15.00,8.00,-995.00
2024-06-07 00:47:02.880831,0,0,0,0,0,0,53,56,10,0,65,95.21,0,15.00,6.00,-999.00
2024-06-07 00:47:02.981081,0,0,0,0,0,0,53,56,10,0,65,95.46,0,16.00,6.00,-1000.00
2024-06-07 00:47:03.092330,0,0,0,0,0,0,53,56,10,0,65,95.33,0,19.00,6.00,-1001.00
2024-06-07 00:47:03.185342,0,0,0,0,0,0,53,56,10,0,65,95.33,0,16.00,14.00,-1001.00
2024-06-07 00:47:03.297014,0,0,0,0,0,0,53,56,10,0,65,95.33,0,12.00,2.00,-1017.00
2024-06-07 00:47:03.338345,0,0,0,0,0,0,54,56,10,0,65,95.33,0,-7.00,23.00,-997.00
2024-06-07 00:47:03.439921,0,0,-1,0,0,0,54,56,10,0,65,95.33,0,-3.00,7.00,-1068.00
2024-06-07 00:47:03.607007,0,-1,-1,0,0,-1,54,56,10,0,65,95.33,0,19.00,3.00,-1143.00
2024-06-07 00:47:03.646213,0,0,-1,0,0,-4,54,56,14,10,65,95.33,0,15.00,9.00,-1358.00
2024-06-07 00:47:03.746562,0,0,-1,0,0,-7,54,56,13,10,65,95.33,0,18.00,3.00,-1185.00
2024-06-07 00:47:03.913988,0,0,-1,0,0,-8,54,56,16,20,65,95.70,0,2.00,-3.00,-1059.00
2024-06-07 00:47:03.950421,0,0,-1,0,0,-8,54,56,23,30,65,96.07,1,4.00,0.00,-989.00
2024-06-07 00:47:04.119043,0,0,-1,0,0,-8,54,56,31,40,65,95.95,1,10.00,3.00,-957.00
2024-06-07 00:47:04.153877,0,0,-1,0,0,-8,54,56,36,50,65,95.86,1,10.00,2.00,-907.00
2024-06-07 00:47:04.321254,0,0,-1,0,0,-7,54,56,43,60,65,96.18,1,-15.00,17.00,-893.00
2024-06-07 00:47:04.358451,0,0,-1,0,0,-6,54,57,48,70,65,95.69,1,5.00,4.00,-878.00
2024-06-07 00:47:04.525900,0,-1,-1,0,0,-4,54,57,53,70,65,96.13,1,3.00,4.00,-873.00
2024-06-07 00:47:04.562237,0,0,-1,0,0,-3,54,57,55,70,65,95.97,1,5.00,0.00,-905.00
2024-06-07 00:47:04.735026,0,0,-1,0,0,-2,54,57,57,80,65,96.13,1,-7.00,11.00,-925.00
2024-06-07 00:47:04.767655,0,0,-1,0,0,-1,54,57,59,80,65,96.00,1,4.00,3.00,-943.00
2024-06-07 00:47:04.868016,0,-1,-1,0,0,-1,54,57,60,80,65,96.07,1,-10.00,2.00,-978.00
2024-06-07 00:47:04.970472,0,-1,-1,0,0,-1,54,57,60,80,65,96.09,2,-3.00,4.00,-988.00
2024-06-07 00:47:05.140224,0,0,-1,0,0,-1,54,57,60,80,65,95.82,2,2.00,8.00,-1011.00
2024-06-07 00:47:05.173873,0,0,-1,0,0,-1,54,57,60,80,65,96.27,2,-5.00,15.00,-1026.00
2024-06-07 00:47:05.348976,0,0,-1,0,0,-1,54,57,61,80,65,95.77,2,-8.00,0.00,-1033.00
2024-06-07 00:47:05.377816,0,0,-1,0,0,-1,55,57,61,80,65,96.01,2,-1.00,10.00,-1029.00
2024-06-07 00:47:05.549857,0,0,-1,0,0,-1,55,57,62,80,65,96.28,2,-7.00,7.00,-1031.00
2024-06-07 00:47:05.582859,0,0,-1,0,0,-1,55,57,63,80,65,96.15,2,-2.00,13.00,-1025.00
2024-06-07 00:47:05.757276,0,-1,-1,0,0,-1,55,57,64,80,65,96.16,2,5.00,3.00,-1020.00
2024-06-07 00:47:05.787154,0,-1,-1,0,0,-1,55,57,66,80,65,96.35,2,4.00,17.00,-1005.00
2024-06-07 00:47:05.959552,0,-1,-1,0,0,-2,55,57,68,90,65,96.22,2,9.00,-10.00,-1002.00
2024-06-07 00:47:05.959997,0,0,-1,0,0,-1,55,57,69,90,65,95.92,3,16.00,-5.00,-991.00
2024-06-07 00:47:06.040751,0,0,-1,0,0,-1,55,57,71,90,65,96.13,3,0.00,8.00,-992.00
2024-06-07 00:47:06.164232,0,0,-1,0,0,-1,55,57,72,90,65,96.04,3,0.00,28.00,-983.00
2024-06-07 00:47:06.245586,0,-1,-1,0,0,-1,55,57,74,90,65,96.14,3,-5.00,17.00,-988.00
2024-06-07 00:47:06.369303,0,-1,-1,0,0,-1,56,57,76,90,65,96.24,3,7.00,3.00,-990.00
2024-06-07 00:47:06.449077,0,0,-1,0,0,-1,56,57,77,90,65,95.79,3,3.00,8.00,-1001.00
2024-06-07 00:47:06.574375,0,0,-1,0,0,-1,56,57,78,90,65,96.24,3,10.00,6.00,-996.00
2024-06-07 00:47:06.652858,0,0,-1,0,0,-1,56,57,79,90,65,96.36,3,-2.00,1.00,-998.00
2024-06-07 00:47:06.778535,0,-1,-1,0,0,0,56,57,79,90,65,96.06,3,5.00,13.00,-991.00
2024-06-07 00:47:06.856717,0,-1,-1,0,0,0,56,57,81,100,65,96.12,3,-32.00,-6.00,-977.00
2024-06-07 00:47:06.986223,0,0,-1,0,0,0,56,57,81,100,65,96.21,4,0.00,10.00,-987.00
2024-06-07 00:47:07.060935,0,0,-1,0,0,0,56,57,82,100,65,96.13,4,-13.00,3.00,-996.00
2024-06-07 00:47:07.201596,0,0,-1,0,0,0,56,57,83,100,65,96.24,4,8.00,11.00,-1007.00
2024-06-07 00:47:07.344624,0,0,-1,0,0,0,56,57,84,100,65,96.29,4,0.00,11.00,-994.00
2024-06-07 00:47:07.367477,0,0,-1,0,0,0,55,58,84,100,65,96.73,4,1.00,-11.00,-988.00
2024-06-07 00:47:07.483760,0,-1,-1,0,0,0,55,58,85,100,65,96.26,4,4.00,11.00,-991.00
2024-06-07 00:47:07.653771,0,0,-1,0,0,0,55,58,85,100,65,96.42,4,25.00,-22.00,-1003.00
2024-06-07 00:47:07.672622,0,0,-1,0,0,0,55,58,85,100,64,96.32,4,-21.00,7.00,-997.00
2024-06-07 00:47:07.840655,0,0,-1,0,0,0,55,58,86,100,64,96.26,4,-9.00,6.00,-991.00
2024-06-07 00:47:07.897029,0,0,-1,0,0,0,55,58,86,100,64,96.12,4,0.00,17.00,-995.00
2024-06-07 00:47:07.985963,0,-1,-1,0,0,0,55,58,86,100,64,96.13,5,1.00,20.00,-998.00
2024-06-07 00:47:08.159085,0,-1,-1,0,0,0,55,58,87,100,64,96.26,5,0.00,11.00,-1000.00
2024-06-07 00:47:08.182584,0,-1,-1,0,0,0,55,58,87,100,64,96.13,5,-20.00,26.00,-992.00
2024-06-07 00:47:08.311636,0,-1,-1,0,0,0,55,58,87,100,64,96.28,5,0.00,12.00,-1001.00
2024-06-07 00:47:08.386583,0,-1,-1,0,0,0,55,58,87,100,64,96.37,5,-7.00,8.00,-981.00
2024-06-07 00:47:08.516480,0,0,-1,0,0,0,55,58,87,100,64,96.18,5,0.00,-1.00,-999.00
2024-06-07 00:47:08.590720,0,-1,-1,0,0,0,55,58,87,100,64,96.48,5,-9.00,-2.00,-981.00
2024-06-07 00:47:08.734933,0,-1,-1,0,0,0,55,58,88,100,64,96.10,5,2.00,7.00,-989.00
2024-06-07 00:47:08.878274,0,-1,-1,0,0,0,55,58,87,100,64,96.47,5,-9.00,12.00,-995.00
2024-06-07 00:47:08.896513,0,-1,-1,0,0,0,55,58,88,100,64,96.43,5,-14.00,3.00,-995.00
2024-06-07 00:47:09.042466,0,-1,-1,0,0,0,55,58,88,100,64,96.24,6,-10.00,1.00,-988.00
2024-06-07 00:47:09.185512,0,-1,-1,0,0,0,55,58,87,100,64,96.06,6,-4.00,31.00,-995.00
2024-06-07 00:47:09.202449,0,-1,-1,0,0,0,55,58,87,100,64,96.21,6,1.00,6.00,-1010.00
2024-06-07 00:47:09.412551,0,-1,-1,0,0,0,56,59,87,100,64,96.30,6,11.00,15.00,-1003.00
2024-06-07 00:47:09.508449,0,-1,-1,0,0,0,56,59,87,100,64,96.26,6,-1.00,6.00,-986.00
2024-06-07 00:47:09.645605,0,-1,-1,0,0,0,56,59,87,100,63,96.40,6,6.00,9.00,-1000.00
2024-06-07 00:47:09.712373,0,-1,-1,0,0,0,56,59,86,100,63,96.44,6,-1.00,14.00,-1010.00
2024-06-07 00:47:09.850419,0,-1,-1,0,0,0,56,59,86,100,63,96.43,6,7.00,17.00,-1003.00
2024-06-07 00:47:09.916413,0,-1,-1,0,0,0,56,59,86,100,63,96.22,6,9.00,11.00,-994.00
2024-06-07 00:47:09.967427,0,-1,-1,0,0,0,56,59,86,100,63,96.32,7,-18.00,26.00,-997.00
2024-06-07 00:47:10.157597,0,-1,-1,0,0,0,56,59,86,100,63,96.40,7,-22.00,21.00,-1003.00
2024-06-07 00:47:10.171413,0,-1,-1,0,0,0,56,59,86,100,63,96.23,7,-1.00,8.00,-1003.00
2024-06-07 00:47:10.365165,0,-1,-1,0,0,0,56,59,85,100,63,95.98,7,0.00,23.00,-993.00
2024-06-07 00:47:10.375805,0,-1,-1,0,0,0,57,59,85,100,63,96.25,7,2.00,9.00,-979.00
2024-06-07 00:47:10.567181,0,-1,-1,0,0,0,57,59,85,100,63,96.40,7,5.00,15.00,-1004.00
2024-06-07 00:47:10.579330,0,-1,-1,0,0,0,57,59,85,100,63,96.45,7,-14.00,19.00,-1006.00
2024-06-07 00:47:10.771949,0,-1,-1,0,0,0,57,59,85,100,63,96.52,7,-7.00,17.00,-1012.00
2024-06-07 00:47:10.783296,0,-1,-1,0,0,0,57,59,85,100,63,96.26,7,5.00,7.00,-1008.00
2024-06-07 00:47:10.976713,0,-1,-1,0,0,0,57,59,85,100,63,96.20,7,0.00,7.00,-1009.00
2024-06-07 00:47:10.987244,0,-1,-1,0,0,0,57,59,85,100,63,96.25,8,-1.00,16.00,-1005.00
2024-06-07 00:47:11.184390,0,-1,-1,0,0,0,57,59,85,100,63,96.09,8,2.00,7.00,-1003.00
2024-06-07 00:47:11.191218,0,-1,-1,0,0,0,57,59,85,100,63,96.16,8,5.00,4.00,-994.00
2024-06-07 00:47:11.386336,0,-1,-1,0,0,0,57,59,85,100,63,96.31,8,-19.00,-5.00,-1001.00
2024-06-07 00:47:11.395202,0,-1,-1,0,0,0,57,60,86,100,63,96.10,8,-10.00,9.00,-992.00
2024-06-07 00:47:11.591105,0,-1,-1,0,0,0,57,60,86,100,63,96.20,8,-9.00,3.00,-996.00
2024-06-07 00:47:11.599222,0,-1,-1,0,0,0,57,60,86,100,62,96.34,8,0.00,8.00,-1005.00
2024-06-07 00:47:11.701555,0,-1,-1,0,0,0,57,60,86,100,62,95.96,8,-4.00,6.00,-998.00
2024-06-07 00:47:11.898374,0,-1,-1,0,0,0,57,60,86,100,62,96.56,8,-16.00,17.00,-1001.00
2024-06-07 00:47:11.905314,0,-1,-1,0,0,0,57,60,86,100,62,96.11,8,2.00,13.00,-1000.00
2024-06-07 00:47:12.103222,0,-1,-1,0,0,0,57,60,86,100,62,96.26,9,16.00,-13.00,-997.00
2024-06-07 00:47:12.109296,0,-1,-1,0,0,0,57,60,85,100,62,96.45,9,-16.00,12.00,-997.00
2024-06-07 00:47:12.308236,0,-1,-1,0,0,0,57,60,86,100,62,95.89,9,-1.00,4.00,-1013.00
2024-06-07 00:47:12.313301,0,-1,-1,0,0,0,57,60,86,100,62,96.29,9,-11.00,6.00,-998.00
2024-06-07 00:47:12.415287,0,-1,-1,0,0,0,58,60,86,100,62,96.07,9,10.00,-9.00,-980.00
2024-06-07 00:47:12.615173,0,-1,-1,0,0,0,58,60,86,100,62,96.28,9,-11.00,14.00,-1003.00
2024-06-07 00:47:12.619401,0,-1,-1,0,0,0,58,60,86,100,62,96.25,9,-1.00,15.00,-1000.00
2024-06-07 00:47:12.819966,0,-1,-1,0,0,0,58,60,86,100,62,96.44,9,-12.00,7.00,-1002.00
2024-06-07 00:47:12.827749,0,-1,-1,0,0,0,58,60,86,100,62,96.02,9,0.00,24.00,-1005.00
2024-06-07 00:47:12.925733,0,-1,-1,0,0,0,58,60,86,100,62,96.34,9,-12.00,28.00,-1020.00
2024-06-07 00:47:13.027445,0,-1,-1,0,0,0,58,60,86,100,62,96.14,10,-26.00,21.00,-981.00
2024-06-07 00:47:13.078224,0,-1,-1,0,0,0,58,60,86,100,62,96.34,10,-3.00,22.00,-986.00
2024-06-07 00:47:13.229426,0,-1,-1,0,0,0,58,60,86,100,62,96.03,10,-3.00,9.00,-991.00
2024-06-07 00:47:13.282097,0,0,-1,0,0,0,58,60,86,100,62,96.22,10,9.00,-8.00,-988.00
2024-06-07 00:47:13.435318,0,-1,-1,0,0,0,59,60,86,100,62,96.23,10,-4.00,9.00,-995.00
2024-06-07 00:47:13.642009,0,-1,-1,0,0,0,59,60,86,100,62,95.76,10,-11.00,7.00,-1002.00
2024-06-07 00:47:13.642189,0,-1,-1,0,0,0,59,60,86,100,61,96.19,10,-11.00,9.00,-986.00
2024-06-07 00:47:13.689893,0,0,-1,0,0,0,59,60,86,100,61,96.39,10,-9.00,16.00,-988.00
2024-06-07 00:47:13.846672,0,-1,-1,0,0,0,59,60,86,100,61,96.10,10,1.00,6.00,-1051.00
2024-06-07 00:47:13.893956,0,-1,-1,0,0,0,59,60,86,100,61,96.33,10,-3.00,13.00,-1085.00
2024-06-07 00:47:14.048606,0,-1,-1,0,0,-1,59,60,87,100,61,96.44,11,-8.00,9.00,-1111.00
2024-06-07 00:47:14.097996,0,-1,-1,0,0,-2,59,60,89,100,61,96.13,11,-4.00,16.00,-1080.00
2024-06-07 00:47:14.253364,0,-1,-1,0,0,-2,59,60,92,100,61,96.48,11,-17.00,12.00,-1074.00
2024-06-07 00:47:14.301902,0,-1,-1,0,0,-3,59,60,96,110,61,96.39,11,-10.00,25.00,-1052.00
2024-06-07 00:47:14.404018,0,-1,-1,0,0,-4,58,61,102,110,61,96.40,11,-6.00,13.00,-1045.00
2024-06-07 00:47:14.564147,0,-1,-1,0,0,-5,58,61,107,120,61,96.41,11,6.00,11.00,-1031.00
2024-06-07 00:47:14.608072,0,-1,-1,0,0,-5,58,61,113,120,61,96.35,11,-2.00,0.00,-1017.00
2024-06-07 00:47:14.765397,0,-1,-1,0,0,-5,58,61,118,130,61,96.46,11,4.00,12.00,-1007.00
2024-06-07 00:47:14.812503,0,-1,-1,0,0,-5,58,61,124,130,61,96.53,11,-2.00,19.00,-1003.00
2024-06-07 00:47:14.970113,0,-1,-1,0,0,-5,58,61,131,140,61,96.63,11,-10.00,17.00,-984.00
2024-06-07 00:47:15.017617,0,-1,-1,0,0,-5,58,61,136,140,61,96.72,12,-14.00,14.00,-990.00
2024-06-07 00:47:15.118199,0,-1,-1,0,0,-5,58,61,142,150,61,97.12,12,4.00,10.00,-981.00
2024-06-07 00:47:15.220383,0,-1,-1,0,0,-5,58,61,147,160,61,96.95,12,14.00,-3.00,-971.00
2024-06-07 00:47:15.322613,0,-1,-1,0,0,-4,58,61,151,160,61,96.78,12,-7.00,16.00,-969.00
2024-06-07 00:47:15.426913,0,-1,-1,0,0,-4,59,62,157,170,61,96.77,12,-10.00,9.00,-969.00
2024-06-07 00:47:15.529594,0,-1,-1,0,0,-4,59,62,160,170,61,96.80,12,10.00,11.00,-971.00
2024-06-07 00:47:15.629356,0,-1,-1,0,0,-3,59,62,163,170,60,96.85,12,-9.00,19.00,-963.00
2024-06-07 00:47:15.729825,0,-1,-1,0,0,-3,59,62,166,180,60,97.02,12,4.00,-5.00,-951.00
2024-06-07 00:47:15.836313,0,-1,-1,0,0,-3,59,62,171,180,60,96.36,12,13.00,-5.00,-969.00
2024-06-07 00:47:15.933820,0,-1,-1,0,0,-2,59,62,173,180,60,96.72,12,17.00,13.00,-975.00
2024-06-07 00:47:16.035877,0,-1,-1,0,0,-2,59,62,174,190,60,97.08,13,-3.00,17.00,-961.00
2024-06-07 00:47:16.200509,0,-1,-1,0,0,-2,59,62,177,190,60,97.04,13,3.00,7.00,-967.00
2024-06-07 00:47:16.239775,0,-1,-1,0,0,-1,59,62,178,190,60,97.06,13,3.00,1.00,-976.00
2024-06-07 00:47:16.406686,0,-1,-1,0,0,-1,59,62,180,190,60,96.97,13,8.00,11.00,-972.00
2024-06-07 00:47:16.443755,0,-1,-1,0,0,-1,59,62,183,190,60,96.74,13,0.00,13.00,-971.00
2024-06-07 00:47:16.609020,0,-1,-1,0,0,-1,59,62,183,200,60,96.92,13,-13.00,1.00,-971.00
2024-06-07 00:47:16.647834,0,-1,-1,0,0,0,59,62,184,200,60,96.95,13,-4.00,18.00,-975.00
2024-06-07 00:47:16.813375,0,-1,-1,0,0,0,59,62,184,200,60,97.00,13,2.00,-3.00,-971.00
2024-06-07 00:47:16.854011,0,-1,-1,0,0,0,59,62,183,200,60,97.00,13,-3.00,0.00,-984.00
2024-06-07 00:47:16.954108,0,-1,-1,0,0,0,59,62,184,200,60,97.00,13,0.00,11.00,-997.00
2024-06-07 00:47:17.120522,0,-1,-1,0,0,0,59,62,183,200,60,97.14,14,-2.00,15.00,-998.00
2024-06-07 00:47:17.120704,0,-1,-1,0,0,0,59,62,183,200,60,97.06,14,0.00,5.00,-993.00
2024-06-07 00:47:17.213189,0,-1,-1,0,0,0,59,62,183,200,60,97.12,14,-16.00,9.00,-987.00
2024-06-07 00:47:17.312989,0,-1,-1,0,0,0,59,62,183,200,60,97.00,14,-10.00,19.00,-1000.00
2024-06-07 00:47:17.415967,0,-1,-1,0,0,0,59,61,183,200,60,97.05,14,0.00,0.00,-998.00
2024-06-07 00:47:17.517869,0,-1,-1,0,0,0,59,61,182,200,60,97.28,14,-3.00,21.00,-1005.00
2024-06-07 00:47:17.620130,0,-1,-1,0,0,0,59,61,183,200,59,96.69,14,1.00,6.00,-995.00
2024-06-07 00:47:17.722745,0,-1,-1,0,0,0,59,61,184,200,59,96.99,14,0.00,2.00,-1006.00
2024-06-07 00:47:17.825112,0,-1,-1,0,0,0,59,61,183,200,59,97.31,14,-8.00,9.00,-996.00
2024-06-07 00:47:17.932023,0,-1,-1,0,0,0,59,61,182,200,59,97.25,14,-3.00,8.00,-1004.00
2024-06-07 00:47:18.025842,0,-1,-1,0,0,0,59,61,183,200,59,96.94,15,3.00,15.00,-1000.00
2024-06-07 00:47:18.144801,0,-1,-1,0,0,0,59,61,183,200,59,96.86,15,-1.00,3.00,-996.00
2024-06-07 00:47:18.232915,0,-1,-1,0,0,0,59,61,183,200,59,96.99,15,-18.00,11.00,-997.00
2024-06-07 00:47:18.332060,0,-1,-1,0,0,0,59,61,184,200,59,96.90,15,25.00,10.00,-1002.00
2024-06-07 00:47:18.433726,0,-1,-1,0,0,0,60,62,182,200,59,97.03,15,1.00,6.00,-999.00
2024-06-07 00:47:18.554070,0,-1,-1,0,0,0,60,62,183,200,59,97.06,15,2.00,8.00,-1003.00
2024-06-07 00:47:18.637727,0,-1,-1,0,0,0,60,62,183,200,59,96.93,15,10.00,11.00,-966.00
2024-06-07 00:47:18.758784,0,-1,-1,0,0,0,60,62,184,200,59,96.71,15,12.00,31.00,-971.00
2024-06-07 00:47:18.842086,0,-1,-1,0,0,0,60,62,182,200,59,97.11,15,-1.00,3.00,-949.00
2024-06-07 00:47:18.964825,0,-1,-1,0,0,1,60,62,179,190,59,97.07,15,12.00,-1.00,-945.00
2024-06-07 00:47:19.047259,0,-1,-1,0,0,1,60,62,178,190,59,96.91,16,2.00,9.00,-972.00
2024-06-07 00:47:19.147769,0,-1,-1,0,0,2,60,62,176,190,59,96.83,16,-13.00,25.00,-983.00
2024-06-07 00:47:19.249817,0,-1,-1,0,0,2,60,62,173,190,59,96.87,16,-17.00,16.00,-988.00
2024-06-07 00:47:19.351945,0,-1,-1,0,0,2,60,62,170,190,59,96.67,16,11.00,0.00,-981.00
2024-06-07 00:47:19.454595,0,-1,-1,0,0,2,60,62,167,180,59,96.74,16,3.00,-1.00,-984.00
2024-06-07 00:47:19.580927,0,-1,-1,0,0,2,60,62,164,180,59,96.88,16,14.00,5.00,-999.00
2024-06-07 00:47:19.658765,0,-1,-1,0,0,2,60,62,162,170,58,96.79,16,-28.00,15.00,-1000.00
2024-06-07 00:47:19.787593,0,-1,-1,0,0,2,60,62,158,170,58,96.64,16,0.00,15.00,-1009.00
2024-06-07 00:47:19.861575,0,-1,-1,0,0,2,60,62,155,170,58,96.79,16,9.00,-10.00,-1008.00
2024-06-07 00:47:19.987579,0,-1,-1,0,0,2,60,62,154,170,58,96.66,17,0.00,3.00,-1000.00
2024-06-07 00:47:20.066728,0,-1,-1,0,0,2,60,62,151,160,58,96.83,17,-13.00,20.00,-1019.00
2024-06-07 00:47:20.195356,0,-1,-1,0,0,2,60,62,148,160,58,96.94,17,-5.00,5.00,-1017.00
2024-06-07 00:47:20.269464,0,-1,-1,0,0,1,60,62,147,160,58,96.37,17,-6.00,5.00,-1013.00
2024-06-07 00:47:20.400126,0,-1,-1,0,0,1,60,62,144,160,58,96.74,17,-9.00,11.00,-1024.00
2024-06-07 00:47:20.473456,0,-1,-1,0,0,1,61,63,143,160,58,96.75,17,0.00,0.00,-1009.00
2024-06-07 00:47:20.604946,0,-1,-1,0,0,1,61,63,141,160,58,96.67,17,2.00,-5.00,-1010.00
2024-06-07 00:47:20.677455,0,-1,-1,0,0,1,61,63,139,150,58,96.68,17,0.00,15.00,-1012.00
2024-06-07 00:47:20.806848,0,-1,-1,0,0,1,61,63,138,150,58,96.60,17,-9.00,12.00,-1016.00
2024-06-07 00:47:20.881829,0,-1,-1,0,0,1,61,63,137,150,58,96.82,17,0.00,-12.00,-1007.00
2024-06-07 00:47:20.983480,0,-1,-1,0,0,0,61,63,136,150,58,96.51,18,0.00,3.00,-1032.00
2024-06-07 00:47:21.034868,0,-1,-1,0,0,0,61,63,135,150,58,96.24,18,6.00,0.00,-1017.00
2024-06-07 00:47:21.136565,0,-1,-1,0,0,0,61,63,135,150,58,96.64,18,22.00,12.00,-1012.00
2024-06-07 00:47:21.321827,0,-1,-1,0,0,0,61,63,134,150,58,96.79,18,-9.00,5.00,-1013.00
2024-06-07 00:47:21.343565,0,-1,-1,0,0,0,61,63,134,150,58,96.63,18,-8.00,7.00,-1016.00
2024-06-07 00:47:21.493914,0,-1,-1,0,0,0,61,63,134,150,58,96.82,18,0.00,5.00,-1021.00
2024-06-07 00:47:21.546226,0,-1,-1,0,0,0,61,63,134,150,58,96.53,18,8.00,-2.00,-1001.00
2024-06-07 00:47:21.646627,0,-1,-1,0,0,0,61,63,134,150,57,96.66,18,1.00,12.00,-998.00
2024-06-07 00:47:21.833253,0,-1,-1,0,0,0,61,63,134,150,57,96.59,18,-18.00,8.00,-994.00
2024-06-07 00:47:21.851316,0,-1,-1,0,0,0,61,63,134,150,57,96.49,18,-2.00,12.00,-980.00
2024-06-07 00:47:22.138547,0,-1,-1,0,0,0,61,63,135,150,57,96.53,19,-15.00,0.00,-992.00
2024-06-07 00:47:22.257474,0,-1,-1,0,0,0,61,63,135,150,57,96.43,19,14.00,-12.00,-999.00
2024-06-07 00:47:22.257690,0,0,-1,0,0,0,61,63,135,150,57,96.81,19,-8.00,-8.00,-1001.00
2024-06-07 00:47:22.258217,0,-1,-1,0,0,0,61,63,135,150,57,96.98,19,2.00,0.00,-998.00
2024-06-07 00:47:22.366907,0,-1,-1,0,0,0,61,63,135,150,57,96.81,19,-5.00,7.00,-995.00
2024-06-07 00:47:22.529317,0,-1,-1,0,0,0,60,63,136,150,57,96.65,19,-1.00,13.00,-998.00
2024-06-07 00:47:22.578550,0,-1,-1,0,0,0,60,63,135,150,57,96.47,19,5.00,26.00,-999.00
2024-06-07 00:47:22.708432,0,-1,-1,0,0,0,60,63,135,150,57,96.47,19,-9.00,18.00,-1001.00
2024-06-07 00:47:22.780497,0,-1,-1,0,0,0,60,63,135,150,57,96.69,19,-13.00,25.00,-1000.00
2024-06-07 00:47:22.891932,0,0,-1,0,0,0,60,63,135,150,57,96.41,19,-11.00,6.00,-999.00
2024-06-07 00:47:22.972164,0,0,-1,0,0,0,60,63,135,150,57,96.73,20,-15.00,3.00,-1005.00
2024-06-07 00:47:23.172713,-2,0,-1,0,0,0,60,63,136,150,57,96.71,20,4.00,1.00,-1015.00
2024-06-07 00:47:23.176120,-7,0,-1,0,0,0,60,63,138,150,57,96.47,20,13.00,11.00,-981.00
2024-06-07 00:47:23.481117,-8,0,-1,1,0,0,60,63,138,150,57,96.56,20,1.00,4.00,-1015.00
2024-06-07 00:47:23.481187,-8,0,-1,3,0,0,60,63,137,150,57,96.38,20,-17.00,6.00,-1005.00
2024-06-07 00:47:23.482350,-7,0,-1,4,0,0,61,64,138,150,57,96.42,20,-40.00,-9.00,-1013.00
2024-06-07 00:47:23.624513,-6,0,-1,5,0,0,61,64,136,150,57,96.53,20,-48.00,1.00,-1011.00
2024-06-07 00:47:23.791133,-6,0,-1,6,0,0,61,64,136,150,56,96.61,20,-30.00,-2.00,-1000.00
2024-06-07 00:47:23.791865,-5,0,-1,6,0,0,61,64,135,150,56,96.54,20,-66.00,20.00,-1006.00
2024-06-07 00:47:23.930417,-5,-1,-1,7,0,0,61,64,135,150,56,96.48,20,-57.00,14.00,-1009.00
2024-06-07 00:47:24.094299,-3,-1,-1,7,0,0,61,64,136,150,56,96.49,21,-37.00,0.00,-999.00
2024-06-07 00:47:24.094390,0,-1,-1,7,0,0,61,64,136,150,56,96.48,21,-60.00,0.00,-1011.00
2024-06-07 00:47:24.248497,1,-1,-1,7,0,0,61,64,136,150,56,96.56,21,-62.00,-11.00,-1001.00
2024-06-07 00:47:24.313917,3,-1,-1,6,0,0,61,64,136,150,56,96.47,21,-42.00,15.00,-1004.00
2024-06-07 00:47:24.401299,3,-1,-1,5,0,0,61,64,136,150,56,96.59,21,-57.00,22.00,-1006.00
2024-06-07 00:47:24.502205,2,-1,-1,4,0,0,62,64,136,150,56,96.67,21,-18.00,12.00,-1008.00
2024-06-07 00:47:24.701133,1,-1,-1,3,0,0,62,64,136,150,56,96.43,21,-34.00,11.00,-987.00
2024-06-07 00:47:24.707600,1,-1,-1,3,0,0,62,64,137,150,56,96.61,21,-29.00,12.00,-994.00
2024-06-07 00:47:24.808300,0,-2,-1,3,0,0,62,64,137,150,56,96.48,21,-22.00,4.00,-996.00
2024-06-07 00:47:25.004889,0,-2,-1,2,0,0,62,64,136,150,56,96.49,21,-22.00,19.00,-1002.00
2024-06-07 00:47:25.016319,1,-3,-1,2,0,0,62,64,137,150,56,96.38,22,-14.00,2.00,-973.00
2024-06-07 00:47:25.114068,2,-3,-1,2,-1,0,62,64,136,150,56,96.72,22,-36.00,-9.00,-1036.00
2024-06-07 00:47:25.311975,4,2,-1,1,-1,0,62,64,136,150,56,96.58,22,-12.00,6.00,-973.00
2024-06-07 00:47:25.312139,2,1,-1,0,0,0,62,64,135,150,56,96.53,22,1.00,-6.00,-1005.00
2024-06-07 00:47:25.369344,1,0,-1,0,0,0,62,64,135,150,56,96.58,22,-10.00,9.00,-997.00
2024-06-07 00:47:25.471082,0,0,-1,0,0,0,62,65,135,150,56,96.68,22,-27.00,11.00,-996.00
2024-06-07 00:47:25.619731,0,-1,-1,0,0,0,62,65,135,150,55,96.37,22,-9.00,-3.00,-1007.00
2024-06-07 00:47:25.676319,0,0,-1,0,0,0,62,65,134,150,55,96.67,22,-1.00,7.00,-997.00
2024-06-07 00:47:25.777107,0,0,-1,0,0,0,62,65,134,150,55,96.40,22,6.00,5.00,-1011.00
2024-06-07 00:47:25.926526,0,0,-1,0,0,0,62,65,134,150,55,96.49,22,-9.00,8.00,-1000.00
2024-06-07 00:47:25.980996,0,0,-1,0,0,0,62,65,134,150,55,96.63,23,5.00,0.00,-1014.00
2024-06-07 00:47:26.131678,0,-1,-1,0,0,0,62,65,134,150,55,96.66,23,0.00,11.00,-996.00
2024-06-07 00:47:26.185188,0,-1,-1,0,0,0,62,65,135,150,55,96.39,23,-7.00,12.00,-999.00
2024-06-07 00:47:26.339592,0,-1,-1,0,0,0,62,65,134,150,55,96.39,23,-29.00,1.00,-984.00
2024-06-07 00:47:26.389108,0,-1,-1,0,0,0,62,65,134,150,55,96.57,23,0.00,5.00,-999.00
2024-06-07 00:47:26.540978,0,-1,-1,0,0,0,63,65,134,150,55,96.50,23,2.00,0.00,-1008.00
2024-06-07 00:47:26.593414,0,-1,-1,0,0,0,63,65,134,150,55,96.64,23,-16.00,16.00,-1004.00
2024-06-07 00:47:26.745719,0,-1,-1,0,0,0,63,65,135,150,55,96.35,23,-7.00,18.00,-1006.00
2024-06-07 00:47:26.796880,0,-1,-1,0,0,0,63,65,134,150,55,96.51,23,-12.00,12.00,-1001.00
2024-06-07 00:47:26.950568,0,-1,-1,0,0,0,63,65,135,150,55,96.64,23,-10.00,11.00,-997.00
2024-06-07 00:47:27.001139,0,0,-1,0,0,0,63,65,135,150,55,96.49,24,1.00,0.00,-990.00
2024-06-07 00:47:27.155229,0,0,-1,0,0,0,63,65,134,150,55,96.53,24,0.00,9.00,-988.00
2024-06-07 00:47:27.205131,0,0,-1,0,0,0,63,65,135,150,55,96.57,24,4.00,8.00,-997.00
2024-06-07 00:47:27.360663,0,-1,-1,0,0,0,63,65,135,150,55,96.48,24,-11.00,3.00,-988.00
2024-06-07 00:47:27.408740,0,-1,-1,0,0,0,63,65,135,150,55,96.31,24,-3.00,10.00,-1002.00
2024-06-07 00:47:27.564664,0,-1,-1,0,0,0,62,65,136,150,55,96.70,24,-10.00,0.00,-998.00
2024-06-07 00:47:27.612717,2,0,-1,0,0,0,62,65,135,150,54,96.53,24,0.00,14.00,-1013.00
2024-06-07 00:47:27.772644,6,0,-1,0,0,0,62,65,137,150,54,96.49,24,-25.00,17.00,-1014.00
2024-06-07 00:47:27.816910,7,0,-1,-2,0,0,62,65,137,150,54,96.73,24,11.00,1.00,-1029.00
2024-06-07 00:47:27.978526,7,0,-1,-3,0,0,62,65,136,150,54,96.69,24,20.00,5.00,-1005.00
2024-06-07 00:47:28.021646,6,-1,-1,-4,0,0,62,65,136,150,54,96.68,25,10.00,1.00,-1000.00
2024-06-07 00:47:28.179102,5,-1,-1,-5,0,0,62,65,137,150,54,96.33,25,3.00,11.00,-1024.00
2024-06-07 00:47:28.224605,5,-1,-1,-6,0,0,62,65,137,150,54,96.59,25,30.00,10.00,-1013.00
2024-06-07 00:47:28.387027,4,-1,-1,-6,0,0,62,65,137,150,54,96.30,25,46.00,6.00,-990.00
2024-06-07 00:47:28.429599,4,-1,-1,-7,0,0,62,65,136,150,54,96.38,25,28.00,0.00,-1004.00
2024-06-07 00:47:28.532032,2,-1,-1,-7,0,0,63,66,135,150,54,96.30,25,49.00,8.00,-995.00
2024-06-07 00:47:28.633940,0,-1,-1,-7,0,0,63,66,136,150,54,96.51,25,67.00,-27.00,-982.00
2024-06-07 00:47:28.734705,-2,0,-1,-6,0,0,63,66,135,150,54,96.65,25,50.00,8.00,-996.00
2024-06-07 00:47:28.898947,-4,0,-1,-5,0,0,63,66,136,150,54,95.96,25,46.00,4.00,-990.00
2024-06-07 00:47:28.938608,-3,0,-1,-4,0,0,63,66,136,150,54,96.57,25,26.00,2.00,-1017.00
2024-06-07 00:47:29.103719,-1,-1,-1,-3,0,0,63,66,136,150,54,96.63,26,18.00,8.00,-998.00
2024-06-07 00:47:29.103801,-1,-1,-1,-3,0,0,63,66,135,150,54,96.50,26,30.00,10.00,-992.00
2024-06-07 00:47:29.193550,-1,-1,-1,-3,0,0,63,66,135,150,54,96.41,26,27.00,23.00,-1006.00
2024-06-07 00:47:29.308521,0,-1,-1,-3,0,0,63,66,135,150,54,96.43,26,16.00,14.00,-1007.00
2024-06-07 00:47:29.397537,0,-1,-1,-2,0,0,63,66,135,150,54,96.77,26,15.00,19.00,-1003.00
2024-06-07 00:47:29.499547,-1,-3,-1,-2,0,0,64,66,136,150,54,96.31,26,22.00,0.00,-1005.00
2024-06-07 00:47:29.613053,-1,-4,-1,-2,0,0,64,66,136,150,53,96.73,26,3.00,5.00,-1008.00
2024-06-07 00:47:29.703648,-1,-3,-1,-1,-1,0,64,66,136,150,53,96.44,26,12.00,14.00,-1008.00
2024-06-07 00:47:29.820583,-2,0,-1,-1,-1,0,64,66,136,150,53,96.95,26,2.00,24.00,-975.00
2024-06-07 00:47:29.907479,-3,3,-1,-1,-1,0,64,66,136,150,53,96.54,26,-13.00,34.00,-995.00
2024-06-07 00:47:30.011141,-1,0,-1,0,0,0,64,66,136,150,53,96.48,27,11.00,15.00,-1017.00
2024-06-07 00:47:30.111651,-1,0,-1,0,0,0,64,66,136,150,53,96.83,27,6.00,0.00,-1004.00
2024-06-07 00:47:30.214221,0,0,-1,0,0,0,64,66,136,150,53,96.64,27,-14.00,11.00,-997.00
2024-06-07 00:47:30.316642,0,-1,-1,0,0,0,64,66,136,150,53,96.56,27,-2.00,10.00,-1011.00
2024-06-07 00:47:30.419481,0,0,-1,0,0,0,64,66,136,150,53,96.62,27,-32.00,25.00,-994.00
2024-06-07 00:47:30.521532,0,0,-1,0,0,0,64,66,136,150,53,96.42,27,-3.00,0.00,-997.00
2024-06-07 00:47:30.622280,0,0,-1,0,0,0,64,66,136,150,53,96.34,27,-5.00,7.00,-1005.00
2024-06-07 00:47:30.739156,0,0,-1,0,0,0,64,66,136,150,53,96.24,27,1.00,16.00,-1000.00
2024-06-07 00:47:30.827994,0,-1,-1,0,0,0,64,66,137,150,53,96.72,27,-6.00,3.00,-996.00
2024-06-07 00:47:30.931558,0,-1,-1,0,0,0,64,66,137,150,53,96.55,27,12.00,-9.00,-979.00
2024-06-07 00:47:31.034124,0,-1,-1,0,0,0,64,66,137,150,53,96.58,28,-2.00,-5.00,-993.00
2024-06-07 00:47:31.131590,0,-1,-1,0,0,0,64,66,137,150,53,96.49,28,8.00,7.00,-984.00
2024-06-07 00:47:31.251120,0,-1,-1,0,0,0,64,66,137,150,53,96.84,28,12.00,-3.00,-1000.00
2024-06-07 00:47:31.335589,0,-1,-1,0,0,0,64,66,136,150,53,96.27,28,-13.00,12.00,-1004.00
2024-06-07 00:47:31.456382,0,-1,-1,0,0,0,64,66,137,150,53,96.46,28,12.00,1.00,-1007.00
2024-06-07 00:47:31.539651,0,-1,-1,0,0,0,64,66,136,150,53,96.45,28,-6.00,4.00,-992.00
2024-06-07 00:47:31.660704,0,-1,-1,0,0,0,64,66,136,150,52,96.62,28,-17.00,4.00,-990.00
2024-06-07 00:47:31.743551,0,-1,-1,0,0,0,64,66,136,150,52,96.53,28,-8.00,-2.00,-1002.00
2024-06-07 00:47:31.865864,0,-1,-1,0,0,0,64,66,136,150,52,96.74,28,0.00,-1.00,-1009.00
2024-06-07 00:47:31.948128,0,-1,-1,0,0,0,64,66,136,150,52,96.69,28,35.00,-21.00,-1012.00
2024-06-07 00:47:32.049444,0,-1,-1,0,0,0,64,66,136,150,52,96.60,29,-11.00,3.00,-996.00
2024-06-07 00:47:32.172575,0,-1,-1,0,0,0,64,66,136,150,52,96.29,29,-4.00,4.00,-994.00
2024-06-07 00:47:32.256736,0,-2,-1,0,0,0,64,66,136,150,52,96.57,29,-2.00,14.00,-1012.00
2024-06-07 00:47:32.355691,0,-6,-1,0,0,0,64,66,137,150,52,96.53,29,10.00,1.00,-1017.00
2024-06-07 00:47:32.480043,0,-6,-1,0,-1,0,64,66,136,150,52,96.40,29,-5.00,15.00,-1010.00
2024-06-07 00:47:32.560680,0,-5,-1,0,-2,0,64,66,135,150,52,96.63,29,-19.00,18.00,-1003.00
2024-06-07 00:47:32.684420,0,-4,-1,0,-3,0,64,66,135,150,52,96.22,29,-11.00,22.00,-991.00
2024-06-07 00:47:32.713525,0,-1,-1,0,-3,0,64,66,135,150,52,96.19,29,-12.00,41.00,-989.00
2024-06-07 00:47:32.890488,0,0,-1,0,-3,0,64,66,136,150,52,96.50,29,-7.00,28.00,-989.00
2024-06-07 00:47:32.917195,0,0,-1,0,-2,0,64,66,135,150,52,96.56,29,11.00,0.00,-996.00
2024-06-07 00:47:33.019877,0,-1,-1,0,-2,0,64,66,135,150,52,96.64,30,-5.00,33.00,-995.00
2024-06-07 00:47:33.197011,0,-1,-1,0,-2,0,64,66,135,150,52,96.64,30,-35.00,32.00,-1001.00
2024-06-07 00:47:33.223635,0,-1,-1,0,-2,0,64,66,135,150,52,96.59,30,-6.00,45.00,-986.00
2024-06-07 00:47:33.401183,0,-1,-1,0,-2,0,64,66,135,150,52,96.54,30,4.00,16.00,-1008.00
2024-06-07 00:47:33.427726,0,-1,-1,0,-2,0,64,66,135,150,52,96.31,30,-7.00,25.00,-1010.00
2024-06-07 00:47:33.606010,0,-1,-1,0,-2,0,65,67,135,150,52,96.38,30,-2.00,24.00,-996.00
2024-06-07 00:47:33.631957,-1,-1,-1,0,-2,0,65,67,135,150,51,96.48,30,-5.00,21.00,-1003.00
2024-06-07 00:47:33.814051,0,-1,-1,0,-2,0,65,67,136,150,51,96.44,30,-18.00,-1.00,-1011.00
2024-06-07 00:47:33.835203,0,-1,-1,0,-2,0,65,67,135,150,51,96.32,30,-32.00,31.00,-1011.00
2024-06-07 00:47:33.937085,0,-1,-1,0,-2,0,65,67,136,150,51,96.65,31,-5.00,25.00,-996.00
2024-06-07 00:47:34.117957,0,0,-1,0,-2,0,65,67,136,150,51,96.58,31,-5.00,13.00,-994.00
2024-06-07 00:47:34.141060,0,0,-1,0,-2,0,65,67,136,150,51,96.42,31,-16.00,39.00,-1016.00
2024-06-07 00:47:34.322736,0,3,-1,0,-1,0,65,67,136,150,51,96.52,31,-1.00,5.00,-996.00
2024-06-07 00:47:34.348872,0,2,-1,0,0,0,65,67,136,150,51,96.47,31,-2.00,27.00,-975.00
2024-06-07 00:47:34.447192,0,0,-1,0,0,0,65,67,137,150,51,96.69,31,-26.00,16.00,-1019.00
2024-06-07 00:47:34.549300,0,0,-1,0,0,0,66,67,136,150,51,96.23,31,-2.00,0.00,-993.00
2024-06-07 00:47:34.732505,0,0,-1,0,0,0,66,67,136,150,51,96.83,31,-18.00,2.00,-996.00
2024-06-07 00:47:34.753208,0,0,-1,0,0,0,66,67,137,150,51,96.47,31,-18.00,1.00,-996.00
2024-06-07 00:47:34.937881,0,0,-1,0,0,0,66,67,137,150,51,96.54,31,-19.00,8.00,-1011.00
2024-06-07 00:47:34.957323,0,0,-1,0,0,0,66,67,137,150,51,96.58,32,-2.00,13.00,-1013.00
2024-06-07 00:47:35.145428,0,0,-1,0,0,0,66,67,137,150,51,96.53,32,-10.00,23.00,-991.00
2024-06-07 00:47:35.161102,0,-1,-1,0,0,0,66,67,137,150,51,96.38,32,-4.00,8.00,-1006.00
2024-06-07 00:47:35.347101,0,-1,-1,0,0,0,66,67,137,150,51,96.37,32,-7.00,17.00,-995.00
2024-06-07 00:47:35.365770,0,-1,-1,0,0,0,66,67,136,150,51,96.60,32,-9.00,6.00,-987.00
2024-06-07 00:47:35.467205,0,-1,-1,0,0,0,66,67,137,150,51,96.35,32,18.00,10.00,-997.00
2024-06-07 00:47:35.654398,0,-1,-1,0,0,0,66,67,137,150,51,96.60,32,-7.00,15.00,-997.00
2024-06-07 00:47:35.671073,0,-1,-1,0,0,0,66,67,137,150,50,96.73,32,1.00,10.00,-1000.00
2024-06-07 00:47:35.858871,0,-1,-1,0,0,0,66,67,137,150,50,96.49,32,8.00,0.00,-1003.00
2024-06-07 00:47:35.874949,0,-1,-1,0,0,0,66,67,137,150,50,96.72,32,11.00,0.00,-995.00
2024-06-07 00:47:36.065018,0,-1,-1,0,0,0,66,67,136,150,50,96.60,33,8.00,3.00,-1000.00
2024-06-07 00:47:36.078954,0,-1,-1,0,0,0,66,67,137,150,50,96.40,33,16.00,1.00,-1012.00
2024-06-07 00:47:36.272117,0,-1,-1,0,0,0,66,67,137,150,50,96.59,33,5.00,14.00,-1004.00
2024-06-07 00:47:36.282994,0,-1,-1,0,0,0,66,67,137,150,50,96.48,33,29.00,0.00,-1001.00
2024-06-07 00:47:36.339234,0,-1,-1,0,0,0,66,67,136,150,50,96.82,33,13.00,11.00,-1003.00
2024-06-07 00:47:36.437003,0,-1,-1,0,0,0,66,67,136,150,50,96.10,33,-17.00,27.00,-1003.00
2024-06-07 00:47:36.589878,0,-1,-1,0,0,0,65,68,137,150,50,96.34,33,5.00,11.00,-1000.00
2024-06-07 00:47:36.691892,0,2,-1,0,0,0,65,68,136,150,50,96.58,33,11.00,-7.00,-1014.00
2024-06-07 00:47:36.742966,0,8,-1,0,0,0,65,68,137,150,50,96.41,33,8.00,-5.00,-981.00
2024-06-07 00:47:36.882636,0,6,-1,0,2,0,65,68,137,150,50,96.59,33,8.00,-16.00,-1026.00
2024-06-07 00:47:36.947107,0,3,-1,0,3,0,65,68,136,150,50,96.71,34,17.00,-14.00,-1011.00
2024-06-07 00:47:37.106044,0,0,-1,0,3,0,65,68,136,150,50,96.41,34,16.00,-19.00,-1015.00
2024-06-07 00:47:37.181353,0,-1,-1,0,3,0,65,68,137,150,50,96.73,34,-2.00,-21.00,-1012.00
2024-06-07 00:47:37.269109,0,-1,-1,0,3,0,65,68,136,150,50,96.31,34,3.00,-8.00,-996.00
2024-06-07 00:47:37.358804,0,-1,-1,0,3,0,65,68,136,150,50,96.61,34,-13.00,-4.00,-988.00
2024-06-07 00:47:37.459078,0,0,-1,0,2,0,65,68,136,150,50,96.52,34,-24.00,10.00,-1000.00
2024-06-07 00:47:37.558818,-1,0,-1,0,2,0,66,68,137,150,50,96.36,34,-11.00,-5.00,-987.00
2024-06-07 00:47:37.805184,-1,0,-1,0,2,0,66,68,136,150,49,96.79,34,-11.00,-9.00,-997.00
2024-06-07 00:47:37.805452,-2,0,-1,0,2,0,66,68,136,150,49,96.60,34,4.00,0.00,-995.00
2024-06-07 00:47:37.894153,-2,0,-1,0,2,0,66,68,136,150,49,96.46,34,0.00,-7.00,-989.00
2024-06-07 00:47:38.034823,-1,0,-1,0,2,0,66,68,136,150,49,96.31,35,-7.00,6.00,-1002.00
2024-06-07 00:47:38.068866,0,-1,-1,0,2,0,66,68,136,150,49,96.33,35,6.00,-18.00,-983.00
2024-06-07 00:47:38.246716,1,-2,-1,0,2,0,66,68,136,150,49,96.65,35,-17.00,-15.00,-1010.00
2024-06-07 00:47:38.370281,0,-5,-1,0,1,0,66,68,135,150,49,96.40,35,-1.00,-15.00,-1010.00
2024-06-07 00:47:38.374666,0,-3,-1,0,0,0,66,68,135,150,49,96.59,35,6.00,0.00,-1013.00
2024-06-07 00:47:38.536458,0,-1,-1,0,0,0,66,68,135,150,49,96.72,35,7.00,2.00,-1003.00
2024-06-07 00:47:38.675475,0,-1,-1,0,0,0,65,68,134,150,49,96.07,35,-2.00,8.00,-1005.00
2024-06-07 00:47:38.681188,0,-1,-1,0,0,0,65,68,134,150,49,96.53,35,-5.00,15.00,-1001.00
2024-06-07 00:47:38.840626,0,-1,-1,0,0,0,65,68,135,150,49,96.41,35,15.00,0.00,-1002.00
2024-06-07 00:47:38.985210,0,-1,-1,0,0,0,65,68,134,150,49,96.38,35,-2.00,15.00,-995.00
2024-06-07 00:47:38.986892,0,-1,-1,0,0,0,65,68,134,150,49,96.60,36,-9.00,18.00,-1002.00
2024-06-07 00:47:39.146388,0,-1,-1,0,0,0,65,68,135,150,49,96.29,36,-10.00,-2.00,-1006.00
2024-06-07 00:47:39.290091,0,-1,-1,0,0,0,65,68,135,150,49,96.63,36,-1.00,8.00,-1001.00
2024-06-07 00:47:39.293125,0,-1,-1,0,0,0,65,68,135,150,49,96.34,36,3.00,7.00,-997.00
2024-06-07 00:47:39.453584,0,-1,-1,0,0,0,65,68,135,150,49,96.50,36,-7.00,29.00,-989.00
2024-06-07 00:47:39.596984,-1,-1,-1,0,0,0,65,68,135,150,49,96.49,36,-12.00,4.00,-995.00
2024-06-07 00:47:39.602620,-1,-1,-1,0,0,0,66,69,135,150,49,96.45,36,-2.00,9.00,-1007.00
2024-06-07 00:47:39.761280,0,-1,-1,0,0,0,66,69,135,150,48,96.55,36,-7.00,19.00,-1003.00
2024-06-07 00:47:39.816711,0,0,-1,0,0,0,66,69,135,150,48,96.55,36,8.00,21.00,-1001.00
2024-06-07 00:47:39.853599,0,-1,-1,0,0,0,66,69,136,150,48,96.62,36,-3.00,15.00,-1007.00
2024-06-07 00:47:40.057136,0,-1,-1,0,0,0,66,69,135,150,48,96.63,37,-4.00,9.00,-985.00
2024-06-07 00:47:40.057754,0,-1,-1,0,0,0,66,69,136,150,48,96.29,37,-16.00,24.00,-1005.00
2024-06-07 00:47:40.160278,0,-1,-1,0,0,0,66,69,137,150,48,96.40,37,-1.00,7.00,-1000.00
2024-06-07 00:47:40.262572,0,-1,-1,0,0,0,66,69,136,150,48,96.22,37,-1.00,20.00,-995.00
2024-06-07 00:47:40.363927,0,-1,-1,0,0,0,66,69,136,150,48,96.50,37,-19.00,2.00,-995.00
2024-06-07 00:47:40.466505,0,-1,-1,0,0,0,66,69,137,150,48,96.79,37,-5.00,9.00,-987.00
2024-06-07 00:47:40.568787,0,-1,-1,0,0,0,66,69,137,150,48,96.33,37,0.00,22.00,-991.00
2024-06-07 00:47:40.675532,0,-1,0,0,0,0,66,69,137,150,48,96.31,37,33.00,-13.00,-990.00
2024-06-07 00:47:40.775639,0,-1,5,0,0,0,66,69,136,150,48,96.40,37,8.00,15.00,-1003.00
2024-06-07 00:47:40.875780,0,-1,11,0,0,0,66,69,137,150,48,96.66,37,2.00,15.00,-984.00
2024-06-07 00:47:40.980827,0,-1,17,0,0,0,66,69,136,150,48,96.28,38,-9.00,22.00,-1006.00
2024-06-07 00:47:41.078799,0,-1,23,0,0,0,66,69,137,150,48,96.42,38,0.00,23.00,-1007.00
2024-06-07 00:47:41.183223,-1,-1,29,0,0,0,66,69,136,150,48,96.29,38,-22.00,33.00,-1001.00
2024-06-07 00:47:41.281431,-1,-1,35,0,0,0,66,69,137,150,48,96.19,38,-7.00,14.00,-996.00
2024-06-07 00:47:41.388045,0,-1,41,0,0,0,66,69,137,150,48,96.50,38,-5.00,15.00,-999.00
2024-06-07 00:47:41.486501,0,-1,46,0,0,0,66,69,137,150,48,96.18,38,-17.00,11.00,-992.00
2024-06-07 00:47:41.594846,0,-1,52,0,0,0,67,69,137,150,47,96.27,38,2.00,22.00,-986.00
2024-06-07 00:47:41.690446,0,-1,58,0,0,0,67,69,137,150,47,96.40,38,-12.00,25.00,-1017.00
2024-06-07 00:47:41.797922,0,-1,64,0,0,0,67,69,137,150,47,96.19,38,11.00,24.00,-996.00
2024-06-07 00:47:41.898315,0,-1,70,0,0,0,67,69,137,150,47,96.44,38,1.00,34.00,-1007.00
2024-06-07 00:47:41.996405,0,-1,76,0,0,0,67,69,137,150,47,96.19,39,11.00,19.00,-997.00
2024-06-07 00:47:42.104970,0,-1,82,0,0,0,67,69,137,150,47,96.65,39,15.00,4.00,-1004.00
2024-06-07 00:47:42.200346,0,-1,88,0,0,0,67,69,137,150,47,96.32,39,14.00,14.00,-999.00
2024-06-07 00:47:42.309568,0,-1,94,0,0,0,67,69,136,150,47,96.38,39,15.00,25.00,-1020.00
2024-06-07 00:47:42.404401,0,-1,100,0,0,0,67,69,136,150,47,96.18,39,5.00,11.00,-1001.00
2024-06-07 00:47:42.506314,0,-1,106,0,0,0,67,69,136,150,47,96.27,39,1.00,15.00,-995.00
2024-06-07 00:47:42.608632,0,-1,112,0,0,0,67,70,136,150,47,96.39,39,11.00,4.00,-995.00
2024-06-07 00:47:42.719138,0,-1,119,0,0,0,67,70,135,150,47,97.11,39,-2.00,20.00,-1003.00
2024-06-07 00:47:42.812247,0,-1,125,0,0,0,67,70,136,150,47,96.72,39,3.00,11.00,-1008.00
2024-06-07 00:47:42.923920,0,-1,131,0,0,0,67,70,136,150,47,96.37,39,13.00,8.00,-992.00
2024-06-07 00:47:43.018722,0,-1,137,0,0,0,67,70,136,150,47,96.60,40,10.00,8.00,-1006.00
2024-06-07 00:47:43.119119,0,0,143,0,0,0,67,70,136,150,47,96.35,40,-11.00,21.00,-1018.00
2024-06-07 00:47:43.220569,0,0,149,0,0,0,67,70,136,150,47,96.52,40,0.00,14.00,-1001.00
2024-06-07 00:47:43.322714,0,0,155,0,0,0,67,70,136,150,47,96.58,40,9.00,22.00,-997.00
2024-06-07 00:47:43.373401,0,0,161,0,0,0,67,70,136,150,47,96.69,40,1.00,12.00,-994.00
2024-06-07 00:47:43.538534,0,0,167,0,0,0,67,70,136,150,47,96.28,40,9.00,3.00,-990.00
2024-06-07 00:47:43.577448,0,0,173,0,0,0,67,70,136,150,46,96.54,40,16.00,7.00,-997.00
2024-06-07 00:47:43.743099,0,0,179,0,0,0,67,70,136,150,46,96.12,40,32.00,3.00,-999.00
2024-06-07 00:47:43.781170,0,0,-174,0,0,0,67,70,136,150,46,96.31,40,9.00,1.00,-1000.00
2024-06-07 00:47:43.950475,0,0,-168,0,0,0,67,70,136,150,46,96.21,40,8.00,11.00,-996.00
2024-06-07 00:47:43.985518,0,0,-162,0,0,0,67,70,136,150,46,96.52,41,12.00,-6.00,-984.00
2024-06-07 00:47:44.152721,0,0,-156,0,0,0,67,70,136,150,46,96.40,41,10.00,9.00,-1024.00
2024-06-07 00:47:44.189079,0,0,-151,0,0,0,67,70,136,150,46,96.30,41,16.00,1.00,-991.00
2024-06-07 00:47:44.291229,0,0,-145,0,0,0,67,70,136,150,46,96.13,41,12.00,-4.00,-984.00
2024-06-07 00:47:44.459862,0,0,-139,0,0,0,67,70,136,150,46,96.23,41,-16.00,12.00,-990.00
2024-06-07 00:47:44.495153,0,0,-132,0,0,0,67,70,136,150,46,96.68,41,2.00,9.00,-1003.00
2024-06-07 00:47:44.666410,0,0,-126,0,0,0,68,70,135,150,46,96.52,41,18.00,16.00,-1012.00
2024-06-07 00:47:44.699118,0,0,-120,0,0,0,68,70,136,150,46,96.59,41,-10.00,20.00,-993.00
2024-06-07 00:47:44.869774,0,0,-114,0,0,0,68,70,136,150,46,96.22,41,-16.00,8.00,-1010.00
2024-06-07 00:47:44.903106,0,0,-108,0,0,0,68,70,135,150,46,96.43,41,16.00,-8.00,-997.00
2024-06-07 00:47:45.005092,0,0,-102,0,0,0,68,70,135,150,46,96.42,42,6.00,-19.00,-1012.00
2024-06-07 00:47:45.178261,0,0,-96,0,0,0,68,70,135,150,46,96.38,42,-4.00,12.00,-1003.00
2024-06-07 00:47:45.209083,0,0,-90,0,0,0,68,70,135,150,46,96.44,42,-5.00,-13.00,-980.00
2024-06-07 00:47:45.381428,0,0,-84,0,0,0,68,70,135,150,46,96.52,42,19.00,3.00,-1019.00
2024-06-07 00:47:45.413065,0,0,-78,0,0,0,68,70,134,150,46,96.31,42,-27.00,15.00,-1001.00
2024-06-07 00:47:45.515064,0,0,-72,0,0,0,68,70,135,150,46,96.54,42,0.00,1.00,-1006.00
2024-06-07 00:47:45.689968,0,0,-66,0,0,0,68,70,135,150,45,96.53,42,-18.00,34.00,-1002.00
2024-06-07 00:47:45.719187,0,0,-60,0,0,0,68,70,134,150,45,96.31,42,3.00,1.00,-1003.00
2024-06-07 00:47:45.893413,0,0,-54,0,0,0,68,70,136,150,45,96.35,42,12.00,10.00,-993.00
2024-06-07 00:47:45.922976,0,0,-48,0,0,0,68,70,135,150,45,96.40,42,6.00,3.00,-1009.00
2024-06-07 00:47:46.099518,0,0,-42,0,0,0,68,70,135,150,45,96.49,43,0.00,7.00,-992.00
2024-06-07 00:47:46.127004,0,0,-36,0,0,0,68,70,135,150,45,96.30,43,-24.00,4.00,-984.00
2024-06-07 00:47:46.303061,0,0,-30,0,0,0,68,70,135,150,45,96.36,43,13.00,-15.00,-998.00
2024-06-07 00:47:46.331712,0,0,-24,0,0,0,68,70,135,150,45,96.50,43,8.00,12.00,-988.00
2024-06-07 00:47:46.510124,0,0,-18,0,0,0,68,70,136,150,45,96.61,43,-15.00,-5.00,-1005.00
2024-06-07 00:47:46.535358,0,0,-14,0,0,0,68,70,135,150,45,96.39,43,9.00,-1.00,-999.00
2024-06-07 00:47:46.636947,0,0,-11,0,0,0,69,71,135,150,45,96.15,43,-15.00,10.00,-1001.00
2024-06-07 00:47:46.739028,0,0,-8,0,0,0,69,71,136,150,45,96.37,43,-26.00,13.00,-1011.00
2024-06-07 00:47:46.918665,0,0,-7,0,0,0,69,71,136,150,45,96.50,43,-6.00,13.00,-997.00
2024-06-07 00:47:46.942938,0,0,-5,0,0,0,69,71,136,150,45,96.37,43,-31.00,5.00,-987.00
2024-06-07 00:47:47.122080,0,0,-4,0,0,0,69,71,136,150,45,96.05,44,-7.00,4.00,-995.00
2024-06-07 00:47:47.154000,0,0,-3,0,0,0,69,71,136,150,45,96.34,44,0.00,5.00,-985.00
2024-06-07 00:47:47.249219,0,0,-3,0,0,0,69,71,136,150,45,96.41,44,-19.00,4.00,-994.00
2024-06-07 00:47:47.430567,0,0,-3,0,0,0,69,71,135,150,45,96.45,44,-1.00,11.00,-994.00
2024-06-07 00:47:47.453181,0,0,-3,0,0,0,69,71,135,150,45,96.37,44,-31.00,-14.00,-1004.00
2024-06-07 00:47:47.504106,0,0,-3,0,0,0,69,71,136,150,45,96.26,44,5.00,-2.00,-1007.00
2024-06-07 00:47:47.657152,0,0,-3,0,0,0,69,70,135,150,44,96.10,44,-11.00,2.00,-992.00
2024-06-07 00:47:47.840193,0,0,-3,0,0,0,69,70,135,150,44,96.36,44,-1.00,10.00,-1001.00
2024-06-07 00:47:47.840385,0,0,-3,0,0,0,69,70,135,150,44,96.54,44,8.00,11.00,-1015.00
2024-06-07 00:47:47.911949,0,-1,-3,0,0,0,69,70,135,150,44,96.42,44,-10.00,14.00,-992.00
2024-06-07 00:47:48.045416,0,0,-3,0,0,0,69,70,135,150,44,96.40,45,-17.00,2.00,-994.00
2024-06-07 00:47:48.116039,0,0,-3,0,0,0,69,70,135,150,44,96.56,45,16.00,2.00,-998.00
2024-06-07 00:47:48.249756,0,0,-3,0,0,0,69,70,135,150,44,96.33,45,-13.00,1.00,-1017.00
2024-06-07 00:47:48.324539,0,0,-3,0,0,0,69,70,135,150,44,96.54,45,-2.00,14.00,-1006.00
2024-06-07 00:47:48.421993,0,0,-3,0,0,0,69,70,136,150,44,96.19,45,-3.00,39.00,-1014.00
2024-06-07 00:47:48.523977,0,0,-3,0,0,0,69,70,135,150,44,96.19,45,-10.00,-2.00,-1007.00
2024-06-07 00:47:48.660048,0,0,-3,0,0,0,68,71,136,150,44,96.37,45,-5.00,-2.00,-996.00
2024-06-07 00:47:48.727882,0,0,-3,0,0,0,68,71,136,150,44,96.30,45,-11.00,16.00,-1007.00
2024-06-07 00:47:48.869073,0,0,-3,0,0,0,68,71,136,150,44,96.45,45,-13.00,8.00,-999.00
2024-06-07 00:47:48.931907,0,0,-3,0,0,0,68,71,136,150,44,96.05,45,-23.00,20.00,-991.00
2024-06-07 00:47:49.071207,0,0,-3,0,0,0,68,71,135,150,44,96.56,46,-2.00,14.00,-971.00
2024-06-07 00:47:49.136478,0,-1,-3,0,0,0,68,71,136,150,44,96.45,46,-2.00,9.00,-991.00
2024-06-07 00:47:49.239798,0,-1,-3,0,0,0,68,71,135,150,44,96.26,46,-9.00,-8.00,-993.00
2024-06-07 00:47:49.339660,0,-1,-3,0,0,0,68,71,135,150,44,96.44,46,0.00,0.00,-1001.00
2024-06-07 00:47:49.477249,0,0,-8,0,0,0,68,71,135,150,44,96.28,46,-13.00,26.00,-996.00
2024-06-07 00:47:49.543590,0,0,-14,0,0,0,68,71,136,150,44,96.41,46,2.00,17.00,-1013.00
2024-06-07 00:47:49.646003,0,-1,-20,0,0,0,69,71,135,150,43,96.60,46,0.00,21.00,-991.00
2024-06-07 00:47:49.784436,0,-1,-32,0,0,0,69,71,135,150,43,96.49,46,-8.00,19.00,-996.00
2024-06-07 00:47:49.849625,0,-1,-38,0,0,0,69,71,135,150,43,96.20,46,9.00,13.00,-998.00
2024-06-07 00:47:49.989239,0,0,-44,0,0,0,69,71,135,150,43,96.37,47,-15.00,-10.00,-1002.00
2024-06-07 00:47:50.053776,0,0,-50,0,0,0,69,71,135,150,43,96.50,47,-23.00,11.00,-990.00
2024-06-07 00:47:50.195108,0,0,-56,0,0,0,69,71,136,150,43,96.48,47,-1.00,1.00,-1009.00
2024-06-07 00:47:50.257618,0,0,-61,0,0,0,69,71,135,150,43,96.58,47,-1.00,4.00,-1005.00
2024-06-07 00:47:50.399940,0,0,-67,0,0,0,69,71,135,150,43,96.18,47,-14.00,31.00,-1008.00
2024-06-07 00:47:50.461744,0,0,-73,0,0,0,69,71,136,150,43,96.47,47,15.00,27.00,-1020.00
2024-06-07 00:47:50.606629,0,0,-79,0,0,0,69,71,135,150,43,96.03,47,4.00,12.00,-1008.00
2024-06-07 00:47:50.665650,0,0,-85,0,0,0,69,72,135,150,43,96.23,47,7.00,2.00,-1003.00
2024-06-07 00:47:50.811079,0,0,-92,0,0,0,69,72,136,150,43,96.47,47,1.00,12.00,-1010.00
2024-06-07 00:47:50.869493,0,0,-98,0,0,0,69,72,136,150,43,96.56,47,-12.00,10.00,-998.00
2024-06-07 00:47:50.971514,0,0,-104,0,0,0,69,72,136,150,43,96.05,48,23.00,-14.00,-998.00
2024-06-07 00:47:51.117203,0,0,-110,0,0,0,69,72,136,150,43,96.16,48,2.00,0.00,-1003.00
2024-06-07 00:47:51.175503,0,0,-116,0,0,0,69,72,136,150,43,96.24,48,-13.00,10.00,-996.00
2024-06-07 00:47:51.323340,0,0,-122,0,0,0,69,72,137,150,43,96.47,48,0.00,0.00,-991.00
2024-06-07 00:47:51.379481,0,0,-128,0,0,0,69,72,137,150,43,95.95,48,-12.00,7.00,-1001.00
2024-06-07 00:47:51.430477,0,0,-133,0,0,0,69,72,137,150,43,96.24,48,19.00,4.00,-1004.00
2024-06-07 00:47:51.532521,1,0,-139,0,0,0,69,72,137,150,43,96.41,48,-9.00,9.00,-993.00
2024-06-07 00:47:51.729916,1,0,-145,0,0,0,70,71,137,150,42,96.29,48,5.00,15.00,-1003.00
2024-06-07 00:47:51.736539,1,0,-151,0,0,0,70,71,137,150,42,96.42,48,-3.00,-1.00,-986.00
2024-06-07 00:47:51.935984,1,0,-157,0,0,0,70,71,137,150,42,96.11,48,-9.00,15.00,-1005.00
2024-06-07 00:47:51.940803,0,0,-163,0,0,0,70,71,137,150,42,96.17,49,6.00,14.00,-1005.00
2024-06-07 00:47:52.109809,0,0,-169,0,0,0,70,71,138,150,42,96.52,49,14.00,5.00,-1004.00
2024-06-07 00:47:52.144442,0,0,-175,0,0,0,70,71,137,150,42,96.22,49,9.00,10.00,-999.00
2024-06-07 00:47:52.357282,0,0,178,0,0,0,70,71,137,150,42,96.02,49,27.00,18.00,-1010.00
2024-06-07 00:47:52.357999,1,0,172,0,0,0,70,71,138,150,42,96.68,49,30.00,12.00,-1016.00
2024-06-07 00:47:52.465302,1,0,166,0,0,0,70,71,138,150,42,96.33,49,8.00,8.00,-997.00
2024-06-07 00:47:52.552428,1,0,160,0,0,0,70,71,137,150,42,96.22,49,15.00,23.00,-1003.00
2024-06-07 00:47:52.689632,0,0,154,0,0,0,69,72,137,150,42,96.03,49,8.00,37.00,-1005.00
2024-06-07 00:47:52.790067,0,0,148,0,0,0,69,72,137,150,42,96.53,49,15.00,25.00,-1003.00
2024-06-07 00:47:52.877398,0,-1,142,0,0,0,69,72,137,150,42,96.53,49,18.00,21.00,-994.00
2024-06-07 00:47:52.960733,0,0,136,0,0,0,69,72,137,150,42,96.38,50,5.00,10.00,-992.00
2024-06-07 00:47:53.095485,1,0,130,0,0,0,69,72,137,150,42,96.15,50,16.00,7.00,-1008.00
2024-06-07 00:47:53.172183,1,0,124,0,0,0,69,72,137,150,42,96.29,50,-13.00,40.00,-1006.00
2024-06-07 00:47:53.300186,0,0,118,0,0,0,69,72,136,150,42,96.43,50,7.00,18.00,-999.00
2024-06-07 00:47:53.443272,0,0,112,0,0,0,69,72,137,150,42,96.16,50,23.00,14.00,-1010.00
2024-06-07 00:47:53.470895,0,0,106,0,0,0,69,72,135,150,42,96.70,50,0.00,19.00,-1004.00
2024-06-07 00:47:53.586804,0,0,100,0,0,0,69,72,135,150,42,96.38,50,-23.00,33.00,-1016.00
2024-06-07 00:47:53.731393,0,0,94,0,0,0,69,72,136,150,41,96.41,50,-27.00,25.00,-1006.00
2024-06-07 00:47:53.777477,0,-1,88,0,0,0,69,72,136,150,41,96.38,50,3.00,7.00,-1012.00
2024-06-07 00:47:53.891446,0,0,82,0,0,0,69,72,136,150,41,96.24,50,-12.00,16.00,-999.00
2024-06-07 00:47:54.045713,0,0,76,0,0,0,69,72,136,150,41,96.36,51,-30.00,7.00,-1008.00
2024-06-07 00:47:54.085817,0,0,70,0,0,0,69,72,136,150,41,96.32,51,5.00,23.00,-992.00
2024-06-07 00:47:54.187932,0,0,64,0,0,0,69,72,136,150,41,95.91,51,7.00,27.00,-998.00
2024-06-07 00:47:54.286272,0,-1,58,0,0,0,69,72,136,150,41,96.48,51,-3.00,28.00,-1006.00
2024-06-07 00:47:54.394934,0,-1,52,0,0,0,69,72,136,150,41,96.39,51,-3.00,2.00,-977.00
2024-06-07 00:47:54.490300,0,-1,46,0,0,0,69,72,137,150,41,96.07,51,-4.00,26.00,-1007.00
2024-06-07 00:47:54.598967,0,-1,40,0,0,0,69,72,136,150,41,96.25,51,-25.00,22.00,-1001.00
2024-06-07 00:47:54.694224,0,-1,34,0,0,0,69,72,137,150,41,95.97,51,-7.00,27.00,-1002.00
2024-06-07 00:47:54.802901,0,-1,28,0,0,0,69,72,136,150,41,96.45,51,10.00,5.00,-1002.00
2024-06-07 00:47:54.898378,0,-1,22,0,0,0,69,72,136,150,41,96.17,51,-3.00,23.00,-1009.00
2024-06-07 00:47:55.000126,0,-1,16,0,0,0,69,72,136,150,41,96.40,52,3.00,22.00,-993.00
2024-06-07 00:47:55.052624,0,-1,12,0,0,0,69,72,136,150,41,96.43,52,-32.00,7.00,-991.00
2024-06-07 00:47:55.214159,0,-1,8,0,0,0,69,72,135,150,41,96.17,52,2.00,25.00,-1007.00
2024-06-07 00:47:55.258979,0,-1,5,0,0,0,69,72,136,150,41,96.35,52,-8.00,6.00,-991.00
2024-06-07 00:47:55.357168,0,0,3,0,0,0,69,72,135,150,41,96.12,52,-13.00,21.00,-1022.00
2024-06-07 00:47:55.522163,0,0,2,0,0,0,69,72,135,150,41,96.34,52,-28.00,18.00,-1012.00
2024-06-07 00:47:55.561412,0,0,0,0,0,0,69,72,135,150,41,96.26,52,1.00,13.00,-1005.00
2024-06-07 00:47:55.663091,0,0,0,0,0,0,69,72,135,150,40,96.38,52,7.00,32.00,-1004.00
2024-06-07 00:47:55.825774,0,0,0,0,0,0,69,72,134,150,40,96.14,52,2.00,17.00,-987.00
2024-06-07 00:47:55.867126,0,0,-1,0,0,0,69,72,135,150,40,96.03,52,-19.00,18.00,-1005.00
2024-06-07 00:47:56.030800,0,0,-1,0,0,0,69,72,135,150,40,96.19,53,-11.00,16.00,-1012.00
2024-06-07 00:47:56.071549,0,0,-1,0,0,0,69,72,135,150,40,96.26,53,-9.00,40.00,-1015.00
2024-06-07 00:47:56.237629,0,0,-1,0,0,0,69,72,135,150,40,96.31,53,-16.00,8.00,-1001.00
2024-06-07 00:47:56.275236,0,0,-1,0,0,0,69,72,135,150,40,95.97,53,6.00,15.00,-998.00
2024-06-07 00:47:56.440146,0,0,-1,0,0,0,69,72,135,150,40,96.28,53,-12.00,6.00,-998.00
2024-06-07 00:47:56.478976,0,0,-1,0,0,0,69,72,135,150,40,96.39,53,-15.00,7.00,-978.00
2024-06-07 00:47:56.646693,0,0,-1,0,0,0,69,72,136,150,40,96.38,53,14.00,-1.00,-1005.00
2024-06-07 00:47:56.683053,0,0,-1,0,0,0,70,73,136,150,40,96.30,53,-2.00,22.00,-1001.00
2024-06-07 00:47:56.850028,0,0,-1,0,0,0,70,73,136,150,40,95.95,53,-9.00,22.00,-994.00
2024-06-07 00:47:56.887174,0,0,-1,0,0,0,70,73,136,150,40,96.18,53,-5.00,-2.00,-988.00
2024-06-07 00:47:56.989166,0,0,-1,0,0,0,70,73,136,150,40,96.33,54,-25.00,30.00,-997.00
2024-06-07 00:47:57.157449,0,0,-1,0,0,0,70,73,136,150,40,96.07,54,3.00,-10.00,-1011.00
2024-06-07 00:47:57.194043,0,0,-1,0,0,0,70,73,137,150,40,96.02,54,10.00,24.00,-1015.00
2024-06-07 00:47:57.363436,0,0,-1,0,0,0,70,73,137,150,40,96.34,54,13.00,3.00,-1011.00
2024-06-07 00:47:57.397226,0,0,-1,0,0,0,70,73,137,150,40,96.19,54,14.00,21.00,-988.00
2024-06-07 00:47:57.568552,0,-1,-1,0,0,0,70,73,137,150,40,95.95,54,-2.00,9.00,-992.00
2024-06-07 00:47:57.601898,0,0,-1,0,0,0,70,73,137,150,39,96.08,54,-7.00,3.00,-1008.00
2024-06-07 00:47:57.773025,0,0,-1,0,0,0,70,72,137,150,39,96.29,54,3.00,-4.00,-1015.00
2024-06-07 00:47:57.805083,0,0,-1,0,0,0,70,72,137,150,39,96.32,54,12.00,20.00,-999.00
2024-06-07 00:47:57.906991,0,0,-1,0,0,0,70,72,138,150,39,96.40,54,-12.00,7.00,-1002.00
2024-06-07 00:47:58.078689,0,0,-1,0,0,0,70,72,137,150,39,96.47,55,6.00,-3.00,-1003.00
2024-06-07 00:47:58.111046,0,0,-1,0,0,0,70,72,137,150,39,96.40,55,1.00,16.00,-995.00
2024-06-07 00:47:58.283482,0,0,-1,0,0,0,70,72,137,150,39,96.22,55,-26.00,13.00,-992.00
2024-06-07 00:47:58.315525,0,0,-1,0,0,0,70,72,138,150,39,96.40,55,-15.00,7.00,-992.00
2024-06-07 00:47:58.491264,0,0,-1,0,0,0,70,72,137,150,39,96.10,55,-13.00,0.00,-1006.00
2024-06-07 00:47:58.522007,0,0,-1,0,0,0,70,72,137,150,39,96.19,55,-25.00,33.00,-1015.00
2024-06-07 00:47:58.622032,0,0,-1,0,0,0,70,72,137,150,39,96.41,55,6.00,0.00,-987.00
2024-06-07 00:47:58.797028,0,0,-1,0,0,0,70,72,138,150,39,96.28,55,-16.00,11.00,-990.00
2024-06-07 00:47:58.797164,0,0,-1,0,0,0,70,72,137,150,39,96.14,55,-11.00,4.00,-999.00
2024-06-07 00:47:58.879150,0,0,-1,0,0,0,70,72,137,150,39,95.92,55,9.00,12.00,-1001.00
2024-06-07 00:47:58.981558,0,0,-1,0,0,0,70,72,138,150,39,96.20,56,1.00,4.00,-1001.00
2024-06-07 00:47:59.080080,0,0,-1,0,0,0,70,72,137,150,39,96.04,56,10.00,4.00,-999.00
2024-06-07 00:47:59.204966,0,0,-1,0,0,0,70,72,137,150,39,96.11,56,-13.00,6.00,-1002.00
2024-06-07 00:47:59.284130,0,0,-1,0,0,0,70,72,137,150,39,96.10,56,-29.00,26.00,-989.00
2024-06-07 00:47:59.409852,0,-1,-1,0,0,0,70,72,137,150,39,96.04,56,21.00,-5.00,-987.00
2024-06-07 00:47:59.488055,0,-1,-1,0,0,0,70,72,136,150,39,96.03,56,6.00,1.00,-999.00
2024-06-07 00:47:59.590915,0,-1,-1,0,0,0,70,72,137,150,38,96.06,56,0.00,19.00,-1008.00
2024-06-07 00:47:59.718502,0,0,-1,0,0,0,70,72,135,150,38,96.28,56,10.00,22.00,-991.00
2024-06-07 00:47:59.793937,0,0,-1,0,0,0,70,72,136,150,38,96.43,56,14.00,0.00,-998.00
2024-06-07 00:47:59.924999,0,0,-1,0,0,0,70,72,136,150,38,96.33,56,-15.00,9.00,-1001.00
2024-06-07 00:47:59.997856,0,0,-1,0,0,0,70,72,135,150,38,96.16,57,11.00,9.00,-1003.00
2024-06-07 00:48:00.126587,0,0,-1,0,0,0,70,72,136,150,38,96.13,57,14.00,9.00,-1010.00
2024-06-07 00:48:00.201973,0,-1,-1,0,0,0,70,72,136,150,38,96.06,57,0.00,9.00,-1001.00
2024-06-07 00:48:00.332299,0,-1,-1,0,0,0,70,72,136,150,38,96.26,57,6.00,3.00,-1004.00
2024-06-07 00:48:00.405889,0,-1,-1,0,0,0,70,72,135,150,38,96.04,57,0.00,12.00,-988.00
2024-06-07 00:48:00.539608,0,-1,-1,0,0,0,70,72,136,150,38,96.27,57,-4.00,1.00,-985.00
2024-06-07 00:48:00.610339,0,0,-1,0,0,0,70,72,135,150,38,96.00,57,-7.00,27.00,-995.00
2024-06-07 00:48:00.740940,0,0,-1,0,0,0,70,72,135,150,38,96.38,57,-5.00,3.00,-1003.00
2024-06-07 00:48:00.813909,0,-1,-1,0,0,0,70,72,135,150,38,96.02,57,-5.00,19.00,-1005.00
2024-06-07 00:48:00.915628,0,-1,-1,0,0,0,70,72,136,150,38,96.12,57,-2.00,-1.00,-986.00
2024-06-07 00:48:01.017872,0,-1,-1,0,0,0,70,72,136,150,38,96.12,58,19.00,-4.00,-994.00
2024-06-07 00:48:01.151188,0,-1,-1,0,0,0,70,72,136,150,38,96.20,58,1.00,5.00,-998.00
2024-06-07 00:48:01.222122,0,-1,-1,0,0,0,70,72,136,150,38,96.28,58,-8.00,21.00,-1002.00
2024-06-07 00:48:01.357040,0,-1,-1,0,0,0,70,72,136,150,38,96.20,58,14.00,36.00,-1009.00
2024-06-07 00:48:01.425945,0,-1,-1,0,0,0,70,72,136,150,38,96.06,58,-2.00,22.00,-994.00
2024-06-07 00:48:01.560023,0,-1,-1,0,0,0,70,72,136,150,38,95.98,58,13.00,23.00,-1012.00
2024-06-07 00:48:01.630848,0,-1,-1,0,0,0,70,72,136,150,37,96.03,58,17.00,6.00,-998.00
2024-06-07 00:48:01.764932,0,-1,-1,0,0,0,71,73,136,150,37,96.24,58,-2.00,23.00,-1005.00
2024-06-07 00:48:01.833606,0,-1,-1,0,0,0,71,73,136,150,37,96.10,58,-3.00,22.00,-985.00
2024-06-07 00:48:01.971419,0,-1,-1,0,0,0,71,73,136,150,37,96.25,58,-2.00,22.00,-990.00
2024-06-07 00:48:02.037859,0,-1,-1,0,0,0,71,73,136,150,37,96.27,59,13.00,6.00,-1013.00
2024-06-07 00:48:02.174450,0,-1,-1,0,0,0,71,73,136,150,37,96.23,59,9.00,8.00,-999.00
2024-06-07 00:48:02.241787,0,-1,-1,0,0,0,71,73,136,150,37,96.19,59,1.00,8.00,-997.00
2024-06-07 00:48:02.299000,0,-1,-1,0,0,0,71,73,136,150,37,96.22,59,12.00,-8.00,-996.00
2024-06-07 00:48:02.394704,0,-1,-1,0,0,0,71,73,136,150,37,96.12,59,8.00,9.00,-1017.00
2024-06-07 00:48:02.584044,0,-1,-1,0,0,0,71,73,136,150,37,96.21,59,16.00,8.00,-995.00
2024-06-07 00:48:02.599717,0,0,-1,0,0,0,71,73,136,150,37,95.91,59,3.00,6.00,-986.00
2024-06-07 00:48:02.792471,0,0,-1,0,0,0,71,73,137,150,37,96.06,59,7.00,2.00,-1008.00
2024-06-07 00:48:02.804096,0,0,-1,0,0,0,71,73,137,150,37,96.34,59,10.00,26.00,-1017.00
2024-06-07 00:48:02.993645,0,0,-1,0,0,0,71,73,137,150,37,96.30,59,-6.00,3.00,-1012.00
2024-06-07 00:48:03.007564,0,0,-1,0,0,0,71,73,137,150,37,95.89,60,-7.00,17.00,-998.00
2024-06-07 00:48:03.198434,0,0,-1,0,0,0,71,73,137,150,37,96.00,60,-5.00,4.00,-999.00
2024-06-07 00:48:03.211491,0,-1,-1,0,0,0,71,73,137,150,37,95.96,60,-1.00,8.00,-1009.00
2024-06-07 00:48:03.403289,0,0,-1,0,0,0,71,73,136,150,37,95.95,60,1.00,17.00,-999.00
2024-06-07 00:48:03.420278,0,0,-1,0,0,0,71,73,137,150,37,96.16,60,-19.00,4.00,-994.00
2024-06-07 00:48:03.518459,0,0,-1,0,0,0,71,73,137,150,37,95.95,60,5.00,7.00,-990.00
2024-06-07 00:48:03.710577,0,0,-1,0,0,0,71,73,137,150,36,95.98,60,-10.00,26.00,-988.00
2024-06-07 00:48:03.722412,0,0,-1,0,0,0,70,73,137,150,36,96.32,60,-3.00,16.00,-989.00
2024-06-07 00:48:03.915206,0,0,-1,0,0,0,70,73,136,150,36,96.01,60,10.00,10.00,-997.00
2024-06-07 00:48:03.926384,0,0,-1,0,0,0,70,73,137,150,36,96.19,60,48.00,10.00,-986.00
2024-06-07 00:48:04.120027,0,0,-1,0,0,0,70,73,136,150,36,95.95,61,-18.00,32.00,-1005.00
2024-06-07 00:48:04.130480,0,0,-1,0,0,0,70,73,136,150,36,95.96,61,5.00,0.00,-995.00
2024-06-07 00:48:04.324822,0,0,-1,0,0,0,70,73,136,150,36,95.98,61,4.00,36.00,-994.00
2024-06-07 00:48:04.338246,0,0,-1,0,0,0,70,73,136,150,36,96.03,61,13.00,-11.00,-985.00
2024-06-07 00:48:04.436564,0,0,-1,0,0,0,70,73,137,150,36,95.96,61,9.00,25.00,-992.00
2024-06-07 00:48:04.594790,0,0,-1,0,0,0,70,73,136,150,36,96.31,61,2.00,8.00,-1001.00
2024-06-07 00:48:04.640528,0,0,-1,0,0,0,70,73,136,150,36,96.28,61,-12.00,12.00,-994.00
2024-06-07 00:48:04.841685,0,0,-1,0,0,0,71,73,136,150,36,96.22,61,7.00,1.00,-1005.00
2024-06-07 00:48:04.844322,0,0,-1,0,0,0,71,73,136,150,36,96.16,61,12.00,20.00,-1028.00
2024-06-07 00:48:05.041528,0,0,-1,0,0,0,71,73,136,150,36,95.96,61,4.00,9.00,-1009.00
2024-06-07 00:48:05.049457,0,0,-1,0,0,0,71,73,135,150,36,96.18,62,-7.00,23.00,-1010.00
2024-06-07 00:48:05.249570,0,0,-1,0,0,0,71,73,136,150,36,95.86,62,-10.00,8.00,-1003.00
2024-06-07 00:48:05.253372,0,0,-1,0,0,0,71,73,135,150,36,96.18,62,1.00,5.00,-1008.00
2024-06-07 00:48:05.453193,0,0,-1,0,0,0,71,73,135,150,36,96.03,62,7.00,0.00,-993.00
2024-06-07 00:48:05.457461,0,0,-1,0,0,0,71,73,135,150,36,95.98,62,-10.00,-4.00,-996.00
2024-06-07 00:48:05.559382,0,0,-1,0,0,0,71,73,135,150,36,96.27,62,3.00,4.00,-997.00
2024-06-07 00:48:05.661385,0,0,-1,0,0,0,71,73,135,150,35,96.28,62,-5.00,19.00,-1004.00
2024-06-07 00:48:05.860845,0,0,-1,0,0,0,71,73,135,150,35,96.13,62,0.00,16.00,-996.00
2024-06-07 00:48:05.865382,0,0,-1,0,0,0,71,73,136,150,35,95.99,62,7.00,-7.00,-1000.00
2024-06-07 00:48:06.065695,0,0,-1,0,0,0,71,73,135,150,35,96.07,63,10.00,12.00,-1004.00
2024-06-07 00:48:06.069498,0,0,-1,0,0,0,71,73,135,150,35,95.94,63,-6.00,6.00,-989.00
2024-06-07 00:48:06.273076,0,0,-1,0,0,0,71,73,135,150,35,95.78,63,-6.00,14.00,-1012.00
2024-06-07 00:48:06.273239,0,0,-1,0,0,0,71,73,135,150,35,96.12,63,9.00,13.00,-1037.00
2024-06-07 00:48:06.324314,0,0,-1,0,0,0,71,73,136,150,35,96.22,63,12.00,-9.00,-989.00
2024-06-07 00:48:06.475316,0,0,-1,0,0,0,71,73,135,150,35,95.91,63,0.00,8.00,-994.00
2024-06-07 00:48:06.529851,0,0,-1,0,0,0,71,73,135,150,35,96.01,63,-10.00,-8.00,-999.00
2024-06-07 00:48:06.630556,0,0,-1,0,0,0,71,73,136,150,35,96.10,63,4.00,-5.00,-1001.00
2024-06-07 00:48:06.782226,0,0,-1,0,0,0,71,74,136,150,35,95.92,63,7.00,-2.00,-1013.00
2024-06-07 00:48:06.834717,0,0,-1,0,0,0,71,74,136,150,35,95.98,63,4.00,-3.00,-992.00
2024-06-07 00:48:06.936339,0,0,-1,0,0,0,71,74,136,150,35,95.94,64,5.00,6.00,-1002.00
2024-06-07 00:48:07.116076,0,0,-1,0,0,0,71,74,136,150,35,95.94,64,4.00,16.00,-998.00
2024-06-07 00:48:07.141159,0,0,-1,0,0,0,71,74,136,150,35,96.01,64,-6.00,7.00,-996.00
2024-06-07 00:48:07.258995,0,0,-1,0,0,0,71,74,136,150,35,95.84,64,4.00,9.00,-999.00
2024-06-07 00:48:07.373289,0,0,-1,0,0,0,71,74,138,150,35,96.02,64,25.00,-20.00,-963.00
2024-06-07 00:48:07.448149,0,0,-1,0,0,0,71,74,137,150,35,96.41,64,-3.00,10.00,-991.00
2024-06-07 00:48:07.595895,0,0,-1,0,0,0,71,74,137,150,35,96.24,64,1.00,4.00,-977.00
2024-06-07 00:48:07.719417,0,0,-1,0,0,0,71,74,137,150,34,96.16,64,-21.00,17.00,-996.00
2024-06-07 00:48:07.793966,0,0,-1,0,0,0,72,73,137,150,34,96.18,64,7.00,-5.00,-1005.00
2024-06-07 00:48:07.873221,0,0,-1,0,0,0,72,73,137,150,34,96.19,64,4.00,4.00,-991.00
2024-06-07 00:48:08.016686,0,0,-1,0,0,0,72,73,136,150,34,96.21,65,9.00,0.00,-1004.00
2024-06-07 00:48:08.060371,0,0,-1,0,0,0,72,73,137,150,34,96.02,65,-1.00,21.00,-1000.00
2024-06-07 00:48:08.203525,0,0,-1,0,0,0,72,73,136,150,34,96.07,65,10.00,5.00,-1001.00
2024-06-07 00:48:08.264093,0,0,-1,0,0,0,72,73,136,150,34,95.85,65,-3.00,-2.00,-997.00
