TS,pitch,roll,yaw,vgx,vgy,vgz,templ,temph,tof,h,bat,baro,time,agx,agy,agz
2024-06-07 00:48:35.452858,0,0,4,0,0,0,74,76,10,0,25,94.34,72,19.00,11.00,-1002.00
2024-06-07 00:48:35.497566,0,0,4,0,0,0,74,76,10,0,25,94.30,72,17.00,9.00,-1000.00
2024-06-07 00:48:35.659111,0,0,4,0,0,0,74,76,10,0,25,94.45,72,18.00,9.00,-998.00
2024-06-07 00:48:35.701515,0,0,4,0,0,0,74,76,10,0,25,94.28,72,15.00,8.00,-1001.00
2024-06-07 00:48:35.863020,0,0,4,0,0,0,74,76,10,0,25,94.43,72,18.00,10.00,-994.00
2024-06-07 00:48:35.905488,0,0,4,0,0,0,75,76,10,0,25,94.33,72,17.00,9.00,-997.00
2024-06-07 00:48:36.068612,0,0,4,0,0,0,75,76,10,0,25,94.50,72,18.00,11.00,-1000.00
2024-06-07 00:48:36.109579,0,0,4,0,0,0,75,76,10,0,25,94.36,72,16.00,10.00,-1001.00
2024-06-07 00:48:36.272090,0,0,4,0,0,0,75,76,10,0,25,94.69,72,17.00,8.00,-1000.00
2024-06-07 00:48:36.313637,0,0,4,0,0,0,75,76,10,0,25,94.09,72,19.00,9.00,-1000.00
2024-06-07 00:48:36.478672,0,0,4,0,0,0,75,76,10,0,25,94.21,72,18.00,10.00,-999.00
2024-06-07 00:48:36.518240,0,0,4,0,0,0,75,76,10,0,25,94.26,72,17.00,11.00,-1002.00
2024-06-07 00:48:36.681487,0,0,4,0,0,0,75,76,10,0,25,94.62,72,18.00,9.00,-1001.00
2024-06-07 00:48:36.721409,0,0,4,0,0,0,75,76,10,0,25,94.72,72,17.00,10.00,-1000.00
2024-06-07 00:48:36.887836,0,0,4,0,0,0,75,76,10,0,25,94.38,72,16.00,10.00,-1000.00
2024-06-07 00:48:36.925574,0,0,4,0,0,0,74,76,10,0,25,94.76,72,17.00,10.00,-999.00
2024-06-07 00:48:37.091858,0,0,4,0,0,0,74,76,10,0,25,94.31,72,16.00,10.00,-997.00
2024-06-07 00:48:37.207469,0,0,4,0,0,0,74,76,10,0,25,94.34,72,17.00,9.00,-999.00
2024-06-07 00:48:37.231307,0,0,4,0,0,0,74,76,10,0,25,94.36,72,18.00,9.00,-1000.00
2024-06-07 00:48:37.349906,0,0,4,0,0,0,74,76,10,0,25,94.31,72,17.00,10.00,-1000.00
2024-06-07 00:48:37.384810,0,0,4,0,0,0,74,76,10,0,25,94.55,72,19.00,7.00,-1000.00
2024-06-07 00:48:37.487225,0,0,4,0,0,0,74,76,10,0,25,94.43,72,18.00,8.00,-999.00
2024-06-07 00:48:37.656739,0,0,4,0,0,0,74,76,10,0,25,94.16,72,18.00,11.00,-1000.00
2024-06-07 00:48:37.690408,0,0,4,0,0,0,74,76,10,0,25,94.69,72,19.00,9.00,-1000.00
2024-06-07 00:48:37.871693,0,0,4,0,0,0,74,76,10,0,25,94.20,72,16.00,10.00,-999.00
2024-06-07 00:48:37.894915,0,0,4,0,0,0,75,77,10,0,25,94.28,72,18.00,11.00,-999.00
2024-06-07 00:48:38.012613,0,0,4,0,0,0,75,77,10,0,25,94.22,72,17.00,9.00,-998.00
2024-06-07 00:48:38.223099,0,0,4,0,0,0,75,77,10,0,25,94.21,72,18.00,11.00,-1000.00
2024-06-07 00:48:38.223343,0,0,4,0,0,0,75,77,10,0,25,94.25,72,17.00,8.00,-1000.00
2024-06-07 00:48:38.302423,0,0,4,0,0,0,75,77,10,0,25,94.33,72,17.00,10.00,-1000.00
2024-06-07 00:48:38.433345,0,0,4,0,0,0,75,77,10,0,25,94.14,72,17.00,9.00,-999.00
2024-06-07 00:48:38.577069,0,0,4,0,0,0,75,77,10,0,25,94.52,72,18.00,9.00,-1000.00
2024-06-07 00:48:38.608521,0,0,4,0,0,0,75,77,10,0,25,94.31,72,18.00,10.00,-1001.00
2024-06-07 00:48:38.742572,0,0,4,0,0,0,75,77,10,0,25,94.26,72,17.00,9.00,-999.00
2024-06-07 00:48:38.885765,0,0,4,0,0,0,75,77,10,0,25,94.14,72,17.00,11.00,-1001.00
2024-06-07 00:48:38.915230,0,0,4,0,0,0,75,77,10,0,25,94.16,72,18.00,11.00,-998.00
2024-06-07 00:48:39.049196,0,0,4,0,0,0,75,77,10,0,25,94.33,72,19.00,11.00,-1002.00
2024-06-07 00:48:39.201691,0,0,4,0,0,0,75,77,10,0,25,94.33,72,21.00,9.00,-1001.00
2024-06-07 00:48:39.221149,0,0,4,0,0,0,75,77,10,0,25,94.33,72,14.00,29.00,-1002.00
2024-06-07 00:48:39.345180,0,0,4,0,0,0,75,77,10,0,25,94.33,72,19.00,24.00,-1008.00
2024-06-07 00:48:39.425192,0,0,4,0,0,0,75,77,10,0,25,94.33,73,15.00,9.00,-1003.00
2024-06-07 00:48:39.548983,0,0,4,0,0,0,75,77,10,0,25,94.33,73,-12.00,-4.00,-1042.00
2024-06-07 00:48:39.630738,0,-1,3,0,0,0,75,77,10,0,25,94.33,73,4.00,-10.00,-1178.00
2024-06-07 00:48:39.731628,1,-1,3,0,0,-1,75,77,10,0,25,94.33,73,4.00,46.00,-1345.00
2024-06-07 00:48:39.833076,0,0,3,0,0,-4,75,77,13,0,25,94.33,73,8.00,11.00,-1240.00
2024-06-07 00:48:39.960953,-1,0,3,0,0,-7,75,76,22,10,25,94.70,73,0.00,1.00,-1082.00
2024-06-07 00:48:40.037108,0,0,3,0,0,-8,75,76,31,10,25,94.78,73,-14.00,19.00,-1046.00
2024-06-07 00:48:40.162904,0,0,3,0,0,-8,75,76,36,20,25,94.86,73,-9.00,25.00,-994.00
2024-06-07 00:48:40.241028,0,0,3,0,0,-8,75,76,45,30,25,94.70,73,-18.00,6.00,-956.00
2024-06-07 00:48:40.369063,0,0,3,0,0,-8,75,76,53,40,25,95.01,73,6.00,6.00,-909.00
2024-06-07 00:48:40.445018,0,0,3,0,0,-7,75,76,59,50,25,95.02,74,-40.00,21.00,-873.00
2024-06-07 00:48:40.574013,0,0,3,0,0,-6,75,76,64,50,25,95.27,74,33.00,-14.00,-858.00
2024-06-07 00:48:40.649023,0,0,3,0,0,-4,75,76,69,60,25,94.78,74,-11.00,8.00,-883.00
2024-06-07 00:48:40.699929,0,0,3,0,0,-3,75,76,72,60,25,95.17,74,-8.00,11.00,-877.00
2024-06-07 00:48:40.879799,0,0,3,0,0,-2,75,76,74,70,25,95.21,74,-7.00,29.00,-913.00
2024-06-07 00:48:40.955023,0,-1,3,0,0,-1,75,77,75,70,25,95.28,74,-32.00,29.00,-915.00
2024-06-07 00:48:41.005929,0,-2,3,0,0,0,75,77,76,70,25,95.19,74,-9.00,9.00,-947.00
2024-06-07 00:48:41.187190,0,-2,3,0,0,0,75,77,75,70,25,94.89,74,-3.00,20.00,-950.00
2024-06-07 00:48:41.209791,0,-1,3,0,0,0,75,77,75,70,25,94.92,74,-27.00,11.00,-1006.00
2024-06-07 00:48:41.391622,1,-1,3,0,0,0,75,77,74,70,25,95.08,74,9.00,18.00,-988.00
2024-06-07 00:48:41.413943,0,-1,3,0,0,0,75,77,73,70,25,95.15,75,4.00,33.00,-1017.00
2024-06-07 00:48:41.596437,1,-1,3,0,0,0,75,77,72,70,25,95.19,75,-25.00,17.00,-1026.00
2024-06-07 00:48:41.618072,1,-1,3,0,0,0,75,77,72,70,25,94.92,75,23.00,-16.00,-1018.00
2024-06-07 00:48:41.801267,0,-1,3,0,0,0,75,77,72,70,25,95.16,75,-27.00,25.00,-1014.00
2024-06-07 00:48:41.821785,0,-1,3,0,0,0,75,77,72,70,25,95.16,75,25.00,41.00,-1014.00
2024-06-07 00:48:41.925118,0,-1,3,0,0,0,75,77,72,70,25,95.05,75,6.00,9.00,-1020.00
2024-06-07 00:48:42.110237,0,-1,3,0,0,0,75,77,71,70,25,95.03,75,23.00,17.00,-1025.00
2024-06-07 00:48:42.132812,0,-1,3,0,0,0,75,77,72,70,25,95.12,75,-40.00,52.00,-994.00
2024-06-07 00:48:42.229812,0,-1,3,0,0,0,75,77,72,70,25,95.20,75,-2.00,32.00,-1004.00
2024-06-07 00:48:42.415583,0,-1,3,0,0,0,75,77,72,70,25,94.96,75,7.00,25.00,-1015.00
2024-06-07 00:48:42.433789,0,-1,3,0,0,0,75,77,72,70,25,95.33,76,-1.00,11.00,-984.00
2024-06-07 00:48:42.620364,0,-1,3,0,0,0,75,77,72,70,25,94.90,76,1.00,19.00,-1002.00
2024-06-07 00:48:42.637834,0,-1,3,0,0,0,75,77,72,70,25,95.25,76,-32.00,10.00,-1027.00
2024-06-07 00:48:42.825172,0,-1,3,0,0,0,75,77,72,70,25,95.35,76,9.00,5.00,-1003.00
2024-06-07 00:48:42.842097,0,-1,3,0,0,0,75,77,72,70,25,95.04,76,1.00,20.00,-989.00
2024-06-07 00:48:42.943933,0,-1,3,0,0,0,75,78,72,70,25,95.41,76,-10.00,39.00,-1008.00
2024-06-07 00:48:43.046793,0,-1,3,0,0,0,75,78,72,70,25,95.03,76,12.00,9.00,-1024.00
2024-06-07 00:48:43.234747,0,-1,3,0,0,0,75,78,72,70,25,95.05,76,-28.00,28.00,-979.00
2024-06-07 00:48:43.250752,0,-1,3,0,0,0,75,78,72,70,25,94.96,76,-54.00,32.00,-982.00
2024-06-07 00:48:43.439531,0,-1,3,0,0,0,75,78,72,70,25,95.17,76,4.00,27.00,-997.00
2024-06-07 00:48:43.454747,0,-1,3,0,0,0,75,78,72,70,25,95.13,77,4.00,33.00,-1025.00
2024-06-07 00:48:43.644321,0,-1,3,0,0,0,75,78,72,70,25,95.05,77,-3.00,40.00,-979.00
2024-06-07 00:48:43.660268,0,-1,3,0,0,0,75,78,73,70,25,94.92,77,4.00,19.00,-976.00
2024-06-07 00:48:43.709817,0,-1,3,0,0,0,75,78,72,70,25,95.37,77,-17.00,26.00,-1008.00
2024-06-07 00:48:43.850897,0,-1,3,0,0,0,75,78,73,70,25,95.15,77,0.00,26.00,-987.00
2024-06-07 00:48:44.053955,1,-1,3,0,0,0,76,77,73,70,25,95.14,77,-2.00,16.00,-994.00
2024-06-07 00:48:44.066615,1,-1,3,0,0,0,76,77,73,70,25,95.50,77,-20.00,14.00,-982.00
2024-06-07 00:48:44.170703,1,-1,3,0,0,0,76,77,73,70,25,95.18,77,-2.00,41.00,-1018.00
2024-06-07 00:48:44.219681,0,-1,3,0,0,0,76,77,73,80,25,95.28,77,0.00,16.00,-991.00
2024-06-07 00:48:44.362894,0,-1,3,0,0,0,76,77,73,80,25,95.14,78,-13.00,19.00,-996.00
2024-06-07 00:48:44.423645,0,-1,3,0,0,0,76,77,73,80,25,95.15,78,4.00,20.00,-976.00
2024-06-07 00:48:44.567991,0,-1,3,0,0,0,76,77,73,70,25,95.20,78,-1.00,46.00,-986.00
2024-06-07 00:48:44.627763,0,-1,3,0,0,0,76,77,73,80,25,94.99,78,-15.00,30.00,-1019.00
2024-06-07 00:48:44.770634,0,-1,3,0,0,0,76,77,73,70,25,95.04,78,0.00,17.00,-1009.00
2024-06-07 00:48:44.831598,0,-1,3,0,0,0,76,77,73,70,25,94.79,78,11.00,2.00,-1005.00
2024-06-07 00:48:44.933831,0,-1,3,0,0,0,77,78,73,70,25,94.96,78,44.00,5.00,-1004.00
2024-06-07 00:48:45.078838,0,0,3,0,0,0,77,78,73,70,25,95.03,78,3.00,5.00,-1037.00
2024-06-07 00:48:45.137589,0,-1,3,0,0,0,77,78,73,70,25,95.19,78,33.00,6.00,-1028.00
2024-06-07 00:48:45.282648,0,-1,3,0,0,0,77,78,73,70,25,95.19,78,1.00,25.00,-1007.00
2024-06-07 00:48:45.341639,0,-1,3,0,0,0,77,78,72,70,25,94.99,79,23.00,6.00,-1015.00
2024-06-07 00:48:45.487587,0,-1,3,0,0,0,77,78,73,70,25,94.99,79,-8.00,10.00,-1009.00
2024-06-07 00:48:45.545551,0,-1,3,0,0,0,77,78,73,70,25,94.91,79,38.00,28.00,-1011.00
2024-06-07 00:48:45.692263,0,-1,3,0,0,0,77,78,73,70,25,95.09,79,0.00,18.00,-1019.00
2024-06-07 00:48:45.749561,0,-1,3,0,0,0,77,78,74,70,25,95.00,79,9.00,31.00,-1022.00
2024-06-07 00:48:45.859900,0,-1,3,0,0,0,77,78,74,70,25,95.05,79,-8.00,3.00,-999.00
2024-06-07 00:48:45.953821,0,-1,3,0,0,0,75,78,74,70,25,95.25,79,5.00,9.00,-995.00
2024-06-07 00:48:46.101978,0,0,3,0,0,0,75,78,75,70,25,95.06,79,4.00,18.00,-1006.00
2024-06-07 00:48:46.162462,0,-1,3,0,0,0,75,78,75,70,25,95.00,79,21.00,-4.00,-1015.00
2024-06-07 00:48:46.259701,0,-1,3,0,0,0,75,78,76,70,25,95.17,79,6.00,14.00,-1006.00
2024-06-07 00:48:46.409415,0,-1,3,0,0,0,75,78,76,70,25,94.96,80,1.00,12.00,-1021.00
2024-06-07 00:48:46.463587,0,-1,3,0,0,0,75,78,76,70,25,95.09,80,25.00,-2.00,-983.00
2024-06-07 00:48:46.613862,0,-1,3,0,0,0,75,78,77,70,25,95.15,80,-2.00,27.00,-987.00
2024-06-07 00:48:46.667808,0,-1,3,0,0,0,75,78,77,80,25,95.19,80,-8.00,4.00,-991.00
2024-06-07 00:48:46.824939,0,-1,3,0,0,0,75,78,78,80,25,95.29,80,18.00,-1.00,-994.00
2024-06-07 00:48:46.871600,0,-1,3,0,0,0,75,78,78,80,25,95.39,80,2.00,11.00,-988.00
2024-06-07 00:48:46.980522,0,-1,3,0,0,0,75,78,78,80,25,95.26,80,-25.00,9.00,-997.00
2024-06-07 00:48:47.075622,0,-1,3,0,0,0,75,78,79,80,25,95.14,80,-11.00,28.00,-998.00
2024-06-07 00:48:47.228291,0,0,3,0,0,0,75,78,79,80,25,95.24,80,13.00,21.00,-1001.00
2024-06-07 00:48:47.279719,0,0,3,0,0,0,75,78,79,80,25,95.15,80,-10.00,32.00,-1000.00
2024-06-07 00:48:47.433258,1,0,3,0,0,0,75,78,79,80,25,95.48,81,17.00,0.00,-996.00
2024-06-07 00:48:47.483511,1,0,3,0,0,0,75,78,79,80,25,95.07,81,8.00,18.00,-1007.00
2024-06-07 00:48:47.637819,1,0,3,0,0,0,75,78,79,80,25,94.99,81,0.00,42.00,-1005.00
2024-06-07 00:48:47.687505,0,-1,3,0,0,0,75,78,79,80,25,95.08,81,0.00,12.00,-989.00
2024-06-07 00:48:47.740232,0,-1,3,0,0,0,75,78,79,80,25,95.06,81,7.00,43.00,-986.00
2024-06-07 00:48:47.840739,0,-1,3,0,0,0,75,78,79,80,25,95.20,81,7.00,-2.00,-1013.00
2024-06-07 00:48:48.047460,0,-1,3,0,0,0,75,78,79,80,25,94.77,81,39.00,14.00,-1020.00
2024-06-07 00:48:48.047517,0,0,3,0,0,0,75,78,80,80,25,95.34,81,8.00,-14.00,-1055.00
2024-06-07 00:48:48.146333,0,-1,3,0,0,0,75,78,81,80,25,95.15,81,-12.00,11.00,-1088.00
2024-06-07 00:48:48.252126,0,-1,3,0,0,-2,75,78,83,80,25,94.84,81,10.00,1.00,-1132.00
2024-06-07 00:48:48.350295,0,0,3,0,0,-2,75,78,86,80,25,95.19,82,3.00,9.00,-1095.00
2024-06-07 00:48:48.458712,0,0,3,0,0,-3,75,78,90,90,25,95.22,82,14.00,20.00,-1062.00
2024-06-07 00:48:48.554302,0,-1,3,0,0,-4,75,78,94,90,25,95.11,82,9.00,-8.00,-1053.00
2024-06-07 00:48:48.661956,0,0,3,0,0,-5,75,78,99,90,25,95.55,82,-6.00,21.00,-1037.00
2024-06-07 00:48:48.759271,0,0,3,0,0,-5,75,78,105,100,25,95.26,82,4.00,9.00,-1045.00
2024-06-07 00:48:48.866510,0,0,3,0,0,-5,75,78,111,110,25,95.29,82,-17.00,31.00,-1003.00
2024-06-07 00:48:48.963514,0,0,3,0,0,-5,76,77,117,110,25,95.18,82,0.00,-9.00,-965.00
2024-06-07 00:48:49.071286,0,0,3,0,0,-5,76,77,122,120,25,95.66,82,19.00,3.00,-1006.00
2024-06-07 00:48:49.167139,0,0,3,0,0,-5,76,77,129,120,25,95.50,82,5.00,-17.00,-977.00
2024-06-07 00:48:49.277575,0,0,3,0,0,-5,76,77,134,130,25,95.67,82,-11.00,37.00,-956.00
2024-06-07 00:48:49.371198,0,0,3,0,0,-5,76,77,139,130,25,95.66,83,-9.00,5.00,-992.00
2024-06-07 00:48:49.481510,0,0,3,0,0,-4,76,77,144,140,25,95.50,83,-15.00,22.00,-967.00
2024-06-07 00:48:49.575181,1,-1,3,0,0,-4,76,77,149,140,25,95.51,83,8.00,-6.00,-960.00
2024-06-07 00:48:49.685959,1,-1,3,0,0,-4,76,77,154,150,25,95.63,83,-10.00,-5.00,-946.00
2024-06-07 00:48:49.781135,1,-1,3,0,0,-3,76,77,156,150,25,95.86,83,-3.00,3.00,-950.00
2024-06-07 00:48:49.881151,1,-1,3,0,0,-3,76,77,161,160,25,96.03,83,7.00,8.00,-947.00
2024-06-07 00:48:49.992846,1,-1,3,0,0,-3,76,79,164,160,25,95.67,83,-1.00,18.00,-953.00
2024-06-07 00:48:50.085789,1,-1,3,0,0,-2,76,79,167,160,25,95.84,83,18.00,12.00,-956.00
2024-06-07 00:48:50.197637,1,-1,3,0,0,-2,76,79,169,170,25,96.15,83,-11.00,31.00,-971.00
2024-06-07 00:48:50.289234,1,-1,3,0,0,-2,76,79,170,170,25,95.74,83,24.00,18.00,-956.00
2024-06-07 00:48:50.402425,0,-1,3,0,0,-1,76,79,172,170,25,95.71,84,-5.00,43.00,-983.00
2024-06-07 00:48:50.493102,0,-1,3,0,0,-1,76,79,174,170,25,95.75,84,-3.00,18.00,-973.00
2024-06-07 00:48:50.595348,0,-1,3,0,0,-1,76,79,177,170,25,95.91,84,9.00,18.00,-975.00
2024-06-07 00:48:50.697559,0,-1,3,0,0,0,76,79,176,170,25,95.81,84,13.00,18.00,-952.00
2024-06-07 00:48:50.800472,0,-1,3,0,0,0,76,79,178,170,25,95.84,84,-16.00,29.00,-960.00
2024-06-07 00:48:50.902707,0,-1,3,0,0,0,76,79,178,170,25,96.12,84,-1.00,32.00,-990.00
2024-06-07 00:48:51.004134,0,-1,3,0,0,0,76,77,178,170,25,96.11,84,-8.00,14.00,-997.00
2024-06-07 00:48:51.105851,0,-1,3,0,0,0,76,77,177,170,25,95.84,84,-3.00,40.00,-1007.00
2024-06-07 00:48:51.208124,0,-1,3,0,0,0,76,77,178,170,25,95.89,84,-20.00,36.00,-994.00
2024-06-07 00:48:51.324784,0,-1,3,0,0,0,76,77,178,170,25,95.93,84,-1.00,12.00,-983.00
2024-06-07 00:48:51.411968,0,-1,3,0,0,0,76,77,177,170,25,95.83,85,16.00,16.00,-1000.00
2024-06-07 00:48:51.529051,1,-1,3,0,0,0,76,77,177,170,25,95.96,85,9.00,7.00,-998.00
2024-06-07 00:48:51.564133,1,-1,3,0,0,0,76,77,177,170,25,95.88,85,11.00,43.00,-1019.00
2024-06-07 00:48:51.734448,1,-1,3,0,0,0,76,77,177,170,25,95.80,85,-2.00,-15.00,-992.00
2024-06-07 00:48:51.772749,1,-1,3,0,0,0,76,77,177,170,25,95.85,85,-1.00,33.00,-997.00
2024-06-07 00:48:51.871397,1,-1,3,0,0,0,76,77,176,170,25,95.91,85,-7.00,20.00,-1013.00
2024-06-07 00:48:51.973905,1,-1,3,0,0,0,76,78,176,170,25,95.72,85,-17.00,5.00,-990.00
2024-06-07 00:48:52.111538,1,-1,3,0,0,0,76,78,175,170,25,95.84,85,20.00,8.00,-993.00
2024-06-07 00:48:52.188074,0,-1,3,0,0,0,76,78,177,170,25,95.96,85,0.00,26.00,-1005.00
2024-06-07 00:48:52.293551,0,-1,3,0,0,0,76,78,176,170,25,95.93,85,7.00,17.00,-974.00
2024-06-07 00:48:52.451634,0,-1,3,0,0,0,76,78,176,170,25,96.08,86,-8.00,8.00,-997.00
2024-06-07 00:48:52.482537,0,-1,3,0,0,0,76,78,176,170,25,95.89,86,12.00,7.00,-989.00
2024-06-07 00:48:52.588338,0,-1,3,0,0,0,76,78,177,170,25,96.15,86,0.00,7.00,-1010.00
2024-06-07 00:48:52.745766,0,-1,3,0,0,0,76,78,176,170,25,95.88,86,-12.00,31.00,-992.00
2024-06-07 00:48:52.805839,0,-1,3,0,0,0,76,78,177,170,25,95.79,86,3.00,16.00,-1002.00
2024-06-07 00:48:52.950229,0,-1,3,0,0,0,76,78,176,170,25,95.96,86,-12.00,0.00,-971.00
2024-06-07 00:48:52.992331,0,0,3,0,0,1,76,78,175,170,25,95.75,86,-7.00,18.00,-974.00
2024-06-07 00:48:53.178004,0,0,3,0,0,1,76,78,173,170,25,95.92,86,-17.00,50.00,-945.00
2024-06-07 00:48:53.196273,0,-1,3,0,0,2,76,78,172,170,25,95.89,86,3.00,28.00,-983.00
2024-06-07 00:48:53.321347,0,-1,3,0,0,2,76,78,169,170,25,95.56,86,-10.00,17.00,-965.00
2024-06-07 00:48:53.485207,0,-1,3,0,0,2,76,78,166,170,25,96.14,87,-9.00,20.00,-993.00
2024-06-07 00:48:53.502056,0,-1,3,0,0,2,76,78,164,160,25,95.76,87,-14.00,4.00,-977.00
2024-06-07 00:48:53.628549,1,-1,3,0,0,2,76,78,162,160,25,95.78,87,7.00,15.00,-1006.00
2024-06-07 00:48:53.792347,1,0,3,0,0,2,76,78,158,160,25,95.40,87,26.00,5.00,-1024.00
2024-06-07 00:48:53.807803,1,0,3,0,0,2,76,78,155,150,25,95.76,87,-20.00,24.00,-1031.00
2024-06-07 00:48:53.936039,1,-1,3,0,0,2,76,78,152,150,25,95.51,87,-12.00,29.00,-1005.00
2024-06-07 00:48:54.099552,1,-1,3,0,0,2,75,79,147,150,25,95.57,87,3.00,34.00,-1041.00
2024-06-07 00:48:54.113822,1,-1,3,0,0,2,75,79,145,150,25,95.56,87,8.00,0.00,-1029.00
2024-06-07 00:48:54.243155,1,-1,3,0,0,2,75,79,143,140,25,95.47,87,18.00,36.00,-1038.00
2024-06-07 00:48:54.411200,1,-1,3,0,0,2,75,79,141,140,25,95.39,87,-1.00,9.00,-1020.00
2024-06-07 00:48:54.422494,1,-1,3,0,0,1,75,79,139,140,25,95.63,88,26.00,-11.00,-1017.00
2024-06-07 00:48:54.551274,1,-1,3,0,0,1,75,79,137,140,25,95.65,88,-14.00,42.00,-996.00
2024-06-07 00:48:54.713869,1,-1,3,0,0,1,75,79,135,140,25,95.60,88,6.00,15.00,-1002.00
2024-06-07 00:48:54.725719,0,-1,3,0,0,1,75,79,133,130,25,95.81,88,5.00,23.00,-1010.00
2024-06-07 00:48:54.836788,0,0,3,0,0,1,75,79,132,130,25,95.47,88,27.00,12.00,-1005.00
2024-06-07 00:48:54.929948,0,0,3,0,0,1,75,79,131,130,25,95.51,88,3.00,34.00,-991.00
2024-06-07 00:48:55.031917,1,-1,3,0,0,1,77,79,128,130,25,95.45,88,-18.00,42.00,-1009.00
2024-06-07 00:48:55.215281,0,-1,3,0,0,0,77,79,128,130,25,95.73,88,17.00,10.00,-1026.00
2024-06-07 00:48:55.235768,0,-1,3,0,0,0,77,79,127,130,25,95.25,88,-10.00,26.00,-1033.00
2024-06-07 00:48:55.420049,0,-1,3,0,0,0,77,79,126,130,25,95.14,88,-1.00,1.00,-987.00
2024-06-07 00:48:55.420215,0,-1,3,0,0,0,77,79,126,130,25,95.52,89,5.00,15.00,-1006.00
2024-06-07 00:48:55.490863,0,0,3,0,0,0,77,79,126,130,25,95.14,89,14.00,12.00,-1029.00
2024-06-07 00:48:55.627040,0,-1,3,0,0,0,77,79,126,130,25,95.14,89,34.00,0.00,-1014.00
2024-06-07 00:48:55.695214,0,-1,3,0,0,0,77,79,126,130,25,95.36,89,13.00,26.00,-1019.00
2024-06-07 00:48:55.829496,0,0,3,0,0,0,77,79,126,130,25,95.51,89,-9.00,21.00,-1021.00
2024-06-07 00:48:55.901798,0,-1,3,0,0,0,77,79,127,130,25,95.48,89,5.00,3.00,-992.00
2024-06-07 00:48:56.000861,0,-1,3,0,0,0,76,78,127,130,25,95.23,89,26.00,7.00,-1018.00
2024-06-07 00:48:56.139319,0,-1,3,0,0,0,76,78,128,130,25,95.73,89,-26.00,20.00,-1011.00
2024-06-07 00:48:56.204920,0,-1,3,0,0,0,76,78,128,130,25,95.55,89,28.00,-1.00,-1011.00
2024-06-07 00:48:56.341537,0,0,3,0,0,0,76,78,128,130,25,95.43,89,5.00,33.00,-1016.00
2024-06-07 00:48:56.409516,1,0,3,0,0,0,76,78,128,130,25,95.19,90,27.00,-9.00,-1005.00
2024-06-07 00:48:56.546387,1,-1,3,0,0,0,76,78,128,130,25,95.30,90,18.00,32.00,-982.00
2024-06-07 00:48:56.613251,1,0,3,0,0,0,76,78,128,130,25,95.39,90,16.00,8.00,-996.00
2024-06-07 00:48:56.714846,1,-1,3,0,0,0,76,78,128,130,25,95.49,90,23.00,20.00,-991.00
2024-06-07 00:48:56.854747,1,-1,3,0,0,0,76,78,129,130,25,95.72,90,24.00,8.00,-994.00
2024-06-07 00:48:56.919137,1,-1,3,0,0,0,76,78,129,130,25,95.52,90,24.00,-14.00,-1028.00
2024-06-07 00:48:57.020496,1,0,3,0,0,0,76,78,128,130,25,95.46,90,4.00,15.00,-1007.00
2024-06-07 00:48:57.160866,0,0,3,0,0,0,76,78,129,130,25,95.43,90,-33.00,28.00,-1023.00
2024-06-07 00:48:57.224479,-2,0,3,0,0,0,76,78,129,130,25,95.69,90,31.00,26.00,-990.00
2024-06-07 00:48:57.342500,-8,0,3,0,0,0,76,78,131,130,25,95.42,90,-15.00,15.00,-1004.00
2024-06-07 00:48:57.428439,-8,0,3,2,0,0,76,78,132,130,25,95.28,91,-40.00,37.00,-992.00
2024-06-07 00:48:57.570239,-8,-1,3,3,0,0,76,78,132,130,25,95.30,91,-28.00,41.00,-1001.00
2024-06-07 00:48:57.632428,-7,-1,3,4,0,0,76,78,130,130,25,95.18,91,12.00,7.00,-1038.00
2024-06-07 00:48:57.734412,-6,-1,3,6,0,0,76,78,129,130,25,95.04,91,-56.00,28.00,-970.00
2024-06-07 00:48:57.877825,-4,-2,3,6,0,0,76,78,130,130,25,95.27,91,-26.00,41.00,-1034.00
2024-06-07 00:48:57.938407,-4,-2,3,7,0,0,76,78,129,130,25,95.06,91,-62.00,58.00,-978.00
2024-06-07 00:48:58.084013,-4,-1,3,7,0,0,76,79,129,130,25,94.94,91,-42.00,-11.00,-998.00
2024-06-07 00:48:58.142462,-2,-1,3,7,0,0,76,79,130,130,25,95.29,91,-80.00,32.00,-979.00
2024-06-07 00:48:58.286983,0,-1,3,7,0,0,76,79,129,130,25,95.39,91,-59.00,27.00,-1015.00
2024-06-07 00:48:58.349220,3,0,3,6,0,0,76,79,129,130,25,95.48,91,-72.00,13.00,-1002.00
2024-06-07 00:48:58.449331,4,0,3,5,0,0,76,79,129,130,25,95.57,92,-36.00,6.00,-992.00
2024-06-07 00:48:58.550387,4,0,3,4,0,0,76,79,128,130,25,95.57,92,-21.00,3.00,-992.00
2024-06-07 00:48:58.698341,2,0,3,3,0,0,76,79,129,130,25,95.24,92,-30.00,-1.00,-1007.00
2024-06-07 00:48:58.756226,1,0,3,3,0,0,76,79,129,130,25,95.20,92,-22.00,19.00,-1019.00
2024-06-07 00:48:58.856797,1,0,3,3,0,0,76,79,128,130,25,95.52,92,-45.00,15.00,-1009.00
2024-06-07 00:48:58.958282,0,0,3,2,0,0,76,79,127,130,25,95.52,92,-27.00,7.00,-977.00
2024-06-07 00:48:59.106409,1,0,3,2,0,0,77,78,127,130,25,95.23,92,-1.00,-14.00,-993.00
2024-06-07 00:48:59.162315,1,0,3,1,0,0,77,78,127,130,25,95.34,92,-34.00,-13.00,-984.00
2024-06-07 00:48:59.313494,3,0,3,1,0,0,77,78,126,130,25,95.51,92,-6.00,17.00,-987.00
2024-06-07 00:48:59.366279,3,0,3,0,0,0,77,78,126,130,25,95.20,93,-6.00,5.00,-1015.00
2024-06-07 00:48:59.469109,1,0,3,0,0,0,77,78,125,130,25,95.09,93,-16.00,0.00,-1003.00
2024-06-07 00:48:59.618188,0,0,3,0,0,0,77,78,125,130,25,95.31,93,-13.00,15.00,-1013.00
2024-06-07 00:48:59.672729,0,0,3,0,0,0,77,78,125,120,25,95.42,93,-26.00,27.00,-1000.00
2024-06-07 00:48:59.823204,0,0,3,0,0,0,77,78,125,120,25,95.35,93,-3.00,17.00,-1006.00
2024-06-07 00:48:59.825989,0,0,3,0,0,0,77,78,124,120,25,95.36,93,-15.00,11.00,-1018.00
2024-06-07 00:48:59.927392,0,0,3,0,0,0,77,78,125,120,25,95.32,93,9.00,-5.00,-990.00
2024-06-07 00:49:00.130226,0,0,3,0,0,0,76,79,125,120,25,95.45,93,-45.00,-18.00,-984.00
2024-06-07 00:49:00.131904,0,0,3,0,0,0,76,79,125,120,25,95.44,93,11.00,22.00,-994.00
2024-06-07 00:49:00.234020,0,0,3,0,0,0,76,79,125,120,25,95.40,93,5.00,17.00,-988.00
2024-06-07 00:49:00.336373,0,0,3,0,0,0,76,79,125,120,25,95.33,94,-29.00,1.00,-1019.00
2024-06-07 00:49:00.438832,0,0,3,0,0,0,76,79,126,120,25,95.40,94,-20.00,15.00,-1013.00
2024-06-07 00:49:00.540875,0,0,3,0,0,0,76,79,125,120,25,95.24,94,1.00,3.00,-1014.00
2024-06-07 00:49:00.643376,0,0,3,0,0,0,76,79,126,120,25,95.43,94,-4.00,-16.00,-994.00
2024-06-07 00:49:00.746607,0,0,3,0,0,0,76,79,126,130,25,95.07,94,-8.00,19.00,-1007.00
2024-06-07 00:49:00.847423,0,0,3,0,0,0,76,79,127,130,25,95.46,94,-30.00,20.00,-1001.00
2024-06-07 00:49:00.949380,0,0,3,0,0,0,76,79,126,130,25,95.40,94,-31.00,-8.00,-1008.00
2024-06-07 00:49:01.050014,0,0,3,0,0,0,77,79,126,130,25,95.50,94,-7.00,16.00,-1006.00
2024-06-07 00:49:01.154054,0,0,3,0,0,0,77,79,126,130,25,95.42,94,-3.00,9.00,-989.00
2024-06-07 00:49:01.253298,0,0,3,0,0,0,77,79,127,130,25,95.36,94,-68.00,12.00,-996.00
2024-06-07 00:49:01.361575,0,0,3,0,0,0,77,79,127,130,25,95.59,95,-7.00,8.00,-994.00
2024-06-07 00:49:01.457147,0,0,3,0,0,0,77,79,126,130,25,95.47,95,2.00,-24.00,-990.00
2024-06-07 00:49:01.563584,0,0,3,0,0,0,77,79,127,130,25,95.39,95,-18.00,32.00,-977.00
2024-06-07 00:49:01.661507,5,0,3,0,0,0,77,79,128,130,25,95.11,95,-3.00,-13.00,-995.00
2024-06-07 00:49:01.763052,8,0,3,-1,0,0,77,79,129,130,25,95.28,95,-2.00,1.00,-1008.00
2024-06-07 00:49:01.870711,8,0,3,-3,0,0,77,79,129,130,25,95.71,95,-30.00,19.00,-1025.00
2024-06-07 00:49:01.967011,8,0,3,-4,0,0,77,79,129,130,25,95.24,95,7.00,4.00,-1017.00
2024-06-07 00:49:02.076684,7,0,3,-5,0,0,77,80,130,130,25,95.25,95,18.00,25.00,-1005.00
2024-06-07 00:49:02.171043,6,0,3,-6,0,0,77,80,130,130,25,95.29,95,22.00,11.00,-1003.00
2024-06-07 00:49:02.280325,5,0,3,-7,0,0,77,80,130,130,25,95.30,95,35.00,14.00,-984.00
2024-06-07 00:49:02.375349,4,0,3,-8,0,0,77,80,129,130,25,95.28,96,10.00,1.00,-1023.00
2024-06-07 00:49:02.485072,3,-1,3,-8,0,0,77,80,130,130,25,95.27,96,28.00,24.00,-988.00
2024-06-07 00:49:02.579127,0,-2,3,-8,0,0,77,80,130,130,25,95.60,96,70.00,8.00,-1010.00
2024-06-07 00:49:02.689826,-2,-2,3,-7,0,0,77,80,131,130,25,94.94,96,31.00,39.00,-1025.00
2024-06-07 00:49:02.783032,-4,0,3,-6,0,0,77,80,130,130,25,95.31,96,26.00,47.00,-990.00
2024-06-07 00:49:02.894699,-4,0,3,-5,0,0,77,80,130,130,25,95.30,96,64.00,20.00,-1010.00
2024-06-07 00:49:02.987809,-2,-1,3,-4,0,0,77,80,130,130,25,95.44,96,31.00,17.00,-1016.00
2024-06-07 00:49:03.099502,-1,-1,3,-3,0,0,76,79,130,130,25,95.33,96,24.00,51.00,-1014.00
2024-06-07 00:49:03.192119,0,-1,3,-3,0,0,76,79,130,130,25,95.42,96,0.00,19.00,-997.00
2024-06-07 00:49:03.305665,0,-1,3,-3,0,0,76,79,130,130,25,95.48,96,21.00,31.00,-1022.00
2024-06-07 00:49:03.395445,0,-1,3,-2,0,0,76,79,130,130,25,95.51,97,9.00,20.00,-992.00
2024-06-07 00:49:03.446077,0,-1,3,-2,0,0,76,79,129,130,25,95.48,97,20.00,9.00,-1000.00
2024-06-07 00:49:03.547877,-1,0,3,-2,0,0,76,79,130,130,25,95.30,97,29.00,14.00,-1012.00
2024-06-07 00:49:03.713808,-2,0,3,-2,0,0,76,79,130,130,25,95.43,97,6.00,25.00,-979.00
2024-06-07 00:49:03.751883,-3,-1,3,-1,0,0,76,79,130,130,25,95.23,97,-2.00,20.00,-964.00
2024-06-07 00:49:03.891645,-2,-1,3,0,0,0,76,79,130,130,25,95.31,97,26.00,3.00,-1003.00
2024-06-07 00:49:03.956350,-1,0,3,0,0,0,76,79,130,130,25,95.20,97,7.00,28.00,-1003.00
2024-06-07 00:49:04.125539,0,0,3,0,0,0,77,80,129,130,25,95.22,97,11.00,38.00,-1005.00
2024-06-07 00:49:04.160022,0,-1,3,0,0,0,77,80,130,130,25,95.37,97,-3.00,8.00,-990.00
2024-06-07 00:49:04.328318,0,-1,3,0,0,0,77,80,130,130,25,95.13,97,3.00,1.00,-996.00
2024-06-07 00:49:04.368679,0,0,3,0,0,0,77,80,130,130,25,95.26,98,0.00,26.00,-1004.00
2024-06-07 00:49:04.466199,0,-1,3,0,0,0,77,80,130,130,25,95.19,98,0.00,4.00,-995.00
2024-06-07 00:49:04.635702,0,0,3,0,0,0,77,80,130,130,25,95.02,98,-4.00,38.00,-995.00
2024-06-07 00:49:04.669988,0,-1,3,0,0,0,77,80,130,130,25,95.26,98,36.00,5.00,-1007.00
2024-06-07 00:49:04.777991,0,-1,3,0,0,0,77,80,130,130,25,95.38,98,-10.00,-2.00,-1004.00
2024-06-07 00:49:04.873915,0,-1,3,0,0,0,77,80,130,130,25,95.15,98,-39.00,20.00,-983.00
2024-06-07 00:49:04.975968,0,0,3,0,0,0,77,80,130,130,25,95.21,98,-2.00,48.00,-990.00
2024-06-07 00:49:05.148015,0,0,3,0,0,0,77,79,129,130,25,95.09,98,35.00,9.00,-1007.00
2024-06-07 00:49:05.179851,0,0,3,0,0,0,77,79,129,130,25,95.37,98,-13.00,2.00,-1003.00
2024-06-07 00:49:05.352683,0,-1,3,0,0,0,77,79,129,130,25,95.31,98,5.00,-3.00,-976.00
2024-06-07 00:49:05.384089,0,-1,3,0,0,0,77,79,129,130,25,95.59,99,-20.00,7.00,-990.00
2024-06-07 00:49:05.557088,0,-1,3,0,0,0,77,79,129,130,25,95.15,99,5.00,-11.00,-1002.00
2024-06-07 00:49:05.587793,0,-1,3,0,0,0,77,79,129,130,25,95.30,99,-9.00,32.00,-979.00
2024-06-07 00:49:05.762101,0,-1,3,0,0,0,77,79,130,130,25,95.17,99,19.00,20.00,-1019.00
2024-06-07 00:49:05.792476,0,-1,3,0,0,0,77,79,129,130,25,95.36,99,-6.00,32.00,-996.00
2024-06-07 00:49:05.908841,0,-1,3,0,0,0,77,79,130,130,25,95.47,99,2.00,16.00,-985.00
2024-06-07 00:49:05.995661,0,-1,3,0,0,0,77,79,129,130,25,95.10,99,0.00,8.00,-995.00
2024-06-07 00:49:06.171374,0,-2,3,0,0,0,77,79,129,130,25,95.25,99,6.00,31.00,-967.00
2024-06-07 00:49:06.199804,0,-8,3,0,0,0,77,79,130,130,25,95.54,99,2.00,-7.00,-1019.00
2024-06-07 00:49:06.376129,0,-8,3,0,-2,0,77,79,131,130,25,95.22,99,-9.00,36.00,-1033.00
2024-06-07 00:49:06.403661,0,-6,3,0,-3,0,77,79,130,130,25,95.20,100,-5.00,41.00,-994.00
2024-06-07 00:49:06.580957,0,-3,3,0,-3,0,77,79,129,130,25,95.44,100,-21.00,46.00,-991.00
2024-06-07 00:49:06.607543,0,0,3,0,-3,0,77,79,128,130,25,95.10,100,20.00,48.00,-1014.00
2024-06-07 00:49:06.785736,0,0,3,0,-3,0,77,79,128,130,25,95.35,100,-4.00,17.00,-1008.00
2024-06-07 00:49:06.811625,0,0,3,0,-3,0,77,79,128,130,25,95.23,100,-4.00,41.00,-1013.00
2024-06-07 00:49:06.862628,0,-1,3,0,-2,0,77,79,129,130,25,95.27,100,-14.00,43.00,-992.00
2024-06-07 00:49:06.964518,0,-1,3,0,-2,0,77,79,128,130,25,95.14,100,15.00,-2.00,-1023.00
2024-06-07 00:49:07.197839,0,-1,3,0,-2,0,77,80,128,130,25,95.11,100,-4.00,31.00,-997.00
2024-06-07 00:49:07.312972,0,-1,3,0,-2,0,77,80,128,130,25,95.53,100,1.00,28.00,-1014.00
2024-06-07 00:49:07.313046,0,-1,3,0,-2,0,77,80,128,130,25,95.26,100,4.00,34.00,-996.00
2024-06-07 00:49:07.407393,0,-1,3,0,-2,0,77,80,128,130,25,95.39,101,-1.00,45.00,-998.00
2024-06-07 00:49:07.484649,0,-1,3,0,-2,0,77,80,128,130,25,95.04,101,7.00,27.00,-1010.00
2024-06-07 00:49:07.588042,0,0,3,0,-2,0,77,80,129,130,25,95.16,101,10.00,38.00,-996.00
2024-06-07 00:49:07.772020,0,0,3,0,-2,0,77,80,128,130,25,95.20,101,-6.00,35.00,-1000.00
2024-06-07 00:49:07.781487,0,0,3,0,-2,0,77,80,129,130,25,95.06,101,5.00,21.00,-1015.00
2024-06-07 00:49:07.912519,0,2,3,0,-1,0,77,80,129,130,25,95.26,101,20.00,25.00,-1007.00
2024-06-07 00:49:08.105846,0,2,3,0,0,0,77,80,129,130,25,95.45,101,18.00,10.00,-1015.00
2024-06-07 00:49:08.106622,0,0,3,0,0,0,76,79,129,130,25,95.44,101,-1.00,38.00,-993.00
2024-06-07 00:49:08.189160,0,0,3,0,0,0,76,79,129,130,25,95.21,101,-10.00,38.00,-1016.00
2024-06-07 00:49:08.310911,0,0,3,0,0,0,76,79,129,130,25,95.27,101,-16.00,27.00,-981.00
2024-06-07 00:49:08.393384,0,0,3,0,0,0,76,79,129,130,25,95.34,102,9.00,-11.00,-1013.00
2024-06-07 00:49:08.540881,0,0,3,0,0,0,76,79,130,130,25,95.28,102,0.00,17.00,-1001.00
2024-06-07 00:49:08.683149,0,0,3,0,0,0,76,79,130,130,25,95.26,102,0.00,16.00,-987.00
2024-06-07 00:49:08.698537,0,0,3,0,0,0,76,79,130,130,25,95.49,102,-3.00,21.00,-1002.00
2024-06-07 00:49:08.845014,0,0,3,0,0,0,76,79,130,130,25,95.31,102,5.00,9.00,-986.00
2024-06-07 00:49:08.997025,0,-1,3,0,0,0,76,79,130,130,25,95.44,102,5.00,-3.00,-1008.00
2024-06-07 00:49:09.006091,0,-1,3,0,0,0,76,79,130,130,25,95.05,102,7.00,23.00,-1022.00
2024-06-07 00:49:09.154706,0,-1,3,0,0,0,76,80,130,130,25,95.09,102,-2.00,-1.00,-1003.00
2024-06-07 00:49:09.209256,0,-1,3,0,0,0,76,80,130,130,25,95.31,102,-24.00,7.00,-1011.00
2024-06-07 00:49:09.349698,0,-1,3,0,0,0,76,80,130,130,25,95.42,102,-4.00,6.00,-1001.00
2024-06-07 00:49:09.413334,0,0,3,0,0,0,76,80,131,130,25,95.14,103,-37.00,12.00,-977.00
2024-06-07 00:49:09.552946,0,-1,3,0,0,0,76,80,131,130,25,95.18,103,24.00,24.00,-986.00
2024-06-07 00:49:09.618534,0,-1,3,0,0,0,76,80,131,130,25,95.42,103,-5.00,-3.00,-983.00
2024-06-07 00:49:09.718639,0,-1,3,0,0,0,76,80,131,130,25,95.11,103,23.00,21.00,-979.00
2024-06-07 00:49:09.820513,0,-1,3,0,0,0,76,80,132,130,25,95.64,103,-31.00,1.00,-980.00
2024-06-07 00:49:09.923168,0,0,3,0,0,0,76,80,131,130,25,95.67,103,-1.00,34.00,-980.00
2024-06-07 00:49:10.067871,0,0,3,0,0,0,76,80,131,130,25,95.19,103,16.00,20.00,-990.00
2024-06-07 00:49:10.127172,0,-1,3,0,0,0,77,80,131,130,25,95.30,103,23.00,-11.00,-983.00
2024-06-07 00:49:10.269049,0,-1,3,0,0,0,77,80,131,130,25,95.21,103,1.00,7.00,-997.00
2024-06-07 00:49:10.330483,0,0,3,0,0,0,77,80,131,130,25,95.04,103,29.00,16.00,-1002.00
2024-06-07 00:49:10.472178,0,7,3,0,0,0,77,80,130,130,25,95.50,104,26.00,-11.00,-999.00
2024-06-07 00:49:10.534402,0,6,3,0,2,0,77,80,130,130,25,95.39,104,2.00,12.00,-1028.00
2024-06-07 00:49:10.679013,0,4,3,0,3,0,77,80,129,130,25,95.14,104,5.00,9.00,-1009.00
2024-06-07 00:49:10.687137,0,1,3,0,4,0,77,80,130,130,25,95.39,104,-8.00,-17.00,-987.00
2024-06-07 00:49:10.789207,0,-1,3,0,3,0,77,80,130,130,25,94.95,104,20.00,-30.00,-1012.00
2024-06-07 00:49:10.983967,0,-1,3,0,3,0,77,80,130,130,25,95.32,104,-13.00,-16.00,-1026.00
2024-06-07 00:49:10.993200,0,-1,3,0,2,0,77,80,130,130,25,95.18,104,1.00,1.00,-978.00
2024-06-07 00:49:11.189074,0,0,3,0,2,0,78,80,130,130,25,95.54,104,6.00,-35.00,-1004.00
2024-06-07 00:49:11.197348,0,0,3,0,2,0,78,80,129,130,25,95.38,104,-6.00,5.00,-979.00
2024-06-07 00:49:11.393822,0,0,3,0,2,0,78,80,130,130,25,95.23,104,0.00,-10.00,-993.00
2024-06-07 00:49:11.401362,0,0,3,0,2,0,78,80,130,130,25,95.11,105,21.00,8.00,-1007.00
2024-06-07 00:49:11.600588,0,0,3,0,2,0,78,80,130,130,25,95.31,105,24.00,-9.00,-1015.00
2024-06-07 00:49:11.605250,0,0,3,0,2,0,78,80,129,130,25,95.24,105,16.00,-17.00,-1011.00
2024-06-07 00:49:11.805306,0,0,3,0,2,0,78,80,129,130,25,95.20,105,25.00,0.00,-1013.00
2024-06-07 00:49:11.809141,0,-1,3,0,2,0,78,80,129,130,25,95.20,105,-5.00,-32.00,-1006.00
2024-06-07 00:49:12.009678,0,-5,3,0,2,0,78,80,129,130,25,95.34,105,-28.00,-20.00,-1026.00
2024-06-07 00:49:12.013133,0,-5,3,0,1,0,78,80,128,130,25,95.23,105,0.00,3.00,-1010.00
2024-06-07 00:49:12.115319,0,-2,3,0,0,0,77,79,129,130,25,95.41,105,-4.00,-2.00,-1015.00
2024-06-07 00:49:12.217696,0,-1,3,0,0,0,77,79,129,130,25,95.25,105,5.00,-1.00,-983.00
2024-06-07 00:49:12.319260,0,-1,3,0,0,0,77,79,129,130,25,95.21,105,22.00,12.00,-976.00
2024-06-07 00:49:12.421638,0,-1,3,0,0,0,77,79,129,130,25,95.00,106,-9.00,-15.00,-1006.00
2024-06-07 00:49:12.622301,0,-1,3,0,0,0,77,79,130,130,25,95.58,106,18.00,12.00,-1008.00
2024-06-07 00:49:12.625121,0,-1,3,0,0,0,77,79,129,130,25,95.45,106,-14.00,11.00,-998.00
2024-06-07 00:49:12.727709,0,-1,3,0,0,0,77,79,129,130,25,95.24,106,12.00,4.00,-975.00
2024-06-07 00:49:12.829187,0,0,3,0,0,0,77,79,129,130,25,95.17,106,-3.00,30.00,-981.00
2024-06-07 00:49:12.931283,0,0,3,0,0,0,77,79,130,130,25,95.18,106,-6.00,0.00,-963.00
2024-06-07 00:49:13.033843,0,0,3,0,0,0,77,79,129,130,25,95.24,106,-12.00,27.00,-989.00
2024-06-07 00:49:13.136097,0,0,3,0,0,0,77,80,130,130,25,95.12,106,-11.00,33.00,-998.00
2024-06-07 00:49:13.339570,0,0,3,0,0,0,77,80,129,130,25,95.52,106,13.00,18.00,-994.00
2024-06-07 00:49:13.339916,0,0,3,0,0,0,77,80,129,130,25,95.06,106,-1.00,19.00,-1017.00
2024-06-07 00:49:13.441835,0,0,3,0,0,0,77,80,129,130,25,95.23,107,12.00,13.00,-1018.00
2024-06-07 00:49:13.544795,0,0,3,0,0,0,77,80,129,130,25,95.08,107,12.00,26.00,-984.00
2024-06-07 00:49:13.646295,0,0,3,0,0,0,77,80,128,130,25,95.32,107,-14.00,15.00,-986.00
2024-06-07 00:49:13.748771,0,0,3,0,0,0,77,80,128,130,25,95.37,107,26.00,7.00,-1016.00
2024-06-07 00:49:13.849148,0,0,3,0,0,0,77,80,128,130,25,95.43,107,-27.00,24.00,-1005.00
2024-06-07 00:49:13.953487,0,0,3,0,0,0,77,80,128,130,25,95.31,107,6.00,17.00,-1002.00
2024-06-07 00:49:14.053213,-1,0,3,0,0,0,77,80,128,130,25,95.32,107,6.00,10.00,-1000.00
2024-06-07 00:49:14.155298,0,0,3,0,0,0,77,80,128,130,25,95.25,107,-7.00,24.00,-1002.00
2024-06-07 00:49:14.260548,0,0,3,0,0,0,77,80,128,130,25,95.28,107,24.00,-4.00,-1021.00
2024-06-07 00:49:14.308992,0,0,8,0,0,0,77,80,128,130,25,95.33,107,22.00,-12.00,-992.00
2024-06-07 00:49:14.465354,0,0,14,0,0,0,77,80,128,130,25,95.32,108,6.00,37.00,-1015.00
2024-06-07 00:49:14.513831,0,0,20,0,0,0,77,80,129,130,25,95.37,108,0.00,7.00,-1005.00
2024-06-07 00:49:14.616270,0,0,26,0,0,0,77,80,128,130,25,95.22,108,-3.00,20.00,-987.00
2024-06-07 00:49:14.715916,0,0,32,0,0,0,77,80,128,130,25,95.36,108,-1.00,-2.00,-975.00
2024-06-07 00:49:14.817795,0,0,38,0,0,0,77,80,128,130,25,95.33,108,-8.00,34.00,-1014.00
2024-06-07 00:49:14.977316,0,0,44,0,0,0,77,80,128,130,25,95.30,108,-21.00,5.00,-1013.00
2024-06-07 00:49:15.021834,0,0,50,0,0,0,77,80,128,130,25,95.51,108,26.00,10.00,-1002.00
2024-06-07 00:49:15.182168,0,-1,63,0,0,0,77,79,128,130,25,95.35,108,8.00,5.00,-1026.00
2024-06-07 00:49:15.225804,0,-1,69,0,0,0,77,79,129,130,25,95.06,108,0.00,14.00,-989.00
2024-06-07 00:49:15.328424,0,-1,75,0,0,0,77,79,128,130,25,94.99,109,1.00,28.00,-1008.00
2024-06-07 00:49:15.430828,0,-1,81,0,0,0,77,79,127,130,25,95.32,109,-8.00,5.00,-1025.00
2024-06-07 00:49:15.592177,0,0,87,0,0,0,77,79,127,130,25,95.41,109,0.00,13.00,-983.00
2024-06-07 00:49:15.635139,0,0,93,0,0,0,77,79,127,130,25,95.18,109,-33.00,29.00,-1004.00
2024-06-07 00:49:15.797012,0,0,99,0,0,0,77,79,127,130,25,95.26,109,-10.00,17.00,-983.00
2024-06-07 00:49:15.838036,0,0,105,0,0,0,77,79,127,130,25,95.21,109,-1.00,-12.00,-999.00
2024-06-07 00:49:15.940198,0,0,111,0,0,0,77,79,127,130,25,95.25,109,21.00,9.00,-1007.00
2024-06-07 00:49:16.103698,0,0,117,0,0,0,77,79,126,130,25,95.25,109,-9.00,-1.00,-1005.00
2024-06-07 00:49:16.143728,0,0,123,0,0,0,77,80,126,130,25,95.40,109,15.00,17.00,-1006.00
2024-06-07 00:49:16.308523,0,0,129,0,0,0,77,80,126,120,25,95.25,109,-1.00,-11.00,-976.00
2024-06-07 00:49:16.347682,0,0,135,0,0,0,77,80,126,120,25,95.17,110,-24.00,-7.00,-1011.00
2024-06-07 00:49:16.513342,0,0,141,0,0,0,77,80,126,120,25,95.34,110,6.00,17.00,-1020.00
2024-06-07 00:49:16.551759,0,0,147,0,0,0,77,80,127,120,25,95.25,110,-12.00,11.00,-999.00
2024-06-07 00:49:16.717974,0,0,153,0,0,0,77,80,126,120,25,95.08,110,1.00,10.00,-1001.00
2024-06-07 00:49:16.755870,0,0,159,0,0,0,77,80,127,130,25,94.91,110,-24.00,0.00,-996.00
2024-06-07 00:49:16.922779,0,0,165,0,0,0,77,80,128,130,25,94.89,110,6.00,13.00,-978.00
2024-06-07 00:49:16.959965,0,0,171,0,0,0,77,80,127,130,25,95.47,110,6.00,7.00,-1002.00
2024-06-07 00:49:17.127623,0,0,177,0,0,0,77,80,128,130,25,95.11,110,-9.00,20.00,-998.00
2024-06-07 00:49:17.166404,0,0,-176,0,0,0,77,81,128,130,25,95.30,110,-13.00,9.00,-1004.00
2024-06-07 00:49:17.265623,0,0,-170,0,0,0,77,81,129,130,25,95.42,110,11.00,18.00,-973.00
2024-06-07 00:49:17.434957,0,0,-164,0,0,0,77,81,129,130,25,94.96,111,34.00,-6.00,-1018.00
2024-06-07 00:49:17.469521,0,0,-158,0,0,0,77,81,128,130,25,94.91,111,-3.00,32.00,-990.00
2024-06-07 00:49:17.641688,0,0,-152,0,0,0,77,81,129,130,25,94.89,111,-36.00,19.00,-1005.00
2024-06-07 00:49:17.673889,0,0,-146,0,0,0,77,81,129,130,25,94.89,111,-33.00,10.00,-1017.00
2024-06-07 00:49:17.844551,0,0,-140,0,0,0,77,81,129,130,25,95.26,111,4.00,11.00,-996.00
2024-06-07 00:49:17.878592,0,0,-135,0,0,0,77,81,128,130,25,95.00,111,-30.00,-7.00,-978.00
2024-06-07 00:49:18.051268,0,0,-129,0,0,0,77,81,129,130,25,95.26,111,-26.00,0.00,-994.00
2024-06-07 00:49:18.082572,0,0,-123,0,0,0,77,81,129,130,25,95.15,111,-20.00,36.00,-1015.00
2024-06-07 00:49:18.254128,0,0,-117,0,0,0,77,80,129,130,25,95.10,111,-15.00,15.00,-984.00
2024-06-07 00:49:18.286548,0,0,-111,0,0,0,77,80,129,130,25,95.20,111,-6.00,46.00,-999.00
2024-06-07 00:49:18.337944,0,0,-104,0,0,0,77,80,129,130,25,95.06,112,-20.00,3.00,-1000.00
2024-06-07 00:49:18.459434,0,0,-98,0,0,0,77,80,129,130,25,95.21,112,-52.00,13.00,-1001.00
2024-06-07 00:49:18.542797,0,0,-92,0,0,0,77,80,129,130,25,94.98,112,-47.00,22.00,-1014.00
2024-06-07 00:49:18.663546,0,0,-87,0,0,0,77,80,129,130,24,94.99,112,-4.00,2.00,-971.00
2024-06-07 00:49:18.748350,0,0,-81,0,0,0,77,80,129,130,24,95.12,112,0.00,18.00,-1008.00
2024-06-07 00:49:18.849063,0,0,-75,0,0,0,77,80,129,130,24,94.95,112,11.00,7.00,-993.00
2024-06-07 00:49:18.953187,0,0,-69,0,0,0,77,80,129,130,24,95.15,112,-11.00,34.00,-1011.00
2024-06-07 00:49:19.051694,0,0,-63,0,0,0,77,80,129,130,24,95.07,112,-4.00,0.00,-1028.00
2024-06-07 00:49:19.175523,0,0,-57,0,0,0,77,81,129,130,24,95.20,112,-14.00,25.00,-993.00
2024-06-07 00:49:19.255464,0,0,-51,0,0,0,77,81,129,130,24,94.96,112,4.00,-6.00,-1009.00
2024-06-07 00:49:19.380646,0,0,-45,0,0,0,77,81,129,130,24,95.22,113,-5.00,6.00,-1006.00
2024-06-07 00:49:19.459551,0,0,-39,0,0,0,77,81,129,130,24,95.32,113,9.00,26.00,-995.00
2024-06-07 00:49:19.585122,0,0,-33,0,0,0,77,81,129,130,24,94.97,113,0.00,7.00,-977.00
2024-06-07 00:49:19.663374,0,0,-27,0,0,0,77,81,128,130,24,95.01,113,-24.00,11.00,-1008.00
2024-06-07 00:49:19.790089,0,0,-21,0,0,0,77,81,129,130,24,95.15,113,-11.00,-13.00,-1005.00
2024-06-07 00:49:19.867385,0,0,-15,0,0,0,77,81,128,130,24,95.30,113,-8.00,45.00,-1032.00
2024-06-07 00:49:19.994729,0,0,-10,0,0,0,77,81,128,130,24,95.20,113,-4.00,20.00,-1019.00
2024-06-07 00:49:20.071604,0,0,-7,0,0,0,77,81,128,130,24,95.32,113,-20.00,-16.00,-1001.00
2024-06-07 00:49:20.199636,0,0,-4,0,0,0,77,81,128,130,24,95.22,113,4.00,6.00,-1006.00
2024-06-07 00:49:20.275349,0,0,-2,0,0,0,77,81,128,130,24,95.23,113,-8.00,-11.00,-1010.00
2024-06-07 00:49:20.404262,1,0,-1,0,0,0,77,81,128,130,24,95.36,114,-33.00,16.00,-1004.00
2024-06-07 00:49:20.479355,1,0,0,0,0,0,77,81,129,130,24,95.02,114,-1.00,4.00,-1002.00
2024-06-07 00:49:20.609061,0,0,0,0,0,0,77,81,128,130,24,95.38,114,-4.00,-10.00,-1003.00
2024-06-07 00:49:20.683951,0,0,1,0,0,0,77,81,129,130,24,95.32,114,-19.00,-24.00,-1002.00
2024-06-07 00:49:20.785501,0,0,2,0,0,0,77,81,128,130,24,95.54,114,-23.00,-20.00,-973.00
2024-06-07 00:49:20.918414,0,0,1,0,0,0,77,81,128,130,24,95.13,114,-18.00,3.00,-997.00
2024-06-07 00:49:20.989459,0,0,1,0,0,0,77,81,129,130,24,95.26,114,-2.00,27.00,-1000.00
2024-06-07 00:49:21.121240,0,0,1,0,0,0,77,81,129,130,24,95.42,114,21.00,-4.00,-1010.00
2024-06-07 00:49:21.193474,1,0,1,0,0,0,79,80,129,130,24,95.21,114,11.00,14.00,-1001.00
2024-06-07 00:49:21.326013,0,0,1,0,0,0,79,80,129,130,24,95.11,114,-1.00,1.00,-1017.00
2024-06-07 00:49:21.398143,1,0,1,0,0,0,79,80,129,130,24,95.28,115,-9.00,23.00,-1002.00
2024-06-07 00:49:21.530926,0,0,1,0,0,0,79,80,129,130,24,95.06,115,1.00,3.00,-1019.00
2024-06-07 00:49:21.601881,0,0,1,0,0,0,79,80,128,130,24,95.23,115,1.00,24.00,-998.00
2024-06-07 00:49:21.735820,0,0,1,0,0,0,79,80,129,130,24,95.36,115,14.00,0.00,-1000.00
2024-06-07 00:49:21.805361,0,0,1,0,0,0,79,80,129,130,24,95.06,115,-5.00,2.00,-1022.00
2024-06-07 00:49:21.857363,0,0,1,0,0,0,79,80,129,130,24,95.29,115,39.00,-18.00,-1005.00
2024-06-07 00:49:22.145610,0,0,1,0,0,0,79,80,129,130,24,95.03,115,3.00,26.00,-1007.00
2024-06-07 00:49:22.145784,0,0,1,0,0,0,79,80,129,130,24,95.14,115,0.00,8.00,-989.00
2024-06-07 00:49:22.162311,0,0,1,0,0,0,77,80,129,130,24,95.26,115,-1.00,15.00,-1016.00
2024-06-07 00:49:22.363067,0,0,1,0,0,0,77,80,129,130,24,94.98,115,29.00,3.00,-1019.00
2024-06-07 00:49:22.366344,0,0,1,0,0,0,77,80,129,130,24,95.29,116,10.00,-2.00,-995.00
2024-06-07 00:49:22.557884,0,0,1,0,0,0,77,80,129,130,24,95.16,116,14.00,6.00,-1008.00
2024-06-07 00:49:22.632844,0,0,1,0,0,0,77,80,129,130,23,95.38,116,0.00,27.00,-1000.00
2024-06-07 00:49:22.695343,0,0,1,0,0,0,77,80,129,130,23,95.45,116,15.00,4.00,-972.00
2024-06-07 00:49:22.820667,0,0,1,0,0,0,77,80,129,130,23,95.59,116,0.00,36.00,-990.00
2024-06-07 00:49:22.883020,0,0,0,0,0,0,77,80,129,130,23,95.27,116,21.00,-6.00,-1022.00
2024-06-07 00:49:22.981248,0,0,-6,0,0,0,77,80,129,130,23,94.86,116,22.00,5.00,-993.00
2024-06-07 00:49:23.110249,0,0,-12,0,0,0,77,80,129,130,23,95.23,116,-20.00,6.00,-991.00
2024-06-07 00:49:23.182866,0,0,-18,0,0,0,78,80,129,130,23,94.92,116,-16.00,7.00,-1012.00
2024-06-07 00:49:23.320146,0,0,-24,0,0,0,78,80,129,130,23,95.13,116,15.00,-15.00,-992.00
2024-06-07 00:49:23.465999,0,0,-30,0,0,0,78,80,129,130,23,95.30,117,8.00,0.00,-974.00
2024-06-07 00:49:23.489233,0,0,-36,0,0,0,78,80,130,130,23,94.83,117,-9.00,-21.00,-990.00
2024-06-07 00:49:23.606879,0,-1,-42,0,0,0,78,80,129,130,23,95.24,117,-15.00,49.00,-985.00
2024-06-07 00:49:23.750240,0,-1,-48,0,0,0,78,80,129,130,23,95.40,117,0.00,24.00,-997.00
2024-06-07 00:49:23.896620,0,-1,-54,0,0,0,78,80,130,130,23,95.33,117,22.00,12.00,-989.00
2024-06-07 00:49:23.896701,0,0,-60,0,0,0,78,80,129,130,23,95.35,117,10.00,22.00,-1016.00
2024-06-07 00:49:24.050888,0,0,-66,0,0,0,78,80,128,130,23,95.00,117,17.00,5.00,-1010.00
2024-06-07 00:49:24.116322,0,0,-72,0,0,0,78,80,129,130,23,94.99,117,13.00,17.00,-1010.00
2024-06-07 00:49:24.204387,0,0,-78,0,0,0,77,80,129,130,23,95.21,117,41.00,12.00,-1003.00
2024-06-07 00:49:24.304392,0,0,-84,0,0,0,77,80,129,130,23,94.98,117,-6.00,-16.00,-985.00
2024-06-07 00:49:24.502038,0,0,-90,0,0,0,77,80,128,130,23,95.23,118,-1.00,27.00,-993.00
2024-06-07 00:49:24.508200,0,0,-96,0,0,0,77,80,128,130,23,94.98,118,-1.00,3.00,-1005.00
2024-06-07 00:49:24.707698,1,0,-102,0,0,0,77,80,129,130,23,95.08,118,22.00,16.00,-1008.00
2024-06-07 00:49:24.712057,1,0,-108,0,0,0,77,80,128,130,23,95.17,118,-6.00,34.00,-1011.00
2024-06-07 00:49:24.814310,1,0,-114,0,0,0,77,80,128,130,23,95.23,118,12.00,30.00,-1021.00
2024-06-07 00:49:25.012142,1,0,-119,0,0,0,77,80,128,130,23,95.18,118,10.00,13.00,-1026.00
2024-06-07 00:49:25.012310,1,0,-125,0,0,0,77,80,129,130,23,95.50,118,23.00,0.00,-1007.00
2024-06-07 00:49:25.068851,1,0,-131,0,0,0,77,80,128,130,23,95.17,118,-6.00,-4.00,-980.00
2024-06-07 00:49:25.221888,1,0,-137,0,0,0,79,80,128,130,23,95.05,118,18.00,10.00,-1012.00
2024-06-07 00:49:25.323926,0,0,-143,0,0,0,79,80,128,130,23,95.36,118,5.00,-6.00,-1000.00
2024-06-07 00:49:25.425796,1,0,-149,0,0,0,79,80,128,130,23,95.06,119,6.00,17.00,-1012.00
2024-06-07 00:49:25.476981,1,0,-155,0,0,0,79,80,127,130,23,94.95,119,7.00,13.00,-1004.00
2024-06-07 00:49:25.626450,1,0,-161,0,0,0,79,80,128,130,23,95.19,119,14.00,-31.00,-984.00
2024-06-07 00:49:25.680868,0,0,-167,0,0,0,79,80,128,130,23,94.86,119,6.00,8.00,-997.00
2024-06-07 00:49:25.831403,1,0,-173,0,0,0,79,80,129,130,23,95.44,119,2.00,18.00,-1004.00
2024-06-07 00:49:25.884778,1,0,-179,0,0,0,79,80,128,130,23,95.30,119,-9.00,15.00,-1003.00
2024-06-07 00:49:26.036139,1,0,174,0,0,0,79,80,128,130,23,95.26,119,-19.00,0.00,-994.00
2024-06-07 00:49:26.088833,0,0,168,0,0,0,79,80,128,130,23,95.55,119,-4.00,31.00,-1008.00
2024-06-07 00:49:26.240820,0,0,162,0,0,0,77,80,129,130,23,95.05,119,-10.00,13.00,-996.00
2024-06-07 00:49:26.292969,0,0,156,0,0,0,77,80,129,130,23,95.39,119,5.00,4.00,-991.00
2024-06-07 00:49:26.445698,0,0,150,0,0,0,77,80,129,130,23,95.17,120,-9.00,12.00,-989.00
2024-06-07 00:49:26.496794,1,0,144,0,0,0,77,80,128,130,23,95.03,120,0.00,-17.00,-983.00
2024-06-07 00:49:26.664819,0,0,138,0,0,0,77,80,129,130,23,95.10,120,-11.00,44.00,-985.00
2024-06-07 00:49:26.701026,1,0,132,0,0,0,77,80,129,130,23,95.19,120,17.00,21.00,-1010.00
2024-06-07 00:49:26.802741,1,0,126,0,0,0,77,80,129,130,23,95.15,120,42.00,4.00,-1006.00
2024-06-07 00:49:26.959641,1,-1,120,0,0,0,77,80,129,130,23,95.60,120,-19.00,39.00,-976.00
2024-06-07 00:49:27.006664,0,-1,114,0,0,0,77,80,129,130,23,95.36,120,23.00,17.00,-1007.00
2024-06-07 00:49:27.162412,0,-1,108,0,0,0,77,80,129,130,23,95.25,120,-8.00,-1.00,-1009.00
2024-06-07 00:49:27.210955,0,-1,102,0,0,0,79,81,130,130,23,95.29,120,30.00,26.00,-1020.00
2024-06-07 00:49:27.367203,0,0,97,0,0,0,79,81,129,130,23,95.22,120,9.00,19.00,-1014.00
2024-06-07 00:49:27.416136,0,0,91,0,0,0,79,81,129,130,23,94.94,121,16.00,17.00,-1001.00
2024-06-07 00:49:27.571953,0,0,85,0,0,0,79,81,128,130,23,95.22,121,6.00,23.00,-1018.00
2024-06-07 00:49:27.620885,0,0,79,0,0,0,79,81,128,130,23,95.33,121,0.00,-6.00,-1007.00
2024-06-07 00:49:27.721300,0,0,73,0,0,0,79,81,129,130,23,95.13,121,-18.00,10.00,-980.00
2024-06-07 00:49:27.825352,0,0,67,0,0,0,79,81,128,130,23,95.10,121,34.00,17.00,-1023.00
2024-06-07 00:49:27.928003,1,0,61,0,0,0,79,81,129,130,23,95.13,121,6.00,6.00,-1015.00
2024-06-07 00:49:28.028992,0,0,55,0,0,0,79,81,128,130,23,95.15,121,14.00,15.00,-998.00
2024-06-07 00:49:28.128749,0,0,49,0,0,0,79,81,128,130,23,95.03,121,11.00,34.00,-1001.00
2024-06-07 00:49:28.288715,0,0,43,0,0,0,79,82,129,130,23,95.04,121,4.00,8.00,-1008.00
2024-06-07 00:49:28.332767,0,-1,37,0,0,0,79,82,129,130,23,95.07,121,27.00,10.00,-1015.00
2024-06-07 00:49:28.493595,0,0,31,0,0,0,79,82,129,130,23,95.05,122,20.00,5.00,-1009.00
2024-06-07 00:49:28.536582,0,-1,25,0,0,0,79,82,129,130,23,95.21,122,-11.00,19.00,-979.00
2024-06-07 00:49:28.700362,0,0,19,0,0,0,79,82,129,130,22,95.11,122,14.00,-11.00,-976.00
2024-06-07 00:49:28.743480,0,0,15,0,0,0,79,82,129,130,22,95.13,122,-17.00,17.00,-1018.00
2024-06-07 00:49:28.842613,0,0,12,0,0,0,79,82,130,130,22,95.23,122,-1.00,15.00,-975.00
2024-06-07 00:49:29.007523,0,0,9,0,0,0,79,82,130,130,22,94.56,122,8.00,13.00,-1024.00
2024-06-07 00:49:29.046574,0,0,7,0,0,0,79,82,130,130,22,95.32,122,8.00,16.00,-985.00
2024-06-07 00:49:29.099311,0,0,6,0,0,0,79,82,129,130,22,95.08,122,2.00,51.00,-994.00
2024-06-07 00:49:29.250600,0,0,5,0,0,0,78,81,130,130,22,95.14,122,-13.00,22.00,-996.00
2024-06-07 00:49:29.301484,0,0,4,0,0,0,78,81,130,130,22,94.99,122,11.00,37.00,-1008.00
2024-06-07 00:49:29.403858,0,0,3,0,0,0,78,81,130,130,22,95.28,123,-12.00,6.00,-1016.00
2024-06-07 00:49:29.517791,0,0,3,0,0,0,78,81,130,130,22,95.16,123,6.00,15.00,-1002.00
2024-06-07 00:49:29.608602,0,0,3,0,0,0,78,81,130,130,22,95.04,123,9.00,27.00,-1008.00
2024-06-07 00:49:29.710700,0,0,3,0,0,0,78,81,131,130,22,95.00,123,-3.00,32.00,-1009.00
2024-06-07 00:49:29.812351,0,0,3,0,0,0,78,81,130,130,22,94.88,123,-3.00,21.00,-1016.00
2024-06-07 00:49:29.914742,0,0,3,0,0,0,78,81,131,130,22,95.15,123,3.00,-4.00,-997.00
2024-06-07 00:49:30.016285,0,0,3,0,0,0,78,81,131,130,22,94.93,123,15.00,18.00,-1006.00
2024-06-07 00:49:30.118267,0,0,3,0,0,0,78,81,130,130,22,95.13,123,5.00,19.00,-1012.00
2024-06-07 00:49:30.220692,0,0,3,0,0,0,78,81,130,130,22,94.91,123,8.00,-5.00,-1011.00
2024-06-07 00:49:30.322664,0,0,3,0,0,0,78,81,131,130,22,95.06,123,-5.00,11.00,-998.00
2024-06-07 00:49:30.439268,0,0,3,0,0,0,78,81,130,130,22,95.27,124,-4.00,12.00,-989.00
2024-06-07 00:49:30.526710,0,0,3,0,0,0,78,81,129,130,22,94.99,124,16.00,4.00,-998.00
2024-06-07 00:49:30.644019,0,0,3,0,0,0,78,81,130,130,22,95.55,124,-7.00,8.00,-1028.00
2024-06-07 00:49:30.730888,0,0,3,0,0,0,78,81,130,130,22,95.03,124,-14.00,39.00,-1001.00
2024-06-07 00:49:30.833221,0,0,3,0,0,0,78,81,129,130,22,94.89,124,0.00,-7.00,-1002.00
2024-06-07 00:49:30.935415,0,0,3,0,0,0,78,81,129,130,22,95.32,124,-1.00,21.00,-1015.00
2024-06-07 00:49:31.038890,0,0,3,0,0,0,78,81,129,130,22,94.95,124,-3.00,3.00,-983.00
2024-06-07 00:49:31.139349,0,0,3,0,0,0,78,81,129,130,22,95.29,124,-2.00,15.00,-1030.00
2024-06-07 00:49:31.243733,0,0,3,0,0,0,78,81,129,130,22,95.10,124,10.00,-14.00,-1017.00
2024-06-07 00:49:31.345194,0,0,3,0,0,0,78,81,129,130,22,95.13,125,-19.00,33.00,-1014.00
2024-06-07 00:49:31.443442,0,0,3,0,0,0,78,81,129,130,22,95.15,125,-4.00,-12.00,-987.00
2024-06-07 00:49:31.565584,0,0,3,0,0,0,78,81,128,130,22,95.27,125,-11.00,25.00,-1002.00
2024-06-07 00:49:31.647611,0,0,3,0,0,0,78,81,128,130,22,95.38,125,-20.00,9.00,-983.00
2024-06-07 00:49:31.770592,0,0,3,0,0,0,78,81,129,130,22,95.42,125,22.00,1.00,-988.00
2024-06-07 00:49:31.852969,0,0,3,0,0,0,78,81,129,130,22,94.90,125,-6.00,-4.00,-991.00
2024-06-07 00:49:31.960134,0,0,3,0,0,0,78,81,128,130,22,95.05,125,-9.00,30.00,-996.00
2024-06-07 00:49:32.055388,0,0,3,0,0,0,78,81,129,130,22,95.09,125,18.00,-13.00,-988.00
2024-06-07 00:49:32.180227,0,0,3,0,0,0,78,81,128,130,22,95.28,125,3.00,12.00,-992.00
2024-06-07 00:49:32.259458,0,0,3,0,0,0,78,80,128,130,22,95.13,125,0.00,6.00,-1006.00
2024-06-07 00:49:32.384898,0,0,3,0,0,0,78,80,128,130,22,94.87,126,24.00,12.00,-1030.00
2024-06-07 00:49:32.463379,-1,0,3,0,0,0,78,80,128,130,22,94.97,126,-51.00,-3.00,-1029.00
2024-06-07 00:49:32.589796,0,0,3,0,0,0,78,80,129,130,22,94.96,126,-34.00,12.00,-1001.00
2024-06-07 00:49:32.667312,0,0,3,0,0,0,78,80,128,130,22,95.24,126,-19.00,16.00,-1007.00
2024-06-07 00:49:32.718387,0,0,3,0,0,0,78,80,128,130,22,95.36,126,-19.00,-12.00,-983.00
2024-06-07 00:49:32.820403,0,0,3,0,0,0,78,80,129,130,22,95.10,126,-1.00,23.00,-992.00
2024-06-07 00:49:32.999339,0,0,3,0,0,0,78,80,128,130,22,95.33,126,-3.00,14.00,-996.00
2024-06-07 00:49:33.026699,0,0,3,0,0,0,78,80,128,130,22,95.15,126,5.00,19.00,-1039.00
2024-06-07 00:49:33.126313,0,0,3,0,0,0,78,80,128,130,22,95.13,126,-4.00,18.00,-1002.00
2024-06-07 00:49:33.308307,0,0,3,0,0,0,78,80,128,130,22,95.25,126,-3.00,-10.00,-1002.00
2024-06-07 00:49:33.330471,0,0,3,0,0,0,78,80,128,130,22,95.28,127,23.00,1.00,-1002.00
2024-06-07 00:49:33.511112,0,0,3,0,0,0,78,80,128,130,22,94.82,127,-8.00,3.00,-979.00
2024-06-07 00:49:33.534258,0,0,3,0,0,0,78,80,128,130,22,95.12,127,-11.00,24.00,-997.00
2024-06-07 00:49:33.716001,0,0,3,0,0,0,78,80,129,130,22,95.15,127,9.00,4.00,-965.00
2024-06-07 00:49:33.738283,0,0,3,0,0,0,78,80,128,130,22,94.87,127,-5.00,4.00,-987.00
2024-06-07 00:49:33.840319,0,0,3,0,0,0,78,80,129,130,22,94.78,127,-16.00,0.00,-978.00
2024-06-07 00:49:34.024201,0,0,3,0,0,0,78,80,129,130,22,95.05,127,4.00,19.00,-989.00
2024-06-07 00:49:34.044265,0,0,3,0,0,0,78,80,129,130,22,95.07,127,14.00,-1.00,-978.00
2024-06-07 00:49:34.229000,0,0,3,0,0,0,78,80,128,130,22,95.17,127,-3.00,11.00,-1000.00
2024-06-07 00:49:34.248230,0,0,3,0,0,0,78,81,128,130,22,94.95,127,3.00,27.00,-1011.00
2024-06-07 00:49:34.400145,0,0,3,0,0,0,78,81,129,130,22,95.06,128,5.00,-7.00,-1011.00
2024-06-07 00:49:34.452402,0,0,3,0,0,0,78,81,129,130,22,94.86,128,-34.00,15.00,-989.00
2024-06-07 00:49:34.639242,0,0,3,0,0,0,78,81,129,130,22,94.96,128,-7.00,0.00,-972.00
2024-06-07 00:49:34.660373,0,0,3,0,0,0,78,81,129,130,22,95.17,128,-27.00,19.00,-978.00
2024-06-07 00:49:34.758162,-1,0,3,0,0,0,78,81,129,130,22,94.99,128,17.00,12.00,-1011.00
2024-06-07 00:49:34.860133,-1,0,3,0,0,0,78,81,130,130,22,94.92,128,-32.00,24.00,-1006.00
2024-06-07 00:49:34.962069,-1,0,3,0,0,0,78,81,129,130,22,95.33,128,29.00,1.00,-1002.00
2024-06-07 00:49:35.064189,-1,0,3,0,0,0,78,81,129,130,22,95.09,128,-20.00,8.00,-1000.00
2024-06-07 00:49:35.252137,-1,0,3,0,0,0,78,81,130,130,22,95.21,128,2.00,-15.00,-984.00
2024-06-07 00:49:35.268081,0,0,3,0,0,0,78,82,130,130,22,95.03,128,-11.00,50.00,-991.00
2024-06-07 00:49:35.457076,0,0,3,0,0,0,78,82,130,130,22,95.18,129,3.00,6.00,-1013.00
2024-06-07 00:49:35.472105,0,0,3,0,0,0,78,82,130,130,22,94.85,129,0.00,2.00,-998.00
2024-06-07 00:49:35.661708,0,0,3,0,0,0,78,82,130,130,22,95.26,129,12.00,45.00,-1012.00
2024-06-07 00:49:35.676030,0,0,3,0,0,0,78,82,131,130,22,95.41,129,-11.00,-10.00,-994.00
2024-06-07 00:49:35.866148,0,0,3,0,0,0,78,82,130,130,22,95.43,129,-49.00,37.00,-1009.00
2024-06-07 00:49:35.880013,0,0,3,0,0,0,78,82,130,130,22,95.20,129,0.00,3.00,-1004.00
2024-06-07 00:49:36.071083,0,0,3,0,0,0,78,82,130,130,22,95.24,129,3.00,-13.00,-1003.00
2024-06-07 00:49:36.084873,0,0,3,0,0,0,78,82,129,130,22,95.29,129,-10.00,24.00,-1016.00
2024-06-07 00:49:36.279077,0,0,3,0,0,0,78,82,129,130,22,94.91,129,13.00,5.00,-997.00
2024-06-07 00:49:36.288909,0,0,3,0,0,0,78,81,129,130,22,95.56,129,17.00,3.00,-1017.00
2024-06-07 00:49:36.480898,0,0,3,0,0,0,78,81,128,130,22,95.04,130,-2.00,18.00,-1004.00
2024-06-07 00:49:36.491931,0,0,3,0,0,0,78,81,128,130,22,95.28,130,14.00,20.00,-1030.00
2024-06-07 00:49:36.685371,0,0,3,0,0,0,78,81,128,130,22,94.91,130,0.00,11.00,-1003.00
2024-06-07 00:49:36.685565,0,0,3,0,0,0,78,81,128,130,22,94.85,130,16.00,12.00,-1024.00
2024-06-07 00:49:36.747036,0,0,3,0,0,0,78,81,128,130,22,95.03,130,2.00,5.00,-994.00
2024-06-07 00:49:36.849011,0,0,3,0,0,0,78,81,128,130,22,94.58,130,-12.00,17.00,-1005.00
2024-06-07 00:49:36.993681,0,0,3,0,0,0,78,81,128,130,22,95.16,130,5.00,2.00,-999.00
2024-06-07 00:49:37.114880,0,0,3,0,0,0,78,81,129,130,22,95.08,130,3.00,3.00,-983.00
2024-06-07 00:49:37.257428,0,0,3,0,0,0,78,81,129,130,22,94.81,130,-6.00,-6.00,-1012.00
2024-06-07 00:49:37.257595,0,0,3,0,0,0,78,81,129,130,22,94.86,130,-7.00,-19.00,-980.00
2024-06-07 00:49:37.455278,0,0,3,0,0,0,78,81,129,130,22,95.07,131,-18.00,2.00,-1009.00
2024-06-07 00:49:37.461241,-1,0,3,0,0,0,78,81,129,130,22,94.88,131,-13.00,23.00,-1000.00
2024-06-07 00:49:37.562956,0,0,3,0,0,0,78,81,130,130,22,95.12,131,-11.00,8.00,-1010.00
2024-06-07 00:49:37.722979,0,-1,3,0,0,0,78,81,130,130,22,95.36,131,-4.00,9.00,-1007.00
2024-06-07 00:49:37.775008,0,0,3,0,0,0,78,81,130,130,22,95.10,131,-14.00,8.00,-983.00
2024-06-07 00:49:37.869522,0,0,3,0,0,0,78,81,130,130,22,95.12,131,-15.00,-1.00,-1003.00
2024-06-07 00:49:38.016529,0,0,3,0,0,0,78,81,130,130,22,95.10,131,-4.00,41.00,-983.00
2024-06-07 00:49:38.161076,0,0,3,0,0,0,78,81,129,130,22,94.88,131,21.00,-1.00,-969.00
2024-06-07 00:49:38.174812,0,0,3,0,0,0,78,81,130,130,22,94.92,131,0.00,9.00,-990.00
2024-06-07 00:49:38.372816,0,0,3,0,0,0,79,80,130,130,22,95.00,131,9.00,14.00,-989.00
2024-06-07 00:49:38.378717,0,0,3,0,0,0,79,80,129,130,22,95.04,132,-28.00,17.00,-978.00
2024-06-07 00:49:38.516366,0,0,3,0,0,0,79,80,128,130,22,94.97,132,-1.00,6.00,-1000.00
2024-06-07 00:49:38.659239,0,0,3,0,0,0,79,80,129,130,22,95.15,132,-6.00,5.00,-977.00
2024-06-07 00:49:38.684806,0,0,3,0,0,0,79,80,128,130,22,95.28,132,14.00,-2.00,-989.00
2024-06-07 00:49:38.802412,0,0,3,0,0,0,79,80,128,130,22,95.29,132,-1.00,32.00,-1026.00
2024-06-07 00:49:38.949013,0,0,3,0,0,0,79,80,128,130,22,95.02,132,5.00,1.00,-1010.00
2024-06-07 00:49:39.103137,0,0,3,0,0,0,79,80,128,130,22,95.26,132,-18.00,1.00,-989.00
2024-06-07 00:49:39.103310,0,0,3,0,0,0,79,80,128,130,22,95.17,132,-10.00,-10.00,-974.00
2024-06-07 00:49:39.197954,0,0,3,0,0,0,79,80,128,130,22,95.23,132,2.00,3.00,-1016.00
2024-06-07 00:49:39.298268,0,0,3,0,0,0,79,80,127,130,22,95.07,132,-15.00,-13.00,-1001.00
2024-06-07 00:49:39.398787,0,0,3,0,0,0,79,80,128,130,22,94.81,133,7.00,-9.00,-984.00
2024-06-07 00:49:39.552409,0,0,3,0,0,0,79,80,128,130,22,95.04,133,-21.00,-3.00,-999.00
2024-06-07 00:49:39.603335,0,0,3,0,0,0,79,80,128,130,22,95.01,133,11.00,-12.00,-1009.00
2024-06-07 00:49:39.757267,0,0,3,0,0,0,79,80,129,130,22,94.95,133,6.00,8.00,-1009.00
2024-06-07 00:49:39.806716,0,0,3,0,0,0,79,80,128,130,22,95.24,133,18.00,24.00,-1018.00
2024-06-07 00:49:39.962084,0,0,3,0,0,0,79,80,128,130,22,95.10,133,10.00,0.00,-1011.00
2024-06-07 00:49:39.962277,0,0,3,0,0,0,79,80,129,130,22,94.67,133,18.00,20.00,-1027.00
2024-06-07 00:49:40.061923,0,0,3,0,0,0,79,80,128,130,22,94.83,133,5.00,-5.00,-1006.00
2024-06-07 00:49:40.168957,0,0,3,0,0,0,79,80,129,130,22,94.98,133,-3.00,3.00,-1012.00
2024-06-07 00:49:40.271443,0,0,3,0,0,0,78,81,129,130,22,95.00,133,-7.00,-2.00,-1011.00
2024-06-07 00:49:40.367995,0,0,3,0,0,0,78,81,130,130,22,95.19,134,-2.00,-22.00,-1013.00
2024-06-07 00:49:40.475952,0,0,3,0,0,0,78,81,130,130,22,94.89,134,-2.00,15.00,-1020.00
2024-06-07 00:49:40.571878,0,0,3,0,0,0,78,81,130,130,22,95.41,134,25.00,2.00,-998.00
2024-06-07 00:49:40.674915,0,0,3,0,0,0,78,81,130,130,22,94.93,134,-19.00,0.00,-974.00
2024-06-07 00:49:40.783320,0,0,3,0,0,0,78,81,129,130,22,95.40,134,1.00,-6.00,-992.00
2024-06-07 00:49:40.878690,0,0,3,0,0,0,78,81,129,130,22,95.08,134,13.00,-4.00,-1011.00
2024-06-07 00:49:40.980710,0,0,3,0,0,0,78,81,129,130,22,95.00,134,-32.00,19.00,-1001.00
2024-06-07 00:49:41.085262,0,0,3,0,0,0,78,81,129,130,22,94.97,134,-5.00,19.00,-1002.00
2024-06-07 00:49:41.184817,0,0,3,0,0,0,78,81,129,130,22,94.74,134,20.00,4.00,-992.00
2024-06-07 00:49:41.287171,0,0,3,0,0,0,78,81,128,130,22,95.25,134,3.00,18.00,-1005.00
2024-06-07 00:49:41.395795,0,0,3,0,0,0,78,81,128,130,22,94.83,135,-4.00,-6.00,-1014.00
2024-06-07 00:49:41.493510,0,0,3,0,0,0,78,81,128,130,22,95.27,135,5.00,6.00,-1005.00
2024-06-07 00:49:41.592588,0,0,3,0,0,0,78,81,128,130,22,95.07,135,13.00,-9.00,-1015.00
2024-06-07 00:49:41.703102,0,0,3,0,0,0,78,81,128,130,22,95.03,135,16.00,-18.00,-991.00
2024-06-07 00:49:41.796681,0,0,3,0,0,0,78,81,129,130,22,95.12,135,-2.00,2.00,-964.00
2024-06-07 00:49:41.907930,0,0,3,0,0,0,78,81,128,130,22,94.73,135,-18.00,-8.00,-998.00
2024-06-07 00:49:42.000941,0,0,3,0,0,0,78,81,129,130,22,95.22,135,-13.00,-14.00,-986.00
2024-06-07 00:49:42.118589,0,0,3,0,0,0,78,81,129,130,22,94.77,135,-6.00,10.00,-971.00
2024-06-07 00:49:42.204486,0,0,3,0,0,0,78,81,129,130,22,94.89,135,-2.00,10.00,-994.00
2024-06-07 00:49:42.319689,0,0,3,0,0,0,77,81,129,130,22,95.04,135,33.00,-8.00,-1005.00
2024-06-07 00:49:42.409884,0,0,3,0,0,0,77,81,130,130,22,95.15,136,-2.00,26.00,-1017.00
2024-06-07 00:49:42.523994,0,0,3,0,0,0,77,81,130,130,22,95.07,136,-8.00,8.00,-989.00
2024-06-07 00:49:42.612570,0,0,3,0,0,0,77,81,131,130,22,95.05,136,14.00,0.00,-1005.00
2024-06-07 00:49:42.714676,0,0,3,0,0,0,77,81,131,130,22,95.24,136,6.00,18.00,-980.00
2024-06-07 00:49:42.816785,0,0,3,0,0,0,77,81,131,130,22,95.32,136,9.00,-4.00,-1008.00
2024-06-07 00:49:42.931821,0,0,3,0,0,0,77,81,131,130,22,95.17,136,19.00,19.00,-989.00
2024-06-07 00:49:43.021263,0,0,3,0,0,0,77,81,131,130,22,94.82,136,20.00,-14.00,-1010.00
2024-06-07 00:49:43.123115,0,0,3,0,0,0,77,81,131,130,22,95.05,136,-36.00,0.00,-975.00
2024-06-07 00:49:43.230171,0,0,3,0,0,0,77,81,131,130,22,95.20,136,12.00,-2.00,-972.00
2024-06-07 00:49:43.327089,0,0,3,0,0,0,79,81,131,130,22,95.20,136,2.00,21.00,-1021.00
2024-06-07 00:49:43.428664,0,0,3,0,0,0,79,81,131,130,22,94.68,137,-8.00,4.00,-998.00
2024-06-07 00:49:43.546017,0,0,3,0,0,0,79,81,130,130,22,94.73,137,5.00,-19.00,-976.00
2024-06-07 00:49:43.634084,0,0,3,0,0,0,79,81,131,130,22,95.23,137,2.00,17.00,-1016.00
2024-06-07 00:49:43.735480,0,0,3,0,0,0,79,81,130,130,22,95.02,137,-5.00,21.00,-995.00
2024-06-07 00:49:43.785440,0,0,3,0,0,0,79,81,130,130,22,95.14,137,-30.00,4.00,-1003.00
2024-06-07 00:49:43.887297,0,0,3,0,0,0,79,81,130,130,22,94.96,137,0.00,15.00,-998.00
2024-06-07 00:49:44.057731,0,0,3,0,0,0,79,81,129,130,22,94.71,137,-32.00,-13.00,-983.00
2024-06-07 00:49:44.091359,0,0,3,0,0,0,79,81,129,130,22,95.03,137,12.00,-14.00,-953.00
2024-06-07 00:49:44.264670,0,0,3,0,0,0,79,81,128,130,22,94.90,137,8.00,-4.00,-940.00
2024-06-07 00:49:44.298405,0,0,3,0,0,1,80,82,126,130,22,94.87,137,15.00,-5.00,-928.00
