TS,pitch,roll,yaw,vgx,vgy,vgz,templ,temph,tof,h,bat,baro,time,agx,agy,agz
2024-06-07 00:50:04.608001,0,0,1,0,0,0,80,83,10,0,22,93.65,141,17.00,9.00,-1001.00
2024-06-07 00:50:04.698814,0,0,1,0,0,0,80,83,10,0,22,93.36,141,16.00,8.00,-998.00
2024-06-07 00:50:04.850255,0,0,1,0,0,0,80,83,10,0,22,93.64,141,17.00,7.00,-998.00
2024-06-07 00:50:04.902998,0,0,1,0,0,0,80,83,10,0,22,93.64,141,17.00,9.00,-999.00
2024-06-07 00:50:05.007845,0,0,1,0,0,0,80,83,10,0,22,93.45,141,19.00,8.00,-1001.00
2024-06-07 00:50:05.106646,0,0,1,0,0,0,80,83,10,0,22,93.08,141,18.00,7.00,-1000.00
2024-06-07 00:50:05.254638,0,0,1,0,0,0,80,83,10,0,22,93.58,141,17.00,8.00,-1000.00
2024-06-07 00:50:05.310587,0,0,1,0,0,0,80,83,10,0,22,93.72,141,17.00,8.00,-997.00
2024-06-07 00:50:05.460270,0,0,1,0,0,0,80,83,10,0,22,93.69,141,17.00,8.00,-999.00
2024-06-07 00:50:05.514292,0,0,1,0,0,0,80,83,10,0,22,93.53,141,18.00,7.00,-997.00
2024-06-07 00:50:05.663614,0,0,1,0,0,0,80,83,10,0,22,93.52,141,18.00,9.00,-999.00
2024-06-07 00:50:05.718384,0,0,1,0,0,0,80,83,10,0,22,93.30,141,18.00,7.00,-998.00
2024-06-07 00:50:05.869923,0,0,1,0,0,0,80,83,10,0,22,93.25,141,17.00,8.00,-998.00
2024-06-07 00:50:05.922376,0,0,1,0,0,0,80,83,10,0,22,93.58,141,19.00,8.00,-1000.00
2024-06-07 00:50:06.075080,0,0,1,0,0,0,80,83,10,0,22,93.62,141,17.00,8.00,-1000.00
2024-06-07 00:50:06.126348,0,0,1,0,0,0,80,83,10,0,22,93.67,141,18.00,8.00,-1000.00
2024-06-07 00:50:06.279522,0,0,1,0,0,0,80,83,10,0,22,93.35,141,17.00,7.00,-1000.00
2024-06-07 00:50:06.330212,0,0,1,0,0,0,80,83,10,0,22,93.28,141,18.00,8.00,-1000.00
2024-06-07 00:50:06.484274,0,0,1,0,0,0,81,83,10,0,22,93.47,141,18.00,9.00,-999.00
2024-06-07 00:50:06.534194,0,0,1,0,0,0,81,83,10,0,22,93.52,141,18.00,8.00,-999.00
2024-06-07 00:50:06.687500,0,0,1,0,0,0,81,83,10,0,22,93.24,141,17.00,9.00,-998.00
2024-06-07 00:50:06.738195,0,0,1,0,0,0,81,83,10,0,22,93.38,141,18.00,7.00,-1001.00
2024-06-07 00:50:06.893821,0,0,1,0,0,0,81,83,10,0,22,93.41,141,15.00,7.00,-999.00
2024-06-07 00:50:06.942143,0,0,1,0,0,0,81,83,10,0,22,93.41,141,13.00,8.00,-997.00
2024-06-07 00:50:06.995768,0,0,1,0,0,0,81,83,10,0,22,93.41,141,14.00,17.00,-998.00
2024-06-07 00:50:07.097616,0,0,1,0,0,0,81,83,10,0,22,93.41,142,-7.00,27.00,-1007.00
2024-06-07 00:50:07.209067,0,0,1,0,0,0,81,83,10,0,22,93.41,142,11.00,23.00,-994.00
2024-06-07 00:50:07.303749,0,0,1,0,0,0,81,83,10,0,22,93.41,142,4.00,8.00,-1051.00
2024-06-07 00:50:07.401179,0,-1,1,0,0,0,81,83,10,0,22,93.41,142,-13.00,6.00,-1143.00
2024-06-07 00:50:07.514713,0,-1,1,0,0,-1,81,83,10,0,22,93.41,142,-16.00,8.00,-1347.00
2024-06-07 00:50:07.605105,0,-1,1,0,0,-3,81,83,13,0,22,93.41,142,23.00,4.00,-1240.00
2024-06-07 00:50:07.711288,0,0,1,0,0,-6,81,83,22,0,22,93.69,142,6.00,11.00,-1076.00
2024-06-07 00:50:08.018620,0,0,1,0,0,-7,81,83,30,10,22,93.99,142,7.00,6.00,-1033.00
2024-06-07 00:50:08.048316,0,0,1,0,0,-7,81,83,35,10,22,93.96,142,36.00,30.00,-1012.00
2024-06-07 00:50:08.048593,0,0,1,0,0,-7,81,83,44,20,22,93.80,142,-20.00,15.00,-955.00
2024-06-07 00:50:08.191456,0,0,1,0,0,-7,81,83,52,30,22,93.92,143,8.00,2.00,-924.00
2024-06-07 00:50:08.217047,0,0,1,0,0,-6,81,83,58,30,22,94.22,143,15.00,-19.00,-916.00
2024-06-07 00:50:08.319055,0,0,1,0,0,-5,81,83,63,40,22,94.31,143,-10.00,14.00,-896.00
2024-06-07 00:50:08.438723,0,0,1,0,0,-4,81,83,68,40,22,94.18,143,25.00,-24.00,-880.00
2024-06-07 00:50:08.582041,0,0,1,0,0,-3,81,83,72,50,22,94.33,143,-16.00,11.00,-875.00
2024-06-07 00:50:08.624970,0,0,1,0,0,-2,81,83,75,50,22,94.29,143,-46.00,35.00,-906.00
2024-06-07 00:50:08.745779,0,0,1,0,0,-1,81,83,77,50,22,94.39,143,-3.00,14.00,-942.00
2024-06-07 00:50:08.889236,0,-1,1,0,0,0,81,83,79,60,22,94.15,143,0.00,3.00,-954.00
2024-06-07 00:50:08.930913,0,-1,1,0,0,0,81,83,80,60,22,94.30,143,-3.00,0.00,-976.00
2024-06-07 00:50:09.053062,0,-1,1,0,0,0,81,83,80,60,22,94.08,143,6.00,7.00,-991.00
2024-06-07 00:50:09.196422,0,0,1,0,0,0,81,83,81,60,22,94.06,144,13.00,4.00,-980.00
2024-06-07 00:50:09.238456,0,0,1,0,0,0,81,83,81,60,22,94.13,144,16.00,-5.00,-1014.00
2024-06-07 00:50:09.360201,0,0,1,0,0,0,81,83,82,60,22,94.41,144,4.00,9.00,-1024.00
2024-06-07 00:50:09.503588,0,0,1,0,0,0,81,83,82,60,22,94.15,144,19.00,3.00,-996.00
2024-06-07 00:50:09.542946,0,0,1,0,0,0,81,83,83,60,22,94.06,144,-4.00,1.00,-987.00
2024-06-07 00:50:09.669662,0,0,1,0,0,0,81,83,83,60,22,94.05,144,13.00,17.00,-1006.00
2024-06-07 00:50:09.813158,0,0,1,0,0,0,81,83,84,60,22,94.30,144,9.00,-7.00,-1002.00
2024-06-07 00:50:09.852815,0,0,1,0,0,0,81,83,84,60,22,94.48,144,10.00,22.00,-1002.00
2024-06-07 00:50:10.029996,0,0,1,0,0,0,81,83,84,60,22,94.62,144,15.00,-14.00,-998.00
2024-06-07 00:50:10.030350,0,0,1,0,0,0,81,83,85,60,22,94.00,144,18.00,-19.00,-985.00
2024-06-07 00:50:10.103778,0,0,1,0,0,0,81,83,84,60,22,94.38,145,0.00,5.00,-991.00
2024-06-07 00:50:10.272447,0,0,1,0,0,0,81,83,84,60,22,94.34,145,-24.00,26.00,-975.00
2024-06-07 00:50:10.307919,0,0,1,0,0,0,81,83,84,60,22,94.20,145,-15.00,19.00,-1001.00
2024-06-07 00:50:10.475749,0,0,1,0,0,0,81,83,83,60,22,94.05,145,-31.00,0.00,-1002.00
2024-06-07 00:50:10.511816,0,-1,1,0,0,0,81,83,83,60,22,94.45,145,-16.00,27.00,-984.00
2024-06-07 00:50:10.680630,0,0,1,0,0,0,81,83,82,60,22,94.37,145,7.00,7.00,-1008.00
2024-06-07 00:50:10.715920,0,0,1,0,0,0,81,83,82,60,22,94.41,145,-13.00,-9.00,-1004.00
2024-06-07 00:50:10.885333,0,0,1,0,0,0,81,83,82,60,22,94.45,145,0.00,6.00,-998.00
2024-06-07 00:50:10.920470,0,0,1,0,0,0,81,83,81,60,22,94.44,145,-26.00,38.00,-1037.00
2024-06-07 00:50:11.090069,0,0,1,0,0,0,81,83,81,60,22,94.28,146,5.00,24.00,-996.00
2024-06-07 00:50:11.123811,0,0,1,0,0,0,81,83,81,60,22,94.17,146,14.00,3.00,-1039.00
2024-06-07 00:50:11.294929,0,0,1,0,0,0,81,83,81,60,22,94.26,146,-13.00,31.00,-997.00
2024-06-07 00:50:11.327768,0,0,1,0,0,0,81,83,81,60,22,94.13,146,14.00,26.00,-1017.00
2024-06-07 00:50:11.499797,0,0,1,0,0,0,81,84,81,60,22,94.30,146,-10.00,23.00,-1028.00
2024-06-07 00:50:11.545509,0,0,1,0,0,0,81,84,81,60,22,94.23,146,-25.00,45.00,-985.00
2024-06-07 00:50:11.633839,0,-1,1,0,0,0,81,84,81,60,22,94.08,146,-2.00,28.00,-1017.00
2024-06-07 00:50:11.806988,0,-1,1,0,0,0,81,84,81,60,22,94.16,146,-9.00,36.00,-986.00
2024-06-07 00:50:11.837841,0,-1,1,0,0,0,81,84,81,60,22,94.42,146,-22.00,28.00,-989.00
2024-06-07 00:50:11.939917,0,-1,1,0,0,0,81,84,80,60,22,94.50,146,-1.00,3.00,-1010.00
2024-06-07 00:50:12.113968,0,0,1,0,0,0,81,84,80,60,22,94.22,147,7.00,-4.00,-1023.00
2024-06-07 00:50:12.143778,0,0,1,0,0,0,81,84,80,60,22,94.22,147,-17.00,19.00,-1015.00
2024-06-07 00:50:12.311269,0,0,1,0,0,0,81,84,80,60,22,94.24,147,-3.00,2.00,-981.00
2024-06-07 00:50:12.347738,0,0,1,0,0,0,81,84,80,60,22,94.36,147,3.00,12.00,-1020.00
2024-06-07 00:50:12.523882,0,0,1,0,0,0,81,83,80,60,22,94.23,147,-6.00,33.00,-1059.00
2024-06-07 00:50:12.551689,0,0,1,0,0,0,81,83,80,60,22,94.00,147,-19.00,20.00,-1092.00
2024-06-07 00:50:12.728865,0,0,1,0,0,-1,81,83,82,60,22,94.23,147,2.00,10.00,-1117.00
2024-06-07 00:50:12.755713,0,0,1,0,0,-2,81,83,84,60,22,94.37,147,-15.00,8.00,-1082.00
2024-06-07 00:50:12.935161,0,0,1,0,0,-3,81,83,87,60,22,94.42,147,5.00,7.00,-1099.00
2024-06-07 00:50:12.959746,0,0,1,0,0,-4,81,83,92,70,22,94.34,147,11.00,10.00,-1066.00
2024-06-07 00:50:13.138658,0,0,1,0,0,-4,81,83,96,70,22,94.18,148,-9.00,12.00,-1050.00
2024-06-07 00:50:13.163609,0,0,1,0,0,-5,81,83,101,80,22,94.46,148,-29.00,22.00,-1041.00
2024-06-07 00:50:13.343160,0,0,1,0,0,-5,81,83,107,80,22,94.49,148,-12.00,12.00,-997.00
2024-06-07 00:50:13.368465,0,0,1,0,0,-5,81,83,113,90,22,94.68,148,-21.00,17.00,-1016.00
2024-06-07 00:50:13.547628,0,0,1,0,0,-5,81,84,119,90,22,94.41,148,-10.00,6.00,-1004.00
2024-06-07 00:50:13.571518,0,0,1,0,0,-5,81,84,124,100,22,94.76,148,13.00,2.00,-1000.00
2024-06-07 00:50:13.752366,0,0,1,0,0,-5,81,84,131,110,22,94.94,148,-12.00,0.00,-976.00
2024-06-07 00:50:13.775709,0,0,1,0,0,-5,81,84,136,110,22,94.98,148,8.00,22.00,-971.00
2024-06-07 00:50:13.957528,0,0,1,0,0,-5,81,84,142,120,22,94.84,148,-14.00,-11.00,-952.00
2024-06-07 00:50:13.979646,0,0,1,0,0,-4,81,84,146,120,22,94.93,148,-2.00,25.00,-988.00
2024-06-07 00:50:14.162370,0,0,1,0,0,-4,81,84,151,130,22,94.76,149,2.00,33.00,-958.00
2024-06-07 00:50:14.162431,0,0,1,0,0,-4,81,84,155,130,22,95.07,149,1.00,0.00,-986.00
2024-06-07 00:50:14.234483,0,0,1,0,0,-3,81,84,158,140,22,94.98,149,-6.00,8.00,-949.00
2024-06-07 00:50:14.336810,0,0,1,0,0,-3,81,84,162,140,22,94.80,149,-42.00,12.00,-979.00
2024-06-07 00:50:14.481091,0,0,1,0,0,-2,81,83,165,140,22,95.05,149,21.00,-11.00,-971.00
2024-06-07 00:50:14.540997,0,0,1,0,0,-2,81,83,167,150,22,95.02,149,-1.00,-20.00,-950.00
2024-06-07 00:50:14.674454,0,0,1,0,0,-2,81,83,169,150,22,94.86,149,-23.00,9.00,-960.00
2024-06-07 00:50:14.744830,0,0,1,0,0,-1,81,83,172,150,22,95.21,149,-14.00,15.00,-944.00
2024-06-07 00:50:14.880674,0,0,1,0,0,-1,81,83,172,150,22,94.74,149,20.00,10.00,-992.00
2024-06-07 00:50:14.948853,0,0,1,0,0,-1,81,83,174,150,22,94.96,149,14.00,7.00,-985.00
2024-06-07 00:50:15.095914,0,0,1,0,0,-1,81,83,176,150,22,95.28,150,-23.00,27.00,-964.00
2024-06-07 00:50:15.152430,0,0,1,0,0,0,81,83,175,160,22,94.97,150,-35.00,20.00,-955.00
2024-06-07 00:50:15.288729,0,0,1,0,0,0,81,83,174,160,22,95.02,150,-17.00,1.00,-967.00
2024-06-07 00:50:15.356299,0,-1,1,0,0,0,81,83,177,160,22,95.06,150,3.00,10.00,-990.00
2024-06-07 00:50:15.493386,0,-1,1,0,0,0,82,83,176,160,22,95.05,150,7.00,0.00,-1002.00
2024-06-07 00:50:15.560468,0,0,1,0,0,0,82,83,177,160,22,94.93,150,-24.00,2.00,-1008.00
2024-06-07 00:50:15.698296,0,0,1,0,0,0,82,83,176,160,22,94.99,150,0.00,16.00,-1016.00
2024-06-07 00:50:15.764525,0,0,1,0,0,0,82,83,177,160,22,94.85,150,-55.00,8.00,-1007.00
2024-06-07 00:50:15.903197,0,0,1,0,0,0,82,83,175,150,22,95.30,150,-11.00,10.00,-995.00
2024-06-07 00:50:15.968444,0,0,1,0,0,0,82,83,176,150,22,95.32,150,16.00,18.00,-1036.00
2024-06-07 00:50:16.109803,0,0,1,0,0,0,82,83,176,150,22,94.87,151,-10.00,1.00,-1024.00
2024-06-07 00:50:16.173001,0,0,1,0,0,0,82,83,177,150,22,94.81,151,-1.00,-1.00,-1005.00
2024-06-07 00:50:16.313321,0,0,1,0,0,0,82,83,176,150,22,94.92,151,-15.00,13.00,-993.00
2024-06-07 00:50:16.376390,0,0,1,0,0,0,82,83,176,160,22,95.21,151,-14.00,-7.00,-988.00
2024-06-07 00:50:16.517721,1,0,1,0,0,0,82,84,177,160,22,95.10,151,-8.00,8.00,-986.00
2024-06-07 00:50:16.580387,0,0,1,0,0,0,82,84,178,160,22,94.87,151,-15.00,3.00,-995.00
2024-06-07 00:50:16.724311,0,0,1,0,0,0,82,84,176,160,22,95.09,151,-3.00,9.00,-1012.00
2024-06-07 00:50:16.784836,0,0,1,0,0,0,82,84,176,160,22,95.04,151,-9.00,30.00,-1026.00
2024-06-07 00:50:16.927325,0,0,1,0,0,0,82,84,178,160,22,95.26,151,27.00,5.00,-1022.00
2024-06-07 00:50:16.988375,0,0,1,0,0,0,82,84,176,160,22,94.77,151,-13.00,37.00,-1022.00
2024-06-07 00:50:17.099211,0,0,1,0,0,0,82,84,178,160,22,95.11,152,0.00,-4.00,-1007.00
2024-06-07 00:50:17.192147,0,0,1,0,0,0,82,84,177,160,22,95.01,152,1.00,4.00,-1007.00
2024-06-07 00:50:17.311039,0,0,1,0,0,0,82,84,178,160,22,95.11,152,-5.00,7.00,-965.00
2024-06-07 00:50:17.396363,0,0,1,0,0,0,82,84,178,160,22,94.64,152,1.00,15.00,-971.00
2024-06-07 00:50:17.541342,0,0,1,0,0,0,81,83,177,160,22,94.94,152,-22.00,12.00,-937.00
2024-06-07 00:50:17.604022,0,0,1,0,0,1,81,83,177,150,22,95.12,152,-1.00,21.00,-950.00
2024-06-07 00:50:17.702936,0,-1,1,0,0,1,81,83,174,150,22,94.74,152,-4.00,19.00,-977.00
2024-06-07 00:50:17.848473,0,-1,1,0,0,1,81,83,172,150,22,95.12,152,-21.00,12.00,-933.00
2024-06-07 00:50:17.907533,0,-1,1,0,0,2,81,83,171,150,22,95.10,152,16.00,41.00,-999.00
2024-06-07 00:50:17.961545,0,-1,1,0,0,2,81,83,168,150,22,95.08,152,36.00,-6.00,-968.00
2024-06-07 00:50:18.060916,1,-1,1,0,0,2,81,83,164,140,22,94.70,153,0.00,11.00,-989.00
2024-06-07 00:50:18.161299,1,0,1,0,0,2,81,83,162,140,22,94.80,153,-6.00,21.00,-997.00
2024-06-07 00:50:18.263065,1,0,1,0,0,2,81,83,159,140,22,95.02,153,-10.00,3.00,-978.00
2024-06-07 00:50:18.464476,1,0,1,0,0,2,81,83,155,140,22,94.81,153,-15.00,13.00,-1021.00
2024-06-07 00:50:18.467038,0,0,1,0,0,2,82,83,153,130,22,94.70,153,-17.00,21.00,-992.00
2024-06-07 00:50:18.569076,0,0,1,0,0,2,82,83,150,130,22,94.72,153,2.00,13.00,-1000.00
2024-06-07 00:50:18.785793,0,0,1,0,0,2,82,83,146,130,22,94.71,153,11.00,30.00,-1011.00
2024-06-07 00:50:18.785849,0,0,1,0,0,2,82,83,144,120,22,94.87,153,-7.00,13.00,-1019.00
2024-06-07 00:50:18.875159,0,0,1,0,0,2,82,83,142,120,22,94.63,153,2.00,0.00,-988.00
2024-06-07 00:50:18.977210,0,0,1,0,0,2,82,83,141,120,22,94.66,153,-25.00,23.00,-1014.00
2024-06-07 00:50:19.079050,0,0,1,0,0,1,82,83,139,120,22,94.88,154,0.00,12.00,-1015.00
2024-06-07 00:50:19.181260,0,0,1,0,0,1,82,83,137,120,22,94.40,154,-18.00,1.00,-1001.00
2024-06-07 00:50:19.283465,0,0,1,0,0,1,82,83,135,110,22,94.53,154,-5.00,14.00,-1028.00
2024-06-07 00:50:19.488385,0,0,1,0,0,1,82,83,135,110,22,94.75,154,17.00,-4.00,-1037.00
2024-06-07 00:50:19.488442,0,0,1,0,0,0,81,83,133,110,22,94.47,154,-5.00,22.00,-977.00
2024-06-07 00:50:19.589278,0,0,1,0,0,0,81,83,133,110,22,94.49,154,-18.00,-14.00,-984.00
2024-06-07 00:50:19.691446,0,0,1,0,0,0,81,83,132,110,22,94.74,154,-28.00,19.00,-998.00
2024-06-07 00:50:19.794102,0,0,1,0,0,0,81,83,131,110,22,94.44,154,-9.00,34.00,-1012.00
2024-06-07 00:50:19.895915,0,0,1,0,0,0,81,83,131,110,22,94.52,154,0.00,16.00,-999.00
2024-06-07 00:50:19.999001,0,0,1,0,0,0,81,83,131,110,22,94.79,154,3.00,16.00,-1002.00
2024-06-07 00:50:20.100960,0,0,1,0,0,0,81,83,131,110,22,94.71,155,-5.00,10.00,-991.00
2024-06-07 00:50:20.203292,0,0,1,0,0,0,81,83,131,110,22,95.06,155,-21.00,24.00,-995.00
2024-06-07 00:50:20.303312,0,0,1,0,0,0,81,83,132,110,22,94.70,155,8.00,42.00,-999.00
2024-06-07 00:50:20.408640,0,0,1,0,0,0,81,83,132,110,22,94.50,155,6.00,-4.00,-980.00
2024-06-07 00:50:20.507185,0,0,1,0,0,0,81,83,132,110,22,94.68,155,-27.00,21.00,-982.00
2024-06-07 00:50:20.612933,0,0,1,0,0,0,81,83,132,110,22,94.59,155,-7.00,10.00,-972.00
2024-06-07 00:50:20.711086,0,0,1,0,0,0,81,83,132,110,22,94.46,155,20.00,23.00,-982.00
2024-06-07 00:50:20.820168,0,0,1,0,0,0,81,83,132,110,22,94.62,155,0.00,9.00,-991.00
2024-06-07 00:50:20.915385,0,0,1,0,0,0,81,83,132,110,22,94.79,155,11.00,-2.00,-1002.00
2024-06-07 00:50:21.017146,0,0,1,0,0,0,81,83,132,110,22,94.75,155,-1.00,19.00,-1031.00
2024-06-07 00:50:21.125308,0,0,1,0,0,0,81,83,132,110,22,94.74,156,8.00,0.00,-1023.00
2024-06-07 00:50:21.221010,0,0,1,0,0,0,81,83,131,110,22,94.45,156,-14.00,31.00,-1002.00
2024-06-07 00:50:21.330187,0,0,1,0,0,0,81,83,131,110,22,94.40,156,0.00,-11.00,-1023.00
2024-06-07 00:50:21.425461,0,0,1,0,0,0,81,83,131,110,22,94.73,156,-2.00,11.00,-1009.00
2024-06-07 00:50:21.540722,0,0,1,0,0,0,81,83,132,110,22,94.46,156,-2.00,32.00,-1012.00
2024-06-07 00:50:21.629072,0,0,1,0,0,0,81,83,131,110,22,94.54,156,11.00,7.00,-1015.00
2024-06-07 00:50:21.730832,0,0,1,0,0,0,81,83,131,110,22,94.48,156,12.00,9.00,-991.00
2024-06-07 00:50:21.781879,0,0,1,0,0,0,81,83,132,110,22,94.81,156,-31.00,6.00,-1003.00
2024-06-07 00:50:21.946743,-6,0,1,0,0,0,81,83,134,110,22,94.52,156,19.00,13.00,-990.00
2024-06-07 00:50:21.985851,-8,0,1,1,0,0,81,83,135,110,22,94.53,156,-45.00,19.00,-997.00
2024-06-07 00:50:22.111006,-8,0,1,2,0,0,81,83,135,110,22,94.50,157,0.00,-11.00,-980.00
2024-06-07 00:50:22.462202,-8,0,1,4,0,0,81,83,133,110,22,94.81,157,-12.00,2.00,-1020.00
2024-06-07 00:50:22.462270,-7,0,1,5,0,0,81,83,133,110,22,94.45,157,-51.00,20.00,-1004.00
2024-06-07 00:50:22.462430,-6,0,1,6,0,0,81,83,133,110,22,94.69,157,-50.00,5.00,-1003.00
2024-06-07 00:50:22.538184,-5,0,1,7,0,0,81,83,132,110,22,94.52,157,-43.00,-23.00,-1023.00
2024-06-07 00:50:22.604693,-5,0,1,7,0,0,81,83,132,110,22,94.51,157,-14.00,23.00,-990.00
2024-06-07 00:50:22.724509,-2,0,1,8,0,0,81,83,131,110,22,94.40,157,-71.00,33.00,-994.00
2024-06-07 00:50:22.801887,0,0,1,7,0,0,81,83,132,110,22,94.93,157,-42.00,-10.00,-998.00
2024-06-07 00:50:23.071007,3,0,1,7,0,0,81,83,133,110,22,94.33,157,-38.00,14.00,-1005.00
2024-06-07 00:50:23.113019,4,0,1,6,0,0,81,83,132,110,22,94.76,157,-23.00,17.00,-999.00
2024-06-07 00:50:23.113143,4,0,1,4,0,0,81,83,132,110,22,94.94,158,-42.00,0.00,-989.00
2024-06-07 00:50:23.255903,2,0,1,4,0,0,81,83,132,110,22,94.45,158,-41.00,11.00,-1012.00
2024-06-07 00:50:23.312423,1,0,1,3,0,0,81,83,132,110,22,94.51,158,-22.00,-3.00,-1000.00
2024-06-07 00:50:23.493020,0,0,1,3,0,0,81,83,132,110,22,94.18,158,-36.00,10.00,-997.00
2024-06-07 00:50:23.515699,0,0,1,2,0,0,81,84,131,110,22,94.70,158,-8.00,8.00,-1008.00
2024-06-07 00:50:23.636223,0,0,1,2,0,0,81,84,132,110,22,94.47,158,-28.00,-7.00,-1003.00
2024-06-07 00:50:23.800217,0,0,1,2,0,0,81,84,131,110,22,94.82,158,-36.00,24.00,-1014.00
2024-06-07 00:50:23.822419,5,0,1,2,0,0,81,84,131,110,22,94.64,158,-5.00,8.00,-1032.00
2024-06-07 00:50:23.941355,3,0,1,1,0,0,81,84,131,110,22,94.49,158,-13.00,18.00,-1035.00
2024-06-07 00:50:24.108370,2,0,1,0,0,0,81,84,130,110,22,94.73,158,-72.00,9.00,-995.00
2024-06-07 00:50:24.127742,0,0,1,0,0,0,81,84,130,110,22,94.49,159,-20.00,8.00,-998.00
2024-06-07 00:50:24.235775,0,0,1,0,0,0,81,84,129,110,22,94.47,159,-40.00,2.00,-1016.00
2024-06-07 00:50:24.331611,0,0,1,0,0,0,81,84,129,110,22,94.66,159,-25.00,10.00,-982.00
2024-06-07 00:50:24.504464,0,0,1,0,0,0,81,84,129,110,22,94.42,159,-8.00,7.00,-1018.00
2024-06-07 00:50:24.535489,0,0,1,0,0,0,80,83,128,110,22,94.66,159,-19.00,13.00,-965.00
2024-06-07 00:50:24.715211,0,0,1,0,0,0,80,83,129,110,22,94.40,159,4.00,-18.00,-1015.00
2024-06-07 00:50:24.739504,0,0,1,0,0,0,80,83,129,110,22,94.30,159,-7.00,13.00,-979.00
2024-06-07 00:50:24.913964,0,0,1,0,0,0,80,83,128,110,22,94.58,159,5.00,4.00,-1011.00
2024-06-07 00:50:24.943435,0,0,1,0,0,0,80,83,129,110,22,94.52,159,-30.00,20.00,-1001.00
2024-06-07 00:50:25.119241,1,0,1,0,0,0,80,83,128,110,22,94.57,159,15.00,19.00,-1012.00
2024-06-07 00:50:25.148864,0,0,1,0,0,0,80,83,129,110,22,94.56,160,12.00,-11.00,-1007.00
2024-06-07 00:50:25.199443,0,0,1,0,0,0,80,83,128,110,22,94.42,160,2.00,19.00,-970.00
2024-06-07 00:50:25.323625,0,-1,1,0,0,0,80,83,129,110,22,94.43,160,-10.00,28.00,-1017.00
2024-06-07 00:50:25.403555,0,-1,1,0,0,0,80,83,129,110,22,94.39,160,24.00,16.00,-1005.00
2024-06-07 00:50:25.556620,0,-1,1,0,0,0,81,83,129,110,22,94.60,160,-6.00,11.00,-1010.00
2024-06-07 00:50:25.733175,0,0,1,0,0,0,81,83,129,110,22,94.72,160,-3.00,13.00,-989.00
2024-06-07 00:50:25.760413,0,0,1,0,0,0,81,83,130,110,22,94.60,160,18.00,13.00,-1014.00
2024-06-07 00:50:25.811487,0,0,1,0,0,0,81,83,130,110,22,94.55,160,3.00,-5.00,-989.00
2024-06-07 00:50:25.940351,0,0,1,0,0,0,81,83,130,110,22,94.78,160,-4.00,21.00,-994.00
2024-06-07 00:50:26.015370,0,0,1,0,0,0,81,83,130,110,22,94.66,161,6.00,27.00,-1022.00
2024-06-07 00:50:26.147680,4,0,1,0,0,0,81,83,132,110,22,94.22,161,8.00,32.00,-997.00
2024-06-07 00:50:26.219408,8,0,1,-1,0,0,81,83,132,110,22,94.47,161,2.00,13.00,-1010.00
2024-06-07 00:50:26.347439,8,0,1,-2,0,0,81,83,133,110,22,94.54,161,14.00,13.00,-998.00
2024-06-07 00:50:26.423379,8,0,1,-4,0,0,81,83,134,110,22,94.70,161,-1.00,35.00,-1030.00
2024-06-07 00:50:26.556103,7,0,1,-5,0,0,82,84,133,110,22,94.38,161,31.00,8.00,-1010.00
2024-06-07 00:50:26.627618,6,0,1,-6,0,0,82,84,132,110,22,94.57,161,38.00,3.00,-985.00
2024-06-07 00:50:26.763071,5,0,1,-7,0,0,82,84,134,110,22,94.61,161,73.00,2.00,-1018.00
2024-06-07 00:50:26.836641,5,0,1,-7,0,0,82,84,133,110,22,94.59,161,32.00,-15.00,-968.00
2024-06-07 00:50:26.933633,3,0,1,-8,0,0,82,84,133,110,22,94.66,161,49.00,3.00,-979.00
2024-06-07 00:50:27.035199,0,0,1,-7,0,0,82,84,133,110,22,94.68,162,67.00,-10.00,-999.00
2024-06-07 00:50:27.172497,-3,0,1,-7,0,0,82,84,133,110,22,94.68,162,31.00,0.00,-971.00
2024-06-07 00:50:27.239339,-4,0,1,-6,0,0,82,84,135,110,22,94.37,162,43.00,0.00,-1019.00
2024-06-07 00:50:27.371588,-4,0,1,-5,0,0,82,84,134,110,22,94.72,162,48.00,-5.00,-1010.00
2024-06-07 00:50:27.444032,-2,0,1,-3,0,0,82,84,134,110,22,94.60,162,11.00,-26.00,-1005.00
2024-06-07 00:50:27.576446,-1,0,1,-3,0,0,81,83,134,110,22,94.69,162,29.00,21.00,-999.00
2024-06-07 00:50:27.647480,0,0,1,-2,0,0,81,83,134,110,22,94.42,162,28.00,-9.00,-999.00
2024-06-07 00:50:27.780931,0,0,1,-2,0,0,81,83,134,110,22,94.65,162,6.00,-1.00,-1013.00
2024-06-07 00:50:27.851269,0,0,1,-2,0,0,81,83,134,110,22,94.64,162,29.00,38.00,-1016.00
2024-06-07 00:50:27.986001,0,0,1,-2,0,0,81,83,134,110,22,94.68,162,19.00,15.00,-1012.00
2024-06-07 00:50:28.055280,-1,0,1,-2,0,0,81,83,134,110,22,94.61,163,21.00,5.00,-990.00
2024-06-07 00:50:28.190145,-2,0,1,-2,0,0,81,83,134,110,22,94.77,163,3.00,-18.00,-1012.00
2024-06-07 00:50:28.259253,-3,0,1,-1,0,0,81,83,133,110,22,94.50,163,17.00,11.00,-988.00
2024-06-07 00:50:28.395010,-1,0,1,0,0,0,81,83,133,110,22,94.55,163,3.00,10.00,-1006.00
2024-06-07 00:50:28.464511,0,0,1,0,0,0,81,83,133,110,22,94.29,163,6.00,0.00,-1005.00
2024-06-07 00:50:28.600992,0,0,1,0,0,0,81,83,133,110,22,94.33,163,14.00,11.00,-1001.00
2024-06-07 00:50:28.671740,0,0,1,0,0,0,81,83,133,110,22,94.46,163,1.00,-10.00,-974.00
2024-06-07 00:50:28.770430,0,0,1,0,0,0,81,83,133,110,22,94.28,163,11.00,17.00,-1010.00
2024-06-07 00:50:28.907103,0,0,1,0,0,0,81,83,132,110,22,94.19,163,2.00,18.00,-987.00
2024-06-07 00:50:28.974420,0,0,1,0,0,0,81,83,132,110,22,94.61,163,-24.00,-1.00,-992.00
2024-06-07 00:50:29.076346,0,0,1,0,0,0,81,83,132,110,22,94.72,164,6.00,-15.00,-970.00
2024-06-07 00:50:29.214554,0,0,1,0,0,0,81,83,131,110,22,94.79,164,21.00,-3.00,-1021.00
2024-06-07 00:50:29.280252,0,0,1,0,0,0,81,83,130,110,22,94.51,164,-6.00,19.00,-988.00
2024-06-07 00:50:29.331062,0,0,1,0,0,0,81,83,131,110,22,94.57,164,-8.00,14.00,-989.00
2024-06-07 00:50:29.521889,0,0,1,0,0,0,81,83,131,110,22,94.42,164,23.00,6.00,-996.00
2024-06-07 00:50:29.536089,0,0,1,0,0,0,81,83,131,110,22,94.78,164,-20.00,-3.00,-1008.00
2024-06-07 00:50:29.735723,0,0,1,0,0,0,81,83,131,110,22,94.64,164,11.00,-3.00,-1018.00
2024-06-07 00:50:29.740634,0,0,1,0,0,0,81,83,131,110,22,94.61,164,-19.00,10.00,-999.00
2024-06-07 00:50:29.841257,0,0,1,0,0,0,81,83,130,110,22,94.63,164,3.00,17.00,-981.00
2024-06-07 00:50:29.947165,0,0,1,0,0,0,81,83,131,110,22,94.65,164,20.00,14.00,-1018.00
2024-06-07 00:50:30.050212,0,0,1,0,0,0,81,83,130,110,22,94.21,165,-8.00,-4.00,-979.00
2024-06-07 00:50:30.147404,0,0,1,0,0,0,81,83,130,110,22,94.47,165,5.00,-5.00,-999.00
2024-06-07 00:50:30.341133,0,0,1,0,0,0,81,83,130,110,22,94.74,165,26.00,-13.00,-1019.00
2024-06-07 00:50:30.351217,0,0,1,0,0,0,81,83,129,110,22,94.51,165,-16.00,-4.00,-990.00
2024-06-07 00:50:30.453051,0,0,1,0,0,0,81,83,130,110,22,94.61,165,15.00,22.00,-1031.00
2024-06-07 00:50:30.650080,0,-1,1,0,0,0,81,83,130,110,22,94.54,165,1.00,16.00,-978.00
2024-06-07 00:50:30.656966,0,-8,1,0,0,0,81,83,132,110,22,94.97,165,25.00,-23.00,-1038.00
2024-06-07 00:50:30.856450,0,-7,1,0,-2,0,81,83,131,110,22,94.73,165,8.00,22.00,-1026.00
2024-06-07 00:50:30.861322,0,-5,1,0,-3,0,81,83,132,110,22,94.66,165,-6.00,46.00,-978.00
2024-06-07 00:50:30.971685,0,-2,1,0,-3,0,81,83,132,110,22,94.47,165,-1.00,-6.00,-988.00
2024-06-07 00:50:31.067615,0,0,1,0,-4,0,81,83,132,110,22,94.70,166,-1.00,16.00,-1000.00
2024-06-07 00:50:31.168024,0,1,1,0,-3,0,81,83,132,110,22,94.51,166,26.00,2.00,-1003.00
2024-06-07 00:50:31.269386,0,0,1,0,-3,0,81,83,133,110,22,94.58,166,20.00,17.00,-995.00
2024-06-07 00:50:31.370996,0,0,1,0,-2,0,81,83,134,110,22,94.74,166,14.00,65.00,-1005.00
2024-06-07 00:50:31.571950,0,0,1,0,-2,0,81,83,135,110,22,94.72,166,26.00,-3.00,-972.00
2024-06-07 00:50:31.574942,0,0,1,0,-2,0,81,84,134,110,22,94.43,166,-6.00,27.00,-985.00
2024-06-07 00:50:31.677027,0,0,1,0,-2,0,81,84,135,110,22,94.27,166,0.00,6.00,-980.00
2024-06-07 00:50:31.876495,0,0,1,0,-2,0,81,84,134,110,22,94.69,166,-14.00,6.00,-995.00
2024-06-07 00:50:31.880905,0,0,1,0,-2,0,81,84,134,110,22,94.54,166,2.00,12.00,-998.00
2024-06-07 00:50:32.083222,0,0,1,0,-2,0,81,84,134,110,22,94.75,166,-3.00,-12.00,-979.00
2024-06-07 00:50:32.084826,0,0,1,0,-2,0,81,84,134,110,22,94.56,167,5.00,7.00,-996.00
2024-06-07 00:50:32.288592,0,0,1,0,-2,0,81,84,133,110,22,94.71,167,-2.00,29.00,-999.00
2024-06-07 00:50:32.288776,0,0,1,0,-2,0,81,84,133,110,22,94.80,167,10.00,16.00,-992.00
2024-06-07 00:50:32.493060,0,1,1,0,-2,0,81,84,132,110,22,94.74,167,-2.00,-14.00,-975.00
2024-06-07 00:50:32.493111,0,4,1,0,-1,0,81,84,134,110,22,94.57,167,-11.00,35.00,-968.00
2024-06-07 00:50:32.595856,0,2,1,0,0,0,82,83,132,110,22,94.65,167,15.00,21.00,-1036.00
2024-06-07 00:50:32.798608,0,0,1,0,0,0,82,83,133,110,22,94.61,167,-8.00,11.00,-1022.00
2024-06-07 00:50:32.800009,0,0,1,0,0,0,82,83,132,110,22,94.47,167,13.00,-1.00,-1029.00
2024-06-07 00:50:32.902238,0,0,1,0,0,0,82,83,132,110,22,94.47,167,24.00,-8.00,-1019.00
2024-06-07 00:50:33.005115,0,0,1,0,0,0,82,83,132,110,22,94.91,167,19.00,-6.00,-1001.00
2024-06-07 00:50:33.054882,0,0,1,0,0,0,82,83,133,110,22,94.94,168,-1.00,-7.00,-997.00
2024-06-07 00:50:33.209812,0,0,1,0,0,0,82,83,133,110,22,94.79,168,6.00,-18.00,-1007.00
2024-06-07 00:50:33.259130,0,0,1,0,0,0,82,83,133,110,22,94.52,168,-15.00,-24.00,-975.00
2024-06-07 00:50:33.361203,0,0,1,0,0,0,82,83,133,110,22,94.79,168,-17.00,-24.00,-1000.00
2024-06-07 00:50:33.516061,0,0,1,0,0,0,82,83,132,110,22,94.66,168,-7.00,-10.00,-1004.00
2024-06-07 00:50:33.564791,0,0,1,0,0,0,81,84,133,110,22,94.69,168,7.00,26.00,-997.00
2024-06-07 00:50:33.721078,0,0,1,0,0,0,81,84,133,110,22,94.73,168,0.00,-3.00,-961.00
2024-06-07 00:50:33.768935,0,0,1,0,0,0,81,84,132,110,22,94.67,168,-11.00,-29.00,-972.00
2024-06-07 00:50:33.926895,0,0,1,0,0,0,81,84,133,110,22,94.67,168,-27.00,-38.00,-972.00
2024-06-07 00:50:33.973957,0,0,1,0,0,0,81,84,132,110,22,94.51,168,5.00,4.00,-996.00
2024-06-07 00:50:34.075221,0,0,1,0,0,0,81,84,132,110,22,94.74,169,0.00,-14.00,-1003.00
2024-06-07 00:50:34.234087,0,0,1,0,0,0,81,84,132,110,22,94.69,169,9.00,-19.00,-993.00
2024-06-07 00:50:34.280356,0,0,1,0,0,0,81,84,132,110,22,94.53,169,-29.00,4.00,-981.00
2024-06-07 00:50:34.381069,0,0,1,0,0,0,81,84,131,110,22,94.42,169,19.00,-7.00,-1011.00
2024-06-07 00:50:34.484159,0,0,1,0,0,0,81,84,131,110,22,94.57,169,-11.00,-7.00,-977.00
2024-06-07 00:50:34.586165,0,0,1,0,0,0,80,83,131,110,22,94.56,169,0.00,5.00,-1003.00
2024-06-07 00:50:34.690228,0,0,1,0,0,0,80,83,131,110,22,94.63,169,-7.00,7.00,-979.00
2024-06-07 00:50:34.788639,0,1,1,0,0,0,80,83,131,110,22,94.61,169,4.00,25.00,-997.00
2024-06-07 00:50:34.948852,0,8,1,0,0,0,80,83,132,110,22,94.95,169,7.00,-33.00,-1016.00
2024-06-07 00:50:34.993241,0,7,1,0,2,0,80,83,131,110,22,94.46,169,3.00,-22.00,-1014.00
2024-06-07 00:50:35.153366,0,4,1,0,3,0,80,83,130,110,22,94.65,170,-2.00,-26.00,-1020.00
2024-06-07 00:50:35.196456,0,2,1,0,3,0,80,83,130,110,22,94.72,170,5.00,-12.00,-1030.00
2024-06-07 00:50:35.360140,0,0,1,0,3,0,80,83,130,110,22,95.02,170,24.00,-26.00,-1032.00
2024-06-07 00:50:35.400404,0,-1,1,0,3,0,80,83,130,110,22,94.86,170,-6.00,-11.00,-1034.00
2024-06-07 00:50:35.563011,0,0,1,0,2,0,80,83,131,110,22,94.47,170,-1.00,3.00,-1010.00
2024-06-07 00:50:35.604446,0,0,1,0,2,0,81,84,131,110,22,94.76,170,-8.00,-8.00,-952.00
2024-06-07 00:50:35.706756,0,0,1,0,2,0,81,84,130,110,22,94.83,170,-35.00,-2.00,-977.00
2024-06-07 00:50:35.869775,0,0,1,0,2,0,81,84,131,110,22,94.84,170,5.00,-3.00,-985.00
2024-06-07 00:50:35.910523,0,0,1,0,2,0,81,84,131,110,22,94.54,170,3.00,-1.00,-989.00
2024-06-07 00:50:36.075014,0,0,1,0,2,0,81,84,130,110,22,94.97,170,-13.00,-19.00,-1003.00
2024-06-07 00:50:36.114466,0,0,1,0,2,0,81,84,131,110,22,94.79,171,-6.00,-5.00,-1006.00
2024-06-07 00:50:36.280403,0,0,1,0,2,0,81,84,131,110,22,94.62,171,14.00,-14.00,-989.00
2024-06-07 00:50:36.318485,0,0,1,0,2,0,81,84,130,110,22,94.81,171,22.00,-1.00,-996.00
2024-06-07 00:50:36.484162,0,0,1,0,2,0,81,84,131,110,22,94.89,171,4.00,3.00,-984.00
2024-06-07 00:50:36.523822,0,-2,1,0,2,0,81,84,130,110,22,94.70,171,-19.00,-24.00,-1026.00
2024-06-07 00:50:36.670806,0,-5,1,0,1,0,81,84,130,110,22,94.98,171,7.00,-13.00,-1038.00
2024-06-07 00:50:36.726568,0,-2,1,0,0,0,81,84,130,110,22,94.67,171,23.00,-9.00,-1011.00
2024-06-07 00:50:36.894257,0,0,1,0,0,0,81,84,129,110,22,94.74,171,-14.00,0.00,-960.00
2024-06-07 00:50:36.894406,0,0,1,0,0,0,81,84,128,110,22,94.74,171,-9.00,7.00,-1016.00
2024-06-07 00:50:36.983087,0,0,1,0,0,0,81,84,128,110,22,94.34,171,-1.00,-9.00,-993.00
2024-06-07 00:50:37.115467,0,0,1,0,0,0,81,84,129,110,22,94.61,172,-8.00,-1.00,-1008.00
2024-06-07 00:50:37.186798,0,0,1,0,0,0,81,84,128,110,22,94.46,172,-9.00,-1.00,-995.00
2024-06-07 00:50:37.316893,0,0,1,0,0,0,81,84,129,110,22,94.55,172,-5.00,-8.00,-1015.00
2024-06-07 00:50:37.407944,0,0,1,0,0,0,81,84,129,110,22,94.67,172,-12.00,4.00,-1008.00
2024-06-07 00:50:37.491768,0,0,1,0,0,0,81,84,129,110,22,94.59,172,-46.00,25.00,-982.00
2024-06-07 00:50:37.815668,0,0,1,0,0,0,81,84,129,110,22,94.55,172,-16.00,35.00,-1006.00
2024-06-07 00:50:37.836511,0,0,1,0,0,0,81,84,130,110,22,94.39,172,-6.00,5.00,-1018.00
2024-06-07 00:50:37.836684,0,0,1,0,0,0,81,84,130,110,22,94.68,172,-4.00,-20.00,-1001.00
2024-06-07 00:50:37.905737,0,0,1,0,0,0,81,84,129,110,22,94.95,172,-17.00,-7.00,-993.00
2024-06-07 00:50:38.049133,0,0,1,0,0,0,81,84,131,110,22,94.86,172,-17.00,37.00,-975.00
2024-06-07 00:50:38.103533,0,0,1,0,0,0,81,84,131,110,22,94.53,173,-28.00,20.00,-991.00
2024-06-07 00:50:38.236205,0,0,1,0,0,0,81,84,131,110,22,94.65,173,7.00,-15.00,-985.00
2024-06-07 00:50:38.307422,0,0,1,0,0,0,81,84,131,110,22,94.77,173,-11.00,13.00,-994.00
2024-06-07 00:50:38.431152,0,0,1,0,0,0,81,84,131,110,22,94.81,173,3.00,-24.00,-999.00
2024-06-07 00:50:38.544345,0,0,1,0,0,0,81,84,131,110,22,94.44,173,5.00,1.00,-995.00
2024-06-07 00:50:38.687220,0,0,1,0,0,0,81,83,131,110,22,94.62,173,-2.00,-16.00,-985.00
2024-06-07 00:50:38.715595,0,0,1,0,0,0,81,83,131,110,22,94.73,173,-6.00,-7.00,-993.00
2024-06-07 00:50:38.850001,0,0,1,0,0,0,81,83,131,110,22,94.34,173,38.00,9.00,-986.00
2024-06-07 00:50:38.993356,0,0,3,0,0,0,81,83,131,110,22,94.53,173,-2.00,-13.00,-1011.00
2024-06-07 00:50:39.021523,0,0,9,0,0,0,81,83,130,110,22,94.43,173,10.00,20.00,-1038.00
2024-06-07 00:50:39.157356,0,0,15,0,0,0,81,83,131,110,22,94.63,174,-3.00,-4.00,-953.00
2024-06-07 00:50:39.300564,0,0,21,0,0,0,81,83,132,110,22,94.44,174,3.00,17.00,-973.00
2024-06-07 00:50:39.329229,0,0,27,0,0,0,81,83,131,110,22,94.73,174,-8.00,14.00,-999.00
2024-06-07 00:50:39.464366,0,0,33,0,0,0,81,83,130,110,22,94.85,174,-22.00,9.00,-996.00
2024-06-07 00:50:39.607724,-1,-1,38,0,0,0,81,83,131,110,22,94.64,174,-12.00,19.00,-999.00
2024-06-07 00:50:39.633672,-1,-1,44,0,0,0,81,84,131,110,21,94.36,174,-7.00,-3.00,-987.00
2024-06-07 00:50:39.771538,-1,-1,50,0,0,0,81,84,131,110,21,94.62,174,2.00,-2.00,-1002.00
2024-06-07 00:50:39.837238,-1,-1,56,0,0,0,81,84,131,110,21,94.62,174,8.00,-10.00,-1019.00
2024-06-07 00:50:39.965819,0,0,62,0,0,0,81,84,131,110,21,94.59,174,-7.00,28.00,-1000.00
2024-06-07 00:50:40.041274,0,0,68,0,0,0,81,84,132,110,21,94.92,174,-33.00,-6.00,-993.00
2024-06-07 00:50:40.170212,0,0,74,0,0,0,81,84,131,110,21,94.81,175,17.00,16.00,-1007.00
2024-06-07 00:50:40.245207,0,0,80,0,0,0,81,84,132,110,21,94.62,175,5.00,23.00,-995.00
2024-06-07 00:50:40.375103,0,0,86,0,0,0,81,84,132,110,21,94.42,175,-21.00,13.00,-996.00
2024-06-07 00:50:40.399730,0,0,92,0,0,0,81,84,132,110,21,95.00,175,8.00,-18.00,-1004.00
2024-06-07 00:50:40.500187,0,-1,98,0,0,0,81,84,132,110,21,94.87,175,5.00,37.00,-970.00
2024-06-07 00:50:40.682244,0,0,110,0,0,0,81,84,133,110,21,94.55,175,2.00,5.00,-995.00
2024-06-07 00:50:40.755132,0,0,116,0,0,0,81,84,133,110,21,94.25,175,-31.00,29.00,-991.00
2024-06-07 00:50:40.887164,0,0,122,0,0,0,81,84,132,110,21,94.49,175,0.00,19.00,-1031.00
2024-06-07 00:50:40.959054,0,0,128,0,0,0,81,84,132,110,21,94.49,175,12.00,-11.00,-995.00
2024-06-07 00:50:41.010988,0,0,133,0,0,0,81,84,132,110,21,94.90,176,-7.00,37.00,-1002.00
2024-06-07 00:50:41.194226,0,0,139,0,0,0,81,84,133,110,21,94.45,176,-4.00,2.00,-1021.00
2024-06-07 00:50:41.219149,0,0,145,0,0,0,81,84,132,110,21,94.28,176,1.00,30.00,-1017.00
2024-06-07 00:50:41.317138,0,0,151,0,0,0,81,84,132,110,21,94.94,176,-13.00,10.00,-995.00
2024-06-07 00:50:41.503891,0,0,157,0,0,0,81,84,133,110,21,94.95,176,-5.00,32.00,-1041.00
2024-06-07 00:50:41.521772,0,0,163,0,0,0,81,84,132,110,21,94.48,176,-3.00,-1.00,-987.00
2024-06-07 00:50:41.706750,0,0,169,0,0,0,81,84,132,110,20,94.33,176,-20.00,15.00,-1030.00
2024-06-07 00:50:41.724999,0,0,175,0,0,0,81,84,132,110,20,94.65,176,4.00,-3.00,-1010.00
2024-06-07 00:50:41.914280,0,0,-178,0,0,0,81,84,132,110,20,95.08,176,-5.00,29.00,-1019.00
2024-06-07 00:50:41.929032,0,0,-172,0,0,0,81,84,132,110,20,94.61,176,15.00,5.00,-982.00
2024-06-07 00:50:42.115964,0,0,-166,0,0,0,81,84,132,110,20,94.87,177,6.00,16.00,-1029.00
2024-06-07 00:50:42.133292,0,0,-160,0,0,0,81,84,132,110,20,94.63,177,-13.00,-27.00,-1000.00
2024-06-07 00:50:42.320515,0,0,-153,0,0,0,81,84,132,110,20,94.79,177,4.00,-13.00,-982.00
2024-06-07 00:50:42.337079,0,0,-147,0,0,0,81,84,131,110,20,94.52,177,-12.00,-7.00,-984.00
2024-06-07 00:50:42.440906,0,0,-141,0,0,0,81,84,132,110,20,94.55,177,28.00,0.00,-1017.00
2024-06-07 00:50:42.541052,0,0,-135,0,0,0,81,84,132,110,20,94.66,177,2.00,5.00,-1004.00
2024-06-07 00:50:42.662606,0,0,-129,0,0,0,82,84,131,110,20,94.65,177,31.00,-8.00,-1034.00
2024-06-07 00:50:42.744968,0,0,-122,0,0,0,82,84,132,110,20,94.86,177,42.00,-6.00,-987.00
2024-06-07 00:50:42.849789,1,0,-116,0,0,0,82,84,131,110,20,94.61,177,9.00,2.00,-1001.00
2024-06-07 00:50:42.949204,1,0,-110,0,0,0,82,84,132,110,20,94.81,177,10.00,20.00,-1014.00
2024-06-07 00:50:43.051010,0,0,-104,0,0,0,82,84,132,110,20,94.78,178,16.00,11.00,-1027.00
2024-06-07 00:50:43.244426,0,0,-98,0,0,0,82,84,131,110,20,94.54,178,3.00,-18.00,-966.00
2024-06-07 00:50:43.254896,0,0,-91,0,0,0,82,84,132,110,20,94.64,178,-38.00,23.00,-1008.00
2024-06-07 00:50:43.447657,0,0,-85,0,0,0,82,84,132,110,20,94.78,178,-13.00,-26.00,-995.00
2024-06-07 00:50:43.461029,0,0,-79,0,0,0,82,84,132,110,20,94.74,178,-4.00,9.00,-1028.00
2024-06-07 00:50:43.560890,0,0,-73,0,0,0,82,84,130,110,20,94.62,178,3.00,4.00,-968.00
2024-06-07 00:50:43.754115,0,0,-67,0,0,0,81,84,131,110,20,94.62,178,-9.00,1.00,-994.00
2024-06-07 00:50:43.764885,0,0,-61,0,0,0,81,84,130,110,20,94.45,178,-5.00,0.00,-1011.00
2024-06-07 00:50:43.959310,0,0,-54,0,0,0,81,84,129,110,20,94.59,178,-14.00,28.00,-1024.00
2024-06-07 00:50:43.968805,0,0,-48,0,0,0,81,84,130,110,20,94.46,178,-3.00,3.00,-1003.00
2024-06-07 00:50:44.070906,0,0,-42,0,0,0,81,84,129,110,20,94.39,179,-15.00,18.00,-995.00
2024-06-07 00:50:44.266114,0,0,-36,0,0,0,81,84,129,110,20,94.73,179,-25.00,12.00,-999.00
2024-06-07 00:50:44.274949,0,0,-30,0,0,0,81,84,129,110,20,94.76,179,-11.00,-1.00,-1008.00
2024-06-07 00:50:44.473520,0,0,-23,0,0,0,81,84,129,110,20,94.87,179,-12.00,28.00,-985.00
2024-06-07 00:50:44.481937,0,1,-17,0,0,0,81,84,129,110,20,94.73,179,0.00,30.00,-1030.00
2024-06-07 00:50:44.529748,0,1,-13,0,0,0,81,84,129,110,20,94.70,179,-16.00,11.00,-987.00
2024-06-07 00:50:44.682959,0,1,-9,0,0,0,81,84,130,110,20,94.75,179,-33.00,-1.00,-999.00
2024-06-07 00:50:44.733726,0,0,-6,0,0,0,81,84,130,110,20,94.68,179,-15.00,-9.00,-997.00
2024-06-07 00:50:44.881300,0,0,-4,0,0,0,81,84,130,110,20,94.69,179,-37.00,27.00,-981.00
2024-06-07 00:50:44.938618,0,0,-3,0,0,0,81,84,130,110,20,94.53,179,5.00,-28.00,-1016.00
2024-06-07 00:50:45.086282,0,0,-1,0,0,0,81,84,131,110,20,94.66,180,-7.00,-10.00,-967.00
2024-06-07 00:50:45.141711,0,0,-1,0,0,0,81,84,132,110,20,94.79,180,6.00,4.00,-999.00
2024-06-07 00:50:45.243853,0,0,0,0,0,0,81,84,132,110,20,94.71,180,-18.00,-7.00,-1000.00
2024-06-07 00:50:45.407310,1,0,0,0,0,0,81,84,132,110,20,94.63,180,31.00,1.00,-998.00
2024-06-07 00:50:45.447899,1,0,0,0,0,0,81,84,132,110,20,94.79,180,-6.00,3.00,-994.00
2024-06-07 00:50:45.603953,1,0,0,0,0,0,81,84,132,110,20,94.34,180,-2.00,-7.00,-1003.00
2024-06-07 00:50:45.651610,0,0,0,0,0,0,82,84,132,110,19,94.71,180,4.00,-33.00,-980.00
2024-06-07 00:50:45.758519,0,0,0,0,0,0,82,84,133,110,19,94.60,180,-22.00,-5.00,-974.00
2024-06-07 00:50:45.855502,0,0,0,0,0,0,82,84,133,110,19,94.54,180,-10.00,-8.00,-990.00
2024-06-07 00:50:46.006939,0,0,0,0,0,0,82,84,133,110,19,94.70,180,10.00,-10.00,-984.00
2024-06-07 00:50:46.059495,0,0,0,0,0,0,82,84,133,110,19,94.50,181,29.00,9.00,-978.00
2024-06-07 00:50:46.215449,0,0,0,0,0,0,82,84,132,110,19,94.79,181,4.00,18.00,-1006.00
2024-06-07 00:50:46.264544,0,0,0,0,0,0,82,84,133,110,19,94.49,181,10.00,-8.00,-988.00
2024-06-07 00:50:46.419148,0,0,0,0,0,0,82,84,133,110,19,94.68,181,-1.00,-16.00,-972.00
2024-06-07 00:50:46.467419,0,0,0,0,0,0,82,84,133,110,19,94.98,181,16.00,-4.00,-1002.00
2024-06-07 00:50:46.621366,0,0,0,0,0,0,82,84,133,110,19,94.68,181,4.00,0.00,-988.00
2024-06-07 00:50:46.673965,0,0,0,0,0,0,82,84,133,110,19,94.61,181,-7.00,-18.00,-979.00
2024-06-07 00:50:46.773533,0,0,0,0,0,0,82,84,132,110,19,94.43,181,8.00,0.00,-997.00
2024-06-07 00:50:46.928516,0,0,0,0,0,0,82,84,132,110,19,94.56,181,-15.00,27.00,-995.00
2024-06-07 00:50:46.977744,0,0,0,0,0,0,82,84,132,110,19,94.99,181,-3.00,13.00,-992.00
2024-06-07 00:50:47.080972,0,0,0,0,0,0,82,84,132,110,19,94.86,182,0.00,-30.00,-978.00
2024-06-07 00:50:47.181735,0,0,0,0,0,0,82,84,132,110,19,94.67,182,-2.00,-10.00,-1004.00
2024-06-07 00:50:47.283354,0,0,0,0,0,0,82,84,132,110,19,94.68,182,9.00,10.00,-1018.00
2024-06-07 00:50:47.440320,0,0,-2,0,0,0,82,84,132,110,19,94.87,182,7.00,14.00,-1012.00
2024-06-07 00:50:47.489788,0,0,-8,0,0,0,82,84,133,110,19,94.82,182,14.00,4.00,-1035.00
2024-06-07 00:50:47.590149,0,0,-14,0,0,0,82,84,132,110,19,94.48,182,8.00,36.00,-1002.00
2024-06-07 00:50:47.692685,0,0,-20,0,0,0,82,84,133,110,19,94.41,182,-5.00,10.00,-994.00
2024-06-07 00:50:47.795046,0,0,-26,0,0,0,82,84,133,110,19,94.87,182,-7.00,17.00,-997.00
2024-06-07 00:50:47.895282,0,-1,-31,0,0,0,82,84,134,110,19,94.89,182,45.00,10.00,-1009.00
2024-06-07 00:50:48.054712,0,-1,-37,0,0,0,82,84,134,110,19,94.38,182,16.00,18.00,-969.00
2024-06-07 00:50:48.099302,1,-1,-43,0,0,0,82,84,135,110,19,94.78,183,2.00,40.00,-999.00
2024-06-07 00:50:48.259510,0,-1,-49,0,0,0,82,84,135,110,19,94.48,183,29.00,-1.00,-1004.00
2024-06-07 00:50:48.303237,1,-1,-55,0,0,0,82,84,136,110,19,94.92,183,8.00,15.00,-984.00
2024-06-07 00:50:48.354410,1,0,-60,0,0,0,82,84,136,110,19,94.89,183,17.00,34.00,-1014.00
2024-06-07 00:50:48.464281,0,0,-66,0,0,0,82,84,136,110,19,94.78,183,18.00,7.00,-962.00
2024-06-07 00:50:48.558372,1,0,-72,0,0,0,82,84,136,110,19,94.74,183,8.00,16.00,-997.00
2024-06-07 00:50:48.664240,1,0,-78,0,0,0,81,84,136,110,19,94.89,183,12.00,0.00,-991.00
2024-06-07 00:50:48.764462,1,0,-84,0,0,0,81,84,136,110,19,94.20,183,12.00,32.00,-1019.00
2024-06-07 00:50:48.865600,0,-1,-90,0,0,0,81,84,136,110,19,94.56,183,14.00,19.00,-987.00
2024-06-07 00:50:48.966476,1,-1,-96,0,0,0,81,84,135,110,19,94.65,183,23.00,34.00,-1000.00
2024-06-07 00:50:49.068778,1,-1,-102,0,0,0,81,84,135,110,19,94.85,184,-2.00,18.00,-1001.00
2024-06-07 00:50:49.183323,1,-1,-108,0,0,0,81,84,134,110,19,94.58,184,-2.00,39.00,-999.00
2024-06-07 00:50:49.272595,0,0,-114,0,0,0,81,84,134,110,19,94.76,184,-9.00,31.00,-997.00
2024-06-07 00:50:49.386595,0,-1,-120,0,0,0,81,84,133,110,19,94.56,184,-7.00,17.00,-1006.00
2024-06-07 00:50:49.476584,1,0,-126,0,0,0,81,84,133,110,19,94.86,184,-23.00,21.00,-1005.00
2024-06-07 00:50:49.578507,1,0,-132,0,0,0,81,84,132,110,19,94.81,184,9.00,21.00,-1024.00
2024-06-07 00:50:49.681338,0,0,-138,0,0,0,81,84,133,110,19,94.55,184,6.00,10.00,-1024.00
2024-06-07 00:50:49.782754,0,0,-144,0,0,0,81,84,132,110,19,94.57,184,-19.00,46.00,-1000.00
2024-06-07 00:50:49.884467,0,0,-150,0,0,0,81,84,132,110,19,94.65,184,9.00,25.00,-995.00
2024-06-07 00:50:49.986365,0,0,-156,0,0,0,81,84,132,110,19,94.65,184,8.00,6.00,-1007.00
2024-06-07 00:50:50.088356,0,-1,-162,0,0,0,81,84,132,110,19,94.71,185,19.00,17.00,-1019.00
2024-06-07 00:50:50.205752,0,-1,-167,0,0,0,81,84,131,110,19,94.76,185,6.00,21.00,-988.00
2024-06-07 00:50:50.297902,1,-1,-173,0,0,0,81,84,132,110,19,94.58,185,0.00,45.00,-1019.00
2024-06-07 00:50:50.398419,0,-1,-179,0,0,0,81,84,132,110,19,94.65,185,-5.00,22.00,-976.00
2024-06-07 00:50:50.497616,0,-1,174,0,0,0,81,84,131,110,19,94.71,185,19.00,18.00,-1021.00
2024-06-07 00:50:50.598429,0,-1,168,0,0,0,81,84,130,110,19,94.63,185,6.00,27.00,-996.00
2024-06-07 00:50:50.703860,0,0,162,0,0,0,81,84,130,110,19,94.34,185,-31.00,44.00,-977.00
2024-06-07 00:50:50.811377,0,0,156,0,0,0,81,84,130,110,19,94.60,185,-3.00,13.00,-1001.00
2024-06-07 00:50:50.914048,0,0,150,0,0,0,81,84,130,110,19,94.89,185,-9.00,18.00,-1014.00
2024-06-07 00:50:51.013751,0,0,144,0,0,0,81,84,129,110,19,94.85,185,-9.00,20.00,-1042.00
2024-06-07 00:50:51.108915,0,0,139,0,0,0,81,84,130,110,19,94.78,186,1.00,5.00,-1001.00
2024-06-07 00:50:51.229141,0,0,133,0,0,0,81,84,130,110,19,94.88,186,19.00,1.00,-998.00
2024-06-07 00:50:51.312606,0,0,127,0,0,0,81,84,129,110,19,94.66,186,-35.00,35.00,-959.00
2024-06-07 00:50:51.438651,0,0,121,0,0,0,81,84,129,110,19,94.67,186,-17.00,19.00,-1013.00
2024-06-07 00:50:51.517321,0,0,115,0,0,0,81,84,128,110,19,94.78,186,0.00,-1.00,-1015.00
2024-06-07 00:50:51.641175,0,0,109,0,0,0,81,84,129,110,18,94.61,186,12.00,19.00,-1020.00
2024-06-07 00:50:51.720258,0,0,103,0,0,0,81,84,128,110,18,94.64,186,-26.00,20.00,-988.00
2024-06-07 00:50:51.846561,0,0,97,0,0,0,81,84,128,110,18,94.81,186,-52.00,-4.00,-1027.00
2024-06-07 00:50:51.924183,0,0,91,0,0,0,81,84,128,110,18,94.67,186,-16.00,0.00,-1031.00
2024-06-07 00:50:52.110385,0,0,85,0,0,0,81,84,127,110,18,94.88,186,8.00,13.00,-1020.00
2024-06-07 00:50:52.128036,0,0,80,0,0,0,81,84,127,110,18,94.55,187,-23.00,14.00,-1007.00
2024-06-07 00:50:52.179023,0,0,74,0,0,0,81,84,127,110,18,94.50,187,-9.00,37.00,-1003.00
2024-06-07 00:50:52.560516,0,0,62,0,0,0,81,84,129,110,18,94.68,187,3.00,2.00,-995.00
2024-06-07 00:50:52.629974,0,0,56,0,0,0,81,84,129,110,18,94.65,187,-13.00,7.00,-995.00
2024-06-07 00:50:52.630195,0,-1,50,0,0,0,81,84,130,110,18,94.86,187,6.00,-2.00,-1006.00
2024-06-07 00:50:52.696692,0,-1,44,0,0,0,82,83,130,110,18,94.46,187,5.00,44.00,-980.00
2024-06-07 00:50:52.819937,0,-1,38,0,0,0,82,83,132,110,18,94.60,187,23.00,9.00,-998.00
2024-06-07 00:50:52.892926,0,-1,32,0,0,0,82,83,132,110,18,94.62,187,2.00,2.00,-989.00
2024-06-07 00:50:53.036780,1,-1,26,0,0,0,82,83,133,110,18,94.58,187,10.00,32.00,-1011.00
2024-06-07 00:50:53.100833,1,-1,20,0,0,0,82,83,133,110,18,94.70,188,7.00,9.00,-996.00
2024-06-07 00:50:53.287772,1,-1,15,0,0,0,82,83,133,110,18,94.64,188,17.00,-1.00,-981.00
2024-06-07 00:50:53.300886,1,-1,11,0,0,0,82,83,134,110,18,94.52,188,15.00,26.00,-999.00
2024-06-07 00:50:53.431217,1,0,8,0,0,0,82,83,134,110,18,94.77,188,12.00,17.00,-999.00
2024-06-07 00:50:53.595026,1,-1,6,0,0,0,82,83,133,110,18,94.78,188,4.00,-3.00,-999.00
2024-06-07 00:50:53.608990,0,0,4,0,0,0,82,83,133,110,18,94.68,188,16.00,16.00,-985.00
2024-06-07 00:50:53.738327,0,0,3,0,0,0,82,84,133,110,18,94.46,188,-26.00,40.00,-1006.00
2024-06-07 00:50:53.902230,0,0,2,0,0,0,82,84,132,110,18,94.80,188,7.00,9.00,-1004.00
2024-06-07 00:50:53.912958,0,0,1,0,0,0,82,84,133,110,18,94.71,188,9.00,4.00,-985.00
2024-06-07 00:50:54.045930,0,0,1,0,0,0,82,84,132,110,18,94.55,188,10.00,-17.00,-999.00
2024-06-07 00:50:54.211484,0,0,1,0,0,0,82,84,131,110,18,94.82,189,17.00,9.00,-1028.00
2024-06-07 00:50:54.218837,0,0,1,0,0,0,82,84,132,110,18,94.60,189,9.00,17.00,-986.00
2024-06-07 00:50:54.352866,0,0,1,0,0,0,82,84,132,110,18,94.88,189,3.00,34.00,-1017.00
2024-06-07 00:50:54.516750,0,-1,1,0,0,0,82,84,132,110,18,94.69,189,11.00,28.00,-1022.00
2024-06-07 00:50:54.524727,0,-1,1,0,0,0,82,84,132,110,18,94.87,189,15.00,10.00,-992.00
2024-06-07 00:50:54.638735,0,-1,1,0,0,0,82,84,132,110,18,94.94,189,12.00,56.00,-994.00
2024-06-07 00:50:54.752012,0,0,1,0,0,0,81,83,133,110,18,94.52,189,-14.00,9.00,-975.00
2024-06-07 00:50:54.830819,0,-1,1,0,0,0,81,83,132,110,18,94.62,189,19.00,11.00,-1022.00
2024-06-07 00:50:55.018344,0,-1,1,0,0,0,81,83,132,110,18,94.74,189,-25.00,19.00,-975.00
2024-06-07 00:50:55.036004,0,-1,1,0,0,0,81,83,132,110,18,94.41,189,3.00,27.00,-991.00
2024-06-07 00:50:55.222615,0,-1,1,0,0,0,81,83,133,110,18,94.73,190,16.00,40.00,-1007.00
2024-06-07 00:50:55.240253,0,-1,1,0,0,0,81,83,132,110,18,94.55,190,-2.00,12.00,-986.00
2024-06-07 00:50:55.427251,0,-1,1,0,0,0,81,83,132,110,18,94.53,190,14.00,1.00,-988.00
2024-06-07 00:50:55.443895,0,-1,1,0,0,0,81,83,133,110,18,94.74,190,0.00,14.00,-999.00
2024-06-07 00:50:55.632044,0,0,1,0,0,0,81,83,132,110,18,94.56,190,2.00,41.00,-1006.00
2024-06-07 00:50:55.632151,0,0,1,0,0,0,81,83,132,110,18,94.45,190,-4.00,34.00,-994.00
2024-06-07 00:50:55.749964,0,-1,1,0,0,0,80,84,132,110,18,94.65,190,6.00,29.00,-987.00
2024-06-07 00:50:55.916215,0,-1,1,0,0,0,80,84,132,110,18,94.65,190,-8.00,26.00,-1004.00
2024-06-07 00:50:55.953822,0,-1,1,0,0,0,80,84,131,110,18,94.56,190,14.00,35.00,-1005.00
2024-06-07 00:50:56.006042,0,-1,1,0,0,0,80,84,132,110,18,94.63,191,13.00,30.00,-1008.00
2024-06-07 00:50:56.106795,0,-1,1,0,0,0,80,84,132,110,18,94.42,191,14.00,0.00,-983.00
2024-06-07 00:50:56.209198,0,-1,1,0,0,0,80,84,132,110,18,94.63,191,6.00,19.00,-1011.00
2024-06-07 00:50:56.348976,0,-1,1,0,0,0,80,84,131,110,18,94.83,191,5.00,45.00,-997.00
2024-06-07 00:50:56.417898,0,-1,1,0,0,0,80,84,131,110,18,94.53,191,12.00,24.00,-992.00
2024-06-07 00:50:56.514878,0,-1,1,0,0,0,80,84,131,110,18,94.67,191,17.00,-12.00,-970.00
2024-06-07 00:50:56.656276,0,-1,1,0,0,0,80,84,131,110,18,94.91,191,11.00,1.00,-996.00
2024-06-07 00:50:56.718720,0,-1,1,0,0,0,82,84,130,110,18,94.48,191,-2.00,31.00,-1007.00
2024-06-07 00:50:56.861146,0,-1,1,0,0,0,82,84,131,110,18,94.82,191,-18.00,2.00,-980.00
2024-06-07 00:50:56.923215,0,-1,1,0,0,0,82,84,131,110,18,94.51,191,-15.00,24.00,-972.00
2024-06-07 00:50:57.065534,0,-1,1,0,0,0,82,84,131,110,18,94.63,192,19.00,34.00,-1015.00
2024-06-07 00:50:57.126483,0,-1,1,0,0,0,82,84,130,110,18,94.72,192,11.00,19.00,-1007.00
2024-06-07 00:50:57.270607,0,-1,1,0,0,0,82,84,131,110,18,94.77,192,11.00,22.00,-988.00
2024-06-07 00:50:57.330614,0,-1,1,0,0,0,82,84,131,110,18,94.57,192,27.00,39.00,-1013.00
2024-06-07 00:50:57.475236,0,-1,1,0,0,0,82,84,131,110,18,94.43,192,5.00,24.00,-1018.00
2024-06-07 00:50:57.534539,0,-1,1,0,0,0,82,84,130,110,18,94.84,192,3.00,0.00,-1004.00
2024-06-07 00:50:57.673289,0,-1,1,0,0,0,82,84,131,110,18,94.63,192,-13.00,4.00,-1011.00
2024-06-07 00:50:57.738588,0,-1,1,0,0,0,81,84,131,110,18,94.71,192,-18.00,16.00,-1008.00
2024-06-07 00:50:57.884778,0,-1,1,0,0,0,81,84,131,110,18,94.68,192,-12.00,30.00,-1000.00
2024-06-07 00:50:57.942657,0,-1,1,0,0,0,81,84,131,110,18,94.31,192,18.00,14.00,-992.00
2024-06-07 00:50:58.089986,0,-1,1,0,0,0,81,84,131,110,18,94.78,193,11.00,24.00,-1008.00
2024-06-07 00:50:58.147064,0,-1,1,0,0,0,81,84,131,110,18,94.62,193,-9.00,13.00,-982.00
2024-06-07 00:50:58.294644,0,-1,1,0,0,0,81,84,131,110,18,94.69,193,10.00,19.00,-1016.00
2024-06-07 00:50:58.350812,0,-1,1,0,0,0,81,84,131,110,18,94.41,193,0.00,14.00,-983.00
2024-06-07 00:50:58.499290,0,-1,1,0,0,0,81,84,132,110,18,94.65,193,1.00,31.00,-991.00
2024-06-07 00:50:58.555201,0,-1,1,0,0,0,81,84,131,110,18,94.79,193,19.00,-4.00,-1024.00
2024-06-07 00:50:58.704160,0,-1,1,0,0,0,81,84,131,110,17,94.50,193,13.00,0.00,-967.00
2024-06-07 00:50:58.759124,0,-1,1,0,0,0,81,83,132,110,17,94.67,193,10.00,16.00,-998.00
2024-06-07 00:50:58.909176,0,-1,1,0,0,0,81,83,132,110,17,94.59,193,13.00,45.00,-1003.00
2024-06-07 00:50:58.962449,0,-1,1,0,0,0,81,83,132,110,17,94.62,193,-10.00,22.00,-992.00
2024-06-07 00:50:59.113497,0,-1,1,0,0,0,81,83,133,110,17,94.63,194,10.00,20.00,-998.00
2024-06-07 00:50:59.167874,0,-1,1,0,0,0,81,83,133,110,17,94.53,194,-7.00,23.00,-1008.00
2024-06-07 00:50:59.321330,0,-1,1,0,0,0,81,83,133,110,17,94.64,194,-16.00,42.00,-980.00
2024-06-07 00:50:59.374204,0,-1,1,0,0,0,81,83,132,110,17,94.64,194,-13.00,25.00,-1019.00
2024-06-07 00:50:59.473191,0,-1,1,0,0,0,81,83,133,110,17,94.61,194,-10.00,32.00,-960.00
2024-06-07 00:50:59.574483,0,-1,1,0,0,0,81,83,133,110,17,94.59,194,-6.00,30.00,-993.00
2024-06-07 00:50:59.627764,0,-1,1,0,0,0,81,83,133,110,17,94.54,194,-10.00,22.00,-1015.00
2024-06-07 00:50:59.831136,0,-1,1,0,0,0,81,83,133,110,17,94.82,194,-13.00,30.00,-1001.00
2024-06-07 00:50:59.880551,0,-1,1,0,0,0,81,83,133,110,17,94.56,194,-12.00,41.00,-1012.00
2024-06-07 00:50:59.933404,0,-1,1,0,0,0,81,83,133,110,17,94.58,194,8.00,31.00,-985.00
2024-06-07 00:51:00.035559,0,-1,1,0,0,0,81,83,133,110,17,94.93,195,12.00,29.00,-987.00
2024-06-07 00:51:00.140495,0,-1,1,0,0,0,81,83,133,110,17,94.57,195,14.00,28.00,-970.00
2024-06-07 00:51:00.237602,0,-1,1,0,0,0,81,83,133,110,17,94.74,195,15.00,31.00,-1021.00
2024-06-07 00:51:00.342913,0,-1,1,0,0,0,81,83,133,110,17,94.47,195,9.00,26.00,-996.00
2024-06-07 00:51:00.441967,0,-1,1,0,0,0,81,83,133,110,17,94.60,195,8.00,35.00,-993.00
2024-06-07 00:51:00.547888,0,-1,1,0,0,0,81,83,133,110,17,94.57,195,7.00,33.00,-992.00
2024-06-07 00:51:00.650104,0,-1,1,0,0,0,81,83,134,110,17,94.70,195,-35.00,52.00,-1030.00
2024-06-07 00:51:00.747463,0,-1,1,0,0,0,80,84,134,110,17,94.61,195,-49.00,37.00,-982.00
2024-06-07 00:51:00.854411,0,-1,1,0,0,0,80,84,134,110,17,94.53,195,-17.00,16.00,-981.00
2024-06-07 00:51:00.960980,0,-1,1,0,0,0,80,84,133,110,17,94.63,195,18.00,1.00,-995.00
2024-06-07 00:51:01.053851,0,-1,1,0,0,0,80,84,134,110,17,94.50,196,35.00,31.00,-1008.00
2024-06-07 00:51:01.162106,0,-1,1,0,0,0,80,84,134,110,17,94.55,196,3.00,41.00,-1020.00
2024-06-07 00:51:01.257361,0,-1,1,0,0,0,80,84,133,110,17,94.66,196,-9.00,25.00,-974.00
2024-06-07 00:51:01.366291,0,-1,1,0,0,0,80,84,134,110,17,94.61,196,-3.00,25.00,-1011.00
2024-06-07 00:51:01.462450,0,-1,1,0,0,0,80,84,134,110,17,94.71,196,-4.00,16.00,-1004.00
2024-06-07 00:51:01.571733,0,-1,1,0,0,0,80,84,134,110,17,94.52,196,-19.00,9.00,-976.00
2024-06-07 00:51:01.672006,0,-1,1,0,0,0,80,84,133,110,17,94.77,196,-3.00,7.00,-978.00
2024-06-07 00:51:01.767477,0,-1,1,0,0,0,81,83,133,110,17,94.55,196,20.00,-14.00,-1003.00
2024-06-07 00:51:01.878606,0,-1,1,0,0,0,81,83,134,110,17,94.54,196,22.00,-7.00,-973.00
2024-06-07 00:51:01.971399,0,-1,1,0,0,0,81,83,133,110,17,94.62,196,5.00,33.00,-976.00
2024-06-07 00:51:02.083228,0,-1,1,0,0,0,81,83,134,110,17,94.43,197,-3.00,31.00,-1008.00
2024-06-07 00:51:02.186060,0,-1,1,0,0,0,81,83,134,110,17,94.71,197,-6.00,28.00,-996.00
2024-06-07 00:51:02.277268,0,-1,1,0,0,0,81,83,133,110,17,94.42,197,-4.00,29.00,-1000.00
2024-06-07 00:51:02.390239,0,-1,1,0,0,0,81,83,133,110,17,94.61,197,-22.00,21.00,-1017.00
2024-06-07 00:51:02.481508,0,-1,1,0,0,0,81,83,134,110,17,94.57,197,-19.00,17.00,-1011.00
2024-06-07 00:51:02.583322,0,-1,1,0,0,0,81,83,134,110,17,94.68,197,-21.00,31.00,-993.00
2024-06-07 00:51:02.685580,0,-1,1,0,0,0,81,83,134,110,17,94.59,197,-10.00,45.00,-990.00
2024-06-07 00:51:02.788020,0,-1,1,0,0,0,81,83,135,110,17,94.56,197,-6.00,34.00,-995.00
2024-06-07 00:51:02.890363,0,-1,1,0,0,0,81,83,134,110,17,94.41,197,-28.00,31.00,-989.00
2024-06-07 00:51:02.993854,0,-1,1,0,0,0,81,83,133,110,17,94.44,197,5.00,16.00,-977.00
2024-06-07 00:51:03.094529,0,-1,1,0,0,0,81,83,133,110,17,94.57,198,4.00,-2.00,-994.00
2024-06-07 00:51:03.196563,0,-1,1,0,0,0,81,83,135,110,17,94.89,198,12.00,38.00,-1025.00
2024-06-07 00:51:03.298738,0,-1,1,0,0,0,81,83,134,110,17,94.47,198,10.00,25.00,-986.00
2024-06-07 00:51:03.400739,0,-1,1,0,0,0,81,83,134,110,17,94.58,198,3.00,17.00,-986.00
2024-06-07 00:51:03.451429,0,-1,1,0,0,0,81,83,133,110,17,94.64,198,16.00,9.00,-998.00
2024-06-07 00:51:03.622681,0,-1,1,0,0,0,81,83,134,110,17,94.61,198,4.00,28.00,-1009.00
2024-06-07 00:51:03.655149,0,-1,1,0,0,0,81,83,134,110,17,94.45,198,3.00,50.00,-1023.00
2024-06-07 00:51:03.760753,0,-1,1,0,0,0,81,84,134,110,17,94.73,198,-15.00,39.00,-1027.00
2024-06-07 00:51:03.860440,0,-1,1,0,0,0,81,84,133,110,17,94.79,198,18.00,38.00,-1005.00
2024-06-07 00:51:04.029390,0,-1,1,0,0,0,81,84,133,110,17,94.54,198,25.00,1.00,-990.00
2024-06-07 00:51:04.063566,0,-1,1,0,0,0,81,84,134,110,17,94.73,199,29.00,-4.00,-995.00
2024-06-07 00:51:04.233959,0,-1,1,0,0,0,81,84,134,110,17,94.65,199,5.00,34.00,-989.00
2024-06-07 00:51:04.267040,0,-1,1,0,0,0,81,84,134,110,17,94.39,199,5.00,47.00,-986.00
2024-06-07 00:51:04.440741,0,-1,1,0,0,0,81,84,133,110,17,94.81,199,10.00,13.00,-962.00
2024-06-07 00:51:04.471573,0,-1,1,0,0,0,81,84,133,110,17,94.66,199,-3.00,27.00,-981.00
2024-06-07 00:51:04.643888,0,-1,1,0,0,0,81,84,133,110,17,94.73,199,-31.00,11.00,-981.00
2024-06-07 00:51:04.675233,0,-1,1,0,0,0,81,84,132,110,17,94.32,199,-14.00,33.00,-974.00
2024-06-07 00:51:04.852484,0,-1,1,0,0,0,80,83,132,110,17,94.74,199,3.00,28.00,-994.00
2024-06-07 00:51:04.881367,0,-1,1,0,0,0,80,83,133,110,17,94.32,199,-7.00,28.00,-972.00
2024-06-07 00:51:04.981299,0,-1,1,0,0,0,80,83,133,110,17,94.53,199,0.00,25.00,-1000.00
2024-06-07 00:51:05.155118,0,-1,1,0,0,0,80,83,132,110,17,94.58,200,17.00,19.00,-1001.00
2024-06-07 00:51:05.185095,0,-1,1,0,0,0,80,83,132,110,17,94.72,200,-3.00,53.00,-1017.00
2024-06-07 00:51:05.360534,0,-1,1,0,0,0,80,83,132,110,17,94.38,200,17.00,25.00,-1026.00
2024-06-07 00:51:05.389091,0,-1,1,0,0,0,80,83,133,110,17,94.49,200,-5.00,23.00,-999.00
2024-06-07 00:51:05.564572,0,-1,1,0,0,0,80,83,131,110,17,94.61,200,8.00,0.00,-1001.00
2024-06-07 00:51:05.593246,0,-1,1,0,0,0,80,83,132,110,17,94.65,200,-7.00,17.00,-1012.00
2024-06-07 00:51:05.772006,0,-1,1,0,0,0,80,83,132,110,17,94.32,200,31.00,22.00,-990.00
2024-06-07 00:51:05.796885,0,-1,1,0,0,0,81,84,131,110,17,94.71,200,-21.00,41.00,-989.00
2024-06-07 00:51:05.977857,0,-1,1,0,0,0,81,84,132,110,17,94.53,200,22.00,11.00,-1020.00
2024-06-07 00:51:06.002513,0,-1,1,0,0,0,81,84,132,110,17,94.41,200,-4.00,23.00,-979.00
2024-06-07 00:51:06.105224,0,-1,1,0,0,0,81,84,132,110,17,94.47,201,-8.00,19.00,-1001.00
2024-06-07 00:51:06.205816,0,-1,1,0,0,0,81,84,131,110,17,94.47,201,7.00,21.00,-1013.00
2024-06-07 00:51:06.386620,0,-1,1,0,0,0,81,84,131,110,17,94.90,201,3.00,25.00,-987.00
2024-06-07 00:51:06.408975,0,-1,1,0,0,0,81,84,132,110,17,94.49,201,-24.00,26.00,-1024.00
2024-06-07 00:51:06.588887,0,-1,1,0,0,0,81,84,131,110,17,94.51,201,13.00,41.00,-1013.00
2024-06-07 00:51:06.612968,0,-1,1,0,0,0,81,84,131,110,17,94.63,201,7.00,-1.00,-995.00
2024-06-07 00:51:06.715640,0,-1,1,0,0,0,81,84,131,110,17,94.75,201,-6.00,17.00,-1000.00
2024-06-07 00:51:06.904014,0,0,1,0,0,0,81,84,131,110,17,94.66,201,-29.00,42.00,-1003.00
2024-06-07 00:51:06.918917,0,-1,1,0,0,0,81,84,131,110,17,94.83,201,16.00,22.00,-990.00
2024-06-07 00:51:07.121414,0,-1,1,0,0,0,81,84,132,110,17,94.54,201,0.00,45.00,-1022.00
2024-06-07 00:51:07.121600,0,-1,1,0,0,0,81,84,132,110,17,94.48,202,-19.00,17.00,-972.00
2024-06-07 00:51:07.264003,0,-2,1,0,0,0,81,84,132,110,17,94.51,202,-3.00,29.00,-990.00
2024-06-07 00:51:07.275616,0,-2,1,0,0,0,81,84,132,110,17,94.50,202,-5.00,34.00,-1013.00
2024-06-07 00:51:07.613455,0,-1,1,0,0,0,81,84,132,110,17,94.58,202,-17.00,18.00,-963.00
2024-06-07 00:51:07.613616,0,-1,1,0,0,0,81,84,132,110,17,94.45,202,-13.00,0.00,-998.00
2024-06-07 00:51:07.613696,-1,-1,1,0,0,0,81,84,132,110,17,94.44,202,1.00,13.00,-992.00
2024-06-07 00:51:07.727813,0,0,1,0,0,0,81,84,132,110,17,94.62,202,-10.00,30.00,-1001.00
2024-06-07 00:51:07.785705,0,0,1,0,0,0,82,84,132,110,17,94.56,202,6.00,21.00,-1023.00
2024-06-07 00:51:07.920040,0,0,1,0,0,0,82,84,132,110,17,94.54,202,-2.00,16.00,-1007.00
2024-06-07 00:51:08.032778,0,0,1,0,0,0,82,84,132,110,17,94.63,202,7.00,21.00,-1008.00
2024-06-07 00:51:08.091861,0,0,1,0,0,0,82,84,132,110,17,94.50,203,-11.00,15.00,-963.00
2024-06-07 00:51:08.223222,0,0,1,0,0,0,82,84,132,110,17,94.61,203,-3.00,-6.00,-1016.00
2024-06-07 00:51:08.295483,0,0,1,0,0,0,82,84,132,110,17,94.66,203,-7.00,43.00,-997.00
2024-06-07 00:51:08.436798,0,-1,1,0,0,0,82,84,132,110,17,94.73,203,-19.00,47.00,-1008.00
2024-06-07 00:51:08.499451,0,-1,1,0,0,0,82,84,132,110,17,94.21,203,-8.00,27.00,-980.00
2024-06-07 00:51:08.647074,0,-1,1,0,0,0,82,84,132,110,17,94.49,203,-10.00,18.00,-979.00
2024-06-07 00:51:08.790432,0,-1,1,0,0,0,82,84,131,110,17,94.72,203,11.00,26.00,-957.00
2024-06-07 00:51:08.805444,-1,-1,1,0,0,1,81,83,130,110,17,94.69,203,7.00,34.00,-944.00
2024-06-07 00:51:08.954255,0,-1,1,0,0,1,81,83,128,110,17,94.11,203,15.00,31.00,-901.00
2024-06-07 00:51:09.097505,0,-1,1,0,0,2,81,83,124,110,17,94.26,203,0.00,-14.00,-908.00
2024-06-07 00:51:09.112355,0,-1,1,0,0,3,81,83,120,100,17,94.58,204,3.00,18.00,-893.00
2024-06-07 00:51:09.262701,0,-1,1,0,0,4,81,83,115,100,17,94.28,204,-4.00,7.00,-896.00
2024-06-07 00:51:09.406090,0,-1,1,0,0,5,81,83,108,90,17,94.00,204,-2.00,11.00,-895.00
2024-06-07 00:51:09.417257,0,0,1,0,0,6,81,83,101,90,17,94.54,204,7.00,-13.00,-965.00
2024-06-07 00:51:09.571278,0,-1,1,0,0,7,81,83,94,80,17,94.02,204,17.00,-18.00,-988.00
2024-06-07 00:51:09.743060,0,0,1,0,0,7,81,83,85,70,17,93.84,204,-3.00,-1.00,-978.00
2024-06-07 00:51:09.743121,0,0,1,0,0,7,81,83,78,60,17,94.09,204,2.00,-1.00,-1042.00
2024-06-07 00:51:09.825255,0,-1,1,0,0,7,81,84,70,60,17,94.13,204,10.00,12.00,-1045.00
2024-06-07 00:51:09.967351,0,-1,1,0,0,6,81,84,64,50,17,93.95,204,7.00,19.00,-1068.00
2024-06-07 00:51:10.029311,0,-1,1,0,0,6,81,84,58,40,17,93.96,204,28.00,4.00,-1022.00
2024-06-07 00:51:10.131195,0,0,1,0,0,5,81,84,52,40,17,93.66,205,0.00,10.00,-1033.00
2024-06-07 00:51:10.275101,0,0,1,0,0,5,81,84,47,30,17,93.68,205,7.00,0.00,-1048.00
2024-06-07 00:51:10.335612,0,0,1,0,0,5,81,84,42,30,17,93.79,205,-10.00,-5.00,-1043.00
2024-06-07 00:51:10.479386,0,0,1,0,0,4,81,84,37,20,17,93.62,205,6.00,29.00,-1032.00
2024-06-07 00:51:10.539303,-1,0,1,0,0,4,81,84,36,20,17,93.41,205,3.00,10.00,-1034.00
2024-06-07 00:51:10.684112,-1,0,1,0,0,4,81,84,31,10,17,93.69,205,12.00,8.00,-1033.00
2024-06-07 00:51:10.692457,0,-1,1,0,0,4,81,84,26,10,17,93.58,205,9.00,3.00,-995.00
2024-06-07 00:51:10.891179,0,-1,1,0,0,4,82,84,25,0,17,93.39,205,-9.00,35.00,-982.00
2024-06-07 00:51:10.896406,0,-1,1,0,0,4,82,84,19,0,17,93.24,205,5.00,-7.00,-1033.00
2024-06-07 00:51:10.998632,0,-1,1,0,0,4,82,84,13,0,17,92.62,205,-31.00,24.00,-1014.00
2024-06-07 00:51:11.102192,0,0,1,0,0,4,82,84,10,0,17,91.70,206,9.00,9.00,-1096.00
2024-06-07 00:51:11.202566,0,0,1,0,0,3,82,84,10,0,17,90.61,206,6.00,-7.00,-1078.00
2024-06-07 00:51:11.304504,0,0,1,0,0,2,82,84,10,-10,17,89.53,206,-1.00,9.00,-1073.00
2024-06-07 00:51:11.505501,0,0,1,0,0,0,82,84,10,-10,17,90.50,206,-1.00,6.00,-837.00
2024-06-07 00:51:11.508293,0,0,1,0,0,0,82,84,10,-10,17,90.30,206,27.00,32.00,-1269.00
2024-06-07 00:51:11.610430,0,0,1,0,0,0,82,84,10,-10,17,90.80,206,42.00,-14.00,-973.00
2024-06-07 00:51:11.811120,0,0,1,0,0,0,82,84,10,-10,17,90.99,206,24.00,21.00,-1009.00
2024-06-07 00:51:11.814420,0,0,0,1,0,0,81,84,10,-10,17,91.72,206,40.00,7.00,-1009.00
2024-06-07 00:51:12.018610,0,0,0,1,0,0,81,84,10,-10,17,91.47,206,23.00,15.00,-987.00
2024-06-07 00:51:12.018683,0,0,0,1,0,0,81,84,10,-10,17,92.12,207,-1.00,21.00,-1003.00
2024-06-07 00:51:12.120547,0,0,0,1,0,0,81,84,10,-10,17,92.26,207,23.00,4.00,-984.00
2024-06-07 00:51:12.222276,0,0,0,1,0,0,81,84,10,-10,17,92.21,207,39.00,7.00,-982.00
2024-06-07 00:51:12.324548,0,0,0,2,0,0,81,84,10,-10,17,92.29,207,7.00,15.00,-1003.00
2024-06-07 00:51:12.426773,0,0,0,2,0,0,81,84,10,0,17,92.41,207,23.00,8.00,-1000.00
2024-06-07 00:51:12.530273,0,0,0,2,0,0,81,84,10,0,17,92.58,207,11.00,-6.00,-995.00
2024-06-07 00:51:12.632217,0,0,0,2,0,1,81,84,10,0,17,92.54,207,15.00,6.00,-1000.00
2024-06-07 00:51:12.733184,0,0,0,2,0,1,81,84,10,0,17,92.48,207,14.00,7.00,-999.00
2024-06-07 00:51:12.835342,0,0,0,2,0,2,82,83,10,0,17,93.22,207,17.00,12.00,-997.00
2024-06-07 00:51:12.937827,0,0,0,2,0,2,82,83,10,0,17,93.19,207,17.00,13.00,-996.00
2024-06-07 00:51:13.039811,0,0,0,2,0,2,82,83,10,0,17,93.23,207,18.00,11.00,-996.00
2024-06-07 00:51:13.143869,0,0,0,0,0,1,82,83,10,0,17,93.36,207,16.00,12.00,-998.00
2024-06-07 00:51:13.245636,0,0,0,0,0,1,82,83,10,0,17,93.37,207,18.00,10.00,-995.00
2024-06-07 00:51:13.347536,0,0,0,0,0,1,82,83,10,0,17,93.05,207,11.00,13.00,-1000.00
