TS,pitch,roll,yaw,vgx,vgy,vgz,templ,temph,tof,h,bat,baro,time,agx,agy,agz
2024-06-07 01:09:33.525756,0,0,0,0,0,0,63,64,10,0,60,94.83,0,15.00,7.00,-999.00
2024-06-07 01:09:33.669343,0,0,0,0,0,0,62,64,10,0,60,94.72,0,15.00,8.00,-1000.00
2024-06-07 01:09:33.695710,0,0,0,0,0,0,62,64,10,0,60,94.91,0,15.00,9.00,-997.00
2024-06-07 01:09:33.831541,0,0,0,0,0,0,62,64,10,0,60,94.86,0,14.00,7.00,-1000.00
2024-06-07 01:09:33.849922,0,0,0,0,0,0,62,64,10,0,60,94.64,0,14.00,8.00,-1000.00
2024-06-07 01:09:33.974917,0,0,0,0,0,0,62,64,10,0,60,94.70,0,15.00,7.00,-999.00
2024-06-07 01:09:34.139780,0,0,0,0,0,0,62,64,10,0,60,94.68,0,13.00,7.00,-1002.00
2024-06-07 01:09:34.157352,0,0,0,0,0,0,62,64,10,0,60,94.85,0,14.00,8.00,-1002.00
2024-06-07 01:09:34.292993,0,0,0,0,0,0,62,64,10,0,60,95.19,0,13.00,8.00,-1000.00
2024-06-07 01:09:34.358947,0,0,0,0,0,0,62,64,10,0,60,94.83,0,12.00,7.00,-1001.00
2024-06-07 01:09:34.537461,0,0,0,0,0,0,62,64,10,0,60,94.98,0,14.00,9.00,-998.00
2024-06-07 01:09:34.566812,0,0,0,0,0,0,63,64,10,0,60,94.70,0,14.00,7.00,-998.00
2024-06-07 01:09:34.664799,0,0,0,0,0,0,63,64,10,0,60,94.70,0,15.00,8.00,-1000.00
2024-06-07 01:09:34.782121,0,0,0,0,0,0,63,64,10,0,60,94.98,0,15.00,7.00,-998.00
2024-06-07 01:09:34.868822,0,0,0,0,0,0,63,64,10,0,60,94.74,0,14.00,8.00,-997.00
2024-06-07 01:09:35.049365,0,0,0,0,0,0,63,64,10,0,60,94.67,0,15.00,6.00,-999.00
2024-06-07 01:09:35.072706,0,0,0,0,0,0,63,64,10,0,60,94.78,0,12.00,9.00,-998.00
2024-06-07 01:09:35.174791,0,0,0,0,0,0,63,64,10,0,60,94.73,0,15.00,8.00,-1000.00
2024-06-07 01:09:35.359621,0,0,0,0,0,0,63,64,10,0,60,94.63,0,15.00,7.00,-999.00
2024-06-07 01:09:35.378569,0,0,0,0,0,0,63,64,10,0,60,94.73,0,13.00,9.00,-1001.00
2024-06-07 01:09:35.561394,0,0,0,0,0,0,63,64,10,0,60,95.06,0,16.00,7.00,-999.00
2024-06-07 01:09:35.582707,0,0,0,0,0,0,63,64,10,0,60,95.06,0,15.00,7.00,-1001.00
2024-06-07 01:09:35.766098,0,0,0,0,0,0,63,64,10,0,60,95.11,0,14.00,7.00,-998.00
2024-06-07 01:09:35.786627,0,0,0,0,0,0,63,64,10,0,60,94.91,0,16.00,7.00,-999.00
2024-06-07 01:09:35.972094,0,0,0,0,0,0,63,64,10,0,60,94.83,0,14.00,7.00,-997.00
2024-06-07 01:09:35.990503,0,0,0,0,0,0,63,64,10,0,60,94.91,0,15.00,9.00,-998.00
2024-06-07 01:09:36.175767,0,0,0,0,0,0,63,64,10,0,60,95.04,0,14.00,8.00,-999.00
2024-06-07 01:09:36.194585,0,0,0,0,0,0,63,64,10,0,60,94.86,0,15.00,9.00,-1001.00
2024-06-07 01:09:36.380550,0,0,0,0,0,0,63,64,10,0,60,94.94,0,14.00,8.00,-998.00
2024-06-07 01:09:36.398505,0,0,0,0,0,0,63,64,10,0,60,94.82,0,14.00,8.00,-999.00
2024-06-07 01:09:36.586822,0,0,0,0,0,0,63,64,10,0,60,94.83,0,14.00,8.00,-999.00
2024-06-07 01:09:36.602616,0,0,0,0,0,0,63,65,10,0,60,94.69,0,15.00,7.00,-999.00
2024-06-07 01:09:36.793189,0,0,0,0,0,0,63,65,10,0,60,95.04,0,13.00,7.00,-999.00
2024-06-07 01:09:36.806660,0,0,0,0,0,0,63,65,10,0,60,94.76,0,15.00,7.00,-999.00
2024-06-07 01:09:36.908458,0,0,0,0,0,0,63,65,10,0,60,95.28,0,12.00,8.00,-997.00
2024-06-07 01:09:36.959410,0,0,0,0,0,0,63,65,10,0,60,94.93,0,15.00,8.00,-999.00
2024-06-07 01:09:37.099884,0,0,0,0,0,0,63,65,10,0,60,94.93,0,14.00,9.00,-999.00
2024-06-07 01:09:37.163337,0,0,0,0,0,0,63,65,10,0,60,94.93,0,16.00,7.00,-1002.00
2024-06-07 01:09:37.301882,0,0,0,0,0,0,63,65,10,0,60,94.93,0,13.00,8.00,-1000.00
2024-06-07 01:09:37.367177,0,0,0,0,0,0,63,65,10,0,60,94.93,0,4.00,20.00,-1008.00
2024-06-07 01:09:37.506773,0,0,-1,0,0,0,63,65,10,0,60,94.93,0,17.00,9.00,-989.00
2024-06-07 01:09:37.572747,0,0,-1,0,0,-2,63,65,10,0,60,94.93,0,32.00,13.00,-1320.00
2024-06-07 01:09:37.673233,0,0,-1,0,0,-5,63,65,10,0,60,94.93,0,18.00,20.00,-1154.00
2024-06-07 01:09:37.815568,0,0,-1,0,0,-7,63,65,18,10,60,95.27,0,8.00,10.00,-1068.00
2024-06-07 01:09:37.877251,0,0,-1,0,0,-8,63,65,26,20,60,95.11,0,0.00,20.00,-1002.00
2024-06-07 01:09:38.019039,0,0,-1,0,0,-8,63,65,34,30,60,95.45,1,9.00,9.00,-935.00
2024-06-07 01:09:38.081177,1,0,-1,0,0,-8,63,65,38,40,60,95.05,1,6.00,11.00,-902.00
2024-06-07 01:09:38.223581,0,0,-1,0,0,-7,63,65,45,50,60,95.14,1,8.00,0.00,-890.00
2024-06-07 01:09:38.285393,0,0,-1,0,0,-6,63,65,51,50,60,95.24,1,1.00,-7.00,-868.00
2024-06-07 01:09:38.387966,0,0,-1,0,0,-4,63,65,56,60,60,95.37,1,6.00,0.00,-891.00
2024-06-07 01:09:38.490659,0,0,-1,0,0,-3,63,65,59,60,60,95.29,1,0.00,-1.00,-906.00
2024-06-07 01:09:38.592483,0,0,-1,0,0,-2,65,66,62,60,60,95.89,1,10.00,12.00,-924.00
2024-06-07 01:09:38.693835,0,0,-1,0,0,-2,65,66,64,70,60,95.35,1,0.00,-2.00,-939.00
2024-06-07 01:09:38.795938,0,0,-1,0,0,-1,65,66,64,70,60,95.52,1,3.00,11.00,-976.00
2024-06-07 01:09:38.897859,0,0,-1,0,0,-1,65,66,65,70,60,95.42,1,5.00,-8.00,-995.00
2024-06-07 01:09:38.998952,0,0,-1,0,0,-1,65,66,65,70,60,95.70,2,7.00,16.00,-1004.00
2024-06-07 01:09:39.146788,0,0,-1,0,0,-1,65,66,66,70,60,95.55,2,5.00,3.00,-990.00
2024-06-07 01:09:39.203748,0,0,-1,0,0,-1,65,66,67,70,60,95.45,2,0.00,24.00,-1033.00
2024-06-07 01:09:39.349920,0,0,-1,0,0,-1,65,66,68,70,60,95.65,2,29.00,8.00,-1031.00
2024-06-07 01:09:39.407131,0,0,-1,0,0,-1,65,66,69,70,60,95.51,2,-17.00,23.00,-993.00
2024-06-07 01:09:39.554684,0,0,-1,0,0,-1,65,66,71,70,60,95.52,2,12.00,7.00,-1019.00
2024-06-07 01:09:39.611083,0,0,-1,0,0,-1,64,66,72,70,60,95.45,2,8.00,-7.00,-987.00
2024-06-07 01:09:39.759526,0,0,-1,0,0,-1,64,66,73,80,60,95.75,2,-5.00,14.00,-993.00
2024-06-07 01:09:39.815162,0,0,-1,0,0,-1,64,66,74,80,60,95.43,2,26.00,-3.00,-977.00
2024-06-07 01:09:39.964209,0,0,-1,0,0,-1,64,66,75,80,60,95.81,2,8.00,21.00,-944.00
2024-06-07 01:09:40.018969,0,0,-1,0,0,-1,64,66,77,80,60,95.57,3,15.00,-5.00,-972.00
2024-06-07 01:09:40.169980,0,0,-1,0,0,-1,64,66,77,80,60,95.67,3,11.00,-8.00,-978.00
2024-06-07 01:09:40.223306,0,0,-1,0,0,0,64,66,78,80,60,95.72,3,-8.00,15.00,-997.00
2024-06-07 01:09:40.373856,0,0,-1,0,0,0,64,66,79,80,60,95.73,3,13.00,17.00,-1033.00
2024-06-07 01:09:40.427186,0,0,-1,0,0,0,64,66,80,80,60,95.83,3,3.00,10.00,-1022.00
2024-06-07 01:09:40.530029,0,0,-1,0,0,0,64,66,80,80,60,95.82,3,3.00,14.00,-1007.00
2024-06-07 01:09:40.630922,0,0,-1,0,0,0,65,67,81,80,60,95.45,3,4.00,15.00,-1016.00
2024-06-07 01:09:40.783418,0,0,-1,0,0,0,65,67,81,80,60,95.88,3,0.00,16.00,-991.00
2024-06-07 01:09:40.835093,0,0,-1,0,0,0,65,67,81,80,60,95.97,3,22.00,11.00,-1012.00
2024-06-07 01:09:40.936956,0,0,-1,0,0,0,65,67,81,80,60,95.80,3,-5.00,18.00,-1003.00
2024-06-07 01:09:40.988226,0,0,-1,0,0,0,65,67,81,80,60,96.05,4,-1.00,13.00,-988.00
2024-06-07 01:09:41.090505,0,0,-1,0,0,0,65,67,81,80,60,95.96,4,10.00,0.00,-1003.00
2024-06-07 01:09:41.193445,0,0,-1,0,0,0,65,67,81,80,60,96.01,4,2.00,6.00,-1028.00
2024-06-07 01:09:41.295682,0,0,-1,0,0,0,65,67,81,80,60,95.50,4,9.00,16.00,-996.00
2024-06-07 01:09:41.397777,0,0,-1,0,0,0,65,67,81,80,60,96.14,4,8.00,5.00,-1002.00
2024-06-07 01:09:41.498225,0,0,-1,0,0,0,65,67,81,80,60,95.67,4,-7.00,-1.00,-992.00
2024-06-07 01:09:41.600055,0,0,-1,0,0,0,65,66,81,80,60,96.11,4,-7.00,10.00,-1007.00
2024-06-07 01:09:41.706838,0,0,-1,0,0,0,65,66,81,80,60,95.66,4,20.00,7.00,-1005.00
2024-06-07 01:09:41.804160,0,0,-1,0,0,0,65,66,82,80,60,95.88,4,31.00,5.00,-995.00
2024-06-07 01:09:41.910611,0,0,-1,0,0,0,65,66,82,80,60,95.71,4,-13.00,11.00,-1014.00
2024-06-07 01:09:42.008156,0,0,-1,0,0,0,65,66,82,80,60,95.67,5,-21.00,6.00,-980.00
2024-06-07 01:09:42.114811,0,0,-1,0,0,0,65,66,82,80,60,95.56,5,-18.00,-4.00,-997.00
2024-06-07 01:09:42.212116,0,0,-1,0,0,0,65,66,82,80,60,95.92,5,-2.00,-6.00,-995.00
2024-06-07 01:09:42.319493,0,0,-1,0,0,0,65,66,82,80,60,95.97,5,-4.00,13.00,-1003.00
2024-06-07 01:09:42.416128,0,0,-1,0,0,0,65,66,82,80,60,95.91,5,-3.00,14.00,-985.00
2024-06-07 01:09:42.524431,0,0,-1,0,0,0,65,66,82,80,60,95.66,5,-6.00,20.00,-976.00
2024-06-07 01:09:42.620112,0,0,-1,0,0,0,65,66,82,80,60,95.49,5,0.00,7.00,-984.00
2024-06-07 01:09:42.730652,0,0,-1,0,0,0,65,66,82,80,60,95.87,5,0.00,1.00,-991.00
2024-06-07 01:09:42.824070,0,0,-1,0,0,0,65,66,82,80,60,95.95,5,-11.00,25.00,-1025.00
2024-06-07 01:09:42.933842,0,0,-1,0,0,0,65,66,82,80,60,95.54,5,0.00,24.00,-1010.00
2024-06-07 01:09:43.028120,0,0,-1,0,0,0,65,66,82,80,60,95.71,6,4.00,16.00,-989.00
2024-06-07 01:09:43.138883,0,0,-1,0,0,0,65,66,82,80,60,95.60,6,13.00,17.00,-1004.00
2024-06-07 01:09:43.232140,0,0,-1,0,0,0,65,66,82,80,60,95.85,6,10.00,13.00,-994.00
2024-06-07 01:09:43.343392,0,-1,-1,0,0,0,65,66,82,80,60,95.65,6,-10.00,12.00,-1009.00
2024-06-07 01:09:43.437319,0,-1,-1,0,0,0,65,66,82,80,60,95.57,6,-8.00,6.00,-995.00
2024-06-07 01:09:43.548338,0,-1,-1,0,0,0,65,66,82,80,60,95.76,6,-5.00,12.00,-985.00
2024-06-07 01:09:43.645499,0,0,-1,0,0,0,65,67,83,80,60,95.86,6,-2.00,1.00,-1003.00
2024-06-07 01:09:43.741920,0,0,-1,0,0,0,65,67,82,80,60,95.94,6,4.00,28.00,-978.00
2024-06-07 01:09:43.843990,0,-1,-1,0,0,0,65,67,82,80,60,95.99,6,23.00,13.00,-978.00
2024-06-07 01:09:43.957757,0,-1,-1,0,0,0,65,67,83,80,60,95.86,7,-22.00,20.00,-1090.00
2024-06-07 01:09:44.048104,0,0,-1,0,0,-1,65,67,84,90,60,95.90,7,23.00,0.00,-1100.00
2024-06-07 01:09:44.162512,0,0,-1,0,0,-2,65,67,86,90,60,96.08,7,20.00,10.00,-1098.00
2024-06-07 01:09:44.253736,0,0,-1,0,0,-3,65,67,90,90,60,96.24,7,-2.00,27.00,-1104.00
2024-06-07 01:09:44.354197,0,0,-1,0,0,-4,65,67,93,100,60,95.85,7,9.00,29.00,-1107.00
2024-06-07 01:09:44.470253,0,0,-1,0,0,-5,65,67,98,100,60,96.14,7,-7.00,-8.00,-1083.00
2024-06-07 01:09:44.506629,0,0,0,0,0,-5,65,67,104,110,60,95.82,7,9.00,14.00,-1074.00
2024-06-07 01:09:44.674412,0,-1,0,0,0,-5,66,68,108,110,60,96.10,7,5.00,1.00,-1034.00
2024-06-07 01:09:44.761975,0,-1,0,0,0,-5,66,68,115,120,60,96.33,7,-1.00,20.00,-998.00
2024-06-07 01:09:44.812605,0,-1,0,0,0,-5,66,68,121,120,60,96.23,7,5.00,17.00,-994.00
2024-06-07 01:09:44.981560,0,-1,0,0,0,-5,66,68,126,130,60,96.03,8,-1.00,2.00,-973.00
2024-06-07 01:09:45.016793,0,0,0,0,0,-5,66,68,132,130,60,96.39,8,22.00,19.00,-1001.00
2024-06-07 01:09:45.187205,0,0,0,0,0,-5,66,68,137,140,60,95.91,8,5.00,12.00,-962.00
2024-06-07 01:09:45.222872,0,0,0,0,0,-4,66,68,142,140,60,96.59,8,8.00,15.00,-970.00
2024-06-07 01:09:45.323317,0,0,0,0,0,-4,66,68,147,150,60,96.65,8,5.00,28.00,-933.00
2024-06-07 01:09:45.424576,0,0,0,0,0,-4,66,68,151,150,60,96.25,8,27.00,-11.00,-970.00
2024-06-07 01:09:45.599523,0,0,0,0,0,-3,66,68,155,160,60,96.26,8,18.00,-7.00,-957.00
2024-06-07 01:09:45.628678,0,0,0,0,0,-3,65,68,159,160,60,96.35,8,6.00,19.00,-970.00
2024-06-07 01:09:45.800785,0,0,0,0,0,-2,65,68,161,160,60,96.16,8,-1.00,0.00,-971.00
2024-06-07 01:09:45.832536,0,-1,0,0,0,-2,65,68,165,170,60,96.32,8,-7.00,16.00,-963.00
2024-06-07 01:09:46.005657,0,-1,0,0,0,-2,65,68,168,170,60,96.20,9,0.00,-6.00,-943.00
2024-06-07 01:09:46.036488,0,-1,0,0,0,-2,65,68,169,170,60,96.31,9,10.00,21.00,-966.00
2024-06-07 01:09:46.211113,0,0,0,0,0,-1,65,68,172,170,60,96.78,9,-26.00,29.00,-975.00
2024-06-07 01:09:46.245701,0,0,0,0,0,-1,65,68,172,170,60,96.36,9,-16.00,0.00,-975.00
2024-06-07 01:09:46.342472,0,-1,0,0,0,-1,65,68,176,180,60,96.28,9,14.00,5.00,-995.00
2024-06-07 01:09:46.520418,0,-1,-1,0,0,-1,65,68,177,180,60,96.44,9,25.00,5.00,-989.00
2024-06-07 01:09:46.547618,0,-1,-1,0,0,-1,65,68,177,180,60,96.65,9,8.00,14.00,-971.00
2024-06-07 01:09:46.649707,0,-1,-1,0,0,0,66,69,180,180,60,96.70,9,0.00,20.00,-960.00
2024-06-07 01:09:46.824886,0,-1,-1,0,0,0,66,69,180,180,60,96.47,9,-9.00,9.00,-957.00
2024-06-07 01:09:46.854467,0,-1,-1,0,0,0,66,69,182,180,60,96.48,9,-11.00,2.00,-972.00
2024-06-07 01:09:47.132218,0,-1,-1,0,0,0,66,69,182,180,60,96.57,10,15.00,3.00,-996.00
2024-06-07 01:09:47.132394,0,-1,-1,0,0,0,66,69,182,180,60,96.76,10,26.00,12.00,-1002.00
2024-06-07 01:09:47.161615,0,-1,-1,0,0,0,66,69,181,180,60,96.32,10,-5.00,26.00,-1005.00
2024-06-07 01:09:47.351985,0,-1,-1,0,0,0,66,69,184,180,60,96.43,10,-13.00,25.00,-998.00
2024-06-07 01:09:47.365469,0,-1,-1,0,0,0,66,69,182,180,60,96.58,10,-2.00,17.00,-993.00
2024-06-07 01:09:47.470022,0,-1,-1,0,0,0,66,69,183,180,60,96.63,10,-17.00,16.00,-981.00
2024-06-07 01:09:47.640258,0,-1,-1,0,0,0,66,69,182,180,60,96.17,10,-5.00,22.00,-999.00
2024-06-07 01:09:47.689014,0,-1,-1,0,0,0,66,69,182,180,60,96.72,10,10.00,12.00,-1014.00
2024-06-07 01:09:47.820554,0,-1,-1,0,0,0,66,69,181,180,60,96.39,10,-3.00,10.00,-1014.00
2024-06-07 01:09:47.933825,0,-1,-1,0,0,0,66,69,181,180,60,96.44,10,-25.00,27.00,-1025.00
2024-06-07 01:09:48.004335,0,0,-1,0,0,0,66,69,181,180,60,96.43,11,-10.00,32.00,-996.00
2024-06-07 01:09:48.110142,0,0,-1,0,0,0,66,69,182,180,60,96.63,11,0.00,8.00,-1010.00
2024-06-07 01:09:48.179638,0,0,-1,0,0,0,66,69,181,180,60,96.55,11,-3.00,14.00,-1020.00
2024-06-07 01:09:48.307525,0,0,-1,0,0,0,66,69,180,180,60,96.44,11,-16.00,23.00,-996.00
2024-06-07 01:09:48.332100,0,0,-1,0,0,0,66,69,181,180,60,96.63,11,-9.00,9.00,-1006.00
2024-06-07 01:09:48.450685,0,-1,-1,0,0,0,66,69,180,180,60,96.65,11,-10.00,15.00,-980.00
2024-06-07 01:09:48.595535,0,-1,-1,0,0,0,66,69,181,180,60,96.57,11,19.00,16.00,-1007.00
2024-06-07 01:09:48.740378,0,0,-1,0,0,0,66,69,181,180,60,96.40,11,-1.00,19.00,-997.00
2024-06-07 01:09:48.742029,0,0,-1,0,0,0,66,69,180,180,60,96.52,11,33.00,-10.00,-990.00
2024-06-07 01:09:48.883414,0,0,-1,0,0,0,66,69,181,180,60,96.42,11,0.00,29.00,-955.00
2024-06-07 01:09:49.037711,0,-1,-1,0,0,0,66,69,179,180,60,96.82,12,4.00,-13.00,-924.00
2024-06-07 01:09:49.047618,0,-1,-1,0,0,1,66,69,178,180,60,96.72,12,10.00,17.00,-968.00
2024-06-07 01:09:49.148882,0,-1,-1,0,0,1,66,69,175,180,60,96.42,12,-48.00,9.00,-941.00
2024-06-07 01:09:49.282203,0,0,-1,0,0,2,66,69,174,180,60,96.75,12,26.00,7.00,-973.00
2024-06-07 01:09:49.353610,0,0,-1,0,0,2,66,69,171,170,60,96.63,12,12.00,13.00,-968.00
2024-06-07 01:09:49.486895,0,0,-1,0,0,2,66,69,169,170,60,96.28,12,-4.00,4.00,-996.00
2024-06-07 01:09:49.556405,0,0,-1,0,0,2,66,69,166,170,60,96.55,12,1.00,22.00,-996.00
2024-06-07 01:09:49.662287,0,0,-1,0,0,2,67,69,163,170,60,96.31,12,-15.00,8.00,-1000.00
2024-06-07 01:09:49.760060,0,0,-1,0,0,2,67,69,160,160,60,96.78,12,9.00,9.00,-1010.00
2024-06-07 01:09:49.896527,0,0,-1,0,0,2,67,69,158,160,60,96.38,12,7.00,11.00,-980.00
2024-06-07 01:09:49.964034,0,-1,-1,0,0,2,67,69,155,160,60,96.54,13,12.00,2.00,-1020.00
2024-06-07 01:09:50.101389,0,-1,-1,0,0,2,67,69,153,150,60,96.11,13,23.00,12.00,-1045.00
2024-06-07 01:09:50.167989,0,-1,-1,0,0,2,67,69,151,150,60,96.11,13,1.00,9.00,-995.00
2024-06-07 01:09:50.269915,0,-1,-1,0,0,2,67,69,149,150,60,96.47,13,-3.00,26.00,-1000.00
2024-06-07 01:09:50.408455,0,-1,-1,0,0,2,67,69,147,150,60,96.18,13,4.00,11.00,-1024.00
2024-06-07 01:09:50.474036,0,-1,-1,0,0,1,67,69,144,150,60,96.37,13,-9.00,3.00,-1030.00
2024-06-07 01:09:50.628492,0,-1,-1,0,0,1,67,69,143,140,60,96.26,13,-4.00,4.00,-1002.00
2024-06-07 01:09:50.677984,0,-1,-1,0,0,1,67,69,141,140,60,96.23,13,21.00,-5.00,-1017.00
2024-06-07 01:09:50.818052,0,-1,-1,0,0,1,67,69,138,140,60,96.04,13,-25.00,8.00,-980.00
2024-06-07 01:09:50.881806,0,-1,-1,0,0,1,67,69,138,140,60,96.42,13,6.00,9.00,-1031.00
2024-06-07 01:09:51.022841,0,-1,-1,0,0,1,67,69,136,140,60,96.42,14,6.00,16.00,-998.00
2024-06-07 01:09:51.085870,0,-1,-1,0,0,1,67,69,135,140,60,96.37,14,-3.00,31.00,-1011.00
2024-06-07 01:09:51.188252,0,-1,-1,0,0,0,67,69,134,140,60,96.06,14,20.00,7.00,-1023.00
2024-06-07 01:09:51.330168,0,-1,-1,0,0,0,67,69,134,140,60,96.19,14,13.00,2.00,-1028.00
2024-06-07 01:09:51.391984,0,-1,-1,0,0,0,67,69,132,140,60,95.88,14,16.00,15.00,-1015.00
2024-06-07 01:09:51.494204,0,0,-1,0,0,0,67,69,132,140,60,95.92,14,10.00,2.00,-1011.00
2024-06-07 01:09:51.596643,0,0,-1,0,0,0,67,69,133,130,60,96.01,14,2.00,6.00,-1008.00
2024-06-07 01:09:51.698745,0,0,-1,0,0,0,68,69,132,130,60,96.23,14,-7.00,8.00,-1041.00
2024-06-07 01:09:51.800769,0,0,-1,0,0,0,68,69,132,130,60,96.27,14,5.00,9.00,-987.00
2024-06-07 01:09:51.851277,0,0,-1,0,0,0,68,69,133,130,60,96.01,14,9.00,5.00,-996.00
2024-06-07 01:09:51.953294,0,0,-1,0,0,0,68,69,133,140,60,95.85,15,31.00,8.00,-1022.00
2024-06-07 01:09:52.150585,0,0,-1,0,0,0,68,69,133,140,60,96.12,15,-2.00,2.00,-988.00
2024-06-07 01:09:52.157188,0,0,-1,0,0,0,68,69,133,140,60,95.97,15,12.00,24.00,-998.00
2024-06-07 01:09:52.356273,0,0,-1,0,0,0,68,69,133,140,60,96.22,15,13.00,23.00,-1028.00
2024-06-07 01:09:52.362322,0,0,-1,0,0,0,68,69,134,140,60,96.37,15,4.00,0.00,-989.00
2024-06-07 01:09:52.560769,0,0,-1,0,0,0,68,69,133,140,60,96.16,15,19.00,0.00,-1034.00
2024-06-07 01:09:52.566297,0,0,-1,0,0,0,68,69,134,140,60,96.16,15,-6.00,3.00,-984.00
2024-06-07 01:09:52.667155,0,0,-1,0,0,0,67,70,134,140,60,96.15,15,-3.00,0.00,-1010.00
2024-06-07 01:09:52.866199,0,0,-1,0,0,0,67,70,134,140,60,95.90,15,2.00,16.00,-985.00
2024-06-07 01:09:52.875314,0,0,-1,0,0,0,67,70,135,140,60,96.15,15,0.00,14.00,-1000.00
2024-06-07 01:09:52.973255,0,0,-1,0,0,0,67,70,135,140,60,96.24,16,11.00,-9.00,-976.00
2024-06-07 01:09:53.143553,0,0,-1,0,0,0,67,70,134,140,60,96.33,16,-27.00,14.00,-957.00
2024-06-07 01:09:53.182465,0,0,-1,0,0,0,67,70,134,140,60,96.19,16,1.00,28.00,-994.00
2024-06-07 01:09:53.279033,0,0,-1,0,0,0,67,70,135,140,60,96.38,16,-6.00,12.00,-981.00
2024-06-07 01:09:53.480550,-4,0,-1,0,0,0,67,70,135,140,60,96.22,16,4.00,12.00,-1037.00
2024-06-07 01:09:53.482964,-7,0,-1,1,0,0,67,70,136,140,60,95.88,16,-3.00,-9.00,-989.00
2024-06-07 01:09:53.585031,-8,0,-1,2,0,0,67,70,137,140,60,95.89,16,-8.00,12.00,-1020.00
2024-06-07 01:09:53.787629,-8,0,-1,4,0,0,68,70,136,140,60,96.12,16,0.00,0.00,-965.00
2024-06-07 01:09:53.788783,-7,0,-1,5,0,0,68,70,137,140,60,95.99,16,-29.00,25.00,-999.00
2024-06-07 01:09:53.995952,-7,0,-1,6,0,0,68,70,136,140,60,96.11,16,-17.00,1.00,-1009.00
2024-06-07 01:09:53.995994,-6,0,-1,6,0,0,68,70,135,140,60,96.01,17,-68.00,-1.00,-995.00
2024-06-07 01:09:54.095681,-5,0,-1,7,0,0,68,70,135,140,60,96.03,17,-26.00,-1.00,-985.00
2024-06-07 01:09:54.197409,-4,0,-1,7,0,0,68,70,135,140,60,96.26,17,-11.00,-8.00,-1023.00
2024-06-07 01:09:54.300456,-1,0,-1,7,0,0,68,70,135,140,60,95.78,17,-27.00,8.00,-984.00
2024-06-07 01:09:54.401758,1,0,-1,7,0,0,68,70,136,140,60,96.04,17,-18.00,7.00,-1014.00
2024-06-07 01:09:54.504636,4,0,-1,6,0,0,68,70,135,140,60,95.90,17,-35.00,10.00,-1039.00
2024-06-07 01:09:54.604890,4,0,-1,5,0,0,68,70,136,140,60,96.19,17,-47.00,16.00,-1006.00
2024-06-07 01:09:54.706893,3,-1,-1,4,0,0,69,71,135,140,60,96.08,17,-37.00,21.00,-995.00
2024-06-07 01:09:54.811542,2,-2,-1,3,0,0,69,71,135,140,60,96.00,17,-24.00,-2.00,-992.00
2024-06-07 01:09:54.910928,0,-1,-1,2,0,0,69,71,133,140,60,96.25,17,-33.00,14.00,-985.00
2024-06-07 01:09:55.016680,0,-1,-1,2,0,0,69,71,132,140,60,96.09,18,-19.00,10.00,-997.00
2024-06-07 01:09:55.116441,0,-1,-1,2,0,0,69,71,132,140,60,96.10,18,-1.00,20.00,-958.00
2024-06-07 01:09:55.216961,-1,-1,-1,2,0,0,69,71,131,130,60,96.39,18,-15.00,10.00,-1002.00
2024-06-07 01:09:55.318875,0,-2,-1,2,0,0,69,71,131,130,60,95.99,18,-17.00,15.00,-998.00
2024-06-07 01:09:55.420844,0,-2,-1,2,0,0,69,71,131,130,60,96.23,18,-2.00,11.00,-1001.00
2024-06-07 01:09:55.471557,0,-2,-1,2,0,0,69,71,131,130,60,95.89,18,-24.00,23.00,-999.00
2024-06-07 01:09:55.630816,0,-2,-1,2,0,0,69,71,131,130,60,95.96,18,-1.00,1.00,-1033.00
2024-06-07 01:09:55.675565,0,0,-1,2,-1,0,68,70,130,130,60,95.92,18,3.00,30.00,-1002.00
2024-06-07 01:09:55.841068,0,1,-1,1,0,0,68,70,131,130,60,96.15,18,9.00,11.00,-992.00
2024-06-07 01:09:55.879485,0,0,-1,1,0,0,68,70,132,130,60,96.01,18,-38.00,19.00,-985.00
2024-06-07 01:09:56.040671,3,0,-1,1,0,0,68,70,131,130,60,96.39,19,14.00,15.00,-1053.00
2024-06-07 01:09:56.083761,2,0,-1,0,0,0,68,70,131,130,60,95.92,19,-26.00,28.00,-1035.00
2024-06-07 01:09:56.245873,0,0,-1,0,0,0,68,70,132,130,60,96.09,19,0.00,39.00,-1022.00
2024-06-07 01:09:56.287513,0,0,-1,0,0,0,68,70,132,130,60,96.01,19,-2.00,0.00,-961.00
2024-06-07 01:09:56.450143,0,-1,-1,0,0,0,68,70,132,130,60,96.18,19,-5.00,5.00,-982.00
2024-06-07 01:09:56.491564,0,-1,-1,0,0,0,68,70,133,130,60,95.96,19,7.00,9.00,-1012.00
2024-06-07 01:09:56.655629,0,-1,-1,0,0,0,68,70,133,130,60,96.05,19,-6.00,30.00,-982.00
2024-06-07 01:09:56.695603,0,-1,-1,0,0,0,69,71,134,130,60,95.97,19,-1.00,8.00,-986.00
2024-06-07 01:09:56.859735,0,-1,-1,0,0,0,69,71,134,130,60,95.85,19,5.00,15.00,-1006.00
2024-06-07 01:09:56.899558,0,0,-1,0,0,0,69,71,134,130,60,96.16,19,1.00,15.00,-984.00
2024-06-07 01:09:57.066477,0,-1,-1,0,0,0,69,71,134,140,60,96.14,20,8.00,9.00,-1007.00
2024-06-07 01:09:57.103565,0,0,-1,0,0,0,69,71,134,140,60,95.91,20,0.00,6.00,-988.00
2024-06-07 01:09:57.269113,0,0,-1,0,0,0,69,71,133,140,60,96.01,20,9.00,11.00,-1006.00
2024-06-07 01:09:57.307570,0,0,-1,0,0,0,69,71,134,140,60,96.00,20,25.00,9.00,-1014.00
2024-06-07 01:09:57.474061,0,0,-1,0,0,0,69,71,133,140,60,95.80,20,18.00,7.00,-983.00
2024-06-07 01:09:57.511521,0,0,-1,0,0,0,69,71,132,140,60,96.23,20,22.00,26.00,-998.00
2024-06-07 01:09:57.678763,0,0,-1,0,0,0,69,71,132,140,60,96.02,20,1.00,6.00,-979.00
2024-06-07 01:09:57.718604,0,0,-1,0,0,0,69,71,131,140,60,95.92,20,-9.00,14.00,-1016.00
2024-06-07 01:09:57.817452,0,0,-1,0,0,0,69,71,129,130,60,96.31,20,1.00,-1.00,-1007.00
2024-06-07 01:09:57.985843,0,0,-1,0,0,0,69,71,128,130,60,96.00,20,17.00,16.00,-1022.00
2024-06-07 01:09:58.021319,0,0,-1,0,0,0,69,71,128,130,60,96.28,21,23.00,8.00,-990.00
2024-06-07 01:09:58.123509,0,0,-1,0,0,0,69,71,127,130,60,95.99,21,2.00,-2.00,-995.00
2024-06-07 01:09:58.292910,0,-1,-1,0,0,0,69,71,126,130,60,96.15,21,30.00,20.00,-990.00
2024-06-07 01:09:58.327365,2,0,-1,0,0,0,69,71,125,130,60,96.08,21,19.00,-7.00,-1041.00
2024-06-07 01:09:58.497709,7,0,-1,0,0,0,69,71,127,130,60,96.01,21,21.00,29.00,-1006.00
2024-06-07 01:09:58.531266,8,-1,-1,-2,0,0,69,71,127,130,60,96.21,21,14.00,6.00,-1048.00
2024-06-07 01:09:58.703469,8,-1,-1,-3,0,0,69,71,127,130,60,95.99,21,31.00,15.00,-1037.00
2024-06-07 01:09:58.735180,7,-1,-1,-5,0,0,69,71,127,130,60,95.94,21,29.00,16.00,-1022.00
2024-06-07 01:09:58.907408,6,0,-1,-6,0,0,69,71,128,130,60,96.13,21,50.00,20.00,-1014.00
2024-06-07 01:09:58.939209,6,0,-1,-6,0,0,69,71,128,130,60,95.90,21,59.00,-11.00,-975.00
2024-06-07 01:09:59.112071,5,0,-1,-7,0,0,69,71,130,130,60,96.05,22,51.00,15.00,-978.00
2024-06-07 01:09:59.143276,3,0,-1,-7,0,0,69,71,131,130,60,96.06,22,69.00,6.00,-1005.00
2024-06-07 01:09:59.194488,0,0,-1,-7,0,0,69,71,131,130,60,96.23,22,57.00,-2.00,-1001.00
2024-06-07 01:09:59.317333,-2,0,-1,-7,0,0,69,71,132,130,60,96.18,22,24.00,14.00,-969.00
2024-06-07 01:09:59.398599,-4,0,-1,-6,0,0,69,71,132,130,60,96.03,22,55.00,-7.00,-1003.00
2024-06-07 01:09:59.522468,-4,0,-1,-4,0,0,69,71,133,130,60,96.19,22,18.00,-7.00,-981.00
2024-06-07 01:09:59.602710,-2,0,-1,-4,0,0,69,71,133,130,60,95.79,22,29.00,9.00,-993.00
2024-06-07 01:09:59.727052,-1,0,-1,-3,0,0,70,72,134,140,60,96.04,22,11.00,9.00,-965.00
2024-06-07 01:09:59.807468,0,0,-1,-3,0,0,70,72,135,140,60,96.06,22,27.00,1.00,-1003.00
2024-06-07 01:09:59.908634,0,0,-1,-3,0,0,70,72,136,140,60,96.06,23,1.00,0.00,-998.00
2024-06-07 01:10:00.012690,-1,0,-1,-2,0,0,70,72,136,140,60,96.29,23,18.00,9.00,-988.00
2024-06-07 01:10:00.113959,-3,0,-1,-2,0,0,70,72,137,140,60,95.96,23,14.00,8.00,-990.00
2024-06-07 01:10:00.217891,-5,0,-1,-1,0,0,70,72,136,140,60,96.19,23,4.00,-5.00,-996.00
2024-06-07 01:10:00.316360,-3,0,-1,-1,0,0,70,72,137,140,60,95.82,23,-1.00,14.00,-994.00
2024-06-07 01:10:00.447253,-1,0,-1,0,0,0,70,72,137,140,60,96.07,23,-10.00,17.00,-1001.00
2024-06-07 01:10:00.521606,-1,0,-1,0,0,0,70,72,138,140,60,95.84,23,16.00,-22.00,-1014.00
2024-06-07 01:10:00.648511,0,0,-1,0,0,0,70,72,137,140,60,96.02,23,-15.00,18.00,-969.00
2024-06-07 01:10:00.729158,-1,0,-1,0,0,0,69,72,137,140,60,96.10,23,0.00,31.00,-1030.00
2024-06-07 01:10:00.826466,-1,0,-1,0,0,0,69,72,137,140,60,96.25,23,-39.00,6.00,-1024.00
2024-06-07 01:10:00.956664,-1,0,-1,0,0,0,69,72,137,140,60,96.46,24,-42.00,-10.00,-984.00
2024-06-07 01:10:01.030324,-1,0,-1,0,0,0,69,72,137,140,60,96.02,24,-2.00,16.00,-1000.00
2024-06-07 01:10:01.160563,0,0,-1,0,0,0,69,72,138,140,60,95.77,24,-38.00,-1.00,-990.00
2024-06-07 01:10:01.234320,0,0,-1,0,0,0,69,72,137,140,60,96.13,24,-15.00,16.00,-984.00
2024-06-07 01:10:01.365421,0,-1,-1,0,0,0,69,72,137,140,60,96.25,24,-1.00,-8.00,-998.00
2024-06-07 01:10:01.438312,0,-1,-1,0,0,0,69,72,138,140,60,95.95,24,16.00,-8.00,-1003.00
2024-06-07 01:10:01.570867,0,-1,-1,0,0,0,69,72,137,140,60,96.24,24,22.00,10.00,-1036.00
2024-06-07 01:10:01.643229,0,-1,-1,0,0,0,69,72,137,140,60,96.36,24,-5.00,23.00,-998.00
2024-06-07 01:10:01.744254,0,-1,-1,0,0,0,69,72,137,140,60,96.02,24,4.00,29.00,-1008.00
2024-06-07 01:10:01.847139,0,-1,-1,0,0,0,69,72,137,140,60,96.20,24,8.00,18.00,-978.00
2024-06-07 01:10:01.982346,0,-1,-1,0,0,0,69,72,137,140,60,96.12,25,11.00,-22.00,-992.00
2024-06-07 01:10:02.128995,0,0,-1,0,0,0,69,72,136,140,60,96.10,25,-8.00,10.00,-1004.00
2024-06-07 01:10:02.152738,0,0,-1,0,0,0,69,72,136,140,60,96.15,25,15.00,9.00,-1008.00
2024-06-07 01:10:02.282663,0,0,-1,0,0,0,69,72,136,140,60,95.98,25,-34.00,16.00,-1020.00
2024-06-07 01:10:02.359148,0,-1,-1,0,0,0,69,72,136,140,60,96.07,25,-11.00,23.00,-991.00
2024-06-07 01:10:02.486579,0,-1,-1,0,0,0,69,72,136,140,60,96.17,25,30.00,6.00,-1023.00
2024-06-07 01:10:02.564620,0,-1,-1,0,0,0,69,72,136,140,60,96.05,25,-9.00,-16.00,-999.00
2024-06-07 01:10:02.662062,0,-3,-1,0,0,0,69,72,134,140,60,96.05,25,-11.00,22.00,-1010.00
2024-06-07 01:10:02.816149,0,-8,-1,0,-1,0,70,72,137,140,60,96.17,25,-1.00,13.00,-1034.00
2024-06-07 01:10:02.902538,0,-7,-1,0,-2,0,70,72,136,140,60,96.10,25,5.00,30.00,-1008.00
2024-06-07 01:10:03.015610,0,-5,-1,0,-3,0,70,72,136,140,60,96.02,26,0.00,30.00,-1011.00
2024-06-07 01:10:03.070025,0,-3,-1,0,-3,0,70,72,134,140,60,96.10,26,6.00,28.00,-1004.00
2024-06-07 01:10:03.197226,0,0,-1,0,-3,0,70,72,135,140,60,96.21,26,22.00,17.00,-990.00
2024-06-07 01:10:03.340219,0,0,-1,0,-3,0,70,72,134,140,60,95.83,26,9.00,34.00,-965.00
2024-06-07 01:10:03.340470,0,0,-1,0,-2,0,70,72,134,140,60,96.13,26,18.00,9.00,-985.00
2024-06-07 01:10:03.483604,0,-1,-1,0,-2,0,70,72,134,140,60,96.15,26,7.00,28.00,-1002.00
2024-06-07 01:10:03.628482,0,-1,-1,0,-2,0,70,72,134,140,60,96.17,26,8.00,38.00,-1005.00
2024-06-07 01:10:03.631045,0,-1,-1,0,-2,0,70,72,134,140,60,96.24,26,-15.00,25.00,-996.00
2024-06-07 01:10:03.772265,0,-1,-1,0,-2,0,70,73,135,140,60,96.01,26,-29.00,27.00,-1027.00
2024-06-07 01:10:03.935840,0,-1,-1,0,-2,0,70,73,135,140,60,96.04,26,21.00,8.00,-1017.00
2024-06-07 01:10:03.936711,0,-1,-1,0,-2,0,70,73,134,140,60,95.92,27,13.00,33.00,-1020.00
2024-06-07 01:10:04.078854,0,-1,-1,0,-2,0,70,73,135,140,60,96.17,27,-23.00,33.00,-1011.00
2024-06-07 01:10:04.247031,0,-1,-1,0,-2,0,70,73,135,140,60,95.98,27,2.00,20.00,-985.00
2024-06-07 01:10:04.247211,0,-1,-1,0,-2,0,70,73,136,140,60,95.97,27,0.00,6.00,-981.00
2024-06-07 01:10:04.390063,0,-1,-1,0,-2,0,70,73,136,140,60,96.29,27,-7.00,30.00,-977.00
2024-06-07 01:10:04.553036,0,-1,-1,0,-2,0,70,73,136,140,60,96.33,27,-1.00,27.00,-994.00
2024-06-07 01:10:04.553188,0,-1,-1,0,-2,0,70,73,137,140,60,96.01,27,7.00,19.00,-1008.00
2024-06-07 01:10:04.695925,0,1,-1,0,-2,0,70,73,137,140,60,96.25,27,2.00,25.00,-996.00
2024-06-07 01:10:04.857125,0,3,-1,0,-1,0,71,73,136,140,60,95.91,27,-8.00,33.00,-1000.00
2024-06-07 01:10:04.858117,0,1,-1,0,0,0,71,73,137,140,60,96.17,27,-3.00,20.00,-1017.00
2024-06-07 01:10:04.958591,0,0,-1,0,0,0,71,73,136,140,60,96.20,28,5.00,13.00,-998.00
2024-06-07 01:10:05.060387,0,0,-1,0,0,0,71,73,136,140,60,95.77,28,-6.00,17.00,-986.00
2024-06-07 01:10:05.165807,0,0,-1,0,0,0,71,73,137,140,60,95.70,28,2.00,18.00,-1008.00
2024-06-07 01:10:05.265461,0,0,-1,0,0,0,71,73,137,140,60,96.25,28,-13.00,11.00,-1022.00
2024-06-07 01:10:05.364901,0,-1,-1,0,0,0,71,73,137,140,60,95.70,28,0.00,20.00,-998.00
2024-06-07 01:10:05.563892,0,-1,-1,0,0,0,71,73,137,140,60,96.02,28,3.00,11.00,-986.00
2024-06-07 01:10:05.568980,0,-1,-1,0,0,0,71,73,137,140,60,96.04,28,0.00,13.00,-996.00
2024-06-07 01:10:05.670710,0,-1,-1,0,0,0,71,73,137,140,60,96.21,28,13.00,7.00,-996.00
2024-06-07 01:10:05.873784,0,-1,-1,0,0,0,70,73,137,140,60,95.88,28,33.00,2.00,-1022.00
2024-06-07 01:10:05.874629,0,-1,-1,0,0,0,70,73,137,140,60,95.91,28,0.00,10.00,-998.00
2024-06-07 01:10:06.075164,0,-1,-1,0,0,0,70,73,137,140,60,96.23,29,9.00,22.00,-983.00
2024-06-07 01:10:06.078691,0,-1,-1,0,0,0,70,73,138,140,60,96.09,29,-2.00,18.00,-1009.00
2024-06-07 01:10:06.180974,0,-1,-1,0,0,0,70,73,137,140,60,95.93,29,1.00,7.00,-999.00
2024-06-07 01:10:06.282714,0,-1,-1,0,0,0,70,73,137,140,60,96.04,29,-16.00,16.00,-1002.00
2024-06-07 01:10:06.384858,0,-1,-1,0,0,0,70,73,138,140,60,96.36,29,6.00,5.00,-994.00
2024-06-07 01:10:06.486700,0,-1,-1,0,0,0,70,73,138,140,60,96.02,29,-2.00,21.00,-982.00
2024-06-07 01:10:06.589045,0,-1,-1,0,0,0,70,73,138,140,60,96.01,29,3.00,-1.00,-1001.00
2024-06-07 01:10:06.690759,0,-1,-1,0,0,0,70,73,137,140,60,96.37,29,4.00,15.00,-1022.00
2024-06-07 01:10:06.793006,0,-1,-1,0,0,0,71,73,138,140,60,96.03,29,18.00,19.00,-1020.00
2024-06-07 01:10:06.894658,0,-1,-1,0,0,0,71,73,138,140,60,96.08,29,1.00,19.00,-1003.00
2024-06-07 01:10:06.996877,0,-1,-1,0,0,0,71,73,139,140,60,96.35,30,21.00,13.00,-979.00
2024-06-07 01:10:07.047793,0,4,-1,0,0,0,71,73,138,140,60,95.83,30,-3.00,24.00,-990.00
2024-06-07 01:10:07.149751,0,7,-1,0,1,0,71,73,139,140,60,96.02,30,-8.00,16.00,-966.00
2024-06-07 01:10:07.303963,0,5,-1,0,2,0,71,73,138,140,60,96.28,30,0.00,0.00,-981.00
2024-06-07 01:10:07.353827,0,3,0,0,3,0,71,73,137,140,60,96.19,30,-10.00,-1.00,-1025.00
2024-06-07 01:10:07.508645,0,0,0,0,3,0,71,73,137,140,60,96.24,30,8.00,-14.00,-1001.00
2024-06-07 01:10:07.558103,0,-1,0,0,3,0,71,73,137,140,60,96.07,30,-11.00,-20.00,-1016.00
2024-06-07 01:10:07.713783,0,-1,0,0,3,0,71,73,137,140,60,96.26,30,10.00,-14.00,-996.00
2024-06-07 01:10:07.762393,0,-1,0,0,2,0,71,73,137,140,60,96.14,30,14.00,-23.00,-973.00
2024-06-07 01:10:07.918385,0,0,0,0,2,0,71,73,137,140,60,96.23,30,1.00,5.00,-1000.00
2024-06-07 01:10:07.966375,0,0,0,0,2,0,71,73,137,140,60,96.05,31,10.00,-29.00,-973.00
2024-06-07 01:10:08.122848,0,0,0,0,2,0,71,73,137,140,60,96.09,31,17.00,1.00,-1000.00
2024-06-07 01:10:08.170311,0,0,0,0,2,0,71,73,136,140,60,96.31,31,13.00,-6.00,-1003.00
2024-06-07 01:10:08.327941,0,0,0,0,2,0,71,73,136,140,60,96.17,31,-7.00,1.00,-995.00
2024-06-07 01:10:08.374315,0,0,-1,0,2,0,71,73,136,140,60,96.01,31,4.00,5.00,-992.00
2024-06-07 01:10:08.532479,0,0,-1,0,2,0,71,73,136,140,60,96.03,31,1.00,-5.00,-991.00
2024-06-07 01:10:08.578407,0,-1,-1,0,2,0,71,73,135,140,60,96.28,31,9.00,1.00,-989.00
2024-06-07 01:10:08.680301,0,-5,-1,0,2,0,71,73,134,140,60,95.93,31,6.00,-13.00,-1024.00
2024-06-07 01:10:08.782300,0,-4,-1,0,1,0,71,74,135,140,60,96.11,31,0.00,-3.00,-983.00
2024-06-07 01:10:08.884403,0,-2,-1,0,0,0,71,74,135,140,60,96.32,31,-4.00,-24.00,-1024.00
2024-06-07 01:10:09.044854,0,-1,-1,0,0,0,71,74,134,140,60,96.08,32,-13.00,17.00,-998.00
2024-06-07 01:10:09.088490,0,-1,-1,0,0,0,71,74,134,140,60,96.20,32,-20.00,15.00,-1012.00
2024-06-07 01:10:09.195445,0,-1,-1,0,0,0,71,74,134,140,60,96.10,32,1.00,8.00,-1005.00
2024-06-07 01:10:09.292800,0,-1,-1,0,0,0,71,74,134,140,60,95.91,32,34.00,3.00,-1023.00
2024-06-07 01:10:09.454481,0,0,-1,0,0,0,71,74,133,140,60,96.12,32,-9.00,4.00,-998.00
2024-06-07 01:10:09.496444,0,0,-1,0,0,0,71,74,134,140,60,96.06,32,-17.00,3.00,-998.00
2024-06-07 01:10:09.662935,0,0,-1,0,0,0,71,74,134,140,60,95.98,32,-3.00,22.00,-1000.00
2024-06-07 01:10:09.700441,0,0,-1,0,0,0,71,74,133,140,60,96.27,32,3.00,18.00,-1007.00
2024-06-07 01:10:09.863865,0,0,-1,0,0,0,71,74,133,140,60,96.22,32,-12.00,19.00,-992.00
2024-06-07 01:10:09.904383,0,0,-1,0,0,0,71,74,134,140,60,96.24,32,5.00,4.00,-980.00
2024-06-07 01:10:10.068408,0,0,-1,0,0,0,71,74,133,140,60,95.96,33,-28.00,10.00,-1018.00
2024-06-07 01:10:10.108325,0,0,-1,0,0,0,71,74,133,140,60,96.07,33,-9.00,15.00,-1042.00
2024-06-07 01:10:10.273379,0,0,-1,0,0,0,71,74,133,140,60,96.24,33,7.00,8.00,-1010.00
2024-06-07 01:10:10.312350,0,0,-1,0,0,0,71,74,133,140,60,95.93,33,-11.00,7.00,-1007.00
2024-06-07 01:10:10.481087,0,0,-1,0,0,0,71,74,134,140,60,95.89,33,-17.00,-14.00,-986.00
2024-06-07 01:10:10.516217,0,0,-1,0,0,0,71,74,134,140,60,96.12,33,-21.00,8.00,-1023.00
2024-06-07 01:10:10.567475,0,0,-1,0,0,0,71,74,134,140,60,95.90,33,-6.00,11.00,-985.00
2024-06-07 01:10:10.684739,0,0,-1,0,0,0,71,74,134,140,60,95.93,33,-20.00,15.00,-1006.00
2024-06-07 01:10:10.822080,0,0,-1,0,0,0,72,73,135,140,60,96.21,33,-8.00,14.00,-992.00
2024-06-07 01:10:10.873304,0,0,-1,0,0,0,72,73,135,140,60,95.81,33,25.00,-21.00,-1002.00
2024-06-07 01:10:10.989927,0,0,2,0,0,0,72,73,135,140,60,96.42,34,-11.00,18.00,-977.00
2024-06-07 01:10:11.077137,0,0,8,0,0,0,72,73,134,140,60,96.31,34,8.00,9.00,-1007.00
2024-06-07 01:10:11.179337,0,0,14,0,0,0,72,73,135,140,60,96.18,34,-24.00,23.00,-999.00
2024-06-07 01:10:11.297424,0,0,20,0,0,0,72,73,135,140,60,95.97,34,11.00,15.00,-1002.00
2024-06-07 01:10:11.383019,0,0,26,0,0,0,72,73,135,140,60,96.04,34,3.00,-3.00,-998.00
2024-06-07 01:10:11.502403,0,0,32,0,0,0,72,73,135,140,60,96.13,34,0.00,9.00,-1015.00
2024-06-07 01:10:11.587232,0,0,38,0,0,0,72,73,135,140,60,96.35,34,15.00,1.00,-1018.00
2024-06-07 01:10:11.689294,0,0,44,0,0,0,72,73,135,140,60,95.95,34,-4.00,6.00,-998.00
2024-06-07 01:10:11.813027,0,0,50,0,0,0,72,74,135,140,60,95.98,34,-9.00,5.00,-998.00
2024-06-07 01:10:11.893408,0,0,56,0,0,0,72,74,135,140,60,95.91,34,-16.00,7.00,-995.00
2024-06-07 01:10:12.013829,0,0,62,0,0,0,72,74,135,140,60,96.34,35,-20.00,5.00,-985.00
2024-06-07 01:10:12.097256,0,0,68,0,0,0,72,74,135,140,60,95.81,35,-28.00,-2.00,-1003.00
2024-06-07 01:10:12.221117,0,0,74,0,0,0,72,74,135,140,60,96.42,35,-18.00,9.00,-1005.00
2024-06-07 01:10:12.301211,0,0,80,0,0,0,72,74,135,140,60,96.22,35,0.00,8.00,-1003.00
2024-06-07 01:10:12.403224,0,0,86,0,0,0,72,74,134,140,60,95.95,35,1.00,4.00,-993.00
2024-06-07 01:10:12.526851,0,0,92,0,0,0,72,74,135,140,60,96.29,35,-12.00,8.00,-996.00
2024-06-07 01:10:12.606930,0,0,98,0,0,0,72,74,135,140,60,96.13,35,-2.00,4.00,-998.00
2024-06-07 01:10:12.708832,0,0,104,0,0,0,72,74,134,140,60,96.06,35,4.00,12.00,-993.00
2024-06-07 01:10:12.810913,0,0,110,0,0,0,71,75,134,140,60,95.76,35,-19.00,5.00,-1004.00
2024-06-07 01:10:12.913412,0,0,116,0,0,0,71,75,134,140,60,95.92,35,-22.00,26.00,-999.00
2024-06-07 01:10:13.014870,0,0,122,0,0,0,71,75,133,140,60,96.03,36,-33.00,-5.00,-986.00
2024-06-07 01:10:13.117380,0,0,128,0,0,0,71,75,133,140,60,95.96,36,-21.00,10.00,-1007.00
2024-06-07 01:10:13.219408,0,0,134,0,0,0,71,75,133,140,60,96.34,36,-7.00,21.00,-1006.00
2024-06-07 01:10:13.321137,0,0,140,0,0,0,71,75,133,140,60,95.96,36,0.00,3.00,-1003.00
2024-06-07 01:10:13.452530,0,0,146,0,0,0,71,75,133,140,60,95.79,36,-19.00,6.00,-994.00
2024-06-07 01:10:13.527419,0,0,152,0,0,0,71,75,133,140,60,95.98,36,-9.00,9.00,-1002.00
2024-06-07 01:10:13.626959,0,0,158,0,0,0,71,75,132,140,60,96.08,36,-12.00,14.00,-996.00
2024-06-07 01:10:13.729232,0,0,164,0,0,0,71,75,133,140,60,96.06,36,-6.00,3.00,-1002.00
2024-06-07 01:10:13.859577,0,0,170,0,0,0,71,75,133,140,60,96.10,36,-35.00,15.00,-994.00
2024-06-07 01:10:13.932786,0,0,176,0,0,0,71,75,133,140,60,95.95,36,-35.00,12.00,-1002.00
2024-06-07 01:10:14.035380,0,0,-177,0,0,0,71,75,134,140,60,95.82,37,-31.00,24.00,-1001.00
2024-06-07 01:10:14.137049,0,0,-171,0,0,0,71,75,134,140,60,95.89,37,-8.00,12.00,-1012.00
2024-06-07 01:10:14.266551,0,0,-165,0,0,0,71,75,134,140,60,96.14,37,-8.00,11.00,-1002.00
2024-06-07 01:10:14.289778,0,0,-159,0,0,0,71,75,134,140,60,95.81,37,-4.00,9.00,-1002.00
2024-06-07 01:10:14.395344,0,0,-154,0,0,0,71,75,134,140,60,95.75,37,-14.00,5.00,-995.00
2024-06-07 01:10:14.493923,0,0,-148,0,0,0,71,75,135,140,60,96.05,37,-7.00,17.00,-1010.00
2024-06-07 01:10:14.676207,0,0,-142,0,0,0,71,75,135,140,60,96.15,37,-13.00,19.00,-988.00
2024-06-07 01:10:14.697816,0,0,-136,0,0,0,71,75,135,140,60,96.00,37,-8.00,18.00,-973.00
2024-06-07 01:10:14.799768,0,0,-130,0,0,0,72,75,135,140,60,95.74,37,-24.00,2.00,-994.00
2024-06-07 01:10:14.901768,0,0,-124,0,0,0,72,75,135,140,60,95.94,37,-15.00,6.00,-994.00
2024-06-07 01:10:15.085779,0,0,-118,0,0,0,72,75,135,140,60,95.99,38,2.00,15.00,-999.00
2024-06-07 01:10:15.105938,0,0,-112,0,0,0,72,75,135,140,60,95.94,38,-18.00,20.00,-980.00
2024-06-07 01:10:15.290671,0,0,-106,0,0,0,72,75,134,140,60,95.86,38,-5.00,14.00,-998.00
2024-06-07 01:10:15.310334,0,0,-100,0,0,0,72,75,134,140,60,96.16,38,-19.00,-17.00,-982.00
2024-06-07 01:10:15.411843,0,0,-94,0,0,0,72,75,135,140,60,95.91,38,-11.00,17.00,-1012.00
2024-06-07 01:10:15.598347,0,0,-88,0,0,0,72,75,135,140,60,96.03,38,-6.00,1.00,-989.00
2024-06-07 01:10:15.616945,0,0,-82,0,0,0,72,75,134,140,60,96.10,38,-3.00,20.00,-998.00
2024-06-07 01:10:15.717637,0,0,-76,0,0,0,72,75,134,140,60,95.99,38,-5.00,3.00,-981.00
2024-06-07 01:10:15.904838,0,0,-65,0,0,0,73,75,134,140,59,96.15,38,-10.00,7.00,-1003.00
2024-06-07 01:10:15.921629,0,0,-59,0,0,0,73,75,134,140,59,95.64,39,-14.00,18.00,-990.00
2024-06-07 01:10:16.109701,0,0,-53,0,0,0,73,75,135,140,59,96.32,39,2.00,5.00,-993.00
2024-06-07 01:10:16.125806,0,0,-47,0,0,0,73,75,135,140,59,95.82,39,8.00,3.00,-971.00
2024-06-07 01:10:16.314499,0,0,-41,0,0,0,73,75,135,140,59,95.98,39,-8.00,3.00,-993.00
2024-06-07 01:10:16.329537,0,0,-35,0,0,0,73,75,134,140,59,95.79,39,0.00,-8.00,-969.00
2024-06-07 01:10:16.519260,0,0,-30,0,0,0,73,75,134,140,59,96.17,39,4.00,0.00,-1007.00
2024-06-07 01:10:16.533555,0,0,-24,0,0,0,73,75,133,140,59,95.80,39,-2.00,18.00,-1011.00
2024-06-07 01:10:16.724705,0,0,-19,0,0,0,73,75,134,140,59,96.10,39,-8.00,29.00,-999.00
2024-06-07 01:10:16.738928,0,0,-15,0,0,0,73,75,134,140,59,96.32,39,-1.00,7.00,-1023.00
2024-06-07 01:10:16.928843,0,0,-11,0,0,0,73,75,134,140,59,95.84,39,6.00,-2.00,-1009.00
2024-06-07 01:10:16.941535,0,0,-9,0,0,0,73,75,134,140,59,95.92,40,-1.00,6.00,-999.00
2024-06-07 01:10:17.339525,0,0,-7,0,0,0,73,75,135,140,59,96.11,40,-5.00,-4.00,-989.00
2024-06-07 01:10:17.434384,1,0,-6,0,0,0,73,75,135,140,59,95.72,40,-11.00,17.00,-972.00
2024-06-07 01:10:17.434644,1,0,-5,0,0,0,73,75,134,140,59,96.12,40,-31.00,11.00,-1010.00
2024-06-07 01:10:17.434894,1,0,-4,0,0,0,73,75,135,140,59,96.10,40,-17.00,3.00,-1006.00
2024-06-07 01:10:17.456283,1,0,-4,0,0,0,73,75,134,140,59,95.95,40,-19.00,8.00,-981.00
2024-06-07 01:10:17.606761,1,0,-3,0,0,0,73,75,134,140,59,96.01,40,-14.00,-2.00,-998.00
2024-06-07 01:10:17.664638,1,0,-3,0,0,0,73,75,134,140,59,95.98,40,-11.00,7.00,-1004.00
2024-06-07 01:10:17.791442,0,0,-3,0,0,0,73,75,133,140,59,95.99,40,-2.00,10.00,-1001.00
2024-06-07 01:10:17.860356,0,0,-3,0,0,0,72,75,133,140,59,96.35,40,12.00,-1.00,-1016.00
2024-06-07 01:10:18.161479,0,0,-3,0,0,0,72,75,132,140,59,96.01,41,-7.00,7.00,-1008.00
2024-06-07 01:10:18.161728,1,0,-3,0,0,0,72,75,133,140,59,95.97,41,3.00,23.00,-1006.00
2024-06-07 01:10:18.161788,0,0,-3,0,0,0,72,75,133,130,59,95.88,41,-15.00,22.00,-988.00
2024-06-07 01:10:18.216555,0,0,-3,0,0,0,72,75,133,130,59,95.93,41,7.00,0.00,-997.00
2024-06-07 01:10:18.373350,0,0,-3,0,0,0,72,75,132,130,59,96.09,41,-5.00,6.00,-1010.00
2024-06-07 01:10:18.516679,0,0,-3,0,0,0,72,75,132,130,59,95.90,41,11.00,12.00,-1020.00
2024-06-07 01:10:18.522843,0,0,-3,0,0,0,72,75,132,130,59,96.07,41,0.00,8.00,-1016.00
2024-06-07 01:10:18.683712,0,0,-3,0,0,0,72,75,131,130,59,95.85,41,19.00,-2.00,-1002.00
2024-06-07 01:10:18.823986,1,0,-3,0,0,0,72,75,131,130,59,96.00,41,9.00,-6.00,-985.00
2024-06-07 01:10:18.828764,0,0,-3,0,0,0,73,75,132,130,59,96.21,41,4.00,2.00,-1002.00
2024-06-07 01:10:18.994050,0,0,-3,0,0,0,73,75,132,130,59,95.86,42,-23.00,17.00,-1020.00
2024-06-07 01:10:19.172192,0,0,-3,0,0,0,73,75,131,130,59,96.20,42,26.00,-8.00,-1004.00
2024-06-07 01:10:19.172385,0,0,-3,0,0,0,73,75,131,130,59,95.99,42,10.00,11.00,-1006.00
2024-06-07 01:10:19.294964,0,0,-3,0,0,0,73,75,131,130,59,96.17,42,-5.00,12.00,-994.00
2024-06-07 01:10:19.449625,0,0,-3,0,0,0,73,75,132,130,59,96.07,42,20.00,2.00,-1002.00
2024-06-07 01:10:19.449837,0,0,-3,0,0,0,73,75,132,130,59,96.10,42,5.00,2.00,-1007.00
2024-06-07 01:10:19.542398,0,0,-3,0,0,0,73,75,132,130,59,96.05,42,6.00,12.00,-1004.00
2024-06-07 01:10:19.670236,0,-1,-3,0,0,0,73,75,131,130,59,95.80,42,20.00,19.00,-1030.00
2024-06-07 01:10:19.747840,0,-1,-3,0,0,0,73,75,132,130,59,95.98,42,-3.00,16.00,-996.00
2024-06-07 01:10:19.848286,0,-1,-7,0,0,0,73,75,132,130,58,95.93,42,23.00,0.00,-998.00
2024-06-07 01:10:20.000703,0,0,-13,0,0,0,73,75,132,130,58,95.86,43,-2.00,5.00,-964.00
2024-06-07 01:10:20.052523,0,-1,-19,0,0,0,73,75,132,130,58,96.04,43,16.00,26.00,-999.00
2024-06-07 01:10:20.207255,0,-1,-25,0,0,0,73,75,132,130,58,95.87,43,8.00,11.00,-1011.00
2024-06-07 01:10:20.256542,0,-1,-31,0,0,0,73,75,132,130,58,95.74,43,-48.00,15.00,-1010.00
2024-06-07 01:10:20.362062,0,-1,-37,0,0,0,73,75,132,130,58,95.86,43,-43.00,0.00,-987.00
2024-06-07 01:10:20.460220,0,-1,-43,0,0,0,73,75,132,130,58,96.05,43,-3.00,15.00,-995.00
2024-06-07 01:10:20.615095,0,-1,-49,0,0,0,73,75,132,130,58,96.12,43,-7.00,27.00,-1038.00
2024-06-07 01:10:20.670020,0,0,-55,0,0,0,73,75,132,130,58,95.88,43,-4.00,4.00,-987.00
2024-06-07 01:10:20.766578,0,0,-61,0,0,0,73,75,132,130,58,95.94,43,1.00,20.00,-990.00
2024-06-07 01:10:20.925662,0,0,-67,0,0,0,74,75,133,130,58,96.00,43,-5.00,16.00,-1014.00
2024-06-07 01:10:20.970159,0,0,-73,0,0,0,74,75,133,140,58,96.10,44,-8.00,20.00,-993.00
2024-06-07 01:10:21.130456,0,0,-79,0,0,0,74,75,133,140,58,95.97,44,7.00,13.00,-1005.00
2024-06-07 01:10:21.174575,0,0,-85,0,0,0,74,75,133,140,58,96.17,44,8.00,22.00,-1018.00
2024-06-07 01:10:21.332342,0,0,-91,0,0,0,74,75,133,140,58,95.86,44,-2.00,8.00,-982.00
2024-06-07 01:10:21.378261,0,0,-97,0,0,0,74,75,133,140,58,96.03,44,-22.00,21.00,-1002.00
2024-06-07 01:10:21.536638,0,0,-103,0,0,0,74,75,133,140,58,96.14,44,-53.00,8.00,-990.00
2024-06-07 01:10:21.582031,0,0,-109,0,0,0,74,75,133,140,58,96.05,44,-6.00,2.00,-999.00
2024-06-07 01:10:21.741436,0,0,-115,0,0,0,74,75,133,140,58,95.76,44,-3.00,7.00,-1015.00
2024-06-07 01:10:21.786033,0,0,-121,0,0,0,74,75,134,140,58,95.89,44,-23.00,3.00,-1000.00
2024-06-07 01:10:21.946218,0,0,-127,0,0,0,73,75,133,140,58,95.89,44,-3.00,10.00,-997.00
2024-06-07 01:10:21.990413,0,0,-132,0,0,0,73,75,133,140,58,96.09,45,-1.00,10.00,-998.00
2024-06-07 01:10:22.151274,0,0,-138,0,0,0,73,75,134,140,58,95.77,45,-9.00,8.00,-987.00
2024-06-07 01:10:22.194298,0,0,-144,0,0,0,73,75,134,140,58,96.16,45,-15.00,16.00,-1026.00
2024-06-07 01:10:22.245149,0,0,-149,0,0,0,73,75,133,140,58,95.97,45,-3.00,6.00,-998.00
2024-06-07 01:10:22.355777,0,0,-155,0,0,0,73,75,133,140,58,96.18,45,0.00,3.00,-976.00
2024-06-07 01:10:22.449016,1,0,-161,0,0,0,73,75,134,140,58,96.23,45,2.00,3.00,-987.00
2024-06-07 01:10:22.560760,0,0,-166,0,0,0,73,75,134,140,58,96.19,45,8.00,-10.00,-1009.00
2024-06-07 01:10:22.653006,0,0,-172,0,0,0,73,75,134,140,58,96.26,45,-5.00,6.00,-981.00
2024-06-07 01:10:22.755024,0,0,-178,0,0,0,73,75,133,140,57,95.94,45,-3.00,7.00,-999.00
2024-06-07 01:10:22.857014,0,0,175,0,0,0,74,76,133,140,57,95.74,45,-3.00,6.00,-1007.00
2024-06-07 01:10:22.959013,0,0,170,0,0,0,74,76,134,140,57,96.08,46,-29.00,0.00,-991.00
2024-06-07 01:10:23.062117,0,0,164,0,0,0,74,76,133,140,57,95.91,46,-10.00,14.00,-990.00
2024-06-07 01:10:23.163005,0,0,158,0,0,0,74,76,133,140,57,95.91,46,-6.00,7.00,-993.00
2024-06-07 01:10:23.278485,0,0,152,0,0,0,74,76,134,140,57,96.25,46,-2.00,-18.00,-985.00
2024-06-07 01:10:23.366939,0,0,146,0,0,0,74,76,133,140,57,95.87,46,4.00,3.00,-990.00
2024-06-07 01:10:23.482135,0,0,140,0,0,0,74,76,134,140,57,96.07,46,0.00,8.00,-1016.00
2024-06-07 01:10:23.571078,1,0,134,0,0,0,74,76,134,140,57,95.74,46,-6.00,12.00,-1009.00
2024-06-07 01:10:23.687514,1,0,128,0,0,0,74,76,134,140,57,95.94,46,19.00,23.00,-1015.00
2024-06-07 01:10:23.774904,1,0,122,0,0,0,74,76,134,140,57,95.88,46,20.00,-26.00,-986.00
2024-06-07 01:10:23.891721,1,0,116,0,0,0,73,78,135,140,57,96.02,46,17.00,6.00,-1002.00
2024-06-07 01:10:23.978968,1,0,110,0,0,0,73,78,135,140,57,96.22,47,-13.00,-11.00,-974.00
2024-06-07 01:10:24.096497,1,0,104,0,0,0,73,78,135,140,57,95.96,47,2.00,3.00,-978.00
2024-06-07 01:10:24.182872,1,0,98,0,0,0,73,78,135,140,57,95.90,47,-27.00,27.00,-973.00
2024-06-07 01:10:24.301382,0,0,92,0,0,0,73,78,136,140,57,95.85,47,13.00,7.00,-985.00
2024-06-07 01:10:24.386933,0,0,86,0,0,0,73,78,136,140,57,96.38,47,6.00,18.00,-983.00
2024-06-07 01:10:24.506633,0,0,80,0,0,0,73,78,135,140,57,96.19,47,12.00,7.00,-991.00
2024-06-07 01:10:24.591116,0,0,74,0,0,0,73,78,135,140,57,96.09,47,18.00,16.00,-1028.00
2024-06-07 01:10:24.710870,0,0,68,0,0,0,73,78,136,140,57,96.01,47,26.00,4.00,-1021.00
2024-06-07 01:10:24.794913,0,0,62,0,0,0,73,78,135,140,57,95.87,47,-15.00,-2.00,-1012.00
2024-06-07 01:10:24.918440,0,0,56,0,0,0,74,77,135,140,57,96.02,47,-25.00,-7.00,-968.00
2024-06-07 01:10:24.998791,0,0,50,0,0,0,74,77,135,140,57,96.06,48,30.00,13.00,-990.00
2024-06-07 01:10:25.120414,1,0,44,0,0,0,74,77,135,140,57,96.09,48,16.00,-8.00,-1000.00
2024-06-07 01:10:25.202774,1,0,38,0,0,0,74,77,136,140,57,96.11,48,23.00,25.00,-1018.00
2024-06-07 01:10:25.328491,1,0,31,0,0,0,74,77,135,140,57,95.87,48,7.00,11.00,-1002.00
2024-06-07 01:10:25.355764,1,0,25,0,0,0,74,77,135,140,57,96.08,48,11.00,10.00,-985.00
2024-06-07 01:10:25.533633,1,0,19,0,0,0,74,77,136,140,57,95.67,48,15.00,14.00,-1019.00
2024-06-07 01:10:25.560123,1,0,14,0,0,0,74,77,136,140,57,95.88,48,18.00,16.00,-991.00
2024-06-07 01:10:25.735012,0,0,10,0,0,0,74,77,135,140,57,95.71,48,-8.00,13.00,-988.00
2024-06-07 01:10:25.764895,0,0,7,0,0,0,74,77,136,140,57,95.75,48,17.00,12.00,-988.00
2024-06-07 01:10:25.939858,0,0,4,0,0,0,74,77,136,140,57,95.95,48,-1.00,25.00,-1005.00
2024-06-07 01:10:26.019759,0,0,2,0,0,0,74,77,136,140,57,95.88,49,15.00,16.00,-992.00
2024-06-07 01:10:26.072500,0,0,1,0,0,0,74,77,135,140,57,95.90,49,13.00,4.00,-1001.00
2024-06-07 01:10:26.172886,0,0,0,0,0,0,74,77,135,140,57,95.94,49,-9.00,27.00,-1015.00
2024-06-07 01:10:26.275024,0,0,0,0,0,0,74,77,136,140,57,96.00,49,9.00,4.00,-972.00
2024-06-07 01:10:26.379536,0,0,0,0,0,0,74,77,136,140,57,95.97,49,12.00,4.00,-994.00
2024-06-07 01:10:26.477842,0,0,-1,0,0,0,74,77,136,140,57,96.04,49,-6.00,18.00,-998.00
2024-06-07 01:10:26.579902,0,0,-1,0,0,0,74,77,136,140,57,95.87,49,13.00,14.00,-1005.00
2024-06-07 01:10:26.758905,0,0,-1,0,0,0,74,77,135,140,57,95.73,49,0.00,17.00,-1011.00
2024-06-07 01:10:26.783733,0,0,-1,0,0,0,74,77,135,140,57,95.86,49,-25.00,31.00,-1006.00
2024-06-07 01:10:26.964143,0,0,-1,0,0,0,74,77,136,140,57,96.01,49,11.00,39.00,-1015.00
2024-06-07 01:10:26.987710,0,0,-1,0,0,0,74,77,135,140,57,95.91,50,6.00,20.00,-989.00
2024-06-07 01:10:27.169121,0,0,-1,0,0,0,74,77,135,140,57,95.74,50,-36.00,4.00,-960.00
2024-06-07 01:10:27.191966,0,0,-1,0,0,0,74,77,135,140,57,95.86,50,-27.00,35.00,-1048.00
2024-06-07 01:10:27.376666,0,0,-1,0,0,0,74,77,135,140,57,95.95,50,-2.00,5.00,-1027.00
2024-06-07 01:10:27.395774,0,0,-1,0,0,0,74,77,135,140,57,95.93,50,-2.00,22.00,-1022.00
2024-06-07 01:10:27.578020,0,0,-1,0,0,0,74,77,136,140,57,95.98,50,21.00,22.00,-1021.00
2024-06-07 01:10:27.599695,0,0,-1,0,0,0,74,77,136,140,57,95.86,50,7.00,16.00,-1004.00
2024-06-07 01:10:27.785967,0,0,-1,0,0,0,74,77,136,140,57,95.77,50,-3.00,-13.00,-976.00
2024-06-07 01:10:27.803569,0,0,-1,0,0,0,74,77,135,140,57,95.70,50,6.00,13.00,-1051.00
2024-06-07 01:10:27.987558,0,0,-1,0,0,0,74,76,135,140,57,96.11,50,12.00,21.00,-992.00
2024-06-07 01:10:28.007546,0,0,-1,0,0,0,74,76,135,140,57,95.98,51,-12.00,13.00,-990.00
2024-06-07 01:10:28.193527,0,-1,-1,0,0,0,74,76,137,140,57,96.18,51,3.00,27.00,-1032.00
2024-06-07 01:10:28.211524,0,-1,-1,0,0,0,74,76,136,140,57,95.80,51,-15.00,12.00,-964.00
2024-06-07 01:10:28.380865,0,-1,-1,0,0,0,74,76,136,140,57,95.97,51,-6.00,9.00,-977.00
2024-06-07 01:10:28.415481,0,-1,-1,0,0,0,74,76,135,140,57,95.82,51,4.00,19.00,-1011.00
2024-06-07 01:10:28.574522,0,-1,-1,0,0,0,74,76,137,140,57,95.85,51,4.00,36.00,-1395.00
2024-06-07 01:10:28.619567,0,-1,-1,0,0,-2,74,76,141,140,57,96.18,51,23.00,40.00,-1724.00
2024-06-07 01:10:28.812912,0,-2,-1,0,0,-9,74,76,171,140,57,96.18,51,0.00,212.00,-1236.00
2024-06-07 01:10:28.823452,0,-61,-1,0,-2,-13,74,76,225,150,57,96.25,51,6.00,598.00,-1159.00
2024-06-07 01:10:29.011599,1,177,1,0,-10,-3,74,76,270,170,57,96.36,51,-32.00,500.00,-856.00
2024-06-07 01:10:29.027483,3,58,-3,0,-7,10,74,76,153,160,57,96.66,52,-22.00,97.00,-1640.00
2024-06-07 01:10:29.216393,0,-4,-5,0,-2,10,74,76,142,150,57,95.98,52,1.00,19.00,-1333.00
2024-06-07 01:10:29.231509,0,0,-5,0,-3,7,74,76,137,140,57,95.89,52,-28.00,-33.00,-1384.00
2024-06-07 01:10:29.421160,0,2,-3,0,-2,3,74,76,133,140,57,95.53,52,-10.00,25.00,-1206.00
2024-06-07 01:10:29.421234,0,2,-1,0,-2,1,74,76,133,130,57,95.60,52,23.00,23.00,-1179.00
2024-06-07 01:10:29.487407,0,1,-1,0,-1,0,74,76,133,130,57,95.98,52,30.00,18.00,-1101.00
2024-06-07 01:10:29.588473,0,0,-1,0,-1,-1,74,76,134,130,57,95.83,52,22.00,-13.00,-969.00
2024-06-07 01:10:29.729067,0,0,-1,0,-1,-1,74,76,136,130,57,96.03,52,-3.00,20.00,-958.00
2024-06-07 01:10:29.793210,0,0,-1,0,-1,-1,74,76,137,130,57,95.57,52,15.00,23.00,-963.00
2024-06-07 01:10:29.935743,1,2,-1,0,0,0,73,77,138,140,57,95.88,52,3.00,30.00,-950.00
2024-06-07 01:10:29.998059,1,1,-1,0,0,0,73,77,139,140,57,96.05,53,8.00,16.00,-954.00
2024-06-07 01:10:30.098401,1,1,-1,0,0,0,73,77,139,140,57,95.90,53,13.00,13.00,-970.00
2024-06-07 01:10:30.244220,0,0,-1,0,0,0,73,77,139,140,57,95.78,53,19.00,10.00,-959.00
2024-06-07 01:10:30.302394,0,0,-1,0,0,0,73,77,139,140,57,95.96,53,5.00,8.00,-989.00
2024-06-07 01:10:30.404427,0,0,-1,0,0,0,73,77,140,140,57,96.09,53,-17.00,36.00,-976.00
2024-06-07 01:10:30.506377,0,0,-1,0,0,0,73,77,138,140,57,95.99,53,18.00,22.00,-983.00
2024-06-07 01:10:30.608366,0,0,-1,0,0,0,73,77,138,140,57,96.03,53,23.00,15.00,-1005.00
2024-06-07 01:10:30.710703,0,0,-1,0,0,0,73,77,138,140,57,95.73,53,7.00,16.00,-1026.00
2024-06-07 01:10:30.814032,0,0,-1,0,0,0,73,77,138,140,56,95.93,53,8.00,39.00,-1035.00
2024-06-07 01:10:30.914450,0,0,-1,0,0,0,74,77,136,140,56,96.07,53,10.00,4.00,-999.00
2024-06-07 01:10:31.059551,0,0,-1,0,0,0,74,77,137,140,56,96.04,54,2.00,21.00,-1009.00
2024-06-07 01:10:31.118536,0,0,-1,0,0,0,74,77,136,140,56,96.11,54,29.00,-16.00,-1015.00
2024-06-07 01:10:31.264406,0,0,-1,0,0,0,74,77,136,140,56,96.09,54,4.00,5.00,-1012.00
2024-06-07 01:10:31.322287,0,0,-1,0,0,0,74,77,136,140,56,96.02,54,8.00,25.00,-1010.00
2024-06-07 01:10:31.470437,0,0,-1,0,0,0,74,77,136,140,56,95.97,54,4.00,23.00,-1008.00
2024-06-07 01:10:31.526227,0,0,-1,0,0,0,74,77,136,140,56,95.94,54,9.00,-13.00,-978.00
2024-06-07 01:10:31.674527,0,0,-1,0,0,0,74,77,135,140,56,96.01,54,-16.00,16.00,-982.00
2024-06-07 01:10:31.730567,0,0,-1,0,0,0,74,77,135,140,56,96.26,54,-11.00,13.00,-995.00
2024-06-07 01:10:31.878666,0,0,-1,0,0,0,74,77,135,140,56,95.61,54,21.00,-5.00,-1004.00
2024-06-07 01:10:31.934456,0,0,-1,0,0,0,75,77,135,130,56,95.88,55,-21.00,20.00,-1033.00
2024-06-07 01:10:32.084206,0,0,-1,0,0,0,75,77,136,130,56,95.94,55,-16.00,1.00,-1009.00
2024-06-07 01:10:32.199605,0,0,-1,0,0,0,75,77,135,130,56,95.94,55,-15.00,-7.00,-990.00
2024-06-07 01:10:32.343283,0,0,-1,0,0,0,75,77,136,140,56,95.87,55,14.00,2.00,-985.00
2024-06-07 01:10:32.343616,0,0,-1,0,0,0,75,77,137,140,56,95.85,55,-11.00,5.00,-1008.00
2024-06-07 01:10:32.486091,0,0,-1,0,0,0,75,77,137,140,56,95.84,55,43.00,-9.00,-999.00
2024-06-07 01:10:32.546356,0,0,-1,0,0,0,75,77,137,140,56,95.86,55,-6.00,-12.00,-993.00
2024-06-07 01:10:32.657238,0,0,-1,0,0,0,75,77,137,140,56,96.05,55,21.00,11.00,-995.00
2024-06-07 01:10:32.841922,0,0,-1,0,0,0,75,77,137,140,56,95.94,55,1.00,29.00,-994.00
2024-06-07 01:10:32.852119,0,0,-1,0,0,0,75,77,137,140,55,96.30,55,4.00,-17.00,-1022.00
2024-06-07 01:10:33.005101,0,0,-1,0,0,0,75,77,137,140,55,95.86,56,-12.00,33.00,-994.00
2024-06-07 01:10:33.312795,0,0,-1,0,0,0,75,77,137,140,55,95.98,56,15.00,18.00,-986.00
2024-06-07 01:10:33.322451,0,0,-1,0,0,0,75,77,138,140,55,96.03,56,-27.00,-2.00,-1012.00
2024-06-07 01:10:33.322483,0,0,-1,0,0,0,75,77,137,140,55,96.17,56,-10.00,11.00,-988.00
2024-06-07 01:10:33.322620,-1,0,-1,0,0,0,75,77,138,140,55,96.07,56,-27.00,-5.00,-1015.00
2024-06-07 01:10:33.476700,-1,0,-1,0,0,0,75,77,138,140,55,96.11,56,-48.00,8.00,-1009.00
2024-06-07 01:10:33.619923,-1,0,-1,0,0,0,75,77,138,140,55,95.92,56,11.00,8.00,-982.00
2024-06-07 01:10:33.620494,-1,0,-1,0,0,0,75,77,138,140,55,96.14,56,0.00,-5.00,-979.00
2024-06-07 01:10:33.759089,-1,0,-1,0,0,0,75,77,139,140,55,96.06,56,8.00,18.00,-1018.00
2024-06-07 01:10:33.902471,-1,0,-1,0,0,0,75,77,138,140,55,95.69,56,-21.00,21.00,-999.00
2024-06-07 01:10:33.924329,-1,0,-1,0,0,0,75,77,139,140,55,96.14,57,-1.00,11.00,-1020.00
2024-06-07 01:10:34.045835,-1,0,-1,0,0,0,75,77,139,140,55,95.76,57,-7.00,27.00,-998.00
2024-06-07 01:10:34.193678,0,0,-1,0,0,0,75,77,139,140,55,95.99,57,-7.00,12.00,-956.00
2024-06-07 01:10:34.230092,0,0,-1,0,0,0,75,77,139,140,55,95.92,57,-26.00,22.00,-1024.00
2024-06-07 01:10:34.347100,0,0,-1,0,0,0,75,77,139,140,55,96.09,57,-34.00,22.00,-1025.00
2024-06-07 01:10:34.501565,-1,0,-1,0,0,0,75,77,140,140,55,95.88,57,12.00,13.00,-997.00
2024-06-07 01:10:34.536131,-1,0,-1,0,0,0,75,77,139,140,55,95.69,57,-80.00,32.00,-987.00
2024-06-07 01:10:34.643122,-1,0,-1,0,0,0,75,77,139,140,55,95.77,57,-2.00,26.00,-1027.00
2024-06-07 01:10:34.740328,-1,0,-1,0,0,0,75,77,139,140,55,95.69,57,17.00,17.00,-980.00
2024-06-07 01:10:34.848238,0,0,-1,0,0,0,75,77,139,140,55,96.08,57,-4.00,-3.00,-988.00
2024-06-07 01:10:34.944024,0,0,-1,0,0,0,75,78,139,140,55,95.94,58,2.00,4.00,-988.00
2024-06-07 01:10:35.052955,0,0,-1,0,0,0,75,78,139,140,55,95.71,58,-6.00,12.00,-1187.00
2024-06-07 01:10:35.148109,0,0,-1,0,0,-4,75,78,141,140,55,96.09,58,34.00,16.00,-1669.00
2024-06-07 01:10:35.257736,0,6,-1,0,0,-11,75,78,155,150,55,96.12,58,-65.00,-86.00,-1688.00
2024-06-07 01:10:35.353157,0,86,-1,0,6,-13,75,78,226,160,55,96.52,58,-4.00,570.00,-1639.00
2024-06-07 01:10:35.462497,1,-148,-1,0,11,1,75,78,203,170,55,96.57,58,-3.00,786.00,-923.00
2024-06-07 01:10:35.557466,0,-34,0,0,5,11,75,78,178,160,55,96.41,58,-16.00,687.00,-1085.00
2024-06-07 01:10:35.658003,0,0,0,0,4,9,75,78,149,150,55,96.08,58,3.00,74.00,-1146.00
2024-06-07 01:10:35.759932,0,-2,0,0,3,5,75,78,141,140,55,96.08,58,-20.00,-3.00,-1421.00
2024-06-07 01:10:35.862067,-1,-2,0,0,3,2,75,78,137,140,54,96.29,58,-5.00,11.00,-1229.00
2024-06-07 01:10:35.963798,0,-1,-1,0,3,0,75,78,135,140,54,95.98,59,6.00,-8.00,-1122.00
2024-06-07 01:10:36.065906,0,-1,-1,0,2,0,75,78,136,140,54,95.95,59,9.00,10.00,-1097.00
2024-06-07 01:10:36.167886,0,-1,-1,0,2,-1,75,78,136,140,54,95.91,59,26.00,-5.00,-1031.00
2024-06-07 01:10:36.269965,0,-1,-1,0,2,-1,75,78,137,140,54,95.72,59,17.00,-31.00,-1020.00
2024-06-07 01:10:36.384025,0,-1,-1,0,2,-1,75,78,138,140,54,95.95,59,-20.00,-16.00,-1008.00
2024-06-07 01:10:36.473872,0,-1,-1,0,1,0,75,78,138,140,54,95.92,59,-4.00,4.00,-968.00
2024-06-07 01:10:36.588861,0,-4,-1,0,1,0,75,78,140,140,54,96.05,59,-13.00,-12.00,-962.00
2024-06-07 01:10:36.677936,0,-4,-1,0,1,0,75,78,138,140,54,95.97,59,-20.00,1.00,-1018.00
2024-06-07 01:10:36.729266,0,-3,-1,0,0,0,75,78,139,140,54,95.90,59,-20.00,-12.00,-992.00
2024-06-07 01:10:36.898241,0,-2,-1,0,0,0,75,78,138,140,54,95.98,59,10.00,4.00,-953.00
2024-06-07 01:10:36.983764,0,-2,-1,0,0,0,76,77,138,140,54,95.89,60,3.00,-3.00,-985.00
2024-06-07 01:10:37.034782,0,-2,-1,0,0,0,76,77,138,140,54,96.11,60,2.00,-12.00,-949.00
2024-06-07 01:10:37.203726,0,-2,-1,0,0,0,76,77,137,140,54,96.02,60,17.00,-11.00,-1023.00
2024-06-07 01:10:37.238674,0,-2,-1,0,0,0,76,77,137,140,54,95.72,60,13.00,-12.00,-1013.00
2024-06-07 01:10:37.413207,0,-2,-1,0,0,0,76,77,136,140,54,95.77,60,12.00,10.00,-1008.00
2024-06-07 01:10:37.442721,-1,-2,-1,0,0,0,76,77,137,140,54,95.81,60,5.00,-4.00,-1004.00
2024-06-07 01:10:37.612817,-1,-2,-1,0,0,0,76,77,137,140,54,95.83,60,16.00,-3.00,-997.00
2024-06-07 01:10:37.646720,-1,-2,-1,0,0,0,76,77,137,140,54,95.86,60,-1.00,-16.00,-1009.00
2024-06-07 01:10:37.822464,0,-2,-1,0,0,0,76,77,137,140,54,95.92,60,8.00,0.00,-1001.00
2024-06-07 01:10:37.850723,0,-2,-1,0,0,0,76,77,138,140,53,95.96,60,4.00,29.00,-1056.00
2024-06-07 01:10:38.022409,0,-2,-1,0,0,0,76,78,138,140,53,95.65,61,-2.00,25.00,-1004.00
2024-06-07 01:10:38.054752,0,-2,-1,0,0,0,76,78,138,140,53,96.02,61,-4.00,17.00,-1039.00
2024-06-07 01:10:38.227194,0,-2,-1,0,0,0,76,78,138,140,53,95.72,61,-9.00,0.00,-1019.00
2024-06-07 01:10:38.258612,0,-2,-1,0,0,0,76,78,138,140,53,95.91,61,-6.00,23.00,-1044.00
2024-06-07 01:10:38.431962,0,-2,-1,0,0,0,76,78,138,140,53,95.85,61,8.00,20.00,-1001.00
2024-06-07 01:10:38.462651,0,-2,-1,0,0,0,76,78,138,140,53,96.00,61,-3.00,-6.00,-1005.00
2024-06-07 01:10:38.564893,0,-2,-1,0,0,0,76,78,138,140,53,95.90,61,29.00,13.00,-1011.00
2024-06-07 01:10:38.739307,0,-2,-1,0,0,0,76,78,138,140,53,95.95,61,-8.00,-14.00,-1001.00
2024-06-07 01:10:38.769301,0,-2,-1,0,0,0,76,78,139,140,53,95.88,61,-23.00,30.00,-994.00
2024-06-07 01:10:38.947799,0,-2,-1,0,0,0,76,78,139,140,53,95.96,61,23.00,0.00,-1015.00
2024-06-07 01:10:38.975866,0,-2,-1,0,0,0,75,79,139,140,53,95.96,62,-7.00,17.00,-965.00
2024-06-07 01:10:39.074736,0,-2,-1,0,0,0,75,79,140,140,53,95.89,62,-15.00,28.00,-1036.00
2024-06-07 01:10:39.177056,0,-2,-1,0,-1,0,75,79,139,140,53,96.02,62,4.00,13.00,-1001.00
2024-06-07 01:10:39.357928,0,-2,-1,0,-1,0,75,79,140,140,53,95.58,62,-6.00,31.00,-982.00
2024-06-07 01:10:39.380847,0,-2,-1,0,-1,0,75,79,139,140,53,96.36,62,20.00,18.00,-1006.00
2024-06-07 01:10:39.558331,0,-2,-1,0,-1,0,75,79,141,140,53,95.82,62,-8.00,-15.00,-983.00
2024-06-07 01:10:39.584554,0,-2,-1,0,-1,0,75,79,140,140,53,96.04,62,9.00,12.00,-964.00
2024-06-07 01:10:39.763351,0,-2,-1,0,-1,0,75,79,141,140,53,95.91,62,-3.00,18.00,-985.00
2024-06-07 01:10:39.788555,0,-2,-1,0,-1,0,75,79,141,140,53,95.81,62,24.00,21.00,-1025.00
2024-06-07 01:10:39.968077,0,-2,-1,0,-1,0,75,79,141,140,53,95.85,62,-31.00,1.00,-977.00
2024-06-07 01:10:39.992660,-1,-2,-1,0,-1,0,75,78,141,140,53,96.17,63,-2.00,8.00,-1003.00
2024-06-07 01:10:40.173041,-1,-2,-1,0,-1,0,75,78,141,140,53,95.81,63,-8.00,22.00,-1003.00
2024-06-07 01:10:40.196563,-1,-1,-1,0,-1,0,75,78,141,140,53,95.96,63,-26.00,50.00,-1036.00
2024-06-07 01:10:40.378498,-1,-2,-1,0,-1,0,75,78,140,140,53,95.67,63,-22.00,21.00,-966.00
2024-06-07 01:10:40.400533,-1,-1,-1,0,-1,0,75,78,140,140,53,95.79,63,-24.00,30.00,-990.00
2024-06-07 01:10:40.460066,-1,-2,-1,0,-1,0,75,78,141,140,53,95.91,63,1.00,20.00,-1008.00
2024-06-07 01:10:40.553736,-1,-2,-1,0,0,0,75,78,140,140,53,95.83,63,-9.00,29.00,-1038.00
2024-06-07 01:10:40.684906,-1,-2,-1,0,0,0,75,78,140,140,53,95.96,63,-14.00,20.00,-1040.00
2024-06-07 01:10:40.758321,0,-2,-1,0,-1,0,75,78,140,140,53,95.78,63,0.00,14.00,-993.00
2024-06-07 01:10:40.889946,0,-1,-1,0,-1,0,75,78,140,140,53,95.98,63,-40.00,28.00,-975.00
2024-06-07 01:10:40.962827,0,-1,-1,0,-1,0,75,78,140,140,53,95.80,64,-9.00,-11.00,-1037.00
2024-06-07 01:10:41.094427,0,-1,-1,0,-1,0,75,78,140,140,53,95.89,64,1.00,42.00,-1052.00
2024-06-07 01:10:41.167693,-1,-1,-1,0,-1,0,75,78,140,140,53,96.09,64,-25.00,48.00,-1004.00
2024-06-07 01:10:41.268172,0,-1,-1,0,-1,0,75,78,140,140,53,95.87,64,-9.00,13.00,-978.00
2024-06-07 01:10:41.401505,0,-1,-1,0,0,0,75,78,140,140,53,95.96,64,11.00,12.00,-1018.00
2024-06-07 01:10:41.474832,0,-1,-1,0,0,0,75,78,140,140,53,95.78,64,-3.00,20.00,-1011.00
2024-06-07 01:10:41.574731,0,-1,-1,0,0,0,75,78,140,140,53,95.80,64,-14.00,29.00,-983.00
2024-06-07 01:10:41.711270,-1,-1,-1,0,0,0,75,78,141,140,53,95.91,64,-7.00,7.00,-991.00
2024-06-07 01:10:41.777374,-1,0,-1,0,0,-5,75,78,146,140,53,96.09,64,4.00,5.00,-1009.00
2024-06-07 01:10:41.913409,-12,0,-1,0,0,-11,75,78,163,150,53,96.42,64,4.00,38.00,-1581.00
2024-06-07 01:10:41.981360,-76,-177,175,6,0,-12,76,79,352,160,53,96.46,65,786.00,-25.00,-1048.00
2024-06-07 01:10:42.118143,49,178,176,11,0,3,76,79,283,170,53,95.97,65,688.00,-28.00,-1100.00
2024-06-07 01:10:42.185777,18,0,0,4,0,12,76,79,168,160,53,95.83,65,277.00,-14.00,-1016.00
2024-06-07 01:10:42.329267,-11,-1,1,4,0,9,76,79,152,150,53,95.65,65,-2.00,-4.00,-1474.00
2024-06-07 01:10:42.389430,3,0,3,6,0,4,76,79,145,140,53,96.18,65,-59.00,55.00,-1270.00
