TS,pitch,roll,yaw,vgx,vgy,vgz,templ,temph,tof,h,bat,baro,time,agx,agy,agz
2024-06-07 01:11:26.096658,1,0,0,0,0,0,80,83,10,0,50,94.42,82,16.00,6.00,-998.00
2024-06-07 01:11:26.250942,1,0,0,0,0,0,80,82,10,0,50,94.14,82,17.00,7.00,-998.00
2024-06-07 01:11:26.302295,1,0,0,0,0,0,80,82,10,0,50,94.49,82,16.00,5.00,-1000.00
2024-06-07 01:11:26.458744,1,0,0,0,0,0,80,82,10,0,50,94.69,82,16.00,6.00,-998.00
2024-06-07 01:11:26.504431,1,0,0,0,0,0,80,82,10,0,50,94.34,82,14.00,6.00,-1002.00
2024-06-07 01:11:26.660165,1,0,0,0,0,0,80,82,10,0,50,94.53,82,15.00,6.00,-1000.00
2024-06-07 01:11:26.708298,1,0,0,0,0,0,80,82,10,0,50,94.54,82,16.00,7.00,-1001.00
2024-06-07 01:11:26.865023,1,0,0,0,0,0,80,82,10,0,50,94.34,82,15.00,5.00,-998.00
2024-06-07 01:11:26.912259,1,0,0,0,0,0,80,82,10,0,50,94.51,82,17.00,6.00,-1003.00
2024-06-07 01:11:27.069899,1,0,0,0,0,0,80,82,10,0,50,94.45,82,16.00,7.00,-1000.00
2024-06-07 01:11:27.117115,1,0,0,0,0,0,80,82,10,0,50,94.48,82,16.00,7.00,-1001.00
2024-06-07 01:11:27.274637,1,0,0,0,0,0,81,83,10,0,50,94.45,82,17.00,5.00,-999.00
2024-06-07 01:11:27.320184,1,0,0,0,0,0,81,83,10,0,50,94.42,82,17.00,6.00,-996.00
2024-06-07 01:11:27.479469,1,0,0,0,0,0,81,83,10,0,50,94.19,82,14.00,8.00,-1002.00
2024-06-07 01:11:27.524260,1,0,0,0,0,0,81,83,10,0,50,94.29,82,16.00,7.00,-1001.00
2024-06-07 01:11:27.684201,1,0,0,0,0,0,81,83,10,0,50,94.47,82,16.00,6.00,-999.00
2024-06-07 01:11:27.728117,1,0,0,0,0,0,81,83,10,0,50,94.52,82,16.00,5.00,-1000.00
2024-06-07 01:11:27.889063,1,0,0,0,0,0,81,83,10,0,50,94.17,82,17.00,7.00,-999.00
2024-06-07 01:11:27.932287,1,0,0,0,0,0,81,83,10,0,50,94.07,82,15.00,6.00,-1000.00
2024-06-07 01:11:28.093887,1,0,0,0,0,0,81,83,10,0,50,94.22,82,16.00,6.00,-999.00
2024-06-07 01:11:28.135975,1,0,0,0,0,0,81,83,10,0,50,94.31,82,16.00,6.00,-1002.00
2024-06-07 01:11:28.245105,1,0,0,0,0,0,81,82,10,0,50,94.10,82,17.00,6.00,-999.00
2024-06-07 01:11:28.340182,1,0,0,0,0,0,81,82,10,0,50,94.55,82,15.00,6.00,-1000.00
2024-06-07 01:11:28.503845,1,0,0,0,0,0,81,82,10,0,50,94.31,82,16.00,6.00,-998.00
2024-06-07 01:11:28.544062,1,0,0,0,0,0,81,82,10,0,50,94.31,82,8.00,-7.00,-1000.00
2024-06-07 01:11:28.710995,1,0,0,0,0,0,81,82,10,0,50,94.31,82,-11.00,-7.00,-1019.00
2024-06-07 01:11:28.748061,0,0,0,0,0,0,81,82,10,0,50,94.31,82,1.00,16.00,-1003.00
2024-06-07 01:11:28.912857,0,0,0,0,0,0,81,82,10,0,50,94.31,83,-11.00,-7.00,-1019.00
2024-06-07 01:11:28.952076,0,-1,0,0,0,0,81,82,10,0,50,94.31,83,-3.00,-25.00,-1145.00
2024-06-07 01:11:29.117694,0,0,0,0,0,-2,81,82,10,0,50,94.31,83,-3.00,16.00,-1368.00
2024-06-07 01:11:29.117993,-1,-1,0,0,0,-5,81,82,10,0,50,94.31,83,23.00,9.00,-1243.00
2024-06-07 01:11:29.206980,-1,0,0,0,0,-7,81,83,19,10,50,94.45,83,-16.00,34.00,-1119.00
2024-06-07 01:11:29.308958,0,0,0,0,0,-8,81,83,28,20,50,94.70,83,0.00,12.00,-1056.00
2024-06-07 01:11:29.424858,0,0,0,0,0,-8,81,83,35,20,50,95.01,83,-6.00,14.00,-940.00
2024-06-07 01:11:29.512976,0,0,0,0,0,-8,81,83,42,30,50,95.00,83,-10.00,28.00,-937.00
2024-06-07 01:11:29.629622,0,-1,0,0,0,-7,81,83,51,40,50,95.18,83,0.00,-8.00,-896.00
2024-06-07 01:11:29.719646,0,-1,0,0,0,-6,81,83,56,50,50,94.98,83,-20.00,16.00,-858.00
2024-06-07 01:11:29.818968,1,0,0,1,0,-4,81,83,62,50,50,94.88,84,-2.00,22.00,-888.00
2024-06-07 01:11:29.921027,2,0,0,0,0,-3,81,83,67,60,50,95.33,84,-12.00,18.00,-855.00
2024-06-07 01:11:30.041613,1,0,0,0,0,-2,81,83,71,60,50,95.19,84,8.00,14.00,-913.00
2024-06-07 01:11:30.127111,0,0,0,0,0,-1,81,83,73,60,50,95.50,84,0.00,23.00,-912.00
2024-06-07 01:11:30.226936,0,-1,0,0,0,0,81,83,74,60,50,95.42,84,4.00,18.00,-959.00
2024-06-07 01:11:30.332880,0,0,0,0,0,0,81,83,76,60,50,95.35,84,12.00,-19.00,-977.00
2024-06-07 01:11:30.430928,0,0,0,0,0,0,81,83,76,60,50,95.29,84,-10.00,8.00,-1013.00
2024-06-07 01:11:30.551184,0,0,0,0,0,0,81,83,77,60,50,95.00,84,-20.00,18.00,-1007.00
2024-06-07 01:11:30.634847,0,0,0,0,0,0,81,83,77,60,50,95.16,84,-12.00,-9.00,-1020.00
2024-06-07 01:11:30.755999,0,0,0,0,0,0,81,83,78,60,50,95.14,84,-6.00,-11.00,-979.00
2024-06-07 01:11:30.838877,0,0,0,0,0,0,81,83,78,60,50,95.41,85,12.00,-5.00,-1014.00
2024-06-07 01:11:30.941735,0,0,0,0,0,0,81,83,78,60,50,95.17,85,-10.00,15.00,-1017.00
2024-06-07 01:11:31.042870,0,0,0,0,0,0,81,83,79,60,50,94.98,85,-25.00,-14.00,-964.00
2024-06-07 01:11:31.148852,0,0,0,0,0,0,81,83,79,70,50,95.16,85,24.00,-11.00,-961.00
2024-06-07 01:11:31.246818,1,0,0,0,0,0,81,84,80,70,50,95.47,85,6.00,0.00,-988.00
2024-06-07 01:11:31.370345,1,0,0,0,0,0,81,84,81,70,50,95.19,85,-3.00,24.00,-1014.00
2024-06-07 01:11:31.450836,1,0,0,0,0,0,81,84,81,70,50,95.37,85,-11.00,0.00,-1010.00
2024-06-07 01:11:31.575125,1,0,0,0,0,0,81,84,82,70,50,95.50,85,-14.00,12.00,-976.00
2024-06-07 01:11:31.654784,0,0,0,0,0,0,81,84,82,70,50,95.11,85,-3.00,3.00,-1031.00
2024-06-07 01:11:31.779931,0,0,0,0,0,0,81,84,83,70,50,95.54,85,19.00,-24.00,-956.00
2024-06-07 01:11:31.859497,0,0,0,0,0,0,81,84,82,70,50,95.33,86,-4.00,35.00,-996.00
2024-06-07 01:11:31.961767,1,0,0,0,0,0,81,84,83,70,50,95.55,86,-21.00,12.00,-999.00
2024-06-07 01:11:32.110151,1,0,0,0,0,0,81,84,83,70,50,95.56,86,28.00,-17.00,-1014.00
2024-06-07 01:11:32.252731,1,0,0,0,0,0,81,84,82,70,50,95.32,86,17.00,-17.00,-993.00
2024-06-07 01:11:32.269282,1,0,0,0,0,0,81,83,82,70,50,95.26,86,14.00,-7.00,-972.00
2024-06-07 01:11:32.388356,1,0,0,0,0,0,81,83,82,70,50,95.45,86,4.00,-1.00,-977.00
2024-06-07 01:11:32.470748,1,0,0,0,0,0,81,83,82,70,50,95.47,86,24.00,-15.00,-1003.00
2024-06-07 01:11:32.599593,1,0,0,0,0,0,81,83,82,70,50,95.62,86,19.00,9.00,-991.00
2024-06-07 01:11:32.804222,1,0,0,0,0,0,81,83,82,70,50,95.47,86,-37.00,-5.00,-1010.00
2024-06-07 01:11:32.804445,1,0,0,0,0,0,81,83,82,70,50,95.18,86,34.00,0.00,-1060.00
2024-06-07 01:11:32.888226,1,0,0,0,0,0,81,83,82,70,50,95.35,87,26.00,19.00,-1043.00
2024-06-07 01:11:32.968272,1,0,0,0,0,0,81,83,82,70,50,95.33,87,8.00,-14.00,-1013.00
2024-06-07 01:11:33.059149,1,0,0,0,0,0,81,83,81,70,50,95.27,87,-20.00,22.00,-1005.00
2024-06-07 01:11:33.139747,1,0,0,0,0,0,81,83,82,70,50,95.47,87,1.00,5.00,-1033.00
2024-06-07 01:11:33.326883,1,0,0,0,0,0,82,83,82,70,50,95.30,87,18.00,4.00,-948.00
2024-06-07 01:11:33.337744,1,0,0,0,0,0,82,83,81,70,50,95.21,87,-10.00,3.00,-1040.00
2024-06-07 01:11:33.470171,1,0,0,0,0,0,82,83,81,70,50,95.45,87,4.00,13.00,-970.00
2024-06-07 01:11:33.634540,1,0,0,0,0,0,82,83,81,70,50,95.27,87,0.00,3.00,-988.00
2024-06-07 01:11:33.643697,1,0,0,0,0,0,82,83,81,70,50,95.13,87,27.00,-6.00,-994.00
2024-06-07 01:11:33.777260,1,0,0,0,0,0,82,83,81,70,50,95.47,87,13.00,18.00,-1043.00
2024-06-07 01:11:33.941114,1,0,0,0,0,0,82,83,81,70,50,95.15,88,0.00,-1.00,-981.00
2024-06-07 01:11:33.950094,1,0,0,0,0,0,82,83,80,70,50,95.24,88,9.00,-5.00,-1058.00
2024-06-07 01:11:34.095562,1,0,0,0,0,0,82,83,81,70,50,95.24,88,-7.00,27.00,-986.00
2024-06-07 01:11:34.161016,1,0,0,0,0,0,82,83,81,70,50,95.39,88,9.00,-15.00,-999.00
2024-06-07 01:11:34.257089,1,0,0,0,0,0,81,83,81,70,50,95.51,88,-16.00,-23.00,-984.00
2024-06-07 01:11:34.357730,1,0,0,0,0,0,81,83,81,70,50,95.22,88,19.00,27.00,-972.00
2024-06-07 01:11:34.459519,1,0,0,0,0,0,81,83,81,70,50,95.03,88,22.00,28.00,-1040.00
2024-06-07 01:11:34.646970,1,0,0,0,0,0,81,83,82,70,50,95.60,88,18.00,-7.00,-1034.00
2024-06-07 01:11:34.663500,1,0,0,0,0,0,81,83,82,70,50,95.33,88,23.00,29.00,-1043.00
2024-06-07 01:11:34.851917,1,0,0,0,0,-1,81,83,84,70,50,95.26,88,24.00,4.00,-1126.00
2024-06-07 01:11:34.869268,1,0,0,0,0,-2,81,83,86,70,50,95.09,89,0.00,12.00,-1079.00
2024-06-07 01:11:34.969441,1,0,0,0,0,-3,81,83,88,70,50,95.22,89,22.00,7.00,-1091.00
2024-06-07 01:11:35.159017,1,0,0,0,0,-3,81,83,93,80,50,95.38,89,26.00,-17.00,-1079.00
2024-06-07 01:11:35.173401,1,0,0,0,0,-4,81,83,97,80,50,95.39,89,-1.00,9.00,-1093.00
2024-06-07 01:11:35.363670,1,0,0,0,0,-5,81,83,102,90,50,95.51,89,20.00,14.00,-1006.00
2024-06-07 01:11:35.377441,1,0,0,0,0,-5,81,83,108,90,50,95.21,89,28.00,22.00,-1012.00
2024-06-07 01:11:35.571035,1,0,0,0,0,-5,81,83,113,100,50,95.56,89,23.00,7.00,-978.00
2024-06-07 01:11:35.582939,1,0,0,0,0,-5,81,83,119,100,50,95.46,89,-13.00,-4.00,-961.00
2024-06-07 01:11:35.683551,0,0,0,0,0,-5,81,83,125,110,50,95.75,89,12.00,33.00,-1019.00
2024-06-07 01:11:35.875738,1,0,0,0,0,-5,81,83,131,110,50,96.02,89,-8.00,11.00,-987.00
2024-06-07 01:11:35.887418,1,0,0,0,0,-5,81,83,136,120,50,95.90,90,7.00,-5.00,-929.00
2024-06-07 01:11:36.080544,1,0,0,0,0,-5,81,83,141,130,50,95.87,90,10.00,28.00,-991.00
2024-06-07 01:11:36.080603,1,0,0,0,0,-4,81,83,145,130,50,95.70,90,27.00,13.00,-983.00
2024-06-07 01:11:36.142365,1,0,0,0,0,-4,81,83,150,130,50,96.03,90,7.00,-12.00,-968.00
2024-06-07 01:11:36.244537,1,0,0,0,0,-3,82,84,154,140,50,95.71,90,0.00,16.00,-979.00
2024-06-07 01:11:36.346362,1,0,0,0,0,-3,82,84,157,140,50,95.84,90,6.00,17.00,-1007.00
2024-06-07 01:11:36.449607,1,0,0,0,0,-3,82,84,160,140,50,96.08,90,10.00,12.00,-945.00
2024-06-07 01:11:36.550172,1,0,0,0,0,-2,82,84,163,150,50,96.15,90,8.00,1.00,-996.00
2024-06-07 01:11:36.652347,0,0,0,0,0,-2,82,84,166,150,50,95.95,90,13.00,12.00,-958.00
2024-06-07 01:11:36.754303,0,0,0,0,0,-2,82,84,167,150,50,95.61,90,8.00,31.00,-991.00
2024-06-07 01:11:36.902720,1,-1,0,0,0,-1,82,84,170,150,50,95.93,91,30.00,-16.00,-976.00
2024-06-07 01:11:36.960152,1,0,0,0,0,-1,82,84,171,160,50,95.67,91,11.00,12.00,-962.00
2024-06-07 01:11:37.063436,1,0,0,0,0,-1,82,84,173,160,50,96.32,91,-10.00,19.00,-1009.00
2024-06-07 01:11:37.162299,1,0,0,0,0,-1,82,84,174,160,50,96.06,91,27.00,5.00,-965.00
2024-06-07 01:11:37.309469,1,0,0,0,0,-1,81,83,175,160,50,96.04,91,23.00,19.00,-1022.00
2024-06-07 01:11:37.366556,1,0,0,0,0,-1,81,83,175,160,50,95.84,91,11.00,0.00,-952.00
2024-06-07 01:11:37.514222,0,0,0,0,0,0,81,83,177,160,50,95.91,91,12.00,16.00,-997.00
2024-06-07 01:11:37.570247,0,0,0,0,0,0,81,83,176,160,50,96.05,91,15.00,-3.00,-998.00
2024-06-07 01:11:37.672843,0,-1,0,0,0,0,81,83,176,160,50,95.86,91,-4.00,29.00,-946.00
2024-06-07 01:11:37.774353,1,-1,0,0,0,0,81,83,177,160,50,95.98,91,13.00,46.00,-971.00
2024-06-07 01:11:37.923686,0,-1,0,0,0,0,81,83,177,160,50,96.30,92,-16.00,4.00,-986.00
2024-06-07 01:11:37.978264,0,0,0,0,0,0,81,83,176,160,50,96.09,92,11.00,4.00,-991.00
2024-06-07 01:11:38.128541,0,0,0,0,0,0,81,83,176,160,50,96.13,92,24.00,15.00,-1030.00
2024-06-07 01:11:38.182285,0,0,0,0,0,0,81,83,177,160,50,96.13,92,13.00,9.00,-997.00
2024-06-07 01:11:38.333406,0,0,0,0,0,0,82,84,175,160,50,96.15,92,-24.00,27.00,-1047.00
2024-06-07 01:11:38.386225,1,0,0,0,0,0,82,84,175,160,50,96.18,92,31.00,31.00,-1036.00
2024-06-07 01:11:38.538069,0,0,0,0,0,0,82,84,175,160,50,96.29,92,19.00,7.00,-1040.00
2024-06-07 01:11:38.590438,1,0,0,0,0,0,82,84,175,160,50,95.97,92,-10.00,23.00,-993.00
2024-06-07 01:11:38.692283,1,0,0,0,0,0,82,84,174,160,50,96.03,92,26.00,10.00,-989.00
2024-06-07 01:11:38.845884,1,0,0,0,0,0,82,84,175,160,50,96.16,92,19.00,18.00,-979.00
2024-06-07 01:11:38.896225,1,0,0,0,0,0,82,84,175,160,50,96.11,93,-27.00,15.00,-966.00
2024-06-07 01:11:39.005321,1,0,0,0,0,0,82,84,177,160,50,96.31,93,-17.00,-5.00,-985.00
2024-06-07 01:11:39.100415,1,0,0,0,0,0,82,84,176,160,50,96.11,93,18.00,21.00,-1053.00
2024-06-07 01:11:39.255476,1,0,0,0,0,0,82,84,176,160,50,96.12,93,31.00,26.00,-970.00
2024-06-07 01:11:39.304194,0,-1,0,0,0,0,82,84,176,160,50,96.10,93,-1.00,37.00,-1040.00
2024-06-07 01:11:39.406708,1,-1,0,0,0,0,82,84,177,160,50,96.15,93,9.00,-6.00,-997.00
2024-06-07 01:11:39.561934,1,-1,0,0,0,0,82,84,177,160,50,95.93,93,8.00,13.00,-972.00
2024-06-07 01:11:39.610037,1,0,0,0,0,0,82,84,177,160,50,96.21,93,-11.00,26.00,-954.00
2024-06-07 01:11:39.712023,1,-1,0,0,0,0,82,84,176,160,50,96.16,93,0.00,17.00,-934.00
2024-06-07 01:11:39.813961,1,-1,0,0,0,0,82,84,175,160,50,96.29,93,-4.00,-15.00,-888.00
2024-06-07 01:11:39.971521,1,-1,0,0,0,1,82,84,173,160,50,95.88,94,5.00,23.00,-1013.00
2024-06-07 01:11:39.972137,1,0,0,0,0,1,82,84,170,160,50,96.08,94,-19.00,49.00,-971.00
2024-06-07 01:11:40.068945,1,0,0,0,0,2,82,84,169,160,50,95.86,94,17.00,3.00,-974.00
2024-06-07 01:11:40.172313,1,0,0,0,0,2,82,84,166,150,50,95.93,94,17.00,16.00,-1003.00
2024-06-07 01:11:40.272979,1,0,0,0,0,2,81,83,164,150,50,95.95,94,35.00,15.00,-1017.00
2024-06-07 01:11:40.382868,1,0,0,0,0,2,81,83,161,150,50,95.93,94,-7.00,13.00,-968.00
2024-06-07 01:11:40.476939,1,0,0,0,0,2,81,83,158,150,50,95.76,94,13.00,15.00,-1033.00
2024-06-07 01:11:40.586028,1,0,0,0,0,2,81,83,156,140,50,96.21,94,-22.00,25.00,-1031.00
2024-06-07 01:11:40.680978,1,0,0,0,0,2,81,83,152,140,50,95.57,94,13.00,22.00,-1028.00
2024-06-07 01:11:40.790722,0,0,0,0,0,2,81,83,150,140,50,95.67,94,0.00,18.00,-1003.00
2024-06-07 01:11:40.884942,0,0,0,0,0,2,81,83,148,140,50,95.83,95,24.00,-3.00,-1002.00
2024-06-07 01:11:40.988405,0,0,0,0,0,2,81,83,145,130,50,95.88,95,29.00,4.00,-996.00
2024-06-07 01:11:41.097994,1,0,0,0,0,2,81,83,144,130,50,95.78,95,-32.00,18.00,-1067.00
2024-06-07 01:11:41.190932,1,0,0,0,0,1,81,83,141,130,50,95.54,95,8.00,28.00,-1011.00
2024-06-07 01:11:41.302940,0,-1,0,0,0,1,81,84,139,130,50,95.41,95,-4.00,-1.00,-1018.00
2024-06-07 01:11:41.394932,0,-1,0,0,0,1,81,84,138,130,50,95.71,95,20.00,20.00,-993.00
2024-06-07 01:11:41.508783,0,-1,0,0,0,1,81,84,136,120,50,95.92,95,-7.00,11.00,-1020.00
2024-06-07 01:11:41.603080,1,0,0,0,0,1,81,84,135,120,50,95.62,95,-8.00,60.00,-1029.00
2024-06-07 01:11:41.700834,1,-1,0,0,0,1,81,84,134,120,50,95.68,95,10.00,46.00,-1019.00
2024-06-07 01:11:41.814708,0,-1,0,0,0,1,81,84,133,120,50,95.70,95,3.00,9.00,-1012.00
2024-06-07 01:11:41.912300,0,-1,0,0,0,0,81,84,131,120,50,95.52,96,5.00,25.00,-1021.00
2024-06-07 01:11:42.007979,0,0,0,0,0,0,81,84,130,120,50,95.61,96,-18.00,14.00,-1055.00
2024-06-07 01:11:42.121872,0,0,0,0,0,0,81,84,130,120,50,95.79,96,-14.00,26.00,-1018.00
2024-06-07 01:11:42.211931,0,-1,0,0,0,0,81,84,129,120,50,95.48,96,-19.00,11.00,-979.00
2024-06-07 01:11:42.314979,0,0,0,0,0,0,81,84,129,120,50,95.82,96,14.00,12.00,-1016.00
2024-06-07 01:11:42.429221,0,0,0,0,0,0,81,84,129,120,50,95.66,96,27.00,-4.00,-1027.00
2024-06-07 01:11:42.519664,1,0,0,0,0,0,81,84,130,120,50,95.64,96,6.00,-2.00,-990.00
2024-06-07 01:11:42.620147,1,0,0,0,0,0,81,84,129,120,50,95.56,96,17.00,12.00,-1007.00
2024-06-07 01:11:42.736327,1,0,0,0,0,0,81,84,129,120,50,95.43,96,-3.00,23.00,-973.00
2024-06-07 01:11:42.827224,1,0,0,0,0,0,81,84,129,120,50,95.52,96,6.00,28.00,-982.00
2024-06-07 01:11:42.925875,0,0,0,0,0,0,81,84,128,120,50,95.50,97,0.00,8.00,-1009.00
2024-06-07 01:11:43.043787,0,-1,0,0,0,0,81,84,128,120,50,95.50,97,9.00,-5.00,-1017.00
2024-06-07 01:11:43.130039,0,-1,0,0,0,0,81,84,128,120,50,95.79,97,19.00,13.00,-997.00
2024-06-07 01:11:43.248373,0,0,0,0,0,0,81,84,128,120,50,95.60,97,-3.00,14.00,-1021.00
2024-06-07 01:11:43.333850,0,0,0,0,0,0,81,84,127,110,50,95.65,97,-1.00,19.00,-1002.00
2024-06-07 01:11:43.453183,0,-1,0,0,0,0,81,84,127,110,50,95.53,97,-1.00,38.00,-1009.00
2024-06-07 01:11:43.537840,0,-1,0,0,0,0,81,84,127,110,50,95.77,97,-14.00,8.00,-996.00
2024-06-07 01:11:43.657866,0,-1,0,0,0,0,81,84,127,110,50,95.68,97,-41.00,24.00,-982.00
2024-06-07 01:11:43.741724,0,-1,0,0,0,0,81,84,127,110,50,95.36,97,-16.00,28.00,-1013.00
2024-06-07 01:11:43.862734,0,-1,0,0,0,0,81,84,127,110,50,95.58,98,-2.00,13.00,-991.00
2024-06-07 01:11:43.945689,0,-1,0,0,0,0,81,84,127,110,50,95.62,98,-15.00,-2.00,-998.00
2024-06-07 01:11:43.996746,0,0,0,0,0,0,81,84,127,110,50,95.36,98,-13.00,4.00,-966.00
2024-06-07 01:11:44.169785,-5,0,0,0,0,0,81,84,127,110,50,95.44,98,6.00,39.00,-969.00
2024-06-07 01:11:44.202038,-8,0,0,1,0,0,81,84,128,110,50,95.86,98,0.00,5.00,-963.00
2024-06-07 01:11:44.302710,-8,0,0,3,0,0,82,84,128,110,50,95.36,98,5.00,12.00,-953.00
2024-06-07 01:11:44.406924,-7,0,0,4,0,0,82,84,127,110,50,95.55,98,-19.00,43.00,-993.00
2024-06-07 01:11:44.508111,-6,0,0,5,0,0,82,84,128,110,50,95.62,98,-1.00,6.00,-1010.00
2024-06-07 01:11:44.608583,-5,0,0,6,0,0,82,84,127,110,50,95.47,98,-25.00,30.00,-999.00
2024-06-07 01:11:44.712504,-5,0,0,7,0,0,82,84,127,110,50,95.23,98,-34.00,-11.00,-1007.00
2024-06-07 01:11:44.812932,-3,0,0,7,0,0,82,84,128,110,50,95.53,99,-42.00,14.00,-1017.00
2024-06-07 01:11:44.916262,0,0,0,7,0,0,82,84,128,110,50,95.70,99,-41.00,13.00,-997.00
2024-06-07 01:11:45.019042,2,0,0,6,0,0,82,84,129,110,50,95.47,99,-92.00,35.00,-995.00
2024-06-07 01:11:45.122269,4,0,0,6,0,0,82,84,129,120,50,95.47,99,-49.00,17.00,-1003.00
2024-06-07 01:11:45.220673,4,0,0,4,0,0,82,84,130,110,50,95.55,99,-40.00,2.00,-1021.00
2024-06-07 01:11:45.322550,3,0,0,4,0,0,81,84,129,120,50,95.58,99,-13.00,-9.00,-1006.00
2024-06-07 01:11:45.500970,2,1,0,3,0,0,81,84,129,120,50,95.72,99,-55.00,-4.00,-991.00
2024-06-07 01:11:45.526509,0,1,0,2,0,0,81,84,131,120,50,95.91,99,-22.00,-5.00,-973.00
2024-06-07 01:11:45.705725,0,0,0,2,0,0,81,84,130,120,50,95.47,99,-34.00,7.00,-1008.00
2024-06-07 01:11:45.730467,0,0,0,2,0,0,81,84,131,120,50,95.80,99,-9.00,-10.00,-966.00
2024-06-07 01:11:45.910533,0,0,0,2,0,0,81,84,131,120,50,95.70,100,-17.00,10.00,-984.00
2024-06-07 01:11:45.934669,0,-2,0,2,0,0,81,84,131,120,50,95.56,100,-38.00,-11.00,-989.00
2024-06-07 01:11:46.115315,0,-2,0,2,0,0,81,84,131,120,50,95.94,100,-27.00,-6.00,-959.00
2024-06-07 01:11:46.138511,4,-1,0,1,0,0,81,84,131,120,50,95.52,100,-9.00,-31.00,-994.00
2024-06-07 01:11:46.321103,3,0,0,0,0,0,81,84,131,120,50,95.47,100,-39.00,-10.00,-998.00
2024-06-07 01:11:46.345558,1,0,0,0,0,0,81,83,130,120,50,95.50,100,-11.00,8.00,-986.00
2024-06-07 01:11:46.444548,0,0,0,0,0,0,81,83,130,120,50,95.56,100,6.00,2.00,-1008.00
2024-06-07 01:11:46.627331,0,0,0,0,0,0,81,83,130,120,50,95.77,100,16.00,8.00,-1025.00
2024-06-07 01:11:46.648431,1,0,0,0,0,0,81,83,129,120,50,95.43,100,9.00,0.00,-987.00
2024-06-07 01:11:46.832127,1,0,0,0,0,0,81,83,130,120,50,95.49,100,-16.00,37.00,-1001.00
2024-06-07 01:11:46.852427,0,0,0,0,0,0,81,83,129,120,50,95.74,101,21.00,-4.00,-982.00
2024-06-07 01:11:47.157423,0,0,0,0,0,0,81,83,130,120,50,95.67,101,-34.00,-4.00,-1003.00
2024-06-07 01:11:47.157620,0,0,0,0,0,0,81,83,129,120,50,95.69,101,-18.00,-11.00,-1080.00
2024-06-07 01:11:47.158470,0,0,0,0,0,0,81,83,129,120,50,95.54,101,-3.00,-21.00,-1016.00
2024-06-07 01:11:47.299804,0,0,0,0,0,0,81,83,130,120,50,95.48,101,-50.00,-5.00,-1016.00
2024-06-07 01:11:47.449419,0,0,0,0,0,0,81,84,130,120,50,95.72,101,-15.00,9.00,-1003.00
2024-06-07 01:11:47.464283,0,0,0,0,0,0,81,84,129,120,50,95.89,101,-14.00,26.00,-995.00
2024-06-07 01:11:47.600672,0,0,0,0,0,0,81,84,129,120,50,95.58,101,14.00,8.00,-1008.00
2024-06-07 01:11:47.705936,0,0,0,0,0,0,81,84,129,120,50,95.76,101,-30.00,1.00,-1010.00
2024-06-07 01:11:47.719392,0,0,0,0,0,0,81,84,128,120,50,95.55,101,-17.00,6.00,-976.00
2024-06-07 01:11:47.890188,0,0,0,0,0,0,81,84,128,120,50,95.60,102,8.00,-1.00,-1028.00
2024-06-07 01:11:47.936066,0,0,0,0,0,0,81,84,128,120,50,95.58,102,-10.00,40.00,-1034.00
2024-06-07 01:11:48.037163,0,0,0,0,0,0,81,84,127,120,50,95.57,102,-2.00,9.00,-978.00
2024-06-07 01:11:48.127322,0,0,0,0,0,0,81,84,127,110,50,95.76,102,-18.00,18.00,-1009.00
2024-06-07 01:11:48.266084,0,0,0,0,0,0,81,84,127,110,50,95.47,102,-3.00,-6.00,-964.00
2024-06-07 01:11:48.379886,0,0,0,0,0,0,82,84,126,110,50,95.73,102,16.00,11.00,-1016.00
2024-06-07 01:11:48.433243,0,0,0,0,0,0,82,84,126,110,50,95.71,102,27.00,8.00,-1022.00
2024-06-07 01:11:48.560237,2,0,0,0,0,0,82,84,126,110,50,95.74,102,12.00,2.00,-978.00
2024-06-07 01:11:48.706089,7,0,0,0,0,0,82,84,127,110,50,95.41,102,12.00,19.00,-1069.00
2024-06-07 01:11:48.846951,8,-1,0,-2,0,0,82,84,127,110,50,95.76,102,-13.00,15.00,-1045.00
2024-06-07 01:11:48.847021,8,0,0,-3,0,0,82,84,128,110,50,95.63,103,13.00,21.00,-1002.00
2024-06-07 01:11:48.994591,8,0,0,-5,0,0,82,84,128,110,50,95.76,103,-10.00,12.00,-1023.00
2024-06-07 01:11:49.136618,6,0,0,-6,0,0,82,84,127,110,50,95.54,103,40.00,-14.00,-1004.00
2024-06-07 01:11:49.147139,5,0,0,-6,0,0,82,84,128,110,50,95.73,103,56.00,-1.00,-980.00
2024-06-07 01:11:49.304336,5,0,0,-7,0,0,82,84,128,110,50,95.60,103,49.00,23.00,-968.00
2024-06-07 01:11:49.458820,4,0,0,-7,0,0,82,84,130,110,50,95.84,103,36.00,1.00,-986.00
2024-06-07 01:11:49.458883,1,0,0,-8,0,0,82,84,129,120,50,95.69,103,51.00,30.00,-1039.00
2024-06-07 01:11:49.556188,-1,-1,0,-7,0,0,82,84,130,120,50,95.72,103,25.00,13.00,-985.00
2024-06-07 01:11:49.657837,-4,-1,0,-6,0,0,82,84,130,120,50,95.78,103,72.00,3.00,-1005.00
2024-06-07 01:11:49.759814,-4,-1,0,-5,0,0,82,84,129,120,50,95.61,103,37.00,-5.00,-991.00
2024-06-07 01:11:49.861821,-3,0,0,-4,0,0,82,84,130,120,50,95.65,104,22.00,16.00,-1000.00
2024-06-07 01:11:50.006497,-1,0,0,-3,0,0,82,84,130,120,50,95.66,104,15.00,10.00,-988.00
2024-06-07 01:11:50.065026,0,0,0,-3,0,0,82,84,129,120,50,95.53,104,28.00,0.00,-1047.00
2024-06-07 01:11:50.211107,0,0,0,-2,0,0,82,84,130,120,50,95.51,104,23.00,21.00,-1028.00
2024-06-07 01:11:50.269077,0,0,0,-2,0,0,82,84,129,120,50,95.88,104,25.00,33.00,-997.00
2024-06-07 01:11:50.417562,0,0,0,-2,0,0,81,83,130,120,50,95.81,104,3.00,-18.00,-980.00
2024-06-07 01:11:50.473025,0,0,0,-2,0,0,81,83,129,120,50,95.71,104,38.00,11.00,-979.00
2024-06-07 01:11:50.620730,0,0,0,-2,0,0,81,83,129,120,50,95.30,104,20.00,3.00,-1012.00
2024-06-07 01:11:50.677014,-4,0,0,-2,0,0,81,83,129,120,50,95.61,104,34.00,-2.00,-995.00
2024-06-07 01:11:50.825476,-3,-1,0,-1,0,0,81,83,130,120,50,95.66,104,18.00,9.00,-1030.00
2024-06-07 01:11:50.881111,-1,-1,0,0,0,0,81,83,130,120,50,95.59,105,5.00,19.00,-1039.00
2024-06-07 01:11:50.983240,-1,-1,0,0,0,0,81,83,130,120,50,95.29,105,-6.00,19.00,-1084.00
2024-06-07 01:11:51.133079,0,0,0,0,0,0,81,83,130,120,50,95.60,105,-22.00,17.00,-1029.00
2024-06-07 01:11:51.187526,0,-1,0,0,0,0,81,83,129,120,50,95.89,105,5.00,9.00,-1059.00
2024-06-07 01:11:51.289293,0,-1,0,0,0,0,81,83,129,120,50,95.45,105,1.00,-4.00,-1009.00
2024-06-07 01:11:51.439992,0,-1,0,0,0,0,81,83,129,120,50,95.75,105,-9.00,17.00,-975.00
2024-06-07 01:11:51.441997,0,-1,0,0,0,0,81,83,130,120,50,95.73,105,-7.00,2.00,-962.00
2024-06-07 01:11:51.544010,0,-1,0,0,0,0,81,83,130,120,50,95.58,105,23.00,15.00,-1008.00
2024-06-07 01:11:51.747266,0,-1,0,0,0,0,81,83,129,120,50,95.68,105,8.00,-5.00,-1013.00
2024-06-07 01:11:51.747950,0,-1,0,0,0,0,81,83,130,120,50,95.56,105,2.00,27.00,-1011.00
2024-06-07 01:11:51.952325,0,0,0,0,0,0,81,83,130,120,50,95.75,106,10.00,14.00,-1001.00
2024-06-07 01:11:51.952867,0,0,0,0,0,0,81,83,130,120,50,95.76,106,-4.00,37.00,-1036.00
2024-06-07 01:11:52.156710,0,0,0,0,0,0,81,83,130,120,50,95.85,106,11.00,16.00,-1059.00
2024-06-07 01:11:52.156953,0,0,0,0,0,0,81,83,130,120,50,95.62,106,10.00,9.00,-1039.00
2024-06-07 01:11:52.260384,0,-1,0,0,0,0,81,83,131,120,50,95.76,106,0.00,32.00,-1038.00
2024-06-07 01:11:52.361275,0,0,0,0,0,0,81,84,131,120,50,95.75,106,-12.00,2.00,-1004.00
2024-06-07 01:11:52.463881,0,-1,0,0,0,0,81,84,131,120,50,95.74,106,10.00,4.00,-1012.00
2024-06-07 01:11:52.566345,0,-1,0,0,0,0,81,84,131,120,50,95.65,106,-7.00,18.00,-1015.00
2024-06-07 01:11:52.666887,0,-1,0,0,0,0,81,84,131,120,50,95.71,106,-15.00,4.00,-1007.00
2024-06-07 01:11:52.771098,0,-1,0,0,0,0,81,84,131,120,50,95.49,106,23.00,16.00,-1020.00
2024-06-07 01:11:52.870972,0,0,0,0,0,0,81,84,132,120,50,95.39,107,-12.00,11.00,-1004.00
2024-06-07 01:11:52.980283,0,-1,0,0,0,0,81,84,131,120,50,95.59,107,-2.00,12.00,-1007.00
2024-06-07 01:11:53.074844,0,-6,0,0,0,0,81,84,132,120,50,95.48,107,13.00,-4.00,-1030.00
2024-06-07 01:11:53.176841,0,-9,0,0,-1,0,81,84,134,120,50,95.91,107,-27.00,12.00,-1045.00
2024-06-07 01:11:53.282968,0,-7,0,0,-2,0,81,84,133,120,50,95.47,107,-26.00,51.00,-983.00
2024-06-07 01:11:53.380813,0,-4,0,0,-3,0,81,84,132,120,50,95.69,107,17.00,55.00,-1003.00
2024-06-07 01:11:53.487764,0,-2,0,0,-3,0,81,84,132,120,50,95.66,107,-12.00,24.00,-1009.00
2024-06-07 01:11:53.584807,0,0,0,0,-3,0,81,84,132,120,50,95.75,107,-7.00,31.00,-967.00
2024-06-07 01:11:53.692567,0,0,0,0,-3,0,81,84,132,120,50,95.61,107,13.00,30.00,-1011.00
2024-06-07 01:11:53.788880,0,0,0,0,-2,0,81,84,132,120,49,95.49,107,-1.00,14.00,-969.00
2024-06-07 01:11:53.897360,0,-1,0,0,-2,0,81,84,131,120,49,95.45,108,12.00,21.00,-970.00
2024-06-07 01:11:53.992712,0,0,0,0,-2,0,81,84,132,120,49,95.68,108,-22.00,37.00,-1016.00
2024-06-07 01:11:54.102117,0,0,0,0,-2,0,81,84,131,120,49,95.57,108,9.00,23.00,-967.00
2024-06-07 01:11:54.196973,0,-1,0,0,-2,0,81,84,131,120,49,95.54,108,22.00,13.00,-1022.00
2024-06-07 01:11:54.299544,0,-1,0,0,-2,0,81,84,132,120,49,95.65,108,11.00,30.00,-984.00
2024-06-07 01:11:54.401560,0,-1,0,0,-2,0,81,84,133,120,49,95.46,108,0.00,45.00,-1033.00
2024-06-07 01:11:54.511753,0,-1,0,0,-2,0,81,84,133,120,49,95.66,108,1.00,24.00,-977.00
2024-06-07 01:11:54.604753,0,-1,0,0,-2,0,81,84,133,120,49,95.80,108,-8.00,49.00,-998.00
2024-06-07 01:11:54.716557,0,-2,0,0,-2,0,81,84,133,120,49,95.26,108,0.00,30.00,-1041.00
2024-06-07 01:11:54.808667,0,1,0,0,-2,0,81,84,133,120,49,95.58,108,37.00,29.00,-958.00
2024-06-07 01:11:54.921283,0,4,0,0,-1,0,81,84,133,120,49,95.72,109,0.00,21.00,-957.00
2024-06-07 01:11:55.012781,0,1,0,0,0,0,81,84,132,120,49,95.58,109,3.00,16.00,-1026.00
2024-06-07 01:11:55.063682,0,0,0,0,0,0,81,84,132,120,49,95.64,109,-5.00,26.00,-1011.00
2024-06-07 01:11:55.165850,0,0,0,0,0,0,81,84,131,120,49,95.68,109,-36.00,44.00,-1029.00
2024-06-07 01:11:55.330987,0,0,0,0,0,0,81,84,132,120,49,95.96,109,-10.00,-3.00,-973.00
2024-06-07 01:11:55.420755,0,0,0,0,0,0,81,83,131,120,49,95.80,109,2.00,20.00,-1037.00
2024-06-07 01:11:55.535802,0,0,0,0,0,0,81,83,131,120,49,95.52,109,-12.00,15.00,-982.00
2024-06-07 01:11:55.575003,0,0,0,0,0,0,81,83,131,120,49,95.55,109,3.00,4.00,-1024.00
2024-06-07 01:11:55.740492,0,0,0,0,0,0,81,83,130,120,49,95.78,109,1.00,28.00,-997.00
2024-06-07 01:11:55.777869,0,0,0,0,0,0,81,83,131,120,49,95.25,109,-5.00,27.00,-1037.00
2024-06-07 01:11:55.945325,0,0,0,0,0,0,81,83,130,120,49,95.62,110,-18.00,4.00,-986.00
2024-06-07 01:11:55.981934,0,0,0,0,0,0,81,83,131,120,49,95.66,110,-18.00,6.00,-989.00
2024-06-07 01:11:56.150124,0,0,0,0,0,0,81,83,131,120,49,95.60,110,0.00,9.00,-998.00
2024-06-07 01:11:56.186711,0,0,0,0,0,0,81,83,131,120,49,95.50,110,4.00,10.00,-1038.00
2024-06-07 01:11:56.354990,0,0,0,0,0,0,81,83,131,120,49,95.60,110,-24.00,12.00,-977.00
2024-06-07 01:11:56.390567,0,-1,0,0,0,0,81,84,132,120,49,95.64,110,-17.00,6.00,-972.00
2024-06-07 01:11:56.559770,0,-1,0,0,0,0,81,84,132,120,49,95.74,110,14.00,29.00,-1019.00
2024-06-07 01:11:56.594683,0,0,0,0,0,0,81,84,133,120,49,95.57,110,10.00,8.00,-1017.00
2024-06-07 01:11:56.764523,0,-1,0,0,0,0,81,84,133,120,49,95.20,110,-7.00,8.00,-996.00
2024-06-07 01:11:56.798574,0,-1,0,0,0,0,81,84,133,120,49,95.67,110,-30.00,7.00,-975.00
2024-06-07 01:11:56.922981,0,-1,0,0,0,0,81,84,133,120,49,95.35,111,-23.00,5.00,-983.00
2024-06-07 01:11:57.002720,0,0,0,0,0,0,81,84,133,120,49,95.50,111,5.00,31.00,-1015.00
2024-06-07 01:11:57.177625,0,0,0,0,0,0,81,84,132,120,49,95.74,111,3.00,-4.00,-1065.00
2024-06-07 01:11:57.206458,0,4,0,0,0,0,81,84,133,120,49,95.62,111,3.00,27.00,-977.00
2024-06-07 01:11:57.308832,0,8,0,0,1,0,81,84,132,120,49,95.62,111,-3.00,7.00,-983.00
2024-06-07 01:11:57.481154,0,5,0,0,2,0,81,84,131,120,49,95.69,111,1.00,-1.00,-1011.00
2024-06-07 01:11:57.512846,0,2,0,0,3,0,81,84,131,120,49,95.61,111,33.00,-9.00,-997.00
2024-06-07 01:11:57.685891,0,0,0,0,3,0,81,84,131,120,49,95.31,111,7.00,-13.00,-1000.00
2024-06-07 01:11:57.716891,0,-2,0,0,3,0,81,84,131,120,49,95.57,111,6.00,0.00,-1004.00
2024-06-07 01:11:57.897909,0,-1,0,0,3,0,81,84,131,120,49,95.79,111,-18.00,19.00,-1002.00
2024-06-07 01:11:57.920519,0,0,0,0,2,0,81,84,131,120,49,95.92,112,6.00,-1.00,-1005.00
2024-06-07 01:11:58.022921,0,0,0,0,2,0,81,84,131,120,49,95.97,112,14.00,-24.00,-1043.00
2024-06-07 01:11:58.197831,0,0,0,0,2,0,81,84,131,120,49,95.51,112,9.00,-8.00,-999.00
2024-06-07 01:11:58.229216,0,0,0,0,2,0,81,84,131,120,49,95.53,112,0.00,10.00,-1002.00
2024-06-07 01:11:58.329610,0,0,0,0,2,0,81,84,131,120,49,95.27,112,-16.00,-19.00,-998.00
2024-06-07 01:11:58.430977,0,0,0,0,2,0,81,84,131,120,49,95.37,112,2.00,-18.00,-957.00
2024-06-07 01:11:58.534336,0,0,0,0,2,0,81,84,131,120,49,95.75,112,4.00,2.00,-1006.00
2024-06-07 01:11:58.634344,0,0,0,0,2,0,81,84,131,120,49,95.65,112,9.00,-3.00,-1002.00
2024-06-07 01:11:58.812396,0,-1,0,0,2,0,81,84,131,120,49,95.83,112,11.00,-36.00,-1010.00
2024-06-07 01:11:58.838403,0,-2,0,0,1,0,81,84,131,120,48,95.72,113,-5.00,-11.00,-1016.00
2024-06-07 01:11:58.941410,0,-4,0,0,1,0,81,84,132,120,48,95.63,113,-5.00,-42.00,-978.00
2024-06-07 01:11:59.042456,0,-2,0,0,0,0,81,84,132,120,48,95.84,113,-1.00,12.00,-1037.00
2024-06-07 01:11:59.093651,-3,-1,0,0,0,0,81,84,133,120,48,95.47,113,-2.00,6.00,-1030.00
2024-06-07 01:11:59.225112,-3,-1,0,0,0,0,81,84,132,120,48,95.62,113,-5.00,13.00,-1014.00
2024-06-07 01:11:59.297498,1,-1,0,1,0,0,81,84,132,120,48,95.47,113,-13.00,15.00,-934.00
2024-06-07 01:11:59.426837,2,0,0,0,0,0,81,83,133,120,48,95.72,113,9.00,-10.00,-986.00
2024-06-07 01:11:59.501853,0,0,0,0,0,0,81,83,133,120,48,95.56,113,-2.00,-28.00,-963.00
2024-06-07 01:11:59.631669,0,0,0,0,0,0,81,83,133,120,48,95.42,113,4.00,0.00,-980.00
2024-06-07 01:11:59.706686,0,0,0,0,0,0,81,83,133,120,48,95.42,113,-2.00,-17.00,-1009.00
2024-06-07 01:11:59.807618,0,0,0,0,0,0,81,83,133,120,48,95.65,114,0.00,-5.00,-1007.00
2024-06-07 01:11:59.910561,0,0,0,0,0,0,81,83,133,120,48,95.48,114,-24.00,14.00,-991.00
2024-06-07 01:12:00.012734,0,0,0,0,0,0,81,83,134,120,48,95.73,114,-38.00,4.00,-967.00
2024-06-07 01:12:00.143952,0,0,0,0,0,0,81,83,135,120,48,95.61,114,-1.00,1.00,-969.00
2024-06-07 01:12:00.215370,0,0,0,0,0,0,81,83,134,120,48,95.46,114,9.00,-4.00,-1010.00
2024-06-07 01:12:00.320229,0,0,0,0,0,0,81,83,134,120,48,95.75,114,16.00,-8.00,-947.00
2024-06-07 01:12:00.420616,0,0,0,0,0,0,81,83,134,120,48,95.56,114,-11.00,27.00,-982.00
2024-06-07 01:12:00.522776,0,0,0,0,0,0,81,83,133,120,48,95.59,114,-36.00,28.00,-1030.00
2024-06-07 01:12:00.623317,0,0,0,0,0,0,81,83,133,120,48,95.69,114,7.00,28.00,-1000.00
2024-06-07 01:12:00.726129,0,0,0,0,0,0,81,83,133,120,48,95.76,114,8.00,22.00,-999.00
2024-06-07 01:12:00.829723,0,-1,0,0,0,0,81,83,133,120,48,95.51,115,27.00,3.00,-1003.00
2024-06-07 01:12:00.929181,0,0,0,0,0,0,81,83,132,120,48,95.69,115,11.00,-9.00,-942.00
2024-06-07 01:12:01.031150,0,0,0,0,0,0,81,83,132,120,48,95.71,115,8.00,-9.00,-1010.00
2024-06-07 01:12:01.133224,0,0,0,0,0,0,81,83,132,120,48,95.81,115,14.00,6.00,-1026.00
2024-06-07 01:12:01.272175,0,0,0,0,0,0,81,83,131,120,48,95.63,115,0.00,21.00,-1063.00
2024-06-07 01:12:01.337134,0,0,0,0,0,0,81,83,131,120,48,95.78,115,-1.00,10.00,-1036.00
2024-06-07 01:12:01.474865,0,0,2,0,0,0,81,83,132,120,48,95.52,115,22.00,-5.00,-982.00
2024-06-07 01:12:01.541498,0,0,8,0,0,0,81,83,131,120,48,95.84,115,25.00,14.00,-1032.00
2024-06-07 01:12:01.681462,0,0,13,0,0,0,81,83,130,120,48,95.44,115,7.00,6.00,-999.00
2024-06-07 01:12:01.744998,0,0,19,0,0,0,81,83,130,120,48,95.75,115,5.00,10.00,-1029.00
2024-06-07 01:12:01.886275,0,0,25,0,0,0,81,83,130,120,48,95.43,116,6.00,-1.00,-953.00
2024-06-07 01:12:01.949006,0,0,31,0,0,0,81,83,130,120,48,95.53,116,-6.00,17.00,-1067.00
2024-06-07 01:12:02.051064,0,0,37,0,0,0,81,83,130,120,48,95.46,116,1.00,-16.00,-968.00
2024-06-07 01:12:02.205277,0,0,43,0,0,0,81,83,130,120,48,95.61,116,0.00,-6.00,-1010.00
2024-06-07 01:12:02.347521,0,0,49,0,0,0,81,83,130,120,48,95.69,116,-30.00,3.00,-1043.00
2024-06-07 01:12:02.358144,0,0,55,0,0,0,81,83,130,120,48,95.62,116,-17.00,31.00,-1013.00
2024-06-07 01:12:02.484642,0,0,61,0,0,0,81,84,130,120,48,95.58,116,33.00,-9.00,-1002.00
2024-06-07 01:12:02.560971,0,0,66,0,0,0,81,84,130,120,48,95.32,116,4.00,-1.00,-995.00
2024-06-07 01:12:02.664667,0,0,72,0,0,0,81,84,130,120,48,95.65,116,23.00,5.00,-992.00
2024-06-07 01:12:02.765312,0,0,78,0,0,0,81,84,131,120,48,95.38,116,10.00,19.00,-987.00
2024-06-07 01:12:02.867628,0,0,84,0,0,0,81,84,131,120,47,95.53,117,-1.00,-6.00,-971.00
2024-06-07 01:12:02.921784,0,-1,90,0,0,0,81,84,131,120,47,95.25,117,7.00,-18.00,-1000.00
2024-06-07 01:12:03.032862,0,0,96,0,0,0,81,84,131,120,47,95.51,117,-18.00,6.00,-1007.00
2024-06-07 01:12:03.197398,0,0,102,0,0,0,81,84,132,120,47,95.51,117,9.00,4.00,-983.00
2024-06-07 01:12:03.245291,0,0,108,0,0,0,81,84,132,120,47,95.44,117,0.00,6.00,-1017.00
2024-06-07 01:12:03.431451,0,0,114,0,0,0,81,84,132,120,47,95.57,117,-19.00,21.00,-1027.00
2024-06-07 01:12:03.431605,0,0,120,0,0,0,82,84,131,120,47,95.81,117,-10.00,29.00,-1059.00
2024-06-07 01:12:03.574347,0,0,126,0,0,0,82,84,132,120,47,95.78,117,-11.00,-12.00,-997.00
2024-06-07 01:12:03.739578,0,0,132,0,0,0,82,84,132,120,47,95.52,117,17.00,10.00,-970.00
2024-06-07 01:12:03.739634,0,0,138,0,0,0,82,84,131,120,47,95.43,117,-10.00,11.00,-935.00
2024-06-07 01:12:03.882358,0,0,144,0,0,0,82,84,132,120,47,95.40,118,-8.00,11.00,-1035.00
2024-06-07 01:12:04.046219,0,0,150,0,0,0,82,84,131,120,47,95.78,118,-9.00,6.00,-1001.00
2024-06-07 01:12:04.046995,0,0,156,0,0,0,82,84,131,120,47,95.63,118,-19.00,20.00,-1046.00
2024-06-07 01:12:04.189424,0,0,162,0,0,0,82,84,130,120,47,95.46,118,-4.00,28.00,-988.00
2024-06-07 01:12:04.353167,0,0,168,0,0,0,82,84,130,120,47,95.41,118,-20.00,-2.00,-955.00
2024-06-07 01:12:04.353225,0,0,174,0,0,0,82,84,130,120,47,95.72,118,-4.00,5.00,-1000.00
2024-06-07 01:12:04.447757,0,0,-179,0,0,0,81,85,130,120,47,95.58,118,1.00,0.00,-1056.00
2024-06-07 01:12:04.653610,0,0,-173,0,0,0,81,85,129,120,47,95.82,118,-6.00,18.00,-1020.00
2024-06-07 01:12:04.653694,0,0,-167,0,0,0,81,85,130,120,47,95.76,118,-68.00,5.00,-974.00
2024-06-07 01:12:04.753865,0,0,-161,0,0,0,81,85,129,120,47,95.63,118,-17.00,35.00,-1020.00
2024-06-07 01:12:04.855844,0,0,-155,0,0,0,81,85,129,120,47,95.62,119,-36.00,3.00,-991.00
2024-06-07 01:12:05.058350,0,0,-149,0,0,0,81,85,129,120,47,95.51,119,-27.00,27.00,-1025.00
2024-06-07 01:12:05.059696,0,0,-143,0,0,0,81,85,129,120,47,95.45,119,-17.00,9.00,-1019.00
2024-06-07 01:12:05.161787,0,0,-137,0,0,0,81,85,129,120,47,95.55,119,-12.00,19.00,-967.00
2024-06-07 01:12:05.369399,0,0,-131,0,0,0,81,85,128,120,47,95.34,119,-7.00,35.00,-978.00
2024-06-07 01:12:05.369467,0,0,-125,0,0,0,81,85,128,120,47,95.62,119,-52.00,16.00,-947.00
2024-06-07 01:12:05.467618,0,0,-119,0,0,0,82,84,128,120,47,95.36,119,-10.00,19.00,-992.00
2024-06-07 01:12:05.570885,0,0,-113,0,0,0,82,84,127,110,47,95.58,119,-11.00,-5.00,-944.00
2024-06-07 01:12:05.673671,0,1,-107,0,0,0,82,84,126,110,47,95.33,119,4.00,22.00,-1041.00
2024-06-07 01:12:05.774871,0,1,-101,0,0,0,82,84,127,110,47,95.47,119,-10.00,18.00,-1005.00
2024-06-07 01:12:05.880495,0,1,-95,0,0,0,82,84,126,110,47,95.28,120,-3.00,45.00,-1011.00
2024-06-07 01:12:05.977608,0,0,-89,0,0,0,82,84,126,110,47,95.43,120,-17.00,17.00,-1033.00
2024-06-07 01:12:06.079505,0,1,-84,0,0,0,82,84,126,110,47,95.46,120,-9.00,36.00,-1033.00
2024-06-07 01:12:06.184699,0,0,-78,0,0,0,82,84,126,110,47,95.56,120,-11.00,-3.00,-1014.00
2024-06-07 01:12:06.283560,0,0,-72,0,0,0,82,84,126,110,47,95.55,120,-3.00,-8.00,-1015.00
2024-06-07 01:12:06.385549,0,0,-66,0,0,0,82,84,127,110,47,95.18,120,13.00,11.00,-966.00
2024-06-07 01:12:06.491786,0,0,-60,0,0,0,81,84,126,110,47,95.74,120,1.00,-5.00,-980.00
2024-06-07 01:12:06.589582,0,0,-54,0,0,0,81,84,127,110,47,95.60,120,11.00,16.00,-1022.00
2024-06-07 01:12:06.640409,0,0,-48,0,0,0,81,84,127,110,47,95.36,120,-29.00,4.00,-959.00
2024-06-07 01:12:06.799077,0,0,-42,0,0,0,81,84,128,110,46,95.58,120,10.00,4.00,-1039.00
2024-06-07 01:12:06.844474,0,0,-36,0,0,0,81,84,127,110,46,95.59,121,-21.00,16.00,-965.00
2024-06-07 01:12:07.005820,0,0,-30,0,0,0,81,84,127,110,46,95.53,121,-23.00,-12.00,-936.00
2024-06-07 01:12:07.048448,0,0,-24,0,0,0,81,84,128,120,46,95.17,121,-5.00,7.00,-991.00
2024-06-07 01:12:07.150460,0,0,-19,0,0,0,81,84,128,120,46,95.51,121,-14.00,17.00,-971.00
2024-06-07 01:12:07.312089,0,0,-14,0,0,0,81,84,128,120,46,95.63,121,-53.00,0.00,-1019.00
2024-06-07 01:12:07.354513,0,0,-10,0,0,0,81,84,128,120,46,95.54,121,-8.00,-25.00,-944.00
2024-06-07 01:12:07.515845,0,0,-8,0,0,0,80,84,129,120,46,95.41,121,-28.00,5.00,-1016.00
2024-06-07 01:12:07.558438,0,0,-6,0,0,0,80,84,129,120,46,95.75,121,0.00,-12.00,-1003.00
2024-06-07 01:12:07.720628,0,0,-4,0,0,0,80,84,129,120,46,95.74,121,-41.00,-13.00,-972.00
2024-06-07 01:12:07.762353,0,0,-3,0,0,0,80,84,128,120,46,95.67,121,-9.00,7.00,-978.00
2024-06-07 01:12:07.925411,0,0,-2,0,0,0,80,84,128,120,46,95.13,122,-23.00,-3.00,-979.00
2024-06-07 01:12:07.966645,1,0,-1,0,0,0,80,84,128,120,46,95.37,122,15.00,-10.00,-985.00
2024-06-07 01:12:08.069823,1,0,-1,0,0,0,80,84,128,120,46,95.34,122,-3.00,-21.00,-975.00
2024-06-07 01:12:08.232795,1,0,-1,0,0,0,80,84,127,110,46,95.56,122,21.00,-27.00,-1007.00
2024-06-07 01:12:08.272738,0,0,-1,0,0,0,80,84,126,110,46,95.82,122,7.00,14.00,-996.00
2024-06-07 01:12:08.438315,0,0,-1,0,0,0,80,84,126,110,46,95.76,122,0.00,25.00,-1009.00
2024-06-07 01:12:08.476394,0,0,-1,0,0,0,80,84,126,110,46,95.66,122,-38.00,-7.00,-984.00
2024-06-07 01:12:08.643592,0,0,-1,0,0,0,80,84,125,110,46,95.69,122,10.00,-5.00,-1033.00
2024-06-07 01:12:08.680600,0,0,-1,0,0,0,80,84,126,110,46,95.34,122,-24.00,-6.00,-1022.00
2024-06-07 01:12:08.847268,0,0,-1,0,0,0,80,84,125,110,46,95.36,122,8.00,18.00,-992.00
2024-06-07 01:12:08.884746,0,0,-1,0,0,0,80,84,126,110,46,95.50,123,17.00,-15.00,-974.00
2024-06-07 01:12:09.052841,0,0,-1,0,0,0,80,84,126,110,46,95.54,123,-5.00,12.00,-1019.00
2024-06-07 01:12:09.088552,0,0,-1,0,0,0,80,84,126,110,46,95.81,123,-10.00,5.00,-967.00
2024-06-07 01:12:09.256773,0,0,-1,0,0,0,80,84,126,110,46,95.41,123,2.00,11.00,-1028.00
2024-06-07 01:12:09.293478,0,0,-1,0,0,0,80,84,126,110,46,95.46,123,10.00,-6.00,-983.00
2024-06-07 01:12:09.461591,0,0,-1,0,0,0,80,84,126,110,46,95.48,123,-4.00,9.00,-1025.00
2024-06-07 01:12:09.497368,0,0,-1,0,0,0,82,83,126,110,46,95.32,123,16.00,5.00,-1021.00
2024-06-07 01:12:09.667122,0,0,-1,0,0,0,82,83,127,110,46,95.44,123,2.00,16.00,-976.00
2024-06-07 01:12:09.701476,0,0,-1,0,0,0,82,83,127,110,46,95.63,123,-15.00,-9.00,-1008.00
2024-06-07 01:12:09.805421,0,0,-1,0,0,0,82,83,126,110,46,95.40,123,-21.00,3.00,-995.00
2024-06-07 01:12:09.905604,0,0,-1,0,0,0,82,83,127,110,46,95.53,124,14.00,23.00,-1029.00
2024-06-07 01:12:10.007263,0,0,-1,0,0,0,82,83,126,110,46,95.33,124,1.00,-1.00,-974.00
2024-06-07 01:12:10.178109,0,0,-1,0,0,0,82,83,127,110,46,95.55,124,-20.00,5.00,-1036.00
2024-06-07 01:12:10.178178,0,0,-5,0,0,0,82,83,128,110,46,95.69,124,-18.00,16.00,-999.00
2024-06-07 01:12:10.263128,0,0,-10,0,0,0,82,83,128,110,46,95.43,124,5.00,0.00,-982.00
2024-06-07 01:12:10.382872,0,0,-16,0,0,0,82,83,128,110,46,95.54,124,-11.00,3.00,-1010.00
2024-06-07 01:12:10.468329,0,0,-22,0,0,0,82,84,128,120,46,95.58,124,-27.00,7.00,-963.00
2024-06-07 01:12:10.587675,0,0,-28,0,0,0,82,84,128,120,46,95.48,124,-8.00,-9.00,-930.00
2024-06-07 01:12:10.671098,0,-1,-33,0,0,0,82,84,129,120,46,95.48,124,-14.00,0.00,-942.00
2024-06-07 01:12:10.792882,0,-1,-39,0,0,0,82,84,129,120,45,95.38,124,-28.00,11.00,-965.00
2024-06-07 01:12:10.875280,1,-1,-45,0,0,0,82,84,130,120,45,95.32,125,28.00,19.00,-1041.00
2024-06-07 01:12:10.997247,0,-1,-51,0,0,0,82,84,130,120,45,95.44,125,-4.00,18.00,-1024.00
2024-06-07 01:12:11.079642,0,-1,-56,0,0,0,82,84,130,120,45,95.45,125,-3.00,36.00,-1013.00
2024-06-07 01:12:11.202005,0,0,-62,0,0,0,82,84,130,120,45,95.09,125,16.00,-11.00,-1005.00
2024-06-07 01:12:11.283684,0,0,-68,0,0,0,82,84,129,120,45,95.46,125,-10.00,23.00,-988.00
2024-06-07 01:12:11.406857,0,0,-73,0,0,0,82,84,129,120,45,95.67,125,1.00,25.00,-1013.00
2024-06-07 01:12:11.487052,0,0,-79,0,0,0,82,84,130,120,45,95.75,125,-10.00,-7.00,-992.00
2024-06-07 01:12:11.612716,0,0,-85,0,0,0,82,84,130,120,45,95.62,125,8.00,26.00,-1005.00
2024-06-07 01:12:11.691297,1,0,-90,0,0,0,82,84,130,120,45,95.62,125,13.00,18.00,-1026.00
2024-06-07 01:12:11.819798,1,0,-96,0,0,0,82,84,131,120,45,95.37,125,7.00,6.00,-956.00
2024-06-07 01:12:11.896937,1,0,-102,0,0,0,82,84,131,120,45,95.69,126,7.00,34.00,-994.00
2024-06-07 01:12:11.996980,1,0,-108,0,0,0,82,84,132,120,45,95.46,126,-25.00,38.00,-1016.00
2024-06-07 01:12:12.123860,1,0,-114,0,0,0,82,84,132,120,45,95.57,126,10.00,-19.00,-963.00
2024-06-07 01:12:12.201106,0,0,-119,0,0,0,82,84,132,120,45,95.46,126,-6.00,17.00,-1040.00
2024-06-07 01:12:12.328402,0,0,-125,0,0,0,82,84,133,120,45,95.69,126,26.00,23.00,-951.00
2024-06-07 01:12:12.404952,0,0,-131,0,0,0,82,84,133,120,45,95.33,126,8.00,16.00,-1031.00
2024-06-07 01:12:12.533199,0,0,-137,0,0,0,81,84,133,120,45,95.49,126,-10.00,16.00,-959.00
2024-06-07 01:12:12.609030,0,0,-143,0,0,0,81,84,133,120,45,95.62,126,-22.00,34.00,-992.00
2024-06-07 01:12:12.737924,0,0,-149,0,0,0,81,84,134,120,45,95.60,126,15.00,-18.00,-959.00
2024-06-07 01:12:12.812945,0,0,-155,0,0,0,81,84,133,120,45,95.36,126,0.00,43.00,-1019.00
2024-06-07 01:12:12.944748,0,0,-160,0,0,0,81,84,134,120,45,95.29,127,-7.00,10.00,-980.00
2024-06-07 01:12:13.022962,0,0,-166,0,0,0,81,84,134,120,45,95.53,127,-3.00,45.00,-987.00
2024-06-07 01:12:13.119353,0,0,-172,0,0,0,81,84,134,120,45,95.48,127,-53.00,21.00,-977.00
2024-06-07 01:12:13.221862,0,0,-178,0,0,0,81,84,133,120,45,95.79,127,-13.00,31.00,-989.00
2024-06-07 01:12:13.323167,0,0,175,0,0,0,81,84,134,120,45,95.54,127,-10.00,7.00,-1021.00
2024-06-07 01:12:13.425167,0,0,169,0,0,0,81,84,134,120,45,95.30,127,-46.00,18.00,-976.00
2024-06-07 01:12:13.527021,0,0,163,0,0,0,81,84,134,120,45,95.39,127,-21.00,14.00,-1022.00
2024-06-07 01:12:13.630126,0,0,157,0,0,0,81,84,133,120,45,95.58,127,-11.00,18.00,-971.00
2024-06-07 01:12:13.679916,0,0,151,0,0,0,81,84,133,120,45,95.71,127,-13.00,33.00,-1019.00
2024-06-07 01:12:13.864348,0,0,145,0,0,0,81,84,134,120,45,95.59,127,-9.00,15.00,-1024.00
2024-06-07 01:12:13.883861,0,0,139,0,0,0,81,84,134,120,45,95.88,128,7.00,4.00,-999.00
2024-06-07 01:12:14.069553,1,0,134,0,0,0,81,84,133,120,45,95.38,128,6.00,15.00,-977.00
2024-06-07 01:12:14.087845,1,0,128,0,0,0,81,84,133,120,45,95.44,128,-17.00,33.00,-992.00
2024-06-07 01:12:14.273962,1,-1,122,0,0,0,81,84,133,120,45,95.42,128,-21.00,25.00,-1003.00
2024-06-07 01:12:14.291901,1,-1,116,0,0,0,81,84,133,120,45,95.57,128,16.00,31.00,-1024.00
2024-06-07 01:12:14.478730,0,-1,110,0,0,0,81,84,133,120,45,95.80,128,16.00,-7.00,-971.00
2024-06-07 01:12:14.496797,0,-1,105,0,0,0,81,84,133,120,45,95.59,128,3.00,19.00,-985.00
2024-06-07 01:12:14.683952,0,-1,99,0,0,0,81,84,133,120,45,95.69,128,-15.00,7.00,-984.00
2024-06-07 01:12:14.699749,0,0,93,0,0,0,81,84,134,120,45,95.38,128,-39.00,36.00,-1011.00
2024-06-07 01:12:14.888991,0,0,87,0,0,0,81,84,134,120,45,95.29,128,-10.00,27.00,-1021.00
2024-06-07 01:12:14.903623,0,-1,81,0,0,0,81,84,136,120,45,95.56,129,2.00,2.00,-992.00
2024-06-07 01:12:15.093098,0,0,75,0,0,0,81,84,136,120,45,95.63,129,10.00,21.00,-992.00
2024-06-07 01:12:15.109553,0,0,69,0,0,0,81,84,137,120,45,95.38,129,-38.00,16.00,-989.00
2024-06-07 01:12:15.209754,0,0,63,0,0,0,81,84,138,120,45,95.50,129,-20.00,42.00,-996.00
2024-06-07 01:12:15.311754,0,0,57,0,0,0,81,84,139,120,45,95.33,129,6.00,41.00,-1029.00
2024-06-07 01:12:15.503759,0,-1,51,0,0,0,81,84,140,120,45,95.63,129,29.00,-12.00,-996.00
2024-06-07 01:12:15.515720,1,0,39,0,0,0,82,84,140,120,45,95.41,129,35.00,-10.00,-990.00
2024-06-07 01:12:15.707490,1,0,32,0,0,0,82,84,141,120,45,95.52,129,3.00,8.00,-1008.00
2024-06-07 01:12:15.719681,1,-1,26,0,0,0,82,84,140,120,45,95.32,129,17.00,31.00,-1012.00
2024-06-07 01:12:15.912374,1,-1,20,0,0,0,82,84,139,120,45,95.30,130,-2.00,7.00,-969.00
2024-06-07 01:12:15.925298,0,-1,15,0,0,0,82,84,139,120,45,95.82,130,-40.00,9.00,-979.00
2024-06-07 01:12:16.027443,0,-1,11,0,0,0,82,84,137,120,45,95.49,130,39.00,-15.00,-965.00
2024-06-07 01:12:16.219463,0,-1,8,0,0,1,82,84,135,120,45,95.30,130,-11.00,27.00,-973.00
2024-06-07 01:12:16.232217,0,-1,5,0,0,1,82,84,133,120,45,95.44,130,19.00,1.00,-949.00
2024-06-07 01:12:16.332761,0,-1,4,0,0,1,82,84,132,120,45,95.48,130,0.00,32.00,-1011.00
2024-06-07 01:12:16.526605,0,-1,2,0,0,1,82,84,130,120,45,95.47,130,6.00,27.00,-1041.00
2024-06-07 01:12:16.536574,0,0,1,0,0,1,82,83,129,120,45,95.73,130,28.00,17.00,-1026.00
2024-06-07 01:12:16.731415,0,0,0,0,0,0,82,83,128,110,45,95.59,130,24.00,10.00,-1044.00
2024-06-07 01:12:16.740575,0,0,0,0,0,0,82,83,127,110,45,95.93,130,0.00,21.00,-1040.00
2024-06-07 01:12:16.936430,0,0,0,0,0,0,82,83,127,110,44,95.46,131,25.00,0.00,-980.00
2024-06-07 01:12:16.949305,0,0,0,0,0,0,82,83,126,110,44,95.40,131,0.00,21.00,-1000.00
2024-06-07 01:12:17.116802,0,0,0,0,0,0,82,83,126,110,44,95.70,131,3.00,31.00,-1004.00
2024-06-07 01:12:17.259212,0,-1,0,0,0,0,82,83,126,110,44,95.46,131,21.00,-2.00,-958.00
2024-06-07 01:12:17.259406,0,-1,0,0,0,0,82,83,127,110,44,95.45,131,0.00,35.00,-987.00
2024-06-07 01:12:17.376789,0,-1,0,0,0,0,82,83,128,110,44,95.50,131,-5.00,26.00,-984.00
2024-06-07 01:12:17.443663,0,-1,0,0,0,0,82,83,128,110,44,95.52,131,-9.00,25.00,-994.00
2024-06-07 01:12:17.550664,0,-1,0,0,0,0,81,84,128,110,44,95.47,131,16.00,12.00,-1018.00
2024-06-07 01:12:17.607887,0,-1,0,0,0,0,81,84,128,110,44,95.56,131,6.00,-9.00,-989.00
2024-06-07 01:12:17.727265,0,0,0,0,0,0,81,84,128,110,44,95.48,131,-18.00,-2.00,-967.00
2024-06-07 01:12:17.889924,0,0,0,0,0,0,81,84,129,110,44,95.74,132,4.00,22.00,-998.00
2024-06-07 01:12:17.913693,0,0,0,0,0,0,81,84,129,110,44,95.55,132,7.00,20.00,-1001.00
2024-06-07 01:12:18.043660,0,0,0,0,0,0,81,84,130,110,44,95.68,132,8.00,13.00,-1025.00
2024-06-07 01:12:18.227438,0,0,0,0,0,0,81,84,131,120,44,95.35,132,0.00,7.00,-996.00
2024-06-07 01:12:18.227634,0,0,0,0,0,0,81,84,131,120,44,95.40,132,-8.00,14.00,-959.00
2024-06-07 01:12:18.321584,0,-1,0,0,0,0,81,84,132,120,44,95.61,132,7.00,11.00,-1044.00
2024-06-07 01:12:18.484469,0,-1,0,0,0,0,81,84,132,120,44,95.44,132,13.00,9.00,-953.00
2024-06-07 01:12:18.626563,0,-1,0,0,0,0,81,84,133,120,44,95.51,132,2.00,14.00,-1025.00
2024-06-07 01:12:18.627474,0,-1,0,0,0,0,81,84,134,120,44,95.45,132,7.00,22.00,-972.00
2024-06-07 01:12:18.792354,0,-1,0,0,0,0,81,84,134,120,44,95.73,132,9.00,8.00,-1011.00
2024-06-07 01:12:18.935321,0,-1,0,0,0,0,81,84,134,120,44,95.34,133,7.00,19.00,-961.00
2024-06-07 01:12:18.935608,0,-1,0,0,0,0,81,84,134,120,44,95.75,133,10.00,13.00,-1006.00
2024-06-07 01:12:19.097804,0,-1,0,0,0,0,81,84,133,120,44,95.53,133,15.00,2.00,-1016.00
2024-06-07 01:12:19.240991,0,-2,0,0,0,0,81,84,132,120,44,95.55,133,1.00,16.00,-980.00
2024-06-07 01:12:19.241187,0,-1,0,0,0,0,81,84,132,120,44,95.41,133,-17.00,44.00,-1031.00
2024-06-07 01:12:19.405073,0,-2,0,0,0,0,81,84,131,120,44,95.62,133,5.00,19.00,-988.00
2024-06-07 01:12:19.460714,0,-1,0,0,0,0,81,84,131,120,44,95.93,133,1.00,26.00,-1013.00
2024-06-07 01:12:19.545223,0,-1,0,0,0,0,81,84,131,120,44,95.62,133,-8.00,26.00,-1030.00
2024-06-07 01:12:19.700971,0,-1,0,0,0,0,81,84,130,120,44,95.29,133,-12.00,16.00,-1008.00
2024-06-07 01:12:19.749515,0,-1,0,0,0,0,81,84,129,120,44,95.45,133,-34.00,23.00,-979.00
2024-06-07 01:12:19.906040,0,-1,0,0,0,0,81,84,129,120,44,95.45,134,1.00,17.00,-1020.00
2024-06-07 01:12:19.953408,0,-1,0,0,0,0,81,84,128,120,44,95.51,134,3.00,22.00,-988.00
2024-06-07 01:12:20.055418,0,-1,0,0,0,0,81,84,128,110,44,95.71,134,18.00,29.00,-1042.00
2024-06-07 01:12:20.213276,0,-1,0,0,0,0,81,84,128,110,44,95.59,134,-9.00,56.00,-1081.00
2024-06-07 01:12:20.259431,0,-1,0,0,0,0,81,84,127,110,44,95.46,134,-35.00,25.00,-1029.00
2024-06-07 01:12:20.418356,0,-1,0,0,0,0,81,84,128,110,44,95.36,134,-33.00,21.00,-996.00
2024-06-07 01:12:20.463347,0,-1,0,0,0,0,81,84,127,110,44,95.68,134,14.00,7.00,-927.00
2024-06-07 01:12:20.624112,0,-1,0,0,0,0,82,84,127,110,44,95.48,134,8.00,45.00,-1001.00
2024-06-07 01:12:20.667360,0,-1,0,0,0,0,82,84,127,110,44,95.69,134,-11.00,3.00,-991.00
2024-06-07 01:12:20.827476,0,-1,0,0,0,0,82,84,127,110,44,95.32,134,-37.00,13.00,-1000.00
2024-06-07 01:12:20.871345,0,-1,0,0,0,0,82,84,128,110,44,95.49,135,-38.00,25.00,-1022.00
2024-06-07 01:12:20.922251,0,-1,0,0,0,0,82,84,127,110,44,95.57,135,-5.00,28.00,-952.00
2024-06-07 01:12:21.032653,0,-1,0,0,0,0,82,84,127,110,44,95.78,135,24.00,8.00,-1025.00
2024-06-07 01:12:21.126590,0,-1,0,0,0,0,82,84,127,110,44,95.53,135,-7.00,36.00,-984.00
2024-06-07 01:12:21.237042,0,-1,0,0,0,0,82,84,127,110,44,95.65,135,-11.00,20.00,-1001.00
2024-06-07 01:12:21.330220,0,-1,0,0,0,0,82,84,127,110,44,95.68,135,22.00,11.00,-1013.00
2024-06-07 01:12:21.441852,0,-1,0,0,0,0,82,84,128,110,44,95.48,135,-13.00,15.00,-979.00
2024-06-07 01:12:21.534178,0,-1,0,0,0,0,82,83,128,110,44,95.48,135,-11.00,30.00,-970.00
2024-06-07 01:12:21.636369,0,-1,0,0,0,0,82,83,128,110,44,95.25,135,5.00,8.00,-1004.00
2024-06-07 01:12:21.749275,0,-1,0,0,0,0,82,83,129,110,44,95.57,135,-7.00,43.00,-1070.00
2024-06-07 01:12:21.841812,0,-1,0,0,0,0,82,83,129,110,44,95.64,136,-15.00,2.00,-1023.00
2024-06-07 01:12:21.942068,0,-1,0,0,0,0,82,83,129,120,44,95.38,136,-5.00,30.00,-1040.00
2024-06-07 01:12:22.044976,0,-1,0,0,0,0,82,83,130,120,44,95.39,136,9.00,14.00,-1003.00
2024-06-07 01:12:22.146234,0,-1,0,0,0,0,82,83,130,120,44,95.48,136,-11.00,37.00,-991.00
2024-06-07 01:12:22.261164,0,-1,0,0,0,0,82,83,130,120,44,95.44,136,-6.00,21.00,-1039.00
2024-06-07 01:12:22.350126,0,-1,0,0,0,0,82,83,130,120,44,95.81,136,18.00,13.00,-937.00
2024-06-07 01:12:22.455240,0,-1,0,0,0,0,82,83,131,120,44,95.77,136,0.00,2.00,-970.00
2024-06-07 01:12:22.556365,0,-1,0,0,0,0,82,84,131,120,44,95.30,136,-65.00,25.00,-1005.00
2024-06-07 01:12:22.656267,-1,-1,0,0,0,0,82,84,132,120,44,95.44,136,3.00,30.00,-1031.00
2024-06-07 01:12:22.772813,-1,-1,0,0,0,0,82,84,133,120,44,95.52,136,-24.00,21.00,-979.00
2024-06-07 01:12:22.860253,0,-1,0,0,0,0,82,84,132,120,44,95.47,137,0.00,16.00,-970.00
2024-06-07 01:12:22.978077,0,-1,0,0,0,0,82,84,133,120,44,95.73,137,-12.00,13.00,-1019.00
2024-06-07 01:12:23.064187,0,-1,0,0,0,0,82,84,133,120,44,95.44,137,-21.00,11.00,-999.00
2024-06-07 01:12:23.166106,0,0,0,0,0,0,82,84,132,120,44,95.52,137,26.00,-4.00,-947.00
2024-06-07 01:12:23.284851,0,0,0,0,0,0,82,84,133,120,44,95.49,137,2.00,30.00,-1031.00
2024-06-07 01:12:23.370020,0,-1,0,0,0,0,82,84,133,120,44,95.43,137,-21.00,10.00,-1000.00
2024-06-07 01:12:23.489627,0,0,0,0,0,0,82,84,132,120,44,95.55,137,16.00,21.00,-1048.00
2024-06-07 01:12:23.573914,0,-1,0,0,0,0,81,83,132,120,44,95.39,137,-25.00,8.00,-1000.00
2024-06-07 01:12:23.694520,0,-1,0,0,0,0,81,83,131,120,44,95.63,137,0.00,14.00,-988.00
2024-06-07 01:12:23.778147,0,-1,0,0,0,0,81,83,131,120,44,95.41,137,-15.00,7.00,-965.00
2024-06-07 01:12:23.899373,0,-1,0,0,0,0,81,83,131,120,44,95.41,138,12.00,20.00,-1013.00
2024-06-07 01:12:23.982039,0,-1,0,0,0,0,81,83,131,120,44,95.97,138,2.00,-2.00,-1025.00
2024-06-07 01:12:24.084105,0,-1,0,0,0,0,81,83,131,120,44,95.77,138,-10.00,38.00,-1020.00
2024-06-07 01:12:24.206662,0,-1,0,0,0,0,81,83,131,120,44,95.48,138,-20.00,22.00,-955.00
2024-06-07 01:12:24.288166,0,-1,0,0,0,0,81,83,131,120,44,95.57,138,1.00,27.00,-998.00
2024-06-07 01:12:24.340072,0,-1,0,0,0,0,81,83,131,120,44,95.74,138,0.00,12.00,-974.00
2024-06-07 01:12:24.513629,0,-1,0,0,0,0,81,83,132,120,44,95.51,138,8.00,29.00,-975.00
2024-06-07 01:12:24.593964,0,-1,0,0,0,0,81,84,132,120,44,95.63,138,0.00,26.00,-1024.00
2024-06-07 01:12:24.646090,0,-1,0,0,0,0,81,84,131,120,44,95.70,138,-24.00,13.00,-1010.00
2024-06-07 01:12:24.821147,0,-1,0,0,0,0,81,84,132,120,43,95.47,138,-11.00,7.00,-1005.00
2024-06-07 01:12:24.852368,0,-1,0,0,0,0,81,84,131,120,43,95.80,139,-3.00,25.00,-1016.00
2024-06-07 01:12:24.952116,0,-1,0,0,0,0,81,84,131,120,43,95.72,139,-6.00,9.00,-1003.00
2024-06-07 01:12:25.056800,0,-1,0,0,0,0,81,84,132,120,43,95.42,139,-33.00,38.00,-997.00
2024-06-07 01:12:25.155019,0,0,0,0,0,0,81,84,132,120,43,95.33,139,-10.00,22.00,-966.00
2024-06-07 01:12:25.332870,0,0,0,0,0,0,81,84,131,120,43,95.57,139,28.00,-2.00,-955.00
2024-06-07 01:12:25.358961,0,-1,0,0,0,0,81,84,131,120,43,95.44,139,-8.00,43.00,-1062.00
2024-06-07 01:12:25.537791,0,-1,0,0,0,0,81,84,131,120,43,95.39,139,-9.00,33.00,-1016.00
2024-06-07 01:12:25.562860,0,-1,0,0,0,0,82,84,132,120,43,95.63,139,8.00,0.00,-997.00
2024-06-07 01:12:25.742456,0,-1,0,0,0,0,82,84,131,120,43,95.59,139,7.00,-4.00,-1016.00
2024-06-07 01:12:25.766929,0,0,0,0,0,0,82,84,130,120,43,95.66,139,0.00,6.00,-983.00
2024-06-07 01:12:25.947296,0,0,0,0,0,0,82,84,130,120,43,95.69,140,13.00,15.00,-986.00
2024-06-07 01:12:25.970808,0,0,0,0,0,0,82,84,131,120,43,95.46,140,26.00,12.00,-978.00
2024-06-07 01:12:26.152150,0,0,0,0,0,0,82,84,131,120,43,95.72,140,-9.00,42.00,-1007.00
2024-06-07 01:12:26.174888,0,0,0,0,0,0,82,84,131,120,43,95.69,140,-17.00,35.00,-998.00
2024-06-07 01:12:26.356641,0,-1,0,0,0,0,82,84,132,120,43,95.58,140,-2.00,28.00,-1056.00
2024-06-07 01:12:26.378790,0,-1,0,0,0,0,82,84,132,120,43,95.50,140,-4.00,27.00,-1006.00
2024-06-07 01:12:26.562016,0,-1,0,0,0,0,82,84,132,120,43,95.44,140,-8.00,25.00,-986.00
2024-06-07 01:12:26.582793,0,-1,0,0,0,0,82,83,133,120,43,95.54,140,10.00,42.00,-966.00
2024-06-07 01:12:26.766708,0,-1,0,0,0,0,82,83,133,120,43,95.31,140,-7.00,15.00,-966.00
2024-06-07 01:12:26.786856,0,-1,0,0,0,0,82,83,132,120,43,95.45,140,-7.00,15.00,-1023.00
2024-06-07 01:12:26.971182,0,-1,0,0,0,0,82,83,131,120,43,95.52,141,10.00,18.00,-999.00
2024-06-07 01:12:26.991409,0,-1,0,0,0,0,82,83,130,120,43,95.68,141,13.00,17.00,-1005.00
2024-06-07 01:12:27.093122,0,0,0,0,0,0,82,83,130,120,43,95.46,141,0.00,11.00,-1029.00
2024-06-07 01:12:27.278459,0,0,0,0,0,0,82,83,129,120,43,95.29,141,-1.00,0.00,-1013.00
2024-06-07 01:12:27.296619,0,0,0,0,0,0,82,83,129,120,43,95.47,141,-4.00,36.00,-977.00
2024-06-07 01:12:27.398806,0,0,0,0,0,0,82,83,128,120,43,95.49,141,13.00,31.00,-1043.00
2024-06-07 01:12:27.585512,0,0,0,0,0,0,82,83,128,110,43,95.44,141,-31.00,31.00,-1021.00
2024-06-07 01:12:27.603173,0,0,0,0,0,0,82,83,127,110,43,95.44,141,3.00,-4.00,-1040.00
2024-06-07 01:12:27.790431,0,0,0,0,0,0,82,83,127,110,43,95.60,141,-23.00,19.00,-973.00
2024-06-07 01:12:27.806589,0,0,0,0,0,0,82,83,128,110,43,95.61,141,4.00,-5.00,-1007.00
2024-06-07 01:12:27.995203,0,0,0,0,0,0,82,83,128,110,43,95.65,142,-17.00,2.00,-989.00
2024-06-07 01:12:28.010665,0,0,0,0,0,0,82,83,127,110,43,95.46,142,-5.00,21.00,-966.00
2024-06-07 01:12:28.113721,0,0,0,0,0,0,82,83,127,110,43,95.68,142,24.00,-25.00,-958.00
2024-06-07 01:12:28.302172,0,0,0,0,0,0,82,83,128,110,43,95.16,142,19.00,-5.00,-970.00
2024-06-07 01:12:28.317632,0,0,0,0,0,0,82,83,128,110,43,95.69,142,7.00,9.00,-1023.00
2024-06-07 01:12:28.507118,0,0,0,0,0,0,82,83,128,110,43,95.45,142,-7.00,25.00,-988.00
2024-06-07 01:12:28.507333,0,0,0,0,0,0,82,83,128,110,43,95.57,142,-10.00,32.00,-1035.00
2024-06-07 01:12:28.711908,0,0,0,0,0,0,82,84,129,110,43,95.22,142,-37.00,25.00,-1019.00
2024-06-07 01:12:28.712122,0,0,0,0,0,0,82,84,129,120,43,95.69,142,-5.00,41.00,-972.00
2024-06-07 01:12:28.777028,0,-1,0,0,0,0,82,84,128,120,43,95.46,142,-9.00,24.00,-1032.00
2024-06-07 01:12:28.916701,0,-1,0,0,0,0,82,84,129,120,43,95.51,143,7.00,11.00,-1001.00
2024-06-07 01:12:28.980678,0,-1,0,0,0,0,82,84,128,120,43,95.67,143,22.00,7.00,-1028.00
2024-06-07 01:12:29.082809,0,0,0,0,0,0,82,84,129,120,43,95.35,143,5.00,-17.00,-950.00
2024-06-07 01:12:29.223823,0,0,0,0,0,0,82,84,129,110,43,95.76,143,2.00,4.00,-1038.00
2024-06-07 01:12:29.286804,0,0,0,0,0,0,82,84,129,110,43,95.34,143,0.00,9.00,-1014.00
2024-06-07 01:12:29.388512,0,0,0,0,0,0,82,84,129,110,43,95.44,143,-18.00,11.00,-1008.00
2024-06-07 01:12:29.490756,0,0,0,0,0,0,82,84,129,120,43,95.35,143,22.00,8.00,-960.00
2024-06-07 01:12:29.592537,0,0,0,0,0,0,81,84,129,120,43,95.44,143,8.00,-10.00,-1006.00
2024-06-07 01:12:29.694704,0,0,0,0,0,0,81,84,130,120,43,95.24,143,12.00,7.00,-951.00
2024-06-07 01:12:29.796553,0,0,0,0,0,0,81,84,130,120,43,95.49,143,-4.00,7.00,-1028.00
2024-06-07 01:12:29.898754,0,0,0,0,0,0,81,84,130,120,43,95.23,144,-39.00,-2.00,-1008.00
2024-06-07 01:12:30.043032,0,0,0,0,0,0,81,84,131,120,43,95.48,144,0.00,30.00,-992.00
2024-06-07 01:12:30.102489,0,0,0,0,0,0,81,84,130,120,43,95.57,144,12.00,23.00,-1049.00
2024-06-07 01:12:30.247777,0,0,0,0,0,0,81,84,130,120,43,95.33,144,-8.00,-4.00,-957.00
2024-06-07 01:12:30.306514,0,0,0,0,0,0,81,84,130,120,43,95.49,144,-20.00,12.00,-995.00
2024-06-07 01:12:30.408504,0,0,0,0,0,0,81,84,130,120,43,95.47,144,-5.00,3.00,-994.00
2024-06-07 01:12:30.554978,0,0,0,0,0,0,81,84,130,120,43,95.41,144,-1.00,33.00,-998.00
2024-06-07 01:12:30.612412,0,0,0,0,0,0,82,84,130,120,43,95.70,144,-25.00,28.00,-1000.00
2024-06-07 01:12:30.760026,0,0,0,0,0,0,82,84,130,120,43,95.27,144,2.00,37.00,-1067.00
2024-06-07 01:12:30.816963,0,-1,0,0,0,0,82,84,130,120,42,95.52,144,-29.00,-7.00,-989.00
2024-06-07 01:12:30.964585,0,-1,0,0,0,0,82,84,130,120,42,95.41,145,0.00,11.00,-1006.00
2024-06-07 01:12:31.020398,0,0,0,0,0,0,82,84,130,120,42,95.35,145,11.00,-6.00,-972.00
2024-06-07 01:12:31.123260,0,0,0,0,0,0,82,84,130,120,42,95.34,145,0.00,32.00,-999.00
2024-06-07 01:12:31.274257,0,0,0,0,0,0,82,84,129,120,42,95.51,145,16.00,11.00,-1008.00
2024-06-07 01:12:31.326183,0,0,0,0,0,0,82,84,130,120,42,95.84,145,-2.00,16.00,-982.00
2024-06-07 01:12:31.476524,0,0,0,0,0,0,82,84,130,120,42,95.27,145,-6.00,4.00,-1019.00
2024-06-07 01:12:31.530254,0,0,0,0,0,0,82,84,130,120,42,95.34,145,0.00,4.00,-965.00
2024-06-07 01:12:31.681177,0,0,0,0,0,0,81,83,129,120,42,95.32,145,0.00,27.00,-987.00
2024-06-07 01:12:31.734386,0,0,0,0,0,1,81,83,129,110,42,95.44,145,1.00,-16.00,-982.00
2024-06-07 01:12:31.885965,0,0,0,0,0,1,81,83,127,110,42,95.38,146,1.00,-7.00,-969.00
2024-06-07 01:12:31.938279,0,0,0,0,0,2,81,83,125,110,42,95.35,146,18.00,0.00,-946.00
2024-06-07 01:12:32.118726,0,0,0,0,0,3,81,83,123,110,42,95.39,146,0.00,0.00,-891.00
2024-06-07 01:12:32.143704,0,0,0,0,0,4,81,83,118,100,42,95.37,146,6.00,-9.00,-918.00
2024-06-07 01:12:32.196435,0,0,0,0,0,5,81,83,114,100,42,95.30,146,4.00,-2.00,-908.00
2024-06-07 01:12:32.295907,0,0,0,0,0,6,81,83,108,90,42,95.35,146,-7.00,12.00,-887.00
2024-06-07 01:12:32.480065,0,0,0,0,0,7,81,83,102,80,42,95.15,146,-14.00,3.00,-869.00
2024-06-07 01:12:32.500647,0,-1,0,0,0,7,81,83,94,80,42,95.13,146,0.00,29.00,-980.00
2024-06-07 01:12:32.634172,0,0,0,0,0,7,82,83,88,70,42,94.92,146,2.00,25.00,-1091.00
2024-06-07 01:12:32.724930,0,0,0,0,0,6,82,83,81,60,42,94.75,146,13.00,11.00,-1049.00
2024-06-07 01:12:32.805197,0,0,0,0,0,6,82,83,75,60,42,94.92,147,5.00,-15.00,-1048.00
2024-06-07 01:12:32.922888,0,0,0,0,0,5,82,83,68,50,42,94.54,147,4.00,7.00,-1025.00
2024-06-07 01:12:33.103803,0,0,0,0,0,5,82,83,63,50,42,94.33,147,-8.00,3.00,-1007.00
2024-06-07 01:12:33.111496,0,0,0,0,0,5,82,83,58,40,42,94.76,147,2.00,-10.00,-1035.00
2024-06-07 01:12:33.249533,0,0,0,0,0,4,82,83,54,40,42,94.99,147,0.00,5.00,-1059.00
2024-06-07 01:12:33.388910,0,0,0,0,0,4,82,83,49,30,42,94.82,147,-4.00,20.00,-1027.00
2024-06-07 01:12:33.417221,0,-1,0,0,0,4,82,83,45,30,42,94.62,147,-15.00,2.00,-1015.00
2024-06-07 01:12:33.536417,0,0,0,0,0,4,82,83,40,30,42,94.94,147,14.00,7.00,-1000.00
2024-06-07 01:12:33.678535,0,0,0,0,0,4,82,84,36,20,42,94.90,147,-6.00,5.00,-1012.00
2024-06-07 01:12:33.723055,0,0,0,0,0,4,82,84,34,20,42,94.22,147,12.00,18.00,-977.00
2024-06-07 01:12:33.845829,0,0,0,0,0,4,82,84,28,10,42,94.64,148,-21.00,5.00,-968.00
2024-06-07 01:12:33.989128,0,0,0,0,0,4,82,84,27,10,42,94.64,148,-1.00,16.00,-979.00
2024-06-07 01:12:34.029155,0,-1,0,0,0,4,82,84,20,0,42,93.88,148,3.00,-8.00,-1031.00
2024-06-07 01:12:34.149730,0,0,0,0,0,4,82,84,14,0,42,93.18,148,0.00,5.00,-1067.00
2024-06-07 01:12:34.292913,0,0,0,0,0,3,82,84,10,0,42,92.24,148,-9.00,5.00,-1035.00
2024-06-07 01:12:34.335076,0,0,0,0,0,2,82,84,10,0,42,90.07,148,7.00,8.00,-1214.00
2024-06-07 01:12:34.456980,-2,0,0,0,0,0,82,84,10,0,42,92.36,148,-1.00,1.00,-616.00
2024-06-07 01:12:34.600661,0,0,0,0,0,0,82,84,10,0,42,93.39,148,49.00,34.00,-964.00
2024-06-07 01:12:34.641117,0,0,0,0,0,0,82,84,10,0,42,93.61,148,14.00,13.00,-998.00
2024-06-07 01:12:34.766714,0,0,0,0,0,0,82,84,10,0,42,93.86,148,18.00,10.00,-998.00
2024-06-07 01:12:34.845154,0,0,0,0,0,0,82,84,10,0,42,93.91,148,14.00,15.00,-1002.00
2024-06-07 01:12:34.961529,0,0,0,0,0,0,82,84,10,0,42,93.91,148,16.00,15.00,-997.00
