TS,pitch,roll,yaw,vgx,vgy,vgz,templ,temph,tof,h,bat,baro,time,agx,agy,agz
2024-06-07 01:12:59.023118,0,0,0,0,0,0,84,86,10,0,42,94.26,148,14.00,12.00,-1001.00
2024-06-07 01:12:59.073996,0,0,0,0,0,0,84,86,10,0,42,93.95,148,15.00,13.00,-998.00
2024-06-07 01:12:59.176110,0,0,0,0,0,0,84,86,10,0,42,93.79,148,14.00,13.00,-999.00
2024-06-07 01:12:59.328305,0,0,0,0,0,0,84,86,10,0,42,94.00,148,13.00,12.00,-996.00
2024-06-07 01:12:59.379979,0,0,0,0,0,0,84,86,10,0,42,94.21,148,13.00,13.00,-998.00
2024-06-07 01:12:59.430742,0,0,0,0,0,0,84,86,10,0,42,93.87,148,15.00,13.00,-999.00
2024-06-07 01:12:59.532681,0,0,0,0,0,0,84,86,10,0,42,94.38,148,14.00,12.00,-1000.00
2024-06-07 01:12:59.634742,0,0,0,0,0,0,84,86,10,0,42,93.97,148,15.00,11.00,-996.00
2024-06-07 01:12:59.737559,0,0,0,0,0,0,84,86,10,0,42,93.93,148,15.00,13.00,-1002.00
2024-06-07 01:12:59.840208,0,0,0,0,0,0,84,86,10,0,42,94.05,148,14.00,14.00,-1000.00
2024-06-07 01:12:59.940730,0,0,0,0,0,0,84,86,10,0,42,94.15,148,15.00,12.00,-999.00
2024-06-07 01:13:00.049453,0,0,0,0,0,0,84,86,10,0,42,93.97,148,15.00,10.00,-1000.00
2024-06-07 01:13:00.153927,0,0,0,0,0,0,84,86,10,0,42,94.43,148,13.00,12.00,-999.00
2024-06-07 01:13:00.246974,0,0,0,0,0,0,84,86,10,0,42,94.29,148,14.00,13.00,-1000.00
2024-06-07 01:13:00.352870,0,0,0,0,0,0,84,86,10,0,42,94.08,148,15.00,13.00,-1000.00
2024-06-07 01:13:00.451910,0,0,0,0,0,0,84,86,10,0,42,94.17,148,15.00,11.00,-1000.00
2024-06-07 01:13:00.553307,0,0,0,0,0,0,84,86,10,0,42,94.18,148,15.00,12.00,-998.00
2024-06-07 01:13:00.659190,0,0,0,0,0,0,84,86,10,0,42,94.36,148,15.00,13.00,-999.00
2024-06-07 01:13:00.756805,0,0,0,0,0,0,84,86,10,0,42,94.12,148,14.00,12.00,-1000.00
2024-06-07 01:13:00.863831,0,0,0,0,0,0,84,86,10,0,42,94.05,148,14.00,11.00,-999.00
2024-06-07 01:13:00.960755,0,0,0,0,0,0,84,86,10,0,42,94.26,148,13.00,12.00,-998.00
2024-06-07 01:13:01.068811,0,0,0,0,0,0,84,86,10,0,42,93.99,148,13.00,12.00,-1000.00
2024-06-07 01:13:01.165869,0,0,0,0,0,0,84,86,10,0,42,94.31,148,15.00,12.00,-1000.00
2024-06-07 01:13:01.273581,0,0,0,0,0,0,84,86,10,0,42,94.11,148,13.00,12.00,-999.00
2024-06-07 01:13:01.375920,0,0,0,0,0,0,84,86,10,0,42,94.34,148,14.00,13.00,-1001.00
2024-06-07 01:13:01.478394,0,0,0,0,0,0,84,86,10,0,42,93.92,148,14.00,12.00,-999.00
2024-06-07 01:13:01.572594,0,0,0,0,0,0,84,86,10,0,42,94.26,148,15.00,11.00,-1002.00
2024-06-07 01:13:01.683045,0,0,0,0,0,0,84,86,10,0,42,94.13,148,13.00,11.00,-1001.00
2024-06-07 01:13:01.776681,0,0,0,0,0,0,84,86,10,0,42,94.13,148,16.00,12.00,-999.00
2024-06-07 01:13:01.888885,0,0,0,0,0,0,84,86,10,0,42,94.13,148,12.00,10.00,-998.00
2024-06-07 01:13:01.980460,0,0,0,0,0,0,84,86,10,0,42,94.13,148,15.00,12.00,-1007.00
2024-06-07 01:13:02.111017,0,0,0,0,0,0,84,86,10,0,42,94.13,149,12.00,16.00,-1021.00
2024-06-07 01:13:02.380583,0,0,0,0,0,0,84,86,10,0,42,94.13,149,4.00,22.00,-1003.00
2024-06-07 01:13:02.380654,0,-1,0,0,0,0,84,86,10,0,42,94.13,149,-5.00,11.00,-974.00
2024-06-07 01:13:02.391872,0,0,0,0,0,-3,84,86,10,0,42,94.13,149,-12.00,20.00,-1125.00
2024-06-07 01:13:02.557781,-1,-1,0,0,0,-5,84,86,16,0,42,94.13,149,10.00,18.00,-1307.00
2024-06-07 01:13:02.557837,-1,0,0,0,0,-7,84,86,25,0,42,94.46,149,-43.00,7.00,-1271.00
2024-06-07 01:13:02.643522,-1,0,0,0,0,-7,84,86,33,10,42,94.67,149,2.00,19.00,-1121.00
2024-06-07 01:13:02.953027,0,0,0,0,0,-7,84,87,39,20,42,94.59,149,4.00,-3.00,-930.00
2024-06-07 01:13:02.953120,0,0,0,0,0,-7,84,87,48,20,42,94.56,149,29.00,11.00,-976.00
2024-06-07 01:13:03.063731,0,0,0,0,0,-6,84,87,56,30,42,94.81,149,-11.00,5.00,-880.00
2024-06-07 01:13:03.109658,0,0,0,0,0,-5,84,87,60,30,42,94.80,150,14.00,6.00,-851.00
2024-06-07 01:13:03.204525,0,-1,0,0,0,-4,84,87,66,40,42,95.06,150,-14.00,3.00,-909.00
2024-06-07 01:13:03.332243,1,0,0,0,0,-3,84,87,71,40,42,94.90,150,-36.00,0.00,-907.00
2024-06-07 01:13:03.357341,0,0,0,0,0,-2,84,87,75,40,42,94.59,150,-33.00,2.00,-880.00
2024-06-07 01:13:03.476803,0,0,0,0,0,-1,84,87,77,50,42,95.26,150,-2.00,7.00,-920.00
2024-06-07 01:13:03.639874,0,0,0,0,0,0,84,87,81,50,42,94.99,150,-2.00,1.00,-963.00
2024-06-07 01:13:03.663290,0,0,0,0,0,0,84,87,82,50,42,95.07,150,-17.00,3.00,-910.00
2024-06-07 01:13:03.783943,0,0,0,0,0,0,85,87,83,50,42,94.96,150,-2.00,26.00,-965.00
2024-06-07 01:13:03.948517,1,0,0,0,0,0,85,87,85,50,42,95.36,150,21.00,-11.00,-945.00
2024-06-07 01:13:03.969227,0,0,0,0,0,0,85,87,85,50,42,95.08,150,-1.00,25.00,-1013.00
2024-06-07 01:13:04.155482,0,0,0,0,0,0,85,87,86,50,42,95.25,151,2.00,-1.00,-1029.00
2024-06-07 01:13:04.173485,0,0,0,0,0,0,85,87,87,50,42,95.35,151,-8.00,0.00,-928.00
2024-06-07 01:13:04.345360,0,0,0,0,0,0,85,87,87,60,42,95.11,151,0.00,21.00,-1057.00
2024-06-07 01:13:04.377366,0,-1,0,0,0,0,85,87,88,60,42,94.94,151,1.00,-5.00,-961.00
2024-06-07 01:13:04.550995,0,0,0,0,0,0,85,87,88,60,42,94.82,151,-8.00,2.00,-950.00
2024-06-07 01:13:04.581614,0,0,0,0,0,0,85,87,88,60,42,94.92,151,0.00,2.00,-994.00
2024-06-07 01:13:04.754945,0,0,0,0,0,0,85,87,87,60,42,94.98,151,-25.00,14.00,-1080.00
2024-06-07 01:13:04.785361,0,0,0,0,0,0,85,86,87,60,42,94.95,151,-5.00,11.00,-1042.00
2024-06-07 01:13:04.889176,0,-1,0,0,0,0,85,86,87,60,42,95.14,151,17.00,13.00,-994.00
2024-06-07 01:13:04.989544,0,-1,0,0,0,0,85,86,86,60,42,95.01,151,7.00,-5.00,-990.00
2024-06-07 01:13:05.091649,0,0,0,0,0,0,85,86,86,60,42,94.98,152,-1.00,2.00,-1013.00
2024-06-07 01:13:05.194315,1,0,0,0,0,0,85,86,85,60,42,95.05,152,12.00,17.00,-1017.00
2024-06-07 01:13:05.369574,1,0,0,0,0,0,85,86,84,60,42,94.67,152,-6.00,14.00,-1031.00
2024-06-07 01:13:05.400789,0,0,0,0,0,0,85,86,83,60,42,95.45,152,-16.00,3.00,-1005.00
2024-06-07 01:13:05.501208,0,-1,0,0,0,0,85,86,83,60,42,94.90,152,-20.00,34.00,-1024.00
2024-06-07 01:13:05.601156,0,-1,0,0,0,0,85,86,82,60,42,94.89,152,-22.00,22.00,-1035.00
2024-06-07 01:13:05.779631,0,-1,0,0,0,0,85,86,82,50,42,94.84,152,4.00,10.00,-1054.00
2024-06-07 01:13:05.805067,0,0,0,0,0,0,84,86,82,50,42,94.90,152,-26.00,5.00,-999.00
2024-06-07 01:13:05.983697,0,0,0,0,0,0,84,86,81,50,42,95.21,152,-10.00,33.00,-1032.00
2024-06-07 01:13:06.009143,0,0,0,0,0,0,84,86,81,50,42,94.98,152,-13.00,25.00,-1062.00
2024-06-07 01:13:06.191534,0,0,0,0,0,0,84,86,81,50,42,95.24,153,-17.00,-5.00,-976.00
2024-06-07 01:13:06.213092,0,0,0,0,0,0,84,86,80,50,42,95.15,153,3.00,-1.00,-978.00
2024-06-07 01:13:06.399712,0,0,0,0,0,0,84,86,80,50,42,94.60,153,-23.00,30.00,-1020.00
2024-06-07 01:13:06.416991,0,0,0,0,0,0,84,86,79,50,42,94.75,153,15.00,9.00,-991.00
2024-06-07 01:13:06.598022,0,0,0,0,0,0,84,86,79,50,42,94.92,153,-9.00,-4.00,-936.00
2024-06-07 01:13:06.598079,0,0,0,0,0,0,84,86,78,50,42,94.85,153,0.00,41.00,-998.00
2024-06-07 01:13:06.672716,0,0,0,0,0,0,84,86,79,50,42,94.97,153,-2.00,28.00,-1038.00
2024-06-07 01:13:06.825034,0,0,0,0,0,0,84,86,79,50,42,95.07,153,20.00,37.00,-1023.00
2024-06-07 01:13:06.877506,0,0,0,0,0,0,84,86,79,50,42,94.71,153,-2.00,16.00,-994.00
2024-06-07 01:13:07.007593,0,0,0,0,0,0,84,86,79,50,42,95.23,153,-15.00,25.00,-999.00
2024-06-07 01:13:07.086964,0,0,0,0,0,0,84,86,79,50,42,95.03,154,-4.00,40.00,-1054.00
2024-06-07 01:13:07.184626,0,0,0,0,0,0,84,86,78,50,42,95.02,154,31.00,20.00,-956.00
2024-06-07 01:13:07.285336,0,0,0,0,0,0,84,86,78,50,42,95.01,154,-11.00,-12.00,-999.00
2024-06-07 01:13:07.388431,0,0,0,0,0,0,84,86,78,50,42,94.95,154,-17.00,29.00,-1031.00
2024-06-07 01:13:07.490018,0,-1,0,0,0,0,84,86,78,50,42,94.69,154,8.00,15.00,-992.00
2024-06-07 01:13:07.592692,0,-1,0,0,0,0,84,86,78,50,42,94.91,154,-14.00,28.00,-995.00
2024-06-07 01:13:07.693080,0,0,0,0,0,0,84,86,77,50,42,94.96,154,-20.00,24.00,-1012.00
2024-06-07 01:13:07.828718,0,0,0,0,0,0,85,86,77,50,42,94.68,154,-35.00,26.00,-1057.00
2024-06-07 01:13:07.897003,0,-1,0,0,0,0,85,86,77,50,42,94.81,154,21.00,14.00,-984.00
2024-06-07 01:13:08.034841,0,0,0,0,0,0,85,86,77,50,42,94.51,154,-17.00,1.00,-1006.00
2024-06-07 01:13:08.100963,0,0,0,0,0,0,85,86,76,50,42,94.78,155,-10.00,16.00,-980.00
2024-06-07 01:13:08.202999,0,0,0,0,0,0,85,86,76,50,42,95.04,155,-11.00,-6.00,-1060.00
2024-06-07 01:13:08.340502,0,-1,0,0,0,0,85,86,76,50,42,94.90,155,-6.00,10.00,-1012.00
2024-06-07 01:13:08.407008,0,0,0,0,0,0,85,86,76,50,42,94.88,155,-7.00,8.00,-1012.00
2024-06-07 01:13:08.544394,0,0,0,0,0,0,85,86,76,50,42,94.67,155,9.00,11.00,-1036.00
2024-06-07 01:13:08.613167,0,0,0,0,0,0,85,86,76,50,42,94.77,155,10.00,36.00,-1065.00
2024-06-07 01:13:08.713007,0,0,0,0,0,0,85,86,77,50,42,94.73,155,-30.00,31.00,-1018.00
2024-06-07 01:13:08.853361,0,-1,0,0,0,0,85,87,77,50,42,94.96,155,-16.00,9.00,-1009.00
2024-06-07 01:13:08.917793,0,-1,0,0,0,0,85,87,77,50,42,95.05,155,-12.00,23.00,-1084.00
2024-06-07 01:13:09.055620,0,0,0,0,0,0,85,87,78,50,42,95.12,156,-15.00,27.00,-984.00
2024-06-07 01:13:09.121216,0,0,0,0,0,0,85,87,78,50,42,94.90,156,22.00,5.00,-1015.00
2024-06-07 01:13:09.222956,0,0,0,0,0,0,85,87,78,50,42,94.94,156,16.00,32.00,-921.00
2024-06-07 01:13:09.324787,0,0,0,0,0,0,85,87,79,50,42,94.82,156,0.00,4.00,-1001.00
2024-06-07 01:13:09.465145,0,0,0,0,0,0,85,87,79,50,42,94.82,156,-17.00,25.00,-954.00
2024-06-07 01:13:09.528836,0,0,0,0,0,0,85,87,79,50,42,94.95,156,0.00,2.00,-986.00
2024-06-07 01:13:09.670778,0,0,0,0,0,-1,85,87,81,50,42,94.87,156,-9.00,-23.00,-1052.00
2024-06-07 01:13:09.732760,0,0,0,0,0,-2,85,87,83,60,42,94.98,156,10.00,3.00,-1135.00
2024-06-07 01:13:09.834810,0,0,0,0,0,-3,84,87,86,60,42,95.13,156,-8.00,-4.00,-1041.00
2024-06-07 01:13:09.936767,0,0,0,0,0,-4,84,87,89,60,42,95.18,156,17.00,14.00,-1020.00
2024-06-07 01:13:10.039208,0,0,0,0,0,-4,84,87,94,70,42,95.17,157,-11.00,25.00,-1066.00
2024-06-07 01:13:10.141794,0,0,0,0,0,-5,84,87,99,70,42,95.11,157,-7.00,13.00,-1010.00
2024-06-07 01:13:10.242664,0,0,0,0,0,-5,84,87,105,80,42,95.45,157,-32.00,-14.00,-1007.00
2024-06-07 01:13:10.346045,0,0,0,0,0,-5,84,87,111,80,42,95.32,157,-11.00,22.00,-982.00
2024-06-07 01:13:10.446838,0,0,0,0,0,-5,84,87,117,90,42,95.14,157,-17.00,8.00,-1020.00
2024-06-07 01:13:10.497642,0,-1,0,0,0,-5,84,87,123,100,42,95.32,157,1.00,6.00,-1001.00
2024-06-07 01:13:10.599923,0,0,0,0,0,-5,84,87,128,100,42,95.55,157,14.00,4.00,-954.00
2024-06-07 01:13:10.702008,0,0,0,0,0,-5,84,87,134,110,42,95.50,157,-31.00,21.00,-955.00
2024-06-07 01:13:10.804270,0,0,0,0,0,-4,84,87,139,110,42,95.26,157,13.00,22.00,-1004.00
2024-06-07 01:13:10.907006,0,0,0,0,0,-4,84,87,145,120,42,95.64,157,-19.00,14.00,-975.00
2024-06-07 01:13:11.008932,0,0,0,0,0,-4,84,87,150,120,42,95.25,158,-21.00,12.00,-944.00
2024-06-07 01:13:11.111430,0,0,0,0,0,-3,84,87,152,120,42,95.64,158,-25.00,13.00,-937.00
2024-06-07 01:13:11.213562,0,0,0,0,0,-3,84,87,156,130,42,95.69,158,-43.00,42.00,-962.00
2024-06-07 01:13:11.313629,0,-1,0,0,0,-3,84,87,160,130,42,95.58,158,-18.00,26.00,-940.00
2024-06-07 01:13:11.513433,0,-1,0,0,0,-2,84,87,162,130,42,95.51,158,8.00,0.00,-927.00
2024-06-07 01:13:11.517609,0,-1,0,0,0,-2,84,87,165,140,42,95.92,158,-1.00,7.00,-964.00
2024-06-07 01:13:11.717840,0,-1,0,0,0,-2,84,87,168,140,42,95.92,158,-8.00,10.00,-950.00
2024-06-07 01:13:11.721558,0,0,0,0,0,-1,84,87,170,140,42,95.47,158,4.00,0.00,-918.00
2024-06-07 01:13:11.922519,1,0,0,0,0,-1,85,87,173,140,42,95.78,158,25.00,-10.00,-972.00
2024-06-07 01:13:11.933796,1,0,0,0,0,-1,85,87,175,140,42,95.77,158,-15.00,0.00,-985.00
2024-06-07 01:13:12.032850,0,0,0,0,0,-1,85,87,175,150,42,95.77,159,-17.00,25.00,-970.00
2024-06-07 01:13:12.129824,0,0,0,0,0,0,85,87,177,150,42,95.76,159,6.00,36.00,-987.00
2024-06-07 01:13:12.231603,0,-1,0,0,0,0,85,87,178,150,42,95.83,159,-18.00,2.00,-974.00
2024-06-07 01:13:12.435686,0,-1,0,0,0,0,85,87,178,150,42,95.76,159,-22.00,12.00,-947.00
2024-06-07 01:13:12.435871,0,-1,0,0,0,0,85,87,179,150,42,96.12,159,-7.00,38.00,-1036.00
2024-06-07 01:13:12.538472,0,-1,0,0,0,0,85,87,179,150,42,95.80,159,-7.00,31.00,-966.00
2024-06-07 01:13:12.640283,0,-1,0,0,0,0,85,87,178,150,42,95.83,159,0.00,25.00,-986.00
2024-06-07 01:13:12.742061,0,-2,0,0,0,0,85,87,178,150,42,95.70,159,6.00,12.00,-942.00
2024-06-07 01:13:12.843897,0,-1,0,0,0,0,85,87,177,150,42,95.85,159,-7.00,-19.00,-990.00
2024-06-07 01:13:12.947395,0,0,0,0,0,0,85,87,177,150,42,95.99,159,1.00,31.00,-1023.00
2024-06-07 01:13:13.049441,0,0,0,0,0,0,85,87,176,150,42,95.92,160,-34.00,19.00,-1040.00
2024-06-07 01:13:13.149524,0,0,0,0,0,0,85,87,175,150,42,95.74,160,-19.00,-6.00,-948.00
2024-06-07 01:13:13.251449,0,0,0,0,0,0,85,87,174,150,42,95.81,160,-12.00,28.00,-1008.00
2024-06-07 01:13:13.356539,0,0,0,0,0,0,85,87,174,150,42,95.68,160,-27.00,38.00,-1000.00
2024-06-07 01:13:13.456241,0,0,0,0,0,0,85,87,174,150,42,95.93,160,0.00,-2.00,-1018.00
2024-06-07 01:13:13.560936,0,0,0,0,0,0,85,87,173,150,42,95.60,160,-42.00,1.00,-1012.00
2024-06-07 01:13:13.660948,0,0,0,0,0,0,85,87,175,150,42,95.72,160,28.00,11.00,-997.00
2024-06-07 01:13:13.761691,0,-1,0,0,0,0,85,87,174,150,42,95.46,160,-11.00,21.00,-1080.00
2024-06-07 01:13:13.863430,0,-1,0,0,0,0,85,87,174,150,42,95.92,160,-17.00,10.00,-984.00
2024-06-07 01:13:13.972204,0,0,0,0,0,0,85,87,175,150,42,95.33,160,-12.00,6.00,-999.00
2024-06-07 01:13:14.067366,0,0,0,0,0,0,85,87,176,150,42,95.93,161,-12.00,27.00,-1030.00
2024-06-07 01:13:14.175331,0,0,0,0,0,0,85,87,176,150,42,95.73,161,-49.00,11.00,-1061.00
2024-06-07 01:13:14.225038,0,0,0,0,0,0,85,87,176,150,42,95.94,161,6.00,30.00,-948.00
2024-06-07 01:13:14.324254,0,0,0,0,0,0,85,87,176,150,42,96.05,161,-25.00,15.00,-939.00
2024-06-07 01:13:14.424643,0,-1,0,0,0,1,85,87,174,150,42,95.70,161,-6.00,17.00,-970.00
2024-06-07 01:13:14.584858,0,-1,0,0,0,1,85,87,174,150,42,95.59,161,11.00,6.00,-970.00
2024-06-07 01:13:14.628305,0,-1,0,0,0,1,85,87,171,140,42,95.65,161,17.00,-5.00,-929.00
2024-06-07 01:13:14.790437,0,0,0,0,0,2,85,87,170,140,42,95.96,161,-60.00,43.00,-965.00
2024-06-07 01:13:14.832256,0,0,0,0,0,2,84,86,168,140,42,95.60,161,-13.00,7.00,-1007.00
2024-06-07 01:13:14.994464,0,0,0,0,0,2,84,86,165,140,42,95.60,161,-33.00,9.00,-947.00
2024-06-07 01:13:15.036691,0,0,0,0,0,2,84,86,162,130,42,95.62,162,3.00,32.00,-978.00
2024-06-07 01:13:15.138249,0,0,0,0,0,3,84,86,160,130,42,95.54,162,-16.00,-2.00,-1015.00
2024-06-07 01:13:15.240327,0,0,0,0,0,3,84,86,157,130,42,95.50,162,8.00,24.00,-984.00
2024-06-07 01:13:15.404030,0,0,0,0,0,2,84,86,153,130,42,95.46,162,0.00,21.00,-974.00
2024-06-07 01:13:15.444204,0,0,0,0,0,2,84,86,150,120,42,95.50,162,-13.00,11.00,-1005.00
2024-06-07 01:13:15.609067,0,-1,0,0,0,2,84,86,148,120,42,95.52,162,-20.00,13.00,-1028.00
2024-06-07 01:13:15.648237,0,0,0,0,0,2,84,86,146,120,42,95.35,162,-33.00,25.00,-996.00
2024-06-07 01:13:15.813671,0,-1,0,0,0,2,84,86,144,120,42,95.62,162,9.00,37.00,-970.00
2024-06-07 01:13:15.852116,0,-1,0,0,0,2,84,87,142,110,42,95.52,162,18.00,-17.00,-1017.00
2024-06-07 01:13:16.019399,0,-1,0,0,0,1,84,87,140,110,42,95.13,162,7.00,25.00,-1045.00
2024-06-07 01:13:16.056143,0,0,0,0,0,1,84,87,138,110,42,95.42,163,-35.00,19.00,-1017.00
2024-06-07 01:13:16.223237,0,0,0,0,0,1,84,87,137,110,42,95.21,163,-10.00,-1.00,-1009.00
2024-06-07 01:13:16.260850,0,0,0,0,0,1,84,87,135,110,42,95.29,163,4.00,27.00,-1004.00
2024-06-07 01:13:16.428005,0,0,0,0,0,1,84,87,134,110,42,95.34,163,7.00,12.00,-988.00
2024-06-07 01:13:16.465405,0,0,0,0,0,0,84,87,134,110,42,95.32,163,18.00,23.00,-1007.00
2024-06-07 01:13:16.632828,0,0,0,0,0,0,84,87,132,100,42,95.53,163,-21.00,44.00,-1071.00
2024-06-07 01:13:16.668137,0,0,0,0,0,0,84,87,131,100,42,95.40,163,4.00,21.00,-1001.00
2024-06-07 01:13:16.837574,0,0,0,0,0,0,84,87,130,100,42,95.37,163,9.00,-18.00,-991.00
2024-06-07 01:13:16.872127,0,0,0,0,0,0,84,86,130,100,42,95.46,163,12.00,18.00,-1018.00
2024-06-07 01:13:17.042807,0,0,0,0,0,0,84,86,128,100,42,95.19,163,0.00,30.00,-1075.00
2024-06-07 01:13:17.159091,0,0,0,0,0,0,84,86,128,100,42,95.13,164,-7.00,-5.00,-978.00
2024-06-07 01:13:17.178276,0,-1,0,0,0,0,84,86,128,100,42,95.35,164,-12.00,15.00,-970.00
2024-06-07 01:13:17.350420,0,0,0,0,0,0,84,86,127,100,42,95.19,164,10.00,36.00,-1016.00
2024-06-07 01:13:17.453341,0,0,0,0,0,0,84,86,126,100,42,95.15,164,12.00,11.00,-999.00
2024-06-07 01:13:17.507467,0,0,0,0,0,0,84,86,127,100,42,95.05,164,11.00,4.00,-999.00
2024-06-07 01:13:17.630485,0,0,0,0,0,0,84,86,126,100,42,95.04,164,-13.00,26.00,-1027.00
2024-06-07 01:13:17.637168,0,0,0,0,0,0,84,86,126,100,42,95.00,164,18.00,7.00,-973.00
2024-06-07 01:13:17.810584,0,0,0,0,0,0,84,86,126,100,42,95.25,164,-11.00,-10.00,-995.00
2024-06-07 01:13:17.964396,0,0,0,0,0,0,84,86,126,100,42,95.23,164,4.00,32.00,-978.00
2024-06-07 01:13:18.005213,0,0,0,0,0,0,84,86,127,100,42,95.10,164,-21.00,-3.00,-918.00
2024-06-07 01:13:18.115855,0,0,0,0,0,0,84,86,127,100,42,95.32,165,-12.00,15.00,-1033.00
2024-06-07 01:13:18.197942,0,0,0,0,0,0,84,86,127,100,42,95.46,165,10.00,21.00,-1030.00
2024-06-07 01:13:18.251265,0,0,0,0,0,0,84,86,127,100,42,95.46,165,-35.00,19.00,-1023.00
2024-06-07 01:13:18.384513,0,0,0,0,0,0,84,86,126,100,42,95.29,165,16.00,10.00,-999.00
2024-06-07 01:13:18.529157,0,0,0,0,0,0,84,86,127,100,42,95.18,165,-1.00,27.00,-994.00
2024-06-07 01:13:18.556466,0,0,0,0,0,0,84,86,128,100,42,95.14,165,14.00,22.00,-1020.00
2024-06-07 01:13:18.691732,0,0,0,0,0,0,84,86,129,100,42,95.18,165,17.00,10.00,-1045.00
2024-06-07 01:13:18.837367,0,0,0,0,0,0,84,86,129,100,42,95.26,165,40.00,12.00,-1003.00
2024-06-07 01:13:18.860847,0,0,0,0,0,0,85,86,129,100,42,95.36,165,28.00,29.00,-1005.00
2024-06-07 01:13:18.998696,0,0,0,0,0,0,85,86,130,100,42,95.33,165,-15.00,5.00,-988.00
2024-06-07 01:13:19.142115,-3,0,0,0,0,0,85,86,133,100,42,95.39,166,3.00,22.00,-980.00
2024-06-07 01:13:19.167476,-8,0,0,0,0,0,85,86,134,100,42,95.13,166,-13.00,21.00,-1020.00
2024-06-07 01:13:19.306070,-8,0,0,2,0,0,85,86,133,100,42,95.34,166,-27.00,27.00,-1018.00
2024-06-07 01:13:19.451296,-8,0,0,4,0,0,85,86,135,100,42,95.15,166,-25.00,3.00,-964.00
2024-06-07 01:13:19.472851,-7,0,0,5,0,0,85,86,132,100,42,95.05,166,-19.00,20.00,-1006.00
2024-06-07 01:13:19.613050,-6,0,0,6,0,0,85,86,133,100,42,95.23,166,-43.00,16.00,-983.00
2024-06-07 01:13:19.677105,-5,0,0,7,0,0,85,86,132,100,42,95.19,166,-19.00,17.00,-942.00
2024-06-07 01:13:19.807064,-5,0,0,7,0,0,85,86,131,100,42,95.03,166,-48.00,56.00,-987.00
2024-06-07 01:13:19.881855,-2,-1,0,8,0,0,85,86,131,100,42,95.13,166,-36.00,6.00,-1004.00
2024-06-07 01:13:20.011793,0,-1,0,7,0,0,85,86,129,100,42,95.18,166,-36.00,23.00,-988.00
2024-06-07 01:13:20.086590,3,-1,0,7,0,0,85,86,128,100,42,95.29,167,-60.00,8.00,-994.00
2024-06-07 01:13:20.187691,4,-1,0,5,0,0,85,86,128,100,42,95.15,167,-67.00,5.00,-970.00
2024-06-07 01:13:20.289039,4,0,0,4,0,0,85,86,126,100,42,95.36,167,-40.00,33.00,-976.00
2024-06-07 01:13:20.391182,2,0,0,3,0,0,85,86,124,100,42,95.24,167,-41.00,12.00,-964.00
2024-06-07 01:13:20.493838,1,0,0,3,0,0,85,86,123,100,42,95.16,167,-37.00,24.00,-994.00
2024-06-07 01:13:20.596655,0,0,0,3,0,0,85,86,122,100,42,95.24,167,-5.00,23.00,-1045.00
2024-06-07 01:13:20.696989,0,0,0,2,0,0,85,86,122,100,42,95.08,167,-4.00,-3.00,-1039.00
2024-06-07 01:13:20.832849,0,0,0,2,0,0,85,86,121,100,42,94.77,167,-23.00,35.00,-1000.00
2024-06-07 01:13:20.900743,0,0,0,2,0,0,84,86,121,100,42,95.01,167,7.00,9.00,-978.00
2024-06-07 01:13:21.037758,2,0,0,2,0,0,84,86,122,100,42,95.40,167,-3.00,2.00,-1028.00
2024-06-07 01:13:21.104843,4,0,0,1,0,0,84,86,122,100,42,95.00,168,-36.00,21.00,-1048.00
2024-06-07 01:13:21.207032,2,-1,0,0,0,0,84,86,122,100,42,95.16,168,-15.00,20.00,-1006.00
2024-06-07 01:13:21.343076,1,0,0,0,0,0,84,86,122,100,42,94.95,168,-52.00,-2.00,-1004.00
2024-06-07 01:13:21.411037,0,0,0,0,0,0,84,86,122,100,42,95.24,168,0.00,11.00,-1023.00
2024-06-07 01:13:21.549311,0,0,0,0,0,0,84,86,123,100,42,94.88,168,-18.00,14.00,-967.00
2024-06-07 01:13:21.615165,0,0,0,0,0,0,84,86,124,100,42,95.03,168,-16.00,0.00,-973.00
2024-06-07 01:13:21.753926,0,0,0,0,0,0,84,86,124,100,42,95.32,168,7.00,9.00,-1002.00
2024-06-07 01:13:21.767671,0,0,0,0,0,0,84,86,125,100,42,95.39,168,-32.00,18.00,-976.00
2024-06-07 01:13:21.958537,0,0,0,0,0,0,83,86,125,100,42,95.12,168,-18.00,18.00,-1003.00
2024-06-07 01:13:22.024864,0,0,0,0,0,0,83,86,126,100,42,95.26,168,29.00,-6.00,-970.00
2024-06-07 01:13:22.074173,0,0,0,0,0,0,83,86,126,100,42,94.97,169,0.00,39.00,-966.00
2024-06-07 01:13:22.265526,0,0,0,0,0,0,83,86,126,100,42,95.45,169,-10.00,11.00,-980.00
2024-06-07 01:13:22.278900,0,0,0,0,0,0,83,86,127,100,42,95.01,169,1.00,31.00,-1050.00
2024-06-07 01:13:22.382078,0,0,0,0,0,0,83,86,126,100,42,95.35,169,31.00,12.00,-1040.00
2024-06-07 01:13:22.481782,0,0,0,0,0,0,83,86,127,100,42,95.43,169,-5.00,37.00,-1027.00
2024-06-07 01:13:22.677060,0,0,0,0,0,0,83,86,127,100,42,95.43,169,2.00,10.00,-985.00
2024-06-07 01:13:22.686148,0,0,0,0,0,0,83,86,128,100,42,95.55,169,-3.00,12.00,-968.00
2024-06-07 01:13:22.879994,0,0,0,0,0,0,83,86,128,100,41,95.11,169,-1.00,8.00,-1025.00
2024-06-07 01:13:22.893673,0,0,0,0,0,0,83,87,128,100,41,95.22,169,2.00,34.00,-1009.00
2024-06-07 01:13:22.991628,0,0,0,0,0,0,83,87,128,100,41,95.10,169,19.00,22.00,-986.00
2024-06-07 01:13:23.159384,0,0,0,0,0,0,83,87,128,100,41,95.40,170,3.00,9.00,-978.00
2024-06-07 01:13:23.195590,0,0,0,0,0,0,83,87,128,100,41,95.11,170,-22.00,28.00,-1007.00
2024-06-07 01:13:23.391040,0,0,0,0,0,0,83,87,128,100,41,95.36,170,20.00,24.00,-1005.00
2024-06-07 01:13:23.400481,1,0,0,0,0,0,83,87,128,100,41,95.15,170,32.00,28.00,-1026.00
2024-06-07 01:13:23.596006,6,-1,0,-1,0,0,83,87,131,100,41,95.13,170,14.00,27.00,-1042.00
2024-06-07 01:13:23.604463,8,-1,0,-2,0,0,83,87,132,100,41,95.26,170,12.00,25.00,-993.00
2024-06-07 01:13:23.800507,8,-1,0,-3,0,0,83,87,130,100,41,95.08,170,44.00,14.00,-1017.00
2024-06-07 01:13:23.808442,8,0,0,-5,0,0,83,87,129,100,41,95.27,170,55.00,21.00,-990.00
2024-06-07 01:13:24.006449,6,0,0,-6,0,0,85,87,128,100,41,95.18,170,37.00,12.00,-1015.00
2024-06-07 01:13:24.012555,5,-1,0,-7,0,0,85,87,129,100,41,95.42,171,67.00,15.00,-988.00
2024-06-07 01:13:24.210100,4,-1,0,-8,0,0,85,87,129,100,41,94.92,171,16.00,46.00,-1016.00
2024-06-07 01:13:24.216952,1,-1,0,-8,0,0,85,87,128,100,41,94.94,171,15.00,8.00,-1000.00
2024-06-07 01:13:24.318412,-1,-1,0,-7,0,0,85,87,129,100,41,94.93,171,48.00,10.00,-1013.00
2024-06-07 01:13:24.517232,-3,0,0,-6,0,0,85,87,129,100,41,95.27,171,62.00,20.00,-977.00
2024-06-07 01:13:24.522990,-4,0,0,-5,0,0,85,87,128,100,41,94.98,171,39.00,7.00,-979.00
2024-06-07 01:13:24.624390,-3,0,0,-4,0,0,85,87,128,100,41,94.88,171,55.00,5.00,-1011.00
2024-06-07 01:13:24.824450,-1,0,0,-3,0,0,85,87,128,100,41,95.29,171,54.00,14.00,-1000.00
2024-06-07 01:13:24.828852,0,0,0,-3,0,0,85,87,128,100,40,95.29,171,24.00,6.00,-981.00
2024-06-07 01:13:24.930341,0,0,0,-3,0,0,84,86,128,100,40,95.32,171,53.00,29.00,-987.00
2024-06-07 01:13:25.032490,0,0,0,-3,0,0,84,86,128,100,40,95.17,172,2.00,11.00,-994.00
2024-06-07 01:13:25.134513,0,0,0,-2,0,0,84,86,128,100,40,95.40,172,6.00,13.00,-1023.00
2024-06-07 01:13:25.239830,0,0,0,-2,0,0,84,86,128,100,40,95.36,172,-8.00,29.00,-1022.00
2024-06-07 01:13:25.338397,-1,0,0,-2,0,0,84,86,129,100,40,95.48,172,4.00,8.00,-986.00
2024-06-07 01:13:25.541193,-2,0,0,-2,0,0,84,86,129,100,40,95.43,172,0.00,2.00,-981.00
2024-06-07 01:13:25.541344,-3,0,0,-1,0,0,84,86,130,100,40,95.24,172,4.00,35.00,-1037.00
2024-06-07 01:13:25.593594,-3,0,0,-1,0,0,84,86,130,100,40,95.04,172,42.00,9.00,-975.00
2024-06-07 01:13:25.696240,-1,0,0,0,0,0,84,86,129,100,40,95.07,172,-27.00,1.00,-974.00
2024-06-07 01:13:25.797427,0,0,0,0,0,0,84,86,129,100,40,95.25,172,6.00,36.00,-1051.00
2024-06-07 01:13:26.053766,0,0,0,0,0,0,83,86,129,100,40,95.27,172,-5.00,-4.00,-1014.00
2024-06-07 01:13:26.053916,0,0,0,0,0,0,83,86,129,100,40,94.87,173,-3.00,11.00,-981.00
2024-06-07 01:13:26.103288,0,0,0,0,0,0,83,86,129,100,40,95.46,173,0.00,5.00,-942.00
2024-06-07 01:13:26.258052,0,0,0,0,0,0,83,86,129,100,40,95.05,173,-12.00,22.00,-997.00
2024-06-07 01:13:26.307416,0,0,0,0,0,0,83,86,128,100,40,95.33,173,12.00,-2.00,-1005.00
2024-06-07 01:13:26.462945,0,0,0,0,0,0,83,86,129,100,40,95.12,173,-15.00,25.00,-1059.00
2024-06-07 01:13:26.513352,0,0,0,0,0,0,83,86,129,100,40,95.61,173,-7.00,12.00,-1011.00
2024-06-07 01:13:26.613253,0,0,0,0,0,0,83,86,130,100,40,95.32,173,-13.00,23.00,-980.00
2024-06-07 01:13:26.715223,0,0,0,0,0,0,83,86,129,100,40,95.38,173,-26.00,0.00,-966.00
2024-06-07 01:13:26.872486,0,0,0,0,0,0,83,86,129,100,40,95.24,173,-3.00,7.00,-966.00
2024-06-07 01:13:26.919242,0,0,0,0,0,0,84,86,129,100,40,95.45,173,3.00,-9.00,-997.00
2024-06-07 01:13:27.077178,0,0,0,0,0,0,84,86,129,100,40,95.52,174,0.00,2.00,-1006.00
2024-06-07 01:13:27.123208,0,0,0,0,0,0,84,86,130,100,40,95.50,174,26.00,-5.00,-967.00
2024-06-07 01:13:27.282168,0,0,0,0,0,0,84,86,130,100,40,95.20,174,4.00,7.00,-961.00
2024-06-07 01:13:27.327334,0,0,0,0,0,0,84,86,130,100,40,95.19,174,-9.00,9.00,-1005.00
2024-06-07 01:13:27.488693,0,0,0,0,0,0,84,86,130,100,40,95.37,174,-1.00,12.00,-1015.00
2024-06-07 01:13:27.531404,0,-1,0,0,0,0,84,86,130,100,40,95.17,174,-10.00,20.00,-971.00
2024-06-07 01:13:27.692246,0,0,0,0,0,0,84,86,131,100,40,95.03,174,0.00,1.00,-1046.00
2024-06-07 01:13:27.736565,0,0,0,0,0,0,84,86,131,100,40,95.35,174,-13.00,7.00,-970.00
2024-06-07 01:13:27.837118,0,-1,0,0,0,0,84,86,132,100,39,95.07,174,-7.00,10.00,-968.00
2024-06-07 01:13:27.999106,0,-8,0,0,0,0,84,86,135,100,39,95.31,174,7.00,8.00,-1030.00
2024-06-07 01:13:28.041146,0,-8,0,0,-1,0,84,86,134,100,39,95.39,175,-9.00,27.00,-1015.00
2024-06-07 01:13:28.203458,0,-6,0,0,-2,0,84,86,135,100,39,95.33,175,-15.00,22.00,-991.00
2024-06-07 01:13:28.245405,0,-4,0,0,-3,0,84,86,134,100,39,95.13,175,26.00,37.00,-1002.00
2024-06-07 01:13:28.408296,0,-1,0,0,-3,0,84,86,133,100,39,95.31,175,12.00,21.00,-981.00
2024-06-07 01:13:28.448968,0,0,0,0,-3,0,84,86,133,100,39,95.42,175,-32.00,50.00,-992.00
2024-06-07 01:13:28.613096,0,0,0,0,-3,0,84,86,132,100,39,95.05,175,7.00,33.00,-1024.00
2024-06-07 01:13:28.652876,0,0,0,0,-2,0,84,86,133,100,39,95.25,175,-3.00,9.00,-954.00
2024-06-07 01:13:28.817892,0,0,0,0,-2,0,84,86,133,100,39,95.36,175,2.00,36.00,-1001.00
2024-06-07 01:13:28.859228,0,-1,0,0,-2,0,84,86,132,100,39,95.22,175,-16.00,37.00,-995.00
2024-06-07 01:13:28.958977,0,-1,0,0,-2,0,84,86,133,100,39,95.21,175,-9.00,34.00,-1007.00
2024-06-07 01:13:29.060977,0,-1,0,0,-2,0,84,86,132,100,39,95.19,176,-13.00,44.00,-996.00
2024-06-07 01:13:29.163341,0,-1,0,0,-2,0,84,86,132,100,39,94.99,176,19.00,33.00,-1025.00
2024-06-07 01:13:29.264918,0,-1,0,0,-2,0,84,86,131,100,39,95.25,176,-31.00,4.00,-942.00
2024-06-07 01:13:29.432292,0,0,0,0,-2,0,84,86,131,100,39,95.15,176,-29.00,21.00,-1017.00
2024-06-07 01:13:29.432329,0,0,0,0,-2,0,84,86,131,100,39,95.14,176,-19.00,38.00,-1003.00
2024-06-07 01:13:29.519965,0,3,0,0,-2,0,84,86,131,100,39,95.08,176,-29.00,26.00,-1024.00
2024-06-07 01:13:29.637044,0,3,0,0,-1,0,84,86,130,100,39,95.11,176,0.00,15.00,-1009.00
2024-06-07 01:13:29.729331,0,1,0,0,0,0,84,86,131,100,39,95.30,176,8.00,14.00,-984.00
2024-06-07 01:13:29.826828,0,0,0,0,0,0,84,86,131,100,38,95.52,176,-17.00,3.00,-1021.00
2024-06-07 01:13:29.946675,0,0,0,0,0,0,84,86,131,100,38,95.27,176,5.00,14.00,-978.00
2024-06-07 01:13:30.030003,0,0,0,0,0,0,84,86,131,100,38,95.25,177,-10.00,3.00,-1018.00
2024-06-07 01:13:30.152476,0,0,0,0,0,0,84,86,132,100,38,95.23,177,-1.00,23.00,-1004.00
2024-06-07 01:13:30.234330,0,0,0,0,0,0,84,86,132,100,38,95.00,177,12.00,25.00,-992.00
2024-06-07 01:13:30.355093,0,0,0,0,0,0,84,86,131,100,38,95.23,177,14.00,11.00,-996.00
2024-06-07 01:13:30.437913,0,0,0,0,0,0,84,86,131,100,38,95.16,177,-2.00,2.00,-983.00
2024-06-07 01:13:30.558763,0,0,0,0,0,0,84,86,131,100,38,95.21,177,7.00,37.00,-999.00
2024-06-07 01:13:30.642014,0,0,0,0,0,0,84,86,132,100,38,95.20,177,18.00,1.00,-1028.00
2024-06-07 01:13:30.763830,0,0,0,0,0,0,84,86,131,100,38,95.16,177,2.00,7.00,-1038.00
2024-06-07 01:13:30.845952,0,0,0,0,0,0,84,86,131,100,38,95.39,177,2.00,42.00,-994.00
2024-06-07 01:13:30.968362,0,0,0,0,0,0,84,86,131,100,38,95.39,177,-14.00,24.00,-1033.00
2024-06-07 01:13:31.049817,-1,0,0,0,0,0,84,86,130,100,38,95.32,178,-29.00,-5.00,-985.00
2024-06-07 01:13:31.151896,-1,0,0,0,0,0,84,86,131,100,38,95.07,178,-16.00,9.00,-968.00
2024-06-07 01:13:31.275503,0,0,0,0,0,0,84,86,130,100,38,95.06,178,-15.00,13.00,-1044.00
2024-06-07 01:13:31.355890,-1,0,0,0,0,0,84,86,130,100,38,95.21,178,-16.00,37.00,-993.00
2024-06-07 01:13:31.480367,-1,0,0,0,0,0,84,86,130,100,38,95.30,178,-20.00,15.00,-1020.00
2024-06-07 01:13:31.560357,-1,0,0,0,0,0,84,86,129,100,38,95.29,178,0.00,16.00,-1000.00
2024-06-07 01:13:31.685800,-1,0,0,0,0,0,84,86,130,100,38,95.38,178,0.00,31.00,-1017.00
2024-06-07 01:13:31.765208,-1,0,0,0,0,0,84,86,129,100,38,95.50,178,6.00,-13.00,-1016.00
2024-06-07 01:13:31.892969,0,0,0,0,0,0,84,86,129,100,38,95.25,178,1.00,8.00,-1037.00
2024-06-07 01:13:31.969813,0,5,0,0,0,0,83,86,130,100,38,95.56,178,-6.00,29.00,-1007.00
2024-06-07 01:13:32.070435,0,7,0,0,1,0,83,86,129,100,38,95.31,179,-20.00,1.00,-990.00
2024-06-07 01:13:32.210596,0,5,0,0,2,0,83,86,128,100,38,95.20,179,19.00,-28.00,-997.00
2024-06-07 01:13:32.401806,0,2,0,0,3,0,83,86,128,100,38,95.10,179,7.00,-7.00,-1040.00
2024-06-07 01:13:32.402142,0,0,0,0,3,0,83,86,128,100,38,95.28,179,7.00,11.00,-1052.00
2024-06-07 01:13:32.508636,0,-1,0,0,3,0,83,86,128,100,38,95.22,179,-7.00,-12.00,-1042.00
2024-06-07 01:13:32.579687,0,-1,0,0,3,0,83,86,128,100,38,95.10,179,18.00,-16.00,-974.00
2024-06-07 01:13:32.686523,0,0,0,0,2,0,83,86,128,100,38,95.07,179,-2.00,-26.00,-964.00
2024-06-07 01:13:32.864691,0,0,0,0,2,0,83,86,128,100,38,95.36,179,-27.00,6.00,-1008.00
2024-06-07 01:13:32.886154,0,0,0,0,2,0,83,86,128,100,38,95.34,179,-12.00,22.00,-1077.00
2024-06-07 01:13:33.015946,0,0,0,0,2,0,83,86,129,100,38,95.38,179,-14.00,0.00,-979.00
2024-06-07 01:13:33.160922,0,0,0,0,2,0,83,86,129,100,38,95.34,180,-1.00,6.00,-1039.00
2024-06-07 01:13:33.205615,0,0,0,0,2,0,83,86,129,100,38,95.16,180,4.00,-23.00,-951.00
2024-06-07 01:13:33.295666,0,0,0,0,2,0,83,86,128,100,38,95.22,180,-40.00,5.00,-984.00
2024-06-07 01:13:33.436380,0,0,0,0,2,0,83,86,129,100,38,95.27,180,-18.00,-10.00,-974.00
2024-06-07 01:13:33.579838,-1,0,0,0,2,0,83,86,129,100,38,95.10,180,-27.00,13.00,-1022.00
2024-06-07 01:13:33.579893,-1,-1,0,0,2,0,83,86,129,100,38,95.16,180,2.00,-15.00,-983.00
2024-06-07 01:13:33.743657,0,-4,0,0,1,0,83,86,129,100,38,95.11,180,23.00,-11.00,-1073.00
2024-06-07 01:13:33.937918,0,-4,0,0,1,0,83,86,128,100,38,95.50,180,-16.00,-2.00,-986.00
2024-06-07 01:13:34.051160,0,-2,0,0,0,0,83,86,128,100,38,95.31,180,6.00,14.00,-1020.00
2024-06-07 01:13:34.051345,0,-1,0,0,0,0,83,86,128,100,38,95.27,180,-2.00,14.00,-1049.00
2024-06-07 01:13:34.058554,0,0,0,0,0,0,83,86,128,100,38,95.07,181,-15.00,10.00,-977.00
2024-06-07 01:13:34.194511,0,0,0,0,0,0,83,86,128,100,38,95.38,181,-2.00,45.00,-1017.00
2024-06-07 01:13:34.359707,0,-1,0,0,0,0,83,86,128,100,38,95.24,181,-15.00,16.00,-973.00
2024-06-07 01:13:34.364697,0,-1,0,0,0,0,83,86,128,100,38,95.65,181,-7.00,11.00,-956.00
2024-06-07 01:13:34.552167,-1,-1,0,0,0,0,83,86,128,100,38,95.03,181,-3.00,0.00,-1040.00
2024-06-07 01:13:34.568870,0,0,0,0,0,0,83,86,127,100,38,94.89,181,-40.00,30.00,-1001.00
2024-06-07 01:13:34.756968,0,0,0,0,0,0,83,86,127,100,38,95.39,181,0.00,19.00,-976.00
2024-06-07 01:13:34.775964,0,0,0,0,0,0,83,86,128,100,37,95.20,181,13.00,20.00,-1007.00
2024-06-07 01:13:34.876732,0,0,0,0,0,0,83,86,127,100,37,95.21,181,-28.00,14.00,-999.00
2024-06-07 01:13:34.976570,0,0,0,0,0,0,83,85,127,100,37,95.48,181,3.00,-2.00,-962.00
2024-06-07 01:13:35.079028,0,0,0,0,0,0,83,85,127,100,37,95.18,182,6.00,-14.00,-1030.00
2024-06-07 01:13:35.268992,0,0,0,0,0,0,83,85,126,100,37,95.61,182,-5.00,-6.00,-1019.00
2024-06-07 01:13:35.283744,0,0,0,0,0,0,83,85,127,100,37,95.29,182,3.00,10.00,-1013.00
2024-06-07 01:13:35.473787,0,0,0,0,0,0,83,85,126,100,37,95.37,182,-12.00,20.00,-1030.00
2024-06-07 01:13:35.488485,0,0,0,0,0,0,83,85,126,100,37,95.19,182,31.00,29.00,-975.00
2024-06-07 01:13:35.591370,0,0,0,0,0,0,83,85,126,100,37,95.38,182,6.00,20.00,-957.00
2024-06-07 01:13:35.692179,0,0,0,0,0,0,83,85,127,100,37,95.20,182,3.00,17.00,-1017.00
2024-06-07 01:13:35.793766,0,0,0,0,0,0,83,85,127,100,37,95.34,182,-2.00,22.00,-1002.00
2024-06-07 01:13:35.985699,0,0,0,0,0,0,83,85,128,100,37,95.31,182,-26.00,-13.00,-1016.00
2024-06-07 01:13:36.001082,0,0,0,0,0,0,83,86,129,100,37,95.00,182,15.00,51.00,-1017.00
2024-06-07 01:13:36.099286,0,0,0,0,0,0,83,86,129,100,37,95.19,183,0.00,-23.00,-980.00
2024-06-07 01:13:36.201412,0,-1,0,0,0,0,83,86,129,100,37,95.00,183,15.00,16.00,-965.00
2024-06-07 01:13:36.303282,0,-1,2,0,0,0,83,86,129,100,37,95.43,183,3.00,24.00,-983.00
2024-06-07 01:13:36.497422,0,-1,8,0,0,0,83,86,129,100,37,95.16,183,-3.00,11.00,-1001.00
2024-06-07 01:13:36.509033,0,-1,14,0,0,0,83,86,129,100,37,95.34,183,-36.00,19.00,-984.00
2024-06-07 01:13:36.609479,0,-1,20,0,0,0,83,86,129,100,37,95.28,183,12.00,4.00,-986.00
2024-06-07 01:13:36.805002,0,-1,26,0,0,0,83,86,130,100,37,95.18,183,-3.00,0.00,-1011.00
2024-06-07 01:13:36.813543,0,-1,32,0,0,0,83,86,129,100,37,95.35,183,17.00,11.00,-974.00
2024-06-07 01:13:37.011706,0,-1,38,0,0,0,83,86,130,100,37,94.93,183,-21.00,1.00,-1049.00
2024-06-07 01:13:37.017146,0,-1,44,0,0,0,83,86,130,100,37,95.49,183,8.00,9.00,-1005.00
2024-06-07 01:13:37.165059,0,0,50,0,0,0,83,86,130,100,37,95.09,184,11.00,18.00,-974.00
2024-06-07 01:13:37.221215,0,0,56,0,0,0,83,86,130,100,37,94.99,184,-9.00,15.00,-1065.00
2024-06-07 01:13:37.325919,0,-1,62,0,0,0,83,86,130,100,37,94.96,184,2.00,10.00,-976.00
2024-06-07 01:13:37.425136,0,-1,68,0,0,0,83,86,130,100,37,95.62,184,3.00,7.00,-969.00
2024-06-07 01:13:37.476226,0,-1,74,0,0,0,83,86,130,100,37,95.18,184,-1.00,21.00,-992.00
2024-06-07 01:13:37.625301,0,-1,80,0,0,0,83,86,130,100,37,95.00,184,-15.00,-2.00,-971.00
2024-06-07 01:13:37.680444,0,-1,86,0,0,0,83,86,129,100,37,95.25,184,-12.00,19.00,-1016.00
2024-06-07 01:13:37.828660,-1,-1,92,0,0,0,83,86,129,100,37,94.79,184,-17.00,16.00,-1009.00
2024-06-07 01:13:37.884438,0,-1,98,0,0,0,83,86,129,100,37,95.16,184,-13.00,-4.00,-933.00
2024-06-07 01:13:38.037323,0,-1,110,0,0,0,84,86,129,100,37,95.18,185,-26.00,10.00,-990.00
2024-06-07 01:13:38.088010,0,-1,116,0,0,0,84,86,128,100,37,95.55,185,-9.00,2.00,-969.00
2024-06-07 01:13:38.238228,0,-1,123,0,0,0,84,86,128,100,37,95.34,185,13.00,33.00,-1077.00
2024-06-07 01:13:38.292238,0,0,129,0,0,0,84,86,128,100,37,95.11,185,-39.00,42.00,-1006.00
2024-06-07 01:13:38.442935,0,0,135,0,0,0,84,86,127,100,37,95.30,185,17.00,20.00,-1019.00
2024-06-07 01:13:38.496015,0,0,141,0,0,0,84,86,127,100,37,95.20,185,16.00,14.00,-1017.00
2024-06-07 01:13:38.648019,0,0,147,0,0,0,84,86,127,100,37,94.99,185,-2.00,9.00,-1025.00
2024-06-07 01:13:38.699987,0,0,153,0,0,0,84,86,128,100,37,95.38,185,10.00,20.00,-967.00
2024-06-07 01:13:38.852532,0,0,159,0,0,0,84,86,128,100,36,95.44,185,-6.00,-8.00,-1024.00
2024-06-07 01:13:38.906210,0,0,165,0,0,0,84,86,128,100,36,95.35,185,-21.00,3.00,-994.00
2024-06-07 01:13:39.005926,0,0,171,0,0,0,83,86,129,100,36,95.32,186,-3.00,-9.00,-1011.00
2024-06-07 01:13:39.160464,0,0,177,0,0,0,83,86,129,100,36,95.21,186,-26.00,7.00,-999.00
2024-06-07 01:13:39.209830,1,0,-176,0,0,0,83,86,130,100,36,95.21,186,18.00,19.00,-1010.00
2024-06-07 01:13:39.311952,1,0,-170,0,0,0,83,86,130,100,36,95.51,186,18.00,22.00,-937.00
2024-06-07 01:13:39.466905,1,0,-163,0,0,0,83,86,132,100,36,95.00,186,-6.00,-5.00,-990.00
2024-06-07 01:13:39.515911,1,0,-157,0,0,0,83,86,132,100,36,95.33,186,34.00,18.00,-992.00
2024-06-07 01:13:39.671657,1,0,-151,0,0,0,83,86,132,100,36,95.08,186,-12.00,11.00,-995.00
2024-06-07 01:13:39.719895,0,0,-145,0,0,0,83,86,132,100,36,95.14,186,12.00,27.00,-1030.00
2024-06-07 01:13:39.878004,0,0,-139,0,0,0,83,86,132,100,36,95.09,186,-44.00,-8.00,-986.00
2024-06-07 01:13:39.924007,0,0,-133,0,0,0,83,86,133,100,36,95.19,186,-12.00,-15.00,-998.00
2024-06-07 01:13:40.083672,0,0,-126,0,0,0,84,86,132,100,36,95.26,187,-21.00,4.00,-970.00
2024-06-07 01:13:40.127880,0,0,-120,0,0,0,84,86,132,100,36,95.21,187,18.00,-7.00,-998.00
2024-06-07 01:13:40.229888,0,0,-114,0,0,0,84,86,132,100,36,95.05,187,-16.00,8.00,-966.00
2024-06-07 01:13:40.331841,0,0,-108,0,0,0,84,86,132,100,36,95.32,187,1.00,3.00,-985.00
2024-06-07 01:13:40.434238,0,0,-102,0,0,0,84,86,131,100,36,95.23,187,-6.00,29.00,-1080.00
2024-06-07 01:13:40.597425,1,0,-95,0,0,0,84,86,132,100,36,95.18,187,-16.00,6.00,-958.00
2024-06-07 01:13:40.637801,0,0,-89,0,0,0,84,86,132,100,36,95.46,187,8.00,13.00,-1007.00
2024-06-07 01:13:40.797932,1,0,-83,0,0,0,84,86,131,100,36,95.36,187,0.00,1.00,-999.00
2024-06-07 01:13:40.841785,0,0,-77,0,0,0,84,86,131,100,36,95.37,187,1.00,-2.00,-1005.00
2024-06-07 01:13:41.002824,0,0,-71,0,0,0,84,86,132,100,36,95.51,187,8.00,7.00,-987.00
2024-06-07 01:13:41.046183,0,0,-64,0,0,0,83,85,131,100,36,95.31,188,-4.00,16.00,-1008.00
2024-06-07 01:13:41.147853,0,0,-58,0,0,0,83,85,131,100,36,95.51,188,20.00,5.00,-1011.00
2024-06-07 01:13:41.251736,1,0,-52,0,0,0,83,85,132,100,36,95.16,188,-24.00,24.00,-1062.00
2024-06-07 01:13:41.351762,0,0,-46,0,0,0,83,85,131,100,36,95.07,188,12.00,-19.00,-1006.00
2024-06-07 01:13:41.514856,0,0,-40,0,0,0,83,85,131,100,36,95.41,188,-6.00,17.00,-1034.00
2024-06-07 01:13:41.555740,0,0,-34,0,0,0,83,85,131,100,36,95.04,188,-25.00,1.00,-995.00
2024-06-07 01:13:41.606767,0,0,-28,0,0,0,83,85,132,100,36,95.33,188,-34.00,3.00,-974.00
2024-06-07 01:13:41.719551,0,0,-22,0,0,0,83,85,131,100,36,95.15,188,21.00,8.00,-953.00
2024-06-07 01:13:41.810881,0,0,-16,0,0,0,83,85,131,100,35,95.32,188,6.00,-6.00,-1002.00
2024-06-07 01:13:41.925148,0,0,-12,0,0,0,83,85,131,100,35,95.16,188,-36.00,9.00,-1003.00
2024-06-07 01:13:42.014847,0,0,-9,0,0,0,84,86,131,100,35,95.12,189,13.00,-8.00,-978.00
2024-06-07 01:13:42.129254,0,0,-7,0,0,0,84,86,130,100,35,95.16,189,13.00,2.00,-1018.00
2024-06-07 01:13:42.220088,1,0,-5,0,0,0,84,86,129,100,35,95.04,189,-5.00,-1.00,-953.00
2024-06-07 01:13:42.321434,1,0,-4,0,0,0,84,86,128,100,35,95.02,189,20.00,8.00,-1026.00
2024-06-07 01:13:42.436317,1,0,-3,0,0,0,84,86,126,100,35,95.19,189,-10.00,15.00,-986.00
2024-06-07 01:13:42.527316,1,0,-2,0,0,0,84,86,125,100,35,95.29,189,-28.00,33.00,-977.00
2024-06-07 01:13:42.626983,1,-1,-2,0,0,0,84,86,124,100,35,95.35,189,-7.00,12.00,-1029.00
2024-06-07 01:13:42.744262,1,-1,-2,0,0,0,84,86,122,100,35,95.17,189,18.00,34.00,-1036.00
2024-06-07 01:13:42.830852,1,-1,-2,0,0,0,84,86,121,100,35,95.15,189,-8.00,-4.00,-1026.00
2024-06-07 01:13:42.948497,0,0,-2,0,0,0,84,86,121,100,35,95.32,189,24.00,3.00,-1048.00
2024-06-07 01:13:43.034921,0,0,-2,0,0,0,84,86,119,100,35,95.05,190,-7.00,9.00,-996.00
2024-06-07 01:13:43.136863,0,0,-2,0,0,0,84,86,119,90,35,95.26,190,-29.00,22.00,-1072.00
2024-06-07 01:13:43.238969,0,0,-2,0,0,0,84,86,119,90,35,95.29,190,18.00,-12.00,-1032.00
2024-06-07 01:13:43.340936,0,0,-2,0,0,0,84,86,119,90,35,95.25,190,-13.00,15.00,-1054.00
2024-06-07 01:13:43.460469,0,0,-2,0,0,0,84,86,120,90,35,95.23,190,12.00,17.00,-1010.00
2024-06-07 01:13:43.549284,0,0,-2,0,0,0,84,86,120,90,35,95.22,190,-26.00,4.00,-974.00
2024-06-07 01:13:43.649287,0,0,-2,0,0,0,84,86,121,90,35,95.25,190,-31.00,7.00,-989.00
2024-06-07 01:13:43.750382,0,0,-2,0,0,0,84,86,122,100,35,95.16,190,-5.00,-4.00,-980.00
2024-06-07 01:13:43.851631,0,0,-2,0,0,0,84,86,123,100,35,95.04,190,12.00,3.00,-954.00
2024-06-07 01:13:43.952891,0,0,-2,0,0,0,84,86,124,100,35,95.15,190,-4.00,9.00,-976.00
2024-06-07 01:13:44.075355,0,0,-2,0,0,0,84,86,126,100,35,95.03,191,0.00,13.00,-1004.00
2024-06-07 01:13:44.156756,0,-1,-2,0,0,0,84,86,126,100,35,94.86,191,5.00,40.00,-1023.00
2024-06-07 01:13:44.279652,0,-1,-2,0,0,0,84,86,127,100,35,95.24,191,-53.00,24.00,-950.00
2024-06-07 01:13:44.360748,0,-1,-2,0,0,0,84,86,127,100,35,95.27,191,8.00,17.00,-998.00
2024-06-07 01:13:44.484632,0,-1,-2,0,0,0,84,86,127,100,35,95.01,191,20.00,15.00,-1013.00
2024-06-07 01:13:44.565582,0,0,-2,0,0,0,84,86,127,100,35,95.02,191,1.00,11.00,-934.00
2024-06-07 01:13:44.666926,0,0,-2,0,0,0,84,86,127,100,35,95.23,191,17.00,12.00,-986.00
2024-06-07 01:13:44.791490,0,0,-4,0,0,0,84,86,126,100,35,95.40,191,-4.00,41.00,-1013.00
2024-06-07 01:13:44.871759,0,0,-10,0,0,0,84,86,126,100,35,95.05,191,-31.00,15.00,-967.00
2024-06-07 01:13:44.974041,0,0,-16,0,0,0,84,86,127,100,35,95.19,191,7.00,36.00,-1002.00
2024-06-07 01:13:45.075288,0,0,-22,0,0,0,83,85,126,100,35,95.08,192,31.00,-7.00,-1033.00
2024-06-07 01:13:45.177663,0,0,-28,0,0,0,83,85,126,100,35,95.24,192,14.00,11.00,-1011.00
2024-06-07 01:13:45.279093,0,0,-34,0,0,0,83,85,127,100,35,95.21,192,8.00,22.00,-982.00
2024-06-07 01:13:45.329304,0,0,-40,0,0,0,83,85,128,100,35,95.34,192,0.00,1.00,-1034.00
2024-06-07 01:13:45.508176,0,0,-46,0,0,0,83,85,128,100,35,95.24,192,23.00,29.00,-1016.00
2024-06-07 01:13:45.533365,0,-1,-52,0,0,0,83,85,129,100,35,95.33,192,1.00,16.00,-987.00
2024-06-07 01:13:45.713345,0,-1,-58,0,0,0,83,85,129,100,35,95.03,192,-9.00,4.00,-1002.00
2024-06-07 01:13:45.737390,0,-1,-64,0,0,0,83,85,130,100,34,94.91,192,-4.00,16.00,-970.00
2024-06-07 01:13:45.917766,0,-1,-69,0,0,0,83,85,130,100,34,95.25,192,-19.00,7.00,-1012.00
2024-06-07 01:13:45.941339,0,-1,-75,0,0,0,83,85,131,100,34,95.20,192,5.00,22.00,-999.00
2024-06-07 01:13:46.123000,0,0,-81,0,0,0,83,86,132,100,34,95.19,193,25.00,18.00,-995.00
2024-06-07 01:13:46.145430,0,-1,-87,0,0,0,83,86,132,100,34,95.18,193,-5.00,29.00,-988.00
2024-06-07 01:13:46.247490,0,-1,-94,0,0,0,83,86,132,100,34,95.33,193,-15.00,33.00,-971.00
2024-06-07 01:13:46.349365,0,-1,-100,0,0,0,83,86,132,100,34,95.42,193,0.00,3.00,-982.00
2024-06-07 01:13:46.532130,0,0,-106,0,0,0,83,86,133,100,34,95.18,193,-37.00,38.00,-1035.00
2024-06-07 01:13:46.553265,0,0,-112,0,0,0,83,86,132,100,34,95.31,193,6.00,25.00,-1033.00
2024-06-07 01:13:46.737048,0,-1,-118,0,0,0,83,86,132,100,34,95.22,193,22.00,31.00,-1011.00
2024-06-07 01:13:46.757169,0,-1,-124,0,0,0,83,86,132,100,34,95.25,193,14.00,8.00,-998.00
2024-06-07 01:13:46.941991,0,-1,-130,0,0,0,83,86,133,100,34,95.39,193,1.00,14.00,-1021.00
2024-06-07 01:13:46.961185,0,0,-136,0,0,0,83,86,132,100,34,95.25,193,15.00,-3.00,-998.00
2024-06-07 01:13:47.128223,1,0,-142,0,0,0,82,86,133,100,34,95.52,194,-7.00,32.00,-1038.00
2024-06-07 01:13:47.256221,1,0,-148,0,0,0,82,86,133,100,34,95.51,194,19.00,2.00,-1005.00
2024-06-07 01:13:47.267199,1,0,-154,0,0,0,82,86,133,100,34,95.22,194,-13.00,-5.00,-994.00
2024-06-07 01:13:47.413386,0,0,-160,0,0,0,82,86,134,100,34,95.36,194,-40.00,30.00,-1041.00
2024-06-07 01:13:47.498842,0,0,-166,0,0,0,82,86,134,100,34,95.23,194,4.00,37.00,-1007.00
2024-06-07 01:13:47.607563,0,0,-172,0,0,0,82,86,135,100,34,95.32,194,3.00,0.00,-964.00
2024-06-07 01:13:47.679233,0,0,-178,0,0,0,82,86,134,100,34,95.28,194,0.00,5.00,-945.00
2024-06-07 01:13:47.784996,0,0,175,0,0,0,82,86,135,100,34,95.09,194,-16.00,11.00,-983.00
2024-06-07 01:13:47.938383,0,0,169,0,0,0,82,86,135,110,34,95.50,194,10.00,29.00,-1020.00
2024-06-07 01:13:47.981114,0,0,163,0,0,0,82,86,135,110,34,95.01,194,-9.00,7.00,-966.00
2024-06-07 01:13:48.181310,0,0,157,0,0,0,84,86,135,110,34,95.12,195,-23.00,25.00,-1043.00
2024-06-07 01:13:48.185478,0,-1,151,0,0,0,84,86,135,110,34,95.05,195,-12.00,41.00,-961.00
2024-06-07 01:13:48.327677,0,-1,146,0,0,0,84,86,134,110,34,95.13,195,-20.00,13.00,-1025.00
2024-06-07 01:13:48.490680,0,-1,140,0,0,0,84,86,135,100,34,95.24,195,-10.00,30.00,-982.00
2024-06-07 01:13:48.492656,0,0,134,0,0,0,84,86,135,100,34,95.17,195,-16.00,25.00,-982.00
2024-06-07 01:13:48.634194,0,0,128,0,0,0,84,86,134,100,34,95.09,195,-7.00,-16.00,-982.00
2024-06-07 01:13:48.795887,0,0,122,0,0,0,84,86,134,100,34,95.31,195,19.00,-9.00,-1030.00
2024-06-07 01:13:48.800214,0,0,116,0,0,0,84,86,133,100,34,95.40,195,-12.00,12.00,-1014.00
2024-06-07 01:13:48.939222,0,0,109,0,0,0,84,86,134,100,34,95.20,195,13.00,18.00,-1017.00
2024-06-07 01:13:49.102898,0,0,103,0,0,0,84,86,133,100,34,95.49,195,-24.00,5.00,-982.00
2024-06-07 01:13:49.103142,0,0,97,0,0,0,83,86,133,100,34,95.53,196,-1.00,4.00,-1023.00
2024-06-07 01:13:49.246213,0,0,91,0,0,0,83,86,134,100,34,95.49,196,14.00,25.00,-1063.00
2024-06-07 01:13:49.410158,0,0,85,0,0,0,83,86,133,100,34,95.58,196,5.00,-22.00,-1004.00
2024-06-07 01:13:49.410466,0,-1,79,0,0,0,83,86,134,100,34,95.37,196,0.00,17.00,-989.00
2024-06-07 01:13:49.553821,0,0,73,0,0,0,83,86,133,100,34,95.47,196,8.00,10.00,-999.00
2024-06-07 01:13:49.717307,0,0,67,0,0,0,83,86,133,100,34,95.40,196,9.00,7.00,-996.00
2024-06-07 01:13:49.717397,0,0,61,0,0,0,83,86,133,100,34,95.32,196,-2.00,4.00,-971.00
2024-06-07 01:13:49.872963,0,0,55,0,0,0,83,86,133,100,34,95.61,196,-32.00,-13.00,-945.00
2024-06-07 01:13:49.873024,0,0,49,0,0,0,83,86,132,100,34,95.12,196,-12.00,42.00,-1074.00
2024-06-07 01:13:49.970037,0,0,42,0,0,0,83,86,132,100,34,95.58,196,-13.00,-11.00,-995.00
2024-06-07 01:13:50.115996,0,0,36,0,0,0,83,86,131,100,34,95.26,197,-9.00,6.00,-1000.00
2024-06-07 01:13:50.174126,0,0,31,0,0,0,83,86,131,100,34,95.50,197,16.00,-3.00,-987.00
2024-06-07 01:13:50.320764,0,0,25,0,0,0,83,86,130,100,34,95.26,197,2.00,38.00,-997.00
2024-06-07 01:13:50.378078,1,0,19,0,0,0,83,86,130,100,34,95.17,197,-4.00,9.00,-996.00
2024-06-07 01:13:50.527256,1,0,14,0,0,0,83,86,130,100,34,95.34,197,10.00,6.00,-991.00
2024-06-07 01:13:50.582011,0,-1,10,0,0,0,83,86,130,100,34,95.19,197,11.00,5.00,-1025.00
2024-06-07 01:13:50.730862,0,0,7,0,0,0,83,86,130,100,34,95.44,197,1.00,-10.00,-953.00
2024-06-07 01:13:50.785939,0,0,5,0,0,0,83,86,130,100,34,95.09,197,8.00,30.00,-1022.00
2024-06-07 01:13:50.935162,0,0,3,0,0,0,83,86,130,100,34,95.16,197,-14.00,31.00,-1042.00
2024-06-07 01:13:50.989826,0,0,2,0,0,0,83,86,130,100,34,95.45,197,-5.00,25.00,-1002.00
2024-06-07 01:13:51.140139,0,0,1,0,0,0,83,86,130,100,34,95.13,198,-8.00,10.00,-998.00
2024-06-07 01:13:51.193874,0,0,0,0,0,0,83,86,129,100,34,94.91,198,0.00,8.00,-994.00
2024-06-07 01:13:51.296271,0,0,0,0,0,0,83,86,128,100,34,95.14,198,-23.00,25.00,-1030.00
2024-06-07 01:13:51.447543,0,0,0,0,0,0,83,86,128,100,34,95.07,198,-11.00,40.00,-1038.00
2024-06-07 01:13:51.501092,0,0,0,0,0,0,83,86,127,100,34,95.27,198,13.00,11.00,-1004.00
2024-06-07 01:13:51.652809,0,-1,0,0,0,0,83,86,126,100,34,95.05,198,-25.00,31.00,-1033.00
2024-06-07 01:13:51.705007,0,0,0,0,0,0,83,86,125,100,34,95.20,198,13.00,14.00,-1008.00
2024-06-07 01:13:51.856975,0,0,0,0,0,0,83,86,124,100,34,95.13,198,-20.00,4.00,-1036.00
2024-06-07 01:13:51.909056,0,0,0,0,0,0,83,86,123,100,34,94.88,198,6.00,57.00,-1007.00
2024-06-07 01:13:52.061567,0,0,0,0,0,0,83,86,123,100,34,95.13,198,0.00,33.00,-1084.00
2024-06-07 01:13:52.113213,0,0,0,0,0,0,84,85,123,100,34,95.56,199,1.00,5.00,-1018.00
2024-06-07 01:13:52.214906,0,0,0,0,0,0,84,85,123,100,34,95.23,199,11.00,26.00,-989.00
2024-06-07 01:13:52.368934,0,-1,0,0,0,0,84,85,123,100,34,94.98,199,-3.00,29.00,-1043.00
2024-06-07 01:13:52.418973,0,-1,0,0,0,0,84,85,124,100,34,95.15,199,-11.00,21.00,-1037.00
2024-06-07 01:13:52.576103,0,-1,0,0,0,0,84,85,123,100,34,95.16,199,10.00,6.00,-999.00
2024-06-07 01:13:52.624576,0,0,0,0,0,0,84,85,123,100,34,95.12,199,20.00,16.00,-956.00
2024-06-07 01:13:52.724977,0,0,0,0,0,0,84,85,122,100,34,95.12,199,4.00,14.00,-943.00
2024-06-07 01:13:52.826901,0,0,0,0,0,0,84,85,122,100,34,95.15,199,-3.00,24.00,-1009.00
2024-06-07 01:13:52.985969,0,0,0,0,0,0,84,85,122,100,34,94.86,199,21.00,12.00,-1018.00
2024-06-07 01:13:53.031043,0,0,0,0,0,0,84,85,121,100,34,95.12,200,26.00,15.00,-992.00
2024-06-07 01:13:53.132912,0,0,0,0,0,0,83,85,121,100,34,95.21,200,16.00,30.00,-1041.00
2024-06-07 01:13:53.290519,0,0,0,0,0,0,83,85,121,100,34,95.19,200,16.00,33.00,-982.00
2024-06-07 01:13:53.336702,0,0,0,0,0,0,83,85,121,100,34,95.14,200,27.00,-24.00,-1006.00
2024-06-07 01:13:53.389871,0,0,0,0,0,0,83,85,121,100,34,95.25,200,-1.00,7.00,-1035.00
2024-06-07 01:13:53.489848,0,0,0,0,0,0,83,85,121,100,34,95.21,200,-25.00,29.00,-1000.00
2024-06-07 01:13:53.598193,0,0,0,0,0,0,83,85,122,100,34,94.95,200,5.00,15.00,-980.00
2024-06-07 01:13:53.693958,0,0,0,0,0,0,83,85,122,100,34,95.10,200,8.00,32.00,-1073.00
2024-06-07 01:13:53.802407,0,0,0,0,0,0,83,85,122,100,33,95.08,200,22.00,16.00,-1029.00
2024-06-07 01:13:53.897996,0,0,0,0,0,0,83,85,123,100,33,94.97,200,-10.00,25.00,-946.00
2024-06-07 01:13:54.007246,0,0,0,0,0,0,83,85,124,100,33,94.62,201,-16.00,27.00,-1070.00
2024-06-07 01:13:54.101966,0,0,0,0,0,0,83,85,124,100,33,95.04,201,-5.00,26.00,-1023.00
2024-06-07 01:13:54.212177,0,0,0,0,0,0,83,85,124,100,33,95.13,201,-28.00,14.00,-972.00
2024-06-07 01:13:54.305851,0,0,0,0,0,0,83,85,125,100,33,94.78,201,8.00,11.00,-1048.00
2024-06-07 01:13:54.417802,0,0,0,0,0,0,83,85,125,100,33,95.04,201,5.00,37.00,-976.00
2024-06-07 01:13:54.509956,0,0,0,0,0,0,83,85,125,100,33,94.99,201,0.00,14.00,-944.00
2024-06-07 01:13:54.621772,0,-1,0,0,0,0,83,85,125,100,33,94.98,201,14.00,-19.00,-975.00
2024-06-07 01:13:54.713805,0,0,0,0,0,0,83,85,125,100,33,95.20,201,14.00,8.00,-996.00
2024-06-07 01:13:54.826486,0,0,0,0,0,0,83,85,125,100,33,95.33,201,7.00,8.00,-991.00
2024-06-07 01:13:54.917868,0,0,0,0,0,0,83,85,125,100,33,95.33,201,-18.00,20.00,-995.00
2024-06-07 01:13:55.031661,0,0,0,0,0,0,83,85,126,100,33,95.35,202,-10.00,37.00,-1013.00
2024-06-07 01:13:55.122584,0,0,0,0,0,0,82,85,126,100,33,95.18,202,5.00,21.00,-1020.00
2024-06-07 01:13:55.223694,0,0,0,0,0,0,82,85,126,100,33,94.97,202,12.00,3.00,-967.00
2024-06-07 01:13:55.338361,0,0,0,0,0,0,82,85,127,100,33,95.34,202,16.00,24.00,-1030.00
2024-06-07 01:13:55.427845,0,0,0,0,0,0,82,85,127,100,33,95.29,202,-8.00,19.00,-993.00
2024-06-07 01:13:55.543711,0,0,0,0,0,0,82,85,128,100,33,95.26,202,-16.00,22.00,-1041.00
2024-06-07 01:13:55.631857,0,0,0,0,0,0,82,85,128,100,33,95.36,202,-6.00,21.00,-981.00
2024-06-07 01:13:55.748359,0,0,0,0,0,0,82,85,128,100,33,95.32,202,-23.00,2.00,-956.00
2024-06-07 01:13:55.835683,0,0,0,0,0,0,82,85,128,100,33,95.11,202,-1.00,33.00,-1053.00
2024-06-07 01:13:55.952781,0,0,0,0,0,0,82,85,129,100,33,95.08,202,-8.00,9.00,-1021.00
2024-06-07 01:13:56.039845,0,0,0,0,0,0,82,85,129,100,33,95.55,203,-24.00,30.00,-1021.00
2024-06-07 01:13:56.157789,0,0,0,0,0,0,83,85,130,100,33,95.11,203,13.00,25.00,-1002.00
2024-06-07 01:13:56.243735,0,0,0,0,0,0,83,85,130,100,33,95.11,203,-39.00,21.00,-984.00
2024-06-07 01:13:56.345883,0,-1,0,0,0,0,83,85,130,100,33,95.36,203,-36.00,32.00,-997.00
2024-06-07 01:13:56.466936,0,-1,0,0,0,0,83,85,131,100,33,95.22,203,-35.00,24.00,-956.00
2024-06-07 01:13:56.550575,-1,-1,0,0,0,0,83,85,131,100,33,95.05,203,-41.00,17.00,-973.00
2024-06-07 01:13:56.669607,-1,-1,0,0,0,0,83,85,130,100,33,95.18,203,-23.00,22.00,-1000.00
2024-06-07 01:13:56.754545,-1,-1,0,0,0,0,83,85,130,100,33,94.83,203,25.00,5.00,-989.00
2024-06-07 01:13:56.874676,0,-1,0,0,0,0,83,85,129,100,33,95.29,203,-38.00,4.00,-963.00
2024-06-07 01:13:56.958515,0,0,0,0,0,0,83,85,128,100,33,95.08,203,-3.00,23.00,-1024.00
2024-06-07 01:13:57.009775,0,0,0,0,0,0,83,85,127,100,33,94.85,204,-21.00,31.00,-1046.00
2024-06-07 01:13:57.181734,0,0,0,0,0,0,84,86,127,100,33,95.53,204,-6.00,35.00,-1036.00
2024-06-07 01:13:57.213538,0,0,0,0,0,0,84,86,126,100,33,95.27,204,9.00,11.00,-1024.00
2024-06-07 01:13:57.386965,0,0,0,0,0,0,84,86,126,100,33,95.25,204,-13.00,30.00,-1048.00
2024-06-07 01:13:57.418574,0,0,0,0,0,0,84,86,125,100,33,95.03,204,26.00,-10.00,-1012.00
2024-06-07 01:13:57.591286,0,0,0,0,0,0,84,86,125,100,33,95.28,204,2.00,10.00,-1010.00
2024-06-07 01:13:57.623032,0,0,0,0,0,0,84,86,125,100,33,95.21,204,14.00,-28.00,-1023.00
2024-06-07 01:13:57.725586,0,0,0,0,0,0,84,86,125,100,33,95.27,204,13.00,1.00,-1027.00
2024-06-07 01:13:57.828058,0,0,0,0,0,0,84,86,126,100,33,94.74,204,-11.00,3.00,-1013.00
2024-06-07 01:13:57.930565,0,0,0,0,0,0,84,86,125,100,33,95.12,204,16.00,-12.00,-1025.00
2024-06-07 01:13:58.031644,0,0,0,0,0,0,84,86,126,100,33,95.05,205,0.00,-13.00,-998.00
2024-06-07 01:13:58.133184,0,0,0,0,0,0,83,85,127,100,33,95.12,205,-25.00,-8.00,-1007.00
2024-06-07 01:13:58.233508,0,0,0,0,0,0,83,85,128,100,33,94.79,205,4.00,-10.00,-1008.00
2024-06-07 01:13:58.410606,0,-1,0,0,0,0,83,85,129,100,33,95.40,205,1.00,15.00,-1027.00
2024-06-07 01:13:58.437921,0,-1,0,0,0,0,83,85,130,100,33,95.15,205,11.00,-2.00,-959.00
2024-06-07 01:13:58.615188,0,-1,0,0,0,0,83,85,131,100,33,95.03,205,-3.00,13.00,-995.00
2024-06-07 01:13:58.641522,0,-1,0,0,0,0,83,85,132,100,33,95.34,205,-2.00,-20.00,-943.00
2024-06-07 01:13:58.820315,0,-1,0,0,0,0,83,85,133,100,33,95.16,205,-21.00,6.00,-952.00
2024-06-07 01:13:58.845390,0,-1,0,0,0,0,83,85,134,100,33,95.09,205,25.00,20.00,-984.00
2024-06-07 01:13:59.024794,0,-1,0,0,0,0,83,85,134,100,33,95.29,205,-12.00,12.00,-991.00
2024-06-07 01:13:59.049483,0,-1,0,0,0,0,83,85,135,100,33,95.53,206,29.00,-21.00,-982.00
2024-06-07 01:13:59.155047,0,-1,0,0,0,0,83,85,134,110,33,94.84,206,-38.00,19.00,-941.00
2024-06-07 01:13:59.253771,0,-1,0,0,0,0,83,85,133,110,33,95.09,206,-16.00,-10.00,-938.00
2024-06-07 01:13:59.355686,0,-1,0,0,0,0,83,85,132,100,33,95.29,206,-18.00,35.00,-1026.00
2024-06-07 01:13:59.536777,0,-1,0,0,0,0,83,85,132,100,33,95.02,206,16.00,2.00,-1035.00
2024-06-07 01:13:59.559355,0,-1,0,0,0,0,83,85,133,100,33,95.23,206,0.00,24.00,-1027.00
2024-06-07 01:13:59.742388,0,0,0,0,0,0,83,85,132,100,33,95.22,206,-20.00,7.00,-984.00
2024-06-07 01:13:59.763302,0,0,0,0,0,0,83,85,131,100,32,95.40,206,-7.00,22.00,-1029.00
2024-06-07 01:13:59.947922,0,-1,0,0,0,0,83,85,131,100,32,95.24,206,3.00,-16.00,-980.00
2024-06-07 01:13:59.967305,0,-1,0,0,0,0,83,85,131,100,32,95.07,206,-15.00,21.00,-1016.00
2024-06-07 01:14:00.151102,0,-1,0,0,0,0,83,85,131,100,32,95.06,207,-44.00,18.00,-1008.00
2024-06-07 01:14:00.171441,0,-1,0,0,0,0,83,85,131,100,32,95.01,207,7.00,-22.00,-979.00
2024-06-07 01:14:00.355721,0,0,0,0,0,0,83,85,131,100,32,95.35,207,-4.00,0.00,-1002.00
2024-06-07 01:14:00.375355,0,0,0,0,0,0,83,85,131,100,32,95.00,207,12.00,17.00,-1020.00
2024-06-07 01:14:00.560748,0,0,0,0,0,0,83,85,131,100,32,95.28,207,-30.00,10.00,-989.00
2024-06-07 01:14:00.579214,0,0,0,0,0,0,83,85,131,100,32,95.04,207,-2.00,-6.00,-1012.00
2024-06-07 01:14:00.629979,0,0,0,0,0,0,83,85,131,100,32,95.23,207,14.00,19.00,-1023.00
2024-06-07 01:14:00.765712,0,-1,0,0,0,0,83,85,131,100,32,95.35,207,-20.00,8.00,-963.00
2024-06-07 01:14:00.834056,0,-1,0,0,0,0,83,85,131,100,32,95.28,207,-14.00,-1.00,-980.00
2024-06-07 01:14:00.970304,0,0,0,0,0,0,83,85,131,100,32,95.32,207,-31.00,-7.00,-979.00
2024-06-07 01:14:01.038063,0,0,0,0,0,0,83,85,131,100,32,94.93,208,-18.00,12.00,-1004.00
2024-06-07 01:14:01.140497,0,0,0,0,0,0,82,85,131,100,32,95.30,208,12.00,5.00,-988.00
2024-06-07 01:14:01.242219,0,0,0,0,0,0,82,85,132,100,32,95.20,208,-33.00,0.00,-1017.00
2024-06-07 01:14:01.381590,0,0,0,0,0,0,82,85,131,100,32,94.95,208,-4.00,18.00,-1019.00
2024-06-07 01:14:01.446342,0,0,0,0,0,0,82,85,132,100,32,95.15,208,1.00,3.00,-1011.00
2024-06-07 01:14:01.548964,0,-1,0,0,0,0,82,85,132,100,32,95.18,208,-37.00,14.00,-998.00
2024-06-07 01:14:01.650029,0,-1,0,0,0,0,82,85,133,100,32,95.19,208,-22.00,21.00,-1040.00
2024-06-07 01:14:01.789292,0,-1,0,0,0,0,82,85,133,100,32,95.04,208,-6.00,15.00,-1028.00
2024-06-07 01:14:01.854087,0,-1,0,0,0,0,82,85,133,100,32,95.04,208,-26.00,13.00,-1012.00
2024-06-07 01:14:01.994305,0,-1,0,0,0,0,82,85,133,100,32,95.42,208,-14.00,10.00,-1004.00
2024-06-07 01:14:02.119036,-1,-1,0,0,0,0,82,85,133,100,32,95.19,209,-22.00,17.00,-987.00
2024-06-07 01:14:02.160072,-1,0,0,0,0,0,82,85,132,100,32,95.38,209,3.00,5.00,-1013.00
2024-06-07 01:14:02.435902,0,0,0,0,0,0,82,85,132,100,32,95.43,209,0.00,4.00,-980.00
2024-06-07 01:14:02.436385,0,0,0,0,0,0,82,85,131,100,32,95.22,209,-8.00,-8.00,-997.00
2024-06-07 01:14:02.485752,0,0,0,0,0,0,82,85,131,100,32,95.12,209,16.00,8.00,-991.00
2024-06-07 01:14:02.594155,0,0,0,0,0,0,82,85,131,100,32,95.38,209,-26.00,-3.00,-1002.00
2024-06-07 01:14:02.670176,0,0,0,0,0,0,82,85,131,100,32,95.16,209,-37.00,1.00,-1011.00
2024-06-07 01:14:02.773781,0,0,0,0,0,0,82,85,130,100,31,95.46,209,0.00,23.00,-1006.00
2024-06-07 01:14:02.889968,0,0,0,0,0,0,82,85,130,100,31,95.08,209,-6.00,1.00,-1007.00
2024-06-07 01:14:02.975960,0,0,0,0,0,0,82,85,130,100,31,95.37,209,-28.00,10.00,-988.00
2024-06-07 01:14:03.120397,0,0,0,0,0,0,82,85,130,100,31,95.05,210,-13.00,9.00,-1016.00
2024-06-07 01:14:03.256850,0,0,0,0,0,0,83,85,130,100,31,95.23,210,13.00,10.00,-999.00
2024-06-07 01:14:03.282260,0,0,0,0,0,0,83,85,130,100,31,95.13,210,5.00,-12.00,-1003.00
2024-06-07 01:14:03.401746,0,0,0,0,0,0,83,85,130,100,31,95.14,210,-45.00,1.00,-1029.00
2024-06-07 01:14:03.545441,-1,0,0,0,0,0,83,85,129,100,31,94.94,210,-15.00,11.00,-1015.00
2024-06-07 01:14:03.687375,-1,0,0,0,0,0,83,85,130,100,31,95.07,210,-38.00,45.00,-978.00
2024-06-07 01:14:03.689899,-1,0,0,0,0,0,83,85,129,100,31,95.48,210,-2.00,9.00,-956.00
2024-06-07 01:14:03.848455,-1,0,0,0,0,0,83,85,129,100,31,95.22,210,9.00,-10.00,-1011.00
2024-06-07 01:14:03.903904,-1,0,0,0,0,0,83,85,129,100,31,95.36,210,-11.00,14.00,-1081.00
2024-06-07 01:14:03.995821,0,0,0,0,0,0,83,85,128,100,31,95.23,210,4.00,0.00,-990.00
2024-06-07 01:14:04.098138,0,0,0,0,0,0,83,85,128,100,31,95.22,211,-32.00,-3.00,-1050.00
2024-06-07 01:14:04.199883,0,0,0,0,0,0,82,84,128,100,31,95.26,211,7.00,-5.00,-996.00
2024-06-07 01:14:04.349167,0,0,0,0,0,0,82,84,127,100,31,94.84,211,-24.00,6.00,-976.00
2024-06-07 01:14:04.403821,0,0,0,0,0,0,82,84,127,100,31,95.00,211,-11.00,19.00,-1047.00
2024-06-07 01:14:04.556688,0,0,0,0,0,0,82,84,127,100,31,95.11,211,-24.00,31.00,-1001.00
2024-06-07 01:14:04.607870,0,0,0,0,0,0,82,84,128,100,31,95.22,211,11.00,5.00,-1005.00
2024-06-07 01:14:04.715199,0,0,0,0,0,0,82,84,128,100,31,95.16,211,-19.00,-1.00,-1026.00
2024-06-07 01:14:04.815516,0,0,0,0,0,0,82,84,128,100,31,95.11,211,-18.00,2.00,-979.00
2024-06-07 01:14:04.863157,0,0,0,0,0,0,82,84,129,100,31,95.02,211,-50.00,18.00,-1023.00
2024-06-07 01:14:04.964779,-1,0,0,0,0,0,82,84,130,100,31,95.42,211,-15.00,20.00,-978.00
2024-06-07 01:14:05.168341,-1,0,0,0,0,0,82,84,130,100,31,95.25,212,-11.00,5.00,-1029.00
2024-06-07 01:14:05.219689,-1,-1,0,0,0,0,82,86,130,100,31,95.16,212,-39.00,18.00,-1005.00
2024-06-07 01:14:05.271297,-1,0,0,0,0,0,82,86,131,100,31,95.20,212,-31.00,31.00,-977.00
2024-06-07 01:14:05.373476,0,-1,0,0,0,0,82,86,130,100,31,95.20,212,-2.00,11.00,-952.00
2024-06-07 01:14:05.476957,0,0,0,0,0,0,82,86,131,100,31,95.13,212,17.00,27.00,-999.00
2024-06-07 01:14:05.577431,0,0,0,0,0,0,82,86,131,100,31,95.19,212,-10.00,19.00,-1007.00
2024-06-07 01:14:05.682113,0,-1,0,0,0,0,82,86,131,100,31,95.17,212,1.00,12.00,-968.00
2024-06-07 01:14:05.780763,0,-1,0,0,0,0,82,86,131,100,31,95.06,212,-23.00,8.00,-963.00
2024-06-07 01:14:05.884953,0,-1,0,0,0,0,82,86,131,100,31,94.77,212,-10.00,1.00,-1017.00
2024-06-07 01:14:05.984727,0,-1,0,0,0,0,82,86,131,100,31,95.00,212,-23.00,-14.00,-997.00
2024-06-07 01:14:06.089942,0,0,0,0,0,0,82,86,130,100,31,95.37,213,0.00,-9.00,-976.00
2024-06-07 01:14:06.188767,-1,0,0,0,0,0,83,85,129,100,31,95.11,213,-13.00,37.00,-944.00
2024-06-07 01:14:06.295332,-1,0,0,0,0,1,83,85,127,100,31,95.29,213,0.00,1.00,-957.00
2024-06-07 01:14:06.392644,-1,0,0,0,0,2,83,85,126,100,31,95.02,213,4.00,-2.00,-932.00
2024-06-07 01:14:06.499599,0,0,0,0,0,2,83,85,122,100,31,95.17,213,1.00,20.00,-909.00
2024-06-07 01:14:06.596616,0,0,0,0,0,3,83,85,119,90,31,95.29,213,4.00,2.00,-901.00
2024-06-07 01:14:06.704325,0,0,0,0,0,4,83,85,114,90,31,94.78,213,9.00,-5.00,-891.00
2024-06-07 01:14:06.800665,0,0,0,0,0,5,83,85,107,80,30,95.24,213,43.00,-9.00,-903.00
2024-06-07 01:14:06.909414,0,0,0,0,0,6,83,85,99,80,30,94.83,213,-15.00,-24.00,-903.00
2024-06-07 01:14:07.004639,0,0,0,0,0,7,83,85,92,70,30,94.90,213,-29.00,11.00,-998.00
2024-06-07 01:14:07.116292,0,0,0,0,0,7,83,85,84,60,30,94.84,214,10.00,-8.00,-1002.00
2024-06-07 01:14:07.208676,0,0,0,0,0,6,83,86,77,50,30,94.51,214,15.00,-6.00,-1010.00
2024-06-07 01:14:07.321030,0,0,0,0,0,6,83,86,70,40,30,94.74,214,19.00,1.00,-1035.00
2024-06-07 01:14:07.412617,0,0,0,0,0,5,83,86,64,40,30,94.65,214,23.00,-1.00,-1067.00
2024-06-07 01:14:07.523618,0,0,0,0,0,5,83,86,58,30,30,94.61,214,-6.00,6.00,-1013.00
