TS,pitch,roll,yaw,vgx,vgy,vgz,templ,temph,tof,h,bat,baro,time,agx,agy,agz
2024-06-07 01:14:29.027600,0,0,1,0,0,0,85,86,10,0,30,93.61,215,15.00,8.00,-1000.00
2024-06-07 01:14:29.027742,0,0,1,0,0,0,85,86,10,0,30,93.83,215,13.00,8.00,-1001.00
2024-06-07 01:14:29.088501,0,0,1,0,0,0,85,86,10,0,30,94.07,215,14.00,8.00,-996.00
2024-06-07 01:14:29.191321,0,0,1,0,0,0,85,86,10,0,30,94.22,215,15.00,9.00,-1000.00
2024-06-07 01:14:29.292122,0,0,1,0,0,0,84,87,10,0,30,93.91,215,13.00,8.00,-999.00
2024-06-07 01:14:29.393884,0,0,1,0,0,0,84,87,10,0,30,93.80,215,15.00,9.00,-999.00
2024-06-07 01:14:29.496993,0,0,1,0,0,0,84,87,10,0,30,93.96,215,14.00,9.00,-1000.00
2024-06-07 01:14:29.598139,0,0,1,0,0,0,84,87,10,0,30,94.09,215,14.00,8.00,-1000.00
2024-06-07 01:14:29.699515,0,0,1,0,0,0,84,87,10,0,30,94.06,215,15.00,9.00,-997.00
2024-06-07 01:14:29.845518,0,0,1,0,0,0,84,87,10,0,30,94.03,215,14.00,9.00,-997.00
2024-06-07 01:14:29.903514,0,0,1,0,0,0,84,87,10,0,30,93.98,215,13.00,9.00,-998.00
2024-06-07 01:14:30.050848,0,0,1,0,0,0,84,87,10,0,30,94.07,215,15.00,8.00,-1000.00
2024-06-07 01:14:30.108141,0,0,1,0,0,0,84,87,10,0,30,94.18,215,13.00,9.00,-1002.00
2024-06-07 01:14:30.255618,0,0,1,0,0,0,84,87,10,0,30,93.98,215,16.00,8.00,-999.00
2024-06-07 01:14:30.311553,0,0,1,0,0,0,85,87,10,0,30,93.92,215,13.00,8.00,-999.00
2024-06-07 01:14:30.460328,0,0,1,0,0,0,85,87,10,0,30,93.94,215,14.00,9.00,-1002.00
2024-06-07 01:14:30.517973,0,0,1,0,0,0,85,87,10,0,30,93.98,215,15.00,8.00,-1000.00
2024-06-07 01:14:30.617408,0,0,1,0,0,0,85,87,10,0,30,93.90,215,13.00,7.00,-1000.00
2024-06-07 01:14:30.719434,0,0,1,0,0,0,85,87,10,0,30,94.02,215,15.00,8.00,-1001.00
2024-06-07 01:14:30.869953,0,0,1,0,0,0,85,87,10,0,30,94.29,215,14.00,9.00,-1001.00
2024-06-07 01:14:30.923353,0,0,1,0,0,0,85,87,10,0,30,93.83,215,15.00,9.00,-1000.00
2024-06-07 01:14:31.025382,0,0,1,0,0,0,85,87,10,0,30,93.87,215,14.00,8.00,-998.00
2024-06-07 01:14:31.127466,0,0,1,0,0,0,85,87,10,0,30,93.64,215,13.00,8.00,-998.00
2024-06-07 01:14:31.279139,0,0,1,0,0,0,85,87,10,0,30,93.71,215,15.00,9.00,-1000.00
2024-06-07 01:14:31.331340,0,0,1,0,0,0,85,88,10,0,30,94.10,215,15.00,9.00,-1001.00
2024-06-07 01:14:31.484138,0,0,1,0,0,0,85,88,10,0,30,93.94,215,15.00,9.00,-999.00
2024-06-07 01:14:31.535344,0,0,1,0,0,0,85,88,10,0,30,94.10,215,15.00,9.00,-1000.00
2024-06-07 01:14:31.667759,0,0,1,0,0,0,85,88,10,0,30,94.01,215,16.00,11.00,-999.00
2024-06-07 01:14:31.739211,0,0,1,0,0,0,85,88,10,0,30,94.10,215,15.00,11.00,-999.00
2024-06-07 01:14:31.897988,0,0,1,0,0,0,85,88,10,0,30,93.92,215,13.00,8.00,-1001.00
2024-06-07 01:14:31.943150,0,0,1,0,0,0,85,88,10,0,30,93.92,216,16.00,9.00,-1000.00
2024-06-07 01:14:32.111625,0,0,1,0,0,0,85,88,10,0,30,93.92,216,31.00,-8.00,-986.00
2024-06-07 01:14:32.306001,0,0,1,0,0,0,85,88,10,0,30,93.92,216,-8.00,30.00,-997.00
2024-06-07 01:14:32.399485,0,0,1,0,0,0,85,88,10,0,30,93.92,216,14.00,10.00,-998.00
2024-06-07 01:14:32.399552,0,0,1,0,0,0,85,88,10,0,30,93.92,216,30.00,-24.00,-1112.00
2024-06-07 01:14:32.455750,0,0,1,0,0,-1,85,88,10,0,30,93.92,216,-2.00,3.00,-1124.00
2024-06-07 01:14:32.569825,0,0,1,0,0,-3,85,88,10,0,30,93.92,216,-19.00,28.00,-1297.00
2024-06-07 01:14:32.606313,-1,0,1,0,0,-5,85,88,17,0,30,93.94,216,-18.00,23.00,-1203.00
2024-06-07 01:14:32.759917,-1,0,1,0,0,-6,85,88,26,0,30,94.22,216,-2.00,36.00,-1060.00
2024-06-07 01:14:32.872210,0,0,1,0,0,-7,85,88,34,10,30,94.63,216,-8.00,8.00,-1040.00
2024-06-07 01:14:32.912264,0,0,1,0,0,-7,85,88,40,10,30,94.40,217,-24.00,4.00,-976.00
2024-06-07 01:14:33.074229,0,0,1,0,0,-6,85,88,48,20,30,94.16,217,9.00,0.00,-971.00
2024-06-07 01:14:33.119291,0,0,1,0,0,-6,85,88,56,30,30,94.40,217,0.00,17.00,-947.00
2024-06-07 01:14:33.218235,0,0,1,0,0,-5,85,88,60,30,30,94.69,217,-3.00,18.00,-896.00
2024-06-07 01:14:33.337759,1,0,1,0,0,-4,86,87,66,40,30,94.47,217,1.00,3.00,-881.00
2024-06-07 01:14:33.481108,0,0,1,0,0,-3,86,87,71,40,30,94.94,217,-30.00,27.00,-895.00
2024-06-07 01:14:33.524820,0,0,1,0,0,-2,86,87,75,40,30,94.86,217,-26.00,5.00,-880.00
2024-06-07 01:14:33.644953,0,0,1,0,0,-1,86,87,78,50,30,94.75,217,-2.00,18.00,-914.00
2024-06-07 01:14:33.788264,0,0,1,0,0,0,86,87,79,50,30,94.81,217,23.00,2.00,-947.00
2024-06-07 01:14:33.830456,0,0,1,0,0,0,86,87,81,50,30,94.57,217,0.00,17.00,-960.00
2024-06-07 01:14:33.952122,1,0,1,0,0,0,86,87,82,50,30,94.87,218,3.00,-2.00,-1013.00
2024-06-07 01:14:34.095535,1,0,1,0,0,0,86,87,83,50,30,95.04,218,1.00,6.00,-966.00
2024-06-07 01:14:34.136343,1,0,1,0,0,0,86,87,83,50,30,95.18,218,0.00,5.00,-962.00
2024-06-07 01:14:34.301804,0,0,1,0,0,0,86,87,84,50,30,94.81,218,-14.00,9.00,-1049.00
2024-06-07 01:14:34.344883,0,0,1,0,0,0,86,87,85,50,30,94.64,218,40.00,-17.00,-1004.00
2024-06-07 01:14:34.442096,0,0,1,0,0,0,86,87,85,50,30,94.75,218,31.00,-10.00,-948.00
2024-06-07 01:14:34.556156,1,0,1,0,0,0,86,87,85,50,30,94.95,218,-5.00,-5.00,-990.00
2024-06-07 01:14:34.646226,1,0,1,0,0,0,86,87,86,50,30,95.00,218,-9.00,-5.00,-1045.00
2024-06-07 01:14:34.760421,0,0,1,0,0,0,86,87,86,50,30,95.05,218,16.00,-5.00,-960.00
2024-06-07 01:14:34.854403,0,0,1,0,0,0,86,87,86,50,30,94.82,218,20.00,-21.00,-942.00
2024-06-07 01:14:34.952062,0,0,1,0,0,0,86,87,86,60,30,94.81,219,0.00,13.00,-1055.00
2024-06-07 01:14:35.068035,0,0,1,0,0,0,86,87,87,60,30,94.76,219,-7.00,35.00,-980.00
2024-06-07 01:14:35.156089,0,0,1,0,0,0,86,87,86,60,30,94.68,219,-7.00,9.00,-1007.00
2024-06-07 01:14:35.273130,0,0,1,0,0,0,86,87,86,60,30,95.15,219,-2.00,-2.00,-961.00
2024-06-07 01:14:35.360082,0,0,1,0,0,0,85,87,85,60,30,94.73,219,6.00,6.00,-1032.00
2024-06-07 01:14:35.480905,0,0,1,0,0,0,85,87,85,60,30,94.84,219,1.00,17.00,-975.00
2024-06-07 01:14:35.564266,1,0,1,0,0,0,85,87,84,60,30,95.09,219,14.00,-40.00,-1033.00
2024-06-07 01:14:35.684388,1,0,1,0,0,0,85,87,84,60,30,94.99,219,0.00,-14.00,-1007.00
2024-06-07 01:14:35.771124,0,0,1,0,0,0,85,87,83,50,30,94.94,219,4.00,31.00,-1033.00
2024-06-07 01:14:35.870070,0,0,1,0,0,0,85,87,83,50,30,94.59,219,-1.00,7.00,-994.00
2024-06-07 01:14:35.989611,0,0,1,0,0,0,85,87,82,50,30,94.97,220,21.00,-7.00,-1075.00
2024-06-07 01:14:36.073992,0,0,1,0,0,0,85,87,82,50,30,94.65,220,-15.00,36.00,-1026.00
2024-06-07 01:14:36.124797,0,0,1,0,0,0,85,87,82,50,30,95.00,220,-10.00,29.00,-1019.00
2024-06-07 01:14:36.301307,0,0,1,0,0,0,85,87,81,50,30,95.13,220,8.00,-1.00,-1016.00
2024-06-07 01:14:36.329038,0,0,1,0,0,0,85,87,81,50,30,94.88,220,10.00,11.00,-992.00
2024-06-07 01:14:36.501470,0,0,1,0,0,0,85,87,81,50,30,94.90,220,-24.00,7.00,-1029.00
2024-06-07 01:14:36.533687,0,0,1,0,0,0,85,87,81,50,30,95.13,220,15.00,2.00,-960.00
2024-06-07 01:14:36.665627,0,0,1,0,0,0,85,87,81,50,30,94.95,220,-5.00,6.00,-1013.00
2024-06-07 01:14:36.738461,0,0,1,0,0,0,85,87,81,50,30,94.71,220,5.00,4.00,-1013.00
2024-06-07 01:14:36.841180,0,0,1,0,0,0,85,87,80,50,30,95.04,220,-14.00,12.00,-1011.00
2024-06-07 01:14:36.940916,0,0,1,0,0,0,85,87,80,50,30,94.66,221,18.00,-16.00,-1011.00
2024-06-07 01:14:37.115524,0,0,1,0,0,0,85,87,80,50,30,94.87,221,-13.00,18.00,-1034.00
2024-06-07 01:14:37.148352,0,0,1,0,0,0,85,87,80,50,30,94.78,221,-9.00,12.00,-975.00
2024-06-07 01:14:37.246725,0,0,1,0,0,0,85,87,80,50,30,94.85,221,-6.00,24.00,-1043.00
2024-06-07 01:14:37.422706,0,0,1,0,0,0,85,87,81,50,30,95.09,221,-34.00,14.00,-988.00
2024-06-07 01:14:37.450662,0,0,1,0,0,0,85,87,81,50,30,94.95,221,-18.00,-1.00,-975.00
2024-06-07 01:14:37.627833,0,0,1,0,0,0,85,87,81,50,30,95.06,221,12.00,31.00,-1010.00
2024-06-07 01:14:37.654660,0,0,1,0,0,0,85,87,81,50,30,94.89,221,15.00,13.00,-1061.00
2024-06-07 01:14:37.832407,0,0,1,0,0,0,85,87,81,50,30,94.84,221,-20.00,27.00,-1038.00
2024-06-07 01:14:37.858565,0,0,1,0,0,0,85,87,81,50,30,94.83,221,-4.00,13.00,-1042.00
2024-06-07 01:14:38.037274,0,-1,1,0,0,0,85,87,81,50,30,94.77,222,-2.00,13.00,-989.00
2024-06-07 01:14:38.062680,0,0,1,0,0,0,85,87,80,50,30,94.62,222,-24.00,29.00,-974.00
2024-06-07 01:14:38.244003,0,-1,1,0,0,0,85,87,80,50,30,94.86,222,10.00,-4.00,-967.00
2024-06-07 01:14:38.266608,0,-1,1,0,0,0,85,87,79,50,30,94.76,222,-4.00,-10.00,-942.00
2024-06-07 01:14:38.447276,0,0,1,0,0,0,85,87,78,50,30,94.88,222,16.00,17.00,-1006.00
2024-06-07 01:14:38.470902,0,0,1,0,0,0,85,87,77,50,30,95.05,222,10.00,3.00,-1037.00
2024-06-07 01:14:38.652067,0,0,1,0,0,0,85,87,77,50,30,94.71,222,-5.00,22.00,-988.00
2024-06-07 01:14:38.674648,0,0,1,0,0,0,85,87,76,50,30,94.64,222,-11.00,24.00,-1021.00
2024-06-07 01:14:38.856450,0,0,1,0,0,0,85,87,76,50,30,94.76,222,-10.00,7.00,-1026.00
2024-06-07 01:14:38.878612,0,0,1,0,0,0,85,87,76,50,30,94.92,222,7.00,-12.00,-1034.00
2024-06-07 01:14:39.062829,0,0,1,0,0,0,85,87,76,50,30,94.75,223,-20.00,4.00,-1007.00
2024-06-07 01:14:39.082684,0,0,1,0,0,0,85,87,76,50,30,94.82,223,-11.00,17.00,-1000.00
2024-06-07 01:14:39.266262,0,0,1,0,0,0,85,87,77,50,30,94.67,223,-7.00,24.00,-1013.00
2024-06-07 01:14:39.287912,0,0,1,0,0,0,85,87,77,50,30,94.94,223,-2.00,0.00,-1023.00
2024-06-07 01:14:39.471353,0,0,1,0,0,0,86,87,79,50,30,94.85,223,-33.00,45.00,-1001.00
2024-06-07 01:14:39.491996,0,0,1,0,0,0,86,87,80,50,30,95.26,223,-45.00,25.00,-992.00
2024-06-07 01:14:39.631535,0,-1,1,0,0,0,86,87,81,50,30,94.91,223,10.00,19.00,-986.00
2024-06-07 01:14:39.695961,0,-1,1,0,0,0,86,87,81,50,30,95.10,223,-10.00,4.00,-958.00
2024-06-07 01:14:39.880570,0,-1,1,0,0,0,86,87,82,50,30,95.09,223,-23.00,-2.00,-1029.00
2024-06-07 01:14:39.900576,0,0,1,0,0,0,86,87,83,50,30,94.92,223,-19.00,49.00,-1059.00
2024-06-07 01:14:40.089744,0,0,1,0,0,-1,86,87,84,50,30,94.82,224,14.00,40.00,-1080.00
2024-06-07 01:14:40.089812,0,0,1,0,0,-2,86,87,87,60,30,94.97,224,-7.00,41.00,-1087.00
2024-06-07 01:14:40.154496,0,0,1,0,0,-3,86,87,90,60,30,95.12,224,-16.00,26.00,-1088.00
2024-06-07 01:14:40.289834,0,0,1,0,0,-3,86,87,95,60,30,94.97,224,-2.00,22.00,-1081.00
2024-06-07 01:14:40.358383,0,0,1,0,0,-4,85,87,99,70,30,94.99,224,-18.00,36.00,-1088.00
2024-06-07 01:14:40.495070,0,0,1,0,0,-5,85,87,105,70,30,94.94,224,-23.00,29.00,-1025.00
2024-06-07 01:14:40.562398,0,0,1,0,0,-5,85,87,110,80,30,94.96,224,-10.00,26.00,-1038.00
2024-06-07 01:14:40.699708,0,0,1,0,0,-5,85,87,116,80,30,95.19,224,6.00,0.00,-1060.00
2024-06-07 01:14:40.766491,0,0,1,0,0,-5,85,87,122,90,30,95.29,224,-11.00,19.00,-987.00
2024-06-07 01:14:40.904168,0,0,1,0,0,-5,85,87,127,90,30,95.31,224,5.00,0.00,-994.00
2024-06-07 01:14:40.970415,0,0,1,0,0,-5,85,87,134,100,30,95.54,225,-8.00,-15.00,-966.00
2024-06-07 01:14:41.109885,0,0,1,0,0,-5,85,87,139,100,30,95.28,225,-25.00,7.00,-946.00
2024-06-07 01:14:41.174404,0,0,1,0,0,-5,85,87,143,110,30,95.30,225,2.00,3.00,-914.00
2024-06-07 01:14:41.313762,0,0,1,0,0,-4,85,87,147,110,30,95.41,225,-10.00,26.00,-966.00
2024-06-07 01:14:41.378311,0,0,1,0,0,-4,84,88,153,120,30,95.60,225,-29.00,3.00,-968.00
2024-06-07 01:14:41.518644,0,0,1,0,0,-4,84,88,156,120,30,95.32,225,0.00,5.00,-935.00
2024-06-07 01:14:41.582534,0,0,1,0,0,-3,84,88,160,130,30,95.56,225,-14.00,14.00,-979.00
2024-06-07 01:14:41.726089,0,-1,1,0,0,-3,84,88,164,130,30,95.49,225,20.00,13.00,-948.00
2024-06-07 01:14:41.786298,0,-1,1,0,0,-3,84,88,166,130,30,95.73,225,-37.00,56.00,-957.00
2024-06-07 01:14:41.928125,0,0,1,0,0,-2,84,88,168,140,30,95.89,225,-18.00,5.00,-946.00
2024-06-07 01:14:41.992002,0,-1,1,0,0,-2,84,88,170,140,30,95.68,226,-11.00,26.00,-945.00
2024-06-07 01:14:42.092916,0,0,1,0,0,-1,84,88,171,140,30,96.07,226,-50.00,19.00,-995.00
2024-06-07 01:14:42.194087,0,0,1,0,0,-1,84,88,173,140,30,95.41,226,-4.00,0.00,-955.00
2024-06-07 01:14:42.296197,0,0,1,0,0,-1,84,88,174,140,30,95.70,226,-40.00,5.00,-950.00
2024-06-07 01:14:42.398256,0,0,1,0,0,0,85,88,175,150,30,95.76,226,-7.00,11.00,-1017.00
2024-06-07 01:14:42.543345,0,0,1,0,0,0,85,88,176,150,30,95.77,226,-20.00,35.00,-1020.00
2024-06-07 01:14:42.602108,0,0,1,0,0,0,85,88,177,150,30,95.67,226,-14.00,43.00,-969.00
2024-06-07 01:14:42.704270,0,0,1,0,0,0,85,88,177,150,30,95.44,226,-9.00,0.00,-962.00
2024-06-07 01:14:42.850822,0,0,1,0,0,0,85,88,177,150,30,95.93,226,1.00,-15.00,-1012.00
2024-06-07 01:14:42.908260,0,0,1,0,0,0,85,88,178,150,30,95.79,226,-5.00,-2.00,-979.00
2024-06-07 01:14:43.054648,0,0,1,0,0,0,85,88,178,150,30,95.89,227,-30.00,23.00,-1075.00
2024-06-07 01:14:43.112759,0,0,1,0,0,0,85,88,178,150,30,95.83,227,39.00,10.00,-1011.00
2024-06-07 01:14:43.259322,0,0,1,0,0,0,85,88,179,150,30,95.72,227,-45.00,11.00,-938.00
2024-06-07 01:14:43.316227,0,0,1,0,0,0,85,88,178,150,30,95.64,227,-2.00,1.00,-996.00
2024-06-07 01:14:43.467147,0,-1,1,0,0,0,85,87,178,150,30,95.96,227,5.00,24.00,-1007.00
2024-06-07 01:14:43.520216,0,-1,1,0,0,0,85,87,179,150,30,95.78,227,-4.00,-4.00,-1004.00
2024-06-07 01:14:43.673630,0,-1,1,0,0,0,85,87,180,150,30,95.65,227,-22.00,14.00,-1032.00
2024-06-07 01:14:43.724194,0,0,1,0,0,0,85,87,178,150,30,95.75,227,-6.00,17.00,-981.00
2024-06-07 01:14:43.874450,0,0,1,0,0,0,85,87,179,150,30,95.73,227,-7.00,32.00,-1005.00
2024-06-07 01:14:43.928153,0,0,1,0,0,0,85,87,179,150,30,95.79,228,6.00,5.00,-976.00
2024-06-07 01:14:43.979474,0,0,1,0,0,0,85,87,178,150,30,96.17,228,-21.00,18.00,-1007.00
2024-06-07 01:14:44.082042,0,0,1,0,0,0,85,87,178,150,30,95.82,228,13.00,13.00,-989.00
2024-06-07 01:14:44.183418,0,0,1,0,0,0,85,87,178,150,30,95.80,228,-46.00,7.00,-982.00
2024-06-07 01:14:44.285269,0,0,1,0,0,0,85,87,178,150,30,95.89,228,7.00,21.00,-1016.00
2024-06-07 01:14:44.388116,0,0,1,0,0,0,85,87,178,150,30,95.74,228,-2.00,5.00,-990.00
2024-06-07 01:14:44.489558,0,0,1,0,0,0,85,87,178,150,30,95.52,228,8.00,35.00,-1039.00
2024-06-07 01:14:44.591323,0,0,1,0,0,0,85,87,178,150,30,95.78,228,-23.00,7.00,-948.00
2024-06-07 01:14:44.693185,-1,0,1,0,0,0,85,87,178,150,30,95.85,228,-31.00,6.00,-1012.00
2024-06-07 01:14:44.795639,-1,0,1,0,0,0,85,87,178,150,30,95.80,228,-5.00,26.00,-1010.00
2024-06-07 01:14:44.897305,-1,0,1,0,0,0,85,87,178,150,30,95.49,229,-13.00,20.00,-1007.00
2024-06-07 01:14:45.000514,-1,0,1,0,0,0,85,87,178,150,30,95.71,229,-44.00,7.00,-960.00
2024-06-07 01:14:45.102269,0,0,1,0,0,1,85,87,177,150,30,95.82,229,-4.00,-18.00,-917.00
2024-06-07 01:14:45.204509,0,0,1,0,0,1,85,87,176,150,30,95.68,229,1.00,10.00,-956.00
2024-06-07 01:14:45.307188,0,0,1,0,0,1,85,87,175,140,30,95.80,229,-22.00,24.00,-984.00
2024-06-07 01:14:45.407586,0,0,1,0,0,2,85,87,173,140,30,95.82,229,-17.00,14.00,-990.00
2024-06-07 01:14:45.510094,0,0,1,0,0,2,85,87,170,140,30,95.62,229,-33.00,24.00,-973.00
2024-06-07 01:14:45.614285,0,-1,1,0,0,2,85,87,168,140,30,95.68,229,4.00,19.00,-992.00
2024-06-07 01:14:45.713545,0,-1,1,0,0,2,85,87,165,140,30,95.35,229,-23.00,33.00,-1012.00
2024-06-07 01:14:45.819167,0,0,1,0,0,2,85,87,161,130,30,95.80,229,-32.00,7.00,-966.00
2024-06-07 01:14:45.919644,0,0,1,0,0,3,85,87,156,130,30,95.33,230,-6.00,18.00,-997.00
2024-06-07 01:14:46.019192,0,0,1,0,0,3,85,87,152,130,30,95.34,230,-3.00,20.00,-1047.00
2024-06-07 01:14:46.126875,0,0,1,0,0,3,85,87,150,120,30,95.38,230,34.00,-24.00,-986.00
2024-06-07 01:14:46.223098,0,0,1,0,0,3,85,87,145,120,30,95.46,230,7.00,0.00,-1026.00
2024-06-07 01:14:46.331103,-1,0,1,0,0,3,85,87,142,110,30,95.55,230,-1.00,-2.00,-1021.00
2024-06-07 01:14:46.427926,-1,0,1,0,0,3,84,88,137,110,30,95.55,230,0.00,0.00,-1029.00
2024-06-07 01:14:46.529091,-1,0,1,0,0,2,84,88,134,110,30,95.46,230,8.00,2.00,-1051.00
2024-06-07 01:14:46.638907,-1,0,1,0,0,2,84,88,132,110,30,95.34,230,20.00,23.00,-1029.00
2024-06-07 01:14:46.733209,-1,0,1,0,0,2,84,88,131,100,30,95.53,230,1.00,27.00,-1003.00
2024-06-07 01:14:46.843873,-1,0,1,0,0,1,84,88,130,100,30,95.57,230,12.00,32.00,-1048.00
2024-06-07 01:14:46.937918,0,0,1,0,0,1,84,88,129,100,30,95.26,231,-6.00,36.00,-1041.00
2024-06-07 01:14:47.048577,0,0,1,0,0,0,84,88,129,100,30,95.47,231,-5.00,35.00,-1065.00
2024-06-07 01:14:47.164728,0,0,1,0,0,0,84,88,129,100,30,95.18,231,-18.00,29.00,-993.00
2024-06-07 01:14:47.356165,0,0,1,0,0,0,84,88,129,100,30,95.23,231,-21.00,-13.00,-981.00
2024-06-07 01:14:47.356371,0,0,1,0,0,0,84,88,130,100,30,95.71,231,1.00,32.00,-1021.00
2024-06-07 01:14:47.465275,0,0,1,0,0,0,84,87,131,100,30,95.36,231,14.00,7.00,-990.00
2024-06-07 01:14:47.585447,0,0,1,0,0,0,84,87,132,100,30,95.13,231,-16.00,13.00,-955.00
2024-06-07 01:14:47.651813,0,-1,1,0,0,0,84,87,132,100,30,95.65,231,-1.00,10.00,-964.00
2024-06-07 01:14:47.815084,0,-1,1,0,0,0,84,87,132,100,30,95.36,231,-22.00,0.00,-974.00
2024-06-07 01:14:47.815248,0,-1,1,0,0,0,84,87,132,100,30,95.34,231,-6.00,-7.00,-962.00
2024-06-07 01:14:47.929408,0,0,1,0,0,0,84,87,131,100,30,95.52,232,5.00,-4.00,-980.00
2024-06-07 01:14:48.011870,0,0,1,0,0,0,84,87,131,100,30,95.44,232,-23.00,-10.00,-971.00
2024-06-07 01:14:48.121351,0,0,1,0,0,0,84,87,130,100,30,95.56,232,-30.00,40.00,-980.00
2024-06-07 01:14:48.213053,0,0,1,0,0,0,84,87,130,100,30,95.45,232,-18.00,36.00,-1022.00
2024-06-07 01:14:48.390011,0,0,1,0,0,0,84,87,129,100,30,95.08,232,-19.00,34.00,-987.00
2024-06-07 01:14:48.417125,-1,0,1,0,0,0,85,87,129,100,30,95.49,232,-7.00,9.00,-989.00
2024-06-07 01:14:48.534220,-1,0,1,0,0,0,85,87,129,100,30,94.97,232,9.00,11.00,-1017.00
2024-06-07 01:14:48.697065,0,0,1,0,0,0,85,87,128,100,30,95.15,232,-10.00,28.00,-1032.00
2024-06-07 01:14:48.722910,0,0,1,0,0,0,85,87,127,100,30,95.17,232,-1.00,6.00,-981.00
2024-06-07 01:14:48.840565,0,0,1,0,0,0,85,87,127,100,30,95.06,232,17.00,15.00,-1020.00
2024-06-07 01:14:49.030471,0,0,1,0,0,0,85,87,128,100,30,95.43,233,-78.00,-4.00,-958.00
2024-06-07 01:14:49.030551,-3,0,1,0,0,0,85,87,128,100,30,95.49,233,-21.00,16.00,-1005.00
2024-06-07 01:14:49.158720,-7,-1,1,1,0,0,85,87,128,100,30,95.03,233,-6.00,27.00,-1046.00
2024-06-07 01:14:49.232987,-8,0,1,2,0,0,85,87,128,100,30,95.27,233,-11.00,10.00,-1016.00
2024-06-07 01:14:49.403069,-8,0,1,3,0,0,85,87,128,100,30,95.37,233,-62.00,21.00,-966.00
2024-06-07 01:14:49.436837,-8,0,1,4,0,0,84,87,129,100,30,94.98,233,-21.00,24.00,-1053.00
2024-06-07 01:14:49.538832,-7,0,1,6,0,0,84,87,130,100,30,95.26,233,-1.00,-1.00,-1010.00
2024-06-07 01:14:49.710214,-6,0,1,6,0,0,84,87,129,100,30,95.04,233,-37.00,10.00,-963.00
2024-06-07 01:14:49.742809,-5,0,1,7,0,0,84,87,129,100,30,95.13,233,-99.00,4.00,-1024.00
2024-06-07 01:14:49.914952,-4,0,1,7,0,0,84,87,129,100,30,95.43,233,-53.00,15.00,-1016.00
2024-06-07 01:14:49.947591,-1,0,1,7,0,0,84,87,130,100,30,95.20,234,-73.00,12.00,-990.00
2024-06-07 01:14:50.119716,1,0,1,7,0,0,84,87,130,100,30,94.88,234,-67.00,17.00,-944.00
2024-06-07 01:14:50.151726,3,0,1,6,0,0,84,87,130,100,30,95.15,234,-40.00,43.00,-996.00
2024-06-07 01:14:50.254512,4,0,1,5,0,0,84,87,130,100,30,95.16,234,-34.00,-12.00,-954.00
2024-06-07 01:14:50.355824,2,0,1,4,0,0,84,87,131,100,30,95.17,234,-17.00,20.00,-1030.00
2024-06-07 01:14:50.456722,1,0,1,3,0,0,85,86,130,100,30,95.41,234,-48.00,1.00,-973.00
2024-06-07 01:14:50.562857,0,0,1,3,0,0,85,86,130,100,30,95.16,234,-26.00,12.00,-964.00
2024-06-07 01:14:50.663348,0,0,1,3,0,0,85,86,130,100,30,94.98,234,-21.00,15.00,-1021.00
2024-06-07 01:14:50.762803,0,0,1,2,0,0,85,86,130,100,30,95.61,234,-33.00,18.00,-991.00
2024-06-07 01:14:50.938956,0,0,1,2,0,0,85,86,131,100,30,95.10,234,-21.00,12.00,-1041.00
2024-06-07 01:14:50.966891,0,0,1,2,0,0,85,86,130,100,30,95.20,235,-38.00,29.00,-1065.00
2024-06-07 01:14:51.143734,0,0,1,2,0,0,85,86,131,100,30,95.21,235,-9.00,15.00,-986.00
2024-06-07 01:14:51.171421,0,0,1,2,0,0,85,86,130,100,30,95.39,235,-19.00,34.00,-1008.00
2024-06-07 01:14:51.224383,0,0,1,1,0,0,85,86,130,100,30,95.41,235,-12.00,2.00,-978.00
2024-06-07 01:14:51.324834,2,0,1,1,0,0,85,86,130,100,30,95.07,235,-8.00,6.00,-1027.00
2024-06-07 01:14:51.451810,2,0,1,0,0,0,84,87,130,100,30,95.15,235,3.00,3.00,-995.00
2024-06-07 01:14:51.528727,0,0,1,0,0,0,84,87,129,100,30,95.11,235,1.00,18.00,-996.00
2024-06-07 01:14:51.655923,0,0,1,0,0,0,84,87,129,100,30,95.30,235,-3.00,11.00,-1014.00
2024-06-07 01:14:51.733027,0,0,1,0,0,0,84,87,128,100,30,95.34,235,-10.00,23.00,-998.00
2024-06-07 01:14:51.860625,0,0,1,0,0,0,84,87,128,100,30,95.58,235,-33.00,23.00,-1031.00
2024-06-07 01:14:51.936729,0,0,1,0,0,0,84,87,128,100,30,94.90,236,-7.00,8.00,-1013.00
2024-06-07 01:14:52.039112,0,0,1,0,0,0,84,87,129,100,30,95.31,236,8.00,-3.00,-1003.00
2024-06-07 01:14:52.170514,-1,0,1,0,0,0,84,87,128,100,30,95.49,236,-6.00,9.00,-984.00
2024-06-07 01:14:52.243580,-1,-1,1,0,0,0,84,87,128,100,30,95.18,236,-9.00,5.00,-979.00
2024-06-07 01:14:52.372444,0,-1,1,0,0,0,84,87,129,100,30,95.21,236,10.00,5.00,-993.00
2024-06-07 01:14:52.448697,0,-1,1,0,0,0,84,87,129,100,30,94.94,236,-7.00,51.00,-991.00
2024-06-07 01:14:52.551196,0,0,1,0,0,0,84,87,129,100,30,95.44,236,6.00,9.00,-942.00
2024-06-07 01:14:52.651528,0,0,1,0,0,0,84,87,130,100,30,95.40,236,30.00,33.00,-1003.00
2024-06-07 01:14:52.752872,0,0,1,0,0,0,84,87,130,100,30,95.52,236,23.00,25.00,-995.00
2024-06-07 01:14:52.855968,0,0,1,0,0,0,84,87,129,100,30,95.30,236,15.00,41.00,-1022.00
2024-06-07 01:14:52.956578,0,-1,1,0,0,0,84,87,129,100,30,95.23,237,9.00,43.00,-991.00
2024-06-07 01:14:53.089268,0,-1,1,0,0,0,84,87,129,100,30,95.57,237,-6.00,25.00,-976.00
2024-06-07 01:14:53.160553,0,-1,1,0,0,0,84,87,129,100,30,95.30,237,2.00,31.00,-1016.00
2024-06-07 01:14:53.294170,0,-1,1,0,0,0,84,87,128,100,30,95.39,237,4.00,15.00,-1034.00
2024-06-07 01:14:53.364637,0,0,1,0,0,0,84,87,128,100,30,95.30,237,-14.00,4.00,-984.00
2024-06-07 01:14:53.481757,0,0,1,0,0,0,84,87,128,100,30,95.40,237,-14.00,42.00,-1018.00
2024-06-07 01:14:53.568527,0,0,1,0,0,0,84,87,128,100,30,95.24,237,2.00,-9.00,-968.00
2024-06-07 01:14:53.706467,1,0,1,0,0,0,84,87,127,100,30,95.22,237,2.00,-11.00,-1013.00
2024-06-07 01:14:53.772504,7,0,1,0,0,0,84,87,129,100,30,95.20,237,23.00,17.00,-1008.00
2024-06-07 01:14:53.908414,8,0,1,-1,0,0,84,87,131,100,30,95.57,237,4.00,3.00,-1025.00
2024-06-07 01:14:53.977310,8,0,1,-3,0,0,84,87,128,100,30,95.22,238,19.00,12.00,-1075.00
2024-06-07 01:14:54.113181,7,0,1,-4,0,0,84,87,129,100,30,95.18,238,38.00,36.00,-1008.00
2024-06-07 01:14:54.180421,6,0,1,-5,0,0,84,87,129,100,30,95.40,238,37.00,14.00,-990.00
2024-06-07 01:14:54.317905,6,0,1,-6,0,0,84,87,129,100,30,95.29,238,40.00,38.00,-1038.00
2024-06-07 01:14:54.384375,4,-1,1,-7,0,0,84,87,129,100,30,95.53,238,62.00,-1.00,-1002.00
2024-06-07 01:14:54.522786,3,-1,1,-7,0,0,85,86,130,100,30,95.36,238,49.00,20.00,-994.00
2024-06-07 01:14:54.589513,1,-1,1,-7,0,0,85,86,128,100,30,95.23,238,32.00,7.00,-1013.00
2024-06-07 01:14:54.691068,-1,0,1,-7,0,0,85,86,129,100,30,95.11,238,81.00,5.00,-1014.00
2024-06-07 01:14:54.829907,-3,0,1,-6,0,0,85,86,128,100,30,95.04,238,-8.00,14.00,-944.00
2024-06-07 01:14:54.895096,-4,0,1,-5,0,0,85,86,128,100,30,95.46,238,5.00,0.00,-1019.00
2024-06-07 01:14:55.037547,-3,0,1,-4,0,0,85,86,128,100,30,95.31,239,29.00,39.00,-1030.00
2024-06-07 01:14:55.048582,-2,0,1,-3,0,0,85,86,128,100,30,95.05,239,35.00,31.00,-1039.00
2024-06-07 01:14:55.150177,-1,0,1,-3,0,0,85,86,128,100,30,95.28,239,43.00,-8.00,-1008.00
2024-06-07 01:14:55.341899,0,0,1,-3,0,0,85,86,128,100,30,95.43,239,7.00,-11.00,-1012.00
2024-06-07 01:14:55.354528,0,0,1,-3,0,0,85,86,127,100,30,95.21,239,15.00,0.00,-993.00
2024-06-07 01:14:55.546704,0,0,1,-2,0,0,84,86,127,100,30,95.27,239,24.00,20.00,-1015.00
2024-06-07 01:14:55.558232,0,0,1,-2,0,0,84,86,128,100,30,95.15,239,21.00,-8.00,-989.00
2024-06-07 01:14:55.752216,-1,0,1,-2,0,0,84,86,129,100,30,95.62,239,18.00,13.00,-997.00
2024-06-07 01:14:55.762289,-4,0,1,-1,0,0,84,86,129,100,29,95.13,239,10.00,11.00,-998.00
2024-06-07 01:14:55.956299,-3,0,1,0,0,0,84,86,129,100,29,95.03,239,-5.00,37.00,-1003.00
2024-06-07 01:14:55.966403,-1,0,1,0,0,0,84,86,129,100,29,95.06,240,-17.00,4.00,-1027.00
2024-06-07 01:14:56.163810,-1,0,1,0,0,0,84,86,128,100,29,95.40,240,-11.00,15.00,-1004.00
2024-06-07 01:14:56.171406,-1,0,1,0,0,0,84,86,128,100,29,95.33,240,-16.00,6.00,-988.00
2024-06-07 01:14:56.365921,0,0,1,0,0,0,84,86,128,100,29,95.30,240,-19.00,11.00,-984.00
2024-06-07 01:14:56.374231,0,0,1,0,0,0,84,86,127,100,29,95.45,240,-19.00,3.00,-972.00
2024-06-07 01:14:56.571685,0,0,1,0,0,0,84,87,127,100,29,95.38,240,25.00,4.00,-1010.00
2024-06-07 01:14:56.578181,0,0,1,0,0,0,84,87,127,100,29,94.97,240,7.00,-12.00,-987.00
2024-06-07 01:14:56.777291,0,0,1,0,0,0,84,87,126,100,29,95.40,240,9.00,6.00,-990.00
2024-06-07 01:14:56.787223,0,0,1,0,0,0,84,87,125,100,29,95.29,240,11.00,36.00,-1002.00
2024-06-07 01:14:56.884888,0,0,1,0,0,0,84,87,125,100,29,95.20,240,16.00,6.00,-1023.00
2024-06-07 01:14:57.082790,1,0,1,0,0,0,84,87,125,100,29,95.15,241,-39.00,26.00,-968.00
2024-06-07 01:14:57.088560,0,0,1,0,0,0,84,87,125,100,29,95.42,241,33.00,5.00,-1039.00
2024-06-07 01:14:57.287659,0,0,1,0,0,0,84,87,124,100,29,95.60,241,1.00,13.00,-975.00
2024-06-07 01:14:57.292082,0,0,1,0,0,0,84,87,124,100,29,95.41,241,-19.00,31.00,-1021.00
2024-06-07 01:14:57.492224,0,0,1,0,0,0,84,87,124,100,29,95.54,241,31.00,21.00,-1026.00
2024-06-07 01:14:57.496157,0,0,1,0,0,0,84,86,123,100,29,95.22,241,4.00,-4.00,-963.00
2024-06-07 01:14:57.598079,0,0,1,0,0,0,84,86,123,100,29,95.29,241,13.00,13.00,-1040.00
2024-06-07 01:14:57.700606,0,0,1,0,0,0,84,86,123,100,29,95.36,241,-19.00,36.00,-1045.00
2024-06-07 01:14:57.802068,0,0,1,0,0,0,84,86,123,100,28,95.64,241,-8.00,11.00,-1005.00
2024-06-07 01:14:57.904591,0,0,1,0,0,0,84,86,123,100,28,95.34,241,21.00,23.00,-1076.00
2024-06-07 01:14:58.009340,0,0,1,0,0,0,84,86,122,100,28,95.29,242,-5.00,0.00,-1015.00
2024-06-07 01:14:58.108014,0,0,1,0,0,0,84,86,123,100,28,95.17,242,-32.00,35.00,-1006.00
2024-06-07 01:14:58.209901,0,-3,1,0,0,0,84,86,124,100,28,95.53,242,12.00,-4.00,-1062.00
2024-06-07 01:14:58.312189,0,-8,1,0,0,0,84,86,123,100,28,95.25,242,18.00,13.00,-1059.00
2024-06-07 01:14:58.413893,0,-7,1,0,-2,0,84,86,124,100,28,95.18,242,-8.00,20.00,-1054.00
2024-06-07 01:14:58.618672,0,-4,1,0,-3,0,84,87,125,100,28,95.25,242,-9.00,6.00,-970.00
2024-06-07 01:14:58.618939,0,0,1,0,-3,0,84,87,125,100,28,95.62,242,12.00,19.00,-981.00
2024-06-07 01:14:58.720885,0,0,1,0,-3,0,84,87,126,100,28,95.32,242,2.00,39.00,-983.00
2024-06-07 01:14:58.823020,0,0,1,0,-3,0,84,87,126,100,28,95.65,242,4.00,14.00,-978.00
2024-06-07 01:14:58.926358,0,0,1,0,-3,0,84,87,126,100,28,95.53,243,15.00,9.00,-948.00
2024-06-07 01:14:59.026091,0,0,1,0,-2,0,84,87,126,100,28,95.33,243,4.00,3.00,-970.00
2024-06-07 01:14:59.127911,0,0,1,0,-2,0,84,87,127,100,28,95.16,243,22.00,39.00,-1014.00
2024-06-07 01:14:59.178890,0,0,1,0,-2,0,84,87,129,100,28,95.12,243,15.00,38.00,-1017.00
2024-06-07 01:14:59.335311,0,0,1,0,-2,0,84,87,129,100,28,95.54,243,-2.00,13.00,-952.00
2024-06-07 01:14:59.382629,0,0,1,0,-2,0,84,87,130,100,28,95.31,243,-25.00,27.00,-1009.00
2024-06-07 01:14:59.540117,0,0,1,0,-2,0,84,87,131,100,28,95.44,243,13.00,-17.00,-991.00
2024-06-07 01:14:59.586678,0,-1,1,0,-2,0,84,87,133,100,28,95.36,243,-17.00,12.00,-1016.00
2024-06-07 01:14:59.747934,0,-1,1,0,-2,0,84,87,133,100,28,95.60,243,4.00,32.00,-964.00
2024-06-07 01:14:59.790651,0,-1,1,0,-2,0,84,87,134,100,28,95.56,243,-1.00,44.00,-1005.00
2024-06-07 01:14:59.949750,0,0,1,0,-1,0,84,87,134,100,28,95.45,244,-1.00,20.00,-963.00
2024-06-07 01:14:59.994615,0,3,1,0,-1,0,84,87,134,100,28,95.35,244,-59.00,38.00,-993.00
2024-06-07 01:15:00.154500,0,2,1,0,0,0,84,87,134,100,28,95.57,244,3.00,16.00,-982.00
2024-06-07 01:15:00.198873,0,0,1,0,0,0,84,87,134,100,28,95.34,244,-13.00,29.00,-938.00
2024-06-07 01:15:00.359442,0,0,1,0,0,0,84,87,134,100,28,95.51,244,-11.00,19.00,-962.00
2024-06-07 01:15:00.402858,0,0,1,0,0,0,84,87,133,100,28,95.22,244,-5.00,-5.00,-1000.00
2024-06-07 01:15:00.565022,0,-1,1,0,0,0,84,87,132,100,28,95.55,244,2.00,11.00,-976.00
2024-06-07 01:15:00.607806,0,0,1,0,0,0,84,87,132,100,28,95.17,244,-11.00,23.00,-988.00
2024-06-07 01:15:00.708623,1,0,1,0,0,0,84,87,130,100,28,95.49,244,-5.00,-3.00,-989.00
2024-06-07 01:15:00.871624,1,0,1,0,0,0,84,87,129,100,27,95.14,244,11.00,-18.00,-989.00
2024-06-07 01:15:00.913192,1,0,1,0,0,0,84,87,129,100,27,95.35,245,3.00,22.00,-1039.00
2024-06-07 01:15:01.076188,1,0,1,0,0,0,84,87,128,100,27,95.48,245,14.00,-25.00,-1001.00
2024-06-07 01:15:01.116466,1,0,1,0,0,0,84,87,127,100,27,95.33,245,20.00,0.00,-1023.00
2024-06-07 01:15:01.246951,0,0,1,0,0,0,84,87,127,100,27,95.32,245,4.00,10.00,-984.00
2024-06-07 01:15:01.329254,0,0,1,0,0,0,84,87,127,100,27,95.40,245,-27.00,9.00,-1010.00
2024-06-07 01:15:01.422563,0,0,1,0,0,0,84,87,126,100,27,95.51,245,-7.00,21.00,-1023.00
2024-06-07 01:15:01.588174,0,0,1,0,0,0,84,86,127,100,27,95.39,245,-16.00,14.00,-1038.00
2024-06-07 01:15:01.626918,0,0,1,0,0,0,84,86,126,100,27,95.41,245,-11.00,23.00,-1007.00
2024-06-07 01:15:01.792904,0,0,1,0,0,0,84,86,126,100,27,95.17,245,12.00,18.00,-991.00
2024-06-07 01:15:01.832203,0,0,1,0,0,0,84,86,127,100,27,95.43,245,0.00,3.00,-1005.00
2024-06-07 01:15:01.932901,0,0,1,0,0,0,84,86,127,100,27,95.41,246,20.00,15.00,-1026.00
2024-06-07 01:15:02.089991,0,0,1,0,0,0,84,86,128,100,27,95.40,246,1.00,-2.00,-1006.00
2024-06-07 01:15:02.147427,0,0,1,0,0,0,84,86,128,100,27,95.19,246,-7.00,40.00,-991.00
2024-06-07 01:15:02.269356,0,0,1,0,0,0,84,86,129,100,27,95.45,246,0.00,0.00,-1061.00
2024-06-07 01:15:02.340406,0,2,1,0,0,0,84,86,129,100,27,95.36,246,9.00,-18.00,-1028.00
2024-06-07 01:15:02.391604,0,8,1,0,0,0,84,86,130,100,27,95.15,246,4.00,13.00,-990.00
2024-06-07 01:15:02.714938,0,6,1,0,2,0,83,87,130,100,27,95.46,246,8.00,-12.00,-1018.00
2024-06-07 01:15:02.715442,0,3,1,0,3,0,83,87,131,100,27,95.41,246,14.00,-36.00,-982.00
2024-06-07 01:15:02.805742,0,1,1,0,3,0,83,87,130,100,27,95.40,246,8.00,-10.00,-986.00
2024-06-07 01:15:02.805798,0,0,1,0,3,0,83,87,130,100,27,95.64,246,-32.00,-21.00,-1019.00
2024-06-07 01:15:03.018770,0,-1,1,0,3,0,83,87,131,100,27,95.59,247,-4.00,-12.00,-964.00
2024-06-07 01:15:03.019292,0,0,1,0,3,0,83,87,131,100,27,95.88,247,-15.00,-24.00,-1000.00
2024-06-07 01:15:03.177279,0,0,1,0,2,0,83,87,131,100,27,95.38,247,10.00,-9.00,-1033.00
2024-06-07 01:15:03.316678,0,0,1,0,2,0,83,87,131,100,27,95.32,247,8.00,-17.00,-1008.00
2024-06-07 01:15:03.316735,0,0,1,0,2,0,83,87,131,100,27,95.24,247,-6.00,-25.00,-1007.00
2024-06-07 01:15:03.463413,0,0,1,0,2,0,83,87,131,100,27,95.03,247,10.00,-12.00,-1033.00
2024-06-07 01:15:03.603497,0,0,1,0,2,0,84,87,131,100,27,95.44,247,13.00,2.00,-1001.00
2024-06-07 01:15:03.615413,0,0,1,0,2,0,84,87,130,100,27,95.40,247,-25.00,1.00,-990.00
2024-06-07 01:15:03.749207,0,0,1,0,2,0,84,87,131,100,27,95.49,247,-14.00,-30.00,-981.00
2024-06-07 01:15:03.896399,0,-3,1,0,2,0,84,87,131,100,26,95.40,247,-5.00,-9.00,-989.00
2024-06-07 01:15:03.921630,0,-5,1,0,1,0,84,87,131,100,26,95.31,248,-19.00,-32.00,-1036.00
2024-06-07 01:15:04.056531,0,-3,1,0,0,0,84,87,130,100,26,95.59,248,1.00,14.00,-983.00
2024-06-07 01:15:04.200684,0,-1,1,0,0,0,84,87,129,100,26,95.47,248,-18.00,5.00,-985.00
2024-06-07 01:15:04.227515,0,-1,1,0,0,0,84,87,129,100,26,95.65,248,12.00,19.00,-993.00
2024-06-07 01:15:04.363526,0,-1,1,0,0,0,84,87,129,100,26,95.22,248,-5.00,-16.00,-1002.00
2024-06-07 01:15:04.508780,0,0,1,0,0,0,84,87,129,100,26,95.50,248,-49.00,13.00,-971.00
2024-06-07 01:15:04.536231,0,0,1,0,0,0,84,87,129,100,26,95.29,248,-19.00,29.00,-1058.00
2024-06-07 01:15:04.670961,0,-1,1,0,0,0,84,87,129,100,26,95.55,248,-23.00,15.00,-1038.00
2024-06-07 01:15:04.825067,0,0,1,0,0,0,84,87,128,100,26,95.54,248,8.00,37.00,-974.00
2024-06-07 01:15:04.839554,0,0,1,0,0,0,84,87,128,100,26,95.10,248,-8.00,1.00,-993.00
2024-06-07 01:15:04.967949,0,0,1,0,0,0,84,87,128,100,26,95.66,249,-4.00,18.00,-986.00
2024-06-07 01:15:05.043658,0,0,1,0,0,0,84,87,127,100,26,95.62,249,22.00,9.00,-1009.00
2024-06-07 01:15:05.145432,0,0,1,0,0,0,84,87,129,100,26,95.41,249,0.00,34.00,-1026.00
2024-06-07 01:15:05.274347,0,0,1,0,0,0,84,87,127,100,26,95.59,249,-13.00,-9.00,-1026.00
2024-06-07 01:15:05.350145,0,0,1,0,0,0,84,87,128,100,26,95.39,249,-5.00,7.00,-1005.00
2024-06-07 01:15:05.479751,0,0,1,0,0,0,84,87,128,100,26,95.06,249,-6.00,-7.00,-1011.00
2024-06-07 01:15:05.553421,0,0,1,0,0,0,84,86,128,100,26,95.37,249,-31.00,12.00,-1011.00
2024-06-07 01:15:05.683764,0,0,1,0,0,0,84,86,128,100,26,95.15,249,-34.00,18.00,-1026.00
2024-06-07 01:15:05.759234,0,0,1,0,0,0,84,86,128,100,25,95.28,249,15.00,-22.00,-967.00
2024-06-07 01:15:05.891433,0,0,1,0,0,0,84,86,128,100,25,95.30,249,-15.00,8.00,-998.00
2024-06-07 01:15:05.965332,0,0,1,0,0,0,84,86,128,100,25,95.09,250,-12.00,-17.00,-1009.00
2024-06-07 01:15:06.065373,0,0,1,0,0,0,84,86,128,100,25,95.24,250,-3.00,27.00,-969.00
2024-06-07 01:15:06.169247,0,0,1,0,0,0,84,86,128,100,25,95.13,250,-35.00,-7.00,-974.00
2024-06-07 01:15:06.217137,0,-1,3,0,0,0,84,86,127,100,25,95.38,250,8.00,-24.00,-986.00
2024-06-07 01:15:06.400519,0,-1,9,0,0,0,84,86,128,100,25,95.42,250,14.00,6.00,-1016.00
2024-06-07 01:15:06.422695,0,-1,15,0,0,0,84,86,128,100,25,95.16,250,-2.00,23.00,-1010.00
2024-06-07 01:15:06.524088,0,-1,21,0,0,0,84,87,127,100,25,95.36,250,38.00,-7.00,-996.00
2024-06-07 01:15:06.693518,0,0,27,0,0,0,84,87,128,100,25,95.57,250,-4.00,33.00,-1014.00
2024-06-07 01:15:06.729101,0,0,33,0,0,0,84,87,129,100,25,95.43,250,17.00,-4.00,-1000.00
2024-06-07 01:15:06.829070,0,0,39,0,0,0,84,87,128,100,25,95.17,250,10.00,12.00,-994.00
2024-06-07 01:15:07.014896,0,0,45,0,0,0,84,87,128,100,25,95.53,251,-3.00,9.00,-1042.00
2024-06-07 01:15:07.033212,0,-1,51,0,0,0,84,87,129,100,25,95.32,251,8.00,19.00,-971.00
2024-06-07 01:15:07.135103,0,-1,58,0,0,0,84,87,128,100,25,95.13,251,-50.00,24.00,-1037.00
2024-06-07 01:15:07.322076,0,-1,64,0,0,0,84,87,128,100,25,95.37,251,9.00,13.00,-986.00
2024-06-07 01:15:07.339115,0,-1,70,0,0,0,84,87,128,100,25,95.23,251,-1.00,20.00,-976.00
2024-06-07 01:15:07.527754,0,-1,76,0,0,0,84,87,128,100,25,95.44,251,-29.00,24.00,-1064.00
2024-06-07 01:15:07.547379,0,-1,82,0,0,0,84,87,128,100,25,95.24,251,-7.00,29.00,-1021.00
2024-06-07 01:15:07.645286,0,-1,88,0,0,0,84,87,127,100,25,95.11,251,-22.00,39.00,-931.00
2024-06-07 01:15:07.834154,0,-1,94,0,0,0,84,87,128,100,25,94.91,251,-3.00,4.00,-967.00
2024-06-07 01:15:07.849159,0,0,100,0,0,0,84,87,127,100,25,95.49,251,23.00,0.00,-985.00
2024-06-07 01:15:08.038975,0,0,106,0,0,0,84,87,127,100,25,95.44,252,-5.00,10.00,-966.00
2024-06-07 01:15:08.053246,0,0,112,0,0,0,84,87,127,100,25,95.35,252,-2.00,-20.00,-974.00
2024-06-07 01:15:08.244607,0,0,118,0,0,0,84,87,127,100,25,95.23,252,-15.00,24.00,-995.00
2024-06-07 01:15:08.256836,0,0,124,0,0,0,84,87,127,100,25,95.38,252,-3.00,32.00,-992.00
2024-06-07 01:15:08.448578,0,0,130,0,0,0,84,87,127,100,25,95.59,252,5.00,17.00,-941.00
2024-06-07 01:15:08.461170,0,0,136,0,0,0,84,87,127,100,25,95.50,252,0.00,18.00,-976.00
2024-06-07 01:15:08.654083,0,0,142,0,0,0,85,87,127,100,25,95.41,252,-13.00,-6.00,-999.00
2024-06-07 01:15:08.665225,0,0,149,0,0,0,85,87,128,100,25,95.34,252,15.00,11.00,-1013.00
2024-06-07 01:15:08.858375,0,0,155,0,0,0,85,87,128,100,24,95.54,252,-9.00,-1.00,-969.00
2024-06-07 01:15:08.868934,1,0,161,0,0,0,85,87,128,100,24,95.18,252,-20.00,-5.00,-1008.00
2024-06-07 01:15:09.062787,0,0,167,0,0,0,85,87,127,100,24,95.17,253,6.00,13.00,-1030.00
2024-06-07 01:15:09.073169,0,0,174,0,0,0,85,87,127,100,24,95.22,253,-10.00,-7.00,-1011.00
2024-06-07 01:15:09.268164,0,0,-179,0,0,0,85,87,127,100,24,95.58,253,14.00,1.00,-1023.00
2024-06-07 01:15:09.277756,0,0,-173,0,0,0,85,87,127,100,24,95.22,253,9.00,-5.00,-1002.00
2024-06-07 01:15:09.475224,0,0,-166,0,0,0,85,87,127,100,24,95.64,253,14.00,0.00,-1002.00
2024-06-07 01:15:09.481718,0,0,-160,0,0,0,85,87,127,100,24,95.20,253,-34.00,-15.00,-942.00
2024-06-07 01:15:09.677361,0,0,-154,0,0,0,86,86,127,100,24,95.27,253,-41.00,15.00,-987.00
2024-06-07 01:15:09.685937,0,0,-147,0,0,0,86,86,128,100,24,95.47,253,-21.00,-20.00,-987.00
2024-06-07 01:15:09.882059,0,0,-141,0,0,0,86,86,127,100,24,95.03,253,-8.00,3.00,-978.00
2024-06-07 01:15:09.889920,0,0,-135,0,0,0,86,86,128,100,24,95.42,253,-1.00,36.00,-1017.00
2024-06-07 01:15:10.086870,0,0,-129,0,0,0,86,86,128,100,24,95.57,254,-10.00,17.00,-1005.00
2024-06-07 01:15:10.093631,0,0,-123,0,0,0,86,86,128,100,24,95.04,254,-4.00,-4.00,-1009.00
2024-06-07 01:15:10.145766,0,0,-117,0,0,0,86,86,128,100,24,95.56,254,8.00,27.00,-1025.00
2024-06-07 01:15:10.291670,0,0,-111,0,0,0,86,86,129,100,24,95.45,254,7.00,14.00,-1018.00
2024-06-07 01:15:10.351866,0,0,-105,0,0,0,86,86,128,100,24,95.66,254,-34.00,15.00,-1067.00
2024-06-07 01:15:10.450871,0,0,-99,0,0,0,86,86,128,100,24,95.34,254,-60.00,16.00,-968.00
2024-06-07 01:15:10.599103,0,0,-93,0,0,0,84,87,129,100,24,95.18,254,8.00,13.00,-986.00
2024-06-07 01:15:10.656705,0,0,-87,0,0,0,84,87,129,100,24,95.43,254,-14.00,-3.00,-978.00
2024-06-07 01:15:10.756698,0,0,-81,0,0,0,84,87,129,100,24,95.58,254,-35.00,29.00,-983.00
2024-06-07 01:15:10.906062,0,0,-75,0,0,0,84,87,129,100,24,95.33,254,25.00,7.00,-980.00
2024-06-07 01:15:10.960897,0,0,-69,0,0,0,84,87,129,100,24,95.47,255,-21.00,22.00,-996.00
2024-06-07 01:15:11.110706,0,0,-63,0,0,0,84,87,130,100,24,95.05,255,-15.00,32.00,-1050.00
2024-06-07 01:15:11.164890,0,0,-57,0,0,0,84,87,130,100,24,95.42,255,-48.00,0.00,-992.00
2024-06-07 01:15:11.316166,0,0,-51,0,0,0,84,87,130,100,24,95.43,255,3.00,10.00,-1045.00
2024-06-07 01:15:11.368720,0,0,-45,0,0,0,84,87,130,100,24,95.48,255,-40.00,-15.00,-977.00
2024-06-07 01:15:11.470775,0,0,-40,0,0,0,84,87,130,100,24,95.29,255,2.00,-17.00,-1043.00
2024-06-07 01:15:11.623679,0,0,-34,0,0,0,84,87,130,100,24,95.40,255,-2.00,-9.00,-999.00
2024-06-07 01:15:11.674694,0,0,-28,0,0,0,84,87,129,100,24,94.99,255,24.00,4.00,-959.00
2024-06-07 01:15:11.828639,0,0,-22,0,0,0,84,87,130,100,23,95.53,255,0.00,23.00,-985.00
2024-06-07 01:15:11.878387,0,0,-16,0,0,0,84,87,130,100,23,95.60,255,12.00,1.00,-1007.00
2024-06-07 01:15:12.032962,0,0,-12,0,0,0,84,87,130,100,23,95.24,256,-7.00,24.00,-1055.00
2024-06-07 01:15:12.082612,0,0,-9,0,0,0,84,87,130,100,23,95.37,256,-34.00,-3.00,-955.00
2024-06-07 01:15:12.237757,0,0,-6,0,0,0,84,87,129,100,23,95.34,256,4.00,12.00,-1010.00
2024-06-07 01:15:12.286780,0,0,-4,0,0,0,84,87,129,100,23,95.20,256,-12.00,2.00,-988.00
2024-06-07 01:15:12.442514,0,0,-3,0,0,0,84,87,129,100,23,95.56,256,19.00,7.00,-990.00
2024-06-07 01:15:12.490400,0,0,-2,0,0,0,84,87,129,100,23,95.14,256,-14.00,19.00,-977.00
2024-06-07 01:15:12.646984,0,0,-1,0,0,0,84,87,129,100,23,95.36,256,27.00,-10.00,-969.00
2024-06-07 01:15:12.694610,0,0,0,0,0,0,84,87,129,100,23,95.37,256,-29.00,9.00,-984.00
2024-06-07 01:15:12.851922,0,0,0,0,0,0,84,87,129,100,23,95.23,256,24.00,9.00,-1046.00
2024-06-07 01:15:12.900735,0,0,0,0,0,0,84,87,130,100,23,95.58,256,-20.00,10.00,-949.00
2024-06-07 01:15:13.001014,0,0,0,0,0,0,84,87,129,100,23,95.19,257,-3.00,14.00,-984.00
2024-06-07 01:15:13.159588,0,0,0,0,0,0,84,87,129,100,23,95.29,257,0.00,-16.00,-985.00
2024-06-07 01:15:13.204886,1,0,0,0,0,0,84,87,130,100,23,95.20,257,-3.00,8.00,-1014.00
2024-06-07 01:15:13.363879,1,0,0,0,0,0,84,87,129,100,23,95.66,257,5.00,36.00,-980.00
2024-06-07 01:15:13.408589,0,0,0,0,0,0,84,87,129,100,23,95.40,257,6.00,-6.00,-1003.00
2024-06-07 01:15:13.568315,0,-1,0,0,0,0,84,87,129,100,23,95.25,257,0.00,40.00,-1004.00
2024-06-07 01:15:13.612475,0,0,0,0,0,0,84,86,129,100,23,95.37,257,2.00,-10.00,-1010.00
2024-06-07 01:15:13.773201,0,-1,0,0,0,0,84,86,128,100,23,95.38,257,29.00,8.00,-931.00
2024-06-07 01:15:13.816554,0,0,0,0,0,0,84,86,128,100,23,95.15,257,18.00,7.00,-1024.00
2024-06-07 01:15:13.867835,1,-1,0,0,0,0,84,86,128,100,23,95.12,257,7.00,16.00,-980.00
2024-06-07 01:15:13.978946,1,-1,0,0,0,0,84,86,128,100,23,95.23,258,5.00,15.00,-985.00
2024-06-07 01:15:14.071483,0,-1,0,0,0,0,84,86,128,100,23,95.15,258,21.00,19.00,-1006.00
2024-06-07 01:15:14.183506,0,-1,0,0,0,0,84,86,127,100,23,95.40,258,-3.00,9.00,-1008.00
2024-06-07 01:15:14.275341,0,-1,0,0,0,0,84,86,127,100,23,95.38,258,-7.00,3.00,-988.00
2024-06-07 01:15:14.387519,0,-1,0,0,0,0,84,86,127,100,23,95.26,258,-31.00,9.00,-988.00
2024-06-07 01:15:14.479298,0,0,0,0,0,0,84,86,127,100,23,95.22,258,22.00,-12.00,-974.00
2024-06-07 01:15:14.593118,0,0,0,0,0,0,85,87,127,100,23,95.42,258,31.00,-16.00,-1036.00
2024-06-07 01:15:14.683086,0,0,0,0,0,0,85,87,126,100,23,95.37,258,-12.00,5.00,-1028.00
2024-06-07 01:15:14.797766,0,0,-3,0,0,0,85,87,127,100,22,95.04,258,-12.00,23.00,-1016.00
2024-06-07 01:15:14.887128,0,0,-9,0,0,0,85,87,128,100,22,95.34,259,0.00,25.00,-1014.00
2024-06-07 01:15:15.001691,0,0,-15,0,0,0,85,87,130,100,22,95.34,259,18.00,-6.00,-1032.00
2024-06-07 01:15:15.091520,0,0,-20,0,0,0,85,87,131,100,22,95.32,259,15.00,-13.00,-996.00
2024-06-07 01:15:15.206579,0,-1,-26,0,0,0,85,87,132,100,22,95.85,259,21.00,21.00,-972.00
2024-06-07 01:15:15.295191,0,-1,-32,0,0,0,85,87,132,100,22,95.64,259,15.00,15.00,-987.00
2024-06-07 01:15:15.414299,0,-1,-38,0,0,0,85,87,133,100,22,95.61,259,27.00,19.00,-1017.00
2024-06-07 01:15:15.499211,0,-1,-44,0,0,0,85,87,134,100,22,95.60,259,40.00,-14.00,-962.00
2024-06-07 01:15:15.601157,0,-1,-50,0,0,0,84,86,133,100,22,95.33,259,19.00,7.00,-999.00
2024-06-07 01:15:15.719313,0,-1,-56,0,0,0,84,86,133,100,22,95.49,259,14.00,52.00,-977.00
2024-06-07 01:15:15.805283,0,-1,-62,0,0,0,84,86,133,100,22,95.17,259,26.00,12.00,-990.00
2024-06-07 01:15:15.925283,0,-1,-68,0,0,0,84,86,132,100,22,95.42,260,-1.00,11.00,-1013.00
2024-06-07 01:15:16.009107,0,0,-73,0,0,0,84,86,132,100,22,95.57,260,13.00,17.00,-974.00
2024-06-07 01:15:16.128916,0,0,-79,0,0,0,84,86,132,100,22,95.66,260,-2.00,15.00,-993.00
2024-06-07 01:15:16.213112,0,0,-85,0,0,0,84,86,131,100,22,95.57,260,28.00,1.00,-1014.00
2024-06-07 01:15:16.332942,0,0,-91,0,0,0,84,86,131,100,22,95.62,260,15.00,38.00,-996.00
2024-06-07 01:15:16.418736,0,0,-97,0,0,0,84,86,130,100,22,95.39,260,-29.00,29.00,-1024.00
2024-06-07 01:15:16.519104,0,0,-103,0,0,0,84,86,130,100,22,95.27,260,-5.00,40.00,-1045.00
2024-06-07 01:15:16.621073,0,0,-109,0,0,0,83,86,131,100,22,95.61,260,-2.00,24.00,-1007.00
2024-06-07 01:15:16.744122,0,0,-115,0,0,0,83,86,131,100,22,95.39,260,6.00,12.00,-1011.00
2024-06-07 01:15:16.824941,0,0,-121,0,0,0,83,86,131,100,22,95.62,260,0.00,7.00,-991.00
2024-06-07 01:15:16.927179,0,0,-127,0,0,0,83,86,131,100,22,95.72,261,-13.00,3.00,-994.00
2024-06-07 01:15:17.153359,0,0,-133,0,0,0,83,86,131,100,22,95.21,261,-12.00,19.00,-1014.00
2024-06-07 01:15:17.268728,0,0,-139,0,0,0,83,86,133,100,22,95.20,261,-29.00,32.00,-993.00
2024-06-07 01:15:17.268775,0,-1,-145,0,0,0,83,86,134,100,22,95.24,261,-7.00,-4.00,-993.00
2024-06-07 01:15:17.405246,0,-1,-151,0,0,0,83,86,135,100,22,95.25,261,-11.00,29.00,-1017.00
2024-06-07 01:15:17.437054,0,-1,-157,0,0,0,83,86,135,100,22,95.24,261,-40.00,25.00,-979.00
2024-06-07 01:15:17.550713,0,-1,-164,0,0,0,83,86,136,100,22,95.60,261,-13.00,14.00,-976.00
2024-06-07 01:15:17.641880,0,-1,-170,0,0,0,83,86,137,110,22,95.13,261,-14.00,23.00,-936.00
2024-06-07 01:15:17.792789,0,-1,-176,0,0,0,83,86,136,110,22,95.46,261,-1.00,-12.00,-976.00
2024-06-07 01:15:17.920341,0,0,177,0,0,0,83,86,136,110,22,95.38,261,-16.00,2.00,-980.00
2024-06-07 01:15:17.920390,0,0,171,0,0,0,83,86,135,100,22,95.82,262,9.00,-19.00,-1005.00
2024-06-07 01:15:18.074467,0,0,165,0,0,0,83,86,135,100,22,95.51,262,-7.00,9.00,-1005.00
2024-06-07 01:15:18.120039,0,0,159,0,0,0,83,86,134,100,22,95.49,262,-12.00,23.00,-1050.00
2024-06-07 01:15:18.263338,0,0,153,0,0,0,83,86,135,100,22,95.24,262,-8.00,10.00,-991.00
2024-06-07 01:15:18.311576,1,0,146,0,0,0,83,86,134,100,22,95.39,262,-44.00,30.00,-986.00
2024-06-07 01:15:18.496031,0,0,140,0,0,0,83,86,134,100,22,95.38,262,2.00,17.00,-986.00
2024-06-07 01:15:18.801323,0,0,134,0,0,0,83,86,134,100,22,95.66,262,-25.00,-4.00,-963.00
2024-06-07 01:15:18.801543,0,0,128,0,0,0,83,86,135,100,22,95.10,262,7.00,8.00,-1014.00
2024-06-07 01:15:18.801733,0,0,122,0,0,0,83,86,134,100,22,95.66,262,-16.00,10.00,-986.00
2024-06-07 01:15:18.813603,0,0,116,0,0,0,83,86,133,100,22,95.45,262,8.00,13.00,-963.00
2024-06-07 01:15:18.944632,0,0,110,0,0,0,83,86,133,100,22,95.50,263,5.00,4.00,-976.00
2024-06-07 01:15:19.108476,0,0,104,0,0,0,83,86,133,100,22,95.42,263,-6.00,16.00,-974.00
2024-06-07 01:15:19.119932,1,0,97,0,0,0,83,86,131,100,22,95.30,263,8.00,9.00,-1008.00
2024-06-07 01:15:19.265567,1,0,91,0,0,0,83,86,132,100,22,95.29,263,2.00,2.00,-937.00
2024-06-07 01:15:19.328307,1,0,85,0,0,0,83,86,131,100,22,95.35,263,-3.00,3.00,-999.00
2024-06-07 01:15:19.425799,0,0,79,0,0,0,83,86,131,100,22,95.23,263,31.00,6.00,-1012.00
2024-06-07 01:15:19.610510,1,0,73,0,0,0,83,86,131,100,22,95.65,263,15.00,9.00,-1025.00
2024-06-07 01:15:19.629940,1,0,67,0,0,0,84,87,129,100,22,95.22,263,25.00,17.00,-1027.00
2024-06-07 01:15:19.732141,1,-1,61,0,0,0,84,87,130,100,22,95.38,263,-16.00,11.00,-970.00
2024-06-07 01:15:19.919021,1,-1,55,0,0,0,84,87,129,100,22,95.40,263,28.00,-18.00,-1016.00
2024-06-07 01:15:19.935769,1,0,49,0,0,0,84,87,129,100,22,95.20,264,-23.00,-6.00,-1006.00
2024-06-07 01:15:20.122330,0,0,43,0,0,0,84,87,129,100,22,95.58,264,9.00,28.00,-1008.00
2024-06-07 01:15:20.139812,0,0,38,0,0,0,84,87,129,100,22,95.34,264,12.00,-15.00,-971.00
2024-06-07 01:15:20.326400,0,0,32,0,0,0,84,87,128,100,22,95.51,264,6.00,25.00,-1031.00
2024-06-07 01:15:20.344037,0,-1,26,0,0,0,84,87,127,100,22,95.26,264,6.00,15.00,-975.00
2024-06-07 01:15:20.531171,1,-1,20,0,0,0,84,87,126,100,22,95.27,264,-12.00,30.00,-1060.00
2024-06-07 01:15:20.547475,1,-1,15,0,0,0,84,87,127,100,22,95.51,264,-26.00,43.00,-1047.00
2024-06-07 01:15:20.651767,1,-2,11,0,0,0,84,86,127,100,22,95.47,264,-2.00,15.00,-983.00
2024-06-07 01:15:20.751695,1,-2,9,0,0,0,84,86,126,100,22,95.27,264,9.00,1.00,-973.00
2024-06-07 01:15:20.940974,1,-1,7,0,0,0,84,86,125,100,22,95.11,264,19.00,6.00,-1004.00
2024-06-07 01:15:20.955612,0,-1,5,0,0,0,84,86,125,100,22,95.68,265,-8.00,20.00,-985.00
2024-06-07 01:15:21.146396,0,0,4,0,0,0,84,86,125,100,22,95.35,265,13.00,25.00,-1020.00
2024-06-07 01:15:21.159950,0,0,3,0,0,0,84,86,124,100,22,95.38,265,6.00,31.00,-1020.00
2024-06-07 01:15:21.351243,0,0,2,0,0,0,84,86,124,100,22,95.34,265,-14.00,24.00,-975.00
2024-06-07 01:15:21.364049,0,-1,1,0,0,0,84,86,124,100,22,95.45,265,6.00,8.00,-1022.00
2024-06-07 01:15:21.558354,0,0,1,0,0,0,84,86,124,100,22,95.22,265,-3.00,51.00,-1021.00
2024-06-07 01:15:21.558502,1,-1,1,0,0,0,84,86,124,100,22,95.23,265,20.00,-1.00,-979.00
2024-06-07 01:15:21.762048,1,0,1,0,0,0,83,86,124,100,22,95.39,265,-1.00,16.00,-1054.00
2024-06-07 01:15:21.762246,1,0,1,0,0,0,83,86,124,100,21,95.66,265,-16.00,35.00,-995.00
2024-06-07 01:15:21.823898,0,0,1,0,0,0,83,86,125,100,21,95.50,265,-10.00,28.00,-1035.00
2024-06-07 01:15:21.968774,1,0,1,0,0,0,83,86,126,100,21,95.26,266,11.00,0.00,-987.00
2024-06-07 01:15:22.027562,1,0,1,0,0,0,83,86,126,100,21,95.36,266,-6.00,6.00,-984.00
2024-06-07 01:15:22.169827,1,0,1,0,0,0,83,86,127,100,21,95.32,266,21.00,31.00,-1029.00
2024-06-07 01:15:22.231913,1,0,1,0,0,0,83,86,127,100,21,95.45,266,29.00,33.00,-984.00
2024-06-07 01:15:22.333576,1,0,1,0,0,0,83,86,127,100,21,95.46,266,0.00,21.00,-1034.00
2024-06-07 01:15:22.435523,0,-1,1,0,0,0,83,86,128,100,21,95.34,266,15.00,24.00,-972.00
2024-06-07 01:15:22.537533,0,-1,1,0,0,0,83,86,128,100,21,95.50,266,5.00,41.00,-1030.00
2024-06-07 01:15:22.639774,1,-1,1,0,0,0,84,86,128,100,21,95.38,266,4.00,26.00,-998.00
2024-06-07 01:15:22.786475,0,0,1,0,0,0,84,86,128,100,21,94.95,266,27.00,28.00,-1005.00
2024-06-07 01:15:22.843911,0,-1,1,0,0,0,84,86,128,100,21,95.40,266,30.00,32.00,-1040.00
2024-06-07 01:15:22.991802,0,-1,1,0,0,0,84,86,128,100,21,95.39,267,-17.00,17.00,-985.00
2024-06-07 01:15:23.047485,0,0,1,0,0,0,84,86,129,100,21,95.67,267,19.00,15.00,-990.00
2024-06-07 01:15:23.149445,0,0,1,0,0,0,84,86,129,100,21,95.33,267,7.00,0.00,-1012.00
2024-06-07 01:15:23.297198,0,0,1,0,0,0,84,86,129,100,21,95.11,267,14.00,11.00,-999.00
2024-06-07 01:15:23.353574,0,0,1,0,0,0,84,86,129,100,21,95.43,267,13.00,36.00,-1008.00
2024-06-07 01:15:23.455655,0,-1,1,0,0,0,84,86,129,100,21,95.38,267,26.00,6.00,-1022.00
2024-06-07 01:15:23.603280,0,-1,1,0,0,0,84,86,130,100,21,95.19,267,-8.00,30.00,-965.00
2024-06-07 01:15:23.659827,0,0,1,0,0,0,83,86,130,100,21,95.32,267,22.00,0.00,-992.00
2024-06-07 01:15:23.807950,0,-1,1,0,0,0,83,86,130,100,21,95.09,267,12.00,35.00,-981.00
2024-06-07 01:15:23.863941,0,-1,1,0,0,0,83,86,131,100,21,95.34,267,8.00,11.00,-1027.00
2024-06-07 01:15:24.015925,0,0,1,0,0,0,83,86,130,100,21,95.34,268,0.00,2.00,-952.00
2024-06-07 01:15:24.067699,0,0,1,0,0,0,83,86,131,100,21,95.31,268,27.00,8.00,-977.00
2024-06-07 01:15:24.217530,0,-1,1,0,0,0,83,86,131,100,21,95.13,268,33.00,13.00,-1048.00
2024-06-07 01:15:24.271491,0,-1,1,0,0,0,83,86,131,100,21,95.43,268,19.00,19.00,-1007.00
2024-06-07 01:15:24.423158,0,0,1,0,0,0,83,86,131,100,21,95.58,268,6.00,19.00,-965.00
2024-06-07 01:15:24.475444,0,0,1,0,0,0,83,86,131,100,21,95.52,268,-14.00,18.00,-961.00
2024-06-07 01:15:24.629056,0,0,1,0,0,0,83,86,131,100,21,95.43,268,-28.00,17.00,-969.00
2024-06-07 01:15:24.679378,0,-1,1,0,0,0,83,86,131,100,21,95.37,268,-10.00,41.00,-1018.00
2024-06-07 01:15:24.832871,0,-1,1,0,0,0,83,86,131,100,21,95.45,268,23.00,32.00,-1011.00
2024-06-07 01:15:24.883655,0,0,1,0,0,0,83,86,131,100,21,95.36,268,15.00,9.00,-1043.00
2024-06-07 01:15:25.037625,0,0,1,0,0,0,83,86,131,100,21,95.26,269,7.00,16.00,-1003.00
2024-06-07 01:15:25.087311,0,0,1,0,0,0,83,86,131,100,21,95.60,269,-19.00,29.00,-1008.00
2024-06-07 01:15:25.138663,0,0,1,0,0,0,83,86,132,100,21,95.62,269,21.00,10.00,-1042.00
2024-06-07 01:15:25.241552,0,0,1,0,0,0,83,86,132,100,21,95.40,269,35.00,-8.00,-979.00
2024-06-07 01:15:25.343866,0,0,1,0,0,0,83,86,132,100,21,95.38,269,-3.00,32.00,-1035.00
2024-06-07 01:15:25.444183,0,0,1,0,0,0,83,86,133,100,21,95.57,269,-13.00,-7.00,-954.00
2024-06-07 01:15:25.546350,0,0,1,0,0,0,83,86,134,100,21,95.22,269,27.00,14.00,-1035.00
2024-06-07 01:15:25.648157,0,0,1,0,0,0,84,85,134,100,21,95.45,269,-11.00,3.00,-951.00
2024-06-07 01:15:25.754691,0,0,1,0,0,0,84,85,134,100,21,95.44,269,1.00,20.00,-1026.00
2024-06-07 01:15:25.852280,0,0,1,0,0,0,84,85,134,100,21,95.30,269,-3.00,14.00,-977.00
2024-06-07 01:15:25.959054,0,0,1,0,0,0,84,85,133,100,21,95.57,270,1.00,17.00,-999.00
2024-06-07 01:15:26.057994,0,-1,1,0,0,0,84,85,134,100,21,95.38,270,1.00,14.00,-1009.00
2024-06-07 01:15:26.158471,0,-1,1,0,0,0,84,85,133,100,21,95.37,270,-9.00,14.00,-997.00
2024-06-07 01:15:26.260664,0,0,1,0,0,0,84,85,133,100,21,95.28,270,11.00,15.00,-1032.00
2024-06-07 01:15:26.368562,0,0,1,0,0,0,84,85,132,100,21,95.52,270,-7.00,15.00,-986.00
2024-06-07 01:15:26.464201,0,0,1,0,0,0,84,85,133,100,21,95.16,270,-4.00,8.00,-1003.00
2024-06-07 01:15:26.572652,0,0,1,0,0,0,84,85,133,100,21,95.28,270,-17.00,26.00,-985.00
2024-06-07 01:15:26.668251,0,0,1,0,0,0,83,86,133,100,21,95.41,270,10.00,16.00,-992.00
2024-06-07 01:15:26.777348,0,0,1,0,0,0,83,86,133,100,20,95.35,270,5.00,-3.00,-998.00
2024-06-07 01:15:26.872373,0,-1,1,0,0,0,83,86,134,100,20,95.34,270,20.00,1.00,-995.00
2024-06-07 01:15:26.982158,0,0,1,0,0,0,83,86,134,100,20,95.44,271,-20.00,24.00,-966.00
2024-06-07 01:15:27.077647,0,0,1,0,0,0,83,86,134,100,20,95.57,271,-5.00,10.00,-1001.00
2024-06-07 01:15:27.187012,0,-1,1,0,0,0,83,86,132,100,20,95.25,271,-3.00,11.00,-993.00
2024-06-07 01:15:27.281137,0,-1,1,0,0,0,83,86,132,100,20,95.44,271,12.00,17.00,-1017.00
2024-06-07 01:15:27.391733,0,-1,1,0,0,0,83,86,131,100,20,95.56,271,-9.00,33.00,-1004.00
2024-06-07 01:15:27.485134,0,-1,1,0,0,0,83,86,131,100,20,95.25,271,-28.00,19.00,-1034.00
2024-06-07 01:15:27.597409,0,-1,1,0,0,0,83,86,130,100,20,95.10,271,0.00,2.00,-997.00
2024-06-07 01:15:27.689512,0,0,1,0,0,0,83,86,128,100,20,95.21,271,9.00,22.00,-1019.00
2024-06-07 01:15:27.801328,0,0,1,0,0,0,83,86,127,100,20,94.99,271,0.00,20.00,-961.00
2024-06-07 01:15:27.893089,0,0,1,0,0,0,83,86,125,100,20,95.07,271,-10.00,7.00,-1003.00
2024-06-07 01:15:28.005939,0,0,1,0,0,0,83,86,126,100,20,95.25,272,-36.00,7.00,-995.00
2024-06-07 01:15:28.097156,0,0,1,0,0,0,83,86,124,100,20,95.09,272,0.00,24.00,-1042.00
2024-06-07 01:15:28.211380,0,0,1,0,0,0,83,86,124,100,20,95.33,272,19.00,-16.00,-1012.00
2024-06-07 01:15:28.301162,0,0,1,0,0,0,83,86,124,100,20,95.09,272,-1.00,10.00,-1001.00
2024-06-07 01:15:28.415755,0,0,1,0,0,0,83,86,123,100,20,95.26,272,12.00,-13.00,-1012.00
2024-06-07 01:15:28.505104,0,0,1,0,0,0,83,86,123,100,20,95.31,272,-1.00,7.00,-997.00
2024-06-07 01:15:28.556017,0,0,1,0,0,0,83,86,123,100,20,95.25,272,0.00,7.00,-974.00
2024-06-07 01:15:28.722921,0,0,1,0,0,0,83,85,123,100,20,95.19,272,13.00,-4.00,-1028.00
2024-06-07 01:15:28.760157,0,0,1,0,0,0,83,85,124,100,20,95.15,272,-9.00,-8.00,-1029.00
2024-06-07 01:15:28.929910,0,0,1,0,0,0,83,85,125,100,20,95.40,272,3.00,-11.00,-993.00
2024-06-07 01:15:28.964031,0,0,1,0,0,0,83,85,125,100,20,95.59,273,-5.00,9.00,-977.00
2024-06-07 01:15:29.132428,0,0,1,0,0,0,83,85,127,100,20,95.28,273,5.00,6.00,-1006.00
2024-06-07 01:15:29.168010,-1,0,1,0,0,0,83,85,128,100,20,95.47,273,-7.00,39.00,-1015.00
2024-06-07 01:15:29.340308,-1,-1,1,0,0,0,83,85,129,100,20,95.48,273,2.00,28.00,-972.00
2024-06-07 01:15:29.372040,-1,-1,1,0,0,0,83,85,130,100,20,95.03,273,-11.00,7.00,-984.00
2024-06-07 01:15:29.473922,0,-1,1,0,0,0,83,85,131,100,20,95.27,273,-14.00,48.00,-1017.00
2024-06-07 01:15:29.644483,0,-1,1,0,0,0,83,85,131,100,20,95.25,273,8.00,-7.00,-935.00
2024-06-07 01:15:29.683981,0,-1,1,0,0,0,84,87,131,100,20,95.18,273,4.00,15.00,-987.00
2024-06-07 01:15:29.780010,0,-1,1,0,0,0,84,87,131,100,20,95.65,273,-9.00,34.00,-1021.00
2024-06-07 01:15:29.951613,0,-1,1,0,0,0,84,87,132,100,20,95.39,273,-35.00,27.00,-984.00
2024-06-07 01:15:29.984933,0,-1,1,0,0,0,84,87,131,100,20,95.04,274,-6.00,-8.00,-986.00
2024-06-07 01:15:30.156447,0,-1,1,0,0,0,84,87,130,100,20,95.17,274,0.00,27.00,-990.00
2024-06-07 01:15:30.191919,0,-1,1,0,0,0,84,87,130,100,20,95.42,274,-5.00,20.00,-1048.00
2024-06-07 01:15:30.292001,0,-1,1,0,0,0,84,87,130,100,20,95.00,274,-27.00,19.00,-1026.00
2024-06-07 01:15:30.393871,0,-1,1,0,0,0,84,87,130,100,20,95.36,274,-23.00,9.00,-994.00
2024-06-07 01:15:30.494972,0,-1,1,0,0,0,84,87,129,100,20,95.15,274,-3.00,20.00,-961.00
2024-06-07 01:15:30.597047,0,-1,1,0,0,0,84,87,129,100,20,95.07,274,5.00,21.00,-973.00
2024-06-07 01:15:30.699931,0,-1,1,0,0,0,84,85,128,100,20,94.98,274,13.00,-7.00,-949.00
2024-06-07 01:15:30.799788,0,0,1,0,0,0,84,85,127,100,19,95.17,274,8.00,16.00,-1037.00
2024-06-07 01:15:30.975607,0,0,1,0,0,0,84,85,126,100,19,95.28,275,-39.00,40.00,-1000.00
2024-06-07 01:15:31.003799,0,0,1,0,0,0,84,85,126,100,19,95.16,275,4.00,1.00,-967.00
2024-06-07 01:15:31.180592,0,0,1,0,0,0,84,85,125,100,19,95.27,275,-14.00,0.00,-1030.00
2024-06-07 01:15:31.208667,0,0,1,0,0,0,84,85,125,100,19,95.24,275,25.00,-17.00,-979.00
2024-06-07 01:15:31.385220,0,0,1,0,0,0,84,85,125,100,19,95.22,275,19.00,9.00,-977.00
2024-06-07 01:15:31.412922,0,0,1,0,0,0,84,85,126,100,19,95.18,275,17.00,6.00,-1021.00
2024-06-07 01:15:31.589962,0,0,1,0,0,0,84,85,126,100,19,95.40,275,-29.00,16.00,-1005.00
2024-06-07 01:15:31.616741,0,0,1,0,0,0,84,85,127,100,19,95.51,275,-32.00,25.00,-1039.00
2024-06-07 01:15:31.794689,0,-1,1,0,0,0,84,85,128,100,19,95.33,275,6.00,33.00,-977.00
2024-06-07 01:15:31.820552,0,-1,1,0,0,0,84,85,130,100,19,95.21,275,-47.00,42.00,-1082.00
2024-06-07 01:15:32.115716,0,-1,1,0,0,0,84,85,130,100,19,94.95,276,36.00,7.00,-989.00
2024-06-07 01:15:32.115930,0,-1,1,0,0,0,84,85,131,100,19,95.35,276,10.00,6.00,-1005.00
2024-06-07 01:15:32.126649,0,-1,1,0,0,0,84,85,132,100,19,95.22,276,-26.00,0.00,-1004.00
2024-06-07 01:15:32.319737,0,-1,1,0,0,0,84,85,133,100,19,95.17,276,-9.00,-12.00,-985.00
2024-06-07 01:15:32.320601,0,-1,1,0,0,0,84,85,133,100,19,95.16,276,2.00,-16.00,-990.00
2024-06-07 01:15:32.444736,0,-1,1,0,0,0,84,85,135,100,19,95.49,276,1.00,15.00,-1014.00
2024-06-07 01:15:32.498948,0,-1,1,0,0,0,84,85,135,100,19,95.22,276,7.00,6.00,-964.00
2024-06-07 01:15:32.606871,0,-1,1,0,0,0,84,85,135,100,19,95.23,276,7.00,-5.00,-976.00
2024-06-07 01:15:32.690331,0,-1,1,0,0,0,83,86,135,100,19,95.01,276,9.00,9.00,-992.00
2024-06-07 01:15:32.794012,0,-1,1,0,0,0,83,86,135,100,19,95.57,276,14.00,20.00,-1010.00
2024-06-07 01:15:32.919050,0,-1,1,0,0,0,83,86,135,100,19,95.53,277,37.00,0.00,-1022.00
2024-06-07 01:15:33.057603,0,-1,1,0,0,0,83,86,135,100,19,95.30,277,-40.00,17.00,-970.00
2024-06-07 01:15:33.118990,0,-1,1,0,0,0,83,86,134,100,19,95.50,277,1.00,16.00,-993.00
2024-06-07 01:15:33.262377,0,-1,1,0,0,0,83,86,134,100,19,95.38,277,2.00,-1.00,-1010.00
2024-06-07 01:15:33.405802,0,-1,1,0,0,0,83,86,133,100,19,95.02,277,3.00,0.00,-967.00
2024-06-07 01:15:33.406990,0,-1,1,0,0,0,83,86,133,100,19,95.32,277,-26.00,12.00,-991.00
2024-06-07 01:15:33.549174,0,0,1,0,0,0,83,86,131,100,19,94.99,277,-40.00,25.00,-994.00
2024-06-07 01:15:33.692448,0,0,1,0,0,0,83,86,131,100,19,95.35,277,-5.00,28.00,-989.00
2024-06-07 01:15:33.707494,0,0,1,0,0,0,83,85,130,100,19,95.28,277,2.00,13.00,-1001.00
2024-06-07 01:15:33.854312,0,-1,1,0,0,0,83,85,130,100,19,95.41,277,-8.00,21.00,-987.00
2024-06-07 01:15:33.997388,0,-1,1,0,0,0,83,85,129,100,19,95.46,278,14.00,2.00,-958.00
2024-06-07 01:15:34.013476,0,-1,1,0,0,0,83,85,128,100,19,95.13,278,-2.00,13.00,-1017.00
2024-06-07 01:15:34.161230,0,-1,1,0,0,0,83,85,127,100,19,95.52,278,0.00,2.00,-1042.00
2024-06-07 01:15:34.217531,0,-1,1,0,0,0,83,85,126,100,19,95.31,278,13.00,-4.00,-1008.00
2024-06-07 01:15:34.354708,0,0,1,0,0,0,83,85,126,100,19,95.25,278,5.00,19.00,-1014.00
2024-06-07 01:15:34.421685,0,0,1,0,0,0,83,85,125,100,19,95.32,278,5.00,24.00,-1086.00
2024-06-07 01:15:34.559492,0,0,1,0,0,0,83,85,124,100,19,95.23,278,17.00,15.00,-997.00
2024-06-07 01:15:34.625457,0,0,1,0,0,0,83,85,123,100,19,95.41,278,9.00,-3.00,-1011.00
2024-06-07 01:15:34.764317,0,0,1,0,0,0,83,87,123,100,19,95.43,278,-32.00,0.00,-996.00
2024-06-07 01:15:34.829436,0,0,1,0,0,0,83,87,123,100,19,95.36,278,-32.00,4.00,-1032.00
2024-06-07 01:15:34.969115,0,0,1,0,0,0,83,87,122,100,19,95.27,279,8.00,13.00,-1005.00
2024-06-07 01:15:35.033515,0,0,1,0,0,0,83,87,123,100,19,95.41,279,39.00,-2.00,-1045.00
2024-06-07 01:15:35.135440,0,0,1,0,0,0,83,87,122,100,19,95.10,279,26.00,-5.00,-946.00
2024-06-07 01:15:35.276257,0,0,1,0,0,0,83,87,122,100,19,95.27,279,0.00,-5.00,-1009.00
2024-06-07 01:15:35.339445,0,0,1,0,0,0,83,87,123,100,19,95.07,279,-15.00,21.00,-1018.00
2024-06-07 01:15:35.480860,0,0,1,0,0,0,83,87,123,100,19,95.22,279,-8.00,9.00,-973.00
2024-06-07 01:15:35.543265,0,0,1,0,0,0,83,87,122,100,19,95.09,279,16.00,7.00,-1026.00
2024-06-07 01:15:35.645333,0,0,1,0,0,0,83,87,124,100,19,95.02,279,13.00,-11.00,-1002.00
2024-06-07 01:15:35.747306,0,0,1,0,0,0,84,85,124,100,19,95.16,279,2.00,0.00,-991.00
2024-06-07 01:15:35.849203,0,0,1,0,0,0,84,85,125,100,18,95.49,279,9.00,18.00,-1050.00
2024-06-07 01:15:35.951160,0,0,1,0,0,0,84,85,124,100,18,95.13,280,-14.00,10.00,-948.00
2024-06-07 01:15:36.053354,0,0,1,0,0,0,84,85,125,100,18,95.03,280,8.00,32.00,-979.00
2024-06-07 01:15:36.105108,0,0,1,0,0,0,84,85,125,100,18,95.16,280,7.00,19.00,-941.00
2024-06-07 01:15:36.300046,0,0,1,0,0,0,84,85,124,100,18,95.08,280,-3.00,-20.00,-903.00
2024-06-07 01:15:36.308226,0,0,1,0,0,1,84,85,123,100,18,95.19,280,-4.00,19.00,-922.00
2024-06-07 01:15:36.504833,0,0,1,0,0,2,84,85,120,90,18,95.15,280,46.00,-7.00,-916.00
2024-06-07 01:15:36.512127,0,0,1,0,0,3,84,85,118,90,18,95.21,280,1.00,-7.00,-880.00
2024-06-07 01:15:36.710583,0,0,1,0,0,4,84,85,113,90,18,95.24,280,32.00,-17.00,-920.00
2024-06-07 01:15:36.716141,0,0,1,0,0,5,83,86,108,80,18,95.12,280,0.00,-18.00,-903.00
2024-06-07 01:15:36.914697,0,0,1,0,0,6,83,86,102,80,18,94.75,280,3.00,7.00,-921.00
2024-06-07 01:15:36.920133,0,0,1,0,0,6,83,86,95,70,18,94.92,281,2.00,-6.00,-961.00
2024-06-07 01:15:37.024364,0,0,1,0,0,7,83,86,88,60,18,94.96,281,5.00,-20.00,-988.00
2024-06-07 01:15:37.125480,0,0,1,0,0,7,83,86,81,60,18,94.83,281,-5.00,13.00,-1020.00
2024-06-07 01:15:37.324010,0,0,1,0,0,6,83,86,74,50,18,94.88,281,9.00,-4.00,-1065.00
2024-06-07 01:15:37.328120,0,0,1,0,0,6,83,86,68,40,18,94.70,281,9.00,-7.00,-1054.00
2024-06-07 01:15:37.529057,0,0,1,0,0,5,83,86,62,40,18,94.59,281,7.00,11.00,-1016.00
2024-06-07 01:15:37.532139,0,0,1,0,0,5,83,86,56,30,18,94.55,281,24.00,2.00,-1063.00
