TS,pitch,roll,yaw,vgx,vgy,vgz,templ,temph,tof,h,bat,baro,time,agx,agy,agz
2024-06-07 11:20:23.856899,0,0,0,0,0,0,58,59,10,0,80,109.47,0,7.00,6.00,-999.00
2024-06-07 11:20:23.902101,0,0,0,0,0,0,58,59,10,0,80,109.60,0,8.00,6.00,-1000.00
2024-06-07 11:20:23.953145,0,0,0,0,0,0,58,59,10,0,80,109.42,0,7.00,8.00,-999.00
2024-06-07 11:20:24.058438,0,0,0,0,0,0,58,59,10,0,80,109.53,0,9.00,8.00,-1002.00
2024-06-07 11:20:24.157136,0,0,0,0,0,0,58,59,10,0,80,109.58,0,8.00,8.00,-999.00
2024-06-07 11:20:24.262994,0,0,0,0,0,0,58,59,10,0,80,109.42,0,8.00,6.00,-1003.00
2024-06-07 11:20:24.360649,0,0,0,0,0,0,58,59,10,0,80,109.46,0,8.00,6.00,-999.00
2024-06-07 11:20:24.467889,0,0,0,0,0,0,58,59,10,0,80,109.60,0,8.00,8.00,-1000.00
2024-06-07 11:20:24.564796,0,0,0,0,0,0,58,59,10,0,80,109.41,0,7.00,8.00,-1001.00
2024-06-07 11:20:24.672656,0,0,0,0,0,0,58,59,10,0,80,109.33,0,7.00,9.00,-1001.00
2024-06-07 11:20:24.768770,0,0,0,0,0,0,58,59,10,0,79,109.46,0,7.00,9.00,-1000.00
2024-06-07 11:20:24.877361,0,0,0,0,0,0,58,59,10,0,79,109.45,0,8.00,7.00,-996.00
2024-06-07 11:20:24.972834,0,0,0,0,0,0,58,59,10,0,79,109.28,0,7.00,8.00,-998.00
2024-06-07 11:20:25.074567,0,0,0,0,0,0,58,59,10,0,79,109.17,0,9.00,8.00,-998.00
2024-06-07 11:20:25.184556,0,0,0,0,0,0,58,59,10,0,79,109.56,0,8.00,7.00,-1001.00
2024-06-07 11:20:25.278782,0,0,0,0,0,0,58,59,10,0,79,109.63,0,8.00,7.00,-998.00
2024-06-07 11:20:25.389423,0,0,0,0,0,0,58,59,10,0,79,109.53,0,9.00,7.00,-998.00
2024-06-07 11:20:25.482760,0,0,0,0,0,0,57,59,10,0,79,109.18,0,7.00,8.00,-998.00
2024-06-07 11:20:25.594124,0,0,0,0,0,0,57,59,10,0,79,109.86,0,9.00,7.00,-1000.00
2024-06-07 11:20:25.686609,0,0,0,0,0,0,57,59,10,0,79,109.21,0,9.00,8.00,-997.00
2024-06-07 11:20:25.799083,0,0,0,0,0,0,57,59,10,0,79,109.53,0,7.00,9.00,-998.00
2024-06-07 11:20:25.890745,0,0,0,0,0,0,57,59,10,0,79,109.44,0,8.00,10.00,-999.00
2024-06-07 11:20:25.992542,0,0,0,0,0,0,57,59,10,0,79,109.37,0,9.00,9.00,-1001.00
2024-06-07 11:20:26.106139,0,0,0,0,0,0,57,59,10,0,79,109.42,0,8.00,6.00,-998.00
2024-06-07 11:20:26.198035,0,0,0,0,0,0,57,59,10,0,79,109.42,0,1.00,6.00,-996.00
2024-06-07 11:20:26.298641,0,0,0,0,0,0,57,59,10,0,79,109.42,0,21.00,3.00,-995.00
2024-06-07 11:20:26.413368,0,0,0,0,0,0,57,59,10,0,79,109.42,0,-2.00,-19.00,-1020.00
2024-06-07 11:20:26.502569,0,-1,0,0,0,0,58,60,10,0,79,109.42,0,14.00,11.00,-1008.00
2024-06-07 11:20:26.618112,1,-1,0,0,0,0,58,60,10,0,79,109.42,0,-8.00,12.00,-1042.00
2024-06-07 11:20:26.706680,3,-1,0,0,0,-1,58,60,10,0,79,109.42,0,-23.00,7.00,-1169.00
2024-06-07 11:20:26.822880,0,0,0,-1,0,-4,58,60,11,0,79,109.42,0,-58.00,47.00,-1346.00
2024-06-07 11:20:26.910539,-4,0,0,-2,0,-6,58,60,13,10,79,109.53,0,-54.00,45.00,-1121.00
2024-06-07 11:20:27.030380,-4,-1,0,-1,0,-7,58,60,20,20,79,109.66,0,-68.00,26.00,-1047.00
2024-06-07 11:20:27.063884,-5,-1,0,-1,0,-8,58,60,26,20,79,109.60,1,-78.00,28.00,-1016.00
2024-06-07 11:20:27.232407,-5,-1,0,-1,0,-8,58,60,35,30,79,109.71,1,-73.00,22.00,-955.00
2024-06-07 11:20:27.267615,-5,-1,0,-1,0,-7,58,60,43,40,79,109.96,1,-80.00,11.00,-919.00
2024-06-07 11:20:27.450681,-5,-1,0,-1,0,-7,58,60,51,50,79,109.70,1,-63.00,13.00,-876.00
2024-06-07 11:20:27.593204,-6,-1,0,-1,0,-6,59,61,58,50,79,110.03,1,-79.00,17.00,-873.00
2024-06-07 11:20:27.593287,-6,-1,0,-1,0,-5,59,61,63,60,79,110.15,1,-65.00,-3.00,-897.00
2024-06-07 11:20:27.751033,-6,-1,0,0,0,-3,59,61,66,60,79,109.92,1,-86.00,12.00,-883.00
2024-06-07 11:20:27.893569,-5,-1,0,0,0,-2,59,61,70,70,79,110.11,1,-75.00,19.00,-887.00
2024-06-07 11:20:27.893710,-5,-1,0,0,0,-1,59,61,71,70,79,110.31,1,-84.00,27.00,-920.00
2024-06-07 11:20:28.066039,-5,-2,0,0,0,-1,59,61,73,70,79,110.08,1,-63.00,5.00,-961.00
2024-06-07 11:20:28.083454,-5,-1,0,0,0,0,59,61,73,70,79,110.12,2,-64.00,23.00,-959.00
2024-06-07 11:20:28.199473,-4,-1,0,0,0,0,59,61,74,70,79,109.79,2,-62.00,33.00,-973.00
2024-06-07 11:20:28.377478,-4,-2,0,0,0,0,59,61,73,70,79,110.13,2,-69.00,21.00,-1019.00
2024-06-07 11:20:28.390374,-4,-2,0,0,0,0,59,61,73,70,79,110.05,2,-69.00,9.00,-1007.00
2024-06-07 11:20:28.520129,-4,-1,0,0,0,0,59,61,74,70,79,110.11,2,-87.00,53.00,-1004.00
2024-06-07 11:20:28.666692,-4,-1,0,0,0,0,59,61,74,70,79,110.12,2,-81.00,19.00,-1005.00
2024-06-07 11:20:28.829411,-4,-2,0,0,0,0,59,61,74,70,79,109.87,2,-78.00,39.00,-1007.00
2024-06-07 11:20:28.829925,-4,-2,0,0,0,0,59,61,75,70,79,109.97,2,-72.00,42.00,-1003.00
2024-06-07 11:20:28.899593,-4,-2,0,0,0,0,59,61,75,80,79,110.31,2,-70.00,16.00,-984.00
2024-06-07 11:20:29.104554,-5,-1,0,0,0,0,59,61,75,80,79,109.98,2,-64.00,36.00,-1014.00
2024-06-07 11:20:29.104757,-4,-2,0,0,0,0,59,61,76,80,79,109.99,3,-90.00,27.00,-1018.00
2024-06-07 11:20:29.291344,-4,-3,0,0,0,0,59,61,76,80,79,110.01,3,-90.00,6.00,-1019.00
2024-06-07 11:20:29.307465,-5,-2,0,0,0,0,59,61,77,80,79,109.77,3,-105.00,14.00,-976.00
2024-06-07 11:20:29.434679,-5,0,0,0,0,0,59,61,78,80,79,109.94,3,-84.00,3.00,-997.00
2024-06-07 11:20:29.599268,-5,0,0,0,0,0,59,62,78,80,79,110.07,3,-91.00,9.00,-997.00
2024-06-07 11:20:29.613410,-5,-1,0,0,0,0,59,62,79,80,79,109.95,3,-88.00,-1.00,-1013.00
2024-06-07 11:20:29.755871,-5,0,0,0,0,0,59,62,80,80,79,109.97,3,-89.00,18.00,-969.00
2024-06-07 11:20:29.829579,-5,0,0,0,0,0,59,62,81,80,79,109.95,3,-105.00,13.00,-999.00
2024-06-07 11:20:29.919302,-5,-1,0,0,0,0,59,62,81,80,79,109.87,3,-106.00,17.00,-976.00
2024-06-07 11:20:30.102184,-5,-1,0,0,0,0,59,62,82,80,79,110.07,3,-84.00,3.00,-1000.00
2024-06-07 11:20:30.123282,-6,-1,0,0,0,0,59,62,83,80,79,109.95,4,-85.00,18.00,-977.00
2024-06-07 11:20:30.305123,-5,-1,0,0,0,0,59,62,83,80,79,110.09,4,-60.00,21.00,-976.00
2024-06-07 11:20:30.327359,-5,-1,0,0,0,0,59,62,84,80,79,110.19,4,-72.00,20.00,-1000.00
2024-06-07 11:20:30.509253,-4,-1,0,0,0,0,59,62,84,80,79,110.02,4,-86.00,18.00,-953.00
2024-06-07 11:20:30.531307,-3,-1,0,0,0,0,60,62,84,80,79,110.10,4,-88.00,14.00,-1003.00
2024-06-07 11:20:30.714044,-3,-1,0,0,0,0,60,62,85,80,79,110.04,4,-57.00,22.00,-989.00
2024-06-07 11:20:30.735247,-3,-1,0,0,0,0,60,62,84,80,78,109.80,4,-67.00,38.00,-1019.00
2024-06-07 11:20:30.918823,-3,-1,0,0,0,0,60,62,84,80,78,109.95,4,-40.00,24.00,-986.00
2024-06-07 11:20:30.939324,-4,-2,0,0,0,0,60,62,84,80,78,110.24,4,-54.00,43.00,-990.00
2024-06-07 11:20:31.123516,-3,-1,0,0,0,0,60,62,84,80,78,110.49,4,-76.00,61.00,-976.00
2024-06-07 11:20:31.124286,-3,-2,0,0,0,0,60,62,84,80,78,110.18,5,-68.00,47.00,-984.00
2024-06-07 11:20:31.195435,-3,-3,0,0,0,0,60,62,83,80,78,109.87,5,-79.00,62.00,-980.00
2024-06-07 11:20:31.330173,-3,-4,0,0,0,0,60,62,83,80,78,110.24,5,-57.00,21.00,-985.00
2024-06-07 11:20:31.399513,-3,-3,0,0,0,0,60,62,83,80,78,109.98,5,-74.00,39.00,-1015.00
2024-06-07 11:20:31.501338,-4,-3,0,0,0,0,60,63,83,80,78,110.03,5,-94.00,19.00,-1001.00
2024-06-07 11:20:31.636055,-4,-3,-1,0,0,0,60,63,82,80,78,110.11,5,-67.00,21.00,-1002.00
2024-06-07 11:20:31.705569,-4,-3,0,0,0,0,60,63,83,80,78,109.87,5,-56.00,17.00,-1017.00
2024-06-07 11:20:31.840569,-4,-1,0,0,0,0,60,63,83,80,78,109.98,5,-67.00,25.00,-1001.00
2024-06-07 11:20:31.909418,-4,-1,0,0,0,0,60,63,83,80,78,110.16,5,-108.00,27.00,-1002.00
2024-06-07 11:20:32.011450,-4,-1,0,0,0,0,60,63,82,80,78,109.98,5,-59.00,-12.00,-980.00
2024-06-07 11:20:32.113384,-4,-1,0,0,0,0,60,63,82,80,78,110.14,6,-56.00,14.00,-999.00
2024-06-07 11:20:32.250166,-3,0,0,0,0,0,60,63,82,80,78,109.82,6,-55.00,20.00,-998.00
2024-06-07 11:20:32.317561,-3,0,0,0,0,0,60,63,83,80,78,110.04,6,-59.00,23.00,-1006.00
2024-06-07 11:20:32.455009,-3,0,0,0,0,0,60,63,83,80,78,109.81,6,-44.00,13.00,-985.00
2024-06-07 11:20:32.521373,-3,0,0,0,0,0,61,62,83,80,78,109.99,6,-84.00,30.00,-997.00
2024-06-07 11:20:32.661439,-2,0,0,0,0,0,61,62,83,80,78,109.86,6,-89.00,19.00,-996.00
2024-06-07 11:20:32.725366,-3,0,0,0,0,0,61,62,83,80,77,109.63,6,-84.00,23.00,-1014.00
2024-06-07 11:20:32.864584,-3,0,0,0,0,0,61,62,84,80,77,109.88,6,-77.00,37.00,-1014.00
2024-06-07 11:20:32.929498,-3,0,0,0,0,0,61,62,84,80,77,109.93,6,-65.00,22.00,-1003.00
2024-06-07 11:20:33.069728,-4,-2,0,0,0,0,61,62,85,80,77,109.99,6,-107.00,20.00,-1009.00
2024-06-07 11:20:33.133236,-5,-2,0,0,0,0,61,62,85,80,77,110.03,7,-81.00,-18.00,-992.00
2024-06-07 11:20:33.239396,-5,-2,0,0,0,0,61,62,86,80,77,110.07,7,-93.00,-14.00,-998.00
2024-06-07 11:20:33.337367,-4,0,0,0,-1,0,61,62,85,80,77,110.13,7,-113.00,-19.00,-1059.00
2024-06-07 11:20:33.479599,-5,0,0,0,-1,0,61,62,87,80,77,110.15,7,-114.00,-6.00,-1071.00
2024-06-07 11:20:33.541236,-6,0,0,0,0,-1,62,63,88,80,77,110.06,7,-104.00,-2.00,-1084.00
2024-06-07 11:20:33.683558,-6,0,0,0,0,-2,62,63,91,90,77,110.19,7,-144.00,-13.00,-1166.00
2024-06-07 11:20:33.745180,-6,0,0,0,0,-3,62,63,96,90,77,110.54,7,-136.00,-39.00,-1067.00
2024-06-07 11:20:33.888359,-7,0,0,0,-1,-4,62,63,100,90,77,110.22,7,-112.00,-49.00,-1046.00
2024-06-07 11:20:33.950787,-7,1,0,0,-1,-4,62,63,106,100,77,110.39,7,-162.00,1.00,-982.00
2024-06-07 11:20:34.051218,-7,2,0,0,-1,-5,62,63,112,100,77,110.74,7,-149.00,-11.00,-1018.00
2024-06-07 11:20:34.195445,-8,2,0,0,0,-5,62,63,116,110,77,110.67,8,-156.00,-7.00,-1006.00
2024-06-07 11:20:34.255210,-8,1,0,0,0,-5,62,63,123,110,77,110.80,8,-187.00,36.00,-1010.00
2024-06-07 11:20:34.357437,-8,1,0,-1,0,-5,62,63,129,120,77,110.43,8,-131.00,31.00,-914.00
2024-06-07 11:20:34.408206,-10,0,0,-1,0,-5,62,63,135,120,77,110.66,8,-155.00,23.00,-947.00
2024-06-07 11:20:34.605194,-9,-1,0,0,0,-4,62,64,138,130,77,110.52,8,-153.00,16.00,-982.00
2024-06-07 11:20:34.612111,-9,-2,0,0,0,-4,62,64,144,130,77,110.85,8,-135.00,31.00,-1017.00
2024-06-07 11:20:34.810098,-8,-1,0,0,0,-4,62,64,148,140,76,110.81,8,-146.00,34.00,-983.00
2024-06-07 11:20:34.816073,-8,-1,0,0,0,-4,62,64,152,140,76,110.60,8,-104.00,13.00,-997.00
2024-06-07 11:20:34.975800,-8,-2,0,0,0,-4,62,64,156,150,76,110.83,8,-123.00,26.00,-957.00
2024-06-07 11:20:35.020152,-8,-3,0,0,0,-4,62,64,161,150,76,110.39,8,-131.00,36.00,-971.00
2024-06-07 11:20:35.122068,-7,-3,0,0,0,-4,62,64,166,160,76,110.63,9,-117.00,32.00,-935.00
2024-06-07 11:20:35.322001,-7,-3,0,0,0,-3,62,64,169,160,76,110.70,9,-117.00,0.00,-978.00
2024-06-07 11:20:35.326136,-7,-3,0,0,0,-3,62,64,173,170,76,110.43,9,-122.00,18.00,-992.00
2024-06-07 11:20:35.526805,-6,-2,0,0,0,-2,62,64,174,170,76,110.42,9,-164.00,10.00,-943.00
2024-06-07 11:20:35.530065,-6,-1,0,0,0,-2,62,63,175,170,76,110.78,9,-98.00,6.00,-979.00
2024-06-07 11:20:35.731978,-8,-2,0,0,0,-2,62,63,178,170,76,110.63,9,-142.00,20.00,-993.00
2024-06-07 11:20:35.733953,-8,0,0,0,0,-1,62,63,180,180,76,111.00,9,-109.00,-19.00,-936.00
2024-06-07 11:20:35.936402,-7,-1,0,0,0,-1,62,63,179,180,76,110.87,9,-114.00,4.00,-933.00
2024-06-07 11:20:35.938056,-6,0,0,0,-1,0,62,63,182,180,76,110.95,9,-100.00,-20.00,-957.00
2024-06-07 11:20:36.040297,-6,0,0,0,-1,0,62,63,182,180,76,110.89,9,-101.00,-10.00,-983.00
2024-06-07 11:20:36.243649,-6,0,0,0,0,0,62,63,182,180,76,111.06,10,-88.00,-5.00,-975.00
2024-06-07 11:20:36.244286,-5,0,0,1,0,0,62,63,182,180,76,110.89,10,-82.00,7.00,-993.00
2024-06-07 11:20:36.346382,-4,0,0,1,0,0,62,63,182,180,76,111.11,10,-88.00,1.00,-968.00
2024-06-07 11:20:36.448221,-5,0,0,0,0,0,62,63,183,180,76,110.57,10,-117.00,10.00,-1011.00
2024-06-07 11:20:36.551921,-5,0,0,0,0,0,62,64,181,180,76,110.69,10,-110.00,-5.00,-972.00
2024-06-07 11:20:36.653223,-5,0,0,0,0,0,62,64,183,180,76,110.97,10,-104.00,-8.00,-994.00
2024-06-07 11:20:36.756034,-5,0,0,0,0,0,62,64,181,180,75,110.80,10,-91.00,7.00,-1007.00
2024-06-07 11:20:36.858383,-5,0,0,0,0,0,62,64,181,180,75,110.68,10,-79.00,12.00,-1004.00
2024-06-07 11:20:36.958307,-6,0,0,0,0,0,62,64,181,180,75,111.21,10,-84.00,-14.00,-995.00
2024-06-07 11:20:37.064971,-5,0,0,0,0,0,62,64,182,180,75,110.56,10,-85.00,-3.00,-1011.00
2024-06-07 11:20:37.162361,-5,0,0,0,0,0,62,64,181,180,75,110.38,11,-72.00,-23.00,-1002.00
2024-06-07 11:20:37.267717,-4,0,0,0,0,0,62,64,183,180,75,110.71,11,-94.00,-4.00,-977.00
2024-06-07 11:20:37.366908,-4,0,0,0,0,0,62,64,181,180,75,110.69,11,-76.00,2.00,-997.00
2024-06-07 11:20:37.472452,-4,0,0,0,0,0,62,64,183,180,75,110.79,11,-93.00,1.00,-984.00
2024-06-07 11:20:37.570276,-4,0,0,0,0,0,62,64,184,180,75,111.02,11,-64.00,-8.00,-1017.00
2024-06-07 11:20:37.672055,-4,0,0,0,0,0,62,64,183,180,75,110.69,11,-94.00,-12.00,-1017.00
2024-06-07 11:20:37.781166,-4,0,0,0,0,0,62,64,183,180,75,110.69,11,-129.00,2.00,-1001.00
2024-06-07 11:20:37.876015,-4,0,0,0,0,0,62,64,181,180,75,110.66,11,-63.00,-9.00,-993.00
2024-06-07 11:20:37.978207,-4,0,0,0,0,0,62,64,183,180,75,110.69,11,-59.00,5.00,-1014.00
2024-06-07 11:20:38.081194,-4,0,0,0,0,0,62,64,183,180,75,110.82,12,-62.00,-20.00,-995.00
2024-06-07 11:20:38.189203,-4,0,0,0,0,0,62,64,182,180,75,110.85,12,-61.00,-13.00,-969.00
2024-06-07 11:20:38.283868,-4,0,0,0,0,0,62,64,181,180,75,110.69,12,-69.00,-7.00,-946.00
2024-06-07 11:20:38.338431,-4,0,0,0,0,0,62,64,182,180,75,110.76,12,-76.00,9.00,-938.00
2024-06-07 11:20:38.436941,-4,0,0,0,0,1,62,64,179,180,75,110.80,12,-75.00,-4.00,-972.00
2024-06-07 11:20:38.538992,-4,0,0,0,0,1,63,65,178,180,75,110.73,12,-67.00,-12.00,-965.00
2024-06-07 11:20:38.701222,-4,0,0,0,0,2,63,65,177,170,75,110.48,12,-68.00,4.00,-979.00
2024-06-07 11:20:38.742845,-4,0,0,0,0,2,63,65,174,170,74,110.90,12,-66.00,-12.00,-962.00
2024-06-07 11:20:38.906271,-4,0,0,0,0,2,63,65,172,170,74,110.75,12,-53.00,-6.00,-996.00
2024-06-07 11:20:38.946818,-4,0,0,0,0,2,63,65,168,170,74,110.55,12,-82.00,-21.00,-987.00
2024-06-07 11:20:39.049042,-4,0,0,0,0,2,63,65,166,160,74,110.70,13,-57.00,2.00,-1005.00
2024-06-07 11:20:39.213095,-5,0,0,0,0,2,63,65,164,160,74,110.27,13,-70.00,-32.00,-1001.00
2024-06-07 11:20:39.252813,-5,0,0,0,0,2,63,65,159,160,74,110.80,13,-66.00,-13.00,-1006.00
2024-06-07 11:20:39.417929,-5,0,0,0,0,2,63,65,157,150,74,110.44,13,-70.00,-12.00,-996.00
2024-06-07 11:20:39.456814,-5,0,0,0,0,2,63,65,155,150,74,110.41,13,-96.00,-9.00,-980.00
2024-06-07 11:20:39.559052,-5,0,0,0,0,2,63,65,152,150,74,110.19,13,-63.00,-1.00,-1007.00
2024-06-07 11:20:39.727797,-4,0,0,0,0,2,63,65,148,150,74,110.57,13,-74.00,8.00,-1018.00
2024-06-07 11:20:39.762819,-4,0,0,0,0,2,63,65,148,140,74,110.34,13,-106.00,2.00,-1059.00
2024-06-07 11:20:39.930072,-5,0,0,0,0,1,63,65,145,140,74,110.33,13,-94.00,5.00,-1023.00
2024-06-07 11:20:39.966775,-6,0,0,0,0,1,63,65,144,140,74,110.50,13,-106.00,0.00,-997.00
2024-06-07 11:20:40.135002,-6,0,0,0,0,1,63,65,142,140,74,110.33,14,-127.00,8.00,-998.00
2024-06-07 11:20:40.170733,-6,0,0,0,0,1,63,65,141,140,74,110.53,14,-128.00,-8.00,-999.00
2024-06-07 11:20:40.272698,-5,0,0,0,0,0,63,65,140,140,74,110.22,14,-115.00,-7.00,-976.00
2024-06-07 11:20:40.441965,-5,0,0,0,0,0,63,65,139,140,74,109.89,14,-109.00,-10.00,-1006.00
2024-06-07 11:20:40.476818,-6,0,0,0,0,0,63,65,140,140,74,110.50,14,-87.00,-7.00,-1007.00
2024-06-07 11:20:40.579768,-5,0,0,0,0,0,63,66,136,140,74,110.51,14,-117.00,-16.00,-1010.00
2024-06-07 11:20:40.749077,-5,0,0,0,0,0,63,66,135,130,74,109.96,14,-91.00,-14.00,-963.00
2024-06-07 11:20:40.783735,-5,0,0,0,0,0,63,66,136,130,73,110.52,14,-102.00,-17.00,-1025.00
2024-06-07 11:20:40.954357,-5,0,0,0,0,0,63,66,135,130,73,110.56,14,-76.00,-2.00,-1025.00
2024-06-07 11:20:40.987801,-5,0,0,0,0,0,63,66,134,130,73,110.36,14,-110.00,-11.00,-980.00
2024-06-07 11:20:41.089780,-5,0,0,0,0,0,63,66,135,130,73,110.41,15,-66.00,7.00,-1009.00
2024-06-07 11:20:41.261224,-4,0,0,0,0,0,63,66,135,130,73,110.25,15,-86.00,8.00,-1017.00
2024-06-07 11:20:41.293772,-5,-1,0,0,0,0,63,66,133,130,73,110.19,15,-87.00,-3.00,-990.00
2024-06-07 11:20:41.467371,-5,-1,0,0,0,0,63,66,133,130,73,110.22,15,-97.00,0.00,-993.00
2024-06-07 11:20:41.497817,-5,0,0,0,0,0,63,66,133,130,73,109.99,15,-85.00,-3.00,-989.00
2024-06-07 11:20:41.671490,-5,0,0,0,0,0,64,66,133,130,73,110.37,15,-83.00,9.00,-1009.00
2024-06-07 11:20:41.701933,-5,0,0,0,0,0,64,66,134,130,73,110.16,15,-85.00,2.00,-1016.00
2024-06-07 11:20:41.875601,-4,-1,0,0,0,0,64,66,134,130,73,110.30,15,-82.00,7.00,-988.00
2024-06-07 11:20:41.905738,-4,-1,0,0,0,0,64,66,133,130,73,110.07,15,-112.00,19.00,-990.00
2024-06-07 11:20:41.960095,-4,-1,0,0,0,0,64,66,134,130,73,110.20,15,-80.00,27.00,-1001.00
2024-06-07 11:20:42.060536,-4,-1,0,0,0,0,64,66,134,130,73,110.18,16,-82.00,30.00,-983.00
2024-06-07 11:20:42.160886,-4,-1,0,0,0,0,64,66,134,130,73,110.12,16,-70.00,18.00,-1016.00
2024-06-07 11:20:42.285200,-4,-2,0,0,0,0,64,66,135,130,73,110.27,16,-75.00,15.00,-1008.00
2024-06-07 11:20:42.364823,-4,-2,0,0,0,0,64,66,134,130,73,110.27,16,-79.00,6.00,-995.00
2024-06-07 11:20:42.490772,-4,-1,0,0,0,0,64,66,134,130,73,110.15,16,-78.00,35.00,-998.00
2024-06-07 11:20:42.568771,-4,-1,0,0,0,0,64,66,134,130,73,110.35,16,-74.00,18.00,-970.00
2024-06-07 11:20:42.695012,-3,-1,0,0,0,0,64,66,134,130,73,110.43,16,-65.00,2.00,-983.00
2024-06-07 11:20:42.772699,-3,-1,0,0,0,0,64,66,134,130,72,110.42,16,-60.00,18.00,-1044.00
2024-06-07 11:20:42.899382,-4,-1,0,0,0,0,64,66,135,130,72,110.35,16,-118.00,-2.00,-1005.00
2024-06-07 11:20:42.976684,-8,0,0,0,0,0,64,66,136,130,72,110.40,16,-72.00,19.00,-940.00
2024-06-07 11:20:43.079212,-8,0,0,1,0,0,64,66,135,130,72,110.31,17,-78.00,3.00,-989.00
2024-06-07 11:20:43.206670,-8,0,0,1,0,0,64,66,135,130,72,110.36,17,-82.00,-2.00,-984.00
2024-06-07 11:20:43.282604,-8,0,0,2,0,0,64,66,134,130,72,110.29,17,-104.00,10.00,-984.00
2024-06-07 11:20:43.411388,-8,0,0,2,0,0,64,66,133,130,72,110.23,17,-93.00,15.00,-1021.00
2024-06-07 11:20:43.486605,-8,0,0,3,0,0,64,66,134,130,72,110.42,17,-68.00,24.00,-1031.00
2024-06-07 11:20:43.616236,-8,0,0,3,0,0,65,67,135,130,72,110.50,17,-87.00,1.00,-999.00
2024-06-07 11:20:43.690661,-8,-1,0,4,0,0,65,67,135,130,72,110.20,17,-99.00,0.00,-1015.00
2024-06-07 11:20:43.821023,-8,-1,0,4,0,0,65,67,134,130,72,110.40,17,-97.00,-10.00,-997.00
2024-06-07 11:20:43.894507,-8,-1,0,5,0,0,65,67,136,130,72,110.44,17,-107.00,-15.00,-959.00
2024-06-07 11:20:43.996553,-8,-1,0,5,0,0,65,67,135,130,72,110.31,17,-94.00,5.00,-1001.00
2024-06-07 11:20:44.128222,-8,-1,0,6,0,0,65,67,136,130,72,110.06,18,-104.00,14.00,-1007.00
2024-06-07 11:20:44.200969,-8,-2,0,6,0,0,65,67,135,130,72,110.04,18,-124.00,1.00,-1013.00
2024-06-07 11:20:44.339278,-3,-2,0,6,0,0,65,67,135,130,72,110.18,18,-101.00,2.00,-981.00
2024-06-07 11:20:44.405381,0,-1,0,5,0,0,65,67,133,130,72,109.88,18,-130.00,-4.00,-955.00
2024-06-07 11:20:44.640787,0,0,0,4,0,0,65,67,134,130,72,110.23,18,-99.00,20.00,-995.00
2024-06-07 11:20:44.641197,-2,-1,0,3,0,0,65,67,134,130,72,110.36,18,-84.00,3.00,-988.00
2024-06-07 11:20:44.711018,-3,-1,0,3,0,0,65,67,135,130,71,110.18,18,-115.00,26.00,-968.00
2024-06-07 11:20:44.845062,-3,-1,0,3,0,0,65,67,134,130,71,110.24,18,-80.00,40.00,-994.00
2024-06-07 11:20:44.914381,-3,-1,0,3,0,0,65,67,134,130,71,110.11,18,-88.00,6.00,-1010.00
2024-06-07 11:20:45.049809,-3,-2,0,3,0,0,65,67,133,130,71,110.34,18,-93.00,11.00,-1019.00
2024-06-07 11:20:45.118674,-4,-2,0,2,0,0,65,67,133,130,71,110.79,19,-66.00,14.00,-991.00
2024-06-07 11:20:45.254650,-4,-1,0,2,0,0,65,67,133,130,71,110.40,19,-92.00,16.00,-992.00
2024-06-07 11:20:45.323913,-4,-1,0,2,0,0,65,67,132,130,71,109.97,19,-84.00,37.00,-990.00
2024-06-07 11:20:45.428932,-4,-3,0,2,0,0,65,67,133,130,71,110.26,19,-81.00,9.00,-1003.00
2024-06-07 11:20:45.481262,-4,-3,0,2,-1,0,65,67,132,130,71,110.21,19,-93.00,-2.00,-1047.00
2024-06-07 11:20:45.628493,-4,1,0,1,-1,0,66,67,132,130,71,110.15,19,-85.00,24.00,-986.00
2024-06-07 11:20:45.679441,-5,2,0,1,0,0,66,67,135,130,71,110.25,19,-85.00,13.00,-986.00
2024-06-07 11:20:45.869017,0,0,0,1,0,0,66,67,133,130,71,110.21,19,-63.00,-9.00,-1017.00
2024-06-07 11:20:45.884800,-1,-1,0,0,0,0,66,67,133,130,71,110.05,19,-80.00,26.00,-1009.00
2024-06-07 11:20:46.073908,-3,0,0,0,0,0,66,67,132,130,71,110.06,19,-89.00,7.00,-985.00
2024-06-07 11:20:46.087623,-4,0,0,0,0,0,66,67,134,130,71,110.49,20,-89.00,9.00,-986.00
2024-06-07 11:20:46.278951,-4,-1,0,0,0,0,66,67,133,130,71,110.41,20,-44.00,3.00,-1027.00
2024-06-07 11:20:46.291506,-4,0,0,0,0,0,66,67,133,130,71,110.16,20,-57.00,15.00,-990.00
2024-06-07 11:20:46.484367,-4,-1,0,0,0,0,66,67,133,130,71,110.35,20,-77.00,18.00,-1005.00
2024-06-07 11:20:46.495490,-4,-1,0,0,0,0,66,67,133,130,71,110.19,20,-63.00,8.00,-1009.00
2024-06-07 11:20:46.688296,-4,-1,0,0,0,0,65,67,132,130,71,110.52,20,-74.00,20.00,-1008.00
2024-06-07 11:20:46.699563,-4,-1,0,0,0,0,65,67,133,130,70,110.03,20,-90.00,24.00,-1006.00
2024-06-07 11:20:46.893361,-4,-1,0,0,0,0,65,67,134,130,70,110.49,20,-66.00,11.00,-981.00
2024-06-07 11:20:46.904581,-4,-1,0,0,0,0,65,67,133,130,70,110.17,20,-65.00,17.00,-1030.00
2024-06-07 11:20:47.005527,-4,-1,0,0,0,0,65,67,134,130,70,110.26,20,-68.00,35.00,-979.00
2024-06-07 11:20:47.107551,-4,-1,0,0,0,0,65,67,135,130,70,110.40,21,-75.00,0.00,-995.00
2024-06-07 11:20:47.303305,-4,-1,0,0,0,0,65,67,132,130,70,110.44,21,-50.00,-16.00,-1000.00
2024-06-07 11:20:47.311540,-4,-1,0,0,0,0,65,67,133,130,70,109.99,21,-49.00,-26.00,-1010.00
2024-06-07 11:20:47.413466,-4,0,0,0,0,0,65,67,133,130,70,110.51,21,-73.00,-16.00,-1027.00
2024-06-07 11:20:47.610001,-4,0,0,0,0,0,65,67,136,130,70,110.57,21,-79.00,-2.00,-978.00
2024-06-07 11:20:47.617467,-5,0,0,0,0,0,66,68,135,130,70,110.24,21,-50.00,-8.00,-1010.00
2024-06-07 11:20:47.814730,-5,0,0,0,0,0,66,68,135,130,70,110.44,21,-89.00,-1.00,-975.00
2024-06-07 11:20:47.822262,-4,0,0,0,0,0,66,68,135,130,70,110.33,21,-56.00,-2.00,-995.00
2024-06-07 11:20:47.923393,-4,0,0,0,0,0,66,68,135,130,70,110.51,21,-75.00,0.00,-978.00
2024-06-07 11:20:48.121783,-4,0,0,0,0,0,66,68,134,130,70,110.60,21,-40.00,1.00,-974.00
2024-06-07 11:20:48.127275,0,0,0,0,0,0,66,68,134,130,70,110.29,22,-69.00,5.00,-1000.00
2024-06-07 11:20:48.326830,4,0,0,0,0,0,66,68,134,130,70,110.37,22,-60.00,3.00,-1030.00
2024-06-07 11:20:48.331314,5,0,0,-2,0,0,66,68,134,130,70,110.17,22,-37.00,11.00,-1029.00
2024-06-07 11:20:48.531365,4,0,0,-3,0,0,66,68,135,130,70,110.71,22,-34.00,14.00,-1011.00
2024-06-07 11:20:48.536777,3,0,0,-4,0,0,66,68,134,130,70,110.42,22,-33.00,13.00,-1007.00
2024-06-07 11:20:48.637291,3,0,0,-5,0,0,66,68,134,130,70,110.40,22,-33.00,16.00,-1020.00
2024-06-07 11:20:48.739292,2,-1,0,-6,0,0,66,68,133,130,69,110.47,22,-4.00,13.00,-1005.00
2024-06-07 11:20:48.841259,1,-1,0,-7,0,0,66,68,135,130,69,110.39,22,-21.00,22.00,-1000.00
2024-06-07 11:20:48.943495,0,-1,0,-7,0,0,66,68,135,130,69,110.69,22,7.00,9.00,-998.00
2024-06-07 11:20:49.045300,-2,-1,0,-7,0,0,66,68,135,130,69,110.39,22,-20.00,4.00,-993.00
2024-06-07 11:20:49.147229,-5,-1,0,-7,0,0,66,68,136,130,69,110.73,23,-37.00,19.00,-995.00
2024-06-07 11:20:49.350557,-7,-1,0,-6,0,0,66,68,136,130,69,110.71,23,-32.00,17.00,-996.00
2024-06-07 11:20:49.351320,-8,-1,0,-5,0,0,66,68,136,130,69,110.60,23,-21.00,25.00,-1012.00
2024-06-07 11:20:49.402253,-8,-1,0,-4,0,0,66,68,136,130,69,110.81,23,-55.00,7.00,-1019.00
2024-06-07 11:20:49.555477,-6,-2,0,-3,0,0,66,68,135,130,69,110.76,23,-38.00,-2.00,-966.00
2024-06-07 11:20:49.657692,-5,-2,0,-3,0,0,66,69,134,130,69,110.74,23,-39.00,12.00,-998.00
2024-06-07 11:20:49.760140,-5,-4,0,-2,0,0,66,69,134,130,69,110.40,23,-41.00,-10.00,-1027.00
2024-06-07 11:20:49.810162,-5,-3,0,-2,-1,0,66,69,135,130,69,110.53,23,-67.00,-25.00,-1013.00
2024-06-07 11:20:49.964931,-4,0,0,-2,-1,0,66,69,134,130,69,110.17,23,-68.00,13.00,-981.00
2024-06-07 11:20:50.014189,-3,2,0,-2,0,0,66,69,135,130,69,110.34,23,-55.00,-22.00,-983.00
2024-06-07 11:20:50.169782,-6,0,0,-2,0,0,66,69,136,130,69,110.58,24,-46.00,11.00,-971.00
2024-06-07 11:20:50.218396,-8,0,0,-1,0,0,66,69,136,130,69,110.35,24,-100.00,19.00,-1000.00
2024-06-07 11:20:50.320334,-6,0,0,0,0,0,66,69,135,130,69,110.45,24,-65.00,-2.00,-1022.00
2024-06-07 11:20:50.477267,-5,0,0,0,0,0,66,69,137,130,69,110.43,24,-77.00,4.00,-1000.00
2024-06-07 11:20:50.524938,-4,0,0,0,0,0,66,69,136,130,69,110.21,24,-64.00,21.00,-983.00
2024-06-07 11:20:50.681935,-5,0,0,0,0,0,67,69,137,130,69,110.55,24,-72.00,17.00,-1001.00
2024-06-07 11:20:50.728238,-5,0,0,0,0,0,67,69,137,130,68,110.25,24,-66.00,9.00,-996.00
2024-06-07 11:20:50.886733,-4,0,0,0,0,0,67,69,136,130,68,110.39,24,-71.00,17.00,-973.00
2024-06-07 11:20:50.932308,-4,-1,0,0,0,0,67,69,138,130,68,110.44,24,-61.00,14.00,-945.00
2024-06-07 11:20:51.094398,-4,-1,0,0,0,0,67,69,139,140,68,110.60,24,-80.00,17.00,-1004.00
2024-06-07 11:20:51.136244,-4,-1,0,0,0,0,67,69,137,140,68,110.79,25,-71.00,11.00,-1001.00
2024-06-07 11:20:51.296253,-4,-1,0,0,0,0,67,69,137,140,68,110.48,25,-88.00,22.00,-988.00
2024-06-07 11:20:51.340386,-4,-1,0,0,0,0,67,69,136,140,68,110.40,25,-61.00,19.00,-977.00
2024-06-07 11:20:51.501062,-4,-1,0,0,0,0,67,69,138,140,68,110.31,25,-71.00,31.00,-1024.00
2024-06-07 11:20:51.544793,-4,-3,0,0,0,0,67,69,137,140,68,110.40,25,-72.00,30.00,-980.00
2024-06-07 11:20:51.705816,-4,-2,0,0,0,0,67,69,138,140,68,110.35,25,-108.00,11.00,-1006.00
2024-06-07 11:20:51.748245,-5,-1,0,0,0,0,67,69,137,130,68,110.49,25,-67.00,5.00,-986.00
2024-06-07 11:20:51.910644,-5,-1,0,0,0,0,67,69,137,130,68,110.39,25,-88.00,18.00,-999.00
2024-06-07 11:20:51.952145,-5,-1,0,0,0,0,67,69,138,130,68,110.63,25,-62.00,29.00,-1010.00
2024-06-07 11:20:52.054260,-5,-1,0,0,0,0,67,69,137,130,68,110.47,25,-53.00,16.00,-1001.00
2024-06-07 11:20:52.218428,-4,-1,0,0,0,0,67,69,137,130,68,110.33,26,-79.00,30.00,-993.00
2024-06-07 11:20:52.258395,-4,-1,0,0,0,0,67,69,136,130,68,110.36,26,-64.00,17.00,-1009.00
2024-06-07 11:20:52.360062,-4,-2,0,0,0,0,67,69,136,130,68,110.47,26,-73.00,0.00,-1012.00
2024-06-07 11:20:52.462139,-4,-1,0,0,0,0,67,69,136,130,68,110.46,26,-67.00,26.00,-1008.00
2024-06-07 11:20:52.564082,-4,-5,0,0,0,0,67,69,137,130,68,110.25,26,-63.00,10.00,-1019.00
2024-06-07 11:20:52.729728,-4,-7,0,0,-2,0,67,70,137,130,68,110.45,26,-83.00,36.00,-1033.00
2024-06-07 11:20:52.768030,-4,-5,0,0,-3,0,67,70,137,130,67,110.21,26,-57.00,40.00,-997.00
2024-06-07 11:20:52.871605,-4,-2,0,0,-3,0,67,70,136,130,67,110.26,26,-74.00,47.00,-1007.00
2024-06-07 11:20:52.972041,-4,0,0,0,-3,0,67,70,135,130,67,110.42,26,-80.00,38.00,-1005.00
2024-06-07 11:20:53.074138,-4,0,0,0,-2,0,67,70,135,130,67,110.57,27,-74.00,19.00,-989.00
2024-06-07 11:20:53.241838,-4,-1,0,0,-2,0,67,70,136,130,67,110.60,27,-78.00,31.00,-988.00
2024-06-07 11:20:53.278159,-4,-1,0,0,-2,0,67,70,135,130,67,110.40,27,-43.00,44.00,-993.00
2024-06-07 11:20:53.446579,-4,-1,0,0,-2,0,67,70,136,130,67,110.40,27,-39.00,9.00,-1007.00
2024-06-07 11:20:53.446661,-3,-1,0,0,-2,0,67,70,135,130,67,110.29,27,-52.00,38.00,-1002.00
2024-06-07 11:20:53.533169,-3,-1,0,0,-2,0,67,70,135,130,67,110.47,27,-37.00,40.00,-1009.00
2024-06-07 11:20:53.686025,-3,-1,0,0,-2,0,68,70,135,130,67,110.52,27,-42.00,24.00,-997.00
2024-06-07 11:20:53.739103,-2,-1,0,0,-2,0,68,70,136,130,67,110.35,27,-46.00,18.00,-983.00
2024-06-07 11:20:53.839015,-3,-1,0,0,-2,0,68,70,136,130,67,110.25,27,-45.00,21.00,-1004.00
2024-06-07 11:20:53.958595,-3,-1,0,0,-2,0,68,70,135,130,67,110.48,27,-41.00,36.00,-987.00
2024-06-07 11:20:54.042958,-2,-2,0,0,-2,0,68,70,137,130,67,110.39,28,-56.00,16.00,-978.00
2024-06-07 11:20:54.163316,-2,-2,0,0,-2,0,68,70,136,130,67,110.51,28,-62.00,-1.00,-988.00
2024-06-07 11:20:54.248784,-3,0,0,0,-2,0,68,70,136,130,67,110.30,28,-72.00,19.00,-981.00
2024-06-07 11:20:54.349224,-3,2,-1,0,-2,0,68,70,135,130,67,110.36,28,-52.00,0.00,-1000.00
2024-06-07 11:20:54.451228,-3,3,-1,0,-1,0,68,70,136,130,67,110.47,28,-60.00,12.00,-956.00
2024-06-07 11:20:54.556481,-3,1,0,0,0,0,68,70,135,130,67,110.53,28,-30.00,-3.00,-1029.00
2024-06-07 11:20:54.657171,-3,1,0,0,0,0,68,70,136,130,67,110.18,28,-63.00,-32.00,-989.00
2024-06-07 11:20:54.759494,-3,1,0,0,-1,0,68,70,135,130,66,110.57,28,-48.00,-14.00,-996.00
2024-06-07 11:20:54.861114,-3,1,0,0,-1,0,68,70,135,130,66,110.34,28,-59.00,-16.00,-1001.00
2024-06-07 11:20:54.962768,-3,1,0,0,0,0,68,70,136,130,66,110.57,28,-50.00,-13.00,-1001.00
2024-06-07 11:20:55.064984,-3,1,0,0,0,0,68,70,135,130,66,110.62,29,-48.00,-16.00,-1031.00
2024-06-07 11:20:55.166356,-3,1,0,0,0,0,68,70,135,130,66,110.23,29,-53.00,-11.00,-1006.00
2024-06-07 11:20:55.269933,-3,1,0,0,0,0,68,70,136,130,66,110.31,29,-53.00,-6.00,-980.00
2024-06-07 11:20:55.371234,-3,0,0,0,0,0,68,70,136,130,66,110.62,29,-94.00,16.00,-996.00
2024-06-07 11:20:55.495055,-4,0,0,0,0,0,68,70,136,130,66,110.48,29,-51.00,7.00,-1022.00
2024-06-07 11:20:55.574066,-4,0,0,0,0,0,68,70,137,130,66,110.37,29,-68.00,30.00,-987.00
2024-06-07 11:20:55.699481,-4,-1,0,0,0,0,68,70,137,130,66,110.70,29,-58.00,6.00,-1029.00
2024-06-07 11:20:55.778237,-4,-1,0,0,0,0,68,70,139,130,66,110.57,29,-90.00,-6.00,-982.00
2024-06-07 11:20:55.880432,-4,-1,0,0,0,0,68,70,137,130,66,110.70,29,-58.00,-3.00,-1005.00
2024-06-07 11:20:55.982534,-4,-1,0,0,0,0,68,70,139,140,66,110.45,29,-48.00,5.00,-991.00
2024-06-07 11:20:56.084064,-3,-1,0,0,0,0,68,70,138,140,66,110.29,30,-65.00,8.00,-987.00
2024-06-07 11:20:56.211380,-3,-1,0,0,0,0,68,70,139,140,66,110.55,30,-38.00,0.00,-983.00
2024-06-07 11:20:56.288129,-3,-1,0,0,0,0,68,70,139,140,66,110.42,30,-55.00,17.00,-965.00
2024-06-07 11:20:56.390049,-3,-1,0,0,0,0,68,70,139,140,66,110.70,30,-53.00,15.00,-978.00
2024-06-07 11:20:56.518806,-3,-1,0,0,0,0,68,70,140,140,66,110.48,30,-28.00,11.00,-993.00
2024-06-07 11:20:56.594615,-3,-1,0,0,0,0,68,70,140,140,66,110.44,30,-67.00,34.00,-977.00
2024-06-07 11:20:56.723365,-3,-2,0,0,0,0,68,70,138,140,66,110.22,30,-38.00,15.00,-1006.00
2024-06-07 11:20:56.798594,-3,4,0,0,0,0,68,70,140,140,65,110.60,30,-60.00,3.00,-970.00
2024-06-07 11:20:56.928150,-3,7,0,0,1,0,68,70,141,140,65,110.54,30,-42.00,7.00,-992.00
2024-06-07 11:20:57.001880,-3,5,0,0,3,0,68,70,139,140,65,110.59,30,-40.00,10.00,-997.00
2024-06-07 11:20:57.103894,-3,2,0,0,3,0,68,70,138,140,65,111.05,31,-38.00,-15.00,-991.00
2024-06-07 11:20:57.235375,-3,0,0,0,3,0,68,70,139,140,65,110.59,31,-59.00,-5.00,-1008.00
2024-06-07 11:20:57.256899,-2,-1,0,0,3,0,68,70,140,140,65,110.48,31,-45.00,-27.00,-1007.00
2024-06-07 11:20:57.440138,-2,0,0,0,2,0,68,70,138,140,65,110.35,31,-37.00,-23.00,-1006.00
2024-06-07 11:20:57.460884,-2,0,0,0,2,0,68,70,139,140,65,110.64,31,-42.00,-7.00,-1024.00
2024-06-07 11:20:57.562994,-3,0,0,0,2,0,68,70,139,140,65,110.59,31,-78.00,-14.00,-996.00
2024-06-07 11:20:57.747372,-3,0,0,0,2,0,68,71,139,140,65,110.42,31,-75.00,-19.00,-981.00
2024-06-07 11:20:57.766824,-3,0,0,0,3,0,68,71,139,140,65,110.37,31,-58.00,6.00,-978.00
2024-06-07 11:20:57.952173,-3,0,0,0,3,0,68,71,140,140,65,110.42,31,-35.00,-21.00,-996.00
2024-06-07 11:20:57.970788,-3,0,0,0,2,0,68,71,139,140,65,110.51,31,-81.00,-15.00,-970.00
2024-06-07 11:20:58.157099,-3,0,0,0,2,0,68,71,136,140,65,110.35,32,-59.00,28.00,-1016.00
2024-06-07 11:20:58.174852,-3,-2,0,0,2,0,68,71,137,140,65,110.69,32,-60.00,-1.00,-981.00
2024-06-07 11:20:58.361774,-3,-6,0,0,2,0,68,71,137,140,65,110.38,32,-29.00,-4.00,-1033.00
2024-06-07 11:20:58.378861,-3,-4,0,0,1,0,68,71,136,140,65,110.74,32,-35.00,23.00,-1002.00
2024-06-07 11:20:58.480932,-3,-2,0,0,0,0,68,71,136,140,65,110.50,32,-70.00,26.00,-1005.00
2024-06-07 11:20:58.582859,-3,-2,0,0,0,0,68,71,135,140,65,110.41,32,-70.00,20.00,-995.00
2024-06-07 11:20:58.771495,-4,-2,0,0,0,0,70,71,134,130,64,110.49,32,-61.00,9.00,-997.00
2024-06-07 11:20:58.786786,-4,-2,0,0,0,0,70,71,133,130,64,110.53,32,-76.00,3.00,-982.00
2024-06-07 11:20:58.976318,-4,-1,0,0,0,0,70,71,131,130,64,110.09,32,-88.00,4.00,-980.00
2024-06-07 11:20:58.990747,-4,-1,0,0,0,0,70,71,133,130,64,110.22,32,-68.00,2.00,-1007.00
2024-06-07 11:20:59.093500,-4,-1,0,0,0,0,70,71,130,130,64,110.56,33,-82.00,10.00,-1028.00
2024-06-07 11:20:59.283891,-4,-1,0,0,0,0,70,71,131,130,64,110.33,33,-70.00,17.00,-988.00
2024-06-07 11:20:59.297870,-4,-1,0,0,0,0,70,71,132,130,64,110.70,33,-65.00,23.00,-1027.00
2024-06-07 11:20:59.488719,-4,-1,0,0,0,0,70,71,132,130,64,110.47,33,-58.00,7.00,-1009.00
2024-06-07 11:20:59.500731,-4,-1,0,0,0,0,70,71,131,130,64,110.27,33,-61.00,-10.00,-1004.00
2024-06-07 11:20:59.602945,-4,0,0,0,0,0,70,71,131,130,64,110.35,33,-74.00,-2.00,-1026.00
2024-06-07 11:20:59.796028,-4,0,0,0,0,0,69,71,132,130,64,110.41,33,-57.00,-9.00,-1000.00
2024-06-07 11:20:59.806801,-4,0,0,0,0,0,69,71,133,130,64,110.33,33,-52.00,-5.00,-995.00
2024-06-07 11:21:00.000416,-4,0,0,0,0,0,69,71,134,130,64,110.39,33,-51.00,2.00,-967.00
2024-06-07 11:21:00.010926,-4,0,0,0,0,0,69,71,133,130,64,110.38,33,-73.00,-2.00,-985.00
2024-06-07 11:21:00.204989,-4,0,0,0,0,0,69,71,132,130,64,110.64,34,-47.00,-3.00,-1013.00
2024-06-07 11:21:00.215236,-4,0,0,0,0,0,69,71,133,130,64,110.22,34,-47.00,-2.00,-993.00
2024-06-07 11:21:00.317378,-4,0,0,0,0,0,69,71,134,130,64,110.37,34,-62.00,-6.00,-1006.00
2024-06-07 11:21:00.432930,-4,0,0,0,0,0,69,71,134,130,64,110.53,34,-60.00,0.00,-984.00
2024-06-07 11:21:00.520966,-3,0,0,0,0,0,69,71,134,130,64,110.16,34,-33.00,-26.00,-1008.00
2024-06-07 11:21:00.622919,-3,0,1,0,0,0,69,71,135,130,64,110.61,34,-71.00,-19.00,-945.00
2024-06-07 11:21:00.819339,-3,0,7,0,0,0,69,71,136,130,63,110.29,34,-45.00,-11.00,-1019.00
2024-06-07 11:21:00.826811,-3,0,13,0,0,0,69,71,135,130,63,110.51,34,-45.00,11.00,-1023.00
2024-06-07 11:21:01.024040,-4,0,20,0,0,0,69,71,135,130,63,110.34,34,-55.00,53.00,-982.00
2024-06-07 11:21:01.030694,-3,0,26,0,0,0,69,71,136,130,63,110.50,34,-37.00,40.00,-991.00
2024-06-07 11:21:01.081635,-3,-2,32,0,0,0,69,71,136,130,63,110.34,35,-71.00,31.00,-980.00
2024-06-07 11:21:01.228843,-2,-2,38,0,0,0,69,71,137,130,63,110.42,35,-56.00,51.00,-970.00
2024-06-07 11:21:01.285765,-3,-3,44,0,0,0,69,71,136,140,63,110.44,35,-65.00,78.00,-972.00
2024-06-07 11:21:01.433759,-2,-3,50,0,0,0,69,71,138,140,63,110.41,35,-27.00,55.00,-987.00
2024-06-07 11:21:01.489600,-2,-4,56,0,0,0,69,71,137,140,63,110.62,35,-43.00,40.00,-985.00
2024-06-07 11:21:01.591681,-2,-4,62,0,0,0,69,71,136,140,63,110.75,35,-7.00,63.00,-971.00
2024-06-07 11:21:01.740771,-1,-4,68,0,0,0,69,72,135,140,63,110.40,35,-53.00,85.00,-997.00
2024-06-07 11:21:01.795497,0,-4,74,0,0,0,69,72,137,140,63,110.46,35,-31.00,70.00,-1018.00
2024-06-07 11:21:01.945636,0,-4,79,0,0,0,69,72,134,130,63,110.37,35,-19.00,63.00,-999.00
2024-06-07 11:21:01.999449,0,-4,85,0,0,0,69,72,134,130,63,110.58,35,-7.00,71.00,-1008.00
2024-06-07 11:21:02.150411,0,-3,91,0,0,0,69,72,134,130,63,110.58,36,-7.00,94.00,-1005.00
2024-06-07 11:21:02.203512,0,-3,97,0,0,0,69,72,134,130,63,110.82,36,-2.00,68.00,-1034.00
2024-06-07 11:21:02.355236,1,-3,103,0,0,0,69,72,133,130,63,110.34,36,-4.00,75.00,-1007.00
2024-06-07 11:21:02.407394,1,-3,109,0,0,0,69,72,133,130,63,110.20,36,1.00,50.00,-1003.00
2024-06-07 11:21:02.509523,2,-2,115,0,0,0,69,72,133,130,63,110.37,36,13.00,63.00,-1002.00
2024-06-07 11:21:02.611475,1,-2,121,0,0,0,69,72,134,130,63,110.51,36,35.00,44.00,-991.00
2024-06-07 11:21:02.764896,1,-3,127,0,0,0,70,73,135,130,62,110.64,36,20.00,59.00,-1024.00
2024-06-07 11:21:02.815498,2,-2,134,0,0,0,70,73,135,130,62,110.49,36,40.00,53.00,-994.00
2024-06-07 11:21:02.969611,2,-1,140,0,0,0,70,73,134,130,62,110.27,36,60.00,56.00,-966.00
2024-06-07 11:21:03.019544,3,-1,146,0,0,0,70,73,138,130,62,110.37,36,64.00,16.00,-990.00
2024-06-07 11:21:03.174423,4,0,153,0,0,0,70,73,135,130,62,110.44,37,60.00,52.00,-983.00
2024-06-07 11:21:03.223378,4,0,159,0,0,0,70,73,136,130,62,110.57,37,53.00,28.00,-1005.00
2024-06-07 11:21:03.379210,4,0,165,0,0,0,70,73,137,130,62,110.83,37,49.00,25.00,-979.00
2024-06-07 11:21:03.430712,4,0,171,0,0,0,70,73,137,130,62,110.64,37,36.00,12.00,-994.00
2024-06-07 11:21:03.529496,4,0,178,0,0,0,70,73,138,130,62,110.63,37,33.00,3.00,-974.00
2024-06-07 11:21:03.631476,4,0,-175,0,0,0,70,73,139,140,62,110.33,37,54.00,0.00,-979.00
2024-06-07 11:21:03.788752,4,0,-169,0,0,0,71,72,138,140,62,110.35,37,14.00,-7.00,-992.00
2024-06-07 11:21:03.835382,3,1,-163,0,0,0,71,72,140,140,62,110.47,37,45.00,0.00,-1002.00
2024-06-07 11:21:03.937580,3,1,-157,0,0,0,71,72,138,140,62,110.50,37,61.00,-15.00,-998.00
2024-06-07 11:21:04.096270,3,2,-152,0,0,0,71,72,138,140,62,110.23,37,63.00,-18.00,-966.00
2024-06-07 11:21:04.141749,3,2,-146,0,0,0,71,72,139,140,62,110.59,38,48.00,-12.00,-974.00
2024-06-07 11:21:04.301635,3,1,-140,0,0,0,71,72,137,140,62,110.43,38,50.00,-33.00,-1018.00
2024-06-07 11:21:04.345517,2,1,-134,0,0,0,71,72,138,140,62,110.42,38,44.00,-26.00,-999.00
2024-06-07 11:21:04.505626,2,1,-128,0,0,0,71,72,138,140,62,110.65,38,13.00,-7.00,-1003.00
2024-06-07 11:21:04.549596,2,2,-121,0,0,0,71,72,137,140,62,110.83,38,13.00,-17.00,-1010.00
2024-06-07 11:21:04.710428,2,2,-116,0,0,0,71,72,138,140,62,110.50,38,2.00,-27.00,-1014.00
2024-06-07 11:21:04.753420,2,2,-110,0,0,0,70,72,139,140,61,110.60,38,1.00,-35.00,-988.00
2024-06-07 11:21:04.915146,1,2,-104,0,0,0,70,72,138,140,61,110.44,38,3.00,-22.00,-1002.00
2024-06-07 11:21:04.957571,0,2,-98,1,0,0,70,72,139,140,61,110.34,38,-12.00,-11.00,-1012.00
2024-06-07 11:21:05.120016,0,2,-92,1,0,0,70,72,139,140,61,110.45,38,-6.00,-49.00,-977.00
2024-06-07 11:21:05.120219,0,1,-86,1,0,0,70,72,140,140,61,110.71,39,-14.00,-13.00,-1008.00
2024-06-07 11:21:05.212959,-1,1,-81,1,0,0,70,72,138,140,61,110.43,39,-22.00,-7.00,-995.00
2024-06-07 11:21:05.328391,-1,1,-75,1,0,0,70,72,138,140,61,110.73,39,-19.00,-28.00,-1004.00
2024-06-07 11:21:05.423532,-1,1,-69,1,0,0,70,72,137,140,61,110.88,39,-28.00,-27.00,-974.00
2024-06-07 11:21:05.518353,-1,0,-63,0,0,0,70,72,137,140,61,110.89,39,-26.00,-38.00,-985.00
2024-06-07 11:21:05.620830,0,0,-58,0,0,0,70,72,136,140,61,110.33,39,-31.00,-18.00,-1003.00
2024-06-07 11:21:05.734373,-1,1,-52,0,0,0,70,73,137,130,61,110.31,39,-35.00,-17.00,-1003.00
2024-06-07 11:21:05.824325,-1,1,-46,0,0,0,70,73,136,130,61,110.21,39,-26.00,-9.00,-1013.00
2024-06-07 11:21:05.939356,-1,1,-40,0,0,0,70,73,137,130,61,110.56,39,-26.00,-33.00,-1021.00
2024-06-07 11:21:06.028344,-1,0,-35,0,0,0,70,73,137,130,61,110.40,39,-68.00,-7.00,-1034.00
2024-06-07 11:21:06.144341,-2,0,-29,0,0,0,70,73,137,130,61,110.48,40,-62.00,-14.00,-984.00
2024-06-07 11:21:06.232276,-2,0,-23,0,0,0,70,73,137,130,61,110.40,40,-57.00,-22.00,-956.00
2024-06-07 11:21:06.348766,-2,0,-18,0,0,0,70,73,136,130,61,110.50,40,-58.00,-31.00,-985.00
2024-06-07 11:21:06.436733,-2,1,-14,0,0,0,70,73,137,130,61,110.43,40,-64.00,-5.00,-997.00
2024-06-07 11:21:06.553573,-2,1,-10,0,0,0,70,73,136,130,61,110.96,40,-56.00,10.00,-999.00
2024-06-07 11:21:06.640224,-2,0,-8,0,0,0,70,73,136,130,61,110.41,40,-59.00,2.00,-976.00
2024-06-07 11:21:06.758372,-2,0,-6,0,0,0,71,73,137,130,60,110.63,40,-51.00,14.00,-1006.00
2024-06-07 11:21:06.844337,-2,0,-4,0,0,0,71,73,137,130,60,110.06,40,-95.00,25.00,-1002.00
2024-06-07 11:21:06.963151,-2,0,-4,0,0,0,71,73,136,130,60,110.47,40,-66.00,14.00,-996.00
2024-06-07 11:21:07.049215,-1,0,-3,0,0,0,71,73,135,130,60,110.54,40,-56.00,17.00,-1002.00
2024-06-07 11:21:07.151424,-1,0,-2,0,0,0,71,73,137,130,60,110.47,41,-94.00,15.00,-998.00
2024-06-07 11:21:07.270478,-1,0,-2,0,0,0,71,73,136,130,60,110.42,41,-45.00,3.00,-992.00
2024-06-07 11:21:07.355454,-1,0,-2,0,0,0,71,73,136,130,60,110.31,41,-50.00,20.00,-1006.00
2024-06-07 11:21:07.476482,-2,0,-2,0,0,0,71,73,135,130,60,110.79,41,-67.00,-5.00,-989.00
2024-06-07 11:21:07.559543,-2,0,-2,0,0,0,71,73,133,130,60,110.27,41,-42.00,18.00,-1039.00
2024-06-07 11:21:07.680057,-1,0,-2,0,0,0,71,73,134,130,60,110.66,41,-50.00,10.00,-991.00
2024-06-07 11:21:07.763785,-1,0,-2,0,0,0,72,73,134,130,60,110.22,41,-65.00,14.00,-1011.00
2024-06-07 11:21:07.884928,-1,0,-2,0,0,0,72,73,134,130,60,110.38,41,-62.00,-6.00,-1002.00
2024-06-07 11:21:07.967252,-2,0,-2,0,0,0,72,73,134,130,60,110.59,41,-93.00,-3.00,-964.00
2024-06-07 11:21:08.069863,-2,0,-2,0,0,0,72,73,134,130,60,110.67,42,-59.00,4.00,-972.00
2024-06-07 11:21:08.172179,-2,0,-2,0,0,0,72,73,134,130,60,110.13,42,-37.00,4.00,-999.00
2024-06-07 11:21:08.274105,-2,0,-2,0,0,0,72,73,135,130,60,110.52,42,-32.00,2.00,-995.00
2024-06-07 11:21:08.397264,-2,0,-2,0,0,0,72,73,134,130,60,110.57,42,-50.00,8.00,-1006.00
2024-06-07 11:21:08.478806,-2,0,-2,0,0,0,72,73,135,130,60,110.26,42,-60.00,28.00,-992.00
2024-06-07 11:21:08.582018,-2,0,-2,0,0,0,72,73,134,130,60,110.61,42,-23.00,22.00,-1016.00
2024-06-07 11:21:08.681392,-2,0,-2,0,0,0,72,73,133,130,60,110.57,42,-36.00,-10.00,-1001.00
2024-06-07 11:21:08.806485,-2,-1,-2,0,0,0,71,73,135,130,59,110.48,42,-60.00,-7.00,-998.00
2024-06-07 11:21:08.885303,-2,0,-2,0,0,0,71,73,134,130,59,110.74,42,-69.00,13.00,-1008.00
2024-06-07 11:21:09.011363,-2,0,-2,0,0,0,71,73,135,130,59,110.45,42,-76.00,2.00,-999.00
2024-06-07 11:21:09.089326,-3,0,-2,0,0,0,71,73,136,130,59,110.48,43,-39.00,12.00,-987.00
2024-06-07 11:21:09.142751,-3,0,-2,0,0,0,71,73,134,130,59,110.58,43,-50.00,20.00,-1011.00
2024-06-07 11:21:09.242181,-3,0,-5,0,0,0,71,73,135,130,59,110.32,43,-30.00,14.00,-1016.00
2024-06-07 11:21:09.344194,-2,0,-10,0,0,0,71,73,134,130,59,110.57,43,-42.00,38.00,-982.00
2024-06-07 11:21:09.446262,-2,0,-16,0,0,0,71,73,134,130,59,110.43,43,-61.00,17.00,-1000.00
2024-06-07 11:21:09.625549,-2,-1,-22,0,0,0,71,73,135,130,59,110.49,43,-52.00,6.00,-994.00
2024-06-07 11:21:09.650074,-2,-1,-28,0,0,0,71,73,136,130,59,110.30,43,-47.00,-2.00,-980.00
2024-06-07 11:21:09.830349,-2,-1,-34,0,0,0,71,73,134,130,59,110.58,43,-53.00,15.00,-984.00
2024-06-07 11:21:09.854312,-2,0,-40,0,0,0,71,73,134,130,59,110.39,43,-46.00,-20.00,-989.00
2024-06-07 11:21:10.035236,-3,0,-46,0,0,0,71,73,134,130,59,110.55,43,-52.00,-8.00,-1003.00
2024-06-07 11:21:10.058160,-2,0,-52,0,0,0,71,73,134,130,59,110.53,44,-41.00,-7.00,-1001.00
2024-06-07 11:21:10.204173,-2,0,-58,0,0,0,71,73,135,130,59,110.58,44,-35.00,-12.00,-996.00
2024-06-07 11:21:10.262130,-2,0,-64,0,0,0,71,73,132,130,59,110.64,44,-53.00,-15.00,-1044.00
2024-06-07 11:21:10.444608,-2,1,-70,0,0,0,71,73,134,130,59,110.75,44,-64.00,-21.00,-1002.00
2024-06-07 11:21:10.466136,-2,1,-77,0,0,0,71,73,133,130,59,110.33,44,-49.00,-38.00,-988.00
2024-06-07 11:21:10.652358,-2,2,-83,0,0,0,71,73,134,130,59,110.48,44,-21.00,-41.00,-1011.00
2024-06-07 11:21:10.670115,-1,2,-89,0,0,0,71,73,133,130,59,110.60,44,-47.00,-33.00,-1012.00
2024-06-07 11:21:10.856054,-1,2,-96,0,0,0,71,74,133,130,58,110.55,44,-17.00,-36.00,-996.00
2024-06-07 11:21:10.891398,0,3,-102,0,0,0,71,74,133,130,58,110.27,44,-19.00,-24.00,-978.00
2024-06-07 11:21:10.976190,0,3,-108,0,0,0,71,74,133,130,58,110.42,44,-4.00,-27.00,-1038.00
2024-06-07 11:21:11.078078,0,3,-114,0,0,0,71,74,134,130,58,110.75,45,-13.00,-35.00,-1025.00
2024-06-07 11:21:11.264441,1,2,-120,0,0,0,71,74,134,130,58,110.57,45,-4.00,-47.00,-999.00
2024-06-07 11:21:11.282052,1,2,-126,0,0,0,71,74,134,130,58,110.27,45,-27.00,-20.00,-1017.00
2024-06-07 11:21:11.384125,1,2,-131,0,0,0,71,74,136,130,58,110.25,45,11.00,-36.00,-1000.00
2024-06-07 11:21:11.571192,1,3,-137,0,0,0,71,74,135,130,58,110.60,45,-39.00,-27.00,-997.00
2024-06-07 11:21:11.588142,1,2,-143,0,0,0,71,74,136,130,58,110.58,45,16.00,-40.00,-994.00
2024-06-07 11:21:11.776313,1,2,-149,0,0,0,71,74,135,130,58,110.52,45,20.00,-29.00,-998.00
2024-06-07 11:21:11.792150,2,2,-155,0,0,0,72,74,135,130,58,110.52,45,27.00,-6.00,-990.00
2024-06-07 11:21:11.981193,2,2,-161,0,0,0,72,74,136,130,58,110.58,45,33.00,-6.00,-1007.00
2024-06-07 11:21:11.996017,2,1,-167,0,0,0,72,74,137,130,58,110.65,45,57.00,-21.00,-1005.00
2024-06-07 11:21:12.185552,3,1,-173,0,0,0,72,74,137,140,58,110.50,46,58.00,-14.00,-971.00
2024-06-07 11:21:12.200273,3,0,179,0,0,0,72,74,135,140,58,110.36,46,51.00,6.00,-1004.00
2024-06-07 11:21:12.390400,4,0,173,0,0,0,72,74,137,140,58,110.70,46,41.00,-21.00,-999.00
2024-06-07 11:21:12.404208,3,1,168,0,0,0,72,74,137,140,58,110.25,46,45.00,-15.00,-1011.00
2024-06-07 11:21:12.595374,4,1,162,0,0,0,72,74,137,140,58,110.31,46,36.00,-7.00,-984.00
2024-06-07 11:21:12.607923,4,1,157,0,0,0,72,74,137,140,58,110.35,46,44.00,-2.00,-1013.00
2024-06-07 11:21:12.800046,3,0,151,0,0,0,72,74,137,140,58,110.36,46,22.00,11.00,-993.00
2024-06-07 11:21:12.811935,3,0,145,0,0,0,72,75,136,140,57,110.24,46,67.00,1.00,-1001.00
2024-06-07 11:21:13.004780,3,0,140,0,0,0,72,75,136,130,57,110.34,46,62.00,7.00,-993.00
2024-06-07 11:21:13.015946,4,0,134,0,0,0,72,75,136,130,57,110.31,46,60.00,18.00,-994.00
2024-06-07 11:21:13.209577,3,0,128,0,0,0,72,75,138,130,57,110.00,47,55.00,35.00,-991.00
2024-06-07 11:21:13.219910,3,-1,122,0,0,0,72,75,138,130,57,110.59,47,41.00,23.00,-1002.00
2024-06-07 11:21:13.274200,3,-1,115,0,0,0,72,75,137,130,57,110.67,47,47.00,42.00,-998.00
2024-06-07 11:21:13.372946,3,-2,109,0,0,0,72,75,136,130,57,110.52,47,22.00,71.00,-985.00
2024-06-07 11:21:13.516801,3,-2,103,0,0,0,72,75,135,130,57,110.70,47,48.00,43.00,-995.00
2024-06-07 11:21:13.577199,3,-2,97,0,0,0,72,75,136,130,57,110.53,47,47.00,39.00,-1018.00
2024-06-07 11:21:13.721581,3,-3,91,0,0,0,72,75,136,130,57,110.28,47,18.00,56.00,-998.00
2024-06-07 11:21:13.781979,2,-3,85,0,0,0,72,74,136,130,57,110.57,47,9.00,49.00,-991.00
2024-06-07 11:21:13.927375,2,-3,80,0,0,0,72,74,135,130,57,110.54,47,29.00,54.00,-998.00
2024-06-07 11:21:13.985920,1,-3,73,0,0,0,72,74,134,130,57,110.50,47,12.00,84.00,-976.00
2024-06-07 11:21:14.131153,1,-3,67,0,0,0,72,74,135,130,57,110.72,48,9.00,83.00,-1017.00
2024-06-07 11:21:14.189812,1,-4,62,0,0,0,72,74,135,130,57,110.46,48,7.00,80.00,-1021.00
2024-06-07 11:21:14.335952,0,-4,56,0,0,0,72,74,135,130,57,110.81,48,-23.00,84.00,-1004.00
2024-06-07 11:21:14.393919,0,-4,50,0,0,0,72,74,133,130,57,110.25,48,-24.00,68.00,-1004.00
2024-06-07 11:21:14.540833,0,-5,44,0,0,0,72,74,136,130,57,110.54,48,-20.00,74.00,-995.00
2024-06-07 11:21:14.598061,-1,-5,37,0,0,0,72,74,135,130,57,110.59,48,-37.00,67.00,-1006.00
2024-06-07 11:21:14.745541,-1,-4,31,0,0,0,72,74,136,130,56,110.61,48,-51.00,69.00,-1001.00
2024-06-07 11:21:14.801891,-1,-4,24,0,0,0,72,75,136,130,56,110.65,48,-34.00,56.00,-1003.00
2024-06-07 11:21:14.950176,-2,-3,18,0,0,0,72,75,134,130,56,110.56,48,-64.00,73.00,-978.00
2024-06-07 11:21:15.005793,-2,-3,13,0,0,0,72,75,134,130,56,110.16,48,-60.00,46.00,-993.00
2024-06-07 11:21:15.107812,-2,-3,9,0,0,0,72,75,135,130,56,110.33,49,-67.00,45.00,-987.00
2024-06-07 11:21:15.257732,-2,-2,6,0,0,0,72,75,135,130,56,110.16,49,-68.00,41.00,-1001.00
2024-06-07 11:21:15.311924,-2,-1,4,0,0,0,72,75,134,130,56,110.24,49,-61.00,57.00,-1006.00
2024-06-07 11:21:15.462384,-3,-1,3,0,0,0,72,75,132,130,56,110.29,49,-40.00,44.00,-1000.00
2024-06-07 11:21:15.515825,-2,-1,1,0,0,0,72,75,133,130,56,110.18,49,-72.00,52.00,-1006.00
2024-06-07 11:21:15.667560,-2,-1,0,0,0,0,72,75,135,130,56,110.45,49,-40.00,46.00,-997.00
2024-06-07 11:21:15.720971,-2,-2,0,0,0,0,72,75,133,130,56,110.35,49,-36.00,48.00,-1010.00
2024-06-07 11:21:15.872066,-2,-1,0,0,0,0,72,75,133,130,56,110.50,49,-57.00,11.00,-992.00
2024-06-07 11:21:15.925291,-1,-2,0,0,0,0,72,75,134,130,56,110.41,49,-71.00,11.00,-1013.00
2024-06-07 11:21:16.076846,-2,-1,0,0,0,0,72,75,136,130,56,110.31,49,-63.00,29.00,-994.00
2024-06-07 11:21:16.128976,-3,0,0,0,0,0,72,75,135,130,56,110.44,50,-61.00,32.00,-994.00
2024-06-07 11:21:16.281708,-2,-1,0,0,0,0,72,75,135,130,56,110.27,50,-53.00,11.00,-1026.00
2024-06-07 11:21:16.332874,-2,0,0,0,0,0,72,75,135,130,56,110.26,50,-49.00,27.00,-986.00
2024-06-07 11:21:16.486414,-3,0,0,0,0,0,72,75,136,130,56,110.31,50,-52.00,8.00,-990.00
2024-06-07 11:21:16.536922,-3,-1,0,0,0,0,72,75,136,130,56,110.08,50,-63.00,14.00,-970.00
2024-06-07 11:21:16.639428,-3,-1,0,0,0,0,72,75,136,130,56,110.20,50,-57.00,14.00,-1000.00
2024-06-07 11:21:16.691031,-3,-1,0,0,0,0,72,75,136,140,55,110.43,50,-41.00,11.00,-992.00
2024-06-07 11:21:16.842854,-3,0,0,0,0,0,72,75,139,140,55,110.15,50,-48.00,-1.00,-989.00
2024-06-07 11:21:16.999160,-3,0,0,0,0,0,72,75,137,140,55,110.19,50,-64.00,-4.00,-973.00
2024-06-07 11:21:16.999350,-3,-1,0,0,0,0,72,75,136,130,55,110.35,50,-45.00,17.00,-1002.00
2024-06-07 11:21:17.098089,-2,0,0,0,0,0,72,75,136,130,55,110.38,51,-50.00,33.00,-998.00
2024-06-07 11:21:17.199834,-2,0,0,0,0,0,72,75,136,130,55,110.85,51,-36.00,29.00,-1010.00
2024-06-07 11:21:17.305604,-2,-1,0,0,0,0,72,75,135,130,55,110.41,51,-51.00,31.00,-1020.00
2024-06-07 11:21:17.403842,-2,-1,0,0,0,0,72,75,135,130,55,110.35,51,-60.00,35.00,-996.00
2024-06-07 11:21:17.510527,-2,-1,0,0,0,0,72,75,136,130,55,110.38,51,-31.00,31.00,-1019.00
2024-06-07 11:21:17.607939,-2,-1,0,0,0,0,72,75,135,130,55,110.15,51,-54.00,44.00,-1011.00
2024-06-07 11:21:17.710696,-1,-2,0,0,0,0,72,75,135,130,55,110.35,51,-65.00,45.00,-1014.00
2024-06-07 11:21:17.817445,-1,-2,0,0,0,0,72,75,140,130,55,110.46,51,-41.00,53.00,-1380.00
2024-06-07 11:21:17.914658,0,-2,0,0,0,-3,72,75,145,140,55,110.60,51,-110.00,76.00,-1651.00
2024-06-07 11:21:18.022265,0,-4,0,-1,0,-9,72,75,169,140,55,110.46,51,-64.00,240.00,-1144.00
2024-06-07 11:21:18.117655,0,-61,0,-1,-2,-12,72,75,631,150,55,110.60,52,-27.00,676.00,-1104.00
2024-06-07 11:21:18.219588,1,172,0,-1,-10,-1,72,75,6553,160,55,110.49,52,-26.00,546.00,-963.00
2024-06-07 11:21:18.321648,0,51,-1,-1,-6,12,72,75,153,160,55,110.62,52,-33.00,68.00,-1504.00
2024-06-07 11:21:18.431870,1,-5,3,-2,-2,12,72,75,139,140,55,110.38,52,-35.00,7.00,-1245.00
2024-06-07 11:21:18.525544,0,2,13,-2,-4,10,72,75,132,130,55,110.78,52,-24.00,82.00,-1484.00
2024-06-07 11:21:18.637074,-4,4,22,-3,-3,5,72,75,128,120,55,110.42,52,-43.00,73.00,-1327.00
2024-06-07 11:21:18.729697,-4,1,24,-2,-2,2,72,75,127,120,54,110.21,52,-18.00,59.00,-1205.00
2024-06-07 11:21:18.841460,-3,0,17,-2,-1,0,73,75,127,120,54,110.28,52,7.00,60.00,-1135.00
2024-06-07 11:21:18.937891,-2,0,6,-1,0,-1,73,75,129,120,54,110.50,52,11.00,6.00,-1037.00
2024-06-07 11:21:19.036783,-1,-1,0,-2,0,-2,73,75,133,120,54,110.46,52,-25.00,9.00,-1012.00
2024-06-07 11:21:19.137643,-2,-3,-1,-2,1,-2,73,75,136,120,54,110.43,53,-34.00,25.00,-970.00
2024-06-07 11:21:19.239485,-3,-4,-1,-1,1,-2,73,75,139,130,54,110.25,53,-2.00,40.00,-970.00
2024-06-07 11:21:19.353452,-3,-4,-1,-1,1,-1,73,75,141,130,54,110.35,53,-16.00,39.00,-933.00
2024-06-07 11:21:19.443642,-4,-2,-1,-1,1,-1,73,75,144,130,54,110.37,53,-22.00,26.00,-948.00
2024-06-07 11:21:19.558294,-3,-3,-1,0,1,0,73,75,143,130,54,110.44,53,-27.00,46.00,-963.00
2024-06-07 11:21:19.647579,-2,-3,-1,0,0,0,73,75,145,130,54,110.44,53,-37.00,29.00,-958.00
2024-06-07 11:21:19.763088,-2,-3,-1,0,0,0,73,75,144,130,54,110.38,53,-22.00,47.00,-973.00
2024-06-07 11:21:19.851621,-2,-3,-1,0,0,0,72,75,144,130,54,110.54,53,-27.00,48.00,-976.00
2024-06-07 11:21:19.968168,-3,-2,-1,0,0,0,72,75,143,130,54,110.29,53,-31.00,43.00,-983.00
2024-06-07 11:21:20.055933,-3,-1,-1,0,0,0,72,75,142,130,54,110.50,53,-35.00,54.00,-994.00
2024-06-07 11:21:20.172717,-2,-1,-1,0,0,0,72,75,142,130,54,110.26,54,-29.00,46.00,-979.00
2024-06-07 11:21:20.259517,-2,-1,-1,0,0,0,72,75,142,130,54,110.27,54,-66.00,56.00,-979.00
2024-06-07 11:21:20.310591,-2,-1,0,0,0,0,72,75,141,130,54,110.41,54,-29.00,45.00,-992.00
2024-06-07 11:21:20.479925,-2,-1,0,0,0,0,72,75,141,130,54,110.40,54,-43.00,47.00,-988.00
2024-06-07 11:21:20.515100,-2,-1,0,0,0,0,72,75,140,130,54,110.67,54,-43.00,51.00,-1009.00
2024-06-07 11:21:20.685367,-2,-1,0,0,0,0,72,75,140,130,54,110.24,54,-48.00,45.00,-1021.00
2024-06-07 11:21:20.718550,-1,-1,0,0,0,0,72,75,140,130,53,110.39,54,-39.00,57.00,-1035.00
2024-06-07 11:21:20.889537,-1,-1,0,0,0,0,73,75,139,130,53,110.32,54,-55.00,55.00,-1012.00
2024-06-07 11:21:20.922572,-1,-1,0,0,0,0,73,75,138,130,53,110.33,54,-21.00,45.00,-1000.00
2024-06-07 11:21:21.094867,-1,-1,0,0,0,0,73,75,139,130,53,110.45,54,-34.00,52.00,-1014.00
2024-06-07 11:21:21.126537,-1,-1,0,0,0,0,73,75,138,130,53,110.53,55,-18.00,41.00,-986.00
2024-06-07 11:21:21.228553,-1,-2,0,0,0,0,73,75,138,130,53,110.70,55,-27.00,51.00,-999.00
2024-06-07 11:21:21.402076,-2,-2,0,0,0,0,73,75,138,130,53,110.29,55,-46.00,41.00,-989.00
2024-06-07 11:21:21.434783,-2,-2,0,0,0,0,73,75,138,130,53,110.22,55,-47.00,51.00,-994.00
2024-06-07 11:21:21.534578,-2,-2,0,0,0,0,73,75,139,130,53,110.33,55,-20.00,38.00,-1007.00
2024-06-07 11:21:21.708832,-1,-2,0,0,0,0,73,75,140,130,53,110.47,55,-66.00,49.00,-989.00
2024-06-07 11:21:21.738577,-2,-2,0,0,0,0,73,75,140,130,53,110.35,55,-28.00,32.00,-990.00
2024-06-07 11:21:21.913544,-1,-2,0,0,0,0,73,76,141,130,53,110.38,55,-30.00,30.00,-1003.00
2024-06-07 11:21:21.942490,-2,-2,0,0,0,0,73,76,139,130,53,110.09,55,-15.00,31.00,-1003.00
2024-06-07 11:21:22.118502,-2,-1,0,0,0,0,73,76,139,130,53,110.37,55,-31.00,22.00,-1013.00
2024-06-07 11:21:22.146508,-2,-1,0,0,0,0,73,76,138,130,53,110.56,56,-34.00,32.00,-1001.00
2024-06-07 11:21:22.248603,-2,-1,0,0,0,0,73,76,137,130,53,110.32,56,-20.00,27.00,-991.00
2024-06-07 11:21:22.425833,-2,-1,0,0,0,0,73,76,139,130,53,110.43,56,-10.00,19.00,-1013.00
2024-06-07 11:21:22.452543,-1,-1,0,0,0,0,73,76,138,130,53,110.37,56,-24.00,34.00,-971.00
2024-06-07 11:21:22.630478,-1,-1,0,0,0,0,73,76,137,130,53,110.25,56,-22.00,39.00,-983.00
2024-06-07 11:21:22.659705,-1,-1,0,0,0,0,73,76,137,130,53,110.25,56,-7.00,40.00,-1001.00
2024-06-07 11:21:22.762141,-1,-1,0,0,0,0,73,76,138,130,52,110.06,56,-1.00,21.00,-999.00
2024-06-07 11:21:22.860615,-1,-1,0,0,0,0,73,76,138,130,52,110.55,56,-43.00,40.00,-983.00
2024-06-07 11:21:23.040000,-1,-2,0,0,0,0,73,76,137,130,52,110.39,56,-28.00,47.00,-1027.00
2024-06-07 11:21:23.064404,-1,-2,0,0,0,0,73,76,136,130,52,110.62,57,-10.00,16.00,-1010.00
2024-06-07 11:21:23.245223,-1,-2,0,0,0,0,73,76,135,130,52,110.50,57,-20.00,12.00,-1011.00
2024-06-07 11:21:23.268444,0,-1,0,0,0,0,73,76,136,130,52,110.20,57,-16.00,31.00,-1006.00
2024-06-07 11:21:23.449532,0,-1,0,0,0,0,73,76,136,130,52,110.74,57,-19.00,8.00,-1006.00
2024-06-07 11:21:23.472423,0,-1,0,0,0,0,73,76,137,130,52,110.30,57,-7.00,25.00,-1013.00
2024-06-07 11:21:23.654366,0,-1,0,0,0,0,73,76,137,130,52,110.53,57,-18.00,3.00,-968.00
2024-06-07 11:21:23.677860,0,-1,0,0,0,0,73,76,139,130,52,110.34,57,-1.00,14.00,-1033.00
2024-06-07 11:21:23.859178,0,-1,0,0,0,0,73,76,138,130,52,110.35,57,9.00,9.00,-1002.00
2024-06-07 11:21:23.880416,0,-1,0,0,0,0,73,76,138,130,52,110.22,57,-19.00,13.00,-1005.00
2024-06-07 11:21:24.063995,-1,0,0,0,0,0,73,76,139,130,52,110.38,57,-23.00,34.00,-986.00
2024-06-07 11:21:24.084896,-1,0,0,0,0,0,73,76,139,130,52,110.18,58,-43.00,14.00,-995.00
2024-06-07 11:21:24.237959,-1,0,0,0,0,0,73,76,141,130,52,110.37,58,-8.00,9.00,-1016.00
2024-06-07 11:21:24.238220,-1,0,0,0,0,0,73,76,141,130,52,110.51,58,-20.00,14.00,-1000.00
2024-06-07 11:21:24.339210,0,0,0,0,0,0,73,76,142,130,52,110.43,58,-46.00,44.00,-1287.00
2024-06-07 11:21:24.473391,0,1,-1,0,0,-5,73,76,146,130,52,110.55,58,-44.00,42.00,-1613.00
2024-06-07 11:21:24.543242,0,8,0,0,0,-10,73,76,150,140,52,110.50,58,-70.00,-43.00,-1611.00
2024-06-07 11:21:24.678706,1,89,0,-1,6,-12,73,76,220,150,52,110.57,58,-3.00,533.00,-1360.00
2024-06-07 11:21:24.747477,0,-141,0,-1,10,3,73,76,6553,160,51,110.76,58,3.00,807.00,-896.00
2024-06-07 11:21:24.882959,0,-27,0,-1,4,11,73,76,525,150,51,110.82,58,-12.00,641.00,-1159.00
2024-06-07 11:21:24.951249,1,6,-2,-1,4,10,73,76,155,140,51,110.52,58,-52.00,115.00,-1116.00
2024-06-07 11:21:25.088285,-1,-4,-6,-2,4,6,73,76,146,130,51,110.40,59,-28.00,20.00,-1570.00
2024-06-07 11:21:25.155260,-1,-5,-6,-1,3,3,73,76,139,130,51,110.22,59,14.00,-45.00,-1261.00
2024-06-07 11:21:25.292728,-1,-3,-1,-1,2,0,73,76,135,130,51,110.06,59,-49.00,13.00,-1138.00
2024-06-07 11:21:25.359240,-1,-3,0,-1,3,0,73,76,134,120,51,110.59,59,-29.00,16.00,-1119.00
2024-06-07 11:21:25.498797,-1,-3,0,-1,2,-1,73,76,134,130,51,110.32,59,-35.00,0.00,-1057.00
2024-06-07 11:21:25.563221,-1,-2,0,-1,2,-1,73,76,134,130,51,110.59,59,-9.00,-3.00,-1033.00
2024-06-07 11:21:25.665191,-2,-2,0,-1,1,-1,73,76,136,130,51,110.30,59,-7.00,11.00,-970.00
2024-06-07 11:21:25.804571,-2,-1,0,-1,1,-1,73,76,137,130,51,110.56,59,-15.00,23.00,-946.00
2024-06-07 11:21:25.869186,-2,-2,0,-1,1,0,74,77,138,130,51,110.45,59,-14.00,24.00,-980.00
2024-06-07 11:21:25.971593,-2,-2,0,-1,1,0,74,77,138,130,51,110.30,59,-45.00,24.00,-970.00
2024-06-07 11:21:26.111863,-3,-4,0,-1,1,0,74,77,138,130,51,110.31,60,-35.00,20.00,-974.00
2024-06-07 11:21:26.175152,-3,-4,0,0,1,0,74,77,139,130,51,110.05,60,-43.00,12.00,-985.00
2024-06-07 11:21:26.316560,-3,-4,0,0,1,0,74,77,136,130,51,110.18,60,-32.00,19.00,-1011.00
2024-06-07 11:21:26.379292,-2,-4,0,0,0,0,74,77,137,130,51,110.51,60,-29.00,24.00,-1004.00
2024-06-07 11:21:26.521472,-3,-4,0,0,0,0,74,77,136,130,51,110.52,60,-35.00,30.00,-998.00
2024-06-07 11:21:26.584806,-3,-4,0,0,0,0,74,77,135,130,51,110.38,60,-30.00,25.00,-1003.00
2024-06-07 11:21:26.685082,-2,-4,0,0,0,0,74,77,137,130,51,110.42,60,-35.00,20.00,-1020.00
2024-06-07 11:21:26.787166,-3,-4,0,0,0,0,74,77,136,130,50,110.26,60,-45.00,19.00,-1031.00
2024-06-07 11:21:26.889073,-3,-3,0,0,0,0,75,78,136,120,50,110.26,60,-51.00,14.00,-1009.00
2024-06-07 11:21:26.991869,-3,-3,0,0,0,0,75,78,136,120,50,110.36,60,-61.00,15.00,-997.00
2024-06-07 11:21:27.093146,-3,-3,0,0,0,0,75,78,135,130,50,110.11,61,-74.00,13.00,-1013.00
2024-06-07 11:21:27.195200,-3,-3,0,0,0,0,75,78,137,130,50,110.22,61,-78.00,5.00,-976.00
2024-06-07 11:21:27.340684,-4,-2,0,0,0,0,75,78,137,130,50,110.28,61,-73.00,34.00,-1007.00
2024-06-07 11:21:27.399358,-4,-2,0,0,0,0,75,78,137,130,50,110.40,61,-81.00,11.00,-1012.00
2024-06-07 11:21:27.501191,-4,-2,0,0,0,0,75,78,137,130,50,110.12,61,-82.00,39.00,-975.00
2024-06-07 11:21:27.552107,-5,-2,0,0,0,0,75,78,137,130,50,110.36,61,-73.00,19.00,-981.00
2024-06-07 11:21:27.750542,-4,-2,0,0,0,0,75,78,137,130,50,110.14,61,-58.00,30.00,-1010.00
2024-06-07 11:21:27.756226,-4,-2,0,0,0,0,75,78,137,130,50,110.29,61,-61.00,27.00,-996.00
2024-06-07 11:21:27.954957,-4,-2,0,0,0,0,73,77,138,130,50,110.18,61,-108.00,39.00,-976.00
2024-06-07 11:21:27.960330,-5,-2,0,0,0,0,73,77,136,130,50,110.27,61,-57.00,10.00,-999.00
2024-06-07 11:21:28.159981,-4,-2,0,0,0,0,73,77,138,130,50,110.06,62,-40.00,14.00,-982.00
2024-06-07 11:21:28.164163,-4,-2,0,0,0,0,73,77,138,130,50,110.21,62,-81.00,20.00,-970.00
2024-06-07 11:21:28.364689,-4,-2,0,0,0,0,73,77,136,130,50,109.98,62,-35.00,35.00,-1034.00
2024-06-07 11:21:28.368204,-4,-2,0,0,0,0,73,77,136,130,50,110.31,62,-58.00,10.00,-1008.00
2024-06-07 11:21:28.470126,-3,-2,0,0,0,0,73,77,137,130,50,110.15,62,-51.00,17.00,-996.00
2024-06-07 11:21:28.572201,-3,-2,0,0,-1,0,73,77,138,130,50,110.03,62,-74.00,33.00,-991.00
2024-06-07 11:21:28.675614,-3,-2,0,0,-1,0,73,77,137,130,50,109.94,62,-61.00,38.00,-1029.00
2024-06-07 11:21:28.776290,-3,-2,0,0,-1,0,73,77,136,130,49,110.34,62,-65.00,3.00,-1014.00
2024-06-07 11:21:28.978948,-4,-1,0,0,-1,0,74,77,137,130,49,110.14,62,-54.00,14.00,-951.00
2024-06-07 11:21:28.980143,-4,-1,0,0,-1,0,74,77,137,130,49,110.26,62,-61.00,12.00,-1005.00
2024-06-07 11:21:29.082205,-3,-1,0,0,-1,0,74,77,137,130,49,109.95,63,-68.00,25.00,-984.00
2024-06-07 11:21:29.286351,-4,-1,0,0,-1,0,74,77,137,130,49,110.14,63,-49.00,10.00,-1015.00
2024-06-07 11:21:29.286474,-3,-1,0,0,0,0,74,77,136,130,49,110.23,63,-71.00,20.00,-1023.00
2024-06-07 11:21:29.389276,-4,-1,0,0,0,0,74,77,137,130,49,110.56,63,-74.00,20.00,-992.00
2024-06-07 11:21:29.492067,-4,-1,0,0,0,0,74,77,137,120,49,109.98,63,-68.00,0.00,-1009.00
2024-06-07 11:21:29.593823,-3,-1,0,0,0,0,74,77,138,120,49,110.22,63,-46.00,-1.00,-1004.00
2024-06-07 11:21:29.699073,-3,-1,0,0,0,0,74,77,137,120,49,110.19,63,-56.00,12.00,-986.00
2024-06-07 11:21:29.798304,-3,-1,0,0,0,0,74,77,137,120,49,110.05,63,-75.00,20.00,-989.00
2024-06-07 11:21:29.898695,-3,-2,0,0,0,0,75,77,138,120,49,110.26,63,-42.00,14.00,-982.00
2024-06-07 11:21:30.000171,-3,-1,0,0,0,0,75,77,138,130,49,110.12,63,-60.00,12.00,-1005.00
2024-06-07 11:21:30.105502,-2,-1,0,0,0,0,75,77,138,130,49,110.23,64,-73.00,31.00,-1011.00
2024-06-07 11:21:30.204971,-2,-1,0,0,0,0,75,77,139,130,49,109.98,64,-45.00,29.00,-996.00
2024-06-07 11:21:30.310302,-2,-2,0,0,0,0,75,77,139,130,49,110.29,64,-65.00,16.00,-984.00
2024-06-07 11:21:30.408155,-2,-2,0,0,0,0,75,77,139,130,49,110.50,64,-29.00,19.00,-985.00
2024-06-07 11:21:30.515166,-2,-2,0,0,0,0,75,77,140,130,49,110.09,64,-59.00,18.00,-980.00
2024-06-07 11:21:30.612285,-2,-2,0,0,0,0,75,77,140,130,49,110.51,64,-30.00,28.00,-1019.00
2024-06-07 11:21:30.714079,-2,-2,0,0,0,0,75,77,140,130,48,110.22,64,-61.00,14.00,-999.00
2024-06-07 11:21:30.822294,-2,-2,0,0,0,0,75,77,140,130,48,110.30,64,-30.00,28.00,-1016.00
