TS,pitch,roll,yaw,vgx,vgy,vgz,templ,temph,tof,h,bat,baro,time,agx,agy,agz
2024-06-07 11:22:03.303285,0,0,0,0,0,0,79,81,10,0,34,108.53,75,0.00,-5.00,-1000.00
2024-06-07 11:22:03.488020,0,0,0,0,0,0,79,81,10,0,34,108.57,75,0.00,-3.00,-1001.00
2024-06-07 11:22:03.488138,0,0,0,0,0,0,79,81,10,0,34,108.43,75,1.00,-4.00,-999.00
2024-06-07 11:22:03.558454,0,0,0,0,0,0,79,81,10,0,34,108.83,75,0.00,-3.00,-999.00
2024-06-07 11:22:03.692812,0,0,0,0,0,0,79,81,10,0,34,108.88,75,1.00,-3.00,-1001.00
2024-06-07 11:22:03.762520,0,0,0,0,0,0,79,81,10,0,34,108.83,75,0.00,-3.00,-1000.00
2024-06-07 11:22:03.897259,0,0,0,0,0,0,79,81,10,0,34,108.72,75,0.00,-5.00,-999.00
2024-06-07 11:22:03.966447,0,0,0,0,0,0,79,81,10,0,34,108.61,75,1.00,-2.00,-1000.00
2024-06-07 11:22:04.102264,0,0,0,0,0,0,79,81,10,0,34,108.53,75,0.00,-3.00,-999.00
2024-06-07 11:22:04.170142,0,0,0,0,0,0,79,81,10,0,34,108.88,75,0.00,-4.00,-998.00
2024-06-07 11:22:04.325633,0,0,0,0,0,0,79,81,10,0,34,108.64,75,0.00,-4.00,-1001.00
2024-06-07 11:22:04.374698,0,0,0,0,0,0,79,81,10,0,34,108.85,75,0.00,-3.00,-1001.00
2024-06-07 11:22:04.529978,0,0,0,0,0,0,79,81,10,0,34,108.82,75,0.00,-1.00,-1000.00
2024-06-07 11:22:04.578054,0,0,0,0,0,0,79,81,10,0,34,108.64,75,-1.00,-3.00,-1000.00
2024-06-07 11:22:04.680328,0,0,0,0,0,0,79,81,10,0,34,108.47,75,0.00,-3.00,-998.00
2024-06-07 11:22:04.782244,0,0,0,0,0,0,79,81,10,0,34,108.69,75,1.00,-2.00,-1000.00
2024-06-07 11:22:05.023681,0,0,0,0,0,0,79,81,10,0,34,108.90,75,0.00,-4.00,-1000.00
2024-06-07 11:22:05.023847,0,0,0,0,0,0,79,81,10,0,34,108.75,75,0.00,-4.00,-1001.00
2024-06-07 11:22:05.088464,0,0,0,0,0,0,78,81,10,0,34,108.32,75,0.00,-2.00,-996.00
2024-06-07 11:22:05.228295,0,0,0,0,0,0,78,81,10,0,34,108.45,75,0.00,-3.00,-1000.00
2024-06-07 11:22:05.300304,0,0,0,0,0,0,78,81,10,0,34,108.62,75,0.00,-3.00,-1002.00
2024-06-07 11:22:05.394261,0,0,0,0,0,0,78,81,10,0,34,108.38,75,0.00,-3.00,-1001.00
2024-06-07 11:22:05.510020,0,0,0,0,0,0,78,81,10,0,34,109.10,75,1.00,-4.00,-999.00
2024-06-07 11:22:05.598387,0,0,0,0,0,0,78,81,10,0,34,108.52,75,0.00,-2.00,-999.00
2024-06-07 11:22:05.700209,0,0,0,0,0,0,78,81,10,0,34,108.62,75,1.00,-2.00,-998.00
2024-06-07 11:22:05.803810,0,0,0,0,0,0,78,81,10,0,34,108.77,75,0.00,-5.00,-1001.00
2024-06-07 11:22:05.904166,0,0,0,0,0,0,78,81,10,0,34,108.42,75,0.00,-3.00,-1002.00
2024-06-07 11:22:06.006106,0,0,0,0,0,0,78,81,10,0,34,108.68,75,0.00,-4.00,-1001.00
2024-06-07 11:22:06.150139,0,0,0,0,0,0,79,81,10,0,34,108.71,75,1.00,-2.00,-1000.00
2024-06-07 11:22:06.210015,0,0,0,0,0,0,79,81,10,0,34,108.83,75,0.00,-3.00,-1000.00
2024-06-07 11:22:06.354831,0,0,0,0,0,0,79,81,10,0,34,108.87,75,0.00,-3.00,-999.00
2024-06-07 11:22:06.414220,0,0,0,0,0,0,79,81,10,0,34,108.58,75,0.00,-3.00,-996.00
2024-06-07 11:22:06.559539,0,0,0,0,0,0,79,81,10,0,34,108.74,75,-1.00,-4.00,-1001.00
2024-06-07 11:22:06.618136,0,0,0,0,0,0,79,81,10,0,34,108.60,75,0.00,-4.00,-1002.00
2024-06-07 11:22:06.764406,0,0,0,0,0,0,79,81,10,0,34,108.48,75,1.00,-1.00,-1000.00
2024-06-07 11:22:06.772036,0,0,0,0,0,0,79,81,10,0,34,108.82,75,0.00,-3.00,-999.00
2024-06-07 11:22:06.969126,0,0,0,0,0,0,79,81,10,0,34,108.52,75,1.00,-4.00,-997.00
2024-06-07 11:22:06.975911,0,0,0,0,0,0,79,81,10,0,34,108.65,75,0.00,-4.00,-1001.00
2024-06-07 11:22:07.077993,0,0,0,0,0,0,78,81,10,0,34,108.99,75,1.00,-4.00,-1000.00
2024-06-07 11:22:07.276321,0,0,0,0,0,0,78,81,10,0,34,108.70,75,0.00,-3.00,-1002.00
2024-06-07 11:22:07.282023,0,0,0,0,0,0,78,81,10,0,34,108.77,75,0.00,-4.00,-999.00
2024-06-07 11:22:07.480982,0,0,0,0,0,0,78,81,10,0,34,108.57,75,2.00,-3.00,-1002.00
2024-06-07 11:22:07.485914,0,0,0,0,0,0,78,81,10,0,34,108.63,75,0.00,-5.00,-1000.00
2024-06-07 11:22:07.685751,0,0,0,0,0,0,78,81,10,0,34,108.73,75,18.00,1.00,-994.00
2024-06-07 11:22:07.689818,0,0,0,0,0,0,78,81,10,0,34,108.64,75,13.00,9.00,-996.00
2024-06-07 11:22:07.791836,0,0,0,0,0,0,78,81,10,0,34,108.64,75,23.00,-9.00,-984.00
2024-06-07 11:22:07.993628,0,0,0,0,0,0,78,81,10,0,34,108.64,75,-10.00,7.00,-1001.00
2024-06-07 11:22:07.995812,0,0,0,0,0,0,78,81,10,0,34,108.64,75,-40.00,23.00,-1001.00
2024-06-07 11:22:08.097756,1,0,0,0,0,0,79,81,10,0,34,108.64,75,-3.00,17.00,-1056.00
2024-06-07 11:22:08.199840,2,0,0,0,0,0,79,81,10,0,34,108.64,75,-34.00,5.00,-1156.00
2024-06-07 11:22:08.301724,2,0,0,-1,0,-2,79,81,10,0,34,108.64,75,-67.00,9.00,-1270.00
2024-06-07 11:22:08.504972,-4,0,0,-2,0,-5,79,81,11,0,34,108.64,76,-86.00,18.00,-1142.00
2024-06-07 11:22:08.505857,-6,0,0,-2,0,-7,79,81,19,10,34,108.91,76,-96.00,31.00,-1029.00
2024-06-07 11:22:08.709855,-6,0,0,-2,0,-8,79,81,24,20,34,108.91,76,-52.00,89.00,-1018.00
2024-06-07 11:22:08.710023,-6,0,0,-1,1,-8,79,81,33,30,34,109.40,76,-117.00,63.00,-958.00
2024-06-07 11:22:08.814762,-6,-3,0,-1,1,-8,79,81,39,30,34,109.20,76,-133.00,62.00,-914.00
2024-06-07 11:22:08.914509,-7,-5,0,-2,1,-7,79,81,47,40,34,108.94,76,-137.00,61.00,-841.00
2024-06-07 11:22:09.016920,-8,-5,0,-1,1,-6,79,81,54,50,34,109.38,76,-103.00,39.00,-894.00
2024-06-07 11:22:09.118991,-8,-5,0,-1,1,-5,80,82,63,50,34,109.65,76,-115.00,52.00,-888.00
2024-06-07 11:22:09.221698,-8,-5,0,-1,1,-4,80,82,65,60,34,109.38,76,-132.00,68.00,-898.00
2024-06-07 11:22:09.321854,-7,-5,0,-1,1,-3,80,82,68,60,34,109.40,76,-137.00,82.00,-902.00
2024-06-07 11:22:09.423693,-7,-5,0,0,0,-2,80,82,70,60,34,109.19,77,-127.00,40.00,-914.00
2024-06-07 11:22:09.528900,-8,-6,0,-1,0,-1,80,82,72,70,34,109.45,77,-116.00,70.00,-945.00
2024-06-07 11:22:09.627666,-8,-4,0,0,0,-1,80,82,73,70,34,109.46,77,-119.00,65.00,-948.00
2024-06-07 11:22:09.733710,-8,-4,0,0,0,0,80,82,73,70,34,109.58,77,-147.00,71.00,-957.00
2024-06-07 11:22:09.831621,-8,-4,0,0,0,0,80,82,74,70,34,109.50,77,-129.00,79.00,-995.00
2024-06-07 11:22:09.938462,-8,-5,0,0,0,0,80,82,74,70,34,109.09,77,-101.00,67.00,-1030.00
2024-06-07 11:22:10.035608,-8,-4,0,0,0,0,80,82,74,70,34,109.49,77,-100.00,67.00,-989.00
2024-06-07 11:22:10.138807,-7,-3,0,0,0,0,80,82,75,70,34,109.35,77,-126.00,58.00,-1006.00
2024-06-07 11:22:10.245682,-6,-3,0,0,0,0,80,82,76,70,34,109.70,77,-109.00,57.00,-1034.00
2024-06-07 11:22:10.341771,-6,-3,0,0,0,0,80,82,76,70,34,109.27,77,-105.00,96.00,-1012.00
2024-06-07 11:22:10.450500,-6,-3,0,0,0,0,80,82,77,70,34,109.42,78,-121.00,43.00,-1006.00
2024-06-07 11:22:10.545646,-5,-3,0,0,0,0,80,82,78,70,34,109.72,78,-148.00,66.00,-990.00
2024-06-07 11:22:10.596816,-5,-3,0,0,0,0,80,82,79,70,34,109.17,78,-105.00,66.00,-1024.00
2024-06-07 11:22:10.757714,-5,-3,0,0,0,0,80,82,80,70,34,109.16,78,-114.00,36.00,-978.00
2024-06-07 11:22:10.800626,-6,-4,0,0,0,0,80,82,80,70,34,109.43,78,-115.00,46.00,-956.00
2024-06-07 11:22:10.962512,-6,-2,0,0,0,0,80,82,81,70,34,109.09,78,-115.00,30.00,-982.00
2024-06-07 11:22:11.005105,-5,-2,0,0,0,0,80,82,82,70,34,109.27,78,-80.00,7.00,-964.00
2024-06-07 11:22:11.107892,-5,-2,0,0,-1,0,81,83,81,70,34,109.40,78,-91.00,-5.00,-988.00
2024-06-07 11:22:11.269763,-5,0,0,0,-1,0,81,83,82,70,34,109.45,78,-96.00,23.00,-986.00
2024-06-07 11:22:11.310687,-4,0,0,0,-1,0,81,83,83,70,34,109.15,78,-97.00,19.00,-949.00
2024-06-07 11:22:11.474585,-4,0,1,0,-1,0,81,83,82,70,34,109.22,79,-92.00,-3.00,-973.00
2024-06-07 11:22:11.514976,-4,0,0,0,-1,0,81,83,83,70,34,109.37,79,-106.00,46.00,-1032.00
2024-06-07 11:22:11.616863,-4,0,1,0,0,0,81,83,83,80,34,109.32,79,-80.00,32.00,-968.00
2024-06-07 11:22:11.781687,-4,0,0,0,0,0,81,83,83,80,34,109.34,79,-96.00,39.00,-982.00
2024-06-07 11:22:11.820595,-4,-2,0,0,0,0,81,83,84,80,34,109.37,79,-58.00,87.00,-1055.00
2024-06-07 11:22:11.986913,-4,-3,0,0,0,0,81,83,83,80,34,109.28,79,-100.00,42.00,-1002.00
2024-06-07 11:22:12.024616,-3,-4,0,0,0,0,81,83,84,80,34,109.30,79,-72.00,27.00,-1033.00
2024-06-07 11:22:12.126751,-4,-3,0,0,0,0,80,82,83,80,34,109.42,79,-100.00,55.00,-995.00
2024-06-07 11:22:12.293754,-3,-1,0,0,0,0,80,82,84,80,34,109.50,79,-92.00,54.00,-1053.00
2024-06-07 11:22:12.330819,-3,-3,0,0,0,0,80,82,84,80,34,109.21,79,-95.00,71.00,-1002.00
2024-06-07 11:22:12.432885,-3,-4,0,0,0,0,80,82,85,80,34,109.12,80,-94.00,71.00,-1023.00
2024-06-07 11:22:12.601062,-4,-4,0,0,0,0,80,82,85,80,34,109.48,80,-130.00,55.00,-954.00
2024-06-07 11:22:12.636723,-5,-4,0,0,0,0,80,82,86,80,34,109.31,80,-111.00,78.00,-951.00
2024-06-07 11:22:12.805802,-6,-4,0,0,0,0,80,82,85,80,34,109.21,80,-106.00,68.00,-1017.00
2024-06-07 11:22:12.840681,-5,-4,0,0,0,0,80,82,86,80,34,109.49,80,-90.00,21.00,-1018.00
2024-06-07 11:22:13.010632,-5,-4,0,0,0,0,80,82,84,80,34,109.43,80,-124.00,52.00,-994.00
2024-06-07 11:22:13.044660,-5,-3,0,0,0,0,80,82,84,80,34,109.44,80,-116.00,54.00,-996.00
2024-06-07 11:22:13.215463,-5,-3,0,0,0,0,80,82,85,80,34,109.57,80,-116.00,79.00,-997.00
2024-06-07 11:22:13.250408,-6,-2,0,0,0,0,80,82,83,80,34,109.68,80,-120.00,88.00,-923.00
2024-06-07 11:22:13.351103,-6,-2,0,0,0,0,80,82,84,80,34,109.33,80,-110.00,73.00,-985.00
2024-06-07 11:22:13.452662,-6,-3,0,0,0,0,80,82,82,80,34,109.07,81,-110.00,69.00,-1031.00
2024-06-07 11:22:13.625174,-5,-3,0,0,0,0,80,82,83,70,34,109.26,81,-106.00,86.00,-1007.00
2024-06-07 11:22:13.656659,-5,-3,0,0,0,0,80,82,83,70,34,109.39,81,-140.00,69.00,-988.00
2024-06-07 11:22:13.758755,-6,-3,0,0,0,0,80,82,83,70,34,109.30,81,-132.00,54.00,-1035.00
2024-06-07 11:22:13.932233,-6,-3,0,0,0,0,80,82,83,70,34,109.40,81,-121.00,55.00,-1038.00
2024-06-07 11:22:13.962564,-6,-3,0,0,0,0,80,82,83,70,34,109.54,81,-103.00,30.00,-1019.00
2024-06-07 11:22:14.064485,-6,-4,0,0,0,0,80,82,84,70,34,109.28,81,-122.00,26.00,-959.00
2024-06-07 11:22:14.239362,-6,-2,0,0,0,0,79,82,85,70,34,109.09,81,-133.00,18.00,-1063.00
2024-06-07 11:22:14.268456,-5,-2,0,0,0,-1,79,82,84,80,34,108.71,81,-122.00,27.00,-1061.00
2024-06-07 11:22:14.444093,-6,0,0,0,0,-2,79,82,86,80,34,109.57,82,-123.00,61.00,-1071.00
2024-06-07 11:22:14.473965,-7,-1,0,0,0,-2,79,82,88,80,34,109.45,82,-120.00,40.00,-1065.00
2024-06-07 11:22:14.574590,-6,-2,0,0,0,-3,79,82,91,80,34,109.33,82,-135.00,22.00,-1077.00
2024-06-07 11:22:14.751311,-6,-1,0,0,0,-4,79,82,93,90,34,109.18,82,-132.00,38.00,-1064.00
2024-06-07 11:22:14.778477,-6,-1,0,0,0,-4,79,82,100,90,34,108.87,82,-168.00,15.00,-1030.00
2024-06-07 11:22:14.829407,-6,-1,0,0,0,-5,79,82,104,100,34,109.19,82,-136.00,16.00,-1029.00
2024-06-07 11:22:14.956079,-7,0,0,0,0,-5,79,82,111,100,34,109.67,82,-155.00,42.00,-1010.00
2024-06-07 11:22:15.033756,-8,0,0,0,0,-5,79,82,117,110,34,109.42,82,-107.00,50.00,-991.00
2024-06-07 11:22:15.160889,-7,-1,0,0,0,-5,80,82,122,110,34,109.89,82,-125.00,36.00,-976.00
2024-06-07 11:22:15.237511,-7,-1,0,0,0,-5,80,82,128,120,34,109.39,82,-118.00,45.00,-998.00
2024-06-07 11:22:15.365670,-6,-2,0,0,0,-5,80,82,135,120,34,109.76,83,-121.00,27.00,-979.00
2024-06-07 11:22:15.441471,-8,-2,0,0,0,-5,80,82,140,130,34,109.77,83,-122.00,74.00,-985.00
2024-06-07 11:22:15.570674,-7,-2,0,0,0,-4,80,82,145,130,34,109.71,83,-101.00,52.00,-966.00
2024-06-07 11:22:15.645439,-7,-3,0,0,0,-4,80,82,150,140,34,109.53,83,-108.00,28.00,-975.00
2024-06-07 11:22:15.775299,-6,-4,0,0,0,-4,80,82,154,140,34,109.48,83,-150.00,10.00,-945.00
2024-06-07 11:22:15.849329,-7,-3,0,0,0,-3,80,82,159,150,34,109.44,83,-158.00,9.00,-900.00
2024-06-07 11:22:15.980160,-9,-2,0,0,0,-3,80,82,166,150,34,109.75,83,-73.00,-19.00,-925.00
2024-06-07 11:22:16.053617,-7,-1,1,0,0,-3,80,82,171,160,34,109.73,83,-95.00,22.00,-1001.00
2024-06-07 11:22:16.185486,-6,1,1,0,0,-2,80,82,173,160,34,109.94,83,-108.00,115.00,-902.00
2024-06-07 11:22:16.257466,-5,0,0,0,0,-2,80,82,170,160,34,110.08,83,-70.00,83.00,-1011.00
2024-06-07 11:22:16.389682,-5,-3,0,0,0,-2,80,82,174,160,34,110.11,84,-111.00,65.00,-915.00
2024-06-07 11:22:16.461350,-5,-4,0,0,0,-1,80,82,178,170,34,110.08,84,-153.00,56.00,-1007.00
2024-06-07 11:22:16.594390,-6,-3,0,0,0,-1,80,82,182,170,34,110.14,84,-149.00,87.00,-965.00
2024-06-07 11:22:16.665653,-6,-3,0,0,0,-1,80,82,181,170,34,110.32,84,-141.00,68.00,-937.00
2024-06-07 11:22:16.799601,-7,-4,0,0,1,-1,80,82,181,170,34,110.37,84,-128.00,88.00,-925.00
2024-06-07 11:22:16.869700,-7,-5,0,0,1,0,80,82,185,170,34,109.94,84,-134.00,76.00,-953.00
2024-06-07 11:22:17.004194,-6,-5,0,0,0,0,80,82,184,170,34,109.72,84,-140.00,50.00,-933.00
2024-06-07 11:22:17.073496,-7,-5,0,0,0,0,80,82,183,170,34,110.21,84,-159.00,58.00,-967.00
2024-06-07 11:22:17.209181,-7,-4,0,0,0,0,80,83,185,170,34,110.08,84,-139.00,70.00,-913.00
2024-06-07 11:22:17.278154,-7,-4,0,0,0,0,80,83,184,170,34,109.87,84,-126.00,103.00,-986.00
2024-06-07 11:22:17.413696,-7,-4,0,0,0,0,80,83,183,170,34,109.94,85,-134.00,96.00,-993.00
2024-06-07 11:22:17.481440,-7,-5,0,0,0,0,80,83,182,170,34,110.30,85,-123.00,45.00,-979.00
2024-06-07 11:22:17.619571,-7,-5,0,0,0,0,80,83,182,170,34,109.90,85,-142.00,37.00,-1026.00
2024-06-07 11:22:17.685602,-7,-4,0,-1,0,0,80,83,182,170,34,109.89,85,-198.00,62.00,-981.00
2024-06-07 11:22:17.827158,-8,-3,0,-1,0,0,80,83,183,170,34,109.79,85,-124.00,52.00,-1014.00
2024-06-07 11:22:17.889447,-8,-3,0,-1,0,0,80,83,183,170,34,110.15,85,-144.00,17.00,-1023.00
2024-06-07 11:22:18.028334,-8,-2,0,0,0,0,80,83,184,170,34,109.93,85,-109.00,63.00,-1053.00
2024-06-07 11:22:18.093887,-7,-4,0,0,0,0,80,83,187,170,34,109.63,85,-143.00,40.00,-1023.00
2024-06-07 11:22:18.232990,-7,-3,0,0,0,0,80,83,184,170,34,109.91,85,-106.00,31.00,-1036.00
2024-06-07 11:22:18.298034,-8,-2,0,0,0,0,80,83,186,170,34,109.91,85,-165.00,60.00,-974.00
2024-06-07 11:22:18.438247,-8,0,0,0,0,0,80,83,186,180,34,110.04,86,-121.00,87.00,-939.00
2024-06-07 11:22:18.502872,-8,-2,0,0,0,0,80,83,189,180,34,110.03,86,-127.00,55.00,-939.00
2024-06-07 11:22:18.552433,-8,-3,0,0,0,0,80,83,192,180,34,110.08,86,-158.00,89.00,-947.00
2024-06-07 11:22:18.674017,-8,-3,0,0,0,0,80,83,190,180,34,110.05,86,-184.00,70.00,-973.00
2024-06-07 11:22:18.756895,-8,-3,0,-1,0,0,80,83,188,180,34,109.95,86,-154.00,82.00,-890.00
2024-06-07 11:22:18.858263,-8,-3,0,0,0,0,80,83,188,180,34,110.13,86,-139.00,79.00,-970.00
2024-06-07 11:22:19.052096,-8,-3,0,0,1,0,80,83,190,180,34,109.97,86,-140.00,109.00,-954.00
2024-06-07 11:22:19.062259,-7,-4,0,-1,1,0,80,83,189,180,34,109.59,86,-172.00,101.00,-980.00
2024-06-07 11:22:19.256887,-6,-5,0,-1,1,1,80,83,188,180,34,109.68,86,-166.00,121.00,-970.00
2024-06-07 11:22:19.266022,-6,-5,0,-2,1,1,80,83,185,170,34,109.71,86,-206.00,108.00,-959.00
2024-06-07 11:22:19.461689,-7,-4,0,-2,1,1,80,83,182,170,34,109.92,87,-150.00,105.00,-906.00
2024-06-07 11:22:19.471591,-7,-4,0,-2,2,2,80,83,181,170,34,109.80,87,-137.00,69.00,-947.00
2024-06-07 11:22:19.572222,-7,-5,0,-2,2,2,80,83,179,170,34,109.85,87,-158.00,85.00,-910.00
2024-06-07 11:22:19.768919,-7,-5,1,-2,1,2,80,83,178,170,34,109.61,87,-125.00,52.00,-982.00
2024-06-07 11:22:19.776260,-7,-4,1,-2,1,2,80,83,176,160,34,109.87,87,-107.00,57.00,-948.00
2024-06-07 11:22:19.973573,-7,-4,0,-2,1,2,80,83,173,160,34,109.65,87,-173.00,36.00,-925.00
2024-06-07 11:22:19.980098,-7,-5,0,-3,1,2,80,83,171,160,34,109.61,87,-156.00,18.00,-977.00
2024-06-07 11:22:20.178462,-7,-3,0,-3,0,2,80,83,167,160,34,109.43,87,-191.00,67.00,-992.00
2024-06-07 11:22:20.184047,-7,-3,0,-3,0,2,81,83,164,150,34,109.59,87,-120.00,47.00,-986.00
2024-06-07 11:22:20.388427,-8,-3,0,-3,0,2,81,83,164,150,34,109.53,87,-179.00,38.00,-993.00
2024-06-07 11:22:20.388506,-8,-4,0,-4,0,2,81,83,159,150,34,109.61,88,-135.00,24.00,-1044.00
2024-06-07 11:22:20.588145,-7,-4,0,-3,0,2,81,83,156,150,34,109.63,88,-118.00,97.00,-961.00
2024-06-07 11:22:20.592207,-10,-1,1,-3,0,2,81,83,154,150,34,110.17,88,-93.00,111.00,-1020.00
2024-06-07 11:22:20.694027,-10,-2,1,-2,1,2,81,83,151,140,34,109.89,88,-109.00,104.00,-955.00
2024-06-07 11:22:20.796351,-9,-3,0,-2,2,2,81,83,148,140,34,110.04,88,-98.00,84.00,-989.00
2024-06-07 11:22:20.898364,-7,-4,0,-1,2,2,81,83,144,140,34,109.68,88,-223.00,91.00,-1039.00
2024-06-07 11:22:21.000173,-6,-4,0,-2,2,2,81,83,143,130,34,109.79,88,-96.00,49.00,-883.00
2024-06-07 11:22:21.102369,-8,-5,0,-2,1,2,81,83,140,130,34,109.28,88,-118.00,-8.00,-1081.00
2024-06-07 11:22:21.204280,-8,-6,1,-1,0,1,80,83,140,130,34,109.53,88,-107.00,-18.00,-1018.00
2024-06-07 11:22:21.407371,-8,-3,1,-1,0,1,80,83,136,130,34,109.13,88,-125.00,36.00,-1032.00
2024-06-07 11:22:21.408209,-7,-2,1,-1,0,0,80,83,134,130,34,109.77,89,-135.00,82.00,-966.00
2024-06-07 11:22:21.612449,-8,-3,1,-1,0,0,80,83,133,130,34,109.93,89,-104.00,113.00,-1024.00
2024-06-07 11:22:21.612617,-8,-3,0,0,0,0,80,83,135,130,34,109.87,89,-88.00,93.00,-957.00
2024-06-07 11:22:21.715194,-8,-4,0,0,1,0,80,83,133,120,34,109.39,89,-103.00,78.00,-1044.00
2024-06-07 11:22:21.816979,-7,-4,0,0,0,0,80,83,133,120,34,109.36,89,-137.00,71.00,-1063.00
2024-06-07 11:22:21.919372,-8,-5,0,0,0,0,80,83,135,120,34,109.66,89,-91.00,48.00,-1032.00
2024-06-07 11:22:22.027772,-8,-5,0,0,0,0,80,83,135,120,34,109.12,89,-132.00,35.00,-1022.00
2024-06-07 11:22:22.071144,-8,-5,0,0,0,0,80,83,137,130,34,109.67,89,-133.00,72.00,-1005.00
2024-06-07 11:22:22.226714,-8,-5,0,0,0,0,80,83,136,130,34,109.73,89,-125.00,95.00,-993.00
2024-06-07 11:22:22.275154,-9,-5,0,0,0,0,80,83,140,130,34,109.90,89,-112.00,73.00,-971.00
2024-06-07 11:22:22.431368,-9,-5,0,1,0,0,80,83,139,130,34,109.52,90,-137.00,99.00,-970.00
2024-06-07 11:22:22.479425,-10,-6,0,1,0,0,80,83,141,130,34,109.95,90,-151.00,81.00,-1059.00
2024-06-07 11:22:22.638180,-11,-7,0,1,-1,0,80,83,141,130,34,109.71,90,-113.00,62.00,-946.00
2024-06-07 11:22:22.683264,-12,-6,1,2,-1,0,80,83,143,130,34,109.48,90,-110.00,99.00,-983.00
2024-06-07 11:22:22.841171,-11,-5,1,3,-1,0,80,83,142,130,34,109.38,90,-152.00,103.00,-1005.00
2024-06-07 11:22:22.887327,-11,-7,1,4,-2,0,80,83,143,130,34,109.69,90,-154.00,76.00,-964.00
2024-06-07 11:22:23.046036,-8,-5,0,4,-2,0,80,83,141,130,34,109.36,90,-153.00,125.00,-1047.00
2024-06-07 11:22:23.093816,-8,-5,0,4,-2,0,80,83,140,130,34,109.55,90,-190.00,73.00,-945.00
2024-06-07 11:22:23.195686,-7,-5,0,4,-2,0,80,83,139,130,34,109.51,90,-163.00,71.00,-982.00
2024-06-07 11:22:23.298270,-2,0,0,3,-2,0,80,83,137,130,34,109.05,90,-191.00,70.00,-952.00
2024-06-07 11:22:23.399801,-7,0,0,2,-1,0,80,83,137,130,34,108.96,91,-124.00,38.00,-1006.00
2024-06-07 11:22:23.499025,-13,0,0,3,0,0,80,83,138,130,34,109.19,91,-119.00,65.00,-993.00
2024-06-07 11:22:23.660209,-14,-1,0,4,0,0,80,83,139,130,34,109.11,91,-100.00,68.00,-976.00
2024-06-07 11:22:23.702950,-13,-1,0,5,0,1,80,83,137,130,34,109.19,91,-189.00,59.00,-1036.00
2024-06-07 11:22:23.864903,-12,-1,0,6,0,0,80,83,135,120,34,108.89,91,-154.00,62.00,-995.00
2024-06-07 11:22:23.908020,-11,-1,0,7,0,0,80,83,134,120,34,109.28,91,-169.00,77.00,-963.00
2024-06-07 11:22:24.069591,-9,-3,0,7,1,0,80,83,132,120,34,109.30,91,-166.00,96.00,-1010.00
2024-06-07 11:22:24.112266,-5,-3,0,7,1,0,80,83,132,120,34,109.25,91,-172.00,98.00,-994.00
2024-06-07 11:22:24.274569,-3,-5,0,6,1,0,80,83,130,120,34,109.39,91,-153.00,85.00,-991.00
2024-06-07 11:22:24.316098,-3,-5,0,5,1,0,80,83,130,120,34,109.53,91,-129.00,102.00,-972.00
2024-06-07 11:22:24.455529,-3,-5,0,5,1,0,80,83,130,120,34,109.34,92,-162.00,84.00,-1006.00
2024-06-07 11:22:24.520313,-3,-6,0,4,1,0,80,83,130,120,34,109.45,92,-135.00,99.00,-995.00
2024-06-07 11:22:24.684354,-3,-5,0,4,1,0,80,83,130,120,34,109.35,92,-154.00,79.00,-1011.00
2024-06-07 11:22:24.724047,-4,-6,0,3,1,0,80,83,130,120,34,109.08,92,-142.00,89.00,-1054.00
2024-06-07 11:22:24.889115,-4,-6,0,2,1,0,80,83,128,120,34,109.34,92,-155.00,50.00,-973.00
2024-06-07 11:22:24.927965,-6,-6,0,1,0,0,80,83,128,120,34,109.56,92,-185.00,71.00,-995.00
2024-06-07 11:22:25.059349,-8,-5,0,1,0,0,80,83,130,120,34,109.40,92,-158.00,97.00,-972.00
2024-06-07 11:22:25.132036,-8,-4,0,1,0,0,80,83,130,120,34,109.60,92,-128.00,48.00,-953.00
2024-06-07 11:22:25.298643,-7,-4,0,1,0,0,81,83,128,120,34,109.47,92,-138.00,68.00,-954.00
2024-06-07 11:22:25.336280,-7,-4,0,1,0,0,81,83,127,120,34,109.16,92,-92.00,78.00,-1026.00
2024-06-07 11:22:25.503318,-4,-5,0,1,0,0,81,83,128,120,34,109.57,93,-115.00,64.00,-1027.00
2024-06-07 11:22:25.539992,-4,-5,0,0,0,0,81,83,127,120,34,109.64,93,-114.00,99.00,-949.00
2024-06-07 11:22:25.708142,-5,-4,0,0,0,0,81,83,128,120,34,109.45,93,-115.00,88.00,-1033.00
2024-06-07 11:22:25.744441,-6,-4,0,0,0,0,81,83,128,120,34,109.17,93,-113.00,65.00,-1006.00
2024-06-07 11:22:25.846488,-5,-4,0,0,0,0,81,83,127,120,34,109.33,93,-126.00,56.00,-986.00
2024-06-07 11:22:25.897183,-5,-4,0,0,0,0,81,83,128,120,34,109.67,93,-84.00,88.00,-1022.00
2024-06-07 11:22:25.998985,-6,-4,0,0,0,0,81,83,128,120,34,109.85,93,-96.00,100.00,-959.00
2024-06-07 11:22:26.115673,-6,-3,0,0,0,0,81,83,129,120,34,109.33,93,-91.00,71.00,-928.00
2024-06-07 11:22:26.254080,-5,-4,0,0,0,0,81,83,130,120,34,109.40,93,-78.00,53.00,-1021.00
2024-06-07 11:22:26.304903,-5,-4,0,0,0,0,81,83,129,120,34,109.35,93,-124.00,51.00,-927.00
2024-06-07 11:22:26.407038,0,-3,0,0,0,0,81,83,129,120,34,109.61,94,-105.00,92.00,-1024.00
2024-06-07 11:22:26.509617,2,-3,0,-1,0,0,81,83,130,120,34,109.66,94,-109.00,104.00,-977.00
2024-06-07 11:22:26.614273,2,-4,0,-3,0,0,81,83,130,120,34,109.47,94,-126.00,49.00,-942.00
2024-06-07 11:22:26.714857,0,-5,0,-5,0,0,81,83,130,120,34,109.58,94,-116.00,61.00,-922.00
2024-06-07 11:22:26.817331,0,-4,0,-5,0,0,81,83,129,120,34,109.76,94,-100.00,48.00,-1031.00
2024-06-07 11:22:26.917037,-1,-3,0,-6,0,0,81,83,128,120,34,109.69,94,-56.00,127.00,-999.00
2024-06-07 11:22:27.019715,-2,-3,0,-7,0,0,81,83,127,120,34,109.60,94,-20.00,65.00,-1007.00
2024-06-07 11:22:27.120973,-1,-5,0,-7,0,0,81,83,128,120,34,109.73,94,-78.00,88.00,-1080.00
2024-06-07 11:22:27.228773,-3,-5,0,-7,0,0,80,83,127,120,34,109.49,94,-23.00,112.00,-1057.00
2024-06-07 11:22:27.329298,-6,-5,0,-7,0,0,80,83,129,120,34,109.10,94,-125.00,64.00,-1014.00
2024-06-07 11:22:27.436007,-6,-5,0,-6,0,0,80,83,128,120,34,109.57,95,-48.00,101.00,-1043.00
2024-06-07 11:22:27.528853,-7,-5,0,-6,0,0,80,83,129,120,34,109.57,95,-102.00,103.00,-1012.00
2024-06-07 11:22:27.654333,-8,-5,1,-5,0,0,80,83,129,120,34,109.74,95,-73.00,79.00,-1014.00
2024-06-07 11:22:27.732915,-8,-5,0,-5,0,0,80,83,131,120,34,109.76,95,-69.00,86.00,-944.00
2024-06-07 11:22:27.859683,-8,-4,0,-4,0,0,80,83,130,120,34,109.94,95,-94.00,58.00,-964.00
2024-06-07 11:22:27.938148,-8,-4,0,-4,0,0,80,83,131,120,34,109.98,95,-106.00,97.00,-989.00
2024-06-07 11:22:28.063287,-8,-4,0,-4,0,0,80,83,131,120,34,109.76,95,-100.00,75.00,-980.00
2024-06-07 11:22:28.142549,-8,-4,0,-3,0,0,80,83,132,120,34,109.54,95,-90.00,56.00,-995.00
2024-06-07 11:22:28.268146,-8,-3,0,-3,0,0,81,83,132,120,34,109.69,95,-106.00,80.00,-1005.00
2024-06-07 11:22:28.346408,-9,-3,1,-3,0,0,81,83,133,120,34,109.48,95,-134.00,78.00,-1000.00
2024-06-07 11:22:28.472875,-9,-4,1,-2,0,0,81,83,133,120,34,109.77,96,-113.00,112.00,-984.00
2024-06-07 11:22:28.550203,-8,-4,0,-2,0,0,81,83,134,120,34,109.77,96,-132.00,99.00,-941.00
2024-06-07 11:22:28.678256,-7,-5,0,-1,0,0,81,83,134,120,34,110.06,96,-94.00,112.00,-983.00
2024-06-07 11:22:28.753958,-7,-5,0,-1,1,0,81,83,134,120,34,109.53,96,-90.00,130.00,-983.00
2024-06-07 11:22:28.855842,-6,-6,0,0,1,0,81,83,134,130,34,109.70,96,-98.00,116.00,-910.00
2024-06-07 11:22:28.985070,-6,-7,0,0,1,0,81,83,135,130,34,109.70,96,-126.00,132.00,-966.00
2024-06-07 11:22:29.059967,-8,-7,1,0,1,0,81,83,136,130,34,110.14,96,-108.00,115.00,-980.00
2024-06-07 11:22:29.175212,-7,-7,0,0,1,0,81,83,135,130,34,109.79,96,-161.00,126.00,-976.00
2024-06-07 11:22:29.263654,-8,-8,1,0,0,0,80,83,137,130,34,110.06,96,-137.00,94.00,-962.00
2024-06-07 11:22:29.394374,-7,-11,1,0,0,0,80,83,137,130,34,109.77,97,-177.00,150.00,-957.00
2024-06-07 11:22:29.467649,-6,-15,1,0,0,0,80,83,139,130,34,109.58,97,-183.00,112.00,-1031.00
2024-06-07 11:22:29.599138,-7,-14,1,0,-2,0,80,83,136,130,34,109.78,97,-171.00,103.00,-1008.00
2024-06-07 11:22:29.671605,-8,-10,1,-1,-3,0,80,83,136,120,34,109.60,97,-174.00,112.00,-974.00
2024-06-07 11:22:29.804264,-9,-6,1,-1,-3,0,80,83,135,120,34,109.77,97,-149.00,103.00,-999.00
2024-06-07 11:22:29.875601,-9,-4,0,0,-3,0,80,83,132,120,34,109.45,97,-160.00,98.00,-1019.00
2024-06-07 11:22:29.926599,-9,-3,0,0,-3,0,80,83,131,120,34,109.42,97,-161.00,115.00,-986.00
2024-06-07 11:22:30.111127,-10,-4,0,0,-3,0,80,83,133,120,34,109.69,97,-200.00,93.00,-1024.00
2024-06-07 11:22:30.130563,-11,-4,0,0,-2,0,80,83,133,120,34,109.47,97,-134.00,120.00,-993.00
2024-06-07 11:22:30.316149,-10,-4,0,0,-2,0,81,83,131,120,34,109.68,97,-141.00,156.00,-1039.00
2024-06-07 11:22:30.334682,-9,-4,0,0,-2,0,81,83,131,120,34,109.56,98,-124.00,142.00,-969.00
2024-06-07 11:22:30.520866,-8,-5,0,0,-1,0,81,83,131,120,34,109.61,98,-130.00,132.00,-1001.00
2024-06-07 11:22:30.538670,-7,-5,0,0,-1,0,81,83,130,120,34,109.45,98,-142.00,124.00,-1024.00
2024-06-07 11:22:30.725664,-7,-5,0,0,-1,0,81,83,130,120,34,109.64,98,-107.00,112.00,-1009.00
2024-06-07 11:22:30.742960,-7,-5,0,0,-1,0,81,83,132,120,34,109.39,98,-142.00,119.00,-1042.00
2024-06-07 11:22:30.930573,-5,-3,0,0,0,0,81,83,132,120,34,109.27,98,-166.00,113.00,-1000.00
2024-06-07 11:22:30.946619,-5,-3,0,0,0,0,81,83,132,120,34,109.40,98,-140.00,100.00,-983.00
2024-06-07 11:22:31.068143,-7,-5,0,0,0,0,81,83,133,130,34,109.44,98,-152.00,116.00,-926.00
2024-06-07 11:22:31.150930,-8,-5,0,0,0,0,81,83,134,130,34,109.86,98,-182.00,117.00,-931.00
2024-06-07 11:22:31.345468,-8,-5,0,0,0,0,80,83,135,130,34,109.48,98,-122.00,88.00,-968.00
2024-06-07 11:22:31.354653,-8,-6,1,0,0,0,80,83,134,130,34,109.70,99,-128.00,99.00,-980.00
2024-06-07 11:22:31.545382,-7,-6,0,0,0,0,80,83,135,120,34,109.59,99,-144.00,66.00,-1000.00
2024-06-07 11:22:31.561378,-7,-6,0,0,0,0,80,83,133,120,34,109.51,99,-162.00,94.00,-1004.00
2024-06-07 11:22:31.660669,-8,-5,1,0,0,0,80,83,133,120,34,109.34,99,-132.00,79.00,-935.00
2024-06-07 11:22:31.851965,-9,-4,1,0,0,0,80,83,134,120,34,109.35,99,-114.00,102.00,-1006.00
2024-06-07 11:22:31.864487,-7,-5,1,0,0,0,80,83,131,120,34,109.39,99,-126.00,87.00,-1002.00
2024-06-07 11:22:32.056921,-7,-6,0,0,0,0,80,83,131,120,34,109.21,99,-124.00,84.00,-1031.00
2024-06-07 11:22:32.068683,-8,-6,1,0,0,0,80,83,131,120,34,109.23,99,-187.00,91.00,-991.00
2024-06-07 11:22:32.170605,-8,-6,1,0,0,0,80,83,132,120,34,109.41,99,-119.00,100.00,-995.00
2024-06-07 11:22:32.319292,-8,-5,1,0,0,0,81,83,133,120,34,109.47,99,-133.00,96.00,-1012.00
2024-06-07 11:22:32.374482,-8,-6,1,0,0,0,81,83,134,120,34,109.65,100,-136.00,80.00,-1011.00
2024-06-07 11:22:32.568654,-8,-4,0,0,0,0,81,83,132,120,34,109.29,100,-144.00,79.00,-996.00
2024-06-07 11:22:32.578531,-8,2,0,0,0,0,81,83,134,120,34,109.44,100,-140.00,120.00,-1003.00
2024-06-07 11:22:32.773513,-7,2,0,0,2,0,81,83,133,120,34,109.31,100,-141.00,105.00,-984.00
2024-06-07 11:22:32.782430,-7,-1,0,0,3,0,81,83,132,120,34,109.68,100,-144.00,64.00,-958.00
2024-06-07 11:22:32.884546,-8,-3,0,0,3,0,81,83,132,120,34,109.34,100,-160.00,83.00,-941.00
2024-06-07 11:22:33.080706,-8,-5,0,0,3,0,81,83,134,120,34,109.21,100,-142.00,87.00,-978.00
2024-06-07 11:22:33.088562,-7,-6,0,0,3,0,81,83,132,120,34,109.29,100,-169.00,56.00,-991.00
2024-06-07 11:22:33.290563,-7,-5,1,0,2,0,81,83,130,120,34,109.64,100,-132.00,85.00,-988.00
2024-06-07 11:22:33.292556,-7,-4,1,0,2,0,80,83,131,120,34,109.30,100,-117.00,110.00,-1018.00
2024-06-07 11:22:33.394557,-6,-5,0,0,3,0,80,83,133,120,34,109.23,101,-129.00,68.00,-986.00
2024-06-07 11:22:33.592893,-6,-6,0,0,3,0,80,83,133,120,34,109.41,101,-149.00,88.00,-921.00
2024-06-07 11:22:33.599050,-8,-6,1,0,2,0,80,83,134,120,34,109.66,101,-115.00,71.00,-984.00
2024-06-07 11:22:33.650613,-8,-6,1,0,2,0,80,83,135,120,34,109.47,101,-116.00,80.00,-978.00
2024-06-07 11:22:33.797850,-8,-7,1,0,2,0,80,83,133,120,34,109.66,101,-134.00,74.00,-1022.00
2024-06-07 11:22:33.853666,-7,-6,1,0,1,0,80,83,133,120,34,109.44,101,-136.00,87.00,-972.00
2024-06-07 11:22:34.004173,-7,-5,0,0,1,0,80,83,133,120,34,109.43,101,-124.00,89.00,-1064.00
2024-06-07 11:22:34.057565,-7,-8,1,0,1,0,80,83,135,120,34,109.32,101,-103.00,70.00,-974.00
2024-06-07 11:22:34.159566,-6,-8,0,0,0,0,80,83,134,120,34,109.13,101,-116.00,87.00,-1050.00
2024-06-07 11:22:34.309792,-6,-6,0,0,0,0,80,84,133,130,34,109.63,101,-126.00,101.00,-974.00
2024-06-07 11:22:34.363500,-7,-6,0,0,0,0,80,84,135,130,34,109.58,102,-111.00,54.00,-925.00
2024-06-07 11:22:34.514485,-7,-5,0,0,0,0,80,84,136,130,34,109.63,102,-109.00,50.00,-1035.00
2024-06-07 11:22:34.567555,-8,-4,0,0,0,0,80,84,137,130,34,109.62,102,-135.00,104.00,-962.00
2024-06-07 11:22:34.719238,-8,-3,0,0,0,0,80,84,136,130,34,109.44,102,-147.00,145.00,-954.00
2024-06-07 11:22:34.771507,-8,-4,0,0,0,0,80,84,137,130,34,109.60,102,-182.00,121.00,-1023.00
2024-06-07 11:22:34.873436,-9,-5,1,0,0,0,80,84,138,130,34,109.51,102,-138.00,111.00,-997.00
2024-06-07 11:22:35.026672,-9,-5,1,0,0,0,80,84,136,130,34,109.52,102,-126.00,90.00,-994.00
2024-06-07 11:22:35.077490,-8,-4,1,0,0,0,80,84,135,130,34,109.03,102,-155.00,113.00,-957.00
2024-06-07 11:22:35.231435,-9,-5,0,0,0,0,80,84,136,130,34,109.73,102,-176.00,104.00,-964.00
2024-06-07 11:22:35.281790,-9,-5,0,0,0,0,81,83,136,130,34,109.19,102,-162.00,107.00,-969.00
2024-06-07 11:22:35.383393,-10,-5,1,0,0,0,81,83,135,130,34,109.33,103,-177.00,91.00,-1051.00
2024-06-07 11:22:35.538385,-9,-5,2,0,0,0,81,83,134,130,34,109.63,103,-173.00,107.00,-985.00
2024-06-07 11:22:35.587364,-8,-6,7,0,0,0,81,83,134,120,34,109.38,103,-125.00,99.00,-988.00
2024-06-07 11:22:35.743147,-9,-7,13,0,0,0,81,83,135,120,34,109.65,103,-127.00,129.00,-993.00
2024-06-07 11:22:35.791261,-8,-7,19,0,0,0,81,83,134,120,34,109.25,103,-113.00,151.00,-1028.00
2024-06-07 11:22:35.893498,-7,-8,24,0,0,0,81,83,134,120,34,109.41,103,-68.00,136.00,-1015.00
2024-06-07 11:22:36.050284,-6,-8,30,0,0,0,81,83,133,120,34,109.83,103,-59.00,165.00,-917.00
2024-06-07 11:22:36.097300,-4,-10,36,0,0,0,81,83,132,120,34,109.85,103,-54.00,175.00,-957.00
2024-06-07 11:22:36.255419,-2,-10,42,0,0,0,81,83,132,120,34,109.44,103,-33.00,194.00,-968.00
2024-06-07 11:22:36.301247,-1,-10,48,0,0,0,81,83,132,120,34,109.65,103,-40.00,182.00,-967.00
2024-06-07 11:22:36.403386,0,-9,54,0,0,0,81,83,131,120,34,109.93,104,6.00,182.00,-991.00
2024-06-07 11:22:36.562457,0,-9,59,0,0,0,81,83,131,120,34,109.39,104,66.00,167.00,-994.00
2024-06-07 11:22:36.607499,1,-9,59,0,0,0,81,83,130,120,34,109.67,104,37.00,151.00,-997.00
2024-06-07 11:22:36.769213,2,-9,59,0,0,0,81,83,131,120,34,109.70,104,24.00,172.00,-975.00
2024-06-07 11:22:36.811395,2,-9,59,0,0,0,81,83,132,120,34,109.78,104,46.00,187.00,-998.00
2024-06-07 11:22:36.913356,2,-9,59,0,0,0,81,83,133,120,34,109.86,104,34.00,156.00,-934.00
2024-06-07 11:22:37.074391,2,-9,59,0,0,0,81,83,133,120,34,109.82,104,44.00,163.00,-970.00
2024-06-07 11:22:37.117488,2,-10,59,0,0,0,81,83,133,120,34,109.53,104,41.00,138.00,-1014.00
2024-06-07 11:22:37.279426,2,-10,60,0,0,0,81,83,132,120,34,109.76,104,54.00,131.00,-919.00
2024-06-07 11:22:37.321536,3,-9,59,0,0,0,80,84,133,120,34,109.59,104,-13.00,148.00,-920.00
2024-06-07 11:22:37.484208,2,-9,59,0,0,0,80,84,134,120,34,109.43,105,42.00,137.00,-948.00
2024-06-07 11:22:37.484390,1,-9,59,0,0,0,80,84,131,120,34,109.75,105,26.00,137.00,-988.00
2024-06-07 11:22:37.576380,1,-9,59,0,0,0,80,84,134,120,34,109.56,105,28.00,171.00,-1005.00
2024-06-07 11:22:37.688788,1,-9,59,0,0,0,80,84,132,120,34,109.68,105,25.00,168.00,-970.00
2024-06-07 11:22:37.780390,2,-9,59,0,0,0,80,84,134,120,34,109.66,105,-17.00,199.00,-990.00
2024-06-07 11:22:37.882335,2,-9,59,0,0,0,80,84,135,120,34,109.86,105,38.00,175.00,-982.00
2024-06-07 11:22:37.996035,0,-10,60,0,0,0,80,84,135,120,34,109.79,105,33.00,147.00,-974.00
2024-06-07 11:22:38.086456,0,-11,59,0,0,0,80,84,134,120,34,109.71,105,9.00,151.00,-961.00
2024-06-07 11:22:38.200847,1,-11,59,0,0,0,80,84,134,120,34,109.71,105,-14.00,158.00,-973.00
2024-06-07 11:22:38.290397,1,-10,59,0,0,0,80,83,134,120,34,110.10,105,17.00,153.00,-981.00
2024-06-07 11:22:38.392388,0,-10,60,0,0,0,80,83,134,120,34,109.58,106,38.00,144.00,-995.00
2024-06-07 11:22:38.507939,0,-9,59,0,0,0,80,83,135,120,34,109.56,106,55.00,128.00,-993.00
2024-06-07 11:22:38.596215,0,-8,55,0,0,0,80,83,136,120,34,109.80,106,6.00,141.00,-949.00
2024-06-07 11:22:38.712713,0,-8,49,0,0,0,80,83,134,120,34,109.62,106,20.00,161.00,-998.00
2024-06-07 11:22:38.800183,0,-8,43,0,0,0,80,83,135,130,34,109.56,106,-12.00,171.00,-947.00
2024-06-07 11:22:38.902263,-1,-8,37,0,0,0,80,83,135,130,34,109.68,106,6.00,167.00,-1009.00
2024-06-07 11:22:39.019909,0,-9,31,0,0,0,80,83,136,130,34,109.48,106,-47.00,139.00,-1008.00
2024-06-07 11:22:39.106598,-1,-9,25,0,0,0,80,83,136,130,34,109.76,106,-41.00,131.00,-1038.00
2024-06-07 11:22:39.224708,-2,-9,20,0,0,0,80,83,137,130,34,109.47,106,-69.00,121.00,-945.00
2024-06-07 11:22:39.310142,-3,-8,14,0,0,0,81,83,136,130,34,109.71,106,-61.00,105.00,-1007.00
2024-06-07 11:22:39.430143,-4,-6,8,0,0,0,81,83,138,130,34,109.35,107,-78.00,122.00,-994.00
2024-06-07 11:22:39.516730,-4,-5,2,0,0,0,81,83,137,130,34,109.42,107,-75.00,115.00,-989.00
2024-06-07 11:22:39.617822,-4,-6,1,0,0,0,81,83,137,130,34,109.62,107,-144.00,132.00,-987.00
2024-06-07 11:22:39.719738,-5,-6,1,0,0,0,81,83,137,130,34,109.33,107,-107.00,94.00,-936.00
2024-06-07 11:22:39.820432,-6,-6,1,0,0,0,81,83,138,130,34,109.77,107,-108.00,105.00,-959.00
2024-06-07 11:22:39.927343,-6,-4,1,0,0,0,81,83,139,130,34,109.68,107,-109.00,120.00,-935.00
2024-06-07 11:22:40.024167,-6,-5,0,0,0,0,81,83,137,130,34,109.63,107,-94.00,154.00,-969.00
2024-06-07 11:22:40.127234,-6,-6,0,0,0,0,81,83,137,130,34,109.33,107,-75.00,139.00,-997.00
2024-06-07 11:22:40.248755,-6,-7,1,0,0,0,81,83,136,130,34,109.40,107,-67.00,121.00,-990.00
2024-06-07 11:22:40.336015,-5,-7,1,0,0,0,82,83,137,130,34,109.51,107,-111.00,112.00,-1040.00
2024-06-07 11:22:40.434080,-4,-6,1,0,0,0,82,83,136,130,34,109.47,108,-122.00,119.00,-1000.00
2024-06-07 11:22:40.534192,-6,-6,1,0,0,0,82,83,135,130,34,109.31,108,-69.00,134.00,-943.00
2024-06-07 11:22:40.636343,-6,-6,1,0,0,0,82,83,135,130,34,109.31,108,-83.00,126.00,-985.00
2024-06-07 11:22:40.760704,-5,-7,0,0,0,0,82,83,135,130,34,109.54,108,-139.00,97.00,-939.00
2024-06-07 11:22:40.840399,-3,-7,0,0,0,0,82,83,136,130,34,109.49,108,-149.00,69.00,-971.00
2024-06-07 11:22:40.965580,-4,-6,0,0,0,0,82,83,136,130,34,109.61,108,-115.00,93.00,-910.00
2024-06-07 11:22:41.044353,-5,-5,0,0,0,0,82,83,136,130,34,109.77,108,-115.00,136.00,-1010.00
2024-06-07 11:22:41.095083,-6,-4,0,0,0,0,82,83,136,130,34,109.53,108,-96.00,121.00,-1059.00
2024-06-07 11:22:41.272782,-5,-5,0,0,0,0,82,83,136,130,34,109.66,108,-90.00,114.00,-1006.00
2024-06-07 11:22:41.350267,-5,-6,0,0,0,0,81,83,137,130,34,109.45,108,-136.00,90.00,-993.00
2024-06-07 11:22:41.452269,-5,-6,0,0,0,0,81,83,138,130,34,109.38,109,-81.00,118.00,-977.00
2024-06-07 11:22:41.504272,-6,-6,0,0,0,0,81,83,139,130,34,109.72,109,-122.00,126.00,-962.00
2024-06-07 11:22:41.682432,-6,-5,0,0,0,0,81,83,137,130,34,109.38,109,-92.00,100.00,-1028.00
2024-06-07 11:22:41.709315,-6,-5,0,0,0,0,81,83,137,130,34,109.66,109,-92.00,106.00,-978.00
2024-06-07 11:22:41.887410,-5,-4,0,0,0,0,81,83,137,130,34,109.85,109,-80.00,112.00,-957.00
2024-06-07 11:22:41.912193,-5,-4,0,0,0,0,81,83,137,130,34,109.25,109,-69.00,66.00,-1010.00
2024-06-07 11:22:42.091995,-5,-5,0,0,0,0,81,83,138,130,34,109.69,109,-153.00,86.00,-1022.00
2024-06-07 11:22:42.116015,-4,-3,0,0,0,0,81,83,137,130,34,109.48,109,-120.00,77.00,-1009.00
2024-06-07 11:22:42.297348,-5,-3,0,0,0,0,81,83,137,130,34,109.84,109,-100.00,99.00,-989.00
2024-06-07 11:22:42.320038,-6,-3,0,0,0,0,80,83,136,130,34,109.74,109,-104.00,96.00,-906.00
2024-06-07 11:22:42.511803,-6,-3,0,0,0,0,80,83,135,130,34,109.71,110,-142.00,81.00,-959.00
2024-06-07 11:22:42.524151,-6,-4,0,0,0,0,80,83,135,130,34,109.63,110,-113.00,71.00,-973.00
2024-06-07 11:22:42.706478,-7,-4,0,0,0,0,80,83,135,130,34,109.57,110,-105.00,88.00,-965.00
2024-06-07 11:22:42.728165,-7,-3,0,0,0,0,80,83,133,130,34,109.34,110,-198.00,94.00,-1049.00
2024-06-07 11:22:42.911247,-7,-4,0,0,0,0,80,83,132,120,34,109.78,110,-95.00,91.00,-967.00
2024-06-07 11:22:42.931991,-7,-4,0,0,0,0,80,83,130,120,34,109.57,110,-121.00,97.00,-1083.00
2024-06-07 11:22:43.079172,-7,-4,0,0,0,0,80,83,131,120,34,109.54,110,-144.00,80.00,-998.00
2024-06-07 11:22:43.136470,-7,-5,0,0,0,0,80,83,131,120,34,109.60,110,-140.00,101.00,-940.00
2024-06-07 11:22:43.238065,-7,-4,1,0,0,0,80,83,131,120,34,109.51,110,-153.00,125.00,-1018.00
2024-06-07 11:22:43.340127,-7,-4,0,0,0,0,81,83,129,120,34,109.64,110,-121.00,89.00,-998.00
2024-06-07 11:22:43.525784,-7,-5,0,0,0,0,81,83,131,120,34,109.74,111,-148.00,127.00,-963.00
2024-06-07 11:22:43.544043,-7,-6,1,0,0,0,81,83,132,120,34,109.36,111,-121.00,155.00,-987.00
2024-06-07 11:22:43.648548,-8,-6,1,0,0,0,81,83,133,120,34,109.52,111,-151.00,151.00,-960.00
2024-06-07 11:22:43.748035,-8,-6,1,0,0,0,81,83,132,120,34,109.52,111,-140.00,160.00,-964.00
2024-06-07 11:22:43.937405,-8,-7,1,0,1,0,81,83,132,120,34,109.41,111,-144.00,144.00,-922.00
2024-06-07 11:22:43.952178,-8,-7,1,0,1,0,81,83,133,120,34,109.66,111,-107.00,126.00,-892.00
2024-06-07 11:22:44.140007,-8,-8,1,0,1,0,81,83,131,120,34,109.27,111,-144.00,113.00,-1031.00
2024-06-07 11:22:44.156080,-7,-8,1,0,0,0,81,83,132,120,34,109.41,111,-130.00,132.00,-1025.00
2024-06-07 11:22:44.345508,-7,-7,1,0,0,0,81,83,132,120,34,109.38,111,-103.00,130.00,-940.00
2024-06-07 11:22:44.359930,-7,-7,1,0,0,0,81,83,133,120,34,109.37,112,-96.00,119.00,-988.00
2024-06-07 11:22:44.462332,-6,-7,1,0,0,0,81,83,132,120,34,109.66,112,-73.00,129.00,-1010.00
2024-06-07 11:22:44.651953,-5,-7,1,1,0,0,81,83,132,120,34,109.49,112,-75.00,121.00,-991.00
2024-06-07 11:22:44.665966,-3,-8,0,1,0,0,81,83,132,120,34,109.79,112,-120.00,123.00,-1005.00
2024-06-07 11:22:44.857624,-4,-7,0,0,0,0,81,83,131,120,34,110.01,112,-64.00,151.00,-982.00
2024-06-07 11:22:44.869912,-3,-8,0,0,0,0,81,83,133,120,34,109.63,112,-78.00,132.00,-1061.00
2024-06-07 11:22:45.061590,-3,-7,1,0,0,0,81,83,133,120,34,109.51,112,-64.00,124.00,-1070.00
2024-06-07 11:22:45.073916,-3,-6,1,0,0,0,81,83,134,120,34,109.49,112,-91.00,136.00,-997.00
2024-06-07 11:22:45.125310,-4,-6,0,0,0,0,81,83,134,130,34,109.79,112,-103.00,98.00,-971.00
2024-06-07 11:22:45.266500,-4,-7,0,0,0,0,81,83,135,130,34,109.58,112,-101.00,102.00,-1051.00
2024-06-07 11:22:45.471252,-4,-6,0,0,0,0,81,83,135,130,34,109.59,113,-94.00,97.00,-968.00
2024-06-07 11:22:45.471433,-5,-5,0,0,0,0,81,83,136,130,34,109.06,113,-162.00,94.00,-967.00
2024-06-07 11:22:45.535069,-5,-6,0,-1,0,0,81,83,137,130,34,108.94,113,-160.00,69.00,-1003.00
2024-06-07 11:22:45.635326,-8,-5,0,-1,-1,0,81,83,140,130,34,109.41,113,-129.00,78.00,-961.00
2024-06-07 11:22:45.736847,-9,-3,0,-1,-1,0,81,83,139,130,34,109.16,113,-132.00,63.00,-967.00
2024-06-07 11:22:45.839243,-9,-3,0,-1,0,0,81,83,139,130,34,109.35,113,-152.00,79.00,-954.00
2024-06-07 11:22:45.944824,-10,-3,0,-1,0,0,81,83,141,130,34,109.48,113,-164.00,100.00,-982.00
2024-06-07 11:22:46.042882,-10,-5,0,-1,0,0,81,83,141,130,34,109.87,113,-119.00,49.00,-998.00
2024-06-07 11:22:46.144869,-9,-3,0,0,0,0,81,83,140,130,34,109.64,113,-130.00,79.00,-958.00
2024-06-07 11:22:46.290362,-9,-2,0,0,0,1,81,83,137,130,34,109.38,113,-141.00,73.00,-969.00
2024-06-07 11:22:46.349416,-8,-3,0,0,0,1,81,83,136,130,34,109.66,114,-199.00,89.00,-1043.00
2024-06-07 11:22:46.457194,-8,-3,0,0,0,0,81,83,135,120,34,109.51,114,-105.00,108.00,-1000.00
2024-06-07 11:22:46.553380,-8,-4,1,0,0,0,81,83,134,120,34,109.56,114,-160.00,89.00,-1044.00
2024-06-07 11:22:46.700132,-8,-4,1,0,0,0,81,83,133,120,34,109.50,114,-137.00,83.00,-1056.00
2024-06-07 11:22:46.757663,-8,-5,0,0,0,0,81,83,132,120,34,109.61,114,-167.00,45.00,-978.00
2024-06-07 11:22:46.858857,-8,-5,0,0,0,0,81,83,133,120,34,109.07,114,-152.00,49.00,-966.00
2024-06-07 11:22:47.007208,-8,-4,1,0,0,0,81,83,131,120,34,109.46,114,-123.00,60.00,-955.00
2024-06-07 11:22:47.062738,-8,-3,1,0,0,0,81,83,133,120,34,109.39,114,-142.00,77.00,-977.00
2024-06-07 11:22:47.211971,-8,-3,1,0,0,0,81,83,132,120,34,109.45,114,-103.00,110.00,-1049.00
2024-06-07 11:22:47.266818,-7,-3,1,0,0,0,81,83,132,120,34,109.58,114,-129.00,81.00,-1018.00
2024-06-07 11:22:47.417157,-6,-4,1,0,0,0,81,84,132,120,34,109.39,115,-115.00,85.00,-979.00
2024-06-07 11:22:47.470958,-6,-5,1,0,0,0,81,84,129,120,34,109.31,115,-138.00,83.00,-957.00
2024-06-07 11:22:47.621492,-6,-5,0,0,0,0,81,84,132,120,34,109.64,115,-178.00,76.00,-1054.00
2024-06-07 11:22:47.674759,-8,-4,1,0,0,0,81,84,133,120,34,109.12,115,-114.00,87.00,-986.00
2024-06-07 11:22:47.777283,-8,-4,1,0,0,0,81,84,132,120,34,109.14,115,-103.00,69.00,-989.00
2024-06-07 11:22:47.928992,-7,-4,1,0,0,0,81,84,132,120,34,109.55,115,-104.00,75.00,-969.00
2024-06-07 11:22:47.981072,-6,-4,1,0,0,0,81,84,131,120,34,109.14,115,-99.00,59.00,-1062.00
2024-06-07 11:22:48.133504,-6,-3,1,0,0,0,81,84,130,120,34,109.27,115,-159.00,91.00,-962.00
2024-06-07 11:22:48.184623,-6,-3,0,0,0,0,81,84,129,120,34,109.49,115,-138.00,74.00,-991.00
2024-06-07 11:22:48.338299,-6,-3,0,0,0,0,81,84,129,120,34,109.23,115,-147.00,86.00,-1055.00
2024-06-07 11:22:48.388707,-7,-3,0,0,0,0,81,84,128,120,34,109.41,116,-159.00,115.00,-1006.00
2024-06-07 11:22:48.543272,-8,-4,1,0,0,0,81,84,129,120,34,109.81,116,-189.00,99.00,-986.00
2024-06-07 11:22:48.592787,-8,-5,0,0,0,0,81,84,129,120,34,109.50,116,-124.00,125.00,-967.00
2024-06-07 11:22:48.747888,-9,-6,1,0,0,0,81,84,130,120,34,109.45,116,-161.00,124.00,-1037.00
2024-06-07 11:22:48.797200,-9,-6,1,0,0,0,81,84,130,120,34,109.08,116,-158.00,82.00,-1041.00
2024-06-07 11:22:48.952740,-9,-6,1,0,0,0,81,84,131,120,34,109.12,116,-159.00,123.00,-982.00
2024-06-07 11:22:48.952958,-9,-6,1,0,1,0,81,84,134,120,34,109.53,116,-134.00,105.00,-847.00
2024-06-07 11:22:49.052434,-10,-7,1,0,1,0,81,84,136,120,34,109.37,116,-150.00,80.00,-989.00
2024-06-07 11:22:49.154445,-10,-8,1,0,0,0,81,84,133,120,34,109.31,116,-135.00,74.00,-1026.00
2024-06-07 11:22:49.259928,-9,-7,1,0,0,0,81,84,133,120,34,109.15,116,-145.00,56.00,-1000.00
2024-06-07 11:22:49.357811,-10,-5,1,0,0,0,81,84,131,120,34,109.14,117,-120.00,78.00,-964.00
2024-06-07 11:22:49.474147,-10,-4,1,0,0,0,81,84,131,120,34,109.38,117,-150.00,57.00,-965.00
2024-06-07 11:22:49.561868,-10,-3,1,0,0,0,81,84,129,120,34,109.33,117,-145.00,80.00,-1030.00
2024-06-07 11:22:49.669479,-8,-4,1,0,0,0,81,84,130,120,34,108.97,117,-178.00,78.00,-1036.00
2024-06-07 11:22:49.765649,-8,-3,1,0,0,0,81,84,128,120,34,109.00,117,-122.00,97.00,-1011.00
2024-06-07 11:22:49.874173,-9,-4,0,0,0,0,81,84,128,120,34,109.08,117,-140.00,51.00,-1018.00
2024-06-07 11:22:49.969746,-9,-3,1,0,0,0,81,84,128,120,34,109.47,117,-150.00,67.00,-984.00
2024-06-07 11:22:50.079046,-8,-3,1,0,0,0,81,84,129,120,34,109.29,117,-140.00,85.00,-1078.00
2024-06-07 11:22:50.174477,-8,-3,0,0,0,0,81,84,130,120,34,109.19,117,-142.00,95.00,-1030.00
2024-06-07 11:22:50.284018,-8,-4,0,0,0,0,81,84,131,120,34,109.56,117,-177.00,119.00,-1008.00
2024-06-07 11:22:50.383899,-8,-5,1,0,0,0,82,84,132,120,34,109.63,118,-127.00,93.00,-962.00
2024-06-07 11:22:50.483537,-8,-5,1,0,0,0,82,84,131,120,34,109.26,118,-135.00,108.00,-952.00
2024-06-07 11:22:50.583512,-7,-5,1,0,0,0,82,84,133,120,34,109.39,118,-125.00,103.00,-983.00
2024-06-07 11:22:50.684602,-8,-4,1,0,0,0,82,84,131,120,34,109.40,118,-146.00,96.00,-951.00
2024-06-07 11:22:50.795902,-7,-5,0,0,0,0,82,84,132,120,34,109.52,118,-180.00,109.00,-944.00
2024-06-07 11:22:50.888752,-8,-6,0,0,0,0,82,84,133,120,34,109.83,118,-148.00,76.00,-977.00
2024-06-07 11:22:51.001022,-7,-8,0,0,0,0,82,84,136,120,34,109.19,118,-176.00,72.00,-1021.00
2024-06-07 11:22:51.092713,-8,-6,0,0,0,0,82,84,135,130,34,109.28,118,-190.00,83.00,-902.00
2024-06-07 11:22:51.194523,-9,-5,0,0,0,0,82,84,136,130,34,109.78,118,-113.00,87.00,-982.00
2024-06-07 11:22:51.307920,-10,-4,1,0,0,0,82,84,137,130,34,109.81,118,-108.00,95.00,-995.00
2024-06-07 11:22:51.398576,-9,-5,1,0,0,0,81,84,136,130,34,109.75,119,-102.00,80.00,-1006.00
2024-06-07 11:22:51.513028,-7,-6,1,0,0,0,81,84,136,130,34,109.45,119,-141.00,65.00,-1039.00
2024-06-07 11:22:51.602519,-6,-7,1,1,0,0,81,84,137,130,34,109.32,119,-122.00,107.00,-949.00
2024-06-07 11:22:51.719354,-5,-5,0,1,0,0,81,84,137,130,34,109.22,119,-98.00,35.00,-1039.00
2024-06-07 11:22:51.806528,-5,-4,0,0,0,0,81,84,135,130,34,109.03,119,-114.00,58.00,-929.00
2024-06-07 11:22:51.908837,-6,-3,1,0,-1,0,81,84,137,130,34,109.02,119,-87.00,54.00,-1008.00
2024-06-07 11:22:52.024677,-6,-2,0,0,0,0,81,84,135,130,34,108.98,119,-175.00,60.00,-999.00
2024-06-07 11:22:52.112490,-5,-2,0,0,0,0,81,84,135,130,34,108.99,119,-162.00,64.00,-1015.00
2024-06-07 11:22:52.230343,-7,-3,0,0,0,0,81,84,135,130,34,109.08,119,-153.00,73.00,-917.00
2024-06-07 11:22:52.316578,-9,-4,0,0,0,0,81,84,137,130,34,109.48,119,-145.00,75.00,-932.00
2024-06-07 11:22:52.434380,-10,-4,1,0,0,1,82,85,136,130,34,109.43,120,-111.00,68.00,-999.00
2024-06-07 11:22:52.520500,-9,-3,1,0,0,1,82,85,134,120,34,109.36,120,-117.00,90.00,-970.00
2024-06-07 11:22:52.639729,-7,-4,1,0,0,1,82,85,131,120,34,109.47,120,-115.00,98.00,-999.00
2024-06-07 11:22:52.673461,-7,-5,1,0,0,0,82,85,131,120,34,109.65,120,-151.00,94.00,-1014.00
2024-06-07 11:22:52.843893,-7,-6,1,0,0,0,82,85,129,120,34,109.36,120,-156.00,53.00,-1025.00
2024-06-07 11:22:52.877757,-8,-6,1,0,0,0,82,85,130,120,34,109.53,120,-151.00,100.00,-999.00
2024-06-07 11:22:53.048514,-9,-4,1,0,0,0,82,85,130,120,34,109.26,120,-147.00,109.00,-997.00
2024-06-07 11:22:53.081467,-8,-4,1,0,0,0,82,85,129,120,34,109.67,120,-178.00,93.00,-997.00
2024-06-07 11:22:53.254436,-7,-5,1,0,0,0,82,85,130,120,34,109.39,120,-168.00,105.00,-1043.00
2024-06-07 11:22:53.285493,-7,-5,1,0,0,0,82,85,130,120,34,109.26,120,-176.00,88.00,-1070.00
2024-06-07 11:22:53.458155,-8,-5,1,0,0,-1,81,84,131,120,34,109.10,121,-145.00,60.00,-935.00
2024-06-07 11:22:53.494615,-9,-6,1,0,0,-1,81,84,133,120,34,109.63,121,-161.00,70.00,-959.00
2024-06-07 11:22:53.591510,-9,-4,1,0,0,-1,81,84,134,120,34,109.31,121,-178.00,89.00,-970.00
2024-06-07 11:22:53.765322,-8,-4,0,0,0,0,81,84,135,120,34,109.37,121,-189.00,69.00,-976.00
2024-06-07 11:22:53.795232,-8,-4,1,0,0,0,81,84,137,130,34,109.12,121,-146.00,90.00,-960.00
2024-06-07 11:22:53.970665,-10,-4,1,0,0,0,81,84,136,130,34,108.98,121,-166.00,92.00,-974.00
2024-06-07 11:22:53.999369,-11,-4,1,0,0,0,81,84,136,130,34,109.19,121,-173.00,126.00,-927.00
2024-06-07 11:22:54.102911,-10,-3,1,0,0,0,81,84,134,130,34,109.28,121,-191.00,93.00,-1012.00
2024-06-07 11:22:54.203368,-10,-4,1,0,0,0,81,84,135,130,34,109.23,121,-158.00,72.00,-957.00
2024-06-07 11:22:54.379647,-11,-4,1,0,0,1,81,84,133,120,34,109.17,121,-167.00,68.00,-932.00
2024-06-07 11:22:54.407281,-10,-4,1,0,0,1,82,85,131,120,34,109.27,122,-149.00,106.00,-926.00
2024-06-07 11:22:54.584511,-10,-5,1,0,0,2,82,85,129,120,34,109.40,122,-118.00,78.00,-840.00
2024-06-07 11:22:54.611368,-10,-4,1,0,0,3,82,85,125,120,34,109.19,122,-152.00,100.00,-872.00
2024-06-07 11:22:54.789318,-9,-4,1,0,0,4,82,85,121,110,34,108.87,122,-92.00,89.00,-867.00
2024-06-07 11:22:54.819085,-8,-5,1,0,0,5,82,85,115,110,34,109.19,122,-134.00,88.00,-870.00
2024-06-07 11:22:54.918361,-8,-5,1,0,0,6,82,85,109,100,34,109.16,122,-110.00,74.00,-952.00
2024-06-07 11:22:55.097002,-7,-5,1,0,0,6,82,85,101,100,34,109.01,122,-103.00,82.00,-964.00
2024-06-07 11:22:55.121257,-7,-5,0,0,0,7,82,85,94,90,34,109.08,122,-118.00,83.00,-977.00
2024-06-07 11:22:55.301218,-6,-5,0,0,0,7,82,85,87,80,34,108.87,122,-131.00,80.00,-997.00
2024-06-07 11:22:55.325264,-6,-5,0,0,0,7,82,85,79,80,34,108.94,122,-105.00,89.00,-1072.00
2024-06-07 11:22:55.506087,-6,-4,0,0,0,6,83,84,69,70,34,108.58,123,-96.00,73.00,-1091.00
2024-06-07 11:22:55.530615,-6,-4,0,0,0,6,83,84,62,60,34,108.60,123,-133.00,82.00,-1040.00
2024-06-07 11:22:55.711834,-7,-4,0,0,0,5,83,84,57,60,34,108.69,123,-150.00,64.00,-961.00
2024-06-07 11:22:55.733218,-7,-5,0,0,0,5,83,84,51,50,34,108.19,123,-220.00,61.00,-1005.00
2024-06-07 11:22:55.835146,-8,-3,0,0,0,5,83,84,46,40,34,108.38,123,-129.00,62.00,-1035.00
2024-06-07 11:22:55.937200,-8,-4,0,0,0,5,83,84,41,40,34,108.57,123,-144.00,33.00,-1011.00
2024-06-07 11:22:56.120477,-8,-3,0,0,-1,5,83,84,36,30,34,108.12,123,-107.00,83.00,-1019.00
2024-06-07 11:22:56.141227,-7,-2,0,0,-1,4,83,84,32,30,34,107.97,123,-106.00,45.00,-1043.00
2024-06-07 11:22:56.192199,-6,-2,1,0,-1,4,83,84,27,30,34,108.20,123,-96.00,49.00,-996.00
2024-06-07 11:22:56.325292,-6,-1,1,0,0,3,83,84,24,20,34,108.12,123,-104.00,64.00,-979.00
2024-06-07 11:22:56.447372,-6,-2,1,1,0,3,81,85,24,20,34,107.91,124,-123.00,27.00,-972.00
2024-06-07 11:22:56.634312,-5,-3,1,1,0,4,81,85,18,10,34,107.75,124,-153.00,33.00,-1014.00
2024-06-07 11:22:56.634402,-5,-3,1,1,-1,4,81,85,17,10,34,107.49,124,-129.00,65.00,-933.00
2024-06-07 11:22:56.702020,-5,-1,0,1,-1,4,81,85,12,10,34,106.87,124,-60.00,73.00,-1060.00
2024-06-07 11:22:56.837274,-5,-2,0,1,0,4,81,85,10,0,34,106.48,124,-80.00,56.00,-1023.00
2024-06-07 11:22:56.906286,-5,-4,0,1,0,3,81,85,10,0,34,105.33,124,-60.00,53.00,-1086.00
2024-06-07 11:22:57.042086,-2,-1,0,2,0,3,81,85,10,0,34,105.52,124,20.00,-43.00,-1283.00
2024-06-07 11:22:57.110178,0,-5,1,1,0,0,81,85,10,0,34,105.92,124,-27.00,39.00,-802.00
2024-06-07 11:22:57.246958,-3,-2,1,0,0,0,81,85,10,0,34,106.06,124,-4.00,41.00,-1112.00
2024-06-07 11:22:57.314129,0,-1,2,0,0,0,81,85,10,0,34,105.95,124,14.00,43.00,-1012.00
2024-06-07 11:22:57.451683,0,-1,2,0,0,0,82,85,10,0,34,106.87,125,9.00,10.00,-972.00
2024-06-07 11:22:57.518079,0,-1,2,0,0,0,82,85,10,0,34,106.58,125,-9.00,42.00,-965.00
2024-06-07 11:22:57.656546,0,-1,1,0,0,0,82,85,10,0,34,106.91,125,-27.00,23.00,-1001.00
2024-06-07 11:22:57.722309,0,-1,1,0,0,0,82,85,10,0,34,106.67,125,-1.00,23.00,-1009.00
2024-06-07 11:22:57.861346,0,-1,1,0,0,0,82,85,10,0,34,107.17,125,31.00,12.00,-1014.00
2024-06-07 11:22:57.927864,0,-1,1,0,0,0,82,85,10,0,34,107.17,125,24.00,22.00,-1006.00
2024-06-07 11:22:58.066138,0,-1,1,1,0,0,82,85,10,0,34,107.62,125,31.00,22.00,-1008.00
2024-06-07 11:22:58.131217,0,-1,1,1,0,0,82,85,10,0,34,107.79,125,16.00,47.00,-1006.00
2024-06-07 11:22:58.270941,0,-1,1,1,0,0,82,85,10,0,34,108.28,125,35.00,24.00,-1007.00
2024-06-07 11:22:58.335169,0,-1,1,1,0,0,82,85,10,0,34,108.37,125,29.00,21.00,-1000.00
2024-06-07 11:22:58.475769,2,0,1,1,0,0,82,84,10,0,34,108.36,125,15.00,25.00,-1033.00
2024-06-07 11:22:58.539351,2,0,1,1,0,-1,82,84,10,0,34,108.26,125,38.00,20.00,-1007.00
2024-06-07 11:22:58.646496,2,0,1,2,0,-1,82,84,10,0,34,108.67,125,58.00,-2.00,-1014.00
2024-06-07 11:22:58.743403,2,0,1,2,0,-1,82,84,10,0,34,108.22,125,52.00,-7.00,-995.00
2024-06-07 11:22:58.885425,2,0,1,2,0,-1,82,84,10,0,34,108.64,125,48.00,2.00,-1003.00
2024-06-07 11:22:58.947200,2,0,1,0,0,-1,82,84,10,0,34,108.38,125,57.00,-1.00,-1006.00
2024-06-07 11:22:59.091915,2,0,1,0,0,-1,82,84,10,0,34,108.22,125,51.00,0.00,-997.00
2024-06-07 11:22:59.155453,2,0,1,0,0,-1,82,84,10,0,34,108.11,125,54.00,2.00,-1005.00
2024-06-07 11:22:59.253032,2,0,1,0,0,-1,82,84,10,0,34,108.57,125,55.00,0.00,-1001.00
2024-06-07 11:22:59.397378,2,0,1,0,0,-1,82,84,10,0,34,108.71,125,54.00,0.00,-1004.00
2024-06-07 11:22:59.456894,2,0,1,0,0,-1,81,84,10,0,34,108.63,125,54.00,0.00,-1001.00
2024-06-07 11:22:59.602144,2,0,1,0,0,0,81,84,10,0,34,108.26,125,53.00,0.00,-1003.00
2024-06-07 11:22:59.661089,2,0,1,0,0,0,81,84,10,0,34,108.34,125,56.00,0.00,-1004.00
2024-06-07 11:22:59.806981,2,0,1,0,0,0,81,84,10,0,34,108.49,125,55.00,0.00,-1003.00
2024-06-07 11:22:59.814047,2,0,1,0,0,0,81,84,10,0,34,108.82,125,54.00,0.00,-1004.00
2024-06-07 11:23:00.011976,2,0,1,0,0,0,81,84,10,0,34,108.37,125,54.00,2.00,-1007.00
2024-06-07 11:23:00.018066,2,0,1,0,0,0,81,84,10,0,34,108.32,125,54.00,0.00,-1004.00
2024-06-07 11:23:00.216326,2,0,1,0,0,0,81,84,10,0,34,108.45,125,55.00,0.00,-1003.00
2024-06-07 11:23:00.222012,2,0,1,0,0,0,81,84,10,0,34,108.32,125,55.00,2.00,-1006.00
2024-06-07 11:23:00.323935,2,0,1,0,0,0,81,84,10,0,34,108.47,125,54.00,0.00,-1006.00
2024-06-07 11:23:00.523744,2,0,1,0,0,0,82,84,10,0,34,108.59,125,54.00,1.00,-1003.00
2024-06-07 11:23:00.527948,2,0,1,0,0,0,82,84,10,0,34,108.42,125,53.00,1.00,-1005.00
2024-06-07 11:23:00.728723,2,0,1,0,0,0,82,84,10,0,34,108.23,125,54.00,0.00,-1002.00
2024-06-07 11:23:00.732065,2,0,1,0,0,0,82,84,10,0,34,108.39,125,55.00,1.00,-1001.00
2024-06-07 11:23:00.833896,2,0,1,0,0,0,82,84,10,0,34,108.56,125,55.00,1.00,-1003.00
2024-06-07 11:23:00.936276,2,0,1,0,0,0,82,84,10,0,34,108.64,125,53.00,0.00,-1004.00
2024-06-07 11:23:01.038167,2,0,1,0,0,0,82,84,10,0,34,108.36,125,54.00,1.00,-1004.00
2024-06-07 11:23:01.140016,2,0,1,0,0,0,82,84,10,0,34,108.26,125,54.00,1.00,-1006.00
2024-06-07 11:23:01.343411,2,0,1,0,0,0,82,84,10,0,34,108.65,125,54.00,0.00,-1005.00
2024-06-07 11:23:01.343920,2,0,1,0,0,0,82,84,10,0,34,108.46,125,55.00,3.00,-1005.00
2024-06-07 11:23:01.547992,2,0,1,0,0,0,82,83,10,0,34,108.46,125,53.00,1.00,-1004.00
2024-06-07 11:23:01.548083,2,0,1,0,0,0,82,83,10,0,34,108.77,125,54.00,1.00,-1003.00
2024-06-07 11:23:01.650408,2,0,1,0,0,0,82,83,10,0,34,108.23,125,53.00,2.00,-1003.00
