TS,pitch,roll,yaw,vgx,vgy,vgz,templ,temph,tof,h,bat,baro,time,agx,agy,agz
2024-06-07 11:23:31.960308,0,0,0,0,0,0,84,85,10,0,34,108.21,125,6.00,15.00,-998.00
2024-06-07 11:23:31.995364,0,0,0,0,0,0,84,85,10,0,34,108.52,125,7.00,12.00,-1000.00
2024-06-07 11:23:32.096148,0,0,0,0,0,0,84,85,10,0,34,108.43,125,7.00,13.00,-999.00
2024-06-07 11:23:32.267525,0,0,0,0,0,0,84,85,10,0,34,108.55,125,6.00,14.00,-1002.00
2024-06-07 11:23:32.301189,0,0,0,0,0,0,84,85,10,0,34,108.27,125,6.00,13.00,-1000.00
2024-06-07 11:23:32.472185,0,0,0,0,0,0,84,85,10,0,34,108.47,125,5.00,13.00,-1001.00
2024-06-07 11:23:32.504161,0,0,0,0,0,0,84,85,10,0,34,108.58,125,4.00,13.00,-1001.00
2024-06-07 11:23:32.606384,0,0,0,0,0,0,84,86,10,0,34,108.46,125,6.00,14.00,-998.00
2024-06-07 11:23:32.779411,0,0,0,0,0,0,84,86,10,0,34,108.59,125,6.00,14.00,-1002.00
2024-06-07 11:23:32.810062,0,0,0,0,0,0,84,86,10,0,34,108.43,125,6.00,15.00,-999.00
2024-06-07 11:23:32.984754,0,0,0,0,0,0,84,86,10,0,34,108.37,125,6.00,14.00,-1000.00
2024-06-07 11:23:33.014196,0,0,0,0,0,0,84,86,10,0,34,108.37,125,7.00,12.00,-998.00
2024-06-07 11:23:33.189210,0,0,0,0,0,0,84,86,10,0,34,108.36,125,7.00,13.00,-998.00
2024-06-07 11:23:33.218114,0,0,0,0,0,0,84,86,10,0,34,108.09,125,7.00,12.00,-1002.00
2024-06-07 11:23:33.393851,0,0,0,0,0,0,84,86,10,0,34,108.38,125,6.00,13.00,-999.00
2024-06-07 11:23:33.422142,0,0,0,0,0,0,84,86,10,0,34,108.28,125,5.00,12.00,-1001.00
2024-06-07 11:23:33.598740,0,0,0,0,0,0,84,86,10,0,34,108.46,125,4.00,14.00,-999.00
2024-06-07 11:23:33.625955,0,0,0,0,0,0,85,86,10,0,34,108.45,125,6.00,13.00,-1001.00
2024-06-07 11:23:33.803312,0,0,0,0,0,0,85,86,10,0,34,108.12,125,6.00,13.00,-999.00
2024-06-07 11:23:33.829996,0,0,0,0,0,0,85,86,10,0,34,108.21,125,6.00,12.00,-1000.00
2024-06-07 11:23:33.931926,0,0,0,0,0,0,85,86,10,0,34,108.33,125,5.00,13.00,-1000.00
2024-06-07 11:23:34.110504,0,0,0,0,0,0,85,86,10,0,34,108.59,125,-7.00,24.00,-998.00
2024-06-07 11:23:34.110879,0,0,0,0,0,0,85,86,10,0,34,108.36,125,5.00,6.00,-1003.00
2024-06-07 11:23:34.187216,0,0,0,0,0,0,85,86,10,0,34,108.36,126,-3.00,28.00,-1001.00
2024-06-07 11:23:34.315322,0,0,0,0,0,0,85,86,10,0,34,108.36,126,8.00,20.00,-995.00
2024-06-07 11:23:34.391147,0,0,0,0,0,0,85,86,10,0,34,108.36,126,1.00,11.00,-1016.00
2024-06-07 11:23:34.520050,0,0,0,0,0,0,85,86,10,0,34,108.36,126,-13.00,5.00,-1071.00
2024-06-07 11:23:34.595152,0,-1,0,0,0,0,85,86,10,0,34,108.36,126,26.00,5.00,-1189.00
2024-06-07 11:23:34.724849,2,-1,0,0,0,-2,85,86,10,0,34,108.36,126,-62.00,-3.00,-1308.00
2024-06-07 11:23:34.798987,0,0,0,0,0,-5,85,86,15,0,34,108.36,126,-26.00,8.00,-1187.00
2024-06-07 11:23:34.901098,-2,1,0,0,0,-7,85,86,23,10,34,108.56,126,-13.00,-9.00,-1046.00
2024-06-07 11:23:35.032074,-2,0,0,0,0,-7,85,86,28,10,34,109.09,126,-17.00,-26.00,-995.00
2024-06-07 11:23:35.105206,-1,0,0,0,0,-7,85,86,36,20,34,108.67,126,-19.00,-18.00,-1040.00
2024-06-07 11:23:35.236894,-1,0,0,0,0,-7,85,86,41,30,34,108.87,127,-21.00,-26.00,-933.00
2024-06-07 11:23:35.309169,-2,1,0,0,0,-6,85,86,48,30,34,108.84,127,-38.00,-10.00,-892.00
2024-06-07 11:23:35.441734,-2,1,0,0,0,-5,85,86,54,40,34,109.06,127,-9.00,-23.00,-912.00
2024-06-07 11:23:35.513125,-2,1,0,0,0,-5,85,86,60,40,34,109.41,127,-36.00,-45.00,-909.00
2024-06-07 11:23:35.615127,-1,1,0,0,0,-4,85,87,65,50,34,109.40,127,-36.00,-18.00,-920.00
2024-06-07 11:23:35.748901,-2,2,0,0,0,-3,85,87,69,50,34,109.06,127,-30.00,-11.00,-950.00
2024-06-07 11:23:35.819096,-2,2,0,0,0,-2,85,87,72,60,34,109.32,127,-97.00,21.00,-937.00
2024-06-07 11:23:35.954272,-2,1,0,0,0,-1,85,87,74,60,34,109.39,127,-95.00,-9.00,-985.00
2024-06-07 11:23:36.022941,-3,0,0,-1,0,-1,85,87,76,60,34,109.28,127,-87.00,-31.00,-939.00
2024-06-07 11:23:36.158507,-4,1,0,-1,0,-1,85,87,77,60,34,109.16,127,-96.00,-24.00,-912.00
2024-06-07 11:23:36.227342,-5,1,0,-1,0,0,85,87,79,60,34,109.31,128,-75.00,-16.00,-956.00
2024-06-07 11:23:36.363317,-5,1,0,-1,0,0,85,87,79,60,34,109.54,128,-77.00,-21.00,-962.00
2024-06-07 11:23:36.431026,-5,1,0,0,0,0,85,87,79,60,34,109.45,128,-118.00,-13.00,-995.00
2024-06-07 11:23:36.568084,-5,1,0,-1,0,0,85,87,79,60,34,109.48,128,-99.00,-24.00,-990.00
2024-06-07 11:23:36.635022,-6,0,0,-1,0,0,85,86,80,60,34,109.36,128,-91.00,-33.00,-988.00
2024-06-07 11:23:36.772891,-6,1,0,0,0,0,85,86,81,70,34,109.59,128,-102.00,-44.00,-1009.00
2024-06-07 11:23:36.839150,-6,2,0,0,0,0,85,86,81,70,34,109.68,128,-78.00,-26.00,-960.00
2024-06-07 11:23:36.977690,-6,2,0,0,0,0,85,86,82,70,34,109.44,128,-81.00,-28.00,-978.00
2024-06-07 11:23:37.043107,-5,1,0,0,0,0,85,86,82,70,34,109.31,128,-111.00,-4.00,-959.00
2024-06-07 11:23:37.182580,-5,1,0,0,0,0,85,86,83,70,34,109.53,128,-121.00,-9.00,-988.00
2024-06-07 11:23:37.248859,-5,1,0,0,0,0,85,86,83,70,34,109.39,129,-85.00,-24.00,-964.00
2024-06-07 11:23:37.387364,-5,2,0,0,0,0,85,86,83,70,34,109.04,129,-87.00,-28.00,-987.00
2024-06-07 11:23:37.453213,-5,1,0,0,0,0,85,86,83,70,34,109.29,129,-157.00,-6.00,-955.00
2024-06-07 11:23:37.503001,-5,0,0,0,0,0,85,86,83,70,34,109.39,129,-60.00,-6.00,-988.00
2024-06-07 11:23:37.694569,-5,0,0,0,0,0,85,87,82,70,34,109.43,129,-73.00,-32.00,-1000.00
2024-06-07 11:23:37.707022,-4,0,0,0,0,0,85,87,81,70,34,108.98,129,-83.00,-14.00,-977.00
2024-06-07 11:23:37.899450,-4,0,0,0,0,0,85,87,80,70,34,109.03,129,-83.00,-6.00,-980.00
2024-06-07 11:23:37.910979,-5,0,0,0,0,0,85,87,80,70,34,109.38,129,-72.00,-10.00,-981.00
2024-06-07 11:23:38.104043,-4,1,0,0,0,0,85,87,79,70,34,109.55,129,-104.00,-20.00,-983.00
2024-06-07 11:23:38.115083,-4,0,0,0,0,0,85,87,79,70,34,109.33,129,-85.00,-3.00,-962.00
2024-06-07 11:23:38.308948,-5,0,0,0,0,0,85,87,79,70,34,109.45,130,-97.00,-9.00,-1043.00
2024-06-07 11:23:38.320387,-4,0,0,0,0,0,85,87,78,70,34,109.17,130,-92.00,-7.00,-1003.00
2024-06-07 11:23:38.513703,-4,0,0,0,0,0,85,87,78,70,34,109.37,130,-61.00,-45.00,-993.00
2024-06-07 11:23:38.523070,-3,0,0,0,0,0,85,87,77,70,34,109.23,130,-65.00,-10.00,-1006.00
2024-06-07 11:23:38.625920,-3,0,0,0,0,0,85,87,77,70,34,109.30,130,-57.00,-16.00,-1039.00
2024-06-07 11:23:38.820946,-4,0,0,0,0,0,85,87,76,60,34,108.82,130,-65.00,4.00,-1036.00
2024-06-07 11:23:38.828974,-4,0,0,0,0,0,85,87,76,60,34,109.15,130,-94.00,0.00,-989.00
2024-06-07 11:23:39.025679,-4,0,0,0,0,0,85,87,76,60,34,108.79,130,-81.00,12.00,-926.00
2024-06-07 11:23:39.033439,-4,0,0,0,0,0,85,87,76,60,34,108.95,130,-98.00,-5.00,-1026.00
2024-06-07 11:23:39.231273,-4,0,0,0,0,0,85,87,77,60,34,108.96,131,-74.00,9.00,-1005.00
2024-06-07 11:23:39.236995,-4,0,0,0,0,0,85,87,76,60,34,109.14,131,-41.00,-11.00,-1023.00
2024-06-07 11:23:39.435330,-4,0,0,0,0,0,85,87,78,60,34,109.14,131,-78.00,-14.00,-1027.00
2024-06-07 11:23:39.441275,-3,0,0,0,0,0,85,87,78,60,34,109.00,131,-90.00,-11.00,-928.00
2024-06-07 11:23:39.640290,-3,1,0,0,0,0,85,87,78,60,34,108.87,131,-54.00,-15.00,-1050.00
2024-06-07 11:23:39.645030,-3,1,0,0,0,0,85,87,79,60,34,108.93,131,-71.00,-5.00,-1003.00
2024-06-07 11:23:39.845106,-3,1,0,0,0,0,85,87,79,70,34,109.10,131,-78.00,-10.00,-994.00
2024-06-07 11:23:39.849310,-3,1,0,0,0,0,85,87,79,70,34,109.06,131,-82.00,0.00,-987.00
2024-06-07 11:23:40.049915,-3,0,0,0,0,0,85,87,80,70,34,109.09,131,-90.00,12.00,-1022.00
2024-06-07 11:23:40.053305,-4,0,0,0,0,0,85,87,80,70,34,109.39,131,-105.00,6.00,-1013.00
2024-06-07 11:23:40.155181,-4,0,0,0,0,0,85,87,80,70,34,109.13,132,-78.00,-3.00,-1003.00
2024-06-07 11:23:40.257358,-4,0,0,0,0,0,85,87,80,70,34,109.11,132,-60.00,-14.00,-1026.00
2024-06-07 11:23:40.358992,-4,0,0,0,0,0,85,87,80,70,34,108.89,132,-101.00,-18.00,-990.00
2024-06-07 11:23:40.561868,-4,1,0,0,0,0,85,87,80,70,34,109.38,132,-86.00,29.00,-1015.00
2024-06-07 11:23:40.563066,-4,1,0,0,0,0,85,87,80,70,34,109.18,132,-87.00,-14.00,-970.00
2024-06-07 11:23:40.766599,-4,0,0,0,0,0,85,87,80,70,34,109.07,132,-67.00,-22.00,-1014.00
2024-06-07 11:23:40.766795,-5,0,0,0,0,0,85,87,81,70,34,109.00,132,-46.00,-22.00,-1015.00
2024-06-07 11:23:40.869417,-4,0,0,0,0,0,85,87,80,70,34,109.25,132,-67.00,-9.00,-1022.00
2024-06-07 11:23:40.971184,-4,1,0,0,0,0,85,87,81,70,34,109.03,132,-75.00,-27.00,-1012.00
2024-06-07 11:23:41.073863,-4,1,0,0,0,0,85,87,80,70,34,109.23,132,-72.00,-33.00,-992.00
2024-06-07 11:23:41.176222,-3,2,0,0,0,0,85,87,81,70,34,109.21,133,-106.00,-15.00,-1005.00
2024-06-07 11:23:41.278611,-4,2,0,0,0,0,85,87,81,70,34,109.17,133,-73.00,-2.00,-990.00
2024-06-07 11:23:41.381494,-5,1,0,0,0,0,85,87,81,70,34,109.03,133,-101.00,5.00,-991.00
2024-06-07 11:23:41.429691,-5,0,0,0,0,0,85,87,82,70,34,109.47,133,-36.00,-9.00,-1005.00
2024-06-07 11:23:41.532250,-4,0,0,0,0,0,85,87,81,70,34,109.17,133,-51.00,-33.00,-1030.00
2024-06-07 11:23:41.688076,-3,1,0,0,0,0,85,88,81,70,34,108.85,133,-80.00,-42.00,-1079.00
2024-06-07 11:23:41.786800,-3,1,0,0,0,-1,85,88,81,70,34,109.14,133,-69.00,-19.00,-1093.00
2024-06-07 11:23:41.892847,-3,1,0,0,0,-2,85,88,84,70,34,109.18,133,-36.00,-45.00,-1119.00
2024-06-07 11:23:41.990763,-3,1,0,0,0,-3,85,88,86,70,34,109.12,133,-55.00,-49.00,-1053.00
2024-06-07 11:23:42.041727,-3,2,0,0,0,-3,85,88,90,80,34,109.19,133,-57.00,-56.00,-1094.00
2024-06-07 11:23:42.200037,-3,2,0,0,0,-4,85,88,95,80,34,109.12,134,-57.00,-37.00,-1052.00
2024-06-07 11:23:42.251921,-3,2,0,0,0,-4,85,88,100,80,34,109.25,134,-64.00,-63.00,-1011.00
2024-06-07 11:23:42.347571,-3,2,0,0,0,-4,85,88,106,90,34,109.25,134,-42.00,-48.00,-1086.00
2024-06-07 11:23:42.507231,-3,2,0,0,0,-5,85,88,111,90,34,109.62,134,-61.00,-74.00,-1018.00
2024-06-07 11:23:42.551452,-3,2,0,0,0,-5,85,88,116,100,34,109.37,134,-57.00,-66.00,-1000.00
2024-06-07 11:23:42.711984,-3,3,0,0,0,-5,85,88,123,100,34,109.65,134,-100.00,-20.00,-962.00
2024-06-07 11:23:42.755577,-2,3,0,0,0,-5,85,88,128,110,34,109.26,134,-51.00,-32.00,-944.00
2024-06-07 11:23:42.858006,-3,2,0,0,0,-4,85,88,134,120,34,109.65,134,-31.00,-46.00,-1003.00
2024-06-07 11:23:43.019256,-2,2,0,0,0,-4,85,88,138,120,34,109.72,134,-101.00,-19.00,-1000.00
2024-06-07 11:23:43.061668,-3,3,0,0,0,-4,85,88,143,120,34,109.59,134,-19.00,-29.00,-1017.00
2024-06-07 11:23:43.224038,-3,3,0,0,0,-4,85,88,151,130,34,109.68,135,-40.00,-50.00,-961.00
2024-06-07 11:23:43.265506,-3,2,0,0,0,-4,85,88,154,130,34,109.70,135,-43.00,-43.00,-995.00
2024-06-07 11:23:43.428843,-3,1,0,0,0,-4,85,88,160,140,34,109.95,135,-62.00,-20.00,-983.00
2024-06-07 11:23:43.470150,-3,1,0,0,0,-3,85,88,162,140,34,109.89,135,-26.00,-33.00,-906.00
2024-06-07 11:23:43.634114,-3,1,0,0,0,-3,85,88,165,150,34,110.16,135,-28.00,-22.00,-957.00
2024-06-07 11:23:43.673455,-2,1,0,0,0,-2,85,87,167,150,34,109.85,135,-39.00,-56.00,-902.00
2024-06-07 11:23:43.838441,-1,1,0,0,0,-2,85,87,171,150,34,110.05,135,-34.00,-37.00,-934.00
2024-06-07 11:23:43.877383,-1,0,0,0,0,-2,85,87,172,160,34,109.95,135,-66.00,-65.00,-930.00
2024-06-07 11:23:44.043314,-1,2,0,0,0,-1,85,87,175,160,34,110.05,135,-39.00,-16.00,-1003.00
2024-06-07 11:23:44.081656,-2,1,0,0,0,-1,85,87,177,160,34,110.20,135,-43.00,-50.00,-974.00
2024-06-07 11:23:44.248162,-2,2,0,0,0,-1,85,87,176,160,34,109.80,136,-51.00,-40.00,-1031.00
2024-06-07 11:23:44.285432,-2,2,0,0,0,-1,85,87,177,160,34,110.30,136,-54.00,-31.00,-1005.00
2024-06-07 11:23:44.459539,-2,2,0,0,0,0,85,87,181,160,34,110.01,136,-84.00,-52.00,-939.00
2024-06-07 11:23:44.489437,-3,2,0,0,0,0,85,87,179,160,34,110.32,136,-72.00,-22.00,-965.00
2024-06-07 11:23:44.591483,-4,1,0,0,0,0,85,87,180,160,34,109.78,136,-61.00,-10.00,-992.00
2024-06-07 11:23:44.760270,-4,1,0,0,0,0,85,87,180,160,34,110.01,136,-28.00,-33.00,-1029.00
2024-06-07 11:23:44.795468,-4,1,0,0,0,0,85,87,180,160,34,109.95,136,-59.00,-19.00,-982.00
2024-06-07 11:23:44.964983,-4,0,0,0,0,0,85,87,181,160,34,109.91,136,-44.00,-49.00,-1016.00
2024-06-07 11:23:44.999655,-3,2,0,0,0,0,85,87,182,160,34,110.21,136,-52.00,-21.00,-1010.00
2024-06-07 11:23:45.103199,-3,2,0,0,0,0,85,87,181,170,34,110.26,136,-55.00,-56.00,-994.00
2024-06-07 11:23:45.153645,-3,1,0,0,0,0,85,87,186,170,34,110.08,137,-85.00,-21.00,-985.00
2024-06-07 11:23:45.255522,-3,1,0,0,0,0,85,87,183,170,34,109.63,137,-43.00,-39.00,-979.00
2024-06-07 11:23:45.374922,-3,2,0,0,0,0,85,87,185,170,34,109.76,137,-11.00,-64.00,-959.00
2024-06-07 11:23:45.459510,-3,2,0,0,0,0,85,87,185,170,34,109.75,137,-79.00,-37.00,-1008.00
2024-06-07 11:23:45.579401,-3,2,0,0,0,0,85,87,185,170,34,110.11,137,-65.00,-37.00,-983.00
2024-06-07 11:23:45.667596,-3,2,0,0,0,0,85,88,183,170,34,109.79,137,-25.00,-78.00,-986.00
2024-06-07 11:23:45.765448,-3,2,0,0,0,0,85,88,183,170,34,109.51,137,-87.00,2.00,-954.00
2024-06-07 11:23:45.867587,-2,2,0,0,0,0,85,88,181,170,34,110.05,137,-76.00,-39.00,-951.00
2024-06-07 11:23:45.970553,-3,1,0,0,0,0,85,88,181,170,34,110.19,137,-65.00,-34.00,-993.00
2024-06-07 11:23:46.072154,-3,2,0,0,0,0,85,88,180,170,34,110.04,137,-38.00,-50.00,-1016.00
2024-06-07 11:23:46.193806,-3,2,0,0,0,0,85,88,179,170,34,110.08,138,-22.00,-52.00,-953.00
2024-06-07 11:23:46.276848,-2,2,0,0,0,0,85,88,178,160,34,110.17,138,-39.00,-46.00,-1026.00
2024-06-07 11:23:46.379086,-2,2,0,0,0,0,85,88,178,160,34,110.06,138,-10.00,-38.00,-1009.00
2024-06-07 11:23:46.479421,-2,2,0,0,0,0,85,88,179,160,34,110.09,138,7.00,-23.00,-987.00
2024-06-07 11:23:46.581295,-1,2,0,0,0,0,85,88,177,160,34,109.90,138,-18.00,-53.00,-955.00
2024-06-07 11:23:46.706778,-1,1,0,0,0,1,84,87,175,160,34,110.00,138,-27.00,-52.00,-956.00
2024-06-07 11:23:46.785223,-1,2,0,0,0,1,84,87,173,160,34,109.92,138,-49.00,-30.00,-946.00
2024-06-07 11:23:46.910419,0,2,0,0,0,2,84,87,171,160,34,109.92,138,-32.00,-10.00,-1013.00
2024-06-07 11:23:46.989366,0,2,0,0,0,2,84,87,171,160,34,109.96,138,-58.00,8.00,-997.00
2024-06-07 11:23:47.092528,0,1,0,0,0,2,84,87,168,150,34,110.09,138,-47.00,-16.00,-966.00
2024-06-07 11:23:47.193277,-1,0,0,0,0,2,84,87,166,150,34,109.93,139,-68.00,11.00,-999.00
2024-06-07 11:23:47.320012,-2,0,0,0,0,2,84,87,164,150,34,109.53,139,-67.00,-11.00,-967.00
2024-06-07 11:23:47.397233,-3,0,0,0,0,2,84,87,163,150,34,109.62,139,-57.00,-5.00,-1014.00
2024-06-07 11:23:47.524805,-3,0,0,0,0,2,84,87,159,140,34,110.01,139,-78.00,16.00,-1041.00
2024-06-07 11:23:47.601203,-4,0,0,0,0,2,84,87,158,140,34,109.65,139,-50.00,-18.00,-994.00
2024-06-07 11:23:47.729661,-4,0,0,0,0,2,84,88,155,140,34,109.58,139,-84.00,-5.00,-1057.00
2024-06-07 11:23:47.805267,-4,0,0,0,0,2,84,88,154,140,34,109.85,139,-76.00,-13.00,-969.00
2024-06-07 11:23:47.912285,-3,0,0,0,0,2,84,88,150,140,34,109.67,139,-78.00,26.00,-1016.00
2024-06-07 11:23:48.009218,-4,0,0,0,0,2,84,88,148,130,34,109.59,139,-52.00,-13.00,-991.00
2024-06-07 11:23:48.111045,-4,0,0,0,0,1,84,88,146,130,34,109.41,139,-38.00,-13.00,-1000.00
2024-06-07 11:23:48.213194,-4,0,0,0,0,1,84,88,145,130,34,109.73,140,-19.00,12.00,-976.00
2024-06-07 11:23:48.345681,-3,0,0,0,0,1,84,88,143,130,34,109.90,140,-38.00,-7.00,-1006.00
2024-06-07 11:23:48.417189,-2,-1,-1,0,0,1,84,88,142,130,34,109.61,140,-12.00,1.00,-932.00
2024-06-07 11:23:48.548888,-1,-1,-1,0,0,1,84,88,142,130,34,109.94,140,-53.00,-25.00,-1016.00
2024-06-07 11:23:48.621136,-1,0,0,0,0,1,84,88,139,130,34,109.83,140,-72.00,-24.00,-1028.00
2024-06-07 11:23:48.753606,-1,0,0,0,0,1,85,88,138,120,34,109.48,140,-46.00,-41.00,-1062.00
2024-06-07 11:23:48.825194,-2,0,0,0,0,0,85,88,139,120,34,110.03,140,-11.00,-70.00,-941.00
2024-06-07 11:23:48.958390,-2,0,-1,0,0,1,85,88,136,120,34,109.65,140,-54.00,-79.00,-992.00
2024-06-07 11:23:49.029134,-1,0,0,0,-1,1,85,88,135,120,34,109.82,140,-44.00,-47.00,-1044.00
2024-06-07 11:23:49.131160,-1,3,0,0,-1,1,85,88,134,120,34,109.53,140,-22.00,-60.00,-1042.00
2024-06-07 11:23:49.182801,-1,4,0,0,-1,0,85,88,131,120,34,109.73,141,-31.00,-26.00,-1068.00
2024-06-07 11:23:49.369412,-1,4,0,0,0,0,85,88,132,120,34,109.96,141,-46.00,-46.00,-1020.00
2024-06-07 11:23:49.387590,0,3,0,0,0,0,85,88,129,120,34,109.77,141,-50.00,-59.00,-1055.00
2024-06-07 11:23:49.488506,-1,3,0,0,0,0,85,88,129,120,34,109.68,141,-63.00,-23.00,-1013.00
2024-06-07 11:23:49.676222,-2,3,0,0,0,0,85,88,129,120,34,109.73,141,-60.00,-38.00,-1001.00
2024-06-07 11:23:49.692336,-2,3,0,0,0,0,84,87,130,120,34,109.51,141,-49.00,-47.00,-967.00
2024-06-07 11:23:49.879991,-3,3,0,0,0,0,84,87,130,120,34,109.45,141,-47.00,-46.00,-1020.00
2024-06-07 11:23:49.896472,-3,2,0,0,0,0,84,87,130,120,34,109.56,141,-29.00,-30.00,-1012.00
2024-06-07 11:23:50.084846,-3,2,0,0,0,0,84,87,130,120,34,109.32,141,-79.00,-31.00,-949.00
2024-06-07 11:23:50.100587,-3,1,0,0,0,0,84,87,131,120,34,109.67,141,-49.00,-29.00,-1011.00
2024-06-07 11:23:50.289730,-3,1,0,0,0,0,84,87,129,120,34,109.80,142,-56.00,-1.00,-982.00
2024-06-07 11:23:50.304661,-3,1,0,0,0,0,84,87,130,120,34,109.60,142,-50.00,-15.00,-1021.00
2024-06-07 11:23:50.494544,-2,0,0,0,0,0,84,87,131,120,34,109.45,142,-71.00,0.00,-977.00
2024-06-07 11:23:50.508649,-3,0,0,0,0,0,84,87,130,120,34,109.52,142,-49.00,-20.00,-1004.00
2024-06-07 11:23:50.610429,-3,0,0,0,0,0,84,87,130,120,34,109.46,142,-31.00,-37.00,-1015.00
2024-06-07 11:23:50.801691,-3,0,0,0,0,0,85,87,131,120,34,109.52,142,-26.00,-63.00,-983.00
2024-06-07 11:23:50.814318,-2,1,0,0,0,0,85,87,132,120,34,109.46,142,-25.00,-63.00,-1014.00
2024-06-07 11:23:51.006458,-2,2,0,0,0,0,85,87,131,120,34,109.53,142,-31.00,-76.00,-1003.00
2024-06-07 11:23:51.019157,-2,3,0,0,0,0,85,87,131,120,34,109.54,142,-50.00,-27.00,-987.00
2024-06-07 11:23:51.120543,-2,4,0,0,0,0,85,87,131,120,34,109.52,142,-60.00,-45.00,-970.00
2024-06-07 11:23:51.222190,-1,2,0,0,0,0,85,87,133,120,34,109.67,143,-20.00,-53.00,-1031.00
2024-06-07 11:23:51.415977,-2,2,0,0,0,0,85,87,132,120,34,109.64,143,-49.00,-20.00,-1019.00
2024-06-07 11:23:51.426195,-5,2,0,0,0,0,85,87,134,120,34,109.57,143,-44.00,-11.00,-950.00
2024-06-07 11:23:51.620776,-9,2,0,1,0,0,85,87,134,120,34,109.57,143,-55.00,-27.00,-1003.00
2024-06-07 11:23:51.632106,-8,1,0,1,0,0,85,87,136,120,34,109.54,143,-47.00,-39.00,-963.00
2024-06-07 11:23:51.732112,-8,0,0,2,0,0,85,88,137,120,34,109.21,143,-81.00,-19.00,-990.00
2024-06-07 11:23:51.928138,-9,0,0,3,0,0,85,88,137,120,34,109.55,143,-71.00,26.00,-962.00
2024-06-07 11:23:51.936230,-8,0,0,3,1,0,85,88,137,120,34,109.41,143,-93.00,64.00,-990.00
2024-06-07 11:23:52.038178,-8,0,0,4,1,0,85,88,137,120,34,109.54,143,-96.00,32.00,-1008.00
2024-06-07 11:23:52.140578,-8,-1,0,4,2,0,85,88,136,120,34,109.67,143,-76.00,42.00,-997.00
2024-06-07 11:23:52.344401,-8,-1,0,5,2,0,85,88,137,120,34,109.67,144,-81.00,33.00,-990.00
2024-06-07 11:23:52.344483,-7,-4,0,6,2,0,85,88,138,120,34,109.36,144,-84.00,34.00,-994.00
2024-06-07 11:23:52.542339,-7,-5,0,6,1,0,85,88,137,120,34,109.63,144,-84.00,69.00,-971.00
2024-06-07 11:23:52.542533,-4,-6,0,7,1,0,85,88,135,120,34,109.40,144,-69.00,76.00,-1037.00
2024-06-07 11:23:52.598939,-1,-6,0,6,0,0,85,88,136,120,34,109.28,144,-61.00,6.00,-995.00
2024-06-07 11:23:52.752293,0,-5,0,6,0,0,84,88,135,120,34,109.36,144,-83.00,57.00,-969.00
2024-06-07 11:23:52.802883,1,-2,0,5,0,0,84,88,133,120,34,109.29,144,-53.00,44.00,-943.00
2024-06-07 11:23:52.951936,0,0,0,4,0,0,84,88,135,120,34,109.44,144,-59.00,88.00,-968.00
2024-06-07 11:23:53.007375,0,-1,0,3,0,0,84,88,132,120,34,109.61,144,-48.00,83.00,-1036.00
2024-06-07 11:23:53.156831,0,-3,0,3,0,0,84,88,133,120,34,109.39,144,-79.00,42.00,-1012.00
2024-06-07 11:23:53.212217,0,-5,0,3,0,0,84,88,134,120,34,109.48,145,-101.00,10.00,-1065.00
2024-06-07 11:23:53.361530,-1,-5,0,2,0,0,84,88,131,120,34,109.27,145,-75.00,46.00,-927.00
2024-06-07 11:23:53.416160,-4,-3,0,1,0,0,84,88,133,120,34,109.80,145,-108.00,86.00,-971.00
2024-06-07 11:23:53.566336,-4,-2,0,1,0,0,84,88,132,120,34,109.68,145,-79.00,58.00,-987.00
2024-06-07 11:23:53.634174,-4,-2,0,1,0,0,84,88,132,120,34,109.87,145,-86.00,72.00,-1002.00
2024-06-07 11:23:53.722015,-4,-4,0,1,0,0,84,88,131,120,34,109.40,145,-99.00,67.00,-977.00
2024-06-07 11:23:53.873552,-5,-4,0,0,0,0,84,88,132,120,34,109.61,145,-102.00,85.00,-983.00
2024-06-07 11:23:53.926075,-6,-4,0,0,0,0,84,88,132,120,34,109.56,145,-107.00,67.00,-998.00
2024-06-07 11:23:54.078276,-6,-4,0,0,0,0,84,88,133,120,34,109.35,145,-104.00,97.00,-976.00
2024-06-07 11:23:54.130013,-6,-5,0,0,0,0,84,88,133,120,34,109.18,145,-87.00,95.00,-1043.00
2024-06-07 11:23:54.232043,-5,-5,0,0,0,0,84,88,133,120,34,109.31,146,-99.00,81.00,-1030.00
2024-06-07 11:23:54.334059,-5,-5,0,0,0,0,84,88,133,120,34,109.67,146,-130.00,91.00,-1032.00
2024-06-07 11:23:54.487924,-6,-5,0,0,0,0,84,88,131,120,34,109.69,146,-118.00,79.00,-1021.00
2024-06-07 11:23:54.538061,-7,-4,0,0,0,0,84,88,131,120,34,109.72,146,-77.00,55.00,-959.00
2024-06-07 11:23:54.692645,-6,-4,0,0,0,0,84,88,131,120,34,109.30,146,-104.00,74.00,-1011.00
2024-06-07 11:23:54.742194,-6,-4,0,0,0,0,84,87,131,120,34,109.30,146,-108.00,64.00,-978.00
2024-06-07 11:23:54.844161,-6,-4,0,0,0,0,84,87,133,120,34,109.44,146,-80.00,95.00,-973.00
2024-06-07 11:23:54.999935,-6,-4,0,1,0,0,84,87,131,120,34,110.01,146,-77.00,81.00,-1015.00
2024-06-07 11:23:55.048447,-5,-4,0,1,0,0,84,87,130,120,34,109.31,146,-71.00,96.00,-1016.00
2024-06-07 11:23:55.150732,-4,-5,0,1,0,0,84,87,131,120,34,109.70,147,-99.00,88.00,-1001.00
2024-06-07 11:23:55.307119,-4,-5,0,1,0,0,84,87,132,120,34,109.87,147,-91.00,86.00,-937.00
2024-06-07 11:23:55.354847,-1,-4,0,0,0,0,84,87,133,120,34,109.33,147,-136.00,74.00,-1003.00
2024-06-07 11:23:55.513417,-3,0,0,0,0,0,84,87,131,120,34,109.64,147,-67.00,87.00,-941.00
2024-06-07 11:23:55.558930,-5,-1,0,0,0,0,84,87,130,120,34,109.47,147,-76.00,79.00,-934.00
2024-06-07 11:23:55.662971,-5,-4,0,0,1,0,84,87,131,120,34,109.43,147,-90.00,86.00,-955.00
2024-06-07 11:23:55.765170,-4,-7,0,0,0,0,85,88,132,120,34,109.45,147,-93.00,83.00,-1021.00
2024-06-07 11:23:55.866267,-5,-6,0,0,0,0,85,88,131,120,34,109.45,147,-98.00,93.00,-964.00
2024-06-07 11:23:55.966780,-6,-5,0,0,0,0,85,88,132,120,34,109.69,147,-90.00,112.00,-1020.00
2024-06-07 11:23:56.126512,-6,-5,0,0,0,0,85,88,133,120,34,109.56,147,-102.00,103.00,-943.00
2024-06-07 11:23:56.170894,-6,-6,0,0,0,0,85,88,131,120,34,109.37,148,-86.00,91.00,-938.00
2024-06-07 11:23:56.331321,-6,-6,0,0,0,0,85,88,132,120,34,109.80,148,-133.00,99.00,-944.00
2024-06-07 11:23:56.374987,-6,-6,0,0,0,0,85,88,131,120,34,109.74,148,-143.00,107.00,-978.00
2024-06-07 11:23:56.425994,-6,-6,0,0,0,0,85,88,130,120,34,109.38,148,-104.00,136.00,-1004.00
2024-06-07 11:23:56.536178,-6,-5,0,0,0,0,85,88,131,120,34,109.56,148,-88.00,117.00,-978.00
2024-06-07 11:23:56.630170,-6,-5,0,0,1,0,85,88,129,120,34,109.25,148,-81.00,82.00,-949.00
2024-06-07 11:23:56.741354,-6,-5,0,0,1,0,84,87,129,120,34,109.45,148,-84.00,114.00,-1025.00
2024-06-07 11:23:56.834163,-6,-6,0,0,1,0,84,87,130,120,34,109.83,148,-71.00,91.00,-985.00
2024-06-07 11:23:56.945889,-6,-6,0,0,1,0,84,87,131,120,34,109.60,148,-59.00,115.00,-1019.00
2024-06-07 11:23:57.039052,-5,-7,0,0,1,0,84,87,130,120,34,109.58,148,-60.00,96.00,-1003.00
2024-06-07 11:23:57.145937,-4,-7,0,0,0,0,84,87,132,120,34,109.48,149,-84.00,96.00,-1012.00
2024-06-07 11:23:57.242473,-4,-6,0,0,0,0,84,87,131,120,34,109.59,149,-85.00,83.00,-989.00
2024-06-07 11:23:57.355215,-4,-5,0,0,0,0,84,87,131,120,34,109.43,149,-68.00,74.00,-961.00
2024-06-07 11:23:57.446348,-4,-5,0,0,0,0,84,87,131,120,34,109.60,149,-65.00,69.00,-1007.00
2024-06-07 11:23:57.551503,-4,-6,0,0,0,0,84,87,133,120,34,109.65,149,-110.00,68.00,-1001.00
2024-06-07 11:23:57.650165,-4,-4,0,0,0,0,84,87,132,120,34,109.61,149,-79.00,93.00,-1022.00
2024-06-07 11:23:57.764863,-3,-4,0,0,0,0,84,87,132,120,34,109.54,149,-122.00,83.00,-1055.00
2024-06-07 11:23:57.854038,-3,-4,0,0,0,0,84,87,133,120,34,109.33,149,-143.00,95.00,-973.00
2024-06-07 11:23:57.955939,-6,-4,0,0,0,0,84,87,135,120,34,109.46,149,-91.00,114.00,-933.00
2024-06-07 11:23:58.072850,-6,-4,0,0,0,0,84,87,132,120,34,109.42,149,-101.00,97.00,-951.00
2024-06-07 11:23:58.159977,0,-2,0,-1,0,0,84,87,133,120,34,109.52,150,-74.00,103.00,-1041.00
2024-06-07 11:23:58.276779,2,-4,0,-2,0,0,84,87,133,120,34,109.57,150,-69.00,94.00,-977.00
2024-06-07 11:23:58.363878,2,-5,0,-3,0,0,84,87,134,120,34,109.71,150,-41.00,80.00,-1013.00
2024-06-07 11:23:58.481573,3,-5,0,-4,0,0,84,87,133,120,34,109.36,150,-76.00,88.00,-973.00
2024-06-07 11:23:58.567953,1,-4,0,-5,0,0,84,87,134,120,34,109.44,150,-25.00,43.00,-949.00
2024-06-07 11:23:58.686372,2,-4,0,-6,0,0,84,87,135,120,34,109.34,150,-35.00,34.00,-1102.00
2024-06-07 11:23:58.771943,2,-1,0,-6,0,0,84,88,132,120,34,109.49,150,-44.00,84.00,-1015.00
2024-06-07 11:23:58.892152,0,-1,0,-7,0,0,84,88,134,120,34,109.27,150,-65.00,66.00,-964.00
2024-06-07 11:23:58.975901,-3,-3,0,-8,0,0,84,88,134,120,34,109.38,150,-33.00,4.00,-1025.00
2024-06-07 11:23:59.077926,-6,-3,0,-7,0,0,84,88,136,120,34,109.15,150,-64.00,43.00,-1071.00
2024-06-07 11:23:59.180288,-7,-1,0,-7,0,0,84,88,138,120,34,109.49,151,-114.00,67.00,-1012.00
2024-06-07 11:23:59.300785,-7,-1,0,-6,0,0,84,88,138,120,34,109.29,151,-148.00,43.00,-996.00
2024-06-07 11:23:59.384392,-7,-3,0,-6,0,0,84,88,138,120,34,109.41,151,-95.00,55.00,-952.00
2024-06-07 11:23:59.505552,-8,-1,0,-6,0,0,84,88,140,120,34,109.86,151,-102.00,115.00,-1018.00
2024-06-07 11:23:59.589193,-8,-1,0,-6,1,0,84,88,142,120,34,109.66,151,-74.00,91.00,-1012.00
2024-06-07 11:23:59.710377,-8,-1,0,-5,1,0,84,88,142,120,34,109.69,151,-72.00,109.00,-1028.00
2024-06-07 11:23:59.794055,-7,-3,0,-4,2,0,85,87,143,120,34,109.46,151,-78.00,79.00,-977.00
2024-06-07 11:23:59.893991,-7,-4,0,-4,2,0,85,87,144,120,34,109.62,151,-77.00,100.00,-954.00
2024-06-07 11:24:00.017574,-7,-4,0,-4,2,0,85,87,143,130,34,109.62,151,-121.00,96.00,-943.00
2024-06-07 11:24:00.097842,-7,-4,0,-3,3,0,85,87,144,130,34,109.80,151,-56.00,108.00,-1005.00
2024-06-07 11:24:00.199861,-7,-5,0,-3,3,0,85,87,143,130,34,109.99,152,-100.00,102.00,-949.00
2024-06-07 11:24:00.324769,-6,-5,0,-2,3,0,85,87,143,130,34,109.72,152,-97.00,107.00,-963.00
2024-06-07 11:24:00.356285,-5,-6,0,-2,3,0,85,87,142,130,34,109.49,152,-79.00,108.00,-1032.00
2024-06-07 11:24:00.458157,-6,-7,0,-2,3,0,85,87,143,130,34,109.34,152,-102.00,59.00,-991.00
2024-06-07 11:24:00.556442,-6,-7,0,-1,2,0,85,87,144,130,34,109.35,152,-131.00,47.00,-959.00
2024-06-07 11:24:00.734377,-7,-7,0,-1,1,0,85,87,143,130,34,109.45,152,-50.00,22.00,-964.00
2024-06-07 11:24:00.811917,-6,-6,0,-1,0,0,85,88,140,130,34,109.48,152,-92.00,83.00,-994.00
2024-06-07 11:24:00.862584,-6,-5,0,-1,0,1,85,88,138,120,34,109.70,152,-66.00,85.00,-1065.00
2024-06-07 11:24:01.041567,-7,-5,0,0,0,1,85,88,138,120,34,109.71,152,-89.00,75.00,-1041.00
2024-06-07 11:24:01.066556,-6,-5,0,0,0,0,85,88,137,120,34,109.84,152,-62.00,83.00,-982.00
2024-06-07 11:24:01.168589,-6,-5,0,0,0,0,85,88,136,120,34,109.50,153,-63.00,48.00,-1037.00
2024-06-07 11:24:01.349887,-6,-6,0,0,0,0,85,88,135,120,34,109.75,153,-93.00,92.00,-988.00
2024-06-07 11:24:01.372575,-6,-4,0,0,0,0,85,88,135,120,34,109.24,153,-80.00,94.00,-1016.00
2024-06-07 11:24:01.555175,-5,-3,0,0,0,0,85,88,135,120,34,109.56,153,-77.00,94.00,-1013.00
2024-06-07 11:24:01.577152,-4,-4,0,0,0,0,85,88,133,120,34,109.49,153,-71.00,98.00,-1003.00
2024-06-07 11:24:01.758628,-2,-2,0,0,0,0,85,88,134,120,34,109.21,153,-93.00,110.00,-975.00
2024-06-07 11:24:01.780587,-2,-3,0,0,0,0,85,87,134,120,34,109.39,153,-94.00,90.00,-993.00
2024-06-07 11:24:01.963317,-4,-5,0,0,0,0,85,87,135,120,34,109.64,153,-147.00,123.00,-958.00
2024-06-07 11:24:01.984546,-5,-5,0,0,0,0,85,87,133,120,34,109.32,153,-128.00,112.00,-958.00
2024-06-07 11:24:02.168083,-5,-5,0,0,0,0,85,87,135,120,34,109.69,153,-137.00,141.00,-958.00
2024-06-07 11:24:02.188493,-6,-6,0,0,0,0,85,87,134,120,34,109.68,154,-160.00,100.00,-971.00
2024-06-07 11:24:02.373330,-5,-7,0,-1,0,0,85,87,133,120,34,109.45,154,-156.00,49.00,-1045.00
2024-06-07 11:24:02.392730,-6,-5,0,-2,0,0,85,87,134,120,34,109.38,154,-123.00,108.00,-1002.00
2024-06-07 11:24:02.495337,-8,-4,0,-2,0,0,85,87,134,120,34,109.31,154,-125.00,76.00,-983.00
2024-06-07 11:24:02.596524,-8,-4,0,-2,0,0,85,87,134,120,34,109.45,154,-124.00,58.00,-951.00
2024-06-07 11:24:02.783913,-8,-4,0,-1,0,0,85,87,131,120,34,109.34,154,-117.00,103.00,-1007.00
2024-06-07 11:24:02.800479,-8,-3,0,-1,0,0,84,87,133,120,34,109.75,154,-96.00,104.00,-1037.00
2024-06-07 11:24:02.987332,-7,-3,0,-1,1,0,84,87,132,120,34,109.58,154,-95.00,96.00,-962.00
2024-06-07 11:24:03.004472,-6,-5,0,-1,1,0,84,87,132,120,34,109.48,154,-105.00,85.00,-985.00
2024-06-07 11:24:03.107146,-6,-5,0,-1,1,0,84,87,133,120,34,109.18,154,-89.00,118.00,-971.00
2024-06-07 11:24:03.294334,-7,-5,0,-1,1,0,84,87,131,120,34,109.76,155,-108.00,100.00,-913.00
2024-06-07 11:24:03.316596,-4,-8,0,-1,1,0,84,87,132,120,34,109.34,155,-86.00,97.00,-991.00
2024-06-07 11:24:03.412417,-3,-7,0,-1,0,0,84,87,131,120,34,109.24,155,-89.00,113.00,-940.00
2024-06-07 11:24:03.516837,-3,-8,0,-2,0,0,84,87,132,120,34,109.28,155,-98.00,89.00,-961.00
2024-06-07 11:24:03.616418,-5,-7,0,-2,0,0,84,87,133,120,34,109.37,155,-99.00,111.00,-934.00
2024-06-07 11:24:03.806566,-6,-6,0,-2,0,0,84,87,131,120,34,109.42,155,-93.00,124.00,-1000.00
2024-06-07 11:24:03.820361,-6,-6,0,-2,0,0,83,87,132,120,34,109.34,155,-98.00,111.00,-969.00
2024-06-07 11:24:04.012375,-6,-6,0,-2,0,0,83,87,130,120,34,109.23,155,-140.00,104.00,-1058.00
2024-06-07 11:24:04.024337,-6,-6,0,-2,0,0,83,87,132,120,34,109.09,155,-135.00,107.00,-960.00
2024-06-07 11:24:04.126360,-7,-5,0,-2,0,0,83,87,132,120,34,109.10,155,-92.00,105.00,-939.00
2024-06-07 11:24:04.318233,-7,-5,0,-2,0,0,83,87,131,120,34,109.70,156,-114.00,113.00,-940.00
2024-06-07 11:24:04.331631,-7,-6,0,-2,0,0,83,87,130,120,34,109.02,156,-143.00,43.00,-1017.00
2024-06-07 11:24:04.382720,-7,-6,0,-2,0,0,83,87,130,120,34,108.90,156,-103.00,0.00,-1014.00
2024-06-07 11:24:04.523037,-8,-5,0,-2,-1,0,83,87,130,120,34,108.92,156,-152.00,24.00,-980.00
2024-06-07 11:24:04.587804,-9,-3,0,-2,-1,0,83,87,128,110,34,109.03,156,-98.00,39.00,-1017.00
2024-06-07 11:24:04.688298,-9,-2,0,-1,-1,0,83,87,127,110,34,109.10,156,-80.00,58.00,-1022.00
2024-06-07 11:24:04.830217,-8,-3,0,-1,-1,0,85,87,127,110,34,109.06,156,-75.00,38.00,-1073.00
2024-06-07 11:24:04.892228,-8,-3,0,0,-1,0,85,87,129,110,34,109.10,156,-108.00,51.00,-1002.00
2024-06-07 11:24:05.035473,-8,-3,0,0,-2,0,85,87,128,110,34,109.03,156,-64.00,33.00,-1056.00
2024-06-07 11:24:05.097039,-8,-2,0,0,-2,0,85,87,128,110,34,109.40,156,-58.00,62.00,-985.00
2024-06-07 11:24:05.202165,-8,-4,0,1,-2,0,85,87,129,110,34,109.16,157,-69.00,5.00,-1079.00
2024-06-07 11:24:05.300224,-5,-3,0,1,-3,0,85,87,129,110,34,109.16,157,-78.00,18.00,-975.00
2024-06-07 11:24:05.452172,-6,0,0,1,-3,0,85,87,130,110,34,109.14,157,-128.00,64.00,-981.00
2024-06-07 11:24:05.504211,-6,0,0,1,-2,0,85,87,132,120,34,108.94,157,-125.00,53.00,-1028.00
2024-06-07 11:24:05.649531,-6,-1,0,1,-2,-1,85,87,133,120,34,108.97,157,-154.00,42.00,-998.00
2024-06-07 11:24:05.708253,-5,-1,0,1,-2,-1,85,87,135,120,34,109.11,157,-123.00,25.00,-966.00
2024-06-07 11:24:05.854284,-6,0,0,1,-3,-1,85,87,137,120,34,108.95,157,-119.00,2.00,-925.00
2024-06-07 11:24:05.914518,-7,0,0,1,-3,0,85,87,138,120,34,108.72,157,-147.00,-14.00,-941.00
2024-06-07 11:24:06.014188,-8,0,0,1,-2,0,85,87,139,120,34,109.11,157,-158.00,7.00,-961.00
2024-06-07 11:24:06.161428,-8,0,0,1,-2,0,85,87,140,120,34,108.74,157,-171.00,3.00,-956.00
2024-06-07 11:24:06.218189,-8,0,0,0,-2,0,85,87,138,120,34,109.56,158,-145.00,-30.00,-929.00
2024-06-07 11:24:06.368682,-9,0,0,1,-2,0,85,87,138,120,34,108.95,158,-125.00,-27.00,-962.00
2024-06-07 11:24:06.422150,-9,2,0,1,-2,0,85,87,138,120,34,109.26,158,-112.00,-10.00,-942.00
2024-06-07 11:24:06.571029,-8,2,0,1,-2,0,85,87,137,120,34,109.26,158,-155.00,12.00,-981.00
2024-06-07 11:24:06.626150,-8,1,0,1,-1,0,85,87,137,120,34,109.33,158,-125.00,-26.00,-1058.00
2024-06-07 11:24:06.778477,-7,1,0,2,-1,0,85,87,137,120,34,109.12,158,-90.00,0.00,-954.00
2024-06-07 11:24:06.830131,-7,1,0,2,-1,0,84,87,135,120,34,108.90,158,-101.00,25.00,-1015.00
2024-06-07 11:24:06.980643,-7,0,0,2,0,0,84,87,136,120,34,108.97,158,-121.00,58.00,-994.00
2024-06-07 11:24:07.034271,-7,0,0,2,0,0,84,87,135,120,34,109.09,158,-127.00,40.00,-1037.00
2024-06-07 11:24:07.185438,-6,-1,0,2,0,0,84,87,136,120,34,108.79,158,-125.00,26.00,-1000.00
2024-06-07 11:24:07.238141,-6,-1,0,2,0,0,84,87,136,120,34,108.91,159,-120.00,40.00,-1021.00
2024-06-07 11:24:07.340489,-6,-2,0,2,0,0,84,87,136,120,34,108.67,159,-95.00,10.00,-1020.00
2024-06-07 11:24:07.492665,-6,-1,0,2,0,0,84,87,136,120,34,108.92,159,-107.00,30.00,-1027.00
2024-06-07 11:24:07.544602,-5,0,0,2,0,0,84,87,136,120,34,109.40,159,-114.00,59.00,-977.00
2024-06-07 11:24:07.697405,-4,0,0,2,0,0,84,87,136,120,34,108.90,159,-105.00,65.00,-1027.00
2024-06-07 11:24:07.747998,-2,-2,0,1,0,0,84,87,137,120,34,109.59,159,-146.00,62.00,-980.00
2024-06-07 11:24:07.902185,-2,-4,0,0,0,0,84,87,137,120,34,109.15,159,-127.00,43.00,-1041.00
2024-06-07 11:24:07.952303,-5,-4,0,0,0,0,84,87,138,120,34,108.94,159,-101.00,23.00,-952.00
2024-06-07 11:24:08.109315,-5,-5,0,0,0,0,84,87,139,120,34,109.39,159,-125.00,92.00,-918.00
2024-06-07 11:24:08.109469,-8,-5,0,-1,0,0,84,87,139,120,34,109.19,159,-179.00,52.00,-929.00
2024-06-07 11:24:08.207580,-9,-2,0,-1,0,0,84,87,139,120,34,109.52,160,-145.00,22.00,-1001.00
2024-06-07 11:24:08.311970,-8,0,0,-1,0,0,84,87,138,120,34,109.32,160,-154.00,30.00,-945.00
2024-06-07 11:24:08.411644,-7,-2,0,-1,1,0,84,87,138,120,34,109.22,160,-116.00,104.00,-1003.00
2024-06-07 11:24:08.516804,-6,-4,0,-1,1,0,84,87,138,120,34,109.01,160,-132.00,102.00,-1025.00
2024-06-07 11:24:08.615672,-7,-5,0,-2,1,0,84,87,137,120,34,109.21,160,-140.00,89.00,-1000.00
2024-06-07 11:24:08.722294,-8,-4,0,-2,1,0,84,87,137,120,34,109.37,160,-175.00,85.00,-973.00
2024-06-07 11:24:08.819430,-8,-4,0,-2,1,0,84,87,136,120,34,109.24,160,-140.00,83.00,-967.00
2024-06-07 11:24:08.926269,-8,-5,0,-1,1,0,84,87,135,120,34,109.47,160,-132.00,41.00,-928.00
2024-06-07 11:24:09.024023,-8,-6,0,-1,1,0,84,87,136,120,34,109.37,160,-129.00,-11.00,-1053.00
2024-06-07 11:24:09.131495,-7,-3,0,-1,0,0,84,87,135,120,34,109.00,161,-202.00,8.00,-989.00
2024-06-07 11:24:09.227509,-8,-3,0,-1,0,0,84,87,135,120,34,109.26,161,-109.00,-16.00,-904.00
2024-06-07 11:24:09.335873,-8,-1,0,-1,0,0,84,87,134,120,34,108.83,161,-101.00,36.00,-1017.00
2024-06-07 11:24:09.436333,-9,-3,0,0,0,0,84,87,134,120,34,108.65,161,-95.00,-2.00,-1014.00
2024-06-07 11:24:09.533357,-9,-2,0,0,-1,0,84,87,134,120,34,108.97,161,-125.00,29.00,-950.00
2024-06-07 11:24:09.644627,-8,0,0,0,0,0,84,87,132,120,34,108.89,161,-139.00,73.00,-1031.00
2024-06-07 11:24:09.737331,-8,-2,0,0,0,0,84,87,132,120,34,108.88,161,-127.00,26.00,-956.00
2024-06-07 11:24:09.847792,-8,-3,0,0,0,0,85,88,130,120,34,108.99,161,-191.00,-9.00,-945.00
2024-06-07 11:24:09.941082,-8,-2,0,0,-1,0,85,88,130,120,34,108.65,161,-125.00,-11.00,-977.00
2024-06-07 11:24:10.052615,-8,2,0,0,-1,0,85,88,129,110,34,108.86,161,-104.00,42.00,-1025.00
2024-06-07 11:24:10.145363,-4,8,0,0,0,0,85,88,129,110,34,109.45,162,-117.00,39.00,-1032.00
2024-06-07 11:24:10.257520,-5,6,0,0,2,0,85,88,128,110,34,108.82,162,-89.00,49.00,-1086.00
2024-06-07 11:24:10.349348,-7,3,0,0,3,0,85,88,128,110,34,109.30,162,-105.00,85.00,-959.00
2024-06-07 11:24:10.462295,-7,-1,0,0,4,0,85,88,128,110,34,109.28,162,-100.00,25.00,-1003.00
2024-06-07 11:24:10.556381,-6,-3,0,0,4,0,85,88,128,110,34,108.99,162,-132.00,94.00,-1018.00
2024-06-07 11:24:10.655206,-6,-5,0,0,3,0,85,88,128,120,34,108.84,162,-105.00,2.00,-968.00
2024-06-07 11:24:10.769481,-7,-4,0,0,3,0,85,88,127,120,34,108.73,162,-124.00,9.00,-946.00
2024-06-07 11:24:10.859198,-7,-3,0,0,2,0,86,87,127,120,34,109.13,162,-125.00,31.00,-992.00
2024-06-07 11:24:10.974221,-8,-1,0,0,2,0,86,87,126,120,34,109.30,162,-126.00,25.00,-993.00
2024-06-07 11:24:11.063138,-8,-2,0,0,2,0,86,87,126,120,34,108.82,162,-132.00,39.00,-947.00
2024-06-07 11:24:11.179507,-8,-1,0,-1,2,0,86,87,126,110,34,108.98,163,-157.00,32.00,-991.00
2024-06-07 11:24:11.267257,-7,-2,0,-1,2,0,86,87,124,110,34,109.14,163,-179.00,13.00,-1018.00
2024-06-07 11:24:11.369196,-7,-2,0,-1,2,0,86,87,125,110,34,108.98,163,-157.00,24.00,-1001.00
2024-06-07 11:24:11.471399,-7,-2,0,-2,1,0,86,87,125,110,34,108.76,163,-177.00,-2.00,-1010.00
2024-06-07 11:24:11.588586,-8,-3,0,-2,1,0,86,87,125,110,34,108.86,163,-148.00,-17.00,-983.00
2024-06-07 11:24:11.676013,-9,-1,0,-2,0,0,86,87,125,110,34,109.27,163,-195.00,-13.00,-966.00
2024-06-07 11:24:11.793457,-10,0,0,-2,0,0,86,87,125,110,34,109.28,163,-154.00,-24.00,-999.00
2024-06-07 11:24:11.879804,-10,2,0,-2,0,0,85,88,125,110,34,108.99,163,-119.00,48.00,-1006.00
2024-06-07 11:24:11.998154,-8,0,0,-2,0,0,85,88,125,110,34,108.95,163,-123.00,79.00,-1026.00
2024-06-07 11:24:12.031831,-8,-1,0,-2,1,0,85,88,125,110,34,108.61,163,-152.00,29.00,-1012.00
2024-06-07 11:24:12.203484,-8,0,0,-2,1,0,85,88,126,110,34,109.17,164,-128.00,77.00,-994.00
2024-06-07 11:24:12.235795,-8,-2,0,-2,1,0,85,88,126,110,34,109.00,164,-123.00,60.00,-947.00
2024-06-07 11:24:12.408686,-8,-3,0,-2,1,0,85,88,126,110,34,109.00,164,-158.00,64.00,-1002.00
2024-06-07 11:24:12.439721,-8,-4,0,-2,1,0,85,88,128,120,34,108.98,164,-240.00,1.00,-978.00
2024-06-07 11:24:12.543527,-8,-2,0,-3,0,0,85,88,127,120,34,108.87,164,-165.00,11.00,-980.00
2024-06-07 11:24:12.643946,-8,0,0,-3,0,0,85,88,126,120,34,109.09,164,-181.00,26.00,-979.00
2024-06-07 11:24:12.817518,-8,0,0,-3,1,0,85,88,126,120,34,108.90,164,-144.00,62.00,-984.00
2024-06-07 11:24:12.847726,-8,-1,0,-4,1,0,85,88,126,110,34,108.82,164,-122.00,59.00,-1008.00
2024-06-07 11:24:13.022161,-9,-2,0,-4,1,0,85,88,125,110,34,108.88,164,-175.00,21.00,-952.00
2024-06-07 11:24:13.054666,-9,-2,0,-4,1,0,85,88,125,110,34,108.85,164,-150.00,40.00,-981.00
2024-06-07 11:24:13.153968,-8,-1,0,-4,1,0,85,88,125,110,34,108.56,165,-170.00,71.00,-1030.00
2024-06-07 11:24:13.329368,-9,-3,0,-4,1,0,85,88,125,110,34,108.85,165,-132.00,21.00,-976.00
2024-06-07 11:24:13.357755,-9,-3,0,-3,0,0,85,88,125,110,34,108.92,165,-133.00,8.00,-965.00
2024-06-07 11:24:13.534128,-9,-1,0,-3,0,0,85,88,124,110,34,108.82,165,-120.00,33.00,-1014.00
2024-06-07 11:24:13.561710,-8,-1,0,-3,0,0,85,88,124,110,34,108.77,165,-114.00,43.00,-1010.00
2024-06-07 11:24:13.739027,-9,-1,0,-2,0,0,85,88,126,110,34,108.26,165,-137.00,39.00,-1008.00
2024-06-07 11:24:13.765843,-8,-2,0,-2,0,0,85,88,127,110,34,108.90,165,-108.00,29.00,-1028.00
2024-06-07 11:24:13.943709,-8,-2,0,-2,0,0,84,88,127,110,34,108.95,165,-117.00,14.00,-1012.00
2024-06-07 11:24:13.970554,-8,-2,0,-2,0,0,84,88,129,110,34,108.72,165,-134.00,7.00,-969.00
2024-06-07 11:24:14.148528,-8,0,0,-1,0,0,84,88,129,120,34,109.32,165,-121.00,64.00,-918.00
2024-06-07 11:24:14.173929,-9,-1,0,-1,0,0,84,88,131,120,34,109.02,166,-97.00,28.00,-942.00
2024-06-07 11:24:14.353346,-9,-1,0,-1,0,0,84,88,130,120,34,109.13,166,-114.00,47.00,-991.00
2024-06-07 11:24:14.377794,-9,-1,0,0,0,0,84,88,130,120,34,108.91,166,-113.00,37.00,-982.00
2024-06-07 11:24:14.558186,-8,-2,0,0,0,0,84,88,132,120,34,108.94,166,-90.00,26.00,-1007.00
2024-06-07 11:24:14.581811,-8,-2,0,0,0,0,84,88,131,120,34,108.88,166,-90.00,-13.00,-949.00
2024-06-07 11:24:14.762909,-8,-1,0,0,0,0,84,88,131,120,34,108.94,166,-116.00,25.00,-1017.00
2024-06-07 11:24:14.785676,-8,-1,0,0,0,0,84,88,132,120,34,108.97,166,-122.00,62.00,-992.00
2024-06-07 11:24:14.967749,-8,-1,0,0,0,0,84,88,131,120,34,109.23,166,-114.00,59.00,-925.00
2024-06-07 11:24:14.989666,-8,-3,0,0,0,0,84,88,131,120,34,109.02,166,-124.00,27.00,-999.00
2024-06-07 11:24:15.091555,-9,-4,0,1,0,0,84,88,132,120,34,109.01,166,-107.00,3.00,-987.00
2024-06-07 11:24:15.193680,-9,-2,0,1,0,0,84,88,131,120,34,108.68,167,-94.00,10.00,-1024.00
2024-06-07 11:24:15.377368,-8,-1,0,2,0,0,84,88,132,120,34,108.98,167,-137.00,20.00,-1071.00
2024-06-07 11:24:15.397744,-8,0,0,2,0,0,84,88,132,120,34,109.55,167,-111.00,20.00,-977.00
2024-06-07 11:24:15.582115,-7,0,0,2,0,0,84,88,130,120,34,109.36,167,-85.00,68.00,-1073.00
2024-06-07 11:24:15.582213,-6,-2,0,2,0,0,84,88,131,120,34,109.31,167,-114.00,38.00,-1041.00
2024-06-07 11:24:15.652979,-6,-2,0,2,0,0,84,88,129,120,34,108.98,167,-116.00,48.00,-933.00
2024-06-07 11:24:15.786961,-6,-3,0,2,0,0,84,88,130,120,34,108.76,167,-101.00,37.00,-1033.00
2024-06-07 11:24:15.907576,-5,-3,0,2,0,0,86,88,130,120,34,109.30,167,-100.00,51.00,-961.00
2024-06-07 11:24:15.958841,-6,-1,0,2,0,0,86,88,129,120,34,108.78,167,-121.00,24.00,-1027.00
2024-06-07 11:24:16.060993,-6,-2,0,1,0,0,86,88,131,120,34,109.10,167,-158.00,46.00,-1026.00
2024-06-07 11:24:16.196593,-8,-1,0,1,0,0,86,88,131,120,34,109.35,168,-173.00,31.00,-986.00
2024-06-07 11:24:16.268337,-8,-2,0,1,0,0,86,88,132,120,34,109.16,168,-149.00,43.00,-1017.00
2024-06-07 11:24:16.368739,-9,-1,0,1,0,0,86,88,133,120,34,109.62,168,-162.00,38.00,-930.00
2024-06-07 11:24:16.470035,-9,-2,0,1,0,0,86,88,130,120,34,109.31,168,-130.00,70.00,-927.00
2024-06-07 11:24:16.606172,-8,-3,0,1,0,0,86,88,130,120,34,109.47,168,-134.00,61.00,-991.00
2024-06-07 11:24:16.674423,-9,-2,0,1,0,0,86,88,132,120,34,109.31,168,-130.00,44.00,-963.00
2024-06-07 11:24:16.810941,-9,-2,0,2,0,0,86,88,130,120,34,109.26,168,-126.00,63.00,-1021.00
2024-06-07 11:24:16.882647,-7,-3,0,2,0,0,85,88,130,120,34,109.11,168,-121.00,77.00,-989.00
2024-06-07 11:24:16.979584,-7,-3,0,2,0,0,85,88,129,120,34,109.26,168,-172.00,77.00,-917.00
2024-06-07 11:24:17.081597,-7,-5,0,2,0,0,85,88,130,120,34,108.97,168,-134.00,48.00,-999.00
2024-06-07 11:24:17.184057,-7,-5,0,2,0,0,85,88,131,120,34,109.24,169,-151.00,53.00,-933.00
2024-06-07 11:24:17.285599,-7,-3,0,2,0,0,85,88,132,120,34,109.33,169,-86.00,37.00,-950.00
2024-06-07 11:24:17.425333,-7,-3,0,2,0,0,85,88,131,120,34,109.10,169,-109.00,51.00,-1001.00
2024-06-07 11:24:17.489559,-7,-1,0,2,0,0,85,88,131,120,34,108.94,169,-119.00,81.00,-1104.00
2024-06-07 11:24:17.630237,-6,-2,0,2,0,0,85,88,132,120,34,109.05,169,-109.00,65.00,-1003.00
2024-06-07 11:24:17.693553,-7,-2,0,2,0,0,85,88,132,120,34,109.41,169,-78.00,84.00,-951.00
2024-06-07 11:24:17.834917,-6,-3,0,3,0,0,85,88,131,120,34,109.17,169,-121.00,67.00,-911.00
2024-06-07 11:24:17.897606,-5,-3,0,3,0,0,85,88,130,120,34,109.14,169,-143.00,41.00,-988.00
2024-06-07 11:24:18.040546,-4,-5,0,2,0,0,85,88,131,120,34,108.70,169,-132.00,59.00,-1030.00
2024-06-07 11:24:18.102214,-6,-4,0,2,0,0,85,88,130,120,34,109.03,169,-90.00,63.00,-959.00
2024-06-07 11:24:18.213861,-6,-2,0,2,0,0,85,88,130,120,34,109.15,170,-139.00,80.00,-981.00
2024-06-07 11:24:18.306967,-6,-1,0,2,0,0,85,88,130,120,34,109.43,170,-79.00,77.00,-901.00
2024-06-07 11:24:18.449319,-6,-3,0,2,0,0,85,88,130,120,34,109.40,170,-107.00,71.00,-1000.00
2024-06-07 11:24:18.509487,-5,-4,0,2,0,0,85,88,129,120,34,109.19,170,-119.00,58.00,-1011.00
2024-06-07 11:24:18.654122,-5,-5,0,2,0,0,85,88,127,120,34,108.87,170,-105.00,80.00,-952.00
2024-06-07 11:24:18.713444,-6,-4,0,2,0,0,85,88,127,120,34,109.18,170,-123.00,119.00,-1019.00
2024-06-07 11:24:18.859001,-6,-4,0,2,0,0,85,88,129,120,34,109.28,170,-140.00,71.00,-1044.00
2024-06-07 11:24:18.917919,-6,-5,0,2,0,0,85,88,127,120,34,109.23,170,-119.00,68.00,-1003.00
2024-06-07 11:24:19.063915,-7,-5,0,2,0,0,85,88,129,120,34,109.40,170,-117.00,66.00,-965.00
2024-06-07 11:24:19.121431,-6,-5,0,1,0,0,85,88,129,120,34,109.31,170,-136.00,37.00,-980.00
2024-06-07 11:24:19.172850,-7,-5,0,1,0,0,85,88,129,120,34,108.97,171,-132.00,21.00,-989.00
2024-06-07 11:24:19.371844,-7,-4,0,1,-1,0,85,88,129,120,34,109.03,171,-156.00,60.00,-968.00
2024-06-07 11:24:19.376672,-8,-1,0,1,-1,0,85,88,130,120,34,109.46,171,-168.00,37.00,-997.00
2024-06-07 11:24:19.575819,-9,0,0,1,0,0,85,88,129,120,34,109.30,171,-152.00,78.00,-925.00
2024-06-07 11:24:19.580804,-9,0,0,1,0,0,85,88,129,120,34,108.97,171,-125.00,72.00,-983.00
2024-06-07 11:24:19.780528,-8,-1,0,1,0,0,85,88,129,120,34,109.18,171,-155.00,63.00,-1002.00
2024-06-07 11:24:19.784830,-7,-3,0,1,0,0,85,88,127,120,34,109.50,171,-167.00,71.00,-1012.00
2024-06-07 11:24:19.994832,-3,-3,0,0,0,0,85,88,127,120,34,109.34,171,-138.00,60.00,-1014.00
2024-06-07 11:24:19.995196,-5,-3,0,0,0,0,85,88,128,120,34,109.13,171,-123.00,56.00,-1040.00
2024-06-07 11:24:20.090698,-6,-3,0,0,0,0,85,88,128,120,34,109.22,171,-135.00,47.00,-964.00
2024-06-07 11:24:20.192964,-6,-3,0,0,0,0,85,88,129,120,34,109.28,172,-139.00,34.00,-946.00
2024-06-07 11:24:20.294734,-6,-3,0,0,0,0,85,88,131,120,34,109.42,172,-101.00,38.00,-1015.00
2024-06-07 11:24:20.396777,-6,-3,0,0,0,0,85,88,128,120,34,109.39,172,-138.00,53.00,-997.00
2024-06-07 11:24:20.599721,-6,-3,0,0,0,0,85,88,132,120,34,109.14,172,-145.00,85.00,-1048.00
2024-06-07 11:24:20.600701,-6,-4,0,0,0,0,85,88,131,120,34,109.58,172,-122.00,74.00,-975.00
2024-06-07 11:24:20.805123,-6,-3,0,0,0,0,85,88,132,120,33,109.26,172,-126.00,72.00,-881.00
2024-06-07 11:24:20.805284,-7,-4,0,0,0,0,85,88,132,120,33,109.26,172,-117.00,49.00,-1003.00
2024-06-07 11:24:20.906751,-7,-4,0,0,0,0,85,88,134,120,33,109.31,172,-143.00,82.00,-1026.00
2024-06-07 11:24:21.009332,-7,-4,0,0,0,0,85,88,136,120,33,109.24,172,-147.00,56.00,-1049.00
2024-06-07 11:24:21.111665,-7,-4,0,0,0,0,85,88,134,120,33,109.23,172,-110.00,58.00,-991.00
2024-06-07 11:24:21.214152,-8,-3,0,0,0,0,85,88,136,120,33,109.38,173,-131.00,52.00,-984.00
2024-06-07 11:24:21.314820,-8,-2,0,0,0,0,85,88,137,120,33,109.33,173,-157.00,61.00,-1017.00
2024-06-07 11:24:21.420458,-7,-3,0,0,0,0,85,88,136,120,33,109.59,173,-140.00,56.00,-951.00
2024-06-07 11:24:21.518968,-7,-3,0,0,0,0,85,88,137,120,33,109.21,173,-185.00,62.00,-1023.00
2024-06-07 11:24:21.626301,-8,-2,0,0,0,0,85,88,136,120,33,109.06,173,-152.00,52.00,-950.00
2024-06-07 11:24:21.722678,-8,-4,0,0,0,0,85,88,139,120,33,108.94,173,-118.00,41.00,-1000.00
2024-06-07 11:24:21.828730,-7,-2,0,0,0,0,85,88,138,120,33,109.07,173,-131.00,51.00,-982.00
2024-06-07 11:24:21.926756,-7,-1,0,0,0,0,85,88,138,120,33,109.51,173,-116.00,96.00,-950.00
2024-06-07 11:24:22.028244,-6,-3,0,0,0,0,85,88,139,120,33,109.20,173,-125.00,111.00,-1064.00
2024-06-07 11:24:22.135672,-5,-4,0,0,0,0,85,88,138,120,33,109.12,173,-85.00,50.00,-990.00
2024-06-07 11:24:22.232965,-4,-6,2,0,0,0,85,88,139,120,33,109.27,174,-144.00,101.00,-893.00
2024-06-07 11:24:22.340474,-7,-6,8,0,0,0,85,88,139,120,33,109.02,174,-64.00,114.00,-1053.00
2024-06-07 11:24:22.436439,-7,-5,14,0,0,0,85,88,138,120,33,109.11,174,-105.00,109.00,-978.00
2024-06-07 11:24:22.545211,-3,-5,20,0,0,0,85,88,137,120,33,109.21,174,-86.00,85.00,-940.00
2024-06-07 11:24:22.640497,-2,-7,25,0,0,0,85,88,137,120,33,109.31,174,-109.00,128.00,-932.00
2024-06-07 11:24:22.691137,-4,-7,31,0,0,0,85,88,136,120,33,109.37,174,-144.00,126.00,-942.00
2024-06-07 11:24:22.853057,-5,-7,37,0,0,0,85,88,135,120,33,109.65,174,-47.00,168.00,-955.00
2024-06-07 11:24:22.946827,-6,-6,44,0,0,1,85,88,132,120,33,109.54,174,-25.00,184.00,-982.00
2024-06-07 11:24:23.000067,-2,-7,50,0,1,1,85,88,131,120,33,109.87,174,-11.00,184.00,-1015.00
2024-06-07 11:24:23.099293,0,-7,56,0,1,0,85,88,131,120,33,109.59,174,-11.00,214.00,-1021.00
2024-06-07 11:24:23.267658,1,-7,63,0,1,0,85,88,130,120,33,109.97,175,51.00,156.00,-987.00
2024-06-07 11:24:23.303258,2,-8,69,0,1,0,85,88,129,120,33,109.59,175,16.00,134.00,-1007.00
2024-06-07 11:24:23.453466,3,-8,76,0,1,0,85,88,128,120,33,109.43,175,83.00,87.00,-1045.00
2024-06-07 11:24:23.507051,4,-8,83,0,1,0,85,88,130,120,33,109.78,175,99.00,110.00,-1013.00
2024-06-07 11:24:23.671619,6,-5,90,0,1,0,85,88,130,120,33,109.84,175,104.00,95.00,-1026.00
2024-06-07 11:24:23.711277,7,-4,97,0,1,0,85,88,131,120,33,109.76,175,103.00,82.00,-1012.00
2024-06-07 11:24:23.876833,7,-3,103,0,1,0,85,88,132,120,33,109.67,175,116.00,81.00,-1011.00
2024-06-07 11:24:23.915280,8,-2,110,0,1,0,85,87,132,120,33,109.35,175,129.00,100.00,-951.00
2024-06-07 11:24:24.081381,8,-1,117,0,1,0,85,87,133,120,33,109.28,175,137.00,53.00,-951.00
2024-06-07 11:24:24.119148,8,-1,124,-1,1,0,85,87,134,120,33,109.15,175,141.00,43.00,-1038.00
2024-06-07 11:24:24.221208,8,-1,130,-1,0,0,85,87,134,120,33,109.24,176,95.00,10.00,-943.00
2024-06-07 11:24:24.388506,8,0,136,-1,0,0,85,87,135,120,33,109.33,176,141.00,3.00,-986.00
2024-06-07 11:24:24.425185,8,0,142,-1,0,0,85,87,135,120,33,109.15,176,128.00,-58.00,-1013.00
2024-06-07 11:24:24.527206,8,2,148,-1,0,0,85,87,135,120,33,109.21,176,168.00,-8.00,-946.00
2024-06-07 11:24:24.695783,7,2,154,-1,0,0,85,87,135,120,33,109.12,176,147.00,-33.00,-1015.00
2024-06-07 11:24:24.731217,8,3,160,-2,0,0,85,87,136,120,33,109.16,176,131.00,23.00,-994.00
2024-06-07 11:24:24.901846,8,4,166,-2,0,0,85,87,136,120,33,109.34,176,149.00,-8.00,-1057.00
2024-06-07 11:24:24.935183,7,3,172,-2,0,0,84,87,136,120,33,109.24,176,150.00,-11.00,-964.00
2024-06-07 11:24:25.105413,8,3,178,-2,0,0,84,87,137,120,33,109.40,176,120.00,-28.00,-1005.00
2024-06-07 11:24:25.139079,7,4,-175,-2,0,0,84,87,136,120,33,109.09,176,107.00,-86.00,-1032.00
2024-06-07 11:24:25.242617,6,5,-170,-2,0,0,84,87,139,120,33,109.65,177,136.00,-71.00,-987.00
2024-06-07 11:24:25.412521,6,6,-164,-2,0,0,84,87,138,120,33,109.61,177,111.00,-74.00,-981.00
2024-06-07 11:24:25.450060,6,6,-158,-2,0,0,84,87,140,120,33,109.32,177,66.00,-99.00,-989.00
2024-06-07 11:24:25.547140,5,6,-152,-2,0,0,84,87,140,120,33,109.40,177,107.00,-107.00,-934.00
2024-06-07 11:24:25.649773,4,7,-147,-2,0,0,84,87,139,120,33,109.52,177,79.00,-107.00,-942.00
2024-06-07 11:24:25.822422,4,7,-141,-2,0,0,84,87,140,120,33,109.82,177,87.00,-115.00,-969.00
2024-06-07 11:24:25.855103,3,7,-134,-2,0,0,84,87,138,120,33,110.00,177,38.00,-132.00,-934.00
2024-06-07 11:24:25.955164,1,7,-122,-2,1,0,85,87,138,120,33,109.88,177,6.00,-181.00,-973.00
2024-06-07 11:24:26.129271,0,8,-116,-2,1,0,85,87,138,120,33,109.49,177,-27.00,-152.00,-954.00
2024-06-07 11:24:26.159107,0,9,-110,-2,1,0,85,87,138,120,33,109.73,178,-27.00,-149.00,-1024.00
2024-06-07 11:24:26.261021,-1,9,-104,-2,2,0,85,87,139,120,33,109.82,178,-97.00,-137.00,-991.00
2024-06-07 11:24:26.436466,-2,9,-97,-1,2,0,85,87,138,120,33,109.69,178,-85.00,-82.00,-1025.00
2024-06-07 11:24:26.465875,-5,8,-91,-1,2,0,85,87,139,120,33,109.34,178,-91.00,-91.00,-918.00
2024-06-07 11:24:26.567647,-6,7,-85,-1,2,0,85,87,138,120,33,109.47,178,-93.00,-57.00,-1029.00
2024-06-07 11:24:26.744013,-6,6,-78,0,2,0,85,87,136,120,33,109.91,178,-117.00,-48.00,-999.00
2024-06-07 11:24:26.774917,-7,5,-72,0,2,0,85,87,137,120,32,109.41,178,-122.00,-43.00,-1006.00
2024-06-07 11:24:26.822054,-7,3,-66,0,2,0,85,87,136,120,32,109.15,178,-125.00,-105.00,-1032.00
2024-06-07 11:24:26.975033,-7,2,-59,0,2,0,85,88,135,120,32,109.71,178,-157.00,-44.00,-983.00
2024-06-07 11:24:27.032199,-8,1,-53,0,1,0,85,88,135,120,32,109.39,178,-186.00,-40.00,-1051.00
2024-06-07 11:24:27.128115,-9,1,-46,0,1,0,85,88,135,120,32,109.16,179,-175.00,-51.00,-975.00
2024-06-07 11:24:27.229949,-9,0,-40,-1,1,0,85,88,135,120,32,109.03,179,-152.00,-1.00,-975.00
2024-06-07 11:24:27.332087,-10,0,-33,-1,1,0,85,88,137,120,32,108.96,179,-191.00,22.00,-946.00
2024-06-07 11:24:27.435936,-11,0,-27,0,1,0,85,88,136,120,32,109.00,179,-168.00,25.00,-939.00
2024-06-07 11:24:27.543406,-11,-2,-21,0,1,0,85,88,137,120,32,108.87,179,-121.00,19.00,-982.00
2024-06-07 11:24:27.638261,-11,-4,-16,0,0,0,85,88,136,120,32,109.16,179,-151.00,43.00,-972.00
2024-06-07 11:24:27.767586,-11,-4,-13,0,0,0,85,88,137,120,32,109.04,179,-147.00,52.00,-917.00
2024-06-07 11:24:27.842283,-11,-5,-10,0,0,0,85,88,136,120,32,109.37,179,-158.00,68.00,-1016.00
2024-06-07 11:24:27.972491,-11,-5,-8,1,0,0,85,88,137,120,32,109.22,179,-174.00,72.00,-997.00
2024-06-07 11:24:28.046613,-11,-6,-6,1,0,0,85,88,137,120,32,109.34,179,-153.00,80.00,-976.00
2024-06-07 11:24:28.177445,-12,-7,-6,2,-1,0,85,88,137,120,32,109.08,180,-141.00,68.00,-1044.00
2024-06-07 11:24:28.250394,-13,-7,-6,2,-2,0,85,88,136,120,32,109.32,180,-137.00,54.00,-972.00
2024-06-07 11:24:28.382179,-13,-7,-6,3,-2,0,85,88,135,120,32,108.96,180,-163.00,92.00,-968.00
2024-06-07 11:24:28.454045,-13,-6,-6,4,-3,0,85,88,133,120,32,109.09,180,-179.00,83.00,-926.00
2024-06-07 11:24:28.587029,-11,-5,-6,4,-3,0,85,88,132,120,32,108.77,180,-169.00,61.00,-925.00
2024-06-07 11:24:28.658034,-10,-4,-7,4,-3,0,85,88,130,120,32,109.03,180,-167.00,61.00,-900.00
2024-06-07 11:24:28.791672,-8,-4,-7,4,-4,0,85,88,128,120,32,108.81,180,-205.00,23.00,-1063.00
2024-06-07 11:24:28.862002,-8,-2,-7,3,-4,0,85,88,125,110,32,109.08,180,-171.00,72.00,-1017.00
2024-06-07 11:24:28.996574,-9,-1,-7,3,-3,0,85,89,124,110,32,108.75,180,-176.00,80.00,-963.00
2024-06-07 11:24:29.066825,-8,-1,-7,3,-3,0,85,89,124,110,32,109.15,180,-134.00,65.00,-1031.00
2024-06-07 11:24:29.169814,-6,0,-7,3,-3,0,85,89,123,110,32,109.07,181,-213.00,78.00,-1011.00
2024-06-07 11:24:29.270270,-6,0,-7,3,-2,0,85,89,123,110,32,108.84,181,-217.00,71.00,-944.00
2024-06-07 11:24:29.406142,-8,-2,-7,2,-1,0,85,89,124,110,32,109.11,181,-129.00,52.00,-995.00
2024-06-07 11:24:29.475249,-7,-2,-7,2,-1,0,85,89,126,110,32,109.26,181,-164.00,105.00,-1008.00
2024-06-07 11:24:29.610973,-7,-3,-7,2,-1,0,85,89,125,110,32,109.11,181,-210.00,45.00,-1005.00
2024-06-07 11:24:29.678191,-6,-4,-7,1,-1,0,85,89,128,110,32,108.71,181,-205.00,25.00,-979.00
2024-06-07 11:24:29.815726,-8,-2,-7,1,-2,0,85,89,128,120,31,108.81,181,-180.00,17.00,-1025.00
2024-06-07 11:24:29.881999,-8,0,-7,1,-2,0,85,89,130,120,31,108.77,181,-173.00,5.00,-916.00
2024-06-07 11:24:30.020779,-7,0,-7,0,-1,0,85,88,130,120,31,108.65,181,-204.00,-6.00,-1010.00
2024-06-07 11:24:30.087066,-9,0,-7,0,-2,0,85,88,132,120,31,108.67,181,-210.00,-14.00,-989.00
2024-06-07 11:24:30.187905,-10,1,-7,0,-2,0,85,88,132,120,31,108.98,182,-247.00,-6.00,-928.00
2024-06-07 11:24:30.327537,-12,4,-12,0,-2,0,85,88,135,120,31,109.41,182,-195.00,-27.00,-877.00
2024-06-07 11:24:30.398740,-11,5,-17,0,-2,0,85,88,134,120,31,109.50,182,-210.00,-33.00,-927.00
2024-06-07 11:24:30.493787,-10,5,-23,0,-1,0,85,88,132,120,31,109.39,182,-194.00,-70.00,-1040.00
2024-06-07 11:24:30.548657,-9,6,-28,0,-1,0,85,88,133,120,31,109.38,182,-184.00,-81.00,-917.00
2024-06-07 11:24:30.646875,-9,7,-34,0,-1,0,85,88,130,120,31,109.08,182,-157.00,-117.00,-992.00
2024-06-07 11:24:30.748828,-7,9,-39,0,-1,0,85,88,130,120,31,109.32,182,-200.00,-95.00,-1003.00
2024-06-07 11:24:30.942052,-8,9,-44,0,0,0,85,88,128,110,31,109.35,182,-146.00,-136.00,-1009.00
2024-06-07 11:24:30.952758,-6,10,-49,0,0,0,85,88,127,110,31,109.24,182,-159.00,-133.00,-1042.00
2024-06-07 11:24:31.055360,-6,9,-54,0,0,0,85,88,127,110,31,109.04,182,-140.00,-143.00,-997.00
2024-06-07 11:24:31.156842,-5,8,-59,0,0,0,85,88,127,110,31,109.14,183,-50.00,-193.00,-1068.00
2024-06-07 11:24:31.258824,-5,9,-59,0,0,0,85,88,129,110,31,109.32,183,-95.00,-188.00,-979.00
2024-06-07 11:24:31.458413,-4,11,-59,0,0,0,85,88,127,110,31,109.18,183,-159.00,-180.00,-924.00
2024-06-07 11:24:31.463293,-5,12,-59,0,0,0,85,88,131,110,31,109.17,183,-131.00,-143.00,-1008.00
2024-06-07 11:24:31.658875,-6,12,-60,0,0,0,85,88,129,110,31,109.13,183,-108.00,-134.00,-1067.00
2024-06-07 11:24:31.667247,-7,10,-60,0,0,0,85,88,129,110,31,109.15,183,-106.00,-118.00,-968.00
2024-06-07 11:24:31.863675,-6,9,-59,0,0,0,85,88,129,110,31,109.32,183,-79.00,-166.00,-945.00
2024-06-07 11:24:31.870925,-5,9,-59,0,0,0,85,88,127,110,31,109.48,183,-86.00,-163.00,-951.00
2024-06-07 11:24:31.973263,-5,9,-59,0,0,0,85,88,127,110,31,109.10,183,-108.00,-169.00,-958.00
2024-06-07 11:24:32.171232,-5,9,-59,0,0,0,85,88,127,110,31,109.28,183,-96.00,-153.00,-946.00
2024-06-07 11:24:32.177529,-5,8,-59,0,0,0,85,88,125,110,31,109.17,184,-105.00,-148.00,-992.00
2024-06-07 11:24:32.278821,-5,8,-59,1,0,0,85,88,127,110,31,109.28,184,-81.00,-143.00,-1022.00
2024-06-07 11:24:32.381237,-5,8,-59,1,0,0,85,88,127,110,31,109.25,184,-67.00,-131.00,-987.00
2024-06-07 11:24:32.483336,-5,8,-59,1,0,0,85,88,126,110,31,109.43,184,-78.00,-161.00,-975.00
2024-06-07 11:24:32.684322,-4,7,-59,1,0,0,85,88,125,110,31,109.16,184,-87.00,-134.00,-978.00
2024-06-07 11:24:32.686897,-3,7,-59,1,0,0,85,88,124,110,31,109.10,184,-98.00,-107.00,-972.00
2024-06-07 11:24:32.788736,-4,6,-59,1,0,0,85,88,126,110,31,109.24,184,-73.00,-90.00,-1044.00
2024-06-07 11:24:32.891200,-4,5,-59,1,0,0,85,88,127,110,31,109.44,184,-72.00,-123.00,-1015.00
2024-06-07 11:24:32.992795,-3,5,-59,1,0,0,86,89,126,110,31,109.38,184,0.00,-101.00,-998.00
2024-06-07 11:24:33.094801,-1,5,-59,1,0,0,86,89,125,110,31,109.41,184,-40.00,-93.00,-930.00
2024-06-07 11:24:33.196904,0,6,-59,1,0,0,86,89,127,120,31,109.31,185,-64.00,-100.00,-1004.00
2024-06-07 11:24:33.298796,-1,5,-59,1,0,0,86,89,127,120,31,109.65,185,-68.00,-69.00,-1030.00
2024-06-07 11:24:33.464670,-2,5,-59,1,0,0,86,89,127,120,31,109.11,185,-89.00,-63.00,-1032.00
2024-06-07 11:24:33.502709,-3,5,-59,1,0,0,86,89,128,120,31,109.13,185,-70.00,-97.00,-931.00
2024-06-07 11:24:33.604939,-4,4,-59,1,0,0,86,89,130,120,31,109.66,185,-59.00,-80.00,-997.00
2024-06-07 11:24:33.707205,-2,4,-59,1,0,0,86,89,130,120,30,109.27,185,-85.00,-66.00,-944.00
2024-06-07 11:24:33.809300,-2,3,-59,0,1,0,86,89,129,120,30,109.55,185,-86.00,-87.00,-1008.00
2024-06-07 11:24:33.911697,-5,3,-59,0,0,0,86,89,130,120,30,109.60,185,-23.00,-124.00,-974.00
2024-06-07 11:24:34.014454,-4,4,-59,0,0,0,85,88,128,120,30,109.59,185,-46.00,-108.00,-989.00
2024-06-07 11:24:34.116489,-3,5,-59,0,0,0,85,88,129,120,30,109.18,185,-39.00,-81.00,-1026.00
2024-06-07 11:24:34.216855,-2,5,-59,0,0,0,85,88,127,120,30,109.16,186,-64.00,-85.00,-990.00
2024-06-07 11:24:34.267593,-3,4,-59,0,0,0,85,88,129,120,30,109.70,186,-97.00,-79.00,-986.00
2024-06-07 11:24:34.423565,-3,4,-59,0,0,0,85,88,130,120,30,109.12,186,-96.00,-76.00,-999.00
2024-06-07 11:24:34.471977,-2,6,-59,0,0,0,85,88,130,120,30,109.68,186,-77.00,-63.00,-976.00
2024-06-07 11:24:34.635241,-5,3,-59,0,1,0,85,88,131,120,30,109.62,186,-86.00,-129.00,-967.00
2024-06-07 11:24:34.677725,-4,2,-59,0,0,0,85,88,130,120,30,109.34,186,-93.00,-58.00,-1035.00
2024-06-07 11:24:34.780013,-4,6,-59,0,0,0,85,88,131,120,30,109.38,186,-95.00,-55.00,-960.00
2024-06-07 11:24:34.879686,-5,4,-59,0,0,0,85,88,132,120,30,109.60,186,-42.00,-86.00,-1026.00
2024-06-07 11:24:35.038353,-5,2,-59,0,0,0,86,88,132,120,30,109.47,186,-76.00,-81.00,-962.00
2024-06-07 11:24:35.088636,-3,4,-59,0,0,0,86,88,134,120,30,109.17,186,-97.00,-51.00,-1019.00
2024-06-07 11:24:35.186010,-3,4,-59,0,0,0,86,88,134,120,30,109.58,187,-62.00,-89.00,-998.00
2024-06-07 11:24:35.287565,-3,4,-59,0,0,0,86,88,133,120,30,109.22,187,-78.00,-70.00,-1010.00
2024-06-07 11:24:35.447663,-4,4,-59,0,0,0,86,88,135,120,30,109.31,187,-66.00,-83.00,-1031.00
2024-06-07 11:24:35.491613,-3,4,-59,0,0,0,86,88,135,120,30,109.43,187,-86.00,-108.00,-960.00
2024-06-07 11:24:35.652434,-3,4,-59,0,0,0,86,88,134,120,30,109.63,187,-63.00,-82.00,-977.00
2024-06-07 11:24:35.695660,-3,5,-59,0,0,0,86,88,136,120,29,109.64,187,-77.00,-105.00,-997.00
2024-06-07 11:24:35.857337,-3,5,-59,0,0,0,86,88,135,120,29,109.84,187,-101.00,-70.00,-1017.00
2024-06-07 11:24:35.899609,-4,5,-59,0,0,0,86,88,136,120,29,109.30,187,-82.00,-84.00,-992.00
2024-06-07 11:24:36.062313,-5,5,-59,0,0,0,86,88,137,120,29,109.12,187,-74.00,-62.00,-954.00
2024-06-07 11:24:36.104229,-6,5,-59,0,0,0,86,88,136,120,29,109.69,187,-98.00,-56.00,-993.00
2024-06-07 11:24:36.206063,-6,4,-59,0,0,0,86,88,138,120,29,109.59,188,-103.00,-60.00,-966.00
2024-06-07 11:24:36.315963,-5,4,-59,0,0,0,86,88,137,120,29,109.51,188,-71.00,-78.00,-950.00
2024-06-07 11:24:36.411041,-5,4,-59,0,0,0,86,88,136,120,29,109.45,188,-75.00,-66.00,-978.00
2024-06-07 11:24:36.511873,-4,4,-59,0,0,0,86,88,135,120,29,109.34,188,-79.00,-48.00,-1032.00
2024-06-07 11:24:36.676930,-4,4,-59,0,0,0,86,88,138,120,29,109.26,188,-120.00,-51.00,-955.00
2024-06-07 11:24:36.715843,-4,5,-59,0,0,0,86,88,136,120,29,109.53,188,-102.00,-33.00,-957.00
2024-06-07 11:24:36.818650,-5,3,-59,0,1,0,86,88,136,120,29,109.41,188,-101.00,-58.00,-959.00
2024-06-07 11:24:36.983733,-5,0,-59,0,0,0,86,88,135,120,29,109.29,188,-117.00,-63.00,-998.00
2024-06-07 11:24:37.021546,-5,1,-59,0,0,0,86,89,135,120,29,109.09,188,-106.00,-64.00,-998.00
2024-06-07 11:24:37.188971,-5,2,-59,0,0,0,86,89,134,120,29,109.40,188,-129.00,-37.00,-1027.00
2024-06-07 11:24:37.226225,-6,2,-59,0,1,0,86,89,136,120,29,109.34,189,-118.00,-76.00,-954.00
2024-06-07 11:24:37.393169,-7,2,-59,0,1,0,86,89,137,120,29,109.22,189,-103.00,-61.00,-976.00
