TS,pitch,roll,yaw,vgx,vgy,vgz,templ,temph,tof,h,bat,baro,time,agx,agy,agz
2024-05-17 16:31:16.141447,1,0,2,0,0,0,80,82,10,0,72,164.88,76,22.00,6.00,-1000.00
2024-05-17 16:31:16.157071,1,0,2,0,0,0,80,82,10,0,71,165.12,76,20.00,7.00,-1001.00
2024-05-17 16:31:16.346089,1,0,2,0,0,0,80,82,10,0,71,164.90,76,22.00,7.00,-1000.00
2024-05-17 16:31:16.361351,1,0,2,0,0,0,80,82,10,0,71,165.11,76,23.00,6.00,-997.00
2024-05-17 16:31:16.554598,1,0,2,0,0,0,80,82,10,0,71,165.33,76,22.00,7.00,-1000.00
2024-05-17 16:31:16.565495,1,0,2,0,0,0,80,82,10,0,71,165.21,76,22.00,7.00,-999.00
2024-05-17 16:31:16.667934,1,0,2,0,0,0,80,82,10,0,71,165.48,76,22.00,7.00,-999.00
2024-05-17 16:31:16.770177,1,0,2,0,0,0,80,82,10,0,71,165.21,76,21.00,6.00,-999.00
2024-05-17 16:31:16.872819,1,0,2,0,0,0,80,82,10,0,71,165.18,76,22.00,7.00,-1000.00
2024-05-17 16:31:16.973282,1,0,2,0,0,0,80,82,10,0,71,165.27,76,21.00,6.00,-1000.00
2024-05-17 16:31:17.165246,1,0,2,0,0,0,80,82,10,0,71,165.07,76,22.00,6.00,-998.00
2024-05-17 16:31:17.177113,1,0,2,0,0,0,80,82,10,0,71,165.26,76,21.00,8.00,-1000.00
2024-05-17 16:31:17.373694,1,0,2,0,0,0,80,82,10,0,71,165.23,76,21.00,7.00,-998.00
2024-05-17 16:31:17.381331,1,0,2,0,0,0,80,82,10,0,71,165.33,76,22.00,5.00,-1001.00
2024-05-17 16:31:17.574876,1,0,2,0,0,0,80,82,10,0,71,165.44,76,22.00,7.00,-997.00
2024-05-17 16:31:17.585733,1,0,2,0,0,0,80,82,10,0,71,165.26,76,21.00,7.00,-999.00
2024-05-17 16:31:17.779628,1,0,2,0,0,0,80,82,10,0,71,165.30,76,22.00,6.00,-1000.00
2024-05-17 16:31:17.788999,1,0,2,0,0,0,80,82,10,0,71,165.14,76,22.00,6.00,-1000.00
2024-05-17 16:31:17.984469,1,0,2,0,0,0,80,82,10,0,71,165.28,76,23.00,6.00,-998.00
2024-05-17 16:31:17.992993,1,0,2,0,0,0,80,82,10,0,71,165.23,76,21.00,5.00,-996.00
2024-05-17 16:31:18.095052,1,0,2,0,0,0,80,82,10,0,71,165.30,76,22.00,7.00,-997.00
2024-05-17 16:31:18.291824,1,0,2,0,0,0,80,82,10,0,71,165.32,76,20.00,8.00,-1000.00
2024-05-17 16:31:18.298971,1,0,2,0,0,0,80,82,10,0,71,165.48,76,20.00,6.00,-999.00
2024-05-17 16:31:18.401035,1,0,2,0,0,0,80,82,10,0,71,165.23,76,21.00,8.00,-998.00
2024-05-17 16:31:18.503160,1,0,2,0,0,0,80,82,10,0,71,165.31,76,21.00,7.00,-996.00
2024-05-17 16:31:18.701267,1,0,2,0,0,0,80,82,10,0,71,165.31,76,21.00,6.00,-999.00
2024-05-17 16:31:18.706989,1,0,2,0,0,0,80,82,10,0,71,165.09,76,22.00,6.00,-998.00
2024-05-17 16:31:18.907472,1,0,2,0,0,0,79,82,10,0,71,165.32,76,21.00,7.00,-1000.00
2024-05-17 16:31:18.911049,1,0,2,0,0,0,79,82,10,0,71,165.14,76,22.00,6.00,-1000.00
2024-05-17 16:31:19.110814,1,0,2,0,0,0,79,82,10,0,71,165.17,76,23.00,7.00,-1001.00
2024-05-17 16:31:19.115025,1,0,2,0,0,0,79,82,10,0,71,165.19,76,23.00,6.00,-999.00
2024-05-17 16:31:19.315617,1,0,2,0,0,0,79,82,10,0,71,165.33,76,20.00,8.00,-1000.00
2024-05-17 16:31:19.315795,1,0,2,0,0,0,79,82,10,0,71,165.45,76,22.00,6.00,-1002.00
2024-05-17 16:31:19.370706,1,0,2,0,0,0,79,82,10,0,71,165.57,76,21.00,5.00,-998.00
2024-05-17 16:31:19.471828,1,0,2,0,0,0,79,82,10,0,71,165.15,76,21.00,6.00,-999.00
2024-05-17 16:31:19.622814,1,0,2,0,0,0,79,82,10,0,71,164.93,76,20.00,7.00,-1001.00
2024-05-17 16:31:19.675925,1,0,2,0,0,0,79,82,10,0,71,165.28,76,19.00,7.00,-1001.00
2024-05-17 16:31:19.828085,1,0,2,0,0,0,80,82,10,0,71,165.46,76,21.00,7.00,-1003.00
2024-05-17 16:31:19.881040,1,0,2,0,0,0,80,82,10,0,71,165.33,76,21.00,7.00,-1001.00
2024-05-17 16:31:19.982335,1,0,2,0,0,0,80,82,10,0,71,165.02,76,22.00,7.00,-1000.00
2024-05-17 16:31:20.134707,1,0,2,0,0,0,80,82,10,0,71,165.23,76,31.00,3.00,-994.00
2024-05-17 16:31:20.185780,1,0,2,0,0,0,80,82,10,0,71,165.02,76,14.00,6.00,-1001.00
2024-05-17 16:31:20.339588,1,0,2,0,0,0,80,82,10,0,71,165.02,76,2.00,-13.00,-1006.00
2024-05-17 16:31:20.390032,1,0,1,0,0,0,80,82,10,0,71,165.02,77,19.00,36.00,-1059.00
2024-05-17 16:31:20.491814,0,0,0,0,0,0,80,82,10,0,71,165.02,77,6.00,-19.00,-997.00
2024-05-17 16:31:20.646714,0,-1,0,0,0,-1,80,82,10,0,71,165.02,77,-30.00,40.00,-1157.00
2024-05-17 16:31:20.695832,0,0,0,0,0,-3,80,82,10,0,71,165.02,77,-35.00,26.00,-1639.00
2024-05-17 16:31:20.853017,-1,0,0,0,0,-7,80,83,14,10,71,165.03,77,51.00,-35.00,-1326.00
2024-05-17 16:31:20.899745,0,0,0,0,0,-9,80,83,22,10,71,165.35,77,16.00,-7.00,-941.00
2024-05-17 16:31:21.056267,0,0,0,0,0,-9,80,83,28,20,71,165.65,77,16.00,-1.00,-903.00
2024-05-17 16:31:21.103847,0,0,0,0,0,-9,80,83,35,30,71,165.76,77,-21.00,-9.00,-953.00
2024-05-17 16:31:21.261174,0,0,0,0,0,-8,80,83,41,40,71,165.76,77,43.00,-10.00,-874.00
2024-05-17 16:31:21.307761,0,0,0,0,0,-6,80,83,47,50,71,165.64,77,28.00,-20.00,-824.00
2024-05-17 16:31:21.409873,0,0,0,0,0,-5,80,83,48,50,71,165.89,78,11.00,9.00,-873.00
2024-05-17 16:31:21.568272,0,0,0,0,0,-3,80,83,49,60,71,166.06,78,-11.00,33.00,-914.00
2024-05-17 16:31:21.613719,0,0,0,0,0,-2,80,83,48,60,71,165.71,78,-39.00,-1.00,-896.00
2024-05-17 16:31:21.773001,0,0,0,0,0,-1,80,83,47,60,71,165.72,78,9.00,22.00,-925.00
2024-05-17 16:31:21.817725,0,0,0,0,0,0,81,82,45,60,71,165.73,78,-22.00,-1.00,-1028.00
2024-05-17 16:31:21.977865,0,0,0,0,0,0,81,82,44,50,71,165.58,78,68.00,-16.00,-1047.00
2024-05-17 16:31:22.021676,0,0,0,0,0,0,81,82,43,50,71,165.79,78,17.00,-12.00,-1070.00
2024-05-17 16:31:22.183663,0,0,0,0,0,-1,81,82,42,50,71,165.85,78,-48.00,2.00,-1097.00
2024-05-17 16:31:22.225690,0,0,0,0,0,-1,81,82,42,50,71,165.53,78,-59.00,8.00,-1034.00
2024-05-17 16:31:22.387474,0,0,0,0,0,-1,81,82,41,50,71,165.64,78,-30.00,13.00,-1055.00
2024-05-17 16:31:22.429715,-1,0,0,0,0,-2,81,82,41,50,71,165.59,79,29.00,-22.00,-999.00
2024-05-17 16:31:22.480947,-1,0,0,0,0,-2,81,82,42,50,71,165.50,79,-16.00,15.00,-1005.00
2024-05-17 16:31:22.592271,0,0,0,0,0,-2,81,82,44,60,71,165.73,79,-26.00,2.00,-990.00
2024-05-17 16:31:22.684647,0,0,0,0,0,-2,81,82,45,60,71,165.68,79,6.00,0.00,-1078.00
2024-05-17 16:31:22.837750,0,0,0,0,0,-2,81,83,47,60,71,166.06,79,14.00,-6.00,-1000.00
2024-05-17 16:31:22.888643,0,0,0,0,0,-3,81,83,49,60,71,166.07,79,-27.00,0.00,-953.00
2024-05-17 16:31:23.001884,1,0,0,0,0,-3,81,83,50,70,71,165.58,79,90.00,-22.00,-1152.00
2024-05-17 16:31:23.092616,1,0,0,0,0,-3,81,83,52,70,71,165.87,79,7.00,-2.00,-1145.00
2024-05-17 16:31:23.206650,1,0,0,0,0,-2,81,83,55,70,71,165.90,79,-60.00,38.00,-981.00
2024-05-17 16:31:23.297862,1,0,0,0,0,-3,81,83,56,80,71,165.81,79,76.00,-10.00,-999.00
2024-05-17 16:31:23.411702,1,0,0,0,0,-3,81,83,59,80,71,165.77,80,5.00,-9.00,-1026.00
2024-05-17 16:31:23.500669,0,0,0,0,0,-2,81,83,58,80,71,166.06,80,2.00,4.00,-1068.00
2024-05-17 16:31:23.617018,0,0,0,0,0,-2,81,83,60,80,71,165.74,80,-14.00,5.00,-1000.00
2024-05-17 16:31:23.704742,0,0,0,0,0,-2,81,83,62,90,71,166.08,80,-15.00,29.00,-990.00
2024-05-17 16:31:23.821295,0,0,0,0,0,-2,81,83,64,90,71,166.23,80,-13.00,9.00,-942.00
2024-05-17 16:31:23.908597,0,0,0,0,0,-2,81,83,66,90,71,166.17,80,95.00,-29.00,-959.00
2024-05-17 16:31:24.026230,0,0,0,0,0,-2,81,83,67,90,71,166.09,80,-58.00,53.00,-959.00
2024-05-17 16:31:24.112602,0,0,0,0,0,-2,81,83,69,100,71,166.05,80,0.00,-9.00,-1049.00
2024-05-17 16:31:24.233083,0,0,0,0,0,-2,81,83,71,100,71,166.17,80,-34.00,5.00,-984.00
2024-05-17 16:31:24.318168,0,0,0,0,0,-2,81,83,73,100,71,165.85,80,3.00,2.00,-887.00
2024-05-17 16:31:24.418561,0,0,0,0,0,-1,81,83,73,100,71,166.11,81,-51.00,32.00,-1008.00
2024-05-17 16:31:24.520647,0,0,0,0,0,-2,81,83,74,100,71,166.33,81,42.00,-11.00,-980.00
2024-05-17 16:31:24.641002,0,0,0,0,0,-1,81,83,75,100,71,166.24,81,41.00,18.00,-961.00
2024-05-17 16:31:24.724530,0,0,0,0,0,-1,81,83,75,100,71,166.11,81,-25.00,40.00,-1037.00
2024-05-17 16:31:24.845953,1,0,0,0,0,-1,80,83,75,110,71,165.88,81,11.00,2.00,-983.00
2024-05-17 16:31:24.929321,0,0,0,0,0,-1,80,83,75,110,71,166.06,81,6.00,-7.00,-941.00
2024-05-17 16:31:25.051868,0,0,0,0,0,-1,80,83,76,110,71,165.74,81,50.00,-10.00,-1079.00
2024-05-17 16:31:25.132559,1,0,0,0,0,-1,80,83,76,110,71,166.08,81,47.00,12.00,-1082.00
2024-05-17 16:31:25.255073,1,0,0,0,0,-1,80,83,77,110,71,166.02,81,-34.00,29.00,-985.00
2024-05-17 16:31:25.336555,0,0,0,0,0,-1,80,83,78,110,71,166.00,81,31.00,22.00,-1038.00
2024-05-17 16:31:25.438629,0,0,0,0,0,-1,80,83,79,110,71,166.17,82,58.00,7.00,-1006.00
2024-05-17 16:31:25.540797,0,0,0,0,0,-1,80,83,79,110,71,166.10,82,5.00,26.00,-1017.00
2024-05-17 16:31:25.642505,0,0,0,0,0,-1,80,83,79,110,71,165.94,82,-13.00,15.00,-994.00
2024-05-17 16:31:25.766658,0,0,0,0,0,-1,80,83,80,110,71,166.03,82,36.00,-16.00,-958.00
2024-05-17 16:31:25.846522,-1,0,0,0,0,0,81,82,79,110,71,166.12,82,34.00,-6.00,-939.00
2024-05-17 16:31:25.971840,0,0,0,0,0,0,81,82,78,110,71,165.98,82,-36.00,45.00,-1003.00
2024-05-17 16:31:26.056978,0,0,0,0,0,0,81,82,78,110,71,165.89,82,46.00,10.00,-1004.00
2024-05-17 16:31:26.154252,0,0,0,0,0,0,81,82,77,110,71,166.10,82,-27.00,46.00,-935.00
2024-05-17 16:31:26.254686,0,0,0,0,0,0,81,82,77,110,71,166.06,82,-6.00,30.00,-1060.00
2024-05-17 16:31:26.356533,0,0,0,0,0,0,81,82,77,110,71,166.06,82,48.00,-5.00,-971.00
2024-05-17 16:31:26.458469,0,0,0,0,0,0,81,82,76,110,71,166.32,83,-28.00,39.00,-959.00
2024-05-17 16:31:26.509373,0,0,0,0,0,0,81,82,76,100,71,166.02,83,-6.00,38.00,-1029.00
2024-05-17 16:31:26.688253,0,-1,0,0,0,0,81,82,75,100,71,166.09,83,-1.00,23.00,-1037.00
2024-05-17 16:31:26.713834,0,0,0,0,0,0,81,82,75,100,71,165.93,83,-27.00,16.00,-1044.00
2024-05-17 16:31:26.893217,0,0,0,0,0,0,81,82,74,100,71,166.34,83,55.00,18.00,-983.00
2024-05-17 16:31:26.918346,0,0,0,0,0,0,81,82,74,100,71,166.31,83,12.00,0.00,-997.00
2024-05-17 16:31:27.097939,0,0,0,0,0,0,81,82,75,100,71,165.94,83,-13.00,45.00,-985.00
2024-05-17 16:31:27.122375,0,0,0,0,0,0,81,82,75,100,71,166.21,83,-47.00,68.00,-957.00
2024-05-17 16:31:27.302765,0,0,0,0,0,0,81,82,75,100,71,165.75,83,-56.00,49.00,-904.00
2024-05-17 16:31:27.325948,0,-1,0,0,0,0,81,82,75,100,71,165.72,83,-59.00,23.00,-965.00
2024-05-17 16:31:27.427903,0,0,0,0,0,0,81,82,75,100,71,166.02,84,35.00,4.00,-1035.00
2024-05-17 16:31:27.609947,0,0,0,0,0,0,81,82,76,100,71,166.03,84,28.00,7.00,-1008.00
2024-05-17 16:31:27.636282,0,0,0,0,0,0,81,82,76,100,71,166.02,84,40.00,17.00,-1009.00
2024-05-17 16:31:27.733897,1,0,0,0,0,0,81,82,77,100,71,165.83,84,-14.00,-1.00,-992.00
2024-05-17 16:31:27.917145,2,0,0,0,0,-1,80,82,78,100,71,165.99,84,37.00,11.00,-896.00
2024-05-17 16:31:27.937577,1,0,0,0,0,0,80,82,78,100,71,166.14,84,-21.00,37.00,-996.00
2024-05-17 16:31:28.121822,1,0,0,0,0,0,80,82,79,110,71,166.11,84,46.00,-2.00,-1064.00
2024-05-17 16:31:28.141460,0,0,0,0,0,0,80,82,79,110,71,166.35,84,65.00,-5.00,-1004.00
2024-05-17 16:31:28.326640,0,0,0,0,0,0,80,82,79,110,71,166.21,84,56.00,6.00,-983.00
2024-05-17 16:31:28.345470,0,0,0,0,0,0,80,82,80,110,71,166.20,84,-13.00,-8.00,-991.00
2024-05-17 16:31:28.447390,0,-1,0,0,0,0,80,82,80,110,71,165.93,85,-21.00,11.00,-971.00
2024-05-17 16:31:28.633823,0,0,0,0,0,0,80,82,80,110,71,166.01,85,-1.00,1.00,-1117.00
2024-05-17 16:31:28.651366,-1,-1,0,0,0,0,80,82,81,110,71,166.19,85,-31.00,58.00,-984.00
2024-05-17 16:31:28.753399,-1,-1,0,0,0,0,80,82,82,110,71,165.89,85,7.00,22.00,-1053.00
2024-05-17 16:31:28.940881,-1,-1,0,0,0,0,80,82,83,110,71,166.33,85,-20.00,30.00,-1003.00
2024-05-17 16:31:28.957316,0,0,0,0,0,-1,80,82,83,110,71,165.92,85,8.00,25.00,-1008.00
2024-05-17 16:31:29.145796,0,0,0,0,0,-1,80,82,83,110,71,166.34,85,31.00,49.00,-1107.00
2024-05-17 16:31:29.161209,1,0,0,0,0,-2,80,82,86,110,71,165.89,85,-30.00,25.00,-1021.00
2024-05-17 16:31:29.350559,1,-1,0,0,0,-3,80,82,89,110,71,166.06,85,67.00,-1.00,-1042.00
2024-05-17 16:31:29.365101,0,0,0,0,0,-3,80,82,92,120,71,165.89,85,-46.00,28.00,-1098.00
2024-05-17 16:31:29.467290,1,0,0,0,0,-4,80,82,96,120,71,166.38,86,44.00,-4.00,-1028.00
2024-05-17 16:31:29.657954,0,0,0,0,0,-4,80,82,100,120,71,166.32,86,11.00,12.00,-1110.00
2024-05-17 16:31:29.671268,0,0,0,0,0,-5,80,82,102,130,71,166.05,86,2.00,35.00,-961.00
2024-05-17 16:31:29.862545,0,0,0,0,0,-4,80,82,107,130,71,166.19,86,39.00,-3.00,-1108.00
2024-05-17 16:31:29.878535,0,0,0,0,0,-5,80,83,112,140,71,166.54,86,-17.00,30.00,-923.00
2024-05-17 16:31:29.977955,0,0,0,0,0,-5,80,83,116,140,71,166.47,86,-13.00,7.00,-1029.00
2024-05-17 16:31:30.170924,0,0,0,0,0,-5,80,83,120,150,71,166.71,86,12.00,14.00,-966.00
2024-05-17 16:31:30.181128,0,0,0,0,0,-4,80,83,125,150,71,166.55,86,48.00,19.00,-1080.00
2024-05-17 16:31:30.232180,0,0,0,0,0,-4,80,83,128,160,71,166.51,86,22.00,11.00,-915.00
2024-05-17 16:31:30.374531,0,-1,0,0,0,-4,80,83,132,160,71,166.52,86,21.00,17.00,-997.00
2024-05-17 16:31:30.436384,0,0,0,0,0,-4,80,83,136,170,71,166.49,87,-7.00,51.00,-908.00
2024-05-17 16:31:30.579304,0,0,0,0,0,-4,80,83,139,170,71,166.83,87,35.00,6.00,-1023.00
2024-05-17 16:31:30.640103,0,-1,0,0,0,-3,80,83,141,170,71,166.81,87,61.00,2.00,-1122.00
2024-05-17 16:31:30.784305,1,-1,0,0,0,-3,80,83,144,180,71,166.62,87,-6.00,29.00,-849.00
2024-05-17 16:31:30.844168,1,0,0,0,0,-2,80,83,145,180,71,166.63,87,20.00,35.00,-962.00
2024-05-17 16:31:30.988875,1,0,0,0,0,-2,80,83,147,180,71,166.67,87,-37.00,52.00,-911.00
2024-05-17 16:31:31.049742,1,-1,0,0,0,-2,80,83,149,180,71,166.89,87,-14.00,22.00,-918.00
2024-05-17 16:31:31.150146,0,-1,0,0,0,-1,80,83,151,180,71,166.89,87,50.00,18.00,-979.00
2024-05-17 16:31:31.301383,0,-1,0,0,0,-2,80,83,152,180,71,166.71,87,1.00,9.00,-1026.00
2024-05-17 16:31:31.354606,0,-1,0,0,0,-1,80,83,154,190,71,166.93,87,7.00,27.00,-1124.00
2024-05-17 16:31:31.456441,0,-1,0,0,0,-2,80,83,155,190,71,166.83,88,0.00,14.00,-958.00
2024-05-17 16:31:31.558112,0,-1,0,0,0,-1,80,83,156,190,71,166.75,88,0.00,61.00,-912.00
2024-05-17 16:31:31.705636,0,-1,0,0,0,-1,80,83,157,190,71,166.72,88,43.00,23.00,-938.00
2024-05-17 16:31:31.762121,1,0,0,0,0,-1,80,83,159,190,71,167.05,88,6.00,47.00,-963.00
2024-05-17 16:31:31.864110,0,-1,0,0,0,-1,80,82,159,190,71,166.74,88,48.00,30.00,-954.00
2024-05-17 16:31:31.967375,0,-1,0,0,0,-1,80,82,160,190,71,166.88,88,15.00,26.00,-905.00
2024-05-17 16:31:32.068483,1,-1,0,0,0,0,80,82,161,200,71,166.71,88,30.00,-9.00,-1003.00
2024-05-17 16:31:32.171211,2,-1,0,0,0,0,80,82,161,200,71,166.99,88,46.00,13.00,-1045.00
2024-05-17 16:31:32.273497,2,0,0,0,0,0,80,82,162,200,71,167.06,88,-25.00,47.00,-983.00
2024-05-17 16:31:32.374201,2,-1,0,0,0,-1,80,82,164,200,71,167.08,89,-13.00,43.00,-1013.00
2024-05-17 16:31:32.478646,1,-1,0,0,0,0,80,82,164,200,71,167.24,89,50.00,-5.00,-911.00
2024-05-17 16:31:32.578023,0,-1,0,0,0,0,80,82,164,200,71,166.91,89,-75.00,71.00,-934.00
2024-05-17 16:31:32.680355,0,-1,0,0,0,0,80,82,164,200,71,166.94,89,-21.00,32.00,-967.00
2024-05-17 16:31:32.786432,0,-1,0,0,0,0,80,82,165,200,71,167.15,89,85.00,-9.00,-1078.00
2024-05-17 16:31:32.884082,0,-2,0,0,0,0,79,82,165,200,71,166.87,89,-20.00,19.00,-861.00
2024-05-17 16:31:33.041315,0,-1,0,0,0,0,79,82,165,200,71,167.19,89,23.00,16.00,-967.00
2024-05-17 16:31:33.089757,0,-1,0,0,0,0,79,82,165,200,71,166.99,89,-19.00,30.00,-960.00
2024-05-17 16:31:33.190189,0,-1,0,0,0,0,79,82,166,200,71,166.84,89,18.00,16.00,-1015.00
2024-05-17 16:31:33.296618,0,-1,0,0,0,0,79,82,167,200,71,166.85,89,24.00,0.00,-947.00
2024-05-17 16:31:33.394617,1,0,0,0,0,0,79,82,168,200,71,166.82,90,1.00,13.00,-1012.00
2024-05-17 16:31:33.549115,2,0,0,0,0,0,79,82,170,200,71,167.17,90,89.00,-35.00,-1130.00
2024-05-17 16:31:33.598757,2,0,0,0,0,0,79,82,171,200,71,166.96,90,91.00,-10.00,-1012.00
2024-05-17 16:31:33.755038,2,0,0,0,0,0,79,82,173,200,71,166.87,90,29.00,29.00,-934.00
2024-05-17 16:31:33.802260,2,0,0,0,0,0,79,82,174,200,71,166.97,90,38.00,4.00,-1036.00
2024-05-17 16:31:33.958764,1,0,0,0,0,0,80,82,175,200,71,166.94,90,-30.00,28.00,-991.00
2024-05-17 16:31:34.006694,1,0,0,0,0,0,80,82,176,200,71,166.99,90,44.00,-1.00,-1106.00
2024-05-17 16:31:34.057467,0,0,0,0,0,0,80,82,179,210,71,166.89,90,33.00,4.00,-999.00
2024-05-17 16:31:34.163494,1,0,0,0,0,0,80,82,181,210,71,167.03,90,30.00,5.00,-976.00
2024-05-17 16:31:34.261038,0,0,0,0,0,0,80,82,182,210,71,166.98,90,49.00,-18.00,-1126.00
2024-05-17 16:31:34.369601,0,-1,0,0,0,0,80,82,185,210,71,167.14,91,0.00,24.00,-903.00
2024-05-17 16:31:34.465586,0,-2,0,0,0,0,80,82,186,210,71,167.18,91,-47.00,27.00,-983.00
2024-05-17 16:31:34.582106,-1,-2,0,0,0,0,80,82,189,210,71,167.22,91,17.00,4.00,-991.00
2024-05-17 16:31:34.669217,-1,-2,0,0,0,0,80,82,191,210,71,167.21,91,36.00,4.00,-1020.00
2024-05-17 16:31:34.782089,0,-2,0,0,0,0,80,82,193,220,71,167.08,91,26.00,-16.00,-931.00
2024-05-17 16:31:34.873817,0,-2,0,0,0,0,80,83,195,220,71,167.31,91,-35.00,33.00,-985.00
2024-05-17 16:31:34.988746,0,-2,0,0,0,0,80,83,196,220,71,167.25,91,-12.00,32.00,-940.00
2024-05-17 16:31:35.077510,0,-2,0,0,0,0,80,83,195,220,71,167.12,91,-25.00,24.00,-912.00
2024-05-17 16:31:35.188405,0,-2,0,0,0,0,80,83,196,220,71,167.20,91,30.00,-3.00,-894.00
2024-05-17 16:31:35.282638,1,-2,0,0,0,1,80,83,196,220,71,167.46,91,-62.00,42.00,-981.00
2024-05-17 16:31:35.383204,0,-2,0,0,0,1,80,83,194,220,71,167.31,92,-4.00,39.00,-952.00
2024-05-17 16:31:35.484913,1,-2,0,0,0,1,80,83,192,220,71,167.12,92,-28.00,31.00,-903.00
2024-05-17 16:31:35.600848,1,-2,0,0,0,2,80,83,190,220,71,166.96,92,-4.00,13.00,-931.00
2024-05-17 16:31:35.689307,0,-3,0,0,0,1,80,83,188,220,71,167.20,92,-10.00,40.00,-940.00
2024-05-17 16:31:35.801759,0,-2,0,0,0,2,80,83,186,220,71,167.25,92,26.00,-2.00,-956.00
2024-05-17 16:31:35.892927,0,-2,0,0,0,2,80,82,182,220,71,166.93,92,31.00,15.00,-960.00
2024-05-17 16:31:36.006537,0,-2,0,0,0,2,80,82,178,210,71,166.89,92,-23.00,31.00,-957.00
2024-05-17 16:31:36.098702,1,-1,0,0,0,2,80,82,175,210,71,167.12,92,1.00,39.00,-1006.00
2024-05-17 16:31:36.199401,1,-1,0,0,0,2,80,82,171,210,71,166.54,92,17.00,46.00,-980.00
2024-05-17 16:31:36.300945,2,-1,0,0,0,3,80,82,168,200,71,166.58,92,1.00,7.00,-1015.00
2024-05-17 16:31:36.402993,1,-1,0,0,0,3,80,82,163,200,71,166.66,93,-15.00,28.00,-1018.00
2024-05-17 16:31:36.505047,1,-1,0,0,-1,2,80,82,159,200,71,166.80,93,-5.00,42.00,-1041.00
2024-05-17 16:31:36.621345,1,0,0,0,0,2,80,82,155,190,71,166.73,93,21.00,33.00,-1014.00
2024-05-17 16:31:36.708821,1,0,0,0,0,2,80,82,151,190,71,166.85,93,-16.00,34.00,-1009.00
2024-05-17 16:31:36.826623,1,-1,0,0,0,2,80,82,148,190,71,166.27,93,21.00,18.00,-1132.00
2024-05-17 16:31:36.914166,0,-1,0,0,0,2,80,82,146,180,71,166.80,93,-20.00,26.00,-1024.00
2024-05-17 16:31:37.035515,0,-1,0,0,0,2,80,82,144,180,71,166.68,93,0.00,23.00,-1093.00
2024-05-17 16:31:37.117146,0,-1,0,0,0,1,80,82,142,180,71,166.89,93,8.00,11.00,-955.00
2024-05-17 16:31:37.235595,0,-1,0,0,0,1,80,82,140,180,71,166.87,93,35.00,0.00,-1086.00
2024-05-17 16:31:37.321089,0,0,0,0,0,0,80,82,139,170,71,166.81,93,75.00,-20.00,-1009.00
2024-05-17 16:31:37.440396,0,0,0,0,0,0,80,82,138,170,71,166.59,94,-11.00,33.00,-997.00
2024-05-17 16:31:37.524997,0,0,0,0,0,0,80,82,137,170,71,166.62,94,45.00,-4.00,-1044.00
2024-05-17 16:31:37.654550,0,0,0,0,0,0,80,82,136,170,71,166.77,94,43.00,-10.00,-976.00
2024-05-17 16:31:37.678612,1,0,0,0,0,0,80,82,136,170,71,166.27,94,-15.00,42.00,-1006.00
2024-05-17 16:31:37.855443,1,0,0,0,0,0,80,82,135,170,71,166.63,94,32.00,-5.00,-1029.00
2024-05-17 16:31:37.932903,1,0,0,0,0,0,80,82,135,170,71,166.56,94,71.00,-8.00,-1070.00
2024-05-17 16:31:38.056275,0,-1,0,0,0,0,80,82,134,170,71,166.80,94,-27.00,62.00,-974.00
2024-05-17 16:31:38.137043,0,-1,0,0,0,0,80,82,134,170,71,166.55,94,-13.00,50.00,-1009.00
2024-05-17 16:31:38.188037,0,-1,0,0,0,0,80,82,134,170,71,166.71,94,21.00,0.00,-1002.00
2024-05-17 16:31:38.290844,0,-1,0,0,0,0,80,82,136,170,71,166.60,94,8.00,43.00,-1070.00
2024-05-17 16:31:38.391923,0,-1,0,0,0,0,80,82,135,170,71,166.47,95,8.00,-3.00,-1011.00
2024-05-17 16:31:38.494084,0,-1,0,0,0,0,80,82,135,170,71,166.72,95,36.00,35.00,-946.00
2024-05-17 16:31:38.669860,0,-1,0,0,0,0,80,82,135,170,71,166.94,95,45.00,-10.00,-1161.00
2024-05-17 16:31:38.697885,0,-1,0,0,0,0,80,82,135,170,71,166.83,95,-4.00,6.00,-943.00
2024-05-17 16:31:38.874975,0,-1,0,0,0,0,80,82,135,170,71,166.47,95,31.00,36.00,-1054.00
2024-05-17 16:31:38.901967,0,-1,0,0,0,0,79,82,136,170,71,166.53,95,-18.00,49.00,-961.00
2024-05-17 16:31:39.079335,0,-1,0,0,0,0,79,82,135,170,71,166.37,95,37.00,15.00,-941.00
2024-05-17 16:31:39.105855,0,-1,0,0,0,0,79,82,135,170,71,166.93,95,38.00,-10.00,-1000.00
2024-05-17 16:31:39.207832,0,-1,0,0,0,0,79,82,135,170,71,166.73,95,-21.00,55.00,-1011.00
2024-05-17 16:31:39.391055,0,-1,0,0,0,0,79,82,135,170,71,166.64,95,-21.00,40.00,-1000.00
2024-05-17 16:31:39.411879,-6,0,0,1,0,0,79,82,133,170,71,166.54,96,56.00,-24.00,-996.00
2024-05-17 16:31:39.518481,-7,0,0,2,0,0,79,82,134,170,71,166.55,96,41.00,-3.00,-1051.00
2024-05-17 16:31:39.623704,-7,-1,0,3,0,0,79,82,134,170,71,166.56,96,-2.00,9.00,-1002.00
2024-05-17 16:31:39.720123,-7,-1,0,4,0,0,79,82,133,170,71,166.53,96,15.00,11.00,-1089.00
2024-05-17 16:31:39.823054,-6,-1,0,5,0,0,79,82,131,170,71,166.83,96,-5.00,53.00,-953.00
2024-05-17 16:31:39.924728,-6,-1,0,6,0,0,80,83,126,170,71,166.74,96,-19.00,-18.00,-1050.00
2024-05-17 16:31:40.023886,-5,-1,0,7,0,0,80,83,127,160,71,166.61,96,-28.00,0.00,-923.00
2024-05-17 16:31:40.432082,-4,-1,0,7,0,0,80,83,128,160,71,166.83,96,-49.00,44.00,-1020.00
2024-05-17 16:31:40.433049,-3,-1,0,7,0,0,80,83,129,160,71,166.37,96,-83.00,47.00,-954.00
2024-05-17 16:31:40.436963,0,-1,0,7,0,-1,80,83,127,160,71,166.45,96,-15.00,9.00,-977.00
2024-05-17 16:31:40.448013,2,-1,0,7,0,0,80,83,126,160,71,166.61,97,-78.00,29.00,-892.00
2024-05-17 16:31:40.537506,4,-1,0,5,0,0,80,83,124,160,71,166.38,97,-25.00,21.00,-1071.00
2024-05-17 16:31:40.639300,4,-1,0,4,0,0,80,83,122,160,71,166.57,97,-6.00,13.00,-1014.00
2024-05-17 16:31:40.754817,3,-1,0,3,0,0,80,83,120,160,71,166.58,97,36.00,12.00,-1059.00
2024-05-17 16:31:40.839746,1,-1,0,3,0,0,80,83,119,160,71,166.94,97,-7.00,33.00,-1005.00
2024-05-17 16:31:40.949590,1,-1,0,3,0,0,80,82,117,160,71,166.32,97,4.00,14.00,-915.00
2024-05-17 16:31:41.043600,0,-1,0,2,0,0,80,82,115,160,71,166.71,97,9.00,15.00,-1117.00
2024-05-17 16:31:41.152017,0,-1,0,2,0,0,80,82,114,160,71,166.40,97,6.00,-4.00,-1025.00
2024-05-17 16:31:41.257236,0,-1,0,2,0,0,80,82,113,160,71,166.12,97,17.00,18.00,-1074.00
2024-05-17 16:31:41.389494,0,-1,0,2,0,0,80,82,112,160,71,166.48,97,-55.00,50.00,-980.00
2024-05-17 16:31:41.496787,0,-1,0,1,0,0,80,82,111,160,71,166.52,98,14.00,3.00,-950.00
2024-05-17 16:31:41.574197,-1,-1,0,2,0,0,80,82,110,160,71,166.36,98,20.00,31.00,-1151.00
2024-05-17 16:31:41.672099,0,-1,0,2,0,-1,80,82,109,160,71,166.65,98,44.00,20.00,-942.00
2024-05-17 16:31:41.757555,0,-1,0,2,0,-1,80,82,108,160,71,166.40,98,-32.00,41.00,-882.00
2024-05-17 16:31:41.817727,-1,-1,0,1,0,0,80,82,106,160,71,166.23,98,29.00,7.00,-953.00
2024-05-17 16:31:41.981975,-1,-1,0,1,0,0,80,82,104,160,71,166.37,98,-20.00,31.00,-982.00
2024-05-17 16:31:42.083813,-1,-1,0,1,0,0,80,82,103,160,71,166.52,98,-3.00,32.00,-1074.00
2024-05-17 16:31:42.155367,-1,-1,0,2,0,0,80,82,102,160,71,166.71,98,23.00,33.00,-1155.00
2024-05-17 16:31:42.231142,-1,-1,0,1,0,0,80,82,101,160,71,166.48,98,-34.00,12.00,-1156.00
2024-05-17 16:31:42.323569,-1,-1,0,1,0,0,80,82,100,160,71,166.44,98,-51.00,21.00,-1025.00
2024-05-17 16:31:42.421531,0,-1,0,1,0,0,80,82,100,160,71,166.44,99,36.00,-4.00,-1079.00
2024-05-17 16:31:42.528200,4,-1,0,1,0,-1,80,82,100,150,71,166.43,99,-31.00,43.00,-1077.00
2024-05-17 16:31:42.626404,2,-1,0,0,0,-1,80,82,100,160,71,166.24,99,-16.00,40.00,-1076.00
2024-05-17 16:31:42.726769,1,-1,0,0,0,-1,80,82,100,160,71,166.59,99,-32.00,48.00,-921.00
2024-05-17 16:31:42.867864,0,-1,0,0,0,-1,80,82,100,160,71,166.57,99,-39.00,24.00,-1101.00
2024-05-17 16:31:42.938761,0,-1,0,0,0,-1,79,82,100,160,71,166.60,99,26.00,6.00,-894.00
2024-05-17 16:31:43.032810,0,-1,0,0,0,-1,79,82,100,160,71,166.34,99,10.00,25.00,-1130.00
2024-05-17 16:31:43.174865,0,0,0,0,0,-1,79,82,101,160,71,166.11,99,-31.00,29.00,-986.00
2024-05-17 16:31:43.237600,0,-1,0,0,0,-1,79,82,101,160,71,166.36,99,-16.00,29.00,-964.00
2024-05-17 16:31:43.379876,-1,-1,0,0,0,0,79,82,102,160,71,166.69,99,51.00,13.00,-921.00
2024-05-17 16:31:43.440704,0,0,0,0,0,-1,79,82,102,160,71,166.48,100,13.00,2.00,-987.00
2024-05-17 16:31:43.543814,0,-1,0,0,0,0,79,82,103,160,71,166.44,100,53.00,14.00,-973.00
2024-05-17 16:31:43.644616,0,-1,0,0,0,0,79,82,103,160,71,166.63,100,-18.00,3.00,-1028.00
2024-05-17 16:31:43.789567,0,-1,0,0,0,0,79,82,104,160,71,166.33,100,-6.00,20.00,-961.00
2024-05-17 16:31:43.848606,0,-1,0,0,0,0,79,82,105,160,71,166.64,100,45.00,14.00,-1078.00
2024-05-17 16:31:43.993793,0,-1,0,0,0,-1,79,81,105,160,71,166.57,100,40.00,-7.00,-979.00
2024-05-17 16:31:44.052752,-1,-1,0,0,0,0,79,81,107,160,71,166.50,100,-13.00,36.00,-994.00
2024-05-17 16:31:44.199751,0,-1,0,0,0,0,79,81,108,160,71,166.86,100,1.00,24.00,-975.00
2024-05-17 16:31:44.264669,0,-1,0,0,0,0,79,81,109,160,71,166.09,100,49.00,-3.00,-1107.00
2024-05-17 16:31:44.359655,0,-1,0,0,0,0,79,81,111,160,71,166.45,100,-10.00,15.00,-1010.00
2024-05-17 16:31:44.506260,0,0,0,0,0,-1,79,81,112,160,71,166.48,101,-42.00,36.00,-991.00
2024-05-17 16:31:44.563949,0,-1,0,0,0,0,79,81,113,170,71,166.44,101,-21.00,15.00,-951.00
2024-05-17 16:31:44.664496,-1,-1,0,0,0,0,79,81,115,170,71,166.63,101,47.00,0.00,-1049.00
2024-05-17 16:31:44.812892,-1,-1,0,0,0,0,79,81,116,170,71,166.81,101,5.00,73.00,-875.00
2024-05-17 16:31:44.868468,2,-1,0,0,0,0,79,81,118,170,71,166.83,101,82.00,-17.00,-1010.00
2024-05-17 16:31:45.017755,8,0,0,0,0,0,79,82,119,170,71,166.91,101,-44.00,26.00,-911.00
2024-05-17 16:31:45.072550,8,0,0,-1,0,0,79,82,120,170,71,166.51,101,12.00,44.00,-953.00
2024-05-17 16:31:45.223797,8,0,0,-3,0,0,79,82,121,170,71,166.64,101,42.00,0.00,-1037.00
2024-05-17 16:31:45.277603,8,0,0,-4,0,0,79,82,122,170,71,166.71,101,-12.00,59.00,-984.00
2024-05-17 16:31:45.427275,7,-1,0,-5,0,0,79,82,123,170,71,166.51,101,58.00,39.00,-953.00
2024-05-17 16:31:45.480440,7,-1,0,-6,0,0,79,82,122,170,71,166.73,102,79.00,1.00,-981.00
2024-05-17 16:31:45.531350,6,-1,0,-7,0,0,79,82,121,170,71,166.78,102,68.00,-7.00,-1025.00
2024-05-17 16:31:45.633627,5,0,0,-7,0,0,79,82,124,170,71,166.54,102,64.00,30.00,-1068.00
2024-05-17 16:31:45.838848,1,0,0,-7,0,0,79,82,124,170,71,166.61,102,105.00,-7.00,-970.00
2024-05-17 16:31:45.839080,-1,0,0,-7,0,0,79,82,125,180,71,166.72,102,4.00,50.00,-1005.00
2024-05-17 16:31:45.939581,-3,0,0,-6,0,0,79,81,127,180,71,166.82,102,42.00,12.00,-902.00
2024-05-17 16:31:46.042752,-4,0,0,-5,0,0,79,81,128,180,71,166.71,102,70.00,12.00,-1048.00
2024-05-17 16:31:46.143636,-3,0,0,-4,0,0,79,81,129,180,71,166.45,102,13.00,40.00,-949.00
2024-05-17 16:31:46.246477,-1,0,0,-4,0,0,79,81,129,180,71,166.61,102,72.00,-11.00,-992.00
2024-05-17 16:31:46.349047,-1,0,0,-3,0,0,79,81,130,180,71,166.61,102,-23.00,33.00,-953.00
2024-05-17 16:31:46.451640,-2,0,0,-3,0,0,79,81,131,180,71,166.75,103,53.00,-21.00,-955.00
2024-05-17 16:31:46.553365,-3,0,0,-2,0,0,79,81,131,180,71,166.72,103,99.00,-18.00,-1018.00
2024-05-17 16:31:46.655941,-3,0,0,-1,0,0,79,81,133,180,71,166.52,103,44.00,-17.00,-1013.00
2024-05-17 16:31:46.758717,-2,0,0,0,0,0,79,81,134,180,71,166.77,103,18.00,-3.00,-994.00
2024-05-17 16:31:46.861697,-1,0,0,0,0,0,79,81,134,180,71,166.80,103,19.00,0.00,-1025.00
2024-05-17 16:31:46.964152,-1,-1,0,0,0,0,80,81,136,180,71,166.72,103,-33.00,34.00,-1016.00
2024-05-17 16:31:47.063451,-1,-1,0,0,0,0,80,81,137,180,71,167.20,103,3.00,-4.00,-981.00
2024-05-17 16:31:47.168187,-1,-1,0,0,0,0,80,81,137,190,71,166.72,103,2.00,0.00,-979.00
2024-05-17 16:31:47.267427,0,-1,0,0,0,0,80,81,137,190,71,167.12,103,0.00,10.00,-897.00
2024-05-17 16:31:47.369376,0,-1,0,0,0,1,80,81,136,190,71,166.77,104,-54.00,63.00,-889.00
2024-05-17 16:31:47.475477,0,-1,0,0,0,1,80,81,135,190,71,166.76,104,-23.00,23.00,-1120.00
2024-05-17 16:31:47.573379,0,-1,0,0,0,0,80,81,135,190,71,166.62,104,24.00,-7.00,-963.00
2024-05-17 16:31:47.680827,0,-1,0,0,0,1,80,81,134,190,71,166.79,104,3.00,43.00,-1007.00
2024-05-17 16:31:47.777320,0,0,0,0,0,1,80,81,133,180,71,166.92,104,42.00,20.00,-938.00
2024-05-17 16:31:47.879653,0,0,0,0,0,1,80,81,131,180,71,166.79,104,0.00,-8.00,-943.00
2024-05-17 16:31:47.981641,0,0,0,0,0,1,79,81,130,180,71,166.75,104,10.00,13.00,-1077.00
2024-05-17 16:31:48.089744,0,-1,0,0,0,1,79,81,129,180,71,166.82,104,-70.00,67.00,-956.00
2024-05-17 16:31:48.188556,0,-1,0,0,0,1,79,81,127,180,71,166.80,104,-26.00,5.00,-1015.00
2024-05-17 16:31:48.289089,0,-1,0,0,0,0,79,81,126,180,71,166.86,104,-25.00,48.00,-939.00
2024-05-17 16:31:48.391318,0,-1,0,0,0,0,79,81,125,180,71,167.03,105,44.00,-15.00,-1024.00
2024-05-17 16:31:48.493299,0,0,0,0,0,1,79,81,124,180,71,166.70,105,9.00,-18.00,-1045.00
2024-05-17 16:31:48.593330,0,-1,0,0,0,0,79,81,123,180,71,166.70,105,12.00,14.00,-964.00
2024-05-17 16:31:48.704232,0,-1,0,0,0,0,79,81,122,180,71,166.64,105,-16.00,45.00,-1060.00
2024-05-17 16:31:48.797243,0,-1,0,0,0,0,79,81,121,180,71,166.42,105,31.00,23.00,-973.00
2024-05-17 16:31:48.908808,0,-1,0,0,0,0,79,81,120,180,71,166.51,105,-4.00,28.00,-989.00
2024-05-17 16:31:49.001573,0,-7,0,0,0,0,79,82,118,170,71,166.65,105,20.00,6.00,-1077.00
2024-05-17 16:31:49.113630,0,-8,0,0,-1,0,79,82,119,170,71,166.73,105,14.00,5.00,-1028.00
2024-05-17 16:31:49.205226,0,-6,0,0,-3,0,79,82,118,170,71,166.67,105,60.00,-31.00,-1047.00
2024-05-17 16:31:49.323439,0,-4,0,0,-3,0,79,82,115,170,71,166.34,105,15.00,27.00,-928.00
2024-05-17 16:31:49.359465,0,-1,0,0,-3,0,79,82,115,170,71,166.54,106,69.00,26.00,-1007.00
2024-05-17 16:31:49.460706,0,0,0,0,-3,0,79,82,113,170,71,166.38,106,-38.00,41.00,-1052.00
2024-05-17 16:31:49.625567,0,0,0,0,-2,0,79,82,112,170,71,166.37,106,32.00,18.00,-1044.00
2024-05-17 16:31:49.664131,0,-1,0,0,-2,0,79,82,112,170,71,166.61,106,-32.00,57.00,-1055.00
2024-05-17 16:31:49.831428,0,-1,0,0,-2,0,79,82,111,170,71,166.43,106,-11.00,56.00,-927.00
2024-05-17 16:31:49.868254,0,-1,0,0,-2,0,79,82,111,170,71,166.55,106,-46.00,38.00,-1023.00
2024-05-17 16:31:50.035775,0,-1,0,0,-3,0,79,81,111,170,71,166.77,106,26.00,36.00,-1069.00
2024-05-17 16:31:50.072147,0,-1,0,0,-2,0,79,81,111,170,71,166.59,106,1.00,46.00,-960.00
2024-05-17 16:31:50.244066,1,-1,0,0,-2,0,79,81,112,170,71,166.56,106,28.00,24.00,-1060.00
2024-05-17 16:31:50.276129,1,-1,0,0,-2,0,79,81,113,170,71,166.51,106,2.00,45.00,-1060.00
2024-05-17 16:31:50.458907,1,0,0,0,-2,0,79,81,114,170,71,166.58,107,30.00,11.00,-1067.00
2024-05-17 16:31:50.480817,0,0,0,0,-2,0,79,81,114,170,71,166.75,107,31.00,8.00,-963.00
2024-05-17 16:31:50.652314,0,4,0,0,-1,0,79,81,113,170,71,166.33,107,-11.00,62.00,-1068.00
2024-05-17 16:31:50.685048,0,2,0,0,0,0,79,81,115,170,71,166.48,107,-8.00,52.00,-1040.00
2024-05-17 16:31:50.855762,-1,0,0,0,0,0,79,81,117,170,71,166.58,107,3.00,11.00,-954.00
2024-05-17 16:31:50.891681,-3,0,0,0,0,0,79,81,117,170,71,166.74,107,38.00,-18.00,-1066.00
2024-05-17 16:31:50.991132,-4,0,0,0,0,0,79,81,118,170,71,166.63,107,22.00,4.00,-918.00
2024-05-17 16:31:51.170086,-3,0,0,1,0,0,79,81,118,170,71,166.44,107,52.00,-49.00,-1078.00
2024-05-17 16:31:51.195029,-2,0,0,1,0,0,79,81,118,170,71,166.78,107,-4.00,-4.00,-950.00
2024-05-17 16:31:51.368829,3,0,0,1,0,0,79,81,118,170,71,166.94,107,-10.00,37.00,-969.00
2024-05-17 16:31:51.399132,4,0,0,1,0,0,79,81,118,170,71,166.84,108,29.00,0.00,-1044.00
2024-05-17 16:31:51.501204,2,-1,0,0,0,0,79,81,118,170,71,166.55,108,-17.00,2.00,-932.00
2024-05-17 16:31:51.673678,0,-1,0,0,0,0,79,81,117,170,71,166.76,108,-18.00,65.00,-967.00
2024-05-17 16:31:51.705178,0,-1,0,0,0,0,79,81,117,170,71,167.01,108,42.00,5.00,-998.00
2024-05-17 16:31:51.883614,0,-1,0,0,0,0,79,81,116,170,71,166.41,108,33.00,-18.00,-1007.00
2024-05-17 16:31:51.910700,0,0,0,0,0,0,79,81,116,170,71,166.53,108,44.00,-41.00,-1001.00
2024-05-17 16:31:52.011122,0,0,0,0,0,0,80,82,115,170,71,166.97,108,-16.00,37.00,-1005.00
2024-05-17 16:31:52.187584,0,0,0,0,0,0,80,82,114,170,71,166.85,108,23.00,6.00,-1055.00
2024-05-17 16:31:52.216625,0,0,0,0,0,0,80,82,114,170,71,166.76,108,3.00,6.00,-995.00
2024-05-17 16:31:52.317129,0,0,0,0,0,0,80,82,113,170,71,166.28,108,92.00,-12.00,-1039.00
2024-05-17 16:31:52.492870,1,0,0,0,0,0,80,82,112,170,71,166.51,109,18.00,0.00,-926.00
2024-05-17 16:31:52.521071,1,0,0,0,0,0,80,82,111,170,71,166.61,109,-26.00,20.00,-1043.00
2024-05-17 16:31:52.697705,0,0,0,0,0,0,80,82,111,170,71,166.48,109,43.00,3.00,-983.00
2024-05-17 16:31:52.725040,0,0,0,0,0,0,80,82,111,170,71,166.97,109,30.00,15.00,-1033.00
2024-05-17 16:31:52.902537,1,0,0,0,0,0,80,82,112,170,71,166.55,109,41.00,18.00,-1000.00
2024-05-17 16:31:52.902765,1,-1,0,0,0,0,80,82,112,170,71,166.90,109,38.00,16.00,-890.00
2024-05-17 16:31:53.031015,1,-1,0,0,0,0,79,81,112,170,71,166.59,109,28.00,39.00,-991.00
2024-05-17 16:31:53.206620,1,0,0,0,0,0,79,81,113,170,71,166.53,109,12.00,19.00,-1026.00
2024-05-17 16:31:53.234938,2,0,0,0,0,0,79,81,114,170,71,166.76,109,1.00,23.00,-1079.00
2024-05-17 16:31:53.414350,1,-1,0,0,0,0,79,81,114,170,71,166.75,109,6.00,-19.00,-1047.00
2024-05-17 16:31:53.440674,0,2,0,0,0,0,79,81,113,170,71,166.51,110,42.00,-6.00,-1056.00
2024-05-17 16:31:53.493120,0,6,0,0,1,0,79,81,113,170,71,166.64,110,23.00,-14.00,-1035.00
2024-05-17 16:31:53.592238,0,5,0,0,2,0,79,81,111,170,71,166.65,110,26.00,19.00,-1016.00
2024-05-17 16:31:53.723522,1,3,0,0,3,0,79,81,113,170,71,166.70,110,19.00,7.00,-982.00
2024-05-17 16:31:53.795885,0,0,0,0,4,0,79,81,115,170,71,166.81,110,-14.00,0.00,-1008.00
2024-05-17 16:31:53.926342,0,-2,0,0,3,0,79,81,115,170,71,166.78,110,43.00,-15.00,-960.00
2024-05-17 16:31:53.999898,0,-2,0,0,3,0,78,82,116,170,71,166.69,110,4.00,-11.00,-1007.00
2024-05-17 16:31:54.131135,0,-1,0,0,2,0,78,82,116,170,71,166.59,110,36.00,-5.00,-972.00
2024-05-17 16:31:54.203902,0,0,0,0,2,0,78,82,117,170,71,166.85,110,62.00,-21.00,-984.00
2024-05-17 16:31:54.305888,0,0,0,0,2,0,78,82,118,170,71,166.88,110,49.00,-27.00,-958.00
2024-05-17 16:31:54.407956,0,0,0,0,2,0,78,82,118,170,71,166.60,111,-54.00,34.00,-976.00
2024-05-17 16:31:54.509798,0,0,0,0,2,0,78,82,119,170,71,166.81,111,-30.00,44.00,-945.00
2024-05-17 16:31:54.648537,-3,-2,0,0,2,0,78,82,120,170,71,166.71,111,36.00,-10.00,-1011.00
2024-05-17 16:31:54.713982,-3,-3,0,0,2,0,78,82,119,170,71,166.72,111,15.00,2.00,-998.00
2024-05-17 16:31:54.847926,-2,-2,0,1,1,0,78,82,121,170,71,166.63,111,-23.00,11.00,-992.00
2024-05-17 16:31:54.917810,-1,0,0,1,1,0,78,82,120,170,71,166.50,111,-16.00,-7.00,-1036.00
2024-05-17 16:31:55.054940,0,0,0,1,1,0,79,81,121,170,71,166.94,111,-40.00,47.00,-838.00
2024-05-17 16:31:55.121836,0,0,0,0,1,0,79,81,120,170,71,166.82,111,0.00,6.00,-987.00
2024-05-17 16:31:55.257511,-2,-4,0,0,1,0,79,81,119,170,71,166.64,111,5.00,-3.00,-1032.00
2024-05-17 16:31:55.326392,-4,-3,0,0,0,0,79,81,119,170,71,166.69,111,-9.00,14.00,-990.00
2024-05-17 16:31:55.463224,-3,-1,0,1,0,0,79,81,120,170,71,167.00,112,-21.00,-2.00,-1010.00
2024-05-17 16:31:55.529891,-2,-1,0,1,0,0,79,81,119,170,71,166.62,112,-26.00,22.00,-1243.00
2024-05-17 16:31:55.671919,3,-1,0,1,0,0,79,81,119,170,71,166.70,112,-48.00,43.00,-935.00
2024-05-17 16:31:55.735714,2,-1,0,0,0,0,79,81,118,170,71,166.64,112,-28.00,3.00,-966.00
2024-05-17 16:31:55.836192,0,-1,0,0,0,0,79,81,117,170,71,166.82,112,-14.00,44.00,-1077.00
2024-05-17 16:31:55.974768,0,0,0,0,0,0,79,81,116,170,71,166.92,112,53.00,4.00,-992.00
2024-05-17 16:31:56.041373,0,0,0,0,0,0,79,82,116,170,71,166.72,112,6.00,-31.00,-1005.00
2024-05-17 16:31:56.179284,0,0,0,0,0,0,79,82,115,170,71,166.89,112,-22.00,20.00,-1031.00
2024-05-17 16:31:56.243906,0,0,0,0,0,0,79,82,114,170,71,166.67,112,43.00,2.00,-1006.00
2024-05-17 16:31:56.384086,-1,-1,0,0,0,0,79,82,114,170,71,166.59,112,14.00,0.00,-1066.00
2024-05-17 16:31:56.447942,-1,-1,0,0,0,0,79,82,113,170,71,166.64,113,30.00,13.00,-965.00
2024-05-17 16:31:56.550862,0,-1,0,0,0,0,79,82,112,170,71,166.62,113,-9.00,16.00,-1069.00
2024-05-17 16:31:56.651941,0,-1,0,0,0,0,79,82,111,170,71,166.55,113,-4.00,28.00,-993.00
2024-05-17 16:31:56.799714,0,-1,0,0,0,0,79,82,110,170,71,166.51,113,-42.00,47.00,-989.00
2024-05-17 16:31:56.860808,-1,-1,0,0,0,0,79,82,109,170,71,166.91,113,-44.00,36.00,-951.00
2024-05-17 16:31:56.957970,-1,-1,0,0,0,0,79,82,109,170,71,166.73,113,34.00,12.00,-1032.00
2024-05-17 16:31:57.203742,-1,-1,0,0,0,0,79,81,108,170,71,166.51,113,-7.00,16.00,-977.00
2024-05-17 16:31:57.204851,-1,-1,0,0,0,0,79,81,108,170,71,166.45,113,-32.00,13.00,-921.00
2024-05-17 16:31:57.267793,-1,-1,0,0,0,0,79,81,107,160,71,166.63,113,0.00,9.00,-978.00
2024-05-17 16:31:57.366403,-1,-1,0,0,0,0,79,81,107,160,71,166.80,113,39.00,-5.00,-1136.00
2024-05-17 16:31:57.417323,-1,-1,0,0,0,0,79,81,107,160,71,166.58,114,-57.00,38.00,-961.00
2024-05-17 16:31:57.518718,-1,-1,0,0,0,0,79,81,106,160,71,166.39,114,-5.00,6.00,-936.00
2024-05-17 16:31:57.686835,0,-1,0,0,0,0,79,81,106,160,71,166.41,114,1.00,-4.00,-976.00
2024-05-17 16:31:57.722738,0,-1,0,0,0,0,79,81,107,160,71,166.61,114,13.00,-1.00,-975.00
2024-05-17 16:31:57.919903,0,-1,1,0,0,0,79,81,107,160,71,166.64,114,-25.00,75.00,-1002.00
2024-05-17 16:31:57.926651,0,-2,7,0,0,0,79,81,108,160,71,166.73,114,-48.00,59.00,-913.00
2024-05-17 16:31:58.124897,0,-2,13,0,0,0,79,82,108,160,71,166.56,114,6.00,6.00,-1067.00
2024-05-17 16:31:58.130674,0,-2,19,0,0,0,79,82,108,160,71,166.87,114,-4.00,43.00,-1042.00
2024-05-17 16:31:58.330056,0,-1,26,0,0,0,79,82,108,160,71,166.78,114,-11.00,32.00,-992.00
2024-05-17 16:31:58.334788,0,-1,32,0,0,0,79,82,109,160,71,166.70,114,17.00,37.00,-1014.00
2024-05-17 16:31:58.436908,0,-1,38,0,0,0,79,82,108,160,71,166.63,115,7.00,8.00,-910.00
2024-05-17 16:31:58.539245,0,-1,45,0,0,0,79,82,108,170,71,166.48,115,40.00,23.00,-1084.00
2024-05-17 16:31:58.739007,0,-1,51,0,0,0,79,82,108,170,71,166.74,115,27.00,-10.00,-984.00
2024-05-17 16:31:58.742814,0,-1,57,0,0,0,79,82,108,170,71,166.81,115,-6.00,58.00,-990.00
2024-05-17 16:31:58.844638,0,-1,63,0,0,0,79,82,108,170,71,166.71,115,26.00,11.00,-1093.00
2024-05-17 16:31:58.946594,0,-1,69,0,0,0,79,82,108,160,71,166.51,115,31.00,1.00,-1119.00
2024-05-17 16:31:59.048577,0,-1,76,0,0,0,79,82,109,170,71,166.55,115,57.00,-14.00,-1150.00
2024-05-17 16:31:59.150561,0,-1,82,0,0,0,79,82,109,170,71,166.88,115,5.00,19.00,-976.00
2024-05-17 16:31:59.353488,0,-1,88,0,0,0,79,82,109,170,71,166.88,115,0.00,28.00,-950.00
2024-05-17 16:31:59.354711,1,-1,94,0,0,0,79,82,109,170,71,166.49,115,20.00,22.00,-1028.00
2024-05-17 16:31:59.456916,1,-1,101,0,0,0,79,82,109,170,71,166.66,116,19.00,-4.00,-971.00
2024-05-17 16:31:59.563191,1,0,107,0,0,0,79,82,108,170,71,166.52,116,67.00,-23.00,-965.00
2024-05-17 16:31:59.660702,1,0,113,0,0,0,79,82,108,170,71,166.81,116,-1.00,-5.00,-964.00
2024-05-17 16:31:59.763067,1,0,120,0,0,0,79,82,107,170,71,166.65,116,2.00,23.00,-1059.00
2024-05-17 16:31:59.865488,1,-1,126,0,0,0,79,82,107,170,71,166.75,116,44.00,12.00,-969.00
2024-05-17 16:31:59.968609,1,0,132,0,0,0,79,82,106,160,71,166.89,116,-8.00,-3.00,-979.00
2024-05-17 16:32:00.068565,1,0,138,0,0,0,78,81,106,160,71,166.49,116,-25.00,45.00,-961.00
2024-05-17 16:32:00.173013,1,0,145,0,0,0,78,81,106,160,71,166.77,116,47.00,-43.00,-1042.00
2024-05-17 16:32:00.272550,1,0,151,0,0,0,78,81,106,160,71,166.52,116,-1.00,-10.00,-944.00
2024-05-17 16:32:00.377562,1,0,157,0,0,0,78,81,107,160,71,166.78,116,41.00,-11.00,-1063.00
2024-05-17 16:32:00.477402,1,0,163,0,0,0,78,81,107,160,71,166.89,117,24.00,-14.00,-995.00
2024-05-17 16:32:00.582515,1,0,169,0,0,0,78,81,108,160,71,166.47,117,-24.00,14.00,-929.00
2024-05-17 16:32:00.681578,1,0,175,0,0,0,78,81,108,160,71,166.62,117,34.00,18.00,-985.00
2024-05-17 16:32:00.732473,1,0,-178,0,0,0,78,81,108,160,71,166.85,117,16.00,-10.00,-925.00
2024-05-17 16:32:00.890015,1,0,-172,0,0,0,78,81,108,160,71,166.66,117,-9.00,14.00,-907.00
2024-05-17 16:32:00.936549,1,0,-167,0,0,0,78,81,108,160,71,166.95,117,14.00,10.00,-1092.00
2024-05-17 16:32:01.095587,0,0,-156,1,0,0,79,82,108,160,71,166.68,117,-52.00,6.00,-981.00
2024-05-17 16:32:01.193487,0,0,-150,1,0,0,79,82,109,170,71,166.80,117,4.00,-5.00,-925.00
2024-05-17 16:32:01.293725,0,0,-144,0,0,0,79,82,110,170,71,166.57,117,7.00,-16.00,-952.00
2024-05-17 16:32:01.402524,0,0,-139,0,0,0,79,82,110,170,71,166.66,118,30.00,19.00,-1051.00
2024-05-17 16:32:01.446496,0,0,-133,0,0,0,79,82,111,170,71,166.63,118,-46.00,46.00,-1052.00
2024-05-17 16:32:01.551720,0,0,-127,0,0,0,79,82,112,170,71,166.91,118,25.00,19.00,-976.00
2024-05-17 16:32:01.651049,1,0,-122,0,0,0,79,82,113,170,71,166.72,118,-50.00,51.00,-1024.00
2024-05-17 16:32:01.813845,1,1,-116,0,0,0,79,82,115,170,71,166.75,118,-29.00,14.00,-951.00
2024-05-17 16:32:01.854495,0,1,-110,0,0,0,79,82,116,170,71,166.42,118,18.00,8.00,-954.00
2024-05-17 16:32:02.018644,0,0,-105,0,0,0,79,82,117,170,71,166.75,118,-26.00,19.00,-952.00
2024-05-17 16:32:02.058472,0,0,-99,0,0,0,79,81,117,170,71,166.59,118,-17.00,55.00,-973.00
2024-05-17 16:32:02.220735,0,0,-94,1,0,0,79,81,117,170,71,166.89,118,-19.00,17.00,-918.00
2024-05-17 16:32:02.264569,0,0,-88,1,0,0,79,81,119,170,71,166.91,118,14.00,-8.00,-909.00
2024-05-17 16:32:02.364927,-1,0,-82,0,0,0,79,81,119,170,71,166.69,119,-40.00,39.00,-998.00
2024-05-17 16:32:02.530848,0,0,-76,0,0,0,79,81,119,170,71,166.72,119,12.00,-35.00,-990.00
2024-05-17 16:32:02.568502,0,0,-71,0,0,0,79,81,120,170,71,166.65,119,11.00,37.00,-923.00
2024-05-17 16:32:02.732734,0,0,-65,0,0,0,79,81,119,170,71,167.30,119,28.00,10.00,-1036.00
2024-05-17 16:32:02.772567,0,0,-60,0,0,0,79,81,120,170,71,166.82,119,15.00,35.00,-983.00
2024-05-17 16:32:02.937510,0,0,-54,0,0,0,79,81,122,170,71,166.41,119,-10.00,22.00,-1149.00
2024-05-17 16:32:02.976556,0,0,-48,0,0,0,79,81,122,170,71,166.75,119,4.00,47.00,-1000.00
2024-05-17 16:32:03.142300,0,0,-43,0,0,0,79,81,124,170,71,166.99,119,-63.00,45.00,-996.00
2024-05-17 16:32:03.181829,0,0,-37,0,0,0,79,81,126,180,71,166.69,119,17.00,14.00,-979.00
2024-05-17 16:32:03.286457,0,0,-31,0,0,0,79,81,128,180,71,166.61,119,28.00,3.00,-929.00
2024-05-17 16:32:03.384434,0,0,-25,0,0,0,79,81,129,180,71,166.80,120,-48.00,47.00,-922.00
2024-05-17 16:32:03.551908,0,0,-19,0,0,0,79,81,131,180,71,166.94,120,-23.00,20.00,-971.00
2024-05-17 16:32:03.588400,0,0,-14,0,0,0,79,81,132,180,71,166.90,120,31.00,21.00,-942.00
2024-05-17 16:32:03.757499,0,0,-11,0,0,0,79,81,133,180,71,166.83,120,-35.00,35.00,-907.00
2024-05-17 16:32:03.792370,0,0,-8,0,0,0,79,81,135,180,71,166.89,120,45.00,-15.00,-1047.00
2024-05-17 16:32:03.962075,0,0,-5,0,0,0,79,81,135,180,71,167.13,120,-53.00,51.00,-1019.00
2024-05-17 16:32:03.996937,0,0,-4,0,0,0,79,81,135,180,71,166.57,120,1.00,30.00,-922.00
2024-05-17 16:32:04.098689,1,0,-3,0,0,0,79,81,135,180,71,167.02,120,17.00,16.00,-1021.00
2024-05-17 16:32:04.272119,1,0,-2,0,0,0,79,81,135,190,71,166.74,120,39.00,17.00,-940.00
2024-05-17 16:32:04.305402,1,0,-1,0,0,1,79,81,135,180,71,167.06,120,-30.00,31.00,-952.00
2024-05-17 16:32:04.406020,0,-1,-1,0,0,0,79,81,134,180,71,167.09,121,-10.00,14.00,-1039.00
2024-05-17 16:32:04.508458,0,-1,-1,0,0,0,79,81,134,190,71,167.12,121,6.00,19.00,-904.00
2024-05-17 16:32:04.610878,0,-1,-1,0,0,1,79,81,134,180,71,166.93,121,18.00,35.00,-971.00
2024-05-17 16:32:04.710450,1,-1,-1,0,0,0,79,81,134,180,71,166.88,121,13.00,17.00,-1007.00
2024-05-17 16:32:04.885206,0,-1,-1,0,0,0,79,81,134,180,71,166.88,121,30.00,-14.00,-1039.00
2024-05-17 16:32:04.914385,0,0,-1,0,0,0,79,81,133,180,71,166.73,121,-30.00,19.00,-979.00
2024-05-17 16:32:05.088656,0,0,-1,0,0,0,79,81,133,180,71,166.89,121,-25.00,40.00,-987.00
2024-05-17 16:32:05.118377,0,-1,-1,0,0,1,79,82,133,180,71,166.90,121,40.00,19.00,-925.00
2024-05-17 16:32:05.296545,0,-1,-1,0,0,0,79,82,131,180,71,166.87,121,30.00,9.00,-1004.00
2024-05-17 16:32:05.296710,0,-1,-1,0,0,1,79,82,129,180,71,166.81,121,-37.00,39.00,-953.00
2024-05-17 16:32:05.373734,0,-1,-1,0,0,1,79,82,128,180,71,166.52,122,9.00,-12.00,-941.00
2024-05-17 16:32:05.498121,0,-1,-1,0,0,1,79,82,127,180,71,166.81,122,0.00,22.00,-1008.00
2024-05-17 16:32:05.577425,0,-1,-1,0,0,0,79,82,126,180,71,166.91,122,-5.00,14.00,-1004.00
2024-05-17 16:32:05.705658,1,0,0,0,0,0,79,82,126,180,71,166.69,122,33.00,-6.00,-1029.00
2024-05-17 16:32:05.781578,0,0,-1,0,0,0,79,82,124,180,71,166.65,122,18.00,25.00,-971.00
2024-05-17 16:32:05.911673,0,0,-1,0,0,1,79,82,123,180,71,166.78,122,-20.00,24.00,-1098.00
2024-05-17 16:32:05.985707,0,-1,0,0,0,0,79,82,122,180,71,166.83,122,19.00,6.00,-951.00
2024-05-17 16:32:06.112204,0,-1,0,0,0,0,79,82,121,180,71,166.65,122,45.00,11.00,-1022.00
2024-05-17 16:32:06.189721,0,-1,0,0,0,0,79,82,120,180,71,166.83,122,31.00,41.00,-1036.00
2024-05-17 16:32:06.316783,0,-1,0,0,0,0,79,82,120,170,71,166.48,122,17.00,20.00,-1091.00
2024-05-17 16:32:06.393452,0,0,0,0,0,0,79,82,119,170,71,166.50,123,-4.00,46.00,-960.00
2024-05-17 16:32:06.495142,0,0,-1,0,0,0,79,82,118,170,71,166.74,123,5.00,20.00,-1010.00
2024-05-17 16:32:06.623830,0,0,-5,0,0,0,79,82,117,170,71,166.81,123,5.00,25.00,-931.00
2024-05-17 16:32:06.699188,0,0,-11,0,0,0,79,82,116,170,71,166.46,123,-11.00,23.00,-942.00
2024-05-17 16:32:06.801191,0,0,-17,0,0,0,79,82,114,170,71,166.68,123,24.00,-4.00,-961.00
2024-05-17 16:32:06.933043,0,0,-23,0,0,0,79,82,112,170,71,166.82,123,0.00,-3.00,-1016.00
2024-05-17 16:32:07.005856,0,0,-29,0,0,0,79,82,111,170,71,166.65,123,7.00,0.00,-1018.00
2024-05-17 16:32:07.138912,0,0,-35,0,0,0,80,81,110,170,71,166.57,123,18.00,15.00,-1002.00
2024-05-17 16:32:07.214636,0,0,-42,0,0,0,80,81,107,170,71,166.90,123,-3.00,-6.00,-971.00
2024-05-17 16:32:07.311414,0,0,-48,0,0,0,80,81,106,170,71,166.43,123,-40.00,34.00,-958.00
2024-05-17 16:32:07.413302,0,0,-54,0,0,0,80,81,104,170,71,166.72,124,-32.00,24.00,-976.00
2024-05-17 16:32:07.515839,0,0,-59,0,0,0,80,81,104,160,71,166.51,124,-2.00,3.00,-1060.00
2024-05-17 16:32:07.617089,0,0,-65,0,0,0,80,81,103,160,71,166.54,124,2.00,1.00,-1061.00
2024-05-17 16:32:07.750626,0,0,-72,0,0,0,80,81,103,160,71,166.27,124,4.00,27.00,-988.00
2024-05-17 16:32:07.821111,0,0,-78,0,0,0,80,81,101,160,71,166.65,124,-14.00,44.00,-1008.00
2024-05-17 16:32:07.954933,1,0,-84,0,0,0,80,81,101,160,71,166.53,124,-26.00,8.00,-1032.00
2024-05-17 16:32:08.025129,1,0,-90,0,0,0,80,81,100,160,71,166.69,124,-20.00,25.00,-990.00
2024-05-17 16:32:08.159820,1,0,-96,0,0,0,79,82,99,160,71,166.60,124,14.00,8.00,-922.00
2024-05-17 16:32:08.229263,1,0,-102,0,0,0,79,82,98,160,71,166.37,124,61.00,1.00,-1009.00
2024-05-17 16:32:08.364607,2,0,-108,0,0,0,79,82,97,160,71,166.22,124,67.00,-4.00,-1028.00
2024-05-17 16:32:08.433265,1,0,-114,0,0,0,79,82,96,160,71,166.82,125,63.00,-32.00,-1130.00
2024-05-17 16:32:08.569396,1,0,-120,0,0,-1,79,82,97,160,71,166.44,125,4.00,14.00,-889.00
2024-05-17 16:32:08.640063,1,0,-126,0,0,0,79,82,96,160,71,166.75,125,42.00,7.00,-1074.00
2024-05-17 16:32:08.739090,1,0,-132,0,0,0,79,82,96,160,71,166.50,125,-17.00,22.00,-895.00
2024-05-17 16:32:08.882877,1,0,-138,0,0,0,79,82,96,160,71,166.25,125,2.00,0.00,-971.00
2024-05-17 16:32:08.892051,1,0,-144,0,0,0,79,82,96,160,71,166.29,125,-48.00,50.00,-1083.00
2024-05-17 16:32:09.082783,0,0,-150,0,0,-1,79,82,97,160,71,166.33,125,-41.00,51.00,-959.00
2024-05-17 16:32:09.101802,0,0,-156,0,0,-1,79,82,98,160,71,166.69,125,10.00,19.00,-1079.00
2024-05-17 16:32:09.199561,0,0,-162,0,0,-1,79,82,97,160,71,166.71,125,-44.00,14.00,-947.00
2024-05-17 16:32:09.300226,0,0,-168,0,0,-1,79,82,98,160,71,166.49,125,32.00,-21.00,-969.00
2024-05-17 16:32:09.491464,0,0,-174,0,0,-1,79,82,98,160,71,166.37,126,43.00,-3.00,-903.00
2024-05-17 16:32:09.504061,1,0,179,0,0,0,79,82,99,160,71,166.38,126,-10.00,44.00,-1014.00
2024-05-17 16:32:09.695954,1,0,173,0,0,-1,79,82,100,160,71,166.76,126,9.00,0.00,-1025.00
2024-05-17 16:32:09.708027,0,0,167,0,0,-1,79,82,101,160,71,166.70,126,32.00,-2.00,-973.00
2024-05-17 16:32:09.913120,1,0,161,0,0,0,79,82,102,160,71,166.64,126,11.00,38.00,-1036.00
2024-05-17 16:32:09.913396,1,-1,155,0,0,0,79,82,104,160,71,166.71,126,19.00,-34.00,-978.00
2024-05-17 16:32:10.014152,0,-1,148,0,0,0,79,82,105,160,71,166.36,126,-20.00,43.00,-1011.00
2024-05-17 16:32:10.116135,0,0,142,0,0,-1,79,82,106,160,71,166.46,126,3.00,0.00,-971.00
2024-05-17 16:32:10.310425,0,0,136,0,0,-1,79,82,108,170,71,166.80,126,24.00,10.00,-950.00
2024-05-17 16:32:10.319885,0,-1,130,0,0,0,79,82,109,170,71,166.37,126,-6.00,16.00,-943.00
2024-05-17 16:32:10.515043,0,-1,124,0,0,0,79,82,110,170,71,166.63,127,30.00,-23.00,-1058.00
2024-05-17 16:32:10.524189,0,0,118,0,0,0,79,82,110,170,71,166.42,127,-42.00,57.00,-1055.00
2024-05-17 16:32:10.626379,0,0,111,0,0,0,79,82,112,170,71,166.78,127,34.00,-5.00,-1034.00
2024-05-17 16:32:10.822336,0,-1,105,0,0,0,79,82,113,170,71,166.76,127,-18.00,51.00,-980.00
2024-05-17 16:32:10.829994,0,-1,99,0,0,0,79,82,114,170,71,166.64,127,-43.00,57.00,-953.00
2024-05-17 16:32:11.035216,0,-1,93,0,0,0,79,82,114,170,71,166.56,127,25.00,-1.00,-1057.00
2024-05-17 16:32:11.038016,0,-1,87,0,0,0,79,82,116,170,71,166.79,127,38.00,2.00,-972.00
2024-05-17 16:32:11.135976,1,-1,81,0,0,0,79,82,117,170,71,166.60,127,-37.00,61.00,-1000.00
2024-05-17 16:32:11.334268,1,-1,75,0,0,0,79,82,118,170,71,166.45,127,-33.00,43.00,-934.00
2024-05-17 16:32:11.343435,0,-1,68,0,0,0,79,82,120,170,71,166.47,127,-22.00,57.00,-994.00
2024-05-17 16:32:11.442004,0,-1,62,0,0,0,79,82,121,170,71,166.65,128,-17.00,50.00,-1065.00
2024-05-17 16:32:11.643261,0,-1,56,0,0,0,79,82,124,170,71,166.82,128,-43.00,48.00,-1047.00
2024-05-17 16:32:11.647167,0,-2,50,0,0,0,79,82,125,180,71,166.50,128,-22.00,8.00,-914.00
2024-05-17 16:32:11.846247,0,-1,43,0,0,0,79,82,127,180,71,166.92,128,-26.00,-3.00,-1042.00
2024-05-17 16:32:11.850386,0,-1,37,0,0,0,79,82,128,180,71,166.88,128,49.00,-42.00,-1030.00
2024-05-17 16:32:11.954509,0,-1,31,0,0,0,79,82,129,180,71,166.91,128,29.00,6.00,-982.00
2024-05-17 16:32:12.055198,0,-1,25,0,0,0,79,82,131,180,71,166.86,128,-32.00,34.00,-933.00
2024-05-17 16:32:12.157444,0,-1,19,0,0,0,79,82,133,180,71,167.11,128,2.00,38.00,-1132.00
2024-05-17 16:32:12.258983,0,-1,14,0,0,0,79,82,135,180,71,166.79,128,-22.00,27.00,-901.00
2024-05-17 16:32:12.361411,0,-1,10,0,0,0,79,82,136,180,71,167.03,128,-7.00,8.00,-896.00
2024-05-17 16:32:12.461951,0,-1,7,0,0,0,79,82,137,190,71,167.05,129,-27.00,25.00,-1028.00
2024-05-17 16:32:12.563832,0,-1,5,0,0,0,79,82,138,190,71,166.90,129,36.00,-3.00,-1131.00
2024-05-17 16:32:12.767925,0,-1,3,0,0,0,79,82,139,190,71,166.89,129,-51.00,34.00,-958.00
2024-05-17 16:32:12.768386,1,-1,2,0,0,0,79,82,139,190,71,167.10,129,27.00,-1.00,-1107.00
2024-05-17 16:32:12.818930,0,-1,1,0,0,0,79,82,140,190,71,166.77,129,-25.00,40.00,-1149.00
2024-05-17 16:32:12.972690,0,-1,0,0,0,0,79,82,140,190,71,166.86,129,4.00,26.00,-976.00
2024-05-17 16:32:13.023319,0,-1,0,0,0,0,79,82,140,190,71,166.79,129,0.00,28.00,-956.00
2024-05-17 16:32:13.177647,0,-1,0,0,0,1,79,82,140,190,71,166.87,129,-62.00,57.00,-897.00
2024-05-17 16:32:13.229231,0,-1,0,0,0,1,79,82,139,190,71,167.15,129,-76.00,69.00,-922.00
2024-05-17 16:32:13.329140,0,-1,0,0,0,1,79,82,139,190,71,167.01,129,-45.00,37.00,-1032.00
2024-05-17 16:32:13.484945,-1,-1,0,0,0,1,79,82,139,190,71,166.92,130,21.00,7.00,-893.00
2024-05-17 16:32:13.533525,0,-1,0,0,0,1,79,82,138,190,71,167.15,130,-33.00,55.00,-971.00
2024-05-17 16:32:13.690137,0,0,0,0,0,1,79,82,137,180,71,167.03,130,-33.00,60.00,-971.00
2024-05-17 16:32:13.740622,0,-1,0,0,0,1,79,82,137,180,71,166.69,130,16.00,16.00,-955.00
2024-05-17 16:32:13.839814,0,-1,0,0,0,1,79,82,137,180,71,166.94,130,17.00,18.00,-974.00
2024-05-17 16:32:13.996654,0,0,0,0,0,1,79,82,136,180,71,166.65,130,-34.00,28.00,-1017.00
2024-05-17 16:32:14.048380,0,0,0,0,0,1,79,82,136,180,71,167.02,130,12.00,41.00,-920.00
2024-05-17 16:32:14.145127,1,0,0,0,0,1,79,82,136,180,71,166.80,130,21.00,40.00,-984.00
2024-05-17 16:32:14.311182,1,0,0,0,0,1,79,82,137,180,71,166.72,130,70.00,21.00,-1222.00
2024-05-17 16:32:14.349974,1,0,0,0,0,0,79,82,137,180,71,167.20,130,-33.00,37.00,-917.00
2024-05-17 16:32:14.508616,2,0,0,0,0,0,79,82,138,180,71,166.89,131,-6.00,13.00,-936.00
2024-05-17 16:32:14.556059,1,0,0,0,0,0,79,82,138,180,71,166.76,131,-55.00,42.00,-981.00
2024-05-17 16:32:14.654872,0,0,0,0,0,0,79,82,139,180,71,167.11,131,34.00,13.00,-995.00
2024-05-17 16:32:14.815862,0,-1,0,0,0,0,79,82,138,180,71,166.94,131,-8.00,55.00,-982.00
2024-05-17 16:32:14.859777,0,-1,0,0,0,0,79,82,139,180,71,167.09,131,-38.00,60.00,-973.00
2024-05-17 16:32:14.976584,0,-2,0,0,0,1,79,82,140,180,71,166.85,131,29.00,3.00,-1027.00
2024-05-17 16:32:15.063260,0,-2,0,0,0,0,79,82,140,180,71,167.03,131,-39.00,70.00,-975.00
2024-05-17 16:32:15.226820,0,-2,0,0,0,0,79,81,141,180,71,166.72,131,40.00,10.00,-1011.00
2024-05-17 16:32:15.269345,0,-1,1,0,0,-7,79,81,150,180,71,167.02,131,0.00,19.00,-2001.00
2024-05-17 16:32:15.368717,0,-32,1,0,0,-14,79,81,304,200,71,167.24,131,-26.00,60.00,-2168.00
2024-05-17 16:32:15.470716,0,-144,2,0,-10,-10,79,81,209,210,71,167.13,132,-21.00,297.00,-1391.00
2024-05-17 16:32:15.575055,3,89,0,0,-11,5,79,81,171,210,71,167.41,132,-14.00,611.00,-1200.00
2024-05-17 16:32:15.674718,0,-1,-3,0,-4,8,79,81,142,200,71,166.70,132,-19.00,518.00,-947.00
2024-05-17 16:32:15.839790,0,-2,-2,0,-5,4,79,81,130,200,71,166.50,132,43.00,-133.00,-1891.00
2024-05-17 16:32:15.878766,0,4,-1,0,-5,0,79,81,122,200,71,166.42,132,-25.00,40.00,-1538.00
2024-05-17 16:32:16.044528,0,4,0,0,-4,0,79,81,112,200,71,167.02,132,-35.00,17.00,-1084.00
2024-05-17 16:32:16.082665,0,3,0,0,-3,0,79,81,103,190,71,166.31,132,-12.00,16.00,-926.00
2024-05-17 16:32:16.250766,0,1,0,0,-2,0,79,82,94,190,71,166.60,132,-2.00,44.00,-1024.00
2024-05-17 16:32:16.286620,0,0,0,0,-1,0,79,82,85,190,71,166.13,132,5.00,42.00,-1036.00
2024-05-17 16:32:16.454137,0,0,0,0,0,-1,79,82,77,190,71,166.25,133,21.00,40.00,-1055.00
2024-05-17 16:32:16.490605,0,-1,0,0,0,-1,79,82,69,200,71,166.27,133,-41.00,42.00,-886.00
2024-05-17 16:32:16.592699,0,0,1,0,0,-1,79,82,62,200,71,166.56,133,-7.00,47.00,-933.00
2024-05-17 16:32:16.761324,1,1,1,0,0,0,79,82,56,190,71,165.93,133,0.00,49.00,-926.00
2024-05-17 16:32:16.796611,1,0,1,0,0,0,79,82,47,190,71,166.00,133,6.00,46.00,-984.00
2024-05-17 16:32:16.848077,1,0,1,0,0,0,79,82,41,190,71,166.10,133,6.00,52.00,-966.00
2024-05-17 16:32:16.967236,1,0,1,0,0,0,79,82,31,190,71,166.11,133,23.00,15.00,-1087.00
2024-05-17 16:32:17.051563,1,0,1,0,0,0,79,82,23,190,71,165.64,133,-7.00,29.00,-1029.00
2024-05-17 16:32:17.174382,1,0,1,0,0,0,79,81,10,180,71,163.59,133,-23.00,17.00,-1128.00
2024-05-17 16:32:17.255532,1,1,0,0,0,-2,79,81,10,180,71,163.06,133,20.00,54.00,-963.00
2024-05-17 16:32:17.376175,2,-1,0,0,1,-1,79,81,10,180,71,164.16,134,-49.00,34.00,-896.00
2024-05-17 16:32:17.461859,1,-2,0,0,1,0,79,81,10,180,71,164.80,134,-6.00,12.00,-1052.00
2024-05-17 16:32:17.561937,0,-2,0,0,0,-1,79,81,10,190,71,165.18,134,30.00,36.00,-901.00
2024-05-17 16:32:17.685714,0,-2,0,0,0,-1,79,81,12,190,71,165.21,134,7.00,5.00,-1055.00
2024-05-17 16:32:17.765556,0,-1,0,0,0,-1,79,81,17,190,71,165.70,134,-5.00,50.00,-1019.00
2024-05-17 16:32:17.867612,0,-2,0,0,0,-1,79,81,22,200,71,165.88,134,2.00,48.00,-1097.00
2024-05-17 16:32:17.991063,0,0,0,0,0,-1,79,81,25,200,71,165.80,134,24.00,2.00,-1048.00
2024-05-17 16:32:18.071539,0,0,0,0,0,-2,79,81,30,200,71,165.82,134,0.00,45.00,-922.00
2024-05-17 16:32:18.194976,0,0,0,0,0,-2,79,81,35,200,71,166.03,134,-30.00,56.00,-913.00
2024-05-17 16:32:18.275543,0,1,0,0,0,-2,79,81,39,210,71,165.81,134,12.00,26.00,-1012.00
2024-05-17 16:32:18.400012,0,1,0,0,0,-2,79,81,43,210,71,165.95,135,32.00,66.00,-953.00
2024-05-17 16:32:18.480775,0,0,0,0,0,-2,79,81,47,210,71,166.03,135,-30.00,39.00,-952.00
2024-05-17 16:32:18.582708,1,0,0,0,0,-1,79,81,49,220,71,166.00,135,-12.00,48.00,-945.00
2024-05-17 16:32:18.707840,1,0,0,0,0,-1,79,81,52,220,71,166.15,135,1.00,17.00,-945.00
2024-05-17 16:32:18.786644,1,0,0,0,0,0,79,81,54,220,71,166.21,135,44.00,0.00,-892.00
2024-05-17 16:32:18.914082,1,0,0,0,0,0,79,81,56,220,71,166.02,135,24.00,-1.00,-984.00
2024-05-17 16:32:18.990605,1,0,0,0,0,0,79,81,56,230,71,165.96,135,37.00,13.00,-949.00
2024-05-17 16:32:19.116691,1,0,0,0,0,0,79,81,57,230,71,165.77,135,-22.00,37.00,-908.00
2024-05-17 16:32:19.194739,1,0,0,0,0,0,79,82,59,230,71,165.73,135,15.00,36.00,-890.00
2024-05-17 16:32:19.321656,0,0,0,0,0,0,79,82,60,230,71,165.88,135,-13.00,27.00,-976.00
2024-05-17 16:32:19.398571,0,0,0,0,0,0,79,82,61,230,71,166.38,136,-18.00,52.00,-956.00
2024-05-17 16:32:19.500918,0,0,0,0,0,0,79,82,61,230,71,166.08,136,-31.00,53.00,-941.00
2024-05-17 16:32:19.603207,0,0,0,0,0,1,79,82,61,230,71,165.87,136,-26.00,26.00,-948.00
2024-05-17 16:32:19.738437,0,1,0,0,0,0,79,82,62,230,71,166.17,136,54.00,-6.00,-1042.00
2024-05-17 16:32:19.811023,1,1,0,0,0,0,79,82,63,230,71,165.77,136,43.00,28.00,-991.00
2024-05-17 16:32:19.909747,1,1,0,0,0,0,79,82,62,230,71,165.85,136,0.00,28.00,-920.00
2024-05-17 16:32:20.012631,1,1,0,0,0,0,79,82,62,230,71,166.37,136,-20.00,22.00,-948.00
2024-05-17 16:32:20.114964,0,0,0,0,0,0,79,82,61,230,71,166.23,136,-2.00,4.00,-889.00
2024-05-17 16:32:20.215745,1,0,0,0,0,0,79,82,61,230,70,166.09,136,-6.00,25.00,-863.00
2024-05-17 16:32:20.316631,1,1,0,0,0,1,79,82,60,230,70,166.21,136,49.00,13.00,-977.00
2024-05-17 16:32:20.447932,0,1,0,0,0,1,79,82,60,230,70,165.95,137,5.00,40.00,-1011.00
2024-05-17 16:32:20.520708,0,0,0,0,0,1,79,82,58,230,70,166.00,137,45.00,-21.00,-927.00
2024-05-17 16:32:20.575386,0,0,0,0,0,0,79,82,58,230,70,166.13,137,-43.00,43.00,-990.00
2024-05-17 16:32:20.673560,0,0,0,0,1,0,79,82,58,230,70,166.32,137,60.00,-11.00,-1018.00
2024-05-17 16:32:20.862832,0,0,0,0,1,0,79,82,57,230,70,165.98,137,14.00,22.00,-1024.00
2024-05-17 16:32:20.877595,0,0,0,0,0,0,79,82,57,230,70,166.37,137,7.00,29.00,-993.00
2024-05-17 16:32:21.062359,0,0,0,0,0,0,79,82,56,230,70,165.90,137,30.00,10.00,-920.00
2024-05-17 16:32:21.083301,0,0,0,0,1,0,79,82,56,220,70,166.23,137,27.00,31.00,-1075.00
2024-05-17 16:32:21.183773,0,0,0,0,0,0,79,82,55,220,70,165.86,137,21.00,7.00,-955.00
2024-05-17 16:32:21.369633,0,0,0,0,0,0,79,82,53,220,70,165.97,137,-48.00,57.00,-937.00
2024-05-17 16:32:21.387456,0,0,0,0,0,0,79,82,52,220,70,166.11,138,-53.00,47.00,-958.00
2024-05-17 16:32:21.574271,-1,-1,0,0,1,0,79,82,51,220,70,166.09,138,-2.00,32.00,-1024.00
2024-05-17 16:32:21.591384,-1,-1,0,0,0,0,79,82,50,220,70,165.96,138,19.00,-20.00,-1069.00
2024-05-17 16:32:21.778815,0,0,0,0,0,0,79,82,48,220,70,166.24,138,14.00,36.00,-1552.00
2024-05-17 16:32:21.795454,0,1,0,0,0,-4,79,82,51,220,70,166.21,138,14.00,121.00,-1805.00
2024-05-17 16:32:21.983801,0,14,0,1,1,-12,79,82,58,230,70,166.14,138,-18.00,15.00,-1945.00
2024-05-17 16:32:21.999351,0,109,0,0,9,-12,79,82,358,240,70,166.28,138,2.00,694.00,-1320.00
2024-05-17 16:32:22.101319,1,-129,0,0,12,4,79,82,359,250,70,166.41,138,-25.00,795.00,-850.00
2024-05-17 16:32:22.203363,0,-19,2,0,6,11,79,82,53,240,70,166.36,138,-3.00,820.00,-1232.00
2024-05-17 16:32:22.393867,0,1,1,0,6,8,79,82,45,230,70,165.96,138,-38.00,798.00,-1123.00
2024-05-17 16:32:22.407316,0,-4,1,0,7,3,79,82,33,220,70,165.98,139,-26.00,28.00,-1135.00
2024-05-17 16:32:22.509316,0,-5,0,0,6,0,79,82,22,220,70,165.59,139,8.00,4.00,-1123.00
2024-05-17 16:32:22.611379,0,-4,0,0,5,0,79,82,15,220,70,165.58,139,-19.00,39.00,-1157.00
2024-05-17 16:32:22.802898,0,-4,0,0,4,-1,79,82,10,220,70,164.74,139,19.00,-10.00,-1178.00
2024-05-17 16:32:22.815236,0,-4,0,0,4,-1,79,82,10,220,70,163.63,139,-13.00,43.00,-1101.00
2024-05-17 16:32:23.007703,0,-3,0,0,3,-2,79,82,10,220,70,162.11,139,58.00,-32.00,-1194.00
2024-05-17 16:32:23.019258,0,0,0,0,2,-4,79,82,10,230,70,161.79,139,-13.00,43.00,-1101.00
2024-05-17 16:32:23.212472,-1,-4,0,0,2,-7,79,82,10,230,70,163.42,139,58.00,-32.00,-1194.00
2024-05-17 16:32:23.223225,0,0,0,0,1,-4,79,82,10,240,70,162.73,139,-13.00,7.00,-965.00
2024-05-17 16:32:23.417296,0,-1,0,0,1,-5,79,82,10,240,70,162.73,139,22.00,-16.00,-830.00
2024-05-17 16:32:23.427216,0,0,-1,0,1,-5,79,82,10,250,70,162.78,140,3.00,-10.00,-1104.00
2024-05-17 16:32:23.630026,0,0,-2,0,1,-5,79,82,10,250,70,163.54,140,23.00,17.00,-1043.00
2024-05-17 16:32:23.632182,0,0,-2,0,1,-5,79,82,10,260,70,163.70,140,81.00,-21.00,-975.00
2024-05-17 16:32:23.826876,0,0,-3,1,0,-5,79,82,10,270,70,163.87,140,26.00,-49.00,-968.00
2024-05-17 16:32:23.835222,0,0,-4,1,0,-5,79,82,10,270,70,164.25,140,-2.00,-3.00,-974.00
