TS,pitch,roll,yaw,vgx,vgy,vgz,templ,temph,tof,h,bat,baro,time,agx,agy,agz
2024-06-07 11:29:38.319504,0,-1,27,0,0,0,87,90,10,0,85,108.91,62,13.00,19.00,-999.00
2024-06-07 11:29:38.330720,0,-1,27,0,0,0,87,90,10,0,85,108.94,62,14.00,19.00,-998.00
2024-06-07 11:29:38.524498,0,-1,27,0,0,0,87,90,10,0,85,108.79,62,15.00,19.00,-1000.00
2024-06-07 11:29:38.555803,0,-1,27,0,0,0,87,90,10,0,85,108.99,62,12.00,20.00,-996.00
2024-06-07 11:29:38.636953,0,-1,27,0,0,0,87,90,10,0,85,108.73,62,13.00,20.00,-999.00
2024-06-07 11:29:38.831462,0,-1,27,0,0,0,87,90,10,0,85,108.87,62,14.00,20.00,-1000.00
2024-06-07 11:29:38.840740,0,-1,27,0,0,0,87,90,10,0,85,108.99,62,13.00,19.00,-1000.00
2024-06-07 11:29:39.036480,0,-1,27,0,0,0,87,90,10,0,85,108.87,62,15.00,20.00,-1001.00
2024-06-07 11:29:39.044745,0,-1,27,0,0,0,87,90,10,0,85,109.02,62,13.00,20.00,-999.00
2024-06-07 11:29:39.241204,0,-1,27,0,0,0,88,90,10,0,85,109.01,62,13.00,19.00,-999.00
2024-06-07 11:29:39.249252,0,-1,27,0,0,0,88,90,10,0,85,108.83,62,15.00,20.00,-999.00
2024-06-07 11:29:39.446078,0,-1,27,0,0,0,88,90,10,0,85,108.92,62,14.00,21.00,-998.00
2024-06-07 11:29:39.452796,0,-1,27,0,0,0,88,90,10,0,85,109.05,62,14.00,20.00,-997.00
2024-06-07 11:29:39.651235,0,-1,27,0,0,0,88,90,10,0,85,109.19,62,14.00,20.00,-998.00
2024-06-07 11:29:39.656662,0,-1,27,0,0,0,88,90,10,0,85,108.82,62,13.00,20.00,-999.00
2024-06-07 11:29:39.855673,0,-1,27,0,0,0,88,90,10,0,85,108.83,62,14.00,19.00,-998.00
2024-06-07 11:29:39.860759,0,-1,27,0,0,0,88,90,10,0,85,108.81,62,12.00,18.00,-999.00
2024-06-07 11:29:40.063500,0,-1,27,0,0,0,88,90,10,0,85,108.90,62,14.00,21.00,-999.00
2024-06-07 11:29:40.064742,0,-1,27,0,0,0,88,90,10,0,85,108.86,62,13.00,21.00,-999.00
2024-06-07 11:29:40.265272,0,-1,27,0,0,0,88,89,10,0,85,109.18,62,14.00,19.00,-998.00
2024-06-07 11:29:40.268819,0,-1,27,0,0,0,88,89,10,0,85,108.94,62,13.00,20.00,-1001.00
2024-06-07 11:29:40.370754,0,-1,27,0,0,0,88,89,10,0,85,108.85,62,14.00,19.00,-999.00
2024-06-07 11:29:40.472724,0,-1,27,0,0,0,88,89,10,0,85,108.99,62,13.00,18.00,-1000.00
2024-06-07 11:29:40.574766,0,-1,27,0,0,0,88,89,10,0,85,108.80,62,12.00,20.00,-999.00
2024-06-07 11:29:40.625861,0,-1,27,0,0,0,88,89,10,0,85,109.04,62,14.00,19.00,-999.00
2024-06-07 11:29:40.777241,0,-1,27,0,0,0,88,89,10,0,85,108.97,62,13.00,20.00,-999.00
2024-06-07 11:29:40.829543,0,-1,27,0,0,0,88,89,10,0,85,109.06,62,14.00,20.00,-999.00
2024-06-07 11:29:40.931465,0,-1,27,0,0,0,88,89,10,0,85,108.98,62,33.00,12.00,-1008.00
2024-06-07 11:29:41.084227,0,-1,27,0,0,0,88,89,10,0,85,108.98,62,20.00,20.00,-1017.00
2024-06-07 11:29:41.135430,0,-1,27,0,0,0,88,90,10,0,85,108.98,62,-19.00,19.00,-1002.00
2024-06-07 11:29:41.289157,0,-1,26,0,0,0,88,90,10,0,85,108.98,62,42.00,0.00,-998.00
2024-06-07 11:29:41.339347,0,-1,26,0,0,0,88,90,10,0,85,108.98,62,9.00,7.00,-1114.00
2024-06-07 11:29:41.493931,0,0,26,0,0,0,88,90,10,0,85,108.98,62,-18.00,34.00,-1189.00
2024-06-07 11:29:41.543414,0,0,26,0,0,-3,88,90,10,0,85,108.98,63,-5.00,30.00,-1356.00
2024-06-07 11:29:41.699498,1,0,26,0,0,-6,88,90,14,0,85,109.02,63,19.00,36.00,-1100.00
2024-06-07 11:29:41.748741,1,0,26,0,0,-7,88,90,23,10,85,109.45,63,10.00,42.00,-1059.00
2024-06-07 11:29:41.903363,0,0,26,0,0,-8,88,90,28,10,85,109.50,63,-21.00,55.00,-950.00
2024-06-07 11:29:41.951517,1,-1,26,0,0,-8,88,90,37,20,85,109.35,63,-20.00,5.00,-935.00
2024-06-07 11:29:42.108380,0,-2,25,0,0,-7,88,90,42,30,85,109.26,63,-31.00,3.00,-906.00
2024-06-07 11:29:42.155420,0,-2,25,0,0,-6,88,90,49,30,85,109.50,63,-62.00,-1.00,-851.00
2024-06-07 11:29:42.257429,0,-1,26,0,0,-5,88,90,56,40,85,109.60,63,-26.00,20.00,-912.00
2024-06-07 11:29:42.359355,-1,-1,26,0,0,-4,88,90,61,40,85,109.84,63,-31.00,0.00,-913.00
2024-06-07 11:29:42.517841,-2,0,26,0,0,-3,88,90,66,50,85,109.65,63,-51.00,20.00,-906.00
2024-06-07 11:29:42.563346,-2,0,26,-1,0,-2,88,90,69,50,85,109.30,64,-74.00,-11.00,-866.00
2024-06-07 11:29:42.667985,-3,-1,26,-1,0,-1,88,90,71,50,85,109.50,64,-73.00,-16.00,-919.00
2024-06-07 11:29:42.767401,-3,0,25,0,0,0,88,90,74,50,85,109.65,64,-44.00,-6.00,-963.00
2024-06-07 11:29:42.927469,-3,0,25,0,0,0,88,90,75,50,85,109.75,64,-53.00,-5.00,-995.00
2024-06-07 11:29:42.971270,-3,0,25,0,0,0,88,90,77,50,85,109.56,64,-45.00,-21.00,-980.00
2024-06-07 11:29:43.132321,-3,0,25,0,0,0,88,90,78,50,85,109.85,64,-58.00,-26.00,-961.00
2024-06-07 11:29:43.175423,-3,0,26,0,0,0,88,90,79,50,85,109.44,64,-41.00,6.00,-1001.00
2024-06-07 11:29:43.337135,-3,1,26,0,0,0,88,90,81,60,85,109.84,64,-51.00,6.00,-999.00
2024-06-07 11:29:43.379374,-3,0,26,0,0,0,88,90,83,60,85,109.97,64,-58.00,12.00,-998.00
2024-06-07 11:29:43.541988,-3,0,26,0,0,0,88,90,84,60,85,109.87,64,-42.00,9.00,-1002.00
2024-06-07 11:29:43.583336,-3,0,26,0,0,0,88,90,86,60,85,109.63,65,-41.00,0.00,-972.00
2024-06-07 11:29:43.685365,-2,0,26,0,0,0,88,90,87,60,85,109.94,65,-45.00,11.00,-961.00
2024-06-07 11:29:43.849090,-2,0,26,0,0,0,88,90,88,60,85,109.93,65,-43.00,34.00,-966.00
2024-06-07 11:29:43.889461,-2,-1,26,0,0,0,88,90,88,60,85,110.10,65,-48.00,10.00,-998.00
2024-06-07 11:29:44.055126,-2,-1,26,0,0,0,88,90,88,70,85,110.22,65,-22.00,45.00,-968.00
2024-06-07 11:29:44.055321,-1,-1,26,0,0,0,88,90,90,70,85,109.57,65,-33.00,26.00,-983.00
2024-06-07 11:29:44.258647,-1,-1,26,0,0,0,88,91,89,70,85,109.96,65,-26.00,21.00,-970.00
2024-06-07 11:29:44.258703,-1,-1,26,0,0,0,88,91,89,70,85,109.68,65,-26.00,43.00,-990.00
2024-06-07 11:29:44.348442,0,-1,26,0,0,0,88,91,89,70,85,110.02,65,-6.00,23.00,-973.00
2024-06-07 11:29:44.463556,0,-1,26,0,0,0,88,91,88,70,85,109.63,65,-10.00,30.00,-993.00
2024-06-07 11:29:44.552410,0,-2,26,0,0,0,88,91,88,70,85,109.87,66,-18.00,55.00,-944.00
2024-06-07 11:29:44.654595,0,-2,26,0,0,0,88,91,87,70,85,109.87,66,23.00,30.00,-1025.00
2024-06-07 11:29:44.770768,0,-2,26,0,0,0,88,91,86,70,85,109.79,66,0.00,25.00,-997.00
2024-06-07 11:29:44.858353,0,-2,26,0,0,0,88,91,85,60,85,109.67,66,-16.00,27.00,-1018.00
2024-06-07 11:29:44.975383,0,-2,26,0,0,0,88,91,84,60,85,109.74,66,-14.00,43.00,-1003.00
2024-06-07 11:29:45.062368,0,-2,26,0,0,0,88,91,84,60,85,109.92,66,-20.00,20.00,-996.00
2024-06-07 11:29:45.180281,0,-2,26,0,0,0,88,91,83,60,85,109.26,66,-14.00,59.00,-1035.00
2024-06-07 11:29:45.266304,0,-3,26,0,0,0,88,91,84,60,85,109.80,66,-32.00,59.00,-1034.00
2024-06-07 11:29:45.385129,0,-3,26,0,0,0,88,91,82,60,85,109.94,66,-27.00,37.00,-1001.00
2024-06-07 11:29:45.470399,0,-2,26,0,0,0,88,91,83,60,85,109.68,66,-11.00,41.00,-1022.00
2024-06-07 11:29:45.589902,0,-1,26,0,0,0,88,91,82,60,85,109.73,67,-8.00,61.00,-1001.00
2024-06-07 11:29:45.674227,-1,-2,26,0,0,0,88,91,82,60,85,110.16,67,10.00,67.00,-1004.00
2024-06-07 11:29:45.794537,-1,-3,26,0,0,0,88,91,82,60,85,109.81,67,-18.00,62.00,-989.00
2024-06-07 11:29:45.878269,0,-4,26,0,0,0,88,91,81,60,85,109.75,67,-43.00,87.00,-994.00
2024-06-07 11:29:45.999310,0,-4,25,0,0,0,88,91,81,60,85,110.25,67,-34.00,60.00,-978.00
2024-06-07 11:29:46.083264,0,-5,26,-1,0,0,88,91,80,60,85,110.12,67,-11.00,96.00,-992.00
2024-06-07 11:29:46.185732,-2,-4,26,-1,0,0,88,90,81,60,85,109.87,67,-7.00,108.00,-961.00
2024-06-07 11:29:46.288263,-2,-6,26,0,0,0,88,90,80,60,85,110.16,67,-59.00,108.00,-1008.00
2024-06-07 11:29:46.388403,-1,-7,26,0,0,0,88,90,80,60,85,110.09,67,-56.00,101.00,-997.00
2024-06-07 11:29:46.490471,-2,-6,26,-1,0,0,88,90,80,60,85,110.08,67,-56.00,107.00,-972.00
2024-06-07 11:29:46.593126,-3,-7,26,-1,0,0,88,90,80,60,85,109.88,68,-55.00,95.00,-1000.00
2024-06-07 11:29:46.695065,-4,-7,26,0,0,0,88,90,79,60,85,109.84,68,-51.00,113.00,-1064.00
2024-06-07 11:29:46.819400,-3,-6,26,0,0,0,88,90,79,60,85,110.28,68,-87.00,80.00,-968.00
2024-06-07 11:29:46.899653,-3,-6,26,0,0,0,88,90,79,60,85,110.06,68,-46.00,91.00,-975.00
2024-06-07 11:29:47.023796,-3,-6,26,0,0,0,88,90,80,60,85,110.12,68,-49.00,90.00,-946.00
2024-06-07 11:29:47.102194,-4,-5,26,0,0,0,88,90,80,60,85,109.89,68,-69.00,72.00,-971.00
2024-06-07 11:29:47.228327,-3,-5,26,0,0,0,88,91,79,60,85,110.05,68,-49.00,98.00,-1024.00
2024-06-07 11:29:47.306148,-3,-4,26,0,0,0,88,91,81,60,85,109.61,68,-89.00,99.00,-1006.00
2024-06-07 11:29:47.433169,-4,-4,26,0,0,0,88,91,81,60,85,110.07,68,-80.00,129.00,-962.00
2024-06-07 11:29:47.510264,-5,-5,26,0,0,0,88,91,82,60,85,109.82,68,-75.00,97.00,-892.00
2024-06-07 11:29:47.740280,-4,-6,26,0,0,0,88,91,82,60,85,109.65,69,-53.00,99.00,-950.00
2024-06-07 11:29:47.740959,-4,-6,26,0,0,0,88,91,82,60,85,110.28,69,-75.00,86.00,-1003.00
2024-06-07 11:29:47.818191,-4,-6,26,0,0,0,88,91,82,60,85,109.91,69,-49.00,132.00,-1034.00
2024-06-07 11:29:47.868036,-3,-6,26,0,0,0,88,91,82,60,85,110.07,69,-59.00,112.00,-975.00
2024-06-07 11:29:47.969777,-2,-6,26,0,0,0,88,91,82,60,85,109.74,69,-50.00,94.00,-969.00
2024-06-07 11:29:48.071248,-1,-6,26,0,0,0,88,91,82,60,85,110.00,69,-32.00,91.00,-1008.00
2024-06-07 11:29:48.252311,-2,-6,26,0,0,0,88,90,82,60,85,109.95,69,-78.00,111.00,-1005.00
2024-06-07 11:29:48.275171,-2,-6,26,0,0,0,88,90,81,60,85,109.90,69,-57.00,108.00,-1051.00
2024-06-07 11:29:48.457383,-1,-6,26,0,0,0,88,90,82,60,85,109.97,69,-54.00,103.00,-984.00
2024-06-07 11:29:48.479183,-2,-6,26,0,0,0,88,90,83,60,85,109.90,69,-27.00,99.00,-980.00
2024-06-07 11:29:48.661949,-2,-6,26,0,0,0,88,90,82,60,85,109.85,70,-31.00,90.00,-935.00
2024-06-07 11:29:48.683345,-2,-6,26,0,0,0,88,90,82,60,85,109.70,70,-4.00,119.00,-964.00
2024-06-07 11:29:48.866954,-1,-6,26,0,0,0,88,90,83,60,85,109.92,70,-16.00,106.00,-956.00
2024-06-07 11:29:48.887435,-1,-6,26,0,0,0,88,90,83,60,85,109.53,70,-13.00,104.00,-957.00
2024-06-07 11:29:49.072818,-1,-6,26,0,0,0,88,90,83,60,85,109.64,70,5.00,115.00,-987.00
2024-06-07 11:29:49.091131,0,-6,26,0,0,0,88,90,83,60,85,109.86,70,-13.00,111.00,-944.00
2024-06-07 11:29:49.276252,0,-6,26,0,0,0,88,90,83,60,85,109.60,70,-15.00,94.00,-966.00
2024-06-07 11:29:49.295062,0,-6,26,0,0,0,88,90,83,60,85,109.85,70,-47.00,99.00,-1022.00
2024-06-07 11:29:49.397185,-1,-5,26,0,0,0,88,90,83,60,85,109.75,70,-46.00,81.00,-973.00
2024-06-07 11:29:49.499000,-1,-5,26,0,0,0,88,90,84,60,85,109.73,71,-33.00,119.00,-1072.00
2024-06-07 11:29:49.685787,-2,-5,26,0,0,-1,88,90,84,60,85,110.07,71,-39.00,103.00,-1115.00
2024-06-07 11:29:49.703124,-1,-5,26,0,0,-2,88,90,87,70,85,109.80,71,-40.00,131.00,-1107.00
2024-06-07 11:29:49.890571,-2,-5,26,0,0,-3,88,90,90,70,85,109.63,71,-53.00,82.00,-1076.00
2024-06-07 11:29:49.906881,-2,-5,26,0,0,-4,88,90,94,70,85,109.98,71,-38.00,96.00,-1066.00
2024-06-07 11:29:50.096793,-3,-5,26,0,0,-4,88,90,99,80,85,109.85,71,-73.00,90.00,-1051.00
2024-06-07 11:29:50.111016,-3,-4,26,0,0,-5,88,90,105,80,85,109.95,71,-28.00,107.00,-1001.00
2024-06-07 11:29:50.213012,-3,-4,26,0,0,-5,88,90,111,90,85,109.89,71,-23.00,101.00,-1004.00
2024-06-07 11:29:50.315001,-2,-4,26,0,0,-5,88,90,118,90,85,109.83,71,-22.00,74.00,-995.00
2024-06-07 11:29:50.504995,-1,-5,26,0,0,-5,88,90,122,100,85,109.89,71,-8.00,93.00,-963.00
2024-06-07 11:29:50.519001,-1,-5,26,0,0,-5,88,90,130,110,85,109.97,72,-16.00,122.00,-961.00
2024-06-07 11:29:50.711189,-1,-5,26,0,0,-5,88,90,135,110,85,110.25,72,-34.00,77.00,-926.00
2024-06-07 11:29:50.723091,-1,-5,26,0,0,-5,88,90,141,120,85,109.92,72,-11.00,90.00,-965.00
2024-06-07 11:29:50.914616,-1,-5,26,0,0,-4,88,90,147,120,85,109.71,72,-28.00,114.00,-942.00
2024-06-07 11:29:50.926971,-1,-5,26,0,0,-4,88,90,152,130,85,110.33,72,-20.00,108.00,-1018.00
2024-06-07 11:29:51.119430,0,-5,25,0,0,-4,88,90,159,130,85,110.33,72,-47.00,91.00,-918.00
2024-06-07 11:29:51.130897,0,-6,25,0,0,-4,88,90,161,140,85,110.63,72,-123.00,54.00,-1025.00
2024-06-07 11:29:51.324218,-3,-5,26,0,-1,-4,88,91,168,140,85,110.52,72,-85.00,57.00,-927.00
2024-06-07 11:29:51.334915,-5,-4,26,0,-1,-3,88,91,174,150,85,110.25,72,-96.00,82.00,-925.00
2024-06-07 11:29:51.529272,-6,-4,26,0,0,-3,88,91,176,150,85,110.45,72,-102.00,107.00,-992.00
2024-06-07 11:29:51.538904,-6,-4,26,0,0,-2,88,91,180,150,85,110.28,73,-101.00,102.00,-1000.00
2024-06-07 11:29:51.734107,-5,-5,26,0,0,-2,88,91,186,160,85,110.50,73,-105.00,102.00,-935.00
2024-06-07 11:29:51.734813,-6,-5,26,0,0,-2,88,91,187,160,85,110.52,73,-87.00,87.00,-895.00
2024-06-07 11:29:51.793991,-6,-5,26,0,0,-1,88,91,187,160,85,110.88,73,-107.00,82.00,-915.00
2024-06-07 11:29:51.938712,-6,-5,26,0,0,-1,88,91,191,160,85,110.43,73,-90.00,100.00,-918.00
2024-06-07 11:29:51.998036,-6,-5,26,0,0,0,88,91,192,160,85,110.49,73,-108.00,114.00,-972.00
2024-06-07 11:29:52.143561,-6,-4,26,0,0,0,88,91,191,170,85,110.64,73,-86.00,94.00,-952.00
2024-06-07 11:29:52.202082,-5,-4,26,0,0,0,87,90,198,170,85,110.69,73,-67.00,117.00,-1006.00
2024-06-07 11:29:52.353810,-5,-4,26,0,0,0,87,90,191,170,85,110.83,73,-86.00,75.00,-950.00
2024-06-07 11:29:52.406021,-5,-5,26,0,0,0,87,90,193,170,85,110.78,73,-91.00,94.00,-970.00
2024-06-07 11:29:52.553158,-5,-4,26,0,0,0,87,90,193,170,85,110.48,74,-61.00,105.00,-1000.00
2024-06-07 11:29:52.610178,-4,-5,26,0,0,0,87,90,194,170,85,110.66,74,-68.00,105.00,-1004.00
2024-06-07 11:29:52.712078,-4,-5,26,0,0,0,87,90,192,170,85,110.77,74,-69.00,93.00,-1018.00
2024-06-07 11:29:52.860427,-3,-5,26,0,0,0,87,90,191,170,85,110.67,74,-57.00,91.00,-1031.00
2024-06-07 11:29:52.916052,-3,-5,26,0,0,0,87,90,190,170,85,110.66,74,-61.00,95.00,-1021.00
2024-06-07 11:29:53.066566,-3,-4,26,0,0,0,87,90,188,170,85,110.48,74,-80.00,63.00,-1027.00
2024-06-07 11:29:53.120362,-3,-4,26,1,0,0,87,90,189,170,85,110.50,74,-70.00,62.00,-984.00
2024-06-07 11:29:53.270386,-2,-3,26,1,0,0,87,90,189,170,85,110.21,74,-20.00,78.00,-986.00
2024-06-07 11:29:53.324556,-2,-4,26,1,0,0,87,90,188,160,85,110.61,74,-7.00,69.00,-983.00
2024-06-07 11:29:53.425947,-1,-3,26,1,0,0,87,90,189,160,85,110.31,74,-21.00,48.00,-956.00
2024-06-07 11:29:53.527968,-1,-3,26,1,0,0,87,90,185,160,85,110.84,75,-10.00,71.00,-1007.00
2024-06-07 11:29:53.630376,-1,-3,26,1,0,0,87,90,185,160,85,110.35,75,6.00,58.00,-1037.00
2024-06-07 11:29:53.731868,-1,-3,26,1,0,0,87,90,189,160,85,110.46,75,-19.00,53.00,-951.00
2024-06-07 11:29:53.833901,0,-2,26,1,0,0,87,90,187,160,85,110.44,75,7.00,49.00,-1003.00
2024-06-07 11:29:53.986668,0,-2,26,1,0,0,87,90,186,160,85,110.24,75,-3.00,61.00,-942.00
2024-06-07 11:29:54.039827,0,-2,26,1,0,0,87,90,187,160,85,110.47,75,-13.00,32.00,-910.00
2024-06-07 11:29:54.140119,1,-2,26,1,0,1,87,90,185,160,85,110.55,75,0.00,53.00,-935.00
2024-06-07 11:29:54.293840,1,-2,26,0,0,1,87,90,187,160,85,110.44,75,-25.00,60.00,-939.00
2024-06-07 11:29:54.343856,0,-3,26,0,0,1,87,90,185,160,85,110.48,75,-44.00,81.00,-1039.00
2024-06-07 11:29:54.499839,0,-3,26,0,0,1,87,90,183,160,85,110.55,75,-17.00,79.00,-945.00
2024-06-07 11:29:54.547873,-1,-3,26,0,0,2,87,90,181,160,85,110.54,76,-22.00,87.00,-980.00
2024-06-07 11:29:54.649904,-1,-4,26,0,0,2,87,90,177,160,85,110.42,76,-36.00,79.00,-968.00
2024-06-07 11:29:54.805780,-1,-4,26,0,0,2,87,90,174,150,85,110.73,76,-41.00,107.00,-967.00
2024-06-07 11:29:54.853783,-1,-5,26,0,0,2,87,90,172,150,85,110.27,76,-35.00,87.00,-964.00
2024-06-07 11:29:55.010647,-2,-5,26,0,0,2,87,90,170,150,85,110.35,76,-43.00,101.00,-964.00
2024-06-07 11:29:55.057827,-2,-5,26,0,0,2,87,90,168,150,85,110.62,76,-59.00,94.00,-958.00
2024-06-07 11:29:55.109778,-2,-5,26,0,0,2,87,90,164,140,85,110.38,76,-65.00,96.00,-1030.00
2024-06-07 11:29:55.261730,-3,-6,26,-1,0,2,87,90,162,140,85,110.40,76,-62.00,61.00,-1018.00
2024-06-07 11:29:55.312869,-4,-5,26,-1,0,2,87,90,158,140,85,110.16,76,-58.00,53.00,-1026.00
2024-06-07 11:29:55.414836,-5,-5,26,0,0,2,87,90,158,140,85,110.15,76,-82.00,85.00,-972.00
2024-06-07 11:29:55.522637,-5,-4,26,0,0,2,87,90,156,130,85,110.41,77,-69.00,85.00,-948.00
2024-06-07 11:29:55.618757,-6,-4,26,-1,0,2,87,90,152,130,85,110.27,77,-99.00,64.00,-991.00
2024-06-07 11:29:55.720761,-6,-4,26,-1,0,1,87,90,149,130,85,110.25,77,-57.00,94.00,-1040.00
2024-06-07 11:29:55.822678,-7,-4,26,0,0,1,87,90,149,130,85,109.93,77,-111.00,73.00,-964.00
2024-06-07 11:29:55.932265,-7,-4,26,0,0,1,87,90,150,130,85,110.27,77,-110.00,81.00,-1058.00
2024-06-07 11:29:56.026733,-7,-4,26,0,0,1,87,90,145,120,85,110.28,77,-100.00,66.00,-1019.00
2024-06-07 11:29:56.128719,-7,-4,26,0,0,1,87,90,145,120,85,110.14,77,-85.00,60.00,-1028.00
2024-06-07 11:29:56.239749,-7,-4,26,0,0,1,87,90,144,120,85,110.30,77,-87.00,45.00,-1011.00
2024-06-07 11:29:56.332725,-7,-4,26,0,0,1,87,90,143,120,85,110.12,77,-141.00,65.00,-937.00
2024-06-07 11:29:56.434793,-6,-4,26,0,0,1,87,90,141,120,85,109.99,77,-93.00,67.00,-1019.00
2024-06-07 11:29:56.546671,-6,-3,26,0,0,1,87,90,141,120,85,109.78,78,-113.00,58.00,-1077.00
2024-06-07 11:29:56.640040,-7,-2,26,0,0,0,87,90,141,120,85,110.11,78,-74.00,97.00,-1030.00
2024-06-07 11:29:56.741013,-6,-2,26,0,0,0,87,90,141,120,85,110.01,78,-66.00,62.00,-1008.00
2024-06-07 11:29:56.842945,-5,-3,26,0,0,0,87,90,140,120,85,110.22,78,-63.00,93.00,-1047.00
2024-06-07 11:29:56.956309,-4,-4,26,0,0,0,87,90,140,120,85,110.00,78,-79.00,72.00,-1006.00
2024-06-07 11:29:57.046758,-4,-4,26,0,0,0,87,90,140,120,85,110.08,78,-77.00,51.00,-1004.00
2024-06-07 11:29:57.161371,-4,-3,26,0,0,0,87,90,141,120,85,109.88,78,-91.00,109.00,-962.00
2024-06-07 11:29:57.251348,-4,-3,26,0,0,0,87,90,140,120,85,109.60,78,-50.00,87.00,-956.00
2024-06-07 11:29:57.368013,-3,-4,26,1,0,0,87,90,141,120,85,110.40,78,-27.00,71.00,-973.00
2024-06-07 11:29:57.454926,-3,-5,26,1,0,0,87,90,144,120,85,110.05,78,-25.00,46.00,-942.00
2024-06-07 11:29:57.556795,-2,-4,26,1,0,0,87,90,141,120,85,109.92,79,-30.00,81.00,-979.00
2024-06-07 11:29:57.674710,-1,-4,26,1,0,0,87,90,144,120,85,110.01,79,-32.00,91.00,-999.00
2024-06-07 11:29:57.761066,-1,-4,26,1,0,0,87,90,143,120,85,109.76,79,-30.00,81.00,-1004.00
2024-06-07 11:29:57.879150,-1,-4,26,1,0,0,87,90,143,120,85,110.13,79,-41.00,84.00,-951.00
2024-06-07 11:29:57.965283,-1,-4,26,1,0,0,87,90,143,120,85,109.79,79,-31.00,65.00,-960.00
2024-06-07 11:29:58.066698,-1,-5,26,0,0,0,87,90,143,120,85,109.73,79,-43.00,74.00,-948.00
2024-06-07 11:29:58.185080,-1,-4,26,0,0,0,87,90,142,120,85,109.74,79,-23.00,74.00,-992.00
2024-06-07 11:29:58.270907,-1,-4,26,0,0,0,87,89,141,120,85,109.56,79,-37.00,82.00,-996.00
2024-06-07 11:29:58.391711,-2,-4,26,0,0,0,87,89,141,120,85,109.99,79,-60.00,104.00,-1039.00
2024-06-07 11:29:58.474634,-1,-5,26,0,0,0,87,89,139,120,85,110.04,79,-56.00,69.00,-1000.00
2024-06-07 11:29:58.594719,-2,-5,26,0,0,0,87,89,139,120,85,110.01,80,-25.00,94.00,-1036.00
2024-06-07 11:29:58.678636,-4,-5,26,0,0,0,87,89,140,120,85,109.83,80,-49.00,98.00,-962.00
2024-06-07 11:29:58.780868,-8,-3,26,0,0,0,87,89,141,120,85,109.92,80,-44.00,78.00,-1042.00
2024-06-07 11:29:58.883282,-8,-2,26,1,1,0,87,89,139,120,85,109.71,80,-44.00,61.00,-1024.00
2024-06-07 11:29:58.934022,-8,-3,26,2,1,0,87,89,139,120,85,109.87,80,-90.00,84.00,-996.00
2024-06-07 11:29:59.106580,-8,-3,26,2,2,0,87,89,138,120,85,109.90,80,-51.00,61.00,-1006.00
2024-06-07 11:29:59.143005,-8,-3,26,3,2,0,87,89,138,120,85,110.12,80,-54.00,69.00,-992.00
2024-06-07 11:29:59.311398,-8,-3,26,3,2,0,87,89,138,120,85,109.97,80,-64.00,87.00,-1010.00
2024-06-07 11:29:59.345732,-8,-3,26,4,2,0,87,89,137,120,85,109.66,80,-80.00,77.00,-959.00
2024-06-07 11:29:59.443606,-7,-3,26,4,3,0,87,89,138,120,85,109.90,80,-70.00,67.00,-1017.00
2024-06-07 11:29:59.618563,-7,-4,26,5,3,0,87,89,139,120,85,109.84,81,-78.00,78.00,-1019.00
2024-06-07 11:29:59.647440,-6,-5,26,5,3,0,87,89,138,120,85,109.64,81,-99.00,48.00,-973.00
2024-06-07 11:29:59.749444,-6,-6,26,5,3,0,87,89,138,120,85,109.98,81,-120.00,63.00,-985.00
2024-06-07 11:29:59.925842,-4,-6,26,6,2,0,87,89,140,120,85,109.90,81,-116.00,51.00,-1007.00
2024-06-07 11:29:59.953945,-1,-5,26,5,2,0,87,89,139,120,85,109.79,81,-108.00,56.00,-997.00
2024-06-07 11:30:00.131828,0,-3,26,5,1,0,87,89,140,120,85,110.13,81,-98.00,75.00,-942.00
2024-06-07 11:30:00.160234,0,-3,26,3,1,0,87,89,139,120,85,110.02,81,-87.00,62.00,-971.00
2024-06-07 11:30:00.259426,-2,-3,26,3,1,0,86,90,139,120,85,109.92,81,-69.00,101.00,-984.00
2024-06-07 11:30:00.437746,-2,-3,26,3,1,0,86,90,140,120,85,110.09,81,-77.00,64.00,-958.00
2024-06-07 11:30:00.463418,-3,-3,26,3,1,0,86,90,140,120,85,110.08,81,-75.00,80.00,-1053.00
2024-06-07 11:30:00.642742,-3,-3,26,2,0,0,86,90,139,120,85,109.84,82,-78.00,57.00,-937.00
2024-06-07 11:30:00.667387,-3,-3,26,2,0,0,86,90,139,120,85,109.95,82,-82.00,56.00,-987.00
2024-06-07 11:30:00.769516,-3,-3,26,2,0,0,86,90,139,120,85,110.45,82,-75.00,78.00,-1046.00
2024-06-07 11:30:00.949747,-4,-3,26,2,0,0,86,90,138,120,85,109.82,82,-69.00,82.00,-989.00
2024-06-07 11:30:00.973592,-4,-3,26,2,1,0,86,90,139,120,85,110.13,82,-77.00,73.00,-968.00
2024-06-07 11:30:01.154489,-4,-4,26,1,1,0,86,90,140,120,85,109.96,82,-79.00,69.00,-1011.00
2024-06-07 11:30:01.177365,-4,-5,26,1,1,0,86,90,139,120,85,110.14,82,-48.00,51.00,-1015.00
2024-06-07 11:30:01.359623,-3,-7,26,2,0,0,88,90,140,120,85,109.80,82,-73.00,91.00,-1016.00
2024-06-07 11:30:01.381444,-3,-5,26,2,0,0,88,90,138,120,85,109.81,82,-31.00,95.00,-1010.00
2024-06-07 11:30:01.569594,-1,-4,26,2,0,0,88,90,140,120,85,109.54,82,-62.00,99.00,-1031.00
2024-06-07 11:30:01.585366,1,-3,26,1,0,0,88,90,139,120,85,109.82,83,-51.00,82.00,-966.00
2024-06-07 11:30:01.687544,0,-4,26,0,0,0,88,90,140,120,85,109.54,83,-62.00,102.00,-976.00
2024-06-07 11:30:01.871494,-2,-4,26,0,0,0,88,90,138,120,85,109.78,83,-49.00,58.00,-988.00
2024-06-07 11:30:01.892471,-2,-3,26,0,0,0,88,90,139,120,85,109.51,83,-23.00,57.00,-1009.00
2024-06-07 11:30:01.995505,-2,-3,26,0,0,0,88,90,140,120,85,109.44,83,-71.00,83.00,-971.00
2024-06-07 11:30:02.096591,-2,-3,26,0,0,0,88,90,138,120,85,110.03,83,-49.00,61.00,-1015.00
2024-06-07 11:30:02.198491,-2,-3,26,0,0,0,88,90,139,120,85,109.58,83,-50.00,70.00,-1027.00
2024-06-07 11:30:02.387327,-2,-3,26,0,0,0,87,90,137,120,85,109.66,83,-46.00,65.00,-994.00
2024-06-07 11:30:02.402385,-2,-3,26,0,0,0,87,90,138,120,85,110.07,83,-56.00,49.00,-966.00
2024-06-07 11:30:02.588257,-2,-3,26,0,0,0,87,90,138,120,85,110.31,83,-64.00,40.00,-1016.00
2024-06-07 11:30:02.606493,-2,-2,26,0,0,0,87,90,137,120,85,109.77,84,-58.00,57.00,-953.00
2024-06-07 11:30:02.709391,-3,-2,26,0,0,0,87,90,138,120,85,109.84,84,-43.00,65.00,-1024.00
2024-06-07 11:30:02.895458,-3,-3,26,0,0,0,87,90,136,120,85,110.14,84,-62.00,54.00,-1005.00
2024-06-07 11:30:02.895661,-3,-2,26,0,0,0,87,90,136,120,85,110.14,84,-43.00,76.00,-1005.00
2024-06-07 11:30:02.964425,-3,-2,26,0,0,0,87,90,135,120,85,109.39,84,-41.00,58.00,-1030.00
2024-06-07 11:30:03.100201,-3,-3,26,0,0,0,87,90,134,120,85,109.96,84,-58.00,63.00,-996.00
2024-06-07 11:30:03.168454,-3,-3,26,0,0,0,87,90,135,120,85,109.86,84,-41.00,65.00,-1017.00
2024-06-07 11:30:03.305025,-3,-2,26,0,0,0,87,89,136,120,85,109.69,84,-64.00,79.00,-1018.00
2024-06-07 11:30:03.372537,-3,-3,26,0,0,0,87,89,136,120,85,109.97,84,-30.00,75.00,-1041.00
2024-06-07 11:30:03.474535,-3,-4,26,0,0,0,87,89,139,120,85,109.59,84,-44.00,74.00,-1034.00
2024-06-07 11:30:03.576430,-3,-4,26,0,0,0,87,89,138,120,85,109.99,85,-46.00,69.00,-1046.00
2024-06-07 11:30:03.678339,-4,-3,26,0,0,0,87,89,139,120,85,109.66,85,-100.00,51.00,-942.00
2024-06-07 11:30:03.780944,-4,-3,26,0,0,0,87,89,139,120,85,110.16,85,-65.00,29.00,-994.00
2024-06-07 11:30:03.882307,-1,-3,26,0,0,0,87,89,140,120,85,109.87,85,-46.00,101.00,-942.00
2024-06-07 11:30:04.022543,4,-5,26,-1,0,0,87,89,142,120,85,109.91,85,-56.00,104.00,-937.00
2024-06-07 11:30:04.086350,6,-5,25,-2,0,0,87,89,142,120,85,109.98,85,-39.00,94.00,-1035.00
2024-06-07 11:30:04.226413,5,-5,25,-3,-1,0,87,89,142,120,85,109.81,85,-56.00,83.00,-1028.00
2024-06-07 11:30:04.290171,3,-5,26,-4,-2,0,86,90,140,120,85,110.02,85,-33.00,98.00,-986.00
2024-06-07 11:30:04.392525,3,-5,26,-5,-2,0,86,90,140,120,85,109.84,85,-14.00,116.00,-1026.00
2024-06-07 11:30:04.533956,2,-5,26,-6,-2,0,86,90,142,120,85,110.13,85,-4.00,90.00,-998.00
2024-06-07 11:30:04.596453,2,-6,26,-6,-3,0,86,90,139,120,85,110.27,86,-54.00,88.00,-1022.00
2024-06-07 11:30:04.698285,0,-6,26,-7,-3,0,86,90,139,120,85,109.82,86,-28.00,113.00,-992.00
2024-06-07 11:30:04.800267,-3,-6,26,-7,-3,0,86,90,141,120,85,110.03,86,-22.00,74.00,-981.00
2024-06-07 11:30:04.943395,-5,-5,26,-7,-3,0,86,90,139,120,85,110.06,86,-57.00,103.00,-1018.00
2024-06-07 11:30:05.004512,-6,-4,26,-6,-3,0,86,90,140,120,85,109.86,86,4.00,97.00,-1011.00
2024-06-07 11:30:05.156277,-7,-4,26,-5,-2,0,86,90,138,120,85,110.21,86,-32.00,89.00,-996.00
2024-06-07 11:30:05.208225,-6,-5,26,-4,-2,0,86,90,138,120,85,109.87,86,0.00,73.00,-1045.00
2024-06-07 11:30:05.355370,-6,-6,26,-3,-1,0,86,90,137,120,85,109.74,86,-11.00,74.00,-1028.00
2024-06-07 11:30:05.413081,-6,-5,26,-3,-1,0,86,90,137,120,85,110.04,86,-26.00,77.00,-1023.00
2024-06-07 11:30:05.560066,-7,-4,26,-2,-1,0,86,90,138,120,85,110.03,87,-44.00,89.00,-999.00
2024-06-07 11:30:05.616408,-7,-3,26,-1,-1,0,86,90,138,120,85,109.95,87,-44.00,96.00,-963.00
2024-06-07 11:30:05.719404,-6,-4,26,-1,0,0,86,90,139,120,85,110.08,87,-45.00,80.00,-990.00
2024-06-07 11:30:05.820630,-5,-4,26,-1,0,0,86,90,139,120,85,109.98,87,-82.00,109.00,-1041.00
2024-06-07 11:30:05.968301,-5,-4,26,-1,0,0,86,90,138,120,85,110.32,87,-82.00,91.00,-1002.00
2024-06-07 11:30:06.024516,-5,-5,26,-1,0,0,86,90,139,120,85,110.06,87,-130.00,98.00,-991.00
2024-06-07 11:30:06.172404,-6,-5,26,-1,0,0,86,90,140,120,85,109.89,87,-127.00,114.00,-931.00
2024-06-07 11:30:06.228249,-6,-4,26,-1,0,0,86,90,139,120,85,110.35,87,-81.00,88.00,-951.00
2024-06-07 11:30:06.377108,-6,-5,26,-1,0,0,87,90,141,120,85,110.36,87,-99.00,101.00,-987.00
2024-06-07 11:30:06.433930,-6,-5,26,-1,0,0,87,90,140,120,85,109.99,87,-124.00,123.00,-961.00
2024-06-07 11:30:06.534237,-6,-6,26,-1,0,0,87,90,141,120,85,110.28,88,-115.00,115.00,-1015.00
2024-06-07 11:30:06.636208,-5,-6,26,-1,0,0,87,90,140,120,85,110.36,88,-79.00,106.00,-983.00
2024-06-07 11:30:06.738233,-5,-6,26,0,0,0,87,90,140,120,85,110.09,88,-73.00,160.00,-998.00
2024-06-07 11:30:06.789168,-6,-7,26,0,0,0,87,90,140,120,85,110.06,88,-82.00,135.00,-944.00
2024-06-07 11:30:06.891428,-5,-7,26,0,0,0,87,90,142,120,85,110.03,88,-72.00,84.00,-1000.00
2024-06-07 11:30:06.994560,-4,-7,26,0,0,0,87,90,139,120,85,110.08,88,-94.00,117.00,-979.00
2024-06-07 11:30:07.095186,-4,-7,26,0,0,0,87,90,139,120,85,110.02,88,-67.00,148.00,-1024.00
2024-06-07 11:30:07.199474,-5,-7,26,0,0,0,87,90,142,120,85,110.04,88,-100.00,113.00,-1019.00
2024-06-07 11:30:07.299255,-5,-7,26,0,0,0,87,89,137,120,85,109.90,88,-105.00,139.00,-1016.00
2024-06-07 11:30:07.401324,-5,-7,26,0,0,0,87,89,139,120,85,109.96,88,-97.00,113.00,-980.00
2024-06-07 11:30:07.503291,-5,-7,26,0,0,0,87,89,139,120,85,110.09,89,-161.00,85.00,-978.00
2024-06-07 11:30:07.605844,-6,-7,26,-1,0,0,87,89,139,120,85,110.01,89,-112.00,93.00,-1024.00
2024-06-07 11:30:07.708638,-6,-5,26,0,0,0,87,89,139,120,85,109.89,89,-132.00,107.00,-1002.00
2024-06-07 11:30:07.810557,-7,-6,26,0,0,0,87,89,140,120,85,109.99,89,-120.00,78.00,-950.00
2024-06-07 11:30:07.915490,-5,-7,26,0,0,0,87,89,138,120,85,110.02,89,-94.00,99.00,-996.00
2024-06-07 11:30:08.016100,-4,-7,26,0,-1,0,87,89,140,120,85,110.06,89,-106.00,100.00,-972.00
2024-06-07 11:30:08.127312,-4,-7,26,0,-1,0,87,89,139,120,85,109.78,89,-85.00,104.00,-964.00
2024-06-07 11:30:08.217057,-4,-7,26,0,-1,0,87,89,140,120,85,110.16,89,-139.00,117.00,-962.00
2024-06-07 11:30:08.319069,-5,-6,26,0,-2,0,86,89,141,120,85,109.95,89,-125.00,103.00,-951.00
2024-06-07 11:30:08.424942,-6,-6,26,0,-2,0,86,89,139,120,85,109.82,89,-80.00,95.00,-968.00
2024-06-07 11:30:08.523123,-6,-6,26,0,-2,0,86,89,141,120,85,109.90,90,-77.00,130.00,-1005.00
2024-06-07 11:30:08.626266,-6,-5,26,0,-2,0,86,89,140,120,85,109.93,90,-123.00,93.00,-955.00
2024-06-07 11:30:08.732562,-6,-5,26,0,-2,0,86,89,141,120,85,110.31,90,-98.00,96.00,-981.00
2024-06-07 11:30:08.828961,-6,-5,26,0,-2,0,86,89,141,120,85,110.15,90,-151.00,77.00,-1003.00
2024-06-07 11:30:08.939356,-7,-4,26,0,-2,0,86,89,139,120,85,109.98,90,-107.00,124.00,-974.00
2024-06-07 11:30:09.032951,-7,-4,26,0,-2,0,86,89,140,120,85,110.16,90,-103.00,118.00,-964.00
2024-06-07 11:30:09.135139,-7,-4,26,0,-1,0,86,89,139,120,85,109.98,90,-109.00,97.00,-975.00
2024-06-07 11:30:09.244115,-7,-4,26,0,-1,0,86,89,139,120,85,109.57,90,-116.00,79.00,-1020.00
2024-06-07 11:30:09.339118,-7,-4,26,0,-1,0,86,89,140,120,84,109.71,90,-148.00,80.00,-970.00
2024-06-07 11:30:09.440994,-7,-4,26,0,-1,0,86,89,139,120,84,109.70,90,-114.00,75.00,-993.00
2024-06-07 11:30:09.551273,-7,-4,26,0,-1,0,86,89,140,120,84,109.84,91,-127.00,94.00,-970.00
2024-06-07 11:30:09.646930,-8,-4,26,0,-1,0,86,89,139,120,84,109.97,91,-131.00,82.00,-986.00
2024-06-07 11:30:09.747058,-8,-4,26,0,-1,0,86,89,138,120,84,109.95,91,-140.00,89.00,-997.00
2024-06-07 11:30:09.858476,-8,-4,26,0,-1,0,86,89,138,120,84,109.78,91,-74.00,95.00,-1044.00
2024-06-07 11:30:09.950946,-7,-3,26,0,0,0,86,89,138,120,84,109.88,91,-103.00,110.00,-1045.00
2024-06-07 11:30:10.063254,-7,-4,26,0,0,0,86,89,138,120,84,110.10,91,-95.00,77.00,-1032.00
2024-06-07 11:30:10.154894,-7,-4,26,0,0,0,86,89,139,120,84,110.14,91,-101.00,133.00,-987.00
2024-06-07 11:30:10.206130,-7,-4,26,0,0,0,86,89,138,120,84,110.04,91,-155.00,130.00,-1029.00
2024-06-07 11:30:10.370472,-6,-5,26,0,0,0,86,89,138,120,84,110.04,91,-115.00,135.00,-972.00
2024-06-07 11:30:10.460944,-6,-6,26,0,0,0,86,89,139,120,84,110.09,91,-81.00,112.00,-1030.00
2024-06-07 11:30:10.575275,-5,-6,26,0,0,0,86,89,140,120,84,110.01,92,-114.00,79.00,-973.00
2024-06-07 11:30:10.664756,-6,-6,26,0,0,0,86,89,138,120,84,109.91,92,-119.00,76.00,-975.00
2024-06-07 11:30:10.766692,-6,-6,26,0,0,0,86,89,141,120,84,109.95,92,-137.00,106.00,-929.00
2024-06-07 11:30:10.885472,-6,-6,26,0,0,0,86,89,140,120,84,109.87,92,-143.00,113.00,-1029.00
2024-06-07 11:30:10.970829,-5,-6,26,0,0,0,86,89,139,120,84,110.01,92,-139.00,72.00,-962.00
2024-06-07 11:30:11.072993,-5,-6,26,0,0,0,86,89,138,120,84,109.73,92,-177.00,94.00,-956.00
2024-06-07 11:30:11.123923,-6,-5,26,0,0,0,86,89,140,120,84,109.91,92,-134.00,101.00,-992.00
2024-06-07 11:30:11.292060,-7,-4,26,0,0,0,86,89,140,120,84,109.84,92,-99.00,79.00,-1024.00
2024-06-07 11:30:11.328074,-6,-4,26,0,0,0,87,89,139,120,84,109.57,92,-145.00,84.00,-963.00
2024-06-07 11:30:11.496873,-7,-5,26,0,0,0,87,89,139,120,84,110.16,92,-126.00,75.00,-984.00
2024-06-07 11:30:11.532965,-7,-5,26,0,0,0,87,89,141,120,84,109.86,93,-164.00,63.00,-988.00
2024-06-07 11:30:11.635630,-7,-4,26,0,0,0,87,89,140,120,84,110.05,93,-145.00,64.00,-952.00
2024-06-07 11:30:11.737250,-7,-4,26,-1,0,0,87,89,140,120,84,109.76,93,-191.00,72.00,-970.00
2024-06-07 11:30:11.839569,-8,-4,26,-1,0,0,87,89,140,120,84,109.98,93,-120.00,73.00,-989.00
2024-06-07 11:30:11.939910,-8,-3,26,-1,-1,0,87,89,141,120,84,109.67,93,-138.00,72.00,-969.00
2024-06-07 11:30:12.113073,-8,-3,26,-1,-1,0,87,89,142,120,84,109.69,93,-151.00,61.00,-983.00
2024-06-07 11:30:12.143841,-8,-3,26,-1,0,0,87,89,140,120,84,109.64,93,-117.00,55.00,-958.00
2024-06-07 11:30:12.315992,-8,-3,26,0,0,0,87,89,141,120,84,109.61,93,-117.00,63.00,-1042.00
2024-06-07 11:30:12.347910,-8,-4,26,0,0,0,87,89,141,120,84,109.92,93,-144.00,51.00,-961.00
2024-06-07 11:30:12.520798,-8,-3,26,0,-1,0,87,89,142,120,84,109.62,93,-135.00,35.00,-1000.00
2024-06-07 11:30:12.551884,-8,-3,26,0,-1,0,87,89,140,120,84,109.77,94,-127.00,17.00,-1056.00
2024-06-07 11:30:12.659669,-8,-3,26,0,-1,0,87,89,141,120,84,109.98,94,-136.00,62.00,-961.00
2024-06-07 11:30:12.757409,-8,-1,26,0,-1,0,87,89,142,120,84,109.75,94,-105.00,50.00,-1037.00
2024-06-07 11:30:12.857681,-8,-2,26,0,0,0,87,89,142,120,84,110.02,94,-117.00,65.00,-1012.00
2024-06-07 11:30:12.966952,-9,-2,26,0,0,0,87,89,142,120,84,109.66,94,-110.00,25.00,-974.00
2024-06-07 11:30:13.061728,-9,-3,26,1,0,0,87,89,144,120,84,109.56,94,-112.00,32.00,-984.00
2024-06-07 11:30:13.164330,-9,-2,26,1,0,0,87,89,143,120,84,109.90,94,-139.00,49.00,-968.00
2024-06-07 11:30:13.267763,-7,-1,26,2,0,0,87,89,142,120,84,109.60,94,-164.00,82.00,-1016.00
2024-06-07 11:30:13.367617,-6,-3,26,1,0,0,86,90,142,120,84,109.54,94,-168.00,83.00,-985.00
2024-06-07 11:30:13.546753,-7,-3,26,1,0,0,86,90,144,120,84,109.75,94,-143.00,82.00,-975.00
2024-06-07 11:30:13.571750,-8,-4,26,1,0,0,86,90,145,120,84,109.37,95,-188.00,41.00,-983.00
2024-06-07 11:30:13.673749,-9,-5,26,1,0,0,86,90,146,120,84,109.72,95,-148.00,78.00,-915.00
2024-06-07 11:30:13.775840,-9,-4,26,1,0,0,86,90,146,120,84,109.81,95,-143.00,78.00,-923.00
2024-06-07 11:30:13.916199,-8,-4,26,1,0,0,86,90,145,120,84,109.42,95,-216.00,72.00,-1041.00
2024-06-07 11:30:13.979836,-7,-4,26,1,0,0,86,90,145,120,84,109.72,95,-156.00,114.00,-1015.00
2024-06-07 11:30:14.159421,-8,-3,26,1,0,0,86,90,145,120,84,109.86,95,-144.00,105.00,-963.00
2024-06-07 11:30:14.159678,-7,-4,26,1,0,0,86,90,144,120,84,109.98,95,-134.00,75.00,-986.00
2024-06-07 11:30:14.234772,-7,-4,26,1,0,0,86,90,144,120,83,110.03,95,-149.00,109.00,-1029.00
2024-06-07 11:30:14.387824,-7,-4,26,0,0,0,86,90,143,120,83,109.83,95,-137.00,100.00,-942.00
2024-06-07 11:30:14.568958,-4,-4,26,0,0,0,86,90,140,120,83,109.93,95,-153.00,98.00,-962.00
2024-06-07 11:30:14.569161,-4,-4,26,0,0,0,86,90,141,120,83,110.09,96,-142.00,93.00,-966.00
2024-06-07 11:30:14.645406,-6,-4,26,0,0,0,86,90,141,120,83,110.19,96,-120.00,105.00,-957.00
2024-06-07 11:30:14.745003,-7,-5,26,0,0,0,86,90,142,120,83,109.69,96,-146.00,93.00,-998.00
2024-06-07 11:30:14.876105,-7,-5,26,0,0,0,86,90,141,120,83,109.48,96,-133.00,70.00,-1013.00
2024-06-07 11:30:14.948829,-8,-5,26,0,0,0,86,90,141,120,83,109.45,96,-117.00,63.00,-990.00
2024-06-07 11:30:15.080660,-7,-5,26,0,0,0,86,90,142,120,83,109.18,96,-118.00,48.00,-992.00
2024-06-07 11:30:15.152610,-7,-5,26,0,0,0,86,90,140,120,83,109.74,96,-81.00,34.00,-957.00
2024-06-07 11:30:15.286414,-8,-3,26,0,0,0,86,90,142,120,83,109.94,96,-101.00,75.00,-939.00
2024-06-07 11:30:15.356811,-7,-1,27,0,0,0,87,90,140,120,83,109.87,96,-68.00,91.00,-1004.00
2024-06-07 11:30:15.490487,-6,-3,26,0,0,0,87,90,139,120,83,109.90,96,-112.00,60.00,-1038.00
2024-06-07 11:30:15.560937,-5,-4,26,0,0,0,87,90,139,120,83,109.69,97,-140.00,56.00,-976.00
2024-06-07 11:30:15.695328,-5,-4,26,0,0,0,87,90,137,120,83,109.72,97,-121.00,57.00,-901.00
2024-06-07 11:30:15.764803,-6,-4,26,0,0,0,87,90,136,120,83,109.69,97,-120.00,48.00,-961.00
2024-06-07 11:30:15.869043,-7,-1,26,0,0,0,87,90,135,120,83,110.02,97,-142.00,91.00,-1032.00
2024-06-07 11:30:15.968681,-7,-1,26,0,0,0,87,90,134,120,83,109.62,97,-115.00,70.00,-1034.00
2024-06-07 11:30:16.104759,-5,3,26,0,0,0,87,90,135,110,83,109.57,97,-141.00,54.00,-1050.00
2024-06-07 11:30:16.174523,-6,3,26,-1,1,0,87,90,132,110,83,109.70,97,-102.00,76.00,-996.00
2024-06-07 11:30:16.274635,-7,0,26,-1,2,0,87,90,132,110,83,109.87,97,-107.00,70.00,-1037.00
2024-06-07 11:30:16.411960,-7,-1,26,-1,3,0,86,90,134,110,83,109.67,97,-118.00,63.00,-1009.00
2024-06-07 11:30:16.478500,-7,-3,26,-1,3,0,86,90,135,110,83,109.59,97,-150.00,55.00,-1008.00
2024-06-07 11:30:16.616736,-7,-4,26,-1,2,0,86,90,133,110,83,109.57,98,-105.00,43.00,-1007.00
2024-06-07 11:30:16.689254,-7,-4,26,-1,2,0,86,90,135,110,83,109.59,98,-103.00,7.00,-925.00
2024-06-07 11:30:16.784495,-7,-3,26,0,2,0,86,90,134,110,83,109.80,98,-81.00,20.00,-982.00
2024-06-07 11:30:16.886660,-6,-2,26,0,2,0,86,90,134,110,83,109.44,98,-61.00,12.00,-1040.00
2024-06-07 11:30:16.988686,-5,-3,26,0,2,0,86,90,134,110,83,109.67,98,-74.00,23.00,-1056.00
2024-06-07 11:30:17.128894,-4,-3,26,0,2,0,86,90,135,110,83,109.86,98,-116.00,52.00,-1014.00
2024-06-07 11:30:17.192575,-4,-3,26,0,2,0,86,90,135,120,83,109.86,98,-148.00,69.00,-960.00
2024-06-07 11:30:17.335871,-5,-4,26,0,2,0,86,90,135,120,83,109.90,98,-109.00,70.00,-1029.00
2024-06-07 11:30:17.396468,-6,-5,26,-1,2,0,88,90,136,120,83,109.97,98,-123.00,83.00,-971.00
2024-06-07 11:30:17.538518,-6,-5,26,-1,1,0,88,90,137,120,83,110.03,98,-157.00,70.00,-1063.00
2024-06-07 11:30:17.600546,-6,-8,26,-1,1,0,88,90,137,120,83,109.65,99,-138.00,66.00,-994.00
2024-06-07 11:30:17.743409,-8,-7,26,0,0,0,88,90,137,120,83,109.58,99,-111.00,85.00,-985.00
2024-06-07 11:30:17.804497,-8,-5,26,0,0,0,88,90,138,120,83,110.03,99,-102.00,80.00,-1013.00
2024-06-07 11:30:17.948100,-7,-5,26,0,0,0,88,90,137,120,83,109.84,99,-89.00,66.00,-991.00
2024-06-07 11:30:18.008514,-6,-5,26,0,0,0,88,90,136,120,83,109.61,99,-112.00,86.00,-946.00
2024-06-07 11:30:18.059923,-7,-4,26,0,0,0,88,90,137,120,83,110.00,99,-124.00,49.00,-981.00
2024-06-07 11:30:18.161427,-6,-4,26,0,0,0,88,90,137,120,83,109.71,99,-140.00,68.00,-957.00
2024-06-07 11:30:18.361373,-7,-3,26,0,0,0,88,90,137,120,83,109.75,99,-146.00,88.00,-1002.00
2024-06-07 11:30:18.365474,-8,-3,26,0,0,0,87,90,138,120,83,109.79,99,-141.00,85.00,-996.00
2024-06-07 11:30:18.565541,-8,-2,26,0,0,0,87,90,137,120,83,110.15,99,-100.00,50.00,-1018.00
2024-06-07 11:30:18.571489,-8,-3,26,0,0,0,87,90,137,120,83,109.96,100,-128.00,65.00,-975.00
2024-06-07 11:30:18.671994,-6,-4,26,0,0,0,87,90,137,120,83,109.93,100,-126.00,58.00,-967.00
2024-06-07 11:30:18.839094,-7,-3,26,0,0,0,87,90,139,120,83,109.81,100,-205.00,53.00,-1025.00
2024-06-07 11:30:18.876378,-7,-2,26,0,0,0,87,90,138,120,83,109.57,100,-116.00,68.00,-975.00
2024-06-07 11:30:19.075650,-6,-2,26,0,0,0,87,90,137,120,83,110.01,100,-121.00,68.00,-1050.00
2024-06-07 11:30:19.080365,-5,-2,29,0,0,0,87,90,138,120,83,109.86,100,-128.00,68.00,-994.00
2024-06-07 11:30:19.182713,-6,-4,35,0,0,0,87,90,139,120,83,109.87,100,-112.00,92.00,-995.00
2024-06-07 11:30:19.286621,-6,-5,41,0,0,0,87,90,141,120,82,110.05,100,-118.00,79.00,-1009.00
2024-06-07 11:30:19.386403,-5,-5,47,0,0,0,87,89,139,120,82,110.08,100,-76.00,136.00,-941.00
2024-06-07 11:30:19.491571,-4,-6,53,0,0,0,87,89,140,120,82,110.31,100,-59.00,139.00,-929.00
2024-06-07 11:30:19.590314,-4,-7,59,0,0,0,87,89,139,120,82,110.26,101,-60.00,154.00,-992.00
2024-06-07 11:30:19.692438,-3,-8,65,0,0,0,87,89,137,120,82,110.25,101,-57.00,156.00,-990.00
2024-06-07 11:30:19.795113,-2,-9,71,0,0,0,87,89,139,120,82,110.05,101,-9.00,143.00,-1000.00
2024-06-07 11:30:19.897280,-2,-9,77,0,0,0,87,89,139,120,82,110.20,101,-6.00,164.00,-1013.00
2024-06-07 11:30:19.998476,0,-9,83,0,0,0,87,89,139,120,82,110.00,101,12.00,127.00,-965.00
2024-06-07 11:30:20.100444,0,-9,85,0,0,0,87,89,138,120,82,110.07,101,42.00,133.00,-986.00
2024-06-07 11:30:20.202439,1,-9,86,0,1,0,87,89,138,120,82,110.39,101,3.00,174.00,-969.00
2024-06-07 11:30:20.304424,2,-8,86,0,0,0,87,89,138,120,82,110.05,101,-12.00,167.00,-983.00
2024-06-07 11:30:20.508223,1,-9,86,0,0,0,87,89,139,120,82,110.10,101,-3.00,147.00,-1008.00
2024-06-07 11:30:20.508458,1,-9,86,0,0,0,87,89,139,120,82,110.27,102,17.00,128.00,-1018.00
2024-06-07 11:30:20.611104,2,-9,86,0,0,0,87,89,137,120,82,109.98,102,-9.00,172.00,-969.00
2024-06-07 11:30:20.712403,1,-9,86,0,0,0,87,89,140,120,82,110.08,102,-6.00,133.00,-977.00
2024-06-07 11:30:20.815177,1,-9,86,0,0,0,87,89,140,120,82,110.33,102,-8.00,148.00,-960.00
2024-06-07 11:30:20.917236,1,-9,86,0,0,0,87,89,140,120,82,110.27,102,7.00,129.00,-998.00
2024-06-07 11:30:21.034672,1,-9,86,0,0,0,87,89,141,120,82,110.21,102,20.00,138.00,-1024.00
2024-06-07 11:30:21.120429,1,-9,86,0,0,0,87,89,139,120,82,110.41,102,20.00,146.00,-1008.00
2024-06-07 11:30:21.222552,1,-8,86,0,0,0,87,89,141,120,82,110.47,102,-2.00,156.00,-1000.00
2024-06-07 11:30:21.327205,2,-9,86,0,0,0,87,89,140,120,82,110.28,102,-8.00,192.00,-1004.00
2024-06-07 11:30:21.426440,1,-9,86,0,0,0,87,89,141,120,82,110.37,102,33.00,179.00,-985.00
2024-06-07 11:30:21.528465,1,-10,86,0,0,0,87,89,141,120,82,110.51,103,46.00,157.00,-1006.00
2024-06-07 11:30:21.630287,1,-10,86,0,0,0,87,89,142,120,82,110.45,103,38.00,139.00,-995.00
2024-06-07 11:30:21.736757,1,-9,86,0,0,0,87,89,140,120,82,110.38,103,32.00,149.00,-942.00
2024-06-07 11:30:21.834291,1,-9,86,0,0,0,87,89,140,120,82,110.07,103,28.00,171.00,-999.00
2024-06-07 11:30:21.936782,1,-9,86,0,0,0,87,89,139,120,82,110.46,103,40.00,158.00,-1034.00
2024-06-07 11:30:21.987371,2,-9,85,0,0,0,87,89,140,120,82,110.43,103,-1.00,188.00,-953.00
2024-06-07 11:30:22.089340,1,-9,80,0,0,0,87,89,138,120,82,110.31,103,27.00,170.00,-928.00
2024-06-07 11:30:22.254124,1,-9,74,0,0,0,87,89,138,120,82,110.61,103,15.00,163.00,-1006.00
2024-06-07 11:30:22.293821,0,-10,69,0,0,0,87,89,140,120,82,110.40,103,0.00,164.00,-990.00
2024-06-07 11:30:22.453593,0,-10,63,0,0,0,86,89,139,120,82,110.15,103,-14.00,147.00,-971.00
2024-06-07 11:30:22.498590,-1,-9,57,0,0,0,86,89,138,120,82,110.12,104,-30.00,130.00,-963.00
2024-06-07 11:30:22.658754,-2,-8,52,0,0,0,86,89,138,120,82,110.19,104,-40.00,175.00,-957.00
2024-06-07 11:30:22.701143,-2,-8,46,0,0,0,86,89,137,120,82,109.96,104,-72.00,159.00,-1006.00
2024-06-07 11:30:22.803294,-3,-8,40,0,0,0,86,89,138,120,82,110.12,104,-90.00,128.00,-972.00
2024-06-07 11:30:22.905390,-5,-8,33,0,0,0,86,89,138,120,82,110.04,104,-125.00,119.00,-992.00
2024-06-07 11:30:23.007403,-7,-6,28,0,-1,0,86,89,138,120,82,110.03,104,-87.00,58.00,-944.00
2024-06-07 11:30:23.173411,-7,-5,26,0,-1,0,86,89,138,120,82,109.98,104,-116.00,84.00,-976.00
2024-06-07 11:30:23.211377,-8,-5,26,0,-1,0,86,89,140,120,82,110.05,104,-143.00,114.00,-970.00
2024-06-07 11:30:23.313374,-8,-4,25,0,0,0,86,89,138,120,81,110.13,104,-132.00,102.00,-984.00
2024-06-07 11:30:23.479674,-8,-4,25,0,0,0,86,89,139,120,81,109.99,104,-143.00,100.00,-1014.00
2024-06-07 11:30:23.517376,-8,-4,25,0,0,0,86,89,138,120,81,109.82,105,-122.00,91.00,-983.00
2024-06-07 11:30:23.683140,-8,-4,24,0,0,0,86,89,139,120,81,109.74,105,-149.00,94.00,-963.00
2024-06-07 11:30:23.721503,-8,-4,24,0,0,0,86,89,139,120,81,109.73,105,-122.00,72.00,-939.00
2024-06-07 11:30:23.823367,-8,-4,24,0,0,0,86,89,139,120,81,109.96,105,-146.00,103.00,-957.00
2024-06-07 11:30:23.991239,-8,-4,23,0,0,0,86,89,139,120,81,109.81,105,-128.00,128.00,-1031.00
2024-06-07 11:30:24.027241,-8,-4,23,0,0,0,86,89,139,120,81,110.15,105,-144.00,119.00,-1024.00
2024-06-07 11:30:24.194470,-8,-6,23,0,0,0,86,89,140,120,81,110.27,105,-168.00,76.00,-910.00
2024-06-07 11:30:24.234044,-9,-6,23,0,0,0,86,89,139,120,81,110.00,105,-129.00,72.00,-935.00
2024-06-07 11:30:24.334258,-8,-5,23,0,0,0,86,89,139,120,81,109.82,105,-194.00,49.00,-992.00
2024-06-07 11:30:24.435272,-8,-3,23,0,0,0,86,89,137,120,81,109.45,105,-136.00,28.00,-1017.00
2024-06-07 11:30:24.604067,-8,-1,23,0,0,0,86,89,138,120,81,109.82,106,-117.00,81.00,-994.00
2024-06-07 11:30:24.640584,-7,-1,23,0,0,0,86,89,137,120,81,109.80,106,-135.00,84.00,-1066.00
2024-06-07 11:30:24.809258,-7,-3,23,0,0,0,86,89,139,120,81,109.76,106,-126.00,91.00,-947.00
2024-06-07 11:30:24.844916,-6,-3,23,0,0,0,86,89,138,120,81,109.93,106,-130.00,96.00,-1010.00
2024-06-07 11:30:24.947569,-6,-4,23,0,0,0,86,89,140,120,81,109.76,106,-101.00,79.00,-947.00
2024-06-07 11:30:25.047443,-6,-4,23,0,0,0,86,89,140,120,81,110.14,106,-125.00,85.00,-982.00
2024-06-07 11:30:25.152536,-6,-5,23,0,0,0,86,89,141,120,81,110.04,106,-128.00,62.00,-939.00
2024-06-07 11:30:25.200101,-6,-4,23,0,0,0,86,89,141,120,81,110.00,106,-104.00,86.00,-996.00
2024-06-07 11:30:25.325021,-6,-4,23,0,0,0,86,89,139,120,81,110.17,106,-112.00,97.00,-1007.00
2024-06-07 11:30:25.525749,-5,-4,23,0,0,0,86,89,139,120,81,109.78,106,-116.00,72.00,-956.00
2024-06-07 11:30:25.525927,-5,-4,23,0,0,0,86,89,141,120,81,109.88,107,-119.00,107.00,-1060.00
2024-06-07 11:30:25.608403,-6,-4,23,0,0,0,86,89,139,120,81,109.91,107,-88.00,99.00,-945.00
2024-06-07 11:30:25.730469,-6,-5,23,0,0,0,86,89,140,120,81,109.88,107,-132.00,71.00,-955.00
2024-06-07 11:30:25.814281,-6,-5,23,0,0,0,86,89,140,120,81,109.55,107,-119.00,97.00,-995.00
2024-06-07 11:30:25.914577,-6,-5,23,0,0,0,86,89,140,120,81,109.71,107,-119.00,85.00,-1005.00
2024-06-07 11:30:26.018322,-7,-5,23,0,0,0,86,89,140,120,81,110.05,107,-130.00,91.00,-993.00
2024-06-07 11:30:26.118739,-7,-5,23,0,0,0,86,89,139,120,81,109.87,107,-122.00,113.00,-1033.00
2024-06-07 11:30:26.220247,-7,-5,23,0,0,0,86,89,140,120,81,110.05,107,-122.00,76.00,-995.00
2024-06-07 11:30:26.345230,-6,-5,23,0,0,0,86,89,140,120,81,109.87,107,-148.00,85.00,-1012.00
2024-06-07 11:30:26.424258,-7,-4,23,0,0,0,86,89,139,120,81,109.77,107,-132.00,86.00,-1030.00
2024-06-07 11:30:26.549588,-8,-5,23,0,0,0,86,89,140,120,81,110.05,108,-170.00,111.00,-1003.00
2024-06-07 11:30:26.628111,-8,-5,23,0,0,0,86,89,140,120,81,109.88,108,-113.00,101.00,-1009.00
2024-06-07 11:30:26.754418,-7,-5,23,0,0,0,86,89,141,120,81,109.91,108,-152.00,71.00,-936.00
2024-06-07 11:30:26.832118,-8,-6,23,0,0,0,86,89,142,120,81,110.06,108,-176.00,79.00,-983.00
2024-06-07 11:30:26.959357,-10,-6,23,0,0,0,86,89,143,120,81,110.26,108,-139.00,76.00,-935.00
2024-06-07 11:30:27.036324,-11,-4,23,0,0,0,86,89,142,120,81,110.01,108,-156.00,89.00,-1044.00
2024-06-07 11:30:27.163992,-9,-3,23,0,0,0,86,89,141,120,81,109.91,108,-153.00,82.00,-1005.00
2024-06-07 11:30:27.240073,-7,-3,23,0,0,0,86,89,141,120,81,110.02,108,-118.00,87.00,-974.00
2024-06-07 11:30:27.369170,-7,-4,23,0,0,0,86,89,141,120,81,109.88,108,-127.00,96.00,-1015.00
2024-06-07 11:30:27.444108,-6,-3,23,0,0,0,86,89,142,120,81,110.12,108,-157.00,115.00,-1034.00
2024-06-07 11:30:27.573578,-7,-4,23,0,0,0,86,89,142,120,81,110.00,109,-136.00,129.00,-972.00
2024-06-07 11:30:27.648049,-7,-5,23,0,0,0,86,89,142,120,81,109.86,109,-142.00,105.00,-980.00
2024-06-07 11:30:27.786449,-8,-6,23,0,0,0,86,89,143,120,81,109.92,109,-140.00,100.00,-1025.00
2024-06-07 11:30:27.852237,-8,-5,23,0,0,0,86,89,143,120,81,109.92,109,-143.00,117.00,-1020.00
2024-06-07 11:30:27.984225,-8,-6,23,0,0,0,86,89,145,120,81,109.91,109,-180.00,97.00,-930.00
2024-06-07 11:30:28.055977,-9,-5,23,0,0,0,86,89,147,120,81,110.02,109,-134.00,97.00,-950.00
2024-06-07 11:30:28.188056,-10,-6,23,0,0,0,86,89,145,120,81,109.79,109,-143.00,118.00,-1003.00
2024-06-07 11:30:28.259998,-9,-5,23,0,0,0,86,89,144,120,81,109.69,109,-169.00,101.00,-988.00
2024-06-07 11:30:28.362059,-8,-6,23,0,0,0,86,89,145,120,81,110.07,109,-148.00,116.00,-962.00
2024-06-07 11:30:28.496688,-8,-6,23,0,0,0,86,88,145,120,81,110.29,109,-145.00,106.00,-1006.00
2024-06-07 11:30:28.565989,-8,-6,23,0,0,0,86,88,143,120,81,109.90,110,-166.00,107.00,-975.00
2024-06-07 11:30:28.667876,-8,-6,23,0,0,0,86,88,144,120,81,110.15,110,-159.00,151.00,-973.00
2024-06-07 11:30:28.802464,-8,-6,23,0,0,0,86,88,144,120,81,109.99,110,-155.00,153.00,-1036.00
2024-06-07 11:30:28.875361,-9,-6,23,0,0,0,86,88,145,120,81,109.99,110,-173.00,125.00,-1002.00
2024-06-07 11:30:28.975680,-9,-7,23,0,0,0,86,88,142,120,81,109.91,110,-187.00,118.00,-1005.00
2024-06-07 11:30:29.109565,-9,-7,23,0,0,0,86,88,145,120,81,109.86,110,-214.00,103.00,-1007.00
2024-06-07 11:30:29.179152,-9,-7,23,0,0,0,86,88,144,120,81,109.58,110,-194.00,130.00,-952.00
2024-06-07 11:30:29.229917,-11,-6,23,0,0,0,86,88,145,120,80,109.93,110,-173.00,143.00,-946.00
2024-06-07 11:30:29.416869,-11,-6,23,0,0,0,86,88,147,120,80,110.28,110,-197.00,80.00,-916.00
2024-06-07 11:30:29.433866,-11,-7,23,0,0,0,86,88,146,120,80,110.48,110,-196.00,91.00,-976.00
2024-06-07 11:30:29.621628,-10,-6,23,0,0,0,86,88,142,120,80,109.88,111,-140.00,104.00,-967.00
2024-06-07 11:30:29.638367,-9,-5,23,0,0,0,86,88,143,120,80,109.58,111,-147.00,108.00,-996.00
2024-06-07 11:30:29.739952,-9,-5,23,0,0,0,86,88,141,120,80,110.05,111,-164.00,82.00,-1018.00
2024-06-07 11:30:29.842049,-9,-6,23,0,0,0,86,88,143,120,80,110.12,111,-185.00,124.00,-988.00
2024-06-07 11:30:30.031179,-9,-5,23,0,0,0,86,88,141,120,80,109.82,111,-203.00,121.00,-976.00
2024-06-07 11:30:30.045853,-10,-5,23,0,0,0,86,88,141,120,80,109.90,111,-162.00,106.00,-939.00
2024-06-07 11:30:30.236044,-10,-5,23,0,0,0,86,88,142,120,80,110.03,111,-153.00,107.00,-954.00
2024-06-07 11:30:30.249865,-9,-5,23,0,0,0,86,88,141,120,80,109.95,111,-150.00,117.00,-1046.00
2024-06-07 11:30:30.445052,-9,-5,23,0,0,0,86,88,143,120,80,109.55,111,-172.00,97.00,-941.00
2024-06-07 11:30:30.453873,-9,-5,23,0,0,0,85,89,141,120,80,109.67,111,-170.00,95.00,-975.00
2024-06-07 11:30:30.645574,-10,-5,23,0,0,0,85,89,140,120,80,109.93,112,-170.00,85.00,-959.00
2024-06-07 11:30:30.657838,-10,-5,23,0,0,0,85,89,142,120,80,109.70,112,-155.00,93.00,-1027.00
2024-06-07 11:30:30.759872,-10,-5,23,0,0,0,85,89,140,120,80,109.95,112,-158.00,82.00,-912.00
2024-06-07 11:30:30.861816,-10,-6,23,0,0,0,85,89,141,120,80,109.99,112,-149.00,105.00,-928.00
2024-06-07 11:30:30.963820,-9,-5,23,0,0,0,85,89,137,120,80,109.75,112,-208.00,133.00,-1027.00
2024-06-07 11:30:31.065764,-8,-5,23,0,0,0,85,89,137,120,80,109.69,112,-150.00,111.00,-1028.00
2024-06-07 11:30:31.259998,-9,-6,23,0,0,0,85,89,138,120,80,109.63,112,-156.00,99.00,-916.00
2024-06-07 11:30:31.269877,-10,-6,23,0,0,0,85,89,138,120,80,109.79,112,-173.00,112.00,-942.00
2024-06-07 11:30:31.372351,-10,-6,23,0,0,0,85,89,139,120,80,109.91,112,-143.00,146.00,-1007.00
2024-06-07 11:30:31.573675,-9,-6,23,0,0,0,86,89,138,120,80,110.07,112,-146.00,119.00,-1008.00
2024-06-07 11:30:31.575832,-9,-6,23,0,0,0,86,89,137,120,80,109.64,113,-166.00,108.00,-1031.00
2024-06-07 11:30:31.772044,-9,-6,23,0,0,0,86,89,136,120,80,109.71,113,-175.00,117.00,-963.00
2024-06-07 11:30:31.780340,-9,-6,23,0,0,0,86,89,137,120,80,110.08,113,-154.00,125.00,-971.00
2024-06-07 11:30:31.882255,-9,-6,23,0,0,0,86,89,137,120,80,110.05,113,-176.00,134.00,-971.00
2024-06-07 11:30:31.984216,-9,-6,23,0,0,0,86,89,138,110,80,110.12,113,-191.00,121.00,-958.00
2024-06-07 11:30:32.183664,-9,-6,23,0,0,0,86,89,137,110,80,109.84,113,-186.00,115.00,-1007.00
2024-06-07 11:30:32.191230,-9,-6,23,0,0,0,86,89,136,110,80,109.79,113,-148.00,93.00,-1015.00
2024-06-07 11:30:32.290595,-9,-6,23,0,0,0,86,89,137,110,80,109.99,113,-159.00,125.00,-949.00
2024-06-07 11:30:32.489572,-9,-6,23,0,0,0,86,89,136,110,80,110.06,113,-165.00,131.00,-1017.00
2024-06-07 11:30:32.494038,-8,-6,23,0,0,0,85,89,136,110,80,109.56,113,-201.00,117.00,-984.00
2024-06-07 11:30:32.693499,-8,-6,23,0,0,0,85,89,139,120,80,109.81,114,-134.00,114.00,-990.00
2024-06-07 11:30:32.697738,-9,-6,23,0,0,0,85,89,140,120,80,109.62,114,-153.00,105.00,-952.00
2024-06-07 11:30:32.898401,-9,-6,23,0,0,0,85,89,141,120,80,109.67,114,-111.00,116.00,-992.00
2024-06-07 11:30:32.898597,-9,-7,23,0,0,0,85,89,140,120,80,109.94,114,-122.00,83.00,-943.00
2024-06-07 11:30:32.954377,-8,-6,23,0,0,0,85,89,140,120,80,109.76,114,-118.00,94.00,-943.00
2024-06-07 11:30:33.103047,-8,-5,23,0,0,0,85,89,139,120,80,109.73,114,-152.00,105.00,-923.00
2024-06-07 11:30:33.157182,-7,-6,23,0,0,0,85,89,139,120,80,109.57,114,-135.00,81.00,-957.00
2024-06-07 11:30:33.308053,-7,-6,23,0,0,0,85,89,142,120,80,109.78,114,-149.00,97.00,-966.00
2024-06-07 11:30:33.360863,-8,-5,23,0,0,0,85,89,139,120,80,109.70,114,-115.00,98.00,-974.00
2024-06-07 11:30:33.513585,-7,-5,23,0,0,0,86,89,141,120,80,109.64,114,-136.00,111.00,-987.00
2024-06-07 11:30:33.564639,-7,-5,23,0,0,0,86,89,139,120,80,109.81,115,-111.00,102.00,-998.00
2024-06-07 11:30:33.717394,-7,-5,23,0,0,0,86,89,139,120,80,109.96,115,-147.00,110.00,-1025.00
2024-06-07 11:30:33.768866,-6,-5,23,0,0,0,86,89,137,120,80,110.07,115,-139.00,111.00,-979.00
2024-06-07 11:30:33.870831,-7,-5,23,0,0,0,86,89,139,120,80,109.98,115,-152.00,117.00,-965.00
2024-06-07 11:30:33.972865,-8,-6,23,0,0,0,86,89,138,120,80,109.86,115,-142.00,118.00,-986.00
2024-06-07 11:30:34.074869,-8,-6,23,0,0,0,86,89,139,120,80,109.97,115,-147.00,114.00,-961.00
2024-06-07 11:30:34.229550,-9,-6,23,0,0,0,86,89,139,120,80,110.05,115,-135.00,131.00,-966.00
2024-06-07 11:30:34.278696,-9,-6,23,0,0,0,86,89,140,120,80,109.65,115,-143.00,109.00,-918.00
2024-06-07 11:30:34.381177,-9,-7,23,0,0,0,86,89,141,120,80,109.76,115,-132.00,136.00,-986.00
2024-06-07 11:30:34.536659,-8,-7,23,0,0,0,86,88,140,120,80,110.25,115,-156.00,101.00,-979.00
2024-06-07 11:30:34.584840,-9,-7,23,0,0,0,86,88,142,120,80,109.83,116,-141.00,125.00,-1002.00
2024-06-07 11:30:34.687506,-8,-7,23,0,0,0,86,88,141,120,80,109.79,116,-138.00,131.00,-992.00
2024-06-07 11:30:34.843900,-8,-7,23,0,0,0,86,88,141,120,80,110.04,116,-152.00,111.00,-976.00
2024-06-07 11:30:34.891484,-8,-7,23,0,0,0,86,88,141,120,80,109.87,116,-162.00,112.00,-1013.00
2024-06-07 11:30:34.993594,-8,-7,23,0,0,0,86,88,141,120,80,109.96,116,-142.00,116.00,-958.00
2024-06-07 11:30:35.151098,-8,-7,23,0,0,0,86,88,141,120,80,110.14,116,-132.00,119.00,-947.00
2024-06-07 11:30:35.197628,-7,-7,23,0,0,0,86,88,141,120,80,109.87,116,-145.00,115.00,-943.00
2024-06-07 11:30:35.299556,-8,-7,23,0,0,0,86,88,140,120,80,109.68,116,-172.00,95.00,-948.00
2024-06-07 11:30:35.401757,-8,-6,23,0,0,0,86,88,140,120,80,109.87,116,-146.00,123.00,-957.00
2024-06-07 11:30:35.503495,-8,-7,23,0,0,0,86,89,139,120,80,109.98,116,-159.00,106.00,-1013.00
2024-06-07 11:30:35.605599,-8,-6,23,0,0,0,86,89,139,120,80,109.76,117,-121.00,125.00,-960.00
2024-06-07 11:30:35.709499,-7,-6,23,0,0,0,86,89,138,120,80,109.69,117,-151.00,109.00,-1034.00
2024-06-07 11:30:35.809716,-8,-7,23,0,0,0,86,89,138,120,80,109.92,117,-163.00,134.00,-1011.00
2024-06-07 11:30:35.970417,-8,-6,23,0,0,0,86,89,139,120,80,109.76,117,-170.00,111.00,-951.00
2024-06-07 11:30:36.013686,-7,-6,23,0,0,0,86,89,137,120,80,109.66,117,-149.00,122.00,-997.00
2024-06-07 11:30:36.175157,-7,-5,23,0,0,0,86,89,139,120,80,109.68,117,-142.00,112.00,-1037.00
2024-06-07 11:30:36.175343,-7,-6,23,0,0,0,86,89,139,120,80,109.91,117,-124.00,112.00,-1039.00
2024-06-07 11:30:36.268789,-8,-6,23,0,0,0,86,89,138,120,80,109.92,117,-103.00,100.00,-943.00
2024-06-07 11:30:36.379837,-7,-5,23,0,0,0,86,89,137,120,80,109.99,117,-135.00,100.00,-968.00
2024-06-07 11:30:36.523418,-6,-4,23,0,0,0,85,89,136,120,80,109.78,118,-153.00,66.00,-975.00
2024-06-07 11:30:36.625421,-7,-5,23,0,0,0,85,89,136,120,80,109.75,118,-140.00,92.00,-1001.00
2024-06-07 11:30:36.727526,-8,-4,23,0,0,0,85,89,137,120,80,109.59,118,-153.00,102.00,-964.00
2024-06-07 11:30:36.778605,-8,-4,23,0,0,0,85,89,137,120,80,109.87,118,-145.00,127.00,-989.00
2024-06-07 11:30:36.880721,-8,-4,23,0,0,0,85,89,135,120,80,109.77,118,-146.00,71.00,-899.00
2024-06-07 11:30:36.994471,-7,-5,23,0,0,0,85,89,138,120,80,109.66,118,-128.00,62.00,-959.00
2024-06-07 11:30:37.084634,-7,-4,23,0,0,0,85,89,135,120,80,109.68,118,-146.00,104.00,-1004.00
2024-06-07 11:30:37.199340,-7,-4,23,0,0,0,85,89,137,120,80,109.95,118,-131.00,67.00,-1001.00
2024-06-07 11:30:37.288475,-7,-4,23,0,0,0,85,89,136,120,80,109.72,118,-121.00,80.00,-1000.00
2024-06-07 11:30:37.403795,-7,-4,23,0,0,0,85,89,137,120,80,109.91,118,-116.00,102.00,-1042.00
2024-06-07 11:30:37.492474,-7,-4,23,0,0,0,86,88,136,120,80,110.24,119,-131.00,91.00,-972.00
2024-06-07 11:30:37.594605,-6,-4,23,0,0,0,86,88,134,120,80,109.79,119,-145.00,105.00,-970.00
2024-06-07 11:30:37.711043,-7,-5,23,0,0,0,86,88,135,120,80,109.90,119,-122.00,104.00,-934.00
2024-06-07 11:30:37.798478,-7,-6,23,0,0,1,86,88,134,110,80,109.52,119,-158.00,80.00,-892.00
2024-06-07 11:30:37.900445,-8,-5,23,0,0,2,86,88,133,110,80,109.65,119,-115.00,100.00,-902.00
2024-06-07 11:30:38.002633,-8,-5,23,0,0,3,86,88,129,110,80,109.63,119,-164.00,98.00,-903.00
2024-06-07 11:30:38.104548,-8,-6,23,0,0,4,86,88,127,110,80,109.60,119,-116.00,103.00,-879.00
2024-06-07 11:30:38.228673,-9,-6,23,0,0,5,86,88,121,100,80,109.44,119,-140.00,82.00,-834.00
2024-06-07 11:30:38.308461,-8,-6,23,0,0,6,86,88,116,90,80,109.64,119,-131.00,83.00,-911.00
2024-06-07 11:30:38.427829,-8,-6,23,0,0,6,86,88,110,90,80,109.38,119,-148.00,97.00,-965.00
2024-06-07 11:30:38.512515,-8,-5,23,0,0,7,86,88,101,80,80,109.34,120,-174.00,93.00,-958.00
2024-06-07 11:30:38.633101,-9,-4,23,0,0,7,86,88,93,70,80,109.51,120,-155.00,89.00,-1000.00
2024-06-07 11:30:38.718418,-9,-5,23,0,0,6,86,88,86,70,80,109.38,120,-159.00,107.00,-1014.00
2024-06-07 11:30:38.818933,-9,-6,23,0,0,6,86,88,79,60,80,109.36,120,-175.00,98.00,-1038.00
2024-06-07 11:30:38.920661,-9,-6,23,0,0,6,86,88,72,50,80,109.49,120,-163.00,119.00,-1067.00
2024-06-07 11:30:39.042182,-8,-5,23,0,0,5,86,88,65,50,80,109.18,120,-208.00,87.00,-1031.00
2024-06-07 11:30:39.124380,-9,-5,23,0,0,5,86,88,59,40,80,109.07,120,-170.00,94.00,-1022.00
2024-06-07 11:30:39.247045,-10,-5,23,0,0,5,86,88,54,40,80,109.10,120,-159.00,107.00,-1019.00
2024-06-07 11:30:39.330527,-9,-5,23,0,0,4,86,88,49,30,79,108.81,120,-182.00,97.00,-975.00
2024-06-07 11:30:39.430877,-9,-5,23,0,0,5,86,88,43,20,79,109.37,120,-191.00,106.00,-981.00
2024-06-07 11:30:39.532912,-9,-5,23,0,0,5,86,88,35,20,79,109.04,121,-145.00,88.00,-1009.00
2024-06-07 11:30:39.634663,-9,-5,23,0,0,5,86,88,29,10,79,109.10,121,-130.00,46.00,-973.00
2024-06-07 11:30:39.739104,-8,-5,23,0,0,5,86,88,24,10,79,108.92,121,-123.00,95.00,-971.00
2024-06-07 11:30:39.841395,-7,-4,23,0,0,4,86,88,23,0,79,108.90,121,-95.00,102.00,-1036.00
2024-06-07 11:30:39.941914,-6,-4,23,0,0,4,86,88,17,0,79,108.76,121,-126.00,79.00,-1033.00
2024-06-07 11:30:40.043382,-6,-4,23,0,0,4,86,88,15,0,79,108.46,121,-126.00,80.00,-986.00
2024-06-07 11:30:40.168515,-7,-4,23,0,0,4,86,88,10,0,79,107.85,121,-99.00,83.00,-1022.00
2024-06-07 11:30:40.246314,-7,-5,23,1,0,3,86,88,10,0,79,106.71,121,-54.00,68.00,-1084.00
2024-06-07 11:30:40.373342,1,3,22,0,0,0,86,88,10,-10,79,106.13,121,-53.00,39.00,-1256.00
2024-06-07 11:30:40.399214,-1,0,21,0,0,0,86,88,10,-10,79,106.24,121,-59.00,-33.00,-986.00
2024-06-07 11:30:40.578235,0,0,17,0,0,0,86,90,10,-10,79,106.70,122,-101.00,-62.00,-1259.00
2024-06-07 11:30:40.604192,0,0,16,0,0,0,86,90,10,-10,79,106.98,122,45.00,13.00,-1008.00
2024-06-07 11:30:40.782982,0,0,16,0,0,0,86,90,10,0,79,107.29,122,1.00,13.00,-1013.00
2024-06-07 11:30:40.809101,0,0,16,0,0,0,86,90,10,0,79,107.16,122,-2.00,2.00,-1001.00
2024-06-07 11:30:40.933912,0,0,16,0,0,0,86,90,10,0,79,107.61,122,2.00,2.00,-1012.00
2024-06-07 11:30:41.012410,0,0,16,0,0,0,86,90,10,0,79,107.36,122,-4.00,20.00,-990.00
2024-06-07 11:30:41.192702,0,0,16,0,0,0,86,90,10,0,79,107.67,122,1.00,17.00,-1000.00
2024-06-07 11:30:41.216287,0,0,16,0,0,0,86,90,10,0,79,107.49,122,25.00,-3.00,-1004.00
2024-06-07 11:30:41.397494,0,0,16,0,0,0,86,90,10,0,79,108.51,122,12.00,-12.00,-994.00
2024-06-07 11:30:41.420314,0,0,16,0,0,0,86,90,10,0,79,108.82,122,15.00,3.00,-997.00
2024-06-07 11:30:41.596279,0,0,16,0,0,1,85,89,10,0,79,108.82,122,18.00,0.00,-993.00
2024-06-07 11:30:41.624251,0,0,16,0,0,1,85,89,10,0,79,109.24,122,17.00,2.00,-996.00
2024-06-07 11:30:41.806992,0,0,16,1,0,0,85,89,10,0,79,108.81,122,21.00,1.00,-995.00
2024-06-07 11:30:41.828369,0,0,16,1,0,0,85,89,10,0,79,109.00,122,22.00,-1.00,-1004.00
2024-06-07 11:30:42.011919,0,0,16,1,0,0,85,89,10,0,79,108.98,122,15.00,6.00,-997.00
2024-06-07 11:30:42.032281,0,0,16,1,0,0,85,89,10,0,79,109.24,122,14.00,6.00,-996.00
2024-06-07 11:30:42.216459,0,0,16,0,0,0,85,89,10,0,79,109.10,122,17.00,1.00,-1001.00
2024-06-07 11:30:42.236089,0,0,16,0,0,0,85,89,10,0,79,108.98,122,18.00,2.00,-1002.00
2024-06-07 11:30:42.421285,0,0,16,0,0,0,85,89,10,0,79,109.06,122,17.00,3.00,-1003.00
2024-06-07 11:30:42.440187,0,0,16,0,0,0,85,89,10,0,79,109.29,122,19.00,3.00,-1004.00
2024-06-07 11:30:42.625937,0,0,16,0,0,0,85,88,10,0,79,109.09,122,17.00,2.00,-1001.00
2024-06-07 11:30:42.644340,0,0,16,0,0,0,85,88,10,0,79,109.15,122,17.00,3.00,-1003.00
2024-06-07 11:30:42.831029,0,0,16,0,0,0,85,88,10,0,79,109.09,122,19.00,3.00,-1000.00
2024-06-07 11:30:42.848666,0,0,16,0,0,0,85,88,10,0,79,109.60,122,17.00,2.00,-1001.00
2024-06-07 11:30:42.950304,0,0,16,0,0,0,85,88,10,0,79,109.29,122,17.00,2.00,-1000.00
2024-06-07 11:30:43.138212,0,0,16,0,0,0,85,88,10,0,79,109.46,122,19.00,3.00,-999.00
2024-06-07 11:30:43.154260,0,0,16,0,0,0,85,88,10,0,79,109.14,122,18.00,2.00,-1001.00
2024-06-07 11:30:43.342870,0,0,16,0,0,0,85,88,10,0,79,109.38,122,18.00,1.00,-1001.00
2024-06-07 11:30:43.359248,0,0,16,0,0,0,85,88,10,0,79,109.14,122,18.00,4.00,-999.00
2024-06-07 11:30:43.459948,0,0,16,0,0,0,85,88,10,0,79,108.94,122,18.00,2.00,-1000.00
2024-06-07 11:30:43.650261,0,0,16,0,0,0,85,87,10,0,79,109.16,122,19.00,3.00,-999.00
2024-06-07 11:30:43.664127,0,0,16,0,0,0,85,87,10,0,79,108.84,122,15.00,4.00,-1000.00
2024-06-07 11:30:43.855035,0,0,16,0,0,0,85,87,10,0,79,109.48,122,18.00,1.00,-1000.00
2024-06-07 11:30:43.868064,0,0,16,0,0,0,85,87,10,0,79,108.92,122,17.00,3.00,-1001.00
2024-06-07 11:30:43.970300,0,0,16,0,0,0,85,87,10,0,79,109.09,122,17.00,2.00,-1001.00
