TS,pitch,roll,yaw,vgx,vgy,vgz,templ,temph,tof,h,bat,baro,time,agx,agy,agz
2024-06-07 11:31:04.933787,1,-1,19,0,0,0,88,89,10,0,79,109.21,122,16.00,27.00,-998.00
2024-06-07 11:31:05.052090,1,-1,19,0,0,0,88,89,10,0,79,108.97,122,15.00,27.00,-999.00
2024-06-07 11:31:05.136301,1,-1,19,0,0,0,88,89,10,0,79,109.32,122,15.00,27.00,-999.00
2024-06-07 11:31:05.256669,1,-1,19,0,0,0,88,89,10,0,79,109.15,122,16.00,26.00,-998.00
2024-06-07 11:31:05.339975,1,-1,19,0,0,0,88,89,10,0,79,109.27,122,18.00,29.00,-997.00
2024-06-07 11:31:05.441807,1,-1,19,0,0,0,88,89,10,0,79,109.29,122,16.00,27.00,-996.00
2024-06-07 11:31:05.543875,1,-1,19,0,0,0,88,89,10,0,79,109.40,122,17.00,25.00,-1000.00
2024-06-07 11:31:05.671374,1,-1,19,0,0,0,86,89,10,0,79,109.16,122,17.00,28.00,-1002.00
2024-06-07 11:31:05.748989,1,-1,19,0,0,0,86,89,10,0,79,109.26,122,18.00,26.00,-1000.00
2024-06-07 11:31:05.870835,1,-1,19,0,0,0,86,89,10,0,79,109.00,122,16.00,28.00,-999.00
2024-06-07 11:31:05.954365,1,-1,19,0,0,0,86,89,10,0,79,109.17,122,16.00,26.00,-1000.00
2024-06-07 11:31:06.053790,1,-1,19,0,0,0,86,89,10,0,79,108.87,122,16.00,28.00,-999.00
2024-06-07 11:31:06.177993,1,-1,19,0,0,0,86,89,10,0,79,109.29,122,18.00,28.00,-1001.00
2024-06-07 11:31:06.258976,1,-1,19,0,0,0,86,89,10,0,79,109.22,122,16.00,29.00,-999.00
2024-06-07 11:31:06.382698,1,-1,19,0,0,0,86,89,10,0,79,108.97,122,18.00,29.00,-1002.00
2024-06-07 11:31:06.461689,1,-1,19,0,0,0,86,89,10,0,79,109.42,122,17.00,27.00,-997.00
2024-06-07 11:31:06.587577,1,-1,19,0,0,0,86,89,10,0,79,109.21,122,17.00,28.00,-998.00
2024-06-07 11:31:06.665805,1,-1,19,0,0,0,86,89,10,0,79,109.20,122,17.00,28.00,-998.00
2024-06-07 11:31:06.795288,1,-1,19,0,0,0,86,89,10,0,79,109.29,122,16.00,27.00,-999.00
2024-06-07 11:31:06.869810,1,-1,19,0,0,0,86,89,10,0,79,108.97,122,17.00,29.00,-997.00
2024-06-07 11:31:06.971823,1,-1,19,0,0,0,86,89,10,0,79,109.01,122,17.00,27.00,-999.00
2024-06-07 11:31:07.099649,1,-1,19,0,0,0,86,89,10,0,79,109.06,122,16.00,28.00,-1000.00
2024-06-07 11:31:07.175754,1,-1,19,0,0,0,86,89,10,0,79,109.29,122,18.00,27.00,-999.00
2024-06-07 11:31:07.304444,1,-1,19,0,0,0,86,89,10,0,79,108.80,122,16.00,28.00,-1002.00
2024-06-07 11:31:07.379784,1,-1,19,0,0,0,86,89,10,0,79,109.28,122,18.00,27.00,-999.00
2024-06-07 11:31:07.511556,1,-1,19,0,0,0,86,89,10,0,79,109.42,122,17.00,27.00,-999.00
2024-06-07 11:31:07.532936,1,-1,19,0,0,0,86,89,10,0,79,109.16,122,17.00,28.00,-1000.00
2024-06-07 11:31:07.685616,1,-1,19,0,0,0,87,90,10,0,79,109.15,122,18.00,29.00,-1002.00
2024-06-07 11:31:07.736925,1,-1,19,0,0,0,87,90,10,0,79,109.10,122,16.00,26.00,-1000.00
2024-06-07 11:31:07.918694,1,-1,19,0,0,0,87,90,10,0,79,109.10,122,8.00,47.00,-997.00
2024-06-07 11:31:07.940890,0,-1,19,0,0,0,87,90,10,0,79,109.10,123,16.00,11.00,-983.00
2024-06-07 11:31:08.123544,0,-1,19,0,0,0,87,90,10,0,79,109.10,123,16.00,37.00,-993.00
2024-06-07 11:31:08.144842,0,-1,18,0,0,0,87,90,10,0,79,109.10,123,-20.00,19.00,-1088.00
2024-06-07 11:31:08.328245,1,-1,19,0,0,0,87,90,10,0,79,109.10,123,-4.00,14.00,-1127.00
2024-06-07 11:31:08.348781,1,-1,19,0,0,-1,87,90,10,0,79,109.10,123,-51.00,-31.00,-1409.00
2024-06-07 11:31:08.533034,-2,0,19,-1,-1,-4,87,90,14,0,79,109.10,123,-34.00,-10.00,-1229.00
2024-06-07 11:31:08.552795,-3,1,19,0,-1,-5,87,90,21,0,79,109.50,123,-79.00,-40.00,-1109.00
2024-06-07 11:31:08.654696,-3,1,19,-1,0,-6,87,89,27,0,79,109.87,123,-68.00,-25.00,-1017.00
2024-06-07 11:31:08.840219,-3,1,19,-1,-1,-6,87,89,37,0,79,109.61,123,-68.00,-28.00,-992.00
2024-06-07 11:31:08.858781,-5,2,19,-1,-1,-6,87,89,43,0,79,109.80,123,-73.00,-29.00,-936.00
2024-06-07 11:31:08.960738,-6,3,19,-1,-1,-5,87,89,52,0,79,109.94,124,-61.00,-25.00,-922.00
2024-06-07 11:31:09.147480,-5,2,19,-1,0,-4,87,89,62,10,79,109.92,124,-54.00,-12.00,-922.00
2024-06-07 11:31:09.164694,-5,2,19,-1,0,-3,87,89,69,10,79,109.85,124,-71.00,12.00,-946.00
2024-06-07 11:31:09.352237,-5,1,19,0,0,-2,87,89,76,10,79,109.83,124,-86.00,-11.00,-894.00
2024-06-07 11:31:09.369568,-5,0,19,0,0,-2,87,89,83,20,79,110.19,124,-87.00,11.00,-915.00
2024-06-07 11:31:09.470956,-5,0,19,0,0,-1,87,89,87,20,79,110.22,124,-65.00,-9.00,-893.00
2024-06-07 11:31:09.572820,-5,0,19,0,0,0,87,89,93,20,79,109.94,124,-93.00,-14.00,-925.00
2024-06-07 11:31:09.765248,-4,0,18,0,0,0,88,90,98,20,79,109.87,124,-96.00,-2.00,-926.00
2024-06-07 11:31:09.776705,-4,0,18,0,0,0,88,90,102,30,79,109.97,124,-60.00,-10.00,-953.00
2024-06-07 11:31:09.968417,-4,0,18,0,0,0,88,90,105,30,79,110.34,124,-60.00,-33.00,-922.00
2024-06-07 11:31:09.980753,-3,0,18,0,0,0,88,90,107,30,79,109.90,125,-69.00,0.00,-958.00
2024-06-07 11:31:10.171408,-3,0,19,0,0,1,88,90,108,30,79,110.50,125,-67.00,4.00,-926.00
2024-06-07 11:31:10.184712,-3,0,19,0,0,1,88,90,109,30,79,110.38,125,-70.00,-17.00,-948.00
2024-06-07 11:31:10.376217,-3,0,19,0,0,1,88,90,109,40,79,110.04,125,-66.00,5.00,-974.00
2024-06-07 11:31:10.388593,-3,0,19,0,0,1,88,90,111,40,79,110.19,125,-59.00,-9.00,-948.00
2024-06-07 11:31:10.581084,-3,0,19,0,0,2,88,90,110,40,79,110.23,125,-64.00,-7.00,-1004.00
2024-06-07 11:31:10.592869,-4,0,19,0,0,1,88,90,110,40,79,110.07,125,-66.00,-3.00,-967.00
2024-06-07 11:31:10.785826,-4,0,19,0,0,1,88,90,109,40,79,110.20,125,-65.00,-4.00,-976.00
2024-06-07 11:31:10.797568,-3,0,19,0,0,2,88,90,107,40,79,110.14,125,-77.00,-5.00,-954.00
2024-06-07 11:31:10.990885,-3,0,19,0,0,2,88,90,106,40,79,110.09,125,-105.00,0.00,-995.00
2024-06-07 11:31:11.001416,-4,0,19,0,0,2,88,90,104,40,79,109.91,126,-93.00,-9.00,-959.00
2024-06-07 11:31:11.195397,-4,0,19,0,0,2,88,90,101,40,79,110.02,126,-87.00,-18.00,-969.00
2024-06-07 11:31:11.205434,-4,0,19,0,0,2,88,90,99,40,79,109.81,126,-74.00,-15.00,-984.00
2024-06-07 11:31:11.256611,-4,0,19,0,0,2,88,90,96,30,79,109.93,126,-73.00,-6.00,-1014.00
2024-06-07 11:31:11.400209,-4,0,19,0,0,2,88,90,94,30,79,109.97,126,-80.00,13.00,-997.00
2024-06-07 11:31:11.460605,-4,0,19,0,0,2,88,90,91,30,79,110.03,126,-70.00,-1.00,-1002.00
2024-06-07 11:31:11.606004,-4,0,19,0,0,2,88,90,89,30,79,109.74,126,-107.00,0.00,-1008.00
2024-06-07 11:31:11.668839,-4,0,19,0,0,2,89,90,85,30,79,109.83,126,-95.00,-11.00,-1007.00
2024-06-07 11:31:11.767937,-4,0,19,0,0,1,89,90,84,30,79,109.94,126,-89.00,11.00,-1018.00
2024-06-07 11:31:11.868696,-4,0,19,0,0,1,89,90,82,20,79,110.21,126,-78.00,-5.00,-1031.00
2024-06-07 11:31:11.971829,-4,0,19,0,0,1,89,90,80,20,79,109.84,127,-76.00,-7.00,-1026.00
2024-06-07 11:31:12.117005,-4,0,19,0,0,1,89,90,78,20,79,109.81,127,-78.00,-21.00,-959.00
2024-06-07 11:31:12.174565,-4,0,19,0,0,1,89,90,76,20,79,110.09,127,-109.00,0.00,-987.00
2024-06-07 11:31:12.282745,-4,0,19,0,0,1,89,90,74,20,79,109.70,127,-67.00,-17.00,-1031.00
2024-06-07 11:31:12.378582,-4,0,19,0,0,1,89,90,73,20,79,109.56,127,-79.00,4.00,-1035.00
2024-06-07 11:31:12.481329,-4,0,19,0,0,0,89,90,73,20,79,109.84,127,-71.00,6.00,-1003.00
2024-06-07 11:31:12.582618,-4,0,19,0,0,0,89,90,71,10,79,109.75,127,-65.00,10.00,-1032.00
2024-06-07 11:31:12.684548,-4,0,19,0,0,0,88,90,70,10,79,109.87,127,-74.00,17.00,-981.00
2024-06-07 11:31:12.786488,-4,0,19,0,0,0,88,90,69,10,79,109.38,127,-85.00,9.00,-1011.00
2024-06-07 11:31:12.888495,-3,0,19,0,0,0,88,90,68,10,79,109.94,127,-43.00,-3.00,-1039.00
2024-06-07 11:31:12.990551,-3,0,19,0,0,0,88,90,67,10,79,109.92,128,-59.00,10.00,-1025.00
2024-06-07 11:31:13.141028,-3,0,19,0,0,0,88,90,66,10,79,109.86,128,-59.00,-3.00,-1001.00
2024-06-07 11:31:13.194490,-3,0,19,0,0,0,88,90,65,10,79,109.67,128,-81.00,6.00,-966.00
2024-06-07 11:31:13.346601,-3,0,19,0,0,0,88,90,65,10,79,109.68,128,-82.00,6.00,-990.00
2024-06-07 11:31:13.398520,-3,0,19,0,0,0,88,90,64,10,79,109.61,128,-67.00,-23.00,-1010.00
2024-06-07 11:31:13.550593,-4,0,19,0,0,0,88,90,64,10,79,109.70,128,-75.00,4.00,-1034.00
2024-06-07 11:31:13.602571,-3,0,19,0,0,0,88,90,64,10,79,109.50,128,-86.00,-26.00,-980.00
2024-06-07 11:31:13.755675,-3,0,19,0,0,0,88,90,63,10,79,109.85,128,-39.00,-5.00,-1010.00
2024-06-07 11:31:13.808678,-3,0,18,0,0,0,88,90,63,10,79,109.70,128,-76.00,-17.00,-1000.00
2024-06-07 11:31:13.908652,-2,1,19,0,0,0,88,90,64,10,79,109.91,129,-58.00,0.00,-1010.00
2024-06-07 11:31:14.010656,-3,0,19,0,0,0,88,90,64,10,79,109.87,129,-63.00,8.00,-1022.00
2024-06-07 11:31:14.166114,-3,0,19,0,0,0,88,90,64,10,79,109.86,129,-35.00,0.00,-1054.00
2024-06-07 11:31:14.214798,-2,0,19,0,0,-1,88,90,65,10,79,109.79,129,-80.00,-23.00,-990.00
2024-06-07 11:31:14.369794,-2,0,19,0,0,0,88,90,65,10,79,109.54,129,-100.00,-7.00,-981.00
2024-06-07 11:31:14.418451,-3,0,19,0,0,0,88,90,66,10,79,109.74,129,-51.00,-15.00,-981.00
2024-06-07 11:31:14.520430,-3,1,19,0,0,0,88,90,66,10,79,109.70,129,-76.00,-14.00,-1046.00
2024-06-07 11:31:14.622432,-3,1,19,0,0,0,88,90,66,10,79,109.64,129,-73.00,8.00,-981.00
2024-06-07 11:31:14.779396,-3,0,19,0,0,0,88,90,66,10,79,109.35,129,-92.00,7.00,-1006.00
2024-06-07 11:31:14.826342,-4,0,19,0,0,0,88,90,66,10,79,109.75,129,-41.00,-7.00,-1026.00
2024-06-07 11:31:14.984128,-4,0,19,0,0,0,88,90,65,10,79,109.61,130,-71.00,-40.00,-1012.00
2024-06-07 11:31:14.984937,-4,0,19,0,0,0,88,90,66,10,79,109.55,130,-79.00,-3.00,-1010.00
2024-06-07 11:31:15.082435,-4,1,19,0,0,0,88,90,66,10,79,109.49,130,-82.00,-14.00,-1028.00
2024-06-07 11:31:15.184383,-4,1,19,0,0,0,88,90,65,10,79,109.63,130,-49.00,-22.00,-940.00
2024-06-07 11:31:15.291426,-4,1,18,0,0,0,88,90,66,10,79,109.50,130,-80.00,31.00,-957.00
2024-06-07 11:31:15.388391,-4,0,18,0,0,0,88,90,65,10,79,109.75,130,-63.00,-53.00,-968.00
2024-06-07 11:31:15.490432,-4,0,18,0,0,0,88,90,64,10,79,109.97,130,-54.00,-13.00,-953.00
2024-06-07 11:31:15.598596,-4,0,18,0,0,0,88,90,63,0,79,109.68,130,-45.00,-24.00,-1049.00
2024-06-07 11:31:15.694371,-4,0,19,0,0,0,88,91,63,0,79,109.53,130,-49.00,-10.00,-1060.00
2024-06-07 11:31:15.807221,-3,2,19,0,0,0,88,91,63,0,79,109.78,130,-73.00,-36.00,-1065.00
2024-06-07 11:31:15.900331,-3,2,19,0,0,0,88,91,63,0,79,109.57,131,-68.00,-39.00,-970.00
2024-06-07 11:31:16.000405,-3,2,19,0,0,0,88,91,63,0,79,110.21,131,-59.00,-17.00,-985.00
2024-06-07 11:31:16.110493,-2,2,19,0,0,0,88,91,63,0,79,109.83,131,-60.00,-15.00,-978.00
2024-06-07 11:31:16.204410,-3,0,19,0,0,0,88,91,63,0,79,109.64,131,-73.00,1.00,-1001.00
2024-06-07 11:31:16.315614,-3,0,19,0,0,0,88,91,64,0,79,110.17,131,-63.00,-32.00,-1004.00
2024-06-07 11:31:16.408606,-4,0,19,0,0,0,88,91,65,0,79,109.99,131,-88.00,31.00,-999.00
2024-06-07 11:31:16.520333,-4,0,19,0,0,0,88,91,66,10,79,109.61,131,-88.00,23.00,-1024.00
2024-06-07 11:31:16.613197,-3,0,19,0,0,0,88,91,67,10,79,109.99,131,-53.00,-6.00,-962.00
2024-06-07 11:31:16.715304,-3,0,19,0,0,0,88,90,68,10,79,109.69,131,-88.00,-31.00,-939.00
2024-06-07 11:31:16.827474,-4,0,19,0,0,0,88,90,70,10,79,109.63,131,-77.00,13.00,-975.00
2024-06-07 11:31:16.919460,-4,0,19,0,0,0,88,90,70,10,79,109.88,132,-61.00,1.00,-953.00
2024-06-07 11:31:17.032293,-4,0,19,0,0,0,88,90,71,10,79,109.85,132,-83.00,-23.00,-976.00
2024-06-07 11:31:17.123753,-3,0,19,0,0,0,88,90,71,10,79,110.10,132,-75.00,-20.00,-943.00
2024-06-07 11:31:17.237349,-3,0,19,0,0,0,88,90,72,10,79,109.94,132,-49.00,-18.00,-960.00
2024-06-07 11:31:17.327234,-3,0,18,0,0,0,88,90,72,10,79,109.75,132,-81.00,-6.00,-980.00
2024-06-07 11:31:17.442122,-3,1,19,0,0,0,88,90,73,10,79,109.56,132,-73.00,7.00,-1004.00
2024-06-07 11:31:17.531272,-3,0,19,0,0,0,88,90,73,10,79,109.33,132,-82.00,-8.00,-1027.00
2024-06-07 11:31:17.646655,-3,0,19,0,0,0,88,90,73,10,79,109.71,132,-56.00,-14.00,-988.00
2024-06-07 11:31:17.735256,-4,0,19,0,0,0,88,90,72,10,79,109.95,132,-50.00,-4.00,-961.00
2024-06-07 11:31:17.851499,-3,0,19,0,0,0,88,90,72,10,79,109.72,132,-32.00,0.00,-1030.00
2024-06-07 11:31:17.939219,-3,0,19,0,0,0,88,90,71,10,79,110.10,133,-86.00,0.00,-975.00
2024-06-07 11:31:18.044290,-3,0,19,0,0,0,88,90,70,10,79,109.95,133,-28.00,10.00,-1033.00
2024-06-07 11:31:18.143418,-3,0,18,0,0,0,88,90,70,10,79,109.81,133,-53.00,6.00,-965.00
2024-06-07 11:31:18.261189,-3,0,18,0,0,0,88,90,69,10,79,109.81,133,-32.00,-28.00,-999.00
2024-06-07 11:31:18.347425,-3,0,19,0,0,0,88,90,69,10,79,109.89,133,-45.00,-10.00,-1025.00
2024-06-07 11:31:18.449111,-3,1,19,0,0,0,88,90,69,10,79,109.63,133,-36.00,-31.00,-1055.00
2024-06-07 11:31:18.500320,-2,2,19,0,0,0,88,90,69,10,79,109.89,133,-58.00,-35.00,-1063.00
2024-06-07 11:31:18.670744,-2,1,19,0,0,-1,88,90,69,10,79,109.76,133,-66.00,-24.00,-1107.00
2024-06-07 11:31:18.704224,-2,1,19,0,0,-2,88,90,71,10,79,110.02,133,-45.00,-2.00,-1122.00
2024-06-07 11:31:18.807660,-2,1,19,0,0,-3,88,90,74,10,79,110.04,133,-35.00,-30.00,-1027.00
2024-06-07 11:31:18.908437,-2,1,19,0,0,-3,88,90,79,20,79,109.92,134,-55.00,-7.00,-1095.00
2024-06-07 11:31:19.010994,-2,1,19,0,0,-4,88,90,83,20,79,110.31,134,-41.00,-32.00,-1048.00
2024-06-07 11:31:19.184018,-2,2,19,0,0,-4,88,90,90,30,79,110.13,134,-40.00,-34.00,-1014.00
2024-06-07 11:31:19.214299,-2,2,19,0,0,-5,88,90,94,30,79,110.16,134,-35.00,-12.00,-1012.00
2024-06-07 11:31:19.387430,-2,1,19,0,0,-5,88,90,100,40,79,110.03,134,-67.00,2.00,-1033.00
2024-06-07 11:31:19.420404,-2,0,19,0,0,-5,88,90,106,40,79,110.46,134,-105.00,-5.00,-1007.00
2024-06-07 11:31:19.520269,-2,1,19,0,0,-5,88,90,113,50,79,110.26,134,-21.00,-12.00,-1010.00
2024-06-07 11:31:19.622197,-2,1,19,0,0,-5,88,90,120,50,79,110.34,134,-69.00,-20.00,-954.00
2024-06-07 11:31:19.796936,-2,0,19,0,0,-5,88,90,125,60,79,110.36,134,-54.00,-22.00,-1002.00
2024-06-07 11:31:19.826159,-3,0,18,0,0,-5,88,90,132,70,79,110.42,134,-37.00,-19.00,-968.00
2024-06-07 11:31:20.001976,-3,1,19,0,0,-5,88,90,136,70,79,110.79,135,-57.00,-23.00,-918.00
2024-06-07 11:31:20.030175,-3,0,19,0,0,-4,88,90,143,80,79,110.49,135,-40.00,-27.00,-972.00
2024-06-07 11:31:20.156111,-3,0,19,0,0,-4,88,90,147,80,79,110.42,135,-37.00,-46.00,-974.00
2024-06-07 11:31:20.234175,-3,1,19,0,0,-3,88,90,151,90,79,110.62,135,-81.00,4.00,-954.00
2024-06-07 11:31:20.411287,-4,1,19,0,0,-3,88,90,156,90,79,110.42,135,-54.00,-5.00,-960.00
2024-06-07 11:31:20.438213,-4,0,19,0,0,-3,88,90,162,90,79,110.70,135,-90.00,-2.00,-943.00
2024-06-07 11:31:20.616196,-4,0,19,0,0,-2,88,90,163,100,79,110.96,135,-67.00,-44.00,-926.00
2024-06-07 11:31:20.643792,-4,0,19,0,0,-2,88,90,165,100,79,110.55,135,-44.00,-39.00,-965.00
2024-06-07 11:31:20.744250,-4,0,19,0,0,-2,88,90,166,100,79,110.64,135,-61.00,-15.00,-1015.00
2024-06-07 11:31:20.846366,-4,1,19,0,0,-1,88,90,169,110,79,110.62,135,-39.00,-50.00,-921.00
2024-06-07 11:31:21.023178,-4,1,19,0,0,-1,88,90,172,110,79,110.84,136,-45.00,-39.00,-992.00
2024-06-07 11:31:21.050365,-4,1,18,0,0,0,88,90,169,110,79,110.66,136,-69.00,-28.00,-998.00
2024-06-07 11:31:21.154853,-4,2,18,0,0,0,88,90,172,110,79,110.55,136,-59.00,-54.00,-1003.00
2024-06-07 11:31:21.254223,-3,3,18,0,0,0,88,90,169,110,79,110.65,136,-56.00,-28.00,-992.00
2024-06-07 11:31:21.435519,-3,3,18,0,0,0,88,90,171,110,79,110.72,136,-52.00,-34.00,-983.00
2024-06-07 11:31:21.458818,-3,2,18,0,0,0,88,90,170,110,79,110.95,136,-52.00,-33.00,-998.00
2024-06-07 11:31:21.640851,-3,2,19,0,0,0,88,90,168,110,79,110.98,136,-24.00,-54.00,-1034.00
2024-06-07 11:31:21.662534,-3,3,19,0,0,0,88,90,169,110,79,110.73,136,-52.00,-32.00,-1035.00
2024-06-07 11:31:21.845432,-3,3,19,0,0,0,88,90,167,110,79,110.57,136,-64.00,-17.00,-1020.00
2024-06-07 11:31:21.866081,-3,3,19,0,0,0,88,90,167,110,79,110.84,136,-58.00,-17.00,-1031.00
2024-06-07 11:31:22.049817,-4,2,19,0,0,0,88,90,165,110,79,110.45,137,-66.00,-31.00,-1014.00
2024-06-07 11:31:22.070154,-4,1,18,0,0,0,88,90,166,110,79,110.52,137,-44.00,-28.00,-978.00
2024-06-07 11:31:22.258042,-3,1,18,0,0,0,88,90,163,110,79,110.89,137,-35.00,-40.00,-1042.00
2024-06-07 11:31:22.274147,-3,1,18,0,0,0,88,90,166,110,79,110.74,137,-21.00,-45.00,-1035.00
2024-06-07 11:31:22.324914,-3,2,19,0,0,0,88,90,163,100,79,110.86,137,-55.00,-35.00,-1067.00
2024-06-07 11:31:22.459492,-3,2,19,0,0,0,88,90,165,100,79,110.78,137,-19.00,-19.00,-993.00
2024-06-07 11:31:22.529017,-2,2,19,0,0,0,88,90,164,100,79,110.63,137,-35.00,-46.00,-987.00
2024-06-07 11:31:22.630909,-2,2,19,0,0,0,88,90,165,100,79,110.66,137,-21.00,-32.00,-1013.00
2024-06-07 11:31:22.770121,-1,2,19,0,0,0,87,90,165,100,79,110.56,137,-39.00,-43.00,-990.00
2024-06-07 11:31:22.834767,-1,1,19,0,0,0,87,90,165,110,79,111.00,137,-43.00,-45.00,-1007.00
2024-06-07 11:31:22.972042,-1,1,19,0,0,0,87,90,165,110,79,110.76,138,-59.00,-34.00,-950.00
2024-06-07 11:31:23.039207,-1,2,19,0,0,0,87,90,165,110,79,110.42,138,-48.00,-20.00,-933.00
2024-06-07 11:31:23.181527,-2,2,19,0,0,0,87,90,167,110,79,110.61,138,-61.00,-5.00,-926.00
2024-06-07 11:31:23.242805,-2,1,19,0,0,0,87,90,167,110,79,110.98,138,-44.00,-28.00,-925.00
2024-06-07 11:31:23.380977,-2,1,19,0,0,1,87,90,165,110,79,110.47,138,-30.00,-29.00,-971.00
2024-06-07 11:31:23.446818,-2,1,19,0,0,1,87,90,162,100,79,110.92,138,-39.00,-19.00,-965.00
2024-06-07 11:31:23.585771,-2,1,19,0,0,2,87,90,161,100,79,110.68,138,-32.00,-38.00,-981.00
2024-06-07 11:31:23.650809,-2,0,19,0,0,2,87,90,158,100,79,110.69,138,-80.00,-5.00,-965.00
2024-06-07 11:31:23.790656,-2,0,19,0,0,2,87,90,156,100,79,110.51,138,-58.00,-12.00,-977.00
2024-06-07 11:31:23.854771,-3,0,19,0,0,2,87,90,152,90,79,110.92,138,-50.00,-17.00,-979.00
2024-06-07 11:31:23.995339,-3,0,19,0,0,3,87,90,150,90,79,110.77,139,4.00,-20.00,-1061.00
2024-06-07 11:31:24.058739,-3,0,19,0,0,2,87,90,147,90,79,110.78,139,-25.00,-13.00,-1020.00
2024-06-07 11:31:24.160727,-2,0,19,0,0,2,87,90,144,90,79,110.66,139,-41.00,-3.00,-1010.00
2024-06-07 11:31:24.305749,-1,0,19,0,0,2,87,90,144,80,79,110.66,139,-54.00,8.00,-1026.00
2024-06-07 11:31:24.364743,-2,0,19,0,0,2,87,90,142,80,79,110.61,139,-46.00,-6.00,-1030.00
2024-06-07 11:31:24.507406,-2,0,19,0,0,1,87,90,139,80,79,110.42,139,-34.00,-10.00,-1007.00
2024-06-07 11:31:24.569125,-2,0,19,0,0,1,87,90,135,80,79,110.41,139,-46.00,-16.00,-953.00
2024-06-07 11:31:24.670780,-1,0,19,0,0,1,87,90,133,80,79,110.47,139,-33.00,-42.00,-995.00
2024-06-07 11:31:24.814559,-2,0,19,0,0,1,87,90,130,70,79,110.53,139,-43.00,-37.00,-981.00
2024-06-07 11:31:24.874726,-2,0,19,0,0,1,87,90,129,70,79,110.59,139,-65.00,-22.00,-961.00
2024-06-07 11:31:25.019492,-2,0,19,0,0,1,87,90,126,70,79,110.51,140,-48.00,-9.00,-963.00
2024-06-07 11:31:25.078784,-3,0,19,0,0,1,87,90,125,70,79,110.49,140,-56.00,-20.00,-985.00
2024-06-07 11:31:25.224234,-2,0,19,0,0,1,87,90,122,70,79,110.40,140,-54.00,-26.00,-982.00
2024-06-07 11:31:25.282699,-3,0,19,0,0,1,87,90,123,60,79,110.56,140,-59.00,5.00,-1005.00
2024-06-07 11:31:25.428943,-3,0,19,0,0,1,87,90,121,60,79,110.33,140,-63.00,-1.00,-1008.00
2024-06-07 11:31:25.486689,-3,0,19,0,0,1,87,90,120,60,79,110.46,140,-60.00,6.00,-1088.00
2024-06-07 11:31:25.633703,-3,0,19,0,0,0,87,90,119,60,79,110.21,140,-42.00,-21.00,-1021.00
2024-06-07 11:31:25.690830,-2,0,19,0,0,0,87,90,118,60,79,110.44,140,-48.00,2.00,-1023.00
2024-06-07 11:31:25.838662,-2,1,19,0,0,0,88,90,117,60,79,110.33,140,-29.00,-13.00,-1028.00
2024-06-07 11:31:25.899780,-3,1,19,0,0,0,88,90,116,60,79,110.12,140,-48.00,3.00,-995.00
2024-06-07 11:31:25.997909,-3,1,19,0,0,0,88,90,116,60,79,110.76,141,-34.00,-17.00,-977.00
2024-06-07 11:31:26.101161,-2,0,19,0,0,0,88,90,115,60,79,110.49,141,-51.00,-29.00,-1032.00
2024-06-07 11:31:26.202055,-3,0,19,0,0,0,88,90,116,60,79,110.36,141,-55.00,-8.00,-1004.00
2024-06-07 11:31:26.252650,-3,0,19,0,0,0,88,90,115,60,78,110.46,141,-66.00,-17.00,-1003.00
2024-06-07 11:31:26.354719,-3,0,19,0,0,0,88,90,116,60,78,110.29,141,-77.00,-10.00,-974.00
2024-06-07 11:31:26.555489,-3,0,19,0,0,0,88,90,116,60,78,110.19,141,-56.00,3.00,-991.00
2024-06-07 11:31:26.558683,-3,0,19,0,0,0,88,90,117,60,78,110.15,141,-60.00,-2.00,-985.00
2024-06-07 11:31:26.661684,-3,0,19,0,0,0,88,90,117,60,78,110.19,141,-52.00,-5.00,-1013.00
2024-06-07 11:31:26.762911,-3,0,19,0,0,0,87,90,117,60,78,110.63,141,-33.00,-36.00,-1003.00
2024-06-07 11:31:26.864655,-3,0,19,0,0,0,87,90,117,60,78,110.15,141,-38.00,-32.00,-972.00
2024-06-07 11:31:26.966871,-2,1,19,0,0,0,87,90,116,60,78,110.13,142,-62.00,-35.00,-972.00
2024-06-07 11:31:27.068703,-3,1,19,0,0,0,87,90,117,60,78,110.13,142,-58.00,-45.00,-1003.00
2024-06-07 11:31:27.170628,-3,1,19,0,0,0,87,90,116,60,78,110.29,142,-68.00,4.00,-1027.00
2024-06-07 11:31:27.376069,-3,1,19,0,0,0,87,90,115,60,78,110.24,142,-46.00,-18.00,-1003.00
2024-06-07 11:31:27.376260,-3,1,19,0,0,0,87,90,115,60,78,110.45,142,-71.00,-18.00,-972.00
2024-06-07 11:31:27.476682,-3,1,19,0,0,0,87,90,116,60,78,110.23,142,-52.00,-19.00,-1043.00
2024-06-07 11:31:27.579434,-3,0,19,0,0,0,87,90,116,60,78,109.97,142,-73.00,-35.00,-990.00
2024-06-07 11:31:27.681605,-3,1,19,0,0,0,87,90,114,60,78,110.40,142,-42.00,-61.00,-1025.00
2024-06-07 11:31:27.784062,-3,2,19,0,0,0,87,90,114,60,78,110.31,142,-65.00,-30.00,-1001.00
2024-06-07 11:31:27.884501,-5,2,19,0,0,0,87,90,115,60,78,110.34,142,-50.00,-19.00,-1034.00
2024-06-07 11:31:27.986703,-8,1,19,0,0,0,87,90,116,60,78,110.07,143,-74.00,-44.00,-1007.00
2024-06-07 11:31:28.091242,-8,1,19,1,0,0,87,90,118,60,78,110.22,143,-74.00,-24.00,-960.00
2024-06-07 11:31:28.190453,-8,1,19,2,0,0,87,90,117,60,78,110.20,143,-95.00,-12.00,-962.00
2024-06-07 11:31:28.296038,-8,1,19,3,0,0,87,90,120,60,77,110.28,143,-74.00,3.00,-1109.00
2024-06-07 11:31:28.394463,-8,1,19,3,1,0,87,90,120,60,77,110.10,143,-125.00,0.00,-981.00
2024-06-07 11:31:28.505424,-8,1,19,4,1,0,87,90,121,60,77,109.99,143,-139.00,30.00,-1005.00
2024-06-07 11:31:28.598846,-8,1,19,4,1,0,87,90,122,60,77,109.90,143,-108.00,-9.00,-953.00
2024-06-07 11:31:28.705657,-8,0,19,4,2,0,87,90,123,60,77,110.01,143,-119.00,-7.00,-995.00
2024-06-07 11:31:28.803725,-8,0,19,4,2,0,87,90,124,60,77,110.27,143,-109.00,-8.00,-980.00
2024-06-07 11:31:28.910433,-8,0,19,5,2,0,87,90,125,60,77,110.25,143,-121.00,-7.00,-994.00
2024-06-07 11:31:29.007731,-8,0,19,5,2,0,87,90,126,60,77,110.11,144,-122.00,-23.00,-962.00
2024-06-07 11:31:29.115661,-4,0,19,6,2,0,87,90,125,60,77,110.33,144,-122.00,-19.00,-906.00
2024-06-07 11:31:29.212002,-1,0,19,5,2,0,87,90,126,60,77,110.42,144,-121.00,-17.00,-1017.00
2024-06-07 11:31:29.320027,0,0,19,4,1,0,87,90,125,60,77,110.25,144,-72.00,-29.00,-971.00
2024-06-07 11:31:29.364495,0,1,19,3,1,0,87,90,126,60,77,110.08,144,-93.00,-9.00,-1011.00
2024-06-07 11:31:29.524816,-2,1,19,3,1,0,87,90,127,60,77,110.21,144,-94.00,7.00,-1023.00
2024-06-07 11:31:29.568385,-3,1,19,2,1,0,87,90,126,60,77,110.32,144,-119.00,9.00,-976.00
2024-06-07 11:31:29.731867,-3,0,19,2,1,0,87,90,126,60,77,109.77,144,-106.00,-12.00,-959.00
2024-06-07 11:31:29.824018,-4,0,19,2,1,0,87,90,125,60,77,110.43,144,-98.00,12.00,-1002.00
2024-06-07 11:31:29.934425,-4,0,19,1,1,0,87,90,124,60,77,110.06,145,-83.00,17.00,-989.00
2024-06-07 11:31:29.976551,-4,-2,19,1,1,0,87,90,124,60,77,109.97,145,-101.00,6.00,-1005.00
2024-06-07 11:31:30.078346,-4,-2,19,1,0,0,87,90,123,60,77,110.05,145,-121.00,-7.00,-1005.00
2024-06-07 11:31:30.180372,-5,-1,19,1,0,0,87,90,123,60,77,110.08,145,-93.00,1.00,-960.00
2024-06-07 11:31:30.344019,-6,0,19,1,0,0,87,90,121,60,77,110.08,145,-121.00,20.00,-940.00
2024-06-07 11:31:30.384311,-6,-1,19,1,0,0,87,90,120,60,77,110.01,145,-90.00,4.00,-1000.00
2024-06-07 11:31:30.551417,-6,-1,19,1,0,0,87,90,120,60,77,110.07,145,-75.00,9.00,-1041.00
2024-06-07 11:31:30.588562,-5,-1,19,1,0,0,87,90,119,60,77,110.06,145,-91.00,29.00,-1026.00
2024-06-07 11:31:30.753634,-5,-1,19,1,0,0,87,90,118,60,77,109.85,145,-87.00,-14.00,-994.00
2024-06-07 11:31:30.792301,-5,0,19,1,0,0,87,90,117,60,77,110.10,145,-96.00,22.00,-971.00
2024-06-07 11:31:30.958458,-3,0,19,1,0,0,87,90,117,60,77,109.88,146,-71.00,11.00,-980.00
2024-06-07 11:31:30.996553,0,0,19,0,0,0,87,90,116,60,77,110.01,146,-106.00,3.00,-1054.00
2024-06-07 11:31:31.163402,-3,0,19,0,0,0,87,90,114,60,77,109.77,146,-107.00,40.00,-986.00
2024-06-07 11:31:31.201714,-4,0,19,0,0,0,87,90,114,60,77,110.26,146,-79.00,19.00,-968.00
2024-06-07 11:31:31.370174,-5,0,19,0,0,0,87,90,113,60,77,110.28,146,-103.00,27.00,-1003.00
2024-06-07 11:31:31.405664,-4,0,19,0,0,0,87,90,112,60,77,110.14,146,-69.00,32.00,-1011.00
2024-06-07 11:31:31.573080,-5,0,19,0,0,0,87,90,112,50,77,110.22,146,-100.00,29.00,-1022.00
2024-06-07 11:31:31.610066,-5,0,19,0,0,0,87,90,112,50,77,109.80,146,-82.00,60.00,-1054.00
2024-06-07 11:31:31.777774,-5,-1,19,0,0,0,87,90,112,50,77,110.17,146,-57.00,12.00,-988.00
2024-06-07 11:31:31.813554,-5,-2,19,0,0,0,88,90,113,50,77,110.03,146,-93.00,15.00,-1039.00
2024-06-07 11:31:31.915693,-5,-2,19,0,0,0,88,90,112,50,77,109.86,147,-98.00,45.00,-1017.00
2024-06-07 11:31:32.019329,-5,-2,19,0,0,0,88,90,112,50,77,109.89,147,-82.00,4.00,-961.00
2024-06-07 11:31:32.119582,-5,-1,19,0,0,0,88,90,113,50,77,109.98,147,-75.00,30.00,-949.00
2024-06-07 11:31:32.290263,-5,-1,19,0,0,0,88,90,113,50,77,110.34,147,-60.00,46.00,-1043.00
2024-06-07 11:31:32.323646,-5,-2,19,0,0,0,88,90,114,60,77,110.02,147,-91.00,40.00,-993.00
2024-06-07 11:31:32.494533,-4,-2,19,0,0,0,88,90,114,60,77,110.26,147,-73.00,24.00,-1001.00
2024-06-07 11:31:32.527654,-4,-2,19,0,0,0,88,90,114,60,77,109.92,147,-58.00,53.00,-973.00
2024-06-07 11:31:32.633584,-4,-2,19,0,0,0,88,90,115,60,77,110.11,147,-54.00,46.00,-1012.00
2024-06-07 11:31:32.732629,-3,-2,19,0,0,0,88,90,116,60,77,110.22,147,-32.00,35.00,-986.00
2024-06-07 11:31:32.904114,-3,-2,19,0,0,0,87,90,116,60,77,110.18,147,-61.00,52.00,-1000.00
2024-06-07 11:31:32.937482,-4,-3,19,0,0,0,87,90,117,60,77,109.96,148,-15.00,43.00,-1015.00
2024-06-07 11:31:33.040110,-4,-3,19,0,0,0,87,90,119,60,77,110.29,148,-66.00,32.00,-1012.00
2024-06-07 11:31:33.139515,-4,-3,19,0,0,0,87,90,119,60,77,110.24,148,-52.00,35.00,-1009.00
2024-06-07 11:31:33.241444,-3,-3,19,0,0,0,87,90,119,60,77,109.95,148,-68.00,67.00,-966.00
2024-06-07 11:31:33.416016,-3,-2,19,0,0,0,87,90,118,60,76,110.23,148,-30.00,49.00,-991.00
2024-06-07 11:31:33.445366,3,-1,19,0,0,0,87,90,120,60,76,110.37,148,-53.00,55.00,-1000.00
2024-06-07 11:31:33.496723,4,-1,19,-1,0,0,87,90,120,60,76,110.22,148,-56.00,60.00,-1019.00
2024-06-07 11:31:33.620797,4,-2,19,-3,0,0,87,90,120,60,76,109.90,148,-49.00,36.00,-998.00
2024-06-07 11:31:33.700225,4,-2,19,-4,-1,0,87,90,120,60,76,110.07,148,-48.00,12.00,-984.00
2024-06-07 11:31:33.802185,3,-1,19,-5,-1,0,87,91,120,60,76,110.29,148,-39.00,31.00,-973.00
2024-06-07 11:31:33.927979,2,-1,19,-6,-2,0,87,91,120,60,76,110.56,149,-3.00,25.00,-1038.00
2024-06-07 11:31:34.006406,1,-1,19,-6,-2,0,87,91,121,60,76,110.27,149,-7.00,33.00,-1031.00
2024-06-07 11:31:34.135120,0,-1,19,-7,-2,0,87,91,121,60,76,110.41,149,-17.00,0.00,-998.00
2024-06-07 11:31:34.210148,-1,-1,19,-7,-2,0,87,91,122,60,76,110.14,149,23.00,31.00,-1033.00
2024-06-07 11:31:34.337594,-4,-2,19,-7,-2,0,87,91,122,60,76,110.28,149,13.00,-9.00,-997.00
2024-06-07 11:31:34.414132,-7,-2,19,-7,-2,0,87,91,123,60,76,110.78,149,-34.00,53.00,-976.00
2024-06-07 11:31:34.542385,-7,-1,18,-6,-2,0,87,91,123,60,76,110.82,149,-3.00,2.00,-973.00
2024-06-07 11:31:34.619668,-8,-1,18,-5,-1,0,87,91,123,60,76,110.46,149,0.00,12.00,-990.00
2024-06-07 11:31:34.720151,-8,-2,18,-4,-1,0,87,91,123,60,76,110.79,149,-29.00,25.00,-1021.00
2024-06-07 11:31:34.850239,-7,-2,18,-3,-1,0,86,90,123,60,76,110.55,149,-44.00,43.00,-969.00
2024-06-07 11:31:34.926374,-6,-2,18,-2,-1,0,86,90,121,60,76,110.35,150,-56.00,22.00,-1093.00
2024-06-07 11:31:35.027646,-7,1,18,-2,-1,0,86,90,122,60,76,110.13,150,-57.00,69.00,-975.00
2024-06-07 11:31:35.128062,-8,0,18,-1,0,0,86,90,120,60,76,110.18,150,-39.00,53.00,-1061.00
2024-06-07 11:31:35.230065,-7,-1,18,-1,0,0,86,90,118,60,76,110.18,150,-71.00,46.00,-1032.00
2024-06-07 11:31:35.332455,-5,-1,18,0,0,0,86,90,118,60,76,110.38,150,-53.00,14.00,-984.00
2024-06-07 11:31:35.466791,-4,-1,19,0,0,0,86,90,116,60,76,109.93,150,-67.00,19.00,-1041.00
2024-06-07 11:31:35.536248,-5,-1,19,0,0,0,86,90,117,60,76,110.31,150,-88.00,42.00,-1021.00
2024-06-07 11:31:35.668977,-4,-1,19,0,0,0,86,90,115,60,76,110.24,150,-64.00,52.00,-997.00
2024-06-07 11:31:35.740153,-4,-1,19,0,0,0,86,90,114,60,76,110.19,150,-89.00,32.00,-1018.00
2024-06-07 11:31:35.842195,-4,-1,19,0,0,0,87,90,115,60,76,110.33,150,-71.00,16.00,-1008.00
2024-06-07 11:31:35.976033,-4,-1,19,0,0,0,87,90,116,60,76,110.13,151,-103.00,59.00,-1016.00
2024-06-07 11:31:36.046155,-4,-1,19,0,0,0,87,90,115,60,76,110.20,151,-68.00,33.00,-969.00
2024-06-07 11:31:36.148376,-4,-2,19,0,0,0,87,90,115,60,76,110.11,151,-64.00,49.00,-1003.00
2024-06-07 11:31:36.251233,-3,-2,19,0,0,0,87,90,115,60,76,110.39,151,-49.00,51.00,-1052.00
2024-06-07 11:31:36.352124,-3,-2,19,0,0,0,87,90,115,60,76,110.09,151,-41.00,16.00,-1070.00
2024-06-07 11:31:36.454317,-3,-2,19,0,0,0,87,90,115,60,76,110.21,151,-22.00,53.00,-1045.00
2024-06-07 11:31:36.590365,-2,-1,19,0,0,0,87,90,117,60,76,110.00,151,-59.00,40.00,-979.00
2024-06-07 11:31:36.658066,-3,-1,19,0,0,0,87,90,117,60,76,110.27,151,-55.00,55.00,-990.00
2024-06-07 11:31:36.760149,-3,-1,19,0,0,0,87,90,117,60,76,110.17,151,-115.00,16.00,-987.00
2024-06-07 11:31:36.897754,-3,-1,19,0,0,0,87,90,119,60,76,110.22,151,-33.00,36.00,-1034.00
2024-06-07 11:31:36.965322,-2,-1,19,0,0,0,87,90,118,60,76,110.23,152,-25.00,29.00,-967.00
2024-06-07 11:31:37.066379,-2,-2,19,0,0,0,87,90,118,60,76,110.06,152,-31.00,49.00,-978.00
2024-06-07 11:31:37.206528,-2,-2,19,0,0,0,87,90,120,60,76,110.25,152,-6.00,22.00,-950.00
2024-06-07 11:31:37.270088,-2,-2,19,0,0,0,87,90,119,60,75,110.25,152,-22.00,7.00,-972.00
2024-06-07 11:31:37.324880,-2,-2,19,0,0,0,87,90,121,60,75,110.52,152,-20.00,37.00,-945.00
2024-06-07 11:31:37.425325,-1,-2,19,0,0,0,87,90,120,60,75,110.50,152,-33.00,37.00,-959.00
2024-06-07 11:31:37.525130,-1,-8,19,0,0,0,87,90,120,60,75,110.45,152,-38.00,58.00,-1028.00
2024-06-07 11:31:37.627127,-1,-8,19,0,-1,0,87,90,122,60,75,110.08,152,-43.00,18.00,-1003.00
2024-06-07 11:31:37.820082,-1,-8,19,1,-2,0,87,90,121,60,75,110.00,152,-30.00,47.00,-973.00
2024-06-07 11:31:37.833628,-2,-6,19,1,-3,0,88,89,119,60,75,109.94,152,-44.00,50.00,-989.00
2024-06-07 11:31:37.933114,-2,-2,19,1,-3,0,88,89,120,60,75,110.30,153,-48.00,51.00,-960.00
2024-06-07 11:31:38.126630,-3,-1,19,0,-3,0,88,89,121,60,75,110.22,153,-103.00,53.00,-927.00
2024-06-07 11:31:38.137896,-4,0,19,0,-2,0,88,89,121,60,75,110.25,153,-67.00,57.00,-1015.00
2024-06-07 11:31:38.239877,-4,-1,19,0,-2,0,88,89,122,60,75,110.43,153,-69.00,70.00,-977.00
2024-06-07 11:31:38.435413,-4,-2,19,0,-2,0,88,89,121,60,75,110.25,153,-121.00,64.00,-1008.00
2024-06-07 11:31:38.443902,-5,-2,19,0,-2,0,88,89,121,60,75,110.27,153,-104.00,70.00,-978.00
2024-06-07 11:31:38.638341,-6,-2,19,0,-2,0,88,89,121,60,75,110.13,153,-76.00,54.00,-1018.00
2024-06-07 11:31:38.648218,-6,-2,19,0,-2,0,88,89,122,60,75,110.58,153,-61.00,95.00,-961.00
2024-06-07 11:31:38.843154,-6,-2,19,0,-1,0,88,89,121,60,75,110.44,153,-81.00,90.00,-963.00
2024-06-07 11:31:38.851961,-5,-4,19,0,-1,0,87,90,122,60,75,110.69,153,-67.00,92.00,-959.00
2024-06-07 11:31:39.047944,-4,-4,19,1,-1,0,87,90,120,60,75,110.22,154,-54.00,64.00,-1004.00
2024-06-07 11:31:39.055935,-3,-5,19,1,0,0,87,90,121,60,75,110.40,154,-98.00,112.00,-982.00
2024-06-07 11:31:39.157808,-3,-5,19,0,0,0,87,90,120,60,75,110.25,154,-74.00,60.00,-999.00
2024-06-07 11:31:39.259815,-3,-5,19,0,-1,0,87,90,120,60,75,110.26,154,-63.00,105.00,-992.00
2024-06-07 11:31:39.457540,-4,-5,19,0,-1,0,87,90,120,60,75,110.49,154,-74.00,98.00,-1021.00
2024-06-07 11:31:39.464550,-4,-5,19,0,-1,0,87,90,120,60,75,110.46,154,-70.00,94.00,-981.00
2024-06-07 11:31:39.662333,-3,-5,19,0,-1,0,87,90,119,60,75,110.39,154,-103.00,83.00,-1009.00
2024-06-07 11:31:39.667829,-1,-4,19,0,-1,0,87,90,120,60,75,110.38,154,-67.00,113.00,-989.00
2024-06-07 11:31:39.867047,-2,-4,19,0,-1,0,87,90,119,60,75,110.20,154,-89.00,86.00,-1024.00
2024-06-07 11:31:39.871895,-5,-1,19,0,-1,0,87,89,119,60,75,110.60,154,-42.00,88.00,-931.00
2024-06-07 11:31:40.071950,-6,0,19,0,0,0,87,89,120,60,75,110.47,155,-79.00,84.00,-1046.00
2024-06-07 11:31:40.075788,-8,-3,19,0,0,0,87,89,119,60,75,110.23,155,-48.00,68.00,-1035.00
2024-06-07 11:31:40.276755,-7,-5,19,0,0,0,87,89,119,60,75,110.26,155,-85.00,38.00,-1028.00
2024-06-07 11:31:40.279735,-5,-5,19,1,0,0,87,89,120,60,75,110.26,155,-109.00,52.00,-951.00
2024-06-07 11:31:40.381910,-1,-3,19,0,0,0,87,89,119,60,75,110.07,155,-119.00,84.00,-997.00
2024-06-07 11:31:40.483902,-2,-2,19,0,0,0,87,89,118,60,75,110.23,155,-100.00,29.00,-978.00
2024-06-07 11:31:40.535480,-4,-2,19,0,0,0,87,89,118,60,75,109.98,155,-77.00,102.00,-958.00
2024-06-07 11:31:40.637190,-4,-2,19,0,0,0,87,89,118,60,75,110.19,155,-80.00,85.00,-995.00
2024-06-07 11:31:40.788836,-4,-2,19,0,0,0,87,89,118,60,75,110.25,155,-59.00,57.00,-994.00
2024-06-07 11:31:40.841252,-4,-4,19,0,0,0,86,89,118,60,75,110.43,155,-68.00,51.00,-1019.00
2024-06-07 11:31:40.943392,-4,-4,19,0,0,0,86,89,118,60,75,110.04,156,-80.00,40.00,-975.00
2024-06-07 11:31:41.045012,-4,-4,19,0,0,0,86,89,117,60,75,110.42,156,-89.00,60.00,-1012.00
2024-06-07 11:31:41.200286,-5,-3,19,0,0,0,86,89,118,60,75,110.38,156,-85.00,65.00,-977.00
2024-06-07 11:31:41.249158,-5,-4,19,0,0,0,86,89,118,60,75,110.29,156,-108.00,84.00,-998.00
2024-06-07 11:31:41.404774,-5,-4,19,0,0,0,86,89,119,60,75,110.42,156,-99.00,75.00,-1004.00
2024-06-07 11:31:41.453041,-5,-4,19,0,0,0,86,89,120,60,75,110.54,156,-105.00,97.00,-982.00
2024-06-07 11:31:41.608369,-6,-5,19,0,0,0,86,89,121,60,75,110.10,156,-113.00,70.00,-983.00
2024-06-07 11:31:41.657128,-7,-5,19,0,0,0,86,89,120,60,75,110.30,156,-108.00,84.00,-1022.00
2024-06-07 11:31:41.812866,-7,-4,19,0,0,0,86,89,121,60,75,110.54,156,-96.00,99.00,-992.00
2024-06-07 11:31:41.860959,-7,-4,19,0,0,0,86,89,121,60,75,110.16,156,-117.00,77.00,-1000.00
2024-06-07 11:31:42.017690,-7,-4,19,0,0,0,86,89,122,60,75,110.44,157,-123.00,76.00,-1011.00
2024-06-07 11:31:42.065023,-7,-4,19,0,0,0,86,89,120,60,75,109.97,157,-129.00,98.00,-992.00
2024-06-07 11:31:42.167067,-7,-4,19,0,0,0,86,89,121,60,75,110.30,157,-120.00,80.00,-957.00
2024-06-07 11:31:42.329030,-7,-4,19,-1,0,0,86,89,121,60,74,110.36,157,-115.00,73.00,-968.00
2024-06-07 11:31:42.371054,-7,-4,19,-1,0,0,86,89,121,60,74,110.14,157,-117.00,95.00,-1054.00
2024-06-07 11:31:42.473510,-7,-4,19,-1,0,0,86,89,121,60,74,110.17,157,-125.00,76.00,-1014.00
2024-06-07 11:31:42.574992,-7,-2,19,-1,0,0,86,89,121,60,74,110.38,157,-109.00,89.00,-966.00
2024-06-07 11:31:42.734389,-7,3,18,-1,1,0,86,89,121,60,74,110.32,157,-161.00,89.00,-1046.00
2024-06-07 11:31:42.778963,-8,1,19,-2,2,0,86,89,121,60,74,110.46,157,-133.00,73.00,-956.00
2024-06-07 11:31:42.939195,-9,0,19,-2,3,0,87,90,121,60,74,110.26,157,-140.00,79.00,-957.00
2024-06-07 11:31:42.983473,-8,-2,19,-2,3,0,87,90,121,60,74,110.21,158,-135.00,84.00,-975.00
2024-06-07 11:31:43.086269,-8,-4,19,-2,3,0,87,90,120,60,74,110.06,158,-128.00,65.00,-953.00
2024-06-07 11:31:43.246392,-7,-5,19,-2,3,0,87,90,119,60,74,110.13,158,-124.00,73.00,-982.00
2024-06-07 11:31:43.288893,-7,-5,19,-2,3,0,87,90,120,60,74,110.05,158,-125.00,98.00,-962.00
2024-06-07 11:31:43.451162,-7,-5,19,-2,3,0,87,90,120,60,74,110.20,158,-116.00,68.00,-993.00
2024-06-07 11:31:43.492862,-7,-4,19,-2,3,0,87,90,121,60,74,110.12,158,-155.00,81.00,-941.00
2024-06-07 11:31:43.656303,-7,-4,19,-2,3,0,87,90,119,60,74,109.99,158,-145.00,44.00,-929.00
2024-06-07 11:31:43.696875,-7,-5,19,-2,3,0,87,90,120,60,74,110.20,158,-131.00,66.00,-964.00
2024-06-07 11:31:43.863270,-7,-4,19,-3,3,0,87,90,120,60,74,110.06,158,-98.00,105.00,-999.00
2024-06-07 11:31:43.901136,-7,-5,19,-2,3,0,87,90,121,60,74,110.30,158,-128.00,128.00,-991.00
2024-06-07 11:31:44.068593,-6,-5,19,-3,3,0,87,90,119,60,74,110.22,159,-95.00,85.00,-983.00
2024-06-07 11:31:44.104909,-6,-6,19,-3,3,0,87,90,120,60,74,110.45,159,-127.00,112.00,-973.00
2024-06-07 11:31:44.207035,-6,-5,19,-3,3,0,87,90,118,60,74,110.19,159,-100.00,105.00,-1036.00
2024-06-07 11:31:44.257539,-6,-6,19,-3,3,0,87,90,119,60,74,110.19,159,-107.00,88.00,-989.00
2024-06-07 11:31:44.373442,-6,-6,19,-3,3,0,87,90,119,60,74,109.91,159,-113.00,113.00,-958.00
2024-06-07 11:31:44.461593,-6,-6,19,-3,2,0,87,90,119,60,74,110.18,159,-110.00,72.00,-999.00
2024-06-07 11:31:44.577552,-6,-6,19,-3,2,0,87,90,120,60,74,110.12,159,-108.00,95.00,-1035.00
2024-06-07 11:31:44.665550,-6,-6,19,-3,2,0,87,90,121,60,74,110.45,159,-106.00,59.00,-1006.00
2024-06-07 11:31:44.787188,-6,-6,19,-3,2,0,87,90,121,60,74,110.22,159,-122.00,88.00,-1033.00
2024-06-07 11:31:44.869525,-6,-6,19,-3,1,0,86,90,119,60,74,110.16,159,-125.00,72.00,-967.00
2024-06-07 11:31:44.987185,-6,-5,19,-3,1,0,86,90,120,60,74,109.98,160,-127.00,88.00,-1006.00
2024-06-07 11:31:45.073910,-6,-5,19,-3,1,0,86,90,119,60,74,109.97,160,-110.00,91.00,-1057.00
2024-06-07 11:31:45.175554,-6,-5,19,-3,1,0,86,90,120,60,74,110.23,160,-111.00,92.00,-975.00
2024-06-07 11:31:45.296901,-6,-5,19,-3,1,0,86,90,119,60,74,110.54,160,-118.00,81.00,-913.00
2024-06-07 11:31:45.380252,-6,-5,19,-3,1,0,86,90,120,60,74,110.12,160,-114.00,78.00,-1024.00
2024-06-07 11:31:45.499162,-6,-6,19,-3,1,0,86,90,119,60,74,110.32,160,-102.00,89.00,-984.00
2024-06-07 11:31:45.583410,-6,-5,19,-3,1,0,86,90,119,60,74,110.28,160,-88.00,95.00,-950.00
2024-06-07 11:31:45.704254,-6,-5,19,-3,1,0,86,90,120,60,74,110.08,160,-102.00,61.00,-1007.00
2024-06-07 11:31:45.787530,-7,-5,19,-3,0,0,86,90,117,60,74,110.21,160,-119.00,69.00,-1016.00
2024-06-07 11:31:45.908819,-7,-5,19,-3,1,0,87,90,117,60,74,110.08,161,-118.00,108.00,-951.00
2024-06-07 11:31:45.991618,-7,-5,19,-3,1,0,87,90,118,60,74,110.41,161,-106.00,97.00,-1012.00
2024-06-07 11:31:46.095355,-6,-5,19,-3,1,0,87,90,118,60,74,110.36,161,-151.00,97.00,-1029.00
2024-06-07 11:31:46.196127,-7,-5,19,-3,0,0,87,90,118,60,74,110.37,161,-87.00,112.00,-979.00
2024-06-07 11:31:46.297609,-7,-5,19,-3,0,0,87,90,119,60,74,110.11,161,-102.00,77.00,-1001.00
2024-06-07 11:31:46.425477,-7,-5,19,-2,0,0,87,90,119,60,74,110.12,161,-112.00,99.00,-970.00
2024-06-07 11:31:46.502194,-7,-5,19,-2,0,0,87,90,120,60,74,109.84,161,-104.00,94.00,-993.00
2024-06-07 11:31:46.626556,-7,-5,19,-2,0,0,87,90,120,60,74,110.25,161,-97.00,85.00,-1025.00
2024-06-07 11:31:46.707002,-7,-5,19,-2,0,0,87,90,120,60,74,109.95,161,-118.00,81.00,-976.00
2024-06-07 11:31:46.830328,-7,-5,19,-1,0,0,87,90,120,60,74,110.02,161,-113.00,123.00,-951.00
2024-06-07 11:31:46.911732,-6,-5,19,-1,0,0,87,90,121,60,74,109.97,162,-129.00,107.00,-1047.00
2024-06-07 11:31:47.015246,-6,-5,19,-2,0,0,87,90,122,60,74,110.17,162,-107.00,103.00,-990.00
2024-06-07 11:31:47.114912,-7,-5,19,-2,0,0,87,90,122,60,74,110.44,162,-123.00,120.00,-971.00
2024-06-07 11:31:47.242223,-7,-5,19,-2,0,0,87,90,123,60,74,109.98,162,-110.00,110.00,-928.00
2024-06-07 11:31:47.318711,-7,-5,19,-2,0,0,87,90,121,60,73,110.06,162,-108.00,106.00,-964.00
2024-06-07 11:31:47.444675,-7,-5,19,-1,0,0,87,90,122,60,73,110.25,162,-133.00,103.00,-939.00
2024-06-07 11:31:47.522619,-7,-5,19,-1,0,0,87,90,123,60,73,110.19,162,-98.00,77.00,-911.00
2024-06-07 11:31:47.649551,-7,-6,19,-1,0,0,87,90,122,60,73,109.93,162,-100.00,102.00,-983.00
2024-06-07 11:31:47.726644,-8,-6,19,-1,0,0,87,90,121,60,73,109.96,162,-111.00,101.00,-992.00
2024-06-07 11:31:47.854318,-8,-6,19,0,0,0,87,90,121,60,73,109.92,162,-125.00,63.00,-1010.00
2024-06-07 11:31:47.930768,-9,-7,19,0,0,0,86,90,123,60,73,110.34,163,-130.00,83.00,-960.00
2024-06-07 11:31:48.059131,-9,-7,19,0,0,0,86,90,121,60,73,110.23,163,-131.00,97.00,-995.00
2024-06-07 11:31:48.134724,-10,-7,19,0,0,0,86,90,121,60,73,109.86,163,-125.00,103.00,-989.00
2024-06-07 11:31:48.185392,-9,-7,19,0,0,0,86,90,121,60,73,110.25,163,-141.00,115.00,-1025.00
2024-06-07 11:31:48.287467,-9,-6,19,1,0,0,86,90,121,60,73,110.12,163,-119.00,108.00,-1004.00
2024-06-07 11:31:48.468757,-8,-6,19,1,0,0,86,90,120,60,73,109.97,163,-140.00,94.00,-1023.00
2024-06-07 11:31:48.491274,-7,-5,19,1,0,0,86,90,119,60,73,110.20,163,-130.00,72.00,-1009.00
2024-06-07 11:31:48.668226,-6,-5,19,1,0,0,86,90,119,60,73,110.05,163,-120.00,86.00,-1001.00
2024-06-07 11:31:48.695415,-6,-4,19,1,0,0,86,90,119,60,73,110.02,163,-115.00,95.00,-1006.00
2024-06-07 11:31:48.878414,-6,-4,19,1,0,0,86,90,120,60,73,110.10,163,-115.00,91.00,-1033.00
2024-06-07 11:31:48.899425,-5,-4,19,1,0,0,87,89,120,60,73,109.90,164,-121.00,94.00,-975.00
2024-06-07 11:31:49.083210,-3,-2,19,1,0,0,87,89,119,60,73,109.94,164,-133.00,73.00,-1023.00
2024-06-07 11:31:49.103415,-3,-2,19,0,0,0,87,89,120,60,73,110.15,164,-123.00,95.00,-977.00
2024-06-07 11:31:49.205480,-4,-2,19,0,0,0,87,89,119,60,73,110.09,164,-126.00,59.00,-971.00
2024-06-07 11:31:49.390561,-5,-2,19,0,0,0,87,89,121,60,73,110.12,164,-146.00,102.00,-1005.00
2024-06-07 11:31:49.409425,-6,-3,19,0,0,0,87,89,121,60,73,110.02,164,-113.00,97.00,-988.00
2024-06-07 11:31:49.595399,-7,-3,19,0,0,0,87,89,122,60,73,110.15,164,-122.00,86.00,-978.00
2024-06-07 11:31:49.613366,-7,-4,19,0,0,0,87,89,123,60,73,110.05,164,-116.00,82.00,-960.00
2024-06-07 11:31:49.800071,-7,-4,19,0,0,0,87,89,122,60,73,109.82,164,-108.00,46.00,-1022.00
2024-06-07 11:31:49.817252,-7,-3,19,0,0,0,87,89,122,60,73,109.72,164,-112.00,5.00,-918.00
2024-06-07 11:31:49.919404,-7,-2,19,0,0,0,86,89,121,60,73,109.64,165,-113.00,8.00,-967.00
2024-06-07 11:31:50.107245,-7,-1,19,0,0,0,86,89,121,60,73,109.95,165,-109.00,73.00,-1014.00
2024-06-07 11:31:50.124524,-6,-1,19,0,0,0,86,89,122,60,73,109.93,165,-117.00,32.00,-966.00
2024-06-07 11:31:50.226580,-6,-2,19,0,0,0,86,89,120,60,73,109.76,165,-145.00,48.00,-1040.00
2024-06-07 11:31:50.414392,-6,-1,19,0,0,0,86,89,119,60,73,109.91,165,-90.00,63.00,-1002.00
2024-06-07 11:31:50.430598,-6,0,19,0,0,0,86,89,121,60,73,110.16,165,-91.00,46.00,-1014.00
2024-06-07 11:31:50.532430,-5,-1,19,0,0,0,86,89,122,60,73,109.54,165,-100.00,66.00,-1012.00
2024-06-07 11:31:50.634538,-4,-2,20,0,0,0,86,89,122,60,73,109.79,165,-86.00,-2.00,-978.00
2024-06-07 11:31:50.823892,-4,-3,26,0,0,0,86,89,123,60,73,109.88,165,-89.00,25.00,-976.00
2024-06-07 11:31:50.838789,-5,-2,32,0,0,0,86,89,123,60,73,110.21,165,-113.00,64.00,-988.00
2024-06-07 11:31:51.028687,-6,-2,39,0,0,0,85,90,125,60,73,109.77,166,-107.00,28.00,-929.00
2024-06-07 11:31:51.042500,-5,-2,44,0,0,0,85,90,124,60,73,110.36,166,-76.00,51.00,-990.00
2024-06-07 11:31:51.151117,-5,-3,50,0,0,0,85,90,125,60,73,110.34,166,-78.00,74.00,-912.00
2024-06-07 11:31:51.246485,-4,-4,56,0,0,0,85,90,125,60,73,110.17,166,-124.00,97.00,-983.00
2024-06-07 11:31:51.438261,-5,-5,62,0,0,0,85,90,125,60,73,110.55,166,-56.00,93.00,-964.00
2024-06-07 11:31:51.451969,-5,-6,69,0,0,0,85,90,125,60,73,110.16,166,-19.00,112.00,-960.00
2024-06-07 11:31:51.553159,-4,-7,75,0,0,0,85,90,124,60,73,110.41,166,-61.00,142.00,-978.00
2024-06-07 11:31:51.745539,-3,-7,79,0,0,0,85,90,122,60,73,110.16,166,-26.00,121.00,-989.00
2024-06-07 11:31:51.745662,-2,-7,80,0,0,0,85,90,122,60,73,109.89,166,-12.00,90.00,-966.00
2024-06-07 11:31:51.807272,0,-7,80,0,1,0,85,90,120,60,73,110.18,166,19.00,107.00,-1004.00
2024-06-07 11:31:51.960527,0,-6,81,0,1,0,86,89,120,60,73,110.36,167,40.00,129.00,-1044.00
2024-06-07 11:31:52.160330,1,-6,82,0,1,0,86,89,120,60,73,110.08,167,18.00,91.00,-1016.00
2024-06-07 11:31:52.164512,2,-6,83,0,1,0,86,89,120,60,73,110.40,167,73.00,65.00,-982.00
2024-06-07 11:31:52.359841,3,-6,83,0,2,0,86,89,121,60,72,110.51,167,32.00,95.00,-960.00
2024-06-07 11:31:52.359991,5,-5,83,0,1,0,86,89,121,60,72,110.08,167,-15.00,89.00,-952.00
2024-06-07 11:31:52.419204,4,-5,84,0,1,0,86,89,120,60,72,110.11,167,26.00,83.00,-970.00
2024-06-07 11:31:52.570258,3,-5,84,0,0,0,86,89,119,60,72,110.21,167,-1.00,119.00,-971.00
2024-06-07 11:31:52.623088,2,-5,84,0,0,0,86,89,119,60,72,110.68,167,13.00,118.00,-996.00
2024-06-07 11:31:52.769978,2,-5,84,0,0,0,86,89,119,60,72,110.23,167,41.00,95.00,-947.00
2024-06-07 11:31:52.827227,1,-6,84,0,0,0,86,89,118,60,72,110.75,167,36.00,133.00,-1017.00
2024-06-07 11:31:52.974400,1,-7,84,0,0,0,87,88,119,60,72,110.42,168,20.00,118.00,-1024.00
2024-06-07 11:31:53.031388,2,-6,84,0,0,0,87,88,119,60,72,110.35,168,33.00,92.00,-998.00
2024-06-07 11:31:53.179391,2,-6,84,0,0,0,87,88,118,60,72,110.17,168,-25.00,129.00,-1003.00
2024-06-07 11:31:53.235230,1,-7,84,0,0,0,87,88,118,60,72,110.38,168,-9.00,129.00,-998.00
2024-06-07 11:31:53.385640,0,-8,84,0,0,0,87,88,120,60,72,110.20,168,17.00,97.00,-972.00
2024-06-07 11:31:53.439199,0,-8,84,0,0,0,87,88,118,60,72,110.37,168,15.00,115.00,-970.00
2024-06-07 11:31:53.541032,0,-7,84,0,0,0,87,88,119,60,72,110.37,168,-29.00,113.00,-1017.00
2024-06-07 11:31:53.690976,0,-7,83,0,0,0,87,88,118,60,72,110.09,168,5.00,101.00,-981.00
2024-06-07 11:31:53.745014,-1,-6,78,0,0,0,87,88,118,60,72,110.08,168,-10.00,112.00,-968.00
2024-06-07 11:31:53.903341,-1,-6,72,0,0,0,87,88,117,60,72,110.52,168,-25.00,111.00,-1014.00
2024-06-07 11:31:53.950130,-2,-6,67,0,0,0,86,89,118,60,72,110.48,169,-2.00,71.00,-1028.00
2024-06-07 11:31:54.100575,-2,-6,61,0,0,0,86,89,118,60,72,110.51,169,-30.00,63.00,-961.00
2024-06-07 11:31:54.153402,-2,-5,55,0,0,0,86,89,118,60,72,110.37,169,-28.00,83.00,-1019.00
2024-06-07 11:31:54.307099,-2,-3,49,0,0,0,86,89,118,60,72,109.82,169,-39.00,65.00,-1030.00
2024-06-07 11:31:54.357039,-2,-3,43,1,0,0,86,89,119,60,72,109.92,169,-64.00,80.00,-997.00
2024-06-07 11:31:54.510262,-2,-3,37,0,0,0,86,89,119,60,72,110.05,169,-71.00,50.00,-997.00
2024-06-07 11:31:54.560969,-2,-2,31,0,0,0,86,89,120,60,72,110.01,169,-99.00,95.00,-976.00
2024-06-07 11:31:54.662961,-2,-2,25,0,0,0,86,89,120,60,72,109.69,169,-78.00,68.00,-1012.00
2024-06-07 11:31:54.817371,-3,-2,19,0,0,0,86,89,122,60,72,109.74,169,-55.00,29.00,-974.00
2024-06-07 11:31:54.866923,-3,-2,12,0,0,0,86,89,122,60,72,109.76,169,-79.00,54.00,-985.00
2024-06-07 11:31:54.968987,-3,-1,6,0,0,0,86,89,122,60,72,109.76,170,-57.00,47.00,-956.00
2024-06-07 11:31:55.071091,-4,-1,0,0,0,0,86,89,123,60,72,109.85,170,-65.00,66.00,-980.00
2024-06-07 11:31:55.229922,-4,-1,-5,0,0,0,86,89,122,60,72,109.72,170,-101.00,48.00,-973.00
2024-06-07 11:31:55.274912,-4,-2,-11,0,0,0,86,89,122,60,72,109.79,170,-90.00,4.00,-984.00
2024-06-07 11:31:55.376909,-4,-2,-17,0,0,0,86,89,121,60,72,109.62,170,-97.00,-11.00,-1001.00
2024-06-07 11:31:55.534151,-4,0,-23,0,0,0,86,89,121,60,72,110.18,170,-131.00,13.00,-1006.00
2024-06-07 11:31:55.580916,-4,1,-29,0,0,0,86,89,119,60,72,110.16,170,-88.00,-11.00,-1005.00
2024-06-07 11:31:55.738961,-4,1,-35,0,0,0,86,89,119,60,72,110.07,170,-103.00,-31.00,-1040.00
2024-06-07 11:31:55.739046,-4,3,-41,0,0,0,86,89,119,60,72,110.11,170,-109.00,-49.00,-977.00
2024-06-07 11:31:55.836202,-4,3,-46,0,0,0,86,89,120,60,72,110.22,170,-116.00,-67.00,-949.00
2024-06-07 11:31:55.989162,-5,3,-52,0,0,0,86,89,120,60,72,110.03,171,-109.00,-81.00,-970.00
2024-06-07 11:31:56.040175,-4,4,-58,0,0,0,86,89,120,60,72,110.47,171,-78.00,-61.00,-1011.00
2024-06-07 11:31:56.142245,-4,5,-64,0,0,0,86,89,119,60,72,110.11,171,-94.00,-98.00,-981.00
2024-06-07 11:31:56.251029,-3,5,-70,0,0,0,86,89,119,60,72,110.49,171,-88.00,-79.00,-1035.00
2024-06-07 11:31:56.346236,-3,6,-76,0,0,0,86,89,120,60,72,110.33,171,-44.00,-100.00,-981.00
2024-06-07 11:31:56.455706,-2,6,-82,0,0,0,86,89,120,60,72,110.43,171,-65.00,-94.00,-981.00
2024-06-07 11:31:56.550388,-1,7,-87,0,0,0,86,89,120,60,72,110.57,171,-1.00,-102.00,-983.00
2024-06-07 11:31:56.652167,-1,7,-93,0,0,0,86,89,120,60,72,110.41,171,-62.00,-78.00,-1013.00
2024-06-07 11:31:56.753998,0,7,-99,0,0,0,86,89,120,60,72,110.36,171,-6.00,-118.00,-947.00
2024-06-07 11:31:56.865747,0,7,-105,0,0,0,86,89,120,60,72,110.30,171,19.00,-106.00,-1000.00
2024-06-07 11:31:56.957874,1,7,-111,0,0,0,86,88,121,60,72,110.48,172,44.00,-108.00,-1013.00
2024-06-07 11:31:57.070276,3,6,-117,0,0,0,86,88,122,60,72,110.22,172,39.00,-102.00,-979.00
2024-06-07 11:31:57.162435,4,6,-123,0,0,0,86,88,122,60,72,110.42,172,35.00,-44.00,-1005.00
2024-06-07 11:31:57.275068,4,5,-129,0,0,0,86,88,120,60,72,110.37,172,81.00,-27.00,-1038.00
2024-06-07 11:31:57.366192,5,4,-135,0,0,0,86,88,121,60,72,110.14,172,66.00,-10.00,-986.00
2024-06-07 11:31:57.468854,6,2,-141,0,-1,0,86,88,122,60,72,110.31,172,86.00,-16.00,-1044.00
2024-06-07 11:31:57.582228,6,0,-147,0,-1,0,86,88,122,60,72,110.22,172,76.00,-27.00,-1010.00
2024-06-07 11:31:57.672235,6,-1,-153,0,0,0,86,88,122,60,72,110.08,172,71.00,-8.00,-1013.00
2024-06-07 11:31:57.787041,6,-1,-159,0,0,0,86,88,122,60,72,110.08,172,91.00,-20.00,-998.00
2024-06-07 11:31:57.876087,6,-2,-165,0,0,0,86,88,122,60,72,110.21,172,65.00,11.00,-1045.00
2024-06-07 11:31:57.991811,5,-3,-171,0,0,0,86,89,122,60,72,110.31,173,72.00,-42.00,-1035.00
2024-06-07 11:31:58.080250,4,-2,-177,0,0,0,86,89,124,60,72,110.26,173,69.00,-7.00,-1014.00
2024-06-07 11:31:58.196545,4,0,176,0,1,0,86,89,124,60,72,110.16,173,108.00,-17.00,-1007.00
2024-06-07 11:31:58.283924,4,0,169,0,1,0,86,89,124,60,72,110.29,173,111.00,-7.00,-952.00
2024-06-07 11:31:58.401348,4,0,163,0,1,0,86,89,125,60,72,110.29,173,94.00,37.00,-956.00
2024-06-07 11:31:58.487658,5,-1,156,0,1,0,86,89,126,60,72,110.13,173,105.00,56.00,-1012.00
2024-06-07 11:31:58.608552,5,-2,150,0,1,0,86,89,125,60,72,110.19,173,108.00,32.00,-980.00
2024-06-07 11:31:58.692699,5,-3,144,0,1,0,86,89,126,60,72,110.26,173,95.00,50.00,-952.00
2024-06-07 11:31:58.810958,6,-3,138,0,1,0,86,89,125,60,72,110.47,173,78.00,80.00,-946.00
2024-06-07 11:31:58.896655,6,-3,133,0,1,0,86,89,126,60,72,110.36,173,102.00,78.00,-979.00
2024-06-07 11:31:59.018729,6,-4,127,0,1,0,86,89,126,60,72,110.66,174,85.00,78.00,-956.00
2024-06-07 11:31:59.102243,6,-5,121,0,1,0,86,89,124,60,72,110.43,174,66.00,87.00,-985.00
2024-06-07 11:31:59.202729,6,-5,116,0,1,0,86,89,123,60,72,110.61,174,43.00,76.00,-1001.00
2024-06-07 11:31:59.322931,5,-5,110,0,0,0,86,89,122,60,71,110.27,174,63.00,101.00,-997.00
2024-06-07 11:31:59.406698,4,-6,105,0,0,0,86,89,120,60,71,110.52,174,43.00,91.00,-959.00
2024-06-07 11:31:59.458437,3,-6,100,0,0,0,86,89,120,60,71,110.21,174,19.00,108.00,-1009.00
2024-06-07 11:31:59.630126,2,-6,96,0,0,0,86,89,119,60,71,110.53,174,42.00,98.00,-924.00
2024-06-07 11:31:59.667381,2,-6,93,0,0,0,86,89,119,60,71,110.42,174,40.00,94.00,-989.00
2024-06-07 11:31:59.763672,1,-6,91,0,0,0,86,89,119,60,71,110.56,174,11.00,112.00,-987.00
2024-06-07 11:31:59.937332,1,-6,89,0,0,0,86,89,117,60,71,110.14,174,-24.00,79.00,-1002.00
2024-06-07 11:31:59.967962,0,-5,88,0,0,0,87,89,116,60,71,110.13,175,-1.00,75.00,-964.00
2024-06-07 11:32:00.146655,0,-5,87,0,0,0,87,89,116,60,71,110.24,175,-33.00,92.00,-1023.00
2024-06-07 11:32:00.171978,-1,-5,86,1,0,0,87,89,115,60,71,110.15,175,2.00,81.00,-969.00
2024-06-07 11:32:00.274313,-1,-4,86,1,0,0,87,89,115,60,71,110.03,175,-6.00,77.00,-1015.00
2024-06-07 11:32:00.449476,-1,-4,86,0,0,0,87,89,116,60,71,110.39,175,-48.00,94.00,-994.00
2024-06-07 11:32:00.478120,0,-4,86,0,0,0,87,89,116,60,71,110.59,175,5.00,87.00,-1004.00
2024-06-07 11:32:00.654357,0,-5,86,0,0,0,87,89,116,60,71,110.38,175,-6.00,96.00,-962.00
2024-06-07 11:32:00.682374,0,-4,86,0,0,0,87,89,115,60,71,110.30,175,-2.00,65.00,-963.00
2024-06-07 11:32:00.858986,0,-4,86,0,0,0,87,89,116,60,71,110.50,175,1.00,64.00,-976.00
2024-06-07 11:32:00.887053,1,-4,86,0,0,0,87,89,115,60,71,110.53,175,21.00,96.00,-981.00
2024-06-07 11:32:01.068925,2,-4,85,0,0,0,86,89,116,60,71,110.64,176,19.00,65.00,-972.00
2024-06-07 11:32:01.090198,2,-4,85,0,0,0,86,89,117,60,71,110.81,176,-12.00,108.00,-984.00
2024-06-07 11:32:01.273320,1,-4,86,0,0,0,86,89,117,60,71,110.20,176,16.00,90.00,-1027.00
2024-06-07 11:32:01.293725,1,-4,86,0,0,0,86,89,117,60,71,110.33,176,36.00,87.00,-1012.00
2024-06-07 11:32:01.476852,2,-4,86,0,0,0,86,89,118,60,71,110.44,176,16.00,75.00,-980.00
2024-06-07 11:32:01.497691,2,-3,85,0,0,0,86,89,117,60,71,110.37,176,41.00,85.00,-990.00
2024-06-07 11:32:01.681171,2,-4,85,0,0,0,86,89,118,60,71,110.34,176,9.00,127.00,-966.00
2024-06-07 11:32:01.701969,2,-4,85,0,0,0,86,89,118,60,71,110.60,176,27.00,112.00,-1006.00
2024-06-07 11:32:01.888206,2,-5,86,0,0,0,86,89,118,60,71,110.65,176,43.00,92.00,-965.00
2024-06-07 11:32:01.906036,2,-6,85,0,0,0,86,89,118,60,71,110.56,177,78.00,102.00,-1013.00
2024-06-07 11:32:02.093003,2,-6,85,0,0,0,86,88,118,60,71,110.42,177,36.00,66.00,-949.00
2024-06-07 11:32:02.110164,2,-6,85,0,0,0,86,88,119,60,71,110.38,177,8.00,93.00,-979.00
2024-06-07 11:32:02.229705,2,-5,85,0,0,0,86,88,118,60,71,110.27,177,30.00,83.00,-1011.00
2024-06-07 11:32:02.313893,2,-5,85,0,0,0,86,88,118,60,71,110.31,177,-25.00,78.00,-1036.00
2024-06-07 11:32:02.497386,1,-5,85,0,0,-2,86,88,119,60,71,110.40,177,-18.00,113.00,-1735.00
2024-06-07 11:32:02.517565,0,-10,85,0,-1,-10,86,88,125,70,71,110.40,177,-37.00,173.00,-1339.00
2024-06-07 11:32:02.619570,0,-84,85,4,-1,-12,86,88,185,80,71,110.51,177,15.00,505.00,-973.00
2024-06-07 11:32:02.804579,1,148,86,11,-2,1,86,88,6553,80,71,110.44,177,-62.00,583.00,-1079.00
2024-06-07 11:32:02.823438,1,31,84,3,-1,13,86,88,373,80,71,110.16,177,-46.00,405.00,-1633.00
2024-06-07 11:32:03.012017,1,-12,84,2,-2,10,86,88,129,60,71,110.90,178,-17.00,-58.00,-1441.00
2024-06-07 11:32:03.028453,-1,1,87,3,-2,7,86,89,118,60,71,110.68,178,46.00,125.00,-1455.00
2024-06-07 11:32:03.129889,-1,4,90,1,-1,2,86,89,112,50,71,110.62,178,71.00,122.00,-1323.00
2024-06-07 11:32:03.316586,0,0,88,0,0,0,86,89,111,50,71,110.07,178,61.00,96.00,-1201.00
2024-06-07 11:32:03.333872,2,-3,85,0,0,-1,86,89,110,50,71,110.44,178,63.00,67.00,-1092.00
2024-06-07 11:32:03.384708,2,-4,85,-1,0,-1,86,89,112,50,71,110.44,178,46.00,115.00,-1049.00
2024-06-07 11:32:03.521465,2,-4,85,-1,0,-1,86,89,113,50,71,110.63,178,33.00,95.00,-952.00
2024-06-07 11:32:03.588712,1,-4,85,-1,0,-1,86,89,115,60,71,110.46,178,33.00,118.00,-966.00
2024-06-07 11:32:03.726172,0,-4,85,-1,0,-1,86,89,116,60,71,110.53,178,24.00,81.00,-906.00
2024-06-07 11:32:03.792625,0,-5,85,-1,0,0,86,89,116,60,71,110.39,178,4.00,118.00,-952.00
2024-06-07 11:32:03.931076,0,-6,85,-1,0,0,86,89,117,60,71,110.58,179,-8.00,112.00,-967.00
2024-06-07 11:32:03.996526,0,-6,85,-1,0,0,85,88,118,60,71,110.47,179,-15.00,86.00,-981.00
2024-06-07 11:32:04.136158,0,-6,85,-1,0,0,85,88,117,60,71,110.42,179,1.00,98.00,-912.00
2024-06-07 11:32:04.200562,0,-5,85,-1,0,0,85,88,116,60,71,110.78,179,-1.00,85.00,-941.00
2024-06-07 11:32:04.303204,0,-5,85,0,0,0,85,88,116,60,71,110.33,179,-20.00,115.00,-1013.00
2024-06-07 11:32:04.404655,0,-4,85,0,0,0,85,88,115,60,71,110.56,179,-37.00,116.00,-1023.00
2024-06-07 11:32:04.647913,0,-4,85,0,0,0,85,88,113,60,71,110.50,179,8.00,106.00,-972.00
2024-06-07 11:32:04.648087,0,-4,85,0,0,0,85,88,113,60,71,110.41,179,-4.00,113.00,-1047.00
2024-06-07 11:32:04.710508,0,-5,85,0,0,0,85,88,111,60,71,110.61,179,4.00,115.00,-996.00
2024-06-07 11:32:04.852750,0,-5,86,0,0,0,85,88,111,60,71,110.20,179,-22.00,88.00,-941.00
2024-06-07 11:32:04.914466,0,-4,86,0,0,0,85,88,110,60,71,110.49,180,-3.00,123.00,-1028.00
2024-06-07 11:32:05.057409,0,-4,86,0,0,0,86,89,108,50,71,110.34,180,14.00,98.00,-967.00
2024-06-07 11:32:05.118472,0,-4,85,0,0,0,86,89,108,50,71,110.09,180,-5.00,133.00,-1014.00
2024-06-07 11:32:05.262388,0,-4,85,0,0,0,86,89,108,50,71,110.50,180,9.00,109.00,-964.00
2024-06-07 11:32:05.322440,0,-5,85,-1,0,0,86,89,108,50,70,110.51,180,-15.00,113.00,-984.00
2024-06-07 11:32:05.474465,0,-6,85,0,0,0,86,89,108,50,70,110.43,180,-32.00,117.00,-1068.00
2024-06-07 11:32:05.526473,0,-6,85,0,0,0,86,89,107,50,70,110.28,180,-31.00,91.00,-1025.00
2024-06-07 11:32:05.671850,0,-4,85,0,0,0,86,89,106,50,70,110.11,180,-21.00,130.00,-1018.00
2024-06-07 11:32:05.730955,-1,-5,86,0,0,0,86,89,107,50,70,110.36,180,19.00,118.00,-1019.00
2024-06-07 11:32:05.832539,0,-5,86,0,0,0,86,89,108,50,70,110.67,180,-12.00,124.00,-977.00
2024-06-07 11:32:05.980226,0,-4,85,0,0,0,86,89,109,50,70,110.64,181,-1.00,94.00,-1114.00
2024-06-07 11:32:06.038516,0,2,85,0,0,-4,86,89,111,50,70,110.12,181,-37.00,147.00,-1664.00
2024-06-07 11:32:06.138425,0,12,85,-2,0,-10,86,89,125,60,70,110.41,181,-4.00,92.00,-1795.00
2024-06-07 11:32:06.286080,1,100,86,-11,0,-11,86,89,6553,70,70,110.75,181,-31.00,678.00,-1398.00
2024-06-07 11:32:06.342277,-2,-138,88,-15,0,4,86,89,6553,80,70,110.38,181,-95.00,637.00,-935.00
2024-06-07 11:32:06.490868,-2,-25,80,-8,-1,13,86,89,129,70,70,110.62,181,-123.00,577.00,-1201.00
2024-06-07 11:32:06.546280,4,9,77,-8,-2,11,86,89,113,50,70,110.70,181,-87.00,157.00,-1155.00
2024-06-07 11:32:06.648268,-1,-3,76,-10,-2,7,86,89,102,50,70,110.47,181,-17.00,8.00,-1513.00
2024-06-07 11:32:06.704022,-3,-8,82,-9,-2,3,86,89,99,40,70,110.47,181,26.00,49.00,-1292.00
2024-06-07 11:32:06.802787,-3,-8,87,-8,-2,0,86,89,97,40,70,110.06,181,-59.00,92.00,-1213.00
2024-06-07 11:32:06.903604,-2,-7,86,-7,-1,0,86,89,97,40,70,110.27,182,-30.00,63.00,-1097.00
2024-06-07 11:32:07.005676,-1,-6,86,-6,-1,-1,85,88,99,40,70,110.79,182,-5.00,81.00,-1010.00
2024-06-07 11:32:07.110216,-1,-6,86,-4,-1,-1,85,88,101,40,70,110.33,182,-22.00,71.00,-1033.00
2024-06-07 11:32:07.209594,-1,-5,86,-4,0,-1,85,88,103,40,70,110.60,182,0.00,98.00,-970.00
2024-06-07 11:32:07.412475,-1,-5,86,-4,0,-1,85,88,104,50,70,110.46,182,-8.00,76.00,-946.00
2024-06-07 11:32:07.413545,0,-5,86,-4,0,-1,85,88,106,50,70,110.69,182,6.00,96.00,-931.00
2024-06-07 11:32:07.617384,0,-6,86,-3,0,0,85,88,107,50,70,110.35,182,3.00,80.00,-988.00
2024-06-07 11:32:07.617806,0,-6,86,-3,0,0,85,88,109,50,70,110.33,182,-5.00,74.00,-936.00
2024-06-07 11:32:07.719495,0,-5,86,-3,0,0,85,88,109,50,70,110.68,182,-36.00,65.00,-968.00
2024-06-07 11:32:07.822426,0,-5,86,-2,0,0,85,88,110,50,70,110.51,182,-15.00,71.00,-994.00
2024-06-07 11:32:07.924688,0,-5,86,-2,0,0,85,88,110,50,70,110.33,183,-37.00,97.00,-1011.00
2024-06-07 11:32:08.026601,0,-5,86,-2,0,0,85,89,112,50,70,110.33,183,15.00,73.00,-969.00
2024-06-07 11:32:08.129766,0,-5,86,-2,0,0,85,89,112,50,70,110.57,183,13.00,73.00,-999.00
2024-06-07 11:32:08.229495,0,-5,86,-2,0,0,85,89,112,50,69,110.39,183,11.00,75.00,-991.00
2024-06-07 11:32:08.331179,0,-5,86,-2,0,0,85,89,114,50,69,110.57,183,-5.00,97.00,-970.00
2024-06-07 11:32:08.436553,0,-7,86,-2,0,0,85,89,115,50,69,110.42,183,-19.00,91.00,-979.00
2024-06-07 11:32:08.535578,0,-8,86,-1,0,0,85,89,116,50,69,110.32,183,-20.00,87.00,-1016.00
2024-06-07 11:32:08.637632,0,-8,86,-1,0,0,85,89,117,60,69,110.45,183,5.00,95.00,-966.00
2024-06-07 11:32:08.743691,0,-7,86,-1,0,0,85,89,115,60,69,110.49,183,-36.00,106.00,-963.00
2024-06-07 11:32:08.842490,0,-7,86,-1,0,0,85,89,117,60,69,110.50,183,-20.00,114.00,-956.00
2024-06-07 11:32:08.948530,-1,-7,86,0,0,0,85,89,117,60,69,110.68,184,-24.00,127.00,-968.00
2024-06-07 11:32:09.045552,-1,-7,86,0,0,0,86,89,117,60,69,110.52,184,-16.00,127.00,-1011.00
2024-06-07 11:32:09.147156,-1,-7,86,0,0,0,86,89,117,60,69,110.46,184,-40.00,119.00,-959.00
2024-06-07 11:32:09.255542,-1,-7,86,0,0,0,86,89,117,60,69,110.36,184,-31.00,95.00,-949.00
2024-06-07 11:32:09.351181,-1,-7,86,0,0,0,86,89,117,60,69,110.36,184,-18.00,77.00,-1022.00
2024-06-07 11:32:09.453316,-1,-6,86,0,0,0,86,89,116,60,69,110.47,184,-5.00,119.00,-945.00
2024-06-07 11:32:09.563106,-1,-5,86,0,0,0,86,89,116,60,69,110.52,184,-17.00,106.00,-988.00
2024-06-07 11:32:09.657255,-1,-6,86,0,0,0,86,89,116,60,69,110.58,184,-4.00,139.00,-1019.00
2024-06-07 11:32:09.767718,0,-6,86,0,0,0,86,89,115,60,69,110.50,184,10.00,119.00,-980.00
2024-06-07 11:32:09.861996,0,-6,86,0,0,0,86,89,115,60,69,110.40,184,-9.00,116.00,-973.00
2024-06-07 11:32:09.972580,0,-7,86,0,0,0,86,89,114,60,69,110.58,185,-2.00,108.00,-937.00
2024-06-07 11:32:10.065661,0,-6,86,0,0,0,86,89,113,60,69,110.62,185,4.00,87.00,-990.00
2024-06-07 11:32:10.167269,1,-5,86,0,0,0,86,89,113,60,69,110.48,185,3.00,134.00,-1018.00
2024-06-07 11:32:10.279798,0,-5,86,0,0,0,86,89,113,60,68,110.23,185,10.00,118.00,-1024.00
2024-06-07 11:32:10.371468,0,-5,85,0,0,0,86,89,111,50,68,110.31,185,-18.00,117.00,-962.00
2024-06-07 11:32:10.484624,0,-6,85,0,0,0,86,89,111,50,68,110.39,185,-27.00,113.00,-1024.00
2024-06-07 11:32:10.524148,1,-6,85,0,0,0,86,89,109,50,68,110.27,185,-20.00,94.00,-970.00
2024-06-07 11:32:10.626130,0,-5,85,0,0,0,86,89,109,50,68,110.47,185,-30.00,111.00,-1042.00
2024-06-07 11:32:10.791844,0,-5,85,0,0,0,86,89,109,50,68,110.57,185,-17.00,104.00,-968.00
2024-06-07 11:32:10.830371,0,-5,86,0,0,0,86,89,109,50,68,110.45,185,5.00,96.00,-1013.00
