TS,pitch,roll,yaw,vgx,vgy,vgz,templ,temph,tof,h,bat,baro,time,agx,agy,agz
2024-06-07 11:32:51.239447,1,0,12,0,0,0,86,88,10,0,66,109.49,205,19.00,-10.00,-1001.00
2024-06-07 11:32:51.274078,1,0,12,0,0,0,87,88,10,0,66,109.40,205,18.00,-11.00,-998.00
2024-06-07 11:32:51.450501,1,0,12,0,0,0,87,88,10,0,66,109.75,205,18.00,-11.00,-999.00
2024-06-07 11:32:51.478660,1,0,12,0,0,0,87,88,10,0,66,109.63,205,19.00,-11.00,-1001.00
2024-06-07 11:32:51.654544,1,0,12,0,0,0,87,88,10,0,66,109.41,205,18.00,-10.00,-1001.00
2024-06-07 11:32:51.682742,1,0,12,0,0,0,87,88,10,0,66,109.48,205,19.00,-9.00,-998.00
2024-06-07 11:32:51.855792,1,0,12,0,0,0,87,88,10,0,66,109.57,205,18.00,-10.00,-1001.00
2024-06-07 11:32:51.889142,1,0,12,0,0,0,87,88,10,0,66,109.69,205,19.00,-10.00,-1000.00
2024-06-07 11:32:51.987789,1,0,12,0,0,0,87,88,10,0,66,109.23,205,19.00,-10.00,-1000.00
2024-06-07 11:32:52.160887,1,0,12,0,0,0,87,88,10,0,66,109.79,205,18.00,-11.00,-998.00
2024-06-07 11:32:52.195017,1,0,12,0,0,0,87,88,10,0,66,109.63,205,19.00,-11.00,-999.00
2024-06-07 11:32:52.294421,1,0,12,0,0,0,86,89,10,0,66,109.81,205,19.00,-12.00,-1000.00
2024-06-07 11:32:52.468089,1,0,12,0,0,0,86,89,10,0,66,109.39,205,19.00,-12.00,-1000.00
2024-06-07 11:32:52.499023,1,0,12,0,0,0,86,89,10,0,66,109.65,205,18.00,-10.00,-1000.00
2024-06-07 11:32:52.672751,1,0,12,0,0,0,86,89,10,0,66,109.26,205,19.00,-12.00,-1002.00
2024-06-07 11:32:52.675099,1,0,12,0,0,0,86,89,10,0,66,109.46,205,18.00,-12.00,-1001.00
2024-06-07 11:32:52.752800,1,0,12,0,0,0,86,89,10,0,66,109.26,205,19.00,-12.00,-998.00
2024-06-07 11:32:52.880329,1,0,12,0,0,0,86,89,10,0,66,109.42,205,17.00,-10.00,-998.00
2024-06-07 11:32:52.956781,1,0,12,0,0,0,86,89,10,0,66,109.31,205,18.00,-12.00,-1001.00
2024-06-07 11:32:53.082572,1,0,12,0,0,0,86,89,10,0,66,109.43,205,19.00,-12.00,-997.00
2024-06-07 11:32:53.160775,1,0,12,0,0,0,86,89,10,0,66,109.75,205,20.00,-11.00,-1002.00
2024-06-07 11:32:53.262871,1,0,12,0,0,0,86,89,10,0,66,109.50,205,19.00,-10.00,-1000.00
2024-06-07 11:32:53.364636,1,0,12,0,0,0,86,89,10,0,66,109.54,205,18.00,-12.00,-1001.00
2024-06-07 11:32:53.493025,1,0,12,0,0,0,86,89,10,0,66,109.54,205,14.00,-10.00,-998.00
2024-06-07 11:32:53.568551,1,0,12,0,0,0,86,89,10,0,66,109.54,205,22.00,-9.00,-994.00
2024-06-07 11:32:53.692012,1,0,12,0,0,0,86,89,10,0,66,109.54,205,14.00,0.00,-1000.00
2024-06-07 11:32:53.772590,1,0,12,0,0,0,86,89,10,0,66,109.54,205,12.00,-26.00,-988.00
2024-06-07 11:32:53.901578,1,0,12,0,0,0,86,89,10,0,66,109.54,205,10.00,-7.00,-983.00
2024-06-07 11:32:53.976598,1,0,12,0,0,0,86,89,10,0,66,109.54,205,-39.00,37.00,-1143.00
2024-06-07 11:32:54.106382,1,0,12,0,0,-1,86,89,10,0,66,109.54,205,-25.00,49.00,-1198.00
2024-06-07 11:32:54.180517,0,-1,12,-1,0,-3,86,89,11,0,66,109.54,205,-48.00,36.00,-1286.00
2024-06-07 11:32:54.282502,-2,-1,12,-1,0,-6,88,89,19,0,66,109.55,206,-52.00,9.00,-1378.00
2024-06-07 11:32:54.413515,-3,-1,12,-1,0,-7,88,89,25,10,66,109.73,206,-30.00,44.00,-1211.00
2024-06-07 11:32:54.486970,-2,-2,12,-1,0,-8,88,89,33,10,66,110.05,206,-39.00,48.00,-1049.00
2024-06-07 11:32:54.618349,-3,-3,12,-1,0,-7,88,89,39,20,66,110.12,206,-33.00,38.00,-1020.00
2024-06-07 11:32:54.690607,-3,-3,12,0,0,-7,88,89,46,30,66,110.22,206,-22.00,37.00,-956.00
2024-06-07 11:32:54.823094,-2,-3,12,0,0,-6,88,89,54,30,66,110.42,206,-75.00,27.00,-916.00
2024-06-07 11:32:54.894503,-3,-2,12,0,0,-5,88,89,60,40,66,109.98,206,-59.00,26.00,-923.00
2024-06-07 11:32:55.027953,-3,-3,12,0,0,-4,88,89,65,40,66,110.51,206,-38.00,38.00,-908.00
2024-06-07 11:32:55.098497,-4,-2,12,0,0,-3,88,89,69,50,66,110.33,206,-103.00,34.00,-908.00
2024-06-07 11:32:55.232780,-3,-2,12,0,0,-2,88,89,72,50,66,110.21,206,-26.00,25.00,-869.00
2024-06-07 11:32:55.302498,-2,-2,12,0,0,0,87,90,74,50,66,110.29,207,-68.00,31.00,-960.00
2024-06-07 11:32:55.437546,-2,-2,12,0,0,0,87,90,75,60,66,110.42,207,-64.00,28.00,-959.00
2024-06-07 11:32:55.506630,-2,0,13,0,0,0,87,90,76,60,66,110.35,207,-29.00,52.00,-1010.00
2024-06-07 11:32:55.642367,-2,0,13,0,0,0,87,90,77,60,66,110.21,207,-44.00,56.00,-1011.00
2024-06-07 11:32:55.710481,-2,-2,12,0,0,0,87,90,78,60,66,110.30,207,-39.00,59.00,-1000.00
2024-06-07 11:32:55.847156,-2,-3,12,0,0,0,87,90,79,60,66,110.25,207,-46.00,70.00,-1053.00
2024-06-07 11:32:55.914444,-1,-3,12,0,0,-1,87,90,80,60,66,109.99,207,-35.00,53.00,-968.00
2024-06-07 11:32:56.051975,-1,-3,12,0,0,0,87,90,81,60,66,110.43,207,-57.00,64.00,-975.00
2024-06-07 11:32:56.118436,-1,-3,12,0,0,0,87,90,81,60,66,110.57,207,-39.00,50.00,-1012.00
2024-06-07 11:32:56.220512,-1,-3,12,0,0,0,87,90,81,60,66,110.40,208,-57.00,27.00,-978.00
2024-06-07 11:32:56.359088,-2,-3,12,0,0,0,88,90,82,60,66,110.42,208,-89.00,37.00,-950.00
2024-06-07 11:32:56.429960,-3,-3,12,0,0,0,88,90,82,60,66,110.49,208,-86.00,51.00,-1016.00
2024-06-07 11:32:56.476361,-3,-2,12,0,0,0,88,90,82,60,66,110.56,208,-62.00,53.00,-1009.00
2024-06-07 11:32:56.666448,-3,-3,12,0,0,0,88,90,81,60,66,110.36,208,-83.00,35.00,-1029.00
2024-06-07 11:32:56.680938,-4,-3,12,0,0,0,88,90,81,60,66,110.33,208,-107.00,-1.00,-968.00
2024-06-07 11:32:56.871157,-4,-2,12,0,0,0,88,90,82,60,66,110.26,208,-86.00,62.00,-1051.00
2024-06-07 11:32:56.884410,-4,-2,12,0,0,0,88,90,81,60,66,110.66,208,-89.00,63.00,-984.00
2024-06-07 11:32:57.075954,-4,-2,12,0,0,0,88,90,81,60,66,110.35,208,-89.00,49.00,-959.00
2024-06-07 11:32:57.089361,-4,-2,12,0,0,0,88,90,81,60,66,110.68,208,-96.00,56.00,-1079.00
2024-06-07 11:32:57.192821,-4,-3,12,0,0,0,88,90,81,60,66,110.41,209,-73.00,40.00,-978.00
2024-06-07 11:32:57.292540,-5,-3,12,0,0,0,87,90,81,60,66,110.71,209,-93.00,38.00,-1035.00
2024-06-07 11:32:57.485534,-5,-3,12,0,0,0,87,90,81,60,66,110.77,209,-106.00,61.00,-955.00
2024-06-07 11:32:57.496373,-5,-3,12,0,0,0,87,90,81,60,66,110.51,209,-97.00,67.00,-977.00
2024-06-07 11:32:57.690252,-4,-3,12,0,0,0,87,90,81,60,66,110.57,209,-70.00,40.00,-996.00
2024-06-07 11:32:57.700346,-5,-3,12,0,0,0,87,90,81,60,66,110.75,209,-75.00,78.00,-993.00
2024-06-07 11:32:57.895068,-5,-4,12,0,0,0,87,90,81,60,66,110.54,209,-86.00,50.00,-968.00
2024-06-07 11:32:57.904483,-5,-3,12,0,0,0,87,90,81,60,66,110.51,209,-83.00,57.00,-984.00
2024-06-07 11:32:58.099945,-4,-3,12,0,0,0,87,90,80,60,66,110.23,209,-121.00,29.00,-986.00
2024-06-07 11:32:58.108352,-4,-3,12,0,0,0,87,90,80,60,66,110.38,209,-101.00,47.00,-949.00
2024-06-07 11:32:58.304708,-5,-2,12,0,0,0,87,90,79,60,66,110.01,210,-50.00,43.00,-1045.00
2024-06-07 11:32:58.312362,-5,-2,12,0,0,0,88,90,79,60,66,110.07,210,-75.00,75.00,-1083.00
2024-06-07 11:32:58.509554,-4,-2,12,0,0,0,88,90,79,60,66,110.32,210,-60.00,65.00,-987.00
2024-06-07 11:32:58.517947,-4,-2,12,0,0,0,88,90,79,60,66,110.28,210,-69.00,57.00,-960.00
2024-06-07 11:32:58.620878,-4,-2,12,0,0,0,88,90,79,60,66,110.29,210,-65.00,42.00,-994.00
2024-06-07 11:32:58.720463,-3,-2,12,0,0,0,88,90,79,60,66,109.97,210,-63.00,46.00,-1017.00
2024-06-07 11:32:58.919343,-3,-3,12,0,0,0,88,90,79,60,66,110.13,210,-83.00,64.00,-999.00
2024-06-07 11:32:58.924416,-2,-3,12,0,0,0,88,90,79,60,66,110.17,210,-78.00,37.00,-1001.00
2024-06-07 11:32:59.124146,-3,-2,12,0,0,0,88,90,80,60,66,110.27,210,-61.00,43.00,-1030.00
2024-06-07 11:32:59.129485,-3,-2,12,0,0,0,88,90,81,60,66,110.31,210,-43.00,43.00,-1002.00
2024-06-07 11:32:59.230494,-2,-2,12,0,0,0,88,90,81,60,66,110.66,211,-67.00,40.00,-994.00
2024-06-07 11:32:59.432172,-3,-2,12,0,0,0,87,91,82,60,66,110.24,211,-59.00,20.00,-1007.00
2024-06-07 11:32:59.434612,-3,-2,12,0,0,0,87,91,83,60,66,110.48,211,-67.00,53.00,-994.00
2024-06-07 11:32:59.536796,-3,-2,12,0,0,0,87,91,83,60,66,110.46,211,-61.00,53.00,-1001.00
2024-06-07 11:32:59.638882,-3,-2,12,0,0,0,87,91,83,60,66,110.35,211,-60.00,82.00,-1035.00
2024-06-07 11:32:59.740482,-3,-2,12,0,0,0,87,91,84,60,66,109.94,211,-37.00,82.00,-976.00
2024-06-07 11:32:59.842488,-3,-3,12,0,0,0,87,91,84,60,66,110.51,211,-50.00,78.00,-988.00
2024-06-07 11:32:59.947608,-3,-3,12,0,0,0,87,91,84,70,66,110.14,211,-54.00,58.00,-982.00
2024-06-07 11:32:59.995341,-3,-3,12,0,0,0,87,91,85,70,66,110.51,211,-132.00,48.00,-981.00
2024-06-07 11:33:00.149206,-4,-3,12,0,0,0,87,91,84,70,66,110.64,211,-99.00,35.00,-949.00
2024-06-07 11:33:00.199472,-4,-3,12,0,0,0,87,91,84,70,66,110.19,212,-110.00,51.00,-972.00
2024-06-07 11:33:00.301340,-4,-2,12,0,0,0,87,90,84,70,66,110.20,212,-60.00,30.00,-981.00
2024-06-07 11:33:00.455324,-5,-2,12,0,0,0,87,90,85,70,66,110.24,212,-96.00,64.00,-984.00
2024-06-07 11:33:00.505319,-4,-2,12,0,0,0,87,90,84,70,66,110.15,212,-84.00,47.00,-1061.00
2024-06-07 11:33:00.607406,-5,-2,12,0,0,0,87,90,84,70,66,110.21,212,-89.00,22.00,-917.00
2024-06-07 11:33:00.773685,-5,-3,12,0,0,0,87,90,85,70,66,110.61,212,-46.00,32.00,-1058.00
2024-06-07 11:33:00.812493,-4,-2,12,0,0,0,87,90,85,70,66,110.39,212,-61.00,56.00,-1108.00
2024-06-07 11:33:00.967094,-4,-2,12,0,0,-1,87,90,87,70,66,110.29,212,-69.00,64.00,-1037.00
2024-06-07 11:33:01.022754,-4,-2,12,0,0,-2,87,90,90,70,66,110.40,212,-80.00,45.00,-1060.00
2024-06-07 11:33:01.117172,-4,-2,12,0,0,-3,87,90,94,70,66,110.19,212,-83.00,30.00,-1099.00
2024-06-07 11:33:01.219165,-4,-2,12,0,0,-4,87,90,98,80,66,110.18,213,-57.00,28.00,-1046.00
2024-06-07 11:33:01.321059,-4,-1,12,0,0,-4,86,90,104,80,66,110.48,213,-107.00,38.00,-991.00
2024-06-07 11:33:01.479027,-3,-2,12,0,0,-5,86,90,109,90,66,110.25,213,-84.00,43.00,-1076.00
2024-06-07 11:33:01.525171,-3,-2,12,0,0,-5,86,90,114,90,66,110.21,213,-156.00,39.00,-1013.00
2024-06-07 11:33:01.683896,-4,-2,12,0,0,-5,86,90,121,100,66,110.61,213,-97.00,11.00,-1009.00
2024-06-07 11:33:01.729180,-4,-2,12,0,0,-5,86,90,126,100,66,110.65,213,-79.00,41.00,-959.00
2024-06-07 11:33:01.888694,-4,-1,12,0,0,-5,86,90,134,110,66,110.80,213,-93.00,15.00,-935.00
2024-06-07 11:33:01.933139,-4,-1,12,0,0,-5,86,90,139,120,66,110.70,213,-56.00,4.00,-971.00
2024-06-07 11:33:02.035137,-4,-1,12,0,0,-5,86,90,145,120,66,110.72,213,-108.00,39.00,-948.00
2024-06-07 11:33:02.197119,-4,-1,12,0,0,-5,86,90,151,130,66,110.83,213,-71.00,33.00,-970.00
2024-06-07 11:33:02.239192,-5,-1,12,0,0,-4,86,90,156,130,66,110.99,214,-86.00,10.00,-971.00
2024-06-07 11:33:02.400782,-5,-1,12,0,0,-4,87,90,160,140,66,111.06,214,-75.00,34.00,-986.00
2024-06-07 11:33:02.444144,-5,-1,12,0,0,-4,87,90,166,140,66,110.62,214,-51.00,48.00,-978.00
2024-06-07 11:33:02.614783,-5,0,12,0,0,-3,87,90,168,140,66,111.08,214,-80.00,37.00,-942.00
2024-06-07 11:33:02.648040,-5,-1,12,0,0,-3,87,90,170,150,66,110.81,214,-55.00,40.00,-938.00
2024-06-07 11:33:02.813010,-5,-2,12,0,0,-2,87,90,175,150,66,110.86,214,-61.00,10.00,-996.00
2024-06-07 11:33:02.852055,-4,-1,12,0,0,-2,87,90,176,150,66,111.11,214,-96.00,53.00,-949.00
2024-06-07 11:33:03.016857,-5,-1,12,0,0,-1,87,90,180,160,66,111.07,214,-89.00,56.00,-939.00
2024-06-07 11:33:03.056131,-5,-2,12,0,0,-1,87,90,177,160,66,111.24,214,-79.00,40.00,-940.00
2024-06-07 11:33:03.158056,-5,-2,12,0,0,-1,87,90,182,160,66,111.12,214,-52.00,39.00,-939.00
2024-06-07 11:33:03.260263,-5,-2,12,0,0,-1,87,90,183,160,66,110.78,215,-74.00,-9.00,-951.00
2024-06-07 11:33:03.428102,-5,-2,12,0,0,-1,87,89,184,160,66,110.95,215,-76.00,36.00,-927.00
2024-06-07 11:33:03.464184,-5,-1,12,0,0,0,87,89,185,160,66,110.94,215,-79.00,40.00,-953.00
2024-06-07 11:33:03.629552,-5,-1,12,0,0,0,87,89,188,160,66,111.07,215,-84.00,25.00,-1011.00
2024-06-07 11:33:03.668136,-5,-2,12,0,0,0,87,89,185,160,66,110.80,215,-98.00,31.00,-1026.00
2024-06-07 11:33:03.834787,-5,-2,12,0,0,0,87,89,185,170,66,110.97,215,-77.00,38.00,-1040.00
2024-06-07 11:33:03.872343,-5,-2,12,0,0,0,87,89,190,170,66,110.99,215,-84.00,32.00,-1018.00
2024-06-07 11:33:04.039388,-5,-2,12,0,0,0,87,89,190,170,66,111.07,215,-112.00,20.00,-922.00
2024-06-07 11:33:04.076486,-5,-1,12,0,0,0,87,89,186,170,66,111.19,215,-61.00,14.00,-983.00
2024-06-07 11:33:04.130103,-5,-1,12,0,0,0,87,89,187,170,66,110.66,215,-61.00,15.00,-1029.00
2024-06-07 11:33:04.230665,-4,-1,12,0,0,0,87,89,187,160,66,111.04,216,-88.00,51.00,-1032.00
2024-06-07 11:33:04.331213,-4,0,12,0,0,0,88,90,185,160,66,111.45,216,-46.00,25.00,-1047.00
2024-06-07 11:33:04.452028,-4,0,12,0,0,0,88,90,186,160,66,111.05,216,-51.00,13.00,-1026.00
2024-06-07 11:33:04.535145,-4,0,12,0,0,0,88,90,183,160,66,111.17,216,-55.00,33.00,-1019.00
2024-06-07 11:33:04.637206,-4,0,12,0,0,0,88,90,185,160,66,110.92,216,-72.00,36.00,-1042.00
2024-06-07 11:33:04.739395,-3,0,12,0,0,0,88,90,183,160,66,111.14,216,-69.00,-5.00,-1014.00
2024-06-07 11:33:04.867294,-4,0,12,0,0,0,88,90,185,160,66,111.29,216,-85.00,17.00,-1004.00
2024-06-07 11:33:04.943949,-3,0,12,0,0,0,88,90,185,160,66,111.00,216,-94.00,-10.00,-1033.00
2024-06-07 11:33:05.045248,-3,0,12,0,0,0,88,90,184,160,66,111.07,216,-5.00,5.00,-1043.00
2024-06-07 11:33:05.161819,-3,0,12,0,0,0,88,90,184,160,66,111.05,216,-55.00,17.00,-1027.00
2024-06-07 11:33:05.249151,-3,0,12,0,0,0,88,90,182,160,66,110.97,217,-73.00,31.00,-1059.00
2024-06-07 11:33:05.373152,-3,0,12,0,0,0,87,90,184,160,66,111.22,217,-78.00,-1.00,-924.00
2024-06-07 11:33:05.454126,-3,0,12,0,0,0,87,90,182,160,66,110.97,217,-58.00,39.00,-971.00
2024-06-07 11:33:05.555819,-3,0,12,0,0,0,87,90,180,160,66,110.79,217,-56.00,22.00,-919.00
2024-06-07 11:33:05.680665,-3,0,12,0,0,1,87,90,180,160,66,110.99,217,-39.00,-12.00,-960.00
2024-06-07 11:33:05.763062,-3,-1,12,0,0,1,87,90,176,160,66,111.25,217,-64.00,22.00,-964.00
2024-06-07 11:33:05.863280,-2,0,12,0,0,2,87,90,174,160,66,110.93,217,-80.00,19.00,-993.00
2024-06-07 11:33:05.963000,-3,0,12,0,0,2,87,90,171,160,66,110.83,217,-54.00,42.00,-991.00
2024-06-07 11:33:06.067024,-4,-1,12,0,0,2,87,90,167,150,66,111.00,217,-72.00,6.00,-997.00
2024-06-07 11:33:06.167516,-4,-1,12,0,0,2,87,90,164,150,66,110.77,217,-86.00,34.00,-1041.00
2024-06-07 11:33:06.270660,-4,-1,12,0,0,2,87,90,162,150,66,110.87,218,-67.00,27.00,-957.00
2024-06-07 11:33:06.370935,-5,-1,12,0,0,3,87,91,161,140,66,111.00,218,-40.00,-7.00,-992.00
2024-06-07 11:33:06.499879,-5,0,12,0,0,3,87,91,156,140,66,110.90,218,-82.00,60.00,-999.00
2024-06-07 11:33:06.574907,-4,0,12,0,0,2,87,91,154,140,66,110.65,218,-79.00,36.00,-992.00
2024-06-07 11:33:06.704371,-5,-2,12,0,0,2,87,91,150,130,66,110.87,218,-109.00,37.00,-983.00
2024-06-07 11:33:06.778898,-4,-3,12,0,0,2,87,91,150,130,66,110.51,218,-90.00,37.00,-985.00
2024-06-07 11:33:06.909148,-5,-2,12,0,0,2,87,91,149,130,66,110.56,218,-104.00,54.00,-1001.00
2024-06-07 11:33:06.982904,-5,-2,12,0,0,1,87,91,145,130,66,110.64,218,-122.00,70.00,-1018.00
2024-06-07 11:33:07.111250,-5,-2,12,0,0,1,87,91,145,130,66,110.35,218,-80.00,34.00,-1013.00
2024-06-07 11:33:07.186916,-5,-2,12,0,0,1,87,91,143,130,66,110.69,218,-87.00,59.00,-996.00
2024-06-07 11:33:07.316681,-4,-2,12,0,0,1,87,91,142,120,66,110.34,219,-124.00,31.00,-1021.00
2024-06-07 11:33:07.390864,-4,-2,12,0,0,1,87,90,141,120,66,110.28,219,-98.00,61.00,-1029.00
2024-06-07 11:33:07.524239,-5,-2,12,0,0,1,87,90,140,120,66,110.71,219,-119.00,64.00,-1004.00
2024-06-07 11:33:07.594689,-5,-2,12,0,0,0,87,90,140,120,66,110.45,219,-120.00,40.00,-976.00
2024-06-07 11:33:07.725540,-5,-2,12,0,0,0,87,90,139,120,66,110.67,219,-89.00,65.00,-1034.00
2024-06-07 11:33:07.798940,-5,-2,12,0,0,0,87,90,137,120,66,110.84,219,-112.00,60.00,-1022.00
2024-06-07 11:33:07.849973,-5,-3,12,0,0,0,87,90,138,120,66,110.67,219,-84.00,43.00,-1023.00
2024-06-07 11:33:08.032856,-5,-2,12,0,0,0,87,90,138,120,66,110.87,219,-109.00,60.00,-1031.00
2024-06-07 11:33:08.054018,-5,-3,12,0,0,0,87,90,138,120,66,110.51,219,-96.00,42.00,-972.00
2024-06-07 11:33:08.240614,-5,-3,12,0,0,0,87,90,136,120,66,110.77,219,-88.00,33.00,-1028.00
2024-06-07 11:33:08.257808,-5,-3,12,0,0,0,87,90,137,120,66,110.50,220,-95.00,25.00,-973.00
2024-06-07 11:33:08.359817,-5,-2,12,0,0,0,87,90,137,120,66,110.56,220,-96.00,46.00,-1003.00
2024-06-07 11:33:08.545159,-5,-2,12,0,0,0,87,90,138,120,66,110.58,220,-79.00,27.00,-1009.00
2024-06-07 11:33:08.563824,-5,-2,12,0,0,0,87,90,137,120,66,110.81,220,-99.00,28.00,-877.00
2024-06-07 11:33:08.752608,-6,-1,12,0,0,0,87,90,138,120,66,110.70,220,-124.00,22.00,-968.00
2024-06-07 11:33:08.767852,-5,-1,12,0,0,0,87,90,136,120,66,110.79,220,-111.00,13.00,-953.00
2024-06-07 11:33:08.869958,-5,0,12,0,0,0,87,90,135,120,66,110.62,220,-58.00,13.00,-1022.00
2024-06-07 11:33:09.060103,-6,-1,12,0,0,0,87,90,137,120,66,110.45,220,-94.00,43.00,-1090.00
2024-06-07 11:33:09.073848,-5,-1,12,0,0,0,87,90,136,120,66,110.49,220,-78.00,32.00,-978.00
2024-06-07 11:33:09.261531,-5,-1,12,0,0,0,87,90,137,120,66,110.53,220,-81.00,18.00,-1001.00
2024-06-07 11:33:09.277834,-5,-1,12,0,0,0,87,90,138,120,66,110.56,221,-84.00,27.00,-1009.00
2024-06-07 11:33:09.467160,-4,0,12,0,0,0,87,89,137,120,66,110.64,221,-78.00,62.00,-965.00
2024-06-07 11:33:09.481816,-4,-1,12,0,0,0,87,89,137,120,66,110.66,221,-85.00,25.00,-971.00
2024-06-07 11:33:09.676528,-4,-1,12,0,0,0,87,89,139,120,66,110.50,221,-92.00,63.00,-1002.00
2024-06-07 11:33:09.686312,-3,-1,12,0,0,0,87,89,138,120,66,110.08,221,-83.00,43.00,-1002.00
2024-06-07 11:33:09.855621,-3,-2,12,0,0,0,87,89,137,120,66,110.47,221,-76.00,38.00,-996.00
2024-06-07 11:33:09.889631,-3,-2,12,0,0,0,87,89,138,120,66,110.30,221,-54.00,48.00,-1007.00
2024-06-07 11:33:10.083756,-3,-2,12,0,0,0,87,89,139,120,66,110.32,221,-49.00,24.00,-1018.00
2024-06-07 11:33:10.093669,-4,-3,12,0,0,0,87,89,139,120,66,110.86,221,-53.00,33.00,-950.00
2024-06-07 11:33:10.288372,-8,-1,12,0,0,0,87,89,140,120,66,110.87,221,-67.00,16.00,-1061.00
2024-06-07 11:33:10.297826,-8,-1,12,1,0,0,87,89,140,120,66,110.30,222,-54.00,27.00,-983.00
2024-06-07 11:33:10.490544,-8,-1,12,2,1,0,88,90,140,120,66,110.60,222,-82.00,49.00,-1025.00
2024-06-07 11:33:10.501653,-8,-2,12,3,1,0,88,90,139,120,66,110.58,222,-107.00,45.00,-970.00
2024-06-07 11:33:10.603981,-8,-2,12,3,1,0,88,90,140,120,66,110.54,222,-69.00,65.00,-1049.00
2024-06-07 11:33:10.705815,-8,-2,12,3,1,0,88,90,140,120,66,110.71,222,-53.00,26.00,-998.00
2024-06-07 11:33:10.899831,-8,-2,12,4,1,0,88,90,138,120,66,110.76,222,-117.00,33.00,-932.00
2024-06-07 11:33:10.909633,-8,-2,12,4,1,0,88,90,138,120,66,110.85,222,-101.00,3.00,-1000.00
2024-06-07 11:33:11.104618,-8,-2,12,4,1,0,88,90,139,120,66,110.66,222,-127.00,23.00,-971.00
2024-06-07 11:33:11.114612,-8,-2,12,4,1,0,88,90,140,120,66,110.19,222,-125.00,12.00,-988.00
2024-06-07 11:33:11.215554,-8,-2,12,5,1,0,88,90,137,120,66,110.62,223,-115.00,12.00,-978.00
2024-06-07 11:33:11.317888,-7,-3,12,5,0,0,88,90,135,120,66,110.61,223,-118.00,14.00,-985.00
2024-06-07 11:33:11.514203,-2,-2,12,5,0,0,88,90,134,120,66,110.41,223,-129.00,28.00,-971.00
2024-06-07 11:33:11.521812,-1,-1,12,4,0,0,88,90,132,120,66,110.39,223,-123.00,24.00,-1027.00
2024-06-07 11:33:11.718993,-2,-1,12,3,0,0,88,90,132,120,66,110.49,223,-66.00,39.00,-1025.00
2024-06-07 11:33:11.726247,-3,-1,12,3,0,0,88,90,130,120,66,110.30,223,-86.00,51.00,-1031.00
2024-06-07 11:33:11.776592,-4,-2,12,3,0,0,88,90,130,120,66,110.56,223,-84.00,32.00,-1032.00
2024-06-07 11:33:11.926787,-4,-2,12,2,0,0,88,90,130,110,66,110.46,223,-127.00,53.00,-1043.00
2024-06-07 11:33:11.980553,-5,-2,12,2,0,0,88,90,130,110,66,110.51,223,-93.00,36.00,-1001.00
2024-06-07 11:33:12.131523,-5,-2,12,2,0,0,88,90,129,110,66,110.13,223,-100.00,3.00,-991.00
2024-06-07 11:33:12.184545,-4,-2,12,2,0,0,88,90,131,110,66,110.33,224,-99.00,57.00,-994.00
2024-06-07 11:33:12.334090,-4,-2,12,2,0,0,88,90,128,110,66,110.45,224,-127.00,46.00,-1004.00
2024-06-07 11:33:12.388506,-5,-2,12,2,0,0,87,91,128,110,66,110.41,224,-118.00,28.00,-1021.00
2024-06-07 11:33:12.541232,-5,-2,12,2,0,0,87,91,127,110,66,110.35,224,-90.00,36.00,-974.00
2024-06-07 11:33:12.592743,-6,-2,12,2,0,0,87,91,126,110,66,110.42,224,-92.00,18.00,-959.00
2024-06-07 11:33:12.744403,-5,-2,12,2,0,0,87,91,127,110,66,110.73,224,-66.00,21.00,-1002.00
2024-06-07 11:33:12.796477,-4,-1,12,2,0,0,87,91,126,110,66,110.38,224,-73.00,38.00,-1007.00
2024-06-07 11:33:12.948014,-4,-1,12,2,0,0,87,91,125,110,66,110.64,224,-83.00,44.00,-979.00
2024-06-07 11:33:13.000468,-4,0,12,2,0,0,87,91,125,110,66,110.43,224,-82.00,18.00,-1010.00
2024-06-07 11:33:13.152648,-4,0,12,2,0,0,87,91,126,110,66,110.63,224,-77.00,20.00,-987.00
2024-06-07 11:33:13.204573,-4,0,12,2,0,0,87,91,126,110,66,110.36,225,-63.00,27.00,-953.00
2024-06-07 11:33:13.358031,-3,-4,12,1,0,0,87,91,125,110,66,110.36,225,-58.00,-8.00,-1078.00
2024-06-07 11:33:13.408465,0,-1,12,1,0,0,88,91,125,110,66,110.50,225,-81.00,0.00,-960.00
2024-06-07 11:33:13.562221,-1,0,12,0,0,0,88,91,125,110,66,110.69,225,-85.00,21.00,-1026.00
2024-06-07 11:33:13.612435,-4,3,12,0,0,0,88,91,126,110,66,110.45,225,-54.00,21.00,-983.00
2024-06-07 11:33:13.766977,-4,3,12,0,0,0,88,91,127,110,66,110.55,225,-84.00,6.00,-1014.00
2024-06-07 11:33:13.816484,-4,1,12,0,1,0,88,91,128,110,66,110.55,225,-63.00,24.00,-1011.00
2024-06-07 11:33:13.975302,-4,0,12,0,1,0,88,91,129,110,66,110.25,225,-76.00,9.00,-1017.00
2024-06-07 11:33:14.021290,-3,-4,12,0,0,0,88,91,130,110,66,110.03,225,-100.00,-14.00,-980.00
2024-06-07 11:33:14.123595,-3,-2,12,0,0,0,88,91,130,110,66,110.66,225,-68.00,16.00,-1024.00
2024-06-07 11:33:14.279047,-4,0,12,0,0,-1,88,91,132,110,66,110.41,226,-72.00,27.00,-1001.00
2024-06-07 11:33:14.327532,-4,0,12,0,0,0,88,91,134,120,66,110.62,226,-62.00,-2.00,-992.00
2024-06-07 11:33:14.429610,-4,0,12,0,0,0,87,90,135,120,66,110.76,226,-38.00,18.00,-998.00
2024-06-07 11:33:14.590460,-3,0,12,0,0,0,87,90,135,120,66,110.77,226,-57.00,30.00,-959.00
2024-06-07 11:33:14.633520,-3,0,12,0,0,0,87,90,137,120,66,110.46,226,-81.00,44.00,-961.00
2024-06-07 11:33:14.794612,-3,-1,12,0,0,0,87,90,136,120,66,110.59,226,-41.00,37.00,-959.00
2024-06-07 11:33:14.837726,-3,-1,12,0,0,0,87,90,136,120,66,110.60,226,-45.00,41.00,-966.00
2024-06-07 11:33:14.940277,-3,-1,12,0,0,0,87,90,136,120,66,110.71,226,-11.00,33.00,-974.00
2024-06-07 11:33:15.100458,-3,-1,12,0,0,0,87,90,136,120,66,110.36,226,-46.00,49.00,-1041.00
2024-06-07 11:33:15.101774,-3,-2,12,0,0,0,87,90,137,120,66,110.35,226,-69.00,56.00,-995.00
2024-06-07 11:33:15.194566,-3,-2,12,0,0,0,87,90,136,120,66,110.68,227,-62.00,64.00,-1056.00
2024-06-07 11:33:15.297035,-3,-2,12,0,0,0,87,90,136,120,65,110.55,227,-60.00,50.00,-975.00
2024-06-07 11:33:15.405473,-3,-2,12,0,0,0,87,90,137,120,65,110.79,227,-45.00,31.00,-998.00
2024-06-07 11:33:15.500489,-3,-2,12,0,0,0,87,90,137,120,65,110.76,227,-41.00,21.00,-1038.00
2024-06-07 11:33:15.610355,-3,-1,12,0,0,0,87,90,137,120,65,110.80,227,-56.00,13.00,-962.00
2024-06-07 11:33:15.704562,-3,-1,12,0,0,0,87,90,137,120,65,110.63,227,-69.00,10.00,-1036.00
2024-06-07 11:33:15.815396,-3,0,12,0,0,0,87,90,138,120,65,110.59,227,-62.00,20.00,-995.00
2024-06-07 11:33:15.908480,-3,0,12,0,0,0,87,90,138,120,65,110.75,227,-64.00,-5.00,-999.00
2024-06-07 11:33:16.020071,-3,0,12,0,0,0,87,90,137,120,65,110.44,227,-42.00,14.00,-995.00
2024-06-07 11:33:16.112237,-3,0,12,0,0,0,87,90,138,120,65,110.97,227,-47.00,1.00,-1021.00
2024-06-07 11:33:16.224933,0,0,12,0,0,0,87,90,139,120,65,110.71,228,-54.00,10.00,-977.00
2024-06-07 11:33:16.316545,4,0,12,0,0,0,87,90,139,120,65,110.50,228,-64.00,20.00,-1024.00
2024-06-07 11:33:16.429680,5,0,12,-2,-1,0,87,90,138,120,65,110.89,228,-40.00,6.00,-979.00
2024-06-07 11:33:16.520376,5,0,12,-3,-1,0,87,90,138,120,65,110.82,228,-70.00,34.00,-978.00
2024-06-07 11:33:16.622283,4,0,12,-4,-1,0,87,90,137,120,65,110.70,228,11.00,28.00,-1018.00
2024-06-07 11:33:16.736442,4,0,12,-5,-1,0,87,90,137,120,65,110.77,228,20.00,26.00,-995.00
2024-06-07 11:33:16.826453,4,0,12,-5,-1,0,87,90,136,120,65,111.08,228,5.00,13.00,-1021.00
2024-06-07 11:33:16.941340,3,0,12,-6,-1,0,87,90,135,120,65,110.68,228,3.00,18.00,-1035.00
2024-06-07 11:33:17.030256,2,0,12,-7,-1,0,87,90,136,120,65,111.03,228,-4.00,17.00,-996.00
2024-06-07 11:33:17.146165,0,0,12,-7,-1,0,87,90,136,120,65,110.73,228,9.00,25.00,-1004.00
2024-06-07 11:33:17.235902,-3,0,13,-7,-1,0,87,90,136,120,65,110.88,229,14.00,9.00,-984.00
2024-06-07 11:33:17.336307,-5,-1,13,-6,0,0,87,90,137,120,65,111.21,229,14.00,22.00,-983.00
2024-06-07 11:33:17.453358,-7,-1,13,-5,0,0,87,90,137,120,65,110.91,229,-3.00,21.00,-1002.00
2024-06-07 11:33:17.542963,-6,0,12,-4,0,0,87,90,136,120,65,110.72,229,-39.00,24.00,-993.00
2024-06-07 11:33:17.642387,-5,0,12,-3,0,0,87,90,137,120,65,110.77,229,-18.00,-4.00,-997.00
2024-06-07 11:33:17.761202,-4,-1,12,-3,0,0,87,90,137,120,65,110.95,229,-25.00,22.00,-987.00
2024-06-07 11:33:17.846255,-4,-1,12,-3,0,0,87,90,136,120,65,110.73,229,-28.00,31.00,-1042.00
2024-06-07 11:33:17.965337,-4,0,12,-2,0,0,87,90,138,120,65,110.72,229,-44.00,32.00,-1022.00
2024-06-07 11:33:18.050221,-3,-1,12,-2,0,0,87,90,137,120,65,110.93,229,-60.00,43.00,-992.00
2024-06-07 11:33:18.170130,-2,-1,12,-2,0,0,87,90,136,120,65,110.96,229,-37.00,42.00,-1081.00
2024-06-07 11:33:18.254892,-4,-2,12,-2,0,0,87,90,140,120,65,110.81,230,-15.00,63.00,-1023.00
2024-06-07 11:33:18.357985,-8,-2,12,-1,0,0,87,90,141,120,65,110.95,230,-41.00,41.00,-978.00
2024-06-07 11:33:18.459887,-5,-2,12,0,0,0,87,89,141,120,65,110.94,230,-38.00,37.00,-989.00
2024-06-07 11:33:18.560338,-3,-2,11,0,0,0,87,89,142,120,65,110.73,230,-19.00,28.00,-917.00
2024-06-07 11:33:18.664571,-2,-2,12,0,0,0,87,89,143,120,65,111.04,230,-28.00,38.00,-992.00
2024-06-07 11:33:18.764375,-2,-2,12,0,0,0,87,89,141,120,65,110.59,230,-42.00,6.00,-991.00
2024-06-07 11:33:18.869350,-2,-2,12,0,0,0,87,89,143,120,65,111.07,230,-33.00,8.00,-984.00
2024-06-07 11:33:18.970188,-2,-2,12,0,0,0,87,89,141,120,65,110.89,230,-89.00,27.00,-1023.00
2024-06-07 11:33:19.071090,-3,-1,12,0,0,0,87,89,141,120,65,110.57,230,-96.00,23.00,-949.00
2024-06-07 11:33:19.121251,-3,-1,12,0,0,0,87,89,140,120,65,110.61,230,-39.00,33.00,-918.00
2024-06-07 11:33:19.298996,-3,-1,12,0,0,0,87,89,140,120,65,110.75,231,-46.00,28.00,-998.00
2024-06-07 11:33:19.327771,-3,-2,12,0,0,0,87,89,140,120,65,110.73,231,-50.00,43.00,-1000.00
2024-06-07 11:33:19.427845,-2,-2,12,0,0,0,88,89,139,120,65,110.72,231,-58.00,15.00,-1064.00
2024-06-07 11:33:19.604492,-2,-1,12,0,0,0,88,89,137,120,65,110.88,231,-68.00,-4.00,-1010.00
2024-06-07 11:33:19.631343,-2,0,12,0,0,0,88,89,138,120,65,110.66,231,-59.00,20.00,-1025.00
2024-06-07 11:33:19.808368,-2,-1,12,0,0,0,88,89,137,120,65,111.02,231,-95.00,19.00,-1078.00
2024-06-07 11:33:19.835304,-2,-1,12,0,0,0,88,89,136,120,65,110.78,231,-40.00,3.00,-1021.00
2024-06-07 11:33:20.014513,-3,0,12,0,0,0,88,89,138,120,65,110.66,231,-69.00,-20.00,-957.00
2024-06-07 11:33:20.039160,-2,0,12,0,0,0,88,89,136,120,65,110.88,231,-76.00,-15.00,-1044.00
2024-06-07 11:33:20.218295,-2,0,12,0,0,0,88,89,137,120,65,110.83,231,-59.00,-35.00,-969.00
2024-06-07 11:33:20.243244,-2,0,12,0,0,0,88,89,134,120,64,110.89,232,-55.00,-17.00,-987.00
2024-06-07 11:33:20.345195,-3,1,12,0,0,0,88,89,135,120,64,110.88,232,-43.00,-19.00,-973.00
2024-06-07 11:33:20.447099,-3,1,12,0,0,0,86,90,133,120,64,110.68,232,-48.00,-1.00,-1049.00
2024-06-07 11:33:20.628590,-3,1,12,0,0,0,86,90,133,120,64,110.93,232,-50.00,1.00,-980.00
2024-06-07 11:33:20.651110,-3,-4,12,0,0,0,86,90,133,120,64,110.60,232,-41.00,-35.00,-1029.00
2024-06-07 11:33:20.836082,-3,-7,12,0,-2,0,86,90,134,120,64,110.63,232,-36.00,-9.00,-1009.00
2024-06-07 11:33:20.855072,-3,-3,13,1,-3,0,86,90,134,120,64,110.80,232,-34.00,28.00,-1022.00
2024-06-07 11:33:21.037334,-2,-1,13,1,-3,0,86,90,133,120,64,110.69,232,-53.00,25.00,-974.00
2024-06-07 11:33:21.059056,-2,0,12,1,-3,0,86,90,133,120,64,110.55,232,-103.00,18.00,-1014.00
2024-06-07 11:33:21.243067,-2,0,12,0,-3,0,86,90,133,120,64,110.60,232,-54.00,33.00,-1006.00
2024-06-07 11:33:21.263070,-3,0,12,0,-3,0,86,90,132,120,64,110.88,233,-48.00,12.00,-1014.00
2024-06-07 11:33:21.365265,-4,0,12,0,-3,0,86,90,133,120,64,110.53,233,-63.00,18.00,-1024.00
2024-06-07 11:33:21.554644,-4,0,12,0,-3,0,87,90,133,120,64,110.75,233,-44.00,-4.00,-1004.00
2024-06-07 11:33:21.569179,-4,0,12,0,-3,0,87,90,133,120,64,111.00,233,-57.00,18.00,-987.00
2024-06-07 11:33:21.754275,-4,0,12,0,-3,0,87,90,133,120,64,110.91,233,-48.00,32.00,-1070.00
2024-06-07 11:33:21.773046,-5,0,12,0,-2,0,87,90,134,120,64,110.52,233,-45.00,-10.00,-1017.00
2024-06-07 11:33:21.874957,-5,0,12,1,-2,0,87,90,134,120,64,110.56,233,-77.00,-22.00,-979.00
2024-06-07 11:33:21.977010,-1,3,12,1,-2,0,87,90,133,120,64,110.81,233,-57.00,18.00,-1017.00
2024-06-07 11:33:22.164543,-2,5,12,0,-1,0,87,90,135,120,64,110.67,233,-89.00,19.00,-1002.00
2024-06-07 11:33:22.182185,-3,2,12,0,0,0,87,90,135,120,64,110.61,233,-59.00,17.00,-1007.00
2024-06-07 11:33:22.368936,-4,0,12,0,0,0,87,90,134,120,64,110.30,234,-87.00,10.00,-977.00
2024-06-07 11:33:22.385224,-4,0,12,0,0,0,87,90,134,120,64,110.70,234,-64.00,15.00,-922.00
2024-06-07 11:33:22.573422,-4,0,12,0,0,0,88,90,136,120,64,110.74,234,-91.00,12.00,-1025.00
2024-06-07 11:33:22.589035,-3,0,12,0,0,0,88,90,136,120,64,110.64,234,-75.00,16.00,-973.00
2024-06-07 11:33:22.781750,-3,0,12,0,0,0,88,90,135,120,64,110.66,234,-56.00,-6.00,-981.00
2024-06-07 11:33:22.793033,-3,0,12,0,0,0,88,90,135,120,64,110.37,234,-53.00,23.00,-968.00
2024-06-07 11:33:22.983436,-3,0,12,0,0,0,88,90,135,120,64,110.72,234,-94.00,9.00,-973.00
2024-06-07 11:33:22.997691,-3,0,12,0,0,0,88,90,136,120,64,110.90,234,-52.00,1.00,-983.00
2024-06-07 11:33:23.187750,-4,0,12,0,0,0,88,90,136,120,64,110.79,234,-42.00,32.00,-1028.00
2024-06-07 11:33:23.187917,-3,0,12,0,0,0,88,90,136,120,64,110.98,234,-41.00,-29.00,-1043.00
2024-06-07 11:33:23.252205,-3,0,12,0,0,0,88,90,136,120,64,110.59,235,-68.00,-3.00,-986.00
2024-06-07 11:33:23.354021,-3,0,12,0,0,0,88,90,134,120,64,110.77,235,-93.00,19.00,-972.00
2024-06-07 11:33:23.494950,-3,0,12,0,0,0,87,90,135,120,64,110.66,235,-54.00,16.00,-982.00
2024-06-07 11:33:23.558299,-3,0,12,0,0,0,87,90,135,120,64,110.75,235,-42.00,17.00,-1001.00
2024-06-07 11:33:23.660947,-3,0,12,0,0,0,87,90,136,120,64,110.80,235,-54.00,5.00,-1003.00
2024-06-07 11:33:23.802226,-3,0,12,0,0,0,87,90,136,120,64,110.85,235,-84.00,38.00,-1017.00
2024-06-07 11:33:23.864069,-3,0,12,0,0,0,87,90,137,120,64,110.66,235,-86.00,2.00,-1032.00
2024-06-07 11:33:24.007145,-4,0,12,0,0,0,87,90,138,120,64,110.57,235,-33.00,2.00,-1037.00
2024-06-07 11:33:24.068094,-4,0,12,0,0,0,87,90,137,120,64,110.71,235,-40.00,-4.00,-1026.00
2024-06-07 11:33:24.170803,-4,0,12,0,0,0,87,90,139,120,64,110.72,235,-61.00,-15.00,-987.00
2024-06-07 11:33:24.314238,-3,0,12,0,0,0,87,90,138,120,63,110.79,236,-80.00,8.00,-926.00
2024-06-07 11:33:24.373774,-4,1,12,0,0,0,87,90,137,120,63,110.80,236,-78.00,8.00,-997.00
2024-06-07 11:33:24.523446,-3,7,12,0,0,0,87,89,139,120,63,110.59,236,-64.00,-2.00,-1021.00
2024-06-07 11:33:24.577913,-4,7,12,0,2,0,87,89,139,120,63,110.70,236,-77.00,-9.00,-1010.00
2024-06-07 11:33:24.723668,-4,4,12,-1,3,0,87,89,139,120,63,110.96,236,-77.00,-4.00,-984.00
2024-06-07 11:33:24.781904,-4,1,12,0,3,0,87,89,138,120,63,110.78,236,-75.00,22.00,-992.00
2024-06-07 11:33:24.928591,-4,0,12,0,3,0,87,89,137,120,63,110.78,236,-75.00,-2.00,-1006.00
2024-06-07 11:33:24.986794,-4,-1,12,0,3,0,87,89,137,120,63,110.69,236,-104.00,2.00,-969.00
2024-06-07 11:33:25.133328,-4,-1,12,0,3,0,87,89,139,120,63,110.31,236,-41.00,9.00,-1040.00
2024-06-07 11:33:25.189834,-5,-1,12,0,3,0,87,89,137,120,63,110.40,236,-33.00,4.00,-1055.00
2024-06-07 11:33:25.338970,-4,-1,12,0,3,0,87,89,138,120,63,110.55,237,-59.00,27.00,-1016.00
2024-06-07 11:33:25.393851,-4,-1,12,0,3,0,87,89,138,120,63,110.67,237,-63.00,-1.00,-941.00
2024-06-07 11:33:25.546015,-4,-1,12,0,3,0,87,90,137,120,63,110.55,237,-95.00,26.00,-994.00
2024-06-07 11:33:25.597839,-4,-1,12,0,3,0,87,90,135,120,63,110.58,237,-91.00,16.00,-987.00
2024-06-07 11:33:25.747648,-4,-2,12,0,2,0,87,90,135,120,63,110.17,237,-67.00,17.00,-1005.00
2024-06-07 11:33:25.801852,-4,-3,12,0,2,0,87,90,135,120,63,110.43,237,-82.00,38.00,-1006.00
2024-06-07 11:33:25.948274,-3,-5,12,0,1,0,87,90,134,120,63,110.62,237,-63.00,16.00,-1008.00
2024-06-07 11:33:26.005825,-3,-4,12,0,1,0,87,90,135,120,63,110.46,237,-80.00,16.00,-969.00
2024-06-07 11:33:26.159027,-4,-2,12,0,0,0,87,90,134,120,63,110.70,237,-54.00,38.00,-1034.00
2024-06-07 11:33:26.210516,-4,-2,12,0,0,0,87,90,133,120,63,110.83,238,-72.00,47.00,-999.00
2024-06-07 11:33:26.362213,-4,-2,12,0,0,0,87,90,132,120,63,110.77,238,-52.00,27.00,-990.00
2024-06-07 11:33:26.413761,-4,-2,12,0,0,0,87,90,133,120,63,110.23,238,-46.00,41.00,-1084.00
2024-06-07 11:33:26.515893,-4,-2,12,0,0,0,87,90,133,120,63,110.80,238,-61.00,33.00,-1000.00
2024-06-07 11:33:26.620427,-4,-2,12,0,0,0,87,90,133,120,63,110.79,238,-76.00,25.00,-995.00
2024-06-07 11:33:26.719791,-4,-1,12,0,0,0,87,90,132,120,63,110.67,238,-73.00,52.00,-988.00
2024-06-07 11:33:26.874267,-4,-1,12,0,0,0,87,90,132,120,63,110.52,238,-46.00,33.00,-1008.00
2024-06-07 11:33:26.923854,-4,-2,12,0,0,0,87,90,132,110,63,110.33,238,-61.00,11.00,-1033.00
2024-06-07 11:33:27.084413,-4,-2,12,0,0,0,87,90,132,110,63,110.70,238,-45.00,32.00,-992.00
2024-06-07 11:33:27.127890,-3,-1,12,0,0,0,87,90,133,120,63,110.23,238,-83.00,50.00,-1014.00
2024-06-07 11:33:27.186409,-3,-1,12,0,0,0,87,90,133,120,63,110.53,239,-69.00,30.00,-960.00
2024-06-07 11:33:27.280801,-4,-1,12,0,0,0,87,90,134,120,63,110.55,239,-33.00,35.00,-1038.00
2024-06-07 11:33:27.383000,-4,-2,12,0,0,0,87,90,136,120,63,110.51,239,-76.00,44.00,-993.00
2024-06-07 11:33:27.535884,-3,-2,12,0,0,0,87,90,135,120,63,110.41,239,-94.00,65.00,-980.00
2024-06-07 11:33:27.640255,-3,-2,12,0,0,0,87,90,136,120,63,110.58,239,-43.00,20.00,-959.00
2024-06-07 11:33:27.693448,-3,-1,12,0,0,0,87,90,134,120,63,110.46,239,-47.00,57.00,-981.00
2024-06-07 11:33:27.792322,-3,-1,12,0,0,0,87,90,135,120,63,110.43,239,-57.00,50.00,-981.00
2024-06-07 11:33:27.898393,-3,-2,12,0,0,0,87,90,135,120,63,110.81,239,-76.00,38.00,-987.00
2024-06-07 11:33:27.994817,-3,-2,12,0,0,0,87,90,136,120,63,110.54,239,-63.00,31.00,-1086.00
2024-06-07 11:33:28.103328,-3,-1,12,0,0,0,87,90,135,120,63,110.83,239,-76.00,43.00,-988.00
2024-06-07 11:33:28.198598,-3,-1,12,0,0,0,87,90,136,120,63,110.53,240,-64.00,10.00,-965.00
2024-06-07 11:33:28.307657,-2,-1,15,0,0,0,87,90,135,120,62,110.68,240,-40.00,4.00,-1063.00
2024-06-07 11:33:28.403373,-2,-1,21,0,0,0,87,90,136,120,62,110.76,240,-54.00,53.00,-1034.00
2024-06-07 11:33:28.512375,-2,-1,27,0,0,0,86,90,136,120,62,110.85,240,-24.00,27.00,-1003.00
2024-06-07 11:33:28.606798,-2,-2,33,0,0,0,86,90,136,120,62,110.90,240,-44.00,58.00,-1005.00
2024-06-07 11:33:28.718090,-2,-2,39,0,0,0,86,90,136,120,62,110.64,240,-33.00,51.00,-1003.00
2024-06-07 11:33:28.810593,-2,-2,44,0,0,0,86,90,138,120,62,110.77,240,-11.00,51.00,-1009.00
2024-06-07 11:33:28.925625,-2,-3,50,0,0,0,86,90,137,120,62,110.54,240,-18.00,58.00,-1005.00
2024-06-07 11:33:29.014564,-2,-3,56,0,0,0,86,90,138,120,62,111.02,240,-43.00,66.00,-989.00
2024-06-07 11:33:29.129481,-2,-3,62,0,0,0,86,90,138,120,62,110.94,240,3.00,49.00,-1006.00
2024-06-07 11:33:29.218639,-1,-4,68,0,0,0,86,90,140,120,62,110.89,241,-16.00,59.00,-948.00
2024-06-07 11:33:29.334870,0,-3,74,0,0,0,86,90,139,120,62,110.87,241,-38.00,70.00,-1020.00
2024-06-07 11:33:29.424420,0,-3,79,0,0,0,86,90,140,120,62,110.78,241,0.00,82.00,-979.00
2024-06-07 11:33:29.541396,0,-3,85,0,0,0,87,91,140,120,62,110.92,241,6.00,42.00,-941.00
2024-06-07 11:33:29.627488,0,-3,91,0,0,0,87,91,139,120,62,110.56,241,8.00,49.00,-1013.00
2024-06-07 11:33:29.741209,1,-3,96,0,0,0,87,91,139,120,62,110.69,241,18.00,42.00,-1006.00
2024-06-07 11:33:29.831490,2,-2,102,0,0,0,87,91,139,120,62,110.75,241,29.00,40.00,-993.00
2024-06-07 11:33:29.946179,2,-3,108,0,0,0,87,91,139,120,62,110.82,241,19.00,33.00,-1021.00
2024-06-07 11:33:30.035574,2,-3,114,0,0,0,87,91,139,120,62,110.90,241,0.00,57.00,-1013.00
2024-06-07 11:33:30.150812,2,-2,120,0,0,0,87,91,139,120,62,110.67,241,30.00,60.00,-1003.00
2024-06-07 11:33:30.239633,2,-3,126,0,0,0,87,91,138,120,62,110.49,242,22.00,25.00,-1011.00
2024-06-07 11:33:30.355553,2,-3,132,0,0,0,87,91,136,120,62,110.55,242,11.00,58.00,-1064.00
2024-06-07 11:33:30.443525,3,-3,137,0,0,0,87,91,138,120,62,110.69,242,43.00,52.00,-1025.00
2024-06-07 11:33:30.560378,3,-3,143,0,0,0,87,89,137,120,62,110.74,242,36.00,39.00,-1055.00
2024-06-07 11:33:30.647493,3,-3,149,0,0,0,87,89,137,120,62,110.52,242,24.00,49.00,-1008.00
2024-06-07 11:33:30.770518,3,-2,155,0,0,0,87,89,137,120,62,110.89,242,0.00,75.00,-1069.00
2024-06-07 11:33:30.851496,3,-2,161,0,0,0,87,89,136,120,62,110.60,242,56.00,32.00,-1042.00
2024-06-07 11:33:30.974476,3,-2,167,0,0,0,87,89,136,120,62,110.50,242,28.00,50.00,-1012.00
2024-06-07 11:33:31.055464,4,-1,172,0,0,0,87,89,137,120,62,110.74,242,44.00,51.00,-998.00
2024-06-07 11:33:31.178030,4,-1,178,0,0,0,87,89,137,120,62,110.56,242,84.00,30.00,-1003.00
2024-06-07 11:33:31.259479,4,0,-175,0,0,0,87,89,136,120,62,110.66,243,42.00,11.00,-1025.00
2024-06-07 11:33:31.379526,4,0,-169,0,0,0,87,89,135,120,62,110.82,243,70.00,6.00,-1008.00
2024-06-07 11:33:31.464085,4,0,-164,0,0,0,87,89,138,120,62,110.78,243,46.00,3.00,-996.00
2024-06-07 11:33:31.584525,4,0,-158,0,0,0,87,90,137,120,62,110.66,243,36.00,-20.00,-970.00
2024-06-07 11:33:31.616399,4,1,-153,0,0,0,87,90,136,120,62,110.41,243,59.00,-18.00,-1026.00
2024-06-07 11:33:31.789174,3,1,-148,0,0,0,87,90,136,120,62,110.78,243,59.00,0.00,-1025.00
2024-06-07 11:33:31.820399,3,2,-142,0,0,0,87,90,137,120,62,110.68,243,45.00,-1.00,-1011.00
2024-06-07 11:33:31.994004,4,1,-136,0,0,0,87,90,137,120,62,110.57,243,10.00,-38.00,-948.00
2024-06-07 11:33:32.024572,3,2,-130,0,0,0,87,90,137,120,62,110.97,243,18.00,-61.00,-927.00
2024-06-07 11:33:32.202121,2,3,-124,0,0,0,87,90,138,120,62,110.65,243,5.00,-44.00,-993.00
2024-06-07 11:33:32.228445,2,3,-118,0,0,0,87,90,138,120,62,110.79,244,49.00,-41.00,-1036.00
2024-06-07 11:33:32.403883,1,3,-112,1,0,0,87,90,138,120,62,110.75,244,5.00,-50.00,-956.00
2024-06-07 11:33:32.432361,1,3,-106,0,0,0,87,90,139,120,62,110.88,244,9.00,-52.00,-964.00
2024-06-07 11:33:32.608383,0,3,-99,0,0,0,87,90,138,120,62,110.96,244,40.00,-39.00,-1037.00
2024-06-07 11:33:32.636413,0,3,-93,0,0,0,87,90,140,120,62,110.45,244,-13.00,-36.00,-971.00
2024-06-07 11:33:32.813205,0,3,-87,0,0,0,87,90,139,120,62,110.85,244,0.00,-54.00,-1012.00
2024-06-07 11:33:32.840350,0,3,-81,0,0,0,87,90,141,120,62,110.81,244,-45.00,-9.00,-963.00
2024-06-07 11:33:33.017976,0,3,-75,1,0,0,87,90,139,120,62,110.79,244,-53.00,-26.00,-988.00
2024-06-07 11:33:33.044546,-1,2,-68,1,0,0,87,90,139,120,62,110.80,244,-9.00,-32.00,-1031.00
2024-06-07 11:33:33.226053,-1,2,-62,1,0,0,87,90,138,120,62,110.64,244,-51.00,-13.00,-1024.00
2024-06-07 11:33:33.248318,0,2,-56,1,0,0,87,90,139,120,62,110.81,245,-11.00,-14.00,-1007.00
2024-06-07 11:33:33.428152,-1,1,-50,0,0,0,87,90,139,120,62,111.14,245,-29.00,-46.00,-979.00
2024-06-07 11:33:33.452307,-1,1,-43,0,0,0,87,90,140,120,62,110.69,245,-43.00,-11.00,-960.00
2024-06-07 11:33:33.632406,-1,2,-36,0,0,0,87,90,139,120,62,110.98,245,-13.00,-20.00,-995.00
2024-06-07 11:33:33.656429,-1,2,-30,0,0,0,87,90,139,120,62,110.91,245,-26.00,16.00,-1016.00
2024-06-07 11:33:33.837179,-1,1,-23,0,0,0,87,90,138,120,62,110.79,245,-49.00,-9.00,-968.00
2024-06-07 11:33:33.860817,-1,1,-17,0,0,0,87,90,137,120,62,110.65,245,-33.00,-16.00,-963.00
2024-06-07 11:33:34.045397,-2,1,-10,0,0,0,87,90,136,120,62,110.48,245,-43.00,9.00,-992.00
2024-06-07 11:33:34.069000,-2,1,-5,0,0,0,87,90,136,120,62,111.12,245,-44.00,-15.00,-975.00
2024-06-07 11:33:34.166652,-2,1,0,0,0,0,87,90,135,120,62,110.66,245,-38.00,-9.00,-989.00
2024-06-07 11:33:34.352876,-2,1,2,0,0,0,87,90,135,120,61,110.66,246,-49.00,-3.00,-1033.00
2024-06-07 11:33:34.370492,-2,0,4,0,0,0,87,90,133,120,61,110.84,246,-99.00,34.00,-1016.00
2024-06-07 11:33:34.553942,-2,0,5,0,0,0,87,90,134,120,61,110.59,246,-47.00,1.00,-1074.00
2024-06-07 11:33:34.574339,-2,0,6,0,0,0,87,90,135,120,61,110.70,246,-43.00,20.00,-1013.00
2024-06-07 11:33:34.758774,-2,0,7,0,0,0,87,90,136,120,61,110.75,246,-49.00,1.00,-909.00
2024-06-07 11:33:34.779237,-1,0,8,0,0,0,87,90,136,120,61,110.40,246,-71.00,22.00,-1027.00
2024-06-07 11:33:34.881256,-2,0,9,0,0,0,87,90,136,120,61,110.83,246,-46.00,0.00,-972.00
2024-06-07 11:33:35.070590,-2,0,10,0,0,0,87,90,138,120,61,110.48,246,-73.00,30.00,-979.00
2024-06-07 11:33:35.070827,-3,0,10,0,0,0,87,90,137,120,61,110.69,246,-77.00,24.00,-969.00
2024-06-07 11:33:35.136453,-3,-1,10,0,0,0,87,90,138,120,61,110.65,246,-35.00,36.00,-1048.00
2024-06-07 11:33:35.270916,-3,-1,10,0,0,0,87,90,137,120,61,110.72,247,-79.00,38.00,-974.00
2024-06-07 11:33:35.341158,-2,-1,10,0,0,0,87,90,139,120,61,110.77,247,-48.00,30.00,-998.00
2024-06-07 11:33:35.475673,-2,-1,10,0,0,0,87,90,139,120,61,110.63,247,-76.00,43.00,-1029.00
2024-06-07 11:33:35.545419,-2,-1,10,0,0,0,87,90,138,120,61,110.47,247,-28.00,16.00,-1021.00
2024-06-07 11:33:35.647361,-2,-1,10,0,0,0,87,90,138,120,61,110.52,247,-53.00,5.00,-957.00
2024-06-07 11:33:35.750135,-2,-1,10,0,0,0,87,90,138,120,61,110.79,247,-55.00,8.00,-934.00
2024-06-07 11:33:35.852317,-2,-1,10,0,0,0,87,90,138,120,61,110.80,247,-38.00,-16.00,-1002.00
2024-06-07 11:33:35.987811,-2,-1,10,0,0,0,87,90,137,120,61,110.61,247,-54.00,28.00,-984.00
2024-06-07 11:33:36.055359,-2,0,10,0,0,0,87,90,138,120,61,110.63,247,-21.00,9.00,-996.00
2024-06-07 11:33:36.192450,-2,0,10,0,0,0,87,90,136,120,61,110.76,247,-25.00,21.00,-1044.00
2024-06-07 11:33:36.262533,-2,0,10,0,0,0,87,90,136,120,61,111.03,248,-50.00,11.00,-996.00
2024-06-07 11:33:36.363621,-2,0,10,0,0,0,87,90,136,120,61,110.87,248,-21.00,-26.00,-967.00
2024-06-07 11:33:36.463374,-2,0,10,0,0,0,87,90,137,120,61,110.55,248,-32.00,16.00,-1028.00
2024-06-07 11:33:36.602015,-2,0,10,0,0,0,87,90,138,120,61,110.53,248,-39.00,12.00,-992.00
2024-06-07 11:33:36.667562,-2,0,10,0,0,0,87,90,137,120,61,110.65,248,-49.00,5.00,-1030.00
2024-06-07 11:33:36.806838,-2,0,10,0,0,0,87,90,139,120,61,110.81,248,-70.00,5.00,-927.00
2024-06-07 11:33:36.871332,-2,0,10,0,0,0,87,90,137,120,61,110.60,248,-41.00,13.00,-997.00
2024-06-07 11:33:37.011683,-2,0,10,0,0,0,87,90,139,120,61,110.65,248,-51.00,17.00,-987.00
2024-06-07 11:33:37.075321,-2,0,10,0,0,0,87,90,141,120,61,110.50,248,-64.00,24.00,-1003.00
2024-06-07 11:33:37.177321,-2,0,10,0,0,0,87,90,139,120,61,110.65,248,-22.00,2.00,-1030.00
2024-06-07 11:33:37.319361,-2,0,9,0,0,0,87,90,140,120,61,110.57,249,-49.00,9.00,-992.00
2024-06-07 11:33:37.382000,-2,0,4,0,0,0,87,90,141,120,61,110.92,249,-40.00,-3.00,-991.00
2024-06-07 11:33:37.529011,-2,0,-1,0,0,0,87,90,141,120,61,110.91,249,-26.00,5.00,-982.00
2024-06-07 11:33:37.585155,-2,0,-7,0,0,0,86,89,141,120,61,110.77,249,-21.00,-11.00,-977.00
2024-06-07 11:33:37.733798,-2,0,-13,0,0,0,86,89,142,120,61,110.93,249,-26.00,4.00,-1013.00
2024-06-07 11:33:37.789320,-1,0,-19,0,0,0,86,89,141,120,61,110.95,249,-43.00,6.00,-978.00
2024-06-07 11:33:37.891150,-1,0,-25,0,0,0,86,89,141,120,61,110.92,249,-50.00,-20.00,-979.00
2024-06-07 11:33:38.039645,-1,0,-31,0,0,0,86,89,142,120,61,110.78,249,-24.00,-6.00,-972.00
2024-06-07 11:33:38.095203,-1,0,-37,0,0,0,86,89,141,120,61,110.86,249,-18.00,-15.00,-989.00
2024-06-07 11:33:38.245730,-1,0,-43,0,0,0,86,89,140,120,61,110.91,249,-27.00,-2.00,-1019.00
2024-06-07 11:33:38.299132,-1,1,-49,0,0,0,86,89,139,120,60,110.94,250,-35.00,-20.00,-963.00
2024-06-07 11:33:38.402816,0,1,-55,0,0,0,86,89,140,120,60,110.93,250,-47.00,-28.00,-1004.00
2024-06-07 11:33:38.452105,0,1,-61,0,0,0,86,89,139,120,60,110.78,250,2.00,-21.00,-1011.00
2024-06-07 11:33:38.649989,0,2,-67,0,0,0,87,89,140,120,60,110.69,250,21.00,-15.00,-1066.00
2024-06-07 11:33:38.656134,0,2,-74,0,0,0,87,89,141,120,60,110.77,250,25.00,-33.00,-1017.00
2024-06-07 11:33:38.758198,0,2,-80,0,0,0,87,89,143,120,60,110.90,250,7.00,-11.00,-997.00
2024-06-07 11:33:38.860137,1,2,-86,0,0,0,87,89,141,120,60,111.04,250,-1.00,-31.00,-1018.00
2024-06-07 11:33:38.962143,2,1,-92,0,0,0,87,89,142,120,60,110.98,250,5.00,-44.00,-969.00
2024-06-07 11:33:39.162274,2,1,-98,0,0,0,87,89,142,120,60,110.94,250,29.00,-27.00,-984.00
2024-06-07 11:33:39.166114,3,1,-105,0,0,0,87,89,142,120,60,110.79,250,19.00,-37.00,-952.00
2024-06-07 11:33:39.268278,3,1,-111,0,0,0,87,89,142,120,60,110.61,251,10.00,-42.00,-979.00
2024-06-07 11:33:39.370167,2,1,-117,0,0,0,87,89,140,120,60,110.92,251,37.00,-20.00,-1009.00
2024-06-07 11:33:39.478404,2,1,-123,0,0,0,87,89,140,120,60,110.93,251,47.00,-2.00,-991.00
2024-06-07 11:33:39.574032,3,0,-134,0,0,0,87,89,139,120,60,110.50,251,46.00,-13.00,-957.00
2024-06-07 11:33:39.676124,3,0,-140,0,0,0,87,89,138,120,60,110.61,251,43.00,5.00,-975.00
2024-06-07 11:33:39.777972,3,0,-145,0,0,0,87,89,137,120,60,111.01,251,39.00,18.00,-1025.00
2024-06-07 11:33:39.879980,4,0,-151,0,0,0,87,89,136,120,60,110.68,251,68.00,-21.00,-1008.00
2024-06-07 11:33:40.086988,4,0,-157,0,0,0,87,89,135,120,60,110.88,251,24.00,14.00,-1005.00
2024-06-07 11:33:40.087169,4,0,-164,0,0,0,87,89,134,120,60,110.94,251,53.00,17.00,-1012.00
2024-06-07 11:33:40.185970,4,0,-170,0,0,0,87,89,134,120,60,111.23,252,36.00,5.00,-1036.00
2024-06-07 11:33:40.288264,4,0,-177,0,0,0,87,89,132,120,60,110.55,252,38.00,25.00,-1019.00
2024-06-07 11:33:40.390490,4,0,176,0,0,0,87,89,133,110,60,110.68,252,6.00,46.00,-969.00
2024-06-07 11:33:40.492761,3,-1,170,0,0,0,87,89,134,110,60,110.53,252,49.00,50.00,-993.00
2024-06-07 11:33:40.599699,2,-2,163,0,0,0,87,90,132,110,60,110.74,252,25.00,40.00,-1002.00
2024-06-07 11:33:40.697563,2,-3,157,0,0,0,87,90,133,110,60,110.78,252,28.00,39.00,-1024.00
2024-06-07 11:33:40.800648,2,-2,151,0,0,0,87,90,133,110,60,111.10,252,25.00,42.00,-1020.00
2024-06-07 11:33:40.900941,2,-2,144,0,0,0,87,90,132,120,60,110.84,252,19.00,60.00,-982.00
2024-06-07 11:33:41.008665,1,-2,138,0,0,0,87,90,132,120,60,110.93,252,6.00,84.00,-1010.00
2024-06-07 11:33:41.104932,1,-3,131,0,0,0,87,90,133,120,60,110.36,252,-7.00,49.00,-1018.00
2024-06-07 11:33:41.213528,0,-3,125,0,0,0,87,90,133,120,60,110.60,253,10.00,59.00,-1047.00
2024-06-07 11:33:41.308970,0,-3,119,0,0,0,87,90,133,120,60,110.55,253,-57.00,56.00,-985.00
2024-06-07 11:33:41.410981,0,-3,113,0,0,0,87,90,133,120,60,110.87,253,13.00,59.00,-992.00
2024-06-07 11:33:41.517090,0,-3,107,0,0,0,87,90,134,120,60,110.61,253,0.00,58.00,-972.00
2024-06-07 11:33:41.615173,-1,-3,101,0,0,0,87,90,133,120,60,110.89,253,-23.00,55.00,-941.00
2024-06-07 11:33:41.716840,0,-3,95,0,0,0,87,90,134,120,60,110.54,253,-30.00,50.00,-976.00
2024-06-07 11:33:41.819011,0,-3,88,0,0,0,87,90,135,120,60,110.65,253,-23.00,50.00,-998.00
2024-06-07 11:33:41.920848,-1,-3,82,0,0,0,87,90,134,120,60,110.57,253,-19.00,40.00,-992.00
2024-06-07 11:33:42.034736,-1,-3,76,0,0,0,87,90,136,120,60,110.78,253,-40.00,45.00,-987.00
2024-06-07 11:33:42.125018,-2,-2,70,0,0,0,87,90,136,120,60,110.72,253,-38.00,57.00,-1014.00
2024-06-07 11:33:42.233907,-2,-2,64,0,0,0,87,90,136,120,60,110.68,254,-41.00,40.00,-1000.00
2024-06-07 11:33:42.328824,-2,-2,59,0,0,0,87,90,134,120,60,110.48,254,-27.00,27.00,-972.00
2024-06-07 11:33:42.380841,-2,-2,53,0,0,0,87,90,138,120,60,110.67,254,-66.00,69.00,-996.00
2024-06-07 11:33:42.482821,-2,-2,47,0,0,0,87,90,135,120,60,110.42,254,-79.00,13.00,-962.00
2024-06-07 11:33:42.643522,-3,-2,41,0,0,0,87,90,136,120,60,110.55,254,-50.00,69.00,-1016.00
2024-06-07 11:33:42.686804,-3,-2,36,0,0,0,87,90,136,120,60,110.59,254,-67.00,20.00,-989.00
2024-06-07 11:33:42.848297,-3,-1,30,0,0,0,87,90,137,120,60,110.80,254,-58.00,26.00,-1008.00
2024-06-07 11:33:42.890779,-3,-1,25,0,0,0,87,90,137,120,60,110.84,254,-78.00,6.00,-1005.00
2024-06-07 11:33:43.053080,-3,-1,22,0,0,0,87,90,137,120,60,110.67,254,-83.00,20.00,-975.00
2024-06-07 11:33:43.096466,-3,-1,19,0,0,0,87,90,138,120,60,110.63,254,-75.00,31.00,-981.00
2024-06-07 11:33:43.196900,-4,-1,17,0,0,0,87,90,138,120,60,110.58,255,-60.00,27.00,-985.00
2024-06-07 11:33:43.360261,-4,-1,15,0,0,0,87,90,138,120,60,110.75,255,-82.00,12.00,-1006.00
2024-06-07 11:33:43.400977,-4,-1,14,0,0,0,87,90,138,120,60,110.55,255,-68.00,32.00,-965.00
2024-06-07 11:33:43.565066,-4,-1,13,0,0,0,87,90,139,120,60,110.51,255,-70.00,46.00,-1033.00
2024-06-07 11:33:43.605009,-4,-1,12,0,0,0,87,89,139,120,60,110.83,255,-69.00,8.00,-992.00
2024-06-07 11:33:43.707316,-4,-1,12,0,0,0,87,89,140,120,60,110.45,255,-79.00,35.00,-1012.00
2024-06-07 11:33:43.808852,-4,0,12,0,0,0,87,89,138,120,60,110.63,255,-87.00,8.00,-1010.00
2024-06-07 11:33:43.978416,-4,0,12,0,0,0,87,89,139,120,60,110.51,255,-97.00,35.00,-987.00
2024-06-07 11:33:44.012905,-4,-1,12,0,0,0,87,89,139,120,60,110.51,255,-91.00,11.00,-975.00
2024-06-07 11:33:44.179594,-5,-1,12,0,0,0,87,89,140,120,60,110.70,255,-82.00,2.00,-1048.00
2024-06-07 11:33:44.216765,-5,0,12,0,0,0,87,89,139,120,60,110.43,256,-112.00,28.00,-968.00
2024-06-07 11:33:44.384404,-6,0,12,0,0,0,87,89,139,120,60,110.48,256,-134.00,-20.00,-940.00
2024-06-07 11:33:44.420772,-6,0,12,0,0,0,87,89,138,120,60,110.58,256,-145.00,31.00,-989.00
2024-06-07 11:33:44.589372,-7,0,12,0,0,0,87,89,138,120,60,110.59,256,-99.00,33.00,-998.00
2024-06-07 11:33:44.625582,-6,-1,12,0,0,0,87,90,138,120,60,110.62,256,-77.00,7.00,-937.00
2024-06-07 11:33:44.726879,-6,0,12,0,0,0,87,90,137,120,60,110.34,256,-62.00,30.00,-1014.00
2024-06-07 11:33:44.828992,-5,0,12,0,0,0,87,90,137,120,60,110.29,256,-136.00,-19.00,-1031.00
2024-06-07 11:33:44.930856,-5,0,12,0,0,0,87,90,137,120,60,110.28,256,-134.00,-21.00,-1020.00
2024-06-07 11:33:45.106030,-5,1,12,0,0,0,87,90,136,120,60,110.39,256,-106.00,10.00,-940.00
2024-06-07 11:33:45.134945,-4,1,12,0,0,0,87,90,136,120,60,110.27,256,-89.00,38.00,-1033.00
2024-06-07 11:33:45.239558,-4,0,12,0,0,0,87,90,136,120,60,110.60,257,-108.00,-21.00,-1019.00
2024-06-07 11:33:45.339343,-4,-1,12,0,0,0,87,90,136,120,59,110.69,257,-121.00,0.00,-987.00
2024-06-07 11:33:45.440827,-5,0,12,0,0,0,87,90,136,120,59,110.64,257,-127.00,0.00,-1034.00
2024-06-07 11:33:45.608334,-5,0,12,0,0,0,87,90,136,120,59,110.68,257,-142.00,0.00,-980.00
2024-06-07 11:33:45.644703,-6,0,12,0,0,0,87,90,137,120,59,110.38,257,-94.00,3.00,-1013.00
2024-06-07 11:33:45.747127,-6,0,12,0,0,0,87,90,137,120,59,110.28,257,-64.00,6.00,-968.00
2024-06-07 11:33:45.801501,-1,-4,13,0,0,-2,87,90,139,120,59,110.37,257,-124.00,25.00,-1629.00
2024-06-07 11:33:45.901836,0,-7,13,-1,-2,-9,87,90,147,120,59,110.80,257,-107.00,49.00,-1431.00
2024-06-07 11:33:46.002032,1,-68,14,-1,-7,-11,87,90,445,130,59,110.97,257,-75.00,462.00,-1003.00
2024-06-07 11:33:46.129078,0,167,10,0,-14,0,87,90,6553,140,59,110.76,257,-69.00,628.00,-1026.00
2024-06-07 11:33:46.210856,-3,48,16,-1,-10,13,87,90,196,140,59,110.97,258,-34.00,572.00,-1280.00
2024-06-07 11:33:46.312495,4,-9,22,-4,-7,12,87,90,141,120,59,110.38,258,-143.00,-104.00,-1582.00
2024-06-07 11:33:46.415491,0,0,26,-5,-8,9,87,90,128,110,59,110.61,258,-101.00,90.00,-1456.00
2024-06-07 11:33:46.516142,-7,4,26,-5,-7,5,87,90,125,100,59,110.40,258,-107.00,91.00,-1371.00
2024-06-07 11:33:46.613641,-8,2,20,-5,-5,1,87,90,123,100,59,110.45,258,-67.00,94.00,-1418.00
2024-06-07 11:33:46.739431,-6,1,12,-4,-4,0,87,90,123,100,59,110.23,258,-95.00,89.00,-1306.00
2024-06-07 11:33:46.817613,-5,0,11,-4,-4,-1,87,90,125,100,59,110.79,258,-32.00,35.00,-1187.00
2024-06-07 11:33:46.944291,-6,0,11,-3,-4,-2,87,90,127,100,59,110.38,258,-62.00,4.00,-1138.00
2024-06-07 11:33:47.021607,-6,1,12,-3,-4,-2,87,90,132,100,59,110.52,258,-71.00,6.00,-1123.00
2024-06-07 11:33:47.149438,-6,2,12,-3,-3,-2,87,90,135,110,59,110.07,258,-74.00,-7.00,-1015.00
2024-06-07 11:33:47.225632,-6,2,12,-3,-3,-1,87,90,137,110,59,110.60,259,-91.00,-9.00,-984.00
2024-06-07 11:33:47.358239,-6,2,12,-2,-2,-1,87,90,138,110,59,110.39,259,-86.00,19.00,-927.00
2024-06-07 11:33:47.429710,-6,1,12,-2,-2,0,87,90,140,110,59,110.62,259,-75.00,2.00,-935.00
2024-06-07 11:33:47.558683,-6,1,12,-2,-2,0,87,90,141,110,59,110.66,259,-98.00,7.00,-934.00
2024-06-07 11:33:47.633605,-6,1,12,-2,-2,0,87,90,140,110,59,110.54,259,-98.00,2.00,-1001.00
2024-06-07 11:33:47.763732,-6,1,12,-2,-2,0,87,90,141,120,59,110.30,259,-111.00,18.00,-1080.00
2024-06-07 11:33:47.837581,-6,2,12,-2,-2,0,87,90,140,120,59,110.85,259,-83.00,0.00,-989.00
2024-06-07 11:33:47.974201,-6,2,12,-2,-2,0,87,90,142,120,59,110.65,259,-126.00,20.00,-1006.00
2024-06-07 11:33:48.041782,-6,2,12,-2,-2,0,87,90,141,120,59,110.41,259,-50.00,25.00,-1036.00
2024-06-07 11:33:48.173116,-6,2,12,-1,-1,0,87,90,141,120,59,110.62,259,-59.00,-4.00,-915.00
2024-06-07 11:33:48.245569,-5,2,12,-1,-1,0,87,90,139,120,58,110.46,260,-62.00,-9.00,-1023.00
2024-06-07 11:33:48.377941,-5,1,12,-1,-1,0,87,90,140,120,58,110.51,260,-104.00,-6.00,-1055.00
2024-06-07 11:33:48.449510,-5,2,12,-1,-1,0,87,90,139,120,58,110.38,260,-64.00,-21.00,-1013.00
2024-06-07 11:33:48.582721,-5,3,12,0,0,0,87,90,139,120,58,110.61,260,-60.00,0.00,-1006.00
2024-06-07 11:33:48.653473,-5,2,12,0,0,0,87,90,140,120,58,110.32,260,-54.00,1.00,-1077.00
2024-06-07 11:33:48.787501,-4,2,12,0,0,0,87,90,141,120,58,110.45,260,-75.00,-24.00,-986.00
2024-06-07 11:33:48.857527,-4,2,12,0,0,0,87,90,142,120,58,110.28,260,-69.00,-7.00,-999.00
2024-06-07 11:33:48.963187,-3,2,12,0,0,0,87,90,140,120,58,110.29,260,-61.00,-7.00,-1013.00
2024-06-07 11:33:49.061540,-3,2,12,0,0,0,87,90,140,120,58,110.31,260,-73.00,-1.00,-991.00
2024-06-07 11:33:49.197096,-4,2,12,0,0,0,87,90,140,120,58,110.18,260,-92.00,-35.00,-1029.00
2024-06-07 11:33:49.266882,-4,2,12,0,0,0,87,90,139,120,58,110.16,261,-106.00,-32.00,-1011.00
2024-06-07 11:33:49.402349,-3,3,12,0,0,0,87,90,138,120,58,110.49,261,-125.00,-27.00,-990.00
2024-06-07 11:33:49.418857,-4,3,12,0,0,0,87,90,138,120,58,110.71,261,-62.00,-24.00,-990.00
2024-06-07 11:33:49.520697,-4,3,12,0,0,0,87,90,138,120,58,110.26,261,-81.00,-14.00,-985.00
2024-06-07 11:33:49.709450,-4,2,12,0,0,0,88,90,137,120,58,110.48,261,-83.00,-14.00,-990.00
2024-06-07 11:33:49.775550,-4,2,12,0,0,0,88,90,135,110,58,110.56,261,-64.00,-18.00,-987.00
2024-06-07 11:33:49.826874,-3,2,12,0,0,0,88,90,135,110,58,110.07,261,-37.00,-14.00,-1014.00
2024-06-07 11:33:49.929124,-3,2,12,0,0,0,88,90,135,110,58,110.13,261,-83.00,-20.00,-958.00
2024-06-07 11:33:50.031101,-3,2,12,0,0,0,88,90,133,110,58,110.30,261,-87.00,-2.00,-1013.00
2024-06-07 11:33:50.133276,-3,1,12,0,0,0,88,90,132,110,58,110.41,261,-80.00,-19.00,-1009.00
2024-06-07 11:33:50.234474,-4,1,12,0,1,0,88,90,132,110,58,110.49,262,-73.00,1.00,-1037.00
2024-06-07 11:33:50.336861,-4,0,12,0,1,0,88,90,131,110,58,110.14,262,-75.00,-2.00,-1019.00
2024-06-07 11:33:50.438472,-4,0,12,0,0,0,88,90,131,110,58,110.35,262,-60.00,-15.00,-1010.00
2024-06-07 11:33:50.630806,-4,1,12,0,0,0,88,90,132,110,58,110.32,262,-60.00,34.00,-1032.00
2024-06-07 11:33:50.642506,-4,1,12,0,1,0,87,90,132,110,58,110.65,262,-75.00,-12.00,-999.00
2024-06-07 11:33:50.835962,-4,0,12,0,1,0,87,90,133,110,58,110.47,262,-79.00,5.00,-1006.00
2024-06-07 11:33:50.846538,-4,0,12,0,1,0,87,90,135,110,58,110.50,262,-62.00,-4.00,-956.00
2024-06-07 11:33:51.040864,-4,0,12,0,1,0,87,90,135,110,58,110.11,262,-80.00,-7.00,-949.00
2024-06-07 11:33:51.050434,-3,0,12,0,1,0,87,90,136,110,58,110.56,262,-61.00,17.00,-971.00
2024-06-07 11:33:51.245227,-4,0,12,0,1,0,87,90,137,110,58,110.50,262,-56.00,-7.00,-979.00
2024-06-07 11:33:51.254407,-4,0,12,0,1,0,87,90,139,110,58,110.17,263,-86.00,49.00,-1009.00
2024-06-07 11:33:51.449865,-4,-1,12,0,1,0,87,90,140,110,58,110.43,263,-75.00,33.00,-1013.00
2024-06-07 11:33:51.458361,-4,-1,12,0,1,0,87,90,141,120,58,110.45,263,-75.00,21.00,-975.00
2024-06-07 11:33:51.671362,-4,-1,12,0,0,0,87,90,142,120,58,110.36,263,-68.00,8.00,-981.00
2024-06-07 11:33:51.671565,-5,0,12,0,0,0,86,90,143,120,58,110.52,263,-50.00,26.00,-1010.00
2024-06-07 11:33:51.764447,-4,0,12,0,0,0,86,90,143,120,58,110.50,263,-39.00,16.00,-1028.00
2024-06-07 11:33:51.866414,-4,0,12,0,0,0,86,90,144,120,58,110.50,263,-56.00,12.00,-999.00
2024-06-07 11:33:51.970156,-4,-1,12,0,0,0,86,90,144,120,58,111.06,263,-65.00,11.00,-977.00
2024-06-07 11:33:52.070477,-3,-1,12,0,0,0,86,90,144,120,58,110.59,263,-83.00,7.00,-950.00
2024-06-07 11:33:52.200519,-3,-1,12,0,0,0,86,90,143,120,58,110.51,263,-62.00,0.00,-961.00
2024-06-07 11:33:52.274252,-3,-1,12,0,0,0,86,90,143,120,57,110.18,264,-82.00,39.00,-987.00
2024-06-07 11:33:52.376247,-3,0,12,0,0,0,86,90,142,120,57,110.24,264,-92.00,27.00,-1467.00
2024-06-07 11:33:52.479411,0,2,12,0,1,-3,86,90,147,120,57,110.51,264,-97.00,61.00,-1695.00
2024-06-07 11:33:52.580345,0,7,12,-1,2,-10,86,90,202,130,57,110.66,264,-84.00,99.00,-1879.00
2024-06-07 11:33:52.683580,1,80,13,-4,7,-13,87,90,6553,140,57,110.73,264,-76.00,836.00,-1562.00
2024-06-07 11:33:52.785194,0,-151,14,-6,13,2,87,90,531,150,57,110.54,264,-50.00,695.00,-918.00
2024-06-07 11:33:52.887223,-1,-34,10,-4,6,12,87,90,151,140,57,110.38,264,-97.00,364.00,-1098.00
2024-06-07 11:33:52.989134,3,7,8,-5,5,10,87,90,137,130,57,110.53,264,-102.00,-48.00,-1412.00
2024-06-07 11:33:53.091215,-1,-4,7,-7,6,6,87,90,132,120,57,110.69,264,-48.00,-63.00,-1356.00
2024-06-07 11:33:53.193201,-5,-6,10,-6,4,3,87,90,129,120,57,109.99,264,-128.00,1.00,-1254.00
2024-06-07 11:33:53.295220,-6,-4,12,-6,3,0,87,90,127,110,57,110.34,265,-63.00,12.00,-1179.00
2024-06-07 11:33:53.346202,-6,-2,12,-5,3,0,87,90,126,110,57,110.49,265,-89.00,-18.00,-1100.00
2024-06-07 11:33:53.448355,-5,-2,12,-4,2,-1,87,90,127,110,57,110.29,265,-65.00,15.00,-1038.00
2024-06-07 11:33:53.605596,-5,-1,12,-3,2,-2,87,90,128,110,57,110.61,265,-23.00,-21.00,-1014.00
2024-06-07 11:33:53.652211,-4,-1,12,-3,2,-2,87,90,129,120,57,110.24,265,-83.00,-8.00,-956.00
2024-06-07 11:33:53.809174,-4,-1,12,-3,1,-1,87,90,129,120,57,110.65,265,-58.00,-6.00,-937.00
2024-06-07 11:33:53.856132,-4,-1,12,-2,1,-1,87,90,132,120,57,110.83,265,-57.00,4.00,-986.00
2024-06-07 11:33:54.009849,-4,-2,12,-2,1,-1,87,90,131,120,57,110.70,265,-35.00,-2.00,-1003.00
2024-06-07 11:33:54.060190,-3,-2,12,-2,1,0,87,90,130,120,57,110.21,265,-49.00,23.00,-1000.00
2024-06-07 11:33:54.162292,-3,-2,12,-2,1,0,87,90,131,120,57,110.48,265,-35.00,22.00,-1000.00
2024-06-07 11:33:54.264225,-3,-2,12,-1,1,0,87,90,131,120,57,110.53,266,-46.00,12.00,-991.00
2024-06-07 11:33:54.419438,-3,-2,12,-1,1,0,87,90,131,120,57,110.38,266,-38.00,27.00,-981.00
2024-06-07 11:33:54.468189,-3,-3,12,-1,1,0,87,90,131,120,57,110.34,266,-41.00,27.00,-1019.00
2024-06-07 11:33:54.635858,-3,-3,12,-1,1,0,87,90,133,120,57,110.53,266,-64.00,24.00,-962.00
2024-06-07 11:33:54.672207,-4,-5,12,-1,1,0,87,91,131,120,57,110.40,266,-61.00,0.00,-985.00
2024-06-07 11:33:54.829016,-4,-5,12,-1,1,0,87,91,130,120,57,110.14,266,-58.00,25.00,-1046.00
2024-06-07 11:33:54.876192,-3,-5,12,0,0,0,87,91,132,120,57,110.48,266,-85.00,26.00,-1010.00
2024-06-07 11:33:55.033801,-4,-4,12,0,0,0,87,91,132,120,57,110.38,266,-91.00,36.00,-975.00
2024-06-07 11:33:55.080151,-4,-4,12,0,0,0,87,91,132,120,57,110.56,266,-66.00,19.00,-975.00
2024-06-07 11:33:55.238653,-4,-4,12,0,0,0,87,91,132,120,57,110.50,266,-49.00,21.00,-951.00
2024-06-07 11:33:55.284140,-4,-3,12,0,0,0,87,91,134,120,57,110.32,267,-76.00,15.00,-1016.00
2024-06-07 11:33:55.448782,-4,-3,12,0,0,0,87,91,133,120,57,110.51,267,-70.00,26.00,-1005.00
2024-06-07 11:33:55.488046,-4,-3,12,0,0,0,87,91,133,120,57,110.07,267,-98.00,46.00,-961.00
2024-06-07 11:33:55.590122,-4,-2,12,0,0,0,87,91,131,120,57,110.25,267,-49.00,33.00,-982.00
2024-06-07 11:33:55.692107,-4,-2,12,0,0,0,87,89,131,120,57,110.41,267,-55.00,14.00,-1000.00
2024-06-07 11:33:55.817890,-4,-2,12,0,0,0,87,89,132,120,57,110.41,267,-77.00,24.00,-986.00
2024-06-07 11:33:55.896248,-4,-2,12,0,0,0,87,89,131,120,57,110.42,267,-83.00,2.00,-1017.00
2024-06-07 11:33:56.058218,-3,-2,12,0,0,0,87,89,130,120,57,110.18,267,-78.00,20.00,-990.00
2024-06-07 11:33:56.100114,-3,-2,12,0,0,0,87,89,130,120,57,110.47,267,-45.00,30.00,-963.00
2024-06-07 11:33:56.265718,-4,-2,12,0,0,0,87,89,128,120,57,110.20,267,-101.00,76.00,-1001.00
2024-06-07 11:33:56.304161,-4,-2,12,0,0,0,87,89,130,120,56,109.94,268,-83.00,26.00,-989.00
2024-06-07 11:33:56.472363,-4,-2,12,0,0,0,87,89,129,120,56,110.26,268,-64.00,45.00,-1013.00
2024-06-07 11:33:56.472546,-4,-3,12,0,0,0,87,89,130,110,56,110.20,268,-68.00,58.00,-967.00
2024-06-07 11:33:56.559215,-4,-3,12,0,0,0,87,89,131,110,56,109.87,268,-83.00,58.00,-991.00
2024-06-07 11:33:56.712173,-4,-3,12,0,0,0,87,91,129,110,56,110.15,268,-86.00,33.00,-1041.00
