TS,pitch,roll,yaw,vgx,vgy,vgz,templ,temph,tof,h,bat,baro,time,agx,agy,agz
2024-05-17 16:33:56.088378,0,0,3,0,0,0,86,88,10,0,68,165.07,152,19.00,5.00,-1001.00
2024-05-17 16:33:56.088556,0,0,3,0,0,0,86,88,10,0,68,165.27,152,18.00,6.00,-999.00
2024-05-17 16:33:56.145330,0,0,3,0,0,0,86,88,10,0,68,165.18,152,18.00,5.00,-998.00
2024-05-17 16:33:56.293616,0,0,3,0,0,0,86,88,10,0,68,165.26,152,20.00,5.00,-998.00
2024-05-17 16:33:56.349362,0,0,3,0,0,0,86,88,10,0,68,165.23,152,19.00,5.00,-1001.00
2024-05-17 16:33:56.498613,0,0,3,0,0,0,86,88,10,0,68,165.11,152,18.00,5.00,-999.00
2024-05-17 16:33:56.553514,0,0,3,0,0,0,86,88,10,0,68,165.33,152,20.00,4.00,-1000.00
2024-05-17 16:33:56.704693,0,0,3,0,0,0,86,88,10,0,68,165.41,152,19.00,6.00,-1000.00
2024-05-17 16:33:56.757419,0,0,3,0,0,0,86,88,10,0,68,165.35,152,19.00,5.00,-997.00
2024-05-17 16:33:56.908467,0,0,3,0,0,0,86,88,10,0,68,165.17,152,20.00,4.00,-999.00
2024-05-17 16:33:56.961559,0,0,3,0,0,0,86,88,10,0,68,165.46,152,19.00,5.00,-1000.00
2024-05-17 16:33:57.113884,0,0,3,0,0,0,86,88,10,0,68,165.46,152,18.00,4.00,-1000.00
2024-05-17 16:33:57.166457,0,0,3,0,0,0,86,88,10,0,67,165.18,152,20.00,5.00,-1001.00
2024-05-17 16:33:57.320619,0,0,3,0,0,0,86,88,10,0,67,165.26,152,19.00,4.00,-997.00
2024-05-17 16:33:57.369410,0,0,3,0,0,0,86,88,10,0,67,165.38,152,18.00,4.00,-999.00
2024-05-17 16:33:57.522190,0,0,3,0,0,0,86,88,10,0,67,165.20,152,20.00,6.00,-1000.00
2024-05-17 16:33:57.573269,0,0,4,0,0,0,86,88,10,0,67,165.36,152,20.00,4.00,-1000.00
2024-05-17 16:33:57.727338,0,0,3,0,0,0,86,88,10,0,67,165.16,152,17.00,5.00,-999.00
2024-05-17 16:33:57.777328,0,0,3,0,0,0,86,88,10,0,67,165.41,152,18.00,5.00,-1000.00
2024-05-17 16:33:57.932770,0,0,4,0,0,0,86,88,10,0,67,165.13,152,19.00,6.00,-999.00
2024-05-17 16:33:57.981513,0,0,4,0,0,0,86,88,10,0,67,165.07,152,17.00,4.00,-1000.00
2024-05-17 16:33:58.136560,0,0,4,0,0,0,86,88,10,0,67,165.21,152,18.00,6.00,-1000.00
2024-05-17 16:33:58.186302,0,0,4,0,0,0,86,88,10,0,67,165.40,152,19.00,6.00,-1002.00
2024-05-17 16:33:58.341303,0,0,4,0,0,0,86,88,10,0,67,165.15,152,19.00,4.00,-998.00
2024-05-17 16:33:58.389302,0,0,4,0,0,0,86,88,10,0,67,165.71,152,19.00,5.00,-999.00
2024-05-17 16:33:58.491277,0,0,4,0,0,0,86,88,10,0,67,165.35,152,18.00,5.00,-997.00
2024-05-17 16:33:58.648585,0,0,4,0,0,0,86,88,10,0,67,165.24,152,20.00,5.00,-1002.00
2024-05-17 16:33:58.695379,0,0,4,0,0,0,86,88,10,0,67,165.53,152,20.00,4.00,-999.00
2024-05-17 16:33:58.853600,0,0,4,0,0,0,86,88,10,0,67,165.14,152,18.00,4.00,-1002.00
2024-05-17 16:33:58.899341,0,0,3,0,0,0,86,88,10,0,67,165.26,152,19.00,5.00,-1001.00
2024-05-17 16:33:59.060783,0,0,4,0,0,0,86,88,10,0,67,165.30,152,19.00,5.00,-996.00
2024-05-17 16:33:59.061030,0,0,4,0,0,0,86,88,10,0,67,165.16,152,20.00,5.00,-998.00
2024-05-17 16:33:59.155095,0,0,4,0,0,0,86,88,10,0,67,165.05,152,20.00,6.00,-1000.00
2024-05-17 16:33:59.255910,0,0,4,0,0,0,86,88,10,0,67,165.36,152,19.00,5.00,-998.00
2024-05-17 16:33:59.365425,0,0,4,0,0,0,86,88,10,0,67,165.32,152,20.00,3.00,-1001.00
2024-05-17 16:33:59.460009,0,0,4,0,0,0,86,88,10,0,67,165.28,152,19.00,5.00,-998.00
2024-05-17 16:33:59.570164,0,0,4,0,0,0,86,88,10,0,67,164.87,152,20.00,3.00,-999.00
2024-05-17 16:33:59.664992,0,0,4,0,0,0,86,88,10,0,67,165.28,152,20.00,6.00,-1000.00
2024-05-17 16:33:59.766034,0,0,4,0,0,0,86,88,10,0,67,165.15,152,17.00,5.00,-1000.00
2024-05-17 16:33:59.877477,0,0,4,0,0,0,86,88,10,0,67,165.45,152,19.00,4.00,-1000.00
2024-05-17 16:33:59.971262,0,0,4,0,0,0,86,88,10,0,67,165.48,152,20.00,6.00,-1000.00
2024-05-17 16:34:00.079920,0,0,4,0,0,0,86,88,10,0,67,165.22,152,19.00,5.00,-1000.00
2024-05-17 16:34:00.175076,0,0,4,0,0,0,86,88,10,0,67,165.35,152,18.00,5.00,-1000.00
2024-05-17 16:34:00.286793,0,0,4,0,0,0,86,88,10,0,67,165.35,152,6.00,14.00,-1000.00
2024-05-17 16:34:00.379048,0,0,4,0,0,0,86,88,10,0,67,165.35,153,-47.00,7.00,-1020.00
2024-05-17 16:34:00.480960,1,0,3,0,0,0,86,88,10,0,67,165.35,153,40.00,-31.00,-1018.00
2024-05-17 16:34:00.594120,0,0,3,0,0,0,86,88,10,0,67,165.35,153,9.00,3.00,-1069.00
2024-05-17 16:34:00.685192,0,0,3,0,0,0,87,88,10,0,67,165.35,153,-26.00,39.00,-1113.00
2024-05-17 16:34:00.798828,0,-1,3,0,0,-1,87,88,10,0,67,165.35,153,-76.00,17.00,-1145.00
2024-05-17 16:34:00.889288,0,0,3,0,0,-4,87,88,10,0,67,165.35,153,-80.00,18.00,-1309.00
2024-05-17 16:34:00.991028,-1,0,3,0,0,-6,87,88,21,0,67,165.35,153,-14.00,-50.00,-1492.00
2024-05-17 16:34:01.106338,0,0,3,0,0,-8,87,88,29,0,67,165.35,153,-43.00,10.00,-1064.00
2024-05-17 16:34:01.195302,0,0,3,0,0,-7,87,88,37,10,67,165.53,153,88.00,0.00,-1043.00
2024-05-17 16:34:01.312408,0,0,3,0,0,-7,87,88,43,20,67,165.64,153,13.00,22.00,-885.00
2024-05-17 16:34:01.402546,0,0,3,0,0,-6,87,88,50,30,67,166.22,154,-29.00,8.00,-915.00
2024-05-17 16:34:01.504064,0,0,3,0,0,-5,87,88,57,30,67,165.81,154,-5.00,10.00,-866.00
2024-05-17 16:34:01.603089,0,0,3,0,0,-4,87,88,58,30,67,165.70,154,71.00,-51.00,-870.00
2024-05-17 16:34:01.720401,0,0,3,0,0,-3,88,89,60,40,67,165.80,154,40.00,14.00,-844.00
2024-05-17 16:34:01.807113,0,0,3,0,0,-1,88,89,63,40,67,166.02,154,-18.00,-34.00,-955.00
2024-05-17 16:34:01.909407,0,0,3,0,0,-1,88,89,65,40,67,166.26,154,-35.00,7.00,-942.00
2024-05-17 16:34:02.029467,0,0,3,0,0,0,88,89,66,40,67,165.92,154,43.00,-2.00,-1144.00
2024-05-17 16:34:02.113163,0,0,3,0,0,0,88,89,67,40,67,165.91,154,-32.00,-13.00,-941.00
2024-05-17 16:34:02.232538,0,0,3,0,0,0,88,89,68,40,67,166.13,154,5.00,5.00,-992.00
2024-05-17 16:34:02.316960,0,0,3,0,0,0,88,89,69,40,67,166.22,154,12.00,16.00,-1011.00
2024-05-17 16:34:02.437179,0,0,3,0,0,0,88,89,70,40,67,165.97,155,22.00,-8.00,-1020.00
2024-05-17 16:34:02.470681,0,0,3,0,0,0,88,89,71,40,67,166.04,155,-30.00,-3.00,-963.00
2024-05-17 16:34:02.646489,0,0,3,0,0,0,88,89,72,40,67,166.10,155,-34.00,46.00,-1024.00
2024-05-17 16:34:02.674937,0,0,3,0,0,-1,87,89,73,40,67,166.06,155,-90.00,28.00,-919.00
2024-05-17 16:34:02.846797,0,0,3,0,0,0,87,89,74,40,67,166.15,155,-20.00,-18.00,-1061.00
2024-05-17 16:34:02.879200,0,0,3,0,0,-1,87,89,74,40,67,166.10,155,39.00,-26.00,-993.00
2024-05-17 16:34:03.054020,0,0,3,0,0,0,87,89,75,50,67,166.20,155,33.00,-27.00,-983.00
2024-05-17 16:34:03.082910,1,0,3,0,0,-1,87,89,75,50,67,165.82,155,29.00,-12.00,-900.00
2024-05-17 16:34:03.256371,2,0,3,0,0,0,87,89,76,50,67,166.16,155,11.00,15.00,-897.00
2024-05-17 16:34:03.297923,2,0,3,0,0,0,87,89,75,50,67,166.00,155,-14.00,24.00,-995.00
2024-05-17 16:34:03.388869,2,0,3,0,0,0,87,89,75,50,67,166.05,156,-2.00,18.00,-961.00
2024-05-17 16:34:03.563627,1,0,3,0,0,0,87,89,76,50,67,166.26,156,6.00,-2.00,-1024.00
2024-05-17 16:34:03.592911,1,0,3,0,0,0,87,89,77,50,67,166.25,156,30.00,17.00,-1067.00
2024-05-17 16:34:03.768369,1,0,3,0,0,0,86,89,77,50,67,166.13,156,36.00,-14.00,-995.00
2024-05-17 16:34:03.797165,0,0,3,0,0,0,86,89,78,50,67,165.78,156,12.00,0.00,-1024.00
2024-05-17 16:34:03.898988,0,0,3,0,0,0,86,89,79,50,67,166.01,156,-3.00,13.00,-912.00
2024-05-17 16:34:04.001718,0,0,3,0,0,0,86,89,80,50,67,166.24,156,38.00,-31.00,-1063.00
2024-05-17 16:34:04.102853,1,0,3,0,0,0,86,89,81,50,67,166.06,156,43.00,-19.00,-987.00
2024-05-17 16:34:04.280378,1,0,3,0,0,0,86,89,82,50,67,166.20,156,5.00,21.00,-929.00
2024-05-17 16:34:04.307246,1,0,3,0,0,0,86,89,83,50,67,166.26,156,16.00,10.00,-1059.00
2024-05-17 16:34:04.485179,0,0,3,0,0,0,86,89,85,50,67,166.20,157,-26.00,-6.00,-978.00
2024-05-17 16:34:04.510795,-1,-1,3,0,0,0,86,89,87,50,67,166.13,157,-44.00,38.00,-953.00
2024-05-17 16:34:04.690023,0,-1,3,0,0,0,86,89,87,50,67,165.85,157,28.00,-17.00,-1000.00
2024-05-17 16:34:04.714762,0,0,3,0,0,0,86,88,86,50,67,166.28,157,43.00,-27.00,-945.00
2024-05-17 16:34:04.817791,0,0,3,0,0,0,86,88,82,60,67,166.01,157,-21.00,-3.00,-1060.00
2024-05-17 16:34:04.918824,1,0,3,0,0,0,86,88,81,50,67,165.98,157,-2.00,-4.00,-989.00
2024-05-17 16:34:05.099561,1,0,3,0,0,0,86,88,80,50,67,166.08,157,1.00,24.00,-944.00
2024-05-17 16:34:05.123168,1,0,3,0,0,0,86,88,78,50,67,165.93,157,8.00,1.00,-1036.00
2024-05-17 16:34:05.226672,1,-1,3,0,0,0,86,88,76,50,67,166.11,157,-47.00,37.00,-937.00
2024-05-17 16:34:05.327045,1,0,3,0,0,1,86,88,74,50,67,166.19,157,-41.00,9.00,-990.00
2024-05-17 16:34:05.509328,0,-1,3,0,0,0,86,88,72,50,67,166.19,158,22.00,-19.00,-1097.00
2024-05-17 16:34:05.530786,0,-1,3,0,0,0,86,88,70,50,67,166.07,158,23.00,-6.00,-1029.00
2024-05-17 16:34:05.715776,0,-1,3,0,0,0,86,88,69,50,67,166.06,158,-21.00,23.00,-1002.00
2024-05-17 16:34:05.734883,0,-1,3,0,0,0,86,88,67,50,67,165.85,158,30.00,-25.00,-1035.00
2024-05-17 16:34:05.918699,0,-1,3,0,0,0,86,88,66,50,67,165.85,158,-3.00,38.00,-1073.00
2024-05-17 16:34:05.939073,1,-1,3,0,0,0,86,88,65,50,67,165.93,158,-38.00,53.00,-971.00
2024-05-17 16:34:06.126887,1,-1,3,0,0,0,86,88,68,50,67,165.85,158,-13.00,28.00,-1033.00
2024-05-17 16:34:06.143796,1,-1,3,0,0,0,86,88,67,40,67,166.13,158,15.00,15.00,-1052.00
2024-05-17 16:34:06.328578,1,-1,3,0,0,0,86,88,67,40,67,165.70,158,-36.00,31.00,-995.00
2024-05-17 16:34:06.346951,1,0,3,0,0,0,86,88,66,40,67,165.57,158,63.00,-46.00,-1032.00
2024-05-17 16:34:06.533257,1,0,3,0,0,0,86,88,66,40,67,165.95,159,36.00,-25.00,-1038.00
2024-05-17 16:34:06.535187,1,0,3,0,0,0,86,88,65,40,67,166.05,159,-15.00,16.00,-986.00
2024-05-17 16:34:06.601704,2,0,3,0,0,0,86,88,63,40,67,165.72,159,44.00,10.00,-943.00
2024-05-17 16:34:06.738066,2,0,3,0,0,0,86,89,62,40,67,165.85,159,41.00,0.00,-998.00
2024-05-17 16:34:06.805625,1,0,3,0,0,0,86,89,62,40,67,166.05,159,54.00,-4.00,-1041.00
2024-05-17 16:34:06.907739,1,-1,3,0,0,0,86,89,62,40,67,165.92,159,65.00,8.00,-1027.00
2024-05-17 16:34:07.045458,1,0,3,0,0,0,86,89,62,40,67,165.88,159,-2.00,20.00,-1035.00
2024-05-17 16:34:07.111538,1,0,3,0,0,0,86,89,62,40,67,166.02,159,-49.00,59.00,-1034.00
2024-05-17 16:34:07.251631,1,-1,3,-1,0,0,86,89,63,40,67,166.05,159,-21.00,58.00,-1039.00
2024-05-17 16:34:07.315479,0,-1,3,-1,0,0,86,89,65,40,67,166.06,159,13.00,-3.00,-1068.00
2024-05-17 16:34:07.454802,0,0,3,-1,0,-1,86,89,67,40,67,166.21,160,-9.00,20.00,-1172.00
2024-05-17 16:34:07.519465,0,0,3,-1,0,-2,86,89,70,50,67,166.12,160,44.00,-17.00,-1035.00
2024-05-17 16:34:07.659610,0,0,3,-1,0,-3,86,89,75,50,67,166.41,160,29.00,35.00,-1054.00
2024-05-17 16:34:07.723472,0,0,3,-1,0,-4,86,88,82,50,67,166.27,160,-41.00,36.00,-1084.00
2024-05-17 16:34:07.825510,0,0,3,0,0,-5,86,88,88,60,67,166.17,160,-55.00,51.00,-1013.00
2024-05-17 16:34:07.928824,0,0,3,-1,0,-5,86,88,94,70,67,166.09,160,39.00,-7.00,-1046.00
2024-05-17 16:34:08.029733,0,-1,3,0,0,-5,86,88,97,70,67,166.36,160,16.00,39.00,-1023.00
2024-05-17 16:34:08.131940,0,-1,3,0,0,-5,86,88,102,80,67,166.28,160,-29.00,19.00,-956.00
2024-05-17 16:34:08.275505,0,-1,3,0,0,-5,86,88,108,80,67,166.17,160,30.00,22.00,-1043.00
2024-05-17 16:34:08.335389,0,-1,3,0,0,-5,86,88,114,90,67,166.40,160,-3.00,10.00,-1000.00
2024-05-17 16:34:08.478838,1,0,3,0,0,-5,86,88,119,90,67,166.64,161,-16.00,17.00,-922.00
2024-05-17 16:34:08.539454,1,0,3,0,0,-4,86,88,124,100,67,166.71,161,-62.00,49.00,-927.00
2024-05-17 16:34:08.641394,1,0,3,0,0,-4,86,88,129,100,67,166.33,161,-20.00,8.00,-991.00
2024-05-17 16:34:08.786080,0,0,3,0,0,-4,86,88,133,110,67,166.58,161,61.00,-6.00,-948.00
2024-05-17 16:34:08.845438,1,0,3,0,0,-3,86,88,137,110,67,166.79,161,35.00,20.00,-936.00
2024-05-17 16:34:08.947321,1,0,3,0,0,-3,86,88,141,120,67,166.77,161,0.00,10.00,-995.00
2024-05-17 16:34:09.093451,2,0,3,0,0,-3,86,88,144,120,67,166.55,161,-21.00,7.00,-910.00
2024-05-17 16:34:09.151623,1,0,3,0,0,-2,86,88,147,120,67,166.71,161,16.00,-15.00,-1081.00
2024-05-17 16:34:09.297996,1,0,3,0,0,-2,86,88,151,130,67,166.95,161,-16.00,12.00,-923.00
2024-05-17 16:34:09.355391,0,0,3,-1,0,-2,86,88,155,130,67,166.53,161,-66.00,58.00,-974.00
2024-05-17 16:34:09.504354,-1,-1,3,-1,0,-2,86,88,159,130,67,166.80,162,20.00,-2.00,-939.00
2024-05-17 16:34:09.559384,-1,-1,3,-1,0,-1,86,88,161,130,67,167.00,162,2.00,26.00,-960.00
2024-05-17 16:34:09.663765,0,-2,3,0,0,-1,86,88,163,140,67,166.60,162,-21.00,39.00,-861.00
2024-05-17 16:34:09.763685,0,-2,3,0,0,-1,85,87,166,140,67,166.88,162,-4.00,-8.00,-975.00
2024-05-17 16:34:09.926694,0,-2,3,0,0,-1,85,87,166,140,67,166.36,162,-27.00,32.00,-945.00
2024-05-17 16:34:09.968747,1,-2,3,0,0,0,85,87,168,140,67,166.85,162,12.00,7.00,-978.00
2024-05-17 16:34:10.070884,1,-1,3,0,0,0,85,87,169,140,67,167.24,162,0.00,46.00,-913.00
2024-05-17 16:34:10.122663,2,-1,3,0,0,0,85,87,169,150,67,166.91,162,-15.00,-10.00,-1004.00
2024-05-17 16:34:10.223187,1,-1,3,0,0,0,85,87,170,150,67,166.74,162,-9.00,44.00,-917.00
2024-05-17 16:34:10.324754,2,-1,3,0,0,0,85,87,171,150,67,167.25,162,34.00,7.00,-981.00
2024-05-17 16:34:10.426820,1,-1,3,0,0,0,85,87,170,150,67,166.96,163,40.00,-9.00,-983.00
2024-05-17 16:34:10.529590,1,-1,3,0,0,0,85,87,170,150,67,166.86,163,11.00,29.00,-961.00
2024-05-17 16:34:10.630599,1,-1,3,0,0,0,85,87,170,150,67,166.56,163,28.00,9.00,-973.00
2024-05-17 16:34:10.834748,1,-1,3,0,0,0,85,88,170,150,67,166.83,163,70.00,-13.00,-1053.00
2024-05-17 16:34:10.834942,1,-1,3,0,0,0,85,88,169,150,67,167.05,163,-29.00,51.00,-946.00
2024-05-17 16:34:10.936627,1,-1,3,0,0,0,85,88,169,150,67,167.15,163,33.00,0.00,-966.00
2024-05-17 16:34:11.039129,1,-1,3,0,0,0,85,88,168,150,67,167.07,163,22.00,53.00,-980.00
2024-05-17 16:34:11.141227,1,-1,3,0,0,0,85,88,168,150,67,166.88,163,8.00,33.00,-1041.00
2024-05-17 16:34:11.243985,1,-1,3,0,0,0,85,88,167,150,67,167.02,163,28.00,20.00,-1146.00
2024-05-17 16:34:11.345729,1,-1,3,0,0,0,85,88,167,150,67,166.90,163,-39.00,29.00,-1015.00
2024-05-17 16:34:11.448390,1,-1,3,0,0,0,85,88,166,150,67,166.90,164,61.00,-7.00,-948.00
2024-05-17 16:34:11.548699,1,0,3,0,0,0,85,88,164,150,67,167.05,164,10.00,10.00,-892.00
2024-05-17 16:34:11.650398,1,0,3,0,0,0,85,88,163,150,67,167.03,164,22.00,28.00,-968.00
2024-05-17 16:34:11.755531,1,0,3,0,0,0,85,88,161,150,67,167.05,164,-24.00,14.00,-1012.00
2024-05-17 16:34:11.854290,1,-1,3,0,0,0,85,88,160,140,67,166.89,164,-18.00,46.00,-938.00
2024-05-17 16:34:11.956770,1,-1,3,0,0,1,85,88,157,140,67,166.76,164,13.00,20.00,-909.00
2024-05-17 16:34:12.062747,1,-1,3,0,0,1,85,88,155,140,67,166.79,164,24.00,29.00,-952.00
2024-05-17 16:34:12.160481,1,-1,3,0,0,2,85,88,152,140,67,167.02,164,57.00,-33.00,-1022.00
2024-05-17 16:34:12.267437,2,-1,3,0,0,2,85,88,149,130,67,166.77,164,75.00,18.00,-1025.00
2024-05-17 16:34:12.364501,2,0,3,0,0,2,85,88,146,130,67,166.60,164,55.00,-1.00,-942.00
2024-05-17 16:34:12.472603,2,0,3,0,0,2,85,88,141,130,67,166.74,165,17.00,5.00,-974.00
2024-05-17 16:34:12.575472,2,0,3,0,0,2,85,88,138,120,67,166.56,165,-13.00,35.00,-1031.00
2024-05-17 16:34:12.671231,1,-1,3,0,0,2,85,88,135,120,67,166.78,165,10.00,36.00,-951.00
2024-05-17 16:34:12.779508,0,-2,3,0,0,2,85,88,132,110,67,166.61,165,-27.00,31.00,-1043.00
2024-05-17 16:34:12.875112,0,-2,3,0,0,2,85,88,129,110,67,166.74,165,-9.00,26.00,-1114.00
2024-05-17 16:34:12.988964,0,-2,3,0,0,1,85,88,127,110,67,166.44,165,25.00,20.00,-1061.00
2024-05-17 16:34:13.079099,0,-1,3,0,0,2,85,88,125,110,67,166.67,165,32.00,-3.00,-1070.00
2024-05-17 16:34:13.199796,0,-1,3,0,0,1,85,88,122,100,67,166.47,165,3.00,44.00,-966.00
2024-05-17 16:34:13.287566,0,-2,3,0,0,1,85,88,120,100,67,166.92,165,60.00,11.00,-1006.00
2024-05-17 16:34:13.386946,0,-2,3,0,0,1,85,88,118,100,67,166.39,166,39.00,0.00,-1072.00
2024-05-17 16:34:13.487259,0,-2,3,0,0,0,85,88,116,100,67,166.57,166,56.00,-9.00,-1082.00
2024-05-17 16:34:13.598839,0,-1,3,0,0,0,85,88,115,100,67,166.50,166,32.00,1.00,-1012.00
2024-05-17 16:34:13.691731,1,-1,3,0,0,0,85,88,115,100,67,166.55,166,-23.00,59.00,-1013.00
2024-05-17 16:34:13.803783,1,-1,3,0,0,0,86,87,113,90,67,166.42,166,-17.00,43.00,-1059.00
2024-05-17 16:34:13.896214,1,-1,3,0,0,0,86,87,113,90,67,166.35,166,41.00,-4.00,-1090.00
2024-05-17 16:34:13.946735,1,-1,3,0,0,0,86,87,112,90,67,166.30,166,46.00,-22.00,-1038.00
2024-05-17 16:34:14.114965,1,-1,3,0,0,0,86,87,111,90,67,166.30,166,-29.00,61.00,-985.00
2024-05-17 16:34:14.150782,1,-1,3,0,0,0,86,87,111,90,67,166.18,166,-4.00,32.00,-995.00
2024-05-17 16:34:14.325587,1,-1,3,0,0,0,86,87,110,90,67,166.43,166,35.00,-34.00,-945.00
2024-05-17 16:34:14.369121,1,-1,3,0,0,0,86,87,110,90,67,166.34,167,29.00,21.00,-1013.00
2024-05-17 16:34:14.456747,1,-1,3,0,0,0,86,87,109,90,67,166.41,167,24.00,-7.00,-961.00
2024-05-17 16:34:14.624595,1,-1,3,0,0,0,86,87,109,90,67,166.30,167,4.00,11.00,-1083.00
2024-05-17 16:34:14.660468,0,-1,3,0,0,0,86,87,109,90,67,166.33,167,0.00,39.00,-1099.00
2024-05-17 16:34:14.829036,0,-1,3,0,0,0,85,87,109,90,67,166.23,167,13.00,31.00,-992.00
2024-05-17 16:34:14.864470,0,-1,3,0,0,0,85,87,109,90,67,166.47,167,10.00,52.00,-956.00
2024-05-17 16:34:14.966488,0,-1,3,0,0,0,85,87,109,90,67,166.68,167,-18.00,-5.00,-1036.00
2024-05-17 16:34:15.068557,1,-1,3,0,0,0,85,87,110,90,67,166.11,167,28.00,36.00,-1066.00
2024-05-17 16:34:15.237709,0,-1,3,0,0,0,85,87,110,90,67,166.39,167,-2.00,3.00,-1027.00
2024-05-17 16:34:15.272410,1,-1,3,0,0,0,85,87,110,90,67,166.27,167,53.00,25.00,-1001.00
2024-05-17 16:34:15.374984,1,0,3,0,0,0,85,87,110,90,67,166.28,168,-12.00,45.00,-948.00
2024-05-17 16:34:15.478326,-2,0,3,0,0,0,85,87,109,90,67,166.16,168,-5.00,2.00,-986.00
2024-05-17 16:34:15.577965,-7,0,3,0,0,0,85,87,108,90,67,166.56,168,49.00,-1.00,-969.00
2024-05-17 16:34:15.750640,-8,0,3,2,0,0,85,87,110,90,67,166.13,168,-56.00,59.00,-1011.00
2024-05-17 16:34:15.782222,-8,-1,3,3,0,0,84,87,109,90,67,166.52,168,-14.00,27.00,-849.00
2024-05-17 16:34:15.958911,-7,-1,3,4,0,0,84,87,108,90,67,166.10,168,-29.00,57.00,-1011.00
2024-05-17 16:34:15.986853,-6,-2,3,5,0,0,84,87,107,90,67,166.22,168,-50.00,42.00,-934.00
2024-05-17 16:34:16.160977,-6,-2,3,6,0,0,84,87,107,90,67,166.40,168,-24.00,-17.00,-1060.00
2024-05-17 16:34:16.190207,-5,-2,3,7,0,0,84,87,104,90,67,166.25,168,-23.00,49.00,-836.00
2024-05-17 16:34:16.363466,-4,-1,3,7,0,0,84,87,106,90,67,166.24,168,-48.00,48.00,-887.00
2024-05-17 16:34:16.394534,-2,-1,3,7,0,0,84,87,109,90,67,166.08,169,-12.00,-17.00,-1012.00
2024-05-17 16:34:16.505376,0,-1,3,7,0,0,84,87,108,90,67,166.35,169,-15.00,31.00,-1156.00
2024-05-17 16:34:16.598200,3,0,3,6,0,-1,84,87,108,90,67,166.12,169,-47.00,18.00,-979.00
2024-05-17 16:34:16.780442,4,0,3,5,0,0,84,87,107,90,67,166.42,169,-94.00,53.00,-847.00
2024-05-17 16:34:16.818120,3,-1,3,4,0,0,85,87,106,90,67,166.44,169,-83.00,11.00,-1054.00
2024-05-17 16:34:16.904220,2,-1,3,3,0,0,85,87,106,90,67,166.25,169,-1.00,22.00,-1027.00
2024-05-17 16:34:17.081917,1,-1,3,3,0,0,85,87,106,90,67,166.19,169,52.00,-6.00,-976.00
2024-05-17 16:34:17.108885,0,-1,3,3,0,0,85,87,105,90,67,166.59,169,-75.00,43.00,-925.00
2024-05-17 16:34:17.287366,0,-1,3,2,0,0,85,87,105,90,67,166.05,169,-25.00,29.00,-977.00
2024-05-17 16:34:17.312880,0,-1,3,2,0,0,85,87,103,90,67,166.22,169,20.00,30.00,-1022.00
2024-05-17 16:34:17.491267,0,-1,3,2,0,0,85,87,103,90,67,166.27,170,-45.00,5.00,-922.00
2024-05-17 16:34:17.516872,0,-1,3,2,0,0,85,87,102,90,67,166.21,170,10.00,20.00,-983.00
2024-05-17 16:34:17.568073,0,0,3,2,0,0,85,87,101,90,67,166.14,170,-26.00,41.00,-1058.00
2024-05-17 16:34:17.696794,1,-1,3,1,0,0,85,87,100,90,67,165.86,170,-88.00,34.00,-949.00
2024-05-17 16:34:17.901713,2,0,3,1,0,0,84,87,101,90,67,166.27,170,33.00,-13.00,-990.00
2024-05-17 16:34:17.931220,3,-1,3,0,0,0,84,87,100,90,67,166.26,170,-53.00,22.00,-919.00
2024-05-17 16:34:18.032860,1,-1,3,0,0,0,84,87,100,90,67,166.09,170,32.00,1.00,-1096.00
2024-05-17 16:34:18.078005,0,-1,3,0,0,0,84,87,99,90,67,166.12,170,51.00,5.00,-1027.00
2024-05-17 16:34:18.208765,0,-1,3,0,0,0,84,87,99,90,67,166.60,170,4.00,4.00,-970.00
2024-05-17 16:34:18.281983,0,-1,3,0,0,0,84,87,100,90,67,166.16,170,-16.00,-11.00,-1111.00
2024-05-17 16:34:18.384055,0,-1,3,0,0,0,84,87,100,90,67,166.15,171,-14.00,37.00,-982.00
2024-05-17 16:34:18.488470,0,-1,3,0,0,0,84,87,99,90,67,166.27,171,35.00,35.00,-956.00
2024-05-17 16:34:18.588193,0,-1,3,0,0,0,84,87,100,90,67,166.19,171,23.00,-28.00,-952.00
2024-05-17 16:34:18.690652,0,-1,3,0,0,0,84,87,100,90,67,166.30,171,-11.00,17.00,-953.00
2024-05-17 16:34:18.822776,0,-1,3,0,0,0,84,86,100,90,67,166.28,171,-5.00,28.00,-1083.00
2024-05-17 16:34:18.894924,0,-1,3,0,0,0,84,86,100,90,67,165.94,171,-13.00,43.00,-1005.00
2024-05-17 16:34:18.997602,0,-1,3,0,0,0,84,86,100,90,67,166.22,171,51.00,-10.00,-1090.00
2024-05-17 16:34:19.099647,0,-1,3,0,0,0,84,86,100,90,67,166.12,171,14.00,39.00,-1059.00
2024-05-17 16:34:19.200285,0,-1,3,0,0,0,84,86,99,90,67,166.31,171,-13.00,17.00,-1055.00
2024-05-17 16:34:19.335405,0,-1,3,0,0,0,84,86,98,90,67,166.15,171,-19.00,15.00,-1020.00
2024-05-17 16:34:19.403994,0,-2,3,0,0,0,84,86,98,90,67,166.07,172,-25.00,44.00,-1033.00
2024-05-17 16:34:19.538586,-1,-2,3,0,0,0,84,86,98,90,67,166.21,172,-10.00,40.00,-1015.00
2024-05-17 16:34:19.607868,-1,-2,3,0,0,0,84,86,97,90,67,166.35,172,30.00,-8.00,-1178.00
2024-05-17 16:34:19.769585,0,-2,3,0,0,0,84,86,97,90,67,166.56,172,20.00,14.00,-1071.00
2024-05-17 16:34:19.812018,0,-2,3,0,0,0,83,86,97,90,67,166.14,172,-47.00,23.00,-840.00
2024-05-17 16:34:19.953490,0,-1,3,0,0,0,83,86,97,90,67,166.08,172,-12.00,54.00,-1190.00
2024-05-17 16:34:20.016379,0,-1,3,0,0,0,83,86,97,90,67,166.39,172,-32.00,43.00,-923.00
2024-05-17 16:34:20.153118,0,-1,3,0,0,0,83,86,97,90,67,166.44,172,-6.00,-13.00,-1040.00
2024-05-17 16:34:20.220667,4,0,3,0,0,0,83,86,97,90,67,166.42,172,-54.00,37.00,-980.00
2024-05-17 16:34:20.358901,8,0,3,-1,0,0,83,86,98,90,67,166.17,172,-9.00,28.00,-1015.00
2024-05-17 16:34:20.426430,8,-1,3,-3,0,0,83,86,97,90,67,166.26,173,56.00,28.00,-957.00
2024-05-17 16:34:20.526211,8,-1,3,-4,0,0,83,86,98,90,67,166.11,173,-35.00,60.00,-1027.00
2024-05-17 16:34:20.665079,8,0,3,-5,0,0,83,86,98,90,67,166.33,173,-11.00,74.00,-955.00
2024-05-17 16:34:20.730067,7,0,3,-6,0,0,83,86,97,90,67,166.18,173,25.00,14.00,-1014.00
2024-05-17 16:34:20.875832,5,-1,3,-7,0,0,84,87,98,90,67,166.53,173,59.00,19.00,-954.00
2024-05-17 16:34:20.933732,5,-1,3,-7,0,0,84,87,98,90,67,165.96,173,47.00,-15.00,-1035.00
2024-05-17 16:34:21.074411,4,-2,3,-8,0,0,84,87,98,90,67,166.19,173,29.00,38.00,-966.00
2024-05-17 16:34:21.140690,0,-2,3,-8,0,0,84,87,98,90,67,166.38,173,118.00,-9.00,-1004.00
2024-05-17 16:34:21.241060,-2,-1,3,-7,0,0,84,87,98,90,67,166.45,173,39.00,31.00,-1158.00
2024-05-17 16:34:21.342153,-3,0,3,-6,0,0,84,87,98,90,67,166.37,173,129.00,-11.00,-984.00
2024-05-17 16:34:21.443668,-4,-1,3,-5,0,0,84,87,96,90,67,166.24,174,6.00,43.00,-1053.00
2024-05-17 16:34:21.585801,-3,-1,3,-4,0,0,84,87,98,90,67,166.18,174,74.00,-2.00,-1149.00
2024-05-17 16:34:21.647643,-2,-1,3,-3,0,0,84,87,98,90,67,166.33,174,31.00,-17.00,-1026.00
2024-05-17 16:34:21.698673,0,-1,3,-3,0,0,84,87,98,90,67,166.40,174,45.00,0.00,-1021.00
2024-05-17 16:34:21.893026,0,0,3,-3,0,0,85,86,98,90,67,166.13,174,61.00,-4.00,-1169.00
2024-05-17 16:34:21.953627,0,0,3,-2,0,0,85,86,98,90,67,166.25,174,-48.00,43.00,-1067.00
2024-05-17 16:34:22.004847,0,0,3,-2,0,0,85,86,98,90,67,166.36,174,13.00,-15.00,-1093.00
2024-05-17 16:34:22.106669,0,0,3,-2,0,0,85,86,99,90,67,165.83,174,32.00,11.00,-1047.00
2024-05-17 16:34:22.303016,0,0,3,-2,0,0,85,86,99,90,67,166.46,174,-1.00,30.00,-905.00
2024-05-17 16:34:22.310642,1,0,3,-2,0,0,85,86,100,90,67,166.42,174,87.00,-19.00,-1031.00
2024-05-17 16:34:22.507415,-4,0,3,-1,0,0,85,86,100,90,67,166.14,175,67.00,4.00,-937.00
2024-05-17 16:34:22.514850,-2,-1,3,0,0,0,85,86,102,90,67,166.47,175,10.00,-1.00,-931.00
2024-05-17 16:34:22.713055,0,0,3,0,0,0,85,86,102,90,67,166.23,175,53.00,4.00,-1124.00
2024-05-17 16:34:22.718737,0,0,3,0,0,0,85,86,103,90,67,165.90,175,10.00,18.00,-942.00
2024-05-17 16:34:22.917956,0,0,3,0,0,0,84,86,104,90,67,166.62,175,-43.00,27.00,-967.00
2024-05-17 16:34:22.923170,0,-1,3,0,0,0,84,86,104,90,67,166.46,175,-11.00,6.00,-1050.00
2024-05-17 16:34:23.122083,-1,-1,3,0,0,0,84,86,105,90,67,166.07,175,-15.00,3.00,-961.00
2024-05-17 16:34:23.126681,0,-1,3,0,0,0,84,86,104,90,67,166.42,175,55.00,-13.00,-980.00
2024-05-17 16:34:23.326920,0,0,3,0,0,0,84,86,105,100,67,166.31,175,17.00,19.00,-889.00
2024-05-17 16:34:23.330722,0,0,3,0,0,0,84,86,104,100,67,166.18,175,-17.00,44.00,-1017.00
2024-05-17 16:34:23.432687,0,0,3,0,0,0,84,86,103,100,67,166.40,176,32.00,-3.00,-977.00
2024-05-17 16:34:23.534714,1,0,3,0,0,0,84,86,103,100,67,166.31,176,59.00,3.00,-1008.00
2024-05-17 16:34:23.637051,1,0,3,0,0,0,84,86,102,90,67,166.15,176,35.00,15.00,-1019.00
2024-05-17 16:34:23.738528,0,0,3,0,0,0,84,86,102,90,67,166.13,176,-14.00,35.00,-1061.00
2024-05-17 16:34:23.941097,0,0,3,0,0,0,84,85,102,90,67,166.26,176,27.00,-22.00,-1059.00
2024-05-17 16:34:23.942821,0,0,3,0,0,0,84,85,102,90,67,166.28,176,33.00,-4.00,-1034.00
2024-05-17 16:34:24.046770,0,0,3,0,0,0,84,85,102,90,67,166.56,176,53.00,15.00,-982.00
2024-05-17 16:34:24.146692,0,0,3,0,0,0,84,85,102,90,67,166.53,176,32.00,35.00,-1065.00
2024-05-17 16:34:24.249900,0,0,3,0,0,0,84,85,102,90,67,166.26,176,8.00,12.00,-1037.00
2024-05-17 16:34:24.350864,0,0,3,0,0,0,84,85,102,90,67,165.99,176,47.00,27.00,-951.00
2024-05-17 16:34:24.455749,1,0,3,0,0,0,84,85,102,90,67,166.24,177,53.00,-22.00,-1048.00
2024-05-17 16:34:24.555105,0,0,3,0,0,0,84,85,102,90,67,166.26,177,-11.00,8.00,-1038.00
2024-05-17 16:34:24.657795,0,-1,3,0,0,0,84,85,102,90,67,166.36,177,9.00,23.00,-986.00
2024-05-17 16:34:24.760190,0,-4,3,0,0,0,84,85,103,90,67,166.54,177,-3.00,1.00,-1047.00
2024-05-17 16:34:24.860559,0,-9,3,0,0,0,84,86,104,90,67,166.37,177,-40.00,46.00,-982.00
2024-05-17 16:34:24.962490,0,-8,3,0,-2,0,84,86,105,90,67,166.28,177,22.00,42.00,-1032.00
2024-05-17 16:34:25.064472,-1,-6,3,0,-3,0,84,86,105,90,67,166.34,177,31.00,9.00,-1018.00
2024-05-17 16:34:25.169897,0,-3,3,0,-3,0,84,86,106,90,67,166.34,177,52.00,18.00,-956.00
2024-05-17 16:34:25.268471,0,0,3,0,-3,0,84,86,107,90,67,166.43,177,-45.00,76.00,-913.00
2024-05-17 16:34:25.324134,1,0,3,0,-3,0,84,86,108,100,67,166.23,177,70.00,14.00,-1061.00
2024-05-17 16:34:25.421808,1,0,3,0,-3,0,84,86,109,100,67,166.37,178,-62.00,60.00,-941.00
2024-05-17 16:34:25.579381,1,0,3,0,-3,0,84,86,109,100,67,166.34,178,23.00,9.00,-964.00
2024-05-17 16:34:25.627382,1,0,3,0,-3,0,84,86,109,100,67,166.31,178,8.00,27.00,-939.00
2024-05-17 16:34:25.727418,1,0,3,0,-3,0,84,86,109,100,67,166.31,178,97.00,-9.00,-982.00
2024-05-17 16:34:25.886585,1,0,3,0,-3,0,84,86,108,100,67,166.14,178,-54.00,48.00,-952.00
2024-05-17 16:34:25.932112,1,0,3,0,-2,0,84,86,106,100,67,166.62,178,16.00,30.00,-1015.00
2024-05-17 16:34:26.091389,0,-1,3,0,-2,0,84,86,105,100,67,166.54,178,27.00,7.00,-880.00
2024-05-17 16:34:26.137203,0,-1,3,0,-2,0,84,86,103,100,67,166.68,178,1.00,-13.00,-1112.00
2024-05-17 16:34:26.237624,0,-1,3,0,-2,0,84,86,101,100,67,166.38,178,109.00,4.00,-1033.00
2024-05-17 16:34:26.398669,0,0,3,0,-2,0,84,86,98,100,67,166.10,178,6.00,59.00,-1023.00
2024-05-17 16:34:26.444431,0,0,3,0,-2,0,84,86,95,90,67,166.32,179,50.00,15.00,-963.00
2024-05-17 16:34:26.549760,0,0,3,0,-1,0,84,86,92,90,67,166.41,179,34.00,19.00,-1057.00
2024-05-17 16:34:26.645734,0,0,3,0,-1,0,84,86,89,90,67,166.02,179,-16.00,43.00,-1092.00
2024-05-17 16:34:26.808181,-2,2,3,0,-1,0,84,86,85,90,67,166.35,179,65.00,15.00,-1097.00
2024-05-17 16:34:26.849340,-4,0,3,0,0,0,84,86,82,90,67,166.02,179,19.00,37.00,-1007.00
2024-05-17 16:34:27.013222,-1,0,3,1,0,0,84,86,79,90,67,166.06,179,-27.00,15.00,-969.00
2024-05-17 16:34:27.053313,3,0,3,0,0,0,84,86,76,90,67,165.98,179,-28.00,6.00,-1033.00
2024-05-17 16:34:27.155469,1,0,3,0,0,0,84,86,72,90,67,166.19,179,-51.00,38.00,-979.00
2024-05-17 16:34:27.320351,0,-1,3,0,0,0,84,86,74,90,67,165.92,179,6.00,5.00,-1008.00
2024-05-17 16:34:27.359465,0,0,3,0,0,0,84,86,70,80,67,165.92,179,-59.00,27.00,-1118.00
2024-05-17 16:34:27.525122,0,0,3,0,0,0,84,86,67,80,67,165.91,180,9.00,12.00,-1049.00
2024-05-17 16:34:27.563629,0,0,3,0,0,0,84,86,65,80,67,165.89,180,17.00,1.00,-1081.00
2024-05-17 16:34:27.729903,0,0,3,0,0,0,84,86,63,80,67,166.08,180,-1.00,1.00,-1130.00
2024-05-17 16:34:27.767751,-1,0,3,0,0,0,84,86,61,80,67,165.92,180,-90.00,55.00,-999.00
2024-05-17 16:34:27.934678,0,0,3,0,0,-1,84,86,60,70,67,165.93,180,-17.00,26.00,-964.00
2024-05-17 16:34:27.971407,0,0,3,0,0,-1,84,86,59,70,67,166.00,180,-31.00,29.00,-1040.00
2024-05-17 16:34:28.139770,0,-1,3,0,0,-1,84,86,58,70,67,166.00,180,27.00,-9.00,-1108.00
2024-05-17 16:34:28.175421,0,-1,3,0,0,-1,84,86,58,70,67,165.96,180,48.00,18.00,-1033.00
2024-05-17 16:34:28.344347,0,-1,3,0,0,-1,84,86,57,70,67,166.04,180,13.00,23.00,-1033.00
2024-05-17 16:34:28.379388,0,0,3,0,0,-1,84,86,56,70,67,165.78,181,-13.00,57.00,-995.00
2024-05-17 16:34:28.481816,1,-1,3,0,0,-1,84,86,55,70,67,165.96,181,32.00,-23.00,-1093.00
2024-05-17 16:34:28.652022,0,0,3,0,0,-1,84,86,55,70,67,165.82,181,-1.00,10.00,-1093.00
2024-05-17 16:34:28.685725,0,0,3,0,0,-2,84,86,55,70,67,165.50,181,1.00,29.00,-1058.00
2024-05-17 16:34:28.856483,0,0,3,0,0,-1,84,86,56,70,67,165.64,181,76.00,5.00,-1160.00
2024-05-17 16:34:28.889731,0,0,3,0,0,-2,83,87,57,70,67,166.02,181,25.00,0.00,-982.00
2024-05-17 16:34:28.991366,0,0,3,0,0,-2,83,87,58,70,67,165.83,181,-40.00,18.00,-1149.00
2024-05-17 16:34:29.093282,0,0,3,0,0,-2,83,87,58,70,67,165.79,181,24.00,23.00,-999.00
2024-05-17 16:34:29.144247,0,0,3,0,0,-2,83,87,60,70,67,166.14,181,23.00,3.00,-1038.00
2024-05-17 16:34:29.249867,0,5,3,0,0,-2,83,87,62,70,67,165.87,181,6.00,74.00,-941.00
2024-05-17 16:34:29.348206,0,7,3,0,1,-2,83,87,60,70,67,166.07,182,15.00,37.00,-985.00
2024-05-17 16:34:29.470974,0,4,3,0,3,-2,83,87,59,70,67,165.92,182,-23.00,-4.00,-1028.00
2024-05-17 16:34:29.552184,0,1,3,0,3,-2,83,87,68,70,67,166.18,182,0.00,-8.00,-995.00
2024-05-17 16:34:29.675417,0,0,3,0,3,-2,83,87,69,70,67,165.99,182,-25.00,13.00,-968.00
2024-05-17 16:34:29.756262,-1,-2,3,0,3,-1,83,87,70,80,67,165.81,182,50.00,-9.00,-1017.00
2024-05-17 16:34:29.880389,0,-1,3,0,3,-2,83,87,71,80,67,165.74,182,-76.00,45.00,-993.00
2024-05-17 16:34:29.960553,0,-1,3,0,3,-1,83,87,73,80,67,165.88,182,-23.00,15.00,-1014.00
2024-05-17 16:34:30.085040,0,-1,3,0,2,-1,83,87,74,80,67,166.07,182,-35.00,13.00,-937.00
2024-05-17 16:34:30.164249,0,0,3,0,2,-1,83,87,77,80,67,165.82,182,-15.00,10.00,-943.00
2024-05-17 16:34:30.290793,0,0,3,0,2,-1,83,87,78,80,67,165.78,182,11.00,44.00,-1042.00
2024-05-17 16:34:30.368265,0,0,3,0,2,-1,83,87,80,80,67,166.03,183,42.00,24.00,-923.00
2024-05-17 16:34:30.494817,0,0,3,0,2,-1,83,87,82,90,67,166.02,183,-12.00,66.00,-969.00
2024-05-17 16:34:30.572541,0,0,3,0,2,-1,83,87,84,90,67,166.31,183,2.00,15.00,-942.00
2024-05-17 16:34:30.699542,0,0,3,0,2,-1,83,87,87,90,67,166.21,183,35.00,9.00,-943.00
2024-05-17 16:34:30.776264,0,0,3,0,2,-1,83,87,90,90,67,166.18,183,12.00,19.00,-988.00
2024-05-17 16:34:30.904169,0,-1,3,0,2,-1,83,86,90,90,67,165.86,183,9.00,-3.00,-999.00
2024-05-17 16:34:30.980157,0,-3,3,0,2,-1,83,86,90,90,67,166.47,183,4.00,23.00,-1056.00
2024-05-17 16:34:31.082217,0,-5,3,0,1,0,83,86,90,90,67,165.90,183,12.00,-2.00,-1223.00
2024-05-17 16:34:31.184555,0,-4,3,0,0,-1,83,86,92,100,67,166.25,183,35.00,24.00,-881.00
2024-05-17 16:34:31.288112,-1,-2,3,0,0,0,83,86,92,100,67,166.32,183,-7.00,24.00,-1041.00
2024-05-17 16:34:31.388177,-4,-1,3,0,0,0,83,86,90,100,67,166.27,184,-86.00,54.00,-933.00
2024-05-17 16:34:31.490214,-4,-1,3,0,0,0,83,86,89,100,67,166.38,184,-37.00,38.00,-923.00
2024-05-17 16:34:31.592118,-4,-1,3,0,0,0,83,86,88,100,67,166.35,184,-7.00,42.00,-1034.00
2024-05-17 16:34:31.723419,-3,-1,3,0,0,0,83,86,87,90,67,166.08,184,-27.00,19.00,-1043.00
2024-05-17 16:34:31.796107,-2,-1,3,1,0,0,83,86,87,90,67,166.13,184,-33.00,32.00,-959.00
2024-05-17 16:34:31.928382,-1,0,3,1,0,0,83,86,86,90,67,166.05,184,33.00,-2.00,-1078.00
2024-05-17 16:34:32.000154,1,2,3,1,0,0,83,86,84,90,67,166.14,184,-6.00,23.00,-990.00
2024-05-17 16:34:32.102986,2,3,3,1,0,0,83,86,83,90,67,165.98,184,-42.00,70.00,-1015.00
2024-05-17 16:34:32.235597,1,1,3,0,1,0,83,86,84,90,67,166.08,184,34.00,-21.00,-1029.00
2024-05-17 16:34:32.306184,0,0,3,0,1,0,83,86,82,90,67,166.02,184,0.00,-4.00,-975.00
2024-05-17 16:34:32.440333,0,0,3,0,0,0,83,86,83,90,67,166.10,185,-3.00,47.00,-977.00
2024-05-17 16:34:32.510002,0,0,3,0,0,0,83,86,83,90,67,165.92,185,3.00,22.00,-1040.00
2024-05-17 16:34:32.645193,0,0,3,0,0,0,83,86,83,90,67,166.18,185,20.00,30.00,-1057.00
2024-05-17 16:34:32.714151,0,-2,3,0,0,0,83,86,83,90,67,166.25,185,-23.00,38.00,-1058.00
2024-05-17 16:34:32.765759,0,-2,3,0,0,0,83,86,84,90,67,166.20,185,-11.00,28.00,-1092.00
2024-05-17 16:34:32.952472,0,-1,3,0,0,0,83,86,84,90,67,166.15,185,39.00,13.00,-968.00
2024-05-17 16:34:32.991973,0,0,3,0,0,0,83,86,85,90,67,166.17,185,46.00,-35.00,-961.00
2024-05-17 16:34:33.071282,0,0,3,0,0,0,83,86,85,90,67,166.57,185,-13.00,6.00,-950.00
2024-05-17 16:34:33.259589,0,0,3,0,0,0,83,86,86,90,67,166.41,185,-28.00,30.00,-948.00
2024-05-17 16:34:33.278551,0,0,3,0,0,0,83,86,87,90,67,166.12,185,37.00,15.00,-1027.00
2024-05-17 16:34:33.378979,0,0,3,0,0,0,83,86,89,90,67,165.85,186,29.00,-3.00,-1033.00
2024-05-17 16:34:33.479764,0,0,3,0,0,0,83,86,90,90,67,165.93,186,17.00,30.00,-970.00
2024-05-17 16:34:33.669191,0,0,3,0,0,0,83,86,91,90,67,166.29,186,14.00,47.00,-943.00
2024-05-17 16:34:33.684115,0,0,3,0,0,0,83,86,92,90,67,166.17,186,40.00,-17.00,-1025.00
2024-05-17 16:34:33.873960,0,0,3,0,0,0,83,86,93,90,67,166.21,186,3.00,47.00,-950.00
2024-05-17 16:34:33.892033,0,0,3,0,0,0,84,86,94,100,67,166.37,186,30.00,15.00,-933.00
2024-05-17 16:34:33.989142,0,0,3,0,0,0,84,86,95,100,67,166.20,186,-63.00,49.00,-955.00
2024-05-17 16:34:34.091047,0,0,3,0,0,0,84,86,97,100,67,166.25,186,-37.00,41.00,-1049.00
2024-05-17 16:34:34.291265,0,0,5,0,0,0,84,86,99,100,67,166.00,186,-7.00,19.00,-999.00
2024-05-17 16:34:34.295174,0,0,10,0,0,0,84,86,100,100,67,166.23,186,35.00,26.00,-966.00
2024-05-17 16:34:34.488208,0,0,16,0,0,0,84,86,100,100,67,166.22,187,-9.00,40.00,-813.00
2024-05-17 16:34:34.500724,0,0,22,0,0,0,84,86,101,100,67,166.09,187,-11.00,59.00,-926.00
2024-05-17 16:34:34.601299,0,0,28,0,0,0,84,86,101,100,67,166.42,187,69.00,-37.00,-1052.00
2024-05-17 16:34:34.796285,0,0,34,0,0,0,84,86,100,100,67,166.45,187,33.00,7.00,-993.00
2024-05-17 16:34:34.806827,0,0,40,0,0,0,84,86,100,100,67,166.41,187,40.00,-2.00,-941.00
2024-05-17 16:34:34.906862,0,0,46,0,0,0,83,86,100,100,67,166.22,187,-10.00,22.00,-927.00
2024-05-17 16:34:35.008885,0,0,53,0,0,0,83,86,99,100,67,166.31,187,10.00,41.00,-1033.00
2024-05-17 16:34:35.204959,0,0,59,0,0,0,83,86,99,100,67,166.63,187,-9.00,5.00,-946.00
2024-05-17 16:34:35.212906,0,0,65,0,0,0,83,86,99,100,67,166.28,187,-20.00,48.00,-942.00
2024-05-17 16:34:35.409753,0,0,71,0,0,0,83,86,99,100,67,166.27,187,5.00,-6.00,-1022.00
2024-05-17 16:34:35.416885,0,-1,77,0,0,0,83,86,99,100,67,166.47,188,-35.00,39.00,-934.00
2024-05-17 16:34:35.717344,0,0,84,0,0,0,83,86,99,100,67,166.30,188,69.00,0.00,-1021.00
2024-05-17 16:34:35.717395,0,0,90,0,0,0,83,86,99,100,67,166.15,188,-13.00,1.00,-953.00
2024-05-17 16:34:35.723610,0,0,96,0,0,0,83,86,99,100,67,166.30,188,-15.00,14.00,-934.00
2024-05-17 16:34:35.921650,0,0,102,0,0,0,83,86,99,100,67,166.34,188,25.00,6.00,-957.00
2024-05-17 16:34:35.927756,0,-1,108,0,0,0,82,86,100,100,67,166.57,188,-20.00,31.00,-958.00
2024-05-17 16:34:36.031267,0,-1,114,0,0,0,82,86,100,100,67,166.27,188,34.00,12.00,-1075.00
2024-05-17 16:34:36.131246,0,0,120,0,0,0,82,86,100,100,67,166.29,188,6.00,-15.00,-990.00
2024-05-17 16:34:36.234515,0,0,126,0,0,0,82,86,101,100,67,166.20,188,14.00,-6.00,-879.00
2024-05-17 16:34:36.335664,0,0,132,0,0,0,82,86,102,100,67,166.24,188,-11.00,21.00,-1008.00
2024-05-17 16:34:36.436863,0,0,138,0,0,0,82,86,103,100,67,166.39,189,7.00,-14.00,-996.00
2024-05-17 16:34:36.538861,0,0,144,0,0,0,82,86,104,100,67,166.47,189,20.00,7.00,-914.00
2024-05-17 16:34:36.589894,0,0,150,0,0,0,82,86,104,100,67,166.48,189,-16.00,12.00,-984.00
2024-05-17 16:34:36.740952,0,0,155,0,0,0,82,86,105,100,67,166.35,189,-17.00,2.00,-1052.00
2024-05-17 16:34:36.793892,0,-1,161,0,0,0,82,86,107,100,67,166.32,189,-80.00,26.00,-940.00
2024-05-17 16:34:36.947093,0,0,167,0,0,0,83,86,108,110,67,166.37,189,24.00,7.00,-978.00
2024-05-17 16:34:37.002378,0,0,172,0,0,0,83,86,109,110,67,166.64,189,-42.00,-7.00,-1025.00
2024-05-17 16:34:37.099771,0,0,178,0,0,0,83,86,110,110,66,166.45,189,-8.00,20.00,-1042.00
2024-05-17 16:34:37.252950,0,0,-175,0,0,0,83,86,112,110,66,166.41,189,-4.00,-9.00,-939.00
2024-05-17 16:34:37.303798,0,0,-170,0,0,0,83,86,114,110,66,166.50,189,-35.00,12.00,-966.00
2024-05-17 16:34:37.463040,1,0,-164,0,0,0,83,86,116,100,66,166.42,190,-3.00,26.00,-1034.00
2024-05-17 16:34:37.508263,0,0,-158,0,0,0,83,86,117,100,66,166.19,190,-30.00,17.00,-1057.00
2024-05-17 16:34:37.662569,1,0,-152,0,0,0,83,86,118,110,66,166.42,190,-21.00,-2.00,-964.00
2024-05-17 16:34:37.713187,0,0,-147,0,0,0,83,86,119,110,66,166.24,190,13.00,6.00,-917.00
2024-05-17 16:34:37.867358,0,0,-141,0,0,0,83,86,122,110,66,166.45,190,6.00,1.00,-989.00
2024-05-17 16:34:37.915752,0,0,-135,0,0,0,83,86,121,110,66,166.44,190,-21.00,4.00,-953.00
2024-05-17 16:34:38.017771,0,0,-129,0,0,0,83,86,122,110,66,166.58,190,19.00,16.00,-944.00
2024-05-17 16:34:38.175463,0,0,-124,0,0,1,83,86,124,110,66,166.42,190,-38.00,24.00,-1009.00
2024-05-17 16:34:38.221896,0,0,-118,0,0,0,83,86,125,110,66,166.59,190,-65.00,24.00,-937.00
2024-05-17 16:34:38.385701,0,0,-112,0,0,0,83,86,125,110,66,166.41,190,-10.00,15.00,-1011.00
2024-05-17 16:34:38.425834,0,0,-106,0,0,0,83,86,127,110,66,166.59,191,-20.00,21.00,-966.00
2024-05-17 16:34:38.584133,0,0,-100,0,0,0,83,86,127,110,66,166.67,191,3.00,-21.00,-990.00
2024-05-17 16:34:38.629791,0,0,-94,0,0,0,83,86,128,110,66,166.50,191,-41.00,-1.00,-940.00
2024-05-17 16:34:38.793357,0,0,-88,0,0,0,83,86,128,110,66,166.33,191,-9.00,-33.00,-1056.00
2024-05-17 16:34:38.833802,0,0,-82,0,0,0,83,86,128,110,66,166.49,191,28.00,3.00,-917.00
2024-05-17 16:34:38.994878,0,0,-76,0,0,1,83,84,127,110,66,166.40,191,-41.00,-5.00,-1085.00
2024-05-17 16:34:39.038166,0,0,-70,0,0,1,83,84,126,110,66,166.66,191,24.00,-11.00,-989.00
2024-05-17 16:34:39.203026,0,0,-64,0,0,1,83,84,126,110,66,166.72,191,-40.00,11.00,-909.00
2024-05-17 16:34:39.241720,0,0,-58,0,0,1,83,84,125,110,66,166.86,191,54.00,-20.00,-1062.00
2024-05-17 16:34:39.345981,0,0,-52,0,0,1,83,84,124,110,66,166.49,191,-75.00,81.00,-972.00
2024-05-17 16:34:39.445704,0,0,-45,0,0,1,83,84,124,110,66,166.78,192,-24.00,-11.00,-1000.00
2024-05-17 16:34:39.609362,0,0,-39,0,0,1,83,84,123,110,66,166.85,192,-46.00,31.00,-1020.00
2024-05-17 16:34:39.649682,0,0,-33,0,0,0,83,84,123,110,66,166.52,192,31.00,9.00,-957.00
2024-05-17 16:34:39.813046,0,0,-27,0,0,1,83,84,122,110,66,166.46,192,32.00,-3.00,-1004.00
2024-05-17 16:34:39.853667,0,0,-21,0,0,0,83,84,122,100,66,166.45,192,-19.00,28.00,-1092.00
2024-05-17 16:34:40.017943,0,0,-15,0,0,0,82,85,120,100,66,166.79,192,-26.00,68.00,-922.00
2024-05-17 16:34:40.058861,0,0,-10,0,0,0,82,85,119,100,66,166.28,192,-26.00,3.00,-1027.00
2024-05-17 16:34:40.222509,0,0,-7,0,0,0,82,85,118,100,66,166.40,192,15.00,26.00,-1069.00
2024-05-17 16:34:40.261663,0,0,-4,0,0,0,82,85,118,100,66,166.42,192,-16.00,42.00,-943.00
2024-05-17 16:34:40.427249,0,0,-2,0,0,0,82,85,117,100,66,166.45,192,-9.00,36.00,-983.00
2024-05-17 16:34:40.465684,0,0,0,0,0,0,82,85,116,100,66,166.35,193,7.00,25.00,-979.00
2024-05-17 16:34:40.531832,1,0,0,0,0,0,82,85,115,100,66,166.70,193,23.00,8.00,-1016.00
2024-05-17 16:34:40.619709,1,0,1,0,0,0,82,85,115,100,66,166.27,193,32.00,-5.00,-1077.00
2024-05-17 16:34:40.724657,1,0,1,0,0,0,82,85,114,100,66,166.46,193,40.00,15.00,-1029.00
2024-05-17 16:34:40.822697,1,0,1,0,0,0,82,85,114,100,66,166.47,193,-37.00,46.00,-1044.00
2024-05-17 16:34:40.939384,0,0,1,0,0,0,82,85,112,100,66,166.45,193,31.00,3.00,-991.00
2024-05-17 16:34:41.032110,0,-1,1,0,0,0,82,85,112,100,66,166.36,193,9.00,18.00,-964.00
2024-05-17 16:34:41.129114,0,0,1,0,0,0,82,85,112,100,66,166.55,193,14.00,36.00,-1019.00
2024-05-17 16:34:41.231444,0,0,1,0,0,0,82,85,111,100,66,166.21,193,41.00,8.00,-1035.00
2024-05-17 16:34:41.350348,0,0,1,0,0,0,82,85,111,100,66,166.22,193,32.00,-8.00,-1015.00
2024-05-17 16:34:41.445578,0,0,1,0,0,0,82,85,111,100,66,166.59,194,10.00,-2.00,-1108.00
2024-05-17 16:34:41.536973,0,0,1,0,0,0,82,85,112,100,66,166.35,194,-41.00,53.00,-1004.00
2024-05-17 16:34:41.642540,0,0,1,0,0,0,82,85,112,100,66,166.77,194,6.00,20.00,-1024.00
2024-05-17 16:34:41.743122,0,0,1,0,0,0,82,85,112,100,66,166.64,194,-30.00,53.00,-956.00
2024-05-17 16:34:41.849706,0,0,1,0,0,0,82,85,112,100,66,166.46,194,24.00,34.00,-1020.00
2024-05-17 16:34:41.946505,0,0,1,0,0,0,82,85,112,100,66,166.33,194,48.00,-22.00,-1042.00
2024-05-17 16:34:42.046626,0,0,1,0,0,0,82,85,112,100,66,166.51,194,41.00,3.00,-1056.00
2024-05-17 16:34:42.172265,0,0,1,0,0,0,82,85,113,100,66,166.22,194,17.00,-21.00,-964.00
2024-05-17 16:34:42.254725,0,0,1,0,0,0,82,85,113,100,66,166.26,194,-33.00,54.00,-953.00
2024-05-17 16:34:42.352841,0,0,1,0,0,0,82,85,113,100,66,166.22,194,9.00,21.00,-904.00
2024-05-17 16:34:42.465056,0,0,1,0,0,0,82,85,112,100,66,166.43,195,-11.00,21.00,-1028.00
2024-05-17 16:34:42.556607,0,0,1,0,0,0,82,85,113,100,66,166.54,195,44.00,2.00,-1142.00
2024-05-17 16:34:42.658461,0,0,1,0,0,0,82,85,114,100,66,166.56,195,1.00,22.00,-970.00
2024-05-17 16:34:42.783466,0,0,1,0,0,0,82,85,113,100,66,166.50,195,-36.00,37.00,-998.00
2024-05-17 16:34:42.868101,0,0,-1,0,0,0,82,85,113,100,66,166.62,195,-4.00,34.00,-1023.00
2024-05-17 16:34:42.966152,0,0,-13,0,0,0,83,85,113,100,66,166.22,195,9.00,-7.00,-981.00
2024-05-17 16:34:43.091903,0,0,-19,0,0,0,83,85,113,100,66,166.37,195,-29.00,20.00,-971.00
2024-05-17 16:34:43.169554,0,0,-25,0,0,0,83,85,112,100,65,166.30,195,-49.00,32.00,-939.00
2024-05-17 16:34:43.294838,0,0,-32,0,0,0,83,85,111,100,65,166.41,195,-4.00,5.00,-1023.00
2024-05-17 16:34:43.373681,0,0,-38,0,0,0,83,85,110,100,65,166.39,196,-12.00,18.00,-1017.00
2024-05-17 16:34:43.499235,0,0,-44,0,0,0,83,85,111,100,65,166.57,196,-66.00,54.00,-925.00
2024-05-17 16:34:43.577390,0,0,-50,0,0,0,83,85,109,100,65,166.53,196,-59.00,42.00,-987.00
2024-05-17 16:34:43.679412,0,-1,-57,0,0,0,83,85,109,100,65,166.53,196,46.00,-15.00,-992.00
2024-05-17 16:34:43.781399,0,-1,-63,0,0,0,83,85,108,90,65,166.32,196,82.00,-22.00,-1038.00
2024-05-17 16:34:44.011332,1,0,-69,0,0,0,83,85,108,90,65,166.09,196,2.00,4.00,-1092.00
2024-05-17 16:34:44.011411,1,-1,-76,0,0,0,83,85,108,90,65,166.60,196,22.00,0.00,-918.00
2024-05-17 16:34:44.087608,0,0,-82,0,0,0,83,85,108,90,65,166.08,196,55.00,19.00,-1060.00
2024-05-17 16:34:44.217585,1,0,-88,0,0,0,83,85,108,90,65,166.39,196,-11.00,6.00,-1068.00
2024-05-17 16:34:44.292349,0,0,-95,0,0,0,83,85,109,90,65,166.34,196,51.00,51.00,-1096.00
2024-05-17 16:34:44.420904,0,0,-101,0,0,0,83,85,109,90,65,166.54,197,-18.00,-12.00,-982.00
2024-05-17 16:34:44.445109,0,0,-108,0,0,0,83,85,110,90,65,166.28,197,-50.00,43.00,-945.00
2024-05-17 16:34:44.625633,0,0,-114,0,0,-1,83,85,111,100,65,166.58,197,-20.00,16.00,-926.00
2024-05-17 16:34:44.648322,0,0,-121,0,0,0,83,85,112,100,65,166.59,197,-4.00,13.00,-995.00
2024-05-17 16:34:44.830731,0,0,-127,0,0,0,83,85,112,100,65,166.68,197,12.00,13.00,-1004.00
2024-05-17 16:34:44.852350,0,0,-133,0,0,0,83,85,110,100,65,166.25,197,10.00,0.00,-908.00
2024-05-17 16:34:45.035501,0,0,-140,0,0,0,82,84,110,100,65,166.40,197,-30.00,-9.00,-1029.00
2024-05-17 16:34:45.056329,0,0,-146,0,0,0,82,84,110,100,65,166.46,197,34.00,-24.00,-1003.00
2024-05-17 16:34:45.240382,1,0,-152,0,0,0,82,84,110,100,65,166.43,197,10.00,-1.00,-975.00
2024-05-17 16:34:45.260329,2,0,-158,0,0,0,82,84,110,100,65,166.10,197,18.00,3.00,-1018.00
2024-05-17 16:34:45.444920,2,0,-164,0,0,0,82,84,110,100,65,166.72,198,32.00,9.00,-984.00
2024-05-17 16:34:45.464874,2,0,-170,0,0,0,82,84,109,100,65,166.29,198,35.00,12.00,-1072.00
2024-05-17 16:34:45.649652,1,-1,-176,0,0,0,82,84,109,90,65,166.25,198,0.00,-12.00,-1042.00
2024-05-17 16:34:45.668355,0,-1,176,0,0,0,82,84,108,90,65,166.24,198,-55.00,38.00,-941.00
2024-05-17 16:34:45.854558,0,0,170,0,0,0,82,84,108,90,65,166.57,198,5.00,20.00,-1130.00
2024-05-17 16:34:45.872794,-1,0,164,0,0,0,82,84,107,90,65,166.72,198,48.00,11.00,-1136.00
2024-05-17 16:34:46.060587,0,0,158,0,0,0,83,85,105,90,65,166.13,198,29.00,12.00,-920.00
2024-05-17 16:34:46.076366,0,0,152,0,0,0,83,85,104,90,65,166.22,198,14.00,11.00,-1028.00
2024-05-17 16:34:46.266168,1,0,146,0,0,0,83,85,103,90,65,166.37,198,59.00,12.00,-1180.00
2024-05-17 16:34:46.280294,2,0,140,0,1,0,83,85,103,90,65,165.95,198,21.00,-24.00,-1027.00
2024-05-17 16:34:46.382288,2,0,134,0,0,0,83,85,102,90,65,166.05,199,63.00,-1.00,-1056.00
2024-05-17 16:34:46.484613,1,0,129,0,0,0,83,85,101,90,65,166.03,199,29.00,29.00,-1027.00
2024-05-17 16:34:46.673607,1,0,123,0,0,0,83,85,100,90,65,166.46,199,-16.00,39.00,-1039.00
2024-05-17 16:34:46.688284,1,0,117,0,0,0,83,85,99,90,65,166.15,199,-28.00,16.00,-1059.00
2024-05-17 16:34:46.878422,0,0,112,0,0,0,83,85,99,90,65,166.39,199,5.00,-22.00,-1020.00
2024-05-17 16:34:46.892418,0,0,106,0,0,0,83,85,99,90,65,166.28,199,-14.00,30.00,-985.00
2024-05-17 16:34:47.084029,0,0,100,0,0,0,83,85,98,90,65,166.29,199,6.00,5.00,-954.00
2024-05-17 16:34:47.096292,0,0,94,0,0,0,83,85,98,90,65,166.17,199,12.00,16.00,-1077.00
2024-05-17 16:34:47.288021,1,0,89,0,0,0,83,85,98,90,65,166.17,199,42.00,11.00,-1065.00
2024-05-17 16:34:47.304130,0,0,83,0,0,0,83,85,98,90,65,166.31,199,38.00,-14.00,-1136.00
2024-05-17 16:34:47.402209,1,0,78,0,0,0,83,85,99,90,65,166.10,200,59.00,-5.00,-1017.00
2024-05-17 16:34:47.595861,0,0,72,0,0,0,83,85,99,90,65,166.20,200,2.00,13.00,-1014.00
2024-05-17 16:34:47.606242,0,0,66,0,0,0,83,85,100,90,65,166.23,200,26.00,14.00,-1022.00
2024-05-17 16:34:47.800005,0,0,60,0,0,0,83,85,101,90,65,166.26,200,23.00,27.00,-930.00
2024-05-17 16:34:47.810053,1,0,54,0,0,0,83,85,102,90,65,166.41,200,58.00,-12.00,-1035.00
2024-05-17 16:34:48.006981,1,0,48,0,0,0,83,85,103,90,65,166.25,200,49.00,1.00,-1012.00
2024-05-17 16:34:48.014194,1,0,42,0,0,0,83,85,104,90,65,166.58,200,44.00,18.00,-1022.00
2024-05-17 16:34:48.210124,1,0,36,0,0,0,83,85,105,90,65,166.39,200,0.00,-6.00,-980.00
2024-05-17 16:34:48.218136,1,-1,30,0,0,0,83,85,106,90,65,166.07,200,-16.00,18.00,-950.00
2024-05-17 16:34:48.269190,1,-1,24,0,0,0,83,85,106,90,65,166.19,200,28.00,6.00,-945.00
2024-05-17 16:34:48.414411,1,-1,18,0,0,0,83,85,106,90,65,166.41,201,11.00,25.00,-1057.00
2024-05-17 16:34:48.474091,1,-1,14,0,0,0,83,85,106,90,65,166.48,201,56.00,-6.00,-1006.00
2024-05-17 16:34:48.576087,1,-1,11,0,0,0,83,85,107,90,65,166.54,201,1.00,27.00,-1057.00
2024-05-17 16:34:48.678106,1,-1,9,0,0,0,83,85,107,90,65,166.07,201,-2.00,20.00,-954.00
2024-05-17 16:34:48.781023,0,-1,7,0,0,0,83,85,107,90,65,166.23,201,-45.00,63.00,-932.00
2024-05-17 16:34:48.882216,0,-1,6,0,0,0,83,85,107,90,65,166.14,201,69.00,-31.00,-1056.00
2024-05-17 16:34:49.028880,0,-1,4,0,0,0,82,85,108,90,65,166.50,201,-24.00,46.00,-991.00
2024-05-17 16:34:49.086078,0,-1,4,0,0,0,82,85,108,90,64,166.60,201,15.00,-1.00,-920.00
2024-05-17 16:34:49.188281,0,-1,3,0,0,0,82,85,107,90,64,166.51,201,-32.00,44.00,-1025.00
2024-05-17 16:34:49.336016,0,-1,3,0,0,0,82,85,107,90,64,166.48,201,64.00,22.00,-972.00
2024-05-17 16:34:49.392208,1,-1,3,0,0,0,82,85,107,90,64,166.43,202,67.00,14.00,-1004.00
2024-05-17 16:34:49.542651,2,0,3,0,0,0,82,85,107,90,64,166.47,202,34.00,1.00,-925.00
2024-05-17 16:34:49.596657,1,0,3,0,0,0,82,85,108,90,64,166.47,202,-30.00,29.00,-914.00
2024-05-17 16:34:49.700850,0,0,3,0,0,0,82,85,110,90,64,166.20,202,10.00,-13.00,-1036.00
2024-05-17 16:34:49.800316,0,-1,3,0,0,0,82,85,111,90,64,166.44,202,-43.00,51.00,-991.00
2024-05-17 16:34:49.950452,0,-1,3,0,0,0,82,85,111,90,64,166.48,202,-27.00,39.00,-974.00
2024-05-17 16:34:50.004935,0,-1,3,0,0,0,82,85,112,90,64,166.43,202,71.00,-20.00,-1099.00
2024-05-17 16:34:50.155309,1,-1,3,0,0,0,82,85,114,100,64,166.26,202,-28.00,18.00,-946.00
2024-05-17 16:34:50.208139,0,-1,3,0,0,0,82,85,116,100,64,166.17,202,-47.00,31.00,-994.00
2024-05-17 16:34:50.363078,0,-1,3,0,0,0,82,85,117,100,64,166.42,202,-57.00,63.00,-1069.00
2024-05-17 16:34:50.412128,0,-1,3,0,0,0,82,85,119,100,64,166.57,203,3.00,25.00,-902.00
2024-05-17 16:34:50.514297,0,-1,3,0,0,0,82,85,120,100,64,166.39,203,-9.00,22.00,-993.00
2024-05-17 16:34:50.667254,0,-2,3,0,0,0,82,85,122,100,64,166.53,203,27.00,23.00,-1022.00
2024-05-17 16:34:50.718062,0,-2,3,0,0,0,82,85,124,100,64,166.54,203,-87.00,66.00,-888.00
2024-05-17 16:34:50.871990,0,-2,3,0,0,0,82,85,124,100,64,166.42,203,-32.00,29.00,-941.00
2024-05-17 16:34:50.922119,0,-2,3,0,0,0,82,85,126,100,64,166.30,203,25.00,24.00,-931.00
2024-05-17 16:34:51.077420,0,-2,3,0,0,0,82,85,127,110,64,166.49,203,-22.00,22.00,-979.00
2024-05-17 16:34:51.125949,1,-2,3,0,0,0,82,85,128,110,64,166.71,203,-3.00,51.00,-908.00
2024-05-17 16:34:51.228932,1,-2,3,0,0,0,82,85,129,110,64,166.44,203,18.00,58.00,-1000.00
2024-05-17 16:34:51.384065,0,-2,3,0,0,-1,82,85,130,110,64,166.64,203,17.00,-64.00,-1830.00
2024-05-17 16:34:51.432231,0,-2,3,0,0,-8,82,85,135,110,64,166.65,204,0.00,143.00,-1604.00
2024-05-17 16:34:51.589427,0,-47,3,0,-2,-14,82,85,246,130,64,166.60,204,-5.00,588.00,-1256.00
2024-05-17 16:34:51.636222,0,-165,5,1,-11,-6,82,85,185,140,64,167.23,204,-8.00,504.00,-994.00
2024-05-17 16:34:51.687032,2,70,1,1,-9,9,82,85,6553,140,64,167.13,204,-18.00,266.00,-1610.00
2024-05-17 16:34:51.793550,0,-7,0,1,-3,10,82,85,134,130,64,166.61,204,-47.00,1.00,-1534.00
2024-05-17 16:34:51.890984,0,-1,0,0,-5,6,82,85,123,120,64,166.42,204,0.00,34.00,-1606.00
2024-05-17 16:34:52.044036,0,5,1,0,-4,0,82,85,114,110,64,166.02,204,-5.00,29.00,-795.00
2024-05-17 16:34:52.203134,0,4,3,0,-3,0,82,85,105,110,64,166.46,204,-79.00,68.00,-947.00
2024-05-17 16:34:52.257236,0,2,3,0,-2,1,82,85,94,110,64,166.32,204,13.00,41.00,-1141.00
2024-05-17 16:34:52.303429,0,1,3,0,-2,0,82,85,88,110,64,166.05,204,16.00,71.00,-1695.00
2024-05-17 16:34:52.400917,0,0,3,0,-1,-1,82,85,77,110,64,165.98,205,-67.00,72.00,-996.00
2024-05-17 16:34:52.503214,0,0,3,0,0,-1,82,85,68,110,64,166.20,205,-24.00,57.00,-1088.00
2024-05-17 16:34:52.612753,0,-1,3,0,0,-1,82,85,62,110,64,165.86,205,26.00,33.00,-1026.00
2024-05-17 16:34:52.710016,0,-1,3,0,0,-1,82,85,51,110,64,165.87,205,46.00,-26.00,-1033.00
2024-05-17 16:34:52.813942,1,1,3,0,0,0,82,85,45,110,64,165.78,205,-28.00,11.00,-908.00
2024-05-17 16:34:52.910891,1,0,3,0,0,0,82,85,33,110,64,165.64,205,-52.00,47.00,-1003.00
2024-05-17 16:34:53.026908,1,0,3,0,0,0,82,84,18,110,64,165.12,205,-19.00,49.00,-1049.00
2024-05-17 16:34:53.114882,0,0,3,0,0,0,82,84,10,110,64,161.33,205,-20.00,2.00,-1136.00
2024-05-17 16:34:53.227125,0,0,3,0,0,-1,82,84,10,100,64,163.38,205,-2.00,24.00,-825.00
2024-05-17 16:34:53.318864,-5,-7,2,-1,1,-4,82,84,10,110,64,164.55,205,-23.00,25.00,-351.00
2024-05-17 16:34:53.431885,-3,-7,1,0,1,0,82,84,10,110,64,164.35,205,489.00,6.00,-2369.00
2024-05-17 16:34:53.522911,0,0,0,-1,1,-1,82,84,10,110,64,164.77,205,17.00,9.00,-977.00
2024-05-17 16:34:53.638926,0,0,0,-1,1,-1,82,84,10,110,64,164.94,205,19.00,6.00,-976.00
2024-05-17 16:34:53.726891,0,0,0,-1,1,0,82,84,10,110,64,165.11,205,19.00,5.00,-978.00
2024-05-17 16:34:53.841561,0,0,0,-1,2,0,82,84,10,0,64,165.04,205,24.00,8.00,-975.00
2024-05-17 16:34:53.931170,0,0,0,-1,2,0,82,84,10,0,64,164.99,205,15.00,9.00,-976.00
2024-05-17 16:34:54.047618,0,0,0,-1,2,1,82,84,10,0,64,164.95,205,13.00,7.00,-976.00
2024-05-17 16:34:54.135988,0,0,0,0,2,2,82,84,10,0,63,165.31,205,17.00,8.00,-972.00
2024-05-17 16:34:54.251116,0,0,0,0,2,2,82,84,10,0,63,164.94,205,18.00,5.00,-974.00
2024-05-17 16:34:54.338801,0,0,0,0,2,3,82,84,10,0,63,165.31,205,19.00,7.00,-974.00
2024-05-17 16:34:54.558423,0,0,0,0,2,3,82,84,10,0,63,165.55,205,20.00,8.00,-971.00
2024-05-17 16:34:54.558578,0,0,0,0,0,0,82,84,10,0,63,165.33,205,18.00,8.00,-974.00
2024-05-17 16:34:54.644784,0,0,0,0,0,0,82,84,10,0,63,165.40,205,18.00,8.00,-974.00
2024-05-17 16:34:54.763115,0,0,0,0,0,0,82,84,10,0,63,165.21,205,17.00,8.00,-975.00
2024-05-17 16:34:54.848887,0,0,0,0,0,0,82,84,10,0,63,165.29,205,17.00,8.00,-974.00
2024-05-17 16:34:54.968020,0,0,0,0,0,0,82,84,10,0,63,165.07,205,17.00,8.00,-975.00
2024-05-17 16:34:55.053402,0,0,0,0,0,0,81,84,10,0,63,165.48,205,17.00,9.00,-977.00
2024-05-17 16:34:55.172865,0,0,0,0,0,0,81,84,10,0,63,165.24,205,18.00,8.00,-976.00
2024-05-17 16:34:55.256829,0,0,0,0,0,0,81,84,10,0,63,165.29,205,18.00,7.00,-976.00
2024-05-17 16:34:55.391793,0,0,0,0,0,0,81,84,10,0,63,165.30,205,17.00,8.00,-977.00
2024-05-17 16:34:55.463379,0,0,0,0,0,0,81,84,10,0,63,165.29,205,17.00,6.00,-976.00
2024-05-17 16:34:55.563248,0,0,0,0,0,0,81,84,10,0,63,165.14,205,16.00,8.00,-977.00
2024-05-17 16:34:55.685555,0,0,0,0,0,0,81,84,10,0,63,165.42,205,16.00,8.00,-979.00
2024-05-17 16:34:55.715743,0,0,0,0,0,0,81,84,10,0,63,165.27,205,18.00,7.00,-978.00
2024-05-17 16:34:55.889722,0,0,0,0,0,0,81,84,10,0,63,164.95,205,17.00,7.00,-981.00
2024-05-17 16:34:55.919965,0,0,0,0,0,0,81,84,10,0,63,165.02,205,16.00,9.00,-981.00
2024-05-17 16:34:56.096211,0,0,0,0,0,0,81,84,10,0,63,165.14,205,17.00,8.00,-979.00
2024-05-17 16:34:56.123820,0,0,0,0,0,0,81,84,10,0,63,165.15,205,18.00,9.00,-984.00
2024-05-17 16:34:56.299289,0,0,0,0,0,0,81,84,10,0,63,165.27,205,16.00,7.00,-986.00
2024-05-17 16:34:56.327658,0,0,0,0,0,0,81,84,10,0,63,165.42,205,18.00,6.00,-982.00
2024-05-17 16:34:56.514123,0,0,0,0,0,0,81,84,10,0,63,165.45,205,18.00,6.00,-986.00
2024-05-17 16:34:56.531788,0,0,0,0,0,0,81,84,10,0,63,165.27,205,19.00,7.00,-986.00
2024-05-17 16:34:56.708833,0,0,0,0,0,0,81,84,10,0,63,165.15,205,18.00,8.00,-984.00
2024-05-17 16:34:56.736321,0,0,0,0,0,0,81,84,10,0,63,165.40,205,17.00,8.00,-987.00
2024-05-17 16:34:56.913677,0,0,0,0,0,0,81,84,10,0,63,165.16,205,17.00,6.00,-986.00
2024-05-17 16:34:56.939737,0,0,0,0,0,0,81,84,10,0,63,165.10,205,17.00,7.00,-988.00
2024-05-17 16:34:57.042078,0,0,0,0,0,0,81,84,10,0,63,165.15,205,18.00,8.00,-987.00
2024-05-17 16:34:57.143893,0,0,0,0,0,0,81,84,10,0,63,165.21,205,17.00,7.00,-987.00
2024-05-17 16:34:57.323188,0,0,0,0,0,0,81,84,10,0,63,165.15,205,17.00,9.00,-988.00
2024-05-17 16:34:57.347646,0,0,0,0,0,0,81,84,10,0,63,165.44,205,17.00,8.00,-991.00
2024-05-17 16:34:57.528114,0,0,0,0,0,0,81,84,10,0,63,165.28,205,18.00,8.00,-989.00
2024-05-17 16:34:57.551793,0,0,0,0,0,0,81,84,10,0,63,164.92,205,19.00,8.00,-987.00
2024-05-17 16:34:57.733780,0,0,0,0,0,0,81,84,10,0,63,165.11,205,18.00,7.00,-988.00
2024-05-17 16:34:57.755557,0,0,0,0,0,0,81,84,10,0,63,165.30,205,17.00,6.00,-987.00
2024-05-17 16:34:57.857625,0,0,0,0,0,0,81,84,10,0,63,165.26,205,19.00,7.00,-989.00
2024-05-17 16:34:57.959613,0,0,0,0,0,0,81,84,10,0,63,165.49,205,19.00,9.00,-992.00
2024-05-17 16:34:58.061635,0,0,0,0,0,0,81,84,10,0,63,165.04,205,16.00,9.00,-989.00
2024-05-17 16:34:58.244964,0,0,0,0,0,0,81,84,10,0,63,165.12,205,16.00,8.00,-989.00
2024-05-17 16:34:58.265529,0,0,0,0,0,0,81,84,10,0,63,165.30,205,17.00,6.00,-991.00
2024-05-17 16:34:58.449714,0,0,0,0,0,0,81,84,10,0,63,165.35,205,18.00,7.00,-989.00
2024-05-17 16:34:58.473218,0,0,0,0,0,0,81,84,10,0,63,165.42,205,18.00,9.00,-992.00
2024-05-17 16:34:58.571751,0,0,0,0,0,0,81,84,10,0,63,165.34,205,18.00,7.00,-992.00
2024-05-17 16:34:58.756865,0,0,0,0,0,0,81,84,10,0,63,165.25,205,16.00,7.00,-993.00
2024-05-17 16:34:58.775599,0,0,0,0,0,0,81,84,10,0,63,165.27,205,18.00,6.00,-991.00
2024-05-17 16:34:58.826736,0,0,0,0,0,0,81,84,10,0,63,165.26,205,16.00,7.00,-989.00
2024-05-17 16:34:58.961624,0,0,0,0,0,0,81,84,10,0,63,165.07,205,16.00,8.00,-991.00
2024-05-17 16:34:59.081642,0,0,0,0,0,0,82,84,10,0,63,165.21,205,17.00,7.00,-991.00
2024-05-17 16:34:59.268935,0,0,0,0,0,0,82,84,10,0,63,165.41,205,17.00,8.00,-992.00
2024-05-17 16:34:59.269160,0,0,0,0,0,0,82,84,10,0,63,165.25,205,18.00,6.00,-994.00
2024-05-17 16:34:59.336728,0,0,0,0,0,0,82,84,10,0,63,165.13,205,17.00,7.00,-991.00
2024-05-17 16:34:59.473988,0,0,0,0,0,0,82,84,10,0,63,164.98,205,15.00,8.00,-993.00
2024-05-17 16:34:59.540632,0,0,0,0,0,0,82,84,10,0,63,165.22,205,18.00,9.00,-995.00
2024-05-17 16:34:59.680390,0,0,0,0,0,0,82,84,10,0,63,165.23,205,19.00,7.00,-994.00
2024-05-17 16:34:59.744753,0,0,0,0,0,0,82,84,10,0,63,164.94,205,15.00,7.00,-997.00
2024-05-17 16:34:59.884833,0,0,0,0,0,0,82,84,10,0,63,165.19,205,17.00,8.00,-993.00
2024-05-17 16:34:59.948704,0,0,0,0,0,0,82,84,10,0,63,165.12,205,18.00,8.00,-996.00
2024-05-17 16:35:00.088216,0,0,0,0,0,0,82,84,10,0,63,165.21,205,17.00,7.00,-997.00
2024-05-17 16:35:00.152646,0,0,0,0,0,0,82,84,10,0,63,165.27,205,18.00,7.00,-996.00
2024-05-17 16:35:00.292890,0,0,0,0,0,0,82,84,10,0,63,165.41,205,16.00,8.00,-996.00
2024-05-17 16:35:00.357054,0,0,0,0,0,0,82,84,10,0,63,165.22,205,18.00,9.00,-995.00
2024-05-17 16:35:00.497748,0,0,0,0,0,0,82,84,10,0,63,165.21,205,18.00,7.00,-995.00
2024-05-17 16:35:00.560536,0,0,0,0,0,0,82,84,10,0,63,165.11,205,17.00,7.00,-994.00
2024-05-17 16:35:00.702588,0,0,0,0,0,0,82,84,10,0,63,165.11,205,19.00,7.00,-993.00
2024-05-17 16:35:00.764609,0,0,0,0,0,0,82,84,10,0,63,165.40,205,16.00,7.00,-995.00
2024-05-17 16:35:00.907191,0,0,0,0,0,0,82,84,10,0,63,165.44,205,16.00,7.00,-995.00
2024-05-17 16:35:00.968579,0,0,0,0,0,0,82,84,10,0,63,165.21,205,18.00,8.00,-994.00
2024-05-17 16:35:01.070506,0,0,0,0,0,0,82,84,10,0,63,165.37,205,16.00,6.00,-995.00
