TS,pitch,roll,yaw,vgx,vgy,vgz,templ,temph,tof,h,bat,baro,time,agx,agy,agz
2024-05-17 16:36:22.824584,0,0,4,0,0,0,90,92,10,0,61,165.06,205,19.00,7.00,-1001.00
2024-05-17 16:36:22.923038,0,0,4,0,0,0,90,92,10,0,61,165.04,205,19.00,8.00,-1000.00
2024-05-17 16:36:23.031370,0,0,4,0,0,0,90,92,10,0,61,165.08,205,18.00,6.00,-1000.00
2024-05-17 16:36:23.127139,0,0,4,0,0,0,90,92,10,0,61,164.91,205,19.00,7.00,-998.00
2024-05-17 16:36:23.235997,0,0,4,0,0,0,90,92,10,0,61,165.14,205,18.00,8.00,-999.00
2024-05-17 16:36:23.330713,0,0,4,0,0,0,90,92,10,0,61,165.06,205,19.00,8.00,-999.00
2024-05-17 16:36:23.443882,0,0,4,0,0,0,90,92,10,0,61,164.93,205,19.00,9.00,-999.00
2024-05-17 16:36:23.534873,0,0,4,0,0,0,90,92,10,0,61,165.06,205,18.00,7.00,-1000.00
2024-05-17 16:36:23.645675,0,0,4,0,0,0,90,92,10,0,61,165.23,205,17.00,8.00,-1000.00
2024-05-17 16:36:23.738995,0,0,4,0,0,0,90,92,10,0,61,165.21,205,18.00,6.00,-997.00
2024-05-17 16:36:23.850528,0,0,4,0,0,0,90,92,10,0,61,165.14,205,18.00,7.00,-1000.00
2024-05-17 16:36:23.948019,0,0,4,0,0,0,90,92,10,0,61,164.90,205,18.00,8.00,-999.00
2024-05-17 16:36:24.045190,0,0,4,0,0,0,90,92,10,0,61,165.00,205,17.00,7.00,-1001.00
2024-05-17 16:36:24.157703,0,0,4,0,0,0,90,92,10,0,61,165.20,205,17.00,8.00,-996.00
2024-05-17 16:36:24.252020,0,0,4,0,0,0,90,92,10,0,61,165.47,205,18.00,7.00,-1002.00
2024-05-17 16:36:24.351171,0,0,4,0,0,0,90,92,10,0,61,165.35,205,18.00,7.00,-1001.00
2024-05-17 16:36:24.465398,0,0,4,0,0,0,90,92,10,0,61,165.08,205,19.00,8.00,-998.00
2024-05-17 16:36:24.555058,0,0,4,0,0,0,90,92,10,0,61,164.79,205,18.00,7.00,-997.00
2024-05-17 16:36:24.657007,0,0,4,0,0,0,90,92,10,0,61,165.20,205,20.00,8.00,-1001.00
2024-05-17 16:36:24.759034,0,0,4,0,0,0,90,92,10,0,61,165.10,205,19.00,6.00,-999.00
2024-05-17 16:36:24.874521,0,0,4,0,0,0,90,92,10,0,61,165.16,205,19.00,8.00,-998.00
2024-05-17 16:36:24.962883,0,0,4,0,0,0,90,92,10,0,61,165.05,205,19.00,7.00,-998.00
2024-05-17 16:36:25.081649,0,0,4,0,0,0,90,92,10,0,61,165.23,205,18.00,7.00,-1000.00
2024-05-17 16:36:25.166749,0,0,4,0,0,0,90,92,10,0,61,164.86,205,17.00,8.00,-999.00
2024-05-17 16:36:25.283988,0,0,4,0,0,0,90,92,10,0,61,165.19,205,19.00,7.00,-997.00
2024-05-17 16:36:25.370664,0,0,4,0,0,0,90,92,10,0,61,165.08,206,18.00,3.00,-1014.00
2024-05-17 16:36:25.472750,0,0,3,0,0,0,90,92,10,0,61,165.08,206,-12.00,11.00,-990.00
2024-05-17 16:36:25.591011,0,0,2,0,0,0,90,92,10,0,61,165.08,206,0.00,-43.00,-1067.00
2024-05-17 16:36:25.677711,0,0,2,0,0,0,90,92,10,0,61,165.08,206,23.00,24.00,-1000.00
2024-05-17 16:36:25.779102,0,-1,2,0,0,0,90,92,10,0,61,165.08,206,-4.00,16.00,-1086.00
2024-05-17 16:36:25.898295,0,-1,2,0,0,-2,90,92,10,0,61,165.08,206,-34.00,3.00,-1309.00
2024-05-17 16:36:25.982715,0,0,2,0,0,-7,90,92,10,0,61,165.08,206,1.00,-7.00,-1373.00
2024-05-17 16:36:26.033707,0,0,2,0,0,-9,90,92,20,10,61,165.36,206,34.00,16.00,-1076.00
2024-05-17 16:36:26.205661,0,0,2,0,0,-9,90,92,27,20,61,165.60,206,-2.00,-10.00,-972.00
2024-05-17 16:36:26.237633,0,0,2,0,0,-8,90,92,37,30,61,165.50,207,35.00,3.00,-1009.00
2024-05-17 16:36:26.339666,0,0,2,0,0,-8,90,92,45,40,61,165.64,207,9.00,-1.00,-898.00
2024-05-17 16:36:26.515687,0,0,2,0,0,-6,91,92,49,40,61,165.44,207,2.00,-6.00,-882.00
2024-05-17 16:36:26.543692,0,0,2,0,0,-5,91,92,54,50,61,165.37,207,-12.00,13.00,-888.00
2024-05-17 16:36:26.717663,0,0,2,0,0,-3,91,92,55,50,61,165.83,207,-13.00,25.00,-834.00
2024-05-17 16:36:26.747640,0,-1,2,0,0,-2,91,92,57,60,61,165.45,207,-1.00,27.00,-819.00
2024-05-17 16:36:26.922465,0,-1,2,0,0,-1,91,92,58,60,61,165.70,207,-41.00,34.00,-914.00
2024-05-17 16:36:26.951650,0,-1,2,0,0,-1,91,92,59,60,61,166.14,207,18.00,-33.00,-929.00
2024-05-17 16:36:27.127232,0,0,2,0,0,0,91,92,56,60,61,165.70,207,-7.00,27.00,-949.00
2024-05-17 16:36:27.155560,0,0,2,0,0,0,91,92,56,50,61,165.59,207,37.00,43.00,-1069.00
2024-05-17 16:36:27.331955,0,0,2,0,0,0,91,92,57,50,61,165.71,208,13.00,-20.00,-1027.00
2024-05-17 16:36:27.360091,0,0,2,0,0,0,91,92,57,50,61,165.73,208,15.00,32.00,-1097.00
2024-05-17 16:36:27.536645,0,0,2,0,0,-1,90,92,59,50,61,166.07,208,16.00,25.00,-1056.00
2024-05-17 16:36:27.566833,0,-1,2,0,0,-2,90,92,60,50,61,165.66,208,-8.00,-23.00,-1081.00
2024-05-17 16:36:27.665586,0,-1,2,0,0,-2,90,92,63,60,61,166.07,208,18.00,-12.00,-1022.00
2024-05-17 16:36:27.843987,0,-1,2,0,0,-2,90,92,65,60,61,165.95,208,67.00,-9.00,-1061.00
2024-05-17 16:36:27.869582,0,0,2,0,0,-2,90,92,66,60,61,165.82,208,18.00,8.00,-843.00
2024-05-17 16:36:28.049341,0,-1,2,0,0,-1,90,92,67,60,61,166.02,208,10.00,14.00,-941.00
2024-05-17 16:36:28.073588,0,-1,2,0,0,-1,90,92,68,60,61,165.70,208,-37.00,45.00,-976.00
2024-05-17 16:36:28.254104,0,-1,2,0,0,-1,90,92,69,60,61,165.93,208,-43.00,40.00,-944.00
2024-05-17 16:36:28.278333,0,-1,2,0,0,0,90,92,70,60,61,165.65,209,13.00,15.00,-1043.00
2024-05-17 16:36:28.458957,0,-1,2,0,0,-1,90,92,72,60,61,166.09,209,-31.00,50.00,-1089.00
2024-05-17 16:36:28.482252,0,-1,2,0,0,-1,90,92,73,70,61,165.84,209,61.00,-8.00,-947.00
2024-05-17 16:36:28.663171,0,0,2,0,0,-1,90,92,74,70,61,165.95,209,24.00,-6.00,-1074.00
2024-05-17 16:36:28.685551,1,0,2,0,0,-1,90,92,75,70,61,165.80,209,-30.00,22.00,-1014.00
2024-05-17 16:36:28.868723,1,0,2,0,0,0,90,92,76,70,61,165.92,209,-49.00,34.00,-954.00
2024-05-17 16:36:28.889534,0,0,2,0,0,0,90,92,78,70,61,165.89,209,-15.00,5.00,-1085.00
2024-05-17 16:36:29.073023,0,-1,2,0,0,-1,90,92,80,70,61,165.92,209,20.00,6.00,-964.00
2024-05-17 16:36:29.093633,0,0,2,0,0,-1,90,92,81,70,61,166.09,209,-12.00,36.00,-984.00
2024-05-17 16:36:29.195527,0,0,2,0,0,-1,90,92,81,70,61,165.85,209,19.00,16.00,-964.00
2024-05-17 16:36:29.380186,1,0,2,0,0,-1,90,92,81,70,61,166.03,210,20.00,-2.00,-990.00
2024-05-17 16:36:29.399499,1,0,2,0,0,0,90,92,80,70,61,165.77,210,46.00,-27.00,-980.00
2024-05-17 16:36:29.501523,2,0,2,0,0,0,90,92,79,70,61,166.09,210,31.00,-1.00,-1063.00
2024-05-17 16:36:29.687241,1,0,2,0,0,0,90,92,77,80,61,166.04,210,28.00,-4.00,-1076.00
2024-05-17 16:36:29.705833,1,0,2,0,0,0,90,92,75,80,61,165.62,210,-35.00,24.00,-993.00
2024-05-17 16:36:29.756564,1,0,2,0,0,0,90,92,72,80,61,165.62,210,19.00,11.00,-1005.00
2024-05-17 16:36:29.891953,1,0,2,0,0,0,90,92,69,80,61,165.99,210,7.00,24.00,-1022.00
2024-05-17 16:36:29.960618,1,0,2,0,0,0,90,92,66,80,61,165.83,210,16.00,5.00,-1084.00
2024-05-17 16:36:30.063140,1,0,2,0,0,0,90,92,63,80,61,165.80,210,47.00,5.00,-1011.00
2024-05-17 16:36:30.164509,1,0,2,0,0,0,90,92,59,80,61,165.96,210,13.00,49.00,-951.00
2024-05-17 16:36:30.301480,1,0,2,0,0,0,90,92,56,80,61,166.07,211,-28.00,55.00,-1037.00
2024-05-17 16:36:30.368908,0,0,2,0,0,-1,90,92,54,80,61,165.70,211,24.00,8.00,-1051.00
2024-05-17 16:36:30.471667,0,-1,2,0,0,-1,89,93,52,80,61,166.02,211,32.00,38.00,-1121.00
2024-05-17 16:36:30.609905,0,-1,2,0,0,-2,89,93,50,80,61,165.52,211,8.00,15.00,-1059.00
2024-05-17 16:36:30.674375,0,0,2,0,0,-2,89,93,49,80,61,165.75,211,52.00,6.00,-969.00
2024-05-17 16:36:30.813542,0,0,2,0,0,-2,89,93,47,80,61,165.75,211,60.00,20.00,-1014.00
2024-05-17 16:36:30.878479,0,0,2,0,0,-2,89,93,47,90,61,165.65,211,-30.00,-1.00,-1066.00
2024-05-17 16:36:31.018327,0,0,2,0,0,-3,89,93,48,90,61,165.68,211,27.00,26.00,-988.00
2024-05-17 16:36:31.082383,0,0,2,0,0,-3,89,93,48,90,61,165.38,211,-13.00,5.00,-1166.00
2024-05-17 16:36:31.223136,0,0,2,0,0,-3,89,93,49,90,61,165.72,211,33.00,33.00,-975.00
2024-05-17 16:36:31.286470,0,0,2,0,0,-3,89,93,50,90,61,165.67,212,-34.00,18.00,-1056.00
2024-05-17 16:36:31.427861,0,0,2,0,0,-4,89,93,52,100,61,165.71,212,12.00,76.00,-956.00
2024-05-17 16:36:31.490465,0,0,2,0,0,-4,90,92,54,100,61,165.73,212,-1.00,30.00,-948.00
2024-05-17 16:36:31.632705,2,0,2,0,0,-3,90,92,55,100,61,165.79,212,6.00,15.00,-1009.00
2024-05-17 16:36:31.696332,2,0,2,0,0,-3,90,92,57,110,61,165.66,212,44.00,16.00,-1028.00
2024-05-17 16:36:31.796736,2,0,2,0,0,-4,90,92,58,110,61,165.31,212,-67.00,57.00,-892.00
2024-05-17 16:36:31.898600,0,0,2,0,0,-3,90,92,61,110,61,165.74,212,-58.00,17.00,-976.00
2024-05-17 16:36:32.042282,0,0,2,-1,0,-3,90,92,63,110,61,165.77,212,-41.00,5.00,-992.00
2024-05-17 16:36:32.108633,0,0,2,0,0,-3,90,92,64,110,61,165.78,212,29.00,-21.00,-1007.00
2024-05-17 16:36:32.207356,0,0,2,0,0,-3,90,92,66,110,61,165.89,212,50.00,19.00,-1047.00
2024-05-17 16:36:32.307776,1,0,2,0,0,-3,90,92,67,110,61,166.01,213,2.00,-34.00,-977.00
2024-05-17 16:36:32.409673,1,0,2,0,0,-3,90,92,69,120,61,165.82,213,28.00,29.00,-1029.00
2024-05-17 16:36:32.510434,2,0,2,0,0,-3,89,91,71,120,61,165.81,213,21.00,41.00,-878.00
2024-05-17 16:36:32.656734,1,0,2,0,0,-3,89,91,73,120,61,165.85,213,-61.00,64.00,-937.00
2024-05-17 16:36:32.714460,1,0,2,0,0,-3,89,91,75,120,61,165.80,213,28.00,-23.00,-1012.00
2024-05-17 16:36:32.861633,1,0,2,0,0,-2,89,91,75,130,61,165.99,213,35.00,2.00,-997.00
2024-05-17 16:36:32.918439,1,0,2,0,0,-2,89,91,76,130,61,165.72,213,-2.00,11.00,-924.00
2024-05-17 16:36:33.067581,2,0,2,0,0,-2,89,91,76,130,61,165.71,213,55.00,0.00,-1021.00
2024-05-17 16:36:33.122341,1,0,2,0,0,-1,89,91,75,130,61,165.82,213,24.00,22.00,-959.00
2024-05-17 16:36:33.174037,0,0,2,0,0,-1,89,91,73,130,61,166.06,213,34.00,12.00,-962.00
2024-05-17 16:36:33.373431,0,0,2,0,0,0,89,91,71,130,61,165.74,214,34.00,-21.00,-978.00
2024-05-17 16:36:33.377371,0,-1,2,0,0,0,89,91,69,130,61,165.57,214,-20.00,33.00,-944.00
2024-05-17 16:36:33.578229,1,0,2,0,0,0,89,92,66,130,61,165.40,214,5.00,21.00,-1053.00
2024-05-17 16:36:33.581979,0,0,2,-1,0,0,89,92,64,130,61,166.01,214,82.00,-48.00,-1061.00
2024-05-17 16:36:33.683352,0,-1,2,0,0,0,89,92,62,130,61,165.62,214,-4.00,44.00,-1011.00
2024-05-17 16:36:33.785315,0,0,2,0,0,0,89,92,60,120,61,165.48,214,63.00,-12.00,-1028.00
2024-05-17 16:36:33.887528,0,0,2,0,0,0,89,92,59,120,61,165.97,214,-34.00,38.00,-936.00
2024-05-17 16:36:33.989346,1,0,2,0,0,0,89,92,58,120,61,165.70,214,-7.00,21.00,-1121.00
2024-05-17 16:36:34.192667,1,-1,2,0,0,0,89,92,57,120,61,165.86,214,37.00,13.00,-1014.00
2024-05-17 16:36:34.193221,1,-1,2,0,0,0,89,92,57,120,61,165.69,214,16.00,3.00,-983.00
2024-05-17 16:36:34.296313,1,-1,2,0,0,-1,89,92,57,120,61,165.88,215,-44.00,30.00,-1053.00
2024-05-17 16:36:34.400773,0,0,2,0,0,-1,89,92,56,120,61,165.86,215,24.00,19.00,-966.00
2024-05-17 16:36:34.500817,0,0,2,0,0,0,88,91,56,120,61,165.47,215,-6.00,26.00,-1014.00
2024-05-17 16:36:34.602127,0,-1,2,0,0,0,88,91,55,120,61,165.50,215,19.00,5.00,-1079.00
2024-05-17 16:36:34.705161,0,-1,2,0,0,0,88,91,54,120,61,165.50,215,-15.00,43.00,-1029.00
2024-05-17 16:36:34.807318,1,-1,2,0,0,-1,88,91,55,120,61,166.10,215,20.00,42.00,-943.00
2024-05-17 16:36:34.909299,1,-1,2,0,0,-1,88,91,54,120,61,165.54,215,19.00,4.00,-1027.00
2024-05-17 16:36:35.012385,1,-1,2,0,0,-1,88,91,55,120,61,165.56,215,-25.00,36.00,-937.00
2024-05-17 16:36:35.112423,0,-1,2,0,0,0,88,91,55,120,61,165.77,215,-21.00,-2.00,-1101.00
2024-05-17 16:36:35.216799,0,-1,2,0,0,0,88,91,55,120,61,165.75,215,33.00,-18.00,-997.00
2024-05-17 16:36:35.316579,0,-1,2,0,0,0,88,91,55,120,61,165.77,216,19.00,19.00,-998.00
2024-05-17 16:36:35.421563,0,-1,2,0,0,0,88,91,55,120,61,165.65,216,59.00,-31.00,-1145.00
2024-05-17 16:36:35.520317,0,-1,2,0,0,-1,88,91,57,120,61,165.64,216,3.00,11.00,-974.00
2024-05-17 16:36:35.626348,0,-1,2,0,0,-1,88,91,58,120,61,165.60,216,-46.00,18.00,-962.00
2024-05-17 16:36:35.724240,0,-1,2,0,0,-1,88,91,59,120,61,165.71,216,-15.00,5.00,-1042.00
2024-05-17 16:36:35.831246,0,-1,2,0,0,0,88,91,61,120,61,165.68,216,59.00,14.00,-1037.00
2024-05-17 16:36:35.930176,0,-1,2,0,0,-1,88,91,61,120,61,165.52,216,48.00,40.00,-1109.00
2024-05-17 16:36:36.030208,1,-1,2,0,0,-1,88,91,63,120,61,165.62,216,16.00,37.00,-1105.00
2024-05-17 16:36:36.139084,2,-1,2,0,0,-1,88,91,63,120,61,166.02,216,-35.00,29.00,-1021.00
2024-05-17 16:36:36.234887,2,-1,2,0,0,-1,88,91,65,130,61,165.74,216,24.00,34.00,-1033.00
2024-05-17 16:36:36.336197,1,-1,2,0,0,-2,88,91,66,130,61,166.15,217,-40.00,21.00,-1117.00
2024-05-17 16:36:36.445425,1,-1,2,0,0,-3,88,91,68,130,61,165.89,217,-48.00,33.00,-1143.00
2024-05-17 16:36:36.540072,1,0,2,0,0,-3,89,90,71,130,61,166.13,217,53.00,29.00,-1190.00
2024-05-17 16:36:36.650338,1,0,2,0,0,-4,89,90,74,140,61,165.59,217,-32.00,26.00,-998.00
2024-05-17 16:36:36.744033,1,-1,2,0,0,-4,89,90,78,140,61,165.80,217,21.00,2.00,-1085.00
2024-05-17 16:36:36.855027,0,-1,2,0,0,-4,89,90,82,140,61,166.09,217,60.00,11.00,-1093.00
2024-05-17 16:36:36.947981,0,-1,2,0,0,-4,89,90,87,150,61,166.06,217,-59.00,49.00,-975.00
2024-05-17 16:36:36.999152,0,-1,2,0,0,-5,89,90,91,150,61,165.85,217,-26.00,25.00,-1150.00
2024-05-17 16:36:37.162335,0,-1,2,0,0,-6,89,90,96,160,61,166.07,217,43.00,-15.00,-957.00
2024-05-17 16:36:37.204667,0,-1,2,0,0,-5,89,90,97,160,61,165.89,217,-24.00,23.00,-924.00
2024-05-17 16:36:37.305795,0,-1,2,0,0,-5,89,90,101,170,61,166.17,218,-55.00,17.00,-922.00
2024-05-17 16:36:37.469940,0,-1,2,0,0,-4,89,90,103,170,61,166.14,218,-65.00,46.00,-843.00
2024-05-17 16:36:37.509050,0,-1,2,0,0,-4,88,90,108,180,61,166.45,218,-71.00,29.00,-1031.00
2024-05-17 16:36:37.674261,0,-1,2,0,0,-4,88,90,109,180,61,166.11,218,-15.00,49.00,-939.00
2024-05-17 16:36:37.716722,0,-1,2,0,0,-3,88,90,111,180,61,166.09,218,33.00,-3.00,-1064.00
2024-05-17 16:36:37.815338,0,-2,2,0,0,-3,88,90,112,190,61,166.12,218,30.00,25.00,-1042.00
2024-05-17 16:36:37.917067,1,-1,2,0,0,-3,88,90,114,190,61,166.07,218,22.00,53.00,-993.00
2024-05-17 16:36:38.083873,2,-1,2,0,0,-3,88,90,116,190,61,166.27,218,46.00,-1.00,-936.00
2024-05-17 16:36:38.121073,2,-1,2,0,0,-2,88,90,116,190,61,166.04,218,1.00,40.00,-1009.00
2024-05-17 16:36:38.289471,2,0,2,0,0,-2,88,90,118,190,61,166.16,218,36.00,19.00,-1123.00
2024-05-17 16:36:38.329216,1,0,2,0,0,-2,88,90,119,190,61,165.98,219,-6.00,9.00,-973.00
2024-05-17 16:36:38.428492,1,0,2,0,0,-2,88,90,120,190,61,166.43,219,-1.00,54.00,-1000.00
2024-05-17 16:36:38.530018,1,0,2,0,0,-1,87,90,121,190,61,166.13,219,0.00,7.00,-1035.00
2024-05-17 16:36:38.631582,1,0,2,0,0,-1,87,90,123,190,61,166.45,219,14.00,22.00,-1061.00
2024-05-17 16:36:38.733240,0,0,2,0,0,-1,87,90,124,190,61,166.63,219,-40.00,56.00,-957.00
2024-05-17 16:36:38.836935,0,0,2,0,0,-1,87,90,126,200,61,166.54,219,2.00,42.00,-910.00
2024-05-17 16:36:38.940352,0,0,2,0,0,-1,87,90,128,200,61,166.47,219,-57.00,78.00,-1054.00
2024-05-17 16:36:39.039198,0,-1,2,0,0,-1,87,90,129,200,61,166.20,219,-41.00,42.00,-1175.00
2024-05-17 16:36:39.142078,0,-1,2,0,0,-2,87,90,131,200,61,166.41,219,-2.00,26.00,-998.00
2024-05-17 16:36:39.246091,0,-1,2,0,0,-2,87,90,133,200,61,166.14,219,-1.00,35.00,-866.00
2024-05-17 16:36:39.345326,0,-1,2,0,0,-1,87,90,134,200,61,166.33,220,36.00,14.00,-937.00
2024-05-17 16:36:39.517750,1,-1,2,0,0,-1,87,90,134,210,61,166.34,220,-3.00,9.00,-1128.00
2024-05-17 16:36:39.554459,0,-1,2,0,0,-1,87,90,135,210,61,166.28,220,16.00,20.00,-949.00
2024-05-17 16:36:39.650912,0,-1,2,0,0,-1,87,90,136,210,61,166.51,220,-3.00,38.00,-939.00
2024-05-17 16:36:39.824584,0,-1,2,0,0,-1,87,90,137,210,61,166.31,220,-17.00,50.00,-1032.00
2024-05-17 16:36:39.861275,0,-1,2,0,0,-1,87,90,137,210,61,166.49,220,19.00,24.00,-954.00
2024-05-17 16:36:39.956929,0,-1,2,0,0,-1,87,90,136,210,61,166.49,220,-2.00,25.00,-984.00
2024-05-17 16:36:40.132191,0,-1,2,0,0,0,87,90,137,210,61,166.56,220,77.00,7.00,-1114.00
2024-05-17 16:36:40.162965,1,-1,2,0,0,0,87,90,136,210,61,166.55,220,-18.00,47.00,-894.00
2024-05-17 16:36:40.274678,1,0,2,0,0,0,87,90,136,210,61,166.42,220,27.00,21.00,-932.00
2024-05-17 16:36:40.379190,2,0,2,0,0,0,87,90,136,210,61,166.69,221,-3.00,2.00,-1078.00
2024-05-17 16:36:40.415805,1,0,2,0,0,0,87,90,136,210,61,166.06,221,13.00,65.00,-1000.00
2024-05-17 16:36:40.574362,1,0,2,0,0,0,87,90,136,210,61,166.27,221,-7.00,53.00,-968.00
2024-05-17 16:36:40.673017,1,0,2,0,0,0,87,90,136,210,61,166.19,221,-30.00,26.00,-812.00
2024-05-17 16:36:40.722285,1,0,2,0,0,0,87,90,137,210,61,166.45,221,42.00,22.00,-1012.00
2024-05-17 16:36:40.850376,1,0,2,0,0,0,87,90,137,210,61,166.30,221,15.00,33.00,-1060.00
2024-05-17 16:36:40.928963,0,0,2,0,0,0,87,90,138,210,61,166.68,221,50.00,23.00,-1065.00
2024-05-17 16:36:41.030439,0,0,2,0,0,0,87,90,138,210,61,166.37,221,23.00,31.00,-933.00
2024-05-17 16:36:41.173518,1,0,2,0,0,0,87,90,138,210,61,166.40,221,-31.00,11.00,-865.00
2024-05-17 16:36:41.234359,1,0,2,0,0,0,87,90,138,210,61,166.25,221,-20.00,5.00,-966.00
2024-05-17 16:36:41.338722,1,0,2,0,0,0,87,90,139,210,61,166.24,222,13.00,15.00,-888.00
2024-05-17 16:36:41.435947,1,-1,2,0,0,0,87,90,139,210,61,166.45,222,-31.00,2.00,-1054.00
2024-05-17 16:36:41.538180,0,-1,2,0,0,0,87,90,139,210,61,166.80,222,23.00,42.00,-1159.00
2024-05-17 16:36:41.639886,0,0,2,0,0,0,87,90,140,210,61,166.46,222,34.00,15.00,-979.00
2024-05-17 16:36:41.744013,1,0,2,0,0,0,87,90,140,210,61,166.48,222,-40.00,11.00,-1122.00
2024-05-17 16:36:41.843934,0,0,2,0,0,0,87,90,140,210,61,166.22,222,79.00,7.00,-907.00
2024-05-17 16:36:41.975174,1,0,2,0,0,0,87,90,140,210,61,166.50,222,-13.00,32.00,-946.00
2024-05-17 16:36:42.047958,0,-1,2,0,0,0,87,90,139,210,61,166.59,222,1.00,7.00,-916.00
2024-05-17 16:36:42.184730,0,-1,2,0,0,0,87,90,138,210,61,166.54,222,-4.00,39.00,-1203.00
2024-05-17 16:36:42.252272,0,-1,2,0,0,0,87,90,137,210,61,166.17,223,-63.00,34.00,-840.00
2024-05-17 16:36:42.353874,0,-1,2,0,0,0,87,90,136,210,61,166.50,223,16.00,0.00,-989.00
2024-05-17 16:36:42.491165,0,-1,2,0,0,0,87,90,134,210,61,166.24,223,-24.00,18.00,-1075.00
2024-05-17 16:36:42.557920,0,-1,2,0,0,0,86,89,134,210,61,166.53,223,-77.00,16.00,-1007.00
2024-05-17 16:36:42.659863,0,-1,2,0,0,0,86,89,133,210,61,166.25,223,34.00,3.00,-1031.00
2024-05-17 16:36:42.795069,0,-1,2,0,0,0,86,89,132,210,61,166.54,223,79.00,24.00,-1011.00
2024-05-17 16:36:42.863842,0,-1,2,0,0,0,86,89,132,200,61,166.33,223,13.00,20.00,-1107.00
2024-05-17 16:36:42.999610,0,-1,2,0,0,0,86,89,132,200,61,166.53,223,12.00,49.00,-870.00
2024-05-17 16:36:43.067839,0,-1,2,0,0,0,86,89,131,200,61,166.51,223,56.00,17.00,-1157.00
2024-05-17 16:36:43.170519,0,-1,2,0,0,0,86,89,132,200,61,166.30,223,36.00,23.00,-1001.00
2024-05-17 16:36:43.307946,1,-1,2,0,0,0,86,89,132,200,61,166.32,224,-53.00,20.00,-1017.00
2024-05-17 16:36:43.373688,0,-1,2,0,0,0,86,89,133,200,61,166.45,224,25.00,15.00,-884.00
2024-05-17 16:36:43.511831,0,0,2,0,0,0,86,89,132,200,61,166.20,224,20.00,7.00,-990.00
2024-05-17 16:36:43.577846,0,-1,2,0,0,1,87,89,131,200,61,166.49,224,-3.00,36.00,-914.00
2024-05-17 16:36:43.715792,0,-1,2,0,0,2,87,89,129,200,61,166.22,224,13.00,6.00,-1072.00
2024-05-17 16:36:43.781712,0,-1,2,0,0,2,87,89,127,200,61,166.28,224,-9.00,39.00,-993.00
2024-05-17 16:36:43.920611,1,0,2,0,0,2,87,89,125,200,61,166.30,224,-12.00,24.00,-906.00
2024-05-17 16:36:43.985614,1,0,2,0,0,2,87,89,123,190,61,166.18,224,13.00,17.00,-1028.00
2024-05-17 16:36:44.110903,0,0,2,0,0,2,87,89,121,190,61,166.41,224,22.00,41.00,-859.00
2024-05-17 16:36:44.189748,0,0,2,0,0,2,87,89,119,190,61,166.27,224,20.00,14.00,-1122.00
2024-05-17 16:36:44.330227,0,0,2,0,0,2,87,89,117,180,61,166.25,225,-50.00,57.00,-1031.00
2024-05-17 16:36:44.342928,0,0,2,0,0,2,87,89,115,180,61,166.23,225,0.00,39.00,-1053.00
2024-05-17 16:36:44.542539,1,0,2,0,0,2,87,89,113,180,61,166.34,225,51.00,24.00,-983.00
2024-05-17 16:36:44.598933,0,0,2,0,0,2,86,89,111,180,61,166.18,225,5.00,32.00,-899.00
2024-05-17 16:36:44.739890,0,0,2,0,0,2,86,89,110,180,61,165.94,225,32.00,17.00,-947.00
2024-05-17 16:36:44.801552,0,-1,2,0,0,2,86,89,109,180,61,166.29,225,8.00,13.00,-965.00
2024-05-17 16:36:44.852617,0,-1,2,0,0,1,86,89,109,170,61,165.91,225,9.00,4.00,-1041.00
2024-05-17 16:36:45.063349,0,-1,2,0,0,1,86,89,108,170,61,165.95,225,22.00,33.00,-1042.00
2024-05-17 16:36:45.065005,0,-1,2,0,0,1,86,89,108,170,61,165.73,225,-19.00,32.00,-1228.00
2024-05-17 16:36:45.162328,0,-1,2,0,0,1,86,89,107,170,61,165.89,225,52.00,2.00,-1043.00
2024-05-17 16:36:45.260971,0,-1,2,0,0,1,86,89,107,170,61,166.24,226,-64.00,70.00,-916.00
2024-05-17 16:36:45.366185,0,-1,2,0,0,1,86,89,106,170,61,166.08,226,15.00,-1.00,-1003.00
2024-05-17 16:36:45.465099,0,0,2,0,0,1,86,89,105,170,61,166.08,226,54.00,27.00,-988.00
2024-05-17 16:36:45.567011,1,-1,2,0,0,0,87,89,105,170,61,165.71,226,33.00,35.00,-1029.00
2024-05-17 16:36:45.669417,1,-1,2,0,0,0,87,89,105,170,61,166.16,226,-33.00,-9.00,-987.00
2024-05-17 16:36:45.770744,0,-1,2,0,0,1,87,89,104,170,61,166.21,226,6.00,27.00,-855.00
2024-05-17 16:36:45.873711,0,0,2,0,0,1,87,89,103,170,61,165.84,226,24.00,25.00,-1168.00
2024-05-17 16:36:45.974538,1,0,2,0,0,0,87,89,103,170,61,166.33,226,16.00,18.00,-1010.00
2024-05-17 16:36:46.173343,0,0,2,0,0,0,87,89,103,170,61,165.95,226,22.00,-13.00,-1027.00
2024-05-17 16:36:46.183043,0,0,2,0,0,1,87,89,102,170,61,166.34,226,14.00,39.00,-1006.00
2024-05-17 16:36:46.281955,0,-1,2,0,0,0,87,89,102,170,61,165.87,227,37.00,4.00,-990.00
2024-05-17 16:36:46.382536,0,-1,2,0,0,0,87,89,102,170,61,166.07,227,-50.00,35.00,-931.00
2024-05-17 16:36:46.484510,0,-1,2,0,0,0,87,89,101,170,61,165.81,227,-58.00,34.00,-1044.00
2024-05-17 16:36:46.685340,0,-1,2,0,0,0,87,89,100,170,61,166.14,227,-58.00,42.00,-1006.00
2024-05-17 16:36:46.688505,0,-1,2,0,0,0,87,89,100,170,61,166.10,227,45.00,28.00,-972.00
2024-05-17 16:36:46.790513,0,-1,2,0,0,0,87,89,99,170,61,165.74,227,11.00,36.00,-930.00
2024-05-17 16:36:46.893199,1,-1,2,0,0,0,87,89,99,170,61,166.17,227,-46.00,52.00,-1024.00
2024-05-17 16:36:46.994459,1,-1,2,0,0,0,87,89,99,170,61,166.14,227,-17.00,45.00,-912.00
2024-05-17 16:36:47.096740,1,-1,2,0,0,0,87,89,99,170,61,166.09,227,60.00,14.00,-1048.00
2024-05-17 16:36:47.301582,1,0,2,0,0,0,87,89,98,170,61,166.03,227,6.00,12.00,-948.00
2024-05-17 16:36:47.301661,1,0,2,0,0,0,87,89,98,170,61,166.06,228,18.00,-20.00,-983.00
2024-05-17 16:36:47.402784,1,0,2,0,0,0,87,89,98,170,61,166.29,228,-8.00,27.00,-986.00
2024-05-17 16:36:47.506482,0,0,2,0,0,1,87,89,98,170,61,166.05,228,36.00,21.00,-1010.00
2024-05-17 16:36:47.606993,0,0,2,0,0,0,86,88,98,160,61,166.43,228,34.00,33.00,-982.00
2024-05-17 16:36:47.718193,0,0,2,0,0,0,86,88,99,160,61,166.11,228,-3.00,-1.00,-1073.00
2024-05-17 16:36:47.811408,-1,0,2,0,0,0,86,88,99,160,61,165.97,228,-41.00,48.00,-951.00
2024-05-17 16:36:47.914129,0,0,2,0,0,0,86,88,100,170,61,166.03,228,-23.00,45.00,-1018.00
2024-05-17 16:36:48.020418,0,0,2,0,0,0,86,88,100,170,61,165.95,228,50.00,-9.00,-1067.00
2024-05-17 16:36:48.116737,0,-1,2,0,0,0,86,88,100,170,61,166.35,228,47.00,10.00,-935.00
2024-05-17 16:36:48.221449,0,-1,2,0,0,0,86,88,100,170,61,166.14,228,-3.00,29.00,-1057.00
2024-05-17 16:36:48.321763,0,-1,2,0,0,0,86,88,100,170,61,165.93,229,22.00,27.00,-1031.00
2024-05-17 16:36:48.371725,0,-1,2,0,0,0,86,88,101,170,61,166.03,229,-74.00,63.00,-957.00
2024-05-17 16:36:48.474561,0,-1,2,0,0,0,86,88,101,170,61,165.90,229,22.00,22.00,-1029.00
2024-05-17 16:36:48.631070,0,0,2,0,0,0,85,89,102,170,61,166.35,229,-60.00,78.00,-990.00
2024-05-17 16:36:48.678104,0,-1,2,0,0,0,85,89,102,170,61,166.15,229,-60.00,68.00,-940.00
2024-05-17 16:36:48.835850,0,-1,2,0,0,0,85,89,104,170,61,166.43,229,34.00,11.00,-975.00
2024-05-17 16:36:48.881755,0,-2,2,0,0,0,85,89,105,170,61,165.91,229,12.00,14.00,-930.00
2024-05-17 16:36:49.040747,0,-1,2,0,0,0,85,89,106,170,61,165.93,229,57.00,0.00,-944.00
2024-05-17 16:36:49.087454,0,-1,2,0,0,0,85,89,107,170,61,166.10,229,14.00,23.00,-994.00
2024-05-17 16:36:49.187693,0,-1,2,0,0,0,85,89,108,170,61,165.99,229,9.00,41.00,-1041.00
2024-05-17 16:36:49.291446,0,-1,2,0,0,0,85,89,110,170,61,165.99,230,27.00,15.00,-991.00
2024-05-17 16:36:49.391453,0,-1,2,0,0,0,85,89,111,170,61,166.32,230,17.00,34.00,-1045.00
2024-05-17 16:36:49.552723,0,-1,2,0,0,0,85,89,113,170,61,166.21,230,-12.00,-4.00,-1009.00
2024-05-17 16:36:49.595575,0,-1,2,0,0,0,85,89,114,170,61,166.42,230,1.00,45.00,-963.00
2024-05-17 16:36:49.757454,0,-1,2,0,0,0,85,89,116,170,61,166.46,230,0.00,23.00,-1014.00
2024-05-17 16:36:49.799376,0,-1,2,0,0,0,85,89,117,170,61,166.21,230,-5.00,18.00,-945.00
2024-05-17 16:36:49.967971,0,-1,2,0,0,0,85,89,117,170,61,166.18,230,-9.00,5.00,-932.00
2024-05-17 16:36:50.003271,-1,-2,2,0,0,0,85,89,117,170,61,166.23,230,-76.00,51.00,-925.00
2024-05-17 16:36:50.166913,-1,-2,2,0,0,0,85,89,117,170,61,166.24,230,7.00,-5.00,-1002.00
2024-05-17 16:36:50.207216,-5,-1,2,0,0,0,85,89,115,170,61,166.34,230,-53.00,31.00,-987.00
2024-05-17 16:36:50.371696,-8,-1,2,1,0,0,85,89,118,170,61,166.53,231,-59.00,15.00,-957.00
2024-05-17 16:36:50.411290,-8,-1,2,2,0,0,85,89,118,170,61,166.16,231,-44.00,52.00,-952.00
2024-05-17 16:36:50.513368,-8,-1,2,3,0,0,85,89,117,170,61,166.29,231,-24.00,77.00,-995.00
2024-05-17 16:36:50.682121,-8,-2,2,5,0,0,86,89,117,170,61,165.77,231,-63.00,41.00,-1053.00
2024-05-17 16:36:50.722434,-7,-2,2,6,0,0,86,89,116,170,61,166.43,231,-27.00,9.00,-972.00
2024-05-17 16:36:50.819305,-6,-2,2,6,0,0,86,89,113,170,61,166.22,231,-39.00,39.00,-1062.00
2024-05-17 16:36:50.998681,-5,-2,2,7,0,0,86,89,112,170,61,166.07,231,-104.00,90.00,-1015.00
2024-05-17 16:36:51.025021,-3,-2,2,7,0,0,86,89,113,170,61,166.37,231,-17.00,23.00,-1012.00
2024-05-17 16:36:51.125938,0,-1,2,8,0,0,86,89,112,170,61,166.06,231,-34.00,34.00,-998.00
2024-05-17 16:36:51.293296,2,-1,2,7,0,0,86,89,112,170,61,166.31,231,-45.00,68.00,-1192.00
2024-05-17 16:36:51.329468,4,-1,2,6,0,0,86,89,111,170,61,166.03,232,-71.00,14.00,-990.00
2024-05-17 16:36:51.501189,3,-1,2,4,0,0,86,89,109,170,61,166.06,232,17.00,24.00,-951.00
2024-05-17 16:36:51.533101,2,0,2,4,0,0,86,89,108,170,61,166.04,232,-47.00,35.00,-971.00
2024-05-17 16:36:51.636463,1,-1,2,3,0,0,86,88,106,170,61,166.04,232,2.00,0.00,-880.00
2024-05-17 16:36:51.737337,0,-1,2,3,0,0,86,88,103,170,61,165.82,232,12.00,22.00,-1091.00
2024-05-17 16:36:51.911988,0,-1,2,3,0,0,86,88,102,170,61,166.18,232,-20.00,39.00,-940.00
2024-05-17 16:36:51.943525,0,-1,2,2,0,0,86,88,100,160,61,165.70,232,-24.00,33.00,-1080.00
2024-05-17 16:36:52.043171,0,-1,2,2,0,0,86,88,99,160,61,165.87,232,-7.00,45.00,-1078.00
2024-05-17 16:36:52.214887,0,-1,2,2,0,0,86,88,98,160,61,166.10,232,3.00,15.00,-1132.00
2024-05-17 16:36:52.247288,1,-1,2,2,0,0,86,88,98,160,61,166.09,232,-36.00,10.00,-1068.00
2024-05-17 16:36:52.298175,1,-4,2,1,0,0,86,88,96,160,61,166.18,233,-31.00,12.00,-990.00
2024-05-17 16:36:52.400106,0,-5,2,1,0,0,86,88,95,160,61,166.32,233,45.00,-6.00,-1061.00
2024-05-17 16:36:52.502127,0,-4,2,1,-1,0,86,88,95,160,61,166.39,233,22.00,31.00,-1102.00
2024-05-17 16:36:52.624458,2,1,2,1,-1,0,86,88,95,160,61,165.73,233,-26.00,45.00,-983.00
2024-05-17 16:36:52.707820,1,1,2,0,0,0,86,88,97,160,61,166.07,233,-11.00,27.00,-960.00
2024-05-17 16:36:52.808333,0,0,2,0,0,0,86,88,97,160,61,165.91,233,-24.00,28.00,-977.00
2024-05-17 16:36:52.931897,-1,-1,2,0,0,0,86,88,98,160,61,165.90,233,-25.00,20.00,-1025.00
2024-05-17 16:36:53.012273,-1,-1,2,0,0,0,86,88,98,160,61,165.78,233,-12.00,23.00,-982.00
2024-05-17 16:36:53.117241,-1,-1,2,0,0,0,86,88,99,160,60,166.25,233,-13.00,51.00,-967.00
2024-05-17 16:36:53.218935,0,-1,2,0,0,0,86,88,99,160,60,165.92,233,-14.00,42.00,-984.00
2024-05-17 16:36:53.318347,0,-1,2,0,0,0,86,88,99,160,60,166.05,234,-23.00,30.00,-906.00
2024-05-17 16:36:53.421392,0,-1,2,0,0,0,86,88,100,160,60,166.01,234,-19.00,53.00,-999.00
2024-05-17 16:36:53.546739,0,-1,2,0,0,0,86,88,100,160,60,166.15,234,-43.00,44.00,-960.00
2024-05-17 16:36:53.625317,0,-1,2,0,0,0,86,88,101,160,60,166.13,234,47.00,-31.00,-1027.00
2024-05-17 16:36:53.727974,-1,-2,2,0,0,0,86,88,102,160,60,166.09,234,23.00,8.00,-960.00
2024-05-17 16:36:53.828767,-1,-1,2,0,0,0,86,88,103,160,60,166.26,234,20.00,33.00,-1033.00
2024-05-17 16:36:53.957224,0,-1,2,0,0,0,86,88,103,160,60,166.14,234,25.00,9.00,-929.00
2024-05-17 16:36:54.032832,0,-1,2,0,0,0,86,88,103,160,60,166.24,234,-69.00,15.00,-926.00
2024-05-17 16:36:54.161802,0,-1,2,0,0,0,86,88,103,160,60,166.28,234,-53.00,-7.00,-955.00
2024-05-17 16:36:54.239296,0,-1,2,0,0,0,86,88,104,160,60,166.28,234,-80.00,55.00,-1011.00
2024-05-17 16:36:54.338632,-1,-1,2,0,0,0,86,88,105,160,60,165.94,235,-21.00,-2.00,-1050.00
2024-05-17 16:36:54.440252,-1,-1,2,0,0,0,86,88,106,160,60,166.24,235,32.00,0.00,-973.00
2024-05-17 16:36:54.542898,-1,-1,2,0,0,0,86,88,106,160,60,166.03,235,-46.00,63.00,-972.00
2024-05-17 16:36:54.645392,-1,-1,2,0,0,0,84,88,105,160,60,166.31,235,-39.00,15.00,-1011.00
2024-05-17 16:36:54.746027,0,-1,2,0,0,0,84,88,105,160,60,166.32,235,25.00,-2.00,-1049.00
2024-05-17 16:36:54.981371,-1,-1,2,0,0,0,84,88,105,160,60,166.05,235,-42.00,26.00,-863.00
2024-05-17 16:36:54.982966,0,-1,2,0,0,0,84,88,105,160,60,165.62,235,-44.00,-11.00,-1073.00
2024-05-17 16:36:55.051988,6,0,2,0,0,0,84,88,105,160,60,166.10,235,3.00,33.00,-981.00
2024-05-17 16:36:55.184704,8,0,2,-2,0,0,84,88,105,160,60,166.14,235,19.00,-1.00,-997.00
2024-05-17 16:36:55.256274,8,0,2,-3,0,0,84,88,104,160,60,166.34,235,31.00,15.00,-987.00
2024-05-17 16:36:55.389441,7,-1,2,-5,0,0,84,88,103,160,60,166.02,236,-9.00,33.00,-1005.00
2024-05-17 16:36:55.460729,6,-1,2,-6,0,0,84,88,104,160,60,166.22,236,48.00,21.00,-975.00
2024-05-17 16:36:55.511034,5,-2,2,-6,0,0,84,88,106,160,60,165.97,236,40.00,0.00,-1091.00
2024-05-17 16:36:55.696752,5,-2,2,-7,0,0,85,88,107,160,60,166.39,236,39.00,36.00,-1085.00
2024-05-17 16:36:55.715014,4,-1,2,-7,0,0,85,88,108,160,60,166.26,236,69.00,-7.00,-1047.00
2024-05-17 16:36:55.904787,1,0,2,-7,0,0,85,88,109,160,60,166.25,236,57.00,20.00,-1047.00
2024-05-17 16:36:55.925249,-1,0,2,-7,0,0,85,88,112,160,60,166.18,236,19.00,33.00,-905.00
2024-05-17 16:36:56.020955,-4,-1,2,-6,0,0,85,88,111,170,60,166.45,236,18.00,22.00,-1097.00
2024-05-17 16:36:56.124507,-5,-1,2,-5,0,0,85,88,112,170,60,166.10,236,53.00,17.00,-871.00
2024-05-17 16:36:56.224966,-3,-1,2,-4,0,0,85,88,114,170,60,166.27,236,110.00,-31.00,-1077.00
2024-05-17 16:36:56.326988,-1,-1,2,-3,0,0,85,88,114,170,60,166.46,237,-11.00,42.00,-1001.00
2024-05-17 16:36:56.429005,0,-1,2,-2,0,0,85,88,114,170,60,166.21,237,-56.00,49.00,-941.00
2024-05-17 16:36:56.626820,0,-1,2,-3,0,0,85,88,113,170,60,166.24,237,-6.00,17.00,-1084.00
2024-05-17 16:36:56.633092,0,-1,2,-3,0,0,84,88,113,170,60,166.22,237,26.00,22.00,-944.00
2024-05-17 16:36:56.824087,0,-1,2,-2,0,0,84,88,113,170,60,166.15,237,23.00,17.00,-974.00
2024-05-17 16:36:56.838163,0,-1,2,-2,0,0,84,88,112,170,60,166.22,237,1.00,15.00,-983.00
2024-05-17 16:36:57.028690,0,0,2,-2,0,0,84,88,111,170,60,165.97,237,-24.00,35.00,-1119.00
2024-05-17 16:36:57.040879,1,0,2,-2,0,0,84,88,110,170,60,166.43,237,-18.00,19.00,-1002.00
2024-05-17 16:36:57.239232,0,0,2,-2,0,0,84,88,108,170,59,166.47,237,9.00,14.00,-947.00
2024-05-17 16:36:57.244978,-5,0,2,-1,0,0,84,88,107,170,59,166.15,237,0.00,23.00,-932.00
2024-05-17 16:36:57.347267,-3,0,2,0,0,0,84,88,108,170,59,165.97,238,-4.00,14.00,-1139.00
2024-05-17 16:36:57.540329,-1,0,2,0,0,0,84,88,105,170,59,166.21,238,44.00,-21.00,-1047.00
2024-05-17 16:36:57.550972,0,0,2,0,0,0,84,88,103,170,59,166.18,238,-3.00,2.00,-1062.00
2024-05-17 16:36:57.747941,0,0,2,0,0,0,85,87,102,160,59,166.04,238,25.00,-9.00,-1056.00
2024-05-17 16:36:57.756473,0,0,2,0,0,0,85,87,101,160,59,166.06,238,10.00,-23.00,-999.00
2024-05-17 16:36:57.951388,0,0,2,0,0,0,85,87,99,160,59,166.17,238,-46.00,22.00,-992.00
2024-05-17 16:36:57.959060,0,0,2,0,0,0,85,87,97,160,59,166.01,238,8.00,31.00,-934.00
2024-05-17 16:36:58.154708,-1,-1,2,0,0,0,85,87,96,160,59,166.09,238,-48.00,36.00,-994.00
2024-05-17 16:36:58.166401,-1,-1,2,0,0,0,85,87,94,160,59,165.69,238,39.00,-3.00,-1105.00
2024-05-17 16:36:58.266750,-1,-1,2,0,0,0,85,87,93,160,59,165.87,239,11.00,11.00,-1103.00
2024-05-17 16:36:58.367997,0,0,2,0,0,0,85,87,92,160,59,166.14,239,47.00,6.00,-946.00
2024-05-17 16:36:58.468882,0,0,2,0,0,0,85,87,90,160,59,166.18,239,42.00,29.00,-1014.00
2024-05-17 16:36:58.666137,0,-1,2,0,0,0,85,87,89,160,59,166.22,239,-24.00,33.00,-1076.00
2024-05-17 16:36:58.672870,0,-1,2,0,0,-1,85,87,88,160,59,166.09,239,12.00,2.00,-939.00
2024-05-17 16:36:58.873534,0,-1,2,0,0,0,85,87,88,160,59,166.15,239,33.00,45.00,-1002.00
2024-05-17 16:36:58.877477,0,-1,2,0,0,0,85,87,88,160,59,165.81,239,-32.00,62.00,-975.00
2024-05-17 16:36:59.075623,0,-1,2,0,0,0,85,87,87,160,59,165.89,239,-80.00,35.00,-990.00
2024-05-17 16:36:59.080879,-1,-1,2,0,0,0,85,87,88,160,59,165.90,239,4.00,9.00,-959.00
2024-05-17 16:36:59.285726,-1,-1,2,0,0,0,85,87,88,160,59,166.00,239,-49.00,26.00,-1103.00
2024-05-17 16:36:59.285918,0,-1,2,0,0,-1,85,87,88,160,59,166.30,240,24.00,0.00,-980.00
2024-05-17 16:36:59.386909,0,0,2,0,0,-1,85,87,89,160,59,166.12,240,64.00,-15.00,-980.00
2024-05-17 16:36:59.440531,0,-3,2,0,0,0,85,87,89,160,59,166.04,240,22.00,-3.00,-1059.00
2024-05-17 16:36:59.539789,1,-8,2,0,-1,-1,85,87,90,160,59,165.67,240,28.00,-8.00,-995.00
2024-05-17 16:36:59.690091,0,-7,2,0,-2,0,84,87,90,160,59,166.10,240,-16.00,45.00,-1005.00
2024-05-17 16:36:59.743849,0,-5,2,0,-3,0,84,87,87,160,59,165.75,240,48.00,13.00,-975.00
2024-05-17 16:36:59.896880,0,-3,2,0,-3,0,84,87,88,160,59,166.27,240,-31.00,22.00,-1032.00
2024-05-17 16:36:59.947743,0,-1,2,0,-3,0,84,87,89,160,59,165.91,240,76.00,-10.00,-997.00
2024-05-17 16:37:00.099919,0,0,2,0,-3,0,84,87,89,160,59,165.92,240,-26.00,74.00,-966.00
2024-05-17 16:37:00.153794,0,0,2,0,-3,0,84,87,88,160,59,166.15,240,31.00,30.00,-996.00
2024-05-17 16:37:00.253816,0,-1,2,0,-2,0,84,87,89,160,59,165.93,241,38.00,37.00,-997.00
2024-05-17 16:37:00.409397,1,-1,2,0,-2,0,84,87,89,160,59,165.69,241,17.00,51.00,-950.00
2024-05-17 16:37:00.458090,1,-1,2,0,-2,0,84,87,89,160,59,166.21,241,35.00,33.00,-977.00
2024-05-17 16:37:00.611683,1,-1,2,0,-2,0,84,87,90,160,59,165.82,241,68.00,17.00,-955.00
2024-05-17 16:37:00.663526,0,-1,2,0,-2,0,84,87,90,160,59,165.70,241,47.00,35.00,-961.00
2024-05-17 16:37:00.763921,1,-2,2,0,-2,0,84,87,91,160,59,166.13,241,16.00,37.00,-960.00
2024-05-17 16:37:00.918810,0,-2,2,0,-2,0,84,87,93,160,59,165.80,241,-14.00,35.00,-1038.00
2024-05-17 16:37:00.967757,0,-2,2,0,-2,0,84,87,94,160,59,166.02,241,22.00,21.00,-934.00
2024-05-17 16:37:01.123646,0,-2,2,0,-2,0,84,87,96,160,59,166.10,241,47.00,47.00,-987.00
2024-05-17 16:37:01.171735,0,-1,2,0,-2,0,84,87,97,160,58,165.93,241,4.00,68.00,-997.00
2024-05-17 16:37:01.328827,0,0,2,0,-2,-1,84,87,98,170,58,166.06,242,-34.00,8.00,-921.00
2024-05-17 16:37:01.375766,0,3,2,0,-1,0,84,87,98,170,58,166.15,242,23.00,37.00,-892.00
2024-05-17 16:37:01.477850,1,2,2,0,0,0,84,87,99,170,58,165.97,242,27.00,7.00,-908.00
2024-05-17 16:37:01.583048,1,0,2,0,0,0,84,87,100,170,58,166.36,242,-4.00,63.00,-1111.00
2024-05-17 16:37:01.681753,0,0,2,0,0,0,85,87,100,170,58,166.43,242,9.00,-8.00,-895.00
2024-05-17 16:37:01.840549,0,-1,2,0,0,0,85,87,99,170,58,165.88,242,36.00,-11.00,-967.00
2024-05-17 16:37:01.890939,1,0,2,0,0,0,85,87,97,170,58,166.18,242,-38.00,40.00,-883.00
2024-05-17 16:37:01.989554,1,0,2,0,0,0,85,87,96,170,58,166.08,242,84.00,10.00,-963.00
2024-05-17 16:37:02.090621,1,0,2,0,0,0,85,87,94,170,58,165.82,242,-31.00,45.00,-839.00
2024-05-17 16:37:02.192916,1,0,2,0,0,0,85,87,92,170,58,166.24,242,41.00,19.00,-1037.00
2024-05-17 16:37:02.293719,1,0,2,0,0,0,85,87,91,170,58,165.77,243,24.00,33.00,-1090.00
2024-05-17 16:37:02.457742,1,-1,2,0,0,0,85,87,90,160,58,165.84,243,6.00,43.00,-914.00
2024-05-17 16:37:02.498734,1,-1,2,0,0,0,85,87,88,160,58,165.96,243,12.00,30.00,-1043.00
2024-05-17 16:37:02.660256,1,-1,2,0,0,0,85,87,87,160,58,165.93,243,-17.00,22.00,-846.00
2024-05-17 16:37:02.702765,1,-1,2,0,0,0,85,87,86,160,58,166.47,243,41.00,31.00,-1024.00
2024-05-17 16:37:02.865053,1,-1,2,0,0,0,85,87,85,160,58,165.94,243,5.00,-4.00,-1020.00
2024-05-17 16:37:02.911134,0,-1,2,0,0,0,85,87,85,160,58,165.93,243,59.00,39.00,-1015.00
2024-05-17 16:37:03.008679,1,-1,2,0,0,0,85,87,84,160,58,166.21,243,-58.00,71.00,-988.00
2024-05-17 16:37:03.059710,1,-1,2,0,0,0,85,87,84,160,58,165.99,243,40.00,12.00,-969.00
2024-05-17 16:37:03.171767,1,-1,2,0,0,0,85,87,84,160,58,166.11,243,34.00,10.00,-961.00
2024-05-17 16:37:03.263853,1,-1,2,0,0,0,85,87,83,160,58,166.02,244,48.00,13.00,-1033.00
2024-05-17 16:37:03.417032,2,0,2,0,0,0,85,87,83,160,58,165.97,244,7.00,-6.00,-1100.00
2024-05-17 16:37:03.519129,1,-1,2,0,0,0,85,87,84,160,58,165.96,244,-5.00,37.00,-1067.00
2024-05-17 16:37:03.571242,1,-1,2,0,0,0,85,87,84,160,58,165.53,244,43.00,4.00,-977.00
2024-05-17 16:37:03.672166,0,3,2,0,0,0,85,86,83,160,58,165.84,244,19.00,14.00,-1038.00
2024-05-17 16:37:03.786880,0,7,2,0,1,0,85,86,85,160,58,166.24,244,-18.00,0.00,-1139.00
2024-05-17 16:37:03.875513,0,5,2,0,2,0,85,86,84,160,58,165.78,244,8.00,17.00,-1028.00
2024-05-17 16:37:03.990776,0,2,2,0,3,0,85,86,86,160,58,166.20,244,23.00,3.00,-915.00
2024-05-17 16:37:04.079695,0,0,2,0,3,0,85,86,87,160,57,166.19,244,-47.00,28.00,-1021.00
2024-05-17 16:37:04.195570,0,-2,2,0,3,-1,85,86,88,160,57,166.16,244,3.00,14.00,-983.00
2024-05-17 16:37:04.283534,1,-1,2,0,3,0,85,86,88,160,57,166.11,245,51.00,-18.00,-1098.00
2024-05-17 16:37:04.401132,1,-1,2,0,2,0,85,86,89,160,57,166.19,245,21.00,-41.00,-1006.00
2024-05-17 16:37:04.487559,1,-1,2,0,2,0,85,86,89,160,57,165.77,245,-34.00,-2.00,-902.00
2024-05-17 16:37:04.605188,2,-1,2,0,3,0,85,86,90,160,57,165.91,245,43.00,2.00,-971.00
2024-05-17 16:37:04.691499,3,-1,2,0,2,0,83,87,90,160,57,166.14,245,26.00,-14.00,-1007.00
2024-05-17 16:37:04.810626,2,-1,2,0,2,0,83,87,91,160,57,165.95,245,-71.00,5.00,-948.00
2024-05-17 16:37:04.896249,2,-1,2,-1,2,0,83,87,90,160,57,166.14,245,-35.00,30.00,-951.00
2024-05-17 16:37:05.014847,0,-1,2,-1,2,0,83,87,91,160,57,165.89,245,58.00,3.00,-975.00
2024-05-17 16:37:05.100086,-3,-1,2,-1,2,0,83,87,90,160,57,166.02,245,-21.00,34.00,-861.00
2024-05-17 16:37:05.219665,-1,-5,2,0,2,0,83,87,89,160,57,166.05,245,-52.00,46.00,-981.00
2024-05-17 16:37:05.303516,0,-6,2,0,1,0,83,87,88,160,57,166.15,246,-1.00,23.00,-1103.00
2024-05-17 16:37:05.406754,0,-3,2,0,0,0,83,87,90,160,57,165.82,246,-24.00,42.00,-965.00
2024-05-17 16:37:05.507803,0,-2,2,0,0,0,83,87,91,160,57,165.97,246,22.00,42.00,-1000.00
2024-05-17 16:37:05.611702,0,-1,2,0,0,0,83,87,93,160,57,165.96,246,19.00,17.00,-1028.00
2024-05-17 16:37:05.712619,1,-1,2,0,0,0,84,87,95,160,57,166.25,246,41.00,16.00,-1082.00
2024-05-17 16:37:05.813627,1,-1,2,0,0,0,84,87,96,160,57,165.86,246,28.00,35.00,-1012.00
2024-05-17 16:37:05.936531,1,-1,2,0,0,0,84,87,98,160,57,166.12,246,19.00,15.00,-1010.00
2024-05-17 16:37:06.019784,0,-1,2,0,0,0,84,87,101,170,57,166.17,246,-71.00,82.00,-932.00
2024-05-17 16:37:06.119741,0,-2,2,0,0,0,84,87,103,170,57,166.15,246,42.00,42.00,-999.00
2024-05-17 16:37:06.243742,0,-2,2,0,0,0,84,87,105,170,57,166.29,246,-32.00,57.00,-942.00
2024-05-17 16:37:06.324926,0,-2,2,0,0,0,84,87,108,170,57,166.43,247,-33.00,13.00,-1014.00
2024-05-17 16:37:06.425635,0,-2,2,0,0,0,84,87,110,170,57,166.23,247,61.00,-19.00,-969.00
2024-05-17 16:37:06.550894,0,-2,2,0,0,0,84,87,111,170,57,166.36,247,-27.00,8.00,-1279.00
2024-05-17 16:37:06.632972,0,-1,2,0,0,0,84,87,112,180,57,166.36,247,34.00,-2.00,-873.00
2024-05-17 16:37:06.731472,0,-1,2,0,0,0,84,87,112,180,57,166.31,247,58.00,19.00,-953.00
2024-05-17 16:37:06.859793,1,-1,2,0,0,0,84,87,112,180,57,166.30,247,44.00,26.00,-1208.00
2024-05-17 16:37:06.935574,1,-1,2,0,0,0,84,87,112,180,57,166.12,247,-41.00,34.00,-975.00
2024-05-17 16:37:07.064150,0,-1,2,0,0,0,84,87,111,180,57,166.43,247,-20.00,23.00,-914.00
2024-05-17 16:37:07.139607,0,-2,2,0,0,0,84,87,110,180,57,166.29,247,-54.00,34.00,-1031.00
2024-05-17 16:37:07.267703,0,-2,2,0,0,0,84,87,108,180,57,166.24,247,-19.00,27.00,-944.00
2024-05-17 16:37:07.292510,0,-1,2,0,0,0,84,87,106,180,57,166.26,248,9.00,12.00,-934.00
2024-05-17 16:37:07.394746,0,-1,2,0,0,1,84,87,103,180,57,166.09,248,9.00,13.00,-961.00
2024-05-17 16:37:07.574989,1,-1,3,0,0,1,84,87,100,170,57,166.29,248,-65.00,6.00,-1039.00
2024-05-17 16:37:07.598989,2,-1,9,0,0,1,84,87,97,170,57,166.15,248,27.00,46.00,-1007.00
2024-05-17 16:37:07.786972,2,-1,15,0,0,1,85,87,94,170,57,166.07,248,-51.00,76.00,-1001.00
2024-05-17 16:37:07.802297,1,-1,21,0,0,0,85,87,91,170,57,165.88,248,42.00,12.00,-960.00
2024-05-17 16:37:07.988587,0,-1,27,0,0,1,85,87,88,170,57,166.13,248,3.00,36.00,-1030.00
2024-05-17 16:37:08.006505,0,-1,33,0,0,1,85,87,85,160,57,165.84,248,-6.00,48.00,-1043.00
2024-05-17 16:37:08.108541,1,0,40,0,0,0,85,87,83,160,57,166.15,248,33.00,-8.00,-1013.00
2024-05-17 16:37:08.292267,1,0,46,0,0,0,85,87,80,160,57,166.04,248,13.00,-3.00,-971.00
2024-05-17 16:37:08.312538,1,0,52,0,0,0,85,87,78,160,57,165.95,249,24.00,36.00,-1057.00
2024-05-17 16:37:08.498531,1,0,58,0,0,0,85,87,77,160,57,166.09,249,44.00,-42.00,-1077.00
2024-05-17 16:37:08.517241,0,0,64,0,0,0,85,87,76,150,57,165.96,249,-12.00,29.00,-969.00
2024-05-17 16:37:08.701754,0,0,71,0,0,0,85,87,76,150,57,165.89,249,10.00,-2.00,-1031.00
2024-05-17 16:37:08.721282,0,0,77,0,0,0,85,86,76,150,57,166.02,249,-67.00,23.00,-1094.00
2024-05-17 16:37:08.906034,0,0,83,0,0,0,85,86,77,150,57,165.64,249,11.00,28.00,-1102.00
2024-05-17 16:37:08.926406,0,0,89,0,0,-1,85,86,79,150,57,165.76,249,30.00,10.00,-910.00
2024-05-17 16:37:09.110803,0,0,95,0,0,-1,85,86,80,150,57,166.09,249,38.00,10.00,-1109.00
2024-05-17 16:37:09.129367,1,0,101,0,0,-1,85,86,81,150,57,165.94,249,-10.00,17.00,-971.00
2024-05-17 16:37:09.318928,1,0,107,0,0,-1,85,86,83,150,57,166.20,249,50.00,11.00,-1005.00
2024-05-17 16:37:09.333252,1,0,113,0,0,-1,85,86,85,150,57,165.68,250,30.00,0.00,-1023.00
2024-05-17 16:37:09.435261,1,0,119,0,0,-1,85,86,87,160,57,166.00,250,-10.00,29.00,-959.00
2024-05-17 16:37:09.622877,1,0,125,0,0,-1,85,86,89,160,57,166.16,250,28.00,30.00,-1073.00
2024-05-17 16:37:09.639839,1,0,130,0,0,-1,85,86,90,160,57,166.00,250,-1.00,3.00,-975.00
2024-05-17 16:37:09.830066,0,0,136,0,0,0,84,86,93,160,57,166.02,250,4.00,-15.00,-1150.00
2024-05-17 16:37:09.845411,0,0,142,0,0,-1,84,86,94,160,57,166.14,250,-1.00,-14.00,-937.00
2024-05-17 16:37:09.945790,0,0,148,0,0,0,84,86,95,160,57,166.21,250,-7.00,21.00,-931.00
2024-05-17 16:37:10.047938,0,0,155,0,0,0,84,86,97,160,57,166.34,250,7.00,19.00,-996.00
2024-05-17 16:37:10.149554,0,0,161,0,0,0,84,86,98,160,57,166.31,250,-36.00,21.00,-963.00
2024-05-17 16:37:10.251413,0,0,167,0,0,-1,84,86,99,170,57,166.09,250,77.00,-70.00,-999.00
2024-05-17 16:37:10.442134,0,0,173,0,0,0,84,86,100,170,57,166.23,251,-46.00,6.00,-958.00
2024-05-17 16:37:10.455184,0,1,179,0,0,0,84,86,100,170,57,166.03,251,-40.00,-6.00,-920.00
2024-05-17 16:37:10.506137,0,1,-174,0,0,0,84,86,99,170,57,165.92,251,-31.00,-8.00,-936.00
2024-05-17 16:37:10.646779,-1,0,-168,0,0,0,84,86,98,170,57,166.01,251,-30.00,0.00,-890.00
2024-05-17 16:37:10.851594,0,0,-162,0,0,0,83,86,96,170,57,166.65,251,-13.00,9.00,-1068.00
2024-05-17 16:37:10.851635,0,0,-156,0,0,0,83,86,94,170,57,165.82,251,-15.00,2.00,-985.00
2024-05-17 16:37:10.914228,0,0,-150,0,0,0,83,86,92,170,57,166.10,251,-7.00,8.00,-977.00
2024-05-17 16:37:11.056378,0,0,-144,0,0,0,83,86,90,170,57,166.35,251,-26.00,-11.00,-1018.00
2024-05-17 16:37:11.118213,0,0,-138,0,0,0,83,86,88,170,56,165.76,251,35.00,-7.00,-1027.00
2024-05-17 16:37:11.261174,0,0,-133,0,0,1,83,86,86,160,56,166.28,251,-16.00,24.00,-976.00
2024-05-17 16:37:11.322076,0,0,-127,0,0,0,83,86,84,160,56,166.07,252,11.00,7.00,-1116.00
2024-05-17 16:37:11.466034,0,0,-121,0,0,0,83,86,84,160,56,165.98,252,28.00,-4.00,-905.00
2024-05-17 16:37:11.526171,0,0,-115,0,0,0,83,86,82,160,56,165.76,252,13.00,30.00,-1030.00
2024-05-17 16:37:11.670696,0,0,-110,0,0,0,83,86,82,160,56,165.99,252,-50.00,28.00,-992.00
2024-05-17 16:37:11.730218,0,0,-104,0,0,0,83,86,79,160,56,165.87,252,-21.00,23.00,-1012.00
2024-05-17 16:37:11.875589,0,0,-98,0,0,0,83,86,77,160,56,166.04,252,-40.00,22.00,-1023.00
2024-05-17 16:37:11.934068,0,0,-93,0,0,0,83,86,75,160,56,166.05,252,-8.00,41.00,-1071.00
2024-05-17 16:37:12.080729,0,0,-87,0,0,0,83,86,72,160,56,165.76,252,-65.00,-1.00,-1029.00
2024-05-17 16:37:12.138091,-1,0,-81,0,0,0,83,86,69,160,56,166.11,252,-20.00,-11.00,-893.00
2024-05-17 16:37:12.285431,-1,0,-75,0,0,0,83,86,67,160,56,165.83,252,-31.00,42.00,-1348.00
2024-05-17 16:37:12.342621,0,0,-69,0,0,0,83,86,67,160,56,166.01,253,11.00,14.00,-1053.00
2024-05-17 16:37:12.444389,0,0,-63,0,0,0,83,86,63,150,56,165.74,253,-39.00,27.00,-1004.00
2024-05-17 16:37:12.546230,0,0,-57,0,0,0,83,86,60,150,56,165.86,253,-46.00,-2.00,-1021.00
2024-05-17 16:37:12.695329,0,0,-51,0,0,0,83,86,57,150,56,165.53,253,2.00,15.00,-1133.00
2024-05-17 16:37:12.750088,0,0,-45,0,0,0,83,87,56,150,56,165.67,253,39.00,22.00,-1224.00
2024-05-17 16:37:12.852119,0,0,-39,0,0,-1,83,87,55,140,56,165.66,253,-57.00,14.00,-1043.00
2024-05-17 16:37:13.001988,0,-1,-33,0,0,-1,83,87,53,140,56,165.62,253,-41.00,39.00,-1046.00
2024-05-17 16:37:13.056267,0,-1,-27,0,0,-1,83,87,52,140,56,165.76,253,-91.00,55.00,-993.00
2024-05-17 16:37:13.206747,0,-1,-21,0,0,-1,83,87,51,140,56,165.51,253,0.00,20.00,-966.00
2024-05-17 16:37:13.260046,0,-1,-15,0,0,-1,83,87,51,140,56,165.87,253,-52.00,39.00,-1080.00
2024-05-17 16:37:13.411915,0,-1,-10,0,0,-2,83,87,50,140,56,165.77,254,-45.00,9.00,-1001.00
2024-05-17 16:37:13.464008,0,0,-7,0,0,-1,83,87,48,140,56,165.46,254,-8.00,15.00,-993.00
2024-05-17 16:37:13.616342,0,0,-4,0,0,-1,83,87,48,140,56,165.58,254,-34.00,49.00,-957.00
2024-05-17 16:37:13.668006,0,-1,-2,0,0,-1,83,87,49,140,56,165.77,254,-42.00,27.00,-971.00
2024-05-17 16:37:13.821147,0,-1,0,0,0,-2,83,86,50,140,56,165.79,254,-28.00,38.00,-991.00
2024-05-17 16:37:13.872590,0,-1,0,0,0,-2,83,86,51,140,56,165.90,254,-23.00,16.00,-1010.00
2024-05-17 16:37:13.974478,0,0,1,0,0,-2,83,86,52,140,56,165.66,254,-49.00,67.00,-1006.00
2024-05-17 16:37:14.128515,0,-1,1,0,0,-2,83,86,54,140,56,165.81,254,12.00,10.00,-960.00
2024-05-17 16:37:14.178123,0,-1,1,0,0,-2,83,86,56,140,56,165.91,254,-56.00,28.00,-944.00
2024-05-17 16:37:14.340027,0,-1,0,0,0,-2,83,86,58,140,56,165.85,255,-10.00,38.00,-969.00
2024-05-17 16:37:14.382308,1,0,0,0,0,-2,83,86,60,140,56,165.82,255,-10.00,12.00,-1013.00
2024-05-17 16:37:14.433736,1,0,0,0,0,-2,83,86,62,140,56,165.83,255,4.00,36.00,-932.00
2024-05-17 16:37:14.535127,1,0,1,0,0,-2,83,86,66,140,56,165.76,255,2.00,-31.00,-1041.00
2024-05-17 16:37:14.641579,1,0,1,0,0,-2,83,86,68,150,56,165.91,255,-44.00,14.00,-1076.00
2024-05-17 16:37:14.739015,0,0,1,0,0,-2,83,86,71,150,56,165.74,255,46.00,-34.00,-917.00
2024-05-17 16:37:14.847046,0,0,1,0,0,-1,83,86,74,150,56,165.96,255,-61.00,20.00,-980.00
2024-05-17 16:37:14.949547,0,-1,1,0,0,-1,83,86,77,150,56,165.91,255,10.00,-5.00,-992.00
2024-05-17 16:37:15.045302,0,-1,1,0,0,-1,83,86,79,160,56,166.10,255,22.00,13.00,-926.00
2024-05-17 16:37:15.152623,0,-1,1,0,0,-1,83,86,81,160,56,165.75,255,-31.00,34.00,-961.00
2024-05-17 16:37:15.250868,0,-2,1,0,0,-1,83,86,83,160,56,165.69,256,-1.00,6.00,-971.00
2024-05-17 16:37:15.351012,0,-2,0,0,0,-1,83,86,85,160,56,166.16,256,-7.00,0.00,-1058.00
2024-05-17 16:37:15.453056,0,-1,0,0,0,-1,83,86,87,160,56,165.78,256,55.00,-6.00,-906.00
2024-05-17 16:37:15.556684,0,-1,1,0,0,0,83,86,89,160,56,166.22,256,-10.00,70.00,-908.00
2024-05-17 16:37:15.656999,0,-1,0,0,0,0,83,86,90,160,56,166.07,256,-41.00,58.00,-1056.00
2024-05-17 16:37:15.776736,0,-1,0,0,0,0,83,86,92,170,56,165.98,256,-4.00,-3.00,-1041.00
2024-05-17 16:37:15.861919,0,0,0,0,0,0,83,86,93,170,56,166.03,256,-62.00,19.00,-1015.00
2024-05-17 16:37:15.962858,0,0,0,0,0,0,83,86,95,170,56,166.15,256,-27.00,38.00,-914.00
2024-05-17 16:37:16.073955,-1,0,-1,0,0,0,83,86,96,170,56,165.97,256,-30.00,24.00,-981.00
2024-05-17 16:37:16.166845,0,0,-7,0,0,0,83,86,98,170,55,166.14,256,3.00,33.00,-1028.00
2024-05-17 16:37:16.268817,0,0,-14,0,0,0,83,86,99,170,55,165.96,257,0.00,2.00,-960.00
2024-05-17 16:37:16.381073,1,0,-20,0,0,0,83,86,99,170,55,166.08,257,-4.00,22.00,-856.00
2024-05-17 16:37:16.472799,1,-1,-26,0,0,0,83,86,98,170,55,166.14,257,7.00,29.00,-870.00
2024-05-17 16:37:16.586162,2,-1,-32,0,0,0,83,86,99,170,55,166.16,257,-39.00,50.00,-980.00
2024-05-17 16:37:16.676833,1,-2,-38,0,0,0,83,86,100,170,55,166.13,257,-5.00,18.00,-1030.00
2024-05-17 16:37:16.791222,0,-2,-45,0,0,0,84,86,101,170,55,166.02,257,28.00,3.00,-883.00
2024-05-17 16:37:16.881703,0,-1,-51,0,0,0,84,86,101,170,55,165.97,257,6.00,6.00,-1007.00
2024-05-17 16:37:16.984972,0,-1,-57,0,0,0,84,86,102,180,55,166.23,257,34.00,6.00,-1144.00
2024-05-17 16:37:17.085437,0,-1,-63,0,0,0,84,86,103,180,55,166.18,257,-41.00,43.00,-972.00
2024-05-17 16:37:17.187027,0,-1,-70,0,0,0,84,86,102,180,55,166.10,257,-37.00,54.00,-933.00
2024-05-17 16:37:17.288773,0,-1,-76,0,0,0,84,86,102,180,55,166.10,258,-66.00,44.00,-893.00
2024-05-17 16:37:17.390818,-1,0,-82,0,0,0,84,86,101,180,55,166.09,258,-79.00,57.00,-973.00
2024-05-17 16:37:17.493096,-2,-1,-88,0,0,0,84,86,101,180,55,165.97,258,-9.00,-13.00,-1015.00
2024-05-17 16:37:17.595343,-1,-1,-94,0,0,0,84,86,99,180,55,165.86,258,17.00,14.00,-966.00
2024-05-17 16:37:17.713103,-1,-1,-100,0,0,1,84,86,98,180,55,166.29,258,12.00,28.00,-924.00
2024-05-17 16:37:17.798849,0,-1,-106,0,0,1,84,85,95,170,55,166.21,258,-22.00,2.00,-1011.00
2024-05-17 16:37:17.917058,0,-1,-112,0,0,0,84,85,94,170,55,166.13,258,-2.00,51.00,-935.00
2024-05-17 16:37:18.002838,0,-1,-118,0,0,1,84,85,93,170,55,165.96,258,-30.00,53.00,-1010.00
2024-05-17 16:37:18.121849,0,-1,-124,0,0,1,84,85,92,170,55,165.99,258,-54.00,38.00,-1033.00
2024-05-17 16:37:18.206727,0,-1,-129,0,0,1,84,85,91,170,55,166.01,258,0.00,21.00,-1093.00
2024-05-17 16:37:18.353732,0,-1,-135,0,0,0,84,85,91,170,55,165.99,259,27.00,-23.00,-1044.00
2024-05-17 16:37:18.365054,0,0,-141,0,0,0,84,85,91,170,55,166.04,259,-23.00,12.00,-1048.00
2024-05-17 16:37:18.462034,0,0,-147,0,0,0,84,85,90,170,55,166.01,259,11.00,-30.00,-1084.00
2024-05-17 16:37:18.633872,0,0,-153,0,0,0,84,85,91,170,55,166.19,259,-31.00,16.00,-920.00
2024-05-17 16:37:18.667628,0,0,-159,0,0,0,84,85,91,170,55,166.01,259,-14.00,-30.00,-1024.00
2024-05-17 16:37:18.838650,0,0,-164,0,0,0,83,86,91,170,55,166.16,259,14.00,27.00,-965.00
2024-05-17 16:37:18.869667,0,0,-170,0,0,0,83,86,91,170,55,166.17,259,-15.00,16.00,-982.00
2024-05-17 16:37:19.044282,0,0,-176,0,0,0,83,86,92,170,55,166.29,259,58.00,-22.00,-1109.00
2024-05-17 16:37:19.073657,0,0,177,0,0,0,83,86,92,170,55,165.95,259,-29.00,28.00,-990.00
2024-05-17 16:37:19.248339,0,0,171,0,0,0,83,86,92,170,55,166.04,259,-5.00,0.00,-1016.00
2024-05-17 16:37:19.281453,0,0,165,0,0,0,83,86,92,170,55,166.13,260,2.00,-6.00,-975.00
2024-05-17 16:37:19.379690,0,0,159,0,0,0,83,86,92,170,55,166.19,260,16.00,10.00,-953.00
2024-05-17 16:37:19.481789,0,0,153,0,0,0,83,86,91,170,55,166.12,260,-28.00,14.00,-1057.00
2024-05-17 16:37:19.657848,0,0,147,0,0,0,83,86,91,170,55,165.75,260,-8.00,17.00,-954.00
2024-05-17 16:37:19.685633,0,0,141,0,0,0,83,86,91,170,55,166.37,260,19.00,-26.00,-1014.00
2024-05-17 16:37:19.862629,0,0,135,0,0,0,83,85,90,170,55,166.07,260,39.00,-17.00,-963.00
2024-05-17 16:37:19.889655,1,0,129,0,0,0,83,85,89,170,55,166.05,260,29.00,9.00,-989.00
2024-05-17 16:37:20.000545,1,0,123,0,0,0,83,85,88,170,55,166.30,260,12.00,8.00,-986.00
2024-05-17 16:37:20.093621,1,0,116,0,0,0,83,85,87,170,55,166.02,260,66.00,4.00,-1031.00
2024-05-17 16:37:20.278359,1,0,110,0,0,0,83,85,86,170,55,165.71,260,-59.00,22.00,-985.00
2024-05-17 16:37:20.297573,0,0,104,0,0,0,83,85,85,170,55,165.70,261,102.00,5.00,-1037.00
2024-05-17 16:37:20.477026,0,0,98,0,0,0,83,85,84,160,55,166.08,261,1.00,16.00,-1156.00
2024-05-17 16:37:20.502582,1,-1,91,0,0,0,83,85,83,160,55,166.37,261,-33.00,10.00,-982.00
2024-05-17 16:37:20.605641,0,-1,85,0,0,0,83,85,82,160,55,165.98,261,-13.00,54.00,-963.00
2024-05-17 16:37:20.791939,0,-1,79,0,0,0,83,85,81,160,55,166.00,261,-11.00,23.00,-1045.00
2024-05-17 16:37:20.808611,0,-1,73,0,0,0,83,85,79,160,55,166.15,261,-8.00,31.00,-923.00
2024-05-17 16:37:20.989234,0,-2,67,0,0,0,83,85,78,160,55,166.15,261,0.00,36.00,-964.00
2024-05-17 16:37:21.013422,0,-2,60,0,0,0,83,85,76,160,55,165.89,261,-1.00,-3.00,-1076.00
2024-05-17 16:37:21.197039,1,-2,54,0,0,0,83,85,74,160,55,166.35,261,64.00,-8.00,-1011.00
2024-05-17 16:37:21.216694,2,-1,48,0,0,0,83,85,73,160,55,166.07,261,-2.00,47.00,-959.00
2024-05-17 16:37:21.318804,3,-2,41,0,0,0,83,85,71,160,55,165.93,262,-6.00,15.00,-1053.00
2024-05-17 16:37:21.420775,2,-3,35,0,0,0,83,85,69,160,55,165.58,262,61.00,16.00,-990.00
2024-05-17 16:37:21.522533,1,-2,29,0,0,0,83,85,67,150,55,166.03,262,31.00,62.00,-1022.00
2024-05-17 16:37:21.705823,1,-2,23,0,0,0,83,85,65,150,55,166.06,262,0.00,30.00,-1063.00
2024-05-17 16:37:21.726529,1,-2,18,0,0,0,83,85,65,150,55,165.83,262,16.00,57.00,-883.00
2024-05-17 16:37:21.910643,1,-2,14,0,0,0,82,86,64,150,55,166.25,262,86.00,-3.00,-1094.00
2024-05-17 16:37:21.930487,1,-1,11,0,0,0,82,86,65,150,55,165.93,262,-67.00,45.00,-1019.00
2024-05-17 16:37:21.981541,1,-1,9,0,0,-1,82,86,65,150,55,165.82,262,6.00,28.00,-1038.00
2024-05-17 16:37:22.115419,0,-1,7,0,0,-1,82,86,66,150,55,165.74,262,-31.00,10.00,-1021.00
2024-05-17 16:37:22.185587,0,-1,5,0,0,-1,82,86,67,150,55,165.88,262,-34.00,7.00,-1000.00
2024-05-17 16:37:22.320233,0,-1,4,0,0,-1,82,86,67,150,55,165.95,263,-4.00,32.00,-961.00
2024-05-17 16:37:22.389496,0,-2,3,0,0,-1,82,86,67,150,55,165.64,263,-21.00,45.00,-1099.00
2024-05-17 16:37:22.491710,-1,-2,2,0,0,-2,82,86,67,150,55,165.79,263,-43.00,27.00,-1127.00
2024-05-17 16:37:22.627559,0,-1,2,0,0,-1,82,86,67,150,55,165.83,263,16.00,32.00,-1036.00
2024-05-17 16:37:22.695726,0,-1,2,0,0,-1,82,86,66,150,55,165.62,263,-13.00,72.00,-1169.00
2024-05-17 16:37:22.836971,0,-1,2,0,0,-1,83,86,65,160,55,166.11,263,-3.00,24.00,-926.00
2024-05-17 16:37:22.901131,0,-2,2,0,0,0,83,86,63,160,55,165.78,263,-27.00,7.00,-1071.00
2024-05-17 16:37:23.001761,0,-1,2,0,0,0,83,86,66,150,55,165.75,263,-25.00,-16.00,-1060.00
2024-05-17 16:37:23.140456,0,-1,2,0,0,0,83,86,64,150,54,165.65,263,-37.00,25.00,-878.00
2024-05-17 16:37:23.205594,0,-2,2,0,0,0,83,86,62,150,54,166.06,263,-4.00,20.00,-1273.00
2024-05-17 16:37:23.344367,0,-2,2,0,0,-1,83,86,60,150,54,165.60,264,-22.00,38.00,-1108.00
2024-05-17 16:37:23.409973,0,-2,2,0,0,-1,83,86,59,150,54,166.06,264,9.00,22.00,-939.00
2024-05-17 16:37:23.511609,0,-2,2,0,0,0,83,86,56,150,54,165.71,264,-73.00,62.00,-964.00
2024-05-17 16:37:23.652457,0,-2,2,0,0,0,83,86,55,150,54,166.03,264,-9.00,16.00,-1070.00
2024-05-17 16:37:23.720872,0,-2,2,0,0,0,83,86,53,150,54,165.41,264,-68.00,64.00,-1017.00
2024-05-17 16:37:23.818263,0,-1,2,0,0,-1,82,85,53,150,54,165.63,264,-15.00,0.00,-1005.00
2024-05-17 16:37:23.958715,0,-1,2,0,0,-1,82,85,52,140,54,166.05,264,13.00,21.00,-1089.00
2024-05-17 16:37:24.021539,0,-1,2,0,0,-1,82,85,52,150,54,165.87,264,-25.00,47.00,-1089.00
2024-05-17 16:37:24.163699,0,-1,2,0,0,-1,82,85,52,150,54,166.02,264,35.00,3.00,-983.00
2024-05-17 16:37:24.225676,0,-1,2,0,0,-1,82,85,53,150,54,165.71,264,13.00,17.00,-997.00
2024-05-17 16:37:24.372702,1,-1,2,0,0,-1,82,85,52,150,54,165.61,265,0.00,11.00,-999.00
2024-05-17 16:37:24.429581,1,-1,2,0,0,-1,82,85,53,150,54,165.94,265,-10.00,1.00,-994.00
2024-05-17 16:37:24.531441,2,0,2,0,0,-1,82,85,52,150,54,165.57,265,-49.00,34.00,-913.00
2024-05-17 16:37:24.633380,1,-1,2,0,0,-1,82,85,54,150,54,165.93,265,-86.00,-89.00,-1861.00
2024-05-17 16:37:24.735552,0,-2,3,0,0,-8,82,85,58,160,54,165.85,265,-5.00,169.00,-1318.00
2024-05-17 16:37:24.881494,0,-47,3,0,-2,-13,82,85,340,170,54,165.96,265,-18.00,616.00,-1062.00
2024-05-17 16:37:24.939317,0,-163,3,0,-11,-6,82,85,416,180,54,166.10,265,-35.00,550.00,-988.00
2024-05-17 16:37:25.094320,1,72,1,0,-9,9,82,85,60,180,54,166.19,265,67.00,240.00,-1493.00
2024-05-17 16:37:25.143304,0,-7,1,0,-4,10,82,85,41,170,54,165.51,265,-36.00,68.00,-1487.00
2024-05-17 16:37:25.246085,0,-2,1,0,-6,6,82,85,37,160,54,165.59,265,-5.00,11.00,-1902.00
2024-05-17 16:37:25.392556,0,4,2,0,-5,1,82,85,29,150,54,165.40,266,-6.00,33.00,-1186.00
2024-05-17 16:37:25.449504,0,4,2,0,-4,0,82,85,22,150,54,165.11,266,-39.00,31.00,-1187.00
2024-05-17 16:37:25.500709,0,2,2,0,-3,-1,82,85,16,150,54,164.47,266,-43.00,32.00,-1049.00
2024-05-17 16:37:25.699439,0,1,2,0,-2,-1,82,85,10,150,54,162.89,266,-31.00,-7.00,-982.00
2024-05-17 16:37:25.704352,0,1,2,0,-2,-2,82,85,10,150,54,160.82,266,55.00,17.00,-1111.00
2024-05-17 16:37:25.904248,-1,1,2,-1,-1,-7,82,86,10,150,54,163.27,266,59.00,-19.00,-816.00
2024-05-17 16:37:25.908320,-8,0,0,0,-1,-5,82,86,10,160,54,163.87,266,-53.00,-36.00,-534.00
2024-05-17 16:37:26.108996,1,0,2,-2,0,-5,82,86,10,170,54,164.48,266,16.00,6.00,-987.00
2024-05-17 16:37:26.112319,1,0,2,-2,0,-4,82,86,10,170,54,164.50,266,12.00,3.00,-975.00
2024-05-17 16:37:26.214548,1,0,2,-2,0,-4,82,86,10,180,54,164.51,266,18.00,2.00,-969.00
2024-05-17 16:37:26.316634,1,0,2,-2,0,-4,82,86,10,180,54,165.05,266,16.00,-7.00,-976.00
2024-05-17 16:37:26.418449,1,0,2,-2,0,-3,82,86,10,180,54,165.04,266,26.00,1.00,-972.00
2024-05-17 16:37:26.520302,1,0,2,-2,0,-2,82,86,10,0,54,165.29,266,19.00,2.00,-969.00
2024-05-17 16:37:26.723430,1,0,2,-3,1,-2,82,86,10,0,54,165.02,266,12.00,4.00,-972.00
2024-05-17 16:37:26.724334,1,0,2,-3,1,-1,82,86,10,0,54,165.07,266,21.00,4.00,-972.00
2024-05-17 16:37:26.928538,1,0,2,-3,1,-1,81,84,10,0,54,164.99,266,14.00,4.00,-971.00
2024-05-17 16:37:26.928581,1,0,2,-3,1,0,81,84,10,0,54,164.89,266,14.00,4.00,-971.00
2024-05-17 16:37:27.030531,1,0,2,0,0,0,81,84,10,0,54,165.10,266,16.00,6.00,-973.00
2024-05-17 16:37:27.133764,1,0,2,0,0,0,81,84,10,0,53,165.17,266,14.00,4.00,-976.00
2024-05-17 16:37:27.235679,1,0,2,0,0,0,81,84,10,0,53,165.24,266,16.00,4.00,-973.00
2024-05-17 16:37:27.337622,1,0,2,0,0,0,81,84,10,0,53,165.21,266,14.00,4.00,-974.00
2024-05-17 16:37:27.440311,1,0,2,0,0,0,81,84,10,0,53,165.14,266,14.00,3.00,-974.00
2024-05-17 16:37:27.540340,1,0,2,0,0,0,81,84,10,0,53,165.25,266,15.00,4.00,-978.00
2024-05-17 16:37:27.647650,1,0,2,0,0,0,81,84,10,0,53,165.52,266,15.00,7.00,-975.00
2024-05-17 16:37:27.744409,1,0,2,0,0,0,81,84,10,0,53,165.32,266,15.00,4.00,-978.00
2024-05-17 16:37:27.849940,1,0,2,0,0,0,82,85,10,0,53,165.23,266,15.00,3.00,-978.00
2024-05-17 16:37:27.948382,1,0,2,0,0,0,82,85,10,0,53,165.08,266,16.00,3.00,-979.00
2024-05-17 16:37:28.054817,1,0,2,0,0,0,82,85,10,0,53,165.13,266,15.00,5.00,-981.00
2024-05-17 16:37:28.153742,1,0,2,0,0,0,82,85,10,0,53,164.92,266,14.00,5.00,-984.00
2024-05-17 16:37:28.259652,1,0,2,0,0,0,82,85,10,0,53,165.08,266,16.00,4.00,-980.00
2024-05-17 16:37:28.357288,1,0,2,0,0,0,82,85,10,0,53,164.91,266,15.00,5.00,-981.00
2024-05-17 16:37:28.466786,1,0,2,0,0,0,82,85,10,0,53,165.04,266,15.00,4.00,-982.00
2024-05-17 16:37:28.561819,1,0,2,0,0,0,82,85,10,0,53,165.05,266,15.00,4.00,-984.00
2024-05-17 16:37:28.669134,1,0,2,0,0,0,82,85,10,0,53,165.12,266,14.00,5.00,-980.00
2024-05-17 16:37:28.714642,1,0,2,0,0,0,82,85,10,0,53,165.01,266,14.00,5.00,-983.00
2024-05-17 16:37:28.873967,1,0,2,0,0,0,82,85,10,0,53,164.99,266,16.00,5.00,-984.00
2024-05-17 16:37:28.918372,1,0,2,0,0,0,82,85,10,0,53,165.15,266,14.00,6.00,-985.00
2024-05-17 16:37:29.078811,1,0,2,0,0,0,82,85,10,0,53,165.09,266,14.00,5.00,-981.00
2024-05-17 16:37:29.122391,1,0,2,0,0,0,82,85,10,0,53,165.25,266,15.00,5.00,-985.00
2024-05-17 16:37:29.283868,1,0,2,0,0,0,82,85,10,0,53,164.85,266,15.00,3.00,-986.00
2024-05-17 16:37:29.326262,1,0,2,0,0,0,82,85,10,0,53,165.34,266,15.00,3.00,-988.00
2024-05-17 16:37:29.488374,1,0,2,0,0,0,82,85,10,0,53,165.08,266,16.00,4.00,-987.00
2024-05-17 16:37:29.530234,1,0,1,0,0,0,82,85,10,0,53,165.10,266,13.00,4.00,-986.00
2024-05-17 16:37:29.693112,1,0,1,0,0,0,82,85,10,0,53,165.25,266,13.00,6.00,-987.00
2024-05-17 16:37:29.733996,1,0,1,0,0,0,82,85,10,0,53,165.01,266,15.00,4.00,-989.00
2024-05-17 16:37:29.898012,1,0,1,0,0,0,83,84,10,0,53,165.21,266,15.00,5.00,-990.00
2024-05-17 16:37:29.938617,1,0,1,0,0,0,83,84,10,0,53,164.95,266,15.00,4.00,-988.00
2024-05-17 16:37:30.102794,1,0,1,0,0,0,83,84,10,0,53,165.05,266,15.00,5.00,-990.00
2024-05-17 16:37:30.142164,1,0,1,0,0,0,83,84,10,0,53,164.98,266,15.00,4.00,-990.00
2024-05-17 16:37:30.307480,1,0,1,0,0,0,83,84,10,0,53,165.02,266,15.00,5.00,-991.00
2024-05-17 16:37:30.346194,1,0,1,0,0,0,83,84,10,0,53,165.34,266,16.00,5.00,-992.00
2024-05-17 16:37:30.512618,1,0,1,0,0,0,83,84,10,0,53,165.19,266,14.00,4.00,-989.00
2024-05-17 16:37:30.550236,1,0,1,0,0,0,83,84,10,0,53,165.13,266,17.00,3.00,-992.00
