TS,pitch,roll,yaw,vgx,vgy,vgz,templ,temph,tof,h,bat,baro,time,agx,agy,agz
2024-05-19 09:11:23.485116,0,0,0,0,0,0,63,66,10,0,90,106.21,0,16.00,9.00,-999.00
2024-05-19 09:11:23.612850,0,0,0,0,0,0,63,66,10,0,90,106.23,0,18.00,10.00,-1001.00
2024-05-19 09:11:23.688910,0,0,0,0,0,0,63,66,10,0,90,105.95,0,19.00,10.00,-997.00
2024-05-19 09:11:23.817617,0,0,0,0,0,0,63,66,10,0,90,106.11,0,17.00,10.00,-998.00
2024-05-19 09:11:23.892773,0,0,0,0,0,0,63,66,10,0,90,106.16,0,18.00,7.00,-1001.00
2024-05-19 09:11:24.022299,0,0,0,0,0,0,63,66,10,0,90,106.12,0,17.00,10.00,-1001.00
2024-05-19 09:11:24.096539,0,0,0,0,0,0,63,66,10,0,90,106.35,0,18.00,9.00,-998.00
2024-05-19 09:11:24.227180,0,0,0,0,0,0,63,66,10,0,90,106.09,0,17.00,10.00,-1000.00
2024-05-19 09:11:24.300731,0,0,0,0,0,0,64,65,10,0,90,106.27,0,18.00,8.00,-1000.00
2024-05-19 09:11:24.415482,0,0,0,0,0,0,64,65,10,0,90,106.27,0,18.00,8.00,-999.00
2024-05-19 09:11:24.453643,0,0,0,0,0,0,64,65,10,0,90,106.36,0,16.00,7.00,-997.00
2024-05-19 09:11:24.739237,0,0,0,0,0,0,64,65,10,0,90,106.10,0,17.00,9.00,-998.00
2024-05-19 09:11:24.739437,0,0,0,0,0,0,64,65,10,0,90,106.48,0,18.00,11.00,-1000.00
2024-05-19 09:11:24.855184,0,0,0,0,0,0,64,65,10,0,90,106.55,0,18.00,9.00,-1000.00
2024-05-19 09:11:24.861633,0,0,0,0,0,0,64,65,10,0,90,106.11,0,17.00,9.00,-1000.00
2024-05-19 09:11:25.014965,0,0,0,0,0,0,64,65,10,0,90,106.41,0,18.00,10.00,-1000.00
2024-05-19 09:11:25.087678,0,0,0,0,0,0,64,65,10,0,90,106.30,0,17.00,7.00,-998.00
2024-05-19 09:11:25.167788,0,0,0,0,0,0,64,65,10,0,90,106.36,0,18.00,8.00,-1000.00
2024-05-19 09:11:25.364553,0,0,0,0,0,0,64,66,10,0,90,106.42,0,17.00,9.00,-1002.00
2024-05-19 09:11:25.371721,0,0,0,0,0,0,64,66,10,0,90,106.27,0,17.00,10.00,-1001.00
2024-05-19 09:11:25.507871,0,0,0,0,0,0,64,66,10,0,90,106.33,0,17.00,9.00,-998.00
2024-05-19 09:11:25.671726,0,0,0,0,0,0,64,66,10,0,90,106.19,0,18.00,9.00,-1002.00
2024-05-19 09:11:25.677617,0,0,0,0,0,0,64,66,10,0,90,106.30,0,18.00,8.00,-998.00
2024-05-19 09:11:25.815104,0,0,0,0,0,0,64,66,10,0,90,106.29,0,17.00,9.00,-1000.00
2024-05-19 09:11:25.978972,0,0,0,0,0,0,64,66,10,0,90,106.48,0,17.00,9.00,-1002.00
2024-05-19 09:11:25.983671,0,0,0,0,0,0,64,66,10,0,90,106.22,0,16.00,7.00,-999.00
2024-05-19 09:11:26.122313,0,0,0,0,0,0,64,66,10,0,90,106.51,0,17.00,9.00,-1001.00
2024-05-19 09:11:26.286151,0,0,0,0,0,0,64,66,10,0,90,106.11,0,19.00,8.00,-999.00
2024-05-19 09:11:26.289704,0,0,0,0,0,0,65,66,10,0,90,106.28,0,18.00,7.00,-1000.00
2024-05-19 09:11:26.429483,0,0,0,0,0,0,65,66,10,0,90,106.29,0,19.00,9.00,-1000.00
2024-05-19 09:11:26.593267,0,0,0,0,0,0,65,66,10,0,90,106.34,0,18.00,9.00,-1001.00
2024-05-19 09:11:26.595736,0,0,0,0,0,0,65,66,10,0,90,106.35,0,18.00,9.00,-997.00
2024-05-19 09:11:26.736612,0,0,0,0,0,0,65,66,10,0,90,106.33,0,18.00,10.00,-1000.00
2024-05-19 09:11:26.900389,0,0,0,0,0,0,65,66,10,0,90,106.21,0,18.00,9.00,-1000.00
2024-05-19 09:11:26.901628,0,0,0,0,0,0,65,66,10,0,90,106.31,0,18.00,3.00,-1000.00
2024-05-19 09:11:27.043776,0,0,0,0,0,0,65,66,10,0,90,106.31,0,27.00,7.00,-1003.00
2024-05-19 09:11:27.207698,0,0,0,0,0,0,65,66,10,0,90,106.31,0,19.00,8.00,-990.00
2024-05-19 09:11:27.207769,0,0,0,0,0,0,65,66,10,0,90,106.31,0,5.00,-3.00,-995.00
2024-05-19 09:11:27.351186,1,0,0,0,0,0,65,66,10,0,90,106.31,0,15.00,0.00,-1065.00
2024-05-19 09:11:27.515112,1,-1,0,0,0,-1,65,66,10,0,90,106.31,0,8.00,1.00,-1207.00
2024-05-19 09:11:27.515413,0,0,0,0,0,-3,65,66,10,0,90,106.31,0,1.00,11.00,-1265.00
2024-05-19 09:11:27.671982,0,1,0,0,0,-6,65,66,15,10,90,106.48,0,19.00,21.00,-1120.00
2024-05-19 09:11:27.745803,0,1,0,0,0,-7,65,66,23,20,90,106.90,0,-25.00,1.00,-1019.00
2024-05-19 09:11:27.819547,0,0,0,0,0,-8,65,66,31,20,90,106.77,0,-19.00,-16.00,-961.00
2024-05-19 09:11:27.870409,0,0,0,0,0,-8,65,66,38,30,90,106.78,1,12.00,-30.00,-949.00
2024-05-19 09:11:28.016746,0,1,0,0,0,-7,65,66,42,40,90,106.93,1,-22.00,2.00,-894.00
2024-05-19 09:11:28.074461,0,1,0,0,0,-7,65,66,49,50,90,106.95,1,-24.00,-8.00,-884.00
2024-05-19 09:11:28.220736,-1,0,0,0,0,-5,65,66,54,60,90,107.19,1,-23.00,-28.00,-886.00
2024-05-19 09:11:28.278884,-1,0,0,0,0,-4,66,67,57,60,90,106.97,1,-10.00,-12.00,-902.00
2024-05-19 09:11:28.425529,-1,1,0,0,0,-3,66,67,60,70,90,106.89,1,13.00,-14.00,-931.00
2024-05-19 09:11:28.482737,-1,0,0,0,0,-2,66,67,62,70,90,107.15,1,15.00,-3.00,-932.00
2024-05-19 09:11:28.630300,0,0,0,0,0,-2,66,67,63,70,90,107.06,1,31.00,-24.00,-957.00
2024-05-19 09:11:28.686618,0,0,0,0,0,-1,66,67,64,70,90,107.03,1,5.00,-10.00,-982.00
2024-05-19 09:11:28.788472,0,0,0,0,0,-1,66,67,65,70,90,107.06,1,-1.00,-24.00,-1010.00
2024-05-19 09:11:28.890591,0,0,0,0,0,-1,66,67,65,70,90,107.24,2,-13.00,-9.00,-1002.00
2024-05-19 09:11:29.040239,1,0,0,0,0,-1,66,67,65,70,90,107.10,2,2.00,-15.00,-1018.00
2024-05-19 09:11:29.094351,0,0,0,0,0,-1,66,67,66,70,90,106.98,2,4.00,-9.00,-1013.00
2024-05-19 09:11:29.245111,0,0,0,0,0,-1,66,67,68,80,90,106.99,2,20.00,-28.00,-1003.00
2024-05-19 09:11:29.301793,0,1,0,0,0,-1,66,67,69,80,90,107.19,2,5.00,-31.00,-1010.00
2024-05-19 09:11:29.400349,1,1,0,0,0,-1,66,67,70,80,90,107.26,2,19.00,-24.00,-1002.00
2024-05-19 09:11:29.551927,1,1,0,0,0,-1,66,67,71,80,90,107.26,2,21.00,-5.00,-1027.00
2024-05-19 09:11:29.604326,1,0,0,0,0,-1,66,67,72,80,90,107.12,2,14.00,-13.00,-1003.00
2024-05-19 09:11:29.756700,1,0,0,0,0,-1,66,67,73,80,90,107.01,2,-2.00,-21.00,-989.00
2024-05-19 09:11:29.808202,1,0,0,0,0,-1,66,67,74,80,90,107.48,2,-7.00,-11.00,-990.00
2024-05-19 09:11:29.961501,1,1,0,0,0,-1,66,67,76,80,90,107.42,3,12.00,-24.00,-1005.00
2024-05-19 09:11:30.012286,0,1,0,0,0,-1,66,67,77,80,90,106.97,3,-4.00,-44.00,-997.00
2024-05-19 09:11:30.166212,0,1,0,0,0,-1,66,67,78,80,90,107.29,3,12.00,-22.00,-994.00
2024-05-19 09:11:30.216259,0,1,0,0,0,-1,66,67,79,80,90,107.02,3,-8.00,-34.00,-980.00
2024-05-19 09:11:30.318303,0,1,0,0,0,0,66,68,80,90,90,107.13,3,14.00,-29.00,-971.00
2024-05-19 09:11:30.420844,1,1,0,0,0,0,66,68,81,90,90,107.14,3,13.00,-27.00,-1000.00
2024-05-19 09:11:30.522285,1,1,0,0,0,0,66,68,81,90,90,107.28,3,17.00,-24.00,-1004.00
2024-05-19 09:11:30.678258,1,1,0,0,0,0,66,68,82,90,90,106.97,3,17.00,-38.00,-977.00
2024-05-19 09:11:30.726251,1,2,0,0,0,0,66,68,83,90,90,107.22,3,20.00,-29.00,-1008.00
2024-05-19 09:11:30.888439,1,2,0,0,0,0,66,68,83,90,90,106.92,3,16.00,-37.00,-1006.00
2024-05-19 09:11:30.930264,1,2,0,0,0,0,66,68,84,90,90,107.24,4,-8.00,-34.00,-984.00
2024-05-19 09:11:31.087935,1,2,0,0,0,0,66,68,84,90,90,107.15,4,1.00,-24.00,-1000.00
2024-05-19 09:11:31.134256,0,2,0,0,0,0,66,68,85,90,90,107.28,4,5.00,-48.00,-1003.00
2024-05-19 09:11:31.292677,0,2,0,0,0,0,66,68,85,90,90,106.93,4,-5.00,-34.00,-993.00
2024-05-19 09:11:31.338185,0,2,0,0,0,0,66,68,85,90,90,107.32,4,-7.00,-24.00,-995.00
2024-05-19 09:11:31.497456,0,2,0,0,0,0,66,68,85,90,90,107.61,4,1.00,-30.00,-1006.00
2024-05-19 09:11:31.542173,0,2,0,0,0,0,66,68,86,90,90,107.08,4,-21.00,-41.00,-977.00
2024-05-19 09:11:31.593265,0,2,0,0,0,0,66,68,86,90,90,107.07,4,7.00,-40.00,-1015.00
2024-05-19 09:11:31.702361,0,2,0,0,0,0,66,68,85,90,90,107.26,4,-6.00,-55.00,-994.00
2024-05-19 09:11:31.797239,0,2,0,0,0,0,66,68,86,90,90,107.14,4,-4.00,-31.00,-995.00
2024-05-19 09:11:31.899213,0,2,0,0,0,0,66,68,86,90,90,107.23,5,20.00,-17.00,-1019.00
2024-05-19 09:11:32.009482,0,2,0,0,0,0,66,68,86,90,90,106.93,5,0.00,-28.00,-999.00
2024-05-19 09:11:32.103588,0,2,0,0,0,0,66,68,86,90,90,107.25,5,-14.00,-53.00,-999.00
2024-05-19 09:11:32.214286,0,1,0,0,0,0,66,68,86,90,90,107.43,5,11.00,-31.00,-1022.00
2024-05-19 09:11:32.307168,0,2,0,0,0,0,66,69,87,90,90,107.37,5,-19.00,-21.00,-994.00
2024-05-19 09:11:32.419071,0,2,0,0,0,0,66,69,86,90,90,107.16,5,-9.00,-35.00,-1007.00
2024-05-19 09:11:32.511270,0,2,0,0,0,0,66,69,87,90,90,107.33,5,-19.00,-33.00,-978.00
2024-05-19 09:11:32.623911,0,2,0,0,0,0,66,69,87,90,90,106.95,5,13.00,-48.00,-1009.00
2024-05-19 09:11:32.715144,0,2,0,0,0,0,66,69,87,90,90,107.31,5,-18.00,-33.00,-998.00
2024-05-19 09:11:32.830108,0,2,0,0,0,0,66,69,87,90,90,107.22,6,12.00,-33.00,-995.00
2024-05-19 09:11:32.919206,0,2,0,0,0,0,66,69,87,90,90,107.28,6,13.00,-36.00,-1006.00
2024-05-19 09:11:33.033496,1,2,0,0,0,0,66,69,87,90,90,107.25,6,-11.00,-34.00,-991.00
2024-05-19 09:11:33.123183,1,2,0,0,0,0,66,69,88,90,90,107.38,6,4.00,-40.00,-996.00
2024-05-19 09:11:33.238291,1,2,0,0,0,0,66,69,88,90,90,107.18,6,6.00,-24.00,-1011.00
2024-05-19 09:11:33.327188,1,2,0,0,0,0,67,69,88,90,90,107.13,6,-1.00,-34.00,-1003.00
2024-05-19 09:11:33.429157,0,1,0,0,0,0,67,69,88,90,90,107.23,6,5.00,-40.00,-988.00
2024-05-19 09:11:33.545482,0,1,0,0,0,0,67,69,88,90,90,107.27,6,10.00,-37.00,-1004.00
2024-05-19 09:11:33.633233,0,1,0,0,0,0,67,69,88,90,90,107.29,6,-7.00,-39.00,-994.00
2024-05-19 09:11:33.750320,0,1,0,0,0,0,67,69,88,90,90,107.37,6,16.00,-25.00,-990.00
2024-05-19 09:11:33.837082,0,2,0,0,0,0,67,69,88,90,90,107.16,7,25.00,-13.00,-1001.00
2024-05-19 09:11:33.955083,0,1,0,0,0,0,67,69,88,90,90,107.48,7,19.00,-48.00,-970.00
2024-05-19 09:11:34.041114,1,1,0,0,0,0,67,69,88,90,90,107.33,7,25.00,-28.00,-1009.00
2024-05-19 09:11:34.159900,2,1,0,0,0,0,67,69,87,90,90,107.09,7,55.00,-38.00,-1001.00
2024-05-19 09:11:34.245057,2,1,0,0,0,0,67,69,87,90,90,107.10,7,57.00,-35.00,-1012.00
2024-05-19 09:11:34.347003,3,1,0,0,0,0,67,70,87,90,90,107.09,7,32.00,-39.00,-983.00
2024-05-19 09:11:34.467000,3,1,0,0,0,0,67,70,87,90,90,107.36,7,42.00,-35.00,-995.00
2024-05-19 09:11:34.551112,4,0,0,0,0,0,67,70,87,90,90,107.04,7,19.00,-21.00,-1004.00
2024-05-19 09:11:34.671854,3,1,0,0,0,0,67,70,87,90,90,106.85,7,47.00,-39.00,-1025.00
2024-05-19 09:11:34.755057,3,1,0,0,0,0,67,70,87,90,90,107.20,7,21.00,-39.00,-1005.00
2024-05-19 09:11:34.857012,3,1,0,0,0,0,67,70,87,90,90,107.07,8,0.00,-29.00,-983.00
2024-05-19 09:11:34.979052,2,1,0,0,0,0,67,70,87,90,90,106.92,8,39.00,-52.00,-1018.00
2024-05-19 09:11:35.061087,2,2,0,0,0,0,67,70,87,90,90,107.01,8,32.00,-43.00,-979.00
2024-05-19 09:11:35.112504,2,2,0,0,0,0,67,70,87,90,90,107.24,8,48.00,-30.00,-1025.00
2024-05-19 09:11:35.215338,2,1,0,0,0,0,67,70,87,90,90,107.27,8,24.00,-39.00,-993.00
2024-05-19 09:11:35.388591,3,1,0,0,0,0,68,70,87,90,90,106.99,8,18.00,-40.00,-985.00
2024-05-19 09:11:35.468920,2,2,0,0,0,0,68,70,87,90,90,107.35,8,45.00,-85.00,-1014.00
2024-05-19 09:11:35.593575,2,3,0,0,0,0,68,70,87,90,90,106.93,8,16.00,-58.00,-985.00
2024-05-19 09:11:35.624618,2,3,0,0,0,0,68,70,86,90,90,106.96,8,41.00,-53.00,-1000.00
2024-05-19 09:11:35.725158,2,2,0,0,0,0,68,70,86,90,90,107.22,8,38.00,-59.00,-1009.00
2024-05-19 09:11:35.827460,1,3,0,0,0,0,68,70,86,90,90,106.93,9,44.00,-39.00,-1016.00
2024-05-19 09:11:35.928112,2,2,0,0,0,0,68,70,86,90,90,106.76,9,33.00,-35.00,-1006.00
2024-05-19 09:11:36.105725,3,2,0,0,0,0,68,70,86,90,90,106.87,9,26.00,-64.00,-995.00
2024-05-19 09:11:36.132103,2,2,0,0,0,0,68,70,86,90,90,107.45,9,21.00,-38.00,-1001.00
2024-05-19 09:11:36.310236,1,2,0,0,0,0,68,70,85,90,90,106.90,9,25.00,-30.00,-1017.00
2024-05-19 09:11:36.335778,2,2,0,0,0,0,68,70,86,90,90,107.33,9,11.00,-52.00,-1019.00
2024-05-19 09:11:36.438054,1,2,0,0,0,0,68,70,86,90,90,106.95,9,20.00,-58.00,-1007.00
2024-05-19 09:11:36.617655,1,2,0,0,0,0,68,70,86,90,90,106.93,9,0.00,-46.00,-1002.00
2024-05-19 09:11:36.641969,1,2,0,0,0,0,68,70,87,90,90,107.02,9,29.00,-60.00,-962.00
2024-05-19 09:11:36.822281,1,2,0,0,0,0,68,70,87,90,90,107.32,9,15.00,-61.00,-1009.00
2024-05-19 09:11:36.845983,1,2,0,0,0,0,68,70,88,90,90,107.10,10,15.00,-66.00,-989.00
2024-05-19 09:11:37.027531,1,3,0,0,0,0,68,70,88,90,90,107.08,10,30.00,-67.00,-998.00
2024-05-19 09:11:37.049918,1,3,0,0,0,0,68,70,88,90,90,107.34,10,21.00,-53.00,-995.00
2024-05-19 09:11:37.231955,1,3,0,0,0,0,68,70,88,90,90,107.22,10,22.00,-56.00,-990.00
2024-05-19 09:11:37.253835,1,3,0,0,0,0,68,70,89,90,90,107.18,10,55.00,-51.00,-987.00
2024-05-19 09:11:37.355993,2,2,0,0,0,0,68,70,89,90,90,107.12,10,60.00,-53.00,-992.00
2024-05-19 09:11:37.457850,2,2,0,0,0,0,68,70,89,90,90,107.01,10,60.00,-43.00,-995.00
2024-05-19 09:11:37.641442,3,2,0,0,0,0,68,70,89,90,90,107.18,10,67.00,-74.00,-1028.00
2024-05-19 09:11:37.661900,3,2,0,0,0,0,68,70,89,90,90,107.22,10,61.00,-65.00,-1094.00
2024-05-19 09:11:37.846217,3,2,0,0,0,-1,68,70,90,90,90,107.24,10,67.00,-46.00,-1082.00
2024-05-19 09:11:37.865884,3,2,0,0,0,-2,68,70,92,100,90,107.21,11,72.00,-53.00,-1080.00
2024-05-19 09:11:38.051039,3,1,0,0,0,-3,68,70,96,100,90,107.36,11,51.00,-31.00,-1099.00
2024-05-19 09:11:38.069811,3,1,0,0,0,-4,68,70,100,100,90,106.94,11,55.00,-54.00,-1083.00
2024-05-19 09:11:38.255830,3,1,0,0,0,-4,68,70,105,110,90,107.53,11,43.00,-54.00,-1032.00
2024-05-19 09:11:38.273836,3,2,0,0,0,-5,68,70,111,110,90,107.26,11,42.00,-34.00,-1037.00
2024-05-19 09:11:38.460619,2,1,0,0,0,-5,69,71,117,120,90,107.34,11,50.00,-38.00,-1026.00
2024-05-19 09:11:38.477820,3,1,0,0,0,-5,69,71,123,120,90,107.41,11,44.00,-11.00,-1011.00
2024-05-19 09:11:38.665389,3,1,0,0,0,-5,69,71,129,130,90,107.44,11,75.00,-41.00,-1000.00
2024-05-19 09:11:38.681794,3,0,0,0,0,-5,69,71,134,140,90,107.55,11,62.00,-23.00,-982.00
2024-05-19 09:11:38.732962,4,0,0,0,0,-5,69,71,141,140,90,107.56,11,50.00,-36.00,-970.00
2024-05-19 09:11:38.870783,3,0,0,0,0,-5,69,71,146,150,90,107.64,12,46.00,-15.00,-980.00
2024-05-19 09:11:38.936958,3,0,0,0,0,-4,69,71,151,150,90,107.39,12,51.00,-31.00,-949.00
2024-05-19 09:11:39.075026,3,0,0,0,0,-4,69,71,155,160,90,107.63,12,65.00,-34.00,-961.00
2024-05-19 09:11:39.140741,3,0,0,0,0,-4,69,71,159,160,90,107.49,12,71.00,-8.00,-964.00
2024-05-19 09:11:39.279810,4,0,0,0,0,-3,69,71,164,170,90,107.90,12,26.00,-9.00,-950.00
2024-05-19 09:11:39.344906,3,0,0,0,0,-3,69,72,167,170,90,107.79,12,60.00,-12.00,-966.00
2024-05-19 09:11:39.446771,3,0,0,0,0,-3,69,72,170,170,90,107.68,12,42.00,0.00,-980.00
2024-05-19 09:11:39.548754,3,0,0,0,0,-2,69,72,174,180,90,108.10,12,47.00,-26.00,-969.00
2024-05-19 09:11:39.689424,3,0,0,0,0,-2,69,72,175,180,90,107.85,12,40.00,-24.00,-975.00
2024-05-19 09:11:39.752696,3,0,0,0,0,-2,69,72,178,180,90,108.09,12,40.00,-18.00,-989.00
2024-05-19 09:11:39.855002,2,0,0,0,0,-2,69,72,179,180,90,107.96,13,47.00,-8.00,-986.00
2024-05-19 09:11:39.998317,2,0,0,0,0,-1,69,72,181,180,90,107.90,13,30.00,-19.00,-973.00
2024-05-19 09:11:40.059059,2,0,0,0,0,-1,69,72,182,190,90,107.81,13,61.00,-29.00,-961.00
2024-05-19 09:11:40.201722,2,1,0,0,0,-1,69,72,185,190,90,107.70,13,27.00,-4.00,-983.00
2024-05-19 09:11:40.263005,2,1,0,0,0,-1,69,72,184,190,90,107.92,13,39.00,-21.00,-951.00
2024-05-19 09:11:40.364914,2,0,0,0,0,0,69,71,185,190,90,107.83,13,44.00,-18.00,-982.00
2024-05-19 09:11:40.508746,2,0,0,0,0,0,69,71,186,190,90,107.76,13,56.00,-9.00,-1016.00
2024-05-19 09:11:40.569408,2,0,0,0,0,0,69,71,186,190,90,107.67,13,32.00,-2.00,-994.00
2024-05-19 09:11:40.713616,2,0,0,0,0,0,69,71,186,190,90,108.18,13,24.00,-14.00,-993.00
2024-05-19 09:11:40.772867,2,0,0,0,0,0,69,71,186,190,90,108.15,13,39.00,-17.00,-993.00
2024-05-19 09:11:40.874835,2,0,0,0,0,0,69,71,185,190,90,107.98,14,35.00,-31.00,-989.00
2024-05-19 09:11:41.020654,2,0,0,0,0,0,69,71,186,190,90,107.84,14,47.00,-25.00,-988.00
2024-05-19 09:11:41.078789,2,0,0,0,0,0,69,71,186,190,90,107.91,14,19.00,-12.00,-996.00
2024-05-19 09:11:41.225609,2,0,0,0,0,0,69,71,186,190,90,107.86,14,28.00,-12.00,-995.00
2024-05-19 09:11:41.282813,2,0,0,0,0,0,69,71,186,190,90,107.76,14,29.00,-35.00,-1013.00
2024-05-19 09:11:41.430353,2,0,0,0,0,0,69,72,186,190,90,107.80,14,27.00,-25.00,-1005.00
2024-05-19 09:11:41.486776,2,1,0,0,0,0,69,72,184,190,90,108.30,14,22.00,-24.00,-989.00
2024-05-19 09:11:41.635170,2,1,0,0,0,0,69,72,184,190,90,107.93,14,36.00,-35.00,-978.00
2024-05-19 09:11:41.690816,2,0,0,0,0,0,69,72,185,190,90,107.93,14,24.00,-24.00,-1010.00
2024-05-19 09:11:41.839858,2,0,0,0,0,0,69,72,185,190,90,107.84,14,23.00,-24.00,-1000.00
2024-05-19 09:11:41.895499,2,0,0,0,0,0,69,72,185,190,90,108.10,15,10.00,-22.00,-999.00
2024-05-19 09:11:41.996751,2,0,0,0,0,0,69,72,185,190,90,107.98,15,1.00,-1.00,-1022.00
2024-05-19 09:11:42.147086,1,0,0,0,0,0,69,72,184,190,90,107.83,15,-26.00,-16.00,-994.00
2024-05-19 09:11:42.200855,0,0,0,-1,0,0,69,72,184,190,90,108.10,15,-9.00,-40.00,-984.00
2024-05-19 09:11:42.302654,0,0,0,-1,0,0,69,72,185,190,90,107.79,15,-8.00,-28.00,-1000.00
2024-05-19 09:11:42.429534,0,0,0,-1,0,0,70,72,184,190,90,107.71,15,-9.00,-32.00,-966.00
2024-05-19 09:11:42.506652,0,0,0,-1,0,0,70,72,184,190,89,107.78,15,-7.00,-13.00,-934.00
2024-05-19 09:11:42.608588,-1,1,0,-1,0,0,70,72,184,190,89,107.73,15,-1.00,-37.00,-949.00
2024-05-19 09:11:42.761431,0,1,0,0,0,1,70,72,183,190,89,107.85,15,-15.00,-40.00,-941.00
2024-05-19 09:11:42.812596,0,1,0,0,0,1,70,72,181,190,89,107.65,15,23.00,-44.00,-970.00
2024-05-19 09:11:42.863685,0,1,0,0,0,2,70,72,178,180,89,107.93,16,36.00,-45.00,-973.00
2024-05-19 09:11:42.966385,0,2,0,0,0,2,70,72,177,180,89,107.71,16,12.00,-28.00,-969.00
2024-05-19 09:11:43.069245,0,2,0,0,0,2,70,72,173,180,89,108.02,16,26.00,-50.00,-983.00
2024-05-19 09:11:43.170647,1,2,0,0,0,2,70,72,172,180,89,107.94,16,35.00,-43.00,-1011.00
2024-05-19 09:11:43.273350,1,3,0,0,0,2,70,72,169,170,89,107.62,16,39.00,-23.00,-981.00
2024-05-19 09:11:43.373579,2,2,0,0,0,2,70,73,164,170,89,107.66,16,36.00,-30.00,-993.00
2024-05-19 09:11:43.478147,2,2,0,0,0,2,70,73,162,170,89,107.99,16,48.00,-26.00,-1032.00
2024-05-19 09:11:43.577577,3,2,0,0,0,2,70,73,158,170,89,107.33,16,49.00,-57.00,-1027.00
2024-05-19 09:11:43.682970,3,2,0,0,0,2,70,73,157,160,89,107.88,16,36.00,-41.00,-1012.00
2024-05-19 09:11:43.781526,3,2,0,0,0,2,70,73,154,160,89,107.57,16,31.00,-39.00,-1021.00
2024-05-19 09:11:43.887681,3,2,0,0,0,2,70,73,151,160,89,107.82,17,25.00,-47.00,-1027.00
2024-05-19 09:11:43.985545,2,2,0,0,0,2,70,73,149,160,89,107.83,17,34.00,-42.00,-1008.00
2024-05-19 09:11:44.092555,2,2,0,0,0,1,70,73,147,150,89,107.83,17,24.00,-26.00,-1025.00
2024-05-19 09:11:44.189520,2,1,0,0,0,1,70,73,146,150,89,107.64,17,23.00,-36.00,-1014.00
2024-05-19 09:11:44.297707,2,1,0,0,0,1,70,73,144,150,89,107.37,17,18.00,-33.00,-1012.00
2024-05-19 09:11:44.393539,2,1,0,0,0,1,70,73,143,150,89,107.50,17,17.00,-36.00,-1022.00
2024-05-19 09:11:44.502151,2,1,0,0,0,1,70,73,141,150,88,107.39,17,35.00,-39.00,-1009.00
2024-05-19 09:11:44.597448,1,1,0,0,0,1,70,73,140,150,88,107.40,17,29.00,-54.00,-1026.00
2024-05-19 09:11:44.706975,1,1,0,0,0,1,70,73,139,150,88,107.36,17,22.00,-51.00,-1006.00
2024-05-19 09:11:44.801509,1,1,0,0,0,0,70,73,138,140,88,107.59,17,31.00,-37.00,-1005.00
2024-05-19 09:11:44.911865,2,1,0,0,0,0,70,73,138,140,88,107.52,18,41.00,-53.00,-1023.00
2024-05-19 09:11:45.005667,2,1,0,0,0,0,70,73,137,140,88,107.48,18,39.00,-40.00,-1018.00
2024-05-19 09:11:45.116602,2,1,0,0,0,0,70,73,137,140,88,107.44,18,42.00,-49.00,-1012.00
2024-05-19 09:11:45.209696,2,1,0,0,0,0,70,73,136,140,88,107.43,18,9.00,-41.00,-1015.00
2024-05-19 09:11:45.321355,2,1,0,0,0,0,70,73,137,140,88,107.20,18,17.00,-42.00,-983.00
2024-05-19 09:11:45.413556,1,1,0,0,0,0,71,73,137,140,88,107.22,18,37.00,-53.00,-1000.00
2024-05-19 09:11:45.516125,1,1,0,0,0,0,71,73,137,140,88,107.47,18,10.00,-49.00,-1006.00
2024-05-19 09:11:45.628656,1,2,0,0,0,0,71,73,137,140,88,107.19,18,14.00,-46.00,-1009.00
2024-05-19 09:11:45.719535,1,2,0,0,0,0,71,73,137,140,88,107.21,18,38.00,-46.00,-996.00
2024-05-19 09:11:45.833479,1,2,0,0,0,0,71,73,137,140,88,107.49,18,34.00,-57.00,-1004.00
2024-05-19 09:11:45.923515,1,2,0,0,0,0,71,73,137,140,88,107.28,19,19.00,-32.00,-1003.00
2024-05-19 09:11:46.025516,1,2,0,0,0,0,71,73,138,140,88,107.40,19,6.00,-34.00,-974.00
2024-05-19 09:11:46.140599,1,2,0,0,0,0,71,73,138,140,88,107.38,19,32.00,-49.00,-983.00
2024-05-19 09:11:46.229530,1,2,0,0,0,0,71,73,138,140,88,107.64,19,31.00,-34.00,-989.00
2024-05-19 09:11:46.280534,1,2,0,0,0,0,71,73,138,140,88,107.41,19,24.00,-37.00,-999.00
2024-05-19 09:11:46.447905,1,2,0,0,0,0,71,73,138,140,88,107.39,19,22.00,-34.00,-985.00
2024-05-19 09:11:46.484417,1,1,0,0,0,0,71,73,137,140,88,107.18,19,24.00,-47.00,-995.00
2024-05-19 09:11:46.652627,2,1,0,0,0,0,71,73,138,140,88,107.43,19,41.00,-28.00,-1010.00
2024-05-19 09:11:46.688461,2,1,0,0,0,0,71,73,137,140,88,107.35,19,24.00,-31.00,-982.00
2024-05-19 09:11:46.790543,2,1,0,0,0,0,71,73,137,140,88,107.67,19,2.00,-35.00,-976.00
2024-05-19 09:11:46.959705,1,1,0,0,0,0,71,73,137,140,88,107.74,20,19.00,-24.00,-1003.00
2024-05-19 09:11:46.994442,-2,1,0,0,0,0,71,73,137,140,88,107.44,20,18.00,-29.00,-987.00
2024-05-19 09:11:47.167132,-7,1,0,0,0,0,71,73,138,140,88,107.47,20,20.00,-33.00,-1011.00
2024-05-19 09:11:47.198312,-8,1,0,2,0,0,71,73,139,140,88,107.31,20,3.00,-43.00,-962.00
2024-05-19 09:11:47.369294,-7,1,0,3,0,0,71,73,138,140,88,108.20,20,16.00,-36.00,-1022.00
2024-05-19 09:11:47.402490,-6,1,0,4,0,0,72,74,138,140,88,107.69,20,-22.00,-42.00,-1017.00
2024-05-19 09:11:47.574151,-6,1,0,5,0,0,72,74,138,140,87,107.67,20,-27.00,-39.00,-983.00
2024-05-19 09:11:47.606310,-6,1,0,6,0,0,72,74,138,140,87,107.68,20,-27.00,-51.00,-996.00
2024-05-19 09:11:47.778921,-4,1,0,7,0,0,72,74,138,140,87,107.57,20,-37.00,-55.00,-968.00
2024-05-19 09:11:47.810458,-3,1,0,7,0,0,72,74,138,140,87,107.38,20,-42.00,-46.00,-993.00
2024-05-19 09:11:47.983767,0,2,0,8,0,0,72,74,137,140,87,107.48,21,-45.00,-48.00,-994.00
2024-05-19 09:11:48.014465,2,2,0,7,0,0,72,74,137,140,87,107.77,21,-41.00,-35.00,-997.00
2024-05-19 09:11:48.188503,5,2,0,6,0,0,72,74,138,140,87,107.83,21,-12.00,-61.00,-1011.00
2024-05-19 09:11:48.219618,6,2,0,5,0,0,72,74,138,140,87,107.84,21,-23.00,-22.00,-1012.00
2024-05-19 09:11:48.322956,5,2,0,4,0,0,72,74,138,140,87,107.65,21,-17.00,-34.00,-1005.00
2024-05-19 09:11:48.423646,2,1,0,3,0,0,72,74,138,140,87,107.64,21,-9.00,-20.00,-1000.00
2024-05-19 09:11:48.524947,2,1,0,3,0,0,72,74,139,140,87,107.61,21,-9.00,-31.00,-997.00
2024-05-19 09:11:48.627502,2,1,0,2,0,0,72,74,139,150,87,107.86,21,-6.00,-42.00,-987.00
2024-05-19 09:11:48.728327,2,1,0,2,0,0,72,74,139,150,87,107.50,21,-17.00,-31.00,-991.00
2024-05-19 09:11:48.905533,2,0,0,1,0,0,72,74,139,150,87,107.45,22,-2.00,-26.00,-998.00
2024-05-19 09:11:48.932461,2,-2,0,1,0,0,72,74,139,150,87,107.13,22,-3.00,-55.00,-1005.00
2024-05-19 09:11:49.110080,3,-2,0,1,0,0,72,74,139,150,87,107.37,22,-5.00,-21.00,-995.00
2024-05-19 09:11:49.136336,3,-2,0,0,-1,0,72,74,139,150,87,107.41,22,10.00,-21.00,-1000.00
2024-05-19 09:11:49.315025,2,-1,0,0,-1,0,72,74,139,150,87,107.57,22,30.00,-20.00,-1016.00
2024-05-19 09:11:49.340479,1,0,0,0,-1,0,72,74,139,150,87,107.56,22,16.00,-25.00,-987.00
2024-05-19 09:11:49.519685,1,4,0,0,-1,0,73,75,138,140,87,107.87,22,36.00,-19.00,-1006.00
2024-05-19 09:11:49.544082,1,4,0,0,0,0,73,75,138,140,87,107.58,22,16.00,-25.00,-1006.00
2024-05-19 09:11:49.646253,1,3,0,0,0,0,73,75,138,140,87,107.34,22,12.00,-42.00,-1015.00
2024-05-19 09:11:49.826942,1,2,0,0,0,0,73,75,138,140,87,107.48,22,25.00,-33.00,-1005.00
2024-05-19 09:11:49.850282,1,2,0,0,0,0,73,75,138,140,87,107.59,23,13.00,-30.00,-1009.00
2024-05-19 09:11:50.031765,1,2,0,0,0,0,73,75,138,140,87,107.60,23,8.00,-38.00,-982.00
2024-05-19 09:11:50.054231,1,2,0,0,0,0,73,75,138,140,87,107.48,23,6.00,-45.00,-1005.00
2024-05-19 09:11:50.156622,1,2,0,0,0,0,73,75,138,140,87,107.53,23,7.00,-36.00,-1010.00
2024-05-19 09:11:50.207154,0,2,0,0,0,0,73,75,138,140,87,107.72,23,8.00,-41.00,-1003.00
2024-05-19 09:11:50.339363,0,2,0,0,0,0,73,75,138,140,87,107.70,23,-1.00,-14.00,-991.00
2024-05-19 09:11:50.411270,1,1,0,0,0,0,73,74,138,140,87,107.50,23,3.00,-33.00,-993.00
2024-05-19 09:11:50.544003,1,1,0,0,0,0,73,74,138,140,86,107.62,23,0.00,-31.00,-1017.00
2024-05-19 09:11:50.615311,1,1,0,0,0,0,73,74,139,140,86,107.53,23,-14.00,-44.00,-1000.00
2024-05-19 09:11:50.748695,0,1,0,0,0,0,73,74,139,140,86,107.69,23,-22.00,-40.00,-1001.00
2024-05-19 09:11:50.820145,0,0,0,0,0,0,73,74,139,140,86,107.61,24,-1.00,-46.00,-992.00
2024-05-19 09:11:50.953720,0,1,0,0,0,0,73,74,139,140,86,107.51,24,8.00,-59.00,-1002.00
2024-05-19 09:11:51.024262,0,2,0,0,0,0,73,74,139,140,86,107.61,24,-6.00,-43.00,-1007.00
2024-05-19 09:11:51.158179,0,2,0,0,0,0,73,74,139,140,86,107.36,24,7.00,-48.00,-1009.00
2024-05-19 09:11:51.228395,0,2,0,0,0,0,73,74,139,140,86,107.93,24,12.00,-50.00,-991.00
2024-05-19 09:11:51.363602,0,2,0,0,0,0,73,74,139,140,86,107.21,24,9.00,-43.00,-1003.00
2024-05-19 09:11:51.432272,0,2,0,0,0,0,73,75,140,140,86,107.49,24,10.00,-40.00,-982.00
2024-05-19 09:11:51.567847,0,2,0,0,0,0,73,75,140,140,86,107.45,24,12.00,-43.00,-984.00
2024-05-19 09:11:51.636184,0,2,0,0,0,0,73,75,140,140,86,107.42,24,22.00,-30.00,-1002.00
2024-05-19 09:11:51.772475,2,2,0,0,0,0,73,75,140,140,86,107.66,24,54.00,-46.00,-992.00
2024-05-19 09:11:51.839979,8,1,0,0,0,0,73,75,141,140,86,107.44,25,19.00,-15.00,-1033.00
2024-05-19 09:11:51.977246,8,1,0,-1,0,0,73,75,141,140,86,107.20,25,36.00,-26.00,-1013.00
2024-05-19 09:11:52.043909,8,1,0,-2,0,0,73,75,141,140,86,107.46,25,48.00,-38.00,-1004.00
2024-05-19 09:11:52.182071,8,1,0,-3,0,0,73,75,142,140,86,107.52,25,42.00,-52.00,-990.00
2024-05-19 09:11:52.247948,8,1,0,-3,0,0,73,75,141,140,86,107.54,25,39.00,-54.00,-985.00
2024-05-19 09:11:52.387470,8,1,0,-4,0,0,73,75,142,140,86,107.49,25,47.00,-41.00,-1001.00
2024-05-19 09:11:52.451893,8,2,0,-5,0,0,73,76,141,140,86,107.60,25,40.00,-36.00,-992.00
2024-05-19 09:11:52.591682,8,2,0,-6,0,0,73,76,141,140,86,107.59,25,60.00,-44.00,-1000.00
2024-05-19 09:11:52.656224,8,2,0,-7,0,0,73,76,142,140,86,107.81,25,74.00,-66.00,-1010.00
2024-05-19 09:11:52.796488,6,2,0,-7,0,0,73,76,141,140,86,107.44,25,72.00,-38.00,-981.00
2024-05-19 09:11:52.860087,3,2,0,-8,0,0,73,76,141,140,86,107.67,26,72.00,-49.00,-1002.00
2024-05-19 09:11:53.001250,0,2,0,-7,0,0,73,76,141,140,86,107.65,26,89.00,-66.00,-980.00
2024-05-19 09:11:53.063930,-1,2,0,-6,0,0,73,76,141,140,86,107.46,26,58.00,-67.00,-991.00
2024-05-19 09:11:53.206094,-3,2,0,-5,0,0,73,76,141,150,86,107.37,26,46.00,-80.00,-988.00
2024-05-19 09:11:53.267908,-2,3,0,-5,0,0,73,76,141,140,86,107.51,26,54.00,-69.00,-980.00
2024-05-19 09:11:53.370289,-1,3,0,-4,0,0,73,76,141,150,86,107.44,26,40.00,-72.00,-989.00
2024-05-19 09:11:53.513254,0,3,0,-3,0,0,73,75,140,150,86,107.63,26,29.00,-64.00,-989.00
2024-05-19 09:11:53.574022,0,3,0,-3,0,0,73,75,140,150,85,107.71,26,10.00,-56.00,-988.00
2024-05-19 09:11:53.718083,0,3,0,-3,0,0,73,75,140,140,85,107.56,26,17.00,-61.00,-997.00
2024-05-19 09:11:53.727013,0,3,0,-3,0,0,73,75,140,140,85,107.52,26,4.00,-62.00,-1007.00
2024-05-19 09:11:53.922835,0,3,0,-2,0,0,73,75,139,140,85,107.66,27,13.00,-72.00,-1008.00
2024-05-19 09:11:53.930958,0,3,0,-2,0,0,73,75,139,140,85,107.49,27,12.00,-66.00,-1004.00
2024-05-19 09:11:54.127673,-1,3,0,-2,0,0,73,75,140,140,85,107.49,27,3.00,-53.00,-1006.00
2024-05-19 09:11:54.134947,-2,3,0,-1,0,0,73,75,139,140,85,107.51,27,-11.00,-76.00,-995.00
2024-05-19 09:11:54.332407,-2,3,0,-1,0,0,73,75,139,140,85,107.49,27,-16.00,-75.00,-1002.00
2024-05-19 09:11:54.340068,-1,3,0,-1,0,0,73,75,139,140,85,107.92,27,-33.00,-59.00,-998.00
2024-05-19 09:11:54.442073,-1,3,0,-1,0,0,73,76,138,140,85,107.64,27,-5.00,-71.00,-1016.00
2024-05-19 09:11:54.639738,-1,3,0,0,0,0,73,76,139,140,85,107.84,27,-1.00,-58.00,-1005.00
2024-05-19 09:11:54.645951,0,3,0,0,0,0,73,76,138,140,85,107.26,27,-13.00,-59.00,-1012.00
2024-05-19 09:11:54.844633,0,3,0,0,0,0,73,76,138,140,85,107.74,27,-33.00,-45.00,-1004.00
2024-05-19 09:11:54.850094,0,2,0,0,0,0,73,76,138,140,85,107.50,28,-8.00,-53.00,-1010.00
2024-05-19 09:11:54.951910,0,2,0,0,0,0,73,76,138,140,85,107.41,28,-19.00,-21.00,-1004.00
2024-05-19 09:11:55.151839,0,2,0,0,0,0,73,76,138,140,85,107.50,28,18.00,-60.00,-1018.00
2024-05-19 09:11:55.155916,0,2,0,0,0,0,73,76,138,140,85,107.37,28,5.00,-72.00,-996.00
2024-05-19 09:11:55.257994,0,2,0,0,0,0,73,76,139,140,85,107.23,28,13.00,-64.00,-995.00
2024-05-19 09:11:55.360282,0,2,0,0,0,0,73,76,138,140,85,107.76,28,13.00,-70.00,-998.00
2024-05-19 09:11:55.462207,0,2,0,0,0,0,74,76,139,140,85,107.43,28,9.00,-73.00,-1011.00
2024-05-19 09:11:55.564193,1,3,0,0,0,0,74,76,138,140,85,107.34,28,-12.00,-76.00,-992.00
2024-05-19 09:11:55.667246,1,3,0,0,0,0,74,76,138,140,85,107.66,28,4.00,-74.00,-1003.00
2024-05-19 09:11:55.767931,0,3,0,0,0,0,74,76,138,140,85,107.55,28,4.00,-83.00,-989.00
2024-05-19 09:11:55.971385,0,3,0,0,0,0,74,76,139,140,85,107.34,29,9.00,-80.00,-962.00
2024-05-19 09:11:55.971939,1,3,0,0,0,0,74,76,139,140,85,107.57,29,11.00,-70.00,-999.00
2024-05-19 09:11:56.175696,1,4,0,0,0,0,74,76,139,140,85,107.45,29,13.00,-72.00,-1001.00
2024-05-19 09:11:56.175796,1,4,0,0,0,0,74,76,139,140,85,107.46,29,-31.00,-50.00,-996.00
2024-05-19 09:11:56.278323,1,4,0,0,0,0,74,76,139,140,85,107.54,29,2.00,-74.00,-1003.00
2024-05-19 09:11:56.380129,1,3,0,0,0,0,74,76,139,140,85,107.31,29,18.00,-74.00,-984.00
2024-05-19 09:11:56.483438,0,3,0,0,0,0,74,76,139,140,84,107.58,29,17.00,-55.00,-977.00
2024-05-19 09:11:56.585095,0,-2,0,0,0,0,74,76,139,140,84,107.45,29,11.00,-65.00,-1016.00
2024-05-19 09:11:56.685819,0,-4,0,0,-1,0,74,76,139,140,84,107.76,29,-5.00,-43.00,-1010.00
2024-05-19 09:11:56.790016,0,-2,0,0,-2,0,74,76,138,140,84,107.56,29,13.00,-30.00,-1000.00
2024-05-19 09:11:56.890632,0,0,0,0,-3,0,74,76,137,140,84,107.45,30,16.00,-24.00,-1016.00
2024-05-19 09:11:56.994800,0,1,0,0,-3,0,74,76,137,140,84,107.50,30,17.00,-14.00,-1002.00
2024-05-19 09:11:57.093865,1,2,0,0,-3,0,74,76,137,140,84,107.39,30,36.00,-48.00,-995.00
2024-05-19 09:11:57.199755,1,2,0,0,-2,0,74,76,137,140,84,107.28,30,-6.00,-39.00,-1002.00
2024-05-19 09:11:57.297828,1,2,0,0,-2,0,74,76,137,140,84,107.33,30,11.00,-48.00,-1027.00
2024-05-19 09:11:57.348994,1,2,0,0,-2,0,74,76,137,140,84,107.31,30,0.00,-52.00,-1013.00
2024-05-19 09:11:57.506814,0,2,0,0,-2,0,74,77,136,140,84,107.21,30,2.00,-59.00,-1009.00
2024-05-19 09:11:57.552879,0,2,0,0,-2,0,74,77,136,140,84,107.31,30,3.00,-71.00,-1001.00
2024-05-19 09:11:57.654778,0,2,0,0,-3,0,74,77,137,140,84,107.20,30,-2.00,-65.00,-1006.00
2024-05-19 09:11:57.756793,0,3,0,0,-3,0,74,77,138,140,84,107.32,30,9.00,-72.00,-1017.00
2024-05-19 09:11:57.858876,1,4,0,0,-2,0,74,77,138,140,84,107.40,31,8.00,-86.00,-1011.00
2024-05-19 09:11:57.960917,3,4,0,0,-2,0,74,77,138,140,84,107.23,31,-5.00,-75.00,-979.00
2024-05-19 09:11:58.065206,2,3,0,0,-2,0,74,77,138,140,84,107.55,31,0.00,-76.00,-1038.00
2024-05-19 09:11:58.164880,0,4,0,-1,-2,0,74,77,140,140,84,107.52,31,22.00,-78.00,-972.00
2024-05-19 09:11:58.326022,-1,4,0,0,-2,0,74,77,139,140,84,107.29,31,0.00,-84.00,-1003.00
2024-05-19 09:11:58.369590,0,7,0,0,-2,0,74,77,140,140,84,107.29,31,12.00,-68.00,-978.00
2024-05-19 09:11:58.471515,0,8,0,0,-1,0,74,76,141,140,84,107.53,31,12.00,-78.00,-992.00
2024-05-19 09:11:58.572949,0,6,0,0,-1,0,74,76,140,140,84,107.27,31,5.00,-88.00,-1010.00
2024-05-19 09:11:58.674767,0,5,0,0,0,0,74,76,140,140,84,107.31,31,-41.00,-61.00,-986.00
2024-05-19 09:11:58.776805,1,5,0,0,0,0,74,76,140,140,84,107.54,31,-9.00,-70.00,-1014.00
2024-05-19 09:11:58.879247,0,4,0,0,0,0,74,76,140,140,84,107.21,32,-21.00,-73.00,-1011.00
2024-05-19 09:11:58.980764,0,4,0,0,0,0,74,76,140,140,84,107.29,32,-2.00,-63.00,-980.00
2024-05-19 09:11:59.083729,-1,4,0,0,0,0,74,76,141,140,84,107.54,32,-17.00,-71.00,-980.00
2024-05-19 09:11:59.184812,0,3,0,0,0,0,74,76,141,140,84,107.33,32,-5.00,-93.00,-995.00
2024-05-19 09:11:59.350654,0,3,0,0,0,0,74,76,141,140,84,107.33,32,4.00,-104.00,-984.00
2024-05-19 09:11:59.393553,0,3,0,0,0,0,74,76,141,140,84,107.43,32,12.00,-116.00,-988.00
2024-05-19 09:11:59.490782,0,4,0,0,0,0,75,77,142,140,84,107.48,32,15.00,-112.00,-993.00
2024-05-19 09:11:59.657756,0,4,0,0,0,0,75,77,141,150,84,107.53,32,19.00,-99.00,-1001.00
2024-05-19 09:11:59.694786,0,4,0,0,0,0,75,77,141,150,84,107.57,32,29.00,-93.00,-989.00
2024-05-19 09:11:59.862108,1,5,0,0,0,0,75,77,142,150,84,107.48,32,22.00,-89.00,-993.00
2024-05-19 09:11:59.898726,1,5,0,0,0,0,75,77,141,150,84,107.58,33,2.00,-76.00,-979.00
2024-05-19 09:12:00.066870,1,5,0,0,0,0,75,77,142,150,84,107.47,33,9.00,-72.00,-1006.00
2024-05-19 09:12:00.102675,1,4,0,0,0,0,75,77,141,150,84,107.23,33,8.00,-65.00,-990.00
2024-05-19 09:12:00.271748,1,4,0,0,0,0,75,77,140,150,84,107.44,33,-6.00,-71.00,-975.00
2024-05-19 09:12:00.306694,1,4,0,0,0,0,75,77,141,140,84,107.52,33,16.00,-83.00,-1002.00
2024-05-19 09:12:00.408712,1,3,0,0,0,0,75,77,141,140,84,107.40,33,14.00,-90.00,-992.00
2024-05-19 09:12:00.576183,1,3,0,0,0,0,76,77,141,140,84,107.53,33,57.00,-100.00,-1009.00
2024-05-19 09:12:00.612534,0,4,0,0,0,0,76,77,141,140,84,107.36,33,29.00,-122.00,-966.00
2024-05-19 09:12:00.783672,2,4,0,0,0,0,76,77,141,140,84,107.40,33,25.00,-130.00,-1007.00
2024-05-19 09:12:00.816559,1,7,0,0,0,0,76,77,141,140,84,107.61,33,64.00,-114.00,-1004.00
2024-05-19 09:12:00.988390,0,8,0,0,0,0,76,77,142,140,84,107.67,34,46.00,-126.00,-1022.00
2024-05-19 09:12:01.020680,1,8,0,0,0,0,76,77,141,140,84,107.51,34,16.00,-116.00,-968.00
2024-05-19 09:12:01.193104,1,8,0,0,0,0,76,77,141,140,84,107.70,34,44.00,-106.00,-1008.00
2024-05-19 09:12:01.224577,1,9,0,0,0,0,76,77,142,140,84,107.35,34,48.00,-105.00,-967.00
2024-05-19 09:12:01.399473,2,9,0,0,1,0,76,77,142,140,84,107.20,34,22.00,-81.00,-971.00
2024-05-19 09:12:01.399965,3,8,0,0,2,0,76,77,141,140,84,107.50,34,26.00,-87.00,-1015.00
2024-05-19 09:12:01.602737,3,6,0,0,2,0,75,78,140,140,83,107.35,34,41.00,-88.00,-1015.00
2024-05-19 09:12:01.602786,3,4,0,0,2,0,75,78,140,140,83,107.56,34,1.00,-90.00,-1030.00
2024-05-19 09:12:01.683483,2,4,0,0,2,0,75,78,140,140,83,107.55,34,45.00,-80.00,-1010.00
2024-05-19 09:12:01.807638,1,3,0,0,2,0,75,78,139,140,83,107.35,34,35.00,-64.00,-1016.00
2024-05-19 09:12:01.889637,2,4,0,0,2,0,75,78,140,140,83,107.48,35,17.00,-91.00,-1021.00
2024-05-19 09:12:01.989675,2,4,0,0,2,0,75,78,140,140,83,107.58,35,18.00,-102.00,-983.00
2024-05-19 09:12:02.114762,2,4,0,0,2,0,75,78,141,140,83,107.27,35,36.00,-77.00,-971.00
2024-05-19 09:12:02.193621,1,4,0,0,2,0,75,78,140,150,83,107.36,35,35.00,-104.00,-981.00
2024-05-19 09:12:02.319546,1,4,0,0,2,0,75,78,141,150,83,107.26,35,54.00,-121.00,-985.00
2024-05-19 09:12:02.397401,2,4,0,0,2,0,75,78,141,150,83,107.22,35,23.00,-121.00,-978.00
2024-05-19 09:12:02.499477,4,4,0,0,2,0,75,78,141,150,83,107.45,35,38.00,-88.00,-979.00
2024-05-19 09:12:02.626762,3,5,0,0,1,0,75,78,141,150,83,107.36,35,25.00,-102.00,-987.00
2024-05-19 09:12:02.703424,3,4,0,0,1,0,75,78,140,150,83,107.07,35,35.00,-109.00,-979.00
2024-05-19 09:12:02.831532,0,4,0,0,1,0,75,78,139,140,83,107.44,35,23.00,-101.00,-993.00
2024-05-19 09:12:02.908448,0,5,0,0,1,0,75,78,140,140,83,107.60,36,64.00,-112.00,-986.00
2024-05-19 09:12:03.040523,0,1,0,0,0,0,75,78,139,140,83,107.18,36,20.00,-155.00,-1000.00
2024-05-19 09:12:03.113034,0,2,0,0,0,0,75,78,139,140,83,107.01,36,36.00,-126.00,-1091.00
2024-05-19 09:12:03.241657,1,3,0,0,0,0,75,78,140,150,83,107.10,36,75.00,-95.00,-1018.00
2024-05-19 09:12:03.316527,4,4,0,1,0,0,75,78,142,150,83,107.29,36,97.00,-87.00,-1087.00
2024-05-19 09:12:03.418487,6,4,0,1,0,0,75,78,142,150,83,107.14,36,77.00,-113.00,-967.00
2024-05-19 09:12:03.520599,5,5,0,1,-1,0,75,78,142,150,83,107.46,36,74.00,-150.00,-941.00
2024-05-19 09:12:03.650945,4,6,0,1,-1,0,75,78,142,150,83,107.35,36,106.00,-153.00,-1046.00
2024-05-19 09:12:03.724510,5,7,0,1,-1,0,75,78,143,150,83,107.48,36,103.00,-117.00,-923.00
2024-05-19 09:12:03.826477,6,7,0,1,-1,0,75,78,143,150,83,107.39,37,71.00,-157.00,-912.00
2024-05-19 09:12:03.958357,5,6,0,1,-2,0,75,78,142,150,83,107.40,37,58.00,-152.00,-1016.00
2024-05-19 09:12:04.030656,5,7,0,0,-2,0,75,78,142,140,83,107.93,37,50.00,-164.00,-980.00
2024-05-19 09:12:04.162860,4,7,0,0,-2,0,75,78,142,140,83,107.50,37,22.00,-190.00,-969.00
2024-05-19 09:12:04.234441,3,8,0,0,-2,0,75,78,140,140,83,107.42,37,-2.00,-198.00,-1031.00
2024-05-19 09:12:04.367616,2,9,0,0,-3,0,75,78,140,140,83,107.07,37,19.00,-146.00,-1001.00
2024-05-19 09:12:04.438809,1,10,0,-1,-2,0,75,78,141,140,83,107.39,37,-20.00,-126.00,-971.00
2024-05-19 09:12:04.572593,0,9,0,-1,-2,0,76,79,140,140,83,107.30,37,10.00,-138.00,-1018.00
2024-05-19 09:12:04.642480,0,9,0,-1,-1,0,76,79,139,140,83,107.54,37,40.00,-116.00,-998.00
2024-05-19 09:12:04.744385,0,8,0,-1,-1,0,76,79,140,140,83,107.29,37,53.00,-138.00,-1020.00
2024-05-19 09:12:04.847163,0,9,0,0,-1,0,76,79,140,140,83,107.35,38,93.00,-127.00,-970.00
2024-05-19 09:12:04.982207,0,8,0,0,0,0,76,79,141,140,83,107.02,38,74.00,-117.00,-1004.00
2024-05-19 09:12:05.050445,2,8,0,0,0,0,76,79,140,140,83,107.12,38,72.00,-118.00,-975.00
2024-05-19 09:12:05.152375,3,8,0,1,0,0,76,79,141,140,83,107.15,38,79.00,-124.00,-975.00
2024-05-19 09:12:05.289296,3,7,4,1,0,0,76,79,141,140,83,107.10,38,71.00,-150.00,-999.00
2024-05-19 09:12:05.305393,3,8,10,1,0,0,76,79,141,140,83,107.23,38,48.00,-139.00,-967.00
2024-05-19 09:12:05.407315,3,8,16,1,0,0,76,79,141,140,83,107.42,38,33.00,-160.00,-949.00
2024-05-19 09:12:05.510626,2,8,22,1,0,0,76,79,141,140,82,107.28,38,23.00,-155.00,-966.00
2024-05-19 09:12:05.611253,1,8,28,1,0,0,76,79,141,140,82,107.35,38,-23.00,-174.00,-1006.00
2024-05-19 09:12:05.801190,0,8,34,0,0,0,76,79,141,140,82,107.36,38,-5.00,-164.00,-1009.00
2024-05-19 09:12:05.815202,0,7,39,0,0,0,76,79,140,140,82,106.71,39,-7.00,-147.00,-1041.00
2024-05-19 09:12:06.005905,0,8,45,1,-1,0,76,79,140,140,82,106.95,39,-44.00,-159.00,-980.00
2024-05-19 09:12:06.019333,-2,8,50,0,-1,0,76,79,142,140,82,107.19,39,-57.00,-135.00,-953.00
2024-05-19 09:12:06.210701,-3,8,56,0,-1,0,76,79,140,140,82,106.75,39,-104.00,-131.00,-964.00
2024-05-19 09:12:06.223327,-5,7,62,0,-1,0,76,79,142,140,82,107.28,39,-96.00,-132.00,-969.00
2024-05-19 09:12:06.415518,-5,6,68,0,-1,0,76,79,141,140,82,106.78,39,-110.00,-148.00,-1088.00
2024-05-19 09:12:06.427520,-6,6,74,0,-1,0,76,79,141,140,82,107.20,39,-110.00,-131.00,-967.00
2024-05-19 09:12:06.530000,-7,6,80,0,-1,0,76,79,141,140,82,106.86,39,-124.00,-88.00,-937.00
2024-05-19 09:12:06.722846,-7,5,86,0,-1,0,76,79,140,140,82,106.86,39,-154.00,-78.00,-1038.00
2024-05-19 09:12:06.733236,-7,4,93,0,-1,0,76,79,140,140,82,106.91,39,-150.00,-65.00,-1005.00
2024-05-19 09:12:06.933537,-8,4,99,0,-1,0,76,79,140,140,82,106.52,40,-176.00,8.00,-985.00
2024-05-19 09:12:06.937207,-8,2,105,0,-1,0,76,79,140,140,82,106.55,40,-168.00,32.00,-979.00
2024-05-19 09:12:07.132299,-8,-1,112,0,-1,0,76,79,140,140,82,106.65,40,-125.00,-36.00,-966.00
2024-05-19 09:12:07.141193,-8,-1,118,0,-1,0,76,79,139,140,82,106.63,40,-99.00,33.00,-985.00
2024-05-19 09:12:07.337092,-8,0,125,0,0,0,76,79,140,140,82,106.40,40,-100.00,48.00,-1029.00
2024-05-19 09:12:07.345207,-9,-2,131,-1,0,0,76,79,139,140,82,106.41,40,-51.00,65.00,-975.00
2024-05-19 09:12:07.447197,-7,-4,136,-2,0,0,76,79,139,140,82,106.74,40,-82.00,75.00,-981.00
2024-05-19 09:12:07.644241,-5,-5,142,-2,0,0,76,80,138,140,82,106.59,40,-114.00,78.00,-1015.00
2024-05-19 09:12:07.651207,-5,-6,147,-1,0,0,76,80,139,140,82,106.87,40,-138.00,123.00,-1018.00
2024-05-19 09:12:07.849083,-4,-7,153,-1,0,0,76,80,139,140,82,106.64,40,-134.00,110.00,-969.00
2024-05-19 09:12:07.855172,-5,-7,158,0,0,0,76,80,138,140,82,106.68,41,-114.00,119.00,-974.00
2024-05-19 09:12:08.053873,-4,-7,164,0,0,0,76,80,139,140,82,106.80,41,-114.00,122.00,-972.00
2024-05-19 09:12:08.059175,-4,-7,169,0,1,0,76,80,139,140,82,106.86,41,-89.00,115.00,-979.00
2024-05-19 09:12:08.258614,-3,-8,175,0,1,0,76,80,137,140,82,106.78,41,-82.00,135.00,-1000.00
2024-05-19 09:12:08.263165,-3,-8,-179,0,1,0,76,80,137,140,82,107.01,41,-70.00,143.00,-971.00
2024-05-19 09:12:08.463507,-2,-8,-173,0,1,0,76,80,137,140,82,107.18,41,-70.00,153.00,-1002.00
2024-05-19 09:12:08.467160,-2,-8,-167,0,1,0,76,80,137,140,82,107.19,41,-61.00,167.00,-978.00
2024-05-19 09:12:08.668152,-2,-8,-162,0,1,0,76,80,136,140,82,107.17,41,-53.00,160.00,-990.00
2024-05-19 09:12:08.671020,-1,-8,-156,0,1,0,76,80,135,140,82,107.10,41,-22.00,161.00,-1017.00
2024-05-19 09:12:08.773143,0,-8,-150,0,1,0,76,80,135,140,82,107.25,41,-37.00,166.00,-981.00
2024-05-19 09:12:08.875116,0,-8,-144,0,1,0,76,80,135,140,82,107.09,42,8.00,165.00,-997.00
2024-05-19 09:12:08.977113,0,-8,-138,0,1,0,76,80,135,140,82,107.16,42,4.00,180.00,-1005.00
2024-05-19 09:12:09.181257,0,-8,-133,0,1,0,76,80,135,140,82,107.51,42,35.00,180.00,-1006.00
2024-05-19 09:12:09.181334,1,-8,-127,0,1,0,76,80,136,140,82,107.36,42,46.00,171.00,-1022.00
2024-05-19 09:12:09.232162,1,-8,-121,0,1,0,76,80,136,140,82,107.32,42,55.00,146.00,-995.00
2024-05-19 09:12:09.385262,2,-8,-115,0,1,0,76,80,137,140,82,107.14,42,53.00,146.00,-984.00
2024-05-19 09:12:09.435975,3,-7,-109,0,1,0,76,80,139,140,82,107.09,42,58.00,125.00,-995.00
2024-05-19 09:12:09.589808,4,-7,-103,0,0,0,77,80,137,140,82,107.30,42,92.00,143.00,-1005.00
2024-05-19 09:12:09.694191,4,-6,-96,0,0,0,77,80,139,140,82,107.18,42,109.00,114.00,-1021.00
2024-05-19 09:12:09.794348,5,-6,-90,0,0,0,77,80,141,140,82,106.91,42,117.00,101.00,-981.00
2024-05-19 09:12:09.843932,6,-4,-84,0,0,0,77,80,142,140,82,106.75,43,150.00,67.00,-990.00
2024-05-19 09:12:09.999771,6,-3,-77,0,0,0,77,80,143,150,82,106.79,43,151.00,45.00,-936.00
2024-05-19 09:12:10.047945,7,-2,-71,0,0,0,77,80,144,150,82,106.62,43,186.00,12.00,-955.00
2024-05-19 09:12:10.204163,8,0,-64,0,0,0,77,80,144,150,82,106.29,43,176.00,39.00,-959.00
2024-05-19 09:12:10.251901,9,1,-58,0,0,0,77,80,145,150,82,106.27,43,150.00,13.00,-974.00
2024-05-19 09:12:10.409063,9,1,-52,0,0,0,77,80,145,150,82,106.11,43,166.00,18.00,-962.00
2024-05-19 09:12:10.455984,9,1,-45,0,0,0,77,80,146,150,82,106.81,43,144.00,-18.00,-971.00
2024-05-19 09:12:10.613867,8,2,-40,0,0,0,77,80,145,150,82,106.66,43,138.00,-22.00,-995.00
2024-05-19 09:12:10.660010,7,3,-34,0,0,0,77,80,145,150,82,106.92,43,112.00,-60.00,-1000.00
2024-05-19 09:12:10.818664,7,4,-28,0,0,0,77,80,146,150,82,107.08,43,111.00,-57.00,-1006.00
2024-05-19 09:12:10.864054,6,4,-22,0,0,0,77,80,144,150,82,106.87,44,114.00,-38.00,-987.00
2024-05-19 09:12:11.023465,5,5,-17,0,0,0,77,80,145,150,82,106.71,44,129.00,-81.00,-979.00
2024-05-19 09:12:11.067993,5,5,-13,0,0,0,77,80,143,150,82,106.67,44,121.00,-52.00,-989.00
2024-05-19 09:12:11.169988,6,5,-10,0,0,0,77,80,144,150,82,106.86,44,96.00,-73.00,-948.00
2024-05-19 09:12:11.330740,6,5,-10,0,0,0,77,80,144,150,82,107.13,44,107.00,-102.00,-975.00
2024-05-19 09:12:11.374607,7,5,-10,0,0,0,77,80,143,150,82,106.91,44,102.00,-82.00,-998.00
2024-05-19 09:12:11.535696,7,5,-10,0,0,0,77,80,144,150,82,106.95,44,116.00,-88.00,-996.00
2024-05-19 09:12:11.579090,7,5,-10,0,0,0,77,80,142,150,82,107.00,44,111.00,-102.00,-975.00
2024-05-19 09:12:11.740270,7,4,-10,0,0,0,77,80,143,140,82,106.91,44,103.00,-78.00,-984.00
2024-05-19 09:12:11.782990,7,4,-10,0,0,0,77,80,141,140,82,106.96,44,111.00,-80.00,-959.00
2024-05-19 09:12:11.885592,7,4,-10,0,0,0,77,80,141,140,82,107.10,45,102.00,-82.00,-966.00
2024-05-19 09:12:11.987150,7,4,-10,0,0,0,77,80,141,140,82,107.26,45,96.00,-92.00,-996.00
2024-05-19 09:12:12.089386,7,4,-10,0,0,0,77,80,140,140,82,107.11,45,122.00,-107.00,-978.00
2024-05-19 09:12:12.252405,6,4,-10,0,0,0,77,80,138,140,82,106.56,45,123.00,-104.00,-981.00
2024-05-19 09:12:12.293160,6,4,-10,0,0,0,77,80,139,140,82,107.13,45,106.00,-110.00,-1026.00
2024-05-19 09:12:12.457269,5,4,-10,0,0,0,77,80,138,140,82,106.96,45,141.00,-92.00,-1033.00
2024-05-19 09:12:12.497303,5,5,-10,0,0,0,77,80,138,140,82,107.19,45,149.00,-81.00,-984.00
2024-05-19 09:12:12.662115,7,4,-10,0,0,0,77,80,139,140,82,107.19,45,143.00,-118.00,-976.00
2024-05-19 09:12:12.701157,7,4,-10,0,0,0,77,80,138,140,82,106.92,45,142.00,-78.00,-1004.00
2024-05-19 09:12:12.868232,8,4,-10,0,0,0,77,80,139,140,82,106.91,45,110.00,-71.00,-957.00
2024-05-19 09:12:12.904949,8,4,-10,0,0,0,77,80,141,140,82,106.97,46,126.00,-103.00,-987.00
2024-05-19 09:12:13.071687,8,4,-10,0,0,0,77,80,140,140,82,106.97,46,123.00,-79.00,-965.00
2024-05-19 09:12:13.109200,8,4,-10,0,0,0,77,80,140,140,82,107.26,46,121.00,-99.00,-964.00
2024-05-19 09:12:13.210907,7,4,-10,0,0,0,77,80,141,140,82,106.66,46,163.00,-55.00,-969.00
2024-05-19 09:12:13.261928,8,4,-12,0,0,0,77,80,139,140,82,107.11,46,150.00,-75.00,-970.00
2024-05-19 09:12:13.378640,9,3,-18,0,0,0,77,80,140,140,82,107.04,46,178.00,-45.00,-1010.00
2024-05-19 09:12:13.465849,9,2,-24,0,0,0,77,80,140,140,82,106.52,46,190.00,-15.00,-974.00
2024-05-19 09:12:13.583417,10,1,-30,0,0,0,77,80,141,140,82,106.73,46,173.00,26.00,-959.00
2024-05-19 09:12:13.669829,11,-1,-36,1,0,0,77,80,141,140,82,106.58,46,133.00,23.00,-1007.00
2024-05-19 09:12:13.788227,10,-3,-43,0,0,0,77,80,141,140,82,106.95,46,153.00,47.00,-1014.00
2024-05-19 09:12:13.873809,9,-4,-49,0,0,0,77,80,139,140,82,106.60,47,141.00,35.00,-1000.00
2024-05-19 09:12:13.993026,8,-5,-54,0,0,0,77,80,139,140,82,106.63,47,124.00,67.00,-1011.00
2024-05-19 09:12:14.077807,7,-5,-60,0,0,0,77,80,140,140,82,106.92,47,122.00,65.00,-978.00
2024-05-19 09:12:14.179782,6,-6,-65,0,0,0,77,80,139,140,82,106.89,47,118.00,52.00,-939.00
2024-05-19 09:12:14.300303,6,-5,-69,0,0,0,77,80,139,140,82,106.99,47,127.00,67.00,-982.00
2024-05-19 09:12:14.384607,5,-4,-69,-1,0,0,77,80,138,140,82,106.74,47,99.00,55.00,-1013.00
2024-05-19 09:12:14.505193,5,-4,-69,-1,0,0,77,80,138,140,81,106.81,47,107.00,41.00,-981.00
2024-05-19 09:12:14.587974,5,-4,-69,-1,0,0,78,80,138,140,81,106.96,47,102.00,52.00,-985.00
2024-05-19 09:12:14.709987,5,-3,-69,-1,0,0,78,80,137,140,81,107.12,47,103.00,56.00,-1007.00
2024-05-19 09:12:14.791975,4,-2,-69,-1,0,0,78,80,136,140,81,107.28,47,98.00,58.00,-1007.00
2024-05-19 09:12:14.914726,4,-2,-69,-1,0,0,78,80,136,140,81,106.88,48,101.00,62.00,-1000.00
2024-05-19 09:12:14.996814,4,-2,-69,-1,0,0,78,80,135,140,81,107.11,48,112.00,52.00,-1017.00
2024-05-19 09:12:15.119501,4,-3,-69,-1,0,0,78,80,136,140,81,106.99,48,89.00,52.00,-997.00
2024-05-19 09:12:15.200905,4,-3,-68,-1,0,0,78,80,136,140,81,106.93,48,96.00,12.00,-1050.00
2024-05-19 09:12:15.325353,4,-2,-69,-1,0,0,78,80,136,140,81,106.90,48,118.00,35.00,-971.00
2024-05-19 09:12:15.404874,4,0,-69,-1,0,0,78,80,137,140,81,106.52,48,117.00,40.00,-993.00
2024-05-19 09:12:15.506865,5,0,-69,0,0,0,78,80,137,140,81,106.92,48,99.00,60.00,-970.00
2024-05-19 09:12:15.631633,5,0,-69,0,0,0,78,81,137,140,81,106.91,48,105.00,62.00,-982.00
2024-05-19 09:12:15.710866,5,-2,-69,0,0,0,78,81,137,140,81,107.27,48,100.00,49.00,-1036.00
2024-05-19 09:12:15.836337,6,-3,-69,0,0,0,78,81,137,140,81,107.27,48,88.00,51.00,-1000.00
2024-05-19 09:12:15.914793,6,-3,-69,0,0,0,78,81,137,140,81,106.92,49,75.00,1.00,-1025.00
2024-05-19 09:12:16.041074,5,-2,-69,0,0,0,78,81,137,140,81,106.91,49,80.00,12.00,-989.00
2024-05-19 09:12:16.118869,5,-1,-69,-1,0,0,78,81,136,140,81,107.11,49,109.00,-8.00,-979.00
2024-05-19 09:12:16.220845,5,0,-69,0,0,0,78,81,136,140,81,106.70,49,106.00,-1.00,-997.00
2024-05-19 09:12:16.348352,4,0,-69,0,0,0,78,81,137,140,81,106.69,49,97.00,0.00,-1002.00
2024-05-19 09:12:16.425840,4,0,-69,0,0,0,78,81,137,140,81,106.55,49,98.00,24.00,-987.00
2024-05-19 09:12:16.526817,4,0,-69,0,0,0,78,81,137,140,81,106.76,49,89.00,47.00,-983.00
2024-05-19 09:12:16.655515,5,0,-69,0,0,0,77,80,137,140,81,107.07,49,97.00,6.00,-974.00
2024-05-19 09:12:16.730812,5,-1,-69,0,0,0,77,80,137,140,81,106.87,49,91.00,57.00,-969.00
2024-05-19 09:12:16.860362,6,-2,-69,0,0,0,77,80,137,140,81,106.89,49,137.00,49.00,-956.00
2024-05-19 09:12:16.883754,6,-2,-69,0,0,0,77,80,138,140,81,107.01,50,117.00,22.00,-1026.00
2024-05-19 09:12:17.065216,6,-2,-69,0,0,0,77,80,138,140,81,107.17,50,114.00,31.00,-996.00
2024-05-19 09:12:17.087716,6,-2,-69,0,0,0,77,80,138,140,81,107.01,50,100.00,50.00,-993.00
2024-05-19 09:12:17.269901,6,-3,-69,0,0,0,77,80,137,140,81,107.21,50,86.00,30.00,-980.00
2024-05-19 09:12:17.291690,5,-3,-68,0,0,0,77,80,137,140,81,106.86,50,107.00,-2.00,-1021.00
2024-05-19 09:12:17.475160,5,-2,-68,-1,0,0,77,80,138,140,81,107.27,50,78.00,-15.00,-1000.00
2024-05-19 09:12:17.495450,3,0,-68,-1,0,0,77,80,136,140,81,106.95,50,39.00,-51.00,-996.00
2024-05-19 09:12:17.679524,3,2,-68,-2,0,0,77,81,135,140,81,107.10,50,34.00,-56.00,-1006.00
2024-05-19 09:12:17.699527,2,2,-68,-2,0,0,77,81,135,140,81,107.13,50,39.00,-82.00,-1017.00
2024-05-19 09:12:17.884211,1,3,-69,-2,0,0,77,81,134,140,81,106.92,50,44.00,-41.00,-1042.00
2024-05-19 09:12:17.903532,1,4,-69,-2,0,0,77,81,135,140,81,106.97,51,48.00,-43.00,-1016.00
2024-05-19 09:12:18.005648,1,4,-69,-1,0,0,77,81,135,140,81,106.95,51,23.00,-14.00,-992.00
2024-05-19 09:12:18.191476,1,4,-69,-1,0,0,77,81,136,140,81,106.86,51,75.00,-52.00,-1015.00
2024-05-19 09:12:18.209481,0,3,-69,-1,0,0,77,81,136,140,81,107.22,51,49.00,-32.00,-1008.00
2024-05-19 09:12:18.396300,1,3,-69,0,0,0,77,81,137,140,81,106.88,51,56.00,-21.00,-1005.00
2024-05-19 09:12:18.413758,1,2,-69,0,0,0,77,81,137,140,81,106.87,51,35.00,-20.00,-978.00
2024-05-19 09:12:18.515536,2,2,-69,0,0,0,77,81,138,140,81,107.25,51,43.00,-21.00,-984.00
2024-05-19 09:12:18.703371,2,1,-69,0,0,0,78,81,139,140,81,106.82,51,22.00,-10.00,-966.00
2024-05-19 09:12:18.719613,3,1,-69,0,0,0,78,81,139,140,81,106.94,51,58.00,-5.00,-982.00
2024-05-19 09:12:18.909715,3,0,-69,0,0,0,78,81,140,140,81,107.14,52,75.00,-1.00,-987.00
2024-05-19 09:12:18.923650,3,0,-69,0,0,0,78,81,141,140,81,107.25,52,92.00,-25.00,-990.00
2024-05-19 09:12:19.113098,3,0,-69,0,0,0,78,81,140,140,81,106.90,52,81.00,-23.00,-991.00
2024-05-19 09:12:19.127453,4,0,-69,0,0,0,78,81,139,140,81,107.22,52,74.00,-19.00,-1011.00
2024-05-19 09:12:19.229573,4,0,-69,0,0,0,78,81,139,140,81,107.06,52,60.00,-22.00,-974.00
2024-05-19 09:12:19.420182,2,2,-69,0,0,-1,78,81,140,150,81,107.15,52,75.00,3.00,-1647.00
2024-05-19 09:12:19.433456,0,5,-69,2,0,-9,78,81,143,150,81,107.33,52,88.00,-48.00,-1815.00
2024-05-19 09:12:19.625003,0,66,-68,6,0,-13,78,81,179,160,81,107.51,52,76.00,337.00,-1544.00
2024-05-19 09:12:19.637351,0,-169,-69,13,3,-1,78,81,538,170,81,107.22,52,58.00,781.00,-1038.00
2024-05-19 09:12:19.829804,0,-49,-68,9,0,10,78,81,393,170,81,107.52,52,57.00,763.00,-1245.00
2024-05-19 09:12:19.841353,-1,8,-67,7,0,9,78,81,155,160,81,107.47,53,48.00,200.00,-956.00
2024-05-19 09:12:20.034592,1,-2,-64,9,0,5,78,81,146,150,81,107.33,53,43.00,-20.00,-1447.00
2024-05-19 09:12:20.045447,3,-7,-65,7,0,2,78,81,142,140,81,107.26,53,16.00,-77.00,-1244.00
2024-05-19 09:12:20.239644,3,-4,-68,5,-1,1,78,81,138,140,81,107.05,53,8.00,-43.00,-1111.00
2024-05-19 09:12:20.249651,2,-2,-69,4,-1,0,78,81,137,140,81,107.30,53,-7.00,-69.00,-1083.00
2024-05-19 09:12:20.444107,1,0,-69,3,0,0,78,81,136,140,81,107.30,53,28.00,-42.00,-1052.00
2024-05-19 09:12:20.454321,1,0,-69,2,0,0,78,81,136,140,81,107.34,53,12.00,-41.00,-1030.00
2024-05-19 09:12:20.649385,1,0,-69,2,0,0,78,81,136,140,81,107.19,53,35.00,-51.00,-983.00
2024-05-19 09:12:20.657414,1,0,-69,2,0,0,78,81,138,140,81,106.83,53,25.00,-42.00,-998.00
2024-05-19 09:12:20.856205,2,0,-69,2,0,0,78,81,139,140,81,107.35,53,39.00,-56.00,-974.00
2024-05-19 09:12:20.861443,2,0,-69,2,-1,0,78,81,139,140,81,107.25,54,31.00,-45.00,-950.00
2024-05-19 09:12:21.058561,3,0,-69,2,0,0,78,81,140,140,81,107.11,54,7.00,-42.00,-973.00
2024-05-19 09:12:21.065430,3,-3,-69,1,0,0,78,81,141,140,81,107.23,54,3.00,-36.00,-1015.00
2024-05-19 09:12:21.263613,3,-2,-69,0,0,0,78,81,141,140,81,107.13,54,52.00,-59.00,-1022.00
2024-05-19 09:12:21.263768,2,-1,-69,0,0,0,78,81,142,140,81,107.40,54,46.00,-30.00,-989.00
2024-05-19 09:12:21.321599,2,-1,-69,0,0,0,78,81,142,140,81,107.58,54,28.00,-27.00,-1000.00
2024-05-19 09:12:21.468670,2,-1,-68,0,0,0,78,81,142,140,81,107.51,54,14.00,-41.00,-994.00
2024-05-19 09:12:21.525826,2,-1,-68,0,0,0,78,81,143,140,80,107.33,54,38.00,-47.00,-1006.00
2024-05-19 09:12:21.673100,2,-1,-68,0,0,0,79,81,143,140,80,107.39,54,45.00,-52.00,-1008.00
2024-05-19 09:12:21.730559,2,0,-69,0,0,0,79,81,143,140,80,106.96,54,49.00,-32.00,-984.00
2024-05-19 09:12:21.877811,2,0,-69,0,0,0,79,81,143,140,80,107.09,55,53.00,-40.00,-1026.00
2024-05-19 09:12:21.935318,2,0,-69,0,0,0,79,81,143,140,80,107.38,55,27.00,-2.00,-974.00
2024-05-19 09:12:22.035819,2,0,-69,0,0,0,79,81,144,140,80,107.47,55,47.00,-23.00,-988.00
2024-05-19 09:12:22.138130,2,-1,-69,0,0,0,79,81,144,140,80,107.61,55,34.00,-19.00,-979.00
2024-05-19 09:12:22.240632,2,-1,-69,0,0,0,79,81,144,150,80,107.30,55,25.00,7.00,-965.00
2024-05-19 09:12:22.341599,2,-1,-69,0,0,0,79,81,144,140,80,107.17,55,56.00,-17.00,-1011.00
2024-05-19 09:12:22.492408,2,-1,-69,0,0,0,79,81,144,140,80,106.99,55,34.00,2.00,-1018.00
2024-05-19 09:12:22.545645,2,-1,-69,0,0,0,79,81,144,140,80,107.13,55,60.00,-12.00,-998.00
2024-05-19 09:12:22.697091,2,-1,-69,0,0,0,78,81,144,150,80,107.33,55,59.00,-2.00,-993.00
2024-05-19 09:12:22.750820,2,-1,-69,-1,0,0,78,81,144,140,80,107.35,55,44.00,-13.00,-1008.00
2024-05-19 09:12:22.851290,2,0,-69,-1,0,0,78,81,144,140,80,107.29,56,19.00,-37.00,-994.00
2024-05-19 09:12:23.004109,1,0,-69,-1,0,0,78,81,144,140,80,107.21,56,51.00,19.00,-1182.00
2024-05-19 09:12:23.055359,-1,0,-69,-1,0,-4,78,81,148,150,80,107.74,56,111.00,-9.00,-1748.00
2024-05-19 09:12:23.157599,-17,0,-69,0,-2,-12,78,81,171,150,80,107.57,56,66.00,26.00,-1963.00
2024-05-19 09:12:23.259351,-63,178,113,2,-10,-11,78,81,577,170,80,107.29,56,655.00,18.00,-1243.00
2024-05-19 09:12:23.362310,56,-172,118,4,-13,3,78,81,609,170,80,107.56,56,691.00,13.00,-814.00
2024-05-19 09:12:23.463331,13,-1,-72,1,-7,11,78,81,163,170,80,107.40,56,663.00,24.00,-1270.00
2024-05-19 09:12:23.565356,-17,-2,-71,2,-10,8,78,81,158,160,79,107.52,56,111.00,-36.00,-1218.00
2024-05-19 09:12:23.720913,2,0,-71,2,-13,4,79,82,143,150,79,107.19,56,-8.00,-18.00,-1379.00
2024-05-19 09:12:23.769308,8,1,-69,2,-12,2,79,82,140,140,79,107.07,56,7.00,4.00,-1232.00
2024-05-19 09:12:23.926714,8,1,-69,1,-10,0,79,82,138,140,79,107.19,57,9.00,-29.00,-1122.00
2024-05-19 09:12:23.973220,8,2,-69,1,-9,0,79,82,138,140,79,107.48,57,-4.00,-17.00,-1100.00
2024-05-19 09:12:24.130487,8,2,-69,1,-7,0,79,82,137,140,79,107.52,57,22.00,-23.00,-1050.00
2024-05-19 09:12:24.177242,8,2,-69,1,-5,0,79,82,138,140,79,107.54,57,50.00,-34.00,-1034.00
2024-05-19 09:12:24.335390,6,1,-69,1,-3,0,79,82,136,140,79,107.22,57,43.00,-30.00,-1004.00
2024-05-19 09:12:24.335438,4,0,-69,1,-2,0,79,82,135,140,79,107.39,57,78.00,1.00,-1009.00
2024-05-19 09:12:24.433096,3,0,-69,1,-2,0,79,82,135,140,79,107.23,57,62.00,-42.00,-1009.00
2024-05-19 09:12:24.535796,3,0,-69,1,-2,0,79,82,135,140,79,107.16,57,67.00,-51.00,-1000.00
2024-05-19 09:12:24.688754,3,0,-69,1,-2,0,80,82,135,140,79,107.42,57,49.00,-38.00,-1004.00
2024-05-19 09:12:24.789571,4,0,-69,0,-2,0,80,82,135,140,79,107.35,57,32.00,-39.00,-991.00
2024-05-19 09:12:24.840151,3,0,-69,0,-2,0,80,82,135,140,79,107.04,58,19.00,-14.00,-987.00
2024-05-19 09:12:24.949700,3,1,-69,0,-1,0,80,82,135,140,79,107.38,58,32.00,-29.00,-997.00
2024-05-19 09:12:25.044068,3,1,-69,0,-1,0,80,82,136,140,79,107.28,58,52.00,-36.00,-1013.00
2024-05-19 09:12:25.154403,6,1,-69,0,-1,0,80,82,136,140,79,107.12,58,58.00,-32.00,-1006.00
2024-05-19 09:12:25.248647,5,0,-69,0,-1,0,80,82,136,140,79,107.05,58,68.00,14.00,-1021.00
2024-05-19 09:12:25.359184,5,0,-69,0,0,0,80,82,137,140,79,106.92,58,88.00,15.00,-1009.00
2024-05-19 09:12:25.452425,5,0,-69,0,0,0,80,82,138,140,78,107.09,58,70.00,-4.00,-1002.00
2024-05-19 09:12:25.564003,5,0,-69,0,0,0,80,82,138,140,78,107.35,58,48.00,28.00,-989.00
2024-05-19 09:12:25.656277,4,-1,-69,0,0,0,79,82,139,140,78,107.11,58,69.00,6.00,-1009.00
2024-05-19 09:12:25.768814,3,-2,-69,0,0,0,79,82,139,140,78,107.36,58,72.00,-22.00,-986.00
2024-05-19 09:12:25.860090,3,-2,-69,0,0,0,79,82,139,140,78,107.05,59,50.00,7.00,-1007.00
2024-05-19 09:12:25.973595,3,-1,-69,0,0,0,79,82,138,140,78,107.23,59,26.00,4.00,-997.00
2024-05-19 09:12:26.064076,2,-1,-69,0,0,0,79,82,139,140,78,107.64,59,31.00,10.00,-992.00
2024-05-19 09:12:26.178313,1,-1,-69,0,0,0,79,82,138,140,78,107.59,59,27.00,-7.00,-1012.00
2024-05-19 09:12:26.268154,0,-2,-69,0,0,0,79,82,137,140,78,107.42,59,21.00,5.00,-974.00
2024-05-19 09:12:26.383168,0,-1,-68,0,0,0,79,82,137,140,78,107.58,59,27.00,-17.00,-989.00
2024-05-19 09:12:26.472144,0,0,-68,0,0,0,79,82,136,140,78,107.32,59,37.00,3.00,-973.00
2024-05-19 09:12:26.588118,0,0,-68,-1,0,0,79,82,136,140,78,107.37,59,27.00,-10.00,-1002.00
2024-05-19 09:12:26.676097,0,0,-69,-1,0,0,80,82,135,140,78,107.05,59,31.00,-18.00,-1019.00
2024-05-19 09:12:26.793315,1,0,-69,-1,0,0,80,82,135,140,78,107.16,59,32.00,-19.00,-984.00
2024-05-19 09:12:26.880096,0,1,-69,-1,0,0,80,82,134,140,78,107.22,60,37.00,9.00,-1059.00
2024-05-19 09:12:26.997675,0,1,-69,0,0,0,80,82,134,140,78,107.27,60,46.00,29.00,-994.00
2024-05-19 09:12:27.084048,1,0,-69,0,0,0,80,82,134,130,78,107.33,60,65.00,18.00,-1018.00
2024-05-19 09:12:27.202449,1,0,-69,0,0,0,80,82,135,130,78,107.22,60,54.00,10.00,-1030.00
2024-05-19 09:12:27.288074,1,0,-69,0,0,0,80,82,136,140,78,107.33,60,50.00,28.00,-971.00
2024-05-19 09:12:27.407332,1,-1,-69,0,0,0,80,82,136,140,78,107.51,60,70.00,12.00,-1014.00
2024-05-19 09:12:27.492092,2,-1,-69,0,0,0,80,82,136,140,78,107.39,60,37.00,18.00,-986.00
2024-05-19 09:12:27.594149,2,0,-69,0,0,0,80,82,136,140,78,107.27,60,65.00,5.00,-1003.00
2024-05-19 09:12:27.714491,2,0,-68,0,0,0,80,82,136,140,78,107.11,60,35.00,13.00,-983.00
2024-05-19 09:12:27.798118,2,0,-69,0,0,0,80,82,136,140,78,107.29,60,40.00,-20.00,-984.00
2024-05-19 09:12:27.919500,2,0,-69,0,0,0,80,82,136,140,78,107.68,61,52.00,-45.00,-985.00
2024-05-19 09:12:28.002012,2,0,-69,0,0,0,80,82,136,140,78,107.37,61,52.00,-17.00,-1009.00
2024-05-19 09:12:28.124068,2,1,-69,0,0,0,80,82,136,140,78,107.28,61,58.00,-25.00,-956.00
2024-05-19 09:12:28.206022,3,1,-69,0,0,0,80,82,135,140,78,107.38,61,48.00,-21.00,-998.00
2024-05-19 09:12:28.329203,2,0,-69,0,0,0,80,82,136,140,78,107.32,61,48.00,-9.00,-989.00
2024-05-19 09:12:28.359069,2,1,-69,0,0,0,80,82,135,140,78,106.96,61,60.00,-5.00,-1022.00
2024-05-19 09:12:28.533780,2,1,-69,0,0,0,80,82,135,140,78,107.37,61,53.00,15.00,-1027.00
2024-05-19 09:12:28.565177,2,1,-69,0,0,0,80,82,135,130,78,106.99,61,58.00,19.00,-970.00
2024-05-19 09:12:28.665717,3,0,-69,0,0,0,79,82,135,130,78,107.34,61,66.00,36.00,-977.00
2024-05-19 09:12:28.767849,3,-1,-69,0,0,0,79,82,135,130,78,107.08,61,53.00,37.00,-1013.00
2024-05-19 09:12:28.868917,3,-2,-69,0,0,0,79,82,134,130,78,107.17,62,77.00,-1.00,-994.00
2024-05-19 09:12:29.045720,4,-2,-69,0,0,0,79,82,135,130,78,107.32,62,46.00,23.00,-999.00
2024-05-19 09:12:29.072910,4,-1,-69,0,0,0,79,82,135,130,78,107.26,62,65.00,20.00,-1037.00
2024-05-19 09:12:29.250574,4,0,-69,0,0,0,79,82,135,130,78,106.96,62,69.00,-24.00,-968.00
2024-05-19 09:12:29.276946,4,0,-69,0,0,0,79,82,135,130,78,107.12,62,66.00,2.00,-963.00
2024-05-19 09:12:29.425565,4,0,-69,0,0,0,79,82,136,140,78,107.28,62,41.00,38.00,-1000.00
2024-05-19 09:12:29.480804,4,0,-69,0,0,0,79,82,136,140,78,107.36,62,37.00,10.00,-986.00
2024-05-19 09:12:29.659895,4,0,-69,0,0,0,79,82,136,140,78,107.08,62,69.00,41.00,-1640.00
2024-05-19 09:12:29.684852,4,0,-68,0,0,-5,79,83,146,140,78,106.91,62,131.00,-16.00,-1567.00
2024-05-19 09:12:29.864738,23,0,-66,0,1,-12,79,83,397,150,78,107.17,62,378.00,-36.00,-1059.00
2024-05-19 09:12:29.888816,60,174,108,-3,8,-9,79,83,462,160,78,107.20,63,513.00,-8.00,-1030.00
2024-05-19 09:12:30.069543,-70,170,118,-4,8,6,79,83,210,160,78,107.45,63,353.00,39.00,-1604.00
2024-05-19 09:12:30.093103,-1,0,-76,-1,1,9,79,83,156,150,78,107.17,63,-102.00,-84.00,-1706.00
2024-05-19 09:12:30.274370,14,-4,-81,-3,5,7,79,83,139,140,78,106.79,63,127.00,-7.00,-1475.00
2024-05-19 09:12:30.296909,-4,1,-84,-4,6,3,79,83,136,140,78,107.25,63,110.00,22.00,-1211.00
2024-05-19 09:12:30.479170,-7,4,-84,-3,4,1,79,83,133,130,78,107.38,63,103.00,31.00,-1076.00
2024-05-19 09:12:30.500793,-5,3,-76,-2,2,0,79,83,132,130,78,107.14,63,6.00,36.00,-1077.00
2024-05-19 09:12:30.602747,-2,1,-69,-1,1,0,79,83,132,130,78,107.18,63,52.00,15.00,-1047.00
2024-05-19 09:12:30.786870,0,0,-69,0,0,0,80,83,131,130,78,107.22,63,61.00,-7.00,-1005.00
2024-05-19 09:12:30.806785,1,0,-69,0,0,0,80,83,132,130,78,107.30,63,50.00,18.00,-968.00
2024-05-19 09:12:30.991470,2,0,-69,0,0,0,80,83,132,130,78,106.99,64,46.00,27.00,-982.00
2024-05-19 09:12:31.010727,2,0,-69,0,0,0,80,83,132,130,78,107.34,64,48.00,-17.00,-991.00
