TS,pitch,roll,yaw,vgx,vgy,vgz,templ,temph,tof,h,bat,baro,time,agx,agy,agz
2024-05-19 09:13:08.776587,0,0,0,0,0,0,83,84,10,0,77,105.98,73,8.00,9.00,-999.00
2024-05-19 09:13:08.801792,0,0,0,0,0,0,83,84,10,0,77,105.91,73,7.00,9.00,-1000.00
2024-05-19 09:13:08.981455,0,0,0,0,0,0,83,85,10,0,77,105.87,73,10.00,9.00,-999.00
2024-05-19 09:13:09.005816,0,0,0,0,0,0,83,85,10,0,77,105.95,73,10.00,9.00,-1001.00
2024-05-19 09:13:09.186074,0,0,0,0,0,0,83,85,10,0,77,105.84,73,9.00,8.00,-1000.00
2024-05-19 09:13:09.209692,0,0,0,0,0,0,83,85,10,0,77,105.73,73,10.00,8.00,-1001.00
2024-05-19 09:13:09.391232,0,0,0,0,0,0,83,85,10,0,77,105.53,73,9.00,9.00,-999.00
2024-05-19 09:13:09.413808,0,0,0,0,0,0,83,85,10,0,77,105.74,73,8.00,6.00,-1000.00
2024-05-19 09:13:09.595796,0,0,0,0,0,0,83,85,10,0,77,105.87,73,9.00,9.00,-1005.00
2024-05-19 09:13:09.617641,0,0,0,0,0,0,83,85,10,0,77,105.71,73,8.00,8.00,-1000.00
2024-05-19 09:13:09.668727,0,0,0,0,0,0,83,85,10,0,77,105.48,73,8.00,8.00,-1000.00
2024-05-19 09:13:09.800550,0,0,0,0,0,0,83,85,10,0,77,105.85,73,8.00,8.00,-998.00
2024-05-19 09:13:09.872703,0,0,0,0,0,0,82,85,10,0,77,105.46,73,8.00,7.00,-999.00
2024-05-19 09:13:10.005268,0,0,0,0,0,0,82,85,10,0,77,105.98,73,8.00,10.00,-1000.00
2024-05-19 09:13:10.076676,0,0,0,0,0,0,82,85,10,0,77,105.73,73,9.00,8.00,-1001.00
2024-05-19 09:13:10.209842,0,0,0,0,0,0,82,85,10,0,77,105.73,73,7.00,9.00,-1001.00
2024-05-19 09:13:10.280683,0,0,0,0,0,0,82,85,10,0,77,105.67,73,8.00,9.00,-998.00
2024-05-19 09:13:10.414965,0,0,0,0,0,0,82,85,10,0,77,105.62,73,7.00,7.00,-1000.00
2024-05-19 09:13:10.484830,0,0,0,0,0,0,82,85,10,0,77,105.72,73,9.00,8.00,-1000.00
2024-05-19 09:13:10.586731,0,0,0,0,0,0,82,85,10,0,77,105.30,73,8.00,9.00,-1000.00
2024-05-19 09:13:10.722089,0,0,0,0,0,0,82,85,10,0,77,105.76,73,10.00,8.00,-999.00
2024-05-19 09:13:10.790756,0,0,0,0,0,0,82,85,10,0,77,105.75,73,8.00,8.00,-1000.00
2024-05-19 09:13:10.926996,0,0,0,0,0,0,83,85,10,0,77,105.73,73,8.00,8.00,-998.00
2024-05-19 09:13:10.994688,0,0,0,0,0,0,83,85,10,0,77,105.88,73,8.00,8.00,-999.00
2024-05-19 09:13:11.131735,0,0,0,0,0,0,83,85,10,0,77,105.74,73,8.00,8.00,-997.00
2024-05-19 09:13:11.198723,0,0,0,0,0,0,83,85,10,0,77,105.70,73,9.00,8.00,-1000.00
2024-05-19 09:13:11.336561,0,0,0,0,0,0,83,85,10,0,77,105.83,73,10.00,9.00,-999.00
2024-05-19 09:13:11.402640,0,0,0,0,0,0,83,85,10,0,77,105.76,73,7.00,9.00,-1001.00
2024-05-19 09:13:11.504625,0,0,0,0,0,0,83,85,10,0,77,105.68,73,8.00,8.00,-1000.00
2024-05-19 09:13:11.606586,0,0,0,0,0,0,83,85,10,0,77,105.50,73,8.00,8.00,-1000.00
2024-05-19 09:13:11.716611,0,0,0,0,0,0,83,85,10,0,77,105.54,73,9.00,7.00,-1001.00
2024-05-19 09:13:11.810658,0,0,0,0,0,0,83,85,10,0,77,105.64,73,8.00,8.00,-1003.00
2024-05-19 09:13:11.950941,0,0,0,0,0,0,82,85,10,0,77,105.72,73,7.00,7.00,-999.00
2024-05-19 09:13:12.014581,0,0,0,0,0,0,82,85,10,0,77,105.44,73,9.00,9.00,-1003.00
2024-05-19 09:13:12.155540,0,0,0,0,0,0,82,85,10,0,77,105.67,73,9.00,9.00,-1001.00
2024-05-19 09:13:12.218654,0,0,0,0,0,0,82,85,10,0,77,105.52,73,7.00,15.00,-990.00
2024-05-19 09:13:12.360468,0,0,0,0,0,0,82,85,10,0,77,105.52,73,0.00,29.00,-999.00
2024-05-19 09:13:12.422532,0,0,0,0,0,0,82,85,10,0,77,105.52,73,20.00,26.00,-999.00
2024-05-19 09:13:12.565140,0,0,0,0,0,0,82,85,10,0,77,105.52,74,-17.00,2.00,-987.00
2024-05-19 09:13:12.626546,0,0,-1,0,0,0,82,85,10,0,77,105.52,74,-26.00,49.00,-1105.00
2024-05-19 09:13:12.770028,0,0,-1,0,0,0,82,85,10,0,77,105.52,74,-24.00,26.00,-1192.00
2024-05-19 09:13:12.830525,0,0,-1,0,0,-2,82,85,10,0,77,105.52,74,12.00,-10.00,-1142.00
2024-05-19 09:13:12.974789,0,-1,-1,0,0,-6,83,86,18,0,77,105.75,74,-13.00,-12.00,-1088.00
2024-05-19 09:13:13.034672,0,0,-1,0,0,-8,83,86,28,10,77,106.14,74,-25.00,-10.00,-987.00
2024-05-19 09:13:13.179640,-1,0,-1,0,0,-8,83,86,37,20,77,105.91,74,-21.00,3.00,-978.00
2024-05-19 09:13:13.187372,-1,0,-1,0,0,-8,83,86,42,30,77,106.08,74,14.00,-23.00,-934.00
2024-05-19 09:13:13.384428,-1,0,-1,0,0,-8,83,86,50,40,77,106.47,74,-16.00,-5.00,-866.00
2024-05-19 09:13:13.391441,0,1,-1,0,0,-7,83,86,57,40,77,106.29,74,11.00,-12.00,-859.00
2024-05-19 09:13:13.589197,0,1,-1,0,0,-6,83,86,63,50,77,106.77,75,2.00,-20.00,-862.00
2024-05-19 09:13:13.595440,0,1,-1,0,0,-4,83,86,67,60,77,106.37,75,-31.00,-24.00,-852.00
2024-05-19 09:13:13.794362,0,0,-1,0,0,-3,83,86,70,60,77,106.26,75,-3.00,-1.00,-913.00
2024-05-19 09:13:13.799386,0,1,-1,0,0,-2,83,86,71,60,77,106.37,75,-9.00,-19.00,-935.00
2024-05-19 09:13:13.999098,0,1,-1,0,0,0,83,87,72,70,77,106.81,75,0.00,-11.00,-992.00
2024-05-19 09:13:14.003374,0,1,-1,0,0,0,83,87,70,70,77,106.54,75,-19.00,-25.00,-947.00
2024-05-19 09:13:14.203619,0,1,-1,0,0,0,83,87,70,70,77,106.74,75,14.00,2.00,-1024.00
2024-05-19 09:13:14.208729,0,1,-1,0,0,0,83,87,70,60,77,106.65,75,-14.00,-1.00,-1018.00
2024-05-19 09:13:14.309405,0,0,-1,0,0,0,83,87,71,60,77,106.58,75,5.00,-34.00,-1007.00
2024-05-19 09:13:14.411528,0,1,-1,0,0,0,83,87,72,60,77,106.55,76,-2.00,-18.00,-1008.00
2024-05-19 09:13:14.513578,0,1,-1,0,0,0,83,87,72,70,77,106.87,76,-19.00,-15.00,-986.00
2024-05-19 09:13:14.615398,0,1,-1,0,0,0,83,87,73,70,77,106.87,76,0.00,-23.00,-1022.00
2024-05-19 09:13:14.717436,0,1,-1,0,0,0,83,87,74,70,77,106.73,76,-4.00,-31.00,-1007.00
2024-05-19 09:13:14.920506,0,1,-1,0,0,0,83,87,75,70,77,106.60,76,-17.00,-15.00,-1000.00
2024-05-19 09:13:14.922418,0,1,-1,0,0,0,85,86,76,70,77,106.69,76,3.00,-17.00,-986.00
2024-05-19 09:13:15.024421,0,1,-1,0,0,0,85,86,77,70,77,106.75,76,1.00,-41.00,-1007.00
2024-05-19 09:13:15.227750,0,1,-1,0,0,0,85,86,78,70,77,106.80,76,-19.00,-18.00,-984.00
2024-05-19 09:13:15.228303,0,1,-1,0,0,0,85,86,80,70,77,106.78,76,4.00,-21.00,-972.00
2024-05-19 09:13:15.432470,0,1,-1,0,0,0,85,86,80,70,77,106.66,76,9.00,-30.00,-1022.00
2024-05-19 09:13:15.432539,0,1,-1,0,0,0,85,86,81,70,77,106.67,77,0.00,-24.00,-992.00
2024-05-19 09:13:15.534989,0,1,-1,0,0,0,85,86,82,70,77,106.55,77,-12.00,3.00,-967.00
2024-05-19 09:13:15.637074,0,1,-1,0,0,0,85,86,83,70,77,106.75,77,32.00,-28.00,-1010.00
2024-05-19 09:13:15.739431,0,1,-1,0,0,0,85,86,83,70,77,106.74,77,18.00,-28.00,-973.00
2024-05-19 09:13:15.841972,0,1,-1,0,0,0,85,86,83,70,77,106.68,77,19.00,-13.00,-1007.00
2024-05-19 09:13:15.942344,0,1,-1,0,0,0,85,86,84,80,77,106.57,77,-7.00,-31.00,-984.00
2024-05-19 09:13:16.044314,0,1,-1,0,0,0,85,86,84,80,77,106.89,77,15.00,-45.00,-1007.00
2024-05-19 09:13:16.149395,0,1,-1,0,0,0,85,86,85,80,77,106.70,77,-3.00,-8.00,-984.00
2024-05-19 09:13:16.248304,1,1,-1,0,0,0,85,86,85,80,77,106.46,77,11.00,-10.00,-975.00
2024-05-19 09:13:16.353951,0,0,-1,0,0,0,85,86,85,80,77,106.76,77,34.00,-20.00,-1016.00
2024-05-19 09:13:16.452320,0,0,-1,0,0,0,85,86,85,80,77,106.70,78,9.00,2.00,-978.00
2024-05-19 09:13:16.558774,0,0,-1,0,0,0,85,86,85,80,77,106.66,78,36.00,-5.00,-1035.00
2024-05-19 09:13:16.656291,1,0,-1,0,0,0,85,86,85,80,77,106.62,78,2.00,-1.00,-980.00
2024-05-19 09:13:16.707172,1,0,-1,0,0,0,85,86,85,80,77,106.80,78,9.00,-8.00,-994.00
2024-05-19 09:13:16.866386,1,0,-1,0,0,0,85,86,85,80,77,106.63,78,11.00,-2.00,-982.00
2024-05-19 09:13:16.962276,0,0,-1,0,0,0,84,86,85,80,77,107.03,78,20.00,-9.00,-986.00
2024-05-19 09:13:17.070759,1,1,-1,0,0,0,84,86,85,80,77,106.87,78,24.00,0.00,-1039.00
2024-05-19 09:13:17.166193,0,1,-1,0,0,0,84,86,84,80,77,106.63,78,-4.00,-9.00,-1003.00
2024-05-19 09:13:17.217272,0,1,-1,0,0,0,84,86,84,80,77,106.69,78,-6.00,-5.00,-959.00
2024-05-19 09:13:17.378130,0,1,-1,0,0,0,84,86,83,80,77,106.52,78,-14.00,-22.00,-987.00
2024-05-19 09:13:17.421156,0,1,-1,0,0,0,84,86,84,80,77,106.63,79,22.00,-12.00,-999.00
2024-05-19 09:13:17.523449,1,1,-1,0,0,0,84,86,83,80,77,106.71,79,10.00,-20.00,-1027.00
2024-05-19 09:13:17.625323,0,1,-1,0,0,0,84,86,83,70,77,106.52,79,25.00,-16.00,-992.00
2024-05-19 09:13:17.787577,0,0,-1,0,0,0,84,86,83,70,77,106.56,79,18.00,-10.00,-998.00
2024-05-19 09:13:17.829202,0,0,-1,0,0,0,84,86,83,70,77,106.78,79,42.00,-6.00,-982.00
2024-05-19 09:13:17.931222,1,0,-1,0,0,0,84,87,83,70,77,106.60,79,33.00,-14.00,-1011.00
2024-05-19 09:13:18.036490,1,0,-1,0,0,0,84,87,83,70,77,106.57,79,19.00,-51.00,-1001.00
2024-05-19 09:13:18.135195,0,1,0,0,0,0,84,87,83,70,77,106.46,79,16.00,-9.00,-980.00
2024-05-19 09:13:18.299560,1,1,0,0,0,0,84,87,82,70,77,106.54,79,4.00,-10.00,-1007.00
2024-05-19 09:13:18.339029,0,1,-1,0,0,0,84,87,82,70,77,106.57,79,3.00,-24.00,-1035.00
2024-05-19 09:13:18.504398,0,0,-1,0,0,0,84,87,82,70,77,106.96,80,-1.00,-19.00,-972.00
2024-05-19 09:13:18.543541,0,0,-1,0,0,0,84,87,82,70,77,106.74,80,6.00,-12.00,-1022.00
2024-05-19 09:13:18.645559,0,0,-1,0,0,0,84,87,82,70,77,106.58,80,0.00,-24.00,-980.00
2024-05-19 09:13:18.812417,0,0,-1,0,0,0,84,87,82,70,77,106.72,80,7.00,-22.00,-995.00
2024-05-19 09:13:18.849148,0,0,-1,0,0,0,84,87,82,70,77,106.50,80,31.00,-32.00,-967.00
2024-05-19 09:13:19.016345,0,0,-1,0,0,0,84,86,82,70,77,106.70,80,16.00,-17.00,-992.00
2024-05-19 09:13:19.053181,0,1,-1,0,0,0,84,86,82,70,77,106.39,80,17.00,-13.00,-999.00
2024-05-19 09:13:19.222841,0,0,-1,0,0,0,84,86,82,70,77,106.55,80,8.00,-18.00,-986.00
2024-05-19 09:13:19.257135,0,0,-1,0,0,0,84,86,82,70,77,106.42,80,18.00,-2.00,-1011.00
2024-05-19 09:13:19.426249,1,0,-1,0,0,0,84,86,82,70,77,106.55,80,3.00,-2.00,-985.00
2024-05-19 09:13:19.461070,1,0,-1,0,0,0,84,86,82,70,77,106.62,81,22.00,1.00,-1010.00
2024-05-19 09:13:19.631685,1,0,-1,0,0,0,84,86,82,70,77,106.78,81,35.00,-4.00,-993.00
2024-05-19 09:13:19.665202,1,0,-1,0,0,0,84,86,82,70,77,106.52,81,43.00,2.00,-999.00
2024-05-19 09:13:19.836170,1,0,-1,0,0,0,84,86,83,70,77,106.75,81,5.00,13.00,-993.00
2024-05-19 09:13:19.869064,1,0,-1,0,0,0,84,86,83,70,77,106.45,81,7.00,10.00,-977.00
2024-05-19 09:13:19.971166,1,0,-1,0,0,0,84,87,83,70,77,106.73,81,30.00,-1.00,-1035.00
2024-05-19 09:13:20.142990,0,0,-1,0,0,0,84,87,83,70,77,106.52,81,37.00,-8.00,-997.00
2024-05-19 09:13:20.175104,0,0,-1,0,0,0,84,87,83,70,77,106.69,81,17.00,-3.00,-979.00
2024-05-19 09:13:20.347552,1,0,-1,0,0,0,84,87,83,70,77,106.79,81,-18.00,20.00,-991.00
2024-05-19 09:13:20.379911,1,0,-1,0,0,0,84,87,83,70,77,106.78,81,0.00,-10.00,-980.00
2024-05-19 09:13:20.507910,1,0,-1,0,0,0,84,87,82,70,77,106.93,82,-5.00,1.00,-990.00
2024-05-19 09:13:20.583074,1,0,-1,0,0,0,84,87,82,70,77,106.27,82,29.00,13.00,-1033.00
2024-05-19 09:13:20.687010,1,0,-1,0,0,0,84,87,82,70,77,106.72,82,35.00,-22.00,-1016.00
2024-05-19 09:13:20.787646,2,0,-1,0,0,0,84,87,81,70,77,106.62,82,16.00,-16.00,-989.00
2024-05-19 09:13:20.839606,1,0,-1,0,0,0,84,87,81,70,77,106.77,82,13.00,-8.00,-986.00
2024-05-19 09:13:20.962682,1,0,-1,0,0,0,85,87,81,70,77,106.34,82,6.00,12.00,-992.00
2024-05-19 09:13:21.043294,1,0,-1,0,0,0,85,87,81,70,77,106.51,82,34.00,13.00,-1007.00
2024-05-19 09:13:21.166883,1,0,-1,0,0,0,85,87,81,70,77,106.70,82,42.00,-22.00,-993.00
2024-05-19 09:13:21.247301,1,0,-1,0,0,0,85,87,81,70,77,106.52,82,30.00,-11.00,-1014.00
2024-05-19 09:13:21.371841,1,0,-1,0,0,0,85,87,81,70,77,106.53,82,48.00,-37.00,-1018.00
2024-05-19 09:13:21.451353,1,0,-1,0,0,0,85,87,82,70,77,106.69,83,19.00,-1.00,-1024.00
2024-05-19 09:13:21.576555,1,0,-1,0,0,0,85,87,82,70,77,106.75,83,16.00,-16.00,-977.00
2024-05-19 09:13:21.655120,0,0,-1,0,0,0,85,87,82,70,77,106.72,83,9.00,0.00,-978.00
2024-05-19 09:13:21.781244,0,0,-1,0,0,0,85,87,81,70,77,106.59,83,22.00,-10.00,-980.00
2024-05-19 09:13:21.859090,0,0,-1,0,0,0,85,87,81,70,77,106.30,83,26.00,-16.00,-995.00
2024-05-19 09:13:21.986018,0,0,-1,0,0,0,84,86,81,70,77,106.57,83,-17.00,-26.00,-985.00
2024-05-19 09:13:22.063099,0,0,-1,0,0,0,84,86,81,70,77,106.74,83,10.00,4.00,-1011.00
2024-05-19 09:13:22.190771,0,1,-1,0,0,0,84,86,81,70,77,106.74,83,9.00,-23.00,-997.00
2024-05-19 09:13:22.267251,0,1,-1,0,0,0,84,86,81,70,77,106.53,83,-7.00,3.00,-984.00
2024-05-19 09:13:22.395639,0,0,-1,0,0,0,84,86,81,70,77,106.34,83,-2.00,-23.00,-1015.00
2024-05-19 09:13:22.473380,0,0,-1,0,0,0,84,86,81,70,77,106.69,84,21.00,-7.00,-1010.00
2024-05-19 09:13:22.574004,0,0,-1,0,0,0,84,86,82,70,77,106.77,84,-28.00,-5.00,-978.00
2024-05-19 09:13:22.678244,0,1,-1,0,0,0,84,86,82,70,77,106.83,84,7.00,-3.00,-999.00
2024-05-19 09:13:22.777883,0,1,-1,0,0,0,84,86,82,70,77,106.80,84,6.00,1.00,-1067.00
2024-05-19 09:13:22.882841,0,0,-1,0,0,0,84,86,83,70,77,106.85,84,18.00,-18.00,-1102.00
2024-05-19 09:13:22.981990,0,0,-1,0,0,-1,84,87,84,70,77,106.50,84,-7.00,-28.00,-1128.00
2024-05-19 09:13:23.113439,0,1,-1,0,0,-2,84,87,86,80,77,106.82,84,-8.00,10.00,-1074.00
2024-05-19 09:13:23.185927,0,1,-1,0,0,-3,84,87,90,80,77,106.43,84,15.00,-11.00,-1059.00
2024-05-19 09:13:23.317211,0,1,-1,0,0,-3,84,87,94,80,77,106.72,84,35.00,-24.00,-1052.00
2024-05-19 09:13:23.390085,0,1,-1,0,0,-4,84,87,98,90,77,106.60,84,29.00,-49.00,-1043.00
2024-05-19 09:13:23.510081,1,1,-1,0,0,-4,84,87,103,90,77,107.09,85,-3.00,-14.00,-1031.00
2024-05-19 09:13:23.593916,1,1,-1,0,0,-5,84,87,109,100,77,107.04,85,6.00,-62.00,-997.00
2024-05-19 09:13:23.726774,0,1,-1,0,0,-5,84,87,114,100,77,106.83,85,19.00,-54.00,-1008.00
2024-05-19 09:13:23.797967,0,1,-1,0,0,-5,84,87,120,110,77,106.96,85,38.00,-21.00,-1021.00
2024-05-19 09:13:23.931488,0,1,-1,0,0,-5,84,87,126,110,77,107.18,85,0.00,-31.00,-989.00
2024-05-19 09:13:24.001834,0,1,-1,0,0,-5,85,87,134,120,77,107.35,85,6.00,-28.00,-973.00
2024-05-19 09:13:24.137583,0,1,-1,0,0,-5,85,87,139,120,77,106.74,85,12.00,-2.00,-1000.00
2024-05-19 09:13:24.205815,1,1,-1,0,0,-4,85,87,142,130,77,106.98,85,40.00,-26.00,-992.00
2024-05-19 09:13:24.307877,0,1,-1,0,0,-4,85,87,147,130,77,107.21,85,40.00,-46.00,-976.00
2024-05-19 09:13:24.443525,1,1,-1,0,0,-4,85,87,152,140,77,107.11,85,25.00,-40.00,-973.00
2024-05-19 09:13:24.511850,1,1,-1,0,0,-4,85,87,156,140,77,107.42,86,3.00,-18.00,-965.00
2024-05-19 09:13:24.562819,1,1,-1,0,0,-3,85,87,161,150,77,107.05,86,-19.00,-12.00,-968.00
2024-05-19 09:13:24.665033,1,1,-1,0,0,-3,85,87,165,150,77,106.98,86,6.00,-36.00,-968.00
2024-05-19 09:13:24.955507,1,1,-1,0,0,-3,85,87,168,150,77,107.17,86,25.00,-41.00,-977.00
2024-05-19 09:13:24.955926,1,1,-1,0,0,-2,85,87,171,160,77,107.25,86,9.00,-37.00,-969.00
2024-05-19 09:13:24.970784,1,1,-1,0,0,-2,85,88,173,160,77,107.31,86,23.00,-27.00,-983.00
2024-05-19 09:13:25.160298,0,1,-1,0,0,-2,85,88,175,160,77,107.18,86,12.00,-56.00,-944.00
2024-05-19 09:13:25.174775,1,1,-1,0,0,-1,85,88,176,160,77,107.15,86,23.00,-42.00,-977.00
2024-05-19 09:13:25.365540,1,2,-1,0,0,-1,85,88,177,170,77,107.38,86,27.00,-50.00,-960.00
2024-05-19 09:13:25.378765,1,3,-1,0,0,-1,85,88,179,170,77,107.64,86,21.00,-28.00,-961.00
2024-05-19 09:13:25.570629,1,3,-1,0,0,0,85,88,179,170,77,107.62,87,38.00,-44.00,-952.00
2024-05-19 09:13:25.582885,1,3,-1,0,0,0,85,88,180,170,77,107.45,87,14.00,-62.00,-962.00
2024-05-19 09:13:25.774892,1,2,-1,0,0,0,85,88,180,170,77,107.33,87,-1.00,-54.00,-971.00
2024-05-19 09:13:25.786805,1,2,-1,0,0,0,85,88,181,170,77,107.57,87,0.00,-58.00,-986.00
2024-05-19 09:13:25.980315,1,3,-1,0,0,0,85,88,180,170,77,107.59,87,6.00,-43.00,-997.00
2024-05-19 09:13:25.990761,1,3,-1,0,0,0,84,86,181,170,77,107.47,87,16.00,-48.00,-1004.00
2024-05-19 09:13:26.184424,0,3,-1,0,0,0,84,86,180,170,77,107.30,87,-17.00,-65.00,-984.00
2024-05-19 09:13:26.194746,1,3,-1,0,0,0,84,86,180,170,77,107.27,87,-8.00,-57.00,-1004.00
2024-05-19 09:13:26.389713,0,2,-1,0,0,0,84,86,181,170,77,107.41,87,30.00,-45.00,-1030.00
2024-05-19 09:13:26.398922,0,2,-1,0,0,0,84,86,181,170,77,107.57,87,6.00,-44.00,-980.00
2024-05-19 09:13:26.513541,0,2,-1,0,0,0,84,86,180,170,77,107.49,88,48.00,-66.00,-1017.00
2024-05-19 09:13:26.602964,0,2,-1,0,0,0,84,86,180,170,77,107.67,88,26.00,-35.00,-1025.00
2024-05-19 09:13:26.798808,0,2,-1,0,0,0,84,86,180,170,77,107.39,88,10.00,-53.00,-986.00
2024-05-19 09:13:26.806865,0,2,-1,0,0,0,84,86,180,170,77,107.31,88,6.00,-53.00,-972.00
2024-05-19 09:13:27.003726,1,2,-1,0,0,0,84,86,180,170,77,107.47,88,20.00,-27.00,-1001.00
2024-05-19 09:13:27.011712,0,2,-1,0,0,0,85,87,180,170,77,107.44,88,0.00,-42.00,-994.00
2024-05-19 09:13:27.208424,1,2,-1,0,0,0,85,87,181,170,77,107.25,88,-20.00,-33.00,-1000.00
2024-05-19 09:13:27.215782,0,2,-1,0,0,0,85,87,182,170,77,107.32,88,12.00,-61.00,-997.00
2024-05-19 09:13:27.369120,0,2,-1,0,0,0,85,87,181,170,77,107.74,88,22.00,-20.00,-1018.00
2024-05-19 09:13:27.419631,0,2,-1,0,0,0,85,87,181,170,77,107.30,88,27.00,-44.00,-994.00
2024-05-19 09:13:27.617886,0,2,-1,0,0,0,85,87,182,170,77,107.53,89,59.00,-59.00,-996.00
2024-05-19 09:13:27.623710,1,2,-1,0,0,0,85,87,182,170,77,107.22,89,24.00,-34.00,-974.00
2024-05-19 09:13:27.822653,1,2,-1,0,0,0,85,87,181,170,77,107.33,89,28.00,-45.00,-950.00
2024-05-19 09:13:27.822705,1,2,-1,0,0,0,85,87,180,170,77,107.32,89,29.00,-58.00,-957.00
2024-05-19 09:13:27.878595,1,2,-1,0,0,1,85,87,178,170,77,107.19,89,16.00,-34.00,-943.00
2024-05-19 09:13:28.031598,1,2,-1,0,0,1,84,87,177,170,77,107.13,89,29.00,-60.00,-946.00
2024-05-19 09:13:28.082675,1,2,-1,0,0,2,84,87,174,170,77,107.22,89,2.00,-27.00,-947.00
2024-05-19 09:13:28.232266,1,2,-1,0,0,2,84,87,172,160,77,107.35,89,-3.00,-50.00,-958.00
2024-05-19 09:13:28.286607,0,2,-1,0,0,2,84,87,170,160,77,107.22,89,-6.00,-39.00,-971.00
2024-05-19 09:13:28.437071,0,2,-1,0,0,2,84,87,167,160,77,107.13,89,-9.00,-67.00,-961.00
2024-05-19 09:13:28.490754,0,3,-1,0,0,2,84,87,164,160,77,107.11,90,14.00,-70.00,-1011.00
2024-05-19 09:13:28.641843,0,2,-1,0,0,2,84,87,162,150,77,106.89,90,22.00,-30.00,-1014.00
2024-05-19 09:13:28.694863,1,2,-1,0,0,2,84,87,160,150,77,107.02,90,13.00,-56.00,-993.00
2024-05-19 09:13:28.796628,1,2,-1,0,0,2,84,87,156,150,77,107.43,90,20.00,-41.00,-1006.00
2024-05-19 09:13:28.952240,0,1,-1,0,0,2,84,87,154,150,77,107.10,90,8.00,-33.00,-1019.00
2024-05-19 09:13:29.000537,0,1,-1,0,0,2,85,88,152,140,77,107.27,90,-11.00,-46.00,-996.00
2024-05-19 09:13:29.155071,0,1,-1,0,0,2,85,88,149,140,77,106.73,90,-30.00,-7.00,-984.00
2024-05-19 09:13:29.206646,0,1,-1,0,0,2,85,88,148,140,77,106.97,90,1.00,-59.00,-1000.00
2024-05-19 09:13:29.306758,0,2,-1,0,0,2,85,88,145,140,77,107.07,90,-14.00,-56.00,-1009.00
2024-05-19 09:13:29.461084,0,2,-1,0,0,1,85,88,143,130,77,106.88,91,6.00,-48.00,-1005.00
2024-05-19 09:13:29.510789,0,2,-1,0,0,1,85,88,141,130,77,106.91,91,22.00,-39.00,-1045.00
2024-05-19 09:13:29.612877,0,2,-1,0,0,1,85,88,139,130,77,107.24,91,11.00,-22.00,-1023.00
2024-05-19 09:13:29.768372,0,2,-1,0,0,1,85,88,138,130,77,107.01,91,-13.00,-45.00,-1002.00
2024-05-19 09:13:29.816488,1,2,-1,0,0,1,85,88,137,130,77,107.20,91,-13.00,-39.00,-990.00
2024-05-19 09:13:29.973098,1,2,-1,0,0,1,85,88,136,130,77,106.97,91,17.00,-35.00,-1014.00
2024-05-19 09:13:30.020589,1,2,-1,0,0,0,85,88,135,130,77,106.94,91,-1.00,-43.00,-1036.00
2024-05-19 09:13:30.122766,1,2,-1,0,0,0,85,88,135,130,77,106.44,91,21.00,-46.00,-1014.00
2024-05-19 09:13:30.224660,1,2,-1,0,0,0,85,88,134,130,77,106.74,91,23.00,-40.00,-1015.00
2024-05-19 09:13:30.382760,1,2,-1,0,0,0,85,88,134,130,77,107.08,91,22.00,-34.00,-1008.00
2024-05-19 09:13:30.428531,1,1,-1,0,0,0,85,88,135,130,77,106.88,92,16.00,-24.00,-995.00
2024-05-19 09:13:30.587632,2,1,-1,0,0,0,85,88,134,130,77,106.86,92,18.00,-42.00,-992.00
2024-05-19 09:13:30.632842,2,1,-1,0,0,0,85,88,134,130,77,106.94,92,12.00,-42.00,-1009.00
2024-05-19 09:13:30.792506,1,2,-1,0,0,0,85,88,134,130,77,107.02,92,34.00,-48.00,-988.00
2024-05-19 09:13:30.836562,1,1,-1,0,0,0,85,88,135,130,77,106.81,92,31.00,-44.00,-1003.00
2024-05-19 09:13:30.997619,1,1,-1,0,0,0,85,88,135,130,77,107.23,92,1.00,-51.00,-979.00
2024-05-19 09:13:31.040577,1,1,-1,0,0,0,85,87,135,130,77,107.18,92,12.00,-63.00,-979.00
2024-05-19 09:13:31.202193,1,1,-1,0,0,0,85,87,135,130,77,106.82,92,30.00,-69.00,-999.00
2024-05-19 09:13:31.244575,1,2,-1,0,0,0,85,87,135,130,77,106.91,92,27.00,-52.00,-982.00
2024-05-19 09:13:31.346531,1,2,-1,0,0,0,85,87,135,130,77,107.13,92,14.00,-37.00,-989.00
2024-05-19 09:13:31.448578,1,2,-1,0,0,0,85,87,136,130,77,106.95,93,25.00,-51.00,-995.00
2024-05-19 09:13:31.611821,1,3,-1,0,0,0,85,87,135,130,77,106.98,93,36.00,-62.00,-973.00
2024-05-19 09:13:31.652591,1,3,-1,0,0,0,85,87,135,130,77,107.03,93,16.00,-36.00,-987.00
2024-05-19 09:13:31.816415,1,3,-1,0,0,0,85,87,135,130,77,106.85,93,34.00,-83.00,-1025.00
2024-05-19 09:13:31.856630,1,2,-1,0,0,0,85,87,136,130,77,106.99,93,33.00,-52.00,-1007.00
2024-05-19 09:13:31.907375,1,2,-1,0,0,0,85,87,135,130,77,106.89,93,-11.00,-75.00,-1002.00
2024-05-19 09:13:32.060400,1,3,-1,0,0,0,85,87,136,130,77,107.01,93,13.00,-50.00,-994.00
2024-05-19 09:13:32.225877,-1,3,-1,0,0,0,85,87,136,130,77,106.86,93,19.00,-55.00,-1013.00
2024-05-19 09:13:32.264547,-6,2,-1,0,0,0,85,87,136,130,77,107.10,93,5.00,-57.00,-989.00
2024-05-19 09:13:32.315377,-7,3,-1,2,0,0,85,87,138,130,77,106.91,93,49.00,-69.00,-1016.00
2024-05-19 09:13:32.430612,-6,3,-1,3,0,0,85,87,137,130,77,107.00,94,27.00,-60.00,-1010.00
2024-05-19 09:13:32.519273,-6,3,-1,4,0,0,85,87,136,130,77,107.02,94,-10.00,-63.00,-990.00
2024-05-19 09:13:32.636175,-6,3,-1,5,0,0,85,87,137,130,77,107.23,94,23.00,-67.00,-1006.00
2024-05-19 09:13:32.723462,-6,3,-1,6,0,0,85,87,136,130,77,107.02,94,-2.00,-74.00,-1002.00
2024-05-19 09:13:32.841328,-4,3,-1,7,0,0,85,87,135,130,77,107.21,94,-26.00,-74.00,-989.00
2024-05-19 09:13:32.927630,-2,4,-1,8,0,0,85,87,134,130,77,106.73,94,-14.00,-52.00,-998.00
2024-05-19 09:13:33.045483,0,4,-1,8,0,0,85,87,134,130,77,107.14,94,-35.00,-51.00,-976.00
2024-05-19 09:13:33.131274,3,3,-1,7,0,0,85,87,133,130,77,106.95,94,-15.00,-50.00,-1017.00
2024-05-19 09:13:33.249860,6,3,-1,6,0,0,85,87,133,130,77,106.96,94,-18.00,-70.00,-975.00
2024-05-19 09:13:33.335307,6,3,-1,5,0,0,85,87,133,130,77,107.28,94,15.00,-51.00,-1049.00
2024-05-19 09:13:33.454598,5,5,-1,5,0,0,85,87,133,130,77,107.43,95,6.00,-50.00,-998.00
2024-05-19 09:13:33.539333,5,6,-1,4,0,0,85,87,132,120,77,106.74,95,-1.00,-65.00,-966.00
2024-05-19 09:13:33.659635,4,6,-1,3,0,0,85,87,133,130,77,106.77,95,26.00,-68.00,-1036.00
2024-05-19 09:13:33.744436,4,6,-1,3,0,0,85,87,132,130,77,107.04,95,36.00,-83.00,-1041.00
2024-05-19 09:13:33.864228,4,6,-1,3,0,0,85,87,132,120,77,107.17,95,20.00,-79.00,-989.00
2024-05-19 09:13:33.948292,5,1,-1,2,1,0,85,87,132,120,77,106.99,95,41.00,-85.00,-1039.00
2024-05-19 09:13:34.069020,5,0,-1,1,0,0,85,88,131,120,77,107.10,95,42.00,-90.00,-1012.00
2024-05-19 09:13:34.152283,4,2,-1,1,0,0,85,88,131,130,77,107.12,95,58.00,-61.00,-1006.00
2024-05-19 09:13:34.254561,3,3,-1,0,0,0,85,88,132,130,77,107.27,95,43.00,-78.00,-959.00
2024-05-19 09:13:34.376287,3,3,-1,1,0,0,85,88,131,130,77,107.02,95,58.00,-77.00,-1006.00
2024-05-19 09:13:34.458464,3,2,-1,0,0,0,85,88,132,120,77,107.16,96,45.00,-70.00,-1049.00
2024-05-19 09:13:34.581156,3,3,-1,0,0,0,85,88,131,120,77,106.94,96,14.00,-64.00,-955.00
2024-05-19 09:13:34.662390,3,3,-1,0,0,0,85,88,131,120,77,106.97,96,37.00,-99.00,-1002.00
2024-05-19 09:13:34.785968,3,3,-1,0,0,0,85,88,131,120,77,107.06,96,27.00,-55.00,-996.00
2024-05-19 09:13:34.866221,3,3,-1,0,0,0,85,88,131,120,77,107.24,96,22.00,-59.00,-999.00
2024-05-19 09:13:34.992576,2,3,-1,0,0,0,85,88,132,120,77,107.11,96,59.00,-84.00,-1005.00
2024-05-19 09:13:35.070323,2,4,-1,0,0,0,85,88,132,120,77,106.79,96,58.00,-58.00,-1037.00
2024-05-19 09:13:35.195542,2,4,-1,0,0,0,85,88,132,120,77,107.19,96,46.00,-48.00,-1028.00
2024-05-19 09:13:35.274482,3,4,-1,0,0,0,85,88,132,120,77,106.97,96,43.00,-68.00,-990.00
2024-05-19 09:13:35.401583,3,3,-1,0,0,0,85,88,132,120,77,106.59,96,77.00,-57.00,-1021.00
2024-05-19 09:13:35.478282,2,3,-1,0,0,0,85,88,133,120,77,106.93,97,54.00,-49.00,-974.00
2024-05-19 09:13:35.580282,4,3,-1,0,0,0,85,88,134,130,77,106.95,97,44.00,-41.00,-972.00
2024-05-19 09:13:35.682411,4,3,-1,0,0,0,85,88,135,130,77,106.91,97,58.00,-57.00,-978.00
2024-05-19 09:13:35.809952,3,3,-1,0,0,0,85,88,135,130,77,107.08,97,79.00,-54.00,-990.00
2024-05-19 09:13:35.886427,3,2,-1,0,0,0,85,88,135,130,77,106.83,97,79.00,-68.00,-993.00
2024-05-19 09:13:35.937199,3,2,-1,0,0,0,85,88,135,130,77,106.96,97,48.00,-44.00,-965.00
2024-05-19 09:13:36.090723,3,2,-1,0,0,0,85,88,135,130,77,106.76,97,77.00,-51.00,-996.00
2024-05-19 09:13:36.141458,3,2,-1,0,0,0,85,88,134,130,77,106.61,97,76.00,-49.00,-972.00
2024-05-19 09:13:36.243153,3,2,-1,0,0,0,85,88,134,130,77,106.97,97,91.00,-75.00,-984.00
2024-05-19 09:13:36.424189,4,2,-1,0,0,0,85,88,134,130,77,106.91,97,61.00,-64.00,-1010.00
2024-05-19 09:13:36.447129,8,2,-1,0,0,0,85,88,135,130,77,106.83,98,56.00,-43.00,-1035.00
2024-05-19 09:13:36.628983,8,2,-1,0,0,0,85,88,135,130,77,106.48,98,37.00,-39.00,-1024.00
2024-05-19 09:13:36.651452,8,2,-1,-1,0,0,85,88,134,130,77,107.00,98,78.00,-32.00,-1049.00
2024-05-19 09:13:36.804472,8,1,-1,-2,0,0,85,88,136,130,77,106.97,98,90.00,-55.00,-1001.00
2024-05-19 09:13:36.855206,8,1,-1,-3,0,0,85,88,136,130,77,106.94,98,87.00,-49.00,-1010.00
2024-05-19 09:13:37.038623,8,2,-1,-3,0,0,85,88,136,130,77,106.88,98,84.00,-42.00,-1014.00
2024-05-19 09:13:37.059124,8,1,-1,-4,0,0,85,88,137,130,77,107.09,98,67.00,-36.00,-1011.00
2024-05-19 09:13:37.243414,8,1,-1,-5,0,0,85,88,137,130,77,107.13,98,107.00,-73.00,-937.00
2024-05-19 09:13:37.263116,8,2,-1,-5,0,0,85,88,137,130,77,106.93,98,71.00,-99.00,-969.00
2024-05-19 09:13:37.448181,7,2,-1,-6,-1,0,85,88,136,130,77,106.84,98,92.00,-80.00,-1011.00
2024-05-19 09:13:37.467072,7,5,-1,-6,-1,0,85,88,138,130,77,106.96,99,82.00,-61.00,-1008.00
2024-05-19 09:13:37.652979,5,7,-1,-6,-1,0,85,88,137,130,77,107.05,99,91.00,-59.00,-962.00
2024-05-19 09:13:37.671079,3,8,-1,-6,0,0,85,88,137,130,77,107.21,99,79.00,-80.00,-999.00
2024-05-19 09:13:37.858123,0,7,-1,-5,0,0,85,88,136,130,77,107.00,99,93.00,-105.00,-1001.00
2024-05-19 09:13:37.875004,0,5,-1,-5,0,0,85,88,135,130,77,106.75,99,92.00,-73.00,-995.00
2024-05-19 09:13:38.063728,0,4,-1,-4,0,0,85,88,135,130,77,107.31,99,43.00,-78.00,-1022.00
2024-05-19 09:13:38.079047,1,4,-1,-3,0,0,85,88,135,130,77,106.92,99,56.00,-69.00,-1011.00
2024-05-19 09:13:38.267401,1,4,-1,-3,0,0,85,88,134,130,77,106.83,99,74.00,-86.00,-1008.00
2024-05-19 09:13:38.283307,1,4,-1,-3,0,0,85,88,134,130,77,107.06,99,67.00,-73.00,-1054.00
2024-05-19 09:13:38.523610,1,4,-1,-3,0,0,85,88,135,130,77,106.92,99,59.00,-67.00,-1001.00
2024-05-19 09:13:38.523910,2,4,-1,-2,0,0,85,88,135,130,77,107.00,100,50.00,-65.00,-1002.00
2024-05-19 09:13:38.589137,2,3,-1,-2,0,0,85,88,135,130,77,106.62,100,41.00,-84.00,-1003.00
2024-05-19 09:13:38.691113,3,3,-1,-2,0,0,85,88,136,130,77,106.77,100,67.00,-83.00,-988.00
2024-05-19 09:13:38.881804,3,2,-1,-2,0,0,85,88,135,130,77,107.06,100,45.00,-82.00,-993.00
2024-05-19 09:13:38.894820,3,2,-1,-2,0,0,85,88,136,130,77,106.73,100,33.00,-47.00,-996.00
2024-05-19 09:13:39.087031,3,2,-1,-2,0,0,85,88,136,130,77,107.02,100,58.00,-63.00,-999.00
2024-05-19 09:13:39.099200,3,2,-1,-2,0,0,85,88,136,130,77,106.97,100,53.00,-51.00,-986.00
2024-05-19 09:13:39.395026,3,2,-1,-1,0,0,85,88,136,130,77,106.72,100,66.00,-56.00,-1009.00
2024-05-19 09:13:39.395088,3,2,-1,-1,0,0,85,88,136,130,77,106.78,100,42.00,-55.00,-1014.00
2024-05-19 09:13:39.406284,-1,2,-1,-1,0,0,85,88,137,130,77,106.94,100,34.00,-28.00,-1013.00
2024-05-19 09:13:39.507112,0,2,0,0,0,0,85,88,137,130,76,106.92,101,11.00,-38.00,-999.00
2024-05-19 09:13:39.701025,1,1,0,0,0,0,85,88,136,130,76,106.87,101,12.00,-53.00,-989.00
2024-05-19 09:13:39.701161,1,2,0,0,0,0,85,88,136,130,76,106.82,101,20.00,-51.00,-989.00
2024-05-19 09:13:39.762046,1,2,-1,0,0,0,85,88,136,130,76,107.18,101,-7.00,-39.00,-978.00
2024-05-19 09:13:39.905919,1,2,0,0,0,0,85,88,136,130,76,106.90,101,24.00,-29.00,-996.00
2024-05-19 09:13:39.966283,1,1,0,0,0,0,85,88,136,130,76,107.03,101,3.00,-23.00,-1027.00
2024-05-19 09:13:40.110649,1,1,0,0,0,0,86,88,135,130,76,106.68,101,-6.00,-11.00,-1032.00
2024-05-19 09:13:40.170018,0,0,-1,0,0,0,86,88,135,130,76,106.82,101,-5.00,-12.00,-1018.00
2024-05-19 09:13:40.315472,0,0,-1,0,0,0,86,88,135,130,76,106.84,101,-43.00,-19.00,-1018.00
2024-05-19 09:13:40.374395,0,0,-1,0,0,0,86,88,136,130,76,107.03,101,-11.00,-33.00,-1011.00
2024-05-19 09:13:40.521589,0,0,-1,-1,0,0,86,88,135,130,76,107.12,102,-29.00,-13.00,-998.00
2024-05-19 09:13:40.578927,0,0,-1,-1,0,0,86,88,135,130,76,106.80,102,-21.00,4.00,-1008.00
2024-05-19 09:13:40.680466,-1,0,-1,-1,0,0,86,88,135,130,76,106.79,102,-50.00,12.00,-1011.00
2024-05-19 09:13:40.827327,-1,0,-1,-1,0,0,86,88,136,130,76,106.99,102,-35.00,7.00,-995.00
2024-05-19 09:13:40.884026,-1,0,-1,-1,0,0,86,88,136,130,76,107.02,102,-70.00,25.00,-992.00
2024-05-19 09:13:41.032214,-2,-1,-1,-1,0,0,86,88,136,130,76,106.70,102,-73.00,16.00,-995.00
2024-05-19 09:13:41.087993,-3,-1,-1,-1,0,0,87,88,136,130,76,106.97,102,-29.00,-40.00,-993.00
2024-05-19 09:13:41.237429,-4,-1,-1,-1,0,0,87,88,135,130,76,106.97,102,-20.00,-36.00,-1009.00
2024-05-19 09:13:41.292299,-3,0,-1,-1,0,0,87,88,135,130,76,107.12,102,-19.00,-33.00,-1000.00
2024-05-19 09:13:41.443374,-3,0,-1,0,0,0,87,88,135,130,76,106.97,102,-7.00,-32.00,-1024.00
2024-05-19 09:13:41.495877,-2,1,-1,0,0,0,87,88,135,130,76,107.14,103,-11.00,-52.00,-987.00
2024-05-19 09:13:41.597843,-2,1,-1,0,-1,0,87,88,134,130,76,106.90,103,-18.00,-23.00,-978.00
2024-05-19 09:13:41.699863,0,0,-1,0,-1,0,87,88,134,130,76,106.78,103,-2.00,-31.00,-1041.00
2024-05-19 09:13:41.852632,0,-3,-1,0,-1,0,87,88,135,130,76,107.25,103,-8.00,-31.00,-1010.00
2024-05-19 09:13:41.904143,0,-2,-1,0,-2,0,87,88,134,130,76,106.92,103,4.00,-16.00,-1043.00
2024-05-19 09:13:42.055997,0,0,-1,0,-3,0,87,88,134,130,76,107.13,103,-4.00,-12.00,-1007.00
2024-05-19 09:13:42.107851,0,0,-1,0,-3,0,86,88,134,130,76,106.78,103,0.00,-29.00,-988.00
2024-05-19 09:13:42.262188,0,2,-1,0,-3,0,86,88,134,130,76,107.12,103,-2.00,-18.00,-980.00
2024-05-19 09:13:42.311826,0,3,-1,0,-3,0,86,88,133,130,76,107.26,103,0.00,-10.00,-1011.00
2024-05-19 09:13:42.465716,0,2,-1,0,-2,0,86,88,133,130,76,106.85,103,-17.00,3.00,-999.00
2024-05-19 09:13:42.515738,0,1,-1,0,-2,0,86,88,133,120,76,107.06,104,-23.00,-11.00,-992.00
2024-05-19 09:13:42.617771,0,1,-1,0,-2,0,86,88,133,120,76,106.94,104,-4.00,-14.00,-1014.00
2024-05-19 09:13:42.719793,0,1,-1,0,-2,0,86,88,133,120,76,107.11,104,-2.00,6.00,-1025.00
2024-05-19 09:13:42.875418,0,0,-1,0,-2,0,86,88,133,120,76,107.19,104,-25.00,-9.00,-993.00
2024-05-19 09:13:42.924910,-1,0,-1,0,-2,0,86,88,133,120,76,107.11,104,-9.00,-32.00,-1025.00
2024-05-19 09:13:42.974875,0,1,-1,0,-2,0,86,88,134,120,76,107.12,104,-31.00,-28.00,-983.00
2024-05-19 09:13:43.127836,0,1,-1,0,-2,0,86,88,134,130,76,107.11,104,-12.00,-32.00,-1015.00
2024-05-19 09:13:43.284934,0,0,-1,0,-2,0,86,88,134,130,76,107.23,104,-30.00,-15.00,-1019.00
2024-05-19 09:13:43.285016,0,0,-1,0,-2,0,86,88,134,130,76,107.04,104,-8.00,-8.00,-979.00
2024-05-19 09:13:43.382789,0,4,-1,0,-1,0,86,88,134,130,76,107.30,104,-14.00,-8.00,-971.00
2024-05-19 09:13:43.489685,0,6,-1,0,-1,0,86,88,133,130,76,107.34,105,-8.00,-9.00,-1014.00
2024-05-19 09:13:43.586887,0,3,-1,0,0,0,86,88,133,130,76,107.10,105,12.00,-16.00,-977.00
2024-05-19 09:13:43.689062,0,2,-1,0,0,0,86,88,133,130,76,107.04,105,0.00,-14.00,-994.00
2024-05-19 09:13:43.899731,0,2,-1,0,0,0,86,88,132,120,76,107.41,105,-20.00,-36.00,-1010.00
2024-05-19 09:13:43.899917,0,2,-1,0,0,0,86,88,132,120,76,107.07,105,-19.00,-23.00,-992.00
2024-05-19 09:13:43.994781,0,1,-1,0,0,0,86,88,132,120,76,107.39,105,0.00,-38.00,-1005.00
2024-05-19 09:13:44.104152,0,1,-1,0,0,0,85,88,132,120,76,106.88,105,15.00,-44.00,-978.00
2024-05-19 09:13:44.198776,0,1,-1,0,0,0,85,88,132,120,76,107.33,105,11.00,-13.00,-1000.00
2024-05-19 09:13:44.308964,0,1,-1,0,0,0,85,88,133,120,76,107.08,105,16.00,-42.00,-1009.00
2024-05-19 09:13:44.402721,0,1,-1,0,0,0,85,88,133,120,76,107.14,105,30.00,-36.00,-1022.00
2024-05-19 09:13:44.515562,0,1,-1,0,0,0,85,88,133,120,75,107.19,106,41.00,-36.00,-1014.00
2024-05-19 09:13:44.606774,0,1,-1,0,0,0,85,88,134,120,75,107.23,106,16.00,-20.00,-989.00
2024-05-19 09:13:44.708818,0,1,-1,0,0,0,85,88,134,120,75,107.17,106,22.00,-33.00,-998.00
2024-05-19 09:13:44.821460,1,1,-1,0,0,0,85,88,134,130,75,107.09,106,30.00,-57.00,-967.00
2024-05-19 09:13:44.912751,1,1,-1,0,0,0,85,88,135,130,75,107.11,106,41.00,-87.00,-996.00
2024-05-19 09:13:45.025949,1,1,-1,0,0,0,85,88,135,130,75,107.03,106,41.00,-67.00,-1008.00
2024-05-19 09:13:45.116651,2,4,-1,0,0,0,86,88,135,130,75,107.38,106,58.00,-67.00,-999.00
2024-05-19 09:13:45.230663,2,3,-1,0,0,0,86,88,135,130,75,107.14,106,33.00,-48.00,-995.00
2024-05-19 09:13:45.320858,2,3,-1,0,0,0,86,88,134,130,75,107.67,106,34.00,-67.00,-978.00
2024-05-19 09:13:45.436624,2,3,-1,0,0,0,86,88,134,130,75,107.27,107,31.00,-62.00,-1009.00
2024-05-19 09:13:45.524727,2,4,-1,0,0,0,86,88,134,130,75,107.03,107,58.00,-61.00,-1002.00
2024-05-19 09:13:45.640515,2,5,-1,0,0,0,86,88,134,130,75,107.52,107,68.00,-64.00,-1030.00
2024-05-19 09:13:45.728625,1,8,-1,0,0,0,86,88,134,130,75,107.32,107,38.00,-51.00,-1015.00
2024-05-19 09:13:45.844934,1,8,-1,1,1,0,86,88,135,130,75,107.11,107,54.00,-88.00,-996.00
2024-05-19 09:13:45.932575,2,8,-1,1,1,0,86,88,135,130,75,107.62,107,49.00,-84.00,-1005.00
2024-05-19 09:13:46.049693,3,8,-1,1,2,0,86,88,135,120,75,107.21,107,62.00,-70.00,-992.00
2024-05-19 09:13:46.136599,4,5,-1,1,2,0,85,88,134,120,75,107.05,107,48.00,-76.00,-990.00
2024-05-19 09:13:46.254465,3,3,-1,0,2,0,85,88,132,120,75,107.42,107,70.00,-93.00,-995.00
2024-05-19 09:13:46.340548,4,3,-1,0,2,0,85,88,132,120,75,107.21,107,26.00,-91.00,-1011.00
2024-05-19 09:13:46.459298,4,4,-1,0,2,0,85,88,132,120,75,107.27,108,34.00,-93.00,-1002.00
2024-05-19 09:13:46.544542,4,4,-1,0,1,0,85,88,132,120,75,107.36,108,71.00,-77.00,-993.00
2024-05-19 09:13:46.664553,4,4,-1,0,1,0,85,88,131,120,75,107.18,108,94.00,-86.00,-1028.00
2024-05-19 09:13:46.748539,4,4,-1,0,1,0,85,88,131,120,75,107.48,108,70.00,-107.00,-972.00
2024-05-19 09:13:46.850517,4,5,-1,0,1,0,85,88,131,120,75,107.26,108,74.00,-95.00,-1022.00
2024-05-19 09:13:46.971304,4,5,-1,0,1,0,85,88,132,120,75,107.19,108,84.00,-102.00,-995.00
2024-05-19 09:13:47.003688,5,5,-1,0,1,0,85,88,132,120,75,107.06,108,72.00,-81.00,-982.00
2024-05-19 09:13:47.175926,5,4,-1,0,1,0,85,89,132,120,75,107.01,108,80.00,-85.00,-1011.00
2024-05-19 09:13:47.258643,5,4,-1,0,1,0,85,89,132,120,75,107.19,108,55.00,-87.00,-984.00
2024-05-19 09:13:47.380858,5,4,-1,0,1,0,85,89,132,120,75,107.36,108,64.00,-98.00,-974.00
2024-05-19 09:13:47.462489,5,5,-1,0,1,0,85,89,132,120,75,107.32,109,51.00,-108.00,-1006.00
2024-05-19 09:13:47.515921,4,6,-1,0,1,0,85,89,132,120,75,107.26,109,76.00,-86.00,-1003.00
2024-05-19 09:13:47.616432,3,5,-1,0,1,0,85,89,131,120,75,107.07,109,77.00,-108.00,-974.00
2024-05-19 09:13:47.719775,4,4,-1,0,1,0,85,89,131,120,75,107.29,109,39.00,-81.00,-989.00
2024-05-19 09:13:47.820072,3,5,-1,-1,1,0,85,89,131,120,75,107.12,109,42.00,-73.00,-981.00
2024-05-19 09:13:47.995245,2,5,-1,-1,1,0,85,89,132,120,75,107.11,109,53.00,-92.00,-1011.00
2024-05-19 09:13:48.027035,2,5,-1,-1,1,0,85,89,132,120,75,107.14,109,84.00,-99.00,-996.00
2024-05-19 09:13:48.125571,1,5,-1,-1,1,0,86,89,132,120,75,106.92,109,20.00,-46.00,-996.00
2024-05-19 09:13:48.302759,0,4,-1,0,2,0,86,89,132,120,75,106.92,109,77.00,-96.00,-1000.00
2024-05-19 09:13:48.329422,0,3,-1,0,2,0,86,89,132,120,75,106.67,109,66.00,-53.00,-996.00
2024-05-19 09:13:48.507242,1,-1,-1,0,1,0,86,89,132,120,75,106.79,110,64.00,-84.00,-1029.00
2024-05-19 09:13:48.533427,2,0,-1,0,0,0,86,89,133,120,74,106.95,110,38.00,-75.00,-973.00
2024-05-19 09:13:48.635559,2,1,-1,0,0,0,86,89,133,120,74,107.20,110,43.00,-80.00,-992.00
2024-05-19 09:13:48.737698,2,3,-1,0,0,0,86,89,133,120,74,106.70,110,51.00,-51.00,-1003.00
2024-05-19 09:13:48.839627,2,3,-1,0,0,0,86,89,133,120,74,107.02,110,39.00,-49.00,-1022.00
2024-05-19 09:13:49.019577,2,3,-1,0,0,0,86,89,133,120,74,106.84,110,44.00,-62.00,-1011.00
2024-05-19 09:13:49.043530,2,2,-1,0,0,0,86,89,134,120,74,107.13,110,26.00,-74.00,-1018.00
2024-05-19 09:13:49.224136,2,2,-1,0,0,0,86,89,135,130,74,106.87,110,23.00,-55.00,-989.00
2024-05-19 09:13:49.247446,1,3,-1,0,0,0,86,89,135,130,74,106.83,110,37.00,-38.00,-988.00
2024-05-19 09:13:49.429506,1,2,-1,0,0,0,86,89,135,130,74,106.73,110,8.00,-48.00,-973.00
2024-05-19 09:13:49.451441,1,2,-1,0,0,0,86,89,135,130,74,106.91,111,26.00,-53.00,-986.00
2024-05-19 09:13:49.633779,1,2,-1,0,0,0,86,89,136,130,74,106.88,111,30.00,-42.00,-992.00
2024-05-19 09:13:49.655551,1,2,-1,0,0,0,86,89,136,130,74,106.88,111,17.00,-28.00,-984.00
2024-05-19 09:13:49.838576,1,2,-1,0,0,0,86,89,135,130,74,106.72,111,-21.00,-40.00,-975.00
2024-05-19 09:13:49.859341,0,2,-1,0,0,0,86,89,136,130,74,106.84,111,2.00,-40.00,-1002.00
2024-05-19 09:13:50.043234,0,2,-1,0,0,0,86,89,136,130,74,106.79,111,9.00,-50.00,-1010.00
2024-05-19 09:13:50.063477,0,2,-1,0,0,0,86,89,136,130,74,106.87,111,-13.00,-28.00,-1001.00
2024-05-19 09:13:50.248141,0,1,-1,0,0,0,86,88,136,130,74,107.16,111,0.00,-20.00,-1013.00
2024-05-19 09:13:50.267375,-1,1,-1,0,0,0,86,88,135,130,74,106.93,111,20.00,-23.00,-999.00
2024-05-19 09:13:50.452989,-1,1,-1,0,0,0,86,88,136,130,74,107.07,111,-9.00,-46.00,-1001.00
2024-05-19 09:13:50.471364,-1,1,-1,0,0,0,86,88,135,130,74,106.63,112,8.00,-28.00,-1016.00
2024-05-19 09:13:50.587789,-1,1,-1,0,0,0,86,88,135,130,74,107.04,112,-15.00,-45.00,-978.00
2024-05-19 09:13:50.675749,-1,2,-1,0,0,0,86,88,135,130,74,107.23,112,7.00,-29.00,-1010.00
2024-05-19 09:13:50.777352,-1,1,1,0,0,0,86,88,135,130,74,107.06,112,2.00,-19.00,-989.00
2024-05-19 09:13:50.879297,-1,1,7,0,0,0,86,88,135,130,74,106.69,112,-19.00,-38.00,-1003.00
2024-05-19 09:13:51.067246,-1,1,13,0,0,0,86,88,135,130,74,106.85,112,-49.00,-15.00,-992.00
2024-05-19 09:13:51.083451,-1,2,20,0,0,0,86,88,135,130,74,106.62,112,-23.00,-33.00,-1016.00
2024-05-19 09:13:51.273391,-2,1,26,0,0,0,86,89,135,130,74,106.87,112,-17.00,-51.00,-1001.00
2024-05-19 09:13:51.287331,-3,0,32,0,0,0,86,89,136,130,74,107.11,112,-43.00,-23.00,-979.00
2024-05-19 09:13:51.476803,-3,0,38,0,0,0,86,89,135,130,74,106.98,112,-6.00,-61.00,-1001.00
2024-05-19 09:13:51.476851,-2,0,44,0,0,0,86,89,136,130,74,107.30,113,-31.00,-37.00,-950.00
2024-05-19 09:13:51.544548,-2,0,50,0,0,0,86,89,134,130,74,106.98,113,-14.00,-6.00,-1036.00
2024-05-19 09:13:51.645344,-2,1,56,0,0,0,86,89,135,130,74,107.04,113,-48.00,3.00,-981.00
2024-05-19 09:13:51.746282,-2,1,62,0,0,0,86,89,135,130,74,107.41,113,-39.00,-2.00,-999.00
2024-05-19 09:13:51.849000,-2,0,68,0,0,0,86,89,135,130,74,107.01,113,-77.00,-23.00,-978.00
2024-05-19 09:13:51.950262,-2,0,73,0,0,0,86,89,134,130,74,107.06,113,-60.00,4.00,-1006.00
2024-05-19 09:13:52.091241,-3,0,79,0,0,0,86,89,134,130,74,107.09,113,-43.00,-7.00,-993.00
2024-05-19 09:13:52.154282,-3,0,85,0,0,0,85,89,135,130,74,106.54,113,-31.00,41.00,-1010.00
2024-05-19 09:13:52.295963,-3,0,91,0,0,0,85,89,136,130,74,106.78,113,-45.00,45.00,-982.00
2024-05-19 09:13:52.358326,-2,0,97,0,0,0,85,89,135,130,74,107.03,113,-27.00,53.00,-1013.00
2024-05-19 09:13:52.500826,-2,-1,103,0,0,0,85,89,134,130,74,107.07,114,-31.00,53.00,-1000.00
2024-05-19 09:13:52.562182,-1,-2,109,0,0,0,85,89,135,130,74,107.10,114,-9.00,71.00,-1033.00
2024-05-19 09:13:52.664346,-1,-3,115,0,0,0,85,89,135,130,74,107.18,114,-46.00,56.00,-981.00
2024-05-19 09:13:52.807996,-1,-3,120,0,0,0,85,89,135,130,74,107.38,114,-2.00,49.00,-1036.00
2024-05-19 09:13:52.868250,-1,-3,126,0,0,0,85,89,136,130,74,107.06,114,-33.00,57.00,-978.00
2024-05-19 09:13:53.012845,0,-3,131,0,0,0,85,89,136,130,74,106.71,114,-27.00,57.00,-997.00
2024-05-19 09:13:53.072171,0,-2,137,0,0,0,85,89,136,130,74,106.95,114,-44.00,67.00,-1012.00
2024-05-19 09:13:53.217619,0,-2,142,0,0,0,86,89,136,130,74,107.33,114,-25.00,58.00,-993.00
2024-05-19 09:13:53.276542,0,-3,148,0,0,0,86,89,135,130,74,106.99,114,-27.00,50.00,-966.00
2024-05-19 09:13:53.422343,0,-3,154,0,0,0,86,89,135,130,74,106.91,114,-33.00,41.00,-983.00
2024-05-19 09:13:53.481365,0,-2,159,0,0,0,86,89,134,130,74,106.86,115,-26.00,53.00,-1002.00
2024-05-19 09:13:53.832019,0,-1,165,0,0,0,86,89,135,130,74,107.30,115,-29.00,33.00,-1021.00
2024-05-19 09:13:53.832129,0,-1,171,0,0,0,86,89,134,130,74,107.32,115,-34.00,57.00,-989.00
2024-05-19 09:13:53.832798,0,-2,177,0,0,0,86,89,133,130,74,107.26,115,2.00,38.00,-1018.00
2024-05-19 09:13:53.892435,-1,-1,-176,0,0,0,86,89,134,130,74,107.19,115,5.00,56.00,-1006.00
2024-05-19 09:13:53.992779,0,-1,-169,0,0,0,86,89,133,130,74,106.87,115,1.00,67.00,-1003.00
2024-05-19 09:13:54.092232,0,-2,-163,0,0,0,86,89,134,130,74,106.83,115,8.00,50.00,-984.00
2024-05-19 09:13:54.241633,0,-3,-157,0,0,0,86,88,133,130,74,106.85,115,1.00,54.00,-984.00
2024-05-19 09:13:54.296129,0,-3,-150,0,0,0,86,88,133,130,74,107.32,115,4.00,74.00,-993.00
2024-05-19 09:13:54.446403,1,-3,-144,0,0,0,86,88,133,130,74,107.34,115,8.00,38.00,-967.00
2024-05-19 09:13:54.500027,1,-2,-138,0,0,0,86,88,134,130,74,107.13,116,-15.00,84.00,-983.00
2024-05-19 09:13:54.651268,1,-2,-133,0,0,0,86,88,133,130,74,107.31,116,-2.00,77.00,-1011.00
2024-05-19 09:13:54.704151,1,-2,-127,0,0,0,86,88,133,130,74,106.98,116,10.00,57.00,-978.00
2024-05-19 09:13:54.855987,1,-2,-121,0,0,0,86,88,133,130,74,107.03,116,8.00,60.00,-975.00
2024-05-19 09:13:54.908177,1,-3,-115,0,0,0,86,88,133,130,74,106.98,116,23.00,68.00,-1006.00
2024-05-19 09:13:55.010092,1,-3,-110,0,0,0,86,88,133,130,74,107.03,116,46.00,59.00,-1012.00
2024-05-19 09:13:55.061180,2,-3,-104,0,0,0,86,88,132,130,74,106.84,116,49.00,61.00,-998.00
2024-05-19 09:13:55.214569,2,-3,-98,0,0,0,86,88,132,120,74,107.17,116,46.00,73.00,-997.00
2024-05-19 09:13:55.316067,2,-3,-92,0,0,0,86,88,132,120,74,107.02,116,54.00,19.00,-997.00
2024-05-19 09:13:55.367632,2,-2,-87,0,0,0,86,88,132,120,74,106.84,116,45.00,51.00,-994.00
2024-05-19 09:13:55.470363,2,-2,-81,0,0,0,86,88,132,120,73,106.77,117,21.00,50.00,-1023.00
2024-05-19 09:13:55.571010,3,-2,-75,0,0,0,86,88,132,120,73,107.03,117,32.00,50.00,-995.00
2024-05-19 09:13:55.676368,3,-2,-69,0,0,0,86,88,131,120,73,107.03,117,45.00,20.00,-1007.00
2024-05-19 09:13:55.775214,3,-1,-62,0,0,0,86,88,132,120,73,106.81,117,39.00,0.00,-989.00
2024-05-19 09:13:55.879949,3,0,-56,0,0,0,86,88,132,120,73,106.86,117,35.00,30.00,-1007.00
2024-05-19 09:13:55.978962,3,0,-50,0,0,0,86,88,132,120,73,106.80,117,62.00,-17.00,-987.00
2024-05-19 09:13:56.187301,3,0,-43,0,0,0,86,88,132,120,73,107.09,117,28.00,12.00,-1003.00
2024-05-19 09:13:56.187360,3,0,-37,0,0,0,86,89,133,120,73,106.80,117,39.00,14.00,-1014.00
2024-05-19 09:13:56.285244,2,1,-31,0,0,0,86,89,133,120,73,107.18,117,34.00,-10.00,-988.00
2024-05-19 09:13:56.391996,2,1,-24,0,0,0,86,89,133,120,73,107.04,117,27.00,-16.00,-991.00
2024-05-19 09:13:56.489076,2,1,-19,0,0,0,86,89,134,120,73,107.04,118,23.00,-24.00,-1003.00
2024-05-19 09:13:56.596754,1,1,-14,0,0,0,86,89,133,120,73,106.91,118,46.00,-58.00,-1001.00
2024-05-19 09:13:56.693174,1,2,-11,0,0,0,86,89,133,120,73,106.91,118,5.00,2.00,-995.00
2024-05-19 09:13:56.796470,1,3,-9,0,0,0,86,89,133,130,73,106.96,118,-6.00,-31.00,-986.00
2024-05-19 09:13:56.896976,0,2,-7,0,0,0,86,89,133,130,73,106.98,118,-13.00,-19.00,-991.00
2024-05-19 09:13:57.006367,0,1,-5,0,0,0,86,89,133,130,73,107.02,118,-11.00,-17.00,-968.00
2024-05-19 09:13:57.100991,0,1,-4,0,0,0,86,89,133,130,73,107.13,118,1.00,-29.00,-1019.00
2024-05-19 09:13:57.211706,0,1,-3,0,0,0,86,89,133,130,73,107.11,118,11.00,-52.00,-1009.00
2024-05-19 09:13:57.305098,0,1,-3,0,0,0,86,89,133,120,73,106.71,118,8.00,-28.00,-993.00
2024-05-19 09:13:57.415978,0,1,-3,0,0,0,86,89,132,120,73,107.12,118,4.00,-30.00,-989.00
2024-05-19 09:13:57.509025,0,1,-3,0,0,0,86,89,132,120,73,106.81,119,13.00,-29.00,-1024.00
2024-05-19 09:13:57.621294,0,2,-3,0,0,0,86,89,132,120,73,107.07,119,-10.00,-50.00,-960.00
2024-05-19 09:13:57.713369,1,2,-3,0,0,0,86,89,132,120,73,107.20,119,1.00,-35.00,-995.00
2024-05-19 09:13:57.827726,0,2,-3,0,0,0,86,89,132,120,73,107.15,119,-1.00,-17.00,-987.00
2024-05-19 09:13:57.917075,0,2,-3,0,0,0,86,89,132,120,73,106.88,119,15.00,-51.00,-993.00
2024-05-19 09:13:58.030484,0,1,-3,0,0,0,86,89,132,120,73,107.23,119,3.00,-39.00,-986.00
2024-05-19 09:13:58.120982,0,1,-3,0,0,0,86,89,132,120,73,106.68,119,5.00,-38.00,-992.00
2024-05-19 09:13:58.236043,0,1,-3,0,0,0,85,89,131,120,73,107.27,119,17.00,-43.00,-1006.00
2024-05-19 09:13:58.325483,0,2,-3,0,0,0,85,89,132,120,73,106.91,119,25.00,-36.00,-1034.00
2024-05-19 09:13:58.440623,0,2,-3,0,0,0,85,89,131,120,73,106.91,119,-22.00,-71.00,-990.00
2024-05-19 09:13:58.529760,0,2,-3,0,0,0,85,89,132,120,73,107.12,120,11.00,-46.00,-1004.00
2024-05-19 09:13:58.644863,0,2,-3,0,0,0,85,89,132,120,73,107.04,120,2.00,-35.00,-992.00
2024-05-19 09:13:58.732974,0,2,-3,0,0,0,85,89,133,120,73,107.29,120,-2.00,-61.00,-1012.00
2024-05-19 09:13:58.834972,0,2,-3,0,0,0,85,89,133,120,73,106.96,120,11.00,-37.00,-1024.00
2024-05-19 09:13:58.885980,0,2,-3,0,0,0,85,89,133,120,73,107.35,120,24.00,-32.00,-1011.00
2024-05-19 09:13:59.054455,0,2,-3,0,0,0,85,89,133,120,73,106.94,120,11.00,-56.00,-1011.00
2024-05-19 09:13:59.090055,0,2,-3,0,0,0,85,89,134,130,73,107.31,120,10.00,-37.00,-1003.00
2024-05-19 09:13:59.259166,0,2,-4,0,0,0,86,88,134,130,73,107.31,120,12.00,-40.00,-1012.00
2024-05-19 09:13:59.344819,0,2,-10,0,0,0,86,88,134,130,73,106.99,120,12.00,-39.00,-991.00
2024-05-19 09:13:59.395765,0,2,-16,0,0,0,86,88,134,130,73,107.09,121,8.00,-59.00,-1002.00
2024-05-19 09:13:59.567118,0,1,-21,0,0,0,86,88,134,130,73,107.22,121,36.00,-29.00,-992.00
2024-05-19 09:13:59.599903,1,1,-27,0,0,0,86,88,133,130,73,107.07,121,19.00,-37.00,-1002.00
2024-05-19 09:13:59.771315,2,1,-34,0,0,0,86,88,134,130,73,106.80,121,36.00,-54.00,-969.00
2024-05-19 09:13:59.803784,2,1,-40,0,0,0,86,88,133,130,73,107.17,121,36.00,-22.00,-999.00
2024-05-19 09:13:59.975929,2,1,-46,0,0,0,86,88,133,130,73,107.23,121,50.00,-24.00,-1035.00
2024-05-19 09:14:00.007961,3,1,-52,0,0,0,86,88,132,120,73,106.81,121,82.00,-33.00,-1011.00
2024-05-19 09:14:00.180735,3,2,-58,0,0,0,86,88,132,120,73,107.07,121,60.00,-26.00,-1019.00
2024-05-19 09:14:00.212716,4,2,-64,0,0,0,86,89,132,120,73,106.89,121,72.00,-22.00,-1031.00
2024-05-19 09:14:00.385548,4,1,-70,0,0,0,86,89,132,120,73,106.92,121,60.00,-20.00,-1015.00
2024-05-19 09:14:00.418921,4,1,-76,0,0,0,86,89,132,120,73,106.86,122,66.00,-16.00,-1024.00
2024-05-19 09:14:00.519409,4,0,-82,0,0,0,86,89,132,120,73,107.09,122,64.00,-2.00,-979.00
2024-05-19 09:14:00.620618,4,0,-88,0,0,0,86,89,132,120,73,107.08,122,64.00,0.00,-985.00
2024-05-19 09:14:00.722115,4,0,-94,0,0,0,86,89,133,120,73,107.18,122,94.00,11.00,-1012.00
2024-05-19 09:14:00.827307,4,0,-100,0,0,0,86,89,133,120,73,106.95,122,81.00,8.00,-1017.00
2024-05-19 09:14:00.925751,5,0,-106,0,0,0,86,89,133,120,73,107.03,122,67.00,33.00,-990.00
2024-05-19 09:14:01.102335,4,-1,-112,0,0,0,86,89,133,130,73,107.05,122,60.00,43.00,-980.00
2024-05-19 09:14:01.129665,4,-2,-118,0,0,0,86,89,134,130,73,106.89,122,39.00,61.00,-999.00
2024-05-19 09:14:01.307085,3,-3,-124,0,0,0,87,88,134,130,73,107.35,122,33.00,84.00,-1000.00
2024-05-19 09:14:01.333668,2,-4,-131,0,0,0,87,88,134,130,73,106.86,122,64.00,40.00,-1017.00
2024-05-19 09:14:01.511999,2,-4,-137,0,0,0,87,88,135,130,73,106.88,123,39.00,71.00,-1006.00
2024-05-19 09:14:01.537653,2,-4,-143,0,0,0,87,88,134,130,73,107.07,123,45.00,75.00,-1009.00
2024-05-19 09:14:01.717165,1,-4,-149,0,0,0,87,88,135,130,73,107.02,123,8.00,63.00,-975.00
2024-05-19 09:14:01.743401,1,-4,-154,0,0,0,87,88,135,130,73,107.24,123,4.00,56.00,-999.00
2024-05-19 09:14:01.921555,0,-4,-160,0,0,0,87,88,135,130,73,106.91,123,-33.00,86.00,-981.00
2024-05-19 09:14:01.948116,0,-3,-166,0,0,0,87,88,134,130,73,107.14,123,12.00,53.00,-983.00
2024-05-19 09:14:02.048789,0,-3,-172,0,0,0,87,88,134,130,73,106.84,123,6.00,64.00,-981.00
2024-05-19 09:14:02.228760,0,-3,-178,0,0,0,87,88,134,130,73,107.10,123,22.00,47.00,-1011.00
2024-05-19 09:14:02.252733,0,-3,175,0,0,0,86,88,134,130,73,106.78,123,-9.00,85.00,-1034.00
2024-05-19 09:14:02.433491,0,-3,169,0,0,0,86,88,135,130,73,106.94,123,-19.00,91.00,-1005.00
2024-05-19 09:14:02.456609,-1,-3,163,0,0,0,86,88,135,130,73,106.48,124,-15.00,59.00,-992.00
2024-05-19 09:14:02.559035,-1,-3,157,0,0,0,86,88,135,130,72,107.07,124,-33.00,34.00,-990.00
2024-05-19 09:14:02.742525,-1,-2,151,0,0,0,86,88,134,130,72,106.90,124,-28.00,56.00,-1017.00
2024-05-19 09:14:02.762867,-2,-2,144,0,0,0,86,88,135,130,72,106.82,124,-44.00,67.00,-1029.00
2024-05-19 09:14:02.813987,-2,-2,138,0,0,0,86,88,135,130,72,107.18,124,-59.00,52.00,-993.00
2024-05-19 09:14:02.945503,-2,-1,132,0,0,0,86,88,136,130,72,106.96,124,-49.00,61.00,-990.00
2024-05-19 09:14:03.017611,-2,-1,127,0,0,0,86,88,136,130,72,106.96,124,-40.00,50.00,-1003.00
2024-05-19 09:14:03.150303,-2,-1,121,0,0,0,86,88,136,130,72,106.88,124,-20.00,16.00,-999.00
2024-05-19 09:14:03.221782,-2,-1,115,0,0,0,85,89,136,130,72,106.69,124,-42.00,25.00,-1019.00
2024-05-19 09:14:03.355385,-2,-1,109,0,0,0,85,89,136,130,72,106.83,124,-5.00,14.00,-1006.00
2024-05-19 09:14:03.425916,-1,0,103,0,0,0,85,89,136,130,72,106.67,125,-44.00,-6.00,-993.00
2024-05-19 09:14:03.527659,-1,0,97,0,0,0,85,89,136,130,72,106.66,125,-36.00,24.00,-1007.00
2024-05-19 09:14:03.662296,-1,0,91,0,0,0,85,89,135,130,72,106.96,125,-19.00,-2.00,-997.00
2024-05-19 09:14:03.731876,-1,0,85,0,0,0,85,89,135,130,72,106.57,125,-34.00,5.00,-1012.00
2024-05-19 09:14:03.867110,-1,0,79,0,0,0,85,89,134,130,72,106.69,125,-42.00,0.00,-984.00
2024-05-19 09:14:03.935537,-1,0,73,0,0,0,85,89,133,130,72,106.70,125,-16.00,-18.00,-992.00
2024-05-19 09:14:04.071915,-1,0,67,0,0,0,85,89,133,130,72,106.78,125,-21.00,-18.00,-1020.00
2024-05-19 09:14:04.139524,-1,1,61,0,0,0,85,89,132,120,72,106.60,125,-17.00,-20.00,-1027.00
2024-05-19 09:14:04.276694,0,1,55,0,0,0,85,88,132,120,72,106.66,125,-26.00,6.00,-998.00
2024-05-19 09:14:04.343656,0,1,49,0,0,0,85,88,132,120,72,106.63,125,-34.00,-28.00,-996.00
2024-05-19 09:14:04.481436,0,1,42,0,0,0,85,88,132,120,72,106.95,126,0.00,-16.00,-1005.00
2024-05-19 09:14:04.547558,0,2,36,0,0,0,85,88,132,120,72,106.82,126,5.00,-26.00,-998.00
2024-05-19 09:14:04.686762,0,1,30,0,0,0,85,88,132,120,72,107.07,126,26.00,-11.00,-1000.00
2024-05-19 09:14:04.751543,1,1,24,0,0,0,85,88,132,120,72,107.05,126,11.00,-26.00,-965.00
2024-05-19 09:14:04.853530,2,1,18,0,0,0,85,88,133,120,72,106.93,126,18.00,-26.00,-1008.00
2024-05-19 09:14:04.964486,2,1,13,0,0,0,85,88,133,120,72,106.97,126,33.00,-24.00,-1006.00
2024-05-19 09:14:05.057623,2,1,9,0,0,0,85,88,134,120,72,107.12,126,14.00,-19.00,-975.00
2024-05-19 09:14:05.198474,2,0,6,0,0,0,85,88,135,120,72,106.94,126,24.00,-13.00,-1020.00
2024-05-19 09:14:05.261479,2,0,4,0,0,0,86,89,135,130,72,106.89,126,29.00,-3.00,-972.00
2024-05-19 09:14:05.403258,2,0,2,0,0,0,86,89,135,130,72,107.00,126,41.00,-27.00,-999.00
2024-05-19 09:14:05.465453,2,0,0,0,0,0,86,89,136,130,72,106.87,127,16.00,-3.00,-980.00
2024-05-19 09:14:05.607967,2,0,0,0,0,0,86,89,136,130,72,106.72,127,8.00,27.00,-1009.00
2024-05-19 09:14:05.669446,2,0,0,0,0,0,86,89,136,130,72,106.88,127,30.00,10.00,-979.00
2024-05-19 09:14:05.771577,1,0,-1,0,0,0,86,89,136,130,72,106.98,127,32.00,4.00,-998.00
2024-05-19 09:14:05.915696,1,0,-1,0,0,0,86,89,136,130,72,107.17,127,44.00,-18.00,-998.00
2024-05-19 09:14:05.975573,2,0,-1,0,0,0,86,89,136,130,72,107.14,127,53.00,-17.00,-994.00
2024-05-19 09:14:06.120335,2,0,-1,0,0,0,86,89,136,130,72,106.69,127,40.00,11.00,-999.00
2024-05-19 09:14:06.179577,2,0,-1,0,0,0,86,89,135,130,72,107.12,127,33.00,-19.00,-984.00
2024-05-19 09:14:06.326815,2,0,-1,0,0,0,86,88,136,130,72,107.20,127,33.00,-15.00,-983.00
2024-05-19 09:14:06.383573,2,0,-1,0,0,0,86,88,136,130,72,107.02,127,40.00,0.00,-999.00
2024-05-19 09:14:06.529635,2,0,-1,0,0,0,86,88,136,130,72,107.37,128,53.00,-18.00,-1000.00
2024-05-19 09:14:06.588203,2,0,-1,0,0,0,86,88,135,130,72,107.10,128,61.00,-10.00,-1011.00
2024-05-19 09:14:06.641505,2,1,-1,0,0,0,86,88,136,130,72,106.88,128,56.00,5.00,-972.00
2024-05-19 09:14:06.740819,2,0,-1,0,0,0,86,88,136,130,72,106.49,128,59.00,-19.00,-975.00
2024-05-19 09:14:06.842494,2,0,-1,0,0,0,86,88,136,130,72,106.94,128,45.00,-13.00,-995.00
2024-05-19 09:14:07.041697,3,1,-1,0,0,0,86,88,136,130,72,106.99,128,53.00,-11.00,-972.00
2024-05-19 09:14:07.046520,3,1,-1,0,0,0,86,88,135,130,72,107.06,128,47.00,9.00,-974.00
2024-05-19 09:14:07.246390,3,0,-1,0,0,0,86,88,136,130,72,106.75,128,58.00,3.00,-1026.00
2024-05-19 09:14:07.250567,3,0,-1,0,0,0,86,88,135,130,72,107.15,128,39.00,-2.00,-996.00
2024-05-19 09:14:07.352535,3,0,-1,0,0,0,86,88,135,130,72,107.02,128,53.00,-2.00,-1002.00
2024-05-19 09:14:07.501635,3,0,-1,0,0,0,86,88,135,130,72,107.20,129,45.00,3.00,-990.00
2024-05-19 09:14:07.556673,3,0,-1,0,0,0,86,88,135,130,72,107.06,129,67.00,9.00,-1036.00
2024-05-19 09:14:07.658606,3,0,-1,0,0,0,86,88,135,130,72,106.86,129,37.00,6.00,-1017.00
2024-05-19 09:14:07.760468,3,0,-1,0,0,0,86,88,135,130,72,106.96,129,42.00,21.00,-983.00
2024-05-19 09:14:07.862527,2,-1,-1,0,0,0,86,88,135,130,72,106.90,129,57.00,-24.00,-1616.00
2024-05-19 09:14:07.964405,0,-2,0,0,0,-4,86,88,139,130,72,107.11,129,34.00,56.00,-1754.00
2024-05-19 09:14:08.066317,0,-14,0,0,0,-11,86,88,158,140,72,107.35,129,23.00,435.00,-1156.00
2024-05-19 09:14:08.270862,0,-108,0,0,-7,-11,86,88,594,150,72,107.68,129,-10.00,605.00,-1057.00
2024-05-19 09:14:08.271311,3,127,0,1,-11,4,86,88,583,150,72,107.32,129,-12.00,481.00,-1210.00
2024-05-19 09:14:08.372584,0,16,-5,1,-4,12,86,88,154,140,72,107.44,129,16.00,-119.00,-1650.00
2024-05-19 09:14:08.474702,0,-8,-5,2,-5,9,86,88,143,130,71,107.22,130,22.00,54.00,-1438.00
2024-05-19 09:14:08.577462,0,4,-7,1,-5,5,86,88,135,130,71,107.30,130,7.00,31.00,-1237.00
2024-05-19 09:14:08.680185,1,5,-6,1,-4,2,86,88,132,120,71,107.16,130,16.00,68.00,-1156.00
2024-05-19 09:14:08.780422,1,3,-1,1,-3,1,86,88,130,120,71,107.10,130,12.00,25.00,-1127.00
2024-05-19 09:14:08.884669,1,1,-1,1,-2,0,86,88,131,120,71,107.09,130,12.00,29.00,-1091.00
2024-05-19 09:14:08.984729,1,0,-1,1,-1,0,86,88,131,120,71,107.05,130,-3.00,31.00,-996.00
2024-05-19 09:14:09.090402,0,0,-1,0,-1,-1,86,88,133,120,71,107.04,130,-4.00,16.00,-973.00
2024-05-19 09:14:09.188438,0,0,-1,0,-1,-1,86,88,135,120,71,107.13,130,21.00,26.00,-953.00
2024-05-19 09:14:09.294276,0,0,-1,0,0,0,86,88,137,120,71,107.29,130,34.00,29.00,-979.00
2024-05-19 09:14:09.392306,0,0,-1,0,0,0,86,88,138,120,71,106.89,130,2.00,26.00,-972.00
2024-05-19 09:14:09.499041,2,2,-1,0,0,0,86,88,138,120,71,107.39,131,19.00,11.00,-966.00
2024-05-19 09:14:09.596238,1,1,-1,0,0,0,86,88,139,120,71,107.27,131,13.00,27.00,-995.00
2024-05-19 09:14:09.703763,1,0,-1,0,0,0,86,88,140,130,71,106.86,131,13.00,3.00,-957.00
2024-05-19 09:14:09.800281,0,0,-1,0,0,0,86,88,139,130,71,107.17,131,7.00,34.00,-987.00
2024-05-19 09:14:09.908630,0,0,-1,0,0,0,86,88,140,130,71,107.07,131,3.00,22.00,-990.00
2024-05-19 09:14:10.004163,0,0,-1,0,0,0,86,88,140,130,71,107.33,131,33.00,23.00,-1007.00
2024-05-19 09:14:10.113440,0,0,-1,0,0,0,86,88,139,130,71,107.20,131,7.00,22.00,-994.00
2024-05-19 09:14:10.208345,0,0,-1,0,0,0,86,88,139,130,71,107.06,131,4.00,6.00,-1014.00
2024-05-19 09:14:10.318293,0,0,-1,0,0,0,86,89,138,130,71,106.95,131,30.00,1.00,-979.00
2024-05-19 09:14:10.412317,0,0,-1,0,0,0,86,89,138,130,71,107.26,131,12.00,36.00,-1016.00
2024-05-19 09:14:10.514260,0,0,-1,0,0,0,86,89,137,130,70,106.81,132,19.00,33.00,-1001.00
2024-05-19 09:14:10.565415,0,0,-1,0,0,0,86,89,137,120,70,107.28,132,14.00,10.00,-1026.00
2024-05-19 09:14:10.667924,0,0,-1,0,0,0,86,89,137,120,70,107.10,132,5.00,33.00,-1027.00
2024-05-19 09:14:10.830847,0,0,-1,0,0,0,86,89,137,120,70,106.63,132,8.00,15.00,-998.00
2024-05-19 09:14:10.871755,0,0,-1,0,0,0,86,89,137,120,70,106.78,132,24.00,0.00,-1013.00
2024-05-19 09:14:11.035032,0,0,-1,0,0,0,86,89,136,120,70,107.06,132,15.00,6.00,-1017.00
2024-05-19 09:14:11.075116,0,0,-1,0,0,0,86,89,137,120,70,107.01,132,17.00,2.00,-952.00
2024-05-19 09:14:11.239783,0,0,-1,0,0,0,86,89,137,130,70,106.97,132,29.00,3.00,-1000.00
2024-05-19 09:14:11.279169,0,0,-1,0,0,0,86,88,136,130,70,107.37,132,27.00,27.00,-979.00
2024-05-19 09:14:11.381712,0,0,-1,0,0,0,86,88,136,120,70,106.92,132,43.00,13.00,-1000.00
2024-05-19 09:14:11.547070,0,0,-1,0,0,0,86,88,136,120,70,107.23,133,13.00,20.00,-1016.00
2024-05-19 09:14:11.585444,1,0,-1,0,0,0,86,88,136,120,70,106.84,133,15.00,21.00,-1035.00
2024-05-19 09:14:11.751941,1,0,-1,0,0,0,86,88,136,120,70,107.09,133,41.00,29.00,-1019.00
2024-05-19 09:14:11.789232,1,0,-1,0,0,0,86,88,136,120,70,107.41,133,35.00,24.00,-1010.00
2024-05-19 09:14:11.956719,1,0,-1,0,0,0,86,88,136,120,70,107.26,133,34.00,-3.00,-992.00
2024-05-19 09:14:11.993236,1,0,-1,0,0,0,86,88,136,120,70,106.89,133,38.00,-25.00,-1010.00
2024-05-19 09:14:12.161618,1,0,-1,0,0,0,86,88,136,120,70,107.22,133,41.00,4.00,-1016.00
2024-05-19 09:14:12.197483,1,0,-1,0,0,0,86,88,136,120,70,106.92,133,47.00,-21.00,-1016.00
2024-05-19 09:14:12.366271,1,0,-1,0,0,0,86,89,136,120,70,107.32,133,13.00,1.00,-1005.00
2024-05-19 09:14:12.401428,1,0,-1,0,0,0,86,89,136,120,70,106.94,133,36.00,7.00,-991.00
2024-05-19 09:14:12.571113,1,0,-1,0,0,0,86,89,137,120,70,106.82,134,54.00,-12.00,-998.00
2024-05-19 09:14:12.605044,2,0,-1,0,0,0,86,89,138,130,70,106.63,134,31.00,13.00,-973.00
2024-05-19 09:14:12.775811,2,0,-1,0,0,0,86,89,138,130,70,107.16,134,41.00,27.00,-993.00
2024-05-19 09:14:12.809122,2,0,-1,0,0,0,86,89,138,130,70,107.24,134,24.00,-2.00,-977.00
2024-05-19 09:14:12.980805,2,0,-1,0,0,0,86,89,138,130,70,107.29,134,44.00,-24.00,-972.00
2024-05-19 09:14:13.013122,1,0,0,0,0,0,86,89,138,130,70,107.21,134,27.00,4.00,-1000.00
2024-05-19 09:14:13.185619,1,0,0,0,0,0,86,89,138,130,70,107.26,134,44.00,-9.00,-1007.00
2024-05-19 09:14:13.217688,1,1,0,0,0,0,86,89,138,130,70,107.44,134,46.00,-38.00,-995.00
2024-05-19 09:14:13.390263,1,1,-1,0,0,0,86,89,138,130,70,107.07,134,-21.00,0.00,-987.00
2024-05-19 09:14:13.420996,1,1,-1,0,0,0,86,89,139,130,70,107.31,134,65.00,-29.00,-1021.00
2024-05-19 09:14:13.523617,1,1,-1,0,0,0,86,89,138,130,70,107.16,135,50.00,-16.00,-1018.00
2024-05-19 09:14:13.697726,2,1,-1,0,0,0,86,89,138,130,70,107.68,135,43.00,0.00,-991.00
2024-05-19 09:14:13.727521,2,0,-1,0,0,0,86,89,139,130,70,107.13,135,43.00,1.00,-1001.00
2024-05-19 09:14:13.828965,2,0,-1,0,0,0,86,89,138,130,70,107.50,135,53.00,6.00,-1041.00
2024-05-19 09:14:13.880143,2,0,-1,0,0,0,86,89,139,130,70,107.09,135,57.00,37.00,-1015.00
2024-05-19 09:14:14.004681,2,0,-1,0,0,0,86,89,139,130,70,106.86,135,79.00,23.00,-1011.00
2024-05-19 09:14:14.084072,3,0,-1,0,0,0,86,89,139,130,70,107.08,135,92.00,-20.00,-1010.00
2024-05-19 09:14:14.209782,3,0,-1,0,0,0,86,89,139,130,70,107.18,135,37.00,13.00,-1000.00
2024-05-19 09:14:14.338979,2,0,-1,0,0,0,86,89,139,130,70,106.90,135,57.00,10.00,-1019.00
2024-05-19 09:14:14.518456,2,0,-1,0,0,0,86,89,139,130,70,107.09,136,15.00,-6.00,-1107.00
2024-05-19 09:14:14.542953,0,1,-1,0,0,-4,86,89,139,130,70,107.45,136,57.00,24.00,-1695.00
2024-05-19 09:14:14.721567,0,11,-1,0,1,-11,86,89,146,140,70,107.36,136,80.00,-69.00,-1931.00
2024-05-19 09:14:14.721885,-1,98,-1,1,8,-13,86,89,252,150,70,107.55,136,45.00,582.00,-1249.00
2024-05-19 09:14:14.798105,2,-134,-3,1,11,1,86,89,479,160,70,107.72,136,88.00,833.00,-1003.00
2024-05-19 09:14:14.926202,0,-21,3,1,4,9,86,89,289,150,70,107.74,136,64.00,657.00,-1212.00
2024-05-19 09:14:15.003045,0,7,4,2,5,7,86,89,153,140,70,107.41,136,6.00,65.00,-1238.00
2024-05-19 09:14:15.131000,0,-4,7,2,6,3,86,89,144,130,70,107.13,136,52.00,-70.00,-1308.00
2024-05-19 09:14:15.206002,2,-6,7,2,4,1,86,89,140,130,70,107.10,136,-2.00,-47.00,-1228.00
2024-05-19 09:14:15.335847,2,-3,1,2,2,0,86,89,137,130,70,107.11,136,16.00,-49.00,-1068.00
2024-05-19 09:14:15.410236,2,0,-1,1,2,0,86,89,135,130,70,107.43,137,-1.00,-32.00,-1031.00
2024-05-19 09:14:15.540563,1,0,-1,1,1,0,86,89,135,130,70,107.19,137,58.00,-71.00,-1068.00
2024-05-19 09:14:15.613970,1,0,-1,1,0,0,86,89,134,130,70,107.17,137,11.00,-19.00,-992.00
2024-05-19 09:14:15.745543,1,1,-1,1,0,0,86,89,134,130,70,107.56,137,27.00,-64.00,-999.00
2024-05-19 09:14:15.817999,1,2,-1,1,0,0,86,89,133,130,70,107.33,137,34.00,-44.00,-980.00
2024-05-19 09:14:15.950188,2,1,-1,1,0,0,86,89,132,130,70,107.39,137,21.00,-31.00,-973.00
