TS,pitch,roll,yaw,vgx,vgy,vgz,templ,temph,tof,h,bat,baro,time,agx,agy,agz
2024-05-19 09:15:01.517876,0,0,-10,0,0,0,88,90,10,0,66,105.89,160,16.00,10.00,-999.00
2024-05-19 09:15:01.565386,0,0,-10,0,0,0,88,90,10,0,66,105.59,160,16.00,10.00,-998.00
2024-05-19 09:15:01.722569,0,0,-10,0,0,0,88,90,10,0,66,105.55,160,15.00,10.00,-1000.00
2024-05-19 09:15:01.769897,0,0,-10,0,0,0,88,90,10,0,66,106.05,160,14.00,9.00,-998.00
2024-05-19 09:15:01.927211,0,0,-10,0,0,0,88,90,10,0,66,105.95,160,15.00,10.00,-999.00
2024-05-19 09:15:01.973406,0,0,-10,0,0,0,88,90,10,0,66,105.86,160,17.00,9.00,-1002.00
2024-05-19 09:15:02.075423,0,0,-10,0,0,0,88,90,10,0,66,105.90,160,16.00,9.00,-998.00
2024-05-19 09:15:02.236788,0,0,-10,0,0,0,88,90,10,0,66,105.75,160,15.00,10.00,-999.00
2024-05-19 09:15:02.279680,0,0,-10,0,0,0,88,90,10,0,66,105.68,160,15.00,11.00,-1001.00
2024-05-19 09:15:02.439418,0,0,-10,0,0,0,88,90,10,0,66,106.07,160,16.00,9.00,-999.00
2024-05-19 09:15:02.483492,0,0,-10,0,0,0,88,90,10,0,66,105.72,160,14.00,10.00,-998.00
2024-05-19 09:15:02.644212,0,0,-10,0,0,0,89,90,10,0,66,105.70,160,15.00,10.00,-999.00
2024-05-19 09:15:02.687443,0,0,-10,0,0,0,89,90,10,0,66,106.10,160,16.00,8.00,-1001.00
2024-05-19 09:15:02.848972,0,0,-10,0,0,0,89,90,10,0,66,105.71,160,16.00,10.00,-999.00
2024-05-19 09:15:02.891490,0,0,-10,0,0,0,89,90,10,0,66,105.87,160,15.00,10.00,-999.00
2024-05-19 09:15:03.053594,0,0,-10,0,0,0,89,90,10,0,66,105.85,160,16.00,8.00,-1000.00
2024-05-19 09:15:03.095297,0,0,-10,0,0,0,89,90,10,0,66,105.90,160,15.00,10.00,-1000.00
2024-05-19 09:15:03.258533,0,0,-10,0,0,0,89,90,10,0,66,105.81,160,16.00,10.00,-999.00
2024-05-19 09:15:03.299451,0,0,-10,0,0,0,89,90,10,0,66,105.75,160,14.00,10.00,-1003.00
2024-05-19 09:15:03.465598,0,0,-10,0,0,0,89,90,10,0,66,105.65,160,17.00,9.00,-1000.00
2024-05-19 09:15:03.503419,0,0,-10,0,0,0,89,90,10,0,66,105.67,160,16.00,11.00,-1000.00
2024-05-19 09:15:03.670565,0,0,-10,0,0,0,89,90,10,0,66,105.81,160,15.00,9.00,-999.00
2024-05-19 09:15:03.707380,0,0,-10,0,0,0,89,90,10,0,66,105.85,160,15.00,11.00,-999.00
2024-05-19 09:15:03.758113,0,0,-10,0,0,0,89,90,10,0,66,105.93,160,15.00,11.00,-999.00
2024-05-19 09:15:03.875276,0,0,-10,0,0,0,89,90,10,0,66,105.82,160,17.00,9.00,-1004.00
2024-05-19 09:15:03.962298,0,0,-10,0,0,0,89,90,10,0,66,105.82,160,25.00,12.00,-991.00
2024-05-19 09:15:04.063946,0,0,-10,0,0,0,89,90,10,0,66,105.82,160,20.00,5.00,-1002.00
2024-05-19 09:15:04.180108,0,0,-10,0,0,0,89,90,10,0,66,105.82,160,7.00,-16.00,-1004.00
2024-05-19 09:15:04.268079,0,0,-10,0,0,0,89,90,10,0,66,105.82,160,1.00,11.00,-1000.00
2024-05-19 09:15:04.384877,0,0,-9,0,0,0,89,90,10,0,66,105.82,160,22.00,-14.00,-1155.00
2024-05-19 09:15:04.472005,0,0,-9,0,0,0,89,90,10,0,66,105.82,160,36.00,13.00,-1183.00
2024-05-19 09:15:04.589654,1,0,-9,0,0,-2,89,92,10,0,66,105.82,161,-6.00,32.00,-1287.00
2024-05-19 09:15:04.676018,-1,0,-9,0,0,-5,89,92,20,0,66,106.00,161,-6.00,37.00,-1162.00
2024-05-19 09:15:04.795296,0,0,-9,0,0,-6,89,92,29,0,66,106.12,161,-10.00,18.00,-1097.00
2024-05-19 09:15:04.880116,0,0,-9,0,0,-7,89,92,38,0,66,106.21,161,-31.00,9.00,-1015.00
2024-05-19 09:15:04.982066,-1,-1,-9,0,0,-7,89,92,43,10,66,106.41,161,0.00,6.00,-935.00
2024-05-19 09:15:05.101698,-1,-1,-9,0,0,-6,89,92,53,10,66,106.09,161,-13.00,17.00,-913.00
2024-05-19 09:15:05.186108,-1,-1,-9,0,0,-6,89,92,61,20,66,106.68,161,0.00,37.00,-900.00
2024-05-19 09:15:05.306477,0,-1,-9,0,0,-5,89,92,67,20,66,106.59,161,-26.00,54.00,-891.00
2024-05-19 09:15:05.390059,0,-1,-9,0,0,-3,89,92,71,30,66,106.74,161,-5.00,38.00,-897.00
2024-05-19 09:15:05.511606,0,-2,-9,0,0,-3,89,92,76,30,66,106.45,161,-16.00,44.00,-897.00
2024-05-19 09:15:05.594105,0,-2,-9,0,0,-2,89,92,81,30,66,106.70,162,-12.00,29.00,-912.00
2024-05-19 09:15:05.716029,0,-2,-9,0,0,-1,89,92,85,40,66,106.72,162,-17.00,32.00,-913.00
2024-05-19 09:15:05.798114,0,-2,-9,0,0,0,89,92,88,40,66,106.86,162,-14.00,22.00,-933.00
2024-05-19 09:15:05.921218,0,-2,-9,0,0,0,89,92,91,40,66,106.92,162,-23.00,17.00,-946.00
2024-05-19 09:15:06.002075,1,-2,-9,0,0,0,89,92,93,40,66,106.69,162,-4.00,28.00,-963.00
2024-05-19 09:15:06.125658,1,-1,-9,0,0,0,89,92,95,40,66,106.87,162,0.00,30.00,-957.00
2024-05-19 09:15:06.205966,1,-1,-9,0,0,0,89,92,96,50,66,106.76,162,22.00,16.00,-975.00
2024-05-19 09:15:06.330481,0,-1,-9,0,0,0,89,92,98,50,66,106.50,162,11.00,4.00,-987.00
2024-05-19 09:15:06.410007,0,-1,-9,0,0,0,89,92,99,50,66,106.69,162,-18.00,33.00,-976.00
2024-05-19 09:15:06.541359,0,-1,-9,0,0,0,89,92,99,50,66,106.78,162,-4.00,30.00,-977.00
2024-05-19 09:15:06.613951,0,-1,-9,0,0,0,89,91,99,50,66,107.22,163,-1.00,30.00,-953.00
2024-05-19 09:15:06.739962,0,-1,-9,0,0,1,89,91,100,50,66,106.93,163,-36.00,28.00,-936.00
2024-05-19 09:15:06.819144,0,-1,-10,0,0,1,89,91,99,50,66,107.26,163,10.00,16.00,-933.00
2024-05-19 09:15:06.920309,0,-2,-10,0,0,1,89,91,99,50,66,106.78,163,8.00,4.00,-961.00
2024-05-19 09:15:06.971832,1,-1,-10,0,0,1,89,91,98,50,66,106.58,163,-22.00,47.00,-978.00
2024-05-19 09:15:07.073940,1,-1,-10,0,0,1,89,91,97,50,66,106.83,163,-33.00,13.00,-970.00
2024-05-19 09:15:07.251978,0,-2,-10,0,0,1,89,91,95,50,66,106.68,163,3.00,36.00,-972.00
2024-05-19 09:15:07.277920,0,-2,-10,0,0,1,89,91,94,50,66,106.69,163,3.00,40.00,-978.00
2024-05-19 09:15:07.456816,0,-1,-10,0,0,1,89,91,92,50,66,106.55,163,6.00,7.00,-993.00
2024-05-19 09:15:07.481892,0,-1,-10,0,0,1,89,91,90,50,66,106.74,163,4.00,2.00,-955.00
2024-05-19 09:15:07.661599,0,-1,-10,0,0,1,89,92,89,50,66,106.79,164,-25.00,27.00,-1001.00
2024-05-19 09:15:07.685883,0,-1,-10,0,0,1,89,92,87,50,66,106.56,164,-8.00,43.00,-1007.00
2024-05-19 09:15:07.866431,0,-1,-10,0,0,1,89,92,85,50,66,106.89,164,3.00,19.00,-1018.00
2024-05-19 09:15:07.889858,0,-1,-10,0,0,1,89,92,83,40,66,106.74,164,-14.00,42.00,-996.00
2024-05-19 09:15:07.991707,0,-1,-10,0,0,1,89,92,81,40,66,106.44,164,20.00,7.00,-986.00
2024-05-19 09:15:08.173615,0,-1,-10,0,0,1,89,92,80,40,66,106.58,164,-20.00,19.00,-1006.00
2024-05-19 09:15:08.195749,0,-1,-10,0,0,1,89,92,78,40,66,106.52,164,-7.00,36.00,-1014.00
2024-05-19 09:15:08.378459,0,0,-10,0,0,0,89,92,77,40,66,106.69,164,3.00,8.00,-994.00
2024-05-19 09:15:08.399745,0,0,-10,0,0,0,89,92,76,40,66,106.85,164,-6.00,26.00,-1010.00
2024-05-19 09:15:08.583220,0,0,-10,0,0,0,89,92,75,40,66,106.47,164,-11.00,26.00,-1011.00
2024-05-19 09:15:08.603835,0,0,-9,0,0,0,89,92,74,40,66,106.50,165,1.00,37.00,-1005.00
2024-05-19 09:15:08.787968,0,-1,-9,0,0,0,89,92,73,40,66,106.59,165,10.00,23.00,-1004.00
2024-05-19 09:15:08.807920,0,-1,-9,0,0,0,89,92,73,30,66,106.51,165,-20.00,27.00,-978.00
2024-05-19 09:15:08.992821,0,0,-9,0,0,0,89,92,72,30,66,106.57,165,2.00,25.00,-1003.00
2024-05-19 09:15:09.011719,0,-1,-9,0,0,0,89,92,71,30,66,106.53,165,-11.00,11.00,-1023.00
2024-05-19 09:15:09.197632,0,-1,-9,0,0,0,89,92,71,30,66,106.47,165,-27.00,6.00,-985.00
2024-05-19 09:15:09.215741,0,0,-9,0,0,0,89,92,70,30,66,106.88,165,11.00,27.00,-1050.00
2024-05-19 09:15:09.402672,0,0,-9,0,0,0,89,92,70,30,66,106.69,165,-7.00,21.00,-1020.00
2024-05-19 09:15:09.419887,0,0,-9,0,0,0,89,92,70,30,66,106.66,165,-10.00,24.00,-994.00
2024-05-19 09:15:09.521910,0,0,-9,0,0,0,89,92,70,30,66,106.33,165,-25.00,-15.00,-1029.00
2024-05-19 09:15:09.678155,0,0,-9,0,0,0,89,91,70,30,66,106.51,166,-12.00,35.00,-1013.00
2024-05-19 09:15:09.725728,0,0,-9,0,0,0,89,91,70,30,66,106.52,166,-8.00,27.00,-1018.00
2024-05-19 09:15:09.914599,0,-1,-9,0,0,0,89,91,70,30,66,106.40,166,-22.00,43.00,-1022.00
2024-05-19 09:15:09.929800,0,-1,-9,0,0,0,89,91,70,30,66,106.63,166,5.00,14.00,-1016.00
2024-05-19 09:15:10.031720,0,-1,-9,0,0,0,89,91,71,30,66,106.30,166,-14.00,37.00,-1035.00
2024-05-19 09:15:10.221617,0,-1,-9,0,0,0,89,91,71,30,66,106.54,166,-25.00,29.00,-1001.00
2024-05-19 09:15:10.235679,0,-1,-9,0,0,0,89,91,71,30,66,106.31,166,-6.00,19.00,-995.00
2024-05-19 09:15:10.426461,0,-1,-9,0,0,0,89,91,71,30,66,106.41,166,-26.00,29.00,-993.00
2024-05-19 09:15:10.440246,0,-1,-9,0,0,0,89,91,72,30,66,106.69,166,-6.00,33.00,-1001.00
2024-05-19 09:15:10.631238,0,-1,-9,0,0,0,89,91,72,30,66,106.55,167,3.00,17.00,-1029.00
2024-05-19 09:15:10.643565,0,-2,-9,0,0,0,90,92,73,30,66,106.60,167,12.00,35.00,-1003.00
2024-05-19 09:15:10.836029,0,-2,-9,0,0,0,90,92,73,30,66,106.87,167,-2.00,22.00,-991.00
2024-05-19 09:15:10.847654,0,-1,-9,0,0,0,90,92,74,30,66,106.78,167,8.00,34.00,-979.00
2024-05-19 09:15:10.899027,0,-1,-9,0,0,0,90,92,74,30,66,106.68,167,3.00,15.00,-991.00
2024-05-19 09:15:11.000879,0,-2,-9,0,0,0,90,92,75,30,66,106.62,167,-14.00,16.00,-972.00
2024-05-19 09:15:11.143220,0,-2,-9,0,0,0,90,92,75,30,66,106.80,167,6.00,20.00,-1035.00
2024-05-19 09:15:11.204960,0,-1,-9,0,0,0,90,92,75,40,66,106.62,167,10.00,53.00,-1053.00
2024-05-19 09:15:11.348047,0,-2,-9,0,0,0,90,92,76,40,66,106.68,167,-2.00,34.00,-990.00
2024-05-19 09:15:11.408946,0,-2,-9,0,0,0,90,92,76,40,66,106.63,167,25.00,28.00,-1009.00
2024-05-19 09:15:11.552800,0,-2,-9,0,0,0,90,92,77,40,66,106.83,168,9.00,39.00,-986.00
2024-05-19 09:15:11.613233,1,-2,-9,0,0,0,89,92,77,40,66,106.63,168,14.00,48.00,-1024.00
2024-05-19 09:15:11.757692,1,-2,-9,0,0,0,89,92,78,40,66,106.61,168,2.00,36.00,-993.00
2024-05-19 09:15:11.817677,0,-2,-9,0,0,0,89,92,78,40,66,106.49,168,12.00,48.00,-990.00
2024-05-19 09:15:11.919202,0,-2,-9,0,0,0,89,92,78,40,66,106.61,168,23.00,34.00,-998.00
2024-05-19 09:15:12.065212,0,-2,-9,0,0,0,89,92,78,40,66,106.71,168,10.00,33.00,-1015.00
2024-05-19 09:15:12.123763,0,-2,-9,0,0,0,89,92,78,40,66,106.65,168,4.00,52.00,-1036.00
2024-05-19 09:15:12.269955,0,-2,-9,0,0,0,89,92,78,40,66,106.72,168,18.00,40.00,-1015.00
2024-05-19 09:15:12.327666,0,-2,-9,0,0,0,89,92,78,40,66,106.54,168,4.00,24.00,-1015.00
2024-05-19 09:15:12.431953,0,-2,-9,0,0,0,89,92,78,40,66,106.76,168,-4.00,21.00,-982.00
2024-05-19 09:15:12.531903,0,-1,-9,0,0,0,89,92,77,40,66,106.54,169,-12.00,23.00,-967.00
2024-05-19 09:15:12.679487,0,-1,-9,0,0,0,89,92,77,40,66,106.50,169,-2.00,11.00,-995.00
2024-05-19 09:15:12.735691,0,-1,-9,0,0,0,89,92,76,40,66,106.54,169,-11.00,34.00,-980.00
2024-05-19 09:15:12.840595,0,-1,-9,0,0,0,89,92,76,40,66,106.75,169,-9.00,55.00,-989.00
2024-05-19 09:15:12.939788,0,-2,-9,0,0,0,89,92,76,40,66,106.42,169,-4.00,27.00,-1033.00
2024-05-19 09:15:13.043058,0,-2,-9,0,0,0,89,92,75,40,66,106.49,169,4.00,20.00,-1032.00
2024-05-19 09:15:13.191549,0,-2,-9,0,0,0,89,92,75,40,66,106.39,169,-8.00,28.00,-998.00
2024-05-19 09:15:13.246824,0,-2,-9,0,0,0,89,92,75,40,66,106.43,169,-22.00,43.00,-981.00
2024-05-19 09:15:13.396136,0,-2,-9,0,0,0,89,92,75,40,66,106.47,169,14.00,40.00,-1012.00
2024-05-19 09:15:13.450846,0,-2,-9,0,0,0,89,92,75,40,66,106.26,169,27.00,38.00,-1011.00
2024-05-19 09:15:13.600888,0,-2,-9,0,0,0,89,92,75,40,66,106.81,170,1.00,43.00,-974.00
2024-05-19 09:15:13.655054,0,-2,-9,0,0,0,89,92,75,30,66,106.67,170,-11.00,27.00,-1021.00
2024-05-19 09:15:13.805846,0,-2,-9,0,0,0,89,92,75,30,66,106.75,170,-17.00,26.00,-999.00
2024-05-19 09:15:13.859236,0,-1,-9,0,0,0,89,92,74,30,66,106.49,170,-14.00,55.00,-996.00
2024-05-19 09:15:14.010499,0,-1,-9,0,0,0,89,92,75,30,66,106.70,170,14.00,54.00,-1004.00
2024-05-19 09:15:14.062894,0,-1,-9,0,0,0,89,92,75,30,66,106.30,170,-10.00,47.00,-1005.00
2024-05-19 09:15:14.216293,0,-2,-9,0,0,0,89,92,74,30,66,106.41,170,-3.00,26.00,-997.00
2024-05-19 09:15:14.216482,0,-2,-9,0,0,0,89,92,74,40,66,106.65,170,-17.00,35.00,-1006.00
2024-05-19 09:15:14.317650,0,-2,-9,0,0,0,89,92,74,40,66,106.88,170,-13.00,40.00,-996.00
2024-05-19 09:15:14.419987,0,-2,-9,0,0,0,89,92,74,40,66,106.44,170,-7.00,46.00,-1008.00
2024-05-19 09:15:14.522567,0,-2,-9,0,0,0,89,92,74,30,66,106.44,171,0.00,29.00,-989.00
2024-05-19 09:15:14.624753,0,-1,-10,0,0,0,88,92,74,30,66,106.40,171,24.00,13.00,-1051.00
2024-05-19 09:15:14.727137,0,-1,-10,0,0,-1,88,92,76,40,66,106.34,171,-4.00,0.00,-1086.00
2024-05-19 09:15:14.827359,0,-1,-10,0,0,-2,88,92,78,40,66,106.69,171,5.00,10.00,-1080.00
2024-05-19 09:15:14.931887,0,-1,-10,0,0,-2,88,92,80,40,66,106.53,171,-11.00,19.00,-1073.00
2024-05-19 09:15:15.031763,0,0,-10,0,0,-3,88,92,84,40,66,106.68,171,0.00,45.00,-1087.00
2024-05-19 09:15:15.136787,0,0,-10,0,0,-4,88,92,89,50,66,106.92,171,0.00,-20.00,-1050.00
2024-05-19 09:15:15.235439,0,0,-10,0,0,-4,88,92,94,50,66,106.81,171,-6.00,19.00,-1062.00
2024-05-19 09:15:15.341789,0,0,-9,0,0,-5,88,92,99,60,66,106.51,171,-14.00,29.00,-1019.00
2024-05-19 09:15:15.439458,0,0,-9,0,0,-5,88,92,105,60,66,106.76,171,11.00,17.00,-999.00
2024-05-19 09:15:15.546335,0,0,-9,0,0,-5,88,92,111,70,66,106.96,172,46.00,11.00,-1011.00
2024-05-19 09:15:15.643474,0,0,-9,0,0,-5,89,92,117,70,66,107.02,172,3.00,14.00,-992.00
2024-05-19 09:15:15.751183,0,0,-9,0,0,-5,89,92,123,80,66,106.84,172,6.00,26.00,-961.00
2024-05-19 09:15:15.847396,0,0,-9,0,0,-5,89,92,129,80,66,106.98,172,8.00,8.00,-965.00
2024-05-19 09:15:15.956053,0,0,-9,0,0,-5,89,92,135,90,66,107.13,172,11.00,-9.00,-949.00
2024-05-19 09:15:16.051922,0,0,-9,0,0,-5,89,92,140,100,66,107.33,172,16.00,6.00,-980.00
2024-05-19 09:15:16.160726,0,0,-9,0,0,-4,89,92,147,100,66,107.22,172,-7.00,1.00,-942.00
2024-05-19 09:15:16.255371,0,0,-9,0,0,-4,89,92,151,110,66,107.47,172,0.00,21.00,-950.00
2024-05-19 09:15:16.365502,0,0,-9,0,0,-4,89,92,155,110,66,107.40,172,23.00,10.00,-974.00
2024-05-19 09:15:16.459483,0,0,-9,0,0,-3,89,92,159,110,66,107.56,172,16.00,11.00,-951.00
2024-05-19 09:15:16.570525,0,0,-9,0,0,-3,89,92,162,120,66,107.57,173,-4.00,32.00,-939.00
2024-05-19 09:15:16.663393,0,0,-9,0,0,-2,89,92,165,120,66,107.30,173,-11.00,8.00,-981.00
2024-05-19 09:15:16.775310,0,0,-9,0,0,-2,89,92,168,120,66,107.60,173,-13.00,32.00,-990.00
2024-05-19 09:15:16.867468,0,-1,-9,0,0,-2,89,92,169,130,66,107.26,173,-6.00,6.00,-960.00
2024-05-19 09:15:16.982602,0,0,-9,0,0,-1,89,92,172,130,66,107.46,173,-6.00,3.00,-969.00
2024-05-19 09:15:17.073642,0,0,-9,0,0,-1,89,92,174,130,66,107.66,173,5.00,16.00,-968.00
2024-05-19 09:15:17.173569,-1,0,-9,0,0,-1,89,92,174,130,66,107.73,173,-11.00,26.00,-968.00
2024-05-19 09:15:17.287443,-1,0,-9,0,0,0,89,92,175,130,66,107.62,173,-6.00,40.00,-969.00
2024-05-19 09:15:17.377526,-1,0,-10,0,0,0,89,92,176,130,66,107.38,173,-24.00,15.00,-974.00
2024-05-19 09:15:17.491951,-1,0,-10,0,0,0,89,92,177,130,66,107.57,173,3.00,15.00,-999.00
2024-05-19 09:15:17.581412,-1,0,-9,0,0,0,89,92,176,130,66,107.73,174,-7.00,20.00,-981.00
2024-05-19 09:15:17.696809,0,-1,-10,0,0,0,89,91,176,130,66,107.69,174,-14.00,11.00,-983.00
2024-05-19 09:15:17.785401,0,-1,-10,0,0,0,89,91,176,130,66,107.39,174,-18.00,24.00,-1003.00
2024-05-19 09:15:17.901641,0,-1,-10,0,0,0,89,91,176,130,66,107.68,174,15.00,-9.00,-990.00
2024-05-19 09:15:17.989433,0,0,-9,0,0,0,89,91,174,130,66,107.87,174,0.00,36.00,-1028.00
2024-05-19 09:15:18.106534,0,0,-9,0,0,0,89,91,175,130,66,107.37,174,-3.00,31.00,-1049.00
2024-05-19 09:15:18.142692,0,0,-9,0,0,0,89,91,174,130,66,107.60,174,-8.00,21.00,-1037.00
2024-05-19 09:15:18.311251,0,0,-9,0,0,0,89,91,174,130,66,107.67,174,-19.00,-6.00,-1004.00
2024-05-19 09:15:18.346554,-1,0,-9,0,0,0,89,91,173,130,66,107.43,174,-18.00,9.00,-1034.00
2024-05-19 09:15:18.518423,-1,0,-9,0,0,0,89,91,174,130,66,107.53,174,-3.00,17.00,-1030.00
2024-05-19 09:15:18.550712,-1,0,-9,0,0,0,89,91,174,130,66,107.43,175,11.00,3.00,-980.00
2024-05-19 09:15:18.720830,-1,0,-9,0,0,0,88,91,174,130,66,107.65,175,-5.00,15.00,-1015.00
2024-05-19 09:15:18.754860,-1,0,-9,0,0,0,88,91,174,130,66,107.34,175,-8.00,51.00,-988.00
2024-05-19 09:15:18.856580,-1,0,-9,0,0,0,88,91,174,130,66,107.17,175,-38.00,8.00,-985.00
2024-05-19 09:15:19.011002,-1,-1,-9,0,0,0,88,91,175,130,66,107.21,175,-15.00,18.00,-1008.00
2024-05-19 09:15:19.062387,-1,-1,-9,0,0,0,88,91,174,130,66,107.49,175,-18.00,-5.00,-999.00
2024-05-19 09:15:19.232658,-1,-1,-9,0,0,0,88,91,174,130,66,107.65,175,-6.00,5.00,-977.00
2024-05-19 09:15:19.265203,-1,0,-9,0,0,0,88,91,175,130,66,107.47,175,0.00,5.00,-949.00
2024-05-19 09:15:19.437516,0,0,-9,0,0,0,88,91,172,130,66,107.42,175,-19.00,28.00,-961.00
2024-05-19 09:15:19.471107,0,0,-9,0,0,1,88,91,172,130,66,107.57,175,-26.00,33.00,-949.00
2024-05-19 09:15:19.571570,0,-1,-9,0,0,1,88,91,170,130,66,107.27,176,6.00,5.00,-954.00
2024-05-19 09:15:19.744731,-1,-1,-9,0,0,2,89,91,167,130,66,107.64,176,-17.00,8.00,-975.00
2024-05-19 09:15:19.779257,0,-1,-9,0,0,2,89,91,165,130,66,107.02,176,-1.00,30.00,-994.00
2024-05-19 09:15:19.879176,0,-1,-9,0,0,2,89,91,163,120,66,107.48,176,9.00,1.00,-997.00
2024-05-19 09:15:19.981590,0,-1,-9,0,0,2,89,91,160,120,66,107.65,176,-21.00,39.00,-981.00
2024-05-19 09:15:20.082161,0,-1,-9,0,0,2,89,91,157,120,66,107.26,176,-15.00,41.00,-980.00
2024-05-19 09:15:20.184440,-1,-2,-9,0,0,2,89,91,154,120,66,107.26,176,-18.00,19.00,-987.00
2024-05-19 09:15:20.285137,-1,-2,-9,0,0,2,89,91,151,110,66,107.17,176,-17.00,15.00,-1001.00
2024-05-19 09:15:20.461469,-1,-2,-9,0,0,2,89,91,148,110,66,107.03,176,0.00,30.00,-1022.00
2024-05-19 09:15:20.489173,0,-1,-9,0,0,2,89,91,145,110,66,107.35,176,18.00,29.00,-1028.00
2024-05-19 09:15:20.666253,0,-1,-9,0,0,2,89,91,143,110,66,107.42,177,0.00,18.00,-996.00
2024-05-19 09:15:20.693112,0,-2,-9,0,0,2,90,92,141,100,66,107.41,177,7.00,59.00,-1049.00
2024-05-19 09:15:20.871144,0,-2,-9,0,0,2,90,92,139,100,66,107.27,177,-25.00,37.00,-1005.00
2024-05-19 09:15:20.898414,0,-2,-9,0,0,1,90,92,137,100,66,107.21,177,3.00,24.00,-1024.00
2024-05-19 09:15:21.000340,0,-1,-9,0,0,1,90,92,134,100,66,107.28,177,26.00,27.00,-1000.00
2024-05-19 09:15:21.178319,0,-1,-9,0,0,1,90,92,132,100,66,107.12,177,18.00,28.00,-1002.00
2024-05-19 09:15:21.204306,0,-2,-9,0,0,1,90,92,131,90,66,107.13,177,6.00,65.00,-995.00
2024-05-19 09:15:21.383154,0,-2,-9,0,0,1,90,92,129,90,66,106.98,177,2.00,48.00,-1035.00
2024-05-19 09:15:21.408393,0,-2,-9,0,0,1,90,92,128,90,66,107.39,177,21.00,22.00,-1031.00
2024-05-19 09:15:21.510595,0,-2,-9,0,0,1,90,92,126,90,66,107.34,177,-17.00,23.00,-1019.00
2024-05-19 09:15:21.690364,0,-2,-10,0,0,1,90,92,125,90,66,107.18,178,-35.00,45.00,-1020.00
2024-05-19 09:15:21.714377,0,-2,-10,0,0,0,89,92,125,90,66,107.33,178,-8.00,24.00,-1009.00
2024-05-19 09:15:21.895207,0,-2,-10,0,0,0,89,92,124,90,66,107.01,178,-2.00,38.00,-1031.00
2024-05-19 09:15:21.918422,0,-1,-10,0,0,0,89,92,123,80,66,107.11,178,-19.00,37.00,-992.00
2024-05-19 09:15:22.020472,0,-2,-10,0,0,0,89,92,123,80,66,106.70,178,3.00,20.00,-999.00
2024-05-19 09:15:22.071486,0,-2,-10,0,0,0,89,92,122,80,66,106.73,178,12.00,22.00,-1017.00
2024-05-19 09:15:22.202423,0,-1,-9,0,0,0,89,92,122,80,66,107.13,178,-15.00,36.00,-976.00
2024-05-19 09:15:22.276965,0,-1,-9,0,0,0,89,92,123,80,66,107.14,178,-8.00,29.00,-997.00
2024-05-19 09:15:22.377648,0,-1,-9,0,0,0,89,92,123,80,66,107.06,178,5.00,47.00,-1001.00
2024-05-19 09:15:22.509670,0,-1,-9,0,0,0,89,92,123,80,66,107.08,178,17.00,29.00,-1023.00
2024-05-19 09:15:22.581138,0,-1,-9,0,0,0,89,92,124,80,66,107.15,179,7.00,44.00,-1003.00
2024-05-19 09:15:22.714707,0,-2,-9,0,0,0,89,92,124,80,66,107.06,179,-8.00,38.00,-1027.00
2024-05-19 09:15:22.785180,0,-2,-9,0,0,0,89,92,124,80,66,107.05,179,-26.00,42.00,-986.00
2024-05-19 09:15:22.919263,0,-2,-9,0,0,0,89,92,125,80,66,107.15,179,7.00,28.00,-979.00
2024-05-19 09:15:22.989401,0,-2,-9,0,0,0,89,92,125,80,66,107.23,179,8.00,45.00,-967.00
2024-05-19 09:15:23.123975,0,-2,-9,0,0,0,89,92,126,90,66,107.30,179,11.00,22.00,-981.00
2024-05-19 09:15:23.193232,0,-2,-9,0,0,0,89,92,126,90,66,107.24,179,-7.00,66.00,-1004.00
2024-05-19 09:15:23.328694,0,-2,-9,0,0,0,89,92,126,90,66,107.21,179,11.00,28.00,-1011.00
2024-05-19 09:15:23.397051,0,-3,-9,0,0,0,89,92,127,90,66,107.19,179,-11.00,50.00,-1010.00
2024-05-19 09:15:23.498959,0,-3,-9,0,0,0,89,92,127,90,66,107.27,179,15.00,69.00,-1028.00
2024-05-19 09:15:23.636676,0,-3,-9,0,0,0,89,92,127,90,66,107.00,180,-6.00,67.00,-984.00
2024-05-19 09:15:23.703219,-8,-1,-9,0,0,0,88,92,127,90,66,107.22,180,4.00,42.00,-976.00
2024-05-19 09:15:23.840672,-8,-2,-9,2,0,0,88,92,129,90,66,107.39,180,-39.00,45.00,-996.00
2024-05-19 09:15:23.908345,-8,-2,-9,3,0,0,88,92,129,90,66,107.23,180,-22.00,77.00,-1018.00
2024-05-19 09:15:24.009449,-7,-3,-9,4,0,0,88,92,128,90,66,107.22,180,-19.00,39.00,-1003.00
2024-05-19 09:15:24.147812,-7,-4,-9,5,0,0,88,92,128,90,66,106.89,180,-20.00,47.00,-1029.00
2024-05-19 09:15:24.212957,-7,-4,-9,6,0,0,88,92,128,90,66,107.30,180,-41.00,43.00,-956.00
2024-05-19 09:15:24.352665,-7,-4,-9,6,-1,0,88,92,128,90,66,107.07,180,-48.00,32.00,-1006.00
2024-05-19 09:15:24.416945,-5,-3,-9,7,-1,0,88,92,127,90,66,107.17,180,-58.00,44.00,-1023.00
2024-05-19 09:15:24.557691,-4,-3,-9,7,-1,0,88,92,127,90,66,106.97,181,-71.00,59.00,-985.00
2024-05-19 09:15:24.621230,-1,-2,-9,7,-1,0,88,92,128,90,66,106.93,181,-51.00,50.00,-987.00
2024-05-19 09:15:24.762395,1,-2,-9,7,-1,0,88,92,128,90,66,106.77,181,-39.00,47.00,-1013.00
2024-05-19 09:15:24.825140,3,-2,-9,6,-1,0,88,92,128,90,66,107.24,181,-53.00,31.00,-991.00
2024-05-19 09:15:24.967049,3,-1,-9,4,-1,0,88,92,128,90,66,106.65,181,-52.00,60.00,-1026.00
2024-05-19 09:15:25.032488,2,-2,-9,4,-1,0,88,92,128,90,66,107.01,181,-28.00,59.00,-1002.00
2024-05-19 09:15:25.130899,1,-2,-9,3,0,0,88,92,128,90,66,107.24,181,-33.00,19.00,-1000.00
2024-05-19 09:15:25.274240,0,-2,-9,3,0,0,88,92,128,90,66,106.88,181,-35.00,48.00,-992.00
2024-05-19 09:15:25.334947,0,-3,-9,3,0,0,88,92,128,90,66,107.34,181,-21.00,71.00,-1013.00
2024-05-19 09:15:25.479083,0,-3,-9,2,0,0,88,92,129,90,66,107.13,181,-24.00,48.00,-1008.00
2024-05-19 09:15:25.538794,0,-4,-9,2,0,0,88,92,128,90,66,107.04,182,-27.00,53.00,-953.00
2024-05-19 09:15:25.641540,0,-4,-9,2,0,0,88,92,129,90,66,106.89,182,-4.00,58.00,-1024.00
2024-05-19 09:15:25.786259,0,-4,-9,2,0,0,88,92,128,90,66,106.94,182,4.00,29.00,-1017.00
2024-05-19 09:15:25.844901,-1,-3,-9,1,0,0,88,92,127,90,66,107.32,182,-14.00,41.00,-995.00
2024-05-19 09:15:25.991050,-1,-1,-9,1,-1,0,88,92,127,90,66,106.96,182,15.00,56.00,-1032.00
2024-05-19 09:15:26.048866,-1,0,-9,2,0,0,88,92,127,90,66,107.08,182,-4.00,48.00,-947.00
2024-05-19 09:15:26.099875,0,-1,-9,2,0,0,88,92,127,90,66,107.10,182,-13.00,52.00,-994.00
2024-05-19 09:15:26.202009,1,-3,-9,1,0,0,88,92,127,90,66,106.90,182,-1.00,56.00,-966.00
2024-05-19 09:15:26.304090,3,-3,-10,1,0,0,88,92,126,90,66,107.05,182,-2.00,63.00,-1017.00
2024-05-19 09:15:26.503071,1,-3,-9,0,0,0,88,92,127,90,66,107.36,182,-21.00,46.00,-1008.00
2024-05-19 09:15:26.508014,0,-2,-10,0,0,0,88,92,126,90,66,107.04,183,-16.00,52.00,-1015.00
2024-05-19 09:15:26.707930,0,-2,-10,0,0,0,88,92,126,90,66,107.28,183,-2.00,36.00,-994.00
2024-05-19 09:15:26.712415,0,-2,-9,0,0,0,89,92,126,90,66,107.53,183,-27.00,55.00,-999.00
2024-05-19 09:15:26.913369,0,-2,-9,0,0,0,89,92,126,90,66,107.30,183,-14.00,37.00,-1023.00
2024-05-19 09:15:26.916087,0,-3,-9,0,0,0,89,92,126,90,66,107.40,183,-26.00,53.00,-1038.00
2024-05-19 09:15:27.018269,-1,-3,-9,0,0,0,89,92,126,90,66,107.15,183,-1.00,38.00,-997.00
2024-05-19 09:15:27.120061,-1,-3,-9,0,0,0,89,92,126,90,66,107.00,183,0.00,44.00,-1019.00
2024-05-19 09:15:27.222184,-1,-3,-9,0,0,0,89,92,126,90,66,107.00,183,-26.00,59.00,-982.00
2024-05-19 09:15:27.324104,-1,-3,-9,0,0,0,89,92,126,90,66,107.22,183,2.00,46.00,-1014.00
2024-05-19 09:15:27.527708,-2,-3,-9,0,0,0,89,92,126,90,66,107.01,183,-12.00,36.00,-976.00
2024-05-19 09:15:27.527888,-1,-3,-9,0,0,0,89,92,126,90,66,106.90,184,-6.00,52.00,-1006.00
2024-05-19 09:15:27.732242,-1,-3,-9,0,0,0,89,92,126,90,66,107.30,184,-2.00,55.00,-1042.00
2024-05-19 09:15:27.732408,-1,-3,-9,0,0,0,88,91,126,90,66,106.86,184,0.00,47.00,-1036.00
2024-05-19 09:15:27.834624,-1,-3,-9,0,0,0,88,91,126,90,66,106.99,184,-1.00,61.00,-995.00
2024-05-19 09:15:27.936690,-1,-3,-9,0,0,0,88,91,127,90,66,107.38,184,-10.00,39.00,-984.00
2024-05-19 09:15:28.038793,-1,-3,-9,0,0,0,88,91,127,90,66,106.94,184,-7.00,36.00,-974.00
2024-05-19 09:15:28.141505,-1,-3,-9,0,0,0,88,91,127,90,66,106.78,184,-11.00,52.00,-1011.00
2024-05-19 09:15:28.243686,-1,-2,-9,0,0,0,88,91,127,90,66,106.93,184,-4.00,52.00,-1002.00
2024-05-19 09:15:28.343961,-1,-2,-9,0,0,0,88,91,127,90,66,106.97,184,-2.00,31.00,-976.00
2024-05-19 09:15:28.448720,-1,-2,-9,0,0,0,88,91,128,90,66,107.25,184,-12.00,46.00,-1035.00
2024-05-19 09:15:28.547836,-1,-2,-9,0,0,0,88,91,128,90,65,107.28,185,-3.00,39.00,-979.00
2024-05-19 09:15:28.653310,0,-2,-9,0,0,0,88,91,128,90,65,107.52,185,2.00,69.00,-948.00
2024-05-19 09:15:28.751927,5,-2,-9,0,0,0,88,92,129,90,65,107.21,185,-27.00,33.00,-990.00
2024-05-19 09:15:28.853889,7,-2,-9,-1,0,0,88,92,130,90,65,107.11,185,23.00,31.00,-1008.00
2024-05-19 09:15:28.960577,8,-1,-9,-3,0,0,88,92,130,90,65,107.32,185,23.00,15.00,-1025.00
2024-05-19 09:15:29.058120,7,-1,-9,-4,0,0,88,92,129,90,65,107.33,185,21.00,12.00,-1004.00
2024-05-19 09:15:29.166690,6,-1,-9,-5,0,0,88,92,129,90,65,107.27,185,37.00,4.00,-993.00
2024-05-19 09:15:29.262037,6,-1,-9,-5,0,0,88,92,130,90,65,106.86,185,73.00,-1.00,-1019.00
2024-05-19 09:15:29.370517,6,-1,-9,-6,0,0,88,92,130,90,65,107.04,185,69.00,0.00,-1015.00
2024-05-19 09:15:29.465873,6,0,-9,-7,0,0,88,92,130,90,65,106.95,185,21.00,14.00,-972.00
2024-05-19 09:15:29.577893,3,0,-10,-7,0,0,88,92,131,90,65,107.38,186,76.00,17.00,-998.00
2024-05-19 09:15:29.619210,0,0,-10,-7,1,0,88,92,132,90,65,107.16,186,63.00,16.00,-1000.00
2024-05-19 09:15:29.779808,-1,-1,-10,-6,1,0,89,92,132,90,65,107.11,186,54.00,-1.00,-1011.00
2024-05-19 09:15:29.873921,-3,-1,-9,-5,0,0,89,92,132,90,65,107.25,186,63.00,10.00,-1012.00
2024-05-19 09:15:29.984634,-3,0,-9,-4,0,0,89,92,132,90,65,107.20,186,32.00,42.00,-991.00
2024-05-19 09:15:30.078065,-2,0,-10,-3,0,0,89,92,132,90,65,107.37,186,29.00,12.00,-957.00
2024-05-19 09:15:30.189460,-1,0,-10,-3,0,0,89,92,133,90,65,107.17,186,31.00,5.00,-1017.00
2024-05-19 09:15:30.281821,0,0,-10,-3,0,0,89,92,133,90,65,107.19,186,37.00,29.00,-992.00
2024-05-19 09:15:30.332575,0,0,-9,-2,0,0,89,92,132,90,65,107.26,186,31.00,19.00,-1007.00
2024-05-19 09:15:30.496607,0,0,-9,-2,0,0,89,92,132,90,65,107.21,186,31.00,0.00,-1000.00
2024-05-19 09:15:30.543028,0,0,-10,-2,0,0,89,92,132,90,65,107.00,187,29.00,-18.00,-990.00
2024-05-19 09:15:30.638537,-1,-2,-10,-2,0,0,89,92,131,90,65,107.30,187,7.00,5.00,-1045.00
2024-05-19 09:15:30.740549,-3,-1,-10,-1,0,0,88,92,130,90,65,107.26,187,3.00,10.00,-1016.00
2024-05-19 09:15:30.842574,-3,0,-10,-1,0,0,88,92,130,90,65,107.17,187,5.00,10.00,-977.00
2024-05-19 09:15:30.944623,-1,0,-9,0,0,0,88,92,130,90,65,107.20,187,-12.00,24.00,-976.00
2024-05-19 09:15:31.046622,-1,0,-10,0,0,0,88,92,129,90,65,107.05,187,-6.00,26.00,-997.00
2024-05-19 09:15:31.213712,0,0,-10,0,0,0,88,92,129,90,65,107.48,187,-18.00,12.00,-993.00
2024-05-19 09:15:31.250533,0,0,-9,0,0,0,88,92,128,90,65,107.14,187,9.00,-6.00,-995.00
2024-05-19 09:15:31.418346,0,0,-9,0,0,0,88,92,127,90,65,107.12,187,0.00,30.00,-1016.00
2024-05-19 09:15:31.454529,0,0,-9,0,0,0,88,92,127,90,65,106.96,187,-14.00,42.00,-989.00
2024-05-19 09:15:31.623707,0,0,-9,0,0,0,88,92,127,90,65,107.07,188,-28.00,8.00,-989.00
2024-05-19 09:15:31.658456,0,0,-9,0,0,0,88,92,127,90,65,106.93,188,7.00,18.00,-1001.00
2024-05-19 09:15:31.830602,-1,0,-9,0,0,0,88,91,127,90,65,107.42,188,-19.00,20.00,-980.00
2024-05-19 09:15:31.862561,0,0,-9,0,0,0,88,91,128,90,65,107.49,188,-8.00,8.00,-999.00
2024-05-19 09:15:32.032750,0,0,-9,0,0,0,88,91,127,90,65,107.28,188,-3.00,20.00,-1004.00
2024-05-19 09:15:32.066559,0,0,-9,0,0,0,88,91,128,90,65,107.27,188,-32.00,13.00,-986.00
2024-05-19 09:15:32.237691,0,-1,-9,0,0,0,88,91,127,90,65,107.15,188,-1.00,25.00,-1024.00
2024-05-19 09:15:32.270567,0,-1,-9,0,0,0,88,91,128,90,65,107.35,188,-13.00,27.00,-1002.00
2024-05-19 09:15:32.442189,0,-1,-9,0,0,0,88,91,128,90,65,107.40,188,-7.00,21.00,-995.00
2024-05-19 09:15:32.474478,0,-1,-9,0,0,0,88,91,127,90,65,107.34,188,-4.00,28.00,-996.00
2024-05-19 09:15:32.647254,0,-1,-9,0,0,0,88,91,127,90,65,107.47,189,-2.00,1.00,-1013.00
2024-05-19 09:15:32.678720,0,0,-9,0,0,0,88,91,126,90,65,107.13,189,-9.00,21.00,-997.00
2024-05-19 09:15:32.852310,0,0,-9,0,0,0,89,91,126,90,65,107.33,189,-2.00,3.00,-1001.00
2024-05-19 09:15:32.882594,0,0,-9,0,0,0,89,91,126,90,65,107.34,189,-32.00,8.00,-1005.00
2024-05-19 09:15:32.984504,0,0,-9,0,0,0,89,91,125,90,65,107.08,189,-9.00,14.00,-1004.00
2024-05-19 09:15:33.158981,0,-1,-9,0,0,0,89,91,125,80,65,107.07,189,-29.00,30.00,-963.00
2024-05-19 09:15:33.188459,0,-7,-10,0,0,0,89,91,125,80,65,107.11,189,-24.00,3.00,-1022.00
2024-05-19 09:15:33.363808,0,-8,-10,0,-1,0,89,91,126,80,65,107.12,189,-4.00,50.00,-1050.00
2024-05-19 09:15:33.392313,0,-5,-9,0,-3,0,89,91,125,80,65,106.99,189,-51.00,40.00,-1033.00
2024-05-19 09:15:33.568717,0,-4,-10,0,-3,0,89,91,124,80,64,106.91,189,-25.00,32.00,-1010.00
2024-05-19 09:15:33.596316,0,-1,-10,0,-3,0,89,91,124,80,64,107.23,190,-24.00,49.00,-987.00
2024-05-19 09:15:33.773323,-1,0,-10,-1,-3,0,89,91,124,80,64,106.96,190,-38.00,50.00,-982.00
2024-05-19 09:15:33.800287,-1,-1,-10,-1,-2,0,89,93,124,80,64,106.72,190,-45.00,59.00,-990.00
2024-05-19 09:15:33.978202,-2,-1,-10,-1,-2,0,89,93,124,80,64,107.11,190,-34.00,54.00,-999.00
2024-05-19 09:15:34.004365,-2,-2,-10,0,-2,0,89,93,123,80,64,106.95,190,-87.00,40.00,-984.00
2024-05-19 09:15:34.182948,-2,-2,-10,0,-2,0,89,93,124,80,64,106.98,190,-41.00,16.00,-988.00
2024-05-19 09:15:34.183028,-2,-2,-9,0,-2,0,89,93,124,80,64,106.73,190,-49.00,35.00,-996.00
2024-05-19 09:15:34.259532,-3,-1,-9,0,-2,0,89,93,124,80,64,107.02,190,-27.00,30.00,-973.00
2024-05-19 09:15:34.387746,-3,-1,-9,0,-2,0,89,93,124,80,64,106.93,190,-66.00,29.00,-996.00
2024-05-19 09:15:34.463534,-2,-1,-9,0,-2,0,89,93,125,80,64,107.03,190,-33.00,36.00,-985.00
2024-05-19 09:15:34.592592,-2,-1,-9,0,-2,0,89,93,124,80,64,107.25,191,-13.00,45.00,-980.00
2024-05-19 09:15:34.667494,-2,0,-9,0,-1,0,89,93,124,80,64,107.15,191,-30.00,87.00,-970.00
2024-05-19 09:15:34.797392,-1,0,-9,0,-1,0,89,92,124,80,64,107.56,191,4.00,71.00,-1006.00
2024-05-19 09:15:34.871439,-1,-2,-9,0,-1,0,89,92,123,80,64,107.52,191,-16.00,68.00,-999.00
2024-05-19 09:15:35.002171,0,-2,-9,0,-1,0,89,92,122,80,64,107.30,191,-4.00,52.00,-1003.00
2024-05-19 09:15:35.075570,0,0,-9,0,0,0,89,92,122,80,64,107.05,191,13.00,49.00,-1033.00
2024-05-19 09:15:35.177764,0,0,-9,0,0,0,89,92,121,80,64,107.25,191,15.00,31.00,-978.00
2024-05-19 09:15:35.309512,0,-1,-9,0,0,0,89,92,121,80,64,107.02,191,14.00,54.00,-1025.00
2024-05-19 09:15:35.381582,0,-2,-9,0,0,0,89,92,121,80,64,106.87,191,0.00,51.00,-1011.00
2024-05-19 09:15:35.514346,0,-2,-9,0,0,0,89,92,121,80,64,107.18,191,-11.00,25.00,-1034.00
2024-05-19 09:15:35.585571,0,-2,-9,0,0,0,89,92,121,80,64,107.05,192,-11.00,20.00,-1008.00
2024-05-19 09:15:35.687575,0,-2,-9,0,0,0,89,92,121,80,64,107.12,192,0.00,45.00,-1007.00
2024-05-19 09:15:35.821633,0,-1,-9,0,0,0,89,91,121,80,64,107.23,192,11.00,15.00,-1023.00
2024-05-19 09:15:35.891654,0,-2,-9,0,0,0,89,91,122,80,64,107.30,192,13.00,33.00,-1021.00
2024-05-19 09:15:36.026382,0,-2,-9,0,0,0,89,91,121,80,64,107.18,192,-16.00,49.00,-986.00
2024-05-19 09:15:36.095718,0,-2,-9,0,0,0,89,91,122,80,64,107.18,192,20.00,12.00,-995.00
2024-05-19 09:15:36.231442,-1,-2,-9,0,0,0,89,91,122,80,64,106.99,192,1.00,58.00,-1011.00
2024-05-19 09:15:36.299954,-1,-1,-9,0,0,0,89,91,123,80,64,107.08,192,4.00,7.00,-1025.00
2024-05-19 09:15:36.435847,-1,-1,-9,0,0,0,89,91,123,80,64,106.95,192,-1.00,24.00,-994.00
2024-05-19 09:15:36.503575,-1,-1,-9,0,0,0,89,91,123,80,64,106.81,192,-9.00,40.00,-1004.00
2024-05-19 09:15:36.640749,-1,-1,-9,0,0,0,89,91,124,80,64,107.02,193,-26.00,23.00,-972.00
2024-05-19 09:15:36.707658,0,-1,-9,0,0,0,89,91,124,80,64,107.12,193,5.00,18.00,-997.00
2024-05-19 09:15:36.845687,0,-1,-9,0,0,0,89,92,124,80,64,106.93,193,-40.00,33.00,-1020.00
2024-05-19 09:15:36.914736,0,-1,-9,0,0,0,89,92,124,80,64,107.56,193,-23.00,45.00,-1021.00
2024-05-19 09:15:37.014352,0,-1,-9,0,0,0,89,92,124,80,64,107.29,193,26.00,37.00,-1042.00
2024-05-19 09:15:37.128828,0,-1,-10,0,0,0,89,92,125,80,64,107.45,193,6.00,23.00,-990.00
2024-05-19 09:15:37.217764,0,-1,-10,0,0,0,89,92,125,80,64,107.09,193,-2.00,-1.00,-983.00
2024-05-19 09:15:37.357620,0,0,-10,0,0,0,89,92,124,80,64,107.18,193,-14.00,-11.00,-957.00
2024-05-19 09:15:37.421444,0,5,-10,0,0,0,89,92,125,90,64,107.37,193,18.00,-26.00,-1022.00
2024-05-19 09:15:37.562163,0,8,-9,0,0,0,89,92,125,80,63,107.13,193,4.00,-18.00,-997.00
2024-05-19 09:15:37.625504,0,6,-9,0,2,0,89,92,124,80,63,107.44,194,-30.00,-49.00,-1003.00
2024-05-19 09:15:37.766936,0,3,-9,0,2,0,89,92,124,80,63,107.07,194,-19.00,-32.00,-1034.00
2024-05-19 09:15:37.829335,0,0,-9,0,2,0,88,93,124,80,63,107.02,194,-30.00,-51.00,-986.00
2024-05-19 09:15:37.974548,0,0,-9,0,2,0,88,93,124,80,63,107.09,194,-3.00,-31.00,-998.00
2024-05-19 09:15:38.033304,0,0,-9,0,1,0,88,93,125,80,63,107.09,194,-2.00,-55.00,-990.00
2024-05-19 09:15:38.176420,0,1,-9,0,1,0,88,93,125,80,63,107.36,194,-30.00,-8.00,-1005.00
2024-05-19 09:15:38.237631,-1,1,-9,0,1,0,88,93,125,80,63,107.09,194,-17.00,-42.00,-1026.00
2024-05-19 09:15:38.381307,-2,2,-9,0,1,0,88,93,125,80,63,107.19,194,-15.00,-44.00,-998.00
2024-05-19 09:15:38.390027,-2,2,-10,0,1,0,88,93,125,80,63,107.08,194,-34.00,-45.00,-937.00
2024-05-19 09:15:38.586369,-2,1,-10,0,1,0,88,93,126,80,63,107.09,195,0.00,-36.00,-962.00
2024-05-19 09:15:38.594073,-2,2,-10,0,1,0,88,93,126,80,63,107.29,195,-15.00,-36.00,-999.00
2024-05-19 09:15:38.790992,-1,2,-10,0,1,0,88,93,126,80,63,106.99,195,-3.00,-51.00,-1028.00
2024-05-19 09:15:38.798293,-1,2,-10,0,1,0,89,91,126,80,63,107.03,195,1.00,-43.00,-985.00
2024-05-19 09:15:38.995679,-1,2,-9,0,1,0,89,91,125,80,63,106.99,195,-34.00,-48.00,-1012.00
2024-05-19 09:15:39.002096,-1,1,-9,0,1,0,89,91,125,80,63,107.30,195,-8.00,-18.00,-1003.00
2024-05-19 09:15:39.200430,-2,1,-9,0,2,0,89,91,126,80,63,107.25,195,6.00,-33.00,-1031.00
2024-05-19 09:15:39.206038,-3,1,-8,0,2,0,89,91,127,80,63,107.13,195,-16.00,-17.00,-1007.00
2024-05-19 09:15:39.405648,-2,1,-8,1,2,0,89,91,127,80,63,107.29,195,8.00,-26.00,-979.00
2024-05-19 09:15:39.410062,0,1,-8,1,2,0,89,91,127,80,63,107.45,195,-14.00,1.00,-981.00
2024-05-19 09:15:39.610277,0,1,-9,1,2,0,89,91,128,80,63,107.37,196,7.00,15.00,-997.00
2024-05-19 09:15:39.614031,2,0,-9,0,2,0,89,91,128,80,63,107.60,196,-14.00,-5.00,-1045.00
2024-05-19 09:15:39.814862,0,-4,-9,0,2,0,89,91,129,80,63,107.31,196,6.00,28.00,-1041.00
2024-05-19 09:15:39.817938,0,-5,-9,0,1,0,89,91,130,90,63,107.54,196,-2.00,16.00,-1011.00
2024-05-19 09:15:39.920229,0,-3,-10,0,0,0,89,91,130,90,63,107.56,196,-29.00,2.00,-1004.00
2024-05-19 09:15:40.022119,0,-2,-10,0,0,0,89,91,131,90,63,107.22,196,-7.00,-4.00,-975.00
2024-05-19 09:15:40.124207,0,-2,-10,0,0,0,89,91,132,90,63,107.06,196,8.00,22.00,-1011.00
2024-05-19 09:15:40.327065,0,-2,-10,0,0,0,89,91,132,90,63,107.32,196,-1.00,9.00,-1007.00
2024-05-19 09:15:40.328088,0,-2,-10,0,0,0,89,91,132,90,63,107.33,196,6.00,-10.00,-979.00
2024-05-19 09:15:40.531787,0,-2,-10,0,0,0,89,91,132,90,63,107.30,196,-27.00,25.00,-965.00
2024-05-19 09:15:40.531971,0,-1,-10,0,0,0,89,91,132,90,63,107.11,197,-30.00,42.00,-980.00
2024-05-19 09:15:40.634651,0,-1,-10,0,0,0,89,91,131,90,63,107.26,197,-1.00,22.00,-977.00
2024-05-19 09:15:40.736215,0,-1,-10,0,0,0,89,91,131,90,63,107.63,197,-16.00,34.00,-969.00
2024-05-19 09:15:40.839739,-1,-1,-10,0,0,0,89,91,130,90,63,107.18,197,-7.00,43.00,-1002.00
2024-05-19 09:15:40.940927,-1,-1,-10,0,0,0,89,91,129,90,63,107.54,197,-48.00,64.00,-1010.00
2024-05-19 09:15:41.046936,-1,-2,-9,0,0,0,89,91,129,90,63,107.33,197,-7.00,28.00,-1024.00
2024-05-19 09:15:41.145776,-2,-3,-9,0,0,0,89,91,129,90,63,107.11,197,-20.00,43.00,-1009.00
2024-05-19 09:15:41.248562,-2,-3,-9,0,0,0,89,91,127,90,63,107.07,197,-28.00,24.00,-996.00
2024-05-19 09:15:41.351004,-2,-2,-9,0,0,0,89,91,128,90,63,107.24,197,-17.00,56.00,-1024.00
2024-05-19 09:15:41.451373,-1,-2,-9,0,0,0,89,91,128,90,63,106.98,197,3.00,54.00,-1029.00
2024-05-19 09:15:41.553267,-1,-3,-9,0,0,0,89,91,128,90,62,107.27,198,-19.00,48.00,-1003.00
2024-05-19 09:15:41.658425,0,-3,-9,0,0,0,89,91,128,90,62,107.38,198,-13.00,50.00,-1011.00
2024-05-19 09:15:41.706468,-1,-3,-9,0,0,0,89,91,128,90,62,107.07,198,-19.00,76.00,-996.00
2024-05-19 09:15:41.863242,-1,-3,-9,0,0,0,88,92,128,90,62,107.31,198,-5.00,98.00,-993.00
2024-05-19 09:15:41.910157,-1,-5,-9,0,0,0,88,92,129,90,62,106.98,198,-4.00,70.00,-994.00
2024-05-19 09:15:42.012140,0,-5,-9,0,0,0,88,92,129,90,62,107.24,198,41.00,4.00,-1007.00
2024-05-19 09:15:42.113891,0,-4,-4,0,0,0,88,92,129,90,62,107.42,198,-14.00,76.00,-1009.00
2024-05-19 09:15:42.215939,0,-4,1,0,0,0,88,92,129,90,62,106.91,198,-17.00,81.00,-977.00
2024-05-19 09:15:42.374880,0,-5,7,0,0,0,88,92,129,90,62,107.35,198,31.00,46.00,-983.00
2024-05-19 09:15:42.419821,1,-4,13,0,0,0,88,92,130,90,62,107.47,198,40.00,43.00,-1014.00
2024-05-19 09:15:42.579696,1,-3,19,0,0,0,88,92,130,90,62,106.97,199,13.00,51.00,-1016.00
2024-05-19 09:15:42.623816,1,-2,26,0,0,0,88,92,130,90,62,107.24,199,24.00,64.00,-996.00
2024-05-19 09:15:42.725916,1,-2,32,0,0,0,88,92,129,90,62,107.07,199,37.00,31.00,-1004.00
2024-05-19 09:15:42.827930,1,-2,38,0,0,0,88,91,130,90,62,106.99,199,34.00,33.00,-996.00
2024-05-19 09:15:42.929756,1,-2,45,0,0,0,88,91,128,90,62,107.18,199,17.00,44.00,-1014.00
2024-05-19 09:15:43.032098,1,-2,51,0,0,0,88,91,128,90,62,107.34,199,59.00,37.00,-1013.00
2024-05-19 09:15:43.133837,1,-1,57,0,0,0,88,91,128,90,62,106.86,199,40.00,4.00,-1015.00
2024-05-19 09:15:43.296459,1,0,63,0,0,0,88,91,128,90,62,107.29,199,40.00,44.00,-1017.00
2024-05-19 09:15:43.344005,1,0,69,0,0,0,88,91,128,90,62,107.12,199,53.00,4.00,-1030.00
2024-05-19 09:15:43.444484,1,0,75,0,0,0,88,91,128,90,62,106.96,199,30.00,2.00,-986.00
2024-05-19 09:15:43.545885,1,0,80,0,0,0,88,91,128,90,62,107.06,200,21.00,54.00,-1006.00
2024-05-19 09:15:43.643869,1,0,86,0,0,0,88,91,127,90,62,107.20,200,11.00,25.00,-971.00
2024-05-19 09:15:43.808464,1,-1,91,0,0,0,88,91,128,90,62,107.00,200,13.00,25.00,-978.00
2024-05-19 09:15:43.847736,1,-1,97,0,0,0,88,92,128,90,62,107.12,200,52.00,9.00,-1012.00
2024-05-19 09:15:44.013245,2,-1,102,0,0,0,88,92,128,90,62,107.20,200,24.00,10.00,-986.00
2024-05-19 09:15:44.052737,2,0,107,0,0,0,88,92,128,90,62,107.12,200,48.00,38.00,-1013.00
2024-05-19 09:15:44.218868,2,-1,113,0,0,0,88,92,128,90,62,107.09,200,37.00,21.00,-989.00
2024-05-19 09:15:44.255817,2,-1,119,0,0,0,88,92,128,90,62,107.18,200,37.00,17.00,-982.00
2024-05-19 09:15:44.422846,2,0,125,0,0,0,88,92,127,90,62,107.29,200,40.00,13.00,-1005.00
2024-05-19 09:15:44.459807,2,0,131,0,0,0,88,92,127,90,62,107.08,200,37.00,4.00,-1010.00
2024-05-19 09:15:44.630532,2,0,137,0,0,0,88,92,127,90,62,107.14,201,45.00,6.00,-980.00
2024-05-19 09:15:44.663743,2,0,143,0,0,0,88,92,128,90,62,107.10,201,13.00,-7.00,-982.00
2024-05-19 09:15:44.832485,2,0,149,0,0,0,88,92,127,90,62,106.91,201,7.00,11.00,-970.00
2024-05-19 09:15:44.867774,1,0,155,0,0,0,88,91,127,90,62,107.05,201,-7.00,14.00,-989.00
2024-05-19 09:15:45.037301,1,0,161,0,0,0,88,91,127,90,62,107.14,201,22.00,-11.00,-959.00
2024-05-19 09:15:45.071705,1,0,167,0,0,0,88,91,127,80,62,106.99,201,-12.00,4.00,-988.00
2024-05-19 09:15:45.242023,1,0,173,0,0,0,88,91,127,80,62,106.97,201,11.00,-16.00,-1002.00
2024-05-19 09:15:45.275785,1,0,179,0,0,0,88,91,127,90,62,107.11,201,12.00,-18.00,-1018.00
2024-05-19 09:15:45.446831,1,1,-174,0,0,0,88,91,128,90,62,106.83,201,1.00,-30.00,-1001.00
2024-05-19 09:15:45.479743,1,1,-168,0,0,0,88,91,128,90,62,107.09,201,-14.00,-3.00,-967.00
2024-05-19 09:15:45.651655,1,1,-162,0,0,0,88,91,127,90,62,107.22,202,2.00,-26.00,-997.00
2024-05-19 09:15:45.683632,0,1,-156,0,0,0,88,91,128,90,62,107.06,202,17.00,-21.00,-998.00
2024-05-19 09:15:45.734897,0,2,-150,0,0,0,88,91,128,90,62,107.42,202,-17.00,-36.00,-989.00
2024-05-19 09:15:45.856437,0,2,-144,0,0,0,88,91,128,90,62,107.20,202,-17.00,7.00,-1010.00
2024-05-19 09:15:45.939726,0,2,-138,0,0,0,88,91,128,90,62,107.20,202,-12.00,-28.00,-998.00
2024-05-19 09:15:46.061680,0,1,-132,0,0,0,88,91,128,90,62,106.91,202,-1.00,-28.00,-1000.00
2024-05-19 09:15:46.142965,-1,1,-126,0,0,0,88,91,128,90,62,107.27,202,-31.00,-15.00,-992.00
2024-05-19 09:15:46.266049,-1,1,-121,0,0,0,88,91,128,90,62,107.26,202,-27.00,-28.00,-1001.00
2024-05-19 09:15:46.346953,-1,1,-115,0,0,0,88,91,127,90,62,107.39,202,-32.00,-27.00,-1006.00
2024-05-19 09:15:46.470815,-2,1,-109,0,0,0,88,91,128,90,61,106.96,202,-22.00,-6.00,-1031.00
2024-05-19 09:15:46.550987,-2,1,-103,0,0,0,88,91,127,90,61,107.05,203,-39.00,-6.00,-1005.00
2024-05-19 09:15:46.678601,-2,0,-97,0,0,0,88,91,127,90,61,107.12,203,-29.00,4.00,-1002.00
2024-05-19 09:15:46.754954,-2,0,-91,0,0,0,88,91,128,90,61,106.99,203,-22.00,-11.00,-1011.00
2024-05-19 09:15:46.857129,-2,0,-85,0,0,0,88,91,127,90,61,107.14,203,-30.00,-2.00,-1002.00
2024-05-19 09:15:46.982889,-2,0,-79,0,0,0,88,91,127,90,61,107.16,203,-33.00,27.00,-996.00
2024-05-19 09:15:47.061336,-2,0,-72,0,0,0,88,91,127,90,61,106.87,203,-49.00,-9.00,-979.00
2024-05-19 09:15:47.187652,-2,0,-66,0,0,0,88,91,128,90,61,107.59,203,-48.00,20.00,-1021.00
2024-05-19 09:15:47.264823,-2,0,-60,0,0,0,88,91,128,90,61,106.81,203,-19.00,2.00,-998.00
2024-05-19 09:15:47.392453,-2,0,-53,0,0,0,88,91,128,90,61,107.16,203,-40.00,2.00,-972.00
2024-05-19 09:15:47.468537,-2,0,-47,0,0,0,88,91,128,90,61,107.42,203,-39.00,39.00,-992.00
2024-05-19 09:15:47.597232,-1,0,-41,0,0,0,88,91,128,90,61,107.32,204,-10.00,2.00,-1001.00
2024-05-19 09:15:47.672910,-1,0,-34,0,0,0,88,91,129,90,61,106.93,204,-7.00,29.00,-984.00
2024-05-19 09:15:47.802004,0,0,-28,0,0,0,88,91,129,90,61,107.04,204,-3.00,34.00,-1022.00
2024-05-19 09:15:47.876993,0,0,-23,0,0,0,89,92,129,90,61,107.32,204,-5.00,14.00,-997.00
2024-05-19 09:15:48.006810,0,0,-20,0,0,0,89,92,129,90,61,107.24,204,3.00,46.00,-1003.00
2024-05-19 09:15:48.080813,0,0,-18,0,0,0,89,92,128,90,61,107.30,204,-38.00,45.00,-965.00
2024-05-19 09:15:48.211669,0,-1,-16,0,0,0,89,92,128,90,61,107.16,204,-1.00,27.00,-984.00
2024-05-19 09:15:48.284803,0,-1,-14,0,0,0,89,92,127,90,61,107.18,204,-6.00,23.00,-996.00
2024-05-19 09:15:48.416783,0,0,-13,0,0,0,89,92,127,90,61,107.16,204,-23.00,16.00,-996.00
2024-05-19 09:15:48.488744,0,0,-12,0,0,0,89,92,126,90,61,107.23,204,-15.00,10.00,-958.00
2024-05-19 09:15:48.590866,0,-1,-11,0,0,0,89,92,125,90,61,107.23,205,2.00,-3.00,-1016.00
2024-05-19 09:15:48.723768,0,0,-11,0,0,0,89,92,124,90,61,107.34,205,12.00,27.00,-984.00
2024-05-19 09:15:48.794661,0,0,-11,0,0,0,89,92,123,90,61,107.05,205,0.00,8.00,-988.00
2024-05-19 09:15:48.896885,0,0,-11,0,0,0,89,92,122,90,61,107.12,205,3.00,3.00,-1019.00
2024-05-19 09:15:49.031810,0,0,-11,0,0,0,89,92,121,80,61,107.04,205,8.00,12.00,-1003.00
2024-05-19 09:15:49.100798,0,0,-11,0,0,0,89,92,121,80,61,107.43,205,-4.00,39.00,-994.00
2024-05-19 09:15:49.236229,0,0,-11,0,0,0,89,92,121,80,61,107.15,205,1.00,6.00,-986.00
2024-05-19 09:15:49.304923,0,0,-11,0,0,0,89,92,120,80,61,106.92,205,1.00,10.00,-1017.00
2024-05-19 09:15:49.440684,0,0,-11,0,0,0,89,92,120,80,61,107.08,205,2.00,11.00,-1001.00
2024-05-19 09:15:49.508847,0,0,-11,0,0,0,89,92,120,80,61,107.36,205,-1.00,44.00,-1016.00
2024-05-19 09:15:49.559739,0,0,-11,0,0,0,89,92,120,80,61,107.06,206,4.00,25.00,-1014.00
2024-05-19 09:15:49.747734,0,0,-11,0,0,0,89,92,119,80,61,106.94,206,11.00,15.00,-1015.00
2024-05-19 09:15:49.763554,0,0,-11,0,0,0,89,92,119,80,61,107.34,206,20.00,37.00,-1024.00
2024-05-19 09:15:49.893200,0,0,-11,0,0,0,89,91,119,80,61,106.87,206,0.00,18.00,-988.00
2024-05-19 09:15:49.967637,0,-1,-11,0,0,0,89,91,119,80,61,107.04,206,0.00,11.00,-1021.00
2024-05-19 09:15:50.157383,0,0,-11,0,0,0,89,91,119,80,61,107.12,206,-12.00,14.00,-987.00
2024-05-19 09:15:50.171446,0,0,-11,0,0,0,89,91,119,80,61,107.07,206,-14.00,3.00,-1001.00
2024-05-19 09:15:50.362600,0,0,-11,0,0,0,89,91,119,80,61,106.81,206,-2.00,21.00,-1019.00
2024-05-19 09:15:50.375422,0,0,-11,0,0,0,89,91,120,80,61,106.75,206,-11.00,27.00,-996.00
2024-05-19 09:15:50.540965,0,0,-11,0,0,0,89,91,120,80,61,107.28,206,7.00,23.00,-1025.00
2024-05-19 09:15:50.579410,0,0,-11,0,0,0,89,91,121,80,61,107.13,207,-9.00,16.00,-1000.00
2024-05-19 09:15:50.771757,0,0,-11,0,0,0,89,91,122,80,61,107.11,207,-20.00,21.00,-1004.00
2024-05-19 09:15:50.783421,0,0,-16,0,0,0,89,91,123,80,61,107.13,207,-34.00,11.00,-975.00
2024-05-19 09:15:50.976389,0,0,-22,0,0,0,89,91,123,80,61,106.91,207,-18.00,-1.00,-988.00
2024-05-19 09:15:50.987442,0,0,-28,0,0,0,89,91,123,80,61,106.85,207,-12.00,-5.00,-986.00
2024-05-19 09:15:51.089769,0,0,-34,0,0,0,89,91,124,80,61,106.96,207,-20.00,20.00,-982.00
2024-05-19 09:15:51.283587,0,0,-40,0,0,0,89,91,124,80,61,106.95,207,6.00,8.00,-985.00
2024-05-19 09:15:51.293422,0,0,-46,0,0,0,89,91,124,80,61,107.10,207,8.00,-13.00,-999.00
2024-05-19 09:15:51.488434,0,0,-53,0,0,0,89,91,123,80,61,106.94,207,2.00,-3.00,-1006.00
2024-05-19 09:15:51.497340,0,0,-59,0,0,0,89,91,123,80,60,107.07,207,-14.00,-2.00,-1001.00
2024-05-19 09:15:51.693160,1,0,-65,0,0,0,89,91,123,80,60,107.16,208,-17.00,5.00,-998.00
2024-05-19 09:15:51.701302,0,0,-71,0,0,0,89,91,123,80,60,107.35,208,22.00,2.00,-1023.00
2024-05-19 09:15:51.898004,0,0,-77,0,0,0,89,91,122,80,60,106.97,208,32.00,8.00,-1044.00
2024-05-19 09:15:51.905333,0,0,-84,0,0,0,89,92,122,80,60,107.19,208,-7.00,6.00,-971.00
2024-05-19 09:15:52.007319,1,0,-90,0,0,0,89,92,121,80,60,107.14,208,2.00,-1.00,-1005.00
2024-05-19 09:15:52.109362,1,0,-96,0,0,0,89,92,121,80,60,106.77,208,28.00,-11.00,-976.00
2024-05-19 09:15:52.307510,1,0,-102,0,0,0,89,92,121,80,60,106.77,208,23.00,-19.00,-991.00
2024-05-19 09:15:52.313283,1,0,-108,0,0,0,89,92,121,80,60,107.05,208,5.00,-9.00,-985.00
2024-05-19 09:15:52.512339,1,0,-114,0,0,0,89,92,121,80,60,106.94,208,10.00,9.00,-1003.00
2024-05-19 09:15:52.517433,1,0,-120,0,0,0,89,92,121,80,60,107.13,208,12.00,5.00,-1037.00
2024-05-19 09:15:52.717209,1,0,-127,0,0,0,89,92,121,80,60,107.08,209,15.00,3.00,-1015.00
2024-05-19 09:15:52.721277,1,0,-133,0,0,0,89,92,121,80,60,107.20,209,34.00,10.00,-1021.00
2024-05-19 09:15:52.876744,1,0,-139,0,0,0,89,92,121,80,60,106.96,209,4.00,27.00,-1005.00
2024-05-19 09:15:52.925275,1,0,-145,0,0,0,88,91,122,80,60,107.09,209,8.00,20.00,-997.00
2024-05-19 09:15:53.027548,1,0,-152,0,0,0,88,91,122,80,60,107.05,209,0.00,6.00,-1029.00
2024-05-19 09:15:53.129438,0,0,-158,0,0,0,88,91,122,80,60,107.06,209,15.00,14.00,-1011.00
2024-05-19 09:15:53.231335,1,0,-170,0,0,0,88,91,123,80,60,107.02,209,3.00,0.00,-977.00
2024-05-19 09:15:53.333385,1,0,-176,0,0,0,88,91,123,80,60,107.01,209,6.00,23.00,-1028.00
2024-05-19 09:15:53.536831,1,0,177,0,0,0,88,91,124,80,60,107.08,209,9.00,19.00,-1005.00
2024-05-19 09:15:53.537011,0,0,171,0,0,0,88,91,125,80,60,107.46,210,18.00,27.00,-1029.00
2024-05-19 09:15:53.588454,0,0,165,0,0,0,88,91,125,80,60,107.25,210,-1.00,8.00,-982.00
2024-05-19 09:15:53.741569,0,0,159,0,0,0,88,91,126,80,60,107.45,210,8.00,2.00,-983.00
2024-05-19 09:15:53.792585,0,0,153,0,0,0,88,91,126,80,60,107.14,210,0.00,6.00,-1001.00
2024-05-19 09:15:53.894202,0,0,147,0,0,0,89,92,126,80,60,107.13,210,8.00,-3.00,-1000.00
2024-05-19 09:15:53.996933,1,0,140,0,0,0,89,92,127,80,60,107.05,210,-15.00,1.00,-946.00
2024-05-19 09:15:54.098353,1,0,134,0,0,0,89,92,127,90,60,107.09,210,21.00,-11.00,-1023.00
2024-05-19 09:15:54.253357,1,0,128,0,0,0,89,92,127,90,60,106.93,210,4.00,13.00,-1003.00
2024-05-19 09:15:54.302163,1,0,122,0,0,0,89,92,128,90,60,107.08,210,-19.00,32.00,-968.00
2024-05-19 09:15:54.457931,1,-1,116,0,0,0,89,92,128,90,60,107.30,210,28.00,12.00,-1006.00
2024-05-19 09:15:54.509068,0,-1,109,0,0,0,89,92,128,90,60,107.40,211,-11.00,28.00,-1005.00
2024-05-19 09:15:54.608498,0,-2,103,0,0,0,89,92,128,90,60,107.37,211,5.00,25.00,-1011.00
2024-05-19 09:15:54.765396,0,-2,97,0,0,0,89,92,129,90,60,107.38,211,-6.00,23.00,-977.00
2024-05-19 09:15:54.812948,0,-2,90,0,0,0,89,92,129,90,60,107.08,211,21.00,31.00,-991.00
2024-05-19 09:15:54.914453,0,-1,84,0,0,0,89,91,128,90,60,106.98,211,0.00,13.00,-989.00
2024-05-19 09:15:55.016835,0,-1,78,0,0,0,89,91,128,90,60,107.23,211,18.00,26.00,-985.00
2024-05-19 09:15:55.118432,0,-1,72,0,0,0,89,91,128,90,60,107.06,211,8.00,-1.00,-982.00
2024-05-19 09:15:55.220450,1,-1,66,1,0,0,89,91,128,90,60,107.22,211,-14.00,30.00,-998.00
2024-05-19 09:15:55.379537,1,0,60,0,0,0,89,91,128,90,60,107.17,211,3.00,13.00,-999.00
2024-05-19 09:15:55.424048,0,0,54,0,0,0,89,91,127,90,60,107.02,211,1.00,9.00,-1011.00
2024-05-19 09:15:55.526323,0,0,48,0,0,0,89,91,127,90,60,107.02,212,8.00,18.00,-1012.00
2024-05-19 09:15:55.628088,0,0,42,0,0,0,89,91,127,90,60,106.91,212,1.00,31.00,-1024.00
2024-05-19 09:15:55.730120,0,0,36,0,0,0,89,91,126,90,60,107.27,212,4.00,16.00,-1018.00
2024-05-19 09:15:55.832116,0,0,30,0,0,0,89,91,126,90,60,107.09,212,-11.00,6.00,-1009.00
2024-05-19 09:15:55.934702,0,0,25,0,0,0,89,92,126,90,60,107.04,212,-9.00,-4.00,-975.00
2024-05-19 09:15:56.042140,0,0,19,0,0,0,89,92,125,90,60,107.31,212,8.00,10.00,-996.00
2024-05-19 09:15:56.142421,0,0,12,0,0,0,89,92,125,90,60,106.99,212,-39.00,11.00,-999.00
2024-05-19 09:15:56.241870,0,0,7,0,0,0,89,92,125,90,60,107.12,212,-5.00,-29.00,-968.00
2024-05-19 09:15:56.342201,0,0,2,0,0,0,89,92,124,90,60,107.12,212,27.00,6.00,-1023.00
2024-05-19 09:15:56.446582,0,0,0,0,0,0,89,92,124,90,60,106.92,212,12.00,-7.00,-1025.00
2024-05-19 09:15:56.549011,0,0,-3,0,0,0,89,92,124,80,60,107.24,213,3.00,-11.00,-1006.00
2024-05-19 09:15:56.648034,0,0,-5,0,0,0,89,92,124,80,60,107.05,213,-4.00,-1.00,-1008.00
2024-05-19 09:15:56.813157,0,0,-6,0,0,0,89,92,123,80,60,107.24,213,0.00,-10.00,-1013.00
2024-05-19 09:15:56.852275,0,0,-7,0,0,0,89,92,123,80,60,107.11,213,-10.00,-9.00,-1040.00
2024-05-19 09:15:57.017837,0,0,-8,0,0,0,88,92,123,80,60,106.93,213,21.00,-13.00,-1018.00
2024-05-19 09:15:57.056529,0,0,-9,0,0,0,88,92,123,80,60,106.87,213,-8.00,-4.00,-1010.00
2024-05-19 09:15:57.159074,0,0,-9,0,0,0,88,92,123,80,60,107.00,213,-15.00,-7.00,-991.00
2024-05-19 09:15:57.210468,-1,0,-9,0,0,0,88,92,123,80,60,107.11,213,-24.00,22.00,-990.00
2024-05-19 09:15:57.325640,-1,0,-9,0,0,0,88,92,124,80,60,107.03,213,-3.00,-1.00,-1012.00
2024-05-19 09:15:57.414137,0,0,-9,0,0,0,88,92,124,80,60,106.77,213,2.00,-14.00,-997.00
2024-05-19 09:15:57.529953,0,0,-9,0,0,0,88,92,124,80,60,107.20,214,-12.00,3.00,-1008.00
2024-05-19 09:15:57.618228,0,0,-9,0,0,0,88,92,124,80,60,107.25,214,-2.00,-18.00,-1002.00
2024-05-19 09:15:57.734833,0,0,-9,0,0,0,88,92,125,80,60,106.97,214,-4.00,-18.00,-998.00
2024-05-19 09:15:57.822047,0,0,-9,0,0,0,88,92,125,80,60,107.25,214,-26.00,-19.00,-960.00
2024-05-19 09:15:57.939549,0,0,-9,0,0,0,88,92,125,80,60,107.00,214,-9.00,8.00,-994.00
2024-05-19 09:15:58.025986,0,0,-9,0,0,0,88,92,126,80,60,107.01,214,-24.00,-19.00,-972.00
2024-05-19 09:15:58.128049,0,0,-9,0,0,0,88,92,126,90,60,107.35,214,-3.00,-7.00,-986.00
2024-05-19 09:15:58.246822,0,0,-9,0,0,0,88,92,126,90,60,106.75,214,-3.00,-14.00,-1032.00
2024-05-19 09:15:58.331990,0,1,-9,0,0,0,88,92,126,90,60,107.13,214,-17.00,12.00,-990.00
2024-05-19 09:15:58.451676,0,1,-9,0,0,0,88,92,126,90,60,107.28,214,-8.00,-19.00,-982.00
2024-05-19 09:15:58.536301,0,1,-9,0,0,0,88,92,126,90,59,107.29,215,-13.00,-23.00,-983.00
2024-05-19 09:15:58.656471,0,1,-9,0,0,0,88,92,126,90,59,106.93,215,11.00,-11.00,-1029.00
2024-05-19 09:15:58.739984,0,0,-9,0,0,0,88,92,127,90,59,106.84,215,-19.00,17.00,-989.00
2024-05-19 09:15:58.842054,0,0,-9,0,0,0,88,92,126,90,59,106.98,215,-32.00,-14.00,-990.00
2024-05-19 09:15:58.944324,-1,0,-9,0,0,0,89,92,126,90,59,107.25,215,-14.00,-19.00,-1021.00
2024-05-19 09:15:59.066370,-1,1,-9,0,0,0,89,92,126,90,59,106.84,215,-16.00,-24.00,-1008.00
2024-05-19 09:15:59.147883,-1,0,-9,0,0,0,89,92,126,90,59,106.81,215,-30.00,-9.00,-992.00
2024-05-19 09:15:59.271237,0,0,-9,0,0,0,89,92,127,90,59,106.84,215,-27.00,-5.00,-1223.00
2024-05-19 09:15:59.351953,0,-1,-9,0,0,-4,89,92,131,90,59,107.17,215,1.00,-31.00,-1717.00
2024-05-19 09:15:59.475644,0,-10,-9,0,0,-10,89,92,144,100,59,107.23,215,-22.00,115.00,-1288.00
2024-05-19 09:15:59.556103,0,-100,-8,-1,-6,-11,89,92,6553,110,59,107.62,216,-50.00,606.00,-1128.00
2024-05-19 09:15:59.680318,1,136,-8,-2,-10,2,89,92,590,110,59,107.50,216,-38.00,519.00,-832.00
2024-05-19 09:15:59.759836,0,22,-10,-1,-5,12,89,92,153,100,59,107.16,216,-49.00,279.00,-1406.00
2024-05-19 09:15:59.885106,1,-14,-9,-2,-5,10,89,92,139,90,59,106.74,216,-17.00,-88.00,-1614.00
2024-05-19 09:15:59.963819,0,3,-8,-2,-7,6,89,92,126,80,59,107.30,216,13.00,-58.00,-1510.00
2024-05-19 09:16:00.089904,0,8,-9,-1,-5,3,89,92,123,80,59,106.99,216,-4.00,36.00,-1500.00
2024-05-19 09:16:00.167866,0,5,-9,-1,-3,1,89,92,122,80,59,107.25,216,11.00,10.00,-1316.00
2024-05-19 09:16:00.295290,0,3,-9,-1,-2,0,89,92,123,70,59,107.11,216,-5.00,-2.00,-1215.00
2024-05-19 09:16:00.371848,0,2,-9,0,-2,-1,89,92,124,80,59,107.19,216,8.00,-7.00,-1148.00
2024-05-19 09:16:00.499489,0,1,-9,0,-2,-1,89,92,127,80,59,106.96,216,-1.00,-9.00,-1065.00
2024-05-19 09:16:00.576160,0,1,-9,0,-1,-1,89,92,128,80,59,107.10,217,1.00,0.00,-1002.00
2024-05-19 09:16:00.626831,0,1,-9,0,-1,-1,89,92,131,80,59,106.97,217,-5.00,-3.00,-968.00
2024-05-19 09:16:00.806608,0,1,-9,0,-1,0,89,92,132,80,59,106.90,217,-7.00,19.00,-964.00
2024-05-19 09:16:00.830747,0,3,-9,0,-1,0,89,92,132,80,59,106.97,217,-7.00,-2.00,-967.00
2024-05-19 09:16:01.011452,0,3,-9,0,0,0,88,91,132,80,59,107.20,217,11.00,6.00,-1010.00
2024-05-19 09:16:01.034754,0,2,-9,0,0,0,88,91,133,80,59,106.86,217,-13.00,8.00,-966.00
2024-05-19 09:16:01.136777,0,2,-9,0,0,0,88,91,133,80,59,106.76,217,-4.00,-19.00,-982.00
2024-05-19 09:16:01.318676,0,2,-9,0,0,0,88,91,133,80,59,106.86,217,20.00,-2.00,-1015.00
2024-05-19 09:16:01.340753,0,2,-9,0,0,0,88,91,132,80,59,107.14,217,20.00,10.00,-1016.00
2024-05-19 09:16:01.523503,0,2,-9,0,0,0,88,91,132,80,58,107.51,217,-13.00,9.00,-991.00
2024-05-19 09:16:01.544948,0,2,-9,0,0,0,88,91,132,80,58,106.81,218,2.00,-3.00,-1010.00
2024-05-19 09:16:01.728284,0,2,-9,0,0,0,88,91,131,80,58,106.91,218,19.00,-29.00,-1014.00
2024-05-19 09:16:01.748735,0,2,-9,0,0,0,88,91,131,80,58,107.20,218,-33.00,-3.00,-990.00
2024-05-19 09:16:01.884740,0,2,-9,0,0,0,88,91,130,80,58,107.20,218,3.00,-23.00,-1000.00
2024-05-19 09:16:01.952763,0,2,-9,0,0,0,89,92,130,80,58,106.75,218,4.00,-1.00,-1040.00
2024-05-19 09:16:02.137864,0,1,-9,0,0,0,89,92,129,80,58,107.26,218,-2.00,-9.00,-982.00
2024-05-19 09:16:02.156762,0,1,-9,0,0,0,89,92,129,80,58,107.18,218,26.00,-9.00,-1019.00
2024-05-19 09:16:02.342642,0,1,-9,0,0,0,89,92,128,80,58,107.14,218,39.00,-27.00,-968.00
2024-05-19 09:16:02.360655,1,1,-9,0,0,0,89,92,128,80,58,107.14,218,30.00,5.00,-1013.00
2024-05-19 09:16:02.552057,1,1,-9,0,0,0,89,92,128,80,58,106.96,218,22.00,-22.00,-979.00
2024-05-19 09:16:02.564593,2,1,-9,0,0,0,89,92,128,80,58,106.95,219,46.00,4.00,-1009.00
2024-05-19 09:16:02.752387,2,1,-9,0,0,0,89,92,128,80,58,107.10,219,39.00,-11.00,-1009.00
2024-05-19 09:16:02.768548,2,1,-10,0,0,0,89,92,129,80,58,107.16,219,47.00,-8.00,-999.00
2024-05-19 09:16:02.870795,3,1,-9,0,0,0,89,92,129,80,58,106.66,219,63.00,-29.00,-989.00
2024-05-19 09:16:03.059465,3,1,-9,0,0,0,89,92,129,80,58,107.03,219,45.00,-3.00,-1005.00
2024-05-19 09:16:03.074676,3,1,-9,0,0,0,89,92,129,80,58,107.08,219,54.00,-5.00,-1023.00
2024-05-19 09:16:03.264393,3,1,-9,0,0,0,89,92,130,80,58,107.00,219,39.00,-26.00,-990.00
2024-05-19 09:16:03.278579,3,1,-9,0,0,0,89,92,130,80,58,106.96,219,49.00,-1.00,-999.00
2024-05-19 09:16:03.469702,3,1,-9,0,0,0,89,92,130,80,58,106.92,219,29.00,-13.00,-975.00
2024-05-19 09:16:03.482716,3,0,-9,0,0,0,89,92,131,80,57,107.05,219,53.00,-19.00,-1012.00
2024-05-19 09:16:03.674262,3,0,-9,0,0,0,89,92,130,80,57,106.79,220,43.00,-34.00,-973.00
2024-05-19 09:16:03.686703,3,0,-9,0,0,0,89,92,130,80,57,107.00,220,60.00,0.00,-977.00
2024-05-19 09:16:03.878969,3,0,-9,0,0,0,89,92,130,80,57,106.89,220,32.00,-36.00,-966.00
2024-05-19 09:16:03.890682,3,0,-9,0,0,0,89,92,131,80,57,106.96,220,40.00,-16.00,-997.00
2024-05-19 09:16:04.083661,3,1,-9,0,0,0,89,93,130,80,57,107.01,220,25.00,6.00,-987.00
2024-05-19 09:16:04.094823,3,0,-9,0,0,0,89,93,131,80,57,106.79,220,33.00,-16.00,-975.00
2024-05-19 09:16:04.260639,2,0,-9,0,0,0,89,93,131,80,57,107.03,220,56.00,-16.00,-980.00
2024-05-19 09:16:04.298667,2,0,-9,0,0,0,89,93,131,80,57,107.09,220,35.00,-10.00,-1009.00
2024-05-19 09:16:04.493623,2,0,-9,0,0,0,89,93,131,80,57,106.98,220,73.00,-30.00,-1009.00
2024-05-19 09:16:04.502687,2,1,-9,0,0,0,89,93,131,80,57,107.06,220,69.00,-33.00,-1015.00
2024-05-19 09:16:04.553681,3,1,-9,0,0,0,89,93,131,80,57,107.05,221,29.00,-21.00,-1001.00
2024-05-19 09:16:04.698154,3,0,-9,0,0,0,89,93,131,80,57,106.79,221,8.00,-23.00,-993.00
2024-05-19 09:16:04.757659,3,1,-9,0,0,0,89,93,131,80,57,107.52,221,26.00,-27.00,-986.00
2024-05-19 09:16:04.860271,2,1,-9,0,0,0,89,93,131,80,57,106.95,221,45.00,-37.00,-998.00
2024-05-19 09:16:04.962163,2,1,-9,0,0,0,89,92,131,80,57,107.01,221,38.00,-14.00,-995.00
2024-05-19 09:16:05.108051,2,2,-9,0,0,0,89,92,132,80,57,107.13,221,35.00,-44.00,-1019.00
2024-05-19 09:16:05.165622,1,1,-9,0,0,0,89,92,131,80,57,107.35,221,35.00,-16.00,-979.00
2024-05-19 09:16:05.312453,1,2,-9,0,0,0,89,92,131,80,57,106.94,221,36.00,-41.00,-1011.00
2024-05-19 09:16:05.369667,1,1,-9,0,0,0,89,92,131,80,57,106.63,221,37.00,-53.00,-1001.00
2024-05-19 09:16:05.518535,1,2,-9,0,0,0,89,92,131,80,57,107.23,221,8.00,-11.00,-980.00
2024-05-19 09:16:05.573590,1,3,-9,0,0,0,89,92,131,80,57,107.02,222,38.00,-39.00,-983.00
2024-05-19 09:16:05.721954,1,2,-9,0,0,0,89,92,131,80,57,106.92,222,12.00,-22.00,-1028.00
2024-05-19 09:16:05.777647,1,2,-9,0,0,0,89,92,132,80,57,106.88,222,21.00,-30.00,-993.00
2024-05-19 09:16:05.926641,1,2,-9,0,0,0,89,92,132,80,57,107.00,222,24.00,-39.00,-1285.00
2024-05-19 09:16:05.981509,0,2,-9,0,0,-2,88,91,137,80,57,107.51,222,32.00,-51.00,-1679.00
2024-05-19 09:16:06.131412,0,3,-9,0,0,-8,88,91,156,90,57,107.64,222,78.00,-85.00,-1770.00
2024-05-19 09:16:06.185483,0,50,-9,0,2,-14,88,91,601,100,57,107.61,222,14.00,660.00,-1332.00
2024-05-19 09:16:06.336239,0,173,-10,2,10,-4,88,91,664,110,57,107.25,222,58.00,895.00,-1051.00
2024-05-19 09:16:06.389434,2,-61,-7,1,5,9,88,91,151,110,57,107.77,222,60.00,543.00,-1070.00
2024-05-19 09:16:06.541473,0,5,-6,1,1,9,88,91,139,100,57,107.54,222,32.00,10.00,-1246.00
2024-05-19 09:16:06.593442,0,-1,-6,1,2,6,88,91,133,90,57,107.35,223,18.00,-23.00,-1417.00
2024-05-19 09:16:06.745842,0,-3,-7,1,1,3,88,91,130,90,57,107.07,223,7.00,-43.00,-1224.00
2024-05-19 09:16:06.797807,1,-1,-9,0,0,0,88,91,129,80,57,107.08,223,14.00,-6.00,-1143.00
2024-05-19 09:16:06.950600,1,1,-9,0,0,0,88,91,129,80,57,107.26,223,17.00,-43.00,-1038.00
2024-05-19 09:16:07.004183,0,2,-9,0,0,-1,89,92,130,80,57,106.92,223,-17.00,-15.00,-962.00
2024-05-19 09:16:07.103877,0,1,-9,0,0,-1,89,92,130,90,57,106.86,223,-5.00,-35.00,-970.00
2024-05-19 09:16:07.205431,1,0,-9,0,0,0,89,92,130,90,57,107.07,223,16.00,-24.00,-982.00
2024-05-19 09:16:07.360212,1,0,-9,0,0,0,89,92,131,90,57,107.14,223,23.00,-21.00,-1014.00
2024-05-19 09:16:07.409404,1,0,-9,0,0,0,89,92,131,90,57,107.11,223,20.00,-10.00,-972.00
2024-05-19 09:16:07.565011,1,0,-9,0,0,0,89,92,131,90,57,106.90,223,29.00,-23.00,-1009.00
2024-05-19 09:16:07.613398,1,0,-9,0,0,0,89,92,131,90,57,106.98,224,27.00,-32.00,-1000.00
2024-05-19 09:16:07.769783,1,0,-9,0,0,0,89,92,130,90,57,106.94,224,26.00,-14.00,-1025.00
2024-05-19 09:16:07.817408,2,0,-9,0,0,0,89,92,130,90,57,106.62,224,34.00,-38.00,-1014.00
2024-05-19 09:16:07.868382,2,0,-9,0,0,0,89,92,131,80,57,107.02,224,44.00,-9.00,-1039.00
2024-05-19 09:16:08.076998,2,0,-9,0,0,0,89,93,131,80,57,107.03,224,30.00,-37.00,-992.00
2024-05-19 09:16:08.077042,2,0,-9,0,0,0,89,93,130,80,57,107.11,224,15.00,-44.00,-986.00
2024-05-19 09:16:08.174404,1,0,-9,0,0,0,89,93,130,80,57,107.05,224,26.00,-31.00,-1019.00
2024-05-19 09:16:08.281823,1,1,-9,0,0,0,89,93,130,80,57,106.93,224,23.00,-36.00,-1005.00
2024-05-19 09:16:08.378428,1,1,-9,0,0,0,89,93,131,80,57,106.97,224,0.00,-49.00,-1013.00
2024-05-19 09:16:08.486604,1,0,-9,0,0,0,89,93,130,80,57,107.09,224,32.00,-32.00,-1013.00
2024-05-19 09:16:08.582379,1,0,-9,0,0,0,89,93,130,80,57,106.80,225,34.00,-32.00,-990.00
