TS,pitch,roll,yaw,vgx,vgy,vgz,templ,temph,tof,h,bat,baro,time,agx,agy,agz
2024-05-19 09:16:51.084570,1,0,-7,0,0,0,90,92,10,0,54,105.24,246,15.00,0.00,-998.00
2024-05-19 09:16:51.116357,1,0,-7,0,0,0,90,92,10,0,54,105.63,246,18.00,0.00,-1000.00
2024-05-19 09:16:51.289368,1,0,-7,0,0,0,91,92,10,0,54,105.44,246,16.00,0.00,-999.00
2024-05-19 09:16:51.320055,1,0,-7,0,0,0,91,92,10,0,54,105.54,246,17.00,0.00,-999.00
2024-05-19 09:16:51.470093,1,0,-7,0,0,0,91,92,10,0,54,105.63,246,17.00,0.00,-997.00
2024-05-19 09:16:51.524506,1,0,-7,0,0,0,91,92,10,0,54,105.25,246,18.00,0.00,-999.00
2024-05-19 09:16:51.699015,1,0,-7,0,0,0,91,92,10,0,54,105.31,246,17.00,0.00,-1001.00
2024-05-19 09:16:51.727760,1,0,-7,0,0,0,91,92,10,0,54,105.70,246,17.00,0.00,-1002.00
2024-05-19 09:16:51.903793,1,0,-7,0,0,0,91,92,10,0,54,105.32,246,17.00,0.00,-999.00
2024-05-19 09:16:51.931816,1,0,-7,0,0,0,91,92,10,0,54,105.93,246,17.00,0.00,-1000.00
2024-05-19 09:16:52.108526,1,0,-7,0,0,0,91,92,10,0,54,105.32,246,16.00,0.00,-1001.00
2024-05-19 09:16:52.135804,1,0,-7,0,0,0,91,92,10,0,54,105.66,246,17.00,0.00,-999.00
2024-05-19 09:16:52.313253,1,0,-7,0,0,0,91,92,10,0,54,105.52,246,17.00,0.00,-999.00
2024-05-19 09:16:52.339736,1,0,-7,0,0,0,91,92,10,0,54,105.59,246,17.00,0.00,-999.00
2024-05-19 09:16:52.518236,1,0,-7,0,0,0,91,92,10,0,54,105.44,246,18.00,1.00,-1001.00
2024-05-19 09:16:52.543895,1,0,-7,0,0,0,91,92,10,0,54,105.81,246,16.00,0.00,-999.00
2024-05-19 09:16:52.594705,1,0,-7,0,0,0,91,92,10,0,54,105.45,246,18.00,0.00,-1000.00
2024-05-19 09:16:52.723795,1,0,-7,0,0,0,91,92,10,0,54,105.60,246,17.00,0.00,-998.00
2024-05-19 09:16:52.799057,1,0,-7,0,0,0,91,92,10,0,54,105.80,246,18.00,1.00,-997.00
2024-05-19 09:16:52.927794,1,0,-7,0,0,0,91,92,10,0,54,105.63,246,18.00,0.00,-1001.00
2024-05-19 09:16:53.002861,1,0,-7,0,0,0,91,92,10,0,54,105.75,246,17.00,0.00,-1001.00
2024-05-19 09:16:53.132704,1,0,-7,0,0,0,91,92,10,0,54,105.49,246,17.00,0.00,-1000.00
2024-05-19 09:16:53.206807,1,0,-7,0,0,0,90,92,10,0,54,105.73,246,17.00,0.00,-998.00
2024-05-19 09:16:53.308584,1,0,-7,0,0,0,90,92,10,0,54,105.68,246,17.00,0.00,-998.00
2024-05-19 09:16:53.410802,1,0,-7,0,0,0,90,92,10,0,54,105.83,246,15.00,0.00,-999.00
2024-05-19 09:16:53.542170,1,0,-7,0,0,0,90,92,10,0,54,105.57,246,17.00,1.00,-999.00
2024-05-19 09:16:53.614738,1,0,-7,0,0,0,90,92,10,0,54,105.57,246,38.00,-21.00,-994.00
2024-05-19 09:16:53.746978,1,0,-7,0,0,0,90,92,10,0,54,105.57,246,10.00,31.00,-990.00
2024-05-19 09:16:53.818570,1,0,-7,0,0,0,90,92,10,0,54,105.57,247,7.00,1.00,-1009.00
2024-05-19 09:16:53.951722,0,0,-8,0,0,0,90,92,10,0,54,105.57,247,3.00,0.00,-1076.00
2024-05-19 09:16:54.023647,0,0,-8,0,0,0,90,92,10,0,54,105.57,247,-8.00,10.00,-1140.00
2024-05-19 09:16:54.160031,0,-1,-8,0,0,-2,90,92,10,0,54,105.57,247,-9.00,-15.00,-1328.00
2024-05-19 09:16:54.226772,0,0,-8,0,0,-5,91,93,14,0,54,105.57,247,5.00,13.00,-1206.00
2024-05-19 09:16:54.361343,0,0,-8,0,0,-7,91,93,24,0,54,105.79,247,4.00,19.00,-1075.00
2024-05-19 09:16:54.431690,0,0,-8,0,0,-7,91,93,33,10,54,106.09,247,0.00,14.00,-1052.00
2024-05-19 09:16:54.533685,0,0,-8,0,0,-7,91,93,42,10,54,105.81,247,-4.00,6.00,-991.00
2024-05-19 09:16:54.668503,0,0,-8,0,0,-7,91,93,48,20,54,105.90,247,10.00,-13.00,-957.00
2024-05-19 09:16:54.737672,0,0,-8,0,0,-6,91,93,56,30,54,106.15,247,0.00,22.00,-916.00
2024-05-19 09:16:54.839825,1,0,-8,0,0,-5,91,93,62,30,54,106.27,248,13.00,15.00,-917.00
2024-05-19 09:16:54.975653,1,0,-8,0,0,-4,91,93,68,40,54,106.34,248,24.00,33.00,-908.00
2024-05-19 09:16:55.043686,1,-1,-8,0,0,-3,91,93,73,40,54,106.08,248,34.00,21.00,-899.00
2024-05-19 09:16:55.180490,2,-1,-8,0,0,-2,91,93,73,50,54,106.44,248,22.00,24.00,-896.00
2024-05-19 09:16:55.250244,2,-2,-8,0,0,-1,91,94,77,50,54,106.40,248,24.00,9.00,-922.00
2024-05-19 09:16:55.349756,2,-1,-8,0,0,0,91,94,79,50,54,106.50,248,33.00,-5.00,-930.00
2024-05-19 09:16:55.487678,2,-1,-8,0,0,0,91,94,80,50,54,106.41,248,38.00,1.00,-963.00
2024-05-19 09:16:55.553652,2,-1,-8,0,0,0,91,94,81,50,54,106.53,248,11.00,42.00,-954.00
2024-05-19 09:16:55.692333,2,0,-8,0,0,0,91,94,82,50,54,106.60,248,49.00,7.00,-968.00
2024-05-19 09:16:55.757660,2,0,-8,0,0,0,91,94,83,50,54,106.55,248,38.00,-4.00,-990.00
2024-05-19 09:16:55.897214,2,0,-8,0,0,0,91,94,83,50,54,106.34,249,34.00,10.00,-1035.00
2024-05-19 09:16:55.910745,2,0,-8,0,0,0,91,94,84,50,54,106.88,249,49.00,5.00,-1035.00
2024-05-19 09:16:56.102057,2,0,-8,0,0,0,91,94,85,50,54,106.42,249,43.00,14.00,-977.00
2024-05-19 09:16:56.114554,2,0,-8,0,0,0,91,94,86,60,54,106.70,249,41.00,-20.00,-959.00
2024-05-19 09:16:56.306875,2,0,-8,0,0,0,91,95,86,60,54,106.65,249,36.00,-17.00,-998.00
2024-05-19 09:16:56.318465,2,0,-8,0,0,0,91,95,86,60,54,106.62,249,37.00,3.00,-960.00
2024-05-19 09:16:56.512121,2,0,-8,0,0,0,91,95,86,60,54,106.36,249,48.00,-5.00,-961.00
2024-05-19 09:16:56.522556,2,0,-8,0,0,0,91,95,86,60,54,106.63,249,46.00,-1.00,-1020.00
2024-05-19 09:16:56.716499,3,0,-8,0,0,0,91,95,86,60,54,106.45,249,58.00,-7.00,-1000.00
2024-05-19 09:16:56.726538,3,0,-8,0,0,0,91,95,85,60,54,106.59,249,37.00,2.00,-990.00
2024-05-19 09:16:56.828695,3,0,-8,0,0,0,91,95,84,60,54,106.69,250,32.00,18.00,-996.00
2024-05-19 09:16:57.023786,2,0,-8,0,0,0,91,95,84,60,54,106.43,250,50.00,-6.00,-1018.00
2024-05-19 09:16:57.032677,2,0,-8,0,0,0,91,95,83,60,54,106.41,250,13.00,-27.00,-971.00
2024-05-19 09:16:57.228660,2,0,-8,0,0,0,91,95,82,50,54,106.47,250,14.00,-12.00,-1005.00
2024-05-19 09:16:57.236816,1,0,-8,0,0,0,92,93,82,50,54,106.41,250,27.00,-5.00,-1024.00
2024-05-19 09:16:57.338663,1,1,-8,0,0,0,92,93,82,50,54,106.64,250,18.00,3.00,-1011.00
2024-05-19 09:16:57.478927,1,0,-8,0,0,0,92,93,81,50,54,106.29,250,7.00,-8.00,-1013.00
2024-05-19 09:16:57.542769,1,0,-8,0,0,0,92,93,81,50,54,106.47,250,47.00,-17.00,-1001.00
2024-05-19 09:16:57.741080,1,0,-8,0,0,0,92,93,82,50,54,106.27,250,41.00,-12.00,-1027.00
2024-05-19 09:16:57.746626,2,0,-8,0,0,0,92,93,82,50,54,106.75,250,40.00,-11.00,-1016.00
2024-05-19 09:16:57.946678,2,0,-8,0,0,0,92,93,83,50,54,106.48,251,8.00,17.00,-973.00
2024-05-19 09:16:57.950581,2,0,-8,0,0,0,92,93,83,50,54,106.19,251,29.00,-6.00,-1007.00
2024-05-19 09:16:58.150274,2,0,-8,0,0,0,92,93,83,50,54,106.40,251,51.00,-22.00,-1014.00
2024-05-19 09:16:58.154531,2,0,-8,0,0,0,92,93,83,50,54,106.24,251,41.00,-21.00,-1005.00
2024-05-19 09:16:58.256850,2,0,-8,0,0,0,91,94,83,50,54,106.72,251,28.00,-35.00,-1004.00
2024-05-19 09:16:58.358480,2,0,-8,0,0,0,91,94,83,50,54,106.34,251,40.00,-15.00,-997.00
2024-05-19 09:16:58.460629,2,0,-8,0,0,0,91,94,83,50,54,106.45,251,32.00,-11.00,-988.00
2024-05-19 09:16:58.562485,1,0,-8,0,0,0,91,94,82,50,54,106.75,251,29.00,-12.00,-1002.00
2024-05-19 09:16:58.664674,1,0,-8,0,0,0,91,94,81,50,54,106.62,251,23.00,-25.00,-981.00
2024-05-19 09:16:58.767100,1,0,-8,0,0,0,91,94,81,50,54,106.57,251,24.00,9.00,-1037.00
2024-05-19 09:16:58.868838,1,0,-8,0,0,0,91,94,81,50,54,106.67,252,47.00,-22.00,-1019.00
2024-05-19 09:16:59.071664,1,0,-8,0,0,0,91,94,80,50,54,106.69,252,35.00,-23.00,-1049.00
2024-05-19 09:16:59.073308,1,0,-8,0,0,0,91,94,80,50,54,106.77,252,10.00,-7.00,-1080.00
2024-05-19 09:16:59.277013,1,0,-8,0,0,-1,91,94,82,50,54,106.33,252,48.00,2.00,-1102.00
2024-05-19 09:16:59.277343,1,0,-8,0,0,-2,91,94,84,50,54,106.28,252,43.00,1.00,-1133.00
2024-05-19 09:16:59.378556,1,0,-8,0,0,-3,91,94,87,60,54,106.69,252,24.00,8.00,-1042.00
2024-05-19 09:16:59.481224,1,0,-8,0,0,-3,91,94,91,60,54,106.46,252,11.00,9.00,-1012.00
2024-05-19 09:16:59.583925,1,0,-8,0,0,-4,91,94,95,60,54,106.56,252,33.00,19.00,-1032.00
2024-05-19 09:16:59.684316,1,0,-8,0,0,-5,91,94,101,70,54,106.67,252,12.00,10.00,-1039.00
2024-05-19 09:16:59.789613,1,-1,-8,0,0,-5,91,94,106,70,54,107.02,252,12.00,22.00,-1048.00
2024-05-19 09:16:59.888347,1,0,-8,0,0,-5,91,94,112,80,54,106.86,253,26.00,23.00,-1013.00
2024-05-19 09:16:59.993199,1,0,-8,0,0,-5,91,94,118,90,54,107.03,253,34.00,7.00,-1028.00
2024-05-19 09:17:00.092731,0,0,-8,0,0,-5,91,94,124,90,54,107.14,253,34.00,13.00,-1020.00
2024-05-19 09:17:00.198037,0,-1,-8,0,0,-5,91,94,130,100,54,107.07,253,22.00,30.00,-989.00
2024-05-19 09:17:00.296349,1,-1,-8,0,0,-5,91,94,135,100,54,106.90,253,32.00,16.00,-987.00
2024-05-19 09:17:00.402824,0,-1,-8,0,0,-4,91,94,140,110,54,107.06,253,44.00,15.00,-993.00
2024-05-19 09:17:00.449421,1,-1,-8,0,0,-4,91,94,145,110,54,106.90,253,18.00,46.00,-976.00
2024-05-19 09:17:00.551344,1,-1,-8,0,0,-4,91,94,150,120,54,107.33,253,20.00,20.00,-947.00
2024-05-19 09:17:00.710043,1,-1,-8,0,0,-3,91,94,154,120,54,107.34,253,-4.00,11.00,-972.00
2024-05-19 09:17:00.755319,1,-1,-8,0,0,-3,91,94,157,130,54,107.32,253,15.00,5.00,-949.00
2024-05-19 09:17:00.857430,1,-1,-8,0,0,-3,91,94,161,130,54,107.26,254,30.00,-3.00,-946.00
2024-05-19 09:17:01.017608,0,0,-8,0,0,-2,91,94,163,130,54,107.29,254,59.00,0.00,-1005.00
2024-05-19 09:17:01.061282,0,0,-8,0,0,-2,91,94,166,140,54,107.22,254,7.00,3.00,-959.00
2024-05-19 09:17:01.163288,1,0,-8,0,0,-2,91,94,168,140,54,107.22,254,18.00,0.00,-972.00
2024-05-19 09:17:01.265701,1,0,-8,0,0,-2,92,94,172,140,54,107.20,254,13.00,11.00,-968.00
2024-05-19 09:17:01.426878,0,0,-8,0,0,-1,92,94,174,140,54,107.29,254,9.00,20.00,-991.00
2024-05-19 09:17:01.469306,0,0,-8,0,0,-1,92,94,175,140,54,107.48,254,9.00,0.00,-950.00
2024-05-19 09:17:01.631682,0,0,-8,0,0,-1,92,94,176,150,54,107.12,254,12.00,4.00,-975.00
2024-05-19 09:17:01.673524,0,0,-8,0,0,-1,92,94,177,150,54,107.50,254,31.00,-10.00,-973.00
2024-05-19 09:17:01.836499,0,0,-8,0,0,0,92,94,177,150,54,107.62,254,36.00,-12.00,-975.00
2024-05-19 09:17:01.877396,0,0,-8,0,0,0,92,94,178,150,54,107.31,255,8.00,0.00,-965.00
2024-05-19 09:17:02.041383,0,0,-8,0,0,0,92,94,177,150,54,107.20,255,-7.00,-18.00,-971.00
2024-05-19 09:17:02.082801,0,0,-8,0,0,0,92,94,178,150,54,107.32,255,6.00,8.00,-983.00
2024-05-19 09:17:02.183515,0,0,-8,0,0,0,92,94,177,150,54,107.63,255,-1.00,-6.00,-1004.00
2024-05-19 09:17:02.285593,0,0,-8,0,0,0,92,94,176,150,54,107.25,255,-1.00,-9.00,-1008.00
2024-05-19 09:17:02.451119,0,0,-8,0,0,0,92,94,177,150,54,107.44,255,23.00,-15.00,-1021.00
2024-05-19 09:17:02.489285,0,0,-8,0,0,0,92,94,177,150,54,107.56,255,0.00,-25.00,-1047.00
2024-05-19 09:17:02.655738,0,0,-8,0,0,0,92,94,177,150,54,107.46,255,-4.00,-9.00,-1037.00
2024-05-19 09:17:02.693346,0,0,-8,0,0,0,92,94,177,150,54,107.39,255,3.00,7.00,-974.00
2024-05-19 09:17:02.860526,0,0,-8,0,0,0,92,94,178,150,54,107.76,255,3.00,12.00,-1005.00
2024-05-19 09:17:02.897243,0,0,-8,0,0,0,92,94,178,150,54,107.41,256,13.00,5.00,-996.00
2024-05-19 09:17:03.065400,0,0,-8,0,0,0,92,94,177,150,54,107.29,256,14.00,0.00,-994.00
2024-05-19 09:17:03.101248,0,0,-8,0,0,0,92,94,178,150,54,107.40,256,2.00,6.00,-998.00
2024-05-19 09:17:03.270197,0,0,-8,0,0,0,92,94,177,150,54,107.49,256,27.00,-4.00,-998.00
2024-05-19 09:17:03.305348,0,0,-8,0,0,0,91,93,177,150,54,107.38,256,28.00,-10.00,-1009.00
2024-05-19 09:17:03.474954,0,0,-8,0,0,0,91,93,176,150,54,107.58,256,17.00,-33.00,-1000.00
2024-05-19 09:17:03.510387,0,0,-8,0,0,0,91,93,175,150,54,107.43,256,-3.00,0.00,-987.00
2024-05-19 09:17:03.635003,0,0,-8,0,0,0,91,93,175,150,54,107.57,256,19.00,-21.00,-1007.00
2024-05-19 09:17:03.713219,0,0,-8,0,0,0,91,93,175,150,54,107.58,256,-1.00,-15.00,-996.00
2024-05-19 09:17:03.764159,0,0,-8,0,0,0,91,93,174,150,54,107.30,256,9.00,-21.00,-999.00
2024-05-19 09:17:03.887750,0,0,-8,0,0,0,91,93,173,150,54,107.11,257,18.00,-6.00,-964.00
2024-05-19 09:17:03.968125,0,0,-8,0,0,0,91,93,172,150,54,107.30,257,-18.00,4.00,-948.00
2024-05-19 09:17:04.089198,0,0,-8,0,0,1,91,93,170,140,54,107.04,257,16.00,-36.00,-946.00
2024-05-19 09:17:04.172251,0,0,-8,0,0,1,91,93,168,140,54,107.24,257,-2.00,0.00,-975.00
2024-05-19 09:17:04.294201,0,0,-8,0,0,2,90,93,166,140,54,107.18,257,-6.00,-12.00,-953.00
2024-05-19 09:17:04.376151,0,0,-8,0,0,2,90,93,163,140,54,107.54,257,16.00,-24.00,-956.00
2024-05-19 09:17:04.498811,0,0,-8,0,0,2,90,93,160,140,54,107.07,257,22.00,0.00,-983.00
2024-05-19 09:17:04.580048,0,0,-8,0,0,2,90,93,158,130,54,107.10,257,-17.00,0.00,-1008.00
2024-05-19 09:17:04.703604,0,0,-8,0,0,2,90,93,155,130,54,107.34,257,-13.00,6.00,-977.00
2024-05-19 09:17:04.784176,0,0,-8,0,0,2,90,93,152,130,54,107.11,257,21.00,-25.00,-974.00
2024-05-19 09:17:04.908409,0,0,-8,0,0,2,90,93,149,120,54,107.25,258,5.00,-23.00,-1003.00
2024-05-19 09:17:04.987980,0,0,-8,0,0,2,90,93,146,120,54,106.88,258,4.00,0.00,-993.00
2024-05-19 09:17:05.113889,0,0,-8,0,0,2,90,93,143,120,54,107.05,258,19.00,6.00,-1018.00
2024-05-19 09:17:05.192159,0,0,-8,0,0,2,90,93,141,120,54,107.16,258,9.00,-18.00,-1018.00
2024-05-19 09:17:05.318141,0,0,-8,0,0,2,91,94,138,110,54,107.32,258,29.00,-19.00,-1045.00
2024-05-19 09:17:05.396088,0,0,-8,0,0,2,91,94,136,110,54,107.02,258,-3.00,-19.00,-1036.00
2024-05-19 09:17:05.522751,0,0,-8,0,0,1,91,94,134,110,54,106.86,258,-19.00,-15.00,-1020.00
2024-05-19 09:17:05.600060,0,0,-8,0,0,1,91,94,133,110,54,107.35,258,33.00,1.00,-1041.00
2024-05-19 09:17:05.727571,0,0,-8,0,0,1,91,94,132,110,54,106.84,258,-9.00,11.00,-979.00
2024-05-19 09:17:05.803961,0,0,-8,0,0,1,91,94,130,100,54,106.97,259,-19.00,6.00,-1000.00
2024-05-19 09:17:05.906149,0,0,-8,0,0,1,91,94,129,100,54,107.21,259,-5.00,0.00,-1027.00
2024-05-19 09:17:06.035294,0,0,-8,0,0,0,91,94,128,100,54,106.67,259,0.00,12.00,-1019.00
2024-05-19 09:17:06.110329,0,0,-8,0,0,0,91,94,127,100,54,107.36,259,-4.00,-2.00,-1036.00
2024-05-19 09:17:06.240187,0,0,-8,0,0,0,91,94,128,100,54,107.03,259,-3.00,-19.00,-1027.00
2024-05-19 09:17:06.314092,0,0,-8,0,0,0,92,94,128,100,54,106.99,259,6.00,-8.00,-1013.00
2024-05-19 09:17:06.444786,0,0,-8,0,0,0,92,94,128,100,54,106.90,259,-18.00,-20.00,-1003.00
2024-05-19 09:17:06.518145,0,0,-8,0,0,0,92,94,128,100,54,107.02,259,3.00,-17.00,-997.00
2024-05-19 09:17:06.649660,0,0,-8,0,0,0,92,94,128,100,54,106.93,259,9.00,3.00,-999.00
2024-05-19 09:17:06.722089,0,0,-8,0,0,0,92,94,129,100,54,107.11,259,-25.00,0.00,-987.00
2024-05-19 09:17:06.824068,0,0,-8,0,0,0,92,94,128,100,54,107.39,260,3.00,0.00,-977.00
2024-05-19 09:17:06.956720,0,0,-8,0,0,0,92,94,128,100,54,107.12,260,-15.00,18.00,-975.00
2024-05-19 09:17:07.028004,0,0,-8,0,0,0,92,94,128,100,54,107.00,260,21.00,1.00,-1011.00
2024-05-19 09:17:07.161648,0,-1,-8,0,0,0,92,94,128,100,54,107.08,260,-2.00,9.00,-1001.00
2024-05-19 09:17:07.232102,0,-1,-8,0,0,0,92,94,127,100,54,106.96,260,-9.00,13.00,-1025.00
2024-05-19 09:17:07.334016,0,0,-8,0,0,0,91,93,127,100,54,107.04,260,-24.00,-11.00,-973.00
2024-05-19 09:17:07.468479,0,0,-8,0,0,0,91,93,127,100,54,107.01,260,-2.00,-5.00,-970.00
2024-05-19 09:17:07.538059,0,0,-8,0,0,0,91,93,126,100,54,106.98,260,12.00,7.00,-988.00
2024-05-19 09:17:07.673276,0,0,-8,0,0,0,91,93,125,100,54,107.15,260,15.00,-15.00,-1015.00
2024-05-19 09:17:07.690787,0,0,-8,0,0,0,91,93,126,100,54,107.01,260,0.00,-14.00,-1006.00
2024-05-19 09:17:07.856802,0,0,-8,0,0,0,91,93,126,100,54,106.87,261,6.00,-17.00,-1002.00
2024-05-19 09:17:07.895009,0,0,-8,0,0,0,91,93,125,100,54,106.92,261,0.00,18.00,-989.00
2024-05-19 09:17:08.082859,-1,0,-8,0,0,0,91,93,126,100,54,106.74,261,13.00,4.00,-1028.00
2024-05-19 09:17:08.098863,-7,0,-8,0,0,0,91,93,126,100,54,107.04,261,8.00,-4.00,-974.00
2024-05-19 09:17:08.287534,-8,0,-8,1,0,0,91,93,127,100,54,106.80,261,0.00,9.00,-999.00
2024-05-19 09:17:08.303217,-8,0,-8,3,0,0,90,93,128,100,54,106.70,261,-45.00,11.00,-987.00
2024-05-19 09:17:08.492346,-8,0,-8,4,0,0,90,93,128,100,54,106.60,261,-52.00,17.00,-1017.00
2024-05-19 09:17:08.506977,-8,0,-8,5,0,0,90,93,127,100,54,106.81,261,-46.00,23.00,-1010.00
2024-05-19 09:17:08.697173,-7,0,-8,5,0,0,90,93,127,100,54,106.65,261,-36.00,5.00,-1002.00
2024-05-19 09:17:08.710899,-7,-1,-8,6,0,0,90,93,128,100,54,106.99,261,-56.00,5.00,-990.00
2024-05-19 09:17:08.902953,-5,-1,-8,7,0,0,90,93,128,100,54,106.83,262,-76.00,5.00,-1006.00
2024-05-19 09:17:08.914856,-4,-1,-8,7,0,0,90,93,128,100,54,106.65,262,-31.00,-5.00,-1001.00
2024-05-19 09:17:09.106775,-1,-1,-8,7,-1,0,90,93,129,100,54,106.89,262,-36.00,21.00,-1034.00
2024-05-19 09:17:09.118819,0,-1,-8,7,-1,0,90,93,129,100,54,106.73,262,-49.00,2.00,-1001.00
2024-05-19 09:17:09.311967,3,-1,-8,6,-1,0,90,93,130,100,54,106.74,262,-53.00,18.00,-1005.00
2024-05-19 09:17:09.322883,3,0,-8,5,0,0,91,94,130,100,54,106.86,262,-56.00,2.00,-969.00
2024-05-19 09:17:09.488568,2,0,-8,4,0,0,91,94,130,100,54,106.91,262,-64.00,22.00,-990.00
2024-05-19 09:17:09.526809,1,-1,-8,3,0,0,91,94,130,100,54,107.13,262,-51.00,26.00,-974.00
2024-05-19 09:17:09.721154,0,-1,-8,3,0,0,91,94,130,100,54,107.16,262,-50.00,36.00,-1005.00
2024-05-19 09:17:09.730772,0,-1,-8,2,0,0,91,94,131,100,54,106.86,262,-18.00,0.00,-993.00
2024-05-19 09:17:09.925990,0,-1,-8,2,0,0,91,94,130,100,54,107.02,263,-21.00,20.00,-1014.00
2024-05-19 09:17:09.934731,0,-1,-8,2,0,0,91,94,130,100,54,107.25,263,-54.00,25.00,-974.00
2024-05-19 09:17:10.130704,0,0,-8,2,0,0,91,94,130,100,54,106.75,263,-8.00,32.00,-979.00
2024-05-19 09:17:10.138798,0,0,-8,2,0,0,91,94,129,100,54,106.92,263,-18.00,20.00,-986.00
2024-05-19 09:17:10.335460,0,-1,-8,1,0,0,91,94,129,100,54,107.18,263,-5.00,31.00,-999.00
2024-05-19 09:17:10.342810,0,-4,-8,1,0,0,90,94,128,100,54,106.91,263,13.00,9.00,-1016.00
2024-05-19 09:17:10.540360,2,-5,-8,1,0,0,90,94,127,100,54,106.96,263,-12.00,11.00,-990.00
2024-05-19 09:17:10.546786,2,0,-8,0,-1,0,90,94,126,100,54,107.10,263,12.00,48.00,-1015.00
2024-05-19 09:17:10.745221,1,1,-8,0,0,0,90,94,125,100,54,106.78,263,-14.00,49.00,-988.00
2024-05-19 09:17:10.750814,0,0,-8,0,0,0,90,94,123,100,54,106.83,263,-1.00,7.00,-1000.00
2024-05-19 09:17:10.852901,0,-1,-8,0,0,0,90,94,123,100,54,106.85,264,-6.00,48.00,-1005.00
2024-05-19 09:17:11.052613,0,-1,-8,0,0,0,90,94,122,100,54,106.69,264,-19.00,28.00,-1043.00
2024-05-19 09:17:11.057204,0,-1,-8,0,0,0,90,94,122,100,54,106.82,264,17.00,6.00,-1027.00
2024-05-19 09:17:11.257695,0,-1,-8,0,0,0,90,94,121,100,54,106.87,264,-18.00,27.00,-1042.00
2024-05-19 09:17:11.257903,-1,-1,-8,0,0,0,90,94,122,90,54,107.13,264,-2.00,45.00,-1013.00
2024-05-19 09:17:11.362864,-1,-1,-8,0,0,0,90,93,123,100,54,106.94,264,16.00,18.00,-1008.00
2024-05-19 09:17:11.465035,0,-1,-8,0,0,0,90,93,123,100,54,106.75,264,6.00,22.00,-1024.00
2024-05-19 09:17:11.515796,0,-1,-8,0,0,0,90,93,124,100,54,106.69,264,-3.00,29.00,-1007.00
2024-05-19 09:17:11.667128,0,-1,-8,0,0,0,90,93,124,100,54,107.17,264,6.00,25.00,-1001.00
2024-05-19 09:17:11.719816,0,-1,-8,0,0,0,90,93,126,100,54,106.85,264,2.00,-3.00,-1014.00
2024-05-19 09:17:11.871508,-1,-1,-8,0,0,0,90,93,127,100,54,106.83,265,9.00,19.00,-999.00
2024-05-19 09:17:11.923839,0,-1,-8,0,0,0,90,93,127,100,54,106.94,265,-20.00,41.00,-968.00
2024-05-19 09:17:12.076410,-1,-1,-8,0,0,0,90,93,128,100,54,106.85,265,2.00,25.00,-1014.00
2024-05-19 09:17:12.128050,-1,-1,-8,0,0,0,90,93,129,100,54,106.91,265,-3.00,14.00,-989.00
2024-05-19 09:17:12.281218,0,-1,-8,0,0,0,90,93,129,100,54,107.07,265,-23.00,31.00,-977.00
2024-05-19 09:17:12.331764,-1,-1,-8,0,0,0,90,93,129,100,54,106.67,265,-34.00,38.00,-972.00
2024-05-19 09:17:12.486159,-1,-1,-8,0,0,0,90,93,129,100,54,107.05,265,7.00,34.00,-1008.00
2024-05-19 09:17:12.535701,-1,-1,-8,0,0,0,90,93,130,100,54,106.85,265,-22.00,23.00,-993.00
2024-05-19 09:17:12.690835,-1,-1,-8,0,0,0,90,93,130,100,54,106.77,265,-8.00,47.00,-971.00
2024-05-19 09:17:12.739621,0,-1,-8,0,0,0,90,93,130,100,54,106.83,265,-13.00,9.00,-1004.00
2024-05-19 09:17:12.841680,0,-1,-8,0,0,0,90,93,130,100,54,106.98,266,-27.00,31.00,-974.00
2024-05-19 09:17:12.943644,3,-1,-8,0,0,0,90,93,129,100,54,107.13,266,-16.00,33.00,-1018.00
2024-05-19 09:17:13.100799,8,-1,-8,0,0,0,90,93,129,100,54,106.93,266,7.00,28.00,-1034.00
2024-05-19 09:17:13.147592,8,-1,-8,-2,0,0,90,93,130,100,54,106.81,266,-5.00,52.00,-995.00
2024-05-19 09:17:13.305163,8,-1,-8,-3,0,0,90,93,130,100,54,107.07,266,35.00,25.00,-976.00
2024-05-19 09:17:13.353424,7,-1,-8,-5,0,0,90,94,130,100,54,107.02,266,-1.00,23.00,-985.00
2024-05-19 09:17:13.456262,6,-1,-8,-6,0,0,90,94,129,100,54,106.78,266,21.00,28.00,-1040.00
2024-05-19 09:17:13.555589,6,-1,-8,-6,0,0,90,94,128,100,54,106.66,266,30.00,20.00,-1007.00
2024-05-19 09:17:13.661015,4,-1,-8,-7,0,0,90,94,128,100,54,106.87,266,34.00,14.00,-1015.00
2024-05-19 09:17:13.763443,3,-1,-8,-8,1,0,90,94,128,100,54,106.78,266,36.00,12.00,-987.00
2024-05-19 09:17:13.861838,0,0,-8,-8,0,0,90,94,128,100,54,107.17,267,34.00,12.00,-1028.00
2024-05-19 09:17:13.964177,-3,0,-8,-7,0,0,90,94,128,100,54,106.92,267,36.00,-9.00,-1023.00
2024-05-19 09:17:14.069160,-4,0,-8,-6,0,0,90,94,128,100,54,106.89,267,44.00,14.00,-1013.00
2024-05-19 09:17:14.167508,-5,0,-8,-5,0,0,90,94,129,100,54,107.16,267,35.00,-10.00,-974.00
2024-05-19 09:17:14.329154,-4,-1,-8,-4,0,0,90,94,129,100,54,106.76,267,27.00,-9.00,-1028.00
2024-05-19 09:17:14.372670,-3,0,-8,-4,0,0,89,94,130,100,54,107.11,267,23.00,8.00,-1010.00
2024-05-19 09:17:14.474140,-2,0,-8,-3,0,0,89,94,130,100,54,106.98,267,22.00,7.00,-979.00
2024-05-19 09:17:14.582676,-3,0,-8,-3,0,0,89,94,131,100,54,106.70,267,10.00,4.00,-984.00
2024-05-19 09:17:14.681529,-3,1,-8,-2,0,0,89,94,131,100,54,106.86,267,15.00,-7.00,-996.00
2024-05-19 09:17:14.782162,-3,4,-8,-2,0,0,89,94,132,100,54,106.72,267,-14.00,21.00,-1005.00
2024-05-19 09:17:14.882218,-3,3,-8,-1,1,0,89,94,131,100,54,107.10,268,-11.00,0.00,-1021.00
2024-05-19 09:17:14.984033,-3,-3,-8,-1,1,0,89,94,132,100,54,106.96,268,-19.00,-12.00,-1025.00
2024-05-19 09:17:15.034635,-2,-2,-8,0,0,0,89,94,131,100,54,106.65,268,-26.00,13.00,-988.00
2024-05-19 09:17:15.148382,-2,-1,-8,0,0,0,89,94,130,100,54,106.96,268,-35.00,21.00,-981.00
2024-05-19 09:17:15.238584,-2,-1,-8,0,0,0,89,94,130,100,54,107.14,268,-27.00,15.00,-980.00
2024-05-19 09:17:15.455716,-1,-1,-8,0,0,0,90,94,130,100,54,106.98,268,-20.00,28.00,-990.00
2024-05-19 09:17:15.493590,-1,-1,-8,0,0,0,90,94,130,100,54,106.80,268,-19.00,12.00,-1024.00
2024-05-19 09:17:15.660423,-1,-1,-8,0,0,0,90,94,130,100,54,106.96,268,-20.00,46.00,-1002.00
2024-05-19 09:17:15.697448,-1,-1,-8,0,0,0,90,94,129,100,54,107.03,268,-16.00,20.00,-998.00
2024-05-19 09:17:15.748555,-1,0,-8,0,0,0,90,94,129,100,54,106.91,268,-6.00,35.00,-1016.00
2024-05-19 09:17:15.865249,-1,-1,-8,0,0,0,90,94,129,100,54,107.06,269,-12.00,38.00,-995.00
2024-05-19 09:17:15.952504,-1,-1,-8,0,0,0,90,94,129,100,54,106.88,269,-11.00,-7.00,-1006.00
2024-05-19 09:17:16.070032,-1,0,-8,0,0,0,90,94,129,100,54,106.91,269,-42.00,15.00,-990.00
2024-05-19 09:17:16.156573,-1,0,-8,0,0,0,90,94,129,100,54,107.10,269,-7.00,18.00,-1002.00
2024-05-19 09:17:16.274817,-1,0,-8,0,0,0,90,94,129,100,54,107.04,269,0.00,-11.00,-1015.00
2024-05-19 09:17:16.360499,-1,0,-8,0,0,0,91,93,129,100,54,106.78,269,-30.00,15.00,-983.00
2024-05-19 09:17:16.479568,-1,0,-8,0,0,0,91,93,130,100,54,106.95,269,-11.00,-9.00,-994.00
2024-05-19 09:17:16.564473,0,0,-8,0,0,0,91,93,130,100,54,107.23,269,8.00,0.00,-999.00
2024-05-19 09:17:16.684383,0,0,-8,0,0,0,91,93,130,100,54,106.82,269,11.00,0.00,-984.00
2024-05-19 09:17:16.768566,0,0,-8,0,0,0,91,93,130,100,54,106.52,269,-13.00,-5.00,-967.00
2024-05-19 09:17:16.991676,0,0,-8,0,0,0,91,93,130,100,54,106.77,270,15.00,11.00,-1035.00
2024-05-19 09:17:16.991840,0,0,-8,0,0,0,91,93,129,100,54,107.21,270,12.00,12.00,-971.00
2024-05-19 09:17:17.074473,0,0,-8,0,0,0,91,93,130,100,54,106.95,270,0.00,2.00,-1006.00
2024-05-19 09:17:17.196241,0,0,-8,0,0,0,91,93,130,100,54,107.01,270,-4.00,30.00,-944.00
2024-05-19 09:17:17.278343,0,-5,-8,0,0,0,91,93,132,100,54,107.11,270,-23.00,29.00,-1031.00
2024-05-19 09:17:17.380362,0,-8,-8,0,-1,0,91,93,132,100,54,106.93,270,-17.00,32.00,-1008.00
2024-05-19 09:17:17.503498,0,-7,-8,0,-2,0,91,93,130,100,53,106.99,270,13.00,34.00,-1006.00
2024-05-19 09:17:17.584315,0,-5,-8,0,-3,0,91,93,131,100,53,106.86,270,-21.00,22.00,-1005.00
2024-05-19 09:17:17.708272,0,-2,-8,0,-3,0,91,93,130,100,53,106.85,270,29.00,23.00,-1017.00
2024-05-19 09:17:17.788324,0,0,-8,0,-3,0,91,93,130,100,53,106.82,270,2.00,28.00,-989.00
2024-05-19 09:17:17.913041,0,0,-8,0,-3,0,91,93,131,100,53,107.03,271,12.00,32.00,-976.00
2024-05-19 09:17:17.992413,-1,0,-8,0,-3,0,91,93,131,100,53,106.97,271,-5.00,32.00,-1022.00
2024-05-19 09:17:18.117897,0,0,-8,0,-2,0,91,93,131,100,53,106.69,271,-18.00,36.00,-978.00
2024-05-19 09:17:18.196536,0,0,-8,0,-2,0,91,93,131,100,53,107.10,271,-4.00,17.00,-1003.00
2024-05-19 09:17:18.322683,0,0,-8,0,-2,0,91,93,132,100,53,107.21,271,-19.00,52.00,-987.00
2024-05-19 09:17:18.400294,0,0,-8,0,-2,0,90,93,132,100,53,107.02,271,-14.00,34.00,-996.00
2024-05-19 09:17:18.502272,0,0,-8,0,-2,0,90,93,132,100,53,106.99,271,18.00,44.00,-1015.00
2024-05-19 09:17:18.629788,0,0,-8,0,-2,0,90,93,133,100,53,107.14,271,-7.00,25.00,-1000.00
2024-05-19 09:17:18.706276,0,-1,-8,0,-2,0,90,93,133,100,53,106.69,271,30.00,9.00,-1008.00
2024-05-19 09:17:18.834649,0,0,-8,0,-2,0,90,93,133,100,53,106.98,271,-4.00,-2.00,-1017.00
2024-05-19 09:17:18.910238,0,0,-8,0,-2,0,90,93,133,100,53,107.02,272,-17.00,-4.00,-999.00
2024-05-19 09:17:19.039443,0,2,-8,0,-2,0,90,93,132,100,53,106.94,272,0.00,8.00,-977.00
2024-05-19 09:17:19.114386,0,3,-8,0,-1,0,90,93,133,100,53,106.85,272,-17.00,6.00,-1001.00
2024-05-19 09:17:19.165265,0,1,-8,0,0,0,90,93,132,100,53,106.69,272,-37.00,23.00,-1001.00
2024-05-19 09:17:19.346746,0,0,-8,0,0,0,90,93,133,100,53,107.03,272,0.00,-26.00,-993.00
2024-05-19 09:17:19.369309,0,0,-8,0,0,0,90,93,132,100,53,107.03,272,-23.00,8.00,-977.00
2024-05-19 09:17:19.551629,0,0,-8,0,0,0,90,93,132,100,53,106.84,272,-16.00,33.00,-1001.00
2024-05-19 09:17:19.573254,0,0,-8,0,0,0,90,93,132,100,53,106.82,272,17.00,14.00,-993.00
2024-05-19 09:17:19.756341,0,0,-8,0,0,0,90,93,132,100,53,107.14,272,-28.00,-5.00,-970.00
2024-05-19 09:17:19.777331,0,0,-8,0,0,0,90,93,132,100,53,107.18,272,19.00,9.00,-1003.00
2024-05-19 09:17:19.961235,0,0,-8,0,0,0,90,93,132,100,53,106.86,273,1.00,-3.00,-997.00
2024-05-19 09:17:19.981239,0,0,-8,0,0,0,90,93,132,100,53,107.05,273,-29.00,-3.00,-982.00
2024-05-19 09:17:20.166084,-1,0,-8,0,0,0,90,93,132,100,53,106.73,273,-39.00,-17.00,-1030.00
2024-05-19 09:17:20.185096,-1,0,-8,0,0,0,90,93,132,100,53,106.83,273,-18.00,10.00,-997.00
2024-05-19 09:17:20.370698,-1,0,-8,0,0,0,90,93,132,100,53,106.80,273,-5.00,23.00,-986.00
2024-05-19 09:17:20.389206,0,-1,-8,0,0,0,90,92,132,100,53,106.82,273,-92.00,9.00,-987.00
2024-05-19 09:17:20.575616,0,-1,-8,0,0,0,90,92,133,100,52,107.04,273,-19.00,4.00,-1011.00
2024-05-19 09:17:20.593060,-1,-1,-8,0,0,0,90,92,133,100,52,106.90,273,7.00,4.00,-999.00
2024-05-19 09:17:20.780382,0,-1,-8,0,0,0,90,92,133,100,52,106.89,273,-27.00,8.00,-985.00
2024-05-19 09:17:20.797341,0,-1,-8,0,0,0,90,92,132,100,52,106.86,274,-19.00,13.00,-971.00
2024-05-19 09:17:20.985566,0,-1,-8,0,0,0,90,92,132,100,52,107.06,274,-24.00,-3.00,-997.00
2024-05-19 09:17:21.001029,0,-1,-8,0,0,0,90,92,132,100,52,107.01,274,-10.00,-13.00,-1004.00
2024-05-19 09:17:21.119928,-1,0,-8,0,0,0,90,92,131,100,52,106.80,274,-11.00,0.00,-989.00
2024-05-19 09:17:21.205112,0,0,-8,0,0,0,90,92,131,100,52,106.93,274,-2.00,3.00,-1001.00
2024-05-19 09:17:21.394628,0,6,-8,0,0,0,90,92,130,100,52,107.15,274,12.00,9.00,-993.00
2024-05-19 09:17:21.410134,0,8,-8,0,1,0,91,93,132,100,52,106.57,274,-19.00,-5.00,-978.00
2024-05-19 09:17:21.599447,0,5,-8,0,2,0,91,93,130,100,52,107.06,274,-20.00,-5.00,-1024.00
2024-05-19 09:17:21.615918,0,2,-8,0,3,0,91,93,129,100,52,107.14,274,-21.00,-35.00,-1006.00
2024-05-19 09:17:21.716125,0,0,-8,0,3,0,91,93,129,100,52,106.81,274,-21.00,-21.00,-986.00
2024-05-19 09:17:21.906656,-1,-1,-8,0,3,0,91,93,129,100,52,106.81,275,-34.00,-29.00,-1001.00
2024-05-19 09:17:21.919949,-2,-1,-8,0,3,0,91,93,129,100,52,106.84,275,-29.00,-14.00,-1008.00
2024-05-19 09:17:22.111414,-2,0,-8,0,2,0,91,93,128,100,52,107.06,275,-7.00,2.00,-989.00
2024-05-19 09:17:22.124001,-2,0,-8,0,2,0,91,93,127,100,52,106.88,275,-34.00,-9.00,-985.00
2024-05-19 09:17:22.316187,-2,0,-8,0,2,0,91,93,127,100,52,107.20,275,-49.00,-18.00,-973.00
2024-05-19 09:17:22.327943,-2,0,-8,0,2,0,91,93,127,100,52,106.69,275,-15.00,-8.00,-1007.00
2024-05-19 09:17:22.521073,-2,0,-8,0,2,0,90,93,126,100,52,107.12,275,-38.00,7.00,-1006.00
2024-05-19 09:17:22.531972,-2,0,-8,0,2,0,90,93,126,100,52,106.79,275,-10.00,-11.00,-1001.00
2024-05-19 09:17:22.725830,-2,0,-8,0,2,0,90,93,125,100,52,106.87,275,-28.00,-40.00,-978.00
2024-05-19 09:17:22.735980,-1,0,-8,1,2,0,90,93,125,100,52,106.44,275,-14.00,-30.00,-1021.00
2024-05-19 09:17:22.838093,-1,0,-8,1,2,0,90,93,125,100,52,106.76,276,19.00,5.00,-962.00
2024-05-19 09:17:23.033019,1,0,-8,0,2,0,90,93,124,100,52,106.95,276,-21.00,-16.00,-1012.00
2024-05-19 09:17:23.042153,0,-3,-8,0,2,0,90,93,123,100,52,106.88,276,-29.00,-7.00,-1001.00
2024-05-19 09:17:23.237846,-1,-5,-8,0,1,0,90,93,123,100,52,106.84,276,7.00,1.00,-1059.00
2024-05-19 09:17:23.238549,-1,-3,-8,0,0,0,90,93,123,100,52,106.96,276,-4.00,-1.00,-1037.00
2024-05-19 09:17:23.297180,-1,-1,-8,0,0,0,90,93,123,100,52,107.00,276,-16.00,20.00,-1039.00
2024-05-19 09:17:23.545558,0,-1,-8,0,0,0,90,93,123,100,52,107.07,276,-13.00,15.00,-1028.00
2024-05-19 09:17:23.551971,0,-1,-8,0,0,0,90,93,123,100,51,107.07,276,-2.00,-15.00,-1013.00
2024-05-19 09:17:23.603345,0,-1,-8,0,0,0,90,93,123,100,51,106.93,276,-1.00,15.00,-1042.00
2024-05-19 09:17:23.749944,-1,-1,-8,0,0,0,90,93,123,100,51,106.79,276,-18.00,23.00,-981.00
2024-05-19 09:17:23.807058,0,-1,-8,0,0,0,90,93,124,100,51,107.16,277,-18.00,-10.00,-1015.00
2024-05-19 09:17:23.954763,0,-1,-8,0,0,0,90,93,124,100,51,106.97,277,-29.00,9.00,-983.00
2024-05-19 09:17:24.011617,0,-1,-8,0,0,0,90,93,125,100,51,106.86,277,0.00,-5.00,-996.00
2024-05-19 09:17:24.159570,0,0,-8,0,0,0,90,93,125,100,51,106.94,277,-19.00,-7.00,-978.00
2024-05-19 09:17:24.215114,0,0,-8,0,0,0,90,93,126,100,51,107.02,277,-1.00,5.00,-990.00
2024-05-19 09:17:24.364348,0,0,-8,0,0,0,90,93,126,100,51,106.83,277,-10.00,19.00,-988.00
2024-05-19 09:17:24.419030,0,0,-8,0,0,0,89,92,127,100,51,106.85,277,7.00,6.00,-1001.00
2024-05-19 09:17:24.569198,0,-1,-8,0,0,0,89,92,127,100,51,106.82,277,13.00,11.00,-994.00
2024-05-19 09:17:24.623087,0,-1,-8,0,0,0,89,92,128,100,51,106.74,277,15.00,37.00,-1013.00
2024-05-19 09:17:24.774723,0,-1,-8,0,0,0,89,92,128,100,51,106.80,277,3.00,-15.00,-984.00
2024-05-19 09:17:24.826950,0,0,-8,0,0,0,89,92,128,100,51,106.59,278,-14.00,-6.00,-1019.00
2024-05-19 09:17:24.978724,0,0,-8,0,0,0,89,92,128,100,51,106.82,278,-3.00,-9.00,-1015.00
2024-05-19 09:17:25.030977,0,0,-8,0,0,0,89,92,128,100,51,106.87,278,-3.00,-11.00,-960.00
2024-05-19 09:17:25.132946,0,0,-8,0,0,0,89,92,128,100,51,106.86,278,8.00,9.00,-995.00
2024-05-19 09:17:25.240893,0,0,-8,0,0,0,89,92,128,100,51,106.93,278,-11.00,7.00,-989.00
2024-05-19 09:17:25.336971,0,0,-8,0,0,0,89,92,128,100,51,107.06,278,13.00,-14.00,-989.00
2024-05-19 09:17:25.490629,0,0,-4,0,0,0,90,93,128,100,51,106.87,278,6.00,12.00,-995.00
2024-05-19 09:17:25.541008,0,0,1,0,0,0,90,93,127,100,51,107.00,278,4.00,5.00,-1009.00
2024-05-19 09:17:25.695337,0,0,7,0,0,0,90,93,127,100,51,106.80,278,-2.00,26.00,-990.00
2024-05-19 09:17:25.744901,0,0,13,0,0,0,90,93,127,100,51,106.82,278,-5.00,15.00,-982.00
2024-05-19 09:17:25.901034,0,0,19,0,0,0,90,93,127,100,51,106.48,279,-10.00,7.00,-1035.00
2024-05-19 09:17:25.949670,-1,-1,25,0,0,0,90,93,127,100,51,106.63,279,-6.00,2.00,-984.00
2024-05-19 09:17:26.051458,-1,-1,31,0,0,0,90,93,127,100,51,106.86,279,3.00,1.00,-980.00
2024-05-19 09:17:26.153786,-1,-1,37,0,0,0,90,93,127,100,51,106.63,279,-11.00,13.00,-992.00
2024-05-19 09:17:26.309760,-1,-1,43,0,0,0,90,93,127,100,51,107.00,279,-15.00,28.00,-996.00
2024-05-19 09:17:26.357137,-1,-1,50,0,0,0,90,93,127,100,51,106.85,279,3.00,23.00,-1025.00
2024-05-19 09:17:26.458900,-1,-1,56,0,0,0,91,93,128,100,50,107.03,279,-17.00,32.00,-1035.00
2024-05-19 09:17:26.561381,0,-1,62,0,0,0,91,93,127,100,50,106.77,279,0.00,26.00,-997.00
2024-05-19 09:17:26.666014,0,-1,69,0,0,0,91,93,128,100,50,106.90,279,-2.00,22.00,-1009.00
2024-05-19 09:17:26.770367,0,-1,75,0,0,0,91,93,128,100,50,106.70,279,-16.00,28.00,-985.00
2024-05-19 09:17:26.870230,0,-1,81,0,0,0,91,93,128,100,50,106.62,280,9.00,15.00,-998.00
2024-05-19 09:17:26.970134,0,-1,87,0,0,0,91,93,128,100,50,106.99,280,-23.00,13.00,-988.00
2024-05-19 09:17:27.071341,0,-1,93,0,0,0,91,93,127,100,50,106.70,280,8.00,20.00,-1004.00
2024-05-19 09:17:27.172810,0,-1,100,0,0,0,91,93,128,100,50,107.06,280,-20.00,31.00,-993.00
2024-05-19 09:17:27.333758,0,-1,106,0,0,0,91,93,127,100,50,106.66,280,7.00,34.00,-1025.00
2024-05-19 09:17:27.334153,0,-1,112,0,0,0,91,93,128,100,50,106.69,280,19.00,21.00,-978.00
2024-05-19 09:17:27.428748,0,-2,118,0,0,0,90,92,128,100,50,106.78,280,-10.00,7.00,-975.00
2024-05-19 09:17:27.538545,0,-2,124,0,0,0,90,92,127,100,50,107.05,280,3.00,25.00,-997.00
2024-05-19 09:17:27.632779,0,-2,130,0,0,0,90,92,128,100,50,107.00,280,-3.00,41.00,-1013.00
2024-05-19 09:17:27.743326,0,-2,136,0,0,0,90,92,127,100,50,106.70,280,4.00,52.00,-1020.00
2024-05-19 09:17:27.836722,0,-2,142,0,0,0,90,92,127,100,50,106.69,281,0.00,55.00,-1010.00
2024-05-19 09:17:27.948344,1,-1,148,0,0,0,90,92,127,100,50,106.81,281,-1.00,46.00,-979.00
2024-05-19 09:17:28.040756,1,-1,154,0,0,0,90,92,127,100,50,106.98,281,19.00,41.00,-1004.00
2024-05-19 09:17:28.152937,1,-1,160,0,0,0,90,92,127,100,50,106.87,281,15.00,32.00,-1009.00
2024-05-19 09:17:28.244767,1,-1,166,0,0,0,90,92,127,100,50,106.89,281,-1.00,60.00,-1002.00
2024-05-19 09:17:28.357892,1,-1,172,0,0,0,90,92,127,100,50,106.93,281,-35.00,49.00,-1023.00
2024-05-19 09:17:28.448750,1,-1,178,0,0,0,90,93,127,100,50,106.80,281,1.00,28.00,-981.00
2024-05-19 09:17:28.562835,1,-1,-175,0,0,0,90,93,127,100,50,106.82,281,41.00,20.00,-1011.00
2024-05-19 09:17:28.652708,1,-1,-169,0,0,0,90,93,127,100,50,106.76,281,34.00,22.00,-1006.00
2024-05-19 09:17:28.767629,1,-1,-163,0,0,0,90,93,127,100,50,106.91,281,23.00,40.00,-979.00
2024-05-19 09:17:28.856699,1,0,-157,0,0,0,90,93,127,100,50,106.86,282,14.00,43.00,-982.00
2024-05-19 09:17:28.972153,1,0,-151,0,0,0,90,93,127,100,50,106.67,282,-11.00,29.00,-1020.00
2024-05-19 09:17:29.060655,1,0,-145,0,0,0,90,93,127,100,50,107.02,282,11.00,4.00,-989.00
2024-05-19 09:17:29.176967,1,0,-139,0,0,0,90,93,127,100,50,106.63,282,62.00,11.00,-1018.00
2024-05-19 09:17:29.264635,2,0,-133,0,0,0,90,93,127,100,50,106.71,282,4.00,36.00,-987.00
2024-05-19 09:17:29.381891,2,0,-127,0,0,0,90,93,127,100,50,106.87,282,27.00,0.00,-1008.00
2024-05-19 09:17:29.469663,1,0,-122,0,0,0,89,92,127,100,50,107.07,282,-1.00,41.00,-1029.00
2024-05-19 09:17:29.586680,1,0,-116,0,0,0,89,92,127,100,50,106.86,282,-3.00,4.00,-998.00
2024-05-19 09:17:29.673634,1,0,-110,0,0,0,89,92,128,100,50,106.93,282,31.00,25.00,-1013.00
2024-05-19 09:17:29.791358,1,0,-104,0,0,0,89,92,128,100,50,106.94,282,46.00,28.00,-1005.00
2024-05-19 09:17:29.877692,1,0,-98,0,0,0,89,92,128,100,50,106.56,283,21.00,19.00,-1008.00
2024-05-19 09:17:29.997044,2,0,-92,0,0,0,89,92,128,100,50,106.79,283,16.00,51.00,-1006.00
2024-05-19 09:17:30.081626,2,0,-86,1,0,0,89,92,128,100,50,106.73,283,9.00,2.00,-978.00
2024-05-19 09:17:30.200925,1,0,-80,1,0,0,89,92,128,100,50,107.03,283,23.00,4.00,-1017.00
2024-05-19 09:17:30.285589,1,0,-74,1,0,0,89,92,128,100,50,106.78,283,7.00,-5.00,-978.00
2024-05-19 09:17:30.387645,1,0,-68,0,0,0,89,92,129,100,50,106.81,283,13.00,-23.00,-968.00
2024-05-19 09:17:30.508137,2,0,-61,0,0,0,90,92,129,100,50,106.77,283,21.00,-21.00,-993.00
2024-05-19 09:17:30.591554,2,0,-55,0,0,0,90,92,129,100,50,106.69,283,48.00,3.00,-1045.00
2024-05-19 09:17:30.712904,1,1,-49,0,0,0,90,92,130,100,50,106.90,283,37.00,2.00,-986.00
2024-05-19 09:17:30.795700,1,1,-43,0,0,0,90,92,130,100,50,107.37,283,16.00,-26.00,-972.00
2024-05-19 09:17:30.898582,1,1,-37,0,0,0,90,92,131,100,50,106.71,284,3.00,-34.00,-999.00
2024-05-19 09:17:31.020083,0,0,-31,0,0,0,90,92,131,100,50,106.79,284,10.00,5.00,-995.00
2024-05-19 09:17:31.054171,0,1,-25,0,0,0,90,92,131,100,50,106.97,284,-4.00,4.00,-986.00
2024-05-19 09:17:31.153575,0,1,-21,0,0,0,90,92,132,100,50,106.79,284,-5.00,3.00,-985.00
2024-05-19 09:17:31.327466,0,1,-17,0,0,0,90,92,132,100,50,106.87,284,23.00,4.00,-1020.00
2024-05-19 09:17:31.360487,0,0,-15,0,0,0,90,92,132,100,50,106.85,284,28.00,-13.00,-1006.00
2024-05-19 09:17:31.460947,0,0,-13,0,0,0,89,92,132,100,49,106.67,284,0.00,-6.00,-972.00
2024-05-19 09:17:31.562975,0,0,-12,0,0,0,89,92,133,100,49,106.97,284,-25.00,-11.00,-990.00
2024-05-19 09:17:31.663528,0,0,-11,0,0,0,89,92,133,100,49,107.02,284,5.00,0.00,-1032.00
2024-05-19 09:17:31.765548,0,0,-10,0,0,0,89,92,133,100,49,107.15,284,0.00,-28.00,-1003.00
2024-05-19 09:17:31.941858,0,0,-10,0,0,0,89,92,132,100,49,106.79,285,-46.00,-17.00,-961.00
2024-05-19 09:17:31.969578,0,0,-10,0,0,0,89,92,133,100,49,106.86,285,14.00,-10.00,-1028.00
2024-05-19 09:17:32.146590,0,0,-10,0,0,0,89,92,133,100,49,106.95,285,0.00,2.00,-968.00
2024-05-19 09:17:32.173621,0,0,-10,0,0,0,89,92,133,100,49,107.02,285,-4.00,-2.00,-976.00
2024-05-19 09:17:32.351288,0,0,-10,0,0,0,89,92,133,100,49,106.70,285,4.00,-15.00,-975.00
2024-05-19 09:17:32.377591,0,0,-10,0,0,0,89,92,132,100,49,106.67,285,-2.00,7.00,-990.00
2024-05-19 09:17:32.556593,0,0,-10,0,0,0,89,92,132,100,49,106.96,285,17.00,-1.00,-957.00
2024-05-19 09:17:32.581479,0,0,-10,0,0,0,89,92,132,100,49,106.80,285,1.00,0.00,-1016.00
2024-05-19 09:17:32.762420,0,0,-10,0,0,0,89,92,132,100,49,107.10,285,24.00,-1.00,-1000.00
2024-05-19 09:17:32.785369,0,0,-10,0,0,0,89,92,132,100,49,106.39,285,-2.00,-7.00,-972.00
2024-05-19 09:17:32.966117,0,0,-10,0,0,0,89,92,131,100,49,106.70,286,23.00,7.00,-1040.00
2024-05-19 09:17:32.989425,1,0,-10,0,0,0,89,92,131,100,49,106.90,286,7.00,14.00,-991.00
2024-05-19 09:17:33.170969,1,0,-10,0,0,0,89,92,131,100,49,106.56,286,14.00,10.00,-1014.00
2024-05-19 09:17:33.193454,1,0,-10,0,0,0,89,92,131,100,49,106.73,286,32.00,13.00,-985.00
2024-05-19 09:17:33.375431,1,0,-10,0,0,0,89,92,131,100,49,106.95,286,38.00,2.00,-999.00
2024-05-19 09:17:33.397760,1,0,-10,0,0,0,89,92,131,100,49,106.87,286,32.00,2.00,-1022.00
2024-05-19 09:17:33.580370,1,0,-10,0,0,0,90,93,131,100,49,106.96,286,32.00,2.00,-1026.00
2024-05-19 09:17:33.601413,2,-1,-10,0,0,0,90,93,130,100,49,107.06,286,27.00,1.00,-968.00
2024-05-19 09:17:33.718138,1,0,-10,0,0,0,90,93,131,100,49,106.95,286,39.00,7.00,-1012.00
2024-05-19 09:17:33.805423,2,0,-10,0,0,0,90,93,131,100,49,106.93,286,39.00,3.00,-1000.00
2024-05-19 09:17:33.990187,2,0,-10,0,0,0,90,93,131,100,49,106.85,287,14.00,0.00,-974.00
2024-05-19 09:17:34.009303,2,0,-14,0,0,0,90,93,130,100,49,106.84,287,26.00,18.00,-977.00
2024-05-19 09:17:34.194500,1,0,-19,0,0,0,90,93,130,100,49,106.98,287,40.00,2.00,-964.00
2024-05-19 09:17:34.213358,2,0,-24,0,0,0,90,93,131,100,49,106.72,287,69.00,-10.00,-1014.00
2024-05-19 09:17:34.264696,2,0,-29,0,0,0,90,93,130,100,49,107.21,287,31.00,-10.00,-1012.00
2024-05-19 09:17:34.399372,3,0,-34,0,0,0,90,93,129,100,49,107.06,287,46.00,-9.00,-1022.00
2024-05-19 09:17:34.471178,3,-1,-38,0,0,0,90,93,129,100,49,106.67,287,54.00,2.00,-1005.00
2024-05-19 09:17:34.571671,3,-1,-43,0,0,0,90,93,129,100,49,106.75,287,26.00,3.00,-1007.00
2024-05-19 09:17:34.712082,2,-1,-49,0,0,0,90,93,128,100,49,106.89,287,24.00,0.00,-987.00
2024-05-19 09:17:34.776855,3,0,-54,0,0,0,90,93,127,100,49,106.76,287,14.00,28.00,-1001.00
2024-05-19 09:17:34.878123,2,0,-60,0,0,0,90,93,128,100,49,107.15,288,15.00,14.00,-1023.00
2024-05-19 09:17:34.979749,2,0,-66,0,0,0,90,93,128,100,49,106.94,288,28.00,2.00,-1040.00
2024-05-19 09:17:35.116012,1,0,-72,0,0,0,90,93,127,100,49,106.67,288,43.00,15.00,-1039.00
2024-05-19 09:17:35.186333,2,0,-78,0,0,0,90,93,128,100,49,106.73,288,35.00,-12.00,-990.00
2024-05-19 09:17:35.285321,2,0,-84,0,0,0,90,93,128,100,49,106.61,288,36.00,14.00,-1005.00
2024-05-19 09:17:35.387298,2,0,-90,0,0,0,90,93,128,100,49,106.77,288,41.00,17.00,-1007.00
2024-05-19 09:17:35.531280,2,0,-102,0,0,0,89,93,128,100,49,106.83,288,50.00,11.00,-1017.00
2024-05-19 09:17:35.591292,2,0,-108,0,0,0,89,93,129,100,49,106.77,288,33.00,47.00,-1036.00
2024-05-19 09:17:35.730513,2,-1,-114,0,0,0,89,93,129,100,49,107.19,288,53.00,23.00,-969.00
2024-05-19 09:17:35.795291,2,-1,-119,0,0,0,89,93,129,100,49,106.72,289,13.00,61.00,-977.00
2024-05-19 09:17:35.935783,2,-1,-125,0,0,0,89,93,128,100,49,106.74,289,-6.00,50.00,-994.00
2024-05-19 09:17:35.999186,1,-2,-131,0,0,0,89,93,129,100,49,106.63,289,15.00,68.00,-996.00
2024-05-19 09:17:36.140072,1,-2,-137,0,0,0,89,93,128,100,49,106.94,289,21.00,55.00,-1005.00
2024-05-19 09:17:36.203206,0,-2,-143,0,0,0,89,93,129,100,49,106.71,289,14.00,22.00,-966.00
2024-05-19 09:17:36.347791,0,-2,-148,0,0,0,89,93,128,100,49,106.89,289,17.00,64.00,-1037.00
2024-05-19 09:17:36.407255,0,-2,-154,0,0,0,89,93,128,100,49,107.03,289,20.00,55.00,-991.00
2024-05-19 09:17:36.549667,0,-2,-159,0,0,0,90,92,129,100,48,107.05,289,14.00,51.00,-986.00
2024-05-19 09:17:36.611705,1,-2,-165,0,0,0,90,92,129,100,48,106.81,289,26.00,54.00,-1037.00
2024-05-19 09:17:36.857210,1,-2,-171,0,0,0,90,92,129,100,48,106.81,289,-15.00,82.00,-967.00
2024-05-19 09:17:36.858947,1,-2,-177,0,0,0,90,92,129,100,48,107.00,290,4.00,36.00,-975.00
2024-05-19 09:17:36.918223,0,-3,176,0,0,0,90,92,129,100,48,106.62,290,16.00,37.00,-1012.00
2024-05-19 09:17:37.062016,0,-3,170,0,0,0,90,92,129,100,48,107.15,290,4.00,57.00,-1010.00
2024-05-19 09:17:37.122159,0,-2,164,0,0,0,90,92,129,100,48,106.87,290,-7.00,64.00,-1009.00
2024-05-19 09:17:37.267386,0,-2,158,0,0,0,90,92,129,100,48,106.67,290,3.00,31.00,-993.00
2024-05-19 09:17:37.329892,0,-2,152,0,0,0,90,92,129,100,48,107.17,290,-14.00,37.00,-970.00
2024-05-19 09:17:37.428083,0,-3,146,0,0,0,90,92,129,100,48,106.67,290,-2.00,18.00,-1003.00
2024-05-19 09:17:37.573589,0,-2,140,0,0,0,90,92,129,100,48,106.83,290,-34.00,39.00,-997.00
2024-05-19 09:17:37.632280,0,-1,134,0,0,0,90,92,129,100,48,106.88,290,-24.00,25.00,-989.00
2024-05-19 09:17:37.778425,0,0,128,0,0,0,90,92,128,100,48,107.03,290,-36.00,10.00,-999.00
2024-05-19 09:17:37.840079,0,0,122,0,0,0,90,92,128,100,48,106.53,291,-29.00,26.00,-1008.00
2024-05-19 09:17:37.938226,0,0,117,0,0,0,90,92,127,100,48,106.55,291,-30.00,5.00,-988.00
2024-05-19 09:17:38.085855,-1,0,110,0,0,0,90,92,127,100,48,106.52,291,-27.00,0.00,-1015.00
2024-05-19 09:17:38.142166,-1,0,104,0,0,0,90,92,127,100,48,107.05,291,-26.00,-8.00,-1017.00
2024-05-19 09:17:38.194794,-1,0,98,0,0,0,90,92,127,100,48,107.20,291,-9.00,-15.00,-998.00
2024-05-19 09:17:38.295129,-1,0,92,0,0,0,90,92,127,100,48,106.90,291,-19.00,5.00,-999.00
2024-05-19 09:17:38.397252,0,0,86,0,0,0,90,92,126,100,48,106.76,291,-35.00,-10.00,-982.00
2024-05-19 09:17:38.598171,0,0,79,0,0,0,89,93,126,100,48,106.50,291,-7.00,-21.00,-1011.00
2024-05-19 09:17:38.602093,0,0,73,0,0,0,89,93,126,100,48,106.89,291,-29.00,-1.00,-975.00
2024-05-19 09:17:38.703284,0,0,67,0,0,0,89,93,126,100,48,106.72,291,7.00,-13.00,-1018.00
2024-05-19 09:17:38.805475,0,0,60,0,0,0,89,93,126,100,48,106.96,292,-4.00,-15.00,-989.00
2024-05-19 09:17:38.907091,0,0,54,0,0,0,89,93,126,100,48,106.74,292,-4.00,-16.00,-980.00
2024-05-19 09:17:39.009147,0,0,48,0,0,0,89,93,126,100,48,106.74,292,6.00,-22.00,-982.00
2024-05-19 09:17:39.212023,0,0,41,0,0,0,89,93,126,100,48,106.80,292,0.00,-2.00,-1001.00
2024-05-19 09:17:39.213041,0,0,35,0,0,0,89,93,127,100,48,106.91,292,11.00,-36.00,-982.00
2024-05-19 09:17:39.417219,0,0,29,0,0,0,89,93,127,100,48,106.86,292,-18.00,-24.00,-1014.00
2024-05-19 09:17:39.417584,0,0,23,0,0,0,89,93,127,100,48,106.85,292,8.00,-36.00,-1001.00
2024-05-19 09:17:39.519563,0,0,17,0,0,0,89,93,128,100,48,107.02,292,6.00,-30.00,-1018.00
2024-05-19 09:17:39.621596,0,0,10,0,0,0,89,93,129,100,48,106.98,292,-32.00,-30.00,-984.00
2024-05-19 09:17:39.724025,0,0,5,0,0,0,89,93,130,100,48,106.66,292,19.00,-7.00,-1001.00
2024-05-19 09:17:39.827370,0,0,1,0,0,0,89,93,130,100,48,106.67,293,0.00,-22.00,-959.00
2024-05-19 09:17:39.928787,0,0,-1,0,0,0,89,93,131,100,48,106.86,293,12.00,-25.00,-968.00
2024-05-19 09:17:40.031224,0,0,-4,0,0,0,89,93,131,100,48,106.89,293,16.00,-14.00,-973.00
2024-05-19 09:17:40.131037,1,0,-6,0,0,0,89,93,131,100,48,106.82,293,41.00,-10.00,-992.00
2024-05-19 09:17:40.235958,1,0,-7,0,0,0,89,93,131,100,48,106.67,293,13.00,-13.00,-1021.00
2024-05-19 09:17:40.335259,0,1,-8,0,0,0,89,93,131,100,48,106.76,293,14.00,-4.00,-997.00
2024-05-19 09:17:40.437119,0,1,-8,0,0,0,89,93,130,100,48,106.70,293,24.00,-3.00,-987.00
2024-05-19 09:17:40.543398,0,1,-9,0,0,0,89,93,131,100,48,107.07,293,9.00,15.00,-954.00
2024-05-19 09:17:40.641136,0,1,-9,0,0,0,89,93,131,100,48,106.65,293,29.00,-23.00,-999.00
2024-05-19 09:17:40.747992,1,0,-10,0,0,0,89,93,131,100,48,106.87,293,14.00,13.00,-1003.00
2024-05-19 09:17:40.847704,1,0,-11,0,0,0,89,93,130,100,48,106.93,294,39.00,-4.00,-1020.00
2024-05-19 09:17:40.947144,1,0,-12,0,0,0,89,93,130,100,48,106.54,294,-3.00,7.00,-997.00
2024-05-19 09:17:41.055772,0,0,-12,0,0,0,89,93,129,100,48,106.71,294,12.00,15.00,-1005.00
2024-05-19 09:17:41.154762,0,0,-12,0,0,0,89,93,130,100,48,106.58,294,23.00,6.00,-1050.00
2024-05-19 09:17:41.253122,0,0,-12,0,0,0,89,93,130,100,48,106.77,294,7.00,-2.00,-1015.00
2024-05-19 09:17:41.368100,0,0,-12,0,0,0,89,93,130,100,48,106.89,294,21.00,-18.00,-986.00
2024-05-19 09:17:41.457075,1,0,-12,0,0,0,89,93,130,100,48,106.80,294,4.00,-25.00,-971.00
2024-05-19 09:17:41.567276,1,0,-12,0,0,0,90,93,130,100,47,106.56,294,33.00,-8.00,-1009.00
2024-05-19 09:17:41.661074,1,0,-12,0,0,0,90,93,131,100,47,106.89,294,32.00,-1.00,-998.00
2024-05-19 09:17:41.772102,1,0,-12,0,0,0,90,93,131,100,47,106.99,294,16.00,-7.00,-992.00
2024-05-19 09:17:41.814605,1,0,-12,0,0,0,90,93,131,100,47,106.60,295,13.00,7.00,-994.00
2024-05-19 09:17:41.977090,1,0,-12,0,0,0,90,93,131,100,47,107.15,295,32.00,-12.00,-991.00
2024-05-19 09:17:42.018013,1,0,-12,0,0,0,90,93,131,100,47,106.62,295,49.00,-31.00,-987.00
2024-05-19 09:17:42.181690,1,0,-12,0,0,0,90,93,131,100,47,107.11,295,9.00,-5.00,-977.00
2024-05-19 09:17:42.222521,1,0,-12,0,0,0,90,93,131,100,47,106.88,295,16.00,-14.00,-979.00
2024-05-19 09:17:42.329054,0,0,-12,0,0,0,90,93,131,100,47,106.95,295,37.00,-2.00,-987.00
2024-05-19 09:17:42.426363,1,0,-12,0,0,0,90,93,132,100,47,106.41,295,21.00,-6.00,-987.00
2024-05-19 09:17:42.591451,1,0,-12,0,0,0,90,93,132,100,47,107.04,295,17.00,-6.00,-956.00
2024-05-19 09:17:42.630153,1,0,-12,0,0,0,90,93,132,100,47,106.64,295,12.00,11.00,-996.00
2024-05-19 09:17:42.796081,1,0,-12,0,0,0,90,93,132,100,47,107.03,295,33.00,-20.00,-973.00
2024-05-19 09:17:42.834005,1,0,-12,0,0,0,90,93,132,100,47,106.82,296,49.00,-19.00,-999.00
2024-05-19 09:17:43.000926,1,0,-12,0,0,0,90,93,132,100,47,106.66,296,22.00,0.00,-984.00
2024-05-19 09:17:43.038019,1,0,-12,0,0,0,90,93,132,100,47,107.02,296,29.00,-13.00,-989.00
2024-05-19 09:17:43.205655,1,0,-12,0,0,0,90,93,132,100,47,106.81,296,50.00,-8.00,-1012.00
2024-05-19 09:17:43.241903,1,0,-12,0,0,0,90,93,132,100,47,106.56,296,4.00,-11.00,-1006.00
2024-05-19 09:17:43.410427,1,0,-12,0,0,0,90,93,132,100,47,106.79,296,0.00,17.00,-1000.00
2024-05-19 09:17:43.445943,1,0,-12,0,0,0,90,93,132,100,47,106.99,296,16.00,8.00,-993.00
2024-05-19 09:17:43.616157,1,0,-12,0,0,0,90,91,132,100,47,106.86,296,13.00,13.00,-986.00
2024-05-19 09:17:43.649925,1,0,-12,0,0,0,90,91,132,100,47,106.84,296,26.00,-20.00,-988.00
2024-05-19 09:17:43.819978,0,0,-12,0,0,0,90,91,131,100,47,107.07,296,-3.00,8.00,-1015.00
2024-05-19 09:17:43.853916,0,0,-12,0,0,0,90,91,131,100,47,107.15,297,25.00,-10.00,-993.00
2024-05-19 09:17:44.024863,0,0,-12,0,0,0,90,91,130,100,47,106.95,297,14.00,-15.00,-994.00
2024-05-19 09:17:44.057728,0,0,-12,0,0,0,90,91,131,100,47,106.84,297,-11.00,-20.00,-989.00
2024-05-19 09:17:44.229684,0,0,-12,0,0,0,90,91,130,100,47,106.57,297,19.00,-13.00,-997.00
2024-05-19 09:17:44.262187,0,0,-12,0,0,0,90,91,130,100,47,106.95,297,-1.00,-7.00,-981.00
2024-05-19 09:17:44.434452,0,0,-12,0,0,0,90,91,130,100,47,106.79,297,-5.00,-16.00,-1001.00
2024-05-19 09:17:44.466050,0,0,-12,0,0,0,90,91,130,100,47,106.97,297,7.00,-13.00,-991.00
2024-05-19 09:17:44.639300,0,0,-12,0,0,0,89,92,130,100,47,106.88,297,1.00,-36.00,-1003.00
2024-05-19 09:17:44.669900,0,1,-12,0,0,0,89,92,129,100,47,106.79,297,14.00,3.00,-1009.00
2024-05-19 09:17:44.846991,0,1,-12,0,0,0,89,92,130,100,47,107.04,297,21.00,-25.00,-1010.00
2024-05-19 09:17:44.873829,0,1,-12,0,0,0,89,92,129,100,47,106.91,298,-10.00,17.00,-993.00
2024-05-19 09:17:45.048877,0,0,-12,0,0,0,89,92,129,100,47,106.82,298,14.00,-31.00,-1009.00
2024-05-19 09:17:45.077756,0,0,-12,0,0,0,89,92,129,100,47,106.80,298,15.00,0.00,-1011.00
2024-05-19 09:17:45.253726,0,0,-12,0,0,0,89,92,129,100,47,106.96,298,20.00,-3.00,-1002.00
2024-05-19 09:17:45.281743,0,0,-12,0,0,0,89,92,129,100,47,106.75,298,3.00,-11.00,-1013.00
2024-05-19 09:17:45.333556,0,0,-12,0,0,0,89,92,129,100,47,107.02,298,5.00,-12.00,-1007.00
2024-05-19 09:17:45.435783,0,0,-12,0,0,0,89,92,129,100,47,107.07,298,8.00,-29.00,-999.00
2024-05-19 09:17:45.588769,0,0,-12,0,0,0,89,93,129,100,47,107.05,298,-4.00,17.00,-995.00
2024-05-19 09:17:45.765686,0,0,-12,0,0,0,89,93,129,100,47,106.98,298,-13.00,13.00,-1006.00
2024-05-19 09:17:45.792723,0,0,-12,0,0,0,89,93,129,100,47,106.57,298,0.00,-22.00,-1007.00
2024-05-19 09:17:45.843782,0,0,-12,0,0,0,89,93,129,100,47,106.81,299,0.00,-15.00,-975.00
2024-05-19 09:17:45.945760,0,0,-12,0,0,0,89,93,130,100,47,106.76,299,-29.00,-3.00,-987.00
2024-05-19 09:17:46.072861,-1,0,-12,0,0,0,89,93,130,100,47,106.72,299,-13.00,17.00,-1005.00
2024-05-19 09:17:46.149837,-1,0,-12,0,0,0,89,93,130,100,47,106.61,299,-22.00,3.00,-1003.00
2024-05-19 09:17:46.278858,-1,0,-12,0,0,0,89,93,130,100,47,106.75,299,17.00,-27.00,-1006.00
2024-05-19 09:17:46.353791,-1,0,-13,0,0,0,89,93,131,100,47,106.88,299,-28.00,-11.00,-990.00
2024-05-19 09:17:46.455627,0,0,-13,0,0,0,89,93,131,100,46,106.84,299,12.00,-37.00,-1013.00
2024-05-19 09:17:46.584931,0,0,-13,0,0,0,89,92,132,100,46,106.90,299,-16.00,2.00,-968.00
2024-05-19 09:17:46.659726,0,0,-13,0,0,0,89,92,132,100,46,106.95,299,-14.00,2.00,-985.00
2024-05-19 09:17:46.789841,0,0,-13,0,0,0,89,92,133,100,46,107.01,299,-12.00,-4.00,-1011.00
2024-05-19 09:17:46.863863,0,0,-13,0,0,0,89,92,133,100,46,106.87,300,8.00,-24.00,-1000.00
2024-05-19 09:17:46.994495,0,0,-13,0,0,0,89,92,133,100,46,106.93,300,16.00,0.00,-957.00
2024-05-19 09:17:47.067820,0,0,-13,0,0,0,89,92,133,100,46,106.90,300,3.00,2.00,-977.00
2024-05-19 09:17:47.199198,0,0,-13,0,0,0,89,92,133,100,46,106.65,300,15.00,5.00,-988.00
2024-05-19 09:17:47.271706,0,0,-13,0,0,0,89,92,132,100,46,106.96,300,7.00,-22.00,-988.00
2024-05-19 09:17:47.403997,0,0,-13,0,0,0,89,92,132,100,46,106.84,300,-25.00,5.00,-1025.00
2024-05-19 09:17:47.475797,0,0,-13,0,0,0,89,92,132,100,46,107.06,300,-3.00,0.00,-1001.00
2024-05-19 09:17:47.608878,0,0,-13,0,0,0,90,93,130,100,46,107.02,300,6.00,-20.00,-981.00
2024-05-19 09:17:47.679943,0,0,-13,0,0,0,90,93,130,100,46,107.07,300,26.00,-15.00,-1011.00
2024-05-19 09:17:47.813737,0,0,-13,0,0,0,90,93,130,100,46,106.48,300,-9.00,16.00,-995.00
2024-05-19 09:17:47.883640,0,0,-13,0,0,0,90,93,128,100,46,107.08,301,7.00,-1.00,-1014.00
2024-05-19 09:17:48.018477,0,0,-13,0,0,0,90,93,128,100,46,106.96,301,28.00,-14.00,-1020.00
2024-05-19 09:17:48.087645,0,0,-12,0,0,0,90,93,128,100,46,106.86,301,-8.00,-25.00,-967.00
2024-05-19 09:17:48.223695,1,0,-12,0,0,0,90,93,127,100,46,107.00,301,22.00,1.00,-1013.00
2024-05-19 09:17:48.291670,0,0,-12,0,0,0,90,93,127,100,46,106.91,301,24.00,-22.00,-1043.00
2024-05-19 09:17:48.393651,0,0,-12,0,0,0,90,93,126,100,46,106.96,301,5.00,2.00,-999.00
2024-05-19 09:17:48.530480,1,0,-12,0,0,0,90,93,125,100,46,106.90,301,22.00,-15.00,-1029.00
2024-05-19 09:17:48.598148,1,0,-12,0,0,0,90,92,125,100,46,106.76,301,5.00,-17.00,-971.00
2024-05-19 09:17:48.735700,1,0,-12,0,0,0,90,92,125,100,46,106.85,301,31.00,-31.00,-1012.00
2024-05-19 09:17:48.801700,1,1,-12,0,0,0,90,92,125,100,46,106.89,301,39.00,-22.00,-996.00
2024-05-19 09:17:48.939909,1,1,-12,0,0,0,90,92,125,100,46,106.97,302,24.00,-15.00,-1012.00
2024-05-19 09:17:49.005633,1,1,-12,0,0,0,90,92,125,100,46,106.65,302,26.00,-25.00,-986.00
2024-05-19 09:17:49.145126,1,0,-12,0,0,0,90,92,125,100,46,106.74,302,24.00,-5.00,-1012.00
2024-05-19 09:17:49.209710,1,0,-12,0,0,0,90,92,125,100,46,106.60,302,5.00,3.00,-989.00
2024-05-19 09:17:49.263697,0,0,-12,0,0,0,90,92,126,100,46,106.75,302,9.00,-7.00,-1002.00
2024-05-19 09:17:49.362545,1,0,-12,0,0,0,90,92,125,100,46,106.95,302,-19.00,10.00,-956.00
2024-05-19 09:17:49.464599,0,0,-12,0,0,0,90,92,126,100,46,106.89,302,23.00,-10.00,-964.00
2024-05-19 09:17:49.656897,0,0,-12,0,0,0,89,93,126,100,46,106.77,302,15.00,-17.00,-990.00
2024-05-19 09:17:49.668460,0,0,-12,0,0,0,89,93,127,100,46,106.83,302,0.00,1.00,-1029.00
2024-05-19 09:17:49.862039,0,0,-12,0,0,0,89,93,128,100,46,106.64,302,2.00,-4.00,-985.00
2024-05-19 09:17:49.872384,0,0,-12,0,0,0,89,93,127,100,46,106.81,303,34.00,-13.00,-1009.00
2024-05-19 09:17:50.066478,0,0,-12,0,0,0,89,93,128,100,46,106.54,303,6.00,0.00,-994.00
2024-05-19 09:17:50.076415,0,0,-12,0,0,0,89,93,128,100,46,106.68,303,-22.00,17.00,-996.00
2024-05-19 09:17:50.271104,0,0,-12,0,0,0,89,93,129,100,46,106.86,303,6.00,19.00,-1000.00
2024-05-19 09:17:50.280538,0,0,-12,0,0,0,89,93,128,100,46,106.86,303,6.00,-25.00,-991.00
2024-05-19 09:17:50.475874,0,0,-12,0,0,0,89,93,128,100,46,106.65,303,14.00,-15.00,-992.00
2024-05-19 09:17:50.485529,0,0,-12,0,0,0,89,93,129,100,45,106.92,303,2.00,22.00,-974.00
2024-05-19 09:17:50.680823,0,0,-12,0,0,0,89,93,129,100,45,106.82,303,21.00,-2.00,-995.00
2024-05-19 09:17:50.689656,0,0,-12,0,0,0,89,93,128,100,45,106.80,303,15.00,26.00,-992.00
2024-05-19 09:17:50.792931,0,0,-12,0,0,0,89,93,128,100,45,106.87,303,12.00,3.00,-986.00
2024-05-19 09:17:50.893844,0,0,-12,0,0,0,89,93,127,100,45,106.87,304,32.00,-28.00,-998.00
2024-05-19 09:17:51.090427,0,0,-12,0,0,0,89,93,126,100,45,106.88,304,-5.00,-4.00,-1000.00
2024-05-19 09:17:51.098672,0,0,-12,0,0,0,89,93,125,100,45,106.86,304,-13.00,27.00,-1027.00
2024-05-19 09:17:51.295518,0,0,-12,0,0,0,89,93,125,100,45,106.65,304,-7.00,-6.00,-993.00
2024-05-19 09:17:51.302447,0,0,-12,0,0,0,89,93,125,100,45,106.81,304,3.00,-20.00,-1008.00
2024-05-19 09:17:51.404003,0,0,-12,0,0,0,89,93,124,100,45,106.63,304,19.00,-20.00,-1008.00
2024-05-19 09:17:51.602372,0,0,-12,0,0,0,89,93,125,100,45,106.79,304,19.00,-13.00,-996.00
2024-05-19 09:17:51.607430,0,0,-12,0,0,0,90,93,125,100,45,106.94,304,11.00,0.00,-994.00
2024-05-19 09:17:51.807153,0,0,-12,0,0,0,90,93,125,100,45,106.47,304,3.00,15.00,-1031.00
2024-05-19 09:17:51.811357,0,0,-12,0,0,0,90,93,125,100,45,106.86,304,3.00,12.00,-1010.00
2024-05-19 09:17:51.913817,0,0,-12,0,0,0,90,93,126,100,45,107.05,305,0.00,-23.00,-999.00
2024-05-19 09:17:52.114384,0,0,-12,0,0,0,90,93,126,100,45,106.45,305,-8.00,-14.00,-1013.00
2024-05-19 09:17:52.117423,0,0,-12,0,0,0,90,93,126,100,45,106.85,305,8.00,-19.00,-993.00
2024-05-19 09:17:52.219462,0,0,-12,0,0,0,90,93,127,100,45,106.79,305,-9.00,0.00,-999.00
2024-05-19 09:17:52.321337,0,0,-12,0,0,0,90,93,127,100,45,106.84,305,-7.00,6.00,-999.00
2024-05-19 09:17:52.423337,0,0,-12,0,0,0,90,93,128,100,45,106.54,305,-6.00,-2.00,-978.00
2024-05-19 09:17:52.525413,0,0,-12,0,0,0,90,93,129,100,45,106.70,305,14.00,12.00,-997.00
2024-05-19 09:17:52.630849,0,0,-12,0,0,0,90,93,129,100,45,106.99,305,2.00,11.00,-980.00
2024-05-19 09:17:52.729709,0,0,-12,0,0,0,90,93,129,100,45,106.89,305,-8.00,-19.00,-976.00
2024-05-19 09:17:52.831448,0,0,-12,0,0,0,90,93,129,100,45,107.03,306,-17.00,-2.00,-1004.00
2024-05-19 09:17:52.933601,0,0,-12,0,0,0,90,93,129,100,45,106.89,306,4.00,-9.00,-1031.00
2024-05-19 09:17:52.984318,0,0,-12,0,0,0,90,93,129,100,45,107.13,306,2.00,-6.00,-1013.00
2024-05-19 09:17:53.086394,0,0,-12,0,0,0,90,93,129,100,45,106.45,306,-9.00,15.00,-1010.00
2024-05-19 09:17:53.188497,0,0,-12,0,0,0,90,93,129,100,45,106.57,306,-40.00,14.00,-973.00
2024-05-19 09:17:53.291104,-1,-1,-12,0,0,0,90,93,129,100,45,106.60,306,17.00,27.00,-999.00
2024-05-19 09:17:53.392625,0,-1,-12,0,0,0,90,93,129,100,45,107.09,306,-2.00,31.00,-1008.00
2024-05-19 09:17:53.547947,0,-1,-12,0,0,0,90,93,129,100,45,106.61,306,-16.00,37.00,-988.00
2024-05-19 09:17:53.599272,0,-1,-12,0,0,0,90,92,129,100,45,106.84,306,-11.00,41.00,-994.00
2024-05-19 09:17:53.699625,0,-1,-12,0,0,0,90,92,129,100,45,106.78,306,-16.00,11.00,-1006.00
2024-05-19 09:17:53.800784,0,-1,-12,0,0,0,90,92,129,100,45,106.61,307,-5.00,40.00,-1000.00
2024-05-19 09:17:53.902301,0,-1,-12,0,0,0,90,92,129,100,45,106.62,307,-6.00,32.00,-1002.00
2024-05-19 09:17:54.004646,0,-1,-12,0,0,0,90,92,129,100,45,106.36,307,-18.00,14.00,-985.00
2024-05-19 09:17:54.106967,0,-1,-12,0,0,0,90,92,128,100,45,106.87,307,-13.00,30.00,-1005.00
2024-05-19 09:17:54.209276,0,-1,-12,0,0,0,90,92,130,100,45,106.65,307,-8.00,22.00,-989.00
2024-05-19 09:17:54.311959,0,-1,-12,0,0,0,90,92,129,100,45,106.58,307,16.00,34.00,-1023.00
2024-05-19 09:17:54.412363,0,-1,-12,0,0,0,90,92,130,100,45,106.96,307,14.00,13.00,-1004.00
2024-05-19 09:17:54.516512,0,-1,-12,0,0,0,90,92,130,100,45,106.85,307,3.00,21.00,-980.00
2024-05-19 09:17:54.618858,0,-1,-12,0,0,0,89,92,130,100,45,106.98,307,-2.00,25.00,-984.00
2024-05-19 09:17:54.718182,0,-1,-12,0,0,0,89,92,131,100,45,106.90,307,13.00,27.00,-978.00
2024-05-19 09:17:54.823688,0,-1,-12,0,0,0,89,92,131,100,45,106.89,308,-9.00,22.00,-992.00
2024-05-19 09:17:54.925812,0,-1,-12,0,0,0,89,92,132,100,45,106.72,308,-17.00,25.00,-937.00
2024-05-19 09:17:55.025418,0,-1,-12,0,0,0,89,92,131,100,45,106.74,308,-2.00,25.00,-946.00
2024-05-19 09:17:55.132889,0,-1,-12,0,0,1,89,92,129,100,45,106.35,308,9.00,10.00,-907.00
2024-05-19 09:17:55.235292,0,-1,-12,0,0,2,89,92,128,100,45,106.80,308,-20.00,28.00,-904.00
2024-05-19 09:17:55.337723,0,-1,-12,0,0,3,89,92,125,100,45,106.84,308,-1.00,21.00,-915.00
2024-05-19 09:17:55.434508,0,0,-12,0,0,4,89,92,122,90,45,106.57,308,27.00,37.00,-919.00
2024-05-19 09:17:55.537384,0,-1,-12,0,0,5,89,92,118,90,45,106.55,308,-7.00,1.00,-899.00
2024-05-19 09:17:55.638028,0,-1,-12,0,0,6,89,93,110,80,45,106.36,308,-1.00,16.00,-911.00
2024-05-19 09:17:55.738441,0,0,-12,0,0,6,89,93,103,80,45,106.62,308,-10.00,3.00,-918.00
2024-05-19 09:17:55.903073,0,0,-12,0,0,7,89,93,95,70,45,106.65,309,7.00,13.00,-990.00
2024-05-19 09:17:55.942128,0,0,-12,0,0,7,89,93,87,60,45,106.41,309,-28.00,9.00,-989.00
2024-05-19 09:17:56.107883,0,0,-12,0,0,7,89,93,79,50,45,106.03,309,8.00,22.00,-1024.00
2024-05-19 09:17:56.146234,0,0,-12,0,0,7,89,93,73,50,45,106.24,309,5.00,29.00,-1067.00
2024-05-19 09:17:56.312809,0,0,-12,0,0,6,89,93,66,40,45,106.30,309,0.00,18.00,-1076.00
2024-05-19 09:17:56.350078,0,0,-12,0,0,5,89,93,60,30,45,106.39,309,-2.00,5.00,-1046.00
2024-05-19 09:17:56.452104,0,0,-12,0,0,5,89,93,54,30,45,106.02,309,5.00,12.00,-1035.00
2024-05-19 09:17:56.503077,0,0,-12,0,0,4,89,93,49,20,44,106.00,309,-3.00,8.00,-1022.00
2024-05-19 09:17:56.656088,0,0,-12,0,0,4,89,93,44,20,44,105.77,309,-1.00,11.00,-1027.00
2024-05-19 09:17:56.707111,0,0,-12,0,0,4,89,93,44,10,44,106.20,309,-8.00,2.00,-1003.00
2024-05-19 09:17:56.825284,0,0,-12,0,0,4,89,93,39,10,44,105.69,310,1.00,10.00,-999.00
2024-05-19 09:17:56.912213,0,0,-12,0,0,4,89,93,33,0,44,106.20,310,19.00,21.00,-1022.00
2024-05-19 09:17:57.029416,0,0,-12,0,0,4,89,93,32,0,44,106.00,310,22.00,4.00,-1016.00
2024-05-19 09:17:57.115975,0,0,-12,0,0,4,89,93,27,0,44,105.78,310,-4.00,17.00,-997.00
2024-05-19 09:17:57.234248,0,0,-12,0,0,4,89,93,21,0,44,105.54,310,12.00,0.00,-1016.00
2024-05-19 09:17:57.319939,0,0,-12,0,0,4,89,93,18,0,44,104.88,310,13.00,18.00,-1026.00
2024-05-19 09:17:57.440334,0,0,-12,0,0,3,89,93,12,-10,44,104.36,310,13.00,-15.00,-1070.00
2024-05-19 09:17:57.523925,0,0,-12,0,0,3,89,93,10,-10,44,103.44,310,10.00,29.00,-1055.00
2024-05-19 09:17:57.644288,0,0,-12,0,0,2,90,93,10,-10,44,101.55,310,26.00,17.00,-1067.00
2024-05-19 09:17:57.727975,-1,1,-12,0,0,-1,90,93,10,-10,44,103.08,310,21.00,0.00,-864.00
2024-05-19 09:17:57.830141,0,0,-12,0,0,0,90,93,10,-10,44,102.55,311,21.00,-7.00,-780.00
