TS,pitch,roll,yaw,vgx,vgy,vgz,templ,temph,tof,h,bat,baro,time,agx,agy,agz
2024-05-19 09:18:17.714067,0,0,-3,0,0,0,90,92,10,0,44,105.17,311,14.00,10.00,-999.00
2024-05-19 09:18:17.722900,0,0,-3,0,0,0,90,92,10,0,44,105.28,311,16.00,10.00,-1000.00
2024-05-19 09:18:17.824929,0,0,-3,0,0,0,90,92,10,0,44,105.33,311,15.00,9.00,-1003.00
2024-05-19 09:18:17.927182,0,0,-3,0,0,0,90,92,10,0,44,105.38,311,15.00,10.00,-1001.00
2024-05-19 09:18:18.123771,0,0,-3,0,0,0,90,92,10,0,44,105.13,311,16.00,11.00,-999.00
2024-05-19 09:18:18.130831,0,0,-3,0,0,0,90,92,10,0,44,104.86,311,14.00,9.00,-1002.00
2024-05-19 09:18:18.328349,0,0,-3,0,0,0,90,92,10,0,44,105.42,311,14.00,10.00,-1000.00
2024-05-19 09:18:18.334724,0,0,-3,0,0,0,90,92,10,0,44,105.30,311,15.00,9.00,-996.00
2024-05-19 09:18:18.533389,0,0,-3,0,0,0,90,92,10,0,44,105.66,311,13.00,10.00,-999.00
2024-05-19 09:18:18.539050,0,0,-3,0,0,0,90,92,10,0,44,105.25,311,14.00,10.00,-1000.00
2024-05-19 09:18:18.737982,0,0,-3,0,0,0,90,92,10,0,44,104.98,311,16.00,10.00,-999.00
2024-05-19 09:18:18.742688,0,0,-3,0,0,0,91,92,10,0,44,105.47,311,15.00,11.00,-1002.00
2024-05-19 09:18:18.844829,0,0,-3,0,0,0,91,92,10,0,44,105.14,311,15.00,11.00,-998.00
2024-05-19 09:18:18.946824,0,0,-3,0,0,0,91,92,10,0,44,105.21,311,14.00,9.00,-1000.00
2024-05-19 09:18:19.048838,0,0,-3,0,0,0,91,92,10,0,44,104.86,311,14.00,9.00,-999.00
2024-05-19 09:18:19.250228,0,0,-3,0,0,0,91,92,10,0,44,105.24,311,15.00,11.00,-1003.00
2024-05-19 09:18:19.252863,0,0,-3,0,0,0,91,92,10,0,44,105.32,311,14.00,9.00,-999.00
2024-05-19 09:18:19.354753,0,0,-3,0,0,0,91,92,10,0,44,105.29,311,16.00,10.00,-1001.00
2024-05-19 09:18:19.456944,0,0,-3,0,0,0,91,92,10,0,44,105.19,311,15.00,10.00,-1001.00
2024-05-19 09:18:19.508204,0,0,-3,0,0,0,91,92,10,0,44,105.25,311,15.00,11.00,-1000.00
2024-05-19 09:18:19.659766,0,0,-3,0,0,0,91,92,10,0,44,105.31,311,15.00,9.00,-999.00
2024-05-19 09:18:19.762707,0,0,-3,0,0,0,91,92,10,0,44,105.51,311,15.00,11.00,-999.00
2024-05-19 09:18:19.864814,0,0,-3,0,0,0,91,92,10,0,44,105.43,311,15.00,11.00,-1001.00
2024-05-19 09:18:19.966955,0,0,-3,0,0,0,91,92,10,0,44,105.18,311,15.00,10.00,-997.00
2024-05-19 09:18:20.017678,0,0,-3,0,0,0,91,92,10,0,44,105.18,312,15.00,12.00,-1000.00
2024-05-19 09:18:20.171611,0,0,-3,0,0,0,91,92,10,0,44,105.18,312,15.00,10.00,-1000.00
2024-05-19 09:18:20.222003,0,0,-3,0,0,0,91,92,10,0,44,105.18,312,8.00,6.00,-1002.00
2024-05-19 09:18:20.376377,0,0,-3,0,0,0,91,92,10,0,44,105.18,312,5.00,2.00,-1002.00
2024-05-19 09:18:20.425576,0,0,-3,0,0,0,91,92,10,0,44,105.18,312,11.00,6.00,-999.00
2024-05-19 09:18:20.527628,0,0,-3,0,0,0,91,92,10,0,44,105.18,312,14.00,0.00,-1008.00
2024-05-19 09:18:20.683615,0,-2,-3,0,0,-1,91,92,10,0,44,105.18,312,4.00,9.00,-1054.00
2024-05-19 09:18:20.731617,0,0,-3,0,0,-3,91,94,10,0,44,105.18,312,-14.00,-10.00,-1244.00
2024-05-19 09:18:20.833536,-1,2,-3,0,0,-5,91,94,19,0,44,105.18,312,35.00,-19.00,-1095.00
2024-05-19 09:18:20.990816,-1,2,-3,0,0,-6,91,94,27,0,44,105.83,312,14.00,-20.00,-1048.00
2024-05-19 09:18:21.037569,0,1,-3,0,0,-7,91,94,36,10,44,105.74,313,-20.00,-14.00,-982.00
2024-05-19 09:18:21.195719,0,2,-3,0,0,-6,91,94,44,10,44,105.66,313,-28.00,-27.00,-948.00
2024-05-19 09:18:21.241491,0,2,-3,0,0,-6,91,94,49,20,44,105.92,313,-1.00,-32.00,-930.00
2024-05-19 09:18:21.400300,0,2,-3,0,0,-5,91,94,58,20,44,106.06,313,-5.00,-21.00,-908.00
2024-05-19 09:18:21.445684,0,2,-3,0,0,-4,91,94,65,30,44,105.90,313,-35.00,-33.00,-889.00
2024-05-19 09:18:21.547730,0,1,-3,0,0,-3,91,94,71,30,44,106.24,313,-7.00,-23.00,-882.00
2024-05-19 09:18:21.708038,0,1,-3,0,0,-2,91,94,72,40,44,105.94,313,-27.00,-22.00,-908.00
2024-05-19 09:18:21.751620,0,1,-3,0,0,-2,91,94,76,40,44,105.97,313,-48.00,-1.00,-896.00
2024-05-19 09:18:21.853487,0,1,-3,0,0,-1,91,94,80,40,44,105.96,313,-33.00,-27.00,-921.00
2024-05-19 09:18:22.015165,0,1,-3,0,0,0,91,94,83,40,44,106.10,313,0.00,-32.00,-971.00
2024-05-19 09:18:22.057847,-1,0,-3,0,0,0,91,94,85,40,44,106.25,314,10.00,-20.00,-977.00
2024-05-19 09:18:22.219476,0,0,-3,0,0,0,91,94,87,50,44,106.49,314,-46.00,-9.00,-960.00
2024-05-19 09:18:22.261398,0,0,-3,0,0,0,91,94,89,50,44,106.26,314,-4.00,-35.00,-995.00
2024-05-19 09:18:22.424327,0,0,-3,0,0,0,91,94,91,50,44,106.04,314,-23.00,-16.00,-958.00
2024-05-19 09:18:22.465726,0,0,-3,0,0,0,91,94,92,50,44,106.15,314,-4.00,-28.00,-998.00
2024-05-19 09:18:22.567526,0,0,-3,0,0,0,91,94,94,50,44,106.35,314,-5.00,13.00,-972.00
2024-05-19 09:18:23.038995,0,0,-3,0,0,0,91,94,95,50,44,106.23,314,-34.00,-18.00,-978.00
2024-05-19 09:18:23.039179,0,0,-3,0,0,0,91,93,96,50,44,106.15,314,-41.00,0.00,-983.00
2024-05-19 09:18:23.039497,0,0,-3,0,0,0,91,93,97,50,44,106.65,314,-23.00,-4.00,-953.00
2024-05-19 09:18:23.039703,-1,0,-3,0,0,0,91,93,97,60,44,106.49,314,-19.00,-2.00,-995.00
2024-05-19 09:18:23.077595,0,0,-3,0,0,0,91,93,97,60,44,106.35,315,-13.00,-36.00,-973.00
2024-05-19 09:18:23.243538,0,0,-3,0,0,0,91,93,97,60,44,106.19,315,-24.00,7.00,-969.00
2024-05-19 09:18:23.243591,0,0,-3,0,0,0,91,93,97,60,44,106.30,315,-58.00,-2.00,-956.00
2024-05-19 09:18:23.332499,0,0,-3,0,0,1,91,93,96,60,44,106.18,315,-7.00,-6.00,-979.00
2024-05-19 09:18:23.448255,0,0,-3,0,0,1,91,93,95,60,44,106.27,315,-24.00,-3.00,-994.00
2024-05-19 09:18:23.536582,0,0,-3,0,0,1,91,93,94,60,44,106.05,315,-41.00,-4.00,-960.00
2024-05-19 09:18:23.653174,0,0,-3,0,0,1,91,93,92,60,44,106.14,315,1.00,-15.00,-1003.00
2024-05-19 09:18:23.740476,0,0,-3,0,0,1,91,95,91,60,44,106.33,315,-5.00,-5.00,-967.00
2024-05-19 09:18:23.857944,0,0,-3,0,0,1,91,95,89,60,44,106.03,315,-12.00,-13.00,-1005.00
2024-05-19 09:18:23.944452,0,0,-3,0,0,1,91,95,88,50,44,105.86,315,-41.00,-22.00,-997.00
2024-05-19 09:18:24.062730,0,0,-3,0,0,1,91,95,86,50,44,106.16,316,-28.00,-20.00,-1021.00
2024-05-19 09:18:24.148458,-1,0,-3,0,0,1,91,95,84,50,44,106.14,316,-13.00,-7.00,-1022.00
2024-05-19 09:18:24.267482,0,1,-3,0,0,1,91,95,82,50,44,105.95,316,-49.00,-27.00,-994.00
2024-05-19 09:18:24.352759,0,1,-3,0,0,1,91,95,81,50,44,106.15,316,-26.00,-12.00,-1019.00
2024-05-19 09:18:24.472268,0,0,-3,0,0,0,91,95,80,50,44,106.11,316,-22.00,-28.00,-978.00
2024-05-19 09:18:24.556496,0,0,-3,0,0,0,91,95,79,50,44,106.26,316,-9.00,6.00,-1012.00
2024-05-19 09:18:24.677147,0,0,-3,0,0,0,91,95,78,50,44,106.34,316,5.00,0.00,-977.00
2024-05-19 09:18:24.760444,0,0,-3,0,0,0,92,94,76,40,44,105.87,316,24.00,-20.00,-1007.00
2024-05-19 09:18:24.862398,0,0,-3,0,0,0,92,94,75,40,44,106.37,316,4.00,-42.00,-998.00
2024-05-19 09:18:24.984505,0,1,-3,0,0,0,92,94,74,40,44,106.21,316,30.00,-8.00,-1040.00
2024-05-19 09:18:25.066442,1,1,-3,0,0,0,92,94,73,40,44,106.02,317,30.00,-28.00,-1038.00
2024-05-19 09:18:25.191056,1,1,-3,0,0,0,92,94,73,40,44,105.71,317,46.00,-2.00,-1020.00
2024-05-19 09:18:25.270446,1,1,-3,0,0,0,92,94,72,40,44,105.83,317,50.00,-33.00,-1005.00
2024-05-19 09:18:25.393976,2,0,-3,0,0,0,92,94,72,40,44,105.60,317,4.00,-23.00,-1034.00
2024-05-19 09:18:25.474313,2,0,-3,0,0,0,92,94,72,40,44,105.97,317,16.00,-8.00,-1026.00
2024-05-19 09:18:25.576384,2,0,-3,0,0,0,92,94,71,40,44,106.20,317,38.00,-31.00,-1026.00
2024-05-19 09:18:25.701470,3,1,-3,0,0,0,92,94,71,40,44,105.94,317,27.00,-42.00,-995.00
2024-05-19 09:18:25.780341,2,1,-3,0,0,0,92,93,71,40,44,105.92,317,36.00,-39.00,-1028.00
2024-05-19 09:18:25.906003,1,1,-3,0,0,0,92,93,71,40,44,106.30,317,11.00,3.00,-1021.00
2024-05-19 09:18:25.984573,1,1,-3,0,0,0,92,93,72,40,44,106.22,317,21.00,-35.00,-988.00
2024-05-19 09:18:26.111127,1,1,-3,0,0,0,92,93,72,40,44,105.90,318,0.00,-48.00,-1006.00
2024-05-19 09:18:26.188326,1,1,-3,0,0,0,92,93,73,40,44,106.09,318,17.00,-23.00,-1036.00
2024-05-19 09:18:26.422613,0,1,-3,0,0,0,92,93,74,40,44,106.12,318,11.00,-16.00,-974.00
2024-05-19 09:18:26.422667,0,1,-3,0,0,0,92,93,74,40,44,105.97,318,23.00,-18.00,-1017.00
2024-05-19 09:18:26.494397,0,0,-3,0,0,0,92,93,75,40,44,105.94,318,24.00,-36.00,-978.00
2024-05-19 09:18:26.622837,0,0,-3,0,0,0,92,93,75,40,44,105.99,318,41.00,-36.00,-999.00
2024-05-19 09:18:26.698356,0,1,-3,0,0,0,92,93,75,40,44,106.31,318,31.00,-41.00,-996.00
2024-05-19 09:18:26.827514,1,2,-3,0,0,0,92,94,76,40,44,105.81,318,37.00,-19.00,-1013.00
2024-05-19 09:18:26.902331,1,2,-3,0,0,0,92,94,76,40,44,105.93,318,10.00,-37.00,-979.00
2024-05-19 09:18:27.032923,1,1,-3,0,0,0,92,94,76,40,44,105.98,318,32.00,-56.00,-985.00
2024-05-19 09:18:27.106410,1,1,-3,0,0,0,92,94,76,40,44,105.76,319,22.00,-9.00,-1012.00
2024-05-19 09:18:27.238759,1,1,-3,0,0,0,92,94,76,40,44,106.21,319,31.00,-17.00,-1024.00
2024-05-19 09:18:27.259284,1,1,-3,0,0,0,92,94,76,40,44,106.03,319,23.00,-42.00,-992.00
2024-05-19 09:18:27.442234,2,1,-3,0,0,0,92,94,76,40,44,106.27,319,29.00,-25.00,-1017.00
2024-05-19 09:18:27.463276,1,1,-3,0,0,0,92,94,76,40,44,106.17,319,12.00,-2.00,-990.00
2024-05-19 09:18:27.565249,1,1,-3,0,0,0,92,94,76,40,44,105.89,319,3.00,-40.00,-977.00
2024-05-19 09:18:27.750262,1,1,-3,0,0,0,92,94,76,40,44,106.13,319,13.00,-29.00,-1004.00
2024-05-19 09:18:27.769110,1,2,-3,0,0,0,91,94,76,40,44,105.96,319,22.00,-52.00,-976.00
2024-05-19 09:18:27.871609,1,2,-3,0,0,0,91,94,75,40,44,105.67,319,20.00,-37.00,-1026.00
2024-05-19 09:18:28.056311,1,2,-3,0,0,0,91,94,75,40,44,106.20,319,0.00,0.00,-1001.00
2024-05-19 09:18:28.075164,1,1,-3,0,0,0,91,94,75,40,44,106.16,320,20.00,-24.00,-1027.00
2024-05-19 09:18:28.262767,1,1,-3,0,0,0,91,94,75,40,44,105.84,320,32.00,-34.00,-979.00
2024-05-19 09:18:28.279241,1,1,-3,0,0,0,91,94,75,40,44,105.89,320,22.00,-37.00,-985.00
2024-05-19 09:18:28.572749,1,2,-3,0,0,0,91,94,75,40,44,105.70,320,30.00,-33.00,-1000.00
2024-05-19 09:18:28.573274,2,2,-3,0,0,0,91,94,75,40,44,106.06,320,37.00,-15.00,-1060.00
2024-05-19 09:18:28.585116,1,2,-3,0,0,0,91,94,75,40,44,105.96,320,34.00,-22.00,-1006.00
2024-05-19 09:18:28.773178,1,2,-3,0,0,0,91,94,76,40,44,106.21,320,33.00,-26.00,-1022.00
2024-05-19 09:18:28.789273,1,1,-3,0,0,0,91,94,76,40,44,106.01,320,21.00,-39.00,-1009.00
2024-05-19 09:18:28.979989,2,1,-3,0,0,0,91,94,76,40,44,106.04,320,25.00,-29.00,-1046.00
2024-05-19 09:18:28.994173,2,1,-3,0,0,0,91,94,76,40,44,105.85,320,27.00,-43.00,-970.00
2024-05-19 09:18:29.191716,1,1,-3,0,0,0,91,94,76,40,44,106.19,321,12.00,-51.00,-1002.00
2024-05-19 09:18:29.198420,1,2,-3,0,0,0,91,94,76,40,44,106.24,321,11.00,-66.00,-984.00
2024-05-19 09:18:29.389268,1,2,-3,0,0,0,91,94,77,40,44,105.97,321,15.00,-56.00,-967.00
2024-05-19 09:18:29.402257,1,2,-3,0,0,0,91,94,77,40,44,106.27,321,11.00,-40.00,-980.00
2024-05-19 09:18:29.596830,1,2,-3,0,0,0,91,94,77,40,44,106.11,321,34.00,-25.00,-1010.00
2024-05-19 09:18:29.606371,1,2,-3,0,0,0,91,94,77,40,44,105.77,321,25.00,-55.00,-992.00
2024-05-19 09:18:29.798832,1,2,-3,0,0,0,91,94,77,40,44,106.02,321,35.00,-51.00,-1002.00
2024-05-19 09:18:29.810407,1,2,-3,0,0,0,92,95,77,40,44,105.83,321,37.00,-37.00,-1014.00
2024-05-19 09:18:30.003874,1,2,-3,0,0,0,92,95,76,40,44,105.92,321,11.00,-71.00,-978.00
2024-05-19 09:18:30.014184,1,1,-3,0,0,0,92,95,76,40,44,105.96,322,19.00,-48.00,-992.00
2024-05-19 09:18:30.211091,0,2,-3,0,0,0,92,95,75,40,44,105.73,322,6.00,-26.00,-983.00
2024-05-19 09:18:30.218073,0,2,-3,0,0,0,92,95,74,40,44,105.68,322,9.00,-56.00,-977.00
2024-05-19 09:18:30.522804,0,2,-3,0,0,0,92,95,73,40,44,105.66,322,32.00,-29.00,-1045.00
2024-05-19 09:18:30.523009,0,2,-3,0,0,0,92,95,72,40,44,105.66,322,12.00,-77.00,-1020.00
2024-05-19 09:18:30.524241,0,2,-3,0,0,0,92,95,72,40,44,106.00,322,19.00,-35.00,-1007.00
2024-05-19 09:18:30.626041,0,3,-3,0,0,0,92,95,71,40,44,105.87,322,-19.00,-38.00,-1009.00
2024-05-19 09:18:30.822841,0,3,-3,0,0,0,92,95,71,40,44,105.85,322,32.00,-50.00,-1047.00
2024-05-19 09:18:30.830038,0,2,-3,0,0,0,92,93,71,40,44,106.00,322,17.00,-52.00,-1065.00
2024-05-19 09:18:30.932359,0,2,-3,0,0,-1,92,93,72,40,44,105.65,322,14.00,-59.00,-1096.00
2024-05-19 09:18:30.983134,1,3,-3,0,0,-2,92,93,74,40,44,106.44,323,1.00,-77.00,-1062.00
2024-05-19 09:18:31.130359,1,3,-3,0,0,-3,92,93,77,40,44,106.27,323,6.00,-75.00,-1086.00
2024-05-19 09:18:31.187235,0,3,-3,0,0,-3,92,93,81,50,44,106.04,323,16.00,-53.00,-1063.00
2024-05-19 09:18:31.333084,1,3,-3,0,0,-4,92,93,85,50,44,105.88,323,4.00,-66.00,-1005.00
2024-05-19 09:18:31.391052,1,3,-3,0,0,-5,92,93,90,60,44,106.22,323,21.00,-78.00,-1039.00
2024-05-19 09:18:31.495578,1,3,-3,0,0,-5,92,93,96,60,44,106.38,323,13.00,-49.00,-1026.00
2024-05-19 09:18:31.595068,0,3,-3,0,0,-5,92,93,102,70,44,106.31,323,-2.00,-50.00,-1015.00
2024-05-19 09:18:31.742667,0,3,-3,0,0,-5,92,93,107,70,44,106.33,323,10.00,-47.00,-995.00
2024-05-19 09:18:31.798999,0,3,-3,0,0,-5,92,94,113,80,44,106.32,323,14.00,-59.00,-1020.00
2024-05-19 09:18:31.947473,1,3,-3,0,0,-5,92,94,119,90,44,106.64,323,34.00,-63.00,-990.00
2024-05-19 09:18:32.003016,1,4,-3,0,0,-5,92,94,125,90,44,106.30,324,34.00,-71.00,-967.00
2024-05-19 09:18:32.152308,1,4,-3,0,0,-5,92,94,131,100,44,106.47,324,19.00,-36.00,-989.00
2024-05-19 09:18:32.207283,1,3,-3,0,0,-4,92,94,136,100,44,106.28,324,0.00,-61.00,-930.00
2024-05-19 09:18:32.358727,0,3,-3,0,0,-4,92,94,141,110,44,106.80,324,25.00,-61.00,-987.00
2024-05-19 09:18:32.410985,0,3,-3,0,0,-3,92,94,145,110,44,106.73,324,13.00,-70.00,-949.00
2024-05-19 09:18:32.513045,0,4,-3,0,0,-3,92,94,149,110,44,106.59,324,23.00,-50.00,-970.00
2024-05-19 09:18:32.615874,1,4,-3,0,0,-3,92,94,153,120,44,106.51,324,-6.00,-43.00,-973.00
2024-05-19 09:18:32.717359,1,4,-3,0,0,-2,92,94,156,120,44,106.94,324,8.00,-63.00,-960.00
2024-05-19 09:18:32.819222,0,3,-3,0,0,-2,91,95,160,120,44,106.80,324,-6.00,-58.00,-977.00
2024-05-19 09:18:32.971432,0,3,-3,0,0,-2,91,95,163,130,44,106.84,324,0.00,-71.00,-976.00
2024-05-19 09:18:33.023012,0,3,-3,0,0,-2,91,95,165,130,44,106.71,325,0.00,-82.00,-957.00
2024-05-19 09:18:33.176295,0,3,-3,0,0,-1,91,95,167,130,44,106.95,325,19.00,-77.00,-970.00
2024-05-19 09:18:33.228349,0,4,-3,0,0,-1,91,95,169,130,44,106.97,325,18.00,-62.00,-976.00
2024-05-19 09:18:33.382586,1,4,-3,0,0,-1,91,95,172,130,44,106.50,325,5.00,-77.00,-985.00
2024-05-19 09:18:33.432242,1,3,-3,0,0,-1,91,95,173,140,44,107.11,325,35.00,-52.00,-990.00
2024-05-19 09:18:33.533267,1,3,-3,0,0,0,91,95,175,140,44,106.88,325,20.00,-74.00,-957.00
2024-05-19 09:18:33.635399,2,3,-3,0,0,0,91,95,176,140,44,106.61,325,-30.00,-63.00,-953.00
2024-05-19 09:18:33.737055,2,3,-3,0,0,0,91,95,177,140,44,107.05,325,1.00,-60.00,-983.00
2024-05-19 09:18:33.839711,1,4,-3,0,0,0,90,94,177,140,44,106.68,325,19.00,-74.00,-973.00
2024-05-19 09:18:33.941005,1,3,-3,0,0,0,90,94,178,140,44,106.99,325,30.00,-50.00,-950.00
2024-05-19 09:18:34.099425,2,3,-3,0,0,0,90,94,178,140,44,106.99,326,12.00,-70.00,-1000.00
2024-05-19 09:18:34.145034,2,3,-3,0,0,0,90,94,178,140,44,107.14,326,17.00,-73.00,-1007.00
2024-05-19 09:18:34.247086,2,3,-3,0,0,0,90,94,178,140,44,106.78,326,11.00,-55.00,-1026.00
2024-05-19 09:18:34.405123,2,3,-3,0,0,0,90,94,179,140,44,107.14,326,17.00,-73.00,-956.00
2024-05-19 09:18:34.450991,1,3,-3,0,0,0,90,94,179,140,44,106.82,326,26.00,-77.00,-1000.00
2024-05-19 09:18:34.501933,1,3,-3,0,0,0,90,94,178,140,44,106.87,326,-5.00,-56.00,-976.00
2024-05-19 09:18:34.604022,0,3,-3,0,0,0,90,94,178,140,44,106.45,326,13.00,-57.00,-1012.00
2024-05-19 09:18:34.712331,0,2,-3,0,0,0,90,94,178,140,44,106.88,326,24.00,-46.00,-1003.00
2024-05-19 09:18:34.808236,0,2,-3,0,0,0,92,94,179,140,44,106.97,326,10.00,-46.00,-1025.00
2024-05-19 09:18:34.917125,0,2,-3,0,0,0,92,94,178,140,44,106.75,326,-3.00,-41.00,-1015.00
2024-05-19 09:18:35.011961,0,2,-3,0,0,0,92,94,179,140,44,106.93,327,12.00,-65.00,-973.00
2024-05-19 09:18:35.123240,0,2,-3,0,0,0,92,94,179,140,44,106.77,327,-4.00,-35.00,-991.00
2024-05-19 09:18:35.216004,0,2,-3,0,0,0,92,94,179,140,44,106.75,327,-10.00,-40.00,-996.00
2024-05-19 09:18:35.326721,0,2,-3,0,0,0,92,94,179,140,44,106.85,327,36.00,-73.00,-1018.00
2024-05-19 09:18:35.419772,0,2,-3,0,0,0,92,94,179,140,44,106.81,327,56.00,-81.00,-993.00
2024-05-19 09:18:35.521932,0,2,-3,0,0,0,92,94,180,140,44,106.85,327,82.00,-70.00,-971.00
2024-05-19 09:18:35.623726,3,3,-3,1,0,0,92,94,180,140,44,107.12,327,100.00,-86.00,-937.00
2024-05-19 09:18:35.725798,5,4,-3,1,0,0,92,94,180,140,44,106.90,327,85.00,-50.00,-898.00
2024-05-19 09:18:35.838606,6,4,-3,1,0,1,91,95,179,140,44,107.25,327,85.00,-52.00,-965.00
2024-05-19 09:18:35.929796,6,4,-3,1,0,1,91,95,178,140,44,106.94,327,84.00,-87.00,-911.00
2024-05-19 09:18:36.043362,6,4,-3,0,0,2,91,95,175,140,44,106.80,328,66.00,-98.00,-961.00
2024-05-19 09:18:36.133767,6,5,-3,0,0,2,91,95,173,140,44,106.87,328,96.00,-77.00,-925.00
2024-05-19 09:18:36.249724,6,5,-3,0,0,2,91,95,172,130,44,106.65,328,108.00,-68.00,-996.00
2024-05-19 09:18:36.337760,7,5,-3,1,0,2,91,95,169,130,44,106.94,328,103.00,-68.00,-958.00
2024-05-19 09:18:36.453244,7,4,-3,1,0,2,91,95,166,130,44,107.02,328,100.00,-81.00,-936.00
2024-05-19 09:18:36.541823,8,4,-3,0,0,3,91,95,164,130,44,106.77,328,92.00,-90.00,-976.00
2024-05-19 09:18:36.657872,8,4,-3,0,0,3,91,95,160,120,44,106.79,328,89.00,-115.00,-997.00
2024-05-19 09:18:36.745696,7,5,-3,0,0,3,91,95,156,120,44,106.63,328,50.00,-108.00,-1001.00
2024-05-19 09:18:36.847740,6,6,-3,0,0,3,92,95,153,120,44,106.62,328,43.00,-123.00,-1034.00
2024-05-19 09:18:36.965068,5,7,-3,-1,0,3,92,95,150,110,44,106.84,328,48.00,-97.00,-964.00
2024-05-19 09:18:37.051657,3,7,-3,-1,0,3,92,95,146,110,44,106.91,329,50.00,-45.00,-1031.00
2024-05-19 09:18:37.169849,2,6,-3,-1,0,2,92,95,143,110,44,106.83,329,44.00,-44.00,-1060.00
2024-05-19 09:18:37.255715,1,4,-3,-1,0,2,92,95,141,110,44,106.23,329,17.00,-68.00,-1033.00
2024-05-19 09:18:37.374578,2,4,-3,-1,0,1,92,95,139,100,44,106.40,329,39.00,-76.00,-1055.00
2024-05-19 09:18:37.459681,1,3,-3,-1,0,1,92,95,138,100,44,106.38,329,30.00,-97.00,-977.00
2024-05-19 09:18:37.580294,0,3,-3,-1,0,1,92,95,137,100,44,106.35,329,14.00,-94.00,-977.00
2024-05-19 09:18:37.664205,0,4,-3,-1,0,1,92,95,136,100,44,106.62,329,32.00,-96.00,-1009.00
2024-05-19 09:18:37.784197,0,4,-3,-1,0,0,92,95,135,100,44,106.65,329,24.00,-87.00,-1017.00
2024-05-19 09:18:37.867676,0,4,-3,-1,0,0,92,94,134,100,44,106.38,329,31.00,-96.00,-1009.00
2024-05-19 09:18:37.969753,0,3,-3,-1,0,0,92,94,133,100,44,106.20,329,23.00,-81.00,-1020.00
2024-05-19 09:18:38.091609,0,4,-3,0,0,0,92,94,132,100,44,106.38,330,18.00,-84.00,-1063.00
2024-05-19 09:18:38.173815,1,4,-3,0,0,0,92,94,132,100,44,106.39,330,12.00,-76.00,-1008.00
2024-05-19 09:18:38.224873,0,4,-3,0,0,0,92,94,132,100,44,106.72,330,4.00,-63.00,-1013.00
2024-05-19 09:18:38.399449,0,4,-3,-1,0,0,92,94,132,100,44,106.54,330,-12.00,-82.00,-1022.00
2024-05-19 09:18:38.432948,0,3,-3,-1,0,0,92,94,132,100,44,106.62,330,12.00,-94.00,-1023.00
2024-05-19 09:18:38.531855,0,4,-3,0,0,0,92,94,132,100,44,106.43,330,-14.00,-88.00,-957.00
2024-05-19 09:18:38.632802,0,6,-3,0,0,0,92,94,133,100,44,106.72,330,-2.00,-63.00,-1051.00
2024-05-19 09:18:38.808420,0,4,-3,0,0,0,92,94,132,100,44,106.45,330,-21.00,-87.00,-1040.00
2024-05-19 09:18:38.836851,0,5,-3,-1,0,0,92,95,132,100,44,106.41,330,-48.00,-84.00,-1034.00
2024-05-19 09:18:39.013553,0,5,-3,-1,0,0,92,95,133,100,44,106.81,330,-78.00,-54.00,-998.00
2024-05-19 09:18:39.040653,-2,5,-3,-1,0,0,92,95,133,100,44,106.33,331,-58.00,-43.00,-990.00
2024-05-19 09:18:39.320484,-3,4,-3,-1,0,0,92,95,134,100,44,106.23,331,-84.00,-63.00,-1010.00
2024-05-19 09:18:39.320703,-4,4,-3,-1,0,0,92,95,133,100,44,106.20,331,-80.00,-59.00,-967.00
2024-05-19 09:18:39.346647,-5,2,-3,-1,1,0,92,95,133,100,44,106.62,331,-46.00,-39.00,-1015.00
2024-05-19 09:18:39.525302,-5,2,-3,-1,0,0,92,95,133,100,44,106.50,331,-82.00,-38.00,-968.00
2024-05-19 09:18:39.550882,-4,1,-3,-1,0,0,92,95,133,100,44,106.57,331,-66.00,-57.00,-994.00
2024-05-19 09:18:39.729973,-3,1,-4,0,0,0,92,95,133,100,44,106.52,331,-30.00,-75.00,-1019.00
2024-05-19 09:18:39.754637,-3,1,-3,0,0,0,92,95,133,100,44,106.51,331,-30.00,-61.00,-1018.00
2024-05-19 09:18:39.922975,-3,3,-3,0,0,0,91,94,134,100,44,106.29,331,-7.00,-82.00,-975.00
2024-05-19 09:18:39.958444,-2,3,-3,0,0,0,91,94,133,100,44,106.53,331,-38.00,-98.00,-1000.00
2024-05-19 09:18:40.139391,-1,3,-3,0,0,0,91,94,133,100,44,106.55,332,-48.00,-90.00,-955.00
2024-05-19 09:18:40.162509,-2,4,-3,0,0,0,91,94,134,100,44,106.00,332,-35.00,-76.00,-979.00
2024-05-19 09:18:40.344287,-7,4,-3,1,0,0,91,94,135,100,44,106.35,332,-36.00,-83.00,-976.00
2024-05-19 09:18:40.366560,-8,3,-3,2,0,0,91,94,135,100,44,106.34,332,-16.00,-69.00,-1012.00
2024-05-19 09:18:40.548971,-7,4,-3,3,0,0,91,94,134,100,43,106.17,332,-41.00,-70.00,-1000.00
2024-05-19 09:18:40.570736,-7,5,-3,4,0,0,91,94,132,100,43,106.57,332,-41.00,-53.00,-988.00
2024-05-19 09:18:40.753776,-7,4,-3,5,0,0,91,94,133,100,43,106.51,332,-3.00,-85.00,-1003.00
2024-05-19 09:18:40.774381,-7,4,-3,6,0,0,91,94,133,100,43,106.36,332,-28.00,-59.00,-1002.00
2024-05-19 09:18:40.958671,-6,5,-3,7,0,0,92,95,132,100,43,106.38,332,-38.00,-99.00,-976.00
2024-05-19 09:18:40.978467,-4,5,-3,7,0,0,92,95,131,100,43,106.58,332,-35.00,-97.00,-1028.00
2024-05-19 09:18:41.163368,0,5,-3,8,0,0,92,95,130,100,43,106.27,333,-47.00,-88.00,-1007.00
2024-05-19 09:18:41.182437,2,5,-2,7,0,0,92,95,130,100,43,106.54,333,-64.00,-95.00,-977.00
2024-05-19 09:18:41.368181,3,4,-2,6,0,0,92,95,130,100,43,106.43,333,-22.00,-107.00,-996.00
2024-05-19 09:18:41.386560,3,4,-2,5,0,0,92,95,130,100,43,106.29,333,-11.00,-75.00,-1023.00
2024-05-19 09:18:41.572971,3,5,-3,5,0,0,92,95,130,100,43,106.63,333,-26.00,-62.00,-994.00
2024-05-19 09:18:41.591403,3,4,-3,4,0,0,92,95,130,100,43,106.44,333,0.00,-101.00,-973.00
2024-05-19 09:18:41.777768,2,3,-3,4,0,0,92,95,130,100,43,106.50,333,18.00,-128.00,-984.00
2024-05-19 09:18:41.794466,3,4,-3,3,0,0,92,95,130,100,43,106.61,333,3.00,-90.00,-980.00
2024-05-19 09:18:41.982552,5,5,-3,3,0,0,92,94,131,100,43,106.50,333,-23.00,-137.00,-969.00
2024-05-19 09:18:41.998442,7,6,-2,2,0,0,92,94,130,100,43,106.36,333,3.00,-83.00,-1035.00
2024-05-19 09:18:42.049384,4,8,-3,1,0,0,92,94,130,100,43,106.31,334,-12.00,-81.00,-1001.00
2024-05-19 09:18:42.187362,2,8,-3,0,0,0,92,94,130,100,43,106.42,334,-12.00,-102.00,-973.00
2024-05-19 09:18:42.253388,1,8,-3,0,0,0,92,94,129,90,43,106.54,334,40.00,-81.00,-1011.00
2024-05-19 09:18:42.392274,0,8,-3,0,1,0,92,94,129,90,43,106.22,334,40.00,-93.00,-1036.00
2024-05-19 09:18:42.457692,1,7,-3,0,1,0,92,94,130,90,42,106.45,334,20.00,-67.00,-960.00
2024-05-19 09:18:42.597964,1,1,-3,0,1,0,92,94,131,100,42,106.13,334,39.00,-119.00,-1008.00
2024-05-19 09:18:42.661687,1,1,-3,0,0,0,92,94,131,100,42,106.01,334,28.00,-72.00,-989.00
2024-05-19 09:18:42.801892,1,3,-3,0,0,0,92,94,132,100,42,106.55,334,37.00,-79.00,-1001.00
2024-05-19 09:18:42.865440,1,4,-3,0,0,0,92,94,133,100,42,106.34,334,3.00,-63.00,-976.00
2024-05-19 09:18:43.006685,2,4,-3,0,0,0,92,94,134,100,42,106.41,334,51.00,-66.00,-1015.00
2024-05-19 09:18:43.069578,2,3,-3,0,0,0,92,94,134,100,42,106.06,335,37.00,-83.00,-959.00
2024-05-19 09:18:43.211438,2,3,-3,0,0,0,92,94,136,100,42,106.31,335,17.00,-45.00,-995.00
2024-05-19 09:18:43.273487,2,3,-3,0,0,0,92,94,136,100,42,106.48,335,29.00,-73.00,-969.00
2024-05-19 09:18:43.416183,2,3,-3,0,0,0,92,94,137,100,42,106.43,335,32.00,-78.00,-969.00
2024-05-19 09:18:43.477424,2,3,-3,0,0,0,92,94,137,100,42,106.28,335,48.00,-62.00,-1016.00
2024-05-19 09:18:43.621428,2,4,-3,0,0,0,92,94,136,100,42,106.41,335,49.00,-57.00,-978.00
2024-05-19 09:18:43.681329,2,4,-3,0,0,0,92,94,136,100,42,106.32,335,24.00,-51.00,-963.00
2024-05-19 09:18:43.783356,2,3,-3,0,0,0,92,94,137,100,42,106.47,335,47.00,-81.00,-950.00
2024-05-19 09:18:43.928147,3,3,-3,0,0,0,92,94,136,100,42,106.34,335,53.00,-69.00,-987.00
2024-05-19 09:18:43.987708,3,3,-3,0,0,0,92,94,136,100,42,106.25,335,68.00,-66.00,-975.00
2024-05-19 09:18:44.133006,3,4,-3,0,0,0,92,94,134,100,42,106.61,336,51.00,-60.00,-967.00
2024-05-19 09:18:44.191425,3,3,-3,0,0,0,92,94,134,100,42,106.27,336,53.00,-88.00,-1007.00
2024-05-19 09:18:44.337849,3,2,-3,0,0,0,92,94,134,100,42,106.51,336,45.00,-73.00,-1017.00
2024-05-19 09:18:44.395369,3,3,-3,0,0,0,92,94,133,100,42,106.34,336,42.00,-66.00,-1043.00
2024-05-19 09:18:44.542587,3,3,-3,0,0,0,92,94,132,100,42,106.23,336,39.00,-82.00,-995.00
2024-05-19 09:18:44.599523,2,4,-3,0,0,0,92,94,131,100,42,106.31,336,25.00,-82.00,-990.00
2024-05-19 09:18:44.701373,2,4,-3,0,0,0,92,94,131,100,42,106.43,336,47.00,-50.00,-1020.00
2024-05-19 09:18:44.849698,2,4,-3,0,0,0,92,94,131,100,42,105.91,336,22.00,-70.00,-974.00
2024-05-19 09:18:44.905325,3,4,-3,0,0,0,91,94,131,100,42,106.42,336,42.00,-61.00,-981.00
2024-05-19 09:18:45.010255,8,4,-3,0,0,0,91,94,131,100,42,106.33,336,43.00,-37.00,-1014.00
2024-05-19 09:18:45.109258,8,2,-3,-1,0,0,91,94,132,100,42,106.60,337,70.00,-48.00,-1013.00
2024-05-19 09:18:45.259341,8,2,-3,-2,0,0,91,94,131,100,42,106.39,337,75.00,-53.00,-1009.00
2024-05-19 09:18:45.313241,8,2,-3,-3,0,0,91,94,132,100,42,106.25,337,54.00,-59.00,-1021.00
2024-05-19 09:18:45.364184,8,2,-3,-4,0,0,91,94,132,100,42,106.10,337,58.00,-57.00,-993.00
2024-05-19 09:18:45.466374,8,2,-3,-4,0,0,91,94,132,100,41,106.38,337,66.00,-96.00,-971.00
2024-05-19 09:18:45.568607,8,3,-3,-5,0,0,91,94,132,100,41,106.59,337,38.00,-70.00,-977.00
2024-05-19 09:18:45.670211,7,3,-2,-6,0,0,91,94,132,100,41,106.20,337,91.00,-76.00,-1018.00
2024-05-19 09:18:45.873725,7,5,-2,-7,0,0,91,94,133,100,41,106.32,337,84.00,-96.00,-983.00
2024-05-19 09:18:45.925982,6,6,-3,-7,0,0,91,94,132,100,41,106.69,337,58.00,-69.00,-979.00
2024-05-19 09:18:46.078536,0,4,-3,-7,0,0,91,94,131,100,41,106.21,338,84.00,-49.00,-980.00
2024-05-19 09:18:46.129138,-2,3,-3,-6,1,0,91,94,131,100,41,106.16,338,76.00,-54.00,-1013.00
2024-05-19 09:18:46.180568,-2,1,-3,-5,0,0,91,94,131,100,41,106.40,338,31.00,-83.00,-1021.00
2024-05-19 09:18:46.283294,-1,3,-3,-4,0,0,91,94,131,100,41,106.44,338,37.00,-43.00,-1006.00
2024-05-19 09:18:46.385669,0,3,-3,-4,0,0,91,94,131,100,41,106.39,338,-1.00,-45.00,-949.00
2024-05-19 09:18:46.488214,0,3,-3,-3,0,0,91,94,130,100,41,106.57,338,13.00,-62.00,-997.00
2024-05-19 09:18:46.588276,0,3,-3,-3,0,0,91,94,131,100,41,106.30,338,44.00,-46.00,-1019.00
2024-05-19 09:18:46.692880,0,2,-3,-3,0,0,91,94,130,100,41,106.53,338,49.00,-72.00,-994.00
2024-05-19 09:18:46.792410,0,2,-3,-3,0,0,91,94,130,100,41,106.39,338,32.00,-52.00,-989.00
2024-05-19 09:18:46.898157,-1,2,-3,-2,0,0,92,95,131,100,41,106.20,338,4.00,-44.00,-996.00
2024-05-19 09:18:46.996114,-4,2,-3,-2,0,0,92,95,131,100,41,106.36,339,52.00,-62.00,-1022.00
2024-05-19 09:18:47.102476,-2,2,-3,0,0,0,92,95,131,100,41,106.21,339,26.00,-81.00,-1005.00
2024-05-19 09:18:47.200539,0,3,-3,0,0,0,92,95,131,100,41,106.33,339,56.00,-51.00,-1030.00
2024-05-19 09:18:47.307603,0,4,-3,0,0,0,92,95,131,100,41,106.65,339,66.00,-30.00,-1013.00
2024-05-19 09:18:47.404247,2,3,-3,0,0,0,92,95,131,100,41,106.54,339,45.00,-50.00,-959.00
2024-05-19 09:18:47.512177,2,2,-3,0,0,0,92,95,131,100,41,106.29,339,21.00,-60.00,-956.00
2024-05-19 09:18:47.608371,3,2,-3,0,0,0,92,95,131,100,41,106.58,339,-1.00,-40.00,-1021.00
2024-05-19 09:18:47.716981,2,3,-3,0,0,0,92,95,131,100,41,106.59,339,13.00,-43.00,-1004.00
2024-05-19 09:18:47.812148,2,2,-3,0,0,0,92,95,131,100,41,106.57,339,26.00,-69.00,-984.00
2024-05-19 09:18:47.921756,2,2,-2,0,0,0,91,94,131,100,41,106.50,339,22.00,-70.00,-1007.00
2024-05-19 09:18:48.016247,2,2,-3,0,0,0,91,94,131,100,41,106.38,340,28.00,-47.00,-1016.00
2024-05-19 09:18:48.126649,3,3,-3,0,0,0,91,94,131,100,41,106.32,340,43.00,-59.00,-997.00
2024-05-19 09:18:48.221872,2,3,-3,0,0,0,91,94,131,100,41,106.43,340,88.00,-52.00,-976.00
2024-05-19 09:18:48.322283,4,3,-3,0,0,0,91,94,132,100,41,106.57,340,66.00,-42.00,-991.00
2024-05-19 09:18:48.433773,5,2,-3,0,0,0,91,94,132,100,41,106.28,340,86.00,-53.00,-1030.00
2024-05-19 09:18:48.526216,4,1,-3,0,0,0,91,94,133,100,40,106.51,340,83.00,-49.00,-970.00
2024-05-19 09:18:48.628036,5,1,-3,0,0,0,91,94,134,100,40,106.64,340,67.00,-74.00,-990.00
2024-05-19 09:18:48.743128,5,2,-3,0,0,0,91,94,133,100,40,106.81,340,40.00,-61.00,-1000.00
2024-05-19 09:18:48.832260,5,2,-3,0,0,0,91,94,134,100,40,106.59,340,62.00,-54.00,-1003.00
2024-05-19 09:18:48.945804,5,3,-3,0,0,0,91,94,134,100,40,106.36,340,49.00,-46.00,-1014.00
2024-05-19 09:18:49.036141,4,3,-3,0,0,0,91,94,134,100,40,106.05,341,43.00,-63.00,-976.00
2024-05-19 09:18:49.138094,4,2,-3,0,0,0,91,94,133,100,40,106.05,341,42.00,-48.00,-977.00
2024-05-19 09:18:49.239910,4,2,-3,0,0,0,91,94,133,100,40,106.54,341,42.00,-48.00,-1019.00
2024-05-19 09:18:49.355209,3,3,-3,0,0,0,91,94,132,100,40,106.69,341,29.00,-52.00,-1003.00
2024-05-19 09:18:49.443880,0,-2,-3,0,0,0,91,94,132,100,40,106.33,341,31.00,-45.00,-995.00
2024-05-19 09:18:49.560344,0,-5,-3,0,0,0,91,94,131,100,40,106.14,341,67.00,-33.00,-999.00
2024-05-19 09:18:49.597318,1,-4,-3,0,-2,0,91,94,131,100,40,105.94,341,46.00,-8.00,-988.00
2024-05-19 09:18:49.764848,2,-2,-3,0,-2,0,91,94,132,100,40,106.35,341,55.00,-13.00,-993.00
2024-05-19 09:18:49.800975,2,0,-3,0,-3,0,91,94,131,100,40,106.20,341,42.00,-15.00,-995.00
2024-05-19 09:18:49.969646,2,3,-3,0,-3,0,92,94,130,100,40,106.38,341,46.00,-3.00,-986.00
2024-05-19 09:18:50.005144,3,3,-3,0,-2,0,92,94,130,100,40,106.35,342,0.00,0.00,-1006.00
2024-05-19 09:18:50.106991,2,2,-3,0,-2,0,92,94,129,90,40,106.27,342,8.00,-9.00,-1023.00
2024-05-19 09:18:50.276880,1,2,-3,0,-1,0,92,94,129,90,40,106.13,342,24.00,-1.00,-1003.00
2024-05-19 09:18:50.310935,0,0,-3,0,-1,0,92,94,129,90,40,106.18,342,36.00,-27.00,-1009.00
2024-05-19 09:18:50.481659,1,0,-3,0,-1,0,92,94,129,90,40,106.38,342,37.00,13.00,-1026.00
2024-05-19 09:18:50.518405,2,0,-3,0,-1,0,92,94,129,90,40,106.15,342,11.00,-21.00,-1008.00
2024-05-19 09:18:50.617071,2,0,-3,0,-1,0,92,94,130,90,40,106.31,342,-5.00,-28.00,-1001.00
2024-05-19 09:18:50.719675,2,0,-3,0,-1,0,92,94,130,100,40,106.35,342,-5.00,-10.00,-958.00
2024-05-19 09:18:50.821800,1,0,-3,0,-1,0,92,94,131,100,40,106.42,342,-1.00,-13.00,-948.00
2024-05-19 09:18:50.993641,1,0,-3,0,-1,0,91,94,130,100,40,106.32,342,-16.00,-20.00,-975.00
2024-05-19 09:18:51.027068,0,0,-3,0,-1,0,91,94,132,100,40,106.58,343,15.00,-18.00,-991.00
2024-05-19 09:18:51.127430,0,0,-3,0,-1,0,91,94,132,100,40,106.23,343,-13.00,-22.00,-955.00
2024-05-19 09:18:51.228951,0,0,-3,0,-1,0,91,94,132,100,40,106.26,343,22.00,-40.00,-993.00
2024-05-19 09:18:51.403227,0,0,-3,0,-1,0,91,94,132,100,40,106.37,343,12.00,-4.00,-947.00
2024-05-19 09:18:51.432899,0,0,-3,0,-1,0,91,94,132,100,40,106.31,343,2.00,0.00,-995.00
2024-05-19 09:18:51.607992,0,0,-3,0,-1,0,91,94,132,100,40,106.28,343,12.00,-2.00,-1000.00
2024-05-19 09:18:51.636873,0,0,-3,0,-1,0,91,94,131,100,40,106.42,343,17.00,-8.00,-1048.00
2024-05-19 09:18:51.812829,0,0,-3,0,-1,0,91,94,131,100,40,106.01,343,16.00,-6.00,-1022.00
2024-05-19 09:18:51.840862,0,6,-3,0,-1,0,91,94,131,100,40,106.75,343,9.00,3.00,-991.00
2024-05-19 09:18:52.017577,0,4,-3,0,0,0,91,94,130,100,40,106.31,343,34.00,-17.00,-992.00
2024-05-19 09:18:52.044865,0,3,-3,0,0,0,91,94,130,100,40,105.93,344,21.00,-13.00,-1004.00
2024-05-19 09:18:52.222667,1,1,-3,0,0,0,91,94,130,100,40,106.16,344,24.00,-17.00,-1029.00
2024-05-19 09:18:52.248829,1,1,-3,0,0,0,91,94,131,100,40,106.30,344,22.00,-12.00,-985.00
2024-05-19 09:18:52.427670,1,1,-3,0,0,0,91,94,131,100,40,106.45,344,26.00,9.00,-1005.00
2024-05-19 09:18:52.452807,1,0,-3,0,0,0,91,94,131,100,40,106.66,344,58.00,-23.00,-1011.00
2024-05-19 09:18:52.632064,1,0,-3,0,0,0,91,94,131,100,40,106.34,344,67.00,-20.00,-1023.00
2024-05-19 09:18:52.656782,2,0,-3,0,0,0,91,94,130,100,40,106.32,344,68.00,-54.00,-1014.00
2024-05-19 09:18:52.836975,3,1,-3,0,0,0,91,94,132,100,40,106.50,344,23.00,-22.00,-987.00
2024-05-19 09:18:52.837195,3,1,-3,0,0,0,91,94,130,100,40,106.48,344,54.00,-46.00,-979.00
2024-05-19 09:18:52.962928,3,1,-2,0,0,0,92,94,131,100,40,106.33,344,29.00,-7.00,-986.00
2024-05-19 09:18:53.089035,3,1,-2,0,0,0,92,94,130,100,40,106.19,345,60.00,-34.00,-1014.00
2024-05-19 09:18:53.166996,2,2,-3,0,0,0,92,94,130,100,40,106.56,345,11.00,-63.00,-961.00
2024-05-19 09:18:53.217757,1,3,-3,0,0,0,92,94,129,100,40,106.26,345,3.00,-37.00,-1001.00
2024-05-19 09:18:53.320048,1,3,-3,0,0,0,92,94,129,100,40,105.91,345,33.00,-62.00,-1013.00
2024-05-19 09:18:53.451705,1,3,-3,0,0,0,92,94,130,100,39,106.62,345,52.00,-40.00,-1046.00
2024-05-19 09:18:53.523783,2,2,-2,0,0,0,92,94,129,100,39,106.39,345,42.00,-54.00,-1001.00
2024-05-19 09:18:53.626249,1,2,-2,0,0,0,92,94,129,100,39,106.35,345,0.00,-28.00,-993.00
2024-05-19 09:18:53.758723,0,2,-2,-1,0,0,92,94,129,100,39,106.39,345,8.00,-56.00,-1019.00
2024-05-19 09:18:53.830149,0,2,-2,-1,0,0,92,94,129,100,39,106.32,345,-22.00,-19.00,-1005.00
2024-05-19 09:18:53.963726,-1,3,-3,-1,0,0,91,94,130,100,39,106.52,345,-3.00,-48.00,-998.00
2024-05-19 09:18:54.034730,-1,3,-3,-1,0,0,91,94,130,100,39,106.44,346,13.00,-52.00,-1003.00
2024-05-19 09:18:54.168477,-1,3,-3,0,0,0,91,94,131,100,39,106.26,346,-46.00,-66.00,-982.00
2024-05-19 09:18:54.238163,0,8,-3,0,0,0,91,94,132,100,39,106.52,346,11.00,-44.00,-979.00
2024-05-19 09:18:54.372795,0,8,-3,0,1,0,91,94,131,100,39,106.64,346,-13.00,-56.00,-1011.00
2024-05-19 09:18:54.445289,0,9,-3,0,2,0,91,94,131,100,39,106.52,346,-9.00,-76.00,-1025.00
2024-05-19 09:18:54.543954,-1,8,-3,-1,2,0,91,94,130,100,39,106.45,346,-7.00,-80.00,-981.00
2024-05-19 09:18:54.648284,-2,5,-3,0,3,0,91,94,129,100,39,106.56,346,-3.00,-80.00,-1022.00
2024-05-19 09:18:54.747680,-2,2,-3,0,3,0,91,94,129,100,39,106.42,346,-40.00,-57.00,-994.00
2024-05-19 09:18:54.849719,-1,2,-3,0,2,0,91,94,128,100,39,106.10,346,-12.00,-48.00,-1000.00
2024-05-19 09:18:54.987244,-1,2,-3,0,2,0,91,94,128,100,39,106.10,346,-30.00,-66.00,-985.00
2024-05-19 09:18:55.053825,-1,3,-3,0,2,0,91,94,128,100,39,106.69,347,-28.00,-67.00,-1017.00
2024-05-19 09:18:55.192365,-1,2,-3,0,2,0,91,94,128,90,39,106.31,347,-21.00,-80.00,-1007.00
2024-05-19 09:18:55.257628,-1,3,-3,0,2,0,91,94,127,90,39,106.41,347,0.00,-81.00,-1020.00
2024-05-19 09:18:55.397168,-1,4,-3,0,2,0,91,94,127,90,39,106.48,347,0.00,-70.00,-987.00
2024-05-19 09:18:55.461525,-1,4,-3,0,2,0,91,94,127,90,38,106.28,347,-6.00,-69.00,-977.00
2024-05-19 09:18:55.601623,0,4,-3,0,2,0,91,94,126,90,38,106.17,347,25.00,-72.00,-1009.00
2024-05-19 09:18:55.665831,0,3,-3,0,2,0,91,94,126,90,38,106.43,347,28.00,-60.00,-1025.00
2024-05-19 09:18:55.806388,0,4,-3,1,2,0,91,94,126,90,38,106.54,347,19.00,-93.00,-993.00
2024-05-19 09:18:55.869855,1,4,-3,1,1,0,91,94,126,90,38,106.59,347,22.00,-64.00,-980.00
2024-05-19 09:18:56.011201,3,4,-3,1,1,0,91,94,125,90,38,106.55,347,3.00,-95.00,-969.00
2024-05-19 09:18:56.073610,3,4,-3,0,1,0,91,94,125,90,38,106.06,348,26.00,-92.00,-984.00
2024-05-19 09:18:56.175794,2,4,-3,0,1,0,91,94,125,90,38,106.54,348,22.00,-62.00,-986.00
2024-05-19 09:18:56.318414,1,4,-3,0,1,0,91,94,125,90,38,106.64,348,5.00,-93.00,-963.00
2024-05-19 09:18:56.379514,1,4,-3,0,1,0,91,94,125,90,38,106.36,348,12.00,-76.00,-1023.00
2024-05-19 09:18:56.523226,0,1,-3,0,1,0,91,94,126,90,38,106.00,348,1.00,-93.00,-1022.00
2024-05-19 09:18:56.583438,0,0,-3,0,0,0,91,94,126,90,38,106.63,348,-9.00,-68.00,-1033.00
2024-05-19 09:18:56.728095,0,1,-3,0,0,0,91,94,126,90,38,106.15,348,20.00,-65.00,-1007.00
2024-05-19 09:18:56.736676,0,3,-3,0,0,0,91,94,126,90,38,106.49,348,23.00,-57.00,-1007.00
2024-05-19 09:18:56.838666,0,3,-3,0,0,0,91,94,127,90,38,106.40,348,-6.00,-68.00,-984.00
2024-05-19 09:18:57.035681,0,3,-3,0,0,0,90,94,127,90,38,106.62,348,7.00,-56.00,-986.00
2024-05-19 09:18:57.042669,0,3,-3,0,0,0,90,94,128,100,38,106.25,349,11.00,-69.00,-1004.00
2024-05-19 09:18:57.240060,0,3,-3,0,0,0,90,94,128,100,38,106.34,349,-1.00,-37.00,-1017.00
2024-05-19 09:18:57.246694,0,3,-3,0,0,0,90,94,128,100,38,106.21,349,7.00,-68.00,-1001.00
2024-05-19 09:18:57.444926,0,3,-3,0,0,0,90,94,128,100,38,106.52,349,-17.00,-72.00,-988.00
2024-05-19 09:18:57.450558,0,3,-3,0,0,0,90,94,129,100,38,106.16,349,-12.00,-77.00,-988.00
2024-05-19 09:18:57.649717,0,4,-3,0,0,0,90,94,129,100,38,106.56,349,-19.00,-90.00,-1001.00
2024-05-19 09:18:57.654538,0,4,-3,0,0,0,90,94,129,100,38,106.42,349,-39.00,-71.00,-962.00
2024-05-19 09:18:57.854705,0,5,-3,0,0,0,90,94,129,100,38,106.35,349,-15.00,-86.00,-1026.00
2024-05-19 09:18:57.858707,-1,5,-3,0,0,0,90,94,129,100,38,106.68,349,14.00,-79.00,-1013.00
2024-05-19 09:18:58.059373,0,5,-3,0,0,0,91,94,129,100,38,106.41,349,-22.00,-78.00,-1005.00
2024-05-19 09:18:58.062666,0,4,-3,0,0,0,91,94,129,100,38,106.37,350,1.00,-63.00,-1007.00
2024-05-19 09:18:58.164829,0,4,-3,0,0,0,91,94,129,100,38,106.09,350,15.00,-83.00,-1021.00
2024-05-19 09:18:58.266673,0,4,-3,0,0,0,91,94,129,100,38,106.36,350,-6.00,-88.00,-971.00
2024-05-19 09:18:58.368747,0,5,-3,0,0,0,91,94,129,100,38,106.35,350,-15.00,-67.00,-961.00
2024-05-19 09:18:58.470560,0,5,-3,0,0,0,91,94,129,100,38,106.32,350,18.00,-65.00,-999.00
2024-05-19 09:18:58.586897,0,4,-3,0,0,0,91,94,130,100,38,106.44,350,-5.00,-63.00,-1025.00
2024-05-19 09:18:58.674563,0,4,-3,0,0,0,91,94,130,100,38,106.71,350,9.00,-110.00,-993.00
2024-05-19 09:18:58.878597,0,4,-1,0,0,0,91,94,130,100,38,106.50,350,3.00,-82.00,-983.00
2024-05-19 09:18:58.879011,0,5,4,0,0,0,91,94,130,100,38,106.23,350,-19.00,-81.00,-984.00
2024-05-19 09:18:58.980725,0,5,10,0,0,0,92,94,130,100,38,106.21,350,-50.00,-64.00,-993.00
2024-05-19 09:18:59.083085,-1,5,16,0,0,0,92,94,131,100,38,106.54,351,-31.00,-95.00,-1012.00
2024-05-19 09:18:59.185177,-1,4,22,0,0,0,92,94,132,100,38,106.01,351,-57.00,-62.00,-1039.00
2024-05-19 09:18:59.287690,-2,4,29,0,0,0,92,94,132,100,38,106.26,351,-26.00,-48.00,-980.00
2024-05-19 09:18:59.388506,-3,4,34,0,0,0,92,94,132,100,38,106.48,351,-57.00,-88.00,-975.00
2024-05-19 09:18:59.490377,-4,3,40,0,0,0,92,94,133,100,38,106.30,351,-55.00,-84.00,-1009.00
2024-05-19 09:18:59.595189,-4,4,46,0,0,0,92,94,133,100,38,106.35,351,-108.00,-38.00,-1013.00
2024-05-19 09:18:59.694341,-4,4,52,0,0,0,92,94,133,100,38,106.30,351,-72.00,-71.00,-993.00
2024-05-19 09:18:59.799878,-5,2,58,0,0,0,92,94,133,100,38,106.16,351,-72.00,-50.00,-1045.00
2024-05-19 09:18:59.898435,-5,2,64,0,0,0,92,94,135,100,38,106.04,351,-101.00,-33.00,-981.00
2024-05-19 09:19:00.004787,-4,2,70,0,0,0,90,94,135,100,38,106.24,351,-59.00,-34.00,-1002.00
2024-05-19 09:19:00.102359,-4,2,77,0,0,0,90,94,136,100,38,106.03,352,-97.00,-11.00,-991.00
2024-05-19 09:19:00.209544,-4,1,83,0,0,0,90,94,136,100,38,106.08,352,-96.00,-8.00,-972.00
2024-05-19 09:19:00.307136,-4,0,89,0,0,0,90,94,137,100,38,105.72,352,-94.00,19.00,-993.00
2024-05-19 09:19:00.414339,-4,0,95,0,0,0,90,94,138,100,38,105.91,352,-68.00,27.00,-995.00
2024-05-19 09:19:00.511012,-5,-1,101,0,0,0,90,94,138,100,37,105.73,352,-86.00,9.00,-987.00
2024-05-19 09:19:00.561300,-5,-1,107,0,0,0,90,94,137,100,37,106.40,352,-100.00,27.00,-956.00
2024-05-19 09:19:00.663386,-4,-1,113,0,0,0,90,94,138,100,37,106.09,352,-75.00,50.00,-986.00
2024-05-19 09:19:00.824737,-4,-2,119,0,0,0,90,94,137,100,37,106.29,352,-80.00,31.00,-981.00
2024-05-19 09:19:00.868508,-4,-2,124,0,0,0,90,94,136,100,37,105.88,352,-80.00,45.00,-958.00
2024-05-19 09:19:00.970410,-3,-4,130,0,0,0,91,94,137,100,37,106.27,352,-59.00,36.00,-973.00
2024-05-19 09:19:01.131156,-3,-4,135,0,0,0,91,94,135,100,37,106.27,353,-78.00,37.00,-999.00
2024-05-19 09:19:01.176225,-3,-3,141,0,0,0,91,94,135,100,37,106.06,353,-65.00,78.00,-986.00
2024-05-19 09:19:01.277390,-3,-4,146,0,0,0,91,94,134,100,37,106.19,353,-61.00,53.00,-990.00
2024-05-19 09:19:01.378901,-2,-4,152,0,0,0,91,94,134,100,37,106.46,353,-93.00,59.00,-983.00
2024-05-19 09:19:01.481517,-2,-4,157,0,0,0,91,94,133,100,37,106.04,353,-64.00,80.00,-1031.00
2024-05-19 09:19:01.643150,-2,-5,163,0,0,0,91,94,132,100,37,106.23,353,-44.00,73.00,-1013.00
2024-05-19 09:19:01.685482,-2,-5,168,0,0,0,91,94,132,100,37,106.25,353,-58.00,76.00,-993.00
2024-05-19 09:19:01.847937,-2,-5,174,0,0,0,91,94,132,100,37,106.05,353,-73.00,99.00,-976.00
2024-05-19 09:19:01.888223,-2,-6,-179,0,0,0,91,94,131,100,37,106.38,353,-44.00,133.00,-958.00
2024-05-19 09:19:02.052758,-1,-6,-167,0,0,0,91,93,131,100,37,106.20,354,43.00,87.00,-1008.00
2024-05-19 09:19:02.092323,1,-6,-161,0,0,0,91,93,131,100,37,106.24,354,34.00,102.00,-1004.00
2024-05-19 09:19:02.194146,3,-5,-154,0,0,0,91,93,131,100,37,106.47,354,32.00,107.00,-981.00
2024-05-19 09:19:02.359941,3,-5,-148,0,0,0,91,93,131,100,37,106.06,354,46.00,87.00,-984.00
2024-05-19 09:19:02.398184,4,-4,-141,0,0,0,91,93,131,100,37,106.50,354,54.00,72.00,-998.00
2024-05-19 09:19:02.564699,4,-3,-134,0,0,0,91,93,131,100,37,106.19,354,72.00,61.00,-1019.00
2024-05-19 09:19:02.602388,4,-2,-128,0,0,0,91,93,131,100,37,106.25,354,37.00,80.00,-998.00
2024-05-19 09:19:02.769563,5,-2,-122,0,0,0,91,93,131,100,37,106.30,354,75.00,90.00,-978.00
2024-05-19 09:19:02.807530,5,-2,-115,0,0,0,91,93,131,100,37,106.06,354,71.00,68.00,-995.00
2024-05-19 09:19:02.974365,5,-1,-109,0,0,0,91,93,131,100,37,106.08,354,80.00,78.00,-980.00
2024-05-19 09:19:03.011194,4,-1,-103,0,0,0,91,94,131,100,37,106.35,355,100.00,65.00,-999.00
2024-05-19 09:19:03.179132,5,-2,-97,1,0,0,91,94,131,100,37,106.34,355,95.00,68.00,-1011.00
2024-05-19 09:19:03.215176,5,-1,-91,1,0,0,91,94,131,100,37,106.41,355,86.00,59.00,-984.00
2024-05-19 09:19:03.383936,5,-1,-85,1,0,0,91,94,132,100,37,106.26,355,70.00,49.00,-991.00
2024-05-19 09:19:03.419238,5,-2,-79,1,0,0,91,94,132,100,37,106.15,355,107.00,24.00,-994.00
2024-05-19 09:19:03.588720,5,-1,-73,1,0,0,91,94,131,100,37,106.10,355,93.00,25.00,-973.00
2024-05-19 09:19:03.623140,6,0,-66,1,0,0,91,94,133,100,37,106.03,355,98.00,1.00,-974.00
2024-05-19 09:19:03.795344,6,0,-60,1,0,0,91,94,133,100,37,106.07,355,92.00,-1.00,-1008.00
2024-05-19 09:19:03.827154,6,0,-54,0,0,0,91,94,133,100,37,106.23,355,100.00,-24.00,-988.00
2024-05-19 09:19:03.998290,6,1,-48,0,0,0,91,94,133,100,37,106.27,355,112.00,-58.00,-999.00
2024-05-19 09:19:04.031193,5,2,-42,0,0,0,91,94,133,100,37,106.27,356,66.00,-19.00,-985.00
2024-05-19 09:19:04.133504,5,3,-37,0,0,0,91,94,132,100,37,106.16,356,82.00,-29.00,-990.00
2024-05-19 09:19:04.235792,4,3,-31,0,0,0,91,94,133,100,37,106.04,356,73.00,-31.00,-1005.00
2024-05-19 09:19:04.407913,4,3,-25,0,0,0,91,94,133,100,37,106.31,356,68.00,-64.00,-996.00
2024-05-19 09:19:04.407984,3,3,-20,0,0,0,91,94,133,100,37,105.93,356,82.00,-34.00,-1001.00
2024-05-19 09:19:04.492764,3,3,-16,0,0,0,91,94,133,100,36,105.92,356,47.00,-62.00,-977.00
2024-05-19 09:19:04.592023,4,3,-13,0,0,0,91,94,133,100,36,105.88,356,50.00,-38.00,-998.00
2024-05-19 09:19:04.694138,3,3,-11,0,0,0,91,94,134,100,36,106.22,356,51.00,-43.00,-960.00
2024-05-19 09:19:04.817672,3,3,-9,0,0,0,91,94,133,100,36,106.39,356,55.00,-47.00,-1022.00
2024-05-19 09:19:04.898122,3,2,-8,0,0,0,91,94,133,100,36,106.42,356,45.00,-42.00,-969.00
2024-05-19 09:19:05.022286,3,2,-7,0,0,0,90,93,133,100,36,106.14,357,45.00,-38.00,-1025.00
2024-05-19 09:19:05.102255,3,2,-6,0,0,0,90,93,133,100,36,105.74,357,40.00,-92.00,-960.00
2024-05-19 09:19:05.227128,3,3,-5,0,0,0,90,93,133,100,36,106.23,357,33.00,-47.00,-1013.00
2024-05-19 09:19:05.306140,2,3,-5,0,0,0,90,93,133,100,36,106.30,357,22.00,-46.00,-993.00
2024-05-19 09:19:05.432082,2,3,-5,0,0,0,90,93,133,100,36,106.40,357,27.00,-71.00,-987.00
2024-05-19 09:19:05.510099,1,3,-5,0,0,0,90,93,132,100,36,106.56,357,60.00,-68.00,-1022.00
2024-05-19 09:19:05.636825,2,3,-5,0,0,0,90,93,132,100,36,106.26,357,28.00,-78.00,-1004.00
2024-05-19 09:19:05.714141,2,3,-5,0,0,0,90,93,132,100,36,106.51,357,45.00,-81.00,-1016.00
2024-05-19 09:19:05.841586,2,3,-5,0,0,0,90,93,132,100,36,106.69,357,20.00,-72.00,-1022.00
2024-05-19 09:19:05.918141,1,4,-5,0,0,0,90,93,132,100,36,106.24,357,14.00,-80.00,-991.00
2024-05-19 09:19:06.046635,1,3,-5,0,0,0,90,93,131,100,36,105.95,358,-4.00,-50.00,-990.00
2024-05-19 09:19:06.122523,1,3,-5,0,0,0,90,93,132,100,36,106.31,358,8.00,-81.00,-983.00
2024-05-19 09:19:06.251310,1,4,-5,0,0,0,90,93,131,100,36,106.15,358,48.00,-55.00,-1002.00
2024-05-19 09:19:06.325952,1,4,-5,0,0,0,90,93,132,100,36,106.18,358,19.00,-64.00,-970.00
2024-05-19 09:19:06.456042,1,4,-5,0,0,0,90,93,132,100,36,106.01,358,39.00,-42.00,-1050.00
2024-05-19 09:19:06.530230,1,3,-5,0,0,0,90,93,132,100,36,106.27,358,13.00,-45.00,-982.00
2024-05-19 09:19:06.660801,1,3,-5,0,0,0,90,93,133,100,36,106.51,358,49.00,-60.00,-975.00
2024-05-19 09:19:06.734518,2,3,-5,0,0,0,90,93,133,100,36,106.01,358,36.00,-54.00,-1005.00
2024-05-19 09:19:06.836179,2,3,-5,0,0,0,90,93,133,100,36,106.07,358,50.00,-66.00,-975.00
2024-05-19 09:19:06.968001,2,3,-5,0,0,0,90,93,133,100,36,106.43,358,19.00,-49.00,-999.00
2024-05-19 09:19:07.040097,2,3,-5,0,0,0,89,93,133,100,36,106.48,359,35.00,-69.00,-999.00
2024-05-19 09:19:07.174254,1,3,-5,0,0,0,89,93,133,100,36,106.22,359,42.00,-47.00,-999.00
2024-05-19 09:19:07.244031,1,3,-5,0,0,0,89,93,133,100,36,106.41,359,18.00,-41.00,-965.00
2024-05-19 09:19:07.377589,1,3,-5,0,0,0,89,93,132,100,36,105.88,359,36.00,-32.00,-1018.00
2024-05-19 09:19:07.447926,1,3,-5,0,0,0,89,93,131,100,36,106.32,359,8.00,-56.00,-981.00
2024-05-19 09:19:07.582279,0,2,-5,0,0,0,89,93,132,100,36,106.52,359,33.00,-39.00,-1045.00
2024-05-19 09:19:07.652030,0,3,-9,0,0,0,89,93,131,100,36,106.26,359,30.00,-58.00,-990.00
2024-05-19 09:19:07.787100,0,3,-15,0,0,0,89,93,131,100,36,106.13,359,49.00,-53.00,-998.00
2024-05-19 09:19:07.855934,2,2,-21,0,0,0,89,93,131,100,36,106.46,359,40.00,-63.00,-1014.00
2024-05-19 09:19:07.906933,3,2,-27,0,0,0,89,93,131,100,36,106.04,359,18.00,-55.00,-1004.00
2024-05-19 09:19:08.094268,3,1,-32,0,0,0,90,94,132,100,36,106.61,360,37.00,-27.00,-1016.00
2024-05-19 09:19:08.161977,4,1,-38,0,0,0,90,94,132,100,36,106.46,360,65.00,-16.00,-974.00
2024-05-19 09:19:08.299060,5,1,-44,0,0,0,90,94,132,100,36,106.07,360,69.00,-56.00,-997.00
2024-05-19 09:19:08.366365,5,0,-50,0,0,0,90,94,132,100,36,106.39,360,75.00,-39.00,-978.00
2024-05-19 09:19:08.416886,5,0,-55,0,0,0,90,94,131,100,35,105.76,360,59.00,-32.00,-990.00
2024-05-19 09:19:08.606256,5,0,-61,0,0,0,90,94,132,100,35,106.02,360,62.00,-14.00,-1001.00
2024-05-19 09:19:08.620838,5,0,-67,0,0,0,90,94,132,100,35,106.16,360,71.00,-19.00,-976.00
2024-05-19 09:19:08.811092,5,0,-73,0,0,0,90,94,132,100,35,105.87,360,50.00,-6.00,-981.00
2024-05-19 09:19:08.824973,5,0,-79,0,0,0,90,94,131,100,35,106.05,360,74.00,5.00,-1024.00
2024-05-19 09:19:09.015860,4,-1,-85,0,0,0,90,94,132,100,35,105.86,360,87.00,-14.00,-1020.00
2024-05-19 09:19:09.028808,4,-2,-91,0,0,0,91,94,131,100,35,106.29,361,80.00,50.00,-992.00
2024-05-19 09:19:09.130970,4,-2,-96,0,0,0,91,94,132,100,35,105.98,361,72.00,36.00,-1013.00
2024-05-19 09:19:09.232791,4,-2,-102,0,0,0,91,94,132,100,35,105.91,361,71.00,31.00,-1003.00
2024-05-19 09:19:09.425501,4,-2,-108,0,0,0,91,94,132,100,35,106.01,361,52.00,68.00,-999.00
2024-05-19 09:19:09.436905,3,-2,-114,0,0,0,91,94,132,100,35,106.14,361,47.00,55.00,-984.00
2024-05-19 09:19:09.630257,4,-3,-119,0,0,0,91,94,133,100,35,105.80,361,34.00,82.00,-1003.00
2024-05-19 09:19:09.641152,3,-3,-125,0,0,0,91,94,133,100,35,106.42,361,40.00,59.00,-1021.00
2024-05-19 09:19:09.836879,3,-3,-130,0,0,0,91,94,132,100,35,106.16,361,29.00,80.00,-991.00
2024-05-19 09:19:09.844947,2,-3,-136,0,0,0,91,94,132,100,35,106.11,361,39.00,82.00,-981.00
2024-05-19 09:19:10.039889,2,-3,-142,0,0,0,91,94,133,100,35,106.25,361,-2.00,78.00,-976.00
2024-05-19 09:19:10.048755,2,-3,-148,0,0,0,90,93,132,100,35,106.07,362,2.00,73.00,-998.00
2024-05-19 09:19:10.244691,1,-3,-154,0,0,0,90,93,132,100,35,106.14,362,19.00,86.00,-1014.00
2024-05-19 09:19:10.253033,1,-3,-159,0,0,0,90,93,131,100,35,106.29,362,6.00,70.00,-981.00
2024-05-19 09:19:10.449434,0,-3,-165,0,0,0,90,93,132,100,35,106.16,362,18.00,68.00,-1016.00
2024-05-19 09:19:10.456706,0,-3,-171,0,0,0,90,93,131,100,35,106.29,362,12.00,78.00,-1014.00
2024-05-19 09:19:10.654300,0,-3,-178,0,0,0,90,93,131,100,35,106.20,362,0.00,70.00,-989.00
2024-05-19 09:19:10.660986,0,-3,175,0,0,0,90,93,130,100,35,106.43,362,-17.00,71.00,-982.00
2024-05-19 09:19:10.859024,0,-3,169,0,0,0,90,93,130,100,35,106.09,362,-29.00,65.00,-1029.00
2024-05-19 09:19:10.864921,0,-3,162,0,0,0,90,93,130,100,35,106.06,362,-41.00,73.00,-996.00
2024-05-19 09:19:11.063895,-1,-3,156,0,0,0,90,93,130,100,35,106.16,362,-28.00,22.00,-1010.00
2024-05-19 09:19:11.068731,-1,-2,150,0,0,0,90,93,130,100,35,106.28,363,-84.00,40.00,-979.00
2024-05-19 09:19:11.170832,-1,-1,143,0,0,0,90,93,130,100,35,105.62,363,-27.00,17.00,-973.00
2024-05-19 09:19:11.371011,-2,-1,137,0,0,0,90,93,130,100,35,105.86,363,-47.00,21.00,-996.00
2024-05-19 09:19:11.374701,-2,-1,131,0,0,0,90,93,130,100,35,106.18,363,-53.00,2.00,-990.00
2024-05-19 09:19:11.575828,-2,0,126,0,0,0,90,93,129,100,35,106.15,363,-64.00,41.00,-993.00
2024-05-19 09:19:11.578588,-2,0,120,0,0,0,90,93,130,100,35,105.93,363,-18.00,17.00,-1029.00
2024-05-19 09:19:11.680622,-2,0,114,0,0,0,90,93,130,100,35,106.02,363,-43.00,21.00,-1027.00
2024-05-19 09:19:11.782671,-1,-1,108,0,0,0,90,93,130,100,35,106.11,363,-13.00,6.00,-1009.00
2024-05-19 09:19:11.884822,-1,-1,102,0,0,0,90,93,130,100,35,106.17,363,-54.00,27.00,-974.00
2024-05-19 09:19:12.087812,-1,0,96,0,0,0,90,93,130,100,35,105.97,363,-20.00,17.00,-1006.00
2024-05-19 09:19:12.088546,-1,0,90,0,0,0,91,93,129,100,35,105.78,364,-30.00,18.00,-1015.00
2024-05-19 09:19:12.292892,-1,0,84,0,0,0,91,93,129,100,35,106.12,364,-33.00,-12.00,-1015.00
2024-05-19 09:19:12.292941,-1,0,79,0,0,0,91,93,129,100,35,106.28,364,-21.00,10.00,-1007.00
2024-05-19 09:19:12.394649,-1,0,73,0,0,0,91,93,128,100,35,106.11,364,-55.00,10.00,-989.00
2024-05-19 09:19:12.445673,-1,0,67,0,0,0,91,93,128,100,34,106.20,364,-60.00,4.00,-986.00
2024-05-19 09:19:12.599808,-1,0,61,0,0,0,91,93,127,100,34,106.46,364,-46.00,4.00,-1002.00
2024-05-19 09:19:12.650028,-1,1,56,0,0,0,91,93,127,90,34,106.33,364,-42.00,12.00,-981.00
2024-05-19 09:19:12.804633,-1,0,50,0,0,0,91,93,127,90,34,106.09,364,-30.00,20.00,-1009.00
2024-05-19 09:19:12.853619,0,0,44,0,0,0,91,93,127,90,34,106.33,364,-47.00,4.00,-1013.00
2024-05-19 09:19:13.009417,-1,0,38,0,0,0,91,93,126,90,34,106.47,364,-35.00,-19.00,-998.00
2024-05-19 09:19:13.057642,-1,0,32,0,0,0,90,93,126,90,34,106.25,365,-43.00,-7.00,-1000.00
2024-05-19 09:19:13.214207,0,0,26,0,0,0,90,93,126,90,34,105.91,365,-8.00,-3.00,-1018.00
2024-05-19 09:19:13.261738,0,0,20,0,0,0,90,93,126,90,34,106.37,365,-16.00,0.00,-1028.00
2024-05-19 09:19:13.419036,0,0,14,0,0,0,90,93,126,90,34,106.28,365,9.00,-42.00,-1017.00
2024-05-19 09:19:13.465804,0,0,9,0,0,0,90,93,126,90,34,106.35,365,4.00,-6.00,-1003.00
2024-05-19 09:19:13.623775,0,1,6,0,0,0,90,93,126,90,34,106.07,365,-21.00,-1.00,-991.00
2024-05-19 09:19:13.670300,0,1,3,0,0,0,90,93,126,90,34,106.46,365,-15.00,1.00,-1000.00
2024-05-19 09:19:13.828670,0,1,1,0,0,0,90,93,125,90,34,106.30,365,-11.00,-23.00,-1000.00
2024-05-19 09:19:13.873633,0,1,0,0,0,0,90,93,126,90,34,106.28,365,-7.00,-33.00,-1015.00
2024-05-19 09:19:14.033436,0,1,0,0,0,0,90,93,126,90,34,106.27,365,-16.00,-33.00,-992.00
2024-05-19 09:19:14.077541,0,1,-1,0,0,0,89,93,126,90,34,106.29,366,-33.00,-37.00,-994.00
2024-05-19 09:19:14.179888,0,2,-2,0,0,0,89,93,126,90,34,106.50,366,-12.00,-15.00,-1029.00
2024-05-19 09:19:14.282555,0,2,-3,0,0,0,89,93,125,90,34,106.51,366,5.00,-37.00,-1014.00
2024-05-19 09:19:14.443111,0,2,-3,0,0,0,89,93,126,90,34,106.37,366,5.00,-28.00,-1016.00
2024-05-19 09:19:14.485844,0,2,-3,0,0,0,89,93,125,90,34,106.45,366,-30.00,-31.00,-973.00
2024-05-19 09:19:14.648159,0,2,-4,0,0,0,89,93,125,90,34,106.53,366,-14.00,-28.00,-993.00
2024-05-19 09:19:14.692212,0,2,-4,0,0,0,89,93,125,90,34,106.38,366,-48.00,-38.00,-1005.00
2024-05-19 09:19:14.792775,-1,2,-4,0,0,0,89,93,125,90,34,106.54,366,-1.00,-40.00,-1011.00
2024-05-19 09:19:14.894112,-1,2,-4,0,0,0,89,93,125,90,34,106.52,366,12.00,-40.00,-1020.00
2024-05-19 09:19:14.995805,0,2,-4,0,0,0,89,93,125,90,34,106.40,366,-34.00,-48.00,-1024.00
2024-05-19 09:19:15.160033,0,2,-4,0,0,0,90,93,125,90,34,106.32,367,-15.00,-53.00,-989.00
2024-05-19 09:19:15.199731,0,3,-4,0,0,0,90,93,125,90,34,106.16,367,1.00,-40.00,-992.00
2024-05-19 09:19:15.364774,0,3,-4,0,0,0,90,93,125,90,34,106.36,367,-9.00,-46.00,-1005.00
2024-05-19 09:19:15.403740,0,3,-4,0,0,0,90,93,125,90,34,106.20,367,4.00,-53.00,-1021.00
2024-05-19 09:19:15.569757,0,3,-4,0,0,0,90,93,125,90,34,106.59,367,13.00,-38.00,-984.00
2024-05-19 09:19:15.607684,0,3,-4,0,0,0,90,93,125,90,34,106.15,367,-4.00,-51.00,-999.00
2024-05-19 09:19:15.709678,0,3,-4,0,0,0,90,93,125,90,34,106.19,367,4.00,-41.00,-968.00
2024-05-19 09:19:15.876674,0,3,-4,0,0,0,90,93,126,90,34,106.24,367,38.00,-28.00,-981.00
2024-05-19 09:19:15.876879,0,2,-4,0,0,0,90,93,126,90,34,106.45,367,-6.00,-37.00,-991.00
2024-05-19 09:19:15.964659,0,2,-4,0,0,0,90,93,126,90,34,106.19,367,25.00,-43.00,-983.00
2024-05-19 09:19:16.081706,0,2,-4,0,0,0,89,93,125,90,34,106.32,368,20.00,-50.00,-1004.00
2024-05-19 09:19:16.168740,0,3,-4,0,0,0,89,93,126,90,34,106.26,368,0.00,-66.00,-987.00
2024-05-19 09:19:16.270925,1,3,-4,0,0,0,89,93,126,90,34,106.23,368,14.00,-61.00,-996.00
2024-05-19 09:19:16.388692,1,2,-4,0,0,0,89,93,127,90,34,106.46,368,21.00,-50.00,-1007.00
2024-05-19 09:19:16.474535,1,3,-4,0,0,0,89,93,127,90,34,106.27,368,30.00,-69.00,-961.00
2024-05-19 09:19:16.593338,1,2,-4,0,0,0,89,93,128,90,34,106.19,368,6.00,-62.00,-1001.00
2024-05-19 09:19:16.678802,0,3,-4,0,0,0,89,93,128,90,34,106.01,368,12.00,-39.00,-1024.00
2024-05-19 09:19:16.798566,0,3,-4,0,0,0,89,93,128,90,34,106.44,368,2.00,-31.00,-954.00
2024-05-19 09:19:16.884046,0,2,-4,0,0,0,89,93,129,100,34,106.45,368,-35.00,-16.00,-995.00
2024-05-19 09:19:16.984958,1,2,-4,0,0,0,89,93,129,100,34,106.26,368,19.00,-34.00,-1013.00
2024-05-19 09:19:17.086951,1,2,-4,0,0,0,90,92,130,100,34,106.38,369,35.00,-51.00,-972.00
2024-05-19 09:19:17.188545,0,2,-4,0,0,0,90,92,129,100,34,106.25,369,11.00,-33.00,-999.00
2024-05-19 09:19:17.310317,0,2,-4,0,0,0,90,92,130,100,34,106.36,369,-18.00,-45.00,-999.00
2024-05-19 09:19:17.394104,0,2,-4,0,0,0,90,92,130,100,34,106.19,369,15.00,-24.00,-1028.00
2024-05-19 09:19:17.494444,0,2,-4,0,0,0,90,92,130,100,33,106.35,369,-5.00,-40.00,-949.00
2024-05-19 09:19:17.596443,0,2,-4,0,0,0,90,92,130,100,33,106.10,369,32.00,-28.00,-1040.00
2024-05-19 09:19:17.698753,0,2,-4,0,0,0,90,92,130,100,33,106.24,369,22.00,-18.00,-986.00
2024-05-19 09:19:17.822289,0,1,-4,0,0,0,90,92,130,100,33,106.44,369,9.00,-45.00,-995.00
2024-05-19 09:19:17.902398,0,1,-4,0,0,0,90,92,131,100,33,106.35,369,24.00,-55.00,-1009.00
2024-05-19 09:19:18.027230,0,1,-4,0,0,0,90,92,131,100,33,106.10,370,8.00,-15.00,-996.00
2024-05-19 09:19:18.106382,0,1,-4,0,0,0,90,92,131,100,33,106.37,370,9.00,-6.00,-996.00
2024-05-19 09:19:18.233822,0,1,-4,0,0,0,90,92,132,100,33,106.22,370,12.00,-31.00,-1014.00
2024-05-19 09:19:18.310382,1,1,-4,0,0,0,90,92,132,100,33,106.51,370,40.00,-34.00,-1000.00
2024-05-19 09:19:18.436746,1,1,-4,0,0,0,90,92,133,100,33,106.36,370,24.00,-23.00,-1021.00
2024-05-19 09:19:18.514436,1,2,-4,0,0,0,90,92,133,100,33,106.47,370,27.00,-57.00,-998.00
2024-05-19 09:19:18.641535,1,2,-4,0,0,0,90,92,133,100,33,106.44,370,25.00,-18.00,-1016.00
2024-05-19 09:19:18.719338,1,2,-4,0,0,0,90,92,134,100,33,106.27,370,28.00,-41.00,-990.00
2024-05-19 09:19:18.820376,1,1,-4,0,0,0,90,92,133,100,33,106.46,370,19.00,-47.00,-959.00
2024-05-19 09:19:18.948670,1,2,-4,0,0,0,90,92,134,100,33,106.34,370,19.00,-12.00,-1001.00
2024-05-19 09:19:19.024611,1,2,-4,0,0,0,90,92,133,100,33,106.39,371,16.00,-38.00,-970.00
2024-05-19 09:19:19.126347,1,2,-4,0,0,0,90,93,133,100,33,106.41,371,-3.00,-28.00,-1001.00
2024-05-19 09:19:19.255957,0,2,-4,0,0,0,90,93,133,100,33,106.31,371,26.00,-25.00,-1014.00
2024-05-19 09:19:19.330426,0,2,-4,0,0,0,90,93,133,100,33,106.29,371,3.00,-47.00,-994.00
2024-05-19 09:19:19.460709,0,2,-4,0,0,0,90,93,133,100,33,106.38,371,37.00,-21.00,-996.00
2024-05-19 09:19:19.534726,0,2,-4,0,0,0,90,93,132,100,33,106.25,371,24.00,-45.00,-1001.00
2024-05-19 09:19:19.585377,0,2,-4,0,0,0,90,93,132,100,33,106.21,371,25.00,-29.00,-991.00
2024-05-19 09:19:19.767840,1,2,-4,0,0,0,90,93,133,100,33,106.32,371,36.00,-38.00,-973.00
2024-05-19 09:19:19.789352,0,2,-4,0,0,0,90,93,132,100,33,106.01,371,0.00,-62.00,-959.00
2024-05-19 09:19:19.972639,0,2,-4,0,0,0,90,93,133,100,33,106.60,371,28.00,-41.00,-996.00
2024-05-19 09:19:19.993277,0,2,-4,0,0,0,90,93,132,100,33,106.30,372,31.00,-41.00,-1035.00
2024-05-19 09:19:20.113431,1,3,-4,0,0,0,89,92,132,100,33,106.34,372,52.00,-34.00,-1007.00
2024-05-19 09:19:20.197450,1,3,-4,0,0,0,89,92,133,100,33,106.71,372,27.00,-46.00,-1003.00
2024-05-19 09:19:20.383728,1,3,-4,0,0,0,89,92,133,100,33,106.35,372,48.00,-47.00,-1003.00
2024-05-19 09:19:20.401284,1,2,-4,0,0,0,89,92,133,100,33,106.60,372,-3.00,-54.00,-975.00
2024-05-19 09:19:20.587523,1,2,-4,0,0,0,89,92,133,100,33,106.25,372,18.00,-24.00,-1016.00
2024-05-19 09:19:20.605605,1,2,-4,0,0,0,89,92,133,100,33,106.52,372,40.00,-53.00,-992.00
2024-05-19 09:19:20.707290,1,2,-4,0,0,0,89,92,133,100,33,106.45,372,0.00,-42.00,-996.00
2024-05-19 09:19:20.894630,0,2,-4,0,0,0,89,92,133,100,33,106.60,372,7.00,-38.00,-999.00
2024-05-19 09:19:20.911914,0,2,-4,0,0,0,89,92,133,100,33,106.37,372,17.00,-31.00,-983.00
2024-05-19 09:19:21.099077,0,2,-4,0,0,0,89,92,134,100,33,106.48,373,5.00,-35.00,-995.00
2024-05-19 09:19:21.115337,0,2,-4,0,0,0,90,93,134,100,33,106.46,373,0.00,-28.00,-1019.00
2024-05-19 09:19:21.303884,0,2,-4,0,0,0,90,93,134,100,33,106.50,373,4.00,-22.00,-1022.00
2024-05-19 09:19:21.319119,0,2,-4,0,0,0,90,93,133,100,33,106.19,373,17.00,-23.00,-1005.00
2024-05-19 09:19:21.508631,0,2,-4,0,0,0,90,93,134,100,33,106.17,373,10.00,-43.00,-996.00
2024-05-19 09:19:21.523168,0,2,-4,0,0,0,90,93,134,100,32,106.11,373,12.00,-48.00,-970.00
2024-05-19 09:19:21.713428,0,1,-4,0,0,0,90,93,134,100,32,106.05,373,28.00,-41.00,-997.00
2024-05-19 09:19:21.727208,0,2,-4,0,0,0,90,93,134,100,32,106.40,373,-4.00,-43.00,-998.00
2024-05-19 09:19:21.918657,0,2,-4,0,0,0,90,93,134,100,32,106.19,373,17.00,-44.00,-1015.00
2024-05-19 09:19:21.931240,0,2,-4,0,0,0,90,93,134,100,32,106.29,373,15.00,-39.00,-1001.00
2024-05-19 09:19:22.123044,0,2,-4,0,0,0,90,93,134,100,32,106.15,374,22.00,-29.00,-1019.00
2024-05-19 09:19:22.135146,0,2,-4,0,0,0,89,93,134,100,32,106.38,374,28.00,-46.00,-1011.00
2024-05-19 09:19:22.237338,0,2,-4,0,0,0,89,93,134,100,32,106.57,374,-3.00,-38.00,-1034.00
2024-05-19 09:19:22.339230,0,2,-4,0,0,0,89,93,134,100,32,106.42,374,31.00,-43.00,-992.00
2024-05-19 09:19:22.441400,0,3,-4,0,0,0,89,93,133,100,32,106.58,374,30.00,-30.00,-1005.00
2024-05-19 09:19:22.635411,1,3,-4,0,0,0,89,93,133,100,32,106.36,374,51.00,-31.00,-1043.00
2024-05-19 09:19:22.645065,1,2,-4,0,0,0,89,93,133,100,32,106.47,374,39.00,-22.00,-1017.00
2024-05-19 09:19:22.747253,1,2,-4,0,0,0,89,93,133,100,32,106.67,374,10.00,-16.00,-991.00
2024-05-19 09:19:22.849164,1,2,-4,0,0,0,89,93,134,100,32,106.20,374,24.00,-28.00,-988.00
2024-05-19 09:19:23.046640,1,2,-4,0,0,0,89,93,133,100,32,106.60,374,45.00,-38.00,-976.00
2024-05-19 09:19:23.046852,1,1,-4,0,0,0,89,93,134,100,32,106.45,375,24.00,-35.00,-988.00
2024-05-19 09:19:23.155208,1,1,-4,0,0,0,90,93,134,100,32,106.09,375,24.00,-13.00,-999.00
2024-05-19 09:19:23.206040,1,1,-4,0,0,0,90,93,134,100,32,106.40,375,41.00,-17.00,-969.00
2024-05-19 09:19:23.352089,2,1,-4,0,0,0,90,93,134,100,32,106.24,375,28.00,-20.00,-1011.00
2024-05-19 09:19:23.410060,2,1,-4,0,0,0,90,93,135,100,32,105.96,375,13.00,-34.00,-999.00
2024-05-19 09:19:23.556620,1,1,-4,0,0,0,90,93,134,100,32,106.36,375,4.00,-34.00,-982.00
2024-05-19 09:19:23.614244,1,2,-4,0,0,0,90,93,133,100,32,106.27,375,27.00,-51.00,-1021.00
2024-05-19 09:19:23.716809,1,3,-4,0,0,0,90,93,134,100,32,106.37,375,-5.00,-63.00,-971.00
2024-05-19 09:19:23.817978,0,3,-4,0,0,0,90,93,133,100,32,106.31,375,25.00,-52.00,-954.00
2024-05-19 09:19:23.920059,0,3,-4,0,0,0,90,93,132,100,32,106.38,375,36.00,-72.00,-978.00
2024-05-19 09:19:24.021997,1,3,-4,0,0,0,90,93,133,100,32,106.68,376,21.00,-59.00,-975.00
2024-05-19 09:19:24.171345,1,3,-4,0,0,0,90,93,133,100,32,106.47,376,32.00,-52.00,-982.00
2024-05-19 09:19:24.226012,1,3,-4,0,0,0,90,93,132,100,32,106.46,376,41.00,-48.00,-1016.00
