TS,pitch,roll,yaw,vgx,vgy,vgz,templ,temph,tof,h,bat,baro,time,agx,agy,agz
2025-08-07T18:17:45.440700,5.51,-2.30,-19.19,0.00,0.00,0.00,32.00,32.00,1067.2,0.00,0.00,995.05,911.6,1.001,-0.419,10.366
2025-08-07T18:17:45.661857,5.62,-2.33,-19.19,0.00,0.00,0.00,32.00,32.00,1089.4,0.00,0.00,995.05,911.9,1.018,-0.423,10.331
2025-08-07T18:17:45.885744,5.15,-2.44,-19.19,0.00,0.00,0.00,31.98,31.98,1111.6,0.00,0.00,995.05,912.1,0.929,-0.439,10.288
2025-08-07T18:17:46.107686,5.27,-2.17,-19.19,0.00,0.00,0.00,31.99,31.99,1133.9,0.00,0.00,995.05,912.3,0.968,-0.400,10.488
2025-08-07T18:17:46.329950,5.67,-2.37,-19.19,0.00,0.00,0.00,31.97,31.97,1156.1,0.00,0.00,995.05,912.5,1.024,-0.429,10.308
2025-08-07T18:17:46.782338,5.46,-2.31,-19.19,0.00,0.00,0.00,31.97,31.97,1200.6,0.00,0.00,995.05,913.0,0.997,-0.423,10.415
2025-08-07T18:17:47.005565,5.61,-2.30,-19.19,0.00,0.00,0.00,31.97,31.97,1222.8,0.00,0.00,995.05,913.2,1.019,-0.419,10.364
2025-08-07T18:17:47.219109,5.72,-2.31,-19.19,0.00,0.00,0.00,31.98,31.98,1245.0,0.00,0.00,995.05,913.4,1.033,-0.419,10.314
2025-08-07T18:17:47.445405,5.36,-2.32,-19.19,0.00,0.00,0.00,31.96,31.96,1267.3,0.00,0.00,995.05,913.6,0.978,-0.424,10.421
2025-08-07T18:17:47.664121,2.43,-7.04,-19.13,0.00,0.00,0.00,31.96,31.96,1289.5,0.00,0.00,995.05,913.9,0.475,-1.374,11.126
2025-08-07T18:17:48.105840,33.18,16.24,-19.40,0.00,0.00,0.00,31.95,31.95,54.0,0.00,0.00,995.04,914.3,5.938,3.035,8.559
2025-08-07T18:17:48.330030,39.92,35.73,-19.34,0.00,0.00,0.00,31.94,31.94,56.0,0.00,0.00,995.04,914.5,4.667,4.247,3.615
2025-08-07T18:17:48.774940,60.52,18.73,-19.38,0.00,0.00,0.00,31.96,31.96,48.0,0.00,0.00,995.04,915.0,8.557,3.157,3.666
2025-08-07T18:17:49.000249,46.58,-12.35,-18.84,0.00,0.00,0.00,31.98,31.98,53.0,0.00,0.00,995.04,915.2,8.325,-2.450,7.485
2025-08-07T18:17:49.228198,37.99,-10.01,-19.18,0.00,0.00,0.00,31.97,31.97,90.0,0.00,0.00,995.04,915.4,8.035,-2.269,10.035
2025-08-07T18:17:49.443720,48.97,6.68,-19.45,0.00,0.00,0.00,31.96,31.96,809.0,0.00,0.00,995.04,915.6,6.898,1.063,5.906
2025-08-07T18:17:49.663947,61.50,13.25,-19.11,0.00,0.00,0.00,31.96,31.96,303.0,0.00,0.00,995.04,915.9,10.303,2.687,-4.906
2025-08-07T18:17:49.887147,51.42,-4.52,-18.88,0.00,0.00,0.00,31.97,31.97,280.0,0.00,0.00,995.04,916.1,9.064,-0.915,-7.173
2025-08-07T18:17:50.117087,52.19,-20.11,-18.72,0.00,0.00,0.00,31.97,31.97,480.0,0.00,0.00,995.04,916.3,8.383,-3.648,-5.386
2025-08-07T18:17:50.338707,38.13,-33.96,-18.58,0.00,0.00,0.00,31.95,31.95,458.0,0.00,0.00,995.04,916.5,7.009,-6.341,-6.285
2025-08-07T18:17:50.562096,27.83,-26.84,-18.39,0.00,0.00,0.00,31.95,31.95,533.0,0.00,0.00,995.04,916.8,5.148,-4.979,-8.383
2025-08-07T18:17:50.775966,10.00,-22.50,-18.62,0.00,0.00,0.00,31.95,31.95,402.0,0.00,0.00,995.05,917.0,1.616,-3.561,-8.446
2025-08-07T18:17:50.999835,10.57,-16.52,-18.54,0.00,0.00,0.00,31.95,31.95,409.0,0.00,0.00,995.05,917.2,1.799,-2.789,-9.230
2025-08-07T18:17:51.221068,17.01,-17.50,-18.21,0.00,0.00,0.00,31.96,31.96,403.0,0.00,0.00,995.05,917.4,3.026,-3.110,-9.391
2025-08-07T18:17:51.450629,31.55,-15.45,-18.20,0.00,0.00,0.00,31.97,31.97,397.0,0.00,0.00,995.05,917.6,5.539,-2.820,-8.570
2025-08-07T18:17:51.664711,18.04,-10.92,-18.57,0.00,0.00,0.00,31.96,31.96,400.0,0.00,0.00,995.05,917.9,3.112,-1.905,-9.366
2025-08-07T18:17:51.888078,5.58,-8.97,-18.66,0.00,0.00,0.00,31.95,31.95,419.0,0.00,0.00,995.05,918.1,0.937,-1.504,-9.482
2025-08-07T18:17:52.112144,16.84,-11.45,-18.41,0.00,0.00,0.00,31.97,31.97,423.0,0.00,0.00,995.05,918.3,2.981,-2.042,-9.633
2025-08-07T18:17:52.339685,21.04,-13.33,-18.32,0.00,0.00,0.00,31.96,31.96,405.0,0.00,0.00,995.06,918.5,3.834,-2.462,-9.659
2025-08-07T18:17:52.563069,18.81,-10.13,-18.56,0.00,0.00,0.00,31.95,31.95,396.0,0.00,0.00,995.06,918.8,3.455,-1.884,-9.967
2025-08-07T18:17:52.776906,11.30,-12.81,-18.71,0.00,0.00,0.00,31.95,31.95,409.0,0.00,0.00,995.06,919.0,1.931,-2.184,-9.409
2025-08-07T18:17:52.998720,2.41,-13.85,-18.66,0.00,0.00,0.00,31.96,31.96,406.0,0.00,0.00,995.06,919.2,0.424,-2.413,-9.779
2025-08-07T18:17:53.221957,20.05,-15.99,-18.34,0.00,0.00,0.00,31.97,31.97,394.0,0.00,0.00,995.06,919.4,3.433,-2.758,-8.991
2025-08-07T18:17:53.445674,26.53,-15.09,-18.49,0.00,0.00,0.00,31.98,31.98,394.0,0.00,0.00,995.06,919.6,4.757,-2.772,-9.115
2025-08-07T18:17:53.665525,8.07,-15.89,-18.88,0.00,0.00,0.00,31.98,31.98,395.0,0.00,0.00,995.06,919.9,1.383,-2.696,-9.371
2025-08-07T18:17:53.896895,7.66,-16.04,-18.88,0.00,0.00,0.00,31.97,31.97,407.0,0.00,0.00,995.06,920.1,1.231,-2.552,-8.790
2025-08-07T18:17:54.118690,6.87,-17.32,-18.54,0.00,0.00,0.00,31.97,31.97,409.0,0.00,0.00,995.06,920.3,1.208,-3.007,-9.565
2025-08-07T18:17:54.332571,30.01,-17.07,-18.29,0.00,0.00,0.00,31.98,31.98,394.0,0.00,0.00,995.06,920.5,5.137,-3.015,-8.367
2025-08-07T18:17:54.556935,28.49,-15.90,-18.62,0.00,0.00,0.00,31.97,31.97,395.0,0.00,0.00,995.06,920.8,5.042,-2.897,-8.829
2025-08-07T18:17:54.787465,6.13,-18.01,-18.90,0.00,0.00,0.00,31.97,31.97,404.0,0.00,0.00,995.06,921.0,0.940,-2.720,-8.314
2025-08-07T18:17:54.999445,10.17,-14.53,-18.69,0.00,0.00,0.00,31.99,31.99,442.0,0.00,0.00,995.06,921.2,1.555,-2.209,-8.380
2025-08-07T18:17:55.222845,27.16,-17.09,-18.24,0.00,0.00,0.00,31.99,31.99,436.0,0.00,0.00,995.07,921.4,4.679,-3.013,-8.608
2025-08-07T18:17:55.444508,36.85,-19.03,-18.29,0.00,0.00,0.00,31.98,31.98,410.0,0.00,0.00,995.07,921.6,5.825,-3.166,-7.098
2025-08-07T18:17:55.666410,20.82,-20.88,-18.66,0.00,0.00,0.00,31.99,31.99,429.0,0.00,0.00,995.07,921.9,3.041,-3.049,-7.391
2025-08-07T18:17:55.897900,9.15,-13.81,-18.70,0.00,0.00,0.00,31.98,31.98,434.0,0.00,0.00,995.07,922.1,1.422,-2.133,-8.563
2025-08-07T18:17:56.119359,16.58,-18.61,-18.29,0.00,0.00,0.00,31.96,31.96,432.0,0.00,0.00,995.07,922.3,2.670,-2.987,-8.456
2025-08-07T18:17:56.334325,37.76,-16.99,-18.10,0.00,0.00,0.00,31.97,31.97,409.0,0.00,0.00,995.07,922.5,6.272,-2.993,-7.523
2025-08-07T18:17:56.557360,32.45,-17.61,-18.50,0.00,0.00,0.00,31.97,31.97,410.0,0.00,0.00,995.07,922.8,5.478,-3.089,-8.041
2025-08-07T18:17:56.786337,14.30,-10.37,-18.95,0.00,0.00,0.00,31.97,31.97,417.0,0.00,0.00,995.07,923.0,2.431,-1.772,-9.376
2025-08-07T18:17:57.000379,1.65,-1.11,-18.97,0.00,0.00,0.00,31.97,31.97,467.0,0.00,0.00,995.07,923.2,0.260,-0.175,-9.029
2025-08-07T18:17:57.223894,23.66,-14.23,-18.57,0.00,0.00,0.00,31.99,31.99,467.0,0.00,0.00,995.07,923.4,3.843,-2.354,-8.450
2025-08-07T18:17:57.445456,34.67,-14.39,-18.21,0.00,0.00,0.00,32.00,32.00,416.0,0.00,0.00,995.07,923.6,6.161,-2.692,-8.492
2025-08-07T18:17:57.667387,36.25,-17.47,-18.47,0.00,0.00,0.00,32.01,32.01,412.0,0.00,0.00,995.07,923.9,6.169,-3.132,-7.807
2025-08-07T18:17:57.898826,24.31,-14.77,-18.95,0.00,0.00,0.00,32.00,32.00,425.0,0.00,0.00,995.07,924.1,4.213,-2.608,-8.953
2025-08-07T18:17:58.112921,17.21,-12.40,-18.99,0.00,0.00,0.00,32.00,32.00,449.0,0.00,0.00,995.07,924.3,2.601,-1.888,-8.182
2025-08-07T18:17:58.342394,26.15,-17.46,-18.49,0.00,0.00,0.00,32.03,32.03,512.0,0.00,0.00,995.07,924.5,4.705,-3.203,-9.032
2025-08-07T18:17:58.559578,41.49,-18.36,-18.28,0.00,0.00,0.00,32.03,32.03,417.0,0.00,0.00,995.07,924.8,6.981,-3.320,-7.162
2025-08-07T18:17:58.787283,35.77,-18.93,-18.60,0.00,0.00,0.00,32.02,32.02,425.0,0.00,0.00,995.07,925.0,6.123,-3.397,-7.790
2025-08-07T18:17:59.001303,21.59,-15.71,-18.93,0.00,0.00,0.00,32.02,32.02,449.0,0.00,0.00,995.07,925.2,3.377,-2.485,-8.165
2025-08-07T18:17:59.224727,17.71,-13.67,-18.85,0.00,0.00,0.00,32.00,32.00,475.0,0.00,0.00,995.07,925.4,2.719,-2.113,-8.249
2025-08-07T18:17:59.446462,26.28,-15.87,-18.49,0.00,0.00,0.00,32.02,32.02,458.0,0.00,0.00,995.07,925.6,4.622,-2.854,-8.915
2025-08-07T18:17:59.668235,40.16,-18.02,-18.33,0.00,0.00,0.00,32.02,32.02,426.0,0.00,0.00,995.08,925.9,6.747,-3.236,-7.312
2025-08-07T18:17:59.894426,26.87,-18.19,-18.60,0.00,0.00,0.00,32.02,32.02,421.0,0.00,0.00,995.07,926.1,4.313,-2.980,-7.975
2025-08-07T18:18:00.113864,15.50,-16.99,-18.70,0.00,0.00,0.00,32.01,32.01,431.0,0.00,0.00,995.07,926.3,2.553,-2.792,-8.774
2025-08-07T18:18:00.336882,14.42,-20.59,-18.40,0.00,0.00,0.00,32.04,32.04,423.0,0.00,0.00,995.07,926.5,2.424,-3.424,-8.784
2025-08-07T18:18:00.558570,34.69,-16.43,-18.25,0.00,0.00,0.00,32.04,32.04,408.0,0.00,0.00,995.08,926.8,5.983,-2.972,-8.115
2025-08-07T18:18:00.780128,32.83,-20.03,-18.58,0.00,0.00,0.00,32.03,32.03,407.0,0.00,0.00,995.08,927.0,5.563,-3.515,-7.875
2025-08-07T18:18:01.001982,21.59,-15.52,-18.93,0.00,0.00,0.00,32.03,32.03,433.0,0.00,0.00,995.08,927.2,3.367,-2.449,-8.149
2025-08-07T18:18:01.225547,15.12,-15.40,-18.82,0.00,0.00,0.00,32.03,32.03,467.0,0.00,0.00,995.08,927.4,2.332,-2.374,-8.295
2025-08-07T18:18:01.447170,18.80,-18.17,-18.42,0.00,0.00,0.00,32.02,32.02,462.0,0.00,0.00,995.08,927.6,3.541,-3.427,-9.822
2025-08-07T18:18:01.669264,25.13,-15.73,-18.15,0.00,0.00,0.00,32.03,32.03,388.0,0.00,0.00,995.08,927.9,4.778,-3.050,-9.718
2025-08-07T18:18:01.893054,20.75,-14.17,-18.61,0.00,0.00,0.00,32.04,32.04,391.0,0.00,0.00,995.08,928.1,4.260,-2.944,-10.851
2025-08-07T18:18:02.122065,28.09,-20.57,-18.94,0.00,0.00,0.00,32.05,32.05,428.0,0.00,0.00,995.08,928.3,4.560,-3.402,-7.837
2025-08-07T18:18:02.336199,28.91,12.90,-19.24,0.00,0.00,0.00,32.03,32.03,557.0,0.00,0.00,995.08,928.5,4.848,2.239,-8.490
2025-08-07T18:18:02.563254,21.70,11.42,-19.36,0.00,0.00,0.00,32.04,32.04,667.0,0.00,0.00,995.08,928.8,3.318,1.778,-8.149
2025-08-07T18:18:02.781031,17.09,-0.37,-19.36,0.00,0.00,0.00,32.05,32.05,738.0,0.00,0.00,995.08,929.0,2.968,-0.065,-9.651
2025-08-07T18:18:03.002994,15.00,-2.68,-19.38,0.00,0.00,0.00,32.04,32.04,308.0,0.00,0.00,995.08,929.2,2.672,-0.484,-9.962
2025-08-07T18:18:03.234395,13.90,3.33,-19.36,0.00,0.00,0.00,32.04,32.04,892.0,0.00,0.00,995.07,929.4,1.887,0.456,-7.611
2025-08-07T18:18:03.448017,11.17,14.47,-19.33,0.00,0.00,0.00,32.04,32.04,1024.0,0.00,0.00,995.07,929.6,1.125,1.451,-5.510
2025-08-07T18:18:03.670214,15.41,-1.61,-19.29,0.00,0.00,0.00,32.06,32.06,980.0,0.00,0.00,995.07,929.9,2.330,-0.247,-8.449
2025-08-07T18:18:03.901369,15.93,-9.20,-19.16,0.00,0.00,0.00,32.05,32.05,842.0,0.00,0.00,995.07,930.1,2.623,-1.529,-9.062
2025-08-07T18:18:04.123789,18.01,-22.13,-19.03,0.00,0.00,0.00,32.03,32.03,710.0,0.00,0.00,995.06,930.3,3.438,-4.187,-9.708
2025-08-07T18:18:04.336984,16.88,-24.94,-18.89,0.00,0.00,0.00,32.02,32.02,589.0,0.00,0.00,995.06,930.5,3.311,-4.809,-9.796
2025-08-07T18:18:04.561111,16.64,-30.51,-18.82,0.00,0.00,0.00,32.04,32.04,501.0,0.00,0.00,995.07,930.8,3.201,-5.674,-9.082
2025-08-07T18:18:04.790394,17.14,-30.71,-18.78,0.00,0.00,0.00,32.02,32.02,451.0,0.00,0.00,995.07,931.0,2.987,-5.175,-8.183
2025-08-07T18:18:05.012050,22.97,-30.29,-18.79,0.00,0.00,0.00,32.06,32.06,442.0,0.00,0.00,995.07,931.2,4.007,-5.179,-7.909
2025-08-07T18:18:05.227485,32.66,-27.88,-18.91,0.00,0.00,0.00,32.04,32.04,454.0,0.00,0.00,995.07,931.4,6.025,-5.221,-7.816
2025-08-07T18:18:05.450218,19.73,-19.34,-19.02,0.00,0.00,0.00,32.05,32.05,525.0,0.00,0.00,995.07,931.7,3.207,-3.146,-8.373
2025-08-07T18:18:05.678938,13.86,0.85,-19.15,0.00,0.00,0.00,32.07,32.07,592.0,0.00,0.00,995.07,931.9,2.473,0.153,-10.022
2025-08-07T18:18:05.899936,3.88,20.30,-19.30,0.00,0.00,0.00,32.05,32.05,884.0,0.00,0.00,995.07,932.1,0.609,3.121,-8.413
2025-08-07T18:18:06.119554,-7.44,37.37,-19.33,0.00,0.00,0.00,32.04,32.04,1096.0,0.00,0.00,995.07,932.3,-0.966,4.530,-5.851
2025-08-07T18:18:06.346757,-3.01,51.41,-19.31,0.00,0.00,0.00,32.06,32.06,1191.0,0.00,0.00,995.07,932.5,-0.348,5.193,-4.130
2025-08-07T18:18:06.561335,8.10,21.55,-19.26,0.00,0.00,0.00,32.05,32.05,1096.0,0.00,0.00,995.06,932.8,1.138,2.968,-7.428
2025-08-07T18:18:06.783006,16.19,-4.46,-19.17,0.00,0.00,0.00,32.05,32.05,850.0,0.00,0.00,995.06,933.0,3.318,-0.925,-11.393
2025-08-07T18:18:07.014058,26.05,-21.34,-19.08,0.00,0.00,0.00,32.06,32.06,674.0,0.00,0.00,995.06,933.2,4.687,-3.883,-8.768
2025-08-07T18:18:07.236199,25.56,-31.39,-18.95,0.00,0.00,0.00,32.05,32.05,594.0,0.00,0.00,995.06,933.4,4.770,-5.760,-8.145
2025-08-07T18:18:07.449777,22.41,-30.50,-18.84,0.00,0.00,0.00,32.05,32.05,528.0,0.00,0.00,995.06,933.7,4.199,-5.592,-8.513
2025-08-07T18:18:07.680041,22.62,-36.51,-18.79,0.00,0.00,0.00,32.06,32.06,473.0,0.00,0.00,995.06,933.9,3.790,-5.863,-6.956
2025-08-07T18:18:07.895365,24.00,-20.79,-18.83,0.00,0.00,0.00,32.04,32.04,483.0,0.00,0.00,995.06,934.1,5.036,-4.396,-10.424
2025-08-07T18:18:08.346807,41.44,-1.41,-19.32,0.00,0.00,0.00,32.06,32.06,623.0,0.00,0.00,995.06,934.5,6.603,-0.245,-7.475
2025-08-07T18:18:08.562105,46.70,13.39,-19.55,0.00,0.00,0.00,32.07,32.07,817.0,0.00,0.00,995.06,934.8,6.434,2.047,-5.707
2025-08-07T18:18:08.782061,26.84,41.78,-19.81,0.00,0.00,0.00,32.05,32.05,596.0,0.00,0.00,995.06,935.0,3.573,5.272,-4.696
2025-08-07T18:18:09.005650,18.75,55.12,-19.84,0.00,0.00,0.00,32.07,32.07,527.0,0.00,0.00,995.06,935.2,2.612,6.664,-3.843
2025-08-07T18:18:09.229309,22.24,52.26,-19.74,0.00,0.00,0.00,32.06,32.06,563.0,0.00,0.00,995.06,935.4,3.073,6.419,-3.905
2025-08-07T18:18:09.458687,32.74,30.10,-19.57,0.00,0.00,0.00,32.04,32.04,437.0,0.00,0.00,995.05,935.7,5.187,4.810,-6.475
2025-08-07T18:18:09.674669,37.06,7.98,-19.41,0.00,0.00,0.00,32.06,32.06,304.0,0.00,0.00,995.05,935.9,5.849,1.347,-7.628
2025-08-07T18:18:09.896200,38.49,-12.59,-19.13,0.00,0.00,0.00,32.07,32.07,302.0,0.00,0.00,995.06,936.1,6.592,-2.309,-7.962
2025-08-07T18:18:10.122390,67.07,-19.85,-19.24,0.00,0.00,0.00,32.05,32.05,273.0,0.00,0.00,995.06,936.3,12.899,-4.755,-2.674
2025-08-07T18:18:10.340843,58.24,-11.79,-19.57,0.00,0.00,0.00,32.05,32.05,215.0,0.00,0.00,995.06,936.5,8.491,-2.041,4.843
2025-08-07T18:18:10.563217,20.65,17.60,-19.40,0.00,0.00,0.00,32.04,32.04,377.0,0.00,0.00,995.06,936.8,2.417,2.072,6.068
2025-08-07T18:18:10.784568,27.31,-0.73,-19.39,0.00,0.00,0.00,32.06,32.06,420.4,0.00,0.00,995.06,937.0,4.938,-0.136,9.561
2025-08-07T18:18:11.014843,30.18,5.16,-19.47,0.00,0.00,0.00,32.03,32.03,117.0,0.00,0.00,995.06,937.2,4.970,0.889,8.502
2025-08-07T18:18:11.230188,38.74,-1.00,-19.49,0.00,0.00,0.00,32.05,32.05,36.0,0.00,0.00,995.06,937.4,7.223,-0.201,9.001
2025-08-07T18:18:11.452250,41.64,-2.07,-19.53,0.00,0.00,0.00,32.05,32.05,41.0,0.00,0.00,995.06,937.7,7.627,-0.415,8.569
2025-08-07T18:18:11.673645,25.05,4.86,-19.92,0.00,0.00,0.00,32.04,32.04,32.0,0.00,0.00,995.06,937.9,5.164,1.033,11.004
2025-08-07T18:18:11.897215,21.18,34.62,-19.98,0.00,0.00,0.00,32.05,32.05,33.0,0.00,0.00,995.05,938.1,3.427,5.389,7.014
2025-08-07T18:18:12.118549,30.20,25.18,-19.82,0.00,0.00,0.00,32.04,32.04,30.0,0.00,0.00,995.05,938.3,4.469,3.779,6.683
2025-08-07T18:18:12.340591,21.89,36.20,-19.70,0.00,0.00,0.00,32.07,32.07,21.0,0.00,0.00,995.05,938.5,3.606,5.713,6.923
2025-08-07T18:18:12.788922,-5.37,16.46,-19.46,0.00,0.00,0.00,32.03,32.03,18.0,0.00,0.00,995.05,939.0,-0.988,2.992,10.076
2025-08-07T18:18:13.010430,3.62,-15.74,-19.36,0.00,0.00,0.00,32.02,32.02,17.0,0.00,0.00,995.05,939.2,0.636,-2.729,9.665
2025-08-07T18:18:13.232045,5.23,-9.34,-19.79,0.00,0.00,0.00,32.03,32.03,19.0,0.00,0.00,995.04,939.4,1.264,-2.251,13.625
2025-08-07T18:18:13.452506,1.17,-2.99,-19.82,0.00,0.00,0.00,32.03,32.03,42.0,0.00,0.00,995.04,939.7,0.219,-0.558,10.667
2025-08-07T18:18:13.674467,-11.81,0.89,-19.85,0.00,0.00,0.00,32.02,32.02,46.6,0.00,0.00,995.04,939.9,-2.804,0.212,13.409
2025-08-07T18:18:14.118263,1.78,-1.67,-19.85,0.00,0.00,0.00,32.01,32.01,140.1,0.00,0.00,995.05,940.3,0.322,-0.302,10.344
2025-08-07T18:18:14.343049,1.80,-1.75,-19.85,0.00,0.00,0.00,32.00,32.00,186.7,0.00,0.00,995.05,940.5,0.324,-0.316,10.312
2025-08-07T18:18:14.564879,2.11,-1.88,-19.85,0.00,0.00,0.00,32.00,32.00,233.3,0.00,0.00,995.05,940.8,0.365,-0.326,9.895
2025-08-07T18:18:14.795299,1.94,-1.74,-19.85,0.00,0.00,0.00,32.01,32.01,280.4,0.00,0.00,995.05,941.0,0.346,-0.311,10.220
2025-08-07T18:18:15.017343,1.67,-1.69,-19.85,0.00,0.00,0.00,32.01,32.01,327.0,0.00,0.00,995.05,941.2,0.304,-0.308,10.409
2025-08-07T18:18:15.236002,1.75,-1.51,-19.85,0.00,0.00,0.00,32.00,32.00,373.6,0.00,0.00,995.05,941.4,0.323,-0.278,10.550
2025-08-07T18:18:15.458205,1.82,-1.71,-19.85,0.00,0.00,0.00,32.02,32.02,420.4,0.00,0.00,995.05,941.7,0.327,-0.306,10.288
2025-08-07T18:18:15.679005,1.57,-1.59,-19.85,0.00,0.00,0.00,31.99,31.99,467.0,0.00,0.00,995.04,941.9,0.284,-0.289,10.380
2025-08-07T18:18:15.908061,1.89,-1.62,-19.85,0.00,0.00,0.00,32.01,32.01,513.7,0.00,0.00,995.05,942.1,0.341,-0.293,10.362
