TS,pitch,roll,yaw,vgx,vgy,vgz,templ,temph,tof,h,bat,baro,time,agx,agy,agz
2025-08-07T18:19:53.281016,-1.35,-53.66,-23.48,0.00,0.00,0.00,32.12,32.12,129.0,0.00,0.00,995.02,1039.5,-0.243,-8.305,6.104
2025-08-07T18:19:53.496186,-0.45,-54.71,-23.51,0.00,0.00,0.00,32.14,32.14,144.0,0.00,0.00,995.02,1039.7,-0.079,-8.147,5.766
2025-08-07T18:19:53.720422,-0.03,-52.18,-23.51,0.00,0.00,0.00,32.13,32.13,127.0,0.00,0.00,995.02,1039.9,-0.006,-8.010,6.217
2025-08-07T18:19:53.945134,2.12,-53.82,-23.54,0.00,0.00,0.00,32.15,32.15,134.0,0.00,0.00,995.01,1040.1,0.384,-8.399,6.130
2025-08-07T18:19:54.173270,1.67,-53.41,-23.54,0.00,0.00,0.00,32.17,32.17,141.0,0.00,0.00,995.01,1040.4,0.309,-8.496,6.300
2025-08-07T18:19:54.387046,3.14,-55.27,-23.52,0.00,0.00,0.00,32.16,32.16,145.0,0.00,0.00,995.01,1040.6,0.585,-8.780,6.057
2025-08-07T18:19:54.610453,1.49,-52.01,-23.51,0.00,0.00,0.00,32.14,32.14,147.0,0.00,0.00,995.01,1040.8,0.277,-8.401,6.555
2025-08-07T18:19:54.832012,1.04,-52.41,-23.50,0.00,0.00,0.00,32.14,32.14,130.0,0.00,0.00,995.01,1041.0,0.196,-8.589,6.610
2025-08-07T18:19:55.054180,0.46,-52.08,-23.49,0.00,0.00,0.00,32.14,32.14,128.0,0.00,0.00,995.01,1041.3,0.085,-8.437,6.573
2025-08-07T18:19:55.277279,-3.19,-49.63,-23.48,0.00,0.00,0.00,32.14,32.14,122.0,0.00,0.00,995.01,1041.5,-0.583,-7.981,6.761
2025-08-07T18:19:55.506869,-2.56,-44.96,-23.50,0.00,0.00,0.00,32.12,32.12,122.0,0.00,0.00,995.01,1041.7,-0.426,-6.749,6.744
2025-08-07T18:19:55.720966,-3.23,-42.69,-23.37,0.00,0.00,0.00,32.14,32.14,113.0,0.00,0.00,995.01,1041.9,-0.455,-5.477,5.920
2025-08-07T18:19:55.944727,-12.95,-53.24,-23.35,0.00,0.00,0.00,32.14,32.14,116.0,0.00,0.00,995.01,1042.2,-2.459,-8.793,6.091
2025-08-07T18:19:56.168330,-18.24,-54.84,-23.30,0.00,0.00,0.00,32.14,32.14,100.0,0.00,0.00,995.01,1042.4,-3.445,-8.997,5.320
2025-08-07T18:19:56.392885,-39.23,-23.83,-23.15,0.00,0.00,0.00,32.14,32.14,105.0,0.00,0.00,995.01,1042.6,-5.796,-3.703,6.057
2025-08-07T18:19:56.611247,-61.88,-2.88,-22.87,0.00,0.00,0.00,32.13,32.13,1018.0,0.00,0.00,995.00,1042.8,-6.145,-0.350,3.266
2025-08-07T18:19:56.840927,-63.56,-19.40,-23.17,0.00,0.00,0.00,32.12,32.12,372.0,0.00,0.00,995.00,1043.0,-11.951,-4.433,3.956
2025-08-07T18:19:57.054819,-44.31,-3.65,-22.94,0.00,0.00,0.00,32.16,32.16,242.0,0.00,0.00,995.00,1043.3,-8.021,-0.730,-8.182
2025-08-07T18:19:57.278560,-15.62,-21.96,-22.89,0.00,0.00,0.00,32.12,32.12,609.0,0.00,0.00,995.01,1043.5,-2.861,-3.972,-9.428
2025-08-07T18:19:57.503855,-19.11,-16.10,-22.75,0.00,0.00,0.00,32.14,32.14,529.0,0.00,0.00,995.01,1043.7,-3.571,-3.025,-9.851
2025-08-07T18:19:57.954504,-12.26,-33.65,-22.76,0.00,0.00,0.00,32.14,32.14,557.0,0.00,0.00,995.01,1044.2,-1.978,-5.160,-7.495
2025-08-07T18:19:58.170386,-20.71,-24.69,-23.07,0.00,0.00,0.00,32.14,32.14,600.0,0.00,0.00,995.01,1044.4,-4.045,-4.779,-9.574
2025-08-07T18:19:58.388871,-22.78,-35.38,-22.92,0.00,0.00,0.00,32.13,32.13,594.0,0.00,0.00,995.01,1044.6,-3.869,-5.786,-7.168
2025-08-07T18:19:58.612332,-19.99,-26.39,-22.73,0.00,0.00,0.00,32.17,32.17,535.0,0.00,0.00,995.01,1044.8,-2.921,-3.797,-7.075
2025-08-07T18:19:58.843905,-10.75,-15.68,-22.53,0.00,0.00,0.00,32.14,32.14,507.0,0.00,0.00,995.01,1045.0,-1.876,-2.716,-9.495
2025-08-07T18:19:59.055907,-11.95,-17.79,-22.43,0.00,0.00,0.00,32.17,32.17,500.0,0.00,0.00,995.01,1045.3,-1.732,-2.556,-7.775
2025-08-07T18:19:59.287741,-16.92,-12.04,-22.52,0.00,0.00,0.00,32.17,32.17,496.0,0.00,0.00,995.01,1045.5,-2.952,-2.115,-9.468
2025-08-07T18:19:59.509621,-16.65,-12.77,-22.55,0.00,0.00,0.00,32.18,32.18,496.0,0.00,0.00,995.01,1045.7,-2.915,-2.249,-9.486
2025-08-07T18:19:59.723050,-11.42,-23.81,-22.69,0.00,0.00,0.00,32.16,32.16,509.0,0.00,0.00,995.01,1045.9,-1.949,-3.972,-8.789
2025-08-07T18:19:59.946579,-14.79,-27.08,-22.85,0.00,0.00,0.00,32.16,32.16,528.0,0.00,0.00,995.01,1046.2,-2.618,-4.670,-8.748
2025-08-07T18:20:00.168401,-13.69,-31.85,-22.83,0.00,0.00,0.00,32.17,32.17,550.0,0.00,0.00,995.01,1046.4,-2.249,-5.015,-7.751
2025-08-07T18:20:00.389787,-14.30,-33.45,-22.85,0.00,0.00,0.00,32.17,32.17,551.0,0.00,0.00,995.01,1046.6,-2.352,-5.250,-7.592
2025-08-07T18:20:00.614683,-15.01,-29.71,-22.85,0.00,0.00,0.00,32.16,32.16,544.0,0.00,0.00,995.01,1046.8,-2.537,-4.855,-8.122
2025-08-07T18:20:00.834790,-15.21,-31.44,-22.86,0.00,0.00,0.00,32.18,32.18,544.0,0.00,0.00,995.02,1047.0,-2.488,-4.946,-7.700
2025-08-07T18:20:01.064959,-17.08,-31.40,-22.85,0.00,0.00,0.00,32.19,32.19,538.0,0.00,0.00,995.02,1047.3,-2.770,-4.913,-7.557
2025-08-07T18:20:01.280179,-18.68,-32.32,-22.85,0.00,0.00,0.00,32.17,32.17,545.0,0.00,0.00,995.02,1047.5,-3.036,-5.067,-7.411
2025-08-07T18:20:01.504237,-3.82,-30.22,-23.05,0.00,0.00,0.00,32.18,32.18,551.0,0.00,0.00,995.02,1047.7,-0.760,-5.740,-9.826
2025-08-07T18:20:01.731984,-13.62,-26.86,-23.13,0.00,0.00,0.00,32.21,32.21,540.0,0.00,0.00,995.02,1047.9,-2.302,-4.416,-8.410
2025-08-07T18:20:01.947148,-12.44,-32.66,-22.47,0.00,0.00,0.00,32.17,32.17,505.0,0.00,0.00,995.02,1048.2,-2.052,-5.142,-7.754
2025-08-07T18:20:02.169175,-13.11,-17.11,-22.40,0.00,0.00,0.00,32.18,32.18,492.0,0.00,0.00,995.02,1048.4,-2.204,-2.857,-9.019
2025-08-07T18:20:02.390614,-18.62,-20.71,-22.90,0.00,0.00,0.00,32.19,32.19,508.0,0.00,0.00,995.02,1048.6,-3.400,-3.765,-9.361
2025-08-07T18:20:02.614056,-18.70,-27.26,-23.02,0.00,0.00,0.00,32.19,32.19,551.0,0.00,0.00,995.02,1048.8,-3.151,-4.502,-8.150
2025-08-07T18:20:02.835612,-33.29,-27.87,-22.70,0.00,0.00,0.00,32.22,32.22,578.0,0.00,0.00,995.02,1049.0,-4.962,-4.227,-6.266
2025-08-07T18:20:03.058409,-20.16,-26.81,-22.38,0.00,0.00,0.00,32.21,32.21,555.0,0.00,0.00,995.02,1049.3,-3.364,-4.402,-8.035
2025-08-07T18:20:03.292380,-21.60,-17.46,-22.38,0.00,0.00,0.00,32.20,32.20,528.0,0.00,0.00,995.02,1049.5,-3.253,-2.650,-7.775
2025-08-07T18:20:03.502749,-6.62,-26.72,-22.56,0.00,0.00,0.00,32.21,32.21,521.0,0.00,0.00,995.02,1049.7,-1.284,-5.011,-9.872
2025-08-07T18:20:03.732837,-27.55,-21.25,-22.83,0.00,0.00,0.00,32.23,32.23,526.0,0.00,0.00,995.03,1049.9,-3.922,-3.073,-6.861
2025-08-07T18:20:03.956278,-7.69,-20.26,-22.83,0.00,0.00,0.00,32.23,32.23,538.0,0.00,0.00,995.02,1050.2,-1.377,-3.560,-9.548
2025-08-07T18:20:04.169592,-16.26,-10.85,-22.73,0.00,0.00,0.00,32.24,32.24,548.0,0.00,0.00,995.02,1050.4,-3.079,-2.070,-10.355
2025-08-07T18:20:04.399550,-19.20,-20.57,-22.38,0.00,0.00,0.00,32.22,32.22,531.0,0.00,0.00,995.02,1050.6,-3.431,-3.666,-9.145
2025-08-07T18:20:04.613094,-15.78,-21.42,-22.17,0.00,0.00,0.00,32.24,32.24,544.0,0.00,0.00,995.03,1050.8,-2.593,-3.484,-8.491
2025-08-07T18:20:04.844727,-5.93,-22.12,-22.16,0.00,0.00,0.00,32.24,32.24,569.0,0.00,0.00,995.03,1051.0,-0.968,-3.529,-8.626
2025-08-07T18:20:05.066612,-10.14,-20.16,-22.32,0.00,0.00,0.00,32.23,32.23,553.0,0.00,0.00,995.03,1051.3,-1.701,-3.330,-8.909
2025-08-07T18:20:05.503491,-19.02,-21.42,-22.79,0.00,0.00,0.00,32.24,32.24,544.0,0.00,0.00,995.03,1051.7,-3.327,-3.729,-8.903
2025-08-07T18:20:05.740928,-22.85,-18.52,-22.75,0.00,0.00,0.00,32.25,32.25,555.0,0.00,0.00,995.03,1051.9,-3.966,-3.244,-8.833
2025-08-07T18:20:05.947472,-15.42,-27.74,-22.59,0.00,0.00,0.00,32.23,32.23,548.0,0.00,0.00,995.03,1052.2,-2.508,-4.391,-7.964
2025-08-07T18:20:06.170467,-23.06,-21.13,-22.51,0.00,0.00,0.00,32.24,32.24,537.0,0.00,0.00,995.03,1052.4,-3.692,-3.399,-7.980
2025-08-07T18:20:06.392481,-18.27,-21.43,-22.48,0.00,0.00,0.00,32.25,32.25,551.0,0.00,0.00,995.03,1052.6,-2.891,-3.369,-8.082
2025-08-07T18:20:06.616081,-21.07,-19.39,-22.49,0.00,0.00,0.00,32.25,32.25,557.0,0.00,0.00,995.03,1052.8,-3.466,-3.200,-8.406
2025-08-07T18:20:07.059626,-23.02,-19.67,-22.54,0.00,0.00,0.00,32.25,32.25,545.0,0.00,0.00,995.03,1053.3,-3.766,-3.242,-8.250
2025-08-07T18:20:07.282908,-29.92,-18.77,-22.60,0.00,0.00,0.00,32.24,32.24,542.0,0.00,0.00,995.03,1053.5,-4.578,-2.953,-7.385
2025-08-07T18:20:07.504669,-26.04,-24.20,-22.68,0.00,0.00,0.00,32.24,32.24,538.0,0.00,0.00,995.03,1053.7,-4.189,-3.911,-7.629
2025-08-07T18:20:07.728762,-33.07,-8.99,-22.62,0.00,0.00,0.00,32.26,32.26,542.0,0.00,0.00,995.04,1053.9,-6.250,-1.790,-9.432
2025-08-07T18:20:07.957884,-26.82,-15.53,-22.37,0.00,0.00,0.00,32.26,32.26,542.0,0.00,0.00,995.04,1054.2,-4.551,-2.701,-8.588
2025-08-07T18:20:08.174947,-24.46,-16.33,-22.10,0.00,0.00,0.00,32.27,32.27,576.0,0.00,0.00,995.04,1054.4,-3.345,-2.271,-6.993
2025-08-07T18:20:08.415474,-7.87,-7.22,-21.93,0.00,0.00,0.00,32.28,32.28,633.0,0.00,0.00,995.04,1054.6,-1.295,-1.190,-9.297
2025-08-07T18:20:08.838284,-22.84,-13.61,-22.53,0.00,0.00,0.00,32.27,32.27,584.0,0.00,0.00,995.03,1055.0,-4.020,-2.437,-9.230
2025-08-07T18:20:09.068332,-26.45,-19.34,-22.79,0.00,0.00,0.00,32.29,32.29,568.0,0.00,0.00,995.03,1055.3,-4.505,-3.349,-8.414
2025-08-07T18:20:09.283735,-22.37,-18.11,-22.72,0.00,0.00,0.00,32.27,32.27,545.0,0.00,0.00,995.04,1055.5,-4.102,-3.349,-9.386
2025-08-07T18:20:09.505272,-23.34,-19.14,-22.53,0.00,0.00,0.00,32.30,32.30,542.0,0.00,0.00,995.04,1055.7,-4.016,-3.323,-8.695
2025-08-07T18:20:09.728061,-21.69,-29.33,-22.38,0.00,0.00,0.00,32.31,32.31,561.0,0.00,0.00,995.04,1055.9,-3.196,-4.237,-6.828
2025-08-07T18:20:09.951691,-21.96,-27.71,-22.42,0.00,0.00,0.00,32.31,32.31,568.0,0.00,0.00,995.04,1056.2,-3.334,-4.146,-7.153
2025-08-07T18:20:10.180390,-30.84,-16.91,-22.57,0.00,0.00,0.00,32.32,32.32,552.0,0.00,0.00,995.04,1056.4,-4.928,-2.796,-7.768
2025-08-07T18:20:10.402271,-31.77,-25.50,-22.61,0.00,0.00,0.00,32.33,32.33,623.0,0.00,0.00,995.04,1056.6,-5.252,-4.294,-7.312
2025-08-07T18:20:10.617679,-40.83,-36.10,-22.84,0.00,0.00,0.00,32.31,32.31,585.0,0.00,0.00,995.04,1056.8,-5.950,-5.362,-4.320
2025-08-07T18:20:10.840958,-47.41,-31.13,-22.99,0.00,0.00,0.00,32.29,32.29,129.0,0.00,0.00,995.04,1057.0,-7.519,-5.280,-4.459
2025-08-07T18:20:11.061493,-43.71,-43.07,-23.01,0.00,0.00,0.00,32.31,32.31,106.0,0.00,0.00,995.04,1057.3,-6.910,-6.828,-2.369
2025-08-07T18:20:11.284628,-41.61,-46.36,-23.01,0.00,0.00,0.00,32.30,32.30,94.0,0.00,0.00,995.04,1057.5,-6.601,-7.193,-1.864
2025-08-07T18:20:11.506246,-42.98,-44.72,-23.02,0.00,0.00,0.00,32.33,32.33,94.0,0.00,0.00,995.05,1057.7,-6.806,-7.023,-1.999
2025-08-07T18:20:11.738430,-42.07,-45.76,-23.03,0.00,0.00,0.00,32.34,32.34,95.0,0.00,0.00,995.05,1057.9,-6.695,-7.159,-1.945
2025-08-07T18:20:11.951630,-42.16,-45.50,-23.04,0.00,0.00,0.00,32.32,32.32,95.0,0.00,0.00,995.04,1058.2,-6.712,-7.132,-2.020
2025-08-07T18:20:12.173088,-41.72,-46.08,-23.05,0.00,0.00,0.00,32.31,32.31,93.0,0.00,0.00,995.04,1058.4,-6.602,-7.145,-1.939
2025-08-07T18:20:12.403149,-41.61,-46.28,-23.06,0.00,0.00,0.00,32.34,32.34,94.0,0.00,0.00,995.04,1058.6,-6.546,-7.124,-1.888
2025-08-07T18:20:12.618554,-41.34,-46.91,-23.06,0.00,0.00,0.00,32.32,32.32,93.0,0.00,0.00,995.05,1058.8,-6.482,-7.166,-1.711
2025-08-07T18:20:12.840380,-41.70,-46.65,-23.07,0.00,0.00,0.00,32.32,32.32,93.0,0.00,0.00,995.05,1059.0,-6.489,-7.094,-1.653
2025-08-07T18:20:13.062036,-40.99,-47.39,-23.07,0.00,0.00,0.00,32.33,32.33,88.0,0.00,0.00,995.05,1059.3,-6.364,-7.141,-1.630
2025-08-07T18:20:13.507144,-40.88,-47.23,-23.07,0.00,0.00,0.00,32.36,32.36,91.0,0.00,0.00,995.05,1059.7,-6.214,-6.970,-1.717
2025-08-07T18:20:13.729058,-40.86,-47.29,-23.07,0.00,0.00,0.00,32.37,32.37,90.0,0.00,0.00,995.05,1059.9,-6.185,-6.947,-1.693
2025-08-07T18:20:13.959913,-41.32,-46.51,-23.06,0.00,0.00,0.00,32.35,32.35,90.0,0.00,0.00,995.05,1060.2,-6.167,-6.777,-1.814
2025-08-07T18:20:14.181983,-41.18,-46.53,-23.06,0.00,0.00,0.00,32.37,32.37,89.0,0.00,0.00,995.05,1060.4,-6.194,-6.827,-1.873
2025-08-07T18:20:14.396197,-41.31,-46.84,-23.06,0.00,0.00,0.00,32.36,32.36,89.0,0.00,0.00,995.05,1060.6,-6.324,-6.989,-1.719
2025-08-07T18:20:14.848974,-42.41,-46.14,-23.05,0.00,0.00,0.00,32.36,32.36,91.0,0.00,0.00,995.05,1061.0,-6.583,-7.038,-1.547
2025-08-07T18:20:15.063070,-42.03,-46.54,-23.05,0.00,0.00,0.00,32.37,32.37,87.0,0.00,0.00,995.05,1061.3,-6.610,-7.167,-1.561
2025-08-07T18:20:15.286384,-42.99,-45.49,-23.05,0.00,0.00,0.00,32.38,32.38,89.0,0.00,0.00,995.05,1061.5,-6.783,-7.094,-1.620
2025-08-07T18:20:15.508152,-43.60,-31.75,-22.82,0.00,0.00,0.00,32.37,32.37,94.0,0.00,0.00,995.05,1061.7,-7.849,-5.989,-5.662
2025-08-07T18:20:15.730119,-34.55,-27.21,-22.45,0.00,0.00,0.00,32.39,32.39,711.0,0.00,0.00,995.05,1061.9,-5.965,-4.809,-7.204
2025-08-07T18:20:16.182962,1.36,-21.20,-21.95,0.00,0.00,0.00,32.39,32.39,617.0,0.00,0.00,995.05,1062.4,0.186,-2.837,-7.313
2025-08-07T18:20:16.397205,-7.70,-12.99,-22.25,0.00,0.00,0.00,32.40,32.40,697.0,0.00,0.00,995.05,1062.6,-1.019,-1.709,-7.342
2025-08-07T18:20:16.620337,-16.96,-14.15,-22.45,0.00,0.00,0.00,32.40,32.40,665.0,0.00,0.00,995.05,1062.8,-2.799,-2.345,-8.872
2025-08-07T18:20:16.840400,-20.65,-18.27,-22.55,0.00,0.00,0.00,32.40,32.40,627.0,0.00,0.00,995.05,1063.1,-3.603,-3.202,-9.007
2025-08-07T18:20:17.063708,-14.58,-16.95,-22.42,0.00,0.00,0.00,32.39,32.39,605.0,0.00,0.00,995.05,1063.3,-2.836,-3.284,-10.397
2025-08-07T18:20:17.510478,-20.09,-13.47,-21.92,0.00,0.00,0.00,32.39,32.39,576.0,0.00,0.00,995.05,1063.7,-3.285,-2.228,-8.699
2025-08-07T18:20:17.738851,9.78,-16.12,-21.82,0.00,0.00,0.00,32.39,32.39,700.0,0.00,0.00,995.05,1063.9,0.970,-1.585,-5.397
2025-08-07T18:20:17.954069,7.36,-11.24,-22.35,0.00,0.00,0.00,32.41,32.41,440.0,0.00,0.00,995.05,1064.2,1.061,-1.615,-8.056
2025-08-07T18:20:18.175849,-28.97,-8.73,-22.87,0.00,0.00,0.00,32.41,32.41,611.0,0.00,0.00,995.05,1064.4,-5.854,-1.835,-10.412
2025-08-07T18:20:18.397657,-46.70,-13.06,-23.22,0.00,0.00,0.00,32.41,32.41,571.0,0.00,0.00,995.05,1064.6,-8.458,-2.626,-7.525
2025-08-07T18:20:18.621192,-48.98,-22.86,-23.15,0.00,0.00,0.00,32.41,32.41,605.0,0.00,0.00,995.05,1064.8,-7.065,-3.638,-4.955
2025-08-07T18:20:18.842792,-48.00,-8.68,-22.88,0.00,0.00,0.00,32.42,32.42,620.0,0.00,0.00,995.05,1065.1,-8.564,-1.739,-7.513
2025-08-07T18:20:19.064774,-41.67,-5.97,-22.63,0.00,0.00,0.00,32.42,32.42,615.0,0.00,0.00,995.05,1065.3,-7.075,-1.107,-7.872
2025-08-07T18:20:19.288203,-37.41,-2.32,-22.19,0.00,0.00,0.00,32.42,32.42,588.0,0.00,0.00,995.05,1065.5,-6.773,-0.451,-8.845
2025-08-07T18:20:19.509821,-7.87,9.86,-21.95,0.00,0.00,0.00,32.43,32.43,446.0,0.00,0.00,995.05,1065.7,-0.897,1.120,-6.385
2025-08-07T18:20:19.731894,12.48,6.66,-22.03,0.00,0.00,0.00,32.43,32.43,415.0,0.00,0.00,995.05,1065.9,1.567,0.842,-7.031
2025-08-07T18:20:19.955175,-12.54,23.59,-22.00,0.00,0.00,0.00,32.41,32.41,381.0,0.00,0.00,995.04,1066.2,-2.309,4.258,-9.471
2025-08-07T18:20:20.398719,-3.84,16.61,-21.34,0.00,0.00,0.00,32.42,32.42,276.0,0.00,0.00,995.04,1066.6,-0.534,2.278,-7.620
2025-08-07T18:20:20.622150,-11.64,10.71,-20.98,0.00,0.00,0.00,32.41,32.41,377.0,0.00,0.00,995.04,1066.8,-1.913,1.763,-9.121
2025-08-07T18:20:20.849196,-0.52,2.47,-20.82,0.00,0.00,0.00,32.41,32.41,263.0,0.00,0.00,995.04,1067.1,-0.095,0.444,-10.313
2025-08-07T18:20:21.065705,-7.42,4.20,-21.15,0.00,0.00,0.00,32.41,32.41,238.0,0.00,0.00,995.04,1067.3,-1.284,0.729,-9.841
2025-08-07T18:20:21.289168,-1.92,-1.60,-21.68,0.00,0.00,0.00,32.39,32.39,340.0,0.00,0.00,995.04,1067.5,-0.308,-0.256,-9.187
2025-08-07T18:20:21.510653,-31.26,7.86,-22.23,0.00,0.00,0.00,32.40,32.40,286.0,0.00,0.00,995.04,1067.7,-3.181,0.838,-5.171
2025-08-07T18:20:21.956071,-35.82,-14.77,-22.95,0.00,0.00,0.00,32.41,32.41,641.0,0.00,0.00,995.03,1068.2,-6.706,-2.921,-8.819
2025-08-07T18:20:22.177585,-47.31,-7.02,-23.12,0.00,0.00,0.00,32.42,32.42,580.0,0.00,0.00,995.03,1068.4,-8.375,-1.392,-7.599
2025-08-07T18:20:22.410506,-45.20,-27.63,-22.97,0.00,0.00,0.00,32.42,32.42,624.0,0.00,0.00,995.03,1068.6,-6.996,-4.573,-5.230
2025-08-07T18:20:22.635438,-38.70,-32.70,-23.01,0.00,0.00,0.00,32.41,32.41,598.0,0.00,0.00,995.04,1068.8,-5.787,-4.999,-5.212
2025-08-07T18:20:22.847820,-48.28,-24.52,-23.12,0.00,0.00,0.00,32.41,32.41,717.0,0.00,0.00,995.04,1069.1,-7.664,-4.262,-5.343
2025-08-07T18:20:23.074568,-45.81,-28.55,-23.09,0.00,0.00,0.00,32.43,32.43,726.0,0.00,0.00,995.04,1069.3,-7.050,-4.699,-4.988
2025-08-07T18:20:23.289955,-40.73,-34.23,-23.07,0.00,0.00,0.00,32.43,32.43,723.0,0.00,0.00,995.04,1069.5,-6.201,-5.346,-4.827
2025-08-07T18:20:23.516303,-45.47,-29.23,-23.09,0.00,0.00,0.00,32.43,32.43,733.0,0.00,0.00,995.04,1069.7,-6.834,-4.682,-4.824
2025-08-07T18:20:23.735376,-46.72,-21.56,-22.96,0.00,0.00,0.00,32.43,32.43,739.0,0.00,0.00,995.04,1069.9,-7.593,-3.832,-6.036
2025-08-07T18:20:24.186538,-32.27,-0.56,-21.99,0.00,0.00,0.00,32.44,32.44,293.0,0.00,0.00,995.04,1070.4,-5.331,-0.097,-8.441
2025-08-07T18:20:24.410427,-6.19,17.99,-21.56,0.00,0.00,0.00,32.46,32.46,806.0,0.00,0.00,995.04,1070.6,-0.682,1.954,-5.977
2025-08-07T18:20:24.632006,15.30,4.11,-21.20,0.00,0.00,0.00,32.42,32.42,380.0,0.00,0.00,995.03,1070.8,2.381,0.646,-8.681
2025-08-07T18:20:24.853510,28.52,-0.59,-21.10,0.00,0.00,0.00,32.44,32.44,465.0,0.00,0.00,995.03,1071.1,4.724,-0.102,-8.692
2025-08-07T18:20:25.065906,10.19,13.58,-21.11,0.00,0.00,0.00,32.44,32.44,430.0,0.00,0.00,995.02,1071.3,1.857,2.464,-10.031
2025-08-07T18:20:25.300918,23.87,0.88,-21.33,0.00,0.00,0.00,32.45,32.45,452.0,0.00,0.00,995.03,1071.5,3.351,0.127,-7.570
2025-08-07T18:20:25.520464,1.02,11.43,-21.75,0.00,0.00,0.00,32.45,32.45,369.0,0.00,0.00,995.03,1071.7,0.147,1.633,-8.072
2025-08-07T18:20:25.734530,-29.92,-0.97,-22.29,0.00,0.00,0.00,32.46,32.46,439.0,0.00,0.00,995.02,1071.9,-3.862,-0.132,-6.709
2025-08-07T18:20:26.179419,-32.75,-18.64,-22.92,0.00,0.00,0.00,32.46,32.46,642.0,0.00,0.00,995.02,1072.4,-7.061,-4.171,-10.151
2025-08-07T18:20:26.624941,-33.31,-11.49,-22.35,0.00,0.00,0.00,32.46,32.46,624.0,0.00,0.00,995.02,1072.8,-5.794,-2.102,-8.564
2025-08-07T18:20:26.846582,-23.08,3.64,-21.84,0.00,0.00,0.00,32.44,32.44,800.0,0.00,0.00,995.02,1073.1,-3.357,0.543,-7.859
2025-08-07T18:20:27.068339,-2.53,0.66,-21.36,0.00,0.00,0.00,32.47,32.47,405.0,0.00,0.00,995.02,1073.3,-0.356,0.092,-8.045
2025-08-07T18:20:27.291867,14.47,-4.85,-20.98,0.00,0.00,0.00,32.48,32.48,390.0,0.00,0.00,995.02,1073.5,2.272,-0.770,-8.774
2025-08-07T18:20:27.513436,15.49,2.81,-20.76,0.00,0.00,0.00,32.47,32.47,454.0,0.00,0.00,995.02,1073.7,2.389,0.439,-8.612
2025-08-07T18:20:27.735724,5.09,4.67,-20.54,0.00,0.00,0.00,32.47,32.47,441.0,0.00,0.00,995.02,1073.9,0.813,0.745,-9.087
2025-08-07T18:20:27.958796,12.28,-8.74,-20.52,0.00,0.00,0.00,32.48,32.48,408.0,0.00,0.00,995.02,1074.2,2.029,-1.450,-9.212
2025-08-07T18:20:28.180402,1.74,-3.76,-20.85,0.00,0.00,0.00,32.48,32.48,381.0,0.00,0.00,995.02,1074.4,0.299,-0.648,-9.849
2025-08-07T18:20:28.402255,10.83,5.22,-21.03,0.00,0.00,0.00,32.46,32.46,425.0,0.00,0.00,995.01,1074.6,1.686,0.816,-8.771
2025-08-07T18:20:28.625687,24.09,-10.48,-21.50,0.00,0.00,0.00,32.46,32.46,377.0,0.00,0.00,995.01,1074.8,4.462,-1.988,-9.779
2025-08-07T18:20:29.069279,-33.19,14.38,-22.46,0.00,0.00,0.00,32.45,32.45,730.0,0.00,0.00,995.01,1075.3,-7.748,3.515,-11.313
2025-08-07T18:20:29.291222,-32.68,6.31,-22.42,0.00,0.00,0.00,32.46,32.46,640.0,0.00,0.00,995.01,1075.5,-6.088,1.239,-9.408
2025-08-07T18:20:29.514398,-35.89,0.30,-22.43,0.00,0.00,0.00,32.48,32.48,625.0,0.00,0.00,995.01,1075.7,-5.912,0.053,-8.171
2025-08-07T18:20:29.744269,-33.09,-0.17,-22.38,0.00,0.00,0.00,32.50,32.50,312.0,0.00,0.00,995.01,1075.9,-5.011,-0.028,-7.689
2025-08-07T18:20:29.959660,-39.44,2.33,-22.35,0.00,0.00,0.00,32.48,32.48,221.0,0.00,0.00,995.01,1076.2,-6.104,0.391,-7.410
2025-08-07T18:20:30.181315,-38.71,0.41,-22.34,0.00,0.00,0.00,32.49,32.49,201.0,0.00,0.00,995.01,1076.4,-5.267,0.060,-6.571
2025-08-07T18:20:30.404266,-37.29,0.12,-22.42,0.00,0.00,0.00,32.49,32.49,204.0,0.00,0.00,995.01,1076.6,-5.064,0.018,-6.649
2025-08-07T18:20:30.628310,-41.72,1.53,-22.41,0.00,0.00,0.00,32.48,32.48,437.0,0.00,0.00,995.01,1076.8,-6.425,0.257,-7.202
2025-08-07T18:20:30.848129,-30.47,-2.66,-22.32,0.00,0.00,0.00,32.50,32.50,477.0,0.00,0.00,995.01,1077.1,-5.277,-0.484,-8.956
2025-08-07T18:20:31.070794,-25.24,2.03,-22.17,0.00,0.00,0.00,32.48,32.48,565.0,0.00,0.00,995.01,1077.3,-4.780,0.396,-10.133
2025-08-07T18:20:31.295218,-28.45,8.15,-21.77,0.00,0.00,0.00,32.50,32.50,585.0,0.00,0.00,995.01,1077.5,-4.738,1.410,-8.631
2025-08-07T18:20:31.515180,-32.84,18.12,-21.32,0.00,0.00,0.00,32.49,32.49,360.0,0.00,0.00,995.01,1077.7,-2.938,1.684,-4.228
2025-08-07T18:20:31.737083,-5.59,15.81,-21.00,0.00,0.00,0.00,32.48,32.48,339.0,0.00,0.00,995.01,1077.9,-0.800,2.236,-7.857
2025-08-07T18:20:31.960709,-13.56,-0.20,-20.66,0.00,0.00,0.00,32.51,32.51,296.0,0.00,0.00,995.01,1078.2,-2.328,-0.035,-9.656
2025-08-07T18:20:32.182089,-3.07,-2.14,-20.67,0.00,0.00,0.00,32.49,32.49,208.0,0.00,0.00,995.01,1078.4,-0.588,-0.411,-10.969
2025-08-07T18:20:32.411361,-8.53,3.43,-20.98,0.00,0.00,0.00,32.50,32.50,208.0,0.00,0.00,995.01,1078.6,-1.397,0.564,-9.297
2025-08-07T18:20:32.635631,-11.06,12.22,-21.27,0.00,0.00,0.00,32.50,32.50,274.0,0.00,0.00,995.01,1078.8,-1.737,1.918,-8.680
2025-08-07T18:20:32.857206,-11.71,13.75,-21.62,0.00,0.00,0.00,32.47,32.47,382.0,0.00,0.00,995.01,1079.1,-1.639,1.919,-7.670
2025-08-07T18:20:33.080083,-35.15,-5.09,-22.09,0.00,0.00,0.00,32.51,32.51,285.0,0.00,0.00,995.00,1079.3,-4.809,-0.741,-6.790
2025-08-07T18:20:33.294500,-30.93,-25.00,-22.45,0.00,0.00,0.00,32.50,32.50,634.0,0.00,0.00,995.01,1079.5,-5.332,-4.384,-7.742
2025-08-07T18:20:33.516047,-40.47,-22.82,-22.75,0.00,0.00,0.00,32.50,32.50,670.0,0.00,0.00,995.01,1079.7,-7.386,-4.414,-7.447
2025-08-07T18:20:33.738019,-62.30,-25.21,-23.09,0.00,0.00,0.00,32.48,32.48,790.0,0.00,0.00,995.01,1079.9,-9.813,-4.720,-2.061
2025-08-07T18:20:33.961624,-49.60,-34.14,-22.84,0.00,0.00,0.00,32.50,32.50,223.0,0.00,0.00,995.01,1080.2,-8.651,-6.376,3.683
2025-08-07T18:20:34.183063,-18.90,-28.06,-22.67,0.00,0.00,0.00,32.52,32.52,650.0,0.00,0.00,995.01,1080.4,-3.978,-5.776,10.078
2025-08-07T18:20:34.405482,5.65,-18.89,-22.85,0.00,0.00,0.00,32.50,32.50,721.5,0.00,0.00,995.01,1080.6,1.134,-3.727,10.829
2025-08-07T18:20:34.626684,0.57,0.91,-23.20,0.00,0.00,0.00,32.49,32.49,1443.0,0.00,0.00,995.01,1080.8,0.098,0.157,9.870
2025-08-07T18:20:34.858006,-39.89,45.66,-23.52,0.00,0.00,0.00,32.51,32.51,766.0,0.00,0.00,995.01,1081.1,-4.919,5.485,2.131
2025-08-07T18:20:35.071971,-45.53,40.48,-23.44,0.00,0.00,0.00,32.48,32.48,315.0,0.00,0.00,995.01,1081.3,-6.723,6.116,2.478
2025-08-07T18:20:35.304644,-6.93,9.61,-23.08,0.00,0.00,0.00,32.49,32.49,513.0,0.00,0.00,995.01,1081.5,-1.071,1.483,8.692
2025-08-07T18:20:35.517098,-16.57,9.09,-22.96,0.00,0.00,0.00,32.49,32.49,572.0,0.00,0.00,995.01,1081.7,-3.023,1.675,10.022
2025-08-07T18:20:35.739822,-13.45,-1.58,-22.86,0.00,0.00,0.00,32.48,32.48,1141.4,0.00,0.00,995.00,1081.9,-2.589,-0.306,10.825
2025-08-07T18:20:35.962428,-49.04,25.22,-22.62,0.00,0.00,0.00,32.48,32.48,1073.0,0.00,0.00,995.01,1082.2,-10.314,5.820,6.803
2025-08-07T18:20:36.191879,-21.97,10.42,-22.46,0.00,0.00,0.00,32.48,32.48,66.0,0.00,0.00,995.00,1082.4,-3.683,1.780,-8.957
2025-08-07T18:20:36.407746,-32.28,11.09,-22.33,0.00,0.00,0.00,32.47,32.47,50.0,0.00,0.00,995.00,1082.6,-6.481,2.334,-9.990
2025-08-07T18:20:36.629495,-68.14,11.39,-22.55,0.00,0.00,0.00,32.48,32.48,317.0,0.00,0.00,995.01,1082.8,-4.331,0.922,-1.472
2025-08-07T18:20:36.850904,-18.92,6.95,-22.62,0.00,0.00,0.00,32.46,32.46,665.0,0.00,0.00,995.01,1083.1,-2.593,0.967,7.501
2025-08-07T18:20:37.072770,-20.18,11.57,-22.58,0.00,0.00,0.00,32.47,32.47,738.2,0.00,0.00,995.01,1083.3,-3.735,2.172,9.926
2025-08-07T18:20:37.304365,-31.26,-23.91,-22.60,0.00,0.00,0.00,32.45,32.45,1476.3,0.00,0.00,995.00,1083.5,-4.460,-3.484,6.469
2025-08-07T18:20:37.517820,-37.76,3.09,-22.69,0.00,0.00,0.00,32.45,32.45,447.0,0.00,0.00,995.00,1083.7,-7.087,0.624,9.127
2025-08-07T18:20:37.739848,-24.94,-1.94,-22.67,0.00,0.00,0.00,32.47,32.47,496.2,0.00,0.00,995.00,1083.9,-4.733,-0.379,10.169
2025-08-07T18:20:38.192786,4.51,3.76,-22.66,0.00,0.00,0.00,32.47,32.47,1490.7,0.00,0.00,995.00,1084.4,0.820,0.684,10.366
2025-08-07T18:20:38.408989,4.58,3.86,-22.66,0.00,0.00,0.00,32.46,32.46,1986.9,0.00,0.00,995.00,1084.6,0.837,0.705,10.422
2025-08-07T18:20:38.630092,4.47,3.85,-22.66,0.00,0.00,0.00,32.47,32.47,2000.0,0.00,0.00,995.00,1084.8,0.812,0.699,10.363
2025-08-07T18:20:38.852236,4.53,3.84,-22.66,0.00,0.00,0.00,32.46,32.46,2000.0,0.00,0.00,995.00,1085.1,0.819,0.696,10.317
2025-08-07T18:20:39.085758,4.51,3.89,-22.66,0.00,0.00,0.00,32.46,32.46,2000.0,0.00,0.00,995.00,1085.3,0.821,0.709,10.390
2025-08-07T18:20:39.297013,4.61,3.61,-22.66,0.00,0.00,0.00,32.46,32.46,2000.0,0.00,0.00,995.00,1085.5,0.832,0.652,10.297
2025-08-07T18:20:39.517376,4.42,4.00,-22.66,0.00,0.00,0.00,32.47,32.47,2000.0,0.00,0.00,995.00,1085.7,0.809,0.733,10.447
2025-08-07T18:20:39.740499,4.69,3.73,-22.66,0.00,0.00,0.00,32.46,32.46,2000.0,0.00,0.00,995.00,1085.9,0.846,0.674,10.303
2025-08-07T18:20:39.970944,4.49,3.85,-22.66,0.00,0.00,0.00,32.46,32.46,2000.0,0.00,0.00,995.00,1086.2,0.812,0.696,10.308
2025-08-07T18:20:40.194618,4.60,3.87,-22.66,0.00,0.00,0.00,32.46,32.46,2000.0,0.00,0.00,995.00,1086.4,0.832,0.700,10.311
2025-08-07T18:20:40.416932,4.50,3.88,-22.66,0.00,0.00,0.00,32.44,32.44,2000.0,0.00,0.00,994.99,1086.6,0.813,0.700,10.300
