TS,pitch,roll,yaw,vgx,vgy,vgz,templ,temph,tof,h,bat,baro,time,agx,agy,agz
2025-08-07T18:21:38.433583,1.63,5.12,-23.84,0.00,0.00,0.00,32.27,32.27,2000.0,0.00,0.00,995.00,1144.6,0.293,0.922,10.287
2025-08-07T18:21:38.656958,1.49,5.29,-23.84,0.00,0.00,0.00,32.25,32.25,2000.0,0.00,0.00,995.00,1144.9,0.269,0.953,10.281
2025-08-07T18:21:38.878299,1.30,5.25,-23.84,0.00,0.00,0.00,32.24,32.24,2000.0,0.00,0.00,995.00,1145.1,0.238,0.964,10.484
2025-08-07T18:21:39.105440,1.48,5.42,-23.84,0.00,0.00,0.00,32.24,32.24,2000.0,0.00,0.00,995.00,1145.3,0.268,0.979,10.308
2025-08-07T18:21:39.324606,1.67,5.31,-23.84,0.00,0.00,0.00,32.25,32.25,2000.0,0.00,0.00,995.00,1145.5,0.302,0.961,10.329
2025-08-07T18:21:39.551526,1.58,5.02,-23.84,0.00,0.00,0.00,32.23,32.23,2000.0,0.00,0.00,995.00,1145.8,0.281,0.892,10.159
2025-08-07T18:21:39.767449,1.06,5.88,-23.84,0.00,0.00,0.00,32.21,32.21,2000.0,0.00,0.00,995.00,1146.0,0.192,1.059,10.282
2025-08-07T18:21:39.991481,-1.06,3.85,-23.97,0.00,0.00,0.00,32.23,32.23,2000.0,0.00,0.00,994.99,1146.2,-0.199,0.723,10.740
2025-08-07T18:21:40.212303,6.51,0.86,-23.86,0.00,0.00,0.00,32.24,32.24,2000.0,0.00,0.00,994.99,1146.4,1.147,0.152,10.053
2025-08-07T18:21:40.657826,12.00,1.63,-23.94,0.00,0.00,0.00,32.22,32.22,2000.0,0.00,0.00,995.00,1146.9,2.340,0.320,11.001
2025-08-07T18:21:40.887394,58.99,14.80,-23.96,0.00,0.00,0.00,32.22,32.22,21.0,0.00,0.00,995.00,1147.1,8.485,2.529,4.428
2025-08-07T18:21:41.109355,65.27,15.59,-23.97,0.00,0.00,0.00,32.24,32.24,63.0,0.00,0.00,995.00,1147.3,8.951,2.648,3.160
2025-08-07T18:21:41.326842,65.28,18.00,-24.04,0.00,0.00,0.00,32.24,32.24,34.0,0.00,0.00,994.99,1147.5,10.660,3.627,3.306
2025-08-07T18:21:41.546563,75.80,13.77,-24.36,0.00,0.00,0.00,32.24,32.24,29.0,0.00,0.00,994.99,1147.8,10.167,2.496,0.626
2025-08-07T18:21:41.768305,51.67,13.82,-24.40,0.00,0.00,0.00,32.25,32.25,33.0,0.00,0.00,994.99,1148.0,9.370,2.853,6.837
2025-08-07T18:21:41.999859,0.83,32.50,-23.93,0.00,0.00,0.00,32.26,32.26,34.0,0.00,0.00,994.99,1148.2,0.154,5.716,8.971
2025-08-07T18:21:42.213315,23.06,-5.20,-23.98,0.00,0.00,0.00,32.24,32.24,121.0,0.00,0.00,994.99,1148.4,4.009,-0.928,9.370
2025-08-07T18:21:42.436078,18.73,-3.85,-23.99,0.00,0.00,0.00,32.23,32.23,113.0,0.00,0.00,994.99,1148.6,3.438,-0.718,10.113
2025-08-07T18:21:42.666970,19.31,-0.13,-23.98,0.00,0.00,0.00,32.22,32.22,20.0,0.00,0.00,994.99,1148.9,3.413,-0.024,9.742
2025-08-07T18:21:42.888292,17.40,-2.07,-23.98,0.00,0.00,0.00,32.23,32.23,15.0,0.00,0.00,994.99,1149.1,3.194,-0.385,10.185
2025-08-07T18:21:43.102363,15.71,-3.20,-23.98,0.00,0.00,0.00,32.23,32.23,21.0,0.00,0.00,994.99,1149.3,2.990,-0.617,10.616
2025-08-07T18:21:43.325738,15.96,-1.19,-23.98,0.00,0.00,0.00,32.21,32.21,47.0,0.00,0.00,994.99,1149.5,2.950,-0.223,10.312
2025-08-07T18:21:43.555255,16.73,-2.48,-23.97,0.00,0.00,0.00,32.22,32.22,20.0,0.00,0.00,994.99,1149.8,3.296,-0.494,10.951
2025-08-07T18:21:43.769269,22.16,-15.12,-23.86,0.00,0.00,0.00,32.19,32.19,33.0,0.00,0.00,994.99,1150.0,5.841,-4.038,13.759
2025-08-07T18:21:43.992611,43.56,2.34,-23.76,0.00,0.00,0.00,32.21,32.21,359.0,0.00,0.00,994.99,1150.2,7.481,0.443,7.854
2025-08-07T18:21:44.223165,49.72,18.61,-23.97,0.00,0.00,0.00,32.20,32.20,455.0,0.00,0.00,994.99,1150.4,5.288,2.212,3.897
2025-08-07T18:21:44.436183,81.94,8.05,-23.80,0.00,0.00,0.00,32.20,32.20,502.0,0.00,0.00,994.99,1150.6,8.140,1.152,0.032
2025-08-07T18:21:44.667800,46.76,-9.91,-23.64,0.00,0.00,0.00,32.22,32.22,239.0,0.00,0.00,994.99,1150.9,7.369,-1.741,-6.707
2025-08-07T18:21:44.881265,29.64,-33.89,-23.43,0.00,0.00,0.00,32.21,32.21,677.0,0.00,0.00,994.99,1151.1,5.205,-5.868,-7.015
2025-08-07T18:21:45.103212,24.63,-41.09,-23.32,0.00,0.00,0.00,32.19,32.19,635.0,0.00,0.00,994.99,1151.3,4.548,-7.171,-6.851
2025-08-07T18:21:45.326547,23.67,-52.34,-23.26,0.00,0.00,0.00,32.22,32.22,641.0,0.00,0.00,994.99,1151.5,3.980,-7.849,-4.568
2025-08-07T18:21:45.548356,29.79,-51.00,-23.32,0.00,0.00,0.00,32.22,32.22,777.0,0.00,0.00,994.99,1151.8,5.203,-8.138,-4.046
2025-08-07T18:21:45.778380,27.06,-57.00,-23.42,0.00,0.00,0.00,32.23,32.23,860.0,0.00,0.00,994.99,1152.0,4.458,-8.219,-2.936
2025-08-07T18:21:45.993602,27.78,-52.85,-23.44,0.00,0.00,0.00,32.22,32.22,772.0,0.00,0.00,995.00,1152.2,4.598,-7.863,-3.789
2025-08-07T18:21:46.215231,30.56,-49.95,-23.46,0.00,0.00,0.00,32.23,32.23,653.0,0.00,0.00,995.00,1152.4,5.154,-7.760,-3.997
2025-08-07T18:21:46.437078,28.05,-49.95,-23.39,0.00,0.00,0.00,32.22,32.22,637.0,0.00,0.00,995.00,1152.7,4.688,-7.632,-4.380
2025-08-07T18:21:46.660503,30.00,-50.20,-23.34,0.00,0.00,0.00,32.21,32.21,687.0,0.00,0.00,995.00,1152.9,5.151,-7.915,-4.118
2025-08-07T18:21:46.883700,30.74,-47.20,-23.36,0.00,0.00,0.00,32.23,32.23,760.0,0.00,0.00,995.00,1153.1,5.181,-7.438,-4.537
2025-08-07T18:21:47.105330,32.87,-39.84,-23.45,0.00,0.00,0.00,32.24,32.24,714.0,0.00,0.00,995.00,1153.3,5.553,-6.555,-5.557
2025-08-07T18:21:47.335532,42.18,-32.75,-23.40,0.00,0.00,0.00,32.22,32.22,549.0,0.00,0.00,995.00,1153.5,6.742,-5.432,-5.085
2025-08-07T18:21:47.549208,53.25,-24.79,-23.48,0.00,0.00,0.00,32.22,32.22,451.0,0.00,0.00,995.00,1153.8,8.229,-4.307,-4.384
2025-08-07T18:21:47.779123,55.86,-24.40,-23.51,0.00,0.00,0.00,32.24,32.24,404.0,0.00,0.00,995.01,1154.0,7.946,-3.966,-3.648
2025-08-07T18:21:48.000217,50.95,-23.15,-23.51,0.00,0.00,0.00,32.22,32.22,450.0,0.00,0.00,995.01,1154.2,7.687,-3.892,-4.873
2025-08-07T18:21:48.216063,42.57,-26.75,-23.57,0.00,0.00,0.00,32.25,32.25,470.0,0.00,0.00,995.01,1154.4,6.946,-4.622,-5.986
2025-08-07T18:21:48.440075,27.82,-35.19,-23.57,0.00,0.00,0.00,32.24,32.24,537.0,0.00,0.00,995.01,1154.7,4.695,-5.796,-6.748
2025-08-07T18:21:48.661585,25.29,-29.33,-23.51,0.00,0.00,0.00,32.25,32.25,493.0,0.00,0.00,995.01,1154.9,4.357,-4.997,-7.752
2025-08-07T18:21:48.883019,28.38,-27.40,-23.41,0.00,0.00,0.00,32.26,32.26,453.0,0.00,0.00,995.01,1155.1,4.714,-4.563,-7.436
2025-08-07T18:21:49.104587,38.27,-27.30,-23.41,0.00,0.00,0.00,32.24,32.24,493.0,0.00,0.00,995.01,1155.3,6.026,-4.463,-6.201
2025-08-07T18:21:49.327268,42.66,-21.03,-23.48,0.00,0.00,0.00,32.25,32.25,540.0,0.00,0.00,995.01,1155.5,6.777,-3.589,-6.418
2025-08-07T18:21:49.548251,45.81,-14.70,-23.52,0.00,0.00,0.00,32.26,32.26,523.0,0.00,0.00,995.01,1155.8,7.167,-2.535,-6.488
2025-08-07T18:21:49.771847,51.31,-13.80,-23.50,0.00,0.00,0.00,32.26,32.26,523.0,0.00,0.00,995.01,1156.0,8.164,-2.496,-6.044
2025-08-07T18:21:49.995904,59.65,-13.07,-23.45,0.00,0.00,0.00,32.26,32.26,569.0,0.00,0.00,995.01,1156.2,8.705,-2.282,-4.559
2025-08-07T18:21:50.220955,65.15,-15.66,-23.36,0.00,0.00,0.00,32.27,32.27,850.0,0.00,0.00,995.01,1156.4,8.844,-2.631,-3.140
2025-08-07T18:21:50.439601,66.89,-21.04,-23.19,0.00,0.00,0.00,32.28,32.28,443.0,0.00,0.00,995.01,1156.7,9.076,-3.542,-1.568
2025-08-07T18:21:50.662642,56.27,-33.21,-22.98,0.00,0.00,0.00,32.26,32.26,692.0,0.00,0.00,995.01,1156.9,8.343,-5.495,0.911
2025-08-07T18:21:50.883941,51.97,-37.10,-22.94,0.00,0.00,0.00,32.27,32.27,570.0,0.00,0.00,995.01,1157.1,8.241,-6.311,1.308
2025-08-07T18:21:51.105925,50.17,-39.13,-22.96,0.00,0.00,0.00,32.29,32.29,573.0,0.00,0.00,995.02,1157.3,8.046,-6.613,1.148
2025-08-07T18:21:51.329452,59.64,-29.12,-23.28,0.00,0.00,0.00,32.25,32.25,556.0,0.00,0.00,995.01,1157.5,8.668,-4.889,-1.371
2025-08-07T18:21:51.567722,62.61,-21.34,-23.39,0.00,0.00,0.00,32.27,32.27,933.0,0.00,0.00,995.01,1157.8,8.799,-3.607,-2.788
2025-08-07T18:21:51.772817,54.69,-17.99,-23.55,0.00,0.00,0.00,32.27,32.27,987.0,0.00,0.00,995.01,1158.0,7.952,-3.010,-4.761
2025-08-07T18:21:52.221503,35.32,-13.11,-23.75,0.00,0.00,0.00,32.28,32.28,510.0,0.00,0.00,995.01,1158.4,5.968,-2.342,-8.090
2025-08-07T18:21:52.439808,53.15,-20.58,-23.63,0.00,0.00,0.00,32.29,32.29,469.0,0.00,0.00,995.01,1158.7,7.994,-3.511,-4.855
2025-08-07T18:21:52.663281,56.62,-18.85,-23.65,0.00,0.00,0.00,32.29,32.29,414.0,0.00,0.00,995.01,1158.9,8.341,-3.227,-4.448
2025-08-07T18:21:52.884802,63.02,-12.81,-23.75,0.00,0.00,0.00,32.28,32.28,340.0,0.00,0.00,995.01,1159.1,9.663,-2.404,-4.293
2025-08-07T18:21:53.107950,55.72,-7.50,-23.96,0.00,0.00,0.00,32.30,32.30,329.0,0.00,0.00,995.01,1159.3,8.039,-1.270,-5.329
2025-08-07T18:21:53.338083,51.09,2.68,-23.70,0.00,0.00,0.00,32.30,32.30,500.0,0.00,0.00,995.01,1159.5,7.909,0.475,-6.366
2025-08-07T18:21:53.552578,78.44,-10.04,-23.74,0.00,0.00,0.00,32.30,32.30,254.0,0.00,0.00,995.02,1159.8,8.674,-1.543,-0.875
2025-08-07T18:21:53.773781,73.72,-7.73,-23.69,0.00,0.00,0.00,32.33,32.33,253.0,0.00,0.00,995.02,1160.0,9.626,-1.349,-2.466
2025-08-07T18:21:53.997214,63.28,-18.82,-23.95,0.00,0.00,0.00,32.31,32.31,296.0,0.00,0.00,995.01,1160.2,7.685,-2.776,-2.695
2025-08-07T18:21:54.226726,41.19,-9.21,-23.99,0.00,0.00,0.00,32.31,32.31,542.0,0.00,0.00,995.01,1160.4,6.972,-1.695,-7.784
2025-08-07T18:21:54.441046,36.42,-17.69,-23.89,0.00,0.00,0.00,32.29,32.29,529.0,0.00,0.00,995.01,1160.7,5.673,-2.903,-7.119
2025-08-07T18:21:54.664412,36.35,-23.13,-23.65,0.00,0.00,0.00,32.31,32.31,529.0,0.00,0.00,995.01,1160.9,6.001,-3.977,-7.119
2025-08-07T18:21:54.885527,44.86,-29.26,-23.47,0.00,0.00,0.00,32.30,32.30,543.0,0.00,0.00,995.01,1161.1,7.272,-5.040,-5.294
2025-08-07T18:21:55.107646,50.19,-26.40,-23.36,0.00,0.00,0.00,32.29,32.29,528.0,0.00,0.00,995.01,1161.3,8.046,-4.657,-4.827
2025-08-07T18:21:55.331131,56.22,-27.59,-23.54,0.00,0.00,0.00,32.31,32.31,557.0,0.00,0.00,995.01,1161.5,8.626,-4.806,-3.194
2025-08-07T18:21:55.552665,54.29,-20.55,-23.86,0.00,0.00,0.00,32.31,32.31,607.0,0.00,0.00,995.01,1161.8,7.774,-3.360,-4.465
2025-08-07T18:21:55.774678,58.37,-14.74,-23.98,0.00,0.00,0.00,32.32,32.32,404.0,0.00,0.00,995.01,1162.0,8.384,-2.506,-4.517
2025-08-07T18:21:56.001230,44.82,-6.66,-24.25,0.00,0.00,0.00,32.31,32.31,259.0,0.00,0.00,995.01,1162.2,6.217,-1.022,-6.171
2025-08-07T18:21:56.218196,10.48,-2.93,-24.26,0.00,0.00,0.00,32.31,32.31,550.0,0.00,0.00,995.01,1162.4,1.797,-0.505,-9.699
2025-08-07T18:21:56.441862,8.21,-2.48,-24.19,0.00,0.00,0.00,32.32,32.32,500.0,0.00,0.00,995.01,1162.7,1.318,-0.400,-9.123
2025-08-07T18:21:56.665031,53.90,-31.67,-23.23,0.00,0.00,0.00,32.32,32.32,560.0,0.00,0.00,995.01,1162.9,9.335,-6.066,-3.089
2025-08-07T18:21:56.890810,55.72,-33.70,-23.40,0.00,0.00,0.00,32.32,32.32,1034.0,0.00,0.00,995.01,1163.1,9.166,-6.155,1.069
2025-08-07T18:21:57.108862,68.69,-13.55,-23.67,0.00,0.00,0.00,32.31,32.31,852.0,0.00,0.00,995.01,1163.3,9.604,-2.416,-2.865
2025-08-07T18:21:57.332186,71.55,-17.95,-23.71,0.00,0.00,0.00,32.30,32.30,351.0,0.00,0.00,995.01,1163.5,9.541,-3.100,0.721
2025-08-07T18:21:57.551570,73.81,-2.82,-23.83,0.00,0.00,0.00,32.32,32.32,412.0,0.00,0.00,995.01,1163.8,9.127,-0.468,-2.608
2025-08-07T18:21:57.775889,63.76,-0.96,-23.97,0.00,0.00,0.00,32.32,32.32,248.0,0.00,0.00,995.02,1164.0,8.458,-0.158,-4.166
2025-08-07T18:21:58.006905,46.02,1.10,-24.06,0.00,0.00,0.00,32.32,32.32,291.0,0.00,0.00,995.01,1164.2,7.292,0.195,-7.033
2025-08-07T18:21:58.221837,35.67,-2.15,-24.06,0.00,0.00,0.00,32.32,32.32,567.0,0.00,0.00,995.01,1164.4,5.941,-0.383,-8.270
2025-08-07T18:21:58.444580,26.00,-1.63,-24.10,0.00,0.00,0.00,32.32,32.32,528.0,0.00,0.00,995.01,1164.7,5.179,-0.335,-10.612
2025-08-07T18:21:58.674046,20.40,-31.41,-24.17,0.00,0.00,0.00,32.33,32.33,495.0,0.00,0.00,995.01,1164.9,3.212,-4.802,-7.177
2025-08-07T18:21:58.887448,17.34,-35.51,-24.04,0.00,0.00,0.00,32.35,32.35,467.0,0.00,0.00,995.01,1165.1,3.043,-5.932,-7.736
2025-08-07T18:21:59.111832,17.32,-33.97,-23.98,0.00,0.00,0.00,32.33,32.33,496.0,0.00,0.00,995.01,1165.3,3.006,-5.643,-7.817
2025-08-07T18:21:59.333080,16.54,-36.21,-23.97,0.00,0.00,0.00,32.33,32.33,515.0,0.00,0.00,995.01,1165.5,2.849,-5.912,-7.557
2025-08-07T18:21:59.554397,17.86,-30.22,-23.72,0.00,0.00,0.00,32.33,32.33,473.0,0.00,0.00,995.01,1165.8,3.074,-5.043,-8.096
2025-08-07T18:21:59.776487,37.11,-22.93,-23.69,0.00,0.00,0.00,32.34,32.34,512.0,0.00,0.00,995.01,1166.0,6.072,-3.921,-7.002
2025-08-07T18:22:00.009575,49.94,-12.80,-23.69,0.00,0.00,0.00,32.33,32.33,544.0,0.00,0.00,995.01,1166.2,8.012,-2.319,-6.327
2025-08-07T18:22:00.221338,69.00,-18.22,-23.55,0.00,0.00,0.00,32.34,32.34,410.0,0.00,0.00,995.01,1166.4,8.961,-3.001,-1.683
2025-08-07T18:22:00.443678,70.24,-18.11,-23.92,0.00,0.00,0.00,32.34,32.34,324.0,0.00,0.00,995.01,1166.7,9.734,-3.214,1.375
2025-08-07T18:22:00.674740,68.60,3.61,-24.35,0.00,0.00,0.00,32.35,32.35,233.0,0.00,0.00,995.01,1166.9,8.365,0.565,-3.230
2025-08-07T18:22:00.894271,37.59,0.61,-24.70,0.00,0.00,0.00,32.34,32.34,233.0,0.00,0.00,995.01,1167.1,4.579,0.080,-5.948
2025-08-07T18:22:01.110471,12.41,-5.76,-24.69,0.00,0.00,0.00,32.36,32.36,585.0,0.00,0.00,995.01,1167.3,2.685,-1.253,-12.141
2025-08-07T18:22:01.341822,16.55,-16.62,-24.47,0.00,0.00,0.00,32.33,32.33,486.0,0.00,0.00,995.01,1167.5,3.012,-3.025,-9.675
2025-08-07T18:22:01.563281,16.27,0.99,-23.83,0.00,0.00,0.00,32.35,32.35,491.0,0.00,0.00,995.01,1167.8,3.889,0.239,-13.320
2025-08-07T18:22:01.779077,71.43,-17.71,-23.72,0.00,0.00,0.00,32.34,32.34,595.0,0.00,0.00,995.01,1168.0,10.264,-3.293,1.020
2025-08-07T18:22:02.001423,25.26,-10.71,-23.39,0.00,0.00,0.00,32.34,32.34,97.0,0.00,0.00,995.01,1168.2,3.105,-1.353,6.442
2025-08-07T18:22:02.223086,33.30,-10.75,-23.23,0.00,0.00,0.00,32.34,32.34,110.0,0.00,0.00,995.01,1168.4,5.777,-1.962,8.572
2025-08-07T18:22:02.444447,25.51,-8.93,-23.37,0.00,0.00,0.00,32.34,32.34,50.0,0.00,0.00,995.01,1168.7,5.031,-1.814,10.387
2025-08-07T18:22:02.675834,31.16,-2.09,-23.49,0.00,0.00,0.00,32.32,32.32,306.0,0.00,0.00,995.01,1168.9,5.261,-0.371,8.695
2025-08-07T18:22:02.889340,48.52,8.35,-23.42,0.00,0.00,0.00,32.32,32.32,228.0,0.00,0.00,995.00,1169.1,6.651,1.289,5.738
2025-08-07T18:22:03.111309,21.31,15.30,-23.65,0.00,0.00,0.00,32.35,32.35,234.0,0.00,0.00,995.00,1169.3,3.747,2.721,9.212
2025-08-07T18:22:03.334605,46.01,9.75,-23.50,0.00,0.00,0.00,32.34,32.34,533.0,0.00,0.00,995.00,1169.5,7.860,1.851,7.360
2025-08-07T18:22:03.558224,20.39,-12.54,-23.54,0.00,0.00,0.00,32.33,32.33,433.0,0.00,0.00,995.00,1169.8,3.830,-2.387,10.022
2025-08-07T18:22:03.778408,48.85,8.28,-23.40,0.00,0.00,0.00,32.32,32.32,296.0,0.00,0.00,995.00,1170.0,6.823,1.305,5.819
2025-08-07T18:22:04.001593,44.83,-2.31,-23.64,0.00,0.00,0.00,32.35,32.35,375.0,0.00,0.00,995.01,1170.2,7.110,-0.407,7.141
2025-08-07T18:22:04.224789,19.69,4.71,-23.36,0.00,0.00,0.00,32.32,32.32,295.0,0.00,0.00,995.01,1170.4,3.748,0.915,10.436
2025-08-07T18:22:04.445174,-3.62,26.68,-23.27,0.00,0.00,0.00,32.31,32.31,69.0,0.00,0.00,995.01,1170.7,-0.425,3.019,5.994
2025-08-07T18:22:04.668548,-58.27,28.90,-23.01,0.00,0.00,0.00,32.31,32.31,1062.0,0.00,0.00,995.00,1170.9,-9.153,5.201,-2.233
2025-08-07T18:22:04.890180,-26.37,22.19,-23.09,0.00,0.00,0.00,32.31,32.31,335.0,0.00,0.00,995.00,1171.1,-4.629,3.936,-8.469
2025-08-07T18:22:05.114598,-18.63,14.10,-23.21,0.00,0.00,0.00,32.32,32.32,535.0,0.00,0.00,995.00,1171.3,-2.248,1.714,-6.443
2025-08-07T18:22:05.343425,-38.64,7.24,-23.59,0.00,0.00,0.00,32.31,32.31,806.0,0.00,0.00,995.00,1171.5,-6.467,1.305,-7.983
2025-08-07T18:22:05.565600,-33.10,1.13,-23.95,0.00,0.00,0.00,32.33,32.33,690.0,0.00,0.00,995.00,1171.8,-7.003,0.254,-10.739
2025-08-07T18:22:05.777228,-79.89,5.75,-24.25,0.00,0.00,0.00,32.33,32.33,322.0,0.00,0.00,994.99,1172.0,-11.821,1.203,-1.730
2025-08-07T18:22:06.003958,-45.11,-12.66,-24.34,0.00,0.00,0.00,32.34,32.34,682.0,0.00,0.00,995.00,1172.2,-8.390,-2.595,7.944
2025-08-07T18:22:06.224247,-11.83,-28.94,-24.64,0.00,0.00,0.00,32.31,32.31,400.0,0.00,0.00,995.00,1172.4,-1.657,-3.911,6.876
2025-08-07T18:22:06.669463,-3.74,-23.69,-25.52,0.00,0.00,0.00,32.29,32.29,122.0,0.00,0.00,995.00,1172.9,-0.727,-4.478,10.183
2025-08-07T18:22:06.896022,-4.73,-19.84,-25.60,0.00,0.00,0.00,32.32,32.32,528.0,0.00,0.00,995.00,1173.1,-0.958,-3.938,10.874
2025-08-07T18:22:07.111129,17.02,-38.00,-25.33,0.00,0.00,0.00,32.30,32.30,433.0,0.00,0.00,995.00,1173.3,3.407,-7.168,8.517
2025-08-07T18:22:07.342714,21.82,-29.94,-25.47,0.00,0.00,0.00,32.31,32.31,666.0,0.00,0.00,995.00,1173.5,3.977,-5.340,8.375
2025-08-07T18:22:07.558039,19.12,-22.94,-25.56,0.00,0.00,0.00,32.31,32.31,464.0,0.00,0.00,995.00,1173.8,3.408,-4.056,8.957
2025-08-07T18:22:07.787902,5.56,-15.17,-25.44,0.00,0.00,0.00,32.32,32.32,305.0,0.00,0.00,994.99,1174.0,0.966,-2.608,9.572
2025-08-07T18:22:08.003374,-63.36,24.65,-24.86,0.00,0.00,0.00,32.29,32.29,633.0,0.00,0.00,994.99,1174.2,-8.091,3.776,1.492
2025-08-07T18:22:08.225071,-9.85,33.11,-24.76,0.00,0.00,0.00,32.29,32.29,314.0,0.00,0.00,994.99,1174.4,-1.507,4.814,-7.227
2025-08-07T18:22:08.455017,-19.72,29.45,-25.18,0.00,0.00,0.00,32.29,32.29,295.0,0.00,0.00,994.99,1174.7,-3.081,4.492,-7.332
2025-08-07T18:22:08.670729,-45.02,-7.84,-25.54,0.00,0.00,0.00,32.30,32.30,1401.0,0.00,0.00,994.99,1174.9,-7.092,-1.368,6.953
2025-08-07T18:22:08.894403,-4.26,-41.11,-25.44,0.00,0.00,0.00,32.29,32.29,546.0,0.00,0.00,994.99,1175.1,-1.097,-9.703,11.066
2025-08-07T18:22:09.122727,3.72,-41.94,-26.10,0.00,0.00,0.00,32.31,32.31,640.0,0.00,0.00,994.99,1175.3,0.949,-9.776,10.840
2025-08-07T18:22:09.337289,4.67,-10.66,-26.78,0.00,0.00,0.00,32.29,32.29,710.4,0.00,0.00,994.99,1175.6,0.332,-0.754,3.991
2025-08-07T18:22:09.559036,-10.58,-6.40,-26.97,0.00,0.00,0.00,32.30,32.30,1424.0,0.00,0.00,994.99,1175.8,-2.583,-1.569,13.742
2025-08-07T18:22:09.788175,-3.29,4.03,-26.89,0.00,0.00,0.00,32.29,32.29,2000.0,0.00,0.00,994.99,1176.0,-0.573,0.704,9.963
2025-08-07T18:22:10.004276,2.31,-13.04,-26.93,0.00,0.00,0.00,32.30,32.30,2000.0,0.00,0.00,994.99,1176.2,0.401,-2.243,9.679
2025-08-07T18:22:10.225915,3.32,-11.83,-26.90,0.00,0.00,0.00,32.29,32.29,57.0,0.00,0.00,994.99,1176.4,0.618,-2.189,10.435
2025-08-07T18:22:10.455805,6.47,-15.20,-26.83,0.00,0.00,0.00,32.28,32.28,63.3,0.00,0.00,994.99,1176.7,1.198,-2.789,10.199
2025-08-07T18:22:10.671234,6.14,-14.87,-26.85,0.00,0.00,0.00,32.28,32.28,75.0,0.00,0.00,994.99,1176.9,1.132,-2.716,10.166
2025-08-07T18:22:10.892924,4.27,-15.47,-26.83,0.00,0.00,0.00,32.26,32.26,54.0,0.00,0.00,994.99,1177.1,0.804,-2.883,10.385
2025-08-07T18:22:11.114847,5.50,-14.20,-26.82,0.00,0.00,0.00,32.29,32.29,13.0,0.00,0.00,994.99,1177.3,1.013,-2.591,10.191
2025-08-07T18:22:11.564999,7.88,-15.75,-26.88,0.00,0.00,0.00,32.27,32.27,20.0,0.00,0.00,994.99,1177.8,1.490,-2.948,10.350
2025-08-07T18:22:11.782796,2.84,-16.34,-26.91,0.00,0.00,0.00,32.26,32.26,75.0,0.00,0.00,994.99,1178.0,0.570,-3.237,11.026
2025-08-07T18:22:12.005102,4.32,-15.67,-26.90,0.00,0.00,0.00,32.27,32.27,15.0,0.00,0.00,994.99,1178.2,0.852,-3.059,10.870
2025-08-07T18:22:12.234701,4.46,-15.01,-26.93,0.00,0.00,0.00,32.25,32.25,16.7,0.00,0.00,994.99,1178.4,0.852,-2.838,10.548
2025-08-07T18:22:12.448946,4.09,-15.78,-26.93,0.00,0.00,0.00,32.26,32.26,73.0,0.00,0.00,994.99,1178.7,0.766,-2.919,10.296
2025-08-07T18:22:12.672172,5.40,-16.10,-26.96,0.00,0.00,0.00,32.25,32.25,44.0,0.00,0.00,994.99,1178.9,1.079,-3.176,10.949
2025-08-07T18:22:12.894068,6.51,-15.81,-26.93,0.00,0.00,0.00,32.25,32.25,49.1,0.00,0.00,994.99,1179.1,1.270,-3.053,10.706
2025-08-07T18:22:13.115811,6.87,-17.31,-26.95,0.00,0.00,0.00,32.27,32.27,56.0,0.00,0.00,994.99,1179.3,1.369,-3.406,10.845
2025-08-07T18:22:13.339147,7.58,-16.32,-26.90,0.00,0.00,0.00,32.25,32.25,43.0,0.00,0.00,994.99,1179.6,1.432,-3.050,10.320
2025-08-07T18:22:13.560640,7.52,-13.95,-26.91,0.00,0.00,0.00,32.25,32.25,39.0,0.00,0.00,994.99,1179.8,1.123,-2.069,8.254
2025-08-07T18:22:13.781882,8.22,-13.82,-26.92,0.00,0.00,0.00,32.24,32.24,48.0,0.00,0.00,994.99,1180.0,1.498,-2.501,10.057
2025-08-07T18:22:14.006090,9.23,-14.12,-26.91,0.00,0.00,0.00,32.26,32.26,28.0,0.00,0.00,994.99,1180.2,1.800,-2.737,10.731
2025-08-07T18:22:14.242537,6.73,-12.76,-26.95,0.00,0.00,0.00,32.25,32.25,13.0,0.00,0.00,994.99,1180.4,1.178,-2.219,9.730
2025-08-07T18:22:14.450888,7.44,-13.33,-26.98,0.00,0.00,0.00,32.26,32.26,53.0,0.00,0.00,994.98,1180.7,1.356,-2.413,10.095
2025-08-07T18:22:14.680976,9.90,-10.17,-26.91,0.00,0.00,0.00,32.23,32.23,88.0,0.00,0.00,994.99,1180.9,1.609,-1.652,9.070
2025-08-07T18:22:14.894677,8.89,-15.17,-26.93,0.00,0.00,0.00,32.26,32.26,30.0,0.00,0.00,994.99,1181.1,1.544,-2.616,9.521
2025-08-07T18:22:15.117219,8.96,-12.11,-26.90,0.00,0.00,0.00,32.24,32.24,70.0,0.00,0.00,994.99,1181.3,1.601,-2.156,9.917
2025-08-07T18:22:15.340193,6.18,-14.29,-26.89,0.00,0.00,0.00,32.23,32.23,82.0,0.00,0.00,994.99,1181.6,1.076,-2.466,9.622
2025-08-07T18:22:15.561540,8.29,-15.19,-26.89,0.00,0.00,0.00,32.23,32.23,59.0,0.00,0.00,994.99,1181.8,1.409,-2.559,9.323
2025-08-07T18:22:15.783539,7.86,-14.07,-26.90,0.00,0.00,0.00,32.22,32.22,73.0,0.00,0.00,994.99,1182.0,1.330,-2.365,9.345
2025-08-07T18:22:16.010359,3.09,-8.19,-26.90,0.00,0.00,0.00,32.20,32.20,102.0,0.00,0.00,994.99,1182.2,0.614,-1.622,11.253
2025-08-07T18:22:16.236550,-24.19,1.73,-26.62,0.00,0.00,0.00,32.22,32.22,113.7,0.00,0.00,994.99,1182.4,-3.682,0.271,8.192
2025-08-07T18:22:16.450547,-62.27,27.72,-26.41,0.00,0.00,0.00,32.19,32.19,616.0,0.00,0.00,994.99,1182.7,-7.942,4.173,-0.122
2025-08-07T18:22:16.904762,-31.93,21.10,-26.98,0.00,0.00,0.00,32.22,32.22,920.0,0.00,0.00,994.99,1183.1,-4.486,3.053,6.517
2025-08-07T18:22:17.117788,-0.11,-16.05,-27.30,0.00,0.00,0.00,32.19,32.19,1021.2,0.00,0.00,994.99,1183.3,-0.019,-2.715,9.440
2025-08-07T18:22:17.348839,-15.61,-22.89,-27.44,0.00,0.00,0.00,32.19,32.19,2000.0,0.00,0.00,994.99,1183.6,-5.991,-8.657,19.613
2025-08-07T18:22:17.562369,-0.40,5.78,-27.58,0.00,0.00,0.00,32.18,32.18,2000.0,0.00,0.00,994.99,1183.8,-0.078,1.117,11.043
2025-08-07T18:22:17.790375,2.96,0.02,-27.61,0.00,0.00,0.00,32.21,32.21,2000.0,0.00,0.00,994.99,1184.0,0.539,0.004,10.424
2025-08-07T18:22:18.015855,2.99,1.71,-27.61,0.00,0.00,0.00,32.20,32.20,2000.0,0.00,0.00,994.99,1184.2,0.539,0.308,10.297
2025-08-07T18:22:18.237339,2.16,2.07,-27.61,0.00,0.00,0.00,32.19,32.19,2000.0,0.00,0.00,994.99,1184.4,0.393,0.375,10.382
2025-08-07T18:22:18.452127,2.14,1.76,-27.61,0.00,0.00,0.00,32.19,32.19,2000.0,0.00,0.00,994.99,1184.7,0.387,0.318,10.333
2025-08-07T18:22:18.682814,2.22,1.93,-27.61,0.00,0.00,0.00,32.19,32.19,2000.0,0.00,0.00,994.99,1184.9,0.401,0.347,10.319
2025-08-07T18:22:18.909873,2.10,1.87,-27.61,0.00,0.00,0.00,32.20,32.20,2000.0,0.00,0.00,994.99,1185.1,0.379,0.338,10.326
2025-08-07T18:22:19.344096,2.08,1.91,-27.61,0.00,0.00,0.00,32.18,32.18,2000.0,0.00,0.00,994.99,1185.6,0.375,0.345,10.307
2025-08-07T18:22:19.564021,1.99,1.85,-27.61,0.00,0.00,0.00,32.19,32.19,2000.0,0.00,0.00,994.99,1185.8,0.357,0.332,10.275
2025-08-07T18:22:19.785188,2.30,1.77,-27.61,0.00,0.00,0.00,32.18,32.18,2000.0,0.00,0.00,994.99,1186.0,0.409,0.315,10.177
