TS,pitch,roll,yaw,vgx,vgy,vgz,templ,temph,tof,h,bat,baro,time,agx,agy,agz
2025-08-07T18:08:27.865940,1.74,-1.62,-5.49,0.00,0.00,0.00,31.03,31.03,2000.0,0.00,0.00,995.19,354.0,0.315,-0.293,10.376
2025-08-07T18:08:28.079784,1.86,-1.52,-5.49,0.00,0.00,0.00,31.04,31.04,2000.0,0.00,0.00,995.19,354.2,0.339,-0.277,10.412
2025-08-07T18:08:28.312038,1.84,-1.62,-5.49,0.00,0.00,0.00,31.04,31.04,2000.0,0.00,0.00,995.18,354.5,0.334,-0.293,10.373
2025-08-07T18:08:28.532842,1.86,-1.53,-5.49,0.00,0.00,0.00,31.04,31.04,2000.0,0.00,0.00,995.18,354.7,0.338,-0.278,10.393
2025-08-07T18:08:28.754744,1.92,-1.49,-5.49,0.00,0.00,0.00,31.04,31.04,2000.0,0.00,0.00,995.18,354.9,0.347,-0.269,10.342
2025-08-07T18:08:28.970174,1.98,-1.69,-5.49,0.00,0.00,0.00,31.03,31.03,2000.0,0.00,0.00,995.19,355.1,0.357,-0.305,10.330
2025-08-07T18:08:29.193811,1.95,-1.63,-5.49,0.00,0.00,0.00,31.04,31.04,2000.0,0.00,0.00,995.19,355.4,0.353,-0.296,10.361
2025-08-07T18:08:29.413823,1.86,-1.58,-5.49,0.00,0.00,0.00,31.03,31.03,2000.0,0.00,0.00,995.19,355.6,0.336,-0.287,10.381
2025-08-07T18:08:29.637496,1.85,-1.69,-5.49,0.00,0.00,0.00,31.05,31.05,2000.0,0.00,0.00,995.19,355.8,0.335,-0.305,10.370
2025-08-07T18:08:29.866717,1.85,-1.60,-5.49,0.00,0.00,0.00,31.03,31.03,2000.0,0.00,0.00,995.19,356.0,0.335,-0.291,10.378
2025-08-07T18:08:30.080787,1.79,-1.69,-5.49,0.00,0.00,0.00,31.03,31.03,2000.0,0.00,0.00,995.19,356.3,0.324,-0.306,10.382
2025-08-07T18:08:30.304536,1.86,-1.68,-5.49,0.00,0.00,0.00,31.04,31.04,2000.0,0.00,0.00,995.19,356.5,0.336,-0.304,10.362
2025-08-07T18:08:30.537963,1.88,-1.53,-5.49,0.00,0.00,0.00,31.04,31.04,2000.0,0.00,0.00,995.19,356.7,0.340,-0.275,10.336
2025-08-07T18:08:30.747763,2.00,-1.61,-5.49,0.00,0.00,0.00,31.03,31.03,2000.0,0.00,0.00,995.18,356.9,0.362,-0.292,10.369
2025-08-07T18:08:30.979112,1.93,-1.60,-5.49,0.00,0.00,0.00,31.04,31.04,2000.0,0.00,0.00,995.18,357.1,0.350,-0.290,10.354
2025-08-07T18:08:31.191527,1.87,-1.65,-5.49,0.00,0.00,0.00,31.06,31.06,2000.0,0.00,0.00,995.18,357.4,0.339,-0.299,10.391
2025-08-07T18:08:31.413309,1.92,-1.52,-5.50,0.00,0.00,0.00,31.04,31.04,2000.0,0.00,0.00,995.18,357.6,0.347,-0.275,10.347
2025-08-07T18:08:31.636438,1.88,-1.73,-5.50,0.00,0.00,0.00,31.02,31.02,2000.0,0.00,0.00,995.19,357.8,0.340,-0.314,10.367
2025-08-07T18:08:31.859479,1.84,-1.55,-5.50,0.00,0.00,0.00,31.02,31.02,2000.0,0.00,0.00,995.19,358.0,0.333,-0.280,10.380
2025-08-07T18:08:32.085303,1.88,-1.69,-5.50,0.00,0.00,0.00,31.05,31.05,2000.0,0.00,0.00,995.19,358.3,0.341,-0.306,10.385
2025-08-07T18:08:32.305857,1.87,-1.59,-5.50,0.00,0.00,0.00,31.04,31.04,2000.0,0.00,0.00,995.18,358.5,0.339,-0.287,10.355
2025-08-07T18:08:32.526487,1.87,-1.58,-5.50,0.00,0.00,0.00,31.02,31.02,2000.0,0.00,0.00,995.18,358.7,0.338,-0.286,10.360
2025-08-07T18:08:32.748612,2.01,-1.59,-5.50,0.00,0.00,0.00,31.02,31.02,2000.0,0.00,0.00,995.18,358.9,0.364,-0.289,10.368
2025-08-07T18:08:32.972125,1.88,-1.66,-5.50,0.00,0.00,0.00,31.04,31.04,2000.0,0.00,0.00,995.18,359.1,0.340,-0.300,10.364
2025-08-07T18:08:33.193626,1.82,-1.73,-5.50,0.00,0.00,0.00,31.05,31.05,2000.0,0.00,0.00,995.18,359.4,0.330,-0.314,10.386
2025-08-07T18:08:33.647136,1.84,-1.72,-5.50,0.00,0.00,0.00,31.03,31.03,2000.0,0.00,0.00,995.18,359.8,0.333,-0.312,10.373
2025-08-07T18:08:33.864302,1.85,-1.60,-5.50,0.00,0.00,0.00,31.04,31.04,2000.0,0.00,0.00,995.18,360.0,0.336,-0.291,10.387
2025-08-07T18:08:34.082600,1.94,-1.60,-5.50,0.00,0.00,0.00,31.04,31.04,2000.0,0.00,0.00,995.18,360.3,0.351,-0.290,10.368
2025-08-07T18:08:34.316629,1.91,-1.60,-5.50,0.00,0.00,0.00,31.02,31.02,2000.0,0.00,0.00,995.18,360.5,0.346,-0.290,10.359
2025-08-07T18:08:34.527682,1.93,-1.62,-5.50,0.00,0.00,0.00,31.05,31.05,2000.0,0.00,0.00,995.18,360.7,0.351,-0.294,10.385
2025-08-07T18:08:34.755218,1.88,-1.59,-5.50,0.00,0.00,0.00,31.04,31.04,2000.0,0.00,0.00,995.18,360.9,0.340,-0.287,10.366
2025-08-07T18:08:34.973564,1.82,-1.56,-5.50,0.00,0.00,0.00,31.04,31.04,2000.0,0.00,0.00,995.18,361.1,0.330,-0.283,10.382
2025-08-07T18:08:35.194664,1.82,-1.63,-5.50,0.00,0.00,0.00,31.05,31.05,2000.0,0.00,0.00,995.18,361.4,0.330,-0.296,10.367
2025-08-07T18:08:35.416494,1.99,-1.58,-5.50,0.00,0.00,0.00,31.03,31.03,2000.0,0.00,0.00,995.18,361.6,0.360,-0.286,10.366
2025-08-07T18:08:35.639995,1.92,-1.57,-5.50,0.00,0.00,0.00,31.06,31.06,2000.0,0.00,0.00,995.18,361.8,0.347,-0.285,10.356
2025-08-07T18:08:35.862519,1.93,-1.51,-5.50,0.00,0.00,0.00,31.04,31.04,2000.0,0.00,0.00,995.18,362.0,0.350,-0.274,10.387
2025-08-07T18:08:36.083529,1.77,-1.52,-5.50,0.00,0.00,0.00,31.05,31.05,2000.0,0.00,0.00,995.18,362.3,0.321,-0.275,10.384
2025-08-07T18:08:36.316319,1.85,-1.57,-5.50,0.00,0.00,0.00,31.05,31.05,2000.0,0.00,0.00,995.18,362.5,0.335,-0.284,10.369
2025-08-07T18:08:36.536503,1.83,-1.66,-5.50,0.00,0.00,0.00,31.06,31.06,2000.0,0.00,0.00,995.18,362.7,0.330,-0.299,10.344
2025-08-07T18:08:36.750467,1.90,-1.61,-5.50,0.00,0.00,0.00,31.06,31.06,2000.0,0.00,0.00,995.18,362.9,0.345,-0.292,10.369
2025-08-07T18:08:36.976176,1.90,-1.74,-5.50,0.00,0.00,0.00,31.06,31.06,2000.0,0.00,0.00,995.18,363.1,0.344,-0.315,10.361
2025-08-07T18:08:37.196134,1.89,-1.53,-5.50,0.00,0.00,0.00,31.04,31.04,2000.0,0.00,0.00,995.19,363.4,0.342,-0.278,10.386
2025-08-07T18:08:37.426167,1.82,-1.55,-5.50,0.00,0.00,0.00,31.04,31.04,2000.0,0.00,0.00,995.19,363.6,0.330,-0.281,10.378
2025-08-07T18:08:37.648675,1.96,-1.76,-5.50,0.00,0.00,0.00,31.04,31.04,2000.0,0.00,0.00,995.18,363.8,0.356,-0.318,10.364
2025-08-07T18:08:37.862485,1.90,-1.60,-5.50,0.00,0.00,0.00,31.03,31.03,2000.0,0.00,0.00,995.18,364.0,0.345,-0.290,10.386
2025-08-07T18:08:38.315781,1.90,-1.63,-5.50,0.00,0.00,0.00,31.04,31.04,2000.0,0.00,0.00,995.18,364.5,0.344,-0.296,10.361
2025-08-07T18:08:38.535173,1.92,-1.78,-5.50,0.00,0.00,0.00,31.03,31.03,2000.0,0.00,0.00,995.18,364.7,0.347,-0.321,10.329
2025-08-07T18:08:38.751366,1.90,-1.57,-5.50,0.00,0.00,0.00,31.04,31.04,2000.0,0.00,0.00,995.18,364.9,0.345,-0.285,10.380
2025-08-07T18:08:38.975295,1.90,-1.64,-5.50,0.00,0.00,0.00,31.04,31.04,2000.0,0.00,0.00,995.19,365.1,0.345,-0.297,10.362
2025-08-07T18:08:39.204505,1.91,-1.62,-5.50,0.00,0.00,0.00,31.06,31.06,2000.0,0.00,0.00,995.19,365.4,0.345,-0.292,10.335
2025-08-07T18:08:39.649680,1.89,-1.55,-5.50,0.00,0.00,0.00,31.07,31.07,2000.0,0.00,0.00,995.19,365.8,0.344,-0.281,10.386
2025-08-07T18:08:39.870394,1.90,-1.63,-5.50,0.00,0.00,0.00,31.04,31.04,2000.0,0.00,0.00,995.19,366.0,0.344,-0.294,10.361
2025-08-07T18:08:40.087615,1.76,-1.61,-5.50,0.00,0.00,0.00,31.04,31.04,2000.0,0.00,0.00,995.19,366.3,0.318,-0.292,10.369
2025-08-07T18:08:40.308800,1.96,-1.54,-5.50,0.00,0.00,0.00,31.04,31.04,2000.0,0.00,0.00,995.19,366.5,0.354,-0.279,10.373
2025-08-07T18:08:40.538516,1.95,-1.63,-5.51,0.00,0.00,0.00,31.03,31.03,2000.0,0.00,0.00,995.19,366.7,0.353,-0.296,10.360
2025-08-07T18:08:40.753692,1.91,-1.59,-5.51,0.00,0.00,0.00,31.06,31.06,2000.0,0.00,0.00,995.19,366.9,0.345,-0.287,10.359
2025-08-07T18:08:40.978476,1.85,-1.61,-5.51,0.00,0.00,0.00,31.05,31.05,2000.0,0.00,0.00,995.19,367.1,0.334,-0.292,10.362
2025-08-07T18:08:41.197295,1.77,-1.44,-5.51,0.00,0.00,0.00,31.03,31.03,2000.0,0.00,0.00,995.19,367.4,0.322,-0.262,10.399
2025-08-07T18:08:41.419326,2.23,-1.99,-5.51,0.00,0.00,0.00,31.05,31.05,2000.0,0.00,0.00,995.19,367.6,0.381,-0.341,9.791
2025-08-07T18:08:41.642970,1.86,-1.56,-5.51,0.00,0.00,0.00,31.04,31.04,2000.0,0.00,0.00,995.19,367.8,0.333,-0.280,10.269
2025-08-07T18:08:41.864219,1.65,-1.41,-5.51,0.00,0.00,0.00,31.04,31.04,2000.0,0.00,0.00,995.19,368.0,0.305,-0.261,10.604
2025-08-07T18:08:42.097019,2.07,-1.61,-5.51,0.00,0.00,0.00,31.05,31.05,2000.0,0.00,0.00,995.19,368.3,0.369,-0.286,10.191
2025-08-07T18:08:42.317952,1.90,-1.64,-5.51,0.00,0.00,0.00,31.02,31.02,2000.0,0.00,0.00,995.18,368.5,0.345,-0.297,10.393
2025-08-07T18:08:42.531282,1.74,-1.56,-5.51,0.00,0.00,0.00,31.04,31.04,2000.0,0.00,0.00,995.18,368.7,0.317,-0.284,10.410
2025-08-07T18:08:42.755227,1.92,-1.62,-5.51,0.00,0.00,0.00,31.05,31.05,2000.0,0.00,0.00,995.18,368.9,0.347,-0.292,10.338
2025-08-07T18:08:42.976533,1.81,-1.67,-5.51,0.00,0.00,0.00,31.06,31.06,2000.0,0.00,0.00,995.19,369.1,0.328,-0.304,10.394
2025-08-07T18:08:43.206210,1.80,-1.70,-5.51,0.00,0.00,0.00,31.06,31.06,2000.0,0.00,0.00,995.19,369.4,0.329,-0.311,10.457
2025-08-07T18:08:43.428847,1.92,-1.59,-5.51,0.00,0.00,0.00,31.06,31.06,2000.0,0.00,0.00,995.19,369.6,0.347,-0.286,10.326
2025-08-07T18:08:43.644161,3.51,-3.09,-5.63,0.00,0.00,0.00,31.05,31.05,2000.0,0.00,0.00,995.18,369.8,0.636,-0.559,10.344
2025-08-07T18:08:43.865216,3.24,-4.05,-5.54,0.00,0.00,0.00,31.07,31.07,2000.0,0.00,0.00,995.18,370.0,0.599,-0.748,10.552
2025-08-07T18:08:44.087208,4.09,-1.21,-5.50,0.00,0.00,0.00,31.06,31.06,2000.0,0.00,0.00,995.18,370.3,0.715,-0.212,9.996
2025-08-07T18:08:44.310568,14.04,-0.67,-5.52,0.00,0.00,0.00,31.06,31.06,2000.0,0.00,0.00,995.19,370.5,2.602,-0.126,10.409
2025-08-07T18:08:44.754081,11.66,11.66,-6.08,0.00,0.00,0.00,31.05,31.05,2000.0,0.00,0.00,995.19,370.9,1.888,1.889,8.954
2025-08-07T18:08:44.980458,-4.68,-6.27,-6.51,0.00,0.00,0.00,31.06,31.06,2000.0,0.00,0.00,995.19,371.1,-0.777,-1.039,9.427
2025-08-07T18:08:45.199060,-11.26,-13.26,-6.64,0.00,0.00,0.00,31.03,31.03,2000.0,0.00,0.00,995.19,371.4,-1.802,-2.116,8.796
2025-08-07T18:08:45.426776,-7.35,-5.29,-6.75,0.00,0.00,0.00,31.05,31.05,2000.0,0.00,0.00,995.19,371.6,-1.504,-1.083,11.607
2025-08-07T18:08:45.652497,-3.38,-4.96,-6.96,0.00,0.00,0.00,31.04,31.04,2000.0,0.00,0.00,995.18,371.8,-0.566,-0.831,9.550
2025-08-07T18:08:45.873505,-4.62,-14.38,-7.54,0.00,0.00,0.00,31.05,31.05,2000.0,0.00,0.00,995.18,372.0,-0.851,-2.622,10.191
2025-08-07T18:08:46.088484,-9.48,-15.07,-7.75,0.00,0.00,0.00,31.06,31.06,2000.0,0.00,0.00,995.18,372.3,-1.822,-2.878,10.529
2025-08-07T18:08:46.311490,-14.97,-9.26,-7.76,0.00,0.00,0.00,31.04,31.04,2000.0,0.00,0.00,995.18,372.5,-2.616,-1.629,9.645
2025-08-07T18:08:46.535566,2.11,-8.42,-7.83,0.00,0.00,0.00,31.08,31.08,2000.0,0.00,0.00,995.18,372.7,0.340,-1.355,9.143
2025-08-07T18:08:46.760027,10.82,-8.48,-7.89,0.00,0.00,0.00,31.08,31.08,2000.0,0.00,0.00,995.18,372.9,1.799,-1.413,9.305
2025-08-07T18:08:46.978635,11.62,-8.46,-8.50,0.00,0.00,0.00,31.07,31.07,2000.0,0.00,0.00,995.18,373.1,2.200,-1.608,10.578
2025-08-07T18:08:47.200870,-4.46,-0.19,-8.07,0.00,0.00,0.00,31.06,31.06,2000.0,0.00,0.00,995.18,373.4,-0.740,-0.032,9.483
2025-08-07T18:08:47.421895,-21.35,14.13,-7.50,0.00,0.00,0.00,31.08,31.08,2000.0,0.00,0.00,995.18,373.6,-3.344,2.242,8.256
2025-08-07T18:08:47.645383,-21.37,15.20,-7.28,0.00,0.00,0.00,31.09,31.09,2000.0,0.00,0.00,995.18,373.8,-4.336,3.121,10.635
2025-08-07T18:08:47.866881,-25.64,15.87,-7.48,0.00,0.00,0.00,31.10,31.10,246.0,0.00,0.00,995.18,374.0,-4.711,2.977,9.352
2025-08-07T18:08:48.088958,-11.11,13.69,-7.35,0.00,0.00,0.00,31.10,31.10,86.0,0.00,0.00,995.18,374.3,-1.632,2.004,8.066
2025-08-07T18:08:48.312261,2.71,6.91,-7.29,0.00,0.00,0.00,31.12,31.12,289.0,0.00,0.00,995.18,374.5,0.654,1.664,13.716
2025-08-07T18:08:48.537077,-18.68,11.22,-7.10,0.00,0.00,0.00,31.13,31.13,196.0,0.00,0.00,995.18,374.7,-2.664,1.617,7.709
2025-08-07T18:08:48.758792,-18.59,3.39,-6.90,0.00,0.00,0.00,31.14,31.14,123.0,0.00,0.00,995.18,374.9,-3.339,0.619,9.905
2025-08-07T18:08:48.987499,-27.58,30.65,-6.90,0.00,0.00,0.00,31.15,31.15,173.0,0.00,0.00,995.19,375.1,-4.847,5.337,7.590
2025-08-07T18:08:49.200915,-9.66,16.00,-7.08,0.00,0.00,0.00,31.17,31.17,312.0,0.00,0.00,995.19,375.4,-2.140,3.518,12.078
2025-08-07T18:08:49.422829,-27.94,12.48,-7.32,0.00,0.00,0.00,31.19,31.19,173.0,0.00,0.00,995.19,375.6,-4.335,1.999,7.925
2025-08-07T18:08:49.646126,-24.66,10.70,-7.61,0.00,0.00,0.00,31.20,31.20,250.0,0.00,0.00,995.18,375.8,-4.098,1.823,8.736
2025-08-07T18:08:49.867857,-11.26,5.47,-7.78,0.00,0.00,0.00,31.20,31.20,158.0,0.00,0.00,995.18,376.0,-1.921,0.939,9.607
2025-08-07T18:08:50.089673,-7.86,8.20,-7.75,0.00,0.00,0.00,31.22,31.22,150.0,0.00,0.00,995.18,376.3,-1.650,1.719,11.821
2025-08-07T18:08:50.313294,0.62,10.15,-7.78,0.00,0.00,0.00,31.24,31.24,1.0,0.00,0.00,995.19,376.5,0.095,1.547,8.638
2025-08-07T18:08:50.535906,-8.46,-3.34,-7.58,0.00,0.00,0.00,31.24,31.24,1.1,0.00,0.00,995.19,376.7,-1.458,-0.578,9.790
2025-08-07T18:08:50.764621,-6.51,4.25,-7.42,0.00,0.00,0.00,31.25,31.25,2.2,0.00,0.00,995.19,376.9,-1.202,0.785,10.505
2025-08-07T18:08:50.980179,14.66,5.23,-7.54,0.00,0.00,0.00,31.27,31.27,88.0,0.00,0.00,995.19,377.1,2.638,0.950,10.039
2025-08-07T18:08:51.209678,40.88,16.66,-7.58,0.00,0.00,0.00,31.25,31.25,715.0,0.00,0.00,995.18,377.4,7.008,3.071,7.491
2025-08-07T18:08:51.423877,39.92,19.25,-7.59,0.00,0.00,0.00,31.28,31.28,1191.0,0.00,0.00,995.18,377.6,6.727,3.456,7.257
2025-08-07T18:08:51.655034,42.92,13.71,-7.36,0.00,0.00,0.00,31.28,31.28,842.0,0.00,0.00,995.19,377.8,7.639,2.658,7.772
2025-08-07T18:08:51.868833,63.49,7.84,-7.45,0.00,0.00,0.00,31.29,31.29,1372.0,0.00,0.00,995.19,378.0,9.197,1.402,4.368
2025-08-07T18:08:52.091434,61.27,4.01,-7.19,0.00,0.00,0.00,31.28,31.28,920.0,0.00,0.00,995.19,378.3,9.123,0.727,4.948
2025-08-07T18:08:52.314020,73.51,-1.47,-6.96,0.00,0.00,0.00,31.30,31.30,500.0,0.00,0.00,995.19,378.5,11.029,-0.296,-3.251
2025-08-07T18:08:52.543747,42.96,-10.99,-6.77,0.00,0.00,0.00,31.29,31.29,904.0,0.00,0.00,995.19,378.7,6.894,-1.929,-7.148
2025-08-07T18:08:52.981260,17.98,8.98,-6.93,0.00,0.00,0.00,31.31,31.31,644.0,0.00,0.00,995.19,379.2,2.490,1.259,-7.567
2025-08-07T18:08:53.210636,21.20,17.82,-7.11,0.00,0.00,0.00,31.33,31.33,616.0,0.00,0.00,995.19,379.4,3.840,3.250,-9.351
2025-08-07T18:08:53.424991,23.86,21.09,-7.23,0.00,0.00,0.00,31.34,31.34,590.0,0.00,0.00,995.19,379.6,3.992,3.552,-8.300
2025-08-07T18:08:53.648035,28.67,10.57,-7.19,0.00,0.00,0.00,31.35,31.35,591.0,0.00,0.00,995.20,379.8,4.986,1.906,-8.917
2025-08-07T18:08:53.871959,23.83,5.82,-6.95,0.00,0.00,0.00,31.34,31.34,571.0,0.00,0.00,995.20,380.0,4.506,1.131,-10.139
2025-08-07T18:08:54.091602,47.58,-11.08,-6.88,0.00,0.00,0.00,31.34,31.34,688.0,0.00,0.00,995.20,380.3,7.819,-2.035,-6.849
2025-08-07T18:08:54.323042,56.16,-13.54,-7.01,0.00,0.00,0.00,31.35,31.35,843.0,0.00,0.00,995.20,380.5,7.553,-2.128,4.594
2025-08-07T18:08:54.536388,2.24,7.29,-7.13,0.00,0.00,0.00,31.37,31.37,3.0,0.00,0.00,995.20,380.7,0.389,1.262,9.857
2025-08-07T18:08:54.758446,-28.59,26.80,-7.07,0.00,0.00,0.00,31.36,31.36,256.0,0.00,0.00,995.20,380.9,-6.096,5.742,9.596
2025-08-07T18:08:54.992004,-18.65,17.37,-7.14,0.00,0.00,0.00,31.39,31.39,550.0,0.00,0.00,995.20,381.2,-3.205,2.992,9.011
2025-08-07T18:08:55.206214,-27.76,18.53,-7.16,0.00,0.00,0.00,31.41,31.41,464.0,0.00,0.00,995.20,381.4,-4.494,3.066,7.967
2025-08-07T18:08:55.648940,-29.74,17.41,-7.18,0.00,0.00,0.00,31.42,31.42,609.0,0.00,0.00,995.20,381.8,-4.879,2.942,8.017
2025-08-07T18:08:55.872507,-26.80,15.19,-7.24,0.00,0.00,0.00,31.42,31.42,591.0,0.00,0.00,995.20,382.0,-4.513,2.623,8.541
2025-08-07T18:08:56.092626,-26.92,16.74,-7.22,0.00,0.00,0.00,31.42,31.42,636.0,0.00,0.00,995.20,382.3,-4.616,2.938,8.605
2025-08-07T18:08:56.323928,-28.33,16.48,-7.22,0.00,0.00,0.00,31.42,31.42,582.0,0.00,0.00,995.20,382.5,-4.739,2.834,8.323
2025-08-07T18:08:56.536219,-29.04,15.47,-7.23,0.00,0.00,0.00,31.43,31.43,648.0,0.00,0.00,995.20,382.7,-4.916,2.702,8.432
2025-08-07T18:08:56.769088,-28.47,15.28,-7.24,0.00,0.00,0.00,31.48,31.48,674.0,0.00,0.00,995.20,382.9,-4.762,2.634,8.379
2025-08-07T18:08:56.982756,-28.35,15.18,-7.24,0.00,0.00,0.00,31.48,31.48,579.0,0.00,0.00,995.20,383.2,-4.812,2.654,8.515
2025-08-07T18:08:57.205417,-28.01,14.02,-7.24,0.00,0.00,0.00,31.47,31.47,600.0,0.00,0.00,995.20,383.4,-4.751,2.450,8.590
2025-08-07T18:08:57.426464,-27.82,13.65,-7.25,0.00,0.00,0.00,31.47,31.47,641.0,0.00,0.00,995.20,383.6,-4.804,2.429,8.772
2025-08-07T18:08:57.871364,-28.10,12.32,-7.25,0.00,0.00,0.00,31.49,31.49,543.0,0.00,0.00,995.20,384.0,-4.737,2.146,8.610
2025-08-07T18:08:58.101344,-27.78,11.91,-7.26,0.00,0.00,0.00,31.48,31.48,614.0,0.00,0.00,995.20,384.3,-4.745,2.101,8.759
2025-08-07T18:08:58.325268,-28.13,12.38,-7.26,0.00,0.00,0.00,31.51,31.51,574.0,0.00,0.00,995.20,384.5,-4.787,2.176,8.687
2025-08-07T18:08:58.549241,-27.73,12.13,-7.28,0.00,0.00,0.00,31.52,31.52,547.0,0.00,0.00,995.20,384.7,-4.735,2.138,8.751
2025-08-07T18:08:58.762515,-28.08,11.80,-7.28,0.00,0.00,0.00,31.53,31.53,508.0,0.00,0.00,995.20,384.9,-4.750,2.064,8.661
2025-08-07T18:08:58.991876,-28.24,12.31,-7.29,0.00,0.00,0.00,31.53,31.53,566.0,0.00,0.00,995.21,385.2,-4.730,2.132,8.545
2025-08-07T18:08:59.208658,-28.27,12.83,-7.30,0.00,0.00,0.00,31.54,31.54,526.0,0.00,0.00,995.21,385.4,-4.763,2.234,8.572
2025-08-07T18:08:59.650609,-28.39,13.32,-7.30,0.00,0.00,0.00,31.56,31.56,590.0,0.00,0.00,995.21,385.8,-4.800,2.326,8.572
2025-08-07T18:08:59.873668,-28.48,13.66,-7.31,0.00,0.00,0.00,31.57,31.57,616.0,0.00,0.00,995.21,386.0,-4.792,2.373,8.509
2025-08-07T18:09:00.102269,-27.59,13.79,-7.32,0.00,0.00,0.00,31.57,31.57,541.0,0.00,0.00,995.21,386.3,-4.684,2.411,8.633
2025-08-07T18:09:00.326060,-27.60,14.01,-7.33,0.00,0.00,0.00,31.58,31.58,596.0,0.00,0.00,995.21,386.5,-4.706,2.459,8.659
2025-08-07T18:09:00.543033,-27.99,14.69,-7.33,0.00,0.00,0.00,31.58,31.58,609.0,0.00,0.00,995.21,386.7,-4.733,2.557,8.532
2025-08-07T18:09:01.006601,-28.31,15.50,-7.33,0.00,0.00,0.00,31.60,31.60,631.0,0.00,0.00,995.21,387.2,-4.706,2.652,8.322
2025-08-07T18:09:01.206403,-27.61,15.32,-7.33,0.00,0.00,0.00,31.59,31.59,564.0,0.00,0.00,995.21,387.4,-4.622,2.635,8.434
2025-08-07T18:09:01.436139,-31.85,13.22,-7.45,0.00,0.00,0.00,31.60,31.60,565.0,0.00,0.00,995.21,387.6,-5.532,2.398,8.576
2025-08-07T18:09:01.661294,-45.42,1.23,-7.78,0.00,0.00,0.00,31.62,31.62,392.0,0.00,0.00,995.21,387.8,-7.051,0.213,6.944
2025-08-07T18:09:01.871612,-52.61,-21.57,-8.02,0.00,0.00,0.00,31.61,31.61,128.0,0.00,0.00,995.21,388.0,-7.470,-3.456,4.545
2025-08-07T18:09:02.093606,-50.36,-36.64,-8.25,0.00,0.00,0.00,31.61,31.61,791.0,0.00,0.00,995.21,388.3,-7.501,-5.813,2.198
2025-08-07T18:09:02.318953,-22.44,-66.31,-8.05,0.00,0.00,0.00,31.62,31.62,997.0,0.00,0.00,995.21,388.5,-3.132,-7.513,1.030
2025-08-07T18:09:02.540178,-46.14,7.70,-7.49,0.00,0.00,0.00,31.63,31.63,1396.0,0.00,0.00,995.20,388.7,-9.825,1.826,9.263
2025-08-07T18:09:02.761816,-43.44,7.98,-7.59,0.00,0.00,0.00,31.63,31.63,259.0,0.00,0.00,995.20,388.9,-6.106,1.233,6.329
2025-08-07T18:09:02.985273,-42.38,2.79,-7.59,0.00,0.00,0.00,31.62,31.62,398.0,0.00,0.00,995.21,389.2,-6.889,0.498,7.535
2025-08-07T18:09:03.214201,-44.52,2.08,-7.62,0.00,0.00,0.00,31.65,31.65,191.0,0.00,0.00,995.21,389.4,-6.879,0.357,6.985
2025-08-07T18:09:03.429270,-42.66,0.66,-7.64,0.00,0.00,0.00,31.66,31.66,92.0,0.00,0.00,995.21,389.6,-6.847,0.116,7.429
2025-08-07T18:09:03.652467,-44.64,0.28,-7.64,0.00,0.00,0.00,31.66,31.66,175.0,0.00,0.00,995.21,389.8,-7.034,0.049,7.124
2025-08-07T18:09:03.882073,-42.65,-0.57,-7.64,0.00,0.00,0.00,31.66,31.66,91.0,0.00,0.00,995.21,390.0,-6.707,-0.098,7.281
2025-08-07T18:09:04.327930,-41.91,-0.65,-7.66,0.00,0.00,0.00,31.67,31.67,312.0,0.00,0.00,995.21,390.5,-6.883,-0.117,7.667
2025-08-07T18:09:04.545263,-42.77,0.01,-7.64,0.00,0.00,0.00,31.68,31.68,111.0,0.00,0.00,995.21,390.7,-6.648,0.001,7.187
2025-08-07T18:09:04.771651,-45.12,1.79,-7.65,0.00,0.00,0.00,31.69,31.69,300.0,0.00,0.00,995.21,390.9,-7.011,0.309,6.976
2025-08-07T18:09:04.986644,-44.79,2.02,-7.65,0.00,0.00,0.00,31.69,31.69,365.0,0.00,0.00,995.21,391.2,-6.980,0.350,7.023
2025-08-07T18:09:05.215951,-46.20,4.51,-7.65,0.00,0.00,0.00,31.69,31.69,203.0,0.00,0.00,995.21,391.4,-7.268,0.791,6.925
2025-08-07T18:09:05.432314,-46.69,4.93,-7.63,0.00,0.00,0.00,31.72,31.72,333.0,0.00,0.00,995.21,391.6,-7.082,0.836,6.624
2025-08-07T18:09:05.653545,-46.42,4.36,-7.64,0.00,0.00,0.00,31.72,31.72,260.0,0.00,0.00,995.21,391.8,-7.064,0.741,6.682
2025-08-07T18:09:05.874928,-46.74,5.34,-7.63,0.00,0.00,0.00,31.73,31.73,231.0,0.00,0.00,995.21,392.0,-7.257,0.927,6.765
2025-08-07T18:09:06.104909,-45.23,4.68,-7.62,0.00,0.00,0.00,31.74,31.74,33.0,0.00,0.00,995.21,392.3,-7.132,0.820,7.027
2025-08-07T18:09:06.541866,-43.98,4.46,-7.63,0.00,0.00,0.00,31.78,31.78,249.0,0.00,0.00,995.21,392.7,-6.932,0.776,7.142
2025-08-07T18:09:06.771903,-43.81,3.61,-7.63,0.00,0.00,0.00,31.78,31.78,343.0,0.00,0.00,995.21,392.9,-6.993,0.636,7.262
2025-08-07T18:09:06.996881,-42.32,3.36,-7.65,0.00,0.00,0.00,31.78,31.78,234.0,0.00,0.00,995.21,393.2,-6.965,0.607,7.626
2025-08-07T18:09:07.215191,-45.17,3.27,-7.63,0.00,0.00,0.00,31.79,31.79,313.0,0.00,0.00,995.21,393.4,-7.031,0.566,6.966
2025-08-07T18:09:07.428992,-43.45,2.36,-7.64,0.00,0.00,0.00,31.80,31.80,610.0,0.00,0.00,995.21,393.6,-6.876,0.412,7.247
2025-08-07T18:09:07.654378,-45.04,1.89,-7.63,0.00,0.00,0.00,31.82,31.82,310.0,0.00,0.00,995.21,393.8,-7.070,0.329,7.052
2025-08-07T18:09:08.105645,-44.98,2.49,-7.63,0.00,0.00,0.00,31.82,31.82,159.0,0.00,0.00,995.21,394.3,-6.865,0.423,6.857
2025-08-07T18:09:08.321400,-45.21,3.18,-7.63,0.00,0.00,0.00,31.84,31.84,215.0,0.00,0.00,995.21,394.5,-7.055,0.551,6.980
2025-08-07T18:09:08.545239,-45.61,4.13,-7.63,0.00,0.00,0.00,31.83,31.83,149.0,0.00,0.00,995.21,394.7,-7.168,0.723,6.980
2025-08-07T18:09:08.764793,-45.87,5.42,-7.62,0.00,0.00,0.00,31.84,31.84,436.0,0.00,0.00,995.21,394.9,-7.083,0.933,6.807
2025-08-07T18:09:09.000738,-44.65,4.99,-7.62,0.00,0.00,0.00,31.86,31.86,234.0,0.00,0.00,995.21,395.2,-6.777,0.839,6.809
2025-08-07T18:09:09.213429,-43.68,4.48,-7.63,0.00,0.00,0.00,31.87,31.87,102.0,0.00,0.00,995.21,395.4,-6.898,0.779,7.180
2025-08-07T18:09:09.442620,-43.44,3.39,-7.63,0.00,0.00,0.00,31.88,31.88,301.0,0.00,0.00,995.21,395.6,-6.802,0.584,7.159
2025-08-07T18:09:09.655186,-44.40,6.83,-7.62,0.00,0.00,0.00,31.92,31.92,375.0,0.00,0.00,995.21,395.8,-7.069,1.201,7.118
2025-08-07T18:09:09.878913,-44.68,5.37,-7.65,0.00,0.00,0.00,31.90,31.90,269.0,0.00,0.00,995.21,396.0,-6.753,0.899,6.768
2025-08-07T18:09:10.324132,-43.64,3.08,-7.66,0.00,0.00,0.00,31.93,31.93,311.0,0.00,0.00,995.21,396.5,-6.773,0.527,7.083
2025-08-07T18:09:10.544784,-43.75,2.99,-7.66,0.00,0.00,0.00,31.93,31.93,175.0,0.00,0.00,995.21,396.7,-7.009,0.528,7.302
2025-08-07T18:09:10.767007,-43.65,-2.06,-7.90,0.00,0.00,0.00,31.95,31.95,336.0,0.00,0.00,995.21,396.9,-7.958,-0.414,8.333
2025-08-07T18:09:10.989211,-61.86,-13.65,-7.93,0.00,0.00,0.00,31.94,31.94,354.0,0.00,0.00,995.21,397.2,-7.866,-2.106,3.642
2025-08-07T18:09:11.210552,-41.08,-22.09,-8.16,0.00,0.00,0.00,31.96,31.96,394.7,0.00,0.00,995.21,397.4,-6.553,-3.751,6.515
2025-08-07T18:09:11.433970,-17.82,-17.74,-8.05,0.00,0.00,0.00,31.98,31.98,161.0,0.00,0.00,995.21,397.6,-3.133,-3.118,9.233
2025-08-07T18:09:11.661994,15.36,-13.30,-7.96,0.00,0.00,0.00,31.98,31.98,266.0,0.00,0.00,995.21,397.8,2.836,-2.462,10.023
2025-08-07T18:09:11.877498,26.64,-6.60,-8.12,0.00,0.00,0.00,31.97,31.97,146.0,0.00,0.00,995.21,398.0,4.519,-1.159,8.935
2025-08-07T18:09:12.330895,-19.36,-4.77,-8.31,0.00,0.00,0.00,31.97,31.97,133.0,0.00,0.00,995.21,398.5,-3.406,-0.854,9.653
2025-08-07T18:09:12.552651,-26.21,-4.58,-8.37,0.00,0.00,0.00,31.98,31.98,147.0,0.00,0.00,995.21,398.7,-4.361,-0.788,8.824
2025-08-07T18:09:12.988973,-31.21,-6.80,-8.42,0.00,0.00,0.00,31.99,31.99,346.0,0.00,0.00,995.21,399.2,-5.104,-1.166,8.344
2025-08-07T18:09:13.222153,-25.60,0.50,-8.44,0.00,0.00,0.00,31.97,31.97,572.0,0.00,0.00,995.21,399.4,-4.605,0.093,9.613
2025-08-07T18:09:13.433472,-32.20,-1.89,-8.40,0.00,0.00,0.00,31.97,31.97,531.0,0.00,0.00,995.21,399.6,-5.667,-0.351,8.993
2025-08-07T18:09:13.656957,-39.11,-2.12,-8.33,0.00,0.00,0.00,31.96,31.96,671.0,0.00,0.00,995.21,399.8,-6.318,-0.370,7.764
2025-08-07T18:09:13.888039,-35.72,-0.31,-8.32,0.00,0.00,0.00,31.98,31.98,739.0,0.00,0.00,995.21,400.1,-5.701,-0.053,7.928
2025-08-07T18:09:14.100472,-36.22,0.39,-8.23,0.00,0.00,0.00,32.00,32.00,618.0,0.00,0.00,995.21,400.3,-6.195,0.071,8.459
2025-08-07T18:09:14.325628,-39.08,-4.00,-8.23,0.00,0.00,0.00,32.00,32.00,498.0,0.00,0.00,995.21,400.5,-6.256,-0.693,7.673
2025-08-07T18:09:14.545397,-32.90,-8.61,-8.12,0.00,0.00,0.00,32.01,32.01,437.0,0.00,0.00,995.21,400.7,-5.969,-1.645,9.079
2025-08-07T18:09:14.775679,-48.50,-7.60,-8.10,0.00,0.00,0.00,32.02,32.02,437.0,0.00,0.00,995.21,400.9,-6.700,-1.184,5.808
2025-08-07T18:09:14.995182,-41.06,-16.67,-8.11,0.00,0.00,0.00,32.00,32.00,324.0,0.00,0.00,995.21,401.2,-5.855,-2.557,6.215
2025-08-07T18:09:15.213475,-22.73,-18.67,-7.95,0.00,0.00,0.00,32.02,32.02,451.0,0.00,0.00,995.21,401.4,-3.900,-3.231,8.729
2025-08-07T18:09:15.434413,-26.47,-5.62,-7.64,0.00,0.00,0.00,32.04,32.04,420.0,0.00,0.00,995.21,401.6,-4.930,-1.083,9.843
2025-08-07T18:09:15.658327,-29.56,13.18,-7.59,0.00,0.00,0.00,32.05,32.05,121.0,0.00,0.00,995.21,401.8,-5.361,2.478,9.122
2025-08-07T18:09:15.879442,-21.68,15.09,-7.76,0.00,0.00,0.00,32.04,32.04,177.0,0.00,0.00,995.21,402.1,-3.650,2.573,8.814
2025-08-07T18:09:16.105496,-22.73,12.91,-7.97,0.00,0.00,0.00,32.05,32.05,181.0,0.00,0.00,995.21,402.3,-4.041,2.337,9.361
2025-08-07T18:09:16.324788,-19.35,6.26,-8.15,0.00,0.00,0.00,32.06,32.06,266.0,0.00,0.00,995.21,402.5,-3.145,1.034,8.896
2025-08-07T18:09:16.546283,-25.23,1.44,-8.37,0.00,0.00,0.00,32.04,32.04,378.0,0.00,0.00,995.21,402.7,-4.181,0.247,8.871
2025-08-07T18:09:16.776316,-27.60,3.20,-8.40,0.00,0.00,0.00,32.04,32.04,422.0,0.00,0.00,995.21,402.9,-4.724,0.569,9.019
2025-08-07T18:09:16.994771,-23.73,5.30,-8.46,0.00,0.00,0.00,32.04,32.04,403.0,0.00,0.00,995.21,403.2,-4.040,0.928,9.146
2025-08-07T18:09:17.213295,-25.59,1.48,-8.43,0.00,0.00,0.00,32.07,32.07,312.0,0.00,0.00,995.21,403.4,-4.057,0.243,8.467
2025-08-07T18:09:17.443364,-34.86,-1.79,-8.37,0.00,0.00,0.00,32.07,32.07,547.0,0.00,0.00,995.21,403.6,-5.622,-0.306,8.064
2025-08-07T18:09:17.658631,-35.59,7.48,-8.28,0.00,0.00,0.00,32.06,32.06,433.0,0.00,0.00,995.21,403.8,-6.036,1.350,8.325
2025-08-07T18:09:18.102151,-25.57,2.60,-8.42,0.00,0.00,0.00,32.08,32.08,494.0,0.00,0.00,995.21,404.3,-4.313,0.453,9.001
2025-08-07T18:09:18.325401,-30.88,-2.85,-8.46,0.00,0.00,0.00,32.08,32.08,534.0,0.00,0.00,995.21,404.5,-5.315,-0.515,8.872
2025-08-07T18:09:18.545837,-39.31,-2.33,-8.47,0.00,0.00,0.00,32.06,32.06,671.0,0.00,0.00,995.21,404.7,-6.296,-0.405,7.677
2025-08-07T18:09:18.777272,-34.84,-3.76,-8.48,0.00,0.00,0.00,32.05,32.05,628.0,0.00,0.00,995.21,404.9,-5.689,-0.654,8.147
2025-08-07T18:09:18.992631,-36.04,-3.40,-8.48,0.00,0.00,0.00,32.07,32.07,718.0,0.00,0.00,995.21,405.2,-5.878,-0.593,8.055
2025-08-07T18:09:19.228299,-37.32,-2.91,-8.47,0.00,0.00,0.00,32.07,32.07,671.0,0.00,0.00,995.21,405.4,-6.108,-0.511,7.994
2025-08-07T18:09:19.444225,-37.10,-3.34,-8.47,0.00,0.00,0.00,32.08,32.08,659.0,0.00,0.00,995.21,405.6,-6.091,-0.588,8.031
2025-08-07T18:09:19.659492,-37.30,-2.80,-8.48,0.00,0.00,0.00,32.07,32.07,687.0,0.00,0.00,995.21,405.8,-6.116,-0.493,8.015
2025-08-07T18:09:19.881710,-36.41,-3.13,-8.48,0.00,0.00,0.00,32.08,32.08,746.0,0.00,0.00,995.21,406.1,-5.911,-0.543,7.997
2025-08-07T18:09:20.113262,-37.02,-2.89,-8.48,0.00,0.00,0.00,32.07,32.07,720.0,0.00,0.00,995.21,406.3,-5.977,-0.500,7.909
2025-08-07T18:09:20.334444,-37.53,-2.86,-8.48,0.00,0.00,0.00,32.08,32.08,707.0,0.00,0.00,995.22,406.5,-6.146,-0.503,7.985
2025-08-07T18:09:20.556170,-37.52,-3.15,-8.47,0.00,0.00,0.00,32.08,32.08,748.0,0.00,0.00,995.22,406.7,-6.109,-0.552,7.936
2025-08-07T18:09:20.770129,-36.12,-3.73,-8.48,0.00,0.00,0.00,32.07,32.07,711.0,0.00,0.00,995.22,406.9,-5.928,-0.655,8.097
2025-08-07T18:09:20.993424,-36.62,-3.52,-8.48,0.00,0.00,0.00,32.09,32.09,776.0,0.00,0.00,995.22,407.2,-6.031,-0.620,8.090
2025-08-07T18:09:21.223308,-37.80,-3.75,-8.48,0.00,0.00,0.00,32.08,32.08,661.0,0.00,0.00,995.22,407.4,-6.189,-0.661,7.951
2025-08-07T18:09:21.449264,-37.59,-3.43,-8.48,0.00,0.00,0.00,32.10,32.10,710.0,0.00,0.00,995.22,407.6,-6.121,-0.601,7.928
2025-08-07T18:09:21.660786,-37.39,-3.76,-8.49,0.00,0.00,0.00,32.10,32.10,771.0,0.00,0.00,995.22,407.8,-6.126,-0.662,7.988
2025-08-07T18:09:22.112138,-37.65,-4.04,-8.50,0.00,0.00,0.00,32.09,32.09,736.0,0.00,0.00,995.22,408.3,-6.124,-0.706,7.907
2025-08-07T18:09:22.335544,-36.67,-4.52,-8.50,0.00,0.00,0.00,32.10,32.10,724.0,0.00,0.00,995.22,408.5,-5.994,-0.791,8.012
2025-08-07T18:09:22.771001,-36.23,-8.13,-8.58,0.00,0.00,0.00,32.10,32.10,649.0,0.00,0.00,995.22,408.9,-6.616,-1.584,8.890
2025-08-07T18:09:23.004212,-26.21,-11.85,-9.06,0.00,0.00,0.00,32.09,32.09,276.0,0.00,0.00,995.22,409.2,-4.903,-2.279,9.694
2025-08-07T18:09:23.218360,-16.59,-13.97,-9.13,0.00,0.00,0.00,32.10,32.10,27.0,0.00,0.00,995.22,409.4,-3.100,-2.622,10.072
2025-08-07T18:09:23.438046,-14.34,-9.56,-9.08,0.00,0.00,0.00,32.07,32.07,30.0,0.00,0.00,995.23,409.6,-2.120,-1.421,8.169
2025-08-07T18:09:23.661454,-24.29,-13.27,-9.05,0.00,0.00,0.00,32.07,32.07,133.0,0.00,0.00,995.22,409.8,-4.416,-2.464,9.470
2025-08-07T18:09:23.882947,-24.84,-15.69,-9.01,0.00,0.00,0.00,32.06,32.06,330.0,0.00,0.00,995.22,410.1,-3.739,-2.406,7.708
2025-08-07T18:09:24.104717,-29.38,-8.34,-8.83,0.00,0.00,0.00,32.07,32.07,361.0,0.00,0.00,995.22,410.3,-5.091,-1.505,8.918
2025-08-07T18:09:24.328335,-35.72,-6.92,-8.79,0.00,0.00,0.00,32.09,32.09,407.0,0.00,0.00,995.22,410.5,-6.000,-1.238,8.252
2025-08-07T18:09:24.549922,-32.28,-2.57,-8.84,0.00,0.00,0.00,32.09,32.09,446.0,0.00,0.00,995.22,410.7,-5.860,-0.492,9.263
2025-08-07T18:09:24.771989,-29.45,-3.75,-8.84,0.00,0.00,0.00,32.12,32.12,465.0,0.00,0.00,995.22,410.9,-5.001,-0.666,8.833
2025-08-07T18:09:25.217203,-30.60,-3.79,-8.82,0.00,0.00,0.00,32.12,32.12,491.0,0.00,0.00,995.22,411.4,-5.198,-0.674,8.762
2025-08-07T18:09:25.440756,-30.40,-4.11,-8.83,0.00,0.00,0.00,32.10,32.10,476.0,0.00,0.00,995.22,411.6,-5.160,-0.730,8.765
2025-08-07T18:09:25.670380,-31.46,-4.56,-8.83,0.00,0.00,0.00,32.09,32.09,497.0,0.00,0.00,995.22,411.8,-5.247,-0.798,8.539
2025-08-07T18:09:25.883948,-30.67,-5.08,-8.85,0.00,0.00,0.00,32.11,32.11,512.0,0.00,0.00,995.22,412.1,-5.170,-0.897,8.671
2025-08-07T18:09:26.109455,-30.73,-5.89,-8.86,0.00,0.00,0.00,32.10,32.10,410.0,0.00,0.00,995.22,412.3,-5.142,-1.032,8.588
2025-08-07T18:09:26.550871,-29.24,-5.22,-8.88,0.00,0.00,0.00,32.10,32.10,393.0,0.00,0.00,995.22,412.7,-4.887,-0.910,8.680
2025-08-07T18:09:26.773477,-31.15,-4.94,-8.88,0.00,0.00,0.00,32.10,32.10,467.0,0.00,0.00,995.22,412.9,-5.193,-0.864,8.550
2025-08-07T18:09:27.004876,-31.43,-4.96,-8.86,0.00,0.00,0.00,32.10,32.10,400.0,0.00,0.00,995.22,413.2,-5.265,-0.873,8.570
2025-08-07T18:09:27.217735,-31.98,-4.41,-8.85,0.00,0.00,0.00,32.09,32.09,453.0,0.00,0.00,995.22,413.4,-5.338,-0.775,8.514
2025-08-07T18:09:27.440299,-30.81,-4.21,-8.83,0.00,0.00,0.00,32.11,32.11,395.0,0.00,0.00,995.22,413.6,-5.189,-0.743,8.669
2025-08-07T18:09:27.663110,-31.57,-3.95,-8.82,0.00,0.00,0.00,32.09,32.09,541.0,0.00,0.00,995.22,413.8,-5.379,-0.707,8.724
2025-08-07T18:09:27.894845,-31.87,-4.19,-8.81,0.00,0.00,0.00,32.11,32.11,489.0,0.00,0.00,995.23,414.1,-5.455,-0.754,8.741
2025-08-07T18:09:28.106687,-31.34,-4.88,-8.82,0.00,0.00,0.00,32.10,32.10,528.0,0.00,0.00,995.23,414.3,-5.345,-0.875,8.735
2025-08-07T18:09:28.330117,-32.04,-5.15,-8.82,0.00,0.00,0.00,32.09,32.09,479.0,0.00,0.00,995.22,414.5,-5.397,-0.913,8.574
2025-08-07T18:09:28.773674,-31.45,-5.91,-8.86,0.00,0.00,0.00,32.12,32.12,542.0,0.00,0.00,995.23,414.9,-5.255,-1.038,8.529
2025-08-07T18:09:29.005009,-31.82,-6.25,-8.86,0.00,0.00,0.00,32.10,32.10,474.0,0.00,0.00,995.23,415.2,-5.255,-1.085,8.400
2025-08-07T18:09:29.218677,-31.65,-6.05,-8.86,0.00,0.00,0.00,32.09,32.09,445.0,0.00,0.00,995.23,415.4,-5.212,-1.047,8.392
2025-08-07T18:09:29.438797,-30.46,-4.97,-8.86,0.00,0.00,0.00,32.09,32.09,516.0,0.00,0.00,995.23,415.6,-5.072,-0.867,8.582
2025-08-07T18:09:29.665493,-30.56,-6.14,-8.87,0.00,0.00,0.00,32.10,32.10,547.0,0.00,0.00,995.23,415.8,-5.071,-1.067,8.523
2025-08-07T18:09:29.893595,-21.05,-8.87,-8.80,0.00,0.00,0.00,32.10,32.10,449.0,0.00,0.00,995.23,416.1,-3.943,-1.693,10.106
2025-08-07T18:09:30.330977,-27.90,-5.69,-8.50,0.00,0.00,0.00,32.11,32.11,521.0,0.00,0.00,995.23,416.5,-4.756,-1.008,8.924
2025-08-07T18:09:30.560679,-24.19,-8.40,-8.41,0.00,0.00,0.00,32.12,32.12,387.0,0.00,0.00,995.23,416.7,-3.764,-1.342,8.271
2025-08-07T18:09:30.774702,-29.04,-2.82,-8.30,0.00,0.00,0.00,32.12,32.12,340.0,0.00,0.00,995.23,416.9,-4.797,-0.486,8.626
2025-08-07T18:09:31.227739,-16.34,-4.32,-8.12,0.00,0.00,0.00,32.13,32.13,163.0,0.00,0.00,995.22,417.4,-3.357,-0.899,11.413
2025-08-07T18:09:31.441575,-24.12,-1.65,-8.22,0.00,0.00,0.00,32.13,32.13,218.0,0.00,0.00,995.22,417.6,-4.751,-0.334,10.609
2025-08-07T18:09:31.673013,-26.58,-2.74,-8.39,0.00,0.00,0.00,32.12,32.12,397.0,0.00,0.00,995.23,417.8,-4.930,-0.527,9.838
2025-08-07T18:09:31.886735,-25.00,-7.94,-8.47,0.00,0.00,0.00,32.13,32.13,333.0,0.00,0.00,995.23,418.1,-4.038,-1.320,8.557
2025-08-07T18:09:32.108644,-25.25,-11.68,-8.51,0.00,0.00,0.00,32.12,32.12,398.0,0.00,0.00,995.23,418.3,-4.113,-1.952,8.501
2025-08-07T18:09:32.330003,-25.30,-15.39,-8.61,0.00,0.00,0.00,32.12,32.12,332.0,0.00,0.00,995.23,418.5,-4.316,-2.680,8.726
2025-08-07T18:09:32.553448,-28.53,-13.25,-8.65,0.00,0.00,0.00,32.11,32.11,362.0,0.00,0.00,995.23,418.7,-4.459,-2.139,7.919
2025-08-07T18:09:32.777363,-28.75,-9.83,-8.72,0.00,0.00,0.00,32.13,32.13,483.0,0.00,0.00,995.23,418.9,-4.605,-1.634,8.232
2025-08-07T18:09:32.997026,-26.31,-10.99,-8.76,0.00,0.00,0.00,32.12,32.12,401.0,0.00,0.00,995.22,419.2,-4.507,-1.938,8.908
2025-08-07T18:09:33.222442,-26.51,-9.54,-8.68,0.00,0.00,0.00,32.12,32.12,475.0,0.00,0.00,995.22,419.4,-4.533,-1.683,8.930
2025-08-07T18:09:33.442234,-31.81,-9.85,-8.48,0.00,0.00,0.00,32.11,32.11,207.0,0.00,0.00,995.22,419.6,-5.239,-1.700,8.273
2025-08-07T18:09:33.664859,-33.94,-10.37,-8.34,0.00,0.00,0.00,32.13,32.13,296.0,0.00,0.00,995.22,419.8,-5.499,-1.773,7.979
2025-08-07T18:09:33.890164,-33.77,-8.61,-8.25,0.00,0.00,0.00,32.14,32.14,279.0,0.00,0.00,995.22,420.1,-5.686,-1.531,8.364
2025-08-07T18:09:34.109383,-36.92,-8.79,-8.06,0.00,0.00,0.00,32.12,32.12,243.0,0.00,0.00,995.22,420.3,-6.251,-1.590,8.168
2025-08-07T18:09:34.339357,-39.98,-14.26,-7.92,0.00,0.00,0.00,32.11,32.11,257.0,0.00,0.00,995.22,420.5,-6.203,-2.379,7.005
2025-08-07T18:09:34.554667,-41.69,-9.02,-7.95,0.00,0.00,0.00,32.14,32.14,255.0,0.00,0.00,995.21,420.7,-6.704,-1.580,7.360
2025-08-07T18:09:34.784320,-38.72,-7.93,-8.12,0.00,0.00,0.00,32.15,32.15,317.0,0.00,0.00,995.21,421.0,-6.293,-1.387,7.727
2025-08-07T18:09:35.000190,-33.91,-7.53,-8.36,0.00,0.00,0.00,32.13,32.13,207.0,0.00,0.00,995.21,421.2,-5.340,-1.255,7.845
2025-08-07T18:09:35.229279,-29.74,-2.65,-8.61,0.00,0.00,0.00,32.14,32.14,254.0,0.00,0.00,995.21,421.4,-5.085,-0.474,8.888
2025-08-07T18:09:35.666689,-25.48,1.96,-9.09,0.00,0.00,0.00,32.17,32.17,166.0,0.00,0.00,995.21,421.8,-4.876,0.387,10.224
2025-08-07T18:09:35.888242,-23.04,2.44,-9.23,0.00,0.00,0.00,32.18,32.18,348.0,0.00,0.00,995.21,422.1,-4.697,0.511,11.031
2025-08-07T18:09:36.119233,-19.23,-0.67,-9.06,0.00,0.00,0.00,32.15,32.15,241.0,0.00,0.00,995.21,422.3,-3.859,-0.138,11.064
2025-08-07T18:09:36.333597,-29.75,-4.01,-8.63,0.00,0.00,0.00,32.16,32.16,329.0,0.00,0.00,995.21,422.5,-4.445,-0.626,7.752
2025-08-07T18:09:36.563209,-43.27,-8.12,-8.29,0.00,0.00,0.00,32.14,32.14,385.0,0.00,0.00,995.21,422.7,-6.628,-1.366,6.907
2025-08-07T18:09:36.777302,-43.89,-10.47,-8.15,0.00,0.00,0.00,32.15,32.15,160.0,0.00,0.00,995.21,423.0,-6.337,-1.662,6.375
2025-08-07T18:09:37.000562,-54.62,-11.45,-8.12,0.00,0.00,0.00,32.13,32.13,203.0,0.00,0.00,995.21,423.2,-7.738,-1.884,5.162
2025-08-07T18:09:37.230212,-48.28,-11.80,-8.26,0.00,0.00,0.00,32.16,32.16,226.3,0.00,0.00,995.21,423.4,-7.075,-1.938,6.002
2025-08-07T18:09:37.452154,-44.39,-14.30,-8.41,0.00,0.00,0.00,32.17,32.17,451.7,0.00,0.00,995.20,423.6,-6.570,-2.319,6.297
2025-08-07T18:09:37.669591,-42.73,-2.77,-8.58,0.00,0.00,0.00,32.16,32.16,380.0,0.00,0.00,995.20,423.8,-6.834,-0.486,7.383
2025-08-07T18:09:37.889034,-33.51,-9.41,-8.90,0.00,0.00,0.00,32.17,32.17,303.0,0.00,0.00,995.20,424.1,-5.819,-1.723,8.619
2025-08-07T18:09:38.111112,-22.77,-5.38,-9.28,0.00,0.00,0.00,32.15,32.15,199.0,0.00,0.00,995.20,424.3,-4.192,-1.016,9.935
2025-08-07T18:09:38.342506,-14.87,-6.80,-9.22,0.00,0.00,0.00,32.16,32.16,148.0,0.00,0.00,995.20,424.5,-2.708,-1.249,10.120
2025-08-07T18:09:38.556058,-24.08,-12.96,-8.87,0.00,0.00,0.00,32.16,32.16,285.0,0.00,0.00,995.20,424.7,-4.119,-2.264,8.934
2025-08-07T18:09:38.780044,-31.59,-6.43,-8.48,0.00,0.00,0.00,32.19,32.19,254.0,0.00,0.00,995.20,425.0,-5.248,-1.123,8.461
2025-08-07T18:09:39.006681,-28.94,-16.73,-8.32,0.00,0.00,0.00,32.18,32.18,148.0,0.00,0.00,995.20,425.2,-4.731,-2.814,8.079
2025-08-07T18:09:39.448524,-36.16,-14.01,-8.25,0.00,0.00,0.00,32.17,32.17,274.0,0.00,0.00,995.20,425.6,-5.636,-2.313,7.357
2025-08-07T18:09:39.668451,-30.32,-13.23,-8.50,0.00,0.00,0.00,32.20,32.20,328.0,0.00,0.00,995.20,425.8,-5.149,-2.333,8.487
2025-08-07T18:09:39.890061,-27.82,-12.97,-8.82,0.00,0.00,0.00,32.21,32.21,234.0,0.00,0.00,995.20,426.1,-4.766,-2.291,8.734
2025-08-07T18:09:40.112050,-23.15,-3.96,-9.10,0.00,0.00,0.00,32.19,32.19,133.0,0.00,0.00,995.20,426.3,-4.250,-0.747,9.911
2025-08-07T18:09:40.335384,-24.36,-5.99,-9.37,0.00,0.00,0.00,32.18,32.18,6.0,0.00,0.00,995.20,426.5,-4.014,-1.016,8.807
2025-08-07T18:09:40.565047,-18.53,-5.91,-9.61,0.00,0.00,0.00,32.18,32.18,115.0,0.00,0.00,995.20,426.7,-3.286,-1.064,9.746
2025-08-07T18:09:40.781683,-14.23,-6.27,-9.46,0.00,0.00,0.00,32.17,32.17,179.0,0.00,0.00,995.20,427.0,-2.690,-1.195,10.542
2025-08-07T18:09:41.010905,-21.06,-9.53,-9.22,0.00,0.00,0.00,32.16,32.16,100.0,0.00,0.00,995.20,427.2,-3.700,-1.706,9.458
2025-08-07T18:09:41.232130,-13.93,-12.99,-8.73,0.00,0.00,0.00,32.18,32.18,222.0,0.00,0.00,995.20,427.4,-2.059,-1.923,8.074
2025-08-07T18:09:41.446191,-31.20,-14.49,-8.60,0.00,0.00,0.00,32.18,32.18,196.0,0.00,0.00,995.20,427.6,-5.025,-2.428,7.936
2025-08-07T18:09:41.671080,-14.41,-16.38,-8.78,0.00,0.00,0.00,32.19,32.19,469.0,0.00,0.00,995.20,427.8,-1.629,-1.847,6.068
2025-08-07T18:09:41.900646,-29.06,-4.55,-8.66,0.00,0.00,0.00,32.17,32.17,590.0,0.00,0.00,995.19,428.1,-5.488,-0.897,9.837
2025-08-07T18:09:42.113053,-33.59,-1.50,-8.68,0.00,0.00,0.00,32.19,32.19,547.0,0.00,0.00,995.19,428.3,-5.947,-0.281,8.950
2025-08-07T18:09:42.336736,-38.66,0.29,-8.36,0.00,0.00,0.00,32.20,32.20,519.0,0.00,0.00,995.20,428.5,-6.710,0.055,8.388
2025-08-07T18:09:42.565855,-35.80,-9.36,-8.19,0.00,0.00,0.00,32.20,32.20,468.0,0.00,0.00,995.20,428.7,-6.388,-1.775,8.678
2025-08-07T18:09:42.784066,-36.74,-6.77,-8.47,0.00,0.00,0.00,32.20,32.20,526.0,0.00,0.00,995.20,429.0,-7.010,-1.381,9.291
2025-08-07T18:09:43.001786,-36.96,-6.72,-8.84,0.00,0.00,0.00,32.18,32.18,648.0,0.00,0.00,995.20,429.2,-6.675,-1.299,8.776
2025-08-07T18:09:43.225073,-15.92,-3.68,-8.76,0.00,0.00,0.00,32.19,32.19,758.0,0.00,0.00,995.20,429.4,-2.525,-0.591,8.829
2025-08-07T18:09:43.446781,3.44,-15.02,-8.79,0.00,0.00,0.00,32.18,32.18,274.0,0.00,0.00,995.21,429.6,0.454,-1.957,7.278
2025-08-07T18:09:43.670623,27.74,-26.04,-9.14,0.00,0.00,0.00,32.17,32.17,430.0,0.00,0.00,995.20,429.8,5.362,-5.057,8.853
2025-08-07T18:09:43.893422,30.53,-10.55,-9.16,0.00,0.00,0.00,32.17,32.17,549.0,0.00,0.00,995.20,430.1,4.867,-1.754,8.065
2025-08-07T18:09:44.113873,58.65,-16.45,-9.28,0.00,0.00,0.00,32.17,32.17,615.0,0.00,0.00,995.20,430.3,8.320,-2.759,4.252
2025-08-07T18:09:44.337444,80.48,-9.30,-9.39,0.00,0.00,0.00,32.17,32.17,763.0,0.00,0.00,995.20,430.5,8.126,-1.331,-0.294
2025-08-07T18:09:44.558719,35.41,-0.50,-9.37,0.00,0.00,0.00,32.16,32.16,218.0,0.00,0.00,995.20,430.7,5.674,-0.086,-7.980
2025-08-07T18:09:44.781475,21.60,19.26,-9.35,0.00,0.00,0.00,32.18,32.18,666.0,0.00,0.00,995.20,431.0,3.561,3.191,-8.408
2025-08-07T18:09:45.013257,20.67,17.23,-9.73,0.00,0.00,0.00,32.21,32.21,597.0,0.00,0.00,995.20,431.2,3.859,3.238,-9.704
2025-08-07T18:09:45.226129,25.55,12.96,-10.15,0.00,0.00,0.00,32.18,32.18,559.0,0.00,0.00,995.20,431.4,4.241,2.205,-8.593
2025-08-07T18:09:45.447891,26.62,3.45,-10.21,0.00,0.00,0.00,32.18,32.18,564.0,0.00,0.00,995.20,431.6,4.058,0.545,-8.079
2025-08-07T18:09:45.669245,12.13,10.97,-10.01,0.00,0.00,0.00,32.18,32.18,528.0,0.00,0.00,995.20,431.8,2.546,2.306,-11.620
2025-08-07T18:09:45.893767,30.67,3.39,-9.84,0.00,0.00,0.00,32.19,32.19,539.0,0.00,0.00,995.20,432.1,5.362,0.621,-9.019
2025-08-07T18:09:46.114826,22.87,8.46,-9.47,0.00,0.00,0.00,32.19,32.19,534.0,0.00,0.00,995.21,432.3,4.205,1.591,-9.840
2025-08-07T18:09:46.338098,27.16,12.23,-9.32,0.00,0.00,0.00,32.20,32.20,537.0,0.00,0.00,995.21,432.5,3.633,1.686,-6.877
2025-08-07T18:09:46.559913,9.37,19.78,-9.41,0.00,0.00,0.00,32.22,32.22,570.0,0.00,0.00,995.21,432.7,1.374,2.856,-7.822
2025-08-07T18:09:46.781658,15.15,3.65,-9.89,0.00,0.00,0.00,32.21,32.21,533.0,0.00,0.00,995.21,433.0,3.336,0.813,-12.299
2025-08-07T18:09:47.003013,28.43,1.34,-10.38,0.00,0.00,0.00,32.23,32.23,538.0,0.00,0.00,995.21,433.2,4.463,0.219,-8.242
2025-08-07T18:09:47.448604,35.19,-5.47,-10.35,0.00,0.00,0.00,32.18,32.18,561.0,0.00,0.00,995.21,433.6,5.655,-0.936,-7.966
2025-08-07T18:09:47.672018,29.31,-3.03,-9.82,0.00,0.00,0.00,32.22,32.22,523.0,0.00,0.00,995.21,433.8,5.150,-0.557,-9.155
2025-08-07T18:09:47.894734,24.76,-1.41,-9.42,0.00,0.00,0.00,32.21,32.21,543.0,0.00,0.00,995.21,434.1,4.402,-0.259,-9.540
2025-08-07T18:09:48.115930,19.39,4.74,-9.20,0.00,0.00,0.00,32.22,32.22,542.0,0.00,0.00,995.21,434.3,3.273,0.815,-9.261
2025-08-07T18:09:48.782624,44.36,-4.89,-9.94,0.00,0.00,0.00,32.23,32.23,599.0,0.00,0.00,995.22,435.0,7.162,-0.873,-7.271
2025-08-07T18:09:49.227642,30.55,11.14,-10.11,0.00,0.00,0.00,32.25,32.25,563.0,0.00,0.00,995.21,435.4,5.130,1.950,-8.468
2025-08-07T18:09:49.453115,26.86,16.86,-10.25,0.00,0.00,0.00,32.25,32.25,556.0,0.00,0.00,995.21,435.6,4.301,2.762,-8.033
2025-08-07T18:09:49.679123,29.97,14.44,-10.38,0.00,0.00,0.00,32.24,32.24,565.0,0.00,0.00,995.21,435.8,4.772,2.381,-7.924
2025-08-07T18:09:49.894582,31.58,5.82,-10.18,0.00,0.00,0.00,32.26,32.26,562.0,0.00,0.00,995.21,436.1,5.685,1.101,-9.183
2025-08-07T18:09:50.119696,25.94,8.72,-9.78,0.00,0.00,0.00,32.24,32.24,557.0,0.00,0.00,995.22,436.3,4.278,1.483,-8.671
2025-08-07T18:09:50.347837,27.57,3.17,-9.47,0.00,0.00,0.00,32.25,32.25,562.0,0.00,0.00,995.21,436.5,4.501,0.537,-8.605
2025-08-07T18:09:50.563852,27.42,2.97,-9.25,0.00,0.00,0.00,32.26,32.26,580.0,0.00,0.00,995.21,436.7,4.853,0.546,-9.340
2025-08-07T18:09:51.228498,22.63,-11.22,-8.88,0.00,0.00,0.00,32.24,32.24,647.0,0.00,0.00,995.22,437.4,3.831,-1.937,-8.984
2025-08-07T18:09:51.450478,20.78,-22.99,-8.83,0.00,0.00,0.00,32.22,32.22,674.0,0.00,0.00,995.22,437.6,3.982,-4.383,-9.533
2025-08-07T18:09:51.674419,35.00,-50.18,-8.92,0.00,0.00,0.00,32.22,32.22,1054.0,0.00,0.00,995.21,437.8,5.470,-7.324,-2.717
2025-08-07T18:09:51.895508,30.25,-31.58,-9.20,0.00,0.00,0.00,32.23,32.23,369.0,0.00,0.00,995.21,438.1,4.814,-5.004,6.566
2025-08-07T18:09:52.117354,0.32,-20.36,-9.49,0.00,0.00,0.00,32.23,32.23,409.6,0.00,0.00,995.21,438.3,0.060,-3.715,10.011
2025-08-07T18:09:52.341263,-8.02,-21.01,-10.13,0.00,0.00,0.00,32.21,32.21,819.2,0.00,0.00,995.21,438.5,-1.150,-2.956,7.608
2025-08-07T18:09:52.562541,-2.63,1.25,-10.23,0.00,0.00,0.00,32.20,32.20,1230.6,0.00,0.00,995.21,438.7,-0.451,0.214,9.810
2025-08-07T18:09:52.794631,-5.56,7.02,-10.08,0.00,0.00,0.00,32.22,32.22,1640.2,0.00,0.00,995.21,439.0,-1.070,1.350,10.914
2025-08-07T18:09:53.007881,1.38,1.38,-10.09,0.00,0.00,0.00,32.20,32.20,2000.0,0.00,0.00,995.21,439.2,0.249,0.250,10.364
2025-08-07T18:09:53.230843,-2.45,-5.61,-10.28,0.00,0.00,0.00,32.21,32.21,2000.0,0.00,0.00,995.21,439.4,-0.455,-1.038,10.560
2025-08-07T18:09:53.451589,3.90,-1.21,-10.21,0.00,0.00,0.00,32.20,32.20,2000.0,0.00,0.00,995.21,439.6,0.719,-0.224,10.543
2025-08-07T18:09:53.675172,3.08,-2.02,-10.21,0.00,0.00,0.00,32.20,32.20,2000.0,0.00,0.00,995.20,439.8,0.552,-0.362,10.254
2025-08-07T18:09:53.904426,3.16,-2.08,-10.21,0.00,0.00,0.00,32.20,32.20,2000.0,0.00,0.00,995.20,440.1,0.570,-0.375,10.299
2025-08-07T18:09:54.118405,3.07,-2.21,-10.21,0.00,0.00,0.00,32.18,32.18,2000.0,0.00,0.00,995.20,440.3,0.559,-0.403,10.433
2025-08-07T18:09:54.341644,3.16,-2.17,-10.21,0.00,0.00,0.00,32.19,32.19,2000.0,0.00,0.00,995.20,440.5,0.570,-0.393,10.330
2025-08-07T18:09:54.563094,3.18,-2.10,-10.21,0.00,0.00,0.00,32.19,32.19,2000.0,0.00,0.00,995.20,440.7,0.571,-0.377,10.269
2025-08-07T18:09:54.797172,3.17,-2.07,-10.21,0.00,0.00,0.00,32.19,32.19,2000.0,0.00,0.00,995.20,441.0,0.572,-0.373,10.312
2025-08-07T18:09:55.016629,3.06,-2.26,-10.21,0.00,0.00,0.00,32.18,32.18,2000.0,0.00,0.00,995.20,441.2,0.555,-0.411,10.393
2025-08-07T18:09:55.238198,3.09,-2.05,-10.21,0.00,0.00,0.00,32.20,32.20,2000.0,0.00,0.00,995.20,441.4,0.564,-0.375,10.436
2025-08-07T18:09:55.452362,3.08,-2.18,-10.21,0.00,0.00,0.00,32.19,32.19,2000.0,0.00,0.00,995.20,441.6,0.558,-0.395,10.356
2025-08-07T18:09:55.681737,3.26,-2.07,-10.21,0.00,0.00,0.00,32.18,32.18,2000.0,0.00,0.00,995.20,441.8,0.588,-0.373,10.313
2025-08-07T18:09:55.897025,3.05,-2.13,-10.21,0.00,0.00,0.00,32.19,32.19,2000.0,0.00,0.00,995.20,442.1,0.557,-0.388,10.423
