TS,pitch,roll,yaw,vgx,vgy,vgz,templ,temph,tof,h,bat,baro,time,agx,agy,agz
2025-08-07T18:10:11.240435,3.05,-2.16,-10.23,0.00,0.00,0.00,31.93,31.93,2000.0,0.00,0.00,995.21,457.4,0.559,-0.396,10.467
2025-08-07T18:10:11.682662,3.11,-2.12,-10.23,0.00,0.00,0.00,31.93,31.93,2000.0,0.00,0.00,995.21,457.9,0.564,-0.385,10.376
2025-08-07T18:10:11.904069,3.11,-2.06,-10.23,0.00,0.00,0.00,31.92,31.92,2000.0,0.00,0.00,995.21,458.1,0.559,-0.371,10.278
2025-08-07T18:10:12.126130,3.09,-2.24,-10.23,0.00,0.00,0.00,31.94,31.94,2000.0,0.00,0.00,995.21,458.3,0.563,-0.408,10.410
2025-08-07T18:10:12.349550,3.19,-2.14,-10.23,0.00,0.00,0.00,31.92,31.92,2000.0,0.00,0.00,995.21,458.5,0.576,-0.387,10.336
2025-08-07T18:10:12.571154,5.12,-2.87,-10.23,0.00,0.00,0.00,31.93,31.93,2000.0,0.00,0.00,995.21,458.7,0.915,-0.514,10.197
2025-08-07T18:10:12.795092,3.47,-1.09,-10.23,0.00,0.00,0.00,31.89,31.89,2000.0,0.00,0.00,995.21,459.0,0.639,-0.201,10.531
2025-08-07T18:10:13.024604,4.41,-0.76,-10.33,0.00,0.00,0.00,31.90,31.90,2000.0,0.00,0.00,995.21,459.2,0.803,-0.138,10.408
2025-08-07T18:10:13.240628,1.22,-4.35,-10.42,0.00,0.00,0.00,31.89,31.89,2000.0,0.00,0.00,995.21,459.4,0.208,-0.742,9.746
2025-08-07T18:10:13.683694,-27.39,-7.13,-10.55,0.00,0.00,0.00,31.91,31.91,45.0,0.00,0.00,995.21,459.9,-4.735,-1.277,9.048
2025-08-07T18:10:13.905187,-9.59,13.34,-10.64,0.00,0.00,0.00,31.92,31.92,50.2,0.00,0.00,995.21,460.1,-1.668,2.309,9.597
2025-08-07T18:10:14.125190,-12.54,-0.60,-10.84,0.00,0.00,0.00,31.92,31.92,100.1,0.00,0.00,995.21,460.3,-2.392,-0.115,10.751
2025-08-07T18:10:14.358531,3.21,8.47,-11.23,0.00,0.00,0.00,31.90,31.90,150.1,0.00,0.00,995.20,460.5,0.430,1.131,7.588
2025-08-07T18:10:14.572157,-12.67,-1.46,-11.58,0.00,0.00,0.00,31.91,31.91,200.2,0.00,0.00,995.20,460.7,-2.456,-0.286,10.926
2025-08-07T18:10:14.802114,-13.11,13.33,-11.33,0.00,0.00,0.00,31.91,31.91,250.2,0.00,0.00,995.20,461.0,-2.247,2.284,9.377
2025-08-07T18:10:15.027479,-13.61,2.52,-11.36,0.00,0.00,0.00,31.93,31.93,300.1,0.00,0.00,995.20,461.2,-2.583,0.484,10.663
2025-08-07T18:10:15.240093,-7.81,2.30,-11.49,0.00,0.00,0.00,31.92,31.92,350.3,0.00,0.00,995.20,461.4,-1.274,0.376,9.274
2025-08-07T18:10:15.460283,-12.55,5.18,-11.57,0.00,0.00,0.00,31.92,31.92,400.3,0.00,0.00,995.20,461.6,-2.140,0.888,9.571
2025-08-07T18:10:15.694261,18.26,30.87,-11.80,0.00,0.00,0.00,31.94,31.94,450.2,0.00,0.00,995.20,461.9,2.195,3.595,5.598
2025-08-07T18:10:15.906101,-21.89,4.48,-11.94,0.00,0.00,0.00,31.91,31.91,500.4,0.00,0.00,995.21,462.1,-5.162,1.082,12.804
2025-08-07T18:10:16.128140,-7.13,-15.80,-12.07,0.00,0.00,0.00,31.93,31.93,550.3,0.00,0.00,995.21,462.3,-1.194,-2.617,9.169
2025-08-07T18:10:16.352172,-12.54,-2.69,-12.01,0.00,0.00,0.00,31.95,31.95,600.3,0.00,0.00,995.20,462.5,-1.914,-0.414,8.598
2025-08-07T18:10:16.573545,-43.03,-6.02,-11.87,0.00,0.00,0.00,31.93,31.93,159.0,0.00,0.00,995.20,462.7,-6.494,-0.998,6.886
2025-08-07T18:10:16.795045,-51.98,6.37,-12.18,0.00,0.00,0.00,31.91,31.91,954.0,0.00,0.00,995.20,463.0,-7.080,0.997,5.446
2025-08-07T18:10:17.020395,-35.17,23.87,-12.12,0.00,0.00,0.00,31.93,31.93,607.0,0.00,0.00,995.20,463.2,-4.720,3.316,5.822
2025-08-07T18:10:17.240320,-52.38,17.24,-12.15,0.00,0.00,0.00,31.93,31.93,810.0,0.00,0.00,995.20,463.4,-6.986,2.614,4.707
2025-08-07T18:10:17.462232,-63.82,12.23,-12.17,0.00,0.00,0.00,31.93,31.93,552.0,0.00,0.00,995.20,463.6,-8.207,1.938,3.539
2025-08-07T18:10:17.685390,-86.18,-1.36,-12.21,0.00,0.00,0.00,31.94,31.94,840.0,0.00,0.00,995.20,463.9,-9.609,-0.229,0.600
2025-08-07T18:10:17.907044,-73.71,2.04,-12.31,0.00,0.00,0.00,31.93,31.93,919.0,0.00,0.00,995.20,464.1,-10.483,0.389,-3.039
2025-08-07T18:10:18.130224,-38.86,-2.48,-12.18,0.00,0.00,0.00,31.95,31.95,1010.0,0.00,0.00,995.20,464.3,-6.151,-0.425,-7.621
2025-08-07T18:10:18.361906,-0.78,-21.09,-11.97,0.00,0.00,0.00,31.94,31.94,552.0,0.00,0.00,995.20,464.5,-0.132,-3.463,-8.977
2025-08-07T18:10:18.574173,3.50,-21.02,-11.92,0.00,0.00,0.00,31.93,31.93,475.0,0.00,0.00,995.20,464.8,0.605,-3.555,-9.232
2025-08-07T18:10:18.796479,1.49,-11.79,-11.77,0.00,0.00,0.00,31.94,31.94,511.0,0.00,0.00,995.20,465.0,0.250,-1.963,-9.402
2025-08-07T18:10:19.019343,-7.30,-6.31,-11.68,0.00,0.00,0.00,31.93,31.93,554.0,0.00,0.00,995.20,465.2,-1.141,-0.986,-8.854
2025-08-07T18:10:19.249069,-1.91,-13.56,-11.37,0.00,0.00,0.00,31.95,31.95,557.0,0.00,0.00,995.20,465.4,-0.356,-2.496,-10.343
2025-08-07T18:10:19.462960,7.83,-16.37,-11.20,0.00,0.00,0.00,31.92,31.92,558.0,0.00,0.00,995.21,465.6,1.379,-2.853,-9.610
2025-08-07T18:10:19.686231,2.88,-12.93,-11.00,0.00,0.00,0.00,31.93,31.93,585.0,0.00,0.00,995.20,465.9,0.457,-2.037,-8.861
2025-08-07T18:10:19.907861,11.64,-14.81,-11.19,0.00,0.00,0.00,31.94,31.94,619.0,0.00,0.00,995.20,466.1,1.598,-2.025,-7.490
2025-08-07T18:10:20.137862,1.14,-8.98,-11.39,0.00,0.00,0.00,31.94,31.94,585.0,0.00,0.00,995.20,466.3,0.211,-1.650,-10.433
2025-08-07T18:10:20.353248,3.62,-12.85,-11.50,0.00,0.00,0.00,31.94,31.94,568.0,0.00,0.00,995.20,466.5,0.717,-2.525,-11.041
2025-08-07T18:10:20.796960,4.64,-24.22,-11.83,0.00,0.00,0.00,31.94,31.94,594.0,0.00,0.00,995.20,467.0,0.858,-4.353,-9.638
2025-08-07T18:10:21.247474,-5.15,-45.56,-11.40,0.00,0.00,0.00,31.95,31.95,649.0,0.00,0.00,995.20,467.4,-1.081,-8.598,-8.362
2025-08-07T18:10:21.465712,19.52,-55.53,-11.68,0.00,0.00,0.00,31.94,31.94,977.0,0.00,0.00,995.20,467.6,3.561,-8.788,-4.869
2025-08-07T18:10:21.687976,13.03,-7.72,-11.93,0.00,0.00,0.00,31.97,31.97,1033.0,0.00,0.00,995.20,467.9,2.392,-1.426,-10.240
2025-08-07T18:10:21.908868,-4.14,-32.74,-12.02,0.00,0.00,0.00,31.94,31.94,944.0,0.00,0.00,995.20,468.1,-0.528,-3.956,-6.132
2025-08-07T18:10:22.138828,11.78,-28.58,-12.01,0.00,0.00,0.00,31.95,31.95,823.0,0.00,0.00,995.20,468.3,2.174,-5.094,-9.093
2025-08-07T18:10:22.579574,-7.64,-35.96,-12.14,0.00,0.00,0.00,31.95,31.95,811.0,0.00,0.00,995.20,468.8,-1.290,-5.704,-7.755
2025-08-07T18:10:22.805768,-13.88,-39.30,-12.02,0.00,0.00,0.00,31.95,31.95,811.0,0.00,0.00,995.20,469.0,-2.612,-6.896,-8.011
2025-08-07T18:10:23.021218,-19.74,-28.37,-11.70,0.00,0.00,0.00,31.96,31.96,764.0,0.00,0.00,995.20,469.2,-3.529,-4.964,-8.487
2025-08-07T18:10:23.242812,-2.66,-28.35,-11.43,0.00,0.00,0.00,31.96,31.96,765.0,0.00,0.00,995.20,469.4,-0.502,-5.140,-9.512
2025-08-07T18:10:23.468704,-7.57,-26.66,-11.29,0.00,0.00,0.00,31.98,31.98,806.0,0.00,0.00,995.20,469.6,-1.232,-4.197,-8.270
2025-08-07T18:10:23.686151,9.70,-19.62,-11.35,0.00,0.00,0.00,31.97,31.97,869.0,0.00,0.00,995.20,469.9,1.597,-3.182,-8.780
2025-08-07T18:10:23.909612,8.67,-7.07,-11.51,0.00,0.00,0.00,31.98,31.98,941.0,0.00,0.00,995.20,470.1,1.638,-1.337,-10.660
2025-08-07T18:10:24.139819,11.80,2.91,-11.65,0.00,0.00,0.00,32.00,32.00,1018.0,0.00,0.00,995.20,470.3,1.881,0.467,-8.993
2025-08-07T18:10:24.355012,2.99,17.23,-11.74,0.00,0.00,0.00,31.99,31.99,1071.0,0.00,0.00,995.20,470.5,0.450,2.553,-8.223
2025-08-07T18:10:24.576689,6.32,13.08,-11.67,0.00,0.00,0.00,32.01,32.01,1119.0,0.00,0.00,995.20,470.8,1.198,2.464,-10.536
2025-08-07T18:10:24.799735,16.52,-2.62,-11.54,0.00,0.00,0.00,31.99,31.99,1127.0,0.00,0.00,995.20,471.0,2.569,-0.413,-8.653
2025-08-07T18:10:25.020788,14.29,-1.34,-11.51,0.00,0.00,0.00,31.98,31.98,1246.0,0.00,0.00,995.19,471.2,2.418,-0.229,-9.488
2025-08-07T18:10:25.251581,8.28,5.15,-11.61,0.00,0.00,0.00,32.00,32.00,1285.0,0.00,0.00,995.19,471.4,1.507,0.940,-10.308
2025-08-07T18:10:25.465911,-2.41,9.75,-11.78,0.00,0.00,0.00,32.01,32.01,1302.0,0.00,0.00,995.19,471.6,-0.390,1.572,-9.135
2025-08-07T18:10:25.688948,-7.93,18.39,-11.89,0.00,0.00,0.00,32.02,32.02,1366.0,0.00,0.00,995.19,471.9,-1.137,2.601,-7.743
2025-08-07T18:10:25.918514,-12.14,18.22,-11.91,0.00,0.00,0.00,32.02,32.02,1365.0,0.00,0.00,995.19,472.1,-2.181,3.242,-9.603
2025-08-07T18:10:26.133068,2.69,11.87,-11.90,0.00,0.00,0.00,32.00,32.00,1415.0,0.00,0.00,995.19,472.3,0.521,2.279,-10.833
2025-08-07T18:10:26.577575,16.72,38.10,-11.81,0.00,0.00,0.00,32.03,32.03,1325.0,0.00,0.00,995.19,472.8,2.472,5.301,-6.293
2025-08-07T18:10:26.799969,14.00,48.33,-11.86,0.00,0.00,0.00,32.05,32.05,1199.0,0.00,0.00,995.19,473.0,2.161,6.669,-5.529
2025-08-07T18:10:27.023045,12.23,46.94,-11.86,0.00,0.00,0.00,32.01,32.01,1013.0,0.00,0.00,995.18,473.2,1.912,6.592,-5.857
2025-08-07T18:10:27.253478,15.50,44.52,-11.82,0.00,0.00,0.00,32.04,32.04,1303.0,0.00,0.00,995.17,473.4,2.433,6.384,-6.019
2025-08-07T18:10:27.466528,19.25,39.75,-11.66,0.00,0.00,0.00,32.03,32.03,1090.0,0.00,0.00,995.17,473.6,2.812,5.455,-5.926
2025-08-07T18:10:27.690792,17.93,28.56,-11.64,0.00,0.00,0.00,32.02,32.02,1427.0,0.00,0.00,995.17,473.9,3.162,4.911,-8.450
2025-08-07T18:10:27.911664,16.38,17.12,-11.65,0.00,0.00,0.00,32.02,32.02,1416.0,0.00,0.00,995.17,474.1,3.159,3.297,-10.229
2025-08-07T18:10:28.133551,14.73,13.89,-11.62,0.00,0.00,0.00,32.02,32.02,1415.0,0.00,0.00,995.17,474.3,2.849,2.690,-10.495
2025-08-07T18:10:28.356993,16.63,14.21,-11.64,0.00,0.00,0.00,32.01,32.01,1339.0,0.00,0.00,995.17,474.5,2.902,2.489,-9.389
2025-08-07T18:10:28.579975,23.25,13.16,-11.64,0.00,0.00,0.00,32.03,32.03,1411.0,0.00,0.00,995.17,474.8,4.187,2.415,-9.440
2025-08-07T18:10:28.810429,22.42,28.56,-11.66,0.00,0.00,0.00,32.03,32.03,1284.0,0.00,0.00,995.17,475.0,3.794,4.756,-7.870
2025-08-07T18:10:29.027330,36.82,39.05,-11.63,0.00,0.00,0.00,32.02,32.02,1184.0,0.00,0.00,995.16,475.2,5.400,5.677,-4.451
2025-08-07T18:10:29.470620,30.40,32.56,-11.66,0.00,0.00,0.00,32.04,32.04,530.0,0.00,0.00,995.16,475.6,4.415,4.696,-5.881
2025-08-07T18:10:29.690866,24.99,9.56,-11.63,0.00,0.00,0.00,32.02,32.02,1330.0,0.00,0.00,995.16,475.9,4.586,1.803,-9.675
2025-08-07T18:10:29.920282,17.53,7.51,-11.65,0.00,0.00,0.00,32.03,32.03,1516.0,0.00,0.00,995.16,476.1,3.457,1.500,-10.843
2025-08-07T18:10:30.134536,23.56,15.29,-11.66,0.00,0.00,0.00,32.05,32.05,1502.0,0.00,0.00,995.16,476.3,4.086,2.695,-8.973
2025-08-07T18:10:30.360485,29.27,37.75,-11.63,0.00,0.00,0.00,32.06,32.06,1098.0,0.00,0.00,995.16,476.5,4.313,5.401,-5.483
2025-08-07T18:10:30.583134,30.94,51.66,-11.67,0.00,0.00,0.00,32.05,32.05,1288.0,0.00,0.00,995.15,476.8,4.831,7.372,-3.262
2025-08-07T18:10:30.801283,21.65,68.14,-11.87,0.00,0.00,0.00,32.05,32.05,750.0,0.00,0.00,995.15,477.0,3.513,8.839,0.475
2025-08-07T18:10:31.033034,4.80,44.28,-11.88,0.00,0.00,0.00,32.09,32.09,466.0,0.00,0.00,995.15,477.2,0.897,7.474,7.611
2025-08-07T18:10:31.246425,8.62,66.49,-11.87,0.00,0.00,0.00,32.08,32.08,341.0,0.00,0.00,995.15,477.4,1.395,8.537,3.442
2025-08-07T18:10:31.468624,21.00,51.98,-11.78,0.00,0.00,0.00,32.07,32.07,777.0,0.00,0.00,995.15,477.6,3.200,7.034,4.472
2025-08-07T18:10:31.699800,9.44,69.72,-12.42,0.00,0.00,0.00,32.07,32.07,528.0,0.00,0.00,995.14,477.9,1.214,6.943,2.260
2025-08-07T18:10:31.917133,-26.13,49.02,-13.15,0.00,0.00,0.00,32.06,32.06,1141.0,0.00,0.00,995.14,478.1,-4.254,7.293,4.693
2025-08-07T18:10:32.148630,-28.79,-3.46,-13.38,0.00,0.00,0.00,32.09,32.09,1266.5,0.00,0.00,995.14,478.3,-5.725,-0.718,10.392
2025-08-07T18:10:32.358801,-12.40,-20.50,-13.68,0.00,0.00,0.00,32.06,32.06,2000.0,0.00,0.00,995.15,478.5,-2.550,-4.158,10.823
2025-08-07T18:10:32.582166,-11.58,-19.02,-14.14,0.00,0.00,0.00,32.09,32.09,121.0,0.00,0.00,995.15,478.8,-2.953,-4.792,13.587
2025-08-07T18:10:32.810359,33.98,-3.47,-14.44,0.00,0.00,0.00,32.07,32.07,134.3,0.00,0.00,995.15,479.0,5.598,-0.607,8.283
2025-08-07T18:10:33.033410,38.93,18.04,-14.85,0.00,0.00,0.00,32.07,32.07,356.0,0.00,0.00,995.15,479.2,6.973,3.436,7.919
2025-08-07T18:10:33.253275,14.09,41.72,-15.26,0.00,0.00,0.00,32.06,32.06,375.0,0.00,0.00,995.15,479.4,2.342,6.401,6.788
2025-08-07T18:10:33.473909,-16.74,49.18,-15.11,0.00,0.00,0.00,32.08,32.08,404.0,0.00,0.00,995.15,479.6,-2.761,7.254,5.625
2025-08-07T18:10:33.703188,7.05,-15.66,-14.94,0.00,0.00,0.00,32.07,32.07,448.4,0.00,0.00,995.15,479.9,1.458,-3.208,11.353
2025-08-07T18:10:33.912508,2.32,-25.70,-14.57,0.00,0.00,0.00,32.07,32.07,130.0,0.00,0.00,995.15,480.1,0.427,-4.581,9.511
2025-08-07T18:10:34.143970,-21.61,-34.38,-14.39,0.00,0.00,0.00,32.08,32.08,516.0,0.00,0.00,995.15,480.3,-3.845,-5.895,7.711
2025-08-07T18:10:34.580924,-44.72,-36.06,-14.39,0.00,0.00,0.00,32.09,32.09,847.0,0.00,0.00,995.16,480.8,-7.422,-6.209,4.199
2025-08-07T18:10:34.803055,-44.71,-36.77,-14.31,0.00,0.00,0.00,32.11,32.11,334.0,0.00,0.00,995.16,481.0,-6.940,-5.905,3.779
2025-08-07T18:10:35.026370,-61.08,-25.57,-14.09,0.00,0.00,0.00,32.11,32.11,756.0,0.00,0.00,995.16,481.2,-8.874,-4.375,2.212
2025-08-07T18:10:35.248001,-67.27,-16.72,-14.00,0.00,0.00,0.00,32.12,32.12,1450.0,0.00,0.00,995.16,481.4,-8.493,-2.649,-2.376
2025-08-07T18:10:35.469939,-62.82,-16.64,-14.11,0.00,0.00,0.00,32.09,32.09,1155.0,0.00,0.00,995.16,481.6,-8.562,-2.756,-3.425
2025-08-07T18:10:35.693525,-61.99,-17.97,-14.08,0.00,0.00,0.00,32.11,32.11,1354.0,0.00,0.00,995.17,481.9,-8.386,-2.931,-3.364
2025-08-07T18:10:35.917505,-46.95,-15.25,-14.00,0.00,0.00,0.00,32.13,32.13,1285.0,0.00,0.00,995.17,482.1,-7.175,-2.583,-6.185
2025-08-07T18:10:36.145312,-48.58,-23.38,-14.14,0.00,0.00,0.00,32.11,32.11,693.0,0.00,0.00,995.17,482.3,-7.351,-3.889,-5.189
2025-08-07T18:10:36.370185,-46.54,-29.36,-14.14,0.00,0.00,0.00,32.13,32.13,786.0,0.00,0.00,995.17,482.5,-6.663,-4.501,-4.429
2025-08-07T18:10:36.590209,-49.71,-26.96,-14.15,0.00,0.00,0.00,32.13,32.13,636.0,0.00,0.00,995.18,482.8,-7.424,-4.413,-4.489
2025-08-07T18:10:36.812152,-45.67,-24.51,-14.13,0.00,0.00,0.00,32.12,32.12,658.0,0.00,0.00,995.18,483.0,-6.911,-4.008,-5.432
2025-08-07T18:10:37.035338,-35.72,-19.05,-13.97,0.00,0.00,0.00,32.14,32.14,686.0,0.00,0.00,995.18,483.2,-5.641,-3.153,-7.181
2025-08-07T18:10:37.249249,-18.76,-18.27,-13.80,0.00,0.00,0.00,32.12,32.12,543.0,0.00,0.00,995.18,483.4,-3.096,-3.018,-8.601
2025-08-07T18:10:37.479014,-1.69,-19.26,-13.53,0.00,0.00,0.00,32.15,32.15,510.0,0.00,0.00,995.18,483.6,-0.266,-2.977,-8.516
2025-08-07T18:10:38.142936,14.89,-22.59,-13.71,0.00,0.00,0.00,32.13,32.13,554.0,0.00,0.00,995.19,484.3,2.625,-3.924,-9.057
2025-08-07T18:10:38.369190,12.16,-21.14,-13.74,0.00,0.00,0.00,32.13,32.13,559.0,0.00,0.00,995.19,484.5,2.046,-3.503,-8.823
2025-08-07T18:10:38.804799,6.50,-9.88,-13.57,0.00,0.00,0.00,32.12,32.12,592.0,0.00,0.00,995.19,485.0,1.207,-1.827,-10.424
2025-08-07T18:10:39.028067,3.82,-2.28,-13.47,0.00,0.00,0.00,32.14,32.14,651.0,0.00,0.00,995.19,485.2,0.602,-0.360,-9.020
2025-08-07T18:10:39.249827,-3.48,11.51,-13.40,0.00,0.00,0.00,32.14,32.14,745.0,0.00,0.00,995.19,485.4,-0.505,1.662,-8.141
2025-08-07T18:10:39.471776,1.60,12.23,-13.23,0.00,0.00,0.00,32.16,32.16,850.0,0.00,0.00,995.19,485.6,0.244,1.850,-8.527
2025-08-07T18:10:39.703179,9.99,2.22,-13.09,0.00,0.00,0.00,32.15,32.15,832.0,0.00,0.00,995.19,485.9,1.677,0.375,-9.515
2025-08-07T18:10:39.928954,7.19,-1.20,-13.08,0.00,0.00,0.00,32.15,32.15,832.0,0.00,0.00,995.19,486.1,1.249,-0.209,-9.901
2025-08-07T18:10:40.136754,7.30,-2.04,-13.09,0.00,0.00,0.00,32.17,32.17,839.0,0.00,0.00,995.19,486.3,1.223,-0.344,-9.550
2025-08-07T18:10:40.362229,8.29,-3.24,-13.10,0.00,0.00,0.00,32.16,32.16,844.0,0.00,0.00,995.19,486.5,1.336,-0.523,-9.149
2025-08-07T18:10:40.587302,19.05,-6.53,-13.11,0.00,0.00,0.00,32.19,32.19,867.0,0.00,0.00,995.19,486.8,3.214,-1.120,-9.242
2025-08-07T18:10:40.807794,8.32,-8.53,-13.29,0.00,0.00,0.00,32.17,32.17,874.0,0.00,0.00,995.19,487.0,1.277,-1.310,-8.638
2025-08-07T18:10:41.029456,-2.66,-5.33,-13.37,0.00,0.00,0.00,32.17,32.17,852.0,0.00,0.00,995.19,487.2,-0.451,-0.903,-9.658
2025-08-07T18:10:41.250707,1.46,-7.08,-13.32,0.00,0.00,0.00,32.19,32.19,837.0,0.00,0.00,995.19,487.4,0.277,-1.338,-10.772
2025-08-07T18:10:41.472669,-1.92,-7.72,-13.28,0.00,0.00,0.00,32.19,32.19,840.0,0.00,0.00,995.19,487.6,-0.304,-1.217,-8.979
2025-08-07T18:10:41.696373,0.88,-7.96,-13.25,0.00,0.00,0.00,32.16,32.16,846.0,0.00,0.00,995.19,487.9,0.142,-1.290,-9.231
2025-08-07T18:10:41.925632,0.48,-7.76,-13.23,0.00,0.00,0.00,32.16,32.16,843.0,0.00,0.00,995.19,488.1,0.079,-1.275,-9.349
2025-08-07T18:10:42.139860,-0.49,-8.38,-13.22,0.00,0.00,0.00,32.16,32.16,854.0,0.00,0.00,995.19,488.3,-0.081,-1.377,-9.341
2025-08-07T18:10:42.592626,0.58,-11.01,-13.19,0.00,0.00,0.00,32.18,32.18,835.0,0.00,0.00,995.19,488.8,0.096,-1.809,-9.298
2025-08-07T18:10:42.806698,-0.08,-11.24,-13.18,0.00,0.00,0.00,32.20,32.20,824.0,0.00,0.00,995.19,489.0,-0.013,-1.933,-9.729
2025-08-07T18:10:43.030759,0.24,-11.52,-13.18,0.00,0.00,0.00,32.18,32.18,824.0,0.00,0.00,995.19,489.2,0.041,-1.901,-9.328
2025-08-07T18:10:43.251810,-0.92,-11.63,-13.18,0.00,0.00,0.00,32.18,32.18,835.0,0.00,0.00,995.19,489.4,-0.152,-1.908,-9.269
2025-08-07T18:10:43.473586,-0.28,-11.04,-13.19,0.00,0.00,0.00,32.19,32.19,829.0,0.00,0.00,995.19,489.7,-0.047,-1.839,-9.424
2025-08-07T18:10:43.697401,-0.83,-10.57,-13.18,0.00,0.00,0.00,32.20,32.20,836.0,0.00,0.00,995.19,489.9,-0.136,-1.729,-9.260
2025-08-07T18:10:43.918558,-1.07,-11.19,-13.19,0.00,0.00,0.00,32.18,32.18,836.0,0.00,0.00,995.19,490.1,-0.177,-1.839,-9.295
2025-08-07T18:10:44.148519,-4.88,-9.22,-13.21,0.00,0.00,0.00,32.18,32.18,825.0,0.00,0.00,995.19,490.3,-0.741,-1.395,-8.564
2025-08-07T18:10:44.363929,-4.18,-12.98,-13.24,0.00,0.00,0.00,32.20,32.20,796.0,0.00,0.00,995.19,490.5,-0.748,-2.306,-9.975
2025-08-07T18:10:44.585512,-2.17,-14.50,-13.28,0.00,0.00,0.00,32.18,32.18,778.0,0.00,0.00,995.19,490.8,-0.486,-3.213,-12.416
2025-08-07T18:10:44.819539,10.28,-11.76,-13.42,0.00,0.00,0.00,32.19,32.19,830.0,0.00,0.00,995.19,491.0,1.341,-1.531,-7.229
2025-08-07T18:10:45.030941,0.95,0.52,-13.46,0.00,0.00,0.00,32.20,32.20,902.0,0.00,0.00,995.19,491.2,0.120,0.066,-7.215
2025-08-07T18:10:45.253651,2.64,-4.94,-13.35,0.00,0.00,0.00,32.23,32.23,910.0,0.00,0.00,995.19,491.4,0.406,-0.759,-8.772
2025-08-07T18:10:45.484315,-1.77,-11.27,-13.21,0.00,0.00,0.00,32.21,32.21,848.0,0.00,0.00,995.19,491.7,-0.336,-2.133,-10.696
2025-08-07T18:10:45.930008,-3.03,4.88,-13.35,0.00,0.00,0.00,32.22,32.22,791.0,0.00,0.00,995.19,492.1,-0.381,0.613,-7.162
2025-08-07T18:10:46.149477,-16.35,-5.71,-13.78,0.00,0.00,0.00,32.21,32.21,567.0,0.00,0.00,995.19,492.3,-2.447,-0.866,-8.296
2025-08-07T18:10:46.364872,-40.72,3.20,-13.97,0.00,0.00,0.00,32.21,32.21,378.0,0.00,0.00,995.19,492.5,-7.031,0.602,-8.146
2025-08-07T18:10:46.816652,-38.11,-8.30,-14.02,0.00,0.00,0.00,32.22,32.22,448.0,0.00,0.00,995.19,493.0,-6.017,-1.407,-7.542
2025-08-07T18:10:47.032099,-39.22,-25.81,-14.22,0.00,0.00,0.00,32.21,32.21,453.0,0.00,0.00,995.19,493.2,-5.492,-3.782,-5.567
2025-08-07T18:10:47.255932,-31.33,-29.27,-14.22,0.00,0.00,0.00,32.22,32.22,197.0,0.00,0.00,995.19,493.4,-5.493,-5.165,-7.400
2025-08-07T18:10:47.486001,-29.60,-34.53,-14.22,0.00,0.00,0.00,32.25,32.25,208.0,0.00,0.00,995.19,493.7,-4.593,-5.272,-6.132
2025-08-07T18:10:48.144761,-54.09,-17.92,-13.91,0.00,0.00,0.00,32.24,32.24,192.0,0.00,0.00,995.20,494.3,-8.096,-3.075,-4.992
2025-08-07T18:10:48.365839,-68.49,-4.68,-13.76,0.00,0.00,0.00,32.24,32.24,228.0,0.00,0.00,995.20,494.5,-9.459,-0.830,-3.634
2025-08-07T18:10:48.588855,-71.00,10.56,-13.14,0.00,0.00,0.00,32.25,32.25,293.0,0.00,0.00,995.20,494.8,-9.031,1.750,-2.571
2025-08-07T18:10:48.810866,-35.51,34.11,-12.95,0.00,0.00,0.00,32.23,32.23,410.0,0.00,0.00,995.20,495.0,-4.536,4.379,-4.608
2025-08-07T18:10:49.040791,-28.44,20.77,-13.06,0.00,0.00,0.00,32.24,32.24,206.0,0.00,0.00,995.20,495.2,-4.588,3.418,-7.754
2025-08-07T18:10:49.264250,-35.31,6.97,-13.18,0.00,0.00,0.00,32.25,32.25,219.0,0.00,0.00,995.20,495.4,-6.973,1.464,-9.735
2025-08-07T18:10:49.476418,-33.60,-9.53,-13.41,0.00,0.00,0.00,32.26,32.26,192.0,0.00,0.00,995.19,495.7,-5.104,-1.526,-7.529
2025-08-07T18:10:49.707934,-34.29,-14.57,-13.54,0.00,0.00,0.00,32.24,32.24,264.0,0.00,0.00,995.20,495.9,-5.635,-2.516,-7.872
2025-08-07T18:10:49.921261,-33.79,-18.79,-13.55,0.00,0.00,0.00,32.24,32.24,501.0,0.00,0.00,995.20,496.1,-5.224,-3.026,-7.197
2025-08-07T18:10:50.143407,-32.73,-18.65,-13.54,0.00,0.00,0.00,32.26,32.26,469.0,0.00,0.00,995.20,496.3,-5.097,-3.014,-7.336
2025-08-07T18:10:50.366633,-32.63,-18.02,-13.55,0.00,0.00,0.00,32.25,32.25,314.0,0.00,0.00,995.20,496.5,-5.236,-3.004,-7.608
2025-08-07T18:10:50.588182,-31.76,-17.28,-13.52,0.00,0.00,0.00,32.25,32.25,322.0,0.00,0.00,995.20,496.8,-5.131,-2.896,-7.767
2025-08-07T18:10:50.810253,-20.01,-12.09,-13.44,0.00,0.00,0.00,32.25,32.25,577.0,0.00,0.00,995.20,497.0,-3.572,-2.186,-9.560
2025-08-07T18:10:51.033709,-2.58,-18.54,-13.49,0.00,0.00,0.00,32.27,32.27,627.0,0.00,0.00,995.20,497.2,-0.469,-3.311,-9.861
2025-08-07T18:10:51.254180,4.02,-19.18,-13.62,0.00,0.00,0.00,32.27,32.27,632.0,0.00,0.00,995.20,497.4,0.693,-3.249,-9.317
2025-08-07T18:10:51.488342,8.11,-15.16,-13.82,0.00,0.00,0.00,32.29,32.29,684.0,0.00,0.00,995.20,497.7,1.421,-2.634,-9.618
2025-08-07T18:10:51.700540,-0.20,-16.86,-13.82,0.00,0.00,0.00,32.27,32.27,756.0,0.00,0.00,995.19,497.9,-0.031,-2.635,-8.692
2025-08-07T18:10:51.922099,-3.06,-11.08,-13.88,0.00,0.00,0.00,32.27,32.27,478.0,0.00,0.00,995.19,498.1,-0.505,-1.818,-9.275
2025-08-07T18:10:52.144147,4.77,-4.08,-13.83,0.00,0.00,0.00,32.29,32.29,537.0,0.00,0.00,995.19,498.3,0.712,-0.609,-8.508
2025-08-07T18:10:52.367707,7.39,10.51,-13.60,0.00,0.00,0.00,32.29,32.29,624.0,0.00,0.00,995.19,498.5,0.958,1.359,-7.262
2025-08-07T18:10:52.587106,16.46,-0.25,-13.29,0.00,0.00,0.00,32.29,32.29,657.0,0.00,0.00,995.19,498.8,3.073,-0.047,-10.403
2025-08-07T18:10:52.814300,18.42,-8.73,-12.99,0.00,0.00,0.00,32.28,32.28,692.0,0.00,0.00,995.19,499.0,3.084,-1.482,-9.142
2025-08-07T18:10:53.042443,18.29,-15.98,-12.66,0.00,0.00,0.00,32.28,32.28,1089.0,0.00,0.00,995.18,499.2,2.884,-2.531,-8.351
2025-08-07T18:10:53.486760,15.78,-15.97,-11.95,0.00,0.00,0.00,32.31,32.31,1049.0,0.00,0.00,995.18,499.7,2.752,-2.786,-9.335
2025-08-07T18:10:53.709458,12.32,-15.88,-11.64,0.00,0.00,0.00,32.30,32.30,450.0,0.00,0.00,995.18,499.9,2.128,-2.728,-9.354
2025-08-07T18:10:53.927920,9.75,-18.58,-11.38,0.00,0.00,0.00,32.31,32.31,460.0,0.00,0.00,995.18,500.1,1.621,-3.051,-8.929
2025-08-07T18:10:54.145064,11.18,-16.91,-11.21,0.00,0.00,0.00,32.31,32.31,456.0,0.00,0.00,995.18,500.3,1.927,-2.891,-9.310
2025-08-07T18:10:54.372949,14.46,-23.68,-11.35,0.00,0.00,0.00,32.31,32.31,390.0,0.00,0.00,995.18,500.5,2.630,-4.228,-9.278
2025-08-07T18:10:54.597995,9.24,-21.55,-11.64,0.00,0.00,0.00,32.30,32.30,392.0,0.00,0.00,995.18,500.8,1.598,-3.656,-9.121
2025-08-07T18:10:54.812248,6.17,-17.34,-12.05,0.00,0.00,0.00,32.30,32.30,502.0,0.00,0.00,995.18,501.0,0.888,-2.464,-7.839
2025-08-07T18:10:55.036144,-2.93,-3.47,-12.41,0.00,0.00,0.00,32.31,32.31,383.0,0.00,0.00,995.17,501.2,-0.470,-0.557,-9.177
2025-08-07T18:10:55.265201,-14.48,-8.47,-12.74,0.00,0.00,0.00,32.31,32.31,301.0,0.00,0.00,995.17,501.4,-2.382,-1.403,-9.120
2025-08-07T18:10:55.479006,-18.99,-9.65,-13.01,0.00,0.00,0.00,32.29,32.29,330.0,0.00,0.00,995.17,501.7,-3.381,-1.741,-9.668
2025-08-07T18:10:55.710781,-13.17,-11.63,-12.98,0.00,0.00,0.00,32.32,32.32,686.0,0.00,0.00,995.17,501.9,-2.385,-2.109,-9.968
2025-08-07T18:10:55.938618,-11.15,-17.63,-12.94,0.00,0.00,0.00,32.30,32.30,375.0,0.00,0.00,995.17,502.1,-1.939,-3.036,-9.355
2025-08-07T18:10:56.146037,-10.88,-12.73,-12.93,0.00,0.00,0.00,32.30,32.30,282.0,0.00,0.00,995.17,502.3,-1.796,-2.097,-9.108
2025-08-07T18:10:56.369250,-8.37,-13.40,-12.94,0.00,0.00,0.00,32.31,32.31,262.0,0.00,0.00,995.17,502.5,-1.464,-2.332,-9.679
2025-08-07T18:10:56.598966,-7.50,-14.39,-12.96,0.00,0.00,0.00,32.29,32.29,274.0,0.00,0.00,995.17,502.8,-1.173,-2.235,-8.629
2025-08-07T18:10:56.813100,-11.46,-13.28,-12.97,0.00,0.00,0.00,32.30,32.30,269.0,0.00,0.00,995.17,503.0,-2.006,-2.320,-9.621
2025-08-07T18:10:57.036271,-17.34,-11.10,-13.00,0.00,0.00,0.00,32.30,32.30,303.0,0.00,0.00,995.17,503.2,-2.295,-1.482,-7.197
2025-08-07T18:10:57.258207,-8.02,-15.94,-13.11,0.00,0.00,0.00,32.30,32.30,307.0,0.00,0.00,995.17,503.4,-1.322,-2.601,-9.012
2025-08-07T18:10:57.488379,-18.95,-29.81,-13.59,0.00,0.00,0.00,32.30,32.30,305.0,0.00,0.00,995.17,503.7,-2.960,-4.532,-7.335
2025-08-07T18:10:57.703787,-16.39,-25.03,-13.81,0.00,0.00,0.00,32.30,32.30,577.0,0.00,0.00,995.17,503.9,-3.055,-4.581,-9.325
2025-08-07T18:10:57.929244,-21.81,-27.13,-13.92,0.00,0.00,0.00,32.30,32.30,559.0,0.00,0.00,995.16,504.1,-4.154,-5.098,-9.041
2025-08-07T18:10:58.154806,-16.00,-31.96,-13.77,0.00,0.00,0.00,32.31,32.31,536.0,0.00,0.00,995.16,504.3,-2.687,-5.161,-7.824
2025-08-07T18:10:58.378198,-6.87,-34.78,-13.64,0.00,0.00,0.00,32.31,32.31,533.0,0.00,0.00,995.17,504.5,-1.158,-5.519,-7.860
2025-08-07T18:10:58.592194,-10.56,-39.08,-13.59,0.00,0.00,0.00,32.32,32.32,543.0,0.00,0.00,995.17,504.8,-1.535,-5.282,-6.319
2025-08-07T18:10:58.822326,-12.97,-36.74,-13.66,0.00,0.00,0.00,32.33,32.33,550.0,0.00,0.00,995.17,505.0,-2.109,-5.623,-7.232
2025-08-07T18:10:59.037223,-19.49,-32.38,-13.57,0.00,0.00,0.00,32.32,32.32,558.0,0.00,0.00,995.17,505.2,-3.499,-5.616,-8.137
2025-08-07T18:10:59.258791,-24.16,-15.88,-13.28,0.00,0.00,0.00,32.34,32.34,569.0,0.00,0.00,995.17,505.4,-5.472,-3.658,-11.635
2025-08-07T18:10:59.478778,-22.76,-17.42,-12.93,0.00,0.00,0.00,32.33,32.33,317.0,0.00,0.00,995.18,505.7,-3.936,-3.045,-8.872
2025-08-07T18:10:59.705720,-10.61,-4.47,-12.68,0.00,0.00,0.00,32.33,32.33,325.0,0.00,0.00,995.17,505.9,-1.616,-0.684,-8.600
2025-08-07T18:10:59.925741,2.06,9.08,-12.41,0.00,0.00,0.00,32.32,32.32,455.0,0.00,0.00,995.17,506.1,0.304,1.337,-8.363
2025-08-07T18:11:00.147939,14.29,12.74,-12.08,0.00,0.00,0.00,32.33,32.33,1128.0,0.00,0.00,995.17,506.3,1.709,1.528,-6.535
2025-08-07T18:11:00.371047,21.60,-14.27,-11.64,0.00,0.00,0.00,32.33,32.33,1075.0,0.00,0.00,995.17,506.5,3.129,-2.095,-7.621
2025-08-07T18:11:00.592892,29.61,-26.21,-11.69,0.00,0.00,0.00,32.34,32.34,535.0,0.00,0.00,995.17,506.8,5.935,-5.304,-8.995
2025-08-07T18:11:00.814875,26.57,-33.34,-12.21,0.00,0.00,0.00,32.33,32.33,1246.0,0.00,0.00,995.17,507.0,5.344,-6.567,-8.431
2025-08-07T18:11:01.038290,26.46,-12.36,-12.64,0.00,0.00,0.00,32.33,32.33,1388.0,0.00,0.00,995.16,507.2,3.268,-1.571,-6.376
2025-08-07T18:11:01.259715,34.12,11.69,-12.92,0.00,0.00,0.00,32.37,32.37,1447.0,0.00,0.00,995.16,507.4,5.697,2.058,-8.152
2025-08-07T18:11:01.487753,10.23,10.44,-13.14,0.00,0.00,0.00,32.34,32.34,1218.0,0.00,0.00,995.16,507.7,1.693,1.726,-9.215
2025-08-07T18:11:01.705473,12.32,-10.37,-13.16,0.00,0.00,0.00,32.33,32.33,935.0,0.00,0.00,995.16,507.9,2.058,-1.736,-9.263
2025-08-07T18:11:01.929124,11.59,-7.27,-13.18,0.00,0.00,0.00,32.33,32.33,686.0,0.00,0.00,995.16,508.1,2.211,-1.392,-10.691
2025-08-07T18:11:02.148632,22.44,-15.19,-13.37,0.00,0.00,0.00,32.33,32.33,727.0,0.00,0.00,995.16,508.3,3.836,-2.632,-8.906
2025-08-07T18:11:02.371992,4.09,-12.95,-13.72,0.00,0.00,0.00,32.33,32.33,577.0,0.00,0.00,995.15,508.5,0.618,-1.939,-8.408
2025-08-07T18:11:02.601559,-4.32,-8.38,-14.03,0.00,0.00,0.00,32.34,32.34,526.0,0.00,0.00,995.15,508.8,-0.694,-1.343,-9.086
2025-08-07T18:11:02.819608,-7.49,-6.12,-14.23,0.00,0.00,0.00,32.36,32.36,508.0,0.00,0.00,995.15,509.0,-1.296,-1.059,-9.802
2025-08-07T18:11:03.047089,-14.14,-2.82,-14.19,0.00,0.00,0.00,32.35,32.35,470.0,0.00,0.00,995.15,509.2,-2.473,-0.498,-9.808
2025-08-07T18:11:03.260511,-8.44,-7.55,-13.97,0.00,0.00,0.00,32.34,32.34,447.0,0.00,0.00,995.15,509.4,-1.408,-1.261,-9.408
2025-08-07T18:11:03.482509,-0.93,-8.74,-13.71,0.00,0.00,0.00,32.35,32.35,472.0,0.00,0.00,995.15,509.7,-0.153,-1.432,-9.307
2025-08-07T18:11:03.705931,0.46,-7.02,-13.45,0.00,0.00,0.00,32.36,32.36,645.0,0.00,0.00,995.15,509.9,0.081,-1.231,-9.987
2025-08-07T18:11:03.927674,0.73,-7.23,-13.14,0.00,0.00,0.00,32.34,32.34,994.0,0.00,0.00,995.15,510.1,0.122,-1.204,-9.491
2025-08-07T18:11:04.151229,10.74,-7.72,-12.98,0.00,0.00,0.00,32.36,32.36,1003.0,0.00,0.00,995.15,510.3,1.792,-1.292,-9.357
2025-08-07T18:11:04.380749,0.20,-3.25,-12.80,0.00,0.00,0.00,32.36,32.36,1014.0,0.00,0.00,995.15,510.5,0.037,-0.594,-10.466
2025-08-07T18:11:04.593635,3.93,-6.70,-12.77,0.00,0.00,0.00,32.36,32.36,972.0,0.00,0.00,995.14,510.8,0.676,-1.153,-9.789
2025-08-07T18:11:04.814815,0.00,-0.99,-12.74,0.00,0.00,0.00,32.39,32.39,996.0,0.00,0.00,995.14,511.0,0.000,-0.144,-8.319
2025-08-07T18:11:05.049108,1.21,-1.94,-12.61,0.00,0.00,0.00,32.37,32.37,1013.0,0.00,0.00,995.15,511.2,0.220,-0.354,-10.458
2025-08-07T18:11:05.261292,-3.56,-3.65,-12.63,0.00,0.00,0.00,32.37,32.37,1006.0,0.00,0.00,995.15,511.4,-0.582,-0.596,-9.319
2025-08-07T18:11:05.492681,-40.70,29.51,-12.76,0.00,0.00,0.00,32.38,32.38,527.0,0.00,0.00,995.15,511.7,-6.114,4.618,-5.404
2025-08-07T18:11:05.714659,-53.47,27.43,-12.77,0.00,0.00,0.00,32.37,32.37,729.0,0.00,0.00,995.15,511.9,-9.888,5.668,4.638
2025-08-07T18:11:05.928220,-44.24,5.42,-12.93,0.00,0.00,0.00,32.37,32.37,968.0,0.00,0.00,995.14,512.1,-9.481,1.284,9.652
2025-08-07T18:11:06.149490,-19.66,-0.12,-12.64,0.00,0.00,0.00,32.35,32.35,1074.5,0.00,0.00,995.14,512.3,-5.188,-0.034,14.526
2025-08-07T18:11:06.376372,15.20,-31.59,-12.31,0.00,0.00,0.00,32.37,32.37,2000.0,0.00,0.00,995.15,512.6,1.681,-3.357,5.194
2025-08-07T18:11:06.595702,-15.53,-7.99,-12.55,0.00,0.00,0.00,32.36,32.36,2000.0,0.00,0.00,995.15,512.8,-3.946,-2.048,14.054
2025-08-07T18:11:06.825358,-23.81,-12.76,-12.99,0.00,0.00,0.00,32.34,32.34,215.0,0.00,0.00,995.15,513.0,-5.113,-2.798,11.243
2025-08-07T18:11:07.040830,-40.70,-14.32,-12.65,0.00,0.00,0.00,32.33,32.33,349.0,0.00,0.00,995.14,513.2,-5.872,-2.227,6.454
2025-08-07T18:11:07.262339,-31.11,3.21,-12.57,0.00,0.00,0.00,32.32,32.32,387.0,0.00,0.00,995.14,513.4,-6.026,0.654,9.965
2025-08-07T18:11:07.487340,-9.04,-0.17,-12.71,0.00,0.00,0.00,32.32,32.32,429.6,0.00,0.00,995.14,513.7,-1.635,-0.031,10.272
2025-08-07T18:11:07.707667,2.27,-1.74,-12.71,0.00,0.00,0.00,32.28,32.28,859.1,0.00,0.00,995.15,513.9,0.409,-0.314,10.320
2025-08-07T18:11:07.930113,1.74,-1.68,-12.71,0.00,0.00,0.00,32.32,32.32,1290.6,0.00,0.00,995.15,514.1,0.314,-0.302,10.311
2025-08-07T18:11:08.159336,1.91,-1.88,-12.71,0.00,0.00,0.00,32.30,32.30,1720.2,0.00,0.00,995.15,514.3,0.329,-0.324,9.890
2025-08-07T18:11:08.374604,1.80,-1.65,-12.71,0.00,0.00,0.00,32.32,32.32,2000.0,0.00,0.00,995.15,514.6,0.332,-0.304,10.520
2025-08-07T18:11:08.596250,1.94,-1.75,-12.71,0.00,0.00,0.00,32.32,32.32,2000.0,0.00,0.00,995.15,514.8,0.350,-0.315,10.317
2025-08-07T18:11:09.041528,1.75,-1.55,-12.72,0.00,0.00,0.00,32.31,32.31,2000.0,0.00,0.00,995.15,515.2,0.317,-0.280,10.354
