TS,pitch,roll,yaw,vgx,vgy,vgz,templ,temph,tof,h,bat,baro,time,agx,agy,agz
2025-08-07T18:13:27.551823,3.31,-1.48,-17.22,0.00,0.00,0.00,32.30,32.30,2000.0,0.00,0.00,995.13,653.7,0.597,-0.268,10.331
2025-08-07T18:13:27.778824,3.43,-1.54,-17.22,0.00,0.00,0.00,32.32,32.32,2000.0,0.00,0.00,995.13,654.0,0.625,-0.281,10.421
2025-08-07T18:13:27.992377,3.20,-1.55,-17.22,0.00,0.00,0.00,32.28,32.28,2000.0,0.00,0.00,995.13,654.2,0.575,-0.278,10.262
2025-08-07T18:13:28.216374,3.35,-1.47,-17.22,0.00,0.00,0.00,32.27,32.27,2000.0,0.00,0.00,995.12,654.4,0.612,-0.268,10.449
2025-08-07T18:13:28.447828,3.09,-1.52,-17.22,0.00,0.00,0.00,32.28,32.28,2000.0,0.00,0.00,995.13,654.6,0.555,-0.273,10.291
2025-08-07T18:13:28.662533,3.35,-1.39,-17.22,0.00,0.00,0.00,32.28,32.28,2000.0,0.00,0.00,995.13,654.8,0.605,-0.251,10.332
2025-08-07T18:13:28.881099,3.25,-1.39,-17.22,0.00,0.00,0.00,32.25,32.25,2000.0,0.00,0.00,995.13,655.1,0.590,-0.253,10.405
2025-08-07T18:13:29.104420,3.31,-1.47,-17.22,0.00,0.00,0.00,32.28,32.28,2000.0,0.00,0.00,995.12,655.3,0.600,-0.266,10.353
2025-08-07T18:13:29.325688,4.75,3.96,-17.23,0.00,0.00,0.00,32.24,32.24,2000.0,0.00,0.00,995.12,655.5,0.803,0.669,9.645
2025-08-07T18:13:29.547892,2.93,-1.32,-17.23,0.00,0.00,0.00,32.25,32.25,2000.0,0.00,0.00,995.12,655.7,0.536,-0.242,10.487
2025-08-07T18:13:29.780996,5.91,-4.63,-16.87,0.00,0.00,0.00,32.23,32.23,2000.0,0.00,0.00,995.12,656.0,1.069,-0.839,10.297
2025-08-07T18:13:29.994447,3.92,-1.87,-16.77,0.00,0.00,0.00,32.23,32.23,2000.0,0.00,0.00,995.12,656.2,0.713,-0.340,10.415
2025-08-07T18:13:30.223417,13.84,-7.49,-16.48,0.00,0.00,0.00,32.22,32.22,2000.0,0.00,0.00,995.12,656.4,2.436,-1.328,9.798
2025-08-07T18:13:30.438194,2.52,1.02,-16.54,0.00,0.00,0.00,32.20,32.20,2000.0,0.00,0.00,995.12,656.6,0.456,0.184,10.345
2025-08-07T18:13:30.663529,10.64,-13.88,-16.81,0.00,0.00,0.00,32.22,32.22,2000.0,0.00,0.00,995.12,656.8,2.242,-2.911,11.570
2025-08-07T18:13:30.890225,26.26,-24.50,-17.30,0.00,0.00,0.00,32.20,32.20,174.0,0.00,0.00,995.12,657.1,6.126,-5.740,11.007
2025-08-07T18:13:31.106547,28.36,-1.78,-18.27,0.00,0.00,0.00,32.21,32.21,594.0,0.00,0.00,995.12,657.3,5.352,-0.350,9.911
2025-08-07T18:13:31.326708,36.71,6.00,-18.52,0.00,0.00,0.00,32.19,32.19,995.0,0.00,0.00,995.12,657.5,5.461,0.955,7.262
2025-08-07T18:13:31.552025,58.41,-7.05,-18.80,0.00,0.00,0.00,32.20,32.20,1003.0,0.00,0.00,995.12,657.7,9.376,-1.352,5.606
2025-08-07T18:13:31.992345,48.52,8.38,-18.94,0.00,0.00,0.00,32.19,32.19,912.0,0.00,0.00,995.12,658.2,7.481,1.454,6.452
2025-08-07T18:13:32.216393,33.12,25.97,-18.47,0.00,0.00,0.00,32.18,32.18,1439.0,0.00,0.00,995.12,658.4,5.200,4.167,6.795
2025-08-07T18:13:32.439025,68.29,-20.18,-17.86,0.00,0.00,0.00,32.19,32.19,705.0,0.00,0.00,995.12,658.6,11.558,-4.292,1.658
2025-08-07T18:13:32.668757,49.66,-40.06,-17.67,0.00,0.00,0.00,32.20,32.20,594.0,0.00,0.00,995.12,658.8,6.680,-5.641,0.611
2025-08-07T18:13:32.882701,25.43,-62.78,-17.35,0.00,0.00,0.00,32.19,32.19,532.0,0.00,0.00,995.12,659.1,4.344,-8.997,-1.597
2025-08-07T18:13:33.117187,23.47,-61.23,-17.23,0.00,0.00,0.00,32.17,32.17,465.0,0.00,0.00,995.12,659.3,4.040,-8.891,-2.739
2025-08-07T18:13:33.327628,20.51,-58.22,-17.02,0.00,0.00,0.00,32.17,32.17,602.0,0.00,0.00,995.12,659.5,3.128,-7.588,-3.509
2025-08-07T18:13:33.549558,6.03,-52.51,-16.85,0.00,0.00,0.00,32.20,32.20,988.0,0.00,0.00,995.12,659.7,1.150,-8.687,-6.564
2025-08-07T18:13:33.992760,9.99,-48.21,-17.26,0.00,0.00,0.00,32.18,32.18,708.0,0.00,0.00,995.12,660.2,1.944,-8.355,-7.210
2025-08-07T18:13:34.224656,24.20,-44.30,-17.43,0.00,0.00,0.00,32.20,32.20,733.0,0.00,0.00,995.12,660.4,4.241,-7.226,-6.070
2025-08-07T18:13:34.441326,26.71,-49.97,-17.38,0.00,0.00,0.00,32.18,32.18,911.0,0.00,0.00,995.12,660.6,4.268,-7.271,-4.369
2025-08-07T18:13:34.662038,38.90,-38.14,-17.44,0.00,0.00,0.00,32.19,32.19,919.0,0.00,0.00,995.12,660.8,5.413,-5.324,-4.083
2025-08-07T18:13:34.884139,34.10,-33.85,-17.64,0.00,0.00,0.00,32.17,32.17,937.0,0.00,0.00,995.12,661.1,5.420,-5.386,-5.926
2025-08-07T18:13:35.107093,46.25,-11.34,-18.01,0.00,0.00,0.00,32.19,32.19,908.0,0.00,0.00,995.12,661.3,6.764,-1.841,-6.208
2025-08-07T18:13:35.339789,36.34,-26.74,-18.00,0.00,0.00,0.00,32.16,32.16,733.0,0.00,0.00,995.12,661.5,6.136,-4.660,-6.919
2025-08-07T18:13:35.550486,36.31,-17.47,-18.02,0.00,0.00,0.00,32.18,32.18,692.0,0.00,0.00,995.12,661.7,6.038,-3.061,-7.624
2025-08-07T18:13:35.776059,30.15,-20.41,-17.87,0.00,0.00,0.00,32.18,32.18,614.0,0.00,0.00,995.13,662.0,5.018,-3.484,-7.906
2025-08-07T18:13:35.995533,27.42,-18.41,-17.94,0.00,0.00,0.00,32.18,32.18,566.0,0.00,0.00,995.13,662.2,4.417,-3.029,-7.957
2025-08-07T18:13:36.226869,27.84,-15.22,-18.02,0.00,0.00,0.00,32.19,32.19,562.0,0.00,0.00,995.13,662.4,4.332,-2.436,-7.833
2025-08-07T18:13:36.440932,31.06,-21.81,-18.23,0.00,0.00,0.00,32.18,32.18,514.0,0.00,0.00,995.13,662.6,5.125,-3.689,-7.666
2025-08-07T18:13:36.662643,30.94,-13.20,-18.32,0.00,0.00,0.00,32.19,32.19,456.0,0.00,0.00,995.13,662.8,4.800,-2.132,-7.718
2025-08-07T18:13:36.885220,32.51,-16.57,-18.08,0.00,0.00,0.00,32.17,32.17,450.0,0.00,0.00,995.13,663.1,5.770,-3.062,-8.520
2025-08-07T18:13:37.107827,33.08,-13.56,-17.76,0.00,0.00,0.00,32.16,32.16,512.0,0.00,0.00,995.13,663.3,4.701,-2.020,-6.929
2025-08-07T18:13:37.329484,22.06,-28.71,-17.59,0.00,0.00,0.00,32.18,32.18,605.0,0.00,0.00,995.13,663.5,3.365,-4.304,-7.101
2025-08-07T18:13:37.549771,28.51,-25.72,-17.82,0.00,0.00,0.00,32.19,32.19,608.0,0.00,0.00,995.13,663.7,4.575,-4.161,-7.325
2025-08-07T18:13:37.774428,29.01,-15.00,-18.10,0.00,0.00,0.00,32.18,32.18,535.0,0.00,0.00,995.13,664.0,4.894,-2.611,-8.429
2025-08-07T18:13:38.004080,27.69,-20.13,-18.34,0.00,0.00,0.00,32.17,32.17,469.0,0.00,0.00,995.13,664.2,5.018,-3.717,-8.811
2025-08-07T18:13:38.443129,33.61,-17.71,-18.18,0.00,0.00,0.00,32.18,32.18,455.0,0.00,0.00,995.14,664.6,6.576,-3.614,-9.210
2025-08-07T18:13:38.663117,25.33,-27.74,-17.75,0.00,0.00,0.00,32.17,32.17,606.0,0.00,0.00,995.14,664.8,3.897,-4.239,-7.056
2025-08-07T18:13:38.893013,15.02,-34.39,-17.55,0.00,0.00,0.00,32.19,32.19,660.0,0.00,0.00,995.14,665.1,2.444,-5.328,-7.390
2025-08-07T18:13:39.108392,13.96,-31.19,-17.62,0.00,0.00,0.00,32.17,32.17,575.0,0.00,0.00,995.14,665.3,2.336,-5.013,-7.945
2025-08-07T18:13:39.560209,15.67,-20.68,-18.17,0.00,0.00,0.00,32.17,32.17,430.0,0.00,0.00,995.13,665.7,2.640,-3.450,-8.752
2025-08-07T18:13:40.219677,32.28,-18.86,-18.16,0.00,0.00,0.00,32.18,32.18,531.0,0.00,0.00,995.14,666.4,5.252,-3.179,-7.682
2025-08-07T18:13:40.442547,36.71,-33.43,-18.52,0.00,0.00,0.00,32.17,32.17,654.0,0.00,0.00,995.14,666.6,6.691,-6.166,-6.519
2025-08-07T18:13:40.678899,74.91,-1.42,-19.49,0.00,0.00,0.00,32.19,32.19,886.0,0.00,0.00,995.14,666.9,10.430,-0.268,-2.799
2025-08-07T18:13:40.886627,31.73,42.79,-19.67,0.00,0.00,0.00,32.19,32.19,731.0,0.00,0.00,995.14,667.1,5.194,6.709,5.054
2025-08-07T18:13:41.109644,51.12,9.69,-19.75,0.00,0.00,0.00,32.18,32.18,1298.0,0.00,0.00,995.14,667.3,6.628,1.433,5.149
2025-08-07T18:13:41.331091,46.48,41.06,-19.72,0.00,0.00,0.00,32.17,32.17,914.0,0.00,0.00,995.14,667.5,6.861,6.214,1.957
2025-08-07T18:13:41.555252,41.33,43.63,-19.73,0.00,0.00,0.00,32.17,32.17,305.0,0.00,0.00,995.14,667.7,7.574,7.914,3.400
2025-08-07T18:13:41.784497,15.03,58.08,-20.14,0.00,0.00,0.00,32.17,32.17,342.0,0.00,0.00,995.14,668.0,2.743,8.977,4.873
2025-08-07T18:13:41.998113,0.65,20.26,-20.40,0.00,0.00,0.00,32.16,32.16,890.0,0.00,0.00,995.14,668.2,0.110,3.377,9.148
2025-08-07T18:13:42.224499,2.38,9.79,-20.59,0.00,0.00,0.00,32.18,32.18,122.0,0.00,0.00,995.14,668.4,0.413,1.689,9.778
2025-08-07T18:13:42.444249,3.13,5.20,-20.59,0.00,0.00,0.00,32.17,32.17,135.4,0.00,0.00,995.14,668.6,0.565,0.940,10.302
2025-08-07T18:13:42.672616,-0.52,12.55,-20.60,0.00,0.00,0.00,32.17,32.17,271.4,0.00,0.00,995.14,668.9,-0.095,2.259,10.150
2025-08-07T18:13:42.886952,0.16,12.68,-20.59,0.00,0.00,0.00,32.17,32.17,406.9,0.00,0.00,995.14,669.1,0.029,2.289,10.174
2025-08-07T18:13:43.120659,-0.41,11.56,-20.59,0.00,0.00,0.00,32.15,32.15,542.3,0.00,0.00,995.13,669.3,-0.072,2.016,9.856
2025-08-07T18:13:43.332641,1.50,25.03,-20.37,0.00,0.00,0.00,32.16,32.16,678.3,0.00,0.00,995.13,669.5,0.254,4.099,8.775
2025-08-07T18:13:43.553824,6.22,47.86,-20.31,0.00,0.00,0.00,32.17,32.17,446.0,0.00,0.00,995.13,669.7,1.182,8.085,7.221
2025-08-07T18:13:43.777360,10.88,43.42,-20.32,0.00,0.00,0.00,32.16,32.16,882.0,0.00,0.00,995.13,670.0,1.908,6.948,7.089
2025-08-07T18:13:43.998948,9.95,41.98,-20.31,0.00,0.00,0.00,32.17,32.17,999.0,0.00,0.00,995.13,670.2,1.727,6.686,7.227
2025-08-07T18:13:44.229854,7.68,41.31,-20.30,0.00,0.00,0.00,32.17,32.17,953.0,0.00,0.00,995.13,670.4,1.361,6.724,7.529
2025-08-07T18:13:44.444405,9.74,40.60,-20.28,0.00,0.00,0.00,32.17,32.17,1027.0,0.00,0.00,995.13,670.6,1.713,6.591,7.496
2025-08-07T18:13:44.665808,9.51,40.95,-20.26,0.00,0.00,0.00,32.16,32.16,879.0,0.00,0.00,995.13,670.9,1.687,6.693,7.525
2025-08-07T18:13:44.887876,6.42,40.97,-20.26,0.00,0.00,0.00,32.18,32.18,782.0,0.00,0.00,995.13,671.1,1.123,6.588,7.502
2025-08-07T18:13:45.119361,9.52,40.34,-20.27,0.00,0.00,0.00,32.18,32.18,905.0,0.00,0.00,995.13,671.3,1.659,6.492,7.462
2025-08-07T18:13:45.340718,9.58,44.82,-19.93,0.00,0.00,0.00,32.19,32.19,914.0,0.00,0.00,995.13,671.5,1.820,7.703,7.536
2025-08-07T18:13:45.552844,65.69,8.37,-19.72,0.00,0.00,0.00,32.18,32.18,910.0,0.00,0.00,995.12,671.7,6.761,1.080,2.857
2025-08-07T18:13:45.778289,72.39,7.75,-19.62,0.00,0.00,0.00,32.18,32.18,642.0,0.00,0.00,995.12,672.0,9.129,1.292,-2.594
2025-08-07T18:13:46.007890,31.41,-15.06,-19.22,0.00,0.00,0.00,32.16,32.16,783.0,0.00,0.00,995.12,672.2,6.294,-3.139,-9.820
2025-08-07T18:13:46.445452,-4.62,-9.21,-19.13,0.00,0.00,0.00,32.16,32.16,490.0,0.00,0.00,995.13,672.6,-0.875,-1.739,-10.691
2025-08-07T18:13:46.696998,-4.19,-12.55,-19.17,0.00,0.00,0.00,32.17,32.17,499.0,0.00,0.00,995.13,672.9,-0.748,-2.224,-9.965
2025-08-07T18:13:46.886781,2.54,-11.26,-19.28,0.00,0.00,0.00,32.18,32.18,451.0,0.00,0.00,995.13,673.1,0.420,-1.851,-9.288
2025-08-07T18:13:47.112199,5.59,-19.33,-19.25,0.00,0.00,0.00,32.15,32.15,437.0,0.00,0.00,995.13,673.3,1.067,-3.624,-10.277
2025-08-07T18:13:47.333731,10.00,-28.57,-19.11,0.00,0.00,0.00,32.17,32.17,437.0,0.00,0.00,995.13,673.5,1.942,-5.350,-9.631
2025-08-07T18:13:47.555894,6.85,-35.92,-19.10,0.00,0.00,0.00,32.17,32.17,518.0,0.00,0.00,995.13,673.7,1.289,-6.340,-8.655
2025-08-07T18:13:47.779195,7.48,-39.50,-19.02,0.00,0.00,0.00,32.18,32.18,672.0,0.00,0.00,995.13,674.0,1.061,-5.180,-6.193
2025-08-07T18:13:48.239657,9.20,-28.66,-19.04,0.00,0.00,0.00,32.18,32.18,691.0,0.00,0.00,995.13,674.4,1.531,-4.596,-8.266
2025-08-07T18:13:48.454045,8.77,-24.31,-19.22,0.00,0.00,0.00,32.18,32.18,547.0,0.00,0.00,995.13,674.6,1.690,-4.565,-9.963
2025-08-07T18:13:48.667646,12.70,-25.25,-19.31,0.00,0.00,0.00,32.18,32.18,451.0,0.00,0.00,995.13,674.9,2.322,-4.505,-9.266
2025-08-07T18:13:48.889584,12.32,-25.35,-19.33,0.00,0.00,0.00,32.16,32.16,463.0,0.00,0.00,995.13,675.1,2.277,-4.568,-9.369
2025-08-07T18:13:49.113180,11.52,-29.29,-19.30,0.00,0.00,0.00,32.20,32.20,496.0,0.00,0.00,995.13,675.3,2.039,-4.994,-8.666
2025-08-07T18:13:49.334546,13.36,-35.41,-19.35,0.00,0.00,0.00,32.19,32.19,597.0,0.00,0.00,995.13,675.5,2.158,-5.413,-7.301
2025-08-07T18:13:49.556154,12.50,-40.19,-19.37,0.00,0.00,0.00,32.19,32.19,676.0,0.00,0.00,995.13,675.7,2.052,-6.117,-6.946
2025-08-07T18:13:49.785781,14.09,-42.81,-19.35,0.00,0.00,0.00,32.18,32.18,696.0,0.00,0.00,995.13,676.0,2.386,-6.658,-6.780
2025-08-07T18:13:50.001577,16.49,-40.32,-19.41,0.00,0.00,0.00,32.18,32.18,589.0,0.00,0.00,995.13,676.2,2.807,-6.400,-6.999
2025-08-07T18:13:50.224111,22.20,-40.39,-19.76,0.00,0.00,0.00,32.19,32.19,593.0,0.00,0.00,995.13,676.4,3.865,-6.628,-6.765
2025-08-07T18:13:50.447071,40.45,-35.22,-20.03,0.00,0.00,0.00,32.20,32.20,741.0,0.00,0.00,995.13,676.6,6.560,-5.832,-5.019
2025-08-07T18:13:50.668559,50.68,-31.58,-20.26,0.00,0.00,0.00,32.20,32.20,1034.0,0.00,0.00,995.13,676.9,8.289,-5.611,-3.822
2025-08-07T18:13:50.904396,62.36,-23.84,-20.51,0.00,0.00,0.00,32.19,32.19,1270.0,0.00,0.00,995.13,677.1,9.285,-4.237,-2.385
2025-08-07T18:13:51.113985,72.88,-15.95,-20.71,0.00,0.00,0.00,32.20,32.20,896.0,0.00,0.00,995.13,677.3,8.673,-2.494,-0.958
2025-08-07T18:13:51.338408,81.64,-3.96,-21.02,0.00,0.00,0.00,32.19,32.19,580.0,0.00,0.00,995.14,677.5,9.663,-0.675,-1.249
2025-08-07T18:13:51.565626,64.56,25.42,-21.14,0.00,0.00,0.00,32.20,32.20,550.0,0.00,0.00,995.14,677.7,10.250,4.872,-0.207
2025-08-07T18:13:51.780945,55.78,32.39,-21.33,0.00,0.00,0.00,32.20,32.20,594.0,0.00,0.00,995.13,678.0,8.401,5.442,1.739
2025-08-07T18:13:52.002453,38.14,43.21,-21.50,0.00,0.00,0.00,32.19,32.19,571.0,0.00,0.00,995.13,678.2,6.032,6.687,3.779
2025-08-07T18:13:52.448168,49.14,-19.30,-19.73,0.00,0.00,0.00,32.22,32.22,700.0,0.00,0.00,995.13,678.6,8.139,-3.557,-6.075
2025-08-07T18:13:52.670619,27.46,-28.92,-19.40,0.00,0.00,0.00,32.21,32.21,792.0,0.00,0.00,995.13,678.9,5.136,-5.387,-8.286
2025-08-07T18:13:52.891378,13.88,-29.03,-19.37,0.00,0.00,0.00,32.23,32.23,609.0,0.00,0.00,995.13,679.1,2.465,-4.986,-8.639
2025-08-07T18:13:53.122864,12.17,-28.45,-19.21,0.00,0.00,0.00,32.22,32.22,511.0,0.00,0.00,995.14,679.3,2.339,-5.286,-9.473
2025-08-07T18:13:53.558110,18.44,-14.73,-19.04,0.00,0.00,0.00,32.21,32.21,499.0,0.00,0.00,995.14,679.7,3.120,-2.508,-9.015
2025-08-07T18:13:53.789856,6.35,-24.68,-18.97,0.00,0.00,0.00,32.22,32.22,548.0,0.00,0.00,995.14,680.0,1.058,-3.995,-8.630
2025-08-07T18:13:54.005284,10.07,-25.69,-19.12,0.00,0.00,0.00,32.21,32.21,556.0,0.00,0.00,995.14,680.2,1.809,-4.486,-9.146
2025-08-07T18:13:54.226706,26.09,-23.50,-19.37,0.00,0.00,0.00,32.22,32.22,507.0,0.00,0.00,995.14,680.4,3.983,-3.612,-7.289
2025-08-07T18:13:54.456749,38.32,-25.43,-19.91,0.00,0.00,0.00,32.22,32.22,513.0,0.00,0.00,995.14,680.6,8.122,-5.624,-8.601
2025-08-07T18:13:54.670473,46.52,-12.91,-20.11,0.00,0.00,0.00,32.22,32.22,631.0,0.00,0.00,995.14,680.9,5.918,-1.822,-5.308
2025-08-07T18:13:54.891990,32.45,-33.42,-20.11,0.00,0.00,0.00,32.21,32.21,568.0,0.00,0.00,995.14,681.1,5.812,-5.965,-6.925
2025-08-07T18:13:55.116042,40.32,-19.19,-19.99,0.00,0.00,0.00,32.21,32.21,560.0,0.00,0.00,995.14,681.3,6.153,-3.126,-6.543
2025-08-07T18:13:55.345493,36.07,-19.90,-19.96,0.00,0.00,0.00,32.21,32.21,540.0,0.00,0.00,995.14,681.5,5.380,-3.110,-6.699
2025-08-07T18:13:55.567374,36.31,-18.34,-19.92,0.00,0.00,0.00,32.23,32.23,511.0,0.00,0.00,995.14,681.7,5.908,-3.140,-7.402
2025-08-07T18:13:55.799807,38.08,-14.80,-19.89,0.00,0.00,0.00,32.22,32.22,520.0,0.00,0.00,995.14,682.0,6.276,-2.599,-7.578
2025-08-07T18:13:56.004300,31.47,-18.77,-19.91,0.00,0.00,0.00,32.23,32.23,480.0,0.00,0.00,995.14,682.2,6.116,-3.770,-9.252
2025-08-07T18:13:56.226374,15.58,-18.09,-19.37,0.00,0.00,0.00,32.23,32.23,570.0,0.00,0.00,995.14,682.4,2.243,-2.593,-7.614
2025-08-07T18:13:56.457852,15.05,-4.90,-19.24,0.00,0.00,0.00,32.22,32.22,570.0,0.00,0.00,995.14,682.6,1.949,-0.642,-7.221
2025-08-07T18:13:56.679361,23.76,-24.58,-19.89,0.00,0.00,0.00,32.21,32.21,496.0,0.00,0.00,995.14,682.9,5.131,-5.297,-10.384
2025-08-07T18:13:56.893539,56.41,-11.93,-20.86,0.00,0.00,0.00,32.24,32.24,500.0,0.00,0.00,995.14,683.1,10.064,-2.497,-6.201
2025-08-07T18:13:57.116706,68.29,18.13,-21.07,0.00,0.00,0.00,32.22,32.22,814.0,0.00,0.00,995.14,683.3,9.701,3.250,2.088
2025-08-07T18:13:57.346527,38.72,4.63,-21.40,0.00,0.00,0.00,32.22,32.22,1420.0,0.00,0.00,995.14,683.5,5.200,0.672,6.452
2025-08-07T18:13:57.562643,40.01,10.11,-21.44,0.00,0.00,0.00,32.21,32.21,270.0,0.00,0.00,995.14,683.7,6.444,1.760,7.474
2025-08-07T18:13:57.784030,37.05,15.71,-21.43,0.00,0.00,0.00,32.22,32.22,218.0,0.00,0.00,995.14,684.0,6.365,2.861,7.932
2025-08-07T18:13:58.005137,19.45,10.41,-21.56,0.00,0.00,0.00,32.21,32.21,105.0,0.00,0.00,995.14,684.2,3.346,1.815,9.299
2025-08-07T18:13:58.227172,14.37,10.66,-21.64,0.00,0.00,0.00,32.19,32.19,116.6,0.00,0.00,995.14,684.4,2.539,1.891,9.726
2025-08-07T18:13:58.450601,9.22,-11.27,-21.72,0.00,0.00,0.00,32.18,32.18,233.1,0.00,0.00,995.14,684.6,1.635,-1.994,9.876
2025-08-07T18:13:58.672058,29.88,-16.57,-21.73,0.00,0.00,0.00,32.18,32.18,350.2,0.00,0.00,995.14,684.9,4.752,-2.721,7.812
2025-08-07T18:13:58.906567,17.51,-5.90,-22.57,0.00,0.00,0.00,32.18,32.18,466.7,0.00,0.00,995.14,685.1,2.656,-0.907,8.371
2025-08-07T18:13:59.118866,27.33,3.80,-22.31,0.00,0.00,0.00,32.18,32.18,44.0,0.00,0.00,995.14,685.3,4.667,0.673,9.005
2025-08-07T18:13:59.561107,67.04,-21.54,-21.39,0.00,0.00,0.00,32.19,32.19,456.0,0.00,0.00,995.13,685.7,18.024,-7.187,-2.582
2025-08-07T18:13:59.784549,15.69,-24.15,-20.86,0.00,0.00,0.00,32.21,32.21,519.0,0.00,0.00,995.13,686.0,3.138,-4.747,-10.110
2025-08-07T18:14:00.007119,-11.03,-11.59,-20.90,0.00,0.00,0.00,32.21,32.21,749.0,0.00,0.00,995.13,686.2,-2.003,-2.105,-10.060
2025-08-07T18:14:00.227193,9.41,4.32,-20.76,0.00,0.00,0.00,32.23,32.23,620.0,0.00,0.00,995.13,686.4,1.774,0.818,-10.677
2025-08-07T18:14:00.452904,10.96,21.09,-20.77,0.00,0.00,0.00,32.20,32.20,554.0,0.00,0.00,995.14,686.6,2.023,3.828,-9.716
2025-08-07T18:14:00.673083,7.77,14.28,-20.70,0.00,0.00,0.00,32.19,32.19,565.0,0.00,0.00,995.14,686.9,1.284,2.344,-9.118
2025-08-07T18:14:00.895110,2.28,7.60,-20.58,0.00,0.00,0.00,32.21,32.21,557.0,0.00,0.00,995.14,687.1,0.389,1.294,-9.685
2025-08-07T18:14:01.119350,14.30,-1.33,-20.53,0.00,0.00,0.00,32.19,32.19,502.0,0.00,0.00,995.13,687.3,2.733,-0.256,-10.721
2025-08-07T18:14:01.340014,1.18,-0.70,-20.33,0.00,0.00,0.00,32.20,32.20,490.0,0.00,0.00,995.13,687.5,0.224,-0.133,-10.867
2025-08-07T18:14:01.561773,6.66,-1.39,-20.17,0.00,0.00,0.00,32.20,32.20,549.0,0.00,0.00,995.13,687.8,1.098,-0.230,-9.403
2025-08-07T18:14:01.786469,7.37,-4.24,-20.05,0.00,0.00,0.00,32.19,32.19,620.0,0.00,0.00,995.13,688.0,1.038,-0.599,-8.003
2025-08-07T18:14:02.006927,9.18,10.69,-20.08,0.00,0.00,0.00,32.21,32.21,622.0,0.00,0.00,995.14,688.2,1.486,1.727,-9.033
2025-08-07T18:14:02.236908,14.15,6.83,-20.16,0.00,0.00,0.00,32.20,32.20,614.0,0.00,0.00,995.14,688.4,2.284,1.111,-8.989
2025-08-07T18:14:02.896462,16.89,-9.02,-20.75,0.00,0.00,0.00,32.18,32.18,518.0,0.00,0.00,995.14,689.1,3.048,-1.645,-9.900
2025-08-07T18:14:03.119658,9.09,-16.16,-20.81,0.00,0.00,0.00,32.19,32.19,490.0,0.00,0.00,995.14,689.3,2.055,-3.622,-12.328
2025-08-07T18:14:03.342491,10.73,-29.58,-20.59,0.00,0.00,0.00,32.21,32.21,488.0,0.00,0.00,995.14,689.5,1.921,-5.095,-8.766
2025-08-07T18:14:03.570967,37.46,-40.30,-21.56,0.00,0.00,0.00,32.19,32.19,584.0,0.00,0.00,995.14,689.8,6.834,-7.268,-5.173
2025-08-07T18:14:03.786273,31.40,-8.46,-22.33,0.00,0.00,0.00,32.17,32.17,502.0,0.00,0.00,995.14,690.0,4.521,-1.277,7.296
2025-08-07T18:14:04.009007,36.80,4.13,-22.36,0.00,0.00,0.00,32.19,32.19,170.0,0.00,0.00,995.14,690.2,5.152,0.620,6.858
2025-08-07T18:14:04.231848,32.37,16.28,-22.35,0.00,0.00,0.00,32.17,32.17,510.0,0.00,0.00,995.14,690.4,5.766,3.019,8.581
2025-08-07T18:14:04.457431,26.09,-5.39,-22.60,0.00,0.00,0.00,32.17,32.17,207.0,0.00,0.00,995.14,690.6,5.250,-1.122,10.664
2025-08-07T18:14:04.676382,24.92,39.39,-22.34,0.00,0.00,0.00,32.17,32.17,14.0,0.00,0.00,995.14,690.9,4.699,7.077,7.225
2025-08-07T18:14:04.896907,20.71,-9.32,-22.09,0.00,0.00,0.00,32.18,32.18,15.5,0.00,0.00,995.14,691.1,4.162,-1.907,10.842
2025-08-07T18:14:05.128324,16.88,-1.64,-21.75,0.00,0.00,0.00,32.16,32.16,14.0,0.00,0.00,995.14,691.3,3.039,-0.299,10.015
2025-08-07T18:14:05.344059,0.40,2.11,-21.71,0.00,0.00,0.00,32.15,32.15,15.6,0.00,0.00,995.13,691.5,0.079,0.420,11.390
2025-08-07T18:14:05.565363,2.70,-2.39,-21.66,0.00,0.00,0.00,32.14,32.14,31.1,0.00,0.00,995.13,691.8,0.462,-0.408,9.790
2025-08-07T18:14:05.795238,-1.08,7.29,-22.10,0.00,0.00,0.00,32.14,32.14,46.7,0.00,0.00,995.13,692.0,-0.204,1.375,10.754
2025-08-07T18:14:06.017212,7.40,-2.30,-22.13,0.00,0.00,0.00,32.14,32.14,62.3,0.00,0.00,995.13,692.2,1.293,-0.402,9.946
2025-08-07T18:14:06.231449,1.91,-1.47,-22.13,0.00,0.00,0.00,32.13,32.13,77.8,0.00,0.00,995.13,692.4,0.346,-0.266,10.378
2025-08-07T18:14:06.676289,1.78,-1.42,-22.13,0.00,0.00,0.00,32.12,32.12,109.0,0.00,0.00,995.14,692.9,0.327,-0.261,10.497
2025-08-07T18:14:06.898236,1.75,-1.38,-22.13,0.00,0.00,0.00,32.12,32.12,124.5,0.00,0.00,995.14,693.1,0.322,-0.254,10.545
2025-08-07T18:14:07.121352,1.85,-1.56,-22.13,0.00,0.00,0.00,32.08,32.08,140.1,0.00,0.00,995.13,693.3,0.336,-0.283,10.390
2025-08-07T18:14:07.344111,1.91,-1.48,-22.13,0.00,0.00,0.00,32.11,32.11,155.7,0.00,0.00,995.13,693.5,0.346,-0.267,10.348
2025-08-07T18:14:07.564718,1.81,-1.44,-22.13,0.00,0.00,0.00,32.09,32.09,171.2,0.00,0.00,995.13,693.8,0.328,-0.262,10.388
2025-08-07T18:14:07.796411,1.86,-1.50,-22.13,0.00,0.00,0.00,32.07,32.07,186.8,0.00,0.00,995.13,694.0,0.335,-0.269,10.306
2025-08-07T18:14:08.009631,1.86,-1.55,-22.13,0.00,0.00,0.00,32.08,32.08,202.4,0.00,0.00,995.13,694.2,0.339,-0.283,10.449
2025-08-07T18:14:08.239490,1.96,-1.44,-22.13,0.00,0.00,0.00,32.08,32.08,217.9,0.00,0.00,995.13,694.4,0.356,-0.261,10.391
2025-08-07T18:14:08.453928,1.80,-1.40,-22.13,0.00,0.00,0.00,32.09,32.09,233.4,0.00,0.00,995.13,694.6,0.327,-0.255,10.417
