TS,pitch,roll,yaw,vgx,vgy,vgz,templ,temph,tof,h,bat,baro,time,agx,agy,agz
2025-08-07T16:06:36.624785,0,0,-11,0,0,0,75,79,10,0,43,159.46,0,-3.00,1.00,-1008.00
2025-08-07T16:06:36.726317,0,0,-11,0,0,0,75,79,10,0,43,159.50,0,-3.00,0.00,-999.00
2025-08-07T16:06:36.828441,0,0,-11,0,0,0,75,79,10,0,43,159.54,0,-3.00,2.00,-999.00
2025-08-07T16:06:36.930679,0,0,-11,0,0,0,75,79,10,0,43,159.72,0,-3.00,0.00,-995.00
2025-08-07T16:06:37.032570,0,0,-11,0,0,0,75,79,10,0,43,159.64,0,-3.00,0.00,-1003.00
2025-08-07T16:06:37.134680,0,0,-11,0,0,0,75,79,10,0,43,159.63,0,-3.00,1.00,-997.00
2025-08-07T16:06:37.236299,0,0,-11,0,0,0,75,79,10,0,43,159.24,0,-6.00,2.00,-1001.00
2025-08-07T16:06:37.287598,0,0,-11,0,0,0,75,79,10,0,43,159.33,0,-4.00,2.00,-997.00
2025-08-07T16:06:37.441267,0,0,-11,0,0,0,75,78,10,0,43,159.36,0,-4.00,0.00,-1004.00
2025-08-07T16:06:37.542282,0,0,-11,0,0,0,75,78,10,0,43,159.44,0,-3.00,1.00,-967.00
2025-08-07T16:06:37.593225,0,0,-11,0,0,0,75,78,10,0,43,159.62,0,-2.00,0.00,-977.00
2025-08-07T16:06:37.695379,0,0,-11,0,0,0,75,78,10,0,43,159.44,0,-1.00,3.00,-999.00
2025-08-07T16:06:37.797690,0,0,-11,0,0,0,75,78,10,0,43,159.46,0,-3.00,2.00,-1001.00
2025-08-07T16:06:37.899313,0,0,-11,0,0,0,75,78,10,0,43,159.24,0,-1.00,0.00,-993.00
2025-08-07T16:06:38.001306,0,0,-11,0,0,0,75,78,10,0,43,159.33,0,-4.00,-3.00,-993.00
2025-08-07T16:06:38.104254,0,0,-11,0,0,0,75,78,10,0,43,159.42,0,-40.00,100.00,-986.00
2025-08-07T16:06:38.205274,-1,-1,-12,0,0,-1,75,78,10,0,43,159.76,0,158.00,-165.00,-1458.00
2025-08-07T16:06:38.307670,3,-5,-14,-1,-3,-5,75,78,10,0,43,159.45,0,-33.00,-229.00,-1203.00
2025-08-07T16:06:38.410153,0,-9,-23,0,-6,-4,75,79,10,0,43,159.61,0,280.00,-3.00,-903.00
2025-08-07T16:06:38.513008,-3,-7,-31,0,-7,-2,75,79,42,0,43,159.78,0,117.00,150.00,-694.00
2025-08-07T16:06:38.613540,-6,-5,-37,1,-8,1,75,79,46,0,43,159.83,0,17.00,199.00,-592.00
2025-08-07T16:06:38.715489,-2,-4,-38,2,-7,4,75,79,52,0,43,159.89,0,-79.00,126.00,-840.00
2025-08-07T16:06:38.817474,1,-1,-44,2,-6,5,75,79,86,0,43,159.55,0,-135.00,27.00,-1112.00
2025-08-07T16:06:38.919216,1,3,-54,1,-4,6,75,79,80,0,43,159.23,0,22.00,35.00,-1009.00
2025-08-07T16:06:39.021010,2,7,-63,2,-3,6,75,79,75,-10,43,159.51,0,-87.00,109.00,-1059.00
2025-08-07T16:06:39.123507,2,8,-70,2,-2,5,75,79,71,-10,43,159.22,0,80.00,-14.00,-1099.00
2025-08-07T16:06:39.224942,5,7,-71,1,-1,4,75,79,66,-20,43,159.29,0,-20.00,-210.00,-1173.00
2025-08-07T16:06:39.327002,8,4,-76,0,0,2,75,79,64,-20,43,159.11,0,98.00,-161.00,-1036.00
2025-08-07T16:06:39.433944,7,5,-75,-1,0,0,75,78,63,-20,43,159.46,0,-8.00,-345.00,-1104.00
2025-08-07T16:06:39.530878,5,6,-75,-2,0,0,75,78,64,-20,43,159.39,0,89.00,-58.00,-1077.00
2025-08-07T16:06:39.632889,4,8,-77,-1,0,-1,75,78,65,-20,43,159.55,0,49.00,-127.00,-1124.00
2025-08-07T16:06:39.734876,2,10,-75,-1,0,-2,75,78,67,0,43,159.61,0,25.00,-219.00,-1172.00
2025-08-07T16:06:39.836879,3,11,-70,0,0,-4,75,78,71,0,43,159.68,0,55.00,-260.00,-1252.00
2025-08-07T16:06:39.938901,6,9,-67,-1,0,-6,75,78,79,0,43,159.75,0,126.00,-230.00,-1139.00
2025-08-07T16:06:40.041891,9,7,-64,-1,0,-7,75,78,87,10,43,159.71,0,396.00,-273.00,-1054.00
2025-08-07T16:06:40.143126,11,8,-63,0,-2,-8,75,78,82,20,43,159.91,0,658.00,-34.00,-927.00
2025-08-07T16:06:40.244999,15,5,-65,1,-5,-8,75,78,88,20,43,159.84,0,534.00,-12.00,-1002.00
2025-08-07T16:06:40.347104,12,1,-77,3,-7,-8,75,78,106,30,43,159.86,0,493.00,153.00,-742.00
2025-08-07T16:06:40.449074,5,-5,-97,5,-9,-6,76,79,118,40,43,159.97,0,173.00,217.00,-704.00
2025-08-07T16:06:40.550871,-2,-9,-113,5,-9,-1,76,79,122,40,43,159.43,0,35.00,-16.00,-332.00
2025-08-07T16:06:40.652962,-1,-11,-122,4,-7,4,76,79,118,40,43,159.73,0,-219.00,-169.00,-610.00
2025-08-07T16:06:40.703915,2,-5,-123,2,-4,8,76,79,107,40,43,159.74,0,-38.00,-239.00,-830.00
2025-08-07T16:06:40.805885,7,-3,-125,0,-3,9,76,79,100,30,43,159.73,0,107.00,-273.00,-1151.00
2025-08-07T16:06:40.907810,13,4,-121,-1,-1,7,76,79,93,20,43,159.60,0,-167.00,-40.00,-1226.00
2025-08-07T16:06:41.010130,10,10,-121,-1,0,6,76,79,87,10,43,159.43,0,-44.00,-108.00,-970.00
2025-08-07T16:06:41.112389,10,13,-121,-1,0,5,76,79,82,10,43,159.52,0,44.00,-145.00,-1173.00
2025-08-07T16:06:41.213928,10,16,-117,-2,0,3,76,79,80,0,43,159.37,0,129.00,-212.00,-1191.00
2025-08-07T16:06:41.315818,10,17,-120,-1,0,0,76,79,79,0,43,159.44,0,358.00,-241.00,-1273.00
2025-08-07T16:06:41.417890,10,20,-116,1,-1,-2,75,80,83,0,43,159.62,0,160.00,-177.00,-1257.00
2025-08-07T16:06:41.520179,12,15,-111,4,-3,-7,75,80,89,0,43,159.49,0,292.00,-104.00,-1242.00
2025-08-07T16:06:41.621848,9,3,-113,2,-1,-10,75,80,94,10,43,159.63,0,254.00,-305.00,-1442.00
2025-08-07T16:06:41.723932,-1,-6,-115,-1,0,-10,75,80,105,20,43,159.82,0,245.00,-373.00,-1191.00
2025-08-07T16:06:41.825925,-2,-19,-114,-3,0,-9,75,80,123,30,43,159.87,0,167.00,-396.00,-890.00
2025-08-07T16:06:41.927807,-3,-28,-107,-4,1,-5,75,80,141,40,43,160.01,0,127.00,67.00,-768.00
2025-08-07T16:06:42.030010,-4,-31,-105,-2,0,0,75,80,147,50,43,159.84,0,-75.00,99.00,-675.00
2025-08-07T16:06:42.132766,-1,-28,-106,0,1,4,75,80,135,40,43,159.93,0,60.00,397.00,-305.00
2025-08-07T16:06:42.234799,3,-21,-107,1,0,7,75,80,125,40,43,159.87,0,-168.00,419.00,-421.00
2025-08-07T16:06:42.337041,5,-10,-106,0,0,8,75,80,108,30,43,159.79,0,14.00,675.00,-506.00
2025-08-07T16:06:42.438922,8,-3,-106,0,-1,6,76,80,98,20,43,159.88,0,276.00,122.00,-1322.00
2025-08-07T16:06:42.540799,10,2,-107,-1,-1,3,76,80,96,20,43,159.68,0,244.00,78.00,-1785.00
2025-08-07T16:06:42.643064,8,1,-112,0,-1,-4,76,80,98,20,43,160.03,0,63.00,-212.00,-1189.00
2025-08-07T16:06:42.744911,4,-4,-114,-1,0,-7,76,80,105,20,43,159.89,0,-183.00,-38.00,-1171.00
2025-08-07T16:06:42.846984,-4,-8,-116,-3,2,-8,76,80,116,30,43,159.87,0,-254.00,-201.00,-763.00
2025-08-07T16:06:42.949104,-8,-15,-111,-4,5,-7,76,80,131,40,43,160.08,0,-277.00,-4.00,-654.00
2025-08-07T16:06:43.050969,-12,-19,-103,-6,7,-4,76,80,138,50,43,159.89,0,-105.00,111.00,-364.00
2025-08-07T16:06:43.152891,-6,-24,-94,-6,8,0,76,80,91,50,43,159.92,0,-74.00,194.00,-558.00
2025-08-07T16:06:43.254906,2,-26,-79,-6,8,5,76,80,48,50,43,159.66,0,299.00,205.00,-719.00
2025-08-07T16:06:43.356863,9,-22,-64,-6,6,7,76,80,63,40,43,160.02,0,517.00,308.00,-819.00
2025-08-07T16:06:43.458831,10,-18,-51,-4,3,7,76,78,73,30,43,159.72,0,596.00,115.00,-1236.00
2025-08-07T16:06:43.560833,11,-10,-39,-4,1,5,76,78,105,20,43,159.55,0,624.00,322.00,-1250.00
2025-08-07T16:06:43.662960,8,-5,-36,-1,0,0,76,78,100,20,43,160.01,0,591.00,219.00,-1280.00
2025-08-07T16:06:43.766020,5,-5,-44,2,-2,-2,76,78,103,20,43,159.76,0,446.00,60.00,-1049.00
2025-08-07T16:06:43.866977,4,-5,-59,5,-5,-4,76,78,107,20,43,159.57,0,486.00,255.00,-969.00
2025-08-07T16:06:43.968761,0,-8,-80,7,-8,-4,76,78,109,30,43,160.05,0,248.00,53.00,-654.00
2025-08-07T16:06:44.070978,-1,-8,-105,6,-11,0,76,78,113,0,43,160.05,0,-47.00,-102.00,-899.00
2025-08-07T16:06:44.122051,-1,-7,-120,4,-10,1,76,78,111,0,43,159.99,0,-41.00,-164.00,-770.00
2025-08-07T16:06:44.223841,-5,-8,-125,2,-8,3,76,78,110,0,43,159.69,0,-153.00,-103.00,-971.00
2025-08-07T16:06:44.325692,-5,-7,-132,0,-6,5,76,78,102,0,43,159.68,0,-299.00,-37.00,-767.00
2025-08-07T16:06:44.427848,2,-4,-135,-1,-4,4,76,79,93,0,43,159.56,0,175.00,-576.00,-892.00
2025-08-07T16:06:44.529903,5,0,-132,-1,0,6,76,79,87,-10,43,159.38,0,-69.00,-232.00,-1223.00
2025-08-07T16:06:44.631735,7,9,-129,0,1,4,76,79,83,-10,43,159.36,0,197.00,-60.00,-1397.00
2025-08-07T16:06:44.735964,5,11,-130,0,0,0,76,79,83,-10,43,159.50,0,122.00,-57.00,-1118.00
2025-08-07T16:06:44.835722,-1,14,-131,0,0,0,76,79,79,-10,43,159.63,0,-40.00,-188.00,-835.00
2025-08-07T16:06:44.937983,0,1,-133,0,0,0,76,79,77,-10,43,159.68,0,105.00,-332.00,-990.00
2025-08-07T16:06:45.039773,-5,3,-129,0,0,0,76,79,77,-20,43,159.27,0,-109.00,13.00,-1186.00
2025-08-07T16:06:45.142065,-4,3,-127,0,0,0,76,79,75,0,43,159.51,0,75.00,-10.00,-984.00
2025-08-07T16:06:45.243742,-2,6,-129,0,0,0,76,79,75,0,43,159.50,0,-89.00,71.00,-1107.00
2025-08-07T16:06:45.345680,0,5,-128,0,0,-1,76,79,76,0,43,159.30,0,-119.00,-101.00,-1108.00
2025-08-07T16:06:45.447669,0,4,-129,0,0,-1,76,80,78,0,43,159.22,0,-34.00,-29.00,-1263.00
2025-08-07T16:06:45.549832,4,6,-121,2,0,-4,76,80,83,0,43,159.67,0,163.00,-401.00,-1141.00
2025-08-07T16:06:45.651880,3,3,-117,1,1,-6,76,80,90,0,43,159.78,0,-196.00,111.00,-868.00
2025-08-07T16:06:45.753656,-6,-2,-119,2,2,-5,76,80,96,10,43,159.61,0,-142.00,143.00,-389.00
2025-08-07T16:06:45.855833,-2,-5,-119,1,1,-1,76,80,94,10,43,159.69,0,-77.00,224.00,-646.00
2025-08-07T16:06:45.957676,1,-6,-120,2,2,3,76,80,90,10,43,159.57,0,-30.00,96.00,-603.00
2025-08-07T16:06:46.059783,5,-5,-121,0,3,7,76,80,82,0,43,159.50,0,190.00,89.00,-734.00
2025-08-07T16:06:46.161628,10,-1,-119,0,1,8,76,80,74,0,43,159.27,0,258.00,49.00,-1115.00
2025-08-07T16:06:46.263663,11,0,-118,0,1,8,76,80,65,-10,43,159.16,0,387.00,-164.00,-754.00
2025-08-07T16:06:46.366013,13,5,-110,-2,0,8,76,80,57,-10,43,159.31,0,241.00,-351.00,-1019.00
2025-08-07T16:06:46.467840,14,9,-103,-2,0,8,76,79,49,-20,43,159.34,0,226.00,-326.00,-1228.00
2025-08-07T16:06:46.569777,17,14,-94,-2,1,7,76,79,42,-30,43,159.26,0,219.00,-209.00,-995.00
2025-08-07T16:06:46.671635,14,11,-91,-2,2,6,76,79,34,-40,43,159.25,0,189.00,-193.00,-1141.00
2025-08-07T16:06:46.773768,9,13,-88,-2,3,4,76,79,10,-50,43,158.87,0,267.00,-288.00,-1129.00
2025-08-07T16:06:46.885346,7,15,-85,-3,3,3,76,79,10,-50,43,158.74,0,192.00,-137.00,-1040.00
2025-08-07T16:06:46.977803,7,18,-82,-2,2,3,76,79,10,-50,43,158.66,0,109.00,-443.00,-1037.00
2025-08-07T16:06:47.079801,7,19,-81,-3,3,2,76,79,10,-60,43,158.71,0,101.00,-248.00,-1057.00
2025-08-07T16:06:47.181629,5,20,-79,-2,3,1,76,79,10,-60,43,159.02,0,-41.00,-248.00,-1167.00
2025-08-07T16:06:47.283804,1,19,-78,-1,5,0,76,79,10,0,43,158.77,0,169.00,-292.00,-1095.00
2025-08-07T16:06:47.389618,1,17,-84,0,3,-1,76,79,10,0,43,159.29,0,214.00,-346.00,-1062.00
2025-08-07T16:06:47.487623,-1,17,-79,0,2,-2,76,79,10,0,43,158.95,0,157.00,-273.00,-992.00
2025-08-07T16:06:47.589875,0,17,-79,0,0,-3,76,79,31,0,43,159.03,0,191.00,-185.00,-1100.00
2025-08-07T16:06:47.640878,4,16,-80,1,0,-4,76,79,35,0,43,159.00,0,205.00,-317.00,-1063.00
2025-08-07T16:06:47.742916,6,14,-77,1,0,-5,76,79,43,0,43,159.31,0,47.00,-293.00,-1024.00
2025-08-07T16:06:47.844760,9,17,-79,0,1,-6,76,79,52,10,43,159.41,0,35.00,-376.00,-827.00
2025-08-07T16:06:47.948825,12,20,-87,0,2,-4,76,79,61,10,43,159.30,0,223.00,-363.00,-787.00
2025-08-07T16:06:48.049946,14,20,-87,-1,2,-3,76,79,67,10,43,159.27,0,276.00,-290.00,-914.00
2025-08-07T16:06:48.156237,13,19,-86,-1,1,-2,76,79,73,10,43,159.28,0,407.00,-301.00,-860.00
2025-08-07T16:06:48.253997,11,16,-83,0,0,-3,76,79,77,20,43,159.72,0,271.00,-259.00,-992.00
2025-08-07T16:06:48.357706,9,16,-79,0,-1,-4,76,79,36,20,43,159.54,0,272.00,-360.00,-744.00
2025-08-07T16:06:48.457682,9,32,-68,0,-2,-4,76,80,35,30,43,159.68,0,-38.00,-192.00,-823.00
2025-08-07T16:06:48.559650,3,30,-70,1,0,-3,76,80,36,30,43,160.05,0,57.00,-329.00,-599.00
2025-08-07T16:06:48.661584,-1,14,-73,1,-1,-1,76,80,87,40,43,159.61,0,1.00,-196.00,-610.00
2025-08-07T16:06:48.763719,-6,8,-70,0,-1,2,76,80,67,40,43,159.52,0,-114.00,-35.00,-631.00
2025-08-07T16:06:48.865574,-6,13,-73,0,0,6,76,80,51,40,43,159.68,0,31.00,-84.00,-844.00
2025-08-07T16:06:48.967632,-1,15,-73,2,0,8,76,80,43,30,43,159.19,0,21.00,-255.00,-906.00
2025-08-07T16:06:49.069715,0,20,-69,2,1,10,76,80,43,20,43,159.27,0,-84.00,-443.00,-963.00
2025-08-07T16:06:49.171620,1,22,-67,1,0,9,76,80,73,10,43,159.47,0,84.00,-562.00,-1183.00
2025-08-07T16:06:49.273880,5,23,-67,1,0,6,76,80,69,10,43,159.41,0,148.00,-245.00,-846.00
2025-08-07T16:06:49.375510,7,23,-69,2,0,6,76,80,64,0,43,159.19,0,116.00,-299.00,-799.00
2025-08-07T16:06:49.478995,9,26,-67,2,0,7,77,79,57,0,43,158.99,0,84.00,-362.00,-963.00
2025-08-07T16:06:49.579639,9,27,-68,2,0,7,77,79,48,0,43,159.08,0,199.00,-413.00,-977.00
2025-08-07T16:06:49.686791,9,24,-70,1,-1,7,77,79,39,0,43,159.25,0,223.00,-507.00,-944.00
2025-08-07T16:06:49.783683,10,22,-70,0,-1,6,77,79,35,-10,43,158.91,0,226.00,-478.00,-1060.00
2025-08-07T16:06:49.885676,12,22,-67,0,0,4,77,79,10,-10,43,159.21,0,129.00,-455.00,-1042.00
2025-08-07T16:06:49.987634,1,16,-71,0,0,2,77,79,10,-10,43,159.19,0,10.00,-287.00,-989.00
2025-08-07T16:06:50.089970,4,20,-73,0,0,1,77,79,10,-10,43,158.92,0,169.00,-470.00,-1084.00
2025-08-07T16:06:50.191841,9,23,-71,0,0,0,77,79,10,-10,43,158.84,0,-55.00,-540.00,-930.00
2025-08-07T16:06:50.293848,6,22,-75,0,0,0,77,79,10,-10,43,159.08,0,176.00,-499.00,-903.00
2025-08-07T16:06:50.395672,11,30,-71,0,0,-1,77,79,10,0,43,158.95,0,65.00,-503.00,-640.00
2025-08-07T16:06:50.497563,11,31,-76,0,0,-2,77,80,10,0,43,159.01,0,173.00,-223.00,-749.00
2025-08-07T16:06:50.599616,9,23,-81,0,0,-3,77,80,10,0,43,159.03,0,217.00,-644.00,-911.00
2025-08-07T16:06:50.701550,14,29,-83,0,0,-4,77,80,32,0,43,158.99,0,242.00,-424.00,-1040.00
2025-08-07T16:06:50.803726,15,35,-89,0,0,-6,77,80,42,0,43,159.13,0,325.00,-547.00,-988.00
2025-08-07T16:06:50.906168,13,39,-89,0,0,-7,77,80,53,10,43,159.24,0,343.00,-666.00,-854.00
2025-08-07T16:06:50.956482,13,33,-85,0,0,-8,77,80,61,20,43,159.31,0,304.00,-618.00,-821.00
2025-08-07T16:06:51.058545,9,21,-80,0,0,-8,77,80,63,30,43,159.15,0,204.00,-611.00,-820.00
2025-08-07T16:06:51.160843,8,11,-74,0,0,-9,77,80,64,30,43,159.24,0,125.00,-420.00,-971.00
2025-08-07T16:06:51.262781,6,5,-74,0,0,-9,77,80,73,40,43,159.67,0,87.00,-158.00,-1077.00
2025-08-07T16:06:51.364594,4,-1,-74,0,0,-10,77,80,81,50,43,159.42,0,213.00,-118.00,-1003.00
2025-08-07T16:06:51.466716,1,-7,-73,0,0,-8,77,80,89,60,43,159.93,0,132.00,-59.00,-1044.00
2025-08-07T16:06:51.569108,0,-11,-73,0,0,-5,77,80,98,70,43,159.85,0,142.00,-22.00,-973.00
2025-08-07T16:06:51.672009,-1,-14,-73,0,0,-3,77,80,103,70,43,159.71,0,46.00,173.00,-747.00
2025-08-07T16:06:51.773616,-2,-15,-73,0,0,0,77,80,103,70,43,159.51,0,-38.00,281.00,-695.00
2025-08-07T16:06:51.874632,0,-17,-72,0,0,1,77,80,95,70,43,159.70,0,-84.00,251.00,-708.00
2025-08-07T16:06:51.976525,0,-15,-71,0,1,2,77,80,90,70,43,159.71,0,-24.00,244.00,-713.00
2025-08-07T16:06:52.078701,1,-11,-71,1,1,4,77,80,97,60,43,159.46,0,-163.00,345.00,-859.00
2025-08-07T16:06:52.180541,3,-5,-67,2,1,4,77,80,91,0,43,159.35,0,-14.00,308.00,-805.00
2025-08-07T16:06:52.282604,2,-2,-68,2,1,3,77,80,86,0,43,159.74,0,23.00,231.00,-877.00
2025-08-07T16:06:52.384645,0,1,-67,1,1,6,77,80,81,0,43,159.84,0,-40.00,318.00,-1087.00
2025-08-07T16:06:52.486746,1,7,-66,0,1,7,76,80,74,-10,43,159.38,0,132.00,-84.00,-955.00
2025-08-07T16:06:52.588546,6,13,-65,0,0,6,76,80,67,-10,43,159.18,0,110.00,-119.00,-1131.00
2025-08-07T16:06:52.690598,7,17,-66,1,0,6,76,80,62,-20,43,159.37,0,255.00,-236.00,-984.00
2025-08-07T16:06:52.792416,6,17,-66,2,1,6,76,80,55,-30,43,159.49,0,91.00,-358.00,-994.00
2025-08-07T16:06:52.894597,5,14,-65,0,1,5,76,80,48,-30,43,159.04,0,148.00,-322.00,-1012.00
2025-08-07T16:06:52.996439,4,13,-67,1,0,5,76,80,42,-40,43,159.17,0,268.00,-507.00,-1152.00
2025-08-07T16:06:53.100069,6,14,-67,0,0,3,76,80,36,-50,43,158.88,0,36.00,-303.00,-1313.00
2025-08-07T16:06:53.200402,4,20,-70,0,0,1,76,80,34,-50,43,159.27,0,199.00,-240.00,-1021.00
2025-08-07T16:06:53.302564,6,21,-71,1,-1,0,76,80,34,-50,43,159.13,0,137.00,-553.00,-1071.00
2025-08-07T16:06:53.404362,13,24,-69,0,-1,-1,76,80,34,-50,43,159.15,0,135.00,-701.00,-1164.00
2025-08-07T16:06:53.506371,19,33,-62,0,0,-4,76,80,41,-40,43,159.31,0,425.00,-686.00,-1053.00
2025-08-07T16:06:53.612240,23,39,-53,0,0,-7,76,80,54,-40,43,159.19,0,354.00,-617.00,-909.00
2025-08-07T16:06:53.710599,26,36,-50,0,2,-10,76,80,71,-30,43,159.53,0,250.00,-653.00,-1006.00
2025-08-07T16:06:53.812459,18,30,-50,-2,4,-11,76,80,76,-20,43,159.27,0,20.00,-583.00,-741.00
2025-08-07T16:06:53.914559,-1,25,-41,-4,7,-9,76,80,32,-10,43,159.06,0,-188.00,113.00,-675.00
2025-08-07T16:06:53.965319,-11,14,-34,-3,10,-5,76,80,31,0,43,159.83,0,-101.00,367.00,-567.00
2025-08-07T16:06:54.067592,-11,7,-32,-1,11,-1,76,80,10,0,43,159.57,0,20.00,-196.00,-726.00
2025-08-07T16:06:54.169713,-8,3,-32,0,6,0,76,80,10,0,43,159.35,0,60.00,-184.00,-790.00
2025-08-07T16:06:54.271344,-4,5,-37,1,3,2,76,80,10,0,43,159.33,0,47.00,-394.00,-989.00
2025-08-07T16:06:54.373419,-1,1,-35,0,2,1,76,80,10,0,43,159.54,0,87.00,-123.00,-1333.00
2025-08-07T16:06:54.475465,0,0,-37,1,1,0,76,79,10,0,43,159.65,0,245.00,-151.00,-1031.00
2025-08-07T16:06:54.577526,-2,1,-37,1,1,0,76,79,10,0,43,159.13,0,-39.00,-9.00,-986.00
2025-08-07T16:06:54.679364,-1,0,-37,1,1,0,76,79,10,0,43,159.32,0,-25.00,0.00,-1003.00
2025-08-07T16:06:54.781536,-1,0,-37,1,2,0,76,79,10,0,43,159.52,0,-29.00,5.00,-1001.00
2025-08-07T16:06:54.883377,-1,1,-37,1,2,0,76,79,10,0,43,159.26,0,-41.00,-2.00,-983.00
2025-08-07T16:06:54.985467,-1,0,-37,1,2,0,76,79,10,0,43,159.49,0,-26.00,9.00,-1023.00
2025-08-07T16:06:55.087544,-1,1,-37,1,2,0,76,79,10,0,43,159.49,0,-35.00,1.00,-1004.00
2025-08-07T16:06:55.189307,-1,0,-37,1,2,0,76,79,10,0,43,159.65,0,-31.00,6.00,-1005.00
2025-08-07T16:06:55.291270,-1,0,-37,0,0,0,76,79,10,0,43,159.47,0,-33.00,0.00,-995.00
2025-08-07T16:06:55.393377,-1,0,-37,0,0,0,76,79,10,0,43,159.72,0,-31.00,3.00,-998.00
2025-08-07T16:06:55.495582,-1,0,-37,0,0,0,76,80,10,0,43,159.69,0,-32.00,2.00,-996.00
2025-08-07T16:06:55.597993,-1,0,-37,0,0,0,76,80,10,0,43,159.55,0,-30.00,5.00,-986.00
2025-08-07T16:06:55.699892,-1,0,-37,0,0,0,76,80,10,0,43,159.63,0,-32.00,1.00,-990.00
2025-08-07T16:06:55.801810,-1,0,-37,0,0,0,76,80,10,0,43,159.22,0,-31.00,3.00,-998.00
2025-08-07T16:06:55.904104,-1,0,-37,0,0,0,76,80,10,0,43,159.38,0,-34.00,2.00,-994.00
2025-08-07T16:06:56.005709,-1,0,-37,0,0,0,76,80,10,0,43,159.38,0,-32.00,5.00,-996.00
2025-08-07T16:06:56.107676,-1,0,-37,0,0,0,76,80,10,0,43,159.32,0,-32.00,5.00,-1000.00
