TS,pitch,roll,yaw,vgx,vgy,vgz,templ,temph,tof,h,bat,baro,time,agx,agy,agz
2024-05-17 15:42:43.052510,0,0,0,0,0,0,50,51,10,0,97,188.46,0,1.00,-4.00,-999.00
2024-05-17 15:42:43.060138,0,0,0,0,0,0,50,51,10,0,97,188.45,0,0.00,-3.00,-999.00
2024-05-17 15:42:43.261402,0,0,0,0,0,0,50,51,10,0,97,188.46,0,0.00,-3.00,-1000.00
2024-05-17 15:42:43.263438,0,0,0,0,0,0,50,51,10,0,97,188.45,0,1.00,-3.00,-998.00
2024-05-17 15:42:43.462237,0,0,0,0,0,0,50,51,10,0,97,188.43,0,2.00,-4.00,-996.00
2024-05-17 15:42:43.467450,0,0,0,0,0,0,50,51,10,0,97,188.50,0,0.00,-4.00,-999.00
2024-05-17 15:42:43.666861,0,0,0,0,0,0,50,51,10,0,97,188.53,0,1.00,-3.00,-997.00
2024-05-17 15:42:43.671286,0,0,0,0,0,0,50,51,10,0,97,188.50,0,1.00,-3.00,-998.00
2024-05-17 15:42:43.871722,0,0,0,0,0,0,50,51,10,0,97,188.46,0,2.00,-4.00,-999.00
2024-05-17 15:42:43.876438,0,0,0,0,0,0,50,51,10,0,97,188.43,0,1.00,-3.00,-1000.00
2024-05-17 15:42:44.076745,0,0,0,0,0,0,50,52,10,0,97,188.46,0,2.00,-5.00,-1001.00
2024-05-17 15:42:44.080190,0,0,0,0,0,0,50,52,10,0,97,188.44,0,1.00,-4.00,-1000.00
2024-05-17 15:42:44.281347,0,0,0,0,0,0,50,52,10,0,96,188.49,0,2.00,-4.00,-1000.00
2024-05-17 15:42:44.284343,0,0,0,0,0,0,50,52,10,0,96,188.51,0,1.00,-3.00,-999.00
2024-05-17 15:42:44.386496,0,0,0,0,0,0,50,52,10,0,96,188.49,0,0.00,-3.00,-1001.00
2024-05-17 15:42:44.437355,0,0,0,0,0,0,50,52,10,0,96,188.47,0,1.00,-2.00,-1000.00
2024-05-17 15:42:44.539556,0,0,0,0,0,0,50,52,10,0,96,188.48,0,0.00,-3.00,-1000.00
2024-05-17 15:42:44.691017,0,0,0,0,0,0,50,52,10,0,96,188.44,0,0.00,-3.00,-999.00
2024-05-17 15:42:44.743341,0,0,0,0,0,0,50,52,10,0,96,188.50,0,1.00,-1.00,-999.00
2024-05-17 15:42:44.845252,0,0,0,0,0,0,50,52,10,0,96,188.49,0,1.00,-2.00,-999.00
2024-05-17 15:42:44.998050,0,0,0,0,0,0,50,52,10,0,96,188.54,0,1.00,-2.00,-996.00
2024-05-17 15:42:45.049262,0,0,0,0,0,0,50,52,10,0,96,188.49,0,1.00,-2.00,-1000.00
2024-05-17 15:42:45.202953,0,0,0,0,0,0,50,52,10,0,96,188.53,0,2.00,-2.00,-1000.00
2024-05-17 15:42:45.257658,0,0,0,0,0,0,50,52,10,0,96,188.55,0,-1.00,-1.00,-999.00
2024-05-17 15:42:45.355295,0,0,0,0,0,0,50,52,10,0,96,188.54,0,0.00,-3.00,-1001.00
2024-05-17 15:42:45.510228,0,0,0,0,0,0,50,52,10,0,96,188.47,0,1.00,-4.00,-999.00
2024-05-17 15:42:45.559347,0,0,0,0,0,0,50,52,10,0,96,188.51,0,0.00,-2.00,-999.00
2024-05-17 15:42:45.714984,0,0,0,0,0,0,50,52,10,0,96,188.49,0,1.00,-3.00,-999.00
2024-05-17 15:42:45.765730,0,0,0,0,0,0,50,52,10,0,96,188.50,0,0.00,-1.00,-1000.00
2024-05-17 15:42:45.866734,0,0,0,0,0,0,50,52,10,0,96,188.46,0,0.00,-3.00,-998.00
2024-05-17 15:42:46.027873,0,0,0,0,0,0,50,52,10,0,96,188.46,0,0.00,-2.00,-997.00
2024-05-17 15:42:46.069198,0,0,0,0,0,0,50,52,10,0,96,188.53,0,0.00,-3.00,-1001.00
2024-05-17 15:42:46.229196,0,0,0,0,0,0,50,52,10,0,95,188.54,0,1.00,-2.00,-998.00
2024-05-17 15:42:46.273294,0,0,0,0,0,0,50,52,10,0,95,188.51,0,1.00,-3.00,-1000.00
2024-05-17 15:42:46.431699,0,0,0,0,0,0,50,52,10,0,95,188.53,0,1.00,-3.00,-999.00
2024-05-17 15:42:46.478274,0,0,0,0,0,0,50,52,10,0,95,188.51,0,0.00,-4.00,-998.00
2024-05-17 15:42:46.636579,0,0,0,0,0,0,50,52,10,0,95,188.48,0,0.00,-3.00,-998.00
2024-05-17 15:42:46.682209,0,0,0,0,0,0,50,52,10,0,95,188.52,0,0.00,-3.00,-998.00
2024-05-17 15:42:46.841399,0,0,0,0,0,0,50,52,10,0,95,188.54,0,0.00,-2.00,-1000.00
2024-05-17 15:42:46.886277,0,0,0,0,0,0,50,52,10,0,95,188.50,0,0.00,-2.00,-999.00
2024-05-17 15:42:46.937094,0,0,0,0,0,0,51,53,10,0,95,188.51,0,0.00,-2.00,-998.00
2024-05-17 15:42:47.046176,0,0,0,0,0,0,51,53,10,0,95,188.51,0,0.00,-3.00,-1000.00
2024-05-17 15:42:47.141314,0,0,0,0,0,0,51,53,10,0,95,188.54,0,0.00,-1.00,-1000.00
2024-05-17 15:42:47.250948,0,0,0,0,0,0,51,53,10,0,95,188.52,0,1.00,-4.00,-1001.00
2024-05-17 15:42:47.345224,0,0,0,0,0,0,51,53,10,0,95,188.50,0,0.00,-3.00,-999.00
2024-05-17 15:42:47.447003,0,0,0,0,0,0,51,53,10,0,95,188.54,0,1.00,-3.00,-997.00
2024-05-17 15:42:47.558032,0,0,0,0,0,0,51,53,10,0,95,188.53,0,-5.00,-8.00,-989.00
2024-05-17 15:42:47.651078,0,0,0,0,0,0,51,53,10,0,95,188.53,0,4.00,-5.00,-1005.00
2024-05-17 15:42:47.762871,0,0,0,0,0,0,51,53,10,0,95,188.53,0,0.00,-10.00,-994.00
2024-05-17 15:42:47.855047,0,0,1,0,0,0,51,53,10,0,95,188.53,0,11.00,0.00,-944.00
2024-05-17 15:42:47.963789,0,0,1,0,0,0,50,53,10,0,95,188.53,0,-11.00,-15.00,-1075.00
2024-05-17 15:42:48.059392,0,0,1,0,0,0,50,53,28,0,95,188.53,0,-23.00,-3.00,-1195.00
2024-05-17 15:42:48.161030,0,0,0,0,0,-2,50,53,28,0,94,188.53,0,6.00,2.00,-1397.00
2024-05-17 15:42:48.274762,0,0,0,0,0,-5,50,53,23,0,94,188.53,0,11.00,-2.00,-1262.00
2024-05-17 15:42:48.365653,0,0,1,0,0,-7,50,53,23,0,94,188.75,0,11.00,-23.00,-1074.00
2024-05-17 15:42:48.469097,0,0,1,0,0,-7,50,53,28,10,94,188.90,0,0.00,-2.00,-994.00
2024-05-17 15:42:48.571547,0,0,1,0,0,-7,50,53,33,20,94,189.00,1,-10.00,-16.00,-990.00
2024-05-17 15:42:48.670986,0,0,1,0,0,-7,50,53,41,20,94,189.09,1,5.00,-31.00,-960.00
2024-05-17 15:42:48.786799,0,0,1,0,0,-6,50,53,48,30,94,189.12,1,-4.00,9.00,-910.00
2024-05-17 15:42:48.875804,0,0,1,0,0,-5,50,53,55,40,94,189.20,1,-12.00,-4.00,-924.00
2024-05-17 15:42:48.991878,0,0,1,0,0,-4,51,54,60,40,94,189.26,1,9.00,-9.00,-924.00
2024-05-17 15:42:49.078924,-1,1,1,0,0,-3,51,54,62,50,94,189.31,1,0.00,-10.00,-929.00
2024-05-17 15:42:49.196356,0,1,1,0,0,-2,51,54,65,50,94,189.29,1,-18.00,20.00,-918.00
2024-05-17 15:42:49.283553,0,0,1,0,0,-1,51,54,68,50,94,189.37,1,-26.00,-6.00,-945.00
2024-05-17 15:42:49.384927,-1,0,1,0,0,-1,51,54,71,50,94,189.35,1,6.00,-22.00,-965.00
2024-05-17 15:42:49.503556,-1,0,1,0,0,-1,51,54,72,60,94,189.36,1,-13.00,-27.00,-993.00
2024-05-17 15:42:49.588902,-1,1,1,0,0,-1,51,54,73,60,94,189.41,2,2.00,-11.00,-989.00
2024-05-17 15:42:49.708355,0,1,1,0,0,-1,51,54,74,60,94,189.43,2,-5.00,-3.00,-1004.00
2024-05-17 15:42:49.792952,0,1,1,0,0,-1,51,54,76,60,94,189.46,2,-20.00,-14.00,-983.00
2024-05-17 15:42:49.843889,0,0,1,0,0,-1,51,54,77,60,94,189.49,2,-8.00,-3.00,-993.00
2024-05-17 15:42:50.015502,0,0,1,0,0,-1,52,54,79,60,94,189.49,2,12.00,-20.00,-1002.00
2024-05-17 15:42:50.047978,0,0,1,0,0,0,52,54,79,60,94,189.48,2,-32.00,0.00,-971.00
2024-05-17 15:42:50.220352,0,0,1,0,0,0,52,54,80,60,94,189.56,2,9.00,-19.00,-992.00
2024-05-17 15:42:50.251865,0,0,1,0,0,0,52,54,81,70,94,189.50,2,-26.00,-5.00,-973.00
2024-05-17 15:42:50.425172,-1,0,1,0,0,0,52,54,81,70,94,189.46,2,-2.00,-19.00,-999.00
2024-05-17 15:42:50.455770,0,0,1,0,0,0,52,54,82,70,94,189.51,2,-7.00,-12.00,-982.00
2024-05-17 15:42:50.630111,0,0,1,0,0,0,52,54,83,70,94,189.55,3,6.00,0.00,-987.00
2024-05-17 15:42:50.663312,0,0,1,0,0,0,52,54,83,70,94,189.57,3,-10.00,17.00,-950.00
2024-05-17 15:42:50.761822,0,0,1,0,0,0,52,54,83,70,94,189.59,3,4.00,-23.00,-958.00
2024-05-17 15:42:50.863878,0,0,1,0,0,0,52,54,84,70,94,189.56,3,7.00,-17.00,-1006.00
2024-05-17 15:42:51.039636,0,0,1,0,0,0,52,55,84,70,94,189.58,3,0.00,2.00,-1017.00
2024-05-17 15:42:51.068251,0,0,1,0,0,0,52,55,84,70,94,189.56,3,-9.00,14.00,-981.00
2024-05-17 15:42:51.244292,0,0,1,0,0,0,52,55,84,70,94,189.56,3,-4.00,-2.00,-990.00
2024-05-17 15:42:51.274485,0,0,1,0,0,0,52,55,84,70,94,189.57,3,-20.00,-4.00,-985.00
2024-05-17 15:42:51.373858,-1,0,1,0,0,0,52,55,84,70,94,189.61,3,-2.00,14.00,-979.00
2024-05-17 15:42:51.551427,-1,0,1,0,0,0,52,55,83,70,94,189.61,3,-42.00,-25.00,-1036.00
2024-05-17 15:42:51.577830,-1,0,1,0,0,0,52,55,83,70,94,189.57,4,-12.00,7.00,-1016.00
2024-05-17 15:42:51.756359,-1,0,1,0,0,0,52,55,83,70,94,189.56,4,1.00,-4.00,-1007.00
2024-05-17 15:42:51.784570,0,0,1,0,0,0,52,55,82,70,94,189.59,4,-5.00,1.00,-994.00
2024-05-17 15:42:51.883764,0,0,1,0,0,0,52,55,82,70,94,189.59,4,-5.00,-18.00,-1012.00
2024-05-17 15:42:52.063556,0,0,1,0,0,0,51,54,83,70,94,189.57,4,-11.00,13.00,-979.00
2024-05-17 15:42:52.087762,0,0,1,0,0,0,51,54,82,70,94,189.55,4,1.00,1.00,-1006.00
2024-05-17 15:42:52.268363,0,0,1,0,0,0,51,54,82,70,94,189.57,4,0.00,-13.00,-1038.00
2024-05-17 15:42:52.291751,0,0,1,0,0,0,51,54,82,70,94,189.52,4,-5.00,15.00,-983.00
2024-05-17 15:42:52.473052,0,0,1,0,0,0,51,54,82,70,94,189.62,4,-4.00,25.00,-988.00
2024-05-17 15:42:52.496741,0,0,1,0,0,0,51,54,82,70,94,189.60,4,-3.00,12.00,-1014.00
2024-05-17 15:42:52.677988,0,0,1,0,0,0,51,54,82,70,94,189.65,5,-3.00,16.00,-1023.00
2024-05-17 15:42:52.700769,0,0,1,0,0,0,51,54,83,70,94,189.63,5,3.00,-13.00,-1032.00
2024-05-17 15:42:52.882730,0,0,1,0,0,0,51,54,83,70,94,189.60,5,0.00,-17.00,-1007.00
2024-05-17 15:42:52.904709,0,0,1,0,0,0,51,54,84,70,94,189.61,5,3.00,-10.00,-1006.00
2024-05-17 15:42:53.088321,0,0,1,0,0,0,52,55,84,70,94,189.63,5,0.00,-11.00,-1010.00
2024-05-17 15:42:53.108719,0,0,1,0,0,0,52,55,85,70,94,189.66,5,0.00,-1.00,-979.00
2024-05-17 15:42:53.292369,0,0,1,0,0,0,52,55,86,70,94,189.65,5,0.00,3.00,-1011.00
2024-05-17 15:42:53.312755,0,0,1,0,0,0,52,55,87,70,94,189.61,5,7.00,-17.00,-1015.00
2024-05-17 15:42:53.497140,0,0,1,0,0,0,52,55,88,70,94,189.73,5,-3.00,17.00,-951.00
2024-05-17 15:42:53.497219,0,0,1,0,0,0,52,55,88,70,94,189.63,5,1.00,-17.00,-986.00
2024-05-17 15:42:53.568108,0,0,1,0,0,0,52,55,89,70,94,189.65,6,0.00,-9.00,-972.00
2024-05-17 15:42:53.707363,0,0,1,0,0,0,52,55,89,70,94,189.69,6,-1.00,0.00,-985.00
2024-05-17 15:42:53.771704,0,0,1,0,0,0,52,55,89,70,94,189.63,6,-6.00,9.00,-990.00
2024-05-17 15:42:53.873698,0,0,1,0,0,0,52,55,89,70,94,189.69,6,0.00,-25.00,-970.00
2024-05-17 15:42:54.012169,0,0,1,0,0,0,52,55,90,70,94,189.66,6,0.00,-6.00,-1012.00
2024-05-17 15:42:54.083211,0,0,1,0,0,0,52,55,89,70,94,189.66,6,-2.00,4.00,-1029.00
2024-05-17 15:42:54.179655,0,0,1,0,0,0,52,55,89,70,94,189.66,6,-14.00,-3.00,-976.00
2024-05-17 15:42:54.319326,0,0,1,0,0,0,52,55,89,70,94,189.69,6,-15.00,18.00,-1017.00
2024-05-17 15:42:54.384207,0,0,1,0,0,0,52,55,89,70,94,189.67,6,-3.00,-1.00,-975.00
2024-05-17 15:42:54.521276,0,0,1,0,0,0,52,55,88,70,94,189.68,6,-4.00,4.00,-971.00
2024-05-17 15:42:54.587681,0,0,1,0,0,0,52,55,88,70,94,189.64,7,4.00,-1.00,-1007.00
2024-05-17 15:42:54.727887,0,0,1,0,0,0,52,55,87,70,94,189.59,7,3.00,-24.00,-1039.00
2024-05-17 15:42:54.791508,0,0,1,0,0,0,52,55,86,70,94,189.69,7,-2.00,-3.00,-1000.00
2024-05-17 15:42:54.932545,0,0,1,0,0,0,52,55,86,70,94,189.65,7,4.00,9.00,-950.00
2024-05-17 15:42:55.080111,0,0,1,0,0,0,53,55,85,70,94,189.65,7,15.00,-14.00,-1014.00
2024-05-17 15:42:55.097612,0,0,1,0,0,0,53,55,84,70,94,189.63,7,9.00,-30.00,-1036.00
2024-05-17 15:42:55.251615,0,0,1,0,0,0,53,55,84,70,94,189.65,7,3.00,-9.00,-1012.00
2024-05-17 15:42:55.385956,0,0,1,0,0,0,53,55,84,70,94,189.63,7,-15.00,14.00,-1046.00
2024-05-17 15:42:55.403643,0,0,1,0,0,0,53,55,84,70,94,189.61,7,4.00,-25.00,-1023.00
2024-05-17 15:42:55.558704,0,0,1,0,0,0,53,55,83,70,94,189.63,7,9.00,4.00,-1009.00
2024-05-17 15:42:55.706225,0,0,1,0,0,0,53,55,83,70,94,189.61,8,5.00,-2.00,-973.00
2024-05-17 15:42:55.710011,0,0,1,0,0,0,53,55,83,70,94,189.60,8,9.00,3.00,-1013.00
2024-05-17 15:42:55.853491,0,0,1,0,0,0,53,55,82,70,94,189.65,8,-5.00,-12.00,-976.00
2024-05-17 15:42:56.008450,0,0,1,0,0,0,53,55,82,70,94,189.70,8,16.00,-26.00,-1010.00
2024-05-17 15:42:56.015692,0,0,1,0,0,0,53,56,82,70,94,189.67,8,-3.00,0.00,-997.00
2024-05-17 15:42:56.139531,0,0,1,0,0,0,53,56,82,70,94,189.63,8,1.00,1.00,-988.00
2024-05-17 15:42:56.295185,0,0,1,0,0,0,53,56,82,70,94,189.62,8,-6.00,0.00,-1023.00
2024-05-17 15:42:56.322009,0,0,1,0,0,0,53,56,82,70,94,189.59,8,8.00,-43.00,-1013.00
2024-05-17 15:42:56.477889,0,0,1,0,0,0,53,56,81,70,94,189.65,8,-1.00,-6.00,-1006.00
2024-05-17 15:42:56.621238,0,0,1,0,0,0,53,56,81,70,94,189.64,8,-1.00,-9.00,-1014.00
2024-05-17 15:42:56.631980,0,0,1,0,0,0,53,56,81,70,94,189.66,9,15.00,-20.00,-1026.00
2024-05-17 15:42:56.785105,0,0,1,0,0,0,53,56,81,70,94,189.69,9,5.00,7.00,-984.00
2024-05-17 15:42:56.928562,0,0,1,0,0,0,53,56,80,70,94,189.70,9,-6.00,8.00,-975.00
2024-05-17 15:42:56.933714,0,0,1,0,0,0,53,56,80,70,94,189.75,9,-2.00,-4.00,-1012.00
2024-05-17 15:42:57.091938,0,0,1,0,0,0,53,56,80,70,94,189.67,9,-4.00,7.00,-1003.00
2024-05-17 15:42:57.235879,0,0,1,0,0,0,53,56,80,70,93,189.63,9,7.00,-9.00,-1011.00
2024-05-17 15:42:57.239700,0,0,1,0,0,0,53,56,80,70,93,189.71,9,-1.00,-5.00,-1042.00
2024-05-17 15:42:57.400371,0,0,1,0,0,0,53,56,81,70,93,189.70,9,-5.00,-17.00,-1028.00
2024-05-17 15:42:57.400537,0,0,1,0,0,0,53,56,82,70,93,189.72,9,-10.00,-17.00,-1038.00
2024-05-17 15:42:57.543707,-1,0,1,0,0,0,53,56,83,70,93,189.63,9,17.00,-14.00,-994.00
2024-05-17 15:42:57.707606,-1,0,1,0,0,0,53,56,83,70,93,189.71,10,0.00,0.00,-1013.00
2024-05-17 15:42:57.707775,0,0,1,0,0,0,53,56,83,70,93,189.72,10,-6.00,13.00,-984.00
2024-05-17 15:42:57.851656,0,0,1,0,0,0,53,56,84,70,93,189.75,10,6.00,-2.00,-966.00
2024-05-17 15:42:58.013745,0,0,1,0,0,0,53,56,84,70,93,189.73,10,-7.00,1.00,-950.00
2024-05-17 15:42:58.013873,0,0,1,0,0,0,54,56,84,70,93,189.76,10,18.00,-13.00,-986.00
2024-05-17 15:42:58.170970,0,0,1,0,0,0,54,56,84,70,93,189.75,10,1.00,-12.00,-988.00
2024-05-17 15:42:58.208530,0,0,1,0,0,0,54,56,84,70,93,189.70,10,-10.00,18.00,-946.00
2024-05-17 15:42:58.413043,0,0,1,0,0,0,54,56,84,70,93,189.78,10,-2.00,-7.00,-1031.00
2024-05-17 15:42:58.413317,0,0,1,0,0,0,54,56,85,70,93,189.82,10,3.00,-8.00,-1085.00
2024-05-17 15:42:58.515040,0,0,1,0,0,-1,54,56,87,70,93,189.71,10,11.00,8.00,-1107.00
2024-05-17 15:42:58.616849,0,0,1,0,0,-2,54,56,89,70,93,189.74,11,9.00,-3.00,-1075.00
2024-05-17 15:42:58.719591,0,0,1,0,0,-3,54,56,92,70,93,189.83,11,8.00,1.00,-1092.00
2024-05-17 15:42:58.822121,0,0,1,0,0,-3,54,56,96,80,93,189.81,11,11.00,-6.00,-1053.00
2024-05-17 15:42:58.923980,0,0,1,0,0,-4,54,56,105,80,93,189.91,11,2.00,13.00,-1027.00
2024-05-17 15:42:59.024494,0,0,1,0,0,-4,53,57,110,90,93,189.94,11,-13.00,15.00,-986.00
2024-05-17 15:42:59.126654,0,0,1,0,0,-5,53,57,115,90,92,190.00,11,-13.00,23.00,-978.00
2024-05-17 15:42:59.231611,0,0,1,0,0,-5,53,57,120,100,92,190.05,11,12.00,29.00,-987.00
2024-05-17 15:42:59.330548,0,0,1,0,0,-5,53,57,125,100,92,190.07,11,-7.00,5.00,-1043.00
2024-05-17 15:42:59.436384,0,0,1,0,0,-5,53,57,131,110,92,190.13,11,-2.00,-25.00,-997.00
2024-05-17 15:42:59.536704,-1,0,1,0,0,-5,53,57,137,110,92,190.22,11,-22.00,-19.00,-1004.00
2024-05-17 15:42:59.636655,-1,0,1,0,0,-4,53,57,142,120,92,190.18,12,0.00,5.00,-1000.00
2024-05-17 15:42:59.743475,-1,0,1,0,0,-4,53,57,146,120,92,190.31,12,0.00,1.00,-950.00
2024-05-17 15:42:59.843895,0,0,1,0,0,-4,53,57,151,130,92,190.43,12,-26.00,-12.00,-989.00
2024-05-17 15:42:59.942354,0,0,1,0,0,-4,53,57,155,130,92,190.40,12,-26.00,-12.00,-987.00
2024-05-17 15:43:00.050810,0,0,1,0,0,-3,55,56,160,140,92,190.45,12,-21.00,-2.00,-983.00
2024-05-17 15:43:00.146423,0,0,1,0,0,-3,55,56,163,140,92,190.42,12,-12.00,-12.00,-989.00
2024-05-17 15:43:00.255550,0,0,1,0,0,-3,55,56,167,140,92,190.51,12,1.00,13.00,-981.00
2024-05-17 15:43:00.350412,0,0,1,0,0,-3,55,56,170,150,92,190.53,12,8.00,5.00,-960.00
2024-05-17 15:43:00.452383,0,0,1,0,0,-2,55,56,173,150,92,190.60,12,-6.00,-12.00,-997.00
2024-05-17 15:43:00.562690,0,0,1,0,0,-2,55,56,176,150,92,190.62,12,8.00,-3.00,-995.00
2024-05-17 15:43:00.656371,0,0,1,0,0,-2,55,56,179,160,92,190.69,13,0.00,-7.00,-976.00
2024-05-17 15:43:00.759064,0,0,1,0,0,-2,55,56,181,160,92,190.70,13,4.00,5.00,-952.00
2024-05-17 15:43:00.872720,0,0,1,0,0,-1,55,56,183,160,92,190.68,13,-6.00,13.00,-996.00
2024-05-17 15:43:00.962397,0,0,1,0,0,-1,55,56,184,160,92,190.67,13,8.00,2.00,-1002.00
2024-05-17 15:43:01.065120,0,0,1,0,0,0,55,57,186,170,92,190.76,13,-6.00,20.00,-936.00
2024-05-17 15:43:01.166921,0,0,1,0,0,0,55,57,186,170,91,190.76,13,4.00,15.00,-973.00
2024-05-17 15:43:01.269108,0,0,1,0,0,0,55,57,187,170,91,190.73,13,-4.00,-16.00,-964.00
2024-05-17 15:43:01.371789,0,0,1,0,0,0,55,57,187,170,91,190.77,13,-3.00,-16.00,-964.00
2024-05-17 15:43:01.421460,0,0,1,0,0,0,55,57,187,170,91,190.68,13,8.00,-21.00,-1011.00
2024-05-17 15:43:01.588041,0,0,1,0,0,0,55,57,188,170,91,190.71,14,8.00,0.00,-959.00
2024-05-17 15:43:01.625519,0,0,1,0,0,0,55,57,188,170,91,190.74,14,0.00,2.00,-957.00
2024-05-17 15:43:01.793667,0,1,1,0,0,0,55,57,187,170,91,190.73,14,7.00,6.00,-977.00
2024-05-17 15:43:01.829654,-1,1,1,0,0,0,55,57,187,170,91,190.75,14,13.00,-13.00,-1018.00
2024-05-17 15:43:01.996516,-1,0,1,0,0,0,55,57,187,170,91,190.67,14,3.00,5.00,-971.00
2024-05-17 15:43:02.033716,0,0,1,0,0,0,55,57,187,170,91,190.76,14,-6.00,5.00,-998.00
2024-05-17 15:43:02.135743,0,0,1,0,0,0,55,57,186,170,91,190.71,14,10.00,-13.00,-1010.00
2024-05-17 15:43:02.237574,0,1,1,0,0,0,55,57,186,170,91,190.85,14,5.00,-28.00,-989.00
2024-05-17 15:43:02.408087,0,1,1,0,0,0,55,57,186,170,91,190.82,14,1.00,-10.00,-950.00
2024-05-17 15:43:02.441450,0,1,1,0,0,0,55,57,186,170,91,190.79,14,13.00,13.00,-991.00
2024-05-17 15:43:02.612414,0,0,1,0,0,0,55,57,185,170,91,190.75,15,13.00,-11.00,-1004.00
2024-05-17 15:43:02.645288,0,0,1,0,0,0,55,57,185,170,91,190.77,15,-6.00,9.00,-989.00
2024-05-17 15:43:02.816920,0,0,1,0,0,0,55,57,185,170,91,190.82,15,18.00,-27.00,-999.00
2024-05-17 15:43:02.849548,0,0,1,0,0,0,55,57,185,170,91,190.68,15,5.00,6.00,-1011.00
2024-05-17 15:43:02.951767,0,0,1,0,0,0,55,57,185,170,91,190.76,15,10.00,12.00,-1015.00
2024-05-17 15:43:03.123794,0,0,1,0,0,0,54,58,185,170,91,190.74,15,4.00,-4.00,-964.00
2024-05-17 15:43:03.158616,0,0,1,0,0,0,54,58,185,170,90,190.77,15,-1.00,6.00,-941.00
2024-05-17 15:43:03.258673,0,0,1,0,0,0,54,58,184,170,90,190.78,15,10.00,-9.00,-950.00
2024-05-17 15:43:03.430856,0,0,1,0,0,1,54,58,183,170,90,190.73,15,4.00,7.00,-967.00
2024-05-17 15:43:03.461245,0,0,1,0,0,1,54,58,182,170,90,190.71,15,3.00,0.00,-978.00
2024-05-17 15:43:03.637395,0,0,1,0,0,2,54,58,180,160,90,190.65,16,0.00,-1.00,-964.00
2024-05-17 15:43:03.665185,0,0,1,0,0,2,54,58,178,160,90,190.71,16,19.00,-29.00,-946.00
2024-05-17 15:43:03.841420,0,0,1,0,0,2,54,58,176,160,90,190.71,16,-11.00,24.00,-982.00
2024-05-17 15:43:03.869947,0,0,1,0,0,2,54,58,174,160,90,190.69,16,3.00,25.00,-1010.00
2024-05-17 15:43:03.972491,0,0,1,0,0,2,54,58,171,150,90,190.66,16,-9.00,-6.00,-988.00
2024-05-17 15:43:04.149562,0,0,1,0,0,2,55,58,168,150,90,190.66,16,-12.00,12.00,-1012.00
2024-05-17 15:43:04.176204,0,0,1,0,0,2,55,58,165,150,90,190.58,16,-3.00,-6.00,-975.00
2024-05-17 15:43:04.353077,0,0,1,0,0,2,55,58,163,150,90,190.55,16,-6.00,-4.00,-1035.00
2024-05-17 15:43:04.380162,0,0,1,0,0,2,55,58,161,150,90,190.55,16,-5.00,5.00,-981.00
2024-05-17 15:43:04.558454,0,0,1,0,0,2,55,58,158,140,90,190.53,16,10.00,-7.00,-1020.00
2024-05-17 15:43:04.584177,0,0,1,0,0,2,55,58,156,140,90,190.50,17,-31.00,-16.00,-991.00
2024-05-17 15:43:04.762430,0,0,1,0,0,1,55,58,153,140,90,190.45,17,5.00,-4.00,-1040.00
2024-05-17 15:43:04.788168,0,0,1,0,0,1,55,58,151,140,90,190.38,17,0.00,-4.00,-1018.00
2024-05-17 15:43:04.890034,0,0,1,0,0,1,55,58,148,130,90,190.38,17,1.00,7.00,-1002.00
2024-05-17 15:43:05.069407,0,0,1,0,0,1,55,58,146,130,90,190.40,17,8.00,-10.00,-1008.00
2024-05-17 15:43:05.094259,0,0,1,0,0,1,56,58,143,130,90,190.42,17,-2.00,20.00,-1028.00
2024-05-17 15:43:05.274076,0,0,1,0,0,1,56,58,140,130,89,190.34,17,2.00,-24.00,-1009.00
2024-05-17 15:43:05.298138,0,0,1,0,0,1,56,58,138,130,89,190.37,17,-3.00,6.00,-998.00
2024-05-17 15:43:05.400229,0,0,1,0,0,1,56,58,136,120,89,190.39,17,-37.00,24.00,-1007.00
2024-05-17 15:43:05.451184,0,0,1,0,0,1,56,58,134,120,89,190.35,17,-1.00,-17.00,-1077.00
2024-05-17 15:43:05.581490,-1,0,1,0,0,1,56,58,132,120,89,190.31,18,-4.00,-7.00,-1003.00
2024-05-17 15:43:05.655186,0,0,1,0,0,1,56,58,131,120,89,190.27,18,9.00,-20.00,-1073.00
2024-05-17 15:43:05.786507,0,0,1,0,0,0,56,58,130,120,89,190.26,18,-8.00,-12.00,-1038.00
2024-05-17 15:43:05.859493,0,1,1,0,0,0,56,58,130,120,89,190.26,18,-5.00,-4.00,-998.00
2024-05-17 15:43:05.992651,0,1,1,0,0,0,56,58,130,120,89,190.27,18,-3.00,-27.00,-1003.00
2024-05-17 15:43:06.063371,-1,1,1,0,0,0,55,58,130,120,89,190.28,18,-50.00,13.00,-974.00
2024-05-17 15:43:06.195221,-1,1,1,0,0,0,55,58,131,120,89,190.30,18,-8.00,17.00,-998.00
2024-05-17 15:43:06.267297,-2,0,1,0,0,0,55,58,131,120,89,190.30,18,-12.00,1.00,-968.00
2024-05-17 15:43:06.399816,-1,0,1,0,0,0,55,58,130,120,89,190.33,18,-23.00,-7.00,-1036.00
2024-05-17 15:43:06.472950,-1,0,1,0,0,0,55,58,130,120,89,190.28,18,-6.00,-17.00,-1024.00
2024-05-17 15:43:06.573709,-1,0,1,0,0,0,55,58,129,120,89,190.20,19,15.00,-19.00,-1025.00
2024-05-17 15:43:06.706890,0,0,1,0,0,0,55,58,129,120,89,190.31,19,-6.00,-3.00,-983.00
2024-05-17 15:43:06.779646,0,0,1,0,0,0,55,58,130,120,89,190.26,19,-2.00,-18.00,-1016.00
2024-05-17 15:43:06.879725,0,0,1,0,0,0,55,58,130,120,89,190.27,19,-3.00,8.00,-1026.00
2024-05-17 15:43:07.015142,0,1,1,0,0,0,55,58,130,120,89,190.28,19,-8.00,-11.00,-971.00
2024-05-17 15:43:07.083192,0,1,1,0,0,0,56,59,130,120,88,190.34,19,5.00,-5.00,-1038.00
2024-05-17 15:43:07.218858,0,1,1,0,0,0,56,59,131,120,88,190.34,19,-1.00,-11.00,-968.00
2024-05-17 15:43:07.287211,0,1,1,0,0,0,56,59,131,120,88,190.32,19,-18.00,12.00,-1025.00
2024-05-17 15:43:07.389014,0,1,1,0,0,0,56,59,132,120,88,190.30,19,-8.00,1.00,-972.00
2024-05-17 15:43:07.525911,0,0,1,0,0,0,56,59,132,120,88,190.28,19,-5.00,-11.00,-985.00
2024-05-17 15:43:07.593056,-4,0,1,0,0,0,56,59,134,120,88,190.36,20,-3.00,11.00,-986.00
2024-05-17 15:43:07.695093,-8,0,1,1,0,0,56,59,135,120,88,190.35,20,2.00,-28.00,-989.00
2024-05-17 15:43:07.939873,-8,0,1,2,0,0,56,59,136,120,88,190.32,20,-11.00,0.00,-1027.00
2024-05-17 15:43:07.940165,-8,0,1,3,0,0,56,59,137,120,88,190.38,20,-24.00,-8.00,-1005.00
2024-05-17 15:43:08.001008,-8,0,1,4,0,0,56,59,136,120,88,190.36,20,-47.00,17.00,-938.00
2024-05-17 15:43:08.140320,-8,0,1,5,0,0,56,59,137,120,88,190.36,20,-88.00,13.00,-984.00
2024-05-17 15:43:08.205024,-7,0,1,6,0,0,56,59,137,120,88,190.38,20,-85.00,-4.00,-950.00
2024-05-17 15:43:08.345119,-7,1,1,7,0,0,56,59,135,120,88,190.36,20,-71.00,24.00,-937.00
2024-05-17 15:43:08.409693,-6,1,1,7,0,0,56,59,136,120,88,190.32,20,-33.00,1.00,-1032.00
2024-05-17 15:43:08.549892,-3,1,1,7,0,0,56,59,137,120,88,190.27,20,-77.00,0.00,-991.00
2024-05-17 15:43:08.612965,0,0,1,7,0,0,56,59,136,120,88,190.29,21,-57.00,4.00,-981.00
2024-05-17 15:43:08.754686,2,0,1,7,0,0,56,59,136,120,88,190.28,21,-67.00,5.00,-996.00
2024-05-17 15:43:08.817130,3,0,1,6,0,0,56,59,136,120,88,190.31,21,-45.00,6.00,-995.00
2024-05-17 15:43:08.868767,3,0,1,4,0,0,56,59,137,120,88,190.38,21,-42.00,-1.00,-1022.00
2024-05-17 15:43:08.969992,1,0,1,3,0,0,56,59,136,120,88,190.37,21,-55.00,-5.00,-1021.00
2024-05-17 15:43:09.164374,0,1,1,3,0,0,56,59,137,120,88,190.34,21,-21.00,4.00,-1017.00
2024-05-17 15:43:09.173936,0,2,1,3,0,0,56,59,137,120,88,190.44,21,-12.00,1.00,-1019.00
2024-05-17 15:43:09.369096,0,2,1,2,0,0,56,59,137,120,88,190.48,21,-28.00,19.00,-970.00
2024-05-17 15:43:09.377939,0,2,1,2,0,0,56,59,138,120,88,190.45,21,-27.00,30.00,-956.00
2024-05-17 15:43:09.574008,0,1,1,2,1,0,56,59,140,120,88,190.48,21,-18.00,-7.00,-1013.00
2024-05-17 15:43:09.581884,0,1,1,2,1,0,56,59,141,120,88,190.54,22,11.00,-15.00,-1024.00
2024-05-17 15:43:09.778690,0,1,1,2,1,0,56,59,142,120,88,190.57,22,1.00,12.00,-996.00
2024-05-17 15:43:09.785883,0,1,1,2,1,0,56,59,144,120,88,190.53,22,-14.00,-7.00,-927.00
2024-05-17 15:43:09.983693,0,1,1,1,1,0,56,59,144,120,88,190.45,22,-28.00,16.00,-979.00
2024-05-17 15:43:09.990659,-1,0,1,1,1,0,56,59,144,120,88,190.51,22,-19.00,11.00,-995.00
2024-05-17 15:43:10.188318,-2,-3,1,1,1,0,57,59,147,120,87,190.49,22,7.00,0.00,-995.00
2024-05-17 15:43:10.193991,0,-1,1,1,0,0,57,59,148,120,87,190.52,22,-15.00,9.00,-1043.00
2024-05-17 15:43:10.393060,2,0,1,0,0,0,57,59,148,130,87,190.57,22,22.00,20.00,-1017.00
2024-05-17 15:43:10.398271,1,0,1,0,0,0,57,59,148,130,87,190.62,22,-2.00,4.00,-982.00
2024-05-17 15:43:10.499935,0,0,1,0,0,0,57,59,147,130,87,190.62,22,-10.00,5.00,-963.00
2024-05-17 15:43:10.700326,0,0,1,0,0,0,57,59,148,130,87,190.60,23,6.00,6.00,-985.00
2024-05-17 15:43:10.703902,0,0,1,0,0,0,57,59,147,130,87,190.60,23,14.00,10.00,-1031.00
2024-05-17 15:43:10.806019,0,0,1,0,0,0,57,59,147,130,87,190.47,23,18.00,-5.00,-1025.00
2024-05-17 15:43:10.908002,0,0,1,0,0,0,57,59,146,130,87,190.53,23,5.00,5.00,-1014.00
2024-05-17 15:43:11.017631,0,0,1,0,0,0,57,59,146,130,87,190.48,23,-1.00,22.00,-963.00
2024-05-17 15:43:11.111877,0,0,1,0,0,0,57,59,144,130,87,190.44,23,-2.00,31.00,-998.00
2024-05-17 15:43:11.314754,0,0,1,0,0,0,57,59,144,130,87,190.47,23,16.00,6.00,-1011.00
2024-05-17 15:43:11.315813,0,0,1,0,0,0,57,59,143,120,87,190.47,23,12.00,24.00,-1018.00
2024-05-17 15:43:11.519671,0,0,1,0,0,0,57,59,142,120,87,190.53,23,11.00,-5.00,-1003.00
2024-05-17 15:43:11.519920,0,0,1,0,0,0,57,59,142,120,87,190.43,23,15.00,-4.00,-1027.00
2024-05-17 15:43:11.622128,0,0,1,0,0,0,57,59,141,120,87,190.45,24,-4.00,28.00,-969.00
2024-05-17 15:43:11.724298,0,0,1,0,0,0,57,59,140,120,87,190.48,24,7.00,-5.00,-967.00
2024-05-17 15:43:11.826887,-1,0,1,0,0,0,57,59,139,120,87,190.49,24,-1.00,4.00,-1015.00
2024-05-17 15:43:11.928798,-1,0,1,0,0,0,57,59,139,120,87,190.39,24,10.00,-3.00,-1046.00
2024-05-17 15:43:12.033956,-1,0,1,0,0,0,57,59,138,120,87,190.36,24,3.00,5.00,-1015.00
2024-05-17 15:43:12.131850,-1,0,1,0,0,0,56,60,137,120,86,190.44,24,-12.00,8.00,-994.00
2024-05-17 15:43:12.237902,-1,0,1,0,0,0,56,60,137,120,86,190.48,24,0.00,7.00,-1009.00
2024-05-17 15:43:12.335879,-1,0,1,0,0,0,56,60,137,120,86,190.47,24,-8.00,28.00,-998.00
2024-05-17 15:43:12.437850,-1,0,1,0,0,0,56,60,137,120,86,190.47,24,12.00,-4.00,-1049.00
2024-05-17 15:43:12.543452,0,0,1,0,0,0,56,60,136,120,86,190.48,24,7.00,-1.00,-994.00
2024-05-17 15:43:12.643897,2,0,1,0,0,0,56,60,138,120,86,190.49,25,-7.00,0.00,-1018.00
2024-05-17 15:43:12.745969,8,0,1,0,0,0,56,60,139,120,86,190.51,25,-11.00,-1.00,-1037.00
2024-05-17 15:43:12.795010,8,0,1,-2,0,0,56,60,139,120,86,190.50,25,16.00,-18.00,-1073.00
2024-05-17 15:43:12.897026,8,0,1,-4,0,0,56,60,138,120,86,190.41,25,0.00,-20.00,-971.00
2024-05-17 15:43:12.999032,6,1,1,-5,0,0,56,60,137,120,86,190.48,25,22.00,-12.00,-1057.00
2024-05-17 15:43:13.157891,5,1,1,-6,0,0,57,60,137,120,86,190.41,25,36.00,6.00,-1036.00
2024-05-17 15:43:13.254671,5,1,1,-7,0,0,57,60,137,120,86,190.50,25,20.00,5.00,-998.00
2024-05-17 15:43:13.362672,4,0,1,-7,0,0,57,60,137,120,86,190.48,25,43.00,-17.00,-985.00
2024-05-17 15:43:13.406860,2,0,1,-7,0,0,57,60,138,120,86,190.51,25,54.00,-1.00,-1013.00
2024-05-17 15:43:13.567470,0,0,1,-7,0,0,57,60,136,120,86,190.52,25,56.00,-21.00,-1010.00
2024-05-17 15:43:13.613081,-2,0,1,-7,0,0,57,60,136,120,86,190.42,26,56.00,-5.00,-961.00
2024-05-17 15:43:13.713757,-4,0,1,-6,0,0,57,60,136,120,86,190.39,26,39.00,-1.00,-1014.00
2024-05-17 15:43:13.876293,-5,0,1,-5,0,0,57,60,136,120,86,190.40,26,17.00,16.00,-986.00
2024-05-17 15:43:13.919988,-3,0,1,-4,0,0,57,60,135,120,86,190.46,26,29.00,8.00,-956.00
2024-05-17 15:43:14.018690,-2,0,1,-3,0,0,57,60,135,120,86,190.41,26,29.00,0.00,-999.00
2024-05-17 15:43:14.181870,-1,0,1,-3,0,0,58,60,134,120,86,190.43,26,26.00,9.00,-1059.00
2024-05-17 15:43:14.222682,-1,3,1,-2,0,0,58,60,135,120,86,190.47,26,17.00,-4.00,-981.00
2024-05-17 15:43:14.386654,-1,4,1,-2,0,0,58,60,136,120,86,190.44,26,27.00,4.00,-1030.00
2024-05-17 15:43:14.431485,-2,4,1,-2,0,0,58,60,134,120,86,190.46,26,18.00,-12.00,-981.00
2024-05-17 15:43:14.528659,-2,3,1,-1,1,0,58,60,135,120,86,190.45,26,20.00,-21.00,-1026.00
2024-05-17 15:43:14.699203,-3,3,1,-1,1,0,58,60,134,120,86,190.45,27,15.00,-47.00,-1034.00
2024-05-17 15:43:14.732708,-2,2,1,0,1,0,58,60,132,120,86,190.44,27,5.00,10.00,-949.00
2024-05-17 15:43:14.898655,-1,-1,1,0,1,0,58,60,134,120,86,190.42,27,22.00,-45.00,-1086.00
2024-05-17 15:43:14.936950,-1,-3,1,0,0,0,58,60,133,120,86,190.40,27,22.00,-22.00,-1016.00
2024-05-17 15:43:15.103742,-1,0,1,0,0,0,58,60,132,120,86,190.39,27,-21.00,7.00,-971.00
2024-05-17 15:43:15.140689,0,0,1,0,0,0,58,60,132,120,86,190.40,27,9.00,-23.00,-1016.00
2024-05-17 15:43:15.308399,0,1,1,0,0,0,58,60,132,120,86,190.38,27,23.00,-27.00,-994.00
2024-05-17 15:43:15.344699,-1,1,1,0,0,0,58,60,131,120,86,190.33,27,11.00,-19.00,-1004.00
2024-05-17 15:43:15.513274,-1,1,1,0,0,0,58,60,131,120,86,190.40,27,8.00,-16.00,-974.00
2024-05-17 15:43:15.548686,0,1,1,0,0,0,58,60,131,120,86,190.50,27,-4.00,9.00,-994.00
2024-05-17 15:43:15.718068,0,1,1,0,0,0,58,60,131,120,86,190.49,28,20.00,-22.00,-989.00
2024-05-17 15:43:15.752653,0,1,1,0,0,0,58,60,130,120,86,190.43,28,-16.00,-14.00,-999.00
2024-05-17 15:43:15.922750,0,1,1,0,0,0,58,60,130,120,86,190.45,28,-2.00,-39.00,-1042.00
2024-05-17 15:43:15.956639,-1,1,1,0,0,0,58,60,130,120,86,190.43,28,-9.00,-8.00,-1007.00
2024-05-17 15:43:16.127567,-1,1,1,0,0,0,58,60,129,120,86,190.37,28,-19.00,11.00,-949.00
2024-05-17 15:43:16.160727,-1,1,1,0,0,0,58,60,129,120,85,190.42,28,-26.00,-20.00,-1041.00
2024-05-17 15:43:16.334466,-1,1,1,0,0,0,58,60,129,120,85,190.43,28,-39.00,-6.00,-1036.00
2024-05-17 15:43:16.364940,-1,1,1,0,0,0,58,60,129,120,85,190.37,28,-22.00,10.00,-980.00
2024-05-17 15:43:16.466763,-1,1,1,0,0,0,58,60,129,120,85,190.37,28,-18.00,-2.00,-993.00
2024-05-17 15:43:16.639635,-1,1,1,0,0,0,58,60,129,120,85,190.39,29,-32.00,1.00,-1037.00
2024-05-17 15:43:16.673784,0,1,1,0,0,0,58,60,129,120,85,190.38,29,-6.00,5.00,-974.00
2024-05-17 15:43:16.772671,0,1,1,0,0,0,58,60,129,120,85,190.41,29,6.00,-35.00,-996.00
2024-05-17 15:43:16.940048,0,1,1,0,0,0,58,60,130,120,85,190.39,29,-3.00,4.00,-991.00
2024-05-17 15:43:16.940749,0,1,1,0,0,0,58,60,130,120,85,190.47,29,0.00,9.00,-1046.00
2024-05-17 15:43:17.027668,0,0,1,0,0,0,58,60,131,120,85,190.48,29,16.00,-26.00,-1030.00
2024-05-17 15:43:17.151397,0,-7,1,0,0,0,57,61,131,120,85,190.46,29,14.00,-12.00,-1015.00
2024-05-17 15:43:17.234114,0,-7,1,0,-1,0,57,61,133,120,85,190.46,29,5.00,18.00,-966.00
2024-05-17 15:43:17.333447,0,-4,1,0,-3,0,57,61,131,120,85,190.45,29,-2.00,-28.00,-1047.00
2024-05-17 15:43:17.458598,0,-2,1,0,-3,0,57,61,131,120,85,190.49,29,-12.00,-5.00,-961.00
2024-05-17 15:43:17.537444,0,0,1,0,-4,0,57,61,130,120,85,190.52,30,-23.00,5.00,-950.00
2024-05-17 15:43:17.663376,0,2,1,0,-3,0,57,61,129,120,85,190.50,30,14.00,4.00,-1048.00
2024-05-17 15:43:17.741433,0,1,1,0,-3,0,57,61,129,120,85,190.48,30,-15.00,8.00,-1021.00
2024-05-17 15:43:17.843543,0,0,1,0,-2,0,57,61,129,120,85,190.40,30,4.00,13.00,-958.00
2024-05-17 15:43:17.945420,0,0,1,0,-2,0,57,61,129,120,85,190.43,30,-13.00,38.00,-1007.00
2024-05-17 15:43:18.072997,0,0,1,0,-2,0,57,61,129,120,85,190.43,30,11.00,21.00,-1023.00
2024-05-17 15:43:18.149430,0,0,1,0,-2,0,58,61,129,120,85,190.53,30,12.00,1.00,-991.00
2024-05-17 15:43:18.277822,0,0,1,0,-2,0,58,61,129,120,85,190.46,30,8.00,15.00,-1010.00
2024-05-17 15:43:18.353392,0,0,1,0,-2,0,58,61,128,120,85,190.43,30,15.00,26.00,-1010.00
2024-05-17 15:43:18.455385,0,1,1,0,-2,0,58,61,128,120,85,190.53,30,8.00,-3.00,-991.00
2024-05-17 15:43:18.584994,0,3,1,0,-2,0,58,61,128,120,85,190.46,31,12.00,24.00,-957.00
2024-05-17 15:43:18.659461,0,4,1,0,-1,0,58,61,128,120,85,190.40,31,4.00,14.00,-987.00
2024-05-17 15:43:18.789863,-2,3,1,0,0,0,58,61,128,120,85,190.55,31,14.00,-13.00,-1049.00
2024-05-17 15:43:18.863401,-4,1,1,0,0,0,58,61,129,120,85,190.42,31,18.00,-22.00,-966.00
2024-05-17 15:43:18.965430,-3,1,1,1,0,0,58,61,128,120,85,190.50,31,-5.00,19.00,-975.00
2024-05-17 15:43:19.097644,0,1,1,1,0,0,58,61,128,110,85,190.42,31,13.00,0.00,-1016.00
2024-05-17 15:43:19.169695,4,1,1,1,0,0,58,61,128,120,85,190.45,31,-2.00,-6.00,-1026.00
2024-05-17 15:43:19.301889,1,1,1,0,0,0,58,61,130,120,85,190.45,31,10.00,5.00,-997.00
2024-05-17 15:43:19.373701,0,1,1,0,0,0,58,61,131,120,85,190.42,31,10.00,2.00,-969.00
2024-05-17 15:43:19.512556,0,1,1,0,0,0,58,61,132,120,85,190.39,31,9.00,0.00,-1035.00
2024-05-17 15:43:19.577455,0,1,1,0,0,0,58,61,132,120,85,190.43,32,16.00,-22.00,-970.00
2024-05-17 15:43:19.714627,0,1,1,0,0,0,58,61,133,120,85,190.47,32,16.00,-31.00,-1006.00
2024-05-17 15:43:19.781570,0,1,1,0,0,0,58,61,133,120,85,190.50,32,19.00,3.00,-1028.00
2024-05-17 15:43:19.916427,0,1,1,0,0,0,58,61,134,120,85,190.55,32,8.00,1.00,-1022.00
2024-05-17 15:43:19.986721,0,1,1,0,0,0,58,61,134,120,85,190.55,32,13.00,9.00,-1021.00
2024-05-17 15:43:20.121042,0,1,1,0,0,0,58,61,134,120,85,190.53,32,3.00,5.00,-1011.00
2024-05-17 15:43:20.190090,0,1,1,0,0,0,59,61,135,120,84,190.50,32,11.00,-14.00,-1007.00
2024-05-17 15:43:20.326773,0,1,1,0,0,0,59,61,134,120,84,190.53,32,11.00,-11.00,-992.00
2024-05-17 15:43:20.394346,0,1,1,0,0,0,59,61,134,120,84,190.56,32,2.00,-15.00,-988.00
2024-05-17 15:43:20.532762,0,1,1,0,0,0,59,61,134,120,84,190.53,32,26.00,-41.00,-995.00
2024-05-17 15:43:20.599475,0,1,1,0,0,0,59,61,134,120,84,190.56,33,15.00,-16.00,-1037.00
2024-05-17 15:43:20.735609,0,0,1,0,0,0,59,61,134,120,84,190.53,33,15.00,-11.00,-1002.00
2024-05-17 15:43:20.751401,0,0,1,0,0,0,59,61,135,120,84,190.53,33,16.00,-18.00,-1037.00
2024-05-17 15:43:20.940436,0,1,1,0,0,0,59,61,135,120,84,190.51,33,24.00,-22.00,-1054.00
2024-05-17 15:43:20.955829,0,1,1,0,0,0,59,61,136,120,84,190.44,33,21.00,-15.00,-1024.00
2024-05-17 15:43:21.145498,0,1,1,0,0,0,59,61,136,120,84,190.48,33,7.00,-19.00,-973.00
2024-05-17 15:43:21.210427,0,1,1,0,0,0,59,61,136,120,84,190.48,33,2.00,14.00,-986.00
2024-05-17 15:43:21.261241,0,1,1,0,0,0,59,61,136,120,84,190.49,33,-4.00,-9.00,-1011.00
2024-05-17 15:43:21.453241,0,5,1,0,0,0,59,61,138,120,84,190.52,33,8.00,-3.00,-1007.00
2024-05-17 15:43:21.465319,0,8,1,0,1,0,59,61,138,120,84,190.59,33,3.00,14.00,-968.00
2024-05-17 15:43:21.656975,0,7,1,0,2,0,59,61,136,120,84,190.56,34,20.00,-22.00,-1055.00
2024-05-17 15:43:21.669622,0,5,1,0,3,0,59,61,138,120,84,190.58,34,20.00,-18.00,-994.00
2024-05-17 15:43:21.861987,0,2,1,0,3,0,59,61,136,120,84,190.55,34,-11.00,-27.00,-968.00
2024-05-17 15:43:21.873240,0,0,1,0,3,0,59,61,135,120,84,190.56,34,7.00,-27.00,-1039.00
2024-05-17 15:43:21.975283,0,0,1,0,3,0,59,61,135,120,84,190.50,34,3.00,-62.00,-1002.00
2024-05-17 15:43:22.169409,0,1,1,0,2,0,59,61,135,120,84,190.54,34,9.00,-39.00,-1014.00
2024-05-17 15:43:22.179900,0,1,1,0,2,0,59,62,135,120,84,190.54,34,15.00,-23.00,-1022.00
2024-05-17 15:43:22.373752,0,1,1,0,2,0,59,62,135,120,84,190.48,34,26.00,-56.00,-1027.00
2024-05-17 15:43:22.383279,0,2,1,0,2,0,59,62,135,120,84,190.57,34,-1.00,-13.00,-967.00
2024-05-17 15:43:22.578722,0,2,1,0,2,0,59,62,135,120,84,190.48,34,0.00,-35.00,-1027.00
2024-05-17 15:43:22.587213,0,2,1,0,2,0,59,62,134,120,84,190.51,35,-1.00,-2.00,-1013.00
2024-05-17 15:43:22.783424,0,2,1,0,2,0,59,62,134,120,84,190.47,35,-29.00,0.00,-1030.00
2024-05-17 15:43:22.791188,0,2,1,0,2,0,59,62,133,120,84,190.50,35,-3.00,8.00,-1022.00
2024-05-17 15:43:22.893373,-1,2,1,0,2,0,59,62,133,120,84,190.57,35,-2.00,2.00,-952.00
2024-05-17 15:43:22.996703,0,2,1,0,2,0,59,62,134,120,84,190.55,35,18.00,-57.00,-1004.00
2024-05-17 15:43:23.097813,0,2,1,0,2,0,59,62,134,120,84,190.52,35,21.00,-47.00,-1030.00
2024-05-17 15:43:23.295760,0,2,1,0,2,0,59,62,135,120,84,190.51,35,8.00,-60.00,-976.00
2024-05-17 15:43:23.303692,0,2,1,0,2,0,59,62,135,120,84,190.57,35,24.00,-40.00,-1080.00
2024-05-17 15:43:23.403197,0,2,1,0,2,0,59,62,135,120,84,190.56,35,-8.00,-5.00,-935.00
2024-05-17 15:43:23.605272,0,2,1,0,2,0,59,62,136,120,84,190.51,35,16.00,-17.00,-1072.00
2024-05-17 15:43:23.607479,0,0,1,0,2,0,59,62,136,120,84,190.54,36,4.00,-6.00,-983.00
2024-05-17 15:43:23.809711,0,-4,1,0,1,0,59,62,136,120,84,190.54,36,12.00,-32.00,-1048.00
2024-05-17 15:43:23.811182,0,-1,1,0,0,0,59,62,136,120,84,190.44,36,4.00,-7.00,-1010.00
2024-05-17 15:43:23.913317,0,0,1,0,0,0,59,62,135,120,84,190.50,36,-22.00,-31.00,-980.00
2024-05-17 15:43:24.015310,0,0,1,0,0,0,59,62,135,120,84,190.57,36,15.00,-9.00,-995.00
2024-05-17 15:43:24.119711,0,1,1,0,0,0,59,62,135,120,84,190.55,36,12.00,-18.00,-1018.00
2024-05-17 15:43:24.219344,0,1,1,0,0,0,60,62,135,120,84,190.51,36,8.00,-8.00,-999.00
2024-05-17 15:43:24.322131,0,1,1,0,0,0,60,62,135,120,84,190.60,36,9.00,1.00,-1017.00
2024-05-17 15:43:24.423289,0,1,1,0,0,0,60,62,135,120,84,190.51,36,2.00,-15.00,-996.00
2024-05-17 15:43:24.627121,0,0,1,0,0,0,60,62,135,120,84,190.55,36,26.00,-21.00,-1060.00
2024-05-17 15:43:24.627563,0,0,1,0,0,0,60,62,135,120,84,190.58,37,19.00,0.00,-1002.00
2024-05-17 15:43:24.729360,0,0,1,0,0,0,60,62,135,120,84,190.59,37,4.00,-2.00,-1013.00
2024-05-17 15:43:24.780159,0,1,1,0,0,0,60,62,135,120,84,190.65,37,13.00,-9.00,-1048.00
2024-05-17 15:43:24.934011,-1,1,1,0,0,0,60,62,135,120,84,190.59,37,-6.00,-14.00,-958.00
2024-05-17 15:43:24.984096,-1,1,1,0,0,0,60,62,135,120,84,190.60,37,-5.00,-18.00,-1005.00
2024-05-17 15:43:25.138712,0,1,1,0,0,0,60,62,135,120,84,190.67,37,7.00,-12.00,-1017.00
2024-05-17 15:43:25.188217,0,1,1,0,0,0,60,62,135,120,84,190.62,37,7.00,-18.00,-980.00
2024-05-17 15:43:25.290573,0,1,1,0,0,0,60,62,134,120,84,190.62,37,3.00,-24.00,-1013.00
2024-05-17 15:43:25.392471,-1,1,1,0,0,0,60,62,134,120,84,190.64,37,9.00,-21.00,-979.00
2024-05-17 15:43:25.549771,-1,1,1,0,0,0,60,62,134,120,84,190.54,37,4.00,-1.00,-1020.00
2024-05-17 15:43:25.597921,0,1,1,0,0,0,60,62,134,120,84,190.54,38,-9.00,-19.00,-984.00
2024-05-17 15:43:25.698666,0,1,1,0,0,0,60,62,134,120,84,190.56,38,-3.00,-21.00,-1015.00
2024-05-17 15:43:25.800120,0,1,1,0,0,0,60,62,134,120,84,190.60,38,13.00,-10.00,-989.00
2024-05-17 15:43:25.902118,0,1,1,0,0,0,60,62,134,120,84,190.62,38,1.00,-8.00,-1014.00
2024-05-17 15:43:26.060369,0,1,4,0,0,0,60,62,134,120,84,190.55,38,14.00,-13.00,-1019.00
2024-05-17 15:43:26.107028,0,1,10,0,0,0,60,62,134,120,84,190.58,38,13.00,-26.00,-1002.00
2024-05-17 15:43:26.264981,0,1,16,0,0,0,60,63,134,120,84,190.51,38,27.00,-11.00,-1027.00
2024-05-17 15:43:26.310123,0,1,22,0,0,0,60,63,133,120,84,190.55,38,-7.00,-7.00,-980.00
2024-05-17 15:43:26.470025,0,1,28,0,0,0,60,63,132,120,84,190.55,38,28.00,-27.00,-1027.00
2024-05-17 15:43:26.513958,0,0,34,0,0,0,60,63,132,120,84,190.51,38,29.00,-16.00,-1044.00
2024-05-17 15:43:26.674585,0,0,40,0,0,0,60,63,131,120,84,190.60,39,8.00,-20.00,-1009.00
2024-05-17 15:43:26.718331,0,0,47,0,0,0,60,63,130,120,84,190.55,39,-10.00,-14.00,-990.00
2024-05-17 15:43:26.881651,0,0,53,0,0,0,60,63,130,120,84,190.59,39,-14.00,-24.00,-986.00
2024-05-17 15:43:26.922543,-1,0,59,0,0,0,60,63,129,120,84,190.53,39,-4.00,-24.00,-1031.00
2024-05-17 15:43:27.084715,-1,0,65,0,0,0,60,63,129,120,84,190.50,39,0.00,-29.00,-1024.00
2024-05-17 15:43:27.126177,-1,0,72,0,0,0,60,63,129,120,83,190.47,39,11.00,-17.00,-1069.00
2024-05-17 15:43:27.228995,-1,0,78,0,0,0,60,62,129,120,83,190.47,39,7.00,-23.00,-1021.00
2024-05-17 15:43:27.330166,-1,0,84,0,0,0,60,62,129,120,83,190.50,39,-10.00,-23.00,-970.00
2024-05-17 15:43:27.496410,-1,0,90,0,0,0,60,62,129,120,83,190.61,39,0.00,-24.00,-1042.00
2024-05-17 15:43:27.535608,-1,1,96,0,0,0,60,62,129,120,83,190.53,39,-52.00,-13.00,-964.00
2024-05-17 15:43:27.635921,-1,1,102,0,0,0,60,62,129,120,83,190.55,40,-32.00,0.00,-1028.00
2024-05-17 15:43:27.800913,-1,0,108,0,0,0,60,62,130,120,83,190.57,40,-18.00,-9.00,-995.00
2024-05-17 15:43:27.839853,-2,0,114,0,0,0,60,62,130,120,83,190.53,40,-29.00,-16.00,-967.00
2024-05-17 15:43:28.006132,-2,0,120,0,0,0,60,62,131,120,83,190.55,40,-2.00,-17.00,-1038.00
2024-05-17 15:43:28.044385,-2,0,126,0,0,0,60,62,131,120,83,190.52,40,-18.00,-13.00,-1001.00
2024-05-17 15:43:28.094910,-1,0,132,0,0,0,60,62,132,120,83,190.54,40,-10.00,-4.00,-1042.00
2024-05-17 15:43:28.247829,-1,0,138,0,0,0,61,63,132,120,83,190.58,40,-24.00,-3.00,-985.00
2024-05-17 15:43:28.415783,-1,0,144,0,0,0,61,63,132,120,83,190.56,40,-40.00,3.00,-932.00
2024-05-17 15:43:28.451853,-1,0,150,0,0,0,61,63,133,120,83,190.59,40,-11.00,-7.00,-1025.00
2024-05-17 15:43:28.620311,-1,0,156,0,0,0,61,63,133,120,83,190.60,40,-30.00,-16.00,-955.00
2024-05-17 15:43:28.620387,0,0,162,0,0,0,61,63,133,120,83,190.57,41,-32.00,3.00,-992.00
2024-05-17 15:43:28.707407,-1,0,168,0,0,0,61,63,134,120,83,190.57,41,-29.00,0.00,-970.00
2024-05-17 15:43:28.825071,-1,0,174,0,0,0,61,63,133,120,83,190.61,41,-13.00,14.00,-1039.00
2024-05-17 15:43:28.911822,-1,0,-179,0,0,0,61,63,134,120,83,190.60,41,-28.00,13.00,-984.00
2024-05-17 15:43:29.029778,-1,0,-174,0,0,0,61,63,133,120,83,190.64,41,-30.00,0.00,-944.00
2024-05-17 15:43:29.116355,-1,0,-168,0,0,0,61,63,133,120,83,190.55,41,-27.00,0.00,-995.00
2024-05-17 15:43:29.218381,-1,0,-162,0,0,0,61,63,134,120,83,190.64,41,-22.00,13.00,-969.00
2024-05-17 15:43:29.320621,-1,0,-156,0,0,0,61,63,135,120,83,190.66,41,-12.00,0.00,-1018.00
2024-05-17 15:43:29.422976,-1,0,-150,0,0,0,61,63,135,120,83,190.61,41,-5.00,-5.00,-1035.00
2024-05-17 15:43:29.542582,-1,0,-144,0,0,0,61,63,135,120,83,190.55,41,-36.00,-6.00,-977.00
2024-05-17 15:43:29.626012,0,0,-139,0,0,0,61,63,136,120,83,190.60,42,-24.00,-3.00,-1000.00
2024-05-17 15:43:29.746669,-1,0,-133,0,0,0,61,63,136,120,83,190.59,42,-22.00,-8.00,-1015.00
2024-05-17 15:43:29.829962,-1,0,-127,0,0,0,61,63,136,120,83,190.60,42,-1.00,23.00,-1052.00
2024-05-17 15:43:29.951586,-1,0,-121,0,0,0,61,63,136,120,83,190.64,42,-32.00,30.00,-969.00
2024-05-17 15:43:30.034260,0,0,-116,0,0,0,61,63,136,120,83,190.63,42,-6.00,4.00,-996.00
2024-05-17 15:43:30.156160,0,0,-110,0,0,0,61,63,136,120,83,190.69,42,-19.00,23.00,-974.00
2024-05-17 15:43:30.238173,0,0,-98,0,0,0,60,63,136,120,83,190.70,42,-20.00,9.00,-967.00
2024-05-17 15:43:30.361620,0,0,-93,0,0,0,60,63,136,120,83,190.60,42,-21.00,-1.00,-980.00
2024-05-17 15:43:30.441848,0,0,-87,0,0,0,60,63,136,120,83,190.62,42,-37.00,0.00,-951.00
2024-05-17 15:43:30.565792,0,0,-81,0,0,0,60,63,136,120,83,190.61,43,-45.00,-1.00,-965.00
2024-05-17 15:43:30.645998,-1,0,-75,0,0,0,60,63,136,120,83,190.58,43,-15.00,23.00,-1036.00
2024-05-17 15:43:30.770551,-1,0,-70,0,0,0,60,63,136,120,83,190.69,43,3.00,24.00,-1018.00
2024-05-17 15:43:30.850189,0,0,-64,0,0,0,60,63,136,120,83,190.64,43,-8.00,21.00,-1010.00
2024-05-17 15:43:30.983147,0,0,-58,0,0,0,60,63,136,120,83,190.67,43,-15.00,21.00,-973.00
2024-05-17 15:43:31.053683,0,-1,-52,0,0,0,60,63,136,120,83,190.66,43,-4.00,21.00,-980.00
2024-05-17 15:43:31.180479,0,-1,-46,0,0,0,60,63,136,120,83,190.68,43,-14.00,26.00,-977.00
2024-05-17 15:43:31.257766,0,-1,-40,0,0,0,61,63,136,120,83,190.66,43,-24.00,18.00,-942.00
2024-05-17 15:43:31.384954,0,-1,-34,0,0,0,61,63,136,120,83,190.66,43,-2.00,19.00,-1053.00
2024-05-17 15:43:31.462234,0,-1,-28,0,0,0,61,63,135,120,83,190.76,43,0.00,33.00,-985.00
2024-05-17 15:43:31.591508,0,-1,-22,0,0,0,61,63,135,120,83,190.70,44,-2.00,19.00,-977.00
2024-05-17 15:43:31.666482,0,-1,-17,0,0,0,61,63,135,120,83,190.71,44,-10.00,15.00,-994.00
2024-05-17 15:43:31.794543,0,-1,-12,0,0,0,61,63,134,120,83,190.67,44,5.00,25.00,-994.00
2024-05-17 15:43:31.869789,0,-1,-9,0,0,0,61,63,134,120,83,190.71,44,-15.00,21.00,-952.00
2024-05-17 15:43:31.971770,0,0,-6,0,0,0,61,63,133,120,83,190.76,44,-6.00,24.00,-964.00
2024-05-17 15:43:32.101731,0,-1,-4,0,0,0,61,63,133,120,83,190.78,44,-7.00,8.00,-988.00
2024-05-17 15:43:32.129274,0,-1,-2,0,0,0,61,63,132,120,83,190.70,44,-6.00,15.00,-1009.00
2024-05-17 15:43:32.306545,0,-1,-1,0,0,0,60,64,132,120,83,190.77,44,8.00,13.00,-980.00
2024-05-17 15:43:32.329148,0,0,0,0,0,0,60,64,131,120,83,190.64,44,6.00,23.00,-1019.00
2024-05-17 15:43:32.430897,0,0,0,0,0,0,60,64,132,120,83,190.69,44,11.00,22.00,-1030.00
2024-05-17 15:43:32.613980,0,0,0,0,0,0,60,64,132,120,83,190.73,45,17.00,0.00,-1032.00
2024-05-17 15:43:32.634875,0,0,1,0,0,0,60,64,132,120,83,190.66,45,5.00,24.00,-997.00
2024-05-17 15:43:32.824054,0,0,1,0,0,0,60,64,133,120,83,190.65,45,2.00,20.00,-1011.00
2024-05-17 15:43:32.838827,0,0,2,0,0,0,60,64,133,120,83,190.65,45,17.00,11.00,-1016.00
2024-05-17 15:43:33.024029,0,0,2,0,0,0,60,64,133,120,83,190.70,45,-7.00,29.00,-993.00
2024-05-17 15:43:33.043087,0,0,3,0,0,0,60,64,134,120,83,190.68,45,7.00,13.00,-1021.00
2024-05-17 15:43:33.228866,0,0,3,0,0,0,60,64,133,120,83,190.68,45,9.00,21.00,-1009.00
2024-05-17 15:43:33.246718,0,0,3,0,0,0,61,63,134,120,83,190.69,45,40.00,3.00,-1022.00
2024-05-17 15:43:33.348794,0,0,3,0,0,0,61,63,134,120,83,190.70,45,21.00,19.00,-991.00
2024-05-17 15:43:33.535434,0,-1,3,0,0,0,61,63,134,120,83,190.66,45,0.00,17.00,-971.00
2024-05-17 15:43:33.556975,0,-1,3,0,0,0,61,63,134,120,83,190.60,46,25.00,17.00,-1010.00
2024-05-17 15:43:33.656858,0,-1,3,0,0,0,61,63,134,120,83,190.64,46,23.00,21.00,-1018.00
2024-05-17 15:43:33.757683,0,-1,3,0,0,0,61,63,134,120,83,190.61,46,-1.00,13.00,-992.00
2024-05-17 15:43:33.858719,0,-1,3,0,0,0,61,63,134,120,83,190.70,46,2.00,17.00,-973.00
2024-05-17 15:43:34.047877,0,0,3,0,0,0,61,63,134,120,83,190.66,46,32.00,16.00,-1017.00
2024-05-17 15:43:34.063448,0,0,3,0,0,0,61,63,135,120,83,190.67,46,-13.00,17.00,-962.00
2024-05-17 15:43:34.252321,0,0,3,0,0,0,61,63,134,120,82,190.66,46,27.00,26.00,-1040.00
2024-05-17 15:43:34.266762,0,0,3,0,0,0,62,63,134,120,82,190.71,46,3.00,25.00,-991.00
2024-05-17 15:43:34.369228,0,0,3,0,0,0,62,63,134,120,82,190.67,46,0.00,7.00,-1072.00
2024-05-17 15:43:34.471454,0,0,2,0,0,0,62,63,134,120,82,190.68,46,-29.00,52.00,-1006.00
2024-05-17 15:43:34.572636,0,0,-3,0,0,0,62,63,134,120,82,190.74,47,24.00,7.00,-1021.00
2024-05-17 15:43:34.764254,0,0,-9,0,0,0,62,63,134,120,82,190.72,47,3.00,7.00,-988.00
2024-05-17 15:43:34.776898,0,0,-15,0,0,0,62,63,134,120,82,190.70,47,-3.00,18.00,-987.00
2024-05-17 15:43:34.968964,0,0,-21,0,0,0,62,63,134,120,82,190.69,47,-4.00,13.00,-980.00
2024-05-17 15:43:34.983003,0,0,-27,0,0,0,62,63,135,120,82,190.76,47,5.00,13.00,-1038.00
2024-05-17 15:43:35.082835,0,0,-33,0,0,0,62,63,135,120,82,190.74,47,0.00,17.00,-986.00
2024-05-17 15:43:35.276182,0,0,-39,0,0,0,62,63,135,120,82,190.78,47,-22.00,2.00,-1013.00
2024-05-17 15:43:35.286536,0,0,-45,0,0,0,61,63,135,120,82,190.70,47,-17.00,24.00,-969.00
2024-05-17 15:43:35.480952,0,0,-51,0,0,0,61,63,135,120,82,190.71,47,-3.00,5.00,-1002.00
2024-05-17 15:43:35.490943,0,0,-57,0,0,0,61,63,135,120,82,190.73,47,4.00,22.00,-978.00
2024-05-17 15:43:35.685789,0,0,-63,0,0,0,61,63,135,120,82,190.81,48,10.00,6.00,-1030.00
2024-05-17 15:43:35.695844,0,0,-68,0,0,0,61,63,135,120,82,190.71,48,-6.00,19.00,-953.00
2024-05-17 15:43:35.890518,0,0,-74,0,0,0,61,63,135,120,82,190.78,48,0.00,17.00,-1028.00
2024-05-17 15:43:35.898677,0,0,-80,0,0,0,61,63,134,120,82,190.80,48,-12.00,4.00,-1037.00
2024-05-17 15:43:36.000518,0,0,-86,0,0,0,61,63,135,120,82,190.75,48,-14.00,9.00,-1014.00
2024-05-17 15:43:36.051486,0,0,-92,0,0,0,61,63,135,120,82,190.76,48,-16.00,3.00,-1012.00
2024-05-17 15:43:36.197689,0,0,-98,0,0,0,61,63,135,120,82,190.75,48,-19.00,13.00,-975.00
2024-05-17 15:43:36.306532,0,0,-104,0,0,0,61,64,136,120,82,190.75,48,-5.00,17.00,-996.00
2024-05-17 15:43:36.504947,0,0,-110,0,0,0,61,64,135,120,82,190.70,48,-23.00,4.00,-980.00
2024-05-17 15:43:36.510478,0,0,-116,0,0,0,61,64,135,120,82,190.78,48,-22.00,4.00,-975.00
2024-05-17 15:43:36.561568,0,0,-122,0,0,0,61,64,136,120,82,190.79,49,-11.00,16.00,-1032.00
2024-05-17 15:43:36.663578,0,0,-128,0,0,0,61,64,136,120,82,190.78,49,-29.00,6.00,-991.00
2024-05-17 15:43:36.812053,0,0,-134,0,0,0,61,64,136,120,82,190.82,49,-7.00,3.00,-1024.00
2024-05-17 15:43:36.867496,0,0,-140,0,0,0,61,64,136,120,82,190.80,49,-9.00,11.00,-1024.00
2024-05-17 15:43:37.017060,0,0,-146,0,0,0,61,64,137,120,82,190.79,49,-22.00,20.00,-964.00
2024-05-17 15:43:37.071483,0,0,-152,0,0,0,61,64,137,120,82,190.77,49,-1.00,11.00,-994.00
2024-05-17 15:43:37.221670,0,0,-158,0,0,0,61,64,137,120,82,190.78,49,-11.00,10.00,-978.00
2024-05-17 15:43:37.275468,0,0,-164,0,0,0,61,64,137,120,82,190.77,49,-20.00,17.00,-1024.00
2024-05-17 15:43:37.426973,0,0,-169,0,0,0,61,64,137,120,82,190.81,49,-56.00,2.00,-940.00
2024-05-17 15:43:37.479398,0,0,-175,0,0,0,61,64,137,120,82,190.86,49,-37.00,10.00,-961.00
2024-05-17 15:43:37.631330,-1,0,178,0,0,0,61,64,137,120,82,190.88,50,-11.00,7.00,-1015.00
2024-05-17 15:43:37.683452,-1,0,172,0,0,0,61,64,136,120,82,190.81,50,-11.00,4.00,-1023.00
2024-05-17 15:43:37.836081,0,0,167,0,0,0,61,64,136,120,82,190.82,50,-24.00,-7.00,-1006.00
2024-05-17 15:43:37.887398,0,0,161,0,0,0,61,64,136,120,82,190.81,50,-15.00,-3.00,-1027.00
2024-05-17 15:43:37.989395,0,0,155,0,0,0,61,64,135,120,82,190.82,50,-16.00,-2.00,-1059.00
2024-05-17 15:43:38.143317,0,0,150,0,0,0,61,64,135,120,82,190.76,50,-20.00,7.00,-1041.00
2024-05-17 15:43:38.195723,0,0,144,0,0,0,61,64,134,120,82,190.82,50,-23.00,6.00,-1010.00
2024-05-17 15:43:38.296048,0,0,138,0,0,0,62,64,134,120,82,190.77,50,-17.00,-4.00,-986.00
2024-05-17 15:43:38.397723,0,0,132,0,0,0,62,64,134,120,82,190.78,50,-6.00,-6.00,-1033.00
2024-05-17 15:43:38.553716,0,0,127,0,0,0,62,64,134,120,82,190.72,50,0.00,-16.00,-1045.00
2024-05-17 15:43:38.603317,0,0,121,0,0,0,62,64,134,120,82,190.74,51,-13.00,-11.00,-1031.00
2024-05-17 15:43:38.703675,0,0,115,0,0,0,62,64,134,120,82,190.68,51,-44.00,-8.00,-959.00
2024-05-17 15:43:38.860118,0,0,109,0,0,0,62,64,134,120,82,190.76,51,-12.00,-4.00,-976.00
2024-05-17 15:43:38.907395,0,0,103,0,0,0,62,64,134,120,82,190.73,51,-12.00,-25.00,-1010.00
2024-05-17 15:43:39.014029,0,0,98,0,0,0,62,64,134,120,82,190.79,51,-20.00,-12.00,-992.00
2024-05-17 15:43:39.111388,0,0,92,0,0,0,62,64,134,120,82,190.71,51,-28.00,-8.00,-990.00
2024-05-17 15:43:39.269777,0,0,86,0,0,0,62,64,135,120,82,190.75,51,9.00,-14.00,-1018.00
2024-05-17 15:43:39.315333,0,0,80,0,0,0,63,64,135,120,82,190.74,51,-1.00,-14.00,-1034.00
2024-05-17 15:43:39.474500,0,0,74,0,0,0,63,64,135,120,82,190.75,51,11.00,-29.00,-968.00
2024-05-17 15:43:39.519323,0,0,68,0,0,0,63,64,135,120,82,190.71,51,-4.00,-5.00,-986.00
2024-05-17 15:43:39.681613,0,0,62,0,0,0,63,64,136,120,82,190.78,52,-7.00,-11.00,-1004.00
2024-05-17 15:43:39.723263,1,0,56,0,0,0,63,64,136,120,82,190.76,52,11.00,-5.00,-969.00
2024-05-17 15:43:39.884036,1,0,50,0,0,0,63,64,136,120,82,190.72,52,8.00,-10.00,-969.00
2024-05-17 15:43:39.927323,1,0,44,0,0,0,63,64,137,120,82,190.69,52,3.00,11.00,-1037.00
2024-05-17 15:43:40.029448,0,0,38,0,0,0,63,64,137,120,82,190.76,52,-13.00,-2.00,-963.00
2024-05-17 15:43:40.191783,1,0,32,0,0,0,63,64,137,120,82,190.74,52,-13.00,-7.00,-1050.00
2024-05-17 15:43:40.236888,0,0,26,0,0,0,63,64,136,120,82,190.80,52,8.00,-5.00,-970.00
2024-05-17 15:43:40.335275,0,0,20,0,0,0,62,64,137,120,82,190.71,52,-1.00,-7.00,-997.00
2024-05-17 15:43:40.437331,0,0,16,0,0,0,62,64,137,120,82,190.71,52,17.00,-11.00,-1046.00
2024-05-17 15:43:40.488949,0,0,13,0,0,0,62,64,137,120,82,190.76,52,-2.00,-11.00,-1015.00
2024-05-17 15:43:40.591918,0,0,10,0,0,0,62,64,137,120,82,190.76,53,25.00,-8.00,-1035.00
2024-05-17 15:43:40.692856,0,0,9,0,0,0,62,64,136,120,82,190.74,53,0.00,-3.00,-1020.00
2024-05-17 15:43:40.795455,0,0,7,0,0,0,62,64,136,120,82,190.70,53,12.00,0.00,-1007.00
2024-05-17 15:43:40.896984,0,0,6,0,0,0,62,64,135,120,82,190.66,53,18.00,10.00,-986.00
2024-05-17 15:43:41.000278,0,0,5,0,0,0,62,64,135,120,82,190.75,53,0.00,0.00,-993.00
2024-05-17 15:43:41.101006,0,0,5,0,0,0,62,64,135,120,81,190.69,53,17.00,1.00,-1016.00
2024-05-17 15:43:41.204274,0,0,4,0,0,0,62,64,134,120,81,190.82,53,21.00,0.00,-1029.00
2024-05-17 15:43:41.304559,0,0,4,0,0,0,62,65,134,120,81,190.76,53,11.00,8.00,-1031.00
2024-05-17 15:43:41.420237,0,0,4,0,0,0,62,65,133,120,81,190.70,53,-11.00,7.00,-958.00
2024-05-17 15:43:41.508268,0,0,4,0,0,0,62,65,132,120,81,190.69,53,20.00,15.00,-1064.00
2024-05-17 15:43:41.624937,0,0,4,0,0,0,62,65,133,120,81,190.70,54,-5.00,10.00,-959.00
2024-05-17 15:43:41.713837,0,0,4,0,0,0,62,65,132,120,81,190.73,54,25.00,6.00,-1063.00
2024-05-17 15:43:41.831542,0,0,4,0,0,0,62,65,133,120,81,190.67,54,16.00,14.00,-1034.00
2024-05-17 15:43:41.917884,0,0,4,0,0,0,62,65,133,120,81,190.67,54,20.00,18.00,-999.00
2024-05-17 15:43:42.018911,0,0,4,0,0,0,62,65,133,120,81,190.67,54,12.00,9.00,-970.00
2024-05-17 15:43:42.137096,0,0,4,0,0,0,62,65,133,120,81,190.78,54,-10.00,1.00,-964.00
2024-05-17 15:43:42.226326,0,0,4,0,0,0,62,65,133,120,81,190.83,54,-5.00,5.00,-966.00
2024-05-17 15:43:42.324325,0,0,4,0,0,0,62,65,133,120,81,190.79,54,35.00,12.00,-996.00
2024-05-17 15:43:42.426779,0,0,4,0,0,0,62,65,133,120,81,190.76,54,19.00,-1.00,-1017.00
2024-05-17 15:43:42.546737,0,0,4,0,0,0,62,65,133,120,81,190.74,54,-1.00,18.00,-964.00
2024-05-17 15:43:42.630368,0,0,4,0,0,0,62,65,134,120,81,190.68,55,11.00,11.00,-1000.00
2024-05-17 15:43:42.751400,0,0,4,0,0,0,62,65,134,120,81,190.72,55,13.00,12.00,-975.00
2024-05-17 15:43:42.834518,0,0,4,0,0,0,62,65,132,120,81,190.80,55,23.00,4.00,-1037.00
2024-05-17 15:43:42.956254,0,0,4,0,0,0,62,65,131,120,81,190.68,55,26.00,12.00,-1075.00
2024-05-17 15:43:43.038718,0,0,4,0,0,0,62,65,132,120,81,190.76,55,11.00,-2.00,-1016.00
2024-05-17 15:43:43.161977,0,0,4,0,0,0,62,65,131,120,81,190.81,55,3.00,6.00,-1206.00
2024-05-17 15:43:43.242115,0,0,4,0,0,-2,62,65,136,120,81,190.80,55,14.00,-15.00,-1839.00
2024-05-17 15:43:43.365665,0,-2,4,0,0,-9,62,65,172,120,81,190.97,55,12.00,221.00,-1351.00
2024-05-17 15:43:43.446284,-2,-72,3,0,-4,-13,62,65,202,140,81,191.16,55,-16.00,494.00,-1168.00
2024-05-17 15:43:43.548132,1,165,10,1,-11,-1,62,65,283,150,81,191.37,55,-26.00,422.00,-914.00
2024-05-17 15:43:43.650140,5,48,0,1,-6,11,62,65,149,140,81,190.96,56,-15.00,-32.00,-1632.00
2024-05-17 15:43:43.775267,0,0,-3,0,-2,9,62,65,139,130,81,190.75,56,-5.00,-23.00,-1484.00
2024-05-17 15:43:43.854040,0,1,-3,0,-1,5,62,65,135,120,81,190.64,56,53.00,23.00,-1257.00
2024-05-17 15:43:43.983781,0,0,1,0,-1,2,62,65,133,120,81,190.72,56,-9.00,1.00,-1096.00
2024-05-17 15:43:44.058142,0,0,4,0,-1,1,62,65,133,110,81,190.66,56,2.00,27.00,-1084.00
2024-05-17 15:43:44.184830,0,0,4,0,-1,0,62,65,133,110,81,190.73,56,4.00,31.00,-1071.00
2024-05-17 15:43:44.211078,0,0,4,0,0,0,62,65,134,110,81,190.68,56,-7.00,29.00,-979.00
2024-05-17 15:43:44.389645,0,1,4,0,0,0,62,65,135,120,81,190.71,56,-6.00,32.00,-990.00
2024-05-17 15:43:44.467042,0,0,4,0,0,0,62,65,134,120,81,190.67,56,2.00,15.00,-1001.00
2024-05-17 15:43:44.517940,0,0,4,0,0,0,62,65,134,120,81,190.72,57,0.00,37.00,-989.00
2024-05-17 15:43:44.696869,0,0,4,0,0,0,62,65,134,120,81,190.75,57,10.00,10.00,-981.00
2024-05-17 15:43:44.723231,0,0,4,0,0,0,62,65,135,120,81,190.76,57,0.00,17.00,-985.00
2024-05-17 15:43:44.825460,0,0,4,0,0,0,62,65,135,120,81,190.77,57,0.00,29.00,-987.00
2024-05-17 15:43:44.926476,0,0,4,0,0,0,62,65,135,120,81,190.73,57,2.00,28.00,-994.00
2024-05-17 15:43:45.027946,0,0,4,0,0,0,62,65,134,120,81,190.66,57,3.00,21.00,-1028.00
2024-05-17 15:43:45.214239,0,0,4,0,0,0,62,65,134,120,81,190.67,57,-6.00,38.00,-976.00
2024-05-17 15:43:45.231938,0,0,4,0,0,0,62,65,133,120,81,190.67,57,22.00,1.00,-1029.00
2024-05-17 15:43:45.413661,0,0,4,0,0,0,62,64,133,120,81,190.72,57,6.00,28.00,-999.00
2024-05-17 15:43:45.438288,0,0,4,0,0,0,62,64,133,120,81,190.61,57,10.00,15.00,-1013.00
2024-05-17 15:43:45.538831,0,0,4,0,0,0,62,64,133,120,81,190.64,58,16.00,4.00,-972.00
2024-05-17 15:43:45.720777,0,0,4,0,0,0,62,64,133,120,81,190.70,58,-3.00,15.00,-1014.00
2024-05-17 15:43:45.741964,0,0,5,0,0,0,62,64,132,120,81,190.63,58,-30.00,21.00,-991.00
2024-05-17 15:43:45.926098,0,0,5,0,0,0,62,64,132,120,81,190.64,58,-4.00,34.00,-979.00
2024-05-17 15:43:45.946604,0,0,5,0,0,0,62,64,132,120,81,190.76,58,6.00,11.00,-1027.00
2024-05-17 15:43:46.048282,0,0,5,0,0,0,62,64,132,120,81,190.75,58,18.00,-3.00,-1021.00
2024-05-17 15:43:46.149892,0,0,5,0,0,0,62,64,132,120,80,190.68,58,2.00,-8.00,-1015.00
2024-05-17 15:43:46.335171,0,0,5,0,0,0,62,64,133,120,80,190.66,58,9.00,15.00,-1007.00
2024-05-17 15:43:46.353916,0,0,5,0,0,0,63,65,132,120,80,190.65,58,-12.00,12.00,-969.00
2024-05-17 15:43:46.459321,0,0,5,0,0,0,63,65,132,120,80,190.70,58,7.00,13.00,-1023.00
2024-05-17 15:43:46.558212,0,0,5,0,0,0,63,65,132,120,80,190.68,59,9.00,14.00,-1003.00
2024-05-17 15:43:46.745849,0,0,5,0,0,0,63,65,132,110,80,190.70,59,0.00,-1.00,-1010.00
2024-05-17 15:43:46.762023,0,0,5,0,0,0,63,65,132,110,80,190.67,59,0.00,16.00,-967.00
2024-05-17 15:43:46.949752,0,0,5,0,0,0,63,65,132,110,80,190.67,59,5.00,22.00,-976.00
2024-05-17 15:43:46.966062,0,0,5,0,0,0,63,65,133,110,80,190.72,59,6.00,10.00,-1019.00
2024-05-17 15:43:47.154752,0,0,5,0,0,0,63,65,133,110,80,190.77,59,15.00,15.00,-976.00
2024-05-17 15:43:47.171449,0,0,5,0,0,0,63,65,133,110,80,190.78,59,4.00,14.00,-967.00
2024-05-17 15:43:47.271941,0,0,5,0,0,0,63,65,133,120,80,190.73,59,3.00,6.00,-1010.00
2024-05-17 15:43:47.461995,0,0,5,0,0,0,62,65,134,120,80,190.67,59,27.00,9.00,-1004.00
2024-05-17 15:43:47.475961,0,0,5,0,0,0,62,65,135,120,80,190.73,59,8.00,11.00,-976.00
2024-05-17 15:43:47.666845,0,0,4,0,0,0,62,65,135,120,80,190.72,60,13.00,9.00,-1012.00
2024-05-17 15:43:47.680356,1,0,4,0,0,0,62,65,136,120,80,190.81,60,2.00,1.00,-969.00
2024-05-17 15:43:47.731975,1,0,4,0,0,0,62,65,136,120,80,190.74,60,5.00,15.00,-958.00
2024-05-17 15:43:47.871386,1,0,4,0,0,0,62,65,136,120,80,190.78,60,14.00,26.00,-1001.00
2024-05-17 15:43:47.936589,1,0,4,0,0,0,62,65,136,120,80,190.75,60,10.00,0.00,-1000.00
2024-05-17 15:43:48.039846,1,0,4,0,0,0,62,65,136,120,80,190.83,60,21.00,21.00,-1040.00
2024-05-17 15:43:48.140244,1,0,4,0,0,0,62,65,136,120,80,190.74,60,21.00,21.00,-987.00
2024-05-17 15:43:48.240954,1,0,4,0,0,0,62,65,136,120,80,190.82,60,21.00,-11.00,-977.00
2024-05-17 15:43:48.384621,0,0,4,0,0,0,62,65,136,120,80,190.79,60,13.00,3.00,-997.00
2024-05-17 15:43:48.445184,0,0,4,0,0,0,62,65,136,120,80,190.75,60,3.00,20.00,-963.00
2024-05-17 15:43:48.588188,0,0,4,0,0,0,62,65,136,120,80,190.79,61,7.00,4.00,-1028.00
2024-05-17 15:43:48.648941,0,0,5,0,0,0,62,65,135,120,80,190.80,61,11.00,24.00,-971.00
2024-05-17 15:43:48.793237,0,0,5,0,0,0,62,65,135,120,80,190.81,61,8.00,20.00,-986.00
2024-05-17 15:43:48.853510,0,0,5,0,0,0,62,65,135,120,80,190.76,61,21.00,16.00,-1002.00
2024-05-17 15:43:48.954980,0,0,5,0,0,0,62,65,135,120,80,190.72,61,22.00,13.00,-983.00
2024-05-17 15:43:49.057005,0,0,5,0,0,0,62,65,135,120,80,190.79,61,-2.00,9.00,-950.00
2024-05-17 15:43:49.202618,0,0,5,0,0,0,62,65,134,120,80,190.79,61,24.00,20.00,-1011.00
2024-05-17 15:43:49.262784,0,0,5,0,0,0,62,65,134,120,80,190.79,61,21.00,7.00,-1004.00
2024-05-17 15:43:49.363147,0,0,5,0,0,0,62,65,133,120,80,190.77,61,15.00,0.00,-1008.00
2024-05-17 15:43:49.466073,0,0,5,0,0,0,62,65,132,120,80,190.80,61,-1.00,24.00,-974.00
2024-05-17 15:43:49.566880,0,0,5,0,0,0,62,65,132,120,80,190.81,62,31.00,9.00,-1009.00
2024-05-17 15:43:49.714396,0,0,5,0,0,0,62,65,131,120,80,190.92,62,3.00,4.00,-1184.00
2024-05-17 15:43:49.770721,0,0,4,0,0,-4,62,65,135,120,80,190.88,62,22.00,8.00,-1768.00
2024-05-17 15:43:49.923473,0,16,4,0,0,-12,62,65,157,120,80,191.06,62,-32.00,-61.00,-1861.00
2024-05-17 15:43:49.974730,0,114,4,0,9,-11,62,65,256,140,80,191.18,62,47.00,650.00,-1217.00
2024-05-17 15:43:50.124068,1,-124,4,0,10,4,62,65,317,140,80,191.04,62,3.00,738.00,-852.00
2024-05-17 15:43:50.178777,0,-18,5,0,4,10,62,65,156,130,80,191.15,62,-25.00,618.00,-997.00
2024-05-17 15:43:50.328746,0,0,4,0,3,7,62,65,142,130,80,190.82,62,50.00,13.00,-1449.00
2024-05-17 15:43:50.382865,0,-1,4,0,3,3,63,66,137,120,80,190.81,62,-39.00,-33.00,-1288.00
2024-05-17 15:43:50.533592,0,-2,4,0,3,1,63,66,136,120,80,190.77,62,14.00,3.00,-1166.00
2024-05-17 15:43:50.586729,0,-2,5,0,2,0,63,66,134,110,80,190.75,63,-18.00,14.00,-1068.00
2024-05-17 15:43:50.738396,0,-1,5,0,2,0,63,66,133,110,80,190.73,63,10.00,7.00,-1059.00
2024-05-17 15:43:50.790687,0,-1,5,0,1,0,63,66,132,110,80,190.79,63,-4.00,4.00,-1016.00
2024-05-17 15:43:50.948025,0,0,5,0,1,0,63,66,132,110,80,190.75,63,5.00,14.00,-1024.00
2024-05-17 15:43:50.994734,0,0,5,0,0,0,63,66,132,110,80,190.71,63,0.00,13.00,-972.00
2024-05-17 15:43:51.147984,0,0,5,0,0,0,63,66,132,110,80,190.70,63,3.00,24.00,-957.00
2024-05-17 15:43:51.198740,0,-2,4,0,0,0,63,66,133,110,80,190.77,63,22.00,-29.00,-1011.00
2024-05-17 15:43:51.352794,0,-1,4,0,0,0,63,66,132,110,80,190.76,63,1.00,30.00,-974.00
2024-05-17 15:43:51.402665,0,-1,4,0,0,0,63,66,132,110,80,190.71,63,6.00,3.00,-1003.00
2024-05-17 15:43:51.557585,0,-1,4,0,0,0,63,66,131,110,80,190.72,63,0.00,12.00,-964.00
2024-05-17 15:43:51.606693,0,0,5,0,0,0,63,66,131,110,80,190.76,64,17.00,16.00,-999.00
2024-05-17 15:43:51.762383,0,0,5,0,0,0,63,66,131,110,80,190.84,64,-2.00,11.00,-976.00
2024-05-17 15:43:51.810575,0,0,5,0,0,0,63,66,131,110,80,190.74,64,7.00,15.00,-1005.00
