TS,pitch,roll,yaw,vgx,vgy,vgz,templ,temph,tof,h,bat,baro,time,agx,agy,agz
2024-05-19 08:35:52.927091,0,0,2,0,0,0,82,83,10,0,33,131.11,473,0.00,-4.00,-999.00
2024-05-19 08:35:52.974125,0,0,2,0,0,0,82,83,10,0,33,131.08,473,-1.00,-1.00,-999.00
2024-05-19 08:35:53.131861,0,0,2,0,0,0,82,83,10,0,33,131.12,473,0.00,-2.00,-1000.00
2024-05-19 08:35:53.178119,0,0,2,0,0,0,82,83,10,0,33,131.09,473,0.00,-2.00,-1001.00
2024-05-19 08:35:53.336454,0,0,2,0,0,0,82,83,10,0,33,131.10,473,0.00,-5.00,-1000.00
2024-05-19 08:35:53.382084,0,0,2,0,0,0,82,83,10,0,33,131.08,473,-2.00,-4.00,-998.00
2024-05-19 08:35:53.541792,0,0,2,0,0,0,82,83,10,0,33,131.11,473,0.00,-1.00,-1000.00
2024-05-19 08:35:53.586175,0,0,2,0,0,0,82,83,10,0,33,131.02,473,0.00,-2.00,-998.00
2024-05-19 08:35:53.746118,0,0,2,0,0,0,81,83,10,0,33,131.03,473,-2.00,-3.00,-1000.00
2024-05-19 08:35:53.790175,0,0,2,0,0,0,81,83,10,0,33,131.05,473,-1.00,-2.00,-1000.00
2024-05-19 08:35:53.950988,0,0,2,0,0,0,81,83,10,0,33,131.13,473,-1.00,-3.00,-1000.00
2024-05-19 08:35:53.994415,0,0,2,0,0,0,81,83,10,0,33,131.10,473,-1.00,-3.00,-1000.00
2024-05-19 08:35:54.155719,0,0,2,0,0,0,81,83,10,0,33,131.07,473,-1.00,-2.00,-1001.00
2024-05-19 08:35:54.198152,0,0,2,0,0,0,81,83,10,0,33,131.03,473,-1.00,-4.00,-999.00
2024-05-19 08:35:54.360906,0,0,2,0,0,0,81,83,10,0,33,131.03,473,0.00,-3.00,-999.00
2024-05-19 08:35:54.402115,0,0,2,0,0,0,81,83,10,0,33,130.99,473,0.00,-3.00,-1000.00
2024-05-19 08:35:54.503866,0,0,2,0,0,0,81,83,10,0,33,131.04,473,0.00,-2.00,-1001.00
2024-05-19 08:35:54.606104,0,0,2,0,0,0,81,83,10,0,33,131.02,473,0.00,-3.00,-999.00
2024-05-19 08:35:54.771794,0,0,2,0,0,0,81,84,10,0,33,131.07,473,-2.00,-3.00,-997.00
2024-05-19 08:35:54.810091,0,0,2,0,0,0,81,84,10,0,33,131.07,473,0.00,-3.00,-1000.00
2024-05-19 08:35:54.974971,0,0,2,0,0,0,81,84,10,0,33,131.06,473,0.00,-3.00,-1001.00
2024-05-19 08:35:55.013970,0,0,2,0,0,0,81,84,10,0,33,131.12,473,-1.00,-2.00,-999.00
2024-05-19 08:35:55.179733,0,0,2,0,0,0,81,84,10,0,33,131.03,473,0.00,0.00,-999.00
2024-05-19 08:35:55.218049,0,0,2,0,0,0,81,84,10,0,33,131.04,473,0.00,-2.00,-999.00
2024-05-19 08:35:55.319892,0,0,2,0,0,0,81,84,10,0,33,131.09,473,-2.00,-3.00,-1000.00
2024-05-19 08:35:55.486756,0,0,2,0,0,0,81,84,10,0,33,131.07,473,2.00,-13.00,-997.00
2024-05-19 08:35:55.524018,0,0,2,0,0,0,81,84,10,0,33,131.07,473,11.00,-4.00,-993.00
2024-05-19 08:35:55.691626,0,0,2,0,0,0,81,84,10,0,33,131.07,473,-9.00,-21.00,-997.00
2024-05-19 08:35:55.728971,0,0,3,0,0,0,81,84,10,0,33,131.07,473,31.00,-8.00,-1028.00
2024-05-19 08:35:55.896424,0,0,3,0,0,0,81,84,10,0,33,131.07,473,21.00,-19.00,-1067.00
2024-05-19 08:35:55.897319,0,0,3,0,0,0,81,84,10,0,33,131.07,473,1.00,-29.00,-1131.00
2024-05-19 08:35:55.984222,0,0,2,0,0,0,81,84,10,0,33,131.07,473,10.00,-16.00,-1155.00
2024-05-19 08:35:56.101223,0,0,2,0,0,-2,81,84,10,0,33,131.07,473,-8.00,-18.00,-1334.00
2024-05-19 08:35:56.187736,-1,2,1,0,0,-5,81,84,16,0,33,131.21,473,25.00,0.00,-1190.00
2024-05-19 08:35:56.306045,-1,1,1,0,0,-6,81,84,23,0,33,131.37,474,34.00,-14.00,-1118.00
2024-05-19 08:35:56.391999,0,1,2,0,0,-7,81,84,31,10,33,131.48,474,13.00,6.00,-1015.00
2024-05-19 08:35:56.510903,0,1,1,0,0,-7,81,84,40,10,33,131.57,474,26.00,-67.00,-950.00
2024-05-19 08:35:56.596374,1,1,2,0,0,-7,81,84,45,20,33,131.66,474,34.00,-25.00,-919.00
2024-05-19 08:35:56.716149,1,1,2,0,0,-6,82,84,53,20,33,131.77,474,24.00,-17.00,-859.00
2024-05-19 08:35:56.799833,1,1,2,0,0,-5,82,84,60,30,33,131.81,474,17.00,-23.00,-882.00
2024-05-19 08:35:56.920422,0,1,2,0,0,-4,82,84,65,30,33,131.83,474,25.00,-80.00,-974.00
2024-05-19 08:35:57.003944,1,2,2,0,0,-3,82,84,71,40,33,131.86,474,10.00,-63.00,-831.00
2024-05-19 08:35:57.125300,1,2,2,0,0,-2,82,84,75,40,33,131.97,474,16.00,-60.00,-881.00
2024-05-19 08:35:57.207861,1,3,2,0,-1,-2,82,84,79,40,33,132.04,474,12.00,-34.00,-897.00
2024-05-19 08:35:57.330109,1,4,2,0,0,-1,82,84,82,50,33,132.07,475,11.00,-62.00,-983.00
2024-05-19 08:35:57.411909,1,4,2,0,0,0,82,84,84,50,33,131.97,475,23.00,-32.00,-910.00
2024-05-19 08:35:57.515069,0,4,2,0,0,0,82,84,86,50,33,132.00,475,6.00,-29.00,-944.00
2024-05-19 08:35:57.615931,0,3,2,0,0,0,82,84,87,50,33,131.97,475,28.00,-45.00,-941.00
2024-05-19 08:35:57.740211,1,2,2,0,0,0,82,85,88,50,33,132.07,475,14.00,-20.00,-941.00
2024-05-19 08:35:57.819823,1,2,2,0,0,0,82,85,88,50,33,132.09,475,44.00,-27.00,-949.00
2024-05-19 08:35:57.921893,1,1,2,0,0,0,82,85,89,50,33,132.07,475,15.00,-48.00,-965.00
2024-05-19 08:35:58.023790,1,1,2,0,0,0,82,85,89,50,33,132.13,475,35.00,-51.00,-1005.00
2024-05-19 08:35:58.150202,1,2,2,0,0,0,82,85,89,60,33,132.13,475,37.00,-48.00,-1004.00
2024-05-19 08:35:58.227888,1,2,2,0,0,0,82,85,90,60,33,132.05,475,8.00,-67.00,-1002.00
2024-05-19 08:35:58.354441,1,3,2,0,0,0,82,85,90,60,33,132.10,476,13.00,-69.00,-1059.00
2024-05-19 08:35:58.431736,1,3,2,0,0,0,82,85,91,60,33,132.03,476,-3.00,-70.00,-991.00
2024-05-19 08:35:58.559218,0,3,2,0,0,0,82,85,91,60,33,132.00,476,19.00,-60.00,-971.00
2024-05-19 08:35:58.635840,0,4,2,0,0,0,82,85,92,60,33,132.06,476,18.00,-73.00,-1008.00
2024-05-19 08:35:58.765777,0,4,2,0,0,0,83,85,91,60,33,132.10,476,16.00,-55.00,-983.00
2024-05-19 08:35:58.839728,0,4,2,0,0,0,83,85,90,60,33,131.95,476,12.00,-65.00,-944.00
2024-05-19 08:35:58.969874,0,3,2,0,0,0,83,85,90,60,33,132.04,476,6.00,-64.00,-953.00
2024-05-19 08:35:59.044254,0,3,2,0,0,0,83,85,90,60,33,132.02,476,12.00,-69.00,-1046.00
2024-05-19 08:35:59.174598,0,3,2,0,0,0,83,85,89,60,33,132.02,476,9.00,-60.00,-1012.00
2024-05-19 08:35:59.249590,0,3,2,0,0,0,83,85,88,60,33,132.02,476,3.00,-55.00,-1018.00
2024-05-19 08:35:59.350009,0,3,2,0,0,0,83,85,88,60,33,132.07,477,0.00,-77.00,-965.00
2024-05-19 08:35:59.400685,0,2,2,0,0,0,83,85,87,60,33,131.95,477,28.00,-61.00,-989.00
2024-05-19 08:35:59.582827,0,2,2,0,0,0,83,85,87,60,33,132.02,477,17.00,-55.00,-954.00
2024-05-19 08:35:59.604753,0,2,2,0,0,0,83,85,86,60,33,131.94,477,18.00,-26.00,-995.00
2024-05-19 08:35:59.787618,1,1,2,0,0,0,82,85,85,60,33,132.05,477,27.00,-57.00,-940.00
2024-05-19 08:35:59.808662,1,2,2,0,0,0,82,85,85,60,33,131.94,477,24.00,-48.00,-1056.00
2024-05-19 08:35:59.992720,1,2,2,0,0,0,82,85,83,50,33,131.95,477,18.00,-42.00,-1025.00
2024-05-19 08:36:00.012662,0,2,2,0,0,0,82,85,82,50,33,131.96,477,16.00,-62.00,-968.00
2024-05-19 08:36:00.197658,0,2,2,0,0,0,82,85,81,50,33,131.98,477,36.00,-38.00,-1053.00
2024-05-19 08:36:00.216968,1,2,2,0,0,0,82,85,81,50,33,131.86,478,30.00,-57.00,-1022.00
2024-05-19 08:36:00.402059,1,2,2,0,0,0,82,85,80,50,33,131.92,478,34.00,-41.00,-998.00
2024-05-19 08:36:00.420696,1,1,2,0,0,0,82,85,79,50,33,131.95,478,9.00,-62.00,-1016.00
2024-05-19 08:36:00.522754,0,1,2,0,0,0,82,85,77,50,33,131.97,478,8.00,-47.00,-1006.00
2024-05-19 08:36:00.624641,0,2,2,0,0,0,82,85,76,50,33,131.82,478,5.00,-58.00,-955.00
2024-05-19 08:36:00.811619,0,2,2,0,0,0,82,84,75,50,33,131.85,478,27.00,-55.00,-1062.00
2024-05-19 08:36:00.828637,0,2,2,0,0,0,82,84,75,50,33,131.94,478,3.00,-27.00,-1005.00
2024-05-19 08:36:01.016424,0,3,2,0,0,0,82,84,74,50,33,131.84,478,11.00,-41.00,-991.00
2024-05-19 08:36:01.032453,0,2,2,0,0,0,82,84,74,50,33,131.82,478,17.00,-37.00,-1078.00
2024-05-19 08:36:01.221211,0,2,2,0,0,0,82,84,74,50,33,131.85,478,30.00,-30.00,-997.00
2024-05-19 08:36:01.236576,1,1,2,0,0,0,82,84,74,50,33,131.86,479,13.00,-32.00,-1019.00
2024-05-19 08:36:01.426015,0,1,2,0,0,0,82,84,75,50,33,131.92,479,-6.00,-60.00,-981.00
2024-05-19 08:36:01.440503,0,1,2,0,0,0,82,84,75,50,33,131.87,479,0.00,-64.00,-977.00
2024-05-19 08:36:01.630845,1,2,2,0,0,0,82,84,76,50,33,131.84,479,-3.00,-77.00,-958.00
2024-05-19 08:36:01.644779,1,3,2,0,0,0,82,84,76,50,33,131.88,479,19.00,-60.00,-995.00
2024-05-19 08:36:01.835647,0,4,2,0,0,0,82,85,76,50,33,131.91,479,12.00,-78.00,-976.00
2024-05-19 08:36:01.848771,1,3,2,0,0,0,82,85,76,50,33,131.83,479,40.00,-58.00,-1021.00
2024-05-19 08:36:02.040978,1,3,2,0,0,0,82,85,77,50,33,131.86,479,30.00,-45.00,-967.00
2024-05-19 08:36:02.052630,0,2,1,0,0,0,82,85,77,50,33,131.89,479,48.00,-30.00,-990.00
2024-05-19 08:36:02.245489,1,2,2,0,0,0,82,85,77,50,33,131.83,479,43.00,-45.00,-1003.00
2024-05-19 08:36:02.256569,1,1,2,0,0,0,82,85,77,50,33,131.83,480,27.00,-8.00,-995.00
2024-05-19 08:36:02.450167,1,1,2,0,0,0,82,85,76,50,33,131.87,480,30.00,-10.00,-1013.00
2024-05-19 08:36:02.460588,2,0,2,0,0,0,82,85,76,50,33,131.84,480,46.00,-30.00,-1004.00
2024-05-19 08:36:02.654829,2,1,2,0,0,0,82,85,76,50,33,131.87,480,38.00,-40.00,-1026.00
2024-05-19 08:36:02.665586,2,1,2,0,0,0,82,85,76,50,33,131.87,480,8.00,-64.00,-1037.00
2024-05-19 08:36:02.859554,1,2,2,0,0,0,81,85,76,50,33,131.83,480,6.00,-59.00,-978.00
2024-05-19 08:36:02.869548,1,3,2,0,0,0,81,85,76,50,33,131.88,480,7.00,-34.00,-968.00
2024-05-19 08:36:03.067412,1,2,2,0,0,0,81,85,76,50,33,131.93,480,-16.00,-72.00,-956.00
2024-05-19 08:36:03.073618,0,2,2,0,0,0,81,85,76,50,33,131.87,480,-7.00,-68.00,-965.00
2024-05-19 08:36:03.269228,0,3,2,0,0,0,81,85,76,50,33,131.88,480,21.00,-35.00,-964.00
2024-05-19 08:36:03.277528,0,3,2,0,0,0,81,85,76,50,33,131.87,481,-4.00,-58.00,-1028.00
2024-05-19 08:36:03.473990,0,3,2,0,0,0,81,85,75,50,33,131.75,481,-18.00,-44.00,-917.00
2024-05-19 08:36:03.481514,0,4,2,0,0,0,81,85,75,50,33,131.94,481,-10.00,-40.00,-966.00
2024-05-19 08:36:03.532558,0,3,2,0,0,0,81,85,74,50,33,131.87,481,-17.00,-43.00,-995.00
2024-05-19 08:36:03.634616,0,2,3,0,0,0,81,85,74,50,33,131.90,481,4.00,-76.00,-1074.00
2024-05-19 08:36:03.781171,-1,1,3,0,0,0,82,84,74,50,33,131.92,481,-11.00,-49.00,-980.00
2024-05-19 08:36:03.838517,-1,2,2,0,0,0,82,84,74,50,33,131.73,481,-5.00,-58.00,-947.00
2024-05-19 08:36:03.986850,-1,3,2,0,0,0,82,84,75,50,33,131.84,481,-20.00,-58.00,-915.00
2024-05-19 08:36:04.042694,0,3,2,0,0,0,82,84,75,50,33,131.92,481,-5.00,-62.00,-1002.00
2024-05-19 08:36:04.191198,0,3,2,0,0,0,82,84,75,50,33,131.89,481,32.00,-47.00,-1058.00
2024-05-19 08:36:04.246555,0,3,2,0,0,0,82,84,76,50,33,131.87,482,2.00,-71.00,-959.00
2024-05-19 08:36:04.395790,0,3,2,0,0,0,82,84,77,50,33,131.95,482,-17.00,-46.00,-935.00
2024-05-19 08:36:04.450608,0,3,2,0,0,0,82,84,78,50,33,131.91,482,-8.00,-76.00,-979.00
2024-05-19 08:36:04.601223,0,3,2,0,0,0,82,84,78,50,33,131.89,482,6.00,-83.00,-998.00
2024-05-19 08:36:04.654665,0,4,2,0,0,0,82,84,79,50,33,131.94,482,26.00,-85.00,-1050.00
2024-05-19 08:36:04.805588,0,4,2,0,0,0,82,84,80,50,33,131.93,482,1.00,-76.00,-946.00
2024-05-19 08:36:04.858594,0,5,2,0,0,0,82,84,80,50,33,131.94,482,16.00,-71.00,-973.00
2024-05-19 08:36:05.010093,0,5,2,0,0,0,82,84,81,50,33,132.02,482,-7.00,-76.00,-926.00
2024-05-19 08:36:05.062607,0,4,2,0,0,0,82,84,81,50,33,131.99,482,5.00,-83.00,-1022.00
2024-05-19 08:36:05.214997,0,4,2,0,0,0,82,84,81,50,33,131.91,482,18.00,-77.00,-971.00
2024-05-19 08:36:05.266509,0,3,2,0,0,0,82,84,82,50,33,131.96,483,6.00,-84.00,-979.00
2024-05-19 08:36:05.419735,1,4,2,0,0,0,82,84,81,50,33,131.98,483,23.00,-90.00,-1078.00
2024-05-19 08:36:05.470561,0,4,2,0,0,0,82,84,81,50,33,132.00,483,7.00,-99.00,-1074.00
2024-05-19 08:36:05.625408,0,4,2,0,0,0,82,84,80,50,33,131.95,483,12.00,-94.00,-1036.00
2024-05-19 08:36:05.674506,0,4,2,0,0,0,82,84,80,50,33,131.93,483,1.00,-90.00,-994.00
2024-05-19 08:36:05.829157,0,4,2,0,0,0,82,84,79,50,33,131.94,483,9.00,-94.00,-1052.00
2024-05-19 08:36:05.878621,0,4,2,0,0,0,82,84,79,50,33,131.88,483,13.00,-72.00,-1009.00
2024-05-19 08:36:05.989485,0,4,2,0,0,0,82,84,78,50,33,131.89,483,-7.00,-66.00,-969.00
2024-05-19 08:36:06.082425,0,4,2,0,0,0,82,84,78,50,33,131.85,483,2.00,-56.00,-971.00
2024-05-19 08:36:06.238802,0,3,2,0,0,0,82,84,77,50,33,131.83,483,24.00,-66.00,-1086.00
2024-05-19 08:36:06.286414,0,3,2,0,0,0,82,84,78,50,33,131.84,484,-17.00,-52.00,-1034.00
2024-05-19 08:36:06.443573,0,2,3,0,0,-1,82,84,79,50,33,131.89,484,-16.00,-58.00,-1094.00
2024-05-19 08:36:06.490421,0,2,2,0,0,-2,82,84,81,50,33,131.93,484,-27.00,-53.00,-1055.00
2024-05-19 08:36:06.649574,-1,2,2,0,0,-3,82,84,85,60,33,131.95,484,-5.00,-61.00,-1086.00
2024-05-19 08:36:06.694693,-2,3,2,0,0,-4,82,84,89,60,33,132.03,484,-18.00,-68.00,-1103.00
2024-05-19 08:36:06.853656,-1,2,2,0,0,-5,81,85,94,60,33,131.99,484,-34.00,-58.00,-998.00
2024-05-19 08:36:06.898391,-2,2,2,0,0,-5,81,85,100,70,33,132.13,484,-39.00,-62.00,-1039.00
2024-05-19 08:36:07.057993,-3,3,1,0,0,-5,81,85,105,70,33,132.15,484,4.00,-42.00,-968.00
2024-05-19 08:36:07.102384,-2,2,2,0,0,-5,81,85,110,80,33,132.15,484,39.00,-82.00,-1035.00
2024-05-19 08:36:07.262781,0,2,2,1,0,-5,81,85,116,90,33,132.13,484,35.00,-66.00,-964.00
2024-05-19 08:36:07.262834,1,3,2,1,0,-5,81,85,121,90,33,132.15,485,14.00,-56.00,-1013.00
2024-05-19 08:36:07.357605,1,3,2,1,0,-5,81,85,126,100,33,132.25,485,17.00,-36.00,-1021.00
2024-05-19 08:36:07.467599,1,2,2,0,0,-5,81,85,131,100,33,132.31,485,20.00,-69.00,-942.00
2024-05-19 08:36:07.562305,1,2,2,0,0,-4,81,85,135,110,33,132.44,485,19.00,-36.00,-980.00
2024-05-19 08:36:07.672755,1,2,2,0,0,-4,81,85,139,110,33,132.52,485,19.00,-59.00,-1002.00
2024-05-19 08:36:07.765334,1,3,2,0,0,-3,81,84,142,110,33,132.52,485,12.00,-82.00,-968.00
2024-05-19 08:36:07.877230,1,3,2,0,0,-3,81,84,147,120,33,132.54,485,27.00,-59.00,-936.00
2024-05-19 08:36:07.969534,1,3,2,0,0,-3,81,84,149,120,33,132.47,485,34.00,-71.00,-934.00
2024-05-19 08:36:08.082226,1,3,2,0,0,-2,81,84,153,120,33,132.60,485,30.00,-46.00,-926.00
2024-05-19 08:36:08.173896,1,3,2,0,0,-2,81,84,155,130,33,132.57,485,31.00,-59.00,-995.00
2024-05-19 08:36:08.287550,1,2,2,0,0,-2,81,84,157,130,33,132.53,486,14.00,-59.00,-969.00
2024-05-19 08:36:08.377384,1,2,2,0,0,-1,81,84,159,130,33,132.61,486,10.00,-64.00,-1011.00
2024-05-19 08:36:08.491969,1,3,2,0,0,-1,81,84,161,130,33,132.63,486,16.00,-78.00,-1048.00
2024-05-19 08:36:08.581759,1,3,2,0,0,-1,81,84,163,130,33,132.72,486,20.00,-49.00,-961.00
2024-05-19 08:36:08.698396,1,3,2,0,0,-1,81,84,165,140,33,132.63,486,14.00,-43.00,-960.00
2024-05-19 08:36:08.785302,0,3,2,0,0,-1,82,84,167,140,33,132.70,486,26.00,-50.00,-956.00
2024-05-19 08:36:08.901162,0,3,2,0,0,-1,82,84,169,140,33,132.64,486,14.00,-44.00,-1025.00
2024-05-19 08:36:08.989298,0,3,2,0,0,-1,82,84,170,140,33,132.70,486,27.00,-81.00,-976.00
2024-05-19 08:36:09.105955,1,3,2,0,0,-1,82,84,172,140,33,132.66,486,14.00,-29.00,-968.00
2024-05-19 08:36:09.193542,1,3,2,0,0,-1,82,84,174,140,33,132.69,486,22.00,-53.00,-1002.00
2024-05-19 08:36:09.310889,1,3,2,0,0,-1,82,84,175,140,33,132.70,487,26.00,-75.00,-902.00
2024-05-19 08:36:09.397381,1,3,2,0,0,-1,82,84,177,150,33,132.71,487,29.00,-48.00,-988.00
2024-05-19 08:36:09.515718,1,3,2,0,0,0,82,84,179,150,33,132.69,487,38.00,-63.00,-952.00
2024-05-19 08:36:09.601573,1,3,2,0,0,0,82,84,179,150,33,132.70,487,15.00,-47.00,-1014.00
2024-05-19 08:36:09.720697,1,3,2,0,0,0,82,84,180,150,33,132.71,487,23.00,-31.00,-936.00
2024-05-19 08:36:09.805287,1,2,2,0,0,0,81,84,180,150,33,132.75,487,32.00,-33.00,-985.00
2024-05-19 08:36:09.925285,1,2,2,0,0,0,81,84,180,150,33,132.66,487,30.00,-43.00,-1005.00
2024-05-19 08:36:10.009412,1,2,2,0,0,0,81,84,179,150,33,132.72,487,33.00,-13.00,-992.00
2024-05-19 08:36:10.130490,1,2,2,0,0,0,81,84,179,150,33,132.71,487,41.00,-25.00,-1009.00
2024-05-19 08:36:10.213347,1,1,2,0,0,0,81,84,178,150,33,132.64,487,41.00,-61.00,-1023.00
2024-05-19 08:36:10.334786,1,1,2,0,0,0,81,84,178,150,33,132.63,488,44.00,-45.00,-988.00
2024-05-19 08:36:10.417421,2,1,2,0,0,0,81,84,177,150,33,132.68,488,34.00,-45.00,-1031.00
2024-05-19 08:36:10.539723,2,2,2,0,0,0,81,84,177,150,33,132.64,488,40.00,-29.00,-1018.00
2024-05-19 08:36:10.621308,2,3,2,0,0,0,81,84,177,150,33,132.62,488,45.00,-24.00,-967.00
2024-05-19 08:36:10.744545,2,3,2,0,0,0,81,84,176,150,33,132.66,488,12.00,-56.00,-980.00
2024-05-19 08:36:10.825476,2,3,2,0,0,0,81,84,176,150,33,132.65,488,18.00,-58.00,-994.00
2024-05-19 08:36:10.949293,1,3,2,0,0,0,81,84,175,150,33,132.68,488,28.00,-66.00,-1047.00
2024-05-19 08:36:11.029207,1,3,2,0,0,0,81,84,174,150,33,132.71,488,18.00,-54.00,-1038.00
2024-05-19 08:36:11.154095,1,3,2,0,0,0,81,84,174,150,33,132.67,488,35.00,-49.00,-1048.00
2024-05-19 08:36:11.233146,1,3,2,0,0,0,81,84,175,150,33,132.67,488,-2.00,-80.00,-1001.00
2024-05-19 08:36:11.358744,0,4,2,0,0,0,81,84,175,150,33,132.72,489,13.00,-61.00,-1034.00
2024-05-19 08:36:11.437293,0,4,2,0,0,0,81,84,174,150,33,132.74,489,19.00,-45.00,-974.00
2024-05-19 08:36:11.488499,0,4,2,0,0,0,81,84,174,150,33,132.70,489,-7.00,-64.00,-919.00
2024-05-19 08:36:11.666677,0,4,2,0,0,0,81,84,174,150,33,132.68,489,16.00,-64.00,-1002.00
2024-05-19 08:36:11.692255,0,4,2,0,0,1,81,84,173,140,33,132.68,489,13.00,-25.00,-912.00
2024-05-19 08:36:11.871288,0,3,2,0,0,1,81,83,171,140,33,132.59,489,12.00,-71.00,-956.00
2024-05-19 08:36:11.896521,1,2,2,0,0,2,81,83,169,140,33,132.61,489,5.00,-41.00,-959.00
2024-05-19 08:36:12.076207,0,2,2,0,0,2,81,83,167,140,33,132.58,489,0.00,-82.00,-1028.00
2024-05-19 08:36:12.100419,0,2,2,0,0,2,81,83,165,140,33,132.58,489,-6.00,-76.00,-973.00
2024-05-19 08:36:12.281521,0,3,2,0,0,2,81,83,163,130,33,132.67,489,0.00,-72.00,-1006.00
2024-05-19 08:36:12.304092,0,4,2,0,0,2,81,83,160,130,33,132.55,490,16.00,-61.00,-1036.00
2024-05-19 08:36:12.486848,0,4,2,0,0,2,81,83,158,130,33,132.56,490,11.00,-28.00,-986.00
2024-05-19 08:36:12.508084,0,4,2,0,0,2,81,83,155,130,33,132.48,490,14.00,-64.00,-967.00
2024-05-19 08:36:12.690937,0,4,2,0,0,2,81,83,152,120,33,132.43,490,15.00,-45.00,-1005.00
2024-05-19 08:36:12.713059,0,4,2,0,0,2,81,83,150,120,33,132.51,490,11.00,-48.00,-1017.00
2024-05-19 08:36:12.894742,0,3,2,0,0,2,81,84,147,120,33,132.42,490,7.00,-57.00,-1022.00
2024-05-19 08:36:12.917085,0,2,2,0,0,2,81,84,144,120,33,132.31,490,8.00,-78.00,-997.00
2024-05-19 08:36:13.099613,0,2,2,0,0,2,81,84,142,110,33,132.35,490,12.00,-33.00,-1011.00
2024-05-19 08:36:13.121002,0,3,2,0,0,2,81,84,140,110,33,132.47,490,30.00,-48.00,-1018.00
2024-05-19 08:36:13.304407,0,3,2,0,0,1,81,84,138,110,33,132.38,490,21.00,-54.00,-958.00
2024-05-19 08:36:13.325059,1,3,2,0,0,1,81,84,136,110,33,132.33,491,12.00,-54.00,-1028.00
2024-05-19 08:36:13.509205,1,3,2,0,0,1,81,84,134,110,33,132.26,491,26.00,-52.00,-994.00
2024-05-19 08:36:13.529170,1,3,2,0,0,1,81,84,131,110,33,132.24,491,8.00,-31.00,-1000.00
2024-05-19 08:36:13.630955,1,2,2,0,0,1,81,84,129,100,33,132.15,491,16.00,-42.00,-1037.00
2024-05-19 08:36:13.817651,1,2,2,0,0,1,81,84,128,100,33,132.19,491,8.00,-42.00,-1032.00
2024-05-19 08:36:13.834997,1,1,2,0,0,1,81,83,127,100,33,132.18,491,0.00,-64.00,-1033.00
2024-05-19 08:36:14.021209,0,2,2,0,0,0,81,83,125,100,33,132.16,491,11.00,-51.00,-1062.00
2024-05-19 08:36:14.039046,0,2,2,0,0,0,81,83,124,100,33,132.23,491,8.00,-38.00,-1016.00
2024-05-19 08:36:14.226089,0,2,2,0,0,0,81,83,124,100,33,132.09,491,0.00,-42.00,-1015.00
2024-05-19 08:36:14.242969,0,2,2,0,0,0,81,83,123,100,33,132.13,492,-2.00,-22.00,-993.00
2024-05-19 08:36:14.431657,0,2,2,0,0,0,81,83,123,100,33,132.16,492,18.00,-44.00,-1013.00
2024-05-19 08:36:14.447021,0,1,2,0,0,0,81,83,123,100,33,132.23,492,-3.00,-31.00,-1049.00
2024-05-19 08:36:14.635681,1,1,2,0,0,0,81,83,123,100,33,132.23,492,5.00,-33.00,-929.00
2024-05-19 08:36:14.650957,0,1,2,0,0,0,81,83,122,100,33,132.14,492,15.00,-32.00,-974.00
2024-05-19 08:36:14.840442,0,1,2,0,0,0,81,83,122,100,33,132.18,492,1.00,-33.00,-998.00
2024-05-19 08:36:14.854907,0,1,2,0,0,0,80,84,122,90,33,132.24,492,3.00,-19.00,-990.00
2024-05-19 08:36:15.045242,0,1,2,0,0,0,80,84,121,90,33,132.24,492,18.00,-46.00,-1027.00
2024-05-19 08:36:15.059465,0,1,2,0,0,0,80,84,121,90,33,132.18,492,1.00,-30.00,-972.00
2024-05-19 08:36:15.250108,0,1,2,0,0,0,80,84,121,90,33,132.22,492,-6.00,-37.00,-1033.00
2024-05-19 08:36:15.262995,0,1,2,0,0,0,80,84,121,90,33,132.22,493,0.00,-33.00,-980.00
2024-05-19 08:36:15.454900,0,1,2,0,0,0,80,84,121,90,33,132.21,493,0.00,-4.00,-974.00
2024-05-19 08:36:15.466949,0,1,2,0,0,0,80,84,121,90,33,132.24,493,1.00,-31.00,-965.00
2024-05-19 08:36:15.518030,0,1,2,0,0,0,80,84,122,90,33,132.22,493,4.00,-34.00,-969.00
2024-05-19 08:36:15.660206,0,2,2,0,0,0,80,84,122,90,33,132.27,493,-13.00,-43.00,-980.00
2024-05-19 08:36:15.721985,0,2,2,0,0,0,80,84,122,90,33,132.21,493,-5.00,-64.00,-1001.00
2024-05-19 08:36:15.823977,0,1,2,0,0,0,80,84,123,90,33,132.28,493,-10.00,-47.00,-987.00
2024-05-19 08:36:15.966766,0,1,2,0,0,0,80,84,124,90,33,132.26,493,0.00,-30.00,-1050.00
2024-05-19 08:36:16.027867,-5,2,2,0,0,0,80,84,124,100,33,132.21,493,-11.00,-18.00,-973.00
2024-05-19 08:36:16.171527,-8,1,2,1,0,0,80,84,126,100,33,132.36,493,-13.00,-25.00,-1065.00
2024-05-19 08:36:16.233056,-8,0,2,2,0,0,80,84,127,100,33,132.35,494,3.00,-9.00,-991.00
2024-05-19 08:36:16.376296,-8,1,2,3,0,0,80,84,127,100,33,132.26,494,-6.00,-42.00,-995.00
2024-05-19 08:36:16.435853,-8,1,2,5,0,0,80,84,127,100,33,132.23,494,-39.00,-18.00,-994.00
2024-05-19 08:36:16.582077,-7,1,2,6,0,0,80,84,127,100,33,132.31,494,-39.00,-23.00,-958.00
2024-05-19 08:36:16.639811,-6,1,2,7,0,0,80,84,127,100,33,132.28,494,-54.00,-28.00,-919.00
2024-05-19 08:36:16.785948,-5,1,2,7,0,0,80,84,126,100,33,132.20,494,-25.00,-30.00,-1010.00
2024-05-19 08:36:16.843802,-3,1,2,7,0,0,80,83,126,100,33,132.30,494,-30.00,-5.00,-975.00
2024-05-19 08:36:16.990841,0,1,2,7,0,0,80,83,126,100,33,132.21,494,-51.00,-29.00,-987.00
2024-05-19 08:36:17.047785,2,1,2,7,0,0,80,83,127,100,33,132.30,494,-47.00,1.00,-957.00
2024-05-19 08:36:17.195603,4,1,3,6,0,0,80,83,126,100,33,132.31,494,-54.00,-16.00,-987.00
2024-05-19 08:36:17.251864,4,1,3,4,0,0,80,83,127,100,33,132.41,495,-42.00,-22.00,-980.00
2024-05-19 08:36:17.400386,2,1,3,4,0,0,80,83,127,100,33,132.34,495,-35.00,-18.00,-1023.00
2024-05-19 08:36:17.455812,1,1,3,3,0,0,80,83,127,100,33,132.43,495,-35.00,-27.00,-992.00
2024-05-19 08:36:17.605612,0,1,3,2,0,0,80,83,128,100,33,132.42,495,-22.00,-33.00,-980.00
2024-05-19 08:36:17.659803,0,1,3,2,0,0,80,83,128,100,33,132.39,495,-14.00,-27.00,-974.00
2024-05-19 08:36:17.809961,0,1,3,2,0,0,80,83,129,100,32,132.36,495,-9.00,-35.00,-970.00
2024-05-19 08:36:17.863753,0,1,3,2,0,0,81,84,128,100,32,132.42,495,-41.00,-18.00,-959.00
2024-05-19 08:36:18.014977,0,1,3,2,0,0,81,84,129,100,32,132.44,495,-42.00,-24.00,-955.00
2024-05-19 08:36:18.067731,-1,1,3,2,0,0,81,84,129,100,32,132.46,495,-39.00,-27.00,-989.00
2024-05-19 08:36:18.219512,-1,1,2,2,0,0,81,84,130,100,32,132.37,495,-16.00,-13.00,-1033.00
2024-05-19 08:36:18.271760,3,1,2,2,0,0,81,84,130,100,32,132.34,496,-16.00,-20.00,-1006.00
2024-05-19 08:36:18.424880,4,1,2,1,0,0,81,84,131,100,32,132.48,496,-46.00,-14.00,-977.00
2024-05-19 08:36:18.475754,1,1,2,0,0,0,81,84,129,100,32,132.45,496,-38.00,-18.00,-977.00
2024-05-19 08:36:18.629614,0,1,2,0,0,0,81,84,129,100,32,132.40,496,-45.00,-21.00,-984.00
2024-05-19 08:36:18.679920,0,1,2,0,0,0,81,84,129,100,32,132.39,496,-9.00,-40.00,-1041.00
2024-05-19 08:36:18.834058,0,1,2,0,0,0,81,84,129,100,32,132.35,496,-47.00,-35.00,-992.00
2024-05-19 08:36:18.883798,0,1,2,0,0,0,81,83,129,100,32,132.39,496,-19.00,-28.00,-1000.00
2024-05-19 08:36:19.038898,-1,1,2,0,0,0,81,83,129,100,32,132.29,496,-10.00,-20.00,-1001.00
2024-05-19 08:36:19.087783,-1,1,2,0,0,0,81,83,130,100,32,132.39,496,-15.00,-42.00,-1028.00
2024-05-19 08:36:19.243991,-1,1,2,0,0,0,81,83,130,100,32,132.48,496,17.00,-23.00,-990.00
2024-05-19 08:36:19.244115,-1,1,2,0,0,0,81,83,130,100,32,132.44,497,-31.00,-35.00,-972.00
2024-05-19 08:36:19.342846,-1,1,2,0,0,0,81,83,130,100,32,132.39,497,-30.00,-16.00,-920.00
2024-05-19 08:36:19.448748,-1,1,2,0,0,0,81,83,130,100,32,132.40,497,-15.00,-34.00,-1027.00
2024-05-19 08:36:19.547328,-1,1,2,0,0,0,81,83,130,100,32,132.39,497,-31.00,-20.00,-930.00
2024-05-19 08:36:19.649648,-1,1,2,0,0,0,81,83,130,100,32,132.38,497,-12.00,-46.00,-1005.00
2024-05-19 08:36:19.755716,-1,1,2,0,0,0,81,83,130,100,31,132.41,497,-21.00,-29.00,-1020.00
2024-05-19 08:36:19.852846,-1,1,2,0,0,0,80,83,129,100,31,132.41,497,-20.00,-22.00,-983.00
2024-05-19 08:36:19.960469,-1,1,2,0,0,0,80,83,128,100,31,132.37,497,18.00,-26.00,-1066.00
2024-05-19 08:36:20.056931,-1,1,2,0,0,0,80,83,128,100,31,132.35,497,-22.00,-34.00,-1019.00
2024-05-19 08:36:20.165397,-1,1,2,0,0,0,80,83,128,100,31,132.41,497,-12.00,-9.00,-976.00
2024-05-19 08:36:20.260966,-1,1,2,0,0,0,80,83,127,100,31,132.40,498,-35.00,-26.00,-1025.00
2024-05-19 08:36:20.370286,-1,1,2,0,0,0,80,83,126,100,31,132.41,498,-15.00,-37.00,-1036.00
2024-05-19 08:36:20.464926,-1,1,2,0,0,0,80,83,126,100,31,132.31,498,-9.00,-24.00,-999.00
2024-05-19 08:36:20.574796,-1,1,2,0,0,0,80,83,126,100,31,132.42,498,10.00,-10.00,-1008.00
2024-05-19 08:36:20.668666,5,1,2,0,0,0,80,83,127,100,31,132.41,498,-44.00,-27.00,-1034.00
2024-05-19 08:36:20.779515,7,1,2,-2,0,0,80,83,126,100,31,132.42,498,-17.00,-15.00,-1013.00
2024-05-19 08:36:20.872629,7,1,2,-3,0,0,80,83,125,100,31,132.38,498,-9.00,-23.00,-1028.00
2024-05-19 08:36:20.984417,6,0,2,-4,0,0,80,83,125,100,31,132.40,498,8.00,-41.00,-1030.00
2024-05-19 08:36:21.076604,5,0,2,-5,0,0,80,83,126,100,31,132.32,498,15.00,-22.00,-1020.00
2024-05-19 08:36:21.189442,5,0,2,-6,0,0,80,83,127,100,31,132.37,498,15.00,-39.00,-1045.00
2024-05-19 08:36:21.280643,4,2,2,-7,0,0,80,83,127,100,31,132.34,499,56.00,-46.00,-1028.00
2024-05-19 08:36:21.393919,3,3,2,-7,0,0,80,83,127,100,31,132.33,499,11.00,-58.00,-1005.00
2024-05-19 08:36:21.484658,0,2,2,-8,0,0,80,83,127,100,31,132.39,499,41.00,-56.00,-1009.00
2024-05-19 08:36:21.598952,-2,2,2,-7,0,0,80,83,127,100,31,132.39,499,23.00,-42.00,-1007.00
2024-05-19 08:36:21.688644,-5,1,2,-7,0,0,80,83,128,100,31,132.35,499,37.00,-16.00,-974.00
2024-05-19 08:36:21.803493,-5,2,2,-5,0,0,80,83,128,100,31,132.42,499,11.00,-14.00,-985.00
2024-05-19 08:36:21.892649,-4,1,2,-4,0,0,80,84,127,100,31,132.38,499,10.00,-32.00,-971.00
2024-05-19 08:36:22.008775,-3,1,2,-3,0,0,80,84,126,100,31,132.36,499,4.00,-36.00,-952.00
2024-05-19 08:36:22.096637,-2,1,2,-3,0,0,80,84,126,100,31,132.41,499,10.00,-49.00,-1030.00
2024-05-19 08:36:22.213127,-1,1,2,-3,0,0,80,84,126,100,31,132.37,499,-7.00,-15.00,-958.00
2024-05-19 08:36:22.301294,-1,1,2,-2,0,0,80,84,125,100,31,132.33,500,-1.00,-22.00,-1019.00
2024-05-19 08:36:22.417973,-1,1,2,-2,0,0,80,84,124,100,31,132.35,500,-2.00,-5.00,-1003.00
2024-05-19 08:36:22.504527,-1,1,2,-2,0,0,80,84,124,100,31,132.34,500,-14.00,-31.00,-948.00
2024-05-19 08:36:22.623064,-2,0,2,-2,0,0,80,84,124,100,31,132.34,500,-13.00,-13.00,-998.00
2024-05-19 08:36:22.657594,-2,-3,2,-1,0,0,80,84,124,100,30,132.41,500,-43.00,-46.00,-989.00
2024-05-19 08:36:22.827625,-4,-1,2,-1,-1,0,80,84,123,100,30,132.34,500,-20.00,-34.00,-987.00
2024-05-19 08:36:22.912504,-2,5,2,0,-1,0,80,83,124,100,30,132.43,500,-12.00,-33.00,-992.00
2024-05-19 08:36:23.014612,-1,3,2,0,0,0,80,83,124,100,30,132.40,500,-17.00,-4.00,-996.00
2024-05-19 08:36:23.135714,-1,1,2,0,0,0,80,83,123,100,30,132.39,500,-38.00,-11.00,-968.00
2024-05-19 08:36:23.218634,-1,0,2,0,0,0,80,83,124,100,30,132.40,500,-7.00,-18.00,-1065.00
2024-05-19 08:36:23.269460,-1,0,2,0,0,0,80,83,124,100,30,132.40,501,6.00,-26.00,-1065.00
2024-05-19 08:36:23.444249,-1,0,2,0,0,0,80,83,124,100,30,132.46,501,-27.00,-33.00,-1014.00
2024-05-19 08:36:23.473590,-1,1,2,0,0,0,80,83,124,100,30,132.31,501,-34.00,-34.00,-1009.00
2024-05-19 08:36:23.649073,-1,1,2,0,0,0,80,83,125,100,30,132.44,501,-14.00,-17.00,-1037.00
2024-05-19 08:36:23.677533,-1,1,2,0,0,0,80,83,125,100,30,132.48,501,-47.00,-24.00,-1000.00
2024-05-19 08:36:23.853940,-1,1,2,0,0,0,80,83,126,100,30,132.42,501,-16.00,-2.00,-1013.00
2024-05-19 08:36:23.881802,-1,0,2,0,0,0,80,82,126,100,30,132.43,501,-39.00,-7.00,-972.00
2024-05-19 08:36:24.057104,-1,0,2,0,0,0,80,82,126,100,30,132.29,501,-18.00,-13.00,-1023.00
2024-05-19 08:36:24.085516,-1,0,2,0,0,0,80,82,126,100,30,132.40,501,-14.00,-24.00,-1069.00
2024-05-19 08:36:24.262275,-1,0,2,0,0,0,80,82,126,100,30,132.36,501,-47.00,-7.00,-950.00
2024-05-19 08:36:24.289458,-1,0,2,0,0,0,80,82,125,100,30,132.34,502,-23.00,-30.00,-1015.00
2024-05-19 08:36:24.467554,-1,0,2,0,0,0,80,82,126,100,30,132.35,502,-28.00,-19.00,-1028.00
2024-05-19 08:36:24.494229,-1,0,2,0,0,0,80,82,126,100,30,132.29,502,-22.00,-28.00,-1043.00
2024-05-19 08:36:24.671921,-1,0,2,0,0,0,80,82,126,100,30,132.38,502,-17.00,-17.00,-1016.00
2024-05-19 08:36:24.698085,-1,0,2,0,0,0,80,82,126,100,29,132.37,502,-16.00,-4.00,-986.00
2024-05-19 08:36:24.875889,-1,0,2,0,0,0,80,82,126,100,29,132.41,502,-32.00,-30.00,-1001.00
2024-05-19 08:36:24.901618,-1,0,2,0,0,0,80,82,126,100,29,132.40,502,-17.00,10.00,-1007.00
2024-05-19 08:36:25.003446,-1,0,2,0,0,0,80,82,126,100,29,132.37,502,-28.00,-18.00,-1016.00
2024-05-19 08:36:25.183545,-1,0,2,0,0,0,80,82,125,100,29,132.30,502,-16.00,8.00,-988.00
2024-05-19 08:36:25.207413,-1,-3,2,0,0,0,80,82,127,100,29,132.35,502,-27.00,-6.00,-1014.00
2024-05-19 08:36:25.312600,0,-7,2,0,-1,0,80,82,127,100,29,132.37,503,-23.00,-11.00,-1037.00
2024-05-19 08:36:25.411488,0,-6,2,0,-2,0,80,82,126,100,29,132.39,503,-16.00,0.00,-1023.00
2024-05-19 08:36:25.593794,0,-3,2,0,-3,0,80,82,125,100,29,132.34,503,-45.00,-8.00,-959.00
2024-05-19 08:36:25.615420,-1,0,2,0,-3,0,80,82,125,100,29,132.35,503,-36.00,1.00,-967.00
2024-05-19 08:36:25.797298,-1,2,2,0,-3,0,80,82,125,100,29,132.36,503,-19.00,7.00,-1058.00
2024-05-19 08:36:25.825955,-1,1,2,0,-3,0,80,82,125,100,29,132.36,503,-13.00,-3.00,-1049.00
2024-05-19 08:36:25.921397,-2,1,2,0,-2,0,80,83,125,100,29,132.39,503,-20.00,-7.00,-1004.00
2024-05-19 08:36:26.023373,-2,0,2,0,-2,0,80,83,125,100,29,132.37,503,-7.00,3.00,-1008.00
2024-05-19 08:36:26.206749,-1,0,2,0,-2,0,80,83,125,100,29,132.41,503,-16.00,3.00,-996.00
2024-05-19 08:36:26.227449,0,0,2,0,-2,0,80,83,126,100,29,132.44,503,-16.00,-6.00,-967.00
2024-05-19 08:36:26.412247,0,0,2,0,-2,0,80,83,126,100,29,132.43,504,-3.00,-3.00,-986.00
2024-05-19 08:36:26.431394,-1,0,2,0,-2,0,80,83,126,100,29,132.47,504,-11.00,3.00,-989.00
2024-05-19 08:36:26.618725,-1,0,2,0,-2,0,80,83,125,100,29,132.43,504,-5.00,5.00,-981.00
2024-05-19 08:36:26.637402,0,0,2,0,-2,0,80,83,125,100,29,132.39,504,2.00,-1.00,-983.00
2024-05-19 08:36:26.738022,0,0,2,0,-2,0,80,83,125,100,28,132.35,504,-27.00,14.00,-960.00
2024-05-19 08:36:26.923967,0,0,2,0,-2,0,80,83,125,100,28,132.36,504,-6.00,-2.00,-925.00
2024-05-19 08:36:26.941218,0,0,2,0,-1,0,80,83,124,100,28,132.41,504,2.00,9.00,-976.00
2024-05-19 08:36:27.128318,0,2,2,0,-1,0,80,83,125,100,28,132.34,504,-26.00,2.00,-993.00
2024-05-19 08:36:27.128465,0,5,2,0,-1,0,80,83,125,100,28,132.34,504,-20.00,11.00,-1003.00
2024-05-19 08:36:27.196367,0,2,2,0,0,0,80,83,124,100,28,132.34,504,-31.00,-9.00,-958.00
2024-05-19 08:36:27.333611,-1,1,2,0,0,0,80,83,124,100,28,132.38,505,6.00,7.00,-1004.00
2024-05-19 08:36:27.400801,-1,0,2,0,0,0,80,83,124,100,28,132.36,505,-31.00,-9.00,-1011.00
2024-05-19 08:36:27.505547,-1,0,2,0,0,0,80,83,125,100,28,132.35,505,-7.00,-20.00,-1048.00
2024-05-19 08:36:27.604340,-1,0,2,0,0,0,80,83,125,100,28,132.34,505,-22.00,-14.00,-969.00
2024-05-19 08:36:27.706379,0,0,2,0,0,0,80,83,125,100,28,132.31,505,-29.00,-10.00,-962.00
2024-05-19 08:36:27.845217,-1,0,2,0,0,0,80,83,125,100,28,132.29,505,-45.00,-12.00,-958.00
2024-05-19 08:36:27.910460,-1,0,2,0,0,0,80,82,126,100,28,132.34,505,-4.00,-10.00,-1031.00
2024-05-19 08:36:28.012308,-1,0,2,0,0,0,80,82,126,100,28,132.37,505,-27.00,-16.00,-979.00
2024-05-19 08:36:28.152617,-2,0,2,0,0,0,80,82,125,100,28,132.40,505,-1.00,-13.00,-1019.00
2024-05-19 08:36:28.216383,-2,0,2,0,0,0,80,82,125,100,28,132.38,505,-31.00,-24.00,-990.00
2024-05-19 08:36:28.357586,-1,0,2,0,0,0,80,82,125,100,28,132.31,506,-23.00,-11.00,-1008.00
2024-05-19 08:36:28.420338,-1,0,2,0,0,0,80,82,125,100,28,132.32,506,-45.00,-31.00,-1028.00
2024-05-19 08:36:28.562627,-1,0,2,0,0,0,80,82,126,100,28,132.40,506,-21.00,-23.00,-1036.00
2024-05-19 08:36:28.624582,-1,0,2,0,0,0,80,82,126,100,28,132.36,506,-27.00,-12.00,-969.00
2024-05-19 08:36:28.767260,-1,0,2,0,0,0,80,82,126,100,28,132.38,506,-36.00,-32.00,-998.00
2024-05-19 08:36:28.828369,-1,0,2,0,0,0,80,82,126,100,28,132.36,506,-37.00,-22.00,-952.00
2024-05-19 08:36:28.972828,-1,0,2,0,0,0,80,82,127,100,28,132.33,506,-7.00,-28.00,-1017.00
2024-05-19 08:36:29.032205,-1,1,2,0,0,0,80,82,127,100,28,132.38,506,-9.00,-11.00,-987.00
2024-05-19 08:36:29.148806,0,1,2,0,0,0,80,82,127,100,28,132.34,506,-19.00,-18.00,-964.00
2024-05-19 08:36:29.236135,0,1,2,0,0,0,80,82,128,100,28,132.39,507,-7.00,-35.00,-1009.00
2024-05-19 08:36:29.388107,-1,8,2,0,0,0,80,82,129,100,28,132.39,507,-23.00,-42.00,-1004.00
2024-05-19 08:36:29.440896,0,8,2,0,0,0,80,82,130,100,28,132.45,507,-17.00,-29.00,-975.00
2024-05-19 08:36:29.587827,-1,8,2,0,2,0,80,82,130,100,28,132.43,507,-7.00,-29.00,-1039.00
2024-05-19 08:36:29.644312,-1,7,2,0,2,0,80,82,130,100,28,132.50,507,-13.00,-56.00,-1018.00
2024-05-19 08:36:29.791587,0,3,2,0,3,0,80,82,130,100,28,132.44,507,5.00,-60.00,-1036.00
2024-05-19 08:36:29.848303,0,1,2,0,3,0,80,82,130,100,28,132.52,507,-17.00,-56.00,-1045.00
2024-05-19 08:36:29.995626,-1,1,2,0,2,0,79,82,129,100,28,132.45,507,-15.00,-84.00,-1024.00
2024-05-19 08:36:30.053325,0,1,2,0,2,0,79,82,130,100,28,132.43,507,-18.00,-52.00,-959.00
2024-05-19 08:36:30.155228,-1,2,2,0,2,0,79,82,130,100,28,132.42,507,-11.00,-51.00,-1055.00
2024-05-19 08:36:30.302736,-1,2,2,0,2,0,79,82,130,100,28,132.41,508,-18.00,-43.00,-1016.00
2024-05-19 08:36:30.359261,-1,3,2,0,2,0,79,82,130,100,28,132.48,508,-24.00,-53.00,-946.00
2024-05-19 08:36:30.410215,-1,3,2,0,2,0,79,82,130,100,28,132.38,508,-34.00,-61.00,-977.00
2024-05-19 08:36:30.610573,-1,3,2,0,2,0,79,82,130,100,28,132.36,508,-30.00,-65.00,-1011.00
2024-05-19 08:36:30.614076,-2,3,2,0,2,0,79,82,130,100,28,132.46,508,-59.00,-66.00,-966.00
2024-05-19 08:36:30.716071,-2,3,2,0,2,0,79,82,130,100,27,132.39,508,-17.00,-61.00,-981.00
2024-05-19 08:36:30.820806,-1,3,2,0,2,0,79,82,130,100,27,132.41,508,-46.00,-75.00,-971.00
2024-05-19 08:36:30.920185,-1,3,2,0,2,0,79,83,129,100,27,132.47,508,-20.00,-58.00,-993.00
2024-05-19 08:36:31.022041,-1,3,2,0,2,0,79,83,129,100,27,132.49,508,-30.00,-65.00,-1019.00
2024-05-19 08:36:31.124224,-1,3,2,0,2,0,79,83,129,100,27,132.41,508,-10.00,-81.00,-1034.00
2024-05-19 08:36:31.226226,-1,3,2,0,2,0,79,83,129,100,27,132.43,509,-39.00,-61.00,-889.00
2024-05-19 08:36:31.429442,0,2,2,0,2,0,79,83,128,100,27,132.41,509,-35.00,-51.00,-942.00
2024-05-19 08:36:31.430866,0,0,2,0,2,0,79,83,128,100,27,132.44,509,-4.00,-55.00,-1033.00
2024-05-19 08:36:31.634932,0,-2,2,0,1,0,79,83,128,100,27,132.46,509,-17.00,-50.00,-995.00
2024-05-19 08:36:31.636034,0,0,2,0,0,0,79,83,127,100,27,132.37,509,-12.00,-56.00,-973.00
2024-05-19 08:36:31.737164,0,0,2,0,0,0,79,83,127,100,27,132.37,509,1.00,-75.00,-1062.00
2024-05-19 08:36:31.839578,0,1,2,0,0,0,79,83,127,100,27,132.34,509,-13.00,-28.00,-1009.00
2024-05-19 08:36:31.941165,0,2,2,0,0,0,79,83,126,100,27,132.28,509,16.00,-40.00,-1016.00
2024-05-19 08:36:32.044555,0,2,2,0,0,0,79,83,126,100,27,132.28,509,-14.00,-41.00,-953.00
2024-05-19 08:36:32.146573,0,2,2,0,0,0,79,83,125,100,27,132.32,509,-1.00,-26.00,-1006.00
2024-05-19 08:36:32.248992,0,3,2,0,0,0,79,83,124,100,27,132.35,510,-12.00,-42.00,-1035.00
2024-05-19 08:36:32.350639,0,3,2,0,0,0,79,83,124,100,27,132.30,510,-7.00,-61.00,-1027.00
2024-05-19 08:36:32.451165,0,3,2,0,0,0,79,83,123,100,27,132.30,510,-18.00,-52.00,-986.00
2024-05-19 08:36:32.555806,0,2,2,0,0,0,79,83,123,100,27,132.32,510,-14.00,-43.00,-938.00
2024-05-19 08:36:32.655530,0,2,2,0,0,0,79,83,123,90,27,132.18,510,-7.00,-65.00,-1011.00
2024-05-19 08:36:32.760466,0,2,2,0,0,0,79,83,122,90,27,132.29,510,-35.00,-52.00,-967.00
2024-05-19 08:36:32.859745,-1,2,2,0,0,0,79,83,122,90,27,132.33,510,-15.00,-42.00,-986.00
2024-05-19 08:36:32.965337,-1,3,2,0,0,0,80,81,122,90,27,132.45,510,-28.00,-64.00,-1046.00
2024-05-19 08:36:33.063512,-1,3,2,0,0,0,80,81,122,90,27,132.38,510,-23.00,-64.00,-1007.00
2024-05-19 08:36:33.170506,-1,3,2,0,0,0,80,81,123,90,27,132.41,510,-25.00,-66.00,-979.00
2024-05-19 08:36:33.267160,-1,4,2,0,0,0,80,81,123,90,27,132.40,511,-31.00,-62.00,-1017.00
2024-05-19 08:36:33.377166,-1,4,2,0,0,0,80,81,124,90,27,132.34,511,-10.00,-76.00,-1073.00
2024-05-19 08:36:33.471251,-1,4,2,0,0,0,80,81,124,90,27,132.30,511,2.00,-51.00,-1049.00
2024-05-19 08:36:33.580123,-1,3,2,0,0,0,80,81,124,90,27,132.33,511,-13.00,-63.00,-1068.00
2024-05-19 08:36:33.677837,-1,3,2,0,0,0,80,81,124,100,27,132.37,511,-19.00,-69.00,-1026.00
2024-05-19 08:36:33.778262,-1,3,2,0,0,0,80,81,124,100,27,132.37,511,6.00,-70.00,-954.00
2024-05-19 08:36:33.879336,-1,3,8,0,0,0,80,81,124,100,27,132.37,511,2.00,-69.00,-993.00
2024-05-19 08:36:33.989088,0,3,13,0,0,0,79,82,124,100,27,132.33,511,-3.00,-65.00,-1057.00
2024-05-19 08:36:34.082980,0,3,19,0,0,0,79,82,124,100,27,132.29,511,-10.00,-42.00,-976.00
2024-05-19 08:36:34.197309,0,2,25,0,0,0,79,82,124,100,27,132.21,511,14.00,-37.00,-1047.00
2024-05-19 08:36:34.286937,-1,2,31,0,0,0,79,82,124,100,27,132.27,512,-13.00,-41.00,-992.00
2024-05-19 08:36:34.398958,-1,2,38,0,0,0,79,82,125,100,27,132.31,512,-29.00,-39.00,-996.00
2024-05-19 08:36:34.440294,-2,1,44,0,0,0,79,82,125,100,27,132.32,512,-20.00,-26.00,-961.00
2024-05-19 08:36:34.603469,-2,1,50,0,0,0,79,82,125,100,27,132.23,512,-60.00,-34.00,-888.00
2024-05-19 08:36:34.644665,-1,1,56,0,0,0,79,82,124,100,27,132.29,512,-39.00,-35.00,-980.00
2024-05-19 08:36:34.808292,-1,1,62,0,0,0,79,82,125,100,26,132.24,512,-57.00,-14.00,-966.00
2024-05-19 08:36:34.847960,-2,0,67,0,0,0,79,82,125,100,26,132.25,512,-37.00,-24.00,-1050.00
2024-05-19 08:36:35.013095,-2,0,73,0,0,0,79,82,124,100,26,132.23,512,-63.00,-40.00,-966.00
2024-05-19 08:36:35.051899,-2,0,79,0,0,0,79,82,124,100,26,132.28,512,-42.00,-9.00,-984.00
2024-05-19 08:36:35.217889,-2,0,84,0,0,0,79,82,124,100,26,132.28,512,-57.00,-9.00,-984.00
2024-05-19 08:36:35.255893,-2,0,91,0,0,0,79,82,124,100,26,132.32,513,-50.00,-4.00,-978.00
2024-05-19 08:36:35.422955,-2,0,96,0,0,0,79,82,124,100,26,132.29,513,-53.00,7.00,-992.00
2024-05-19 08:36:35.459825,-2,0,102,0,0,0,79,82,124,100,26,132.22,513,-38.00,10.00,-920.00
2024-05-19 08:36:35.627473,-1,0,108,0,0,0,79,82,123,100,26,132.18,513,-55.00,9.00,-933.00
2024-05-19 08:36:35.664129,-2,0,114,0,0,0,79,82,123,100,26,132.27,513,-27.00,22.00,-1022.00
2024-05-19 08:36:35.832337,-2,-1,120,0,0,0,79,82,123,100,26,132.29,513,-18.00,30.00,-1034.00
2024-05-19 08:36:35.867740,-1,-2,125,0,0,0,79,82,124,90,26,132.22,513,-42.00,29.00,-978.00
2024-05-19 08:36:36.037563,-1,-2,131,0,0,0,79,83,123,90,26,132.21,513,5.00,17.00,-1064.00
2024-05-19 08:36:36.071835,0,-2,137,0,0,0,79,83,124,100,26,132.29,513,-29.00,20.00,-1019.00
2024-05-19 08:36:36.241866,0,-1,142,0,0,0,79,83,124,100,26,132.32,513,-24.00,15.00,-973.00
2024-05-19 08:36:36.275787,0,-1,148,0,0,0,79,83,125,100,26,132.29,514,-12.00,46.00,-1054.00
2024-05-19 08:36:36.446617,0,-1,154,0,0,0,79,83,125,100,26,132.26,514,-11.00,27.00,-1009.00
2024-05-19 08:36:36.479730,0,-1,159,0,0,0,79,83,125,100,26,132.33,514,10.00,34.00,-1013.00
2024-05-19 08:36:36.651356,0,-1,165,0,0,0,79,83,125,100,26,132.31,514,-23.00,25.00,-964.00
2024-05-19 08:36:36.684016,0,-1,171,0,0,0,79,83,126,100,26,132.31,514,0.00,30.00,-1027.00
2024-05-19 08:36:36.856715,0,-1,177,0,0,0,79,83,126,100,26,132.31,514,-4.00,13.00,-1050.00
2024-05-19 08:36:36.887749,0,-1,-176,0,0,0,79,83,126,100,26,132.31,514,-17.00,3.00,-1025.00
2024-05-19 08:36:37.061087,0,0,-170,0,0,0,79,82,126,100,26,132.24,514,-1.00,5.00,-1032.00
2024-05-19 08:36:37.091902,0,0,-164,0,0,0,79,82,126,100,26,132.30,514,0.00,23.00,-995.00
2024-05-19 08:36:37.268145,0,0,-158,0,0,0,79,82,126,100,26,132.32,514,-3.00,22.00,-985.00
2024-05-19 08:36:37.295819,1,-1,-152,0,0,0,79,82,127,100,26,132.30,515,-1.00,35.00,-961.00
2024-05-19 08:36:37.472600,1,-1,-147,0,0,0,79,82,127,100,26,132.24,515,7.00,10.00,-1021.00
2024-05-19 08:36:37.501406,1,0,-141,0,0,0,79,82,127,100,26,132.27,515,2.00,5.00,-1023.00
2024-05-19 08:36:37.602387,1,0,-136,0,0,0,79,82,127,100,26,132.30,515,17.00,56.00,-984.00
2024-05-19 08:36:37.703733,1,-1,-130,0,0,0,79,82,127,100,25,132.28,515,26.00,13.00,-1047.00
2024-05-19 08:36:37.883308,1,-1,-124,0,0,0,79,82,127,100,25,132.29,515,44.00,15.00,-1092.00
2024-05-19 08:36:37.908458,1,-1,-118,0,0,0,79,82,128,100,25,132.22,515,32.00,5.00,-1001.00
2024-05-19 08:36:38.009771,2,0,-113,0,0,0,79,82,128,100,25,132.29,515,37.00,0.00,-1004.00
2024-05-19 08:36:38.188562,2,0,-107,0,0,0,79,82,128,100,25,132.38,515,33.00,18.00,-955.00
2024-05-19 08:36:38.213799,2,0,-101,0,0,0,79,82,128,100,25,132.36,515,49.00,13.00,-1025.00
2024-05-19 08:36:38.392319,2,0,-95,0,0,0,79,82,129,100,25,132.22,516,36.00,-2.00,-954.00
2024-05-19 08:36:38.417769,2,0,-89,0,0,0,79,82,129,100,25,132.23,516,45.00,-7.00,-980.00
2024-05-19 08:36:38.598165,2,0,-84,0,0,0,79,82,130,100,25,132.27,516,35.00,-3.00,-995.00
2024-05-19 08:36:38.622218,2,1,-78,0,0,0,79,82,130,100,25,132.30,516,42.00,-26.00,-1013.00
2024-05-19 08:36:38.723664,2,0,-72,0,0,0,79,82,131,100,25,132.37,516,55.00,-24.00,-995.00
2024-05-19 08:36:38.775255,2,1,-65,0,0,0,79,82,131,100,25,132.31,516,28.00,-45.00,-973.00
2024-05-19 08:36:38.904280,2,1,-59,0,0,0,79,82,130,100,25,132.32,516,26.00,-36.00,-940.00
2024-05-19 08:36:39.029696,2,2,-53,0,0,0,80,82,131,100,25,132.32,516,38.00,-48.00,-1044.00
2024-05-19 08:36:39.080832,2,2,-47,0,0,0,80,82,130,100,25,132.35,516,28.00,-4.00,-984.00
2024-05-19 08:36:39.211485,2,2,-42,0,0,0,80,82,130,100,25,132.28,516,25.00,-26.00,-1003.00
2024-05-19 08:36:39.284677,1,2,-36,0,0,0,80,82,129,100,25,132.31,517,39.00,-60.00,-971.00
2024-05-19 08:36:39.416283,1,3,-31,0,0,0,80,82,130,100,25,132.34,517,36.00,-35.00,-978.00
2024-05-19 08:36:39.488567,1,3,-25,0,0,0,80,82,130,100,25,132.32,517,9.00,-66.00,-1034.00
2024-05-19 08:36:39.621214,0,3,-20,0,0,0,80,82,130,100,25,132.34,517,26.00,-39.00,-996.00
2024-05-19 08:36:39.693274,1,4,-15,0,0,0,80,82,130,100,25,132.40,517,21.00,-77.00,-1003.00
2024-05-19 08:36:39.829884,1,4,-11,0,0,0,80,82,130,100,25,132.40,517,10.00,-52.00,-995.00
2024-05-19 08:36:39.896664,0,5,-7,0,0,0,80,82,130,100,25,132.44,517,11.00,-47.00,-981.00
2024-05-19 08:36:40.030754,0,5,-4,0,0,0,80,83,130,100,25,132.37,517,-15.00,-67.00,-1036.00
2024-05-19 08:36:40.100580,0,5,-2,0,0,0,80,83,130,100,25,132.39,517,-21.00,-58.00,-974.00
2024-05-19 08:36:40.235999,0,5,-1,0,0,0,80,83,130,100,25,132.41,517,0.00,-75.00,-985.00
2024-05-19 08:36:40.304630,0,4,0,0,0,0,80,83,130,100,25,132.43,518,-19.00,-56.00,-966.00
2024-05-19 08:36:40.440251,0,4,0,0,0,0,80,83,130,100,25,132.42,518,-1.00,-74.00,-1023.00
2024-05-19 08:36:40.508708,0,3,0,0,0,0,80,83,129,100,25,132.40,518,-7.00,-62.00,-983.00
2024-05-19 08:36:40.645398,0,3,0,0,0,0,80,83,129,100,25,132.41,518,13.00,-76.00,-1010.00
2024-05-19 08:36:40.712886,0,3,0,0,0,0,80,83,129,100,25,132.38,518,-14.00,-71.00,-944.00
2024-05-19 08:36:40.849820,0,4,0,0,0,0,80,83,130,100,25,132.40,518,1.00,-64.00,-1035.00
2024-05-19 08:36:40.917442,0,4,0,0,0,0,80,83,130,100,25,132.42,518,-12.00,-60.00,-1010.00
2024-05-19 08:36:41.058870,0,3,0,0,0,0,79,82,130,100,25,132.30,518,-21.00,-51.00,-972.00
2024-05-19 08:36:41.123736,0,3,0,0,0,0,79,82,130,100,25,132.27,518,-2.00,-51.00,-1006.00
2024-05-19 08:36:41.224159,0,2,0,0,0,0,79,82,130,100,25,132.31,518,-3.00,-47.00,-946.00
2024-05-19 08:36:41.326086,0,3,0,0,0,0,79,82,130,100,25,132.35,519,0.00,-63.00,-1034.00
2024-05-19 08:36:41.465627,0,3,0,0,0,0,79,82,130,100,25,132.41,519,-9.00,-68.00,-963.00
2024-05-19 08:36:41.528639,0,3,0,0,0,0,79,82,130,100,25,132.33,519,6.00,-50.00,-1023.00
2024-05-19 08:36:41.669467,0,3,0,0,0,0,79,82,130,100,25,132.34,519,-3.00,-59.00,-989.00
2024-05-19 08:36:41.733450,0,3,0,0,0,0,79,82,130,100,24,132.34,519,-11.00,-49.00,-973.00
2024-05-19 08:36:41.873916,0,3,0,0,0,0,79,82,130,100,24,132.37,519,-12.00,-38.00,-938.00
2024-05-19 08:36:41.936983,0,3,0,0,0,0,79,82,129,100,24,132.33,519,6.00,-77.00,-1003.00
2024-05-19 08:36:42.041061,0,3,0,0,0,0,80,82,130,100,24,132.41,519,5.00,-60.00,-956.00
2024-05-19 08:36:42.142903,0,3,0,0,0,0,80,82,130,100,24,132.36,519,0.00,-56.00,-1030.00
2024-05-19 08:36:42.242624,0,3,0,0,0,0,80,82,129,100,24,132.34,519,5.00,-54.00,-1013.00
2024-05-19 08:36:42.386025,0,3,0,0,0,0,80,82,129,100,24,132.33,520,2.00,-78.00,-1017.00
2024-05-19 08:36:42.449360,0,3,0,0,0,0,80,82,129,100,24,132.38,520,8.00,-53.00,-924.00
2024-05-19 08:36:42.550280,0,3,0,0,0,0,80,82,129,100,24,132.30,520,10.00,-65.00,-1037.00
2024-05-19 08:36:42.600297,0,4,0,0,0,0,80,82,129,100,24,132.37,520,12.00,-75.00,-987.00
2024-05-19 08:36:42.703902,0,3,-5,0,0,0,80,82,129,100,24,132.29,520,34.00,-56.00,-1032.00
2024-05-19 08:36:42.897855,0,3,-11,0,0,0,80,82,129,100,24,132.29,520,17.00,-52.00,-999.00
2024-05-19 08:36:42.906752,1,3,-17,0,0,0,80,82,128,100,24,132.28,520,35.00,-39.00,-996.00
2024-05-19 08:36:43.106773,2,2,-29,0,0,0,80,83,128,100,24,132.24,520,51.00,-21.00,-984.00
2024-05-19 08:36:43.116434,3,2,-35,0,0,0,80,83,127,100,24,132.20,520,45.00,-39.00,-1037.00
2024-05-19 08:36:43.212804,3,1,-41,0,0,0,80,83,126,100,24,132.23,521,50.00,-30.00,-958.00
2024-05-19 08:36:43.410392,3,1,-47,0,0,0,80,83,127,100,24,132.19,521,36.00,-44.00,-980.00
2024-05-19 08:36:43.416414,3,1,-52,0,0,0,80,83,127,100,24,132.21,521,53.00,-29.00,-1041.00
2024-05-19 08:36:43.614658,3,1,-58,0,0,0,80,83,126,100,24,132.15,521,42.00,-50.00,-1022.00
2024-05-19 08:36:43.620429,3,1,-64,0,0,0,80,83,126,100,24,132.14,521,44.00,-26.00,-959.00
2024-05-19 08:36:43.722616,3,1,-70,0,0,0,80,83,127,100,24,132.17,521,74.00,-23.00,-1040.00
2024-05-19 08:36:43.921868,3,1,-76,0,0,0,80,83,126,100,24,132.16,521,64.00,20.00,-959.00
2024-05-19 08:36:43.926414,3,0,-82,0,0,0,80,83,126,100,24,132.18,521,55.00,5.00,-967.00
2024-05-19 08:36:44.028449,3,0,-88,0,0,0,80,82,125,100,24,132.21,521,49.00,-10.00,-1015.00
2024-05-19 08:36:44.229069,3,0,-94,0,0,0,80,82,125,100,24,132.15,521,70.00,11.00,-1012.00
2024-05-19 08:36:44.232537,3,0,-100,0,0,0,80,82,125,100,24,132.11,522,59.00,1.00,-1018.00
2024-05-19 08:36:44.334514,3,0,-106,0,0,0,80,82,125,100,24,132.15,522,47.00,12.00,-1049.00
2024-05-19 08:36:44.437760,2,0,-112,0,0,0,80,82,124,100,24,132.15,522,45.00,22.00,-1011.00
2024-05-19 08:36:44.538786,2,0,-118,0,0,0,80,82,124,100,24,132.16,522,32.00,26.00,-982.00
2024-05-19 08:36:44.641815,2,0,-124,0,0,0,80,82,124,100,24,132.18,522,33.00,17.00,-1032.00
2024-05-19 08:36:44.743011,2,-1,-131,0,0,0,80,82,123,100,23,132.14,522,39.00,41.00,-995.00
2024-05-19 08:36:44.948204,1,-1,-137,0,0,0,80,82,124,100,23,132.17,522,20.00,48.00,-963.00
2024-05-19 08:36:44.948239,1,-2,-143,0,0,0,80,82,123,90,23,132.18,522,1.00,36.00,-979.00
2024-05-19 08:36:45.048536,0,-1,-149,0,0,0,79,81,122,90,23,132.19,522,0.00,38.00,-996.00
2024-05-19 08:36:45.151070,0,-1,-156,0,0,0,79,81,122,90,23,132.15,522,-5.00,35.00,-1019.00
2024-05-19 08:36:45.254477,0,-2,-162,0,0,0,79,81,122,90,23,132.24,523,-12.00,36.00,-997.00
2024-05-19 08:36:45.355083,0,-2,-168,0,0,0,79,81,122,90,23,132.22,523,-42.00,31.00,-939.00
2024-05-19 08:36:45.457803,0,-2,-174,0,0,0,79,81,122,90,23,132.16,523,-32.00,46.00,-971.00
2024-05-19 08:36:45.560466,-1,-1,179,0,0,0,79,81,122,90,23,132.22,523,-19.00,33.00,-1003.00
2024-05-19 08:36:45.660440,-1,-1,173,0,0,0,79,81,122,90,23,132.23,523,-29.00,20.00,-966.00
2024-05-19 08:36:45.762477,-1,-1,167,0,0,0,79,81,122,90,23,132.29,523,-9.00,15.00,-1023.00
2024-05-19 08:36:45.867427,-1,0,162,0,0,0,79,81,122,90,23,132.22,523,-9.00,15.00,-1047.00
2024-05-19 08:36:45.915345,-1,0,156,0,0,0,79,81,121,90,23,132.25,523,-30.00,18.00,-1003.00
2024-05-19 08:36:46.072277,-1,0,151,0,0,0,79,82,121,90,23,132.27,523,-59.00,-4.00,-952.00
2024-05-19 08:36:46.119339,-1,0,146,0,0,0,79,82,121,90,23,132.29,523,-12.00,18.00,-955.00
2024-05-19 08:36:46.277435,-1,0,140,0,0,0,79,82,121,90,23,132.22,524,-26.00,17.00,-967.00
2024-05-19 08:36:46.324114,-1,0,134,0,0,0,79,82,120,90,23,132.19,524,-7.00,20.00,-981.00
2024-05-19 08:36:46.482038,-1,-1,128,0,0,0,79,82,120,90,23,132.16,524,-10.00,22.00,-1043.00
2024-05-19 08:36:46.527312,0,-1,122,0,0,0,79,82,120,90,23,132.16,524,-26.00,22.00,-1024.00
2024-05-19 08:36:46.686850,0,-2,115,0,0,0,79,82,121,90,23,132.24,524,-16.00,18.00,-1012.00
2024-05-19 08:36:46.731288,0,-2,109,0,0,0,79,82,121,90,23,132.21,524,-41.00,24.00,-982.00
2024-05-19 08:36:46.891439,-1,-2,103,0,0,0,79,82,122,90,23,132.22,524,-35.00,36.00,-1004.00
2024-05-19 08:36:46.935249,-1,-1,97,0,0,0,79,82,123,90,23,132.24,524,-6.00,35.00,-1007.00
2024-05-19 08:36:47.096278,-1,-1,91,0,0,0,80,82,123,90,23,132.25,524,-56.00,-12.00,-955.00
2024-05-19 08:36:47.140378,-1,0,85,0,0,0,80,82,123,100,23,132.28,524,-38.00,8.00,-927.00
2024-05-19 08:36:47.301056,-1,0,79,0,0,0,80,82,123,100,23,132.27,525,-54.00,-14.00,-992.00
2024-05-19 08:36:47.343281,-1,0,73,0,0,0,80,82,124,100,23,132.21,525,-40.00,-17.00,-1015.00
2024-05-19 08:36:47.505816,-2,0,67,0,0,0,80,82,124,100,23,132.27,525,-36.00,-30.00,-1006.00
2024-05-19 08:36:47.547328,-2,0,61,0,0,0,80,82,124,100,23,132.31,525,-29.00,-30.00,-1053.00
2024-05-19 08:36:47.710718,-2,1,55,0,0,0,80,82,124,100,23,132.25,525,-38.00,-17.00,-990.00
2024-05-19 08:36:47.751272,-1,2,49,0,0,0,80,82,125,100,23,132.24,525,-21.00,-27.00,-999.00
2024-05-19 08:36:47.915461,-1,2,44,0,0,0,80,82,125,100,23,132.29,525,-40.00,-40.00,-1014.00
2024-05-19 08:36:47.955352,-1,2,38,0,0,0,80,82,125,100,23,132.32,525,-48.00,-26.00,-932.00
2024-05-19 08:36:48.120375,-1,2,32,0,0,0,80,82,126,100,23,132.34,525,8.00,-36.00,-1024.00
2024-05-19 08:36:48.160365,-1,2,27,0,0,0,80,82,126,100,23,132.34,525,-19.00,-20.00,-971.00
2024-05-19 08:36:48.325435,-1,2,21,0,0,0,80,82,127,100,23,132.30,526,-36.00,-40.00,-943.00
2024-05-19 08:36:48.364221,0,2,17,0,0,0,80,82,128,100,23,132.31,526,-9.00,-31.00,-953.00
2024-05-19 08:36:48.529880,0,2,13,0,0,0,80,82,128,100,23,132.33,526,-43.00,-60.00,-982.00
2024-05-19 08:36:48.568165,0,2,10,0,0,0,80,82,128,100,23,132.39,526,-26.00,-33.00,-978.00
2024-05-19 08:36:48.677346,0,2,8,0,0,0,80,82,128,100,23,132.36,526,-36.00,-38.00,-933.00
2024-05-19 08:36:48.772658,0,2,6,0,0,0,80,82,129,100,22,132.35,526,-31.00,-42.00,-929.00
2024-05-19 08:36:48.939854,0,2,4,0,0,0,80,82,129,100,22,132.27,526,-19.00,-67.00,-1015.00
2024-05-19 08:36:48.977304,0,2,3,0,0,0,80,82,129,100,22,132.29,526,-13.00,-55.00,-1016.00
2024-05-19 08:36:49.144981,0,2,2,0,0,0,79,82,129,100,22,132.27,526,-10.00,-61.00,-1002.00
2024-05-19 08:36:49.181805,0,2,1,0,0,0,79,82,129,100,22,132.31,526,-4.00,-51.00,-957.00
2024-05-19 08:36:49.350572,0,2,1,0,0,0,79,82,129,100,22,132.27,527,-6.00,-11.00,-995.00
2024-05-19 08:36:49.385693,0,2,1,0,0,0,79,82,129,100,22,132.30,527,4.00,-64.00,-1048.00
2024-05-19 08:36:49.554344,0,2,0,0,0,0,79,82,129,100,22,132.29,527,4.00,-40.00,-1021.00
2024-05-19 08:36:49.591130,0,2,0,0,0,0,79,82,129,100,22,132.34,527,5.00,-11.00,-999.00
2024-05-19 08:36:49.691579,0,1,0,0,0,0,79,82,129,100,22,132.34,527,-3.00,-31.00,-1022.00
2024-05-19 08:36:49.793656,0,1,0,0,0,0,79,82,129,100,22,132.30,527,4.00,-44.00,-1010.00
2024-05-19 08:36:49.964184,0,0,0,0,0,0,79,82,128,100,22,132.31,527,-3.00,-34.00,-949.00
2024-05-19 08:36:49.964901,0,0,0,0,0,0,79,82,128,100,22,132.34,527,-5.00,-48.00,-994.00
2024-05-19 08:36:50.168419,0,1,0,0,0,0,79,82,127,100,22,132.27,527,-1.00,-38.00,-939.00
2024-05-19 08:36:50.201296,0,1,0,0,0,0,79,82,126,100,22,132.31,527,-11.00,-42.00,-1002.00
2024-05-19 08:36:50.252292,0,2,0,0,0,0,79,82,126,100,22,132.31,528,5.00,-46.00,-1041.00
2024-05-19 08:36:50.373146,0,2,0,0,0,0,79,82,125,100,22,132.32,528,25.00,-27.00,-1070.00
2024-05-19 08:36:50.456202,0,2,0,0,0,0,79,82,125,100,22,132.29,528,-19.00,-13.00,-943.00
2024-05-19 08:36:50.578828,0,2,0,0,0,0,79,82,124,100,22,132.37,528,14.00,-40.00,-985.00
2024-05-19 08:36:50.660209,0,2,0,0,0,0,79,82,124,100,22,132.29,528,18.00,-34.00,-1023.00
2024-05-19 08:36:50.762147,0,2,0,0,0,0,79,82,124,100,22,132.29,528,11.00,-66.00,-1033.00
2024-05-19 08:36:50.887530,0,3,0,0,0,0,79,82,124,100,22,132.30,528,12.00,-67.00,-1008.00
2024-05-19 08:36:50.966199,0,3,0,0,0,0,79,82,124,100,22,132.25,528,25.00,-52.00,-968.00
2024-05-19 08:36:51.089938,1,3,0,0,0,0,79,82,124,100,22,132.23,528,32.00,-34.00,-1032.00
2024-05-19 08:36:51.170997,1,3,0,0,0,0,79,82,125,100,22,132.30,528,22.00,-10.00,-993.00
2024-05-19 08:36:51.295398,1,2,0,0,0,0,79,82,125,100,22,132.26,529,40.00,-44.00,-981.00
2024-05-19 08:36:51.375846,1,2,0,0,0,0,79,82,125,100,22,132.24,529,32.00,-14.00,-1011.00
2024-05-19 08:36:51.476250,1,2,0,0,0,0,79,82,125,100,22,132.23,529,26.00,-32.00,-999.00
2024-05-19 08:36:51.602982,2,1,0,0,0,0,79,82,126,100,22,132.33,529,34.00,-48.00,-993.00
2024-05-19 08:36:51.680030,2,0,0,0,0,0,79,82,126,100,22,132.34,529,25.00,-46.00,-1009.00
2024-05-19 08:36:51.781997,2,0,0,0,0,0,79,82,126,100,22,132.32,529,41.00,-47.00,-984.00
2024-05-19 08:36:51.909247,2,1,0,0,0,0,79,82,126,100,22,132.37,529,30.00,-16.00,-960.00
2024-05-19 08:36:51.986523,2,1,0,0,0,0,79,82,126,100,22,132.29,529,34.00,-32.00,-994.00
2024-05-19 08:36:52.117564,2,1,0,0,0,0,79,82,126,100,22,132.36,529,50.00,-28.00,-1017.00
2024-05-19 08:36:52.190554,2,1,0,0,0,0,79,82,126,100,22,132.30,529,36.00,-24.00,-945.00
2024-05-19 08:36:52.318764,2,1,0,0,0,0,79,82,126,100,22,132.33,530,38.00,-48.00,-981.00
2024-05-19 08:36:52.394961,2,0,0,0,0,0,79,82,126,100,22,132.27,530,37.00,-25.00,-993.00
2024-05-19 08:36:52.523831,2,1,0,0,0,0,79,82,126,100,22,132.29,530,26.00,-16.00,-1016.00
2024-05-19 08:36:52.598814,2,1,0,0,0,0,79,82,126,100,22,132.28,530,26.00,0.00,-1012.00
2024-05-19 08:36:52.729326,1,0,0,0,0,0,79,82,125,100,22,132.23,530,37.00,-33.00,-980.00
2024-05-19 08:36:52.803051,1,0,0,0,0,0,79,82,125,100,22,132.24,530,23.00,-10.00,-1017.00
2024-05-19 08:36:52.933279,1,1,0,0,0,0,79,82,124,100,22,132.25,530,34.00,-4.00,-978.00
2024-05-19 08:36:53.006399,1,0,0,0,0,0,79,82,124,100,22,132.27,530,27.00,-10.00,-985.00
2024-05-19 08:36:53.144597,1,0,0,0,0,0,79,82,124,100,22,132.28,530,39.00,-4.00,-979.00
2024-05-19 08:36:53.210076,1,1,0,0,0,0,79,82,124,90,22,132.30,530,32.00,-39.00,-1072.00
2024-05-19 08:36:53.344146,1,1,0,0,0,0,79,82,124,100,22,132.33,531,21.00,-34.00,-1055.00
2024-05-19 08:36:53.414630,1,1,0,0,0,0,79,82,124,100,22,132.32,531,28.00,-26.00,-1009.00
2024-05-19 08:36:53.547689,1,1,0,0,0,0,79,82,124,100,22,132.38,531,15.00,-17.00,-1002.00
2024-05-19 08:36:53.618032,1,1,0,0,0,0,79,82,124,100,22,132.37,531,17.00,-44.00,-1000.00
2024-05-19 08:36:53.669135,1,1,0,0,0,0,79,82,123,100,22,132.33,531,15.00,-31.00,-1000.00
2024-05-19 08:36:53.772036,1,1,0,0,0,0,79,82,124,100,22,132.32,531,16.00,3.00,-1004.00
2024-05-19 08:36:53.958453,1,1,0,0,0,0,79,82,123,100,22,132.32,531,29.00,-49.00,-1041.00
2024-05-19 08:36:53.980386,1,2,0,0,0,0,79,82,123,100,22,132.29,531,16.00,-13.00,-1012.00
2024-05-19 08:36:54.077169,1,2,0,0,0,0,80,82,123,90,22,132.30,531,26.00,-46.00,-1025.00
2024-05-19 08:36:54.179116,1,2,0,0,0,0,80,82,123,90,22,132.28,531,37.00,-25.00,-1025.00
2024-05-19 08:36:54.366750,1,2,0,0,0,0,80,82,123,90,22,132.38,532,29.00,-53.00,-1012.00
2024-05-19 08:36:54.383259,1,3,0,0,0,0,80,82,123,90,22,132.32,532,23.00,-39.00,-966.00
2024-05-19 08:36:54.571508,1,3,0,0,0,0,80,82,123,90,22,132.33,532,23.00,-61.00,-1009.00
2024-05-19 08:36:54.586892,1,2,0,0,0,0,80,82,123,90,22,132.40,532,21.00,-31.00,-1070.00
2024-05-19 08:36:54.688985,1,1,0,0,0,0,80,82,124,100,22,132.35,532,13.00,-2.00,-972.00
2024-05-19 08:36:54.791209,1,1,0,0,0,0,80,82,124,100,22,132.30,532,16.00,-1.00,-989.00
2024-05-19 08:36:54.981667,1,0,0,0,0,0,80,82,124,100,22,132.38,532,29.00,-32.00,-1007.00
2024-05-19 08:36:54.994892,1,0,0,0,0,0,80,82,123,100,22,132.34,532,41.00,-38.00,-992.00
2024-05-19 08:36:55.186654,1,0,0,0,0,0,79,82,123,100,22,132.39,532,30.00,-30.00,-956.00
2024-05-19 08:36:55.203853,1,0,0,0,0,0,79,82,122,100,22,132.30,532,29.00,-26.00,-1023.00
2024-05-19 08:36:55.300942,1,1,0,0,0,0,79,82,121,100,22,132.31,533,14.00,-43.00,-989.00
2024-05-19 08:36:55.403783,1,0,0,0,0,0,79,82,121,90,22,132.26,533,11.00,-30.00,-971.00
2024-05-19 08:36:55.508341,1,1,0,0,0,0,79,82,121,90,22,132.27,533,26.00,-31.00,-1068.00
2024-05-19 08:36:55.609236,0,1,0,0,0,0,79,82,120,90,22,132.22,533,36.00,-40.00,-1061.00
2024-05-19 08:36:55.709048,1,1,0,0,0,0,79,82,120,90,22,132.27,533,14.00,-2.00,-1014.00
2024-05-19 08:36:55.902731,1,1,0,0,0,0,79,82,120,90,22,132.35,533,28.00,-21.00,-967.00
2024-05-19 08:36:55.912863,1,0,0,0,0,0,79,82,121,90,22,132.34,533,37.00,-29.00,-1022.00
2024-05-19 08:36:56.015010,1,1,0,0,0,0,79,82,121,90,22,132.37,533,42.00,-19.00,-1036.00
2024-05-19 08:36:56.210156,0,1,0,0,0,0,79,82,121,90,22,132.33,533,41.00,-44.00,-1020.00
2024-05-19 08:36:56.218934,1,1,0,0,0,0,79,82,122,90,22,132.34,533,25.00,-35.00,-1012.00
2024-05-19 08:36:56.414832,1,1,0,0,0,0,79,82,123,90,22,132.40,534,11.00,-34.00,-998.00
2024-05-19 08:36:56.422914,1,2,0,0,0,0,79,82,124,90,22,132.36,534,39.00,-54.00,-986.00
2024-05-19 08:36:56.620000,1,2,0,0,0,0,79,82,124,100,22,132.42,534,23.00,-14.00,-1026.00
2024-05-19 08:36:56.627297,1,2,0,0,0,0,79,82,125,100,22,132.42,534,33.00,-56.00,-987.00
2024-05-19 08:36:56.824396,1,2,0,0,0,0,79,82,125,100,22,132.42,534,26.00,-39.00,-1019.00
2024-05-19 08:36:56.830845,1,2,0,0,0,0,79,82,125,100,22,132.40,534,33.00,-3.00,-983.00
2024-05-19 08:36:57.029082,1,2,0,0,0,0,79,82,126,100,22,132.43,534,17.00,-25.00,-987.00
2024-05-19 08:36:57.035025,1,1,0,0,0,0,79,82,126,100,22,132.31,534,31.00,-29.00,-1016.00
2024-05-19 08:36:57.180882,1,1,0,0,0,0,79,83,126,100,22,132.35,534,22.00,-55.00,-1012.00
2024-05-19 08:36:57.239705,2,1,0,0,0,0,79,83,127,100,22,132.42,534,19.00,-48.00,-980.00
2024-05-19 08:36:57.439131,1,1,0,0,0,0,79,83,127,100,22,132.40,535,12.00,-23.00,-955.00
2024-05-19 08:36:57.442886,1,1,0,0,0,0,79,83,127,100,22,132.46,535,14.00,-32.00,-961.00
2024-05-19 08:36:57.493831,1,1,0,0,0,0,79,83,127,100,22,132.47,535,-2.00,-42.00,-957.00
2024-05-19 08:36:57.643569,1,0,0,0,0,0,79,83,127,100,22,132.36,535,2.00,-30.00,-960.00
2024-05-19 08:36:57.697765,1,0,0,0,0,0,79,83,127,100,21,132.41,535,22.00,-16.00,-959.00
2024-05-19 08:36:57.799763,1,0,0,0,0,0,79,83,126,100,21,132.47,535,31.00,1.00,-1016.00
2024-05-19 08:36:57.950619,1,0,0,0,0,0,79,83,126,100,21,132.44,535,17.00,-43.00,-972.00
2024-05-19 08:36:58.003734,1,1,0,0,0,0,79,83,126,100,21,132.46,535,25.00,-37.00,-1075.00
2024-05-19 08:36:58.155567,0,0,0,0,0,0,79,82,125,100,21,132.43,535,27.00,-35.00,-1093.00
2024-05-19 08:36:58.209121,0,1,0,0,0,0,79,82,125,100,21,132.42,535,20.00,-42.00,-986.00
2024-05-19 08:36:58.360284,1,1,0,0,0,0,79,82,125,100,21,132.49,536,17.00,-7.00,-993.00
2024-05-19 08:36:58.411983,0,1,0,0,0,0,79,82,124,100,21,132.44,536,23.00,-8.00,-1031.00
2024-05-19 08:36:58.565553,0,0,0,0,0,0,79,82,124,100,21,132.39,536,10.00,-31.00,-1011.00
2024-05-19 08:36:58.615785,0,0,0,0,0,0,79,82,124,100,21,132.39,536,9.00,-32.00,-1042.00
2024-05-19 08:36:58.769756,0,0,0,0,0,0,79,82,124,100,21,132.42,536,18.00,-14.00,-1027.00
2024-05-19 08:36:58.819795,1,0,0,0,0,0,79,82,124,100,21,132.42,536,-7.00,-32.00,-1050.00
2024-05-19 08:36:58.974675,0,0,0,0,0,0,79,82,125,100,21,132.47,536,7.00,-23.00,-1020.00
2024-05-19 08:36:59.023863,0,0,0,0,0,0,79,82,126,100,21,132.45,536,8.00,-37.00,-977.00
2024-05-19 08:36:59.179506,0,1,0,0,0,0,79,82,126,100,21,132.46,536,19.00,-18.00,-981.00
2024-05-19 08:36:59.227717,0,1,0,0,0,0,79,82,126,100,21,132.48,537,9.00,-13.00,-1032.00
2024-05-19 08:36:59.384345,0,1,0,0,0,0,79,82,127,100,21,132.44,537,11.00,-33.00,-953.00
2024-05-19 08:36:59.431777,0,1,0,0,0,0,79,82,127,100,21,132.43,537,16.00,-14.00,-1000.00
2024-05-19 08:36:59.589221,0,0,0,0,0,0,79,82,127,100,21,132.48,537,6.00,-16.00,-988.00
2024-05-19 08:36:59.635576,0,0,0,0,0,0,79,82,127,100,21,132.49,537,3.00,3.00,-977.00
2024-05-19 08:36:59.794002,0,0,0,0,0,0,79,82,127,100,21,132.47,537,4.00,-35.00,-980.00
2024-05-19 08:36:59.840544,0,0,0,0,0,0,79,82,126,100,21,132.46,537,13.00,-40.00,-1010.00
2024-05-19 08:36:59.998747,0,0,0,0,0,0,79,82,126,100,21,132.57,537,-1.00,16.00,-989.00
2024-05-19 08:37:00.043690,0,0,0,0,0,0,79,82,127,100,21,132.49,537,11.00,-45.00,-960.00
