TS,pitch,roll,yaw,vgx,vgy,vgz,templ,temph,tof,h,bat,baro,time,agx,agy,agz
2024-06-06 23:58:20.562881,0,0,0,0,0,0,52,54,10,0,94,117.75,0,0.00,0.00,-998.00
2024-06-06 23:58:20.669935,0,0,0,0,0,0,52,54,10,0,94,117.76,0,-1.00,-1.00,-1001.00
2024-06-06 23:58:20.766786,0,0,0,0,0,0,52,54,10,0,94,117.81,0,-1.00,0.00,-999.00
2024-06-06 23:58:20.874919,0,0,0,0,0,0,52,54,10,0,94,117.74,0,0.00,0.00,-999.00
2024-06-06 23:58:20.970717,0,0,0,0,0,0,52,54,10,0,94,117.74,0,-2.00,0.00,-998.00
2024-06-06 23:58:21.079477,0,0,0,0,0,0,52,54,10,0,94,117.76,0,-1.00,0.00,-998.00
2024-06-06 23:58:21.174605,0,0,0,0,0,0,52,54,10,0,94,117.75,0,-1.00,0.00,-1000.00
2024-06-06 23:58:21.284333,0,0,0,0,0,0,52,54,10,0,94,117.68,0,-4.00,0.00,-997.00
2024-06-06 23:58:21.378779,0,0,0,0,0,0,52,54,10,0,94,117.73,0,0.00,0.00,-1001.00
2024-06-06 23:58:21.489393,0,0,0,0,0,0,52,55,10,0,94,117.78,0,-3.00,0.00,-999.00
2024-06-06 23:58:21.587768,0,0,0,0,0,0,52,55,10,0,94,117.81,0,0.00,-1.00,-999.00
2024-06-06 23:58:21.688653,0,0,0,0,0,0,52,55,10,0,94,117.74,0,-3.00,0.00,-1001.00
2024-06-06 23:58:21.786569,0,0,0,0,0,0,52,55,10,0,94,117.80,0,-2.00,0.00,-997.00
2024-06-06 23:58:21.898812,0,0,0,0,0,0,52,55,10,0,94,117.78,0,-1.00,-1.00,-1001.00
2024-06-06 23:58:21.991841,0,0,0,0,0,0,52,55,10,0,94,117.78,0,-2.00,0.00,-1002.00
2024-06-06 23:58:22.123869,0,0,0,0,0,0,52,55,10,0,94,117.76,0,0.00,0.00,-999.00
2024-06-06 23:58:22.195530,0,0,0,0,0,0,52,55,10,0,94,117.75,0,-2.00,0.00,-1001.00
2024-06-06 23:58:22.323689,0,0,0,0,0,0,52,55,10,0,94,117.75,0,-1.00,0.00,-998.00
2024-06-06 23:58:22.348578,0,0,0,0,0,0,52,55,10,0,94,117.79,0,-1.00,0.00,-1000.00
2024-06-06 23:58:22.450032,0,0,0,0,0,0,53,55,10,0,94,117.72,0,-2.00,0.00,-998.00
2024-06-06 23:58:22.616842,0,0,0,0,0,0,53,55,10,0,94,117.74,0,-3.00,0.00,-1000.00
2024-06-06 23:58:22.662880,0,0,0,0,0,0,53,55,10,0,94,117.76,0,-2.00,0.00,-999.00
2024-06-06 23:58:22.770208,0,0,0,0,0,0,53,55,10,0,94,117.70,0,-2.00,-1.00,-998.00
2024-06-06 23:58:22.867698,0,0,0,0,0,0,53,55,10,0,94,117.75,0,-2.00,1.00,-997.00
2024-06-06 23:58:22.963513,0,0,0,0,0,0,53,55,10,0,94,117.75,0,-2.00,0.00,-1000.00
2024-06-06 23:58:23.061764,0,0,0,0,0,0,53,55,10,0,94,117.77,0,-2.00,0.00,-1000.00
2024-06-06 23:58:23.241805,0,0,0,0,0,0,53,55,10,0,94,117.77,0,-3.00,1.00,-999.00
2024-06-06 23:58:23.265641,0,0,0,0,0,0,53,55,10,0,94,117.75,0,-2.00,0.00,-998.00
2024-06-06 23:58:23.367822,0,0,0,0,0,0,53,55,10,0,94,117.76,0,-2.00,-2.00,-1001.00
2024-06-06 23:58:23.547801,0,0,0,0,0,0,52,55,10,0,94,117.76,0,-10.00,-7.00,-1007.00
2024-06-06 23:58:23.571438,0,0,0,0,0,0,52,55,10,0,94,117.76,0,-10.00,-6.00,-1011.00
2024-06-06 23:58:23.691194,0,0,1,0,0,0,52,55,10,0,94,117.76,0,24.00,-21.00,-1007.00
2024-06-06 23:58:23.855001,0,0,1,0,0,0,52,55,10,0,94,117.76,0,-12.00,-5.00,-1038.00
2024-06-06 23:58:23.877440,0,0,0,0,0,0,52,55,10,0,94,117.76,0,-10.00,-5.00,-1195.00
2024-06-06 23:58:23.998507,0,0,0,0,0,-3,52,55,26,0,94,117.76,0,13.00,0.00,-1463.00
2024-06-06 23:58:24.162191,0,0,0,0,0,-6,52,55,26,0,94,117.76,0,0.00,0.00,-1182.00
2024-06-06 23:58:24.183307,0,0,0,0,0,-7,52,55,26,0,94,118.06,0,0.00,7.00,-1076.00
2024-06-06 23:58:24.316447,0,0,0,0,0,-7,52,55,25,10,94,118.22,0,-7.00,-8.00,-982.00
2024-06-06 23:58:24.387467,0,0,0,0,0,-7,52,55,34,20,94,118.30,1,-3.00,-15.00,-960.00
2024-06-06 23:58:24.489524,0,0,0,0,0,-6,53,55,41,30,94,118.35,1,-8.00,-10.00,-903.00
2024-06-06 23:58:24.667058,0,0,0,0,0,-6,53,55,48,30,94,118.42,1,-9.00,-1.00,-882.00
2024-06-06 23:58:24.693494,0,0,0,0,0,-4,53,55,58,40,93,118.48,1,-16.00,7.00,-878.00
2024-06-06 23:58:24.795931,-1,1,0,0,0,-3,53,55,63,40,93,118.51,1,-8.00,-2.00,-896.00
2024-06-06 23:58:24.971845,-1,1,0,0,0,-3,53,55,67,50,93,118.55,1,0.00,-14.00,-913.00
2024-06-06 23:58:24.999840,-1,0,0,0,0,-2,53,55,69,50,93,118.63,1,-1.00,-1.00,-930.00
2024-06-06 23:58:25.176531,-1,0,0,0,0,-1,53,55,71,50,93,118.60,1,-8.00,3.00,-941.00
2024-06-06 23:58:25.203373,-1,0,0,0,0,-1,53,55,74,60,93,118.65,1,-8.00,-36.00,-959.00
2024-06-06 23:58:25.389302,-1,0,0,0,0,-1,53,55,75,60,93,118.70,1,-11.00,7.00,-959.00
2024-06-06 23:58:25.410260,-1,1,0,0,0,0,53,55,76,60,93,118.69,2,-12.00,-6.00,-974.00
2024-06-06 23:58:25.509394,-1,1,0,0,0,0,54,56,78,60,93,118.77,2,-12.00,12.00,-1004.00
2024-06-06 23:58:25.691955,-1,1,0,0,0,0,54,56,79,60,93,118.73,2,-9.00,-10.00,-997.00
2024-06-06 23:58:25.713575,-1,1,0,0,0,0,54,56,79,60,93,118.69,2,-13.00,-9.00,-998.00
2024-06-06 23:58:25.892172,-1,1,0,0,0,0,54,56,81,60,93,118.74,2,-18.00,4.00,-980.00
2024-06-06 23:58:25.917490,-1,1,0,0,0,0,54,56,81,60,93,118.72,2,-11.00,-1.00,-964.00
2024-06-06 23:58:26.097669,-1,1,0,0,0,0,54,56,82,70,93,118.69,2,-17.00,5.00,-989.00
2024-06-06 23:58:26.122092,-1,1,0,0,0,0,54,56,83,70,93,118.74,2,-12.00,4.00,-973.00
2024-06-06 23:58:26.174416,-1,0,0,0,0,0,54,56,84,70,93,118.76,2,-10.00,-15.00,-993.00
2024-06-06 23:58:26.303281,-1,1,0,0,0,0,54,56,83,70,93,118.73,2,-13.00,-14.00,-988.00
2024-06-06 23:58:26.379382,-1,1,0,0,0,0,54,56,84,70,93,118.76,3,-13.00,-5.00,-995.00
2024-06-06 23:58:26.480088,-1,1,0,0,0,0,53,57,84,70,93,118.73,3,-12.00,-8.00,-1003.00
2024-06-06 23:58:26.581536,-1,1,0,0,0,0,53,57,84,70,93,118.73,3,-15.00,-6.00,-995.00
2024-06-06 23:58:26.711263,-1,1,0,0,0,0,53,57,84,70,93,118.75,3,-22.00,-22.00,-975.00
2024-06-06 23:58:26.788821,-1,1,0,0,0,0,53,57,84,70,93,118.77,3,-22.00,-5.00,-992.00
2024-06-06 23:58:26.887298,-1,0,0,0,0,0,53,57,83,70,93,118.79,3,-23.00,-18.00,-980.00
2024-06-06 23:58:27.020427,-1,0,0,0,0,0,53,57,83,70,93,118.77,3,-2.00,-32.00,-988.00
2024-06-06 23:58:27.091347,-1,0,0,0,0,0,53,57,83,70,93,118.81,3,-10.00,-23.00,-1014.00
2024-06-06 23:58:27.223350,-1,0,0,0,0,0,53,57,82,70,93,118.79,3,-9.00,1.00,-1002.00
2024-06-06 23:58:27.295281,-1,0,0,0,0,0,53,57,82,70,93,118.69,3,-8.00,-2.00,-972.00
2024-06-06 23:58:27.397456,-1,0,0,0,0,0,53,57,81,70,93,118.75,4,-3.00,-10.00,-990.00
2024-06-06 23:58:27.530485,-1,0,0,0,0,0,54,57,81,70,93,118.82,4,-2.00,-33.00,-1022.00
2024-06-06 23:58:27.601372,-1,0,0,0,0,0,54,57,81,70,93,118.76,4,-2.00,-27.00,-1027.00
2024-06-06 23:58:27.735811,-1,0,0,0,0,0,54,57,81,70,93,118.85,4,-19.00,-2.00,-1032.00
2024-06-06 23:58:27.805222,-1,0,0,0,0,0,54,57,80,70,93,118.82,4,-11.00,-4.00,-995.00
2024-06-06 23:58:27.941549,-1,1,0,0,0,0,54,57,80,70,93,118.74,4,-15.00,-5.00,-975.00
2024-06-06 23:58:28.009127,-1,1,0,0,0,0,54,57,80,70,93,118.72,4,-11.00,-24.00,-986.00
2024-06-06 23:58:28.147711,-1,0,0,0,0,0,54,57,80,70,93,118.80,4,-8.00,-18.00,-1029.00
2024-06-06 23:58:28.213166,-1,0,0,0,0,0,54,57,80,70,93,118.72,4,-6.00,2.00,-1026.00
2024-06-06 23:58:28.351451,-1,0,0,0,0,0,54,57,80,70,93,118.76,4,-2.00,-6.00,-1018.00
2024-06-06 23:58:28.417240,-1,0,0,0,0,0,54,57,80,70,93,118.78,5,-7.00,-38.00,-980.00
2024-06-06 23:58:28.554415,-1,0,0,0,0,0,55,57,81,70,93,118.77,5,-9.00,-14.00,-1000.00
2024-06-06 23:58:28.621208,-1,0,0,0,0,0,55,57,80,70,93,118.79,5,-9.00,-15.00,-999.00
2024-06-06 23:58:28.759262,-1,1,0,0,0,0,55,57,80,70,93,118.81,5,-4.00,5.00,-985.00
2024-06-06 23:58:28.825261,-1,0,0,0,0,0,55,57,81,70,93,118.82,5,-15.00,7.00,-973.00
2024-06-06 23:58:28.965246,-1,0,0,0,0,0,55,57,80,70,93,118.85,5,-9.00,-5.00,-999.00
2024-06-06 23:58:29.029123,-1,0,0,0,0,0,55,57,80,70,93,118.76,5,-4.00,-14.00,-1029.00
2024-06-06 23:58:29.171292,-1,0,0,0,0,0,55,57,80,70,93,118.80,5,-5.00,-12.00,-1018.00
2024-06-06 23:58:29.233189,-1,0,0,0,0,0,55,57,80,70,93,118.81,5,-15.00,5.00,-958.00
2024-06-06 23:58:29.360642,-1,0,0,0,0,0,55,57,79,70,93,118.82,5,-12.00,2.00,-997.00
2024-06-06 23:58:29.437227,-1,0,0,0,0,0,55,57,79,70,93,118.77,6,-14.00,-16.00,-1002.00
2024-06-06 23:58:29.588113,-1,0,0,0,0,0,55,57,79,70,93,118.76,6,-20.00,-28.00,-988.00
2024-06-06 23:58:29.641376,-1,0,0,0,0,0,55,57,79,60,93,118.78,6,-10.00,17.00,-988.00
2024-06-06 23:58:29.784745,-1,0,0,0,0,0,55,57,79,60,93,118.80,6,-8.00,-11.00,-1016.00
2024-06-06 23:58:29.845157,-1,0,0,0,0,0,55,57,79,60,93,118.86,6,-9.00,-5.00,-1005.00
2024-06-06 23:58:29.947493,-1,0,0,0,0,0,55,57,79,60,93,118.80,6,-9.00,6.00,-983.00
2024-06-06 23:58:30.092556,-1,0,0,0,0,0,55,57,79,60,93,118.78,6,-9.00,-18.00,-993.00
2024-06-06 23:58:30.100112,-1,0,0,0,0,0,55,57,79,60,93,118.78,6,-10.00,-19.00,-1004.00
2024-06-06 23:58:30.295325,-1,0,0,0,0,0,55,57,79,60,93,118.86,6,-9.00,-16.00,-1035.00
2024-06-06 23:58:30.303828,-1,0,0,0,0,0,55,57,79,60,93,118.83,6,-8.00,8.00,-1006.00
2024-06-06 23:58:30.405973,-1,0,0,0,0,0,55,57,79,60,93,118.82,7,-17.00,-13.00,-959.00
2024-06-06 23:58:30.603745,-1,0,0,0,0,0,55,57,79,60,93,118.79,7,-17.00,-30.00,-978.00
2024-06-06 23:58:30.609954,-1,0,0,0,0,0,55,57,79,60,93,118.79,7,-7.00,-25.00,-996.00
2024-06-06 23:58:30.807251,-1,0,0,0,0,0,55,57,79,60,93,118.84,7,-9.00,-2.00,-1042.00
2024-06-06 23:58:30.814545,-1,0,0,0,0,0,55,57,80,60,93,118.85,7,-13.00,14.00,-1016.00
2024-06-06 23:58:31.013251,-1,0,0,0,0,0,55,57,80,60,93,118.80,7,-12.00,8.00,-1007.00
2024-06-06 23:58:31.017868,-1,0,0,0,0,0,55,57,81,60,93,118.87,7,-6.00,-12.00,-1003.00
2024-06-06 23:58:31.185851,-1,0,0,0,0,0,55,57,81,70,93,118.79,7,-17.00,-16.00,-994.00
2024-06-06 23:58:31.221760,-1,0,0,0,0,0,55,57,82,70,93,118.85,7,-14.00,0.00,-1005.00
2024-06-06 23:58:31.323971,-1,0,0,0,0,0,55,57,82,70,93,118.85,7,-14.00,3.00,-1033.00
2024-06-06 23:58:31.427223,-1,0,0,0,0,0,55,57,83,70,93,118.80,8,-19.00,-9.00,-1101.00
2024-06-06 23:58:31.529611,-1,0,0,0,0,-1,56,57,85,70,93,118.79,8,-17.00,-19.00,-1121.00
2024-06-06 23:58:31.629861,-1,0,0,0,0,-2,56,57,88,70,92,118.91,8,-7.00,-2.00,-1090.00
2024-06-06 23:58:31.731847,-1,0,0,0,0,-3,56,57,91,70,92,118.89,8,-10.00,-16.00,-1053.00
2024-06-06 23:58:31.833657,-1,0,0,0,0,-4,56,57,96,80,92,118.98,8,-14.00,-23.00,-1045.00
2024-06-06 23:58:32.038204,-1,0,0,0,0,-4,56,57,101,80,92,119.02,8,-11.00,-18.00,-1023.00
2024-06-06 23:58:32.038824,-1,0,0,0,0,-5,56,57,106,90,92,119.13,8,-12.00,-11.00,-992.00
2024-06-06 23:58:32.140902,0,0,0,0,0,-5,56,57,111,90,92,119.11,8,-9.00,-22.00,-1018.00
2024-06-06 23:58:32.343127,0,1,0,0,0,-5,56,57,117,100,92,119.20,8,-11.00,-13.00,-949.00
2024-06-06 23:58:32.344877,-1,0,0,0,0,-5,56,57,123,110,92,119.27,8,-5.00,4.00,-1000.00
2024-06-06 23:58:32.447069,-1,0,0,0,0,-5,56,57,128,110,92,119.34,9,1.00,0.00,-994.00
2024-06-06 23:58:32.652254,-1,0,0,0,0,-5,56,59,137,120,92,119.34,9,-11.00,2.00,-985.00
2024-06-06 23:58:32.652330,-1,0,0,0,0,-5,56,59,142,120,92,119.41,9,-16.00,-6.00,-978.00
2024-06-06 23:58:32.754539,-1,0,0,0,0,-4,56,59,147,130,92,119.41,9,-7.00,-4.00,-951.00
2024-06-06 23:58:32.856191,-1,0,0,0,0,-4,56,59,150,130,92,119.44,9,-21.00,-21.00,-947.00
2024-06-06 23:58:32.957779,-1,0,0,0,0,-4,56,59,154,140,92,119.53,9,-11.00,-10.00,-979.00
2024-06-06 23:58:33.060749,-1,1,0,0,0,-3,56,59,158,140,92,119.47,9,-9.00,-11.00,-978.00
2024-06-06 23:58:33.162444,-1,1,0,0,0,-3,56,59,160,140,92,119.51,9,-17.00,-14.00,-968.00
2024-06-06 23:58:33.264157,-1,1,0,0,0,-2,56,59,163,150,92,119.57,9,-14.00,-11.00,-975.00
2024-06-06 23:58:33.367161,-1,1,0,0,0,-2,56,59,166,150,92,119.65,9,-26.00,5.00,-977.00
2024-06-06 23:58:33.416030,-1,1,0,0,0,-2,56,59,168,150,92,119.61,10,-11.00,2.00,-983.00
2024-06-06 23:58:33.571728,-1,1,0,0,0,-2,56,59,171,150,92,119.62,10,-1.00,-26.00,-961.00
2024-06-06 23:58:33.671502,-1,1,0,0,0,-1,56,59,172,150,91,119.70,10,-15.00,-17.00,-945.00
2024-06-06 23:58:33.776538,-1,1,0,0,0,-1,56,59,174,160,91,119.67,10,-20.00,-14.00,-962.00
2024-06-06 23:58:33.878603,-1,0,0,0,0,-1,56,59,176,160,91,119.68,10,-17.00,-21.00,-981.00
2024-06-06 23:58:33.925896,-1,0,0,0,0,-1,56,59,177,160,91,119.62,10,-14.00,-22.00,-1001.00
2024-06-06 23:58:34.027533,-1,0,0,0,0,0,56,59,178,160,91,119.71,10,-7.00,-5.00,-1004.00
2024-06-06 23:58:34.187255,-1,0,0,0,0,0,56,59,179,160,91,119.69,10,-4.00,7.00,-988.00
2024-06-06 23:58:34.231467,-1,0,0,0,0,0,56,59,180,160,91,119.72,10,-25.00,7.00,-970.00
2024-06-06 23:58:34.390851,-1,0,0,0,0,0,56,59,180,160,91,119.64,10,-15.00,-5.00,-1005.00
2024-06-06 23:58:34.435295,-1,0,0,0,0,0,56,59,180,160,91,119.67,11,-15.00,2.00,-1020.00
2024-06-06 23:58:34.539546,-1,0,0,0,0,0,57,59,180,160,91,119.69,11,-18.00,-8.00,-1007.00
2024-06-06 23:58:34.639523,-1,0,0,0,0,0,57,59,181,160,91,119.75,11,-18.00,5.00,-971.00
2024-06-06 23:58:34.802283,-1,0,0,0,0,0,57,59,181,160,91,119.67,11,-11.00,4.00,-991.00
2024-06-06 23:58:34.843706,-1,0,0,0,0,0,57,59,181,160,91,119.70,11,-13.00,-10.00,-1012.00
2024-06-06 23:58:35.006040,-1,0,0,0,0,0,57,59,181,160,91,119.73,11,-16.00,11.00,-1000.00
2024-06-06 23:58:35.047334,-1,0,0,0,0,0,57,59,181,160,91,119.75,11,-18.00,10.00,-1001.00
2024-06-06 23:58:35.211363,-1,0,0,0,0,0,57,59,180,160,91,119.68,11,-3.00,1.00,-988.00
2024-06-06 23:58:35.251533,-1,0,0,0,0,0,57,59,181,160,91,119.66,11,-11.00,8.00,-994.00
2024-06-06 23:58:35.353447,-1,0,0,0,0,0,57,59,179,160,91,119.69,11,-14.00,6.00,-990.00
2024-06-06 23:58:35.456046,-1,0,0,0,0,0,57,59,180,160,91,119.65,12,4.00,-7.00,-1005.00
2024-06-06 23:58:35.558281,-1,0,0,0,0,0,57,59,180,160,91,119.64,12,-1.00,-15.00,-1005.00
2024-06-06 23:58:35.660346,-1,0,0,0,0,0,57,59,179,160,91,119.68,12,-13.00,-24.00,-1001.00
2024-06-06 23:58:35.763036,-1,0,0,0,0,0,57,59,180,160,91,119.68,12,-11.00,-21.00,-995.00
2024-06-06 23:58:35.865386,-1,0,0,0,0,0,57,59,179,160,91,119.74,12,-11.00,-18.00,-985.00
2024-06-06 23:58:35.967027,-1,0,0,0,0,0,57,59,178,160,91,119.68,12,-8.00,2.00,-995.00
2024-06-06 23:58:36.067852,-1,0,0,0,0,0,57,59,178,160,91,119.68,12,-14.00,-23.00,-1020.00
2024-06-06 23:58:36.234396,-1,0,0,0,0,0,57,59,178,160,91,119.70,12,-8.00,-17.00,-977.00
2024-06-06 23:58:36.271866,-1,0,0,0,0,0,57,59,177,160,91,119.62,12,-28.00,-7.00,-925.00
2024-06-06 23:58:36.440590,-1,0,0,0,0,0,57,59,176,160,91,119.60,12,-11.00,-19.00,-939.00
2024-06-06 23:58:36.475058,-1,0,0,0,0,1,57,59,175,160,91,119.64,13,-8.00,-22.00,-979.00
2024-06-06 23:58:36.646102,-1,0,0,0,0,2,57,59,172,160,91,119.66,13,-21.00,-24.00,-977.00
2024-06-06 23:58:36.679119,-1,0,0,0,0,2,57,59,170,150,90,119.64,13,-17.00,-15.00,-968.00
2024-06-06 23:58:36.849635,-1,0,0,0,0,2,57,59,168,150,90,119.61,13,-25.00,3.00,-1004.00
2024-06-06 23:58:36.883093,-1,0,0,0,0,2,57,59,165,150,90,119.57,13,-15.00,-23.00,-1008.00
2024-06-06 23:58:37.259680,-1,0,0,0,0,2,57,59,162,150,90,119.51,13,-18.00,-6.00,-1024.00
2024-06-06 23:58:37.298709,-1,0,0,0,0,2,57,59,159,140,90,119.52,13,-22.00,-16.00,-981.00
2024-06-06 23:58:37.298909,-1,0,0,0,0,2,57,59,157,140,90,119.59,13,-11.00,0.00,-992.00
2024-06-06 23:58:37.299124,-1,0,0,0,0,2,57,59,155,140,90,119.49,13,-25.00,-18.00,-1008.00
2024-06-06 23:58:37.450994,-1,0,0,0,0,2,57,59,152,140,90,119.45,14,-23.00,-33.00,-1008.00
2024-06-06 23:58:37.526549,-1,0,0,0,0,2,57,59,150,130,90,119.40,14,-6.00,-5.00,-1034.00
2024-06-06 23:58:37.609446,-1,0,0,0,0,1,57,60,148,130,90,119.42,14,-12.00,-11.00,-1033.00
2024-06-06 23:58:37.699219,-1,0,0,0,0,1,57,60,147,130,90,119.36,14,-15.00,-18.00,-1039.00
2024-06-06 23:58:37.852298,-1,0,0,0,0,1,57,60,145,130,90,119.39,14,-18.00,-22.00,-1014.00
2024-06-06 23:58:37.852506,-1,0,0,0,0,1,57,60,143,130,90,119.30,14,-10.00,9.00,-1002.00
2024-06-06 23:58:38.050842,-1,0,0,0,0,1,57,60,141,130,90,119.34,14,-15.00,3.00,-1033.00
2024-06-06 23:58:38.056298,-1,0,0,0,0,1,57,60,139,120,90,119.26,14,-22.00,-25.00,-985.00
2024-06-06 23:58:38.179603,-1,0,0,0,0,1,57,60,138,120,90,119.35,14,-18.00,-9.00,-1016.00
2024-06-06 23:58:38.292862,-1,0,0,0,0,1,57,60,137,120,90,119.33,14,-14.00,-9.00,-1015.00
2024-06-06 23:58:38.436262,-1,0,0,0,0,1,57,60,135,120,90,119.28,15,-13.00,2.00,-1018.00
2024-06-06 23:58:38.467140,-1,0,0,0,0,0,57,60,135,120,90,119.22,15,-10.00,-20.00,-968.00
2024-06-06 23:58:38.600365,-1,0,0,0,0,0,57,60,133,120,90,119.27,15,-16.00,0.00,-1024.00
2024-06-06 23:58:38.743683,-1,0,0,0,0,0,57,60,133,120,90,119.25,15,-3.00,-10.00,-1013.00
2024-06-06 23:58:38.772910,-1,0,0,0,0,0,57,60,133,120,90,119.19,15,-23.00,-4.00,-1033.00
2024-06-06 23:58:38.910915,-1,0,0,0,0,0,57,60,134,120,90,119.29,15,-15.00,-12.00,-986.00
2024-06-06 23:58:39.052314,-1,0,0,0,0,0,57,60,133,120,90,119.21,15,-20.00,3.00,-1012.00
2024-06-06 23:58:39.076956,-1,0,0,0,0,0,57,60,132,120,90,119.20,15,-25.00,-7.00,-974.00
2024-06-06 23:58:39.214549,-1,0,0,0,0,0,57,60,132,120,90,119.21,15,-19.00,-20.00,-1003.00
2024-06-06 23:58:39.357937,-1,0,0,0,0,0,57,60,133,120,90,119.18,15,-29.00,-2.00,-986.00
2024-06-06 23:58:39.383524,-1,0,0,0,0,0,57,60,132,120,90,119.24,16,-19.00,-18.00,-994.00
2024-06-06 23:58:39.522007,-1,0,0,0,0,0,57,60,133,120,90,119.22,16,-15.00,-6.00,-992.00
2024-06-06 23:58:39.665156,-1,0,0,0,0,0,58,60,133,120,90,119.21,16,-15.00,-19.00,-966.00
2024-06-06 23:58:39.690688,-1,0,0,0,0,0,58,60,133,120,90,119.19,16,-15.00,16.00,-1017.00
2024-06-06 23:58:39.828889,-1,0,0,0,0,0,58,60,133,120,90,119.19,16,-30.00,-8.00,-969.00
2024-06-06 23:58:39.895886,-1,0,0,0,0,0,58,60,134,120,90,119.21,16,-12.00,-27.00,-989.00
2024-06-06 23:58:39.996061,-1,0,0,0,0,0,58,60,133,120,90,119.30,16,-9.00,13.00,-985.00
2024-06-06 23:58:40.097123,-1,0,0,0,0,0,58,60,134,120,90,119.22,16,-28.00,-8.00,-970.00
2024-06-06 23:58:40.228023,-1,0,0,0,0,0,58,60,134,120,90,119.25,16,-16.00,-4.00,-997.00
2024-06-06 23:58:40.301123,-1,0,0,0,0,0,58,60,134,120,90,119.22,16,-9.00,-17.00,-1029.00
2024-06-06 23:58:40.435539,-1,0,0,0,0,0,58,60,135,120,90,119.20,17,-8.00,-17.00,-972.00
2024-06-06 23:58:40.504874,-1,0,0,0,0,0,58,60,134,120,90,119.31,17,-14.00,2.00,-1004.00
2024-06-06 23:58:40.614586,-1,0,0,0,0,0,58,60,135,120,90,119.23,17,-9.00,-1.00,-1049.00
2024-06-06 23:58:40.708915,-1,0,0,0,0,0,58,60,135,120,89,119.27,17,-11.00,-34.00,-1013.00
2024-06-06 23:58:40.842159,-4,0,0,0,0,0,58,60,135,120,89,119.26,17,-24.00,-19.00,-1016.00
2024-06-06 23:58:40.916120,-8,0,0,1,0,0,58,60,135,120,89,119.22,17,-25.00,10.00,-983.00
2024-06-06 23:58:41.014790,-8,0,0,2,0,0,58,60,135,120,89,119.26,17,-19.00,0.00,-994.00
2024-06-06 23:58:41.152485,-8,0,0,3,0,0,58,60,135,120,89,119.23,17,-23.00,-20.00,-1017.00
2024-06-06 23:58:41.218850,-8,0,0,4,0,0,58,60,134,120,89,119.20,17,-30.00,-8.00,-1017.00
2024-06-06 23:58:41.355825,-8,0,0,5,0,0,58,60,134,120,89,119.17,17,-42.00,-7.00,-956.00
2024-06-06 23:58:41.422878,-8,0,0,6,0,0,58,60,133,120,89,119.09,18,-54.00,-31.00,-987.00
2024-06-06 23:58:41.560488,-7,0,0,7,0,0,58,60,132,120,89,119.17,18,-55.00,0.00,-1018.00
2024-06-06 23:58:41.626812,-6,1,0,7,0,0,58,61,132,120,89,119.17,18,-59.00,-12.00,-1007.00
2024-06-06 23:58:41.765017,-4,1,0,8,0,0,58,61,132,120,89,119.13,18,-61.00,5.00,-1012.00
2024-06-06 23:58:41.830657,0,0,0,7,0,0,58,61,131,120,89,119.09,18,-71.00,-13.00,-1024.00
2024-06-06 23:58:41.969774,1,1,0,7,0,0,58,61,131,120,89,119.17,18,-70.00,-8.00,-957.00
2024-06-06 23:58:42.036088,3,2,0,5,0,0,58,61,131,120,89,119.09,18,-54.00,-3.00,-1033.00
2024-06-06 23:58:42.085865,2,2,0,4,0,0,58,61,130,120,89,119.15,18,-37.00,-12.00,-1040.00
2024-06-06 23:58:42.276954,1,2,0,3,0,0,58,61,130,120,89,119.12,18,-30.00,-21.00,-1005.00
2024-06-06 23:58:42.289792,0,2,0,3,0,0,58,61,130,110,89,119.21,18,-34.00,-9.00,-1007.00
2024-06-06 23:58:42.480393,0,1,0,2,0,0,58,61,129,110,89,119.12,19,-40.00,-35.00,-1019.00
2024-06-06 23:58:42.494596,-1,1,0,2,0,0,58,61,129,110,89,119.12,19,-33.00,-5.00,-1044.00
2024-06-06 23:58:42.689241,-1,1,0,2,0,0,59,61,130,110,88,119.13,19,-26.00,-18.00,-998.00
2024-06-06 23:58:42.698980,-1,1,0,2,0,0,59,61,130,110,88,119.19,19,-35.00,-19.00,-985.00
2024-06-06 23:58:42.891250,-1,1,0,2,0,0,59,61,131,110,88,119.17,19,-25.00,-14.00,-995.00
2024-06-06 23:58:42.902552,-1,1,0,2,0,0,59,61,131,120,88,119.15,19,-27.00,-39.00,-990.00
2024-06-06 23:58:43.094666,-1,0,0,2,0,0,59,61,131,120,88,119.16,19,-15.00,-10.00,-998.00
2024-06-06 23:58:43.106691,-1,-1,0,2,0,0,59,61,131,120,88,119.13,19,-24.00,-20.00,-1018.00
2024-06-06 23:58:43.301050,-1,0,0,2,0,0,59,61,132,120,88,119.16,19,-13.00,-33.00,-986.00
2024-06-06 23:58:43.310506,0,0,0,1,0,0,59,61,131,120,88,119.16,19,-28.00,-17.00,-1008.00
2024-06-06 23:58:43.506497,0,0,0,1,0,0,59,61,131,120,88,119.19,20,-14.00,8.00,-973.00
2024-06-06 23:58:43.514792,2,3,0,0,0,0,59,61,133,120,88,119.20,20,-30.00,12.00,-973.00
2024-06-06 23:58:43.711059,0,4,0,0,0,0,59,61,133,120,88,119.25,20,-14.00,10.00,-981.00
2024-06-06 23:58:43.718477,0,2,0,0,1,0,59,61,132,120,88,119.20,20,-18.00,6.00,-939.00
2024-06-06 23:58:43.913719,-1,-2,0,0,0,0,59,61,132,120,88,119.19,20,-17.00,-30.00,-1009.00
2024-06-06 23:58:43.924390,-1,0,0,0,0,0,59,61,132,120,88,119.21,20,-2.00,-8.00,-1002.00
2024-06-06 23:58:44.024465,-3,0,0,0,0,0,59,61,132,120,88,119.26,20,-5.00,-7.00,-1016.00
2024-06-06 23:58:44.222167,-4,0,0,0,0,0,59,61,133,120,88,119.26,20,-1.00,-8.00,-997.00
2024-06-06 23:58:44.228611,-3,0,0,0,0,0,59,61,132,120,88,119.26,20,-10.00,9.00,-1006.00
2024-06-06 23:58:44.426582,-2,0,0,1,0,0,59,61,132,120,88,119.27,20,-27.00,13.00,-993.00
2024-06-06 23:58:44.433347,0,2,0,1,0,0,59,61,132,120,88,119.25,21,-7.00,-20.00,-963.00
2024-06-06 23:58:44.632248,1,2,0,0,0,0,59,61,133,120,88,119.30,21,-21.00,-7.00,-1006.00
2024-06-06 23:58:44.637971,0,1,0,0,0,0,59,62,132,120,88,119.16,21,-17.00,-4.00,-971.00
2024-06-06 23:58:44.835745,0,1,0,0,0,0,59,62,133,120,88,119.17,21,-10.00,11.00,-1010.00
2024-06-06 23:58:44.842213,-1,1,0,0,0,0,59,62,133,120,88,119.22,21,-12.00,-14.00,-1024.00
2024-06-06 23:58:45.041635,-1,1,0,0,0,0,59,62,132,120,88,119.17,21,-12.00,-16.00,-993.00
2024-06-06 23:58:45.045999,-1,0,0,0,0,0,59,62,132,120,88,119.24,21,-15.00,-21.00,-966.00
2024-06-06 23:58:45.246683,-1,0,0,0,0,0,59,62,132,120,88,119.27,21,-12.00,32.00,-1011.00
2024-06-06 23:58:45.249690,-1,0,0,0,0,0,59,62,132,120,88,119.26,21,-17.00,-7.00,-1021.00
2024-06-06 23:58:45.451447,-1,0,0,0,0,0,59,62,132,120,88,119.25,21,-24.00,0.00,-981.00
2024-06-06 23:58:45.453848,-1,1,0,0,0,0,59,62,132,120,88,119.27,22,-1.00,7.00,-1036.00
2024-06-06 23:58:45.655009,-1,1,0,0,0,0,59,62,132,120,88,119.20,22,-5.00,-14.00,-1028.00
2024-06-06 23:58:45.657722,-1,1,0,0,0,0,59,62,133,120,87,119.18,22,-8.00,-26.00,-1002.00
2024-06-06 23:58:45.759800,-1,1,0,0,0,0,59,62,133,120,87,119.24,22,-10.00,-4.00,-983.00
2024-06-06 23:58:45.861678,-1,1,0,0,0,0,59,62,133,120,87,119.28,22,-19.00,14.00,-1020.00
2024-06-06 23:58:45.917876,-1,1,0,0,0,0,59,62,133,120,87,119.29,22,-13.00,-8.00,-1010.00
2024-06-06 23:58:46.016053,-1,1,0,0,0,0,59,62,133,120,87,119.28,22,-1.00,-16.00,-1014.00
2024-06-06 23:58:46.166640,-1,1,0,0,0,0,59,62,132,120,87,119.25,22,-13.00,-17.00,-984.00
2024-06-06 23:58:46.218487,-1,1,0,0,0,0,59,62,132,120,87,119.31,22,-15.00,-9.00,-994.00
2024-06-06 23:58:46.373742,-1,1,0,0,0,0,59,62,134,120,87,119.24,22,-18.00,4.00,-1018.00
2024-06-06 23:58:46.423092,-1,1,0,0,0,0,59,62,133,120,87,119.27,23,1.00,-23.00,-1037.00
2024-06-06 23:58:46.524510,-1,1,0,0,0,0,59,62,135,120,87,119.26,23,-15.00,-22.00,-974.00
2024-06-06 23:58:46.629217,0,1,0,0,0,0,59,63,134,120,87,119.22,23,-18.00,-21.00,-1005.00
2024-06-06 23:58:46.728403,6,0,0,0,0,0,59,63,135,120,87,119.29,23,-17.00,-5.00,-985.00
2024-06-06 23:58:46.884488,8,0,0,-1,0,0,59,63,137,120,87,119.26,23,-19.00,5.00,-1002.00
2024-06-06 23:58:46.932188,7,0,0,-3,0,0,59,63,138,120,87,119.26,23,8.00,-8.00,-1042.00
2024-06-06 23:58:47.034296,6,0,0,-4,0,0,59,63,135,120,87,119.29,23,23.00,10.00,-1003.00
2024-06-06 23:58:47.190670,6,0,0,-5,0,0,59,63,135,120,87,119.24,23,26.00,-11.00,-959.00
2024-06-06 23:58:47.242204,5,0,0,-6,0,0,59,63,134,120,87,119.31,23,35.00,-14.00,-1005.00
2024-06-06 23:58:47.340186,4,1,0,-7,0,0,59,63,136,120,87,119.30,23,41.00,9.00,-1013.00
2024-06-06 23:58:47.497807,3,1,0,-7,0,0,59,63,136,120,87,119.39,24,42.00,18.00,-1008.00
2024-06-06 23:58:47.544154,0,0,0,-7,0,0,59,63,134,120,87,119.32,24,51.00,7.00,-993.00
2024-06-06 23:58:47.704592,-2,0,0,-7,0,0,60,62,133,120,87,119.25,24,47.00,-25.00,-975.00
2024-06-06 23:58:47.748433,-4,0,0,-6,0,0,60,62,134,120,87,119.31,24,35.00,-7.00,-999.00
2024-06-06 23:58:47.908438,-5,0,0,-5,0,0,60,62,135,120,87,119.26,24,34.00,-23.00,-1007.00
2024-06-06 23:58:47.952101,-4,0,0,-4,0,0,60,62,134,120,87,119.31,24,17.00,-17.00,-998.00
2024-06-06 23:58:48.119187,-3,1,0,-3,0,0,60,62,133,120,87,119.27,24,7.00,-1.00,-1019.00
2024-06-06 23:58:48.156280,-2,1,0,-3,0,0,60,62,134,120,87,119.36,24,12.00,-18.00,-990.00
2024-06-06 23:58:48.317142,-1,1,0,-3,0,0,60,62,133,120,87,119.29,24,-4.00,0.00,-990.00
2024-06-06 23:58:48.360162,-1,1,0,-2,0,0,60,62,133,120,87,119.32,24,8.00,-15.00,-1021.00
2024-06-06 23:58:48.462138,-2,3,0,-2,0,0,60,62,133,120,87,119.36,25,-5.00,-3.00,-976.00
2024-06-06 23:58:48.624026,-2,4,0,-2,0,0,60,62,133,120,87,119.31,25,10.00,5.00,-984.00
2024-06-06 23:58:48.666035,-3,4,0,-1,0,0,60,63,134,120,86,119.29,25,4.00,-14.00,-969.00
2024-06-06 23:58:48.829036,-4,1,0,-1,1,0,60,63,132,120,86,119.32,25,-1.00,-38.00,-1020.00
2024-06-06 23:58:48.871395,-3,-2,0,0,0,0,60,63,131,120,86,119.25,25,-12.00,2.00,-1008.00
2024-06-06 23:58:48.972114,-2,0,0,0,0,0,60,63,131,120,86,119.32,25,-13.00,21.00,-1007.00
2024-06-06 23:58:49.074664,-1,0,0,0,0,0,60,63,131,120,86,119.32,25,-14.00,-11.00,-984.00
2024-06-06 23:58:49.177797,-1,0,0,0,0,0,60,63,130,120,86,119.36,25,-11.00,0.00,-989.00
2024-06-06 23:58:49.278856,-1,0,0,0,0,0,60,63,130,120,86,119.34,25,-5.00,-24.00,-1035.00
2024-06-06 23:58:49.381483,-1,1,0,0,0,0,60,63,131,120,86,119.27,25,-13.00,-32.00,-978.00
2024-06-06 23:58:49.483823,-1,1,0,0,0,0,60,63,131,120,86,119.35,26,0.00,-16.00,-1022.00
2024-06-06 23:58:49.586125,-1,1,0,0,0,0,60,63,131,120,86,119.34,26,-4.00,-26.00,-1043.00
2024-06-06 23:58:49.687308,-1,1,0,0,0,0,60,63,131,120,86,119.28,26,-8.00,-21.00,-976.00
2024-06-06 23:58:49.789012,-1,1,0,0,0,0,60,63,131,120,86,119.35,26,-17.00,7.00,-997.00
2024-06-06 23:58:49.955678,-1,1,0,0,0,0,60,63,131,120,86,119.34,26,-3.00,5.00,-1023.00
2024-06-06 23:58:49.992068,-1,1,0,0,0,0,60,63,132,120,86,119.34,26,-11.00,-1.00,-986.00
2024-06-06 23:58:50.160475,-1,1,0,0,0,0,60,63,132,120,86,119.36,26,0.00,-16.00,-1002.00
2024-06-06 23:58:50.196574,-1,1,0,0,0,0,60,63,132,120,86,119.35,26,-19.00,-24.00,-963.00
2024-06-06 23:58:50.252171,-1,1,0,0,0,0,60,63,133,120,86,119.30,26,-10.00,-8.00,-1004.00
2024-06-06 23:58:50.349692,-1,1,0,0,0,0,60,63,133,120,86,119.32,27,-19.00,6.00,-978.00
2024-06-06 23:58:50.467944,-1,1,0,0,0,0,60,63,133,120,86,119.28,27,-18.00,0.00,-1020.00
2024-06-06 23:58:50.553966,-1,1,0,0,0,0,60,63,132,120,86,119.32,27,-10.00,-14.00,-1015.00
2024-06-06 23:58:50.673619,-1,1,0,0,0,0,61,63,133,120,86,119.30,27,-5.00,-9.00,-1035.00
2024-06-06 23:58:50.758109,-1,1,0,0,0,0,61,63,133,120,86,119.38,27,-10.00,-18.00,-1026.00
2024-06-06 23:58:50.876446,0,1,0,0,0,0,61,63,132,120,86,119.37,27,-10.00,-9.00,-999.00
2024-06-06 23:58:50.962017,-1,1,0,0,0,0,61,63,132,120,86,119.31,27,-13.00,-34.00,-994.00
2024-06-06 23:58:51.082789,0,-5,0,0,0,0,61,63,133,120,86,119.38,27,-3.00,-19.00,-1013.00
2024-06-06 23:58:51.166314,0,-7,0,0,-1,0,61,63,134,120,86,119.27,27,-14.00,-1.00,-1035.00
2024-06-06 23:58:51.288074,0,-5,0,0,-2,0,61,63,133,120,86,119.39,27,-4.00,21.00,-1036.00
2024-06-06 23:58:51.370304,0,-3,0,0,-3,0,61,63,133,120,86,119.33,28,-1.00,-13.00,-1022.00
2024-06-06 23:58:51.474247,0,0,0,0,-4,0,61,63,132,120,86,119.28,28,-3.00,-1.00,-1036.00
2024-06-06 23:58:51.573810,0,2,0,0,-3,0,61,63,132,120,86,119.31,28,-3.00,18.00,-981.00
2024-06-06 23:58:51.696606,0,1,0,0,-3,0,60,63,132,120,86,119.33,28,-4.00,-2.00,-975.00
2024-06-06 23:58:51.777811,0,1,0,0,-2,0,60,63,132,120,86,119.40,28,-7.00,42.00,-987.00
2024-06-06 23:58:51.900700,0,0,0,0,-2,0,60,63,132,120,86,119.33,28,-16.00,19.00,-953.00
2024-06-06 23:58:51.981782,0,0,0,0,-2,0,60,63,132,120,86,119.34,28,2.00,0.00,-1013.00
2024-06-06 23:58:52.118991,0,0,0,0,-2,0,60,63,131,120,86,119.40,28,3.00,-2.00,-1041.00
2024-06-06 23:58:52.261484,0,0,0,0,-2,0,60,63,131,120,86,119.45,28,-5.00,12.00,-1020.00
2024-06-06 23:58:52.294754,0,0,0,0,-2,0,60,63,130,120,86,119.39,28,-3.00,0.00,-982.00
2024-06-06 23:58:52.391754,0,1,0,0,-2,0,60,63,130,120,86,119.38,29,-3.00,-22.00,-984.00
2024-06-06 23:58:52.492433,0,2,0,0,-2,0,60,63,130,120,86,119.38,29,-8.00,10.00,-993.00
2024-06-06 23:58:52.599133,0,5,0,0,-2,0,60,63,131,120,86,119.43,29,9.00,1.00,-993.00
2024-06-06 23:58:52.737873,0,4,0,0,-1,0,61,63,130,120,86,119.39,29,-5.00,-4.00,-1024.00
2024-06-06 23:58:52.828724,0,2,0,0,0,0,61,63,130,120,86,119.40,29,10.00,-34.00,-998.00
2024-06-06 23:58:52.899938,0,1,0,0,0,0,61,63,130,120,86,119.41,29,4.00,-13.00,-1049.00
2024-06-06 23:58:53.038109,0,1,0,0,0,0,61,63,130,120,86,119.36,29,0.00,6.00,-1026.00
2024-06-06 23:58:53.105119,0,1,0,0,0,0,61,63,130,120,86,119.39,29,-2.00,10.00,-994.00
2024-06-06 23:58:53.230153,0,1,0,0,0,0,61,63,130,120,86,119.41,29,-12.00,-25.00,-988.00
2024-06-06 23:58:53.375181,0,1,0,0,0,0,61,63,129,120,86,119.42,29,-2.00,1.00,-1000.00
2024-06-06 23:58:53.515882,0,1,0,0,0,0,61,63,130,120,86,119.40,30,0.00,-16.00,-993.00
2024-06-06 23:58:53.516090,0,1,0,0,0,0,61,63,129,120,86,119.37,30,-9.00,-1.00,-970.00
2024-06-06 23:58:53.659338,0,1,0,0,0,0,61,63,130,120,86,119.42,30,-7.00,-19.00,-1011.00
2024-06-06 23:58:53.802665,0,1,0,0,0,0,61,64,130,120,85,119.42,30,-4.00,-15.00,-1002.00
2024-06-06 23:58:53.818338,0,1,0,0,0,0,61,64,130,120,85,119.45,30,-2.00,3.00,-1013.00
2024-06-06 23:58:53.959646,0,1,0,0,0,0,61,64,130,120,85,119.49,30,7.00,-5.00,-1039.00
2024-06-06 23:58:53.970826,0,1,0,0,0,0,61,64,130,120,85,119.40,30,-7.00,-20.00,-960.00
2024-06-06 23:58:54.153824,0,1,0,0,0,0,61,64,131,120,85,119.35,30,5.00,-51.00,-1035.00
2024-06-06 23:58:54.176516,0,1,0,0,0,0,61,64,131,120,85,119.42,30,-14.00,6.00,-1003.00
2024-06-06 23:58:54.276827,-1,1,0,0,0,0,61,64,132,120,85,119.43,30,-10.00,6.00,-965.00
2024-06-06 23:58:54.461808,-1,1,0,0,0,0,61,64,131,120,85,119.47,31,-9.00,-12.00,-1012.00
2024-06-06 23:58:54.480716,-1,1,0,0,0,0,61,64,131,120,85,119.53,31,0.00,-8.00,-984.00
2024-06-06 23:58:54.665556,-1,1,0,0,0,0,61,64,131,120,85,119.42,31,-14.00,4.00,-979.00
2024-06-06 23:58:54.686167,-1,1,0,0,0,0,61,64,131,120,85,119.44,31,-17.00,5.00,-1004.00
2024-06-06 23:58:54.787512,0,1,0,0,0,0,61,64,132,120,85,119.43,31,-7.00,-6.00,-1013.00
2024-06-06 23:58:54.973792,0,1,0,0,0,0,61,64,132,120,85,119.46,31,-9.00,-21.00,-1000.00
2024-06-06 23:58:54.993735,0,7,0,0,0,0,61,64,133,120,85,119.40,31,-3.00,-12.00,-1030.00
2024-06-06 23:58:55.092789,0,8,0,0,1,0,61,64,132,120,85,119.45,31,6.00,-17.00,-1002.00
2024-06-06 23:58:55.281038,0,6,0,0,2,0,61,64,133,120,85,119.44,31,-7.00,-54.00,-993.00
2024-06-06 23:58:55.296472,0,4,0,0,3,0,61,64,133,120,85,119.43,31,8.00,-20.00,-999.00
2024-06-06 23:58:55.486829,0,1,0,0,3,0,61,64,132,120,85,119.50,32,0.00,-51.00,-1002.00
2024-06-06 23:58:55.500357,0,0,0,0,3,0,61,64,132,120,85,119.47,32,0.00,-18.00,-1000.00
2024-06-06 23:58:55.703204,0,0,0,0,3,0,61,64,132,120,85,119.43,32,-4.00,-37.00,-995.00
2024-06-06 23:58:55.704411,0,0,0,0,3,0,61,64,132,120,85,119.46,32,-6.00,-34.00,-1008.00
2024-06-06 23:58:55.900048,0,1,0,0,2,0,61,64,132,120,85,119.45,32,-1.00,-26.00,-1016.00
2024-06-06 23:58:55.910378,0,1,0,0,2,0,61,64,133,120,85,119.52,32,-3.00,-52.00,-960.00
2024-06-06 23:58:56.010410,0,1,0,0,2,0,61,64,133,120,85,119.53,32,-18.00,-13.00,-986.00
2024-06-06 23:58:56.201829,0,1,0,0,2,0,61,64,133,120,85,119.54,32,-8.00,-9.00,-1003.00
2024-06-06 23:58:56.214316,0,1,0,0,2,0,61,64,133,120,85,119.48,32,-7.00,-19.00,-965.00
2024-06-06 23:58:56.407347,0,1,0,0,2,0,61,64,133,120,85,119.50,32,-21.00,-47.00,-980.00
2024-06-06 23:58:56.418673,0,1,0,0,2,0,61,64,133,120,85,119.47,33,-5.00,-11.00,-996.00
2024-06-06 23:58:56.520982,0,1,0,0,2,0,61,64,134,120,85,119.57,33,-9.00,-20.00,-981.00
2024-06-06 23:58:56.713193,0,1,0,0,2,0,61,64,133,120,85,119.50,33,-3.00,-10.00,-1022.00
2024-06-06 23:58:56.724296,0,0,0,0,2,0,62,65,133,120,85,119.55,33,-15.00,-48.00,-979.00
2024-06-06 23:58:56.868997,0,0,0,0,2,0,62,65,134,120,85,119.51,33,2.00,-7.00,-971.00
2024-06-06 23:58:56.928337,0,-3,0,0,1,0,62,65,133,120,85,119.56,33,-7.00,-35.00,-1011.00
2024-06-06 23:58:57.030581,0,-1,0,0,0,0,62,65,133,120,85,119.52,33,2.00,-2.00,-1021.00
2024-06-06 23:58:57.226790,0,0,0,0,0,0,62,65,133,120,85,119.55,33,-5.00,1.00,-980.00
2024-06-06 23:58:57.234458,0,0,0,0,0,0,62,65,132,120,85,119.54,33,3.00,-2.00,-984.00
2024-06-06 23:58:57.430171,0,0,0,0,0,0,62,65,133,120,85,119.54,33,-10.00,-26.00,-1001.00
2024-06-06 23:58:57.438361,0,0,0,0,0,0,62,65,132,120,85,119.55,34,-8.00,-15.00,-1013.00
2024-06-06 23:58:57.489555,0,1,0,0,0,0,62,65,132,120,85,119.54,34,-6.00,6.00,-983.00
2024-06-06 23:58:57.637620,0,0,0,0,0,0,62,65,131,120,84,119.49,34,-13.00,1.00,-997.00
2024-06-06 23:58:57.841995,-1,0,0,0,0,0,63,65,131,120,84,119.51,34,-21.00,8.00,-965.00
2024-06-06 23:58:57.846553,-1,0,0,0,0,0,63,65,131,120,84,119.52,34,-8.00,-19.00,-1004.00
2024-06-06 23:58:57.897739,-1,0,0,0,0,0,63,65,131,120,84,119.49,34,-6.00,-24.00,-1016.00
2024-06-06 23:58:58.046837,-1,1,0,0,0,0,63,65,131,120,84,119.56,34,-6.00,-26.00,-1019.00
2024-06-06 23:58:58.101814,0,1,0,0,0,0,63,65,131,120,84,119.56,34,-1.00,-2.00,-1019.00
2024-06-06 23:58:58.252566,0,1,0,0,0,0,63,65,132,120,84,119.53,34,6.00,-26.00,-1039.00
2024-06-06 23:58:58.306890,0,1,0,0,0,0,63,65,131,120,84,119.59,34,8.00,-29.00,-1012.00
2024-06-06 23:58:58.454089,0,1,0,0,0,0,63,65,131,120,84,119.50,35,3.00,-17.00,-989.00
2024-06-06 23:58:58.509995,0,2,0,0,0,0,63,65,131,120,84,119.58,35,-9.00,-11.00,-1022.00
2024-06-06 23:58:58.661590,0,1,0,0,0,0,63,65,130,120,84,119.58,35,-23.00,-22.00,-982.00
2024-06-06 23:58:58.715312,0,1,0,0,0,0,62,64,131,120,84,119.54,35,0.00,-10.00,-1011.00
2024-06-06 23:58:58.815410,0,1,0,0,0,0,62,64,131,120,84,119.58,35,-17.00,-35.00,-1026.00
2024-06-06 23:58:58.967803,0,1,0,0,0,0,62,64,131,120,84,119.55,35,-2.00,-40.00,-1012.00
2024-06-06 23:58:59.019232,0,1,0,0,0,0,62,64,132,120,84,119.59,35,1.00,-29.00,-1007.00
2024-06-06 23:58:59.172487,0,1,1,0,0,0,62,64,133,120,84,119.55,35,-12.00,-9.00,-991.00
2024-06-06 23:58:59.223392,0,1,6,0,0,0,62,64,133,120,84,119.58,35,5.00,-16.00,-967.00
2024-06-06 23:58:59.325133,0,0,12,0,0,0,62,64,134,120,84,119.60,35,-3.00,-26.00,-1027.00
2024-06-06 23:58:59.477876,0,0,18,0,0,0,62,64,134,120,84,119.59,36,-7.00,-27.00,-1010.00
2024-06-06 23:58:59.529079,0,0,24,0,0,0,62,64,135,120,84,119.67,36,-22.00,-12.00,-1005.00
2024-06-06 23:58:59.682666,0,0,30,0,0,0,62,64,135,120,84,119.66,36,-26.00,-27.00,-994.00
2024-06-06 23:58:59.733092,-1,0,36,0,0,0,62,65,136,120,84,119.64,36,-16.00,-12.00,-968.00
2024-06-06 23:58:59.889500,-1,0,42,0,0,0,62,65,135,120,84,119.60,36,-15.00,8.00,-1004.00
2024-06-06 23:58:59.937000,-1,0,48,0,0,0,62,65,135,120,84,119.58,36,-22.00,2.00,-984.00
2024-06-06 23:59:00.093902,-1,0,54,0,0,0,62,65,135,120,84,119.58,36,-18.00,-18.00,-997.00
2024-06-06 23:59:00.142716,-1,0,60,0,0,0,62,65,135,120,84,119.64,36,-9.00,-12.00,-1036.00
2024-06-06 23:59:00.243688,-1,0,66,0,0,0,62,65,134,120,84,119.65,36,-14.00,-3.00,-981.00
2024-06-06 23:59:00.399460,-1,0,72,0,0,0,62,65,134,120,84,119.64,36,-15.00,13.00,-979.00
2024-06-06 23:59:00.447342,0,0,78,0,0,0,62,65,134,120,84,119.59,37,-14.00,3.00,-1029.00
2024-06-06 23:59:00.604183,0,0,84,0,0,0,62,65,133,120,84,119.63,37,-16.00,-1.00,-1016.00
2024-06-06 23:59:00.651042,0,0,90,0,0,0,62,65,132,120,84,119.65,37,-4.00,-12.00,-1010.00
2024-06-06 23:59:00.810405,-1,0,96,0,0,0,63,66,132,120,84,119.64,37,-12.00,-24.00,-1010.00
2024-06-06 23:59:00.854993,-1,0,101,0,0,0,63,66,132,120,84,119.61,37,-7.00,-7.00,-988.00
2024-06-06 23:59:01.013826,-1,0,107,0,0,0,63,66,132,120,84,119.59,37,-12.00,8.00,-998.00
2024-06-06 23:59:01.058981,0,0,113,0,0,0,63,66,132,120,84,119.56,37,-12.00,7.00,-1032.00
2024-06-06 23:59:01.221662,0,0,119,0,0,0,63,66,132,120,84,119.57,37,-14.00,-14.00,-993.00
2024-06-06 23:59:01.263120,0,0,125,0,0,0,63,66,132,120,84,119.55,37,-9.00,-17.00,-996.00
2024-06-06 23:59:01.313819,0,0,131,0,0,0,63,66,132,120,84,119.61,37,-17.00,-8.00,-998.00
2024-06-06 23:59:01.431242,0,0,137,0,0,0,63,66,133,120,84,119.59,38,0.00,2.00,-1039.00
2024-06-06 23:59:01.517831,0,0,143,0,0,0,63,66,133,120,84,119.61,38,-12.00,-10.00,-971.00
2024-06-06 23:59:01.630809,0,0,149,0,0,0,63,66,133,120,84,119.61,38,-13.00,-25.00,-988.00
2024-06-06 23:59:01.774354,0,0,154,0,0,0,62,66,132,120,84,119.66,38,-12.00,-8.00,-975.00
2024-06-06 23:59:01.935368,0,0,160,0,0,0,62,66,133,120,84,119.64,38,-6.00,-19.00,-1027.00
2024-06-06 23:59:01.976886,0,0,166,0,0,0,62,66,133,120,84,119.66,38,-24.00,16.00,-985.00
2024-06-06 23:59:02.151948,0,0,172,0,0,0,62,66,133,120,84,119.66,38,-14.00,8.00,-986.00
2024-06-06 23:59:02.152017,0,0,178,0,0,0,62,66,133,120,84,119.59,38,-7.00,20.00,-973.00
2024-06-06 23:59:02.232265,0,0,-175,0,0,0,62,66,133,120,84,119.61,38,-11.00,-5.00,-993.00
2024-06-06 23:59:02.344945,0,0,-169,0,0,0,62,66,134,120,84,119.69,38,-5.00,-3.00,-1026.00
2024-06-06 23:59:02.436448,0,0,-163,0,0,0,62,66,133,120,84,119.69,39,-13.00,8.00,-1003.00
2024-06-06 23:59:02.538815,0,0,-157,0,0,0,62,66,134,120,84,119.66,39,-15.00,-4.00,-977.00
2024-06-06 23:59:02.654494,0,0,-151,0,0,0,62,66,134,120,83,119.68,39,-9.00,14.00,-1014.00
2024-06-06 23:59:02.743576,0,0,-145,0,0,0,64,66,134,120,83,119.64,39,-14.00,4.00,-1002.00
2024-06-06 23:59:02.843919,0,0,-139,0,0,0,64,66,134,120,83,119.65,39,-13.00,-12.00,-970.00
2024-06-06 23:59:02.961462,0,0,-133,0,0,0,64,66,134,120,83,119.69,39,-13.00,-32.00,-959.00
2024-06-06 23:59:03.048139,0,0,-127,0,0,0,64,66,134,120,83,119.61,39,-19.00,3.00,-993.00
2024-06-06 23:59:03.164106,0,1,-121,0,0,0,64,66,134,120,83,119.67,39,7.00,-7.00,-1042.00
2024-06-06 23:59:03.252129,0,1,-115,0,0,0,64,66,134,120,83,119.63,39,-11.00,6.00,-988.00
2024-06-06 23:59:03.368923,0,1,-109,0,0,0,64,66,134,120,83,119.71,39,-2.00,19.00,-988.00
2024-06-06 23:59:03.455883,0,0,-103,0,0,0,64,66,134,120,83,119.68,40,-12.00,-13.00,-977.00
2024-06-06 23:59:03.573956,0,0,-97,0,0,0,64,66,134,120,83,119.67,40,-15.00,-9.00,-1008.00
2024-06-06 23:59:03.659758,0,1,-92,0,0,0,64,66,134,120,83,119.67,40,-21.00,-29.00,-984.00
2024-06-06 23:59:03.779251,0,1,-80,0,0,0,63,65,135,120,83,119.70,40,-15.00,2.00,-1003.00
2024-06-06 23:59:03.863741,0,1,-74,0,0,0,63,65,135,120,83,119.72,40,-21.00,20.00,-980.00
2024-06-06 23:59:03.965816,0,0,-68,0,0,0,63,65,135,120,83,119.72,40,-18.00,-15.00,-940.00
2024-06-06 23:59:04.085675,0,1,-62,0,0,0,63,65,135,120,83,119.69,40,-12.00,-9.00,-1001.00
2024-06-06 23:59:04.170844,0,1,-56,0,0,0,63,65,135,120,83,119.75,40,-15.00,13.00,-980.00
2024-06-06 23:59:04.290491,0,1,-50,0,0,0,63,65,134,120,83,119.74,40,-14.00,16.00,-951.00
2024-06-06 23:59:04.390575,0,1,-44,0,0,0,63,65,135,120,83,119.69,41,-8.00,-17.00,-957.00
2024-06-06 23:59:04.475632,0,0,-38,0,0,0,63,65,135,120,83,119.69,41,-18.00,-19.00,-974.00
2024-06-06 23:59:04.599563,0,0,-32,0,0,0,63,65,135,120,83,119.65,41,-14.00,-14.00,-1018.00
2024-06-06 23:59:04.679895,0,0,-26,0,0,0,63,65,134,120,83,119.68,41,-20.00,2.00,-986.00
2024-06-06 23:59:04.802452,0,1,-20,0,0,0,63,66,134,120,83,119.67,41,0.00,-11.00,-1006.00
2024-06-06 23:59:04.883938,0,0,-15,0,0,0,63,66,134,120,83,119.71,41,-15.00,-31.00,-986.00
2024-06-06 23:59:04.985908,0,1,-11,0,0,0,63,66,134,120,83,119.71,41,-8.00,6.00,-987.00
2024-06-06 23:59:05.110307,0,1,-8,0,0,0,63,66,133,120,83,119.72,41,-25.00,-6.00,-955.00
2024-06-06 23:59:05.194457,-1,0,-6,0,0,0,63,66,133,120,83,119.71,41,-17.00,-25.00,-1018.00
2024-06-06 23:59:05.291922,0,1,-4,0,0,0,63,66,133,120,83,119.63,41,-17.00,-8.00,-985.00
2024-06-06 23:59:05.422816,0,1,-3,0,0,0,63,66,133,120,83,119.72,42,-28.00,-8.00,-962.00
2024-06-06 23:59:05.507866,0,0,-2,0,0,0,63,66,133,120,83,119.67,42,-20.00,15.00,-1001.00
2024-06-06 23:59:05.547446,0,1,-1,0,0,0,63,66,133,120,83,119.70,42,-19.00,0.00,-978.00
2024-06-06 23:59:05.727596,0,1,-1,0,0,0,63,66,133,120,83,119.67,42,-19.00,-13.00,-991.00
2024-06-06 23:59:05.801892,0,1,-1,0,0,0,63,66,133,120,83,119.66,42,-34.00,-13.00,-956.00
2024-06-06 23:59:05.929429,0,1,-1,0,0,0,63,66,133,120,83,119.68,42,-9.00,15.00,-1031.00
2024-06-06 23:59:05.954650,0,0,-1,0,0,0,63,66,133,120,83,119.65,42,-10.00,-29.00,-1007.00
2024-06-06 23:59:06.133899,0,0,-1,0,0,0,63,66,134,120,83,119.68,42,-13.00,-4.00,-996.00
2024-06-06 23:59:06.158675,0,0,-1,0,0,0,63,66,133,120,83,119.68,42,5.00,-10.00,-1063.00
2024-06-06 23:59:06.339124,0,0,-1,0,0,0,63,66,133,120,83,119.74,42,-11.00,-13.00,-989.00
2024-06-06 23:59:06.362547,0,0,-1,0,0,0,63,66,133,120,83,119.71,43,-4.00,-22.00,-979.00
2024-06-06 23:59:06.543651,0,0,-1,0,0,0,63,66,133,120,83,119.69,43,-19.00,-39.00,-955.00
2024-06-06 23:59:06.567863,0,0,-1,0,0,0,63,66,132,120,83,119.72,43,-10.00,-8.00,-1023.00
2024-06-06 23:59:06.748338,0,0,-1,0,0,0,63,66,132,120,83,119.69,43,-18.00,4.00,-989.00
2024-06-06 23:59:06.771165,0,0,-1,0,0,0,65,66,132,120,83,119.67,43,-24.00,-5.00,-958.00
2024-06-06 23:59:06.955291,0,0,-1,0,0,0,65,66,132,120,83,119.73,43,-5.00,-2.00,-1030.00
2024-06-06 23:59:06.974585,0,0,-1,0,0,0,65,66,133,120,83,119.67,43,-6.00,-10.00,-978.00
2024-06-06 23:59:07.171263,0,0,-1,0,0,0,65,66,133,120,83,119.78,43,-9.00,-3.00,-1011.00
2024-06-06 23:59:07.178568,0,0,-1,0,0,0,65,66,132,120,83,119.70,43,-12.00,-1.00,-973.00
2024-06-06 23:59:07.314333,0,0,-1,0,0,0,65,66,132,120,83,119.68,43,-15.00,5.00,-1013.00
2024-06-06 23:59:07.425744,0,0,-1,0,0,0,65,66,132,120,83,119.75,44,-13.00,-10.00,-1012.00
2024-06-06 23:59:07.517002,0,0,-1,0,0,0,65,66,133,120,83,119.76,44,-9.00,-19.00,-1035.00
2024-06-06 23:59:07.597274,0,0,-1,0,0,0,65,66,133,120,83,119.72,44,-7.00,-37.00,-966.00
2024-06-06 23:59:07.710513,0,0,-1,0,0,0,65,66,134,120,83,119.69,44,-2.00,9.00,-1024.00
2024-06-06 23:59:07.814322,0,0,-1,0,0,0,64,66,133,120,83,119.74,44,-18.00,5.00,-995.00
2024-06-06 23:59:07.892964,0,0,-3,0,0,0,64,66,134,120,83,119.74,44,-27.00,-6.00,-997.00
2024-06-06 23:59:08.094045,0,0,-9,0,0,0,64,66,134,120,83,119.71,44,-8.00,-8.00,-996.00
2024-06-06 23:59:08.096341,0,0,-15,0,0,0,64,66,134,120,83,119.69,44,-6.00,-20.00,-1036.00
2024-06-06 23:59:08.284415,0,0,-21,0,0,0,64,66,134,120,83,119.72,44,-4.00,-21.00,-956.00
2024-06-06 23:59:08.397258,0,0,-27,0,0,0,64,66,134,120,83,119.80,44,-15.00,-28.00,-1004.00
2024-06-06 23:59:08.402553,0,0,-33,0,0,0,64,66,134,120,83,119.75,45,-19.00,-11.00,-977.00
2024-06-06 23:59:08.540862,0,0,-39,0,0,0,64,66,133,120,83,119.70,45,-17.00,0.00,-1027.00
2024-06-06 23:59:08.705882,0,0,-45,0,0,0,64,66,133,120,83,119.76,45,12.00,-17.00,-1029.00
2024-06-06 23:59:08.708281,0,0,-51,0,0,0,64,66,134,120,83,119.70,45,-8.00,-23.00,-994.00
2024-06-06 23:59:08.847636,0,0,-57,0,0,0,64,67,133,120,83,119.76,45,-8.00,-9.00,-1022.00
2024-06-06 23:59:09.016441,0,0,-63,0,0,0,64,67,133,120,83,119.77,45,-5.00,-1.00,-985.00
2024-06-06 23:59:09.023753,0,0,-69,0,0,0,64,67,133,120,83,119.76,45,0.00,-27.00,-1024.00
2024-06-06 23:59:09.166162,0,0,-75,0,0,0,64,67,132,120,83,119.75,45,-23.00,-3.00,-960.00
2024-06-06 23:59:09.231259,0,0,-81,0,0,0,64,67,132,120,83,119.72,45,-10.00,12.00,-1036.00
2024-06-06 23:59:09.320588,0,0,-87,0,0,0,64,67,131,120,83,119.74,45,-6.00,-9.00,-1000.00
2024-06-06 23:59:09.422363,0,1,-93,0,0,0,64,67,132,120,83,119.75,46,-9.00,-12.00,-1001.00
2024-06-06 23:59:09.473765,0,1,-99,0,0,0,64,67,131,120,83,119.71,46,-14.00,4.00,-1020.00
2024-06-06 23:59:09.616079,0,1,-105,0,0,0,64,67,131,120,83,119.77,46,-3.00,-11.00,-1047.00
2024-06-06 23:59:09.677531,0,0,-111,0,0,0,64,67,131,120,83,119.79,46,-13.00,-36.00,-999.00
2024-06-06 23:59:09.830246,0,0,-117,0,0,0,63,67,131,120,83,119.75,46,-8.00,-5.00,-990.00
2024-06-06 23:59:10.026133,0,0,-123,0,0,0,63,67,130,120,83,119.78,46,6.00,4.00,-1051.00
2024-06-06 23:59:10.026401,0,0,-129,0,0,0,63,67,131,120,83,119.77,46,-10.00,-13.00,-1045.00
2024-06-06 23:59:10.085206,0,0,-135,0,0,0,63,67,131,120,83,119.74,46,-9.00,-12.00,-1011.00
2024-06-06 23:59:10.230739,0,0,-141,0,0,0,63,67,131,120,83,119.77,46,-9.00,9.00,-961.00
2024-06-06 23:59:10.289799,0,0,-146,0,0,0,63,67,131,120,83,119.82,46,-5.00,-6.00,-983.00
2024-06-06 23:59:10.434201,0,0,-152,0,0,0,63,67,131,120,83,119.75,47,-8.00,0.00,-986.00
2024-06-06 23:59:10.493622,0,0,-158,0,0,0,63,67,131,120,83,119.71,47,-15.00,0.00,-995.00
2024-06-06 23:59:10.640836,0,0,-164,0,0,0,63,67,131,120,82,119.74,47,-16.00,-7.00,-1005.00
2024-06-06 23:59:10.697193,0,0,-170,0,0,0,63,67,131,120,82,119.78,47,-9.00,7.00,-1002.00
2024-06-06 23:59:10.845582,0,0,-176,0,0,0,65,67,131,120,82,119.76,47,-5.00,-3.00,-1000.00
2024-06-06 23:59:10.901097,0,0,177,0,0,0,65,67,131,120,82,119.76,47,-14.00,2.00,-975.00
2024-06-06 23:59:11.003068,0,0,171,0,0,0,65,67,131,120,82,119.76,47,-20.00,-22.00,-977.00
2024-06-06 23:59:11.105362,0,0,165,0,0,0,65,67,131,120,82,119.75,47,-6.00,15.00,-988.00
2024-06-06 23:59:11.253386,0,0,159,0,0,0,65,67,130,120,82,119.76,47,-5.00,-11.00,-1039.00
2024-06-06 23:59:11.309320,0,0,153,0,0,0,65,67,131,120,82,119.76,47,-5.00,3.00,-1006.00
2024-06-06 23:59:11.458174,0,0,146,0,0,0,65,67,131,120,82,119.80,48,-15.00,-13.00,-993.00
2024-06-06 23:59:11.515684,0,0,140,0,0,0,65,67,130,120,82,119.82,48,-10.00,4.00,-973.00
2024-06-06 23:59:11.616349,0,0,134,0,0,0,65,67,130,120,82,119.78,48,-17.00,-14.00,-990.00
2024-06-06 23:59:11.717058,0,0,128,0,0,0,65,67,131,120,82,119.85,48,-7.00,22.00,-1001.00
2024-06-06 23:59:11.869209,0,0,122,0,0,0,65,68,131,120,82,119.87,48,-6.00,-6.00,-1017.00
2024-06-06 23:59:11.924024,0,0,116,0,0,0,65,68,131,120,82,119.86,48,-20.00,2.00,-966.00
2024-06-06 23:59:12.023025,0,0,110,0,0,0,65,68,132,120,82,119.77,48,-5.00,-11.00,-984.00
2024-06-06 23:59:12.174927,0,0,104,0,0,0,65,68,132,120,82,119.84,48,-15.00,-4.00,-963.00
2024-06-06 23:59:12.226919,0,0,98,0,0,0,65,68,133,120,82,119.87,48,9.00,4.00,-1032.00
2024-06-06 23:59:12.383532,0,0,91,0,0,0,65,68,133,120,82,119.82,48,-3.00,4.00,-1003.00
2024-06-06 23:59:12.430969,0,0,85,0,0,0,65,68,133,120,82,119.84,49,1.00,0.00,-992.00
2024-06-06 23:59:12.535331,0,0,79,0,0,0,65,68,133,120,82,119.85,49,-7.00,3.00,-973.00
2024-06-06 23:59:12.634917,0,0,73,0,0,0,65,68,133,120,82,119.86,49,-15.00,-8.00,-992.00
2024-06-06 23:59:12.789631,0,0,67,0,0,0,65,68,132,120,82,119.85,49,-6.00,-6.00,-984.00
2024-06-06 23:59:12.839551,0,0,61,0,0,0,65,68,132,120,82,119.82,49,-11.00,1.00,-978.00
2024-06-06 23:59:12.995217,0,0,55,0,0,0,65,68,131,120,82,119.82,49,-13.00,-5.00,-999.00
2024-06-06 23:59:13.051667,0,0,49,0,0,0,65,68,131,120,82,119.78,49,-18.00,14.00,-996.00
2024-06-06 23:59:13.145531,0,0,43,0,0,0,65,68,131,120,82,119.79,49,-11.00,-7.00,-1000.00
2024-06-06 23:59:13.301298,0,0,37,0,0,0,65,68,130,120,82,119.79,49,-24.00,-14.00,-1025.00
2024-06-06 23:59:13.348911,0,0,31,0,0,0,65,68,130,120,82,119.79,49,-20.00,-1.00,-1007.00
2024-06-06 23:59:13.506082,0,0,25,0,0,0,65,68,131,120,82,119.82,50,-4.00,0.00,-1049.00
2024-06-06 23:59:13.552772,0,0,19,0,0,0,65,68,130,120,82,119.78,50,-1.00,7.00,-1028.00
2024-06-06 23:59:13.711797,0,0,14,0,0,0,65,68,131,120,82,119.78,50,-9.00,12.00,-1019.00
2024-06-06 23:59:13.756941,0,0,11,0,0,0,65,68,131,120,82,119.83,50,-6.00,-12.00,-985.00
2024-06-06 23:59:13.915857,0,0,8,0,0,0,65,68,131,120,82,119.77,50,-11.00,-1.00,-984.00
2024-06-06 23:59:13.960768,0,0,6,0,0,0,65,68,132,120,82,119.82,50,-12.00,-11.00,-1009.00
2024-06-06 23:59:14.020110,0,0,4,0,0,0,65,68,133,120,82,119.84,50,-4.00,-13.00,-977.00
2024-06-06 23:59:14.113808,0,0,3,0,0,0,65,68,133,120,82,119.75,50,-11.00,0.00,-1001.00
2024-06-06 23:59:14.222841,0,0,2,0,0,0,65,68,133,120,82,119.72,50,-9.00,-9.00,-1001.00
2024-06-06 23:59:14.317802,0,0,1,0,0,0,65,68,133,120,82,119.72,50,-11.00,-14.00,-1029.00
2024-06-06 23:59:14.428285,0,0,0,0,0,0,65,68,133,120,82,119.71,51,-18.00,-30.00,-949.00
2024-06-06 23:59:14.523819,0,0,0,0,0,0,65,68,134,120,82,119.81,51,-17.00,-5.00,-956.00
2024-06-06 23:59:14.624696,0,0,0,0,0,0,65,68,133,120,82,119.77,51,-9.00,-14.00,-967.00
2024-06-06 23:59:14.726111,0,0,0,0,0,0,65,68,133,120,82,119.82,51,-13.00,-9.00,-1033.00
2024-06-06 23:59:14.841307,0,0,0,0,0,0,65,68,133,120,82,119.77,51,-10.00,16.00,-1010.00
2024-06-06 23:59:14.930017,0,0,0,0,0,0,65,68,133,120,82,119.72,51,-13.00,-7.00,-993.00
2024-06-06 23:59:15.042665,0,0,0,0,0,0,65,68,132,120,82,119.74,51,-12.00,3.00,-1032.00
2024-06-06 23:59:15.134665,0,0,0,0,0,0,65,68,132,120,82,119.71,51,-27.00,-14.00,-991.00
2024-06-06 23:59:15.247228,0,0,0,0,0,0,65,68,132,120,82,119.81,51,-26.00,7.00,-988.00
2024-06-06 23:59:15.338150,0,0,0,0,0,0,65,68,131,120,82,119.73,51,-10.00,-24.00,-1013.00
2024-06-06 23:59:15.451849,0,0,0,0,0,0,65,68,131,120,82,119.79,52,-24.00,0.00,-975.00
2024-06-06 23:59:15.542099,0,0,0,0,0,0,65,68,131,120,82,119.79,52,-16.00,-7.00,-1026.00
2024-06-06 23:59:15.658722,0,0,0,0,0,0,65,68,131,120,82,119.74,52,-14.00,4.00,-1016.00
2024-06-06 23:59:15.768057,0,0,0,0,0,0,65,68,132,120,82,119.72,52,-15.00,-7.00,-993.00
2024-06-06 23:59:15.848706,0,0,0,0,0,0,66,68,132,120,82,119.76,52,-25.00,-2.00,-1001.00
2024-06-06 23:59:15.953600,0,0,0,0,0,0,66,68,131,120,82,119.74,52,0.00,-3.00,-1006.00
2024-06-06 23:59:16.052220,0,0,0,0,0,0,66,68,132,120,82,119.71,52,-17.00,0.00,-1009.00
2024-06-06 23:59:16.168670,0,0,0,0,0,0,66,68,132,120,82,119.76,52,4.00,0.00,-1051.00
2024-06-06 23:59:16.255929,0,0,0,0,0,0,66,68,132,120,82,119.75,52,-25.00,-30.00,-969.00
2024-06-06 23:59:16.374054,0,0,0,0,0,0,66,68,132,120,82,119.76,52,-18.00,-3.00,-992.00
2024-06-06 23:59:16.460373,0,0,0,0,0,0,66,68,133,120,82,119.76,53,-13.00,-16.00,-966.00
2024-06-06 23:59:16.562002,0,0,0,0,0,0,66,68,133,120,82,119.81,53,-16.00,3.00,-1126.00
2024-06-06 23:59:16.680400,0,0,0,0,0,-1,66,68,137,120,82,119.90,53,-21.00,-24.00,-1786.00
2024-06-06 23:59:16.766092,0,-1,0,0,0,-9,66,68,168,120,82,120.09,53,-18.00,232.00,-1320.00
2024-06-06 23:59:16.885296,-2,-67,0,0,-4,-13,66,68,217,130,82,120.21,53,-42.00,506.00,-1165.00
2024-06-06 23:59:16.970874,5,54,-4,0,-7,11,66,68,6553,140,82,120.35,53,-43.00,431.00,-876.00
2024-06-06 23:59:17.091455,0,2,-7,0,-3,9,66,68,149,130,82,120.09,53,-4.00,-78.00,-1597.00
2024-06-06 23:59:17.173567,0,1,-6,0,-2,5,66,68,140,120,82,119.79,53,7.00,-18.00,-1445.00
2024-06-06 23:59:17.296245,0,1,-1,0,-2,3,66,68,137,120,82,119.72,53,-1.00,-40.00,-1298.00
2024-06-06 23:59:17.381188,0,1,0,0,-2,1,66,68,134,120,82,119.79,54,-8.00,2.00,-1140.00
2024-06-06 23:59:17.479813,0,1,0,0,-2,0,66,68,133,110,82,119.63,54,-13.00,-4.00,-1128.00
2024-06-06 23:59:17.581571,0,0,0,0,-2,0,66,68,134,110,82,119.69,54,-10.00,0.00,-1013.00
2024-06-06 23:59:17.705847,0,1,0,0,-1,0,66,68,134,120,82,119.78,54,0.00,-14.00,-968.00
2024-06-06 23:59:17.786194,0,3,0,0,-1,0,66,68,135,120,82,119.68,54,-7.00,-13.00,-1017.00
2024-06-06 23:59:17.910961,0,3,0,0,0,0,65,68,137,120,82,119.74,54,3.00,0.00,-963.00
2024-06-06 23:59:17.989476,0,1,0,0,0,0,65,68,137,120,82,119.68,54,0.00,-3.00,-986.00
2024-06-06 23:59:18.114202,0,0,0,0,0,0,65,68,137,120,82,119.74,54,-11.00,-15.00,-982.00
2024-06-06 23:59:18.142468,0,0,0,0,0,0,65,68,137,120,82,119.69,54,-1.00,1.00,-984.00
2024-06-06 23:59:18.319234,0,0,0,0,0,0,65,68,137,120,82,119.70,54,5.00,-6.00,-938.00
2024-06-06 23:59:18.346431,0,0,0,0,0,0,65,68,137,120,82,119.74,55,-7.00,-30.00,-973.00
2024-06-06 23:59:18.527154,0,0,0,0,0,0,65,68,137,120,82,119.73,55,-3.00,16.00,-993.00
2024-06-06 23:59:18.550576,0,0,0,0,0,0,65,68,137,120,82,119.72,55,-3.00,11.00,-1008.00
2024-06-06 23:59:18.728235,0,0,0,0,0,0,65,68,136,120,81,119.77,55,11.00,0.00,-1001.00
2024-06-06 23:59:18.756223,0,0,0,0,0,0,65,68,135,120,81,119.74,55,-3.00,3.00,-993.00
2024-06-06 23:59:18.856678,0,0,0,0,0,0,65,68,135,120,81,119.76,55,-7.00,3.00,-1009.00
2024-06-06 23:59:19.035529,0,0,0,0,0,0,65,68,134,120,81,119.73,55,-20.00,4.00,-998.00
2024-06-06 23:59:19.060408,0,0,0,0,0,0,65,68,134,120,81,119.73,55,-6.00,-3.00,-1040.00
2024-06-06 23:59:19.242033,0,0,0,0,0,0,65,68,134,120,81,119.64,55,-8.00,-11.00,-973.00
2024-06-06 23:59:19.264326,0,0,0,0,0,0,65,68,132,120,81,119.70,55,-9.00,-14.00,-1034.00
2024-06-06 23:59:19.366334,0,0,0,0,0,0,65,68,132,120,81,119.68,56,-3.00,-21.00,-1011.00
2024-06-06 23:59:19.548963,0,0,0,0,0,0,65,68,131,120,81,119.70,56,-16.00,-16.00,-1023.00
2024-06-06 23:59:19.570333,0,0,0,0,0,0,65,68,131,120,81,119.70,56,-22.00,-16.00,-977.00
2024-06-06 23:59:19.752242,0,0,0,0,0,0,65,68,131,120,81,119.73,56,-2.00,-2.00,-995.00
2024-06-06 23:59:19.774310,0,0,0,0,0,0,65,68,131,120,81,119.68,56,-4.00,-21.00,-1033.00
2024-06-06 23:59:19.936344,0,0,0,0,0,0,66,69,131,120,81,119.71,56,-7.00,5.00,-997.00
2024-06-06 23:59:19.979107,0,0,0,0,0,0,66,69,131,120,81,119.62,56,-11.00,11.00,-989.00
2024-06-06 23:59:20.166410,0,0,0,0,0,0,66,69,131,120,81,119.79,56,-20.00,-11.00,-982.00
2024-06-06 23:59:20.182378,0,0,0,0,0,0,66,69,131,120,81,119.74,56,-4.00,-18.00,-988.00
2024-06-06 23:59:20.366738,0,0,0,0,0,0,66,69,131,120,81,119.66,56,-21.00,-21.00,-966.00
2024-06-06 23:59:20.387368,0,0,0,0,0,0,66,69,131,120,81,119.73,57,-21.00,-12.00,-969.00
2024-06-06 23:59:20.574118,0,0,0,0,0,0,66,69,132,120,81,119.68,57,-9.00,-14.00,-975.00
2024-06-06 23:59:20.590338,0,0,0,0,0,0,66,69,131,120,81,119.72,57,-4.00,-11.00,-983.00
2024-06-06 23:59:20.778547,0,0,0,0,0,0,66,69,132,120,80,119.76,57,-8.00,-10.00,-1035.00
2024-06-06 23:59:20.795456,0,0,0,0,0,0,66,69,132,120,80,119.74,57,-4.00,-13.00,-954.00
2024-06-06 23:59:20.898434,0,0,0,0,0,0,66,69,132,120,80,119.71,57,-7.00,21.00,-1043.00
2024-06-06 23:59:20.999063,0,0,0,0,0,0,66,69,133,120,80,119.69,57,9.00,-9.00,-999.00
2024-06-06 23:59:21.190175,0,0,0,0,0,0,66,69,133,120,80,119.75,57,-9.00,2.00,-1013.00
2024-06-06 23:59:21.202465,0,0,0,0,0,0,66,69,134,120,80,119.69,57,-10.00,-14.00,-988.00
2024-06-06 23:59:21.394793,0,0,0,0,0,0,66,69,134,120,80,119.76,57,5.00,3.00,-1016.00
2024-06-06 23:59:21.406374,0,0,0,0,0,0,66,69,133,120,80,119.77,58,-14.00,-24.00,-968.00
2024-06-06 23:59:21.597583,0,0,0,0,0,0,66,69,134,120,80,119.73,58,-10.00,-20.00,-995.00
2024-06-06 23:59:21.610188,0,0,0,0,0,0,66,69,134,120,80,119.74,58,-8.00,14.00,-959.00
2024-06-06 23:59:21.801867,0,0,0,0,0,0,66,69,134,120,80,119.76,58,-1.00,-20.00,-1002.00
2024-06-06 23:59:21.814220,0,0,0,0,0,0,66,69,135,120,80,119.74,58,-20.00,-13.00,-974.00
2024-06-06 23:59:22.006593,0,0,0,0,0,0,66,69,135,120,80,119.72,58,-12.00,-17.00,-1017.00
2024-06-06 23:59:22.018302,0,0,0,0,0,0,66,69,135,120,80,119.68,58,-4.00,-17.00,-1010.00
2024-06-06 23:59:22.226947,0,0,0,0,0,0,66,69,136,120,80,119.76,58,-2.00,1.00,-1019.00
2024-06-06 23:59:22.227179,0,0,0,0,0,0,66,69,136,120,80,119.79,58,-2.00,-25.00,-1032.00
2024-06-06 23:59:22.369544,0,0,0,0,0,0,66,69,135,120,80,119.76,58,-16.00,-35.00,-926.00
2024-06-06 23:59:22.376836,0,0,0,0,0,0,66,69,136,120,80,119.72,59,-8.00,-20.00,-1003.00
2024-06-06 23:59:22.477489,0,0,0,0,0,0,66,69,136,120,80,119.73,59,-6.00,-5.00,-1018.00
2024-06-06 23:59:22.579287,0,0,0,0,0,0,66,69,136,120,80,119.79,59,-5.00,-5.00,-1011.00
2024-06-06 23:59:22.727148,0,0,0,0,0,0,66,69,137,120,80,119.76,59,-8.00,-12.00,-1007.00
2024-06-06 23:59:22.951718,0,0,0,0,0,0,66,69,138,120,80,119.78,59,-3.00,-22.00,-1010.00
2024-06-06 23:59:22.952332,0,0,0,0,0,0,66,69,137,120,80,119.83,59,0.00,-24.00,-993.00
2024-06-06 23:59:22.992295,0,0,0,0,0,0,66,69,138,120,80,119.75,59,-1.00,-16.00,-993.00
2024-06-06 23:59:23.143893,0,0,0,0,0,0,66,69,139,120,80,119.87,59,-12.00,6.00,-1032.00
2024-06-06 23:59:23.191695,0,0,0,0,0,-4,66,69,142,120,80,119.94,59,5.00,3.00,-1695.00
2024-06-06 23:59:23.334041,0,15,-1,0,0,-11,66,69,162,130,80,120.00,59,-49.00,-86.00,-1802.00
2024-06-06 23:59:23.479525,3,114,0,0,8,-10,66,69,180,140,80,120.14,60,-2.00,607.00,-1162.00
2024-06-06 23:59:23.496999,-2,-124,3,0,10,5,66,69,292,150,80,120.13,60,-60.00,680.00,-884.00
2024-06-06 23:59:23.623863,0,-17,-3,0,4,11,66,69,160,140,80,120.38,60,-66.00,610.00,-1150.00
2024-06-06 23:59:23.763425,0,0,-6,0,3,8,66,69,145,130,80,119.79,60,-40.00,33.00,-1500.00
2024-06-06 23:59:23.908539,0,-1,-10,0,3,4,66,69,140,120,80,119.72,60,24.00,-21.00,-1300.00
2024-06-06 23:59:23.909492,0,-2,-5,0,2,2,66,69,137,120,80,119.75,60,10.00,10.00,-1245.00
2024-06-06 23:59:24.066570,0,-1,0,0,2,1,66,69,135,110,80,119.88,60,-21.00,-5.00,-1075.00
2024-06-06 23:59:24.119555,0,-1,1,0,1,0,66,69,135,110,80,119.74,60,-11.00,-4.00,-1091.00
2024-06-06 23:59:24.210833,0,0,1,0,1,0,66,69,136,110,80,119.75,60,-19.00,-22.00,-1027.00
2024-06-06 23:59:24.361618,0,0,1,0,1,0,66,69,137,110,80,119.78,60,-12.00,1.00,-1014.00
2024-06-06 23:59:24.414966,0,0,1,0,1,0,66,69,137,110,80,119.68,61,1.00,14.00,-972.00
2024-06-06 23:59:24.564816,0,-2,1,0,0,0,66,69,138,110,80,119.75,61,-10.00,-25.00,-980.00
2024-06-06 23:59:24.622972,0,-2,1,0,0,0,66,69,138,110,80,119.73,61,-19.00,-10.00,-969.00
2024-06-06 23:59:24.720916,0,-1,1,0,0,0,66,69,139,120,80,119.73,61,1.00,8.00,-977.00
2024-06-06 23:59:24.876450,0,0,0,0,0,0,66,69,139,120,80,119.80,61,-9.00,2.00,-996.00
2024-06-06 23:59:24.924954,0,0,0,0,0,0,66,69,140,120,80,119.81,61,-10.00,12.00,-1001.00
2024-06-06 23:59:25.076813,0,0,0,0,0,0,66,69,140,120,80,119.72,61,-14.00,19.00,-1026.00
2024-06-06 23:59:25.128858,0,0,0,0,0,0,66,69,140,120,80,119.83,61,-4.00,5.00,-977.00
2024-06-06 23:59:25.285048,0,0,0,0,0,0,66,69,140,120,80,119.78,61,-13.00,-4.00,-1002.00
2024-06-06 23:59:25.333582,0,0,0,0,0,0,66,69,140,120,80,119.77,61,-18.00,15.00,-967.00
2024-06-06 23:59:25.486390,0,0,0,0,0,0,66,69,140,120,80,119.74,62,-8.00,-12.00,-974.00
2024-06-06 23:59:25.536936,0,0,0,0,0,0,66,69,140,120,80,119.76,62,-14.00,-5.00,-1020.00
2024-06-06 23:59:25.691170,0,0,0,0,0,0,66,69,140,120,80,119.85,62,0.00,-3.00,-1005.00
2024-06-06 23:59:25.741747,0,0,0,0,0,0,66,69,140,120,80,119.77,62,0.00,0.00,-1020.00
2024-06-06 23:59:25.791800,0,0,0,0,0,0,66,69,140,120,80,119.80,62,-5.00,-7.00,-998.00
2024-06-06 23:59:25.945940,0,0,0,0,0,0,68,69,140,120,80,119.74,62,-11.00,-10.00,-996.00
2024-06-06 23:59:26.100770,0,0,0,0,0,0,68,69,139,120,80,119.71,62,-13.00,4.00,-1002.00
2024-06-06 23:59:26.151067,0,0,0,0,0,0,68,69,140,120,80,119.77,62,-25.00,-6.00,-955.00
2024-06-06 23:59:26.250771,0,0,0,0,0,0,68,69,140,120,80,119.79,62,-13.00,-27.00,-1006.00
2024-06-06 23:59:26.301803,0,0,0,0,0,0,68,69,139,120,80,119.76,62,-21.00,4.00,-961.00
2024-06-06 23:59:26.408312,0,0,0,0,0,0,68,69,139,120,80,119.80,63,-18.00,3.00,-979.00
2024-06-06 23:59:26.506680,0,0,0,0,0,0,68,69,139,120,80,119.71,63,-15.00,-19.00,-1011.00
2024-06-06 23:59:26.608666,0,0,0,0,0,0,68,69,139,120,80,119.82,63,-9.00,-23.00,-975.00
2024-06-06 23:59:26.716781,0,0,0,0,0,0,68,69,138,120,80,119.80,63,-1.00,-12.00,-1048.00
2024-06-06 23:59:26.815171,0,0,0,0,0,0,68,69,139,120,80,119.79,63,-19.00,13.00,-996.00
2024-06-06 23:59:26.913995,0,0,0,0,0,0,67,69,139,120,80,119.76,63,-20.00,-27.00,-989.00
2024-06-06 23:59:27.022494,0,0,0,0,0,0,67,69,138,120,80,119.83,63,-11.00,-14.00,-1030.00
2024-06-06 23:59:27.117878,0,0,0,0,0,0,67,69,138,120,80,119.78,63,-11.00,6.00,-1004.00
2024-06-06 23:59:27.227753,0,0,0,0,0,0,67,69,139,120,80,119.81,63,-12.00,-2.00,-998.00
2024-06-06 23:59:27.322429,0,0,0,0,0,0,67,69,139,120,80,119.83,63,-18.00,18.00,-994.00
2024-06-06 23:59:27.432176,0,0,0,0,0,0,67,69,140,120,80,119.79,64,-15.00,9.00,-1027.00
2024-06-06 23:59:27.528756,0,0,0,0,0,0,67,69,140,120,80,119.82,64,-14.00,-14.00,-1018.00
2024-06-06 23:59:27.628034,0,0,0,0,0,0,67,69,139,120,80,119.81,64,-14.00,-21.00,-1031.00
2024-06-06 23:59:27.739386,0,0,0,0,0,0,67,69,140,120,80,119.76,64,-8.00,-20.00,-998.00
2024-06-06 23:59:27.831971,0,0,0,0,0,0,67,69,139,120,80,119.75,64,-9.00,-4.00,-1014.00
2024-06-06 23:59:27.933970,0,0,0,0,0,0,66,70,140,120,80,119.78,64,-14.00,15.00,-1004.00
2024-06-06 23:59:28.048521,0,0,0,0,0,0,66,70,140,120,80,119.81,64,-9.00,-5.00,-1009.00
2024-06-06 23:59:28.137847,0,0,0,0,0,0,66,70,141,120,80,119.82,64,-8.00,-4.00,-1047.00
2024-06-06 23:59:28.251307,0,0,0,0,0,0,66,70,142,120,80,119.80,64,-16.00,-22.00,-994.00
2024-06-06 23:59:28.342860,0,0,0,0,0,0,66,70,141,120,80,119.74,64,-10.00,12.00,-993.00
2024-06-06 23:59:28.456158,0,0,0,0,0,0,66,70,141,120,80,119.79,65,-16.00,-12.00,-981.00
2024-06-06 23:59:28.547537,0,0,0,0,0,0,66,70,141,120,80,119.77,65,-9.00,14.00,-974.00
2024-06-06 23:59:28.648489,0,0,0,0,0,0,66,70,142,120,80,119.83,65,-2.00,11.00,-1031.00
