TS,pitch,roll,yaw,vgx,vgy,vgz,templ,temph,tof,h,bat,baro,time,agx,agy,agz
2024-06-07 00:00:16.684889,0,0,0,0,0,0,72,75,10,0,78,118.52,84,-5.00,3.00,-998.00
2024-06-07 00:00:16.688660,0,0,0,0,0,0,72,75,10,0,78,118.49,84,-4.00,4.00,-1000.00
2024-06-07 00:00:16.791033,0,0,0,0,0,0,72,75,10,0,78,118.49,84,-3.00,4.00,-998.00
2024-06-07 00:00:16.892465,0,0,0,0,0,0,72,75,10,0,78,118.57,84,-3.00,4.00,-999.00
2024-06-07 00:00:16.994705,0,0,0,0,0,0,72,75,10,0,78,118.52,84,-5.00,4.00,-998.00
2024-06-07 00:00:17.096174,0,0,0,0,0,0,72,75,10,0,78,118.54,84,-3.00,3.00,-999.00
2024-06-07 00:00:17.198278,0,0,0,0,0,0,73,75,10,0,78,118.52,84,-5.00,3.00,-998.00
2024-06-07 00:00:17.300621,0,0,0,0,0,0,73,75,10,0,78,118.52,84,-5.00,4.00,-1000.00
2024-06-07 00:00:17.503964,0,0,0,0,0,0,73,75,10,0,78,118.54,84,-4.00,3.00,-998.00
2024-06-07 00:00:17.505449,0,0,0,0,0,0,73,75,10,0,78,118.53,84,-4.00,3.00,-996.00
2024-06-07 00:00:17.606538,0,0,0,0,0,0,73,75,10,0,78,118.51,84,-5.00,4.00,-998.00
2024-06-07 00:00:17.708670,0,0,0,0,0,0,73,75,10,0,78,118.51,84,-6.00,4.00,-1000.00
2024-06-07 00:00:17.811106,0,0,0,0,0,0,73,75,10,0,78,118.53,84,-4.00,3.00,-1000.00
2024-06-07 00:00:17.914711,0,0,0,0,0,0,73,75,10,0,78,118.56,84,-6.00,4.00,-1000.00
2024-06-07 00:00:18.015665,0,0,0,0,0,0,73,75,10,0,78,118.53,84,-5.00,3.00,-999.00
2024-06-07 00:00:18.117779,0,0,0,0,0,0,73,75,10,0,78,118.58,84,-5.00,4.00,-1001.00
2024-06-07 00:00:18.220200,0,0,0,0,0,0,73,75,10,0,78,118.57,84,-2.00,6.00,-1000.00
2024-06-07 00:00:18.322862,0,0,0,0,0,0,73,75,10,0,78,118.58,84,-6.00,5.00,-1000.00
2024-06-07 00:00:18.425290,0,0,0,0,0,0,73,75,10,0,78,118.55,84,-5.00,4.00,-1001.00
2024-06-07 00:00:18.525288,0,0,0,0,0,0,73,75,10,0,78,118.55,84,-4.00,4.00,-999.00
2024-06-07 00:00:18.627422,0,0,0,0,0,0,73,75,10,0,78,118.53,84,-5.00,4.00,-1000.00
2024-06-07 00:00:18.730156,0,0,0,0,0,0,73,75,10,0,78,118.53,84,-5.00,5.00,-1001.00
2024-06-07 00:00:18.834848,0,0,0,0,0,0,73,75,10,0,78,118.54,84,-5.00,3.00,-999.00
2024-06-07 00:00:18.933312,0,0,0,0,0,0,73,75,10,0,78,118.53,84,-3.00,2.00,-997.00
2024-06-07 00:00:19.039641,0,0,0,0,0,0,73,75,10,0,78,118.50,84,-5.00,5.00,-1000.00
2024-06-07 00:00:19.089127,0,0,0,0,0,0,73,75,10,0,78,118.51,84,-4.00,4.00,-999.00
2024-06-07 00:00:19.244497,0,0,0,0,0,0,73,75,10,0,78,118.58,84,-5.00,2.00,-999.00
2024-06-07 00:00:19.290351,0,0,0,0,0,0,73,75,10,0,78,118.53,84,-5.00,3.00,-1001.00
2024-06-07 00:00:19.449281,0,0,0,0,0,0,73,75,10,0,78,118.47,84,-4.00,4.00,-998.00
2024-06-07 00:00:19.505586,0,0,0,0,0,0,73,75,10,0,78,118.57,84,-4.00,5.00,-999.00
2024-06-07 00:00:19.596264,0,0,0,0,0,0,73,75,10,0,78,118.57,84,-6.00,4.00,-997.00
2024-06-07 00:00:19.756713,0,0,0,0,0,0,73,75,10,0,78,118.52,84,-5.00,5.00,-1001.00
2024-06-07 00:00:19.805022,0,0,0,0,0,0,73,75,10,0,78,118.53,84,-7.00,4.00,-998.00
2024-06-07 00:00:19.903269,0,0,0,0,0,0,73,75,10,0,78,118.55,84,-4.00,4.00,-997.00
2024-06-07 00:00:20.004990,0,0,0,0,0,0,73,75,10,0,78,118.55,84,-17.00,-13.00,-997.00
2024-06-07 00:00:20.165788,0,0,0,0,0,0,73,75,10,0,78,118.55,84,0.00,6.00,-997.00
2024-06-07 00:00:20.209030,0,0,0,0,0,0,73,76,10,0,78,118.55,84,-6.00,0.00,-996.00
2024-06-07 00:00:20.370912,0,0,0,0,0,0,73,76,10,0,78,118.55,84,-16.00,13.00,-995.00
2024-06-07 00:00:20.413282,0,0,0,0,0,0,73,76,10,0,78,118.55,84,-15.00,-29.00,-952.00
2024-06-07 00:00:20.575645,0,0,0,0,0,0,73,76,10,0,78,118.55,84,6.00,9.00,-988.00
2024-06-07 00:00:20.616972,0,1,0,0,0,-3,73,76,10,0,78,118.55,84,-18.00,-8.00,-1096.00
2024-06-07 00:00:20.720824,0,0,0,0,0,-6,73,76,11,0,78,118.55,84,-11.00,-31.00,-1295.00
2024-06-07 00:00:20.820949,0,0,0,0,0,-7,73,76,19,10,78,118.88,84,16.00,2.00,-1283.00
2024-06-07 00:00:20.922952,0,0,0,0,0,-8,73,76,28,10,78,119.00,85,-10.00,-6.00,-1135.00
2024-06-07 00:00:21.024928,0,0,0,0,0,-7,73,76,33,20,78,119.04,85,-14.00,-28.00,-1047.00
2024-06-07 00:00:21.126886,0,0,0,0,0,-7,73,76,42,30,78,119.18,85,0.00,-13.00,-953.00
2024-06-07 00:00:21.228892,0,0,0,0,0,-6,73,76,53,30,78,119.24,85,5.00,5.00,-925.00
2024-06-07 00:00:21.330894,0,0,0,0,0,-5,73,76,60,40,78,119.30,85,-10.00,-2.00,-867.00
2024-06-07 00:00:21.497300,0,0,0,0,0,-4,73,76,65,40,78,119.33,85,-15.00,-18.00,-881.00
2024-06-07 00:00:21.534904,0,0,0,0,0,-3,73,76,69,50,78,119.44,85,-3.00,-38.00,-922.00
2024-06-07 00:00:21.701913,0,1,0,0,0,-2,73,76,73,50,78,119.41,85,-19.00,-24.00,-935.00
2024-06-07 00:00:21.738875,0,1,0,0,0,-1,73,76,75,50,78,119.46,85,-7.00,13.00,-941.00
2024-06-07 00:00:21.906518,0,1,0,0,0,-1,73,76,78,60,78,119.49,85,-4.00,17.00,-940.00
2024-06-07 00:00:21.942903,0,0,0,0,0,0,73,76,79,60,78,119.50,86,-1.00,-21.00,-966.00
2024-06-07 00:00:22.124842,0,0,0,0,0,0,73,76,81,60,78,119.53,86,-7.00,-1.00,-1007.00
2024-06-07 00:00:22.146868,0,0,0,0,0,0,73,76,82,60,78,119.52,86,-1.00,-15.00,-982.00
2024-06-07 00:00:22.267383,0,0,0,0,0,0,74,76,83,60,78,119.56,86,-15.00,3.00,-991.00
2024-06-07 00:00:22.384887,0,0,0,0,0,0,74,76,85,60,78,119.60,86,-3.00,10.00,-1011.00
2024-06-07 00:00:22.459428,0,0,0,0,0,0,74,76,86,60,78,119.55,86,9.00,9.00,-1019.00
2024-06-07 00:00:22.555807,0,0,0,0,0,0,74,76,86,70,78,119.57,86,0.00,2.00,-982.00
2024-06-07 00:00:22.716653,0,0,0,0,0,0,74,76,87,70,78,119.59,86,1.00,19.00,-945.00
2024-06-07 00:00:22.793548,0,0,0,0,0,0,74,76,87,70,78,119.63,86,-17.00,-16.00,-966.00
2024-06-07 00:00:22.809984,0,0,0,0,0,0,74,76,88,70,78,119.62,86,5.00,4.00,-1010.00
2024-06-07 00:00:22.911756,0,0,0,0,0,0,74,76,88,70,78,119.67,87,-15.00,-22.00,-983.00
2024-06-07 00:00:23.055289,0,0,0,0,0,0,74,76,88,70,78,119.64,87,-1.00,10.00,-959.00
2024-06-07 00:00:23.115827,0,0,0,0,0,0,74,76,88,70,78,119.63,87,3.00,24.00,-994.00
2024-06-07 00:00:23.351091,0,0,0,0,0,0,74,76,88,70,78,119.66,87,23.00,-19.00,-1047.00
2024-06-07 00:00:23.351165,0,0,0,0,0,0,74,76,87,70,78,119.64,87,8.00,-25.00,-1016.00
2024-06-07 00:00:23.421716,0,0,0,0,0,0,74,76,87,70,78,119.64,87,2.00,-21.00,-1009.00
2024-06-07 00:00:23.545125,0,0,0,0,0,0,74,76,86,70,78,119.60,87,0.00,-10.00,-1026.00
2024-06-07 00:00:23.658498,0,0,0,0,0,0,74,76,85,70,78,119.59,87,17.00,-10.00,-1042.00
2024-06-07 00:00:23.801794,0,0,0,0,0,0,74,76,84,70,78,119.59,87,14.00,2.00,-1031.00
2024-06-07 00:00:23.829534,0,0,0,0,0,0,74,76,83,70,78,119.62,87,10.00,14.00,-1006.00
2024-06-07 00:00:23.968203,0,0,0,0,0,0,74,76,82,70,78,119.61,88,7.00,-2.00,-991.00
2024-06-07 00:00:24.111363,0,0,0,0,0,0,74,76,80,70,78,119.55,88,1.00,-7.00,-1016.00
2024-06-07 00:00:24.135550,0,0,0,0,0,0,74,76,79,70,78,119.63,88,4.00,0.00,-1007.00
2024-06-07 00:00:24.272514,0,0,0,0,0,0,74,76,79,60,78,119.54,88,18.00,23.00,-1040.00
2024-06-07 00:00:24.427200,0,0,0,0,0,0,74,76,78,60,78,119.54,88,-23.00,-22.00,-962.00
2024-06-07 00:00:24.442378,0,0,0,0,0,0,74,76,77,60,78,119.58,88,-10.00,-14.00,-999.00
2024-06-07 00:00:24.569084,0,0,0,0,0,0,74,76,77,60,78,119.55,88,16.00,3.00,-1085.00
2024-06-07 00:00:24.646945,0,0,0,0,0,0,74,76,77,60,78,119.48,88,6.00,1.00,-1004.00
2024-06-07 00:00:24.749234,0,0,0,0,0,0,74,76,76,60,78,119.48,88,-7.00,4.00,-962.00
2024-06-07 00:00:24.849865,0,0,0,0,0,0,74,76,76,60,78,119.52,88,-34.00,0.00,-920.00
2024-06-07 00:00:24.952187,0,0,0,0,0,0,74,76,77,60,78,119.57,89,-2.00,11.00,-1001.00
2024-06-07 00:00:25.057602,0,0,0,0,0,0,74,76,76,60,78,119.47,89,-24.00,-2.00,-965.00
2024-06-07 00:00:25.156150,0,0,0,0,0,0,74,76,77,60,78,119.53,89,-9.00,22.00,-946.00
2024-06-07 00:00:25.286898,0,0,0,0,0,0,73,76,76,60,78,119.57,89,9.00,15.00,-999.00
2024-06-07 00:00:25.360978,0,0,0,0,0,0,73,76,77,60,78,119.60,89,-1.00,16.00,-997.00
2024-06-07 00:00:25.493084,0,0,0,0,0,0,73,76,77,60,78,119.57,89,2.00,2.00,-1026.00
2024-06-07 00:00:25.563854,0,0,0,0,0,0,73,76,77,60,78,119.55,89,-1.00,1.00,-994.00
2024-06-07 00:00:25.695425,0,0,0,0,0,0,73,76,77,60,78,119.53,89,-8.00,-20.00,-1006.00
2024-06-07 00:00:25.767745,0,0,0,0,0,0,73,76,77,60,78,119.57,89,-6.00,-14.00,-1011.00
2024-06-07 00:00:25.869997,0,0,0,0,0,0,73,76,77,60,78,119.55,90,-4.00,-12.00,-1010.00
2024-06-07 00:00:25.971702,0,0,0,0,0,0,73,76,78,60,78,119.60,90,-6.00,-21.00,-982.00
2024-06-07 00:00:26.107183,0,0,0,0,0,0,73,76,78,60,78,119.62,90,-3.00,-6.00,-990.00
2024-06-07 00:00:26.176465,0,0,0,0,0,0,73,76,78,60,78,119.58,90,-9.00,-6.00,-1055.00
2024-06-07 00:00:26.320966,0,0,0,0,0,0,73,76,78,60,78,119.52,90,-12.00,-20.00,-955.00
2024-06-07 00:00:26.380123,0,0,0,0,0,0,73,76,78,60,78,119.61,90,-1.00,-3.00,-977.00
2024-06-07 00:00:26.514886,0,0,0,0,0,0,73,76,78,60,78,119.54,90,-3.00,-13.00,-1025.00
2024-06-07 00:00:26.583956,0,0,0,0,0,0,73,76,78,60,78,119.51,90,-13.00,-17.00,-989.00
2024-06-07 00:00:26.720055,0,0,0,0,0,0,73,76,78,60,78,119.55,90,-4.00,15.00,-1005.00
2024-06-07 00:00:26.736863,0,0,0,0,0,0,73,76,79,60,78,119.48,90,-17.00,-31.00,-1015.00
2024-06-07 00:00:26.925171,0,0,0,0,0,0,73,76,78,60,78,119.58,91,-13.00,-5.00,-949.00
2024-06-07 00:00:26.940377,0,0,0,0,0,0,73,76,78,60,78,119.60,91,5.00,8.00,-1015.00
2024-06-07 00:00:27.042552,0,0,0,0,0,0,73,76,78,60,78,119.54,91,0.00,-9.00,-1010.00
2024-06-07 00:00:27.234105,0,0,0,0,0,0,73,76,78,60,78,119.59,91,1.00,-1.00,-1035.00
2024-06-07 00:00:27.246557,0,0,0,0,0,0,73,75,78,60,78,119.64,91,-6.00,-9.00,-988.00
2024-06-07 00:00:27.438035,0,0,0,0,0,0,73,75,78,60,78,119.53,91,-16.00,-15.00,-1011.00
2024-06-07 00:00:27.450506,0,0,0,0,0,0,73,75,78,60,78,119.59,91,-22.00,-32.00,-973.00
2024-06-07 00:00:27.566938,0,0,0,0,0,0,73,75,78,60,78,119.60,91,-17.00,-26.00,-980.00
2024-06-07 00:00:27.654375,0,0,0,0,0,0,73,75,78,60,78,119.62,91,2.00,-33.00,-1047.00
2024-06-07 00:00:27.756377,0,0,0,0,0,0,73,75,78,60,78,119.62,91,-7.00,-22.00,-1047.00
2024-06-07 00:00:27.950643,0,0,0,0,0,-1,73,75,79,60,78,119.61,92,-18.00,-13.00,-1140.00
2024-06-07 00:00:27.960297,0,0,0,0,0,-2,73,75,81,60,78,119.58,92,0.00,-3.00,-1149.00
2024-06-07 00:00:28.152943,0,0,0,0,0,-3,73,75,84,70,78,119.65,92,-5.00,-13.00,-1105.00
2024-06-07 00:00:28.164275,0,0,0,0,0,-4,73,75,87,70,78,119.69,92,-4.00,1.00,-1074.00
2024-06-07 00:00:28.362808,0,0,0,0,0,-5,73,75,92,80,78,119.72,92,5.00,1.00,-1074.00
2024-06-07 00:00:28.369271,0,0,0,0,0,-5,73,75,97,80,78,119.77,92,9.00,-7.00,-1108.00
2024-06-07 00:00:28.562620,0,0,0,0,0,-5,73,75,101,90,78,119.84,92,-19.00,0.00,-994.00
2024-06-07 00:00:28.573445,0,0,0,0,0,-5,73,75,107,90,78,119.87,92,-22.00,1.00,-969.00
2024-06-07 00:00:28.769821,0,0,0,0,0,-5,73,75,113,100,78,119.97,92,19.00,20.00,-1066.00
2024-06-07 00:00:28.776308,0,0,0,0,0,-5,73,75,118,100,78,120.06,92,1.00,24.00,-1002.00
2024-06-07 00:00:28.878228,0,0,0,0,0,-5,73,75,122,110,78,120.05,93,-16.00,22.00,-988.00
2024-06-07 00:00:29.074639,0,0,0,0,0,-5,73,75,128,110,78,120.06,93,-9.00,25.00,-969.00
2024-06-07 00:00:29.083276,0,0,0,0,0,-4,73,75,133,120,78,120.16,93,-13.00,-26.00,-1001.00
2024-06-07 00:00:29.279438,0,0,0,0,0,-4,73,75,137,120,78,120.24,93,-12.00,5.00,-944.00
2024-06-07 00:00:29.286314,0,0,0,0,0,-3,73,75,144,130,78,120.22,93,-8.00,-29.00,-997.00
2024-06-07 00:00:29.485732,0,0,0,0,0,-3,73,75,147,130,78,120.29,93,-11.00,-5.00,-983.00
2024-06-07 00:00:29.494515,0,0,0,0,0,-3,73,75,150,130,78,120.33,93,-5.00,18.00,-992.00
2024-06-07 00:00:29.592178,0,0,0,0,0,-3,73,75,154,140,78,120.27,93,-11.00,32.00,-952.00
2024-06-07 00:00:29.791639,0,0,0,0,0,-2,73,75,157,140,78,120.33,93,-8.00,-29.00,-1038.00
2024-06-07 00:00:29.796782,0,0,0,0,0,-2,73,75,160,140,78,120.38,93,-6.00,10.00,-992.00
2024-06-07 00:00:29.996846,0,0,0,0,0,-2,73,75,162,150,78,120.41,94,-3.00,3.00,-993.00
2024-06-07 00:00:30.000869,0,0,0,0,0,-2,73,75,165,150,78,120.40,94,-5.00,-20.00,-940.00
2024-06-07 00:00:30.102473,0,1,0,0,0,-2,73,75,166,150,78,120.47,94,-15.00,-25.00,-954.00
2024-06-07 00:00:30.303299,0,1,0,0,0,-1,73,75,168,150,78,120.47,94,-14.00,-19.00,-992.00
2024-06-07 00:00:30.306023,0,1,0,0,0,-1,73,76,169,150,78,120.42,94,-14.00,0.00,-1019.00
2024-06-07 00:00:30.408125,0,1,0,0,0,-1,73,76,170,150,78,120.50,94,-29.00,10.00,-946.00
2024-06-07 00:00:30.510491,0,0,0,0,0,0,73,76,170,160,78,120.48,94,-12.00,-28.00,-979.00
2024-06-07 00:00:30.612083,0,0,0,0,0,0,73,76,173,160,78,120.48,94,-14.00,20.00,-977.00
2024-06-07 00:00:30.814981,0,0,0,0,0,0,73,76,171,160,78,120.51,94,-15.00,-16.00,-1014.00
2024-06-07 00:00:30.815678,0,0,0,0,0,0,73,76,172,160,78,120.45,94,-15.00,-4.00,-940.00
2024-06-07 00:00:30.871176,0,0,0,0,0,0,73,76,173,160,78,120.52,95,-9.00,0.00,-977.00
2024-06-07 00:00:30.970546,0,0,0,0,0,0,73,76,173,160,78,120.51,95,-12.00,4.00,-1025.00
2024-06-07 00:00:31.122963,0,0,0,0,0,0,73,76,174,160,78,120.50,95,-13.00,3.00,-995.00
2024-06-07 00:00:31.174370,0,0,0,0,0,0,73,76,174,160,78,120.46,95,-25.00,7.00,-964.00
2024-06-07 00:00:31.327335,-1,0,0,0,0,0,73,76,174,160,78,120.44,95,-11.00,-35.00,-1000.00
2024-06-07 00:00:31.378226,-1,0,0,0,0,0,73,76,173,160,78,120.50,95,-14.00,5.00,-953.00
2024-06-07 00:00:31.541335,-1,0,0,0,0,0,73,76,175,160,78,120.53,95,-10.00,10.00,-994.00
2024-06-07 00:00:31.582127,-1,0,0,0,0,0,73,76,174,160,78,120.46,95,-16.00,-4.00,-1048.00
2024-06-07 00:00:31.738311,-1,0,0,0,0,0,73,76,175,160,78,120.49,95,-18.00,1.00,-985.00
2024-06-07 00:00:31.786169,-1,0,0,0,0,0,73,76,175,160,78,120.46,95,-6.00,-17.00,-1074.00
2024-06-07 00:00:31.891238,-1,0,0,0,0,0,73,76,176,160,78,120.54,96,-11.00,36.00,-989.00
2024-06-07 00:00:31.990165,-1,0,0,0,0,0,73,76,176,160,78,120.53,96,-20.00,-8.00,-1041.00
2024-06-07 00:00:32.146366,-1,0,0,0,0,0,73,76,176,160,78,120.45,96,-17.00,-3.00,-966.00
2024-06-07 00:00:32.194480,-1,0,0,0,0,0,73,76,176,160,78,120.46,96,-19.00,-23.00,-974.00
2024-06-07 00:00:32.353635,-1,0,0,0,0,0,73,76,178,160,78,120.53,96,-12.00,16.00,-993.00
2024-06-07 00:00:32.398109,-1,0,0,0,0,0,73,76,177,160,78,120.50,96,-19.00,-21.00,-1006.00
2024-06-07 00:00:32.556724,-1,0,0,0,0,0,73,76,176,160,78,120.52,96,-30.00,15.00,-959.00
2024-06-07 00:00:32.602051,-1,0,0,0,0,0,73,76,177,160,78,120.50,96,-12.00,-19.00,-1072.00
2024-06-07 00:00:32.764540,-1,0,0,0,0,0,73,76,177,160,78,120.49,96,-18.00,18.00,-958.00
2024-06-07 00:00:32.806107,0,0,0,0,0,0,73,76,177,160,78,120.48,96,-18.00,-25.00,-1018.00
2024-06-07 00:00:32.908274,0,0,0,0,0,0,73,76,178,160,78,120.47,97,-16.00,16.00,-964.00
2024-06-07 00:00:33.068512,0,0,0,0,0,0,73,76,177,160,78,120.63,97,-16.00,-32.00,-1037.00
2024-06-07 00:00:33.111881,0,0,0,0,0,0,73,76,177,160,78,120.49,97,-21.00,4.00,-970.00
2024-06-07 00:00:33.272655,-1,0,0,0,0,0,73,76,177,160,78,120.40,97,-16.00,-27.00,-931.00
2024-06-07 00:00:33.315852,-1,0,0,0,0,1,73,75,176,160,78,120.44,97,-4.00,9.00,-953.00
2024-06-07 00:00:33.477911,-1,0,0,0,0,1,73,75,175,160,78,120.42,97,-28.00,0.00,-921.00
2024-06-07 00:00:33.520570,0,0,0,0,0,2,73,75,172,150,78,120.39,97,-30.00,-40.00,-978.00
2024-06-07 00:00:33.683993,0,0,0,0,0,2,73,75,170,150,78,120.38,97,-6.00,-17.00,-1033.00
2024-06-07 00:00:33.726187,0,1,0,0,0,2,73,75,168,150,78,120.37,97,-18.00,2.00,-980.00
2024-06-07 00:00:33.826452,0,1,0,0,0,2,73,75,166,150,78,120.37,97,-31.00,-4.00,-937.00
2024-06-07 00:00:33.927881,0,0,0,0,0,2,73,75,164,150,78,120.32,98,-16.00,-40.00,-957.00
2024-06-07 00:00:34.029945,0,0,0,0,0,2,73,75,161,140,78,120.32,98,-14.00,-32.00,-966.00
2024-06-07 00:00:34.131808,0,0,0,0,0,2,73,75,158,140,78,120.31,98,-21.00,-21.00,-1046.00
2024-06-07 00:00:34.234598,0,0,0,0,0,2,73,75,153,140,78,120.23,98,-11.00,-26.00,-984.00
2024-06-07 00:00:34.335854,0,0,0,0,0,2,74,75,151,130,78,120.17,98,-13.00,-30.00,-1014.00
2024-06-07 00:00:34.438082,0,0,0,0,0,2,74,75,149,130,78,120.14,98,-18.00,-36.00,-985.00
2024-06-07 00:00:34.540111,0,0,0,0,0,2,74,75,145,130,78,120.13,98,-13.00,-31.00,-1014.00
2024-06-07 00:00:34.641822,0,0,0,0,0,2,74,75,143,130,78,120.13,98,-18.00,-9.00,-1041.00
2024-06-07 00:00:34.808342,0,0,0,0,0,2,74,75,140,120,78,120.10,98,-12.00,2.00,-1034.00
2024-06-07 00:00:34.808603,0,0,0,0,0,2,74,75,138,120,78,120.02,98,-14.00,-8.00,-1001.00
2024-06-07 00:00:34.897680,-1,0,0,0,0,1,74,75,135,120,78,120.08,99,-13.00,19.00,-1011.00
2024-06-07 00:00:35.018069,-1,-1,0,0,0,1,74,75,133,120,78,120.02,99,-30.00,-10.00,-984.00
2024-06-07 00:00:35.101688,-1,-2,0,0,0,2,74,75,131,120,78,120.06,99,-22.00,-14.00,-1002.00
2024-06-07 00:00:35.204235,-1,-1,0,0,0,1,74,75,129,110,78,120.06,99,-12.00,25.00,-1012.00
2024-06-07 00:00:35.321010,-1,-1,0,0,0,1,73,76,128,110,78,120.03,99,-14.00,14.00,-1063.00
2024-06-07 00:00:35.407857,-1,0,0,0,0,0,73,76,128,110,78,120.03,99,-16.00,-3.00,-1023.00
2024-06-07 00:00:35.526138,0,0,0,0,0,0,73,76,127,110,78,120.06,99,-12.00,11.00,-1054.00
2024-06-07 00:00:35.611833,0,0,0,0,0,0,73,76,127,110,78,120.01,99,-12.00,-20.00,-1051.00
2024-06-07 00:00:35.730991,0,0,0,0,0,0,73,76,126,110,78,120.03,99,-23.00,12.00,-950.00
2024-06-07 00:00:35.815850,0,0,0,0,0,0,73,76,127,110,78,119.94,99,-16.00,-34.00,-1041.00
2024-06-07 00:00:35.935374,-1,0,0,0,0,0,73,76,128,110,78,120.03,100,-19.00,23.00,-993.00
2024-06-07 00:00:36.020236,-1,0,0,0,0,0,73,76,128,110,78,120.03,100,-24.00,-5.00,-1000.00
2024-06-07 00:00:36.142195,-1,0,0,0,0,0,73,76,128,110,78,119.97,100,-4.00,0.00,-977.00
2024-06-07 00:00:36.223771,-1,0,0,0,0,0,73,76,127,110,78,120.06,100,-27.00,24.00,-1000.00
2024-06-07 00:00:36.345206,-1,0,0,0,0,0,73,76,128,110,78,120.00,100,-19.00,-28.00,-994.00
2024-06-07 00:00:36.427825,0,0,0,0,0,0,73,76,129,110,78,120.06,100,-13.00,-28.00,-1002.00
2024-06-07 00:00:36.551553,0,0,0,0,0,0,73,76,129,110,78,120.02,100,-12.00,-3.00,-1035.00
2024-06-07 00:00:36.631778,0,1,0,0,0,0,73,76,130,110,78,119.97,100,-6.00,-39.00,-974.00
2024-06-07 00:00:36.754556,0,1,0,0,0,0,73,76,129,110,78,120.05,100,-4.00,-8.00,-963.00
2024-06-07 00:00:36.835847,0,1,0,0,0,0,73,76,130,110,78,120.06,100,-5.00,-2.00,-970.00
2024-06-07 00:00:36.959843,0,0,0,0,0,0,73,76,129,110,78,120.05,101,-9.00,-5.00,-1017.00
2024-06-07 00:00:37.039674,0,0,0,0,0,0,73,76,129,110,78,120.07,101,-15.00,-5.00,-984.00
2024-06-07 00:00:37.177192,0,0,0,0,0,0,73,76,130,110,78,120.07,101,-10.00,-18.00,-983.00
2024-06-07 00:00:37.368765,-1,0,0,0,0,0,73,76,130,110,78,120.08,101,-6.00,4.00,-1020.00
2024-06-07 00:00:37.431182,-1,0,0,0,0,0,72,76,130,110,78,120.14,101,-26.00,-13.00,-1016.00
2024-06-07 00:00:37.447958,-4,0,0,0,0,0,72,76,131,110,78,120.07,101,-11.00,3.00,-995.00
2024-06-07 00:00:37.678425,-8,0,0,1,0,0,72,76,131,110,78,120.05,101,-14.00,-11.00,-998.00
2024-06-07 00:00:37.678474,-8,0,0,2,0,0,72,76,131,110,78,120.09,101,-37.00,-19.00,-1024.00
2024-06-07 00:00:37.783031,-8,0,0,3,0,0,72,76,130,110,78,120.02,101,-50.00,-17.00,-947.00
2024-06-07 00:00:37.856508,-8,0,0,4,0,0,72,76,130,110,78,120.04,101,-43.00,23.00,-1021.00
2024-06-07 00:00:37.958802,-8,0,0,5,0,0,72,76,130,110,78,120.01,102,-59.00,-31.00,-1026.00
2024-06-07 00:00:38.096090,-8,0,0,6,0,0,72,76,129,110,78,119.95,102,-56.00,-30.00,-1010.00
2024-06-07 00:00:38.162860,-7,0,0,7,0,0,72,76,129,110,78,119.99,102,-61.00,10.00,-1062.00
2024-06-07 00:00:38.283752,-5,0,0,7,0,0,72,76,128,110,78,119.94,102,-63.00,-4.00,-1002.00
2024-06-07 00:00:38.368139,-3,0,0,8,0,0,74,77,128,110,78,119.91,102,-62.00,3.00,-1037.00
2024-06-07 00:00:38.500205,0,0,0,7,0,0,74,77,129,110,78,119.89,102,-62.00,-2.00,-987.00
2024-06-07 00:00:38.573288,2,0,0,7,0,0,74,77,130,110,78,119.96,102,-65.00,-24.00,-1014.00
2024-06-07 00:00:38.713440,3,0,0,5,0,0,74,77,129,110,78,119.95,102,-47.00,-4.00,-979.00
2024-06-07 00:00:38.722564,2,0,0,4,0,0,74,77,129,110,78,120.00,102,-36.00,-1.00,-1059.00
2024-06-07 00:00:38.856722,1,0,0,3,0,0,74,77,129,110,78,120.05,102,-36.00,1.00,-985.00
2024-06-07 00:00:39.019902,0,1,0,3,0,0,74,77,129,110,78,119.95,103,-40.00,6.00,-980.00
2024-06-07 00:00:39.028643,0,1,0,3,0,0,74,77,129,110,78,120.04,103,-33.00,-7.00,-1001.00
2024-06-07 00:00:39.162921,0,0,0,2,0,0,74,77,128,110,78,120.01,103,-31.00,-14.00,-989.00
2024-06-07 00:00:39.324855,-1,0,0,2,0,0,74,77,129,110,78,119.98,103,-22.00,-34.00,-1029.00
2024-06-07 00:00:39.334505,-1,0,0,2,0,0,73,76,130,110,78,119.97,103,-33.00,-6.00,-957.00
2024-06-07 00:00:39.468173,-1,0,0,2,0,0,73,76,129,110,78,120.02,103,-37.00,-5.00,-979.00
2024-06-07 00:00:39.636891,0,0,0,2,0,0,73,76,131,110,78,119.98,103,-34.00,-5.00,-1023.00
2024-06-07 00:00:39.640440,4,0,0,1,0,0,73,76,131,110,78,119.98,103,-35.00,-18.00,-1010.00
2024-06-07 00:00:39.780474,2,0,0,1,0,0,73,76,131,110,78,119.99,103,-4.00,-22.00,-1004.00
2024-06-07 00:00:39.869289,0,0,0,0,0,0,73,76,130,110,78,120.08,103,-18.00,-8.00,-973.00
2024-06-07 00:00:39.948544,0,0,0,0,0,0,73,76,131,110,78,120.03,104,-12.00,-35.00,-1024.00
2024-06-07 00:00:40.048507,0,0,0,0,0,0,73,76,131,110,78,120.01,104,-23.00,-11.00,-978.00
2024-06-07 00:00:40.239239,0,0,0,0,0,0,73,76,131,110,78,120.04,104,-19.00,4.00,-974.00
2024-06-07 00:00:40.253193,0,0,0,0,0,0,73,76,132,110,78,120.04,104,5.00,13.00,-1049.00
2024-06-07 00:00:40.445926,0,0,0,0,0,0,73,76,131,110,78,119.99,104,-13.00,-40.00,-1005.00
2024-06-07 00:00:40.456422,0,0,0,0,0,0,73,76,132,110,78,120.03,104,-18.00,-11.00,-943.00
2024-06-07 00:00:40.645307,0,0,0,0,0,0,73,76,131,110,78,120.06,104,-22.00,0.00,-981.00
2024-06-07 00:00:40.660278,0,0,0,0,0,0,73,76,132,110,78,120.03,104,-15.00,-4.00,-980.00
2024-06-07 00:00:40.851325,0,0,0,0,0,0,73,76,131,110,78,120.04,104,-11.00,10.00,-986.00
2024-06-07 00:00:40.864369,0,0,0,0,0,0,73,76,132,110,78,120.10,105,-12.00,-29.00,-1040.00
2024-06-07 00:00:40.966596,0,0,0,0,0,0,73,76,132,110,78,120.07,105,-20.00,4.00,-994.00
2024-06-07 00:00:41.158992,-1,0,0,0,0,0,73,76,132,110,78,120.02,105,-19.00,-31.00,-998.00
2024-06-07 00:00:41.170328,0,0,0,0,0,0,73,76,131,110,78,120.10,105,-13.00,-17.00,-967.00
2024-06-07 00:00:41.364833,0,0,0,0,0,0,73,76,131,110,78,119.98,105,-14.00,6.00,-986.00
2024-06-07 00:00:41.374352,0,0,0,0,0,0,73,75,131,110,78,120.03,105,-6.00,-24.00,-983.00
2024-06-07 00:00:41.568868,0,0,0,0,0,0,73,75,131,110,78,120.04,105,-18.00,19.00,-990.00
2024-06-07 00:00:41.579692,0,0,0,0,0,0,73,75,131,110,78,120.06,105,-14.00,2.00,-1020.00
2024-06-07 00:00:41.774294,0,0,0,0,0,0,73,75,131,110,78,120.06,105,-17.00,-33.00,-990.00
2024-06-07 00:00:41.782531,0,0,0,0,0,0,73,75,131,110,78,120.02,105,-21.00,12.00,-970.00
2024-06-07 00:00:41.976271,0,0,0,0,0,0,73,75,131,110,78,120.01,106,-4.00,0.00,-1045.00
2024-06-07 00:00:41.987179,2,0,0,0,0,0,73,75,131,110,78,120.07,106,-4.00,-39.00,-984.00
2024-06-07 00:00:42.042973,7,0,0,-1,0,0,73,75,131,110,78,120.05,106,-8.00,-4.00,-1008.00
2024-06-07 00:00:42.143384,8,0,0,-2,0,0,73,75,132,110,78,120.05,106,0.00,-8.00,-1065.00
2024-06-07 00:00:42.242414,7,0,0,-3,0,0,73,75,132,110,78,120.04,106,5.00,-26.00,-1048.00
2024-06-07 00:00:42.387076,7,0,0,-5,0,0,72,76,133,110,78,120.06,106,12.00,-22.00,-1028.00
2024-06-07 00:00:42.450324,6,0,0,-6,0,0,72,76,132,110,78,119.99,106,9.00,31.00,-1035.00
2024-06-07 00:00:42.548162,5,0,0,-7,0,0,72,76,132,110,78,120.08,106,19.00,14.00,-984.00
2024-06-07 00:00:42.693799,4,0,0,-7,0,0,72,76,132,110,78,120.06,106,40.00,-9.00,-1015.00
2024-06-07 00:00:42.753150,3,0,0,-8,0,0,72,76,132,110,78,120.07,106,43.00,-23.00,-1019.00
2024-06-07 00:00:42.899259,0,0,0,-7,0,0,72,76,132,110,78,120.02,107,45.00,-27.00,-937.00
2024-06-07 00:00:42.957148,-2,0,0,-7,0,0,72,76,131,110,78,120.06,107,37.00,2.00,-972.00
2024-06-07 00:00:43.104530,-4,0,0,-6,0,0,72,76,131,110,78,119.99,107,30.00,-19.00,-1009.00
2024-06-07 00:00:43.161053,-5,0,0,-5,0,0,72,76,131,110,78,120.06,107,36.00,17.00,-994.00
2024-06-07 00:00:43.307447,-3,0,0,-4,0,0,72,76,129,110,78,119.99,107,21.00,-9.00,-980.00
2024-06-07 00:00:43.365037,-2,0,0,-3,0,0,73,77,129,110,78,120.03,107,1.00,8.00,-973.00
2024-06-07 00:00:43.514547,-1,0,0,-3,0,0,73,77,128,110,78,119.93,107,0.00,19.00,-984.00
2024-06-07 00:00:43.569057,0,0,0,-2,0,0,73,77,128,110,78,119.97,107,8.00,5.00,-1053.00
2024-06-07 00:00:43.719053,0,0,0,-2,0,0,73,77,128,110,78,120.00,107,-3.00,-29.00,-1024.00
2024-06-07 00:00:43.773444,0,0,0,-2,0,0,73,77,128,110,78,119.96,107,5.00,-27.00,-986.00
2024-06-07 00:00:43.882211,0,0,0,-2,0,0,73,77,127,110,78,119.98,108,6.00,8.00,-997.00
2024-06-07 00:00:43.986361,0,0,0,-2,0,0,73,77,127,110,78,120.05,108,2.00,-13.00,-1070.00
2024-06-07 00:00:44.080776,-5,0,0,-2,0,0,73,77,127,110,78,120.04,108,12.00,-18.00,-993.00
2024-06-07 00:00:44.229428,-5,0,0,-1,0,0,73,77,128,110,78,120.06,108,8.00,-23.00,-1007.00
2024-06-07 00:00:44.286294,-2,0,0,0,0,0,73,77,128,110,78,120.02,108,-5.00,21.00,-1045.00
2024-06-07 00:00:44.387062,-1,0,0,0,0,0,73,75,128,110,78,119.98,108,-12.00,-26.00,-986.00
2024-06-07 00:00:44.488142,-1,0,0,0,0,0,73,75,128,110,78,119.97,108,-6.00,10.00,-998.00
2024-06-07 00:00:44.639525,-1,0,0,0,0,0,73,75,128,110,78,120.01,108,-4.00,-12.00,-1064.00
2024-06-07 00:00:44.695001,-1,0,0,0,0,0,73,75,128,110,78,120.02,108,-14.00,-34.00,-1037.00
2024-06-07 00:00:44.795715,-1,0,0,0,0,0,73,75,128,110,78,120.01,108,-17.00,-32.00,-999.00
2024-06-07 00:00:44.896042,-1,0,0,0,0,0,73,75,128,110,78,120.02,109,-14.00,10.00,-976.00
2024-06-07 00:00:45.050021,0,0,0,0,0,0,73,75,128,110,78,120.04,109,-14.00,3.00,-988.00
2024-06-07 00:00:45.102886,0,0,0,0,0,0,73,75,128,110,78,119.98,109,-6.00,-12.00,-1034.00
2024-06-07 00:00:45.201980,0,0,0,0,0,0,73,75,128,110,78,119.99,109,-10.00,-33.00,-1030.00
2024-06-07 00:00:45.357470,0,0,0,0,0,0,73,75,127,110,78,120.06,109,-16.00,-3.00,-999.00
2024-06-07 00:00:45.405869,0,0,0,0,0,0,73,76,128,110,78,120.02,109,-8.00,-4.00,-1025.00
2024-06-07 00:00:45.561955,0,0,0,0,0,0,73,76,127,110,78,120.03,109,-4.00,-4.00,-954.00
2024-06-07 00:00:45.609905,0,0,0,0,0,0,73,76,128,110,78,119.98,109,-7.00,4.00,-990.00
2024-06-07 00:00:45.767350,0,0,0,0,0,0,73,76,127,110,78,119.99,109,-3.00,-23.00,-1037.00
2024-06-07 00:00:45.813903,0,0,0,0,0,0,73,76,127,110,78,119.98,109,-16.00,8.00,-1028.00
2024-06-07 00:00:45.864929,0,0,0,0,0,0,73,76,127,110,78,119.94,110,-13.00,-25.00,-1011.00
2024-06-07 00:00:45.966958,0,0,0,0,0,0,73,76,128,110,78,119.94,110,-20.00,28.00,-970.00
2024-06-07 00:00:46.074538,0,0,0,0,0,0,73,76,127,110,78,119.91,110,-20.00,17.00,-962.00
2024-06-07 00:00:46.171080,0,0,0,0,0,0,73,76,127,110,78,119.95,110,-7.00,-10.00,-1008.00
2024-06-07 00:00:46.272869,0,0,0,0,0,0,73,76,127,110,78,119.92,110,-12.00,14.00,-1037.00
2024-06-07 00:00:46.379777,0,-1,0,0,0,0,72,76,127,110,78,119.91,110,-27.00,10.00,-912.00
2024-06-07 00:00:46.476748,0,-7,0,0,0,0,72,76,129,110,78,119.94,110,-14.00,9.00,-1070.00
2024-06-07 00:00:46.584480,0,-7,0,0,-1,0,72,76,128,110,78,119.95,110,-9.00,18.00,-1001.00
2024-06-07 00:00:46.680785,0,-5,0,0,-2,0,72,76,128,110,78,119.95,110,-20.00,26.00,-938.00
2024-06-07 00:00:46.791657,0,-3,0,0,-3,0,72,76,127,110,78,119.95,110,-9.00,24.00,-1000.00
2024-06-07 00:00:46.884850,0,0,0,0,-4,0,72,76,126,110,78,119.97,111,-19.00,12.00,-989.00
2024-06-07 00:00:46.995542,0,1,0,0,-3,0,72,76,126,110,78,119.93,111,-20.00,50.00,-986.00
2024-06-07 00:00:47.088702,0,1,0,0,-3,0,72,76,125,110,78,119.94,111,-16.00,-26.00,-985.00
2024-06-07 00:00:47.202260,0,0,0,0,-2,0,72,76,125,110,78,119.93,111,-17.00,36.00,-988.00
2024-06-07 00:00:47.301873,0,0,0,0,-2,0,72,76,124,110,78,119.95,111,-11.00,-11.00,-1036.00
2024-06-07 00:00:47.394626,0,0,0,0,-2,0,73,76,124,110,78,119.89,111,-14.00,7.00,-1001.00
2024-06-07 00:00:47.507933,0,0,0,0,-2,0,73,76,124,110,78,119.95,111,-13.00,15.00,-1006.00
2024-06-07 00:00:47.598629,0,0,0,0,-2,0,73,76,124,110,78,119.99,111,-8.00,10.00,-1064.00
2024-06-07 00:00:47.710370,0,0,0,0,-2,0,73,76,124,110,78,119.96,111,-16.00,-2.00,-1005.00
2024-06-07 00:00:47.803478,0,0,0,0,-2,0,73,76,124,110,78,119.97,111,-17.00,24.00,-989.00
2024-06-07 00:00:47.916494,0,1,0,0,-2,0,73,76,124,110,78,119.92,112,-15.00,-31.00,-1065.00
2024-06-07 00:00:48.007306,-1,6,0,0,-2,0,73,76,126,110,78,119.98,112,-7.00,50.00,-989.00
2024-06-07 00:00:48.120789,0,4,0,0,-1,0,73,76,125,110,78,119.91,112,-14.00,-32.00,-1015.00
2024-06-07 00:00:48.212853,0,2,0,0,0,0,73,76,125,110,78,119.95,112,-7.00,-47.00,-1012.00
2024-06-07 00:00:48.312822,0,1,0,0,0,0,73,76,126,110,78,119.93,112,-6.00,-16.00,-985.00
2024-06-07 00:00:48.427771,0,1,0,0,0,0,72,76,126,110,78,119.92,112,-24.00,-13.00,-1006.00
2024-06-07 00:00:48.516820,0,1,0,0,0,0,72,76,126,110,78,119.96,112,-14.00,21.00,-984.00
2024-06-07 00:00:48.633000,0,0,0,0,0,0,72,76,126,110,78,119.92,112,-6.00,9.00,-961.00
2024-06-07 00:00:48.720790,0,0,0,0,0,0,72,76,127,110,78,119.94,112,-11.00,23.00,-1026.00
2024-06-07 00:00:48.822783,-1,-1,0,0,0,0,72,76,126,110,78,119.88,112,-14.00,-26.00,-960.00
2024-06-07 00:00:48.940113,-1,-1,0,0,0,0,72,76,126,110,78,119.95,113,-10.00,-9.00,-1021.00
2024-06-07 00:00:49.027555,-1,0,0,0,0,0,72,76,127,110,78,119.98,113,-18.00,-19.00,-998.00
2024-06-07 00:00:49.144657,-1,0,0,0,0,0,72,76,127,110,78,119.94,113,-12.00,17.00,-984.00
2024-06-07 00:00:49.231532,0,0,0,0,0,0,72,76,127,110,78,119.95,113,-18.00,-12.00,-986.00
2024-06-07 00:00:49.332719,0,0,0,0,0,0,72,76,127,110,78,119.88,113,-12.00,-12.00,-1013.00
2024-06-07 00:00:49.454006,0,0,0,0,0,0,73,76,127,110,78,119.94,113,-6.00,-2.00,-1012.00
2024-06-07 00:00:49.537096,0,0,0,0,0,0,73,76,127,110,78,119.95,113,-12.00,-5.00,-1000.00
2024-06-07 00:00:49.659148,0,0,0,0,0,0,73,76,127,110,78,119.94,113,-17.00,3.00,-1016.00
2024-06-07 00:00:49.741049,0,0,0,0,0,0,73,76,127,110,78,119.94,113,-6.00,-31.00,-1020.00
2024-06-07 00:00:49.842760,0,0,0,0,0,0,73,76,128,110,78,119.98,113,-17.00,-3.00,-936.00
2024-06-07 00:00:49.893848,0,0,0,0,0,0,73,76,128,110,78,119.92,114,-4.00,-19.00,-991.00
2024-06-07 00:00:50.066410,0,0,0,0,0,0,73,76,128,110,78,119.88,114,-8.00,-4.00,-957.00
2024-06-07 00:00:50.097495,0,0,0,0,0,0,73,76,128,110,78,119.91,114,-5.00,9.00,-993.00
2024-06-07 00:00:50.202404,0,0,0,0,0,0,73,76,128,110,78,119.94,114,-4.00,1.00,-1063.00
2024-06-07 00:00:50.301770,0,2,0,0,0,0,73,76,129,110,78,119.87,114,-1.00,-33.00,-1039.00
2024-06-07 00:00:50.475006,0,8,0,0,0,0,73,76,130,110,78,119.96,114,-9.00,2.00,-1014.00
2024-06-07 00:00:50.505229,0,8,0,0,1,0,73,76,131,110,78,119.93,114,-8.00,-9.00,-976.00
2024-06-07 00:00:50.608725,0,6,0,0,3,0,73,76,130,110,78,119.89,114,-6.00,-15.00,-992.00
2024-06-07 00:00:50.782405,0,3,0,0,3,0,73,76,130,110,78,119.90,114,-8.00,-3.00,-988.00
2024-06-07 00:00:50.811333,0,0,0,0,4,0,73,76,129,110,78,119.91,114,-8.00,-16.00,-977.00
2024-06-07 00:00:50.987517,0,0,0,0,3,0,73,76,129,110,78,119.94,115,-12.00,-34.00,-979.00
2024-06-07 00:00:51.015313,0,0,0,0,3,0,73,76,129,110,78,119.88,115,-8.00,-40.00,-1002.00
2024-06-07 00:00:51.192127,0,0,0,0,2,0,73,76,129,110,78,119.94,115,-12.00,-44.00,-980.00
2024-06-07 00:00:51.219362,0,0,0,0,2,0,73,76,129,110,78,119.94,115,-9.00,-31.00,-967.00
2024-06-07 00:00:51.396585,0,1,0,0,2,0,73,76,128,110,78,119.95,115,-10.00,-27.00,-1001.00
2024-06-07 00:00:51.423187,0,1,0,0,2,0,72,76,128,110,78,119.92,115,-5.00,-36.00,-1019.00
2024-06-07 00:00:51.603925,0,1,0,0,2,0,72,76,128,110,78,119.91,115,6.00,-44.00,-1055.00
2024-06-07 00:00:51.627230,0,1,0,0,2,0,72,76,127,110,78,119.93,115,-14.00,-35.00,-996.00
2024-06-07 00:00:51.806683,0,1,0,0,2,0,72,76,127,110,78,119.90,115,-2.00,-19.00,-1031.00
2024-06-07 00:00:51.831213,0,1,0,0,2,0,72,76,126,110,78,119.91,115,-4.00,-4.00,-1006.00
2024-06-07 00:00:51.933221,0,0,0,0,2,0,72,76,127,110,78,119.90,116,-15.00,-40.00,-985.00
2024-06-07 00:00:52.113747,0,-5,0,0,2,0,72,76,126,110,78,119.86,116,-11.00,-69.00,-1039.00
2024-06-07 00:00:52.137857,0,-2,0,0,1,0,72,76,126,110,78,119.90,116,-8.00,-24.00,-1039.00
2024-06-07 00:00:52.421330,0,-1,0,0,0,0,72,76,126,110,78,119.90,116,-11.00,2.00,-1019.00
2024-06-07 00:00:52.443305,0,0,0,0,0,0,72,76,127,110,78,119.81,116,0.00,-2.00,-1023.00
2024-06-07 00:00:52.443454,0,0,0,0,0,0,73,76,127,110,78,119.91,116,-2.00,0.00,-1054.00
2024-06-07 00:00:52.626019,0,0,0,0,0,0,73,76,127,110,78,119.85,116,-9.00,-4.00,-993.00
2024-06-07 00:00:52.706642,0,0,0,0,0,0,73,76,126,110,78,119.92,116,14.00,-35.00,-1060.00
2024-06-07 00:00:52.784449,0,0,0,0,0,0,73,76,127,110,78,119.93,116,3.00,-18.00,-1015.00
2024-06-07 00:00:52.871171,0,0,0,0,0,0,73,76,127,110,78,119.90,116,-6.00,9.00,-1042.00
2024-06-07 00:00:53.025278,0,0,0,0,0,0,73,76,127,110,78,119.90,117,-11.00,0.00,-980.00
2024-06-07 00:00:53.178714,0,0,0,0,0,0,73,76,127,110,78,119.81,117,-21.00,12.00,-978.00
2024-06-07 00:00:53.178899,0,0,0,0,0,0,73,76,127,110,78,119.84,117,-14.00,-13.00,-935.00
2024-06-07 00:00:53.322081,0,0,0,0,0,0,73,76,127,110,78,119.92,117,-18.00,-18.00,-996.00
2024-06-07 00:00:53.465527,0,0,0,0,0,0,73,76,127,110,78,119.89,117,-17.00,-23.00,-931.00
2024-06-07 00:00:53.469898,0,0,0,0,0,0,73,75,127,110,78,119.89,117,-8.00,-4.00,-980.00
2024-06-07 00:00:53.609215,0,0,0,0,0,0,73,75,126,110,78,119.86,117,-15.00,-23.00,-984.00
2024-06-07 00:00:53.762826,0,0,0,0,0,0,73,75,126,110,78,119.86,117,-10.00,-29.00,-1037.00
2024-06-07 00:00:53.769333,0,0,0,0,0,0,73,75,126,110,78,119.82,117,-2.00,-29.00,-1002.00
2024-06-07 00:00:53.917074,0,0,0,0,0,0,73,75,126,110,78,119.86,117,-10.00,-16.00,-1022.00
2024-06-07 00:00:53.922508,0,0,0,0,0,0,73,75,125,110,78,119.83,118,2.00,-22.00,-1019.00
2024-06-07 00:00:54.046924,0,0,0,0,0,0,73,75,125,110,78,119.91,118,0.00,-36.00,-1043.00
2024-06-07 00:00:54.126037,0,0,0,0,0,0,73,75,125,110,78,119.88,118,-9.00,-12.00,-981.00
2024-06-07 00:00:54.264244,0,0,0,0,0,0,73,75,126,110,78,119.85,118,13.00,-10.00,-959.00
2024-06-07 00:00:54.330096,0,0,2,0,0,0,73,75,125,110,78,119.84,118,-6.00,9.00,-1014.00
2024-06-07 00:00:54.470778,0,0,8,0,0,0,73,76,126,110,78,119.83,118,-13.00,-14.00,-1024.00
2024-06-07 00:00:54.534854,0,0,14,0,0,0,73,76,126,110,78,119.82,118,14.00,-39.00,-966.00
2024-06-07 00:00:54.673344,0,0,19,0,0,0,73,76,125,110,78,119.87,118,2.00,0.00,-999.00
2024-06-07 00:00:54.741374,0,0,25,0,0,0,73,76,125,110,78,119.86,118,-3.00,-35.00,-1014.00
2024-06-07 00:00:54.840118,0,0,31,0,0,0,73,76,126,110,78,119.86,118,3.00,0.00,-1052.00
2024-06-07 00:00:54.982893,0,0,37,0,0,0,73,76,126,110,78,119.81,119,-9.00,8.00,-988.00
2024-06-07 00:00:55.044416,0,0,43,0,0,0,73,76,126,110,78,119.86,119,-10.00,-38.00,-1005.00
2024-06-07 00:00:55.186219,0,0,49,0,0,0,73,76,126,110,78,119.88,119,-13.00,-16.00,-999.00
2024-06-07 00:00:55.248077,0,0,55,0,0,0,73,76,126,110,78,119.86,119,-22.00,14.00,-964.00
2024-06-07 00:00:55.390359,0,0,61,0,0,0,73,76,126,110,78,119.86,119,-24.00,13.00,-975.00
2024-06-07 00:00:55.452149,0,0,73,0,0,0,73,76,126,110,78,119.84,119,-6.00,-27.00,-983.00
2024-06-07 00:00:55.595322,0,0,79,0,0,0,73,76,125,110,78,119.80,119,-11.00,-28.00,-1027.00
2024-06-07 00:00:55.655964,0,0,85,0,0,0,73,76,125,110,78,119.85,119,-9.00,8.00,-958.00
2024-06-07 00:00:55.800781,0,0,91,0,0,0,73,76,125,110,78,119.84,119,-1.00,-25.00,-1012.00
2024-06-07 00:00:55.860036,0,0,97,0,0,0,73,76,126,110,78,119.83,120,-21.00,27.00,-963.00
2024-06-07 00:00:55.961890,0,0,103,0,0,0,73,76,125,110,78,119.87,120,-9.00,-17.00,-972.00
2024-06-07 00:00:56.107397,0,0,108,0,0,0,73,76,125,110,78,119.83,120,-17.00,14.00,-995.00
2024-06-07 00:00:56.165908,0,0,114,0,0,0,73,76,125,110,78,119.90,120,-14.00,-23.00,-951.00
2024-06-07 00:00:56.312027,0,0,120,0,0,0,73,76,125,110,78,119.84,120,-13.00,-7.00,-1068.00
2024-06-07 00:00:56.370188,0,0,126,0,0,0,73,76,125,110,78,119.81,120,-25.00,8.00,-970.00
2024-06-07 00:00:56.518759,0,0,132,0,0,0,73,76,126,110,78,119.84,120,-21.00,-35.00,-1037.00
2024-06-07 00:00:56.573821,0,0,138,0,0,0,73,76,126,110,78,119.85,120,-11.00,9.00,-960.00
2024-06-07 00:00:56.721664,0,0,144,0,0,0,73,76,126,110,78,119.82,120,-22.00,-28.00,-1007.00
2024-06-07 00:00:56.778255,0,0,150,0,0,0,73,76,126,110,78,119.82,120,-15.00,4.00,-1047.00
2024-06-07 00:00:56.926643,0,0,156,0,0,0,73,76,126,110,78,119.89,121,-22.00,-23.00,-977.00
2024-06-07 00:00:56.982718,0,0,162,0,0,0,73,76,126,110,78,119.94,121,-13.00,23.00,-988.00
2024-06-07 00:00:57.133228,0,0,168,0,0,0,73,76,126,110,78,119.84,121,-15.00,-15.00,-1068.00
2024-06-07 00:00:57.135018,0,0,174,0,0,0,73,76,127,110,78,119.86,121,-10.00,27.00,-969.00
2024-06-07 00:00:57.337749,0,0,-179,0,0,0,73,76,127,110,78,119.89,121,-26.00,9.00,-1052.00
2024-06-07 00:00:57.338735,0,0,-173,0,0,0,73,76,126,110,78,119.92,121,-16.00,-8.00,-966.00
2024-06-07 00:00:57.440965,0,0,-167,0,0,0,73,76,126,110,78,119.89,121,-20.00,0.00,-983.00
2024-06-07 00:00:57.542756,0,0,-161,0,0,0,73,76,127,110,78,119.89,121,-16.00,4.00,-992.00
2024-06-07 00:00:57.644969,0,0,-155,0,0,0,73,76,127,110,78,119.85,121,-28.00,12.00,-1026.00
2024-06-07 00:00:57.746743,0,0,-149,0,0,0,73,76,127,110,78,119.88,121,-2.00,0.00,-993.00
2024-06-07 00:00:57.848717,0,0,-143,0,0,0,73,76,127,110,78,119.89,122,-22.00,17.00,-1009.00
2024-06-07 00:00:57.951994,0,0,-137,0,0,0,73,76,127,110,78,119.90,122,-16.00,-18.00,-1006.00
2024-06-07 00:00:58.052773,0,0,-131,0,0,0,73,76,127,110,78,119.93,122,-17.00,10.00,-986.00
2024-06-07 00:00:58.155230,0,0,-125,0,0,0,73,76,127,110,78,119.86,122,-21.00,0.00,-1022.00
2024-06-07 00:00:58.257111,0,0,-119,0,0,0,73,76,128,110,78,119.85,122,-26.00,-3.00,-963.00
2024-06-07 00:00:58.359958,0,0,-113,0,0,0,73,76,128,110,78,119.89,122,-13.00,24.00,-992.00
2024-06-07 00:00:58.462363,0,0,-107,0,0,0,73,76,128,110,78,119.91,122,-3.00,8.00,-1028.00
2024-06-07 00:00:58.564794,0,0,-101,0,0,0,73,76,128,110,78,119.95,122,0.00,-24.00,-1012.00
2024-06-07 00:00:58.667878,0,0,-94,0,0,0,73,76,128,110,77,119.85,122,-19.00,-13.00,-934.00
2024-06-07 00:00:58.769583,0,0,-88,0,0,0,73,76,129,110,77,119.89,122,-10.00,9.00,-975.00
2024-06-07 00:00:58.868692,0,0,-82,0,0,0,73,76,129,110,77,119.90,123,-8.00,16.00,-1030.00
2024-06-07 00:00:58.974381,0,0,-76,0,0,0,73,76,129,110,77,119.89,123,-14.00,-2.00,-1010.00
2024-06-07 00:00:59.076917,0,0,-70,0,0,0,73,76,128,110,77,119.91,123,-17.00,-14.00,-955.00
2024-06-07 00:00:59.174610,0,0,-64,0,0,0,73,76,129,110,77,119.91,123,-3.00,-17.00,-1004.00
2024-06-07 00:00:59.283188,0,0,-58,0,0,0,73,76,128,110,77,119.85,123,-14.00,4.00,-997.00
2024-06-07 00:00:59.378587,0,0,-52,0,0,0,73,76,128,110,77,119.87,123,-19.00,-9.00,-948.00
2024-06-07 00:00:59.486335,0,0,-46,0,0,0,73,76,128,110,77,119.88,123,-6.00,-6.00,-977.00
2024-06-07 00:00:59.583467,0,0,-40,0,0,0,73,76,128,110,77,119.92,123,-14.00,-3.00,-1008.00
2024-06-07 00:00:59.691037,0,0,-34,0,0,0,73,76,128,110,77,119.86,123,-11.00,-17.00,-981.00
2024-06-07 00:00:59.786639,0,0,-28,0,0,0,73,76,128,110,77,119.86,123,-11.00,15.00,-1010.00
2024-06-07 00:00:59.895444,0,0,-22,0,0,0,73,76,127,110,77,119.81,124,-20.00,18.00,-990.00
2024-06-07 00:00:59.990508,0,0,-17,0,0,0,73,76,128,110,77,119.83,124,3.00,23.00,-1034.00
2024-06-07 00:01:00.100780,0,0,-13,0,0,0,73,76,128,110,77,119.84,124,-8.00,-21.00,-1030.00
2024-06-07 00:01:00.194490,0,0,-10,0,0,0,73,76,128,110,77,119.87,124,-7.00,16.00,-985.00
2024-06-07 00:01:00.307755,0,0,-7,0,0,0,73,76,128,110,77,119.81,124,-10.00,-31.00,-1020.00
2024-06-07 00:01:00.399637,0,0,-6,0,0,0,73,76,128,110,77,119.81,124,-9.00,4.00,-1028.00
2024-06-07 00:01:00.512341,0,0,-4,0,0,0,73,76,127,110,77,119.84,124,-10.00,22.00,-990.00
2024-06-07 00:01:00.602689,0,0,-3,0,0,0,73,76,127,110,77,119.81,124,-3.00,4.00,-1051.00
2024-06-07 00:01:00.715198,0,0,-2,0,0,0,73,76,127,110,77,119.82,124,-1.00,-6.00,-1044.00
2024-06-07 00:01:00.806971,0,0,-2,0,0,0,73,76,127,110,77,119.76,124,-11.00,-11.00,-1028.00
2024-06-07 00:01:00.909159,0,0,-2,0,0,0,73,76,127,110,77,119.77,125,0.00,14.00,-1002.00
2024-06-07 00:01:01.022653,0,0,-2,0,0,0,73,76,126,110,77,119.77,125,-2.00,11.00,-970.00
2024-06-07 00:01:01.113011,0,0,-2,0,0,0,73,76,127,110,77,119.85,125,-9.00,32.00,-999.00
2024-06-07 00:01:01.226882,0,0,-2,0,0,0,73,76,127,110,77,119.75,125,-10.00,2.00,-971.00
2024-06-07 00:01:01.316720,0,0,-2,0,0,0,73,76,128,110,77,119.85,125,-13.00,-1.00,-970.00
2024-06-07 00:01:01.435114,0,0,-2,0,0,0,73,76,127,110,77,119.81,125,-3.00,-5.00,-954.00
2024-06-07 00:01:01.520476,0,0,-2,0,0,0,73,76,127,110,77,119.82,125,-17.00,1.00,-986.00
2024-06-07 00:01:01.636472,0,0,-2,0,0,0,73,76,127,110,77,119.80,125,-8.00,-2.00,-913.00
2024-06-07 00:01:01.724559,0,0,-1,0,0,0,73,76,128,110,77,119.81,125,-16.00,-10.00,-924.00
2024-06-07 00:01:01.844242,0,0,-1,0,0,0,73,76,128,110,77,119.82,125,-22.00,-37.00,-979.00
2024-06-07 00:01:01.879214,0,0,-1,0,0,0,73,76,128,110,77,119.81,126,-15.00,-23.00,-1023.00
2024-06-07 00:01:01.979632,0,0,-1,0,0,0,73,76,127,110,77,119.76,126,9.00,18.00,-1022.00
2024-06-07 00:01:02.088965,0,0,-1,0,0,0,73,76,128,110,77,119.83,126,-10.00,-23.00,-959.00
2024-06-07 00:01:02.186032,0,0,-1,0,0,0,73,76,128,110,77,119.81,126,2.00,-22.00,-1004.00
2024-06-07 00:01:02.286019,0,0,-1,0,0,0,73,76,127,110,77,119.84,126,-4.00,2.00,-1030.00
2024-06-07 00:01:02.458515,0,0,-2,0,0,0,73,76,128,110,77,119.82,126,-15.00,5.00,-969.00
2024-06-07 00:01:02.489426,0,0,-1,0,0,0,73,76,128,110,77,119.76,126,3.00,11.00,-1011.00
2024-06-07 00:01:02.661244,0,0,-1,0,0,0,73,76,128,110,77,119.79,126,-15.00,-20.00,-954.00
2024-06-07 00:01:02.693441,0,0,-1,0,0,0,73,76,127,110,77,119.76,126,-21.00,-30.00,-994.00
2024-06-07 00:01:02.811362,0,0,-2,0,0,0,73,76,127,110,77,119.83,126,-13.00,28.00,-996.00
2024-06-07 00:01:02.897221,0,0,-2,0,0,0,73,76,127,110,77,119.81,127,-23.00,-26.00,-997.00
2024-06-07 00:01:03.072108,0,0,-6,0,0,0,73,76,127,110,77,119.83,127,-18.00,-8.00,-965.00
2024-06-07 00:01:03.101316,0,0,-12,0,0,0,73,76,127,110,77,119.80,127,0.00,13.00,-1041.00
2024-06-07 00:01:03.275036,0,0,-18,0,0,0,73,76,127,110,77,119.78,127,7.00,-6.00,-1014.00
2024-06-07 00:01:03.305225,0,0,-24,0,0,0,73,76,128,110,77,119.79,127,-24.00,-13.00,-947.00
2024-06-07 00:01:03.481360,0,0,-30,0,0,0,73,76,127,110,77,119.79,127,-17.00,-1.00,-940.00
2024-06-07 00:01:03.509673,0,0,-36,0,0,0,73,75,128,110,77,119.82,127,-21.00,-6.00,-963.00
2024-06-07 00:01:03.686130,0,0,-42,0,0,0,73,75,127,110,77,119.82,127,-6.00,13.00,-1019.00
2024-06-07 00:01:03.713200,0,0,-48,0,0,0,73,75,128,110,77,119.81,127,-10.00,18.00,-1013.00
2024-06-07 00:01:03.815773,0,0,-54,0,0,0,73,75,127,110,77,119.85,127,-5.00,24.00,-970.00
2024-06-07 00:01:03.917547,0,0,-60,0,0,0,73,75,128,110,77,119.74,128,-14.00,7.00,-980.00
2024-06-07 00:01:04.095714,0,0,-66,0,0,0,73,75,127,110,77,119.80,128,-14.00,5.00,-987.00
2024-06-07 00:01:04.121134,0,0,-72,0,0,0,73,75,127,110,77,119.84,128,0.00,9.00,-1032.00
2024-06-07 00:01:04.301160,0,0,-78,0,0,0,73,75,127,110,77,119.81,128,0.00,15.00,-977.00
2024-06-07 00:01:04.325113,0,0,-84,0,0,0,73,75,127,110,77,119.88,128,-10.00,-8.00,-956.00
2024-06-07 00:01:04.503343,0,0,-90,0,0,0,73,75,127,110,77,119.79,128,-7.00,-10.00,-1013.00
2024-06-07 00:01:04.529081,0,0,-96,0,0,0,74,76,127,110,77,119.86,128,-5.00,-26.00,-1056.00
2024-06-07 00:01:04.708679,0,0,-102,0,0,0,74,76,127,110,77,119.86,128,-12.00,-30.00,-992.00
2024-06-07 00:01:04.733062,0,0,-109,0,0,0,74,76,127,110,77,119.81,128,-18.00,-16.00,-1025.00
2024-06-07 00:01:04.913023,0,0,-115,0,0,0,74,76,128,110,77,119.86,128,-11.00,-32.00,-993.00
2024-06-07 00:01:04.938083,0,0,-121,0,0,0,74,76,127,110,77,119.78,129,-20.00,-5.00,-987.00
2024-06-07 00:01:05.118095,0,0,-127,0,0,0,74,76,127,110,77,119.82,129,-13.00,7.00,-1046.00
2024-06-07 00:01:05.145180,0,0,-133,0,0,0,74,76,127,110,77,119.81,129,-9.00,-14.00,-979.00
2024-06-07 00:01:05.245514,0,0,-139,0,0,0,74,76,127,110,77,119.86,129,-18.00,3.00,-975.00
2024-06-07 00:01:05.345959,0,0,-145,0,0,0,74,76,127,110,77,119.82,129,-15.00,-9.00,-1036.00
2024-06-07 00:01:05.397410,0,0,-151,0,0,0,74,76,127,110,77,119.78,129,-10.00,-14.00,-1034.00
2024-06-07 00:01:05.550042,0,0,-157,0,0,0,73,76,127,110,77,119.80,129,-12.00,26.00,-1025.00
2024-06-07 00:01:05.735980,0,0,-163,0,0,0,73,76,127,110,77,119.79,129,-15.00,12.00,-987.00
2024-06-07 00:01:05.736018,0,0,-169,0,0,0,73,76,128,110,77,119.91,129,-12.00,11.00,-1006.00
2024-06-07 00:01:05.805599,0,0,-175,0,0,0,73,76,127,110,77,119.79,129,-20.00,-9.00,-993.00
2024-06-07 00:01:05.938457,0,0,178,0,0,0,73,76,127,110,77,119.82,130,-8.00,-14.00,-1014.00
2024-06-07 00:01:06.008948,0,0,172,0,0,0,73,76,127,110,77,119.79,130,-22.00,1.00,-942.00
2024-06-07 00:01:06.142369,0,0,165,0,0,0,73,76,128,110,77,119.80,130,-5.00,14.00,-1013.00
2024-06-07 00:01:06.213331,0,0,159,0,0,0,73,76,128,110,77,119.81,130,-6.00,-28.00,-1032.00
2024-06-07 00:01:06.349450,0,0,153,0,0,0,73,76,128,110,77,119.83,130,-10.00,-41.00,-1026.00
2024-06-07 00:01:06.417797,0,0,147,0,0,0,73,76,128,110,77,119.83,130,-9.00,-28.00,-990.00
2024-06-07 00:01:06.551729,0,0,141,0,0,0,73,76,128,110,77,119.81,130,-10.00,-13.00,-999.00
2024-06-07 00:01:06.623231,0,0,135,0,0,0,73,76,128,110,77,119.85,130,-15.00,6.00,-973.00
2024-06-07 00:01:06.722885,0,0,129,0,0,0,73,76,128,110,77,119.83,130,-7.00,2.00,-976.00
2024-06-07 00:01:06.826246,0,0,123,0,0,0,73,76,128,110,77,119.81,130,-20.00,24.00,-987.00
2024-06-07 00:01:06.962882,0,0,117,0,0,0,73,76,128,110,77,119.83,131,-15.00,-5.00,-1005.00
2024-06-07 00:01:07.094069,0,0,111,0,0,0,73,76,128,110,77,119.83,131,-14.00,1.00,-1004.00
2024-06-07 00:01:07.176916,0,0,105,0,0,0,73,76,128,110,77,119.81,131,-6.00,14.00,-1040.00
2024-06-07 00:01:07.257389,0,0,99,0,0,0,73,76,128,110,77,119.82,131,-13.00,20.00,-1037.00
2024-06-07 00:01:07.335277,0,0,93,0,0,0,73,76,128,110,77,119.84,131,0.00,1.00,-1060.00
2024-06-07 00:01:07.475252,0,0,87,0,0,0,73,76,129,110,77,119.81,131,-8.00,-33.00,-1022.00
2024-06-07 00:01:07.780479,0,0,81,0,0,0,74,76,128,110,77,119.84,131,-12.00,-21.00,-1033.00
2024-06-07 00:01:07.809820,0,0,75,0,0,0,74,76,128,110,76,119.80,131,-15.00,-9.00,-949.00
2024-06-07 00:01:07.809990,0,0,69,0,0,0,74,76,128,110,76,119.84,131,-10.00,12.00,-1009.00
2024-06-07 00:01:07.953780,0,0,63,0,0,0,74,76,129,110,76,119.84,131,-12.00,-11.00,-1063.00
2024-06-07 00:01:07.954233,0,0,57,0,0,0,74,76,129,110,76,119.84,132,-22.00,-10.00,-958.00
2024-06-07 00:01:08.049937,0,0,51,0,0,0,74,76,129,110,76,119.83,132,-11.00,3.00,-1014.00
2024-06-07 00:01:08.204398,0,0,44,0,0,0,74,76,129,110,76,119.86,132,-9.00,-8.00,-1029.00
2024-06-07 00:01:08.346272,0,0,38,0,0,0,74,76,129,110,76,119.84,132,-24.00,0.00,-940.00
2024-06-07 00:01:08.356461,0,0,32,0,0,0,74,76,129,110,76,119.82,132,-17.00,-27.00,-1041.00
2024-06-07 00:01:08.507688,0,0,26,0,0,0,74,76,129,110,76,119.85,132,-15.00,-10.00,-967.00
2024-06-07 00:01:08.651083,0,0,20,0,0,0,74,75,130,110,76,119.81,132,0.00,-10.00,-1047.00
2024-06-07 00:01:08.662157,0,0,15,0,0,0,74,75,130,110,76,119.83,132,-5.00,-44.00,-998.00
2024-06-07 00:01:08.815074,0,0,11,0,0,0,74,75,130,110,76,119.86,132,0.00,20.00,-976.00
2024-06-07 00:01:08.958203,0,0,8,0,0,0,74,75,130,110,76,119.81,132,-14.00,-6.00,-972.00
2024-06-07 00:01:08.969689,0,0,5,0,0,0,74,75,129,110,76,119.81,133,0.00,-5.00,-946.00
2024-06-07 00:01:09.146372,0,0,3,0,0,0,74,75,129,110,76,119.84,133,-8.00,23.00,-963.00
2024-06-07 00:01:09.270176,0,0,2,0,0,0,74,75,128,110,76,119.81,133,-3.00,-18.00,-1012.00
2024-06-07 00:01:09.270333,0,0,1,0,0,0,74,75,128,110,76,119.80,133,-5.00,-23.00,-1035.00
2024-06-07 00:01:09.429363,0,0,0,0,0,0,74,75,128,110,76,119.81,133,-7.00,-21.00,-1042.00
2024-06-07 00:01:09.429410,0,0,0,0,0,0,74,75,128,110,76,119.84,133,-6.00,-7.00,-1069.00
2024-06-07 00:01:09.624958,0,1,0,0,0,0,73,75,129,110,76,119.81,133,-18.00,-7.00,-931.00
2024-06-07 00:01:09.736638,0,0,0,0,0,0,73,75,129,110,76,119.83,133,-9.00,1.00,-978.00
2024-06-07 00:01:09.738030,0,0,0,0,0,0,73,75,129,110,76,119.80,133,-11.00,10.00,-1002.00
2024-06-07 00:01:09.843704,0,0,0,0,0,0,73,75,129,110,76,119.76,134,-2.00,-34.00,-1001.00
2024-06-07 00:01:09.936526,0,0,0,0,0,0,73,75,130,110,76,119.78,134,-13.00,2.00,-1003.00
2024-06-07 00:01:10.135933,0,0,0,0,0,0,73,75,130,110,76,119.78,134,-22.00,1.00,-1002.00
2024-06-07 00:01:10.140734,0,0,0,0,0,0,73,75,129,110,76,119.79,134,-5.00,-10.00,-996.00
2024-06-07 00:01:10.340850,0,0,0,0,0,0,73,75,129,110,76,119.81,134,-4.00,4.00,-952.00
2024-06-07 00:01:10.344681,0,0,0,0,0,0,73,75,129,110,76,119.84,134,-8.00,-4.00,-982.00
2024-06-07 00:01:10.446729,0,0,0,0,0,0,73,75,128,110,76,119.79,134,-6.00,-37.00,-1023.00
2024-06-07 00:01:10.649583,0,0,0,0,0,0,73,76,128,110,76,119.80,134,-1.00,0.00,-1014.00
2024-06-07 00:01:10.650689,0,0,0,0,0,0,73,76,127,110,76,119.75,134,-16.00,8.00,-1044.00
2024-06-07 00:01:10.752753,0,0,0,0,0,0,73,76,126,110,76,119.78,134,-15.00,-5.00,-1000.00
2024-06-07 00:01:10.856391,0,-1,0,0,0,0,73,76,126,110,76,119.81,135,-12.00,-14.00,-974.00
2024-06-07 00:01:10.957754,0,-1,0,0,0,0,73,76,125,110,76,119.81,135,-5.00,11.00,-1056.00
2024-06-07 00:01:11.061235,0,0,0,0,0,0,73,76,125,110,76,119.80,135,-9.00,-27.00,-1012.00
2024-06-07 00:01:11.162042,0,0,0,0,0,0,73,76,124,110,76,119.82,135,-12.00,3.00,-987.00
2024-06-07 00:01:11.264912,0,0,0,0,0,0,73,76,124,110,76,119.77,135,0.00,-7.00,-1047.00
2024-06-07 00:01:11.365788,0,0,0,0,0,0,73,76,124,110,76,119.73,135,-12.00,-30.00,-978.00
2024-06-07 00:01:11.467683,0,0,0,0,0,0,73,76,125,110,76,119.77,135,-16.00,31.00,-1019.00
2024-06-07 00:01:11.570085,0,0,0,0,0,-1,73,76,125,110,76,119.80,135,-1.00,12.00,-1165.00
2024-06-07 00:01:11.671691,0,0,-1,0,0,-8,73,76,128,110,76,119.93,135,-17.00,-39.00,-1784.00
2024-06-07 00:01:11.773953,-3,-55,-3,0,-2,-13,73,76,148,120,76,120.09,135,-33.00,230.00,-1266.00
2024-06-07 00:01:11.876148,0,-176,7,0,-11,-3,73,76,262,130,76,120.34,136,-54.00,507.00,-1158.00
2024-06-07 00:01:11.978183,8,64,-5,0,-8,10,73,76,233,130,76,120.47,136,-64.00,400.00,-897.00
2024-06-07 00:01:12.081294,0,-1,-10,0,-3,10,73,76,145,120,76,120.10,136,-48.00,-30.00,-1479.00
2024-06-07 00:01:12.183353,0,1,-10,0,-3,7,73,76,130,110,76,119.83,136,1.00,-8.00,-1406.00
2024-06-07 00:01:12.286082,0,2,-4,0,-3,3,73,76,125,100,76,119.71,136,-16.00,-68.00,-1359.00
2024-06-07 00:01:12.388553,0,2,0,0,-2,1,73,76,123,100,76,119.69,136,-24.00,27.00,-1208.00
2024-06-07 00:01:12.491065,0,1,0,0,-2,0,73,76,121,100,76,119.71,136,-18.00,8.00,-1113.00
2024-06-07 00:01:12.589621,0,1,0,0,-1,0,73,76,122,100,76,119.75,136,-11.00,5.00,-1016.00
2024-06-07 00:01:12.700132,0,0,0,0,-1,0,73,76,123,100,76,119.71,136,1.00,-4.00,-1084.00
2024-06-07 00:01:12.793485,0,0,0,0,-1,0,73,76,126,100,76,119.70,136,-11.00,23.00,-1034.00
2024-06-07 00:01:12.895591,0,1,0,0,-1,0,73,76,127,100,76,119.79,137,0.00,-1.00,-1025.00
2024-06-07 00:01:13.004920,0,2,0,0,0,0,73,76,128,100,76,119.88,137,-4.00,-22.00,-947.00
2024-06-07 00:01:13.099534,0,1,0,0,0,0,73,76,128,110,76,119.79,137,-4.00,25.00,-961.00
2024-06-07 00:01:13.207482,0,1,0,0,0,0,73,76,129,110,76,119.77,137,-14.00,-11.00,-945.00
2024-06-07 00:01:13.303418,0,1,0,0,0,0,73,76,129,110,76,119.81,137,0.00,-1.00,-1042.00
2024-06-07 00:01:13.354323,0,1,0,0,0,0,73,76,129,110,76,119.79,137,-12.00,-3.00,-1026.00
2024-06-07 00:01:13.514940,0,1,0,0,0,0,73,76,130,110,76,119.81,137,-1.00,-10.00,-1061.00
2024-06-07 00:01:13.558357,0,1,0,0,0,0,74,76,131,110,76,119.79,137,-21.00,-12.00,-974.00
2024-06-07 00:01:13.720933,0,1,0,0,0,0,74,76,131,110,75,119.86,137,-13.00,22.00,-1000.00
2024-06-07 00:01:13.762277,0,1,0,0,0,0,74,76,131,110,75,119.86,137,-8.00,27.00,-1013.00
2024-06-07 00:01:13.925485,0,0,0,0,0,0,74,76,131,110,75,119.78,138,-14.00,1.00,-1020.00
2024-06-07 00:01:13.966327,0,0,0,0,0,0,74,76,130,110,75,119.75,138,-14.00,-28.00,-979.00
2024-06-07 00:01:14.129378,0,0,0,0,0,0,74,76,129,110,75,119.78,138,-32.00,25.00,-961.00
2024-06-07 00:01:14.170771,0,0,0,0,0,0,74,76,128,110,75,119.73,138,-17.00,9.00,-995.00
2024-06-07 00:01:14.333990,0,0,0,0,0,0,74,76,128,110,75,119.72,138,-26.00,31.00,-1008.00
2024-06-07 00:01:14.374336,-1,0,0,0,0,0,74,76,127,110,75,119.79,138,-24.00,-3.00,-1014.00
2024-06-07 00:01:14.476360,-1,0,0,0,0,0,74,76,126,110,75,119.80,138,-7.00,-23.00,-970.00
2024-06-07 00:01:14.578526,0,0,0,0,0,0,73,76,125,110,75,119.78,138,-16.00,-18.00,-983.00
2024-06-07 00:01:14.680897,0,1,0,0,0,0,73,76,124,110,75,119.75,138,-13.00,6.00,-963.00
2024-06-07 00:01:14.783213,0,2,0,0,0,0,73,76,123,100,75,119.76,138,-22.00,-40.00,-1051.00
2024-06-07 00:01:14.888797,0,2,0,0,0,0,73,76,123,100,75,119.73,139,-25.00,27.00,-1033.00
2024-06-07 00:01:14.988696,0,1,0,0,0,0,73,76,122,100,75,119.75,139,-18.00,13.00,-1025.00
2024-06-07 00:01:15.090921,0,1,0,0,0,0,73,76,122,100,75,119.75,139,-15.00,-16.00,-1020.00
2024-06-07 00:01:15.195749,0,1,0,0,0,0,73,76,122,100,75,119.71,139,-14.00,14.00,-988.00
2024-06-07 00:01:15.299608,0,1,0,0,0,0,73,76,122,100,75,119.69,139,-20.00,-12.00,-1041.00
2024-06-07 00:01:15.398863,0,0,0,0,0,0,73,76,122,100,75,119.71,139,-14.00,-6.00,-974.00
2024-06-07 00:01:15.498048,0,0,0,0,0,0,73,76,123,100,75,119.77,139,-3.00,19.00,-1032.00
2024-06-07 00:01:15.598485,0,0,0,0,0,0,73,77,123,100,74,119.71,139,-7.00,4.00,-1061.00
2024-06-07 00:01:15.700748,0,0,0,0,0,0,73,77,124,100,74,119.80,139,-7.00,-14.00,-1040.00
2024-06-07 00:01:15.870419,0,0,0,0,0,0,73,77,125,100,74,119.75,139,-17.00,7.00,-992.00
2024-06-07 00:01:15.905607,0,0,0,0,0,0,73,77,126,100,74,119.79,140,-12.00,-2.00,-1007.00
2024-06-07 00:01:16.077493,0,0,0,0,0,0,73,77,126,100,74,119.83,140,-12.00,6.00,-997.00
2024-06-07 00:01:16.109221,0,0,0,0,0,0,73,77,128,110,74,119.74,140,-8.00,1.00,-1020.00
2024-06-07 00:01:16.281502,0,0,0,0,0,0,73,77,129,110,74,119.78,140,-5.00,-7.00,-981.00
2024-06-07 00:01:16.312145,0,0,0,0,0,0,73,77,130,110,74,119.74,140,-26.00,25.00,-978.00
2024-06-07 00:01:16.487200,0,0,0,0,0,0,73,77,130,110,74,119.83,140,-19.00,-1.00,-960.00
2024-06-07 00:01:16.516140,0,0,0,0,0,0,73,77,131,110,74,119.83,140,-10.00,14.00,-992.00
2024-06-07 00:01:16.689451,0,0,0,0,0,0,74,76,132,110,74,119.84,140,-14.00,-11.00,-957.00
2024-06-07 00:01:16.724332,0,0,0,0,0,0,74,76,133,110,74,119.79,140,-13.00,28.00,-971.00
2024-06-07 00:01:16.823602,0,0,0,0,0,0,74,76,133,110,74,119.85,140,-10.00,14.00,-978.00
2024-06-07 00:01:16.924155,0,0,0,0,0,0,74,76,133,110,74,119.81,141,-19.00,-11.00,-984.00
2024-06-07 00:01:17.101450,0,0,0,0,0,0,74,76,134,110,74,119.84,141,-16.00,4.00,-971.00
2024-06-07 00:01:17.128451,0,0,0,0,0,0,74,76,134,110,74,119.78,141,-26.00,28.00,-973.00
2024-06-07 00:01:17.305569,0,0,0,0,0,0,74,76,134,110,74,119.82,141,-8.00,12.00,-1025.00
2024-06-07 00:01:17.306455,0,0,0,0,0,0,74,76,134,110,74,119.86,141,-9.00,-11.00,-1036.00
2024-06-07 00:01:17.383886,0,0,0,0,0,0,74,76,134,110,74,119.86,141,-17.00,-3.00,-935.00
2024-06-07 00:01:17.508090,0,0,0,0,0,0,74,76,134,110,74,119.85,141,-12.00,26.00,-1000.00
2024-06-07 00:01:17.638528,0,0,0,0,0,0,74,76,134,110,74,119.88,141,-9.00,-12.00,-1021.00
2024-06-07 00:01:17.815252,0,0,0,0,0,0,74,76,133,110,74,119.83,141,-12.00,7.00,-961.00
2024-06-07 00:01:17.815905,0,0,0,0,0,0,74,76,134,110,74,119.83,141,-7.00,10.00,-1027.00
2024-06-07 00:01:17.897679,0,0,0,0,0,0,74,76,134,110,74,119.86,142,-14.00,-5.00,-1013.00
2024-06-07 00:01:17.997941,0,0,0,0,0,0,74,76,134,110,74,119.85,142,-15.00,29.00,-993.00
2024-06-07 00:01:18.098610,0,0,0,0,0,0,74,76,134,110,74,119.92,142,-4.00,-15.00,-1050.00
2024-06-07 00:01:18.198922,0,0,0,0,0,0,74,76,135,110,74,119.99,142,-6.00,-32.00,-1508.00
2024-06-07 00:01:18.301140,0,0,-1,0,0,-6,74,76,141,110,74,120.00,142,17.00,-15.00,-1830.00
2024-06-07 00:01:18.431412,1,36,-3,0,2,-13,74,76,191,120,74,120.24,142,-51.00,191.00,-1715.00
2024-06-07 00:01:18.508134,3,150,2,0,10,-6,74,76,165,140,74,120.25,142,-69.00,692.00,-1040.00
2024-06-07 00:01:18.611860,-4,-88,0,0,8,8,74,77,417,140,74,120.45,142,-52.00,590.00,-1213.00
2024-06-07 00:01:18.712397,0,-1,-5,0,3,11,74,77,150,130,74,119.98,142,-61.00,672.00,-866.00
2024-06-07 00:01:18.813634,0,0,-8,0,4,7,74,77,141,120,74,119.86,142,-68.00,626.00,-1064.00
2024-06-07 00:01:18.917230,0,-2,-10,0,3,3,74,77,137,110,74,119.81,143,13.00,2.00,-1295.00
2024-06-07 00:01:19.014929,0,-2,-4,0,3,1,74,77,135,110,74,119.83,143,0.00,-17.00,-1459.00
2024-06-07 00:01:19.148217,0,-1,0,0,2,0,74,77,134,110,74,119.85,143,33.00,-51.00,-1166.00
2024-06-07 00:01:19.218825,0,-1,0,0,2,0,74,77,134,110,74,119.79,143,-31.00,11.00,-1148.00
2024-06-07 00:01:19.351409,0,0,0,0,1,0,74,77,135,110,74,119.84,143,11.00,-1.00,-1143.00
2024-06-07 00:01:19.422890,0,0,0,0,1,0,74,77,136,110,74,119.88,143,9.00,-12.00,-1043.00
2024-06-07 00:01:19.555467,0,0,0,0,0,0,74,77,136,110,74,119.90,143,-8.00,4.00,-973.00
2024-06-07 00:01:19.626783,0,-2,0,0,0,0,74,77,137,110,74,119.82,143,-14.00,-33.00,-979.00
2024-06-07 00:01:19.763224,0,-1,0,0,0,0,74,77,136,110,74,119.78,143,-9.00,-17.00,-995.00
2024-06-07 00:01:19.832837,0,0,0,0,0,0,74,77,136,110,74,119.87,143,-13.00,-1.00,-987.00
2024-06-07 00:01:19.932760,0,0,0,0,0,0,74,77,135,110,74,119.89,144,-21.00,-25.00,-931.00
2024-06-07 00:01:20.068226,0,0,0,0,0,0,74,77,135,110,74,119.87,144,7.00,26.00,-989.00
2024-06-07 00:01:20.137086,0,0,0,0,0,0,74,77,134,110,74,119.78,144,1.00,-37.00,-1044.00
2024-06-07 00:01:20.274554,0,0,0,0,0,0,74,77,134,110,74,119.84,144,-2.00,-5.00,-1004.00
2024-06-07 00:01:20.340787,0,0,0,0,0,0,74,77,133,110,74,119.82,144,-5.00,-19.00,-1021.00
2024-06-07 00:01:20.477762,0,0,0,0,0,0,74,77,133,110,74,119.84,144,-13.00,-12.00,-988.00
2024-06-07 00:01:20.544736,0,0,0,0,0,0,74,77,132,110,74,119.81,144,5.00,-8.00,-1082.00
2024-06-07 00:01:20.682580,0,0,0,0,0,0,73,77,131,110,74,119.83,144,13.00,-1.00,-1010.00
2024-06-07 00:01:20.748687,0,0,0,0,0,0,73,77,132,110,74,119.85,144,9.00,-18.00,-1042.00
2024-06-07 00:01:20.886605,0,0,0,0,0,0,73,77,131,110,74,119.88,144,-1.00,-30.00,-1016.00
2024-06-07 00:01:20.952684,0,0,0,0,0,0,73,77,131,110,74,119.81,145,-4.00,-22.00,-995.00
2024-06-07 00:01:21.091618,0,0,0,0,0,0,73,77,131,110,74,119.84,145,-6.00,-7.00,-1011.00
2024-06-07 00:01:21.156764,0,0,0,0,0,0,73,77,131,110,74,119.82,145,-7.00,-2.00,-1035.00
2024-06-07 00:01:21.296884,0,0,0,0,0,0,73,77,131,110,74,119.82,145,-11.00,-24.00,-1008.00
2024-06-07 00:01:21.360636,0,0,0,0,0,0,73,77,131,110,74,119.85,145,1.00,-9.00,-969.00
2024-06-07 00:01:21.412010,0,0,0,0,0,0,73,77,130,110,74,119.84,145,-4.00,-39.00,-1024.00
2024-06-07 00:01:21.513647,0,0,0,0,0,0,73,77,131,110,74,119.86,145,-22.00,14.00,-969.00
2024-06-07 00:01:21.706409,0,0,0,0,0,0,75,77,130,110,73,119.84,145,0.00,-38.00,-1024.00
2024-06-07 00:01:21.717673,0,0,0,0,0,0,75,77,130,110,73,119.87,145,1.00,-8.00,-1008.00
2024-06-07 00:01:21.911706,0,0,0,0,0,0,75,77,130,110,73,119.91,145,3.00,-9.00,-1049.00
2024-06-07 00:01:21.923057,0,0,0,0,0,0,75,77,130,110,73,119.82,146,-9.00,4.00,-966.00
2024-06-07 00:01:22.118239,0,0,0,0,0,0,75,77,130,110,73,119.86,146,-12.00,-21.00,-1030.00
2024-06-07 00:01:22.219795,0,0,0,0,0,0,75,77,129,110,73,119.85,146,-14.00,-35.00,-1003.00
2024-06-07 00:01:22.335673,0,0,0,0,0,0,75,77,129,110,73,119.82,146,-6.00,0.00,-974.00
2024-06-07 00:01:22.336352,0,0,0,0,0,0,75,77,129,110,73,119.80,146,-1.00,9.00,-1027.00
2024-06-07 00:01:22.433547,0,0,0,0,0,0,75,77,130,110,73,119.81,146,-17.00,-33.00,-1004.00
2024-06-07 00:01:22.604157,0,0,0,0,0,0,75,77,130,110,73,119.81,146,-7.00,-9.00,-997.00
2024-06-07 00:01:22.670632,0,0,0,0,0,0,73,77,130,110,73,119.84,146,-8.00,-6.00,-1011.00
2024-06-07 00:01:22.770300,0,0,0,0,0,0,73,77,131,110,73,119.82,146,-9.00,-23.00,-962.00
2024-06-07 00:01:22.885793,0,0,0,0,0,0,73,77,131,110,73,119.78,146,0.00,10.00,-1033.00
2024-06-07 00:01:22.942833,0,0,0,0,0,0,73,77,132,110,73,119.77,147,-1.00,-11.00,-1050.00
2024-06-07 00:01:23.045262,0,0,0,0,0,0,73,77,132,110,73,119.84,147,-11.00,17.00,-941.00
2024-06-07 00:01:23.256261,0,0,0,0,0,0,73,77,132,110,73,119.81,147,-7.00,-17.00,-1024.00
2024-06-07 00:01:23.256443,0,0,0,0,0,0,73,77,133,110,73,119.84,147,-11.00,2.00,-995.00
2024-06-07 00:01:23.437571,0,0,0,0,0,0,73,77,133,110,73,119.84,147,-22.00,4.00,-950.00
2024-06-07 00:01:23.452523,0,0,0,0,0,0,73,77,134,110,73,119.75,147,-2.00,-5.00,-1076.00
2024-06-07 00:01:23.580912,0,0,0,0,0,0,73,77,134,110,73,119.81,147,8.00,20.00,-1010.00
2024-06-07 00:01:23.724280,0,0,0,0,0,0,74,76,135,110,73,119.76,147,-3.00,18.00,-1015.00
2024-06-07 00:01:23.868210,0,0,0,0,0,0,74,76,135,110,73,119.80,147,11.00,-11.00,-1004.00
2024-06-07 00:01:23.868374,0,0,0,0,0,0,74,76,136,110,73,119.79,148,-13.00,-17.00,-977.00
2024-06-07 00:01:24.011400,0,0,0,0,0,0,74,76,137,110,73,119.80,148,-13.00,-5.00,-961.00
2024-06-07 00:01:24.174331,0,0,0,0,0,0,74,76,137,110,73,119.84,148,-3.00,9.00,-1011.00
2024-06-07 00:01:24.174461,0,0,0,0,0,0,74,76,136,110,73,119.84,148,-4.00,-42.00,-943.00
