TS,pitch,roll,yaw,vgx,vgy,vgz,templ,temph,tof,h,bat,baro,time,agx,agy,agz
2024-06-07 00:02:09.330981,0,0,-4,0,0,0,77,80,10,0,71,118.43,166,-4.00,7.00,-999.00
2024-06-07 00:02:09.406777,0,0,-4,0,0,0,77,80,10,0,71,118.39,166,-5.00,5.00,-1000.00
2024-06-07 00:02:09.525054,0,0,-4,0,0,0,77,80,10,0,71,118.37,166,-4.00,6.00,-997.00
2024-06-07 00:02:09.610725,0,0,-4,0,0,0,77,80,10,0,71,118.36,166,-4.00,5.00,-999.00
2024-06-07 00:02:09.729817,0,0,-4,0,0,0,77,80,10,0,71,118.38,166,-5.00,7.00,-1000.00
2024-06-07 00:02:09.814426,0,0,-4,0,0,0,77,80,10,0,71,118.35,166,-3.00,7.00,-999.00
2024-06-07 00:02:09.934982,0,0,-4,0,0,0,77,80,10,0,71,118.39,166,-3.00,6.00,-1000.00
2024-06-07 00:02:10.019828,0,0,-4,0,0,0,77,80,10,0,71,118.37,166,-4.00,5.00,-1001.00
2024-06-07 00:02:10.139392,0,0,-4,0,0,0,77,80,10,0,71,118.37,166,-3.00,7.00,-999.00
2024-06-07 00:02:10.223189,0,0,-4,0,0,0,77,80,10,0,71,118.40,166,-6.00,8.00,-1001.00
2024-06-07 00:02:10.344356,0,0,-4,0,0,0,77,80,10,0,71,118.44,166,-4.00,7.00,-1001.00
2024-06-07 00:02:10.428514,0,0,-4,0,0,0,77,80,10,0,71,118.40,166,-7.00,7.00,-1002.00
2024-06-07 00:02:10.477630,0,0,-4,0,0,0,77,80,10,0,71,118.36,166,-5.00,5.00,-1000.00
2024-06-07 00:02:10.651325,0,0,-4,0,0,0,77,80,10,0,71,118.38,166,-4.00,8.00,-1000.00
2024-06-07 00:02:10.681424,0,0,-4,0,0,0,77,80,10,0,71,118.38,166,-4.00,7.00,-1003.00
2024-06-07 00:02:10.856288,0,0,-4,0,0,0,77,80,10,0,71,118.35,166,-3.00,8.00,-999.00
2024-06-07 00:02:10.885391,0,0,-4,0,0,0,78,79,10,0,71,118.40,166,-4.00,7.00,-999.00
2024-06-07 00:02:11.060858,0,0,-4,0,0,0,78,79,10,0,71,118.38,166,-4.00,6.00,-1002.00
2024-06-07 00:02:11.089394,0,0,-4,0,0,0,78,79,10,0,71,118.42,166,-6.00,6.00,-997.00
2024-06-07 00:02:11.191523,0,0,-4,0,0,0,78,79,10,0,71,118.36,166,-5.00,8.00,-1000.00
2024-06-07 00:02:11.368185,0,0,-4,0,0,0,78,79,10,0,71,118.37,166,-4.00,5.00,-1001.00
2024-06-07 00:02:11.395290,0,0,-4,0,0,0,78,79,10,0,71,118.42,166,-5.00,6.00,-997.00
2024-06-07 00:02:11.572836,0,0,-4,0,0,0,78,79,10,0,71,118.33,166,-4.00,4.00,-998.00
2024-06-07 00:02:11.599401,0,0,-4,0,0,0,78,79,10,0,71,118.42,166,-4.00,6.00,-998.00
2024-06-07 00:02:11.701378,0,0,-4,0,0,0,78,79,10,0,71,118.40,166,-3.00,7.00,-998.00
2024-06-07 00:02:11.879997,0,0,-4,0,0,0,78,79,10,0,71,118.40,166,-3.00,14.00,-999.00
2024-06-07 00:02:11.905741,0,0,-4,0,0,0,78,80,10,0,71,118.40,166,-8.00,-18.00,-1002.00
2024-06-07 00:02:12.084704,0,0,-4,0,0,0,78,80,10,0,71,118.40,166,-18.00,-7.00,-991.00
2024-06-07 00:02:12.109283,0,0,-3,0,0,0,78,80,10,0,71,118.40,166,-7.00,-49.00,-985.00
2024-06-07 00:02:12.211191,0,0,-3,0,0,0,78,80,10,0,71,118.40,166,-15.00,13.00,-1009.00
2024-06-07 00:02:12.395237,0,0,-4,0,0,0,78,80,10,0,71,118.40,166,-2.00,0.00,-1196.00
2024-06-07 00:02:12.415160,0,0,-4,0,0,-3,78,80,10,0,71,118.40,166,11.00,-17.00,-1394.00
2024-06-07 00:02:12.596987,0,0,-4,0,0,-6,78,80,14,0,71,118.40,167,8.00,0.00,-1114.00
2024-06-07 00:02:12.619173,0,0,-4,0,0,-7,78,80,21,0,71,118.75,167,-6.00,-7.00,-1042.00
2024-06-07 00:02:12.802831,0,0,-4,0,0,-7,78,80,29,10,71,118.81,167,5.00,20.00,-1010.00
2024-06-07 00:02:12.823480,0,0,-4,0,0,-7,78,80,35,20,71,118.85,167,-2.00,18.00,-974.00
2024-06-07 00:02:13.009547,0,0,-4,0,0,-7,77,80,44,20,71,118.98,167,-5.00,-1.00,-963.00
2024-06-07 00:02:13.027127,0,0,-4,0,0,-6,77,80,51,30,71,119.05,167,-2.00,10.00,-909.00
2024-06-07 00:02:13.214421,0,0,-4,0,0,-5,77,80,57,30,71,119.15,167,17.00,10.00,-883.00
2024-06-07 00:02:13.231442,0,0,-4,0,0,-3,77,80,62,40,71,119.11,167,-6.00,-33.00,-894.00
2024-06-07 00:02:13.415772,0,0,-4,0,0,-2,77,80,66,40,71,119.21,167,-13.00,13.00,-858.00
2024-06-07 00:02:13.434952,0,1,-4,0,0,-1,77,80,69,40,71,119.27,167,-7.00,-2.00,-908.00
2024-06-07 00:02:13.622375,0,1,-4,0,0,-1,77,80,72,50,71,119.26,168,-11.00,-20.00,-952.00
2024-06-07 00:02:13.639282,0,1,-4,0,0,0,77,80,75,50,71,119.26,168,2.00,0.00,-935.00
2024-06-07 00:02:13.828696,0,0,-4,0,0,0,77,80,77,50,71,119.25,168,5.00,10.00,-1019.00
2024-06-07 00:02:13.829083,0,0,-4,0,0,0,77,80,79,50,71,119.34,168,6.00,-12.00,-986.00
2024-06-07 00:02:13.945172,0,1,-4,0,0,0,79,81,81,50,71,119.33,168,0.00,-20.00,-986.00
2024-06-07 00:02:14.133961,0,1,-4,0,0,0,79,81,84,50,71,119.33,168,-5.00,-17.00,-1011.00
2024-06-07 00:02:14.134364,0,1,-4,0,0,0,79,81,85,50,71,119.41,168,-2.00,-21.00,-1010.00
2024-06-07 00:02:14.201596,0,0,-4,0,0,0,79,81,87,60,71,119.42,168,-7.00,-23.00,-936.00
2024-06-07 00:02:14.302127,0,0,-4,0,0,0,79,81,88,60,71,119.35,168,-3.00,-7.00,-958.00
2024-06-07 00:02:14.440022,0,0,-4,0,0,0,79,81,89,60,71,119.34,168,8.00,15.00,-1048.00
2024-06-07 00:02:14.506282,0,0,-4,0,0,0,79,81,89,60,71,119.36,169,0.00,-42.00,-974.00
2024-06-07 00:02:14.647583,0,0,-4,0,0,0,79,81,90,60,71,119.45,169,-11.00,-4.00,-937.00
2024-06-07 00:02:14.713321,0,0,-4,0,0,0,79,81,90,60,71,119.42,169,-17.00,-14.00,-996.00
2024-06-07 00:02:14.812082,0,0,-4,0,0,0,79,81,91,60,71,119.37,169,-19.00,-19.00,-919.00
2024-06-07 00:02:14.953248,0,0,-4,0,0,0,77,80,91,60,71,119.43,169,-19.00,-8.00,-930.00
2024-06-07 00:02:15.016240,0,0,-4,0,0,0,77,80,91,60,71,119.40,169,-21.00,-21.00,-949.00
2024-06-07 00:02:15.118118,0,0,-4,0,0,0,77,80,90,60,71,119.45,169,-7.00,-22.00,-975.00
2024-06-07 00:02:15.220256,0,0,-4,0,0,0,77,80,90,60,71,119.41,169,25.00,0.00,-1055.00
2024-06-07 00:02:15.364751,0,0,-4,0,0,0,77,80,90,60,71,119.37,169,1.00,0.00,-990.00
2024-06-07 00:02:15.424077,0,0,-4,0,0,0,77,80,89,60,71,119.33,169,-4.00,-16.00,-1040.00
2024-06-07 00:02:15.567621,0,0,-4,0,0,0,77,80,88,60,71,119.40,170,-37.00,-20.00,-926.00
2024-06-07 00:02:15.627934,0,0,-4,0,0,0,77,80,88,60,71,119.40,170,-12.00,-18.00,-1056.00
2024-06-07 00:02:15.772354,0,0,-4,0,0,0,77,80,87,60,71,119.42,170,-16.00,-35.00,-982.00
2024-06-07 00:02:15.832041,0,0,-4,0,0,0,77,80,87,60,71,119.33,170,-24.00,-2.00,-985.00
2024-06-07 00:02:15.934942,0,0,-4,0,0,0,78,80,85,60,71,119.43,170,-1.00,-13.00,-975.00
2024-06-07 00:02:16.081697,0,0,-4,0,0,0,78,80,85,60,71,119.37,170,0.00,5.00,-1020.00
2024-06-07 00:02:16.138077,0,0,-4,0,0,0,78,80,85,60,71,119.29,170,5.00,0.00,-1028.00
2024-06-07 00:02:16.282861,0,0,-4,0,0,0,78,80,84,60,71,119.36,170,-14.00,-1.00,-1000.00
2024-06-07 00:02:16.341930,0,0,-4,0,0,0,78,80,83,60,71,119.34,170,-12.00,-14.00,-980.00
2024-06-07 00:02:16.489171,0,0,-4,0,0,0,78,80,82,60,71,119.32,170,-9.00,0.00,-983.00
2024-06-07 00:02:16.545979,0,0,-4,0,0,0,78,80,82,60,71,119.37,171,-17.00,-23.00,-1018.00
2024-06-07 00:02:16.692548,0,0,-4,0,0,0,78,80,81,60,71,119.39,171,-3.00,0.00,-1045.00
2024-06-07 00:02:16.750192,0,0,-4,0,0,0,78,80,81,60,71,119.32,171,-39.00,-5.00,-928.00
2024-06-07 00:02:16.900685,0,0,-4,0,0,0,78,80,81,60,71,119.35,171,-23.00,3.00,-984.00
2024-06-07 00:02:16.953829,0,0,-4,0,0,0,78,80,80,60,71,119.32,171,-25.00,-17.00,-1001.00
2024-06-07 00:02:17.056991,0,0,-4,0,0,0,78,80,79,50,71,119.28,171,-8.00,-1.00,-992.00
2024-06-07 00:02:17.207533,-1,0,-4,0,0,0,78,80,80,50,71,119.35,171,-13.00,-25.00,-1030.00
2024-06-07 00:02:17.264011,0,0,-4,0,0,0,78,80,79,50,71,119.36,171,5.00,-7.00,-1053.00
2024-06-07 00:02:17.362847,0,0,-4,0,0,0,78,80,79,50,71,119.32,171,-35.00,-11.00,-958.00
2024-06-07 00:02:17.515056,0,0,-4,0,0,0,78,80,79,50,71,119.31,172,-28.00,-29.00,-1009.00
2024-06-07 00:02:17.566858,0,0,-4,0,0,0,78,80,79,50,71,119.32,172,-12.00,1.00,-974.00
2024-06-07 00:02:17.720388,0,0,-4,0,0,0,78,80,79,50,71,119.30,172,-37.00,-24.00,-955.00
2024-06-07 00:02:17.770714,0,0,-4,0,0,0,78,80,79,50,71,119.34,172,-4.00,0.00,-1014.00
2024-06-07 00:02:17.924276,-1,0,-4,0,0,0,78,80,79,50,71,119.34,172,-32.00,-3.00,-979.00
2024-06-07 00:02:17.974756,-1,0,-4,0,0,0,77,80,79,50,71,119.29,172,-3.00,7.00,-997.00
2024-06-07 00:02:18.076879,0,0,-4,0,0,0,77,80,79,50,71,119.30,172,-19.00,-17.00,-998.00
2024-06-07 00:02:18.129110,0,0,-4,0,0,0,77,80,79,50,71,119.33,172,-28.00,-32.00,-982.00
2024-06-07 00:02:18.231743,0,0,-4,0,0,0,77,80,79,50,71,119.32,172,-2.00,0.00,-990.00
2024-06-07 00:02:18.334065,0,0,-4,0,0,0,77,80,79,50,71,119.29,172,-14.00,-7.00,-997.00
2024-06-07 00:02:18.435599,0,0,-4,0,0,0,77,80,78,50,71,119.26,173,15.00,7.00,-1054.00
2024-06-07 00:02:18.536162,0,0,-4,0,0,0,77,80,78,50,71,119.36,173,-20.00,2.00,-927.00
2024-06-07 00:02:18.639707,0,0,-4,0,0,0,77,80,78,50,71,119.35,173,-27.00,-10.00,-985.00
2024-06-07 00:02:18.740822,0,0,-4,0,0,0,77,80,77,50,71,119.34,173,-11.00,-29.00,-1055.00
2024-06-07 00:02:18.843344,0,0,-4,0,0,0,77,80,77,50,71,119.33,173,4.00,-10.00,-1073.00
2024-06-07 00:02:18.946770,-1,0,-4,0,0,0,77,80,76,50,71,119.23,173,4.00,-3.00,-1053.00
2024-06-07 00:02:19.049236,-1,0,-4,0,0,0,77,80,76,50,71,119.28,173,-13.00,5.00,-992.00
2024-06-07 00:02:19.151836,-1,0,-4,0,0,0,77,80,76,50,71,119.26,173,-20.00,4.00,-1001.00
2024-06-07 00:02:19.250087,-1,0,-4,0,0,0,77,80,75,50,71,119.28,173,-22.00,-23.00,-1015.00
2024-06-07 00:02:19.351978,-1,0,-4,0,0,0,77,80,75,50,71,119.25,173,-25.00,-1.00,-965.00
2024-06-07 00:02:19.460433,-1,0,-4,0,0,0,77,80,75,50,71,119.27,174,-21.00,-12.00,-1007.00
2024-06-07 00:02:19.556773,-1,0,-4,0,0,0,77,80,75,50,71,119.24,174,-20.00,-35.00,-1017.00
2024-06-07 00:02:19.665796,-1,0,-4,0,0,0,77,80,75,50,71,119.28,174,-3.00,0.00,-1009.00
2024-06-07 00:02:19.759787,-1,0,-4,0,0,0,77,80,76,50,71,119.22,174,-13.00,1.00,-1046.00
2024-06-07 00:02:19.869948,-1,0,-4,0,0,0,77,80,76,50,71,119.28,174,-21.00,0.00,-1018.00
2024-06-07 00:02:19.963829,-1,0,-4,0,0,0,76,79,76,50,71,119.27,174,-5.00,-11.00,-1081.00
2024-06-07 00:02:20.066013,-1,0,-4,0,0,0,76,79,77,50,71,119.29,174,-36.00,-14.00,-947.00
2024-06-07 00:02:20.177057,-1,0,-4,0,0,0,76,79,77,50,71,119.37,174,-16.00,-12.00,-1011.00
2024-06-07 00:02:20.269880,-1,0,-4,0,0,0,76,79,77,50,71,119.33,174,-23.00,-13.00,-1105.00
2024-06-07 00:02:20.381924,-1,0,-4,0,0,-1,76,79,79,50,71,119.33,174,-27.00,-7.00,-1088.00
2024-06-07 00:02:20.474467,-1,0,-4,0,0,-2,76,79,81,60,71,119.40,175,-20.00,-1.00,-1072.00
2024-06-07 00:02:20.584990,-1,0,-4,0,0,-3,76,79,85,60,71,119.40,175,-26.00,-24.00,-1104.00
2024-06-07 00:02:20.677697,-1,0,-4,0,0,-4,76,79,90,60,71,119.44,175,-6.00,6.00,-1138.00
2024-06-07 00:02:20.791384,-1,0,-4,0,0,-5,76,79,95,70,71,119.50,175,-16.00,1.00,-1058.00
2024-06-07 00:02:20.881916,-1,0,-4,0,0,-5,76,79,100,80,71,119.58,175,0.00,-12.00,-1052.00
2024-06-07 00:02:20.994612,0,0,-4,0,0,-5,77,79,110,80,71,119.58,175,-6.00,2.00,-1057.00
2024-06-07 00:02:21.085670,0,0,-4,0,0,-5,77,79,116,90,71,119.67,175,-20.00,5.00,-1034.00
2024-06-07 00:02:21.187760,-1,0,-4,0,0,-5,77,79,122,90,71,119.72,175,-28.00,-5.00,-1009.00
2024-06-07 00:02:21.303813,-1,0,-4,0,0,-5,77,79,128,100,71,119.76,175,-35.00,-29.00,-969.00
2024-06-07 00:02:21.391501,-1,0,-4,0,0,-5,77,79,134,110,71,119.86,175,-23.00,13.00,-962.00
2024-06-07 00:02:21.506455,-1,0,-4,0,0,-5,77,79,139,110,71,119.95,176,-12.00,-10.00,-1013.00
2024-06-07 00:02:21.595858,-1,0,-4,0,0,-4,77,79,144,120,71,119.95,176,9.00,24.00,-1010.00
2024-06-07 00:02:21.709917,0,0,-4,0,0,-4,77,79,148,120,71,119.97,176,-6.00,-2.00,-956.00
2024-06-07 00:02:21.799659,0,0,-4,0,0,-4,77,79,153,130,71,120.05,176,-22.00,-9.00,-940.00
2024-06-07 00:02:21.853279,0,0,-4,0,0,-3,77,79,156,130,71,120.02,176,-15.00,-6.00,-961.00
2024-06-07 00:02:22.018832,0,0,-4,0,0,-3,76,79,160,130,71,120.06,176,-10.00,0.00,-933.00
2024-06-07 00:02:22.108299,0,0,-4,0,0,-2,76,79,163,140,71,120.13,176,-10.00,0.00,-966.00
2024-06-07 00:02:22.175936,-1,0,-4,0,0,-2,76,79,166,140,71,120.16,176,-6.00,-9.00,-990.00
2024-06-07 00:02:22.268924,-1,0,-4,0,0,-2,76,79,169,140,71,120.18,176,-18.00,-20.00,-950.00
2024-06-07 00:02:22.378470,-1,0,-4,0,0,-1,76,79,170,140,71,120.18,176,-33.00,18.00,-946.00
2024-06-07 00:02:22.480853,-1,0,-4,0,0,-1,76,79,171,140,71,120.20,177,-14.00,-15.00,-964.00
2024-06-07 00:02:22.631437,-1,0,-4,0,0,-1,76,79,173,150,71,120.21,177,-19.00,0.00,-954.00
2024-06-07 00:02:22.685528,0,0,-4,0,0,-1,76,79,174,150,71,120.22,177,-10.00,15.00,-1000.00
2024-06-07 00:02:22.866460,0,0,-4,0,0,0,76,79,175,150,71,120.21,177,-11.00,-20.00,-993.00
2024-06-07 00:02:22.870399,0,0,-4,0,0,0,76,79,175,150,71,120.17,177,-16.00,4.00,-975.00
2024-06-07 00:02:23.034828,-1,0,-4,0,0,0,76,79,176,150,71,120.16,177,-18.00,-25.00,-996.00
2024-06-07 00:02:23.082420,-1,0,-4,0,0,0,76,79,177,150,71,120.25,177,-8.00,8.00,-1000.00
2024-06-07 00:02:23.223903,-1,0,-4,0,0,0,76,79,178,150,71,120.27,177,-16.00,-1.00,-920.00
2024-06-07 00:02:23.278753,-1,0,-4,0,0,0,76,79,179,150,71,120.27,177,-15.00,-10.00,-1003.00
2024-06-07 00:02:23.466224,0,0,-4,0,0,0,76,79,178,150,71,120.28,177,-11.00,-7.00,-1009.00
2024-06-07 00:02:23.482895,-1,0,-4,0,0,0,76,79,179,150,71,120.27,178,-22.00,-2.00,-1007.00
2024-06-07 00:02:23.608785,0,0,-4,0,0,0,76,79,179,150,71,120.32,178,-8.00,0.00,-974.00
2024-06-07 00:02:23.771961,0,0,-4,0,0,0,76,79,178,150,71,120.33,178,-17.00,0.00,-979.00
2024-06-07 00:02:23.788400,0,0,-4,0,0,0,76,79,178,150,71,120.19,178,-18.00,-11.00,-973.00
2024-06-07 00:02:23.915252,0,0,-4,0,0,0,76,79,179,150,71,120.25,178,-25.00,-14.00,-982.00
2024-06-07 00:02:24.079381,0,0,-4,0,0,0,76,80,177,150,71,120.24,178,-24.00,14.00,-1014.00
2024-06-07 00:02:24.094918,0,0,-4,0,0,0,76,80,177,150,71,120.26,178,-15.00,9.00,-1015.00
2024-06-07 00:02:24.223391,0,0,-4,0,0,0,76,80,178,150,71,120.22,178,-17.00,3.00,-1012.00
2024-06-07 00:02:24.383196,-1,0,-4,0,0,0,76,80,178,150,71,120.31,178,-17.00,8.00,-993.00
2024-06-07 00:02:24.400295,-1,0,-4,0,0,0,76,80,178,150,71,120.25,178,-17.00,-11.00,-1046.00
2024-06-07 00:02:24.526473,-1,0,-4,0,0,0,76,80,179,150,71,120.27,179,-16.00,34.00,-1003.00
2024-06-07 00:02:24.694024,0,0,-4,0,0,0,76,80,178,150,71,120.28,179,-23.00,-28.00,-1005.00
2024-06-07 00:02:24.706189,0,0,-4,0,0,0,76,80,179,150,71,120.31,179,-6.00,-3.00,-1025.00
2024-06-07 00:02:24.837330,0,0,-4,0,0,0,76,80,179,150,71,120.26,179,-15.00,1.00,-983.00
2024-06-07 00:02:24.998897,0,0,-4,0,0,0,76,80,179,150,71,120.25,179,-14.00,-1.00,-984.00
2024-06-07 00:02:25.012185,0,0,-4,0,0,0,76,80,178,150,71,120.26,179,-11.00,-1.00,-1003.00
2024-06-07 00:02:25.114305,0,0,-4,0,0,0,76,80,178,150,71,120.26,179,-19.00,9.00,-930.00
2024-06-07 00:02:25.298966,0,0,-4,0,0,0,76,80,177,150,71,120.27,179,-16.00,-30.00,-992.00
2024-06-07 00:02:25.318052,0,0,-4,0,0,1,76,80,177,150,71,120.25,179,16.00,-26.00,-966.00
2024-06-07 00:02:25.502261,0,0,-4,0,0,1,76,80,173,150,71,120.21,179,-27.00,19.00,-908.00
2024-06-07 00:02:25.523186,0,0,-4,0,0,2,76,80,171,150,71,120.16,180,-9.00,15.00,-972.00
2024-06-07 00:02:25.710293,0,0,-4,0,0,2,76,80,170,140,71,120.09,180,-8.00,14.00,-973.00
2024-06-07 00:02:25.732483,0,0,-4,0,0,2,76,80,167,140,71,120.12,180,-13.00,-8.00,-1008.00
2024-06-07 00:02:25.777185,-1,0,-4,0,0,2,76,80,163,140,71,120.08,180,-9.00,13.00,-986.00
2024-06-07 00:02:25.909830,-1,0,-4,0,0,3,76,80,160,140,71,120.12,180,0.00,8.00,-1062.00
2024-06-07 00:02:26.114441,-1,0,-4,0,0,2,76,78,157,130,71,120.04,180,-7.00,20.00,-984.00
2024-06-07 00:02:26.133973,-1,0,-4,0,0,2,76,78,154,130,71,120.04,180,-26.00,-24.00,-1028.00
2024-06-07 00:02:26.321171,-1,0,-4,0,0,2,76,78,151,130,71,119.95,180,-8.00,2.00,-1039.00
2024-06-07 00:02:26.321239,-1,0,-4,0,0,2,76,78,149,120,71,119.94,180,-15.00,9.00,-1010.00
2024-06-07 00:02:26.389456,-1,0,-4,0,0,2,76,78,146,120,71,119.88,180,-11.00,-22.00,-998.00
2024-06-07 00:02:26.492289,-1,0,-4,0,0,2,76,78,143,120,71,119.90,181,-15.00,-19.00,-1058.00
2024-06-07 00:02:26.628088,0,0,-4,0,0,2,76,78,141,120,71,119.88,181,-1.00,0.00,-1069.00
2024-06-07 00:02:26.695213,0,0,-4,0,0,1,76,78,139,120,71,119.89,181,-15.00,-14.00,-1022.00
2024-06-07 00:02:26.829844,0,0,-4,0,0,1,76,78,138,110,71,119.76,181,-26.00,-23.00,-1019.00
2024-06-07 00:02:26.906844,0,0,-4,0,0,1,76,78,135,110,71,119.85,181,-27.00,-11.00,-1031.00
2024-06-07 00:02:27.001105,0,0,-4,0,0,1,76,79,134,110,71,119.77,181,-25.00,-9.00,-1064.00
2024-06-07 00:02:27.138404,-1,0,-4,0,0,1,76,79,132,110,71,119.74,181,-12.00,-7.00,-1050.00
2024-06-07 00:02:27.205320,-1,0,-4,0,0,1,76,79,131,110,71,119.78,181,-17.00,13.00,-1010.00
2024-06-07 00:02:27.307175,-1,0,-4,0,0,1,76,79,130,110,71,119.74,181,-8.00,-16.00,-1064.00
2024-06-07 00:02:27.447658,-1,0,-4,0,0,0,76,79,129,100,71,119.73,181,-8.00,4.00,-1010.00
2024-06-07 00:02:27.511157,0,0,-4,0,0,0,76,79,129,100,71,119.80,182,-15.00,0.00,-1030.00
2024-06-07 00:02:27.650563,0,0,-4,0,0,0,76,79,129,100,71,119.72,182,-16.00,-13.00,-1005.00
2024-06-07 00:02:27.715138,0,0,-4,0,0,0,76,79,129,100,71,119.70,182,-11.00,11.00,-1040.00
2024-06-07 00:02:27.855319,0,0,-4,0,0,0,76,79,129,100,71,119.78,182,-13.00,20.00,-966.00
2024-06-07 00:02:27.919212,0,0,-4,0,0,0,76,79,129,100,71,119.77,182,-24.00,-32.00,-1001.00
2024-06-07 00:02:28.061638,0,0,-4,0,0,0,76,79,129,100,71,119.78,182,-20.00,-2.00,-1034.00
2024-06-07 00:02:28.124270,0,0,-4,0,0,0,76,79,128,100,71,119.79,182,-20.00,29.00,-1017.00
2024-06-07 00:02:28.263896,0,0,-4,0,0,0,76,79,129,100,71,119.75,182,-10.00,0.00,-951.00
2024-06-07 00:02:28.327042,0,0,-4,0,0,0,76,79,129,100,71,119.76,182,-16.00,-21.00,-981.00
2024-06-07 00:02:28.469460,0,0,-4,0,0,0,76,79,129,100,71,119.82,182,-18.00,-1.00,-1020.00
2024-06-07 00:02:28.531110,0,0,-4,0,0,0,76,79,129,100,71,119.75,183,-13.00,-13.00,-1044.00
2024-06-07 00:02:28.673609,0,0,-4,0,0,0,76,79,129,100,71,119.85,183,-5.00,7.00,-1071.00
2024-06-07 00:02:28.735219,0,0,-4,0,0,0,76,79,129,100,71,119.72,183,-11.00,3.00,-1008.00
2024-06-07 00:02:28.881172,0,0,-4,0,0,0,76,79,128,100,71,119.78,183,-19.00,10.00,-976.00
2024-06-07 00:02:28.939303,0,0,-4,0,0,0,76,79,128,100,71,119.65,183,-12.00,-6.00,-998.00
2024-06-07 00:02:29.082485,0,0,-4,0,0,0,76,79,128,100,71,119.71,183,-7.00,35.00,-983.00
2024-06-07 00:02:29.143049,0,0,-4,0,0,0,76,79,128,100,71,119.73,183,-25.00,-2.00,-978.00
2024-06-07 00:02:29.259398,0,0,-4,0,0,0,76,79,129,100,71,119.74,183,-30.00,-13.00,-994.00
2024-06-07 00:02:29.350447,0,0,-4,0,0,0,76,79,129,100,71,119.75,183,-10.00,-13.00,-1022.00
2024-06-07 00:02:29.449192,-1,0,-4,0,0,0,76,79,129,100,71,119.76,183,-24.00,15.00,-977.00
2024-06-07 00:02:29.598703,-5,0,-4,0,0,0,76,79,130,100,71,119.75,184,-6.00,18.00,-979.00
2024-06-07 00:02:29.652898,-8,0,-4,1,0,0,76,79,132,100,71,119.77,184,-29.00,-16.00,-1046.00
2024-06-07 00:02:29.802295,-8,0,-4,2,0,0,76,79,131,100,71,119.78,184,-36.00,3.00,-1026.00
2024-06-07 00:02:29.805860,-8,0,-4,3,0,0,76,79,131,100,71,119.76,184,-49.00,2.00,-946.00
2024-06-07 00:02:30.005544,-8,0,-4,4,0,0,76,79,131,100,71,119.78,184,-54.00,-5.00,-941.00
2024-06-07 00:02:30.060786,-8,0,-4,5,0,0,76,80,132,100,71,119.73,184,-48.00,-12.00,-1052.00
2024-06-07 00:02:30.164103,-8,0,-4,6,0,0,76,80,132,100,71,119.71,184,-56.00,-8.00,-978.00
2024-06-07 00:02:30.214650,-6,0,-4,7,0,0,76,80,132,100,71,119.74,184,-59.00,19.00,-1029.00
2024-06-07 00:02:30.417020,-5,0,-4,7,0,0,76,80,132,100,71,119.64,184,-61.00,-35.00,-956.00
2024-06-07 00:02:30.417510,-2,0,-4,7,0,0,76,80,132,100,71,119.69,184,-74.00,8.00,-995.00
2024-06-07 00:02:30.624905,0,0,-4,7,0,0,76,80,132,100,71,119.69,185,-69.00,4.00,-1030.00
2024-06-07 00:02:30.624950,2,0,-4,6,0,0,76,80,133,100,71,119.68,185,-53.00,-3.00,-1031.00
2024-06-07 00:02:30.728250,3,0,-4,5,0,0,76,80,132,110,71,119.75,185,-45.00,22.00,-999.00
2024-06-07 00:02:30.825993,2,0,-4,4,0,0,76,80,132,110,71,119.81,185,-46.00,8.00,-981.00
2024-06-07 00:02:30.927641,0,0,-4,3,0,0,76,80,133,110,71,119.78,185,-27.00,4.00,-1032.00
2024-06-07 00:02:31.029968,0,0,-4,3,0,0,76,80,133,110,71,119.81,185,-32.00,17.00,-1006.00
2024-06-07 00:02:31.133429,0,0,-4,2,0,0,76,80,133,110,71,119.75,185,-26.00,3.00,-1000.00
2024-06-07 00:02:31.235355,-1,0,-4,2,0,0,76,80,133,110,71,119.76,185,-33.00,-39.00,-1010.00
2024-06-07 00:02:31.338361,-1,0,-4,2,0,0,76,80,132,110,71,119.79,185,-42.00,-25.00,-952.00
2024-06-07 00:02:31.439432,-1,0,-4,2,0,0,76,80,133,110,71,119.74,185,-39.00,3.00,-986.00
2024-06-07 00:02:31.541600,-1,0,-4,2,0,0,76,80,132,110,71,119.80,186,-25.00,-16.00,-972.00
2024-06-07 00:02:31.643814,-1,0,-4,2,0,0,76,80,133,110,71,119.86,186,-15.00,-31.00,-1027.00
2024-06-07 00:02:31.745072,0,0,-4,2,0,0,76,80,133,110,71,119.78,186,-33.00,-26.00,-990.00
2024-06-07 00:02:31.848906,1,0,-4,1,0,0,76,80,133,110,71,119.71,186,-36.00,-41.00,-991.00
2024-06-07 00:02:31.952302,2,0,-4,1,0,0,76,80,133,110,71,119.72,186,-13.00,-36.00,-992.00
2024-06-07 00:02:32.049622,0,0,-4,0,0,0,76,79,133,110,71,119.73,186,-14.00,6.00,-971.00
2024-06-07 00:02:32.151759,0,0,-4,0,0,0,76,79,132,110,71,119.79,186,-17.00,2.00,-1038.00
2024-06-07 00:02:32.257250,0,0,-4,0,0,0,76,79,133,110,71,119.75,186,-6.00,-25.00,-990.00
2024-06-07 00:02:32.360050,0,0,-4,0,0,0,76,79,133,110,71,119.73,186,-17.00,8.00,-1021.00
2024-06-07 00:02:32.457623,-1,0,-4,0,0,0,76,79,132,110,71,119.74,187,-13.00,-36.00,-1002.00
2024-06-07 00:02:32.564057,-1,0,-4,0,0,0,76,79,132,110,71,119.75,187,-27.00,-6.00,-1029.00
2024-06-07 00:02:32.661915,-1,0,-4,0,0,0,76,79,132,110,71,119.72,187,-8.00,1.00,-992.00
2024-06-07 00:02:32.768860,-1,0,-4,0,0,0,76,79,132,110,71,119.71,187,-10.00,-18.00,-1028.00
2024-06-07 00:02:32.865526,-1,0,-4,0,0,0,76,79,132,110,71,119.75,187,-3.00,-10.00,-991.00
2024-06-07 00:02:32.974782,-1,0,-4,0,0,0,76,79,132,110,71,119.75,187,-20.00,5.00,-1042.00
2024-06-07 00:02:33.069628,-1,0,-4,0,0,0,75,79,132,110,71,119.71,187,-10.00,9.00,-1007.00
2024-06-07 00:02:33.172074,-1,0,-4,0,0,0,75,79,133,110,71,119.70,187,-10.00,13.00,-968.00
2024-06-07 00:02:33.280906,-1,0,-4,0,0,0,75,79,132,110,71,119.79,187,-11.00,-36.00,-1000.00
2024-06-07 00:02:33.377229,-1,0,-4,0,0,0,75,79,131,110,71,119.72,187,-34.00,14.00,-998.00
2024-06-07 00:02:33.477981,-1,0,-4,0,0,0,75,79,131,110,71,119.68,188,-17.00,-4.00,-981.00
2024-06-07 00:02:33.589814,-1,0,-4,0,0,0,75,79,130,100,71,119.73,188,-13.00,-19.00,-976.00
2024-06-07 00:02:33.630611,-1,0,-4,0,0,0,75,79,129,100,71,119.71,188,-19.00,-34.00,-1024.00
2024-06-07 00:02:33.796034,-1,0,-4,0,0,0,75,79,129,100,71,119.74,188,-20.00,21.00,-1050.00
2024-06-07 00:02:33.835440,-1,0,-4,0,0,0,75,79,129,100,71,119.69,188,-32.00,18.00,-999.00
2024-06-07 00:02:33.936699,-1,0,-4,0,0,0,75,79,129,100,71,119.71,188,0.00,-28.00,-964.00
2024-06-07 00:02:34.038801,-1,0,-4,0,0,0,75,79,130,100,71,119.72,188,-18.00,-28.00,-1016.00
2024-06-07 00:02:34.140604,4,0,-4,0,0,0,75,79,129,100,71,119.71,188,-4.00,-10.00,-972.00
2024-06-07 00:02:34.307973,7,0,-4,-1,0,0,75,79,130,100,71,119.69,188,-24.00,5.00,-1037.00
2024-06-07 00:02:34.345202,8,0,-4,-2,0,0,75,79,130,100,71,119.69,188,1.00,-39.00,-988.00
2024-06-07 00:02:34.446496,7,0,-4,-4,0,0,75,79,129,100,71,119.73,189,-6.00,5.00,-1033.00
2024-06-07 00:02:34.548637,6,0,-4,-5,0,0,75,79,130,100,71,119.71,189,10.00,2.00,-1022.00
2024-06-07 00:02:34.650402,5,0,-4,-6,0,0,75,79,130,100,71,119.70,189,36.00,10.00,-1022.00
2024-06-07 00:02:34.752385,4,0,-4,-6,0,0,75,79,129,100,71,119.69,189,22.00,18.00,-993.00
2024-06-07 00:02:34.854422,4,0,-4,-7,0,0,75,79,129,100,71,119.75,189,28.00,4.00,-1024.00
2024-06-07 00:02:35.027784,2,0,-4,-7,0,0,75,79,129,100,71,119.75,189,28.00,28.00,-977.00
2024-06-07 00:02:35.058438,0,-2,-4,-7,0,0,76,79,129,100,71,119.80,189,50.00,-9.00,-1018.00
2024-06-07 00:02:35.160342,-3,-1,-4,-7,0,0,76,79,128,100,71,119.76,189,32.00,13.00,-1017.00
2024-06-07 00:02:35.328952,-4,0,-4,-6,0,0,76,79,130,100,71,119.76,189,53.00,-15.00,-977.00
2024-06-07 00:02:35.364380,-5,0,-4,-5,0,0,76,79,129,100,71,119.73,189,27.00,13.00,-1037.00
2024-06-07 00:02:35.533414,-3,0,-4,-4,0,0,76,79,128,100,71,119.72,190,31.00,24.00,-1047.00
2024-06-07 00:02:35.568702,-2,0,-4,-3,0,0,76,79,128,100,71,119.69,190,21.00,-31.00,-996.00
2024-06-07 00:02:35.739910,-1,0,-4,-3,0,0,76,79,128,100,71,119.72,190,13.00,-8.00,-980.00
2024-06-07 00:02:35.772359,-1,1,-4,-2,0,0,76,79,127,100,71,119.66,190,12.00,-23.00,-1000.00
2024-06-07 00:02:35.944255,0,0,-4,-2,0,0,76,79,126,100,71,119.69,190,10.00,0.00,-1037.00
2024-06-07 00:02:35.977283,0,0,-4,-2,0,0,76,79,126,100,71,119.68,190,-2.00,6.00,-966.00
2024-06-07 00:02:36.151437,0,0,-4,-2,0,0,75,79,126,100,71,119.70,190,-1.00,4.00,-965.00
2024-06-07 00:02:36.181160,0,0,-4,-2,0,0,75,79,127,100,71,119.68,190,-3.00,-5.00,-1011.00
2024-06-07 00:02:36.354369,-1,0,-4,-2,0,0,75,79,126,100,71,119.68,190,-15.00,21.00,-1035.00
2024-06-07 00:02:36.385184,-4,0,-4,-1,0,0,75,79,126,100,71,119.66,190,0.00,29.00,-993.00
2024-06-07 00:02:36.559015,-4,0,-4,0,0,0,75,79,127,100,71,119.69,191,-14.00,0.00,-994.00
2024-06-07 00:02:36.589370,-2,0,-4,0,0,0,75,79,126,100,71,119.69,191,-16.00,-2.00,-996.00
2024-06-07 00:02:36.763999,-1,0,-4,0,0,0,75,79,127,100,71,119.70,191,-19.00,-30.00,-1046.00
2024-06-07 00:02:36.793218,0,0,-4,0,0,0,75,79,127,100,71,119.70,191,-13.00,3.00,-990.00
2024-06-07 00:02:36.968840,0,0,-4,0,0,0,75,79,127,100,71,119.70,191,-14.00,13.00,-1028.00
2024-06-07 00:02:36.997151,0,0,-4,0,0,0,75,79,126,100,71,119.69,191,-19.00,0.00,-990.00
2024-06-07 00:02:37.116145,0,0,-4,0,0,0,76,79,125,100,71,119.62,191,-14.00,-6.00,-978.00
2024-06-07 00:02:37.290936,0,1,-4,0,0,0,76,79,125,100,71,119.71,191,-14.00,-44.00,-1028.00
2024-06-07 00:02:37.303381,0,1,-4,0,0,0,76,79,125,100,71,119.64,191,-20.00,34.00,-984.00
2024-06-07 00:02:37.479064,0,0,-4,0,0,0,76,79,124,100,71,119.67,191,-16.00,-25.00,-965.00
2024-06-07 00:02:37.562183,0,0,-4,0,0,0,76,79,124,100,71,119.63,192,-19.00,2.00,-1026.00
2024-06-07 00:02:37.631835,0,0,-4,0,0,0,76,79,123,100,71,119.61,192,-10.00,-17.00,-1061.00
2024-06-07 00:02:37.732811,0,0,-4,0,0,0,76,79,124,100,71,119.70,192,-8.00,22.00,-987.00
2024-06-07 00:02:37.813258,0,0,-4,0,0,0,76,79,124,100,71,119.68,192,-9.00,-25.00,-990.00
2024-06-07 00:02:37.915838,0,0,-4,0,0,0,76,79,124,100,71,119.62,192,-1.00,18.00,-1065.00
2024-06-07 00:02:38.049713,0,0,-4,0,0,0,76,79,124,100,71,119.72,192,-3.00,-11.00,-1001.00
2024-06-07 00:02:38.119130,0,0,-4,0,0,0,76,79,125,100,71,119.70,192,-16.00,27.00,-1002.00
2024-06-07 00:02:38.257893,0,0,-4,0,0,0,76,79,125,100,71,119.64,192,-12.00,-21.00,-964.00
2024-06-07 00:02:38.274151,0,0,-4,0,0,0,76,79,125,100,71,119.64,192,-1.00,18.00,-991.00
2024-06-07 00:02:38.374780,0,0,-4,0,0,0,76,79,126,100,71,119.64,192,-17.00,-34.00,-1019.00
2024-06-07 00:02:38.513961,0,0,-4,0,0,0,76,79,126,100,71,119.64,193,-10.00,33.00,-1017.00
2024-06-07 00:02:38.657123,0,0,-4,0,0,0,76,79,125,100,71,119.63,193,-14.00,-18.00,-995.00
2024-06-07 00:02:38.684036,0,0,-4,0,0,0,76,79,126,100,71,119.66,193,-12.00,19.00,-970.00
2024-06-07 00:02:38.826454,0,0,-4,0,0,0,76,79,127,100,71,119.68,193,-16.00,12.00,-957.00
2024-06-07 00:02:38.964319,-1,-6,-4,0,0,0,76,79,127,100,71,119.66,193,-15.00,6.00,-987.00
2024-06-07 00:02:38.986067,-1,-8,-4,0,-1,0,76,79,128,100,71,119.69,193,-15.00,-5.00,-1023.00
2024-06-07 00:02:39.132460,-1,-6,-4,0,-2,0,76,79,129,100,71,119.72,193,-6.00,23.00,-1049.00
2024-06-07 00:02:39.201756,-1,-3,-4,0,-3,0,76,79,128,100,71,119.75,193,-9.00,28.00,-999.00
2024-06-07 00:02:39.300044,0,0,-4,0,-4,0,76,79,129,100,71,119.77,193,-13.00,-4.00,-985.00
2024-06-07 00:02:39.394371,0,2,-4,0,-4,0,76,79,130,100,71,119.73,193,-18.00,36.00,-1007.00
2024-06-07 00:02:39.528048,0,1,-4,0,-3,0,76,79,131,100,71,119.75,194,-15.00,28.00,-958.00
2024-06-07 00:02:39.598969,0,0,-4,0,-2,0,76,79,132,100,71,119.79,194,-22.00,-18.00,-1015.00
2024-06-07 00:02:39.731881,-1,0,-4,0,-2,0,76,79,133,110,71,119.76,194,-22.00,44.00,-968.00
2024-06-07 00:02:39.802050,-1,0,-4,0,-2,0,76,79,133,110,71,119.80,194,-30.00,-20.00,-966.00
2024-06-07 00:02:39.939897,-1,0,-4,0,-2,0,76,79,134,110,71,119.83,194,-34.00,30.00,-989.00
2024-06-07 00:02:40.005886,-1,0,-4,0,-2,0,76,79,134,110,71,119.82,194,-29.00,11.00,-985.00
2024-06-07 00:02:40.143301,-1,0,-4,0,-2,0,76,79,135,110,71,119.85,194,-21.00,-17.00,-984.00
2024-06-07 00:02:40.210898,-1,0,-4,0,-2,0,76,79,135,110,71,119.82,194,-19.00,10.00,-1032.00
2024-06-07 00:02:40.346290,0,2,-4,0,-2,0,76,79,136,110,71,119.77,194,-27.00,4.00,-997.00
2024-06-07 00:02:40.414778,0,3,-4,0,-2,0,76,79,136,110,71,119.76,194,-22.00,-10.00,-995.00
2024-06-07 00:02:40.552589,0,4,-4,0,-1,0,76,79,136,110,71,119.81,195,-21.00,7.00,-955.00
2024-06-07 00:02:40.619319,0,3,-4,0,0,0,76,79,135,110,71,119.74,195,-19.00,-1.00,-972.00
2024-06-07 00:02:40.757833,-1,1,-4,0,0,0,76,79,134,110,71,119.77,195,-6.00,2.00,-1002.00
2024-06-07 00:02:40.822667,-1,0,-4,0,0,0,76,79,133,110,71,119.72,195,-25.00,-1.00,-1007.00
2024-06-07 00:02:40.963520,-1,0,-4,0,0,0,76,79,131,110,71,119.66,195,-33.00,0.00,-1007.00
2024-06-07 00:02:41.026926,-1,0,-4,0,0,0,76,79,130,110,71,119.70,195,-21.00,24.00,-992.00
2024-06-07 00:02:41.168987,-1,0,-4,0,0,0,76,79,129,100,71,119.66,195,-18.00,18.00,-1032.00
2024-06-07 00:02:41.231667,-1,0,-4,0,0,0,76,79,128,100,71,119.69,195,-21.00,-30.00,-1063.00
2024-06-07 00:02:41.373765,-1,0,-4,0,0,0,76,79,127,100,71,119.67,195,-24.00,-15.00,-961.00
2024-06-07 00:02:41.434900,-1,0,-4,0,0,0,76,79,127,100,71,119.66,195,-15.00,18.00,-1034.00
2024-06-07 00:02:41.577049,0,1,-4,0,0,0,76,79,126,100,71,119.68,196,-17.00,-15.00,-1020.00
2024-06-07 00:02:41.587853,0,1,-4,0,0,0,76,79,126,100,70,119.67,196,-18.00,-16.00,-1062.00
2024-06-07 00:02:41.782511,0,1,-4,0,0,0,76,79,127,100,70,119.70,196,-19.00,-28.00,-1019.00
2024-06-07 00:02:41.797250,0,1,-4,0,0,0,76,79,127,100,70,119.70,196,-22.00,-14.00,-948.00
2024-06-07 00:02:41.896093,0,1,-4,0,0,0,76,79,128,100,70,119.73,196,-16.00,15.00,-970.00
2024-06-07 00:02:41.996983,0,1,-4,0,0,0,76,79,128,100,70,119.73,196,-5.00,-5.00,-1053.00
2024-06-07 00:02:42.165362,0,0,-4,0,0,0,76,79,129,100,70,119.71,196,-29.00,-26.00,-1023.00
2024-06-07 00:02:42.200550,0,1,-4,0,0,0,76,79,129,100,70,119.72,196,-5.00,-26.00,-1015.00
2024-06-07 00:02:42.399656,0,0,-4,0,0,0,76,79,130,100,70,119.69,196,-17.00,-20.00,-997.00
2024-06-07 00:02:42.403963,0,0,-4,0,0,0,76,79,130,100,70,119.70,196,-11.00,6.00,-1046.00
2024-06-07 00:02:42.562746,0,1,-4,0,0,0,76,79,130,100,70,119.83,197,-23.00,0.00,-948.00
2024-06-07 00:02:42.607903,0,1,-4,0,0,0,76,79,131,100,70,119.79,197,-31.00,-12.00,-991.00
2024-06-07 00:02:42.806954,0,0,-4,0,0,0,76,79,131,100,70,119.74,197,-8.00,-8.00,-993.00
2024-06-07 00:02:42.812140,0,4,-4,0,0,0,76,79,132,100,70,119.74,197,-21.00,-2.00,-990.00
2024-06-07 00:02:42.913621,0,8,-4,0,1,0,76,79,133,100,70,119.77,197,1.00,-17.00,-1033.00
2024-06-07 00:02:43.112677,0,6,-4,0,2,0,76,79,132,110,70,119.79,197,-18.00,-26.00,-1024.00
2024-06-07 00:02:43.117835,0,4,-4,0,3,0,76,79,131,110,70,119.76,197,-20.00,-26.00,-991.00
2024-06-07 00:02:43.316298,0,2,-4,0,3,0,76,79,131,110,70,119.74,197,-17.00,-23.00,-1030.00
2024-06-07 00:02:43.321564,0,0,-4,0,3,0,76,79,131,100,70,119.74,197,-14.00,-31.00,-992.00
2024-06-07 00:02:43.520178,0,0,-4,0,3,0,76,79,130,100,70,119.70,197,-15.00,-11.00,-1044.00
2024-06-07 00:02:43.525744,0,0,-4,0,3,0,76,79,130,100,70,119.70,198,-38.00,-25.00,-941.00
2024-06-07 00:02:43.725755,0,0,-4,0,2,0,76,79,131,100,70,119.73,198,-10.00,-46.00,-999.00
2024-06-07 00:02:43.729572,0,0,-4,0,2,0,76,79,130,100,70,119.75,198,-3.00,-22.00,-1042.00
2024-06-07 00:02:43.930352,0,0,-4,0,2,0,76,79,130,100,70,119.71,198,-14.00,7.00,-954.00
2024-06-07 00:02:43.933609,0,0,-4,0,2,0,76,79,130,100,70,119.69,198,-17.00,-31.00,-978.00
2024-06-07 00:02:44.148414,0,0,-4,0,2,0,76,79,131,100,70,119.68,198,-10.00,-4.00,-1012.00
2024-06-07 00:02:44.148478,0,0,-4,0,2,0,76,79,130,100,70,119.69,198,8.00,-9.00,-1042.00
2024-06-07 00:02:44.240614,0,0,-4,0,2,0,76,79,130,100,70,119.69,198,-28.00,-18.00,-968.00
2024-06-07 00:02:44.341725,0,0,-4,0,2,0,76,79,129,100,70,119.68,198,-1.00,-17.00,-1057.00
2024-06-07 00:02:44.444893,0,0,-4,0,2,0,76,79,130,100,70,119.73,198,3.00,5.00,-963.00
2024-06-07 00:02:44.545526,-1,-1,-4,0,2,0,76,79,132,100,70,119.75,199,-12.00,-37.00,-1021.00
2024-06-07 00:02:44.750074,-1,-5,-4,0,1,0,76,79,131,100,70,119.73,199,-1.00,-38.00,-999.00
2024-06-07 00:02:44.751089,-1,-2,-4,0,1,0,76,79,130,100,70,119.72,199,-1.00,21.00,-1028.00
2024-06-07 00:02:44.853504,0,-1,-4,0,0,0,76,79,131,100,70,119.77,199,-12.00,0.00,-968.00
2024-06-07 00:02:44.954289,0,0,-4,0,0,0,76,79,131,110,70,119.74,199,-21.00,-32.00,-980.00
2024-06-07 00:02:45.058668,0,0,-4,0,0,0,76,79,131,110,70,119.80,199,-9.00,1.00,-1043.00
2024-06-07 00:02:45.160824,0,0,-4,0,0,0,76,78,132,110,70,119.77,199,2.00,15.00,-1020.00
2024-06-07 00:02:45.264395,0,0,-4,0,0,0,76,78,132,110,70,119.72,199,-10.00,19.00,-947.00
2024-06-07 00:02:45.366585,0,0,-4,0,0,0,76,78,131,110,70,119.74,199,-33.00,-11.00,-993.00
2024-06-07 00:02:45.463698,0,0,-4,0,0,0,76,78,131,110,70,119.71,199,-18.00,-3.00,-1033.00
2024-06-07 00:02:45.514392,0,0,-4,0,0,0,76,78,131,110,70,119.78,200,-4.00,12.00,-1012.00
2024-06-07 00:02:45.674071,0,0,-4,0,0,0,76,78,131,110,70,119.76,200,-22.00,7.00,-944.00
2024-06-07 00:02:45.718405,0,0,-4,0,0,0,76,78,131,110,70,119.77,200,-14.00,-22.00,-1009.00
2024-06-07 00:02:45.876546,0,0,-4,0,0,0,76,78,131,110,70,119.69,200,-9.00,2.00,-1048.00
2024-06-07 00:02:45.922547,0,0,-4,0,0,0,76,78,132,110,70,119.72,200,-19.00,30.00,-958.00
2024-06-07 00:02:46.086406,0,0,-4,0,0,0,76,78,132,110,70,119.72,200,-19.00,-22.00,-1000.00
2024-06-07 00:02:46.126627,0,0,-4,0,0,0,76,78,132,110,70,119.74,200,-23.00,-4.00,-978.00
2024-06-07 00:02:46.289233,0,0,-4,0,0,0,76,78,132,110,70,119.80,200,-24.00,5.00,-976.00
2024-06-07 00:02:46.330462,0,0,-4,0,0,0,76,78,132,110,70,119.72,200,-14.00,-24.00,-1000.00
2024-06-07 00:02:46.491343,0,0,-4,0,0,0,76,78,131,110,70,119.72,201,2.00,10.00,-1028.00
2024-06-07 00:02:46.534454,0,0,-4,0,0,0,76,78,131,110,70,119.79,201,-11.00,-13.00,-949.00
2024-06-07 00:02:46.698019,0,0,-4,0,0,0,76,78,131,100,69,119.76,201,-4.00,18.00,-1041.00
2024-06-07 00:02:46.738372,0,0,-4,0,0,0,76,78,130,100,69,119.70,201,-4.00,-19.00,-1039.00
2024-06-07 00:02:46.840368,0,0,-3,0,0,0,76,78,130,100,69,119.74,201,-14.00,8.00,-1038.00
2024-06-07 00:02:47.002905,0,0,1,0,0,0,76,78,130,100,69,119.68,201,-4.00,-14.00,-999.00
2024-06-07 00:02:47.044131,0,0,7,0,0,0,76,78,129,100,69,119.72,201,-20.00,39.00,-1000.00
2024-06-07 00:02:47.211698,0,0,13,0,0,0,75,79,129,100,69,119.74,201,-10.00,-22.00,-1027.00
2024-06-07 00:02:47.248119,0,0,19,0,0,0,75,79,129,100,69,119.67,201,-19.00,-18.00,-979.00
2024-06-07 00:02:47.415970,0,0,25,0,0,0,75,79,130,100,69,119.71,201,-23.00,-35.00,-999.00
2024-06-07 00:02:47.452086,0,0,31,0,0,0,75,79,130,100,69,119.73,202,-10.00,-12.00,-1044.00
2024-06-07 00:02:47.616762,0,0,37,0,0,0,75,79,130,100,69,119.67,202,-25.00,-21.00,-993.00
2024-06-07 00:02:47.656823,0,0,43,0,0,0,75,79,130,100,69,119.69,202,-9.00,-13.00,-1010.00
2024-06-07 00:02:47.758673,0,0,49,0,0,0,75,79,130,100,69,119.69,202,-7.00,-17.00,-965.00
2024-06-07 00:02:47.859974,0,0,55,0,0,0,75,79,130,100,69,119.68,202,6.00,18.00,-1040.00
2024-06-07 00:02:47.962806,0,0,61,0,0,0,75,79,130,110,69,119.70,202,3.00,8.00,-1008.00
2024-06-07 00:02:48.064783,0,0,67,0,0,0,75,79,130,110,69,119.70,202,-9.00,-2.00,-960.00
2024-06-07 00:02:48.169114,0,0,73,0,0,0,76,79,131,110,69,119.66,202,-2.00,28.00,-981.00
2024-06-07 00:02:48.269727,0,0,79,0,0,0,76,79,130,100,69,119.68,202,-8.00,-2.00,-1013.00
2024-06-07 00:02:48.370748,0,0,85,0,0,0,76,79,130,100,69,119.65,202,-6.00,3.00,-1009.00
2024-06-07 00:02:48.539091,0,0,91,0,0,0,76,79,130,100,69,119.71,203,-6.00,17.00,-1059.00
2024-06-07 00:02:48.574124,0,0,97,0,0,0,76,79,129,100,69,119.64,203,-6.00,0.00,-1033.00
2024-06-07 00:02:48.744191,0,0,103,0,0,0,76,79,131,100,69,119.68,203,-5.00,-4.00,-1037.00
2024-06-07 00:02:48.778017,0,0,109,0,0,0,76,79,130,100,69,119.73,203,-9.00,-9.00,-1003.00
2024-06-07 00:02:48.948975,0,0,115,0,0,0,76,79,130,100,69,119.77,203,-10.00,-3.00,-1048.00
2024-06-07 00:02:48.981924,0,0,121,0,0,0,76,79,131,100,69,119.69,203,-5.00,-15.00,-967.00
2024-06-07 00:02:49.033230,0,0,127,0,0,0,76,79,131,100,69,119.69,203,-8.00,13.00,-985.00
2024-06-07 00:02:49.186486,0,0,133,0,0,0,75,78,131,100,69,119.66,203,-24.00,-15.00,-960.00
2024-06-07 00:02:49.360718,0,0,139,0,0,0,75,78,132,100,69,119.72,203,-10.00,4.00,-1003.00
2024-06-07 00:02:49.389972,0,0,145,0,0,0,75,78,131,100,69,119.73,203,-1.00,-28.00,-1016.00
2024-06-07 00:02:49.563579,0,0,151,0,0,0,75,78,131,100,69,119.77,204,-1.00,-33.00,-975.00
2024-06-07 00:02:49.593914,0,0,157,0,0,0,75,78,132,110,69,119.70,204,-3.00,-12.00,-990.00
2024-06-07 00:02:49.645259,0,0,163,0,0,0,75,78,132,110,69,119.73,204,2.00,15.00,-997.00
2024-06-07 00:02:49.766360,0,0,169,0,0,0,75,78,132,110,69,119.74,204,-9.00,-8.00,-1003.00
2024-06-07 00:02:49.849016,0,0,175,0,0,0,75,78,132,110,69,119.75,204,0.00,7.00,-1040.00
2024-06-07 00:02:49.951092,0,0,-178,0,0,0,75,78,132,110,69,119.74,204,-3.00,-20.00,-1006.00
2024-06-07 00:02:50.075092,0,0,-172,0,0,0,75,78,133,110,69,119.72,204,-16.00,-8.00,-951.00
2024-06-07 00:02:50.155249,0,0,-165,0,0,0,75,78,132,110,69,119.74,204,-17.00,4.00,-975.00
2024-06-07 00:02:50.282078,0,0,-159,0,0,0,75,78,132,110,69,119.74,204,-21.00,-36.00,-1006.00
2024-06-07 00:02:50.358998,0,0,-153,0,0,0,75,78,132,110,69,119.76,204,-17.00,-12.00,-969.00
2024-06-07 00:02:50.491844,0,0,-147,0,0,0,75,78,131,110,69,119.80,205,-18.00,-6.00,-940.00
2024-06-07 00:02:50.563009,0,0,-141,0,0,0,75,78,131,110,69,119.80,205,-24.00,-11.00,-989.00
2024-06-07 00:02:50.691575,0,0,-135,0,0,0,75,78,131,110,69,119.76,205,-10.00,11.00,-1023.00
2024-06-07 00:02:50.769936,0,0,-129,0,0,0,75,78,130,110,69,119.76,205,-6.00,20.00,-1025.00
2024-06-07 00:02:50.870430,0,0,-123,0,0,0,75,78,130,110,69,119.73,205,0.00,2.00,-1052.00
2024-06-07 00:02:50.971232,0,0,-117,0,0,0,75,78,129,100,69,119.75,205,1.00,4.00,-1035.00
2024-06-07 00:02:51.099294,0,0,-111,0,0,0,75,78,129,100,69,119.73,205,-20.00,-12.00,-1072.00
2024-06-07 00:02:51.176239,0,0,-106,0,0,0,75,77,128,100,69,119.72,205,-11.00,-13.00,-1012.00
2024-06-07 00:02:51.306357,0,0,-100,0,0,0,75,77,128,100,69,119.70,205,-20.00,-15.00,-968.00
2024-06-07 00:02:51.381546,0,0,-94,0,0,0,75,77,128,100,69,119.70,205,-16.00,-9.00,-982.00
2024-06-07 00:02:51.482007,0,0,-88,0,0,0,75,77,128,100,69,119.72,206,-7.00,-2.00,-1010.00
2024-06-07 00:02:51.583555,0,0,-82,0,0,0,75,77,127,100,69,119.68,206,-17.00,6.00,-986.00
2024-06-07 00:02:51.686746,0,0,-76,0,0,0,75,77,127,100,69,119.70,206,-1.00,7.00,-1012.00
2024-06-07 00:02:51.788844,0,0,-70,0,0,0,75,77,127,100,69,119.73,206,-7.00,-27.00,-992.00
2024-06-07 00:02:51.888906,0,0,-64,0,0,0,75,77,127,100,69,119.77,206,-12.00,17.00,-991.00
2024-06-07 00:02:52.122096,0,0,-58,0,0,0,75,77,127,100,69,119.76,206,-12.00,-3.00,-1049.00
2024-06-07 00:02:52.122322,0,0,-52,0,0,0,75,77,127,100,69,119.74,206,-23.00,-13.00,-964.00
2024-06-07 00:02:52.195182,0,0,-46,0,0,0,76,79,128,100,69,119.71,206,-16.00,22.00,-990.00
2024-06-07 00:02:52.339249,0,0,-40,0,0,0,76,79,128,100,69,119.68,206,0.00,-5.00,-980.00
2024-06-07 00:02:52.443151,0,0,-35,0,0,0,76,79,127,100,69,119.65,206,-11.00,24.00,-1034.00
2024-06-07 00:02:52.524214,0,0,-29,0,0,0,76,79,127,100,69,119.68,207,-16.00,-15.00,-983.00
2024-06-07 00:02:52.618304,0,0,-23,0,0,0,76,79,127,100,69,119.70,207,-8.00,17.00,-1015.00
2024-06-07 00:02:52.704872,0,0,-19,0,0,0,76,79,127,100,69,119.68,207,-10.00,16.00,-1006.00
2024-06-07 00:02:52.838649,0,0,-15,0,0,0,76,79,127,100,69,119.73,207,-6.00,-19.00,-987.00
2024-06-07 00:02:53.052556,0,0,-13,0,0,0,76,79,128,100,69,119.71,207,-20.00,-30.00,-991.00
2024-06-07 00:02:53.052615,0,0,-11,0,0,0,76,79,127,100,69,119.68,207,-21.00,-11.00,-989.00
2024-06-07 00:02:53.112780,0,0,-9,0,0,0,76,79,128,100,69,119.69,207,-4.00,10.00,-1001.00
2024-06-07 00:02:53.259783,0,0,-8,0,0,0,76,79,129,100,69,119.65,207,-4.00,10.00,-1006.00
2024-06-07 00:02:53.318711,0,0,-7,0,0,0,76,79,128,100,69,119.69,207,-8.00,-5.00,-978.00
2024-06-07 00:02:53.418727,0,0,-6,0,0,0,76,79,128,100,69,119.67,207,-17.00,21.00,-997.00
2024-06-07 00:02:53.566104,0,0,-6,0,0,0,76,79,128,100,69,119.63,208,-19.00,-24.00,-952.00
2024-06-07 00:02:53.574368,0,0,-6,0,0,0,76,79,129,100,68,119.63,208,-26.00,-1.00,-984.00
2024-06-07 00:02:53.713517,0,0,-6,0,0,0,76,79,129,100,68,119.71,208,-17.00,2.00,-1003.00
2024-06-07 00:02:53.873239,0,0,-6,0,0,0,76,79,129,100,68,119.69,208,-14.00,-25.00,-1021.00
2024-06-07 00:02:53.878501,0,0,-6,0,0,0,76,79,129,100,68,119.63,208,-10.00,-25.00,-1005.00
2024-06-07 00:02:54.016494,0,0,-6,0,0,0,76,79,129,100,68,119.72,208,-9.00,-25.00,-1030.00
2024-06-07 00:02:54.180455,0,0,-6,0,0,0,76,79,128,100,68,119.65,208,-14.00,-28.00,-993.00
2024-06-07 00:02:54.184136,0,0,-6,0,0,0,76,78,129,100,68,119.69,208,-12.00,-7.00,-981.00
2024-06-07 00:02:54.334708,0,0,-6,0,0,0,76,78,129,100,68,119.64,208,-28.00,15.00,-1001.00
2024-06-07 00:02:54.404355,0,0,-6,0,0,0,76,78,130,100,68,119.66,208,-8.00,-2.00,-982.00
2024-06-07 00:02:54.489558,0,0,-6,0,0,0,76,78,129,100,68,119.66,209,2.00,20.00,-1046.00
2024-06-07 00:02:54.683303,0,0,-6,0,0,0,76,78,129,100,68,119.70,209,-5.00,1.00,-1012.00
2024-06-07 00:02:54.693861,0,0,-6,0,0,0,76,78,130,100,68,119.67,209,-12.00,5.00,-1004.00
2024-06-07 00:02:54.891375,0,0,-5,0,0,0,76,78,129,100,68,119.69,209,-14.00,-9.00,-1005.00
2024-06-07 00:02:54.897706,0,0,-5,0,0,0,76,78,130,100,68,119.66,209,-8.00,-4.00,-1073.00
2024-06-07 00:02:55.091229,0,0,-5,0,0,0,76,78,130,100,68,119.73,209,-2.00,21.00,-1012.00
2024-06-07 00:02:55.101730,0,0,-5,0,0,0,76,78,130,100,68,119.65,209,-19.00,0.00,-957.00
2024-06-07 00:02:55.297722,0,0,-5,0,0,0,76,78,130,100,68,119.68,209,1.00,-2.00,-989.00
2024-06-07 00:02:55.305592,0,0,-5,0,0,0,76,78,129,100,68,119.65,209,-15.00,-3.00,-1017.00
2024-06-07 00:02:55.501240,0,0,-5,0,0,0,76,78,129,100,68,119.70,209,-24.00,-15.00,-978.00
2024-06-07 00:02:55.509555,0,0,-5,0,0,0,76,78,130,100,68,119.69,210,-8.00,28.00,-984.00
2024-06-07 00:02:55.611400,0,0,-5,0,0,0,76,78,128,100,68,119.66,210,-17.00,4.00,-928.00
2024-06-07 00:02:55.808827,0,0,-5,0,0,0,76,78,129,100,68,119.69,210,-25.00,37.00,-1013.00
2024-06-07 00:02:55.815352,0,0,-10,0,0,0,76,78,129,100,68,119.70,210,7.00,-3.00,-1010.00
2024-06-07 00:02:55.917295,0,0,-16,0,0,0,76,78,128,100,68,119.67,210,6.00,-1.00,-1035.00
2024-06-07 00:02:56.114911,0,0,-22,0,0,0,76,78,128,100,68,119.69,210,-3.00,-17.00,-1038.00
2024-06-07 00:02:56.121333,0,0,-28,0,0,0,76,78,129,100,68,119.67,210,-11.00,29.00,-944.00
2024-06-07 00:02:56.223339,0,0,-33,0,0,0,76,78,129,100,68,119.67,210,-11.00,-13.00,-988.00
2024-06-07 00:02:56.425412,0,0,-39,0,0,0,76,78,128,100,68,119.73,210,5.00,16.00,-984.00
2024-06-07 00:02:56.427294,0,0,-45,0,0,0,76,78,128,100,68,119.68,210,-11.00,-4.00,-1017.00
2024-06-07 00:02:56.628896,0,0,-51,0,0,0,76,78,128,100,68,119.70,211,-8.00,18.00,-983.00
2024-06-07 00:02:56.631341,0,0,-57,0,0,0,76,78,129,100,68,119.72,211,17.00,0.00,-1105.00
2024-06-07 00:02:56.734231,0,0,-63,0,0,0,76,78,128,100,68,119.70,211,-17.00,-6.00,-988.00
2024-06-07 00:02:56.935633,0,0,-68,0,0,0,76,78,128,100,68,119.73,211,-10.00,-20.00,-1013.00
2024-06-07 00:02:56.937320,0,0,-74,0,0,0,76,78,127,100,68,119.69,211,-4.00,5.00,-998.00
2024-06-07 00:02:56.998544,0,0,-80,0,0,0,76,78,127,100,68,119.69,211,-15.00,23.00,-960.00
2024-06-07 00:02:57.093187,0,0,-86,0,0,0,76,78,128,100,68,119.70,211,-23.00,11.00,-979.00
2024-06-07 00:02:57.244669,0,0,-92,0,0,0,75,78,127,100,68,119.69,211,-21.00,6.00,-983.00
2024-06-07 00:02:57.298988,0,0,-98,0,0,0,75,78,127,100,68,119.70,211,-20.00,-11.00,-1010.00
2024-06-07 00:02:57.396537,0,0,-104,0,0,0,75,78,126,100,68,119.77,211,-19.00,9.00,-997.00
2024-06-07 00:02:57.548612,0,0,-110,0,0,0,75,78,127,100,68,119.68,212,-16.00,33.00,-972.00
2024-06-07 00:02:57.606232,0,0,-116,0,0,0,75,78,127,100,68,119.70,212,-21.00,-3.00,-993.00
2024-06-07 00:02:57.702523,0,0,-122,0,0,0,75,78,127,100,68,119.73,212,-15.00,22.00,-962.00
2024-06-07 00:02:57.857711,0,0,-128,0,0,0,75,78,128,100,68,119.73,212,8.00,10.00,-1058.00
2024-06-07 00:02:57.906809,0,0,-134,0,0,0,75,78,128,100,68,119.65,212,-22.00,-5.00,-991.00
2024-06-07 00:02:58.060391,0,0,-140,0,0,0,75,78,129,100,68,119.67,212,-5.00,-4.00,-1047.00
2024-06-07 00:02:58.110428,0,0,-146,0,0,0,75,78,129,100,68,119.72,212,-17.00,15.00,-996.00
2024-06-07 00:02:58.267279,0,0,-152,0,0,0,75,79,129,100,68,119.78,212,-4.00,4.00,-1018.00
2024-06-07 00:02:58.314375,0,0,-158,0,0,0,75,79,130,100,68,119.71,212,-17.00,14.00,-979.00
2024-06-07 00:02:58.473979,0,0,-164,0,0,0,75,79,129,100,68,119.70,212,-4.00,20.00,-964.00
2024-06-07 00:02:58.518339,0,0,-170,0,0,0,75,79,130,100,68,119.75,213,0.00,22.00,-978.00
2024-06-07 00:02:58.677437,0,0,-176,0,0,0,75,79,128,100,68,119.80,213,2.00,14.00,-1000.00
2024-06-07 00:02:58.722306,0,0,177,0,0,0,75,79,129,100,68,119.76,213,-17.00,9.00,-997.00
2024-06-07 00:02:58.882333,0,0,171,0,0,0,75,79,128,100,68,119.78,213,-22.00,1.00,-985.00
2024-06-07 00:02:58.926758,0,0,165,0,0,0,75,79,127,100,68,119.73,213,-14.00,-14.00,-1019.00
2024-06-07 00:02:59.086763,0,0,159,0,0,0,75,79,128,100,68,119.73,213,-11.00,9.00,-1012.00
2024-06-07 00:02:59.130360,0,0,153,0,0,0,75,79,127,100,68,119.73,213,2.00,15.00,-996.00
2024-06-07 00:02:59.232378,0,0,147,0,0,0,76,79,127,100,68,119.73,213,-21.00,-6.00,-1001.00
2024-06-07 00:02:59.395593,0,0,141,0,0,0,76,79,127,100,68,119.72,213,-47.00,-5.00,-943.00
2024-06-07 00:02:59.436364,0,0,135,0,0,0,76,79,127,100,68,119.72,213,-30.00,-6.00,-985.00
2024-06-07 00:02:59.596790,0,0,129,0,0,0,76,79,128,100,68,119.74,214,-25.00,-15.00,-1002.00
2024-06-07 00:02:59.640304,0,0,123,0,0,0,76,79,128,100,68,119.73,214,-31.00,1.00,-954.00
2024-06-07 00:02:59.801439,0,0,117,0,0,0,76,79,128,100,68,119.76,214,-12.00,1.00,-991.00
2024-06-07 00:02:59.844405,0,0,111,0,0,0,76,79,129,100,68,119.78,214,-38.00,-26.00,-968.00
2024-06-07 00:02:59.946415,0,0,105,0,0,0,76,79,129,100,68,119.67,214,-8.00,13.00,-1001.00
2024-06-07 00:03:00.109944,0,0,99,0,0,0,76,79,129,100,68,119.74,214,-28.00,16.00,-980.00
2024-06-07 00:03:00.150226,0,0,93,0,0,0,76,79,130,100,68,119.71,214,-11.00,-1.00,-1004.00
2024-06-07 00:03:00.252166,0,0,81,0,0,0,76,78,130,100,68,119.75,214,-10.00,-21.00,-1016.00
2024-06-07 00:03:00.419597,0,0,75,0,0,0,76,78,131,100,68,119.78,214,-14.00,6.00,-968.00
2024-06-07 00:03:00.456171,0,0,68,0,0,0,76,78,131,100,68,119.72,215,-1.00,-4.00,-1031.00
2024-06-07 00:03:00.620836,0,0,62,0,0,0,76,78,130,100,68,119.77,215,-22.00,-12.00,-937.00
2024-06-07 00:03:00.660922,0,0,56,0,0,0,76,78,131,100,68,119.75,215,-4.00,-11.00,-1051.00
2024-06-07 00:03:00.762517,0,0,50,0,0,0,76,78,131,110,68,119.75,215,-10.00,-7.00,-998.00
2024-06-07 00:03:00.864955,0,0,44,0,0,0,76,78,131,110,68,119.81,215,-12.00,12.00,-989.00
2024-06-07 00:03:00.966311,0,0,38,0,0,0,76,78,132,110,68,119.72,215,-25.00,-4.00,-946.00
2024-06-07 00:03:01.068119,0,0,32,0,0,0,76,78,132,110,68,119.79,215,-13.00,-14.00,-951.00
2024-06-07 00:03:01.170190,0,0,25,0,0,0,76,78,132,110,68,119.79,215,-12.00,-1.00,-973.00
2024-06-07 00:03:01.272182,0,0,19,0,0,0,75,78,131,110,68,119.75,215,-16.00,0.00,-969.00
2024-06-07 00:03:01.439781,0,0,13,0,0,0,75,78,132,110,68,119.79,215,-6.00,-9.00,-982.00
2024-06-07 00:03:01.476172,0,0,9,0,0,0,75,78,132,110,68,119.75,216,-13.00,14.00,-993.00
2024-06-07 00:03:01.528618,0,0,5,0,0,0,75,78,131,110,68,119.68,216,-11.00,10.00,-960.00
2024-06-07 00:03:01.628969,0,0,2,0,0,0,75,78,131,100,67,119.79,216,0.00,-11.00,-987.00
2024-06-07 00:03:01.749413,0,0,0,0,0,0,75,78,131,100,67,119.86,216,-10.00,-26.00,-1026.00
2024-06-07 00:03:01.832881,0,0,0,0,0,0,75,78,131,100,67,119.75,216,-16.00,15.00,-976.00
2024-06-07 00:03:01.934884,0,0,-2,0,0,0,75,78,131,100,67,119.81,216,-11.00,-6.00,-1046.00
2024-06-07 00:03:02.053873,0,0,-3,0,0,0,75,78,131,100,67,119.81,216,-10.00,-9.00,-951.00
2024-06-07 00:03:02.138840,0,0,-3,0,0,0,75,78,131,110,67,119.82,216,-4.00,-21.00,-1026.00
2024-06-07 00:03:02.247655,0,0,-4,0,0,0,75,78,131,110,67,119.79,216,-12.00,12.00,-946.00
2024-06-07 00:03:02.343093,0,0,-4,0,0,0,75,78,131,110,67,119.76,216,-10.00,-21.00,-1018.00
2024-06-07 00:03:02.464969,0,0,-4,0,0,0,75,78,132,110,67,119.84,217,-10.00,11.00,-1024.00
2024-06-07 00:03:02.547008,0,0,-4,0,0,0,75,78,132,110,67,119.80,217,-12.00,-24.00,-940.00
2024-06-07 00:03:02.668643,0,0,-4,0,0,0,75,78,132,110,67,119.86,217,-6.00,3.00,-1060.00
2024-06-07 00:03:02.751005,0,0,-4,0,0,0,75,78,133,110,67,119.75,217,-16.00,0.00,-969.00
2024-06-07 00:03:02.877311,0,0,-4,0,0,0,75,78,132,110,67,119.75,217,-5.00,-37.00,-992.00
2024-06-07 00:03:02.954922,0,0,-4,0,0,0,75,78,131,110,67,119.80,217,-16.00,7.00,-945.00
2024-06-07 00:03:03.080826,0,0,-4,0,0,0,75,78,131,110,67,119.76,217,-6.00,3.00,-1025.00
2024-06-07 00:03:03.159034,0,0,-4,0,0,0,75,78,130,110,67,119.81,217,-1.00,-40.00,-990.00
2024-06-07 00:03:03.260959,0,0,-4,0,0,0,76,79,131,100,67,119.80,217,-4.00,-48.00,-967.00
2024-06-07 00:03:03.387281,0,0,-4,0,0,0,76,79,129,100,67,119.78,217,-17.00,0.00,-1007.00
2024-06-07 00:03:03.464967,0,0,-4,0,0,0,76,79,128,100,67,119.73,218,-12.00,-11.00,-965.00
2024-06-07 00:03:03.591512,0,0,-4,0,0,0,76,79,128,100,67,119.79,218,-16.00,-19.00,-1053.00
2024-06-07 00:03:03.669422,0,0,-4,0,0,0,76,79,128,100,67,119.81,218,-19.00,14.00,-1036.00
2024-06-07 00:03:03.796841,0,0,-4,0,0,0,76,79,128,100,67,119.83,218,-2.00,-26.00,-1036.00
2024-06-07 00:03:03.873728,0,0,-4,0,0,0,76,79,127,100,67,119.84,218,-8.00,-24.00,-977.00
2024-06-07 00:03:04.003534,0,0,-4,0,0,0,76,79,127,100,67,119.85,218,-25.00,3.00,-1046.00
2024-06-07 00:03:04.078152,0,0,-4,0,0,0,76,79,127,100,67,119.84,218,-2.00,-35.00,-1033.00
2024-06-07 00:03:04.193425,0,0,-4,0,0,0,76,79,127,100,67,119.78,218,-11.00,-3.00,-985.00
2024-06-07 00:03:04.282708,0,0,-4,0,0,0,75,78,126,100,67,119.82,218,-5.00,21.00,-975.00
2024-06-07 00:03:04.383090,0,0,-4,0,0,-2,75,78,127,100,67,119.92,218,-10.00,-1.00,-1429.00
2024-06-07 00:03:04.485090,0,-1,-7,0,0,-9,75,78,136,110,67,119.93,219,-18.00,5.00,-1772.00
2024-06-07 00:03:04.617171,-7,-66,-8,0,-3,-13,75,78,358,120,67,120.12,219,-18.00,288.00,-1325.00
2024-06-07 00:03:04.719282,2,171,8,-1,-11,-2,75,78,172,130,67,120.35,219,-81.00,447.00,-1157.00
2024-06-07 00:03:04.798937,13,52,-15,0,-7,10,75,78,6553,130,67,120.47,219,-47.00,321.00,-864.00
2024-06-07 00:03:04.892674,-1,-3,-23,0,-3,10,75,78,134,110,67,119.94,219,0.00,-113.00,-1495.00
2024-06-07 00:03:04.958568,0,1,-23,0,-3,7,75,78,126,110,67,119.76,219,-9.00,-2.00,-1394.00
2024-06-07 00:03:05.045902,1,2,-18,0,-3,3,75,78,122,100,67,119.80,219,-28.00,-13.00,-1303.00
2024-06-07 00:03:05.231673,0,2,-9,0,-2,1,75,78,121,100,67,119.70,219,-17.00,33.00,-1321.00
2024-06-07 00:03:05.250139,0,1,-4,0,-1,0,75,78,121,100,67,119.73,219,0.00,-40.00,-1259.00
2024-06-07 00:03:05.436947,0,0,-3,0,-1,-1,75,78,122,100,67,119.82,219,-7.00,37.00,-1189.00
2024-06-07 00:03:05.453561,0,0,-3,0,-1,-1,75,78,124,100,67,119.79,220,-25.00,15.00,-1082.00
2024-06-07 00:03:05.640619,0,0,-3,0,-1,-1,75,78,125,100,67,119.78,220,-9.00,21.00,-1058.00
2024-06-07 00:03:05.659190,0,2,-3,0,-1,-1,75,78,125,100,67,119.75,220,-4.00,-7.00,-1058.00
2024-06-07 00:03:05.847944,0,3,-3,0,0,0,75,78,126,100,67,119.74,220,-6.00,28.00,-934.00
2024-06-07 00:03:05.861631,0,2,-3,0,0,0,75,78,127,100,67,119.74,220,-8.00,12.00,-974.00
2024-06-07 00:03:06.049414,0,1,-3,0,0,0,75,78,126,100,67,119.83,220,-6.00,13.00,-944.00
2024-06-07 00:03:06.066625,0,1,-3,0,0,0,75,78,126,100,67,119.78,220,6.00,18.00,-978.00
2024-06-07 00:03:06.252085,0,1,-3,0,0,0,75,78,126,100,67,119.79,220,1.00,0.00,-1007.00
2024-06-07 00:03:06.269708,0,1,-3,0,0,0,75,79,125,100,67,119.76,220,-4.00,27.00,-1013.00
2024-06-07 00:03:06.459649,0,1,-3,0,0,0,75,79,125,100,67,119.79,220,-4.00,23.00,-1016.00
2024-06-07 00:03:06.473633,0,1,-3,0,0,0,75,79,124,100,67,119.84,221,-7.00,38.00,-1007.00
2024-06-07 00:03:06.666051,0,1,-3,0,0,0,75,79,124,100,67,119.79,221,0.00,18.00,-995.00
2024-06-07 00:03:06.677621,0,0,-3,0,0,0,75,79,123,100,66,119.87,221,2.00,9.00,-1023.00
2024-06-07 00:03:06.868544,0,0,-3,0,0,0,75,79,122,100,66,119.78,221,-5.00,4.00,-1023.00
2024-06-07 00:03:06.881794,0,0,-3,0,0,0,75,79,122,100,66,119.79,221,-8.00,-11.00,-1028.00
2024-06-07 00:03:07.112223,0,0,-4,0,0,0,75,79,121,100,66,119.73,221,-1.00,27.00,-988.00
2024-06-07 00:03:07.112383,0,0,-3,0,0,0,75,79,120,100,66,119.73,221,7.00,-16.00,-1035.00
2024-06-07 00:03:07.253190,0,1,-4,0,0,0,75,79,120,100,66,119.78,221,-10.00,20.00,-1036.00
2024-06-07 00:03:07.361182,0,0,-4,0,0,0,75,78,120,100,66,119.76,221,4.00,18.00,-1052.00
2024-06-07 00:03:07.437213,0,0,-4,0,0,0,75,78,120,100,66,119.75,221,0.00,-14.00,-981.00
2024-06-07 00:03:07.535360,0,1,-4,0,0,0,75,78,119,90,66,119.72,222,-6.00,23.00,-992.00
2024-06-07 00:03:07.617294,0,0,-4,0,0,0,75,78,120,90,66,119.74,222,1.00,-8.00,-1009.00
2024-06-07 00:03:07.742208,0,0,-4,0,0,0,75,78,120,90,66,119.75,222,5.00,-18.00,-982.00
2024-06-07 00:03:07.799857,0,1,-4,0,0,0,75,78,121,100,66,119.78,222,-1.00,23.00,-1001.00
2024-06-07 00:03:08.033998,0,0,-4,0,0,0,75,78,121,100,66,119.74,222,-12.00,22.00,-981.00
2024-06-07 00:03:08.034207,0,0,-3,0,0,0,75,78,121,100,66,119.85,222,3.00,0.00,-991.00
2024-06-07 00:03:08.106864,0,0,-4,0,0,0,75,78,123,100,66,119.86,222,7.00,-19.00,-1013.00
2024-06-07 00:03:08.313161,0,0,-4,0,0,0,75,78,124,100,66,119.81,222,-9.00,5.00,-996.00
2024-06-07 00:03:08.315541,0,1,-4,0,0,0,76,79,126,100,66,119.83,222,8.00,0.00,-1031.00
2024-06-07 00:03:08.456450,0,0,-3,0,0,0,76,79,126,100,66,119.79,222,4.00,-7.00,-983.00
2024-06-07 00:03:08.618649,0,0,-4,0,0,0,76,79,127,100,66,119.81,223,-4.00,-9.00,-974.00
2024-06-07 00:03:08.618807,0,0,-4,0,0,0,76,79,128,100,65,119.85,223,10.00,-10.00,-927.00
2024-06-07 00:03:08.761649,0,1,-4,0,0,0,76,79,128,100,65,119.84,223,-6.00,6.00,-973.00
2024-06-07 00:03:08.769476,0,0,-4,0,0,0,76,79,128,100,65,119.87,223,6.00,-2.00,-1015.00
2024-06-07 00:03:08.926506,0,0,-4,0,0,0,76,79,128,100,65,119.79,223,12.00,-28.00,-1004.00
2024-06-07 00:03:09.079713,0,0,-4,0,0,0,76,79,128,100,65,119.83,223,-9.00,13.00,-1009.00
2024-06-07 00:03:09.081684,0,0,-4,0,0,0,76,79,128,100,65,119.86,223,2.00,19.00,-1004.00
2024-06-07 00:03:09.201074,0,0,-4,0,0,0,76,79,127,100,65,119.80,223,10.00,-26.00,-996.00
2024-06-07 00:03:09.278775,0,0,-4,0,0,0,76,78,126,100,65,119.79,223,2.00,-28.00,-969.00
2024-06-07 00:03:09.427872,0,1,-4,0,0,0,76,78,126,100,65,119.76,223,5.00,1.00,-1008.00
2024-06-07 00:03:09.483058,0,0,-4,0,0,0,76,78,126,100,65,119.79,224,8.00,16.00,-1003.00
2024-06-07 00:03:09.631383,0,0,-4,0,0,0,76,78,125,100,65,119.87,224,-2.00,37.00,-1021.00
2024-06-07 00:03:09.689121,0,0,-4,0,0,0,76,78,125,100,65,119.75,224,6.00,14.00,-1015.00
2024-06-07 00:03:09.788445,0,0,-4,0,0,0,76,78,125,100,65,119.81,224,1.00,16.00,-992.00
2024-06-07 00:03:09.941712,0,0,-4,0,0,0,76,78,126,100,65,119.86,224,-8.00,-6.00,-1013.00
2024-06-07 00:03:09.993846,0,0,-4,0,0,0,76,78,127,100,65,119.85,224,9.00,20.00,-1010.00
2024-06-07 00:03:10.095399,0,0,-4,0,0,0,76,78,128,100,65,119.82,224,-9.00,7.00,-1021.00
2024-06-07 00:03:10.196591,0,0,-4,0,0,0,76,78,129,100,65,119.87,224,-12.00,0.00,-990.00
2024-06-07 00:03:10.298785,0,0,-4,0,0,0,76,77,130,100,65,119.89,224,4.00,-13.00,-1000.00
2024-06-07 00:03:10.452468,0,0,-4,0,0,0,76,77,132,100,65,119.89,224,-12.00,22.00,-979.00
2024-06-07 00:03:10.502311,0,1,-4,0,0,0,76,77,133,100,65,119.89,225,-1.00,16.00,-1011.00
2024-06-07 00:03:10.656867,0,0,-4,0,0,0,76,77,134,100,65,119.93,225,13.00,-30.00,-978.00
2024-06-07 00:03:10.706264,0,1,-4,0,0,0,76,77,135,100,65,119.96,225,0.00,-5.00,-947.00
2024-06-07 00:03:10.815312,0,1,-4,0,0,0,76,77,135,110,65,119.84,225,5.00,-15.00,-994.00
2024-06-07 00:03:10.910865,0,1,-4,0,0,0,76,77,135,110,65,120.00,225,-13.00,4.00,-1279.00
2024-06-07 00:03:11.026944,0,1,-4,0,1,-4,76,77,139,110,65,120.05,225,56.00,-31.00,-1808.00
2024-06-07 00:03:11.114056,0,11,-6,0,1,-11,76,77,156,120,65,120.21,225,24.00,-47.00,-1830.00
2024-06-07 00:03:11.271876,4,102,-4,0,8,-12,76,77,178,130,65,120.28,225,-25.00,671.00,-1148.00
2024-06-07 00:03:11.318053,-2,-135,0,1,11,3,76,78,252,130,65,120.26,225,-68.00,680.00,-815.00
2024-06-07 00:03:11.476545,-1,-23,-6,0,5,11,76,78,165,130,65,120.26,225,13.00,561.00,-1057.00
2024-06-07 00:03:11.522026,0,2,-7,0,5,9,76,78,144,120,65,119.91,226,-14.00,-16.00,-1421.00
2024-06-07 00:03:11.682133,0,-3,-9,0,4,5,76,78,139,110,65,119.89,226,0.00,-33.00,-1369.00
2024-06-07 00:03:11.726008,0,-3,-5,0,3,2,76,78,135,100,65,119.96,226,-48.00,0.00,-1159.00
2024-06-07 00:03:11.886151,0,-2,-3,0,3,0,76,78,134,100,65,119.95,226,-20.00,0.00,-1110.00
2024-06-07 00:03:11.930046,0,-1,-3,0,2,0,76,78,134,100,65,119.98,226,-15.00,-1.00,-1064.00
2024-06-07 00:03:12.092819,0,0,-3,0,2,0,76,78,135,100,65,119.99,226,-6.00,-10.00,-1000.00
2024-06-07 00:03:12.133930,0,0,-3,0,1,0,76,78,136,100,65,119.97,226,-1.00,-12.00,-994.00
2024-06-07 00:03:12.185351,0,0,-3,0,1,0,76,78,137,100,65,119.96,226,-6.00,-13.00,-967.00
2024-06-07 00:03:12.399442,0,0,-3,0,1,0,75,78,137,100,65,120.01,226,-6.00,4.00,-1016.00
2024-06-07 00:03:12.440134,0,-1,-3,0,1,0,75,78,137,100,65,120.03,226,-6.00,-30.00,-1032.00
2024-06-07 00:03:12.492671,0,-3,-3,0,0,0,75,78,138,100,65,120.10,227,-23.00,-32.00,-942.00
2024-06-07 00:03:12.601239,0,-1,-3,0,0,0,75,78,137,100,65,120.02,227,0.00,-28.00,-1002.00
2024-06-07 00:03:12.698840,0,-1,-3,0,0,0,75,78,138,100,65,120.04,227,-9.00,3.00,-969.00
2024-06-07 00:03:12.797281,0,-1,-3,0,0,0,75,78,138,100,65,119.96,227,-20.00,3.00,-951.00
2024-06-07 00:03:12.908142,0,0,-3,0,0,0,75,78,137,100,65,120.00,227,-11.00,-27.00,-974.00
2024-06-07 00:03:13.004727,0,0,-3,0,0,0,75,78,137,100,65,119.95,227,-3.00,3.00,-1055.00
2024-06-07 00:03:13.103533,0,0,-3,0,0,0,75,78,137,100,65,119.98,227,-28.00,1.00,-935.00
2024-06-07 00:03:13.221318,0,0,-3,0,0,0,75,78,137,100,65,119.94,227,-7.00,-5.00,-1012.00
2024-06-07 00:03:13.307299,0,0,-3,0,0,0,75,79,137,100,65,120.00,227,-2.00,3.00,-1028.00
2024-06-07 00:03:13.422346,0,0,-3,0,0,0,75,79,137,100,65,119.97,227,0.00,-9.00,-1038.00
2024-06-07 00:03:13.511740,0,0,-3,0,0,0,75,79,136,100,65,119.96,228,-15.00,-23.00,-1039.00
2024-06-07 00:03:13.628149,0,0,-3,0,0,0,75,79,137,100,64,119.98,228,-19.00,-26.00,-998.00
2024-06-07 00:03:13.715153,0,0,-3,0,0,0,75,79,136,100,64,119.93,228,-18.00,0.00,-996.00
2024-06-07 00:03:13.832205,0,0,-3,0,0,0,75,79,137,100,64,120.02,228,-3.00,9.00,-995.00
2024-06-07 00:03:13.919852,0,0,-4,0,0,0,75,79,137,100,64,119.93,228,-12.00,-38.00,-975.00
2024-06-07 00:03:14.030395,0,0,-4,0,0,0,75,79,137,100,64,120.01,228,-9.00,3.00,-1027.00
2024-06-07 00:03:14.123115,0,0,-4,0,0,0,75,79,136,100,64,119.93,228,-14.00,-16.00,-986.00
2024-06-07 00:03:14.242682,0,0,-4,0,0,0,75,79,137,100,64,119.96,228,-13.00,0.00,-987.00
2024-06-07 00:03:14.327969,0,0,-4,0,0,0,76,79,137,100,64,119.97,228,-28.00,-32.00,-941.00
2024-06-07 00:03:14.447365,0,0,-4,0,0,0,76,79,137,100,64,119.95,228,-15.00,-4.00,-1014.00
2024-06-07 00:03:14.532378,0,0,-4,0,0,0,76,79,136,100,64,119.87,229,-14.00,-38.00,-1010.00
2024-06-07 00:03:14.652263,0,0,-4,0,0,0,76,79,136,100,64,119.90,229,2.00,-11.00,-1038.00
2024-06-07 00:03:14.735976,0,0,-4,0,0,0,76,79,137,100,64,119.99,229,-17.00,-2.00,-935.00
2024-06-07 00:03:14.853700,0,0,-4,0,0,0,76,79,138,100,64,119.95,229,-7.00,3.00,-984.00
2024-06-07 00:03:14.939909,0,0,-4,0,0,0,76,79,137,100,64,119.96,229,-9.00,-31.00,-1037.00
2024-06-07 00:03:15.060039,0,0,-4,0,0,0,76,79,137,100,64,119.97,229,-29.00,-1.00,-955.00
2024-06-07 00:03:15.144641,0,0,-4,0,0,0,76,79,138,100,64,119.96,229,-8.00,28.00,-1010.00
2024-06-07 00:03:15.266787,0,0,-4,0,0,0,76,79,138,100,64,119.90,229,-22.00,-38.00,-987.00
2024-06-07 00:03:15.351999,0,0,-4,0,0,0,76,78,137,100,64,119.94,229,-5.00,13.00,-977.00
2024-06-07 00:03:15.449888,0,0,-4,0,0,0,76,78,139,100,64,119.93,229,-24.00,-35.00,-1026.00
2024-06-07 00:03:15.571684,0,0,-4,0,0,0,76,78,137,100,64,119.92,230,-4.00,-8.00,-987.00
2024-06-07 00:03:15.653915,0,0,-4,0,0,0,76,78,138,100,64,119.94,230,-10.00,-39.00,-954.00
2024-06-07 00:03:15.777530,0,0,-4,0,0,0,76,78,138,100,64,119.87,230,-9.00,-4.00,-1049.00
2024-06-07 00:03:15.857708,0,0,-4,0,0,0,76,78,139,100,64,119.97,230,-19.00,-7.00,-968.00
2024-06-07 00:03:15.959916,0,0,-4,0,0,0,76,78,138,100,64,119.91,230,-6.00,-24.00,-976.00
2024-06-07 00:03:16.084881,0,0,-4,0,0,0,76,78,139,100,64,119.92,230,-13.00,-47.00,-964.00
