TS,pitch,roll,yaw,vgx,vgy,vgz,templ,temph,tof,h,bat,baro,time,agx,agy,agz
2024-06-07 00:03:52.345083,0,0,0,0,0,0,78,80,10,0,62,118.56,249,-4.00,8.00,-998.00
2024-06-07 00:03:52.432958,0,0,0,0,0,0,78,80,10,0,62,118.57,249,-5.00,8.00,-1002.00
2024-06-07 00:03:52.563416,0,0,0,0,0,0,77,80,10,0,62,118.58,249,-4.00,7.00,-999.00
2024-06-07 00:03:52.768221,0,0,0,0,0,0,77,80,10,0,62,118.54,249,-5.00,8.00,-999.00
2024-06-07 00:03:52.768276,0,0,0,0,0,0,77,80,10,0,62,118.57,249,-5.00,8.00,-1000.00
2024-06-07 00:03:52.870593,0,0,0,0,0,0,77,80,10,0,62,118.58,249,-2.00,7.00,-1003.00
2024-06-07 00:03:53.007565,0,0,0,0,0,0,77,80,10,0,62,118.59,249,-3.00,7.00,-996.00
2024-06-07 00:03:53.036501,0,0,0,0,0,0,77,80,10,0,62,118.56,249,-3.00,8.00,-1001.00
2024-06-07 00:03:53.220490,0,0,0,0,0,0,77,80,10,0,62,118.57,249,-4.00,9.00,-998.00
2024-06-07 00:03:53.240469,0,0,0,0,0,0,77,80,10,0,62,118.54,249,-5.00,8.00,-1000.00
2024-06-07 00:03:53.354756,0,0,0,0,0,0,77,80,10,0,62,118.56,249,-3.00,8.00,-999.00
2024-06-07 00:03:53.467811,0,0,0,0,0,0,77,80,10,0,62,118.54,249,-4.00,8.00,-998.00
2024-06-07 00:03:53.611181,0,0,0,0,0,0,78,80,10,0,62,118.53,249,-5.00,8.00,-999.00
2024-06-07 00:03:53.650633,0,0,0,0,0,0,78,80,10,0,62,118.55,249,-3.00,8.00,-1001.00
2024-06-07 00:03:53.774796,0,0,0,0,0,0,78,80,10,0,62,118.56,249,-3.00,7.00,-999.00
2024-06-07 00:03:53.918250,0,0,0,0,0,0,78,80,10,0,62,118.54,249,-5.00,7.00,-1002.00
2024-06-07 00:03:53.954497,0,0,0,0,0,0,78,80,10,0,62,118.57,249,-5.00,7.00,-1000.00
2024-06-07 00:03:54.083004,0,0,0,0,0,0,78,80,10,0,62,118.59,249,-5.00,9.00,-1000.00
2024-06-07 00:03:54.236432,0,0,0,0,0,0,78,80,10,0,62,118.56,249,-5.00,7.00,-1000.00
2024-06-07 00:03:54.260762,0,0,0,0,0,0,78,80,10,0,62,118.57,249,-4.00,8.00,-998.00
2024-06-07 00:03:54.378268,0,0,0,0,0,0,78,80,10,0,62,118.54,249,-3.00,9.00,-1000.00
2024-06-07 00:03:54.464641,0,0,0,0,0,0,78,80,10,0,62,118.60,249,-5.00,6.00,-999.00
2024-06-07 00:03:54.583241,0,0,0,0,0,0,78,80,10,0,62,118.59,249,-3.00,8.00,-999.00
2024-06-07 00:03:54.668738,0,0,0,0,0,0,78,80,10,0,62,118.57,249,-4.00,8.00,-999.00
2024-06-07 00:03:54.788024,0,0,0,0,0,0,78,80,10,0,62,118.57,249,-5.00,8.00,-1003.00
2024-06-07 00:03:54.828730,0,0,0,0,0,0,78,80,10,0,62,118.56,249,-5.00,8.00,-1003.00
2024-06-07 00:03:54.923592,0,0,0,0,0,0,78,80,10,0,62,118.58,249,-5.00,7.00,-1000.00
2024-06-07 00:03:55.095061,0,0,0,0,0,0,78,80,10,0,62,118.58,249,-14.00,0.00,-996.00
2024-06-07 00:03:55.127494,0,0,0,0,0,0,78,80,10,0,62,118.58,249,-6.00,7.00,-1003.00
2024-06-07 00:03:55.300283,0,0,0,0,0,0,78,80,10,0,62,118.58,250,9.00,-7.00,-1009.00
2024-06-07 00:03:55.331213,0,0,1,0,0,0,78,80,10,0,62,118.58,250,-7.00,-11.00,-974.00
2024-06-07 00:03:55.433203,0,0,0,0,0,0,78,80,10,0,62,118.58,250,-23.00,1.00,-983.00
2024-06-07 00:03:55.613629,0,0,0,0,0,0,77,81,10,0,62,118.58,250,-19.00,-23.00,-1138.00
2024-06-07 00:03:55.637477,0,1,0,0,0,-2,77,81,10,0,62,118.58,250,12.00,23.00,-1286.00
2024-06-07 00:03:55.816727,0,0,0,0,0,-5,77,81,10,0,62,118.58,250,-28.00,-31.00,-1262.00
2024-06-07 00:03:55.841540,0,0,0,0,0,-6,77,81,16,0,62,118.62,250,3.00,4.00,-1115.00
2024-06-07 00:03:55.943569,0,0,0,0,0,-6,77,81,23,0,62,118.93,250,-5.00,2.00,-1025.00
2024-06-07 00:03:56.120953,0,0,0,0,0,-6,77,81,32,0,62,118.93,250,1.00,17.00,-1014.00
2024-06-07 00:03:56.151127,0,0,0,0,0,-6,77,81,38,10,62,119.08,250,-7.00,-25.00,-968.00
2024-06-07 00:03:56.249263,0,0,0,0,0,-5,77,81,46,10,62,119.20,251,0.00,10.00,-966.00
2024-06-07 00:03:56.427948,0,0,0,0,0,-5,77,81,53,20,62,119.23,251,0.00,2.00,-904.00
2024-06-07 00:03:56.453159,0,0,0,0,0,-4,77,81,61,20,62,119.25,251,-16.00,12.00,-883.00
2024-06-07 00:03:56.632078,0,0,0,0,0,-2,79,81,69,30,62,119.39,251,-18.00,-9.00,-855.00
2024-06-07 00:03:56.657118,0,0,0,0,0,-2,79,81,75,30,62,119.41,251,-7.00,-21.00,-916.00
2024-06-07 00:03:56.839324,0,0,0,0,0,-1,79,81,79,30,62,119.49,251,8.00,5.00,-961.00
2024-06-07 00:03:56.861527,0,0,0,0,0,-1,79,81,83,30,62,119.46,251,12.00,24.00,-974.00
2024-06-07 00:03:57.041162,0,0,0,0,0,-1,79,81,86,40,62,119.54,251,-17.00,-3.00,-906.00
2024-06-07 00:03:57.065583,0,0,0,0,0,0,79,81,88,40,62,119.54,251,0.00,0.00,-944.00
2024-06-07 00:03:57.246021,0,0,0,0,0,0,79,81,90,40,62,119.54,251,-4.00,-17.00,-945.00
2024-06-07 00:03:57.269106,0,0,0,0,0,0,79,81,92,40,62,119.62,252,-4.00,-15.00,-974.00
2024-06-07 00:03:57.453310,0,0,0,0,0,0,79,81,93,40,62,119.63,252,0.00,-7.00,-958.00
2024-06-07 00:03:57.473045,0,0,0,0,0,0,79,81,94,50,62,119.66,252,-3.00,-19.00,-964.00
2024-06-07 00:03:57.658647,0,0,0,0,0,0,79,80,94,50,62,119.60,252,-2.00,-17.00,-949.00
2024-06-07 00:03:57.677266,0,0,0,0,0,0,79,80,95,50,62,119.61,252,-8.00,10.00,-951.00
2024-06-07 00:03:57.862776,0,0,0,0,0,0,79,80,95,50,62,119.67,252,-13.00,-7.00,-976.00
2024-06-07 00:03:57.881328,0,0,0,0,0,0,79,80,94,50,62,119.66,252,-7.00,10.00,-949.00
2024-06-07 00:03:58.064855,0,0,0,0,0,0,79,80,94,50,62,119.63,252,-5.00,4.00,-946.00
2024-06-07 00:03:58.085001,0,0,0,0,0,1,79,80,94,50,62,119.66,252,-10.00,-32.00,-967.00
2024-06-07 00:03:58.271605,0,0,0,0,0,1,79,80,93,50,62,119.60,252,-4.00,-14.00,-1005.00
2024-06-07 00:03:58.288987,0,0,0,0,0,1,79,80,92,50,62,119.63,253,-1.00,-23.00,-991.00
2024-06-07 00:03:58.474116,0,0,0,0,0,1,79,80,91,50,62,119.61,253,-17.00,-19.00,-985.00
2024-06-07 00:03:58.493176,0,0,0,0,0,1,79,80,90,50,62,119.62,253,-4.00,0.00,-966.00
2024-06-07 00:03:58.681013,0,0,0,0,0,1,79,80,90,50,62,119.58,253,0.00,-16.00,-999.00
2024-06-07 00:03:58.696988,0,0,0,0,0,1,79,80,88,50,62,119.55,253,-17.00,1.00,-977.00
2024-06-07 00:03:58.748014,0,0,0,0,0,1,79,80,87,50,62,119.57,253,-7.00,-34.00,-1035.00
2024-06-07 00:03:58.885866,0,0,0,0,0,1,79,80,86,40,62,119.56,253,-21.00,8.00,-993.00
2024-06-07 00:03:58.951928,0,0,0,0,0,1,79,80,85,40,62,119.54,253,-9.00,-39.00,-1000.00
2024-06-07 00:03:59.091648,0,0,0,0,0,0,79,80,84,40,62,119.52,253,-13.00,-27.00,-991.00
2024-06-07 00:03:59.156013,0,0,0,0,0,0,79,80,83,40,62,119.58,253,-5.00,-41.00,-978.00
2024-06-07 00:03:59.293823,0,0,0,0,0,0,79,80,82,40,62,119.54,254,-4.00,-6.00,-1007.00
2024-06-07 00:03:59.360230,0,0,0,0,0,0,79,80,81,40,62,119.52,254,1.00,-4.00,-1032.00
2024-06-07 00:03:59.498345,0,0,0,0,0,0,79,80,80,40,62,119.48,254,-7.00,-8.00,-994.00
2024-06-07 00:03:59.563918,-1,0,0,0,0,0,78,81,80,40,62,119.54,254,-26.00,14.00,-1021.00
2024-06-07 00:03:59.704892,-1,0,0,0,0,0,78,81,79,40,62,119.48,254,-13.00,-14.00,-1024.00
2024-06-07 00:03:59.768678,-1,0,0,0,0,0,78,81,78,40,62,119.46,254,-29.00,11.00,-1005.00
2024-06-07 00:03:59.908555,-1,0,0,0,0,0,78,81,78,40,62,119.46,254,3.00,-28.00,-969.00
2024-06-07 00:03:59.971874,-1,0,0,0,0,0,78,81,77,40,62,119.50,254,-20.00,6.00,-993.00
2024-06-07 00:04:00.114308,0,0,0,0,0,0,78,81,77,40,62,119.46,254,-26.00,10.00,-1051.00
2024-06-07 00:04:00.175859,0,0,0,0,0,0,78,81,77,40,62,119.53,254,-28.00,-2.00,-981.00
2024-06-07 00:04:00.318885,-1,0,0,0,0,0,78,81,77,40,62,119.52,255,-29.00,32.00,-1009.00
2024-06-07 00:04:00.380089,-1,0,0,0,0,0,78,81,77,40,62,119.50,255,-20.00,-39.00,-989.00
2024-06-07 00:04:00.525090,-1,0,0,0,0,0,78,81,77,40,62,119.50,255,-16.00,-11.00,-998.00
2024-06-07 00:04:00.584245,0,0,0,0,0,0,78,81,76,40,62,119.40,255,-16.00,-8.00,-990.00
2024-06-07 00:04:00.728859,0,0,0,0,0,0,78,81,77,40,62,119.46,255,-6.00,-49.00,-965.00
2024-06-07 00:04:00.788575,0,0,0,0,0,0,78,81,77,40,62,119.44,255,-8.00,7.00,-992.00
2024-06-07 00:04:00.890212,0,0,0,0,0,0,78,81,77,40,62,119.49,255,-46.00,-6.00,-1030.00
2024-06-07 00:04:01.034250,0,0,0,0,0,0,78,81,77,40,62,119.51,255,-10.00,-35.00,-996.00
2024-06-07 00:04:01.093912,0,0,0,0,0,0,78,81,77,40,62,119.54,255,-24.00,33.00,-1003.00
2024-06-07 00:04:01.240182,0,0,0,0,0,0,78,81,77,40,62,119.47,255,-40.00,0.00,-1001.00
2024-06-07 00:04:01.297879,-1,0,0,0,0,0,78,81,77,40,62,119.53,256,-5.00,-31.00,-978.00
2024-06-07 00:04:01.452100,0,0,0,0,0,0,78,81,77,40,62,119.50,256,0.00,23.00,-978.00
2024-06-07 00:04:01.501790,0,0,0,0,0,0,78,81,77,40,62,119.48,256,-19.00,12.00,-1025.00
2024-06-07 00:04:01.650059,0,0,0,0,0,0,78,80,77,40,62,119.51,256,-7.00,-22.00,-981.00
2024-06-07 00:04:01.707175,0,0,0,0,0,0,78,80,77,40,62,119.49,256,-11.00,2.00,-1025.00
2024-06-07 00:04:01.856079,0,0,0,0,0,0,78,80,78,40,62,119.48,256,6.00,-7.00,-1001.00
2024-06-07 00:04:01.909785,0,0,0,0,0,0,78,80,78,40,62,119.57,256,-18.00,-31.00,-1016.00
2024-06-07 00:04:02.063024,0,0,0,0,0,0,78,80,78,40,62,119.49,256,-15.00,22.00,-1007.00
2024-06-07 00:04:02.114713,0,0,0,0,0,0,78,80,78,40,62,119.47,256,-7.00,8.00,-988.00
2024-06-07 00:04:02.263733,0,0,0,0,0,0,78,80,78,40,62,119.50,256,-12.00,-22.00,-1025.00
2024-06-07 00:04:02.317811,0,0,0,0,0,0,78,80,78,40,62,119.54,257,-27.00,30.00,-1017.00
2024-06-07 00:04:02.369632,0,0,0,0,0,0,78,80,79,40,62,119.54,257,-10.00,-4.00,-996.00
2024-06-07 00:04:02.472093,0,0,0,0,0,0,78,80,79,40,62,119.55,257,-13.00,10.00,-1017.00
2024-06-07 00:04:02.674773,0,0,0,0,0,0,78,80,79,40,62,119.48,257,-9.00,-9.00,-986.00
2024-06-07 00:04:02.725702,0,0,0,0,0,0,78,80,79,40,62,119.49,257,-16.00,14.00,-994.00
2024-06-07 00:04:02.842170,0,0,0,0,0,0,78,80,79,40,62,119.54,257,-21.00,27.00,-1004.00
2024-06-07 00:04:02.879082,0,0,0,0,0,0,78,80,79,40,62,119.51,257,-10.00,-19.00,-1012.00
2024-06-07 00:04:03.081830,0,0,0,0,0,0,78,80,79,40,62,119.54,257,-5.00,20.00,-1003.00
2024-06-07 00:04:03.082679,0,0,0,0,0,0,78,80,80,40,62,119.57,257,-29.00,-7.00,-1122.00
2024-06-07 00:04:03.186394,0,0,0,0,0,-1,78,80,81,40,62,119.66,257,-18.00,29.00,-1109.00
2024-06-07 00:04:03.288772,0,0,0,0,0,-2,78,80,83,40,62,119.59,258,-13.00,17.00,-1078.00
2024-06-07 00:04:03.390363,0,0,0,0,0,-3,78,80,85,40,62,119.63,258,-11.00,-14.00,-1071.00
2024-06-07 00:04:03.494734,0,0,0,0,0,-3,78,80,89,50,62,119.65,258,-31.00,17.00,-1047.00
2024-06-07 00:04:03.596992,-1,0,0,0,0,-4,77,80,93,50,62,119.75,258,-22.00,39.00,-1027.00
2024-06-07 00:04:03.695935,-1,0,0,0,0,-4,77,80,98,60,62,119.78,258,-28.00,29.00,-1041.00
2024-06-07 00:04:03.801902,-1,0,0,0,0,-5,77,80,103,60,62,119.78,258,-29.00,17.00,-1038.00
2024-06-07 00:04:03.905135,-1,0,0,0,0,-5,77,80,109,70,62,119.88,258,-19.00,3.00,-1009.00
2024-06-07 00:04:04.001420,0,0,0,0,0,-5,77,80,114,70,62,119.94,258,-17.00,1.00,-1045.00
2024-06-07 00:04:04.109468,0,0,0,0,0,-5,77,80,120,80,62,119.96,258,-27.00,6.00,-993.00
2024-06-07 00:04:04.205391,0,0,0,0,0,-5,77,80,125,80,62,120.06,258,-9.00,13.00,-952.00
2024-06-07 00:04:04.311174,0,0,0,0,0,-5,77,80,130,90,62,120.07,259,-28.00,3.00,-895.00
2024-06-07 00:04:04.414538,0,0,0,0,0,-4,77,80,135,90,62,120.13,259,-22.00,0.00,-926.00
2024-06-07 00:04:04.515373,0,0,0,0,0,-4,77,80,141,100,62,120.23,259,-17.00,15.00,-934.00
2024-06-07 00:04:04.618238,0,0,0,0,0,-4,77,81,147,100,62,120.25,259,-14.00,7.00,-941.00
2024-06-07 00:04:04.720671,0,0,0,0,0,-4,77,81,150,110,62,120.24,259,-17.00,3.00,-948.00
2024-06-07 00:04:04.818373,0,0,0,0,0,-3,77,81,155,110,62,120.31,259,-26.00,-16.00,-952.00
2024-06-07 00:04:04.926061,0,0,0,0,0,-3,77,81,158,110,62,120.33,259,-10.00,9.00,-959.00
2024-06-07 00:04:05.021361,0,0,0,0,0,-3,77,81,161,120,62,120.37,259,-9.00,-10.00,-1012.00
2024-06-07 00:04:05.132857,0,0,0,0,0,-2,77,81,163,120,62,120.30,259,-20.00,-2.00,-912.00
2024-06-07 00:04:05.225336,0,0,0,0,0,-2,77,81,166,120,62,120.38,259,-19.00,-4.00,-970.00
2024-06-07 00:04:05.338640,0,0,0,0,0,-2,77,81,168,130,62,120.36,260,-9.00,5.00,-995.00
2024-06-07 00:04:05.429470,0,0,0,0,0,-1,77,81,170,130,62,120.39,260,-9.00,-3.00,-995.00
2024-06-07 00:04:05.542365,0,0,0,0,0,-1,77,81,172,130,62,120.48,260,-20.00,-15.00,-1001.00
2024-06-07 00:04:05.633369,0,0,0,0,0,-1,77,81,174,130,62,120.43,260,-7.00,20.00,-933.00
2024-06-07 00:04:05.735550,0,0,0,0,0,-1,77,81,176,130,62,120.46,260,-7.00,20.00,-966.00
2024-06-07 00:04:05.848735,0,0,0,0,0,-1,77,81,179,130,62,120.48,260,-1.00,9.00,-1006.00
2024-06-07 00:04:05.940111,0,0,0,0,0,0,77,81,179,140,62,120.46,260,-5.00,-25.00,-988.00
2024-06-07 00:04:06.047616,0,0,0,0,0,0,77,81,179,140,62,120.49,260,-27.00,-22.00,-931.00
2024-06-07 00:04:06.143788,0,0,0,0,0,0,77,81,179,140,62,120.47,260,-17.00,-24.00,-952.00
2024-06-07 00:04:06.258224,0,0,0,0,0,0,77,81,179,140,62,120.52,260,0.00,3.00,-999.00
2024-06-07 00:04:06.347762,0,0,0,0,0,0,77,81,180,140,62,120.48,261,0.00,-2.00,-1025.00
2024-06-07 00:04:06.449645,0,0,0,0,0,0,77,81,180,140,62,120.49,261,-19.00,-9.00,-979.00
2024-06-07 00:04:06.563564,0,0,0,0,0,0,77,81,179,140,62,120.54,261,-2.00,16.00,-985.00
2024-06-07 00:04:06.653536,0,0,0,0,0,0,77,81,180,140,62,120.51,261,-14.00,16.00,-997.00
2024-06-07 00:04:06.768432,0,0,0,0,0,0,77,81,180,140,62,120.45,261,2.00,-8.00,-1063.00
2024-06-07 00:04:06.857347,0,0,0,0,0,0,77,81,181,140,62,120.43,261,-10.00,-30.00,-1014.00
2024-06-07 00:04:06.911463,0,0,0,0,0,0,77,81,181,140,62,120.49,261,-16.00,-4.00,-1004.00
2024-06-07 00:04:07.178311,0,0,0,0,0,0,77,81,181,140,62,120.52,261,-13.00,-8.00,-1008.00
2024-06-07 00:04:07.294223,0,0,0,0,0,0,77,81,182,140,62,120.55,261,-3.00,-17.00,-980.00
2024-06-07 00:04:07.298429,0,0,0,0,0,0,77,81,182,140,62,120.54,261,-14.00,18.00,-969.00
2024-06-07 00:04:07.320040,0,0,0,0,0,0,77,81,182,140,62,120.56,262,-5.00,-7.00,-1046.00
2024-06-07 00:04:07.423346,0,0,0,0,0,0,77,81,182,140,62,120.48,262,-14.00,-1.00,-958.00
2024-06-07 00:04:07.572410,0,0,0,0,0,0,77,81,182,140,62,120.53,262,-12.00,10.00,-1024.00
2024-06-07 00:04:07.643116,0,0,0,0,0,0,77,80,182,140,62,120.54,262,-13.00,-15.00,-982.00
2024-06-07 00:04:07.761641,0,0,0,0,0,0,77,80,182,140,62,120.52,262,-16.00,32.00,-977.00
2024-06-07 00:04:07.826039,0,0,0,0,0,0,77,80,182,140,62,120.54,262,-19.00,-36.00,-984.00
2024-06-07 00:04:07.929929,0,0,0,0,0,0,77,80,182,140,62,120.54,262,-12.00,12.00,-1007.00
2024-06-07 00:04:08.055658,0,0,0,0,0,0,77,80,182,140,62,120.55,262,-18.00,25.00,-965.00
2024-06-07 00:04:08.132176,0,0,0,0,0,0,77,80,181,140,62,120.54,262,-3.00,-8.00,-977.00
2024-06-07 00:04:08.263956,0,0,0,0,0,1,77,80,181,140,62,120.49,263,5.00,5.00,-961.00
2024-06-07 00:04:08.336071,0,0,0,0,0,1,77,80,179,140,62,120.53,263,-1.00,-34.00,-963.00
2024-06-07 00:04:08.520077,0,0,0,0,0,2,77,80,175,130,62,120.53,263,-17.00,-15.00,-968.00
2024-06-07 00:04:08.540492,0,0,0,0,0,2,77,80,173,130,62,120.43,263,-14.00,0.00,-939.00
2024-06-07 00:04:08.663430,0,1,0,0,0,2,77,80,169,130,62,120.49,263,-15.00,1.00,-959.00
2024-06-07 00:04:08.827075,0,0,0,0,0,3,77,80,165,130,62,120.48,263,-18.00,-14.00,-994.00
2024-06-07 00:04:08.845926,0,0,0,0,0,3,77,80,162,120,62,120.38,263,-9.00,3.00,-961.00
2024-06-07 00:04:08.970503,0,0,0,0,0,3,77,80,159,120,62,120.32,263,-14.00,1.00,-1016.00
2024-06-07 00:04:09.134069,0,0,0,0,0,3,77,80,156,110,62,120.33,263,-22.00,21.00,-1009.00
2024-06-07 00:04:09.151959,0,0,0,0,0,3,77,80,153,110,62,120.22,263,-16.00,8.00,-1029.00
2024-06-07 00:04:09.288581,0,0,0,0,0,2,77,80,149,110,62,120.28,264,-8.00,1.00,-1047.00
2024-06-07 00:04:09.368245,0,0,0,0,0,2,77,80,147,110,62,120.22,264,-25.00,-7.00,-1000.00
2024-06-07 00:04:09.457913,0,0,0,0,0,2,77,80,144,100,62,120.21,264,-20.00,19.00,-1025.00
2024-06-07 00:04:09.636689,0,0,0,0,0,2,77,80,143,100,62,120.21,264,-16.00,0.00,-1010.00
2024-06-07 00:04:09.661817,0,0,0,0,0,1,77,80,141,100,62,120.22,264,-19.00,2.00,-1023.00
2024-06-07 00:04:09.843265,0,0,0,0,0,1,77,80,140,100,62,120.17,264,-20.00,-14.00,-1025.00
2024-06-07 00:04:09.865847,0,0,0,0,0,1,77,80,139,100,62,120.19,264,-7.00,-12.00,-1040.00
2024-06-07 00:04:10.048096,0,0,0,0,0,0,77,80,138,100,62,120.22,264,-10.00,28.00,-984.00
2024-06-07 00:04:10.069925,0,0,0,0,0,0,77,80,137,100,62,120.18,264,-12.00,25.00,-1044.00
2024-06-07 00:04:10.250880,0,0,0,0,0,0,77,80,137,100,62,120.18,264,-23.00,15.00,-1003.00
2024-06-07 00:04:10.274211,0,0,0,0,0,0,77,80,136,90,62,120.16,265,-4.00,13.00,-1030.00
2024-06-07 00:04:10.457385,0,0,0,0,0,0,77,80,135,90,62,120.11,265,-1.00,-18.00,-1032.00
2024-06-07 00:04:10.458732,0,0,0,0,0,0,77,80,133,90,62,120.16,265,-6.00,15.00,-985.00
2024-06-07 00:04:10.529104,0,0,0,0,0,0,77,80,133,90,62,120.13,265,-20.00,-1.00,-1001.00
2024-06-07 00:04:10.682423,0,1,0,0,0,0,77,80,132,90,62,120.14,265,-7.00,-7.00,-985.00
2024-06-07 00:04:10.867424,0,1,0,0,0,0,77,80,131,90,62,120.19,265,-13.00,-4.00,-1033.00
2024-06-07 00:04:10.886296,0,1,0,0,0,0,77,80,132,90,62,120.08,265,-12.00,-16.00,-1009.00
2024-06-07 00:04:11.071997,0,1,0,0,0,0,77,80,133,90,62,120.16,265,-19.00,1.00,-1045.00
2024-06-07 00:04:11.090675,0,0,0,0,0,0,77,80,133,90,62,120.19,265,-24.00,26.00,-1059.00
2024-06-07 00:04:11.141046,0,0,0,0,0,0,77,80,133,90,62,120.14,265,-16.00,6.00,-1034.00
2024-06-07 00:04:11.276708,0,0,0,0,0,0,77,80,134,90,62,120.13,266,-12.00,-2.00,-985.00
2024-06-07 00:04:11.345293,0,0,0,0,0,0,77,80,136,90,62,120.14,266,-8.00,-7.00,-972.00
2024-06-07 00:04:11.448207,0,0,0,0,0,0,77,80,136,90,62,120.13,266,-2.00,-26.00,-956.00
2024-06-07 00:04:11.586151,0,0,0,0,0,0,77,80,137,90,62,120.21,266,-9.00,-14.00,-977.00
2024-06-07 00:04:11.651743,0,0,0,0,0,0,78,80,137,90,62,120.17,266,-8.00,4.00,-974.00
2024-06-07 00:04:11.788891,0,0,0,0,0,0,78,80,138,100,62,120.16,266,-3.00,-11.00,-925.00
2024-06-07 00:04:11.855029,0,0,0,0,0,0,78,80,137,100,62,120.21,266,-17.00,1.00,-1022.00
2024-06-07 00:04:11.956936,0,0,0,0,0,0,78,80,138,100,62,120.20,266,-23.00,30.00,-982.00
2024-06-07 00:04:12.058810,0,0,0,0,0,0,78,80,138,90,62,120.15,266,-3.00,-15.00,-983.00
2024-06-07 00:04:12.161578,0,0,0,0,0,0,78,80,137,90,62,120.16,266,-11.00,-4.00,-1000.00
2024-06-07 00:04:12.298259,0,0,0,0,0,0,78,80,138,90,62,120.18,267,2.00,-20.00,-993.00
2024-06-07 00:04:12.364956,0,0,0,0,0,0,78,80,138,90,62,120.21,267,-13.00,-17.00,-992.00
2024-06-07 00:04:12.467262,0,0,0,0,0,0,78,80,137,90,62,120.19,267,-19.00,4.00,-1005.00
2024-06-07 00:04:12.606354,0,0,0,0,0,0,78,80,137,90,62,120.13,267,-23.00,28.00,-973.00
2024-06-07 00:04:12.671639,-4,0,0,0,0,0,76,80,138,90,62,120.21,267,-31.00,19.00,-999.00
2024-06-07 00:04:12.815554,-8,0,0,1,0,0,76,80,140,90,62,120.19,267,-26.00,11.00,-998.00
2024-06-07 00:04:12.877803,-8,0,0,2,0,0,76,80,138,90,62,120.23,267,-25.00,10.00,-1013.00
2024-06-07 00:04:12.978127,-8,0,0,3,0,0,76,80,139,100,62,120.20,267,-26.00,-35.00,-1007.00
2024-06-07 00:04:13.078739,-8,0,0,4,0,0,76,80,139,100,62,120.18,267,-40.00,-19.00,-992.00
2024-06-07 00:04:13.219486,-8,0,0,5,0,0,76,80,139,100,62,120.17,267,-31.00,-28.00,-1077.00
2024-06-07 00:04:13.284096,-7,0,0,6,0,0,76,80,138,100,62,120.18,268,-48.00,-9.00,-1012.00
2024-06-07 00:04:13.424651,-6,0,0,7,0,0,76,80,137,100,62,120.09,268,-58.00,0.00,-963.00
2024-06-07 00:04:13.491904,-4,0,0,7,0,0,76,80,137,100,62,120.08,268,-71.00,-10.00,-989.00
2024-06-07 00:04:13.589725,-1,0,0,7,0,0,76,80,136,100,62,120.08,268,-61.00,-17.00,-1048.00
2024-06-07 00:04:13.732924,1,0,0,7,0,0,77,80,136,90,62,120.16,268,-62.00,2.00,-997.00
2024-06-07 00:04:13.795514,3,0,0,6,0,0,77,80,137,90,62,120.06,268,-59.00,-18.00,-990.00
2024-06-07 00:04:13.896688,4,0,0,5,0,0,77,80,135,90,62,120.11,268,-47.00,-14.00,-1028.00
2024-06-07 00:04:14.041983,2,0,0,4,0,0,77,80,134,90,62,120.18,268,-36.00,-2.00,-987.00
2024-06-07 00:04:14.100036,1,0,0,3,0,0,77,80,134,90,62,120.15,268,-27.00,10.00,-1011.00
2024-06-07 00:04:14.244977,0,0,0,3,0,0,77,80,133,90,62,120.12,268,-18.00,8.00,-1047.00
2024-06-07 00:04:14.303610,0,0,0,3,0,0,77,80,134,90,62,120.10,269,-26.00,9.00,-1044.00
2024-06-07 00:04:14.448298,0,0,0,2,0,0,77,80,133,90,62,120.14,269,-17.00,-8.00,-1028.00
2024-06-07 00:04:14.507596,0,0,0,2,0,0,77,80,132,90,62,120.12,269,-39.00,-15.00,-1034.00
2024-06-07 00:04:14.655139,-1,0,0,2,0,0,77,80,132,90,62,120.14,269,-21.00,-22.00,-1038.00
2024-06-07 00:04:14.711546,0,0,0,2,0,0,77,80,133,90,62,120.12,269,-24.00,-10.00,-1004.00
2024-06-07 00:04:14.859250,0,0,0,2,0,0,77,80,132,90,62,120.19,269,-5.00,2.00,-954.00
2024-06-07 00:04:14.917223,4,0,0,1,0,0,77,80,133,90,62,120.10,269,-36.00,-23.00,-1004.00
2024-06-07 00:04:14.967153,2,0,0,0,0,0,77,80,133,90,62,120.14,269,-4.00,-21.00,-1045.00
2024-06-07 00:04:15.068873,0,0,0,0,0,0,77,80,133,90,62,120.19,269,-13.00,-20.00,-1033.00
2024-06-07 00:04:15.267185,0,0,0,0,0,0,77,80,133,90,62,120.17,269,-6.00,-16.00,-1028.00
2024-06-07 00:04:15.272445,0,0,0,0,0,0,77,80,133,90,62,120.20,270,-2.00,0.00,-1035.00
2024-06-07 00:04:15.472589,0,0,0,0,0,0,77,80,133,90,62,120.18,270,7.00,2.00,-994.00
2024-06-07 00:04:15.476439,0,0,0,0,0,0,77,80,133,90,62,120.18,270,-21.00,-28.00,-920.00
2024-06-07 00:04:15.677741,0,0,0,0,0,0,77,80,133,90,62,120.15,270,3.00,-5.00,-1036.00
2024-06-07 00:04:15.680881,0,0,0,0,0,0,77,80,134,90,62,120.24,270,-10.00,-4.00,-942.00
2024-06-07 00:04:15.882147,0,0,0,0,0,0,77,80,133,90,62,120.19,270,-7.00,-8.00,-1010.00
2024-06-07 00:04:15.885056,0,0,0,0,0,0,77,80,134,90,62,120.29,270,2.00,10.00,-1022.00
2024-06-07 00:04:15.986593,0,0,0,0,0,0,77,80,133,90,62,120.26,270,4.00,-22.00,-1004.00
2024-06-07 00:04:16.089207,0,0,0,0,0,0,77,80,133,90,62,120.21,270,-15.00,22.00,-999.00
2024-06-07 00:04:16.190554,0,0,0,0,0,0,77,80,133,90,62,120.21,270,-13.00,-19.00,-977.00
2024-06-07 00:04:16.393736,0,0,0,0,0,0,77,80,134,90,62,120.25,271,-13.00,15.00,-1020.00
2024-06-07 00:04:16.394695,-1,0,0,0,0,0,77,80,133,90,62,120.19,271,-14.00,-9.00,-953.00
2024-06-07 00:04:16.496643,0,0,0,0,0,0,77,80,133,90,62,120.18,271,-1.00,-6.00,-1068.00
2024-06-07 00:04:16.598866,0,0,0,0,0,0,77,80,134,90,62,120.23,271,-15.00,-11.00,-942.00
2024-06-07 00:04:16.702467,0,0,0,0,0,0,77,80,133,90,62,120.21,271,-8.00,-4.00,-998.00
2024-06-07 00:04:16.804102,0,0,0,0,0,0,77,80,133,90,62,120.16,271,0.00,1.00,-1000.00
2024-06-07 00:04:16.906031,0,0,0,0,0,0,77,80,132,90,62,120.22,271,-27.00,-11.00,-938.00
2024-06-07 00:04:17.011595,0,0,0,0,0,0,77,80,133,90,62,120.21,271,-11.00,12.00,-991.00
2024-06-07 00:04:17.108349,0,0,0,0,0,0,77,80,132,90,62,120.21,271,-11.00,-23.00,-995.00
2024-06-07 00:04:17.215924,3,0,0,0,0,0,77,80,133,90,62,120.19,271,-18.00,-7.00,-960.00
2024-06-07 00:04:17.316475,7,0,0,0,0,0,77,80,133,90,62,120.22,272,-4.00,-21.00,-1006.00
2024-06-07 00:04:17.414373,8,0,0,-2,0,0,77,80,133,90,62,120.20,272,9.00,-6.00,-1025.00
2024-06-07 00:04:17.520873,8,0,0,-3,0,0,77,80,134,90,62,120.17,272,18.00,9.00,-1014.00
2024-06-07 00:04:17.619558,7,0,0,-5,0,0,77,80,133,90,62,120.15,272,22.00,-5.00,-956.00
2024-06-07 00:04:17.726739,6,0,0,-6,0,0,77,80,131,90,62,120.08,272,41.00,0.00,-1039.00
2024-06-07 00:04:17.822642,5,0,0,-7,0,0,77,80,131,90,62,120.13,272,49.00,-11.00,-993.00
2024-06-07 00:04:17.924595,4,0,0,-7,0,0,77,80,132,90,62,120.14,272,40.00,-7.00,-1032.00
2024-06-07 00:04:18.033868,3,0,0,-7,0,0,77,80,131,90,62,120.14,272,56.00,-20.00,-998.00
2024-06-07 00:04:18.128495,0,0,0,-7,0,0,77,80,130,90,62,120.18,272,41.00,-13.00,-965.00
2024-06-07 00:04:18.238461,-2,0,0,-7,0,0,77,80,130,90,62,120.16,272,56.00,-10.00,-1016.00
2024-06-07 00:04:18.332782,-4,0,0,-6,0,0,77,80,130,90,62,120.17,273,40.00,-23.00,-1008.00
2024-06-07 00:04:18.441611,-5,0,0,-5,0,0,77,80,130,90,62,120.22,273,32.00,-27.00,-979.00
2024-06-07 00:04:18.486253,-3,0,0,-4,0,0,77,80,129,90,62,120.07,273,25.00,-14.00,-992.00
2024-06-07 00:04:18.646367,-2,0,0,-3,0,0,77,80,130,90,61,120.21,273,24.00,-22.00,-1011.00
2024-06-07 00:04:18.744009,-1,0,0,-3,0,0,76,80,130,90,61,120.10,273,31.00,1.00,-1003.00
2024-06-07 00:04:18.844584,0,0,0,-2,0,0,76,80,129,90,61,120.13,273,28.00,-12.00,-1012.00
2024-06-07 00:04:18.945246,0,0,0,-2,0,0,76,80,130,90,61,120.16,273,15.00,22.00,-1002.00
2024-06-07 00:04:19.058995,0,0,0,-2,0,0,76,80,130,90,61,120.17,273,15.00,-8.00,-1076.00
2024-06-07 00:04:19.098144,-1,0,0,-2,0,0,76,80,130,90,61,120.19,273,17.00,-17.00,-1016.00
2024-06-07 00:04:19.264230,-2,0,0,-1,0,0,76,80,130,90,61,120.19,273,7.00,19.00,-977.00
2024-06-07 00:04:19.302315,-4,0,0,-1,0,0,76,80,131,90,61,120.14,274,8.00,-15.00,-986.00
2024-06-07 00:04:19.470497,-2,0,0,0,0,0,76,80,131,90,61,120.21,274,12.00,-15.00,-990.00
2024-06-07 00:04:19.506038,-1,-2,0,0,0,0,76,80,131,90,61,120.15,274,-2.00,22.00,-980.00
2024-06-07 00:04:19.674198,-1,-4,0,0,0,0,76,80,131,90,61,120.20,274,6.00,22.00,-975.00
2024-06-07 00:04:19.711137,0,-2,0,0,-1,0,78,79,131,90,61,120.20,274,1.00,6.00,-968.00
2024-06-07 00:04:19.875186,0,3,0,0,-1,0,78,79,130,90,61,120.17,274,-5.00,19.00,-1043.00
2024-06-07 00:04:19.917369,0,2,0,0,0,0,78,79,130,90,61,120.16,274,0.00,-13.00,-1003.00
2024-06-07 00:04:20.016323,0,0,0,0,0,0,78,79,129,90,61,120.17,274,-8.00,-12.00,-983.00
2024-06-07 00:04:20.118160,0,0,0,0,0,0,78,79,129,90,61,120.17,274,-5.00,-5.00,-1038.00
2024-06-07 00:04:20.220256,0,0,0,0,0,0,78,79,128,90,61,120.10,274,-2.00,-18.00,-1038.00
2024-06-07 00:04:20.322131,0,0,0,0,0,0,78,79,128,90,61,120.17,275,-4.00,2.00,-978.00
2024-06-07 00:04:20.424197,0,0,0,0,0,0,78,79,128,90,61,120.20,275,-6.00,4.00,-1043.00
2024-06-07 00:04:20.526204,0,0,0,0,0,0,78,79,129,90,61,120.10,275,1.00,-3.00,-996.00
2024-06-07 00:04:20.697607,0,0,0,0,0,0,78,79,129,90,61,120.18,275,-8.00,10.00,-1043.00
2024-06-07 00:04:20.730188,0,0,0,0,0,0,77,79,129,90,61,120.14,275,-16.00,0.00,-987.00
2024-06-07 00:04:20.902282,0,0,0,0,0,0,77,79,129,90,61,120.19,275,1.00,-26.00,-1005.00
2024-06-07 00:04:20.934278,0,0,0,0,0,0,77,79,130,90,61,120.19,275,-1.00,18.00,-994.00
2024-06-07 00:04:21.038865,0,0,0,0,0,0,77,79,130,90,61,120.16,275,0.00,0.00,-992.00
2024-06-07 00:04:21.139272,0,-1,0,0,0,0,77,79,130,90,61,120.17,275,-7.00,13.00,-965.00
2024-06-07 00:04:21.240264,0,0,0,0,0,0,77,79,130,90,61,120.13,276,-5.00,-15.00,-994.00
2024-06-07 00:04:21.411057,0,0,0,0,0,0,77,79,131,90,61,120.22,276,-12.00,37.00,-1003.00
2024-06-07 00:04:21.444583,0,0,0,0,0,0,77,79,132,90,61,120.18,276,-11.00,-4.00,-956.00
2024-06-07 00:04:21.619165,0,0,0,0,0,0,77,79,132,90,61,120.14,276,-3.00,-7.00,-996.00
2024-06-07 00:04:21.648070,0,0,0,0,0,0,77,79,131,90,60,120.19,276,-9.00,37.00,-1000.00
2024-06-07 00:04:21.749957,0,0,0,0,0,0,76,79,132,90,60,120.17,276,-9.00,-1.00,-985.00
2024-06-07 00:04:21.924189,0,-4,0,0,0,0,76,79,132,90,60,120.19,276,-7.00,39.00,-924.00
2024-06-07 00:04:21.954688,0,-8,0,0,-1,0,76,79,133,90,60,120.14,276,-10.00,-27.00,-1013.00
2024-06-07 00:04:22.117118,0,-6,0,0,-2,0,76,79,133,90,60,120.21,276,0.00,15.00,-1014.00
2024-06-07 00:04:22.158227,0,-4,0,0,-3,0,76,79,133,90,60,120.17,276,-19.00,35.00,-992.00
2024-06-07 00:04:22.345397,0,-1,0,0,-3,0,76,79,132,90,60,120.14,277,-9.00,19.00,-1047.00
2024-06-07 00:04:22.361893,0,0,0,0,-3,0,76,79,132,90,60,120.21,277,-4.00,13.00,-946.00
2024-06-07 00:04:22.467227,0,0,0,0,-3,0,76,79,132,90,60,120.18,277,-13.00,35.00,-970.00
2024-06-07 00:04:22.624494,0,0,0,0,-2,0,76,79,133,90,60,120.14,277,0.00,46.00,-972.00
2024-06-07 00:04:22.624542,0,0,0,0,-2,0,76,79,132,90,60,120.16,277,3.00,22.00,-980.00
2024-06-07 00:04:22.719422,0,0,0,0,-2,0,76,80,132,90,60,120.12,277,-13.00,18.00,-974.00
2024-06-07 00:04:22.844702,0,0,0,0,-2,0,76,80,132,90,60,120.12,277,-6.00,11.00,-996.00
2024-06-07 00:04:22.948633,0,0,0,0,-2,0,76,80,132,90,60,120.13,277,-21.00,-1.00,-1022.00
2024-06-07 00:04:23.040725,0,0,0,0,-2,0,76,80,131,90,60,120.14,277,-9.00,19.00,-999.00
2024-06-07 00:04:23.127745,0,0,0,0,-2,0,76,80,131,90,60,120.15,277,-1.00,9.00,-1036.00
2024-06-07 00:04:23.264830,0,0,0,0,-2,0,76,80,131,90,60,120.10,278,-8.00,2.00,-982.00
2024-06-07 00:04:23.330841,0,0,0,0,-2,0,76,80,131,90,60,120.14,278,0.00,13.00,-1035.00
2024-06-07 00:04:23.572114,0,0,0,0,-2,0,76,80,131,90,60,120.11,278,-6.00,6.00,-1028.00
2024-06-07 00:04:23.572175,0,0,0,0,-2,0,76,80,131,90,60,120.13,278,-11.00,-10.00,-992.00
2024-06-07 00:04:23.716276,0,4,0,0,-1,0,76,80,131,90,60,120.08,278,4.00,42.00,-1011.00
2024-06-07 00:04:23.742772,0,3,0,0,-1,0,76,80,132,90,60,120.12,278,-24.00,14.00,-968.00
2024-06-07 00:04:23.880746,0,1,0,0,0,0,76,80,132,90,60,120.15,278,-13.00,17.00,-967.00
2024-06-07 00:04:24.024889,0,0,0,0,0,0,76,80,132,90,60,120.17,278,-9.00,14.00,-943.00
2024-06-07 00:04:24.045048,0,0,0,0,0,0,76,80,133,90,60,120.18,278,-5.00,21.00,-997.00
2024-06-07 00:04:24.186858,0,0,0,0,0,0,76,80,133,90,60,120.20,278,0.00,2.00,-1001.00
2024-06-07 00:04:24.340678,0,0,0,0,0,0,76,80,133,90,60,120.19,279,-7.00,-4.00,-999.00
2024-06-07 00:04:24.351843,0,0,0,0,0,0,76,80,132,90,60,120.16,279,0.00,-15.00,-1012.00
2024-06-07 00:04:24.488373,0,0,0,0,0,0,76,80,133,90,60,120.11,279,-30.00,12.00,-951.00
2024-06-07 00:04:24.580822,0,0,0,0,0,0,76,80,134,90,60,120.14,279,3.00,12.00,-1021.00
2024-06-07 00:04:24.657018,0,0,0,0,0,0,76,80,133,90,60,120.20,279,-9.00,-19.00,-1018.00
2024-06-07 00:04:24.793352,0,0,0,0,0,0,77,80,133,90,60,120.17,279,-6.00,-14.00,-982.00
2024-06-07 00:04:24.864974,0,0,0,0,0,0,77,80,134,90,60,120.18,279,-13.00,7.00,-984.00
2024-06-07 00:04:24.963378,0,0,0,0,0,0,77,80,133,90,60,120.14,279,9.00,16.00,-1012.00
2024-06-07 00:04:25.100468,0,0,0,0,0,0,77,80,133,90,60,120.15,279,-7.00,-16.00,-1016.00
2024-06-07 00:04:25.167444,0,0,0,0,0,0,77,80,133,90,60,120.18,279,-10.00,1.00,-1009.00
2024-06-07 00:04:25.310910,0,0,0,0,0,0,77,80,133,90,60,120.15,280,0.00,2.00,-957.00
2024-06-07 00:04:25.373271,0,0,0,0,0,0,77,80,133,90,60,120.13,280,-10.00,1.00,-1022.00
2024-06-07 00:04:25.472933,0,0,0,0,0,0,77,80,133,90,60,120.21,280,-11.00,9.00,-999.00
2024-06-07 00:04:25.577028,0,0,0,0,0,0,77,80,133,90,60,120.16,280,-21.00,-18.00,-991.00
2024-06-07 00:04:25.676942,0,0,0,0,0,0,77,80,132,90,60,120.14,280,-13.00,19.00,-1006.00
2024-06-07 00:04:25.814285,0,0,0,0,0,0,77,79,133,90,60,120.14,280,-24.00,-21.00,-1010.00
2024-06-07 00:04:25.881024,0,0,0,0,0,0,77,79,133,90,60,120.20,280,-11.00,-10.00,-994.00
2024-06-07 00:04:25.983812,0,0,0,0,0,0,77,79,133,90,60,120.19,280,-8.00,-1.00,-964.00
2024-06-07 00:04:26.084705,0,3,0,0,0,0,77,79,134,90,60,120.17,280,2.00,-37.00,-1040.00
2024-06-07 00:04:26.230538,0,8,0,0,0,0,77,79,135,90,60,120.15,280,-9.00,10.00,-979.00
2024-06-07 00:04:26.288600,0,7,0,0,2,0,77,79,135,90,60,120.12,281,-16.00,1.00,-997.00
2024-06-07 00:04:26.339534,0,4,0,0,3,0,77,79,134,90,60,120.16,281,-12.00,-31.00,-992.00
2024-06-07 00:04:26.534049,0,2,0,0,3,0,77,79,133,90,60,120.11,281,-17.00,-19.00,-956.00
2024-06-07 00:04:26.543503,0,0,0,0,4,0,77,79,133,90,60,120.19,281,-14.00,-16.00,-966.00
2024-06-07 00:04:26.736047,0,-1,0,0,3,0,77,79,133,90,60,120.15,281,-1.00,-19.00,-988.00
2024-06-07 00:04:26.747510,0,-1,0,0,3,0,76,80,133,90,60,120.11,281,-19.00,-30.00,-956.00
2024-06-07 00:04:26.943514,0,0,0,0,3,0,76,80,133,90,60,120.18,281,-18.00,-7.00,-966.00
2024-06-07 00:04:26.951727,0,0,0,0,2,0,76,80,135,90,60,120.21,281,-11.00,-21.00,-1038.00
2024-06-07 00:04:27.054262,0,0,0,0,2,0,76,80,134,90,60,120.16,281,3.00,8.00,-1028.00
2024-06-07 00:04:27.250448,0,0,0,0,2,0,76,80,134,90,60,120.18,281,-8.00,-43.00,-1003.00
2024-06-07 00:04:27.260234,0,1,0,0,2,0,76,80,135,90,60,120.16,282,-1.00,-43.00,-1023.00
2024-06-07 00:04:27.359480,0,1,0,0,2,0,76,80,135,90,60,120.13,282,-8.00,-18.00,-1014.00
2024-06-07 00:04:27.557773,0,1,0,0,2,0,76,80,135,90,60,120.19,282,-16.00,-15.00,-957.00
2024-06-07 00:04:27.568214,0,0,0,0,2,0,76,80,135,90,60,120.15,282,-5.00,-37.00,-965.00
2024-06-07 00:04:27.665440,0,0,0,0,2,0,76,80,134,90,59,120.16,282,3.00,-32.00,-1003.00
2024-06-07 00:04:27.861909,0,-3,0,0,2,0,76,80,135,90,59,120.11,282,2.00,-27.00,-1043.00
2024-06-07 00:04:27.870324,0,-4,0,0,1,0,76,80,134,90,59,120.15,282,-2.00,-18.00,-955.00
2024-06-07 00:04:27.972495,0,-1,0,0,0,0,76,80,133,90,59,120.10,282,4.00,-37.00,-999.00
2024-06-07 00:04:28.170555,0,-1,0,0,0,0,76,80,132,90,59,120.09,282,2.00,15.00,-990.00
2024-06-07 00:04:28.176400,0,0,0,0,0,0,76,80,133,90,59,120.11,282,4.00,15.00,-991.00
2024-06-07 00:04:28.375209,0,-1,0,0,0,0,76,80,132,90,59,120.21,283,5.00,-45.00,-1027.00
2024-06-07 00:04:28.382569,0,-1,0,0,0,0,76,80,131,90,59,120.17,283,-6.00,3.00,-970.00
2024-06-07 00:04:28.484229,0,-1,0,0,0,0,76,80,131,90,59,120.14,283,7.00,-2.00,-1022.00
2024-06-07 00:04:28.584719,0,-1,0,0,0,0,76,80,131,90,59,120.16,283,-6.00,-4.00,-1029.00
2024-06-07 00:04:28.784976,0,-1,0,0,0,0,76,80,131,90,59,120.14,283,-25.00,-9.00,-998.00
2024-06-07 00:04:28.788987,0,0,0,0,0,0,76,79,130,90,59,120.13,283,0.00,33.00,-1036.00
2024-06-07 00:04:28.890689,0,0,0,0,0,0,76,79,130,90,59,120.14,283,0.00,30.00,-1007.00
2024-06-07 00:04:29.092740,0,0,0,0,0,0,76,79,130,90,59,120.11,283,0.00,20.00,-1016.00
2024-06-07 00:04:29.094443,0,0,0,0,0,0,76,79,130,90,59,120.18,283,1.00,19.00,-1041.00
2024-06-07 00:04:29.295916,0,0,0,0,0,0,76,79,130,90,59,120.08,283,-2.00,8.00,-975.00
2024-06-07 00:04:29.298756,0,0,0,0,0,0,76,79,129,90,59,120.14,284,-1.00,5.00,-975.00
2024-06-07 00:04:29.401015,0,0,0,0,0,0,76,79,129,90,59,120.20,284,9.00,-6.00,-1012.00
2024-06-07 00:04:29.503139,0,0,0,0,0,0,76,79,129,90,59,120.22,284,-1.00,-21.00,-1044.00
2024-06-07 00:04:29.604643,0,0,0,0,0,0,76,79,130,90,59,120.17,284,7.00,0.00,-1051.00
2024-06-07 00:04:29.706757,0,0,0,0,0,0,76,79,130,90,59,120.18,284,-6.00,3.00,-1020.00
2024-06-07 00:04:29.909816,0,0,0,0,0,0,77,79,130,90,59,120.12,284,3.00,13.00,-1031.00
2024-06-07 00:04:29.910486,0,0,0,0,0,0,77,79,130,90,59,120.23,284,2.00,38.00,-1016.00
2024-06-07 00:04:30.014150,0,0,0,0,0,0,77,79,130,90,59,120.15,284,-3.00,35.00,-1000.00
2024-06-07 00:04:30.063205,0,0,1,0,0,0,77,79,131,90,59,120.15,284,19.00,-22.00,-1007.00
2024-06-07 00:04:30.222066,0,0,7,0,0,0,77,79,131,90,59,120.14,284,2.00,-7.00,-974.00
2024-06-07 00:04:30.267123,0,0,13,0,0,0,77,79,131,90,59,120.16,285,-1.00,42.00,-993.00
2024-06-07 00:04:30.432275,0,0,19,0,0,0,77,79,132,90,59,120.16,285,-7.00,-1.00,-965.00
2024-06-07 00:04:30.471339,0,0,25,0,0,0,77,79,132,90,59,120.19,285,9.00,-5.00,-1005.00
2024-06-07 00:04:30.632261,0,0,31,0,0,0,77,79,132,90,59,120.16,285,0.00,13.00,-1046.00
2024-06-07 00:04:30.675718,0,0,37,0,0,0,77,79,133,90,59,120.17,285,-9.00,25.00,-946.00
2024-06-07 00:04:30.834167,0,0,43,0,0,0,77,79,133,90,59,120.16,285,3.00,24.00,-1021.00
2024-06-07 00:04:30.879075,0,0,48,0,0,0,77,79,134,90,59,120.15,285,-2.00,2.00,-1006.00
2024-06-07 00:04:31.041204,0,0,54,0,0,0,77,79,133,90,59,120.14,285,-10.00,11.00,-989.00
2024-06-07 00:04:31.083015,0,0,60,0,0,0,77,79,133,90,59,120.19,285,7.00,-3.00,-980.00
2024-06-07 00:04:31.245537,0,0,66,0,0,0,77,79,132,90,59,120.15,285,-7.00,18.00,-982.00
2024-06-07 00:04:31.287125,0,0,72,0,0,0,77,79,131,90,59,120.16,286,0.00,2.00,-967.00
2024-06-07 00:04:31.446855,0,0,78,0,0,0,77,79,130,90,59,120.12,286,-10.00,-7.00,-1037.00
2024-06-07 00:04:31.491058,0,0,84,0,0,0,77,79,130,90,59,120.16,286,6.00,0.00,-1019.00
2024-06-07 00:04:31.650419,0,0,90,0,0,0,77,79,130,90,59,120.14,286,5.00,26.00,-990.00
2024-06-07 00:04:31.695022,0,0,96,0,0,0,77,79,129,90,59,120.06,286,-4.00,3.00,-990.00
2024-06-07 00:04:31.855247,0,0,102,0,0,0,77,79,129,90,59,120.14,286,-11.00,4.00,-1034.00
2024-06-07 00:04:31.899556,0,0,108,0,0,0,77,79,129,90,59,120.11,286,-8.00,31.00,-986.00
2024-06-07 00:04:32.059925,0,0,114,0,0,0,77,79,130,90,59,120.13,286,-5.00,-28.00,-1003.00
2024-06-07 00:04:32.103044,0,0,120,0,0,0,77,79,130,90,59,120.10,286,-4.00,-11.00,-1052.00
2024-06-07 00:04:32.205417,0,0,126,0,0,0,77,79,131,90,59,120.10,286,-9.00,6.00,-996.00
2024-06-07 00:04:32.368626,0,0,132,0,0,0,77,79,131,90,59,120.09,287,2.00,-27.00,-1049.00
2024-06-07 00:04:32.409895,0,0,138,0,0,0,77,79,132,90,59,120.18,287,-4.00,4.00,-970.00
2024-06-07 00:04:32.511626,0,0,144,0,0,0,77,79,132,90,59,120.12,287,-14.00,0.00,-1028.00
2024-06-07 00:04:32.680046,0,0,150,0,0,0,77,79,132,90,58,120.07,287,-14.00,-41.00,-990.00
2024-06-07 00:04:32.715240,0,0,156,0,0,0,77,79,132,90,58,120.14,287,-21.00,-13.00,-966.00
2024-06-07 00:04:32.879099,0,0,162,0,0,0,76,79,133,90,58,120.13,287,-10.00,10.00,-984.00
2024-06-07 00:04:32.920564,0,0,168,0,0,0,76,79,133,90,58,120.16,287,-5.00,3.00,-975.00
2024-06-07 00:04:33.021157,0,0,174,0,0,0,76,79,133,90,58,120.11,287,-8.00,3.00,-1018.00
2024-06-07 00:04:33.122902,0,0,-178,0,0,0,76,79,134,90,58,120.10,287,-10.00,30.00,-1024.00
2024-06-07 00:04:33.224890,0,0,-172,0,0,0,76,79,134,90,58,120.15,287,-23.00,18.00,-1014.00
2024-06-07 00:04:33.326893,0,0,-166,0,0,0,76,79,135,90,58,120.09,288,-8.00,12.00,-1017.00
2024-06-07 00:04:33.378313,0,0,-160,0,0,0,76,79,135,90,58,120.18,288,-20.00,15.00,-965.00
2024-06-07 00:04:33.493945,0,0,-154,0,0,0,76,79,135,90,58,120.17,288,-10.00,-26.00,-1001.00
2024-06-07 00:04:33.581824,0,0,-148,0,0,0,76,79,135,90,58,120.22,288,-16.00,-21.00,-1027.00
2024-06-07 00:04:33.698285,0,0,-141,0,0,0,76,79,136,90,58,120.11,288,-17.00,8.00,-1011.00
2024-06-07 00:04:33.785909,0,0,-135,0,0,0,76,80,135,90,58,120.15,288,-15.00,26.00,-931.00
2024-06-07 00:04:33.903173,0,0,-129,0,0,0,76,80,135,90,58,120.19,288,-12.00,15.00,-982.00
2024-06-07 00:04:33.989812,0,0,-123,0,0,0,76,80,135,90,58,120.17,288,-15.00,-13.00,-1005.00
2024-06-07 00:04:34.109345,0,0,-117,0,0,0,76,80,135,90,58,120.18,288,0.00,16.00,-1009.00
2024-06-07 00:04:34.193803,0,0,-111,0,0,0,76,80,134,90,58,120.15,288,-8.00,6.00,-986.00
2024-06-07 00:04:34.313282,0,0,-105,0,0,0,76,80,134,90,58,120.14,289,-17.00,-7.00,-956.00
2024-06-07 00:04:34.410389,0,0,-98,0,0,0,76,80,134,90,58,120.14,289,-16.00,14.00,-986.00
2024-06-07 00:04:34.501550,0,0,-92,0,0,0,76,80,133,90,58,120.18,289,-15.00,15.00,-984.00
2024-06-07 00:04:34.602692,0,0,-86,0,0,0,76,80,133,90,58,120.18,289,-6.00,-9.00,-992.00
2024-06-07 00:04:34.727821,0,0,-80,0,0,0,76,80,133,90,58,120.16,289,-16.00,18.00,-959.00
2024-06-07 00:04:34.806690,0,0,-74,0,0,0,75,79,132,90,58,120.13,289,-7.00,-19.00,-975.00
2024-06-07 00:04:34.927786,0,0,-68,0,0,0,75,79,132,90,58,120.08,289,8.00,11.00,-1040.00
2024-06-07 00:04:35.009687,0,0,-62,0,0,0,75,79,132,90,58,120.15,289,-11.00,15.00,-962.00
2024-06-07 00:04:35.131780,0,0,-56,0,0,0,75,79,132,90,58,120.11,289,-5.00,-14.00,-1006.00
2024-06-07 00:04:35.213673,0,0,-50,0,0,0,75,79,132,90,58,120.12,289,-7.00,-26.00,-1002.00
2024-06-07 00:04:35.340405,0,0,-44,0,0,0,75,79,131,90,58,120.08,290,-6.00,-15.00,-960.00
2024-06-07 00:04:35.418210,0,0,-38,0,0,0,75,79,131,90,58,120.12,290,-1.00,-2.00,-1012.00
2024-06-07 00:04:35.519993,0,0,-32,0,0,0,75,79,131,90,58,120.14,290,-1.00,19.00,-1031.00
2024-06-07 00:04:35.643798,0,0,-26,0,0,0,75,79,130,90,58,120.14,290,1.00,-12.00,-1037.00
2024-06-07 00:04:35.723671,0,0,-20,0,0,0,75,79,130,90,58,120.07,290,-8.00,-1.00,-1038.00
2024-06-07 00:04:35.848594,0,0,-15,0,0,0,76,80,131,90,58,120.15,290,-1.00,5.00,-1006.00
2024-06-07 00:04:35.927652,0,0,-12,0,0,0,76,80,130,90,58,120.13,290,-13.00,24.00,-960.00
2024-06-07 00:04:36.045142,0,0,-9,0,0,0,76,80,131,90,58,120.05,290,2.00,0.00,-1042.00
2024-06-07 00:04:36.132927,0,0,-7,0,0,0,76,80,131,90,58,120.11,290,-3.00,-9.00,-976.00
2024-06-07 00:04:36.258171,0,0,-5,0,0,0,76,80,131,90,58,120.12,290,1.00,-3.00,-1048.00
2024-06-07 00:04:36.337101,0,0,-4,0,0,0,76,80,131,90,58,120.12,291,7.00,-10.00,-1019.00
2024-06-07 00:04:36.462972,0,0,-3,0,0,0,76,80,131,90,58,120.09,291,7.00,-38.00,-993.00
2024-06-07 00:04:36.541997,0,0,-2,0,0,0,76,80,131,90,58,120.13,291,-7.00,-21.00,-969.00
2024-06-07 00:04:36.644896,0,0,-1,0,0,0,76,80,131,90,57,120.12,291,-8.00,-6.00,-973.00
2024-06-07 00:04:36.745557,0,0,-1,0,0,0,76,80,131,90,57,120.17,291,-13.00,13.00,-978.00
2024-06-07 00:04:36.849328,0,0,-1,0,0,0,76,79,131,90,57,120.06,291,-16.00,-18.00,-950.00
2024-06-07 00:04:36.947746,0,0,-1,0,0,0,76,79,132,90,57,120.12,291,-2.00,15.00,-976.00
2024-06-07 00:04:37.121151,0,0,-1,0,0,0,76,79,132,90,57,120.12,291,-4.00,6.00,-1013.00
2024-06-07 00:04:37.263599,0,0,-1,0,0,0,76,79,133,90,57,120.13,291,18.00,-19.00,-1013.00
2024-06-07 00:04:37.264013,0,0,-1,0,0,0,76,79,133,90,57,120.15,291,-4.00,23.00,-1034.00
2024-06-07 00:04:37.369687,0,0,-1,0,0,0,76,79,133,90,57,120.13,292,-7.00,-1.00,-996.00
2024-06-07 00:04:37.443366,0,0,-1,0,0,0,76,79,134,90,57,120.10,292,-4.00,-27.00,-1018.00
2024-06-07 00:04:37.545752,0,0,-1,0,0,0,76,79,134,90,57,120.08,292,-16.00,27.00,-955.00
2024-06-07 00:04:37.631941,0,0,-1,0,0,0,76,79,134,90,57,120.17,292,10.00,0.00,-1021.00
2024-06-07 00:04:37.751553,0,0,-1,0,0,0,76,79,134,90,57,120.08,292,4.00,-10.00,-1032.00
2024-06-07 00:04:37.814635,0,0,-1,0,0,0,76,79,134,90,57,120.02,292,-19.00,17.00,-985.00
2024-06-07 00:04:37.985937,0,0,-1,0,0,0,76,79,134,90,57,120.09,292,-10.00,3.00,-956.00
2024-06-07 00:04:38.040452,0,0,-1,0,0,0,76,79,135,90,57,120.11,292,8.00,-24.00,-1051.00
2024-06-07 00:04:38.188971,0,0,-1,0,0,0,76,79,135,90,57,120.17,292,-3.00,-11.00,-964.00
2024-06-07 00:04:38.250147,0,0,-1,0,0,0,76,79,135,90,57,120.06,293,-13.00,29.00,-994.00
2024-06-07 00:04:38.393619,0,0,-1,0,0,0,76,79,135,90,57,120.14,293,-8.00,-24.00,-992.00
2024-06-07 00:04:38.426599,0,0,-1,0,0,0,76,79,135,90,57,120.16,293,-5.00,5.00,-986.00
2024-06-07 00:04:38.624175,0,0,-1,0,0,0,76,79,136,90,57,120.14,293,-14.00,4.00,-952.00
2024-06-07 00:04:38.632308,0,0,-1,0,0,0,76,79,135,90,57,120.12,293,4.00,24.00,-995.00
2024-06-07 00:04:38.767512,0,0,-2,0,0,0,76,79,136,90,57,120.12,293,8.00,15.00,-980.00
2024-06-07 00:04:38.931367,0,0,-8,0,0,0,76,79,136,90,57,120.15,293,1.00,0.00,-1007.00
2024-06-07 00:04:38.936428,0,0,-14,0,0,0,76,79,136,90,57,120.13,293,-11.00,7.00,-967.00
2024-06-07 00:04:39.074720,0,0,-20,0,0,0,76,79,136,90,57,120.18,293,-10.00,-1.00,-940.00
2024-06-07 00:04:39.238539,0,0,-26,0,0,0,76,79,136,90,57,120.12,293,12.00,-9.00,-1048.00
2024-06-07 00:04:39.242298,0,0,-31,0,0,0,76,79,136,90,57,120.13,294,-15.00,18.00,-971.00
2024-06-07 00:04:39.392788,0,0,-37,0,0,0,76,79,135,90,57,120.12,294,9.00,-23.00,-1049.00
2024-06-07 00:04:39.497751,0,0,-43,0,0,0,76,79,136,90,57,120.15,294,-6.00,11.00,-997.00
2024-06-07 00:04:39.549696,0,0,-49,0,0,0,76,79,135,90,57,120.10,294,10.00,8.00,-1018.00
2024-06-07 00:04:39.743424,0,0,-55,0,0,0,76,79,135,90,57,120.08,294,-11.00,0.00,-937.00
2024-06-07 00:04:39.753415,0,0,-61,0,0,0,76,79,135,90,57,120.10,294,-4.00,31.00,-1003.00
2024-06-07 00:04:39.948272,0,0,-67,0,0,0,76,80,134,90,57,120.08,294,-3.00,13.00,-1014.00
2024-06-07 00:04:39.957791,0,0,-73,0,0,0,76,80,133,90,57,120.08,294,20.00,12.00,-1053.00
2024-06-07 00:04:40.152833,0,0,-79,0,0,0,76,80,133,90,57,120.13,294,-11.00,-6.00,-1021.00
2024-06-07 00:04:40.161276,0,0,-85,0,0,0,76,80,133,90,57,120.09,294,-10.00,6.00,-1010.00
2024-06-07 00:04:40.360168,0,0,-91,0,0,0,76,80,133,90,57,120.07,295,-5.00,-4.00,-1033.00
2024-06-07 00:04:40.365441,0,0,-97,0,0,0,76,80,133,90,57,120.08,295,-12.00,28.00,-944.00
2024-06-07 00:04:40.467196,0,0,-103,0,0,0,76,80,132,90,57,120.10,295,3.00,11.00,-1045.00
2024-06-07 00:04:40.662045,0,0,-109,0,0,0,76,80,133,90,57,120.09,295,-15.00,-6.00,-984.00
2024-06-07 00:04:40.671283,0,0,-115,0,0,0,76,80,133,90,57,120.14,295,-5.00,23.00,-988.00
2024-06-07 00:04:40.866051,0,0,-121,0,0,0,76,80,133,90,57,120.12,295,-8.00,37.00,-1003.00
2024-06-07 00:04:40.875152,0,0,-127,0,0,0,76,79,133,90,57,120.10,295,4.00,13.00,-1041.00
2024-06-07 00:04:41.070802,0,0,-133,0,0,0,76,79,132,90,57,120.11,295,-18.00,-21.00,-1039.00
2024-06-07 00:04:41.079130,0,0,-138,0,0,0,76,79,133,90,57,120.07,295,-38.00,-14.00,-944.00
2024-06-07 00:04:41.279166,0,0,-144,0,0,0,76,79,133,90,57,120.09,295,-28.00,26.00,-966.00
2024-06-07 00:04:41.283109,0,0,-150,0,0,0,76,79,133,90,57,120.07,296,-17.00,4.00,-994.00
2024-06-07 00:04:41.334152,0,0,-156,0,0,0,76,79,133,90,57,120.11,296,-28.00,-13.00,-1006.00
2024-06-07 00:04:41.480390,0,0,-162,0,0,0,76,79,133,90,57,120.06,296,-40.00,10.00,-954.00
2024-06-07 00:04:41.539682,0,0,-168,0,0,0,76,79,133,90,57,120.06,296,-20.00,-2.00,-1006.00
2024-06-07 00:04:41.640143,0,0,-174,0,0,0,76,79,133,90,57,120.14,296,-24.00,-21.00,-994.00
2024-06-07 00:04:41.799869,0,0,179,0,0,0,76,79,132,90,57,120.11,296,-23.00,19.00,-970.00
2024-06-07 00:04:41.846774,0,0,173,0,0,0,77,79,132,90,57,120.13,296,-11.00,-4.00,-1005.00
2024-06-07 00:04:41.946089,0,0,167,0,0,0,77,79,132,90,57,120.08,296,-18.00,17.00,-966.00
2024-06-07 00:04:42.050008,0,0,161,0,0,0,77,79,132,90,57,120.04,296,0.00,-7.00,-1054.00
2024-06-07 00:04:42.157001,0,0,155,0,0,0,77,79,131,90,57,120.11,296,-33.00,-15.00,-1003.00
2024-06-07 00:04:42.254758,0,0,149,0,0,0,77,79,131,90,57,120.06,297,-5.00,0.00,-1043.00
2024-06-07 00:04:42.357325,0,0,143,0,0,0,77,79,130,90,57,120.05,297,-33.00,-11.00,-1000.00
2024-06-07 00:04:42.457584,0,0,137,0,0,0,77,79,130,90,57,120.12,297,-18.00,9.00,-968.00
2024-06-07 00:04:42.558098,0,0,131,0,0,0,77,79,130,90,57,120.09,297,-20.00,-27.00,-1031.00
2024-06-07 00:04:42.660069,0,0,125,0,0,0,77,79,129,90,57,120.06,297,-36.00,-10.00,-976.00
2024-06-07 00:04:42.812978,0,0,119,0,0,0,77,79,130,90,57,120.01,297,-9.00,8.00,-968.00
2024-06-07 00:04:42.865820,0,0,113,0,0,0,77,79,130,90,57,120.02,297,-11.00,-5.00,-1002.00
2024-06-07 00:04:42.966186,0,0,107,0,0,0,77,79,130,90,57,120.10,297,-1.00,-13.00,-1069.00
2024-06-07 00:04:43.122070,0,0,101,0,0,0,77,79,130,90,57,119.99,297,-29.00,-29.00,-997.00
2024-06-07 00:04:43.171210,0,0,94,0,0,0,77,79,129,90,57,120.02,297,-7.00,6.00,-983.00
2024-06-07 00:04:43.325955,0,0,88,0,0,0,77,79,129,90,57,120.04,298,-1.00,-7.00,-998.00
2024-06-07 00:04:43.374379,0,0,82,0,0,0,77,79,129,90,57,120.06,298,-30.00,-36.00,-946.00
2024-06-07 00:04:43.529202,0,0,76,0,0,0,77,79,129,90,57,120.10,298,-10.00,-30.00,-1020.00
2024-06-07 00:04:43.577922,0,0,70,0,0,0,77,79,129,90,57,120.08,298,-7.00,-21.00,-1058.00
2024-06-07 00:04:43.738242,0,0,64,0,0,0,77,79,129,90,57,120.00,298,-2.00,15.00,-971.00
2024-06-07 00:04:43.782249,0,0,58,0,0,0,77,79,129,90,57,120.08,298,-12.00,14.00,-967.00
2024-06-07 00:04:43.939584,0,0,52,0,0,0,76,80,129,90,57,120.03,298,-11.00,-32.00,-1029.00
2024-06-07 00:04:43.985807,0,0,46,0,0,0,76,80,129,90,57,119.98,298,9.00,4.00,-1040.00
2024-06-07 00:04:44.143156,0,0,40,0,0,0,76,80,129,90,57,120.05,298,-2.00,0.00,-980.00
2024-06-07 00:04:44.194702,0,0,34,0,0,0,76,80,129,90,57,120.04,298,-15.00,15.00,-985.00
2024-06-07 00:04:44.291914,0,0,28,0,0,0,76,80,130,90,57,120.04,299,-10.00,1.00,-1003.00
2024-06-07 00:04:44.450130,0,0,22,0,0,0,76,80,129,90,57,120.00,299,6.00,-23.00,-987.00
2024-06-07 00:04:44.497913,0,0,16,0,0,0,76,80,130,90,57,120.02,299,-7.00,-2.00,-1012.00
2024-06-07 00:04:44.598250,0,0,12,0,0,0,76,80,129,90,57,120.02,299,-1.00,-11.00,-996.00
2024-06-07 00:04:44.757166,0,0,9,0,0,0,76,80,130,90,57,120.06,299,6.00,35.00,-1013.00
2024-06-07 00:04:44.802992,0,-1,6,0,0,0,76,80,131,90,57,120.08,299,4.00,-29.00,-983.00
2024-06-07 00:04:44.962940,0,-1,4,0,0,0,76,78,131,90,57,120.06,299,15.00,7.00,-1053.00
2024-06-07 00:04:45.005795,0,0,3,0,0,0,76,78,131,90,57,120.07,299,-13.00,6.00,-993.00
2024-06-07 00:04:45.166837,0,0,2,0,0,0,76,78,131,90,57,120.06,299,8.00,13.00,-1011.00
2024-06-07 00:04:45.209672,0,0,1,0,0,0,76,78,132,90,57,120.06,299,-4.00,1.00,-1008.00
2024-06-07 00:04:45.311993,0,0,0,0,0,0,76,78,132,90,57,120.06,300,-8.00,-7.00,-992.00
2024-06-07 00:04:45.362948,0,0,0,0,0,0,76,78,132,90,57,120.07,300,8.00,20.00,-1028.00
2024-06-07 00:04:45.475153,0,0,0,0,0,0,76,78,133,90,57,120.05,300,5.00,2.00,-1011.00
2024-06-07 00:04:45.567003,0,0,0,0,0,0,76,78,133,90,56,120.08,300,-3.00,-10.00,-1012.00
2024-06-07 00:04:45.679278,0,0,0,0,0,0,76,78,133,90,56,120.12,300,-1.00,-20.00,-944.00
2024-06-07 00:04:45.770956,0,0,0,0,0,0,76,78,133,90,56,120.13,300,-6.00,-28.00,-957.00
2024-06-07 00:04:45.883767,0,0,0,0,0,0,76,79,133,90,56,120.09,300,-4.00,-2.00,-993.00
2024-06-07 00:04:45.975914,0,0,0,0,0,0,76,79,133,90,56,120.09,300,-6.00,9.00,-924.00
2024-06-07 00:04:46.088703,0,0,0,0,0,0,76,79,133,90,56,120.07,300,-2.00,0.00,-948.00
2024-06-07 00:04:46.180230,0,0,0,0,0,0,76,79,133,90,56,120.09,300,7.00,24.00,-998.00
2024-06-07 00:04:46.293238,0,0,0,0,0,0,76,79,133,90,56,120.08,301,3.00,32.00,-1014.00
2024-06-07 00:04:46.383902,0,0,0,0,0,0,76,79,133,90,56,120.06,301,0.00,13.00,-1019.00
2024-06-07 00:04:46.498063,0,0,0,0,0,0,76,79,134,90,56,120.06,301,7.00,4.00,-1005.00
2024-06-07 00:04:46.588119,0,0,0,0,0,0,76,79,133,90,56,120.13,301,-3.00,-25.00,-983.00
2024-06-07 00:04:46.702703,0,0,0,0,0,0,76,79,134,90,56,120.14,301,-2.00,24.00,-964.00
2024-06-07 00:04:46.792177,0,0,0,0,0,0,76,79,135,90,56,120.06,301,1.00,22.00,-1015.00
2024-06-07 00:04:46.907554,0,0,0,0,0,0,76,79,134,90,56,120.12,301,-3.00,-21.00,-1009.00
2024-06-07 00:04:46.995890,0,0,0,0,0,0,76,79,134,90,56,120.07,301,-2.00,1.00,-990.00
2024-06-07 00:04:47.112375,0,0,0,0,0,0,76,79,134,90,56,120.05,301,-2.00,7.00,-938.00
2024-06-07 00:04:47.199753,0,0,0,0,0,0,76,79,134,90,56,120.10,301,16.00,6.00,-1010.00
2024-06-07 00:04:47.302184,0,0,0,0,0,0,76,79,135,90,56,120.06,302,-11.00,5.00,-933.00
2024-06-07 00:04:47.422588,0,0,0,0,0,0,76,79,134,90,56,120.18,302,-6.00,4.00,-1276.00
2024-06-07 00:04:47.511933,0,0,0,0,0,-3,76,79,137,90,56,120.17,302,10.00,-28.00,-1700.00
2024-06-07 00:04:47.608045,0,-4,0,0,0,-10,76,79,146,100,56,120.36,302,19.00,149.00,-1263.00
2024-06-07 00:04:47.726537,-2,-81,0,0,-4,-12,76,79,529,110,56,120.55,302,-28.00,584.00,-1089.00
2024-06-07 00:04:47.811590,2,154,4,0,-10,0,76,79,188,120,56,120.47,302,-45.00,433.00,-936.00
2024-06-07 00:04:47.913561,4,38,-6,0,-5,11,76,79,178,110,56,120.52,302,-25.00,22.00,-1437.00
2024-06-07 00:04:48.038660,0,-1,-8,0,-2,10,76,79,143,100,56,120.16,302,20.00,-33.00,-1407.00
2024-06-07 00:04:48.117574,0,1,-7,0,-2,6,76,79,136,90,56,120.13,302,6.00,-36.00,-1387.00
2024-06-07 00:04:48.240202,0,2,-1,0,-2,3,76,79,133,90,56,120.09,302,-33.00,23.00,-1193.00
2024-06-07 00:04:48.321575,0,1,0,0,-1,1,76,79,131,90,56,120.06,303,2.00,6.00,-1154.00
2024-06-07 00:04:48.443299,0,0,0,0,-1,0,76,79,131,90,56,120.07,303,2.00,10.00,-1062.00
2024-06-07 00:04:48.525643,0,1,0,0,-1,0,76,79,133,90,56,120.05,303,-10.00,-2.00,-1024.00
2024-06-07 00:04:48.577506,0,3,0,0,0,0,76,79,134,90,56,120.04,303,-9.00,-18.00,-1026.00
2024-06-07 00:04:48.750568,0,1,0,0,0,0,76,79,135,90,56,120.07,303,5.00,-20.00,-952.00
2024-06-07 00:04:48.781469,0,0,0,0,0,0,76,79,136,90,56,120.09,303,-11.00,-23.00,-982.00
2024-06-07 00:04:48.958901,0,0,0,0,0,0,76,78,136,90,56,120.05,303,1.00,-15.00,-1008.00
2024-06-07 00:04:48.985494,0,0,0,0,0,0,76,78,137,90,56,120.10,303,-4.00,34.00,-968.00
2024-06-07 00:04:49.160185,0,0,0,0,0,0,76,78,138,90,56,120.10,303,-7.00,-25.00,-973.00
2024-06-07 00:04:49.189451,0,0,0,0,0,0,76,78,138,90,56,120.10,303,-9.00,30.00,-1024.00
2024-06-07 00:04:49.364908,0,0,0,0,0,0,76,78,138,90,56,120.10,304,-23.00,15.00,-991.00
2024-06-07 00:04:49.393486,0,0,0,0,0,0,76,78,138,90,56,120.04,304,-6.00,-8.00,-955.00
2024-06-07 00:04:49.569627,0,0,0,0,0,0,76,78,138,90,56,120.05,304,-13.00,13.00,-933.00
2024-06-07 00:04:49.597429,0,0,0,0,0,0,76,78,138,90,55,120.04,304,-18.00,17.00,-1018.00
2024-06-07 00:04:49.775672,0,0,0,0,0,0,76,78,138,90,55,120.10,304,-1.00,9.00,-989.00
2024-06-07 00:04:49.803483,0,0,0,0,0,0,76,78,137,90,55,120.16,304,-6.00,40.00,-1049.00
2024-06-07 00:04:49.903722,0,0,0,0,0,0,75,79,137,90,55,120.15,304,-12.00,40.00,-1022.00
2024-06-07 00:04:50.083328,0,0,0,0,0,0,75,79,137,90,55,120.04,304,-12.00,-6.00,-1015.00
2024-06-07 00:04:50.112612,0,0,0,0,0,0,75,79,136,90,55,120.12,304,-11.00,-9.00,-973.00
2024-06-07 00:04:50.209470,0,0,0,0,0,0,75,79,136,90,55,120.16,304,-3.00,27.00,-1006.00
2024-06-07 00:04:50.393245,0,0,0,0,0,0,75,79,135,90,55,120.08,305,1.00,8.00,-1027.00
2024-06-07 00:04:50.413626,0,0,0,0,0,0,75,79,135,90,55,120.08,305,-9.00,-10.00,-998.00
2024-06-07 00:04:50.593592,0,0,0,0,0,0,75,79,134,90,55,120.07,305,0.00,-18.00,-968.00
2024-06-07 00:04:50.617338,0,1,0,0,0,0,75,79,134,90,55,120.08,305,-9.00,15.00,-1002.00
2024-06-07 00:04:50.798418,0,1,0,0,0,0,75,79,133,90,55,120.07,305,-17.00,16.00,-1004.00
2024-06-07 00:04:50.821305,0,1,0,0,0,0,75,79,133,90,55,120.06,305,-20.00,15.00,-1001.00
2024-06-07 00:04:50.926344,0,0,0,0,0,0,75,79,133,90,55,120.04,305,-6.00,24.00,-1008.00
2024-06-07 00:04:51.025957,0,0,0,0,0,0,75,79,133,90,55,120.06,305,-8.00,20.00,-1010.00
2024-06-07 00:04:51.210702,0,0,0,0,0,0,75,79,133,90,55,120.08,305,-18.00,4.00,-963.00
2024-06-07 00:04:51.235912,0,0,0,0,0,0,75,79,133,90,55,120.06,305,-10.00,14.00,-1027.00
2024-06-07 00:04:51.331689,0,0,0,0,0,0,75,79,133,90,55,120.07,306,-5.00,11.00,-1025.00
2024-06-07 00:04:51.515765,0,0,0,0,0,0,75,79,134,90,55,120.07,306,-3.00,-23.00,-1013.00
2024-06-07 00:04:51.535713,0,0,0,0,0,0,75,79,134,90,55,120.04,306,-1.00,-3.00,-1016.00
2024-06-07 00:04:51.720265,0,0,0,0,0,0,75,79,135,90,54,120.05,306,-14.00,-8.00,-1032.00
2024-06-07 00:04:51.739406,0,0,0,0,0,0,75,79,134,90,54,120.10,306,-3.00,-12.00,-997.00
2024-06-07 00:04:51.925079,0,0,0,0,0,0,75,79,135,90,54,120.06,306,-7.00,-11.00,-980.00
2024-06-07 00:04:51.943901,0,0,0,0,0,0,77,79,135,90,54,120.09,306,-3.00,27.00,-1015.00
2024-06-07 00:04:52.106566,0,0,0,0,0,0,77,79,135,90,54,120.12,306,-16.00,-13.00,-983.00
2024-06-07 00:04:52.181972,0,0,0,0,0,0,77,79,135,90,54,120.09,306,-20.00,-24.00,-952.00
2024-06-07 00:04:52.198339,0,0,0,0,0,0,77,79,136,90,54,120.12,306,1.00,12.00,-972.00
2024-06-07 00:04:52.334947,0,0,0,0,0,0,77,79,135,90,54,120.13,307,-10.00,-4.00,-981.00
2024-06-07 00:04:52.642118,0,0,0,0,0,0,77,79,136,90,54,120.09,307,-21.00,-24.00,-1008.00
2024-06-07 00:04:52.731973,0,0,0,0,0,0,77,79,137,90,54,120.13,307,-1.00,22.00,-1029.00
2024-06-07 00:04:52.733001,0,0,0,0,0,0,77,79,137,90,54,120.09,307,0.00,8.00,-971.00
2024-06-07 00:04:52.733640,0,0,0,0,0,0,77,79,136,90,54,120.07,307,0.00,-19.00,-1024.00
2024-06-07 00:04:52.887295,0,0,0,0,0,0,77,79,138,90,54,120.09,307,1.00,7.00,-1052.00
2024-06-07 00:04:52.954471,0,0,0,0,0,0,76,78,136,90,54,120.04,307,-13.00,11.00,-963.00
2024-06-07 00:04:53.091020,0,0,0,0,0,0,76,78,137,90,54,120.03,307,-2.00,-4.00,-1025.00
2024-06-07 00:04:53.116502,0,0,0,0,0,0,76,78,137,90,54,120.08,307,5.00,14.00,-1036.00
2024-06-07 00:04:53.232933,0,0,0,0,0,0,76,78,137,90,54,120.07,307,-9.00,6.00,-975.00
2024-06-07 00:04:53.379997,0,0,0,0,0,0,76,78,137,90,54,120.11,308,-4.00,-7.00,-941.00
2024-06-07 00:04:53.520014,0,0,0,0,0,0,76,78,137,90,54,120.06,308,5.00,10.00,-1066.00
2024-06-07 00:04:53.524375,0,0,0,0,0,0,76,78,137,90,54,120.10,308,-10.00,-1.00,-1010.00
2024-06-07 00:04:53.677213,0,0,0,0,0,0,76,78,138,90,54,120.09,308,13.00,2.00,-1024.00
2024-06-07 00:04:53.821227,0,0,0,0,0,0,76,78,138,90,54,120.10,308,4.00,-3.00,-972.00
2024-06-07 00:04:53.830710,0,0,0,0,0,0,76,78,138,90,54,120.13,308,6.00,-12.00,-976.00
2024-06-07 00:04:53.983721,0,0,0,0,0,0,76,78,137,90,54,120.13,308,0.00,0.00,-1040.00
2024-06-07 00:04:54.126893,0,0,0,0,0,-5,76,78,139,90,54,120.19,308,20.00,9.00,-1632.00
2024-06-07 00:04:54.136121,0,14,0,0,0,-12,76,78,148,100,54,120.16,308,-3.00,-57.00,-1729.00
2024-06-07 00:04:54.291061,0,112,-1,0,7,-11,76,78,222,120,54,120.36,309,14.00,480.00,-1338.00
2024-06-07 00:04:54.434096,1,-124,0,0,9,4,76,78,155,120,54,120.45,309,-14.00,760.00,-875.00
2024-06-07 00:04:54.441991,0,-16,2,0,3,11,76,78,271,110,54,120.63,309,35.00,745.00,-1007.00
2024-06-07 00:04:54.598016,0,4,0,0,4,9,76,78,150,100,54,120.08,309,23.00,130.00,-983.00
2024-06-07 00:04:54.752195,0,-3,0,0,4,5,76,78,141,90,54,120.06,309,-27.00,-40.00,-1426.00
2024-06-07 00:04:54.752348,0,-4,0,0,3,2,76,78,136,90,54,120.08,309,-1.00,13.00,-1219.00
2024-06-07 00:04:54.868847,0,-3,0,0,2,0,76,78,136,90,54,119.98,309,6.00,-25.00,-1210.00
2024-06-07 00:04:54.951998,0,-1,0,0,1,-1,75,79,134,90,54,120.01,309,3.00,6.00,-1101.00
2024-06-07 00:04:55.099075,0,-1,0,0,1,-1,75,79,136,90,54,120.09,309,-2.00,-12.00,-1041.00
2024-06-07 00:04:55.156159,0,0,0,0,1,-1,75,79,136,90,54,120.06,309,8.00,6.00,-988.00
2024-06-07 00:04:55.303810,0,0,0,0,1,-1,75,79,138,90,54,120.11,310,5.00,-15.00,-985.00
2024-06-07 00:04:55.359936,0,0,0,0,1,0,75,79,139,90,54,120.11,310,5.00,9.00,-971.00
2024-06-07 00:04:55.508601,0,-2,0,0,0,0,75,79,139,90,54,120.08,310,30.00,1.00,-1044.00
2024-06-07 00:04:55.563907,0,-2,0,0,0,0,75,79,139,90,54,120.10,310,4.00,17.00,-981.00
2024-06-07 00:04:55.715457,0,-1,0,0,0,0,75,79,139,90,54,120.14,310,0.00,5.00,-977.00
2024-06-07 00:04:55.718144,0,-1,0,0,0,0,75,79,140,90,54,120.12,310,0.00,-24.00,-977.00
2024-06-07 00:04:55.818892,0,0,0,0,0,0,75,79,139,90,54,120.09,310,7.00,-13.00,-1021.00
2024-06-07 00:04:55.971966,0,0,0,0,0,0,75,79,139,90,54,120.07,310,-15.00,12.00,-975.00
2024-06-07 00:04:56.123394,0,0,0,0,0,0,75,79,138,90,54,120.06,310,-7.00,0.00,-1012.00
2024-06-07 00:04:56.124853,0,0,0,0,0,0,75,79,138,90,54,120.07,310,-32.00,1.00,-930.00
2024-06-07 00:04:56.327779,0,0,0,0,0,0,75,79,138,90,54,120.09,311,32.00,-8.00,-1047.00
2024-06-07 00:04:56.329164,0,0,0,0,0,0,75,79,138,90,54,120.09,311,2.00,-6.00,-1006.00
2024-06-07 00:04:56.431072,0,0,0,0,0,0,75,79,137,90,54,120.08,311,-4.00,-9.00,-1021.00
2024-06-07 00:04:56.537280,0,0,0,0,0,0,75,79,137,90,54,120.10,311,-8.00,-12.00,-989.00
2024-06-07 00:04:56.638756,0,0,0,0,0,0,75,79,136,90,53,120.06,311,15.00,5.00,-1005.00
2024-06-07 00:04:56.737059,0,0,0,0,0,0,75,79,136,90,53,120.04,311,-26.00,8.00,-975.00
2024-06-07 00:04:56.841265,0,0,0,0,0,0,75,79,135,90,53,120.02,311,4.00,0.00,-989.00
2024-06-07 00:04:56.941798,0,0,0,0,0,0,76,79,135,90,53,120.02,311,6.00,6.00,-1003.00
2024-06-07 00:04:57.042763,0,0,0,0,0,0,76,79,134,90,53,120.03,311,-2.00,16.00,-1006.00
2024-06-07 00:04:57.146985,0,0,0,0,0,0,76,79,134,90,53,120.04,311,0.00,18.00,-931.00
2024-06-07 00:04:57.246747,0,0,0,0,0,0,76,79,134,90,53,120.06,312,0.00,22.00,-997.00
2024-06-07 00:04:57.351781,0,0,0,0,0,0,76,79,134,90,53,120.09,312,-8.00,-4.00,-1006.00
2024-06-07 00:04:57.451082,0,0,0,0,0,0,76,79,134,90,53,120.09,312,4.00,7.00,-1004.00
2024-06-07 00:04:57.561707,0,0,0,0,0,0,76,79,135,90,53,120.04,312,6.00,-15.00,-1060.00
2024-06-07 00:04:57.655273,0,0,0,0,0,0,76,79,135,90,53,120.06,312,10.00,15.00,-977.00
2024-06-07 00:04:57.761769,0,0,0,0,0,0,76,79,135,90,53,120.00,312,-23.00,19.00,-961.00
2024-06-07 00:04:57.860199,0,0,0,0,0,0,76,79,135,90,53,119.99,312,0.00,-7.00,-1010.00
2024-06-07 00:04:57.966325,0,0,0,0,0,0,76,79,135,90,53,120.03,312,-15.00,4.00,-945.00
2024-06-07 00:04:58.066822,0,0,0,0,0,0,76,79,136,90,53,120.06,312,-6.00,2.00,-980.00
2024-06-07 00:04:58.167346,0,0,0,0,0,0,76,79,136,90,53,120.09,312,-16.00,-13.00,-1004.00
2024-06-07 00:04:58.267785,0,0,0,0,0,0,76,79,136,90,53,120.06,313,-12.00,21.00,-950.00
2024-06-07 00:04:58.369017,0,0,0,0,0,0,76,79,136,90,53,120.01,313,-9.00,12.00,-1005.00
2024-06-07 00:04:58.470920,0,0,0,0,0,0,76,79,137,90,53,120.03,313,-1.00,2.00,-1024.00
2024-06-07 00:04:58.585030,0,0,0,0,0,0,76,79,138,90,53,120.07,313,-1.00,-14.00,-1023.00
2024-06-07 00:04:58.675953,0,0,0,0,0,0,76,79,138,90,53,120.08,313,-14.00,1.00,-993.00
2024-06-07 00:04:58.785533,0,0,0,0,0,0,76,79,139,90,53,120.06,313,-20.00,-22.00,-1008.00
2024-06-07 00:04:58.879882,0,0,0,0,0,0,76,79,139,90,53,120.04,313,1.00,-5.00,-1059.00
2024-06-07 00:04:58.994815,0,0,0,0,0,0,76,79,140,90,53,120.10,313,-4.00,-1.00,-1018.00
2024-06-07 00:04:59.083882,0,0,0,0,0,0,76,79,140,90,53,120.06,313,-6.00,-8.00,-981.00
2024-06-07 00:04:59.199111,0,0,0,0,0,0,76,79,140,90,53,120.08,313,-23.00,-23.00,-942.00
2024-06-07 00:04:59.287827,0,0,0,0,0,0,76,79,140,90,53,120.08,314,-18.00,2.00,-977.00
2024-06-07 00:04:59.405255,0,0,0,0,0,0,76,79,140,90,53,120.07,314,-14.00,0.00,-968.00
2024-06-07 00:04:59.491978,0,0,0,0,0,0,76,79,139,90,53,120.04,314,-15.00,-13.00,-984.00
2024-06-07 00:04:59.543050,0,0,0,0,0,0,76,79,140,90,53,120.12,314,-2.00,-29.00,-1014.00
2024-06-07 00:04:59.707388,0,0,0,0,0,0,76,79,139,90,53,119.99,314,-11.00,-16.00,-1002.00
2024-06-07 00:04:59.748986,0,0,0,0,0,0,76,79,139,90,53,120.09,314,-6.00,-5.00,-1027.00
2024-06-07 00:04:59.849609,0,0,0,0,0,0,76,79,139,90,53,120.05,314,-23.00,3.00,-968.00
2024-06-07 00:05:00.014905,0,0,0,0,0,0,75,79,139,90,53,120.06,314,-18.00,-26.00,-1031.00
2024-06-07 00:05:00.103684,0,0,0,0,0,0,75,79,139,90,53,120.07,314,-9.00,24.00,-1019.00
2024-06-07 00:05:00.154716,0,0,0,0,0,0,75,79,138,90,53,120.08,314,-35.00,-20.00,-1003.00
2024-06-07 00:05:00.256858,-1,0,0,0,0,0,75,79,138,90,53,120.06,315,-8.00,5.00,-1015.00
2024-06-07 00:05:00.358735,0,0,0,0,0,0,75,79,139,90,53,120.07,315,-11.00,17.00,-993.00
2024-06-07 00:05:00.460498,0,0,0,0,0,0,75,79,138,90,53,120.11,315,-10.00,10.00,-1011.00
