TS,pitch,roll,yaw,vgx,vgy,vgz,templ,temph,tof,h,bat,baro,time,agx,agy,agz
2024-06-07 00:05:42.792584,0,0,-7,0,0,0,79,82,10,0,50,118.89,333,-3.00,10.00,-1000.00
2024-06-07 00:05:42.892045,0,0,-7,0,0,0,79,82,10,0,50,118.94,333,-4.00,9.00,-1002.00
2024-06-07 00:05:43.020673,0,0,-7,0,0,0,79,82,10,0,50,118.83,333,-4.00,8.00,-999.00
2024-06-07 00:05:43.096011,0,0,-7,0,0,0,79,82,10,0,50,118.89,333,-2.00,9.00,-998.00
2024-06-07 00:05:43.225215,0,0,-7,0,0,0,78,81,10,0,50,118.89,333,-2.00,9.00,-997.00
2024-06-07 00:05:43.299695,0,0,-7,0,0,0,78,81,10,0,50,118.92,333,-2.00,11.00,-998.00
2024-06-07 00:05:43.401827,0,0,-7,0,0,0,78,81,10,0,50,118.84,333,-3.00,8.00,-1001.00
2024-06-07 00:05:43.532738,0,0,-7,0,0,0,78,81,10,0,50,118.88,333,-2.00,8.00,-999.00
2024-06-07 00:05:43.606322,0,0,-7,0,0,0,78,81,10,0,50,118.87,333,-3.00,9.00,-998.00
2024-06-07 00:05:43.714125,0,0,-7,0,0,0,78,81,10,0,50,118.89,333,-4.00,10.00,-999.00
2024-06-07 00:05:43.810488,0,0,-7,0,0,0,78,81,10,0,50,118.93,333,-3.00,9.00,-1002.00
2024-06-07 00:05:43.912642,0,0,-7,0,0,0,78,81,10,0,50,118.89,333,-4.00,9.00,-1001.00
2024-06-07 00:05:44.044778,0,0,-7,0,0,0,78,81,10,0,50,118.90,333,-2.00,9.00,-997.00
2024-06-07 00:05:44.115910,0,0,-7,0,0,0,78,81,10,0,50,118.86,333,-3.00,11.00,-1000.00
2024-06-07 00:05:44.249111,0,0,-7,0,0,0,80,81,10,0,50,118.89,333,-3.00,11.00,-1002.00
2024-06-07 00:05:44.319868,0,0,-7,0,0,0,80,81,10,0,50,118.87,333,-3.00,9.00,-999.00
2024-06-07 00:05:44.454058,0,0,-7,0,0,0,80,81,10,0,50,118.93,333,-4.00,8.00,-998.00
2024-06-07 00:05:44.523853,0,0,-7,0,0,0,80,81,10,0,50,118.86,333,-4.00,9.00,-998.00
2024-06-07 00:05:44.658999,0,0,-7,0,0,0,80,81,10,0,50,118.89,333,-3.00,8.00,-1000.00
2024-06-07 00:05:44.727725,0,0,-7,0,0,0,80,81,10,0,50,118.91,333,-4.00,7.00,-1001.00
2024-06-07 00:05:44.864577,0,0,-7,0,0,0,80,81,10,0,50,118.90,333,-2.00,10.00,-999.00
2024-06-07 00:05:44.931909,0,0,-7,0,0,0,80,81,10,0,50,118.91,333,-3.00,10.00,-1000.00
2024-06-07 00:05:45.068570,0,0,-7,0,0,0,80,81,10,0,50,118.90,333,-2.00,9.00,-999.00
2024-06-07 00:05:45.135666,0,0,-7,0,0,0,80,81,10,0,50,118.90,333,-3.00,9.00,-999.00
2024-06-07 00:05:45.273293,0,0,-7,0,0,0,80,82,10,0,50,118.91,333,-2.00,8.00,-1000.00
2024-06-07 00:05:45.342053,0,0,-7,0,0,0,80,82,10,0,50,118.93,333,-3.00,9.00,-999.00
2024-06-07 00:05:45.441670,0,0,-7,0,0,0,80,82,10,0,50,118.96,333,-3.00,10.00,-998.00
2024-06-07 00:05:45.580347,0,0,-7,0,0,0,80,82,10,0,50,118.96,333,-1.00,10.00,-999.00
2024-06-07 00:05:45.645609,0,0,-7,0,0,0,80,82,10,0,50,118.96,333,-6.00,6.00,-1000.00
2024-06-07 00:05:45.696984,0,0,-7,0,0,0,80,82,10,0,50,118.96,333,4.00,13.00,-996.00
2024-06-07 00:05:45.800995,0,0,-6,0,0,0,80,82,10,0,50,118.96,333,-9.00,6.00,-1006.00
2024-06-07 00:05:45.900548,0,0,-5,0,0,0,80,82,10,0,50,118.96,333,0.00,-16.00,-977.00
2024-06-07 00:05:46.092377,0,0,-6,0,0,0,80,82,10,0,50,118.96,333,-13.00,6.00,-1041.00
2024-06-07 00:05:46.104566,0,0,-6,0,0,0,80,82,10,0,50,118.96,333,12.00,26.00,-1042.00
2024-06-07 00:05:46.297699,-1,0,-6,0,0,-5,80,82,11,0,50,118.96,333,20.00,-1.00,-1208.00
2024-06-07 00:05:46.308528,0,0,-6,0,0,-6,80,82,19,0,50,119.19,333,3.00,-3.00,-1063.00
2024-06-07 00:05:46.410520,0,0,-6,0,0,-6,80,82,27,0,50,119.30,334,-13.00,5.00,-1004.00
2024-06-07 00:05:46.604361,0,0,-6,0,0,-6,80,82,34,0,50,119.41,334,-1.00,-33.00,-993.00
2024-06-07 00:05:46.617498,0,0,-6,0,0,-5,80,82,42,0,50,119.45,334,4.00,1.00,-967.00
2024-06-07 00:05:46.716565,0,0,-6,0,0,-5,80,82,51,10,50,119.52,334,-10.00,11.00,-924.00
2024-06-07 00:05:46.911477,0,0,-6,0,0,-4,80,82,59,10,50,119.63,334,-6.00,10.00,-938.00
2024-06-07 00:05:46.920425,0,0,-6,0,0,-3,80,82,67,10,50,119.67,334,-18.00,-26.00,-895.00
2024-06-07 00:05:47.116915,0,0,-6,0,0,-3,80,82,73,20,50,119.83,334,-6.00,-13.00,-963.00
2024-06-07 00:05:47.124454,0,0,-6,0,0,-2,80,82,81,20,50,119.81,334,-4.00,5.00,-913.00
2024-06-07 00:05:47.326478,0,0,-6,0,0,-1,79,82,85,20,50,119.88,334,-11.00,6.00,-935.00
2024-06-07 00:05:47.328442,0,0,-6,0,0,0,79,82,91,30,50,119.97,334,-11.00,-20.00,-938.00
2024-06-07 00:05:47.525821,0,0,-6,0,0,0,79,82,95,30,50,119.96,335,0.00,8.00,-962.00
2024-06-07 00:05:47.532470,0,0,-6,0,0,0,79,82,98,30,50,120.02,335,-19.00,-6.00,-914.00
2024-06-07 00:05:47.731282,0,0,-6,0,0,0,79,82,101,40,50,120.05,335,-19.00,23.00,-902.00
2024-06-07 00:05:47.736434,0,0,-6,0,0,0,79,82,103,40,50,120.03,335,-12.00,-3.00,-909.00
2024-06-07 00:05:47.940910,0,0,-6,0,0,0,79,82,105,40,50,120.07,335,-4.00,-9.00,-965.00
2024-06-07 00:05:47.941152,0,0,-6,0,0,1,79,82,105,40,50,120.13,335,-12.00,6.00,-923.00
2024-06-07 00:05:48.042583,0,0,-6,0,0,1,79,82,106,40,50,120.12,335,-14.00,24.00,-953.00
2024-06-07 00:05:48.242686,0,0,-6,0,0,1,79,82,106,40,50,120.12,335,-7.00,5.00,-967.00
2024-06-07 00:05:48.247187,0,0,-6,0,0,1,80,82,104,40,50,120.11,335,-8.00,26.00,-934.00
2024-06-07 00:05:48.447485,0,0,-6,0,0,2,80,82,104,40,50,120.08,335,-18.00,36.00,-1002.00
2024-06-07 00:05:48.451735,0,0,-6,0,0,1,80,82,102,40,50,120.05,336,0.00,8.00,-1029.00
2024-06-07 00:05:48.552996,0,0,-6,0,0,2,80,82,101,40,50,119.99,336,-11.00,-36.00,-957.00
2024-06-07 00:05:48.654420,0,0,-6,0,0,2,80,82,99,40,50,120.01,336,-15.00,33.00,-978.00
2024-06-07 00:05:48.760354,0,0,-6,0,0,2,80,82,97,40,50,120.02,336,-24.00,16.00,-998.00
2024-06-07 00:05:48.860526,0,0,-6,0,0,1,80,82,95,40,50,120.02,336,-5.00,6.00,-1008.00
2024-06-07 00:05:48.960887,0,0,-6,0,0,2,80,82,93,40,50,120.00,336,-9.00,-4.00,-991.00
2024-06-07 00:05:49.066470,0,0,-6,0,0,2,80,82,91,40,50,119.95,336,-8.00,15.00,-1012.00
2024-06-07 00:05:49.113402,0,0,-6,0,0,1,80,82,89,30,50,119.94,336,-10.00,5.00,-1037.00
2024-06-07 00:05:49.266635,0,0,-6,0,0,1,80,82,87,30,50,119.94,336,-8.00,0.00,-967.00
2024-06-07 00:05:49.383512,0,0,-6,0,0,1,80,82,85,30,50,119.92,336,-5.00,-9.00,-1005.00
2024-06-07 00:05:49.419376,0,0,-6,0,0,1,80,82,83,30,50,119.98,337,-8.00,4.00,-1031.00
2024-06-07 00:05:49.578154,0,0,-6,0,0,1,80,82,81,30,50,119.90,337,-19.00,27.00,-1007.00
2024-06-07 00:05:49.623284,0,0,-6,0,0,1,80,82,80,30,50,119.86,337,-9.00,-2.00,-967.00
2024-06-07 00:05:49.725267,0,0,-6,0,0,1,80,82,78,30,50,119.81,337,-18.00,-30.00,-1022.00
2024-06-07 00:05:49.881023,0,0,-6,0,0,0,80,82,76,20,50,119.80,337,-14.00,-9.00,-1030.00
2024-06-07 00:05:49.929671,0,0,-6,0,0,0,80,82,75,20,50,119.88,337,-21.00,-2.00,-1016.00
2024-06-07 00:05:50.085742,0,0,-6,0,0,0,80,82,74,20,50,119.83,337,-9.00,-13.00,-993.00
2024-06-07 00:05:50.133231,0,0,-6,0,0,0,80,82,73,20,50,119.81,337,-11.00,3.00,-1009.00
2024-06-07 00:05:50.290567,0,0,-6,0,0,0,80,82,72,20,50,119.80,337,-13.00,6.00,-990.00
2024-06-07 00:05:50.337233,0,0,-6,0,0,0,80,82,71,20,50,119.71,337,-16.00,26.00,-1019.00
2024-06-07 00:05:50.495924,0,0,-6,0,0,0,80,82,70,20,50,119.80,338,-22.00,-19.00,-1057.00
2024-06-07 00:05:50.541180,0,0,-6,0,0,0,80,82,70,20,50,119.76,338,-4.00,-3.00,-959.00
2024-06-07 00:05:50.700183,0,0,-6,0,0,0,80,82,70,20,50,119.77,338,-15.00,10.00,-1002.00
2024-06-07 00:05:50.745715,0,0,-6,0,0,0,80,82,70,20,50,119.79,338,-18.00,14.00,-1004.00
2024-06-07 00:05:50.904948,0,0,-6,0,0,0,80,82,70,20,50,119.80,338,-23.00,-17.00,-1030.00
2024-06-07 00:05:50.949170,0,0,-6,0,0,0,80,82,70,20,50,119.76,338,-13.00,-13.00,-1002.00
2024-06-07 00:05:51.109782,0,0,-6,0,0,0,80,82,70,20,50,119.77,338,-3.00,6.00,-989.00
2024-06-07 00:05:51.153159,0,0,-6,0,0,0,80,82,70,20,50,119.81,338,-20.00,7.00,-1010.00
2024-06-07 00:05:51.314478,0,0,-6,0,0,0,79,81,70,20,50,119.79,338,-9.00,5.00,-1051.00
2024-06-07 00:05:51.357131,0,0,-6,0,0,0,79,81,71,20,50,119.81,338,-4.00,-13.00,-979.00
2024-06-07 00:05:51.519355,0,0,-6,0,0,0,79,81,71,20,50,119.82,339,-24.00,36.00,-1016.00
2024-06-07 00:05:51.562273,0,0,-6,0,0,0,79,81,71,20,50,119.84,339,-3.00,-9.00,-1011.00
2024-06-07 00:05:51.724117,0,0,-6,0,0,0,79,81,71,20,50,119.83,339,-6.00,-32.00,-978.00
2024-06-07 00:05:51.767070,0,0,-6,0,0,0,79,81,71,20,50,119.81,339,-7.00,3.00,-982.00
2024-06-07 00:05:51.867073,0,0,-6,0,0,0,79,81,71,20,50,119.86,339,0.00,-5.00,-969.00
2024-06-07 00:05:51.970261,0,0,-6,0,0,0,79,81,72,20,50,119.78,339,-5.00,-15.00,-994.00
2024-06-07 00:05:52.113202,0,0,-6,0,0,0,79,81,72,20,50,119.81,339,-15.00,-14.00,-1004.00
2024-06-07 00:05:52.174095,0,0,-6,0,0,0,79,81,73,20,50,119.85,339,-9.00,-29.00,-1003.00
2024-06-07 00:05:52.351549,0,0,-6,0,0,0,78,81,73,20,50,119.83,339,-20.00,-7.00,-1020.00
2024-06-07 00:05:52.377788,0,0,-6,0,0,0,78,81,73,20,50,119.84,339,-25.00,33.00,-1010.00
2024-06-07 00:05:52.480145,0,0,-6,0,0,0,78,81,74,20,50,119.91,340,-2.00,-9.00,-1010.00
2024-06-07 00:05:52.638783,0,0,-6,0,0,0,78,81,74,20,50,119.89,340,-6.00,8.00,-1006.00
2024-06-07 00:05:52.713934,0,0,-6,0,0,0,78,81,75,20,50,119.87,340,-9.00,13.00,-1017.00
2024-06-07 00:05:52.828191,0,0,-6,0,0,0,78,81,75,20,50,119.89,340,-8.00,-25.00,-1005.00
2024-06-07 00:05:52.891116,0,0,-6,0,0,0,78,81,76,20,50,119.90,340,-10.00,14.00,-1020.00
2024-06-07 00:05:52.949861,0,0,-6,0,0,0,78,81,76,20,50,119.93,340,-5.00,-8.00,-1012.00
2024-06-07 00:05:53.101665,0,0,-6,0,0,0,78,81,76,20,50,119.88,340,-18.00,18.00,-1011.00
2024-06-07 00:05:53.152765,0,0,-6,0,0,0,78,81,76,20,50,119.87,340,-4.00,-10.00,-982.00
2024-06-07 00:05:53.315124,0,0,-6,0,0,0,79,81,77,20,50,119.92,340,-2.00,-23.00,-992.00
2024-06-07 00:05:53.458461,0,0,-6,0,0,0,79,81,76,20,50,119.86,340,-4.00,21.00,-1016.00
2024-06-07 00:05:53.601895,0,0,-6,0,0,0,79,81,76,20,50,119.92,341,-4.00,-24.00,-973.00
2024-06-07 00:05:53.601948,0,0,-6,0,0,0,79,81,76,20,50,119.81,341,-15.00,18.00,-1004.00
2024-06-07 00:05:53.746039,0,0,-6,0,0,0,79,81,76,20,50,119.91,341,-5.00,-8.00,-995.00
2024-06-07 00:05:53.754909,0,0,-6,0,0,0,79,81,76,20,50,119.85,341,1.00,-10.00,-1027.00
2024-06-07 00:05:53.891695,0,0,-6,0,0,0,79,81,76,20,50,119.81,341,-11.00,-16.00,-1023.00
2024-06-07 00:05:54.034920,0,0,-6,0,0,0,79,81,75,20,50,119.86,341,-12.00,29.00,-1003.00
2024-06-07 00:05:54.060880,0,0,-6,0,0,0,79,81,75,20,50,119.87,341,1.00,-16.00,-1014.00
2024-06-07 00:05:54.192775,0,0,-6,0,0,0,79,81,75,20,50,119.88,341,-10.00,-8.00,-1026.00
2024-06-07 00:05:54.335806,0,0,-6,0,0,0,80,82,75,20,50,119.89,341,-4.00,25.00,-1006.00
2024-06-07 00:05:54.366814,0,0,-6,0,0,0,80,82,75,20,50,119.87,341,0.00,-14.00,-973.00
2024-06-07 00:05:54.499838,0,0,-6,0,0,0,80,82,75,20,50,119.85,342,0.00,-4.00,-969.00
2024-06-07 00:05:54.604798,0,0,-6,0,0,0,80,82,75,20,50,119.87,342,-6.00,-1.00,-1029.00
2024-06-07 00:05:54.672990,0,0,-6,0,0,0,80,82,75,20,50,119.84,342,-8.00,12.00,-976.00
2024-06-07 00:05:54.774762,0,0,-6,0,0,0,80,82,76,20,50,119.83,342,-8.00,-11.00,-1001.00
2024-06-07 00:05:54.899209,0,0,-6,0,0,0,80,82,75,20,50,119.93,342,1.00,-23.00,-1023.00
2024-06-07 00:05:54.979011,0,0,-6,0,0,0,80,82,76,20,50,119.90,342,-7.00,1.00,-965.00
2024-06-07 00:05:55.107607,0,0,-6,0,0,0,80,82,76,20,50,119.88,342,-10.00,-11.00,-995.00
2024-06-07 00:05:55.182865,0,0,-6,0,0,0,80,82,75,20,50,119.87,342,2.00,-26.00,-1010.00
2024-06-07 00:05:55.308731,0,0,-6,0,0,0,79,81,76,20,50,119.89,342,1.00,7.00,-1005.00
2024-06-07 00:05:55.387536,0,0,-6,0,0,0,79,81,76,20,50,119.87,342,-3.00,0.00,-1005.00
2024-06-07 00:05:55.516039,0,0,-6,0,0,0,79,81,75,20,50,119.88,343,-1.00,-42.00,-1004.00
2024-06-07 00:05:55.592098,0,0,-6,0,0,0,79,81,75,20,50,119.95,343,-2.00,-23.00,-963.00
2024-06-07 00:05:55.722781,0,0,-6,0,0,0,79,81,75,20,50,119.91,343,-7.00,10.00,-998.00
2024-06-07 00:05:55.796053,0,0,-6,0,0,0,79,81,75,20,50,119.84,343,-6.00,-15.00,-1003.00
2024-06-07 00:05:55.924201,0,0,-6,0,0,0,79,81,75,20,50,119.88,343,-13.00,-12.00,-1053.00
2024-06-07 00:05:55.998948,0,0,-6,0,0,0,79,81,76,20,50,119.85,343,-1.00,8.00,-1035.00
2024-06-07 00:05:56.104939,0,0,-6,0,0,0,79,81,76,20,50,119.90,343,-9.00,8.00,-1001.00
2024-06-07 00:05:56.205330,0,0,-6,0,0,0,79,81,76,20,50,119.89,343,-8.00,9.00,-1020.00
2024-06-07 00:05:56.304709,0,0,-6,0,0,0,78,82,76,20,50,119.88,343,-13.00,-26.00,-1124.00
2024-06-07 00:05:56.435366,0,0,-6,0,0,-1,78,82,76,20,50,119.95,343,6.00,24.00,-1098.00
2024-06-07 00:05:56.508671,0,0,-6,0,0,-2,78,82,78,30,50,119.89,344,-13.00,-27.00,-1104.00
2024-06-07 00:05:56.641512,0,0,-6,0,0,-3,78,82,81,30,50,119.92,344,1.00,4.00,-1067.00
2024-06-07 00:05:56.713019,0,0,-6,0,0,-3,78,82,85,30,50,120.00,344,15.00,-2.00,-1100.00
2024-06-07 00:05:56.844728,0,0,-6,0,0,-4,78,82,89,40,50,120.05,344,-6.00,-12.00,-1066.00
2024-06-07 00:05:56.916756,0,0,-6,0,0,-4,78,82,94,40,50,120.07,344,0.00,2.00,-1036.00
2024-06-07 00:05:57.053070,0,0,-6,0,0,-5,78,82,99,40,50,120.19,344,-10.00,-21.00,-1022.00
2024-06-07 00:05:57.120695,0,0,-6,0,0,-5,78,82,104,50,50,120.21,344,13.00,0.00,-1039.00
2024-06-07 00:05:57.171617,0,0,-6,0,0,-5,78,82,110,60,50,120.30,344,7.00,10.00,-1010.00
2024-06-07 00:05:57.362032,0,0,-6,0,0,-5,79,81,117,60,50,120.34,344,0.00,-13.00,-968.00
2024-06-07 00:05:57.426607,0,0,-6,0,0,-5,79,81,122,70,50,120.33,344,-5.00,17.00,-936.00
2024-06-07 00:05:57.477628,0,0,-6,0,0,-5,79,81,127,70,50,120.42,345,-2.00,30.00,-980.00
2024-06-07 00:05:57.663507,0,0,-6,0,0,-4,79,81,132,80,50,120.46,345,-7.00,-16.00,-977.00
2024-06-07 00:05:57.681592,0,0,-6,0,0,-4,79,81,137,80,50,120.51,345,-13.00,5.00,-945.00
2024-06-07 00:05:57.783710,0,0,-6,0,0,-4,79,81,141,90,50,120.54,345,-13.00,-30.00,-995.00
2024-06-07 00:05:57.974894,0,0,-6,0,0,-4,79,81,146,90,50,120.55,345,-8.00,37.00,-980.00
2024-06-07 00:05:57.987609,0,0,-6,0,0,-3,79,81,150,90,50,120.54,345,-15.00,23.00,-943.00
2024-06-07 00:05:58.090543,0,0,-6,0,0,-3,79,81,153,100,50,120.64,345,-1.00,-14.00,-965.00
2024-06-07 00:05:58.193409,0,0,-6,0,0,-3,79,81,157,100,50,120.71,345,2.00,11.00,-987.00
2024-06-07 00:05:58.293571,0,0,-6,0,0,-3,77,81,160,100,50,120.67,345,-19.00,23.00,-948.00
2024-06-07 00:05:58.482399,0,0,-6,0,0,-2,77,81,162,110,50,120.72,345,-7.00,-13.00,-942.00
2024-06-07 00:05:58.498971,0,0,-6,0,0,-2,77,81,164,110,50,120.70,346,-16.00,8.00,-995.00
2024-06-07 00:05:58.600300,0,0,-6,0,0,-2,77,81,167,110,50,120.67,346,-6.00,23.00,-933.00
2024-06-07 00:05:58.789726,0,0,-6,0,0,-1,77,81,169,110,50,120.75,346,-8.00,-18.00,-969.00
2024-06-07 00:05:58.804386,0,0,-6,0,0,-1,77,81,172,120,50,120.76,346,-29.00,28.00,-956.00
2024-06-07 00:05:58.907583,0,0,-6,0,0,-1,77,81,173,120,50,120.79,346,-11.00,5.00,-943.00
2024-06-07 00:05:59.097121,0,0,-6,0,0,-1,77,81,175,120,50,120.83,346,-13.00,5.00,-922.00
2024-06-07 00:05:59.110606,0,0,-6,0,0,0,77,81,175,120,50,120.83,346,-20.00,1.00,-944.00
2024-06-07 00:05:59.305869,0,0,-6,0,0,0,77,81,175,120,50,120.82,346,-16.00,-27.00,-990.00
2024-06-07 00:05:59.314588,0,0,-6,0,0,0,79,81,177,120,50,120.83,346,-23.00,12.00,-963.00
2024-06-07 00:05:59.506685,0,0,-6,0,0,0,79,81,176,120,50,120.82,346,-3.00,32.00,-962.00
2024-06-07 00:05:59.518536,0,0,-6,0,0,0,79,81,177,120,50,120.86,347,-3.00,24.00,-989.00
2024-06-07 00:05:59.711419,0,0,-6,0,0,0,79,81,177,120,50,120.80,347,1.00,-21.00,-1037.00
2024-06-07 00:05:59.722504,0,0,-6,0,0,0,79,81,179,120,50,120.80,347,-9.00,39.00,-997.00
2024-06-07 00:05:59.920341,0,0,-6,0,0,0,79,81,179,120,50,120.86,347,-21.00,14.00,-952.00
2024-06-07 00:05:59.927565,0,0,-6,0,0,0,79,81,177,120,50,120.86,347,-8.00,35.00,-1007.00
2024-06-07 00:06:00.121370,0,0,-6,0,0,0,79,81,180,120,50,120.86,347,-13.00,6.00,-997.00
2024-06-07 00:06:00.130506,0,0,-6,0,0,0,79,81,179,120,50,120.79,347,-12.00,-22.00,-980.00
2024-06-07 00:06:00.330515,0,0,-6,0,0,0,79,81,177,120,50,120.84,347,-13.00,11.00,-1003.00
2024-06-07 00:06:00.335804,0,0,-6,0,0,0,79,81,177,120,50,120.87,347,-5.00,-14.00,-968.00
2024-06-07 00:06:00.539501,0,0,-6,0,0,0,79,81,177,120,50,120.82,347,3.00,12.00,-1012.00
2024-06-07 00:06:00.546760,0,0,-6,0,0,0,79,81,177,120,50,120.79,348,-17.00,-7.00,-1028.00
2024-06-07 00:06:00.641528,0,0,-6,0,0,0,79,81,175,120,50,120.83,348,-2.00,-15.00,-973.00
2024-06-07 00:06:00.742684,0,0,-6,0,0,0,79,81,173,120,50,120.74,348,-18.00,4.00,-992.00
2024-06-07 00:06:00.861044,0,0,-6,0,0,0,79,81,174,120,50,120.81,348,-4.00,-8.00,-962.00
2024-06-07 00:06:00.946470,0,0,-6,0,0,0,79,81,173,120,50,120.70,348,-15.00,1.00,-1019.00
2024-06-07 00:06:00.997934,0,0,-6,0,0,0,79,81,173,120,50,120.79,348,-15.00,1.00,-957.00
2024-06-07 00:06:01.149584,0,0,-6,0,0,0,79,81,173,120,50,120.78,348,-22.00,2.00,-1062.00
2024-06-07 00:06:01.202937,0,0,-6,0,0,0,79,81,171,120,50,120.75,348,-22.00,8.00,-970.00
2024-06-07 00:06:01.354419,0,0,-6,0,0,1,78,81,169,120,50,120.72,348,-16.00,-1.00,-964.00
2024-06-07 00:06:01.554019,0,0,-6,0,0,2,78,81,168,110,50,120.66,349,-7.00,-13.00,-977.00
2024-06-07 00:06:01.554240,0,0,-6,0,0,2,78,81,166,110,50,120.61,349,-17.00,3.00,-954.00
2024-06-07 00:06:01.615491,0,0,-6,0,0,2,78,81,164,110,50,120.68,349,-7.00,36.00,-1001.00
2024-06-07 00:06:01.717528,0,0,-6,0,0,2,78,81,161,110,50,120.62,349,-8.00,-1.00,-983.00
2024-06-07 00:06:01.813254,0,0,-6,0,0,2,78,81,159,100,50,120.60,349,-19.00,-26.00,-988.00
2024-06-07 00:06:01.915258,0,0,-6,0,0,2,78,81,155,100,50,120.58,349,-13.00,12.00,-1011.00
2024-06-07 00:06:02.073060,0,0,-6,0,0,2,78,81,153,100,50,120.59,349,-3.00,-26.00,-995.00
2024-06-07 00:06:02.119195,0,0,-6,0,0,2,78,81,150,100,50,120.54,349,-13.00,-15.00,-1020.00
2024-06-07 00:06:02.271269,0,0,-6,0,0,2,78,81,148,90,50,120.48,349,-16.00,0.00,-1033.00
2024-06-07 00:06:02.323183,0,0,-6,0,0,2,77,81,145,90,50,120.51,349,-7.00,-18.00,-1002.00
2024-06-07 00:06:02.475692,0,0,-6,0,0,2,77,81,144,90,50,120.49,350,-18.00,-20.00,-1018.00
2024-06-07 00:06:02.527154,0,0,-6,0,0,2,77,81,141,90,50,120.45,350,-24.00,-8.00,-1026.00
2024-06-07 00:06:02.682662,0,0,-6,0,0,2,77,81,139,80,50,120.32,350,-28.00,6.00,-1031.00
2024-06-07 00:06:02.731424,0,0,-6,0,0,1,77,81,137,80,50,120.44,350,-1.00,11.00,-992.00
2024-06-07 00:06:02.885295,0,0,-6,0,0,1,77,81,135,80,50,120.40,350,-17.00,-1.00,-993.00
2024-06-07 00:06:02.935194,0,0,-6,0,0,1,77,81,133,80,50,120.40,350,-15.00,-7.00,-1005.00
2024-06-07 00:06:03.090010,0,0,-6,0,0,1,77,81,132,80,50,120.34,350,-1.00,-23.00,-1019.00
2024-06-07 00:06:03.139154,0,0,-6,0,0,1,77,81,131,80,50,120.29,350,-16.00,0.00,-1023.00
2024-06-07 00:06:03.294962,0,0,-6,0,0,0,77,81,130,80,50,120.31,350,-3.00,14.00,-1027.00
2024-06-07 00:06:03.343351,0,0,-6,0,0,0,78,81,129,80,50,120.33,350,-20.00,1.00,-1036.00
2024-06-07 00:06:03.445513,0,0,-6,0,0,0,78,81,128,70,50,120.35,351,-29.00,-10.00,-1031.00
2024-06-07 00:06:03.602456,0,0,-6,0,0,0,78,81,127,70,50,120.36,351,-24.00,13.00,-1020.00
2024-06-07 00:06:03.652384,0,0,-6,0,0,0,78,81,126,70,50,120.33,351,-21.00,-35.00,-1018.00
2024-06-07 00:06:03.752386,0,0,-6,0,0,0,78,81,125,70,50,120.28,351,-21.00,1.00,-1039.00
2024-06-07 00:06:03.853483,0,0,-6,0,0,0,78,81,126,70,50,120.32,351,-18.00,8.00,-1027.00
2024-06-07 00:06:03.955106,0,0,-6,0,0,0,78,81,125,70,50,120.26,351,-23.00,23.00,-980.00
2024-06-07 00:06:04.114400,0,0,-6,0,0,0,78,81,125,70,50,120.28,351,-15.00,-40.00,-993.00
2024-06-07 00:06:04.159104,0,0,-6,0,0,0,78,81,125,70,50,120.25,351,-10.00,-16.00,-1006.00
2024-06-07 00:06:04.327841,0,0,-6,0,0,0,78,81,126,70,50,120.28,351,-9.00,3.00,-1030.00
2024-06-07 00:06:04.362971,0,0,-6,0,0,0,79,81,125,70,50,120.25,351,-4.00,-19.00,-981.00
2024-06-07 00:06:04.523795,0,0,-6,0,0,0,79,81,126,70,50,120.33,352,-10.00,15.00,-1018.00
2024-06-07 00:06:04.567129,0,0,-6,0,0,0,79,81,126,70,50,120.27,352,-17.00,-25.00,-1016.00
2024-06-07 00:06:04.729565,0,0,-6,0,0,0,79,81,126,70,50,120.24,352,-23.00,4.00,-975.00
2024-06-07 00:06:04.771018,0,0,-6,0,0,0,79,81,126,70,50,120.23,352,-20.00,-13.00,-1023.00
2024-06-07 00:06:04.933322,0,0,-6,0,0,0,79,81,126,70,50,120.29,352,0.00,-16.00,-973.00
2024-06-07 00:06:04.987355,0,0,-6,0,0,0,79,81,126,70,50,120.25,352,-12.00,24.00,-986.00
2024-06-07 00:06:05.077343,0,0,-6,0,0,0,79,81,126,70,50,120.32,352,-13.00,8.00,-966.00
2024-06-07 00:06:05.241322,0,0,-6,0,0,0,79,81,126,70,50,120.33,352,-14.00,-13.00,-979.00
2024-06-07 00:06:05.241528,0,0,-6,0,0,0,79,81,126,70,50,120.22,352,-20.00,-21.00,-981.00
2024-06-07 00:06:05.397788,0,0,-6,0,0,0,78,81,127,70,50,120.26,352,-9.00,-21.00,-1008.00
2024-06-07 00:06:05.433948,0,0,-6,0,0,0,78,81,127,70,50,120.26,353,-6.00,-28.00,-1047.00
2024-06-07 00:06:05.547588,-1,1,-6,0,0,0,78,81,128,70,50,120.34,353,-19.00,23.00,-1023.00
2024-06-07 00:06:05.637814,-7,0,-6,0,0,0,78,81,129,70,50,120.32,353,-16.00,-23.00,-962.00
2024-06-07 00:06:05.752552,-8,0,-6,1,0,0,78,81,129,70,50,120.27,353,-19.00,9.00,-1031.00
2024-06-07 00:06:05.844671,-8,0,-6,2,0,0,78,81,131,80,50,120.31,353,-30.00,-44.00,-1000.00
2024-06-07 00:06:05.943920,-8,0,-6,4,0,0,78,81,133,80,50,120.32,353,-44.00,-17.00,-983.00
2024-06-07 00:06:06.059605,-8,0,-6,5,0,0,78,81,133,80,50,120.30,353,-57.00,-12.00,-1060.00
2024-06-07 00:06:06.148338,-8,0,-6,6,0,0,78,81,132,80,50,120.26,353,-55.00,-7.00,-988.00
2024-06-07 00:06:06.264388,-7,0,-6,7,0,0,78,81,131,80,50,120.26,353,-36.00,-19.00,-1048.00
2024-06-07 00:06:06.351865,-6,1,-6,7,0,0,79,81,131,80,50,120.26,353,-67.00,-8.00,-975.00
2024-06-07 00:06:06.469191,-3,2,-6,8,0,0,79,81,132,80,50,120.25,354,-66.00,-9.00,-962.00
2024-06-07 00:06:06.555855,0,1,-6,7,0,0,79,81,132,80,50,120.21,354,-61.00,-22.00,-1007.00
2024-06-07 00:06:06.674236,2,0,-6,7,0,0,79,81,131,80,50,120.26,354,-71.00,-9.00,-936.00
2024-06-07 00:06:06.759763,3,0,-6,6,0,0,79,81,131,80,50,120.28,354,-53.00,-14.00,-1016.00
2024-06-07 00:06:06.879906,3,0,-6,4,0,0,79,81,131,80,50,120.27,354,-58.00,-24.00,-1003.00
2024-06-07 00:06:06.963782,1,0,-6,3,0,0,79,81,131,80,50,120.23,354,-55.00,-32.00,-1002.00
2024-06-07 00:06:07.102128,0,0,-6,3,0,0,79,81,131,80,50,120.29,354,-35.00,-11.00,-1000.00
2024-06-07 00:06:07.181076,0,0,-6,3,0,0,79,81,131,80,50,120.24,354,-35.00,-5.00,-1001.00
2024-06-07 00:06:07.285790,0,0,-6,2,0,0,79,81,131,80,50,120.32,354,-31.00,8.00,-944.00
2024-06-07 00:06:07.373065,-1,0,-6,2,0,0,77,80,131,80,50,120.27,354,-37.00,-25.00,-994.00
2024-06-07 00:06:07.473770,-1,0,-6,2,0,0,77,80,131,80,50,120.31,355,-31.00,0.00,-1033.00
2024-06-07 00:06:07.595487,-1,0,-6,2,0,0,77,80,130,80,50,120.27,355,-20.00,5.00,-1022.00
2024-06-07 00:06:07.781084,0,0,-6,2,0,0,77,80,130,80,50,120.30,355,-40.00,-25.00,-1031.00
2024-06-07 00:06:07.781925,4,0,-6,1,0,0,77,80,131,80,50,120.30,355,-39.00,1.00,-939.00
2024-06-07 00:06:07.881938,2,0,-6,1,0,0,77,80,132,80,50,120.23,355,-18.00,-6.00,-1026.00
2024-06-07 00:06:08.016165,0,0,-6,0,0,0,77,80,131,80,50,120.20,355,-43.00,-18.00,-1027.00
2024-06-07 00:06:08.159382,0,0,-6,0,0,0,77,80,131,80,50,120.22,355,-15.00,-29.00,-1019.00
2024-06-07 00:06:08.188740,0,0,-6,0,0,0,77,80,131,80,50,120.29,355,-13.00,21.00,-1018.00
2024-06-07 00:06:08.323214,0,0,-6,0,0,0,77,80,132,80,50,120.21,355,-26.00,-7.00,-967.00
2024-06-07 00:06:08.467016,0,0,-6,0,0,0,78,81,132,80,50,120.22,355,-19.00,-35.00,-987.00
2024-06-07 00:06:08.494714,0,0,-6,0,0,0,78,81,132,80,50,120.27,356,-12.00,22.00,-1003.00
2024-06-07 00:06:08.631052,0,0,-6,0,0,0,78,81,132,80,50,120.28,356,-28.00,-16.00,-973.00
2024-06-07 00:06:08.773889,0,0,-6,0,0,0,78,81,131,80,50,120.28,356,11.00,8.00,-1063.00
2024-06-07 00:06:08.810063,0,0,-6,0,0,0,78,81,131,80,50,120.22,356,-28.00,-12.00,-954.00
2024-06-07 00:06:08.939049,0,0,-6,0,0,0,78,81,130,80,50,120.31,356,-6.00,0.00,-1012.00
2024-06-07 00:06:09.082469,0,0,-6,0,0,0,78,81,130,80,50,120.25,356,-19.00,16.00,-971.00
2024-06-07 00:06:09.082662,0,0,-6,0,0,0,78,81,131,80,50,120.28,356,-16.00,-5.00,-1015.00
2024-06-07 00:06:09.244786,0,0,-6,0,0,0,78,81,130,80,50,120.29,356,-22.00,-10.00,-970.00
2024-06-07 00:06:09.259942,0,0,-6,0,0,0,78,81,130,80,50,120.24,356,-21.00,-5.00,-976.00
2024-06-07 00:06:09.439886,0,0,-6,0,0,0,78,80,130,80,50,120.22,356,-26.00,-1.00,-1000.00
2024-06-07 00:06:09.552192,0,0,-6,0,0,0,78,80,130,80,50,120.19,357,-25.00,-3.00,-965.00
2024-06-07 00:06:09.566477,0,0,-6,0,0,0,78,80,129,80,50,120.23,357,-11.00,2.00,-990.00
2024-06-07 00:06:09.706254,0,0,-6,0,0,0,78,80,130,80,50,120.22,357,-25.00,7.00,-957.00
2024-06-07 00:06:09.785250,0,0,-6,0,0,0,78,80,129,80,50,120.28,357,-3.00,21.00,-984.00
2024-06-07 00:06:09.871899,0,0,-6,0,0,0,78,80,130,70,50,120.28,357,-26.00,7.00,-996.00
2024-06-07 00:06:09.973816,0,0,-6,0,0,0,78,80,129,80,50,120.27,357,-21.00,26.00,-943.00
2024-06-07 00:06:10.142737,1,0,-6,0,0,0,78,80,131,80,50,120.26,357,-4.00,21.00,-988.00
2024-06-07 00:06:10.178299,7,0,-6,0,0,0,78,80,130,80,50,120.21,357,-16.00,4.00,-1000.00
2024-06-07 00:06:10.360224,8,0,-6,-2,0,0,78,80,131,80,50,120.21,357,-7.00,-4.00,-1007.00
2024-06-07 00:06:10.381415,8,0,-6,-3,0,0,77,80,132,80,50,120.22,357,6.00,15.00,-934.00
2024-06-07 00:06:10.565005,7,0,-6,-4,0,0,77,80,131,80,50,120.21,358,33.00,1.00,-1040.00
2024-06-07 00:06:10.585439,6,0,-6,-5,0,0,77,80,132,80,50,120.12,358,30.00,-30.00,-984.00
2024-06-07 00:06:10.769742,6,0,-6,-6,0,0,77,80,132,80,50,120.16,358,31.00,-6.00,-1013.00
2024-06-07 00:06:10.790301,4,0,-6,-7,0,0,77,80,132,80,50,120.18,358,24.00,-16.00,-1027.00
2024-06-07 00:06:10.974544,4,0,-6,-7,0,0,77,80,130,80,50,120.19,358,50.00,5.00,-1058.00
2024-06-07 00:06:10.993422,1,0,-6,-8,0,0,77,80,130,80,50,120.11,358,66.00,-14.00,-1046.00
2024-06-07 00:06:11.179396,-2,0,-6,-7,0,0,77,80,130,80,50,120.19,358,47.00,22.00,-1003.00
2024-06-07 00:06:11.197378,-4,0,-6,-6,1,0,77,80,131,80,50,120.19,358,33.00,-46.00,-1008.00
2024-06-07 00:06:11.401007,-5,0,-6,-5,0,0,77,80,130,80,50,120.18,358,24.00,-4.00,-1037.00
2024-06-07 00:06:11.401463,-4,0,-6,-4,0,0,77,81,130,80,50,120.18,358,19.00,-21.00,-1012.00
2024-06-07 00:06:11.589293,-3,0,-6,-4,0,0,77,81,129,70,50,120.20,359,4.00,-9.00,-972.00
2024-06-07 00:06:11.605348,-2,0,-6,-3,0,0,77,81,130,70,50,120.21,359,0.00,-13.00,-990.00
2024-06-07 00:06:11.793737,-1,0,-6,-3,0,0,77,81,130,70,50,120.18,359,-6.00,-5.00,-969.00
2024-06-07 00:06:11.809587,-1,0,-6,-2,0,0,77,81,130,70,50,120.23,359,-1.00,12.00,-975.00
2024-06-07 00:06:11.912913,-1,0,-6,-2,0,0,77,81,130,70,50,120.17,359,3.00,1.00,-964.00
2024-06-07 00:06:12.013440,-1,0,-6,-2,0,0,77,81,130,70,50,120.15,359,-7.00,-1.00,-1005.00
2024-06-07 00:06:12.158623,-1,0,-6,-1,0,0,77,81,131,80,50,120.23,359,-6.00,-29.00,-1038.00
2024-06-07 00:06:12.217306,-2,0,-6,-1,0,0,77,81,131,80,50,120.18,359,-2.00,-1.00,-1041.00
2024-06-07 00:06:12.408189,-4,1,-6,-1,0,0,77,81,131,80,50,120.14,359,8.00,-21.00,-1012.00
2024-06-07 00:06:12.421371,-2,0,-6,0,0,0,77,81,131,80,50,120.21,359,-19.00,-21.00,-974.00
2024-06-07 00:06:12.617859,-1,0,-6,0,0,0,77,81,132,80,50,120.15,360,-26.00,-27.00,-972.00
2024-06-07 00:06:12.632191,-1,0,-6,0,0,0,77,81,132,80,49,120.17,360,-22.00,-18.00,-961.00
2024-06-07 00:06:12.727437,-1,0,-6,0,0,0,77,81,132,80,49,120.13,360,-31.00,-7.00,-955.00
2024-06-07 00:06:12.829997,-1,0,-6,0,0,0,77,81,133,80,49,120.19,360,-19.00,-30.00,-969.00
2024-06-07 00:06:13.023112,0,0,-6,0,0,0,77,81,132,80,49,120.17,360,-10.00,-30.00,-1000.00
2024-06-07 00:06:13.033318,0,0,-6,0,0,0,77,81,132,80,49,120.19,360,-21.00,-22.00,-982.00
2024-06-07 00:06:13.140039,0,0,-6,0,0,0,77,81,132,80,49,120.17,360,-20.00,-25.00,-984.00
2024-06-07 00:06:13.186264,0,0,-6,0,0,0,77,81,132,80,49,120.16,360,-20.00,-1.00,-995.00
2024-06-07 00:06:13.329952,0,0,-6,0,0,0,77,81,131,80,49,120.22,360,-27.00,-30.00,-981.00
2024-06-07 00:06:13.443714,0,0,-6,0,0,0,78,81,131,80,49,120.22,360,-3.00,-12.00,-1075.00
2024-06-07 00:06:13.492249,0,0,-6,0,0,0,78,81,131,80,49,120.12,361,-16.00,4.00,-949.00
2024-06-07 00:06:13.639013,0,0,-6,0,0,0,78,81,130,80,49,120.19,361,-5.00,-18.00,-1007.00
2024-06-07 00:06:13.696302,0,0,-6,0,0,0,78,81,129,80,49,120.18,361,-17.00,2.00,-977.00
2024-06-07 00:06:13.798696,0,0,-6,0,0,0,78,81,129,80,49,120.12,361,6.00,-15.00,-1073.00
2024-06-07 00:06:13.901039,0,0,-6,0,0,0,78,81,129,80,49,120.14,361,-13.00,-3.00,-1004.00
2024-06-07 00:06:14.046562,0,0,-6,0,0,0,78,81,129,70,49,120.15,361,-25.00,-20.00,-988.00
2024-06-07 00:06:14.104192,0,0,-6,0,0,0,78,81,128,70,49,120.14,361,-32.00,-6.00,-1003.00
2024-06-07 00:06:14.251336,-1,0,-6,0,0,0,78,81,129,70,49,120.13,361,-18.00,7.00,-1024.00
2024-06-07 00:06:14.308835,-1,0,-6,0,0,0,78,81,129,70,49,120.11,361,-22.00,4.00,-1004.00
2024-06-07 00:06:14.410870,0,0,-6,0,0,0,77,80,128,70,49,120.16,361,-28.00,5.00,-980.00
2024-06-07 00:06:14.559103,0,0,-6,0,0,0,77,80,128,70,49,120.15,362,-13.00,-9.00,-1006.00
2024-06-07 00:06:14.615549,0,0,-6,0,0,0,77,80,129,70,49,120.15,362,-12.00,-10.00,-1083.00
2024-06-07 00:06:14.763380,-1,-6,-6,0,0,0,77,80,130,80,49,120.16,362,-9.00,-14.00,-1025.00
2024-06-07 00:06:14.817982,-1,-7,-6,0,-1,0,77,80,128,80,49,120.20,362,-6.00,1.00,-1056.00
2024-06-07 00:06:14.968018,-1,-4,-6,0,-2,0,77,80,129,80,49,120.15,362,-25.00,-4.00,-968.00
2024-06-07 00:06:15.022074,-1,-2,-6,0,-3,0,77,80,128,80,49,120.22,362,-18.00,21.00,-1013.00
2024-06-07 00:06:15.172818,-1,0,-6,0,-3,0,77,80,128,80,49,120.20,362,-50.00,10.00,-944.00
2024-06-07 00:06:15.229842,0,1,-6,0,-3,0,77,80,128,80,49,120.13,362,-8.00,17.00,-967.00
2024-06-07 00:06:15.328043,0,1,-6,0,-3,0,77,80,127,80,49,120.17,362,-17.00,32.00,-960.00
2024-06-07 00:06:15.480003,0,0,-6,0,-2,0,77,80,126,70,49,120.18,363,0.00,8.00,-1025.00
2024-06-07 00:06:15.532324,0,0,-6,0,-2,0,77,80,126,70,49,120.09,363,-5.00,8.00,-1013.00
2024-06-07 00:06:15.690630,0,0,-6,0,-2,0,77,80,125,70,49,120.17,363,-19.00,11.00,-990.00
2024-06-07 00:06:15.736002,0,0,-6,0,-2,0,77,80,125,70,49,120.07,363,-15.00,0.00,-1000.00
2024-06-07 00:06:15.837886,0,0,-6,0,-2,0,77,80,124,70,49,120.09,363,-11.00,19.00,-1018.00
2024-06-07 00:06:15.940062,0,0,-6,0,-2,0,77,80,124,70,49,120.05,363,-38.00,-7.00,-982.00
2024-06-07 00:06:16.094692,0,0,-6,0,-2,0,77,80,124,70,49,120.12,363,-4.00,12.00,-1041.00
2024-06-07 00:06:16.143999,0,0,-6,0,-2,0,77,80,124,70,49,120.11,363,5.00,3.00,-1065.00
2024-06-07 00:06:16.299509,0,0,-6,0,-2,0,77,80,125,70,49,120.11,363,-1.00,15.00,-1022.00
2024-06-07 00:06:16.348583,0,1,-6,0,-1,0,77,80,125,70,49,120.13,363,-18.00,17.00,-987.00
2024-06-07 00:06:16.504304,0,4,-6,0,-1,0,77,80,125,70,49,120.08,364,-6.00,-2.00,-1041.00
2024-06-07 00:06:16.553749,0,3,-6,0,0,0,77,80,126,70,49,120.12,364,-6.00,15.00,-1008.00
2024-06-07 00:06:16.654350,0,1,-6,0,0,0,77,80,125,70,49,120.10,364,-2.00,9.00,-1062.00
2024-06-07 00:06:16.811951,0,0,-6,0,0,0,77,80,125,70,49,120.11,364,-10.00,-2.00,-998.00
2024-06-07 00:06:16.859291,0,0,-6,0,0,0,77,80,126,70,49,120.13,364,-14.00,4.00,-1011.00
2024-06-07 00:06:17.016775,0,0,-6,0,0,0,77,80,126,70,49,120.02,364,-9.00,9.00,-999.00
2024-06-07 00:06:17.016943,0,0,-6,0,0,0,77,80,126,70,49,120.14,364,-5.00,18.00,-995.00
2024-06-07 00:06:17.113739,0,0,-6,0,0,0,77,80,126,70,49,120.09,364,-18.00,13.00,-992.00
2024-06-07 00:06:17.221075,0,0,-6,0,0,0,77,80,127,70,49,120.15,364,1.00,12.00,-1002.00
2024-06-07 00:06:17.316869,0,0,-6,0,0,0,77,80,127,70,49,120.09,364,-3.00,2.00,-1007.00
2024-06-07 00:06:17.425724,0,0,-6,0,0,0,77,80,127,70,49,120.11,365,-3.00,3.00,-983.00
2024-06-07 00:06:17.521372,0,0,-6,0,0,0,77,80,127,70,49,120.07,365,1.00,16.00,-1006.00
2024-06-07 00:06:17.630423,0,0,-6,0,0,0,77,80,127,70,48,120.02,365,-16.00,-8.00,-998.00
2024-06-07 00:06:17.724944,0,0,-6,0,0,0,77,80,127,70,48,120.06,365,-17.00,-31.00,-1004.00
2024-06-07 00:06:17.826924,-1,0,-6,0,0,0,77,80,126,70,48,120.06,365,-36.00,-31.00,-979.00
2024-06-07 00:06:17.929029,-1,0,-6,0,0,0,77,80,126,70,48,120.04,365,-24.00,-26.00,-1003.00
2024-06-07 00:06:18.040844,-1,0,-6,0,0,0,77,80,126,70,48,120.04,365,5.00,5.00,-1049.00
2024-06-07 00:06:18.132874,-1,0,-6,0,0,0,77,80,126,70,48,120.00,365,-7.00,13.00,-1046.00
2024-06-07 00:06:18.244766,-1,0,-6,0,0,0,77,80,126,70,48,120.00,365,-17.00,0.00,-1018.00
2024-06-07 00:06:18.336890,-1,0,-6,0,0,0,77,80,126,70,48,120.02,365,-21.00,13.00,-982.00
2024-06-07 00:06:18.449593,-1,0,-6,0,0,0,77,80,127,70,48,120.12,366,-26.00,3.00,-950.00
2024-06-07 00:06:18.540938,-1,0,-6,0,0,0,77,80,126,70,48,120.05,366,-13.00,-1.00,-1035.00
2024-06-07 00:06:18.642788,-1,0,-6,0,0,0,77,80,127,70,48,120.04,366,-3.00,-21.00,-1051.00
2024-06-07 00:06:18.756697,-1,0,-6,0,0,0,77,80,127,70,48,120.05,366,-34.00,-26.00,-990.00
2024-06-07 00:06:18.847149,0,7,-6,0,0,0,77,80,129,70,48,120.04,366,-13.00,-3.00,-1009.00
2024-06-07 00:06:18.968572,0,8,-6,0,1,0,77,80,129,70,48,120.05,366,-4.00,15.00,-987.00
2024-06-07 00:06:19.052066,0,6,-6,0,3,0,77,80,128,70,48,120.10,366,-1.00,-9.00,-1050.00
2024-06-07 00:06:19.153378,0,3,-6,0,3,0,77,80,128,70,48,120.15,366,-29.00,-46.00,-1020.00
2024-06-07 00:06:19.268674,-1,0,-6,0,3,0,77,80,128,70,48,120.09,366,-14.00,-26.00,-1008.00
2024-06-07 00:06:19.356725,-1,0,-6,0,3,0,77,80,128,70,48,120.15,366,-13.00,-6.00,-1030.00
2024-06-07 00:06:19.473798,-1,0,-6,0,3,0,77,80,127,70,48,120.06,367,-11.00,-36.00,-1045.00
2024-06-07 00:06:19.560694,0,0,-6,0,3,0,77,80,128,70,48,120.02,367,-9.00,-13.00,-975.00
2024-06-07 00:06:19.678278,0,0,-6,0,2,0,77,80,128,70,48,120.14,367,0.00,-17.00,-1031.00
2024-06-07 00:06:19.764862,0,0,-6,0,2,0,77,80,128,70,48,120.12,367,3.00,-26.00,-1049.00
2024-06-07 00:06:19.883083,0,0,-6,0,2,0,77,80,128,70,48,120.10,367,-24.00,-14.00,-953.00
2024-06-07 00:06:19.969918,-1,0,-6,0,2,0,77,80,128,70,48,120.07,367,0.00,14.00,-1017.00
2024-06-07 00:06:20.088544,-2,0,-6,0,2,0,77,80,129,70,48,120.10,367,-17.00,-9.00,-977.00
2024-06-07 00:06:20.173646,-4,0,-6,0,2,0,77,80,128,70,48,120.05,367,-22.00,-45.00,-1026.00
2024-06-07 00:06:20.292657,-4,0,-6,0,2,0,77,80,127,70,48,120.09,367,-26.00,-10.00,-978.00
2024-06-07 00:06:20.377632,-3,0,-6,1,1,0,77,80,128,70,48,120.07,367,-17.00,-11.00,-971.00
2024-06-07 00:06:20.497431,1,-3,-6,0,1,0,77,79,128,70,48,120.06,368,-48.00,-11.00,-982.00
2024-06-07 00:06:20.581651,0,-2,-6,0,0,0,77,79,127,70,48,120.08,368,-36.00,2.00,-948.00
2024-06-07 00:06:20.702707,0,-1,-6,0,0,0,77,79,126,70,48,120.03,368,-21.00,-1.00,-1017.00
2024-06-07 00:06:20.734737,0,0,-6,0,0,0,77,79,126,70,48,119.94,368,-17.00,-26.00,-973.00
2024-06-07 00:06:20.836674,-1,0,-6,0,0,0,77,79,126,70,48,119.99,368,-7.00,21.00,-989.00
2024-06-07 00:06:21.009728,-1,0,-6,0,0,0,77,79,125,70,48,119.99,368,-37.00,-8.00,-975.00
2024-06-07 00:06:21.040588,-1,0,-6,0,0,0,77,79,125,70,48,119.99,368,-20.00,15.00,-1011.00
2024-06-07 00:06:21.215215,-1,0,-6,0,0,0,77,79,124,70,48,119.95,368,-18.00,-23.00,-1033.00
2024-06-07 00:06:21.244609,-1,0,-6,0,0,0,77,79,124,70,48,119.92,368,-18.00,16.00,-1021.00
2024-06-07 00:06:21.419254,-1,0,-6,0,0,0,77,79,124,70,48,119.93,368,-24.00,-22.00,-1005.00
2024-06-07 00:06:21.449994,-1,0,-6,0,0,0,76,80,125,70,48,119.96,369,-19.00,-1.00,-1009.00
2024-06-07 00:06:21.623778,-1,0,-6,0,0,0,76,80,125,70,47,120.08,369,-20.00,-17.00,-1031.00
2024-06-07 00:06:21.653333,-1,0,-6,0,0,0,76,80,125,70,47,120.02,369,-6.00,32.00,-977.00
2024-06-07 00:06:21.828638,-1,0,-6,0,0,0,76,80,125,70,47,120.05,369,-12.00,-18.00,-1083.00
2024-06-07 00:06:21.856522,-1,0,-6,0,0,0,76,80,126,70,47,120.07,369,-38.00,6.00,-955.00
2024-06-07 00:06:22.033859,-1,0,-6,0,0,0,76,80,126,70,47,120.06,369,-25.00,-20.00,-1053.00
2024-06-07 00:06:22.149295,-1,0,-6,0,0,0,76,80,127,70,47,120.04,369,-13.00,31.00,-1004.00
2024-06-07 00:06:22.162396,-1,0,-6,0,0,0,76,80,127,70,47,120.03,369,-29.00,0.00,-975.00
2024-06-07 00:06:22.291928,-1,0,-6,0,0,0,76,80,126,70,47,120.04,369,-13.00,-17.00,-1030.00
2024-06-07 00:06:22.419857,-1,0,-6,0,0,0,76,80,127,70,47,120.03,369,-22.00,-4.00,-990.00
2024-06-07 00:06:22.498108,-1,0,-6,0,0,0,77,80,127,70,47,119.95,370,-30.00,-5.00,-1013.00
2024-06-07 00:06:22.600458,-1,0,-6,0,0,0,77,80,128,70,47,119.96,370,-6.00,4.00,-1027.00
2024-06-07 00:06:22.681696,-1,0,-6,0,0,0,77,80,128,70,47,120.01,370,-16.00,13.00,-1000.00
2024-06-07 00:06:22.804778,-1,0,-4,0,0,0,77,80,127,70,47,119.99,370,-33.00,32.00,-1026.00
2024-06-07 00:06:22.876352,-1,0,1,0,0,0,77,80,128,70,47,120.05,370,-23.00,-3.00,-1014.00
2024-06-07 00:06:23.027669,-1,0,7,0,0,0,77,80,129,70,47,120.00,370,-21.00,-1.00,-1015.00
2024-06-07 00:06:23.181513,0,0,13,0,0,0,77,80,129,80,47,120.03,370,-22.00,-11.00,-961.00
2024-06-07 00:06:23.182630,0,0,18,0,0,0,77,80,129,80,47,119.99,370,-15.00,10.00,-972.00
2024-06-07 00:06:23.386580,0,-1,24,0,0,0,77,80,128,80,47,120.01,370,-3.00,9.00,-1045.00
2024-06-07 00:06:23.387471,0,-1,30,0,0,0,77,80,128,80,47,119.99,370,-16.00,6.00,-985.00
2024-06-07 00:06:23.529665,0,-1,36,0,0,0,76,80,128,80,47,120.06,371,-26.00,10.00,-973.00
2024-06-07 00:06:23.682904,0,-1,42,0,0,0,76,80,127,70,47,119.99,371,-22.00,15.00,-1023.00
2024-06-07 00:06:23.692199,0,-1,48,0,0,0,76,80,127,70,47,120.00,371,-8.00,-11.00,-1042.00
2024-06-07 00:06:23.825832,0,0,54,0,0,0,76,80,126,70,47,119.94,371,-11.00,19.00,-1015.00
2024-06-07 00:06:23.989770,0,0,60,0,0,0,76,80,126,70,47,119.96,371,10.00,27.00,-1019.00
2024-06-07 00:06:23.998277,0,0,66,0,0,0,76,80,126,70,47,119.92,371,-8.00,2.00,-976.00
2024-06-07 00:06:24.144279,0,0,72,0,0,0,76,80,126,70,47,119.93,371,-8.00,20.00,-996.00
2024-06-07 00:06:24.209500,0,0,78,0,0,0,76,80,127,70,47,119.95,371,0.00,8.00,-1032.00
2024-06-07 00:06:24.305970,0,0,83,0,0,0,76,80,127,70,47,119.94,371,-7.00,44.00,-1025.00
2024-06-07 00:06:24.407108,0,0,89,0,0,0,76,80,127,70,47,119.95,371,-2.00,-8.00,-993.00
2024-06-07 00:06:24.511556,0,-1,95,0,0,0,77,80,127,70,47,119.98,372,-15.00,4.00,-1008.00
2024-06-07 00:06:24.610278,0,0,101,0,0,0,77,80,128,70,47,119.96,372,8.00,33.00,-1016.00
2024-06-07 00:06:24.798095,0,0,107,0,0,0,77,80,128,70,47,120.01,372,-12.00,5.00,-989.00
2024-06-07 00:06:24.798461,0,-1,113,0,0,0,77,80,129,80,47,119.95,372,12.00,0.00,-1008.00
2024-06-07 00:06:24.865330,0,0,119,0,0,0,77,80,130,80,47,120.00,372,-3.00,15.00,-1010.00
2024-06-07 00:06:25.002882,0,0,125,0,0,0,77,80,129,80,47,120.00,372,0.00,15.00,-970.00
2024-06-07 00:06:25.069185,0,0,131,0,0,0,77,80,130,80,47,120.04,372,-7.00,-21.00,-1000.00
2024-06-07 00:06:25.171207,0,0,137,0,0,0,77,80,131,80,47,120.03,372,0.00,-7.00,-1057.00
2024-06-07 00:06:25.324834,0,0,143,0,0,0,77,80,131,80,47,120.02,372,-1.00,28.00,-992.00
2024-06-07 00:06:25.381686,0,0,149,0,0,0,77,80,131,80,47,120.04,372,4.00,-17.00,-1014.00
2024-06-07 00:06:25.477245,0,0,155,0,0,0,77,80,131,80,47,119.98,373,0.00,-2.00,-953.00
2024-06-07 00:06:25.617241,0,0,161,0,0,0,77,80,131,80,47,119.99,373,-9.00,-13.00,-958.00
2024-06-07 00:06:25.681198,0,0,168,0,0,0,77,80,131,80,47,119.98,373,-13.00,-3.00,-977.00
2024-06-07 00:06:25.822613,0,0,174,0,0,0,77,80,131,80,47,120.04,373,-4.00,8.00,-997.00
2024-06-07 00:06:25.885904,0,0,-179,0,0,0,77,80,131,80,47,120.01,373,-15.00,-18.00,-994.00
2024-06-07 00:06:26.027723,0,0,-173,0,0,0,77,80,131,80,47,120.01,373,-6.00,-10.00,-1009.00
2024-06-07 00:06:26.090109,0,0,-167,0,0,0,77,80,131,80,47,119.97,373,-13.00,25.00,-993.00
2024-06-07 00:06:26.231942,0,0,-161,0,0,0,77,80,131,80,47,119.99,373,-6.00,-11.00,-1027.00
2024-06-07 00:06:26.294083,0,0,-155,0,0,0,77,80,131,80,47,120.01,373,-4.00,-20.00,-1006.00
2024-06-07 00:06:26.436421,0,0,-149,0,0,0,77,80,131,80,47,120.00,373,-8.00,8.00,-1005.00
2024-06-07 00:06:26.498017,0,0,-143,0,0,0,77,80,130,80,47,119.98,374,-5.00,14.00,-990.00
2024-06-07 00:06:26.641186,0,0,-137,0,0,0,77,80,130,80,46,119.94,374,-13.00,-12.00,-986.00
2024-06-07 00:06:26.703508,0,0,-131,0,0,0,77,80,130,80,46,119.93,374,-12.00,-17.00,-1026.00
2024-06-07 00:06:26.846761,0,0,-125,0,0,0,77,80,130,80,46,119.96,374,-9.00,-34.00,-990.00
2024-06-07 00:06:26.907057,0,0,-118,0,0,0,77,80,131,80,46,120.04,374,5.00,-12.00,-1018.00
2024-06-07 00:06:27.050772,0,0,-112,0,0,0,77,80,130,80,46,120.00,374,-24.00,-17.00,-1053.00
2024-06-07 00:06:27.111044,0,0,-106,0,0,0,77,80,129,80,46,119.96,374,-1.00,6.00,-1051.00
2024-06-07 00:06:27.259011,0,0,-100,0,0,0,77,80,130,80,46,119.98,374,-20.00,-16.00,-1000.00
2024-06-07 00:06:27.315374,0,0,-94,0,0,0,77,80,130,80,46,120.03,374,-4.00,0.00,-1023.00
2024-06-07 00:06:27.461033,0,0,-88,0,0,0,77,80,129,80,46,119.94,374,-6.00,13.00,-1025.00
2024-06-07 00:06:27.519780,0,0,-82,0,0,0,77,80,129,80,46,120.01,375,-10.00,30.00,-980.00
2024-06-07 00:06:27.665261,0,0,-76,0,0,0,77,80,130,80,46,120.04,375,-28.00,8.00,-952.00
2024-06-07 00:06:27.724420,0,0,-70,0,0,0,77,80,128,80,46,120.00,375,-16.00,19.00,-952.00
2024-06-07 00:06:27.824959,0,0,-64,0,0,0,77,80,128,80,46,119.94,375,-8.00,29.00,-990.00
2024-06-07 00:06:27.929443,0,0,-58,0,0,0,77,80,129,70,46,119.96,375,-35.00,25.00,-1003.00
2024-06-07 00:06:28.030349,0,0,-52,0,0,0,77,80,128,70,46,119.94,375,-10.00,13.00,-993.00
2024-06-07 00:06:28.130932,0,0,-46,0,0,0,77,80,128,70,46,119.98,375,-6.00,-10.00,-1008.00
2024-06-07 00:06:28.233594,0,0,-40,0,0,0,77,80,128,70,46,120.00,375,-16.00,6.00,-1014.00
2024-06-07 00:06:28.285309,0,0,-35,0,0,0,77,80,128,70,46,119.97,375,4.00,9.00,-1024.00
2024-06-07 00:06:28.490312,0,0,-29,0,0,0,77,80,129,70,46,119.95,375,-12.00,29.00,-1021.00
2024-06-07 00:06:28.543958,0,0,-23,0,0,0,77,80,128,70,46,119.97,376,-5.00,2.00,-1028.00
2024-06-07 00:06:28.592309,0,0,-19,0,0,0,77,80,129,70,46,120.02,376,-15.00,-15.00,-1022.00
2024-06-07 00:06:28.692436,0,0,-16,0,0,0,77,80,129,70,46,119.93,376,-28.00,-17.00,-1014.00
2024-06-07 00:06:28.798178,0,0,-14,0,0,0,77,80,128,70,46,119.99,376,-23.00,7.00,-967.00
2024-06-07 00:06:28.896233,0,0,-12,0,0,0,77,80,129,80,46,119.99,376,-19.00,-9.00,-985.00
2024-06-07 00:06:29.098689,0,0,-11,0,0,0,77,80,128,80,46,119.96,376,-18.00,4.00,-970.00
2024-06-07 00:06:29.099812,0,0,-9,0,0,0,77,80,128,70,46,119.95,376,-14.00,16.00,-1007.00
2024-06-07 00:06:29.202619,0,0,-9,0,0,0,77,80,127,70,46,119.99,376,-24.00,-11.00,-981.00
2024-06-07 00:06:29.304028,0,0,-8,0,0,0,77,80,128,70,46,119.95,376,3.00,-17.00,-1030.00
2024-06-07 00:06:29.406232,0,0,-8,0,0,0,77,80,128,70,46,119.95,376,0.00,5.00,-1046.00
2024-06-07 00:06:29.508564,0,0,-8,0,0,0,77,79,128,70,46,119.98,377,-12.00,-22.00,-972.00
2024-06-07 00:06:29.610665,0,0,-8,0,0,0,77,79,128,70,46,119.97,377,-8.00,-14.00,-1055.00
2024-06-07 00:06:29.713265,0,0,-8,0,0,0,77,79,128,70,46,119.93,377,-3.00,13.00,-1007.00
2024-06-07 00:06:29.815930,0,0,-8,0,0,0,77,79,128,70,46,119.94,377,-22.00,11.00,-988.00
2024-06-07 00:06:29.917825,0,0,-8,0,0,0,77,79,128,70,46,119.95,377,-9.00,-1.00,-996.00
2024-06-07 00:06:30.018279,0,0,-8,0,0,0,77,79,128,70,46,120.01,377,-23.00,0.00,-945.00
2024-06-07 00:06:30.120010,0,0,-8,0,0,0,77,79,128,70,46,119.99,377,0.00,-10.00,-1004.00
2024-06-07 00:06:30.225113,0,0,-8,0,0,0,77,79,127,70,46,119.93,377,-18.00,8.00,-993.00
2024-06-07 00:06:30.325608,0,0,-8,0,0,0,77,79,128,70,46,119.93,377,-18.00,-8.00,-974.00
2024-06-07 00:06:30.428104,0,0,-8,0,0,0,77,79,128,70,46,119.97,377,-8.00,4.00,-987.00
2024-06-07 00:06:30.530489,0,0,-8,0,0,0,76,80,127,70,46,120.03,378,0.00,-33.00,-978.00
2024-06-07 00:06:30.630478,0,0,-8,0,0,0,76,80,128,70,45,119.92,378,-21.00,-16.00,-953.00
2024-06-07 00:06:30.737433,0,0,-8,0,0,0,76,80,128,70,45,119.89,378,-12.00,16.00,-978.00
2024-06-07 00:06:30.833965,0,0,-8,0,0,0,76,80,128,70,45,119.96,378,-2.00,-15.00,-1002.00
2024-06-07 00:06:30.946413,0,0,-8,0,0,0,76,80,128,70,45,119.97,378,-16.00,19.00,-1033.00
2024-06-07 00:06:31.038048,0,0,-8,0,0,0,76,80,128,70,45,119.92,378,-17.00,10.00,-999.00
2024-06-07 00:06:31.146777,0,0,-8,0,0,0,76,80,128,80,45,119.95,378,-14.00,-35.00,-977.00
2024-06-07 00:06:31.241969,0,0,-8,0,0,0,76,80,128,80,45,119.96,378,-8.00,-7.00,-1008.00
2024-06-07 00:06:31.347474,0,0,-8,0,0,0,76,80,128,80,45,119.90,378,-4.00,-14.00,-972.00
2024-06-07 00:06:31.445555,0,0,-14,0,0,0,76,80,128,70,45,119.99,379,-6.00,-7.00,-993.00
2024-06-07 00:06:31.556079,0,0,-20,0,0,0,76,79,127,70,45,119.90,379,-17.00,1.00,-1018.00
2024-06-07 00:06:31.649564,0,0,-26,0,0,0,76,79,127,70,45,119.91,379,-6.00,14.00,-981.00
2024-06-07 00:06:31.760873,0,0,-33,0,0,0,76,79,127,70,45,119.95,379,-15.00,11.00,-1003.00
2024-06-07 00:06:31.853633,0,0,-39,0,0,0,76,79,127,70,45,119.97,379,-15.00,10.00,-977.00
2024-06-07 00:06:31.970222,0,0,-45,0,0,0,76,79,126,70,45,119.91,379,-20.00,28.00,-1028.00
2024-06-07 00:06:32.057449,0,0,-52,0,0,0,76,79,128,70,45,120.01,379,-8.00,-1.00,-1030.00
2024-06-07 00:06:32.108387,0,0,-58,0,0,0,76,79,129,70,45,119.92,379,-15.00,-2.00,-992.00
2024-06-07 00:06:32.272849,0,0,-64,0,0,0,76,79,129,70,45,119.91,379,-9.00,-19.00,-947.00
2024-06-07 00:06:32.313188,0,0,-71,0,0,0,76,79,128,80,45,119.93,379,-2.00,-19.00,-1005.00
2024-06-07 00:06:32.477637,0,0,-77,0,0,0,76,79,130,80,45,120.00,380,-25.00,12.00,-980.00
2024-06-07 00:06:32.518315,0,0,-83,0,0,0,76,80,130,80,45,119.96,380,8.00,-14.00,-965.00
2024-06-07 00:06:32.619397,0,0,-89,0,0,0,76,80,130,80,45,119.92,380,0.00,-30.00,-979.00
2024-06-07 00:06:32.721209,0,0,-95,0,0,0,76,80,130,80,45,119.92,380,-20.00,-3.00,-990.00
2024-06-07 00:06:32.822815,0,0,-101,0,0,0,76,80,130,80,45,120.03,380,-9.00,-17.00,-1013.00
2024-06-07 00:06:32.924414,0,0,-108,0,0,0,76,80,129,80,45,119.98,380,-10.00,17.00,-1029.00
2024-06-07 00:06:33.026436,0,0,-114,0,0,0,76,80,129,80,45,119.95,380,17.00,4.00,-988.00
2024-06-07 00:06:33.194408,0,0,-120,0,0,0,76,80,130,80,45,119.91,380,-4.00,2.00,-1019.00
2024-06-07 00:06:33.230417,0,0,-126,0,0,0,76,80,129,80,45,119.95,380,-9.00,-5.00,-1010.00
2024-06-07 00:06:33.399214,0,0,-133,0,0,0,76,80,129,80,45,119.86,380,-3.00,10.00,-995.00
2024-06-07 00:06:33.434383,0,0,-139,0,0,0,76,80,129,80,45,119.94,381,12.00,-12.00,-976.00
2024-06-07 00:06:33.603994,0,0,-145,0,0,0,77,79,129,80,45,120.03,381,-13.00,26.00,-1023.00
2024-06-07 00:06:33.638359,0,0,-151,0,0,0,77,79,128,80,45,119.97,381,8.00,-28.00,-1024.00
2024-06-07 00:06:33.808796,0,0,-157,0,0,0,77,79,128,80,45,120.02,381,2.00,-16.00,-960.00
2024-06-07 00:06:33.842739,0,0,-163,0,0,0,77,79,129,70,45,119.93,381,-19.00,35.00,-984.00
2024-06-07 00:06:33.944304,0,0,-169,0,0,0,77,79,128,70,45,120.02,381,-9.00,14.00,-985.00
2024-06-07 00:06:34.115982,0,-1,-175,0,0,0,77,79,129,70,45,120.04,381,-9.00,13.00,-1035.00
2024-06-07 00:06:34.148285,0,-1,178,0,0,0,77,79,129,70,45,120.00,381,5.00,-1.00,-1008.00
2024-06-07 00:06:34.250293,0,-1,172,0,0,0,77,79,129,70,45,120.03,381,2.00,-19.00,-972.00
2024-06-07 00:06:34.423774,0,0,166,0,0,0,77,79,128,80,45,120.06,381,-10.00,-9.00,-964.00
2024-06-07 00:06:34.454686,0,0,160,0,0,0,77,79,128,70,45,120.03,382,-6.00,4.00,-987.00
2024-06-07 00:06:34.629508,0,0,154,0,0,0,76,79,128,70,45,119.87,382,-10.00,0.00,-1013.00
2024-06-07 00:06:34.658478,0,0,148,0,0,0,76,79,128,70,45,119.96,382,-11.00,-27.00,-1011.00
2024-06-07 00:06:34.832729,0,0,142,0,0,0,76,79,128,70,45,119.96,382,5.00,-14.00,-1008.00
2024-06-07 00:06:34.864875,0,0,136,0,0,0,76,79,128,70,45,119.95,382,-14.00,-7.00,-1000.00
2024-06-07 00:06:34.964274,0,0,130,0,0,0,76,79,127,70,45,120.01,382,-20.00,-1.00,-973.00
2024-06-07 00:06:35.139970,0,0,124,0,0,0,76,79,126,70,45,119.99,382,1.00,-10.00,-976.00
2024-06-07 00:06:35.168186,0,0,118,0,0,0,76,79,126,70,45,120.00,382,-2.00,-12.00,-1017.00
2024-06-07 00:06:35.345531,0,0,112,0,0,0,76,79,125,70,45,119.96,382,-10.00,25.00,-1016.00
2024-06-07 00:06:35.372926,0,0,107,0,0,0,76,79,125,70,45,120.01,382,-9.00,13.00,-1026.00
2024-06-07 00:06:35.551111,0,-1,101,0,0,0,76,79,124,70,45,119.96,383,-8.00,20.00,-994.00
2024-06-07 00:06:35.576410,-1,-1,95,0,0,0,77,79,123,70,45,119.91,383,-7.00,1.00,-1018.00
2024-06-07 00:06:35.755833,-1,-1,89,0,0,0,77,79,122,70,45,119.95,383,-5.00,-20.00,-1021.00
2024-06-07 00:06:35.780179,-1,-1,83,0,0,0,77,79,122,70,45,119.99,383,-10.00,28.00,-1003.00
2024-06-07 00:06:35.882575,-1,0,77,0,0,0,77,79,122,70,45,119.96,383,-7.00,19.00,-1057.00
2024-06-07 00:06:35.933426,-1,0,71,0,0,0,77,79,122,70,45,119.92,383,-1.00,3.00,-1020.00
2024-06-07 00:06:36.068199,0,0,65,0,0,0,77,79,122,70,45,119.88,383,-33.00,-14.00,-997.00
2024-06-07 00:06:36.139692,0,0,60,0,0,0,77,79,122,70,45,119.92,383,-23.00,-9.00,-970.00
2024-06-07 00:06:36.239133,0,0,54,0,0,0,77,79,123,70,45,120.00,383,-18.00,-19.00,-1044.00
2024-06-07 00:06:36.368678,0,0,48,0,0,0,77,79,123,70,45,119.98,383,-25.00,19.00,-1004.00
2024-06-07 00:06:36.443815,-1,0,42,0,0,0,77,79,124,70,45,120.01,384,-20.00,-20.00,-1038.00
2024-06-07 00:06:36.573399,-1,0,37,0,0,0,77,80,124,70,45,119.95,384,-17.00,-1.00,-1027.00
2024-06-07 00:06:36.648150,-1,0,31,0,0,0,77,80,125,70,44,119.97,384,-35.00,6.00,-926.00
2024-06-07 00:06:36.778259,0,0,25,0,0,0,77,80,125,70,44,119.93,384,-21.00,-27.00,-1010.00
2024-06-07 00:06:36.851651,0,0,19,0,0,0,77,80,126,70,44,119.91,384,-28.00,14.00,-971.00
2024-06-07 00:06:36.983044,0,0,13,0,0,0,77,80,125,70,44,119.97,384,-19.00,12.00,-944.00
2024-06-07 00:06:37.055130,0,0,8,0,0,0,77,80,127,70,44,119.95,384,-13.00,2.00,-1013.00
2024-06-07 00:06:37.201354,0,0,4,0,0,0,77,80,127,70,44,119.98,384,-14.00,16.00,-1039.00
2024-06-07 00:06:37.343896,0,0,1,0,0,0,77,80,127,70,44,119.96,384,-15.00,-14.00,-979.00
2024-06-07 00:06:37.361011,0,0,0,0,0,0,77,80,126,70,44,119.93,384,-8.00,-29.00,-1012.00
2024-06-07 00:06:37.472042,0,0,-2,0,0,0,77,80,127,70,44,119.92,385,-21.00,-3.00,-1013.00
2024-06-07 00:06:37.564964,0,0,-3,0,0,0,77,80,127,70,44,119.93,385,-18.00,-7.00,-1031.00
2024-06-07 00:06:37.699821,0,0,-4,0,0,0,77,80,126,70,44,119.93,385,-23.00,-4.00,-1019.00
2024-06-07 00:06:37.856748,0,0,-5,0,0,0,77,80,125,70,44,119.90,385,-27.00,-32.00,-968.00
2024-06-07 00:06:37.871217,0,0,-6,0,0,0,77,80,124,70,44,119.94,385,-19.00,-23.00,-997.00
2024-06-07 00:06:38.009952,0,0,-6,0,0,0,77,80,124,70,44,119.92,385,-1.00,-29.00,-1013.00
2024-06-07 00:06:38.078138,0,0,-6,0,0,0,77,80,122,70,44,119.90,385,-15.00,3.00,-1057.00
2024-06-07 00:06:38.282961,0,0,-6,0,0,0,77,80,121,70,44,119.91,385,-12.00,-15.00,-1005.00
2024-06-07 00:06:38.283050,0,0,-6,0,0,0,77,80,121,70,44,119.91,385,-22.00,1.00,-987.00
2024-06-07 00:06:38.487713,0,0,-6,0,0,0,77,80,121,70,44,119.95,385,-24.00,20.00,-975.00
2024-06-07 00:06:38.487889,0,0,-6,0,0,0,77,80,120,70,44,119.88,386,-24.00,-9.00,-1000.00
2024-06-07 00:06:38.586424,0,0,-6,0,0,0,77,80,121,70,44,119.88,386,-25.00,-23.00,-984.00
2024-06-07 00:06:38.734846,0,0,-6,0,0,0,77,80,120,70,44,119.92,386,-8.00,-25.00,-1023.00
2024-06-07 00:06:38.878178,0,0,-6,0,0,0,77,80,121,70,44,119.85,386,-5.00,-36.00,-1003.00
2024-06-07 00:06:38.892062,0,0,-6,0,0,0,77,80,122,70,44,119.89,386,-10.00,-3.00,-1025.00
2024-06-07 00:06:39.042420,0,0,-6,0,0,0,77,80,122,70,44,119.90,386,-7.00,0.00,-1005.00
2024-06-07 00:06:39.185385,0,0,-6,0,0,0,77,80,122,70,44,119.91,386,-3.00,-16.00,-1038.00
2024-06-07 00:06:39.198127,0,0,-6,0,0,0,77,80,123,70,44,119.91,386,-18.00,-4.00,-1026.00
2024-06-07 00:06:39.349260,0,0,-6,0,0,0,77,80,124,70,44,119.94,386,-13.00,-5.00,-998.00
2024-06-07 00:06:39.418815,0,0,-6,0,0,0,77,80,124,70,44,119.89,386,-15.00,3.00,-1012.00
2024-06-07 00:06:39.503970,0,0,-6,0,0,0,77,80,125,70,44,119.93,387,-32.00,0.00,-922.00
2024-06-07 00:06:39.646171,0,0,-6,0,0,0,76,79,125,70,44,119.94,387,-13.00,0.00,-1030.00
2024-06-07 00:06:39.707980,0,0,-6,0,0,0,76,79,125,70,44,119.95,387,-26.00,-18.00,-968.00
2024-06-07 00:06:39.854192,0,0,-6,0,0,0,76,79,125,70,44,119.91,387,-30.00,-27.00,-996.00
2024-06-07 00:06:39.912200,0,0,-6,0,0,0,76,79,126,70,44,119.93,387,-1.00,22.00,-1028.00
2024-06-07 00:06:40.058967,0,0,-6,0,0,0,76,79,127,70,44,119.95,387,-23.00,-43.00,-983.00
2024-06-07 00:06:40.065205,0,0,-6,0,0,0,76,79,127,70,44,119.96,387,-14.00,-3.00,-1011.00
2024-06-07 00:06:40.167163,0,0,-6,0,0,0,76,79,127,70,44,119.90,387,-23.00,5.00,-988.00
2024-06-07 00:06:40.362357,0,0,-6,0,0,0,76,79,127,70,44,119.94,387,-11.00,20.00,-1002.00
2024-06-07 00:06:40.376437,0,0,-6,0,0,0,76,79,127,70,44,119.93,387,-9.00,10.00,-991.00
2024-06-07 00:06:40.472976,0,0,-6,0,0,0,76,79,127,70,44,119.96,388,-17.00,-6.00,-1015.00
2024-06-07 00:06:40.639684,0,0,-6,0,0,0,76,79,128,70,44,119.97,388,-21.00,-15.00,-1020.00
2024-06-07 00:06:40.676960,0,0,-6,0,0,0,76,79,127,70,44,120.00,388,-14.00,-19.00,-990.00
2024-06-07 00:06:40.874311,0,0,-6,0,0,0,76,79,127,70,44,119.95,388,-20.00,-3.00,-978.00
2024-06-07 00:06:40.880943,0,0,-6,0,0,0,76,79,127,70,44,119.95,388,-11.00,-29.00,-983.00
2024-06-07 00:06:41.079087,0,0,-6,0,0,0,76,79,128,70,44,119.89,388,-25.00,-28.00,-986.00
2024-06-07 00:06:41.084911,0,0,-6,0,0,0,76,79,127,70,44,119.94,388,-19.00,-22.00,-1045.00
2024-06-07 00:06:41.284113,0,0,-6,0,0,0,76,79,127,70,44,119.90,388,-9.00,0.00,-1031.00
2024-06-07 00:06:41.288875,0,0,-6,0,0,0,76,79,128,70,44,119.89,388,-9.00,-14.00,-1046.00
2024-06-07 00:06:41.391437,0,0,-6,0,0,0,76,79,128,70,44,119.91,388,-20.00,-1.00,-1038.00
2024-06-07 00:06:41.493311,0,0,-6,0,0,0,76,79,127,70,44,120.00,389,-8.00,-3.00,-1023.00
2024-06-07 00:06:41.693543,0,0,-6,0,0,0,76,79,129,70,43,119.89,389,-8.00,11.00,-1056.00
2024-06-07 00:06:41.699087,0,0,-6,0,0,0,76,79,127,70,43,119.92,389,-26.00,9.00,-1023.00
2024-06-07 00:06:41.799569,0,0,-6,0,0,0,76,79,128,70,43,119.91,389,-23.00,22.00,-1008.00
2024-06-07 00:06:41.901029,-1,0,-6,0,0,0,76,79,129,70,43,119.96,389,-8.00,13.00,-1029.00
2024-06-07 00:06:42.103767,-1,0,-6,0,0,0,76,79,129,70,43,119.95,389,-15.00,-38.00,-988.00
2024-06-07 00:06:42.104634,0,0,-6,0,0,0,76,79,129,80,43,119.90,389,-19.00,-2.00,-947.00
2024-06-07 00:06:42.308106,-1,0,-6,0,0,0,76,79,129,80,43,119.96,389,-9.00,12.00,-1009.00
2024-06-07 00:06:42.309397,0,0,-6,0,0,0,76,79,129,80,43,119.94,389,-21.00,-35.00,-974.00
2024-06-07 00:06:42.519078,0,0,-6,0,0,0,76,79,130,80,43,119.95,389,-23.00,17.00,-986.00
2024-06-07 00:06:42.519758,0,0,-6,0,0,0,76,79,130,80,43,119.94,390,-18.00,-11.00,-1050.00
2024-06-07 00:06:42.615090,0,0,-6,0,0,0,76,79,130,80,43,119.93,390,-19.00,-8.00,-972.00
2024-06-07 00:06:42.717380,0,0,-6,0,0,0,76,79,130,80,43,119.95,390,-26.00,0.00,-988.00
2024-06-07 00:06:42.820029,0,0,-6,0,0,0,76,79,130,80,43,119.96,390,1.00,12.00,-999.00
2024-06-07 00:06:42.922403,0,0,-6,0,0,0,76,79,131,80,43,119.93,390,-23.00,7.00,-976.00
2024-06-07 00:06:43.024304,0,0,-6,0,0,0,76,79,132,80,43,119.96,390,-12.00,-8.00,-1037.00
2024-06-07 00:06:43.127162,0,0,-6,0,0,0,76,79,131,80,43,119.97,390,-14.00,30.00,-975.00
2024-06-07 00:06:43.233938,0,0,-6,0,0,0,76,79,132,80,43,119.96,390,-20.00,-21.00,-1013.00
2024-06-07 00:06:43.332065,0,0,-6,0,0,0,76,79,131,80,43,119.95,390,-18.00,24.00,-968.00
2024-06-07 00:06:43.432402,0,0,-6,0,0,0,76,79,132,80,43,119.93,390,-18.00,-17.00,-966.00
2024-06-07 00:06:43.482688,0,0,-6,0,0,0,76,79,132,80,43,119.93,391,-22.00,-1.00,-1020.00
2024-06-07 00:06:43.639028,0,0,-6,0,0,0,77,79,133,80,43,119.89,391,-17.00,-7.00,-990.00
2024-06-07 00:06:43.686819,0,0,-6,0,0,0,77,79,132,80,43,120.03,391,-24.00,8.00,-971.00
2024-06-07 00:06:43.843856,0,0,-6,0,0,0,77,79,133,80,43,119.98,391,-8.00,-17.00,-994.00
2024-06-07 00:06:43.890905,0,0,-6,0,0,0,77,79,132,80,43,120.01,391,-17.00,0.00,-966.00
2024-06-07 00:06:44.048851,0,0,-6,0,0,0,77,79,133,80,43,119.94,391,-11.00,12.00,-1016.00
2024-06-07 00:06:44.094632,0,0,-6,0,0,0,77,79,131,80,43,119.89,391,-22.00,-24.00,-1021.00
2024-06-07 00:06:44.253796,0,0,-6,0,0,0,77,79,131,80,43,119.97,391,-17.00,0.00,-973.00
2024-06-07 00:06:44.298596,0,0,-6,0,0,0,77,79,131,80,43,119.97,391,-18.00,7.00,-1018.00
2024-06-07 00:06:44.465947,0,0,-6,0,0,0,77,79,131,80,43,119.99,391,-8.00,9.00,-1031.00
2024-06-07 00:06:44.502659,0,0,-6,0,0,0,77,79,131,80,43,119.94,392,-14.00,-18.00,-1040.00
2024-06-07 00:06:44.663041,0,0,-6,0,0,0,77,79,130,80,43,119.96,392,-19.00,19.00,-964.00
2024-06-07 00:06:44.706698,0,0,-6,0,0,0,77,79,131,80,43,120.03,392,-17.00,20.00,-1037.00
2024-06-07 00:06:44.879294,0,0,-6,0,0,0,77,79,130,80,43,119.97,392,-5.00,15.00,-1026.00
2024-06-07 00:06:44.910549,0,0,-6,0,0,0,77,79,130,80,43,119.94,392,-25.00,-24.00,-1024.00
2024-06-07 00:06:45.072987,0,0,-6,0,0,0,77,79,130,80,43,119.96,392,-21.00,12.00,-950.00
2024-06-07 00:06:45.114823,0,0,-6,0,0,0,77,79,130,80,43,119.97,392,-16.00,9.00,-985.00
2024-06-07 00:06:45.277509,0,0,-6,0,0,0,77,79,130,80,43,119.96,392,-17.00,-16.00,-988.00
2024-06-07 00:06:45.318468,0,0,-6,0,0,0,77,79,129,80,43,119.93,392,-19.00,-8.00,-981.00
2024-06-07 00:06:45.482101,0,0,-6,0,0,0,77,79,129,80,43,119.93,392,-11.00,0.00,-1005.00
2024-06-07 00:06:45.522577,0,0,-6,0,0,0,77,79,129,80,43,119.91,393,-25.00,-24.00,-1026.00
2024-06-07 00:06:45.687036,-1,0,-6,0,0,0,77,79,128,80,43,119.95,393,-21.00,14.00,-960.00
2024-06-07 00:06:45.727968,-1,0,-6,0,0,0,77,79,129,80,43,119.91,393,-10.00,12.00,-989.00
2024-06-07 00:06:45.891704,-1,-1,-6,0,0,0,77,79,129,70,43,119.95,393,-19.00,-5.00,-997.00
2024-06-07 00:06:45.932088,-1,0,-6,0,0,0,77,79,128,70,43,119.89,393,-16.00,-1.00,-1027.00
2024-06-07 00:06:46.032531,0,0,-6,0,0,0,77,79,129,70,43,119.96,393,-25.00,3.00,-1007.00
2024-06-07 00:06:46.134579,0,0,-6,0,0,0,77,79,130,70,43,119.92,393,-20.00,-18.00,-1003.00
2024-06-07 00:06:46.239979,-1,0,-6,0,0,0,77,79,130,80,43,119.94,393,-11.00,-14.00,-987.00
2024-06-07 00:06:46.338520,-1,1,-6,0,0,0,77,79,131,80,43,119.96,393,-16.00,-12.00,-1018.00
2024-06-07 00:06:46.440797,-1,0,-6,0,0,0,77,79,132,80,43,119.97,394,-17.00,0.00,-999.00
2024-06-07 00:06:46.542519,-1,0,-6,0,0,0,77,79,133,80,43,119.94,394,-25.00,11.00,-998.00
2024-06-07 00:06:46.710937,-1,0,-6,0,0,0,76,79,134,80,42,119.98,394,-21.00,17.00,-1009.00
2024-06-07 00:06:46.746540,-1,0,-6,0,0,0,76,79,135,80,42,119.96,394,-19.00,15.00,-979.00
2024-06-07 00:06:46.915578,-1,-1,-6,0,0,0,76,79,135,80,42,120.01,394,-13.00,-25.00,-982.00
2024-06-07 00:06:46.950374,-1,0,-6,0,0,0,76,79,137,80,42,120.02,394,-6.00,-19.00,-1022.00
2024-06-07 00:06:47.120488,-1,0,-6,0,0,0,76,79,138,80,42,120.02,394,-24.00,0.00,-959.00
2024-06-07 00:06:47.157780,-1,0,-6,0,0,0,76,79,139,80,42,120.00,394,-23.00,-9.00,-982.00
2024-06-07 00:06:47.256457,-1,0,-6,0,0,0,76,79,140,80,42,120.10,394,-27.00,2.00,-998.00
2024-06-07 00:06:47.427945,-1,0,-6,0,0,0,76,79,141,80,42,120.01,394,-11.00,-22.00,-928.00
2024-06-07 00:06:47.428127,-1,0,-6,0,0,0,76,79,142,80,42,120.03,395,-9.00,1.00,-1008.00
2024-06-07 00:06:47.511554,-1,0,-6,0,0,0,76,79,141,80,42,120.08,395,-8.00,3.00,-972.00
2024-06-07 00:06:47.664903,0,0,-6,0,0,0,76,80,142,80,42,120.08,395,-27.00,-8.00,-982.00
2024-06-07 00:06:47.715435,0,0,-6,0,0,0,76,80,141,80,42,120.02,395,-4.00,-12.00,-952.00
2024-06-07 00:06:47.837205,0,0,-6,0,0,0,76,80,140,80,42,120.08,395,-22.00,-1.00,-1013.00
2024-06-07 00:06:47.919330,-1,0,-6,0,0,0,76,80,140,80,42,120.03,395,-10.00,-17.00,-964.00
2024-06-07 00:06:48.042373,0,0,-6,0,0,0,76,80,138,80,42,120.01,395,-31.00,7.00,-1021.00
2024-06-07 00:06:48.134372,0,0,-6,0,0,0,76,80,136,80,42,119.95,395,-35.00,29.00,-1015.00
2024-06-07 00:06:48.225266,-1,-1,-6,0,0,0,76,80,136,80,42,120.01,395,-32.00,29.00,-1033.00
2024-06-07 00:06:48.349260,-1,-1,-6,0,0,0,76,80,135,80,42,120.07,395,-19.00,6.00,-963.00
2024-06-07 00:06:48.429220,-1,-1,-6,0,0,1,76,80,133,80,42,120.03,396,-25.00,-27.00,-1029.00
2024-06-07 00:06:48.553904,-1,0,-6,0,0,0,76,80,132,80,42,120.00,396,-14.00,21.00,-1042.00
2024-06-07 00:06:48.633749,-1,0,-6,0,0,0,76,79,130,80,42,119.99,396,-12.00,-9.00,-996.00
2024-06-07 00:06:48.758795,-1,0,-6,0,0,0,76,79,130,80,42,119.92,396,-24.00,-11.00,-1014.00
2024-06-07 00:06:48.838007,-1,0,-6,0,0,0,76,79,129,80,42,119.96,396,-28.00,25.00,-1021.00
2024-06-07 00:06:48.940599,-1,0,-6,0,0,0,76,79,128,80,42,119.97,396,-34.00,7.00,-997.00
2024-06-07 00:06:49.042864,-1,0,-6,0,0,0,76,79,128,70,42,120.01,396,-27.00,-15.00,-1018.00
2024-06-07 00:06:49.145376,-1,0,-6,0,0,0,76,79,128,70,42,119.97,396,-27.00,-12.00,-1042.00
2024-06-07 00:06:49.246328,-1,0,-6,0,0,0,76,79,127,70,42,119.99,396,-32.00,-10.00,-1014.00
2024-06-07 00:06:49.348657,-1,0,-6,0,0,0,76,79,127,70,42,120.00,396,-28.00,0.00,-953.00
2024-06-07 00:06:49.452609,-1,0,-6,0,0,0,76,79,127,70,42,119.95,397,-12.00,12.00,-1049.00
2024-06-07 00:06:49.554821,-1,0,-6,0,0,0,76,79,125,70,42,119.93,397,-16.00,-39.00,-1037.00
2024-06-07 00:06:49.655201,-1,0,-6,0,0,0,76,79,125,70,42,119.97,397,-25.00,-16.00,-1007.00
2024-06-07 00:06:49.755120,-1,0,-6,0,0,0,76,79,125,70,42,120.02,397,-17.00,5.00,-1011.00
2024-06-07 00:06:49.885085,-1,0,-6,0,0,0,76,79,125,70,42,120.03,397,-18.00,-11.00,-1027.00
2024-06-07 00:06:49.960181,-1,0,-6,0,0,0,76,79,125,70,42,119.98,397,-12.00,-22.00,-985.00
2024-06-07 00:06:50.089865,-1,0,-6,0,0,0,76,79,125,70,42,119.97,397,-15.00,-29.00,-1022.00
2024-06-07 00:06:50.163496,-1,0,-6,0,0,0,76,79,125,70,42,120.03,397,-14.00,-1.00,-1017.00
