TS,pitch,roll,yaw,vgx,vgy,vgz,templ,temph,tof,h,bat,baro,time,agx,agy,agz
2024-06-07 00:07:15.973324,0,0,-4,0,0,0,79,81,10,0,41,119.32,402,-6.00,9.00,-1002.00
2024-06-07 00:07:16.075493,0,0,-4,0,0,0,79,81,10,0,41,119.33,402,-3.00,11.00,-1001.00
2024-06-07 00:07:16.173269,0,0,-4,0,0,0,79,81,10,0,41,119.32,402,-3.00,10.00,-1000.00
2024-06-07 00:07:16.303128,0,0,-4,0,0,0,79,81,10,0,41,119.33,402,-4.00,10.00,-1001.00
2024-06-07 00:07:16.376724,0,0,-4,0,0,0,79,81,10,0,41,119.29,402,-4.00,11.00,-1000.00
2024-06-07 00:07:16.508248,0,0,-4,0,0,0,79,81,10,0,41,119.31,402,-4.00,11.00,-1000.00
2024-06-07 00:07:16.580710,0,0,-4,0,0,0,79,81,10,0,41,119.35,402,-2.00,9.00,-998.00
2024-06-07 00:07:16.712899,0,0,-4,0,0,0,79,81,10,0,41,119.34,402,-4.00,10.00,-999.00
2024-06-07 00:07:16.784826,0,0,-4,0,0,0,79,81,10,0,41,119.30,402,-2.00,11.00,-999.00
2024-06-07 00:07:16.917650,0,0,-4,0,0,0,79,81,10,0,41,119.35,402,-3.00,9.00,-997.00
2024-06-07 00:07:16.988824,0,0,-4,0,0,0,79,81,10,0,41,119.35,402,-4.00,10.00,-1001.00
2024-06-07 00:07:17.122423,0,0,-4,0,0,0,79,81,10,0,41,119.34,402,-4.00,10.00,-1001.00
2024-06-07 00:07:17.192725,0,0,-4,0,0,0,79,81,10,0,41,119.40,402,-4.00,10.00,-999.00
2024-06-07 00:07:17.294896,0,0,-4,0,0,0,79,81,10,0,41,119.35,402,-3.00,9.00,-1001.00
2024-06-07 00:07:17.429679,0,0,-4,0,0,0,79,81,10,0,41,119.37,402,-3.00,11.00,-998.00
2024-06-07 00:07:17.498834,0,0,-4,0,0,0,79,81,10,0,41,119.38,402,-2.00,11.00,-999.00
2024-06-07 00:07:17.600733,0,0,-4,0,0,0,79,81,10,0,41,119.37,402,-4.00,10.00,-1001.00
2024-06-07 00:07:17.736890,0,0,-4,0,0,0,79,81,10,0,41,119.34,402,-3.00,10.00,-998.00
2024-06-07 00:07:17.804630,0,0,-4,0,0,0,78,82,10,0,41,119.33,402,-4.00,9.00,-999.00
2024-06-07 00:07:17.906825,0,0,-4,0,0,0,78,82,10,0,41,119.37,402,-3.00,11.00,-1001.00
2024-06-07 00:07:18.008895,0,0,-4,0,0,0,78,82,10,0,41,119.31,402,-4.00,10.00,-999.00
2024-06-07 00:07:18.110885,0,0,-4,0,0,0,78,82,10,0,41,119.34,402,-2.00,10.00,-999.00
2024-06-07 00:07:18.248674,0,0,-4,0,0,0,78,82,10,0,41,119.37,402,-4.00,10.00,-998.00
2024-06-07 00:07:18.314610,0,0,-4,0,0,0,78,82,10,0,41,119.37,402,-8.00,9.00,-999.00
2024-06-07 00:07:18.453444,0,0,-4,0,0,0,78,82,10,0,41,119.37,402,-5.00,17.00,-1000.00
2024-06-07 00:07:18.518759,0,0,-4,0,0,0,78,82,10,0,41,119.37,403,-19.00,0.00,-1024.00
2024-06-07 00:07:18.658195,0,0,-4,0,0,0,78,82,10,0,41,119.37,403,8.00,13.00,-941.00
2024-06-07 00:07:18.671279,0,0,-3,0,0,0,78,82,10,0,41,119.37,403,6.00,-37.00,-1000.00
2024-06-07 00:07:18.862957,0,0,-3,0,0,0,79,82,10,0,41,119.37,403,-11.00,19.00,-1138.00
2024-06-07 00:07:18.926365,0,0,-4,0,0,0,79,82,10,-10,41,119.37,403,17.00,-10.00,-1316.00
2024-06-07 00:07:19.028401,0,0,-4,0,0,-2,79,82,12,-10,41,119.37,403,27.00,-11.00,-1284.00
2024-06-07 00:07:19.079377,0,1,-4,0,0,-5,79,82,21,-10,41,119.59,403,14.00,15.00,-1133.00
2024-06-07 00:07:19.274654,0,0,-4,0,0,-6,79,82,30,-10,41,119.79,403,-12.00,-5.00,-1057.00
2024-06-07 00:07:19.283317,0,0,-4,0,0,-6,79,82,36,0,41,119.83,403,9.00,21.00,-1067.00
2024-06-07 00:07:19.477595,0,0,-4,0,0,-6,79,82,46,0,41,119.93,403,-33.00,-8.00,-960.00
2024-06-07 00:07:19.489628,0,0,-4,0,0,-5,79,82,56,0,41,119.99,404,-2.00,-24.00,-975.00
2024-06-07 00:07:19.589277,0,0,-4,0,0,-5,79,82,64,0,41,120.16,404,-27.00,-6.00,-900.00
2024-06-07 00:07:19.784520,0,0,-4,0,0,-4,79,82,73,0,41,120.29,404,-10.00,13.00,-916.00
2024-06-07 00:07:19.793202,0,0,-4,0,0,-3,80,83,81,10,41,120.29,404,-4.00,15.00,-886.00
2024-06-07 00:07:19.895292,0,0,-4,0,0,-2,80,83,87,10,41,120.39,404,-18.00,11.00,-893.00
2024-06-07 00:07:19.997193,0,0,-4,0,0,-2,80,83,93,20,41,120.43,404,-16.00,-17.00,-938.00
2024-06-07 00:07:20.194232,-1,0,-4,0,0,-1,80,83,97,20,41,120.48,404,-11.00,3.00,-865.00
2024-06-07 00:07:20.201225,-1,0,-4,0,0,0,80,83,101,20,41,120.51,404,-14.00,-7.00,-910.00
2024-06-07 00:07:20.303555,-1,0,-4,0,0,0,80,83,104,30,41,120.53,404,-10.00,12.00,-876.00
2024-06-07 00:07:20.501377,-1,0,-4,0,0,0,80,83,106,30,41,120.52,404,-4.00,2.00,-918.00
2024-06-07 00:07:20.507301,0,0,-4,0,0,1,80,83,107,30,41,120.52,405,-17.00,-2.00,-916.00
2024-06-07 00:07:20.707836,0,0,-4,0,0,1,80,83,108,30,41,120.53,405,-5.00,-23.00,-943.00
2024-06-07 00:07:20.711208,0,0,-4,0,0,1,80,83,108,30,41,120.55,405,-19.00,-26.00,-923.00
2024-06-07 00:07:20.911042,0,0,-4,0,0,2,80,82,108,30,41,120.61,405,-5.00,-18.00,-972.00
2024-06-07 00:07:20.916042,0,0,-4,0,0,2,80,82,107,30,41,120.60,405,-27.00,0.00,-963.00
2024-06-07 00:07:21.018121,0,0,-4,0,0,2,80,82,107,30,41,120.54,405,-2.00,-32.00,-987.00
2024-06-07 00:07:21.218148,0,0,-4,0,0,2,80,82,105,30,41,120.54,405,-4.00,11.00,-982.00
2024-06-07 00:07:21.222867,0,0,-4,0,0,2,80,82,104,30,41,120.50,405,1.00,-7.00,-980.00
2024-06-07 00:07:21.323687,0,0,-4,0,0,2,80,82,102,30,41,120.51,405,-5.00,-12.00,-971.00
2024-06-07 00:07:21.426087,0,0,-4,0,0,2,80,82,101,30,41,120.49,405,0.00,29.00,-1005.00
2024-06-07 00:07:21.528446,0,0,-4,0,0,2,80,82,99,30,41,120.52,406,-14.00,20.00,-990.00
2024-06-07 00:07:21.633243,0,0,-4,0,0,2,80,82,97,30,41,120.48,406,-17.00,-17.00,-976.00
2024-06-07 00:07:21.733683,0,0,-4,0,0,2,80,82,95,30,41,120.44,406,-5.00,-7.00,-982.00
2024-06-07 00:07:21.833124,0,0,-4,0,0,1,79,82,93,30,41,120.47,406,-19.00,22.00,-1020.00
2024-06-07 00:07:21.935056,0,0,-4,0,0,2,79,82,91,30,41,120.44,406,-13.00,-32.00,-1021.00
2024-06-07 00:07:22.106963,0,0,-4,0,0,1,79,82,90,30,41,120.52,406,-19.00,12.00,-961.00
2024-06-07 00:07:22.178200,0,0,-4,0,0,1,79,82,89,20,41,120.45,406,-10.00,6.00,-980.00
2024-06-07 00:07:22.242113,0,0,-4,0,0,1,79,82,88,20,41,120.43,406,-19.00,3.00,-998.00
2024-06-07 00:07:22.369256,0,0,-4,0,0,1,79,82,87,20,41,120.40,406,-26.00,-31.00,-989.00
2024-06-07 00:07:22.468444,0,0,-4,0,0,1,79,82,86,20,41,120.29,407,-19.00,-8.00,-982.00
2024-06-07 00:07:22.547503,0,0,-4,0,0,1,79,82,84,20,41,120.39,407,-22.00,-28.00,-1005.00
2024-06-07 00:07:22.651668,0,0,-4,0,0,1,79,82,84,20,41,120.35,407,-14.00,-25.00,-1012.00
2024-06-07 00:07:22.799121,0,0,-4,0,0,1,79,82,82,20,41,120.33,407,-7.00,2.00,-1029.00
2024-06-07 00:07:22.853046,0,0,-4,0,0,1,80,81,81,20,41,120.34,407,-6.00,23.00,-1003.00
2024-06-07 00:07:23.007619,0,0,-4,0,0,1,80,81,80,20,41,120.38,407,-36.00,-26.00,-963.00
2024-06-07 00:07:23.150982,0,0,-4,0,0,1,80,81,78,20,41,120.33,407,-1.00,0.00,-1060.00
2024-06-07 00:07:23.158904,0,0,-4,0,0,0,80,81,77,20,41,120.36,407,-16.00,0.00,-994.00
2024-06-07 00:07:23.294567,0,0,-4,0,0,0,80,81,76,10,41,120.28,407,-1.00,19.00,-1053.00
2024-06-07 00:07:23.312129,0,0,-4,0,0,0,80,81,75,10,41,120.29,407,-43.00,-10.00,-946.00
2024-06-07 00:07:23.437748,0,0,-4,0,0,0,80,81,75,10,41,120.33,408,-3.00,19.00,-1060.00
2024-06-07 00:07:23.584081,0,0,-4,0,0,0,80,81,74,10,41,120.24,408,3.00,13.00,-1042.00
2024-06-07 00:07:23.727447,0,0,-4,0,0,0,80,81,73,10,41,120.24,408,-10.00,-29.00,-1004.00
2024-06-07 00:07:23.727503,0,0,-4,0,0,0,80,81,72,10,41,120.27,408,-17.00,0.00,-999.00
2024-06-07 00:07:23.891287,0,0,-4,0,0,0,79,82,71,10,41,120.26,408,-8.00,-8.00,-1038.00
2024-06-07 00:07:24.034699,0,0,-4,0,0,0,79,82,70,10,41,120.30,408,-17.00,9.00,-974.00
2024-06-07 00:07:24.034998,0,0,-4,0,0,0,79,82,70,10,41,120.27,408,16.00,19.00,-1011.00
2024-06-07 00:07:24.199353,0,0,-4,0,0,0,79,82,69,10,41,120.27,408,6.00,13.00,-1026.00
2024-06-07 00:07:24.342884,0,0,-4,0,0,0,79,82,68,10,41,120.24,408,-3.00,-8.00,-1017.00
2024-06-07 00:07:24.342942,0,0,-4,0,0,0,79,82,67,10,41,120.23,408,9.00,0.00,-1058.00
2024-06-07 00:07:24.506817,0,0,-4,0,0,0,79,82,66,10,41,120.25,409,-10.00,-1.00,-1015.00
2024-06-07 00:07:24.659948,0,0,-4,0,0,0,79,82,66,10,41,120.20,409,-4.00,-6.00,-1026.00
2024-06-07 00:07:24.660025,0,0,-4,0,0,0,79,82,65,10,41,120.24,409,-9.00,-3.00,-993.00
2024-06-07 00:07:24.740124,0,0,-4,0,0,0,79,82,65,10,41,120.21,409,-11.00,8.00,-1006.00
2024-06-07 00:07:24.904438,0,0,-4,0,0,0,79,81,65,10,41,120.16,409,2.00,17.00,-1034.00
2024-06-07 00:07:24.944077,0,0,-4,0,0,0,79,81,64,10,41,120.30,409,21.00,23.00,-1060.00
2024-06-07 00:07:25.047386,0,0,-4,0,0,0,79,81,64,10,41,120.23,409,8.00,8.00,-1049.00
2024-06-07 00:07:25.212254,0,0,-4,0,0,0,79,81,64,10,41,120.24,409,8.00,-7.00,-1047.00
2024-06-07 00:07:25.255081,0,0,-4,0,0,0,79,81,64,10,41,120.25,409,-10.00,-3.00,-1013.00
2024-06-07 00:07:25.354403,0,0,-4,0,0,0,79,81,64,10,41,120.27,409,1.00,-15.00,-1027.00
2024-06-07 00:07:25.454619,0,0,-4,0,0,0,79,81,65,10,41,120.21,410,-25.00,-22.00,-981.00
2024-06-07 00:07:25.556324,0,0,-4,0,0,0,79,81,65,10,41,120.22,410,-14.00,32.00,-990.00
2024-06-07 00:07:25.658537,0,0,-4,0,0,0,79,81,65,10,41,120.22,410,-5.00,8.00,-1036.00
2024-06-07 00:07:25.759820,0,0,-4,0,0,0,79,81,66,10,41,120.23,410,-8.00,13.00,-1016.00
2024-06-07 00:07:25.928349,0,0,-4,0,0,0,79,81,66,10,41,120.25,410,-18.00,-10.00,-1019.00
2024-06-07 00:07:25.963913,0,0,-4,0,0,0,79,81,66,10,41,120.21,410,-13.00,-21.00,-1009.00
2024-06-07 00:07:26.133627,0,0,-4,0,0,0,79,81,67,10,41,120.20,410,-27.00,18.00,-919.00
2024-06-07 00:07:26.176445,0,0,-4,0,0,0,79,81,67,10,41,120.23,410,-4.00,25.00,-986.00
2024-06-07 00:07:26.270630,0,0,-4,0,0,0,79,81,67,10,41,120.26,410,-3.00,-17.00,-1034.00
2024-06-07 00:07:26.440343,0,0,-4,0,0,0,79,81,67,10,41,120.20,410,-9.00,0.00,-981.00
2024-06-07 00:07:26.473955,0,0,-4,0,0,0,79,81,67,10,41,120.22,411,-24.00,-5.00,-981.00
2024-06-07 00:07:26.645793,0,0,-4,0,0,0,79,81,67,10,41,120.17,411,-9.00,3.00,-1023.00
2024-06-07 00:07:26.678098,0,0,-4,0,0,0,79,81,67,10,41,120.26,411,-16.00,16.00,-957.00
2024-06-07 00:07:26.849863,0,0,-4,0,0,0,79,81,67,10,41,120.21,411,-22.00,22.00,-960.00
2024-06-07 00:07:26.881825,0,0,-4,0,0,0,78,81,68,10,41,120.23,411,-1.00,20.00,-978.00
2024-06-07 00:07:27.055325,0,0,-4,0,0,0,78,81,68,10,41,120.23,411,-1.00,32.00,-1007.00
2024-06-07 00:07:27.088723,0,0,-4,0,0,0,78,81,69,10,41,120.23,411,0.00,7.00,-1048.00
2024-06-07 00:07:27.188455,0,0,-4,0,0,0,78,81,69,10,41,120.25,411,-10.00,1.00,-1000.00
2024-06-07 00:07:27.238857,0,0,-4,0,0,0,78,81,69,10,41,120.24,411,-14.00,-10.00,-1011.00
2024-06-07 00:07:27.362092,0,0,-4,0,0,0,78,81,69,10,41,120.27,411,-14.00,-1.00,-961.00
2024-06-07 00:07:27.443017,0,0,-4,0,0,0,78,81,70,10,41,120.30,412,-11.00,28.00,-958.00
2024-06-07 00:07:27.574419,0,0,-4,0,0,0,78,81,70,10,41,120.26,412,3.00,-1.00,-1030.00
2024-06-07 00:07:27.646849,0,0,-4,0,0,0,78,81,70,10,41,120.25,412,-18.00,-15.00,-997.00
2024-06-07 00:07:27.771830,0,0,-4,0,0,0,78,81,71,10,41,120.25,412,-18.00,27.00,-948.00
2024-06-07 00:07:27.851837,0,0,-4,0,0,0,78,80,71,10,41,120.29,412,-8.00,13.00,-972.00
2024-06-07 00:07:27.976486,0,0,-4,0,0,0,78,80,71,10,41,120.25,412,-23.00,-13.00,-1035.00
2024-06-07 00:07:28.055768,0,0,-4,0,0,0,78,80,71,10,41,120.26,412,5.00,29.00,-993.00
2024-06-07 00:07:28.181335,0,0,-4,0,0,0,78,80,72,10,41,120.27,412,-5.00,1.00,-1006.00
2024-06-07 00:07:28.258841,0,0,-4,0,0,0,78,80,71,10,41,120.29,412,-7.00,20.00,-939.00
2024-06-07 00:07:28.386008,0,0,-4,0,0,0,78,80,71,10,41,120.28,412,-21.00,-1.00,-986.00
2024-06-07 00:07:28.465815,0,0,-4,0,0,0,78,80,72,10,41,120.30,413,-5.00,-8.00,-1032.00
2024-06-07 00:07:28.566112,0,0,-4,0,0,0,78,80,71,10,41,120.35,413,-17.00,33.00,-971.00
2024-06-07 00:07:28.668424,0,0,-4,0,0,0,78,80,71,10,41,120.30,413,-14.00,-15.00,-999.00
2024-06-07 00:07:28.770567,0,0,-4,0,0,0,78,80,71,10,41,120.31,413,-10.00,35.00,-974.00
2024-06-07 00:07:28.870523,0,0,-4,0,0,0,78,81,71,10,41,120.29,413,-6.00,30.00,-1008.00
2024-06-07 00:07:29.000289,0,0,-4,0,0,0,78,81,71,10,41,120.31,413,3.00,0.00,-1061.00
2024-06-07 00:07:29.076920,0,0,-4,0,0,0,78,81,71,10,41,120.24,413,-21.00,24.00,-1064.00
2024-06-07 00:07:29.205733,0,0,-4,0,0,0,78,81,72,10,41,120.30,413,-20.00,7.00,-1066.00
2024-06-07 00:07:29.279667,0,0,-4,0,0,-1,78,81,74,10,41,120.34,413,-22.00,20.00,-1095.00
2024-06-07 00:07:29.409759,0,0,-4,0,0,-3,78,81,77,10,41,120.40,413,-20.00,3.00,-1103.00
2024-06-07 00:07:29.483623,0,0,-4,0,0,-4,78,81,81,20,41,120.38,414,-25.00,2.00,-1057.00
2024-06-07 00:07:29.614729,0,0,-4,0,0,-4,78,81,86,20,41,120.43,414,-18.00,9.00,-1051.00
2024-06-07 00:07:29.687637,0,0,-4,0,0,-5,78,81,91,30,41,120.47,414,-22.00,5.00,-1005.00
2024-06-07 00:07:29.819398,0,0,-4,0,0,-5,78,81,97,30,41,120.57,414,-16.00,6.00,-1009.00
2024-06-07 00:07:29.891554,0,0,-4,0,0,-5,78,81,103,40,41,120.64,414,-15.00,11.00,-987.00
2024-06-07 00:07:30.024185,0,0,-4,0,0,-5,78,81,109,40,41,120.63,414,-28.00,20.00,-984.00
2024-06-07 00:07:30.095481,0,0,-4,0,0,-5,78,81,115,50,41,120.72,414,7.00,32.00,-1004.00
2024-06-07 00:07:30.229249,0,0,-4,0,0,-5,78,81,120,60,41,120.76,414,0.00,-1.00,-1034.00
2024-06-07 00:07:30.299753,0,0,-4,0,0,-5,78,81,126,60,41,120.81,414,-16.00,1.00,-982.00
2024-06-07 00:07:30.435470,0,0,-4,0,0,-5,78,81,131,70,41,120.87,414,-22.00,7.00,-918.00
2024-06-07 00:07:30.503486,0,0,-4,0,0,-4,78,81,136,70,41,120.94,415,-7.00,-19.00,-957.00
2024-06-07 00:07:30.638906,0,0,-4,0,0,-4,78,81,141,80,41,121.03,415,-2.00,-4.00,-993.00
2024-06-07 00:07:30.707691,0,0,-4,0,0,-4,78,81,146,80,41,121.01,415,-14.00,-2.00,-982.00
2024-06-07 00:07:30.843359,0,0,-4,0,0,-3,78,81,150,80,41,121.04,415,-11.00,10.00,-972.00
2024-06-07 00:07:30.911500,0,0,-4,0,0,-3,77,80,153,90,41,121.08,415,4.00,5.00,-992.00
2024-06-07 00:07:31.048242,0,0,-4,0,0,-3,77,80,156,90,41,121.11,415,-14.00,19.00,-930.00
2024-06-07 00:07:31.067483,0,0,-4,0,0,-2,77,80,160,90,41,121.12,415,-28.00,-1.00,-974.00
2024-06-07 00:07:31.166473,0,0,-4,0,0,-2,77,80,163,100,41,121.23,415,-14.00,8.00,-968.00
2024-06-07 00:07:31.359371,-1,0,-4,0,0,-2,77,80,165,100,41,121.20,415,-14.00,33.00,-969.00
2024-06-07 00:07:31.371559,-1,0,-4,0,0,-1,77,80,167,100,41,121.20,415,-8.00,3.00,-1034.00
2024-06-07 00:07:31.479397,-1,0,-4,0,0,-1,77,80,169,100,41,121.28,416,-17.00,-2.00,-899.00
2024-06-07 00:07:31.582657,0,0,-4,0,0,-1,77,80,170,110,41,121.30,416,-14.00,4.00,-993.00
2024-06-07 00:07:31.678612,0,0,-4,0,0,0,77,80,171,110,41,121.22,416,-7.00,12.00,-950.00
2024-06-07 00:07:31.778813,-1,0,-4,0,0,0,77,80,172,110,41,121.26,416,-12.00,26.00,-1027.00
2024-06-07 00:07:31.975314,0,0,-4,0,0,0,78,80,173,110,41,121.26,416,-15.00,5.00,-974.00
2024-06-07 00:07:31.982589,0,0,-4,0,0,0,78,80,174,110,41,121.32,416,-14.00,0.00,-1022.00
2024-06-07 00:07:32.174757,0,0,-4,0,0,0,78,80,174,110,41,121.24,416,-30.00,32.00,-1011.00
2024-06-07 00:07:32.186423,0,0,-4,0,0,0,78,80,174,110,41,121.30,416,-22.00,33.00,-960.00
2024-06-07 00:07:32.288549,0,0,-4,0,0,0,78,80,174,110,41,121.25,416,-6.00,-2.00,-982.00
2024-06-07 00:07:32.481829,0,0,-4,0,0,0,78,80,174,110,41,121.24,416,-19.00,4.00,-1016.00
2024-06-07 00:07:32.492376,0,0,-4,0,0,0,78,80,173,110,41,121.37,417,-12.00,2.00,-985.00
2024-06-07 00:07:32.686935,0,0,-4,0,0,0,78,80,174,110,41,121.28,417,-3.00,26.00,-991.00
2024-06-07 00:07:32.696263,0,0,-4,0,0,0,78,80,174,110,41,121.31,417,-12.00,10.00,-1005.00
2024-06-07 00:07:32.898201,0,0,-4,0,0,0,78,80,173,110,41,121.25,417,-11.00,-24.00,-1033.00
2024-06-07 00:07:32.900214,0,0,-4,0,0,0,77,81,173,110,41,121.29,417,-18.00,-1.00,-993.00
2024-06-07 00:07:33.096557,0,0,-4,0,0,0,77,81,173,110,41,121.23,417,-19.00,36.00,-971.00
2024-06-07 00:07:33.104330,0,0,-4,0,0,0,77,81,172,110,41,121.24,417,-13.00,-29.00,-1021.00
2024-06-07 00:07:33.301122,0,0,-4,0,0,0,77,81,171,110,41,121.26,417,0.00,23.00,-1045.00
2024-06-07 00:07:33.309014,0,0,-4,0,0,0,77,81,173,110,41,121.31,417,-26.00,27.00,-989.00
2024-06-07 00:07:33.425105,0,0,-4,0,0,0,77,81,172,110,41,121.22,417,-18.00,15.00,-989.00
2024-06-07 00:07:33.512182,0,0,-4,0,0,0,77,81,171,110,41,121.24,418,-1.00,-17.00,-1027.00
2024-06-07 00:07:33.614610,0,0,-4,0,0,0,77,81,171,110,41,121.20,418,-7.00,0.00,-1020.00
2024-06-07 00:07:33.812847,0,0,-4,0,0,0,77,81,171,110,41,121.19,418,-9.00,-24.00,-927.00
2024-06-07 00:07:33.820290,0,0,-4,0,0,0,77,81,169,110,41,121.23,418,0.00,10.00,-952.00
2024-06-07 00:07:33.920843,0,0,-4,0,0,1,78,80,168,110,41,121.22,418,0.00,9.00,-971.00
2024-06-07 00:07:34.120530,0,0,-4,0,0,1,78,80,166,100,41,121.21,418,-12.00,-25.00,-956.00
2024-06-07 00:07:34.125071,0,0,-4,0,0,2,78,80,163,100,41,121.18,418,-6.00,22.00,-967.00
2024-06-07 00:07:34.324855,0,0,-4,0,0,2,78,80,160,100,41,121.10,418,-12.00,16.00,-978.00
2024-06-07 00:07:34.330049,0,0,-4,0,0,2,78,80,157,100,41,121.05,418,-16.00,-22.00,-979.00
2024-06-07 00:07:34.430450,0,0,-4,0,0,2,78,80,153,90,41,121.11,418,-19.00,-7.00,-972.00
2024-06-07 00:07:34.533076,0,0,-4,0,0,3,78,80,150,90,41,121.07,419,-12.00,23.00,-983.00
2024-06-07 00:07:34.584406,0,0,-4,0,0,3,78,80,147,90,41,120.97,419,-6.00,-13.00,-1026.00
2024-06-07 00:07:34.736758,0,0,-4,0,0,3,78,80,144,80,41,121.00,419,-12.00,9.00,-1069.00
2024-06-07 00:07:34.787068,0,0,-4,0,0,2,78,80,142,80,41,120.99,419,-13.00,-13.00,-1044.00
2024-06-07 00:07:34.939204,0,0,-4,0,0,2,77,80,139,80,41,120.95,419,-4.00,4.00,-991.00
2024-06-07 00:07:34.991412,0,0,-4,0,0,2,77,80,136,80,41,120.93,419,-11.00,30.00,-1012.00
2024-06-07 00:07:35.144338,0,0,-4,0,0,2,77,80,133,70,41,120.89,419,-10.00,32.00,-1045.00
2024-06-07 00:07:35.195039,0,0,-4,0,0,2,77,80,132,70,41,120.93,419,-14.00,-8.00,-1047.00
2024-06-07 00:07:35.297100,0,-1,-4,0,0,1,77,80,130,70,41,120.80,419,-12.00,0.00,-1002.00
2024-06-07 00:07:35.451334,0,0,-4,0,0,1,77,80,128,70,41,120.84,419,-20.00,6.00,-1037.00
2024-06-07 00:07:35.501010,0,0,-4,0,0,1,77,80,127,70,41,120.85,420,2.00,-12.00,-984.00
2024-06-07 00:07:35.655986,0,0,-4,0,0,1,77,80,126,60,41,120.87,420,-2.00,-36.00,-1017.00
2024-06-07 00:07:35.705431,0,0,-4,0,0,1,77,80,125,60,41,120.78,420,-16.00,25.00,-1027.00
2024-06-07 00:07:35.861027,0,0,-4,0,0,1,77,80,124,60,41,120.80,420,-8.00,-18.00,-1026.00
2024-06-07 00:07:35.909362,0,0,-4,0,0,0,77,80,122,60,41,120.84,420,-15.00,-19.00,-1009.00
2024-06-07 00:07:36.070732,0,0,-4,0,0,0,77,80,122,60,41,120.78,420,0.00,-5.00,-1023.00
2024-06-07 00:07:36.113250,0,0,-4,0,0,0,77,80,121,60,41,120.79,420,-6.00,-13.00,-1025.00
2024-06-07 00:07:36.270641,0,0,-4,0,0,0,77,80,122,60,41,120.82,420,-2.00,-25.00,-1013.00
2024-06-07 00:07:36.317146,0,0,-4,0,0,0,77,80,122,60,41,120.82,420,-11.00,-19.00,-1031.00
2024-06-07 00:07:36.475411,0,0,-4,0,0,0,77,80,122,60,41,120.75,421,-21.00,-28.00,-1005.00
2024-06-07 00:07:36.521081,0,0,-4,0,0,0,77,80,121,60,41,120.78,421,-8.00,-15.00,-990.00
2024-06-07 00:07:36.680106,0,0,-4,0,0,0,77,80,121,60,41,120.80,421,-2.00,-22.00,-1001.00
2024-06-07 00:07:36.725912,0,0,-4,0,0,0,77,80,121,60,41,120.78,421,-5.00,-13.00,-1018.00
2024-06-07 00:07:36.898128,0,0,-4,0,0,0,77,80,121,60,41,120.88,421,-2.00,-5.00,-1023.00
2024-06-07 00:07:36.929411,0,0,-4,0,0,0,77,80,120,60,41,120.87,421,-11.00,-29.00,-1025.00
2024-06-07 00:07:37.115308,0,0,-4,0,0,0,77,80,121,60,41,120.77,421,-6.00,7.00,-980.00
2024-06-07 00:07:37.133029,0,0,-4,0,0,0,77,80,120,60,41,120.80,421,-6.00,17.00,-1002.00
2024-06-07 00:07:37.257776,0,0,-4,0,0,0,77,80,121,60,41,120.82,421,-7.00,32.00,-980.00
2024-06-07 00:07:37.373605,0,0,-4,0,0,0,77,80,120,60,41,120.74,421,2.00,-10.00,-964.00
2024-06-07 00:07:37.445571,0,0,-4,0,0,0,77,80,121,60,41,120.77,422,5.00,11.00,-993.00
2024-06-07 00:07:37.557934,0,0,-4,0,0,0,77,80,120,60,41,120.84,422,-11.00,-16.00,-1004.00
2024-06-07 00:07:37.643281,0,0,-4,0,0,0,77,80,120,60,41,120.81,422,-15.00,24.00,-1013.00
2024-06-07 00:07:37.744911,0,0,-4,0,0,0,77,80,120,60,41,120.80,422,-4.00,-5.00,-985.00
2024-06-07 00:07:37.909252,0,0,-4,0,0,0,77,80,120,60,41,120.76,422,10.00,-24.00,-1001.00
2024-06-07 00:07:38.049809,-4,0,-4,0,0,0,78,80,120,60,41,120.80,422,-2.00,23.00,-1024.00
2024-06-07 00:07:38.051620,-8,0,-4,0,0,0,78,80,120,60,41,120.76,422,1.00,-31.00,-1025.00
2024-06-07 00:07:38.216237,-8,0,-4,2,0,0,78,80,120,60,41,120.75,422,-23.00,-8.00,-1021.00
2024-06-07 00:07:38.329768,-8,0,-4,3,0,0,78,80,121,60,41,120.80,422,-30.00,-17.00,-961.00
2024-06-07 00:07:38.356757,-8,0,-4,4,0,0,78,80,120,60,41,120.81,422,-29.00,-8.00,-1014.00
2024-06-07 00:07:38.472935,-8,0,-4,5,0,0,78,80,121,60,41,120.80,423,-40.00,0.00,-1017.00
2024-06-07 00:07:38.509664,-7,0,-4,6,0,0,78,80,120,60,41,120.77,423,-47.00,-4.00,-1020.00
2024-06-07 00:07:38.636528,-5,0,-4,7,0,0,78,80,121,60,41,120.71,423,-66.00,6.00,-1010.00
2024-06-07 00:07:38.779679,-4,1,-4,7,0,0,78,80,120,60,41,120.76,423,-53.00,-20.00,-1021.00
2024-06-07 00:07:38.815997,-2,1,-4,8,0,0,78,80,120,60,41,120.73,423,-53.00,-7.00,-1025.00
2024-06-07 00:07:39.137779,1,0,-4,7,0,0,78,81,121,60,41,120.77,423,-56.00,-12.00,-1004.00
2024-06-07 00:07:39.181378,3,0,-4,6,0,0,78,81,122,60,41,120.76,423,-42.00,5.00,-1014.00
2024-06-07 00:07:39.181520,4,0,-4,5,0,0,78,81,122,60,41,120.71,423,-59.00,-8.00,-973.00
2024-06-07 00:07:39.237967,3,0,-4,4,0,0,78,81,121,60,41,120.79,423,-38.00,-21.00,-987.00
2024-06-07 00:07:39.325734,1,0,-4,3,0,0,78,81,121,60,41,120.75,423,-37.00,-26.00,-1018.00
2024-06-07 00:07:39.445306,0,0,-4,3,0,0,78,81,121,60,41,120.80,424,-36.00,-5.00,-1007.00
2024-06-07 00:07:39.531828,0,0,-4,2,0,0,78,81,121,60,41,120.79,424,-32.00,-20.00,-1018.00
2024-06-07 00:07:39.632256,0,0,-4,2,0,0,78,81,122,60,41,120.84,424,-27.00,16.00,-996.00
2024-06-07 00:07:39.734199,0,0,-4,2,0,0,78,81,121,60,41,120.81,424,-33.00,-36.00,-981.00
2024-06-07 00:07:39.854537,0,0,-4,2,0,0,78,81,121,60,41,120.84,424,-20.00,-24.00,-995.00
2024-06-07 00:07:39.937590,0,0,-4,2,0,0,78,80,121,60,41,120.84,424,-36.00,0.00,-1009.00
2024-06-07 00:07:40.061964,0,0,-4,2,0,0,78,80,121,60,41,120.88,424,-11.00,0.00,-1028.00
2024-06-07 00:07:40.141789,2,0,-4,1,0,0,78,80,121,60,41,120.83,424,-30.00,3.00,-930.00
2024-06-07 00:07:40.263785,3,0,-4,1,0,0,78,80,122,60,41,120.80,424,-18.00,4.00,-1041.00
2024-06-07 00:07:40.345522,1,0,-4,0,0,0,78,80,122,60,41,120.87,424,-11.00,0.00,-999.00
2024-06-07 00:07:40.468611,0,-2,-4,0,0,0,78,80,122,60,41,120.84,425,-10.00,7.00,-1019.00
2024-06-07 00:07:40.549510,0,-4,-4,0,0,0,78,80,122,60,41,120.83,425,-13.00,9.00,-1016.00
2024-06-07 00:07:40.652448,0,-1,-4,0,-1,0,78,80,123,60,41,120.84,425,3.00,-24.00,-993.00
2024-06-07 00:07:40.775966,0,3,-4,0,0,0,78,80,124,60,41,120.82,425,-24.00,21.00,-916.00
2024-06-07 00:07:40.855701,0,1,-4,0,0,0,78,80,124,60,41,120.84,425,0.00,9.00,-1046.00
2024-06-07 00:07:40.981205,0,0,-4,0,0,0,77,80,124,60,41,120.86,425,-6.00,-22.00,-984.00
2024-06-07 00:07:41.065213,0,0,-4,0,0,0,77,80,124,60,41,120.85,425,-11.00,-9.00,-977.00
2024-06-07 00:07:41.163448,0,0,-4,0,0,0,77,80,124,60,41,120.82,425,-16.00,-19.00,-980.00
2024-06-07 00:07:41.264984,0,0,-4,0,0,0,77,80,125,60,41,120.81,425,-17.00,0.00,-958.00
2024-06-07 00:07:41.366653,0,0,-4,0,0,0,77,80,124,60,41,120.88,425,-5.00,16.00,-1000.00
2024-06-07 00:07:41.492858,0,0,-4,0,0,0,77,80,125,60,41,120.88,426,0.00,19.00,-1016.00
2024-06-07 00:07:41.572453,0,0,-4,0,0,0,77,80,124,60,41,120.81,426,0.00,-10.00,-1006.00
2024-06-07 00:07:41.672845,0,0,-4,0,0,0,77,80,124,60,40,120.87,426,-6.00,-8.00,-950.00
2024-06-07 00:07:41.775483,0,0,-4,0,0,0,77,80,124,60,40,120.87,426,1.00,26.00,-990.00
2024-06-07 00:07:41.879944,0,0,-4,0,0,0,77,80,123,60,40,120.85,426,3.00,5.00,-1042.00
2024-06-07 00:07:41.977549,0,0,-4,0,0,0,77,80,123,60,40,120.88,426,3.00,-23.00,-1013.00
2024-06-07 00:07:42.079628,0,0,-4,0,0,0,77,80,124,60,40,120.85,426,0.00,0.00,-975.00
2024-06-07 00:07:42.210284,0,0,-4,0,0,0,77,80,124,60,40,120.83,426,-7.00,-3.00,-992.00
2024-06-07 00:07:42.283902,0,0,-4,0,0,0,77,80,123,60,40,120.87,426,0.00,1.00,-969.00
2024-06-07 00:07:42.421339,0,0,-4,0,0,0,77,80,124,60,40,120.87,426,-11.00,-2.00,-1012.00
2024-06-07 00:07:42.487522,0,0,-4,0,0,0,77,80,124,60,40,120.86,427,-4.00,-5.00,-1021.00
2024-06-07 00:07:42.538744,0,0,-4,0,0,0,77,80,125,60,40,120.86,427,-6.00,-7.00,-989.00
2024-06-07 00:07:42.640493,0,0,-4,0,0,0,77,80,124,60,40,120.86,427,10.00,-31.00,-973.00
2024-06-07 00:07:42.823714,0,0,-4,0,0,0,77,80,125,60,40,120.87,427,-15.00,40.00,-959.00
2024-06-07 00:07:42.844416,5,0,-4,0,0,0,77,80,125,60,40,120.89,427,-9.00,-3.00,-955.00
2024-06-07 00:07:42.946712,8,0,-4,-1,0,0,77,80,126,60,40,120.83,427,6.00,-13.00,-988.00
2024-06-07 00:07:43.135794,8,0,-4,-3,0,0,77,80,125,60,40,120.80,427,-8.00,25.00,-1004.00
2024-06-07 00:07:43.150391,8,0,-4,-4,0,0,77,80,125,60,40,120.85,427,6.00,13.00,-994.00
2024-06-07 00:07:43.335706,7,0,-4,-5,0,0,77,80,125,60,40,120.77,427,25.00,12.00,-1010.00
2024-06-07 00:07:43.354326,6,0,-4,-6,0,0,77,80,122,60,40,120.86,427,28.00,2.00,-970.00
2024-06-07 00:07:43.456987,5,-1,-4,-7,0,0,77,80,123,60,40,120.86,428,32.00,37.00,-1040.00
2024-06-07 00:07:43.558347,4,-1,-4,-7,0,0,77,80,123,60,40,120.85,428,51.00,-13.00,-1045.00
2024-06-07 00:07:43.660332,2,-1,-4,-7,0,0,77,80,122,60,40,120.84,428,51.00,13.00,-994.00
2024-06-07 00:07:43.847771,0,0,-4,-7,0,0,77,80,121,60,40,120.80,428,51.00,8.00,-996.00
2024-06-07 00:07:43.864541,-3,0,-4,-7,0,0,77,80,120,60,40,120.78,428,46.00,10.00,-971.00
2024-06-07 00:07:43.966267,-4,0,-4,-6,0,0,77,80,121,60,40,120.82,428,49.00,10.00,-971.00
2024-06-07 00:07:44.159842,-4,-1,-4,-5,0,0,77,80,120,60,40,120.82,428,15.00,-3.00,-1001.00
2024-06-07 00:07:44.170660,-3,0,-4,-4,0,0,77,80,119,60,40,120.82,428,20.00,-11.00,-1048.00
2024-06-07 00:07:44.276645,-1,0,-4,-3,0,0,77,80,119,60,40,120.76,428,4.00,11.00,-957.00
2024-06-07 00:07:44.374353,-1,0,-4,-3,0,0,77,80,118,60,40,120.78,428,0.00,38.00,-990.00
2024-06-07 00:07:44.564758,0,0,-4,-2,0,0,77,80,119,60,40,120.79,429,16.00,2.00,-1005.00
2024-06-07 00:07:44.578290,0,0,-4,-2,0,0,77,80,119,60,39,120.86,429,8.00,-27.00,-998.00
2024-06-07 00:07:44.769211,0,0,-4,-2,0,0,77,80,120,60,39,120.84,429,17.00,3.00,-1035.00
2024-06-07 00:07:44.782310,-1,0,-4,-2,0,0,77,80,119,60,39,120.80,429,5.00,17.00,-993.00
2024-06-07 00:07:44.974004,-3,0,-4,-1,0,0,77,80,120,60,39,120.82,429,10.00,-9.00,-967.00
2024-06-07 00:07:44.986391,-3,0,-4,0,0,0,77,80,121,60,39,120.85,429,11.00,-10.00,-991.00
2024-06-07 00:07:45.088473,-1,0,-4,0,0,0,77,80,120,60,39,120.88,429,6.00,-9.00,-1059.00
2024-06-07 00:07:45.281405,0,0,-4,0,0,0,77,80,121,60,39,120.87,429,-14.00,10.00,-922.00
2024-06-07 00:07:45.292349,0,0,-4,0,0,0,77,80,121,60,39,120.85,429,10.00,31.00,-1000.00
2024-06-07 00:07:45.486604,0,0,-4,0,0,0,77,80,121,60,39,120.90,429,4.00,-19.00,-1029.00
2024-06-07 00:07:45.496714,0,0,-4,0,0,0,77,80,121,60,39,120.85,430,0.00,-26.00,-972.00
2024-06-07 00:07:45.691014,0,0,-4,0,0,0,77,80,123,60,39,120.85,430,9.00,21.00,-1010.00
2024-06-07 00:07:45.700382,0,0,-4,0,0,0,77,80,123,60,39,120.89,430,4.00,-10.00,-1000.00
2024-06-07 00:07:45.896243,0,0,-4,0,0,0,77,80,123,60,39,120.94,430,-15.00,-7.00,-978.00
2024-06-07 00:07:45.904293,0,0,-4,0,0,0,77,80,123,60,39,120.82,430,23.00,11.00,-1037.00
2024-06-07 00:07:46.102847,0,0,-4,0,0,0,77,80,123,60,39,120.84,430,-1.00,12.00,-972.00
2024-06-07 00:07:46.110241,0,0,-4,0,0,0,77,80,124,60,39,120.85,430,1.00,-18.00,-960.00
2024-06-07 00:07:46.210712,0,0,-4,0,0,0,77,80,123,60,39,120.81,430,21.00,12.00,-1050.00
2024-06-07 00:07:46.407669,0,0,-4,0,0,0,77,80,123,60,39,120.82,430,-9.00,0.00,-1026.00
2024-06-07 00:07:46.407814,0,0,-4,0,0,0,77,80,124,60,39,120.86,430,11.00,12.00,-1012.00
2024-06-07 00:07:46.465132,0,0,-4,0,0,0,77,80,123,60,39,120.82,431,-11.00,-3.00,-942.00
2024-06-07 00:07:46.612846,0,0,-4,0,0,0,77,80,124,60,38,120.81,431,5.00,8.00,-966.00
2024-06-07 00:07:46.669135,0,0,-4,0,0,0,77,80,124,60,38,120.77,431,-15.00,0.00,-987.00
2024-06-07 00:07:46.818238,0,0,-4,0,0,0,77,80,125,60,38,120.89,431,-4.00,15.00,-1000.00
2024-06-07 00:07:46.873460,0,0,-4,0,0,0,77,80,125,60,38,120.84,431,10.00,-10.00,-1041.00
2024-06-07 00:07:46.975110,0,0,-4,0,0,0,76,80,125,60,38,120.84,431,-1.00,8.00,-944.00
2024-06-07 00:07:47.079547,0,0,-4,0,0,0,76,80,124,60,38,120.79,431,7.00,-27.00,-1012.00
2024-06-07 00:07:47.180156,0,0,-4,0,0,0,76,80,125,60,38,120.84,431,5.00,39.00,-1001.00
2024-06-07 00:07:47.281106,0,-4,-4,0,0,0,76,80,126,60,38,120.89,431,7.00,-12.00,-1022.00
2024-06-07 00:07:47.431501,0,-8,-4,0,-1,0,76,80,125,60,38,120.83,431,5.00,-26.00,-999.00
2024-06-07 00:07:47.484890,0,-6,-4,0,-2,0,76,80,125,60,38,120.82,432,8.00,2.00,-1050.00
2024-06-07 00:07:47.636297,0,-3,-4,0,-3,0,76,80,124,60,38,120.82,432,-9.00,35.00,-1000.00
2024-06-07 00:07:47.688862,0,-1,-4,0,-3,0,76,80,124,60,38,120.92,432,-15.00,42.00,-995.00
2024-06-07 00:07:47.845844,0,0,-4,0,-3,0,76,80,122,60,38,120.84,432,2.00,24.00,-963.00
2024-06-07 00:07:47.893178,0,0,-4,0,-3,0,76,80,122,60,38,120.90,432,-8.00,-10.00,-974.00
2024-06-07 00:07:48.046971,0,0,-4,0,-2,0,76,80,121,60,38,120.85,432,-3.00,48.00,-989.00
2024-06-07 00:07:48.096835,0,0,-4,0,-2,0,76,80,120,60,38,120.84,432,-4.00,11.00,-1056.00
2024-06-07 00:07:48.250700,0,0,-4,0,-2,0,76,80,119,60,38,120.79,432,6.00,13.00,-1032.00
2024-06-07 00:07:48.302680,0,0,-4,0,-2,0,76,80,119,60,38,120.82,432,6.00,6.00,-1047.00
2024-06-07 00:07:48.402817,0,0,-4,0,-2,0,76,80,119,60,38,120.80,432,-13.00,12.00,-976.00
2024-06-07 00:07:48.558891,0,0,-4,0,-2,0,76,80,119,60,38,120.84,433,-4.00,7.00,-1012.00
2024-06-07 00:07:48.606814,0,0,-4,0,-2,0,76,80,119,60,38,120.83,433,-22.00,0.00,-961.00
2024-06-07 00:07:48.762658,0,0,-4,0,-2,0,76,80,119,60,38,120.85,433,0.00,49.00,-993.00
2024-06-07 00:07:48.811445,0,0,-4,0,-2,0,76,80,119,60,38,120.81,433,-6.00,37.00,-998.00
2024-06-07 00:07:48.968215,0,1,-4,0,-2,0,76,80,120,60,38,120.85,433,-3.00,28.00,-1033.00
2024-06-07 00:07:49.014766,0,3,-4,0,-1,0,77,80,121,60,38,120.78,433,-8.00,11.00,-992.00
2024-06-07 00:07:49.117959,0,3,-4,0,-1,0,77,80,120,60,38,120.81,433,-9.00,-27.00,-1006.00
2024-06-07 00:07:49.277437,0,1,-4,0,0,0,77,80,120,60,38,120.76,433,-13.00,9.00,-957.00
2024-06-07 00:07:49.322076,0,0,-4,0,0,0,77,80,121,60,38,120.81,433,0.00,13.00,-1030.00
2024-06-07 00:07:49.486351,0,0,-4,0,0,0,77,80,121,60,38,120.81,433,-20.00,-24.00,-1007.00
2024-06-07 00:07:49.526003,0,0,-4,0,0,0,77,80,122,60,38,120.78,434,0.00,-1.00,-983.00
2024-06-07 00:07:49.684789,0,0,-4,0,0,0,77,80,123,60,38,120.83,434,-6.00,35.00,-1026.00
2024-06-07 00:07:49.730314,0,0,-4,0,0,0,77,80,123,60,38,120.88,434,-8.00,3.00,-1043.00
2024-06-07 00:07:49.889614,0,0,-4,0,0,0,77,80,123,60,38,120.85,434,-20.00,-14.00,-1000.00
2024-06-07 00:07:49.934127,0,0,-4,0,0,0,77,80,123,60,38,120.85,434,-10.00,6.00,-984.00
2024-06-07 00:07:50.099697,0,0,-4,0,0,0,77,80,124,60,38,120.88,434,5.00,4.00,-1018.00
2024-06-07 00:07:50.138044,0,0,-4,0,0,0,77,80,124,60,38,120.83,434,-1.00,13.00,-969.00
2024-06-07 00:07:50.299372,0,0,-4,0,0,0,77,80,125,60,38,120.83,434,0.00,-8.00,-1010.00
2024-06-07 00:07:50.299483,0,0,-4,0,0,0,77,80,124,60,38,120.79,434,-6.00,2.00,-984.00
2024-06-07 00:07:50.392879,0,0,-4,0,0,0,77,80,125,60,38,120.77,434,-3.00,31.00,-972.00
2024-06-07 00:07:50.503923,0,0,-4,0,0,0,77,80,124,60,38,120.87,435,-8.00,-11.00,-986.00
2024-06-07 00:07:50.599077,0,0,-4,0,0,0,77,80,124,60,38,120.86,435,0.00,17.00,-1039.00
2024-06-07 00:07:50.699444,0,0,-4,0,0,0,77,80,124,60,38,120.78,435,-19.00,-4.00,-977.00
2024-06-07 00:07:50.814108,0,0,-4,0,0,0,77,80,123,60,38,120.79,435,-4.00,4.00,-1015.00
2024-06-07 00:07:50.903037,0,0,-4,0,0,0,77,80,123,60,38,120.90,435,-16.00,0.00,-1000.00
2024-06-07 00:07:51.015961,0,0,-4,0,0,0,77,80,123,60,38,120.86,435,-17.00,5.00,-973.00
2024-06-07 00:07:51.107106,0,0,-4,0,0,0,77,80,123,60,38,120.84,435,-11.00,6.00,-1003.00
2024-06-07 00:07:51.208581,0,0,-4,0,0,0,77,80,123,60,38,120.81,435,-14.00,-26.00,-1049.00
2024-06-07 00:07:51.324977,0,7,-4,0,0,0,77,80,123,60,38,120.83,435,-18.00,41.00,-983.00
2024-06-07 00:07:51.412559,0,8,-4,0,1,0,77,80,124,60,38,120.84,436,-8.00,11.00,-997.00
2024-06-07 00:07:51.527303,0,5,-4,0,2,0,77,80,122,60,38,120.81,436,-13.00,2.00,-1029.00
2024-06-07 00:07:51.617183,0,3,-4,0,3,0,77,80,123,60,38,120.75,436,-4.00,-56.00,-1005.00
2024-06-07 00:07:51.737066,0,0,-4,0,3,0,77,80,122,60,38,120.83,436,-5.00,-25.00,-1006.00
2024-06-07 00:07:51.820651,0,-1,-4,0,3,0,77,80,121,60,38,120.77,436,-16.00,17.00,-985.00
2024-06-07 00:07:51.922495,0,-1,-4,0,3,0,77,80,121,60,38,120.76,436,-8.00,0.00,-1029.00
2024-06-07 00:07:52.039730,0,0,-4,0,3,0,77,79,121,60,38,120.79,436,4.00,-28.00,-1059.00
2024-06-07 00:07:52.155504,0,0,-4,0,2,0,77,79,122,60,38,120.80,436,-5.00,-41.00,-991.00
2024-06-07 00:07:52.298270,0,0,-4,0,2,0,77,79,122,60,38,120.79,436,-2.00,-19.00,-1004.00
2024-06-07 00:07:52.330798,0,0,-4,0,2,0,77,79,122,60,38,120.83,436,-1.00,6.00,-1033.00
2024-06-07 00:07:52.433097,0,0,-4,0,2,0,77,79,123,60,38,120.79,437,-6.00,2.00,-964.00
2024-06-07 00:07:52.618124,0,0,-4,0,2,0,77,79,123,60,38,120.82,437,-10.00,-10.00,-973.00
2024-06-07 00:07:52.636446,0,0,-4,0,2,0,77,79,124,60,37,120.89,437,-5.00,-19.00,-954.00
2024-06-07 00:07:52.794682,0,0,-4,0,2,0,77,79,124,60,37,120.80,437,-4.00,18.00,-952.00
2024-06-07 00:07:52.873066,0,0,-4,0,2,0,77,79,124,60,37,120.79,437,4.00,17.00,-977.00
2024-06-07 00:07:52.946729,0,-2,-4,0,2,0,77,79,123,60,37,120.79,437,2.00,-13.00,-1011.00
2024-06-07 00:07:53.142686,0,-3,-4,0,1,0,77,80,124,60,37,120.71,437,8.00,-11.00,-1040.00
2024-06-07 00:07:53.146387,0,-2,-4,0,0,0,77,80,124,60,37,120.76,437,-6.00,0.00,-1013.00
2024-06-07 00:07:53.248585,0,-1,-4,0,0,0,77,80,123,60,37,120.80,437,0.00,-10.00,-974.00
2024-06-07 00:07:53.381500,0,-1,-4,0,0,0,77,80,123,60,37,120.77,437,-11.00,0.00,-1023.00
2024-06-07 00:07:53.525435,0,0,-4,0,0,0,77,80,123,60,37,120.79,438,0.00,-28.00,-1013.00
2024-06-07 00:07:53.563809,0,0,-4,0,0,0,77,80,124,60,37,120.79,438,5.00,23.00,-1007.00
2024-06-07 00:07:53.688717,0,0,-4,0,0,0,77,80,124,60,37,120.83,438,-12.00,35.00,-1019.00
2024-06-07 00:07:53.832949,0,0,-4,0,0,0,77,80,124,60,37,120.79,438,-15.00,17.00,-982.00
2024-06-07 00:07:53.861578,0,0,-4,0,0,0,77,80,123,60,37,120.81,438,-10.00,-4.00,-979.00
2024-06-07 00:07:53.996440,0,0,-4,0,0,0,77,80,124,60,37,120.74,438,0.00,-1.00,-994.00
2024-06-07 00:07:54.150200,0,0,-4,0,0,0,77,80,123,60,37,120.70,438,-1.00,-16.00,-995.00
2024-06-07 00:07:54.166728,0,0,-4,0,0,0,77,80,123,60,37,120.71,438,-16.00,5.00,-1024.00
2024-06-07 00:07:54.269172,0,0,-4,0,0,0,77,80,124,60,37,120.76,438,-21.00,0.00,-961.00
2024-06-07 00:07:54.319899,0,0,-4,0,0,0,77,80,124,60,37,120.78,438,0.00,-15.00,-988.00
2024-06-07 00:07:54.497087,0,1,-4,0,0,0,77,80,123,60,37,120.80,439,-11.00,-18.00,-998.00
2024-06-07 00:07:54.523512,0,1,-4,0,0,0,77,80,122,60,37,120.81,439,-7.00,-28.00,-1006.00
2024-06-07 00:07:54.701844,0,1,-4,0,0,0,77,80,122,60,37,120.77,439,-13.00,-40.00,-981.00
2024-06-07 00:07:54.727555,0,1,-4,0,0,0,77,80,121,60,37,120.77,439,-4.00,-18.00,-1007.00
2024-06-07 00:07:54.913557,0,1,-4,0,0,0,77,80,121,60,37,120.75,439,-5.00,9.00,-1009.00
2024-06-07 00:07:54.931484,0,0,-4,0,0,0,77,80,119,60,37,120.74,439,0.00,-25.00,-994.00
2024-06-07 00:07:55.111416,0,0,-4,0,0,0,76,79,118,60,37,120.77,439,13.00,-9.00,-997.00
2024-06-07 00:07:55.137259,0,0,-4,0,0,0,76,79,118,60,37,120.72,439,-5.00,-24.00,-1001.00
2024-06-07 00:07:55.237556,0,0,-4,0,0,0,76,79,118,60,37,120.69,439,1.00,-40.00,-1058.00
2024-06-07 00:07:55.418735,0,0,-3,0,0,0,76,79,118,60,37,120.69,439,25.00,-22.00,-1030.00
2024-06-07 00:07:55.441503,0,0,2,0,0,0,76,79,118,60,37,120.69,440,-12.00,6.00,-1014.00
2024-06-07 00:07:55.623520,0,-1,8,0,0,0,76,79,118,60,37,120.75,440,-12.00,-1.00,-999.00
2024-06-07 00:07:55.645985,0,-1,14,0,0,0,76,79,118,60,36,120.76,440,-7.00,26.00,-1000.00
2024-06-07 00:07:55.833485,0,-1,19,0,0,0,76,79,119,60,36,120.76,440,11.00,-22.00,-1014.00
2024-06-07 00:07:55.849368,0,-1,25,0,0,0,76,79,119,60,36,120.73,440,-2.00,-13.00,-1000.00
2024-06-07 00:07:56.032946,0,-1,31,0,0,0,76,79,119,60,36,120.74,440,-3.00,4.00,-1006.00
2024-06-07 00:07:56.056402,0,-1,37,0,0,0,77,80,119,60,36,120.76,440,8.00,-10.00,-949.00
2024-06-07 00:07:56.155301,0,-1,43,0,0,0,77,80,119,60,36,120.71,440,-12.00,-7.00,-1003.00
2024-06-07 00:07:56.342221,0,-1,49,0,0,0,77,80,118,60,36,120.78,440,18.00,26.00,-1010.00
2024-06-07 00:07:56.359296,0,0,55,0,0,0,77,80,119,60,36,120.75,440,0.00,-32.00,-975.00
2024-06-07 00:07:56.544784,0,0,61,0,0,0,77,80,118,60,36,120.73,441,7.00,17.00,-974.00
2024-06-07 00:07:56.563264,0,0,67,0,0,0,77,80,118,60,36,120.75,441,-13.00,15.00,-1032.00
2024-06-07 00:07:56.765440,0,0,73,0,0,0,77,80,118,60,36,120.81,441,0.00,-11.00,-1042.00
2024-06-07 00:07:56.767255,0,0,79,0,0,0,77,80,118,60,36,120.77,441,-3.00,1.00,-966.00
2024-06-07 00:07:56.869913,0,0,85,0,0,0,77,80,118,60,36,120.66,441,3.00,17.00,-1023.00
2024-06-07 00:07:56.971373,0,0,91,0,0,0,77,80,118,60,36,120.76,441,-17.00,18.00,-972.00
2024-06-07 00:07:57.073365,0,-1,97,0,0,0,77,80,118,60,36,120.69,441,-4.00,-10.00,-1013.00
2024-06-07 00:07:57.175362,0,-1,103,0,0,0,77,80,118,60,36,120.72,441,-8.00,9.00,-1007.00
2024-06-07 00:07:57.277343,0,-1,109,0,0,0,77,80,119,60,36,120.70,441,-8.00,-17.00,-1046.00
2024-06-07 00:07:57.466335,0,0,115,0,0,0,77,80,118,60,36,120.74,441,0.00,10.00,-1032.00
2024-06-07 00:07:57.481235,0,0,121,0,0,0,77,80,119,60,36,120.74,442,-5.00,18.00,-1000.00
2024-06-07 00:07:57.680216,0,0,128,0,0,0,77,80,119,60,35,120.73,442,-15.00,41.00,-975.00
2024-06-07 00:07:57.685508,0,0,134,0,0,0,77,80,119,60,35,120.72,442,-12.00,4.00,-986.00
2024-06-07 00:07:57.875915,0,0,140,0,0,0,77,80,119,60,35,120.74,442,-3.00,0.00,-948.00
2024-06-07 00:07:57.876245,0,0,146,0,0,0,77,80,119,60,35,120.72,442,1.00,-1.00,-1030.00
2024-06-07 00:07:57.941809,0,0,152,0,0,0,77,80,119,60,35,120.75,442,-10.00,0.00,-958.00
2024-06-07 00:07:58.093151,0,0,158,0,0,0,77,80,119,60,35,120.72,442,-5.00,39.00,-1008.00
2024-06-07 00:07:58.288427,0,0,164,0,0,0,77,80,120,60,35,120.74,442,0.00,-8.00,-1001.00
2024-06-07 00:07:58.290327,0,0,170,0,0,0,77,80,121,60,35,120.71,442,-10.00,27.00,-975.00
2024-06-07 00:07:58.347955,0,0,176,0,0,0,77,80,121,60,35,120.74,442,-5.00,6.00,-1006.00
2024-06-07 00:07:58.490294,0,0,-177,0,0,0,77,80,122,60,35,120.74,443,0.00,-8.00,-1006.00
2024-06-07 00:07:58.552044,0,0,-170,0,0,0,77,80,121,60,35,120.73,443,-11.00,18.00,-990.00
2024-06-07 00:07:58.695088,0,0,-164,0,0,0,77,80,122,60,35,120.73,443,0.00,-33.00,-1040.00
2024-06-07 00:07:58.755917,0,0,-158,0,0,0,77,80,123,60,35,120.79,443,-8.00,-2.00,-955.00
2024-06-07 00:07:58.900222,0,0,-152,0,0,0,77,80,123,60,35,120.80,443,-15.00,-7.00,-1014.00
2024-06-07 00:07:58.960018,0,0,-146,0,0,0,77,80,123,60,35,120.77,443,-1.00,-19.00,-1021.00
2024-06-07 00:07:59.104668,0,0,-139,0,0,0,77,80,124,60,35,120.78,443,-24.00,14.00,-1001.00
2024-06-07 00:07:59.163892,0,0,-133,0,0,0,77,80,123,60,35,120.77,443,-7.00,-3.00,-1011.00
2024-06-07 00:07:59.310129,0,0,-127,0,0,0,77,80,124,60,35,120.82,443,-7.00,-22.00,-1023.00
2024-06-07 00:07:59.367987,0,0,-121,0,0,0,77,80,124,60,35,120.79,443,-26.00,-24.00,-977.00
2024-06-07 00:07:59.514301,0,0,-115,0,0,0,77,80,124,60,35,120.78,444,-14.00,26.00,-948.00
2024-06-07 00:07:59.571805,0,0,-109,0,0,0,77,80,125,60,35,120.79,444,-9.00,5.00,-1021.00
2024-06-07 00:07:59.720771,0,0,-103,0,0,0,77,80,124,60,35,120.77,444,-8.00,6.00,-1038.00
2024-06-07 00:07:59.775863,0,0,-96,0,0,0,77,80,124,60,35,120.81,444,-8.00,32.00,-1015.00
2024-06-07 00:07:59.925022,0,0,-90,0,0,0,77,80,124,60,35,120.76,444,-5.00,10.00,-1026.00
2024-06-07 00:07:59.983777,0,0,-84,0,0,0,77,80,124,60,35,120.73,444,-29.00,23.00,-972.00
2024-06-07 00:08:00.084219,0,0,-78,0,0,0,77,80,124,60,35,120.75,444,-6.00,7.00,-951.00
2024-06-07 00:08:00.185463,0,0,-72,0,0,0,77,80,124,60,35,120.75,444,9.00,19.00,-1017.00
2024-06-07 00:08:00.285826,0,0,-66,0,0,0,77,80,125,60,35,120.79,444,-13.00,-15.00,-1036.00
2024-06-07 00:08:00.435821,0,0,-60,0,0,0,77,80,123,60,35,120.75,444,-5.00,-17.00,-986.00
2024-06-07 00:08:00.489797,0,0,-54,0,0,0,77,80,124,60,35,120.78,445,-9.00,7.00,-998.00
2024-06-07 00:08:00.640612,0,0,-48,0,0,0,77,80,125,60,35,120.79,445,-5.00,22.00,-1051.00
2024-06-07 00:08:00.697319,0,0,-42,0,0,0,77,80,124,60,35,120.76,445,0.00,0.00,-976.00
2024-06-07 00:08:00.795735,0,0,-36,0,0,0,77,80,124,60,35,120.75,445,-9.00,28.00,-998.00
2024-06-07 00:08:00.947812,0,0,-30,0,0,0,77,80,125,60,35,120.75,445,-4.00,3.00,-1000.00
2024-06-07 00:08:00.999951,0,0,-24,0,0,0,77,80,124,60,35,120.84,445,4.00,22.00,-1016.00
2024-06-07 00:08:01.152595,0,0,-20,0,0,0,77,80,124,60,35,120.75,445,9.00,4.00,-1034.00
2024-06-07 00:08:01.203827,0,0,-16,0,0,0,77,80,125,60,35,120.75,445,5.00,36.00,-999.00
2024-06-07 00:08:01.357378,0,0,-13,0,0,0,77,80,125,60,35,120.76,445,-17.00,8.00,-939.00
2024-06-07 00:08:01.407671,0,0,-11,0,0,0,77,80,125,60,35,120.72,445,-19.00,-30.00,-1002.00
2024-06-07 00:08:01.562119,0,0,-9,0,0,0,77,80,125,60,35,120.75,446,-10.00,-14.00,-1032.00
2024-06-07 00:08:01.611650,0,0,-8,0,0,0,77,80,124,60,34,120.80,446,-13.00,11.00,-1006.00
2024-06-07 00:08:01.766944,0,0,-7,0,0,0,77,80,124,60,34,120.71,446,0.00,21.00,-1005.00
2024-06-07 00:08:01.815829,0,0,-6,0,0,0,77,80,124,60,34,120.74,446,-14.00,14.00,-956.00
2024-06-07 00:08:01.917903,0,0,-6,0,0,0,77,80,124,60,34,120.72,446,-6.00,-17.00,-1014.00
2024-06-07 00:08:01.969344,0,0,-6,0,0,0,77,80,124,60,34,120.69,446,4.00,8.00,-1051.00
2024-06-07 00:08:02.121781,0,0,-6,0,0,0,76,80,123,60,34,120.69,446,-14.00,22.00,-987.00
2024-06-07 00:08:02.281255,0,0,-6,0,0,0,76,80,124,60,34,120.70,446,-15.00,-8.00,-992.00
2024-06-07 00:08:02.325786,0,0,-6,0,0,0,76,80,123,60,34,120.76,446,-6.00,-25.00,-991.00
2024-06-07 00:08:02.431283,0,0,-6,0,0,0,76,80,122,60,34,120.77,446,-4.00,-22.00,-1001.00
2024-06-07 00:08:02.488591,0,0,-6,0,0,0,76,80,122,60,34,120.79,447,-10.00,-30.00,-998.00
2024-06-07 00:08:02.582080,0,0,-6,0,0,0,76,80,122,60,34,120.74,447,0.00,-3.00,-1022.00
2024-06-07 00:08:02.689910,0,0,-6,0,0,0,76,80,122,60,34,120.76,447,5.00,-5.00,-1033.00
2024-06-07 00:08:02.784886,0,0,-6,0,0,0,76,80,122,60,34,120.73,447,-13.00,17.00,-971.00
2024-06-07 00:08:02.895798,0,0,-6,0,0,0,76,80,122,60,34,120.78,447,-4.00,-1.00,-998.00
2024-06-07 00:08:02.989594,0,0,-6,0,0,0,76,80,122,60,34,120.70,447,-10.00,-26.00,-1019.00
2024-06-07 00:08:03.098547,0,0,-6,0,0,0,77,79,122,60,34,120.74,447,-9.00,3.00,-1003.00
2024-06-07 00:08:03.198243,0,0,-6,0,0,0,77,79,122,60,34,120.70,447,-2.00,-17.00,-1032.00
2024-06-07 00:08:03.294951,0,0,-6,0,0,0,77,79,122,60,34,120.73,447,5.00,2.00,-1007.00
2024-06-07 00:08:03.405853,0,0,-6,0,0,0,77,79,122,60,34,120.78,447,-7.00,21.00,-939.00
2024-06-07 00:08:03.499045,0,0,-6,0,0,0,77,79,122,60,34,120.75,448,-7.00,-25.00,-989.00
2024-06-07 00:08:03.610277,0,0,-6,0,0,0,77,79,122,60,34,120.72,448,-2.00,11.00,-1004.00
2024-06-07 00:08:03.703141,0,0,-6,0,0,0,77,79,122,60,34,120.74,448,0.00,-9.00,-971.00
2024-06-07 00:08:03.804951,0,0,-6,0,0,0,77,79,122,60,34,120.73,448,2.00,-25.00,-1044.00
2024-06-07 00:08:03.906770,0,0,-6,0,0,0,77,79,122,60,34,120.70,448,-26.00,55.00,-1005.00
2024-06-07 00:08:04.019688,0,0,-10,0,0,0,77,79,122,60,34,120.68,448,-6.00,1.00,-1004.00
2024-06-07 00:08:04.111043,0,0,-15,0,0,0,77,80,122,60,34,120.70,448,13.00,22.00,-984.00
2024-06-07 00:08:04.224517,0,0,-21,0,0,0,77,80,122,60,34,120.66,448,-2.00,5.00,-931.00
2024-06-07 00:08:04.314643,0,0,-27,0,0,0,77,80,122,60,34,120.72,448,-4.00,-18.00,-993.00
2024-06-07 00:08:04.429436,0,0,-33,0,0,0,77,80,123,60,34,120.71,448,5.00,17.00,-968.00
2024-06-07 00:08:04.518636,0,0,-39,0,0,0,77,80,123,60,34,120.71,449,17.00,-1.00,-1035.00
2024-06-07 00:08:04.634045,0,0,-45,0,0,0,77,80,122,60,34,120.69,449,2.00,-4.00,-991.00
2024-06-07 00:08:04.726342,0,0,-51,0,0,0,77,80,122,60,34,120.66,449,7.00,-4.00,-991.00
2024-06-07 00:08:04.824491,0,0,-57,0,0,0,77,80,122,60,34,120.72,449,1.00,8.00,-1037.00
2024-06-07 00:08:04.962580,0,0,-63,0,0,0,77,80,122,60,34,120.64,449,-16.00,16.00,-913.00
2024-06-07 00:08:05.030062,0,0,-69,0,0,0,77,80,122,60,34,120.76,449,5.00,10.00,-1009.00
2024-06-07 00:08:05.131696,0,0,-81,0,0,0,77,80,122,60,34,120.69,449,-8.00,15.00,-989.00
2024-06-07 00:08:05.248417,0,0,-87,0,0,0,77,80,122,60,34,120.70,449,15.00,18.00,-1036.00
2024-06-07 00:08:05.334573,0,0,-93,0,0,0,77,80,122,60,34,120.73,449,-18.00,-23.00,-998.00
2024-06-07 00:08:05.453209,0,0,-99,0,0,0,77,80,122,60,34,120.70,450,-20.00,4.00,-999.00
2024-06-07 00:08:05.538707,0,0,-105,0,0,0,77,80,122,60,34,120.71,450,-13.00,33.00,-1008.00
2024-06-07 00:08:05.657954,0,0,-111,0,0,0,77,80,122,60,34,120.68,450,-19.00,-21.00,-981.00
2024-06-07 00:08:05.742689,0,0,-117,0,0,0,77,80,123,60,34,120.71,450,-13.00,9.00,-1003.00
2024-06-07 00:08:05.862807,0,0,-123,0,0,0,77,80,123,60,34,120.68,450,-7.00,-6.00,-988.00
2024-06-07 00:08:05.946537,0,0,-129,0,0,0,77,80,123,60,34,120.72,450,-17.00,6.00,-967.00
2024-06-07 00:08:06.068010,0,0,-135,0,0,0,77,80,123,60,34,120.75,450,-5.00,-14.00,-1009.00
2024-06-07 00:08:06.150601,0,0,-141,0,0,0,76,80,123,60,34,120.74,450,-11.00,28.00,-1002.00
2024-06-07 00:08:06.272406,0,0,-147,0,0,0,76,80,123,60,34,120.73,450,-13.00,-16.00,-1009.00
2024-06-07 00:08:06.307064,0,0,-153,0,0,0,76,80,123,60,34,120.71,450,-13.00,16.00,-988.00
2024-06-07 00:08:06.405414,0,0,-159,0,0,0,76,80,123,60,34,120.70,451,-20.00,9.00,-1025.00
2024-06-07 00:08:06.507364,0,0,-165,0,0,0,76,80,123,60,34,120.70,451,-25.00,17.00,-953.00
2024-06-07 00:08:06.681983,0,0,-171,0,0,0,76,80,123,60,33,120.65,451,6.00,0.00,-1070.00
2024-06-07 00:08:06.711229,0,0,-177,0,0,0,76,80,123,60,33,120.72,451,-40.00,-4.00,-969.00
2024-06-07 00:08:06.814609,0,0,176,0,0,0,76,80,124,60,33,120.64,451,-23.00,20.00,-994.00
2024-06-07 00:08:06.989505,0,0,170,0,0,0,76,80,124,60,33,120.76,451,-31.00,-17.00,-987.00
2024-06-07 00:08:07.017791,0,0,164,0,0,0,76,80,124,60,33,120.68,451,-10.00,21.00,-1020.00
2024-06-07 00:08:07.209922,0,0,158,0,0,0,77,79,125,60,33,120.66,451,-22.00,-1.00,-974.00
2024-06-07 00:08:07.221191,0,0,152,0,0,0,77,79,125,60,33,120.68,451,-3.00,10.00,-1026.00
2024-06-07 00:08:07.349972,0,0,146,0,0,0,77,79,125,60,33,120.67,451,-30.00,-10.00,-994.00
2024-06-07 00:08:07.478210,0,0,140,0,0,0,77,79,124,60,33,120.65,452,-18.00,17.00,-973.00
2024-06-07 00:08:07.553671,0,0,134,0,0,0,77,79,124,60,33,120.67,452,-20.00,-12.00,-1006.00
2024-06-07 00:08:07.666253,0,0,128,0,0,0,77,79,124,60,33,120.69,452,-11.00,9.00,-1022.00
2024-06-07 00:08:07.739910,0,0,122,0,0,0,77,79,125,60,33,120.67,452,-28.00,-15.00,-974.00
2024-06-07 00:08:07.870064,0,0,116,0,0,0,77,79,125,60,33,120.62,452,-13.00,25.00,-999.00
2024-06-07 00:08:07.935128,0,0,110,0,0,0,77,79,124,60,33,120.67,452,-20.00,-10.00,-982.00
2024-06-07 00:08:08.037182,0,0,104,0,0,0,77,79,124,60,33,120.68,452,-12.00,-7.00,-1037.00
2024-06-07 00:08:08.186573,0,0,98,0,0,0,78,80,124,60,33,120.64,452,-15.00,1.00,-974.00
2024-06-07 00:08:08.248373,0,0,92,0,0,0,78,80,124,60,33,120.72,452,-12.00,-3.00,-1046.00
2024-06-07 00:08:08.433588,0,0,86,0,0,0,78,80,123,60,33,120.63,452,-15.00,-5.00,-981.00
2024-06-07 00:08:08.446616,0,0,80,0,0,0,78,80,124,60,33,120.67,453,-16.00,-21.00,-1043.00
2024-06-07 00:08:08.576950,0,0,74,0,0,0,78,80,123,60,33,120.66,453,3.00,8.00,-1026.00
2024-06-07 00:08:08.740772,0,0,68,0,0,0,78,80,123,60,33,120.70,453,-15.00,-9.00,-959.00
2024-06-07 00:08:08.752540,0,0,62,0,0,0,78,80,123,60,33,120.71,453,-18.00,4.00,-977.00
2024-06-07 00:08:08.884487,0,0,56,0,0,0,78,80,123,60,33,120.66,453,0.00,-9.00,-1011.00
2024-06-07 00:08:09.047999,0,0,50,0,0,0,78,80,123,60,33,120.66,453,-2.00,20.00,-998.00
2024-06-07 00:08:09.058190,0,0,44,0,0,0,78,80,123,60,33,120.64,453,-16.00,-26.00,-969.00
2024-06-07 00:08:09.202302,0,0,38,0,0,0,76,79,122,60,33,120.64,453,-7.00,-20.00,-1022.00
2024-06-07 00:08:09.267703,0,0,31,0,0,0,76,79,123,60,33,120.67,453,0.00,24.00,-1023.00
2024-06-07 00:08:09.364099,0,0,25,0,0,0,76,79,122,60,33,120.65,453,-15.00,6.00,-966.00
2024-06-07 00:08:09.549078,0,0,19,0,0,0,76,79,123,60,33,120.64,454,-6.00,-10.00,-997.00
2024-06-07 00:08:09.568108,0,0,13,0,0,0,76,79,122,60,33,120.65,454,-9.00,-23.00,-1006.00
2024-06-07 00:08:09.753804,0,0,9,0,0,0,76,79,122,60,33,120.62,454,7.00,1.00,-988.00
2024-06-07 00:08:09.772151,0,0,5,0,0,0,76,79,122,60,33,120.60,454,-4.00,8.00,-1011.00
2024-06-07 00:08:09.822953,0,0,2,0,0,0,76,79,122,60,33,120.59,454,-1.00,28.00,-1009.00
2024-06-07 00:08:09.924941,0,0,0,0,0,0,76,79,122,60,33,120.63,454,-8.00,5.00,-946.00
2024-06-07 00:08:10.061072,0,0,-1,0,0,0,76,79,121,60,33,120.66,454,7.00,-18.00,-999.00
2024-06-07 00:08:10.129151,0,0,-2,0,0,0,77,79,121,60,33,120.61,454,-5.00,20.00,-1001.00
2024-06-07 00:08:10.265853,0,0,-3,0,0,0,77,79,122,60,33,120.62,454,-8.00,-15.00,-985.00
2024-06-07 00:08:10.333257,0,0,-4,0,0,0,77,79,122,60,33,120.66,454,-6.00,24.00,-1020.00
2024-06-07 00:08:10.470941,0,0,-4,0,0,0,77,79,122,60,33,120.58,455,-12.00,2.00,-980.00
2024-06-07 00:08:10.537133,0,0,-4,0,0,0,77,79,122,60,33,120.67,455,5.00,-20.00,-1030.00
2024-06-07 00:08:10.675892,0,0,-4,0,0,0,77,79,123,60,33,120.65,455,-1.00,2.00,-982.00
2024-06-07 00:08:10.741482,0,0,-4,0,0,0,77,79,123,60,33,120.66,455,-4.00,29.00,-1023.00
2024-06-07 00:08:10.880822,0,0,-4,0,0,0,77,79,123,60,33,120.64,455,6.00,9.00,-1044.00
2024-06-07 00:08:10.945103,0,0,-4,0,0,0,77,79,124,60,33,120.64,455,2.00,-5.00,-1007.00
2024-06-07 00:08:11.085222,0,0,-4,0,0,0,77,79,124,60,33,120.63,455,-7.00,-2.00,-949.00
2024-06-07 00:08:11.149338,0,0,-4,0,0,0,77,79,125,60,33,120.62,455,7.00,8.00,-1026.00
2024-06-07 00:08:11.290175,0,0,-4,0,0,0,77,79,125,60,33,120.66,455,5.00,8.00,-963.00
2024-06-07 00:08:11.354026,0,0,-4,0,0,0,77,79,125,60,33,120.65,455,0.00,3.00,-964.00
2024-06-07 00:08:11.494863,0,0,-4,0,0,0,77,79,126,60,33,120.67,456,6.00,-24.00,-997.00
2024-06-07 00:08:11.556999,0,0,-4,0,0,0,77,79,126,60,33,120.68,456,-14.00,16.00,-1008.00
2024-06-07 00:08:11.699609,0,0,-4,0,0,0,77,79,126,60,33,120.66,456,2.00,-2.00,-973.00
2024-06-07 00:08:11.761410,0,0,-4,0,0,0,77,79,126,60,33,120.67,456,-15.00,0.00,-960.00
2024-06-07 00:08:11.904416,0,0,-4,0,0,0,77,79,126,60,33,120.73,456,-1.00,-14.00,-997.00
2024-06-07 00:08:11.964939,0,0,-4,0,0,0,77,79,126,60,33,120.69,456,-11.00,-15.00,-972.00
2024-06-07 00:08:12.109223,0,0,-4,0,0,0,77,79,127,60,33,120.77,456,4.00,23.00,-981.00
2024-06-07 00:08:12.168917,0,0,-4,0,0,0,77,80,126,60,33,120.65,456,-3.00,13.00,-963.00
2024-06-07 00:08:12.313854,0,0,-4,0,0,0,77,80,127,60,33,120.72,456,-4.00,-1.00,-985.00
2024-06-07 00:08:12.375253,0,0,-4,0,0,0,77,80,126,60,33,120.72,456,-2.00,-15.00,-1060.00
2024-06-07 00:08:12.523906,0,0,-4,0,0,0,77,80,127,60,33,120.70,457,-3.00,5.00,-979.00
2024-06-07 00:08:12.578449,0,0,-4,0,0,0,77,80,126,60,32,120.64,457,2.00,3.00,-1026.00
2024-06-07 00:08:12.723591,0,0,-4,0,0,0,77,80,126,60,32,120.69,457,-14.00,-29.00,-998.00
2024-06-07 00:08:12.782052,0,0,-4,0,0,0,77,80,126,60,32,120.68,457,1.00,-6.00,-984.00
2024-06-07 00:08:12.933428,0,0,-4,0,0,0,77,80,126,60,32,120.70,457,4.00,14.00,-994.00
2024-06-07 00:08:12.985980,0,0,-4,0,0,0,77,80,125,60,32,120.63,457,-5.00,-8.00,-1075.00
2024-06-07 00:08:13.133186,0,0,-4,0,0,0,77,80,125,60,32,120.66,457,1.00,-8.00,-992.00
2024-06-07 00:08:13.190093,0,0,-4,0,0,0,76,80,124,60,32,120.65,457,-17.00,9.00,-983.00
2024-06-07 00:08:13.338523,0,0,-4,0,0,0,76,80,124,60,32,120.60,457,11.00,-41.00,-1027.00
2024-06-07 00:08:13.393972,0,0,-4,0,0,0,76,80,124,60,32,120.70,457,-6.00,8.00,-974.00
2024-06-07 00:08:13.542701,0,0,-4,0,0,0,76,80,123,60,32,120.61,458,-1.00,9.00,-957.00
2024-06-07 00:08:13.546875,0,0,-4,0,0,0,76,80,123,60,32,120.63,458,1.00,-25.00,-1016.00
2024-06-07 00:08:13.735139,0,0,-4,0,0,0,76,80,122,60,32,120.66,458,10.00,13.00,-976.00
2024-06-07 00:08:13.752323,0,0,-4,0,0,0,76,80,121,60,32,120.60,458,4.00,-27.00,-1015.00
2024-06-07 00:08:13.854886,0,0,-4,0,0,0,76,80,122,60,32,120.64,458,3.00,11.00,-968.00
2024-06-07 00:08:13.955537,0,0,-4,0,0,0,76,80,121,60,32,120.64,458,-3.00,-16.00,-1043.00
2024-06-07 00:08:14.057882,0,0,-4,0,0,0,76,80,121,60,32,120.64,458,-3.00,6.00,-998.00
2024-06-07 00:08:14.162591,0,0,-4,0,0,0,76,79,122,60,32,120.64,458,5.00,12.00,-1007.00
2024-06-07 00:08:14.260711,0,0,-4,0,0,0,76,79,122,60,32,120.65,458,8.00,-21.00,-1030.00
2024-06-07 00:08:14.464452,0,0,-4,0,0,0,76,79,122,60,32,120.66,458,3.00,-13.00,-1027.00
2024-06-07 00:08:14.464604,0,0,-4,0,0,0,76,79,123,60,32,120.64,459,-10.00,27.00,-1012.00
2024-06-07 00:08:14.566966,0,0,-4,0,0,0,76,79,123,60,32,120.64,459,4.00,-6.00,-966.00
2024-06-07 00:08:14.669452,0,0,-4,0,0,0,76,79,123,60,32,120.65,459,5.00,-12.00,-960.00
2024-06-07 00:08:14.771410,0,0,-4,0,0,0,76,79,123,60,32,120.64,459,13.00,-31.00,-996.00
2024-06-07 00:08:14.874481,0,0,-4,0,0,0,76,79,123,60,32,120.63,459,5.00,-28.00,-1008.00
2024-06-07 00:08:14.976116,0,1,-4,0,0,0,76,79,124,60,32,120.69,459,6.00,-18.00,-986.00
2024-06-07 00:08:15.076776,0,1,-4,0,0,0,76,79,124,60,32,120.70,459,0.00,-36.00,-952.00
2024-06-07 00:08:15.181270,0,1,-4,0,0,0,76,79,124,60,32,120.67,459,-8.00,-45.00,-992.00
2024-06-07 00:08:15.281038,0,1,-4,0,0,0,76,79,124,60,32,120.67,459,5.00,2.00,-1014.00
2024-06-07 00:08:15.386779,0,1,-4,0,0,0,76,79,124,60,32,120.69,459,7.00,-15.00,-1037.00
2024-06-07 00:08:15.484710,0,0,-4,0,0,0,76,79,123,60,32,120.64,460,-1.00,6.00,-964.00
2024-06-07 00:08:15.590618,0,0,-4,0,0,0,76,79,122,60,32,120.68,460,-2.00,-31.00,-1004.00
2024-06-07 00:08:15.688605,0,0,-4,0,0,0,76,79,122,60,32,120.67,460,5.00,15.00,-1008.00
2024-06-07 00:08:15.795404,0,0,-4,0,0,0,76,79,122,60,32,120.62,460,-5.00,-19.00,-978.00
2024-06-07 00:08:15.892626,0,-1,-4,0,0,0,76,79,121,60,32,120.61,460,3.00,-6.00,-1029.00
2024-06-07 00:08:16.000250,0,0,-4,0,0,0,76,79,121,60,32,120.68,460,-7.00,9.00,-943.00
2024-06-07 00:08:16.096928,0,0,-4,0,0,0,76,79,121,60,32,120.63,460,1.00,-13.00,-993.00
2024-06-07 00:08:16.199479,0,0,-4,0,0,0,76,79,121,60,32,120.66,460,0.00,-15.00,-1004.00
2024-06-07 00:08:16.307352,0,0,-4,0,0,0,76,79,120,60,32,120.65,460,0.00,21.00,-990.00
2024-06-07 00:08:16.402667,0,0,-4,0,0,0,76,79,120,60,32,120.67,460,4.00,-11.00,-992.00
2024-06-07 00:08:16.512706,0,0,-4,0,0,0,76,79,121,60,32,120.65,461,-2.00,20.00,-1027.00
2024-06-07 00:08:16.606617,0,0,-4,0,0,0,76,79,120,60,31,120.66,461,-10.00,22.00,-1021.00
2024-06-07 00:08:16.717610,0,0,-4,0,0,0,76,79,120,60,31,120.69,461,-8.00,-3.00,-1019.00
2024-06-07 00:08:16.810593,0,0,-4,0,0,0,76,79,120,60,31,120.57,461,-5.00,3.00,-1006.00
2024-06-07 00:08:16.922227,0,0,-4,0,0,0,76,79,120,60,31,120.69,461,1.00,-18.00,-1023.00
2024-06-07 00:08:17.014453,0,0,-4,0,0,0,76,79,119,60,31,120.63,461,-2.00,-2.00,-947.00
2024-06-07 00:08:17.127682,0,0,-4,0,0,0,76,79,119,60,31,120.64,461,0.00,-5.00,-1006.00
2024-06-07 00:08:17.218593,0,0,-4,0,0,0,76,79,119,60,31,120.65,461,6.00,2.00,-980.00
2024-06-07 00:08:17.343559,0,0,-4,0,0,0,76,79,118,60,31,120.63,461,1.00,-26.00,-993.00
2024-06-07 00:08:17.422968,0,1,-4,0,0,0,76,79,118,60,31,120.60,461,-14.00,8.00,-1038.00
2024-06-07 00:08:17.536162,0,1,-4,0,0,0,76,79,118,60,31,120.63,462,-8.00,-11.00,-967.00
2024-06-07 00:08:17.627868,0,1,-4,0,0,0,76,79,117,60,31,120.58,462,9.00,-8.00,-1016.00
2024-06-07 00:08:17.741336,0,1,-4,0,0,0,76,79,117,60,31,120.59,462,-7.00,-38.00,-1011.00
2024-06-07 00:08:17.782642,0,1,-4,0,0,0,76,79,117,60,31,120.59,462,-6.00,0.00,-1008.00
2024-06-07 00:08:17.883544,0,0,-4,0,0,0,76,79,117,60,31,120.62,462,-2.00,27.00,-1000.00
2024-06-07 00:08:17.984086,0,0,-4,0,0,0,76,79,117,60,31,120.58,462,0.00,-22.00,-1018.00
2024-06-07 00:08:18.087824,0,0,-4,0,0,0,76,79,117,60,31,120.59,462,-9.00,-3.00,-1036.00
2024-06-07 00:08:18.189367,0,0,-4,0,0,0,77,79,117,60,31,120.59,462,-5.00,14.00,-1005.00
2024-06-07 00:08:18.291407,0,0,-4,0,0,0,77,79,118,60,31,120.61,462,-4.00,-7.00,-1027.00
2024-06-07 00:08:18.393336,0,0,-4,0,0,0,77,79,117,60,31,120.59,462,-13.00,5.00,-994.00
2024-06-07 00:08:18.493658,0,0,-4,0,0,0,77,79,118,60,31,120.55,463,-2.00,8.00,-998.00
2024-06-07 00:08:18.662634,0,0,-4,0,0,0,77,79,118,60,31,120.67,463,-3.00,19.00,-993.00
2024-06-07 00:08:18.698290,0,0,-4,0,0,0,77,79,118,60,31,120.69,463,-9.00,23.00,-997.00
2024-06-07 00:08:18.867510,0,0,-4,0,0,0,77,79,118,60,31,120.67,463,-12.00,17.00,-987.00
2024-06-07 00:08:18.902374,0,0,-4,0,0,0,77,79,118,60,31,120.65,463,-15.00,6.00,-1023.00
2024-06-07 00:08:19.072118,0,0,-4,0,0,0,77,79,118,60,31,120.60,463,-5.00,-12.00,-1005.00
2024-06-07 00:08:19.108164,0,0,-4,0,0,0,77,79,118,60,31,120.61,463,6.00,-25.00,-1009.00
2024-06-07 00:08:19.210670,0,0,-4,0,0,0,77,79,118,60,31,120.64,463,0.00,-13.00,-986.00
2024-06-07 00:08:19.309604,0,0,-4,0,0,0,77,79,118,60,31,120.69,463,5.00,2.00,-1001.00
2024-06-07 00:08:19.481760,0,0,-4,0,0,0,77,79,118,60,31,120.60,463,3.00,22.00,-1025.00
2024-06-07 00:08:19.513419,0,0,-4,0,0,0,77,79,118,60,31,120.65,464,0.00,-20.00,-998.00
2024-06-07 00:08:19.686590,0,0,-4,0,0,0,77,79,118,60,31,120.66,464,-11.00,-23.00,-1016.00
2024-06-07 00:08:19.717434,0,0,-4,0,0,0,77,79,118,60,31,120.65,464,1.00,2.00,-1027.00
2024-06-07 00:08:19.819635,0,0,-4,0,0,0,77,79,117,60,31,120.68,464,5.00,-1.00,-982.00
2024-06-07 00:08:19.924116,0,0,-4,0,0,0,77,79,118,60,31,120.69,464,-6.00,37.00,-989.00
2024-06-07 00:08:20.023529,0,0,-4,0,0,0,77,79,117,60,31,120.63,464,-9.00,38.00,-1017.00
2024-06-07 00:08:20.198466,0,0,-4,0,0,0,77,79,118,60,31,120.68,464,0.00,-14.00,-1018.00
2024-06-07 00:08:20.227433,0,0,-4,0,0,0,77,79,118,60,31,120.65,464,1.00,19.00,-1041.00
2024-06-07 00:08:20.403282,0,0,-4,0,0,0,77,79,117,60,31,120.67,464,-22.00,-1.00,-992.00
2024-06-07 00:08:20.435242,0,0,-4,0,0,0,77,79,117,60,31,120.63,465,-6.00,-4.00,-1031.00
2024-06-07 00:08:20.533884,0,0,-4,0,0,0,77,79,117,60,31,120.60,465,-1.00,17.00,-1027.00
2024-06-07 00:08:20.710391,0,0,-4,0,0,0,77,79,116,60,30,120.62,465,-7.00,17.00,-1014.00
2024-06-07 00:08:20.737511,0,0,-4,0,0,0,77,79,116,60,30,120.69,465,2.00,11.00,-990.00
2024-06-07 00:08:20.915236,0,0,-4,0,0,0,77,79,115,60,30,120.64,465,-8.00,0.00,-1006.00
2024-06-07 00:08:20.942215,0,1,-4,0,0,0,77,79,113,60,30,120.56,465,-7.00,-9.00,-995.00
2024-06-07 00:08:21.119993,0,1,-4,0,0,0,77,79,112,60,30,120.59,465,1.00,-20.00,-1028.00
2024-06-07 00:08:21.145529,0,1,-4,0,0,0,77,79,112,50,30,120.55,465,-10.00,-4.00,-1008.00
2024-06-07 00:08:21.324774,0,1,-4,0,0,0,76,79,111,50,30,120.57,465,-4.00,-7.00,-1031.00
2024-06-07 00:08:21.349395,0,1,-4,0,0,0,76,79,112,50,30,120.61,465,12.00,9.00,-1053.00
2024-06-07 00:08:21.494852,0,1,-4,0,0,0,76,79,112,50,30,120.64,466,1.00,-22.00,-1011.00
2024-06-07 00:08:21.502278,0,1,-4,0,0,0,76,79,113,50,30,120.58,466,0.00,-37.00,-1028.00
2024-06-07 00:08:21.632160,0,1,-4,0,0,0,76,79,114,50,30,120.56,466,8.00,-12.00,-1041.00
2024-06-07 00:08:21.706024,0,0,-4,0,0,0,76,79,115,50,30,120.55,466,7.00,-21.00,-1017.00
2024-06-07 00:08:21.836912,0,0,-4,0,0,0,76,79,116,60,30,120.60,466,2.00,-25.00,-974.00
2024-06-07 00:08:21.910053,0,0,-4,0,0,-1,76,79,118,60,30,120.61,466,7.00,-4.00,-1011.00
2024-06-07 00:08:22.121078,0,0,-4,0,0,-1,76,79,119,60,30,120.58,466,8.00,-26.00,-1020.00
2024-06-07 00:08:22.121216,0,0,-4,0,0,0,76,79,120,60,30,120.60,466,2.00,-11.00,-941.00
2024-06-07 00:08:22.261607,0,0,-4,0,0,0,76,80,121,60,30,120.57,466,11.00,-2.00,-997.00
2024-06-07 00:08:22.372597,0,0,-4,0,0,0,76,80,121,60,30,120.70,466,22.00,-3.00,-999.00
2024-06-07 00:08:22.447916,0,-1,-4,0,0,0,76,80,123,60,30,120.67,467,8.00,-27.00,-977.00
2024-06-07 00:08:22.542593,0,-1,-4,0,0,0,76,80,124,60,30,120.60,467,-4.00,-24.00,-972.00
2024-06-07 00:08:22.623972,0,0,-4,0,0,0,76,80,123,60,30,120.62,467,-2.00,0.00,-1007.00
2024-06-07 00:08:22.742369,0,0,-4,0,0,0,76,80,125,60,30,120.63,467,5.00,-31.00,-985.00
2024-06-07 00:08:22.828309,0,0,-4,0,0,0,76,80,125,60,30,120.63,467,1.00,-2.00,-960.00
2024-06-07 00:08:22.929845,0,0,-4,0,0,0,76,80,125,60,30,120.69,467,14.00,7.00,-958.00
2024-06-07 00:08:23.067641,0,0,-4,0,0,0,76,80,125,60,30,120.68,467,12.00,-12.00,-1004.00
2024-06-07 00:08:23.180598,0,0,-4,0,0,0,76,80,125,60,30,120.67,467,6.00,5.00,-1051.00
2024-06-07 00:08:23.236067,0,-1,-4,0,0,0,76,80,126,60,30,120.72,467,-1.00,9.00,-970.00
2024-06-07 00:08:23.361890,0,-1,-4,0,0,0,76,80,126,60,30,120.68,467,-5.00,-9.00,-959.00
2024-06-07 00:08:23.505395,0,-1,-4,0,0,0,76,80,126,60,30,120.63,468,-1.00,1.00,-993.00
2024-06-07 00:08:23.648590,0,-1,-4,0,0,0,76,80,126,60,30,120.67,468,0.00,7.00,-974.00
2024-06-07 00:08:23.648730,0,-1,-4,0,0,0,76,80,126,60,30,120.72,468,1.00,36.00,-1030.00
2024-06-07 00:08:23.793206,0,-1,-4,0,0,0,76,80,127,60,30,120.65,468,7.00,-8.00,-996.00
