TS,pitch,roll,yaw,vgx,vgy,vgz,templ,temph,tof,h,bat,baro,time,agx,agy,agz
2024-06-07 10:51:55.479876,-1,1,0,0,0,0,56,57,10,0,90,132.39,0,-16.00,-29.00,-998.00
2024-06-07 10:51:55.529305,-1,1,0,0,0,0,56,57,10,0,90,132.42,0,-16.00,-28.00,-997.00
2024-06-07 10:51:55.646199,-1,1,0,0,0,0,56,57,10,0,90,132.41,0,-16.00,-29.00,-998.00
2024-06-07 10:51:55.733754,-1,1,0,0,0,0,56,57,10,0,90,132.43,0,-16.00,-28.00,-1001.00
2024-06-07 10:51:55.835267,-1,1,0,0,0,0,56,57,10,0,90,132.42,0,-15.00,-30.00,-999.00
2024-06-07 10:51:55.949501,-1,1,0,0,0,0,56,57,10,0,90,132.45,0,-17.00,-29.00,-998.00
2024-06-07 10:51:56.038887,-1,1,0,0,0,0,56,57,10,0,90,132.39,0,-15.00,-27.00,-998.00
2024-06-07 10:51:56.153340,-1,1,0,0,0,0,56,57,10,0,90,132.37,0,-17.00,-28.00,-999.00
2024-06-07 10:51:56.243226,-1,1,0,0,0,0,56,57,10,0,90,132.39,0,-16.00,-28.00,-998.00
2024-06-07 10:51:56.358137,-1,1,0,0,0,0,56,58,10,0,90,132.36,0,-16.00,-27.00,-999.00
2024-06-07 10:51:56.446880,-1,1,0,0,0,0,56,58,10,0,90,132.37,0,-16.00,-29.00,-998.00
2024-06-07 10:51:56.566967,-1,1,0,0,0,0,56,58,10,0,90,132.36,0,-17.00,-27.00,-1001.00
2024-06-07 10:51:56.651484,-1,1,0,0,0,0,56,58,10,0,90,132.39,0,-16.00,-28.00,-998.00
2024-06-07 10:51:56.767775,-1,1,0,0,0,0,56,58,10,0,90,132.44,0,-17.00,-29.00,-999.00
2024-06-07 10:51:56.856327,-1,1,0,0,0,0,56,58,10,0,90,132.41,0,-16.00,-28.00,-997.00
2024-06-07 10:51:56.975482,-1,1,0,0,0,0,56,58,10,0,90,132.44,0,-17.00,-30.00,-1000.00
2024-06-07 10:51:57.061239,-1,1,0,0,0,0,56,58,10,0,90,132.37,0,-15.00,-28.00,-998.00
2024-06-07 10:51:57.161005,-1,1,0,0,0,0,56,58,10,0,90,132.40,0,-18.00,-28.00,-999.00
2024-06-07 10:51:57.262962,-1,1,0,0,0,0,56,58,10,0,90,132.45,0,-16.00,-29.00,-999.00
2024-06-07 10:51:57.383168,-1,1,0,0,0,0,55,58,10,0,90,132.39,0,-17.00,-29.00,-999.00
2024-06-07 10:51:57.466936,-1,1,0,0,0,0,55,58,10,0,90,132.39,0,-18.00,-29.00,-999.00
2024-06-07 10:51:57.587293,-1,1,0,0,0,0,55,58,10,0,90,132.36,0,-16.00,-30.00,-997.00
2024-06-07 10:51:57.671066,-1,1,0,0,0,0,55,58,10,0,90,132.41,0,-15.00,-28.00,-1000.00
2024-06-07 10:51:57.792338,-1,1,0,0,0,0,55,58,10,0,90,132.45,0,-16.00,-28.00,-1000.00
2024-06-07 10:51:57.876744,-1,1,0,0,0,0,55,58,10,0,90,132.41,0,-16.00,-29.00,-1000.00
2024-06-07 10:51:57.977411,-1,1,0,0,0,0,55,58,10,0,90,132.43,0,-16.00,-30.00,-1000.00
2024-06-07 10:51:58.099484,-1,1,0,0,0,0,55,58,10,0,90,132.43,0,-17.00,-30.00,-998.00
2024-06-07 10:51:58.180862,-1,1,0,0,0,0,55,58,10,0,90,132.38,0,-17.00,-27.00,-1000.00
2024-06-07 10:51:58.282750,-1,1,0,0,0,0,55,58,10,0,90,132.43,0,-18.00,-29.00,-998.00
2024-06-07 10:51:58.410292,-1,1,0,0,0,0,56,58,10,0,90,132.40,0,-17.00,-29.00,-998.00
2024-06-07 10:51:58.486836,-1,1,0,0,0,0,56,58,10,0,90,132.40,0,-18.00,-30.00,-998.00
2024-06-07 10:51:58.611693,-1,1,0,0,0,0,56,58,10,0,90,132.40,0,-17.00,-28.00,-999.00
2024-06-07 10:51:58.690930,-1,1,0,0,0,0,56,58,10,0,90,132.41,0,-16.00,-28.00,-998.00
2024-06-07 10:51:58.815803,-1,1,0,0,0,0,56,58,10,0,90,132.40,0,-19.00,-29.00,-999.00
2024-06-07 10:51:58.894929,-1,1,0,0,0,0,56,58,10,0,90,132.41,0,-17.00,-29.00,-997.00
2024-06-07 10:51:58.945563,-1,1,0,0,0,0,56,58,10,0,90,132.43,0,-15.00,-30.00,-1000.00
2024-06-07 10:51:59.126064,-1,1,0,0,0,0,56,58,10,0,90,132.47,0,-17.00,-29.00,-998.00
2024-06-07 10:51:59.149586,-1,1,0,0,0,0,56,58,10,0,90,132.47,0,-17.00,-30.00,-1001.00
2024-06-07 10:51:59.446918,-1,1,0,0,0,0,56,58,10,0,90,132.42,0,-17.00,-28.00,-999.00
2024-06-07 10:51:59.447151,-1,1,0,0,0,0,56,58,10,0,90,132.46,0,-17.00,-28.00,-999.00
2024-06-07 10:51:59.455425,-1,1,0,0,0,0,56,58,10,0,90,132.40,0,-16.00,-30.00,-998.00
2024-06-07 10:51:59.589341,-1,1,0,0,0,0,56,58,10,0,90,132.41,0,-16.00,-29.00,-999.00
2024-06-07 10:51:59.762119,-1,1,0,0,0,0,56,58,10,0,90,132.40,0,-17.00,-28.00,-997.00
2024-06-07 10:51:59.762171,-1,1,0,0,0,0,56,58,10,0,90,132.44,0,-17.00,-29.00,-998.00
2024-06-07 10:51:59.887810,-1,1,0,0,0,0,56,58,10,0,90,132.45,0,-15.00,-30.00,-998.00
2024-06-07 10:52:00.066414,-1,1,0,0,0,0,56,58,10,0,90,132.43,0,-16.00,-29.00,-998.00
2024-06-07 10:52:00.067470,-1,1,0,0,0,0,56,58,10,0,90,132.43,0,-16.00,-29.00,-1000.00
2024-06-07 10:52:00.196054,-1,1,0,0,0,0,56,58,10,0,90,132.43,0,-18.00,-29.00,-998.00
2024-06-07 10:52:00.366050,-1,1,0,0,0,0,56,58,10,0,90,132.42,0,-18.00,-28.00,-996.00
2024-06-07 10:52:00.373471,-1,1,0,0,0,0,57,59,10,0,90,132.42,0,-16.00,-29.00,-999.00
2024-06-07 10:52:00.517199,-1,1,0,0,0,0,57,59,10,0,90,132.44,0,-17.00,-29.00,-1000.00
2024-06-07 10:52:00.660805,-1,1,0,0,0,0,57,59,10,0,90,132.42,0,-18.00,-29.00,-999.00
2024-06-07 10:52:00.679427,-1,1,0,0,0,0,57,59,10,0,90,132.45,0,-19.00,-28.00,-999.00
2024-06-07 10:52:00.815018,-1,1,0,0,0,0,57,59,10,0,90,132.43,0,-17.00,-28.00,-1000.00
2024-06-07 10:52:00.888510,-1,1,0,0,0,0,57,59,10,0,90,132.43,0,-17.00,-28.00,-998.00
2024-06-07 10:52:01.024262,-1,1,0,0,0,0,57,59,10,0,90,132.45,0,-15.00,-30.00,-997.00
2024-06-07 10:52:01.089430,-1,1,0,0,0,0,57,59,10,0,90,132.45,0,-17.00,-29.00,-998.00
2024-06-07 10:52:01.286153,-1,1,0,0,0,0,57,59,10,0,90,132.44,0,-17.00,-29.00,-1000.00
2024-06-07 10:52:01.291443,-1,1,0,0,0,0,57,59,10,0,90,132.42,0,-17.00,-29.00,-1003.00
2024-06-07 10:52:01.429885,-1,1,0,0,0,0,57,59,10,0,90,132.47,0,-16.00,-29.00,-999.00
2024-06-07 10:52:01.591465,-1,1,0,0,0,0,57,59,10,0,90,132.47,0,-17.00,-29.00,-998.00
2024-06-07 10:52:01.597494,-1,1,0,0,0,0,57,59,10,0,90,132.48,0,-18.00,-29.00,-1001.00
2024-06-07 10:52:01.734874,-1,1,0,0,0,0,57,59,10,0,90,132.49,0,-17.00,-29.00,-1000.00
2024-06-07 10:52:01.902386,-1,1,0,0,0,0,57,59,10,0,90,132.50,0,-17.00,-29.00,-998.00
2024-06-07 10:52:01.903502,-1,1,0,0,0,0,57,59,10,0,90,132.43,0,-16.00,-28.00,-999.00
2024-06-07 10:52:02.056172,-1,1,0,0,0,0,57,59,10,0,90,132.43,0,-17.00,-28.00,-999.00
2024-06-07 10:52:02.107450,-1,1,0,0,0,0,57,59,10,0,90,132.47,0,-17.00,-28.00,-999.00
2024-06-07 10:52:02.297361,-1,1,0,0,0,0,57,59,10,0,90,132.46,0,-17.00,-28.00,-998.00
2024-06-07 10:52:02.298033,-1,1,0,0,0,0,57,59,10,0,90,132.48,0,-15.00,-30.00,-999.00
2024-06-07 10:52:02.506535,-1,1,0,0,0,0,57,59,10,0,90,132.52,0,-16.00,-29.00,-1001.00
2024-06-07 10:52:02.506739,-1,1,0,0,0,0,57,59,10,0,90,132.43,0,-16.00,-28.00,-998.00
2024-06-07 10:52:02.566555,-1,1,0,0,0,0,57,59,10,0,90,132.49,0,-18.00,-30.00,-998.00
2024-06-07 10:52:02.668535,-1,1,0,0,0,0,57,59,10,0,90,132.50,0,-16.00,-29.00,-997.00
2024-06-07 10:52:02.809965,-1,1,0,0,0,0,57,59,10,0,90,132.49,0,-20.00,-38.00,-996.00
2024-06-07 10:52:02.875153,0,1,0,0,0,0,57,59,10,0,90,132.49,0,-7.00,-21.00,-1002.00
2024-06-07 10:52:02.974481,0,1,0,0,0,0,57,59,10,0,90,132.49,0,-12.00,-29.00,-989.00
2024-06-07 10:52:03.116565,0,0,1,0,0,0,57,59,10,0,90,132.49,0,7.00,8.00,-940.00
2024-06-07 10:52:03.178736,0,0,1,0,0,0,57,59,10,0,90,132.49,0,-8.00,-7.00,-1023.00
2024-06-07 10:52:03.280599,0,0,0,0,0,0,57,59,22,0,90,132.49,0,-21.00,-1.00,-1144.00
2024-06-07 10:52:03.423620,0,0,0,0,0,-3,58,60,23,0,90,132.49,0,18.00,-7.00,-1372.00
2024-06-07 10:52:03.484477,0,0,0,0,0,-6,58,60,23,0,90,132.49,0,42.00,-11.00,-1244.00
2024-06-07 10:52:03.730851,1,2,0,0,0,-7,58,60,23,0,90,132.79,0,20.00,-30.00,-1088.00
2024-06-07 10:52:03.731415,1,2,0,0,0,-7,58,60,26,10,90,132.83,0,13.00,-32.00,-974.00
2024-06-07 10:52:03.790598,1,2,0,0,0,-7,58,60,35,20,90,132.95,1,13.00,-34.00,-971.00
2024-06-07 10:52:03.892495,1,2,0,0,0,-6,58,60,43,30,90,133.06,1,17.00,-27.00,-904.00
2024-06-07 10:52:04.039124,1,2,0,0,-1,-6,58,60,50,30,90,133.10,1,3.00,-40.00,-927.00
2024-06-07 10:52:04.096365,0,4,0,0,-1,-5,58,60,56,40,90,133.15,1,6.00,-26.00,-870.00
2024-06-07 10:52:04.242953,0,3,0,0,0,-4,58,60,60,40,90,133.16,1,9.00,-52.00,-877.00
2024-06-07 10:52:04.302190,0,3,0,0,0,-3,58,60,64,50,90,133.28,1,5.00,-55.00,-902.00
2024-06-07 10:52:04.402817,0,3,0,0,0,-2,57,60,67,50,90,133.17,1,-5.00,-25.00,-938.00
2024-06-07 10:52:04.550113,0,3,0,0,0,-1,57,60,69,50,90,133.26,1,22.00,-54.00,-954.00
2024-06-07 10:52:04.623721,0,3,0,0,0,-1,57,60,72,60,90,133.36,1,13.00,-58.00,-892.00
2024-06-07 10:52:04.708407,0,3,0,0,0,-1,57,60,73,60,90,133.37,1,23.00,-31.00,-992.00
2024-06-07 10:52:04.858210,0,4,0,0,0,-1,57,60,76,60,90,133.28,2,28.00,-68.00,-977.00
2024-06-07 10:52:04.924046,0,3,0,0,0,-1,57,60,77,60,90,133.30,2,25.00,-54.00,-952.00
2024-06-07 10:52:05.014459,0,3,0,0,0,0,57,60,77,60,90,133.24,2,20.00,-46.00,-1026.00
2024-06-07 10:52:05.116430,0,3,0,0,0,0,57,60,80,60,90,133.30,2,23.00,-66.00,-969.00
2024-06-07 10:52:05.267003,0,3,0,0,0,0,57,60,81,70,90,133.41,2,22.00,-46.00,-920.00
2024-06-07 10:52:05.320492,0,3,0,0,0,0,57,60,81,70,90,133.37,2,26.00,-27.00,-974.00
2024-06-07 10:52:05.471748,0,2,0,0,0,0,59,60,82,70,90,133.32,2,26.00,-51.00,-974.00
2024-06-07 10:52:05.524546,0,2,0,0,0,0,59,60,83,70,90,133.37,2,19.00,-71.00,-1000.00
2024-06-07 10:52:05.676861,0,2,0,0,0,0,59,60,85,70,90,133.36,2,26.00,-40.00,-1002.00
2024-06-07 10:52:05.728353,0,2,0,0,0,0,59,60,85,70,90,133.42,2,21.00,-60.00,-987.00
2024-06-07 10:52:05.830345,0,2,0,0,0,0,59,60,86,70,90,133.37,3,18.00,-50.00,-1014.00
2024-06-07 10:52:05.996474,0,2,0,0,0,0,59,60,87,70,90,133.39,3,19.00,-60.00,-964.00
2024-06-07 10:52:05.997523,0,3,0,0,0,0,59,60,87,70,90,133.39,3,33.00,-64.00,-1003.00
2024-06-07 10:52:06.086471,0,2,0,0,0,0,59,60,87,70,90,133.33,3,23.00,-59.00,-943.00
2024-06-07 10:52:06.188987,0,2,0,0,0,0,59,60,86,70,90,133.38,3,15.00,-34.00,-1015.00
2024-06-07 10:52:06.291412,0,2,0,0,0,0,59,60,86,70,90,133.36,3,8.00,-42.00,-971.00
2024-06-07 10:52:06.393392,0,2,0,0,0,0,58,61,86,70,90,133.33,3,-1.00,-33.00,-975.00
2024-06-07 10:52:06.493381,0,2,0,0,0,0,58,61,86,70,90,133.39,3,14.00,-59.00,-968.00
2024-06-07 10:52:06.595196,0,2,0,0,0,0,58,61,85,70,90,133.29,3,18.00,-53.00,-1016.00
2024-06-07 10:52:06.701777,0,3,0,0,0,0,58,61,84,70,90,133.30,3,16.00,-59.00,-979.00
2024-06-07 10:52:06.799081,0,3,0,0,0,0,58,61,84,70,90,133.45,4,17.00,-75.00,-1032.00
2024-06-07 10:52:06.905351,0,3,0,0,0,0,58,61,84,70,90,133.35,4,17.00,-63.00,-1015.00
2024-06-07 10:52:07.003155,0,3,0,0,0,0,58,61,83,70,90,133.42,4,9.00,-48.00,-1004.00
2024-06-07 10:52:07.111385,0,3,0,0,0,0,58,61,83,70,90,133.39,4,23.00,-81.00,-992.00
2024-06-07 10:52:07.207254,0,3,0,0,0,0,58,61,83,70,90,133.31,4,26.00,-47.00,-976.00
2024-06-07 10:52:07.309239,0,3,0,0,0,0,58,61,83,70,90,133.36,4,27.00,-55.00,-992.00
2024-06-07 10:52:07.417332,1,3,0,0,0,0,59,61,83,70,90,133.42,4,20.00,-61.00,-1024.00
2024-06-07 10:52:07.513304,1,3,0,0,0,0,59,61,84,70,90,133.45,4,4.00,-44.00,-1000.00
2024-06-07 10:52:07.622377,1,3,0,0,0,0,59,61,83,70,90,133.39,4,13.00,-67.00,-959.00
2024-06-07 10:52:07.717428,1,3,0,0,0,0,59,61,82,70,90,133.26,4,-3.00,-58.00,-1006.00
2024-06-07 10:52:07.827738,0,3,0,0,0,0,59,61,82,70,90,133.30,5,4.00,-69.00,-1002.00
2024-06-07 10:52:07.921092,0,3,0,0,0,0,59,61,83,70,90,133.42,5,7.00,-62.00,-983.00
2024-06-07 10:52:08.031746,0,3,0,0,0,0,59,61,83,70,90,133.42,5,-10.00,-53.00,-1058.00
2024-06-07 10:52:08.128808,0,4,0,0,0,0,59,61,83,70,90,133.41,5,2.00,-37.00,-978.00
2024-06-07 10:52:08.227062,0,3,0,0,0,0,59,61,84,70,90,133.45,5,9.00,-47.00,-1022.00
2024-06-07 10:52:08.329132,0,3,0,0,0,0,59,61,84,70,90,133.39,5,3.00,-49.00,-992.00
2024-06-07 10:52:08.442094,0,2,0,0,0,0,59,61,85,70,90,133.41,5,4.00,-76.00,-1029.00
2024-06-07 10:52:08.533359,0,2,0,0,0,0,59,61,84,70,90,133.41,5,14.00,-36.00,-1007.00
2024-06-07 10:52:08.646141,0,3,0,0,0,0,59,61,84,70,90,133.28,5,29.00,-28.00,-986.00
2024-06-07 10:52:08.736944,0,3,0,0,0,0,59,61,84,70,90,133.30,5,32.00,-70.00,-955.00
2024-06-07 10:52:08.850928,0,2,0,0,0,0,59,61,83,70,90,133.40,6,28.00,-58.00,-975.00
2024-06-07 10:52:08.945544,1,2,0,0,0,0,59,61,83,70,90,133.32,6,10.00,-52.00,-991.00
2024-06-07 10:52:09.043232,1,3,0,0,0,0,59,61,82,70,90,133.37,6,15.00,-50.00,-989.00
2024-06-07 10:52:09.158171,1,3,0,0,0,0,59,61,82,70,90,133.36,6,25.00,-48.00,-1047.00
2024-06-07 10:52:09.247274,1,3,0,0,0,0,59,61,82,70,90,133.32,6,7.00,-64.00,-1023.00
2024-06-07 10:52:09.365717,0,3,0,0,0,0,59,61,83,70,90,133.35,6,22.00,-28.00,-1021.00
2024-06-07 10:52:09.451264,0,3,0,0,0,0,59,61,83,70,90,133.34,6,22.00,-21.00,-1043.00
2024-06-07 10:52:09.567984,0,2,0,0,0,0,59,61,84,70,90,133.30,6,30.00,-61.00,-1013.00
2024-06-07 10:52:09.673305,0,2,0,0,0,0,59,61,84,70,90,133.28,6,44.00,-59.00,-948.00
2024-06-07 10:52:09.761512,0,2,0,0,0,0,59,61,85,70,90,133.26,6,24.00,-38.00,-1055.00
2024-06-07 10:52:09.859981,0,2,0,0,0,0,59,61,85,70,90,133.30,7,25.00,-42.00,-998.00
2024-06-07 10:52:09.910887,0,2,0,0,0,0,59,61,84,70,90,133.35,7,24.00,-65.00,-981.00
2024-06-07 10:52:10.079803,0,2,0,0,0,0,59,61,84,70,90,133.34,7,27.00,-57.00,-965.00
2024-06-07 10:52:10.115251,0,3,0,0,0,0,59,61,84,70,90,133.31,7,30.00,-65.00,-1007.00
2024-06-07 10:52:10.289768,1,3,0,0,0,0,59,61,84,70,90,133.30,7,15.00,-52.00,-1033.00
2024-06-07 10:52:10.318203,1,2,0,0,0,0,59,61,84,70,90,133.33,7,0.00,-64.00,-975.00
2024-06-07 10:52:10.489479,0,2,0,0,0,0,59,62,83,70,90,133.35,7,8.00,-68.00,-1021.00
2024-06-07 10:52:10.522576,0,2,0,0,0,0,59,62,83,70,90,133.29,7,-3.00,-69.00,-992.00
2024-06-07 10:52:10.684116,0,3,0,0,0,0,59,62,83,70,90,133.42,7,0.00,-62.00,-996.00
2024-06-07 10:52:10.726180,0,3,0,0,0,0,59,62,83,70,90,133.41,7,0.00,-56.00,-962.00
2024-06-07 10:52:10.899690,0,3,0,0,0,0,59,62,83,70,90,133.43,8,-4.00,-59.00,-1030.00
2024-06-07 10:52:10.930387,0,3,0,0,0,0,59,62,83,70,90,133.36,8,-8.00,-71.00,-1042.00
2024-06-07 10:52:11.104341,0,4,0,0,0,0,59,62,83,70,90,133.35,8,-3.00,-61.00,-945.00
2024-06-07 10:52:11.134614,0,4,0,0,0,0,59,62,83,70,90,133.45,8,0.00,-65.00,-1018.00
2024-06-07 10:52:11.308704,0,4,0,0,0,0,59,62,83,70,90,133.34,8,4.00,-104.00,-998.00
2024-06-07 10:52:11.338134,0,4,0,0,0,0,59,62,84,70,90,133.44,8,-10.00,-59.00,-939.00
2024-06-07 10:52:11.516597,0,4,0,0,0,0,60,62,83,70,90,133.40,8,2.00,-67.00,-986.00
2024-06-07 10:52:11.542355,0,4,0,0,0,0,60,62,83,70,90,133.34,8,-6.00,-66.00,-975.00
2024-06-07 10:52:11.719292,0,4,0,0,0,0,60,62,83,70,90,133.36,8,5.00,-73.00,-1010.00
2024-06-07 10:52:11.746230,0,4,0,0,0,0,60,62,83,70,90,133.35,8,2.00,-59.00,-1023.00
2024-06-07 10:52:11.848109,0,4,0,0,0,0,60,62,82,70,90,133.40,9,9.00,-56.00,-1015.00
2024-06-07 10:52:12.026049,0,4,0,0,0,0,60,62,83,70,90,133.40,9,8.00,-84.00,-1044.00
2024-06-07 10:52:12.052140,0,4,0,0,0,0,60,62,82,70,90,133.34,9,2.00,-87.00,-1038.00
2024-06-07 10:52:12.230204,0,4,0,0,0,0,60,62,83,70,90,133.39,9,-3.00,-80.00,-980.00
2024-06-07 10:52:12.256206,0,5,0,0,0,0,60,62,83,70,90,133.39,9,-5.00,-86.00,-991.00
2024-06-07 10:52:12.435023,0,5,0,0,0,0,60,62,83,70,90,133.47,9,3.00,-69.00,-1022.00
2024-06-07 10:52:12.460122,0,5,0,0,0,0,60,62,82,70,90,133.39,9,2.00,-76.00,-1056.00
2024-06-07 10:52:12.640089,0,5,0,0,0,0,60,62,83,70,90,133.36,9,-2.00,-66.00,-1011.00
2024-06-07 10:52:12.664060,0,5,0,0,0,0,60,62,84,70,90,133.38,9,-13.00,-70.00,-967.00
2024-06-07 10:52:12.844910,0,4,0,0,0,0,60,62,83,70,90,133.32,9,-17.00,-79.00,-979.00
2024-06-07 10:52:12.868278,0,4,0,0,0,0,60,62,83,70,90,133.38,10,1.00,-88.00,-1030.00
2024-06-07 10:52:13.049403,0,4,0,0,0,0,60,62,84,70,90,133.32,10,-2.00,-73.00,-982.00
2024-06-07 10:52:13.074286,0,4,0,0,0,0,60,62,83,70,90,133.38,10,-2.00,-77.00,-1035.00
2024-06-07 10:52:13.174356,0,4,0,0,0,0,60,62,84,70,90,133.40,10,0.00,-79.00,-1028.00
2024-06-07 10:52:13.276282,0,5,0,0,0,0,60,62,83,70,90,133.44,10,0.00,-77.00,-1021.00
2024-06-07 10:52:13.378132,0,5,0,0,0,0,60,62,83,70,90,133.33,10,7.00,-78.00,-973.00
2024-06-07 10:52:13.500867,0,5,0,0,0,0,61,63,84,70,90,133.31,10,1.00,-85.00,-1004.00
2024-06-07 10:52:13.582036,0,5,0,0,0,0,61,63,85,70,90,133.33,10,9.00,-87.00,-1094.00
2024-06-07 10:52:13.766106,0,4,0,0,0,-1,61,63,85,70,90,133.38,10,4.00,-86.00,-1072.00
2024-06-07 10:52:13.786069,0,4,0,0,0,-2,61,63,87,70,90,133.44,11,14.00,-86.00,-1099.00
2024-06-07 10:52:13.970913,0,4,0,0,0,-3,61,63,91,80,90,133.49,11,0.00,-91.00,-1078.00
2024-06-07 10:52:13.970978,0,4,0,0,0,-4,61,63,95,80,90,133.39,11,-9.00,-76.00,-1074.00
2024-06-07 10:52:14.040616,0,4,0,0,0,-4,61,63,98,90,90,133.54,11,-9.00,-70.00,-1070.00
2024-06-07 10:52:14.175867,0,4,0,0,0,-5,61,63,103,90,90,133.46,11,8.00,-64.00,-1074.00
2024-06-07 10:52:14.244859,0,3,0,0,0,-5,61,63,108,100,90,133.54,11,4.00,-84.00,-1029.00
2024-06-07 10:52:14.346744,0,3,0,0,0,-5,61,63,114,100,90,133.57,11,9.00,-52.00,-1006.00
2024-06-07 10:52:14.491655,0,3,0,0,0,-5,61,62,120,110,90,133.58,11,-19.00,-53.00,-1008.00
2024-06-07 10:52:14.550688,0,2,0,0,0,-5,61,62,124,110,90,133.71,11,-7.00,-50.00,-1037.00
2024-06-07 10:52:14.688034,-1,2,0,0,0,-5,61,62,131,120,90,133.74,11,-12.00,-63.00,-1029.00
2024-06-07 10:52:14.754711,0,2,0,0,0,-5,61,62,137,120,90,133.80,12,-11.00,-38.00,-999.00
2024-06-07 10:52:14.892511,0,2,0,0,0,-4,61,62,143,130,90,133.81,12,-11.00,-63.00,-957.00
2024-06-07 10:52:14.958976,0,2,0,0,0,-4,61,62,144,130,90,133.90,12,-7.00,-51.00,-965.00
2024-06-07 10:52:15.099399,0,2,0,0,0,-3,61,62,150,140,90,133.98,12,-15.00,-31.00,-945.00
2024-06-07 10:52:15.162993,0,2,0,0,0,-3,61,62,154,140,90,133.93,12,-18.00,-34.00,-960.00
2024-06-07 10:52:15.404645,0,2,0,0,0,-3,61,62,157,140,90,133.99,12,0.00,-50.00,-984.00
2024-06-07 10:52:15.404698,0,2,0,0,0,-3,61,62,159,150,90,134.05,12,-12.00,-49.00,-991.00
2024-06-07 10:52:15.468625,0,2,0,0,0,-3,61,64,165,150,90,134.07,12,-10.00,-46.00,-978.00
2024-06-07 10:52:15.609310,0,2,0,0,0,-2,61,64,168,150,90,134.10,12,-5.00,-36.00,-1013.00
2024-06-07 10:52:15.672624,0,2,0,0,0,-2,61,64,169,160,90,134.09,12,-12.00,-47.00,-932.00
2024-06-07 10:52:15.814092,0,1,0,0,0,-2,61,64,175,160,90,134.16,13,1.00,-46.00,-975.00
2024-06-07 10:52:15.876617,0,1,0,0,0,-1,61,64,175,160,90,134.09,13,-16.00,-33.00,-971.00
2024-06-07 10:52:16.020361,0,2,0,0,0,-1,61,64,177,160,90,134.13,13,-14.00,-44.00,-960.00
2024-06-07 10:52:16.080595,0,2,0,0,0,-1,61,64,178,160,90,134.17,13,-8.00,-57.00,-954.00
2024-06-07 10:52:16.182903,0,2,0,0,0,-1,61,64,180,170,90,134.20,13,-14.00,-44.00,-960.00
2024-06-07 10:52:16.303327,0,2,0,0,0,0,61,64,180,170,90,134.17,13,-2.00,-35.00,-948.00
2024-06-07 10:52:16.386796,0,2,0,0,0,0,61,64,181,170,90,134.13,13,-3.00,-51.00,-981.00
2024-06-07 10:52:16.530971,0,2,0,0,0,0,61,63,182,170,90,134.12,13,2.00,-29.00,-1036.00
2024-06-07 10:52:16.590677,0,2,0,0,0,0,61,63,182,170,90,134.21,13,11.00,-51.00,-1018.00
2024-06-07 10:52:16.736482,0,2,0,0,0,0,61,63,182,170,90,134.21,13,0.00,-48.00,-1022.00
2024-06-07 10:52:16.794986,0,2,0,0,0,0,61,63,180,170,90,134.22,14,6.00,-53.00,-967.00
2024-06-07 10:52:16.941227,0,2,0,0,0,0,61,63,181,170,90,134.28,14,3.00,-38.00,-1005.00
2024-06-07 10:52:16.998883,0,3,0,0,0,0,61,63,183,170,90,134.24,14,4.00,-42.00,-993.00
2024-06-07 10:52:17.050430,0,2,0,0,0,0,61,63,184,170,90,134.24,14,-1.00,-58.00,-985.00
2024-06-07 10:52:17.247868,0,2,0,0,0,0,61,63,181,170,90,134.21,14,4.00,-37.00,-1001.00
2024-06-07 10:52:17.253990,0,2,0,0,0,0,61,63,183,170,90,134.23,14,-2.00,-31.00,-1035.00
2024-06-07 10:52:17.355923,0,2,0,0,0,0,61,63,181,170,90,134.24,14,-3.00,-30.00,-976.00
2024-06-07 10:52:17.556254,0,3,0,0,0,0,61,64,179,170,90,134.25,14,-1.00,-56.00,-1017.00
2024-06-07 10:52:17.610653,0,3,0,0,0,0,61,64,179,170,90,134.17,14,3.00,-41.00,-971.00
2024-06-07 10:52:17.661873,0,3,0,0,0,0,61,64,181,170,90,134.21,14,11.00,-72.00,-974.00
2024-06-07 10:52:17.862308,0,3,0,0,0,0,61,64,179,170,90,134.18,15,1.00,-43.00,-997.00
2024-06-07 10:52:17.867161,0,3,0,0,0,0,61,64,181,170,90,134.19,15,2.00,-45.00,-954.00
2024-06-07 10:52:17.967916,0,2,0,0,0,0,61,64,180,170,90,134.14,15,8.00,-27.00,-1086.00
2024-06-07 10:52:18.070378,0,2,0,0,0,0,61,64,179,170,90,134.16,15,22.00,-55.00,-1031.00
2024-06-07 10:52:18.171618,0,2,0,0,0,0,61,64,178,170,90,134.20,15,10.00,-38.00,-957.00
2024-06-07 10:52:18.273423,0,2,0,0,0,0,61,64,178,170,90,134.21,15,3.00,-40.00,-954.00
2024-06-07 10:52:18.375881,0,2,0,0,0,0,61,64,178,170,90,134.13,15,2.00,-34.00,-951.00
2024-06-07 10:52:18.479576,0,1,0,0,0,0,62,64,176,170,90,134.18,15,-1.00,-50.00,-965.00
2024-06-07 10:52:18.579808,0,2,0,0,0,1,62,64,175,160,90,134.23,15,13.00,-33.00,-904.00
2024-06-07 10:52:18.783832,0,2,0,0,0,2,62,64,173,160,90,134.19,15,13.00,-26.00,-976.00
2024-06-07 10:52:18.783923,0,2,0,0,0,2,62,64,171,160,90,134.16,16,6.00,-43.00,-971.00
2024-06-07 10:52:18.886259,0,2,0,0,0,2,62,64,167,160,90,134.11,16,23.00,-32.00,-1010.00
2024-06-07 10:52:18.988640,0,2,0,0,0,2,62,64,164,150,90,134.14,16,12.00,-39.00,-981.00
2024-06-07 10:52:19.090767,0,2,0,0,0,2,62,64,161,150,90,134.08,16,19.00,-52.00,-1004.00
2024-06-07 10:52:19.193159,1,2,0,0,0,3,62,64,156,150,90,134.03,16,-1.00,-50.00,-1016.00
2024-06-07 10:52:19.295333,1,2,0,0,0,3,62,64,154,140,90,134.07,16,13.00,-49.00,-1022.00
2024-06-07 10:52:19.395682,1,2,0,0,0,2,62,64,152,140,90,133.92,16,11.00,-40.00,-1073.00
2024-06-07 10:52:19.500393,1,2,0,0,0,2,62,65,148,140,90,134.04,16,12.00,-42.00,-1039.00
2024-06-07 10:52:19.600863,0,2,0,0,0,2,62,65,147,140,90,134.01,16,7.00,-51.00,-1014.00
2024-06-07 10:52:19.701610,0,1,0,0,0,2,62,65,143,130,90,133.94,16,12.00,-31.00,-1044.00
2024-06-07 10:52:19.807617,0,2,0,0,0,2,62,65,141,130,90,133.97,17,-6.00,-29.00,-986.00
2024-06-07 10:52:19.905639,0,2,0,0,0,1,62,65,139,130,90,133.94,17,4.00,-39.00,-1042.00
2024-06-07 10:52:20.013961,0,1,0,0,0,1,62,65,139,130,90,133.96,17,7.00,-43.00,-1050.00
2024-06-07 10:52:20.109534,0,2,0,0,0,1,62,65,137,130,90,133.90,17,8.00,-38.00,-1079.00
2024-06-07 10:52:20.218489,0,1,0,0,0,1,62,65,137,120,90,133.92,17,8.00,-46.00,-998.00
2024-06-07 10:52:20.313689,0,1,0,0,0,1,62,65,135,120,90,133.96,17,14.00,-37.00,-1023.00
2024-06-07 10:52:20.422310,0,1,0,0,0,1,62,65,134,120,90,133.83,17,5.00,-56.00,-1011.00
2024-06-07 10:52:20.518842,0,1,0,0,0,0,62,64,132,120,90,133.87,17,2.00,-48.00,-989.00
2024-06-07 10:52:20.627430,0,2,0,0,0,0,62,64,133,120,90,133.92,17,0.00,-48.00,-973.00
2024-06-07 10:52:20.722590,0,2,0,0,0,0,62,64,133,120,90,133.85,17,-4.00,-48.00,-1028.00
2024-06-07 10:52:20.824422,0,2,0,0,0,0,62,64,132,120,90,133.81,18,0.00,-39.00,-1006.00
2024-06-07 10:52:20.934128,0,2,0,0,0,0,62,64,133,120,90,133.89,18,17.00,-41.00,-1019.00
2024-06-07 10:52:21.028370,0,2,0,0,0,0,62,64,134,120,90,133.89,18,-4.00,-46.00,-954.00
2024-06-07 10:52:21.080084,0,2,0,0,0,0,62,64,134,120,90,133.87,18,6.00,-35.00,-1010.00
2024-06-07 10:52:21.241549,0,2,0,0,0,0,62,64,133,120,90,133.89,18,15.00,-30.00,-1059.00
2024-06-07 10:52:21.283977,0,2,0,0,0,0,62,64,134,120,90,133.93,18,9.00,-25.00,-968.00
2024-06-07 10:52:21.446033,0,1,0,0,0,0,62,64,133,120,90,133.88,18,-12.00,-24.00,-964.00
2024-06-07 10:52:21.488414,0,1,0,0,0,0,61,64,133,120,90,133.92,18,-1.00,-19.00,-982.00
2024-06-07 10:52:21.653488,0,1,0,0,0,0,61,64,133,120,90,133.93,18,3.00,-31.00,-1050.00
2024-06-07 10:52:21.691494,0,1,0,0,0,0,61,64,133,120,90,133.91,18,-3.00,-39.00,-980.00
2024-06-07 10:52:21.856150,0,1,0,0,0,0,61,64,132,120,90,133.92,19,-13.00,-36.00,-998.00
2024-06-07 10:52:21.895980,0,1,0,0,0,0,61,64,131,120,90,133.86,19,3.00,-28.00,-1001.00
2024-06-07 10:52:22.062087,0,1,0,0,0,0,61,64,130,120,90,133.88,19,9.00,-23.00,-980.00
2024-06-07 10:52:22.099547,0,1,0,0,0,0,61,64,131,120,90,133.84,19,-12.00,-38.00,-956.00
2024-06-07 10:52:22.266244,0,2,0,0,0,0,61,64,131,120,90,133.84,19,2.00,-46.00,-993.00
2024-06-07 10:52:22.303743,0,2,0,0,0,0,61,64,132,120,90,133.81,19,0.00,-43.00,-1012.00
2024-06-07 10:52:22.425755,0,2,0,0,0,0,61,64,131,120,90,133.90,19,11.00,-47.00,-1063.00
2024-06-07 10:52:22.507515,0,2,0,0,0,0,62,65,132,120,90,133.81,19,-13.00,-42.00,-957.00
2024-06-07 10:52:22.675082,0,2,0,0,0,0,62,65,132,120,90,133.94,19,8.00,-45.00,-999.00
2024-06-07 10:52:22.711507,-6,2,0,0,0,0,62,65,133,120,90,133.87,19,-1.00,-40.00,-954.00
2024-06-07 10:52:22.880232,-8,2,0,1,0,0,62,65,135,120,90,133.94,20,7.00,-42.00,-1032.00
2024-06-07 10:52:22.915429,-8,2,0,3,0,0,62,65,135,120,90,133.87,20,-37.00,-27.00,-995.00
2024-06-07 10:52:23.084445,-8,2,0,4,0,0,62,65,136,120,90,133.87,20,-40.00,-17.00,-1050.00
2024-06-07 10:52:23.119469,-7,1,0,5,0,0,62,65,135,120,90,133.86,20,-44.00,-27.00,-985.00
2024-06-07 10:52:23.291279,-7,1,0,6,0,0,62,65,136,120,90,133.82,20,-54.00,-24.00,-976.00
2024-06-07 10:52:23.324032,-6,1,0,7,0,0,62,65,135,120,90,133.84,20,-47.00,-20.00,-992.00
2024-06-07 10:52:23.494081,-5,1,0,7,0,0,62,65,136,120,90,133.83,20,-47.00,-14.00,-972.00
2024-06-07 10:52:23.529819,-2,1,0,7,0,0,63,65,136,120,90,133.97,20,-53.00,-8.00,-954.00
2024-06-07 10:52:23.629452,0,1,0,7,0,0,63,65,137,120,90,133.91,20,-52.00,-30.00,-1018.00
2024-06-07 10:52:23.801236,2,0,0,6,0,0,63,65,137,120,90,133.98,20,-44.00,-24.00,-1002.00
2024-06-07 10:52:23.836443,4,0,0,5,0,0,63,65,139,120,90,133.95,21,-34.00,-29.00,-954.00
2024-06-07 10:52:23.935602,4,0,0,4,0,0,63,65,140,120,90,133.97,21,-16.00,-28.00,-982.00
2024-06-07 10:52:24.110865,3,-1,0,4,0,0,63,65,141,120,90,133.95,21,-13.00,-20.00,-1031.00
2024-06-07 10:52:24.139363,1,0,0,3,0,0,63,65,141,130,90,133.95,21,-14.00,-24.00,-1038.00
2024-06-07 10:52:24.313166,1,0,0,3,0,0,63,65,143,130,90,133.99,21,-17.00,-19.00,-980.00
2024-06-07 10:52:24.343391,0,0,0,3,0,0,63,65,142,130,90,134.02,21,-12.00,-33.00,-914.00
2024-06-07 10:52:24.519493,0,1,0,2,0,0,63,65,142,130,90,133.93,21,-14.00,-9.00,-979.00
2024-06-07 10:52:24.547576,0,2,0,2,0,0,62,66,141,130,90,134.05,21,-6.00,-28.00,-987.00
2024-06-07 10:52:24.722827,2,0,0,2,0,0,62,66,141,130,90,134.05,21,-5.00,-22.00,-966.00
2024-06-07 10:52:24.751397,2,-2,0,1,0,0,62,66,140,130,90,133.92,21,-14.00,-35.00,-1028.00
2024-06-07 10:52:24.928877,3,-2,0,1,0,0,62,66,139,130,90,133.92,22,-3.00,-56.00,-989.00
2024-06-07 10:52:24.955386,2,2,0,0,-1,0,62,66,139,130,90,133.93,22,-4.00,-13.00,-946.00
2024-06-07 10:52:25.133875,1,5,0,0,0,0,62,66,138,130,90,133.98,22,6.00,-26.00,-1034.00
2024-06-07 10:52:25.134363,0,3,0,0,0,0,62,66,137,130,90,133.91,22,4.00,-22.00,-1006.00
2024-06-07 10:52:25.210214,0,2,0,0,0,0,62,66,136,130,90,133.96,22,5.00,-35.00,-924.00
2024-06-07 10:52:25.337449,0,1,0,0,0,0,62,66,135,120,90,133.92,22,-4.00,-29.00,-1013.00
2024-06-07 10:52:25.414287,0,1,0,0,0,0,62,66,134,120,90,133.94,22,-1.00,-13.00,-1020.00
2024-06-07 10:52:25.567233,0,1,0,0,0,0,63,65,133,120,89,133.92,22,18.00,-30.00,-1042.00
2024-06-07 10:52:25.747160,0,1,0,0,0,0,63,65,132,120,89,133.89,22,18.00,-14.00,-1061.00
2024-06-07 10:52:25.771428,0,0,0,0,0,0,63,65,133,120,89,133.93,22,-3.00,-19.00,-1037.00
2024-06-07 10:52:25.822746,1,0,0,0,0,0,63,65,133,120,89,133.98,23,22.00,-21.00,-1024.00
2024-06-07 10:52:25.951968,1,0,0,0,0,0,63,65,131,120,89,133.89,23,8.00,-23.00,-1003.00
2024-06-07 10:52:26.026501,0,0,0,0,0,0,63,65,132,120,89,133.87,23,-5.00,-23.00,-1020.00
2024-06-07 10:52:26.156456,0,0,0,0,0,0,63,65,131,120,89,133.89,23,2.00,-21.00,-1047.00
2024-06-07 10:52:26.230216,0,0,0,0,0,0,63,65,132,120,89,133.85,23,13.00,-47.00,-1041.00
2024-06-07 10:52:26.361749,0,1,0,0,0,0,63,65,132,120,89,133.91,23,0.00,-4.00,-958.00
2024-06-07 10:52:26.434127,0,1,0,0,0,0,63,65,132,120,89,134.03,23,2.00,-54.00,-978.00
2024-06-07 10:52:26.566168,0,1,0,0,0,0,63,65,132,120,89,134.02,23,8.00,-55.00,-1011.00
2024-06-07 10:52:26.638523,0,1,0,0,0,0,63,65,132,120,89,133.96,23,32.00,-37.00,-1042.00
2024-06-07 10:52:26.772362,0,1,0,0,0,0,63,65,132,120,89,133.95,23,10.00,-44.00,-1012.00
2024-06-07 10:52:26.842427,0,1,0,0,0,0,63,65,132,120,89,133.97,24,7.00,-31.00,-996.00
2024-06-07 10:52:26.975718,0,1,0,0,0,0,63,65,132,120,89,133.90,24,4.00,-28.00,-1001.00
2024-06-07 10:52:27.046203,0,1,0,0,0,0,63,65,132,120,89,133.93,24,15.00,-29.00,-1004.00
2024-06-07 10:52:27.148145,0,1,0,0,0,0,63,65,132,120,89,133.99,24,6.00,-44.00,-992.00
2024-06-07 10:52:27.282867,0,1,0,0,0,0,63,65,133,120,89,133.93,24,-1.00,-43.00,-1040.00
2024-06-07 10:52:27.352263,1,1,0,0,0,0,63,65,132,120,89,133.88,24,-6.00,-38.00,-949.00
2024-06-07 10:52:27.487584,6,2,0,0,0,0,63,65,134,120,89,133.92,24,0.00,-39.00,-999.00
2024-06-07 10:52:27.556022,8,2,0,-1,0,0,63,65,133,120,89,133.91,24,22.00,-40.00,-983.00
2024-06-07 10:52:27.696653,8,1,0,-2,0,0,63,65,134,120,89,133.91,24,54.00,-61.00,-1020.00
2024-06-07 10:52:27.760007,8,2,0,-3,0,0,63,65,133,120,89,133.95,24,34.00,-52.00,-961.00
2024-06-07 10:52:27.862161,8,2,0,-4,0,0,63,65,134,120,89,133.92,25,53.00,-48.00,-1092.00
2024-06-07 10:52:28.002379,8,2,0,-5,0,0,63,65,134,120,89,133.89,25,51.00,-42.00,-1014.00
2024-06-07 10:52:28.066678,7,3,0,-6,0,0,63,65,133,120,89,133.89,25,50.00,-51.00,-982.00
2024-06-07 10:52:28.204848,6,2,0,-7,0,0,63,65,131,120,89,133.90,25,50.00,-55.00,-964.00
2024-06-07 10:52:28.270432,4,2,0,-7,0,0,63,65,131,120,89,133.88,25,51.00,-47.00,-995.00
2024-06-07 10:52:28.371979,1,2,0,-8,0,0,63,65,131,120,89,133.90,25,58.00,-50.00,-1050.00
2024-06-07 10:52:28.511729,-1,3,0,-7,0,0,63,65,131,120,89,133.98,25,65.00,-30.00,-968.00
2024-06-07 10:52:28.576631,-3,1,0,-5,0,0,64,66,130,120,88,133.92,25,47.00,-52.00,-998.00
2024-06-07 10:52:28.716360,-2,2,0,-4,0,0,64,66,130,120,88,133.88,25,48.00,-74.00,-1003.00
2024-06-07 10:52:28.783658,0,3,0,-3,0,0,64,66,130,120,88,133.88,26,44.00,-70.00,-1024.00
2024-06-07 10:52:28.883147,0,3,0,-3,0,0,64,66,130,120,88,133.88,26,17.00,-63.00,-992.00
2024-06-07 10:52:29.024831,0,3,0,-3,0,0,64,66,130,120,88,133.87,26,26.00,-47.00,-1055.00
2024-06-07 10:52:29.086017,0,3,0,-2,0,0,64,66,128,120,88,133.92,26,41.00,-53.00,-1021.00
2024-06-07 10:52:29.232052,0,2,0,-2,0,0,64,66,128,120,88,133.99,26,22.00,-67.00,-956.00
2024-06-07 10:52:29.241150,1,3,0,-2,0,0,64,66,128,120,88,133.99,26,25.00,-55.00,-1049.00
2024-06-07 10:52:29.349994,1,3,0,-2,0,0,64,66,128,120,88,133.97,26,15.00,-70.00,-962.00
2024-06-07 10:52:29.443100,0,3,0,-2,0,0,64,66,128,120,88,133.90,26,29.00,-31.00,-1070.00
2024-06-07 10:52:29.642676,0,2,0,-2,0,0,63,66,128,120,88,133.88,26,19.00,-47.00,-1019.00
2024-06-07 10:52:29.647138,-4,2,0,-1,0,0,63,66,128,120,88,133.87,26,33.00,-59.00,-1014.00
2024-06-07 10:52:29.843667,-1,2,0,0,0,0,63,66,129,120,88,133.89,27,4.00,-63.00,-1048.00
2024-06-07 10:52:29.851233,0,2,0,0,0,0,63,66,130,120,88,133.88,27,46.00,-63.00,-932.00
2024-06-07 10:52:30.047860,0,2,0,0,0,0,63,66,129,120,88,133.87,27,24.00,-58.00,-1041.00
2024-06-07 10:52:30.056849,0,2,0,0,0,0,63,66,130,120,88,133.86,27,11.00,-61.00,-1017.00
2024-06-07 10:52:30.157543,0,2,0,0,0,0,63,66,132,120,88,133.93,27,-1.00,-59.00,-973.00
2024-06-07 10:52:30.259416,0,2,0,0,0,0,63,66,131,120,88,133.88,27,15.00,-68.00,-977.00
2024-06-07 10:52:30.361213,0,2,0,0,0,0,63,66,133,120,88,133.89,27,4.00,-54.00,-1016.00
2024-06-07 10:52:30.560016,0,2,0,0,0,0,63,66,134,120,88,133.94,27,-1.00,-70.00,-1076.00
2024-06-07 10:52:30.568402,0,2,0,0,0,0,64,66,135,120,88,133.95,27,17.00,-32.00,-1003.00
2024-06-07 10:52:30.667259,1,2,0,0,0,0,64,66,135,120,88,133.97,27,25.00,-48.00,-971.00
2024-06-07 10:52:30.868332,1,2,0,0,0,0,64,66,138,120,88,133.99,28,18.00,-49.00,-902.00
2024-06-07 10:52:30.870850,1,2,0,0,0,0,64,66,139,120,88,134.01,28,26.00,-39.00,-973.00
2024-06-07 10:52:30.972860,1,1,0,0,0,0,64,66,140,120,88,133.98,28,28.00,-47.00,-969.00
2024-06-07 10:52:31.075254,2,2,0,0,0,0,64,66,140,120,88,134.03,28,17.00,-68.00,-1013.00
2024-06-07 10:52:31.276594,1,2,0,0,0,0,64,66,142,130,88,134.02,28,14.00,-42.00,-982.00
2024-06-07 10:52:31.280266,1,3,0,0,0,0,64,66,144,130,88,134.04,28,19.00,-69.00,-966.00
2024-06-07 10:52:31.381370,1,3,0,0,0,0,64,66,143,130,88,134.08,28,34.00,-38.00,-1010.00
2024-06-07 10:52:31.584786,1,3,0,0,0,0,64,66,145,130,88,134.00,28,19.00,-54.00,-979.00
2024-06-07 10:52:31.585252,1,2,0,0,0,0,64,67,144,130,88,134.02,28,26.00,-21.00,-992.00
2024-06-07 10:52:31.687673,1,2,0,0,0,0,64,67,143,130,88,134.11,28,33.00,-47.00,-1042.00
2024-06-07 10:52:31.847199,1,2,0,0,0,0,64,67,144,130,88,134.08,29,39.00,-37.00,-1010.00
2024-06-07 10:52:31.891960,2,2,0,0,0,0,64,67,143,130,88,134.07,29,27.00,-29.00,-1007.00
2024-06-07 10:52:31.994090,2,1,0,0,0,0,64,67,142,130,88,134.07,29,13.00,-20.00,-901.00
2024-06-07 10:52:32.096412,0,-5,0,0,0,0,64,67,143,130,88,133.98,29,35.00,-61.00,-1051.00
2024-06-07 10:52:32.197693,1,-6,0,0,-1,0,64,67,143,130,88,134.01,29,29.00,-40.00,-989.00
2024-06-07 10:52:32.302984,1,-3,0,0,-3,0,64,67,141,120,88,134.01,29,19.00,-12.00,-1012.00
2024-06-07 10:52:32.400930,1,0,0,0,-3,0,64,67,140,120,88,133.94,29,19.00,5.00,-1052.00
2024-06-07 10:52:32.502772,1,2,0,0,-3,0,64,67,140,120,88,133.94,29,5.00,-21.00,-1035.00
2024-06-07 10:52:32.604755,1,3,0,0,-3,0,65,67,140,130,87,133.88,29,16.00,19.00,-969.00
2024-06-07 10:52:32.706763,1,2,0,0,-2,0,65,67,139,130,87,133.95,29,10.00,-21.00,-933.00
2024-06-07 10:52:32.810055,1,1,0,0,-2,0,65,67,137,120,87,134.00,30,15.00,-29.00,-1022.00
2024-06-07 10:52:32.911061,1,1,0,0,-2,0,65,67,138,120,87,134.03,30,29.00,12.00,-1040.00
2024-06-07 10:52:33.013191,1,0,0,0,-2,0,65,67,138,120,87,133.96,30,13.00,-5.00,-1052.00
2024-06-07 10:52:33.120358,1,0,0,0,-1,0,65,67,137,120,87,133.96,30,28.00,-10.00,-975.00
2024-06-07 10:52:33.222337,1,0,0,0,-2,0,65,67,136,120,87,133.96,30,14.00,-12.00,-1023.00
2024-06-07 10:52:33.267795,1,0,0,0,-2,0,65,67,137,120,87,133.95,30,29.00,6.00,-991.00
2024-06-07 10:52:33.369650,1,0,0,0,-2,0,65,67,138,120,87,133.98,30,6.00,-8.00,-999.00
2024-06-07 10:52:33.529259,1,0,0,0,-2,0,65,67,136,120,87,134.03,30,23.00,-12.00,-969.00
2024-06-07 10:52:33.625135,1,0,0,0,-2,0,65,67,135,120,87,133.96,30,11.00,-9.00,-992.00
2024-06-07 10:52:33.735867,1,0,0,0,-1,0,65,67,137,120,87,134.03,30,18.00,-17.00,-1049.00
2024-06-07 10:52:33.777649,1,0,0,0,-1,0,65,67,136,120,87,133.96,31,26.00,-2.00,-1009.00
2024-06-07 10:52:33.939094,2,0,0,0,-1,0,65,67,136,120,87,133.96,31,18.00,9.00,-999.00
2024-06-07 10:52:33.986569,4,0,0,0,-1,0,65,67,135,120,87,134.04,31,10.00,4.00,-978.00
2024-06-07 10:52:34.084073,3,0,0,0,-1,0,65,67,134,120,87,134.01,31,19.00,7.00,-1030.00
2024-06-07 10:52:34.246604,1,0,0,-1,-1,0,65,67,133,120,87,133.97,31,36.00,0.00,-982.00
2024-06-07 10:52:34.288721,-1,1,0,0,-1,0,65,67,132,120,87,133.98,31,23.00,-30.00,-1065.00
2024-06-07 10:52:34.391054,0,5,0,0,-1,0,65,67,135,120,87,133.91,31,12.00,8.00,-1016.00
2024-06-07 10:52:34.565667,1,3,0,0,0,0,65,67,134,120,87,134.00,31,23.00,-19.00,-995.00
2024-06-07 10:52:34.597719,1,1,0,0,0,0,65,67,132,120,87,133.98,31,19.00,-13.00,-1040.00
2024-06-07 10:52:34.698387,1,1,0,0,0,0,65,67,133,120,87,134.00,31,24.00,0.00,-1040.00
2024-06-07 10:52:34.797834,1,1,0,0,0,0,65,67,131,120,87,133.92,32,29.00,-33.00,-972.00
2024-06-07 10:52:34.963973,1,0,0,0,0,0,65,67,130,120,87,133.99,32,19.00,-26.00,-943.00
2024-06-07 10:52:35.001773,1,0,0,0,0,0,65,67,131,120,87,133.95,32,11.00,8.00,-988.00
2024-06-07 10:52:35.167644,1,0,0,0,0,0,65,67,130,120,87,133.97,32,15.00,-18.00,-950.00
2024-06-07 10:52:35.206023,1,0,0,0,0,0,65,67,127,120,87,133.95,32,33.00,-22.00,-1039.00
2024-06-07 10:52:35.309932,1,0,0,0,0,0,65,67,128,120,87,133.84,32,-20.00,-15.00,-1029.00
2024-06-07 10:52:35.409633,1,0,0,0,0,0,65,67,127,120,87,133.95,32,34.00,-23.00,-966.00
2024-06-07 10:52:35.577405,1,0,0,0,0,0,65,67,128,120,87,133.94,32,37.00,-29.00,-987.00
2024-06-07 10:52:35.615573,1,0,0,0,0,0,66,67,127,120,87,133.94,32,1.00,0.00,-1069.00
2024-06-07 10:52:35.715989,1,0,0,0,0,0,66,67,127,120,87,133.96,32,14.00,3.00,-1040.00
2024-06-07 10:52:35.828775,1,0,0,0,0,0,66,67,128,120,87,133.93,33,6.00,-16.00,-1050.00
2024-06-07 10:52:35.923577,1,0,0,0,0,0,66,67,127,120,87,133.90,33,29.00,-24.00,-1000.00
2024-06-07 10:52:36.021727,1,0,0,0,0,0,66,67,126,120,87,133.88,33,16.00,-8.00,-1020.00
2024-06-07 10:52:36.123802,1,0,0,0,0,0,66,67,126,120,87,133.88,33,18.00,8.00,-1027.00
2024-06-07 10:52:36.227248,1,0,0,0,0,0,66,67,125,120,87,133.98,33,11.00,-7.00,-998.00
2024-06-07 10:52:36.330160,1,0,0,0,0,0,66,67,126,120,87,133.96,33,28.00,-14.00,-962.00
2024-06-07 10:52:36.429704,1,0,0,0,0,0,66,67,123,120,87,133.91,33,-7.00,36.00,-1112.00
2024-06-07 10:52:36.567358,1,-1,0,0,0,0,66,67,124,110,86,133.84,33,6.00,35.00,-1005.00
2024-06-07 10:52:36.634544,1,-1,0,0,0,0,65,68,125,110,86,133.87,33,25.00,-9.00,-1048.00
2024-06-07 10:52:36.807191,1,0,0,0,0,0,65,68,125,110,86,133.93,33,-7.00,-5.00,-1017.00
2024-06-07 10:52:36.851296,0,7,0,0,0,0,65,68,125,110,86,133.96,34,0.00,-18.00,-997.00
2024-06-07 10:52:36.939484,0,8,0,0,1,0,65,68,127,110,86,133.92,34,26.00,31.00,-1030.00
2024-06-07 10:52:37.113688,0,6,0,0,3,0,65,68,126,110,86,133.93,34,21.00,-51.00,-949.00
2024-06-07 10:52:37.143478,0,3,0,0,3,0,65,68,126,110,86,133.97,34,19.00,-11.00,-993.00
2024-06-07 10:52:37.245537,1,1,0,0,4,0,65,68,127,120,86,133.93,34,1.00,-15.00,-1047.00
2024-06-07 10:52:37.420353,1,0,0,0,4,0,65,68,128,120,86,133.95,34,9.00,-21.00,-981.00
2024-06-07 10:52:37.449585,1,0,0,0,3,0,65,68,129,120,86,133.94,34,41.00,-37.00,-1034.00
2024-06-07 10:52:37.500389,1,0,0,0,3,0,65,68,130,120,86,133.94,34,9.00,-5.00,-1011.00
2024-06-07 10:52:37.653511,1,0,0,0,3,0,65,68,130,120,86,133.97,34,30.00,-42.00,-948.00
2024-06-07 10:52:37.704379,1,0,0,0,2,0,65,68,130,120,86,133.95,34,12.00,-10.00,-981.00
2024-06-07 10:52:37.830174,1,0,0,0,2,0,65,68,130,120,86,133.98,35,18.00,-26.00,-996.00
2024-06-07 10:52:37.908459,1,0,0,0,2,0,65,68,129,120,86,133.96,35,21.00,-44.00,-1028.00
2024-06-07 10:52:38.034802,1,0,0,0,2,0,65,68,130,120,86,134.01,35,34.00,-33.00,-947.00
2024-06-07 10:52:38.113616,3,0,0,0,2,0,65,68,129,120,86,133.99,35,26.00,-27.00,-952.00
2024-06-07 10:52:38.214499,5,-1,0,0,2,0,65,68,130,120,86,134.01,35,19.00,-14.00,-1067.00
2024-06-07 10:52:38.345979,5,-3,0,-1,1,0,65,68,130,120,86,133.93,35,28.00,-31.00,-1039.00
2024-06-07 10:52:38.418737,1,-1,0,-1,0,0,65,68,130,120,86,133.97,35,32.00,-22.00,-971.00
2024-06-07 10:52:38.552539,-3,0,0,-1,0,0,65,68,129,120,86,133.98,35,7.00,-29.00,-944.00
2024-06-07 10:52:38.622759,-1,0,0,0,0,0,65,68,129,120,86,133.96,35,16.00,0.00,-979.00
2024-06-07 10:52:38.758534,0,0,0,0,0,0,65,68,129,120,86,133.93,35,21.00,-25.00,-962.00
2024-06-07 10:52:38.826517,0,0,0,0,0,0,65,68,130,120,86,133.99,36,12.00,-23.00,-965.00
2024-06-07 10:52:38.956652,1,0,0,0,0,0,65,68,129,120,86,134.02,36,17.00,-22.00,-951.00
2024-06-07 10:52:39.031178,1,0,0,0,0,0,65,68,129,120,86,133.98,36,27.00,-33.00,-1037.00
2024-06-07 10:52:39.161450,1,0,0,0,0,0,65,68,129,120,86,134.04,36,9.00,-22.00,-1004.00
2024-06-07 10:52:39.235985,1,0,0,0,0,0,65,68,129,120,86,133.96,36,9.00,-40.00,-1021.00
2024-06-07 10:52:39.338305,1,0,0,0,0,0,65,68,130,120,86,133.98,36,13.00,-21.00,-1007.00
2024-06-07 10:52:39.439292,1,1,0,0,0,0,65,68,130,120,86,133.98,36,9.00,-47.00,-991.00
2024-06-07 10:52:39.570816,1,1,0,0,0,0,65,68,131,120,86,134.02,36,10.00,-31.00,-980.00
2024-06-07 10:52:39.642439,1,1,0,0,0,0,66,68,131,120,86,134.06,36,15.00,-11.00,-1005.00
2024-06-07 10:52:39.749512,1,1,0,0,0,0,66,68,132,120,86,134.05,36,5.00,-35.00,-964.00
2024-06-07 10:52:39.846430,1,1,0,0,0,0,66,68,132,120,86,134.04,37,21.00,-32.00,-948.00
2024-06-07 10:52:39.980531,1,1,0,0,0,0,66,68,132,120,86,134.08,37,9.00,-32.00,-1018.00
2024-06-07 10:52:40.050507,1,1,0,0,0,0,66,68,132,120,86,133.98,37,12.00,-35.00,-1018.00
2024-06-07 10:52:40.185272,1,1,0,0,0,0,66,68,132,120,86,134.03,37,9.00,-46.00,-1007.00
2024-06-07 10:52:40.254434,1,1,0,0,0,0,66,68,133,120,86,134.05,37,10.00,-47.00,-943.00
2024-06-07 10:52:40.391244,1,1,0,0,0,0,66,68,133,120,86,134.00,37,6.00,-41.00,-965.00
2024-06-07 10:52:40.458438,1,2,0,0,0,0,66,68,133,120,86,134.04,37,10.00,-38.00,-937.00
2024-06-07 10:52:40.575735,0,2,0,0,0,0,66,68,133,120,86,134.08,37,0.00,-41.00,-976.00
2024-06-07 10:52:40.662862,0,2,0,0,0,0,66,69,134,120,86,134.04,37,7.00,-46.00,-965.00
2024-06-07 10:52:40.840427,1,2,1,0,0,0,66,69,134,120,86,134.06,37,27.00,-4.00,-967.00
2024-06-07 10:52:40.866312,0,2,6,0,0,0,66,69,135,120,86,134.03,38,6.00,-34.00,-1007.00
2024-06-07 10:52:41.005721,0,1,12,0,0,0,66,69,136,120,86,134.05,38,5.00,-36.00,-1019.00
2024-06-07 10:52:41.072590,0,1,18,0,0,0,66,69,135,120,86,134.08,38,-8.00,-26.00,-1014.00
2024-06-07 10:52:41.173144,0,1,24,0,0,0,66,69,135,120,86,134.11,38,11.00,-51.00,-981.00
2024-06-07 10:52:41.228295,0,1,30,0,0,0,66,69,136,120,86,134.06,38,-4.00,-27.00,-954.00
2024-06-07 10:52:41.325633,0,1,36,0,0,0,66,69,136,120,86,134.05,38,0.00,-29.00,-985.00
2024-06-07 10:52:41.427229,0,2,42,0,0,0,66,69,135,120,86,134.05,38,-14.00,-27.00,-998.00
2024-06-07 10:52:41.530445,0,2,47,0,0,0,66,69,136,120,85,134.07,38,-18.00,-42.00,-1022.00
2024-06-07 10:52:41.631191,0,2,53,0,0,0,66,69,135,120,85,134.12,38,-10.00,-28.00,-1047.00
2024-06-07 10:52:41.824114,0,2,59,0,0,0,66,69,136,120,85,134.08,38,-2.00,-17.00,-985.00
2024-06-07 10:52:41.835696,0,2,65,0,0,0,66,69,135,120,85,134.03,39,-27.00,-56.00,-968.00
2024-06-07 10:52:42.034603,0,2,71,0,0,0,66,69,134,120,85,134.08,39,-18.00,-23.00,-995.00
2024-06-07 10:52:42.054281,-1,2,78,0,0,0,66,69,134,120,85,134.05,39,-34.00,-27.00,-1061.00
2024-06-07 10:52:42.144634,-1,2,84,0,0,0,66,69,133,120,85,134.05,39,-41.00,-33.00,-952.00
2024-06-07 10:52:42.243345,-1,2,90,0,0,0,66,69,135,120,85,134.13,39,-46.00,-34.00,-993.00
2024-06-07 10:52:42.351445,-1,2,96,0,0,0,66,69,134,120,85,134.06,39,-34.00,-23.00,-972.00
2024-06-07 10:52:42.451764,-1,1,101,0,0,0,66,69,134,120,85,134.08,39,-46.00,-5.00,-1046.00
2024-06-07 10:52:42.549261,-2,0,106,0,0,0,66,69,133,120,85,134.00,39,-57.00,-7.00,-983.00
2024-06-07 10:52:42.651392,-2,0,117,0,0,0,66,69,133,120,85,133.99,39,-47.00,-45.00,-1018.00
2024-06-07 10:52:42.753160,-2,0,122,0,0,0,66,69,132,120,85,133.96,40,-50.00,-58.00,-995.00
2024-06-07 10:52:42.953045,-2,0,127,0,0,0,66,69,133,120,85,133.98,40,-31.00,-12.00,-1008.00
2024-06-07 10:52:42.958466,-2,1,133,0,0,0,66,69,132,120,85,133.94,40,-63.00,-22.00,-1000.00
2024-06-07 10:52:43.154886,-2,1,138,0,0,0,66,69,132,120,85,133.94,40,-53.00,-10.00,-1041.00
2024-06-07 10:52:43.163296,-2,1,144,0,0,0,66,69,132,120,85,134.07,40,-64.00,11.00,-1078.00
2024-06-07 10:52:43.263693,-2,1,150,0,0,0,66,69,133,120,85,134.00,40,-47.00,-24.00,-996.00
2024-06-07 10:52:43.462359,-3,1,156,0,0,0,66,69,133,120,85,134.07,40,-37.00,-30.00,-990.00
2024-06-07 10:52:43.467396,-2,0,162,0,0,0,66,69,133,120,85,134.04,40,-49.00,-23.00,-1033.00
2024-06-07 10:52:43.666756,-3,0,168,0,0,0,66,69,133,120,85,134.07,40,-57.00,-14.00,-1059.00
2024-06-07 10:52:43.671364,-3,0,174,0,0,0,66,69,134,120,85,134.01,40,-61.00,10.00,-973.00
2024-06-07 10:52:43.871681,-2,0,-179,0,0,0,66,69,136,120,85,134.08,41,-52.00,3.00,-1000.00
2024-06-07 10:52:43.875048,-2,0,-173,0,0,0,66,69,135,120,85,134.03,41,-43.00,20.00,-980.00
2024-06-07 10:52:43.977178,-1,0,-167,0,0,0,66,69,136,120,85,134.04,41,-26.00,24.00,-975.00
2024-06-07 10:52:44.079244,-1,0,-161,0,0,0,66,69,136,120,85,134.05,41,-26.00,-12.00,-1000.00
2024-06-07 10:52:44.181485,-1,0,-156,0,0,0,66,69,137,120,85,134.04,41,-49.00,0.00,-1069.00
2024-06-07 10:52:44.283168,-1,0,-150,0,0,0,66,69,138,120,85,134.15,41,-26.00,5.00,-1034.00
2024-06-07 10:52:44.386838,-1,0,-145,0,0,0,66,69,137,120,85,134.14,41,-37.00,-7.00,-1058.00
2024-06-07 10:52:44.489040,-1,1,-139,0,0,0,66,69,136,120,85,134.09,41,-10.00,8.00,-958.00
2024-06-07 10:52:44.590114,-1,1,-134,0,0,0,66,69,137,120,85,134.09,41,-26.00,2.00,-961.00
2024-06-07 10:52:44.793195,-1,1,-128,0,0,0,67,69,137,120,85,134.07,41,-48.00,-10.00,-1031.00
2024-06-07 10:52:44.796993,-2,0,-123,0,0,0,67,69,137,120,85,134.08,42,-36.00,12.00,-1008.00
2024-06-07 10:52:44.896293,-2,0,-117,0,0,0,67,69,137,120,85,134.12,42,-22.00,28.00,-1029.00
2024-06-07 10:52:44.998967,-2,0,-111,0,0,0,67,69,139,120,85,134.20,42,-38.00,8.00,-951.00
2024-06-07 10:52:45.100651,-2,0,-104,0,0,0,67,69,140,120,85,134.20,42,-29.00,14.00,-997.00
2024-06-07 10:52:45.152610,-2,0,-98,0,0,0,67,69,140,120,85,134.21,42,-23.00,23.00,-991.00
2024-06-07 10:52:45.253791,-2,0,-91,0,0,0,67,69,141,120,85,134.20,42,-4.00,26.00,-976.00
2024-06-07 10:52:45.355144,-2,0,-84,0,0,0,67,69,140,120,85,134.11,42,-18.00,11.00,-977.00
2024-06-07 10:52:45.511044,-1,0,-78,0,0,0,67,69,141,120,85,134.21,42,-25.00,16.00,-963.00
2024-06-07 10:52:45.559784,-1,0,-71,0,0,0,67,69,142,120,84,134.17,42,-14.00,31.00,-965.00
2024-06-07 10:52:45.715900,-1,0,-65,0,0,0,68,70,143,120,84,134.18,42,-21.00,7.00,-1038.00
2024-06-07 10:52:45.763368,-1,0,-59,0,0,0,68,70,141,120,84,134.21,43,-18.00,12.00,-970.00
2024-06-07 10:52:45.865056,-1,0,-53,0,0,0,68,70,140,120,84,134.17,43,-23.00,14.00,-1003.00
2024-06-07 10:52:45.967020,-1,0,-47,0,0,0,68,70,142,120,84,134.18,43,-7.00,-10.00,-1028.00
2024-06-07 10:52:46.124310,-1,0,-41,0,0,0,68,70,141,120,84,134.23,43,-21.00,14.00,-1000.00
2024-06-07 10:52:46.171260,0,0,-35,0,0,0,68,70,141,120,84,134.14,43,-19.00,3.00,-973.00
2024-06-07 10:52:46.273055,-1,0,-29,0,0,0,68,70,140,120,84,134.24,43,-8.00,-17.00,-1004.00
2024-06-07 10:52:46.431572,0,0,-23,0,0,0,68,70,140,120,84,134.28,43,-13.00,7.00,-1009.00
2024-06-07 10:52:46.477031,0,0,-18,0,0,0,68,70,140,120,84,134.20,43,-9.00,7.00,-980.00
2024-06-07 10:52:46.637027,0,0,-13,0,0,0,68,70,139,120,84,134.15,43,-1.00,-1.00,-1036.00
2024-06-07 10:52:46.681247,0,0,-10,0,0,0,67,70,138,120,84,134.20,43,-14.00,2.00,-963.00
2024-06-07 10:52:46.841657,0,0,-8,0,0,0,67,70,138,120,84,134.21,44,-31.00,17.00,-987.00
2024-06-07 10:52:46.885025,0,0,-6,0,0,0,67,70,138,120,84,134.25,44,-22.00,22.00,-1025.00
2024-06-07 10:52:47.052933,0,0,-4,0,0,0,67,70,138,120,84,134.24,44,-18.00,6.00,-940.00
2024-06-07 10:52:47.089021,0,0,-3,0,0,0,67,70,136,120,84,134.23,44,-13.00,13.00,-947.00
2024-06-07 10:52:47.191129,0,0,-2,0,0,0,67,70,136,120,84,134.19,44,-20.00,5.00,-1018.00
2024-06-07 10:52:47.356382,0,0,-1,0,0,0,67,70,137,120,84,134.22,44,-8.00,9.00,-976.00
2024-06-07 10:52:47.395265,0,0,-1,0,0,0,67,70,135,120,84,134.20,44,-3.00,-11.00,-1029.00
2024-06-07 10:52:47.552266,0,0,0,0,0,0,67,70,136,120,84,134.26,44,-21.00,6.00,-958.00
2024-06-07 10:52:47.599253,0,0,0,0,0,0,67,70,135,120,84,134.21,44,-13.00,4.00,-1023.00
2024-06-07 10:52:47.771334,0,0,0,0,0,0,68,70,135,120,84,134.23,44,-4.00,-19.00,-1002.00
2024-06-07 10:52:47.803840,0,0,0,0,0,0,68,70,136,120,84,134.24,45,-17.00,-15.00,-989.00
2024-06-07 10:52:47.967550,0,0,0,0,0,0,68,70,136,120,84,134.21,45,-3.00,1.00,-1015.00
2024-06-07 10:52:48.008234,0,0,-1,0,0,0,68,70,134,120,84,134.20,45,-6.00,-17.00,-999.00
2024-06-07 10:52:48.172809,0,0,-1,0,0,0,68,70,134,120,84,134.15,45,-12.00,-13.00,-1033.00
2024-06-07 10:52:48.211974,0,0,-1,0,0,0,68,70,133,120,84,134.17,45,-10.00,7.00,-1021.00
2024-06-07 10:52:48.314066,0,0,-1,0,0,0,68,70,133,120,84,134.14,45,-21.00,-12.00,-1033.00
2024-06-07 10:52:48.416035,0,0,-1,0,0,0,68,70,132,120,84,134.17,45,-19.00,-23.00,-1008.00
2024-06-07 10:52:48.582195,0,0,-1,0,0,0,68,70,133,120,84,134.19,45,-11.00,-12.00,-1014.00
2024-06-07 10:52:48.620643,0,0,-1,0,0,0,68,70,132,120,84,134.17,45,0.00,25.00,-1000.00
2024-06-07 10:52:48.786798,0,0,-1,0,0,0,66,70,131,120,84,134.10,45,-24.00,19.00,-1047.00
2024-06-07 10:52:48.824333,0,0,-1,0,0,0,66,70,132,120,84,134.13,46,-11.00,-12.00,-1043.00
2024-06-07 10:52:48.992195,0,0,-1,0,0,0,66,70,132,120,84,134.12,46,-18.00,22.00,-1004.00
2024-06-07 10:52:49.027947,0,0,-1,0,0,0,66,70,132,120,84,134.21,46,-20.00,-10.00,-1076.00
2024-06-07 10:52:49.197039,0,0,-1,0,0,0,66,70,132,120,84,134.21,46,-15.00,-9.00,-987.00
2024-06-07 10:52:49.232259,0,0,-1,0,0,0,66,70,133,120,84,134.19,46,-5.00,17.00,-978.00
2024-06-07 10:52:49.286645,0,0,-1,0,0,0,66,70,133,120,84,134.24,46,-5.00,6.00,-1020.00
2024-06-07 10:52:49.385309,0,0,-1,0,0,0,66,70,133,120,84,134.23,46,0.00,-16.00,-1017.00
2024-06-07 10:52:49.503369,0,0,-2,0,0,0,66,70,133,120,84,134.23,46,-54.00,46.00,-1024.00
2024-06-07 10:52:49.588911,0,0,-9,0,0,0,66,70,133,120,84,134.23,46,-9.00,23.00,-1009.00
2024-06-07 10:52:49.709821,0,0,-15,0,0,0,67,70,132,120,84,134.23,46,-13.00,24.00,-1003.00
2024-06-07 10:52:49.793855,0,0,-22,0,0,0,67,70,132,120,84,134.22,47,-19.00,1.00,-984.00
2024-06-07 10:52:49.913104,0,0,-28,0,0,0,67,70,132,120,84,134.29,47,-7.00,24.00,-979.00
2024-06-07 10:52:49.996839,0,-1,-34,0,0,0,67,70,132,120,84,134.27,47,-13.00,11.00,-986.00
2024-06-07 10:52:50.117840,0,0,-40,0,0,0,67,70,133,120,84,134.22,47,-18.00,-5.00,-1010.00
2024-06-07 10:52:50.201110,0,-1,-45,0,0,0,67,70,132,120,84,134.30,47,-9.00,37.00,-996.00
2024-06-07 10:52:50.323582,0,-1,-51,0,0,0,67,70,132,120,84,134.20,47,-19.00,26.00,-986.00
2024-06-07 10:52:50.405618,0,-1,-57,0,0,0,67,70,132,120,84,134.21,47,-24.00,18.00,-955.00
2024-06-07 10:52:50.527540,-1,-1,-63,0,0,0,67,70,132,120,83,134.23,47,-18.00,3.00,-1022.00
2024-06-07 10:52:50.609791,-1,-1,-69,0,0,0,67,70,131,120,83,134.26,47,-20.00,33.00,-1008.00
2024-06-07 10:52:50.737908,-1,-1,-74,0,0,0,68,70,131,120,83,134.27,47,-29.00,21.00,-996.00
2024-06-07 10:52:50.813769,-1,-1,-80,0,0,0,68,70,131,120,83,134.18,48,-40.00,23.00,-1006.00
2024-06-07 10:52:50.937324,-1,-1,-85,0,0,0,68,70,131,120,83,134.23,48,-37.00,16.00,-1023.00
2024-06-07 10:52:51.018600,-2,0,-91,0,0,0,68,70,129,120,83,134.22,48,-21.00,28.00,-1040.00
2024-06-07 10:52:51.142442,-2,0,-97,0,0,0,68,70,130,120,83,134.15,48,-39.00,8.00,-1009.00
2024-06-07 10:52:51.221921,-2,0,-103,0,0,0,68,70,130,120,83,134.18,48,-54.00,2.00,-1036.00
2024-06-07 10:52:51.323904,-2,0,-109,0,0,0,68,70,129,120,83,134.20,48,-49.00,-9.00,-985.00
2024-06-07 10:52:51.425729,-2,0,-115,0,0,0,68,70,128,120,83,134.08,48,-33.00,1.00,-1049.00
2024-06-07 10:52:51.527767,-2,0,-120,0,0,0,68,70,129,120,83,134.19,48,-59.00,-9.00,-1019.00
2024-06-07 10:52:51.653890,-2,0,-126,0,0,0,68,70,129,120,83,134.14,48,-53.00,2.00,-987.00
2024-06-07 10:52:51.731736,-2,0,-132,0,0,0,67,70,130,120,83,134.24,48,-28.00,-8.00,-1037.00
2024-06-07 10:52:51.833728,-2,0,-138,0,0,0,67,70,130,120,83,134.26,49,-58.00,-23.00,-976.00
2024-06-07 10:52:51.961242,-2,0,-144,0,0,0,67,70,130,120,83,134.18,49,-48.00,1.00,-985.00
2024-06-07 10:52:52.037726,-2,1,-150,0,0,0,67,70,131,120,83,134.24,49,-38.00,-21.00,-977.00
2024-06-07 10:52:52.165906,-2,1,-156,0,0,0,67,70,132,120,83,134.15,49,-34.00,-35.00,-1012.00
2024-06-07 10:52:52.241656,-2,1,-161,0,0,0,67,70,131,120,83,134.20,49,-52.00,-41.00,-1012.00
2024-06-07 10:52:52.343676,-1,2,-167,0,0,0,67,70,132,120,83,134.27,49,-43.00,-45.00,-1016.00
2024-06-07 10:52:52.445719,-1,2,-173,0,0,0,67,70,132,120,83,134.30,49,-37.00,-35.00,-967.00
2024-06-07 10:52:52.575709,-1,2,-179,0,0,0,67,70,132,120,83,134.28,49,-32.00,-35.00,-982.00
2024-06-07 10:52:52.649879,-1,2,175,0,0,0,67,70,132,120,83,134.26,49,-28.00,-30.00,-950.00
2024-06-07 10:52:52.789235,-1,2,169,0,0,0,67,70,133,120,83,134.31,49,-17.00,-40.00,-950.00
2024-06-07 10:52:52.853703,0,2,163,0,0,0,67,70,133,120,83,134.31,50,-22.00,-56.00,-1026.00
2024-06-07 10:52:52.985670,0,2,157,0,0,0,67,70,133,120,83,134.26,50,-15.00,-70.00,-1004.00
2024-06-07 10:52:53.057799,0,2,151,0,0,0,67,70,133,120,83,134.33,50,-12.00,-63.00,-1036.00
2024-06-07 10:52:53.192905,0,2,145,0,0,0,67,70,133,120,83,134.27,50,-10.00,-64.00,-998.00
2024-06-07 10:52:53.261667,0,2,138,0,0,0,67,70,132,120,83,134.32,50,0.00,-35.00,-981.00
2024-06-07 10:52:53.394943,0,2,132,0,0,0,67,70,134,120,83,134.33,50,6.00,-49.00,-1015.00
2024-06-07 10:52:53.465613,0,2,126,0,0,0,67,70,135,120,83,134.19,50,16.00,-59.00,-926.00
2024-06-07 10:52:53.599922,1,2,120,0,0,0,67,70,136,120,83,134.33,50,11.00,-23.00,-1020.00
2024-06-07 10:52:53.618659,1,2,114,0,0,0,67,70,137,120,83,134.23,50,22.00,-34.00,-989.00
2024-06-07 10:52:53.804275,1,2,108,0,0,0,69,71,137,120,83,134.30,50,43.00,-33.00,-928.00
2024-06-07 10:52:53.823768,2,1,102,0,0,0,69,71,138,120,83,134.29,51,26.00,-29.00,-1010.00
2024-06-07 10:52:54.009232,2,1,96,0,0,0,69,71,138,120,83,134.26,51,29.00,-2.00,-967.00
2024-06-07 10:52:54.027391,2,1,89,0,0,0,69,71,137,120,83,134.14,51,23.00,-12.00,-999.00
2024-06-07 10:52:54.214129,2,0,83,0,0,0,69,71,137,120,83,134.21,51,24.00,-20.00,-967.00
2024-06-07 10:52:54.230912,2,0,77,0,0,0,69,71,138,120,83,134.10,51,31.00,-22.00,-980.00
2024-06-07 10:52:54.332613,2,0,71,0,0,0,69,71,138,120,83,134.22,51,35.00,-4.00,-975.00
2024-06-07 10:52:54.434600,2,0,65,0,0,0,69,71,136,120,83,134.14,51,36.00,20.00,-992.00
2024-06-07 10:52:54.624001,2,0,59,0,0,0,69,71,137,120,83,134.17,51,40.00,-2.00,-1042.00
2024-06-07 10:52:54.639484,2,0,53,0,0,0,69,71,137,120,83,134.20,51,26.00,3.00,-935.00
2024-06-07 10:52:54.741185,2,0,47,0,0,0,68,72,135,120,83,134.17,51,24.00,-7.00,-1016.00
2024-06-07 10:52:54.849278,2,0,41,0,0,0,68,72,135,120,83,134.16,52,24.00,19.00,-977.00
2024-06-07 10:52:54.944577,2,0,35,0,0,0,68,72,135,120,83,134.21,52,33.00,21.00,-1026.00
2024-06-07 10:52:55.046577,2,-1,29,0,0,0,68,72,135,120,83,134.19,52,21.00,1.00,-916.00
2024-06-07 10:52:55.148557,1,-1,23,0,0,0,68,72,135,120,83,134.19,52,19.00,31.00,-975.00
2024-06-07 10:52:55.250587,1,-1,18,0,0,0,68,72,136,120,83,134.16,52,22.00,30.00,-1003.00
2024-06-07 10:52:55.442728,1,-2,13,0,0,0,68,72,136,120,83,134.22,52,14.00,47.00,-1022.00
2024-06-07 10:52:55.454570,1,-2,10,0,0,0,68,72,137,120,83,134.21,52,21.00,57.00,-1003.00
2024-06-07 10:52:55.647420,1,-2,7,0,0,0,68,72,139,120,83,134.25,52,20.00,44.00,-1026.00
2024-06-07 10:52:55.659770,1,-2,5,0,0,0,68,72,139,120,83,134.19,52,16.00,27.00,-1039.00
2024-06-07 10:52:55.853029,0,-2,3,0,0,0,68,71,139,120,83,134.19,53,6.00,30.00,-1005.00
2024-06-07 10:52:55.864332,0,-1,2,0,0,0,68,71,140,120,83,134.19,53,2.00,23.00,-970.00
2024-06-07 10:52:55.969148,0,-1,1,0,0,0,68,71,139,120,83,134.20,53,0.00,7.00,-985.00
2024-06-07 10:52:56.066807,0,-1,0,0,0,0,68,71,140,120,83,134.26,53,2.00,35.00,-1003.00
2024-06-07 10:52:56.262282,0,-1,0,0,0,0,68,71,141,120,83,134.26,53,9.00,49.00,-1001.00
2024-06-07 10:52:56.270870,0,-2,0,0,0,0,68,71,140,120,83,134.20,53,-1.00,24.00,-978.00
2024-06-07 10:52:56.466962,0,-2,0,0,0,0,68,71,141,120,83,134.24,53,-6.00,49.00,-999.00
2024-06-07 10:52:56.476287,0,-1,0,0,0,0,68,71,139,120,83,134.23,53,-11.00,11.00,-960.00
2024-06-07 10:52:56.576650,0,-1,-1,0,0,0,68,71,141,120,82,134.23,53,-8.00,12.00,-948.00
2024-06-07 10:52:56.679237,0,-1,-1,0,0,0,68,71,140,120,82,134.20,53,-6.00,28.00,-1000.00
2024-06-07 10:52:56.979246,0,0,-1,0,0,0,68,71,142,120,82,134.23,54,-1.00,3.00,-998.00
2024-06-07 10:52:56.979447,0,0,-1,0,0,0,68,71,141,120,82,134.26,54,-1.00,0.00,-975.00
2024-06-07 10:52:56.984602,0,0,-2,0,0,0,68,71,142,120,82,134.19,54,-3.00,6.00,-982.00
2024-06-07 10:52:57.190503,0,0,-2,0,0,0,68,71,141,120,82,134.21,54,-11.00,17.00,-992.00
2024-06-07 10:52:57.190698,0,0,-2,0,0,0,68,71,142,120,82,134.23,54,-21.00,28.00,-964.00
2024-06-07 10:52:57.294839,0,0,-2,0,0,0,68,71,142,120,82,134.23,54,-13.00,20.00,-1018.00
2024-06-07 10:52:57.392598,0,-1,-2,0,0,0,68,71,142,130,82,134.32,54,-6.00,9.00,-987.00
2024-06-07 10:52:57.593042,0,-1,-2,0,0,0,68,71,142,130,82,134.25,54,-8.00,32.00,-1034.00
2024-06-07 10:52:57.597223,0,-1,-2,0,0,0,68,71,142,130,82,134.29,54,2.00,-2.00,-984.00
2024-06-07 10:52:57.698671,0,-1,-2,0,0,0,68,71,142,130,82,134.20,54,-3.00,13.00,-1000.00
2024-06-07 10:52:57.800619,0,-1,-2,0,0,0,68,71,140,130,82,134.23,55,-27.00,11.00,-958.00
2024-06-07 10:52:57.903623,0,-1,-2,0,0,0,68,71,140,130,82,134.17,55,4.00,49.00,-975.00
2024-06-07 10:52:58.006311,0,-1,-2,0,0,0,68,71,140,120,82,134.29,55,-25.00,3.00,-1005.00
2024-06-07 10:52:58.106512,0,-1,-2,0,0,0,68,71,139,120,82,134.24,55,-17.00,11.00,-1007.00
2024-06-07 10:52:58.309859,0,-1,-2,0,0,0,68,71,138,120,82,134.38,55,-19.00,4.00,-1209.00
2024-06-07 10:52:58.309920,0,-1,-9,0,0,-4,68,71,140,130,82,134.43,55,-31.00,67.00,-1779.00
2024-06-07 10:52:58.361468,-5,-14,-24,0,0,-12,68,71,158,130,82,134.43,55,-34.00,166.00,-1470.00
2024-06-07 10:52:58.463357,-36,-114,5,0,-7,-11,68,71,6553,150,82,134.84,55,-56.00,193.00,-1490.00
2024-06-07 10:52:58.565320,33,129,25,-2,-11,3,68,71,6553,150,82,134.61,55,101.00,-24.00,-1295.00
2024-06-07 10:52:58.719605,8,9,-55,-1,-3,11,68,71,155,140,82,134.32,55,241.00,-193.00,-1502.00
2024-06-07 10:52:58.769225,-7,0,-67,-1,-5,8,68,71,145,130,82,134.14,56,-3.00,-62.00,-1414.00
2024-06-07 10:52:58.924118,4,1,-75,-1,-5,4,68,71,141,130,82,134.24,56,-37.00,-1.00,-1337.00
2024-06-07 10:52:58.974454,5,0,-74,-1,-3,2,68,71,138,120,82,134.17,56,-9.00,-6.00,-1171.00
2024-06-07 10:52:59.129257,3,1,-63,-1,-2,1,68,71,136,120,82,134.17,56,24.00,-14.00,-1121.00
2024-06-07 10:52:59.177748,0,1,-47,-1,-1,0,68,71,135,120,82,134.21,56,-21.00,-1.00,-1127.00
2024-06-07 10:52:59.333800,-1,0,-33,0,0,0,68,71,136,120,82,134.28,56,1.00,15.00,-1040.00
2024-06-07 10:52:59.381340,-1,0,-18,0,0,0,68,71,138,120,82,134.18,56,-17.00,28.00,-1047.00
2024-06-07 10:52:59.483315,-1,-1,-4,0,0,0,68,71,139,120,82,134.30,56,-36.00,27.00,-967.00
2024-06-07 10:52:59.641317,-1,0,0,0,0,0,68,71,140,120,82,134.35,56,-10.00,29.00,-1045.00
2024-06-07 10:52:59.687283,-2,1,0,0,0,0,68,71,141,130,82,134.28,56,13.00,36.00,-941.00
2024-06-07 10:52:59.848084,-1,0,0,0,0,0,69,72,141,130,82,134.29,57,-19.00,33.00,-926.00
2024-06-07 10:52:59.891414,-1,0,0,0,0,0,69,72,142,130,82,134.23,57,-10.00,41.00,-992.00
2024-06-07 10:53:00.050578,-1,-1,0,0,0,0,69,72,142,130,82,134.27,57,-22.00,29.00,-970.00
2024-06-07 10:53:00.095212,0,-1,0,0,0,0,69,72,142,130,82,134.23,57,-13.00,46.00,-982.00
2024-06-07 10:53:00.255329,0,-1,0,0,0,0,69,72,142,130,82,134.23,57,-14.00,42.00,-988.00
2024-06-07 10:53:00.299016,0,-1,0,0,0,0,69,72,141,130,82,134.26,57,-30.00,31.00,-988.00
2024-06-07 10:53:00.460160,0,0,0,0,0,0,69,72,141,130,82,134.21,57,-26.00,10.00,-1007.00
2024-06-07 10:53:00.503212,0,0,0,0,0,0,69,72,141,130,82,134.24,57,-17.00,32.00,-978.00
2024-06-07 10:53:00.665203,0,0,0,0,0,0,69,72,141,130,81,134.22,57,-24.00,37.00,-1058.00
2024-06-07 10:53:00.707316,0,0,0,0,0,0,69,72,140,130,81,134.25,57,-6.00,11.00,-980.00
2024-06-07 10:53:00.809416,0,0,0,0,0,0,68,71,141,130,81,134.23,58,-23.00,31.00,-968.00
2024-06-07 10:53:00.912693,0,0,0,0,0,0,68,71,140,120,81,134.24,58,-4.00,39.00,-1012.00
2024-06-07 10:53:01.013907,0,0,0,0,0,0,68,71,140,120,81,134.20,58,-8.00,22.00,-1002.00
2024-06-07 10:53:01.176990,0,0,0,0,0,0,68,71,141,120,81,134.39,58,1.00,14.00,-1037.00
2024-06-07 10:53:01.217158,0,0,0,0,0,0,68,71,141,120,81,134.32,58,-2.00,12.00,-1021.00
2024-06-07 10:53:01.382473,0,0,0,0,0,0,68,71,142,120,81,134.31,58,-20.00,14.00,-963.00
2024-06-07 10:53:01.421178,0,0,0,0,0,0,68,71,144,120,81,134.38,58,-4.00,19.00,-1011.00
2024-06-07 10:53:01.586616,0,0,-1,0,0,0,68,71,145,120,81,134.37,58,6.00,22.00,-1009.00
2024-06-07 10:53:01.625128,0,-1,-1,0,0,0,68,71,146,120,81,134.33,58,-1.00,18.00,-1024.00
2024-06-07 10:53:01.676349,0,0,-1,0,0,0,68,71,147,130,81,134.37,58,-7.00,24.00,-936.00
2024-06-07 10:53:01.829270,0,0,-1,0,0,0,68,72,150,130,81,134.36,59,3.00,28.00,-958.00
2024-06-07 10:53:01.880608,0,0,-1,0,0,0,68,72,149,130,81,134.36,59,-8.00,11.00,-986.00
2024-06-07 10:53:01.996631,0,0,-1,0,0,0,68,72,150,130,81,134.41,59,-6.00,12.00,-948.00
2024-06-07 10:53:02.089478,0,0,-1,0,0,0,68,72,152,130,81,134.28,59,-2.00,21.00,-934.00
2024-06-07 10:53:02.187936,0,-1,-1,0,0,0,68,72,152,130,81,134.38,59,0.00,24.00,-961.00
2024-06-07 10:53:02.288624,0,0,-1,0,0,0,68,72,151,130,81,134.34,59,10.00,0.00,-972.00
2024-06-07 10:53:02.390280,1,0,-1,0,0,0,68,72,152,130,81,134.34,59,11.00,17.00,-984.00
2024-06-07 10:53:02.492252,1,0,-1,0,0,0,68,72,152,130,81,134.35,59,-1.00,19.00,-998.00
2024-06-07 10:53:02.611056,1,0,-1,0,0,0,68,72,150,130,81,134.34,59,12.00,10.00,-955.00
2024-06-07 10:53:02.696221,1,0,-1,0,0,0,68,72,151,130,81,134.39,59,20.00,40.00,-984.00
2024-06-07 10:53:02.815528,1,0,-1,0,0,0,69,72,151,130,81,134.38,60,23.00,3.00,-1048.00
2024-06-07 10:53:02.900296,1,0,-1,0,0,0,69,72,150,130,81,134.42,60,22.00,-14.00,-1015.00
2024-06-07 10:53:03.020543,1,0,-1,0,0,0,69,72,150,130,81,134.37,60,12.00,0.00,-1044.00
2024-06-07 10:53:03.104254,1,0,-1,0,0,0,69,72,151,130,81,134.34,60,6.00,-2.00,-1002.00
2024-06-07 10:53:03.225166,1,0,-1,0,0,0,69,72,149,130,81,134.37,60,15.00,18.00,-958.00
2024-06-07 10:53:03.308186,1,0,-1,0,0,0,69,72,149,130,81,134.42,60,12.00,15.00,-1010.00
2024-06-07 10:53:03.429955,1,0,-1,0,0,0,69,72,149,130,81,134.39,60,13.00,33.00,-940.00
2024-06-07 10:53:03.514066,1,0,-1,0,0,0,69,72,147,130,81,134.40,60,15.00,16.00,-982.00
2024-06-07 10:53:03.614334,1,0,-1,0,0,0,69,72,147,130,81,134.37,60,31.00,14.00,-1060.00
