TS,pitch,roll,yaw,vgx,vgy,vgz,templ,temph,tof,h,bat,baro,time,agx,agy,agz
2024-06-07 10:53:49.567290,1,0,0,0,0,0,74,76,10,0,78,132.76,85,32.00,-20.00,-1000.00
2024-06-07 10:53:49.714607,1,0,0,0,0,0,74,76,10,0,78,132.76,85,33.00,-21.00,-998.00
2024-06-07 10:53:49.770811,1,0,0,0,0,0,74,76,10,0,78,132.76,85,33.00,-20.00,-998.00
2024-06-07 10:53:49.872858,1,0,0,0,0,0,74,76,10,0,78,132.80,85,34.00,-21.00,-997.00
2024-06-07 10:53:50.021717,1,0,0,0,0,0,74,76,10,0,78,132.77,85,34.00,-20.00,-1000.00
2024-06-07 10:53:50.076614,1,0,0,0,0,0,74,75,10,0,78,132.79,85,32.00,-22.00,-997.00
2024-06-07 10:53:50.226485,1,0,0,0,0,0,74,75,10,0,78,132.75,85,33.00,-20.00,-999.00
2024-06-07 10:53:50.280740,1,0,0,0,0,0,74,75,10,0,78,132.75,85,33.00,-22.00,-999.00
2024-06-07 10:53:50.431602,1,0,0,0,0,0,74,75,10,0,78,132.79,85,32.00,-21.00,-998.00
2024-06-07 10:53:50.484781,1,0,0,0,0,0,74,75,10,0,78,132.80,85,35.00,-20.00,-1000.00
2024-06-07 10:53:50.636610,1,0,0,0,0,0,74,75,10,0,78,132.77,85,33.00,-20.00,-997.00
2024-06-07 10:53:50.688823,1,0,1,0,0,0,74,75,10,0,78,132.80,85,33.00,-20.00,-1000.00
2024-06-07 10:53:50.840881,1,0,1,0,0,0,74,75,10,0,78,132.87,85,34.00,-20.00,-1000.00
2024-06-07 10:53:50.894274,1,0,1,0,0,0,74,75,10,0,78,132.82,85,31.00,-22.00,-1000.00
2024-06-07 10:53:50.994762,1,1,1,0,0,0,74,75,10,0,78,132.88,85,32.00,-21.00,-999.00
2024-06-07 10:53:51.148573,1,1,1,0,0,0,74,76,10,0,78,132.88,85,31.00,-22.00,-999.00
2024-06-07 10:53:51.199183,1,1,1,0,0,0,74,76,10,0,78,132.81,85,32.00,-20.00,-1001.00
2024-06-07 10:53:51.300720,1,1,1,0,0,0,74,76,10,0,78,132.82,85,32.00,-20.00,-1001.00
2024-06-07 10:53:51.455890,1,1,1,0,0,0,74,76,10,0,78,132.84,85,33.00,-20.00,-1000.00
2024-06-07 10:53:51.508005,1,1,1,0,0,0,74,76,10,0,78,132.86,85,34.00,-20.00,-998.00
2024-06-07 10:53:51.606676,1,1,1,0,0,0,74,76,10,0,78,132.83,85,33.00,-21.00,-998.00
2024-06-07 10:53:51.764013,1,1,1,0,0,0,74,76,10,0,78,132.85,85,32.00,-21.00,-1000.00
2024-06-07 10:53:51.764976,1,1,1,0,0,0,74,76,10,0,78,132.83,85,33.00,-20.00,-1001.00
2024-06-07 10:53:51.861606,1,1,1,0,0,0,74,76,10,0,78,132.83,85,32.00,-21.00,-999.00
2024-06-07 10:53:51.967328,1,1,1,0,0,0,74,76,10,0,78,132.83,85,31.00,-21.00,-998.00
2024-06-07 10:53:52.065849,1,1,1,0,0,0,73,76,10,0,78,132.90,85,33.00,-21.00,-998.00
2024-06-07 10:53:52.172165,1,1,1,0,0,0,73,76,10,0,78,132.86,85,33.00,-19.00,-998.00
2024-06-07 10:53:52.269700,1,1,1,0,0,0,73,76,10,0,78,132.86,85,34.00,-21.00,-1001.00
2024-06-07 10:53:52.377655,1,1,1,0,0,0,73,76,10,0,78,132.90,85,33.00,-20.00,-998.00
2024-06-07 10:53:52.473661,1,1,1,0,0,0,73,76,10,0,78,132.88,85,33.00,-20.00,-1001.00
2024-06-07 10:53:52.575768,1,1,1,0,0,0,73,76,10,0,78,132.93,85,33.00,-20.00,-1002.00
2024-06-07 10:53:52.684223,1,1,1,0,0,0,73,76,10,0,78,132.87,85,32.00,-21.00,-1000.00
2024-06-07 10:53:52.779594,1,1,1,0,0,0,73,76,10,0,78,132.87,85,33.00,-21.00,-999.00
2024-06-07 10:53:52.888864,1,1,1,0,0,0,73,76,10,0,78,132.87,85,32.00,-19.00,-999.00
2024-06-07 10:53:52.983844,1,1,1,0,0,0,73,76,10,0,78,132.90,85,32.00,-21.00,-1001.00
2024-06-07 10:53:53.095747,1,1,1,0,0,0,74,76,10,0,78,132.94,85,32.00,-20.00,-999.00
2024-06-07 10:53:53.187646,1,1,1,0,0,0,74,76,10,0,78,132.91,85,34.00,-20.00,-997.00
2024-06-07 10:53:53.299078,1,1,1,0,0,0,74,76,10,0,78,132.91,85,33.00,-21.00,-999.00
2024-06-07 10:53:53.391402,1,1,1,0,0,0,74,76,10,0,78,132.91,85,31.00,-20.00,-998.00
2024-06-07 10:53:53.503271,1,1,1,0,0,0,74,76,10,0,78,132.91,85,37.00,-24.00,-1001.00
2024-06-07 10:53:53.596346,1,0,1,0,0,0,74,76,10,0,78,132.91,85,40.00,-28.00,-999.00
2024-06-07 10:53:53.697740,1,1,1,0,0,0,74,76,10,0,78,132.91,85,41.00,-25.00,-1006.00
2024-06-07 10:53:53.811908,1,0,0,0,0,0,74,76,10,0,78,132.91,85,2.00,14.00,-871.00
2024-06-07 10:53:53.902483,1,0,1,0,0,0,74,76,10,0,78,132.91,85,39.00,-30.00,-1060.00
2024-06-07 10:53:54.016440,1,1,1,0,0,0,74,76,10,0,78,132.91,85,-42.00,34.00,-1108.00
2024-06-07 10:53:54.106453,1,2,0,-1,1,-2,74,76,10,0,78,132.91,85,-84.00,17.00,-1336.00
2024-06-07 10:53:54.220367,-2,-2,0,-2,1,-5,74,76,10,0,78,132.91,86,-97.00,80.00,-1283.00
2024-06-07 10:53:54.310660,-5,-5,0,-2,1,-7,74,76,15,10,78,133.28,86,-109.00,59.00,-1111.00
2024-06-07 10:53:54.426584,-7,-4,0,-2,1,-8,74,76,24,10,78,133.28,86,-117.00,52.00,-998.00
2024-06-07 10:53:54.514459,-7,-4,0,-2,1,-8,74,76,32,20,78,133.33,86,-135.00,55.00,-984.00
2024-06-07 10:53:54.621223,-7,-4,0,-1,1,-8,74,76,41,30,78,133.47,86,-132.00,39.00,-938.00
2024-06-07 10:53:54.719506,-7,-4,0,-1,0,-7,74,76,50,30,78,133.46,86,-121.00,71.00,-870.00
2024-06-07 10:53:54.839035,-8,-4,0,-1,0,-6,74,76,58,40,78,133.58,86,-84.00,54.00,-879.00
2024-06-07 10:53:54.928691,-7,-4,0,-1,0,-5,74,76,64,50,78,133.69,86,-87.00,91.00,-876.00
2024-06-07 10:53:55.024391,-8,-5,1,-1,1,-4,74,76,69,50,78,133.63,86,-96.00,73.00,-889.00
2024-06-07 10:53:55.142040,-8,-5,1,-1,0,-2,74,77,73,50,78,133.69,86,-104.00,66.00,-889.00
2024-06-07 10:53:55.228425,-9,-5,1,-1,0,-1,74,77,76,60,78,133.75,87,-118.00,56.00,-892.00
2024-06-07 10:53:55.346791,-8,-5,0,-1,0,-1,74,77,78,60,78,133.73,87,-151.00,36.00,-993.00
2024-06-07 10:53:55.432680,-9,-4,0,0,0,0,74,77,80,60,78,133.75,87,-113.00,57.00,-946.00
2024-06-07 10:53:55.483194,-9,-4,0,0,0,0,74,77,81,60,78,133.81,87,-120.00,62.00,-940.00
2024-06-07 10:53:55.654155,-9,-4,0,0,0,0,74,77,81,60,78,133.69,87,-114.00,68.00,-988.00
2024-06-07 10:53:55.688753,-8,-4,0,0,0,0,74,77,81,60,78,133.81,87,-131.00,62.00,-1024.00
2024-06-07 10:53:55.858851,-8,-4,0,0,0,0,74,77,83,60,78,133.68,87,-144.00,74.00,-937.00
2024-06-07 10:53:55.893179,-8,-4,0,0,0,0,74,77,82,60,78,133.75,87,-152.00,82.00,-945.00
2024-06-07 10:53:55.994260,-8,-4,0,0,0,0,74,77,83,60,78,133.70,87,-134.00,57.00,-980.00
2024-06-07 10:53:56.165728,-8,-4,0,0,0,0,74,76,84,60,78,133.67,87,-117.00,72.00,-994.00
2024-06-07 10:53:56.198265,-8,-3,0,0,0,0,74,76,84,60,78,133.71,88,-139.00,94.00,-927.00
2024-06-07 10:53:56.370877,-8,-4,0,0,0,0,74,76,86,70,78,133.72,88,-168.00,80.00,-931.00
2024-06-07 10:53:56.402339,-9,-4,0,0,0,0,74,76,85,70,78,133.80,88,-168.00,67.00,-969.00
2024-06-07 10:53:56.577423,-9,-4,0,0,0,0,74,76,86,70,78,133.72,88,-155.00,64.00,-977.00
2024-06-07 10:53:56.613196,-9,-4,0,0,0,0,74,76,87,70,78,133.66,88,-149.00,85.00,-960.00
2024-06-07 10:53:56.708346,-9,-4,0,0,0,0,74,76,86,70,78,133.71,88,-153.00,79.00,-1033.00
2024-06-07 10:53:56.882398,-9,-4,0,0,0,0,74,76,86,70,78,133.79,88,-153.00,78.00,-987.00
2024-06-07 10:53:56.912345,-9,-4,0,0,0,0,74,76,86,70,78,133.66,88,-156.00,36.00,-969.00
2024-06-07 10:53:57.087123,-9,-4,0,0,0,0,74,76,86,70,78,133.63,88,-138.00,47.00,-1000.00
2024-06-07 10:53:57.116242,-8,-3,0,0,0,0,75,76,85,70,78,133.55,88,-157.00,40.00,-1001.00
2024-06-07 10:53:57.277081,-7,-3,0,0,0,0,75,76,85,70,78,133.61,89,-119.00,62.00,-1013.00
2024-06-07 10:53:57.320640,-8,-3,0,0,0,0,75,76,84,70,78,133.60,89,-125.00,85.00,-996.00
2024-06-07 10:53:57.496908,-7,-3,0,0,0,0,75,76,84,60,78,133.48,89,-120.00,61.00,-1016.00
2024-06-07 10:53:57.524212,-7,-3,1,0,0,0,75,76,84,60,78,133.56,89,-124.00,68.00,-1023.00
2024-06-07 10:53:57.626276,-7,-2,0,1,0,0,75,76,84,60,78,133.50,89,-135.00,35.00,-990.00
2024-06-07 10:53:57.806103,-6,-3,0,1,0,0,75,76,83,60,78,133.56,89,-119.00,74.00,-945.00
2024-06-07 10:53:57.830350,-6,-3,0,0,0,0,75,76,84,60,78,133.57,89,-112.00,75.00,-1010.00
2024-06-07 10:53:58.010567,-7,-2,0,0,0,0,75,76,84,60,78,133.54,89,-131.00,43.00,-1022.00
2024-06-07 10:53:58.034442,-6,-2,0,1,0,0,75,76,84,60,78,133.56,89,-132.00,54.00,-999.00
2024-06-07 10:53:58.213770,-5,-3,0,0,0,0,74,76,85,70,78,133.48,89,-138.00,54.00,-973.00
2024-06-07 10:53:58.240063,-6,-3,0,0,0,0,74,76,86,70,78,133.50,90,-130.00,51.00,-981.00
2024-06-07 10:53:58.340408,-6,-3,0,0,0,0,74,76,87,70,78,133.58,90,-129.00,46.00,-1003.00
2024-06-07 10:53:58.520977,-7,-3,0,0,0,0,74,76,88,70,78,133.53,90,-134.00,49.00,-1005.00
2024-06-07 10:53:58.544338,-7,-3,0,0,0,0,74,76,88,70,78,133.51,90,-138.00,59.00,-960.00
2024-06-07 10:53:58.646178,-6,-3,0,0,0,0,74,76,88,70,78,133.47,90,-139.00,65.00,-975.00
2024-06-07 10:53:58.828349,-6,-3,0,0,0,0,74,76,88,70,78,133.47,90,-126.00,41.00,-1006.00
2024-06-07 10:53:58.850240,-6,-3,0,0,0,0,74,76,88,70,78,133.55,90,-107.00,55.00,-989.00
2024-06-07 10:53:58.953380,-6,-2,0,0,0,0,74,76,88,70,78,133.48,90,-116.00,61.00,-917.00
2024-06-07 10:53:59.003343,-6,-2,0,0,0,0,74,76,88,70,78,133.53,90,-133.00,65.00,-982.00
2024-06-07 10:53:59.156148,-6,-2,0,0,0,0,74,76,88,70,78,133.47,90,-143.00,86.00,-938.00
2024-06-07 10:53:59.340027,-7,-2,0,0,0,0,74,76,87,70,78,133.45,91,-115.00,79.00,-1026.00
2024-06-07 10:53:59.360962,-7,-3,0,0,0,0,74,76,87,70,78,133.45,91,-140.00,52.00,-1084.00
2024-06-07 10:53:59.545487,-7,-3,0,0,0,0,74,76,89,70,78,133.47,91,-118.00,71.00,-1105.00
2024-06-07 10:53:59.565562,-8,-4,0,0,0,-1,74,76,91,70,78,133.55,91,-120.00,50.00,-1074.00
2024-06-07 10:53:59.615267,-7,-3,0,0,0,-2,74,76,93,70,78,133.41,91,-115.00,35.00,-1095.00
2024-06-07 10:53:59.750258,-6,-3,0,0,0,-3,74,76,98,70,78,133.50,91,-116.00,35.00,-1037.00
2024-06-07 10:53:59.820118,-6,-2,0,0,0,-4,74,76,102,80,78,133.51,91,-81.00,33.00,-1064.00
2024-06-07 10:53:59.954713,-5,-1,0,0,0,-4,74,76,108,80,78,133.59,91,-93.00,39.00,-1040.00
2024-06-07 10:54:00.024177,-5,0,0,1,0,-5,74,76,112,90,78,133.63,91,-104.00,54.00,-982.00
2024-06-07 10:54:00.159421,-4,-1,0,0,0,-5,74,76,117,90,78,133.74,91,-89.00,59.00,-1049.00
2024-06-07 10:54:00.228171,-4,-1,0,0,0,-5,74,76,124,100,78,133.78,92,-96.00,45.00,-932.00
2024-06-07 10:54:00.330156,-5,-1,0,0,0,-5,74,76,129,110,78,133.82,92,-86.00,41.00,-968.00
2024-06-07 10:54:00.467164,-5,-1,0,0,0,-5,74,76,135,110,78,133.82,92,-102.00,42.00,-951.00
2024-06-07 10:54:00.534154,-5,-1,0,0,0,-5,74,76,140,120,78,133.84,92,-89.00,22.00,-992.00
2024-06-07 10:54:00.636424,-4,-2,1,0,0,-5,74,76,145,120,78,133.91,92,-93.00,18.00,-968.00
2024-06-07 10:54:00.774164,-4,-2,0,0,0,-4,74,76,149,130,78,133.90,92,-77.00,34.00,-916.00
2024-06-07 10:54:00.840165,-4,-2,0,0,0,-4,74,76,156,130,78,133.98,92,-85.00,43.00,-975.00
2024-06-07 10:54:00.978955,-4,-1,0,0,0,-4,74,76,157,140,78,134.07,92,-89.00,42.00,-895.00
2024-06-07 10:54:01.044147,-4,-1,0,0,0,-3,74,76,165,140,78,134.12,92,-95.00,49.00,-959.00
2024-06-07 10:54:01.183224,-4,-2,0,0,0,-3,75,76,166,140,78,134.21,92,-118.00,35.00,-936.00
2024-06-07 10:54:01.248158,-5,-2,0,0,0,-2,75,76,168,150,78,134.17,93,-128.00,32.00,-955.00
2024-06-07 10:54:01.388183,-5,-2,0,0,0,-2,75,76,171,150,78,134.30,93,-120.00,37.00,-960.00
2024-06-07 10:54:01.452174,-6,-2,0,0,0,-2,75,76,176,150,78,134.31,93,-128.00,53.00,-951.00
2024-06-07 10:54:01.593626,-7,-2,0,0,0,-2,75,76,178,160,78,134.34,93,-121.00,51.00,-929.00
2024-06-07 10:54:01.656027,-7,-2,0,0,0,-2,75,76,179,160,78,134.34,93,-129.00,48.00,-1024.00
2024-06-07 10:54:01.800283,-8,-3,0,0,0,-1,75,76,180,160,78,134.40,93,-117.00,54.00,-930.00
2024-06-07 10:54:01.860099,-8,-3,0,0,0,-1,75,76,182,160,78,134.33,93,-134.00,37.00,-983.00
2024-06-07 10:54:01.962064,-8,-3,0,0,0,-1,75,76,184,160,78,134.39,93,-131.00,61.00,-996.00
2024-06-07 10:54:02.106556,-8,-3,0,0,0,-1,75,76,188,160,78,134.39,93,-146.00,49.00,-956.00
2024-06-07 10:54:02.166179,-7,-2,0,0,0,0,75,77,186,170,78,134.43,94,-154.00,56.00,-998.00
2024-06-07 10:54:02.310797,-8,-3,0,-1,0,0,75,77,185,170,78,134.43,94,-153.00,59.00,-943.00
2024-06-07 10:54:02.370222,-8,-2,0,-1,0,0,75,77,192,170,78,134.40,94,-147.00,45.00,-991.00
2024-06-07 10:54:02.515471,-8,-2,0,-1,0,0,75,77,189,170,78,134.31,94,-168.00,50.00,-967.00
2024-06-07 10:54:02.574199,-8,-2,0,-1,0,0,75,77,191,170,78,134.40,94,-150.00,23.00,-952.00
2024-06-07 10:54:02.676332,-8,-2,0,-1,0,0,75,77,189,170,78,134.31,94,-158.00,47.00,-986.00
2024-06-07 10:54:02.822268,-8,-2,0,-1,0,0,75,77,185,170,78,134.31,94,-117.00,48.00,-1052.00
2024-06-07 10:54:02.881299,-9,-2,0,-1,0,0,75,77,189,170,78,134.35,94,-156.00,45.00,-950.00
2024-06-07 10:54:03.027328,-8,-2,0,-1,0,0,75,77,190,170,78,134.41,94,-127.00,45.00,-963.00
2024-06-07 10:54:03.035788,-8,-2,0,0,0,0,75,77,189,170,78,134.38,94,-127.00,72.00,-959.00
2024-06-07 10:54:03.283448,-8,-3,0,0,0,0,73,76,189,170,78,134.33,95,-150.00,51.00,-1005.00
2024-06-07 10:54:03.284107,-8,-3,0,0,0,0,73,76,189,170,78,134.38,95,-141.00,51.00,-988.00
2024-06-07 10:54:03.339343,-8,-2,1,0,0,0,73,76,187,170,78,134.30,95,-146.00,45.00,-961.00
2024-06-07 10:54:03.541283,-8,-2,1,0,0,0,73,76,188,170,78,134.40,95,-135.00,35.00,-965.00
2024-06-07 10:54:03.543422,-8,-1,1,0,0,0,73,76,189,170,78,134.31,95,-114.00,50.00,-1004.00
2024-06-07 10:54:03.645114,-8,-2,0,0,0,0,73,76,189,170,78,134.38,95,-121.00,47.00,-918.00
2024-06-07 10:54:03.845789,-8,-2,0,0,0,0,73,76,189,170,78,134.31,95,-134.00,55.00,-958.00
2024-06-07 10:54:03.849061,-8,-2,1,0,0,0,73,76,190,170,78,134.37,95,-151.00,47.00,-994.00
2024-06-07 10:54:03.951668,-8,-2,1,0,0,0,73,76,190,170,78,134.30,95,-103.00,52.00,-1013.00
2024-06-07 10:54:04.153386,-8,-3,0,0,0,0,73,76,186,170,78,134.22,95,-107.00,59.00,-1011.00
2024-06-07 10:54:04.154965,-8,-4,0,0,0,0,73,76,186,170,78,134.29,96,-113.00,72.00,-977.00
2024-06-07 10:54:04.358218,-7,-3,0,0,0,1,73,76,188,170,78,134.27,96,-122.00,55.00,-935.00
2024-06-07 10:54:04.358769,-7,-3,0,0,0,1,73,76,186,170,78,134.18,96,-131.00,34.00,-917.00
2024-06-07 10:54:04.562388,-8,-3,0,0,0,1,73,76,184,160,78,134.26,96,-131.00,54.00,-938.00
2024-06-07 10:54:04.562804,-8,-3,0,0,0,2,73,76,180,160,78,134.23,96,-143.00,40.00,-926.00
2024-06-07 10:54:04.665014,-8,-2,0,0,0,2,73,76,181,160,78,134.15,96,-126.00,30.00,-913.00
2024-06-07 10:54:04.774416,-9,-3,0,0,0,2,73,76,179,160,78,134.17,96,-128.00,43.00,-934.00
2024-06-07 10:54:04.876781,-8,-3,0,1,0,3,73,76,173,150,78,134.13,96,-133.00,11.00,-978.00
2024-06-07 10:54:04.971621,-8,0,0,1,0,3,73,76,170,150,78,134.05,96,-135.00,19.00,-959.00
2024-06-07 10:54:05.074383,-7,0,0,1,0,3,73,76,167,150,78,134.11,96,-123.00,17.00,-978.00
2024-06-07 10:54:05.177012,-7,-2,0,1,0,2,73,76,162,140,78,134.10,97,-130.00,36.00,-943.00
2024-06-07 10:54:05.277107,-7,-2,1,1,0,3,73,76,160,140,78,134.13,97,-120.00,47.00,-1004.00
2024-06-07 10:54:05.381498,-6,-2,0,1,0,2,73,76,157,140,78,134.03,97,-115.00,70.00,-1007.00
2024-06-07 10:54:05.481170,-6,-2,0,1,0,2,73,76,157,140,78,133.99,97,-116.00,72.00,-1039.00
2024-06-07 10:54:05.586446,-6,-3,0,0,0,1,73,76,153,130,78,134.02,97,-109.00,57.00,-1083.00
2024-06-07 10:54:05.684852,-7,-3,0,1,0,1,73,76,151,130,78,134.00,97,-113.00,64.00,-990.00
2024-06-07 10:54:05.791173,-6,-3,0,1,0,1,73,76,151,130,78,133.91,97,-131.00,79.00,-969.00
2024-06-07 10:54:05.888870,-7,-3,0,0,0,1,73,76,149,130,78,134.01,97,-149.00,63.00,-944.00
2024-06-07 10:54:05.996000,-7,-4,0,0,0,1,73,76,148,130,78,134.07,97,-138.00,68.00,-907.00
2024-06-07 10:54:06.092881,-7,-4,0,0,0,1,73,76,148,130,78,133.97,97,-122.00,66.00,-1003.00
2024-06-07 10:54:06.200862,-7,-4,0,0,0,1,74,77,146,130,78,133.99,98,-137.00,43.00,-971.00
2024-06-07 10:54:06.296981,-6,-3,1,0,0,1,74,77,144,120,78,133.81,98,-138.00,40.00,-1005.00
2024-06-07 10:54:06.405562,-7,-2,0,0,0,0,74,77,143,120,78,133.81,98,-147.00,30.00,-999.00
2024-06-07 10:54:06.502174,-7,-2,1,0,0,0,74,77,142,120,78,133.95,98,-122.00,35.00,-974.00
2024-06-07 10:54:06.603217,-7,0,1,0,0,0,74,77,142,120,78,133.82,98,-114.00,58.00,-1035.00
2024-06-07 10:54:06.712773,-7,-1,1,0,0,0,74,77,143,120,78,133.81,98,-107.00,55.00,-1050.00
2024-06-07 10:54:06.808082,-6,-2,1,0,0,0,74,77,142,120,78,133.83,98,-120.00,48.00,-1006.00
2024-06-07 10:54:06.917953,-6,-3,0,0,0,0,74,77,143,120,78,133.77,98,-97.00,29.00,-996.00
2024-06-07 10:54:06.961268,-5,-2,0,0,0,0,74,77,143,120,78,133.79,98,-79.00,27.00,-1044.00
2024-06-07 10:54:07.122536,-5,-1,0,1,0,0,74,77,143,120,78,133.81,98,-80.00,43.00,-1020.00
2024-06-07 10:54:07.164983,-4,-1,0,1,0,0,73,76,141,120,78,133.75,99,-74.00,43.00,-995.00
2024-06-07 10:54:07.327827,-4,-1,0,1,0,0,73,76,141,120,78,133.82,99,-69.00,57.00,-1005.00
2024-06-07 10:54:07.371276,-3,-2,0,1,0,0,73,76,142,120,78,133.82,99,-92.00,43.00,-930.00
2024-06-07 10:54:07.471632,-3,-2,0,0,0,0,73,76,141,120,78,133.86,99,-88.00,39.00,-967.00
2024-06-07 10:54:07.573069,-3,-2,0,0,0,0,73,76,141,120,78,133.80,99,-79.00,45.00,-1007.00
2024-06-07 10:54:07.674928,-4,-1,0,0,0,0,73,76,142,120,78,133.78,99,-67.00,32.00,-1084.00
2024-06-07 10:54:07.839356,-4,-1,0,0,0,0,73,76,142,120,78,133.80,99,-97.00,18.00,-948.00
2024-06-07 10:54:07.878786,-4,0,0,0,0,0,73,76,142,120,78,133.87,99,-80.00,11.00,-967.00
2024-06-07 10:54:08.046964,-4,0,0,0,0,0,73,76,141,120,78,133.89,99,-89.00,21.00,-997.00
2024-06-07 10:54:08.082825,-4,0,0,0,0,0,73,76,143,120,78,133.95,99,-56.00,46.00,-1004.00
2024-06-07 10:54:08.251523,-4,0,0,0,0,0,74,76,141,120,78,133.91,100,-74.00,67.00,-951.00
2024-06-07 10:54:08.288682,-4,-1,1,0,0,0,74,76,141,120,78,133.93,100,-68.00,43.00,-951.00
2024-06-07 10:54:08.389102,-3,-2,1,0,0,0,74,76,141,120,78,133.83,100,-63.00,52.00,-962.00
2024-06-07 10:54:08.505808,-3,-2,1,0,0,0,74,76,141,120,78,133.88,100,-38.00,23.00,-1035.00
2024-06-07 10:54:08.594088,-2,-1,1,0,0,0,74,76,142,120,78,133.88,100,-58.00,38.00,-985.00
2024-06-07 10:54:08.694715,-6,-2,1,0,0,0,74,76,144,120,78,133.84,100,-82.00,47.00,-994.00
2024-06-07 10:54:08.796927,-8,-2,0,1,0,0,74,76,145,120,78,133.83,100,-79.00,21.00,-983.00
2024-06-07 10:54:08.966858,-8,-1,0,2,0,0,74,76,144,120,78,133.95,100,-47.00,19.00,-985.00
2024-06-07 10:54:09.000666,-8,-1,0,3,0,0,74,76,146,120,78,133.91,100,-66.00,20.00,-1013.00
2024-06-07 10:54:09.170401,-8,-1,0,4,0,0,74,76,144,120,78,133.95,100,-55.00,7.00,-960.00
2024-06-07 10:54:09.205141,-8,-1,0,4,0,0,73,76,143,120,78,133.84,101,-81.00,6.00,-1003.00
2024-06-07 10:54:09.313650,-8,0,0,5,0,0,73,76,143,120,78,133.91,101,-92.00,28.00,-966.00
2024-06-07 10:54:09.408861,-8,0,0,6,0,0,73,76,144,120,78,133.91,101,-98.00,24.00,-975.00
2024-06-07 10:54:09.580041,-8,0,0,6,0,0,73,76,143,120,78,133.94,101,-101.00,39.00,-922.00
2024-06-07 10:54:09.613573,-8,-1,0,7,0,0,73,76,140,120,78,133.89,101,-114.00,29.00,-966.00
2024-06-07 10:54:09.714865,-5,-2,0,7,0,0,73,76,141,120,78,133.85,101,-129.00,40.00,-1004.00
2024-06-07 10:54:09.817080,-1,-1,0,7,0,0,73,76,141,120,78,133.88,101,-132.00,26.00,-966.00
2024-06-07 10:54:09.989806,0,-1,0,6,0,0,73,76,141,120,78,133.85,101,-105.00,24.00,-1009.00
2024-06-07 10:54:10.020768,0,-1,0,5,0,0,73,76,141,120,78,133.90,101,-106.00,26.00,-1022.00
2024-06-07 10:54:10.194453,-1,-1,0,4,0,0,73,76,139,120,78,133.87,101,-102.00,9.00,-1019.00
2024-06-07 10:54:10.224642,-2,0,0,3,0,0,73,77,139,120,78,133.93,102,-114.00,27.00,-945.00
2024-06-07 10:54:10.399143,-3,1,0,3,0,0,73,77,140,120,78,133.90,102,-73.00,20.00,-1018.00
2024-06-07 10:54:10.428552,-3,1,0,3,0,0,73,77,140,120,78,133.92,102,-105.00,19.00,-972.00
2024-06-07 10:54:10.605599,-4,0,0,2,1,0,73,77,141,120,78,133.96,102,-97.00,31.00,-914.00
2024-06-07 10:54:10.605693,-4,-2,0,2,1,0,73,77,141,120,78,133.89,102,-87.00,37.00,-1029.00
2024-06-07 10:54:10.683628,-4,-4,0,3,1,0,73,77,141,120,78,133.98,102,-71.00,32.00,-974.00
2024-06-07 10:54:10.808749,0,-3,0,2,0,0,73,77,140,120,78,133.92,102,-101.00,40.00,-1000.00
2024-06-07 10:54:10.887688,1,-3,0,2,0,0,73,77,139,120,78,134.00,102,-90.00,52.00,-1049.00
2024-06-07 10:54:10.989827,-1,-3,0,1,0,0,73,77,140,120,78,134.02,102,-74.00,57.00,-1035.00
2024-06-07 10:54:11.091691,-2,-3,0,0,0,0,73,77,140,120,78,133.90,102,-99.00,51.00,-963.00
2024-06-07 10:54:11.224406,-3,-3,0,0,0,0,73,76,139,120,78,133.96,103,-92.00,46.00,-1012.00
2024-06-07 10:54:11.295697,-4,-3,0,0,0,0,73,76,141,120,78,134.04,103,-78.00,47.00,-1025.00
2024-06-07 10:54:11.423543,-5,-3,0,0,0,0,73,76,141,120,78,133.98,103,-96.00,19.00,-1028.00
2024-06-07 10:54:11.499602,-5,-2,0,0,0,0,73,76,141,120,78,134.04,103,-98.00,49.00,-974.00
2024-06-07 10:54:11.628260,-5,-2,0,0,0,0,73,76,143,120,78,133.99,103,-87.00,57.00,-1010.00
2024-06-07 10:54:11.703695,-5,-1,0,0,0,0,73,76,143,120,78,133.97,103,-73.00,65.00,-955.00
2024-06-07 10:54:11.835375,-4,-2,0,0,0,0,73,76,143,120,78,133.97,103,-77.00,52.00,-978.00
2024-06-07 10:54:11.907608,-4,-2,0,0,0,0,73,76,141,120,78,133.98,103,-82.00,50.00,-979.00
2024-06-07 10:54:12.009622,-4,-2,0,0,0,0,73,76,143,120,78,134.00,103,-74.00,53.00,-977.00
2024-06-07 10:54:12.140145,-3,-3,0,0,0,0,73,76,141,120,78,134.07,103,-66.00,47.00,-1002.00
2024-06-07 10:54:12.213721,-3,-2,0,0,0,0,74,76,141,120,78,134.00,104,-69.00,35.00,-993.00
2024-06-07 10:54:12.315564,-3,-2,0,0,0,0,74,76,141,120,78,133.99,104,-65.00,32.00,-1049.00
2024-06-07 10:54:12.447351,-3,-2,0,0,0,0,74,76,142,120,78,133.97,104,-76.00,17.00,-979.00
2024-06-07 10:54:12.519567,-3,-1,0,0,0,0,74,76,141,120,78,134.01,104,-70.00,39.00,-1013.00
2024-06-07 10:54:12.652364,-3,-1,0,0,0,0,74,76,143,120,78,133.96,104,-82.00,33.00,-946.00
2024-06-07 10:54:12.724805,-4,-1,0,0,0,0,74,76,142,120,78,133.99,104,-92.00,26.00,-968.00
2024-06-07 10:54:12.827506,-4,0,0,0,0,0,74,76,142,120,78,133.98,104,-91.00,25.00,-980.00
2024-06-07 10:54:12.928562,-4,0,0,0,0,0,74,76,143,120,78,133.98,104,-103.00,9.00,-1015.00
2024-06-07 10:54:13.031147,-5,-1,0,0,0,0,74,76,142,120,78,133.98,104,-86.00,19.00,-987.00
2024-06-07 10:54:13.164029,-5,-1,0,0,0,0,74,76,142,120,78,133.86,104,-73.00,40.00,-985.00
2024-06-07 10:54:13.234568,-3,-1,0,0,0,0,73,75,141,120,78,133.96,105,-86.00,-6.00,-1034.00
2024-06-07 10:54:13.369442,1,0,0,-1,0,0,73,75,142,120,78,133.86,105,-111.00,4.00,-951.00
2024-06-07 10:54:13.438827,2,0,0,-2,0,0,73,75,144,120,78,133.97,105,-89.00,26.00,-965.00
2024-06-07 10:54:13.573642,2,0,0,-4,0,0,73,75,143,120,78,133.99,105,-68.00,-7.00,-1002.00
2024-06-07 10:54:13.642448,2,0,0,-5,0,0,73,75,144,120,78,134.03,105,-47.00,-33.00,-1010.00
2024-06-07 10:54:13.778324,1,0,0,-6,0,0,73,75,144,120,78,134.12,105,-45.00,-3.00,-990.00
2024-06-07 10:54:13.846687,1,0,0,-6,-1,0,73,75,144,120,78,134.06,105,-35.00,3.00,-981.00
2024-06-07 10:54:14.085614,0,0,0,-7,-1,0,73,75,143,120,78,134.06,105,-30.00,-15.00,-1001.00
2024-06-07 10:54:14.085660,0,2,0,-7,-1,0,73,75,144,120,78,134.15,105,-32.00,4.00,-985.00
2024-06-07 10:54:14.152432,-3,4,0,-7,0,0,73,75,143,120,78,134.17,105,-45.00,-42.00,-978.00
2024-06-07 10:54:14.290831,-6,3,0,-7,0,0,73,77,144,120,78,134.17,106,-39.00,-29.00,-991.00
2024-06-07 10:54:14.356637,-7,1,0,-6,0,0,73,77,144,120,78,134.16,106,-53.00,-23.00,-1029.00
2024-06-07 10:54:14.495124,-7,0,0,-5,0,0,73,77,144,120,78,134.14,106,-35.00,-45.00,-1035.00
2024-06-07 10:54:14.562321,-8,0,0,-4,0,0,73,77,144,120,78,134.13,106,-56.00,-13.00,-1037.00
2024-06-07 10:54:14.662432,-6,2,0,-3,0,0,73,77,143,120,78,134.09,106,-54.00,-12.00,-968.00
2024-06-07 10:54:14.714216,-5,2,0,-2,0,0,73,77,143,120,78,134.15,106,-43.00,29.00,-1021.00
2024-06-07 10:54:14.904757,-4,1,0,-2,0,0,73,77,143,120,78,134.11,106,-36.00,-2.00,-1026.00
2024-06-07 10:54:14.923137,-3,1,0,-2,0,0,73,77,142,120,78,134.11,106,-49.00,-10.00,-980.00
2024-06-07 10:54:15.021864,-3,1,0,-1,0,0,73,77,140,120,78,134.05,106,-57.00,-16.00,-1010.00
2024-06-07 10:54:15.124102,-3,2,0,-1,0,0,73,77,141,120,78,134.15,106,-70.00,-28.00,-972.00
2024-06-07 10:54:15.224520,-3,1,0,-1,0,0,74,76,141,120,78,134.03,107,-55.00,-29.00,-995.00
2024-06-07 10:54:15.328737,-3,0,0,-1,0,0,74,76,141,120,78,133.99,107,-64.00,16.00,-981.00
2024-06-07 10:54:15.427302,-3,0,0,-2,1,0,74,76,141,120,78,133.95,107,-63.00,-18.00,-969.00
2024-06-07 10:54:15.621535,-3,-1,0,-2,0,0,74,76,140,120,78,134.01,107,-64.00,-17.00,-1001.00
2024-06-07 10:54:15.631342,-3,-3,0,-2,0,0,74,76,140,120,78,134.03,107,-59.00,-14.00,-1027.00
2024-06-07 10:54:15.832947,-4,-1,0,-2,0,0,74,76,139,120,78,134.03,107,-60.00,-9.00,-1005.00
2024-06-07 10:54:15.835312,-8,0,0,-1,0,0,74,76,140,120,78,134.03,107,-62.00,2.00,-983.00
2024-06-07 10:54:15.937493,-7,0,0,-1,0,0,74,76,139,120,78,133.95,107,-94.00,-46.00,-1069.00
2024-06-07 10:54:16.134137,-6,0,0,0,0,0,74,76,139,120,78,133.95,107,-79.00,2.00,-992.00
2024-06-07 10:54:16.144663,-5,0,0,0,0,0,74,76,137,120,78,133.98,107,-84.00,-4.00,-1014.00
2024-06-07 10:54:16.245264,-4,0,0,0,0,0,75,76,139,120,78,133.98,108,-81.00,-27.00,-1023.00
2024-06-07 10:54:16.346497,-4,0,0,0,0,0,75,76,137,120,78,133.99,108,-77.00,-32.00,-985.00
2024-06-07 10:54:16.447877,-4,0,0,0,0,0,75,76,138,120,78,133.97,108,-65.00,23.00,-1051.00
2024-06-07 10:54:16.646844,-4,1,0,0,0,0,75,76,137,120,78,133.98,108,-50.00,-6.00,-966.00
2024-06-07 10:54:16.651309,-4,0,0,0,0,0,75,76,137,120,78,134.03,108,-60.00,-8.00,-973.00
2024-06-07 10:54:16.850523,-3,0,0,0,0,0,75,76,137,120,78,133.98,108,-63.00,-14.00,-975.00
2024-06-07 10:54:16.856191,-3,1,0,0,0,0,75,76,138,120,78,133.99,108,-79.00,-33.00,-948.00
2024-06-07 10:54:17.055323,-3,1,0,0,0,0,75,76,136,120,78,133.90,108,-68.00,8.00,-1010.00
2024-06-07 10:54:17.059393,-3,1,0,0,0,0,75,76,137,120,78,133.92,108,-81.00,0.00,-986.00
2024-06-07 10:54:17.162040,-3,1,0,0,0,0,75,76,139,120,78,134.04,108,-90.00,22.00,-1028.00
2024-06-07 10:54:17.263276,-4,0,0,0,0,0,74,76,137,120,78,134.03,109,-101.00,-3.00,-1008.00
2024-06-07 10:54:17.365519,-5,0,0,0,0,0,74,76,137,120,78,133.99,109,-114.00,40.00,-968.00
2024-06-07 10:54:17.467503,-5,0,0,0,0,0,74,76,138,120,78,133.99,109,-92.00,35.00,-1007.00
2024-06-07 10:54:17.569317,-5,-1,0,0,0,0,74,76,137,120,78,133.95,109,-113.00,-5.00,-1002.00
2024-06-07 10:54:17.671783,-5,-1,0,0,0,0,74,76,138,120,78,133.99,109,-85.00,22.00,-994.00
2024-06-07 10:54:17.773424,-5,-1,0,0,0,0,74,76,138,120,78,133.93,109,-117.00,2.00,-965.00
2024-06-07 10:54:17.876426,-6,-1,0,0,0,0,74,76,139,120,78,133.94,109,-102.00,3.00,-1033.00
2024-06-07 10:54:17.979292,-6,0,1,0,0,0,74,76,140,120,78,133.96,109,-85.00,-10.00,-1009.00
2024-06-07 10:54:18.081668,-5,-5,1,0,0,0,74,76,142,120,78,133.98,109,-82.00,29.00,-994.00
2024-06-07 10:54:18.131263,-4,-7,1,0,0,0,74,76,143,120,78,134.07,110,-113.00,17.00,-965.00
2024-06-07 10:54:18.284259,-4,-7,1,0,-1,0,73,77,143,120,78,134.08,110,-102.00,37.00,-1001.00
2024-06-07 10:54:18.335063,-5,-6,1,0,-2,0,73,77,144,120,78,134.00,110,-96.00,50.00,-950.00
2024-06-07 10:54:18.488813,-5,-3,1,0,-3,0,73,77,143,120,78,134.08,110,-90.00,48.00,-991.00
2024-06-07 10:54:18.539196,-5,0,1,0,-3,0,73,77,142,130,77,134.10,110,-89.00,75.00,-883.00
2024-06-07 10:54:18.796045,-5,0,1,0,-3,0,73,77,142,130,77,134.04,110,-88.00,42.00,-998.00
2024-06-07 10:54:18.796405,-5,0,1,0,-2,0,73,77,142,130,77,133.99,110,-79.00,53.00,-974.00
2024-06-07 10:54:18.848673,-5,-1,1,0,-1,0,73,77,141,130,77,133.96,110,-70.00,55.00,-980.00
2024-06-07 10:54:18.948198,-4,-2,0,0,-1,0,73,77,140,120,77,134.05,110,-43.00,54.00,-975.00
2024-06-07 10:54:19.103249,-3,-4,0,0,-1,0,73,77,140,120,77,134.01,110,-85.00,38.00,-1005.00
2024-06-07 10:54:19.152173,-4,-3,0,0,-2,0,73,77,140,120,77,133.98,111,-86.00,42.00,-1021.00
2024-06-07 10:54:19.307977,-4,-2,0,0,-2,0,74,77,137,120,77,133.97,111,-100.00,44.00,-964.00
2024-06-07 10:54:19.356312,-5,-1,0,0,-2,0,74,77,138,120,77,133.98,111,-87.00,20.00,-1029.00
2024-06-07 10:54:19.512720,-5,-1,0,0,-2,0,74,77,137,120,77,133.95,111,-95.00,43.00,-1017.00
2024-06-07 10:54:19.562254,-5,0,0,0,-2,0,74,77,137,120,77,133.91,111,-75.00,41.00,-980.00
2024-06-07 10:54:19.662329,-4,-1,0,0,-2,0,74,77,136,120,77,133.92,111,-73.00,45.00,-920.00
2024-06-07 10:54:19.820566,-3,-2,0,0,-2,0,74,77,135,120,77,134.02,111,-60.00,51.00,-1026.00
2024-06-07 10:54:19.869907,-3,-2,0,0,-2,0,74,77,135,120,77,133.96,111,-72.00,33.00,-1064.00
2024-06-07 10:54:19.968340,-4,0,0,0,-2,0,74,77,136,120,77,133.86,111,-71.00,47.00,-1020.00
2024-06-07 10:54:20.127167,-4,3,0,0,-2,0,74,77,134,120,77,133.91,111,-61.00,26.00,-987.00
2024-06-07 10:54:20.172833,-3,2,0,0,-1,0,74,77,135,120,77,133.92,112,-72.00,36.00,-978.00
2024-06-07 10:54:20.274383,-3,0,0,0,0,0,73,77,133,120,77,133.91,112,-79.00,25.00,-938.00
2024-06-07 10:54:20.376363,-3,0,0,0,0,0,73,77,133,120,77,133.91,112,-61.00,27.00,-1020.00
2024-06-07 10:54:20.536682,-3,0,0,0,0,0,73,77,133,120,77,133.89,112,-73.00,13.00,-990.00
2024-06-07 10:54:20.580218,-3,0,0,0,0,0,73,77,132,120,77,133.91,112,-77.00,5.00,-1013.00
2024-06-07 10:54:20.742260,-3,0,0,0,0,0,73,77,133,120,77,133.93,112,-61.00,10.00,-968.00
2024-06-07 10:54:20.784647,-3,0,0,0,0,0,73,77,134,120,77,133.93,112,-48.00,9.00,-1025.00
2024-06-07 10:54:20.946831,-3,0,0,0,0,0,73,77,134,120,77,133.88,112,-73.00,-21.00,-1006.00
2024-06-07 10:54:20.990215,-3,0,0,0,0,0,73,77,133,120,77,133.90,112,-74.00,-8.00,-968.00
2024-06-07 10:54:21.090494,-3,1,0,0,0,0,73,77,133,120,77,133.88,112,-63.00,-39.00,-1009.00
2024-06-07 10:54:21.195293,-3,1,0,0,0,0,73,77,134,120,77,133.87,113,-69.00,-15.00,-1036.00
2024-06-07 10:54:21.294152,-3,1,0,0,0,0,74,76,133,120,77,133.85,113,-47.00,-10.00,-1064.00
2024-06-07 10:54:21.458532,-2,1,0,0,0,0,74,76,135,120,77,133.93,113,-58.00,-21.00,-964.00
2024-06-07 10:54:21.498048,-2,1,0,0,0,0,74,76,134,120,77,133.97,113,-59.00,-13.00,-994.00
2024-06-07 10:54:21.663364,-2,1,0,0,0,0,74,76,135,120,77,133.99,113,-45.00,-2.00,-1027.00
2024-06-07 10:54:21.702091,-2,1,0,0,0,0,74,76,136,120,77,133.95,113,-51.00,-2.00,-993.00
2024-06-07 10:54:21.868176,-2,1,0,0,0,0,74,76,136,120,77,133.97,113,-60.00,10.00,-996.00
2024-06-07 10:54:21.906094,-2,0,0,0,0,0,74,76,137,120,77,133.97,113,-50.00,21.00,-991.00
2024-06-07 10:54:21.958127,-2,0,0,0,0,0,74,76,137,120,77,133.94,113,-48.00,8.00,-995.00
2024-06-07 10:54:22.059606,-2,0,0,0,0,0,74,76,136,120,77,134.00,113,-41.00,9.00,-1033.00
2024-06-07 10:54:22.161248,-2,0,0,0,0,0,74,76,138,120,77,134.00,114,-70.00,0.00,-980.00
2024-06-07 10:54:22.263012,-2,0,0,0,0,0,74,76,138,120,77,133.99,114,-26.00,1.00,-1026.00
2024-06-07 10:54:22.365116,-3,1,0,0,0,0,74,76,137,120,77,133.98,114,-63.00,0.00,-974.00
2024-06-07 10:54:22.482441,-4,6,0,0,1,0,74,76,138,120,77,134.02,114,-38.00,0.00,-975.00
2024-06-07 10:54:22.568998,-3,6,0,0,2,0,74,76,138,120,77,134.04,114,-33.00,3.00,-1036.00
2024-06-07 10:54:22.688100,-3,3,0,0,3,0,74,76,138,120,77,133.95,114,-52.00,-13.00,-1026.00
2024-06-07 10:54:22.773337,-3,2,0,0,3,0,74,76,136,120,77,133.96,114,-50.00,-2.00,-995.00
2024-06-07 10:54:22.892207,-3,0,0,0,4,0,74,76,137,120,77,134.01,114,-54.00,-3.00,-1005.00
2024-06-07 10:54:22.976991,-3,-2,0,0,3,0,74,76,137,120,77,134.01,114,-50.00,-28.00,-1068.00
2024-06-07 10:54:23.096778,-3,-2,0,0,3,0,74,76,136,120,77,134.05,114,-46.00,14.00,-977.00
2024-06-07 10:54:23.181010,-3,-1,0,0,2,0,74,76,136,120,77,134.02,115,-46.00,11.00,-1003.00
2024-06-07 10:54:23.308358,-2,0,0,0,2,0,74,76,137,120,77,134.09,115,-53.00,-29.00,-1002.00
2024-06-07 10:54:23.385352,-2,0,0,0,2,0,74,76,136,120,77,133.99,115,-56.00,-30.00,-988.00
2024-06-07 10:54:23.486996,-3,0,0,0,2,0,74,76,137,120,76,133.97,115,-47.00,4.00,-974.00
2024-06-07 10:54:23.608793,-3,0,0,0,2,0,74,76,138,120,76,134.06,115,-55.00,-46.00,-986.00
2024-06-07 10:54:23.691113,-3,0,0,0,2,0,74,76,137,120,76,134.03,115,-60.00,-1.00,-965.00
2024-06-07 10:54:23.813512,-2,0,0,0,1,0,74,76,138,120,76,134.04,115,-47.00,-7.00,-1016.00
2024-06-07 10:54:23.896100,-1,0,0,0,1,0,74,76,140,120,76,134.02,115,-38.00,-39.00,-1036.00
2024-06-07 10:54:24.020170,0,0,1,0,1,0,74,76,139,120,76,134.05,115,-41.00,-25.00,-1038.00
2024-06-07 10:54:24.100619,0,0,1,0,1,0,74,76,140,120,76,134.03,115,-30.00,-21.00,-989.00
2024-06-07 10:54:24.232206,0,0,1,0,1,0,74,76,141,120,76,134.06,116,-39.00,-17.00,-1005.00
2024-06-07 10:54:24.303964,-1,0,1,-1,1,0,74,77,140,120,76,134.08,116,-65.00,-21.00,-1043.00
2024-06-07 10:54:24.428205,-6,-2,1,0,1,0,74,77,142,120,76,134.09,116,-26.00,-28.00,-995.00
2024-06-07 10:54:24.508390,-4,-2,1,0,0,0,74,77,142,120,76,134.11,116,-56.00,-1.00,-999.00
2024-06-07 10:54:24.635321,-3,0,1,0,0,0,74,77,142,120,76,134.14,116,-45.00,-3.00,-981.00
2024-06-07 10:54:24.736032,-3,0,1,0,0,0,74,77,142,120,76,134.17,116,-64.00,9.00,-965.00
2024-06-07 10:54:24.814055,-2,0,0,0,0,0,74,77,143,120,76,134.08,116,-35.00,-2.00,-1037.00
2024-06-07 10:54:24.940084,-2,0,0,0,0,0,74,77,143,120,76,134.04,116,-68.00,12.00,-976.00
2024-06-07 10:54:25.017889,-3,0,0,0,0,0,74,77,143,120,76,134.07,116,-57.00,3.00,-958.00
2024-06-07 10:54:25.145318,-3,0,0,0,0,0,74,77,143,120,76,134.00,116,-51.00,-1.00,-1012.00
2024-06-07 10:54:25.235556,-3,0,0,0,0,0,74,77,144,120,76,134.05,117,-60.00,-17.00,-952.00
2024-06-07 10:54:25.324165,-3,0,0,0,0,0,73,77,143,120,76,134.17,117,-58.00,-14.00,-985.00
2024-06-07 10:54:25.426105,-3,0,0,0,0,0,73,77,143,120,76,134.11,117,-56.00,-32.00,-1006.00
2024-06-07 10:54:25.554632,-3,1,0,0,0,0,73,77,143,120,76,134.11,117,-54.00,-2.00,-969.00
2024-06-07 10:54:25.629963,-3,1,0,0,0,0,73,77,143,120,76,134.09,117,-77.00,-18.00,-977.00
2024-06-07 10:54:25.732740,-3,2,0,0,0,0,73,77,142,120,76,134.16,117,-47.00,-23.00,-1040.00
2024-06-07 10:54:25.783097,-3,2,0,0,0,0,73,77,143,120,76,134.07,117,-68.00,-45.00,-1040.00
2024-06-07 10:54:25.964041,-3,2,0,0,0,0,73,77,142,120,76,134.10,117,-54.00,-55.00,-980.00
2024-06-07 10:54:25.987853,-3,2,0,0,0,0,73,77,142,120,76,134.18,117,-65.00,-31.00,-937.00
2024-06-07 10:54:26.197854,-3,2,0,0,0,0,73,77,143,120,76,134.21,117,-37.00,-29.00,-994.00
2024-06-07 10:54:26.198016,-2,2,0,0,0,0,73,77,141,120,76,134.18,118,-47.00,-56.00,-939.00
2024-06-07 10:54:26.293983,-2,3,0,0,0,0,75,78,142,120,76,134.16,118,-41.00,-62.00,-985.00
2024-06-07 10:54:26.480332,-2,3,0,0,0,0,75,78,142,120,76,134.16,118,-55.00,-44.00,-987.00
2024-06-07 10:54:26.497911,-1,4,0,0,0,0,75,78,142,120,76,134.15,118,-45.00,-87.00,-1001.00
2024-06-07 10:54:26.599711,-1,4,0,0,0,0,75,78,142,120,76,134.28,118,-32.00,-51.00,-1016.00
2024-06-07 10:54:26.783597,-2,3,4,0,0,0,75,78,141,120,76,134.14,118,-50.00,-48.00,-1009.00
2024-06-07 10:54:26.803772,-2,2,10,0,0,0,75,78,141,120,76,134.20,118,-53.00,-33.00,-1015.00
2024-06-07 10:54:26.913237,-2,2,15,0,0,0,75,78,142,120,76,134.18,118,-41.00,-52.00,-1002.00
2024-06-07 10:54:27.007791,-2,2,21,0,0,0,75,78,141,120,76,134.20,118,-46.00,-63.00,-1026.00
2024-06-07 10:54:27.110306,-2,3,27,0,0,0,75,78,141,120,76,134.18,118,-56.00,-47.00,-993.00
2024-06-07 10:54:27.212334,-3,3,33,0,0,0,75,78,140,120,76,134.09,119,-49.00,-66.00,-1031.00
2024-06-07 10:54:27.313829,-3,3,38,0,0,0,74,76,141,120,76,134.05,119,-49.00,-47.00,-957.00
2024-06-07 10:54:27.499956,-3,3,45,0,0,0,74,76,139,120,76,133.99,119,-44.00,-58.00,-1038.00
2024-06-07 10:54:27.518193,-4,2,51,0,0,0,74,76,141,120,76,134.01,119,-66.00,-50.00,-1002.00
2024-06-07 10:54:27.621799,-4,1,57,0,0,0,74,76,141,120,76,133.97,119,-58.00,-48.00,-1002.00
2024-06-07 10:54:27.723200,-5,1,63,0,0,0,74,76,141,120,76,134.09,119,-80.00,-25.00,-1031.00
2024-06-07 10:54:27.825656,-5,0,70,0,0,0,74,76,141,120,76,134.13,119,-85.00,-21.00,-961.00
2024-06-07 10:54:27.926112,-4,0,76,0,0,0,74,76,141,120,76,134.20,119,-55.00,31.00,-1022.00
2024-06-07 10:54:28.030719,-4,-2,82,0,0,0,74,76,141,120,76,134.11,119,-62.00,27.00,-998.00
2024-06-07 10:54:28.132073,-3,-3,88,0,0,0,74,76,141,120,76,134.14,119,-84.00,31.00,-952.00
2024-06-07 10:54:28.231700,-3,-3,94,0,0,0,74,76,140,120,76,134.18,120,-63.00,46.00,-967.00
2024-06-07 10:54:28.524814,-2,-4,100,0,0,0,75,77,142,120,76,134.12,120,-50.00,58.00,-943.00
2024-06-07 10:54:28.528049,-1,-3,106,0,0,0,75,77,140,120,76,134.15,120,-20.00,60.00,-1026.00
2024-06-07 10:54:28.538177,-1,-3,112,0,0,0,75,77,139,120,76,134.12,120,-58.00,38.00,-969.00
2024-06-07 10:54:28.644690,0,-3,118,0,0,0,75,77,140,120,76,134.11,120,-33.00,57.00,-989.00
2024-06-07 10:54:28.749171,0,-3,124,0,0,0,75,77,139,120,76,134.17,120,-26.00,45.00,-975.00
2024-06-07 10:54:28.849493,0,-3,130,0,0,0,75,77,138,120,76,134.18,120,-25.00,45.00,-1038.00
2024-06-07 10:54:28.952291,0,-3,136,0,0,0,75,77,139,120,76,134.18,120,-19.00,46.00,-1010.00
2024-06-07 10:54:29.054418,0,-3,142,0,0,0,75,77,139,120,76,134.17,120,10.00,55.00,-1059.00
2024-06-07 10:54:29.152649,0,-3,148,0,0,0,75,77,137,120,76,134.17,120,-5.00,34.00,-1053.00
2024-06-07 10:54:29.252773,1,-2,154,0,0,0,75,77,139,120,76,134.08,121,2.00,57.00,-969.00
2024-06-07 10:54:29.353855,1,-2,160,0,0,0,74,77,139,120,76,134.13,121,18.00,43.00,-1025.00
2024-06-07 10:54:29.548326,1,-2,166,0,0,0,74,77,139,120,76,134.18,121,-11.00,39.00,-996.00
2024-06-07 10:54:29.562255,1,-1,172,0,0,0,74,77,139,120,75,134.20,121,7.00,28.00,-1024.00
2024-06-07 10:54:29.660412,1,-1,178,0,0,0,74,77,140,120,75,134.19,121,10.00,39.00,-977.00
2024-06-07 10:54:29.855054,1,-1,-174,0,0,0,74,77,140,120,75,133.99,121,19.00,39.00,-982.00
2024-06-07 10:54:29.864578,1,-1,-168,0,0,0,74,77,140,120,75,134.05,121,25.00,41.00,-1008.00
2024-06-07 10:54:29.916806,1,-1,-162,0,0,0,74,77,140,120,75,134.16,121,37.00,33.00,-1032.00
2024-06-07 10:54:30.016863,2,-1,-156,0,0,0,74,77,140,120,75,134.15,121,12.00,31.00,-980.00
2024-06-07 10:54:30.164487,2,0,-150,0,0,0,74,77,141,120,75,134.10,121,39.00,38.00,-997.00
2024-06-07 10:54:30.239139,2,0,-144,0,0,0,74,77,141,120,75,134.17,122,36.00,58.00,-1007.00
2024-06-07 10:54:30.322514,2,-1,-138,0,0,0,74,77,142,120,75,134.14,122,38.00,32.00,-1027.00
2024-06-07 10:54:30.479830,2,-1,-132,0,0,0,74,77,140,120,75,134.12,122,51.00,33.00,-1021.00
2024-06-07 10:54:30.526807,2,-1,-126,0,0,0,74,77,140,120,75,134.06,122,58.00,20.00,-996.00
2024-06-07 10:54:30.695245,3,0,-120,0,0,0,74,77,140,120,75,134.12,122,49.00,3.00,-972.00
2024-06-07 10:54:30.769924,3,0,-114,0,0,0,74,77,141,120,75,134.11,122,52.00,-7.00,-985.00
2024-06-07 10:54:30.833769,3,0,-108,0,0,0,74,77,141,120,75,134.14,122,41.00,0.00,-961.00
2024-06-07 10:54:31.006215,3,1,-102,0,0,0,74,77,140,120,75,134.10,122,37.00,-30.00,-1006.00
2024-06-07 10:54:31.038865,3,1,-97,0,0,0,74,77,141,120,75,134.12,122,39.00,-11.00,-967.00
2024-06-07 10:54:31.138607,3,1,-91,0,0,0,74,77,141,120,75,134.06,122,28.00,-15.00,-1018.00
2024-06-07 10:54:31.288906,2,1,-85,0,0,0,74,77,142,120,75,134.08,123,41.00,-46.00,-1003.00
2024-06-07 10:54:31.343416,1,1,-74,0,0,0,75,77,141,120,75,134.19,123,10.00,-18.00,-1015.00
2024-06-07 10:54:31.513674,1,1,-68,0,0,0,75,77,141,120,75,134.13,123,25.00,-11.00,-1009.00
2024-06-07 10:54:31.591950,1,0,-63,1,0,0,75,77,142,120,75,134.15,123,28.00,-19.00,-1005.00
2024-06-07 10:54:31.648543,1,0,-57,0,0,0,75,77,140,120,75,134.17,123,31.00,-26.00,-979.00
2024-06-07 10:54:31.750658,1,1,-52,0,0,0,75,77,140,120,75,134.17,123,23.00,-24.00,-972.00
2024-06-07 10:54:31.853263,1,0,-46,0,0,0,75,77,140,120,75,134.15,123,14.00,-4.00,-1002.00
2024-06-07 10:54:32.005510,1,1,-39,0,0,0,75,77,141,120,75,134.17,123,12.00,-19.00,-1011.00
2024-06-07 10:54:32.059613,1,0,-33,0,0,0,75,77,142,120,75,134.23,123,6.00,-40.00,-979.00
2024-06-07 10:54:32.158541,1,0,-26,0,0,0,75,77,140,120,75,134.15,124,8.00,-1.00,-981.00
2024-06-07 10:54:32.312778,1,0,-20,0,0,0,75,77,141,120,75,134.29,124,-3.00,-9.00,-964.00
2024-06-07 10:54:32.369289,0,0,-14,0,0,0,74,76,141,120,75,134.30,124,-2.00,-21.00,-1000.00
2024-06-07 10:54:32.465104,0,0,-10,0,0,0,74,76,141,120,75,134.17,124,9.00,-23.00,-994.00
2024-06-07 10:54:32.620501,0,0,-7,0,0,0,74,76,142,120,75,134.16,124,-2.00,-26.00,-994.00
2024-06-07 10:54:32.668565,0,1,-4,0,0,0,74,76,143,120,75,134.21,124,-15.00,-35.00,-947.00
2024-06-07 10:54:32.824699,0,1,-2,0,0,0,74,76,141,120,75,134.20,124,-3.00,-32.00,-984.00
2024-06-07 10:54:32.873735,0,2,-1,0,0,0,74,76,142,120,75,134.22,124,-13.00,-59.00,-969.00
2024-06-07 10:54:33.029606,0,3,-1,0,0,0,74,76,142,120,75,134.17,124,-10.00,-78.00,-1048.00
2024-06-07 10:54:33.079238,0,3,-1,0,0,0,74,76,142,120,75,134.40,124,-12.00,-69.00,-995.00
2024-06-07 10:54:33.179930,1,4,-1,0,0,0,74,76,142,120,75,134.34,125,15.00,-78.00,-1029.00
2024-06-07 10:54:33.281575,1,5,-1,0,-1,0,74,76,142,120,75,134.33,125,22.00,-106.00,-997.00
2024-06-07 10:54:33.439321,1,5,-1,0,-1,0,75,77,143,120,75,134.33,125,6.00,-99.00,-1002.00
2024-06-07 10:54:33.485618,2,5,-1,0,0,0,75,77,144,120,75,134.32,125,-12.00,-65.00,-995.00
2024-06-07 10:54:33.536822,1,6,-1,0,0,0,75,77,142,120,75,134.48,125,6.00,-63.00,-1011.00
2024-06-07 10:54:33.644670,2,5,-1,0,0,0,75,77,144,120,75,134.48,125,4.00,-85.00,-993.00
2024-06-07 10:54:33.741850,2,6,-1,0,0,0,75,77,143,120,75,134.49,125,8.00,-108.00,-948.00
2024-06-07 10:54:33.843315,2,5,-1,0,0,0,75,77,145,120,75,134.48,125,13.00,-103.00,-943.00
2024-06-07 10:54:33.951684,2,5,-1,0,0,0,75,77,143,120,75,134.42,125,3.00,-79.00,-991.00
2024-06-07 10:54:34.046622,1,4,-1,0,0,0,75,77,144,120,75,134.44,125,20.00,-81.00,-933.00
2024-06-07 10:54:34.155970,2,4,-1,0,0,0,75,77,141,120,75,134.35,126,-2.00,-73.00,-1009.00
2024-06-07 10:54:34.253873,0,5,-1,0,0,0,75,77,142,120,75,134.42,126,9.00,-99.00,-1022.00
2024-06-07 10:54:34.353373,0,5,-1,0,0,0,74,77,140,120,75,134.42,126,15.00,-54.00,-989.00
2024-06-07 10:54:34.463164,1,4,0,0,0,0,74,77,140,120,75,134.34,126,9.00,-103.00,-1000.00
2024-06-07 10:54:34.556469,1,3,0,0,0,0,74,77,140,120,75,134.46,126,-5.00,-91.00,-988.00
2024-06-07 10:54:34.668328,0,4,-1,0,0,0,74,77,140,120,75,134.46,126,12.00,-148.00,-1004.00
2024-06-07 10:54:34.760702,0,6,-1,0,-1,0,74,77,140,120,75,134.50,126,32.00,-163.00,-974.00
2024-06-07 10:54:34.873141,1,7,-1,0,-1,0,74,77,141,120,75,134.49,126,-6.00,-147.00,-1051.00
2024-06-07 10:54:34.964381,2,8,-1,0,-1,0,74,77,141,120,75,134.57,126,-10.00,-143.00,-982.00
2024-06-07 10:54:35.077476,2,8,-5,0,-1,0,74,77,142,120,75,134.67,126,-1.00,-106.00,-1028.00
2024-06-07 10:54:35.174139,1,8,-12,0,0,0,74,77,142,120,75,134.45,127,46.00,-119.00,-993.00
2024-06-07 10:54:35.270873,3,7,-17,0,0,0,74,77,142,120,75,134.29,127,77.00,-152.00,-1015.00
2024-06-07 10:54:35.384814,4,7,-24,0,0,0,74,77,141,120,75,134.39,127,76.00,-151.00,-966.00
2024-06-07 10:54:35.475301,4,7,-30,0,0,0,74,77,142,120,75,134.34,127,81.00,-102.00,-984.00
2024-06-07 10:54:35.589469,5,6,-36,0,0,0,74,77,142,120,74,134.27,127,63.00,-101.00,-1020.00
2024-06-07 10:54:35.680189,6,5,-42,0,0,0,74,77,143,120,74,134.30,127,73.00,-92.00,-994.00
2024-06-07 10:54:35.782543,7,5,-48,0,0,0,74,77,143,120,74,134.20,127,73.00,-81.00,-1019.00
2024-06-07 10:54:35.884799,7,4,-54,0,0,0,74,77,143,120,74,134.45,127,68.00,-67.00,-990.00
2024-06-07 10:54:35.999070,7,2,-60,0,0,0,74,77,142,130,74,134.36,127,92.00,-92.00,-1017.00
2024-06-07 10:54:36.089483,6,2,-66,-1,0,0,74,77,142,120,74,134.19,127,119.00,-87.00,-990.00
2024-06-07 10:54:36.189264,6,3,-72,-1,0,0,74,77,142,120,74,134.36,128,116.00,-58.00,-886.00
2024-06-07 10:54:36.310337,8,2,-78,-1,0,0,74,77,142,130,74,134.37,128,111.00,-42.00,-975.00
2024-06-07 10:54:36.393300,7,2,-85,-1,0,0,75,78,141,120,74,134.17,128,118.00,-48.00,-1039.00
2024-06-07 10:54:36.511139,6,3,-92,-1,0,0,75,78,141,120,74,133.95,128,145.00,6.00,-991.00
2024-06-07 10:54:36.597212,7,0,-98,-1,0,0,75,78,141,120,74,134.01,128,153.00,-11.00,-1031.00
2024-06-07 10:54:36.716489,8,0,-104,-1,0,0,75,78,140,120,74,133.73,128,146.00,-10.00,-973.00
2024-06-07 10:54:36.802421,8,-1,-109,0,0,0,75,78,141,120,74,134.11,128,125.00,58.00,-1016.00
2024-06-07 10:54:36.920783,9,-3,-115,0,0,0,75,78,141,120,74,134.17,128,136.00,2.00,-975.00
2024-06-07 10:54:37.006307,9,-3,-122,-1,0,0,75,78,140,120,74,134.35,128,135.00,7.00,-1019.00
2024-06-07 10:54:37.126195,9,-2,-128,0,0,0,75,78,140,120,74,134.26,128,100.00,67.00,-1020.00
2024-06-07 10:54:37.216427,8,-3,-134,0,0,0,75,78,139,120,74,134.28,129,77.00,78.00,-962.00
2024-06-07 10:54:37.261206,6,-5,-139,0,0,0,75,78,138,120,74,134.30,129,100.00,77.00,-989.00
2024-06-07 10:54:37.432670,5,-5,-145,0,1,0,75,78,136,120,74,134.23,129,92.00,52.00,-999.00
2024-06-07 10:54:37.471095,5,-4,-151,0,1,0,75,78,136,120,74,134.22,129,75.00,94.00,-990.00
2024-06-07 10:54:37.637599,4,-4,-156,0,1,0,75,78,136,120,74,134.25,129,44.00,98.00,-1027.00
2024-06-07 10:54:37.720373,3,-4,-162,0,1,0,75,78,136,120,74,134.27,129,17.00,91.00,-1007.00
2024-06-07 10:54:37.771127,2,-4,-167,0,1,0,75,78,136,120,74,134.31,129,12.00,86.00,-970.00
2024-06-07 10:54:37.873227,1,-4,-173,0,1,0,75,78,135,120,74,134.31,129,8.00,65.00,-962.00
2024-06-07 10:54:38.047187,0,-2,-179,0,1,0,75,78,135,120,74,134.17,129,8.00,110.00,-987.00
2024-06-07 10:54:38.077239,0,-4,174,0,1,0,75,78,136,120,74,134.23,129,-46.00,83.00,-957.00
2024-06-07 10:54:38.179244,-1,-4,168,0,1,0,75,78,135,120,74,134.17,130,-41.00,61.00,-1005.00
2024-06-07 10:54:38.354383,-2,-3,161,0,1,0,75,78,136,120,74,134.23,130,-39.00,63.00,-1007.00
2024-06-07 10:54:38.383283,-2,-3,155,0,1,0,75,78,136,120,74,134.12,130,-59.00,64.00,-1017.00
2024-06-07 10:54:38.559415,-3,-2,149,0,1,0,75,78,137,120,74,134.16,130,-37.00,50.00,-997.00
2024-06-07 10:54:38.587163,-2,-1,143,0,1,0,75,78,137,120,74,134.18,130,-72.00,40.00,-1025.00
2024-06-07 10:54:38.764125,-2,-2,136,0,0,0,75,78,137,120,74,134.08,130,-80.00,24.00,-925.00
2024-06-07 10:54:38.791185,-3,-1,131,0,1,0,75,78,138,120,74,133.96,130,-75.00,29.00,-964.00
2024-06-07 10:54:38.968916,-3,0,125,0,1,0,75,78,137,120,74,133.93,130,-86.00,-9.00,-968.00
2024-06-07 10:54:38.995356,-3,0,119,1,0,0,75,78,138,120,74,134.07,130,-137.00,-15.00,-970.00
2024-06-07 10:54:39.173579,-3,1,113,1,0,0,75,78,138,120,74,133.88,130,-103.00,-6.00,-1014.00
2024-06-07 10:54:39.199114,-4,2,107,1,0,0,75,78,139,120,74,133.80,131,-124.00,-7.00,-976.00
2024-06-07 10:54:39.301229,-5,2,101,1,0,0,75,78,139,120,74,133.97,131,-125.00,-41.00,-988.00
2024-06-07 10:54:39.403111,-5,3,95,0,0,0,74,78,141,120,74,134.09,131,-113.00,-45.00,-970.00
2024-06-07 10:54:39.583314,-6,3,89,0,0,0,74,78,140,120,74,134.07,131,-116.00,-61.00,-940.00
2024-06-07 10:54:39.607452,-6,4,84,0,0,0,74,78,141,120,74,134.20,131,-98.00,-72.00,-1017.00
2024-06-07 10:54:39.787898,-5,5,78,0,0,0,74,78,142,120,74,134.22,131,-110.00,-77.00,-967.00
2024-06-07 10:54:39.811355,-4,5,72,0,0,0,74,78,143,120,74,134.12,131,-71.00,-89.00,-930.00
2024-06-07 10:54:39.992764,-4,6,66,0,0,0,74,78,142,120,74,134.06,131,-60.00,-80.00,-1036.00
2024-06-07 10:54:40.015226,-3,6,60,0,0,0,74,78,142,120,74,134.07,131,-102.00,-48.00,-942.00
2024-06-07 10:54:40.197504,-2,5,55,0,0,0,74,78,143,120,74,134.22,131,-98.00,-71.00,-990.00
2024-06-07 10:54:40.219076,-3,3,49,0,0,0,74,78,141,120,74,134.32,132,-78.00,-91.00,-1011.00
2024-06-07 10:54:40.321062,-3,4,42,0,-1,0,74,78,142,120,74,134.40,132,-76.00,-143.00,-1037.00
2024-06-07 10:54:40.505073,-4,5,37,0,-1,0,75,78,143,120,74,134.41,132,-69.00,-116.00,-1034.00
2024-06-07 10:54:40.525071,-3,7,31,0,-1,0,75,78,143,130,74,134.33,132,-91.00,-98.00,-963.00
2024-06-07 10:54:40.627750,-3,7,25,0,-1,0,75,78,142,130,74,134.33,132,-77.00,-87.00,-964.00
2024-06-07 10:54:40.811898,-3,7,20,0,0,0,75,78,144,130,74,134.45,132,-38.00,-131.00,-1014.00
2024-06-07 10:54:40.831408,-3,7,16,0,0,0,75,78,143,130,74,134.42,132,-73.00,-143.00,-969.00
2024-06-07 10:54:41.016724,-2,8,12,0,-1,0,75,78,141,130,74,134.44,132,-58.00,-156.00,-936.00
2024-06-07 10:54:41.035420,-2,7,9,0,-1,0,75,78,144,130,74,134.58,132,-70.00,-171.00,-956.00
2024-06-07 10:54:41.221560,-3,9,6,0,-1,0,75,78,143,120,74,134.52,132,-25.00,-197.00,-939.00
2024-06-07 10:54:41.241292,-2,9,5,0,-1,1,75,78,141,120,74,134.55,133,-26.00,-166.00,-940.00
2024-06-07 10:54:41.342473,0,9,4,0,-1,0,75,78,141,120,74,134.51,133,-28.00,-189.00,-1051.00
2024-06-07 10:54:41.444731,0,9,3,0,-1,0,75,78,139,120,74,134.46,133,-36.00,-173.00,-1019.00
2024-06-07 10:54:41.550987,-1,9,1,-1,-1,0,75,78,138,120,74,134.41,133,-40.00,-183.00,-987.00
2024-06-07 10:54:41.596323,-2,8,1,-1,-1,0,75,78,138,120,74,134.43,133,-63.00,-171.00,-1005.00
2024-06-07 10:54:41.734834,-1,9,0,-1,-1,0,75,78,137,120,74,134.36,133,-47.00,-167.00,-948.00
2024-06-07 10:54:41.800979,-1,9,0,0,-1,0,75,78,137,120,74,134.26,133,-43.00,-150.00,-1035.00
2024-06-07 10:54:41.938442,-1,9,0,0,0,0,75,78,138,120,74,134.23,133,-31.00,-130.00,-1027.00
2024-06-07 10:54:42.005050,-1,9,0,0,0,0,75,78,137,120,74,134.25,133,-25.00,-152.00,-1018.00
2024-06-07 10:54:42.143590,-1,8,0,0,0,0,75,78,137,120,74,134.29,133,-18.00,-150.00,-974.00
2024-06-07 10:54:42.209403,-1,8,0,0,0,0,75,78,137,120,74,134.23,134,-16.00,-151.00,-1004.00
2024-06-07 10:54:42.348375,-1,8,0,0,0,0,75,78,137,120,74,134.14,134,-21.00,-144.00,-991.00
2024-06-07 10:54:42.413227,-1,8,0,0,0,0,75,78,138,120,74,134.16,134,-23.00,-124.00,-1025.00
2024-06-07 10:54:42.555638,0,8,0,0,0,0,75,78,139,120,74,134.13,134,-16.00,-140.00,-1046.00
2024-06-07 10:54:42.617123,0,9,0,0,0,0,75,78,140,120,74,134.19,134,-9.00,-92.00,-933.00
2024-06-07 10:54:42.757531,0,9,0,0,1,0,75,78,139,120,74,134.04,134,5.00,-134.00,-965.00
2024-06-07 10:54:42.822025,-1,7,0,0,1,0,75,78,140,120,74,134.10,134,-8.00,-120.00,-989.00
2024-06-07 10:54:42.964741,0,6,1,0,1,0,75,78,139,120,74,134.08,134,1.00,-107.00,-992.00
2024-06-07 10:54:43.026085,0,5,1,0,1,0,75,78,139,120,74,134.23,134,-21.00,-127.00,-940.00
2024-06-07 10:54:43.171369,0,6,1,0,1,0,75,78,140,120,74,134.10,134,-42.00,-109.00,-968.00
2024-06-07 10:54:43.230041,1,6,1,0,1,0,75,78,140,120,74,134.14,135,-52.00,-89.00,-1007.00
2024-06-07 10:54:43.333827,0,5,0,0,1,0,75,78,140,120,74,134.18,135,-40.00,-88.00,-994.00
2024-06-07 10:54:43.434065,-1,5,0,0,1,0,75,78,139,120,74,134.17,135,-30.00,-87.00,-993.00
2024-06-07 10:54:43.536235,-2,4,0,0,1,0,75,78,139,120,73,134.06,135,-5.00,-107.00,-1003.00
2024-06-07 10:54:43.638918,-2,2,0,0,1,0,75,78,139,120,73,134.26,135,26.00,-168.00,-1007.00
2024-06-07 10:54:43.742028,-2,3,0,0,0,0,75,78,139,120,73,134.42,135,-10.00,-119.00,-1264.00
2024-06-07 10:54:43.841939,0,0,0,0,0,-1,75,78,142,120,73,134.40,135,-25.00,-175.00,-1755.00
2024-06-07 10:54:43.943953,0,-4,-3,0,-2,-8,75,78,172,130,73,134.58,135,-16.00,103.00,-1391.00
2024-06-07 10:54:44.088691,-9,-64,-4,0,-7,-13,75,78,6553,140,73,134.95,135,-90.00,380.00,-1162.00
2024-06-07 10:54:44.147728,0,175,15,0,-15,-2,75,78,6553,150,73,134.54,135,-121.00,306.00,-875.00
2024-06-07 10:54:44.293617,13,57,-8,0,-12,11,75,78,150,140,73,134.76,136,-13.00,-33.00,-1658.00
2024-06-07 10:54:44.351872,-4,-9,-19,0,-7,11,75,78,141,130,73,134.52,136,53.00,19.00,-1552.00
2024-06-07 10:54:44.498542,0,1,-28,0,-10,7,75,78,133,120,73,134.16,136,7.00,-36.00,-1352.00
2024-06-07 10:54:44.555849,5,6,-40,0,-9,3,75,78,131,120,73,134.07,136,96.00,-61.00,-1228.00
2024-06-07 10:54:44.703779,6,5,-45,0,-8,1,75,78,130,110,73,134.06,136,58.00,-75.00,-1125.00
2024-06-07 10:54:44.759839,6,6,-42,0,-7,0,75,78,130,110,73,133.95,136,32.00,-69.00,-1118.00
2024-06-07 10:54:44.913046,4,7,-31,0,-6,0,75,78,130,110,73,133.97,136,26.00,-88.00,-1027.00
2024-06-07 10:54:44.963838,2,6,-18,0,-5,-1,75,78,131,110,73,134.25,136,17.00,-88.00,-967.00
2024-06-07 10:54:45.014918,0,6,-5,0,-5,-1,75,78,131,110,73,134.19,136,-65.00,-36.00,-974.00
2024-06-07 10:54:45.215079,0,6,1,0,-4,-1,75,78,134,110,73,134.18,136,-55.00,-85.00,-967.00
2024-06-07 10:54:45.218825,0,6,2,0,-4,-1,75,78,136,120,73,134.24,137,-38.00,-101.00,-952.00
2024-06-07 10:54:45.419945,-1,7,2,0,-4,-1,75,78,136,120,73,134.24,137,-46.00,-108.00,-910.00
2024-06-07 10:54:45.433194,-2,7,2,0,-4,0,76,78,136,120,73,134.23,137,-23.00,-104.00,-995.00
2024-06-07 10:54:45.537387,-2,7,2,0,-4,0,76,78,136,120,73,134.19,137,-50.00,-68.00,-959.00
2024-06-07 10:54:45.626765,-2,8,1,0,-4,0,76,78,137,120,73,134.20,137,-43.00,-65.00,-983.00
2024-06-07 10:54:45.729069,-1,8,1,0,-3,0,76,78,137,120,73,134.18,137,-30.00,-64.00,-967.00
2024-06-07 10:54:45.830765,-1,7,1,0,-3,0,76,78,137,120,73,134.17,137,-37.00,-89.00,-958.00
2024-06-07 10:54:45.932786,-2,6,1,0,-3,0,76,78,137,120,73,134.13,137,-57.00,-100.00,-967.00
2024-06-07 10:54:46.035710,-2,6,1,0,-2,0,76,78,136,120,73,134.17,137,-33.00,-107.00,-1032.00
2024-06-07 10:54:46.136919,-2,6,1,0,-2,0,76,78,138,120,73,134.20,137,-64.00,-117.00,-970.00
2024-06-07 10:54:46.239132,-2,7,1,0,-2,0,76,78,136,120,73,134.16,138,-36.00,-121.00,-944.00
2024-06-07 10:54:46.341472,-2,7,1,0,-3,0,76,78,137,120,73,134.23,138,-22.00,-131.00,-1031.00
2024-06-07 10:54:46.443945,-2,8,1,0,-3,0,76,79,138,120,73,134.35,138,-34.00,-156.00,-1012.00
2024-06-07 10:54:46.546208,-1,8,1,0,-3,0,76,79,137,120,72,134.23,138,-48.00,-140.00,-1013.00
2024-06-07 10:54:46.646735,-1,8,1,0,-3,0,76,79,138,120,72,134.23,138,-35.00,-142.00,-956.00
2024-06-07 10:54:46.749009,-2,8,1,0,-3,0,76,79,137,120,72,134.20,138,-50.00,-136.00,-979.00
2024-06-07 10:54:46.850747,-2,8,1,0,-3,0,76,79,137,120,72,134.21,138,-47.00,-118.00,-941.00
2024-06-07 10:54:46.956691,-2,8,1,0,-3,0,76,79,138,120,72,134.20,138,-52.00,-139.00,-976.00
2024-06-07 10:54:47.054923,-2,8,1,0,-2,0,76,79,137,120,72,134.17,138,-47.00,-125.00,-980.00
2024-06-07 10:54:47.160686,-2,8,1,0,-2,0,76,79,138,120,72,134.15,139,-36.00,-123.00,-972.00
2024-06-07 10:54:47.258879,-2,8,1,0,-2,0,76,79,136,120,72,134.14,139,-57.00,-112.00,-954.00
2024-06-07 10:54:47.360981,-2,8,1,0,-2,0,76,79,135,120,72,134.14,139,-54.00,-141.00,-992.00
2024-06-07 10:54:47.463235,-2,8,1,0,-2,0,75,79,135,120,72,134.17,139,-62.00,-136.00,-952.00
2024-06-07 10:54:47.570399,-2,8,1,0,-2,0,75,79,135,120,72,134.17,139,-64.00,-127.00,-917.00
2024-06-07 10:54:47.666983,-2,8,1,0,-2,0,75,79,135,120,72,134.19,139,-58.00,-130.00,-984.00
2024-06-07 10:54:47.772308,-2,8,1,-1,-2,0,75,79,136,120,72,134.15,139,-55.00,-142.00,-1002.00
2024-06-07 10:54:47.871749,-3,8,1,-1,-1,0,75,79,135,120,72,134.14,139,-47.00,-134.00,-1000.00
2024-06-07 10:54:47.979948,-3,8,1,-1,-1,0,75,79,135,120,72,134.10,139,-60.00,-118.00,-957.00
2024-06-07 10:54:48.074980,-3,8,1,0,-1,0,75,79,137,120,72,134.08,139,-55.00,-113.00,-989.00
2024-06-07 10:54:48.184785,-3,8,0,0,-1,0,75,79,137,120,72,134.16,140,-50.00,-127.00,-966.00
2024-06-07 10:54:48.283197,-3,8,0,0,-1,0,75,79,139,120,72,134.21,140,-28.00,-125.00,-1047.00
2024-06-07 10:54:48.384722,-3,8,0,0,-1,0,75,79,137,120,72,134.29,140,9.00,-122.00,-1022.00
2024-06-07 10:54:48.486169,-1,8,0,0,-1,0,75,79,138,120,72,134.16,140,-18.00,-106.00,-975.00
2024-06-07 10:54:48.585206,0,8,0,0,0,0,75,79,140,120,72,134.22,140,-12.00,-109.00,-978.00
2024-06-07 10:54:48.696852,-1,8,0,0,0,0,75,79,140,120,72,134.13,140,-3.00,-117.00,-1021.00
2024-06-07 10:54:48.796249,0,9,1,0,0,0,75,79,140,120,72,134.14,140,0.00,-137.00,-966.00
2024-06-07 10:54:48.839675,0,8,1,0,0,0,75,79,140,120,72,134.15,140,-26.00,-128.00,-976.00
2024-06-07 10:54:49.004256,0,8,0,0,0,0,75,79,140,120,72,134.24,140,8.00,-126.00,-980.00
2024-06-07 10:54:49.043747,0,9,0,0,0,0,75,79,139,120,72,134.17,140,-9.00,-100.00,-970.00
2024-06-07 10:54:49.208764,0,9,1,0,0,0,75,79,141,120,72,134.06,141,-21.00,-130.00,-949.00
2024-06-07 10:54:49.247716,0,9,1,0,1,0,75,79,140,120,72,134.08,141,-28.00,-60.00,-1052.00
2024-06-07 10:54:49.414855,0,8,1,0,1,0,75,79,141,120,72,134.05,141,-30.00,-97.00,-991.00
2024-06-07 10:54:49.504758,-1,6,1,0,2,0,75,79,139,120,72,134.16,141,0.00,-101.00,-1001.00
2024-06-07 10:54:49.606162,0,6,1,0,2,0,75,79,138,120,71,134.11,141,6.00,-69.00,-980.00
2024-06-07 10:54:49.656225,0,4,1,0,2,0,75,79,138,120,71,134.06,141,-35.00,-103.00,-969.00
2024-06-07 10:54:49.760111,0,4,1,0,2,0,75,79,138,120,71,134.07,141,-7.00,-110.00,-1012.00
2024-06-07 10:54:49.860261,0,4,1,0,1,0,75,79,137,120,71,134.11,141,5.00,-79.00,-968.00
2024-06-07 10:54:49.961631,0,4,0,0,1,0,75,79,138,120,71,134.18,141,28.00,-91.00,-1004.00
2024-06-07 10:54:50.130418,0,4,0,0,1,0,75,79,138,120,71,134.22,141,20.00,-98.00,-1021.00
2024-06-07 10:54:50.165607,1,3,0,0,1,0,75,79,138,120,71,134.15,142,22.00,-129.00,-969.00
2024-06-07 10:54:50.335031,1,4,1,0,0,0,75,79,138,120,71,134.41,142,-6.00,-159.00,-1183.00
2024-06-07 10:54:50.369689,0,3,0,0,0,-4,75,79,141,120,71,134.47,142,8.00,-187.00,-1759.00
2024-06-07 10:54:50.539931,0,14,1,0,0,-12,76,78,159,130,71,134.28,142,-21.00,-245.00,-1706.00
2024-06-07 10:54:50.573572,0,102,1,0,5,-12,76,78,6553,140,71,134.25,142,-55.00,567.00,-1192.00
2024-06-07 10:54:50.748012,1,-125,1,0,7,2,76,78,6553,150,71,133.84,142,25.00,897.00,-1105.00
2024-06-07 10:54:50.778463,0,-13,4,0,-1,9,76,78,159,140,71,134.52,142,41.00,582.00,-1122.00
2024-06-07 10:54:50.949455,0,7,4,0,0,7,76,78,149,130,71,134.23,142,16.00,-48.00,-1364.00
2024-06-07 10:54:50.981608,1,-5,3,0,0,3,76,78,144,130,71,134.41,142,-84.00,-192.00,-1379.00
2024-06-07 10:54:51.154352,0,-1,1,0,-2,1,76,78,140,130,71,134.47,142,-35.00,-123.00,-1170.00
2024-06-07 10:54:51.185556,-2,4,1,0,-4,0,76,78,141,130,71,134.23,143,-46.00,-110.00,-1076.00
2024-06-07 10:54:51.359168,-2,7,1,0,-4,0,76,78,141,130,71,134.28,143,-74.00,-98.00,-979.00
2024-06-07 10:54:51.389608,-2,7,1,0,-2,0,76,78,142,130,71,134.30,143,-84.00,-110.00,-914.00
2024-06-07 10:54:51.564044,-2,6,0,0,-2,0,76,79,139,130,71,134.37,143,-61.00,-109.00,-999.00
2024-06-07 10:54:51.593486,-2,5,0,-1,-2,0,76,79,137,130,71,134.33,143,-53.00,-107.00,-950.00
2024-06-07 10:54:51.768761,-3,5,0,0,-2,0,76,79,139,120,71,134.29,143,-45.00,-119.00,-1091.00
2024-06-07 10:54:51.797425,-3,6,0,0,-3,0,76,79,135,120,71,134.43,143,-59.00,-125.00,-1018.00
2024-06-07 10:54:51.973402,-3,6,0,0,-3,0,76,79,135,120,71,134.37,143,-29.00,-131.00,-974.00
2024-06-07 10:54:52.001415,-2,7,0,0,-3,0,76,79,134,120,71,134.39,143,-13.00,-142.00,-958.00
2024-06-07 10:54:52.178199,-1,8,0,0,-3,0,76,79,132,120,71,134.32,143,-51.00,-120.00,-990.00
2024-06-07 10:54:52.206892,-1,8,0,0,-3,0,76,79,131,120,71,134.39,144,-40.00,-153.00,-1011.00
2024-06-07 10:54:52.307453,-2,9,0,0,-3,0,76,79,131,120,71,134.24,144,8.00,-132.00,-967.00
2024-06-07 10:54:52.485522,-1,8,0,0,-3,0,76,79,130,110,71,134.20,144,-3.00,-124.00,-1059.00
2024-06-07 10:54:52.511990,-1,8,0,0,-2,0,76,79,129,110,70,134.22,144,-10.00,-132.00,-1015.00
2024-06-07 10:54:52.690608,-1,8,0,0,-2,0,76,79,130,110,70,134.28,144,-55.00,-128.00,-1033.00
2024-06-07 10:54:52.715379,-1,7,0,0,-2,0,76,79,130,110,70,134.18,144,-71.00,-141.00,-998.00
2024-06-07 10:54:52.817398,-2,7,1,0,-2,0,76,79,131,110,70,134.16,144,-61.00,-122.00,-976.00
2024-06-07 10:54:52.997521,-2,7,0,0,-1,0,76,79,130,110,70,134.20,144,-49.00,-121.00,-956.00
2024-06-07 10:54:53.021375,-3,7,0,0,-1,0,76,79,131,110,70,134.30,144,-27.00,-135.00,-1011.00
2024-06-07 10:54:53.072534,-3,7,0,0,-1,0,76,79,133,110,70,134.34,144,-62.00,-162.00,-1011.00
2024-06-07 10:54:53.202277,-2,8,0,0,-1,0,76,79,134,110,70,134.27,145,-61.00,-164.00,-999.00
2024-06-07 10:54:53.276327,-3,8,0,-1,-1,0,76,79,133,110,70,134.23,145,-99.00,-133.00,-941.00
2024-06-07 10:54:53.407054,-4,7,0,-1,-1,0,76,79,133,110,70,134.18,145,-71.00,-145.00,-1000.00
2024-06-07 10:54:53.480436,-5,8,0,-1,-1,0,75,78,135,110,70,134.22,145,-47.00,-135.00,-950.00
2024-06-07 10:54:53.611881,-4,8,0,0,-1,0,75,78,134,110,70,134.16,145,-18.00,-156.00,-984.00
2024-06-07 10:54:53.684471,-3,9,0,0,-1,0,75,78,135,110,70,134.14,145,-19.00,-108.00,-952.00
2024-06-07 10:54:53.787305,-2,8,0,0,0,0,75,78,134,110,70,134.23,145,-36.00,-128.00,-973.00
2024-06-07 10:54:53.919077,-1,7,0,0,0,0,75,78,134,110,70,134.12,145,-22.00,-139.00,-1030.00
2024-06-07 10:54:53.990597,-1,6,0,0,0,0,75,78,133,110,70,134.17,145,-2.00,-159.00,-1000.00
2024-06-07 10:54:54.124072,-1,7,0,0,0,0,75,78,132,110,70,134.10,145,-19.00,-126.00,-977.00
2024-06-07 10:54:54.194589,0,7,0,0,0,0,75,78,133,110,70,134.14,146,-34.00,-150.00,-1023.00
2024-06-07 10:54:54.328866,-1,7,0,0,0,0,75,78,133,110,70,134.12,146,-63.00,-149.00,-945.00
2024-06-07 10:54:54.399499,-2,7,0,0,0,0,75,78,133,110,70,134.22,146,-46.00,-151.00,-911.00
2024-06-07 10:54:54.533683,-2,7,0,0,0,0,76,79,133,110,70,134.13,146,-39.00,-146.00,-990.00
2024-06-07 10:54:54.602445,-2,7,0,0,0,0,76,79,133,110,70,134.19,146,-53.00,-133.00,-980.00
2024-06-07 10:54:54.742822,-1,7,0,0,0,0,76,79,131,110,70,134.12,146,-47.00,-124.00,-966.00
2024-06-07 10:54:54.806558,-1,6,0,0,0,0,76,79,133,110,70,134.00,146,-45.00,-138.00,-1014.00
2024-06-07 10:54:54.942995,-2,6,0,0,0,0,76,79,132,110,70,134.06,146,-46.00,-144.00,-1041.00
2024-06-07 10:54:55.010415,-2,6,0,0,0,0,76,79,131,110,70,134.10,146,-42.00,-128.00,-1025.00
2024-06-07 10:54:55.147979,-3,6,0,0,0,0,76,79,131,110,70,134.02,146,-42.00,-102.00,-1001.00
2024-06-07 10:54:55.214520,-3,6,0,0,0,0,76,79,131,110,70,134.07,147,-17.00,-119.00,-1020.00
2024-06-07 10:54:55.353142,-3,5,0,0,0,0,76,79,131,110,70,134.06,147,-55.00,-116.00,-955.00
2024-06-07 10:54:55.418814,-2,4,0,0,0,0,76,79,130,110,70,134.08,147,-31.00,-120.00,-1063.00
2024-06-07 10:54:55.557559,-2,5,0,0,0,0,76,79,130,110,70,134.01,147,-33.00,-122.00,-1017.00
