TS,pitch,roll,yaw,vgx,vgy,vgz,templ,temph,tof,h,bat,baro,time,agx,agy,agz
2024-06-07 10:55:40.715521,0,0,10,0,0,0,77,79,10,0,67,132.91,166,0.00,4.00,-1001.00
2024-06-07 10:55:40.760017,0,0,10,0,0,0,77,80,10,0,67,132.90,166,-1.00,6.00,-1001.00
2024-06-07 10:55:40.920760,0,0,10,0,0,0,77,80,10,0,67,132.92,166,0.00,4.00,-997.00
2024-06-07 10:55:40.964035,0,0,10,0,0,0,77,80,10,0,67,132.86,166,1.00,5.00,-1000.00
2024-06-07 10:55:41.125831,0,0,10,0,0,0,77,80,10,0,67,132.86,166,1.00,3.00,-1000.00
2024-06-07 10:55:41.168062,0,0,10,0,0,0,77,80,10,0,67,132.88,166,-1.00,5.00,-999.00
2024-06-07 10:55:41.330015,0,0,10,0,0,0,77,80,10,0,67,132.89,166,0.00,4.00,-1000.00
2024-06-07 10:55:41.372193,0,0,10,0,0,0,77,80,10,0,67,132.90,166,0.00,6.00,-999.00
2024-06-07 10:55:41.534992,0,0,10,0,0,0,77,80,10,0,67,132.91,166,0.00,4.00,-1001.00
2024-06-07 10:55:41.576110,0,0,10,0,0,0,77,80,10,0,67,132.88,166,1.00,3.00,-999.00
2024-06-07 10:55:41.740024,0,0,10,0,0,0,77,80,10,0,67,132.88,166,0.00,5.00,-1003.00
2024-06-07 10:55:41.780622,0,0,10,0,0,0,77,79,10,0,67,132.87,166,1.00,3.00,-1000.00
2024-06-07 10:55:41.882074,0,0,10,0,0,0,77,79,10,0,67,132.97,166,0.00,4.00,-998.00
2024-06-07 10:55:42.046707,0,0,10,0,0,0,77,79,10,0,67,132.87,166,0.00,4.00,-997.00
2024-06-07 10:55:42.085994,0,0,10,0,0,0,77,79,10,0,67,132.89,166,-1.00,5.00,-999.00
2024-06-07 10:55:42.251733,0,0,10,0,0,0,77,79,10,0,67,132.89,166,0.00,3.00,-997.00
2024-06-07 10:55:42.289903,0,0,10,0,0,0,77,79,10,0,67,132.91,166,0.00,5.00,-998.00
2024-06-07 10:55:42.456411,0,0,10,0,0,0,77,79,10,0,67,132.88,166,1.00,6.00,-1000.00
2024-06-07 10:55:42.493875,0,0,10,0,0,0,77,79,10,0,67,132.91,166,0.00,3.00,-999.00
2024-06-07 10:55:42.661392,0,0,10,0,0,0,77,79,10,0,67,132.88,166,0.00,4.00,-999.00
2024-06-07 10:55:42.697870,0,0,10,0,0,0,77,79,10,0,67,132.92,166,0.00,3.00,-998.00
2024-06-07 10:55:42.800033,0,0,10,0,0,0,77,79,10,0,67,132.91,166,-1.00,4.00,-1001.00
2024-06-07 10:55:42.968459,0,0,10,0,0,0,77,79,10,0,67,132.93,166,0.00,5.00,-1000.00
2024-06-07 10:55:42.968942,0,0,10,0,0,0,77,79,10,0,67,132.95,166,1.00,4.00,-1001.00
2024-06-07 10:55:43.055946,0,0,10,0,0,0,77,79,10,0,67,132.93,166,-1.00,5.00,-998.00
2024-06-07 10:55:43.174109,0,0,10,0,0,0,77,79,10,0,67,132.93,166,2.00,1.00,-997.00
2024-06-07 10:55:43.258808,0,0,10,0,0,0,77,79,10,0,67,132.93,166,4.00,0.00,-996.00
2024-06-07 10:55:43.378029,0,0,10,0,0,0,77,79,10,0,67,132.93,166,-20.00,-9.00,-991.00
2024-06-07 10:55:43.462784,0,0,10,0,0,0,77,79,10,0,67,132.93,166,30.00,-23.00,-1007.00
2024-06-07 10:55:43.582813,0,0,10,0,0,0,77,79,10,0,67,132.93,166,-38.00,5.00,-1009.00
2024-06-07 10:55:43.669713,0,0,9,0,0,0,77,79,10,0,67,132.93,166,-23.00,-30.00,-1123.00
2024-06-07 10:55:43.768724,0,0,9,0,0,-2,77,79,10,0,67,132.93,166,-8.00,-18.00,-1361.00
2024-06-07 10:55:43.889989,0,0,9,0,0,-5,77,79,11,0,67,132.93,167,-35.00,-52.00,-1233.00
2024-06-07 10:55:43.972709,-1,1,9,0,0,-7,77,79,18,10,67,133.17,167,-38.00,-39.00,-1091.00
2024-06-07 10:55:44.074749,-1,2,9,0,0,-7,77,79,24,10,67,133.32,167,-7.00,-43.00,-1004.00
2024-06-07 10:55:44.197214,-1,2,9,0,0,-7,77,79,32,20,67,133.41,167,0.00,-34.00,-986.00
2024-06-07 10:55:44.278668,-1,2,9,0,0,-7,77,79,40,30,67,133.47,167,-24.00,-43.00,-911.00
2024-06-07 10:55:44.401989,-1,2,9,0,-1,-6,77,79,47,30,67,133.50,167,-22.00,-48.00,-945.00
2024-06-07 10:55:44.483734,-2,3,9,0,-1,-5,77,79,53,40,67,133.57,167,-23.00,-8.00,-895.00
2024-06-07 10:55:44.584579,-2,3,9,0,0,-4,77,79,59,40,67,133.64,167,-28.00,-18.00,-886.00
2024-06-07 10:55:44.709199,-2,3,9,0,0,-3,77,79,63,40,67,133.68,167,-32.00,-36.00,-893.00
2024-06-07 10:55:44.789515,-2,2,9,0,0,-2,79,80,68,50,67,133.71,167,-18.00,-24.00,-949.00
2024-06-07 10:55:44.914072,-2,2,9,0,0,-2,79,80,71,50,67,133.83,168,-22.00,-49.00,-933.00
2024-06-07 10:55:44.992627,-2,2,9,0,0,-1,79,80,75,50,67,133.74,168,-27.00,-57.00,-970.00
2024-06-07 10:55:45.119607,-2,3,9,0,0,-1,79,80,77,50,67,133.84,168,-18.00,-47.00,-1019.00
2024-06-07 10:55:45.196628,-2,3,9,0,0,0,79,80,79,60,67,133.81,168,-18.00,-39.00,-1034.00
2024-06-07 10:55:45.298608,-2,3,9,0,0,0,79,80,81,60,67,133.86,168,-30.00,-46.00,-974.00
2024-06-07 10:55:45.401103,-2,3,9,0,0,0,79,80,83,60,67,133.88,168,-22.00,-39.00,-1006.00
2024-06-07 10:55:45.528380,-2,2,9,0,0,0,79,80,85,60,67,133.85,168,-28.00,-43.00,-1020.00
2024-06-07 10:55:45.604929,-2,2,9,0,0,0,79,80,86,60,67,133.89,168,-24.00,-43.00,-985.00
2024-06-07 10:55:45.706632,-2,2,9,0,0,0,79,80,87,60,67,133.86,168,-39.00,-54.00,-950.00
2024-06-07 10:55:45.835691,-2,3,9,0,0,0,77,80,88,70,67,133.78,168,-22.00,-39.00,-1027.00
2024-06-07 10:55:45.911005,-2,3,9,0,0,0,77,80,89,70,67,133.83,169,-43.00,-39.00,-976.00
2024-06-07 10:55:46.040478,-2,2,9,0,0,0,77,80,89,70,67,133.85,169,-39.00,-46.00,-1005.00
2024-06-07 10:55:46.114668,-2,2,9,0,0,0,77,80,90,70,67,133.85,169,-26.00,-47.00,-970.00
2024-06-07 10:55:46.247967,-2,2,9,0,0,0,77,80,90,70,67,133.86,169,-45.00,-47.00,-959.00
2024-06-07 10:55:46.318607,-2,2,9,0,0,0,77,80,90,70,67,133.80,169,-35.00,-41.00,-1014.00
2024-06-07 10:55:46.450260,-2,2,9,0,0,0,77,80,90,70,67,133.83,169,-22.00,-57.00,-1043.00
2024-06-07 10:55:46.526976,-2,2,9,0,0,0,77,80,89,70,67,133.84,169,-43.00,-70.00,-968.00
2024-06-07 10:55:46.573754,-2,2,9,0,0,0,77,80,89,70,67,133.85,169,-34.00,-48.00,-964.00
2024-06-07 10:55:46.757390,-2,2,9,0,0,0,77,80,88,70,67,133.83,169,-53.00,-70.00,-954.00
2024-06-07 10:55:46.828511,-2,3,9,0,0,0,77,80,88,70,67,133.82,169,-35.00,-47.00,-998.00
2024-06-07 10:55:46.879608,-2,3,9,0,0,0,77,80,87,70,67,133.86,170,-31.00,-48.00,-1009.00
2024-06-07 10:55:46.981700,-2,3,9,0,0,0,77,80,86,70,67,133.72,170,-43.00,-44.00,-1003.00
2024-06-07 10:55:47.166830,-2,2,9,0,0,0,77,80,85,70,67,133.67,170,-61.00,-49.00,-1020.00
2024-06-07 10:55:47.185633,-2,2,9,0,0,0,77,80,85,70,67,133.73,170,-68.00,-42.00,-970.00
2024-06-07 10:55:47.371599,-2,2,9,0,0,0,77,80,85,70,67,133.69,170,-61.00,-33.00,-978.00
2024-06-07 10:55:47.389839,-3,2,9,0,0,0,77,80,84,70,67,133.73,170,-55.00,-29.00,-1006.00
2024-06-07 10:55:47.492420,-2,1,9,0,0,0,77,80,84,70,67,133.74,170,-48.00,-33.00,-970.00
2024-06-07 10:55:47.593954,-2,1,9,0,0,0,77,80,84,60,67,133.74,170,-50.00,-32.00,-986.00
2024-06-07 10:55:47.695963,-3,2,9,0,0,0,77,80,83,60,67,133.74,170,-55.00,-63.00,-1003.00
2024-06-07 10:55:47.883619,-3,2,9,0,0,0,78,80,83,60,67,133.71,170,-62.00,-59.00,-1038.00
2024-06-07 10:55:47.900509,-3,2,9,0,0,0,78,80,82,60,67,133.70,171,-52.00,-53.00,-1007.00
2024-06-07 10:55:48.004498,-3,2,9,0,0,0,78,80,82,60,67,133.71,171,-58.00,-61.00,-1025.00
2024-06-07 10:55:48.107974,-3,2,9,0,0,0,78,80,81,60,67,133.74,171,-53.00,-45.00,-1014.00
2024-06-07 10:55:48.205552,-3,3,9,0,0,0,78,80,81,60,67,133.72,171,-42.00,-56.00,-990.00
2024-06-07 10:55:48.395684,-3,3,9,0,0,0,78,80,80,60,67,133.70,171,-41.00,-42.00,-1036.00
2024-06-07 10:55:48.410035,-3,3,9,0,0,0,78,80,80,60,67,133.57,171,-44.00,-53.00,-1004.00
2024-06-07 10:55:48.512095,-3,3,9,0,0,0,78,80,80,60,67,133.60,171,-36.00,-59.00,-1004.00
2024-06-07 10:55:48.613877,-3,3,9,0,0,0,78,80,79,60,67,133.63,171,-58.00,-75.00,-1020.00
2024-06-07 10:55:48.715816,-2,3,9,0,0,0,78,80,78,60,67,133.56,171,-49.00,-68.00,-981.00
2024-06-07 10:55:48.818994,-3,4,9,0,0,0,77,80,78,60,67,133.53,171,-54.00,-43.00,-1017.00
2024-06-07 10:55:48.925907,-3,3,9,0,0,0,77,80,78,60,67,133.53,172,-57.00,-54.00,-1016.00
2024-06-07 10:55:49.024339,-3,3,9,0,0,0,77,80,77,60,67,133.52,172,-64.00,-47.00,-1000.00
2024-06-07 10:55:49.126721,-3,3,9,0,0,0,77,80,78,60,67,133.58,172,-72.00,-33.00,-1001.00
2024-06-07 10:55:49.229134,-3,2,9,0,0,0,77,80,78,60,67,133.50,172,-38.00,-44.00,-1057.00
2024-06-07 10:55:49.327479,-3,2,9,0,0,0,77,80,78,60,67,133.57,172,-46.00,-24.00,-987.00
2024-06-07 10:55:49.522319,-3,2,9,0,0,0,77,80,78,60,67,133.53,172,-64.00,-46.00,-1011.00
2024-06-07 10:55:49.532104,-3,2,9,0,0,0,77,80,79,60,67,133.46,172,-56.00,-48.00,-1023.00
2024-06-07 10:55:49.727914,-3,2,9,0,0,0,77,80,79,60,67,133.55,172,-73.00,-35.00,-944.00
2024-06-07 10:55:49.735898,-3,2,9,0,0,0,77,80,79,60,67,133.55,172,-69.00,-41.00,-968.00
2024-06-07 10:55:49.839148,-4,2,9,0,0,0,76,80,78,60,67,133.60,172,-48.00,-24.00,-965.00
2024-06-07 10:55:49.940019,-4,2,9,0,0,0,76,80,78,60,67,133.69,173,-54.00,-41.00,-1022.00
2024-06-07 10:55:50.041949,-4,1,9,0,0,0,76,80,78,60,67,133.47,173,-50.00,-25.00,-988.00
2024-06-07 10:55:50.239093,-3,2,9,0,0,0,76,80,77,60,67,133.57,173,-43.00,-16.00,-962.00
2024-06-07 10:55:50.248864,-3,1,9,0,0,0,76,80,77,60,67,133.49,173,-84.00,-27.00,-983.00
2024-06-07 10:55:50.296503,-4,0,9,0,0,0,76,80,77,60,67,133.49,173,-78.00,-18.00,-1006.00
2024-06-07 10:55:50.444119,-4,0,9,0,0,0,76,80,77,60,67,133.44,173,-78.00,-23.00,-986.00
2024-06-07 10:55:50.500505,-4,1,9,0,0,0,76,80,77,60,67,133.44,173,-74.00,-43.00,-994.00
2024-06-07 10:55:50.648580,-4,2,9,0,0,0,76,80,77,60,67,133.49,173,-83.00,-38.00,-967.00
2024-06-07 10:55:50.704400,-4,2,9,0,0,0,76,80,77,60,67,133.42,173,-75.00,-19.00,-1018.00
2024-06-07 10:55:50.857670,-3,2,9,0,0,0,77,80,77,60,67,133.40,173,-46.00,-20.00,-1049.00
2024-06-07 10:55:50.908356,-3,1,9,0,0,0,77,80,78,60,67,133.42,174,-68.00,-19.00,-967.00
2024-06-07 10:55:51.010658,-3,1,9,0,0,0,77,80,78,60,67,133.41,174,-54.00,-17.00,-997.00
2024-06-07 10:55:51.112435,-3,1,9,0,0,0,77,80,78,60,67,133.45,174,-76.00,-10.00,-964.00
2024-06-07 10:55:51.263149,-3,1,9,0,0,0,77,80,78,60,67,133.45,174,-54.00,-37.00,-1024.00
2024-06-07 10:55:51.316691,-3,0,9,0,0,0,77,80,78,60,67,133.44,174,-55.00,-23.00,-981.00
2024-06-07 10:55:51.467571,-3,1,9,0,0,0,77,80,78,60,67,133.46,174,-58.00,-44.00,-1023.00
2024-06-07 10:55:51.520416,-3,1,9,0,0,0,77,80,78,60,67,133.45,174,-64.00,-11.00,-995.00
2024-06-07 10:55:51.624722,-2,1,9,0,0,0,77,80,77,60,67,133.46,174,-83.00,-7.00,-1038.00
2024-06-07 10:55:51.724273,-3,2,9,0,0,0,77,80,78,60,67,133.45,174,-88.00,-5.00,-1069.00
2024-06-07 10:55:51.826283,-3,1,9,0,0,0,77,79,79,60,67,133.41,174,-67.00,8.00,-1145.00
2024-06-07 10:55:51.979629,-3,0,9,0,0,-1,77,79,81,60,67,133.49,175,-86.00,-5.00,-1116.00
2024-06-07 10:55:52.030189,-4,0,9,0,0,-2,77,79,84,60,67,133.58,175,-98.00,-1.00,-1045.00
2024-06-07 10:55:52.184500,-4,0,9,0,0,-3,77,79,88,70,67,133.54,175,-89.00,7.00,-1001.00
2024-06-07 10:55:52.234596,-4,0,9,0,0,-4,77,79,93,70,67,133.62,175,-68.00,12.00,-1050.00
2024-06-07 10:55:52.336298,-4,0,9,0,0,-4,77,79,98,70,67,133.76,175,-82.00,24.00,-1069.00
2024-06-07 10:55:52.492536,-3,0,9,0,1,-5,77,79,104,80,67,133.77,175,-63.00,35.00,-1029.00
2024-06-07 10:55:52.540842,-3,-1,9,0,1,-5,77,79,109,90,67,133.80,175,-92.00,29.00,-978.00
2024-06-07 10:55:52.701376,-3,-2,9,0,1,-5,77,79,116,90,67,133.81,175,-92.00,11.00,-1006.00
2024-06-07 10:55:52.749740,-4,-3,9,0,0,-6,77,79,122,100,67,133.86,175,-101.00,2.00,-968.00
2024-06-07 10:55:52.846275,-4,-2,9,0,0,-5,77,80,127,100,67,133.92,175,-88.00,27.00,-960.00
2024-06-07 10:55:53.003917,-5,-2,9,0,0,-5,77,80,133,110,67,134.05,176,-74.00,42.00,-946.00
2024-06-07 10:55:53.050355,-5,-1,9,0,0,-5,77,80,138,110,67,134.03,176,-84.00,31.00,-944.00
2024-06-07 10:55:53.208480,-5,-1,9,0,0,-4,77,80,141,120,67,134.04,176,-74.00,41.00,-996.00
2024-06-07 10:55:53.254201,-5,-2,9,0,0,-4,77,80,145,120,67,134.03,176,-85.00,31.00,-976.00
2024-06-07 10:55:53.413190,-4,-3,9,0,0,-3,77,80,149,130,67,134.07,176,-86.00,40.00,-930.00
2024-06-07 10:55:53.458306,-4,-2,9,0,0,-3,77,80,152,130,67,134.17,176,-79.00,35.00,-968.00
2024-06-07 10:55:53.617979,-4,-2,9,0,0,-3,77,80,156,130,67,134.15,176,-81.00,21.00,-985.00
2024-06-07 10:55:53.662222,-5,-2,9,0,0,-2,77,80,155,140,67,134.16,176,-102.00,29.00,-938.00
2024-06-07 10:55:53.823545,-5,-1,9,0,0,-2,77,80,160,140,67,134.24,176,-66.00,39.00,-978.00
2024-06-07 10:55:53.866404,-5,-1,9,0,0,-1,77,80,161,140,67,134.25,177,-105.00,25.00,-969.00
2024-06-07 10:55:54.027654,-5,-2,9,0,0,-1,77,80,161,150,67,134.27,177,-58.00,47.00,-1021.00
2024-06-07 10:55:54.071628,-5,-1,9,0,0,-1,77,80,164,150,67,134.30,177,-75.00,3.00,-961.00
2024-06-07 10:55:54.232458,-4,0,9,0,0,-1,77,80,165,150,67,134.25,177,-85.00,23.00,-997.00
2024-06-07 10:55:54.275440,-4,-1,9,0,0,-1,77,80,169,150,67,134.25,177,-101.00,2.00,-1013.00
2024-06-07 10:55:54.326375,-5,0,9,0,0,0,77,80,169,150,67,134.30,177,-104.00,22.00,-980.00
2024-06-07 10:55:54.437234,-5,0,9,0,0,0,77,80,169,150,67,134.31,177,-93.00,37.00,-1018.00
2024-06-07 10:55:54.530233,-5,0,9,0,0,0,77,80,171,150,67,134.35,177,-114.00,-1.00,-964.00
2024-06-07 10:55:54.646557,-6,0,9,0,0,0,77,80,171,150,67,134.27,177,-105.00,15.00,-1021.00
2024-06-07 10:55:54.734234,-6,0,9,0,0,0,77,80,172,150,67,134.17,177,-98.00,19.00,-989.00
2024-06-07 10:55:54.846933,-6,0,9,0,0,0,77,79,174,150,67,134.21,178,-91.00,-2.00,-1015.00
2024-06-07 10:55:54.939973,-6,0,9,0,0,0,77,79,176,160,67,134.26,178,-100.00,4.00,-947.00
2024-06-07 10:55:55.040351,-5,0,9,0,0,0,77,79,176,160,67,134.27,178,-89.00,13.00,-1001.00
2024-06-07 10:55:55.154082,-5,0,9,0,0,0,77,79,179,160,67,134.20,178,-98.00,-7.00,-995.00
2024-06-07 10:55:55.245538,-5,0,9,0,0,0,77,79,178,160,67,134.27,178,-87.00,12.00,-938.00
2024-06-07 10:55:55.347707,-5,0,9,0,0,0,77,79,179,160,67,134.20,178,-99.00,-6.00,-964.00
2024-06-07 10:55:55.449088,-5,1,9,0,0,0,77,79,178,160,67,134.17,178,-104.00,-6.00,-1009.00
2024-06-07 10:55:55.550415,-5,1,9,0,0,0,77,79,180,160,67,134.22,178,-99.00,-20.00,-971.00
2024-06-07 10:55:55.652374,-5,1,9,0,0,0,77,79,180,160,67,134.23,178,-83.00,-10.00,-1019.00
2024-06-07 10:55:55.768591,-5,1,9,0,0,0,77,79,182,160,67,134.15,178,-118.00,-12.00,-951.00
2024-06-07 10:55:55.856192,-5,1,9,0,0,0,76,79,182,160,67,134.18,179,-109.00,-11.00,-938.00
2024-06-07 10:55:55.960622,-5,0,9,0,0,0,76,79,183,160,67,134.11,179,-82.00,7.00,-1004.00
2024-06-07 10:55:56.060237,-5,0,9,0,0,0,76,79,183,160,67,134.08,179,-91.00,0.00,-970.00
2024-06-07 10:55:56.178173,-5,0,9,0,0,0,76,79,183,160,67,134.15,179,-74.00,12.00,-984.00
2024-06-07 10:55:56.264260,-5,0,9,0,0,0,76,79,181,160,67,134.12,179,-85.00,16.00,-980.00
2024-06-07 10:55:56.382924,-4,0,9,0,0,0,76,79,182,160,67,134.08,179,-70.00,14.00,-988.00
2024-06-07 10:55:56.468366,-4,0,9,0,0,0,76,79,183,160,67,134.15,179,-73.00,22.00,-965.00
2024-06-07 10:55:56.587647,-3,0,9,0,0,0,76,79,180,160,67,134.17,179,-86.00,20.00,-999.00
2024-06-07 10:55:56.672247,-3,-1,9,0,0,0,76,79,183,160,67,134.23,179,-81.00,4.00,-980.00
2024-06-07 10:55:56.775478,-3,-1,9,0,0,0,76,79,181,160,67,134.16,179,-81.00,16.00,-987.00
2024-06-07 10:55:56.891834,-3,-1,9,0,0,0,76,79,180,160,67,134.13,180,-80.00,10.00,-986.00
2024-06-07 10:55:56.978581,-3,-1,9,0,0,0,76,79,179,160,67,134.15,180,-83.00,11.00,-970.00
2024-06-07 10:55:57.099556,-3,-1,9,0,0,0,76,79,178,160,67,134.14,180,-79.00,27.00,-976.00
2024-06-07 10:55:57.182283,-3,-1,9,0,0,0,76,79,178,160,67,134.18,180,-62.00,12.00,-1013.00
2024-06-07 10:55:57.304428,-3,-1,9,0,0,1,76,79,177,160,67,134.13,180,-65.00,19.00,-965.00
2024-06-07 10:55:57.386071,-3,-1,9,0,0,1,76,79,176,160,67,134.16,180,-58.00,22.00,-902.00
2024-06-07 10:55:57.511265,-2,-1,9,0,0,2,76,79,170,150,67,134.08,180,-71.00,22.00,-914.00
2024-06-07 10:55:57.590033,-2,0,9,0,0,2,76,79,170,150,67,134.16,180,-50.00,5.00,-957.00
2024-06-07 10:55:57.714071,-3,0,9,0,0,2,76,79,167,150,67,134.07,180,-38.00,1.00,-1052.00
2024-06-07 10:55:57.794126,-3,0,9,0,0,2,76,79,162,150,67,134.04,180,-36.00,20.00,-1034.00
2024-06-07 10:55:57.938613,-3,0,9,0,0,3,76,79,161,140,67,134.00,181,-52.00,16.00,-1005.00
2024-06-07 10:55:57.999291,-3,0,9,0,0,3,76,79,157,140,67,133.89,181,-37.00,29.00,-1069.00
2024-06-07 10:55:58.123591,-3,0,9,0,0,2,76,79,154,140,67,133.95,181,-64.00,4.00,-1008.00
2024-06-07 10:55:58.202088,-3,-1,9,0,0,2,76,79,152,130,67,133.97,181,-71.00,1.00,-964.00
2024-06-07 10:55:58.328741,-3,0,9,0,0,2,76,79,149,130,67,133.88,181,-60.00,9.00,-1047.00
2024-06-07 10:55:58.406062,-3,0,9,0,0,2,76,79,146,130,67,133.90,181,-73.00,22.00,-1057.00
2024-06-07 10:55:58.457048,-3,0,9,0,0,2,76,79,144,130,67,133.92,181,-77.00,43.00,-1061.00
2024-06-07 10:55:58.635660,-4,0,9,0,0,2,76,79,142,120,67,133.88,181,-65.00,36.00,-1072.00
2024-06-07 10:55:58.661131,-4,0,9,0,0,1,76,79,140,120,67,133.87,181,-88.00,22.00,-984.00
2024-06-07 10:55:58.790385,-4,0,9,0,0,1,76,79,140,120,67,133.85,181,-67.00,31.00,-986.00
2024-06-07 10:55:58.866773,-4,-1,9,0,0,1,76,79,138,120,67,133.70,182,-79.00,1.00,-1008.00
2024-06-07 10:55:58.967517,-4,-1,9,0,0,1,76,79,137,120,67,133.78,182,-67.00,3.00,-976.00
2024-06-07 10:55:59.069662,-4,-1,9,0,0,1,76,79,136,120,67,133.87,182,-59.00,15.00,-1030.00
2024-06-07 10:55:59.250042,-3,0,9,0,0,0,76,79,135,120,67,133.76,182,-69.00,21.00,-979.00
2024-06-07 10:55:59.273197,-3,0,9,0,0,0,76,79,134,120,67,133.78,182,-55.00,34.00,-990.00
2024-06-07 10:55:59.454777,-3,-1,9,0,0,0,76,79,135,120,67,133.70,182,-62.00,43.00,-999.00
2024-06-07 10:55:59.478799,-3,-1,9,0,0,0,76,79,133,110,67,133.70,182,-50.00,29.00,-1015.00
2024-06-07 10:55:59.579377,-3,-1,9,0,0,0,76,79,134,110,67,133.75,182,-67.00,27.00,-992.00
2024-06-07 10:55:59.762371,-3,-1,9,0,0,0,76,79,134,110,67,133.79,182,-50.00,27.00,-1020.00
2024-06-07 10:55:59.783089,-3,-1,9,0,0,0,76,79,133,110,67,133.67,182,-60.00,19.00,-1015.00
2024-06-07 10:55:59.886079,-3,0,9,0,0,0,75,79,133,110,67,133.70,183,-47.00,23.00,-1032.00
2024-06-07 10:56:00.069477,-3,0,9,0,0,0,75,79,134,110,67,133.79,183,-60.00,31.00,-978.00
2024-06-07 10:56:00.089939,-3,-1,9,0,0,0,75,79,135,110,67,133.78,183,-66.00,26.00,-967.00
2024-06-07 10:56:00.274187,-3,-1,9,0,0,0,75,79,134,110,67,133.72,183,-52.00,14.00,-985.00
2024-06-07 10:56:00.293999,-3,0,9,0,0,0,75,79,135,110,67,133.78,183,-89.00,2.00,-999.00
2024-06-07 10:56:00.396249,-3,0,9,0,0,0,75,79,134,110,67,133.72,183,-68.00,18.00,-976.00
2024-06-07 10:56:00.583962,-3,0,9,0,0,0,75,79,135,110,67,133.71,183,-60.00,24.00,-1001.00
2024-06-07 10:56:00.602635,-3,0,9,0,0,0,75,79,134,110,67,133.67,183,-77.00,23.00,-955.00
2024-06-07 10:56:00.703466,-3,0,9,0,0,0,75,79,133,110,67,133.72,183,-86.00,34.00,-985.00
2024-06-07 10:56:00.804621,-3,0,9,0,0,0,75,79,135,110,67,133.81,183,-48.00,29.00,-1049.00
2024-06-07 10:56:00.906966,-3,-1,9,0,0,0,76,79,135,120,67,133.79,184,-84.00,35.00,-965.00
2024-06-07 10:56:01.009444,-3,-1,9,0,0,0,76,79,136,120,67,133.75,184,-69.00,2.00,-989.00
2024-06-07 10:56:01.111530,-3,-1,9,0,0,0,76,79,136,120,67,133.70,184,-74.00,25.00,-981.00
2024-06-07 10:56:01.214643,-4,-1,9,0,0,0,76,79,136,120,67,133.72,184,-60.00,24.00,-977.00
2024-06-07 10:56:01.316363,-3,-1,9,0,0,0,76,79,136,120,67,133.75,184,-76.00,36.00,-1011.00
2024-06-07 10:56:01.419162,-3,-1,9,0,0,0,76,79,135,120,67,133.77,184,-59.00,45.00,-976.00
2024-06-07 10:56:01.521091,-3,-1,9,0,0,0,76,79,135,120,67,133.79,184,-84.00,46.00,-998.00
2024-06-07 10:56:01.619841,-3,-1,9,0,0,0,76,79,136,120,67,133.89,184,-72.00,51.00,-993.00
2024-06-07 10:56:01.793597,-7,-2,9,0,0,0,76,79,136,120,67,133.82,184,-112.00,20.00,-957.00
2024-06-07 10:56:01.824556,-8,-1,9,0,0,0,76,79,137,120,67,133.78,184,-106.00,33.00,-1019.00
2024-06-07 10:56:01.926513,-8,-1,9,0,0,0,75,78,137,120,67,133.81,185,-118.00,49.00,-938.00
2024-06-07 10:56:02.029372,-8,-1,9,0,1,0,75,78,136,120,67,133.78,185,-109.00,53.00,-985.00
2024-06-07 10:56:02.078979,-8,-1,9,0,1,0,75,78,136,120,67,133.76,185,-111.00,52.00,-969.00
2024-06-07 10:56:02.219703,-8,-1,9,1,1,0,75,78,138,120,67,133.76,185,-106.00,46.00,-973.00
2024-06-07 10:56:02.283206,-8,-2,9,1,1,0,75,78,136,110,67,133.71,185,-103.00,37.00,-995.00
2024-06-07 10:56:02.424448,-8,-2,9,2,1,0,75,78,137,110,67,133.77,185,-99.00,26.00,-969.00
2024-06-07 10:56:02.486903,-9,-2,9,2,1,0,75,78,136,110,67,133.71,185,-70.00,40.00,-1004.00
2024-06-07 10:56:02.588837,-8,-2,9,3,1,0,75,78,136,110,67,133.71,185,-113.00,31.00,-998.00
2024-06-07 10:56:02.731622,-8,-2,9,4,1,0,75,78,136,110,67,133.71,185,-123.00,35.00,-1018.00
2024-06-07 10:56:02.792880,-7,-3,9,4,1,0,75,78,135,110,67,133.72,185,-137.00,43.00,-1027.00
2024-06-07 10:56:02.936368,-8,-3,9,4,1,0,76,79,137,110,67,133.76,186,-132.00,44.00,-991.00
2024-06-07 10:56:02.997108,-8,-3,9,4,1,0,76,79,137,110,67,133.74,186,-127.00,45.00,-963.00
2024-06-07 10:56:03.141225,-8,-3,9,5,1,0,76,79,138,110,67,133.71,186,-130.00,54.00,-975.00
2024-06-07 10:56:03.201075,-7,-4,9,5,1,0,76,79,138,110,67,133.71,186,-107.00,44.00,-999.00
2024-06-07 10:56:03.345994,-4,-3,9,5,0,0,76,79,138,120,67,133.70,186,-127.00,54.00,-919.00
2024-06-07 10:56:03.405002,-1,-2,9,5,0,0,76,79,138,120,67,133.61,186,-131.00,32.00,-986.00
2024-06-07 10:56:03.550749,-1,-2,9,4,0,0,76,79,137,120,67,133.60,186,-137.00,38.00,-996.00
2024-06-07 10:56:03.608848,-3,-1,9,3,0,0,76,79,138,120,67,133.59,186,-119.00,37.00,-969.00
2024-06-07 10:56:03.755549,-4,-1,9,3,0,0,76,79,139,120,67,133.68,186,-112.00,32.00,-969.00
2024-06-07 10:56:03.812921,-4,-1,9,2,0,0,76,79,139,120,67,133.65,186,-105.00,17.00,-994.00
2024-06-07 10:56:03.960469,-5,-1,9,2,0,0,76,78,138,120,67,133.65,187,-95.00,39.00,-1028.00
2024-06-07 10:56:04.017183,-5,-1,9,2,0,0,76,78,140,120,67,133.68,187,-109.00,10.00,-984.00
2024-06-07 10:56:04.156423,-5,-1,9,2,0,0,76,78,141,120,67,133.61,187,-94.00,50.00,-979.00
2024-06-07 10:56:04.224308,-4,-1,9,2,0,0,76,78,142,120,67,133.61,187,-102.00,4.00,-980.00
2024-06-07 10:56:04.322732,-4,-1,9,2,0,0,76,78,141,120,67,133.61,187,-121.00,6.00,-1018.00
2024-06-07 10:56:04.472346,-5,0,9,2,0,0,76,78,142,120,67,133.62,187,-118.00,10.00,-968.00
2024-06-07 10:56:04.526738,-5,0,9,2,0,0,76,78,143,120,67,133.56,187,-105.00,-5.00,-991.00
2024-06-07 10:56:04.679755,-5,0,9,2,0,0,76,78,143,120,67,133.40,187,-69.00,27.00,-1016.00
2024-06-07 10:56:04.731068,-4,0,9,2,0,0,76,78,142,120,67,133.47,187,-105.00,-5.00,-998.00
2024-06-07 10:56:04.832926,0,0,9,2,0,0,76,78,142,120,67,133.61,187,-89.00,0.00,-1062.00
2024-06-07 10:56:04.984427,0,0,9,1,0,0,76,78,142,120,67,133.69,188,-86.00,18.00,-982.00
2024-06-07 10:56:05.036883,-3,0,9,0,0,0,76,78,142,120,67,133.59,188,-118.00,18.00,-953.00
2024-06-07 10:56:05.189301,-3,0,9,0,0,0,76,78,141,120,67,133.69,188,-98.00,40.00,-951.00
2024-06-07 10:56:05.241253,-4,0,9,0,0,0,76,78,141,120,67,133.72,188,-65.00,32.00,-1009.00
2024-06-07 10:56:05.394057,-4,-1,9,0,0,0,76,78,142,120,67,133.68,188,-65.00,35.00,-996.00
2024-06-07 10:56:05.444828,-4,-1,9,0,0,0,76,78,141,120,67,133.71,188,-99.00,28.00,-981.00
2024-06-07 10:56:05.599303,-4,-1,9,0,0,0,76,78,139,120,67,133.66,188,-79.00,39.00,-980.00
2024-06-07 10:56:05.599532,-4,-1,9,0,0,0,76,78,140,120,67,133.69,188,-81.00,14.00,-1030.00
2024-06-07 10:56:05.701260,-4,-1,9,0,0,0,76,78,140,120,67,133.62,188,-81.00,32.00,-958.00
2024-06-07 10:56:05.804629,-4,-1,9,0,0,0,76,78,138,120,67,133.69,188,-97.00,27.00,-1029.00
2024-06-07 10:56:06.008579,-5,-1,9,0,0,0,75,78,138,120,67,133.67,189,-100.00,42.00,-989.00
2024-06-07 10:56:06.057136,-4,-1,9,0,0,0,75,78,138,120,67,133.63,189,-112.00,25.00,-984.00
2024-06-07 10:56:06.213497,-5,-2,9,0,0,0,75,78,137,120,67,133.64,189,-90.00,39.00,-1025.00
2024-06-07 10:56:06.260782,-5,-2,9,0,0,0,75,78,136,120,67,133.56,189,-88.00,34.00,-1022.00
2024-06-07 10:56:06.318442,-5,-1,9,0,0,0,75,78,135,120,67,133.62,189,-109.00,34.00,-976.00
2024-06-07 10:56:06.414532,-5,-1,9,0,0,0,75,78,135,120,67,133.53,189,-119.00,32.00,-1006.00
2024-06-07 10:56:06.515859,-6,-1,9,0,0,0,75,78,134,120,67,133.66,189,-106.00,22.00,-1029.00
2024-06-07 10:56:06.623310,-6,-1,9,0,0,0,75,78,134,110,67,133.57,189,-79.00,56.00,-1057.00
2024-06-07 10:56:06.719834,-6,-1,9,0,0,0,75,78,135,110,67,133.63,189,-110.00,82.00,-1024.00
2024-06-07 10:56:06.827696,-7,-1,9,0,0,0,75,78,134,110,67,133.65,189,-111.00,87.00,-957.00
2024-06-07 10:56:06.923792,-7,-3,9,0,1,0,76,79,135,110,67,133.60,190,-95.00,77.00,-1013.00
2024-06-07 10:56:07.025508,-7,-4,9,0,1,0,76,79,133,110,67,133.54,190,-114.00,97.00,-1047.00
2024-06-07 10:56:07.134843,-7,-5,9,0,1,0,76,79,134,110,67,133.64,190,-78.00,72.00,-991.00
2024-06-07 10:56:07.229498,-2,-5,9,0,1,0,76,79,132,110,67,133.58,190,-135.00,108.00,-1057.00
2024-06-07 10:56:07.339418,3,-5,9,-1,1,0,76,79,133,110,67,133.59,190,-112.00,107.00,-1040.00
2024-06-07 10:56:07.433661,3,-5,9,-3,0,0,76,79,132,110,67,133.59,190,-129.00,109.00,-1005.00
2024-06-07 10:56:07.547687,2,-6,9,-4,0,0,76,79,133,110,67,133.65,190,-118.00,101.00,-1049.00
2024-06-07 10:56:07.637666,0,-6,9,-6,0,0,76,79,134,110,67,133.77,190,-133.00,115.00,-956.00
2024-06-07 10:56:07.749880,0,-7,9,-7,0,0,76,79,133,110,67,133.74,190,-85.00,125.00,-1012.00
2024-06-07 10:56:07.842032,-2,-7,9,-8,0,0,76,79,134,110,67,133.69,190,-108.00,115.00,-968.00
2024-06-07 10:56:07.953985,-2,-8,9,-8,0,0,76,78,134,110,67,133.62,191,-86.00,89.00,-1040.00
2024-06-07 10:56:08.046103,-4,-7,9,-9,-1,0,76,78,135,110,67,133.79,191,-76.00,120.00,-1019.00
2024-06-07 10:56:08.159338,-5,-5,9,-9,-1,0,76,78,135,110,67,133.78,191,-97.00,103.00,-954.00
2024-06-07 10:56:08.249833,-6,-5,9,-8,0,0,76,78,135,110,67,133.83,191,-89.00,99.00,-986.00
2024-06-07 10:56:08.363700,-7,-5,9,-8,0,0,76,78,135,110,67,133.60,191,-100.00,106.00,-992.00
2024-06-07 10:56:08.453474,-8,-4,9,-8,0,0,76,78,137,110,67,133.63,191,-82.00,100.00,-957.00
2024-06-07 10:56:08.568296,-7,-4,9,-7,0,0,76,78,137,110,67,133.66,191,-101.00,75.00,-1018.00
2024-06-07 10:56:08.657401,-7,-4,9,-7,0,0,76,78,136,110,67,133.65,191,-110.00,76.00,-975.00
2024-06-07 10:56:08.773110,-7,-4,9,-6,0,0,76,78,137,110,67,133.66,191,-90.00,92.00,-994.00
2024-06-07 10:56:08.861411,-7,-3,9,-6,0,0,76,78,137,120,67,133.58,191,-107.00,86.00,-931.00
2024-06-07 10:56:08.977928,-8,-3,9,-5,0,0,75,78,138,120,67,133.55,192,-87.00,66.00,-954.00
2024-06-07 10:56:09.065500,-8,-3,9,-4,0,0,75,78,138,120,67,133.48,192,-99.00,94.00,-1006.00
2024-06-07 10:56:09.184778,-8,-3,9,-4,0,0,75,78,137,120,67,133.52,192,-93.00,96.00,-974.00
2024-06-07 10:56:09.269387,-8,-4,9,-3,0,0,75,78,137,120,67,133.54,192,-78.00,75.00,-988.00
2024-06-07 10:56:09.371544,-7,-4,9,-2,0,0,75,78,139,120,67,133.57,192,-101.00,71.00,-997.00
2024-06-07 10:56:09.490905,-7,-4,9,-2,0,0,75,78,137,120,67,133.55,192,-81.00,63.00,-1036.00
2024-06-07 10:56:09.575421,-7,-4,9,-1,0,0,75,78,138,120,67,133.54,192,-95.00,64.00,-1027.00
2024-06-07 10:56:09.696599,-7,-4,9,-1,0,0,75,78,138,120,67,133.59,192,-115.00,72.00,-945.00
2024-06-07 10:56:09.728416,-7,-5,9,-1,0,0,75,78,138,120,67,133.50,192,-123.00,59.00,-954.00
2024-06-07 10:56:09.832268,-7,-4,9,0,0,0,75,78,138,120,67,133.51,193,-83.00,75.00,-943.00
2024-06-07 10:56:09.932631,-7,-5,9,0,0,0,76,78,139,120,67,133.53,193,-100.00,82.00,-994.00
2024-06-07 10:56:10.039099,-6,-5,9,0,0,0,76,78,139,120,67,133.49,193,-96.00,66.00,-999.00
2024-06-07 10:56:10.136732,-6,-5,9,0,0,0,76,78,139,120,67,133.45,193,-122.00,75.00,-971.00
2024-06-07 10:56:10.309297,-6,-5,9,0,0,0,76,78,137,120,67,133.54,193,-91.00,71.00,-1044.00
2024-06-07 10:56:10.340672,-5,-5,9,0,0,0,76,78,138,120,67,133.52,193,-142.00,90.00,-1000.00
2024-06-07 10:56:10.513996,-6,-5,9,0,0,0,76,78,139,120,67,133.51,193,-132.00,74.00,-999.00
2024-06-07 10:56:10.544572,-6,-5,9,0,0,0,76,78,138,120,67,133.45,193,-124.00,67.00,-1005.00
2024-06-07 10:56:10.719191,-4,-3,9,0,0,0,76,78,139,120,67,133.41,193,-121.00,62.00,-1022.00
2024-06-07 10:56:10.748546,-4,-2,9,0,0,0,76,78,139,120,67,133.41,193,-104.00,98.00,-977.00
2024-06-07 10:56:10.850790,-5,-3,9,0,0,0,76,78,139,120,67,133.49,194,-105.00,87.00,-966.00
2024-06-07 10:56:11.026056,-4,-5,9,0,0,0,76,78,138,120,67,133.47,194,-92.00,89.00,-1012.00
2024-06-07 10:56:11.054484,-5,-5,9,0,0,0,76,78,139,120,67,133.58,194,-95.00,89.00,-955.00
2024-06-07 10:56:11.230819,-4,-5,9,0,0,0,76,78,139,120,67,133.48,194,-133.00,71.00,-988.00
2024-06-07 10:56:11.258430,-5,-6,9,0,0,0,76,78,139,120,67,133.60,194,-86.00,102.00,-957.00
2024-06-07 10:56:11.435570,-5,-6,9,0,0,0,76,78,138,120,67,133.59,194,-120.00,86.00,-957.00
2024-06-07 10:56:11.462530,-5,-6,9,0,0,0,76,78,138,120,67,133.56,194,-97.00,73.00,-1019.00
2024-06-07 10:56:11.640477,-5,-5,9,0,0,0,76,78,138,120,67,133.53,194,-105.00,99.00,-956.00
2024-06-07 10:56:11.666857,-5,-5,9,0,0,0,76,78,137,120,67,133.52,194,-129.00,83.00,-1022.00
2024-06-07 10:56:11.769707,-6,-5,9,0,0,0,76,78,137,120,67,133.57,194,-120.00,101.00,-954.00
2024-06-07 10:56:11.871590,-6,-5,9,0,0,0,76,78,138,120,67,133.51,195,-131.00,85.00,-964.00
2024-06-07 10:56:11.973453,-6,-5,9,0,0,0,76,77,138,120,67,133.36,195,-83.00,95.00,-1010.00
2024-06-07 10:56:12.075292,-6,-5,9,0,0,0,76,77,137,120,67,133.52,195,-141.00,62.00,-992.00
2024-06-07 10:56:12.254639,-6,-5,9,0,0,0,76,77,136,120,67,133.45,195,-104.00,90.00,-1014.00
2024-06-07 10:56:12.279444,-5,-6,9,0,0,0,76,77,137,120,67,133.45,195,-136.00,86.00,-982.00
2024-06-07 10:56:12.459485,-4,-8,9,-1,0,0,76,77,138,120,67,133.49,195,-109.00,94.00,-955.00
2024-06-07 10:56:12.484670,-5,-8,9,-1,-1,0,76,77,138,120,67,133.48,195,-104.00,104.00,-1019.00
2024-06-07 10:56:12.664477,-5,-7,9,-1,-2,0,76,77,138,120,67,133.49,195,-117.00,46.00,-1035.00
2024-06-07 10:56:12.687068,-7,-5,9,-1,-2,0,76,77,137,120,67,133.46,195,-129.00,60.00,-983.00
2024-06-07 10:56:12.789186,-7,-3,9,-1,-3,0,76,77,139,120,67,133.42,195,-145.00,63.00,-939.00
2024-06-07 10:56:12.971947,-8,-3,9,-1,-3,0,76,77,138,120,67,133.49,196,-128.00,77.00,-964.00
2024-06-07 10:56:12.993258,-8,-2,9,-1,-3,0,75,79,138,120,67,133.44,196,-122.00,86.00,-1002.00
2024-06-07 10:56:13.095265,-8,-1,9,-1,-2,0,75,79,138,120,67,133.39,196,-151.00,73.00,-1016.00
2024-06-07 10:56:13.278634,-8,-2,9,-1,-2,0,75,79,139,120,67,133.38,196,-127.00,59.00,-997.00
2024-06-07 10:56:13.299429,-8,-2,9,-1,-2,0,75,79,137,120,67,133.35,196,-123.00,95.00,-964.00
2024-06-07 10:56:13.401222,-8,-2,9,0,-1,0,75,79,139,120,67,133.40,196,-136.00,103.00,-976.00
2024-06-07 10:56:13.585901,-8,-3,9,0,-1,0,75,79,138,120,67,133.44,196,-117.00,76.00,-1020.00
2024-06-07 10:56:13.606303,-8,-3,9,0,0,0,75,79,138,120,66,133.48,196,-115.00,88.00,-1008.00
2024-06-07 10:56:13.790698,-8,-4,9,0,0,0,75,79,139,120,66,133.50,196,-60.00,76.00,-1026.00
2024-06-07 10:56:13.790863,-7,-4,9,0,0,0,75,79,138,120,66,133.51,196,-82.00,74.00,-1007.00
2024-06-07 10:56:13.860299,-6,-5,9,0,0,0,75,79,137,120,66,133.36,197,-131.00,91.00,-973.00
2024-06-07 10:56:14.013759,-6,-5,9,0,0,0,75,79,138,120,66,133.31,197,-149.00,98.00,-970.00
2024-06-07 10:56:14.116659,-6,-5,9,0,0,0,75,79,137,120,66,133.27,197,-105.00,123.00,-963.00
2024-06-07 10:56:14.218220,-6,-5,9,0,0,0,75,79,137,120,66,133.39,197,-106.00,87.00,-970.00
2024-06-07 10:56:14.270144,-6,-6,9,0,0,0,75,79,138,120,66,133.38,197,-138.00,91.00,-953.00
2024-06-07 10:56:14.370484,-7,-6,9,0,0,0,75,79,137,120,66,133.38,197,-141.00,102.00,-923.00
2024-06-07 10:56:14.507520,-7,-5,9,0,0,0,75,79,138,120,66,133.45,197,-164.00,90.00,-991.00
2024-06-07 10:56:14.574261,-6,-5,9,0,-1,0,75,79,135,120,66,133.39,197,-209.00,80.00,-1074.00
2024-06-07 10:56:14.712296,-8,-4,9,0,-1,0,75,79,136,120,66,133.30,197,-212.00,115.00,-1022.00
2024-06-07 10:56:14.778694,-9,-3,9,-1,0,0,75,79,138,120,66,133.48,197,-202.00,116.00,-927.00
2024-06-07 10:56:14.917386,-9,-4,9,-1,0,0,75,79,138,120,66,133.44,198,-218.00,81.00,-1025.00
2024-06-07 10:56:14.982218,-10,-5,9,-1,0,0,75,79,138,120,66,133.49,198,-218.00,68.00,-885.00
2024-06-07 10:56:15.088122,-11,-5,10,-2,0,0,75,79,139,120,66,133.37,198,-202.00,79.00,-973.00
2024-06-07 10:56:15.186257,-11,-4,10,-2,-1,0,75,79,138,110,66,133.30,198,-200.00,75.00,-1020.00
2024-06-07 10:56:15.327002,-11,-2,9,-1,0,0,75,79,137,110,66,133.37,198,-173.00,82.00,-1078.00
2024-06-07 10:56:15.390529,-13,-4,9,-1,0,0,75,79,139,110,66,133.35,198,-172.00,84.00,-943.00
2024-06-07 10:56:15.531585,-13,-5,10,0,0,0,75,79,140,120,66,133.45,198,-166.00,93.00,-954.00
2024-06-07 10:56:15.594231,-12,-5,10,0,0,0,75,79,138,120,66,133.27,198,-141.00,50.00,-968.00
2024-06-07 10:56:15.736837,-10,-4,9,0,0,0,75,79,137,120,66,133.33,198,-128.00,74.00,-1007.00
2024-06-07 10:56:15.799028,-5,-2,9,0,0,0,75,79,137,120,66,133.30,198,-142.00,113.00,-1025.00
2024-06-07 10:56:15.941310,-5,-3,9,0,0,0,75,79,137,120,66,133.41,199,-120.00,60.00,-973.00
2024-06-07 10:56:16.002375,-5,-3,9,0,0,0,76,79,137,120,66,133.30,199,-124.00,62.00,-987.00
2024-06-07 10:56:16.104553,-5,-3,9,0,0,0,76,79,136,120,66,133.36,199,-165.00,62.00,-994.00
2024-06-07 10:56:16.248534,-6,-2,9,0,0,0,76,79,137,120,66,133.39,199,-132.00,81.00,-961.00
2024-06-07 10:56:16.308407,-6,-2,9,0,0,0,76,79,136,120,66,133.14,199,-114.00,69.00,-1032.00
2024-06-07 10:56:16.453512,-6,-3,9,0,0,0,76,79,138,120,66,133.07,199,-155.00,76.00,-958.00
2024-06-07 10:56:16.512257,-7,-4,9,-1,0,0,76,79,138,120,66,133.46,199,-209.00,81.00,-925.00
2024-06-07 10:56:16.658098,-11,-3,9,-1,0,0,76,79,141,120,66,133.45,199,-125.00,119.00,-885.00
2024-06-07 10:56:16.716307,-11,-4,9,0,0,0,76,79,140,120,66,133.41,199,-96.00,90.00,-1007.00
2024-06-07 10:56:16.820079,-6,-5,9,0,1,0,76,79,138,120,66,133.00,199,-125.00,59.00,-1121.00
2024-06-07 10:56:16.920473,-6,-4,9,0,1,0,76,79,139,120,66,133.13,200,-103.00,120.00,-932.00
2024-06-07 10:56:17.067653,-7,-6,9,0,1,-1,76,78,142,120,66,133.26,200,-115.00,125.00,-937.00
2024-06-07 10:56:17.124080,-7,-8,10,0,1,0,76,78,143,120,66,133.51,200,-138.00,109.00,-898.00
2024-06-07 10:56:17.272391,-6,-9,9,0,0,0,76,78,143,120,66,133.20,200,-189.00,90.00,-950.00
2024-06-07 10:56:17.328125,-5,-3,9,0,0,0,76,78,140,120,66,133.29,200,-213.00,50.00,-1119.00
2024-06-07 10:56:17.477293,-9,4,9,-1,0,0,76,78,142,120,66,133.42,200,-175.00,87.00,-900.00
2024-06-07 10:56:17.532188,-12,2,9,-1,1,0,76,78,145,120,65,133.43,200,-187.00,99.00,-788.00
2024-06-07 10:56:17.681970,-12,0,9,-2,3,1,76,78,142,120,65,133.22,200,-178.00,93.00,-947.00
2024-06-07 10:56:17.738026,-11,-2,9,-1,4,1,76,78,140,120,65,133.34,200,-232.00,98.00,-967.00
2024-06-07 10:56:17.787731,-11,-6,10,-1,4,1,76,78,139,120,65,133.32,200,-211.00,98.00,-981.00
2024-06-07 10:56:17.889881,-11,-7,10,-1,4,1,76,78,139,110,65,133.44,201,-186.00,71.00,-1017.00
2024-06-07 10:56:17.991011,-11,-8,10,-1,3,1,76,78,138,110,65,133.42,201,-186.00,57.00,-1015.00
2024-06-07 10:56:18.092972,-11,-5,10,-1,2,0,76,78,137,110,65,133.35,201,-146.00,95.00,-1010.00
2024-06-07 10:56:18.195048,-9,-5,9,0,2,0,76,78,135,110,65,133.26,201,-178.00,75.00,-1004.00
2024-06-07 10:56:18.402403,-9,-5,9,0,2,0,76,78,134,110,65,133.14,201,-154.00,69.00,-1068.00
2024-06-07 10:56:18.402586,-8,-5,9,0,2,0,76,78,136,110,65,133.11,201,-164.00,90.00,-1023.00
2024-06-07 10:56:18.504440,-9,-6,10,0,2,-1,76,78,138,110,65,133.20,201,-140.00,104.00,-973.00
2024-06-07 10:56:18.607337,-9,-6,10,0,2,0,76,78,138,120,65,133.15,201,-145.00,92.00,-978.00
2024-06-07 10:56:18.706135,-9,-6,10,0,2,0,76,78,138,120,65,133.08,201,-203.00,89.00,-934.00
2024-06-07 10:56:18.808413,-8,-8,10,0,1,0,76,78,137,120,65,133.10,201,-197.00,103.00,-929.00
2024-06-07 10:56:18.910873,-10,-9,10,0,1,0,76,78,140,120,65,133.30,202,-204.00,72.00,-891.00
2024-06-07 10:56:19.011162,-10,-8,10,-1,0,0,75,78,138,120,65,133.21,202,-187.00,137.00,-962.00
2024-06-07 10:56:19.113116,-10,-7,10,-1,0,0,75,78,138,120,65,133.13,202,-192.00,110.00,-1009.00
2024-06-07 10:56:19.217981,-10,-7,10,0,0,0,75,78,138,110,65,133.18,202,-178.00,109.00,-1001.00
2024-06-07 10:56:19.317237,-11,-6,10,0,0,0,75,78,137,110,65,133.15,202,-166.00,107.00,-1003.00
2024-06-07 10:56:19.423221,-10,-6,10,0,0,0,75,78,136,110,65,133.13,202,-152.00,97.00,-997.00
2024-06-07 10:56:19.521325,-9,-7,9,0,0,0,75,78,136,110,65,133.12,202,-166.00,114.00,-977.00
2024-06-07 10:56:19.627558,-9,-6,9,0,0,0,75,78,136,110,65,133.14,202,-154.00,111.00,-933.00
2024-06-07 10:56:19.725359,-9,-6,9,0,0,0,75,78,136,110,65,133.11,202,-163.00,102.00,-948.00
2024-06-07 10:56:19.826824,-8,-6,9,0,0,0,75,78,137,110,65,133.10,202,-135.00,89.00,-1044.00
2024-06-07 10:56:19.934761,-8,-5,9,0,0,0,75,78,137,110,65,133.03,203,-152.00,91.00,-1015.00
2024-06-07 10:56:20.031536,-8,-6,9,0,0,0,76,79,137,110,65,133.03,203,-189.00,97.00,-975.00
2024-06-07 10:56:20.139592,-9,-6,10,0,0,0,76,79,138,110,65,133.17,203,-153.00,89.00,-1037.00
2024-06-07 10:56:20.235286,-10,-5,10,0,0,0,76,79,137,120,65,133.25,203,-154.00,94.00,-998.00
2024-06-07 10:56:20.337511,-9,-4,10,0,0,0,76,79,136,120,65,133.21,203,-145.00,74.00,-933.00
2024-06-07 10:56:20.446774,-8,-4,15,0,0,0,76,79,139,120,65,133.09,203,-158.00,92.00,-989.00
2024-06-07 10:56:20.546181,-9,-8,21,0,0,0,76,79,140,120,65,133.28,203,-155.00,158.00,-1051.00
2024-06-07 10:56:20.643367,-8,-9,27,0,0,0,76,79,139,120,65,133.31,203,-166.00,128.00,-942.00
2024-06-07 10:56:20.754030,-7,-8,32,0,0,0,76,79,138,110,65,133.15,203,-134.00,111.00,-887.00
2024-06-07 10:56:20.852518,-6,-8,38,0,0,0,76,79,138,110,65,133.18,203,-132.00,101.00,-987.00
2024-06-07 10:56:20.897996,-5,-8,44,0,0,0,76,79,137,110,65,133.34,204,-93.00,147.00,-1047.00
2024-06-07 10:56:21.061157,-4,-8,50,0,0,0,76,79,136,110,65,133.37,204,-34.00,156.00,-992.00
2024-06-07 10:56:21.152976,-3,-8,56,0,0,0,76,79,135,110,65,133.21,204,-25.00,170.00,-1016.00
2024-06-07 10:56:21.266088,-1,-8,62,0,0,0,76,79,135,110,65,133.33,204,-7.00,167.00,-982.00
2024-06-07 10:56:21.358340,0,-8,66,0,0,0,76,79,136,110,65,133.38,204,-8.00,163.00,-970.00
2024-06-07 10:56:21.470821,0,-9,66,0,0,0,76,79,137,110,65,133.40,204,30.00,154.00,-1004.00
2024-06-07 10:56:21.510975,0,-10,66,0,0,0,76,79,136,110,65,133.51,204,23.00,166.00,-1033.00
2024-06-07 10:56:21.676045,3,-7,66,0,0,0,76,79,135,110,65,133.46,204,-31.00,178.00,-997.00
2024-06-07 10:56:21.714258,1,-9,66,0,0,0,76,79,137,110,65,133.47,204,12.00,193.00,-917.00
2024-06-07 10:56:21.880474,1,-11,66,0,0,0,76,79,137,110,65,133.49,204,1.00,168.00,-1031.00
2024-06-07 10:56:21.918896,1,-11,66,0,0,0,76,79,137,110,65,133.31,205,2.00,204.00,-1013.00
2024-06-07 10:56:22.085389,1,-10,66,0,0,0,76,78,137,110,65,133.36,205,0.00,197.00,-952.00
2024-06-07 10:56:22.126577,0,-10,66,0,0,0,76,78,136,110,65,133.21,205,-44.00,174.00,-993.00
2024-06-07 10:56:22.224983,0,-10,66,0,0,0,76,78,138,110,65,133.07,205,-10.00,181.00,-1043.00
2024-06-07 10:56:22.392370,0,-10,66,0,0,0,76,78,140,110,65,133.51,205,-68.00,181.00,-1022.00
2024-06-07 10:56:22.429400,1,-13,66,0,0,0,76,78,141,120,65,133.42,205,-62.00,214.00,-924.00
2024-06-07 10:56:22.597542,0,-14,66,-1,-1,0,76,78,143,120,65,133.37,205,-77.00,192.00,-876.00
2024-06-07 10:56:22.632988,-3,-12,67,-1,-1,0,76,78,142,120,65,133.49,205,-98.00,188.00,-993.00
2024-06-07 10:56:22.802290,-4,-12,66,0,-2,0,76,78,142,120,65,133.03,205,-121.00,208.00,-1093.00
2024-06-07 10:56:22.837065,-5,-11,67,0,-2,0,76,78,142,120,65,132.96,205,0.00,247.00,-987.00
2024-06-07 10:56:23.006955,-8,-9,67,-1,-1,-1,76,78,142,120,65,132.95,206,-7.00,185.00,-933.00
2024-06-07 10:56:23.042877,-2,-14,67,-1,0,0,75,78,144,120,65,133.14,206,-53.00,243.00,-945.00
2024-06-07 10:56:23.143459,-1,-15,67,0,0,0,75,78,147,120,65,133.18,206,-52.00,206.00,-921.00
2024-06-07 10:56:23.248927,-1,-15,66,0,0,0,75,78,146,120,65,133.17,206,-63.00,200.00,-905.00
2024-06-07 10:56:23.346672,-3,-13,61,0,0,0,75,78,144,120,65,133.35,206,-35.00,195.00,-951.00
2024-06-07 10:56:23.448687,-4,-11,56,0,0,0,75,78,142,120,65,133.15,206,-60.00,217.00,-988.00
2024-06-07 10:56:23.550664,-5,-10,50,0,0,0,75,78,139,120,65,133.08,206,-78.00,201.00,-996.00
2024-06-07 10:56:23.723592,-6,-10,45,0,0,0,75,78,139,120,65,133.15,206,-86.00,203.00,-944.00
2024-06-07 10:56:23.767067,-6,-10,39,0,0,0,75,78,137,120,65,133.20,206,-124.00,201.00,-1013.00
2024-06-07 10:56:23.856580,-8,-10,33,0,0,0,75,78,137,120,65,133.09,207,-113.00,182.00,-982.00
2024-06-07 10:56:24.031029,-8,-10,27,0,0,0,75,78,136,110,65,133.22,207,-154.00,183.00,-1002.00
2024-06-07 10:56:24.062844,-8,-9,21,0,0,0,75,78,136,110,65,133.01,207,-178.00,156.00,-1054.00
2024-06-07 10:56:24.162628,-10,-8,15,0,0,0,75,78,136,110,65,132.98,207,-186.00,119.00,-1008.00
2024-06-07 10:56:24.264899,-11,-5,9,0,0,0,75,78,136,110,65,133.02,207,-182.00,102.00,-1006.00
2024-06-07 10:56:24.440580,-11,-4,9,0,0,-1,75,78,136,110,65,132.88,207,-208.00,77.00,-964.00
2024-06-07 10:56:24.468755,-12,-5,9,0,0,0,75,78,138,120,65,132.86,207,-175.00,58.00,-933.00
2024-06-07 10:56:24.645291,-11,-4,9,0,0,0,75,78,139,120,65,132.96,207,-188.00,89.00,-941.00
2024-06-07 10:56:24.672756,-11,-4,9,0,0,0,75,78,140,120,65,132.90,207,-177.00,90.00,-953.00
2024-06-07 10:56:24.850173,-12,-5,9,0,0,0,75,78,140,120,65,133.05,207,-217.00,100.00,-895.00
2024-06-07 10:56:24.876760,-12,-5,9,0,0,1,75,78,140,120,65,133.14,208,-188.00,113.00,-872.00
2024-06-07 10:56:25.054844,-11,-6,9,0,0,1,75,78,138,110,65,133.31,208,-231.00,116.00,-923.00
2024-06-07 10:56:25.080690,-10,-5,9,0,0,0,75,78,136,110,65,132.89,208,-267.00,115.00,-1065.00
2024-06-07 10:56:25.131978,-14,-8,9,0,0,0,75,78,138,110,65,132.82,208,-233.00,86.00,-971.00
2024-06-07 10:56:25.259496,-15,-8,9,0,0,0,75,78,140,110,65,133.09,208,-212.00,59.00,-948.00
2024-06-07 10:56:25.335974,-14,-6,9,0,0,0,75,78,139,110,65,133.09,208,-208.00,97.00,-900.00
2024-06-07 10:56:25.466407,-13,-5,9,0,0,0,75,78,138,110,65,133.16,208,-246.00,67.00,-997.00
2024-06-07 10:56:25.540182,-12,-4,9,0,0,0,75,78,135,110,65,133.00,208,-206.00,109.00,-1033.00
2024-06-07 10:56:25.669379,-11,-5,9,1,0,0,75,78,135,110,65,133.07,208,-203.00,87.00,-955.00
2024-06-07 10:56:25.743920,-9,-5,9,1,0,0,75,78,134,110,65,132.88,208,-186.00,104.00,-1059.00
2024-06-07 10:56:25.845922,-9,-6,9,0,0,0,75,78,135,110,65,132.94,209,-223.00,98.00,-944.00
2024-06-07 10:56:25.976736,-11,-6,9,0,0,0,75,78,135,110,65,132.97,209,-214.00,105.00,-954.00
2024-06-07 10:56:26.050547,-11,-6,9,0,0,0,75,78,136,110,65,132.95,209,-204.00,96.00,-1006.00
2024-06-07 10:56:26.181278,-12,-5,9,0,0,0,75,78,138,110,65,133.04,209,-209.00,110.00,-967.00
2024-06-07 10:56:26.254723,-11,-5,9,0,0,0,75,78,137,120,65,132.95,209,-185.00,94.00,-1013.00
2024-06-07 10:56:26.386003,-11,-6,9,0,0,0,75,78,137,120,65,132.93,209,-159.00,99.00,-960.00
2024-06-07 10:56:26.458553,-11,-6,9,0,0,0,75,78,138,120,65,132.83,209,-215.00,88.00,-908.00
2024-06-07 10:56:26.591187,-10,-5,9,0,0,0,75,78,137,120,65,132.90,209,-206.00,90.00,-933.00
2024-06-07 10:56:26.663001,-10,-5,9,0,0,0,75,78,137,120,65,132.88,209,-206.00,84.00,-960.00
2024-06-07 10:56:26.795554,-11,-4,9,0,0,0,75,78,137,120,65,132.94,209,-172.00,80.00,-1002.00
2024-06-07 10:56:26.867164,-10,-3,9,0,0,0,75,78,137,110,65,132.90,210,-193.00,62.00,-1024.00
2024-06-07 10:56:27.000486,-11,-3,9,0,0,0,75,78,136,110,65,132.91,210,-216.00,83.00,-947.00
2024-06-07 10:56:27.071290,-12,-4,9,0,0,0,75,78,137,110,65,132.94,210,-186.00,78.00,-983.00
2024-06-07 10:56:27.205220,-11,-3,9,0,0,0,75,78,137,110,65,132.97,210,-158.00,77.00,-993.00
2024-06-07 10:56:27.276400,-10,-4,9,0,0,0,75,78,136,110,65,133.07,210,-179.00,73.00,-929.00
2024-06-07 10:56:27.376824,-10,-5,9,0,0,0,75,78,135,110,65,132.85,210,-177.00,9.00,-1002.00
2024-06-07 10:56:27.513281,-10,-3,9,0,0,0,75,78,136,110,65,132.91,210,-171.00,61.00,-993.00
2024-06-07 10:56:27.580627,-10,-3,9,0,0,0,75,78,136,110,64,132.95,210,-175.00,43.00,-958.00
2024-06-07 10:56:27.717113,-9,-2,8,1,0,0,75,78,134,110,64,132.88,210,-169.00,43.00,-948.00
2024-06-07 10:56:27.784687,-8,-1,8,1,-1,0,75,78,133,110,64,132.78,210,-162.00,14.00,-1009.00
2024-06-07 10:56:27.921977,-7,-1,9,0,-1,0,75,78,134,110,64,132.62,211,-169.00,23.00,-1029.00
2024-06-07 10:56:27.989840,-8,0,8,0,0,0,75,78,134,110,64,133.11,211,-193.00,45.00,-991.00
2024-06-07 10:56:28.092394,-10,-2,9,0,0,0,76,79,135,110,64,132.62,211,-184.00,29.00,-993.00
2024-06-07 10:56:28.229232,-9,0,8,0,0,0,76,79,135,110,64,132.64,211,-182.00,46.00,-985.00
2024-06-07 10:56:28.296028,-12,0,8,0,0,0,76,79,137,110,64,132.91,211,-164.00,76.00,-931.00
2024-06-07 10:56:28.433854,-12,-2,9,0,0,0,76,79,136,110,64,132.96,211,-187.00,40.00,-1051.00
2024-06-07 10:56:28.504733,-11,-3,9,0,0,0,76,79,137,110,64,132.94,211,-164.00,76.00,-931.00
2024-06-07 10:56:28.601853,-10,-4,9,0,0,0,76,79,135,110,64,132.90,211,-185.00,63.00,-948.00
2024-06-07 10:56:28.653554,-11,-4,9,0,0,0,76,79,135,110,64,132.86,211,-222.00,66.00,-1016.00
2024-06-07 10:56:28.755054,-11,-2,9,0,0,0,76,79,135,110,64,132.83,211,-206.00,44.00,-993.00
2024-06-07 10:56:28.861946,-11,-2,9,0,0,0,76,79,136,110,64,132.84,212,-190.00,34.00,-991.00
2024-06-07 10:56:28.959236,-10,-1,9,0,0,0,76,79,134,110,64,132.92,212,-183.00,64.00,-938.00
2024-06-07 10:56:29.111563,-10,-3,9,0,0,0,76,77,135,110,64,132.70,212,-177.00,42.00,-996.00
2024-06-07 10:56:29.162424,-10,-4,9,0,0,0,76,77,134,110,64,132.83,212,-188.00,10.00,-1023.00
2024-06-07 10:56:29.317341,-11,-3,9,0,0,0,76,77,135,110,64,133.00,212,-180.00,-6.00,-911.00
2024-06-07 10:56:29.380610,-11,-2,9,0,0,0,76,77,135,110,64,133.01,212,-217.00,-10.00,-956.00
2024-06-07 10:56:29.476614,-11,0,8,0,0,0,76,77,134,110,64,132.96,212,-188.00,22.00,-1001.00
2024-06-07 10:56:29.570514,-11,0,9,0,0,0,76,77,134,110,64,133.04,212,-177.00,74.00,-1131.00
2024-06-07 10:56:29.765235,-10,0,8,0,0,0,76,77,132,110,64,133.04,212,-159.00,98.00,-995.00
2024-06-07 10:56:29.774800,-9,-3,8,0,1,0,76,77,131,110,64,132.93,212,-155.00,74.00,-953.00
2024-06-07 10:56:29.970054,-9,-4,9,0,1,0,76,77,131,110,64,133.00,213,-153.00,79.00,-964.00
2024-06-07 10:56:29.979316,-9,-6,9,0,1,0,76,77,130,110,64,133.19,213,-144.00,29.00,-969.00
2024-06-07 10:56:30.174916,-8,-6,9,0,0,0,75,79,131,110,64,133.09,213,-173.00,52.00,-1024.00
2024-06-07 10:56:30.189461,-9,-3,9,0,0,0,75,79,130,110,64,133.07,213,-160.00,39.00,-939.00
2024-06-07 10:56:30.286461,-8,-1,9,0,0,0,75,79,129,110,64,133.02,213,-173.00,71.00,-1087.00
2024-06-07 10:56:30.387451,-8,-1,8,0,0,0,75,79,128,110,64,133.08,213,-157.00,65.00,-1010.00
2024-06-07 10:56:30.584487,-9,-1,9,0,0,0,75,79,130,110,64,133.03,213,-137.00,67.00,-946.00
2024-06-07 10:56:30.591972,-9,-2,9,0,0,0,75,79,129,110,64,133.07,213,-155.00,62.00,-1015.00
2024-06-07 10:56:30.789421,-8,-5,9,0,0,0,75,79,129,110,64,133.10,213,-165.00,31.00,-918.00
2024-06-07 10:56:30.794610,-7,-4,9,0,0,0,75,79,130,110,64,133.02,213,-168.00,57.00,-1110.00
2024-06-07 10:56:30.995301,-8,-2,9,0,0,0,75,79,130,110,64,133.03,214,-169.00,62.00,-1023.00
2024-06-07 10:56:30.998465,-8,-4,9,0,0,0,75,79,131,110,64,133.03,214,-154.00,39.00,-1007.00
2024-06-07 10:56:31.100429,-8,-3,9,0,0,0,75,78,132,110,64,133.03,214,-119.00,43.00,-1017.00
2024-06-07 10:56:31.304820,-7,-3,8,0,0,0,75,78,133,110,64,133.04,214,-125.00,35.00,-1007.00
2024-06-07 10:56:31.305032,-6,-3,8,0,0,0,75,78,133,110,64,132.99,214,-119.00,49.00,-940.00
2024-06-07 10:56:31.406731,-6,-3,8,0,0,0,75,78,133,110,64,133.10,214,-140.00,33.00,-998.00
2024-06-07 10:56:31.508449,-7,-3,8,0,0,0,75,78,133,110,64,133.04,214,-141.00,0.00,-996.00
2024-06-07 10:56:31.610444,-7,0,8,0,0,0,75,78,132,110,64,133.09,214,-122.00,69.00,-1001.00
2024-06-07 10:56:31.712569,-6,-1,8,0,0,0,75,78,132,110,64,133.23,214,-172.00,72.00,-966.00
2024-06-07 10:56:31.814774,-6,-2,8,0,0,0,75,78,130,110,64,132.97,214,-172.00,59.00,-1064.00
2024-06-07 10:56:31.916574,-8,-4,8,-1,0,0,75,78,132,110,64,133.17,215,-178.00,80.00,-946.00
2024-06-07 10:56:32.018378,-10,-3,8,-1,0,0,75,78,134,110,64,132.93,215,-180.00,0.00,-973.00
2024-06-07 10:56:32.120461,-10,-5,9,-1,0,0,76,78,134,110,64,133.13,215,-163.00,28.00,-1031.00
2024-06-07 10:56:32.222890,-11,-1,9,0,0,0,76,78,134,110,64,133.10,215,-156.00,72.00,-1007.00
2024-06-07 10:56:32.326328,-10,-2,8,0,0,0,76,78,134,110,64,133.15,215,-171.00,13.00,-960.00
2024-06-07 10:56:32.428856,-10,-3,8,0,0,0,76,78,133,110,64,133.08,215,-159.00,7.00,-998.00
2024-06-07 10:56:32.530020,-10,0,8,0,0,0,76,78,133,110,64,133.15,215,-136.00,70.00,-955.00
2024-06-07 10:56:32.630341,-9,-1,8,0,0,0,76,78,133,110,64,133.12,215,-180.00,68.00,-1034.00
2024-06-07 10:56:32.734796,-8,-3,8,0,0,0,76,78,132,110,64,133.24,215,-154.00,62.00,-969.00
2024-06-07 10:56:32.835385,-9,-3,9,0,0,0,76,78,132,110,64,133.01,215,-160.00,20.00,-934.00
2024-06-07 10:56:32.887336,-9,-3,8,0,0,0,76,78,131,110,64,133.14,216,-153.00,11.00,-964.00
2024-06-07 10:56:32.988094,-9,-1,8,0,0,0,76,78,132,110,64,133.06,216,-127.00,41.00,-1003.00
2024-06-07 10:56:33.089745,-9,-2,9,0,0,0,75,78,132,110,64,133.03,216,-125.00,59.00,-1004.00
2024-06-07 10:56:33.246767,-7,-3,9,0,0,0,75,78,132,110,64,133.11,216,-139.00,44.00,-1063.00
2024-06-07 10:56:33.293503,-7,-4,9,0,0,0,75,78,132,110,64,133.04,216,-116.00,18.00,-979.00
2024-06-07 10:56:33.452045,-6,-3,9,0,0,0,75,78,131,110,64,132.91,216,-104.00,16.00,-1013.00
2024-06-07 10:56:33.497554,-6,-1,9,0,0,0,75,78,132,110,63,133.12,216,-107.00,45.00,-950.00
2024-06-07 10:56:33.656391,-6,-1,8,1,0,0,75,78,133,110,63,133.16,216,-122.00,55.00,-969.00
2024-06-07 10:56:33.702314,-5,-1,9,0,0,0,75,78,132,110,63,133.04,216,-91.00,46.00,-1031.00
2024-06-07 10:56:33.861354,-5,-1,9,0,0,0,75,78,132,110,63,133.10,216,-147.00,37.00,-953.00
2024-06-07 10:56:33.905545,-5,-2,9,0,0,0,75,78,132,110,63,133.11,217,-136.00,54.00,-1011.00
2024-06-07 10:56:34.066394,-6,-2,8,0,0,0,75,78,131,110,63,133.10,217,-138.00,34.00,-1021.00
2024-06-07 10:56:34.110342,-6,-2,8,0,0,0,75,78,132,110,63,133.10,217,-138.00,48.00,-994.00
2024-06-07 10:56:34.270951,-6,-3,8,0,0,0,75,78,133,110,63,133.16,217,-121.00,16.00,-917.00
2024-06-07 10:56:34.313665,-7,-3,9,0,0,0,75,78,134,110,63,133.29,217,-105.00,46.00,-928.00
2024-06-07 10:56:34.475490,-7,-1,8,0,0,0,75,78,134,110,63,133.22,217,-129.00,33.00,-906.00
2024-06-07 10:56:34.517449,-6,-3,9,0,0,0,75,78,133,110,63,133.05,217,-113.00,12.00,-1049.00
2024-06-07 10:56:34.681550,-6,-1,8,0,0,0,75,78,131,110,63,133.14,217,-153.00,54.00,-1039.00
2024-06-07 10:56:34.721355,-6,-2,8,0,0,0,75,78,133,110,63,133.11,217,-172.00,64.00,-1031.00
2024-06-07 10:56:34.885430,-8,-4,8,-1,0,0,75,78,134,110,63,133.07,217,-170.00,21.00,-975.00
2024-06-07 10:56:34.927792,-9,-3,8,-1,0,0,75,78,135,110,63,133.18,218,-166.00,56.00,-982.00
2024-06-07 10:56:35.027358,-10,-3,9,-1,0,0,75,78,135,110,63,133.24,218,-156.00,31.00,-1013.00
2024-06-07 10:56:35.130604,-10,-2,9,0,0,0,75,77,136,120,63,133.24,218,-151.00,62.00,-999.00
2024-06-07 10:56:35.278320,-9,-2,9,0,0,0,75,77,135,120,63,133.33,218,-143.00,71.00,-990.00
2024-06-07 10:56:35.333514,-9,-3,9,0,0,0,75,77,137,120,63,133.31,218,-132.00,70.00,-930.00
2024-06-07 10:56:35.500118,-9,-4,9,0,0,0,75,77,137,120,63,133.33,218,-106.00,88.00,-950.00
2024-06-07 10:56:35.537388,-8,-5,9,0,0,0,75,77,136,120,63,133.33,218,-132.00,52.00,-1020.00
2024-06-07 10:56:35.639615,-7,-3,9,0,0,0,75,77,135,120,63,133.11,218,-130.00,53.00,-975.00
2024-06-07 10:56:35.806830,-7,-4,8,0,0,0,75,77,137,120,63,133.17,218,-144.00,75.00,-940.00
2024-06-07 10:56:35.848229,-7,-4,9,0,0,0,75,77,136,120,63,133.24,218,-152.00,61.00,-995.00
2024-06-07 10:56:35.946992,-8,-4,8,0,0,0,75,77,136,120,63,133.21,219,-150.00,50.00,-970.00
2024-06-07 10:56:35.996175,-8,-4,9,0,0,0,75,77,135,120,63,133.32,219,-172.00,53.00,-1009.00
2024-06-07 10:56:36.152555,-8,-3,9,0,0,0,75,78,134,120,63,133.25,219,-177.00,32.00,-970.00
2024-06-07 10:56:36.252150,-8,-4,8,0,0,0,75,78,135,110,63,133.20,219,-179.00,25.00,-999.00
2024-06-07 10:56:36.424280,-8,-2,9,0,0,0,75,78,132,110,63,133.25,219,-148.00,38.00,-1012.00
2024-06-07 10:56:36.455351,-9,-1,9,0,0,0,75,78,133,110,63,133.11,219,-141.00,57.00,-1000.00
2024-06-07 10:56:36.626309,-8,-1,8,0,0,0,75,78,132,110,63,133.03,219,-176.00,47.00,-1007.00
2024-06-07 10:56:36.660282,-8,-2,8,0,0,0,75,78,133,110,63,133.16,219,-177.00,-5.00,-950.00
2024-06-07 10:56:36.833245,-9,-3,8,0,0,0,75,78,133,110,63,133.11,219,-159.00,32.00,-966.00
2024-06-07 10:56:36.833445,-9,-2,8,0,0,0,75,78,133,110,63,133.08,219,-166.00,56.00,-997.00
2024-06-07 10:56:36.914170,-8,-2,8,0,0,0,75,78,134,110,63,133.12,220,-178.00,24.00,-938.00
2024-06-07 10:56:37.055315,-8,-1,9,0,0,0,75,78,133,110,63,133.24,220,-204.00,17.00,-900.00
2024-06-07 10:56:37.118025,-9,-2,9,0,0,0,76,79,135,110,63,133.27,220,-204.00,5.00,-972.00
2024-06-07 10:56:37.240405,-10,-1,8,0,0,0,76,79,133,110,63,133.08,220,-182.00,-6.00,-996.00
2024-06-07 10:56:37.322201,-10,-1,8,0,-1,0,76,79,135,110,63,133.08,220,-211.00,-19.00,-1054.00
2024-06-07 10:56:37.445115,-10,0,8,0,-1,0,76,79,134,110,63,133.14,220,-209.00,-8.00,-946.00
2024-06-07 10:56:37.527541,-12,1,8,0,-1,0,76,79,135,110,63,133.25,220,-222.00,11.00,-980.00
2024-06-07 10:56:37.628046,-12,2,8,-1,-1,0,76,79,136,110,63,133.16,220,-198.00,-20.00,-1003.00
2024-06-07 10:56:37.752390,-12,1,8,0,0,0,76,79,134,110,63,133.21,220,-203.00,-27.00,-974.00
2024-06-07 10:56:37.832052,-12,0,8,0,0,0,76,79,136,110,63,133.26,220,-203.00,9.00,-972.00
2024-06-07 10:56:37.957331,-13,1,8,0,0,0,76,79,136,110,63,133.27,221,-191.00,35.00,-1031.00
2024-06-07 10:56:38.036470,-12,0,8,0,0,0,76,79,136,110,63,133.22,221,-190.00,9.00,-965.00
2024-06-07 10:56:38.138357,-10,-1,8,0,0,0,76,79,135,110,63,133.19,221,-203.00,-1.00,-952.00
2024-06-07 10:56:38.266993,-11,0,8,0,0,0,76,79,135,110,63,133.18,221,-194.00,0.00,-999.00
2024-06-07 10:56:38.342197,-10,0,8,0,0,0,76,79,135,110,63,133.12,221,-168.00,3.00,-959.00
2024-06-07 10:56:38.469604,-9,0,8,0,0,0,76,79,135,110,63,133.12,221,-183.00,5.00,-969.00
2024-06-07 10:56:38.545881,-9,-1,8,0,0,0,76,79,135,110,62,133.10,221,-183.00,-9.00,-945.00
2024-06-07 10:56:38.674014,-10,0,8,0,0,0,76,79,136,110,62,133.07,221,-189.00,-12.00,-950.00
2024-06-07 10:56:38.749864,-10,0,8,0,0,0,76,79,136,110,62,133.01,221,-175.00,-4.00,-955.00
2024-06-07 10:56:38.879155,-10,1,8,0,0,0,76,79,135,110,62,132.91,222,-164.00,-8.00,-942.00
2024-06-07 10:56:38.955402,-11,1,8,0,0,0,76,79,135,110,62,132.99,222,-152.00,4.00,-935.00
2024-06-07 10:56:39.055916,-10,0,8,0,0,1,76,79,134,110,62,132.99,222,-138.00,1.00,-937.00
2024-06-07 10:56:39.157854,-9,0,8,1,0,2,75,78,132,110,62,132.73,222,-144.00,-13.00,-897.00
2024-06-07 10:56:39.288346,-8,0,8,1,0,3,75,78,128,110,62,132.94,222,-116.00,20.00,-960.00
2024-06-07 10:56:39.361893,-7,0,9,1,0,4,75,78,125,100,62,132.93,222,-131.00,19.00,-871.00
2024-06-07 10:56:39.494785,-7,0,8,0,0,5,75,78,120,100,62,132.82,222,-118.00,9.00,-932.00
2024-06-07 10:56:39.566002,-7,0,8,0,0,6,75,78,114,90,62,132.72,222,-133.00,24.00,-912.00
2024-06-07 10:56:39.698386,-7,-1,8,0,0,7,75,78,107,90,62,132.79,222,-136.00,24.00,-899.00
2024-06-07 10:56:39.769968,-7,-1,8,0,0,7,75,78,99,80,62,132.60,222,-130.00,21.00,-934.00
2024-06-07 10:56:39.902621,-7,-2,9,0,0,7,75,78,91,70,62,132.62,223,-126.00,8.00,-1023.00
2024-06-07 10:56:39.973920,-8,-1,9,0,0,7,75,78,84,60,62,132.57,223,-119.00,40.00,-1022.00
2024-06-07 10:56:40.107598,-7,-1,8,0,0,7,75,78,76,60,62,132.56,223,-121.00,7.00,-1042.00
2024-06-07 10:56:40.177857,-6,-1,8,0,0,6,75,78,69,50,62,132.54,223,-151.00,27.00,-1061.00
2024-06-07 10:56:40.312266,-6,-1,8,0,0,5,75,78,62,40,62,132.44,223,-142.00,35.00,-979.00
2024-06-07 10:56:40.381872,-6,-2,8,0,0,5,75,78,57,40,62,132.36,223,-145.00,40.00,-1034.00
2024-06-07 10:56:40.517461,-7,-2,8,0,0,5,75,78,51,30,62,132.28,223,-190.00,12.00,-977.00
2024-06-07 10:56:40.586715,-8,-1,8,0,0,4,75,78,46,30,62,132.20,223,-143.00,40.00,-1019.00
2024-06-07 10:56:40.637207,-8,-1,8,0,0,4,75,78,41,20,62,132.37,223,-110.00,45.00,-1022.00
2024-06-07 10:56:40.824204,-8,-1,8,0,0,4,75,78,37,20,62,132.28,223,-127.00,48.00,-1005.00
2024-06-07 10:56:40.843484,-8,-2,8,0,0,4,75,78,32,10,62,132.21,224,-119.00,37.00,-1064.00
2024-06-07 10:56:40.944060,-7,-2,8,0,0,4,75,78,28,10,62,132.07,224,-138.00,9.00,-1024.00
2024-06-07 10:56:41.047441,-7,-2,8,0,0,4,75,78,23,0,62,132.10,224,-125.00,32.00,-993.00
2024-06-07 10:56:41.198102,-7,-2,8,0,0,4,75,78,16,0,62,132.06,224,-136.00,43.00,-946.00
2024-06-07 10:56:41.249567,-7,-1,8,0,0,4,75,78,15,0,62,131.98,224,-140.00,62.00,-1004.00
2024-06-07 10:56:41.352656,-8,-2,8,0,0,4,75,78,10,0,62,131.54,224,-141.00,49.00,-972.00
2024-06-07 10:56:41.453018,-9,-2,8,0,0,4,75,78,10,0,62,130.59,224,-91.00,44.00,-983.00
2024-06-07 10:56:41.643440,-4,0,8,1,0,3,75,78,10,-10,62,129.09,224,-72.00,22.00,-1048.00
2024-06-07 10:56:41.656971,-1,-5,9,0,0,0,75,78,10,-10,62,130.48,224,-68.00,5.00,-1098.00
2024-06-07 10:56:41.848178,-4,0,10,0,0,0,75,78,10,-10,62,129.85,224,-61.00,66.00,-965.00
2024-06-07 10:56:41.861962,-2,0,10,0,0,0,75,78,10,-10,62,130.42,225,-66.00,13.00,-1049.00
2024-06-07 10:56:42.053061,0,0,10,0,0,0,75,78,10,-10,62,130.59,225,-9.00,10.00,-930.00
2024-06-07 10:56:42.071755,0,0,10,0,0,0,75,78,10,-10,62,130.88,225,34.00,35.00,-1054.00
2024-06-07 10:56:42.167951,0,0,10,0,0,0,75,78,10,-10,62,130.97,225,17.00,-19.00,-1262.00
2024-06-07 10:56:42.300136,0,0,10,0,0,0,75,78,10,-10,62,131.23,225,3.00,17.00,-1006.00
2024-06-07 10:56:42.370960,0,0,10,0,0,0,75,78,10,-10,62,131.32,225,12.00,11.00,-980.00
2024-06-07 10:56:42.477880,0,0,11,0,0,0,75,78,10,-10,62,131.30,225,9.00,6.00,-997.00
2024-06-07 10:56:42.575430,0,0,11,0,0,0,75,78,10,0,62,131.48,225,1.00,0.00,-1008.00
2024-06-07 10:56:42.677252,0,0,11,0,0,0,75,78,10,0,62,131.98,225,-1.00,12.00,-1004.00
2024-06-07 10:56:42.872767,0,0,11,0,0,0,75,78,10,0,62,132.21,225,6.00,29.00,-1000.00
2024-06-07 10:56:42.881805,0,0,11,0,0,0,75,78,10,0,62,132.30,225,11.00,-1.00,-1004.00
2024-06-07 10:56:43.078046,0,0,11,0,0,0,75,78,10,0,62,132.34,225,1.00,7.00,-997.00
2024-06-07 10:56:43.085387,0,0,11,0,0,0,75,78,10,0,62,132.40,225,4.00,6.00,-999.00
2024-06-07 10:56:43.282044,0,0,11,0,0,0,75,77,10,0,62,132.38,225,8.00,15.00,-1005.00
2024-06-07 10:56:43.289252,0,0,11,0,0,-1,75,77,10,0,62,132.40,225,4.00,12.00,-1010.00
2024-06-07 10:56:43.486578,0,0,11,0,0,0,75,77,10,0,62,132.43,225,0.00,6.00,-1004.00
2024-06-07 10:56:43.492856,0,0,11,0,0,0,75,77,10,0,62,132.40,225,-3.00,4.00,-1003.00
2024-06-07 10:56:43.691378,0,0,11,0,0,0,75,77,10,0,62,132.41,225,12.00,18.00,-1010.00
2024-06-07 10:56:43.697339,0,0,11,0,0,0,75,77,10,0,62,132.38,225,4.00,9.00,-1004.00
2024-06-07 10:56:43.896399,0,0,11,0,0,0,75,77,10,0,62,132.42,225,3.00,11.00,-1005.00
2024-06-07 10:56:43.900630,0,0,11,0,0,0,75,77,10,0,62,132.39,225,1.00,8.00,-1004.00
2024-06-07 10:56:44.003009,0,0,11,0,0,0,75,77,10,0,62,132.36,225,2.00,8.00,-1002.00
2024-06-07 10:56:44.204052,0,0,11,0,0,0,75,77,10,0,62,132.36,225,2.00,9.00,-1005.00
2024-06-07 10:56:44.207072,0,0,11,0,0,0,75,77,10,0,62,132.41,225,2.00,10.00,-1003.00
2024-06-07 10:56:44.308981,0,0,11,0,0,0,75,77,10,0,62,132.38,225,2.00,6.00,-1002.00
2024-06-07 10:56:44.413259,0,0,11,0,0,0,75,77,10,0,62,132.45,225,3.00,9.00,-1003.00
2024-06-07 10:56:44.512925,0,0,11,0,0,0,75,77,10,0,62,132.44,225,2.00,6.00,-1003.00
2024-06-07 10:56:44.715234,0,0,11,0,0,0,75,77,10,0,62,132.42,225,2.00,7.00,-1004.00
2024-06-07 10:56:44.715381,0,0,11,0,0,0,75,77,10,0,62,132.44,225,2.00,8.00,-1005.00
2024-06-07 10:56:44.767635,0,0,11,0,0,0,75,77,10,0,62,132.48,225,0.00,6.00,-1005.00
2024-06-07 10:56:44.921322,0,0,11,0,0,0,75,77,10,0,62,132.47,225,3.00,6.00,-1005.00
2024-06-07 10:56:44.971763,0,0,11,0,0,0,75,77,10,0,62,132.44,225,3.00,8.00,-1004.00
2024-06-07 10:56:45.125862,0,0,10,0,0,0,75,77,10,0,62,132.44,225,1.00,8.00,-1003.00
2024-06-07 10:56:45.175638,0,0,10,0,0,0,75,78,10,0,62,132.42,225,3.00,7.00,-1002.00
2024-06-07 10:56:45.334457,0,0,10,0,0,0,75,78,10,0,62,132.36,225,1.00,6.00,-1004.00
2024-06-07 10:56:45.379648,0,0,10,0,0,0,75,78,10,0,62,132.45,225,2.00,8.00,-1005.00
2024-06-07 10:56:45.534681,0,0,10,0,0,0,75,78,10,0,62,132.43,225,1.00,9.00,-1005.00
2024-06-07 10:56:45.583648,0,0,10,0,0,0,75,78,10,0,62,132.43,225,3.00,8.00,-1004.00
2024-06-07 10:56:45.739547,0,0,10,0,0,0,75,78,10,0,62,132.41,225,3.00,8.00,-1004.00
2024-06-07 10:56:45.787791,0,0,10,0,0,0,75,78,10,0,62,132.45,225,3.00,8.00,-1005.00
2024-06-07 10:56:45.946345,0,0,10,0,0,0,75,78,10,0,62,132.44,225,3.00,9.00,-1003.00
2024-06-07 10:56:45.991655,0,0,10,0,0,0,75,78,10,0,62,132.38,225,1.00,8.00,-1004.00
2024-06-07 10:56:46.149071,0,0,10,0,0,0,75,78,10,0,62,132.37,225,2.00,8.00,-1003.00
2024-06-07 10:56:46.195459,0,0,10,0,0,0,75,77,10,0,62,132.43,225,0.00,8.00,-1002.00
2024-06-07 10:56:46.353793,0,0,10,0,0,0,75,77,10,0,62,132.33,225,2.00,8.00,-1001.00
2024-06-07 10:56:46.399668,0,0,10,0,0,0,75,77,10,0,62,132.42,225,2.00,8.00,-1001.00
2024-06-07 10:56:46.558591,0,0,10,0,0,0,75,77,10,0,62,132.39,225,1.00,9.00,-1003.00
2024-06-07 10:56:46.604063,0,0,10,0,0,0,75,77,10,0,62,132.37,225,2.00,8.00,-1006.00
