TS,pitch,roll,yaw,vgx,vgy,vgz,templ,temph,tof,h,bat,baro,time,agx,agy,agz
2024-05-17 15:44:49.413738,0,0,1,0,0,0,71,72,10,0,77,189.38,86,-1.00,4.00,-1001.00
2024-05-17 15:44:49.493907,0,0,1,0,0,0,71,72,10,0,77,189.44,86,-1.00,5.00,-999.00
2024-05-17 15:44:49.622468,0,0,1,0,0,0,71,72,10,0,77,189.40,86,0.00,4.00,-1001.00
2024-05-17 15:44:49.698030,0,0,1,0,0,0,70,72,10,0,77,189.39,86,-1.00,4.00,-1002.00
2024-05-17 15:44:49.823201,0,0,1,0,0,0,70,72,10,0,77,189.39,86,-1.00,5.00,-999.00
2024-05-17 15:44:49.902062,0,0,1,0,0,0,70,72,10,0,77,189.39,86,-1.00,5.00,-1000.00
2024-05-17 15:44:50.027961,0,0,1,0,0,0,70,72,10,0,77,189.40,86,0.00,6.00,-1000.00
2024-05-17 15:44:50.105618,0,0,1,0,0,0,70,72,10,0,77,189.33,86,-1.00,5.00,-999.00
2024-05-17 15:44:50.209452,0,0,1,0,0,0,70,72,10,0,77,189.32,86,-1.00,2.00,-1000.00
2024-05-17 15:44:50.309932,0,0,1,0,0,0,70,72,10,0,77,189.37,86,-1.00,5.00,-1001.00
2024-05-17 15:44:50.411795,0,0,1,0,0,0,70,72,10,0,77,189.37,86,0.00,4.00,-1001.00
2024-05-17 15:44:50.540052,0,0,1,0,0,0,70,72,10,0,77,189.42,86,0.00,5.00,-1000.00
2024-05-17 15:44:50.615631,0,0,1,0,0,0,70,72,10,0,77,189.41,86,-1.00,1.00,-998.00
2024-05-17 15:44:50.744645,0,0,1,0,0,0,71,72,10,0,77,189.41,86,-1.00,5.00,-999.00
2024-05-17 15:44:50.819768,0,0,1,0,0,0,71,72,10,0,77,189.40,86,0.00,3.00,-997.00
2024-05-17 15:44:50.949582,0,0,1,0,0,0,71,72,10,0,77,189.36,86,-1.00,3.00,-1001.00
2024-05-17 15:44:51.024353,0,0,1,0,0,0,71,72,10,0,77,189.35,86,-1.00,3.00,-1001.00
2024-05-17 15:44:51.154309,0,0,1,0,0,0,71,72,10,0,77,189.39,86,-1.00,4.00,-998.00
2024-05-17 15:44:51.227621,0,0,1,0,0,0,71,72,10,0,77,189.42,86,-3.00,4.00,-999.00
2024-05-17 15:44:51.360207,0,0,1,0,0,0,71,72,10,0,77,189.40,86,-1.00,3.00,-996.00
2024-05-17 15:44:51.431709,0,0,1,0,0,0,71,72,10,0,77,189.34,86,0.00,5.00,-1000.00
2024-05-17 15:44:51.563888,0,0,1,0,0,0,71,72,10,0,77,189.35,86,-2.00,4.00,-999.00
2024-05-17 15:44:51.637195,0,0,1,0,0,0,71,72,10,0,77,189.36,86,0.00,5.00,-999.00
2024-05-17 15:44:51.737721,0,0,1,0,0,0,70,73,10,0,77,189.34,86,-2.00,6.00,-999.00
2024-05-17 15:44:51.871136,0,0,1,0,0,0,70,73,10,0,77,189.38,86,-2.00,5.00,-1000.00
2024-05-17 15:44:51.941764,0,0,1,0,0,0,70,73,10,0,77,189.40,86,-2.00,2.00,-999.00
2024-05-17 15:44:52.075872,0,0,1,0,0,0,70,73,10,0,77,189.42,86,-1.00,4.00,-998.00
2024-05-17 15:44:52.145635,0,0,1,0,0,0,70,73,10,0,77,189.38,86,-2.00,5.00,-999.00
2024-05-17 15:44:52.196774,0,0,1,0,0,0,70,73,10,0,77,189.35,86,0.00,4.00,-998.00
2024-05-17 15:44:52.383149,0,0,1,0,0,0,70,73,10,0,77,189.37,86,0.00,4.00,-1002.00
2024-05-17 15:44:52.400923,0,0,1,0,0,0,70,73,10,0,77,189.44,86,-1.00,4.00,-1000.00
2024-05-17 15:44:52.587975,0,0,1,0,0,0,70,73,10,0,77,189.40,86,-1.00,4.00,-1002.00
2024-05-17 15:44:52.604551,0,0,1,0,0,0,70,73,10,0,77,189.40,86,0.00,4.00,-1000.00
2024-05-17 15:44:52.706500,0,0,1,0,0,0,71,73,10,0,77,189.39,86,0.00,3.00,-997.00
2024-05-17 15:44:52.896147,0,0,1,0,0,0,71,73,10,0,77,189.39,86,-5.00,10.00,-1005.00
2024-05-17 15:44:52.910435,0,0,1,0,0,0,71,73,10,0,77,189.39,86,-6.00,-7.00,-997.00
2024-05-17 15:44:53.099809,0,0,2,0,0,0,71,73,10,0,77,189.39,86,-55.00,-17.00,-1014.00
2024-05-17 15:44:53.114578,0,0,2,0,0,0,71,73,10,0,77,189.39,86,-23.00,-12.00,-896.00
2024-05-17 15:44:53.217376,0,0,2,0,0,0,71,73,10,0,77,189.39,87,-18.00,-13.00,-1067.00
2024-05-17 15:44:53.406964,0,0,2,0,0,0,71,73,10,0,77,189.39,87,-10.00,-35.00,-1281.00
2024-05-17 15:44:53.420568,0,0,1,0,0,-2,71,73,10,0,77,189.39,87,-12.00,-30.00,-1283.00
2024-05-17 15:44:53.612243,0,1,1,0,0,-5,71,73,13,0,77,189.46,87,0.00,0.00,-1181.00
2024-05-17 15:44:53.624518,0,1,2,0,0,-7,71,73,22,10,77,189.77,87,-13.00,-10.00,-1076.00
2024-05-17 15:44:53.816608,-1,1,2,0,0,-8,71,73,31,20,77,189.86,87,-34.00,-18.00,-953.00
2024-05-17 15:44:53.829414,-1,1,2,0,0,-8,71,73,39,20,77,189.92,87,-20.00,-11.00,-923.00
2024-05-17 15:44:54.021364,-1,1,2,0,0,-8,71,73,48,30,77,189.99,87,0.00,-20.00,-926.00
2024-05-17 15:44:54.032564,-1,0,2,0,0,-7,71,73,55,40,77,190.12,87,-36.00,28.00,-905.00
2024-05-17 15:44:54.226339,-1,0,2,0,0,-6,71,73,63,50,77,190.16,87,-44.00,25.00,-855.00
2024-05-17 15:44:54.236363,-1,0,2,0,0,-4,71,73,64,50,77,190.21,88,-17.00,-14.00,-877.00
2024-05-17 15:44:54.430954,-1,-1,2,0,0,-3,71,73,69,60,77,190.24,88,-30.00,35.00,-841.00
2024-05-17 15:44:54.440429,-1,0,2,0,0,-2,71,73,71,60,77,190.34,88,-22.00,26.00,-934.00
2024-05-17 15:44:54.635788,-1,0,2,0,0,-1,71,73,73,60,77,190.25,88,-11.00,9.00,-928.00
2024-05-17 15:44:54.644427,-1,0,2,0,0,0,71,73,75,60,77,190.28,88,-17.00,-3.00,-1015.00
2024-05-17 15:44:54.841087,-1,0,2,0,0,0,70,73,75,60,77,190.35,88,-13.00,-35.00,-1014.00
2024-05-17 15:44:54.848527,-1,0,2,0,0,0,70,73,76,60,77,190.30,88,-29.00,-16.00,-970.00
2024-05-17 15:44:55.045349,-1,0,2,0,0,0,70,73,76,60,77,190.34,88,-15.00,33.00,-971.00
2024-05-17 15:44:55.053048,0,0,2,0,0,0,70,73,76,60,77,190.34,88,-36.00,33.00,-985.00
2024-05-17 15:44:55.154476,0,0,2,0,0,0,70,73,76,70,76,190.33,89,-22.00,14.00,-1026.00
2024-05-17 15:44:55.352570,0,0,2,0,0,0,70,73,78,70,76,190.35,89,-22.00,-9.00,-1020.00
2024-05-17 15:44:55.360379,0,0,2,0,0,0,70,73,79,70,76,190.38,89,-7.00,-26.00,-1026.00
2024-05-17 15:44:55.460372,0,0,2,0,0,0,70,73,79,70,76,190.38,89,1.00,-26.00,-1025.00
2024-05-17 15:44:55.660304,0,0,2,0,0,0,70,73,80,70,76,190.36,89,-3.00,-5.00,-988.00
2024-05-17 15:44:55.664401,0,0,2,0,0,0,70,73,81,70,76,190.36,89,-13.00,-4.00,-956.00
2024-05-17 15:44:55.865002,0,0,2,0,0,0,70,73,82,70,76,190.42,89,-24.00,-34.00,-966.00
2024-05-17 15:44:55.868354,0,0,2,0,0,0,70,73,83,70,76,190.37,89,-21.00,14.00,-1002.00
2024-05-17 15:44:55.920453,0,0,2,0,0,0,70,73,84,70,76,190.39,89,2.00,-1.00,-1082.00
2024-05-17 15:44:56.069365,0,0,2,0,0,0,70,73,85,70,76,190.41,89,-2.00,6.00,-1012.00
2024-05-17 15:44:56.123354,0,0,2,0,0,0,70,73,85,70,76,190.40,90,-12.00,0.00,-1034.00
2024-05-17 15:44:56.225396,0,0,2,0,0,0,70,73,85,70,76,190.42,90,13.00,9.00,-1021.00
2024-05-17 15:44:56.376541,0,0,2,0,0,0,70,73,86,70,76,190.41,90,7.00,5.00,-1066.00
2024-05-17 15:44:56.429362,0,0,2,0,0,0,70,73,86,70,76,190.45,90,-11.00,28.00,-976.00
2024-05-17 15:44:56.581351,0,0,2,0,0,0,70,73,86,70,76,190.41,90,-4.00,-14.00,-1000.00
2024-05-17 15:44:56.633343,0,0,2,0,0,0,70,73,86,70,76,190.42,90,-7.00,-17.00,-1019.00
2024-05-17 15:44:56.786493,0,0,2,0,0,0,71,73,86,70,76,190.46,90,-9.00,21.00,-999.00
2024-05-17 15:44:56.837579,0,0,2,0,0,0,71,73,86,70,76,190.40,90,0.00,9.00,-1036.00
2024-05-17 15:44:56.991066,0,0,2,0,0,0,71,73,86,70,76,190.44,90,-23.00,13.00,-991.00
2024-05-17 15:44:57.041519,0,0,2,0,0,0,71,73,86,70,76,190.47,90,-12.00,-2.00,-972.00
2024-05-17 15:44:57.195878,0,0,2,0,0,0,71,73,85,70,76,190.50,91,-12.00,-13.00,-985.00
2024-05-17 15:44:57.245402,0,0,2,0,0,0,71,73,85,70,76,190.51,91,0.00,-1.00,-1043.00
2024-05-17 15:44:57.400698,0,0,2,0,0,0,71,73,86,70,76,190.41,91,-25.00,11.00,-958.00
2024-05-17 15:44:57.449405,0,0,2,0,0,0,71,73,86,70,76,190.44,91,-2.00,-9.00,-1036.00
2024-05-17 15:44:57.605461,0,0,2,0,0,0,71,73,86,70,76,190.39,91,-9.00,4.00,-959.00
2024-05-17 15:44:57.653322,0,0,2,0,0,0,71,73,85,70,76,190.45,91,-2.00,12.00,-999.00
2024-05-17 15:44:57.811250,0,0,2,0,0,0,70,73,85,70,76,190.49,91,-10.00,-20.00,-1016.00
2024-05-17 15:44:57.858238,0,0,2,0,0,0,70,73,85,70,76,190.46,91,-14.00,7.00,-973.00
2024-05-17 15:44:58.015252,0,0,2,0,0,0,70,73,85,70,76,190.40,91,15.00,5.00,-1080.00
2024-05-17 15:44:58.061516,0,0,2,0,0,0,70,73,85,70,76,190.45,91,4.00,10.00,-1042.00
2024-05-17 15:44:58.219855,0,0,2,0,0,0,70,73,85,70,76,190.40,92,-18.00,28.00,-960.00
2024-05-17 15:44:58.265842,0,0,2,0,0,0,70,73,85,70,76,190.44,92,-3.00,-6.00,-995.00
2024-05-17 15:44:58.424726,0,0,2,0,0,0,70,73,84,70,76,190.44,92,-8.00,-2.00,-990.00
2024-05-17 15:44:58.469415,0,0,2,0,0,0,70,73,83,70,76,190.45,92,-14.00,39.00,-990.00
2024-05-17 15:44:58.629476,0,0,2,0,0,0,70,73,83,70,76,190.37,92,-24.00,3.00,-919.00
2024-05-17 15:44:58.673405,0,0,2,0,0,0,70,73,83,70,76,190.35,92,-3.00,-16.00,-1048.00
2024-05-17 15:44:58.834221,0,0,2,0,0,0,71,73,82,70,76,190.37,92,-14.00,13.00,-991.00
2024-05-17 15:44:58.877233,0,0,2,0,0,0,71,73,82,70,76,190.37,92,11.00,11.00,-1067.00
2024-05-17 15:44:59.038928,0,0,2,0,0,0,71,73,82,70,76,190.47,92,-34.00,6.00,-963.00
2024-05-17 15:44:59.081291,0,0,2,0,0,0,71,73,83,70,76,190.38,92,-11.00,5.00,-1105.00
2024-05-17 15:44:59.243686,0,0,2,0,0,-1,71,73,84,70,76,190.38,93,-4.00,6.00,-1125.00
2024-05-17 15:44:59.286198,0,0,2,0,0,-2,71,73,86,70,76,190.44,93,-15.00,-2.00,-1081.00
2024-05-17 15:44:59.448563,0,0,2,0,0,-3,71,73,89,80,76,190.51,93,-7.00,9.00,-1035.00
2024-05-17 15:44:59.490140,0,0,2,0,0,-4,71,73,93,80,76,190.53,93,-14.00,-7.00,-1062.00
2024-05-17 15:44:59.653361,0,0,2,0,0,-4,71,73,98,80,76,190.58,93,-11.00,0.00,-1043.00
2024-05-17 15:44:59.653716,0,0,2,0,0,-5,71,73,103,90,76,190.57,93,-3.00,18.00,-1057.00
2024-05-17 15:44:59.858147,0,0,2,0,0,-5,70,72,109,90,76,190.67,93,4.00,-4.00,-1048.00
2024-05-17 15:44:59.858315,0,0,2,0,0,-5,70,72,115,100,76,190.72,93,-16.00,-2.00,-1035.00
2024-05-17 15:44:59.950124,0,0,2,0,0,-5,70,72,121,110,76,190.76,93,-10.00,-13.00,-1023.00
2024-05-17 15:45:00.053011,0,0,2,0,0,-5,70,72,127,110,76,190.83,93,-2.00,-26.00,-968.00
2024-05-17 15:45:00.153627,0,0,2,0,0,-5,70,72,133,120,76,190.88,94,-1.00,8.00,-1027.00
2024-05-17 15:45:00.257140,0,0,2,0,0,-5,70,72,137,120,76,190.94,94,-16.00,37.00,-945.00
2024-05-17 15:45:00.357169,0,0,2,0,0,-4,70,72,142,130,76,190.93,94,0.00,28.00,-1024.00
2024-05-17 15:45:00.459010,0,0,2,0,0,-4,70,72,147,130,76,191.00,94,-19.00,8.00,-1001.00
2024-05-17 15:45:00.575185,0,0,2,0,0,-4,70,72,151,140,76,191.06,94,-6.00,20.00,-942.00
2024-05-17 15:45:00.663083,0,0,2,0,0,-3,70,72,155,140,76,191.04,94,9.00,-31.00,-987.00
2024-05-17 15:45:00.780507,0,0,2,0,0,-3,70,73,159,140,76,191.09,94,-7.00,37.00,-959.00
2024-05-17 15:45:00.867165,0,0,2,0,0,-3,70,73,162,150,76,191.08,94,0.00,-28.00,-974.00
2024-05-17 15:45:00.984562,0,0,2,0,0,-2,70,73,165,150,76,191.18,94,2.00,13.00,-1018.00
2024-05-17 15:45:01.071063,0,0,2,0,0,-2,70,73,168,150,76,191.15,94,0.00,-1.00,-894.00
2024-05-17 15:45:01.189513,0,0,2,0,0,-2,70,73,171,160,76,191.17,95,-2.00,-4.00,-1002.00
2024-05-17 15:45:01.275066,0,0,2,0,0,-2,70,73,173,160,76,191.28,95,1.00,21.00,-1019.00
2024-05-17 15:45:01.394599,0,0,2,0,0,-1,70,73,175,160,76,191.18,95,3.00,29.00,-1003.00
2024-05-17 15:45:01.478916,0,0,2,0,0,-1,70,73,178,160,76,191.31,95,-3.00,-14.00,-1016.00
2024-05-17 15:45:01.599683,0,0,2,0,0,-1,70,73,180,160,76,191.29,95,-15.00,10.00,-915.00
2024-05-17 15:45:01.688691,0,0,2,0,0,-1,70,73,181,170,76,191.33,95,17.00,-13.00,-1013.00
2024-05-17 15:45:01.785475,0,0,2,0,0,-1,70,73,183,170,76,191.33,95,12.00,0.00,-960.00
2024-05-17 15:45:01.906546,0,0,2,0,0,0,70,73,184,170,76,191.39,95,-6.00,48.00,-957.00
2024-05-17 15:45:01.989136,0,0,2,0,0,0,70,73,184,170,76,191.39,95,1.00,-25.00,-989.00
2024-05-17 15:45:02.115487,0,0,2,0,0,0,70,73,184,170,76,191.40,95,-27.00,26.00,-927.00
2024-05-17 15:45:02.193308,0,-1,2,0,0,0,70,73,185,170,76,191.44,96,-11.00,22.00,-945.00
2024-05-17 15:45:02.316053,0,-1,2,0,0,0,70,73,185,170,76,191.39,96,7.00,-19.00,-979.00
2024-05-17 15:45:02.399626,0,0,2,0,0,0,70,73,185,170,76,191.34,96,-2.00,-6.00,-1002.00
2024-05-17 15:45:02.499499,0,0,2,0,0,0,70,73,186,170,76,191.33,96,-11.00,39.00,-1032.00
2024-05-17 15:45:02.623072,0,0,2,0,0,0,70,73,186,170,76,191.40,96,-7.00,-9.00,-959.00
2024-05-17 15:45:02.703495,0,0,2,0,0,0,70,73,187,170,76,191.36,96,-10.00,-2.00,-1015.00
2024-05-17 15:45:02.828098,0,0,2,0,0,0,70,73,187,170,76,191.35,96,4.00,29.00,-951.00
2024-05-17 15:45:02.907384,0,0,2,0,0,0,70,73,186,170,76,191.42,96,0.00,4.00,-1046.00
2024-05-17 15:45:03.032617,0,0,2,0,0,0,70,73,188,170,76,191.45,96,1.00,49.00,-983.00
2024-05-17 15:45:03.111309,0,0,2,0,0,0,70,73,187,170,76,191.38,96,-8.00,-28.00,-1016.00
2024-05-17 15:45:03.237710,0,0,2,0,0,0,70,73,187,170,76,191.42,97,0.00,26.00,-970.00
2024-05-17 15:45:03.316645,0,0,2,0,0,0,70,73,187,170,76,191.41,97,8.00,-23.00,-998.00
2024-05-17 15:45:03.366544,0,0,2,0,0,0,70,73,187,170,76,191.42,97,-5.00,12.00,-929.00
2024-05-17 15:45:03.545062,0,0,2,0,0,0,70,73,187,170,76,191.37,97,-7.00,-9.00,-1021.00
2024-05-17 15:45:03.570366,0,0,2,0,0,0,70,73,187,170,76,191.37,97,1.00,3.00,-967.00
2024-05-17 15:45:03.672306,0,0,2,0,0,0,70,73,187,170,76,191.41,97,3.00,-3.00,-983.00
2024-05-17 15:45:03.853652,0,0,2,0,0,0,71,71,187,170,76,191.35,97,0.00,5.00,-936.00
2024-05-17 15:45:03.927607,0,0,2,0,0,0,71,71,186,170,76,191.36,97,18.00,-15.00,-958.00
2024-05-17 15:45:03.978940,0,0,2,0,0,1,71,71,185,170,76,191.31,97,1.00,-24.00,-983.00
2024-05-17 15:45:04.159043,0,0,2,0,0,1,71,71,184,170,76,191.35,97,-10.00,19.00,-981.00
2024-05-17 15:45:04.183432,0,0,2,0,0,2,71,71,182,170,76,191.30,98,2.00,23.00,-966.00
2024-05-17 15:45:04.284075,0,0,2,0,0,2,71,71,180,170,76,191.30,98,-1.00,-27.00,-993.00
2024-05-17 15:45:04.467584,0,0,2,0,0,2,71,71,178,160,76,191.25,98,4.00,31.00,-963.00
2024-05-17 15:45:04.490541,0,0,2,0,0,2,71,71,176,160,76,191.24,98,1.00,-3.00,-986.00
2024-05-17 15:45:04.591103,0,0,2,0,0,2,71,71,173,160,76,191.20,98,-5.00,15.00,-995.00
2024-05-17 15:45:04.692244,0,0,2,0,0,2,71,71,170,160,76,191.17,98,0.00,-3.00,-972.00
2024-05-17 15:45:04.876068,0,0,2,0,0,2,70,72,167,150,76,191.23,98,11.00,-14.00,-1007.00
2024-05-17 15:45:04.895718,0,0,2,0,0,2,70,72,164,150,76,191.14,98,-12.00,37.00,-971.00
2024-05-17 15:45:05.080690,0,0,2,0,0,2,70,72,161,150,76,191.09,98,3.00,-29.00,-1024.00
2024-05-17 15:45:05.101925,0,0,2,0,0,2,70,72,159,150,76,191.09,98,-6.00,3.00,-942.00
2024-05-17 15:45:05.202719,0,0,2,0,0,2,70,72,156,140,76,191.03,99,-7.00,19.00,-1005.00
2024-05-17 15:45:05.387828,0,0,2,0,0,2,70,72,154,140,76,191.02,99,0.00,-3.00,-1000.00
2024-05-17 15:45:05.406802,0,0,2,0,0,2,70,72,152,140,76,191.04,99,14.00,-25.00,-1020.00
2024-05-17 15:45:05.592531,0,0,2,0,0,2,70,72,149,140,76,191.00,99,6.00,21.00,-1019.00
2024-05-17 15:45:05.610783,0,0,2,0,0,1,70,72,148,140,76,190.99,99,13.00,-21.00,-1010.00
2024-05-17 15:45:05.797326,0,0,2,0,0,1,70,72,146,130,76,190.97,99,-7.00,30.00,-1017.00
2024-05-17 15:45:05.814833,0,0,2,0,0,1,70,72,143,130,76,191.03,99,-10.00,32.00,-1017.00
2024-05-17 15:45:06.002119,0,0,2,0,0,1,70,72,141,130,76,190.96,99,2.00,12.00,-1036.00
2024-05-17 15:45:06.023418,0,0,2,0,0,1,70,72,140,130,76,190.93,99,-6.00,-9.00,-1041.00
2024-05-17 15:45:06.121089,0,0,2,0,0,1,70,72,139,130,76,190.92,99,6.00,-7.00,-1080.00
2024-05-17 15:45:06.223172,0,0,2,0,0,1,70,72,138,130,76,190.90,100,0.00,-2.00,-1060.00
2024-05-17 15:45:06.411816,0,0,2,0,0,0,70,72,137,130,76,190.92,100,-14.00,28.00,-1078.00
2024-05-17 15:45:06.426909,0,0,2,0,0,0,70,72,136,130,76,190.97,100,-17.00,44.00,-954.00
2024-05-17 15:45:06.533417,0,0,2,0,0,0,70,72,136,130,76,190.92,100,-1.00,-10.00,-1022.00
2024-05-17 15:45:06.630947,0,0,2,0,0,0,70,72,135,120,76,190.91,100,2.00,3.00,-1015.00
2024-05-17 15:45:06.821673,0,0,2,0,0,0,70,72,135,120,76,190.92,100,7.00,28.00,-1065.00
2024-05-17 15:45:06.834990,0,0,2,0,0,0,70,72,135,120,76,190.92,100,1.00,35.00,-1014.00
2024-05-17 15:45:07.026272,0,0,2,0,0,0,70,72,135,120,76,190.96,100,-3.00,-6.00,-1052.00
2024-05-17 15:45:07.038776,0,0,2,0,0,0,70,72,136,120,76,190.84,100,9.00,12.00,-1056.00
2024-05-17 15:45:07.231084,0,0,2,0,0,0,70,72,136,120,76,190.94,100,-2.00,13.00,-1027.00
2024-05-17 15:45:07.242860,0,0,2,0,0,0,70,72,136,120,76,190.88,101,5.00,0.00,-1056.00
2024-05-17 15:45:07.435928,0,0,2,0,0,0,70,72,136,120,76,190.87,101,0.00,1.00,-1037.00
2024-05-17 15:45:07.447071,0,0,2,0,0,0,70,72,136,120,76,190.90,101,9.00,2.00,-1052.00
2024-05-17 15:45:07.497799,0,0,2,0,0,0,70,72,136,120,76,190.87,101,4.00,-5.00,-1038.00
2024-05-17 15:45:07.643793,0,0,2,0,0,0,70,72,137,120,76,190.90,101,3.00,-21.00,-1077.00
2024-05-17 15:45:07.702008,0,0,2,0,0,0,70,72,138,130,76,190.93,101,-7.00,3.00,-943.00
2024-05-17 15:45:07.846115,0,0,2,0,0,0,70,73,138,130,76,190.93,101,-10.00,7.00,-923.00
2024-05-17 15:45:07.905931,0,0,2,0,0,0,70,73,138,130,76,190.93,101,-7.00,5.00,-954.00
2024-05-17 15:45:08.050312,0,0,2,0,0,0,70,73,139,130,76,190.94,101,-5.00,12.00,-987.00
2024-05-17 15:45:08.110001,0,0,2,0,0,0,70,73,139,130,76,190.93,101,-12.00,43.00,-965.00
2024-05-17 15:45:08.211759,0,0,2,0,0,0,70,73,139,130,76,190.91,102,0.00,6.00,-1054.00
2024-05-17 15:45:08.357178,0,0,2,0,0,0,70,73,140,130,76,190.97,102,-9.00,1.00,-1042.00
2024-05-17 15:45:08.415674,-4,0,2,0,0,0,70,73,142,130,76,190.93,102,8.00,23.00,-1053.00
2024-05-17 15:45:08.562063,-8,0,2,1,0,0,70,73,143,130,76,190.91,102,-7.00,0.00,-1028.00
2024-05-17 15:45:08.619679,-8,0,2,2,0,0,70,73,143,130,76,190.95,102,-10.00,26.00,-965.00
2024-05-17 15:45:08.766857,-8,0,2,3,0,0,70,73,142,130,76,190.94,102,-34.00,15.00,-970.00
2024-05-17 15:45:08.823701,-8,0,2,5,0,0,70,72,142,130,76,190.96,102,-42.00,2.00,-1013.00
2024-05-17 15:45:08.971738,-7,-1,2,5,0,0,70,72,143,130,76,190.95,102,-49.00,11.00,-994.00
2024-05-17 15:45:09.028348,-6,-1,2,6,0,0,70,72,138,130,76,190.91,102,-54.00,19.00,-987.00
2024-05-17 15:45:09.131116,-6,-1,2,7,0,0,70,72,139,130,76,190.83,102,-69.00,31.00,-933.00
2024-05-17 15:45:09.232332,-5,-1,2,7,0,0,70,72,140,130,76,190.86,103,-55.00,-1.00,-1043.00
2024-05-17 15:45:09.333832,-2,0,2,7,0,0,70,72,139,130,76,190.90,103,-50.00,-13.00,-1063.00
2024-05-17 15:45:09.484455,0,-1,2,7,0,0,70,72,141,130,76,190.86,103,-52.00,-8.00,-1023.00
2024-05-17 15:45:09.537732,3,0,2,6,0,0,70,72,141,130,76,190.94,103,-51.00,11.00,-1000.00
2024-05-17 15:45:09.688426,4,0,2,5,0,0,70,72,140,130,76,190.93,103,-41.00,0.00,-1012.00
2024-05-17 15:45:09.741572,3,0,2,4,0,0,70,72,140,130,76,190.90,103,-38.00,1.00,-947.00
2024-05-17 15:45:09.893264,0,0,2,3,0,0,70,71,139,130,76,190.93,103,-42.00,27.00,-945.00
2024-05-17 15:45:09.946690,0,1,2,3,0,0,70,71,139,130,76,190.92,103,-18.00,-2.00,-974.00
2024-05-17 15:45:10.098033,0,2,2,2,0,0,70,71,140,130,76,190.92,103,-25.00,-8.00,-962.00
2024-05-17 15:45:10.149559,0,1,2,2,0,0,70,71,139,130,76,190.87,104,-16.00,-4.00,-975.00
2024-05-17 15:45:10.251561,0,-1,2,2,0,0,70,71,138,130,76,190.86,104,-25.00,7.00,-1007.00
2024-05-17 15:45:10.405310,0,-2,2,2,0,0,70,71,139,130,76,190.93,104,-12.00,-29.00,-1038.00
2024-05-17 15:45:10.455782,0,0,2,2,0,0,70,71,138,130,76,190.83,104,-27.00,38.00,-995.00
2024-05-17 15:45:10.610365,4,0,1,1,0,0,70,71,139,130,76,190.90,104,-33.00,46.00,-983.00
2024-05-17 15:45:10.659599,2,-1,2,0,0,0,70,71,140,130,76,190.88,104,-20.00,3.00,-1029.00
2024-05-17 15:45:10.762414,0,0,2,0,0,0,70,71,139,130,76,190.90,104,-7.00,8.00,-1002.00
2024-05-17 15:45:10.917616,0,0,2,0,0,0,70,72,138,130,76,190.87,104,-4.00,18.00,-1012.00
2024-05-17 15:45:10.965696,0,0,2,0,0,0,70,72,138,130,76,190.85,104,-3.00,22.00,-948.00
2024-05-17 15:45:11.122628,0,0,2,0,0,0,70,72,137,130,76,190.90,104,-2.00,1.00,-975.00
2024-05-17 15:45:11.122772,0,0,2,0,0,0,70,72,137,130,76,190.92,105,0.00,-23.00,-977.00
2024-05-17 15:45:11.224678,0,0,2,0,0,0,70,72,136,120,76,190.86,105,-18.00,19.00,-959.00
2024-05-17 15:45:11.322726,0,0,2,0,0,0,70,72,137,120,76,190.83,105,-15.00,39.00,-970.00
2024-05-17 15:45:11.429903,0,0,2,0,0,0,70,72,136,120,76,190.85,105,1.00,41.00,-1065.00
2024-05-17 15:45:11.526623,0,0,2,0,0,0,70,72,137,120,76,190.90,105,-15.00,38.00,-1026.00
2024-05-17 15:45:11.634063,0,0,2,0,0,0,70,72,138,130,76,190.96,105,-2.00,23.00,-1038.00
2024-05-17 15:45:11.730613,0,0,2,0,0,0,70,72,139,130,76,190.90,105,-6.00,41.00,-1021.00
2024-05-17 15:45:11.839357,0,0,2,0,0,0,70,72,139,130,76,190.94,105,-26.00,21.00,-998.00
2024-05-17 15:45:11.934686,0,0,2,0,0,0,70,72,140,130,76,190.97,105,0.00,1.00,-1010.00
2024-05-17 15:45:12.043782,-1,0,2,0,0,0,70,72,141,130,76,191.01,105,-4.00,-14.00,-974.00
2024-05-17 15:45:12.138524,0,0,2,0,0,0,70,72,141,130,76,190.92,106,-19.00,40.00,-1009.00
2024-05-17 15:45:12.248698,0,-1,2,0,0,0,70,72,141,130,76,190.92,106,-19.00,-21.00,-991.00
2024-05-17 15:45:12.342649,0,0,2,0,0,0,70,72,141,130,76,190.88,106,4.00,-1.00,-1042.00
2024-05-17 15:45:12.444501,0,-1,2,0,0,0,70,72,141,130,76,190.90,106,-6.00,-11.00,-954.00
2024-05-17 15:45:12.555781,0,0,2,0,0,0,70,72,141,130,76,190.95,106,-10.00,10.00,-962.00
2024-05-17 15:45:12.648569,0,0,2,0,0,0,70,72,141,130,76,190.88,106,-10.00,38.00,-1022.00
2024-05-17 15:45:12.750446,0,0,2,0,0,0,70,72,141,130,76,190.87,106,-2.00,0.00,-1066.00
2024-05-17 15:45:12.852888,0,0,2,0,0,0,69,72,141,130,76,190.97,106,-5.00,11.00,-986.00
2024-05-17 15:45:12.955745,6,0,2,0,0,0,69,72,143,130,76,190.92,106,-1.00,0.00,-1037.00
2024-05-17 15:45:13.057915,8,0,2,-1,0,0,69,72,144,130,76,190.97,106,5.00,-24.00,-1028.00
2024-05-17 15:45:13.159721,8,0,2,-3,0,0,69,72,144,130,76,190.94,107,11.00,3.00,-1068.00
2024-05-17 15:45:13.262492,7,0,2,-4,0,0,69,72,143,130,76,190.93,107,18.00,6.00,-1026.00
2024-05-17 15:45:13.364978,6,0,2,-5,0,0,69,72,143,130,76,191.00,107,31.00,39.00,-1039.00
2024-05-17 15:45:13.464469,6,0,2,-6,0,0,69,72,141,130,76,190.92,107,46.00,-10.00,-1019.00
2024-05-17 15:45:13.579639,5,0,2,-7,0,0,69,72,143,130,76,190.96,107,37.00,25.00,-996.00
2024-05-17 15:45:13.668499,4,0,2,-7,0,0,69,72,143,130,76,190.97,107,43.00,27.00,-966.00
2024-05-17 15:45:13.784899,2,0,2,-7,0,0,69,72,142,130,76,190.94,107,46.00,14.00,-933.00
2024-05-17 15:45:13.873166,0,-1,2,-7,0,0,70,72,140,130,76,190.89,107,50.00,26.00,-1010.00
2024-05-17 15:45:13.989286,-3,-1,2,-6,0,0,70,72,140,130,76,190.97,107,63.00,-18.00,-1034.00
2024-05-17 15:45:14.076423,-4,-1,2,-5,0,0,70,72,141,130,76,190.91,107,47.00,17.00,-968.00
2024-05-17 15:45:14.194229,-3,-1,2,-4,0,0,70,72,140,130,76,190.97,108,13.00,22.00,-1010.00
2024-05-17 15:45:14.280504,-2,0,2,-3,0,0,70,72,140,130,76,191.00,108,22.00,15.00,-940.00
2024-05-17 15:45:14.399799,0,0,2,-3,0,0,70,72,139,130,76,190.97,108,2.00,14.00,-1024.00
2024-05-17 15:45:14.484384,0,0,2,-2,0,0,70,72,139,130,76,190.93,108,39.00,-22.00,-1085.00
2024-05-17 15:45:14.603654,0,0,2,-2,0,0,70,72,138,130,76,190.91,108,11.00,-6.00,-918.00
2024-05-17 15:45:14.688399,0,0,2,-2,0,0,70,72,138,130,76,190.97,108,19.00,41.00,-1012.00
2024-05-17 15:45:14.808495,0,0,2,-2,0,0,70,72,137,130,76,190.98,108,31.00,-12.00,-1032.00
2024-05-17 15:45:14.892405,0,0,2,-2,0,0,69,73,137,130,76,190.91,108,15.00,32.00,-983.00
2024-05-17 15:45:15.013465,0,0,2,-2,0,0,69,73,136,130,76,190.88,108,22.00,-27.00,-1050.00
2024-05-17 15:45:15.045377,0,0,2,-1,0,0,69,73,136,130,76,190.87,108,23.00,-2.00,-970.00
2024-05-17 15:45:15.219489,-1,0,2,-1,0,0,69,73,136,130,76,190.98,109,0.00,24.00,-955.00
2024-05-17 15:45:15.249649,-3,0,2,0,0,0,69,73,136,120,76,190.97,109,24.00,13.00,-962.00
2024-05-17 15:45:15.424279,-1,0,2,0,0,0,69,73,136,120,76,190.99,109,11.00,25.00,-1038.00
2024-05-17 15:45:15.453440,0,-2,2,0,0,0,69,73,136,120,76,190.90,109,0.00,-12.00,-975.00
2024-05-17 15:45:15.557868,0,-2,2,0,0,0,69,73,135,120,76,190.98,109,0.00,-11.00,-1092.00
2024-05-17 15:45:15.658219,0,1,2,0,0,0,69,73,135,120,76,190.95,109,-22.00,14.00,-897.00
2024-05-17 15:45:15.832771,0,0,2,0,0,0,69,73,134,120,76,190.96,109,5.00,11.00,-923.00
2024-05-17 15:45:15.861830,0,0,2,0,0,0,70,72,134,120,76,190.97,109,-13.00,49.00,-933.00
2024-05-17 15:45:16.037301,0,0,2,0,0,0,70,72,134,120,76,190.97,109,12.00,-13.00,-1013.00
2024-05-17 15:45:16.065432,0,0,2,0,0,0,70,72,133,120,76,190.88,109,-15.00,28.00,-905.00
2024-05-17 15:45:16.242715,0,0,2,0,0,0,70,72,133,120,76,190.93,110,0.00,0.00,-1003.00
2024-05-17 15:45:16.269542,0,0,2,0,0,0,70,72,133,120,76,190.89,110,-4.00,-2.00,-951.00
2024-05-17 15:45:16.447168,0,0,2,0,0,0,70,72,133,120,76,190.91,110,2.00,17.00,-988.00
2024-05-17 15:45:16.473318,0,0,2,0,0,0,70,72,133,120,76,190.89,110,5.00,-9.00,-1047.00
2024-05-17 15:45:16.651822,0,0,2,0,0,0,70,72,133,120,76,190.88,110,5.00,27.00,-1029.00
2024-05-17 15:45:16.677315,0,0,2,0,0,0,70,72,134,120,76,190.83,110,10.00,-19.00,-990.00
2024-05-17 15:45:16.856658,0,0,2,0,0,0,70,72,134,120,76,190.88,110,2.00,42.00,-977.00
2024-05-17 15:45:16.881292,0,0,2,0,0,0,69,72,135,120,76,190.87,110,10.00,14.00,-949.00
2024-05-17 15:45:17.061357,0,0,2,0,0,0,69,72,135,120,76,190.88,110,3.00,-18.00,-999.00
2024-05-17 15:45:17.085277,0,0,2,0,0,0,69,72,135,120,76,190.90,110,-16.00,41.00,-952.00
2024-05-17 15:45:17.266223,0,0,2,0,0,0,69,72,135,120,76,190.90,111,2.00,-4.00,-980.00
2024-05-17 15:45:17.289288,0,0,2,0,0,0,69,72,136,120,76,190.95,111,1.00,-37.00,-1015.00
2024-05-17 15:45:17.472688,0,0,2,0,0,0,69,72,136,120,76,190.91,111,-5.00,-8.00,-983.00
2024-05-17 15:45:17.493985,0,0,2,0,0,0,69,72,136,120,76,190.91,111,5.00,-10.00,-1001.00
2024-05-17 15:45:17.595147,0,0,2,0,0,0,69,72,136,120,76,190.88,111,1.00,-10.00,-997.00
2024-05-17 15:45:17.778499,0,-1,2,0,0,0,69,72,137,130,76,190.90,111,6.00,31.00,-1013.00
2024-05-17 15:45:17.799172,0,-8,2,0,0,0,69,72,139,120,76,190.86,111,3.00,-23.00,-1019.00
2024-05-17 15:45:17.982917,0,-8,2,0,-1,0,70,73,138,120,76,190.87,111,5.00,6.00,-1023.00
2024-05-17 15:45:18.003201,0,-5,2,0,-3,0,70,73,136,120,76,190.88,111,-19.00,36.00,-1021.00
2024-05-17 15:45:18.187614,0,-3,2,0,-3,0,70,73,137,120,76,190.88,111,0.00,27.00,-1019.00
2024-05-17 15:45:18.207149,0,0,2,0,-3,0,70,73,136,130,76,190.83,112,0.00,39.00,-984.00
2024-05-17 15:45:18.309195,0,0,2,0,-3,0,70,73,136,130,76,190.87,112,14.00,5.00,-1007.00
2024-05-17 15:45:18.411101,0,0,2,0,-2,0,70,73,136,130,76,190.85,112,-1.00,-3.00,-1031.00
2024-05-17 15:45:18.597238,0,0,2,0,-2,0,70,73,135,130,76,190.92,112,-4.00,5.00,-966.00
2024-05-17 15:45:18.615113,0,0,2,0,-2,0,70,73,135,130,76,190.91,112,1.00,28.00,-993.00
2024-05-17 15:45:18.668739,0,-1,2,0,-2,0,70,73,135,130,76,190.87,112,7.00,11.00,-1050.00
2024-05-17 15:45:18.768163,0,-1,2,0,-2,0,70,73,134,120,76,190.85,112,-5.00,35.00,-944.00
2024-05-17 15:45:18.921404,0,-1,2,0,-2,0,69,72,134,120,76,190.94,112,1.00,34.00,-974.00
2024-05-17 15:45:19.109295,0,-1,2,0,-2,0,69,72,134,120,76,190.87,112,-13.00,60.00,-970.00
2024-05-17 15:45:19.109469,0,0,2,0,-2,0,69,72,134,120,76,190.88,112,10.00,35.00,-985.00
2024-05-17 15:45:19.176198,0,0,2,0,-2,0,69,72,135,120,76,190.90,113,-3.00,34.00,-955.00
2024-05-17 15:45:19.278151,0,-1,2,0,-2,0,69,72,134,120,76,190.88,113,-10.00,28.00,-969.00
2024-05-17 15:45:19.380302,0,-1,2,0,-2,0,69,72,135,120,76,190.87,113,-14.00,59.00,-968.00
2024-05-17 15:45:19.519148,0,0,2,0,-2,0,69,72,135,120,76,190.88,113,6.00,23.00,-974.00
2024-05-17 15:45:19.584778,0,3,2,0,-2,0,69,72,138,120,76,190.88,113,-19.00,23.00,-1030.00
2024-05-17 15:45:19.723512,0,3,2,0,0,0,69,72,138,120,76,190.87,113,-14.00,46.00,-995.00
2024-05-17 15:45:19.789563,0,0,2,0,0,0,69,72,136,120,76,190.87,113,0.00,-8.00,-1043.00
2024-05-17 15:45:19.928566,0,0,2,0,0,0,70,73,137,130,76,190.90,113,12.00,10.00,-963.00
2024-05-17 15:45:19.992195,0,0,2,0,0,0,70,73,138,130,76,190.90,113,-16.00,44.00,-1030.00
2024-05-17 15:45:20.096487,0,0,2,0,0,0,70,73,138,130,76,190.88,113,6.00,-17.00,-1020.00
2024-05-17 15:45:20.196286,0,0,2,0,0,0,70,73,139,130,76,190.89,114,-15.00,28.00,-967.00
2024-05-17 15:45:20.298330,0,0,2,0,0,0,70,73,139,130,76,190.89,114,-6.00,-5.00,-1066.00
2024-05-17 15:45:20.440894,0,-1,2,0,0,0,70,73,139,130,76,190.88,114,3.00,35.00,-969.00
2024-05-17 15:45:20.502219,0,0,2,0,0,0,70,73,140,130,76,190.85,114,2.00,3.00,-950.00
2024-05-17 15:45:20.645378,0,0,2,0,0,0,70,73,140,130,76,190.86,114,12.00,-28.00,-1000.00
2024-05-17 15:45:20.707261,0,0,2,0,0,0,70,73,141,130,76,190.86,114,-7.00,9.00,-1033.00
2024-05-17 15:45:20.808145,0,0,2,0,0,0,70,73,141,130,76,190.89,114,-4.00,31.00,-991.00
2024-05-17 15:45:20.952585,0,0,2,0,0,0,69,72,140,130,76,190.84,114,-3.00,36.00,-923.00
2024-05-17 15:45:21.012042,0,0,2,0,0,0,69,72,139,130,76,190.85,114,-11.00,-29.00,-943.00
2024-05-17 15:45:21.157409,0,-1,2,0,0,0,69,72,139,130,76,190.91,114,-2.00,33.00,-956.00
2024-05-17 15:45:21.216098,0,-1,2,0,0,0,69,72,138,130,76,190.89,115,-4.00,24.00,-989.00
2024-05-17 15:45:21.318089,0,-1,2,0,0,0,69,72,137,130,76,190.79,115,1.00,-7.00,-1078.00
2024-05-17 15:45:21.464635,0,-1,2,0,0,0,69,72,136,130,76,190.86,115,7.00,0.00,-956.00
2024-05-17 15:45:21.522210,0,-1,2,0,0,0,69,72,136,130,76,190.89,115,-5.00,38.00,-974.00
2024-05-17 15:45:21.670294,0,0,2,0,0,0,69,72,136,130,76,190.91,115,-4.00,31.00,-1060.00
2024-05-17 15:45:21.726099,0,0,2,0,0,0,69,72,135,120,76,190.87,115,-1.00,-8.00,-1031.00
2024-05-17 15:45:21.874632,0,0,2,0,0,0,69,72,135,120,76,190.86,115,-17.00,31.00,-1008.00
2024-05-17 15:45:21.930068,0,0,2,0,0,0,70,72,137,120,76,190.89,115,-14.00,20.00,-1050.00
2024-05-17 15:45:22.078898,0,6,2,0,0,0,70,72,137,120,76,190.89,115,0.00,0.00,-980.00
2024-05-17 15:45:22.133937,0,7,2,0,2,0,70,72,136,120,76,190.80,115,-6.00,-31.00,-1005.00
2024-05-17 15:45:22.283676,0,4,2,0,3,0,70,72,137,120,76,190.86,116,-3.00,-3.00,-986.00
2024-05-17 15:45:22.338969,0,2,2,0,3,0,70,72,135,120,76,190.88,116,7.00,-28.00,-1022.00
2024-05-17 15:45:22.440977,0,0,2,0,3,0,70,72,136,120,76,190.82,116,-10.00,7.00,-1023.00
2024-05-17 15:45:22.590870,0,0,2,0,3,0,70,72,136,120,76,190.95,116,13.00,-42.00,-978.00
2024-05-17 15:45:22.644955,0,-1,2,0,3,0,70,72,136,120,76,190.89,116,2.00,30.00,-994.00
2024-05-17 15:45:22.695910,0,0,2,0,2,0,70,72,137,120,76,190.86,116,-29.00,-12.00,-942.00
2024-05-17 15:45:22.797967,0,0,2,0,2,0,70,72,137,130,76,190.80,116,3.00,-20.00,-958.00
2024-05-17 15:45:23.000921,0,0,2,0,2,0,69,72,137,130,76,190.83,116,17.00,-31.00,-984.00
2024-05-17 15:45:23.002090,0,0,2,0,2,0,69,72,137,130,76,190.97,116,16.00,-31.00,-1053.00
2024-05-17 15:45:23.205249,0,0,2,0,2,0,69,72,139,130,76,190.86,116,0.00,3.00,-1052.00
2024-05-17 15:45:23.205933,1,0,2,0,2,0,69,72,139,130,76,190.85,117,-7.00,16.00,-964.00
2024-05-17 15:45:23.307963,2,0,2,0,2,0,69,72,138,130,76,190.87,117,9.00,-32.00,-1006.00
2024-05-17 15:45:23.410197,2,0,2,0,2,0,69,72,138,130,76,190.91,117,17.00,8.00,-1078.00
2024-05-17 15:45:23.524138,2,0,2,0,2,0,69,72,138,130,76,190.95,117,4.00,-11.00,-993.00
2024-05-17 15:45:23.620268,0,0,2,0,2,0,69,72,137,130,76,190.90,117,23.00,-10.00,-939.00
2024-05-17 15:45:23.717520,-2,0,2,0,2,0,69,72,136,130,76,190.84,117,2.00,-6.00,-996.00
2024-05-17 15:45:23.820150,0,-3,2,0,2,0,69,72,137,130,76,190.87,117,1.00,-32.00,-1002.00
2024-05-17 15:45:23.921811,0,-4,2,0,1,0,70,72,137,130,76,190.88,117,-4.00,50.00,-1001.00
2024-05-17 15:45:24.026281,0,-2,2,0,0,0,70,72,136,130,76,190.92,117,6.00,22.00,-1010.00
2024-05-17 15:45:24.127213,0,-1,2,0,0,0,70,72,135,130,76,190.86,117,1.00,-21.00,-975.00
2024-05-17 15:45:24.227613,0,-1,2,0,0,0,70,72,134,130,76,190.89,118,-5.00,10.00,-974.00
2024-05-17 15:45:24.331991,0,0,2,0,0,0,70,72,134,130,76,190.83,118,-3.00,22.00,-987.00
2024-05-17 15:45:24.430976,0,-1,2,0,0,0,70,72,133,120,76,190.82,118,4.00,37.00,-1003.00
2024-05-17 15:45:24.536603,0,-1,2,0,0,0,70,72,133,120,76,190.85,118,-14.00,52.00,-972.00
2024-05-17 15:45:24.635701,0,-1,2,0,0,0,70,72,133,120,76,190.87,118,-8.00,31.00,-969.00
2024-05-17 15:45:24.741503,0,-1,2,0,0,0,70,72,132,120,76,190.90,118,-8.00,25.00,-975.00
2024-05-17 15:45:24.839251,0,-1,2,0,0,0,70,72,132,120,76,190.85,118,12.00,-16.00,-1006.00
2024-05-17 15:45:24.946564,0,0,2,0,0,0,69,72,132,120,76,190.92,118,-25.00,41.00,-953.00
2024-05-17 15:45:25.043422,0,0,2,0,0,0,69,72,132,120,76,190.86,118,4.00,32.00,-1053.00
2024-05-17 15:45:25.151690,0,0,2,0,0,0,69,72,132,120,76,190.87,119,2.00,-4.00,-1050.00
2024-05-17 15:45:25.246864,0,0,2,0,0,0,69,72,132,120,76,190.81,119,-1.00,19.00,-944.00
2024-05-17 15:45:25.348910,0,0,2,0,0,0,69,72,132,120,76,190.89,119,-8.00,7.00,-1037.00
2024-05-17 15:45:25.458132,0,0,2,0,0,0,69,72,132,120,76,190.87,119,-8.00,-2.00,-965.00
2024-05-17 15:45:25.552995,0,0,2,0,0,0,69,72,133,120,76,190.78,119,0.00,15.00,-1047.00
2024-05-17 15:45:25.663201,0,0,2,0,0,0,69,72,133,120,76,190.88,119,-4.00,-4.00,-988.00
2024-05-17 15:45:25.756968,0,0,2,0,0,0,69,72,133,120,76,190.82,119,7.00,19.00,-1053.00
2024-05-17 15:45:25.871415,0,0,2,0,0,0,69,72,133,120,76,190.78,119,8.00,9.00,-953.00
2024-05-17 15:45:25.960850,0,0,2,0,0,0,69,72,133,120,76,190.83,119,-20.00,14.00,-990.00
2024-05-17 15:45:26.073060,0,0,3,0,0,0,69,72,133,120,76,190.90,119,-8.00,-23.00,-1017.00
2024-05-17 15:45:26.164877,0,0,9,0,0,0,69,72,133,120,76,190.77,120,-19.00,35.00,-1002.00
2024-05-17 15:45:26.267323,0,0,14,0,0,0,69,72,133,120,76,190.87,120,4.00,-3.00,-966.00
2024-05-17 15:45:26.369672,0,0,20,0,0,0,69,72,133,120,76,190.81,120,10.00,-15.00,-1032.00
2024-05-17 15:45:26.420978,0,0,26,0,0,0,69,72,134,120,76,190.80,120,25.00,5.00,-997.00
2024-05-17 15:45:26.584569,0,0,32,0,0,0,69,72,134,120,76,190.82,120,4.00,-10.00,-969.00
2024-05-17 15:45:26.624792,0,0,38,0,0,0,69,72,134,120,76,190.83,120,-8.00,10.00,-955.00
2024-05-17 15:45:26.789548,0,0,44,0,0,0,69,72,134,120,76,190.88,120,12.00,26.00,-1028.00
2024-05-17 15:45:26.828834,0,0,50,0,0,0,69,72,134,120,76,190.78,120,-9.00,14.00,-1022.00
2024-05-17 15:45:26.993988,0,0,56,0,0,0,70,73,135,120,76,190.76,120,2.00,4.00,-1062.00
2024-05-17 15:45:27.032844,0,0,62,0,0,0,70,73,135,120,76,190.78,120,1.00,-29.00,-1017.00
2024-05-17 15:45:27.201764,0,0,68,0,0,0,70,73,136,120,76,190.80,121,6.00,6.00,-954.00
2024-05-17 15:45:27.242237,0,0,74,0,0,0,70,73,136,130,76,190.84,121,-5.00,9.00,-1031.00
2024-05-17 15:45:27.338778,0,0,80,0,0,0,70,73,136,130,76,190.82,121,-8.00,0.00,-1031.00
2024-05-17 15:45:27.506044,0,0,87,0,0,0,70,73,137,130,76,190.83,121,-23.00,-8.00,-1039.00
2024-05-17 15:45:27.542878,0,0,93,0,0,0,70,73,137,130,76,190.76,121,1.00,-1.00,-1032.00
2024-05-17 15:45:27.710855,0,0,99,0,0,0,70,73,137,130,76,190.81,121,1.00,-10.00,-1034.00
2024-05-17 15:45:27.746703,0,0,105,0,0,0,70,73,137,130,76,190.79,121,11.00,-12.00,-1025.00
2024-05-17 15:45:27.848678,0,0,110,0,0,0,70,73,138,130,76,190.86,121,3.00,-23.00,-1010.00
2024-05-17 15:45:28.018038,0,0,116,0,0,0,70,72,139,130,76,190.86,121,1.00,18.00,-967.00
2024-05-17 15:45:28.052734,0,0,122,0,0,0,70,72,139,130,76,190.80,121,6.00,-36.00,-1022.00
2024-05-17 15:45:28.222851,0,0,128,0,0,0,70,72,139,130,76,190.85,122,-15.00,31.00,-995.00
2024-05-17 15:45:28.256806,0,0,134,0,0,0,70,72,139,130,76,190.86,122,8.00,-11.00,-974.00
2024-05-17 15:45:28.429513,0,0,140,0,0,0,70,72,139,130,76,190.85,122,1.00,-8.00,-946.00
2024-05-17 15:45:28.461175,0,0,146,0,0,0,70,72,138,130,76,190.87,122,0.00,6.00,-1054.00
2024-05-17 15:45:28.632467,0,1,152,0,0,0,70,72,139,130,76,190.88,122,3.00,-24.00,-1029.00
2024-05-17 15:45:28.665165,0,1,158,0,0,0,70,72,139,130,76,190.84,122,-2.00,13.00,-995.00
2024-05-17 15:45:28.837294,0,1,164,0,0,0,70,72,139,130,76,190.80,122,-11.00,5.00,-1078.00
2024-05-17 15:45:28.868842,0,1,170,0,0,0,70,72,139,130,76,190.84,122,-4.00,-40.00,-1010.00
2024-05-17 15:45:29.045762,0,1,176,0,0,0,71,72,139,130,76,190.85,122,-14.00,-25.00,-962.00
2024-05-17 15:45:29.072658,0,1,-177,0,0,0,71,72,138,130,76,190.91,122,-12.00,-12.00,-1082.00
2024-05-17 15:45:29.246839,0,0,-171,0,0,0,71,72,138,130,76,190.86,123,-12.00,-33.00,-971.00
2024-05-17 15:45:29.276715,0,0,-166,0,0,0,71,72,139,130,76,190.93,123,-32.00,7.00,-1020.00
2024-05-17 15:45:29.451647,-1,0,-160,0,0,0,71,72,139,130,76,190.84,123,-9.00,-38.00,-979.00
2024-05-17 15:45:29.480625,-1,0,-154,0,0,0,71,72,139,130,76,190.86,123,-31.00,7.00,-1031.00
2024-05-17 15:45:29.658714,-1,0,-148,0,0,0,71,72,139,130,76,190.85,123,-15.00,-1.00,-1033.00
2024-05-17 15:45:29.686360,-1,0,-142,0,0,0,71,72,140,130,76,190.85,123,-25.00,-4.00,-1011.00
2024-05-17 15:45:29.786762,-1,0,-136,0,0,0,71,72,140,130,76,190.83,123,-10.00,-24.00,-992.00
2024-05-17 15:45:29.963662,0,0,-131,0,0,0,71,72,139,130,76,190.84,123,-20.00,-34.00,-957.00
2024-05-17 15:45:29.990683,0,0,-125,0,0,0,70,72,136,130,76,190.83,123,-26.00,-6.00,-1005.00
2024-05-17 15:45:30.168468,0,1,-119,0,0,0,70,72,135,130,76,190.84,123,-35.00,7.00,-930.00
2024-05-17 15:45:30.194709,0,0,-113,0,0,0,70,72,134,130,76,190.78,124,-9.00,-17.00,-1037.00
2024-05-17 15:45:30.374161,0,0,-107,0,0,0,70,72,133,120,76,190.83,124,-19.00,-24.00,-1017.00
2024-05-17 15:45:30.400155,0,0,-101,0,0,0,70,72,133,120,76,190.77,124,-17.00,-22.00,-1064.00
2024-05-17 15:45:30.500758,0,0,-95,0,0,0,70,72,132,120,76,190.78,124,1.00,-15.00,-1058.00
2024-05-17 15:45:30.680508,0,0,-89,0,0,0,70,72,131,120,76,190.86,124,-15.00,-7.00,-1062.00
2024-05-17 15:45:30.704711,0,0,-83,0,0,0,70,72,130,120,76,190.75,124,-18.00,-12.00,-1013.00
2024-05-17 15:45:30.756855,0,0,-77,0,0,0,70,72,130,120,76,190.77,124,-9.00,25.00,-1036.00
2024-05-17 15:45:30.885230,0,0,-71,0,0,0,70,72,131,120,76,190.73,124,-26.00,28.00,-1007.00
2024-05-17 15:45:31.010885,0,0,-65,0,0,0,69,73,131,120,76,190.82,124,-19.00,55.00,-965.00
2024-05-17 15:45:31.061615,0,0,-59,0,0,0,69,73,131,120,76,190.76,124,-13.00,38.00,-1026.00
2024-05-17 15:45:31.192453,0,0,-53,0,0,0,69,73,132,120,76,190.77,125,-23.00,34.00,-980.00
2024-05-17 15:45:31.265934,0,0,-47,0,0,0,69,73,132,120,76,190.77,125,-9.00,-1.00,-1006.00
2024-05-17 15:45:31.397795,0,0,-41,0,0,0,69,73,133,120,76,190.76,125,-17.00,8.00,-986.00
2024-05-17 15:45:31.475406,0,0,-35,0,0,0,69,73,134,120,76,190.81,125,-5.00,36.00,-988.00
2024-05-17 15:45:31.571684,0,-1,-29,0,0,0,69,73,134,120,76,190.84,125,-1.00,6.00,-993.00
2024-05-17 15:45:31.704509,0,-1,-24,0,0,0,69,73,134,120,76,190.82,125,-22.00,31.00,-1041.00
2024-05-17 15:45:31.782020,0,-1,-18,0,0,0,69,73,134,120,76,190.86,125,-6.00,-22.00,-1005.00
2024-05-17 15:45:31.877474,0,-1,-13,0,0,0,69,73,135,120,76,190.85,125,-7.00,1.00,-1039.00
2024-05-17 15:45:32.014503,0,0,-9,0,0,0,70,73,135,120,76,190.86,125,-1.00,15.00,-979.00
2024-05-17 15:45:32.082410,0,0,-6,0,0,0,70,73,136,120,76,190.85,125,2.00,0.00,-988.00
2024-05-17 15:45:32.217346,0,0,-4,0,0,0,70,73,136,120,76,190.89,126,5.00,30.00,-995.00
2024-05-17 15:45:32.285726,0,0,-2,0,0,0,70,73,136,120,76,190.87,126,0.00,2.00,-1013.00
2024-05-17 15:45:32.423037,0,0,-1,0,0,0,70,73,136,130,76,190.88,126,-8.00,34.00,-976.00
2024-05-17 15:45:32.489454,0,0,0,0,0,0,70,73,137,130,76,190.89,126,3.00,-12.00,-1009.00
2024-05-17 15:45:32.591620,0,0,0,0,0,0,70,73,137,130,76,190.88,126,11.00,47.00,-1014.00
2024-05-17 15:45:32.729008,0,0,0,0,0,0,70,73,137,130,76,190.83,126,-2.00,10.00,-1004.00
2024-05-17 15:45:32.795704,0,0,0,0,0,0,70,73,137,130,76,190.87,126,-11.00,-10.00,-970.00
2024-05-17 15:45:32.933584,0,0,0,0,0,0,70,73,138,130,76,190.90,126,2.00,15.00,-1069.00
2024-05-17 15:45:32.999731,0,0,0,0,0,0,70,73,137,130,76,190.82,126,11.00,28.00,-994.00
2024-05-17 15:45:33.103417,0,0,0,0,0,0,70,73,137,130,76,190.85,126,9.00,-1.00,-1053.00
2024-05-17 15:45:33.203726,0,0,0,0,0,0,70,73,137,130,76,190.84,127,0.00,19.00,-1044.00
2024-05-17 15:45:33.343117,0,0,0,0,0,0,70,73,138,130,76,190.87,127,15.00,10.00,-993.00
2024-05-17 15:45:33.408695,0,0,0,0,0,0,70,73,138,130,76,190.83,127,7.00,-21.00,-1027.00
2024-05-17 15:45:33.547898,0,0,0,0,0,0,70,73,137,130,76,190.85,127,16.00,-13.00,-1055.00
2024-05-17 15:45:33.614989,0,0,0,0,0,0,70,73,138,130,76,190.83,127,-9.00,-15.00,-1041.00
2024-05-17 15:45:33.713707,0,0,0,0,0,0,70,73,138,130,76,190.83,127,1.00,16.00,-1023.00
2024-05-17 15:45:33.855039,0,0,0,0,0,0,70,73,138,130,76,190.86,127,7.00,-26.00,-1020.00
2024-05-17 15:45:33.918698,0,0,0,0,0,0,70,73,138,130,76,190.82,127,3.00,22.00,-1003.00
2024-05-17 15:45:34.020679,0,0,0,0,0,0,70,72,138,130,76,190.87,127,-6.00,22.00,-992.00
2024-05-17 15:45:34.123324,0,0,0,0,0,0,70,72,138,130,76,190.80,127,3.00,-11.00,-997.00
2024-05-17 15:45:34.225416,0,0,0,0,0,0,70,72,138,130,76,190.79,128,-2.00,36.00,-1006.00
2024-05-17 15:45:34.325494,0,0,0,0,0,0,70,72,138,130,76,190.84,128,-4.00,-9.00,-1002.00
2024-05-17 15:45:34.430682,0,0,0,0,0,0,70,72,139,130,76,190.80,128,0.00,-7.00,-1009.00
2024-05-17 15:45:34.478567,0,0,0,0,0,0,70,72,139,130,76,190.81,128,17.00,-1.00,-1018.00
2024-05-17 15:45:34.581201,0,0,0,0,0,0,70,72,139,130,76,190.88,128,-12.00,18.00,-964.00
2024-05-17 15:45:34.776425,0,0,0,0,0,0,70,72,139,130,76,190.82,128,-54.00,49.00,-952.00
2024-05-17 15:45:34.784892,0,0,-5,0,0,0,70,72,139,130,76,190.82,128,3.00,24.00,-1000.00
2024-05-17 15:45:34.886445,0,0,-11,0,0,0,70,72,140,130,76,190.82,128,15.00,-10.00,-1021.00
2024-05-17 15:45:35.087820,0,0,-17,0,0,0,70,72,140,130,76,190.90,128,-1.00,4.00,-1015.00
2024-05-17 15:45:35.090342,0,0,-22,0,0,0,70,72,140,130,76,190.82,128,1.00,-20.00,-1036.00
2024-05-17 15:45:35.193561,0,0,-28,0,0,0,70,72,140,130,76,190.84,129,-8.00,21.00,-945.00
2024-05-17 15:45:35.295388,0,0,-34,0,0,0,70,72,140,130,76,190.83,129,2.00,4.00,-1021.00
2024-05-17 15:45:35.396576,0,0,-40,0,0,0,70,72,139,130,76,190.85,129,-7.00,30.00,-957.00
2024-05-17 15:45:35.498507,0,0,-46,0,0,0,70,72,139,130,76,190.85,129,9.00,-2.00,-1081.00
2024-05-17 15:45:35.698039,0,0,-52,0,0,0,70,72,139,130,76,190.89,129,0.00,-27.00,-998.00
2024-05-17 15:45:35.702354,0,0,-58,0,0,0,70,72,138,130,76,190.85,129,-2.00,12.00,-1055.00
2024-05-17 15:45:35.804454,0,0,-63,0,0,0,70,72,138,130,76,190.83,129,-4.00,38.00,-1041.00
2024-05-17 15:45:36.005381,0,0,-69,0,0,0,70,72,138,130,76,190.88,129,-29.00,21.00,-894.00
2024-05-17 15:45:36.009099,0,0,-75,0,0,0,70,72,138,130,76,190.73,129,-9.00,37.00,-1022.00
2024-05-17 15:45:36.111364,0,0,-81,0,0,0,70,72,138,130,76,190.75,129,-25.00,13.00,-975.00
2024-05-17 15:45:36.213763,-1,0,-87,0,0,0,70,72,138,130,76,190.81,130,-30.00,-2.00,-989.00
2024-05-17 15:45:36.317564,-1,0,-93,0,0,0,70,72,138,130,76,190.74,130,-6.00,9.00,-1091.00
2024-05-17 15:45:36.418131,-1,0,-99,0,0,0,70,72,138,130,76,190.79,130,-27.00,33.00,-971.00
2024-05-17 15:45:36.518327,-1,0,-105,0,0,0,70,72,138,130,76,190.78,130,-33.00,32.00,-992.00
2024-05-17 15:45:36.722508,-1,0,-111,0,0,0,70,72,138,120,76,190.81,130,-31.00,-1.00,-953.00
2024-05-17 15:45:36.722566,-1,0,-117,0,0,0,70,72,137,120,76,190.81,130,-8.00,-12.00,-1049.00
2024-05-17 15:45:36.824620,0,0,-123,0,0,0,70,72,137,130,76,190.86,130,-21.00,31.00,-993.00
2024-05-17 15:45:36.926350,0,0,-128,0,0,0,70,72,137,130,76,190.77,130,-41.00,-1.00,-915.00
2024-05-17 15:45:37.028980,0,0,-134,0,0,0,70,73,136,130,76,190.76,130,-29.00,11.00,-936.00
2024-05-17 15:45:37.131500,0,0,-140,0,0,0,70,73,136,130,76,190.80,130,-56.00,17.00,-905.00
2024-05-17 15:45:37.233926,0,0,-145,0,0,0,70,73,136,130,76,190.74,131,-14.00,15.00,-999.00
2024-05-17 15:45:37.334266,0,0,-150,0,0,0,70,73,136,120,76,190.76,131,-15.00,-10.00,-1003.00
2024-05-17 15:45:37.438928,0,0,-156,0,0,0,70,73,136,120,76,190.76,131,-19.00,-17.00,-1002.00
2024-05-17 15:45:37.540780,0,0,-161,0,0,0,70,73,135,120,76,190.79,131,-17.00,-14.00,-976.00
2024-05-17 15:45:37.640241,0,0,-167,0,0,0,70,73,135,120,76,190.79,131,-18.00,-5.00,-1003.00
2024-05-17 15:45:37.748993,0,0,-172,0,0,0,70,73,135,120,76,190.81,131,-17.00,-11.00,-1004.00
2024-05-17 15:45:37.844148,0,0,-178,0,0,0,70,73,135,120,76,190.81,131,-27.00,-6.00,-971.00
2024-05-17 15:45:37.958457,0,0,176,0,0,0,70,73,136,120,76,190.77,131,-9.00,-6.00,-1011.00
2024-05-17 15:45:38.048771,0,0,171,0,0,0,71,73,136,120,76,190.81,131,4.00,-16.00,-1032.00
2024-05-17 15:45:38.155756,0,0,165,0,0,0,71,73,136,120,76,190.82,131,-5.00,-2.00,-1023.00
2024-05-17 15:45:38.252084,0,0,160,0,0,0,71,73,135,120,76,190.77,132,-26.00,-3.00,-988.00
2024-05-17 15:45:38.354170,0,0,154,0,0,0,71,73,135,120,76,190.76,132,12.00,-15.00,-1080.00
2024-05-17 15:45:38.406155,0,0,148,0,0,0,71,73,135,120,76,190.75,132,19.00,-2.00,-1018.00
2024-05-17 15:45:38.565224,0,0,142,0,0,0,71,73,136,120,76,190.74,132,-2.00,-26.00,-1039.00
2024-05-17 15:45:38.610148,0,0,136,0,0,0,71,73,136,120,76,190.72,132,-5.00,12.00,-982.00
2024-05-17 15:45:38.772062,0,0,129,0,0,0,71,73,136,120,76,190.71,132,-15.00,-7.00,-1000.00
2024-05-17 15:45:38.814088,0,0,123,0,0,0,71,73,136,120,76,190.76,132,-20.00,9.00,-1002.00
2024-05-17 15:45:38.916143,0,0,116,0,0,0,71,73,136,120,76,190.75,132,4.00,-18.00,-1028.00
2024-05-17 15:45:39.082095,0,0,110,0,0,0,70,73,136,120,76,190.73,132,-9.00,10.00,-961.00
2024-05-17 15:45:39.120766,0,0,103,0,0,0,70,73,137,130,76,190.79,132,2.00,-12.00,-983.00
2024-05-17 15:45:39.283661,0,0,97,0,0,0,70,73,137,130,76,190.72,133,15.00,-21.00,-990.00
2024-05-17 15:45:39.324974,0,0,84,0,0,0,70,73,137,130,76,190.79,133,3.00,-20.00,-972.00
2024-05-17 15:45:39.489377,0,0,78,0,0,0,70,73,137,130,76,190.75,133,5.00,2.00,-1008.00
2024-05-17 15:45:39.530381,0,0,71,0,0,0,70,73,138,130,76,190.77,133,-1.00,9.00,-979.00
2024-05-17 15:45:39.694939,0,0,65,0,0,0,70,73,138,130,76,190.70,133,6.00,13.00,-996.00
2024-05-17 15:45:39.734678,0,0,58,0,0,0,70,73,138,130,76,190.81,133,-1.00,7.00,-1036.00
2024-05-17 15:45:39.835076,0,0,52,0,0,0,70,73,138,130,76,190.76,133,6.00,-9.00,-1041.00
2024-05-17 15:45:40.000700,0,0,46,0,0,0,70,73,138,130,76,190.78,133,6.00,-13.00,-1005.00
2024-05-17 15:45:40.039154,0,0,40,0,0,0,70,73,138,130,76,190.80,133,8.00,2.00,-956.00
2024-05-17 15:45:40.206231,0,0,33,0,0,0,70,73,138,130,76,190.79,134,-5.00,-8.00,-989.00
2024-05-17 15:45:40.249300,0,0,27,0,0,0,70,73,138,130,76,190.76,134,0.00,-10.00,-997.00
2024-05-17 15:45:40.345679,0,0,21,0,0,0,70,73,138,130,76,190.81,134,-16.00,43.00,-964.00
2024-05-17 15:45:40.450723,0,0,16,0,0,0,70,73,138,130,76,190.74,134,-2.00,-17.00,-1004.00
2024-05-17 15:45:40.548983,0,0,13,0,0,0,70,73,138,130,76,190.81,134,-2.00,2.00,-1044.00
2024-05-17 15:45:40.716317,0,0,10,0,0,0,70,73,138,130,76,190.81,134,-4.00,34.00,-987.00
2024-05-17 15:45:40.752917,0,0,8,0,0,0,70,73,138,130,76,190.78,134,10.00,-12.00,-983.00
2024-05-17 15:45:40.924040,0,0,6,0,0,0,70,73,138,130,76,190.79,134,-10.00,36.00,-943.00
2024-05-17 15:45:40.957438,0,0,5,0,0,0,70,73,138,130,76,190.80,134,-8.00,12.00,-1030.00
2024-05-17 15:45:41.127437,0,0,4,0,0,0,70,72,138,130,76,190.83,134,1.00,6.00,-996.00
2024-05-17 15:45:41.160907,0,0,3,0,0,0,70,72,138,130,76,190.82,135,3.00,-21.00,-1027.00
2024-05-17 15:45:41.330182,0,0,3,0,0,0,70,72,138,130,76,190.75,135,10.00,-5.00,-941.00
2024-05-17 15:45:41.365014,0,0,2,0,0,0,70,72,138,130,76,190.82,135,-9.00,-4.00,-1011.00
2024-05-17 15:45:41.467100,0,0,2,0,0,0,70,72,137,130,76,190.80,135,12.00,-10.00,-1033.00
2024-05-17 15:45:41.536734,0,0,2,0,0,0,70,72,138,130,76,190.80,135,-11.00,-10.00,-1027.00
2024-05-17 15:45:41.621438,0,0,2,0,0,0,70,72,137,130,76,190.79,135,20.00,23.00,-1036.00
2024-05-17 15:45:41.741122,0,0,2,0,0,0,70,72,138,130,76,190.84,135,-10.00,-11.00,-1000.00
2024-05-17 15:45:41.825744,0,0,2,0,0,0,70,72,138,130,76,190.69,135,-3.00,0.00,-996.00
2024-05-17 15:45:41.947403,0,0,2,0,0,0,70,72,138,130,76,190.71,135,-11.00,-29.00,-960.00
2024-05-17 15:45:42.028234,0,0,2,0,0,0,69,72,138,130,76,190.74,135,-4.00,-14.00,-999.00
2024-05-17 15:45:42.150843,0,0,2,0,0,0,69,72,138,130,76,190.74,136,2.00,-23.00,-982.00
2024-05-17 15:45:42.232212,0,0,2,0,0,0,69,72,138,130,76,190.77,136,26.00,-24.00,-1016.00
2024-05-17 15:45:42.355632,0,0,2,0,0,0,69,72,138,130,76,190.78,136,8.00,2.00,-970.00
2024-05-17 15:45:42.436158,0,0,2,0,0,0,69,72,138,130,76,190.74,136,-28.00,25.00,-1013.00
2024-05-17 15:45:42.559734,0,0,2,0,0,0,69,72,138,130,76,190.71,136,8.00,-1.00,-1007.00
2024-05-17 15:45:42.640190,0,0,2,0,0,0,69,72,138,130,76,190.70,136,-1.00,38.00,-1001.00
2024-05-17 15:45:42.764745,0,0,2,0,0,0,69,72,138,130,76,190.67,136,13.00,-1.00,-971.00
2024-05-17 15:45:42.843985,0,0,2,0,0,0,69,72,138,130,76,190.74,136,3.00,-17.00,-1039.00
2024-05-17 15:45:42.969004,0,0,2,0,0,0,69,72,137,130,76,190.79,136,-9.00,26.00,-961.00
2024-05-17 15:45:43.048104,0,0,2,0,0,0,70,72,137,130,76,190.74,136,-17.00,4.00,-943.00
2024-05-17 15:45:43.173799,0,0,2,0,0,0,70,72,137,130,76,190.78,137,-22.00,-3.00,-1032.00
2024-05-17 15:45:43.252070,0,0,2,0,0,0,70,72,137,130,76,190.73,137,-4.00,30.00,-1049.00
2024-05-17 15:45:43.354084,0,0,2,0,0,0,70,72,137,130,76,190.71,137,-7.00,37.00,-1006.00
2024-05-17 15:45:43.455994,0,0,2,0,0,0,70,72,137,130,76,190.75,137,-12.00,24.00,-968.00
2024-05-17 15:45:43.583116,0,0,2,0,0,-4,70,72,137,130,76,190.88,137,-84.00,29.00,-1613.00
2024-05-17 15:45:43.659985,0,-11,1,0,0,-11,70,72,144,130,76,190.96,137,11.00,52.00,-1739.00
2024-05-17 15:45:43.788750,-1,-107,2,0,-6,-11,70,72,234,150,76,191.20,137,12.00,429.00,-1115.00
2024-05-17 15:45:43.863985,3,128,4,0,-10,3,70,72,164,150,76,191.25,137,-22.00,530.00,-1036.00
2024-05-17 15:45:43.992669,1,21,-2,0,-3,11,70,72,226,140,76,191.37,137,-38.00,397.00,-1210.00
2024-05-17 15:45:44.068048,0,1,-1,0,-1,8,70,73,144,130,76,190.84,137,18.00,35.00,-1485.00
2024-05-17 15:45:44.197751,0,1,0,0,-1,4,70,73,138,130,76,190.76,138,-3.00,44.00,-1359.00
2024-05-17 15:45:44.271910,0,0,1,0,0,2,70,73,136,120,76,190.72,138,0.00,27.00,-1158.00
2024-05-17 15:45:44.373969,0,0,2,0,0,0,70,73,135,120,76,190.74,138,0.00,-22.00,-1170.00
2024-05-17 15:45:44.504471,0,0,2,0,0,0,70,73,134,120,76,190.66,138,0.00,-17.00,-1045.00
2024-05-17 15:45:44.577990,0,0,2,0,0,0,70,73,136,120,76,190.66,138,-3.00,-20.00,-1019.00
2024-05-17 15:45:44.709400,0,1,2,0,0,0,70,73,136,120,76,190.69,138,1.00,34.00,-1029.00
2024-05-17 15:45:44.781834,0,0,2,0,0,0,70,73,138,120,76,190.68,138,21.00,-22.00,-999.00
2024-05-17 15:45:44.914100,0,0,2,0,0,0,70,73,139,120,76,190.73,138,8.00,-27.00,-986.00
2024-05-17 15:45:44.985857,0,0,2,0,0,0,70,73,140,120,76,190.81,138,22.00,-24.00,-955.00
2024-05-17 15:45:45.118850,0,0,2,0,0,0,70,72,141,120,76,190.74,138,0.00,-1.00,-949.00
2024-05-17 15:45:45.190101,0,0,2,0,0,0,70,72,142,120,76,190.76,139,-16.00,38.00,-954.00
2024-05-17 15:45:45.324269,0,0,2,0,0,0,70,72,141,120,76,190.82,139,0.00,-2.00,-1067.00
2024-05-17 15:45:45.344531,0,0,2,0,0,0,70,72,142,120,76,190.74,139,-5.00,3.00,-934.00
2024-05-17 15:45:45.445076,0,0,2,0,0,0,70,72,143,120,76,190.81,139,4.00,10.00,-964.00
2024-05-17 15:45:45.630744,0,0,2,0,0,0,70,72,143,130,76,190.76,139,0.00,-6.00,-995.00
2024-05-17 15:45:45.648764,0,0,2,0,0,0,70,72,143,130,76,190.80,139,0.00,35.00,-1017.00
2024-05-17 15:45:45.835548,0,0,2,0,0,0,70,72,143,130,76,190.73,139,-3.00,34.00,-957.00
2024-05-17 15:45:45.852765,0,0,2,0,0,0,70,72,143,130,76,190.83,139,12.00,-3.00,-946.00
2024-05-17 15:45:46.040438,0,0,2,0,0,0,70,72,143,130,76,190.77,139,7.00,-13.00,-1020.00
2024-05-17 15:45:46.056817,0,0,2,0,0,0,70,73,143,130,75,190.79,139,-8.00,28.00,-967.00
2024-05-17 15:45:46.245146,0,0,2,0,0,0,70,73,143,130,75,190.79,140,1.00,-8.00,-1027.00
2024-05-17 15:45:46.260835,0,0,2,0,0,0,70,73,143,130,75,190.77,140,0.00,13.00,-1021.00
2024-05-17 15:45:46.362853,0,0,2,0,0,0,70,73,143,130,75,190.75,140,6.00,-18.00,-1018.00
2024-05-17 15:45:46.553059,0,0,2,0,0,0,70,73,143,130,75,190.76,140,-5.00,6.00,-942.00
2024-05-17 15:45:46.566704,0,0,2,0,0,0,70,73,143,130,75,190.74,140,7.00,23.00,-1010.00
2024-05-17 15:45:46.757153,0,0,2,0,0,0,70,73,143,130,75,190.77,140,-9.00,22.00,-1000.00
2024-05-17 15:45:46.770672,0,0,2,0,0,0,70,73,143,130,75,190.79,140,13.00,-16.00,-1048.00
2024-05-17 15:45:46.961911,0,0,2,0,0,0,70,73,143,130,75,190.83,140,-3.00,-4.00,-959.00
2024-05-17 15:45:46.974579,0,0,2,0,0,0,70,73,142,130,75,190.79,140,-11.00,4.00,-947.00
2024-05-17 15:45:47.167142,0,0,2,0,0,0,69,72,142,130,75,190.80,140,9.00,32.00,-942.00
2024-05-17 15:45:47.178788,0,0,2,0,0,0,69,72,142,130,75,190.71,141,0.00,17.00,-960.00
2024-05-17 15:45:47.281077,0,0,2,0,0,0,69,72,141,130,75,190.74,141,-14.00,35.00,-984.00
2024-05-17 15:45:47.382809,0,0,2,0,0,0,69,72,141,130,75,190.78,141,0.00,-13.00,-1031.00
2024-05-17 15:45:47.577203,0,0,2,0,0,0,69,72,141,130,75,190.77,141,3.00,-2.00,-1007.00
2024-05-17 15:45:47.586709,0,0,2,0,0,0,69,72,141,130,75,190.76,141,-4.00,12.00,-974.00
2024-05-17 15:45:47.781241,0,0,2,0,0,0,69,72,140,130,75,190.70,141,17.00,23.00,-1037.00
2024-05-17 15:45:47.790938,0,0,2,0,0,0,69,72,140,130,75,190.72,141,-2.00,2.00,-1011.00
2024-05-17 15:45:47.987459,0,0,2,0,0,0,69,72,140,130,75,190.72,141,-4.00,6.00,-992.00
2024-05-17 15:45:47.994885,0,0,2,0,0,0,69,72,139,130,75,190.69,141,-6.00,8.00,-972.00
2024-05-17 15:45:48.191120,0,0,2,0,0,0,70,73,138,130,74,190.68,141,-12.00,31.00,-969.00
2024-05-17 15:45:48.198892,0,0,2,0,0,0,70,73,138,130,74,190.66,142,-10.00,51.00,-984.00
2024-05-17 15:45:48.395999,0,0,2,0,0,0,70,73,138,130,74,190.76,142,2.00,24.00,-1047.00
2024-05-17 15:45:48.403097,0,0,2,0,0,0,70,73,137,120,74,190.69,142,7.00,-7.00,-1045.00
2024-05-17 15:45:48.504755,0,0,2,0,0,0,70,73,137,120,74,190.70,142,0.00,-5.00,-966.00
2024-05-17 15:45:48.702921,0,0,2,0,0,0,70,73,137,120,74,190.70,142,-18.00,45.00,-988.00
2024-05-17 15:45:48.710377,0,0,2,0,0,0,70,73,137,120,74,190.65,142,1.00,-14.00,-1040.00
2024-05-17 15:45:48.911053,0,0,2,0,0,0,70,73,136,120,74,190.71,142,-12.00,26.00,-971.00
2024-05-17 15:45:48.912756,0,0,2,0,0,0,70,73,136,120,74,190.67,142,-20.00,13.00,-1067.00
2024-05-17 15:45:48.963693,0,0,2,0,0,0,70,73,136,120,74,190.73,142,-10.00,20.00,-960.00
2024-05-17 15:45:49.116731,0,0,2,0,0,0,70,72,136,120,74,190.71,142,-15.00,26.00,-1036.00
2024-05-17 15:45:49.318690,0,0,2,0,0,0,70,72,136,120,74,190.69,143,-24.00,3.00,-951.00
2024-05-17 15:45:49.321557,0,0,2,0,0,0,70,72,136,120,74,190.75,143,-13.00,28.00,-969.00
2024-05-17 15:45:49.422713,0,0,2,0,0,0,70,72,136,120,74,190.70,143,2.00,0.00,-1050.00
2024-05-17 15:45:49.473661,0,0,2,0,0,0,70,72,136,120,74,190.69,143,-1.00,18.00,-995.00
2024-05-17 15:45:49.624404,0,0,2,0,0,0,70,72,136,120,74,190.73,143,-7.00,-3.00,-1016.00
2024-05-17 15:45:49.677783,0,0,2,0,0,0,70,72,136,120,74,190.69,143,-1.00,0.00,-1042.00
2024-05-17 15:45:49.829837,0,0,2,0,0,0,70,72,136,120,74,190.64,143,-16.00,7.00,-1018.00
2024-05-17 15:45:49.882284,0,0,2,0,0,0,70,72,137,120,74,190.66,143,-5.00,21.00,-1075.00
2024-05-17 15:45:49.983725,0,0,2,0,0,0,70,72,137,120,74,190.67,143,-11.00,15.00,-922.00
2024-05-17 15:45:50.085575,0,0,2,0,0,0,70,72,138,120,74,190.70,143,-1.00,-49.00,-1115.00
2024-05-17 15:45:50.239319,0,1,2,0,0,-3,70,72,140,120,74,190.95,144,-31.00,29.00,-1703.00
2024-05-17 15:45:50.292392,0,10,1,0,0,-11,70,72,157,130,74,191.07,144,6.00,-65.00,-1774.00
2024-05-17 15:45:50.392421,1,101,1,0,7,-12,70,72,375,150,74,191.12,144,-24.00,687.00,-1231.00
2024-05-17 15:45:50.546254,0,-135,2,0,11,3,70,72,221,150,74,191.16,144,4.00,718.00,-835.00
2024-05-17 15:45:50.596479,0,-24,3,0,5,11,70,72,166,140,74,190.99,144,37.00,579.00,-1085.00
2024-05-17 15:45:50.750708,0,1,2,0,4,9,70,72,146,130,74,190.79,144,16.00,48.00,-1430.00
2024-05-17 15:45:50.800467,0,-2,1,0,4,5,70,72,142,120,74,190.73,144,-7.00,-4.00,-1438.00
2024-05-17 15:45:50.955719,0,-3,2,0,3,2,70,72,139,120,74,190.74,144,-10.00,13.00,-1173.00
2024-05-17 15:45:51.004452,0,-2,2,0,2,0,70,72,138,120,74,190.77,144,-18.00,-6.00,-1123.00
2024-05-17 15:45:51.160285,0,-1,2,0,2,0,69,73,138,120,74,190.78,144,-27.00,10.00,-1118.00
2024-05-17 15:45:51.208420,0,-1,3,0,2,0,69,73,138,120,74,190.74,145,-8.00,11.00,-1106.00
2024-05-17 15:45:51.310664,0,-1,2,0,1,0,69,73,139,120,74,190.72,145,-15.00,18.00,-1008.00
2024-05-17 15:45:51.412412,0,-1,2,0,1,0,69,73,140,120,74,190.77,145,-11.00,-8.00,-991.00
2024-05-17 15:45:51.514394,0,-1,2,0,1,0,69,73,142,120,74,190.74,145,-9.00,-5.00,-989.00
2024-05-17 15:45:51.672966,0,-4,2,0,1,0,69,73,142,120,74,190.72,145,3.00,-20.00,-995.00
2024-05-17 15:45:51.719423,0,-3,2,0,0,0,69,73,142,120,74,190.80,145,-16.00,-30.00,-968.00
2024-05-17 15:45:51.877079,0,-2,2,0,0,0,69,73,141,120,74,190.79,145,-12.00,24.00,-1007.00
2024-05-17 15:45:51.924229,0,-1,2,0,0,0,69,73,141,120,74,190.84,145,-12.00,20.00,-968.00
2024-05-17 15:45:52.024406,0,-1,2,0,0,0,69,73,140,120,74,190.73,145,-14.00,-16.00,-972.00
2024-05-17 15:45:52.186529,0,-1,2,0,0,0,70,73,141,120,74,190.69,145,-32.00,34.00,-926.00
2024-05-17 15:45:52.228526,0,-1,2,0,0,0,70,73,140,120,74,190.70,146,-11.00,19.00,-1044.00
2024-05-17 15:45:52.389095,-1,-1,2,0,0,0,70,73,140,120,74,190.79,146,-12.00,17.00,-1041.00
2024-05-17 15:45:52.433120,-1,-1,2,0,0,0,70,73,140,120,74,190.70,146,-18.00,10.00,-1007.00
2024-05-17 15:45:52.596898,-1,-1,2,0,0,0,70,73,140,120,74,190.74,146,-37.00,22.00,-953.00
2024-05-17 15:45:52.640342,-1,-1,2,0,0,0,70,73,140,120,74,190.74,146,-21.00,15.00,-1005.00
2024-05-17 15:45:52.742938,-1,-1,2,0,0,0,70,73,140,120,74,190.71,146,-28.00,31.00,-1033.00
2024-05-17 15:45:52.842559,-1,-1,2,0,0,0,70,73,140,120,74,190.73,146,-27.00,19.00,-984.00
2024-05-17 15:45:52.942970,-1,-1,2,0,0,0,70,73,140,120,74,190.68,146,10.00,14.00,-1061.00
2024-05-17 15:45:53.106776,-1,-1,2,0,0,0,70,73,140,120,74,190.73,146,-26.00,12.00,-995.00
2024-05-17 15:45:53.150065,-1,-1,2,0,0,0,70,72,139,120,73,190.69,146,-29.00,21.00,-993.00
2024-05-17 15:45:53.248705,-1,-1,2,0,0,0,70,72,139,120,73,190.71,147,-24.00,24.00,-990.00
2024-05-17 15:45:53.300462,-1,-1,2,0,0,0,70,72,139,120,73,190.77,147,-12.00,13.00,-1035.00
2024-05-17 15:45:53.405728,-1,0,2,0,0,0,70,72,139,120,73,190.72,147,-36.00,16.00,-957.00
2024-05-17 15:45:53.504790,-1,0,2,0,0,0,70,72,137,120,73,190.78,147,-19.00,25.00,-968.00
2024-05-17 15:45:53.606589,-1,-1,2,0,0,0,70,72,137,120,73,190.66,147,3.00,33.00,-1019.00
2024-05-17 15:45:53.707567,-1,-1,2,0,0,0,70,72,137,120,73,190.68,147,-25.00,6.00,-996.00
2024-05-17 15:45:53.824308,-1,-2,2,0,0,0,70,72,136,120,73,190.68,147,-29.00,9.00,-1012.00
2024-05-17 15:45:53.911582,-1,-1,2,0,0,0,70,72,135,120,73,190.64,147,-42.00,51.00,-1026.00
2024-05-17 15:45:54.027493,-1,-1,2,0,0,0,70,72,135,120,73,190.65,147,-21.00,7.00,-1070.00
2024-05-17 15:45:54.115611,-1,-1,2,0,0,0,70,72,135,120,73,190.69,147,-28.00,4.00,-998.00
2024-05-17 15:45:54.232472,-1,-1,2,0,0,0,70,72,135,120,73,190.74,148,-17.00,28.00,-1041.00
2024-05-17 15:45:54.319850,0,-1,2,0,0,0,70,72,135,120,73,190.72,148,-15.00,15.00,-1004.00
2024-05-17 15:45:54.422955,0,-1,2,0,0,0,70,72,135,120,73,190.72,148,-20.00,4.00,-1018.00
2024-05-17 15:45:54.541142,0,0,2,0,0,0,70,72,136,120,73,190.72,148,-10.00,8.00,-985.00
2024-05-17 15:45:54.625535,0,0,3,0,0,0,70,72,137,120,73,190.78,148,-33.00,32.00,-969.00
2024-05-17 15:45:54.745245,0,0,3,0,0,0,70,72,137,120,73,190.83,148,-12.00,11.00,-958.00
2024-05-17 15:45:54.829506,0,0,3,0,0,0,70,72,138,120,73,190.69,148,1.00,13.00,-971.00
2024-05-17 15:45:54.951553,0,0,3,0,0,0,70,72,138,120,73,190.73,148,-12.00,12.00,-1034.00
2024-05-17 15:45:55.033520,0,0,3,0,0,0,70,72,139,120,73,190.73,148,8.00,13.00,-1004.00
2024-05-17 15:45:55.155876,0,0,2,0,0,0,70,72,139,120,73,190.74,149,-10.00,20.00,-952.00
2024-05-17 15:45:55.240528,0,-1,2,0,0,0,70,72,139,120,73,190.76,149,2.00,29.00,-1007.00
2024-05-17 15:45:55.339576,0,-1,2,0,0,0,70,72,140,120,73,190.75,149,-10.00,36.00,-953.00
2024-05-17 15:45:55.461216,0,-1,2,0,0,0,70,72,141,120,73,190.76,149,-5.00,36.00,-966.00
2024-05-17 15:45:55.543617,0,-1,2,0,0,0,70,72,141,120,73,190.76,149,-13.00,32.00,-992.00
2024-05-17 15:45:55.666056,0,-1,2,0,0,0,70,72,141,120,73,190.77,149,-5.00,19.00,-970.00
2024-05-17 15:45:55.747807,0,-1,2,0,0,0,70,72,141,120,73,190.77,149,0.00,28.00,-980.00
2024-05-17 15:45:55.870896,0,-1,2,0,0,0,70,72,140,120,73,190.69,149,-11.00,38.00,-951.00
2024-05-17 15:45:55.951611,0,-1,2,0,0,0,70,72,140,120,73,190.72,149,-16.00,-5.00,-999.00
2024-05-17 15:45:56.075684,0,-1,2,0,0,0,70,72,140,120,73,190.80,149,-9.00,-3.00,-978.00
2024-05-17 15:45:56.155560,0,-1,2,0,0,0,70,72,140,120,73,190.84,150,-19.00,21.00,-1025.00
2024-05-17 15:45:56.257560,0,-1,2,0,0,0,70,72,140,120,73,190.74,150,-18.00,11.00,-1012.00
2024-05-17 15:45:56.382773,0,0,2,0,0,0,70,72,140,120,73,190.77,150,-29.00,14.00,-988.00
2024-05-17 15:45:56.461403,-1,0,2,0,0,0,70,72,140,120,73,190.75,150,-6.00,6.00,-1068.00
2024-05-17 15:45:56.563399,-1,0,2,0,0,0,70,72,140,120,73,190.78,150,-25.00,7.00,-983.00
2024-05-17 15:45:56.665365,-1,0,2,0,0,0,70,72,141,120,73,190.80,150,-26.00,22.00,-1009.00
2024-05-17 15:45:56.767322,-1,0,2,0,0,-4,70,72,143,120,73,190.85,150,-38.00,-29.00,-1655.00
2024-05-17 15:45:56.819017,-15,0,1,0,0,-12,70,72,150,130,73,191.02,150,-36.00,2.00,-1821.00
2024-05-17 15:45:56.920201,-65,176,-174,6,0,-11,70,72,326,140,73,191.11,150,301.00,1.00,-1509.00
2024-05-17 15:45:57.099520,58,178,-177,10,0,4,70,72,156,150,73,190.83,150,750.00,29.00,-1101.00
2024-05-17 15:45:57.124183,12,0,3,3,0,12,69,72,277,140,73,190.85,151,689.00,33.00,-1266.00
