TS,pitch,roll,yaw,vgx,vgy,vgz,templ,temph,tof,h,bat,baro,time,agx,agy,agz
2024-06-07 11:01:39.630412,0,0,6,0,0,0,80,81,10,0,37,132.74,383,-6.00,4.00,-1000.00
2024-06-07 11:01:39.648646,0,0,6,0,0,0,80,81,10,0,37,132.73,383,-4.00,6.00,-1001.00
2024-06-07 11:01:39.832048,0,0,6,0,0,0,80,81,10,0,37,132.79,383,-5.00,7.00,-999.00
2024-06-07 11:01:39.852712,0,0,6,0,0,0,80,81,10,0,37,132.78,383,-4.00,6.00,-1000.00
2024-06-07 11:01:40.036774,0,0,6,0,0,0,79,81,10,0,37,132.78,383,-6.00,6.00,-1000.00
2024-06-07 11:01:40.056643,0,0,6,0,0,0,79,81,10,0,37,132.81,383,-6.00,5.00,-997.00
2024-06-07 11:01:40.240898,0,0,6,0,0,0,79,81,10,0,37,132.79,383,-4.00,6.00,-1001.00
2024-06-07 11:01:40.260645,0,0,6,0,0,0,79,81,10,0,37,132.79,383,-5.00,5.00,-1002.00
2024-06-07 11:01:40.311422,0,0,6,0,0,0,79,81,10,0,37,132.74,383,-6.00,4.00,-999.00
2024-06-07 11:01:40.445785,0,0,6,0,0,0,79,81,10,0,37,132.72,383,-6.00,6.00,-1000.00
2024-06-07 11:01:40.518888,0,0,6,0,0,0,79,81,10,0,37,132.75,383,-5.00,4.00,-1000.00
2024-06-07 11:01:40.617438,0,0,6,0,0,0,79,81,10,0,37,132.74,383,-4.00,6.00,-997.00
2024-06-07 11:01:40.752964,0,0,6,0,0,0,79,81,10,0,37,132.77,383,-6.00,5.00,-1002.00
2024-06-07 11:01:40.821421,0,0,6,0,0,0,79,81,10,0,37,132.75,383,-6.00,6.00,-999.00
2024-06-07 11:01:40.959411,0,0,6,0,0,0,80,82,10,0,37,132.74,383,-6.00,4.00,-998.00
2024-06-07 11:01:41.026702,0,0,6,0,0,0,80,82,10,0,37,132.74,383,-6.00,4.00,-1000.00
2024-06-07 11:01:41.162608,0,0,6,0,0,0,80,82,10,0,37,132.72,383,-6.00,6.00,-997.00
2024-06-07 11:01:41.230627,0,0,6,0,0,0,80,82,10,0,37,132.79,383,-6.00,5.00,-996.00
2024-06-07 11:01:41.367335,0,0,6,0,0,0,80,82,10,0,37,132.72,383,-5.00,6.00,-1000.00
2024-06-07 11:01:41.435079,0,0,6,0,0,0,80,82,10,0,37,132.76,383,-5.00,5.00,-1001.00
2024-06-07 11:01:41.571934,0,0,6,0,0,0,80,82,10,0,37,132.77,383,-6.00,4.00,-998.00
2024-06-07 11:01:41.638876,0,0,6,0,0,0,80,82,10,0,37,132.79,383,-6.00,5.00,-999.00
2024-06-07 11:01:41.776925,0,0,6,0,0,0,80,82,10,0,37,132.79,383,-7.00,5.00,-999.00
2024-06-07 11:01:41.843582,0,0,6,0,0,0,80,82,10,0,37,132.75,383,-4.00,6.00,-999.00
2024-06-07 11:01:41.944798,0,0,6,0,0,0,80,82,10,0,37,132.78,383,-5.00,4.00,-999.00
2024-06-07 11:01:42.046752,0,0,6,0,0,0,80,82,10,0,37,132.75,383,-7.00,5.00,-999.00
2024-06-07 11:01:42.186369,0,0,6,0,0,0,80,82,10,0,37,132.76,383,-14.00,-1.00,-1005.00
2024-06-07 11:01:42.250505,0,0,6,0,0,0,80,82,10,0,37,132.76,383,-10.00,-3.00,-986.00
2024-06-07 11:01:42.392572,0,0,6,0,0,0,80,82,10,0,37,132.76,383,5.00,12.00,-1007.00
2024-06-07 11:01:42.454784,0,0,6,0,0,0,80,82,10,0,37,132.76,383,-26.00,-60.00,-986.00
2024-06-07 11:01:42.595965,0,0,7,0,0,0,80,82,10,0,37,132.76,383,7.00,0.00,-983.00
2024-06-07 11:01:42.659522,0,0,7,0,0,0,80,82,10,-10,37,132.76,384,-15.00,-32.00,-1049.00
2024-06-07 11:01:42.760566,0,0,7,0,-1,0,80,82,10,-10,37,132.76,384,-31.00,-57.00,-1206.00
2024-06-07 11:01:42.862595,0,0,6,0,-1,-1,80,82,10,-10,37,132.76,384,11.00,-98.00,-1353.00
2024-06-07 11:01:43.005567,-1,4,6,0,-2,-3,80,82,10,-10,37,132.76,384,-20.00,-126.00,-1216.00
2024-06-07 11:01:43.067155,-2,5,6,0,-3,-4,80,82,16,-10,37,133.08,384,-14.00,-150.00,-1114.00
2024-06-07 11:01:43.210957,-2,7,6,0,-3,-5,80,82,21,-10,37,133.38,384,7.00,-128.00,-1074.00
2024-06-07 11:01:43.270393,0,9,6,0,-3,-5,80,82,32,-10,37,133.39,384,-15.00,-176.00,-1028.00
2024-06-07 11:01:43.322241,-1,11,6,0,-3,-5,80,82,43,-10,37,133.42,384,2.00,-159.00,-989.00
2024-06-07 11:01:43.518813,0,11,7,0,-2,-5,80,82,54,0,37,133.60,384,-21.00,-158.00,-981.00
2024-06-07 11:01:43.532279,0,12,7,0,-2,-5,80,82,65,0,37,133.69,384,-23.00,-130.00,-929.00
2024-06-07 11:01:43.627524,-1,10,6,0,-1,-4,80,82,75,0,37,133.81,385,-37.00,-157.00,-915.00
2024-06-07 11:01:43.824856,-2,10,6,0,-1,-3,80,82,84,0,37,133.93,385,-6.00,-164.00,-893.00
2024-06-07 11:01:43.831132,-1,11,6,0,-1,-2,80,82,93,10,37,133.95,385,-10.00,-159.00,-891.00
2024-06-07 11:01:44.031129,-1,11,6,0,0,-1,80,82,104,10,37,133.96,385,-60.00,-143.00,-861.00
2024-06-07 11:01:44.086404,-3,8,6,0,0,-1,80,82,110,20,37,134.08,385,-44.00,-136.00,-855.00
2024-06-07 11:01:44.138014,-4,9,6,0,0,0,80,82,115,20,37,134.15,385,-17.00,-154.00,-829.00
2024-06-07 11:01:44.336911,-3,10,6,0,0,0,80,82,118,20,37,134.15,385,-1.00,-140.00,-836.00
2024-06-07 11:01:44.342024,-2,10,6,0,0,1,80,82,120,30,37,134.14,385,-30.00,-125.00,-912.00
2024-06-07 11:01:44.541581,-1,9,6,0,0,1,80,82,121,30,37,134.23,385,-18.00,-151.00,-866.00
2024-06-07 11:01:44.545110,-1,9,6,0,0,2,80,82,121,30,37,134.21,385,4.00,-136.00,-868.00
2024-06-07 11:01:44.647132,-1,9,7,0,0,2,80,82,122,30,37,134.22,386,-24.00,-159.00,-927.00
2024-06-07 11:01:44.749121,0,11,7,0,0,3,80,82,120,30,37,134.17,386,-36.00,-133.00,-911.00
2024-06-07 11:01:44.851181,-1,9,7,0,0,3,80,82,120,30,37,134.01,386,-32.00,-143.00,-983.00
2024-06-07 11:01:44.953202,0,9,7,0,0,3,80,83,118,30,37,133.99,386,-14.00,-135.00,-972.00
2024-06-07 11:01:45.055064,0,10,7,0,1,3,80,83,116,30,37,134.02,386,-26.00,-88.00,-968.00
2024-06-07 11:01:45.260065,0,8,6,0,1,3,80,83,113,30,37,133.90,386,4.00,-82.00,-987.00
2024-06-07 11:01:45.261771,0,6,6,0,2,2,80,83,111,30,37,133.95,386,-10.00,-80.00,-983.00
2024-06-07 11:01:45.361702,0,4,6,0,2,2,80,83,109,30,37,133.81,386,-2.00,-96.00,-986.00
2024-06-07 11:01:45.470888,0,4,6,0,2,2,80,83,108,30,37,133.81,386,-2.00,-111.00,-1003.00
2024-06-07 11:01:45.565701,-1,4,6,0,2,2,80,83,106,30,37,133.83,386,-17.00,-72.00,-968.00
2024-06-07 11:01:45.667999,-1,4,6,0,1,2,80,83,104,30,37,133.84,387,-33.00,-73.00,-969.00
2024-06-07 11:01:45.770382,-1,4,6,0,1,2,80,83,101,20,37,133.83,387,0.00,-78.00,-1007.00
2024-06-07 11:01:45.872778,0,3,6,0,1,2,80,83,99,20,37,133.80,387,12.00,-94.00,-976.00
2024-06-07 11:01:45.973123,0,3,6,0,1,2,80,82,96,20,37,133.74,387,-7.00,-100.00,-968.00
2024-06-07 11:01:46.075416,0,3,6,0,1,2,80,82,94,20,37,133.72,387,-2.00,-73.00,-1034.00
2024-06-07 11:01:46.179965,0,3,6,0,1,2,80,82,92,20,37,133.63,387,-7.00,-73.00,-999.00
2024-06-07 11:01:46.278999,0,4,6,0,0,1,80,82,90,20,37,133.71,387,-3.00,-92.00,-1004.00
2024-06-07 11:01:46.384755,-1,4,6,0,0,1,80,82,88,20,37,133.73,387,4.00,-59.00,-1012.00
2024-06-07 11:01:46.483457,-1,4,6,0,0,1,80,82,86,10,37,133.55,387,-20.00,-85.00,-1023.00
2024-06-07 11:01:46.589439,-1,3,6,0,1,1,80,82,85,10,37,133.59,387,1.00,-63.00,-995.00
2024-06-07 11:01:46.687011,0,2,6,0,1,1,80,82,84,10,37,133.60,388,1.00,-70.00,-1017.00
2024-06-07 11:01:46.794359,0,2,6,0,0,1,80,82,82,10,37,133.57,388,3.00,-70.00,-1001.00
2024-06-07 11:01:46.891421,0,3,6,0,0,0,80,82,81,10,37,133.56,388,15.00,-85.00,-1007.00
2024-06-07 11:01:46.999156,0,3,6,0,0,0,79,82,80,10,37,133.62,388,22.00,-97.00,-1004.00
2024-06-07 11:01:47.095096,0,3,6,0,0,0,79,82,80,10,37,133.48,388,1.00,-57.00,-992.00
2024-06-07 11:01:47.205398,0,3,7,0,0,0,79,82,79,10,37,133.56,388,2.00,-87.00,-1023.00
2024-06-07 11:01:47.299172,0,3,7,0,0,0,79,82,77,10,37,133.49,388,-11.00,-63.00,-991.00
2024-06-07 11:01:47.408754,0,4,7,0,0,0,79,82,77,10,37,133.55,388,-3.00,-52.00,-970.00
2024-06-07 11:01:47.453972,0,4,6,0,0,0,79,82,76,0,37,133.53,388,-5.00,-74.00,-1023.00
2024-06-07 11:01:47.560846,0,3,6,0,0,0,79,82,75,0,37,133.49,388,1.00,-93.00,-972.00
2024-06-07 11:01:47.656310,0,3,6,0,0,0,79,82,74,0,37,133.53,389,-4.00,-47.00,-1042.00
2024-06-07 11:01:47.818437,-1,4,6,0,0,0,79,82,74,0,37,133.44,389,-14.00,-68.00,-993.00
2024-06-07 11:01:47.860155,0,4,7,0,0,0,79,82,74,0,37,133.52,389,-3.00,-79.00,-1007.00
2024-06-07 11:01:47.962264,0,4,7,0,0,0,79,82,74,0,37,133.41,389,-6.00,-96.00,-1021.00
2024-06-07 11:01:48.064781,0,4,7,0,0,0,79,82,74,0,37,133.49,389,-7.00,-77.00,-1018.00
2024-06-07 11:01:48.227971,0,4,7,0,0,0,79,82,74,0,37,133.50,389,-1.00,-55.00,-996.00
2024-06-07 11:01:48.268296,0,3,7,0,0,0,79,82,74,0,37,133.50,389,-19.00,-44.00,-1021.00
2024-06-07 11:01:48.432704,-1,2,7,0,0,0,79,82,74,0,37,133.46,389,-33.00,-45.00,-995.00
2024-06-07 11:01:48.473015,-1,2,7,0,0,0,79,82,74,0,37,133.50,389,-51.00,-65.00,-976.00
2024-06-07 11:01:48.576570,-1,2,7,0,0,0,79,82,74,0,37,133.51,389,-24.00,-46.00,-1002.00
2024-06-07 11:01:48.678048,-1,2,6,0,0,0,79,82,74,0,37,133.49,390,-30.00,-40.00,-1013.00
2024-06-07 11:01:48.779372,-2,1,6,0,0,0,79,82,74,0,37,133.53,390,-18.00,-55.00,-1005.00
2024-06-07 11:01:48.880188,-2,2,6,0,0,0,79,82,74,0,37,133.45,390,-13.00,-79.00,-1019.00
2024-06-07 11:01:49.048672,-2,3,6,0,0,0,79,82,73,0,37,133.50,390,-17.00,-66.00,-974.00
2024-06-07 11:01:49.084307,-1,3,6,0,0,0,79,82,73,0,37,133.44,390,-16.00,-63.00,-1005.00
2024-06-07 11:01:49.256994,-1,3,6,0,0,0,79,82,73,0,37,133.44,390,-22.00,-67.00,-1002.00
2024-06-07 11:01:49.288129,-1,3,6,0,0,0,79,82,73,0,37,133.48,390,-15.00,-74.00,-1034.00
2024-06-07 11:01:49.456839,-1,3,6,0,0,0,79,82,73,0,37,133.48,390,-57.00,-56.00,-984.00
2024-06-07 11:01:49.494640,-2,2,6,0,0,0,79,82,74,0,37,133.60,390,-38.00,-55.00,-1013.00
2024-06-07 11:01:49.594787,-2,3,7,0,0,0,79,82,74,0,37,133.52,390,-26.00,-63.00,-984.00
2024-06-07 11:01:49.764017,-2,4,7,0,0,0,79,82,74,0,37,133.46,391,-6.00,-57.00,-1018.00
2024-06-07 11:01:49.798676,-2,4,7,0,0,0,79,82,74,0,37,133.50,391,-24.00,-74.00,-1023.00
2024-06-07 11:01:49.969656,-2,4,6,0,0,0,79,82,74,0,37,133.55,391,-28.00,-78.00,-1023.00
2024-06-07 11:01:50.003018,-2,3,7,0,0,0,80,82,74,0,37,133.55,391,-35.00,-51.00,-966.00
2024-06-07 11:01:50.104941,-2,3,7,0,0,0,80,82,74,0,37,133.50,391,-38.00,-72.00,-1003.00
2024-06-07 11:01:50.280318,-2,3,7,0,0,0,80,82,74,0,37,133.56,391,-2.00,-67.00,-1006.00
2024-06-07 11:01:50.308724,-1,3,6,0,0,0,80,82,74,0,37,133.49,391,-27.00,-86.00,-1007.00
2024-06-07 11:01:50.480788,-2,3,6,0,0,0,80,82,74,0,37,133.50,391,-21.00,-80.00,-956.00
2024-06-07 11:01:50.513037,-1,3,6,0,0,0,80,82,74,0,37,133.51,391,-14.00,-66.00,-994.00
2024-06-07 11:01:50.685558,-1,4,6,0,0,0,80,82,74,0,37,133.53,391,-8.00,-51.00,-998.00
2024-06-07 11:01:50.717028,-1,4,6,0,0,0,80,82,74,0,37,133.58,392,-2.00,-62.00,-983.00
2024-06-07 11:01:50.875772,0,4,6,0,0,0,80,82,74,0,37,133.55,392,0.00,-58.00,-992.00
2024-06-07 11:01:50.920929,0,4,6,0,0,0,80,82,74,0,37,133.61,392,14.00,-80.00,-993.00
2024-06-07 11:01:51.095316,0,4,6,1,0,0,79,81,73,0,37,133.53,392,19.00,-85.00,-997.00
2024-06-07 11:01:51.127631,0,4,6,1,0,0,79,81,74,0,37,133.49,392,15.00,-71.00,-978.00
2024-06-07 11:01:51.176022,0,4,6,1,0,0,79,81,73,0,37,133.58,392,19.00,-48.00,-1004.00
2024-06-07 11:01:51.278110,0,4,6,0,0,0,79,81,73,0,37,133.58,392,7.00,-70.00,-1019.00
2024-06-07 11:01:51.402499,0,4,6,0,0,0,79,81,73,0,37,133.62,392,6.00,-58.00,-985.00
2024-06-07 11:01:51.482913,0,3,6,0,0,0,79,81,73,0,37,133.59,392,29.00,-78.00,-996.00
2024-06-07 11:01:51.607414,0,3,6,0,0,0,79,81,74,0,37,133.62,392,14.00,-72.00,-996.00
2024-06-07 11:01:51.686184,1,4,7,0,0,0,79,81,74,0,37,133.64,393,-1.00,-58.00,-987.00
2024-06-07 11:01:51.812601,1,4,7,0,0,0,79,81,74,0,37,133.58,393,-2.00,-61.00,-1007.00
2024-06-07 11:01:51.890186,0,3,7,0,0,0,79,81,74,0,37,133.56,393,-4.00,-78.00,-996.00
2024-06-07 11:01:52.017136,0,3,7,0,0,0,78,81,74,0,37,133.57,393,7.00,-67.00,-993.00
2024-06-07 11:01:52.094155,0,3,7,0,0,0,78,81,74,0,37,133.65,393,11.00,-60.00,-982.00
2024-06-07 11:01:52.221924,0,3,6,0,0,0,78,81,74,0,37,133.61,393,12.00,-63.00,-969.00
2024-06-07 11:01:52.298404,0,3,6,0,0,0,78,81,74,0,37,133.60,393,20.00,-50.00,-1016.00
2024-06-07 11:01:52.426694,1,3,6,0,0,0,78,81,75,0,37,133.51,393,41.00,-55.00,-1019.00
2024-06-07 11:01:52.502075,1,3,6,0,0,0,78,81,75,0,37,133.54,393,26.00,-89.00,-1014.00
2024-06-07 11:01:52.633437,2,2,7,0,0,0,78,81,75,0,37,133.64,393,45.00,-70.00,-986.00
2024-06-07 11:01:52.706068,2,3,7,0,0,0,78,81,76,0,37,133.59,394,36.00,-73.00,-1003.00
2024-06-07 11:01:52.808233,3,3,6,0,0,0,78,81,76,0,37,133.57,394,25.00,-65.00,-1016.00
2024-06-07 11:01:52.910284,2,4,6,0,0,0,78,81,77,0,37,133.65,394,37.00,-77.00,-1053.00
2024-06-07 11:01:53.040796,2,4,6,0,0,0,78,81,77,0,37,133.65,394,49.00,-78.00,-1066.00
2024-06-07 11:01:53.114171,2,3,6,0,0,-1,78,81,79,0,37,133.65,394,43.00,-62.00,-1124.00
2024-06-07 11:01:53.248981,2,3,7,0,0,-2,78,81,82,10,37,133.71,394,42.00,-81.00,-1113.00
2024-06-07 11:01:53.323328,2,4,7,0,0,-3,78,81,86,10,37,133.71,394,37.00,-81.00,-1067.00
2024-06-07 11:01:53.426756,2,4,7,0,0,-4,78,81,89,10,37,133.79,394,22.00,-75.00,-1060.00
2024-06-07 11:01:53.522924,2,4,7,0,0,-4,78,81,94,20,37,133.86,394,-1.00,-97.00,-1052.00
2024-06-07 11:01:53.655106,1,4,7,0,0,-5,78,81,99,20,37,133.91,394,49.00,-85.00,-1067.00
2024-06-07 11:01:53.725935,1,5,7,0,0,-5,78,81,105,30,37,133.87,395,46.00,-70.00,-1019.00
2024-06-07 11:01:53.827940,1,5,7,0,0,-5,78,81,110,30,37,133.94,395,29.00,-77.00,-969.00
2024-06-07 11:01:53.962446,1,4,7,0,0,-5,78,81,116,40,37,133.98,395,26.00,-85.00,-1011.00
2024-06-07 11:01:54.031900,1,4,7,0,0,-5,79,81,121,40,37,134.04,395,34.00,-86.00,-990.00
2024-06-07 11:01:54.167453,1,4,7,0,0,-5,79,81,127,50,37,134.13,395,27.00,-72.00,-958.00
2024-06-07 11:01:54.235846,1,4,7,0,0,-5,79,81,131,50,37,134.19,395,4.00,-82.00,-960.00
2024-06-07 11:01:54.373789,1,4,7,0,0,-5,79,81,136,60,37,134.24,395,-1.00,-87.00,-937.00
2024-06-07 11:01:54.439852,1,4,7,0,0,-4,79,81,139,60,37,134.21,395,-5.00,-79.00,-915.00
2024-06-07 11:01:54.576838,0,4,7,0,0,-4,79,81,145,70,37,134.23,395,9.00,-82.00,-966.00
2024-06-07 11:01:54.645087,0,4,7,0,0,-3,79,81,148,70,37,134.36,395,8.00,-74.00,-940.00
2024-06-07 11:01:54.781807,0,5,7,0,0,-3,79,81,151,80,37,134.39,396,7.00,-89.00,-946.00
2024-06-07 11:01:54.802130,0,4,7,0,0,-3,79,81,156,80,37,134.38,396,-22.00,-94.00,-973.00
2024-06-07 11:01:54.898649,0,4,7,0,0,-2,79,81,158,80,37,134.42,396,-36.00,-71.00,-937.00
2024-06-07 11:01:55.088813,-1,5,6,0,0,-2,79,81,160,80,37,134.41,396,23.00,-79.00,-994.00
2024-06-07 11:01:55.104301,-1,5,6,0,0,-2,79,81,163,90,37,134.51,396,9.00,-76.00,-964.00
2024-06-07 11:01:55.204909,0,5,6,0,0,-2,79,81,167,90,37,134.49,396,11.00,-82.00,-931.00
2024-06-07 11:01:55.398194,0,5,6,0,0,-1,79,81,167,90,37,134.55,396,14.00,-68.00,-981.00
2024-06-07 11:01:55.411106,0,4,6,0,0,-1,79,81,170,90,37,134.56,396,25.00,-91.00,-970.00
2024-06-07 11:01:55.511995,1,4,6,0,0,-1,79,81,171,100,37,134.66,396,1.00,-85.00,-928.00
2024-06-07 11:01:55.615602,1,4,7,0,0,-1,79,81,172,100,37,134.59,396,3.00,-49.00,-972.00
2024-06-07 11:01:55.715241,1,4,7,0,0,-1,79,81,175,100,37,134.51,397,-11.00,-82.00,-1000.00
2024-06-07 11:01:55.816698,1,4,7,0,0,0,79,81,176,100,37,134.59,397,6.00,-94.00,-956.00
2024-06-07 11:01:55.919099,0,5,7,0,0,0,79,81,176,100,37,134.56,397,-9.00,-89.00,-1004.00
2024-06-07 11:01:56.021371,0,5,7,0,0,0,78,81,176,100,37,134.62,397,10.00,-86.00,-924.00
2024-06-07 11:01:56.123333,0,5,6,0,0,0,78,81,175,100,37,134.59,397,-11.00,-71.00,-964.00
2024-06-07 11:01:56.319505,-1,5,6,0,0,0,78,81,177,100,37,134.63,397,-23.00,-85.00,-967.00
2024-06-07 11:01:56.326647,-1,5,6,0,0,0,78,81,175,100,37,134.59,397,-12.00,-88.00,-984.00
2024-06-07 11:01:56.522495,-1,4,6,0,0,0,78,81,175,100,37,134.66,397,-8.00,-69.00,-998.00
2024-06-07 11:01:56.533385,-1,4,6,0,0,0,78,81,175,100,37,134.61,397,-6.00,-83.00,-997.00
2024-06-07 11:01:56.634446,0,4,6,0,0,0,78,81,173,100,37,134.73,398,12.00,-65.00,-1007.00
2024-06-07 11:01:56.734900,0,4,6,0,0,0,78,81,173,100,37,134.69,398,9.00,-92.00,-1003.00
2024-06-07 11:01:56.933361,0,5,6,0,0,0,78,81,177,100,37,134.61,398,22.00,-104.00,-996.00
2024-06-07 11:01:56.938612,1,5,6,0,0,0,78,81,175,100,37,134.59,398,28.00,-107.00,-1010.00
2024-06-07 11:01:57.138119,2,4,6,0,0,0,78,80,175,100,37,134.65,398,43.00,-63.00,-979.00
2024-06-07 11:01:57.144047,2,4,6,0,0,0,78,80,176,100,37,134.60,398,67.00,-42.00,-1032.00
2024-06-07 11:01:57.342296,3,3,6,0,0,0,78,80,173,100,37,134.69,398,45.00,-38.00,-1006.00
2024-06-07 11:01:57.347161,3,2,6,0,0,0,78,80,175,100,37,134.67,398,27.00,-79.00,-1000.00
2024-06-07 11:01:57.546572,2,2,6,0,0,0,78,80,174,100,37,134.62,398,36.00,-56.00,-1001.00
2024-06-07 11:01:57.550756,2,2,7,0,0,0,78,80,174,100,37,134.61,398,18.00,-60.00,-1009.00
2024-06-07 11:01:57.652743,2,2,7,0,0,0,78,80,173,100,37,134.59,399,15.00,-86.00,-1000.00
2024-06-07 11:01:57.754561,2,3,7,0,0,0,78,80,174,100,37,134.60,399,21.00,-88.00,-993.00
2024-06-07 11:01:57.856771,1,4,7,0,0,0,78,80,174,100,37,134.56,399,9.00,-49.00,-969.00
2024-06-07 11:01:57.958531,1,4,7,0,0,0,78,80,173,100,37,134.58,399,22.00,-51.00,-930.00
2024-06-07 11:01:58.060495,1,3,6,0,0,1,77,80,173,100,37,134.56,399,36.00,-79.00,-940.00
2024-06-07 11:01:58.162590,1,3,6,0,0,1,77,80,172,100,37,134.52,399,41.00,-88.00,-945.00
2024-06-07 11:01:58.365842,1,3,6,0,0,2,77,80,168,100,37,134.50,399,49.00,-62.00,-928.00
2024-06-07 11:01:58.366661,2,3,6,0,0,2,77,80,168,90,37,134.56,399,23.00,-69.00,-945.00
2024-06-07 11:01:58.574123,2,3,6,0,0,2,77,80,164,90,37,134.50,399,16.00,-46.00,-992.00
2024-06-07 11:01:58.574346,2,3,6,0,0,3,77,80,161,90,37,134.55,399,17.00,-51.00,-1004.00
2024-06-07 11:01:58.621694,1,3,7,0,0,3,77,80,159,80,37,134.48,400,-5.00,-63.00,-1020.00
2024-06-07 11:01:58.775206,0,4,7,0,0,3,77,80,154,80,37,134.43,400,1.00,-71.00,-1043.00
2024-06-07 11:01:58.825631,0,4,7,0,0,2,77,80,152,80,37,134.38,400,-7.00,-56.00,-1008.00
2024-06-07 11:01:58.981483,0,4,7,0,0,2,77,80,150,80,37,134.31,400,-9.00,-47.00,-991.00
2024-06-07 11:01:59.080652,0,3,7,0,0,2,77,80,146,70,37,134.29,400,-3.00,-63.00,-1020.00
2024-06-07 11:01:59.131571,-1,3,7,0,0,2,77,80,144,70,37,134.35,400,13.00,-45.00,-982.00
2024-06-07 11:01:59.288959,0,2,7,0,0,2,77,80,143,70,37,134.19,400,6.00,-45.00,-1013.00
2024-06-07 11:01:59.335626,0,2,7,0,0,2,77,80,140,70,37,134.18,400,4.00,-38.00,-959.00
2024-06-07 11:01:59.492189,0,2,7,0,0,1,77,80,138,60,37,134.13,400,15.00,-47.00,-1037.00
2024-06-07 11:01:59.539599,0,2,7,0,0,1,77,80,137,60,37,134.11,400,-1.00,-47.00,-997.00
2024-06-07 11:01:59.696829,0,2,7,0,0,1,77,80,135,60,37,134.10,401,-7.00,-47.00,-980.00
2024-06-07 11:01:59.744113,0,3,7,0,0,1,77,80,134,60,37,134.09,401,12.00,-20.00,-981.00
2024-06-07 11:01:59.846736,0,2,7,0,0,1,77,80,133,60,37,134.08,401,25.00,-27.00,-1008.00
2024-06-07 11:02:00.003999,0,1,7,0,0,1,77,80,131,60,37,134.07,401,19.00,-26.00,-1022.00
2024-06-07 11:02:00.049711,1,1,7,0,0,0,77,80,130,60,37,134.06,401,10.00,-17.00,-1019.00
2024-06-07 11:02:00.208945,1,1,7,0,0,0,77,80,130,60,37,134.16,401,20.00,-37.00,-992.00
2024-06-07 11:02:00.255389,1,1,7,0,0,0,77,80,128,60,37,134.12,401,27.00,-37.00,-1020.00
2024-06-07 11:02:00.357647,1,1,7,0,0,0,77,80,129,60,37,134.13,401,4.00,-57.00,-967.00
2024-06-07 11:02:00.459839,1,1,7,0,0,0,77,80,128,60,37,134.08,401,7.00,-17.00,-980.00
2024-06-07 11:02:00.559858,1,1,7,0,0,0,77,80,128,50,37,134.13,401,15.00,-68.00,-1005.00
2024-06-07 11:02:00.720934,1,2,7,0,0,0,77,80,127,50,37,134.15,402,20.00,-62.00,-1027.00
2024-06-07 11:02:00.764546,0,2,7,0,0,0,77,80,127,50,37,134.06,402,39.00,-61.00,-1026.00
2024-06-07 11:02:00.925706,1,3,7,0,0,0,77,80,127,50,37,134.10,402,29.00,-67.00,-950.00
2024-06-07 11:02:00.967579,1,3,7,0,0,0,77,80,127,50,37,134.19,402,24.00,-62.00,-998.00
2024-06-07 11:02:01.131556,1,3,7,0,0,0,77,80,127,50,37,134.10,402,5.00,-58.00,-1019.00
2024-06-07 11:02:01.171542,1,3,7,0,0,0,77,80,126,50,37,134.03,402,-2.00,-67.00,-1036.00
2024-06-07 11:02:01.336441,1,3,7,0,0,0,77,80,126,50,37,134.12,402,5.00,-58.00,-985.00
2024-06-07 11:02:01.375787,1,3,7,0,0,0,77,80,126,50,37,134.15,402,10.00,-69.00,-994.00
2024-06-07 11:02:01.540236,0,3,7,0,0,0,77,80,125,50,37,134.14,402,26.00,-70.00,-1024.00
2024-06-07 11:02:01.579586,1,2,7,0,0,0,77,80,126,50,37,134.12,402,11.00,-42.00,-983.00
2024-06-07 11:02:01.849453,0,3,6,0,0,0,77,80,126,50,37,134.04,403,4.00,-35.00,-1018.00
2024-06-07 11:02:01.849699,0,3,6,0,0,0,77,80,126,50,37,134.07,403,28.00,-62.00,-1025.00
2024-06-07 11:02:01.887713,1,2,6,0,0,0,77,80,126,50,37,134.10,403,29.00,-22.00,-973.00
2024-06-07 11:02:01.988224,1,2,6,0,0,0,77,80,125,50,37,134.01,403,15.00,-35.00,-1011.00
2024-06-07 11:02:02.154513,1,1,6,0,0,0,77,80,125,50,37,134.05,403,37.00,-27.00,-1024.00
2024-06-07 11:02:02.191532,1,0,6,0,0,0,77,80,125,50,37,134.04,403,19.00,-30.00,-1006.00
2024-06-07 11:02:02.359536,1,0,6,0,0,0,77,80,124,50,37,134.03,403,22.00,-27.00,-984.00
2024-06-07 11:02:02.395645,1,0,6,0,0,0,77,80,125,50,37,134.04,403,6.00,-19.00,-957.00
2024-06-07 11:02:02.566871,1,0,6,0,0,0,77,80,125,50,37,134.04,403,22.00,-22.00,-1029.00
2024-06-07 11:02:02.599469,1,0,6,0,0,0,77,80,126,50,37,134.09,403,27.00,1.00,-975.00
2024-06-07 11:02:02.650167,1,0,6,0,0,0,77,80,125,50,37,134.06,404,9.00,-8.00,-1002.00
2024-06-07 11:02:02.768870,-2,1,6,0,0,0,77,80,127,50,37,134.04,404,26.00,-21.00,-1043.00
2024-06-07 11:02:02.854701,-7,1,6,1,0,0,77,80,127,50,37,134.13,404,39.00,-26.00,-1022.00
2024-06-07 11:02:02.956597,-7,1,6,2,0,0,77,80,128,50,37,134.23,404,17.00,-25.00,-986.00
2024-06-07 11:02:03.077321,-7,1,6,4,0,0,77,81,128,50,37,134.18,404,-20.00,-27.00,-983.00
2024-06-07 11:02:03.163024,-6,1,6,5,0,0,77,81,129,50,37,134.18,404,-16.00,-24.00,-988.00
2024-06-07 11:02:03.263022,-5,1,6,6,1,0,77,81,129,50,37,134.19,404,-28.00,-22.00,-1025.00
2024-06-07 11:02:03.383622,-4,1,6,7,1,0,77,81,129,50,37,134.22,404,-25.00,-13.00,-976.00
2024-06-07 11:02:03.466172,-3,0,7,7,1,0,77,81,128,60,37,134.18,404,-52.00,-25.00,-974.00
2024-06-07 11:02:03.590378,-1,0,7,7,1,0,77,81,129,60,37,134.25,404,-4.00,-37.00,-1061.00
2024-06-07 11:02:03.670203,1,0,7,7,0,0,77,81,129,60,37,134.21,405,-48.00,-12.00,-977.00
2024-06-07 11:02:03.793153,3,1,7,7,0,0,77,81,128,60,37,134.27,405,-36.00,-4.00,-962.00
2024-06-07 11:02:03.874148,5,1,7,6,0,0,77,81,128,60,37,134.27,405,-26.00,-5.00,-1016.00
2024-06-07 11:02:03.998884,5,1,7,4,0,0,77,81,128,60,37,134.26,405,-34.00,-22.00,-1036.00
2024-06-07 11:02:04.078455,3,1,7,3,0,0,78,80,127,60,37,134.24,405,-6.00,-8.00,-1035.00
2024-06-07 11:02:04.202344,2,1,7,3,0,0,78,80,127,50,37,134.22,405,-14.00,-14.00,-1022.00
2024-06-07 11:02:04.282165,1,0,7,3,0,0,78,80,126,50,37,134.20,405,7.00,-15.00,-1005.00
2024-06-07 11:02:04.407085,1,1,7,2,0,0,78,80,128,50,37,134.21,405,-11.00,-16.00,-1025.00
2024-06-07 11:02:04.486181,1,1,7,2,0,0,78,80,127,50,37,134.22,405,-6.00,-20.00,-1009.00
2024-06-07 11:02:04.612002,1,1,7,2,0,0,78,80,127,50,37,134.16,405,13.00,-15.00,-1006.00
2024-06-07 11:02:04.690167,1,1,6,2,0,0,78,80,127,50,37,134.17,406,-3.00,-19.00,-1009.00
2024-06-07 11:02:04.816812,1,0,6,1,0,0,78,80,127,50,37,134.12,406,-20.00,-28.00,-985.00
2024-06-07 11:02:04.894149,3,-1,6,1,0,0,78,80,127,50,37,134.17,406,-2.00,-41.00,-1030.00
2024-06-07 11:02:05.023121,4,-1,6,1,0,0,78,80,127,50,37,134.22,406,5.00,-44.00,-1011.00
2024-06-07 11:02:05.112331,2,1,7,0,-1,0,78,80,127,50,37,134.14,406,43.00,-52.00,-1028.00
2024-06-07 11:02:05.200115,1,6,7,0,-1,0,78,80,127,50,37,134.14,406,34.00,-45.00,-1007.00
2024-06-07 11:02:05.303922,1,4,7,0,0,0,78,80,127,50,37,134.19,406,13.00,-54.00,-988.00
2024-06-07 11:02:05.404255,1,3,6,0,0,0,78,80,126,50,37,134.24,406,26.00,-65.00,-963.00
2024-06-07 11:02:05.506248,1,3,6,0,0,0,78,80,126,50,37,134.23,406,20.00,-40.00,-988.00
2024-06-07 11:02:05.636322,1,3,6,0,0,0,78,80,125,50,37,134.16,406,18.00,-61.00,-1002.00
2024-06-07 11:02:05.718502,1,3,6,0,0,0,78,80,126,50,37,134.22,407,11.00,-48.00,-972.00
2024-06-07 11:02:05.813045,1,3,7,0,0,0,78,80,125,50,37,134.22,407,22.00,-59.00,-995.00
2024-06-07 11:02:05.945065,1,3,7,0,0,0,78,80,126,50,37,134.19,407,24.00,-37.00,-966.00
2024-06-07 11:02:06.016460,1,3,7,0,0,0,78,80,126,50,37,134.16,407,19.00,-72.00,-1007.00
2024-06-07 11:02:06.118191,1,3,7,0,0,0,77,80,126,50,37,134.20,407,15.00,-46.00,-1000.00
2024-06-07 11:02:06.255178,1,3,7,0,0,0,77,80,125,50,37,134.23,407,1.00,-74.00,-970.00
2024-06-07 11:02:06.322211,1,3,7,0,0,0,77,80,126,50,37,134.25,407,6.00,-63.00,-1059.00
2024-06-07 11:02:06.458236,0,2,7,0,0,0,77,80,125,50,37,134.26,407,-6.00,-52.00,-992.00
2024-06-07 11:02:06.475320,0,2,7,0,0,0,77,80,125,50,37,134.22,407,-3.00,-45.00,-963.00
2024-06-07 11:02:06.661419,0,2,7,0,0,0,77,80,126,50,37,134.15,407,35.00,-57.00,-1057.00
2024-06-07 11:02:06.679359,0,2,7,0,0,0,77,80,126,50,37,134.20,408,40.00,-61.00,-1032.00
2024-06-07 11:02:06.866652,0,3,7,0,0,0,77,80,126,50,37,134.14,408,30.00,-61.00,-989.00
2024-06-07 11:02:06.884496,0,3,6,0,0,0,77,80,126,50,37,134.18,408,4.00,-62.00,-937.00
2024-06-07 11:02:07.070097,1,3,6,0,0,0,77,80,129,50,37,134.19,408,11.00,-53.00,-999.00
2024-06-07 11:02:07.089450,1,3,6,0,0,0,77,80,128,50,37,134.21,408,14.00,-33.00,-980.00
2024-06-07 11:02:07.189372,1,3,6,0,0,0,77,80,128,60,37,134.15,408,8.00,-64.00,-1020.00
2024-06-07 11:02:07.293184,1,3,6,0,0,0,77,80,128,60,37,134.16,408,16.00,-48.00,-1025.00
2024-06-07 11:02:07.398767,0,3,6,0,0,0,77,80,129,60,37,134.18,408,33.00,-31.00,-968.00
2024-06-07 11:02:07.500437,4,2,6,0,0,0,77,80,130,60,37,134.15,408,23.00,-29.00,-981.00
2024-06-07 11:02:07.597204,8,1,6,0,0,0,77,80,129,60,37,134.11,408,35.00,-34.00,-1013.00
2024-06-07 11:02:07.786926,8,1,6,-1,0,0,77,80,128,60,37,134.13,409,37.00,-54.00,-1012.00
2024-06-07 11:02:07.801160,8,1,6,-2,0,0,77,80,128,50,37,134.09,409,47.00,-45.00,-1005.00
2024-06-07 11:02:07.992207,8,1,6,-3,0,0,77,80,129,50,37,134.13,409,51.00,-24.00,-1006.00
2024-06-07 11:02:08.016675,8,1,6,-4,0,0,77,80,128,50,37,134.11,409,44.00,-19.00,-967.00
2024-06-07 11:02:08.109034,8,1,7,-5,0,0,77,80,128,50,37,134.14,409,62.00,-14.00,-1039.00
2024-06-07 11:02:08.209270,8,1,7,-6,0,0,77,80,128,50,37,134.20,409,75.00,-18.00,-1012.00
2024-06-07 11:02:08.403067,7,1,6,-7,0,0,77,80,129,50,37,134.10,409,78.00,-54.00,-989.00
2024-06-07 11:02:08.414592,5,1,6,-7,0,0,77,80,130,50,37,134.14,409,98.00,-24.00,-985.00
2024-06-07 11:02:08.626784,1,1,6,-7,0,0,77,80,129,60,37,134.05,409,102.00,-18.00,-1010.00
2024-06-07 11:02:08.631463,0,0,6,-7,0,0,77,80,129,60,37,134.13,409,82.00,-8.00,-1023.00
2024-06-07 11:02:08.719223,-2,0,6,-6,0,0,77,80,128,60,37,134.11,410,80.00,-45.00,-978.00
2024-06-07 11:02:08.821419,-2,0,6,-4,0,0,77,80,129,60,37,134.13,410,64.00,-27.00,-988.00
2024-06-07 11:02:09.015059,-1,0,6,-4,0,0,77,80,128,60,37,134.11,410,60.00,-42.00,-987.00
2024-06-07 11:02:09.034423,0,0,6,-3,0,0,77,80,129,60,37,134.15,410,52.00,-4.00,-970.00
2024-06-07 11:02:09.127104,0,0,6,-3,0,0,77,80,129,60,37,134.08,410,26.00,-13.00,-1003.00
2024-06-07 11:02:09.327268,1,0,6,-2,0,0,77,80,129,60,37,134.20,410,42.00,-39.00,-1015.00
2024-06-07 11:02:09.338280,1,0,6,-2,0,0,77,80,128,60,37,134.19,410,43.00,-53.00,-967.00
2024-06-07 11:02:09.433272,1,0,6,-2,0,0,77,80,128,60,37,134.17,410,29.00,-48.00,-992.00
2024-06-07 11:02:09.629496,1,0,6,-2,-1,0,77,80,127,60,36,134.14,410,36.00,-27.00,-1002.00
2024-06-07 11:02:09.640187,1,1,6,-2,-1,0,77,80,127,60,36,134.08,410,34.00,-50.00,-1061.00
2024-06-07 11:02:09.740664,1,5,6,-2,-1,0,77,80,128,60,36,134.14,411,9.00,-30.00,-995.00
2024-06-07 11:02:09.844051,-2,4,6,-1,0,0,77,80,128,50,36,134.21,411,37.00,-40.00,-993.00
2024-06-07 11:02:09.943274,-2,3,6,-1,0,0,77,80,128,50,36,134.19,411,17.00,-37.00,-1017.00
2024-06-07 11:02:10.143278,0,2,6,0,0,0,77,80,128,50,36,134.17,411,7.00,-54.00,-985.00
2024-06-07 11:02:10.151456,0,2,7,0,0,0,77,80,127,50,36,134.26,411,22.00,-29.00,-975.00
2024-06-07 11:02:10.249375,0,1,7,0,0,0,77,80,127,50,36,134.26,411,-3.00,-13.00,-961.00
2024-06-07 11:02:10.299899,0,1,7,0,0,0,77,80,127,50,36,134.22,411,7.00,-26.00,-1014.00
2024-06-07 11:02:10.449293,0,1,7,0,0,0,77,80,128,50,36,134.26,411,8.00,-23.00,-999.00
2024-06-07 11:02:10.503950,0,1,7,0,0,0,77,80,128,50,36,134.23,411,6.00,-17.00,-959.00
2024-06-07 11:02:10.654916,0,0,7,0,0,0,77,80,129,50,36,134.25,411,0.00,-6.00,-990.00
2024-06-07 11:02:10.708001,0,0,7,0,0,0,77,80,128,50,36,134.20,412,15.00,-33.00,-1015.00
2024-06-07 11:02:10.862077,0,1,7,0,0,0,77,80,130,50,36,134.15,412,21.00,-5.00,-997.00
2024-06-07 11:02:10.912202,0,1,7,0,0,0,77,80,130,60,36,134.24,412,-6.00,-23.00,-971.00
2024-06-07 11:02:11.064810,0,0,7,0,0,0,77,80,129,60,36,134.20,412,5.00,-23.00,-1005.00
2024-06-07 11:02:11.116194,0,0,7,0,0,0,77,80,129,60,36,134.24,412,8.00,-21.00,-973.00
2024-06-07 11:02:11.218262,0,0,7,0,0,0,77,80,130,60,36,134.33,412,30.00,-19.00,-1011.00
2024-06-07 11:02:11.370469,0,0,7,0,0,0,77,80,130,60,36,134.20,412,23.00,-13.00,-981.00
2024-06-07 11:02:11.421825,0,0,7,0,0,0,77,80,128,60,36,134.23,412,-2.00,-11.00,-970.00
2024-06-07 11:02:11.575316,0,0,7,0,0,0,77,80,129,60,35,134.20,412,10.00,12.00,-979.00
2024-06-07 11:02:11.625873,0,0,7,0,0,0,77,80,128,60,35,134.23,413,11.00,-3.00,-1009.00
2024-06-07 11:02:11.780363,0,-1,6,0,0,0,77,80,128,60,35,134.20,413,-25.00,7.00,-989.00
2024-06-07 11:02:11.829819,0,0,6,0,0,0,77,80,127,60,35,134.17,413,-2.00,10.00,-977.00
2024-06-07 11:02:11.931889,0,0,6,0,0,0,77,80,126,60,35,134.22,413,1.00,-14.00,-1002.00
2024-06-07 11:02:12.034826,0,-1,6,0,0,0,77,80,127,50,35,134.27,413,4.00,6.00,-1014.00
2024-06-07 11:02:12.136100,0,-6,6,0,0,0,77,80,127,50,35,134.24,413,0.00,-1.00,-1031.00
2024-06-07 11:02:12.292001,0,-7,6,0,-1,0,77,80,128,50,35,134.27,413,17.00,29.00,-1054.00
2024-06-07 11:02:12.339606,0,-5,6,0,-2,0,77,80,128,50,35,134.24,413,-24.00,34.00,-967.00
2024-06-07 11:02:12.497909,0,-3,6,0,-3,0,77,80,127,50,35,134.19,413,-10.00,18.00,-992.00
2024-06-07 11:02:12.544385,0,0,6,0,-3,0,77,80,126,50,35,134.19,413,-11.00,30.00,-983.00
2024-06-07 11:02:12.701569,0,0,6,0,-2,0,77,80,127,50,35,134.18,414,-1.00,36.00,-1034.00
2024-06-07 11:02:12.748626,0,0,6,0,-2,0,77,80,126,50,35,134.25,414,-8.00,0.00,-1013.00
2024-06-07 11:02:12.908926,0,0,6,0,-2,0,77,80,127,50,35,134.24,414,3.00,5.00,-968.00
2024-06-07 11:02:12.952314,0,0,6,0,-2,0,77,80,126,50,35,134.31,414,-2.00,14.00,-1012.00
2024-06-07 11:02:13.112391,0,0,6,0,-2,0,77,80,127,50,35,134.25,414,-13.00,1.00,-1001.00
2024-06-07 11:02:13.155657,0,0,6,0,-2,0,76,80,126,50,35,134.23,414,-11.00,12.00,-980.00
2024-06-07 11:02:13.315999,0,0,6,0,-2,0,76,80,127,50,35,134.25,414,-6.00,28.00,-1029.00
2024-06-07 11:02:13.359692,0,0,6,0,-2,0,76,80,127,50,35,134.29,414,-16.00,16.00,-968.00
2024-06-07 11:02:13.528405,0,0,6,0,-2,0,76,80,127,50,35,134.29,414,-10.00,17.00,-988.00
2024-06-07 11:02:13.563803,0,0,6,0,-2,0,76,80,127,50,35,134.18,414,-2.00,18.00,-956.00
2024-06-07 11:02:13.725571,0,0,6,0,-2,0,76,80,126,50,35,134.23,415,0.00,-7.00,-1022.00
2024-06-07 11:02:13.771749,0,0,6,0,-2,0,76,80,128,50,35,134.23,415,0.00,17.00,-992.00
2024-06-07 11:02:13.870079,-2,0,6,0,-2,0,76,80,127,50,35,134.22,415,4.00,-13.00,-995.00
2024-06-07 11:02:13.920924,-1,0,6,0,-1,0,76,80,128,50,35,134.21,415,-14.00,2.00,-976.00
2024-06-07 11:02:14.032809,1,0,6,0,-1,0,76,80,128,50,35,134.25,415,-16.00,9.00,-978.00
2024-06-07 11:02:14.176112,1,0,6,0,-1,0,77,80,128,50,35,134.19,415,-17.00,13.00,-984.00
2024-06-07 11:02:14.332016,0,0,6,0,-1,0,77,80,126,50,35,134.23,415,-1.00,9.00,-1015.00
2024-06-07 11:02:14.380071,0,4,6,0,-1,0,77,80,128,50,35,134.22,415,7.00,12.00,-1030.00
2024-06-07 11:02:14.544767,0,4,6,0,0,0,77,80,129,50,35,134.25,415,-15.00,9.00,-967.00
2024-06-07 11:02:14.545709,0,2,7,0,0,0,77,80,128,50,34,134.25,415,-5.00,-16.00,-1013.00
2024-06-07 11:02:14.639673,0,1,7,0,0,0,77,80,129,50,34,134.29,416,-5.00,-5.00,-1013.00
2024-06-07 11:02:14.737018,0,0,7,0,0,0,77,80,128,50,34,134.25,416,-9.00,-16.00,-989.00
2024-06-07 11:02:14.852077,0,0,7,0,0,0,77,80,128,60,34,134.29,416,7.00,0.00,-951.00
2024-06-07 11:02:14.940957,0,-1,7,0,0,0,77,80,130,60,34,134.22,416,-2.00,17.00,-948.00
2024-06-07 11:02:15.159272,0,-1,7,0,0,0,77,80,129,60,34,134.29,416,5.00,6.00,-1010.00
2024-06-07 11:02:15.159955,0,0,7,0,0,0,77,79,130,60,34,134.27,416,25.00,4.00,-1038.00
2024-06-07 11:02:15.247014,0,0,7,0,0,0,77,79,129,60,34,134.28,416,-17.00,18.00,-948.00
2024-06-07 11:02:15.349379,0,1,7,0,0,0,77,79,129,60,34,134.25,416,-1.00,-3.00,-972.00
2024-06-07 11:02:15.467776,0,1,7,0,0,0,77,79,130,60,34,134.29,416,-7.00,9.00,-969.00
2024-06-07 11:02:15.556293,0,1,7,0,0,0,77,79,129,60,34,134.20,416,2.00,-7.00,-1001.00
2024-06-07 11:02:15.655044,0,1,6,0,0,0,77,79,128,60,34,134.22,417,-19.00,-14.00,-1004.00
2024-06-07 11:02:15.757015,0,1,6,0,0,0,77,79,129,60,34,134.22,417,7.00,-1.00,-1027.00
2024-06-07 11:02:15.860039,0,0,6,0,0,0,77,79,129,60,34,134.22,417,-12.00,-10.00,-1012.00
2024-06-07 11:02:15.960966,0,0,6,0,0,0,77,79,130,60,34,134.26,417,-3.00,2.00,-970.00
2024-06-07 11:02:16.064423,0,0,6,0,0,0,77,79,129,60,34,134.25,417,0.00,-2.00,-973.00
2024-06-07 11:02:16.165457,0,0,6,0,0,0,77,80,128,60,34,134.26,417,1.00,-4.00,-1014.00
2024-06-07 11:02:16.288004,0,0,6,0,0,0,77,80,128,50,34,134.30,417,-7.00,-15.00,-998.00
2024-06-07 11:02:16.368918,0,0,6,0,0,0,77,80,128,50,34,134.26,417,-9.00,2.00,-986.00
2024-06-07 11:02:16.471545,0,0,7,0,0,0,77,80,130,50,34,134.27,417,-32.00,12.00,-934.00
2024-06-07 11:02:16.572736,0,0,7,0,0,0,77,80,130,50,34,134.26,417,15.00,5.00,-1008.00
2024-06-07 11:02:16.701418,0,0,7,0,0,0,77,80,130,50,34,134.25,418,4.00,-17.00,-1009.00
2024-06-07 11:02:16.776713,0,5,7,0,0,0,77,80,131,60,34,134.32,418,-1.00,1.00,-999.00
2024-06-07 11:02:16.878878,0,8,7,0,1,0,77,80,133,60,34,134.21,418,14.00,11.00,-1017.00
2024-06-07 11:02:17.002350,0,6,7,0,2,0,77,80,131,60,34,134.25,418,0.00,-15.00,-1005.00
2024-06-07 11:02:17.089896,0,4,7,0,3,0,77,80,131,60,34,134.29,418,4.00,-72.00,-1013.00
2024-06-07 11:02:17.188523,0,1,7,0,3,0,77,79,132,60,34,134.31,418,3.00,-32.00,-961.00
2024-06-07 11:02:17.286804,0,0,7,0,3,0,77,79,131,60,34,134.29,418,-6.00,-18.00,-930.00
2024-06-07 11:02:17.413075,0,0,7,0,3,0,77,79,131,60,34,134.25,418,1.00,-23.00,-999.00
2024-06-07 11:02:17.490787,1,0,7,0,3,0,77,79,131,60,33,134.34,418,-6.00,-37.00,-977.00
2024-06-07 11:02:17.616780,1,0,7,0,3,0,77,79,129,60,33,134.30,418,-8.00,-23.00,-1009.00
2024-06-07 11:02:17.695104,0,0,7,0,2,0,77,79,129,60,33,134.30,419,-15.00,-23.00,-1012.00
2024-06-07 11:02:17.797257,0,0,7,0,2,0,77,79,128,60,33,134.35,419,10.00,-22.00,-985.00
2024-06-07 11:02:17.848759,0,0,7,0,2,0,77,79,128,60,33,134.33,419,-7.00,-17.00,-1007.00
2024-06-07 11:02:18.027360,0,0,7,0,2,0,77,79,127,60,33,134.38,419,-6.00,-13.00,-1001.00
2024-06-07 11:02:18.053754,0,0,7,0,2,0,77,79,127,60,33,134.30,419,-3.00,-20.00,-972.00
2024-06-07 11:02:18.159907,0,1,7,0,2,0,77,80,126,50,33,134.25,419,29.00,-33.00,-1028.00
2024-06-07 11:02:18.257204,0,0,7,0,2,0,77,80,126,50,33,134.26,419,-1.00,6.00,-988.00
2024-06-07 11:02:18.359544,0,-4,7,0,1,0,77,80,126,50,33,134.31,419,-9.00,-30.00,-1018.00
2024-06-07 11:02:18.460976,0,-2,7,0,1,0,77,80,126,50,33,134.24,419,3.00,-15.00,-1000.00
2024-06-07 11:02:18.641564,0,0,7,0,0,0,77,80,125,50,33,134.18,419,7.00,-2.00,-970.00
2024-06-07 11:02:18.665519,0,0,7,0,0,0,77,80,125,50,33,134.27,420,6.00,2.00,-990.00
2024-06-07 11:02:18.847034,0,0,6,0,0,0,77,80,126,50,33,134.25,420,3.00,4.00,-1005.00
2024-06-07 11:02:18.869423,0,0,6,0,0,0,77,80,126,50,33,134.28,420,6.00,-5.00,-1025.00
2024-06-07 11:02:19.052519,0,0,6,0,0,0,77,80,126,50,33,134.27,420,-6.00,1.00,-1016.00
2024-06-07 11:02:19.073004,0,0,6,0,0,0,77,80,126,50,33,134.22,420,1.00,3.00,-997.00
2024-06-07 11:02:19.174660,0,0,6,0,0,0,77,79,126,50,33,134.23,420,-6.00,1.00,-971.00
2024-06-07 11:02:19.277022,0,0,6,0,0,0,77,79,127,50,33,134.21,420,-8.00,-6.00,-990.00
2024-06-07 11:02:19.460077,0,0,7,0,0,0,77,79,126,50,33,134.29,420,-1.00,0.00,-1006.00
2024-06-07 11:02:19.480772,0,0,6,0,0,0,77,79,126,50,33,134.22,420,13.00,-10.00,-1035.00
2024-06-07 11:02:19.582691,0,0,6,0,0,0,77,79,127,50,33,134.32,420,0.00,-16.00,-1007.00
2024-06-07 11:02:19.684373,0,0,6,0,0,0,77,79,127,50,33,134.31,421,6.00,0.00,-978.00
2024-06-07 11:02:19.788970,0,0,6,0,0,0,77,79,127,50,33,134.23,421,12.00,5.00,-971.00
2024-06-07 11:02:19.888777,0,0,6,0,0,0,77,79,127,50,33,134.30,421,1.00,8.00,-1001.00
2024-06-07 11:02:20.077085,1,0,6,0,0,0,77,79,127,50,33,134.22,421,10.00,-9.00,-973.00
2024-06-07 11:02:20.093169,1,0,6,0,0,0,77,79,126,50,33,134.29,421,21.00,-1.00,-996.00
2024-06-07 11:02:20.194612,0,0,6,0,0,0,77,79,125,50,33,134.25,421,18.00,-3.00,-976.00
2024-06-07 11:02:20.296863,1,0,6,0,0,0,77,79,125,50,33,134.28,421,19.00,-22.00,-1004.00
2024-06-07 11:02:20.399899,1,0,6,0,0,0,77,79,127,50,33,134.27,421,21.00,4.00,-956.00
2024-06-07 11:02:20.503224,1,0,6,0,0,0,77,79,126,50,33,134.24,421,27.00,-20.00,-1041.00
2024-06-07 11:02:20.604819,1,0,6,0,0,0,77,79,127,50,33,134.30,421,41.00,-27.00,-972.00
2024-06-07 11:02:20.705440,1,0,11,0,0,0,77,79,127,50,33,134.20,422,18.00,-17.00,-991.00
2024-06-07 11:02:20.806491,0,0,16,0,0,0,77,79,126,50,33,134.24,422,25.00,-15.00,-1004.00
2024-06-07 11:02:20.908461,0,0,22,0,0,0,77,79,127,50,33,134.23,422,23.00,-2.00,-1005.00
2024-06-07 11:02:21.010652,0,0,27,0,0,0,77,79,128,50,33,134.22,422,16.00,-11.00,-1000.00
2024-06-07 11:02:21.202446,1,0,33,0,0,0,77,79,127,50,33,134.16,422,16.00,18.00,-1014.00
2024-06-07 11:02:21.219975,1,0,38,0,0,0,77,80,128,50,33,134.24,422,38.00,-17.00,-1020.00
2024-06-07 11:02:21.320311,1,0,44,0,0,0,77,80,128,50,33,134.24,422,52.00,16.00,-1012.00
2024-06-07 11:02:21.420536,1,0,50,0,0,0,77,80,128,60,33,134.29,422,19.00,7.00,-995.00
2024-06-07 11:02:21.612398,1,0,56,0,0,0,77,80,128,60,32,134.31,422,28.00,3.00,-1012.00
2024-06-07 11:02:21.625714,1,0,61,0,0,0,77,80,128,60,32,134.24,422,33.00,-6.00,-975.00
2024-06-07 11:02:21.674359,1,0,66,0,0,0,77,80,128,60,32,134.21,423,17.00,-4.00,-996.00
2024-06-07 11:02:21.816125,1,0,71,0,0,0,77,80,128,60,32,134.20,423,37.00,-14.00,-1009.00
2024-06-07 11:02:21.878482,1,0,77,0,0,0,77,80,127,60,32,134.22,423,38.00,-25.00,-1007.00
2024-06-07 11:02:22.019876,1,0,82,0,0,0,77,80,127,60,32,134.23,423,41.00,-17.00,-973.00
2024-06-07 11:02:22.082839,1,0,88,0,0,0,77,80,128,60,32,134.22,423,30.00,-14.00,-987.00
2024-06-07 11:02:22.184430,1,0,93,0,0,0,76,80,127,60,32,134.21,423,43.00,-26.00,-1004.00
2024-06-07 11:02:22.330624,1,1,98,0,0,0,76,80,128,60,32,134.23,423,44.00,-21.00,-982.00
2024-06-07 11:02:22.389135,1,1,104,0,0,0,76,80,127,60,32,134.12,423,40.00,-17.00,-1019.00
2024-06-07 11:02:22.527430,2,1,109,0,0,0,76,80,125,50,32,134.20,423,35.00,-35.00,-985.00
2024-06-07 11:02:22.592982,2,1,114,0,0,0,76,80,125,50,32,134.23,423,18.00,-35.00,-992.00
2024-06-07 11:02:22.736691,1,1,119,0,0,0,76,80,126,50,32,134.18,424,25.00,-46.00,-1003.00
2024-06-07 11:02:22.796530,2,2,125,0,0,0,76,80,126,50,32,134.14,424,25.00,-40.00,-975.00
2024-06-07 11:02:22.941491,1,1,131,0,0,0,76,80,125,50,32,134.24,424,21.00,-11.00,-992.00
2024-06-07 11:02:23.000890,1,2,137,0,0,0,76,80,125,50,32,134.19,424,25.00,-37.00,-1009.00
2024-06-07 11:02:23.148228,1,2,143,0,0,0,76,80,126,50,32,134.22,424,18.00,-24.00,-993.00
2024-06-07 11:02:23.204099,1,2,149,0,0,0,77,79,126,50,32,134.21,424,17.00,-46.00,-1011.00
2024-06-07 11:02:23.351064,1,2,155,0,0,0,77,79,125,50,32,134.16,424,23.00,-26.00,-978.00
2024-06-07 11:02:23.408350,1,2,161,0,0,0,77,79,124,50,32,134.24,424,19.00,-54.00,-991.00
2024-06-07 11:02:23.555886,1,3,166,0,0,0,77,79,127,50,32,134.23,424,25.00,-49.00,-990.00
2024-06-07 11:02:23.612270,1,3,172,0,0,0,77,79,126,50,32,134.21,424,23.00,-54.00,-981.00
2024-06-07 11:02:23.760689,1,3,178,0,0,0,77,79,127,50,32,134.27,425,9.00,-56.00,-984.00
2024-06-07 11:02:23.816301,1,3,-175,0,0,0,77,79,127,50,32,134.24,425,7.00,-45.00,-1017.00
2024-06-07 11:02:24.070614,1,3,-170,0,0,0,77,79,127,50,32,134.27,425,7.00,-73.00,-1001.00
2024-06-07 11:02:24.070680,0,3,-164,0,0,0,77,79,127,50,32,134.30,425,9.00,-63.00,-967.00
2024-06-07 11:02:24.122429,0,4,-158,0,0,0,77,79,127,50,32,134.29,425,4.00,-58.00,-1001.00
2024-06-07 11:02:24.224727,0,3,-152,0,0,0,77,80,128,50,32,134.32,425,-10.00,-67.00,-994.00
2024-06-07 11:02:24.375081,0,3,-146,0,0,0,77,80,127,50,32,134.27,425,-7.00,-75.00,-982.00
2024-06-07 11:02:24.428651,0,3,-140,0,0,0,77,80,126,50,32,134.30,425,-5.00,-48.00,-979.00
2024-06-07 11:02:24.582342,0,4,-134,0,0,0,77,80,126,50,31,134.33,425,-23.00,-60.00,-977.00
2024-06-07 11:02:24.632300,0,4,-128,0,0,0,77,80,126,50,31,134.27,425,-19.00,-49.00,-1005.00
2024-06-07 11:02:24.785950,0,4,-121,0,0,0,77,80,126,50,31,134.28,426,-24.00,-60.00,-998.00
2024-06-07 11:02:24.836835,-1,4,-115,0,0,0,77,80,125,50,31,134.24,426,-31.00,-39.00,-997.00
2024-06-07 11:02:24.989438,-1,3,-109,0,0,0,77,80,125,50,31,134.25,426,-30.00,-75.00,-990.00
2024-06-07 11:02:25.040317,-1,3,-103,0,0,0,77,80,124,50,31,134.22,426,-38.00,-69.00,-987.00
2024-06-07 11:02:25.194458,-2,4,-97,0,0,0,77,80,124,50,31,134.16,426,-43.00,-37.00,-993.00
2024-06-07 11:02:25.244237,-2,3,-90,0,0,0,76,80,123,50,31,134.09,426,-58.00,-51.00,-1008.00
2024-06-07 11:02:25.399055,-2,3,-84,0,0,0,76,80,122,50,31,134.15,426,-67.00,-50.00,-991.00
2024-06-07 11:02:25.448379,-3,3,-78,0,0,0,76,80,122,50,31,134.12,426,-50.00,-30.00,-1017.00
2024-06-07 11:02:25.499454,-3,2,-72,0,0,0,76,80,121,50,31,134.11,426,-61.00,-46.00,-998.00
2024-06-07 11:02:25.605768,-3,1,-66,0,0,0,76,80,122,50,31,133.91,426,-63.00,-27.00,-1003.00
2024-06-07 11:02:25.702975,-3,1,-60,0,0,0,76,80,121,50,31,134.03,427,-57.00,-18.00,-1033.00
2024-06-07 11:02:25.805244,-3,1,-53,0,0,0,76,80,121,50,31,134.03,427,-55.00,-8.00,-1065.00
2024-06-07 11:02:25.910987,-3,1,-47,0,0,0,76,80,121,50,31,134.07,427,-73.00,-3.00,-987.00
2024-06-07 11:02:26.010612,-3,0,-41,0,0,0,76,80,122,50,31,134.14,427,-66.00,12.00,-1006.00
2024-06-07 11:02:26.116000,-2,0,-35,0,0,0,76,80,122,50,31,134.11,427,-58.00,4.00,-987.00
2024-06-07 11:02:26.213477,-2,0,-23,0,0,0,78,80,122,50,31,134.06,427,-39.00,31.00,-996.00
2024-06-07 11:02:26.320670,-2,0,-17,0,0,0,78,80,122,50,31,134.12,427,-66.00,11.00,-976.00
2024-06-07 11:02:26.416953,-2,0,-11,0,0,0,78,80,123,50,31,134.04,427,-63.00,-18.00,-990.00
2024-06-07 11:02:26.525494,-2,0,-7,0,0,0,78,80,124,50,31,134.05,427,-45.00,-8.00,-1023.00
2024-06-07 11:02:26.620977,-2,0,-3,0,0,0,78,80,124,50,31,134.06,428,-57.00,37.00,-1008.00
2024-06-07 11:02:26.723164,-2,0,-1,0,0,0,78,80,125,50,31,134.08,428,-65.00,12.00,-1004.00
2024-06-07 11:02:26.832649,-2,-1,0,0,0,0,78,80,126,50,31,134.10,428,-65.00,19.00,-960.00
2024-06-07 11:02:26.926801,-2,-1,2,0,0,0,78,80,127,50,31,134.13,428,-42.00,30.00,-1037.00
2024-06-07 11:02:27.037549,-2,-1,3,0,0,0,78,80,129,50,31,134.12,428,-61.00,17.00,-993.00
2024-06-07 11:02:27.137899,-2,-1,4,0,0,0,78,80,129,50,31,134.16,428,-40.00,28.00,-1025.00
2024-06-07 11:02:27.233207,-2,-1,5,0,0,0,76,80,130,50,31,134.17,428,-44.00,4.00,-1042.00
2024-06-07 11:02:27.345312,-2,-1,5,0,0,0,76,80,131,50,31,134.16,428,-52.00,14.00,-1005.00
2024-06-07 11:02:27.437027,-2,-1,5,0,0,0,76,80,132,50,31,134.18,428,-40.00,28.00,-986.00
2024-06-07 11:02:27.549734,-2,-1,5,0,0,0,76,80,131,50,31,134.19,428,-53.00,4.00,-971.00
2024-06-07 11:02:27.641383,-2,-1,5,0,0,0,76,80,132,60,31,134.18,429,-55.00,26.00,-1002.00
2024-06-07 11:02:27.755544,-2,-1,5,0,0,0,76,80,133,60,31,134.17,429,-45.00,14.00,-996.00
2024-06-07 11:02:27.845019,-2,-1,5,0,0,0,76,80,134,60,31,134.17,429,-66.00,34.00,-954.00
2024-06-07 11:02:27.947201,-2,-1,5,0,0,0,76,80,134,60,31,134.23,429,-44.00,40.00,-994.00
2024-06-07 11:02:28.049312,-2,-1,5,0,0,0,76,80,133,60,31,134.22,429,-45.00,20.00,-987.00
2024-06-07 11:02:28.164086,-2,-1,5,0,0,0,76,80,136,60,31,134.20,429,-48.00,10.00,-976.00
2024-06-07 11:02:28.253055,-2,-1,5,0,0,0,76,80,135,60,31,134.18,429,-54.00,10.00,-1019.00
2024-06-07 11:02:28.355323,-2,-1,5,0,0,0,76,80,135,60,31,134.19,429,-75.00,20.00,-970.00
2024-06-07 11:02:28.457275,-2,0,5,0,0,0,76,80,136,60,31,134.20,429,-64.00,27.00,-969.00
2024-06-07 11:02:28.559409,-2,0,5,0,0,0,76,80,135,60,30,134.12,429,-38.00,36.00,-988.00
2024-06-07 11:02:28.676142,-3,0,5,0,0,0,76,80,135,60,30,134.15,430,-64.00,16.00,-1005.00
2024-06-07 11:02:28.763333,-3,0,5,0,0,0,76,80,134,60,30,134.17,430,-57.00,25.00,-984.00
2024-06-07 11:02:28.881608,-3,0,5,0,0,0,76,80,134,60,30,134.13,430,-58.00,-6.00,-1004.00
2024-06-07 11:02:28.968352,-3,0,5,0,0,0,76,80,134,60,30,134.17,430,-57.00,18.00,-969.00
2024-06-07 11:02:29.068945,-3,0,5,0,0,0,76,80,134,60,30,134.18,430,-50.00,14.00,-1015.00
2024-06-07 11:02:29.120176,-3,-1,5,0,0,0,76,80,133,60,30,134.14,430,-49.00,-5.00,-1031.00
2024-06-07 11:02:29.272924,-3,0,5,0,0,0,76,79,132,60,30,134.14,430,-52.00,15.00,-1000.00
2024-06-07 11:02:29.394746,-2,0,5,0,0,0,76,79,131,60,30,134.10,430,-58.00,36.00,-999.00
2024-06-07 11:02:29.476868,-3,0,0,0,0,0,76,79,130,60,30,134.11,430,-57.00,17.00,-1008.00
2024-06-07 11:02:29.597662,-2,0,-6,0,0,0,76,79,130,60,30,134.10,430,-88.00,17.00,-990.00
2024-06-07 11:02:29.630199,-2,0,-11,0,0,0,76,79,130,60,30,134.04,431,-59.00,3.00,-1017.00
2024-06-07 11:02:29.805074,-3,0,-17,0,0,0,76,79,129,60,30,134.00,431,-43.00,5.00,-997.00
2024-06-07 11:02:29.833831,-3,0,-23,0,0,0,76,79,130,60,30,133.94,431,-73.00,1.00,-1021.00
2024-06-07 11:02:29.936105,-3,0,-29,0,0,0,76,79,129,60,30,133.89,431,-131.00,-9.00,-976.00
2024-06-07 11:02:30.037850,-4,1,-34,0,0,0,76,79,130,60,30,133.99,431,-104.00,-22.00,-1038.00
2024-06-07 11:02:30.212227,-5,2,-40,0,0,0,76,79,131,60,30,133.93,431,-118.00,-5.00,-962.00
2024-06-07 11:02:30.252427,-5,1,-46,0,0,0,77,80,131,60,30,133.87,431,-111.00,-18.00,-1026.00
2024-06-07 11:02:30.343780,-6,1,-52,0,0,0,77,80,130,60,30,133.90,431,-98.00,-28.00,-1017.00
2024-06-07 11:02:30.519947,-6,1,-57,0,0,0,77,80,131,60,30,134.11,431,-96.00,-47.00,-1026.00
2024-06-07 11:02:30.548167,-6,2,-63,0,0,0,77,80,132,60,30,134.09,431,-102.00,-48.00,-1000.00
2024-06-07 11:02:30.723910,-6,3,-69,0,0,0,77,80,133,60,30,134.21,432,-95.00,-63.00,-1011.00
2024-06-07 11:02:30.751988,-5,3,-75,0,0,0,77,80,130,60,30,134.27,432,-107.00,-54.00,-935.00
2024-06-07 11:02:30.854913,-5,4,-81,0,0,0,77,80,132,60,30,134.21,432,-97.00,-88.00,-976.00
2024-06-07 11:02:31.031152,-4,5,-86,0,0,0,77,80,131,60,30,134.26,432,-78.00,-96.00,-993.00
2024-06-07 11:02:31.058779,-4,6,-92,0,0,0,77,80,131,60,30,134.28,432,-73.00,-89.00,-1014.00
2024-06-07 11:02:31.235943,-3,6,-98,0,0,0,77,80,130,60,30,134.23,432,-93.00,-114.00,-945.00
2024-06-07 11:02:31.262060,-3,7,-104,0,0,0,77,79,129,60,30,134.31,432,-40.00,-112.00,-984.00
2024-06-07 11:02:31.440727,-2,8,-109,0,0,0,77,79,129,60,30,134.27,432,-42.00,-134.00,-988.00
2024-06-07 11:02:31.466135,-1,8,-115,0,0,0,77,79,128,60,30,134.30,432,-20.00,-113.00,-984.00
2024-06-07 11:02:31.646573,0,8,-121,0,0,0,77,79,128,60,30,134.21,432,-29.00,-113.00,-955.00
2024-06-07 11:02:31.669709,0,8,-127,0,0,0,77,79,126,60,30,134.19,433,-5.00,-131.00,-990.00
2024-06-07 11:02:31.850459,1,7,-133,0,0,0,77,79,124,50,30,134.27,433,27.00,-116.00,-985.00
2024-06-07 11:02:31.873578,3,6,-139,0,0,0,77,79,124,50,30,134.22,433,28.00,-134.00,-1009.00
2024-06-07 11:02:32.055058,4,6,-145,0,0,0,77,79,123,50,30,134.19,433,39.00,-124.00,-1023.00
2024-06-07 11:02:32.081251,4,5,-151,0,0,0,77,79,123,50,30,134.11,433,60.00,-94.00,-1015.00
2024-06-07 11:02:32.179673,5,4,-158,0,0,0,77,79,124,50,30,134.10,433,61.00,-89.00,-1036.00
2024-06-07 11:02:32.362277,5,3,-164,0,0,0,77,79,124,50,30,134.06,433,83.00,-72.00,-1011.00
2024-06-07 11:02:32.384474,5,3,-170,0,0,0,77,79,124,50,30,134.12,433,96.00,-67.00,-1007.00
2024-06-07 11:02:32.567043,6,2,-177,0,0,0,77,79,125,50,30,134.10,433,102.00,-44.00,-993.00
2024-06-07 11:02:32.588153,6,1,176,0,0,0,77,79,125,50,30,134.11,433,98.00,-28.00,-1003.00
2024-06-07 11:02:32.690139,6,0,170,0,0,0,77,79,126,50,30,134.11,434,103.00,-52.00,-1009.00
2024-06-07 11:02:32.874199,6,0,163,0,0,0,77,79,128,50,30,133.93,434,116.00,-6.00,-973.00
2024-06-07 11:02:32.902304,6,0,157,0,0,0,77,79,130,50,30,133.94,434,99.00,-6.00,-999.00
2024-06-07 11:02:32.997789,6,-1,151,0,0,0,77,79,131,60,30,133.98,434,106.00,-13.00,-1007.00
2024-06-07 11:02:33.097915,6,-1,146,0,0,0,77,79,131,60,30,133.89,434,113.00,-15.00,-948.00
2024-06-07 11:02:33.148732,6,-1,140,0,0,0,77,79,132,60,30,133.98,434,105.00,34.00,-956.00
2024-06-07 11:02:33.303102,6,-2,134,0,0,0,77,80,132,60,30,134.17,434,103.00,31.00,-958.00
2024-06-07 11:02:33.403617,6,-3,128,0,0,0,77,80,134,60,30,134.14,434,104.00,28.00,-967.00
2024-06-07 11:02:33.454612,6,-3,122,0,0,0,77,80,134,60,30,134.17,434,92.00,52.00,-959.00
2024-06-07 11:02:33.556604,5,-4,117,0,0,0,77,80,134,60,30,134.07,434,79.00,42.00,-935.00
2024-06-07 11:02:33.697005,5,-4,111,0,0,0,77,80,134,60,30,134.13,435,64.00,72.00,-984.00
2024-06-07 11:02:33.760791,4,-4,105,0,0,0,77,80,133,60,30,134.15,435,72.00,93.00,-997.00
2024-06-07 11:02:33.899037,4,-5,99,0,0,0,77,80,133,60,30,134.15,435,48.00,104.00,-953.00
2024-06-07 11:02:33.964652,3,-5,93,0,0,0,77,80,132,60,30,134.16,435,39.00,104.00,-968.00
2024-06-07 11:02:34.103027,2,-5,87,0,0,0,77,80,131,60,30,134.16,435,44.00,90.00,-967.00
2024-06-07 11:02:34.168560,2,-5,81,0,0,0,77,80,130,60,30,134.21,435,39.00,106.00,-1006.00
2024-06-07 11:02:34.308149,1,-6,75,0,0,0,77,80,130,60,30,134.23,435,21.00,113.00,-955.00
2024-06-07 11:02:34.372562,0,-6,69,0,0,0,77,80,129,60,30,134.18,435,-6.00,98.00,-1034.00
2024-06-07 11:02:34.512651,0,-6,62,0,0,0,77,80,128,60,29,134.13,435,-27.00,106.00,-1016.00
2024-06-07 11:02:34.576523,-1,-6,56,0,0,0,77,80,127,60,29,134.09,435,-32.00,88.00,-1008.00
2024-06-07 11:02:34.717739,-2,-5,50,0,0,0,77,80,127,50,29,134.11,436,-52.00,102.00,-1013.00
2024-06-07 11:02:34.780573,-3,-5,44,0,0,0,77,80,126,50,29,134.03,436,-62.00,105.00,-985.00
2024-06-07 11:02:34.922225,-4,-4,37,0,0,0,77,80,127,50,29,134.08,436,-85.00,84.00,-1014.00
2024-06-07 11:02:34.984541,-4,-4,31,0,0,0,77,80,127,50,29,134.10,436,-88.00,81.00,-996.00
2024-06-07 11:02:35.128663,-5,-3,25,0,0,0,77,80,125,50,29,134.02,436,-92.00,75.00,-1040.00
2024-06-07 11:02:35.189263,-5,-3,20,0,0,0,77,80,126,50,29,133.98,436,-120.00,71.00,-965.00
2024-06-07 11:02:35.331828,-6,-2,16,0,0,0,77,80,127,50,29,133.97,436,-115.00,46.00,-997.00
2024-06-07 11:02:35.392542,-6,-2,13,0,0,0,77,80,126,50,29,133.96,436,-111.00,52.00,-998.00
2024-06-07 11:02:35.536568,-7,-2,11,0,0,0,77,80,127,50,29,133.91,436,-126.00,57.00,-998.00
2024-06-07 11:02:35.597156,-7,-2,9,0,0,0,77,80,127,50,29,133.93,436,-127.00,58.00,-995.00
2024-06-07 11:02:35.698468,-7,-2,8,0,0,0,77,80,128,50,29,133.91,437,-121.00,38.00,-1014.00
2024-06-07 11:02:35.800551,-7,-2,7,0,0,0,77,80,129,50,29,133.92,437,-122.00,50.00,-1002.00
2024-06-07 11:02:35.946375,-7,-2,6,0,0,0,77,80,129,50,29,133.88,437,-136.00,51.00,-950.00
2024-06-07 11:02:36.004983,-7,-2,6,0,0,0,77,80,130,50,29,133.89,437,-135.00,27.00,-977.00
2024-06-07 11:02:36.151253,-7,-2,6,0,0,0,77,80,131,50,29,133.95,437,-127.00,50.00,-994.00
2024-06-07 11:02:36.208698,-7,-2,6,0,0,0,77,80,131,60,29,133.90,437,-132.00,40.00,-1004.00
2024-06-07 11:02:36.349038,-7,-1,6,0,0,0,77,79,132,60,29,133.90,437,-152.00,47.00,-973.00
2024-06-07 11:02:36.413625,-7,-2,6,0,0,0,77,79,133,60,29,133.96,437,-132.00,29.00,-998.00
2024-06-07 11:02:36.514946,-7,-2,6,0,0,0,77,79,133,60,29,133.99,437,-164.00,44.00,-955.00
2024-06-07 11:02:36.616570,-8,-2,6,0,0,0,77,79,134,60,29,133.98,437,-144.00,45.00,-971.00
2024-06-07 11:02:36.766099,-8,-2,6,0,0,0,77,79,132,60,29,133.93,438,-130.00,26.00,-998.00
2024-06-07 11:02:36.820531,-7,-2,6,0,0,0,77,79,134,60,29,134.01,438,-124.00,46.00,-981.00
2024-06-07 11:02:36.971163,-7,-2,6,0,0,0,77,79,134,60,29,133.94,438,-136.00,25.00,-998.00
2024-06-07 11:02:36.973575,-7,-2,6,0,0,0,77,79,133,60,29,133.99,438,-156.00,29.00,-983.00
2024-06-07 11:02:37.075680,-8,-2,6,0,0,0,77,79,133,60,29,133.98,438,-133.00,35.00,-987.00
2024-06-07 11:02:37.179587,-8,-2,6,0,0,0,77,79,133,60,29,133.93,438,-134.00,39.00,-984.00
2024-06-07 11:02:37.279607,-8,-2,6,0,0,0,76,79,133,60,29,133.86,438,-159.00,24.00,-937.00
2024-06-07 11:02:37.381830,-8,-1,6,0,0,0,76,79,132,60,29,133.93,438,-143.00,18.00,-989.00
2024-06-07 11:02:37.584799,-7,-1,6,0,0,0,76,79,131,60,28,133.74,438,-137.00,18.00,-996.00
2024-06-07 11:02:37.585483,-7,-1,6,0,0,0,76,79,131,60,28,133.82,438,-120.00,9.00,-991.00
2024-06-07 11:02:37.790410,-7,-2,6,0,0,0,76,79,131,60,28,133.78,439,-112.00,-9.00,-950.00
2024-06-07 11:02:37.791024,-7,-1,6,0,0,0,76,79,130,60,28,133.82,439,-115.00,1.00,-982.00
2024-06-07 11:02:37.891510,-6,0,6,0,0,0,76,79,130,60,28,133.79,439,-121.00,13.00,-973.00
2024-06-07 11:02:37.994397,-6,0,6,0,0,0,76,79,129,60,28,133.79,439,-119.00,7.00,-1024.00
2024-06-07 11:02:38.096804,-5,0,6,0,0,0,76,79,129,50,28,133.73,439,-115.00,21.00,-1029.00
2024-06-07 11:02:38.198957,-5,0,6,0,0,0,76,79,129,50,28,133.73,439,-137.00,-8.00,-1014.00
2024-06-07 11:02:38.299438,-6,-1,6,0,0,0,77,80,128,50,28,133.73,439,-123.00,-32.00,-1048.00
2024-06-07 11:02:38.403938,-6,0,6,0,0,0,77,80,130,50,28,133.73,439,-118.00,12.00,-1001.00
2024-06-07 11:02:38.503577,-6,0,6,0,0,0,77,80,129,50,28,133.75,439,-96.00,-8.00,-1033.00
2024-06-07 11:02:38.608841,-6,0,6,0,0,0,77,80,129,50,28,133.76,439,-115.00,4.00,-1061.00
2024-06-07 11:02:38.707808,-5,0,6,0,0,0,77,80,130,50,28,133.74,440,-140.00,11.00,-1027.00
2024-06-07 11:02:38.813725,-6,0,6,0,0,0,77,80,132,50,28,133.78,440,-136.00,18.00,-1011.00
2024-06-07 11:02:38.911576,-6,0,6,0,0,0,77,80,133,50,28,133.81,440,-125.00,35.00,-955.00
2024-06-07 11:02:39.018446,-6,0,6,0,0,0,77,80,134,50,28,133.81,440,-129.00,25.00,-983.00
2024-06-07 11:02:39.115596,-6,-1,6,0,0,0,77,80,134,60,28,133.87,440,-139.00,16.00,-968.00
2024-06-07 11:02:39.220135,-6,-1,6,0,0,0,77,80,136,60,28,133.87,440,-101.00,24.00,-1010.00
2024-06-07 11:02:39.320735,-6,-1,6,0,0,0,77,79,136,60,28,133.87,440,-118.00,14.00,-1015.00
2024-06-07 11:02:39.421817,-6,-2,6,0,0,0,77,79,139,60,28,133.91,440,-127.00,26.00,-938.00
2024-06-07 11:02:39.524133,-6,-1,6,0,0,0,77,79,138,60,28,133.98,440,-117.00,14.00,-978.00
2024-06-07 11:02:39.629403,-6,-2,6,0,0,0,77,79,139,60,28,133.87,440,-90.00,15.00,-988.00
2024-06-07 11:02:39.727847,-6,-2,6,0,0,0,77,79,139,60,28,133.90,441,-87.00,33.00,-956.00
2024-06-07 11:02:39.830284,-5,-2,6,0,0,0,77,79,139,60,28,133.90,441,-114.00,-9.00,-996.00
2024-06-07 11:02:39.941648,-5,-2,6,0,0,0,77,79,140,60,28,133.89,441,-98.00,34.00,-941.00
2024-06-07 11:02:40.033296,-5,-1,6,0,0,0,77,79,140,60,28,133.94,441,-102.00,50.00,-948.00
2024-06-07 11:02:40.144933,-5,-1,6,0,0,0,77,79,139,60,28,133.88,441,-100.00,15.00,-1012.00
2024-06-07 11:02:40.244236,-4,-2,6,0,0,0,77,79,139,60,28,133.91,441,-103.00,25.00,-963.00
2024-06-07 11:02:40.339565,-5,-1,6,0,0,0,77,79,138,60,28,133.91,441,-110.00,38.00,-952.00
2024-06-07 11:02:40.451910,-5,-1,6,0,0,0,77,79,136,60,28,133.89,441,-100.00,21.00,-985.00
2024-06-07 11:02:40.543311,-5,-1,6,0,0,0,77,79,137,60,27,133.85,441,-101.00,13.00,-1038.00
2024-06-07 11:02:40.657196,-5,-1,6,0,0,0,77,79,136,60,27,133.84,441,-105.00,4.00,-1005.00
2024-06-07 11:02:40.748172,-5,-1,6,0,0,0,77,79,136,60,27,133.90,442,-98.00,38.00,-1030.00
2024-06-07 11:02:40.802789,-5,-1,6,0,0,0,77,79,135,60,27,133.96,442,-98.00,32.00,-1007.00
2024-06-07 11:02:40.911024,-5,-1,6,0,0,0,77,79,134,60,27,133.88,442,-95.00,26.00,-960.00
2024-06-07 11:02:41.011599,-5,-2,6,0,0,0,77,79,133,60,27,133.85,442,-89.00,24.00,-1057.00
2024-06-07 11:02:41.107392,-5,-2,6,0,0,0,77,79,132,60,27,133.81,442,-116.00,26.00,-981.00
2024-06-07 11:02:41.208558,-5,-2,6,0,0,0,77,79,132,60,27,133.85,442,-116.00,7.00,-991.00
2024-06-07 11:02:41.373518,-6,-1,6,0,0,0,77,78,133,60,27,133.88,442,-109.00,22.00,-961.00
2024-06-07 11:02:41.410769,-6,-1,6,0,0,0,77,78,132,60,27,133.81,442,-111.00,6.00,-996.00
2024-06-07 11:02:41.578379,-5,0,6,0,0,0,77,78,131,60,27,133.78,442,-96.00,-5.00,-1000.00
2024-06-07 11:02:41.614369,-5,-1,6,0,0,0,77,78,130,60,27,133.88,443,-87.00,2.00,-1020.00
2024-06-07 11:02:41.783058,-5,0,6,0,0,0,77,78,130,60,27,133.81,443,-97.00,30.00,-1010.00
2024-06-07 11:02:41.818326,-5,0,6,0,0,0,77,78,129,60,27,133.78,443,-104.00,5.00,-949.00
2024-06-07 11:02:41.989439,-5,0,6,0,0,0,77,78,129,60,27,133.87,443,-76.00,16.00,-1004.00
2024-06-07 11:02:42.022262,-5,0,6,0,0,0,77,78,128,60,27,133.77,443,-85.00,29.00,-950.00
2024-06-07 11:02:42.197713,-4,0,6,0,0,0,77,78,128,50,27,133.86,443,-77.00,22.00,-1013.00
2024-06-07 11:02:42.226555,-5,0,6,0,0,0,77,78,127,50,27,133.76,443,-91.00,10.00,-1044.00
2024-06-07 11:02:42.328346,-5,-1,6,0,0,0,76,78,127,50,27,133.72,443,-91.00,11.00,-1029.00
2024-06-07 11:02:42.502828,-5,-1,6,0,0,0,76,78,126,50,27,133.71,443,-83.00,1.00,-978.00
2024-06-07 11:02:42.532856,-5,-1,6,0,0,0,76,78,126,50,27,133.74,443,-94.00,0.00,-1007.00
2024-06-07 11:02:42.704824,-5,0,6,0,0,0,76,78,126,50,27,133.75,444,-71.00,-4.00,-1046.00
2024-06-07 11:02:42.736169,-5,0,7,0,0,0,76,78,125,50,27,133.82,444,-75.00,0.00,-1028.00
2024-06-07 11:02:42.910269,-4,0,7,0,0,0,76,78,124,50,27,133.74,444,-79.00,0.00,-1019.00
2024-06-07 11:02:42.940205,-4,0,7,0,0,0,76,78,126,50,27,133.68,444,-87.00,12.00,-1038.00
2024-06-07 11:02:43.114423,-4,0,7,0,0,0,76,78,126,50,27,133.76,444,-79.00,1.00,-1015.00
2024-06-07 11:02:43.144984,-4,0,6,0,0,0,76,78,126,50,27,133.66,444,-113.00,-10.00,-987.00
2024-06-07 11:02:43.246297,-5,0,6,0,0,0,76,78,127,50,27,133.63,444,-93.00,-15.00,-1012.00
2024-06-07 11:02:43.421506,-5,0,6,0,0,0,76,79,127,50,27,133.73,444,-70.00,-27.00,-1030.00
2024-06-07 11:02:43.450342,-4,0,6,0,0,0,76,79,127,50,27,133.81,444,-97.00,-23.00,-972.00
2024-06-07 11:02:43.729062,-4,0,6,0,0,0,76,79,127,50,27,133.74,444,-61.00,0.00,-1033.00
2024-06-07 11:02:43.729262,-4,0,6,0,0,0,76,79,128,50,27,133.69,445,-83.00,-3.00,-977.00
2024-06-07 11:02:43.756124,-4,0,6,0,0,0,76,79,126,50,27,133.73,445,-68.00,-5.00,-978.00
2024-06-07 11:02:43.858231,-4,0,6,0,0,0,76,79,126,50,27,133.75,445,-75.00,-21.00,-980.00
2024-06-07 11:02:44.035882,-4,0,6,0,0,0,76,79,127,50,27,133.80,445,-65.00,-7.00,-1005.00
2024-06-07 11:02:44.062134,-4,0,6,0,0,0,76,79,128,50,27,133.75,445,-79.00,-20.00,-983.00
2024-06-07 11:02:44.167433,-4,1,6,0,0,0,76,79,127,50,27,133.78,445,-76.00,-17.00,-997.00
2024-06-07 11:02:44.266490,-3,1,6,0,0,0,76,79,127,50,27,133.74,445,-52.00,-2.00,-1009.00
2024-06-07 11:02:44.549494,-4,0,6,0,0,0,76,79,128,50,27,133.84,445,-75.00,8.00,-990.00
2024-06-07 11:02:44.549682,-4,0,6,0,0,0,76,79,127,50,27,133.99,445,-58.00,4.00,-1025.00
2024-06-07 11:02:44.572203,-3,0,6,0,0,0,76,79,128,50,27,133.87,445,-75.00,8.00,-979.00
2024-06-07 11:02:44.753044,-3,0,6,0,0,0,76,79,129,50,27,133.91,446,-56.00,25.00,-992.00
2024-06-07 11:02:44.776480,-3,0,6,0,0,0,76,79,129,50,27,133.93,446,-68.00,13.00,-998.00
2024-06-07 11:02:44.878734,-3,-1,6,0,0,0,76,79,128,50,27,133.92,446,-65.00,-8.00,-986.00
2024-06-07 11:02:44.980634,-3,-1,6,0,0,0,76,79,128,50,27,133.89,446,-74.00,-1.00,-1002.00
2024-06-07 11:02:45.162350,-3,0,6,0,0,0,76,79,129,50,27,133.85,446,-95.00,1.00,-1001.00
2024-06-07 11:02:45.165086,-3,0,6,0,0,0,76,79,129,50,27,133.80,446,-83.00,13.00,-987.00
2024-06-07 11:02:45.235477,-3,0,6,0,0,0,76,79,128,50,27,133.86,446,-64.00,14.00,-1004.00
2024-06-07 11:02:45.388269,-3,0,6,0,0,0,76,79,129,50,27,133.90,446,-83.00,2.00,-989.00
2024-06-07 11:02:45.439290,-4,0,6,0,0,0,76,79,129,60,27,133.94,446,-58.00,15.00,-1017.00
2024-06-07 11:02:45.571938,-4,-1,6,0,0,0,76,79,128,60,27,133.92,446,-70.00,-26.00,-1012.00
2024-06-07 11:02:45.643314,-3,0,6,0,0,0,76,79,128,60,27,133.77,447,-70.00,-4.00,-1007.00
2024-06-07 11:02:45.777226,-4,0,6,0,0,0,76,79,129,60,27,133.72,447,-64.00,-10.00,-986.00
2024-06-07 11:02:45.846993,-4,0,6,0,0,0,76,79,128,60,27,133.81,447,-64.00,-7.00,-999.00
2024-06-07 11:02:45.981492,-4,1,6,0,0,0,76,79,127,60,27,133.88,447,-75.00,-33.00,-970.00
2024-06-07 11:02:46.051969,-4,1,6,0,0,0,76,79,128,60,27,133.81,447,-77.00,-12.00,-1003.00
2024-06-07 11:02:46.187161,-4,1,6,0,0,0,76,79,127,60,27,133.85,447,-70.00,-7.00,-1017.00
2024-06-07 11:02:46.255253,-4,0,6,0,0,0,76,79,127,60,27,133.89,447,-58.00,2.00,-997.00
2024-06-07 11:02:46.391247,-4,0,6,0,0,0,76,79,127,60,27,133.87,447,-70.00,-3.00,-985.00
2024-06-07 11:02:46.459090,-4,0,6,0,0,0,76,79,126,50,27,133.90,447,-59.00,-19.00,-1003.00
2024-06-07 11:02:46.595974,-4,0,6,0,0,0,76,79,127,50,27,133.98,447,-57.00,6.00,-1017.00
2024-06-07 11:02:46.662958,-4,0,6,0,0,0,76,79,127,50,27,133.90,448,-97.00,3.00,-959.00
2024-06-07 11:02:46.802377,-4,0,6,0,0,0,76,79,126,50,27,133.89,448,-89.00,-4.00,-995.00
2024-06-07 11:02:46.866976,-4,0,6,0,0,0,76,79,125,50,27,133.89,448,-50.00,-11.00,-1019.00
2024-06-07 11:02:47.005589,-4,0,6,0,0,0,76,79,126,50,27,133.87,448,-73.00,4.00,-1001.00
2024-06-07 11:02:47.071442,-3,0,6,0,0,0,76,79,127,50,27,133.94,448,-82.00,15.00,-965.00
