TS,pitch,roll,yaw,vgx,vgy,vgz,templ,temph,tof,h,bat,baro,time,agx,agy,agz
2024-06-07 10:57:07.345914,0,0,4,0,0,0,76,79,10,0,62,132.26,225,-6.00,0.00,-1004.00
2024-06-07 10:57:07.411721,0,0,4,0,0,0,76,79,10,0,62,132.30,225,-6.00,0.00,-1001.00
2024-06-07 10:57:07.550988,0,0,4,0,0,0,76,79,10,0,62,132.25,225,-7.00,-2.00,-998.00
2024-06-07 10:57:07.616241,0,0,4,0,0,0,76,79,10,0,62,132.27,225,-6.00,0.00,-1001.00
2024-06-07 10:57:07.756570,0,0,4,0,0,0,76,79,10,0,62,132.26,225,-6.00,0.00,-1000.00
2024-06-07 10:57:07.819410,0,0,4,0,0,0,76,79,10,0,62,132.32,225,-7.00,-1.00,-998.00
2024-06-07 10:57:07.960122,0,0,4,0,0,0,76,79,10,0,62,132.31,225,-5.00,-2.00,-999.00
2024-06-07 10:57:08.023721,0,0,4,0,0,0,76,79,10,0,62,132.32,225,-6.00,-2.00,-1002.00
2024-06-07 10:57:08.164939,0,0,4,0,0,0,76,79,10,0,62,132.30,225,-7.00,0.00,-1001.00
2024-06-07 10:57:08.227867,0,0,4,0,0,0,76,79,10,0,62,132.28,225,-7.00,-1.00,-1000.00
2024-06-07 10:57:08.371710,0,0,4,0,0,0,76,79,10,0,62,132.31,225,-5.00,0.00,-1000.00
2024-06-07 10:57:08.431705,0,0,4,0,0,0,76,79,10,0,62,132.32,225,-6.00,-2.00,-1000.00
2024-06-07 10:57:08.574551,0,0,4,0,0,0,76,79,10,0,62,132.32,225,-7.00,0.00,-1001.00
2024-06-07 10:57:08.635843,0,0,4,0,0,0,76,79,10,0,62,132.32,225,-5.00,-2.00,-1000.00
2024-06-07 10:57:08.686512,0,0,4,0,0,0,76,79,10,0,62,132.26,225,-3.00,0.00,-1002.00
2024-06-07 10:57:08.881686,0,0,4,0,0,0,76,79,10,0,62,132.31,225,-7.00,0.00,-999.00
2024-06-07 10:57:08.890300,0,0,4,0,0,0,76,79,10,0,62,132.29,225,-7.00,-1.00,-999.00
2024-06-07 10:57:09.086591,0,0,4,0,0,0,76,79,10,0,62,132.30,225,-4.00,-2.00,-1000.00
2024-06-07 10:57:09.096668,0,0,4,0,0,0,76,79,10,0,62,132.28,225,-6.00,-1.00,-998.00
2024-06-07 10:57:09.198717,0,0,4,0,0,0,76,79,10,0,62,132.30,225,-6.00,-1.00,-1000.00
2024-06-07 10:57:09.298918,0,0,4,0,0,0,77,78,10,0,62,132.31,225,-7.00,-1.00,-997.00
2024-06-07 10:57:09.496280,0,0,4,0,0,0,77,78,10,0,62,132.33,225,-6.00,0.00,-998.00
2024-06-07 10:57:09.502490,0,0,4,0,0,0,77,78,10,0,62,132.33,225,-6.00,-1.00,-1000.00
2024-06-07 10:57:09.608172,0,0,4,0,0,0,77,78,10,0,62,132.33,225,-6.00,0.00,-1000.00
2024-06-07 10:57:09.706293,0,0,4,0,0,0,77,78,10,0,62,132.33,225,-8.00,-1.00,-999.00
2024-06-07 10:57:09.905743,0,0,4,0,0,0,77,78,10,0,62,132.33,225,-10.00,3.00,-994.00
2024-06-07 10:57:09.910614,0,0,4,0,0,0,77,78,10,0,62,132.33,226,-14.00,-13.00,-983.00
2024-06-07 10:57:10.110442,0,0,4,0,0,0,77,78,10,0,62,132.33,226,6.00,-20.00,-997.00
2024-06-07 10:57:10.114229,0,0,3,0,0,0,77,78,10,0,62,132.33,226,-19.00,14.00,-1030.00
2024-06-07 10:57:10.216364,0,0,3,0,0,0,77,78,10,0,62,132.33,226,-4.00,-22.00,-1047.00
2024-06-07 10:57:10.318221,1,0,3,0,0,0,77,79,10,0,62,132.33,226,-17.00,-25.00,-1179.00
2024-06-07 10:57:10.420237,0,0,2,0,0,-2,77,79,10,0,62,132.33,226,-45.00,-39.00,-1396.00
2024-06-07 10:57:10.522235,-1,0,2,-1,0,-5,77,79,15,0,62,132.33,226,-40.00,-15.00,-1231.00
2024-06-07 10:57:10.624205,-2,0,2,-1,0,-6,77,79,23,0,62,132.58,226,-38.00,-15.00,-1103.00
2024-06-07 10:57:10.827625,-3,0,2,-1,0,-6,77,79,29,0,62,132.69,226,-62.00,-25.00,-1058.00
2024-06-07 10:57:10.828207,-3,0,2,-1,0,-6,77,79,38,0,62,132.81,226,-48.00,-11.00,-1045.00
2024-06-07 10:57:10.930281,-4,1,2,-1,0,-6,77,79,46,10,62,132.92,227,-73.00,-12.00,-905.00
2024-06-07 10:57:11.032376,-4,0,2,0,0,-5,77,79,54,10,62,133.01,227,-62.00,4.00,-951.00
2024-06-07 10:57:11.134626,-3,0,2,-1,0,-4,77,79,63,10,62,133.08,227,-75.00,-15.00,-930.00
2024-06-07 10:57:11.236873,-5,1,2,-1,0,-3,77,79,70,20,62,133.10,227,-64.00,19.00,-862.00
2024-06-07 10:57:11.339266,-5,0,2,-1,0,-3,78,79,76,20,62,133.13,227,-88.00,-21.00,-909.00
2024-06-07 10:57:11.441681,-5,0,2,-1,0,-2,78,79,81,30,62,133.23,227,-76.00,-4.00,-933.00
2024-06-07 10:57:11.544072,-6,0,2,-1,0,-1,78,79,87,30,62,133.26,227,-88.00,-20.00,-941.00
2024-06-07 10:57:11.644206,-6,0,2,0,0,-1,78,79,90,30,62,133.11,227,-73.00,-12.00,-924.00
2024-06-07 10:57:11.746174,-6,1,2,0,0,-1,78,79,94,30,62,133.27,227,-85.00,-39.00,-913.00
2024-06-07 10:57:11.848172,-5,1,2,0,0,0,78,79,97,40,62,133.21,227,-40.00,-20.00,-968.00
2024-06-07 10:57:11.953631,-5,2,2,0,0,0,78,79,99,40,62,133.26,228,-49.00,-35.00,-946.00
2024-06-07 10:57:12.052238,-4,3,2,0,0,0,78,79,101,40,62,133.35,228,-77.00,-14.00,-940.00
2024-06-07 10:57:12.158433,-4,2,2,0,0,0,78,79,102,40,62,133.30,228,-55.00,-23.00,-951.00
2024-06-07 10:57:12.256501,-4,2,2,0,0,0,78,79,103,50,62,133.27,228,-56.00,2.00,-947.00
2024-06-07 10:57:12.358121,-4,1,2,0,0,1,77,80,103,50,62,133.27,228,-93.00,-12.00,-974.00
2024-06-07 10:57:12.465693,-4,0,2,0,0,1,77,80,102,50,62,133.31,228,-52.00,-23.00,-1012.00
2024-06-07 10:57:12.562202,-4,0,2,0,0,1,77,80,101,50,62,133.34,228,-62.00,-30.00,-1034.00
2024-06-07 10:57:12.670547,-4,0,2,0,0,1,77,80,100,50,62,133.30,228,-64.00,-6.00,-994.00
2024-06-07 10:57:12.715323,-4,1,2,0,0,1,77,80,99,50,62,133.26,228,-52.00,-5.00,-987.00
2024-06-07 10:57:12.875310,-3,1,2,0,0,1,77,80,98,50,62,133.21,228,-77.00,-12.00,-948.00
2024-06-07 10:57:12.919744,-4,1,2,0,0,1,77,80,96,50,62,133.17,229,-96.00,-15.00,-951.00
2024-06-07 10:57:13.080301,-4,1,2,0,0,1,77,80,95,50,62,133.18,229,-74.00,-23.00,-972.00
2024-06-07 10:57:13.123275,-4,0,2,0,0,1,77,80,93,40,62,133.23,229,-91.00,-44.00,-1010.00
2024-06-07 10:57:13.225818,-4,0,2,0,0,1,77,80,91,40,62,133.08,229,-92.00,-43.00,-1038.00
2024-06-07 10:57:13.329722,-4,2,2,0,0,1,77,79,90,40,62,133.06,229,-75.00,-49.00,-1008.00
2024-06-07 10:57:13.429330,-4,1,2,0,0,1,77,79,87,40,62,133.01,229,-102.00,-23.00,-1011.00
2024-06-07 10:57:13.592027,-4,1,2,0,0,1,77,79,85,40,62,132.91,229,-81.00,-34.00,-1009.00
2024-06-07 10:57:13.633261,-4,1,2,0,0,1,77,79,84,40,62,133.01,229,-76.00,-22.00,-1045.00
2024-06-07 10:57:13.796901,-4,1,2,0,0,1,77,79,82,40,62,132.89,229,-82.00,-12.00,-977.00
2024-06-07 10:57:13.837383,-5,1,2,0,0,1,77,79,81,30,62,132.90,230,-103.00,-36.00,-970.00
2024-06-07 10:57:14.001703,-5,0,2,0,0,1,77,79,79,30,62,132.93,230,-87.00,-72.00,-994.00
2024-06-07 10:57:14.041311,-5,1,2,0,0,1,77,79,78,30,62,132.93,230,-72.00,-87.00,-986.00
2024-06-07 10:57:14.206540,-5,3,2,0,0,0,77,79,77,30,62,133.08,230,-65.00,-86.00,-1052.00
2024-06-07 10:57:14.245337,-3,4,2,0,0,0,77,79,76,30,62,132.88,230,-66.00,-60.00,-1011.00
2024-06-07 10:57:14.411316,-3,4,2,0,0,0,77,79,75,30,62,132.95,230,-43.00,-59.00,-1043.00
2024-06-07 10:57:14.449190,-3,4,2,0,0,0,77,79,75,30,62,132.88,230,-49.00,-54.00,-1022.00
2024-06-07 10:57:14.616217,-3,3,2,0,0,0,77,79,75,30,62,132.93,230,-67.00,-62.00,-1005.00
2024-06-07 10:57:14.653377,-3,4,3,0,0,0,77,79,75,30,62,132.91,230,-72.00,-70.00,-1037.00
2024-06-07 10:57:14.820894,-3,3,3,0,0,0,77,79,74,30,62,133.08,230,-76.00,-67.00,-1014.00
2024-06-07 10:57:14.857246,-3,3,3,0,0,0,77,79,74,30,62,132.99,231,-84.00,-44.00,-1030.00
2024-06-07 10:57:15.025996,-4,3,3,0,0,0,77,79,74,30,62,133.05,231,-83.00,-52.00,-1014.00
2024-06-07 10:57:15.061130,-4,3,3,0,0,0,77,79,74,30,62,133.17,231,-96.00,-47.00,-963.00
2024-06-07 10:57:15.230630,-4,3,3,0,0,0,77,79,74,30,62,133.15,231,-111.00,-41.00,-980.00
2024-06-07 10:57:15.265346,-4,2,3,0,0,0,77,79,73,30,62,133.09,231,-100.00,-34.00,-953.00
2024-06-07 10:57:15.435261,-5,1,2,0,0,0,77,79,73,30,62,133.03,231,-128.00,-45.00,-971.00
2024-06-07 10:57:15.469262,-6,3,3,0,0,0,77,79,73,30,62,133.03,231,-103.00,-38.00,-947.00
2024-06-07 10:57:15.640264,-6,3,2,0,0,0,77,79,74,30,62,132.93,231,-94.00,-34.00,-1036.00
2024-06-07 10:57:15.673365,-5,2,2,0,1,0,77,79,73,30,62,132.76,231,-85.00,-4.00,-965.00
2024-06-07 10:57:15.844987,-4,0,2,0,1,0,77,79,73,30,62,132.78,231,-82.00,-20.00,-1048.00
2024-06-07 10:57:15.877046,-4,0,2,0,1,0,77,79,73,30,62,132.74,232,-86.00,-27.00,-1057.00
2024-06-07 10:57:16.049758,-5,0,2,0,0,0,77,79,73,30,62,132.79,232,-88.00,-43.00,-1018.00
2024-06-07 10:57:16.081232,-4,0,2,0,0,0,77,79,73,30,62,132.61,232,-88.00,-1.00,-1020.00
2024-06-07 10:57:16.254563,-6,0,2,0,0,0,77,79,73,30,62,132.79,232,-96.00,-17.00,-1035.00
2024-06-07 10:57:16.254730,-7,0,3,0,0,0,77,79,74,30,62,132.69,232,-141.00,-20.00,-955.00
2024-06-07 10:57:16.459307,-7,0,3,0,0,0,76,79,74,30,62,132.91,232,-110.00,-58.00,-962.00
2024-06-07 10:57:16.489238,-7,2,2,0,0,0,76,79,75,30,62,132.94,232,-90.00,-37.00,-971.00
2024-06-07 10:57:16.664156,-6,1,2,0,0,0,76,79,75,30,62,132.92,232,-71.00,-43.00,-1007.00
2024-06-07 10:57:16.693252,-5,2,2,0,0,0,76,79,75,30,62,132.80,232,-102.00,-31.00,-925.00
2024-06-07 10:57:16.745095,-5,1,2,0,0,0,76,79,74,30,62,132.79,232,-115.00,0.00,-943.00
2024-06-07 10:57:16.870102,-4,1,3,0,0,0,76,79,74,30,62,132.62,233,-99.00,-16.00,-976.00
2024-06-07 10:57:16.948179,-5,0,2,0,0,0,76,79,73,30,62,132.69,233,-91.00,-48.00,-1062.00
2024-06-07 10:57:17.049985,-5,0,2,0,0,0,76,79,74,30,62,132.79,233,-67.00,-50.00,-988.00
2024-06-07 10:57:17.176119,-4,2,2,0,0,0,76,79,73,30,62,132.76,233,-100.00,-41.00,-1025.00
2024-06-07 10:57:17.253891,-4,1,2,0,0,0,76,79,73,30,62,132.73,233,-70.00,-33.00,-1025.00
2024-06-07 10:57:17.381847,-4,2,2,0,0,0,77,80,73,30,62,132.93,233,-77.00,-41.00,-920.00
2024-06-07 10:57:17.457970,-5,2,2,0,0,0,77,80,72,30,62,132.96,233,-87.00,-35.00,-937.00
2024-06-07 10:57:17.586943,-4,2,2,0,0,0,77,80,72,30,62,132.81,233,-75.00,-47.00,-928.00
2024-06-07 10:57:17.661957,-3,3,3,1,0,0,77,80,72,30,62,132.77,233,-68.00,-99.00,-981.00
2024-06-07 10:57:17.790467,-2,5,3,0,0,0,77,80,71,20,62,132.86,233,-42.00,-80.00,-964.00
2024-06-07 10:57:17.865849,-3,5,3,0,0,0,77,80,72,30,62,132.94,234,-67.00,-56.00,-1020.00
2024-06-07 10:57:17.995226,-3,3,2,0,0,0,77,80,73,30,62,132.94,234,-90.00,-59.00,-1011.00
2024-06-07 10:57:18.069911,-4,3,2,0,0,0,77,80,73,30,62,132.92,234,-91.00,-66.00,-979.00
2024-06-07 10:57:18.200813,-4,4,2,0,0,0,77,80,74,30,62,132.88,234,-74.00,-47.00,-965.00
2024-06-07 10:57:18.274148,-4,3,2,0,0,0,77,80,74,30,62,132.90,234,-63.00,-69.00,-1025.00
2024-06-07 10:57:18.375938,-4,3,3,0,0,0,77,79,76,30,62,132.93,234,-77.00,-82.00,-1008.00
2024-06-07 10:57:18.507399,-4,4,3,0,0,0,77,79,76,30,62,133.02,234,-71.00,-87.00,-976.00
2024-06-07 10:57:18.580181,-4,4,3,0,0,0,77,79,77,30,62,133.00,234,-41.00,-82.00,-1019.00
2024-06-07 10:57:18.712265,-4,4,2,0,0,0,77,79,78,30,62,133.03,234,-55.00,-90.00,-966.00
2024-06-07 10:57:18.784367,-3,5,2,0,0,0,77,79,78,30,62,133.02,234,-63.00,-90.00,-967.00
2024-06-07 10:57:18.916993,-3,5,2,0,0,0,77,79,78,30,62,133.04,235,-57.00,-97.00,-988.00
2024-06-07 10:57:18.988253,-3,5,2,0,0,0,77,79,78,30,62,133.07,235,-71.00,-98.00,-980.00
2024-06-07 10:57:19.121813,-3,6,2,0,0,0,77,79,78,30,62,133.08,235,-70.00,-99.00,-981.00
2024-06-07 10:57:19.191965,-3,6,2,0,0,0,77,79,78,30,62,133.07,235,-56.00,-95.00,-1015.00
2024-06-07 10:57:19.326689,-3,6,2,0,0,0,77,79,78,30,62,133.08,235,-97.00,-106.00,-972.00
2024-06-07 10:57:19.396001,-3,6,2,0,0,0,77,80,77,30,62,133.07,235,-69.00,-106.00,-960.00
2024-06-07 10:57:19.531462,-4,6,2,0,0,0,77,80,77,30,62,133.09,235,-45.00,-120.00,-1022.00
2024-06-07 10:57:19.599911,-4,7,2,0,0,0,77,80,76,30,62,133.07,235,-40.00,-125.00,-987.00
2024-06-07 10:57:19.738638,-3,7,2,0,0,0,77,80,76,30,62,133.07,235,-19.00,-114.00,-1043.00
2024-06-07 10:57:19.804203,-1,6,2,0,0,0,77,80,75,30,62,133.06,235,-58.00,-119.00,-967.00
2024-06-07 10:57:19.941117,-1,7,2,0,0,0,77,80,75,30,62,133.04,236,-61.00,-124.00,-983.00
2024-06-07 10:57:20.008007,-1,7,2,0,0,0,77,80,75,30,62,133.00,236,-40.00,-100.00,-977.00
2024-06-07 10:57:20.109957,-1,6,2,0,0,0,77,80,75,30,62,133.02,236,-30.00,-113.00,-1039.00
2024-06-07 10:57:20.227270,-2,6,2,0,0,0,77,80,74,30,62,133.10,236,0.00,-88.00,-1016.00
2024-06-07 10:57:20.314405,-1,6,2,0,0,0,77,80,74,30,62,132.89,236,-40.00,-84.00,-1014.00
2024-06-07 10:57:20.453082,-1,6,3,0,0,0,77,79,73,30,62,132.95,236,-54.00,-97.00,-1048.00
2024-06-07 10:57:20.521900,-1,6,3,0,0,0,77,79,74,30,62,133.01,236,-54.00,-98.00,-1092.00
2024-06-07 10:57:20.620566,-2,5,3,0,0,-1,77,79,75,30,62,133.07,236,-30.00,-105.00,-1072.00
2024-06-07 10:57:20.671069,-1,4,3,0,0,-2,77,79,78,30,62,132.95,236,-64.00,-114.00,-1085.00
2024-06-07 10:57:20.871020,-2,5,3,0,0,-3,77,79,82,30,62,133.00,236,-55.00,-119.00,-1073.00
2024-06-07 10:57:20.876024,-2,6,2,0,0,-4,77,79,86,40,62,133.08,237,-31.00,-98.00,-1073.00
2024-06-07 10:57:21.067318,-1,7,2,0,0,-5,77,79,92,40,62,133.14,237,-29.00,-110.00,-1080.00
2024-06-07 10:57:21.078735,-2,6,2,0,0,-5,77,79,98,50,62,133.24,237,-20.00,-81.00,-1033.00
2024-06-07 10:57:21.374625,-2,5,3,0,0,-5,77,79,103,50,62,133.27,237,-39.00,-82.00,-956.00
2024-06-07 10:57:21.374944,-1,5,3,0,0,-5,77,79,109,60,62,133.37,237,-11.00,-74.00,-1002.00
2024-06-07 10:57:21.384977,0,5,2,0,1,-5,77,80,115,70,62,133.41,237,61.00,-70.00,-1067.00
2024-06-07 10:57:21.579381,1,3,2,0,1,-5,77,80,119,70,62,133.37,237,3.00,-68.00,-952.00
2024-06-07 10:57:21.588939,1,2,2,0,1,-5,77,80,125,80,62,133.41,237,-10.00,-84.00,-983.00
2024-06-07 10:57:21.786708,0,3,2,0,0,-5,77,80,131,80,62,133.51,237,-30.00,-79.00,-947.00
2024-06-07 10:57:21.793264,0,4,2,0,0,-4,77,80,135,90,62,133.59,237,-54.00,-88.00,-969.00
2024-06-07 10:57:21.989458,0,3,2,0,0,-4,77,80,140,90,62,133.67,238,-53.00,-60.00,-951.00
2024-06-07 10:57:21.998553,-1,3,2,0,0,-3,77,80,144,100,62,133.68,238,-53.00,-70.00,-918.00
2024-06-07 10:57:22.100196,-3,4,3,0,0,-3,77,80,148,100,62,133.80,238,-32.00,-92.00,-934.00
2024-06-07 10:57:22.296243,-3,4,2,0,0,-3,77,80,152,100,62,133.82,238,-22.00,-85.00,-956.00
2024-06-07 10:57:22.305255,-2,3,2,0,0,-3,77,80,155,110,62,133.92,238,-4.00,-99.00,-893.00
2024-06-07 10:57:22.405907,0,4,2,0,0,-2,78,80,156,110,62,133.84,238,11.00,-87.00,-892.00
2024-06-07 10:57:22.603270,0,6,3,0,0,-1,78,80,157,110,62,133.88,238,-3.00,-104.00,-994.00
2024-06-07 10:57:22.613425,0,6,3,0,0,-1,78,80,161,110,62,133.84,238,0.00,-91.00,-1014.00
2024-06-07 10:57:22.712271,0,5,2,0,0,-1,78,80,161,110,62,133.90,238,8.00,-87.00,-985.00
2024-06-07 10:57:22.910556,0,5,2,0,0,-1,78,80,163,110,62,133.87,238,3.00,-83.00,-1004.00
2024-06-07 10:57:22.915513,0,5,2,0,0,-1,78,80,163,120,62,133.99,239,-16.00,-88.00,-1003.00
2024-06-07 10:57:23.017688,0,5,2,0,0,-1,78,80,163,120,62,133.95,239,-20.00,-93.00,-944.00
2024-06-07 10:57:23.217767,0,5,2,0,0,-1,78,80,166,120,62,133.86,239,-13.00,-84.00,-992.00
2024-06-07 10:57:23.221773,0,5,2,0,0,0,78,80,166,120,62,133.99,239,-14.00,-121.00,-1021.00
2024-06-07 10:57:23.422672,0,5,2,0,0,0,78,80,167,120,62,133.98,239,-3.00,-88.00,-994.00
2024-06-07 10:57:23.425570,0,5,3,0,0,0,77,79,169,120,62,133.95,239,-20.00,-66.00,-971.00
2024-06-07 10:57:23.527679,0,4,3,0,0,0,77,79,171,120,62,133.98,239,-14.00,-103.00,-997.00
2024-06-07 10:57:23.629772,0,4,3,0,0,0,77,79,171,120,62,133.98,239,-15.00,-91.00,-976.00
2024-06-07 10:57:23.731786,-1,4,3,0,0,0,77,79,173,120,62,133.96,239,-29.00,-86.00,-958.00
2024-06-07 10:57:23.833688,-1,3,3,0,0,0,77,79,175,120,62,134.02,239,-27.00,-102.00,-960.00
2024-06-07 10:57:24.037484,-1,4,3,0,0,0,77,79,173,130,62,134.02,240,-37.00,-82.00,-977.00
2024-06-07 10:57:24.037714,-1,4,3,0,0,0,77,79,175,130,62,134.00,240,-48.00,-64.00,-1025.00
2024-06-07 10:57:24.088940,-1,4,3,0,0,0,77,79,175,130,62,134.06,240,-2.00,-83.00,-1030.00
2024-06-07 10:57:24.242415,-1,4,2,0,0,0,77,79,175,130,62,134.01,240,-4.00,-90.00,-997.00
2024-06-07 10:57:24.293193,-1,4,2,0,0,0,77,79,175,130,62,134.00,240,2.00,-77.00,-1010.00
2024-06-07 10:57:24.447044,-1,4,2,0,0,0,76,79,174,130,62,134.05,240,23.00,-61.00,-979.00
2024-06-07 10:57:24.497085,0,3,2,0,0,0,76,79,174,130,62,134.08,240,-6.00,-80.00,-980.00
2024-06-07 10:57:24.651437,0,3,2,0,0,0,76,79,174,130,62,133.96,240,-30.00,-74.00,-1004.00
2024-06-07 10:57:24.700866,0,4,2,0,0,0,76,79,175,130,62,133.97,240,-37.00,-83.00,-975.00
2024-06-07 10:57:24.856254,-1,4,2,0,0,0,76,79,174,130,62,133.95,240,-15.00,-76.00,-969.00
2024-06-07 10:57:24.904963,-1,4,2,0,0,0,76,79,175,130,62,133.92,241,-41.00,-71.00,-1001.00
2024-06-07 10:57:25.061582,0,4,3,0,0,0,76,79,173,130,62,133.97,241,-72.00,-62.00,-998.00
2024-06-07 10:57:25.109080,-2,3,2,0,0,0,76,79,175,130,62,133.91,241,-44.00,-64.00,-991.00
2024-06-07 10:57:25.266353,-3,3,2,-1,0,0,76,79,175,130,62,133.87,241,-41.00,-65.00,-1028.00
2024-06-07 10:57:25.312921,-4,3,2,0,0,0,76,79,174,130,62,133.95,241,-49.00,-71.00,-987.00
2024-06-07 10:57:25.470696,-3,3,2,0,0,0,76,79,176,130,62,133.97,241,-51.00,-67.00,-967.00
2024-06-07 10:57:25.516527,-3,3,2,0,0,0,76,79,177,130,62,134.03,241,-20.00,-73.00,-1014.00
2024-06-07 10:57:25.618802,-3,4,2,0,0,0,76,79,175,130,62,133.89,241,-34.00,-81.00,-1012.00
2024-06-07 10:57:25.777786,-1,4,2,0,0,0,76,79,174,130,62,133.89,241,-33.00,-64.00,-982.00
2024-06-07 10:57:25.822391,-1,4,2,0,0,0,76,79,175,130,62,133.94,241,-36.00,-48.00,-942.00
2024-06-07 10:57:25.982872,-1,4,2,0,0,0,76,79,174,130,62,133.88,242,-39.00,-60.00,-1021.00
2024-06-07 10:57:26.027828,-1,4,2,0,0,1,76,79,173,130,62,133.86,242,-73.00,-45.00,-885.00
2024-06-07 10:57:26.130410,-2,3,2,0,0,1,76,79,172,120,62,133.82,242,-68.00,-70.00,-943.00
2024-06-07 10:57:26.230716,-2,3,2,0,0,2,76,79,169,120,62,133.94,242,-55.00,-52.00,-945.00
2024-06-07 10:57:26.392248,-3,3,2,0,0,2,76,79,164,120,62,133.79,242,-61.00,-60.00,-1001.00
2024-06-07 10:57:26.436925,-3,3,2,0,0,2,76,79,165,120,62,133.80,242,-77.00,-71.00,-940.00
2024-06-07 10:57:26.536553,-3,3,2,0,0,2,76,79,161,120,62,133.88,242,-36.00,-56.00,-1002.00
2024-06-07 10:57:26.699599,-3,3,2,0,0,2,76,79,158,110,62,133.74,242,-56.00,-60.00,-1042.00
2024-06-07 10:57:26.740715,-3,3,2,0,0,2,76,79,156,110,62,133.72,242,-56.00,-73.00,-1006.00
2024-06-07 10:57:26.910467,-3,3,2,0,0,2,76,79,153,110,62,133.66,242,-60.00,-65.00,-1013.00
2024-06-07 10:57:26.944641,-3,3,2,0,0,2,76,79,151,100,62,133.65,243,-47.00,-54.00,-1016.00
2024-06-07 10:57:27.108869,-3,3,2,0,0,2,76,79,148,100,62,133.67,243,-41.00,-45.00,-1040.00
2024-06-07 10:57:27.148574,-3,3,2,0,0,2,76,79,145,100,62,133.71,243,-58.00,-70.00,-1021.00
2024-06-07 10:57:27.313816,-3,3,2,0,0,2,76,79,143,100,62,133.61,243,-56.00,-77.00,-1010.00
2024-06-07 10:57:27.352402,-3,3,2,0,0,2,76,79,141,100,62,133.50,243,-53.00,-93.00,-1013.00
2024-06-07 10:57:27.455276,-2,3,2,0,0,2,77,79,138,90,62,133.53,243,-35.00,-77.00,-1071.00
2024-06-07 10:57:27.620892,-2,3,2,0,0,1,77,79,136,90,62,133.59,243,-39.00,-83.00,-1006.00
2024-06-07 10:57:27.659506,-2,3,2,0,0,1,77,79,134,90,62,133.67,243,-17.00,-89.00,-1023.00
2024-06-07 10:57:27.760666,-2,3,2,0,0,1,77,79,132,90,62,133.68,243,-22.00,-94.00,-1031.00
2024-06-07 10:57:27.862715,0,3,3,0,0,1,77,79,131,90,62,133.72,243,-25.00,-67.00,-980.00
2024-06-07 10:57:27.913378,0,4,3,0,0,1,77,79,128,80,62,133.50,244,-15.00,-80.00,-1021.00
2024-06-07 10:57:28.030596,0,5,3,0,0,0,77,79,128,80,62,133.56,244,-67.00,-59.00,-980.00
2024-06-07 10:57:28.117871,0,4,3,0,0,0,77,79,127,80,62,133.45,244,-50.00,-72.00,-1012.00
2024-06-07 10:57:28.235488,-1,4,3,0,0,0,77,79,125,80,62,133.43,244,-48.00,-79.00,-988.00
2024-06-07 10:57:28.325095,-2,4,3,0,0,0,77,79,126,80,62,133.41,244,-57.00,-41.00,-988.00
2024-06-07 10:57:28.423928,-2,4,2,0,0,0,77,79,124,80,62,133.52,244,-26.00,-75.00,-1075.00
2024-06-07 10:57:28.551833,-2,2,2,0,0,0,77,79,125,80,62,133.60,244,-46.00,-52.00,-947.00
2024-06-07 10:57:28.627327,-1,2,2,0,0,0,77,79,125,80,62,133.58,244,-25.00,-52.00,-1015.00
2024-06-07 10:57:28.747322,0,3,2,0,0,0,77,79,125,80,62,133.54,244,-28.00,-65.00,-980.00
2024-06-07 10:57:28.831645,0,3,2,0,0,0,77,79,125,80,62,133.51,245,-39.00,-57.00,-1027.00
2024-06-07 10:57:28.972185,0,2,2,0,0,0,77,79,124,80,62,133.49,245,-50.00,-56.00,-1023.00
2024-06-07 10:57:29.035965,-1,2,2,0,0,0,77,79,124,80,62,133.62,245,-41.00,-66.00,-1022.00
2024-06-07 10:57:29.171288,-2,2,3,0,0,0,77,79,124,80,62,133.61,245,-48.00,-77.00,-995.00
2024-06-07 10:57:29.239419,-2,3,3,0,0,0,77,79,124,80,62,133.47,245,-61.00,-72.00,-1009.00
2024-06-07 10:57:29.341612,-2,4,2,0,0,0,77,79,124,80,62,133.56,245,-53.00,-81.00,-1017.00
2024-06-07 10:57:29.443607,-1,5,2,0,0,0,77,79,125,80,62,133.56,245,-50.00,-86.00,-1013.00
2024-06-07 10:57:29.566984,-1,5,2,0,0,0,77,79,124,80,61,133.60,245,-37.00,-69.00,-953.00
2024-06-07 10:57:29.647340,-2,4,2,0,0,0,77,79,124,80,61,133.58,245,-14.00,-97.00,-1028.00
2024-06-07 10:57:29.771451,-1,4,2,0,0,0,77,79,126,80,61,133.61,245,-16.00,-81.00,-981.00
2024-06-07 10:57:29.851304,0,4,2,0,0,0,77,79,126,80,61,133.53,246,-44.00,-89.00,-1007.00
2024-06-07 10:57:29.976438,-1,4,2,0,0,0,77,79,126,80,61,133.58,246,-21.00,-94.00,-1051.00
2024-06-07 10:57:30.055702,-1,4,2,0,0,0,77,79,127,80,61,133.63,246,-30.00,-96.00,-1000.00
2024-06-07 10:57:30.157334,-1,5,2,0,0,0,77,79,127,80,61,133.62,246,-29.00,-83.00,-1004.00
2024-06-07 10:57:30.283346,-2,4,2,0,0,0,77,79,127,80,61,133.68,246,-36.00,-75.00,-1006.00
2024-06-07 10:57:30.361408,-8,3,2,0,0,0,77,79,129,80,61,133.65,246,-17.00,-94.00,-944.00
2024-06-07 10:57:30.488149,-8,3,2,1,0,0,76,79,128,80,61,133.58,246,-33.00,-95.00,-1003.00
2024-06-07 10:57:30.566316,-8,4,2,2,0,0,76,79,129,80,61,133.61,246,-40.00,-64.00,-967.00
2024-06-07 10:57:30.693763,-7,4,2,3,0,0,76,79,129,80,61,133.59,246,-41.00,-103.00,-968.00
2024-06-07 10:57:30.769820,-7,5,2,4,0,0,76,79,127,80,61,133.54,246,-53.00,-64.00,-989.00
2024-06-07 10:57:30.897675,-6,5,2,5,0,0,76,79,127,80,61,133.61,247,-67.00,-59.00,-968.00
2024-06-07 10:57:30.973264,-6,5,2,6,0,0,76,79,127,80,61,133.48,247,-49.00,-100.00,-1034.00
2024-06-07 10:57:31.075260,-6,5,2,6,0,0,76,79,126,80,61,133.48,247,-76.00,-84.00,-991.00
2024-06-07 10:57:31.204958,-5,6,2,7,0,0,76,79,127,80,61,133.39,247,-70.00,-63.00,-992.00
2024-06-07 10:57:31.228420,-3,7,2,7,0,0,76,79,126,80,61,133.40,247,-56.00,-91.00,-1049.00
2024-06-07 10:57:31.332091,0,6,3,7,0,0,76,79,126,80,61,133.50,247,-50.00,-98.00,-1029.00
2024-06-07 10:57:31.512216,3,5,3,6,1,0,76,79,124,80,61,133.53,247,-75.00,-98.00,-995.00
2024-06-07 10:57:31.585338,3,4,3,5,0,0,76,79,124,80,61,133.52,247,-67.00,-77.00,-951.00
2024-06-07 10:57:31.716986,1,4,3,4,0,0,76,79,123,80,61,133.46,247,-38.00,-96.00,-995.00
2024-06-07 10:57:31.790041,0,5,2,3,0,0,76,79,123,80,61,133.61,247,-43.00,-92.00,-987.00
2024-06-07 10:57:31.921703,0,5,2,3,0,0,76,79,123,80,61,133.51,248,-21.00,-93.00,-1016.00
2024-06-07 10:57:31.993224,0,6,2,3,0,0,76,79,123,80,61,133.50,248,-49.00,-96.00,-987.00
2024-06-07 10:57:32.044477,0,5,2,3,1,0,76,79,123,80,61,133.56,248,-32.00,-86.00,-1033.00
2024-06-07 10:57:32.146706,0,5,2,3,1,0,76,79,124,80,61,133.49,248,-32.00,-72.00,-988.00
2024-06-07 10:57:32.334587,0,1,2,2,1,0,76,79,123,80,61,133.62,248,-39.00,-76.00,-1029.00
2024-06-07 10:57:32.350263,3,2,2,2,0,0,76,79,124,80,61,133.52,248,-6.00,-102.00,-1034.00
2024-06-07 10:57:32.536156,3,3,2,2,0,0,77,79,125,80,61,133.63,248,0.00,-84.00,-1051.00
2024-06-07 10:57:32.554566,2,3,2,1,0,0,77,79,126,80,60,133.73,248,-3.00,-97.00,-1044.00
2024-06-07 10:57:32.741026,1,5,2,1,0,0,77,79,126,80,60,133.83,248,-8.00,-133.00,-1015.00
2024-06-07 10:57:32.759757,0,6,2,1,-1,0,77,79,127,80,60,133.74,248,15.00,-118.00,-952.00
2024-06-07 10:57:32.863351,1,6,2,1,-1,0,77,79,127,80,60,133.81,249,-1.00,-117.00,-992.00
2024-06-07 10:57:32.964628,2,7,3,1,-1,0,77,79,128,80,60,133.76,249,-17.00,-149.00,-975.00
2024-06-07 10:57:33.066539,1,7,3,0,-1,0,77,79,127,80,60,133.84,249,-14.00,-149.00,-999.00
2024-06-07 10:57:33.169424,0,8,3,0,-1,0,77,79,127,80,60,133.91,249,-6.00,-170.00,-977.00
2024-06-07 10:57:33.272558,0,8,2,0,-2,0,77,79,127,80,60,133.92,249,8.00,-174.00,-996.00
2024-06-07 10:57:33.371556,0,8,2,0,-2,0,77,79,127,80,60,134.00,249,-13.00,-165.00,-989.00
2024-06-07 10:57:33.560174,0,8,2,0,-2,0,77,79,128,80,60,133.89,249,-16.00,-171.00,-962.00
2024-06-07 10:57:33.578406,0,9,3,0,-2,0,77,79,129,80,60,133.82,249,-5.00,-152.00,-996.00
2024-06-07 10:57:33.677407,0,8,3,0,-2,0,77,79,127,80,60,133.90,249,-20.00,-153.00,-1013.00
2024-06-07 10:57:33.870128,1,9,3,0,-2,0,77,79,129,80,60,133.88,249,-37.00,-171.00,-961.00
2024-06-07 10:57:33.881899,1,9,3,0,-2,0,77,79,129,80,60,133.78,250,-73.00,-137.00,-916.00
2024-06-07 10:57:34.072879,0,9,3,0,-1,0,77,79,129,80,60,133.75,250,-55.00,-111.00,-890.00
2024-06-07 10:57:34.085196,-1,9,3,0,-1,0,77,79,127,80,60,133.59,250,-39.00,-136.00,-1026.00
2024-06-07 10:57:34.277284,-1,9,2,-1,0,0,77,79,127,80,60,133.62,250,-33.00,-100.00,-933.00
2024-06-07 10:57:34.290680,-1,9,2,-1,0,0,77,79,127,80,60,133.57,250,-34.00,-91.00,-966.00
2024-06-07 10:57:34.391216,-2,8,2,-1,0,0,77,79,127,80,60,133.59,250,-24.00,-107.00,-1041.00
2024-06-07 10:57:34.557269,-2,8,2,-1,0,0,76,79,127,80,60,133.55,250,-46.00,-136.00,-1009.00
2024-06-07 10:57:34.595332,-3,8,2,-1,0,0,76,79,126,80,60,133.50,250,-24.00,-120.00,-1015.00
2024-06-07 10:57:34.788982,-3,8,2,0,1,0,76,79,128,80,60,133.51,250,-18.00,-94.00,-911.00
2024-06-07 10:57:34.799405,1,2,2,0,1,0,76,79,126,80,60,133.62,250,-9.00,-134.00,-1074.00
2024-06-07 10:57:34.993752,6,2,3,-1,0,0,76,79,126,80,60,133.59,251,-23.00,-135.00,-992.00
2024-06-07 10:57:35.003374,6,5,3,-2,0,0,76,79,126,80,60,133.58,251,0.00,-117.00,-998.00
2024-06-07 10:57:35.054734,6,5,3,-3,0,0,76,79,127,80,60,133.63,251,18.00,-113.00,-1004.00
2024-06-07 10:57:35.200500,6,5,3,-4,0,0,76,79,127,80,60,133.70,251,-3.00,-133.00,-999.00
2024-06-07 10:57:35.259369,5,6,3,-5,-1,0,76,79,127,80,60,133.57,251,-19.00,-122.00,-1025.00
2024-06-07 10:57:35.360125,5,8,3,-6,-1,0,76,79,128,80,60,133.63,251,-45.00,-109.00,-976.00
2024-06-07 10:57:35.512995,4,7,3,-7,-1,0,76,80,128,80,60,133.71,251,-6.00,-125.00,-985.00
2024-06-07 10:57:35.564023,1,8,3,-8,-1,0,76,80,128,80,60,133.61,251,-2.00,-120.00,-1027.00
2024-06-07 10:57:35.710550,-2,8,2,-8,0,0,76,80,129,80,60,133.69,251,0.00,-125.00,-1011.00
2024-06-07 10:57:35.768556,-4,7,2,-8,0,0,76,80,129,80,60,133.74,251,14.00,-135.00,-979.00
2024-06-07 10:57:35.915313,-5,6,2,-7,-1,0,76,80,129,80,60,133.73,252,-34.00,-122.00,-973.00
2024-06-07 10:57:35.975017,-5,5,2,-6,-1,0,76,80,130,80,60,133.82,252,5.00,-139.00,-954.00
2024-06-07 10:57:36.074263,-5,6,2,-5,-1,0,76,80,130,80,60,133.76,252,28.00,-121.00,-993.00
2024-06-07 10:57:36.176471,-4,8,2,-3,-1,0,76,80,130,80,60,133.75,252,2.00,-130.00,-992.00
2024-06-07 10:57:36.325827,-2,8,2,-3,-1,0,76,80,130,80,60,133.76,252,-4.00,-127.00,-990.00
2024-06-07 10:57:36.379918,-2,8,2,-2,-1,0,76,80,130,90,60,133.78,252,-2.00,-114.00,-998.00
2024-06-07 10:57:36.529643,-2,8,2,-2,-1,0,76,79,129,90,59,133.66,252,11.00,-141.00,-978.00
2024-06-07 10:57:36.584025,-1,8,2,-1,-1,0,76,79,128,80,59,133.63,252,-17.00,-150.00,-1006.00
2024-06-07 10:57:36.734433,-1,8,2,-1,-1,0,76,79,128,80,59,133.66,252,2.00,-176.00,-996.00
2024-06-07 10:57:36.787890,-1,8,2,0,-1,0,76,79,129,80,59,133.70,252,34.00,-116.00,-1009.00
2024-06-07 10:57:36.941165,-1,9,2,0,-1,0,76,79,127,80,59,133.69,253,10.00,-111.00,-1002.00
2024-06-07 10:57:36.991851,0,8,2,0,-1,0,76,79,126,80,59,133.74,253,0.00,-143.00,-1001.00
2024-06-07 10:57:37.144024,1,8,3,0,-1,0,76,79,124,80,59,133.59,253,-39.00,-128.00,-981.00
2024-06-07 10:57:37.195894,0,7,3,0,-1,0,76,79,123,80,59,133.65,253,-25.00,-173.00,-987.00
2024-06-07 10:57:37.350713,1,9,3,0,-1,0,76,79,124,80,59,133.55,253,-56.00,-119.00,-971.00
2024-06-07 10:57:37.399927,0,8,3,0,0,0,76,79,122,80,59,133.66,253,-23.00,-145.00,-1018.00
2024-06-07 10:57:37.553664,-1,8,2,0,0,0,76,79,123,80,59,133.63,253,0.00,-176.00,-1028.00
2024-06-07 10:57:37.609456,0,7,2,0,0,0,76,79,122,80,59,133.75,253,8.00,-205.00,-1008.00
2024-06-07 10:57:37.709926,0,8,2,0,-1,0,76,79,121,80,59,133.72,253,14.00,-190.00,-993.00
2024-06-07 10:57:37.814307,0,8,2,0,-2,0,76,79,123,80,59,133.81,253,-4.00,-173.00,-989.00
2024-06-07 10:57:37.909873,0,9,2,0,-2,0,76,79,123,80,59,133.78,254,24.00,-170.00,-998.00
2024-06-07 10:57:38.066772,0,9,2,0,-2,0,76,79,124,80,59,133.71,254,0.00,-169.00,-958.00
2024-06-07 10:57:38.113877,0,9,2,0,-2,0,76,79,124,80,59,133.76,254,-2.00,-166.00,-962.00
2024-06-07 10:57:38.270732,0,9,2,0,-3,0,76,79,125,80,59,133.75,254,29.00,-145.00,-990.00
2024-06-07 10:57:38.317787,0,8,3,1,-3,0,76,79,124,80,59,133.77,254,2.00,-179.00,-967.00
2024-06-07 10:57:38.419887,1,8,3,1,-3,0,76,79,125,80,59,133.83,254,-12.00,-208.00,-997.00
2024-06-07 10:57:38.577669,1,9,3,1,-4,0,77,79,127,80,59,133.74,254,-27.00,-154.00,-913.00
2024-06-07 10:57:38.623788,2,9,3,0,-4,0,77,79,125,80,59,133.62,254,-59.00,-146.00,-946.00
2024-06-07 10:57:38.783228,1,9,3,0,-3,0,77,79,126,80,59,133.58,254,-31.00,-176.00,-1014.00
2024-06-07 10:57:38.828054,0,9,3,0,-3,0,77,79,127,80,59,133.55,254,-25.00,-133.00,-974.00
2024-06-07 10:57:38.988832,0,9,2,0,-3,0,77,79,125,80,59,133.67,255,-34.00,-162.00,-997.00
2024-06-07 10:57:39.031935,0,9,2,0,-3,0,77,79,127,80,59,133.61,255,-40.00,-158.00,-986.00
2024-06-07 10:57:39.195783,-1,8,2,0,-4,0,77,79,126,80,59,133.53,255,5.00,-167.00,-956.00
2024-06-07 10:57:39.196775,-1,9,3,0,-4,0,77,79,128,80,59,133.52,255,-40.00,-127.00,-942.00
2024-06-07 10:57:39.287238,0,9,3,0,-3,0,77,79,127,80,59,133.57,255,-43.00,-134.00,-1024.00
2024-06-07 10:57:39.397075,0,8,2,-1,-3,0,77,79,127,80,59,133.52,255,-45.00,-174.00,-1032.00
2024-06-07 10:57:39.490730,-1,8,2,-1,-3,0,76,79,128,80,58,133.50,255,-57.00,-146.00,-990.00
2024-06-07 10:57:39.601767,-1,8,2,-1,-3,0,76,79,127,80,58,133.67,255,-50.00,-150.00,-1024.00
2024-06-07 10:57:39.694758,-2,9,2,-1,-4,0,76,79,129,80,58,133.70,255,-52.00,-145.00,-896.00
2024-06-07 10:57:39.806745,-2,9,2,-1,-4,0,76,79,129,80,58,133.59,255,-66.00,-151.00,-918.00
2024-06-07 10:57:39.898803,-2,8,2,-1,-4,0,76,79,130,80,58,133.57,256,13.00,-144.00,-1020.00
2024-06-07 10:57:40.011419,-2,8,2,-1,-4,0,76,79,130,80,58,133.56,256,-51.00,-143.00,-975.00
2024-06-07 10:57:40.103331,-1,8,2,-1,-4,0,76,79,128,80,58,133.59,256,-74.00,-177.00,-1031.00
2024-06-07 10:57:40.205749,-1,8,3,-2,-4,0,76,79,129,80,58,133.51,256,-88.00,-111.00,-977.00
2024-06-07 10:57:40.308910,-1,8,3,-2,-4,0,76,79,130,80,58,133.57,256,-97.00,-109.00,-1002.00
2024-06-07 10:57:40.410801,-3,9,2,-3,-3,0,76,79,131,80,58,133.60,256,-90.00,-107.00,-927.00
2024-06-07 10:57:40.510738,-3,8,2,-3,-3,0,76,79,132,80,58,133.58,256,-88.00,-110.00,-1003.00
2024-06-07 10:57:40.625674,-4,9,2,-3,-3,0,76,79,132,80,58,133.58,256,-54.00,-65.00,-1012.00
2024-06-07 10:57:40.715639,-4,8,2,-3,-2,0,76,79,133,80,58,133.59,256,-14.00,-38.00,-1024.00
2024-06-07 10:57:40.832059,-5,9,2,-2,-1,0,76,79,135,80,58,133.60,256,-29.00,-45.00,-996.00
2024-06-07 10:57:40.918734,-4,8,2,-1,0,0,76,79,134,80,58,133.66,257,-23.00,-41.00,-1013.00
2024-06-07 10:57:41.035257,-4,8,2,-1,0,0,76,79,136,80,58,133.65,257,-26.00,-41.00,-968.00
2024-06-07 10:57:41.122719,-3,7,2,0,1,0,76,79,136,80,58,133.73,257,-53.00,-112.00,-993.00
2024-06-07 10:57:41.240106,-2,6,2,0,2,0,76,79,137,80,58,133.77,257,-62.00,-125.00,-983.00
2024-06-07 10:57:41.327273,-3,7,2,0,1,0,76,79,138,80,58,133.74,257,-81.00,-134.00,-966.00
2024-06-07 10:57:41.444862,-3,8,2,0,1,0,76,79,138,90,58,133.66,257,-40.00,-89.00,-923.00
2024-06-07 10:57:41.530971,-4,8,2,0,2,0,76,80,139,90,57,133.72,257,-44.00,-81.00,-1009.00
2024-06-07 10:57:41.649680,-2,7,2,0,2,0,76,80,139,90,57,133.78,257,0.00,-22.00,-905.00
2024-06-07 10:57:41.734998,-2,6,2,0,3,0,76,80,139,90,57,133.85,257,-8.00,-59.00,-907.00
2024-06-07 10:57:41.836815,-1,4,2,0,3,0,76,80,137,90,57,134.02,257,-1.00,-59.00,-1042.00
2024-06-07 10:57:41.957157,-1,2,2,0,3,0,76,80,137,90,57,134.03,258,3.00,-89.00,-1041.00
2024-06-07 10:57:42.040866,0,3,2,1,3,0,76,80,137,90,57,134.06,258,18.00,-114.00,-941.00
2024-06-07 10:57:42.161615,0,5,2,1,3,0,76,80,138,90,57,133.98,258,12.00,-99.00,-965.00
2024-06-07 10:57:42.244665,0,5,3,1,2,0,76,80,136,90,57,133.89,258,8.00,-79.00,-1063.00
2024-06-07 10:57:42.346772,0,5,3,1,3,0,76,80,136,90,57,133.98,258,-11.00,-134.00,-970.00
2024-06-07 10:57:42.468821,1,5,3,1,2,0,76,80,136,90,57,133.96,258,-1.00,-138.00,-1059.00
2024-06-07 10:57:42.550690,0,6,3,0,2,0,76,80,136,90,57,133.96,258,8.00,-98.00,-970.00
2024-06-07 10:57:42.674062,0,7,2,0,2,0,76,80,136,90,57,133.90,258,-2.00,-95.00,-977.00
2024-06-07 10:57:42.754646,0,7,3,0,2,0,76,80,135,90,57,133.93,258,-37.00,-61.00,-1000.00
2024-06-07 10:57:42.879013,0,6,3,0,3,0,76,80,135,90,57,133.91,258,-65.00,-93.00,-1013.00
2024-06-07 10:57:42.958557,0,5,3,0,3,0,76,80,134,90,57,133.99,259,-94.00,-95.00,-979.00
2024-06-07 10:57:43.084512,-1,4,3,0,3,0,76,80,134,90,57,133.98,259,-100.00,-73.00,-976.00
2024-06-07 10:57:43.162596,-4,4,3,-1,3,0,76,80,134,90,57,133.95,259,-115.00,-64.00,-997.00
2024-06-07 10:57:43.213585,-4,4,3,-1,3,0,76,80,134,90,57,133.87,259,-131.00,-65.00,-1003.00
2024-06-07 10:57:43.392360,-5,4,3,-1,3,0,76,80,133,90,57,133.89,259,-117.00,-75.00,-968.00
2024-06-07 10:57:43.417487,-6,5,3,-2,3,0,76,80,133,90,57,134.02,259,-98.00,-91.00,-962.00
2024-06-07 10:57:43.595204,-7,3,2,-1,2,0,76,79,132,90,57,134.01,259,-100.00,-125.00,-939.00
2024-06-07 10:57:43.673415,-6,6,2,-1,2,0,76,79,131,80,57,133.94,259,-91.00,-129.00,-939.00
2024-06-07 10:57:43.723572,-5,6,2,0,2,0,76,79,130,80,57,133.85,259,-57.00,-133.00,-990.00
2024-06-07 10:57:43.826016,-4,6,2,0,2,0,76,79,128,80,57,133.83,260,-78.00,-132.00,-1004.00
2024-06-07 10:57:44.004759,-4,7,2,0,1,0,76,79,129,80,57,133.88,260,-63.00,-112.00,-1025.00
2024-06-07 10:57:44.029552,-4,7,2,0,2,0,76,79,127,80,57,133.83,260,-81.00,-105.00,-1002.00
2024-06-07 10:57:44.209617,-4,6,2,0,2,0,76,79,127,80,57,133.76,260,-56.00,-149.00,-1000.00
2024-06-07 10:57:44.233764,-4,6,2,0,2,0,76,79,125,80,57,133.74,260,-15.00,-128.00,-993.00
2024-06-07 10:57:44.336617,-2,7,2,1,2,0,76,79,125,80,57,133.71,260,-13.00,-116.00,-994.00
2024-06-07 10:57:44.437651,0,6,2,1,2,0,76,79,125,80,57,133.81,260,-51.00,-128.00,-1006.00
2024-06-07 10:57:44.619248,-2,6,2,0,2,0,76,80,124,80,57,133.78,260,-34.00,-103.00,-1032.00
2024-06-07 10:57:44.641926,0,6,2,0,2,0,76,80,126,80,57,133.79,260,-53.00,-96.00,-1031.00
2024-06-07 10:57:44.824090,-2,5,2,0,2,0,76,80,124,80,57,133.77,260,-56.00,-135.00,-994.00
2024-06-07 10:57:44.845981,-3,6,2,0,2,0,76,80,124,80,57,133.69,261,-56.00,-84.00,-937.00
2024-06-07 10:57:45.028880,-3,4,2,0,2,0,76,80,126,80,57,133.84,261,-18.00,-163.00,-1007.00
2024-06-07 10:57:45.049471,-1,6,2,1,1,0,76,80,126,80,57,133.85,261,-13.00,-149.00,-967.00
2024-06-07 10:57:45.233688,-2,7,2,1,1,0,76,80,126,80,57,133.97,261,0.00,-154.00,-1034.00
2024-06-07 10:57:45.253462,-1,9,2,2,1,0,76,80,125,80,57,133.66,261,-4.00,-127.00,-1051.00
2024-06-07 10:57:45.355873,1,8,2,2,1,0,76,80,126,80,57,133.87,261,52.00,-144.00,-999.00
2024-06-07 10:57:45.457411,2,8,2,2,1,0,76,80,127,80,57,133.80,261,24.00,-145.00,-1018.00
2024-06-07 10:57:45.559394,3,8,3,2,1,0,76,79,128,80,57,133.94,261,56.00,-168.00,-968.00
2024-06-07 10:57:45.661420,3,7,3,2,1,0,76,79,127,80,57,133.93,261,3.00,-163.00,-982.00
2024-06-07 10:57:45.763467,3,8,3,1,0,0,76,79,127,80,57,134.12,261,-14.00,-221.00,-982.00
2024-06-07 10:57:45.866753,2,9,2,0,0,0,76,79,128,80,57,133.97,262,-37.00,-183.00,-968.00
2024-06-07 10:57:45.967399,0,9,2,0,0,0,76,79,127,80,57,133.96,262,-14.00,-159.00,-1023.00
2024-06-07 10:57:46.071509,0,9,2,0,0,0,76,79,126,80,57,133.88,262,-37.00,-117.00,-1000.00
2024-06-07 10:57:46.172803,0,9,2,0,0,0,76,79,127,80,57,133.87,262,-65.00,-126.00,-982.00
2024-06-07 10:57:46.276911,-1,8,2,0,1,0,76,79,127,80,57,133.75,262,-42.00,-130.00,-999.00
2024-06-07 10:57:46.378433,-2,8,2,0,1,0,76,79,127,80,57,133.85,262,-44.00,-146.00,-1017.00
2024-06-07 10:57:46.481412,-2,7,2,0,1,0,76,79,127,80,57,133.87,262,-10.00,-142.00,-1007.00
2024-06-07 10:57:46.579371,-3,8,2,0,1,0,77,79,128,80,57,134.11,262,-7.00,-151.00,-982.00
2024-06-07 10:57:46.681631,-1,8,2,0,1,0,77,79,128,80,57,133.94,262,-24.00,-141.00,-952.00
2024-06-07 10:57:46.783882,-2,9,2,0,1,0,77,79,127,80,57,133.95,262,-50.00,-170.00,-966.00
2024-06-07 10:57:46.885740,-3,9,3,0,1,0,77,79,128,80,57,133.88,263,-52.00,-76.00,-978.00
2024-06-07 10:57:46.987467,-3,8,3,0,2,0,77,79,128,80,57,133.80,263,-93.00,-131.00,-1021.00
2024-06-07 10:57:47.179196,-3,8,3,0,2,0,77,79,128,80,57,133.82,263,-42.00,-148.00,-1032.00
2024-06-07 10:57:47.191610,-4,7,2,0,2,0,77,79,128,80,57,133.76,263,-49.00,-124.00,-971.00
2024-06-07 10:57:47.242795,-3,7,2,0,2,0,77,79,126,80,57,133.80,263,-25.00,-143.00,-1035.00
2024-06-07 10:57:47.344404,-1,9,2,0,2,0,77,79,128,80,57,133.72,263,-19.00,-99.00,-983.00
2024-06-07 10:57:47.486404,-2,4,2,0,3,0,77,79,126,80,57,133.87,263,-10.00,-148.00,-994.00
2024-06-07 10:57:47.548366,-2,6,2,0,2,0,77,79,127,80,56,133.72,263,10.00,-121.00,-981.00
2024-06-07 10:57:47.691220,-1,7,2,0,2,0,77,79,128,80,56,133.73,263,-1.00,-94.00,-998.00
2024-06-07 10:57:47.752201,0,5,3,0,2,0,77,79,127,80,56,133.76,263,-11.00,-137.00,-1011.00
2024-06-07 10:57:47.854309,0,4,3,0,2,0,77,79,128,80,56,133.64,264,-19.00,-113.00,-1012.00
2024-06-07 10:57:47.998667,0,2,3,0,2,0,77,79,127,80,56,133.73,264,-32.00,-81.00,-986.00
2024-06-07 10:57:48.058259,-1,2,3,0,1,0,77,79,127,80,56,133.61,264,-1.00,-100.00,-1015.00
2024-06-07 10:57:48.160944,-1,3,3,0,1,0,77,79,127,80,56,133.73,264,-7.00,-77.00,-986.00
2024-06-07 10:57:48.306028,-1,3,2,0,1,0,77,79,126,80,56,133.65,264,-6.00,-89.00,-994.00
2024-06-07 10:57:48.364446,-1,3,2,0,1,0,77,79,127,80,56,133.73,264,-10.00,-72.00,-1020.00
2024-06-07 10:57:48.510509,0,4,2,0,0,0,77,79,126,80,56,133.73,264,12.00,-58.00,-970.00
2024-06-07 10:57:48.568395,0,4,2,0,1,0,76,79,127,80,56,133.68,264,-22.00,-84.00,-985.00
2024-06-07 10:57:48.715186,0,2,2,0,1,0,76,79,126,80,56,133.73,264,10.00,-63.00,-983.00
2024-06-07 10:57:48.772468,1,3,2,0,1,0,76,79,128,80,56,133.71,264,11.00,-56.00,-997.00
2024-06-07 10:57:48.875973,1,2,3,0,1,0,76,79,126,80,56,133.74,265,8.00,-76.00,-1008.00
2024-06-07 10:57:48.976390,1,2,3,0,0,0,76,79,126,80,56,133.71,265,20.00,-50.00,-1009.00
2024-06-07 10:57:49.125237,1,2,3,0,0,0,76,79,126,80,56,133.76,265,7.00,-57.00,-1020.00
2024-06-07 10:57:49.180380,1,2,3,0,0,0,76,79,126,80,56,133.70,265,23.00,-42.00,-996.00
2024-06-07 10:57:49.329740,0,4,3,0,0,0,76,79,128,80,56,133.79,265,-15.00,-83.00,-995.00
2024-06-07 10:57:49.384273,0,4,2,0,0,0,76,79,128,80,56,133.74,265,11.00,-66.00,-1056.00
2024-06-07 10:57:49.534505,0,3,2,0,0,0,76,79,128,80,56,133.66,265,6.00,-49.00,-963.00
2024-06-07 10:57:49.588424,0,3,2,0,0,0,76,79,128,80,56,133.79,265,41.00,-61.00,-969.00
2024-06-07 10:57:49.739312,1,3,2,0,0,0,76,79,130,80,56,133.64,265,45.00,-41.00,-949.00
2024-06-07 10:57:49.792555,2,2,3,0,0,0,76,79,128,80,56,133.69,265,43.00,-41.00,-958.00
2024-06-07 10:57:49.944052,2,1,3,0,0,0,76,79,129,80,56,133.79,266,41.00,-23.00,-984.00
2024-06-07 10:57:49.996244,2,1,3,0,0,0,76,79,128,80,56,133.78,266,36.00,-34.00,-1005.00
2024-06-07 10:57:50.112362,2,2,3,0,0,0,76,79,130,80,56,133.86,266,49.00,-40.00,-995.00
2024-06-07 10:57:50.200261,3,2,2,0,0,0,76,79,130,80,56,133.95,266,38.00,-28.00,-976.00
2024-06-07 10:57:50.353825,2,1,2,0,0,0,76,79,131,80,56,133.92,266,17.00,-13.00,-939.00
2024-06-07 10:57:50.404228,0,-3,2,0,0,0,76,79,130,80,56,133.81,266,16.00,-12.00,-1000.00
2024-06-07 10:57:50.558401,1,-4,2,0,0,0,76,79,129,80,56,134.00,266,15.00,-38.00,-982.00
2024-06-07 10:57:50.608288,0,-3,2,0,-1,0,76,79,129,80,56,133.91,266,16.00,11.00,-1026.00
2024-06-07 10:57:50.763246,0,-1,2,0,-2,0,76,79,128,80,56,133.90,266,12.00,30.00,-988.00
2024-06-07 10:57:50.812123,0,0,3,0,-2,0,76,79,127,80,56,133.85,266,25.00,25.00,-1012.00
2024-06-07 10:57:50.968534,0,0,3,0,-2,0,76,79,128,80,56,133.79,267,20.00,-4.00,-1030.00
2024-06-07 10:57:51.016191,0,1,2,0,-2,0,76,79,128,80,56,133.89,267,16.00,0.00,-1012.00
2024-06-07 10:57:51.067193,1,1,3,0,-2,0,76,79,128,80,56,133.85,267,18.00,-56.00,-1034.00
2024-06-07 10:57:51.172911,1,1,2,0,-2,0,76,79,130,80,56,133.92,267,35.00,-26.00,-1011.00
2024-06-07 10:57:51.271251,0,2,2,0,-2,0,76,79,130,80,56,133.92,267,24.00,-29.00,-1012.00
2024-06-07 10:57:51.373342,1,2,2,0,-2,0,76,79,130,80,56,133.81,267,27.00,-44.00,-1034.00
2024-06-07 10:57:51.480025,1,2,3,0,-2,0,76,79,131,80,56,133.89,267,3.00,-45.00,-989.00
2024-06-07 10:57:51.580523,1,2,3,0,-2,0,75,79,132,80,56,133.96,267,11.00,-40.00,-994.00
2024-06-07 10:57:51.679878,1,3,3,0,-2,0,75,79,132,80,56,133.95,267,19.00,-73.00,-977.00
2024-06-07 10:57:51.781650,3,3,3,0,-2,0,75,79,132,80,56,133.98,267,29.00,-65.00,-1031.00
2024-06-07 10:57:51.889933,4,3,3,0,-2,0,75,79,133,80,56,133.96,268,18.00,-43.00,-1021.00
2024-06-07 10:57:51.985570,3,4,3,0,-2,0,75,79,134,80,56,133.88,268,32.00,-60.00,-1004.00
2024-06-07 10:57:52.087133,3,4,3,0,-2,0,75,79,132,80,56,133.89,268,32.00,-65.00,-1028.00
2024-06-07 10:57:52.196851,2,3,3,0,-1,0,75,79,131,80,56,133.92,268,12.00,-56.00,-987.00
2024-06-07 10:57:52.291248,2,3,3,0,-1,0,75,79,130,80,56,133.87,268,23.00,-48.00,-1004.00
2024-06-07 10:57:52.394094,0,3,3,-1,-1,0,75,79,130,80,56,133.99,268,23.00,-75.00,-1000.00
2024-06-07 10:57:52.504839,-3,7,2,0,-1,0,75,79,131,80,55,133.99,268,19.00,-39.00,-953.00
2024-06-07 10:57:52.598378,0,6,2,0,0,0,76,79,131,80,55,133.89,268,15.00,-82.00,-983.00
2024-06-07 10:57:52.708912,0,5,2,0,0,0,76,79,129,80,55,133.93,268,14.00,-77.00,-1010.00
2024-06-07 10:57:52.802567,0,5,2,0,0,0,76,79,129,80,55,134.02,268,12.00,-52.00,-1007.00
2024-06-07 10:57:52.914017,0,4,3,0,0,0,76,79,130,80,55,134.00,269,13.00,-70.00,-997.00
2024-06-07 10:57:53.006347,0,4,3,0,0,0,76,79,129,80,55,134.00,269,11.00,-54.00,-1018.00
2024-06-07 10:57:53.118591,0,4,3,0,0,0,76,79,129,80,55,134.03,269,22.00,-67.00,-1027.00
2024-06-07 10:57:53.211642,0,4,3,0,0,0,76,79,128,80,55,134.00,269,21.00,-69.00,-1039.00
2024-06-07 10:57:53.312244,0,4,3,0,0,0,76,79,127,80,55,134.01,269,9.00,-75.00,-1050.00
2024-06-07 10:57:53.415359,0,4,3,0,0,0,76,79,128,80,55,133.99,269,13.00,-47.00,-1010.00
2024-06-07 10:57:53.516798,0,4,3,0,0,0,76,79,127,80,55,133.96,269,4.00,-65.00,-986.00
2024-06-07 10:57:53.630543,0,4,3,0,0,0,76,78,129,80,55,133.99,269,9.00,-65.00,-980.00
2024-06-07 10:57:53.720436,0,4,2,0,0,0,76,78,127,80,55,134.00,269,6.00,-60.00,-930.00
2024-06-07 10:57:53.822628,0,4,2,0,0,0,76,78,127,80,55,133.99,269,1.00,-75.00,-1009.00
2024-06-07 10:57:53.937874,0,4,2,0,0,0,76,78,127,80,55,134.01,270,0.00,-86.00,-965.00
2024-06-07 10:57:54.026144,0,4,2,0,0,0,76,78,126,80,55,133.94,270,0.00,-84.00,-1001.00
2024-06-07 10:57:54.142783,0,4,3,0,0,0,76,78,127,80,55,133.96,270,5.00,-80.00,-1029.00
2024-06-07 10:57:54.230320,1,4,3,0,0,0,76,78,127,80,55,133.92,270,-7.00,-92.00,-1066.00
2024-06-07 10:57:54.347358,0,4,3,0,0,0,76,78,127,80,55,133.98,270,5.00,-53.00,-1021.00
2024-06-07 10:57:54.434177,0,4,3,0,0,0,76,78,125,80,55,133.94,270,-9.00,-62.00,-983.00
2024-06-07 10:57:54.485878,0,4,3,0,0,0,76,78,126,80,55,134.00,270,-23.00,-65.00,-943.00
2024-06-07 10:57:54.642741,0,4,2,0,0,0,75,78,126,80,55,133.96,270,-35.00,-55.00,-979.00
2024-06-07 10:57:54.689612,0,3,2,0,0,0,75,78,126,80,55,134.03,270,-33.00,-54.00,-1007.00
2024-06-07 10:57:54.859736,-1,6,2,0,0,0,75,78,127,80,55,133.94,270,-17.00,-42.00,-983.00
2024-06-07 10:57:54.893049,-1,9,2,0,1,0,75,78,127,80,55,133.95,271,-30.00,-78.00,-1009.00
2024-06-07 10:57:55.064284,-1,8,3,0,2,0,75,78,127,80,55,133.92,271,-11.00,-77.00,-1090.00
2024-06-07 10:57:55.097035,-1,8,3,0,3,0,75,78,128,80,55,133.97,271,-30.00,-68.00,-955.00
2024-06-07 10:57:55.268964,-1,6,3,0,3,0,75,78,128,80,55,133.96,271,-29.00,-67.00,-932.00
2024-06-07 10:57:55.301044,-1,3,3,0,3,0,75,78,127,80,55,133.95,271,-26.00,-76.00,-1003.00
2024-06-07 10:57:55.402978,-1,2,3,0,3,0,75,78,128,80,55,133.96,271,-12.00,-64.00,-984.00
2024-06-07 10:57:55.576272,-1,2,3,0,3,0,75,78,127,80,55,133.91,271,-28.00,-80.00,-968.00
2024-06-07 10:57:55.607039,-1,3,3,0,3,0,76,78,127,80,55,134.03,271,-26.00,-88.00,-1009.00
2024-06-07 10:57:55.709137,-2,3,3,0,2,0,76,78,128,80,55,133.95,271,-28.00,-64.00,-983.00
2024-06-07 10:57:55.883952,-1,3,2,0,2,0,76,78,127,80,55,133.92,271,-39.00,-60.00,-1004.00
2024-06-07 10:57:55.912958,-1,2,2,0,2,0,76,78,126,80,55,133.91,272,-26.00,-46.00,-972.00
2024-06-07 10:57:56.091659,-2,2,2,0,2,0,76,78,127,80,55,133.98,272,-22.00,-99.00,-1043.00
2024-06-07 10:57:56.116921,-4,2,2,0,2,0,76,78,127,80,55,133.94,272,-9.00,-60.00,-961.00
2024-06-07 10:57:56.293209,-4,3,2,0,1,0,76,78,127,80,55,134.00,272,-10.00,-94.00,-1045.00
2024-06-07 10:57:56.320976,-2,4,2,1,1,0,76,78,128,80,55,133.99,272,16.00,-104.00,-998.00
2024-06-07 10:57:56.497647,2,6,3,1,1,0,76,78,128,80,55,133.99,272,-19.00,-63.00,-989.00
2024-06-07 10:57:56.525537,1,6,3,1,2,0,76,78,130,80,55,134.00,272,6.00,-74.00,-993.00
2024-06-07 10:57:56.627737,1,0,3,0,2,0,75,78,128,80,55,134.05,272,-1.00,-77.00,-969.00
2024-06-07 10:57:56.729502,1,0,3,0,1,0,75,78,129,80,55,133.96,272,0.00,-93.00,-972.00
2024-06-07 10:57:56.907434,1,2,3,0,0,0,75,78,129,80,55,134.06,272,-2.00,-112.00,-1002.00
2024-06-07 10:57:56.933038,0,2,3,0,0,0,75,78,128,80,55,134.06,273,-12.00,-68.00,-956.00
2024-06-07 10:57:57.112303,0,2,3,0,0,0,75,78,128,80,55,134.00,273,-22.00,-48.00,-952.00
2024-06-07 10:57:57.136973,0,2,3,0,0,0,75,78,129,80,55,133.96,273,1.00,-74.00,-1047.00
2024-06-07 10:57:57.316985,0,2,2,0,0,0,75,78,128,80,55,134.02,273,-19.00,-67.00,-1038.00
2024-06-07 10:57:57.347579,0,3,2,0,0,0,75,78,128,80,55,134.07,273,16.00,-61.00,-1003.00
2024-06-07 10:57:57.443151,0,3,2,0,0,0,75,78,128,80,55,134.00,273,5.00,-67.00,-976.00
2024-06-07 10:57:57.624368,0,3,2,0,0,0,75,78,126,80,55,134.03,273,8.00,-66.00,-1051.00
2024-06-07 10:57:57.647056,0,2,2,0,0,0,76,79,126,80,55,134.01,273,-11.00,-39.00,-993.00
2024-06-07 10:57:57.829422,0,1,3,0,0,0,76,79,126,80,55,133.90,273,-17.00,-50.00,-1038.00
2024-06-07 10:57:57.851311,-1,1,3,0,0,0,76,79,126,80,55,134.00,273,-9.00,-66.00,-979.00
2024-06-07 10:57:58.033810,-1,2,3,0,0,0,76,79,126,80,55,134.01,274,-22.00,-54.00,-943.00
2024-06-07 10:57:58.054910,-2,2,3,0,0,0,76,79,125,80,55,134.04,274,-16.00,-85.00,-1027.00
2024-06-07 10:57:58.238561,-1,2,3,0,0,0,76,79,126,80,55,134.05,274,-9.00,-64.00,-945.00
2024-06-07 10:57:58.258874,-1,4,3,0,0,0,76,79,127,80,55,134.07,274,3.00,-87.00,-1018.00
2024-06-07 10:57:58.309931,0,5,2,0,0,0,76,79,126,80,55,134.12,274,11.00,-94.00,-1026.00
2024-06-07 10:57:58.411867,0,5,2,0,0,0,76,79,127,80,55,133.96,274,-25.00,-80.00,-992.00
2024-06-07 10:57:58.553242,0,5,3,0,0,0,76,79,126,80,55,134.07,274,-27.00,-89.00,-983.00
2024-06-07 10:57:58.732829,0,5,3,0,0,0,76,78,127,80,55,134.04,274,-39.00,-77.00,-1001.00
2024-06-07 10:57:58.732964,-1,4,3,0,0,0,76,78,127,80,55,134.03,274,-57.00,-67.00,-974.00
2024-06-07 10:57:58.819851,-2,3,4,0,0,0,76,78,127,80,55,134.03,275,-40.00,-79.00,-1042.00
2024-06-07 10:57:58.955215,-2,3,10,0,0,0,76,78,127,80,55,134.11,275,-65.00,-54.00,-957.00
2024-06-07 10:57:59.023937,-2,2,16,0,0,0,76,78,128,80,55,134.09,275,-24.00,-67.00,-988.00
2024-06-07 10:57:59.160008,-2,2,22,0,0,0,76,78,128,80,55,134.03,275,-30.00,-46.00,-1011.00
2024-06-07 10:57:59.229871,-2,2,27,0,0,0,76,78,128,80,55,133.98,275,-52.00,-51.00,-1005.00
2024-06-07 10:57:59.329953,-3,1,32,0,0,0,76,78,127,80,55,133.90,275,-51.00,-27.00,-999.00
2024-06-07 10:57:59.467202,-3,1,37,0,0,0,76,78,127,80,55,133.89,275,-47.00,-38.00,-1042.00
2024-06-07 10:57:59.533825,-4,0,41,0,0,0,76,78,128,80,55,133.90,275,-61.00,-55.00,-1003.00
2024-06-07 10:57:59.672740,-3,0,47,0,0,0,76,78,127,80,55,133.93,275,-42.00,-85.00,-985.00
2024-06-07 10:57:59.737818,-3,2,53,0,0,0,76,78,126,80,55,133.91,275,-54.00,-37.00,-1064.00
2024-06-07 10:57:59.840807,-3,2,60,0,0,0,76,78,128,80,55,133.89,276,-72.00,29.00,-934.00
2024-06-07 10:57:59.979194,-2,0,66,0,0,0,76,78,127,80,55,133.89,276,-56.00,15.00,-1033.00
2024-06-07 10:58:00.043800,-2,-1,71,0,0,0,76,78,128,80,55,133.82,276,-45.00,11.00,-984.00
2024-06-07 10:58:00.184798,-2,-2,76,0,0,0,76,78,128,80,55,133.75,276,-61.00,6.00,-994.00
2024-06-07 10:58:00.250769,-2,-2,82,0,0,0,76,78,127,80,55,133.72,276,-63.00,10.00,-991.00
2024-06-07 10:58:00.352070,-3,-2,88,0,0,0,76,78,127,80,55,133.75,276,-66.00,31.00,-990.00
2024-06-07 10:58:00.451730,-2,-1,93,0,0,0,76,78,126,80,55,133.82,276,-56.00,28.00,-989.00
2024-06-07 10:58:00.593652,-2,-2,99,0,0,0,76,78,126,80,55,133.89,276,-32.00,34.00,-986.00
2024-06-07 10:58:00.655722,-2,-2,104,0,0,0,75,77,125,80,55,133.81,276,-54.00,9.00,-991.00
2024-06-07 10:58:00.799268,-1,-1,110,0,0,0,75,77,126,80,55,133.87,276,-47.00,30.00,-1018.00
2024-06-07 10:58:00.859796,-2,-1,115,0,0,0,75,77,124,80,55,133.88,277,-52.00,35.00,-1044.00
2024-06-07 10:58:01.003229,-1,-2,120,0,0,0,75,77,123,80,55,133.83,277,-44.00,66.00,-1010.00
2024-06-07 10:58:01.063765,-1,-2,126,0,0,0,75,77,122,80,55,133.90,277,-76.00,28.00,-1042.00
2024-06-07 10:58:01.208005,-2,-3,132,0,0,0,75,77,123,80,55,133.78,277,-77.00,38.00,-1045.00
2024-06-07 10:58:01.267683,-3,-2,138,0,0,0,75,77,123,80,55,133.83,277,-51.00,30.00,-1020.00
2024-06-07 10:58:01.413649,-2,-2,143,0,0,0,75,77,123,80,55,133.85,277,-62.00,49.00,-975.00
2024-06-07 10:58:01.471679,-2,-2,148,0,0,0,75,77,123,80,55,133.88,277,-57.00,43.00,-960.00
2024-06-07 10:58:01.617596,-1,-2,154,0,0,0,75,77,122,80,54,133.80,277,-42.00,43.00,-987.00
2024-06-07 10:58:01.676022,-1,-3,159,0,0,0,75,78,122,80,54,133.93,277,-30.00,41.00,-995.00
2024-06-07 10:58:01.823262,-1,-2,165,0,0,0,75,78,123,80,54,134.01,277,-10.00,55.00,-1022.00
2024-06-07 10:58:01.879677,0,-3,170,0,0,0,75,78,123,80,54,133.86,278,-50.00,47.00,-994.00
2024-06-07 10:58:02.027233,-1,-2,176,0,0,0,75,78,123,80,54,133.93,278,-20.00,36.00,-995.00
2024-06-07 10:58:02.032631,-1,-2,-177,0,0,0,75,78,123,80,54,133.93,278,-10.00,56.00,-1073.00
2024-06-07 10:58:02.232516,0,-2,-171,0,0,0,75,78,123,80,54,133.89,278,28.00,48.00,-1009.00
2024-06-07 10:58:02.236692,1,-1,-165,0,0,0,75,78,124,80,54,133.91,278,19.00,14.00,-964.00
2024-06-07 10:58:02.437461,1,-1,-159,0,0,0,75,78,126,80,54,133.93,278,40.00,39.00,-996.00
2024-06-07 10:58:02.440774,2,0,-153,0,0,0,75,78,126,80,54,133.98,278,35.00,52.00,-974.00
2024-06-07 10:58:02.642300,3,-1,-147,0,0,0,75,78,126,80,54,133.86,278,54.00,22.00,-1025.00
2024-06-07 10:58:02.644998,3,0,-142,0,0,0,75,78,128,80,54,134.02,278,50.00,0.00,-985.00
2024-06-07 10:58:02.746623,3,0,-136,0,0,0,75,78,128,80,54,134.10,278,45.00,20.00,-944.00
2024-06-07 10:58:02.849622,2,1,-131,0,0,0,75,78,127,80,54,134.03,279,32.00,35.00,-979.00
2024-06-07 10:58:02.950771,2,0,-125,0,0,0,75,78,128,80,54,134.00,279,37.00,23.00,-992.00
2024-06-07 10:58:03.052612,3,-1,-119,0,0,0,75,78,129,80,54,134.02,279,30.00,9.00,-981.00
2024-06-07 10:58:03.158360,2,0,-113,0,0,0,75,78,129,80,54,133.94,279,32.00,47.00,-939.00
2024-06-07 10:58:03.256557,2,0,-108,0,0,0,75,78,129,80,54,133.98,279,47.00,18.00,-1050.00
2024-06-07 10:58:03.358997,3,-2,-102,0,0,0,75,78,129,80,54,134.02,279,77.00,30.00,-957.00
2024-06-07 10:58:03.461407,4,-1,-95,0,0,0,75,78,130,90,54,133.98,279,72.00,-4.00,-999.00
2024-06-07 10:58:03.563210,4,0,-88,0,0,0,75,78,129,90,54,133.79,279,56.00,-13.00,-976.00
2024-06-07 10:58:03.665586,5,0,-81,0,0,0,75,78,129,90,54,133.84,279,45.00,-15.00,-1010.00
2024-06-07 10:58:03.768009,4,2,-76,0,0,0,75,78,129,90,54,134.03,279,78.00,-27.00,-1008.00
2024-06-07 10:58:03.871018,3,3,-70,0,0,0,75,78,128,90,54,133.97,280,53.00,-36.00,-959.00
2024-06-07 10:58:03.970584,3,4,-64,0,0,0,75,78,128,90,54,133.81,280,52.00,-44.00,-1026.00
2024-06-07 10:58:04.076026,2,4,-58,0,0,0,75,78,126,90,54,133.92,280,54.00,-52.00,-1002.00
2024-06-07 10:58:04.174653,2,3,-52,0,0,0,75,78,124,80,54,134.01,280,55.00,-77.00,-995.00
2024-06-07 10:58:04.286603,3,4,-45,0,0,0,75,78,123,80,54,134.11,280,13.00,-86.00,-973.00
2024-06-07 10:58:04.378915,1,5,-39,0,0,0,75,78,123,80,54,134.00,280,49.00,-118.00,-1055.00
2024-06-07 10:58:04.485269,1,7,-33,0,0,0,75,78,123,80,54,133.99,280,43.00,-90.00,-1051.00
2024-06-07 10:58:04.583218,1,7,-27,0,0,0,75,78,122,80,54,134.06,280,50.00,-88.00,-998.00
2024-06-07 10:58:04.685636,1,6,-21,0,0,0,76,78,121,80,54,134.09,280,43.00,-94.00,-988.00
2024-06-07 10:58:04.792038,1,6,-15,0,0,1,76,78,119,80,54,133.98,280,30.00,-69.00,-997.00
2024-06-07 10:58:04.888504,0,6,-11,0,0,0,76,78,118,80,54,133.93,281,-6.00,-103.00,-914.00
2024-06-07 10:58:04.990433,-2,5,-7,0,0,0,76,78,119,80,54,133.91,281,-12.00,-132.00,-1087.00
2024-06-07 10:58:05.092607,-1,6,-4,0,0,0,76,78,120,80,54,133.86,281,-33.00,-63.00,-1042.00
2024-06-07 10:58:05.201713,-2,5,-2,0,0,0,76,78,121,70,54,133.91,281,-40.00,-105.00,-1036.00
2024-06-07 10:58:05.296500,-3,4,0,0,0,0,76,78,121,80,54,133.96,281,-64.00,-88.00,-1036.00
2024-06-07 10:58:05.398684,-3,3,0,0,0,0,76,78,121,80,54,134.10,281,-73.00,-94.00,-1047.00
2024-06-07 10:58:05.509255,-2,6,1,0,0,0,76,78,123,80,54,133.91,281,-14.00,-102.00,-992.00
2024-06-07 10:58:05.554199,-1,6,1,0,0,0,76,78,125,80,54,133.96,281,-16.00,-146.00,-1037.00
2024-06-07 10:58:05.714342,0,5,2,0,0,-1,75,78,126,80,54,133.97,281,-55.00,-72.00,-1043.00
2024-06-07 10:58:05.807627,0,4,1,0,0,-1,75,78,127,80,54,134.00,281,-24.00,-92.00,-929.00
2024-06-07 10:58:05.916638,-1,3,1,0,0,-1,75,78,128,80,54,134.01,282,-26.00,-98.00,-918.00
2024-06-07 10:58:06.011191,0,3,1,0,0,0,75,78,128,80,54,133.96,282,-23.00,-99.00,-983.00
2024-06-07 10:58:06.061475,0,4,1,0,0,0,75,78,128,90,54,134.04,282,-41.00,-129.00,-902.00
2024-06-07 10:58:06.225770,0,5,1,0,0,0,75,78,128,90,54,134.07,282,-34.00,-132.00,-1005.00
2024-06-07 10:58:06.265581,0,7,1,0,0,0,75,78,128,90,54,134.04,282,-17.00,-105.00,-936.00
2024-06-07 10:58:06.430513,-1,6,1,0,0,0,75,78,126,90,54,133.98,282,-6.00,-89.00,-1011.00
2024-06-07 10:58:06.469580,0,7,1,0,0,0,75,78,127,80,54,133.95,282,-39.00,-109.00,-1019.00
2024-06-07 10:58:06.571597,0,5,1,0,0,0,75,78,124,80,54,133.83,282,-34.00,-86.00,-1001.00
2024-06-07 10:58:06.737680,0,4,1,0,0,0,75,78,123,80,54,133.82,282,-46.00,-89.00,-964.00
2024-06-07 10:58:06.775532,0,5,2,0,0,0,75,78,121,80,54,133.81,282,-69.00,-71.00,-1022.00
2024-06-07 10:58:06.942673,-2,5,2,-1,0,0,75,78,121,80,54,133.71,283,-51.00,-65.00,-1018.00
2024-06-07 10:58:06.980365,-3,3,1,0,0,0,75,78,119,80,54,133.67,283,-47.00,-78.00,-965.00
2024-06-07 10:58:07.147347,-3,2,1,0,0,0,75,78,119,80,54,133.87,283,-10.00,-67.00,-964.00
2024-06-07 10:58:07.183462,-2,3,1,0,0,0,75,78,118,80,54,133.89,283,-36.00,-74.00,-1008.00
2024-06-07 10:58:07.286463,0,4,1,0,0,0,75,78,118,80,54,133.82,283,-26.00,-73.00,-1003.00
2024-06-07 10:58:07.387899,-1,4,1,0,0,0,75,78,118,80,54,133.80,283,-21.00,-63.00,-1002.00
2024-06-07 10:58:07.513762,0,3,1,0,0,0,75,78,118,80,53,133.87,283,-32.00,-57.00,-1025.00
2024-06-07 10:58:07.591305,-1,3,1,0,0,0,75,78,118,80,53,133.76,283,-14.00,-56.00,-1002.00
2024-06-07 10:58:07.761594,0,2,-1,0,1,0,75,78,119,80,53,133.84,283,-26.00,-39.00,-990.00
2024-06-07 10:58:07.800194,0,1,-7,0,1,0,75,78,119,80,53,133.83,283,-6.00,-46.00,-1012.00
2024-06-07 10:58:07.897359,0,1,-13,0,0,0,75,78,119,80,53,133.78,284,-37.00,-46.00,-964.00
2024-06-07 10:58:07.999305,-1,1,-19,0,0,0,75,78,120,80,53,133.75,284,-34.00,-42.00,-1010.00
2024-06-07 10:58:08.171065,-2,2,-26,0,0,0,75,78,120,80,53,133.82,284,-7.00,-48.00,-996.00
2024-06-07 10:58:08.203225,-1,2,-32,0,0,0,75,78,121,80,53,133.82,284,0.00,-51.00,-1012.00
2024-06-07 10:58:08.376011,0,3,-39,0,0,0,75,78,123,80,53,133.85,284,0.00,-21.00,-1008.00
2024-06-07 10:58:08.409547,0,2,-46,0,0,0,75,78,122,80,53,133.80,284,6.00,-34.00,-1002.00
2024-06-07 10:58:08.509302,0,1,-52,0,0,0,75,78,122,80,53,133.72,284,-3.00,-40.00,-996.00
2024-06-07 10:58:08.683102,0,0,-58,0,0,0,75,78,123,80,53,133.87,284,6.00,-23.00,-979.00
2024-06-07 10:58:08.713445,0,0,-64,0,0,0,75,79,124,80,53,133.75,284,15.00,-15.00,-992.00
2024-06-07 10:58:08.889382,0,0,-70,0,0,0,75,79,124,80,53,133.87,284,-4.00,-34.00,-988.00
2024-06-07 10:58:08.917573,0,0,-75,0,0,0,75,79,123,80,53,133.83,285,39.00,-58.00,-1070.00
2024-06-07 10:58:09.019201,0,2,-81,0,0,0,75,79,123,80,53,133.89,285,3.00,-29.00,-996.00
2024-06-07 10:58:09.196007,1,2,-87,0,0,0,75,79,123,80,53,133.94,285,18.00,-12.00,-972.00
2024-06-07 10:58:09.223191,1,1,-94,0,0,0,75,79,123,80,53,133.87,285,8.00,0.00,-1010.00
2024-06-07 10:58:09.400022,1,1,-101,0,0,0,75,79,123,80,53,133.85,285,14.00,-48.00,-995.00
2024-06-07 10:58:09.429034,1,1,-108,0,0,0,75,79,122,80,53,133.78,285,17.00,5.00,-980.00
2024-06-07 10:58:09.529479,1,1,-116,0,0,0,75,79,122,80,53,133.82,285,18.00,-13.00,-1028.00
2024-06-07 10:58:09.710721,2,1,-123,0,0,0,75,79,123,80,53,133.83,285,43.00,19.00,-1022.00
2024-06-07 10:58:09.734762,2,0,-130,0,0,0,76,77,124,80,53,133.81,285,31.00,-6.00,-1022.00
2024-06-07 10:58:09.835316,2,-1,-137,0,0,0,76,77,124,80,53,133.85,285,20.00,33.00,-989.00
2024-06-07 10:58:09.886231,2,-2,-143,0,0,0,76,77,125,80,53,133.79,286,23.00,26.00,-974.00
2024-06-07 10:58:10.014395,1,-2,-150,0,0,0,76,77,126,80,53,133.81,286,19.00,50.00,-974.00
2024-06-07 10:58:10.090340,1,-2,-156,0,0,0,76,77,127,80,53,133.78,286,19.00,54.00,-969.00
2024-06-07 10:58:10.219173,1,-3,-162,0,0,0,76,77,128,80,53,133.89,286,36.00,17.00,-1028.00
2024-06-07 10:58:10.294231,1,-3,-167,0,0,0,76,77,128,80,53,133.88,286,40.00,17.00,-1020.00
2024-06-07 10:58:10.424038,1,-3,-172,0,0,0,76,77,130,80,53,133.80,286,38.00,51.00,-992.00
2024-06-07 10:58:10.498246,1,-2,-177,0,0,0,76,77,130,80,53,133.85,286,48.00,22.00,-1030.00
2024-06-07 10:58:10.628838,1,-2,177,0,0,0,76,77,130,80,53,133.95,286,38.00,44.00,-943.00
2024-06-07 10:58:10.703543,2,-2,172,0,0,0,75,77,130,80,53,134.05,286,28.00,55.00,-965.00
2024-06-07 10:58:10.833610,2,-2,166,0,0,0,75,77,130,80,53,134.08,286,11.00,45.00,-995.00
2024-06-07 10:58:10.906206,2,-3,161,0,0,0,75,77,130,80,53,134.08,287,-19.00,40.00,-966.00
2024-06-07 10:58:11.038381,1,-3,156,0,0,0,75,77,130,80,53,134.03,287,-21.00,52.00,-968.00
2024-06-07 10:58:11.110177,0,-3,150,0,0,0,75,77,129,80,53,133.93,287,-8.00,46.00,-1014.00
2024-06-07 10:58:11.243103,0,-3,145,0,0,0,75,77,129,80,53,134.01,287,-8.00,53.00,-1048.00
2024-06-07 10:58:11.314198,-1,-2,139,0,0,0,75,77,130,80,53,133.89,287,-14.00,45.00,-1004.00
2024-06-07 10:58:11.416077,0,-2,133,0,0,0,75,77,129,80,53,133.98,287,-1.00,47.00,-1008.00
2024-06-07 10:58:11.550290,0,-2,127,0,0,0,75,77,130,80,53,133.99,287,-14.00,65.00,-1030.00
2024-06-07 10:58:11.620078,0,-3,120,0,0,0,75,77,131,80,53,133.96,287,-21.00,22.00,-1015.00
2024-06-07 10:58:11.755123,0,-3,114,0,0,0,75,78,131,80,53,133.96,287,-41.00,21.00,-1016.00
2024-06-07 10:58:11.824732,0,-3,108,0,0,0,75,78,132,80,53,133.96,287,-39.00,44.00,-956.00
2024-06-07 10:58:11.926078,-1,-2,102,0,0,0,75,78,131,80,53,133.98,288,-52.00,12.00,-990.00
2024-06-07 10:58:12.062335,-1,-1,96,0,0,0,75,78,133,80,53,133.93,288,-37.00,19.00,-1015.00
2024-06-07 10:58:12.130092,-2,0,91,0,0,0,75,78,133,80,53,133.95,288,-44.00,11.00,-998.00
2024-06-07 10:58:12.232020,-1,0,85,0,0,0,75,78,134,80,53,133.99,288,-32.00,11.00,-1013.00
2024-06-07 10:58:12.369591,-1,0,79,0,0,0,75,78,133,80,53,133.88,288,-75.00,4.00,-927.00
2024-06-07 10:58:12.436075,-1,0,73,0,0,0,75,78,134,90,53,133.93,288,-51.00,12.00,-969.00
2024-06-07 10:58:12.538226,-1,0,67,0,0,0,75,78,135,90,53,133.94,288,-74.00,-2.00,-952.00
2024-06-07 10:58:12.676725,-2,0,61,0,0,0,75,78,134,90,53,133.93,288,-54.00,10.00,-957.00
2024-06-07 10:58:12.742126,-2,0,54,0,0,0,75,78,133,90,53,133.85,288,-68.00,-2.00,-921.00
2024-06-07 10:58:12.881540,-2,0,48,0,0,0,75,78,132,90,53,133.87,288,-64.00,-10.00,-960.00
2024-06-07 10:58:12.946110,-2,0,42,0,0,0,75,78,132,90,53,133.93,289,-56.00,-33.00,-1009.00
2024-06-07 10:58:13.086312,-2,1,36,0,0,0,75,78,131,90,53,133.88,289,-56.00,-14.00,-975.00
2024-06-07 10:58:13.150072,-2,1,30,0,0,0,75,78,130,90,53,133.84,289,-49.00,-51.00,-1040.00
2024-06-07 10:58:13.291193,-2,2,24,0,0,0,75,78,130,90,53,133.86,289,-49.00,-29.00,-1011.00
2024-06-07 10:58:13.354046,-2,2,18,0,0,0,75,78,128,80,53,133.79,289,-48.00,-44.00,-1026.00
2024-06-07 10:58:13.456046,-2,2,14,0,0,0,75,78,127,80,53,133.79,289,-41.00,-25.00,-1012.00
2024-06-07 10:58:13.598433,-2,2,11,0,0,0,75,78,127,80,53,133.86,289,-44.00,-36.00,-1023.00
2024-06-07 10:58:13.660102,-2,2,9,0,0,0,75,78,125,80,53,133.84,289,-47.00,-34.00,-1007.00
2024-06-07 10:58:13.803810,-2,2,5,0,0,0,75,78,125,80,53,133.90,289,-42.00,-55.00,-1026.00
2024-06-07 10:58:13.864498,-2,2,4,0,0,0,75,78,124,80,53,133.89,290,-37.00,-63.00,-1048.00
2024-06-07 10:58:14.008392,-2,1,3,0,0,0,75,78,124,80,53,133.86,290,-36.00,-42.00,-981.00
2024-06-07 10:58:14.068358,-2,1,2,0,0,0,75,78,123,80,53,133.83,290,-33.00,-54.00,-996.00
