TS,pitch,roll,yaw,vgx,vgy,vgz,templ,temph,tof,h,bat,baro,time,agx,agy,agz
2024-06-07 10:59:23.837501,0,-1,7,0,0,0,77,79,10,0,48,132.70,312,9.00,25.00,-1000.00
2024-06-07 10:59:23.947163,0,-1,7,0,0,0,77,79,10,0,48,132.72,312,9.00,25.00,-1001.00
2024-06-07 10:59:24.041564,0,-1,7,0,0,0,77,79,10,0,48,132.75,312,10.00,25.00,-999.00
2024-06-07 10:59:24.151728,0,-1,7,0,0,0,77,79,10,0,48,132.77,312,10.00,25.00,-1000.00
2024-06-07 10:59:24.245318,0,-1,7,0,0,0,77,79,10,0,48,132.72,312,11.00,24.00,-1002.00
2024-06-07 10:59:24.347350,0,-1,7,0,0,0,77,79,10,0,48,132.74,312,10.00,25.00,-1000.00
2024-06-07 10:59:24.458993,0,-1,7,0,0,0,77,79,10,0,48,132.74,312,11.00,25.00,-1003.00
2024-06-07 10:59:24.552705,0,-1,7,0,0,0,77,79,10,0,48,132.71,312,11.00,26.00,-1001.00
2024-06-07 10:59:24.653526,0,-1,7,0,0,0,77,79,10,0,48,132.72,312,10.00,25.00,-1000.00
2024-06-07 10:59:24.704523,0,-1,7,0,0,0,77,79,10,0,48,132.73,312,8.00,25.00,-1000.00
2024-06-07 10:59:24.868740,0,-1,7,0,0,0,77,79,10,0,48,132.70,312,9.00,27.00,-1000.00
2024-06-07 10:59:24.908377,0,-1,7,0,0,0,77,79,10,0,48,132.69,312,10.00,25.00,-1001.00
2024-06-07 10:59:25.074321,0,-1,7,0,0,0,77,79,10,0,48,132.71,312,10.00,24.00,-1000.00
2024-06-07 10:59:25.163384,0,-1,7,0,0,0,77,79,10,0,48,132.68,312,9.00,24.00,-1002.00
2024-06-07 10:59:25.214381,0,-1,7,0,0,0,77,79,10,0,48,132.73,312,10.00,25.00,-1001.00
2024-06-07 10:59:25.381297,0,-1,7,0,0,0,77,79,10,0,48,132.69,312,11.00,26.00,-1000.00
2024-06-07 10:59:25.418368,0,-1,7,0,0,0,77,79,10,0,48,132.68,312,9.00,22.00,-1001.00
2024-06-07 10:59:25.585387,0,-1,7,0,0,0,77,79,10,0,48,132.72,312,9.00,26.00,-999.00
2024-06-07 10:59:25.622363,0,-1,7,0,0,0,77,79,10,0,48,132.69,312,9.00,25.00,-1002.00
2024-06-07 10:59:25.724511,0,-1,7,0,0,0,77,79,10,0,48,132.69,312,9.00,25.00,-998.00
2024-06-07 10:59:25.826558,0,-1,7,0,0,0,77,79,10,0,48,132.76,312,9.00,25.00,-999.00
2024-06-07 10:59:26.000999,0,-1,7,0,0,0,77,79,10,0,48,132.79,312,10.00,23.00,-1000.00
2024-06-07 10:59:26.030566,0,-1,7,0,0,0,77,79,10,0,48,132.76,312,9.00,26.00,-999.00
2024-06-07 10:59:26.200227,0,-1,7,0,0,0,77,79,10,0,48,132.76,312,10.00,25.00,-999.00
2024-06-07 10:59:26.234732,0,-1,7,0,0,0,77,79,10,0,48,132.70,312,9.00,25.00,-1001.00
2024-06-07 10:59:26.393481,0,-1,7,0,0,0,77,79,10,0,48,132.74,312,10.00,24.00,-997.00
2024-06-07 10:59:26.438286,0,-1,7,0,0,0,77,79,10,0,48,132.74,312,8.00,24.00,-999.00
2024-06-07 10:59:26.609674,0,-1,7,0,0,0,77,79,10,0,48,132.72,312,12.00,21.00,-1002.00
2024-06-07 10:59:26.642084,0,-1,7,0,0,0,77,79,10,0,48,132.72,312,6.00,33.00,-995.00
2024-06-07 10:59:26.814289,0,-1,8,0,0,0,77,79,10,0,48,132.72,312,-6.00,41.00,-1010.00
2024-06-07 10:59:26.846258,1,0,7,0,0,0,77,79,10,0,48,132.72,312,13.00,4.00,-999.00
2024-06-07 10:59:27.019377,1,0,5,0,0,0,77,79,10,0,48,132.72,312,55.00,40.00,-1037.00
2024-06-07 10:59:27.051158,1,0,4,0,0,0,77,79,10,0,48,132.72,312,-27.00,-11.00,-1070.00
2024-06-07 10:59:27.152078,1,-1,3,-1,0,-1,77,79,10,0,48,132.72,312,-74.00,-32.00,-1210.00
2024-06-07 10:59:27.254179,-2,2,3,-1,0,-4,77,79,10,0,48,132.72,312,-36.00,2.00,-1280.00
2024-06-07 10:59:27.430258,-4,1,3,-1,0,-6,77,79,13,0,48,132.72,312,-38.00,-8.00,-1115.00
2024-06-07 10:59:27.458186,-3,0,3,-1,0,-6,77,79,20,0,48,133.00,313,-81.00,-54.00,-1061.00
2024-06-07 10:59:27.633501,-4,1,3,-1,0,-6,77,79,26,0,48,133.10,313,-54.00,-51.00,-1003.00
2024-06-07 10:59:27.662334,-4,3,3,-1,0,-6,77,79,35,10,48,133.20,313,-80.00,-8.00,-1002.00
2024-06-07 10:59:27.838140,-5,2,4,-1,0,-5,77,79,43,10,48,133.30,313,-34.00,-19.00,-908.00
2024-06-07 10:59:27.866204,-3,2,4,0,0,-5,77,79,50,20,48,133.40,313,-75.00,44.00,-1012.00
2024-06-07 10:59:28.042938,-4,0,3,-1,0,-5,77,79,58,20,48,133.37,313,-135.00,13.00,-924.00
2024-06-07 10:59:28.070111,-6,-2,3,-1,0,-4,77,79,66,30,48,133.42,313,-66.00,4.00,-965.00
2024-06-07 10:59:28.247808,-7,-1,3,-1,0,-3,77,80,72,30,48,133.48,313,-83.00,10.00,-919.00
2024-06-07 10:59:28.279931,-7,-1,3,-1,0,-2,77,80,78,40,48,133.50,313,-109.00,-13.00,-901.00
2024-06-07 10:59:28.376087,-7,0,3,-1,0,-1,77,80,83,40,48,133.65,313,-97.00,11.00,-895.00
2024-06-07 10:59:28.555055,-7,0,3,0,0,0,77,80,87,40,48,133.72,314,-68.00,5.00,-836.00
2024-06-07 10:59:28.555148,-7,0,3,0,0,0,77,80,90,50,48,133.65,314,-81.00,-14.00,-934.00
2024-06-07 10:59:28.631139,-6,0,4,0,0,0,77,80,92,50,48,133.67,314,-74.00,-7.00,-947.00
2024-06-07 10:59:28.759711,-6,0,4,0,0,0,77,80,94,50,48,133.73,314,-86.00,-9.00,-940.00
2024-06-07 10:59:28.835208,-5,0,3,0,0,0,77,80,95,50,48,133.67,314,-76.00,-23.00,-979.00
2024-06-07 10:59:28.937235,-5,0,3,0,0,0,77,80,95,50,48,133.70,314,-99.00,11.00,-936.00
2024-06-07 10:59:29.066960,-4,0,3,0,0,0,77,80,95,50,48,133.67,314,-80.00,8.00,-978.00
2024-06-07 10:59:29.141067,-4,0,3,0,0,0,77,80,96,50,48,133.71,314,-90.00,-19.00,-975.00
2024-06-07 10:59:29.275314,-5,0,4,0,0,0,77,80,96,50,48,133.64,314,-81.00,-4.00,-1016.00
2024-06-07 10:59:29.344990,-6,0,3,0,0,0,77,80,96,50,48,133.62,314,-90.00,2.00,-913.00
2024-06-07 10:59:29.476667,-5,0,4,0,0,1,77,80,96,50,48,133.61,315,-67.00,-12.00,-996.00
2024-06-07 10:59:29.549969,-5,0,4,0,0,1,77,80,95,50,48,133.67,315,-104.00,-12.00,-983.00
2024-06-07 10:59:29.651062,-5,0,4,0,0,0,77,80,95,50,48,133.67,315,-96.00,-16.00,-1005.00
2024-06-07 10:59:29.752967,-5,1,4,0,0,0,77,80,94,50,48,133.63,315,-97.00,26.00,-928.00
2024-06-07 10:59:29.855112,-5,0,4,0,0,0,77,80,94,50,48,133.52,315,-58.00,9.00,-1009.00
2024-06-07 10:59:29.989574,-4,0,4,0,0,0,77,80,92,50,48,133.48,315,-66.00,14.00,-973.00
2024-06-07 10:59:30.059044,-3,0,4,0,0,1,77,80,91,50,48,133.58,315,-56.00,23.00,-983.00
2024-06-07 10:59:30.193286,-4,-1,4,0,0,1,77,79,89,50,48,133.53,315,-49.00,23.00,-984.00
2024-06-07 10:59:30.263255,-3,-1,4,0,0,1,77,79,88,50,48,133.54,315,-54.00,48.00,-984.00
2024-06-07 10:59:30.398089,-2,-2,3,0,0,1,77,79,86,50,48,133.59,315,-90.00,40.00,-973.00
2024-06-07 10:59:30.466983,-3,-2,3,0,0,1,77,79,84,50,48,133.63,316,-62.00,29.00,-1019.00
2024-06-07 10:59:30.602894,-3,-3,3,0,0,1,77,79,82,50,48,133.67,316,-79.00,44.00,-1035.00
2024-06-07 10:59:30.670958,-4,-3,4,0,0,1,77,79,81,50,48,133.52,316,-68.00,28.00,-975.00
2024-06-07 10:59:30.807673,-5,-2,4,0,0,1,77,79,79,50,48,133.59,316,-84.00,26.00,-1021.00
2024-06-07 10:59:30.874964,-4,-1,4,0,0,1,77,79,77,40,48,133.59,316,-68.00,20.00,-1070.00
2024-06-07 10:59:31.012870,-4,-1,4,0,0,0,77,79,76,40,48,133.37,316,-78.00,28.00,-1049.00
2024-06-07 10:59:31.078978,-4,-2,4,0,0,0,77,79,75,40,48,133.35,316,-77.00,42.00,-1045.00
2024-06-07 10:59:31.217272,-3,-3,3,0,0,0,77,80,74,40,48,133.51,316,-63.00,25.00,-1003.00
2024-06-07 10:59:31.284419,-3,-2,4,0,0,0,77,80,74,40,48,133.42,316,-94.00,18.00,-1010.00
2024-06-07 10:59:31.421996,-2,-2,3,0,0,0,77,80,74,40,48,133.37,316,-89.00,0.00,-987.00
2024-06-07 10:59:31.489872,-3,0,3,0,0,0,77,80,74,40,48,133.50,317,-89.00,14.00,-982.00
2024-06-07 10:59:31.590399,-3,0,4,0,0,0,77,80,73,40,48,133.51,317,-88.00,33.00,-1033.00
2024-06-07 10:59:31.691101,-3,0,4,0,0,0,77,80,74,40,48,133.39,317,-58.00,49.00,-984.00
2024-06-07 10:59:31.831793,-3,-1,4,0,0,0,77,80,73,40,48,133.53,317,-72.00,62.00,-977.00
2024-06-07 10:59:31.896653,-3,-3,4,0,0,0,77,80,74,40,48,133.42,317,-61.00,60.00,-963.00
2024-06-07 10:59:31.997337,-3,-3,4,0,0,0,77,80,74,40,48,133.45,317,-12.00,52.00,-1015.00
2024-06-07 10:59:32.050342,-2,-3,4,0,0,0,77,80,74,40,48,133.48,317,-20.00,52.00,-1026.00
2024-06-07 10:59:32.242730,-2,-4,3,0,0,0,76,79,74,40,48,133.36,317,-74.00,43.00,-1010.00
2024-06-07 10:59:32.302906,-3,-3,3,0,0,0,76,79,73,40,48,133.45,317,-52.00,41.00,-1029.00
2024-06-07 10:59:32.446175,-3,-3,3,0,0,0,76,79,74,40,48,133.41,317,-53.00,47.00,-1019.00
2024-06-07 10:59:32.507468,-3,-2,3,0,0,0,76,79,73,40,48,133.40,318,-76.00,51.00,-991.00
2024-06-07 10:59:32.558237,-3,-2,3,0,0,0,76,79,73,40,48,133.42,318,-67.00,32.00,-1045.00
2024-06-07 10:59:32.660075,-3,-2,3,0,0,0,76,79,74,40,48,133.40,318,-69.00,27.00,-1018.00
2024-06-07 10:59:32.855968,-4,-1,3,0,0,0,76,79,74,40,48,133.45,318,-94.00,32.00,-968.00
2024-06-07 10:59:32.864051,-4,-1,3,0,0,0,76,79,74,40,48,133.45,318,-104.00,23.00,-1023.00
2024-06-07 10:59:33.060657,-4,0,3,0,0,0,76,79,74,40,48,133.47,318,-84.00,22.00,-1007.00
2024-06-07 10:59:33.068213,-5,-1,3,0,0,0,76,79,75,40,48,133.43,318,-104.00,40.00,-954.00
2024-06-07 10:59:33.251949,-5,-1,3,0,0,0,76,79,76,40,48,133.49,318,-97.00,40.00,-982.00
2024-06-07 10:59:33.271929,-5,-2,3,0,0,0,76,79,76,40,48,133.45,318,-95.00,43.00,-992.00
2024-06-07 10:59:33.470274,-5,-1,3,0,0,0,76,79,76,40,48,133.44,318,-107.00,23.00,-984.00
2024-06-07 10:59:33.475900,-5,-1,3,0,0,0,76,79,77,40,48,133.46,319,-111.00,11.00,-982.00
2024-06-07 10:59:33.577943,-5,-1,3,0,0,0,76,79,78,40,48,133.47,319,-92.00,11.00,-1022.00
2024-06-07 10:59:33.679850,-5,0,4,0,0,0,76,79,78,40,48,133.38,319,-86.00,30.00,-983.00
2024-06-07 10:59:33.879908,-5,0,4,0,0,0,76,79,78,40,48,133.44,319,-90.00,36.00,-972.00
2024-06-07 10:59:33.884874,-5,0,4,0,0,0,76,79,78,40,48,133.41,319,-101.00,11.00,-961.00
2024-06-07 10:59:34.084649,-5,0,4,0,0,0,76,79,79,40,48,133.38,319,-100.00,34.00,-970.00
2024-06-07 10:59:34.089281,-5,-1,3,0,0,0,76,79,79,40,48,133.40,319,-64.00,22.00,-994.00
2024-06-07 10:59:34.289403,-5,-1,3,0,0,0,77,80,80,40,48,133.40,319,-103.00,13.00,-996.00
2024-06-07 10:59:34.292907,-5,-1,3,0,0,0,77,80,80,40,48,133.42,319,-97.00,9.00,-959.00
2024-06-07 10:59:34.396325,-4,-1,3,0,0,0,77,80,80,40,48,133.39,319,-98.00,35.00,-981.00
2024-06-07 10:59:34.496828,-5,0,3,0,0,0,77,80,80,40,48,133.44,320,-81.00,46.00,-956.00
2024-06-07 10:59:34.599124,-5,-1,4,0,0,0,77,80,81,40,48,133.46,320,-73.00,17.00,-1027.00
2024-06-07 10:59:34.701147,-4,0,4,0,0,0,77,80,80,40,48,133.43,320,-84.00,38.00,-986.00
2024-06-07 10:59:34.802901,-4,-1,4,0,0,0,77,80,81,40,48,133.40,320,-69.00,17.00,-1030.00
2024-06-07 10:59:35.007291,-4,-1,4,0,0,0,77,80,81,40,48,133.39,320,-75.00,18.00,-1001.00
2024-06-07 10:59:35.007478,-4,-1,3,0,0,0,77,80,81,40,48,133.35,320,-79.00,26.00,-960.00
2024-06-07 10:59:35.108889,-4,0,4,0,0,0,77,80,81,40,48,133.35,320,-52.00,29.00,-980.00
2024-06-07 10:59:35.211215,-3,-1,3,0,0,0,77,79,81,40,48,133.32,320,-78.00,0.00,-1003.00
2024-06-07 10:59:35.313517,-3,-2,3,0,0,0,77,79,81,40,48,133.33,320,-89.00,-21.00,-992.00
2024-06-07 10:59:35.415868,-4,0,3,0,0,0,77,79,81,40,48,133.47,320,-103.00,-18.00,-997.00
2024-06-07 10:59:35.518477,-4,1,3,0,0,0,77,79,81,40,48,133.38,321,-75.00,23.00,-997.00
2024-06-07 10:59:35.620680,-4,0,4,0,0,0,77,79,81,40,48,133.39,321,-78.00,7.00,-1038.00
2024-06-07 10:59:35.720797,-4,0,4,0,0,0,77,79,82,40,48,133.42,321,-91.00,16.00,-948.00
2024-06-07 10:59:35.829748,-5,0,4,0,0,0,77,79,82,40,48,133.40,321,-51.00,17.00,-978.00
2024-06-07 10:59:35.925050,-4,0,4,0,0,0,77,79,82,40,48,133.31,321,-60.00,18.00,-1033.00
2024-06-07 10:59:36.030331,-4,0,4,0,0,0,77,79,82,40,48,133.34,321,-79.00,23.00,-958.00
2024-06-07 10:59:36.077880,-4,-1,4,0,0,0,77,79,82,40,48,133.26,321,-92.00,17.00,-971.00
2024-06-07 10:59:36.235176,-3,-1,3,0,0,0,77,79,83,40,48,133.31,321,-85.00,-1.00,-970.00
2024-06-07 10:59:36.283059,-3,-1,3,0,0,0,77,79,83,40,48,133.33,321,-58.00,29.00,-960.00
2024-06-07 10:59:36.439881,-3,-1,3,0,0,0,77,79,83,50,48,133.29,321,-69.00,-2.00,-1020.00
2024-06-07 10:59:36.485839,-3,-1,4,0,0,0,77,79,83,50,48,133.37,322,-68.00,-6.00,-1005.00
2024-06-07 10:59:36.645397,-3,-1,4,0,0,0,77,79,83,40,48,133.31,322,-67.00,4.00,-1008.00
2024-06-07 10:59:36.690238,-3,0,4,0,0,0,77,79,83,40,48,133.39,322,-68.00,-8.00,-998.00
2024-06-07 10:59:36.849979,-3,0,4,0,0,0,77,79,83,40,48,133.30,322,-74.00,-2.00,-999.00
2024-06-07 10:59:36.893820,-3,0,4,0,0,0,77,79,83,50,48,133.39,322,-83.00,-3.00,-1050.00
2024-06-07 10:59:37.054532,-4,0,4,0,0,0,77,79,83,50,48,133.36,322,-67.00,28.00,-948.00
2024-06-07 10:59:37.097990,-4,0,4,0,0,0,77,79,84,50,48,133.37,322,-97.00,15.00,-949.00
2024-06-07 10:59:37.199929,-4,0,4,0,0,0,75,79,83,50,48,133.32,322,-75.00,16.00,-974.00
2024-06-07 10:59:37.361599,-4,0,4,0,0,0,75,79,83,50,48,133.25,322,-77.00,20.00,-1001.00
2024-06-07 10:59:37.403632,-5,0,4,0,0,0,75,79,84,50,48,133.35,322,-100.00,8.00,-1102.00
2024-06-07 10:59:37.566379,-4,-1,4,0,0,-1,75,79,85,50,48,133.31,323,-102.00,24.00,-1051.00
2024-06-07 10:59:37.607645,-4,-1,3,0,0,-1,75,79,88,50,48,133.42,323,-73.00,6.00,-1115.00
2024-06-07 10:59:37.770747,-4,-1,3,0,0,-2,75,79,92,50,48,133.43,323,-94.00,8.00,-1055.00
2024-06-07 10:59:37.811754,-4,0,3,0,0,-3,75,79,95,50,48,133.54,323,-64.00,-1.00,-1058.00
2024-06-07 10:59:37.975879,-4,0,3,0,0,-4,75,79,100,60,48,133.49,323,-85.00,-22.00,-1063.00
2024-06-07 10:59:38.015689,-3,0,3,0,0,-4,75,79,106,60,48,133.56,323,-69.00,-27.00,-1014.00
2024-06-07 10:59:38.187204,-3,0,4,0,0,-5,75,79,110,70,48,133.67,323,-88.00,-39.00,-1071.00
2024-06-07 10:59:38.220427,-3,1,3,0,0,-5,76,79,116,70,48,133.70,323,-82.00,-26.00,-1009.00
2024-06-07 10:59:38.385398,-3,2,3,0,0,-5,76,79,122,80,48,133.67,323,-80.00,-36.00,-992.00
2024-06-07 10:59:38.424092,-4,1,3,0,0,-5,76,79,128,80,48,133.78,323,-74.00,-43.00,-981.00
2024-06-07 10:59:38.592690,-4,2,3,0,0,-5,76,79,137,90,48,133.83,324,-65.00,-28.00,-1001.00
2024-06-07 10:59:38.631768,-4,2,3,0,0,-5,76,79,139,100,48,133.95,324,-61.00,-47.00,-986.00
2024-06-07 10:59:38.731024,-4,2,3,0,0,-5,76,79,145,100,48,134.03,324,-64.00,-25.00,-965.00
2024-06-07 10:59:38.831717,-4,2,3,0,0,-4,76,79,149,110,48,134.05,324,-74.00,-48.00,-894.00
2024-06-07 10:59:39.001074,-4,3,3,0,0,-4,76,79,154,110,48,134.07,324,-56.00,-44.00,-932.00
2024-06-07 10:59:39.035900,-3,3,3,0,0,-3,76,79,156,120,48,134.08,324,-71.00,-44.00,-984.00
2024-06-07 10:59:39.204590,-3,3,3,0,0,-3,76,79,163,120,48,134.11,324,-53.00,-43.00,-1015.00
2024-06-07 10:59:39.243399,-3,3,3,0,0,-3,76,79,166,120,48,134.22,324,-50.00,-65.00,-913.00
2024-06-07 10:59:39.341578,-3,3,3,0,0,-3,76,79,168,130,48,134.30,324,-56.00,-56.00,-980.00
2024-06-07 10:59:39.511813,-3,4,3,0,0,-2,76,79,169,130,48,134.29,324,-51.00,-76.00,-972.00
2024-06-07 10:59:39.545959,-2,4,3,0,0,-2,76,79,172,130,48,134.24,325,-54.00,-75.00,-956.00
2024-06-07 10:59:39.717441,-2,4,4,0,0,-2,76,79,174,130,48,134.34,325,-44.00,-65.00,-1005.00
2024-06-07 10:59:39.749672,-2,4,3,0,0,-2,76,79,175,140,48,134.28,325,-55.00,-49.00,-953.00
2024-06-07 10:59:39.851445,-2,4,3,0,0,-1,76,79,179,140,48,134.26,325,-69.00,-59.00,-986.00
2024-06-07 10:59:39.953581,-3,4,4,0,0,-1,76,79,181,140,48,134.18,325,-45.00,-70.00,-1016.00
2024-06-07 10:59:40.126798,-3,3,4,0,0,-1,76,79,181,140,48,134.17,325,-64.00,-58.00,-999.00
2024-06-07 10:59:40.127003,-3,3,4,0,0,0,76,79,179,140,48,134.21,325,-78.00,-60.00,-937.00
2024-06-07 10:59:40.208918,-3,3,4,0,0,0,77,79,179,140,48,134.32,325,-86.00,-51.00,-959.00
2024-06-07 10:59:40.331048,-3,2,4,0,0,0,77,79,180,140,48,134.34,325,-75.00,-47.00,-970.00
2024-06-07 10:59:40.412711,-4,2,4,0,0,0,77,79,181,140,48,134.31,325,-75.00,-54.00,-1006.00
2024-06-07 10:59:40.638764,-3,2,4,0,0,0,77,79,181,140,48,134.27,326,-66.00,-52.00,-1012.00
2024-06-07 10:59:40.638927,-3,2,4,0,0,0,77,79,180,140,48,134.30,326,-62.00,-32.00,-951.00
2024-06-07 10:59:40.729499,-3,2,3,0,0,0,77,79,179,140,48,134.34,326,-79.00,-53.00,-968.00
2024-06-07 10:59:40.826365,-3,2,4,0,0,0,77,79,178,140,48,134.22,326,-80.00,-53.00,-977.00
2024-06-07 10:59:40.922642,-3,3,4,0,0,0,77,79,180,140,48,134.28,326,-69.00,-58.00,-975.00
2024-06-07 10:59:41.047686,-3,3,4,0,0,0,77,79,178,140,48,134.22,326,-75.00,-49.00,-996.00
2024-06-07 10:59:41.127039,-3,2,4,0,0,0,77,79,177,140,48,134.29,326,-77.00,-35.00,-1027.00
2024-06-07 10:59:41.252421,-4,1,4,0,0,0,77,79,178,140,48,134.32,326,-52.00,-52.00,-1046.00
2024-06-07 10:59:41.330682,-4,2,3,0,0,0,77,79,177,140,48,134.27,326,-87.00,-40.00,-998.00
2024-06-07 10:59:41.457854,-4,2,3,0,0,0,77,79,177,140,48,134.27,327,-72.00,-41.00,-1031.00
2024-06-07 10:59:41.534744,-4,2,3,0,0,0,77,79,176,140,48,134.38,327,-71.00,-53.00,-997.00
2024-06-07 10:59:41.663113,-4,1,3,0,0,0,77,79,178,140,48,134.29,327,-54.00,-38.00,-1024.00
2024-06-07 10:59:41.738639,-3,2,3,0,0,0,77,79,179,140,48,134.34,327,-62.00,-52.00,-1040.00
2024-06-07 10:59:41.840654,-3,2,3,0,0,0,77,79,176,140,48,134.19,327,-91.00,-51.00,-952.00
2024-06-07 10:59:41.942539,-3,2,3,0,0,0,77,79,178,140,48,134.23,327,-62.00,-58.00,-1040.00
2024-06-07 10:59:42.071697,-3,2,3,0,0,0,77,79,177,140,48,134.27,327,-72.00,-42.00,-935.00
2024-06-07 10:59:42.146533,-3,2,3,0,0,0,77,79,178,140,48,134.09,327,-63.00,-26.00,-955.00
2024-06-07 10:59:42.258676,-3,2,3,0,0,1,75,79,173,140,48,134.14,327,-71.00,-22.00,-960.00
2024-06-07 10:59:42.350548,-3,2,3,0,0,1,75,79,176,140,48,134.19,327,-68.00,-54.00,-991.00
2024-06-07 10:59:42.481424,-3,2,3,0,0,1,75,79,173,140,48,134.12,328,-75.00,-65.00,-925.00
2024-06-07 10:59:42.554573,-4,2,3,0,0,2,75,79,172,130,48,134.16,328,-76.00,-38.00,-943.00
2024-06-07 10:59:42.686821,-4,2,3,0,0,2,75,79,170,130,48,134.22,328,-74.00,-41.00,-928.00
2024-06-07 10:59:42.758443,-3,2,3,0,0,2,75,79,168,130,48,134.15,328,-61.00,-24.00,-984.00
2024-06-07 10:59:42.890995,-3,2,3,0,0,2,75,79,165,130,48,134.09,328,-87.00,-61.00,-993.00
2024-06-07 10:59:42.962481,-3,3,3,0,0,2,75,79,162,120,48,134.08,328,-79.00,-42.00,-981.00
2024-06-07 10:59:43.095878,-3,3,3,0,0,2,75,79,160,120,48,134.03,328,-86.00,-38.00,-1018.00
2024-06-07 10:59:43.166458,-4,2,3,0,0,2,75,79,158,120,48,133.96,328,-104.00,-34.00,-1007.00
2024-06-07 10:59:43.300583,-4,1,3,0,0,2,76,79,153,120,48,133.99,328,-90.00,-31.00,-944.00
2024-06-07 10:59:43.370688,-4,2,3,0,0,2,76,79,151,110,48,133.96,328,-71.00,-33.00,-995.00
2024-06-07 10:59:43.505383,-4,2,3,0,0,2,76,79,151,110,48,133.79,329,-73.00,-42.00,-1047.00
2024-06-07 10:59:43.574381,-4,2,3,0,0,2,76,79,146,110,48,133.87,329,-88.00,-15.00,-969.00
2024-06-07 10:59:43.676393,-4,1,3,0,0,2,76,79,144,110,48,133.90,329,-81.00,-35.00,-987.00
2024-06-07 10:59:43.727292,-4,1,4,0,0,1,76,79,142,110,48,133.83,329,-87.00,-58.00,-1022.00
2024-06-07 10:59:43.829527,-4,1,4,0,0,1,76,79,139,100,48,133.87,329,-101.00,-30.00,-978.00
2024-06-07 10:59:43.931733,-3,1,4,0,0,1,76,79,138,100,48,133.86,329,-70.00,-18.00,-1008.00
2024-06-07 10:59:44.119772,-3,1,4,0,0,1,76,79,136,100,48,133.81,329,-83.00,-42.00,-1044.00
2024-06-07 10:59:44.138236,-4,1,4,0,0,1,76,79,134,100,48,133.84,329,-76.00,-9.00,-961.00
2024-06-07 10:59:44.324767,-3,1,4,0,0,1,77,79,132,100,48,133.77,329,-90.00,-30.00,-1045.00
2024-06-07 10:59:44.390463,-4,1,4,0,0,0,77,79,129,90,48,133.71,329,-92.00,-25.00,-1082.00
2024-06-07 10:59:44.441454,-4,1,3,0,0,0,77,79,129,90,48,133.71,330,-73.00,-26.00,-1021.00
2024-06-07 10:59:44.631898,-4,0,3,0,0,0,77,79,128,90,48,133.78,330,-98.00,-43.00,-997.00
2024-06-07 10:59:44.645668,-4,0,4,0,0,0,77,79,128,90,48,133.76,330,-77.00,-25.00,-1043.00
2024-06-07 10:59:44.836829,-4,1,4,0,0,0,77,79,127,90,48,133.71,330,-76.00,-20.00,-1056.00
2024-06-07 10:59:44.849411,-4,1,4,0,0,0,77,79,127,90,48,133.73,330,-95.00,1.00,-1030.00
2024-06-07 10:59:45.042368,-4,0,4,0,0,0,77,79,128,90,48,133.65,330,-94.00,11.00,-993.00
2024-06-07 10:59:45.053623,-4,0,3,0,0,0,77,79,127,90,48,133.73,330,-88.00,-9.00,-1014.00
2024-06-07 10:59:45.249187,-5,-1,3,0,0,0,77,79,126,90,48,133.74,330,-88.00,-34.00,-997.00
2024-06-07 10:59:45.259863,-4,0,3,0,0,0,77,79,127,90,48,133.69,330,-69.00,-6.00,-969.00
2024-06-07 10:59:45.360908,-4,0,3,0,0,0,77,79,126,90,48,133.70,330,-88.00,10.00,-1009.00
2024-06-07 10:59:45.461674,-4,0,3,0,0,0,77,79,126,90,48,133.68,331,-80.00,25.00,-1026.00
2024-06-07 10:59:45.655880,-4,0,3,0,0,0,77,79,125,90,48,133.73,331,-82.00,-6.00,-996.00
2024-06-07 10:59:45.665503,-4,-1,3,0,0,0,77,79,126,90,48,133.62,331,-76.00,-26.00,-1018.00
2024-06-07 10:59:45.852260,-4,0,3,0,0,0,77,79,127,90,48,133.65,331,-67.00,-20.00,-1019.00
2024-06-07 10:59:45.869673,-4,0,3,0,0,0,77,79,127,90,48,133.72,331,-83.00,-2.00,-961.00
2024-06-07 10:59:45.971942,-4,0,3,0,0,0,77,79,126,90,48,133.81,331,-61.00,-8.00,-1002.00
2024-06-07 10:59:46.167819,-3,1,3,0,0,0,77,79,126,90,48,133.78,331,-67.00,-14.00,-1013.00
2024-06-07 10:59:46.175902,-4,1,3,0,0,0,77,79,126,90,48,133.70,331,-79.00,-8.00,-972.00
2024-06-07 10:59:46.327696,-3,1,3,0,0,0,76,78,128,90,48,133.72,331,-68.00,-28.00,-962.00
2024-06-07 10:59:46.391263,-3,1,3,0,0,0,76,78,127,90,48,133.74,331,-64.00,-42.00,-1025.00
2024-06-07 10:59:46.484631,-3,2,4,0,0,0,76,78,128,90,48,133.78,332,-65.00,-17.00,-977.00
2024-06-07 10:59:46.585119,-8,2,4,0,0,0,76,78,130,90,48,133.76,332,-74.00,-38.00,-972.00
2024-06-07 10:59:46.685145,-8,1,4,1,0,0,76,78,130,90,48,133.67,332,-76.00,-7.00,-1015.00
2024-06-07 10:59:46.884496,-8,1,4,2,0,0,76,78,131,90,48,133.72,332,-64.00,-20.00,-1034.00
2024-06-07 10:59:46.889188,-8,1,4,2,0,0,76,78,131,90,48,133.77,332,-77.00,-8.00,-1016.00
2024-06-07 10:59:46.991194,-8,0,4,3,0,0,76,78,132,90,48,133.67,332,-109.00,-3.00,-946.00
2024-06-07 10:59:47.093209,-8,0,3,4,0,0,76,78,133,90,48,133.63,332,-64.00,-11.00,-1000.00
2024-06-07 10:59:47.293917,-8,0,3,5,0,0,76,78,132,90,48,133.71,332,-95.00,-4.00,-956.00
2024-06-07 10:59:47.297305,-8,1,3,5,0,0,76,79,132,90,48,133.62,332,-110.00,-28.00,-966.00
2024-06-07 10:59:47.400734,-8,1,3,6,0,0,76,79,132,90,48,133.65,332,-97.00,-32.00,-1027.00
2024-06-07 10:59:47.501271,-8,2,3,7,0,0,76,79,131,90,48,133.66,333,-65.00,-17.00,-994.00
2024-06-07 10:59:47.603154,-4,2,4,7,0,0,76,79,130,90,48,133.76,333,-117.00,1.00,-959.00
2024-06-07 10:59:47.707460,0,1,4,7,1,0,76,79,131,90,48,133.78,333,-102.00,-1.00,-989.00
2024-06-07 10:59:47.807600,1,1,4,6,1,0,76,79,130,90,48,133.61,333,-104.00,-23.00,-1016.00
2024-06-07 10:59:48.013012,0,0,3,5,1,0,76,79,131,90,48,133.72,333,-103.00,-5.00,-989.00
2024-06-07 10:59:48.013199,0,-1,4,4,0,0,76,79,131,90,48,133.77,333,-106.00,-13.00,-969.00
2024-06-07 10:59:48.062325,-1,0,4,4,0,0,76,79,131,90,48,133.78,333,-38.00,-6.00,-1016.00
2024-06-07 10:59:48.215821,-2,0,4,3,0,0,76,79,132,100,48,133.76,333,-62.00,9.00,-980.00
2024-06-07 10:59:48.318062,-1,0,4,3,0,0,76,79,133,100,48,133.78,333,-84.00,11.00,-971.00
2024-06-07 10:59:48.368145,-2,0,4,3,0,0,76,79,132,100,48,133.73,333,-62.00,3.00,-1009.00
2024-06-07 10:59:48.522966,0,0,3,3,0,0,76,79,133,100,48,133.79,334,-77.00,2.00,-946.00
2024-06-07 10:59:48.572042,3,0,3,2,0,0,76,79,134,100,48,133.75,334,-86.00,-2.00,-1013.00
2024-06-07 10:59:48.728620,0,0,3,1,0,0,76,79,132,100,48,133.90,334,-63.00,-7.00,-994.00
2024-06-07 10:59:48.776283,-1,0,3,1,0,0,76,79,133,100,48,133.80,334,-63.00,-14.00,-1046.00
2024-06-07 10:59:48.878291,-1,0,4,0,0,0,76,79,132,100,48,133.77,334,-65.00,-2.00,-968.00
2024-06-07 10:59:49.036067,-2,0,4,0,0,0,76,79,133,100,48,133.90,334,-70.00,5.00,-970.00
2024-06-07 10:59:49.082173,-2,0,4,0,0,0,76,79,131,100,48,133.87,334,-45.00,5.00,-999.00
2024-06-07 10:59:49.240267,-3,0,4,0,0,0,76,79,131,100,48,133.93,334,-48.00,5.00,-1055.00
2024-06-07 10:59:49.286192,-3,0,4,0,0,0,77,79,131,100,48,133.93,334,-50.00,8.00,-988.00
2024-06-07 10:59:49.444833,-2,0,4,0,0,0,77,79,131,100,48,133.93,334,-51.00,25.00,-980.00
2024-06-07 10:59:49.490243,-2,0,4,0,0,0,77,79,130,100,48,133.94,335,-54.00,19.00,-1007.00
2024-06-07 10:59:49.649610,-2,-1,4,0,0,0,77,79,130,100,48,133.90,335,-50.00,26.00,-972.00
2024-06-07 10:59:49.695338,-2,-1,4,0,0,0,77,79,130,90,48,133.82,335,-70.00,16.00,-956.00
2024-06-07 10:59:49.854476,-3,-1,4,0,0,0,77,79,130,90,48,133.87,335,-76.00,20.00,-980.00
2024-06-07 10:59:49.899333,-3,-1,4,0,0,0,77,79,131,90,48,133.90,335,-88.00,14.00,-984.00
2024-06-07 10:59:50.059430,-3,-1,4,0,0,0,77,79,131,100,48,133.83,335,-51.00,21.00,-996.00
2024-06-07 10:59:50.104903,-3,-1,4,0,0,0,77,79,130,100,48,133.83,335,-71.00,18.00,-1009.00
2024-06-07 10:59:50.205180,-3,-1,3,0,0,0,77,79,131,100,48,133.88,335,-63.00,17.00,-988.00
2024-06-07 10:59:50.366271,-3,-1,3,0,0,0,76,79,132,100,48,133.92,335,-63.00,35.00,-966.00
2024-06-07 10:59:50.409108,-3,-1,3,0,0,0,76,79,132,100,48,133.87,335,-46.00,28.00,-978.00
2024-06-07 10:59:50.571173,-3,-1,3,0,0,0,76,79,132,100,48,133.82,336,-41.00,24.00,-992.00
2024-06-07 10:59:50.613155,-3,-1,3,0,0,0,76,79,131,100,48,133.95,336,-70.00,28.00,-981.00
2024-06-07 10:59:50.715194,-3,-1,3,0,0,0,76,79,131,100,48,133.84,336,-75.00,25.00,-971.00
2024-06-07 10:59:50.818207,-3,-1,3,0,0,0,76,79,131,100,48,133.85,336,-67.00,38.00,-993.00
2024-06-07 10:59:50.981362,-3,-1,3,0,0,0,76,79,131,100,48,133.88,336,-55.00,40.00,-962.00
2024-06-07 10:59:51.021023,-1,-1,3,0,0,0,76,79,130,100,48,133.88,336,-69.00,29.00,-982.00
2024-06-07 10:59:51.122912,3,0,3,0,0,0,76,79,130,90,48,133.89,336,-72.00,9.00,-1002.00
2024-06-07 10:59:51.267462,5,0,3,-2,0,0,76,79,130,90,48,133.93,336,-65.00,2.00,-1015.00
2024-06-07 10:59:51.327274,5,-1,3,-3,0,0,76,78,130,90,48,133.94,336,-61.00,16.00,-994.00
2024-06-07 10:59:51.492641,4,-1,3,-4,0,0,76,78,131,90,48,133.92,336,-27.00,4.00,-1034.00
2024-06-07 10:59:51.531242,3,-1,3,-6,0,0,76,78,130,90,48,133.95,337,-48.00,14.00,-1015.00
2024-06-07 10:59:51.633157,2,-1,3,-7,0,0,76,78,131,90,48,133.98,337,-39.00,16.00,-984.00
2024-06-07 10:59:51.735100,1,-1,3,-7,0,0,76,78,132,90,48,134.07,337,-41.00,17.00,-995.00
2024-06-07 10:59:51.836984,0,-1,3,-8,0,0,76,78,133,90,48,134.03,337,-25.00,0.00,-1020.00
2024-06-07 10:59:51.887953,-3,-1,3,-8,0,0,76,78,133,90,48,134.05,337,-10.00,14.00,-993.00
2024-06-07 10:59:52.004612,-5,-1,3,-7,0,0,76,78,134,90,48,134.08,337,-22.00,6.00,-1037.00
2024-06-07 10:59:52.092145,-7,0,3,-7,0,0,76,78,133,90,48,134.08,337,-29.00,3.00,-983.00
2024-06-07 10:59:52.209437,-7,0,3,-6,0,0,76,78,134,90,48,134.07,337,-34.00,17.00,-1040.00
2024-06-07 10:59:52.295939,-8,0,3,-5,0,0,75,79,135,100,48,134.08,337,-47.00,14.00,-976.00
2024-06-07 10:59:52.414162,-7,0,4,-4,0,0,75,79,134,100,48,133.96,337,-51.00,11.00,-1025.00
2024-06-07 10:59:52.499965,-6,0,4,-3,0,0,75,79,134,100,48,133.94,338,-59.00,2.00,-1007.00
2024-06-07 10:59:52.619147,-5,0,4,-3,0,0,75,79,135,100,48,134.02,338,-69.00,12.00,-975.00
2024-06-07 10:59:52.704124,-5,0,4,-2,0,0,75,79,134,100,48,133.92,338,-69.00,5.00,-981.00
2024-06-07 10:59:52.823726,-5,0,4,-2,0,0,75,79,134,100,48,133.94,338,-57.00,2.00,-1001.00
2024-06-07 10:59:52.907921,-6,0,4,-2,0,0,75,79,135,100,48,133.98,338,-65.00,24.00,-1012.00
2024-06-07 10:59:53.028611,-7,0,4,-1,0,0,75,79,136,100,48,133.88,338,-55.00,8.00,-1033.00
2024-06-07 10:59:53.112011,-6,0,4,0,0,0,75,79,135,100,48,133.88,338,-55.00,22.00,-1030.00
2024-06-07 10:59:53.233515,-5,0,4,0,0,0,75,79,135,100,48,134.00,338,-67.00,24.00,-969.00
2024-06-07 10:59:53.315992,-4,-1,4,0,0,0,76,79,135,100,48,133.86,338,-61.00,32.00,-999.00
2024-06-07 10:59:53.438504,-4,-1,4,0,0,0,76,79,135,100,48,133.78,338,-70.00,15.00,-972.00
2024-06-07 10:59:53.520027,-4,-1,4,0,0,0,76,79,134,100,47,133.80,339,-86.00,9.00,-975.00
2024-06-07 10:59:53.643085,-4,0,4,0,0,0,76,79,133,100,47,133.78,339,-56.00,-3.00,-1045.00
2024-06-07 10:59:53.723971,-4,0,4,0,0,0,76,79,134,100,47,133.92,339,-58.00,25.00,-1012.00
2024-06-07 10:59:53.825938,-4,-1,4,0,0,0,76,79,133,100,47,133.88,339,-82.00,24.00,-977.00
2024-06-07 10:59:53.951002,-4,-1,4,0,0,0,76,79,133,100,47,133.87,339,-64.00,11.00,-1022.00
2024-06-07 10:59:54.030040,-4,0,4,0,0,0,76,79,133,100,47,133.89,339,-55.00,21.00,-1040.00
2024-06-07 10:59:54.155190,-3,0,4,0,0,0,76,79,133,100,47,133.80,339,-63.00,28.00,-1007.00
2024-06-07 10:59:54.234308,-3,-1,4,0,0,0,76,79,134,100,47,133.85,339,-81.00,22.00,-959.00
2024-06-07 10:59:54.359959,-3,-1,4,0,0,0,76,79,133,100,47,133.89,339,-55.00,19.00,-1013.00
2024-06-07 10:59:54.438009,-3,-1,4,0,0,0,76,79,134,100,47,133.84,339,-78.00,30.00,-1013.00
2024-06-07 10:59:54.572129,-3,-1,4,0,0,0,76,79,133,100,47,133.92,340,-84.00,15.00,-1001.00
2024-06-07 10:59:54.641920,-3,-1,4,0,0,0,76,79,134,100,47,133.94,340,-79.00,43.00,-951.00
2024-06-07 10:59:54.746170,-3,-1,4,0,0,0,76,79,133,100,47,133.89,340,-57.00,29.00,-1013.00
2024-06-07 10:59:54.846168,-3,-1,4,0,0,0,76,79,133,100,47,133.84,340,-82.00,23.00,-1000.00
2024-06-07 10:59:54.947966,-3,-1,4,0,0,0,76,79,134,100,47,133.82,340,-83.00,33.00,-977.00
2024-06-07 10:59:55.064383,-4,-1,3,0,0,0,76,79,132,100,47,133.86,340,-81.00,18.00,-1005.00
2024-06-07 10:59:55.151804,-3,-1,4,0,0,0,76,79,133,100,47,133.88,340,-68.00,29.00,-966.00
2024-06-07 10:59:55.253927,-3,-1,4,0,0,0,76,79,134,100,47,133.97,340,-50.00,25.00,-997.00
2024-06-07 10:59:55.355771,-3,-8,4,0,0,0,76,79,136,100,47,133.88,340,-60.00,39.00,-1030.00
2024-06-07 10:59:55.486523,-3,-7,4,0,-1,0,76,79,134,100,47,133.90,341,-70.00,37.00,-1012.00
2024-06-07 10:59:55.559799,-4,-6,4,0,-2,0,76,79,134,100,47,133.86,341,-67.00,51.00,-949.00
2024-06-07 10:59:55.691493,-4,-3,4,0,-3,0,76,79,134,100,47,133.82,341,-67.00,35.00,-1024.00
2024-06-07 10:59:55.763901,-4,0,4,0,-3,0,76,79,133,100,47,133.90,341,-86.00,50.00,-981.00
2024-06-07 10:59:55.901192,-3,0,3,0,-3,0,76,79,132,100,47,133.91,341,-79.00,35.00,-1000.00
2024-06-07 10:59:55.968050,-3,0,3,0,-2,0,76,79,132,100,47,133.83,341,-83.00,50.00,-951.00
2024-06-07 10:59:56.100597,-4,-1,3,0,-2,0,76,79,131,90,47,133.95,341,-70.00,42.00,-1021.00
2024-06-07 10:59:56.120767,-3,-1,3,0,-2,0,76,79,132,90,47,133.95,341,-82.00,43.00,-985.00
2024-06-07 10:59:56.223252,-3,-2,3,0,-2,0,76,79,133,90,47,133.94,341,-62.00,40.00,-1010.00
2024-06-07 10:59:56.324728,-3,-2,3,0,-2,0,75,78,133,90,47,134.01,341,-90.00,24.00,-1044.00
2024-06-07 10:59:56.426785,-4,-1,3,0,-2,0,75,78,133,90,47,133.98,342,-87.00,45.00,-1007.00
2024-06-07 10:59:56.528979,-5,0,4,0,-2,0,75,78,133,100,47,133.96,342,-92.00,48.00,-913.00
2024-06-07 10:59:56.630888,-4,0,3,0,-2,0,75,78,132,100,47,133.97,342,-88.00,35.00,-983.00
2024-06-07 10:59:56.732881,-5,0,3,0,-2,0,75,78,132,100,47,133.95,342,-101.00,45.00,-978.00
2024-06-07 10:59:56.835652,-8,0,3,0,-1,0,75,78,133,100,47,133.88,342,-84.00,34.00,-923.00
2024-06-07 10:59:57.022190,-8,-1,3,0,-1,0,75,78,134,100,47,133.93,342,-119.00,37.00,-970.00
2024-06-07 10:59:57.040600,-8,0,4,0,-1,0,75,78,133,100,47,133.94,342,-118.00,39.00,-1024.00
2024-06-07 10:59:57.140710,-7,1,3,0,0,0,75,78,133,90,47,133.91,342,-106.00,46.00,-985.00
2024-06-07 10:59:57.329306,-2,0,3,0,0,0,75,78,132,90,47,133.87,342,-117.00,37.00,-990.00
2024-06-07 10:59:57.347292,-2,-1,3,0,0,0,75,80,130,90,47,133.84,342,-93.00,27.00,-991.00
2024-06-07 10:59:57.446836,-4,-1,3,0,0,0,75,80,130,90,47,133.83,343,-122.00,31.00,-999.00
2024-06-07 10:59:57.639398,-5,-1,3,0,0,0,75,80,130,90,46,133.83,343,-110.00,32.00,-994.00
2024-06-07 10:59:57.650618,-5,0,4,0,0,0,75,80,130,90,46,133.77,343,-105.00,8.00,-1011.00
2024-06-07 10:59:57.752750,-6,0,4,0,0,0,75,80,130,90,46,133.73,343,-120.00,-9.00,-1027.00
2024-06-07 10:59:57.855474,-6,0,4,0,0,0,75,80,130,90,46,133.76,343,-104.00,-7.00,-1039.00
2024-06-07 10:59:58.046344,-5,0,4,0,0,0,75,80,131,90,46,133.71,343,-103.00,11.00,-1017.00
2024-06-07 10:59:58.060017,-6,0,4,0,0,0,75,80,129,90,46,133.77,343,-93.00,5.00,-1019.00
2024-06-07 10:59:58.163262,-5,0,4,0,0,0,75,80,131,90,46,133.73,343,-102.00,22.00,-994.00
2024-06-07 10:59:58.262891,-5,0,4,0,0,0,75,80,131,90,46,133.77,343,-105.00,21.00,-1001.00
2024-06-07 10:59:58.365697,-5,0,3,0,0,0,75,79,131,90,46,133.81,343,-90.00,14.00,-1034.00
2024-06-07 10:59:58.558364,-5,0,4,0,0,0,75,79,133,90,46,133.75,344,-109.00,4.00,-951.00
2024-06-07 10:59:58.569135,-5,0,4,0,0,0,75,79,134,100,46,133.77,344,-69.00,21.00,-1014.00
2024-06-07 10:59:58.670803,-5,0,4,0,0,0,75,79,133,100,46,133.82,344,-113.00,26.00,-961.00
2024-06-07 10:59:58.772716,-5,0,4,0,0,0,75,79,134,100,46,133.83,344,-96.00,20.00,-939.00
2024-06-07 10:59:58.968311,-5,0,4,0,0,0,75,79,134,100,46,133.86,344,-89.00,18.00,-994.00
2024-06-07 10:59:58.977880,-4,-1,3,0,0,0,75,79,136,100,46,133.83,344,-76.00,26.00,-1004.00
2024-06-07 10:59:59.172726,-4,-1,4,0,0,0,75,79,135,100,46,133.78,344,-86.00,36.00,-953.00
2024-06-07 10:59:59.182441,-5,-1,4,0,0,0,75,79,133,100,46,133.80,344,-90.00,14.00,-959.00
2024-06-07 10:59:59.282806,-5,-1,4,0,0,0,75,79,133,100,46,133.74,344,-78.00,23.00,-1000.00
2024-06-07 10:59:59.385319,-4,-1,4,0,0,0,76,79,133,100,46,133.74,344,-96.00,15.00,-964.00
2024-06-07 10:59:59.490142,-4,-1,4,0,0,0,76,79,134,100,46,133.81,345,-68.00,6.00,-1009.00
2024-06-07 10:59:59.590421,-4,2,3,0,0,0,76,79,134,100,46,133.69,345,-78.00,27.00,-1069.00
2024-06-07 10:59:59.690618,-4,6,3,0,1,0,76,79,134,100,46,133.67,345,-78.00,16.00,-967.00
2024-06-07 10:59:59.741510,-4,5,3,0,2,0,76,79,135,100,46,133.76,345,-81.00,-23.00,-1001.00
2024-06-07 10:59:59.843498,-4,4,3,0,2,0,76,79,135,100,46,133.80,345,-69.00,-7.00,-956.00
2024-06-07 10:59:59.991719,-4,2,3,0,3,0,76,79,133,100,46,133.73,345,-88.00,-28.00,-1059.00
2024-06-07 11:00:00.047513,-4,0,4,0,3,0,76,79,132,100,46,133.72,345,-96.00,-10.00,-1015.00
2024-06-07 11:00:00.196683,-4,-1,4,0,3,0,76,79,132,100,46,133.66,345,-95.00,-17.00,-1050.00
2024-06-07 11:00:00.251461,-5,0,4,0,3,0,76,79,132,100,46,133.71,345,-90.00,-1.00,-1011.00
2024-06-07 11:00:00.401316,-5,0,4,0,2,0,76,78,131,100,46,133.69,345,-102.00,17.00,-1023.00
2024-06-07 11:00:00.455410,-5,-1,4,0,2,0,76,78,131,100,46,133.64,346,-106.00,4.00,-1011.00
2024-06-07 11:00:00.608243,-5,-1,4,0,2,0,76,78,130,90,45,133.75,346,-119.00,-12.00,-972.00
2024-06-07 11:00:00.659483,-6,0,4,0,2,0,76,78,131,90,45,133.57,346,-107.00,6.00,-967.00
2024-06-07 11:00:00.761684,-6,0,4,0,2,0,76,78,129,90,45,133.71,346,-104.00,-30.00,-1054.00
2024-06-07 11:00:00.913415,-5,0,4,0,2,0,76,78,130,90,45,133.68,346,-88.00,-10.00,-1026.00
2024-06-07 11:00:00.965559,-5,0,4,0,2,0,76,78,130,90,45,133.75,346,-89.00,19.00,-1011.00
2024-06-07 11:00:01.118259,-5,0,4,0,2,0,76,78,129,90,45,133.74,346,-86.00,10.00,-1023.00
2024-06-07 11:00:01.169579,-5,-1,4,0,2,0,76,78,129,90,45,133.70,346,-80.00,0.00,-993.00
2024-06-07 11:00:01.322979,-4,-4,3,0,2,0,76,78,129,90,45,133.73,346,-88.00,4.00,-1014.00
2024-06-07 11:00:01.373239,-3,-6,4,0,1,0,76,78,130,90,45,133.68,346,-99.00,-45.00,-1034.00
2024-06-07 11:00:01.527807,-4,-3,4,0,0,0,76,78,130,90,45,133.71,347,-86.00,-14.00,-1009.00
2024-06-07 11:00:01.577708,-5,-2,4,0,0,0,76,78,131,90,45,133.65,347,-113.00,-15.00,-973.00
2024-06-07 11:00:01.732724,-5,0,4,0,0,0,76,78,130,90,45,133.78,347,-113.00,-23.00,-953.00
2024-06-07 11:00:01.781503,-5,0,4,0,0,0,76,78,130,90,45,133.76,347,-107.00,-35.00,-964.00
2024-06-07 11:00:01.937608,-4,1,4,0,0,0,76,78,131,90,45,133.68,347,-104.00,-11.00,-990.00
2024-06-07 11:00:01.985770,-4,0,4,0,0,0,76,78,130,90,45,133.63,347,-83.00,-6.00,-988.00
2024-06-07 11:00:02.142259,-4,0,4,0,0,0,76,78,129,90,45,133.67,347,-78.00,-6.00,-1015.00
2024-06-07 11:00:02.190214,-4,0,4,0,0,0,76,78,131,90,45,133.74,347,-75.00,-8.00,-1042.00
2024-06-07 11:00:02.347428,-4,0,4,0,0,0,76,78,130,90,45,133.78,347,-84.00,-5.00,-1024.00
2024-06-07 11:00:02.393518,-4,0,4,0,0,0,75,78,130,90,45,133.59,347,-110.00,-12.00,-1010.00
2024-06-07 11:00:02.551896,-5,0,3,0,0,0,75,78,131,90,45,133.68,348,-100.00,-22.00,-1018.00
2024-06-07 11:00:02.597778,-5,0,3,0,0,0,75,78,130,90,45,133.71,348,-93.00,14.00,-973.00
2024-06-07 11:00:02.757324,-6,0,4,0,0,0,75,78,130,90,45,133.73,348,-91.00,31.00,-947.00
2024-06-07 11:00:02.802315,-5,0,4,0,0,0,75,78,131,90,45,133.71,348,-103.00,16.00,-1022.00
2024-06-07 11:00:02.904633,-5,0,4,0,0,0,75,78,130,90,45,133.69,348,-105.00,2.00,-998.00
2024-06-07 11:00:03.005454,-5,-1,4,0,0,0,75,78,129,90,45,133.72,348,-119.00,31.00,-925.00
2024-06-07 11:00:03.166296,-5,0,4,0,0,0,75,78,130,90,45,133.72,348,-98.00,31.00,-985.00
2024-06-07 11:00:03.209864,-5,0,4,0,0,0,75,78,129,90,45,133.84,348,-107.00,29.00,-993.00
2024-06-07 11:00:03.371148,-5,-1,4,0,0,0,75,78,129,90,45,133.72,348,-87.00,44.00,-983.00
2024-06-07 11:00:03.413500,-5,-1,4,0,0,0,76,78,128,90,45,133.72,348,-121.00,35.00,-943.00
2024-06-07 11:00:03.531292,-5,-1,4,0,0,0,76,78,127,90,45,133.64,349,-106.00,17.00,-997.00
2024-06-07 11:00:03.566575,-6,-1,4,0,0,0,76,78,128,90,45,133.63,349,-105.00,33.00,-1002.00
2024-06-07 11:00:03.678145,-6,-2,5,0,0,0,76,78,128,90,45,133.70,349,-109.00,16.00,-1026.00
2024-06-07 11:00:03.771642,-6,-2,10,0,0,0,76,78,128,90,45,133.73,349,-109.00,40.00,-1018.00
2024-06-07 11:00:03.873694,-6,-2,16,0,0,0,76,78,128,90,45,133.75,349,-103.00,31.00,-993.00
2024-06-07 11:00:03.974513,-6,-3,22,0,0,0,76,78,129,90,45,133.76,349,-94.00,60.00,-994.00
2024-06-07 11:00:04.088630,-5,-3,28,0,0,0,76,78,130,90,45,133.80,349,-113.00,84.00,-961.00
2024-06-07 11:00:04.178537,-5,-4,34,0,0,0,76,78,129,90,45,133.84,349,-99.00,87.00,-989.00
2024-06-07 11:00:04.280830,-5,-5,39,0,0,0,76,78,130,90,45,133.91,349,-97.00,69.00,-973.00
2024-06-07 11:00:04.395007,-4,-6,45,0,0,0,76,79,130,90,45,133.84,349,-95.00,107.00,-982.00
2024-06-07 11:00:04.484900,-4,-6,51,0,0,0,76,79,131,90,45,133.87,350,-102.00,92.00,-1026.00
2024-06-07 11:00:04.599737,-4,-6,57,0,0,0,76,79,132,90,45,133.94,350,-82.00,79.00,-965.00
2024-06-07 11:00:04.688329,-4,-6,62,0,0,0,76,79,132,90,45,133.79,350,-63.00,56.00,-1015.00
2024-06-07 11:00:04.804522,-4,-6,68,0,0,0,76,79,132,90,45,133.86,350,-62.00,84.00,-1015.00
2024-06-07 11:00:04.893510,-3,-5,74,0,0,0,76,79,133,90,45,133.88,350,-44.00,77.00,-975.00
2024-06-07 11:00:05.009339,-2,-5,80,0,0,0,76,79,132,100,45,133.87,350,-10.00,73.00,-986.00
2024-06-07 11:00:05.096409,-1,-4,85,0,0,0,76,79,133,100,45,133.79,350,-28.00,91.00,-1008.00
2024-06-07 11:00:05.214226,0,-4,91,0,0,0,76,79,132,100,45,134.03,350,2.00,77.00,-960.00
2024-06-07 11:00:05.300214,0,-5,97,0,0,0,76,79,134,100,45,134.01,350,26.00,99.00,-982.00
2024-06-07 11:00:05.418925,0,-5,103,0,0,0,76,77,133,100,45,134.00,350,19.00,76.00,-979.00
2024-06-07 11:00:05.504215,1,-4,109,0,0,0,76,77,132,100,45,133.93,351,33.00,88.00,-1019.00
2024-06-07 11:00:05.623921,2,-4,115,0,0,0,76,77,131,100,45,133.84,351,40.00,50.00,-1053.00
2024-06-07 11:00:05.709708,3,-2,121,0,0,0,76,77,131,90,45,133.90,351,28.00,55.00,-1001.00
2024-06-07 11:00:05.810189,3,-1,127,0,0,0,76,77,132,100,45,133.91,351,22.00,63.00,-1001.00
2024-06-07 11:00:05.930919,3,-1,132,0,0,0,76,77,132,100,45,133.81,351,48.00,51.00,-997.00
2024-06-07 11:00:06.014080,3,-2,138,0,0,0,76,77,132,100,45,133.76,351,60.00,33.00,-1022.00
2024-06-07 11:00:06.117650,3,-3,145,0,0,0,76,77,132,100,45,133.74,351,75.00,18.00,-991.00
2024-06-07 11:00:06.239694,3,-2,151,0,0,0,76,77,133,100,45,133.70,351,97.00,-9.00,-962.00
2024-06-07 11:00:06.320611,4,0,158,0,0,0,76,77,134,100,45,133.81,351,97.00,-5.00,-981.00
2024-06-07 11:00:06.444669,4,0,164,0,0,0,76,78,134,100,45,133.70,351,100.00,-25.00,-991.00
2024-06-07 11:00:06.525661,5,1,170,0,0,0,76,78,136,100,44,133.84,352,86.00,-25.00,-972.00
2024-06-07 11:00:06.627095,5,2,177,0,0,0,76,78,137,100,44,133.82,352,78.00,-20.00,-1002.00
2024-06-07 11:00:06.750259,5,3,-176,0,0,0,76,78,137,100,44,133.70,352,88.00,-29.00,-961.00
2024-06-07 11:00:06.833051,5,4,-170,0,0,0,76,78,136,100,44,133.86,352,93.00,-67.00,-971.00
2024-06-07 11:00:06.932217,5,4,-163,0,0,0,76,78,136,100,44,133.94,352,87.00,-67.00,-959.00
2024-06-07 11:00:07.057133,4,4,-157,0,0,0,76,78,136,100,44,133.91,352,86.00,-62.00,-967.00
2024-06-07 11:00:07.085244,3,5,-152,0,0,0,76,78,135,100,44,133.92,352,97.00,-60.00,-964.00
2024-06-07 11:00:07.187209,4,4,-146,0,0,0,76,78,136,100,44,133.84,352,65.00,-77.00,-998.00
2024-06-07 11:00:07.289212,4,5,-140,0,0,0,76,78,137,100,44,133.85,352,62.00,-74.00,-970.00
2024-06-07 11:00:07.467869,4,5,-134,0,0,0,75,79,136,100,44,133.92,352,51.00,-88.00,-1002.00
2024-06-07 11:00:07.544183,3,5,-128,0,0,0,75,79,136,100,44,133.93,353,43.00,-114.00,-1000.00
2024-06-07 11:00:07.595086,2,6,-122,0,0,0,75,79,136,100,44,133.95,353,28.00,-97.00,-998.00
2024-06-07 11:00:07.774238,2,6,-116,0,0,0,75,79,135,100,44,133.97,353,17.00,-120.00,-994.00
2024-06-07 11:00:07.799947,1,6,-110,0,0,0,75,79,136,100,44,133.98,353,0.00,-119.00,-1034.00
2024-06-07 11:00:07.979033,0,7,-104,0,0,0,75,79,135,100,44,134.06,353,1.00,-143.00,-973.00
2024-06-07 11:00:08.003438,0,7,-98,0,0,0,75,79,135,100,44,133.93,353,-14.00,-109.00,-991.00
2024-06-07 11:00:08.184094,-1,7,-92,0,0,0,75,79,134,100,44,133.92,353,-30.00,-113.00,-1009.00
2024-06-07 11:00:08.209393,-1,7,-86,0,0,0,75,79,135,100,44,133.87,353,-44.00,-113.00,-950.00
2024-06-07 11:00:08.309174,-2,8,-80,0,0,0,75,79,133,100,44,133.84,353,-51.00,-96.00,-1013.00
2024-06-07 11:00:08.492962,-3,7,-74,0,0,0,76,79,135,100,44,133.82,353,-65.00,-85.00,-994.00
2024-06-07 11:00:08.513264,-4,6,-67,0,0,0,76,79,133,100,44,133.82,354,-73.00,-93.00,-1052.00
2024-06-07 11:00:08.695852,-5,6,-61,0,0,0,76,79,133,100,44,133.88,354,-79.00,-77.00,-1017.00
2024-06-07 11:00:08.717360,-5,5,-55,0,0,0,76,79,133,100,44,133.74,354,-95.00,-64.00,-1003.00
2024-06-07 11:00:08.900630,-6,4,-49,0,0,0,76,79,134,100,44,133.70,354,-99.00,-54.00,-995.00
2024-06-07 11:00:08.921610,-6,3,-42,0,0,0,76,79,133,90,44,133.59,354,-113.00,-74.00,-986.00
2024-06-07 11:00:09.023263,-6,2,-36,0,0,0,76,79,131,90,44,133.58,354,-91.00,-47.00,-1007.00
2024-06-07 11:00:09.125191,-6,2,-30,0,0,0,76,79,131,90,44,133.55,354,-106.00,-36.00,-1062.00
2024-06-07 11:00:09.227539,-5,2,-23,0,0,0,76,79,131,90,44,133.34,354,-113.00,-33.00,-1006.00
2024-06-07 11:00:09.415338,-6,0,-17,0,0,0,76,79,129,90,44,133.39,354,-111.00,-25.00,-1039.00
2024-06-07 11:00:09.431286,-6,0,-11,0,0,0,76,79,131,90,44,133.48,354,-117.00,-29.00,-987.00
2024-06-07 11:00:09.533426,-6,0,-8,0,0,0,76,79,130,90,43,133.39,355,-128.00,-19.00,-1014.00
2024-06-07 11:00:09.635093,-6,1,-5,0,0,0,76,79,129,90,43,133.45,355,-104.00,-31.00,-1012.00
2024-06-07 11:00:09.737737,-6,1,-3,0,0,0,76,79,129,90,43,133.42,355,-93.00,-23.00,-1002.00
2024-06-07 11:00:09.839881,-6,1,-2,0,0,0,76,79,129,90,43,133.39,355,-122.00,1.00,-939.00
2024-06-07 11:00:09.942542,-5,0,0,0,0,0,76,79,127,90,43,133.42,355,-107.00,21.00,-953.00
2024-06-07 11:00:10.044837,-5,0,0,0,0,0,76,79,127,90,43,133.38,355,-109.00,11.00,-952.00
2024-06-07 11:00:10.147989,-5,0,1,0,0,0,76,79,126,90,43,133.53,355,-127.00,-26.00,-955.00
2024-06-07 11:00:10.250422,-5,0,1,0,0,0,76,79,125,90,43,133.44,355,-129.00,3.00,-989.00
2024-06-07 11:00:10.349083,-5,0,2,0,0,0,76,79,126,90,43,133.45,355,-113.00,20.00,-961.00
2024-06-07 11:00:10.540206,-5,0,2,0,0,0,77,79,125,90,43,133.54,356,-107.00,10.00,-981.00
2024-06-07 11:00:10.553382,-4,0,3,0,0,0,77,79,125,90,43,133.48,356,-96.00,-4.00,-1018.00
2024-06-07 11:00:10.744544,-4,0,3,0,0,0,77,79,124,90,43,133.46,356,-89.00,27.00,-1011.00
2024-06-07 11:00:10.763022,-4,0,3,0,0,0,77,79,122,90,43,133.50,356,-94.00,-5.00,-999.00
2024-06-07 11:00:10.863456,-4,-1,3,0,0,0,77,79,123,90,43,133.50,356,-74.00,-12.00,-1010.00
2024-06-07 11:00:10.962616,-3,-1,3,0,0,0,77,79,121,90,43,133.54,356,-85.00,0.00,-1004.00
2024-06-07 11:00:11.065589,-3,0,3,0,0,0,77,79,122,90,43,133.46,356,-79.00,0.00,-985.00
2024-06-07 11:00:11.165118,-3,0,3,0,0,0,77,79,122,90,43,133.51,356,-55.00,-5.00,-1038.00
2024-06-07 11:00:11.216033,-3,0,3,0,0,0,77,79,122,90,43,133.50,356,-75.00,-7.00,-1033.00
2024-06-07 11:00:11.358201,-3,1,3,0,0,0,77,79,122,90,43,133.42,356,-82.00,-16.00,-1047.00
2024-06-07 11:00:11.420038,-3,0,3,0,0,0,76,79,122,90,43,133.45,357,-103.00,0.00,-998.00
2024-06-07 11:00:11.563364,-4,0,3,0,0,0,76,79,123,90,43,133.48,357,-99.00,7.00,-965.00
2024-06-07 11:00:11.624028,-4,0,3,0,0,0,76,79,123,90,43,133.53,357,-106.00,-8.00,-992.00
2024-06-07 11:00:11.768784,-4,0,3,0,0,0,76,79,123,90,43,133.44,357,-98.00,7.00,-1003.00
2024-06-07 11:00:11.828050,-5,0,3,0,0,0,76,79,126,90,43,133.38,357,-106.00,-8.00,-996.00
2024-06-07 11:00:11.973143,-5,0,3,0,0,0,76,79,127,90,43,133.47,357,-100.00,2.00,-1017.00
2024-06-07 11:00:12.032078,-5,0,3,0,0,0,76,79,127,90,43,133.46,357,-100.00,7.00,-1018.00
2024-06-07 11:00:12.177487,-6,0,3,0,0,0,76,79,128,90,43,133.53,357,-86.00,0.00,-1024.00
2024-06-07 11:00:12.238541,-6,0,3,0,0,0,76,79,128,90,43,133.49,357,-100.00,4.00,-988.00
2024-06-07 11:00:12.338313,-6,0,0,0,0,0,76,79,129,90,43,133.54,357,-157.00,46.00,-1015.00
2024-06-07 11:00:12.439925,-6,0,-5,0,0,0,76,79,130,90,43,133.59,358,-125.00,-3.00,-958.00
2024-06-07 11:00:12.591148,-6,0,-11,0,0,0,76,79,130,90,43,133.57,358,-110.00,-44.00,-1021.00
2024-06-07 11:00:12.643896,-7,2,-17,0,0,0,76,79,131,90,43,133.61,358,-129.00,-21.00,-905.00
2024-06-07 11:00:12.792260,-6,3,-23,0,0,0,76,79,131,90,43,133.61,358,-80.00,-27.00,-1001.00
2024-06-07 11:00:12.847862,-6,2,-28,0,0,0,76,79,132,90,43,133.59,358,-111.00,-36.00,-981.00
2024-06-07 11:00:12.996572,-6,3,-34,0,0,0,76,79,132,90,43,133.63,358,-114.00,-54.00,-952.00
2024-06-07 11:00:13.052606,-5,3,-40,0,0,0,76,79,133,90,43,133.67,358,-90.00,-76.00,-1043.00
2024-06-07 11:00:13.153824,-4,4,-46,0,0,0,76,79,131,90,43,133.63,358,-105.00,-45.00,-912.00
2024-06-07 11:00:13.256129,-4,4,-52,0,0,0,76,79,131,90,43,133.67,358,-81.00,-100.00,-1026.00
2024-06-07 11:00:13.406176,-3,5,-57,0,0,0,76,79,131,90,43,133.68,358,-70.00,-107.00,-996.00
2024-06-07 11:00:13.459854,-2,6,-63,0,0,0,76,79,131,90,43,133.78,359,-19.00,-106.00,-995.00
2024-06-07 11:00:13.610850,-1,6,-69,0,0,0,76,79,130,90,42,133.72,359,-29.00,-107.00,-1027.00
2024-06-07 11:00:13.664648,0,6,-74,0,0,0,76,79,131,90,42,133.74,359,-64.00,-103.00,-978.00
2024-06-07 11:00:13.766713,0,6,-80,0,0,0,76,79,130,90,42,133.88,359,-21.00,-98.00,-998.00
2024-06-07 11:00:13.918231,0,6,-86,0,0,0,76,79,130,90,42,133.78,359,-15.00,-119.00,-1026.00
2024-06-07 11:00:13.974870,0,6,-92,0,0,0,76,79,130,90,42,133.75,359,-11.00,-89.00,-1017.00
2024-06-07 11:00:14.072060,0,5,-98,0,0,0,76,79,130,90,42,133.82,359,30.00,-97.00,-1034.00
2024-06-07 11:00:14.173815,1,5,-104,0,0,0,76,79,129,90,42,133.85,359,8.00,-77.00,-1005.00
2024-06-07 11:00:14.328120,2,5,-111,0,0,0,76,79,129,90,42,133.83,359,24.00,-91.00,-1033.00
2024-06-07 11:00:14.378034,2,5,-117,0,0,0,76,79,128,90,42,133.85,359,63.00,-58.00,-977.00
2024-06-07 11:00:14.532335,2,4,-124,0,0,0,76,79,128,90,42,133.73,360,58.00,-75.00,-1004.00
2024-06-07 11:00:14.581805,3,3,-131,0,0,0,76,79,127,90,42,133.80,360,76.00,-73.00,-1011.00
2024-06-07 11:00:14.737364,4,2,-137,0,0,0,76,79,128,90,42,133.76,360,79.00,-49.00,-998.00
2024-06-07 11:00:14.785718,4,2,-144,0,0,0,76,79,127,90,42,133.71,360,63.00,-26.00,-1023.00
2024-06-07 11:00:14.942150,5,1,-150,0,0,0,76,79,128,90,42,133.64,360,95.00,-26.00,-975.00
2024-06-07 11:00:14.989759,5,0,-156,0,0,0,76,79,128,90,42,133.66,360,93.00,-62.00,-978.00
2024-06-07 11:00:15.147199,6,0,-162,0,0,0,76,79,127,90,42,133.54,360,70.00,-61.00,-978.00
2024-06-07 11:00:15.147281,6,0,-168,0,0,0,76,79,128,90,42,133.61,360,82.00,-47.00,-952.00
2024-06-07 11:00:15.244726,5,0,-173,0,0,0,76,79,128,90,42,133.58,360,65.00,-25.00,-941.00
2024-06-07 11:00:15.346796,5,1,-179,0,1,0,76,79,127,90,42,133.60,360,83.00,-48.00,-976.00
2024-06-07 11:00:15.448898,4,1,174,0,1,0,76,79,126,90,42,133.53,361,79.00,-38.00,-1007.00
2024-06-07 11:00:15.556547,5,1,169,0,1,0,76,79,126,90,42,133.51,361,91.00,-15.00,-1045.00
2024-06-07 11:00:15.652897,5,1,162,0,1,0,76,79,126,90,42,133.52,361,90.00,-10.00,-973.00
2024-06-07 11:00:15.762197,5,1,156,0,1,0,76,79,127,90,42,133.56,361,81.00,-3.00,-992.00
2024-06-07 11:00:15.857394,5,0,150,0,1,0,76,79,126,90,42,133.58,361,60.00,-8.00,-1024.00
2024-06-07 11:00:15.958661,5,0,144,0,0,0,76,79,126,90,42,133.68,361,81.00,44.00,-966.00
2024-06-07 11:00:16.068631,5,-1,138,0,0,0,76,79,126,90,42,133.65,361,69.00,29.00,-978.00
2024-06-07 11:00:16.162748,4,-2,133,0,0,0,76,79,126,90,42,133.75,361,73.00,40.00,-1010.00
2024-06-07 11:00:16.273029,4,-3,127,0,0,0,76,79,126,90,42,133.72,361,67.00,43.00,-1022.00
2024-06-07 11:00:16.369990,3,-3,121,0,0,0,76,79,127,90,42,133.65,361,41.00,52.00,-994.00
2024-06-07 11:00:16.469484,2,-3,116,0,0,0,75,79,127,90,42,133.73,362,21.00,40.00,-973.00
2024-06-07 11:00:16.580547,2,-3,110,0,0,0,75,79,127,90,42,133.72,362,46.00,54.00,-1014.00
2024-06-07 11:00:16.672642,2,-3,104,0,0,0,75,79,127,90,42,133.79,362,51.00,68.00,-972.00
2024-06-07 11:00:16.774613,2,-3,98,0,0,0,75,79,128,90,42,133.80,362,38.00,73.00,-1001.00
2024-06-07 11:00:16.876679,1,-3,93,0,0,0,75,79,128,90,42,133.80,362,27.00,78.00,-972.00
2024-06-07 11:00:16.978604,1,-3,87,0,0,0,75,79,127,90,42,133.77,362,26.00,68.00,-956.00
2024-06-07 11:00:17.092619,1,-4,80,0,0,0,75,79,127,90,42,133.86,362,20.00,87.00,-946.00
2024-06-07 11:00:17.182670,1,-4,74,0,0,0,75,79,126,90,42,133.83,362,-11.00,92.00,-970.00
2024-06-07 11:00:17.285218,1,-4,68,0,0,0,75,79,127,90,42,133.88,362,-17.00,104.00,-1034.00
2024-06-07 11:00:17.399533,0,-5,62,0,0,0,75,79,127,90,42,133.73,362,-41.00,93.00,-984.00
2024-06-07 11:00:17.488719,0,-6,55,0,0,0,76,79,126,90,42,133.75,363,-69.00,76.00,-1004.00
2024-06-07 11:00:17.605680,-2,-6,48,0,0,0,76,79,126,90,42,133.74,363,-101.00,28.00,-1013.00
2024-06-07 11:00:17.692737,-4,-4,42,0,-1,0,76,79,126,90,42,133.63,363,-98.00,32.00,-963.00
2024-06-07 11:00:17.794791,-5,-2,36,0,-1,0,76,79,126,90,42,133.60,363,-108.00,18.00,-970.00
2024-06-07 11:00:17.911764,-6,0,30,0,-1,0,76,79,126,90,42,133.58,363,-90.00,15.00,-1004.00
2024-06-07 11:00:17.998595,-6,0,24,0,-1,0,76,79,127,90,42,133.49,363,-91.00,-18.00,-1035.00
2024-06-07 11:00:18.116566,-5,1,19,0,-1,0,76,79,126,90,42,133.44,363,-101.00,-29.00,-1005.00
2024-06-07 11:00:18.206891,-5,1,15,0,-1,0,76,79,127,90,42,133.49,363,-109.00,-34.00,-1000.00
2024-06-07 11:00:18.304574,-5,2,13,0,-1,0,76,79,128,90,42,133.47,363,-112.00,-35.00,-960.00
2024-06-07 11:00:18.423773,-5,2,11,0,0,0,76,79,127,90,42,133.54,363,-79.00,-35.00,-1009.00
2024-06-07 11:00:18.508556,-5,1,9,0,0,0,76,79,127,90,42,133.50,364,-71.00,-38.00,-1042.00
2024-06-07 11:00:18.628844,-5,3,9,0,0,0,76,79,127,90,42,133.50,364,-100.00,2.00,-990.00
2024-06-07 11:00:18.712548,-5,2,8,0,0,0,76,79,127,90,42,133.44,364,-95.00,0.00,-1001.00
2024-06-07 11:00:18.814615,-4,1,7,0,0,0,76,79,127,90,42,133.50,364,-90.00,-18.00,-1020.00
2024-06-07 11:00:18.935725,-4,0,7,0,0,0,76,79,128,90,42,133.45,364,-68.00,-4.00,-1008.00
2024-06-07 11:00:19.018513,-4,1,6,0,0,0,76,79,128,90,42,133.48,364,-82.00,7.00,-958.00
2024-06-07 11:00:19.125845,-4,0,6,0,0,0,76,79,128,90,42,133.43,364,-87.00,-2.00,-1004.00
2024-06-07 11:00:19.222557,-4,0,5,0,0,0,76,79,129,90,42,133.49,364,-58.00,-8.00,-1008.00
2024-06-07 11:00:19.345537,-3,-1,5,0,0,0,76,79,129,90,42,133.50,364,-90.00,-35.00,-984.00
2024-06-07 11:00:19.375588,-4,0,4,0,0,0,76,79,128,90,42,133.53,364,-85.00,-40.00,-1006.00
2024-06-07 11:00:19.550332,-4,0,4,0,0,0,76,78,128,90,41,133.45,365,-89.00,-14.00,-949.00
2024-06-07 11:00:19.631050,-4,0,4,0,0,0,76,78,129,90,41,133.45,365,-84.00,-25.00,-997.00
2024-06-07 11:00:19.682109,-4,1,4,0,0,0,76,78,129,90,41,133.43,365,-72.00,-36.00,-1030.00
2024-06-07 11:00:19.784070,-4,1,4,0,0,0,76,78,128,90,41,133.51,365,-93.00,-15.00,-980.00
2024-06-07 11:00:19.959972,-4,1,4,0,0,0,76,78,130,90,41,133.44,365,-125.00,-1.00,-939.00
2024-06-07 11:00:19.987578,-4,0,4,0,0,0,76,78,130,90,41,133.40,365,-84.00,-6.00,-1027.00
2024-06-07 11:00:20.165064,-4,0,4,0,0,0,76,78,129,90,41,133.41,365,-61.00,0.00,-1008.00
2024-06-07 11:00:20.191531,-5,0,4,0,0,0,76,78,131,90,41,133.47,365,-83.00,-1.00,-961.00
2024-06-07 11:00:20.369403,-4,0,4,0,0,0,76,78,131,90,41,133.45,365,-90.00,14.00,-960.00
2024-06-07 11:00:20.395507,-4,0,4,0,0,0,76,78,131,90,41,133.51,365,-81.00,8.00,-1004.00
2024-06-07 11:00:20.574278,-4,0,4,0,0,0,75,78,130,90,41,133.51,366,-77.00,-4.00,-992.00
2024-06-07 11:00:20.599466,-3,0,4,0,0,0,75,78,131,90,41,133.58,366,-93.00,12.00,-949.00
2024-06-07 11:00:20.779535,-3,0,4,0,0,0,75,78,131,90,41,133.55,366,-83.00,0.00,-998.00
2024-06-07 11:00:20.803519,-3,0,4,0,0,0,75,78,130,90,41,133.51,366,-78.00,10.00,-1000.00
2024-06-07 11:00:20.984274,-3,0,4,0,0,0,75,78,131,90,41,133.44,366,-80.00,9.00,-989.00
2024-06-07 11:00:21.007481,-3,0,4,0,0,0,75,78,131,90,41,133.51,366,-59.00,0.00,-1035.00
2024-06-07 11:00:21.188370,-3,0,4,0,0,0,75,78,131,90,41,133.51,366,-94.00,7.00,-1000.00
2024-06-07 11:00:21.211498,-4,0,4,0,0,0,75,78,131,90,41,133.49,366,-99.00,-7.00,-983.00
2024-06-07 11:00:21.313614,-4,0,4,0,0,0,75,78,132,90,41,133.45,366,-93.00,-44.00,-989.00
2024-06-07 11:00:21.440294,-4,0,4,0,0,0,75,78,132,90,41,133.54,366,-91.00,-14.00,-988.00
2024-06-07 11:00:21.517833,-4,0,4,0,0,0,75,79,134,90,41,133.55,367,-82.00,-21.00,-995.00
2024-06-07 11:00:21.700691,-4,0,4,0,0,0,75,79,134,90,41,133.56,367,-81.00,-24.00,-1004.00
2024-06-07 11:00:21.728403,-4,0,4,0,0,0,75,79,134,100,41,133.53,367,-77.00,-31.00,-979.00
2024-06-07 11:00:21.823509,-4,1,4,0,0,0,75,79,135,100,41,133.56,367,-74.00,3.00,-1011.00
2024-06-07 11:00:22.008980,-4,0,4,0,0,0,75,79,134,100,41,133.61,367,-84.00,-16.00,-941.00
2024-06-07 11:00:22.030449,-4,0,4,0,0,0,75,79,134,100,41,133.67,367,-80.00,-33.00,-977.00
2024-06-07 11:00:22.129495,-4,1,4,0,0,0,75,79,135,100,41,133.62,367,-63.00,0.00,-988.00
2024-06-07 11:00:22.315157,-4,1,4,0,0,0,75,79,133,100,41,133.52,367,-81.00,0.00,-949.00
2024-06-07 11:00:22.333412,-3,0,4,0,0,0,75,79,133,100,41,133.52,367,-75.00,6.00,-997.00
2024-06-07 11:00:22.522479,-3,0,4,0,0,0,75,79,133,100,41,133.59,367,-81.00,-55.00,-1006.00
2024-06-07 11:00:22.538539,-3,0,4,0,0,0,76,79,132,100,41,133.54,368,-66.00,6.00,-1025.00
2024-06-07 11:00:22.724526,-3,1,4,0,0,0,76,79,132,100,41,133.56,368,-77.00,-12.00,-953.00
2024-06-07 11:00:22.743937,-3,2,4,0,0,0,76,79,131,90,41,133.64,368,-77.00,-25.00,-1015.00
2024-06-07 11:00:22.845489,-3,2,4,0,0,0,76,79,131,90,41,133.55,368,-72.00,-12.00,-1015.00
2024-06-07 11:00:22.946738,-3,1,4,0,0,0,76,79,131,90,41,133.50,368,-82.00,-63.00,-997.00
2024-06-07 11:00:23.049297,-3,0,4,0,0,0,76,79,131,90,41,133.48,368,-76.00,-60.00,-1009.00
2024-06-07 11:00:23.099670,-3,0,4,0,0,0,76,79,131,90,41,133.52,368,-76.00,-20.00,-1063.00
2024-06-07 11:00:23.237397,-3,2,4,0,0,0,76,79,130,90,41,133.54,368,-78.00,-42.00,-1016.00
2024-06-07 11:00:23.302482,-3,2,4,0,0,0,76,79,131,90,41,133.58,368,-85.00,-36.00,-966.00
2024-06-07 11:00:23.442100,-3,2,4,0,0,0,76,79,131,90,41,133.65,368,-69.00,-61.00,-1049.00
2024-06-07 11:00:23.507159,-3,2,4,0,0,0,76,79,132,90,40,133.66,369,-86.00,-27.00,-991.00
2024-06-07 11:00:23.648619,-3,1,4,0,0,0,76,79,131,90,40,133.47,369,-66.00,-34.00,-997.00
2024-06-07 11:00:23.711030,-3,1,4,0,0,0,76,79,132,90,40,133.51,369,-99.00,-17.00,-964.00
2024-06-07 11:00:23.812371,-3,1,4,0,0,0,76,79,131,90,40,133.53,369,-74.00,-2.00,-965.00
2024-06-07 11:00:23.959484,-4,0,4,0,0,0,76,79,133,90,40,133.54,369,-104.00,-17.00,-1019.00
2024-06-07 11:00:24.016372,-4,0,4,0,0,0,76,79,131,90,40,133.59,369,-66.00,0.00,-999.00
2024-06-07 11:00:24.163209,-4,0,4,0,0,0,76,79,132,90,40,133.59,369,-87.00,-5.00,-997.00
2024-06-07 11:00:24.220421,-4,0,4,0,0,0,76,79,131,90,40,133.51,369,-90.00,-6.00,-945.00
2024-06-07 11:00:24.322546,-5,0,4,0,0,0,76,79,132,90,40,133.55,369,-74.00,-26.00,-1067.00
2024-06-07 11:00:24.424419,-4,0,4,0,0,0,76,79,131,90,40,133.56,369,-92.00,-8.00,-977.00
2024-06-07 11:00:24.567598,-4,0,4,0,0,0,76,78,131,90,40,133.56,370,-96.00,-8.00,-984.00
2024-06-07 11:00:24.628473,-4,0,4,0,0,0,76,78,131,90,40,133.58,370,-41.00,4.00,-1022.00
2024-06-07 11:00:24.769309,-4,0,4,0,0,0,76,78,130,90,40,133.51,370,-50.00,-10.00,-1012.00
2024-06-07 11:00:24.832337,-3,0,4,0,0,0,76,78,131,90,40,133.61,370,-62.00,-14.00,-962.00
2024-06-07 11:00:24.978851,-3,0,4,0,0,0,76,78,130,90,40,133.60,370,-70.00,-13.00,-1018.00
2024-06-07 11:00:25.036322,-3,0,4,0,0,0,76,78,129,90,40,133.53,370,-98.00,-18.00,-980.00
2024-06-07 11:00:25.141433,-4,1,4,0,0,0,76,78,129,90,40,133.53,370,-99.00,-16.00,-1021.00
2024-06-07 11:00:25.240369,-4,0,4,0,0,0,76,78,129,90,40,133.51,370,-101.00,-10.00,-992.00
2024-06-07 11:00:25.388927,-4,0,4,0,0,0,76,78,129,90,40,133.50,370,-102.00,-9.00,-982.00
2024-06-07 11:00:25.444343,-4,0,4,0,0,0,76,78,130,90,40,133.54,371,-77.00,-6.00,-978.00
2024-06-07 11:00:25.591733,-4,0,4,0,0,0,75,79,129,90,40,133.53,371,-70.00,-6.00,-1014.00
2024-06-07 11:00:25.648364,-4,0,4,0,0,0,75,79,130,90,40,133.51,371,-84.00,-1.00,-978.00
2024-06-07 11:00:25.796639,-4,0,4,0,0,0,75,79,131,90,40,133.48,371,-97.00,-17.00,-979.00
2024-06-07 11:00:25.852345,-4,0,4,0,0,0,75,79,130,90,40,133.50,371,-60.00,-9.00,-991.00
2024-06-07 11:00:26.001288,-3,0,4,0,0,0,75,79,130,90,40,133.49,371,-65.00,-23.00,-1019.00
2024-06-07 11:00:26.056432,-3,0,4,0,0,0,75,79,130,90,40,133.54,371,-69.00,-12.00,-1026.00
2024-06-07 11:00:26.206260,-4,0,4,0,0,0,75,79,129,90,40,133.46,371,-68.00,-34.00,-1005.00
2024-06-07 11:00:26.260481,-4,1,4,0,0,0,75,79,130,90,40,133.48,371,-76.00,-39.00,-1010.00
2024-06-07 11:00:26.410831,-4,1,4,0,0,0,75,79,131,90,40,133.47,371,-73.00,-42.00,-1009.00
2024-06-07 11:00:26.464641,-4,1,4,0,0,0,75,79,130,90,40,133.52,372,-80.00,-41.00,-1006.00
2024-06-07 11:00:26.618843,-3,1,4,0,0,0,75,79,130,90,40,133.49,372,-87.00,-18.00,-964.00
2024-06-07 11:00:26.668930,-4,1,4,0,0,0,75,79,130,90,40,133.52,372,-80.00,-37.00,-994.00
2024-06-07 11:00:26.821301,-4,1,4,0,0,0,75,79,129,90,40,133.52,372,-56.00,-20.00,-997.00
2024-06-07 11:00:26.874775,-4,1,4,0,0,0,75,79,129,90,40,133.53,372,-80.00,-39.00,-980.00
2024-06-07 11:00:26.923851,-4,2,4,0,0,0,75,79,128,90,40,133.50,372,-57.00,-36.00,-1016.00
2024-06-07 11:00:27.025408,-3,2,4,0,0,0,75,79,130,90,40,133.54,372,-62.00,-39.00,-1010.00
2024-06-07 11:00:27.127882,-3,2,4,0,0,0,75,79,129,90,40,133.55,372,-55.00,-46.00,-979.00
2024-06-07 11:00:27.230017,-3,2,4,0,0,0,75,79,128,90,40,133.54,372,-49.00,-41.00,-997.00
2024-06-07 11:00:27.332106,-3,2,4,0,0,0,75,79,130,90,40,133.59,372,-63.00,-32.00,-952.00
2024-06-07 11:00:27.435241,-3,2,4,0,0,0,75,79,128,90,40,133.61,373,-42.00,-49.00,-1058.00
2024-06-07 11:00:27.535223,-3,2,4,0,0,0,75,79,128,90,40,133.59,373,-44.00,-38.00,-982.00
2024-06-07 11:00:27.637326,-2,3,4,0,0,0,75,79,128,90,40,133.58,373,-63.00,-37.00,-1000.00
2024-06-07 11:00:27.742334,-2,3,4,0,0,0,75,79,129,90,40,133.59,373,-77.00,-22.00,-961.00
2024-06-07 11:00:27.841409,-3,2,4,0,0,0,75,79,129,90,40,133.57,373,-63.00,-48.00,-1004.00
2024-06-07 11:00:27.947340,-3,2,4,0,0,0,75,79,129,90,40,133.56,373,-62.00,-53.00,-1007.00
2024-06-07 11:00:28.045253,-3,2,4,0,0,0,75,79,128,90,40,133.50,373,-43.00,-48.00,-1022.00
2024-06-07 11:00:28.148302,-2,1,4,0,0,0,75,79,128,90,40,133.53,373,-64.00,-73.00,-1029.00
2024-06-07 11:00:28.255204,-2,2,4,0,0,0,75,79,128,90,40,133.57,373,-57.00,-55.00,-990.00
2024-06-07 11:00:28.351250,-3,3,4,0,0,0,75,79,128,90,40,133.59,373,-68.00,-54.00,-1021.00
2024-06-07 11:00:28.458941,-3,3,4,0,0,0,75,79,128,90,40,133.56,374,-52.00,-46.00,-1014.00
2024-06-07 11:00:28.555589,-3,3,4,0,0,0,76,78,128,90,40,133.49,374,-67.00,-47.00,-1022.00
2024-06-07 11:00:28.663883,-3,2,4,0,0,0,76,78,128,90,40,133.48,374,-60.00,-39.00,-994.00
2024-06-07 11:00:28.759701,-3,2,4,0,0,0,76,78,128,90,40,133.41,374,-64.00,-67.00,-1018.00
2024-06-07 11:00:28.870001,-4,2,4,0,0,0,76,78,127,90,40,133.42,374,-102.00,-61.00,-991.00
2024-06-07 11:00:28.963506,-4,3,4,0,0,0,76,78,127,90,40,133.38,374,-75.00,-15.00,-982.00
2024-06-07 11:00:29.075632,-5,1,4,0,0,0,76,78,128,90,40,133.44,374,-78.00,-33.00,-1009.00
2024-06-07 11:00:29.167175,-5,0,4,0,0,0,76,78,128,90,40,133.44,374,-101.00,-36.00,-982.00
2024-06-07 11:00:29.279453,-5,1,4,0,0,0,76,78,127,90,40,133.42,374,-110.00,-54.00,-997.00
2024-06-07 11:00:29.371437,-5,1,4,0,0,0,76,78,127,90,40,133.37,374,-73.00,-49.00,-1011.00
2024-06-07 11:00:29.484411,-5,2,4,0,0,0,76,78,127,90,40,133.40,375,-110.00,-51.00,-974.00
2024-06-07 11:00:29.575870,-5,2,4,0,0,0,76,79,128,90,39,133.50,375,-111.00,-16.00,-948.00
2024-06-07 11:00:29.690139,-5,1,4,0,0,0,76,79,128,90,39,133.46,375,-81.00,-22.00,-1014.00
2024-06-07 11:00:29.779296,-5,2,4,0,0,0,76,79,128,90,39,133.45,375,-104.00,-34.00,-946.00
2024-06-07 11:00:29.894342,-5,2,4,0,0,0,76,79,128,90,39,133.56,375,-99.00,-48.00,-999.00
2024-06-07 11:00:29.983174,-5,2,4,0,0,0,76,79,128,90,39,133.49,375,-76.00,-51.00,-1043.00
2024-06-07 11:00:30.085119,-5,2,4,0,0,0,76,79,128,90,39,133.43,375,-79.00,-46.00,-1036.00
2024-06-07 11:00:30.187171,-5,2,4,0,0,0,76,79,127,90,39,133.42,375,-113.00,-21.00,-931.00
2024-06-07 11:00:30.289933,-6,1,4,0,0,0,76,79,127,90,39,133.43,375,-114.00,-53.00,-1008.00
2024-06-07 11:00:30.391176,-6,2,4,0,0,0,76,79,128,90,39,133.44,375,-127.00,-35.00,-963.00
