TS,pitch,roll,yaw,vgx,vgy,vgz,templ,temph,tof,h,bat,baro,time,agx,agy,agz
2024-05-17 15:46:53.833221,0,0,4,0,0,0,75,77,10,0,71,189.34,167,-3.00,0.00,-1000.00
2024-05-17 15:46:53.837368,0,0,4,0,0,0,75,77,10,0,71,189.27,167,-2.00,2.00,-1001.00
2024-05-17 15:46:54.033733,0,0,4,0,0,0,75,77,10,0,71,189.27,167,-2.00,1.00,-1000.00
2024-05-17 15:46:54.041246,0,0,4,0,0,0,75,77,10,0,71,189.32,167,-3.00,2.00,-1000.00
2024-05-17 15:46:54.238504,0,0,4,0,0,0,75,77,10,0,71,189.31,167,-1.00,1.00,-1001.00
2024-05-17 15:46:54.245186,0,0,4,0,0,0,75,77,10,0,71,189.31,167,-2.00,2.00,-999.00
2024-05-17 15:46:54.443455,0,0,4,0,0,0,75,77,10,0,71,189.29,167,-2.00,1.00,-999.00
2024-05-17 15:46:54.449296,0,0,4,0,0,0,75,77,10,0,71,189.33,167,-1.00,2.00,-998.00
2024-05-17 15:46:54.551900,0,0,4,0,0,0,75,77,10,0,71,189.34,167,-1.00,2.00,-1000.00
2024-05-17 15:46:54.750595,0,0,4,0,0,0,75,77,10,0,71,189.30,167,-2.00,2.00,-1001.00
2024-05-17 15:46:54.755563,0,0,4,0,0,0,75,77,10,0,71,189.32,167,-2.00,0.00,-998.00
2024-05-17 15:46:54.857426,0,0,4,0,0,0,75,77,10,0,71,189.29,167,-1.00,0.00,-999.00
2024-05-17 15:46:54.959404,0,0,4,0,0,0,75,77,10,0,71,189.31,167,-2.00,1.00,-999.00
2024-05-17 15:46:55.061361,0,0,4,0,0,0,75,77,10,0,71,189.28,167,-2.00,1.00,-999.00
2024-05-17 15:46:55.163229,0,0,4,0,0,0,75,77,10,0,70,189.34,167,-4.00,1.00,-1001.00
2024-05-17 15:46:55.265293,0,0,4,0,0,0,75,77,10,0,70,189.29,167,-1.00,0.00,-1000.00
2024-05-17 15:46:55.367575,0,0,4,0,0,0,75,77,10,0,70,189.31,167,-2.00,1.00,-999.00
2024-05-17 15:46:55.469681,0,0,4,0,0,0,75,77,10,0,70,189.23,167,-2.00,1.00,-999.00
2024-05-17 15:46:55.571495,0,0,4,0,0,0,75,77,10,0,70,189.23,167,-1.00,3.00,-1001.00
2024-05-17 15:46:55.673187,0,0,4,0,0,0,75,77,10,0,70,189.27,167,-1.00,0.00,-1000.00
2024-05-17 15:46:55.877022,0,0,4,0,0,0,75,77,10,0,70,189.27,167,-2.00,0.00,-999.00
2024-05-17 15:46:55.877226,0,0,4,0,0,0,75,77,10,0,70,189.31,167,-1.00,2.00,-1000.00
2024-05-17 15:46:55.979348,0,0,4,0,0,0,75,77,10,0,70,189.30,167,-1.00,1.00,-1000.00
2024-05-17 15:46:56.081706,0,0,4,0,0,0,75,77,10,0,70,189.29,167,-1.00,1.00,-999.00
2024-05-17 15:46:56.183866,0,0,4,0,0,0,75,77,10,0,70,189.28,167,-2.00,2.00,-999.00
2024-05-17 15:46:56.286539,0,0,4,0,0,0,75,77,10,0,70,189.30,167,-1.00,1.00,-997.00
2024-05-17 15:46:56.387132,0,0,4,0,0,0,75,77,10,0,70,189.30,167,-1.00,0.00,-999.00
2024-05-17 15:46:56.489062,0,0,4,0,0,0,75,77,10,0,70,189.28,167,-2.00,1.00,-997.00
2024-05-17 15:46:56.591689,0,0,4,0,0,0,75,77,10,0,70,189.28,167,-4.00,0.00,-993.00
2024-05-17 15:46:56.696032,0,0,4,0,0,0,75,77,10,0,70,189.28,167,2.00,15.00,-996.00
2024-05-17 15:46:56.795050,0,0,4,0,0,0,75,77,10,0,70,189.28,168,22.00,-9.00,-1005.00
2024-05-17 15:46:56.900845,0,0,4,0,0,0,75,77,10,0,70,189.28,168,-14.00,9.00,-1024.00
2024-05-17 15:46:56.999068,0,0,4,0,0,0,75,77,10,0,70,189.28,168,-10.00,14.00,-1117.00
2024-05-17 15:46:57.050185,0,0,4,0,0,-1,75,77,10,0,70,189.28,168,-21.00,14.00,-1205.00
2024-05-17 15:46:57.210079,0,0,4,0,0,-4,75,77,10,0,70,189.28,168,-37.00,-9.00,-1316.00
2024-05-17 15:46:57.254292,-1,0,4,0,0,-7,75,77,14,0,70,189.53,168,-21.00,0.00,-1076.00
2024-05-17 15:46:57.414516,-1,0,4,0,0,-7,75,77,21,10,70,189.66,168,20.00,20.00,-1101.00
2024-05-17 15:46:57.458258,-1,0,4,0,0,-8,75,78,29,20,70,189.76,168,-7.00,-11.00,-1023.00
2024-05-17 15:46:57.618622,-1,0,4,0,0,-7,75,78,37,30,70,189.85,168,-14.00,16.00,-963.00
2024-05-17 15:46:57.663032,-1,0,4,0,0,-7,75,78,45,30,70,189.90,168,-16.00,13.00,-895.00
2024-05-17 15:46:57.822395,-1,0,4,0,0,-6,75,78,52,40,70,189.94,169,-17.00,22.00,-902.00
2024-05-17 15:46:57.868638,-1,0,4,0,0,-5,75,78,58,50,70,190.03,169,-14.00,-25.00,-910.00
2024-05-17 15:46:57.969009,-1,0,4,0,0,-4,75,78,58,50,70,190.16,169,-15.00,6.00,-864.00
2024-05-17 15:46:58.130851,-1,0,4,0,0,-2,75,78,62,50,70,190.09,169,-8.00,12.00,-909.00
2024-05-17 15:46:58.172958,-1,0,4,0,0,-2,75,78,66,50,70,190.07,169,-22.00,2.00,-915.00
2024-05-17 15:46:58.336290,-1,0,4,0,0,-1,75,78,67,60,70,190.10,169,-3.00,13.00,-987.00
2024-05-17 15:46:58.377201,-1,0,4,0,0,-1,75,78,69,60,70,190.21,169,7.00,-1.00,-1014.00
2024-05-17 15:46:58.539211,-1,0,4,0,0,0,75,78,70,60,70,190.12,169,-8.00,-1.00,-991.00
2024-05-17 15:46:58.583817,-1,0,4,0,0,0,75,78,72,60,70,190.18,169,-20.00,-12.00,-1027.00
2024-05-17 15:46:58.683331,-1,0,4,0,0,0,75,78,73,60,70,190.22,169,-17.00,-2.00,-932.00
2024-05-17 15:46:58.785365,0,0,4,0,0,0,75,78,74,60,70,190.25,170,-2.00,-1.00,-1057.00
2024-05-17 15:46:58.950897,0,0,4,0,0,0,75,78,76,60,70,190.25,170,8.00,-6.00,-987.00
2024-05-17 15:46:58.988861,0,0,4,0,0,-1,75,78,78,60,70,190.30,170,-9.00,-17.00,-996.00
2024-05-17 15:46:59.153540,0,0,4,0,0,-1,75,78,79,60,70,190.35,170,2.00,19.00,-1004.00
2024-05-17 15:46:59.193020,0,0,4,0,0,-1,75,78,81,70,70,190.35,170,9.00,-30.00,-978.00
2024-05-17 15:46:59.358484,0,0,4,0,0,0,75,78,82,70,70,190.33,170,10.00,-11.00,-1006.00
2024-05-17 15:46:59.396802,0,0,4,0,0,0,75,78,84,70,70,190.35,170,-7.00,0.00,-976.00
2024-05-17 15:46:59.564540,0,0,4,0,0,0,75,77,85,70,70,190.40,170,0.00,-12.00,-989.00
2024-05-17 15:46:59.600858,0,0,4,0,0,0,75,77,86,70,70,190.40,170,9.00,7.00,-1008.00
2024-05-17 15:46:59.768183,0,0,4,0,0,0,75,77,87,70,70,190.43,170,-11.00,26.00,-937.00
2024-05-17 15:46:59.804842,0,0,4,0,0,0,75,77,87,70,70,190.44,171,1.00,-15.00,-982.00
2024-05-17 15:46:59.972803,0,0,4,0,0,0,75,77,87,70,70,190.40,171,4.00,-4.00,-992.00
2024-05-17 15:47:00.008866,0,0,4,0,0,0,75,77,88,70,70,190.42,171,10.00,43.00,-1005.00
2024-05-17 15:47:00.177609,0,0,4,0,0,0,75,77,88,70,70,190.51,171,-6.00,20.00,-985.00
2024-05-17 15:47:00.212866,0,0,4,0,0,0,75,77,88,70,70,190.49,171,16.00,13.00,-971.00
2024-05-17 15:47:00.382800,0,0,4,0,0,0,75,77,88,70,70,190.38,171,0.00,16.00,-971.00
2024-05-17 15:47:00.416863,0,0,4,0,0,0,75,77,87,70,70,190.33,171,12.00,-5.00,-988.00
2024-05-17 15:47:00.587282,0,0,4,0,0,0,75,77,87,70,70,190.41,171,-1.00,18.00,-969.00
2024-05-17 15:47:00.620969,0,0,4,0,0,0,75,77,87,70,70,190.49,171,10.00,16.00,-1009.00
2024-05-17 15:47:00.792143,0,0,4,0,0,0,75,77,86,70,70,190.48,171,0.00,32.00,-981.00
2024-05-17 15:47:00.792372,0,0,4,0,0,0,75,77,86,70,70,190.35,172,-1.00,21.00,-1001.00
2024-05-17 15:47:00.876159,0,0,4,0,0,0,75,77,85,70,70,190.37,172,-1.00,3.00,-977.00
2024-05-17 15:47:01.099272,0,0,4,0,0,0,75,77,84,70,70,190.46,172,-11.00,7.00,-933.00
2024-05-17 15:47:01.099351,0,0,4,0,0,0,75,77,83,70,70,190.38,172,3.00,7.00,-1032.00
2024-05-17 15:47:01.181941,0,0,4,0,0,0,75,77,83,70,70,190.37,172,-7.00,6.00,-1004.00
2024-05-17 15:47:01.304002,0,0,4,0,0,0,75,77,82,70,70,190.38,172,-1.00,3.00,-996.00
2024-05-17 15:47:01.386080,0,0,4,0,0,0,75,77,82,70,70,190.41,172,-6.00,-9.00,-1001.00
2024-05-17 15:47:01.508802,0,0,4,0,0,0,74,77,82,70,70,190.32,172,-1.00,-8.00,-994.00
2024-05-17 15:47:01.590361,0,0,4,0,0,0,74,77,81,70,70,190.33,172,-16.00,31.00,-971.00
2024-05-17 15:47:01.713646,0,0,4,0,0,0,74,77,81,70,70,190.39,172,1.00,4.00,-1031.00
2024-05-17 15:47:01.794046,0,0,4,0,0,0,74,77,81,70,70,190.32,173,10.00,-19.00,-1050.00
2024-05-17 15:47:01.918361,0,0,4,0,0,0,74,77,81,70,70,190.34,173,10.00,12.00,-1017.00
2024-05-17 15:47:01.998010,0,0,4,0,0,0,74,77,81,70,70,190.41,173,3.00,-12.00,-1064.00
2024-05-17 15:47:02.125896,0,0,4,0,0,0,74,77,82,70,70,190.34,173,0.00,-7.00,-1009.00
2024-05-17 15:47:02.201910,0,0,4,0,0,0,74,77,82,70,70,190.31,173,3.00,15.00,-1011.00
2024-05-17 15:47:02.328230,0,0,4,0,0,0,74,77,82,70,70,190.35,173,8.00,-16.00,-1004.00
2024-05-17 15:47:02.405946,0,0,4,0,0,0,74,77,82,70,70,190.32,173,-4.00,19.00,-937.00
2024-05-17 15:47:02.532820,0,0,4,0,0,0,75,76,83,70,70,190.27,173,5.00,20.00,-1047.00
2024-05-17 15:47:02.610024,0,0,4,0,0,0,75,76,83,70,70,190.40,173,1.00,5.00,-984.00
2024-05-17 15:47:02.712336,0,0,4,0,0,0,75,76,83,70,70,190.43,173,13.00,-39.00,-1036.00
2024-05-17 15:47:02.839996,0,0,4,0,0,0,75,76,83,70,70,190.32,174,2.00,-1.00,-1001.00
2024-05-17 15:47:02.916055,0,0,4,0,0,0,75,76,83,70,70,190.25,174,1.00,8.00,-1011.00
2024-05-17 15:47:03.044736,0,0,4,0,0,0,75,76,83,70,70,190.37,174,-9.00,-20.00,-920.00
2024-05-17 15:47:03.119950,0,0,4,0,0,0,75,76,83,70,70,190.38,174,3.00,-14.00,-1005.00
2024-05-17 15:47:03.222499,0,0,4,0,0,0,75,76,83,70,70,190.25,174,-2.00,-10.00,-992.00
2024-05-17 15:47:03.324227,0,0,4,0,0,0,75,76,83,70,70,190.29,174,0.00,-27.00,-1039.00
2024-05-17 15:47:03.454577,0,0,4,0,0,0,75,76,83,70,70,190.37,174,4.00,-2.00,-1017.00
2024-05-17 15:47:03.528247,0,0,4,0,0,0,74,76,84,70,70,190.27,174,-9.00,1.00,-970.00
2024-05-17 15:47:03.630068,0,0,4,0,0,0,74,76,84,70,70,190.36,174,13.00,-9.00,-1026.00
2024-05-17 15:47:03.762932,0,0,4,0,0,0,74,76,85,70,70,190.37,174,15.00,2.00,-1063.00
2024-05-17 15:47:03.834032,0,0,4,0,0,0,74,76,85,70,70,190.30,175,9.00,-29.00,-1050.00
2024-05-17 15:47:03.966580,0,0,4,0,0,0,74,76,86,70,70,190.37,175,2.00,-8.00,-990.00
2024-05-17 15:47:04.040135,0,0,4,0,0,0,74,76,86,70,70,190.29,175,11.00,-5.00,-964.00
2024-05-17 15:47:04.139981,0,0,4,0,0,0,74,76,86,70,70,190.39,175,3.00,-15.00,-978.00
2024-05-17 15:47:04.275170,0,0,4,0,0,0,74,76,86,70,70,190.39,175,2.00,10.00,-980.00
2024-05-17 15:47:04.344149,0,0,4,0,0,0,74,76,86,70,70,190.39,175,2.00,-2.00,-1046.00
2024-05-17 15:47:04.448080,0,0,4,0,0,0,74,76,85,70,70,190.34,175,-7.00,-2.00,-988.00
2024-05-17 15:47:04.548064,0,0,4,0,0,0,75,76,85,70,70,190.36,175,0.00,27.00,-1073.00
2024-05-17 15:47:04.649835,0,0,4,0,0,0,75,76,85,70,70,190.34,175,-13.00,0.00,-929.00
2024-05-17 15:47:04.785818,0,0,4,0,0,0,75,76,84,70,70,190.35,175,-25.00,0.00,-1020.00
2024-05-17 15:47:04.802722,0,0,4,0,0,0,75,76,84,70,70,190.38,176,2.00,14.00,-1045.00
2024-05-17 15:47:04.992257,0,0,4,0,0,0,75,76,84,70,70,190.40,176,-23.00,19.00,-962.00
2024-05-17 15:47:05.006754,0,0,4,0,0,0,75,76,83,70,70,190.37,176,10.00,-32.00,-1038.00
2024-05-17 15:47:05.123572,0,0,4,0,0,0,75,76,83,70,70,190.41,176,-12.00,15.00,-999.00
2024-05-17 15:47:05.210633,0,0,4,0,0,0,75,76,83,70,70,190.31,176,-8.00,-35.00,-1026.00
2024-05-17 15:47:05.399909,0,0,4,0,0,0,75,76,83,70,70,190.37,176,0.00,0.00,-1087.00
2024-05-17 15:47:05.414720,0,0,4,0,0,0,75,76,83,70,70,190.37,176,-2.00,6.00,-1084.00
2024-05-17 15:47:05.604781,0,0,4,0,0,-2,73,77,85,70,70,190.39,176,-7.00,-36.00,-1125.00
2024-05-17 15:47:05.618656,0,0,4,0,0,-3,73,77,89,80,70,190.48,176,15.00,-13.00,-1148.00
2024-05-17 15:47:05.814477,0,0,4,0,0,-4,73,77,92,80,70,190.54,177,4.00,-1.00,-1041.00
2024-05-17 15:47:05.822603,0,0,4,0,0,-4,73,77,97,80,70,190.55,177,0.00,3.00,-1034.00
2024-05-17 15:47:06.014312,0,0,4,0,0,-4,73,77,101,90,70,190.62,177,3.00,-8.00,-1086.00
2024-05-17 15:47:06.026720,0,0,4,0,0,-5,73,77,107,90,70,190.65,177,-8.00,12.00,-991.00
2024-05-17 15:47:06.219451,0,0,4,0,0,-5,73,77,112,100,70,190.68,177,1.00,3.00,-1059.00
2024-05-17 15:47:06.233412,0,0,4,0,0,-5,73,77,118,100,70,190.70,177,0.00,-2.00,-968.00
2024-05-17 15:47:06.332577,0,0,4,0,0,-5,73,77,123,110,70,190.81,177,2.00,-30.00,-1024.00
2024-05-17 15:47:06.434685,0,0,4,0,0,-5,73,77,129,120,70,190.86,177,10.00,-29.00,-1028.00
2024-05-17 15:47:06.630242,0,0,4,0,0,-5,73,77,135,120,70,190.89,177,-6.00,-2.00,-916.00
2024-05-17 15:47:06.638468,0,0,4,0,0,-4,73,77,140,130,70,190.91,177,6.00,31.00,-980.00
2024-05-17 15:47:06.837680,0,0,4,0,0,-4,73,77,145,130,70,191.05,178,15.00,6.00,-1044.00
2024-05-17 15:47:06.842676,0,0,4,0,0,-4,73,77,149,140,70,191.04,178,7.00,32.00,-1018.00
2024-05-17 15:47:07.038469,0,0,4,0,0,-3,73,77,153,140,70,191.11,178,6.00,1.00,-922.00
2024-05-17 15:47:07.046479,0,0,4,0,0,-3,73,77,157,140,70,191.11,178,15.00,-35.00,-986.00
2024-05-17 15:47:07.243187,0,0,4,0,0,-3,73,77,161,150,70,191.14,178,-6.00,9.00,-901.00
2024-05-17 15:47:07.254732,0,0,4,0,0,-2,73,77,164,150,70,191.13,178,-8.00,36.00,-922.00
2024-05-17 15:47:07.355143,0,0,4,0,0,-2,73,77,167,150,70,191.12,178,-15.00,37.00,-994.00
2024-05-17 15:47:07.454727,0,0,4,0,0,-2,73,77,169,160,70,191.18,178,-8.00,-4.00,-1041.00
2024-05-17 15:47:07.652786,0,0,4,0,0,-1,73,76,171,160,70,191.25,178,-8.00,-20.00,-969.00
2024-05-17 15:47:07.658500,0,0,4,0,0,-1,73,76,174,160,70,191.18,178,2.00,-5.00,-926.00
2024-05-17 15:47:07.761879,0,0,4,0,0,-1,73,76,176,160,70,191.31,179,-5.00,5.00,-912.00
2024-05-17 15:47:07.862480,0,0,4,0,0,-1,73,76,177,160,70,191.26,179,7.00,1.00,-1028.00
2024-05-17 15:47:08.064176,0,0,4,0,0,-1,73,76,179,170,70,191.31,179,6.00,40.00,-1002.00
2024-05-17 15:47:08.066483,0,0,4,0,0,-1,73,76,180,170,70,191.30,179,3.00,25.00,-943.00
2024-05-17 15:47:08.267190,0,0,4,0,0,0,73,76,182,170,70,191.38,179,2.00,12.00,-944.00
2024-05-17 15:47:08.270433,0,0,4,0,0,0,73,76,182,170,70,191.39,179,7.00,-33.00,-962.00
2024-05-17 15:47:08.321931,0,0,4,0,0,0,73,76,184,170,70,191.38,179,-2.00,-2.00,-1036.00
2024-05-17 15:47:08.423878,0,0,4,0,0,0,73,76,184,170,70,191.40,179,-2.00,-10.00,-1019.00
2024-05-17 15:47:08.576789,0,0,4,0,0,0,74,76,185,170,70,191.44,179,-19.00,39.00,-937.00
2024-05-17 15:47:08.680119,0,0,4,0,0,0,74,76,185,170,70,191.36,179,1.00,-17.00,-979.00
2024-05-17 15:47:08.782491,0,0,4,0,0,0,74,76,185,170,70,191.37,180,-6.00,35.00,-983.00
2024-05-17 15:47:08.833623,0,0,4,0,0,0,74,76,185,170,70,191.38,180,-20.00,-8.00,-1004.00
2024-05-17 15:47:08.985442,0,0,4,0,0,0,74,76,185,170,70,191.31,180,0.00,-5.00,-1042.00
2024-05-17 15:47:09.036736,0,0,4,0,0,0,74,76,185,170,70,191.36,180,-2.00,1.00,-1038.00
2024-05-17 15:47:09.190555,0,0,4,0,0,0,74,76,185,170,70,191.41,180,-8.00,33.00,-1042.00
2024-05-17 15:47:09.240546,0,0,4,0,0,0,74,76,185,170,70,191.35,180,-13.00,37.00,-899.00
2024-05-17 15:47:09.393714,0,0,4,0,0,0,74,76,185,170,70,191.40,180,-1.00,20.00,-981.00
2024-05-17 15:47:09.447239,0,0,4,0,0,0,74,76,185,170,70,191.28,180,-7.00,17.00,-978.00
2024-05-17 15:47:09.546596,0,0,4,0,0,0,74,76,185,170,70,191.28,180,-18.00,-3.00,-972.00
2024-05-17 15:47:09.648480,0,0,4,0,0,0,74,76,185,170,70,191.33,180,5.00,-14.00,-977.00
2024-05-17 15:47:09.804218,0,0,4,0,0,0,74,76,184,170,70,191.37,181,-5.00,-6.00,-953.00
2024-05-17 15:47:09.852544,0,0,4,0,0,0,74,76,184,170,70,191.31,181,-8.00,10.00,-942.00
2024-05-17 15:47:10.008199,0,0,4,0,0,0,74,76,185,170,70,191.29,181,0.00,-5.00,-975.00
2024-05-17 15:47:10.062164,0,0,4,0,0,0,74,76,184,170,70,191.31,181,-2.00,-11.00,-1003.00
2024-05-17 15:47:10.158374,0,0,4,0,0,0,74,76,185,170,70,191.35,181,-15.00,26.00,-975.00
2024-05-17 15:47:10.315178,0,0,4,0,0,0,74,76,184,170,70,191.35,181,3.00,34.00,-990.00
2024-05-17 15:47:10.362367,0,0,4,0,0,0,74,76,183,170,70,191.32,181,-15.00,29.00,-987.00
2024-05-17 15:47:10.520405,0,0,4,0,0,1,74,76,183,170,70,191.35,181,27.00,-31.00,-974.00
2024-05-17 15:47:10.567545,0,0,4,0,0,1,73,76,181,170,70,191.36,181,4.00,-37.00,-963.00
2024-05-17 15:47:10.669496,0,0,4,0,0,2,73,76,180,170,70,191.28,181,10.00,6.00,-937.00
2024-05-17 15:47:10.771574,0,0,4,0,0,2,73,76,178,160,70,191.23,182,8.00,16.00,-1023.00
2024-05-17 15:47:10.929708,0,0,4,0,0,2,73,76,175,160,70,191.26,182,10.00,-1.00,-1031.00
2024-05-17 15:47:10.976009,0,0,4,0,0,2,73,76,174,160,70,191.25,182,12.00,-14.00,-1056.00
2024-05-17 15:47:11.134448,0,0,4,0,0,2,73,76,172,160,70,191.24,182,9.00,-27.00,-990.00
2024-05-17 15:47:11.180898,0,0,4,0,0,2,73,76,170,160,70,191.21,182,-9.00,11.00,-939.00
2024-05-17 15:47:11.343002,0,0,4,0,0,2,73,76,168,150,70,191.14,182,8.00,28.00,-1001.00
2024-05-17 15:47:11.383707,0,0,4,0,0,2,73,76,165,150,70,191.14,182,-6.00,9.00,-990.00
2024-05-17 15:47:11.485639,0,0,4,0,0,2,73,76,163,150,70,191.11,182,13.00,-10.00,-1057.00
2024-05-17 15:47:11.587654,0,0,4,0,0,2,73,77,161,150,70,191.12,182,-6.00,6.00,-944.00
2024-05-17 15:47:11.689871,0,0,4,0,0,2,73,77,159,150,70,191.12,182,11.00,21.00,-1033.00
2024-05-17 15:47:11.792500,0,0,4,0,0,1,73,77,157,140,70,191.07,183,0.00,2.00,-1018.00
2024-05-17 15:47:11.894526,0,0,4,0,0,1,73,77,155,140,70,191.03,183,9.00,-18.00,-1052.00
2024-05-17 15:47:11.997067,0,0,4,0,0,1,73,77,153,140,70,191.02,183,4.00,-18.00,-1030.00
2024-05-17 15:47:12.158427,0,0,4,0,0,1,73,77,151,140,70,190.96,183,20.00,15.00,-1111.00
2024-05-17 15:47:12.201605,0,0,4,0,0,1,73,77,149,140,70,190.97,183,-5.00,-6.00,-997.00
2024-05-17 15:47:12.301273,0,0,4,0,0,1,73,77,147,130,70,190.95,183,-1.00,-13.00,-1067.00
2024-05-17 15:47:12.403461,0,0,4,0,0,1,73,77,146,130,70,190.97,183,19.00,-16.00,-1066.00
2024-05-17 15:47:12.567927,0,0,4,0,0,1,73,77,144,130,70,190.91,183,1.00,-9.00,-1030.00
2024-05-17 15:47:12.607262,0,0,4,0,0,1,73,76,142,130,70,190.93,183,1.00,-8.00,-1024.00
2024-05-17 15:47:12.772862,0,0,4,0,0,1,73,76,141,130,70,190.93,183,6.00,-19.00,-1055.00
2024-05-17 15:47:12.772927,0,0,4,0,0,1,73,76,140,130,70,190.89,184,-7.00,22.00,-992.00
2024-05-17 15:47:12.862247,0,0,4,0,0,0,73,76,139,130,70,190.95,184,9.00,14.00,-992.00
2024-05-17 15:47:12.978918,0,0,4,0,0,0,73,76,137,130,70,190.91,184,-24.00,8.00,-1025.00
2024-05-17 15:47:13.066348,0,0,4,0,0,0,73,76,136,130,70,190.91,184,8.00,-5.00,-1036.00
2024-05-17 15:47:13.168322,0,0,4,0,0,0,73,76,135,120,70,190.86,184,-6.00,11.00,-973.00
2024-05-17 15:47:13.286661,0,0,4,0,0,0,73,76,135,120,70,190.89,184,-10.00,-10.00,-1021.00
2024-05-17 15:47:13.374416,0,0,4,0,0,0,73,76,134,120,70,190.88,184,-7.00,0.00,-994.00
2024-05-17 15:47:13.474536,0,0,4,0,0,0,73,76,134,120,70,190.84,184,3.00,-23.00,-980.00
2024-05-17 15:47:13.592036,0,0,4,0,0,0,73,76,133,120,70,190.81,184,3.00,26.00,-1080.00
2024-05-17 15:47:13.678355,0,0,4,0,0,0,73,76,133,120,70,190.89,184,10.00,-2.00,-1007.00
2024-05-17 15:47:13.796962,0,0,4,0,0,0,73,76,133,120,70,190.87,185,-13.00,-26.00,-977.00
2024-05-17 15:47:13.897503,0,0,4,0,0,0,73,76,133,120,70,190.79,185,-10.00,31.00,-1020.00
2024-05-17 15:47:13.984451,0,0,4,0,0,0,73,76,133,120,70,190.83,185,4.00,-3.00,-988.00
2024-05-17 15:47:14.106577,0,0,4,0,0,0,73,76,134,120,70,190.86,185,-7.00,8.00,-972.00
2024-05-17 15:47:14.188153,0,0,4,0,0,0,73,76,134,120,70,190.90,185,-2.00,-6.00,-993.00
2024-05-17 15:47:14.309618,0,0,4,0,0,0,73,76,134,120,70,190.85,185,-3.00,-24.00,-991.00
2024-05-17 15:47:14.392475,0,0,4,0,0,0,73,76,135,120,70,190.83,185,-22.00,-1.00,-1011.00
2024-05-17 15:47:14.517831,0,0,4,0,0,0,73,76,135,120,70,190.83,185,-19.00,6.00,-997.00
2024-05-17 15:47:14.596281,0,0,4,0,0,0,73,75,135,120,70,190.91,185,-18.00,-14.00,-952.00
2024-05-17 15:47:14.721606,0,0,4,0,0,0,73,75,135,120,70,190.94,185,0.00,-32.00,-992.00
2024-05-17 15:47:14.801595,0,0,4,0,0,0,73,75,135,120,70,190.94,186,4.00,-26.00,-1045.00
2024-05-17 15:47:14.903444,0,0,4,0,0,0,73,75,136,120,70,190.89,186,7.00,4.00,-1038.00
2024-05-17 15:47:15.018919,0,0,4,0,0,0,73,75,135,120,70,190.89,186,-1.00,29.00,-1000.00
2024-05-17 15:47:15.107077,0,0,4,0,0,0,73,75,136,120,70,190.91,186,1.00,41.00,-997.00
2024-05-17 15:47:15.230695,0,0,4,0,0,0,73,75,137,120,70,190.89,186,-19.00,6.00,-992.00
2024-05-17 15:47:15.311680,-6,0,4,0,0,0,73,75,137,120,70,190.87,186,-1.00,-21.00,-1008.00
2024-05-17 15:47:15.436667,-8,0,4,1,0,0,73,75,139,120,70,190.96,186,-22.00,10.00,-1029.00
2024-05-17 15:47:15.516027,-8,0,4,2,0,0,73,75,139,120,70,190.92,186,-23.00,-35.00,-985.00
2024-05-17 15:47:15.617281,-8,0,4,4,0,0,73,75,138,120,70,190.88,186,-47.00,0.00,-958.00
2024-05-17 15:47:15.743200,-8,0,4,5,0,0,73,75,138,120,70,190.91,186,-50.00,43.00,-976.00
2024-05-17 15:47:15.821308,-7,0,4,6,0,0,73,75,136,120,70,190.96,187,-40.00,23.00,-1028.00
2024-05-17 15:47:15.949665,-5,0,4,7,0,0,73,75,136,120,70,190.84,187,-46.00,-10.00,-1061.00
2024-05-17 15:47:16.027997,-5,0,4,7,0,0,73,75,138,120,70,190.89,187,-36.00,0.00,-1002.00
2024-05-17 15:47:16.127365,-2,-1,4,8,0,0,73,75,137,120,70,190.77,187,-62.00,9.00,-913.00
2024-05-17 15:47:16.254344,0,0,4,7,0,0,73,75,138,120,70,190.87,187,-49.00,6.00,-1016.00
2024-05-17 15:47:16.280041,3,0,4,6,0,0,73,75,138,120,70,190.86,187,-50.00,8.00,-1001.00
2024-05-17 15:47:16.460069,4,0,4,5,0,0,73,75,138,120,70,190.87,187,-51.00,34.00,-986.00
2024-05-17 15:47:16.485335,3,0,4,4,0,0,73,75,137,120,70,190.87,187,-57.00,12.00,-947.00
2024-05-17 15:47:16.664000,1,0,4,3,0,0,73,76,136,120,70,190.90,187,-40.00,-6.00,-978.00
2024-05-17 15:47:16.739946,0,0,4,3,0,0,73,76,136,120,70,190.93,187,-37.00,18.00,-987.00
2024-05-17 15:47:16.791218,0,0,4,2,0,0,73,76,136,120,70,191.00,188,-26.00,-8.00,-1050.00
2024-05-17 15:47:16.971162,0,0,4,2,0,0,73,76,137,120,70,190.90,188,-28.00,-18.00,-1031.00
2024-05-17 15:47:16.996194,0,0,4,2,0,0,73,76,137,120,70,190.87,188,-30.00,-14.00,-976.00
2024-05-17 15:47:17.176275,0,0,4,2,0,0,73,76,137,120,70,190.89,188,-48.00,9.00,-891.00
2024-05-17 15:47:17.200114,0,0,4,2,0,0,73,76,137,120,70,190.90,188,-29.00,13.00,-991.00
2024-05-17 15:47:17.380742,0,0,4,2,0,0,73,76,137,120,70,190.95,188,-29.00,14.00,-1016.00
2024-05-17 15:47:17.403261,0,0,4,1,0,0,73,76,138,120,70,190.94,188,-19.00,17.00,-1002.00
2024-05-17 15:47:17.585571,3,0,4,1,0,0,73,76,140,120,70,190.99,188,-32.00,32.00,-1010.00
2024-05-17 15:47:17.607612,1,-1,4,0,0,0,74,76,139,120,70,190.90,188,-25.00,15.00,-1001.00
2024-05-17 15:47:17.795346,0,-1,4,0,0,0,74,76,138,130,70,190.89,188,-11.00,2.00,-1008.00
2024-05-17 15:47:17.811015,0,-1,4,0,0,0,74,76,138,130,70,190.95,189,-15.00,26.00,-990.00
2024-05-17 15:47:17.996601,0,0,4,0,0,0,74,76,138,130,70,190.86,189,-21.00,14.00,-992.00
2024-05-17 15:47:18.015406,0,-1,4,0,0,0,74,76,138,130,70,190.83,189,-15.00,8.00,-1029.00
2024-05-17 15:47:18.117620,0,0,4,0,0,0,74,76,137,130,70,190.92,189,1.00,30.00,-1057.00
2024-05-17 15:47:18.219668,0,0,4,0,0,0,74,76,137,130,70,190.85,189,16.00,11.00,-1057.00
2024-05-17 15:47:18.405593,0,0,4,0,0,0,74,76,137,120,70,190.83,189,-37.00,32.00,-891.00
2024-05-17 15:47:18.423259,0,0,4,0,0,0,74,76,136,120,70,190.87,189,-19.00,1.00,-999.00
2024-05-17 15:47:18.609859,0,-1,4,0,0,0,74,76,137,120,70,190.82,189,8.00,32.00,-1014.00
2024-05-17 15:47:18.627580,0,-1,4,0,0,0,72,75,137,120,70,190.93,189,27.00,2.00,-1089.00
2024-05-17 15:47:18.814601,0,-1,4,0,0,0,72,75,138,120,70,190.87,189,-4.00,28.00,-1011.00
2024-05-17 15:47:18.833719,0,-1,4,0,0,0,72,75,138,120,70,190.92,190,6.00,33.00,-1010.00
2024-05-17 15:47:18.933449,0,0,4,0,0,0,72,75,138,120,70,190.93,190,14.00,-5.00,-1091.00
2024-05-17 15:47:19.122519,0,0,4,0,0,0,72,75,138,120,70,190.87,190,7.00,-21.00,-972.00
2024-05-17 15:47:19.137440,0,0,4,0,0,0,72,75,138,130,70,190.92,190,-18.00,44.00,-932.00
2024-05-17 15:47:19.327722,0,0,4,0,0,0,72,75,138,130,70,190.91,190,1.00,35.00,-1039.00
2024-05-17 15:47:19.341378,0,0,4,0,0,0,72,75,138,120,70,190.95,190,-12.00,21.00,-1043.00
2024-05-17 15:47:19.531835,0,0,4,0,0,0,72,75,138,120,70,190.89,190,-8.00,-11.00,-1032.00
2024-05-17 15:47:19.545012,0,0,4,0,0,0,72,75,137,120,70,190.95,190,-28.00,37.00,-992.00
2024-05-17 15:47:19.647441,0,0,4,0,0,0,73,75,137,120,70,190.90,190,-12.00,5.00,-944.00
2024-05-17 15:47:19.838347,1,0,4,0,0,0,73,75,137,120,70,190.88,191,-8.00,-3.00,-935.00
2024-05-17 15:47:19.850827,6,0,4,-1,0,0,73,75,138,120,70,190.95,191,-12.00,24.00,-995.00
2024-05-17 15:47:20.054055,7,0,4,-2,0,0,73,75,139,120,70,190.87,191,-27.00,20.00,-1027.00
2024-05-17 15:47:20.060169,7,0,4,-3,0,0,73,75,139,120,70,190.88,191,-10.00,32.00,-1004.00
2024-05-17 15:47:20.160002,6,0,4,-5,0,0,73,75,138,130,70,190.91,191,-13.00,-4.00,-1019.00
2024-05-17 15:47:20.258831,6,0,4,-6,0,0,73,75,136,130,70,190.92,191,7.00,10.00,-964.00
2024-05-17 15:47:20.452735,5,0,4,-6,0,0,73,75,138,130,70,190.90,191,13.00,16.00,-991.00
2024-05-17 15:47:20.453183,4,0,4,-7,0,0,73,75,138,130,70,190.79,191,22.00,28.00,-960.00
2024-05-17 15:47:20.514029,4,0,4,-7,0,0,73,75,137,130,70,190.88,191,28.00,-10.00,-918.00
2024-05-17 15:47:20.666806,1,1,4,-7,0,0,73,75,136,130,70,190.91,191,54.00,-3.00,-951.00
2024-05-17 15:47:20.718021,-1,0,4,-7,0,0,73,75,135,130,70,190.89,192,55.00,-9.00,-1014.00
2024-05-17 15:47:20.866206,-3,0,4,-6,0,0,73,75,135,120,70,190.86,192,46.00,2.00,-1042.00
2024-05-17 15:47:20.921897,-4,0,4,-5,0,0,73,75,133,120,70,190.88,192,65.00,-11.00,-985.00
2024-05-17 15:47:21.067176,-3,0,4,-4,0,0,73,75,133,120,70,190.85,192,20.00,4.00,-1040.00
2024-05-17 15:47:21.125819,-1,0,4,-3,0,0,73,75,132,120,70,190.84,192,20.00,-27.00,-1056.00
2024-05-17 15:47:21.271926,-1,0,4,-3,0,0,73,75,132,120,70,190.81,192,22.00,-20.00,-1049.00
2024-05-17 15:47:21.329792,0,0,4,-2,0,0,73,75,131,120,70,190.83,192,18.00,-20.00,-1058.00
2024-05-17 15:47:21.476731,0,0,4,-2,0,0,73,75,130,120,70,190.86,192,34.00,0.00,-1067.00
2024-05-17 15:47:21.533969,0,0,4,-2,0,0,73,75,131,120,70,190.79,192,6.00,29.00,-979.00
2024-05-17 15:47:21.683013,0,0,4,-2,0,0,73,75,131,120,70,190.75,192,25.00,8.00,-992.00
2024-05-17 15:47:21.738649,0,0,4,-2,0,0,73,75,131,120,70,190.88,193,27.00,-36.00,-1014.00
2024-05-17 15:47:21.889383,0,0,4,-2,0,0,73,75,131,120,70,190.90,193,22.00,-14.00,-1024.00
2024-05-17 15:47:21.941719,0,0,4,-1,0,0,73,75,132,120,70,190.88,193,24.00,12.00,-1051.00
2024-05-17 15:47:22.093346,0,0,4,-1,0,0,73,75,132,120,70,190.84,193,30.00,-40.00,-1055.00
2024-05-17 15:47:22.146604,0,0,4,-1,0,0,73,75,132,120,70,190.87,193,24.00,16.00,-947.00
2024-05-17 15:47:22.295876,0,0,4,-1,0,0,73,75,133,120,70,190.88,193,29.00,-36.00,-1025.00
2024-05-17 15:47:22.349770,-3,0,4,0,0,0,73,75,134,120,70,190.86,193,11.00,22.00,-943.00
2024-05-17 15:47:22.451770,-1,0,4,0,0,0,73,75,134,120,70,190.82,193,10.00,-10.00,-1037.00
2024-05-17 15:47:22.603211,0,0,4,0,0,0,73,75,134,120,70,190.86,193,-3.00,12.00,-926.00
2024-05-17 15:47:22.656124,0,0,4,0,0,0,73,75,134,120,70,190.88,193,14.00,-29.00,-1035.00
2024-05-17 15:47:22.810345,0,0,4,0,0,0,73,75,135,120,70,190.93,194,-3.00,25.00,-1007.00
2024-05-17 15:47:22.859885,0,0,4,0,0,0,73,75,135,120,70,190.88,194,5.00,22.00,-1016.00
2024-05-17 15:47:23.012977,0,0,4,0,0,0,73,75,136,120,70,190.87,194,8.00,40.00,-972.00
2024-05-17 15:47:23.063909,0,0,4,0,0,0,73,75,136,120,70,190.86,194,-3.00,0.00,-963.00
2024-05-17 15:47:23.220924,0,0,4,0,0,0,73,75,136,120,70,190.84,194,-12.00,-6.00,-923.00
2024-05-17 15:47:23.267933,0,0,4,0,0,0,73,75,136,120,70,190.93,194,14.00,23.00,-1057.00
2024-05-17 15:47:23.422533,0,0,4,0,0,0,73,75,136,120,70,190.84,194,-5.00,-11.00,-945.00
2024-05-17 15:47:23.471863,0,0,4,0,0,0,73,75,136,120,70,190.94,194,22.00,-13.00,-1049.00
2024-05-17 15:47:23.630772,0,0,4,0,0,0,73,75,136,120,70,190.88,194,7.00,-20.00,-999.00
2024-05-17 15:47:23.678571,0,0,4,0,0,0,73,75,135,120,70,190.88,194,-1.00,27.00,-998.00
2024-05-17 15:47:23.777835,0,0,4,0,0,0,73,75,135,120,70,190.86,195,6.00,13.00,-1055.00
2024-05-17 15:47:23.935648,0,0,4,0,0,0,73,75,134,120,70,190.82,195,11.00,-15.00,-1116.00
2024-05-17 15:47:23.981730,0,0,4,0,0,0,73,75,134,120,70,190.81,195,22.00,-16.00,-1103.00
2024-05-17 15:47:24.139343,0,0,4,0,0,0,73,75,134,120,70,190.86,195,0.00,8.00,-1018.00
2024-05-17 15:47:24.185840,0,0,4,0,0,0,73,75,133,120,70,190.90,195,4.00,11.00,-995.00
2024-05-17 15:47:24.343969,0,0,4,0,0,0,73,75,132,120,70,190.89,195,11.00,24.00,-981.00
2024-05-17 15:47:24.389813,0,0,4,0,0,0,73,75,131,120,70,190.84,195,10.00,-6.00,-1046.00
2024-05-17 15:47:24.492812,0,0,4,0,0,0,73,75,131,120,70,190.87,195,-6.00,23.00,-967.00
2024-05-17 15:47:24.542586,0,0,4,0,0,0,73,75,130,120,70,190.82,195,-21.00,-2.00,-949.00
2024-05-17 15:47:24.695637,0,-5,4,0,0,0,73,75,131,120,70,190.88,195,11.00,-19.00,-1069.00
2024-05-17 15:47:24.855882,0,-8,4,0,-1,0,73,75,132,120,70,190.75,196,9.00,-37.00,-1056.00
2024-05-17 15:47:24.900804,0,-6,4,0,-2,0,73,75,132,120,70,190.77,196,-1.00,-7.00,-963.00
2024-05-17 15:47:24.950578,0,-4,4,0,-3,0,73,75,131,120,70,190.73,196,8.00,27.00,-991.00
2024-05-17 15:47:25.060738,0,-1,4,0,-4,0,73,75,130,120,70,190.73,196,3.00,35.00,-958.00
2024-05-17 15:47:25.155555,0,1,4,0,-4,0,73,75,130,120,70,190.78,196,11.00,40.00,-1034.00
2024-05-17 15:47:25.267100,0,1,4,0,-3,0,73,75,130,120,70,190.79,196,7.00,5.00,-965.00
2024-05-17 15:47:25.358476,0,0,4,0,-3,0,73,75,131,120,70,190.85,196,3.00,-8.00,-1028.00
2024-05-17 15:47:25.460592,0,0,4,0,-2,0,73,75,131,120,70,190.83,196,21.00,-14.00,-1003.00
2024-05-17 15:47:25.562920,0,0,4,0,-2,0,73,75,131,120,70,190.80,196,6.00,-6.00,-1015.00
2024-05-17 15:47:25.669513,0,0,4,0,-2,0,72,76,131,120,70,190.82,196,3.00,-10.00,-1018.00
2024-05-17 15:47:25.767894,0,0,4,0,-2,0,72,76,131,120,70,190.85,197,-8.00,39.00,-1015.00
2024-05-17 15:47:25.873769,0,0,4,0,-2,0,72,76,130,120,70,190.78,197,9.00,14.00,-1000.00
2024-05-17 15:47:25.975493,0,-1,4,0,-2,0,72,76,130,120,70,190.76,197,-1.00,32.00,-1000.00
2024-05-17 15:47:26.077307,0,-1,4,0,-2,0,72,76,130,120,70,190.82,197,5.00,13.00,-985.00
2024-05-17 15:47:26.174634,0,-1,4,0,-2,0,72,76,130,120,70,190.79,197,-15.00,55.00,-995.00
2024-05-17 15:47:26.289871,0,-1,4,0,-2,0,72,76,130,120,70,190.86,197,5.00,-14.00,-1057.00
2024-05-17 15:47:26.379383,0,-1,4,0,-2,0,72,76,130,120,70,190.82,197,0.00,26.00,-971.00
2024-05-17 15:47:26.480505,0,0,4,0,-2,0,72,76,131,120,70,190.82,197,14.00,0.00,-1062.00
2024-05-17 15:47:26.596756,0,5,4,0,-2,0,72,76,133,120,70,190.80,197,5.00,39.00,-969.00
2024-05-17 15:47:26.685705,0,3,4,0,0,0,73,75,134,120,70,190.80,197,5.00,49.00,-1018.00
2024-05-17 15:47:26.801628,0,1,4,0,0,0,73,75,133,120,70,190.84,198,8.00,3.00,-994.00
2024-05-17 15:47:26.889568,0,0,4,0,0,0,73,75,135,120,70,190.82,198,1.00,-20.00,-1003.00
2024-05-17 15:47:27.006507,0,0,4,0,0,0,73,75,136,120,70,190.83,198,7.00,1.00,-1018.00
2024-05-17 15:47:27.101593,0,0,4,0,0,0,73,75,137,120,70,190.92,198,9.00,-12.00,-1007.00
2024-05-17 15:47:27.195569,0,0,4,0,0,0,73,75,138,120,70,190.88,198,-19.00,31.00,-982.00
2024-05-17 15:47:27.297653,0,0,4,0,0,0,73,75,138,130,70,190.89,198,1.00,41.00,-953.00
2024-05-17 15:47:27.399422,0,-1,4,0,0,0,73,75,138,130,70,190.94,198,16.00,-45.00,-998.00
2024-05-17 15:47:27.501720,0,-1,4,0,0,0,73,75,138,130,70,190.87,198,-8.00,30.00,-936.00
2024-05-17 15:47:27.603666,0,-1,4,0,0,0,73,75,138,130,70,190.89,198,-8.00,34.00,-1004.00
2024-05-17 15:47:27.705614,0,-1,4,0,0,0,73,75,137,130,70,190.88,198,-10.00,50.00,-972.00
2024-05-17 15:47:27.807556,0,0,4,0,0,0,73,75,137,130,70,190.88,199,-9.00,51.00,-964.00
2024-05-17 15:47:27.909552,0,0,4,0,0,0,73,75,136,120,70,190.84,199,-13.00,37.00,-987.00
2024-05-17 15:47:28.031975,0,0,4,0,0,0,73,75,136,120,70,190.91,199,-1.00,-1.00,-943.00
2024-05-17 15:47:28.114826,0,0,4,0,0,0,73,75,136,120,70,190.83,199,1.00,-12.00,-1018.00
2024-05-17 15:47:28.235810,0,0,4,0,0,0,73,75,136,120,70,190.84,199,-1.00,1.00,-1010.00
2024-05-17 15:47:28.319545,0,0,4,0,0,0,73,75,136,120,70,190.92,199,4.00,-18.00,-1030.00
2024-05-17 15:47:28.421813,0,0,4,0,0,0,73,75,135,120,70,190.87,199,-6.00,21.00,-994.00
2024-05-17 15:47:28.472505,0,0,4,0,0,0,73,75,136,120,70,190.90,199,6.00,12.00,-979.00
2024-05-17 15:47:28.572552,0,0,4,0,0,0,73,75,136,120,70,190.87,199,7.00,6.00,-1045.00
2024-05-17 15:47:28.674935,0,0,4,0,0,0,72,75,136,120,70,190.87,199,17.00,-14.00,-999.00
2024-05-17 15:47:28.849535,0,0,4,0,0,0,72,75,137,120,70,190.90,200,23.00,-44.00,-1014.00
2024-05-17 15:47:28.878366,0,5,4,0,0,0,72,75,138,120,70,190.88,200,-2.00,42.00,-984.00
2024-05-17 15:47:29.054275,0,8,4,0,1,0,72,75,139,120,70,190.90,200,15.00,-21.00,-971.00
2024-05-17 15:47:29.083748,0,5,4,0,2,0,72,75,140,120,70,190.85,200,-3.00,1.00,-987.00
2024-05-17 15:47:29.184492,0,3,4,0,3,0,72,75,140,120,70,190.85,200,8.00,3.00,-1003.00
2024-05-17 15:47:29.361504,0,0,4,0,4,0,72,75,140,130,70,190.91,200,-4.00,6.00,-1039.00
2024-05-17 15:47:29.388378,0,-1,4,0,4,0,72,75,141,130,70,190.89,200,-7.00,-3.00,-983.00
2024-05-17 15:47:29.566310,0,-2,4,0,3,0,72,75,142,130,70,190.92,200,1.00,-42.00,-1012.00
2024-05-17 15:47:29.592374,0,-1,4,0,3,0,72,75,142,130,70,190.86,200,-9.00,14.00,-940.00
2024-05-17 15:47:29.695050,0,0,4,0,2,0,72,76,142,130,70,190.91,200,10.00,-44.00,-1015.00
2024-05-17 15:47:29.873407,0,0,4,0,2,0,72,76,143,130,70,190.91,201,-10.00,18.00,-1007.00
2024-05-17 15:47:29.898242,0,0,4,0,2,0,72,76,143,130,70,190.89,201,-13.00,9.00,-1012.00
2024-05-17 15:47:30.079710,0,0,4,0,2,0,72,76,142,130,70,190.85,201,-23.00,17.00,-980.00
2024-05-17 15:47:30.106081,0,0,4,0,2,0,72,76,142,130,69,190.90,201,-14.00,14.00,-1002.00
2024-05-17 15:47:30.204323,0,-1,4,0,2,0,72,76,141,130,69,190.93,201,-6.00,1.00,-1015.00
2024-05-17 15:47:30.385504,0,-1,4,0,2,0,72,76,141,130,69,190.84,201,-8.00,-36.00,-956.00
2024-05-17 15:47:30.408303,0,-2,4,0,2,0,72,76,141,130,69,190.88,201,-6.00,-36.00,-979.00
2024-05-17 15:47:30.590315,0,-3,4,0,1,0,72,76,140,130,69,190.89,201,-20.00,0.00,-1003.00
2024-05-17 15:47:30.612282,0,-3,4,0,0,0,72,76,138,130,69,190.93,201,-26.00,0.00,-1009.00
2024-05-17 15:47:30.716864,0,-1,4,0,0,0,72,75,136,130,69,190.85,201,-14.00,-6.00,-994.00
2024-05-17 15:47:30.817273,0,0,4,0,0,0,72,75,134,130,69,190.84,202,-13.00,12.00,-1090.00
2024-05-17 15:47:30.918987,0,0,4,0,0,0,72,75,133,120,69,190.87,202,-6.00,-26.00,-1019.00
2024-05-17 15:47:31.102148,0,0,4,0,0,0,72,75,132,120,69,190.87,202,0.00,-6.00,-1025.00
2024-05-17 15:47:31.122152,0,0,4,0,0,0,72,75,131,120,69,190.87,202,-22.00,2.00,-952.00
2024-05-17 15:47:31.307009,0,0,4,0,0,0,72,75,130,120,69,190.83,202,-15.00,22.00,-992.00
2024-05-17 15:47:31.326368,0,0,4,0,0,0,72,75,130,120,69,190.87,202,-27.00,27.00,-1007.00
2024-05-17 15:47:31.512971,0,0,4,0,0,0,72,75,129,120,69,190.90,202,-23.00,17.00,-989.00
2024-05-17 15:47:31.530198,0,0,4,0,0,0,72,75,129,120,69,190.90,202,-18.00,-2.00,-1026.00
2024-05-17 15:47:31.716664,0,0,4,0,0,0,72,75,129,120,69,190.89,202,-19.00,8.00,-999.00
2024-05-17 15:47:31.734276,0,0,4,0,0,0,72,75,130,120,69,190.84,202,-10.00,19.00,-1006.00
2024-05-17 15:47:31.921841,0,0,4,0,0,0,72,75,130,120,69,190.87,203,7.00,-9.00,-1130.00
2024-05-17 15:47:31.940636,0,0,4,0,0,0,72,75,131,120,69,190.86,203,0.00,1.00,-1022.00
2024-05-17 15:47:32.040587,0,0,4,0,0,0,72,75,132,120,69,190.88,203,-13.00,25.00,-1008.00
2024-05-17 15:47:32.229897,0,0,4,0,0,0,72,75,132,120,69,190.87,203,-14.00,17.00,-948.00
2024-05-17 15:47:32.244263,0,0,4,0,0,0,72,75,133,120,69,190.86,203,-26.00,-12.00,-926.00
2024-05-17 15:47:32.435312,0,0,4,0,0,0,72,75,134,120,69,190.87,203,0.00,13.00,-986.00
2024-05-17 15:47:32.435508,0,0,4,0,0,0,72,75,134,120,69,190.81,203,11.00,-17.00,-968.00
2024-05-17 15:47:32.499409,0,0,4,0,0,0,72,75,135,120,69,190.82,203,19.00,15.00,-1031.00
2024-05-17 15:47:32.617155,0,0,4,0,0,0,72,75,136,120,69,190.90,203,-7.00,-25.00,-986.00
2024-05-17 15:47:32.845086,0,0,4,0,0,0,72,75,136,120,69,190.85,203,18.00,5.00,-978.00
2024-05-17 15:47:32.856254,0,0,11,0,0,0,72,75,137,120,69,190.87,204,12.00,-31.00,-985.00
2024-05-17 15:47:32.907217,0,0,17,0,0,0,72,75,136,120,69,190.89,204,9.00,12.00,-1025.00
2024-05-17 15:47:33.049535,0,0,23,0,0,0,72,75,136,120,69,190.88,204,0.00,-11.00,-971.00
2024-05-17 15:47:33.111204,0,0,29,0,0,0,72,75,138,120,69,190.90,204,-1.00,-12.00,-995.00
2024-05-17 15:47:33.255699,0,0,35,0,0,0,72,75,137,130,69,190.86,204,-1.00,15.00,-955.00
2024-05-17 15:47:33.315293,0,0,41,0,0,0,72,75,137,120,69,190.88,204,-19.00,22.00,-997.00
2024-05-17 15:47:33.461762,0,0,47,0,0,0,72,75,137,120,69,190.85,204,-9.00,-15.00,-1020.00
2024-05-17 15:47:33.519255,0,0,53,0,0,0,72,75,136,120,69,190.82,204,10.00,-42.00,-1012.00
2024-05-17 15:47:33.621218,0,0,59,0,0,0,72,75,136,120,69,190.87,204,0.00,-12.00,-945.00
2024-05-17 15:47:33.723254,0,0,65,0,0,0,71,75,135,120,69,190.83,205,7.00,3.00,-984.00
2024-05-17 15:47:33.867135,0,0,71,0,0,0,71,75,135,120,69,190.80,205,-4.00,-13.00,-978.00
2024-05-17 15:47:33.927723,0,0,76,0,0,0,71,75,135,120,69,190.79,205,-11.00,39.00,-972.00
2024-05-17 15:47:34.071811,0,0,82,0,0,0,71,75,135,120,69,190.85,205,4.00,-15.00,-1024.00
2024-05-17 15:47:34.131168,0,0,88,0,0,0,71,75,135,120,69,190.81,205,15.00,-18.00,-987.00
2024-05-17 15:47:34.276704,0,0,94,0,0,0,71,75,135,120,69,190.83,205,9.00,-36.00,-1042.00
2024-05-17 15:47:34.336035,0,0,100,0,0,0,71,75,136,120,69,190.85,205,-1.00,10.00,-979.00
2024-05-17 15:47:34.437014,0,0,106,0,0,0,71,75,136,120,69,190.80,205,6.00,-6.00,-987.00
2024-05-17 15:47:34.583811,0,0,112,0,0,0,71,75,137,120,69,190.87,205,-8.00,-4.00,-1001.00
2024-05-17 15:47:34.641076,0,0,118,0,0,0,71,75,136,120,69,190.82,205,-1.00,-51.00,-990.00
2024-05-17 15:47:34.743614,0,0,124,0,0,0,73,76,135,120,69,190.84,206,18.00,-30.00,-1011.00
2024-05-17 15:47:34.891030,0,1,129,0,0,0,73,76,135,120,69,190.83,206,0.00,-19.00,-963.00
2024-05-17 15:47:34.947050,0,1,135,0,0,0,73,76,135,120,69,190.83,206,14.00,-28.00,-981.00
2024-05-17 15:47:35.097212,0,2,141,0,0,0,73,76,135,120,69,190.84,206,1.00,-41.00,-1041.00
2024-05-17 15:47:35.155968,0,1,147,0,0,0,73,76,134,120,68,190.80,206,-12.00,18.00,-1009.00
2024-05-17 15:47:35.253760,0,0,153,0,0,0,73,76,133,120,68,190.85,206,-14.00,1.00,-969.00
2024-05-17 15:47:35.405176,0,0,159,0,0,0,73,76,132,120,68,190.82,206,-2.00,9.00,-975.00
2024-05-17 15:47:35.457112,0,0,165,0,0,0,73,76,132,120,68,190.85,206,0.00,-40.00,-1038.00
2024-05-17 15:47:35.608330,0,0,171,0,0,0,73,76,133,120,68,190.80,206,-13.00,7.00,-969.00
2024-05-17 15:47:35.661010,0,0,177,0,0,0,73,76,133,120,68,190.80,206,2.00,-44.00,-1066.00
2024-05-17 15:47:35.813742,0,0,-176,0,0,0,72,74,133,120,68,190.90,207,-6.00,-4.00,-985.00
2024-05-17 15:47:35.865394,0,0,-170,0,0,0,72,74,133,120,68,190.80,207,-16.00,-3.00,-1043.00
2024-05-17 15:47:36.019634,0,0,-164,0,0,0,72,74,134,120,68,190.84,207,-5.00,-46.00,-1040.00
2024-05-17 15:47:36.076961,0,0,-158,0,0,0,72,74,135,120,68,190.82,207,-17.00,-25.00,-966.00
2024-05-17 15:47:36.120423,0,0,-152,0,0,0,72,74,135,120,68,190.90,207,-29.00,-10.00,-972.00
2024-05-17 15:47:36.227770,0,0,-146,0,0,0,72,74,136,120,68,190.89,207,-36.00,10.00,-940.00
2024-05-17 15:47:36.324411,0,0,-140,0,0,0,72,74,137,120,68,190.93,207,-20.00,-53.00,-972.00
2024-05-17 15:47:36.426775,0,0,-134,0,0,0,72,74,138,120,68,190.91,207,-23.00,7.00,-989.00
2024-05-17 15:47:36.530396,0,0,-128,0,0,0,72,74,138,120,68,190.86,207,-14.00,-3.00,-1054.00
2024-05-17 15:47:36.629971,-1,0,-122,0,0,0,72,74,138,120,68,190.86,207,-29.00,23.00,-961.00
2024-05-17 15:47:36.736470,0,0,-116,0,0,0,72,76,139,120,68,190.95,208,-17.00,16.00,-1046.00
2024-05-17 15:47:36.837456,0,0,-110,0,0,0,72,76,139,120,68,190.83,208,-13.00,-42.00,-1015.00
2024-05-17 15:47:36.939136,0,0,-104,0,0,0,72,76,139,120,68,190.93,208,-21.00,4.00,-1010.00
2024-05-17 15:47:37.039456,-1,0,-99,0,0,0,72,76,139,130,68,190.90,208,-27.00,28.00,-993.00
2024-05-17 15:47:37.141755,-1,0,-93,0,0,0,72,76,139,130,68,190.94,208,-18.00,-26.00,-1031.00
2024-05-17 15:47:37.247113,-1,0,-87,0,0,0,72,76,139,130,68,190.83,208,-28.00,8.00,-938.00
2024-05-17 15:47:37.348916,0,0,-81,0,0,0,72,76,140,130,68,190.93,208,-38.00,30.00,-984.00
2024-05-17 15:47:37.445843,0,0,-75,0,0,0,72,76,139,130,68,190.89,208,-37.00,45.00,-985.00
2024-05-17 15:47:37.553493,0,0,-69,0,0,0,72,76,139,130,68,190.88,208,-29.00,10.00,-954.00
2024-05-17 15:47:37.650380,0,0,-63,0,0,0,72,76,139,130,68,190.95,208,-15.00,4.00,-958.00
2024-05-17 15:47:37.751929,0,0,-56,0,0,0,72,74,139,130,68,190.89,209,-19.00,-18.00,-1003.00
2024-05-17 15:47:37.863616,0,0,-50,0,0,0,72,74,139,130,68,190.98,209,-20.00,6.00,-1031.00
2024-05-17 15:47:37.956968,0,0,-44,0,0,0,72,74,138,130,68,190.95,209,-8.00,36.00,-1027.00
2024-05-17 15:47:38.066027,0,0,-38,0,0,0,72,74,139,130,68,190.91,209,-13.00,21.00,-999.00
2024-05-17 15:47:38.159833,0,0,-32,0,0,0,72,74,139,130,68,190.92,209,-17.00,38.00,-1021.00
2024-05-17 15:47:38.270411,0,0,-26,0,0,0,72,74,139,130,68,190.92,209,-11.00,3.00,-972.00
2024-05-17 15:47:38.363912,0,0,-20,0,0,0,72,74,139,130,68,190.98,209,-13.00,17.00,-1032.00
2024-05-17 15:47:38.466091,0,0,-14,0,0,0,72,74,139,130,68,190.96,209,-13.00,20.00,-956.00
2024-05-17 15:47:38.577642,0,0,-9,0,0,0,72,74,139,130,68,190.93,209,1.00,2.00,-1050.00
2024-05-17 15:47:38.669883,0,0,-6,0,0,0,72,74,139,130,68,190.97,209,-10.00,7.00,-989.00
2024-05-17 15:47:38.772748,0,0,-3,0,0,0,73,75,139,130,68,190.90,210,-7.00,26.00,-1005.00
2024-05-17 15:47:38.874939,0,0,-1,0,0,0,73,75,139,130,68,190.88,210,9.00,23.00,-949.00
2024-05-17 15:47:38.977728,0,0,0,0,0,0,73,75,138,130,68,190.89,210,-12.00,31.00,-975.00
2024-05-17 15:47:39.079684,0,0,1,0,0,0,73,75,138,130,68,190.94,210,0.00,29.00,-993.00
2024-05-17 15:47:39.182091,0,0,2,0,0,0,73,75,137,130,68,190.98,210,10.00,25.00,-1008.00
2024-05-17 15:47:39.283353,0,0,2,0,0,0,73,75,137,120,68,190.90,210,4.00,15.00,-985.00
2024-05-17 15:47:39.404616,0,0,2,0,0,0,73,75,136,120,68,190.91,210,-6.00,17.00,-953.00
2024-05-17 15:47:39.489593,0,0,2,0,0,0,73,75,135,120,68,190.88,210,10.00,0.00,-1029.00
2024-05-17 15:47:39.589110,0,0,2,0,0,0,73,75,135,120,68,190.89,210,-3.00,6.00,-979.00
2024-05-17 15:47:39.690840,0,0,2,0,0,0,73,75,134,120,68,190.82,210,-5.00,21.00,-1006.00
2024-05-17 15:47:39.793154,0,0,2,0,0,0,72,75,134,120,68,190.88,211,-3.00,16.00,-970.00
2024-05-17 15:47:39.908766,0,0,2,0,0,0,72,75,133,120,68,190.82,211,-6.00,39.00,-972.00
2024-05-17 15:47:40.001621,0,0,2,0,0,0,72,75,133,120,68,190.90,211,18.00,35.00,-1031.00
2024-05-17 15:47:40.098935,0,0,2,0,0,0,72,75,134,120,68,190.90,211,-3.00,18.00,-1025.00
2024-05-17 15:47:40.201537,0,0,2,0,0,0,72,75,133,120,68,190.84,211,-11.00,22.00,-1022.00
2024-05-17 15:47:40.251975,0,0,2,0,0,0,72,75,133,120,68,190.84,211,20.00,-14.00,-1037.00
2024-05-17 15:47:40.440492,0,0,2,0,0,0,72,75,133,120,68,190.92,211,4.00,-25.00,-997.00
2024-05-17 15:47:40.462898,0,0,2,0,0,0,72,75,133,120,68,190.91,211,-5.00,-6.00,-967.00
2024-05-17 15:47:40.557946,0,0,2,0,0,0,72,75,133,120,68,190.91,211,3.00,2.00,-954.00
2024-05-17 15:47:40.727928,0,0,2,0,0,0,72,75,133,120,68,191.02,211,13.00,34.00,-966.00
2024-05-17 15:47:40.761899,0,0,2,0,0,0,72,75,133,120,68,190.95,212,3.00,42.00,-1016.00
2024-05-17 15:47:40.932766,0,0,2,0,0,0,72,75,133,120,68,190.89,212,29.00,-26.00,-991.00
2024-05-17 15:47:40.967567,0,0,2,0,0,0,72,75,134,120,68,190.86,212,13.00,-26.00,-1051.00
2024-05-17 15:47:41.067899,0,0,2,0,0,0,72,75,134,120,67,190.85,212,13.00,-14.00,-966.00
2024-05-17 15:47:41.186143,0,0,2,0,0,0,72,75,134,120,67,190.82,212,25.00,-37.00,-1008.00
2024-05-17 15:47:41.273599,0,0,2,0,0,0,72,75,134,120,67,190.84,212,10.00,-24.00,-1012.00
2024-05-17 15:47:41.374023,0,0,-1,0,0,0,72,75,134,120,67,190.82,212,4.00,2.00,-1004.00
2024-05-17 15:47:41.547076,0,0,-7,0,0,0,72,75,134,120,67,190.81,212,3.00,20.00,-1003.00
2024-05-17 15:47:41.578271,0,0,-13,0,0,0,72,75,134,120,67,190.84,212,-2.00,25.00,-975.00
2024-05-17 15:47:41.751788,0,0,-19,0,0,0,72,75,134,120,67,190.81,212,-11.00,4.00,-1004.00
2024-05-17 15:47:41.783880,0,0,-25,0,0,0,72,75,134,120,67,190.82,213,8.00,14.00,-979.00
2024-05-17 15:47:41.958516,0,0,-31,0,0,0,72,75,134,120,67,190.83,213,-11.00,18.00,-1016.00
2024-05-17 15:47:41.987389,0,0,-37,0,0,0,72,75,135,120,67,190.84,213,-5.00,2.00,-992.00
2024-05-17 15:47:42.163186,0,0,-43,0,0,0,72,75,135,120,67,190.89,213,-13.00,22.00,-953.00
2024-05-17 15:47:42.190837,0,0,-49,0,0,0,72,75,135,120,67,190.93,213,-30.00,46.00,-958.00
2024-05-17 15:47:42.366885,0,0,-55,0,0,0,72,75,135,120,67,190.97,213,-39.00,4.00,-890.00
2024-05-17 15:47:42.394925,0,0,-61,0,0,0,72,75,136,120,67,190.98,213,-2.00,-2.00,-1060.00
2024-05-17 15:47:42.497437,0,0,-66,0,0,0,72,75,137,120,67,190.96,213,-38.00,8.00,-942.00
2024-05-17 15:47:42.598686,0,0,-72,0,0,0,72,75,137,120,67,190.92,213,-12.00,14.00,-983.00
2024-05-17 15:47:42.775958,0,0,-77,0,0,0,72,75,138,120,67,190.90,213,6.00,24.00,-1040.00
2024-05-17 15:47:42.802668,0,0,-83,0,0,0,72,75,137,120,67,190.90,214,-28.00,20.00,-1014.00
2024-05-17 15:47:42.980671,0,0,-89,0,0,0,72,75,137,120,67,190.89,214,-10.00,14.00,-978.00
2024-05-17 15:47:43.006736,0,-1,-95,0,0,0,72,75,137,120,67,190.98,214,-31.00,39.00,-973.00
2024-05-17 15:47:43.185449,0,0,-101,0,0,0,72,75,139,120,67,191.07,214,-20.00,-4.00,-989.00
2024-05-17 15:47:43.210648,0,0,-108,0,0,0,72,75,139,130,67,190.94,214,-11.00,-20.00,-1031.00
2024-05-17 15:47:43.390260,0,0,-114,0,0,0,72,75,139,130,67,190.91,214,-18.00,9.00,-976.00
2024-05-17 15:47:43.414707,0,0,-120,0,0,0,72,75,139,130,67,190.90,214,-52.00,2.00,-931.00
2024-05-17 15:47:43.599869,-1,0,-126,0,0,0,72,75,138,130,67,190.95,214,-7.00,-28.00,-1040.00
2024-05-17 15:47:43.618670,-1,0,-132,0,0,0,72,75,139,130,67,190.98,214,-19.00,3.00,-1012.00
2024-05-17 15:47:43.799828,-1,0,-138,0,0,0,72,75,138,130,67,190.90,214,-37.00,13.00,-1033.00
2024-05-17 15:47:43.823884,-1,0,-144,0,0,0,73,75,138,130,67,190.97,215,-24.00,41.00,-942.00
2024-05-17 15:47:43.925022,-1,0,-150,0,0,0,73,75,139,130,67,190.90,215,-29.00,-29.00,-992.00
2024-05-17 15:47:44.027297,0,0,-156,0,0,0,73,75,139,130,67,190.92,215,-15.00,-29.00,-1029.00
2024-05-17 15:47:44.078729,0,0,-162,0,0,0,73,75,139,130,67,190.94,215,-25.00,5.00,-1003.00
2024-05-17 15:47:44.209480,0,0,-168,0,0,0,73,75,138,130,67,190.95,215,-37.00,25.00,-921.00
2024-05-17 15:47:44.281508,0,0,-174,0,0,0,73,75,139,130,67,190.97,215,-27.00,-14.00,-952.00
2024-05-17 15:47:44.416204,0,0,179,0,0,0,73,75,138,130,67,191.01,215,-16.00,-16.00,-1010.00
2024-05-17 15:47:44.487233,0,0,173,0,0,0,73,75,139,130,67,190.95,215,-20.00,0.00,-990.00
2024-05-17 15:47:44.587617,0,0,167,0,0,0,73,75,139,130,67,191.03,215,-10.00,-11.00,-1026.00
2024-05-17 15:47:44.723423,0,0,161,0,0,0,73,75,139,130,67,191.00,215,-21.00,7.00,-996.00
2024-05-17 15:47:44.792042,0,0,155,0,0,0,72,75,139,130,67,190.98,216,1.00,-22.00,-1049.00
2024-05-17 15:47:44.927911,0,0,149,0,0,0,72,75,139,130,67,190.98,216,19.00,-31.00,-1052.00
2024-05-17 15:47:44.995590,0,0,143,0,0,0,72,75,139,130,67,190.91,216,10.00,-60.00,-946.00
2024-05-17 15:47:45.132739,0,0,137,0,0,0,72,75,139,130,67,191.00,216,-11.00,8.00,-995.00
2024-05-17 15:47:45.199928,0,0,131,0,0,0,72,75,139,130,67,190.96,216,-9.00,-12.00,-936.00
2024-05-17 15:47:45.335869,0,0,125,0,0,0,72,75,139,130,67,190.97,216,-6.00,-24.00,-1008.00
2024-05-17 15:47:45.404155,0,0,119,0,0,0,72,75,139,130,67,191.01,216,-4.00,3.00,-982.00
2024-05-17 15:47:45.540684,0,0,113,0,0,0,72,75,139,130,67,190.98,216,-8.00,-37.00,-1024.00
2024-05-17 15:47:45.607750,0,0,107,0,0,0,72,75,138,130,67,190.97,216,-12.00,6.00,-987.00
2024-05-17 15:47:45.745680,0,0,101,0,0,0,72,75,138,130,67,190.97,216,-7.00,-8.00,-968.00
2024-05-17 15:47:45.815482,0,0,94,0,0,0,72,75,137,130,67,190.96,217,-6.00,-20.00,-1050.00
2024-05-17 15:47:45.915843,0,0,88,0,0,0,72,75,137,120,67,191.01,217,2.00,-11.00,-947.00
2024-05-17 15:47:46.016546,0,0,82,0,0,0,72,75,137,120,67,190.96,217,20.00,-30.00,-1035.00
2024-05-17 15:47:46.156530,0,0,76,0,0,0,72,75,137,120,67,190.93,217,-1.00,21.00,-972.00
2024-05-17 15:47:46.227564,0,0,70,0,0,0,72,75,137,120,67,190.92,217,3.00,-11.00,-995.00
2024-05-17 15:47:46.323349,0,0,64,0,0,0,72,75,137,120,67,191.01,217,-4.00,7.00,-1018.00
2024-05-17 15:47:46.424487,0,0,58,0,0,0,72,75,137,120,67,190.94,217,0.00,-29.00,-1027.00
2024-05-17 15:47:46.566104,0,0,52,0,0,0,72,75,137,120,67,190.94,217,-3.00,-3.00,-932.00
2024-05-17 15:47:46.643936,1,0,46,0,0,0,72,75,138,120,67,190.96,217,14.00,-1.00,-992.00
2024-05-17 15:47:46.730861,1,0,40,0,0,0,72,75,138,120,67,190.89,217,15.00,-8.00,-993.00
2024-05-17 15:47:46.872522,0,0,28,0,0,0,73,75,138,120,67,190.94,218,25.00,-8.00,-1036.00
2024-05-17 15:47:46.934429,0,0,22,0,0,0,73,75,137,120,67,190.90,218,10.00,0.00,-1008.00
2024-05-17 15:47:47.076576,0,-1,17,0,0,0,73,75,138,130,67,190.98,218,21.00,-27.00,-976.00
2024-05-17 15:47:47.138346,0,0,13,0,0,0,73,75,137,130,66,191.01,218,-5.00,12.00,-1032.00
2024-05-17 15:47:47.283699,0,0,11,0,0,0,73,75,137,130,66,190.93,218,-5.00,17.00,-994.00
2024-05-17 15:47:47.342416,0,-1,8,0,0,0,73,75,137,120,66,190.97,218,0.00,25.00,-976.00
2024-05-17 15:47:47.486260,0,-1,7,0,0,0,73,75,136,120,66,190.92,218,-1.00,18.00,-967.00
2024-05-17 15:47:47.546407,0,-1,6,0,0,0,73,75,136,120,66,190.91,218,-1.00,23.00,-1038.00
2024-05-17 15:47:47.691034,0,-1,5,0,0,0,73,75,136,120,66,190.92,218,14.00,2.00,-980.00
2024-05-17 15:47:47.750437,0,-1,4,0,0,0,73,75,135,120,66,190.87,219,7.00,36.00,-1050.00
2024-05-17 15:47:47.898702,0,0,4,0,0,0,72,75,135,120,66,190.87,219,21.00,-12.00,-1026.00
2024-05-17 15:47:47.954737,0,0,4,0,0,0,72,75,135,120,66,190.88,219,-7.00,35.00,-940.00
2024-05-17 15:47:48.100776,0,0,4,0,0,0,72,75,135,120,66,190.93,219,-9.00,36.00,-1023.00
2024-05-17 15:47:48.158509,0,0,4,0,0,0,72,75,135,120,66,190.92,219,-12.00,7.00,-943.00
2024-05-17 15:47:48.210623,0,0,4,0,0,0,72,75,135,120,66,190.99,219,3.00,-2.00,-1007.00
2024-05-17 15:47:48.407879,0,0,4,0,0,0,72,75,135,120,66,190.93,219,3.00,34.00,-944.00
2024-05-17 15:47:48.415832,0,0,4,0,0,0,72,75,135,120,66,190.90,219,-15.00,6.00,-1037.00
2024-05-17 15:47:48.515530,0,0,4,0,0,0,72,75,135,120,66,190.96,219,-8.00,5.00,-936.00
2024-05-17 15:47:48.716434,0,0,4,0,0,0,72,75,135,120,66,191.00,219,1.00,0.00,-1015.00
2024-05-17 15:47:48.720065,0,0,4,0,0,0,72,75,135,120,66,190.94,220,1.00,18.00,-1005.00
2024-05-17 15:47:48.920016,0,0,4,0,0,0,72,75,135,120,66,190.92,220,-3.00,28.00,-961.00
2024-05-17 15:47:48.923576,0,0,4,0,0,0,72,75,135,120,66,190.94,220,-3.00,0.00,-965.00
2024-05-17 15:47:49.025917,0,0,4,0,0,0,72,75,135,120,66,190.89,220,13.00,-11.00,-1042.00
2024-05-17 15:47:49.127567,0,0,4,0,0,0,72,75,135,120,66,190.93,220,15.00,27.00,-1008.00
2024-05-17 15:47:49.230432,0,0,4,0,0,0,72,75,135,120,66,190.97,220,2.00,11.00,-976.00
2024-05-17 15:47:49.331623,0,0,4,0,0,0,72,75,134,120,66,190.97,220,-11.00,21.00,-953.00
2024-05-17 15:47:49.535720,0,0,4,0,0,0,72,75,134,120,66,190.91,220,-16.00,38.00,-947.00
2024-05-17 15:47:49.535853,0,0,4,0,0,0,72,75,134,120,66,190.93,220,-5.00,2.00,-987.00
2024-05-17 15:47:49.744120,0,0,4,0,0,0,72,75,133,120,66,190.98,220,23.00,-1.00,-1096.00
2024-05-17 15:47:49.746672,0,0,4,0,0,0,72,75,134,120,66,190.94,221,-3.00,41.00,-986.00
2024-05-17 15:47:49.842138,0,0,4,0,0,0,72,75,133,120,66,191.01,221,-11.00,3.00,-978.00
2024-05-17 15:47:49.944088,0,0,4,0,0,-4,72,75,134,120,66,191.14,221,53.00,11.00,-1684.00
2024-05-17 15:47:50.046698,0,-12,3,0,0,-11,72,75,142,130,66,191.14,221,41.00,110.00,-1526.00
2024-05-17 15:47:50.149312,-1,-108,4,1,-6,-11,72,75,240,140,66,191.36,221,1.00,498.00,-1128.00
2024-05-17 15:47:50.251443,3,128,6,1,-9,3,72,75,167,150,66,191.44,221,-33.00,511.00,-968.00
2024-05-17 15:47:50.351480,1,21,0,0,-3,12,72,75,210,140,66,191.64,221,-32.00,370.00,-1302.00
2024-05-17 15:47:50.453467,0,0,0,0,-2,9,72,75,146,130,66,190.99,221,7.00,-127.00,-1504.00
2024-05-17 15:47:50.555285,0,1,0,0,-1,5,72,75,138,120,66,190.89,221,-7.00,6.00,-1425.00
2024-05-17 15:47:50.662847,0,0,3,0,0,2,72,75,135,120,66,190.91,221,-9.00,30.00,-1271.00
2024-05-17 15:47:50.759691,0,0,4,0,0,0,72,75,133,120,66,191.03,222,-18.00,0.00,-1082.00
2024-05-17 15:47:50.865450,0,0,4,0,0,0,72,75,134,120,66,190.99,222,-3.00,-6.00,-1074.00
2024-05-17 15:47:50.963219,0,0,4,0,0,0,72,75,135,120,66,190.96,222,3.00,-14.00,-1034.00
2024-05-17 15:47:51.071451,1,2,4,0,0,0,72,75,138,120,66,190.93,222,5.00,7.00,-1020.00
2024-05-17 15:47:51.167175,1,1,4,0,0,0,72,75,139,120,66,190.98,222,-4.00,-10.00,-978.00
2024-05-17 15:47:51.275043,1,0,4,0,0,0,72,75,140,120,66,190.97,222,1.00,13.00,-999.00
2024-05-17 15:47:51.371192,0,0,4,0,0,0,72,75,140,120,66,190.94,222,10.00,-22.00,-973.00
2024-05-17 15:47:51.479889,0,0,4,0,0,0,72,75,140,120,66,191.00,222,-16.00,14.00,-937.00
2024-05-17 15:47:51.575200,0,0,4,0,0,0,72,75,141,120,66,191.06,222,19.00,-22.00,-993.00
2024-05-17 15:47:51.626225,0,0,4,0,0,0,72,75,140,120,66,190.93,222,-8.00,13.00,-986.00
2024-05-17 15:47:51.787495,0,0,4,0,0,0,72,75,140,120,66,190.99,223,2.00,-22.00,-954.00
2024-05-17 15:47:51.882243,0,1,4,0,0,0,72,75,139,120,66,190.96,223,-8.00,6.00,-993.00
2024-05-17 15:47:51.933159,0,1,4,0,0,0,72,75,138,120,66,190.98,223,-25.00,21.00,-965.00
2024-05-17 15:47:52.094232,0,0,4,0,0,0,72,75,138,120,66,190.96,223,-19.00,0.00,-1010.00
2024-05-17 15:47:52.137497,0,0,4,0,0,0,72,75,137,120,65,191.00,223,7.00,-15.00,-1038.00
2024-05-17 15:47:52.299027,0,0,4,0,0,0,72,75,136,120,65,190.95,223,11.00,31.00,-1031.00
2024-05-17 15:47:52.341242,0,0,4,0,0,0,72,75,135,120,65,190.96,223,10.00,-27.00,-1083.00
2024-05-17 15:47:52.443838,0,0,4,0,0,0,72,75,134,120,65,190.95,223,2.00,-30.00,-1067.00
2024-05-17 15:47:52.606244,0,0,4,0,0,0,72,75,133,120,65,190.93,223,9.00,9.00,-1076.00
2024-05-17 15:47:52.647154,0,0,4,0,0,0,72,75,133,120,65,190.92,223,-37.00,-1.00,-955.00
2024-05-17 15:47:52.751428,0,0,4,0,0,0,72,75,132,110,65,190.87,224,-4.00,39.00,-980.00
2024-05-17 15:47:52.851153,0,0,4,0,0,0,72,74,132,110,65,190.97,224,4.00,-15.00,-1044.00
2024-05-17 15:47:53.015796,0,0,4,0,0,0,72,74,132,110,65,190.92,224,-12.00,0.00,-1003.00
2024-05-17 15:47:53.055082,0,0,4,0,0,0,72,74,132,110,65,190.96,224,-14.00,10.00,-947.00
2024-05-17 15:47:53.220654,0,0,4,0,0,0,72,74,132,110,65,190.97,224,-15.00,-3.00,-995.00
2024-05-17 15:47:53.259179,0,0,4,0,0,0,72,74,133,120,65,191.00,224,-7.00,9.00,-1005.00
2024-05-17 15:47:53.364113,0,0,4,0,0,0,72,74,133,120,65,190.93,224,-10.00,18.00,-994.00
2024-05-17 15:47:53.463333,0,0,4,0,0,0,72,74,133,120,65,190.92,224,20.00,-11.00,-1046.00
2024-05-17 15:47:53.630455,0,0,4,0,0,0,72,74,133,120,65,190.95,224,26.00,-4.00,-1076.00
2024-05-17 15:47:53.667246,0,0,4,0,0,0,72,74,133,120,65,190.91,224,-4.00,11.00,-1007.00
2024-05-17 15:47:53.769211,0,0,4,0,0,0,72,74,133,120,65,190.90,225,8.00,14.00,-1072.00
2024-05-17 15:47:53.937597,0,0,4,0,0,0,73,75,133,120,65,190.93,225,-9.00,30.00,-1000.00
2024-05-17 15:47:53.973226,0,0,4,0,0,0,73,75,133,120,65,190.90,225,-2.00,23.00,-1045.00
2024-05-17 15:47:54.142502,0,0,4,0,0,0,73,75,133,120,64,190.95,225,7.00,6.00,-1075.00
2024-05-17 15:47:54.177164,0,0,4,0,0,0,73,75,132,120,64,190.89,225,9.00,-10.00,-970.00
2024-05-17 15:47:54.353680,0,0,4,0,0,0,73,75,132,120,64,190.89,225,4.00,-8.00,-1000.00
2024-05-17 15:47:54.381175,0,0,4,0,0,0,73,75,132,120,64,190.93,225,12.00,-23.00,-1039.00
2024-05-17 15:47:54.552050,0,0,4,0,0,0,73,75,132,120,64,190.93,225,-11.00,38.00,-982.00
2024-05-17 15:47:54.587606,0,0,4,0,0,0,73,75,132,120,64,190.88,225,-4.00,33.00,-1014.00
2024-05-17 15:47:54.687271,0,0,4,0,0,0,73,75,133,120,64,190.90,225,-4.00,13.00,-1027.00
2024-05-17 15:47:54.789210,0,0,4,0,0,0,73,75,132,120,64,190.88,226,6.00,-3.00,-977.00
2024-05-17 15:47:54.963098,0,-1,4,0,0,0,72,75,133,120,64,190.95,226,12.00,-26.00,-1029.00
2024-05-17 15:47:54.993264,0,0,4,0,0,0,72,75,133,120,64,190.86,226,4.00,28.00,-988.00
2024-05-17 15:47:55.166330,0,0,4,0,0,0,72,75,134,120,64,190.97,226,-11.00,31.00,-963.00
2024-05-17 15:47:55.197114,0,0,4,0,0,0,72,75,134,120,64,190.97,226,-10.00,28.00,-998.00
2024-05-17 15:47:55.371194,0,0,4,0,0,0,72,75,135,120,64,190.93,226,0.00,44.00,-1006.00
2024-05-17 15:47:55.401047,0,0,4,0,0,0,72,75,135,120,64,190.95,226,-10.00,22.00,-978.00
2024-05-17 15:47:55.452233,0,-1,4,0,0,0,72,75,135,120,64,190.93,226,-1.00,17.00,-1076.00
2024-05-17 15:47:55.576088,0,-1,4,0,0,0,72,75,135,120,64,191.04,226,-4.00,3.00,-978.00
2024-05-17 15:47:55.656074,0,-1,4,0,0,0,72,75,135,120,64,190.99,226,-20.00,19.00,-946.00
2024-05-17 15:47:55.780958,0,0,4,0,0,0,72,75,136,120,64,190.96,227,-19.00,37.00,-1038.00
2024-05-17 15:47:55.860792,0,0,4,0,0,0,72,75,136,120,64,191.00,227,-13.00,10.00,-1041.00
2024-05-17 15:47:55.986995,0,0,4,0,0,0,72,75,137,120,64,191.00,227,-14.00,33.00,-1000.00
2024-05-17 15:47:56.064017,0,0,4,0,0,0,72,75,137,120,64,190.97,227,7.00,30.00,-1029.00
2024-05-17 15:47:56.190402,0,0,4,0,0,0,72,75,138,120,64,190.97,227,-23.00,32.00,-987.00
2024-05-17 15:47:56.267977,0,0,4,0,0,0,72,75,138,120,64,190.95,227,-7.00,28.00,-963.00
2024-05-17 15:47:56.370240,0,0,4,0,0,0,72,75,138,120,64,191.00,227,-20.00,31.00,-947.00
2024-05-17 15:47:56.499340,0,0,4,0,0,0,72,75,138,120,64,191.14,227,35.00,-14.00,-1595.00
2024-05-17 15:47:56.573964,0,0,3,0,0,-6,72,75,144,120,64,191.13,227,-33.00,21.00,-1876.00
2024-05-17 15:47:56.702230,0,28,3,0,1,-13,72,75,191,130,64,191.36,227,2.00,238.00,-1761.00
2024-05-17 15:47:56.777842,0,139,3,0,10,-8,72,75,177,150,64,191.49,228,18.00,733.00,-1004.00
2024-05-17 15:47:56.906925,1,-100,4,0,9,7,72,75,231,150,64,191.53,228,-11.00,765.00,-960.00
2024-05-17 15:47:56.982727,0,-4,5,0,4,11,72,75,157,140,64,191.22,228,-17.00,328.00,-921.00
2024-05-17 15:47:57.111782,0,0,3,0,5,8,72,75,147,130,64,191.07,228,-13.00,10.00,-1502.00
2024-05-17 15:47:57.185927,0,-4,3,0,4,4,72,75,143,120,64,191.07,228,21.00,0.00,-1322.00
2024-05-17 15:47:57.316650,0,-4,4,0,3,1,72,75,142,110,64,191.02,228,-21.00,12.00,-1172.00
2024-05-17 15:47:57.389862,0,-2,4,0,3,0,72,75,140,110,64,191.07,228,-6.00,0.00,-1101.00
2024-05-17 15:47:57.521408,0,-1,4,0,2,0,72,75,140,110,64,191.06,228,-7.00,-2.00,-1029.00
2024-05-17 15:47:57.598369,0,-1,4,0,1,0,72,75,141,110,64,191.02,228,-4.00,3.00,-969.00
2024-05-17 15:47:57.695995,0,-1,4,0,1,0,72,75,143,110,64,191.03,228,-10.00,9.00,-933.00
2024-05-17 15:47:57.798593,0,0,4,0,1,0,72,75,144,110,64,191.03,229,-27.00,6.00,-920.00
2024-05-17 15:47:57.931068,0,0,4,0,1,0,71,75,144,110,64,191.05,229,29.00,12.00,-1012.00
2024-05-17 15:47:58.001906,0,-1,4,0,1,0,71,75,145,110,64,191.06,229,-6.00,24.00,-941.00
2024-05-17 15:47:58.140695,0,-3,4,0,1,0,71,75,147,110,64,191.07,229,-10.00,10.00,-920.00
2024-05-17 15:47:58.212748,0,-3,4,0,0,0,71,75,147,110,64,191.10,229,11.00,15.00,-1045.00
2024-05-17 15:47:58.307765,0,-2,4,0,0,0,71,75,146,110,64,191.08,229,-9.00,18.00,-1008.00
2024-05-17 15:47:58.409864,0,-2,4,0,0,0,71,75,146,110,64,191.02,229,12.00,5.00,-1027.00
2024-05-17 15:47:58.545457,0,-2,4,0,0,0,71,75,146,110,64,191.12,229,5.00,11.00,-995.00
2024-05-17 15:47:58.616466,0,-1,4,0,0,0,71,75,146,110,64,191.00,229,5.00,17.00,-983.00
2024-05-17 15:47:58.716949,0,-1,4,0,0,0,71,75,147,110,64,191.04,229,28.00,1.00,-1069.00
2024-05-17 15:47:58.817826,0,-2,4,0,0,0,71,75,147,110,64,191.09,230,26.00,25.00,-998.00
2024-05-17 15:47:58.955076,0,-2,4,0,0,0,72,75,147,110,64,191.08,230,11.00,17.00,-989.00
2024-05-17 15:47:59.021780,0,-2,4,0,0,0,72,75,146,110,64,191.11,230,18.00,9.00,-1052.00
2024-05-17 15:47:59.159858,0,-2,4,0,0,0,72,75,146,110,63,191.01,230,14.00,42.00,-1029.00
2024-05-17 15:47:59.174818,0,-2,4,0,0,0,72,75,146,110,63,191.06,230,16.00,24.00,-1000.00
2024-05-17 15:47:59.365351,0,-2,4,0,0,0,72,75,147,110,63,191.07,230,7.00,37.00,-983.00
2024-05-17 15:47:59.384349,0,-2,4,0,0,0,72,75,147,110,63,191.01,230,9.00,-3.00,-1047.00
2024-05-17 15:47:59.480812,0,-1,4,0,0,0,72,75,147,110,63,191.07,230,8.00,54.00,-998.00
2024-05-17 15:47:59.671864,0,-1,4,0,0,0,72,75,147,120,63,191.07,230,-8.00,41.00,-1004.00
2024-05-17 15:47:59.684796,0,-1,4,0,0,0,72,75,147,120,63,191.08,230,0.00,29.00,-963.00
2024-05-17 15:47:59.795722,0,-1,4,0,0,0,72,75,147,120,63,191.07,231,0.00,18.00,-1023.00
2024-05-17 15:47:59.888927,0,-1,4,0,0,0,72,74,147,120,63,190.99,231,0.00,41.00,-1012.00
2024-05-17 15:47:59.998384,0,-1,4,0,0,0,72,74,147,120,63,191.09,231,1.00,15.00,-1005.00
2024-05-17 15:48:00.093057,0,-1,4,0,0,0,72,74,147,120,63,191.03,231,9.00,17.00,-1046.00
2024-05-17 15:48:00.286670,0,0,4,0,0,0,72,74,147,120,63,191.11,231,-4.00,44.00,-1006.00
2024-05-17 15:48:00.297886,0,0,4,0,0,0,72,74,147,120,63,191.18,231,-3.00,12.00,-957.00
2024-05-17 15:48:00.491495,0,-1,4,0,0,0,72,74,147,120,63,191.05,231,-15.00,33.00,-1022.00
2024-05-17 15:48:00.501068,0,0,4,0,0,0,72,74,147,120,63,191.08,231,-4.00,-4.00,-975.00
2024-05-17 15:48:00.702527,0,0,4,0,0,0,72,74,147,120,63,191.11,231,-31.00,23.00,-974.00
2024-05-17 15:48:00.704749,0,-1,4,0,0,0,72,74,147,120,63,191.08,231,-4.00,-14.00,-995.00
2024-05-17 15:48:00.806893,0,0,4,0,0,0,72,74,147,120,63,191.07,232,-29.00,37.00,-943.00
2024-05-17 15:48:01.003142,-1,-1,4,0,0,0,72,74,147,120,63,191.06,232,0.00,7.00,-976.00
2024-05-17 15:48:01.010975,0,0,4,0,0,0,72,74,147,120,63,191.15,232,-16.00,22.00,-970.00
2024-05-17 15:48:01.208124,-1,0,4,0,0,0,72,74,147,120,63,191.14,232,-15.00,21.00,-981.00
2024-05-17 15:48:01.214895,-1,0,4,0,0,0,72,74,146,120,63,191.10,232,-3.00,12.00,-1055.00
2024-05-17 15:48:01.414131,-1,0,4,0,0,0,72,74,147,120,63,191.15,232,-37.00,29.00,-929.00
2024-05-17 15:48:01.418844,-1,-1,4,0,0,0,72,74,147,120,63,191.07,232,-21.00,12.00,-993.00
2024-05-17 15:48:01.617614,-1,-1,4,0,0,0,72,74,147,120,63,191.11,232,-3.00,18.00,-994.00
