TS,pitch,roll,yaw,vgx,vgy,vgz,templ,temph,tof,h,bat,baro,time,agx,agy,agz
2024-05-17 15:48:50.466488,0,0,0,0,0,0,76,77,10,0,60,189.42,252,-1.00,4.00,-1001.00
2024-05-17 15:48:50.486174,0,0,0,0,0,0,76,77,10,0,60,189.46,252,0.00,3.00,-999.00
2024-05-17 15:48:50.666993,0,0,0,0,0,0,76,77,10,0,60,189.39,252,-1.00,2.00,-998.00
2024-05-17 15:48:50.690228,0,0,0,0,0,0,76,77,10,0,60,189.42,252,-1.00,3.00,-1000.00
2024-05-17 15:48:50.792788,0,0,0,0,0,0,76,77,10,0,60,189.38,252,-1.00,4.00,-1001.00
2024-05-17 15:48:50.894352,0,0,0,0,0,0,76,77,10,0,60,189.38,252,0.00,3.00,-999.00
2024-05-17 15:48:51.076562,0,0,0,0,0,0,76,77,10,0,60,189.41,252,-1.00,4.00,-999.00
2024-05-17 15:48:51.098263,0,0,0,0,0,0,76,77,10,0,60,189.40,252,0.00,5.00,-1001.00
2024-05-17 15:48:51.200461,0,0,0,0,0,0,76,78,10,0,60,189.39,252,0.00,3.00,-1000.00
2024-05-17 15:48:51.385249,0,0,0,0,0,0,76,78,10,0,60,189.40,252,0.00,3.00,-999.00
2024-05-17 15:48:51.404280,0,0,0,0,0,0,76,78,10,0,60,189.40,252,-1.00,5.00,-1001.00
2024-05-17 15:48:51.588562,0,0,0,0,0,0,76,78,10,0,60,189.40,252,-1.00,4.00,-998.00
2024-05-17 15:48:51.588774,0,0,0,0,0,0,76,78,10,0,60,189.39,252,0.00,3.00,-998.00
2024-05-17 15:48:51.659320,0,0,0,0,0,0,76,78,10,0,60,189.38,252,-1.00,3.00,-998.00
2024-05-17 15:48:51.795620,0,0,0,0,0,0,76,78,10,0,60,189.38,252,0.00,3.00,-996.00
2024-05-17 15:48:51.863101,0,0,0,0,0,0,76,78,10,0,60,189.41,252,0.00,4.00,-1000.00
2024-05-17 15:48:51.965484,0,0,0,0,0,0,76,78,10,0,60,189.47,252,0.00,4.00,-1002.00
2024-05-17 15:48:52.100519,0,0,0,0,0,0,76,78,10,0,60,189.44,252,-1.00,4.00,-1000.00
2024-05-17 15:48:52.169208,0,0,0,0,0,0,75,77,10,0,60,189.45,252,0.00,5.00,-998.00
2024-05-17 15:48:52.306911,0,0,0,0,0,0,75,77,10,0,60,189.48,252,-2.00,3.00,-1001.00
2024-05-17 15:48:52.373420,0,0,0,0,0,0,75,77,10,0,60,189.43,252,0.00,3.00,-999.00
2024-05-17 15:48:52.510155,0,0,0,0,0,0,75,77,10,0,60,189.43,252,0.00,3.00,-1000.00
2024-05-17 15:48:52.578866,0,0,0,0,0,0,75,77,10,0,60,189.38,252,-1.00,3.00,-1000.00
2024-05-17 15:48:52.679473,0,0,0,0,0,0,75,77,10,0,60,189.42,252,-1.00,3.00,-1000.00
2024-05-17 15:48:52.817445,0,0,0,0,0,0,75,77,10,0,60,189.44,252,0.00,3.00,-1001.00
2024-05-17 15:48:52.883307,0,0,0,0,0,0,75,77,10,0,60,189.43,252,0.00,4.00,-997.00
2024-05-17 15:48:53.022120,0,0,0,0,0,0,75,77,10,0,60,189.43,252,0.00,0.00,-999.00
2024-05-17 15:48:53.087051,0,0,0,0,0,0,75,77,10,0,60,189.43,252,5.00,17.00,-1004.00
2024-05-17 15:48:53.226801,0,0,0,0,0,0,76,77,10,0,60,189.43,252,-8.00,-1.00,-1007.00
2024-05-17 15:48:53.291022,0,0,0,0,0,0,76,77,10,0,60,189.43,252,-11.00,4.00,-954.00
2024-05-17 15:48:53.431671,0,0,0,0,0,0,76,77,10,0,60,189.43,252,-25.00,7.00,-1106.00
2024-05-17 15:48:53.495123,0,0,0,0,0,0,76,77,10,0,60,189.43,252,-1.00,34.00,-1124.00
2024-05-17 15:48:53.636435,0,0,0,0,0,-1,76,77,10,0,60,189.43,252,-3.00,-57.00,-1281.00
2024-05-17 15:48:53.699396,0,0,0,0,0,-4,76,77,10,0,60,189.43,252,-4.00,1.00,-1217.00
2024-05-17 15:48:53.843350,0,0,0,0,0,-5,76,77,14,0,60,189.72,253,-22.00,-17.00,-1119.00
2024-05-17 15:48:53.903057,-1,0,0,0,0,-6,76,77,22,0,60,189.87,253,-10.00,-18.00,-1067.00
2024-05-17 15:48:54.047521,-1,0,0,0,0,-6,76,77,30,10,60,189.89,253,-8.00,-40.00,-1021.00
2024-05-17 15:48:54.110268,0,0,0,0,0,-6,76,77,37,10,60,189.91,253,-17.00,-10.00,-1011.00
2024-05-17 15:48:54.209920,0,0,0,0,0,-6,76,78,50,20,60,190.02,253,-12.00,-7.00,-953.00
2024-05-17 15:48:54.353229,-1,0,0,0,0,-5,76,78,54,20,60,190.17,253,-4.00,23.00,-956.00
2024-05-17 15:48:54.413590,-1,0,0,0,0,-4,76,78,62,30,60,190.28,253,-31.00,36.00,-878.00
2024-05-17 15:48:54.558006,0,0,0,0,0,-4,76,78,69,30,60,190.29,253,-8.00,-3.00,-993.00
2024-05-17 15:48:54.617151,0,0,0,0,0,-3,76,78,74,30,60,190.28,253,-23.00,-27.00,-871.00
2024-05-17 15:48:54.762805,-1,0,0,0,0,-2,76,78,79,40,60,190.39,253,-14.00,23.00,-915.00
2024-05-17 15:48:54.821004,-1,0,0,0,0,-1,76,78,82,40,60,190.37,254,-11.00,-32.00,-933.00
2024-05-17 15:48:54.967723,-1,0,0,0,0,-1,76,78,84,40,60,190.42,254,-16.00,-17.00,-896.00
2024-05-17 15:48:54.973982,-1,0,0,0,0,0,76,78,87,40,60,190.51,254,-19.00,-19.00,-935.00
2024-05-17 15:48:55.172480,-1,0,0,0,0,0,76,78,89,50,60,190.48,254,-13.00,-13.00,-927.00
2024-05-17 15:48:55.177987,0,0,0,0,0,0,76,78,90,50,60,190.49,254,-21.00,-13.00,-968.00
2024-05-17 15:48:55.380926,0,0,0,0,0,0,76,78,92,50,60,190.46,254,-8.00,-27.00,-955.00
2024-05-17 15:48:55.381936,0,0,0,0,0,0,76,78,93,50,60,190.54,254,-3.00,3.00,-1009.00
2024-05-17 15:48:55.582635,0,0,0,0,0,0,76,78,93,50,60,190.60,254,-8.00,-32.00,-974.00
2024-05-17 15:48:55.585994,0,0,0,0,0,0,76,78,94,50,60,190.54,254,1.00,-26.00,-957.00
2024-05-17 15:48:55.786878,0,0,0,0,0,0,76,78,94,50,60,190.60,254,5.00,-29.00,-985.00
2024-05-17 15:48:55.790016,0,0,0,0,0,0,76,78,94,50,60,190.49,255,-3.00,0.00,-962.00
2024-05-17 15:48:55.891950,0,0,0,0,0,0,76,78,93,50,60,190.56,255,-18.00,4.00,-906.00
2024-05-17 15:48:56.094080,0,1,0,0,0,0,76,78,92,50,60,190.58,255,-1.00,-10.00,-972.00
2024-05-17 15:48:56.095803,0,0,0,0,0,1,76,78,92,50,60,190.60,255,-3.00,-6.00,-995.00
2024-05-17 15:48:56.300417,0,0,0,0,0,1,75,78,91,50,60,190.56,255,-19.00,-6.00,-1009.00
2024-05-17 15:48:56.300469,0,0,0,0,0,1,75,78,91,50,60,190.51,255,9.00,5.00,-990.00
2024-05-17 15:48:56.402162,0,0,0,0,0,1,75,78,90,50,60,190.54,255,5.00,0.00,-1017.00
2024-05-17 15:48:56.504420,0,0,0,0,0,1,75,78,89,50,60,190.46,255,-12.00,-33.00,-1002.00
2024-05-17 15:48:56.606282,0,0,0,0,0,0,75,78,88,50,60,190.54,255,-24.00,-23.00,-939.00
2024-05-17 15:48:56.708167,0,0,0,0,0,0,75,78,87,50,60,190.52,255,-2.00,2.00,-982.00
2024-05-17 15:48:56.810872,0,0,0,0,0,0,75,78,86,50,60,190.49,256,19.00,-12.00,-1025.00
2024-05-17 15:48:56.913170,0,0,0,0,0,0,75,78,85,50,60,190.47,256,3.00,-11.00,-990.00
2024-05-17 15:48:57.015219,0,0,0,0,0,0,75,78,84,50,60,190.44,256,11.00,-26.00,-1068.00
2024-05-17 15:48:57.119926,0,0,0,0,0,0,75,78,83,50,60,190.44,256,-19.00,9.00,-930.00
2024-05-17 15:48:57.218008,0,0,0,0,0,0,75,78,82,50,60,190.48,256,-31.00,-22.00,-973.00
2024-05-17 15:48:57.322878,0,0,0,0,0,0,75,78,80,50,60,190.49,256,-2.00,-20.00,-996.00
2024-05-17 15:48:57.421889,0,0,0,0,0,0,75,78,80,50,60,190.46,256,-7.00,-2.00,-994.00
2024-05-17 15:48:57.527676,0,0,0,0,0,0,75,78,79,50,60,190.34,256,8.00,-20.00,-1019.00
2024-05-17 15:48:57.625933,0,0,0,0,0,0,75,78,79,40,60,190.40,256,23.00,-1.00,-1006.00
2024-05-17 15:48:57.732975,0,0,0,0,0,0,75,78,78,40,60,190.44,257,12.00,-3.00,-984.00
2024-05-17 15:48:57.829867,0,0,0,0,0,0,75,78,77,40,60,190.42,257,-1.00,-23.00,-1018.00
2024-05-17 15:48:57.937485,0,0,0,0,0,0,75,78,77,40,60,190.41,257,-2.00,-14.00,-1006.00
2024-05-17 15:48:58.033834,0,0,0,0,0,0,75,78,76,40,60,190.47,257,-2.00,0.00,-1024.00
2024-05-17 15:48:58.141978,0,0,0,0,0,0,75,78,75,40,60,190.39,257,0.00,-3.00,-1010.00
2024-05-17 15:48:58.237820,0,0,0,0,0,0,76,77,75,40,60,190.46,257,7.00,0.00,-1030.00
2024-05-17 15:48:58.346857,0,0,0,0,0,0,76,77,75,40,60,190.40,257,-16.00,2.00,-1006.00
2024-05-17 15:48:58.441850,0,0,0,0,0,0,76,77,75,40,60,190.46,257,13.00,9.00,-1040.00
2024-05-17 15:48:58.545633,0,0,0,0,0,0,76,77,75,40,60,190.41,257,-6.00,5.00,-1000.00
2024-05-17 15:48:58.645827,0,0,0,0,0,0,76,77,75,40,60,190.42,257,-3.00,-6.00,-1037.00
2024-05-17 15:48:58.756455,0,0,0,0,0,0,76,77,75,40,60,190.45,258,-8.00,4.00,-1019.00
2024-05-17 15:48:58.849970,0,0,0,0,0,0,76,77,75,40,60,190.40,258,-2.00,-1.00,-996.00
2024-05-17 15:48:58.951919,0,0,0,0,0,0,76,77,76,40,60,190.42,258,-9.00,-7.00,-1002.00
2024-05-17 15:48:59.002881,0,0,0,0,0,0,76,77,76,40,60,190.41,258,7.00,-10.00,-1000.00
2024-05-17 15:48:59.167993,0,0,0,0,0,0,76,77,76,40,60,190.36,258,-11.00,14.00,-989.00
2024-05-17 15:48:59.206944,0,0,0,0,0,0,75,78,77,40,60,190.47,258,17.00,1.00,-1061.00
2024-05-17 15:48:59.371669,0,0,0,0,0,0,75,78,77,40,60,190.43,258,8.00,6.00,-970.00
2024-05-17 15:48:59.411857,0,0,0,0,0,0,75,78,78,40,60,190.40,258,-4.00,22.00,-930.00
2024-05-17 15:48:59.575933,0,0,0,0,0,0,75,78,78,40,60,190.44,258,3.00,-9.00,-1005.00
2024-05-17 15:48:59.620350,0,0,0,0,0,0,75,78,78,40,60,190.43,258,-14.00,-9.00,-990.00
2024-05-17 15:48:59.717245,0,0,0,0,0,0,75,78,78,40,60,190.41,259,38.00,9.00,-1004.00
2024-05-17 15:48:59.883542,0,0,0,0,0,0,75,78,78,40,60,190.41,259,3.00,6.00,-977.00
2024-05-17 15:48:59.921167,0,0,0,0,0,0,75,78,78,40,60,190.37,259,-30.00,0.00,-982.00
2024-05-17 15:49:00.090822,0,0,0,0,0,0,75,78,78,40,60,190.38,259,27.00,13.00,-1038.00
2024-05-17 15:49:00.124810,0,0,0,0,0,0,75,78,78,40,60,190.48,259,1.00,11.00,-980.00
2024-05-17 15:49:00.292779,0,0,0,0,0,0,74,77,78,40,60,190.46,259,0.00,8.00,-1000.00
2024-05-17 15:49:00.328916,0,0,0,0,0,0,74,77,78,40,60,190.39,259,-18.00,5.00,-1006.00
2024-05-17 15:49:00.430839,0,0,0,0,0,0,74,77,79,40,60,190.41,259,11.00,9.00,-1068.00
2024-05-17 15:49:00.599737,0,0,0,0,0,0,74,77,78,40,60,190.48,259,8.00,-2.00,-988.00
2024-05-17 15:49:00.634990,0,0,0,0,0,0,74,77,79,40,60,190.44,259,11.00,19.00,-1021.00
2024-05-17 15:49:00.800911,0,0,0,0,0,0,74,77,79,40,60,190.51,260,19.00,-3.00,-1058.00
2024-05-17 15:49:00.838737,0,0,0,0,0,0,74,77,79,40,60,190.52,260,9.00,14.00,-989.00
2024-05-17 15:49:00.940925,0,0,0,0,0,0,74,77,80,40,60,190.46,260,35.00,-5.00,-1112.00
2024-05-17 15:49:01.113472,0,0,0,0,0,0,74,77,81,40,60,190.48,260,0.00,31.00,-1036.00
2024-05-17 15:49:01.144764,0,0,0,0,0,-1,74,77,82,50,60,190.48,260,14.00,19.00,-1114.00
2024-05-17 15:49:01.316815,0,0,0,0,0,-2,74,77,85,50,60,190.56,260,-11.00,2.00,-1075.00
2024-05-17 15:49:01.348840,0,0,0,0,0,-3,74,77,88,50,60,190.58,260,3.00,-5.00,-1114.00
2024-05-17 15:49:01.521176,0,0,0,0,0,-4,74,77,92,60,60,190.55,260,6.00,7.00,-1007.00
2024-05-17 15:49:01.552807,1,0,0,0,0,-4,74,77,97,60,60,190.67,260,13.00,18.00,-1058.00
2024-05-17 15:49:01.726445,0,0,0,0,0,-5,74,77,103,70,60,190.67,260,-8.00,32.00,-1027.00
2024-05-17 15:49:01.756650,0,0,0,0,0,-5,74,77,109,70,60,190.79,261,16.00,0.00,-1030.00
2024-05-17 15:49:01.930866,0,0,0,0,0,-5,74,77,114,80,60,190.82,261,1.00,16.00,-977.00
2024-05-17 15:49:01.960640,0,0,0,0,0,-5,74,77,120,80,60,190.82,261,-3.00,21.00,-1053.00
2024-05-17 15:49:02.063516,0,0,0,0,0,-5,74,77,125,90,60,190.88,261,12.00,-10.00,-998.00
2024-05-17 15:49:02.115260,0,0,0,0,0,-5,74,77,130,90,60,190.94,261,2.00,-27.00,-987.00
2024-05-17 15:49:02.266568,0,0,0,0,0,-4,75,77,138,100,60,190.96,261,-9.00,10.00,-980.00
2024-05-17 15:49:02.442823,0,0,0,0,0,-4,75,77,143,100,60,191.02,261,11.00,18.00,-922.00
2024-05-17 15:49:02.471936,0,0,0,0,0,-4,75,77,147,110,60,191.07,261,-7.00,38.00,-953.00
2024-05-17 15:49:02.647704,0,0,0,0,0,-3,75,77,152,110,60,191.10,261,26.00,8.00,-995.00
2024-05-17 15:49:02.674822,0,0,0,0,0,-3,75,77,155,120,60,191.18,261,-2.00,19.00,-950.00
2024-05-17 15:49:02.725631,0,0,0,0,0,-3,75,77,159,120,60,191.13,262,7.00,17.00,-981.00
2024-05-17 15:49:02.854596,0,0,0,0,0,-2,75,77,162,120,60,191.17,262,-2.00,19.00,-950.00
2024-05-17 15:49:02.930478,0,0,0,0,0,-2,75,77,165,130,60,191.25,262,14.00,-8.00,-985.00
2024-05-17 15:49:03.057248,0,0,0,0,0,-2,75,77,167,130,60,191.25,262,-20.00,36.00,-985.00
2024-05-17 15:49:03.135660,0,0,0,0,0,-2,75,77,170,130,60,191.30,262,-10.00,-3.00,-1047.00
2024-05-17 15:49:03.235557,0,0,0,0,0,-1,74,76,171,130,60,191.30,262,-11.00,2.00,-986.00
2024-05-17 15:49:03.366357,0,0,0,0,0,-1,74,76,173,140,60,191.32,262,1.00,8.00,-978.00
2024-05-17 15:49:03.439591,0,0,0,0,0,-1,74,76,176,140,60,191.39,262,6.00,31.00,-986.00
2024-05-17 15:49:03.541583,0,0,0,0,0,-1,74,76,177,140,60,191.35,262,-11.00,4.00,-981.00
2024-05-17 15:49:03.671756,0,0,0,0,0,-1,74,76,179,140,60,191.40,262,-8.00,-6.00,-1011.00
2024-05-17 15:49:03.746986,0,0,0,0,0,0,74,76,179,140,60,191.45,263,-2.00,28.00,-933.00
2024-05-17 15:49:03.876807,0,0,0,0,0,0,74,76,180,140,60,191.39,263,0.00,11.00,-961.00
2024-05-17 15:49:03.949764,0,0,0,0,0,0,74,76,180,140,60,191.38,263,-3.00,28.00,-993.00
2024-05-17 15:49:04.051612,0,0,0,0,0,0,74,76,180,140,60,191.41,263,11.00,-25.00,-1008.00
2024-05-17 15:49:04.154126,0,0,0,0,0,0,74,76,180,140,60,191.41,263,-4.00,-7.00,-930.00
2024-05-17 15:49:04.286225,0,0,0,0,0,0,75,77,180,140,60,191.38,263,16.00,-22.00,-1030.00
2024-05-17 15:49:04.358493,0,0,0,0,0,0,75,77,180,140,60,191.38,263,0.00,22.00,-984.00
2024-05-17 15:49:04.461461,0,0,0,0,0,0,75,77,181,140,60,191.42,263,5.00,-26.00,-1019.00
2024-05-17 15:49:04.563431,0,0,0,0,0,0,75,77,180,140,60,191.41,263,14.00,21.00,-980.00
2024-05-17 15:49:04.665712,0,0,0,0,0,0,75,77,180,140,60,191.38,263,5.00,-7.00,-1003.00
2024-05-17 15:49:04.768029,0,0,0,0,0,0,75,77,180,140,60,191.33,264,-4.00,2.00,-989.00
2024-05-17 15:49:04.867852,0,0,0,0,0,0,75,77,180,140,60,191.35,264,0.00,15.00,-985.00
2024-05-17 15:49:04.972616,0,0,0,0,0,0,75,77,179,140,60,191.37,264,9.00,21.00,-1032.00
2024-05-17 15:49:05.071572,0,0,0,0,0,0,75,77,180,140,60,191.45,264,-6.00,-9.00,-973.00
2024-05-17 15:49:05.210534,0,0,0,0,0,0,75,77,179,140,60,191.35,264,23.00,13.00,-1035.00
2024-05-17 15:49:05.276662,0,0,0,0,0,0,75,76,179,140,60,191.38,264,2.00,21.00,-998.00
2024-05-17 15:49:05.412578,0,0,0,0,0,0,75,76,179,140,60,191.38,264,19.00,20.00,-1101.00
2024-05-17 15:49:05.480572,0,0,0,0,0,0,75,76,179,140,60,191.38,264,0.00,21.00,-1004.00
2024-05-17 15:49:05.581500,0,0,0,0,0,0,75,76,179,140,60,191.39,264,0.00,36.00,-997.00
2024-05-17 15:49:05.719623,0,0,0,0,0,0,75,76,179,140,60,191.46,264,5.00,38.00,-996.00
2024-05-17 15:49:05.785703,0,0,0,0,0,0,75,76,178,140,60,191.35,265,16.00,14.00,-930.00
2024-05-17 15:49:05.924374,0,0,0,0,0,0,75,76,178,140,60,191.34,265,7.00,2.00,-991.00
2024-05-17 15:49:05.989393,0,0,0,0,0,1,75,76,176,140,60,191.31,265,19.00,6.00,-941.00
2024-05-17 15:49:06.091402,0,0,0,0,0,1,75,76,174,140,60,191.36,265,10.00,18.00,-977.00
2024-05-17 15:49:06.231711,0,0,0,0,0,2,75,76,172,140,60,191.29,265,3.00,12.00,-988.00
2024-05-17 15:49:06.295372,0,0,0,0,0,2,73,76,169,140,60,191.24,265,-3.00,37.00,-933.00
2024-05-17 15:49:06.397434,0,0,0,0,0,2,73,76,166,130,60,191.27,265,-6.00,1.00,-969.00
2024-05-17 15:49:06.543096,0,0,0,0,0,2,73,76,163,130,60,191.14,265,-14.00,27.00,-981.00
2024-05-17 15:49:06.550379,0,0,0,0,0,2,73,76,160,130,60,191.18,265,0.00,-15.00,-1071.00
2024-05-17 15:49:06.652394,0,0,0,0,0,2,73,76,157,120,60,191.17,265,4.00,0.00,-1011.00
2024-05-17 15:49:06.754352,0,0,0,0,0,2,73,76,154,120,60,191.15,266,22.00,4.00,-1060.00
2024-05-17 15:49:06.951766,0,0,0,0,0,2,73,76,152,120,60,191.18,266,4.00,8.00,-1084.00
2024-05-17 15:49:06.958618,0,0,0,0,0,2,73,76,149,120,60,191.08,266,5.00,2.00,-1003.00
2024-05-17 15:49:07.153199,0,0,0,0,0,2,73,76,147,110,60,191.09,266,-12.00,-3.00,-1003.00
2024-05-17 15:49:07.162332,0,0,0,0,0,2,73,76,144,110,60,191.11,266,9.00,12.00,-1049.00
2024-05-17 15:49:07.358019,0,0,0,0,0,2,73,77,141,110,60,191.03,266,3.00,4.00,-1055.00
2024-05-17 15:49:07.367651,0,0,0,0,0,2,73,77,139,110,60,191.01,266,-9.00,13.00,-977.00
2024-05-17 15:49:07.563788,0,0,0,0,0,1,73,77,137,100,60,190.96,266,15.00,-8.00,-1077.00
2024-05-17 15:49:07.570342,0,0,0,0,0,1,73,77,136,100,60,190.94,266,6.00,18.00,-1001.00
2024-05-17 15:49:07.767596,0,0,0,0,0,1,73,77,134,100,60,190.91,266,-3.00,5.00,-978.00
2024-05-17 15:49:07.774321,0,0,0,0,0,1,73,77,133,100,60,190.91,267,-1.00,-5.00,-1032.00
2024-05-17 15:49:07.876405,0,0,0,0,0,1,73,77,132,100,60,190.89,267,27.00,6.00,-1101.00
2024-05-17 15:49:07.978465,0,0,0,0,0,0,73,77,131,100,60,190.86,267,-2.00,5.00,-1009.00
2024-05-17 15:49:08.177189,0,0,0,0,0,0,73,77,130,100,60,190.90,267,14.00,9.00,-1057.00
2024-05-17 15:49:08.182494,0,0,0,0,0,0,73,77,130,100,60,190.94,267,6.00,14.00,-1030.00
2024-05-17 15:49:08.285461,0,0,0,0,0,0,73,76,130,100,60,190.83,267,8.00,21.00,-972.00
2024-05-17 15:49:08.386746,0,0,0,0,0,0,73,76,130,100,60,190.86,267,-3.00,-6.00,-1022.00
2024-05-17 15:49:08.587611,0,0,0,0,0,0,73,76,131,100,60,190.86,267,-2.00,26.00,-1050.00
2024-05-17 15:49:08.590406,0,0,0,0,0,0,73,76,131,100,60,190.88,267,-2.00,16.00,-1009.00
2024-05-17 15:49:08.692560,0,0,0,0,0,0,73,76,131,100,60,190.95,267,8.00,-19.00,-1034.00
2024-05-17 15:49:08.794373,0,0,0,0,0,0,73,76,132,100,60,190.88,268,0.00,4.00,-957.00
2024-05-17 15:49:08.897236,0,0,0,0,0,0,73,76,132,100,60,190.84,268,-11.00,11.00,-1001.00
2024-05-17 15:49:08.998439,0,0,0,0,0,0,73,76,133,100,60,190.90,268,1.00,-35.00,-998.00
2024-05-17 15:49:09.201444,0,0,0,0,0,0,73,76,133,100,60,190.93,268,-4.00,-3.00,-953.00
2024-05-17 15:49:09.202318,0,0,0,0,0,0,73,76,133,100,60,190.93,268,-9.00,43.00,-944.00
2024-05-17 15:49:09.406640,0,0,0,0,0,0,74,76,134,100,60,190.94,268,1.00,35.00,-998.00
2024-05-17 15:49:09.407049,0,0,0,0,0,0,74,76,134,100,60,190.91,268,-14.00,-14.00,-942.00
2024-05-17 15:49:09.509259,0,0,0,0,0,0,74,76,134,100,60,190.97,268,-1.00,-15.00,-1033.00
2024-05-17 15:49:09.610673,0,0,0,0,0,0,74,76,135,100,60,190.92,268,-1.00,-9.00,-974.00
2024-05-17 15:49:09.713367,0,0,0,0,0,0,74,76,135,100,60,190.89,268,12.00,-12.00,-1039.00
2024-05-17 15:49:09.815642,0,0,0,0,0,0,74,76,135,100,60,190.94,269,2.00,15.00,-944.00
2024-05-17 15:49:09.918073,0,0,0,0,0,0,74,76,135,100,60,190.86,269,-17.00,21.00,-932.00
2024-05-17 15:49:10.021670,-2,0,0,0,0,0,74,76,135,100,60,190.88,269,0.00,23.00,-1017.00
2024-05-17 15:49:10.120262,-7,0,0,0,0,0,74,76,137,100,60,190.93,269,-13.00,18.00,-934.00
2024-05-17 15:49:10.225313,-8,0,0,2,0,0,74,76,137,100,60,190.92,269,-4.00,-5.00,-1051.00
2024-05-17 15:49:10.325791,-8,0,0,3,0,0,73,76,137,100,60,190.98,269,-46.00,-9.00,-959.00
2024-05-17 15:49:10.375497,-8,0,0,4,0,0,73,76,138,100,60,191.00,269,-30.00,0.00,-997.00
2024-05-17 15:49:10.532443,-7,0,0,5,0,0,73,76,137,100,60,190.98,269,-44.00,19.00,-984.00
2024-05-17 15:49:10.579248,-6,0,0,6,0,0,73,76,136,100,60,190.88,269,-45.00,-4.00,-994.00
2024-05-17 15:49:10.737222,-6,0,0,7,0,0,73,76,135,100,60,190.86,269,-52.00,10.00,-1018.00
2024-05-17 15:49:10.783332,-5,0,0,7,0,0,73,76,136,100,60,190.91,270,-47.00,35.00,-997.00
2024-05-17 15:49:10.945443,-2,0,0,8,0,0,73,76,136,100,60,190.90,270,-34.00,30.00,-991.00
2024-05-17 15:49:10.987669,0,0,0,7,0,0,73,76,137,100,60,190.88,270,-70.00,6.00,-1006.00
2024-05-17 15:49:11.089744,3,0,0,7,0,0,73,76,137,100,60,190.91,270,-34.00,20.00,-1075.00
2024-05-17 15:49:11.191559,4,-1,0,5,0,0,73,76,138,100,60,190.95,270,-26.00,20.00,-1042.00
2024-05-17 15:49:11.351706,3,-1,0,4,0,0,73,76,138,100,60,190.95,270,-36.00,16.00,-956.00
2024-05-17 15:49:11.395174,2,0,0,3,0,0,73,76,137,100,60,190.86,270,-45.00,17.00,-930.00
2024-05-17 15:49:11.556620,0,0,0,3,0,0,73,76,136,100,60,190.95,270,-31.00,39.00,-950.00
2024-05-17 15:49:11.599149,0,0,0,3,0,0,73,76,135,100,60,190.86,270,-27.00,2.00,-1014.00
2024-05-17 15:49:11.761271,0,0,0,2,0,0,73,76,134,100,60,190.91,270,-33.00,18.00,-963.00
2024-05-17 15:49:11.803052,0,0,0,2,0,0,73,76,134,100,60,190.92,271,-35.00,32.00,-983.00
2024-05-17 15:49:11.967044,0,0,0,2,0,0,73,76,135,100,60,190.90,271,-21.00,7.00,-1053.00
2024-05-17 15:49:12.007405,2,0,0,2,0,0,73,76,135,100,60,190.94,271,-12.00,-3.00,-1021.00
2024-05-17 15:49:12.173040,4,0,0,1,0,0,73,76,134,100,60,190.98,271,-6.00,6.00,-1065.00
2024-05-17 15:49:12.211236,2,0,0,1,0,0,73,76,134,100,60,190.96,271,-11.00,41.00,-1014.00
2024-05-17 15:49:12.378077,1,0,0,0,0,0,73,76,133,100,60,190.84,271,-8.00,32.00,-1037.00
2024-05-17 15:49:12.415230,0,0,0,0,0,0,73,76,133,100,60,190.90,271,-24.00,43.00,-1003.00
2024-05-17 15:49:12.580515,0,0,0,0,0,0,73,76,133,100,60,190.88,271,-17.00,47.00,-1014.00
2024-05-17 15:49:12.619726,0,0,0,0,0,0,73,76,133,100,60,190.92,271,-17.00,24.00,-1019.00
2024-05-17 15:49:12.721298,0,0,0,0,0,0,73,76,133,100,60,190.91,271,-8.00,4.00,-980.00
2024-05-17 15:49:12.887776,0,0,0,0,0,0,73,76,132,100,60,190.93,272,-39.00,37.00,-962.00
2024-05-17 15:49:12.925190,0,0,0,0,0,0,73,76,132,100,60,190.90,272,-31.00,39.00,-960.00
2024-05-17 15:49:13.027206,0,0,0,0,0,0,73,76,132,100,60,190.82,272,-11.00,37.00,-984.00
2024-05-17 15:49:13.195135,0,0,0,0,0,0,73,76,133,100,60,190.88,272,-6.00,7.00,-1020.00
2024-05-17 15:49:13.231634,0,0,0,0,0,0,73,76,132,100,60,190.85,272,-37.00,26.00,-953.00
2024-05-17 15:49:13.399829,-1,0,0,0,0,0,73,76,133,100,60,190.91,272,-29.00,17.00,-1082.00
2024-05-17 15:49:13.435938,-1,0,0,0,0,0,73,76,134,100,60,190.90,272,-15.00,10.00,-971.00
2024-05-17 15:49:13.537204,-1,0,0,0,0,0,73,76,134,100,60,190.93,272,5.00,4.00,-1034.00
2024-05-17 15:49:13.707096,-1,0,0,0,0,0,73,76,134,100,60,190.89,272,-24.00,16.00,-970.00
2024-05-17 15:49:13.741093,0,0,0,0,0,0,73,76,133,100,60,190.89,273,-8.00,11.00,-964.00
2024-05-17 15:49:13.911767,0,0,0,0,0,0,73,76,133,100,60,190.94,273,-3.00,20.00,-948.00
2024-05-17 15:49:13.945163,0,0,0,0,0,0,73,76,134,100,60,190.91,273,-24.00,36.00,-963.00
2024-05-17 15:49:14.116477,0,0,0,0,0,0,73,76,134,100,60,190.93,273,-18.00,48.00,-996.00
2024-05-17 15:49:14.149182,0,0,0,0,0,0,73,76,134,100,60,190.95,273,-3.00,-9.00,-1048.00
2024-05-17 15:49:14.252393,0,0,0,0,0,0,73,76,134,100,60,190.93,273,-20.00,21.00,-1007.00
2024-05-17 15:49:14.353007,1,-1,0,0,0,0,73,76,134,100,60,190.92,273,6.00,-15.00,-997.00
2024-05-17 15:49:14.455935,7,-1,0,0,0,0,73,76,135,100,60,190.86,273,2.00,-14.00,-1018.00
2024-05-17 15:49:14.506024,8,0,0,-2,0,0,73,76,135,100,60,190.99,273,-5.00,-3.00,-1040.00
2024-05-17 15:49:14.628442,8,-1,0,-3,0,0,73,76,135,100,60,190.95,273,12.00,27.00,-1108.00
2024-05-17 15:49:14.710013,7,-1,0,-4,0,0,73,76,134,100,60,190.95,274,16.00,49.00,-1037.00
2024-05-17 15:49:14.833099,7,0,0,-5,0,0,73,76,135,100,60,190.87,274,19.00,21.00,-1032.00
2024-05-17 15:49:14.914065,6,0,0,-6,0,0,73,76,135,100,60,190.92,274,27.00,26.00,-979.00
2024-05-17 15:49:15.016126,5,0,0,-7,0,0,73,76,133,100,60,190.79,274,42.00,9.00,-952.00
2024-05-17 15:49:15.141756,4,0,0,-7,0,0,73,76,134,100,60,190.85,274,43.00,1.00,-1011.00
2024-05-17 15:49:15.219951,2,0,0,-8,0,0,73,76,134,100,60,190.82,274,44.00,18.00,-1007.00
2024-05-17 15:49:15.345187,-1,0,0,-7,0,0,72,76,133,100,60,190.89,274,37.00,19.00,-976.00
2024-05-17 15:49:15.423879,-3,0,0,-7,0,0,72,76,133,100,60,190.90,274,41.00,24.00,-994.00
2024-05-17 15:49:15.550002,-5,0,0,-6,0,0,72,76,133,100,60,190.81,274,48.00,21.00,-976.00
2024-05-17 15:49:15.628120,-4,0,0,-4,0,0,72,76,133,100,60,190.95,274,35.00,-20.00,-941.00
2024-05-17 15:49:15.756703,-2,0,0,-3,0,0,72,76,133,100,60,190.89,275,17.00,14.00,-1015.00
2024-05-17 15:49:15.831938,-1,0,0,-3,0,0,72,76,134,100,60,190.90,275,17.00,-20.00,-1015.00
2024-05-17 15:49:15.962320,0,0,0,-2,0,0,72,76,133,100,60,190.89,275,22.00,26.00,-955.00
2024-05-17 15:49:16.035968,0,0,0,-2,0,0,72,76,133,100,60,190.90,275,11.00,-25.00,-997.00
2024-05-17 15:49:16.138062,0,0,0,-2,0,0,72,76,133,100,60,190.89,275,16.00,37.00,-993.00
2024-05-17 15:49:16.266956,0,0,0,-2,0,0,72,76,132,100,60,190.90,275,10.00,-12.00,-1008.00
2024-05-17 15:49:16.341912,0,0,0,-1,0,0,73,76,132,100,60,190.87,275,3.00,32.00,-988.00
2024-05-17 15:49:16.443985,0,0,0,-1,0,0,73,76,132,100,60,190.86,275,14.00,9.00,-990.00
2024-05-17 15:49:16.574284,-1,0,0,-1,0,0,73,76,131,100,60,190.87,275,18.00,-5.00,-1105.00
2024-05-17 15:49:16.648378,-3,0,0,0,0,0,73,76,131,100,60,190.89,275,23.00,33.00,-966.00
2024-05-17 15:49:16.779150,-1,1,0,0,0,0,73,76,131,100,60,190.93,276,-5.00,-33.00,-980.00
2024-05-17 15:49:16.852015,0,2,0,0,0,0,73,76,131,100,60,190.92,276,11.00,5.00,-979.00
2024-05-17 15:49:16.983663,0,-2,0,0,0,0,73,76,130,100,60,190.89,276,5.00,-43.00,-1023.00
2024-05-17 15:49:17.055896,0,-1,0,0,0,0,73,76,129,100,60,190.88,276,-7.00,32.00,-983.00
2024-05-17 15:49:17.188666,0,0,0,0,0,0,73,76,129,100,60,190.94,276,-1.00,26.00,-1020.00
2024-05-17 15:49:17.260021,0,0,0,0,0,0,73,76,129,100,60,190.90,276,5.00,1.00,-1015.00
2024-05-17 15:49:17.395956,0,0,0,0,0,0,73,75,129,100,60,190.86,276,-2.00,34.00,-1026.00
2024-05-17 15:49:17.465302,0,0,0,0,0,0,73,75,129,100,60,190.83,276,-1.00,-11.00,-948.00
2024-05-17 15:49:17.598287,0,0,0,0,0,0,73,75,129,100,60,190.90,276,6.00,-28.00,-1049.00
2024-05-17 15:49:17.668862,0,0,0,0,0,0,73,75,129,100,60,190.89,276,-7.00,13.00,-1020.00
2024-05-17 15:49:17.802955,0,0,0,0,0,0,73,75,129,100,60,190.90,277,15.00,14.00,-1078.00
2024-05-17 15:49:17.875849,0,0,0,0,0,0,73,75,129,100,60,190.92,277,4.00,43.00,-1024.00
2024-05-17 15:49:17.973947,0,0,0,0,0,0,73,75,129,100,60,190.86,277,-30.00,23.00,-969.00
2024-05-17 15:49:18.111570,0,0,0,0,0,0,73,75,129,100,60,190.94,277,13.00,-27.00,-1013.00
2024-05-17 15:49:18.178005,0,0,0,0,0,0,73,75,129,100,60,190.87,277,-5.00,-5.00,-1002.00
2024-05-17 15:49:18.232258,0,0,0,0,0,0,73,75,129,100,60,190.90,277,-20.00,30.00,-978.00
2024-05-17 15:49:18.419859,0,0,0,0,0,0,73,76,129,100,60,190.85,277,-33.00,51.00,-970.00
2024-05-17 15:49:18.484014,0,0,0,0,0,0,73,76,129,100,60,190.82,277,-10.00,40.00,-981.00
2024-05-17 15:49:18.534812,0,0,0,0,0,0,73,76,129,100,60,190.85,277,-2.00,26.00,-950.00
2024-05-17 15:49:18.724548,0,0,0,0,0,0,73,76,129,100,60,190.90,277,-12.00,0.00,-989.00
2024-05-17 15:49:18.738879,0,0,0,0,0,0,73,76,129,100,60,190.86,278,1.00,13.00,-996.00
2024-05-17 15:49:18.932947,0,0,0,0,0,0,73,76,129,100,60,190.86,278,0.00,-2.00,-1057.00
2024-05-17 15:49:18.943470,0,0,0,0,0,0,73,76,129,100,60,190.89,278,17.00,46.00,-1028.00
2024-05-17 15:49:19.044733,0,0,0,0,0,0,73,76,128,100,60,190.87,278,2.00,20.00,-994.00
2024-05-17 15:49:19.238175,0,-1,0,0,0,0,73,76,129,100,60,190.75,278,-9.00,50.00,-960.00
2024-05-17 15:49:19.248878,0,-8,0,0,0,0,73,76,130,100,60,190.89,278,3.00,-6.00,-978.00
2024-05-17 15:49:19.441640,0,-7,0,0,-2,0,73,76,130,90,60,190.87,278,-10.00,47.00,-989.00
2024-05-17 15:49:19.452971,0,-4,0,0,-3,0,73,76,129,90,60,190.90,278,3.00,47.00,-1017.00
2024-05-17 15:49:19.554805,0,-3,0,0,-3,0,73,76,129,90,60,190.86,278,7.00,29.00,-999.00
2024-05-17 15:49:19.748814,0,0,0,0,-3,0,73,76,128,90,60,190.81,278,0.00,56.00,-988.00
2024-05-17 15:49:19.760218,0,0,0,0,-3,0,73,76,128,90,60,190.84,279,-14.00,40.00,-978.00
2024-05-17 15:49:19.860862,0,0,0,0,-2,0,73,76,129,90,60,190.87,279,0.00,53.00,-1002.00
2024-05-17 15:49:20.055687,0,0,0,0,-2,0,73,76,129,90,60,190.91,279,19.00,9.00,-1057.00
2024-05-17 15:49:20.064739,0,0,0,0,-2,0,73,76,129,90,60,190.84,279,-5.00,12.00,-1006.00
2024-05-17 15:49:20.169363,0,-1,0,0,-2,0,73,76,129,90,60,190.88,279,-5.00,45.00,-1002.00
2024-05-17 15:49:20.268606,0,-1,0,0,-2,0,73,76,129,90,60,190.89,279,9.00,-3.00,-1040.00
2024-05-17 15:49:20.466478,0,-1,0,0,-2,0,73,76,129,90,60,190.87,279,0.00,37.00,-978.00
2024-05-17 15:49:20.472678,0,-1,0,0,-2,0,73,76,130,90,60,190.87,279,-13.00,63.00,-996.00
2024-05-17 15:49:20.673127,0,-1,0,0,-2,0,73,76,131,100,60,190.87,279,7.00,17.00,-1013.00
2024-05-17 15:49:20.676696,0,-1,0,0,-2,0,73,76,131,100,60,190.87,279,-2.00,54.00,-1004.00
2024-05-17 15:49:20.874778,0,-1,0,0,-2,0,73,76,132,100,60,190.88,280,-4.00,12.00,-1002.00
2024-05-17 15:49:20.880700,0,0,0,0,-2,0,73,76,133,100,60,190.88,280,2.00,20.00,-1006.00
2024-05-17 15:49:21.082222,0,0,0,0,-2,0,73,76,133,100,60,190.95,280,-1.00,11.00,-993.00
2024-05-17 15:49:21.084719,0,4,0,0,-1,0,73,76,137,100,59,190.91,280,1.00,3.00,-958.00
2024-05-17 15:49:21.284579,0,3,0,0,-1,0,73,76,137,100,59,190.85,280,-16.00,35.00,-954.00
2024-05-17 15:49:21.289591,0,1,0,0,0,0,73,76,136,100,59,190.93,280,0.00,-30.00,-1020.00
2024-05-17 15:49:21.391641,0,0,0,0,0,0,73,76,136,100,59,190.93,280,-5.00,-18.00,-1011.00
2024-05-17 15:49:21.591746,0,0,0,0,0,0,73,76,136,100,59,190.97,280,-21.00,30.00,-963.00
2024-05-17 15:49:21.594695,0,0,0,0,0,0,73,76,137,100,59,190.95,280,-31.00,-32.00,-942.00
2024-05-17 15:49:21.696970,0,0,0,0,0,0,73,76,137,100,59,190.94,280,-17.00,15.00,-1028.00
2024-05-17 15:49:21.798719,0,0,0,0,0,0,73,76,137,100,59,190.91,281,-16.00,17.00,-966.00
2024-05-17 15:49:21.900715,0,0,0,0,0,0,73,76,137,100,59,190.91,281,-14.00,-7.00,-1033.00
2024-05-17 15:49:22.003260,0,0,0,0,0,0,73,76,137,100,59,190.99,281,-14.00,44.00,-966.00
2024-05-17 15:49:22.105701,0,0,0,0,0,0,73,76,137,100,59,190.95,281,9.00,0.00,-1053.00
2024-05-17 15:49:22.206546,0,0,0,0,0,0,73,76,137,100,59,190.94,281,2.00,-30.00,-976.00
2024-05-17 15:49:22.257734,0,0,0,0,0,0,73,76,137,100,59,190.97,281,-9.00,18.00,-997.00
2024-05-17 15:49:22.414865,0,0,0,0,0,0,73,75,137,100,59,190.95,281,3.00,-33.00,-1026.00
2024-05-17 15:49:22.514720,0,0,0,0,0,0,73,75,136,100,59,190.98,281,-8.00,24.00,-958.00
2024-05-17 15:49:22.564865,0,0,0,0,0,0,73,75,136,100,59,190.91,281,-15.00,10.00,-1012.00
2024-05-17 15:49:22.718139,0,0,0,0,0,0,73,75,136,100,59,190.96,281,4.00,-17.00,-1026.00
2024-05-17 15:49:22.768537,0,0,0,0,0,0,73,75,135,100,59,190.91,282,-4.00,-13.00,-972.00
2024-05-17 15:49:22.922892,0,0,0,0,0,0,73,75,135,100,59,190.92,282,0.00,-16.00,-1059.00
2024-05-17 15:49:22.972369,0,-1,0,0,0,0,73,75,135,100,59,190.91,282,3.00,-12.00,-990.00
2024-05-17 15:49:23.127758,0,-1,0,0,0,0,73,75,134,100,59,190.91,282,8.00,-30.00,-1041.00
2024-05-17 15:49:23.175729,0,-1,0,0,0,0,73,75,134,100,59,190.98,282,1.00,-11.00,-1002.00
2024-05-17 15:49:23.290170,0,-1,0,0,0,0,73,75,134,100,59,190.99,282,2.00,12.00,-1100.00
2024-05-17 15:49:23.380100,0,-1,0,0,0,0,73,75,134,100,59,190.93,282,9.00,20.00,-1001.00
2024-05-17 15:49:23.539362,0,0,0,0,0,0,73,75,133,100,59,190.99,282,0.00,-21.00,-1014.00
2024-05-17 15:49:23.583499,0,8,0,0,0,0,73,75,135,100,59,190.91,282,13.00,19.00,-1014.00
2024-05-17 15:49:23.741925,0,7,0,0,2,0,73,75,135,100,59,190.94,282,-4.00,18.00,-1013.00
2024-05-17 15:49:23.787641,0,4,0,0,3,0,73,75,135,100,59,190.99,283,-7.00,-41.00,-966.00
2024-05-17 15:49:23.947055,0,1,0,0,3,0,73,75,133,100,59,190.93,283,10.00,-43.00,-1042.00
2024-05-17 15:49:23.991759,0,0,0,0,4,0,73,75,132,100,59,190.95,283,14.00,-14.00,-1044.00
2024-05-17 15:49:24.153234,0,-1,0,0,3,0,73,75,132,100,59,190.88,283,7.00,3.00,-1068.00
2024-05-17 15:49:24.195366,0,-1,0,0,3,0,73,75,132,100,59,190.93,283,4.00,-15.00,-1048.00
2024-05-17 15:49:24.356306,0,-1,0,0,3,0,73,75,131,100,59,190.85,283,-1.00,-8.00,-958.00
2024-05-17 15:49:24.399431,0,0,0,0,3,0,72,76,131,100,59,190.88,283,-13.00,-7.00,-994.00
2024-05-17 15:49:24.561661,0,0,0,0,2,0,72,76,131,100,59,190.92,283,5.00,-17.00,-1038.00
2024-05-17 15:49:24.603408,0,0,0,0,2,0,72,76,131,100,59,190.89,283,-11.00,1.00,-907.00
2024-05-17 15:49:24.765957,0,0,0,0,2,0,72,76,131,100,59,190.90,283,-16.00,-9.00,-986.00
2024-05-17 15:49:24.807878,0,0,0,0,2,0,72,76,132,100,59,190.92,284,-13.00,-18.00,-1034.00
2024-05-17 15:49:24.981699,0,0,0,0,2,0,72,76,132,100,59,190.90,284,-19.00,0.00,-1028.00
2024-05-17 15:49:25.011901,0,0,0,0,2,0,72,76,132,100,59,190.97,284,1.00,-25.00,-1039.00
2024-05-17 15:49:25.175551,0,-3,0,0,2,0,72,76,134,100,59,190.95,284,-4.00,-38.00,-1060.00
2024-05-17 15:49:25.215754,0,-5,0,0,1,0,72,76,135,100,59,190.90,284,7.00,-19.00,-1064.00
2024-05-17 15:49:25.382421,0,-2,0,0,0,0,72,76,134,100,59,190.88,284,-7.00,29.00,-953.00
2024-05-17 15:49:25.430758,0,-1,0,0,0,0,73,76,134,100,59,190.96,284,7.00,27.00,-1004.00
2024-05-17 15:49:25.523902,0,-1,0,0,0,0,73,76,134,100,59,190.95,284,0.00,32.00,-975.00
2024-05-17 15:49:25.687771,0,-1,0,0,0,0,73,76,134,100,59,190.98,284,15.00,-5.00,-978.00
2024-05-17 15:49:25.726572,0,-1,0,0,0,0,73,76,134,100,59,190.95,284,-13.00,37.00,-922.00
2024-05-17 15:49:25.894770,0,-1,0,0,0,0,73,76,133,100,59,190.93,285,19.00,34.00,-1029.00
2024-05-17 15:49:25.894993,0,-1,0,0,0,0,73,76,133,100,59,190.90,285,9.00,-14.00,-1022.00
2024-05-17 15:49:25.981923,0,0,0,0,0,0,73,76,132,100,59,190.91,285,-16.00,55.00,-936.00
2024-05-17 15:49:26.097454,0,0,0,0,0,0,73,76,132,100,58,190.96,285,4.00,-23.00,-1021.00
2024-05-17 15:49:26.185607,0,0,0,0,0,0,73,76,131,100,58,190.90,285,-1.00,31.00,-1022.00
2024-05-17 15:49:26.302207,0,0,0,0,0,0,73,76,131,100,58,190.90,285,-7.00,1.00,-937.00
2024-05-17 15:49:26.389853,0,0,0,0,0,0,73,75,130,100,58,190.92,285,9.00,-16.00,-1006.00
2024-05-17 15:49:26.491585,0,0,0,0,0,0,73,75,130,100,58,190.86,285,-10.00,45.00,-1023.00
2024-05-17 15:49:26.609253,0,0,0,0,0,0,73,75,130,100,58,190.94,285,3.00,7.00,-989.00
2024-05-17 15:49:26.695460,0,0,0,0,0,0,73,75,130,100,58,190.93,285,-14.00,29.00,-1028.00
2024-05-17 15:49:26.814109,0,0,0,0,0,0,73,75,130,100,58,190.97,286,11.00,-14.00,-1017.00
2024-05-17 15:49:26.899535,0,-1,0,0,0,0,73,75,129,100,58,190.99,286,-2.00,16.00,-1027.00
2024-05-17 15:49:27.019150,0,-1,0,0,0,0,73,75,129,100,58,190.91,286,-4.00,14.00,-1008.00
2024-05-17 15:49:27.103757,0,-1,0,0,0,0,73,75,129,100,58,190.95,286,6.00,48.00,-999.00
2024-05-17 15:49:27.219616,0,-1,0,0,0,0,73,75,129,100,58,190.93,286,4.00,17.00,-943.00
2024-05-17 15:49:27.307504,0,-1,0,0,0,0,73,75,129,100,58,190.91,286,-8.00,20.00,-980.00
2024-05-17 15:49:27.431926,0,0,6,0,0,0,73,75,129,100,58,190.91,286,25.00,-7.00,-967.00
2024-05-17 15:49:27.511339,0,-1,12,0,0,0,73,75,130,100,58,190.94,286,-1.00,17.00,-1016.00
2024-05-17 15:49:27.633148,0,0,18,0,0,0,73,75,129,100,58,190.88,286,41.00,-27.00,-1003.00
2024-05-17 15:49:27.715400,0,0,23,0,0,0,73,75,130,100,58,190.85,287,17.00,6.00,-985.00
2024-05-17 15:49:27.817378,0,0,29,0,0,0,73,75,130,100,58,190.92,287,14.00,-26.00,-1017.00
2024-05-17 15:49:27.940462,0,0,35,0,0,0,73,75,130,100,58,190.96,287,8.00,24.00,-1015.00
2024-05-17 15:49:28.021971,0,0,41,0,0,0,73,75,130,100,58,190.91,287,-1.00,36.00,-989.00
2024-05-17 15:49:28.145304,0,-1,47,0,0,0,73,75,130,100,58,190.90,287,15.00,-23.00,-1000.00
2024-05-17 15:49:28.225356,0,0,52,0,0,0,73,75,129,100,58,190.98,287,23.00,-5.00,-980.00
2024-05-17 15:49:28.349963,0,0,58,0,0,0,73,75,130,100,58,190.90,287,15.00,25.00,-1017.00
2024-05-17 15:49:28.429326,0,0,64,0,0,0,73,75,130,100,58,190.91,287,21.00,-26.00,-1005.00
2024-05-17 15:49:28.555894,0,0,70,0,0,0,73,75,130,90,58,190.93,287,-1.00,-22.00,-1026.00
2024-05-17 15:49:28.633275,0,0,76,0,0,0,73,75,129,90,58,190.91,287,5.00,14.00,-1008.00
2024-05-17 15:49:28.759680,0,0,82,0,0,0,73,75,129,100,58,190.88,288,14.00,-31.00,-1011.00
2024-05-17 15:49:28.839690,0,0,87,0,0,0,73,75,129,100,58,190.84,288,19.00,-27.00,-969.00
2024-05-17 15:49:28.939442,0,0,93,0,0,0,73,75,129,100,58,190.88,288,0.00,10.00,-969.00
2024-05-17 15:49:29.041233,0,0,99,0,0,0,73,75,129,90,58,190.90,288,-10.00,16.00,-997.00
2024-05-17 15:49:29.171816,0,0,105,0,0,0,73,75,129,90,57,190.91,288,1.00,-26.00,-942.00
2024-05-17 15:49:29.245280,0,0,111,0,0,0,73,75,129,90,57,190.85,288,12.00,-29.00,-1069.00
2024-05-17 15:49:29.379308,0,0,117,0,0,0,73,75,129,90,57,190.91,288,-14.00,29.00,-959.00
2024-05-17 15:49:29.449363,0,-1,123,0,0,0,72,76,129,90,57,190.91,288,6.00,16.00,-994.00
2024-05-17 15:49:29.580852,0,-1,129,0,0,0,72,76,129,90,57,190.83,288,10.00,-9.00,-1019.00
2024-05-17 15:49:29.658919,0,0,135,0,0,0,72,76,129,90,57,190.90,288,-1.00,-45.00,-1030.00
2024-05-17 15:49:29.757989,0,0,141,0,0,0,72,76,130,90,57,190.93,289,-1.00,6.00,-992.00
2024-05-17 15:49:29.858459,0,0,147,0,0,0,72,76,130,100,57,190.96,289,0.00,-3.00,-1067.00
2024-05-17 15:49:29.910198,0,0,153,0,0,0,72,76,131,100,57,190.90,289,-3.00,-8.00,-967.00
2024-05-17 15:49:30.011816,0,0,159,0,0,0,72,76,131,100,57,190.90,289,4.00,-13.00,-1050.00
2024-05-17 15:49:30.112233,0,0,165,0,0,0,72,76,132,100,57,190.89,289,-16.00,-25.00,-965.00
2024-05-17 15:49:30.296838,0,0,171,0,0,0,72,76,132,100,57,190.96,289,-17.00,26.00,-1005.00
2024-05-17 15:49:30.316635,0,0,178,0,0,0,72,76,133,100,57,190.88,289,-4.00,-31.00,-969.00
2024-05-17 15:49:30.418252,0,0,-175,0,0,0,72,75,133,100,57,190.96,289,-8.00,10.00,-959.00
2024-05-17 15:49:30.521693,0,0,-169,0,0,0,72,75,133,100,57,190.92,289,-4.00,-11.00,-1017.00
2024-05-17 15:49:30.622402,0,0,-163,0,0,0,72,75,133,100,57,190.93,289,-19.00,-6.00,-926.00
2024-05-17 15:49:30.807671,0,0,-157,0,0,0,72,75,133,100,57,190.94,290,-21.00,8.00,-983.00
2024-05-17 15:49:30.829852,0,0,-151,0,0,0,72,75,133,100,57,190.95,290,-25.00,36.00,-988.00
2024-05-17 15:49:30.928139,0,0,-145,0,0,0,72,75,133,100,57,190.94,290,-12.00,8.00,-988.00
2024-05-17 15:49:31.032341,0,0,-139,0,0,0,72,75,133,100,57,190.95,290,-16.00,20.00,-951.00
2024-05-17 15:49:31.132264,0,0,-133,0,0,0,72,75,133,100,57,190.97,290,-25.00,2.00,-981.00
2024-05-17 15:49:31.320125,0,0,-127,0,0,0,72,75,133,100,57,190.90,290,-35.00,26.00,-947.00
2024-05-17 15:49:31.336070,0,0,-121,0,0,0,72,75,134,100,57,190.93,290,-15.00,38.00,-986.00
2024-05-17 15:49:31.524947,0,0,-115,0,0,0,73,75,134,100,57,190.96,290,-17.00,4.00,-1019.00
2024-05-17 15:49:31.548351,0,0,-109,0,0,0,73,75,133,100,57,190.95,290,-2.00,-35.00,-1054.00
2024-05-17 15:49:31.647166,0,0,-103,0,0,0,73,75,133,100,57,190.94,290,-17.00,35.00,-984.00
2024-05-17 15:49:31.748338,0,0,-97,0,0,0,73,75,133,100,57,190.93,291,-4.00,13.00,-1064.00
2024-05-17 15:49:31.846154,0,0,-91,0,0,0,73,75,133,100,57,190.96,291,-16.00,4.00,-1034.00
2024-05-17 15:49:32.045149,0,0,-85,0,0,0,73,75,134,100,57,190.97,291,-1.00,9.00,-974.00
2024-05-17 15:49:32.055106,0,0,-79,0,0,0,73,75,134,100,57,191.00,291,7.00,-38.00,-1028.00
2024-05-17 15:49:32.152085,0,0,-72,0,0,0,73,75,134,100,57,191.04,291,-4.00,-17.00,-1028.00
2024-05-17 15:49:32.343632,0,0,-66,0,0,0,73,75,134,100,57,190.98,291,-11.00,17.00,-1031.00
2024-05-17 15:49:32.357216,0,0,-60,0,0,0,73,75,135,100,57,190.98,291,-14.00,21.00,-999.00
2024-05-17 15:49:32.458137,0,0,-53,0,0,0,73,75,134,100,57,190.96,291,-9.00,-2.00,-1037.00
2024-05-17 15:49:32.560743,0,0,-47,0,0,0,73,75,134,100,57,190.98,291,-4.00,-5.00,-978.00
2024-05-17 15:49:32.753288,0,0,-41,0,0,0,73,75,134,100,57,191.03,291,-22.00,3.00,-945.00
2024-05-17 15:49:32.763985,0,0,-34,0,0,0,73,75,134,100,57,191.00,292,2.00,14.00,-984.00
2024-05-17 15:49:32.962057,0,0,-28,0,0,0,73,75,134,100,57,190.94,292,-4.00,31.00,-1003.00
2024-05-17 15:49:32.968169,0,0,-22,0,0,0,73,75,134,100,57,191.01,292,-11.00,12.00,-971.00
2024-05-17 15:49:33.070080,0,0,-16,0,0,0,73,75,134,100,57,190.98,292,-34.00,5.00,-953.00
2024-05-17 15:49:33.267839,0,0,-12,0,0,0,73,75,134,100,57,191.05,292,-26.00,-11.00,-962.00
2024-05-17 15:49:33.274054,0,0,-9,0,0,0,73,75,134,100,57,191.01,292,-13.00,8.00,-994.00
2024-05-17 15:49:33.376035,0,0,-6,0,0,0,73,75,134,100,57,191.00,292,-25.00,25.00,-940.00
2024-05-17 15:49:33.574472,0,0,-4,0,0,0,73,75,133,100,57,191.03,292,-1.00,7.00,-984.00
2024-05-17 15:49:33.580025,0,0,-3,0,0,0,73,75,133,100,57,191.00,292,3.00,-17.00,-1043.00
2024-05-17 15:49:33.682150,0,0,-1,0,0,0,73,75,132,100,57,191.01,292,-24.00,25.00,-967.00
2024-05-17 15:49:33.733201,0,0,-1,0,0,0,73,75,132,100,57,190.98,293,-7.00,9.00,-1063.00
2024-05-17 15:49:33.883314,0,0,-1,0,0,0,73,75,132,100,57,190.97,293,-27.00,9.00,-985.00
2024-05-17 15:49:33.937068,0,0,0,0,0,0,73,75,131,100,57,190.92,293,-2.00,-8.00,-1015.00
2024-05-17 15:49:34.085056,0,0,0,0,0,0,73,75,131,100,57,190.97,293,-13.00,7.00,-1019.00
2024-05-17 15:49:34.141086,0,0,0,0,0,0,73,75,130,100,57,190.94,293,26.00,6.00,-1053.00
2024-05-17 15:49:34.291229,0,0,0,0,0,0,73,75,131,100,57,190.97,293,-1.00,3.00,-1050.00
2024-05-17 15:49:34.345133,0,0,0,0,0,0,73,75,130,100,57,191.01,293,11.00,-3.00,-1033.00
2024-05-17 15:49:34.496514,0,0,0,0,0,0,72,75,130,100,57,190.93,293,-4.00,2.00,-937.00
2024-05-17 15:49:34.549193,0,0,0,0,0,0,72,75,129,100,57,190.95,293,-8.00,42.00,-965.00
2024-05-17 15:49:34.701337,0,0,0,0,0,0,72,75,129,100,57,190.94,293,22.00,7.00,-1052.00
2024-05-17 15:49:34.753073,0,0,0,0,0,0,72,75,129,100,57,190.95,294,2.00,-5.00,-1004.00
2024-05-17 15:49:34.913781,0,0,0,0,0,0,72,75,129,90,57,190.99,294,2.00,7.00,-989.00
2024-05-17 15:49:34.957489,0,0,0,0,0,0,72,75,130,90,57,191.01,294,1.00,18.00,-1014.00
2024-05-17 15:49:35.059060,0,0,0,0,0,0,72,75,130,100,57,191.00,294,3.00,10.00,-1037.00
2024-05-17 15:49:35.212094,0,0,0,0,0,0,72,75,131,100,57,191.04,294,5.00,-4.00,-974.00
2024-05-17 15:49:35.263070,0,0,0,0,0,0,72,75,131,100,57,190.99,294,15.00,19.00,-1015.00
2024-05-17 15:49:35.416933,0,0,0,0,0,0,72,75,132,100,57,191.00,294,-2.00,7.00,-975.00
2024-05-17 15:49:35.470301,0,0,0,0,0,0,72,75,132,100,57,191.05,294,11.00,3.00,-994.00
2024-05-17 15:49:35.570588,0,0,0,0,0,0,72,75,132,100,57,190.99,294,16.00,4.00,-962.00
2024-05-17 15:49:35.674125,0,0,0,0,0,0,72,75,132,100,57,190.97,294,-17.00,27.00,-976.00
2024-05-17 15:49:35.774488,0,0,-1,0,0,0,72,75,131,100,57,191.02,295,-9.00,35.00,-1011.00
2024-05-17 15:49:35.875069,0,0,-6,0,0,0,72,75,131,100,57,191.06,295,-19.00,-3.00,-946.00
2024-05-17 15:49:35.976893,0,0,-12,0,0,0,72,75,131,100,57,191.07,295,0.00,0.00,-969.00
2024-05-17 15:49:36.081763,0,0,-18,0,0,0,72,75,131,100,57,191.03,295,16.00,9.00,-1041.00
2024-05-17 15:49:36.180901,0,0,-24,0,0,0,72,75,132,100,57,190.97,295,8.00,3.00,-1020.00
2024-05-17 15:49:36.339330,0,0,-30,0,0,0,72,75,132,100,57,190.96,295,9.00,25.00,-1015.00
2024-05-17 15:49:36.385937,0,0,-36,0,0,0,72,75,132,100,57,191.03,295,-6.00,5.00,-966.00
2024-05-17 15:49:36.544445,0,0,-42,0,0,0,73,76,132,100,57,190.99,295,-6.00,8.00,-970.00
2024-05-17 15:49:36.593707,0,0,-48,0,0,0,73,76,132,100,57,190.98,295,13.00,26.00,-941.00
2024-05-17 15:49:36.693079,0,0,-54,0,0,0,73,76,132,100,57,191.03,295,-21.00,43.00,-992.00
2024-05-17 15:49:36.853340,0,0,-60,0,0,0,73,76,132,100,57,191.01,296,28.00,10.00,-1109.00
2024-05-17 15:49:36.895852,0,0,-66,0,0,0,73,76,132,100,57,190.96,296,-6.00,-3.00,-909.00
2024-05-17 15:49:37.053898,0,0,-72,0,0,0,73,76,132,100,57,191.02,296,3.00,-1.00,-1004.00
2024-05-17 15:49:37.099792,0,0,-78,0,0,0,73,76,132,100,56,191.00,296,-17.00,19.00,-946.00
2024-05-17 15:49:37.262545,0,0,-84,0,0,0,73,76,131,100,56,190.98,296,-6.00,18.00,-1007.00
2024-05-17 15:49:37.303805,0,0,-90,0,0,0,73,76,131,100,56,191.02,296,-3.00,1.00,-1039.00
2024-05-17 15:49:37.465176,0,0,-97,0,0,0,73,76,131,100,56,191.09,296,-10.00,5.00,-1036.00
2024-05-17 15:49:37.510114,0,0,-103,0,0,0,73,76,130,100,56,191.00,296,-25.00,11.00,-959.00
2024-05-17 15:49:37.609858,0,0,-109,0,0,0,73,76,130,100,56,190.97,296,-39.00,16.00,-907.00
2024-05-17 15:49:37.773727,0,0,-115,0,0,0,73,76,130,100,56,190.96,296,-7.00,15.00,-1011.00
2024-05-17 15:49:37.814404,0,0,-121,0,0,0,73,76,130,100,56,190.97,297,-34.00,16.00,-973.00
2024-05-17 15:49:37.864768,0,0,-128,0,0,0,73,76,130,100,56,190.99,297,-21.00,11.00,-998.00
2024-05-17 15:49:37.978276,0,0,-134,0,0,0,73,76,130,100,56,190.99,297,-34.00,10.00,-934.00
2024-05-17 15:49:38.068814,0,0,-140,0,0,0,73,76,129,100,56,190.87,297,-31.00,8.00,-921.00
2024-05-17 15:49:38.170941,0,0,-146,0,0,0,73,76,129,90,56,191.00,297,-18.00,-17.00,-1004.00
2024-05-17 15:49:38.272653,0,0,-153,0,0,0,73,76,129,90,56,190.93,297,-29.00,-16.00,-968.00
2024-05-17 15:49:38.375558,0,0,-159,0,0,0,73,76,129,90,56,190.93,297,-39.00,29.00,-936.00
2024-05-17 15:49:38.477902,0,0,-165,0,0,0,72,75,128,90,56,190.92,297,-11.00,27.00,-1010.00
2024-05-17 15:49:38.580493,0,0,-172,0,0,0,72,75,127,90,56,190.95,297,-5.00,-10.00,-1101.00
2024-05-17 15:49:38.682822,0,0,-178,0,0,0,72,75,127,90,56,190.95,297,-13.00,-29.00,-1017.00
2024-05-17 15:49:38.786792,0,0,175,0,0,0,72,75,127,90,56,190.94,298,-3.00,-33.00,-998.00
2024-05-17 15:49:38.884769,0,0,169,0,0,0,72,75,127,90,56,190.97,298,-1.00,-1.00,-1042.00
2024-05-17 15:49:38.999637,0,0,162,0,0,0,72,75,127,90,56,191.01,298,0.00,-48.00,-1010.00
2024-05-17 15:49:39.088778,0,0,156,0,0,0,72,75,127,90,56,190.90,298,9.00,-36.00,-1023.00
2024-05-17 15:49:39.206413,0,0,150,0,0,0,72,75,127,90,56,190.99,298,-3.00,-35.00,-987.00
2024-05-17 15:49:39.292702,0,0,144,0,0,0,72,75,128,90,56,190.87,298,15.00,-22.00,-1053.00
2024-05-17 15:49:39.410908,0,0,138,0,0,0,72,75,128,90,56,190.90,298,9.00,-26.00,-1039.00
2024-05-17 15:49:39.496744,0,0,131,0,0,0,73,75,128,90,56,190.97,298,-18.00,17.00,-924.00
2024-05-17 15:49:39.614018,0,0,126,0,0,0,73,75,128,90,56,191.02,298,11.00,21.00,-1028.00
2024-05-17 15:49:39.701892,0,0,120,0,0,0,73,75,129,90,56,191.04,298,8.00,-20.00,-1002.00
2024-05-17 15:49:39.802711,0,0,114,0,0,0,73,75,130,90,56,190.99,299,0.00,8.00,-987.00
2024-05-17 15:49:39.924192,0,0,108,0,0,0,73,75,131,90,56,191.00,299,5.00,-42.00,-973.00
2024-05-17 15:49:40.010773,0,0,102,0,0,0,73,75,131,100,56,191.03,299,12.00,-7.00,-1025.00
2024-05-17 15:49:40.108710,0,0,96,0,0,0,73,75,130,100,56,191.04,299,1.00,6.00,-1001.00
2024-05-17 15:49:40.228336,0,-1,90,0,0,0,73,75,131,100,56,191.00,299,3.00,20.00,-1005.00
2024-05-17 15:49:40.312710,0,0,84,0,0,0,73,75,132,100,56,190.92,299,11.00,-10.00,-991.00
2024-05-17 15:49:40.415676,0,0,78,0,0,0,73,75,132,100,56,190.99,299,19.00,2.00,-1000.00
2024-05-17 15:49:40.535949,0,0,72,0,0,0,73,75,132,100,56,191.04,299,21.00,48.00,-1016.00
2024-05-17 15:49:40.620209,0,0,66,0,0,0,73,75,132,100,56,191.01,299,5.00,35.00,-970.00
2024-05-17 15:49:40.720826,0,0,60,0,0,0,73,75,132,100,56,191.00,299,-3.00,22.00,-972.00
2024-05-17 15:49:40.845484,0,0,54,0,0,0,73,75,132,100,56,191.02,300,3.00,10.00,-975.00
2024-05-17 15:49:40.925383,0,-1,48,0,0,0,73,75,132,100,56,190.97,300,-2.00,41.00,-946.00
2024-05-17 15:49:41.047728,0,0,42,0,0,0,73,75,132,100,56,190.93,300,11.00,-21.00,-1044.00
2024-05-17 15:49:41.128691,0,0,36,0,0,0,73,75,132,100,55,191.03,300,0.00,20.00,-986.00
2024-05-17 15:49:41.252417,0,0,30,0,0,0,73,75,131,100,55,191.03,300,7.00,-14.00,-1046.00
2024-05-17 15:49:41.332668,0,0,24,0,0,0,73,75,131,100,55,190.99,300,-1.00,0.00,-1010.00
2024-05-17 15:49:41.383655,0,0,18,0,0,0,73,75,131,100,55,191.01,300,10.00,13.00,-974.00
2024-05-17 15:49:41.559649,0,0,13,0,0,0,73,75,131,100,55,190.98,300,17.00,-18.00,-1067.00
2024-05-17 15:49:41.638800,0,0,10,0,0,0,73,75,131,100,55,191.00,300,1.00,12.00,-978.00
2024-05-17 15:49:41.764519,0,-1,7,0,0,0,73,75,131,100,55,191.04,300,-8.00,4.00,-966.00
2024-05-17 15:49:41.791625,0,-1,5,0,0,0,73,75,130,100,55,191.03,301,-28.00,40.00,-939.00
2024-05-17 15:49:41.969415,0,-1,4,0,0,0,73,75,131,100,55,191.04,301,0.00,27.00,-1026.00
2024-05-17 15:49:41.995613,0,-1,2,0,0,0,73,75,131,100,55,191.01,301,-18.00,-12.00,-1008.00
2024-05-17 15:49:42.097574,0,-1,2,0,0,0,73,75,131,100,55,191.02,301,-5.00,19.00,-993.00
2024-05-17 15:49:42.199486,0,-1,1,0,0,0,73,75,131,100,55,191.01,301,4.00,27.00,-996.00
2024-05-17 15:49:42.380620,0,-1,0,0,0,0,73,75,131,100,55,191.06,301,14.00,23.00,-1056.00
2024-05-17 15:49:42.403720,0,-1,0,0,0,0,73,75,131,100,55,191.06,301,6.00,-2.00,-1029.00
2024-05-17 15:49:42.585719,0,-1,0,0,0,0,72,75,131,100,55,191.03,301,-9.00,14.00,-1013.00
2024-05-17 15:49:42.607699,0,-1,0,0,0,0,72,75,132,100,55,191.00,301,-6.00,30.00,-1026.00
2024-05-17 15:49:42.790344,0,-1,0,0,0,0,72,75,132,100,55,190.96,302,-17.00,55.00,-977.00
2024-05-17 15:49:42.811778,0,-1,0,0,0,0,72,75,132,100,55,190.99,302,-8.00,6.00,-954.00
2024-05-17 15:49:42.995090,0,-1,0,0,0,0,72,75,132,100,55,191.07,302,4.00,3.00,-1033.00
2024-05-17 15:49:43.015618,0,-1,0,0,0,0,72,75,132,100,55,191.05,302,7.00,9.00,-1053.00
2024-05-17 15:49:43.117740,0,-1,0,0,0,0,72,75,133,100,55,191.03,302,2.00,-4.00,-1014.00
2024-05-17 15:49:43.302246,0,-1,0,0,0,0,72,75,133,100,55,191.03,302,1.00,23.00,-1046.00
2024-05-17 15:49:43.321569,0,-1,0,0,0,0,72,75,132,100,55,191.02,302,-14.00,48.00,-960.00
2024-05-17 15:49:43.507224,0,-1,0,0,0,0,72,75,132,100,55,191.05,302,-17.00,52.00,-945.00
2024-05-17 15:49:43.525627,0,-1,0,0,0,0,71,75,132,100,55,191.04,302,-11.00,21.00,-961.00
2024-05-17 15:49:43.712241,0,-1,0,0,0,0,71,75,132,100,55,191.04,302,-11.00,2.00,-1004.00
2024-05-17 15:49:43.730695,0,-1,0,0,0,0,71,75,132,100,55,191.00,303,9.00,19.00,-1044.00
2024-05-17 15:49:43.831679,0,-1,0,0,0,0,71,75,132,100,55,190.97,303,-6.00,61.00,-946.00
2024-05-17 15:49:43.933658,0,-1,0,0,0,0,71,75,132,100,55,191.03,303,11.00,1.00,-1081.00
2024-05-17 15:49:44.122450,0,-1,0,0,0,0,71,75,132,100,55,191.06,303,-4.00,31.00,-988.00
2024-05-17 15:49:44.139235,0,-1,0,0,0,0,71,75,133,100,55,191.06,303,0.00,12.00,-988.00
2024-05-17 15:49:44.239487,0,-1,0,0,0,0,71,75,133,100,55,191.12,303,3.00,2.00,-1003.00
2024-05-17 15:49:44.426924,0,-1,0,0,0,-4,71,75,134,100,55,191.08,303,-25.00,52.00,-1592.00
2024-05-17 15:49:44.447885,0,-6,0,0,0,-10,71,75,141,110,55,191.15,303,25.00,57.00,-1556.00
2024-05-17 15:49:44.546921,-2,-86,0,0,-4,-12,72,76,205,120,55,191.30,303,-2.00,468.00,-1063.00
2024-05-17 15:49:44.647812,2,146,4,0,-9,0,72,76,166,130,55,191.59,303,-17.00,561.00,-1030.00
2024-05-17 15:49:44.836501,2,32,-5,0,-4,11,72,76,366,120,55,191.70,304,-37.00,365.00,-1261.00
2024-05-17 15:49:44.851484,0,0,-6,0,-1,9,72,76,150,110,55,191.08,304,-20.00,-160.00,-1487.00
2024-05-17 15:49:45.041344,0,2,-7,0,-1,6,72,76,142,100,55,191.07,304,21.00,18.00,-1448.00
2024-05-17 15:49:45.055440,0,1,-1,0,-1,2,72,76,138,100,55,191.14,304,38.00,25.00,-1258.00
2024-05-17 15:49:45.247707,0,0,0,0,0,1,72,76,136,90,55,191.15,304,-12.00,18.00,-1119.00
2024-05-17 15:49:45.247749,0,0,0,0,0,0,72,76,137,90,55,191.15,304,2.00,12.00,-1096.00
2024-05-17 15:49:45.311493,0,0,0,0,0,0,72,76,138,90,55,191.06,304,11.00,25.00,-1073.00
2024-05-17 15:49:45.451878,0,2,0,0,0,0,72,76,140,90,55,191.08,304,1.00,-5.00,-987.00
2024-05-17 15:49:45.655763,0,1,0,0,0,0,72,75,142,90,55,191.17,304,-8.00,30.00,-939.00
2024-05-17 15:49:45.668448,0,0,0,0,0,0,72,75,144,90,55,191.18,304,17.00,-26.00,-927.00
2024-05-17 15:49:45.860504,0,0,0,0,0,0,72,75,146,100,55,191.21,305,-12.00,23.00,-994.00
2024-05-17 15:49:45.860543,0,0,0,0,0,0,72,75,146,100,55,191.24,305,11.00,-7.00,-973.00
2024-05-17 15:49:45.923524,0,0,0,0,0,0,72,75,147,100,55,191.18,305,14.00,-3.00,-915.00
2024-05-17 15:49:46.065367,0,0,0,0,0,0,72,75,147,100,55,191.19,305,0.00,-13.00,-941.00
2024-05-17 15:49:46.127373,0,0,0,0,0,0,72,75,147,100,55,191.14,305,-5.00,20.00,-953.00
2024-05-17 15:49:46.272056,0,0,0,0,0,0,72,75,148,100,55,191.11,305,0.00,44.00,-1000.00
2024-05-17 15:49:46.331390,0,0,0,0,0,0,72,75,149,100,55,191.16,305,-5.00,46.00,-1026.00
2024-05-17 15:49:46.433384,0,0,0,0,0,0,72,75,148,100,55,191.19,305,18.00,4.00,-959.00
2024-05-17 15:49:46.579229,0,0,0,0,0,0,73,75,149,100,55,191.17,305,4.00,-16.00,-1026.00
2024-05-17 15:49:46.637358,0,0,1,0,0,0,73,75,149,100,55,191.15,305,-3.00,35.00,-942.00
2024-05-17 15:49:46.784057,0,0,1,0,0,0,73,75,148,100,55,191.16,306,6.00,-14.00,-951.00
2024-05-17 15:49:46.841376,0,0,1,0,0,0,73,75,149,100,55,191.19,306,-11.00,36.00,-918.00
2024-05-17 15:49:46.988822,0,0,1,0,0,0,73,75,149,100,55,191.20,306,3.00,18.00,-1007.00
2024-05-17 15:49:47.045434,0,0,1,0,0,0,73,75,149,100,55,191.16,306,-9.00,-9.00,-999.00
2024-05-17 15:49:47.191605,0,0,0,0,0,0,73,75,148,100,54,191.14,306,-8.00,-14.00,-948.00
2024-05-17 15:49:47.249338,0,0,0,0,0,0,73,75,148,100,54,191.24,306,-15.00,2.00,-893.00
2024-05-17 15:49:47.398042,0,0,0,0,0,0,73,75,147,100,54,191.15,306,-4.00,5.00,-947.00
2024-05-17 15:49:47.453330,0,0,0,0,0,0,73,75,148,100,54,191.25,306,6.00,-22.00,-1006.00
2024-05-17 15:49:47.601489,0,0,0,0,0,0,72,75,148,100,54,191.26,306,-8.00,46.00,-964.00
2024-05-17 15:49:47.657433,0,0,0,0,0,0,72,75,147,100,54,191.09,306,0.00,6.00,-1059.00
2024-05-17 15:49:47.759435,0,0,0,0,0,0,72,75,146,100,54,191.20,307,10.00,-16.00,-992.00
2024-05-17 15:49:47.861455,0,0,0,0,0,0,72,75,146,100,54,191.18,307,-4.00,-7.00,-972.00
2024-05-17 15:49:48.011013,0,0,0,0,0,0,72,75,145,100,54,191.12,307,-13.00,2.00,-970.00
2024-05-17 15:49:48.065407,0,0,0,0,0,0,72,75,145,100,54,191.16,307,6.00,-22.00,-1007.00
2024-05-17 15:49:48.215898,0,0,0,0,0,0,72,75,144,100,54,191.10,307,4.00,-15.00,-1049.00
2024-05-17 15:49:48.274921,0,0,0,0,0,0,72,75,144,100,54,191.10,307,0.00,0.00,-1033.00
2024-05-17 15:49:48.371590,0,0,0,0,0,0,72,75,143,100,54,191.10,307,-9.00,25.00,-1045.00
2024-05-17 15:49:48.522817,0,0,0,0,0,0,72,75,142,100,54,191.10,307,-28.00,10.00,-924.00
2024-05-17 15:49:48.575711,0,0,0,0,0,0,72,75,142,100,54,191.09,307,22.00,-23.00,-1018.00
2024-05-17 15:49:48.727583,0,0,0,0,0,0,72,75,142,100,54,191.13,307,-9.00,-9.00,-929.00
2024-05-17 15:49:48.779603,0,0,0,0,0,0,72,75,142,100,54,191.13,308,-6.00,-26.00,-1068.00
2024-05-17 15:49:48.932949,0,0,0,0,0,0,72,75,141,100,54,191.15,308,9.00,16.00,-1047.00
2024-05-17 15:49:48.933076,0,0,0,0,0,0,72,75,142,100,54,191.13,308,-4.00,36.00,-1024.00
2024-05-17 15:49:49.035583,0,0,0,0,0,0,72,75,141,100,54,191.12,308,-7.00,-6.00,-1020.00
2024-05-17 15:49:49.138730,0,0,0,0,0,0,72,75,142,100,53,191.16,308,-8.00,24.00,-988.00
2024-05-17 15:49:49.239868,0,0,0,0,0,0,72,75,142,100,53,191.12,308,-10.00,-1.00,-943.00
2024-05-17 15:49:49.342669,0,0,0,0,0,0,72,75,142,100,53,191.11,308,0.00,14.00,-987.00
2024-05-17 15:49:49.442451,0,0,0,0,0,0,72,75,142,100,53,191.09,308,-12.00,2.00,-913.00
2024-05-17 15:49:49.549019,0,0,0,0,0,0,72,75,141,100,53,191.06,308,13.00,20.00,-1058.00
2024-05-17 15:49:49.646508,0,0,0,0,0,0,72,75,141,100,53,191.10,308,8.00,20.00,-984.00
2024-05-17 15:49:49.752105,0,0,0,0,0,0,72,75,141,100,53,191.14,309,0.00,7.00,-969.00
2024-05-17 15:49:49.850327,0,0,0,0,0,0,72,75,140,100,53,191.04,309,9.00,-2.00,-1026.00
2024-05-17 15:49:49.957021,0,0,0,0,0,0,72,75,140,100,53,191.21,309,-4.00,33.00,-987.00
2024-05-17 15:49:50.054797,0,0,0,0,0,0,72,75,140,100,53,191.15,309,-10.00,9.00,-950.00
2024-05-17 15:49:50.163456,0,0,0,0,0,0,72,75,139,100,53,191.14,309,5.00,-4.00,-1034.00
2024-05-17 15:49:50.258732,0,0,0,0,0,0,72,75,140,100,53,191.04,309,0.00,36.00,-1011.00
2024-05-17 15:49:50.368222,0,0,0,0,0,0,72,75,140,100,53,191.12,309,1.00,17.00,-1016.00
2024-05-17 15:49:50.462324,0,0,0,0,0,0,72,75,140,100,53,191.16,309,1.00,9.00,-1005.00
2024-05-17 15:49:50.564582,0,0,0,0,0,0,71,75,140,100,53,191.15,309,5.00,-4.00,-1034.00
2024-05-17 15:49:50.673618,0,0,0,0,0,0,71,75,140,100,53,191.08,309,-2.00,2.00,-930.00
2024-05-17 15:49:50.768183,0,0,0,0,0,0,71,75,140,100,53,191.09,310,0.00,23.00,-1032.00
2024-05-17 15:49:50.880023,0,0,0,0,0,0,71,75,141,100,53,191.23,310,47.00,-70.00,-1498.00
2024-05-17 15:49:50.972489,0,0,0,0,0,-6,71,75,146,100,53,191.31,310,32.00,10.00,-1725.00
2024-05-17 15:49:51.083191,0,23,0,0,1,-12,71,75,183,110,53,191.40,310,32.00,198.00,-1660.00
2024-05-17 15:49:51.176426,0,132,0,0,9,-9,71,75,196,120,53,191.53,310,-17.00,786.00,-1032.00
2024-05-17 15:49:51.278177,1,-106,1,0,9,6,71,75,237,120,53,191.59,310,6.00,708.00,-930.00
2024-05-17 15:49:51.380387,0,-5,1,0,4,11,71,75,156,110,53,191.38,310,-68.00,384.00,-966.00
2024-05-17 15:49:51.482674,0,2,-1,0,5,9,71,75,146,100,53,191.19,310,-17.00,31.00,-1459.00
2024-05-17 15:49:51.585603,0,-4,-6,0,5,4,73,74,140,100,53,191.12,310,49.00,-3.00,-1363.00
2024-05-17 15:49:51.693278,0,-5,-5,0,4,1,73,74,138,90,53,191.14,310,46.00,-8.00,-1164.00
2024-05-17 15:49:51.790329,0,-3,0,0,3,0,73,74,137,90,53,191.11,311,-7.00,23.00,-1111.00
2024-05-17 15:49:51.891990,0,-3,1,0,3,0,73,74,137,90,53,191.15,311,1.00,15.00,-1108.00
2024-05-17 15:49:51.991958,0,-2,1,0,2,-1,73,74,137,90,53,191.12,311,0.00,12.00,-1015.00
2024-05-17 15:49:52.110796,0,-1,1,0,1,-1,73,74,138,90,53,191.12,311,13.00,-11.00,-981.00
2024-05-17 15:49:52.196023,0,0,1,0,1,-1,73,74,140,90,53,191.14,311,1.00,47.00,-944.00
2024-05-17 15:49:52.312925,0,0,1,0,1,0,73,74,141,90,53,191.14,311,16.00,25.00,-961.00
2024-05-17 15:49:52.399933,0,-1,1,0,1,0,73,74,142,90,53,191.12,311,-1.00,28.00,-918.00
2024-05-17 15:49:52.516584,0,-3,1,0,1,0,73,74,144,90,53,191.12,311,12.00,-35.00,-1047.00
2024-05-17 15:49:52.608798,0,-3,1,0,0,0,72,74,144,90,53,191.11,311,6.00,10.00,-1039.00
2024-05-17 15:49:52.706135,0,-2,1,0,0,0,72,74,143,90,53,191.12,311,6.00,14.00,-960.00
2024-05-17 15:49:52.808629,0,-2,1,0,0,0,72,74,143,90,53,191.04,312,0.00,16.00,-978.00
2024-05-17 15:49:52.911023,0,-2,1,0,0,0,72,74,143,90,53,191.12,312,-2.00,36.00,-984.00
2024-05-17 15:49:53.012265,0,-2,1,0,0,0,72,74,144,90,53,191.08,312,-27.00,16.00,-895.00
2024-05-17 15:49:53.063272,0,-2,1,0,0,0,72,74,143,90,52,191.16,312,5.00,-18.00,-1054.00
2024-05-17 15:49:53.233412,0,-2,1,0,0,0,72,74,143,90,52,191.11,312,28.00,20.00,-1053.00
2024-05-17 15:49:53.267020,0,-2,1,0,0,0,72,74,144,90,52,191.11,312,-11.00,12.00,-967.00
2024-05-17 15:49:53.438018,0,-1,1,0,0,0,72,74,144,90,52,191.14,312,-11.00,32.00,-962.00
2024-05-17 15:49:53.471644,0,-1,1,0,0,0,72,74,143,100,52,191.10,312,-10.00,11.00,-980.00
2024-05-17 15:49:53.642684,0,-1,1,0,0,0,72,74,143,100,52,191.08,312,-5.00,14.00,-1033.00
2024-05-17 15:49:53.677007,0,-1,1,0,0,0,72,74,143,100,52,191.13,312,-33.00,51.00,-913.00
2024-05-17 15:49:53.777044,0,-1,1,0,0,0,72,74,143,100,52,191.15,313,2.00,20.00,-997.00
2024-05-17 15:49:53.949878,0,-1,0,0,0,0,72,74,144,100,52,191.06,313,10.00,42.00,-1023.00
2024-05-17 15:49:53.981012,0,-1,0,0,0,0,72,74,144,100,52,191.10,313,18.00,-3.00,-1022.00
2024-05-17 15:49:54.155190,0,-1,0,0,0,0,72,74,144,100,52,191.10,313,1.00,10.00,-945.00
2024-05-17 15:49:54.185325,0,-1,0,0,0,0,72,74,143,100,52,191.11,313,19.00,9.00,-1052.00
2024-05-17 15:49:54.364719,0,-1,0,0,0,0,72,74,143,100,52,191.10,313,-2.00,12.00,-1005.00
2024-05-17 15:49:54.399233,0,-1,0,0,0,0,72,74,143,100,52,191.09,313,-7.00,34.00,-969.00
2024-05-17 15:49:54.491702,0,-1,0,0,0,0,72,74,142,100,52,191.14,313,-1.00,25.00,-952.00
2024-05-17 15:49:54.669936,0,-1,0,0,0,0,71,75,141,90,52,191.06,313,2.00,28.00,-1038.00
2024-05-17 15:49:54.695108,0,-1,0,0,0,0,71,75,141,90,52,191.11,313,-7.00,25.00,-959.00
2024-05-17 15:49:54.871985,0,-1,0,0,0,0,71,75,141,90,52,191.07,314,-11.00,13.00,-976.00
2024-05-17 15:49:54.902279,0,-1,0,0,0,0,71,75,141,90,52,191.12,314,5.00,3.00,-1023.00
2024-05-17 15:49:55.001400,0,-1,0,0,0,0,71,75,140,90,52,191.06,314,6.00,9.00,-1053.00
2024-05-17 15:49:55.178847,0,-1,0,0,0,0,71,75,140,90,51,191.05,314,-4.00,33.00,-977.00
2024-05-17 15:49:55.205239,0,-1,0,0,0,0,71,75,140,90,51,191.06,314,3.00,-4.00,-1004.00
2024-05-17 15:49:55.383622,0,-1,0,0,0,0,71,75,140,90,51,191.11,314,4.00,6.00,-1047.00
2024-05-17 15:49:55.412888,0,-1,0,0,0,0,71,75,140,90,51,191.06,314,-1.00,38.00,-1000.00
2024-05-17 15:49:55.511032,0,-1,0,0,0,0,71,75,140,90,51,191.05,314,-15.00,47.00,-963.00
2024-05-17 15:49:55.691136,0,-1,0,0,0,0,71,75,140,90,51,191.09,314,-9.00,28.00,-947.00
2024-05-17 15:49:55.715430,0,-1,0,0,0,0,71,75,141,90,51,191.12,314,0.00,29.00,-976.00
2024-05-17 15:49:55.896700,0,-1,0,0,0,0,71,75,142,90,51,191.14,315,-12.00,52.00,-907.00
2024-05-17 15:49:55.918891,0,-1,0,0,0,0,71,75,142,90,51,191.15,315,-9.00,50.00,-980.00
2024-05-17 15:49:56.100432,0,-1,0,0,0,0,71,75,143,90,51,191.10,315,3.00,-18.00,-1027.00
2024-05-17 15:49:56.122999,0,-1,0,0,0,0,71,75,143,90,51,191.12,315,-1.00,51.00,-994.00
2024-05-17 15:49:56.305588,0,-1,0,0,0,0,71,75,144,90,51,191.19,315,-2.00,21.00,-996.00
2024-05-17 15:49:56.326910,0,-1,0,0,0,0,71,75,145,90,51,191.15,315,0.00,17.00,-982.00
2024-05-17 15:49:56.428990,0,-1,0,0,0,0,71,75,145,90,51,191.18,315,3.00,37.00,-995.00
2024-05-17 15:49:56.479890,0,0,0,0,0,0,71,75,146,100,51,191.16,315,9.00,0.00,-947.00
2024-05-17 15:49:56.632966,0,0,0,0,0,0,72,75,146,100,51,191.18,315,-11.00,1.00,-952.00
2024-05-17 15:49:56.683877,0,-1,0,0,0,0,72,75,147,100,51,191.14,315,9.00,11.00,-978.00
2024-05-17 15:49:56.820094,0,-1,0,0,0,0,72,75,147,100,51,191.25,316,0.00,14.00,-1036.00
2024-05-17 15:49:56.889722,0,-1,1,0,0,0,72,75,148,100,51,191.24,316,-7.00,2.00,-976.00
2024-05-17 15:49:56.990051,0,-1,1,0,0,0,72,75,148,100,51,191.20,316,-5.00,24.00,-924.00
2024-05-17 15:49:57.095151,0,-1,1,0,0,0,72,75,148,100,51,191.18,316,10.00,15.00,-980.00
2024-05-17 15:49:57.199615,0,-1,1,0,0,0,72,75,148,100,51,191.19,316,-9.00,2.00,-997.00
2024-05-17 15:49:57.296868,0,-1,0,0,0,0,72,75,148,100,51,191.26,316,-8.00,25.00,-985.00
2024-05-17 15:49:57.397794,0,-1,0,0,0,0,72,75,148,100,51,191.22,316,-15.00,36.00,-937.00
2024-05-17 15:49:57.533866,0,-1,0,0,0,0,72,75,148,100,51,191.32,316,22.00,1.00,-1097.00
2024-05-17 15:49:57.601878,0,0,0,0,0,-1,72,74,152,100,51,191.36,316,-12.00,32.00,-950.00
2024-05-17 15:49:57.738834,-1,0,0,0,0,-7,72,74,163,100,51,191.57,316,14.00,-5.00,-1399.00
2024-05-17 15:49:57.805867,-36,0,0,2,0,-13,72,74,507,110,51,191.60,317,-7.00,54.00,-1735.00
2024-05-17 15:49:57.943463,-29,178,-178,9,0,-7,72,74,197,130,51,191.27,317,-17.00,31.00,-1674.00
2024-05-17 15:49:58.010467,86,-3,-2,9,0,8,72,74,182,130,51,191.28,317,703.00,28.00,-1225.00
2024-05-17 15:49:58.148772,-5,1,-2,3,0,12,72,74,160,110,51,191.44,317,703.00,30.00,-931.00
2024-05-17 15:49:58.213803,-4,2,-7,5,1,8,72,74,148,100,51,191.22,317,572.00,21.00,-1120.00
