TS,pitch,roll,yaw,vgx,vgy,vgz,templ,temph,tof,h,bat,baro,time,agx,agy,agz
2024-05-17 15:50:45.969083,0,0,0,0,0,0,76,78,10,0,50,189.63,331,0.00,8.00,-1000.00
2024-05-17 15:50:46.054318,0,0,0,0,0,0,76,78,10,0,50,189.62,331,2.00,10.00,-998.00
2024-05-17 15:50:46.153558,0,0,0,0,0,0,76,78,10,0,50,189.67,331,1.00,9.00,-1000.00
2024-05-17 15:50:46.276465,0,0,0,0,0,0,76,78,10,0,50,189.70,331,1.00,9.00,-998.00
2024-05-17 15:50:46.357371,0,0,0,0,0,0,76,78,10,0,50,189.64,331,2.00,9.00,-998.00
2024-05-17 15:50:46.480954,0,0,0,0,0,0,76,78,10,0,50,189.68,331,1.00,10.00,-999.00
2024-05-17 15:50:46.561486,0,0,0,0,0,0,76,78,10,0,50,189.64,331,3.00,9.00,-999.00
2024-05-17 15:50:46.685837,0,0,0,0,0,0,76,78,10,0,50,189.66,331,3.00,9.00,-997.00
2024-05-17 15:50:46.765436,0,0,0,0,0,0,76,78,10,0,50,189.67,331,0.00,7.00,-999.00
2024-05-17 15:50:46.893093,0,0,0,0,0,0,75,79,10,0,50,189.65,331,2.00,10.00,-999.00
2024-05-17 15:50:46.969387,0,0,0,0,0,0,75,79,10,0,50,189.65,331,2.00,9.00,-999.00
2024-05-17 15:50:47.095869,0,0,0,0,0,0,75,79,10,0,50,189.62,331,2.00,10.00,-997.00
2024-05-17 15:50:47.173446,0,0,0,0,0,0,75,79,10,0,50,189.64,331,3.00,8.00,-999.00
2024-05-17 15:50:47.275412,0,0,0,0,0,0,75,79,10,0,50,189.66,331,2.00,9.00,-1001.00
2024-05-17 15:50:47.402447,0,0,0,0,0,0,75,79,10,0,50,189.63,331,2.00,9.00,-1000.00
2024-05-17 15:50:47.479403,0,0,0,0,0,0,75,79,10,0,50,189.68,331,1.00,9.00,-999.00
2024-05-17 15:50:47.608849,0,0,0,0,0,0,75,79,10,0,50,189.64,331,2.00,9.00,-1000.00
2024-05-17 15:50:47.683502,0,0,0,0,0,0,75,79,10,0,50,189.63,331,1.00,9.00,-999.00
2024-05-17 15:50:47.812576,0,0,0,0,0,0,75,79,10,0,50,189.67,331,3.00,9.00,-1000.00
2024-05-17 15:50:47.887416,0,0,0,0,0,0,76,78,10,0,50,189.67,331,3.00,9.00,-999.00
2024-05-17 15:50:48.016967,0,0,0,0,0,0,76,78,10,0,50,189.70,331,1.00,9.00,-1002.00
2024-05-17 15:50:48.091418,0,0,0,0,0,0,76,78,10,0,50,189.65,331,1.00,8.00,-1001.00
2024-05-17 15:50:48.221675,0,0,0,0,0,0,76,78,10,0,50,189.68,331,3.00,10.00,-1001.00
2024-05-17 15:50:48.296289,0,0,0,0,0,0,76,78,10,0,50,189.67,331,2.00,10.00,-1000.00
2024-05-17 15:50:48.346617,0,0,0,0,0,0,76,78,10,0,50,189.68,331,0.00,9.00,-999.00
2024-05-17 15:50:48.539130,0,0,0,0,0,0,76,78,10,0,50,189.64,331,3.00,9.00,-1001.00
2024-05-17 15:50:48.550209,0,0,0,0,0,0,76,78,10,0,50,189.65,331,2.00,8.00,-999.00
2024-05-17 15:50:48.733865,0,0,0,0,0,0,76,78,10,0,50,189.62,331,0.00,9.00,-998.00
2024-05-17 15:50:48.754246,0,0,0,0,0,0,76,78,10,0,50,189.64,331,2.00,9.00,-1000.00
2024-05-17 15:50:48.938545,0,0,0,0,0,0,77,79,10,0,50,189.62,331,0.00,9.00,-997.00
2024-05-17 15:50:48.958212,0,0,0,0,0,0,77,79,10,0,50,189.60,331,2.00,8.00,-998.00
2024-05-17 15:50:49.143549,0,0,0,0,0,0,77,79,10,0,50,189.63,331,1.00,8.00,-1000.00
2024-05-17 15:50:49.162168,0,0,0,0,0,0,77,79,10,0,50,189.64,331,1.00,9.00,-999.00
2024-05-17 15:50:49.348886,0,0,0,0,0,0,77,79,10,0,50,189.67,331,1.00,9.00,-1001.00
2024-05-17 15:50:49.367233,0,0,0,0,0,0,77,79,10,0,50,189.66,331,1.00,9.00,-1000.00
2024-05-17 15:50:49.553016,0,0,0,0,0,0,77,79,10,0,50,189.61,331,1.00,10.00,-997.00
2024-05-17 15:50:49.571288,0,0,0,0,0,0,77,79,10,0,50,189.64,331,2.00,8.00,-997.00
2024-05-17 15:50:49.758414,0,0,0,0,0,0,77,79,10,0,50,189.69,331,0.00,7.00,-999.00
2024-05-17 15:50:49.775448,0,0,0,0,0,0,77,79,10,0,50,189.62,331,2.00,9.00,-1001.00
2024-05-17 15:50:49.966290,0,0,0,0,0,0,76,79,10,0,50,189.65,331,2.00,10.00,-1000.00
2024-05-17 15:50:49.979346,0,0,0,0,0,0,76,79,10,0,50,189.65,331,1.00,10.00,-1000.00
2024-05-17 15:50:50.168068,0,0,0,0,0,0,76,79,10,0,50,189.61,331,1.00,9.00,-999.00
2024-05-17 15:50:50.183485,0,0,0,0,0,0,76,79,10,0,50,189.68,331,1.00,9.00,-999.00
2024-05-17 15:50:50.285102,0,0,0,0,0,0,76,79,10,0,50,189.67,331,1.00,9.00,-999.00
2024-05-17 15:50:50.387575,0,0,0,0,0,0,76,79,10,0,50,189.67,331,9.00,4.00,-965.00
2024-05-17 15:50:50.489308,0,0,0,0,0,0,76,79,10,0,50,189.67,331,3.00,8.00,-999.00
2024-05-17 15:50:50.679224,0,0,0,0,0,0,76,79,10,0,50,189.67,331,-1.00,-2.00,-1005.00
2024-05-17 15:50:50.692965,0,0,1,0,0,0,76,79,10,0,50,189.67,331,21.00,-30.00,-960.00
2024-05-17 15:50:50.884749,0,0,2,0,0,0,76,79,10,0,50,189.67,331,-3.00,17.00,-1030.00
2024-05-17 15:50:50.897079,0,0,1,0,0,0,77,79,10,0,50,189.67,331,-11.00,23.00,-1159.00
2024-05-17 15:50:51.089084,0,0,1,0,0,-2,77,79,10,0,50,189.67,331,-27.00,14.00,-1327.00
2024-05-17 15:50:51.101082,0,0,1,0,0,-5,77,79,10,0,50,189.67,331,-31.00,-2.00,-1189.00
2024-05-17 15:50:51.296426,-1,0,1,0,0,-7,77,79,16,10,50,189.89,331,-1.00,-5.00,-1074.00
2024-05-17 15:50:51.305041,-1,0,1,0,0,-8,77,79,22,20,50,190.11,331,4.00,-3.00,-1007.00
2024-05-17 15:50:51.499016,0,0,1,0,0,-8,77,79,29,30,50,190.09,332,-22.00,19.00,-930.00
2024-05-17 15:50:51.509274,0,0,1,0,0,-7,77,79,37,30,50,190.14,332,-7.00,-36.00,-960.00
2024-05-17 15:50:51.703186,0,0,1,0,0,-7,77,79,45,40,50,190.29,332,-1.00,4.00,-909.00
2024-05-17 15:50:51.703498,0,0,1,0,0,-6,77,79,51,50,50,190.33,332,-26.00,14.00,-904.00
2024-05-17 15:50:51.763977,0,0,1,0,0,-5,77,79,56,50,50,190.40,332,-17.00,31.00,-846.00
2024-05-17 15:50:51.910432,0,0,1,0,0,-4,76,79,59,60,50,190.46,332,-5.00,-15.00,-916.00
2024-05-17 15:50:51.967942,-1,1,1,0,0,-3,76,79,60,60,50,190.49,332,-20.00,23.00,-880.00
2024-05-17 15:50:52.112806,0,0,1,0,0,-2,76,79,61,60,50,190.44,332,-2.00,6.00,-877.00
2024-05-17 15:50:52.171864,0,0,1,0,0,-1,76,79,62,60,50,190.51,332,0.00,-15.00,-978.00
2024-05-17 15:50:52.319700,0,0,1,0,0,-1,76,79,64,60,50,190.48,332,-8.00,17.00,-965.00
2024-05-17 15:50:52.376309,0,0,1,0,0,-1,76,79,65,60,50,190.55,333,-18.00,28.00,-990.00
2024-05-17 15:50:52.526066,0,0,1,0,0,-1,76,79,67,60,50,190.58,333,-17.00,-20.00,-1034.00
2024-05-17 15:50:52.579946,0,0,1,0,0,-1,76,79,68,70,50,190.53,333,-3.00,-23.00,-1067.00
2024-05-17 15:50:52.727951,0,0,1,0,0,-1,76,79,69,70,50,190.62,333,-20.00,2.00,-976.00
2024-05-17 15:50:52.783816,0,0,1,0,0,-1,76,79,70,70,50,190.62,333,-3.00,-5.00,-1020.00
2024-05-17 15:50:52.935242,0,0,1,0,0,-1,76,79,72,70,50,190.63,333,-1.00,-14.00,-1008.00
2024-05-17 15:50:52.988699,0,0,1,0,0,-1,76,79,73,70,50,190.63,333,2.00,6.00,-967.00
2024-05-17 15:50:53.138046,0,0,1,0,0,-1,76,79,73,70,50,190.59,333,5.00,-22.00,-1049.00
2024-05-17 15:50:53.192287,0,0,1,0,0,-1,76,79,74,70,50,190.55,333,12.00,11.00,-1018.00
2024-05-17 15:50:53.293790,0,0,1,0,0,-1,76,79,75,70,50,190.61,333,10.00,-4.00,-1073.00
2024-05-17 15:50:53.446971,0,0,1,0,0,0,76,79,75,70,50,190.59,334,14.00,-40.00,-1039.00
2024-05-17 15:50:53.498664,0,0,1,0,0,0,76,79,76,70,50,190.63,334,-10.00,1.00,-966.00
2024-05-17 15:50:53.600109,0,0,1,0,0,0,76,79,77,70,50,190.67,334,-1.00,8.00,-1002.00
2024-05-17 15:50:53.702067,0,0,1,0,0,0,76,79,78,70,50,190.68,334,-9.00,-49.00,-1034.00
2024-05-17 15:50:53.853662,0,0,1,0,0,0,76,79,79,70,50,190.67,334,-9.00,3.00,-1019.00
2024-05-17 15:50:53.905834,0,0,1,0,0,0,77,79,79,80,50,190.67,334,-14.00,21.00,-1009.00
2024-05-17 15:50:54.061428,0,0,1,0,0,0,77,79,80,80,50,190.68,334,-18.00,27.00,-962.00
2024-05-17 15:50:54.112180,0,0,1,0,0,0,77,79,81,80,50,190.70,334,-13.00,17.00,-1029.00
2024-05-17 15:50:54.212970,0,0,1,0,0,0,77,79,81,80,50,190.68,334,-6.00,1.00,-1041.00
2024-05-17 15:50:54.314996,0,0,1,0,0,0,77,79,82,80,50,190.74,334,3.00,-30.00,-1019.00
2024-05-17 15:50:54.415932,0,0,1,0,0,0,77,79,83,80,50,190.71,335,-11.00,-13.00,-940.00
2024-05-17 15:50:54.571066,0,0,1,0,0,0,77,79,84,80,50,190.73,335,5.00,26.00,-976.00
2024-05-17 15:50:54.619709,0,0,1,0,0,0,77,79,85,80,50,190.82,335,3.00,-41.00,-1021.00
2024-05-17 15:50:54.782600,0,0,1,0,0,0,77,79,85,80,50,190.78,335,-6.00,12.00,-954.00
2024-05-17 15:50:54.827172,0,0,1,0,0,0,77,79,86,80,50,190.81,335,-9.00,25.00,-1016.00
2024-05-17 15:50:54.925826,0,0,1,0,0,0,77,79,86,80,50,190.70,335,1.00,-24.00,-1027.00
2024-05-17 15:50:55.084951,0,0,1,0,0,0,77,79,86,80,50,190.74,335,-14.00,8.00,-936.00
2024-05-17 15:50:55.131263,0,0,1,0,0,0,77,79,87,80,50,190.76,335,-1.00,-13.00,-949.00
2024-05-17 15:50:55.231822,0,0,1,0,0,0,77,79,86,80,50,190.77,335,-4.00,24.00,-976.00
2024-05-17 15:50:55.333928,0,0,1,0,0,0,77,79,87,80,50,190.79,335,-9.00,-2.00,-984.00
2024-05-17 15:50:55.495192,0,0,1,0,0,0,77,79,87,80,50,190.79,336,-16.00,-7.00,-948.00
2024-05-17 15:50:55.537891,0,0,1,0,0,0,77,79,86,80,50,190.80,336,-5.00,0.00,-982.00
2024-05-17 15:50:55.590702,0,0,1,0,0,0,77,79,86,80,50,190.75,336,-14.00,-9.00,-980.00
2024-05-17 15:50:55.691114,0,0,1,0,0,0,77,79,86,80,50,190.85,336,-23.00,28.00,-962.00
2024-05-17 15:50:55.903160,0,0,1,0,0,0,77,79,86,80,50,190.78,336,-2.00,-34.00,-1030.00
2024-05-17 15:50:55.946227,0,0,1,0,0,0,76,78,86,80,50,190.74,336,-10.00,-2.00,-985.00
2024-05-17 15:50:56.107760,0,0,1,0,0,0,76,78,86,80,50,190.78,336,-5.00,2.00,-992.00
2024-05-17 15:50:56.107943,0,0,1,0,0,0,76,78,86,80,50,190.76,336,11.00,16.00,-1022.00
2024-05-17 15:50:56.203180,0,0,1,0,0,0,76,78,86,80,50,190.76,336,-11.00,32.00,-981.00
2024-05-17 15:50:56.302961,0,0,1,0,0,0,76,78,86,80,50,190.78,337,-11.00,29.00,-960.00
2024-05-17 15:50:56.404954,0,0,1,0,0,0,76,78,86,80,50,190.80,337,-4.00,26.00,-981.00
2024-05-17 15:50:56.516152,0,0,1,0,0,0,76,78,86,80,50,190.76,337,-9.00,26.00,-971.00
2024-05-17 15:50:56.609740,0,0,1,0,0,0,76,78,87,80,50,190.76,337,-2.00,38.00,-1021.00
2024-05-17 15:50:56.711133,0,0,1,0,0,0,76,78,87,80,50,190.77,337,-7.00,-5.00,-1018.00
2024-05-17 15:50:56.814106,0,0,1,0,0,0,76,78,87,80,50,190.74,337,5.00,-14.00,-1006.00
2024-05-17 15:50:56.916519,0,0,1,0,0,0,75,78,86,80,50,190.74,337,0.00,-10.00,-1005.00
2024-05-17 15:50:57.018415,0,0,1,0,0,0,75,78,86,80,50,190.72,337,4.00,-24.00,-972.00
2024-05-17 15:50:57.124074,0,0,1,0,0,0,75,78,86,80,50,190.72,337,4.00,34.00,-989.00
2024-05-17 15:50:57.226332,0,0,1,0,0,0,75,78,86,80,50,190.69,337,3.00,30.00,-1029.00
2024-05-17 15:50:57.323024,0,0,1,0,0,0,75,78,86,80,50,190.73,338,2.00,8.00,-1023.00
2024-05-17 15:50:57.424907,0,0,1,0,0,0,75,78,85,80,50,190.75,338,-2.00,5.00,-1153.00
2024-05-17 15:50:57.543836,0,0,1,0,0,-1,75,78,86,80,50,190.73,338,9.00,9.00,-1111.00
2024-05-17 15:50:57.628788,0,0,1,0,0,-2,75,78,87,80,50,190.77,338,5.00,35.00,-1116.00
2024-05-17 15:50:57.745477,0,0,1,0,0,-3,75,78,90,90,50,190.86,338,-13.00,12.00,-1067.00
2024-05-17 15:50:57.832806,0,0,1,0,0,-4,75,78,94,90,50,190.85,338,-13.00,10.00,-1075.00
2024-05-17 15:50:57.949603,0,0,1,0,0,-4,75,78,98,90,50,190.94,338,14.00,0.00,-1126.00
2024-05-17 15:50:58.036768,0,0,1,0,0,-5,75,78,103,100,50,190.97,338,13.00,13.00,-1080.00
2024-05-17 15:50:58.154395,0,0,1,0,0,-5,75,78,109,100,50,191.05,338,-1.00,-10.00,-968.00
2024-05-17 15:50:58.240832,0,0,1,0,0,-5,75,78,115,110,50,191.10,338,-5.00,16.00,-1019.00
2024-05-17 15:50:58.342976,0,0,1,0,0,-5,75,78,121,120,50,191.17,339,-4.00,21.00,-945.00
2024-05-17 15:50:58.462972,0,0,1,0,0,-5,75,78,127,120,50,191.20,339,4.00,27.00,-1042.00
2024-05-17 15:50:58.546953,0,0,1,0,0,-5,75,78,132,130,50,191.27,339,5.00,-28.00,-1020.00
2024-05-17 15:50:58.649475,0,0,1,0,0,-5,75,78,138,130,50,191.29,339,12.00,36.00,-1007.00
2024-05-17 15:50:58.772173,0,0,1,0,0,-5,75,78,144,140,50,191.33,339,15.00,3.00,-989.00
2024-05-17 15:50:58.852769,0,0,1,0,0,-4,75,78,148,140,50,191.38,339,-9.00,17.00,-965.00
2024-05-17 15:50:58.974238,0,0,1,0,0,-4,75,77,153,150,50,191.48,339,0.00,18.00,-957.00
2024-05-17 15:50:59.056676,0,0,1,0,0,-4,75,77,158,150,50,191.48,339,0.00,4.00,-974.00
2024-05-17 15:50:59.178473,0,0,1,0,0,-3,75,77,162,160,50,191.53,339,-1.00,10.00,-998.00
2024-05-17 15:50:59.211187,0,0,1,0,0,-3,75,77,165,160,50,191.57,339,-8.00,31.00,-956.00
2024-05-17 15:50:59.311609,0,0,1,0,0,-3,75,77,169,160,50,191.58,340,15.00,6.00,-993.00
2024-05-17 15:50:59.488190,0,0,1,0,0,-2,75,77,172,170,50,191.62,340,12.00,-20.00,-991.00
2024-05-17 15:50:59.515841,0,0,1,0,0,-2,75,77,174,170,50,191.63,340,4.00,-25.00,-997.00
2024-05-17 15:50:59.693619,0,0,1,0,0,-2,75,77,177,170,50,191.61,340,-2.00,13.00,-965.00
2024-05-17 15:50:59.719573,0,0,1,0,0,-1,75,77,179,170,50,191.68,340,-3.00,18.00,-925.00
2024-05-17 15:50:59.895151,0,0,1,0,0,-1,75,77,181,170,50,191.69,340,0.00,21.00,-958.00
2024-05-17 15:50:59.925045,0,0,1,0,0,-1,75,78,184,180,50,191.68,340,10.00,-11.00,-964.00
2024-05-17 15:51:00.025697,0,0,1,0,0,0,75,78,185,180,50,191.71,340,8.00,29.00,-930.00
2024-05-17 15:51:00.128268,0,0,1,0,0,0,75,78,186,180,50,191.74,340,9.00,7.00,-970.00
2024-05-17 15:51:00.231225,0,0,1,0,0,0,75,78,186,180,50,191.71,340,7.00,-2.00,-985.00
2024-05-17 15:51:00.331736,0,0,1,0,0,0,75,78,187,180,50,191.79,341,14.00,1.00,-1011.00
2024-05-17 15:51:00.434487,0,0,1,0,0,0,75,78,187,180,50,191.76,341,-9.00,0.00,-966.00
2024-05-17 15:51:00.617415,0,0,1,0,0,0,75,78,188,180,50,191.75,341,3.00,11.00,-1002.00
2024-05-17 15:51:00.637747,0,0,1,0,0,0,75,78,189,180,50,191.76,341,0.00,-5.00,-1004.00
2024-05-17 15:51:00.819334,0,0,1,0,0,0,75,78,189,180,50,191.73,341,-8.00,24.00,-985.00
2024-05-17 15:51:00.841658,0,0,1,0,0,0,75,78,189,180,50,191.72,341,-4.00,4.00,-971.00
2024-05-17 15:51:01.021833,0,0,1,0,0,0,75,77,189,180,50,191.73,341,20.00,9.00,-1034.00
2024-05-17 15:51:01.045896,0,0,1,0,0,0,75,77,189,180,50,191.81,341,10.00,-11.00,-980.00
2024-05-17 15:51:01.226863,0,0,1,0,0,0,75,77,189,180,50,191.77,341,-1.00,7.00,-1000.00
2024-05-17 15:51:01.249435,0,0,1,0,0,0,75,77,189,180,50,191.84,341,15.00,-9.00,-1012.00
2024-05-17 15:51:01.351857,0,0,1,0,0,0,75,77,189,180,50,191.72,342,4.00,-12.00,-1004.00
2024-05-17 15:51:01.534659,0,0,1,0,0,0,75,77,189,180,50,191.75,342,-5.00,-28.00,-982.00
2024-05-17 15:51:01.555502,0,0,1,0,0,0,75,77,189,180,50,191.81,342,10.00,-25.00,-1055.00
2024-05-17 15:51:01.738693,0,0,1,0,0,0,75,77,189,180,50,191.81,342,38.00,-24.00,-1070.00
2024-05-17 15:51:01.760513,0,0,1,0,0,0,75,77,188,180,50,191.73,342,16.00,-24.00,-990.00
2024-05-17 15:51:01.927420,0,0,1,0,0,0,75,77,187,180,50,191.76,342,0.00,27.00,-906.00
2024-05-17 15:51:01.967479,0,0,1,0,0,0,75,77,187,180,50,191.78,342,9.00,13.00,-1013.00
2024-05-17 15:51:02.067123,0,0,1,0,0,0,75,77,186,180,50,191.70,342,20.00,6.00,-1014.00
2024-05-17 15:51:02.167446,0,0,1,0,0,0,75,77,185,180,50,191.73,342,18.00,15.00,-957.00
2024-05-17 15:51:02.352707,0,0,1,0,0,1,75,77,183,180,50,191.67,342,23.00,-7.00,-979.00
2024-05-17 15:51:02.372965,0,0,1,0,0,1,75,77,181,180,50,191.68,343,2.00,3.00,-888.00
2024-05-17 15:51:02.474974,0,0,1,0,0,2,75,77,179,180,50,191.70,343,8.00,-16.00,-998.00
2024-05-17 15:51:02.659912,0,0,1,0,0,2,75,77,176,170,50,191.66,343,10.00,26.00,-974.00
2024-05-17 15:51:02.678492,0,0,1,0,0,2,75,77,173,170,50,191.63,343,30.00,25.00,-1021.00
2024-05-17 15:51:02.731926,0,0,1,0,0,2,75,77,171,170,50,191.58,343,8.00,45.00,-999.00
2024-05-17 15:51:02.831518,0,0,1,0,0,2,75,77,168,160,50,191.51,343,11.00,32.00,-1009.00
2024-05-17 15:51:02.985431,0,0,1,0,0,2,75,77,165,160,50,191.48,343,15.00,23.00,-1035.00
2024-05-17 15:51:03.171996,0,0,1,0,0,2,75,77,162,160,50,191.47,343,20.00,-18.00,-1017.00
2024-05-17 15:51:03.188568,0,0,1,0,0,2,75,77,159,160,50,191.42,343,6.00,22.00,-971.00
2024-05-17 15:51:03.239333,0,0,1,0,0,2,75,77,156,150,50,191.42,343,17.00,23.00,-1000.00
2024-05-17 15:51:03.341317,0,0,1,0,0,2,75,77,153,150,50,191.42,344,18.00,-15.00,-994.00
2024-05-17 15:51:03.479194,0,0,1,0,0,2,75,77,151,150,50,191.45,344,16.00,-7.00,-1026.00
2024-05-17 15:51:03.545825,0,0,1,0,0,2,75,77,149,150,50,191.38,344,12.00,8.00,-1063.00
2024-05-17 15:51:03.683913,0,0,1,0,0,2,75,77,147,140,50,191.35,344,7.00,23.00,-981.00
2024-05-17 15:51:03.749296,0,0,1,0,0,1,75,77,145,140,50,191.33,344,-4.00,14.00,-1014.00
2024-05-17 15:51:03.888791,0,0,1,0,0,1,75,77,143,140,50,191.34,344,7.00,9.00,-999.00
2024-05-17 15:51:03.953451,0,0,1,0,0,1,75,78,142,140,50,191.29,344,7.00,14.00,-1068.00
2024-05-17 15:51:04.093584,0,0,1,0,0,1,75,78,140,140,50,191.32,344,9.00,28.00,-1045.00
2024-05-17 15:51:04.158119,0,0,1,0,0,1,75,78,139,140,50,191.35,344,0.00,2.00,-1036.00
2024-05-17 15:51:04.298527,0,0,1,0,0,0,75,78,138,140,50,191.22,344,2.00,-9.00,-971.00
2024-05-17 15:51:04.361654,0,0,1,0,0,0,75,78,138,130,50,191.24,345,3.00,18.00,-1017.00
2024-05-17 15:51:04.503381,0,0,1,0,0,0,75,78,136,130,50,191.20,345,-6.00,30.00,-1037.00
2024-05-17 15:51:04.565688,0,-1,1,0,0,0,75,78,136,130,50,191.27,345,-5.00,39.00,-1042.00
2024-05-17 15:51:04.667627,0,-1,1,0,0,0,75,78,136,130,50,191.27,345,-13.00,39.00,-1001.00
2024-05-17 15:51:04.769496,0,0,1,0,0,0,75,78,136,130,50,191.28,345,4.00,-10.00,-1023.00
2024-05-17 15:51:04.913304,0,0,1,0,0,0,75,78,136,130,50,191.26,345,-15.00,43.00,-1054.00
2024-05-17 15:51:04.974747,0,0,1,0,0,0,74,76,137,130,50,191.26,345,20.00,-22.00,-952.00
2024-05-17 15:51:05.117682,0,0,1,0,0,0,74,76,137,130,50,191.28,345,2.00,-1.00,-997.00
2024-05-17 15:51:05.177678,0,0,1,0,0,0,74,76,138,130,50,191.26,345,0.00,-3.00,-1025.00
2024-05-17 15:51:05.322596,0,0,1,0,0,0,74,76,139,130,50,191.31,345,5.00,26.00,-984.00
2024-05-17 15:51:05.381408,0,0,1,0,0,0,74,76,139,130,50,191.29,346,11.00,38.00,-1009.00
2024-05-17 15:51:05.483358,0,0,1,0,0,0,74,76,140,140,50,191.33,346,3.00,17.00,-1023.00
2024-05-17 15:51:05.632562,0,0,1,0,0,0,74,76,140,140,50,191.28,346,12.00,9.00,-1040.00
2024-05-17 15:51:05.687627,0,-1,1,0,0,0,74,76,140,140,50,191.30,346,-5.00,25.00,-1003.00
2024-05-17 15:51:05.836665,0,-1,1,0,0,0,74,76,140,140,50,191.34,346,-7.00,52.00,-954.00
2024-05-17 15:51:05.891444,0,-1,1,0,0,0,74,76,140,140,50,191.35,346,5.00,31.00,-941.00
2024-05-17 15:51:06.039544,0,-2,1,0,0,0,75,77,140,140,50,191.33,346,-12.00,36.00,-1008.00
2024-05-17 15:51:06.095190,0,-1,1,0,0,0,75,77,140,140,50,191.26,346,-6.00,22.00,-1058.00
2024-05-17 15:51:06.198322,0,-1,1,0,0,0,75,77,139,140,50,191.23,346,0.00,11.00,-961.00
2024-05-17 15:51:06.346826,0,0,1,0,0,0,75,77,139,140,50,191.29,346,4.00,-14.00,-1038.00
2024-05-17 15:51:06.401217,-5,0,1,0,0,0,75,77,138,140,50,191.28,347,17.00,17.00,-996.00
2024-05-17 15:51:06.554897,-8,0,1,1,0,0,75,77,142,130,50,191.31,347,-4.00,33.00,-1020.00
2024-05-17 15:51:06.605131,-8,0,1,3,0,0,75,77,141,130,50,191.24,347,-14.00,20.00,-999.00
2024-05-17 15:51:06.707231,-8,0,1,4,0,0,75,77,140,130,50,191.28,347,-20.00,-13.00,-991.00
2024-05-17 15:51:06.858434,-7,0,1,5,0,0,75,77,141,130,50,191.32,347,-37.00,-2.00,-1047.00
2024-05-17 15:51:06.911129,-6,0,1,6,0,0,75,77,139,130,50,191.29,347,-53.00,41.00,-983.00
2024-05-17 15:51:07.013672,-5,0,1,7,0,0,73,77,139,130,50,191.31,347,-42.00,-30.00,-999.00
2024-05-17 15:51:07.064215,-4,1,1,7,0,0,73,77,140,130,50,191.28,347,-56.00,-5.00,-963.00
2024-05-17 15:51:07.268048,-1,0,1,8,0,0,73,77,139,130,50,191.27,347,-48.00,55.00,-1006.00
2024-05-17 15:51:07.268198,1,0,1,7,0,0,73,77,139,130,50,191.32,347,-39.00,16.00,-1037.00
2024-05-17 15:51:07.371088,3,0,1,6,0,0,73,77,140,130,50,191.28,348,-31.00,-16.00,-1010.00
2024-05-17 15:51:07.472344,4,0,1,5,0,0,73,77,141,140,50,191.26,348,-36.00,-21.00,-969.00
2024-05-17 15:51:07.576640,4,0,1,4,0,0,73,77,141,140,50,191.34,348,-36.00,25.00,-1028.00
2024-05-17 15:51:07.677795,2,0,1,3,0,0,73,77,141,140,50,191.32,348,-7.00,-49.00,-1009.00
2024-05-17 15:51:07.780150,1,0,1,3,0,0,73,77,140,140,50,191.37,348,-32.00,16.00,-1030.00
2024-05-17 15:51:07.880365,0,1,1,3,0,0,73,77,139,140,50,191.33,348,-19.00,19.00,-937.00
2024-05-17 15:51:07.985542,0,1,1,2,0,0,74,77,139,140,50,191.40,348,1.00,-12.00,-1057.00
2024-05-17 15:51:08.084365,0,1,1,2,0,0,74,77,140,140,50,191.36,348,-26.00,55.00,-960.00
2024-05-17 15:51:08.189569,0,-1,1,2,1,0,74,77,142,140,50,191.38,348,-15.00,-22.00,-1010.00
2024-05-17 15:51:08.288454,0,-2,1,2,0,0,74,77,141,140,50,191.36,348,-19.00,-11.00,-1060.00
2024-05-17 15:51:08.391062,2,-1,1,2,0,0,74,77,142,140,50,191.35,349,-16.00,2.00,-1076.00
2024-05-17 15:51:08.497453,4,0,1,1,0,0,74,77,142,140,50,191.27,349,-9.00,6.00,-1012.00
2024-05-17 15:51:08.595104,2,0,1,0,0,0,74,77,141,140,50,191.34,349,-9.00,7.00,-939.00
2024-05-17 15:51:08.697316,1,0,1,0,0,0,74,77,140,140,50,191.34,349,-6.00,-9.00,-1043.00
2024-05-17 15:51:08.804064,0,0,1,0,0,0,74,77,140,140,50,191.31,349,-2.00,43.00,-1010.00
2024-05-17 15:51:08.901489,0,0,1,0,0,0,74,77,139,140,50,191.35,349,-4.00,21.00,-934.00
2024-05-17 15:51:09.009751,0,0,1,0,0,0,75,77,139,140,50,191.34,349,-5.00,-14.00,-967.00
2024-05-17 15:51:09.105212,0,0,1,0,0,0,75,77,139,140,50,191.36,349,0.00,12.00,-1028.00
2024-05-17 15:51:09.213731,0,0,1,0,0,0,75,77,139,140,50,191.37,349,3.00,7.00,-982.00
2024-05-17 15:51:09.309321,0,0,1,0,0,0,75,77,139,140,50,191.29,349,-24.00,27.00,-1012.00
2024-05-17 15:51:09.418576,0,0,1,0,0,0,75,77,138,140,50,191.41,350,0.00,-4.00,-994.00
2024-05-17 15:51:09.514368,0,0,1,0,0,0,75,77,138,130,50,191.34,350,-10.00,20.00,-983.00
2024-05-17 15:51:09.615397,0,0,1,0,0,0,75,77,138,130,50,191.33,350,-17.00,19.00,-978.00
2024-05-17 15:51:09.718930,0,0,1,0,0,0,75,77,138,130,50,191.32,350,5.00,23.00,-1011.00
2024-05-17 15:51:09.820179,0,0,1,0,0,0,75,77,138,130,50,191.32,350,-11.00,-7.00,-984.00
2024-05-17 15:51:09.921335,0,0,1,0,0,0,75,77,138,130,50,191.39,350,-3.00,6.00,-950.00
2024-05-17 15:51:10.023656,0,0,1,0,0,0,75,77,138,130,50,191.34,350,-8.00,23.00,-997.00
2024-05-17 15:51:10.125633,0,0,1,0,0,0,75,77,139,130,50,191.34,350,2.00,5.00,-1034.00
2024-05-17 15:51:10.227871,0,0,1,0,0,0,75,77,139,130,50,191.43,350,8.00,28.00,-988.00
2024-05-17 15:51:10.330588,0,0,1,0,0,0,75,77,139,130,50,191.36,350,13.00,31.00,-1050.00
2024-05-17 15:51:10.434570,0,0,1,0,0,0,75,77,140,130,50,191.30,351,-4.00,32.00,-994.00
2024-05-17 15:51:10.538172,0,0,1,0,0,0,75,77,141,140,50,191.34,351,24.00,0.00,-1089.00
2024-05-17 15:51:10.584234,0,-1,1,0,0,0,75,77,141,140,50,191.38,351,-18.00,43.00,-987.00
2024-05-17 15:51:10.749851,0,0,1,0,0,0,75,77,143,140,50,191.34,351,11.00,41.00,-954.00
2024-05-17 15:51:10.788155,3,0,1,0,0,0,75,77,144,140,50,191.39,351,8.00,21.00,-941.00
2024-05-17 15:51:10.956529,8,0,1,0,0,0,75,77,145,140,50,191.41,351,7.00,4.00,-1021.00
2024-05-17 15:51:10.992069,8,0,1,-2,0,0,74,76,145,140,50,191.41,351,41.00,-6.00,-1083.00
2024-05-17 15:51:11.159984,8,0,1,-3,0,0,74,76,146,140,50,191.38,351,25.00,-10.00,-952.00
2024-05-17 15:51:11.196110,8,0,1,-4,0,0,74,76,146,140,50,191.42,351,31.00,53.00,-991.00
2024-05-17 15:51:11.363946,8,0,1,-5,0,0,74,76,146,140,50,191.32,351,40.00,-15.00,-1003.00
2024-05-17 15:51:11.400085,7,0,1,-6,0,0,74,76,144,140,50,191.35,352,54.00,20.00,-979.00
2024-05-17 15:51:11.568756,6,0,1,-7,0,0,74,76,144,140,50,191.37,352,55.00,28.00,-1008.00
2024-05-17 15:51:11.604110,5,0,1,-7,0,0,74,76,144,140,50,191.31,352,45.00,24.00,-953.00
2024-05-17 15:51:11.773763,3,-1,1,-8,0,0,74,76,143,140,50,191.38,352,56.00,11.00,-1042.00
2024-05-17 15:51:11.808285,0,0,1,-7,0,0,74,76,142,140,50,191.29,352,51.00,34.00,-966.00
2024-05-17 15:51:11.979066,-2,-1,1,-7,0,0,74,76,143,140,50,191.25,352,62.00,9.00,-969.00
2024-05-17 15:51:12.018866,-3,0,1,-4,0,0,73,76,142,140,50,191.29,352,27.00,21.00,-978.00
2024-05-17 15:51:12.114179,-2,0,1,-4,0,0,73,76,141,140,50,191.31,352,20.00,33.00,-970.00
2024-05-17 15:51:12.285547,0,0,1,-3,0,0,73,76,141,140,50,191.29,352,7.00,7.00,-938.00
2024-05-17 15:51:12.319683,0,0,1,-3,0,0,73,76,141,140,50,191.25,353,34.00,-7.00,-997.00
2024-05-17 15:51:12.420196,0,0,1,-2,0,0,73,76,140,140,50,191.26,353,24.00,-2.00,-983.00
2024-05-17 15:51:12.592746,0,0,1,-2,0,0,73,76,140,130,50,191.28,353,20.00,43.00,-995.00
2024-05-17 15:51:12.625920,0,0,1,-2,0,0,73,76,140,130,50,191.28,353,9.00,37.00,-1054.00
2024-05-17 15:51:12.726332,0,0,1,-2,0,0,73,76,140,130,50,191.34,353,19.00,-24.00,-989.00
2024-05-17 15:51:12.899977,0,0,1,-2,0,0,73,76,139,130,50,191.33,353,7.00,2.00,-981.00
2024-05-17 15:51:12.930419,0,0,1,-2,0,0,73,76,139,130,50,191.26,353,15.00,0.00,-960.00
2024-05-17 15:51:13.105006,0,0,1,-2,0,0,74,76,140,130,50,191.32,353,22.00,-8.00,-981.00
2024-05-17 15:51:13.134018,-2,0,1,-1,0,0,74,76,140,130,50,191.32,353,-2.00,38.00,-1040.00
2024-05-17 15:51:13.309509,-2,0,1,0,0,0,74,76,141,130,50,191.31,353,16.00,31.00,-1014.00
2024-05-17 15:51:13.338829,-1,0,1,0,0,0,74,76,140,130,50,191.31,354,-6.00,6.00,-982.00
2024-05-17 15:51:13.440958,0,0,1,0,0,0,74,76,141,130,50,191.35,354,-11.00,18.00,-981.00
2024-05-17 15:51:13.616928,0,0,1,0,0,0,74,76,140,140,50,191.33,354,-4.00,-5.00,-1003.00
2024-05-17 15:51:13.645344,0,0,1,0,0,0,74,76,140,140,50,191.35,354,-15.00,11.00,-982.00
2024-05-17 15:51:13.747436,0,0,1,0,0,0,74,76,140,140,50,191.39,354,1.00,-3.00,-997.00
2024-05-17 15:51:13.925590,0,0,1,0,0,0,74,76,140,140,50,191.35,354,6.00,-11.00,-998.00
2024-05-17 15:51:13.950922,0,0,1,0,0,0,74,76,139,130,50,191.39,354,-1.00,27.00,-1004.00
2024-05-17 15:51:14.129770,0,0,1,0,0,0,73,76,139,130,50,191.40,354,-17.00,6.00,-937.00
2024-05-17 15:51:14.154974,0,0,1,0,0,0,73,76,139,130,50,191.32,354,4.00,20.00,-1043.00
2024-05-17 15:51:14.333689,0,0,1,0,0,0,73,76,139,130,50,191.33,354,7.00,0.00,-1010.00
2024-05-17 15:51:14.359537,1,0,1,0,0,0,73,76,139,130,50,191.32,355,-3.00,22.00,-981.00
2024-05-17 15:51:14.410075,1,0,1,0,0,0,73,76,140,130,50,191.33,355,-10.00,41.00,-909.00
2024-05-17 15:51:14.539261,1,0,1,0,0,0,73,76,140,130,50,191.32,355,36.00,-20.00,-1106.00
2024-05-17 15:51:14.614533,1,0,1,0,0,0,73,76,140,140,50,191.29,355,18.00,11.00,-963.00
2024-05-17 15:51:14.743658,1,0,1,0,0,0,73,76,140,140,50,191.34,355,27.00,-15.00,-1019.00
2024-05-17 15:51:14.818214,1,0,1,0,0,0,73,76,140,140,50,191.32,355,-6.00,46.00,-929.00
2024-05-17 15:51:14.948058,1,0,1,0,0,0,73,76,140,140,50,191.33,355,-9.00,0.00,-924.00
2024-05-17 15:51:15.024957,1,0,1,0,0,0,73,76,139,140,50,191.31,355,3.00,-13.00,-977.00
2024-05-17 15:51:15.125850,0,0,1,0,0,0,73,76,139,140,49,191.34,355,12.00,-27.00,-1030.00
2024-05-17 15:51:15.226814,0,0,1,0,0,0,73,76,138,140,49,191.32,355,19.00,-14.00,-1038.00
2024-05-17 15:51:15.328227,0,0,1,0,0,0,73,76,138,130,49,191.27,356,18.00,-24.00,-1014.00
2024-05-17 15:51:15.459960,0,0,1,0,0,0,73,76,137,130,49,191.28,356,2.00,9.00,-975.00
2024-05-17 15:51:15.531920,0,-7,1,0,0,0,73,76,138,130,49,191.30,356,8.00,-16.00,-986.00
2024-05-17 15:51:15.665603,0,-8,1,0,-1,0,73,76,137,130,49,191.26,356,23.00,38.00,-1048.00
2024-05-17 15:51:15.736620,0,-6,1,0,-2,0,73,76,134,130,49,191.25,356,12.00,36.00,-1008.00
2024-05-17 15:51:15.870548,0,-3,1,0,-3,0,73,76,135,130,49,191.29,356,1.00,63.00,-1037.00
2024-05-17 15:51:15.939910,0,0,1,0,-3,0,73,76,133,130,49,191.29,356,15.00,-15.00,-951.00
2024-05-17 15:51:16.042193,0,0,1,0,-3,0,74,77,131,130,49,191.22,356,7.00,46.00,-1018.00
2024-05-17 15:51:16.148256,0,0,1,0,-3,0,74,77,130,130,49,191.21,356,5.00,21.00,-989.00
2024-05-17 15:51:16.249461,0,0,1,0,-2,0,74,77,130,130,49,191.25,356,-3.00,45.00,-976.00
2024-05-17 15:51:16.348362,0,0,1,0,-2,0,74,77,130,130,49,191.22,357,6.00,33.00,-1027.00
2024-05-17 15:51:16.484691,0,-1,1,0,-2,0,74,77,129,130,49,191.21,357,12.00,47.00,-1032.00
2024-05-17 15:51:16.558935,0,-1,1,0,-2,0,74,77,128,130,49,191.20,357,4.00,20.00,-985.00
2024-05-17 15:51:16.654225,0,-1,1,0,-2,0,74,77,128,130,49,191.18,357,-11.00,19.00,-985.00
2024-05-17 15:51:16.791139,0,-1,1,0,-2,0,74,77,128,130,49,191.25,357,9.00,6.00,-1054.00
2024-05-17 15:51:16.857842,0,-1,1,0,-2,0,74,77,128,130,49,191.20,357,-2.00,41.00,-1009.00
2024-05-17 15:51:16.996856,0,-1,1,0,-2,0,74,77,129,130,49,191.17,357,-10.00,35.00,-994.00
2024-05-17 15:51:17.061950,0,0,1,0,-2,0,72,77,130,130,49,191.22,357,-9.00,53.00,-1000.00
2024-05-17 15:51:17.201473,0,0,1,0,-2,0,72,77,131,130,49,191.21,357,1.00,25.00,-1032.00
2024-05-17 15:51:17.265859,0,4,1,0,-1,0,72,77,133,130,49,191.31,357,0.00,25.00,-952.00
2024-05-17 15:51:17.367872,0,2,1,0,0,0,72,77,133,130,49,191.19,358,1.00,7.00,-993.00
2024-05-17 15:51:17.508154,0,1,1,0,0,0,72,77,132,130,49,191.32,358,10.00,28.00,-1050.00
2024-05-17 15:51:17.572442,0,0,1,0,0,0,72,77,133,130,49,191.29,358,1.00,-12.00,-981.00
2024-05-17 15:51:17.712906,0,0,1,0,0,0,72,77,133,130,49,191.28,358,3.00,17.00,-1000.00
2024-05-17 15:51:17.776053,0,0,1,0,0,0,72,77,134,130,49,191.31,358,-3.00,0.00,-988.00
2024-05-17 15:51:17.917733,0,0,1,0,0,0,72,77,135,130,49,191.24,358,-11.00,1.00,-950.00
2024-05-17 15:51:17.929079,0,0,1,0,0,0,72,77,136,130,49,191.30,358,-3.00,-2.00,-976.00
2024-05-17 15:51:18.122666,0,0,1,0,0,0,73,76,137,130,49,191.28,358,-1.00,-5.00,-979.00
2024-05-17 15:51:18.183964,0,0,1,0,0,0,73,76,137,130,49,191.32,358,-3.00,-14.00,-1020.00
2024-05-17 15:51:18.327319,0,0,1,0,0,0,73,76,138,130,49,191.32,358,5.00,13.00,-976.00
2024-05-17 15:51:18.388102,0,0,1,0,0,0,73,76,139,140,49,191.36,359,-7.00,12.00,-1002.00
2024-05-17 15:51:18.439866,0,0,1,0,0,0,73,76,140,140,49,191.35,359,11.00,-20.00,-972.00
2024-05-17 15:51:18.635291,0,0,1,0,0,0,73,76,140,140,49,191.34,359,-2.00,22.00,-971.00
2024-05-17 15:51:18.643830,0,0,1,0,0,0,73,76,141,140,49,191.36,359,10.00,-27.00,-1021.00
2024-05-17 15:51:18.839617,0,0,1,0,0,0,73,76,141,140,49,191.39,359,-2.00,9.00,-965.00
2024-05-17 15:51:18.847850,0,0,1,0,0,0,73,76,141,140,49,191.31,359,8.00,-2.00,-1016.00
2024-05-17 15:51:19.044968,0,0,1,0,0,0,73,76,141,140,49,191.37,359,0.00,-16.00,-920.00
2024-05-17 15:51:19.051889,0,0,1,0,0,0,73,76,141,140,48,191.26,359,0.00,-6.00,-986.00
2024-05-17 15:51:19.251669,0,0,1,0,0,0,73,76,140,140,48,191.30,359,15.00,4.00,-1021.00
2024-05-17 15:51:19.257620,0,0,1,0,0,0,73,76,140,140,48,191.24,359,-2.00,-38.00,-995.00
2024-05-17 15:51:19.374264,0,0,1,0,0,0,73,76,139,140,48,191.33,360,15.00,-10.00,-1030.00
2024-05-17 15:51:19.459861,0,0,1,0,0,0,73,76,139,140,48,191.31,360,-18.00,36.00,-970.00
2024-05-17 15:51:19.659137,0,2,1,0,0,0,73,76,141,140,48,191.37,360,-13.00,42.00,-956.00
2024-05-17 15:51:19.665118,0,8,1,0,1,0,73,76,140,140,48,191.33,360,-4.00,0.00,-923.00
2024-05-17 15:51:19.765698,0,6,1,0,2,0,73,76,140,130,48,191.31,360,9.00,43.00,-1058.00
2024-05-17 15:51:19.965570,0,4,1,0,3,0,73,76,140,130,48,191.32,360,3.00,5.00,-986.00
2024-05-17 15:51:19.969750,0,1,1,0,3,0,73,76,139,130,48,191.30,360,8.00,-50.00,-1015.00
2024-05-17 15:51:20.170901,0,-1,1,0,3,0,74,76,138,130,48,191.33,360,-1.00,-1.00,-1009.00
2024-05-17 15:51:20.174000,0,-1,1,0,3,0,74,76,137,130,48,191.31,360,1.00,0.00,-1044.00
2024-05-17 15:51:20.275962,0,0,1,0,3,0,74,76,137,130,48,191.26,360,10.00,-30.00,-1046.00
2024-05-17 15:51:20.384901,1,0,1,0,2,0,74,76,138,130,48,191.23,361,8.00,-41.00,-1065.00
2024-05-17 15:51:20.479993,2,0,1,0,2,0,74,76,138,130,48,191.28,361,6.00,-9.00,-1057.00
2024-05-17 15:51:20.583067,2,0,1,0,2,0,74,76,138,130,48,191.26,361,11.00,-16.00,-1104.00
2024-05-17 15:51:20.685373,2,0,1,0,2,0,74,76,138,130,48,191.24,361,11.00,-22.00,-1037.00
2024-05-17 15:51:20.786214,1,0,1,0,2,0,74,76,138,130,48,191.26,361,28.00,-38.00,-999.00
2024-05-17 15:51:20.990394,1,0,1,0,2,0,74,76,136,130,48,191.21,361,-7.00,14.00,-901.00
2024-05-17 15:51:20.990428,0,0,1,0,2,0,74,76,136,130,48,191.25,361,18.00,18.00,-1031.00
2024-05-17 15:51:21.092831,-1,0,1,0,2,0,74,76,136,130,48,191.24,361,7.00,-19.00,-960.00
2024-05-17 15:51:21.194845,0,-2,1,0,2,0,74,76,136,130,48,191.35,361,-2.00,31.00,-967.00
2024-05-17 15:51:21.297308,0,-5,1,0,1,0,74,76,136,130,48,191.25,361,8.00,-30.00,-1034.00
2024-05-17 15:51:21.400331,0,-3,1,0,0,0,74,76,136,130,48,191.29,362,-13.00,22.00,-1015.00
2024-05-17 15:51:21.499773,0,-1,1,0,0,0,74,76,135,130,48,191.32,362,11.00,-10.00,-1039.00
2024-05-17 15:51:21.604073,0,-1,1,0,0,0,74,76,135,130,48,191.29,362,3.00,-25.00,-1043.00
2024-05-17 15:51:21.703836,0,-1,1,0,0,0,74,76,136,130,48,191.34,362,4.00,-4.00,-1019.00
2024-05-17 15:51:21.808937,0,0,1,0,0,0,74,76,137,130,48,191.26,362,20.00,-29.00,-1021.00
2024-05-17 15:51:21.907830,0,0,1,0,0,0,74,76,137,130,48,191.32,362,3.00,-4.00,-1031.00
2024-05-17 15:51:22.014054,0,0,1,0,0,0,74,76,137,130,48,191.39,362,8.00,-2.00,-1038.00
2024-05-17 15:51:22.111985,0,0,1,0,0,0,73,76,137,130,47,191.33,362,21.00,16.00,-1051.00
2024-05-17 15:51:22.218509,0,0,1,0,0,0,73,76,137,130,47,191.33,362,0.00,12.00,-991.00
2024-05-17 15:51:22.315878,0,0,1,0,0,0,73,76,138,130,47,191.33,362,6.00,-27.00,-995.00
2024-05-17 15:51:22.367257,0,0,1,0,0,0,73,76,138,130,47,191.35,363,-16.00,54.00,-936.00
2024-05-17 15:51:22.526457,0,0,1,0,0,0,73,76,138,130,47,191.29,363,1.00,-35.00,-1001.00
2024-05-17 15:51:22.570659,0,0,1,0,0,0,73,76,139,130,47,191.32,363,-11.00,34.00,-996.00
2024-05-17 15:51:22.733265,0,0,1,0,0,0,73,76,139,130,47,191.37,363,5.00,-14.00,-1028.00
2024-05-17 15:51:22.774573,0,0,1,0,0,0,73,76,139,140,47,191.32,363,2.00,17.00,-987.00
2024-05-17 15:51:22.935365,0,0,1,0,0,0,73,76,139,140,47,191.32,363,-15.00,18.00,-989.00
2024-05-17 15:51:22.978514,0,0,1,0,0,0,73,76,139,140,47,191.33,363,0.00,3.00,-1007.00
2024-05-17 15:51:23.140709,0,0,1,0,0,0,73,76,139,140,47,191.31,363,13.00,0.00,-1017.00
2024-05-17 15:51:23.182570,0,0,1,0,0,0,73,76,139,140,47,191.30,363,-5.00,20.00,-973.00
2024-05-17 15:51:23.345713,0,0,1,0,0,0,73,76,139,140,47,191.33,363,-30.00,9.00,-1025.00
2024-05-17 15:51:23.391850,0,0,1,0,0,0,73,76,139,140,47,191.33,364,-15.00,15.00,-1044.00
2024-05-17 15:51:23.489529,0,0,1,0,0,0,73,76,138,140,47,191.31,364,19.00,-32.00,-1035.00
2024-05-17 15:51:23.652034,0,0,6,0,0,0,73,76,138,130,47,191.38,364,-7.00,-12.00,-1034.00
2024-05-17 15:51:23.693376,0,0,12,0,0,0,73,76,138,130,47,191.35,364,11.00,-8.00,-996.00
2024-05-17 15:51:23.795033,0,0,18,0,0,0,73,76,138,130,47,191.32,364,-11.00,27.00,-1002.00
2024-05-17 15:51:23.896749,0,0,24,0,0,0,73,76,138,130,47,191.32,364,-20.00,27.00,-971.00
2024-05-17 15:51:23.998441,0,0,30,0,0,0,73,76,138,130,47,191.38,364,-10.00,37.00,-997.00
2024-05-17 15:51:24.164938,0,0,36,0,0,0,73,76,137,130,47,191.27,364,-5.00,-2.00,-1044.00
2024-05-17 15:51:24.202509,0,0,42,0,0,0,73,76,138,130,47,191.30,364,-1.00,2.00,-950.00
2024-05-17 15:51:24.372160,0,0,48,0,0,0,73,76,138,130,47,191.38,364,17.00,-39.00,-1016.00
2024-05-17 15:51:24.406372,0,0,54,0,0,0,73,76,138,130,47,191.30,365,-10.00,0.00,-973.00
2024-05-17 15:51:24.579918,0,0,60,0,0,0,73,76,138,130,47,191.37,365,8.00,1.00,-1006.00
2024-05-17 15:51:24.610392,0,0,66,0,0,0,73,76,138,130,47,191.32,365,0.00,18.00,-1002.00
2024-05-17 15:51:24.778387,0,0,72,0,0,0,73,76,138,130,47,191.42,365,-4.00,27.00,-1004.00
2024-05-17 15:51:24.814340,0,0,78,0,0,0,73,76,138,130,47,191.33,365,-4.00,-3.00,-954.00
2024-05-17 15:51:24.984028,0,0,84,0,0,0,73,76,138,130,47,191.33,365,-1.00,27.00,-1003.00
2024-05-17 15:51:25.018320,0,0,90,0,0,0,73,76,137,130,47,191.27,365,3.00,7.00,-987.00
2024-05-17 15:51:25.188251,0,0,96,0,0,0,73,76,138,130,47,191.28,365,0.00,24.00,-1007.00
2024-05-17 15:51:25.222560,0,0,102,0,0,0,73,76,138,130,47,191.34,365,-2.00,33.00,-1022.00
2024-05-17 15:51:25.395537,0,0,108,0,0,0,73,76,138,130,47,191.33,365,-3.00,11.00,-1052.00
2024-05-17 15:51:25.426652,0,0,114,0,0,0,73,76,138,130,47,191.28,366,9.00,-27.00,-993.00
2024-05-17 15:51:25.601153,0,0,120,0,0,0,73,76,138,130,47,191.31,366,-3.00,18.00,-993.00
2024-05-17 15:51:25.630475,0,0,126,0,0,0,73,76,138,130,47,191.39,366,10.00,-20.00,-1024.00
2024-05-17 15:51:25.803219,0,0,132,0,0,0,73,76,139,130,47,191.31,366,-4.00,7.00,-972.00
2024-05-17 15:51:25.837198,0,0,138,0,0,0,73,76,139,130,47,191.38,366,7.00,-50.00,-983.00
2024-05-17 15:51:25.936365,0,0,144,0,0,0,73,76,140,130,47,191.35,366,10.00,-27.00,-966.00
2024-05-17 15:51:26.038950,0,0,150,0,0,0,73,76,140,130,47,191.35,366,2.00,-34.00,-986.00
2024-05-17 15:51:26.140869,0,0,162,0,0,0,74,76,141,140,46,191.34,366,1.00,-34.00,-991.00
2024-05-17 15:51:26.243121,0,0,168,0,0,0,74,76,141,140,46,191.36,366,5.00,-44.00,-1000.00
2024-05-17 15:51:26.345800,0,0,174,0,0,0,74,76,141,140,46,191.32,367,-11.00,-21.00,-989.00
2024-05-17 15:51:26.447490,0,0,-179,0,0,0,74,76,142,140,46,191.36,367,0.00,0.00,-1028.00
2024-05-17 15:51:26.551533,0,0,-173,0,0,0,74,76,142,140,46,191.39,367,-17.00,8.00,-948.00
2024-05-17 15:51:26.650248,0,0,-167,0,0,0,74,76,142,140,46,191.47,367,-19.00,-15.00,-1017.00
2024-05-17 15:51:26.701605,0,0,-161,0,0,0,74,76,142,140,46,191.41,367,-11.00,9.00,-1002.00
2024-05-17 15:51:26.826372,0,0,-155,0,0,0,74,76,143,140,46,191.32,367,-28.00,9.00,-955.00
2024-05-17 15:51:26.905584,0,0,-149,0,0,0,74,76,143,140,46,191.35,367,0.00,-39.00,-1021.00
2024-05-17 15:51:27.031096,0,0,-143,0,0,0,74,76,143,140,46,191.35,367,-10.00,34.00,-1022.00
2024-05-17 15:51:27.109502,0,0,-137,0,0,0,73,77,142,140,46,191.35,367,-23.00,25.00,-993.00
2024-05-17 15:51:27.236588,0,0,-131,0,0,0,73,77,142,140,46,191.33,367,-28.00,-4.00,-976.00
2024-05-17 15:51:27.313515,0,0,-125,0,0,0,73,77,142,140,46,191.36,368,-21.00,12.00,-1035.00
2024-05-17 15:51:27.415405,0,0,-119,0,0,0,73,77,142,140,46,191.35,368,-10.00,15.00,-1033.00
2024-05-17 15:51:27.543444,0,0,-113,0,0,0,73,77,141,140,46,191.41,368,-23.00,22.00,-985.00
2024-05-17 15:51:27.619434,0,0,-107,0,0,0,73,77,141,140,46,191.31,368,-12.00,0.00,-940.00
2024-05-17 15:51:27.749495,0,0,-101,0,0,0,73,77,140,140,46,191.31,368,-16.00,-9.00,-1030.00
2024-05-17 15:51:27.823517,0,0,-95,0,0,0,73,77,140,140,46,191.39,368,-26.00,39.00,-978.00
2024-05-17 15:51:27.953749,0,0,-89,0,0,0,73,77,140,140,46,191.34,368,1.00,22.00,-1044.00
2024-05-17 15:51:28.028431,0,0,-83,0,0,0,73,77,139,130,46,191.32,368,-26.00,-7.00,-985.00
2024-05-17 15:51:28.158031,0,0,-77,0,0,0,73,76,140,130,46,191.39,368,-10.00,6.00,-1037.00
2024-05-17 15:51:28.233210,0,0,-71,0,0,0,73,76,139,130,46,191.35,368,-17.00,32.00,-985.00
2024-05-17 15:51:28.333594,0,0,-65,0,0,0,73,76,139,130,46,191.32,369,-21.00,-8.00,-983.00
2024-05-17 15:51:28.437867,0,0,-59,0,0,0,73,76,139,130,46,191.35,369,1.00,-36.00,-1001.00
2024-05-17 15:51:28.537494,0,0,-54,0,0,0,73,76,139,130,46,191.25,369,-3.00,-23.00,-1018.00
2024-05-17 15:51:28.669523,0,0,-48,0,0,0,73,76,138,130,46,191.35,369,-1.00,-10.00,-964.00
2024-05-17 15:51:28.741638,0,0,-42,0,0,0,73,76,138,130,46,191.29,369,-11.00,-4.00,-964.00
2024-05-17 15:51:28.875600,0,0,-36,0,0,0,73,76,139,130,46,191.24,369,-16.00,7.00,-969.00
2024-05-17 15:51:28.945461,0,0,-30,0,0,0,73,76,139,130,46,191.34,369,-7.00,9.00,-993.00
2024-05-17 15:51:29.079834,0,0,-24,0,0,0,73,76,138,130,46,191.33,369,-24.00,33.00,-966.00
2024-05-17 15:51:29.149804,0,0,-18,0,0,0,73,76,138,130,45,191.35,369,-23.00,10.00,-1014.00
2024-05-17 15:51:29.284702,0,0,-14,0,0,0,73,76,139,130,45,191.34,369,-8.00,41.00,-961.00
2024-05-17 15:51:29.353355,0,0,-10,0,0,0,73,76,139,130,45,191.35,370,-18.00,27.00,-1032.00
2024-05-17 15:51:29.455303,0,0,-7,0,0,0,73,76,139,130,45,191.31,370,-5.00,13.00,-1039.00
2024-05-17 15:51:29.592652,0,0,-5,0,0,0,73,76,139,130,45,191.35,370,15.00,4.00,-998.00
2024-05-17 15:51:29.662590,0,0,-4,0,0,0,73,76,139,130,45,191.37,370,4.00,32.00,-1029.00
2024-05-17 15:51:29.761491,0,0,-2,0,0,0,73,76,140,140,45,191.38,370,-1.00,14.00,-963.00
2024-05-17 15:51:29.898697,0,0,-1,0,0,0,73,76,140,140,45,191.41,370,8.00,0.00,-981.00
2024-05-17 15:51:29.965537,0,0,0,0,0,0,73,76,140,140,45,191.36,370,18.00,-19.00,-1054.00
2024-05-17 15:51:30.067604,0,0,0,0,0,0,73,76,140,140,45,191.39,370,9.00,41.00,-1047.00
2024-05-17 15:51:30.206688,0,0,0,0,0,0,73,75,140,140,45,191.38,370,8.00,-18.00,-1003.00
2024-05-17 15:51:30.271407,1,0,0,0,0,0,73,75,140,140,45,191.34,370,-5.00,37.00,-1019.00
2024-05-17 15:51:30.413994,1,0,0,0,0,0,73,75,140,140,45,191.36,371,16.00,-31.00,-1024.00
2024-05-17 15:51:30.476624,1,0,0,0,0,0,73,75,139,140,45,191.39,371,7.00,17.00,-979.00
2024-05-17 15:51:30.527879,1,0,0,0,0,0,73,75,140,140,45,191.37,371,1.00,12.00,-1012.00
2024-05-17 15:51:30.720336,0,0,0,0,0,0,73,75,139,140,45,191.37,371,22.00,-29.00,-996.00
2024-05-17 15:51:30.731241,0,0,0,0,0,0,73,75,139,140,45,191.40,371,0.00,12.00,-990.00
2024-05-17 15:51:30.833234,0,0,0,0,0,0,73,75,139,140,45,191.40,371,-2.00,41.00,-1005.00
2024-05-17 15:51:31.024885,0,0,0,0,0,0,73,75,139,140,45,191.37,371,11.00,25.00,-1017.00
2024-05-17 15:51:31.037431,0,0,0,0,0,0,73,75,139,140,45,191.32,371,15.00,6.00,-1082.00
2024-05-17 15:51:31.229759,0,0,0,0,0,0,73,76,140,140,45,191.38,371,17.00,-12.00,-1036.00
2024-05-17 15:51:31.241505,0,0,0,0,0,0,73,76,139,140,45,191.33,371,5.00,29.00,-1012.00
2024-05-17 15:51:31.434898,0,0,0,0,0,0,73,76,140,140,45,191.36,372,12.00,43.00,-956.00
2024-05-17 15:51:31.445286,0,0,0,0,0,0,73,76,140,140,45,191.35,372,17.00,33.00,-979.00
2024-05-17 15:51:31.639300,0,0,0,0,0,0,73,76,140,140,45,191.32,372,-3.00,16.00,-949.00
2024-05-17 15:51:31.649608,0,0,0,0,0,0,73,76,140,140,45,191.40,372,15.00,-13.00,-998.00
2024-05-17 15:51:31.844041,0,0,0,0,0,0,73,76,141,140,45,191.37,372,20.00,4.00,-988.00
2024-05-17 15:51:31.853727,0,0,0,0,0,0,73,76,141,140,45,191.35,372,12.00,15.00,-950.00
2024-05-17 15:51:32.019368,0,-1,0,0,0,0,73,76,141,140,45,191.35,372,6.00,16.00,-961.00
2024-05-17 15:51:32.062014,0,-1,0,0,0,0,73,76,141,140,45,191.34,372,11.00,37.00,-939.00
2024-05-17 15:51:32.159061,0,-1,-1,0,0,0,72,76,141,140,45,191.35,372,3.00,31.00,-966.00
2024-05-17 15:51:32.355892,0,-1,-7,0,0,0,72,76,141,140,45,191.34,372,11.00,55.00,-997.00
2024-05-17 15:51:32.363706,0,-1,-13,0,0,0,72,76,141,140,45,191.33,373,24.00,15.00,-1004.00
2024-05-17 15:51:32.465964,0,-1,-19,0,0,0,72,76,141,140,45,191.39,373,6.00,26.00,-1002.00
2024-05-17 15:51:32.569348,0,-1,-25,0,0,0,72,76,140,140,45,191.40,373,8.00,4.00,-1005.00
2024-05-17 15:51:32.669067,0,0,-32,0,0,0,72,76,140,140,45,191.34,373,9.00,3.00,-1038.00
2024-05-17 15:51:32.868288,0,0,-38,0,0,0,72,76,139,140,45,191.30,373,0.00,9.00,-942.00
2024-05-17 15:51:32.873267,0,0,-44,0,0,0,72,76,139,140,45,191.30,373,3.00,9.00,-1050.00
2024-05-17 15:51:33.073632,0,0,-50,0,0,0,72,76,139,140,45,191.37,373,0.00,18.00,-1041.00
2024-05-17 15:51:33.077171,0,0,-56,0,0,0,72,76,139,130,45,191.34,373,-11.00,41.00,-984.00
2024-05-17 15:51:33.278322,0,0,-62,0,0,0,73,76,138,130,45,191.35,373,-10.00,-25.00,-1013.00
2024-05-17 15:51:33.281399,0,0,-68,0,0,0,73,76,138,130,45,191.36,373,-19.00,5.00,-978.00
2024-05-17 15:51:33.383109,0,0,-74,0,0,0,73,76,138,130,45,191.39,374,-36.00,21.00,-950.00
2024-05-17 15:51:33.485491,-1,0,-80,0,0,0,73,76,138,130,45,191.31,374,-25.00,-2.00,-985.00
2024-05-17 15:51:33.587406,-1,0,-87,0,0,0,73,76,138,130,45,191.32,374,-3.00,-16.00,-985.00
2024-05-17 15:51:33.689089,-1,0,-93,0,0,0,73,76,138,130,45,191.35,374,-29.00,25.00,-1001.00
2024-05-17 15:51:33.894696,-1,0,-99,0,0,0,73,76,138,130,45,191.38,374,-17.00,40.00,-1008.00
2024-05-17 15:51:33.894917,-1,0,-105,0,0,0,73,76,138,130,45,191.24,374,-16.00,2.00,-1032.00
2024-05-17 15:51:33.994943,-1,0,-111,0,0,0,73,76,138,130,45,191.29,374,-28.00,-8.00,-1018.00
2024-05-17 15:51:34.096989,0,0,-117,0,0,0,73,76,139,130,45,191.28,374,-35.00,12.00,-1008.00
2024-05-17 15:51:34.199962,0,0,-124,0,0,0,73,76,139,130,45,191.38,374,-30.00,33.00,-948.00
2024-05-17 15:51:34.301715,0,0,-130,0,0,0,73,76,140,140,45,191.34,374,-35.00,-16.00,-955.00
2024-05-17 15:51:34.403546,0,0,-136,0,0,0,73,76,140,140,45,191.35,375,-24.00,-21.00,-1008.00
2024-05-17 15:51:34.506522,0,0,-142,0,0,0,73,76,140,140,45,191.38,375,-33.00,-19.00,-991.00
2024-05-17 15:51:34.608411,0,0,-148,0,0,0,73,76,139,140,45,191.31,375,-21.00,-23.00,-984.00
2024-05-17 15:51:34.657756,0,0,-154,0,0,0,73,76,140,140,45,191.33,375,-13.00,9.00,-1034.00
2024-05-17 15:51:34.813497,0,0,-160,0,0,0,73,76,139,140,45,191.33,375,-29.00,-10.00,-929.00
2024-05-17 15:51:34.861757,0,0,-166,0,0,0,73,76,139,140,45,191.34,375,6.00,-59.00,-1033.00
2024-05-17 15:51:35.018293,0,0,-172,0,0,0,73,76,140,140,45,191.36,375,-10.00,-37.00,-989.00
2024-05-17 15:51:35.065925,0,0,-178,0,0,0,73,76,139,140,44,191.39,375,-14.00,-41.00,-985.00
2024-05-17 15:51:35.224079,0,0,175,0,0,0,73,75,139,140,44,191.40,375,-13.00,-40.00,-1040.00
2024-05-17 15:51:35.270094,0,0,169,0,0,0,73,75,139,140,44,191.39,375,-20.00,-30.00,-1007.00
2024-05-17 15:51:35.428831,0,0,163,0,0,0,73,75,138,140,44,191.29,376,-14.00,5.00,-1039.00
2024-05-17 15:51:35.473930,0,0,157,0,0,0,73,75,139,130,44,191.41,376,-6.00,-47.00,-973.00
2024-05-17 15:51:35.632784,0,0,151,0,0,0,73,75,139,130,44,191.43,376,-23.00,8.00,-992.00
2024-05-17 15:51:35.677741,0,0,146,0,0,0,73,75,140,140,44,191.35,376,-5.00,-19.00,-1025.00
2024-05-17 15:51:35.840213,0,0,140,0,0,0,73,75,140,140,44,191.34,376,0.00,-32.00,-970.00
2024-05-17 15:51:35.881716,0,0,134,0,0,0,73,75,141,140,44,191.34,376,-21.00,3.00,-952.00
2024-05-17 15:51:36.042297,0,0,128,0,0,0,73,75,141,140,44,191.35,376,-2.00,16.00,-987.00
2024-05-17 15:51:36.085654,0,0,122,0,0,0,73,75,141,140,44,191.36,376,4.00,10.00,-990.00
2024-05-17 15:51:36.247111,0,0,117,0,0,0,73,76,142,140,44,191.40,376,-1.00,31.00,-966.00
2024-05-17 15:51:36.298237,0,0,111,0,0,0,73,76,142,140,44,191.34,376,0.00,29.00,-950.00
2024-05-17 15:51:36.391810,0,0,105,0,0,0,73,76,142,140,44,191.35,377,0.00,22.00,-1021.00
2024-05-17 15:51:36.554352,0,0,99,0,0,0,73,76,142,140,44,191.36,377,5.00,-23.00,-1004.00
2024-05-17 15:51:36.596891,0,0,93,0,0,0,73,76,142,140,44,191.43,377,23.00,9.00,-969.00
2024-05-17 15:51:36.761868,0,0,87,0,0,0,73,76,142,140,44,191.33,377,-1.00,21.00,-963.00
2024-05-17 15:51:36.801038,0,0,81,0,0,0,73,76,142,140,44,191.38,377,4.00,1.00,-966.00
2024-05-17 15:51:36.965103,0,0,75,0,0,0,73,76,141,140,44,191.34,377,6.00,2.00,-994.00
2024-05-17 15:51:37.004940,0,0,70,0,0,0,73,76,141,140,44,191.38,377,-13.00,-13.00,-983.00
2024-05-17 15:51:37.171489,0,0,64,0,0,0,73,76,141,140,44,191.35,377,-16.00,-21.00,-994.00
2024-05-17 15:51:37.210720,0,0,58,0,0,0,73,76,140,140,44,191.33,377,16.00,-21.00,-1098.00
2024-05-17 15:51:37.311217,0,0,52,0,0,0,73,76,140,140,44,191.36,377,-1.00,2.00,-991.00
2024-05-17 15:51:37.475869,0,0,46,0,0,0,73,76,140,140,44,191.40,378,15.00,12.00,-1045.00
2024-05-17 15:51:37.514943,0,0,41,0,0,0,73,76,139,140,44,191.41,378,-1.00,0.00,-997.00
2024-05-17 15:51:37.680683,0,0,35,0,0,0,73,76,139,140,44,191.36,378,1.00,5.00,-1000.00
2024-05-17 15:51:37.718886,0,0,29,0,0,0,73,76,138,130,44,191.36,378,-7.00,20.00,-969.00
2024-05-17 15:51:37.885444,0,0,23,0,0,0,73,76,138,130,44,191.42,378,-1.00,18.00,-1010.00
2024-05-17 15:51:37.922724,0,0,18,0,0,0,73,76,138,130,44,191.35,378,2.00,31.00,-1005.00
2024-05-17 15:51:38.024808,0,0,14,0,0,0,73,76,138,130,44,191.42,378,8.00,0.00,-1048.00
2024-05-17 15:51:38.192847,0,0,10,0,0,0,73,76,138,130,44,191.30,378,-6.00,-5.00,-1037.00
2024-05-17 15:51:38.228869,0,-1,8,0,0,0,73,76,138,130,44,191.32,378,-6.00,1.00,-1007.00
2024-05-17 15:51:38.397467,0,0,6,0,0,0,73,76,138,130,44,191.36,378,0.00,25.00,-968.00
2024-05-17 15:51:38.397893,0,-1,4,0,0,0,73,76,139,130,44,191.37,379,4.00,26.00,-991.00
2024-05-17 15:51:38.483620,0,-1,3,0,0,0,73,76,140,130,44,191.33,379,8.00,22.00,-1016.00
2024-05-17 15:51:38.607002,0,0,2,0,0,0,73,76,141,130,44,191.39,379,2.00,-5.00,-958.00
2024-05-17 15:51:38.687587,0,0,1,0,0,0,73,76,141,130,44,191.47,379,-6.00,34.00,-1009.00
2024-05-17 15:51:38.807654,0,0,1,0,0,0,73,76,142,140,44,191.46,379,-6.00,38.00,-992.00
2024-05-17 15:51:38.891841,0,0,1,0,0,0,73,76,142,140,44,191.43,379,-18.00,36.00,-958.00
2024-05-17 15:51:39.013935,0,0,1,0,0,0,73,76,142,140,44,191.39,379,13.00,-16.00,-994.00
2024-05-17 15:51:39.095713,0,-1,1,0,0,0,73,76,142,140,43,191.38,379,8.00,22.00,-1002.00
2024-05-17 15:51:39.217814,0,-1,1,0,0,0,73,74,143,140,43,191.41,379,-10.00,3.00,-954.00
2024-05-17 15:51:39.299726,0,-1,1,0,0,0,73,74,143,140,43,191.37,379,-9.00,40.00,-934.00
2024-05-17 15:51:39.422405,0,-1,1,0,0,0,73,74,142,140,43,191.41,380,2.00,40.00,-999.00
2024-05-17 15:51:39.503675,0,-1,1,0,0,0,73,74,142,140,43,191.44,380,-4.00,-2.00,-977.00
2024-05-17 15:51:39.628823,0,-1,1,0,0,0,73,74,142,140,43,191.36,380,7.00,17.00,-958.00
2024-05-17 15:51:39.707707,0,-1,1,0,0,0,73,74,142,140,43,191.37,380,8.00,19.00,-1036.00
2024-05-17 15:51:39.831463,0,-1,1,0,0,0,73,74,141,140,43,191.41,380,0.00,-3.00,-969.00
2024-05-17 15:51:39.911777,0,0,1,0,0,0,73,74,141,140,43,191.30,380,27.00,3.00,-1053.00
2024-05-17 15:51:40.036289,0,0,1,0,0,0,73,74,141,140,43,191.40,380,-3.00,-26.00,-994.00
2024-05-17 15:51:40.115638,0,0,1,0,0,0,73,74,140,140,43,191.38,380,5.00,-4.00,-1023.00
2024-05-17 15:51:40.242791,0,-1,1,0,0,0,73,75,140,140,43,191.38,380,10.00,33.00,-1068.00
2024-05-17 15:51:40.320749,0,-1,1,0,0,0,73,75,140,140,43,191.33,381,-11.00,35.00,-972.00
2024-05-17 15:51:40.422119,0,-1,1,0,0,0,73,75,140,140,43,191.37,381,-1.00,22.00,-998.00
2024-05-17 15:51:40.551009,0,-1,1,0,0,0,73,75,140,140,43,191.39,381,-3.00,33.00,-1044.00
2024-05-17 15:51:40.625772,0,0,1,0,0,0,73,75,140,140,43,191.32,381,9.00,-16.00,-1021.00
2024-05-17 15:51:40.728770,0,0,1,0,0,0,73,75,140,140,43,191.39,381,-10.00,32.00,-951.00
2024-05-17 15:51:40.865758,0,0,1,0,0,0,73,75,140,140,43,191.42,381,-1.00,13.00,-1074.00
2024-05-17 15:51:40.933684,0,0,1,0,0,0,73,75,140,140,43,191.38,381,1.00,10.00,-901.00
2024-05-17 15:51:41.033743,0,0,1,0,0,0,73,75,140,140,43,191.36,381,18.00,-3.00,-993.00
2024-05-17 15:51:41.167436,0,0,1,0,0,0,73,75,139,140,43,191.28,381,3.00,13.00,-999.00
2024-05-17 15:51:41.237895,0,0,1,0,0,0,72,75,139,130,43,191.39,381,4.00,-7.00,-967.00
2024-05-17 15:51:41.368602,0,0,1,0,0,0,72,75,139,130,43,191.30,382,1.00,23.00,-1040.00
2024-05-17 15:51:41.443027,0,0,1,0,0,0,72,75,139,130,43,191.31,382,8.00,1.00,-994.00
2024-05-17 15:51:41.576739,0,0,1,0,0,0,72,75,138,130,43,191.34,382,7.00,12.00,-948.00
2024-05-17 15:51:41.647293,0,0,1,0,0,0,72,75,138,130,43,191.34,382,-5.00,29.00,-1049.00
2024-05-17 15:51:41.777265,0,0,1,0,0,0,72,75,139,130,43,191.40,382,11.00,-35.00,-994.00
2024-05-17 15:51:41.851882,0,0,1,0,0,0,72,75,139,130,43,191.31,382,1.00,5.00,-996.00
2024-05-17 15:51:41.901690,0,0,1,0,0,0,72,75,139,130,43,191.35,382,2.00,21.00,-939.00
2024-05-17 15:51:42.084887,0,0,1,0,0,0,72,75,139,130,43,191.37,382,8.00,22.00,-1015.00
2024-05-17 15:51:42.105460,0,0,1,0,0,0,72,75,139,130,43,191.37,382,-3.00,26.00,-997.00
2024-05-17 15:51:42.289883,0,0,1,0,0,0,72,75,139,130,43,191.40,382,16.00,-10.00,-1059.00
2024-05-17 15:51:42.309834,0,0,1,0,0,0,72,75,139,130,43,191.33,383,-5.00,47.00,-977.00
2024-05-17 15:51:42.414521,0,0,1,0,0,0,72,75,139,140,43,191.34,383,-1.00,13.00,-983.00
2024-05-17 15:51:42.514390,0,0,1,0,0,0,72,75,139,140,43,191.32,383,-13.00,11.00,-927.00
2024-05-17 15:51:42.618085,0,0,1,0,0,0,72,75,139,140,43,191.39,383,-4.00,0.00,-965.00
2024-05-17 15:51:42.720708,0,0,1,0,0,0,72,75,140,140,43,191.35,383,15.00,2.00,-990.00
2024-05-17 15:51:42.821388,0,0,1,0,0,0,72,75,140,140,43,191.34,383,6.00,-4.00,-985.00
2024-05-17 15:51:42.923732,0,0,1,0,0,0,72,75,140,140,43,191.31,383,0.00,26.00,-1006.00
2024-05-17 15:51:43.023638,0,0,1,0,0,0,72,75,140,140,43,191.31,383,-3.00,44.00,-1005.00
2024-05-17 15:51:43.211022,0,0,1,0,0,0,72,75,140,140,43,191.33,383,-11.00,-28.00,-966.00
2024-05-17 15:51:43.230352,0,0,1,0,0,0,73,75,140,140,43,191.36,383,-3.00,-24.00,-1025.00
2024-05-17 15:51:43.329540,0,0,1,0,0,0,73,75,140,140,43,191.40,384,-9.00,30.00,-997.00
2024-05-17 15:51:43.431721,0,0,1,0,0,0,73,75,140,140,43,191.36,384,-18.00,21.00,-961.00
2024-05-17 15:51:43.619966,0,0,1,0,0,0,73,75,140,140,43,191.30,384,-4.00,-33.00,-1023.00
2024-05-17 15:51:43.638606,0,-1,1,0,0,0,73,75,139,140,43,191.36,384,-1.00,45.00,-990.00
2024-05-17 15:51:43.737460,0,-1,1,0,0,0,73,75,139,140,43,191.39,384,4.00,-2.00,-1024.00
2024-05-17 15:51:43.927444,0,-1,1,0,0,0,73,75,139,140,43,191.37,384,1.00,-24.00,-1011.00
2024-05-17 15:51:43.941622,0,0,1,0,0,0,73,75,139,140,43,191.40,384,1.00,-11.00,-1032.00
2024-05-17 15:51:44.132448,0,0,1,0,0,0,73,75,139,140,43,191.43,384,-22.00,41.00,-925.00
2024-05-17 15:51:44.145386,0,0,1,0,0,0,73,75,139,130,42,191.36,384,0.00,14.00,-1006.00
2024-05-17 15:51:44.339059,0,-1,1,0,0,0,73,75,139,130,42,191.44,384,1.00,6.00,-1020.00
2024-05-17 15:51:44.349492,0,-1,1,0,0,0,73,75,139,130,42,191.36,385,0.00,41.00,-974.00
2024-05-17 15:51:44.451406,0,-1,1,0,0,0,73,75,139,130,42,191.33,385,0.00,-10.00,-1023.00
2024-05-17 15:51:44.645264,0,-1,1,0,0,0,73,75,140,130,42,191.36,385,7.00,-20.00,-1011.00
2024-05-17 15:51:44.655262,0,0,1,0,0,0,73,75,140,130,42,191.37,385,17.00,6.00,-1065.00
2024-05-17 15:51:44.851765,0,0,1,0,0,0,73,75,140,140,42,191.39,385,-5.00,46.00,-980.00
2024-05-17 15:51:44.859396,0,0,1,0,0,0,73,75,140,140,42,191.32,385,-3.00,11.00,-992.00
2024-05-17 15:51:44.961489,0,0,1,0,0,0,73,75,140,140,42,191.41,385,-5.00,23.00,-937.00
2024-05-17 15:51:45.156767,0,-1,1,0,0,0,73,75,140,140,42,191.30,385,11.00,5.00,-1007.00
2024-05-17 15:51:45.165333,0,-1,1,0,0,0,73,75,140,140,42,191.37,385,5.00,8.00,-991.00
2024-05-17 15:51:45.361766,0,0,1,0,0,0,72,75,140,140,42,191.37,385,-14.00,12.00,-906.00
2024-05-17 15:51:45.369408,0,0,1,0,0,0,72,75,140,140,42,191.37,386,6.00,14.00,-961.00
2024-05-17 15:51:45.471646,0,0,1,0,0,0,72,75,139,140,42,191.34,386,2.00,16.00,-1030.00
2024-05-17 15:51:45.668322,0,-1,1,0,0,0,72,75,139,130,42,191.37,386,-26.00,14.00,-948.00
2024-05-17 15:51:45.675592,0,-1,1,0,0,0,72,75,139,130,42,191.37,386,11.00,2.00,-1018.00
2024-05-17 15:51:45.728767,0,-1,1,0,0,0,72,75,139,130,42,191.33,386,2.00,19.00,-987.00
2024-05-17 15:51:45.828679,0,-1,1,0,0,0,72,75,140,130,42,191.30,386,6.00,28.00,-1002.00
2024-05-17 15:51:45.975255,0,0,1,0,0,0,72,75,140,130,42,191.32,386,11.00,15.00,-1009.00
2024-05-17 15:51:46.032551,0,0,1,0,0,0,72,75,140,130,42,191.34,386,18.00,40.00,-1006.00
2024-05-17 15:51:46.180106,0,0,1,0,0,0,72,75,140,140,42,191.32,386,12.00,20.00,-1037.00
2024-05-17 15:51:46.236738,0,0,1,0,0,0,72,75,141,140,42,191.32,386,5.00,14.00,-1041.00
2024-05-17 15:51:46.385492,0,0,1,0,0,0,72,75,141,140,42,191.30,387,16.00,-1.00,-1021.00
2024-05-17 15:51:46.441203,0,0,1,0,0,0,72,75,141,140,42,191.37,387,9.00,-4.00,-993.00
2024-05-17 15:51:46.544606,0,-1,1,0,0,0,72,75,140,140,42,191.33,387,8.00,15.00,-967.00
2024-05-17 15:51:46.645606,0,0,1,0,0,0,72,75,140,140,42,191.32,387,5.00,-4.00,-971.00
2024-05-17 15:51:46.746721,0,0,1,0,0,0,72,75,140,140,42,191.36,387,6.00,34.00,-994.00
2024-05-17 15:51:46.897397,0,0,1,0,0,0,72,75,140,140,42,191.32,387,25.00,-8.00,-1028.00
2024-05-17 15:51:46.950611,0,0,1,0,0,0,72,75,140,130,42,191.36,387,16.00,-24.00,-1029.00
2024-05-17 15:51:47.102100,0,0,1,0,0,0,72,75,140,130,42,191.37,387,2.00,44.00,-1008.00
2024-05-17 15:51:47.155759,0,0,1,0,0,0,72,75,140,130,42,191.29,387,29.00,11.00,-1050.00
2024-05-17 15:51:47.256469,0,0,1,0,0,0,72,75,140,130,42,191.32,387,0.00,30.00,-966.00
2024-05-17 15:51:47.409257,0,0,1,0,0,0,72,75,140,130,42,191.29,388,18.00,9.00,-1049.00
2024-05-17 15:51:47.465340,0,-1,1,0,0,0,72,75,140,140,42,191.32,388,10.00,-9.00,-1047.00
2024-05-17 15:51:47.565480,0,0,1,0,0,0,72,75,141,140,42,191.32,388,5.00,39.00,-994.00
2024-05-17 15:51:47.664556,0,-1,1,0,0,0,72,75,141,140,42,191.36,388,12.00,18.00,-1019.00
2024-05-17 15:51:47.819726,0,-1,1,0,0,0,72,75,141,140,42,191.33,388,14.00,23.00,-985.00
2024-05-17 15:51:47.868424,0,-1,1,0,0,0,72,75,141,140,42,191.30,388,1.00,16.00,-992.00
2024-05-17 15:51:48.023717,0,-1,1,0,0,0,72,75,141,140,42,191.31,388,18.00,-12.00,-1013.00
2024-05-17 15:51:48.073993,0,-1,1,0,0,0,72,75,141,140,42,191.35,388,7.00,41.00,-988.00
2024-05-17 15:51:48.228240,0,-1,1,0,0,0,72,75,141,140,42,191.35,388,6.00,54.00,-1023.00
2024-05-17 15:51:48.277455,0,-1,1,0,0,0,72,75,141,140,42,191.39,388,3.00,31.00,-1094.00
2024-05-17 15:51:48.435258,0,-1,1,0,0,0,72,75,142,140,42,191.39,389,6.00,21.00,-1028.00
2024-05-17 15:51:48.480628,0,-1,1,0,0,0,72,75,142,140,42,191.34,389,-4.00,53.00,-985.00
2024-05-17 15:51:48.637610,0,-1,1,0,0,0,72,75,142,140,42,191.29,389,0.00,29.00,-1080.00
2024-05-17 15:51:48.684439,0,-1,1,0,0,0,72,75,142,140,42,191.34,389,20.00,16.00,-1011.00
2024-05-17 15:51:48.842400,0,-1,1,0,0,0,72,75,142,140,42,191.33,389,12.00,3.00,-992.00
2024-05-17 15:51:48.888499,0,0,1,0,0,0,72,75,142,140,42,191.31,389,-7.00,35.00,-941.00
2024-05-17 15:51:49.047261,0,0,1,0,0,0,72,75,142,140,42,191.36,389,2.00,32.00,-979.00
2024-05-17 15:51:49.092451,0,0,1,0,0,0,72,75,143,140,42,191.33,389,16.00,-20.00,-1062.00
2024-05-17 15:51:49.252015,0,0,1,0,0,0,72,75,143,140,42,191.40,389,15.00,-4.00,-993.00
2024-05-17 15:51:49.301263,0,0,1,0,0,0,72,75,143,140,42,191.30,389,-9.00,51.00,-967.00
2024-05-17 15:51:49.398459,0,0,1,0,0,0,72,75,143,140,42,191.32,390,-9.00,60.00,-994.00
2024-05-17 15:51:49.500558,0,0,1,0,0,0,72,75,142,140,42,191.37,390,16.00,4.00,-1103.00
2024-05-17 15:51:49.661640,0,0,1,0,0,0,72,75,142,140,42,191.39,390,10.00,-6.00,-1015.00
2024-05-17 15:51:49.705470,0,0,1,0,0,0,72,75,142,140,42,191.33,390,25.00,-18.00,-1001.00
2024-05-17 15:51:49.806902,0,0,1,0,0,0,72,75,142,140,42,191.36,390,8.00,1.00,-1010.00
2024-05-17 15:51:49.858419,0,0,1,0,0,0,72,75,141,140,42,191.34,390,15.00,-30.00,-1031.00
2024-05-17 15:51:49.968940,0,0,1,0,0,0,72,75,141,140,42,191.36,390,0.00,4.00,-975.00
2024-05-17 15:51:50.062368,0,0,1,0,0,0,72,75,140,140,41,191.37,390,17.00,28.00,-1019.00
2024-05-17 15:51:50.164655,0,0,1,0,0,0,72,75,140,140,41,191.34,390,-10.00,25.00,-981.00
2024-05-17 15:51:50.266430,0,0,1,0,0,0,73,75,139,140,41,191.30,390,1.00,16.00,-994.00
2024-05-17 15:51:50.369893,0,0,1,0,0,0,73,75,139,130,41,191.33,391,17.00,29.00,-999.00
2024-05-17 15:51:50.471020,0,0,1,0,0,0,73,75,139,130,41,191.33,391,-6.00,38.00,-1027.00
2024-05-17 15:51:50.573623,0,0,1,0,0,0,73,75,139,130,41,191.30,391,-7.00,33.00,-968.00
2024-05-17 15:51:50.674384,0,0,1,0,0,0,73,75,139,130,41,191.29,391,-8.00,32.00,-1013.00
2024-05-17 15:51:50.776371,0,0,1,0,0,0,73,75,140,130,41,191.33,391,21.00,24.00,-1059.00
2024-05-17 15:51:50.892231,0,0,1,0,0,0,73,75,140,130,41,191.31,391,-2.00,-10.00,-975.00
2024-05-17 15:51:50.982654,0,0,1,0,0,0,73,75,140,140,41,191.27,391,2.00,29.00,-977.00
2024-05-17 15:51:51.082609,0,0,1,0,0,0,73,75,140,140,41,191.31,391,10.00,-1.00,-1051.00
2024-05-17 15:51:51.184414,0,0,1,0,0,0,73,75,140,140,41,191.31,391,10.00,5.00,-1015.00
2024-05-17 15:51:51.300683,0,0,1,0,0,0,72,75,141,140,41,191.31,391,-1.00,53.00,-992.00
2024-05-17 15:51:51.388443,0,0,1,0,0,0,72,75,141,140,41,191.34,392,16.00,18.00,-984.00
2024-05-17 15:51:51.490367,0,0,1,0,0,0,72,75,141,140,41,191.25,392,10.00,17.00,-1013.00
2024-05-17 15:51:51.608292,0,0,1,0,0,0,72,75,141,140,41,191.33,392,18.00,2.00,-1030.00
2024-05-17 15:51:51.694248,0,0,1,0,0,0,72,75,141,140,41,191.23,392,21.00,-28.00,-1023.00
2024-05-17 15:51:51.796263,0,0,1,0,0,0,72,75,142,140,41,191.31,392,-1.00,26.00,-944.00
2024-05-17 15:51:51.915549,0,0,1,0,0,0,72,75,142,140,41,191.43,392,-17.00,21.00,-1011.00
2024-05-17 15:51:52.000371,0,0,1,0,0,0,72,75,142,140,41,191.33,392,-7.00,-5.00,-1018.00
2024-05-17 15:51:52.102273,0,0,1,0,0,0,72,75,142,140,41,191.28,392,14.00,2.00,-944.00
2024-05-17 15:51:52.221703,0,0,1,0,0,0,72,75,142,140,41,191.29,392,10.00,3.00,-1002.00
2024-05-17 15:51:52.306505,0,0,1,0,0,0,71,75,142,140,41,191.28,392,9.00,0.00,-1043.00
2024-05-17 15:51:52.408353,0,0,1,0,0,0,71,75,142,140,41,191.35,393,16.00,-25.00,-992.00
2024-05-17 15:51:52.510432,0,0,1,0,0,0,71,75,141,140,41,191.28,393,-6.00,10.00,-991.00
2024-05-17 15:51:52.612203,0,0,1,0,0,0,71,75,140,140,41,191.31,393,1.00,33.00,-1010.00
2024-05-17 15:51:52.734653,0,-1,1,0,0,0,71,75,139,140,41,191.33,393,22.00,-18.00,-1020.00
2024-05-17 15:51:52.816476,0,-1,1,0,0,0,71,75,138,140,41,191.22,393,1.00,17.00,-966.00
2024-05-17 15:51:52.938298,0,-1,1,0,0,0,71,75,137,140,41,191.24,393,7.00,32.00,-960.00
2024-05-17 15:51:53.020333,0,-1,1,0,0,0,71,75,136,130,41,191.30,393,12.00,5.00,-997.00
2024-05-17 15:51:53.143229,0,-1,1,0,0,0,71,75,135,130,41,191.27,393,14.00,12.00,-1078.00
2024-05-17 15:51:53.223997,0,-1,1,0,0,0,71,75,134,130,41,191.23,393,-6.00,38.00,-1001.00
2024-05-17 15:51:53.326835,0,0,1,0,0,0,72,75,134,130,41,191.24,393,9.00,5.00,-940.00
2024-05-17 15:51:53.451264,0,0,1,0,0,0,72,75,133,130,41,191.23,394,15.00,43.00,-983.00
2024-05-17 15:51:53.530065,0,0,1,0,0,1,72,75,132,130,41,191.16,394,15.00,2.00,-985.00
2024-05-17 15:51:53.655417,0,0,1,0,0,1,72,75,129,130,41,191.17,394,1.00,18.00,-897.00
2024-05-17 15:51:53.683944,0,0,1,0,0,2,72,75,126,130,41,191.14,394,-1.00,29.00,-921.00
2024-05-17 15:51:53.859909,0,0,1,0,0,3,72,75,122,120,41,191.10,394,2.00,37.00,-934.00
2024-05-17 15:51:53.886907,0,-1,1,0,0,4,72,75,117,120,41,191.10,394,6.00,-20.00,-880.00
2024-05-17 15:51:54.064972,0,-1,1,0,0,5,72,75,110,110,41,191.00,394,-12.00,28.00,-876.00
