TS,pitch,roll,yaw,vgx,vgy,vgz,templ,temph,tof,h,bat,baro,time,agx,agy,agz
2024-05-19 08:28:54.830037,0,0,11,0,0,0,78,81,10,0,76,131.25,157,-5.00,-3.00,-998.00
2024-05-19 08:28:54.907377,0,0,11,0,0,0,78,81,10,0,76,131.23,157,-2.00,-5.00,-1001.00
2024-05-19 08:28:55.035113,0,0,11,0,0,0,78,81,10,0,76,131.27,157,-3.00,-5.00,-999.00
2024-05-19 08:28:55.111517,0,0,11,0,0,0,79,82,10,0,76,131.31,157,-3.00,-5.00,-999.00
2024-05-19 08:28:55.240450,0,0,11,0,0,0,79,82,10,0,76,131.25,157,-4.00,-5.00,-1000.00
2024-05-19 08:28:55.315099,0,0,11,0,0,0,79,82,10,0,76,131.26,157,-2.00,-5.00,-999.00
2024-05-19 08:28:55.443821,0,0,11,0,0,0,79,82,10,0,76,131.26,157,-3.00,-5.00,-998.00
2024-05-19 08:28:55.519238,0,0,12,0,0,0,79,82,10,0,76,131.26,157,-2.00,-5.00,-998.00
2024-05-19 08:28:55.649549,0,0,12,0,0,0,79,82,10,0,76,131.26,157,-3.00,-6.00,-1000.00
2024-05-19 08:28:55.723181,0,0,12,0,0,0,79,82,10,0,76,131.24,157,-4.00,-7.00,-1002.00
2024-05-19 08:28:55.853309,0,0,12,0,0,0,79,82,10,0,76,131.25,157,-1.00,-5.00,-1002.00
2024-05-19 08:28:55.927084,0,0,12,0,0,0,79,82,10,0,76,131.23,157,-4.00,-7.00,-999.00
2024-05-19 08:28:56.029388,0,0,12,0,0,0,79,82,10,0,76,131.25,157,-2.00,-6.00,-998.00
2024-05-19 08:28:56.160475,0,0,12,0,0,0,79,81,10,0,76,131.23,157,-4.00,-7.00,-1000.00
2024-05-19 08:28:56.233294,0,0,12,0,0,0,79,81,10,0,76,131.28,157,-4.00,-5.00,-998.00
2024-05-19 08:28:56.364994,0,0,12,0,0,0,79,81,10,0,76,131.29,157,-5.00,-5.00,-1000.00
2024-05-19 08:28:56.437680,0,0,12,0,0,0,79,81,10,0,76,131.24,157,-4.00,-5.00,-1000.00
2024-05-19 08:28:56.487881,0,0,12,0,0,0,79,81,10,0,76,131.25,157,-3.00,-7.00,-1001.00
2024-05-19 08:28:56.673014,0,0,12,0,0,0,79,81,10,0,76,131.28,157,-4.00,-6.00,-1000.00
2024-05-19 08:28:56.691777,0,0,12,0,0,0,79,81,10,0,76,131.27,157,-3.00,-4.00,-999.00
2024-05-19 08:28:56.878723,0,0,12,0,0,0,79,81,10,0,76,131.29,157,-5.00,-4.00,-998.00
2024-05-19 08:28:56.895729,0,0,12,0,0,0,79,81,10,0,76,131.30,157,-3.00,-6.00,-998.00
2024-05-19 08:28:57.082068,0,0,12,0,0,0,79,81,10,0,76,131.23,157,-3.00,-5.00,-998.00
2024-05-19 08:28:57.099843,0,0,12,0,0,0,79,81,10,0,76,131.27,157,-5.00,-5.00,-1001.00
2024-05-19 08:28:57.288289,0,0,12,0,0,0,79,81,10,0,76,131.26,157,-3.00,-4.00,-1002.00
2024-05-19 08:28:57.303714,0,0,12,0,0,0,79,81,10,0,76,131.29,157,-3.00,-5.00,-999.00
2024-05-19 08:28:57.492666,0,0,12,0,0,0,79,81,10,0,76,131.23,157,-4.00,-6.00,-998.00
2024-05-19 08:28:57.507769,0,0,12,0,0,0,79,81,10,0,76,131.25,157,-4.00,-6.00,-1001.00
2024-05-19 08:28:57.696516,0,0,12,0,0,0,79,81,10,0,76,131.22,157,-4.00,-6.00,-1000.00
2024-05-19 08:28:57.711784,0,0,12,0,0,0,79,81,10,0,76,131.25,157,-3.00,-4.00,-997.00
2024-05-19 08:28:57.904298,0,0,12,0,0,0,79,81,10,0,76,131.26,157,-4.00,-5.00,-1000.00
2024-05-19 08:28:57.915888,0,0,12,0,0,0,79,81,10,0,76,131.28,157,-4.00,-6.00,-999.00
2024-05-19 08:28:58.110250,0,0,12,0,0,0,79,81,10,0,76,131.25,157,-5.00,-5.00,-1000.00
2024-05-19 08:28:58.121101,0,0,12,0,0,0,79,81,10,0,76,131.27,157,-3.00,-4.00,-998.00
2024-05-19 08:28:58.311418,0,0,12,0,0,0,79,81,10,0,76,131.25,157,-1.00,-7.00,-999.00
2024-05-19 08:28:58.325054,0,0,12,0,0,0,79,81,10,0,76,131.25,157,-2.00,-5.00,-1000.00
2024-05-19 08:28:58.426963,0,0,12,0,0,0,79,81,10,0,76,131.28,157,-3.00,-6.00,-1002.00
2024-05-19 08:28:58.618363,0,0,12,0,0,0,79,81,10,0,76,131.28,157,-3.00,-6.00,-996.00
2024-05-19 08:28:58.630821,0,0,12,0,0,0,79,81,10,0,76,131.28,157,-1.00,-3.00,-1004.00
2024-05-19 08:28:58.823755,0,0,12,0,0,0,79,81,10,0,76,131.28,158,-12.00,-6.00,-997.00
2024-05-19 08:28:58.835006,0,0,12,0,0,0,79,81,10,0,76,131.28,158,-6.00,16.00,-951.00
2024-05-19 08:28:59.027883,0,0,12,0,0,0,79,81,10,0,76,131.28,158,2.00,-34.00,-978.00
2024-05-19 08:28:59.038991,0,0,12,0,0,0,79,81,10,0,76,131.28,158,-1.00,-11.00,-1126.00
2024-05-19 08:28:59.232433,0,0,12,0,0,0,80,82,10,0,76,131.28,158,-19.00,-24.00,-1265.00
2024-05-19 08:28:59.242995,0,2,11,0,0,-3,80,82,10,0,76,131.28,158,-25.00,19.00,-1305.00
2024-05-19 08:28:59.437402,-1,0,11,0,0,-6,80,82,16,0,76,131.46,158,-23.00,18.00,-1244.00
2024-05-19 08:28:59.447286,-1,0,11,0,0,-7,80,82,24,0,76,131.63,158,-21.00,10.00,-1073.00
2024-05-19 08:28:59.497638,-1,0,11,0,0,-7,80,82,33,0,76,131.74,158,-15.00,6.00,-1021.00
2024-05-19 08:28:59.641919,-1,0,12,0,0,-6,80,82,41,0,76,131.82,158,0.00,9.00,-990.00
2024-05-19 08:28:59.701812,-1,0,12,0,0,-6,80,82,48,10,76,131.96,159,-14.00,10.00,-950.00
2024-05-19 08:28:59.846783,-1,-1,12,0,0,-5,80,82,55,10,76,131.98,159,13.00,25.00,-937.00
2024-05-19 08:28:59.905675,0,-1,12,0,0,-4,80,82,63,20,76,132.01,159,-3.00,24.00,-833.00
2024-05-19 08:29:00.051813,0,-1,11,0,0,-2,80,82,69,20,76,132.01,159,1.00,36.00,-946.00
2024-05-19 08:29:00.109695,0,0,11,0,0,-2,80,82,77,20,76,132.15,159,12.00,14.00,-874.00
2024-05-19 08:29:00.257456,0,0,11,0,0,-1,80,82,82,20,76,132.12,159,-15.00,30.00,-954.00
2024-05-19 08:29:00.313689,0,-1,11,0,0,0,80,82,87,30,76,132.22,159,-8.00,40.00,-1000.00
2024-05-19 08:29:00.461086,0,-2,11,0,0,0,80,82,91,30,76,132.27,159,-12.00,39.00,-944.00
2024-05-19 08:29:00.517699,0,-2,12,0,0,0,80,82,94,30,76,132.26,159,0.00,18.00,-957.00
2024-05-19 08:29:00.665880,0,-2,12,0,0,0,80,82,97,30,76,132.30,159,0.00,20.00,-970.00
2024-05-19 08:29:00.721627,0,-1,12,0,0,0,80,82,100,40,76,132.36,160,12.00,19.00,-935.00
2024-05-19 08:29:00.870742,0,-1,12,0,0,0,80,82,102,40,76,132.44,160,-10.00,14.00,-901.00
2024-05-19 08:29:00.925644,0,0,12,0,0,0,80,82,103,40,76,132.32,160,-20.00,-9.00,-1009.00
2024-05-19 08:29:01.075775,0,0,12,0,0,0,80,82,104,40,76,132.45,160,3.00,20.00,-935.00
2024-05-19 08:29:01.129584,0,0,12,0,0,1,79,82,105,40,76,132.48,160,-8.00,-8.00,-1001.00
2024-05-19 08:29:01.281143,0,0,12,0,0,1,79,82,105,40,76,132.48,160,-5.00,-12.00,-972.00
2024-05-19 08:29:01.333572,-1,0,12,0,0,1,79,82,105,50,76,132.49,160,-3.00,-5.00,-909.00
2024-05-19 08:29:01.486245,-1,0,12,0,0,1,79,82,105,50,76,132.42,160,1.00,-10.00,-906.00
2024-05-19 08:29:01.537615,0,0,12,0,0,1,79,82,104,50,76,132.48,160,-1.00,-16.00,-986.00
2024-05-19 08:29:01.689849,0,0,12,0,0,1,79,82,103,50,76,132.50,160,20.00,13.00,-998.00
2024-05-19 08:29:01.741499,0,1,12,0,0,1,79,82,102,50,76,132.31,161,-2.00,17.00,-921.00
2024-05-19 08:29:01.894804,0,1,12,0,0,2,79,82,100,50,76,132.37,161,-2.00,7.00,-862.00
2024-05-19 08:29:01.945560,0,0,12,0,0,2,79,82,98,50,76,132.34,161,22.00,-19.00,-991.00
2024-05-19 08:29:02.047875,0,0,12,0,0,2,79,82,96,40,76,132.33,161,20.00,10.00,-901.00
2024-05-19 08:29:02.204692,1,0,12,0,0,2,80,82,94,40,76,132.25,161,37.00,5.00,-1011.00
2024-05-19 08:29:02.251687,1,0,12,0,0,1,80,82,92,40,76,132.18,161,37.00,8.00,-994.00
2024-05-19 08:29:02.407868,1,0,12,0,0,1,80,82,91,40,76,132.14,161,45.00,23.00,-1023.00
2024-05-19 08:29:02.455525,1,0,12,0,0,1,80,82,89,40,76,132.18,161,20.00,-9.00,-1074.00
2024-05-19 08:29:02.612655,1,0,12,0,0,1,80,82,87,40,76,132.15,161,24.00,-4.00,-1011.00
2024-05-19 08:29:02.659503,1,0,12,0,0,1,80,82,85,40,76,132.17,161,18.00,-10.00,-939.00
2024-05-19 08:29:02.816360,1,0,12,0,0,1,80,82,83,40,76,132.11,162,19.00,3.00,-1019.00
2024-05-19 08:29:02.863504,1,0,11,0,0,1,80,82,82,30,76,132.11,162,18.00,-10.00,-1041.00
2024-05-19 08:29:03.021155,1,0,11,0,0,1,80,82,80,30,76,132.18,162,30.00,36.00,-971.00
2024-05-19 08:29:03.021233,1,0,11,0,0,1,80,82,78,30,76,132.15,162,14.00,-21.00,-989.00
2024-05-19 08:29:03.169616,1,-1,11,0,0,1,80,82,76,30,76,132.17,162,14.00,24.00,-992.00
2024-05-19 08:29:03.332596,1,-1,12,0,0,1,80,82,75,30,76,132.20,162,28.00,10.00,-1074.00
2024-05-19 08:29:03.333953,1,-1,12,0,0,0,80,82,74,30,76,132.13,162,10.00,-20.00,-1058.00
2024-05-19 08:29:03.424874,1,-1,12,0,0,0,80,82,73,30,76,132.17,162,30.00,2.00,-1039.00
2024-05-19 08:29:03.534758,1,0,12,0,0,0,80,82,72,30,76,132.17,162,12.00,-5.00,-1064.00
2024-05-19 08:29:03.629673,1,0,12,0,0,0,80,82,72,30,76,132.12,162,10.00,-19.00,-946.00
2024-05-19 08:29:03.738726,1,0,12,0,0,0,80,82,72,20,76,132.13,163,9.00,11.00,-983.00
2024-05-19 08:29:03.833665,1,0,12,0,0,0,80,82,71,20,76,132.04,163,1.00,-25.00,-1040.00
2024-05-19 08:29:03.943167,1,0,12,0,0,0,80,82,71,20,76,132.05,163,9.00,17.00,-921.00
2024-05-19 08:29:04.038302,0,0,12,0,0,0,80,82,70,20,76,132.09,163,24.00,0.00,-1036.00
2024-05-19 08:29:04.138788,0,0,11,0,0,0,80,82,70,20,76,132.13,163,10.00,17.00,-1033.00
2024-05-19 08:29:04.250436,0,0,11,0,0,0,80,82,70,20,76,132.02,163,9.00,0.00,-1059.00
2024-05-19 08:29:04.342706,0,0,12,0,0,0,80,82,70,20,76,132.07,163,11.00,2.00,-983.00
2024-05-19 08:29:04.454918,0,0,12,0,0,0,80,82,70,20,76,132.07,163,7.00,9.00,-995.00
2024-05-19 08:29:04.546753,0,0,12,0,0,0,80,82,70,20,76,132.09,163,11.00,9.00,-1048.00
2024-05-19 08:29:04.659506,0,0,12,0,0,0,80,82,71,20,76,132.10,164,-7.00,25.00,-1014.00
2024-05-19 08:29:04.751402,0,0,12,0,0,0,80,82,71,20,76,132.11,164,-2.00,-12.00,-975.00
2024-05-19 08:29:04.864323,0,0,12,0,0,0,80,82,70,20,76,132.09,164,0.00,-10.00,-944.00
2024-05-19 08:29:04.954848,0,0,12,0,0,0,80,82,70,20,76,132.11,164,-8.00,9.00,-1003.00
2024-05-19 08:29:05.069374,0,0,12,0,0,0,80,82,69,20,76,132.08,164,0.00,8.00,-981.00
2024-05-19 08:29:05.158656,0,-1,12,0,0,0,80,82,69,20,76,132.04,164,-23.00,-14.00,-1020.00
2024-05-19 08:29:05.274863,0,-1,12,0,0,0,80,82,69,20,76,132.12,164,-6.00,-18.00,-1085.00
2024-05-19 08:29:05.362569,0,0,12,0,0,0,80,82,69,20,76,132.16,164,-10.00,20.00,-1015.00
2024-05-19 08:29:05.478679,0,0,12,0,0,0,80,82,69,20,76,132.12,164,-9.00,-6.00,-1022.00
2024-05-19 08:29:05.566571,0,0,12,0,0,0,80,82,69,20,76,132.17,164,2.00,8.00,-1084.00
2024-05-19 08:29:05.683694,0,0,12,0,0,0,80,82,70,20,76,132.14,165,-6.00,-5.00,-1020.00
2024-05-19 08:29:05.770706,0,0,12,0,0,0,80,82,70,20,76,132.13,165,-1.00,0.00,-1002.00
2024-05-19 08:29:05.888292,0,0,12,0,0,0,80,82,71,20,76,132.11,165,0.00,5.00,-971.00
2024-05-19 08:29:05.974645,0,0,12,0,0,0,80,82,72,20,76,132.14,165,1.00,14.00,-972.00
2024-05-19 08:29:06.093103,0,0,12,0,0,0,80,82,72,20,76,132.15,165,7.00,26.00,-1014.00
2024-05-19 08:29:06.178613,0,0,12,0,0,0,80,82,73,20,76,132.11,165,1.00,-6.00,-1019.00
2024-05-19 08:29:06.298554,0,0,12,0,0,0,80,82,73,20,76,132.11,165,6.00,2.00,-953.00
2024-05-19 08:29:06.383974,0,0,12,0,0,0,80,82,74,30,76,132.17,165,18.00,3.00,-997.00
2024-05-19 08:29:06.502764,0,0,12,0,0,0,80,82,75,30,76,132.11,165,21.00,0.00,-966.00
2024-05-19 08:29:06.587414,1,0,12,0,0,0,80,82,75,30,76,132.18,165,17.00,9.00,-1017.00
2024-05-19 08:29:06.707490,1,0,12,0,0,0,80,82,76,30,76,132.21,166,20.00,0.00,-1017.00
2024-05-19 08:29:06.740731,1,0,12,0,0,0,80,82,76,30,76,132.19,166,22.00,-7.00,-988.00
2024-05-19 08:29:06.912695,1,0,12,0,0,0,80,82,77,30,76,132.17,166,21.00,16.00,-965.00
2024-05-19 08:29:06.944622,1,0,12,0,0,0,80,82,77,30,76,132.22,166,17.00,16.00,-958.00
2024-05-19 08:29:07.117817,1,0,12,0,0,0,80,82,78,30,76,132.16,166,36.00,15.00,-1031.00
2024-05-19 08:29:07.199453,1,0,12,0,0,0,79,82,78,30,76,132.17,166,8.00,5.00,-966.00
2024-05-19 08:29:07.301466,1,0,12,0,0,0,79,82,78,30,76,132.23,166,34.00,16.00,-1021.00
2024-05-19 08:29:07.403521,1,0,12,0,0,0,79,82,77,30,76,132.17,166,16.00,43.00,-991.00
2024-05-19 08:29:07.454709,1,-1,12,0,0,0,79,82,77,30,76,132.18,166,14.00,32.00,-955.00
2024-05-19 08:29:07.629704,1,-1,11,0,0,0,79,82,76,30,76,132.18,166,13.00,24.00,-997.00
2024-05-19 08:29:07.658556,0,-1,11,0,0,0,79,82,76,30,76,132.10,167,2.00,37.00,-1026.00
2024-05-19 08:29:07.834213,0,-2,11,0,0,0,79,82,76,30,76,132.13,167,1.00,30.00,-1025.00
2024-05-19 08:29:07.862492,0,-2,11,0,0,0,79,82,76,30,76,132.14,167,12.00,27.00,-1059.00
2024-05-19 08:29:08.038831,0,-2,12,0,0,0,79,82,77,30,76,132.17,167,1.00,24.00,-953.00
2024-05-19 08:29:08.066665,0,-1,11,0,0,0,79,82,77,30,76,132.15,167,-8.00,57.00,-992.00
2024-05-19 08:29:08.243906,0,-2,11,0,0,0,80,82,78,30,76,132.12,167,-4.00,23.00,-971.00
2024-05-19 08:29:08.272080,0,-2,12,0,0,0,80,82,78,30,76,132.12,167,-3.00,71.00,-978.00
2024-05-19 08:29:08.449033,0,-1,12,0,0,0,80,82,79,30,76,132.34,167,-32.00,3.00,-999.00
2024-05-19 08:29:08.475382,-1,-1,12,0,0,0,80,82,79,30,76,132.23,167,-26.00,22.00,-972.00
2024-05-19 08:29:08.654037,-1,-1,12,0,0,0,80,82,79,30,76,132.21,167,-22.00,26.00,-1009.00
2024-05-19 08:29:08.679699,-2,-2,12,0,0,0,80,82,79,30,76,132.19,168,-23.00,63.00,-982.00
2024-05-19 08:29:08.858416,-2,-2,12,0,0,0,80,82,79,30,76,132.15,168,-1.00,46.00,-1044.00
2024-05-19 08:29:08.883411,-1,-2,12,0,0,0,80,82,79,30,76,132.20,168,-16.00,27.00,-1028.00
2024-05-19 08:29:09.069722,-1,-2,12,0,0,0,80,82,78,30,76,132.16,168,0.00,45.00,-967.00
2024-05-19 08:29:09.087223,0,-2,12,0,0,0,80,82,77,30,76,132.14,168,-2.00,31.00,-1022.00
2024-05-19 08:29:09.189262,0,-2,12,0,0,0,79,82,76,30,76,132.20,168,-20.00,25.00,-1027.00
2024-05-19 08:29:09.371005,0,-2,12,0,0,0,79,82,75,30,76,132.22,168,-24.00,2.00,-1005.00
2024-05-19 08:29:09.393196,-1,-1,12,0,0,0,79,82,75,30,76,132.20,168,-43.00,27.00,-1136.00
2024-05-19 08:29:09.575128,-1,-1,12,0,0,-1,79,82,75,30,76,132.20,168,-25.00,33.00,-1109.00
2024-05-19 08:29:09.597121,-2,-1,12,0,0,-2,79,82,77,30,76,132.26,168,-41.00,5.00,-1071.00
2024-05-19 08:29:09.779864,-1,-1,12,0,0,-3,79,82,80,30,76,132.28,169,8.00,25.00,-1128.00
2024-05-19 08:29:09.801367,-1,-1,12,0,0,-4,79,82,85,30,76,132.40,169,-6.00,29.00,-1064.00
2024-05-19 08:29:09.985826,0,-1,12,0,0,-4,79,82,89,40,76,132.48,169,-17.00,13.00,-1067.00
2024-05-19 08:29:10.005944,0,-2,12,0,0,-5,79,82,95,40,76,132.45,169,-2.00,20.00,-1044.00
2024-05-19 08:29:10.107381,0,-1,12,0,0,-5,79,82,100,50,76,132.52,169,-6.00,14.00,-1011.00
2024-05-19 08:29:10.291802,0,-1,12,0,0,-6,79,82,107,60,76,132.56,169,-3.00,-2.00,-950.00
2024-05-19 08:29:10.311084,0,0,12,1,0,-5,79,82,112,60,76,132.52,169,23.00,23.00,-1054.00
2024-05-19 08:29:10.413456,0,1,12,1,0,-6,79,82,118,70,76,132.56,169,12.00,40.00,-1028.00
2024-05-19 08:29:10.598667,1,0,12,1,0,-6,79,82,124,70,76,132.75,169,44.00,7.00,-918.00
2024-05-19 08:29:10.617178,2,0,12,1,0,-5,79,82,130,80,76,132.71,169,69.00,14.00,-1015.00
2024-05-19 08:29:10.804104,3,-1,12,1,0,-5,79,82,135,80,76,132.81,170,40.00,3.00,-1014.00
2024-05-19 08:29:10.821186,3,0,12,1,0,-5,79,82,140,90,76,132.99,170,39.00,-10.00,-913.00
2024-05-19 08:29:11.009075,4,0,12,1,0,-4,79,82,146,90,76,132.86,170,43.00,5.00,-969.00
2024-05-19 08:29:11.009153,3,0,12,1,0,-4,79,82,149,100,76,133.11,170,50.00,-19.00,-972.00
2024-05-19 08:29:11.076496,3,1,12,1,0,-3,79,82,153,100,76,132.98,170,47.00,-50.00,-1049.00
2024-05-19 08:29:11.229101,3,2,12,0,0,-3,79,82,157,110,76,133.12,170,65.00,-27.00,-954.00
2024-05-19 08:29:11.280653,3,2,12,0,0,-3,79,82,160,110,76,133.04,170,58.00,-4.00,-970.00
2024-05-19 08:29:11.418030,4,1,12,0,0,-2,79,82,163,110,76,133.05,170,58.00,-46.00,-951.00
2024-05-19 08:29:11.484326,4,1,12,0,0,-2,79,82,165,120,76,133.01,170,53.00,10.00,-993.00
2024-05-19 08:29:11.622689,4,0,12,0,0,-2,79,82,167,120,76,133.21,170,39.00,-33.00,-889.00
2024-05-19 08:29:11.688408,3,1,12,0,0,-1,79,82,169,120,76,133.16,171,45.00,-5.00,-1004.00
2024-05-19 08:29:11.827552,3,2,12,0,0,-1,79,82,171,120,76,133.19,171,33.00,-22.00,-952.00
2024-05-19 08:29:11.892577,3,2,12,0,0,-1,79,82,170,120,76,133.18,171,58.00,-11.00,-1003.00
2024-05-19 08:29:12.035935,2,1,12,0,0,0,79,82,172,120,76,133.20,171,32.00,-59.00,-881.00
2024-05-19 08:29:12.096414,2,1,12,0,0,0,79,82,174,120,76,133.13,171,40.00,-43.00,-909.00
2024-05-19 08:29:12.237295,2,2,12,0,-1,0,79,82,174,120,76,133.18,171,72.00,-54.00,-1041.00
2024-05-19 08:29:12.300603,2,3,12,0,-1,0,79,82,175,120,76,133.10,171,67.00,-71.00,-1068.00
2024-05-19 08:29:12.402686,3,4,12,0,-1,0,79,82,175,120,76,133.14,171,75.00,-33.00,-975.00
2024-05-19 08:29:12.551307,3,4,12,0,0,0,79,82,176,130,76,133.14,171,85.00,-28.00,-983.00
2024-05-19 08:29:12.606332,3,3,12,0,0,0,79,82,177,130,76,133.13,171,74.00,-60.00,-997.00
2024-05-19 08:29:12.754207,4,3,12,0,0,0,79,82,176,130,76,133.15,172,70.00,-56.00,-932.00
2024-05-19 08:29:12.810397,4,3,12,0,0,0,79,82,177,130,76,133.26,172,41.00,-73.00,-1007.00
2024-05-19 08:29:12.959885,3,2,12,0,0,0,79,82,175,130,76,133.26,172,36.00,-52.00,-961.00
2024-05-19 08:29:13.014469,2,3,12,0,0,0,79,82,175,130,76,133.20,172,72.00,-57.00,-1110.00
2024-05-19 08:29:13.159656,2,4,12,0,0,0,79,82,176,130,76,133.15,172,52.00,-46.00,-1103.00
2024-05-19 08:29:13.218384,2,4,12,0,0,0,80,82,176,130,76,133.11,172,51.00,-73.00,-981.00
2024-05-19 08:29:13.320120,2,5,11,0,0,0,80,82,176,130,76,133.15,172,97.00,-54.00,-1002.00
2024-05-19 08:29:13.465945,3,4,11,0,0,0,80,82,175,130,76,133.10,172,68.00,-19.00,-1033.00
2024-05-19 08:29:13.524214,3,3,11,0,0,0,80,82,176,130,76,133.24,172,54.00,-31.00,-974.00
2024-05-19 08:29:13.670739,4,1,11,0,1,0,80,82,174,120,76,133.16,172,65.00,-47.00,-1028.00
2024-05-19 08:29:13.728043,4,1,11,0,0,0,80,82,173,120,76,133.08,173,55.00,-29.00,-1020.00
2024-05-19 08:29:13.875520,4,1,11,0,0,0,80,82,175,120,76,133.06,173,61.00,-64.00,-996.00
2024-05-19 08:29:13.931756,3,1,12,0,0,0,80,82,174,120,76,132.94,173,64.00,-35.00,-1014.00
2024-05-19 08:29:14.033817,3,1,12,0,0,0,80,82,174,120,76,133.00,173,54.00,-18.00,-991.00
2024-05-19 08:29:14.182566,3,1,12,0,0,0,80,82,174,120,76,133.12,173,50.00,-38.00,-1016.00
2024-05-19 08:29:14.238122,3,0,12,0,0,0,79,82,175,120,76,133.04,173,47.00,-7.00,-997.00
2024-05-19 08:29:14.340099,3,0,12,0,0,1,79,82,173,120,76,132.94,173,55.00,-2.00,-934.00
2024-05-19 08:29:14.489764,3,1,12,0,0,1,79,82,171,120,76,132.95,173,57.00,-20.00,-926.00
2024-05-19 08:29:14.544093,3,1,12,0,0,1,79,82,168,120,76,132.91,173,51.00,-20.00,-961.00
2024-05-19 08:29:14.694575,2,1,12,0,0,2,79,82,166,120,76,132.94,173,45.00,-40.00,-969.00
2024-05-19 08:29:14.748116,2,1,12,0,0,2,79,82,163,120,76,132.84,174,46.00,-31.00,-996.00
2024-05-19 08:29:14.798886,2,1,12,0,0,2,79,82,161,110,76,132.92,174,50.00,-60.00,-972.00
2024-05-19 08:29:15.001875,2,2,12,0,0,2,79,82,158,110,76,132.93,174,51.00,-27.00,-1092.00
2024-05-19 08:29:15.002864,2,2,12,0,0,2,79,82,156,110,76,132.85,174,54.00,-39.00,-1107.00
2024-05-19 08:29:15.207102,2,2,12,0,0,2,79,82,153,110,76,132.91,174,59.00,-25.00,-927.00
2024-05-19 08:29:15.207158,2,2,12,0,0,2,79,81,149,100,76,132.89,174,54.00,-55.00,-985.00
2024-05-19 08:29:15.309381,2,1,12,0,0,2,79,81,147,100,76,132.65,174,49.00,-64.00,-1088.00
2024-05-19 08:29:15.411121,2,1,12,0,0,2,79,81,145,100,76,132.71,174,47.00,-1.00,-1062.00
2024-05-19 08:29:15.513950,2,1,12,0,0,2,79,81,141,100,76,132.78,174,61.00,-13.00,-981.00
2024-05-19 08:29:15.616199,3,1,12,0,0,2,79,81,138,90,76,132.73,174,75.00,-32.00,-1071.00
2024-05-19 08:29:15.718651,4,1,12,0,0,2,79,81,137,90,76,132.64,175,70.00,5.00,-996.00
2024-05-19 08:29:15.819126,4,1,12,0,0,2,79,81,135,90,76,132.69,175,89.00,0.00,-1000.00
2024-05-19 08:29:15.923172,4,1,12,0,0,2,79,81,132,90,76,132.62,175,81.00,1.00,-1011.00
2024-05-19 08:29:16.026840,4,1,12,0,0,1,79,81,130,80,76,132.58,175,85.00,-10.00,-1041.00
2024-05-19 08:29:16.124782,4,1,12,0,0,1,79,81,128,80,76,132.68,175,67.00,-17.00,-1055.00
2024-05-19 08:29:16.231901,4,1,12,0,0,1,79,82,127,80,76,132.65,175,83.00,8.00,-960.00
2024-05-19 08:29:16.329171,4,1,12,0,0,1,79,82,125,80,76,132.54,175,72.00,-20.00,-1077.00
2024-05-19 08:29:16.435535,4,1,12,0,0,0,79,82,125,80,76,132.55,175,88.00,-19.00,-1057.00
2024-05-19 08:29:16.533149,4,0,12,0,0,0,79,82,124,80,76,132.62,175,86.00,-3.00,-1024.00
2024-05-19 08:29:16.640312,4,0,12,0,0,0,79,82,123,80,76,132.60,175,66.00,11.00,-1055.00
2024-05-19 08:29:16.737233,4,0,12,0,0,0,79,82,123,80,76,132.52,176,61.00,1.00,-1004.00
2024-05-19 08:29:16.845491,4,0,11,0,0,0,79,82,123,80,76,132.50,176,77.00,-19.00,-1036.00
2024-05-19 08:29:16.941661,4,0,11,0,0,0,79,82,122,70,76,132.56,176,69.00,25.00,-1010.00
2024-05-19 08:29:17.050569,4,0,11,0,0,0,79,82,121,70,76,132.58,176,44.00,30.00,-999.00
2024-05-19 08:29:17.145074,4,0,11,0,0,0,79,82,121,70,76,132.53,176,37.00,26.00,-1021.00
2024-05-19 08:29:17.255033,3,0,11,0,0,0,79,82,121,70,76,132.46,176,50.00,-3.00,-974.00
2024-05-19 08:29:17.348828,3,-1,12,0,0,0,79,82,121,70,76,132.56,176,54.00,39.00,-1031.00
2024-05-19 08:29:17.459470,3,-2,12,0,0,0,79,82,121,70,76,132.53,176,72.00,-5.00,-1012.00
2024-05-19 08:29:17.553313,2,-2,12,0,0,0,79,82,121,70,76,132.48,176,52.00,-6.00,-1041.00
2024-05-19 08:29:17.664274,3,-1,12,0,0,0,79,82,122,70,76,132.61,176,67.00,5.00,-994.00
2024-05-19 08:29:17.756718,2,-1,12,0,0,0,79,82,122,70,76,132.52,177,65.00,2.00,-1007.00
2024-05-19 08:29:17.869112,3,0,12,0,0,0,79,82,122,70,76,132.54,177,58.00,-32.00,-1004.00
2024-05-19 08:29:17.960885,2,0,12,0,0,0,79,82,122,70,76,132.49,177,63.00,-36.00,-965.00
2024-05-19 08:29:18.063907,3,0,12,0,0,0,79,82,123,70,76,132.52,177,61.00,13.00,-984.00
2024-05-19 08:29:18.176362,3,0,12,0,0,0,79,82,123,70,76,132.51,177,67.00,-10.00,-1021.00
2024-05-19 08:29:18.266682,3,0,12,0,0,0,79,82,123,70,76,132.48,177,73.00,-19.00,-1020.00
2024-05-19 08:29:18.368602,3,0,12,0,0,0,79,82,122,70,76,132.49,177,65.00,-10.00,-1047.00
2024-05-19 08:29:18.483325,2,1,12,0,0,0,79,82,122,70,76,132.50,177,65.00,6.00,-1026.00
2024-05-19 08:29:18.527175,-4,2,12,0,0,0,79,82,122,70,76,132.47,177,69.00,-49.00,-1011.00
2024-05-19 08:29:18.623567,-5,2,12,1,0,0,79,82,122,70,76,132.45,177,48.00,-46.00,-1015.00
2024-05-19 08:29:18.791895,-5,2,12,3,0,0,79,82,123,70,76,132.56,178,34.00,-30.00,-992.00
2024-05-19 08:29:18.827552,-5,2,12,4,0,0,79,82,123,70,76,132.49,178,19.00,-32.00,-1059.00
2024-05-19 08:29:18.997922,-4,2,12,5,0,0,79,82,123,70,76,132.52,178,3.00,-10.00,-1008.00
2024-05-19 08:29:19.031958,-3,2,12,6,1,0,79,82,123,70,76,132.50,178,2.00,7.00,-980.00
2024-05-19 08:29:19.204277,-2,2,12,7,1,0,79,82,124,70,76,132.56,178,10.00,-46.00,-1077.00
2024-05-19 08:29:19.236049,0,1,12,7,1,0,79,82,124,70,76,132.56,178,-6.00,-52.00,-1008.00
2024-05-19 08:29:19.337582,3,1,12,7,2,0,79,82,125,80,76,132.63,178,24.00,-14.00,-998.00
2024-05-19 08:29:19.510887,6,0,12,6,2,0,79,82,126,80,76,132.63,178,10.00,2.00,-1032.00
2024-05-19 08:29:19.541519,7,0,12,5,1,0,79,82,126,80,76,132.60,178,17.00,-2.00,-961.00
2024-05-19 08:29:19.718946,7,0,12,4,1,0,79,82,126,80,76,132.53,179,25.00,2.00,-1033.00
2024-05-19 08:29:19.746151,5,0,12,3,1,0,79,82,125,80,76,132.57,179,16.00,-8.00,-999.00
2024-05-19 08:29:19.917189,4,0,12,3,1,0,79,82,125,80,76,132.62,179,37.00,6.00,-990.00
2024-05-19 08:29:19.949807,3,1,12,2,1,0,79,82,125,80,76,132.48,179,45.00,0.00,-1046.00
2024-05-19 08:29:20.051893,2,0,12,2,1,0,79,82,125,80,76,132.54,179,31.00,24.00,-987.00
2024-05-19 08:29:20.224179,3,-2,12,2,1,0,79,82,125,80,76,132.59,179,30.00,-1.00,-998.00
2024-05-19 08:29:20.255775,2,-1,12,2,0,0,79,83,125,80,76,132.52,179,46.00,-19.00,-992.00
2024-05-19 08:29:20.357496,1,0,12,2,0,0,79,83,125,80,76,132.58,179,30.00,-4.00,-950.00
2024-05-19 08:29:20.531355,2,0,12,2,0,0,79,83,125,80,76,132.57,179,20.00,-21.00,-1012.00
2024-05-19 08:29:20.561470,8,1,12,2,0,0,79,83,126,80,76,132.55,179,47.00,-14.00,-1032.00
2024-05-19 08:29:20.736209,6,1,12,1,0,0,79,83,126,80,76,132.58,180,34.00,-19.00,-959.00
2024-05-19 08:29:20.765507,4,0,12,0,0,0,79,83,125,80,76,132.54,180,53.00,-7.00,-1040.00
2024-05-19 08:29:20.941984,3,0,12,0,0,0,79,83,126,80,76,132.64,180,41.00,10.00,-978.00
2024-05-19 08:29:20.969581,3,0,12,0,0,0,79,83,125,80,76,132.62,180,44.00,-2.00,-997.00
2024-05-19 08:29:21.148885,3,0,12,0,0,0,79,83,125,80,76,132.57,180,58.00,-14.00,-1022.00
2024-05-19 08:29:21.173524,3,0,12,0,0,0,79,83,125,80,76,132.63,180,61.00,4.00,-940.00
2024-05-19 08:29:21.353256,3,0,12,0,0,0,79,82,125,80,76,132.55,180,66.00,4.00,-962.00
2024-05-19 08:29:21.377992,3,0,12,0,0,0,79,82,124,80,76,132.53,180,60.00,-29.00,-994.00
2024-05-19 08:29:21.558753,3,1,12,0,0,0,79,82,124,80,76,132.51,180,41.00,-58.00,-1010.00
2024-05-19 08:29:21.581702,3,2,12,0,0,0,79,82,124,80,76,132.54,180,61.00,-7.00,-991.00
2024-05-19 08:29:21.760300,3,2,12,0,0,0,79,82,124,80,76,132.57,181,48.00,-19.00,-928.00
2024-05-19 08:29:21.785894,3,2,12,0,0,0,79,82,124,80,76,132.52,181,50.00,-21.00,-1066.00
2024-05-19 08:29:21.965229,2,2,12,0,0,0,79,82,125,80,76,132.52,181,53.00,5.00,-991.00
2024-05-19 08:29:21.965454,2,1,12,0,0,0,79,82,125,80,76,132.50,181,58.00,-35.00,-1002.00
2024-05-19 08:29:22.040624,3,1,12,0,0,0,79,82,125,80,76,132.55,181,50.00,1.00,-1049.00
2024-05-19 08:29:22.170007,2,1,12,0,0,0,79,82,126,80,76,132.57,181,55.00,16.00,-1000.00
2024-05-19 08:29:22.244674,2,1,12,0,0,0,78,82,128,80,76,132.51,181,49.00,-3.00,-962.00
2024-05-19 08:29:22.346539,2,1,12,0,0,0,78,82,129,80,76,132.64,181,56.00,-17.00,-1035.00
2024-05-19 08:29:22.481759,2,1,12,0,0,0,78,82,131,80,76,132.70,181,34.00,-22.00,-1017.00
2024-05-19 08:29:22.550744,2,1,12,0,0,0,78,82,132,80,76,132.68,181,40.00,0.00,-921.00
2024-05-19 08:29:22.682534,2,1,12,0,0,0,78,82,132,80,76,132.66,182,43.00,-27.00,-987.00
2024-05-19 08:29:22.754437,2,1,12,0,0,0,78,82,133,80,76,132.63,182,29.00,-40.00,-976.00
2024-05-19 08:29:22.887752,2,1,12,0,0,0,78,82,133,80,76,132.62,182,26.00,-36.00,-926.00
2024-05-19 08:29:22.958476,7,0,12,0,0,0,78,82,134,80,76,132.59,182,47.00,-53.00,-951.00
2024-05-19 08:29:23.091647,8,0,12,-1,0,0,78,82,133,80,76,132.67,182,36.00,-13.00,-995.00
2024-05-19 08:29:23.162359,8,0,12,-2,0,0,78,82,133,80,76,132.60,182,65.00,-41.00,-1022.00
2024-05-19 08:29:23.301186,8,1,12,-3,-1,0,80,82,131,80,76,132.61,182,68.00,-23.00,-968.00
2024-05-19 08:29:23.366426,8,2,11,-4,-1,0,80,82,132,80,76,132.58,182,72.00,-21.00,-973.00
2024-05-19 08:29:23.501065,8,1,11,-5,0,0,80,82,130,80,76,132.56,182,66.00,9.00,-998.00
2024-05-19 08:29:23.571173,8,0,11,-5,0,0,80,82,130,80,76,132.51,182,52.00,31.00,-1014.00
2024-05-19 08:29:23.705982,8,0,12,-6,0,0,80,82,129,80,76,132.60,183,61.00,20.00,-1001.00
2024-05-19 08:29:23.774759,8,0,12,-7,0,0,80,82,128,80,76,132.63,183,80.00,15.00,-975.00
2024-05-19 08:29:23.912723,5,-1,12,-8,0,0,80,82,127,80,76,132.49,183,49.00,25.00,-1044.00
2024-05-19 08:29:23.978480,1,-2,12,-7,0,0,80,82,126,80,76,132.51,183,84.00,26.00,-1004.00
2024-05-19 08:29:24.115418,-1,-3,12,-7,-1,0,80,82,126,80,76,132.52,183,56.00,14.00,-1073.00
2024-05-19 08:29:24.183037,-2,-1,12,-6,-1,0,80,82,125,80,76,132.51,183,82.00,-27.00,-984.00
2024-05-19 08:29:24.320266,-1,0,12,-4,-1,0,79,82,124,80,76,132.47,183,72.00,23.00,-985.00
2024-05-19 08:29:24.386358,0,0,12,-4,0,0,79,82,123,80,76,132.47,183,50.00,22.00,-962.00
2024-05-19 08:29:24.526180,0,0,12,-3,0,0,79,82,123,80,76,132.47,183,52.00,6.00,-970.00
2024-05-19 08:29:24.590367,0,-1,12,-3,0,0,79,82,123,70,76,132.50,183,16.00,6.00,-1065.00
2024-05-19 08:29:24.734948,0,-1,12,-3,0,0,79,82,122,70,76,132.56,184,51.00,5.00,-951.00
2024-05-19 08:29:24.794317,0,0,12,-3,0,0,79,82,122,70,75,132.46,184,22.00,-7.00,-1000.00
2024-05-19 08:29:24.934702,0,2,12,-2,0,0,79,82,122,70,75,132.52,184,33.00,-11.00,-1007.00
2024-05-19 08:29:24.998344,-2,0,12,-2,0,0,79,82,122,70,75,132.51,184,35.00,5.00,-975.00
2024-05-19 08:29:25.139644,-3,0,12,-1,0,0,79,82,123,70,75,132.56,184,21.00,3.00,-1016.00
2024-05-19 08:29:25.202459,0,0,12,0,0,0,79,82,123,80,75,132.53,184,52.00,-34.00,-1050.00
2024-05-19 08:29:25.344234,0,0,12,0,0,0,79,82,124,80,75,132.56,184,40.00,-14.00,-935.00
2024-05-19 08:29:25.406285,1,0,12,0,0,0,79,82,123,80,75,132.53,184,41.00,-27.00,-1039.00
2024-05-19 08:29:25.549028,2,0,12,0,0,0,79,82,124,80,75,132.59,184,43.00,-19.00,-980.00
2024-05-19 08:29:25.610511,2,1,12,0,0,0,79,82,125,80,75,132.51,184,55.00,0.00,-1078.00
2024-05-19 08:29:25.661351,2,1,12,0,0,0,79,82,125,80,75,132.62,185,32.00,-36.00,-1036.00
2024-05-19 08:29:25.856360,3,0,12,0,0,0,79,82,126,80,75,132.57,185,37.00,0.00,-956.00
2024-05-19 08:29:25.868574,2,0,12,0,0,0,79,82,126,80,75,132.52,185,40.00,22.00,-1036.00
2024-05-19 08:29:25.967523,2,0,12,0,0,0,79,82,127,80,75,132.58,185,44.00,-20.00,-971.00
2024-05-19 08:29:26.069348,2,0,12,0,0,0,79,82,127,80,75,132.64,185,53.00,-35.00,-948.00
2024-05-19 08:29:26.266000,2,0,12,0,0,0,79,82,128,80,75,132.67,185,46.00,-26.00,-1011.00
2024-05-19 08:29:26.273345,2,0,12,0,0,0,79,82,128,80,75,132.65,185,48.00,-5.00,-937.00
2024-05-19 08:29:26.375783,2,0,12,0,0,0,79,82,129,80,75,132.64,185,40.00,22.00,-964.00
2024-05-19 08:29:26.573358,2,0,12,0,0,0,79,82,128,80,75,132.63,185,38.00,-25.00,-1003.00
2024-05-19 08:29:26.579467,3,0,12,0,0,0,79,82,128,80,75,132.60,185,45.00,-43.00,-1055.00
2024-05-19 08:29:26.778353,3,0,12,0,0,0,79,82,129,80,75,132.56,186,42.00,-10.00,-1012.00
2024-05-19 08:29:26.783568,3,0,12,0,0,0,79,82,129,80,75,132.65,186,32.00,2.00,-990.00
2024-05-19 08:29:26.982818,3,1,12,0,0,0,79,82,129,80,75,132.62,186,35.00,-7.00,-988.00
2024-05-19 08:29:26.987372,2,1,12,0,0,0,79,82,130,80,75,132.60,186,27.00,-24.00,-1008.00
2024-05-19 08:29:27.187538,2,0,11,0,0,0,79,82,130,80,75,132.71,186,47.00,-17.00,-953.00
2024-05-19 08:29:27.191534,2,0,11,0,0,0,79,82,129,80,75,132.69,186,43.00,10.00,-976.00
2024-05-19 08:29:27.293247,2,0,11,0,0,0,78,82,130,80,75,132.70,186,28.00,24.00,-1019.00
2024-05-19 08:29:27.395776,2,-3,11,0,0,0,78,82,130,80,75,132.75,186,23.00,-1.00,-1036.00
2024-05-19 08:29:27.497308,2,-8,11,0,0,0,78,82,130,80,75,132.72,186,34.00,0.00,-1014.00
2024-05-19 08:29:27.600347,2,-7,11,0,-1,0,78,82,129,80,75,132.65,186,24.00,4.00,-1002.00
2024-05-19 08:29:27.701313,2,-6,11,0,-2,0,78,82,128,80,75,132.64,187,-15.00,64.00,-1088.00
2024-05-19 08:29:27.905359,1,-3,11,0,-3,0,78,82,128,80,75,132.62,187,12.00,43.00,-972.00
2024-05-19 08:29:27.906616,1,0,11,0,-3,0,78,82,127,80,75,132.64,187,14.00,58.00,-988.00
2024-05-19 08:29:28.008539,0,0,11,0,-3,0,78,82,126,80,75,132.65,187,2.00,56.00,-945.00
2024-05-19 08:29:28.113226,0,0,11,0,-2,0,78,82,125,80,75,132.63,187,-2.00,35.00,-959.00
2024-05-19 08:29:28.211802,-1,-1,12,0,-2,0,78,82,125,80,75,132.60,187,-18.00,60.00,-1081.00
2024-05-19 08:29:28.319064,0,-2,12,0,-1,0,79,82,125,80,75,132.58,187,1.00,20.00,-997.00
2024-05-19 08:29:28.420605,0,-2,12,0,-1,0,79,82,125,80,75,132.52,187,15.00,14.00,-1068.00
2024-05-19 08:29:28.519160,0,-2,12,0,-2,0,79,82,125,80,75,132.63,187,25.00,40.00,-1044.00
2024-05-19 08:29:28.619154,0,-2,12,0,-2,0,79,82,125,80,75,132.54,187,1.00,13.00,-1012.00
2024-05-19 08:29:28.723403,0,-1,12,0,-2,0,79,82,125,80,74,132.59,188,11.00,27.00,-987.00
2024-05-19 08:29:28.823212,0,-1,12,0,-2,0,79,82,125,80,74,132.63,188,2.00,-2.00,-1000.00
2024-05-19 08:29:28.928228,0,-1,12,0,-2,0,79,82,125,80,74,132.63,188,13.00,30.00,-991.00
2024-05-19 08:29:29.027447,0,0,11,0,-2,0,79,82,125,80,74,132.69,188,-19.00,40.00,-1011.00
2024-05-19 08:29:29.133022,0,0,11,0,-2,0,79,82,124,80,74,132.69,188,-38.00,8.00,-1021.00
2024-05-19 08:29:29.180146,0,0,11,0,-2,0,79,82,123,80,74,132.62,188,-7.00,24.00,-1019.00
2024-05-19 08:29:29.337822,-1,-1,12,0,-1,0,79,82,123,80,74,132.66,188,-6.00,52.00,-1008.00
2024-05-19 08:29:29.437215,-1,-1,12,0,-1,0,79,82,123,70,74,132.60,188,9.00,0.00,-1005.00
2024-05-19 08:29:29.537172,2,0,12,0,-1,0,79,82,123,70,74,132.64,188,-26.00,1.00,-1058.00
2024-05-19 08:29:29.645088,1,-1,12,0,-1,0,79,82,123,70,74,132.70,188,-11.00,20.00,-1006.00
2024-05-19 08:29:29.690424,0,1,12,0,-1,0,79,82,123,70,74,132.60,189,-10.00,25.00,-1019.00
2024-05-19 08:29:29.849807,-1,2,12,0,0,0,79,82,124,70,74,132.57,189,-7.00,20.00,-1047.00
2024-05-19 08:29:29.894105,-4,0,12,0,0,0,79,82,124,80,74,132.61,189,0.00,9.00,-1026.00
2024-05-19 08:29:30.057190,-4,-1,12,0,0,0,79,82,125,80,74,132.61,189,-6.00,27.00,-1032.00
2024-05-19 08:29:30.098075,-2,-1,12,0,0,0,79,82,125,80,74,132.61,189,0.00,56.00,-1010.00
2024-05-19 08:29:30.259408,0,-1,12,1,0,0,79,82,125,80,74,132.64,189,8.00,15.00,-993.00
2024-05-19 08:29:30.302523,4,0,12,1,0,0,79,82,126,80,74,132.65,189,-13.00,-1.00,-1037.00
2024-05-19 08:29:30.404164,2,0,12,0,0,0,79,82,126,80,74,132.66,189,10.00,34.00,-1017.00
2024-05-19 08:29:30.572317,1,0,12,0,0,0,79,82,126,80,74,132.63,189,-5.00,14.00,-1016.00
2024-05-19 08:29:30.608205,1,0,11,0,0,0,79,82,125,80,74,132.67,189,17.00,30.00,-980.00
2024-05-19 08:29:30.771506,0,0,11,0,0,0,79,82,125,80,74,132.63,190,-14.00,9.00,-1009.00
2024-05-19 08:29:30.812128,0,0,12,0,0,0,79,82,125,80,74,132.61,190,12.00,58.00,-1039.00
2024-05-19 08:29:30.914133,1,-1,12,0,0,0,79,82,126,80,74,132.64,190,20.00,30.00,-1023.00
2024-05-19 08:29:31.078738,1,-1,12,0,0,0,79,82,126,80,74,132.62,190,21.00,41.00,-992.00
2024-05-19 08:29:31.118541,1,-2,12,0,0,0,79,82,126,80,74,132.61,190,31.00,2.00,-1050.00
2024-05-19 08:29:31.283510,1,-1,12,0,0,0,79,82,126,80,74,132.68,190,35.00,24.00,-972.00
2024-05-19 08:29:31.321953,1,-1,12,0,0,0,79,82,126,80,74,132.66,190,40.00,2.00,-967.00
2024-05-19 08:29:31.488809,1,-1,12,0,0,0,79,82,126,80,74,132.64,190,40.00,22.00,-942.00
2024-05-19 08:29:31.526298,2,-1,12,0,0,0,79,82,125,80,74,132.66,190,35.00,12.00,-1021.00
2024-05-19 08:29:31.693158,2,-1,12,0,0,0,79,82,125,80,74,132.64,190,43.00,19.00,-1017.00
2024-05-19 08:29:31.731266,2,0,12,0,0,0,79,82,125,80,74,132.62,191,41.00,43.00,-1003.00
2024-05-19 08:29:31.831885,2,0,12,0,0,0,79,82,124,80,74,132.68,191,42.00,35.00,-1009.00
2024-05-19 08:29:31.933944,2,-1,12,0,0,0,79,82,125,80,74,132.65,191,18.00,-1.00,-1016.00
2024-05-19 08:29:32.036040,2,-1,12,0,0,0,79,82,124,80,74,132.56,191,47.00,-13.00,-977.00
2024-05-19 08:29:32.209162,2,0,11,0,0,0,79,82,124,80,74,132.63,191,32.00,-23.00,-997.00
2024-05-19 08:29:32.239954,2,0,11,0,0,0,79,82,124,80,74,132.68,191,39.00,38.00,-1010.00
2024-05-19 08:29:32.342094,1,0,11,0,0,0,80,82,124,80,74,132.63,191,15.00,13.00,-969.00
2024-05-19 08:29:32.512211,1,0,11,0,0,0,80,82,123,80,74,132.71,191,22.00,33.00,-1008.00
2024-05-19 08:29:32.546096,0,4,11,0,0,0,80,82,123,70,74,132.67,191,-4.00,32.00,-980.00
2024-05-19 08:29:32.717040,0,6,11,0,2,0,80,82,122,70,74,132.71,191,-18.00,28.00,-1057.00
2024-05-19 08:29:32.750142,0,4,11,0,3,0,80,82,122,70,73,132.68,192,10.00,17.00,-1066.00
2024-05-19 08:29:32.921783,0,1,12,0,4,0,80,82,121,70,73,132.57,192,21.00,4.00,-1026.00
2024-05-19 08:29:32.953941,1,-1,12,0,4,0,80,82,122,70,73,132.66,192,37.00,0.00,-983.00
2024-05-19 08:29:33.126580,1,-3,12,0,4,0,80,82,122,70,73,132.64,192,44.00,-7.00,-1061.00
2024-05-19 08:29:33.157887,2,-3,12,0,3,0,80,82,122,80,73,132.58,192,44.00,-32.00,-1000.00
2024-05-19 08:29:33.331410,2,-1,12,0,2,0,80,82,122,80,73,132.61,192,29.00,8.00,-958.00
2024-05-19 08:29:33.362188,2,0,12,0,2,0,80,82,122,80,73,132.68,192,71.00,1.00,-989.00
2024-05-19 08:29:33.537399,3,-1,12,0,2,0,80,82,123,80,73,132.57,192,59.00,-20.00,-958.00
2024-05-19 08:29:33.565883,3,-1,12,0,2,0,80,82,123,80,73,132.64,192,52.00,-25.00,-966.00
2024-05-19 08:29:33.742443,4,0,12,0,2,0,80,82,123,80,73,132.68,192,30.00,-58.00,-940.00
2024-05-19 08:29:33.743074,4,0,12,0,1,0,80,82,122,80,73,132.68,193,46.00,-49.00,-987.00
2024-05-19 08:29:33.820915,4,1,12,0,1,0,80,82,122,80,73,132.63,193,37.00,-16.00,-911.00
2024-05-19 08:29:33.924627,4,0,12,0,1,0,80,82,122,80,73,132.70,193,41.00,-22.00,-962.00
2024-05-19 08:29:34.024907,2,0,12,0,1,0,80,82,121,80,73,132.56,193,67.00,-5.00,-929.00
2024-05-19 08:29:34.150579,0,-3,12,0,1,0,80,82,121,70,73,132.60,193,47.00,-49.00,-1053.00
2024-05-19 08:29:34.229234,2,-4,12,0,0,0,80,82,121,70,73,132.59,193,64.00,-44.00,-1020.00
2024-05-19 08:29:34.355927,2,0,12,0,0,0,80,82,121,70,73,132.62,193,40.00,5.00,-978.00
2024-05-19 08:29:34.433090,2,0,12,0,0,0,80,82,121,70,73,132.57,193,41.00,-23.00,-1024.00
2024-05-19 08:29:34.560241,2,0,12,0,0,0,80,82,121,70,73,132.55,193,44.00,-24.00,-1010.00
2024-05-19 08:29:34.637022,2,0,12,0,0,0,80,82,121,80,73,132.50,194,51.00,-21.00,-1056.00
2024-05-19 08:29:34.765135,2,0,12,0,0,0,80,82,122,80,73,132.56,194,53.00,-43.00,-1016.00
2024-05-19 08:29:34.841412,2,0,12,0,0,0,80,82,122,80,73,132.58,194,50.00,-47.00,-987.00
2024-05-19 08:29:34.943451,2,0,12,0,0,0,80,82,122,80,73,132.51,194,55.00,-24.00,-1050.00
2024-05-19 08:29:35.072297,2,0,12,0,0,0,80,82,121,80,73,132.53,194,63.00,-20.00,-1028.00
2024-05-19 08:29:35.146925,2,0,12,0,0,0,80,82,121,70,73,132.48,194,43.00,-41.00,-933.00
2024-05-19 08:29:35.277278,2,0,12,0,0,0,80,82,121,70,73,132.47,194,27.00,-14.00,-1009.00
2024-05-19 08:29:35.351733,2,0,12,0,0,0,79,82,121,70,73,132.52,194,18.00,-37.00,-952.00
2024-05-19 08:29:35.483221,2,0,12,0,0,0,79,82,121,70,73,132.58,194,27.00,-25.00,-1024.00
2024-05-19 08:29:35.555341,2,0,12,0,0,0,79,82,120,70,73,132.55,194,49.00,-7.00,-1040.00
2024-05-19 08:29:35.687525,2,0,12,0,0,0,79,82,120,70,73,132.57,195,58.00,-9.00,-1002.00
2024-05-19 08:29:35.758861,2,0,12,0,0,0,79,82,120,70,73,132.50,195,64.00,-14.00,-1105.00
2024-05-19 08:29:35.891521,2,1,12,0,0,0,79,82,119,70,73,132.58,195,51.00,-15.00,-1069.00
2024-05-19 08:29:35.963481,2,1,12,0,0,0,79,82,120,70,73,132.58,195,56.00,-6.00,-1043.00
2024-05-19 08:29:36.064857,2,0,12,0,0,0,79,82,119,70,73,132.54,195,40.00,-25.00,-1055.00
2024-05-19 08:29:36.199193,2,0,12,0,0,0,79,82,119,70,73,132.50,195,28.00,-7.00,-966.00
2024-05-19 08:29:36.268757,2,0,12,0,0,0,79,82,119,70,73,132.50,195,49.00,-32.00,-1024.00
2024-05-19 08:29:36.405580,1,1,14,0,0,0,79,82,120,70,73,132.49,195,47.00,-33.00,-1013.00
2024-05-19 08:29:36.472800,1,1,19,0,0,0,79,82,120,70,73,132.51,195,31.00,-23.00,-1031.00
2024-05-19 08:29:36.608691,2,0,25,0,0,0,79,82,121,70,73,132.49,195,53.00,-21.00,-1019.00
2024-05-19 08:29:36.676769,2,0,31,0,0,0,79,82,122,70,73,132.61,196,42.00,-21.00,-974.00
2024-05-19 08:29:36.813047,1,0,37,0,0,0,79,82,123,70,73,132.58,196,45.00,-26.00,-1011.00
2024-05-19 08:29:36.880779,2,0,43,0,0,0,79,82,124,80,73,132.61,196,24.00,-17.00,-958.00
2024-05-19 08:29:37.018525,1,0,49,0,0,0,79,82,125,80,73,132.52,196,32.00,-38.00,-935.00
2024-05-19 08:29:37.084734,1,1,54,0,0,0,79,82,126,80,73,132.57,196,17.00,-12.00,-972.00
2024-05-19 08:29:37.222774,1,1,60,0,0,0,79,82,126,80,73,132.57,196,22.00,-15.00,-997.00
2024-05-19 08:29:37.288728,0,0,67,0,0,0,79,82,127,80,73,132.65,196,22.00,-2.00,-961.00
2024-05-19 08:29:37.390703,0,1,73,0,0,0,79,82,127,80,73,132.67,196,14.00,-43.00,-947.00
2024-05-19 08:29:37.493140,0,1,79,0,0,0,79,82,127,80,73,132.59,196,19.00,-18.00,-948.00
2024-05-19 08:29:37.632332,0,1,84,0,0,0,79,82,127,80,73,132.58,196,13.00,-52.00,-934.00
2024-05-19 08:29:37.696699,0,2,90,0,0,0,79,82,127,80,73,132.63,197,1.00,-16.00,-1000.00
2024-05-19 08:29:37.837911,0,1,96,0,0,0,79,82,126,80,72,132.63,197,13.00,-63.00,-999.00
2024-05-19 08:29:37.849663,0,1,102,0,0,0,79,82,126,80,72,132.62,197,16.00,-24.00,-992.00
2024-05-19 08:29:37.951706,0,2,108,0,0,0,79,82,126,80,72,132.60,197,0.00,-54.00,-983.00
2024-05-19 08:29:38.053690,0,2,114,0,0,0,79,82,126,80,72,132.56,197,-5.00,-33.00,-969.00
2024-05-19 08:29:38.247554,0,2,120,0,0,0,79,82,125,80,72,132.58,197,-5.00,-56.00,-1018.00
2024-05-19 08:29:38.257640,0,2,126,0,0,0,79,82,125,80,72,132.66,197,-20.00,-38.00,-985.00
2024-05-19 08:29:38.451791,0,2,133,0,0,0,80,83,125,80,72,132.60,197,-19.00,-11.00,-1020.00
2024-05-19 08:29:38.461667,-1,2,139,0,0,0,80,83,125,80,72,132.56,197,-26.00,-45.00,-982.00
2024-05-19 08:29:38.656223,-1,2,145,0,0,0,80,83,125,80,72,132.55,197,-25.00,-61.00,-1070.00
2024-05-19 08:29:38.665624,-1,2,151,0,0,0,80,83,125,80,72,132.61,198,-33.00,-36.00,-944.00
2024-05-19 08:29:38.861171,-1,1,158,0,0,0,80,83,125,80,72,132.58,198,-36.00,-41.00,-1002.00
2024-05-19 08:29:38.869853,-2,1,164,0,0,0,80,83,124,80,72,132.52,198,-17.00,-14.00,-1034.00
2024-05-19 08:29:39.066145,-2,1,170,0,0,0,80,83,124,80,72,132.54,198,-52.00,-35.00,-971.00
2024-05-19 08:29:39.074769,-2,1,175,0,0,0,80,83,124,80,72,132.47,198,-46.00,-12.00,-998.00
2024-05-19 08:29:39.270842,-3,1,-178,0,0,0,80,83,125,80,72,132.46,198,-34.00,-8.00,-1001.00
2024-05-19 08:29:39.278038,-2,1,-172,0,0,0,80,83,125,80,72,132.42,198,-47.00,-29.00,-1011.00
2024-05-19 08:29:39.476106,-2,1,-167,0,0,0,80,82,125,80,72,132.52,198,-32.00,-14.00,-979.00
2024-05-19 08:29:39.481591,-2,1,-161,0,0,0,80,82,125,80,72,132.51,198,-33.00,-34.00,-966.00
2024-05-19 08:29:39.680460,-2,1,-156,0,0,0,80,82,126,80,72,132.53,198,-46.00,-14.00,-1023.00
2024-05-19 08:29:39.685611,-2,1,-150,0,0,0,80,82,126,80,72,132.58,199,-34.00,-6.00,-1020.00
2024-05-19 08:29:39.885230,-2,1,-145,0,0,0,80,82,126,80,72,132.54,199,-52.00,-29.00,-1001.00
2024-05-19 08:29:39.889546,-3,1,-139,0,0,0,80,82,126,80,72,132.54,199,-44.00,1.00,-961.00
2024-05-19 08:29:40.089746,-3,1,-133,0,0,0,80,82,126,80,72,132.52,199,-55.00,-39.00,-999.00
2024-05-19 08:29:40.093543,-3,0,-127,0,0,0,80,82,127,80,72,132.56,199,-40.00,14.00,-1031.00
2024-05-19 08:29:40.299418,-3,0,-120,0,0,0,80,82,127,80,72,132.56,199,-43.00,-1.00,-954.00
2024-05-19 08:29:40.299474,-3,0,-114,0,0,0,80,82,126,80,72,132.59,199,-68.00,-25.00,-972.00
2024-05-19 08:29:40.399559,-3,0,-108,0,0,0,80,82,127,80,72,132.58,199,-44.00,14.00,-981.00
2024-05-19 08:29:40.501543,-2,0,-102,0,0,0,80,82,127,80,72,132.61,199,-37.00,10.00,-1015.00
2024-05-19 08:29:40.603658,-2,-1,-96,0,0,0,80,82,127,80,72,132.61,199,-47.00,-3.00,-966.00
2024-05-19 08:29:40.807651,-2,-1,-90,0,0,0,80,82,126,80,72,132.57,200,-46.00,34.00,-954.00
2024-05-19 08:29:40.809885,-1,0,-84,0,0,0,80,82,126,80,72,132.61,200,-16.00,27.00,-1028.00
2024-05-19 08:29:40.910017,-1,0,-79,0,0,0,80,82,125,80,72,132.58,200,-47.00,-18.00,-1023.00
2024-05-19 08:29:41.011839,-1,0,-73,0,0,0,80,82,125,80,72,132.57,200,-25.00,3.00,-941.00
2024-05-19 08:29:41.113991,-1,0,-68,0,0,0,80,82,124,80,72,132.52,200,-17.00,38.00,-977.00
2024-05-19 08:29:41.216566,-1,0,-63,0,0,0,80,82,123,80,72,132.56,200,-32.00,12.00,-999.00
2024-05-19 08:29:41.319304,-1,0,-57,0,0,0,80,82,123,80,72,132.56,200,-14.00,-14.00,-994.00
2024-05-19 08:29:41.421310,-1,0,-52,0,0,0,79,83,122,80,72,132.57,200,-20.00,30.00,-996.00
2024-05-19 08:29:41.523072,-1,0,-46,0,0,0,79,83,121,70,72,132.60,200,-13.00,35.00,-1001.00
2024-05-19 08:29:41.625983,-1,0,-40,0,0,0,79,83,121,70,72,132.62,200,-6.00,6.00,-1003.00
2024-05-19 08:29:41.674878,0,0,-34,0,0,0,79,83,120,70,72,132.60,201,-2.00,31.00,-956.00
2024-05-19 08:29:41.830756,0,0,-28,0,0,0,79,83,120,70,72,132.49,201,-13.00,27.00,-992.00
2024-05-19 08:29:41.878501,0,0,-22,0,0,0,79,83,120,70,72,132.49,201,-13.00,6.00,-1008.00
2024-05-19 08:29:42.035701,0,0,-16,0,0,0,79,83,119,70,72,132.47,201,-5.00,16.00,-988.00
2024-05-19 08:29:42.082366,0,0,-10,0,0,0,79,83,120,70,72,132.52,201,12.00,21.00,-1067.00
2024-05-19 08:29:42.241819,0,0,-5,0,0,0,79,83,120,70,72,132.48,201,-18.00,4.00,-1093.00
2024-05-19 08:29:42.286365,0,0,-1,0,0,0,79,83,121,70,72,132.57,201,3.00,1.00,-1046.00
2024-05-19 08:29:42.445307,0,0,1,0,0,0,80,82,122,70,72,132.53,201,6.00,-5.00,-1018.00
2024-05-19 08:29:42.491442,1,0,4,0,0,0,80,82,123,70,72,132.57,201,-7.00,-20.00,-980.00
2024-05-19 08:29:42.650252,1,0,6,0,0,0,80,82,124,70,72,132.63,201,-13.00,10.00,-948.00
2024-05-19 08:29:42.695451,0,0,7,0,0,0,80,82,124,80,72,132.60,202,-7.00,-17.00,-998.00
2024-05-19 08:29:42.854945,0,0,8,0,0,0,80,82,125,80,72,132.65,202,0.00,15.00,-1006.00
2024-05-19 08:29:42.899436,0,0,8,0,0,0,80,82,126,80,72,132.65,202,-5.00,-9.00,-1028.00
2024-05-19 08:29:43.060884,0,0,9,0,0,0,80,82,126,80,72,132.66,202,-3.00,14.00,-985.00
2024-05-19 08:29:43.103455,0,0,9,0,0,0,80,82,127,80,72,132.67,202,3.00,34.00,-1000.00
2024-05-19 08:29:43.205396,0,0,9,0,0,0,80,82,128,80,72,132.69,202,8.00,6.00,-972.00
2024-05-19 08:29:43.368086,0,0,9,0,0,0,80,82,128,80,72,132.67,202,3.00,22.00,-1002.00
2024-05-19 08:29:43.409424,0,0,9,0,0,0,79,83,129,80,72,132.66,202,8.00,13.00,-998.00
2024-05-19 08:29:43.571683,0,0,9,0,0,0,79,83,130,80,72,132.70,202,10.00,29.00,-1009.00
2024-05-19 08:29:43.613392,0,0,9,0,0,0,79,83,129,80,72,132.69,202,0.00,35.00,-926.00
2024-05-19 08:29:43.776185,0,-1,9,0,0,0,79,83,130,80,71,132.70,203,-9.00,-15.00,-981.00
2024-05-19 08:29:43.817353,0,-1,9,0,0,0,79,83,130,80,71,132.67,203,20.00,40.00,-989.00
2024-05-19 08:29:43.919382,0,-2,9,0,0,0,79,83,130,80,71,132.71,203,5.00,21.00,-991.00
2024-05-19 08:29:44.021356,0,-2,9,0,0,0,79,83,130,80,71,132.71,203,4.00,39.00,-1012.00
2024-05-19 08:29:44.185891,0,-2,9,0,0,0,79,83,129,80,71,132.65,203,-3.00,5.00,-1025.00
2024-05-19 08:29:44.225359,0,-1,9,0,0,0,79,83,129,80,71,132.68,203,3.00,13.00,-1004.00
2024-05-19 08:29:44.390558,0,-1,9,0,0,0,79,83,128,80,71,132.63,203,17.00,6.00,-965.00
2024-05-19 08:29:44.429386,0,-1,10,0,0,0,80,82,128,80,71,132.63,203,17.00,-26.00,-970.00
2024-05-19 08:29:44.596769,0,-1,10,0,0,0,80,82,128,80,71,132.60,203,-5.00,-7.00,-985.00
2024-05-19 08:29:44.633438,0,-1,9,0,0,0,80,82,127,80,71,132.52,203,-7.00,-34.00,-994.00
2024-05-19 08:29:44.801239,0,-1,9,0,0,0,80,82,127,80,71,132.64,204,41.00,-5.00,-947.00
2024-05-19 08:29:44.837385,0,0,9,0,0,0,80,82,127,80,71,132.56,204,-7.00,4.00,-1011.00
2024-05-19 08:29:45.005867,0,0,9,0,0,0,80,82,127,80,71,132.72,204,35.00,15.00,-973.00
2024-05-19 08:29:45.041440,0,0,9,0,0,0,80,82,127,80,71,132.69,204,4.00,46.00,-985.00
2024-05-19 08:29:45.211819,0,-1,9,0,0,0,80,82,127,80,71,132.72,204,1.00,19.00,-975.00
2024-05-19 08:29:45.245401,0,-1,10,0,0,0,80,82,128,80,71,132.65,204,5.00,23.00,-967.00
2024-05-19 08:29:45.296353,0,-1,10,0,0,0,80,82,127,80,71,132.71,204,0.00,-3.00,-988.00
2024-05-19 08:29:45.449477,0,-1,10,0,0,0,79,82,127,80,71,132.67,204,-20.00,0.00,-1010.00
2024-05-19 08:29:45.500413,0,-1,10,0,0,0,79,82,127,80,71,132.58,204,-4.00,10.00,-985.00
2024-05-19 08:29:45.624192,0,-1,10,0,0,0,79,82,127,80,71,132.64,204,3.00,41.00,-1004.00
2024-05-19 08:29:45.704247,0,-1,10,0,0,0,79,82,126,80,71,132.60,205,4.00,0.00,-983.00
2024-05-19 08:29:45.827355,0,0,10,0,0,0,79,82,126,80,71,132.63,205,-5.00,0.00,-1007.00
2024-05-19 08:29:45.908405,0,0,10,0,0,0,79,82,126,80,71,132.61,205,-8.00,11.00,-1009.00
2024-05-19 08:29:46.029845,0,0,10,0,0,0,79,82,126,80,71,132.59,205,-2.00,27.00,-1004.00
2024-05-19 08:29:46.112437,0,0,10,0,0,0,79,82,125,80,71,132.62,205,-1.00,-18.00,-952.00
2024-05-19 08:29:46.214442,0,0,10,0,0,0,79,82,125,80,71,132.60,205,-10.00,58.00,-1023.00
2024-05-19 08:29:46.336156,0,0,10,0,0,0,79,82,125,80,71,132.60,205,-25.00,38.00,-1010.00
2024-05-19 08:29:46.418281,0,0,10,0,0,0,79,82,125,80,71,132.66,205,-19.00,39.00,-1031.00
2024-05-19 08:29:46.541065,0,0,10,0,0,0,79,82,124,80,71,132.61,205,-10.00,30.00,-971.00
2024-05-19 08:29:46.622365,0,0,5,0,0,0,79,82,124,80,71,132.58,205,-8.00,10.00,-1007.00
2024-05-19 08:29:46.745948,0,0,0,0,0,0,79,82,124,80,71,132.54,206,-11.00,0.00,-1020.00
2024-05-19 08:29:46.826230,0,0,-6,0,0,0,79,82,125,80,71,132.49,206,-19.00,35.00,-1047.00
2024-05-19 08:29:46.928212,0,0,-12,0,0,0,79,82,125,80,71,132.64,206,-26.00,-29.00,-1002.00
2024-05-19 08:29:47.054632,0,0,-18,0,0,0,79,82,125,80,71,132.61,206,-40.00,-39.00,-1037.00
2024-05-19 08:29:47.132730,0,0,-24,0,0,0,79,82,125,80,71,132.70,206,9.00,-5.00,-943.00
2024-05-19 08:29:47.258995,0,0,-30,0,0,0,79,82,125,80,71,132.71,206,-16.00,-13.00,-993.00
2024-05-19 08:29:47.336226,0,0,-36,0,0,0,79,82,125,80,71,132.65,206,-23.00,-4.00,-1013.00
2024-05-19 08:29:47.438150,0,0,-41,0,0,0,80,83,125,80,71,132.59,206,-16.00,15.00,-965.00
2024-05-19 08:29:47.564957,0,0,-47,0,0,0,80,83,125,80,71,132.60,206,-22.00,25.00,-988.00
2024-05-19 08:29:47.642218,0,0,-53,0,0,0,80,83,126,80,71,132.62,206,-27.00,-10.00,-1004.00
2024-05-19 08:29:47.770168,0,0,-59,0,0,0,80,83,126,80,70,132.63,207,-12.00,8.00,-944.00
2024-05-19 08:29:47.846187,0,0,-65,0,0,0,80,83,126,80,70,132.68,207,-16.00,-50.00,-985.00
2024-05-19 08:29:47.974669,-1,0,-72,0,0,0,80,83,126,80,70,132.65,207,-9.00,-30.00,-959.00
2024-05-19 08:29:48.050270,-1,0,-78,0,0,0,80,83,126,80,70,132.67,207,-37.00,-9.00,-1023.00
2024-05-19 08:29:48.179511,-1,0,-84,0,0,0,80,83,126,80,70,132.64,207,-2.00,-14.00,-989.00
2024-05-19 08:29:48.254567,0,0,-90,0,0,0,80,83,126,80,70,132.63,207,-8.00,-24.00,-980.00
2024-05-19 08:29:48.384765,0,1,-96,0,0,0,80,83,126,80,70,132.61,207,-31.00,54.00,-1013.00
2024-05-19 08:29:48.458079,0,1,-109,0,0,0,80,82,126,80,70,132.52,207,-14.00,-39.00,-980.00
2024-05-19 08:29:48.593377,0,1,-115,0,0,0,80,82,126,80,70,132.60,207,18.00,-30.00,-958.00
2024-05-19 08:29:48.662130,0,1,-121,0,0,0,80,82,127,80,70,132.61,208,-2.00,35.00,-1008.00
2024-05-19 08:29:48.799490,0,1,-127,0,0,0,80,82,126,80,70,132.61,208,-21.00,-59.00,-1006.00
2024-05-19 08:29:48.866096,0,1,-133,0,0,0,80,82,126,80,70,132.69,208,-18.00,2.00,-981.00
2024-05-19 08:29:48.999073,0,1,-139,0,0,0,80,82,126,80,70,132.69,208,-23.00,-3.00,-1012.00
2024-05-19 08:29:49.070096,0,1,-144,0,0,0,80,82,127,80,70,132.68,208,-1.00,10.00,-1008.00
2024-05-19 08:29:49.204771,0,1,-150,0,0,0,80,82,127,80,70,132.67,208,-6.00,-17.00,-1036.00
2024-05-19 08:29:49.275307,0,1,-155,0,0,0,80,82,127,80,70,132.61,208,-11.00,-21.00,-1035.00
2024-05-19 08:29:49.408344,0,1,-160,0,0,0,80,82,127,80,70,132.63,208,-10.00,-39.00,-980.00
2024-05-19 08:29:49.478268,0,1,-165,0,0,0,80,82,127,80,70,132.60,208,-2.00,-49.00,-1027.00
2024-05-19 08:29:49.613263,0,1,-170,0,0,0,80,82,127,80,70,132.70,208,-14.00,15.00,-989.00
2024-05-19 08:29:49.631055,0,1,-176,0,0,0,80,82,127,80,70,132.70,209,-9.00,-42.00,-1040.00
2024-05-19 08:29:49.817799,0,1,178,0,0,0,80,82,126,80,70,132.61,209,4.00,-13.00,-962.00
2024-05-19 08:29:49.835100,0,1,172,0,0,0,80,82,126,80,70,132.63,209,-5.00,-39.00,-928.00
2024-05-19 08:29:49.937075,0,1,167,0,0,0,80,82,125,80,70,132.66,209,6.00,-18.00,-1023.00
2024-05-19 08:29:50.039087,0,1,161,0,0,0,80,82,125,80,70,132.67,209,-6.00,-32.00,-1047.00
2024-05-19 08:29:50.227382,0,1,155,0,0,0,80,82,125,80,70,132.65,209,-19.00,-29.00,-1044.00
2024-05-19 08:29:50.243376,0,1,150,0,0,0,80,82,125,80,70,132.72,209,1.00,-33.00,-1005.00
2024-05-19 08:29:50.432301,0,0,144,0,0,0,80,82,124,80,70,132.55,209,-1.00,-15.00,-1040.00
2024-05-19 08:29:50.447137,0,0,138,0,0,0,79,82,124,80,70,132.66,209,-9.00,-17.00,-1016.00
2024-05-19 08:29:50.549120,0,0,132,0,0,0,79,82,123,80,70,132.64,209,0.00,-16.00,-1009.00
2024-05-19 08:29:50.739498,0,0,126,0,0,0,79,82,123,80,70,132.62,210,-28.00,12.00,-1023.00
2024-05-19 08:29:50.752951,0,0,120,0,0,0,79,82,122,70,70,132.62,210,-17.00,-44.00,-1054.00
2024-05-19 08:29:50.944262,0,0,115,0,0,0,79,82,122,70,70,132.57,210,-12.00,13.00,-1029.00
2024-05-19 08:29:50.957068,0,1,109,0,0,0,79,82,122,70,70,132.59,210,4.00,1.00,-993.00
2024-05-19 08:29:51.149112,0,1,103,0,0,0,79,82,122,70,70,132.56,210,-15.00,-35.00,-1063.00
2024-05-19 08:29:51.161340,0,1,97,0,0,0,79,82,122,70,70,132.64,210,-8.00,-15.00,-999.00
2024-05-19 08:29:51.354134,0,1,91,0,0,0,79,82,122,70,70,132.62,210,-20.00,-16.00,-981.00
2024-05-19 08:29:51.364952,0,1,85,0,0,0,79,82,121,70,70,132.66,210,-16.00,-24.00,-1050.00
2024-05-19 08:29:51.467211,0,1,80,0,0,0,79,83,121,70,70,132.64,210,0.00,0.00,-1002.00
2024-05-19 08:29:51.661145,0,1,74,0,0,0,79,83,121,70,70,132.61,210,2.00,-39.00,-1012.00
2024-05-19 08:29:51.670993,0,1,68,0,0,0,79,83,121,70,70,132.57,211,-11.00,-3.00,-1003.00
2024-05-19 08:29:51.866529,0,1,62,0,0,0,79,83,121,70,70,132.63,211,-1.00,-7.00,-1029.00
2024-05-19 08:29:51.875054,0,1,56,0,0,0,79,83,121,70,70,132.64,211,2.00,-23.00,-1004.00
2024-05-19 08:29:52.070530,0,1,51,0,0,0,79,83,121,70,70,132.61,211,5.00,-40.00,-1012.00
2024-05-19 08:29:52.079005,0,1,45,0,0,0,79,83,121,70,70,132.58,211,0.00,-27.00,-968.00
2024-05-19 08:29:52.275463,0,0,39,0,0,0,79,83,121,70,70,132.65,211,14.00,-11.00,-986.00
2024-05-19 08:29:52.283005,0,0,33,0,0,0,79,83,122,70,70,132.67,211,16.00,-12.00,-1038.00
2024-05-19 08:29:52.485134,0,0,28,0,0,0,79,83,122,70,70,132.60,211,11.00,4.00,-988.00
2024-05-19 08:29:52.486915,0,0,24,0,0,0,79,83,121,70,70,132.61,211,2.00,6.00,-1003.00
2024-05-19 08:29:52.685988,0,0,20,0,0,0,79,83,121,70,70,132.62,211,8.00,8.00,-967.00
2024-05-19 08:29:52.691009,0,0,18,0,0,0,79,83,121,70,70,132.61,212,-1.00,-14.00,-1031.00
2024-05-19 08:29:52.892620,0,0,16,0,0,0,79,83,121,70,69,132.65,212,15.00,-18.00,-1014.00
2024-05-19 08:29:52.894906,0,0,14,0,0,0,79,83,121,70,69,132.59,212,11.00,35.00,-969.00
2024-05-19 08:29:52.998925,0,0,13,0,0,0,79,83,121,70,69,132.64,212,-10.00,-26.00,-1038.00
2024-05-19 08:29:53.099516,0,0,12,0,0,0,79,83,121,70,69,132.60,212,6.00,-6.00,-970.00
2024-05-19 08:29:53.149889,0,0,11,0,0,0,79,83,122,70,69,132.61,212,-14.00,-21.00,-1021.00
2024-05-19 08:29:53.300816,0,0,11,0,0,0,79,83,122,70,69,132.65,212,-16.00,-7.00,-993.00
2024-05-19 08:29:53.354008,0,0,11,0,0,0,79,83,121,70,69,132.63,212,-20.00,17.00,-1010.00
2024-05-19 08:29:53.456054,0,0,11,0,0,0,80,82,122,70,69,132.67,212,11.00,5.00,-974.00
2024-05-19 08:29:53.606623,0,0,11,0,0,0,80,82,122,70,69,132.65,212,-5.00,37.00,-1035.00
2024-05-19 08:29:53.659959,0,-1,11,0,0,0,80,82,122,70,69,132.64,213,0.00,-4.00,-972.00
2024-05-19 08:29:53.811665,0,-1,11,0,0,0,80,82,122,70,69,132.67,213,-5.00,8.00,-993.00
2024-05-19 08:29:53.863908,0,-1,11,0,0,0,80,82,122,70,69,132.69,213,-3.00,-10.00,-1042.00
2024-05-19 08:29:54.016420,0,0,11,0,0,0,80,82,122,70,69,132.65,213,2.00,24.00,-1037.00
2024-05-19 08:29:54.067936,0,0,11,0,0,0,80,82,122,70,69,132.65,213,2.00,15.00,-968.00
2024-05-19 08:29:54.223361,0,0,11,0,0,0,80,82,122,70,69,132.58,213,-14.00,14.00,-967.00
2024-05-19 08:29:54.271920,0,0,11,0,0,0,80,82,122,70,69,132.60,213,20.00,21.00,-1066.00
2024-05-19 08:29:54.426229,0,0,11,0,0,0,80,82,123,70,69,132.63,213,11.00,1.00,-976.00
2024-05-19 08:29:54.476002,0,-1,11,0,0,0,79,82,123,70,69,132.69,213,13.00,3.00,-1038.00
2024-05-19 08:29:54.631067,0,-1,11,0,0,0,79,82,123,70,69,132.65,213,14.00,9.00,-986.00
2024-05-19 08:29:54.679834,0,-1,11,0,0,0,79,82,123,70,69,132.71,214,9.00,35.00,-975.00
2024-05-19 08:29:54.835780,0,-1,11,0,0,0,79,82,124,70,69,132.74,214,8.00,44.00,-970.00
2024-05-19 08:29:54.883927,0,-1,11,0,0,0,79,82,124,80,69,132.67,214,2.00,43.00,-1001.00
2024-05-19 08:29:55.040336,0,-2,11,0,0,0,79,82,125,80,69,132.63,214,14.00,18.00,-1021.00
2024-05-19 08:29:55.087769,0,-2,11,0,0,0,79,82,125,80,69,132.74,214,-13.00,41.00,-990.00
2024-05-19 08:29:55.190138,0,-1,11,0,0,0,79,82,124,80,69,132.71,214,-8.00,8.00,-1034.00
2024-05-19 08:29:55.351278,0,-1,11,0,0,-2,79,82,126,80,69,132.83,214,5.00,13.00,-995.00
2024-05-19 08:29:55.393785,0,-3,9,0,0,-9,79,82,134,80,69,133.01,214,-13.00,33.00,-1033.00
2024-05-19 08:29:55.552393,-1,-64,9,0,-3,-13,80,82,310,90,69,133.06,214,14.00,486.00,-1023.00
2024-05-19 08:29:55.597753,1,170,14,1,-10,-2,80,82,498,100,69,133.13,214,-27.00,486.00,-1048.00
2024-05-19 08:29:55.757170,4,50,5,0,-5,10,80,82,191,100,69,133.18,215,-12.00,185.00,-1551.00
2024-05-19 08:29:55.801753,0,-1,2,0,-1,9,80,82,132,90,69,132.73,215,-34.00,-67.00,-1341.00
2024-05-19 08:29:55.918280,0,2,-1,0,-1,6,80,82,125,80,69,132.80,215,-3.00,17.00,-1336.00
2024-05-19 08:29:56.005766,0,1,-1,0,-1,2,80,82,120,80,69,132.71,215,9.00,-43.00,-1262.00
2024-05-19 08:29:56.166637,0,0,6,0,0,0,80,82,118,70,69,132.78,215,-55.00,52.00,-1143.00
2024-05-19 08:29:56.209728,0,0,11,0,0,0,80,82,117,70,69,132.78,215,-14.00,21.00,-1107.00
2024-05-19 08:29:56.378281,0,0,12,0,0,0,80,82,117,70,69,132.76,215,-4.00,0.00,-1059.00
2024-05-19 08:29:56.413653,0,1,12,0,0,-1,80,82,117,70,69,132.79,215,-26.00,0.00,-990.00
2024-05-19 08:29:56.576162,0,1,11,0,0,-1,79,83,118,80,69,132.66,215,-1.00,-17.00,-1063.00
2024-05-19 08:29:56.617760,0,0,11,0,0,0,79,83,118,80,69,132.78,215,16.00,36.00,-983.00
2024-05-19 08:29:56.781288,0,0,11,0,0,0,79,83,118,80,69,132.67,216,1.00,26.00,-972.00
2024-05-19 08:29:56.821741,0,0,11,0,0,0,79,83,119,80,69,132.66,216,13.00,22.00,-1049.00
2024-05-19 08:29:56.873318,0,0,11,0,0,0,79,83,119,80,69,132.76,216,22.00,40.00,-998.00
2024-05-19 08:29:56.985710,0,0,11,0,0,0,79,83,119,80,69,132.74,216,14.00,14.00,-1015.00
2024-05-19 08:29:57.077007,0,0,11,0,0,0,79,83,119,80,69,132.76,216,-4.00,16.00,-1013.00
2024-05-19 08:29:57.190495,0,0,11,0,0,0,79,83,120,80,69,132.70,216,21.00,32.00,-1055.00
2024-05-19 08:29:57.280704,0,0,11,0,0,0,79,83,120,80,69,132.73,216,2.00,12.00,-1059.00
2024-05-19 08:29:57.395607,0,0,11,0,0,0,79,83,120,80,69,132.67,216,9.00,7.00,-1030.00
2024-05-19 08:29:57.488071,0,0,11,0,0,0,79,82,120,80,69,132.78,216,-8.00,39.00,-1022.00
2024-05-19 08:29:57.586602,0,0,11,0,0,0,79,82,121,80,69,132.71,216,3.00,17.00,-994.00
2024-05-19 08:29:57.702489,0,0,11,0,0,0,79,82,122,80,69,132.75,217,4.00,42.00,-966.00
2024-05-19 08:29:57.790634,0,0,11,0,0,0,79,82,122,80,69,132.77,217,5.00,22.00,-990.00
2024-05-19 08:29:57.907510,0,-1,11,0,0,0,79,82,122,80,69,132.78,217,21.00,28.00,-966.00
2024-05-19 08:29:57.994983,0,-1,11,0,0,0,79,82,123,80,69,132.77,217,16.00,20.00,-985.00
2024-05-19 08:29:58.112152,0,-1,11,0,0,0,79,82,123,80,69,132.82,217,10.00,40.00,-963.00
2024-05-19 08:29:58.198578,0,-1,11,0,0,0,79,82,123,80,69,132.80,217,26.00,50.00,-987.00
2024-05-19 08:29:58.316895,0,-2,11,0,0,0,79,82,122,80,69,132.81,217,12.00,41.00,-1008.00
2024-05-19 08:29:58.402708,0,-2,11,0,0,0,79,82,122,80,69,132.85,217,27.00,34.00,-1030.00
2024-05-19 08:29:58.521788,0,-1,11,0,0,0,79,82,122,80,69,132.82,217,12.00,38.00,-1010.00
2024-05-19 08:29:58.606636,0,-1,11,0,0,0,79,82,122,80,69,132.75,217,16.00,16.00,-1042.00
2024-05-19 08:29:58.708606,0,-1,11,0,0,0,79,82,122,80,68,132.75,218,6.00,33.00,-916.00
2024-05-19 08:29:58.829414,0,0,11,0,0,0,79,82,121,80,68,132.80,218,9.00,10.00,-973.00
2024-05-19 08:29:58.912773,0,0,11,0,0,0,79,82,122,80,68,132.78,218,2.00,18.00,-993.00
2024-05-19 08:29:59.014694,0,0,11,0,0,0,79,82,122,80,68,132.87,218,-9.00,4.00,-1035.00
2024-05-19 08:29:59.136161,0,0,11,0,0,0,79,82,122,80,68,132.78,218,-7.00,28.00,-996.00
2024-05-19 08:29:59.218673,0,0,11,0,0,0,79,82,122,80,68,132.74,218,0.00,19.00,-997.00
2024-05-19 08:29:59.340943,0,0,11,0,0,0,79,82,122,80,68,132.83,218,-11.00,17.00,-988.00
2024-05-19 08:29:59.422725,0,0,11,0,0,0,79,82,122,80,68,132.85,218,-6.00,8.00,-967.00
2024-05-19 08:29:59.546355,0,0,11,0,0,0,80,82,123,80,68,132.86,218,1.00,25.00,-1009.00
2024-05-19 08:29:59.626670,0,0,11,0,0,0,80,82,124,80,68,132.87,218,-15.00,15.00,-999.00
2024-05-19 08:29:59.750604,0,0,11,0,0,0,80,82,124,80,68,132.86,219,6.00,44.00,-1006.00
2024-05-19 08:29:59.830586,0,0,11,0,0,0,80,82,125,80,68,132.87,219,-20.00,22.00,-959.00
2024-05-19 08:29:59.955529,0,0,11,0,0,0,80,82,126,80,68,132.87,219,-8.00,32.00,-1017.00
2024-05-19 08:30:00.034554,0,0,11,0,0,0,80,82,127,80,68,132.87,219,-16.00,14.00,-968.00
2024-05-19 08:30:00.160167,0,0,11,0,0,0,80,82,127,80,68,132.90,219,-13.00,11.00,-987.00
2024-05-19 08:30:00.238626,0,0,11,0,0,0,80,82,127,80,68,132.89,219,-23.00,31.00,-985.00
2024-05-19 08:30:00.365056,-1,-1,11,0,0,0,80,82,128,80,68,132.94,219,-6.00,27.00,-960.00
2024-05-19 08:30:00.391656,-1,-1,11,0,0,0,80,82,128,80,68,132.95,219,-24.00,12.00,-989.00
2024-05-19 08:30:00.569727,-1,0,11,0,0,0,79,82,129,80,68,132.86,219,-23.00,39.00,-930.00
2024-05-19 08:30:00.595511,-1,-1,11,0,0,0,79,82,129,80,68,132.86,219,-7.00,40.00,-1006.00
2024-05-19 08:30:00.774935,-1,-1,11,0,0,0,79,82,129,80,68,132.90,220,-15.00,30.00,-1039.00
2024-05-19 08:30:00.799550,-1,-1,11,0,0,0,79,82,130,80,68,132.86,220,-14.00,36.00,-965.00
2024-05-19 08:30:00.901658,-1,-1,11,0,0,0,79,82,130,80,68,132.94,220,-5.00,27.00,-984.00
2024-05-19 08:30:01.081805,-1,-1,11,0,0,0,79,82,130,80,68,132.92,220,-27.00,13.00,-1022.00
2024-05-19 08:30:01.105474,-1,-1,11,0,0,0,79,82,130,80,68,132.88,220,-26.00,50.00,-916.00
2024-05-19 08:30:01.287026,-1,-1,11,0,0,0,79,82,130,80,68,132.98,220,-16.00,25.00,-988.00
2024-05-19 08:30:01.309570,-1,-1,11,0,0,0,79,82,130,80,68,132.87,220,-19.00,27.00,-1064.00
2024-05-19 08:30:01.491646,-1,-1,11,0,0,0,79,82,130,80,68,132.94,220,-22.00,28.00,-1020.00
2024-05-19 08:30:01.513559,-1,-1,11,0,0,0,79,82,130,80,68,132.92,220,-26.00,40.00,-1006.00
2024-05-19 08:30:01.660924,-1,-1,11,0,0,0,79,82,129,80,68,132.87,220,-33.00,35.00,-921.00
2024-05-19 08:30:01.717430,-1,-1,11,0,0,0,79,82,130,80,68,132.89,221,-16.00,15.00,-945.00
2024-05-19 08:30:01.905797,-1,0,11,0,0,0,79,82,130,80,68,133.04,221,-37.00,13.00,-1382.00
2024-05-19 08:30:01.923105,0,1,10,0,0,-3,79,82,137,80,68,133.15,221,-89.00,23.00,-1821.00
2024-05-19 08:30:02.023762,0,9,8,0,1,-11,79,82,227,90,68,133.18,221,-59.00,3.00,-1726.00
2024-05-19 08:30:02.208180,6,97,10,-2,7,-12,79,82,469,100,68,133.32,221,-89.00,697.00,-1167.00
2024-05-19 08:30:02.227360,-4,-141,17,-3,11,3,79,82,360,110,68,133.20,221,-118.00,596.00,-784.00
