TS,pitch,roll,yaw,vgx,vgy,vgz,templ,temph,tof,h,bat,baro,time,agx,agy,agz
2024-05-19 08:30:47.059286,0,0,1,0,0,0,82,83,10,0,64,131.29,245,-1.00,-3.00,-997.00
2024-05-19 08:30:47.063141,0,0,1,0,0,0,82,83,10,0,64,131.33,245,0.00,-3.00,-997.00
2024-05-19 08:30:47.263987,0,0,1,0,0,0,82,83,10,0,64,131.25,245,-1.00,-1.00,-1002.00
2024-05-19 08:30:47.267123,0,0,1,0,0,0,82,83,10,0,64,131.25,245,-3.00,-3.00,-999.00
2024-05-19 08:30:47.369277,0,0,1,0,0,0,82,83,10,0,64,131.23,245,-1.00,-3.00,-1000.00
2024-05-19 08:30:47.471005,0,0,1,0,0,0,82,83,10,0,64,131.32,245,0.00,-2.00,-1000.00
2024-05-19 08:30:47.573303,0,0,1,0,0,0,82,83,10,0,64,131.34,245,0.00,-3.00,-1000.00
2024-05-19 08:30:47.675272,0,0,1,0,0,0,82,83,10,0,64,131.26,245,-1.00,-3.00,-1000.00
2024-05-19 08:30:47.878416,0,0,1,0,0,0,81,84,10,0,64,131.35,245,0.00,-2.00,-998.00
2024-05-19 08:30:47.879084,0,0,1,0,0,0,81,84,10,0,64,131.31,245,0.00,-2.00,-1002.00
2024-05-19 08:30:47.981112,0,0,1,0,0,0,81,84,10,0,64,131.26,245,0.00,-4.00,-1000.00
2024-05-19 08:30:48.083675,0,0,1,0,0,0,81,84,10,0,64,131.29,245,0.00,-3.00,-1000.00
2024-05-19 08:30:48.185287,0,0,1,0,0,0,81,84,10,0,64,131.26,245,-1.00,-4.00,-999.00
2024-05-19 08:30:48.287870,0,0,1,0,0,0,81,84,10,0,64,131.28,245,-1.00,-4.00,-1001.00
2024-05-19 08:30:48.390269,0,0,1,0,0,0,81,84,10,0,64,131.28,245,0.00,-3.00,-1000.00
2024-05-19 08:30:48.492763,0,0,1,0,0,0,81,84,10,0,64,131.30,245,-1.00,-2.00,-1002.00
2024-05-19 08:30:48.595785,0,0,1,0,0,0,81,84,10,0,64,131.29,245,-2.00,-3.00,-998.00
2024-05-19 08:30:48.697726,0,0,1,0,0,0,81,84,10,0,64,131.31,245,-1.00,-4.00,-999.00
2024-05-19 08:30:48.798116,0,0,1,0,0,0,81,84,10,0,64,131.29,245,-1.00,-2.00,-998.00
2024-05-19 08:30:48.902376,0,0,1,0,0,0,81,84,10,0,64,131.32,245,-4.00,-3.00,-1001.00
2024-05-19 08:30:49.002151,0,0,1,0,0,0,81,84,10,0,64,131.27,245,-2.00,-3.00,-1000.00
2024-05-19 08:30:49.107650,0,0,1,0,0,0,81,84,10,0,64,131.29,245,-1.00,-3.00,-998.00
2024-05-19 08:30:49.206111,0,0,1,0,0,0,81,84,10,0,64,131.31,245,-2.00,-3.00,-999.00
2024-05-19 08:30:49.311940,0,0,1,0,0,0,81,84,10,0,64,131.32,245,-1.00,-1.00,-1000.00
2024-05-19 08:30:49.410150,0,0,1,0,0,0,81,84,10,0,64,131.32,245,0.00,-2.00,-998.00
2024-05-19 08:30:49.513440,0,0,1,0,0,0,81,84,10,0,64,131.26,245,-1.00,-1.00,-1000.00
2024-05-19 08:30:49.613968,0,0,1,0,0,0,81,84,10,0,64,131.29,245,-1.00,-2.00,-999.00
2024-05-19 08:30:49.721619,0,0,1,0,0,0,81,84,10,0,64,131.32,245,0.00,-3.00,-1003.00
2024-05-19 08:30:49.818002,0,0,1,0,0,0,82,84,10,0,64,131.30,245,-2.00,-4.00,-1000.00
2024-05-19 08:30:49.926412,0,0,1,0,0,0,82,84,10,0,64,131.27,245,-2.00,-1.00,-1000.00
2024-05-19 08:30:50.021950,0,0,1,0,0,0,82,84,10,0,64,131.28,245,-1.00,-2.00,-1000.00
2024-05-19 08:30:50.073157,0,0,1,0,0,0,82,84,10,0,64,131.31,245,-1.00,-2.00,-1001.00
2024-05-19 08:30:50.233566,0,0,1,0,0,0,82,84,10,0,64,131.26,245,-1.00,-3.00,-1000.00
2024-05-19 08:30:50.276954,0,0,1,0,0,0,82,84,10,0,64,131.28,245,-2.00,-2.00,-1001.00
2024-05-19 08:30:50.438366,0,0,1,0,0,0,82,84,10,0,64,131.32,245,0.00,-3.00,-1001.00
2024-05-19 08:30:50.480952,0,0,1,0,0,0,82,84,10,0,64,131.31,245,-2.00,-3.00,-1003.00
2024-05-19 08:30:50.643794,0,0,1,0,0,0,82,84,10,0,64,131.31,245,-3.00,-3.00,-998.00
2024-05-19 08:30:50.684985,0,0,1,0,0,0,82,84,10,0,64,131.33,245,-1.00,-3.00,-1000.00
2024-05-19 08:30:50.848029,0,0,1,0,0,0,82,84,10,0,64,131.28,245,0.00,-2.00,-1000.00
2024-05-19 08:30:50.888884,0,0,1,0,0,0,82,84,10,0,64,131.30,245,-1.00,-2.00,-1000.00
2024-05-19 08:30:51.052938,0,0,1,0,0,0,82,84,10,0,64,131.27,245,-2.00,-2.00,-1001.00
2024-05-19 08:30:51.093043,0,0,1,0,0,0,82,84,10,0,64,131.33,245,-1.00,-3.00,-999.00
2024-05-19 08:30:51.257624,0,0,1,0,0,0,82,84,10,0,64,131.35,245,-1.00,-3.00,-999.00
2024-05-19 08:30:51.296858,0,0,1,0,0,0,82,84,10,0,64,131.29,245,-1.00,-1.00,-998.00
2024-05-19 08:30:51.462512,0,0,1,0,0,0,82,84,10,0,64,131.34,245,-1.00,-3.00,-1001.00
2024-05-19 08:30:51.500935,0,0,1,0,0,0,82,84,10,0,64,131.34,245,-2.00,-2.00,-999.00
2024-05-19 08:30:51.668391,0,0,1,0,0,0,82,84,10,0,64,131.30,245,-2.00,-2.00,-999.00
2024-05-19 08:30:51.704966,0,0,1,0,0,0,82,84,10,0,64,131.36,245,0.00,-3.00,-1001.00
2024-05-19 08:30:51.872032,0,0,1,0,0,0,82,84,10,0,64,131.35,245,-3.00,-4.00,-999.00
2024-05-19 08:30:51.908839,0,0,1,0,0,0,82,84,10,0,64,131.29,245,-1.00,-2.00,-1003.00
2024-05-19 08:30:52.077333,0,0,1,0,0,0,82,84,10,0,64,131.35,245,-2.00,-4.00,-1000.00
2024-05-19 08:30:52.113796,0,0,1,0,0,0,82,84,10,0,64,131.32,245,-1.00,-2.00,-1001.00
2024-05-19 08:30:52.281518,0,0,1,0,0,0,82,84,10,0,64,131.27,245,-2.00,0.00,-1001.00
2024-05-19 08:30:52.317816,0,0,1,0,0,0,82,84,10,0,64,131.32,245,-1.00,-2.00,-1001.00
2024-05-19 08:30:52.420499,0,0,1,0,0,0,82,84,10,0,64,131.28,245,-3.00,-2.00,-1001.00
2024-05-19 08:30:52.588897,0,0,1,0,0,0,82,84,10,0,64,131.29,245,-3.00,-2.00,-1001.00
2024-05-19 08:30:52.623885,0,0,1,0,0,0,82,84,10,0,64,131.31,245,-3.00,-3.00,-998.00
2024-05-19 08:30:52.793643,0,0,1,0,0,0,82,84,10,0,64,131.23,245,-3.00,-1.00,-999.00
2024-05-19 08:30:52.827892,0,0,1,0,0,0,82,84,10,0,64,131.31,245,-2.00,-3.00,-1000.00
2024-05-19 08:30:52.929676,0,0,1,0,0,0,82,84,10,0,64,131.32,245,-2.00,-2.00,-998.00
2024-05-19 08:30:53.100724,0,0,1,0,0,0,82,84,10,0,64,131.32,245,-1.00,-3.00,-1000.00
2024-05-19 08:30:53.133803,0,0,1,0,0,0,82,84,10,0,64,131.32,245,-5.00,-5.00,-997.00
2024-05-19 08:30:53.305495,0,0,1,0,0,0,82,84,10,0,64,131.32,245,13.00,-7.00,-1001.00
2024-05-19 08:30:53.337751,0,0,1,0,0,0,82,84,10,0,64,131.32,245,2.00,6.00,-992.00
2024-05-19 08:30:53.388732,0,0,2,0,0,0,82,84,10,0,64,131.32,245,-6.00,-26.00,-992.00
2024-05-19 08:30:53.510244,0,0,1,0,0,0,82,84,10,0,64,131.32,245,-8.00,-29.00,-1089.00
2024-05-19 08:30:53.592971,0,0,0,0,0,-1,82,84,10,0,64,131.32,245,-12.00,-13.00,-1249.00
2024-05-19 08:30:53.715053,0,1,0,0,0,-3,82,84,10,0,64,131.32,246,-17.00,-22.00,-1294.00
2024-05-19 08:30:53.796738,-1,1,0,0,0,-6,83,85,18,0,64,131.45,246,-25.00,-29.00,-1095.00
2024-05-19 08:30:53.919906,-1,0,0,0,0,-7,83,85,26,10,64,131.64,246,12.00,2.00,-1083.00
2024-05-19 08:30:54.001050,-1,0,0,0,0,-8,83,85,34,20,64,131.70,246,-21.00,-1.00,-1030.00
2024-05-19 08:30:54.124689,-1,0,0,0,0,-8,83,85,41,30,64,131.83,246,-14.00,12.00,-881.00
2024-05-19 08:30:54.204696,-1,0,0,0,0,-7,83,85,47,30,64,131.89,246,-14.00,-38.00,-943.00
2024-05-19 08:30:54.329493,-1,0,0,0,0,-7,83,85,54,40,64,131.99,246,5.00,-4.00,-898.00
2024-05-19 08:30:54.408675,-1,0,0,0,0,-6,83,85,60,50,64,132.10,246,-15.00,-33.00,-821.00
2024-05-19 08:30:54.534307,0,0,0,0,0,-4,83,85,64,50,64,132.06,246,-18.00,10.00,-907.00
2024-05-19 08:30:54.613769,0,0,0,0,0,-3,83,85,67,60,64,132.09,246,-7.00,-14.00,-919.00
2024-05-19 08:30:54.739105,-1,0,0,0,0,-2,83,85,70,60,64,132.11,247,-14.00,-6.00,-875.00
2024-05-19 08:30:54.817623,0,0,0,0,0,-1,82,85,70,60,64,132.16,247,-5.00,-14.00,-929.00
2024-05-19 08:30:54.943808,0,0,0,0,0,-1,82,85,70,60,64,132.06,247,-14.00,-7.00,-877.00
2024-05-19 08:30:55.021613,0,0,0,0,0,0,82,85,71,60,64,132.12,247,1.00,-11.00,-991.00
2024-05-19 08:30:55.148688,0,0,0,0,0,0,82,85,71,60,64,132.20,247,-27.00,-18.00,-985.00
2024-05-19 08:30:55.225614,-1,0,0,0,0,0,82,85,71,60,64,132.18,247,23.00,0.00,-998.00
2024-05-19 08:30:55.353504,-1,0,0,0,0,0,82,85,71,60,64,132.12,247,-17.00,-11.00,-1005.00
2024-05-19 08:30:55.429618,0,0,0,0,0,0,82,85,71,60,64,132.13,247,-25.00,-21.00,-1001.00
2024-05-19 08:30:55.558280,0,1,0,0,0,0,82,85,71,60,64,132.14,247,-19.00,-11.00,-995.00
2024-05-19 08:30:55.633647,0,1,0,0,0,0,82,85,72,60,64,132.16,247,-25.00,-2.00,-940.00
2024-05-19 08:30:55.762961,0,1,0,0,0,0,82,85,72,60,64,132.13,248,-1.00,-1.00,-1013.00
2024-05-19 08:30:55.837634,0,1,0,0,0,0,82,84,73,60,64,132.17,248,-11.00,-29.00,-1035.00
2024-05-19 08:30:55.967852,0,1,0,0,0,0,82,84,74,60,64,132.14,248,-24.00,-33.00,-1025.00
2024-05-19 08:30:56.041667,0,1,0,0,0,0,82,84,75,60,64,132.16,248,1.00,-6.00,-982.00
2024-05-19 08:30:56.172740,0,1,0,0,0,0,82,84,75,70,64,132.15,248,-9.00,-23.00,-963.00
2024-05-19 08:30:56.245600,0,1,0,0,0,0,82,84,76,70,64,132.16,248,-18.00,-12.00,-954.00
2024-05-19 08:30:56.377448,0,1,0,0,0,0,82,84,77,70,64,132.18,248,-16.00,-7.00,-928.00
2024-05-19 08:30:56.449555,0,1,0,0,0,0,82,84,79,70,64,132.14,248,-29.00,-17.00,-930.00
2024-05-19 08:30:56.583178,0,1,0,0,0,0,82,84,79,70,64,132.18,248,-19.00,-15.00,-969.00
2024-05-19 08:30:56.653575,0,1,0,0,0,0,82,84,80,70,64,132.18,248,-10.00,-22.00,-1011.00
2024-05-19 08:30:56.787377,0,1,0,0,0,0,82,84,81,70,64,132.18,249,-23.00,-41.00,-971.00
2024-05-19 08:30:56.857600,-1,1,0,0,0,0,82,85,82,70,64,132.24,249,-13.00,-6.00,-917.00
2024-05-19 08:30:56.991942,-1,1,0,0,0,0,82,85,82,70,64,132.30,249,-11.00,-13.00,-959.00
2024-05-19 08:30:57.061757,-1,1,0,0,0,0,82,85,83,70,64,132.23,249,-3.00,-4.00,-993.00
2024-05-19 08:30:57.112527,-1,1,0,0,0,0,82,85,83,70,64,132.23,249,-10.00,-12.00,-1014.00
2024-05-19 08:30:57.299054,-1,1,0,0,0,0,82,85,84,70,64,132.25,249,-8.00,-30.00,-997.00
2024-05-19 08:30:57.316507,-1,2,0,0,0,0,82,85,84,70,64,132.22,249,1.00,-23.00,-1066.00
2024-05-19 08:30:57.503861,-1,2,0,0,0,0,82,85,84,70,64,132.20,249,-28.00,-28.00,-923.00
2024-05-19 08:30:57.520465,-1,2,0,0,0,0,82,85,84,70,64,132.23,249,16.00,-29.00,-1023.00
2024-05-19 08:30:57.709248,-1,1,0,0,0,0,82,85,84,70,64,132.26,249,-20.00,-22.00,-976.00
2024-05-19 08:30:57.724802,-1,2,0,0,0,0,82,85,84,70,64,132.23,250,7.00,-11.00,-948.00
2024-05-19 08:30:57.913515,-1,1,0,0,0,0,82,85,84,70,64,132.27,250,-7.00,-38.00,-961.00
2024-05-19 08:30:57.928457,-1,1,0,0,0,0,82,85,84,70,64,132.18,250,-19.00,-18.00,-964.00
2024-05-19 08:30:58.030769,-1,1,0,0,0,0,82,85,84,70,64,132.24,250,-3.00,-32.00,-1014.00
2024-05-19 08:30:58.220671,-1,1,0,0,0,0,82,85,84,70,64,132.22,250,-13.00,0.00,-928.00
2024-05-19 08:30:58.234685,-1,1,0,0,0,0,82,85,83,70,64,132.21,250,-28.00,-47.00,-998.00
2024-05-19 08:30:58.425582,-1,1,0,0,0,0,82,85,83,70,64,132.22,250,-26.00,-59.00,-1016.00
2024-05-19 08:30:58.439933,-1,1,0,0,0,0,82,85,83,70,64,132.21,250,-10.00,-21.00,-1026.00
2024-05-19 08:30:58.540664,-1,1,0,0,0,0,82,85,83,70,64,132.22,250,-29.00,-21.00,-938.00
2024-05-19 08:30:58.642645,-1,1,0,0,0,0,82,85,83,70,64,132.26,251,-17.00,-21.00,-996.00
2024-05-19 08:30:58.835084,-1,1,0,0,0,0,82,85,83,70,64,132.25,251,-14.00,-52.00,-1041.00
2024-05-19 08:30:58.846427,-1,1,0,0,0,0,82,85,84,70,64,132.25,251,-12.00,-16.00,-991.00
2024-05-19 08:30:58.948545,-1,1,0,0,0,0,82,85,84,70,64,132.27,251,-30.00,-38.00,-1050.00
2024-05-19 08:30:59.142274,-1,1,0,0,0,0,82,85,85,70,64,132.27,251,-13.00,-37.00,-1000.00
2024-05-19 08:30:59.152422,-1,1,0,0,0,0,82,85,85,70,64,132.23,251,-14.00,-13.00,-925.00
2024-05-19 08:30:59.347125,-1,1,0,0,0,0,82,85,86,70,64,132.25,251,-9.00,-37.00,-1036.00
2024-05-19 08:30:59.357031,0,1,0,0,0,0,82,85,86,70,64,132.24,251,-24.00,-25.00,-943.00
2024-05-19 08:30:59.551834,-1,1,0,0,0,0,82,85,86,70,64,132.24,251,-9.00,-42.00,-1024.00
2024-05-19 08:30:59.560297,0,1,0,0,0,0,82,85,86,70,64,132.25,251,-10.00,-20.00,-1008.00
2024-05-19 08:30:59.662812,0,1,0,0,0,0,82,85,86,70,64,132.27,252,-17.00,-6.00,-954.00
2024-05-19 08:30:59.859016,0,1,0,0,0,0,82,85,85,70,64,132.25,252,-11.00,-26.00,-954.00
2024-05-19 08:30:59.866412,-1,1,0,0,0,0,82,84,85,70,64,132.26,252,3.00,-24.00,-1043.00
2024-05-19 08:30:59.969595,-1,1,0,0,0,0,82,84,85,70,64,132.24,252,0.00,-28.00,-978.00
2024-05-19 08:31:00.070453,0,1,0,0,0,0,82,84,84,70,64,132.23,252,-9.00,-49.00,-960.00
2024-05-19 08:31:00.268780,-1,2,0,0,0,0,82,84,84,70,64,132.18,252,-16.00,-8.00,-1008.00
2024-05-19 08:31:00.274338,-1,1,0,0,0,0,82,84,83,70,64,132.24,252,-5.00,-14.00,-1024.00
2024-05-19 08:31:00.473668,-1,1,0,0,0,0,82,84,82,70,64,132.15,252,2.00,-33.00,-985.00
2024-05-19 08:31:00.478397,-1,2,0,0,0,0,82,84,82,70,64,132.21,252,-19.00,-47.00,-1036.00
2024-05-19 08:31:00.678325,-1,2,0,0,0,0,82,84,81,70,64,132.23,252,-10.00,5.00,-1039.00
2024-05-19 08:31:00.678674,0,2,0,0,0,0,82,84,81,70,64,132.23,253,0.00,-5.00,-1034.00
2024-05-19 08:31:00.733342,0,2,0,0,0,0,82,84,80,70,64,132.20,253,-10.00,-26.00,-968.00
2024-05-19 08:31:00.886371,0,1,0,0,0,0,82,84,80,70,64,132.20,253,-9.00,-10.00,-994.00
2024-05-19 08:31:00.988398,0,1,0,0,0,0,82,84,79,70,64,132.24,253,6.00,-49.00,-1055.00
2024-05-19 08:31:01.090395,0,1,0,0,0,0,82,84,79,70,64,132.18,253,-6.00,-44.00,-934.00
2024-05-19 08:31:01.192386,0,1,0,0,0,0,82,84,78,70,64,132.15,253,-5.00,-22.00,-1000.00
2024-05-19 08:31:01.294296,0,2,0,0,0,0,82,84,78,70,64,132.24,253,2.00,-30.00,-1006.00
2024-05-19 08:31:01.345272,0,2,0,0,0,0,82,84,78,70,64,132.18,253,-10.00,-37.00,-1035.00
2024-05-19 08:31:01.447364,0,2,0,0,0,0,82,84,78,70,64,132.20,253,-12.00,-40.00,-1005.00
2024-05-19 08:31:01.600480,0,2,0,0,0,0,82,84,78,70,64,132.24,253,-2.00,-57.00,-975.00
2024-05-19 08:31:01.652406,0,2,0,0,0,0,82,84,78,70,64,132.13,254,-10.00,-45.00,-1035.00
2024-05-19 08:31:01.804817,0,2,0,0,0,0,82,84,78,70,64,132.22,254,0.00,-21.00,-970.00
2024-05-19 08:31:01.856414,0,2,0,0,0,0,82,84,78,70,64,132.20,254,-12.00,-29.00,-950.00
2024-05-19 08:31:02.009641,0,1,0,0,0,0,82,84,77,70,64,132.22,254,0.00,-23.00,-1000.00
2024-05-19 08:31:02.060300,0,1,0,0,0,0,82,84,76,70,64,132.16,254,-1.00,-24.00,-977.00
2024-05-19 08:31:02.214386,0,1,1,0,0,0,82,84,76,70,64,132.11,254,-26.00,-32.00,-1001.00
2024-05-19 08:31:02.264427,0,1,1,0,0,0,82,84,75,70,64,132.07,254,-15.00,-32.00,-1022.00
2024-05-19 08:31:02.419146,0,0,1,0,0,0,82,84,75,70,64,132.13,254,3.00,-22.00,-1031.00
2024-05-19 08:31:02.468297,0,0,1,0,0,0,82,84,76,70,64,132.11,254,-3.00,-34.00,-1021.00
2024-05-19 08:31:02.623927,0,0,1,0,0,0,82,84,76,70,64,132.14,254,-5.00,-33.00,-1034.00
2024-05-19 08:31:02.672378,0,0,1,0,0,0,82,84,76,70,64,132.23,255,-12.00,-32.00,-1004.00
2024-05-19 08:31:02.828758,0,1,1,0,0,0,82,84,77,70,64,132.21,255,-10.00,-27.00,-1024.00
2024-05-19 08:31:02.876892,0,1,1,0,0,0,82,85,78,70,64,132.23,255,-17.00,-17.00,-949.00
2024-05-19 08:31:03.033658,0,1,0,0,0,0,82,85,79,70,64,132.17,255,-35.00,-50.00,-1039.00
2024-05-19 08:31:03.080213,0,1,0,0,0,0,82,85,80,70,64,132.21,255,4.00,-15.00,-968.00
2024-05-19 08:31:03.239429,-1,1,0,0,0,0,82,85,81,70,64,132.19,255,-9.00,-13.00,-965.00
2024-05-19 08:31:03.284183,-1,1,0,0,0,0,82,85,81,70,64,132.20,255,-1.00,-22.00,-997.00
2024-05-19 08:31:03.444667,0,1,0,0,0,0,82,85,82,70,64,132.17,255,9.00,-6.00,-1050.00
2024-05-19 08:31:03.488490,0,1,0,0,0,0,82,85,82,70,64,132.25,255,-26.00,-15.00,-946.00
2024-05-19 08:31:03.603407,0,1,0,0,0,0,82,85,82,70,64,132.18,255,-13.00,-34.00,-1035.00
2024-05-19 08:31:03.692666,-1,1,0,0,0,0,82,85,83,70,64,132.25,256,-28.00,-38.00,-935.00
2024-05-19 08:31:03.852667,-1,1,0,0,0,0,82,85,83,70,64,132.25,256,0.00,-37.00,-1091.00
2024-05-19 08:31:03.896123,-1,1,0,0,0,0,82,84,84,70,64,132.28,256,-12.00,-31.00,-1109.00
2024-05-19 08:31:04.057440,-1,1,0,0,0,-1,82,84,86,70,64,132.22,256,7.00,-28.00,-1071.00
2024-05-19 08:31:04.101190,-1,1,0,0,0,-2,82,84,89,80,64,132.35,256,-43.00,-51.00,-1068.00
2024-05-19 08:31:04.262300,0,1,0,0,0,-3,82,84,93,80,64,132.34,256,20.00,-38.00,-1049.00
2024-05-19 08:31:04.305208,0,1,0,0,0,-4,82,84,97,80,64,132.40,256,-19.00,-20.00,-1028.00
2024-05-19 08:31:04.430176,0,1,0,0,0,-4,82,84,103,90,64,132.45,256,-34.00,-19.00,-1027.00
2024-05-19 08:31:04.509168,0,1,0,0,0,-5,82,84,108,90,64,132.49,256,3.00,-31.00,-1075.00
2024-05-19 08:31:04.671811,0,1,0,0,0,-5,82,84,113,100,64,132.49,256,-2.00,-13.00,-1023.00
2024-05-19 08:31:04.713112,0,1,0,0,0,-5,82,84,120,110,64,132.57,257,-5.00,-23.00,-1006.00
2024-05-19 08:31:04.878550,0,1,0,0,0,-5,82,84,125,110,64,132.61,257,-16.00,-45.00,-948.00
2024-05-19 08:31:04.917641,0,1,0,0,0,-5,81,84,130,120,64,132.76,257,-1.00,-49.00,-988.00
2024-05-19 08:31:05.081450,0,2,0,0,0,-5,81,84,136,120,64,132.75,257,-17.00,-54.00,-1010.00
2024-05-19 08:31:05.121152,0,2,0,0,0,-5,81,84,141,130,64,132.81,257,-14.00,-29.00,-930.00
2024-05-19 08:31:05.172089,0,2,0,0,0,-4,81,84,146,130,64,132.85,257,-8.00,-18.00,-977.00
2024-05-19 08:31:05.286290,0,1,0,0,0,-4,81,84,150,140,64,132.86,257,-4.00,-36.00,-934.00
2024-05-19 08:31:05.376146,0,1,0,0,0,-3,81,84,154,140,64,132.95,257,-19.00,-16.00,-926.00
2024-05-19 08:31:05.493929,0,1,0,0,0,-3,81,84,159,150,64,132.91,257,-28.00,-31.00,-959.00
2024-05-19 08:31:05.580137,-1,1,0,0,0,-3,81,84,162,150,64,132.99,257,-21.00,8.00,-896.00
2024-05-19 08:31:05.682190,-1,1,0,0,0,-2,81,84,165,150,64,133.04,258,-23.00,-18.00,-936.00
2024-05-19 08:31:05.798509,-1,1,1,0,0,-2,81,84,168,150,64,133.07,258,-8.00,-19.00,-935.00
2024-05-19 08:31:05.886085,-1,1,0,0,0,-2,82,84,171,160,64,133.08,258,-23.00,-34.00,-962.00
2024-05-19 08:31:06.003508,-1,1,0,0,0,-2,82,84,173,160,64,133.13,258,-34.00,-43.00,-1046.00
2024-05-19 08:31:06.090253,-1,1,0,0,0,-2,82,84,176,160,64,133.17,258,-13.00,-20.00,-1019.00
2024-05-19 08:31:06.207855,-1,1,0,0,0,-1,82,84,178,170,64,133.12,258,-12.00,-17.00,-1013.00
2024-05-19 08:31:06.294113,-1,1,0,0,0,-1,82,84,180,170,64,133.17,258,2.00,-23.00,-1040.00
2024-05-19 08:31:06.412729,-1,1,0,0,0,-1,82,84,182,170,64,133.12,258,-6.00,-13.00,-980.00
2024-05-19 08:31:06.498613,-1,0,0,0,0,0,82,84,182,170,64,133.21,258,-42.00,-19.00,-933.00
2024-05-19 08:31:06.617649,-1,0,0,0,0,0,82,84,182,170,64,133.18,258,-7.00,-5.00,-981.00
2024-05-19 08:31:06.702147,-1,0,0,0,0,0,82,84,183,170,64,133.14,259,-24.00,-6.00,-986.00
2024-05-19 08:31:06.822548,-1,0,0,0,0,0,82,84,182,170,64,133.12,259,-34.00,-21.00,-948.00
2024-05-19 08:31:06.906216,-1,0,0,0,0,0,82,84,182,170,64,133.09,259,-19.00,-4.00,-920.00
2024-05-19 08:31:07.027138,-1,0,0,0,0,0,82,84,182,170,64,133.14,259,-28.00,-15.00,-951.00
2024-05-19 08:31:07.110279,-1,0,0,0,0,0,82,84,182,170,64,133.19,259,-40.00,-17.00,-945.00
2024-05-19 08:31:07.231987,-1,0,0,0,0,0,82,84,183,170,64,133.18,259,-25.00,-30.00,-1017.00
2024-05-19 08:31:07.314179,-1,0,0,0,0,0,82,84,182,170,64,133.22,259,-9.00,-7.00,-1030.00
2024-05-19 08:31:07.439048,-1,0,0,0,0,0,82,84,182,170,64,133.14,259,-30.00,-32.00,-976.00
2024-05-19 08:31:07.518173,-1,0,0,0,0,0,82,84,183,170,64,133.22,259,-23.00,-7.00,-908.00
2024-05-19 08:31:07.641819,-1,0,0,0,0,0,82,84,184,170,64,133.18,259,-17.00,-20.00,-1031.00
2024-05-19 08:31:07.722084,-1,0,0,0,0,0,82,84,184,170,64,133.18,260,-50.00,-17.00,-1016.00
2024-05-19 08:31:07.846447,-1,0,0,0,0,0,82,84,183,170,64,133.20,260,-13.00,-3.00,-980.00
2024-05-19 08:31:07.926079,-1,0,0,0,0,0,82,84,184,170,64,133.16,260,-15.00,-5.00,-967.00
2024-05-19 08:31:08.028041,-1,0,0,0,0,0,82,84,185,170,64,133.16,260,8.00,0.00,-1013.00
2024-05-19 08:31:08.130278,-1,0,0,0,0,0,82,84,184,170,64,133.16,260,0.00,-12.00,-1063.00
2024-05-19 08:31:08.245611,-1,0,0,0,0,0,82,84,185,170,64,133.08,260,-22.00,-19.00,-1016.00
2024-05-19 08:31:08.333978,0,0,0,0,0,0,82,84,185,170,64,133.15,260,-33.00,-11.00,-964.00
2024-05-19 08:31:08.460650,0,0,0,0,0,0,82,84,185,170,64,133.19,260,-4.00,-18.00,-1005.00
2024-05-19 08:31:08.537944,0,0,0,0,0,0,82,84,185,170,64,133.16,260,-15.00,-18.00,-1001.00
2024-05-19 08:31:08.666059,0,0,0,0,0,0,82,84,185,170,64,133.12,260,-16.00,-28.00,-923.00
2024-05-19 08:31:08.691211,0,0,0,0,0,1,82,84,184,170,64,133.16,261,-17.00,-15.00,-963.00
2024-05-19 08:31:08.836384,0,0,0,0,0,1,82,84,182,170,64,133.15,261,-13.00,-14.00,-1004.00
2024-05-19 08:31:08.972699,0,0,0,0,0,2,81,84,179,170,64,133.15,261,-11.00,-20.00,-920.00
2024-05-19 08:31:08.997018,0,1,0,0,0,2,81,84,177,170,64,133.07,261,-26.00,-30.00,-971.00
2024-05-19 08:31:09.177462,-1,1,0,0,0,2,81,84,175,160,64,133.09,261,-3.00,-15.00,-1043.00
2024-05-19 08:31:09.200905,-1,1,0,0,0,2,81,84,172,160,64,133.04,261,3.00,-5.00,-967.00
2024-05-19 08:31:09.382264,-1,1,0,0,0,2,81,84,169,160,64,133.02,261,-35.00,3.00,-965.00
2024-05-19 08:31:09.405264,-1,1,0,0,0,2,81,84,166,160,64,133.02,261,-23.00,-24.00,-1012.00
2024-05-19 08:31:09.587195,0,1,0,0,0,2,81,84,164,150,64,132.96,261,-20.00,-17.00,-976.00
2024-05-19 08:31:09.608894,0,0,0,0,0,2,81,84,162,150,64,132.96,261,-10.00,-24.00,-996.00
2024-05-19 08:31:09.710957,0,0,0,0,0,2,81,84,160,150,64,132.88,262,-32.00,-36.00,-973.00
2024-05-19 08:31:09.894256,0,0,0,0,0,2,81,84,158,150,64,132.86,262,-3.00,-19.00,-1024.00
2024-05-19 08:31:09.914962,0,0,0,0,0,2,81,84,155,140,64,132.86,262,-28.00,-28.00,-970.00
2024-05-19 08:31:10.016915,0,0,0,0,0,2,81,84,154,140,64,132.81,262,-4.00,-5.00,-941.00
2024-05-19 08:31:10.202076,0,0,0,0,0,1,81,84,152,140,64,132.81,262,3.00,-9.00,-1094.00
2024-05-19 08:31:10.221140,-1,0,0,0,0,1,81,84,151,140,64,132.76,262,-26.00,-27.00,-1000.00
2024-05-19 08:31:10.406284,0,0,0,0,0,1,81,84,149,140,64,132.85,262,9.00,-6.00,-999.00
2024-05-19 08:31:10.424813,0,0,0,0,0,1,81,84,147,140,64,132.83,262,-2.00,-14.00,-1059.00
2024-05-19 08:31:10.611129,0,1,0,0,0,1,81,84,146,140,64,132.78,262,-20.00,-27.00,-1025.00
2024-05-19 08:31:10.628848,0,1,0,0,0,1,81,84,145,130,64,132.80,262,-20.00,-29.00,-961.00
2024-05-19 08:31:10.815907,0,1,0,0,0,1,81,84,144,130,64,132.75,263,-23.00,-25.00,-998.00
2024-05-19 08:31:10.832774,0,1,0,0,0,1,81,84,142,130,64,132.79,263,-27.00,-14.00,-926.00
2024-05-19 08:31:11.021075,0,1,0,0,0,1,82,84,141,130,64,132.78,263,3.00,-27.00,-1025.00
2024-05-19 08:31:11.036802,0,0,0,0,0,1,82,84,139,130,64,132.72,263,0.00,-4.00,-1019.00
2024-05-19 08:31:11.225889,0,1,0,0,0,1,82,84,138,130,64,132.79,263,-11.00,-21.00,-958.00
2024-05-19 08:31:11.240830,0,1,0,0,0,1,82,84,137,130,64,132.76,263,3.00,-45.00,-1069.00
2024-05-19 08:31:11.430347,0,1,0,0,0,0,82,84,137,130,64,132.71,263,-13.00,-30.00,-993.00
2024-05-19 08:31:11.444794,0,1,0,0,0,0,82,84,136,130,64,132.74,263,10.00,-11.00,-1039.00
2024-05-19 08:31:11.635409,0,1,0,0,0,0,82,84,137,120,64,132.78,263,1.00,-30.00,-1030.00
2024-05-19 08:31:11.649153,0,1,0,0,0,0,82,84,137,120,64,132.75,263,16.00,2.00,-945.00
2024-05-19 08:31:11.839845,0,1,0,0,0,0,82,84,138,120,64,132.75,264,2.00,-53.00,-998.00
2024-05-19 08:31:11.853772,0,1,0,0,0,0,82,84,138,130,64,132.71,264,3.00,-20.00,-961.00
2024-05-19 08:31:12.044836,0,0,0,0,0,0,81,84,139,130,64,132.75,264,5.00,-23.00,-1015.00
2024-05-19 08:31:12.057792,0,0,0,0,0,0,81,84,139,130,64,132.77,264,6.00,-16.00,-998.00
2024-05-19 08:31:12.249638,0,0,0,0,0,0,81,84,139,130,64,132.72,264,-17.00,-26.00,-992.00
2024-05-19 08:31:12.261846,0,1,0,0,0,0,81,84,138,130,64,132.77,264,-1.00,-44.00,-1012.00
2024-05-19 08:31:12.454634,0,0,0,0,0,0,81,84,138,130,64,132.66,264,0.00,-14.00,-987.00
2024-05-19 08:31:12.465850,0,0,0,0,0,0,81,84,137,130,64,132.77,264,17.00,3.00,-976.00
2024-05-19 08:31:12.659521,0,0,0,0,0,0,81,84,136,130,64,132.73,264,-3.00,-16.00,-972.00
2024-05-19 08:31:12.670161,0,0,0,0,0,0,81,84,134,130,64,132.69,265,-11.00,-51.00,-994.00
2024-05-19 08:31:12.863904,0,0,0,0,0,1,81,84,132,120,64,132.72,265,0.00,-41.00,-1018.00
2024-05-19 08:31:12.873755,0,0,0,0,0,0,81,84,131,120,64,132.69,265,9.00,-20.00,-1030.00
2024-05-19 08:31:13.072297,0,0,0,0,0,0,81,83,130,120,64,132.60,265,0.00,-25.00,-985.00
2024-05-19 08:31:13.077768,0,0,0,0,0,0,81,83,129,120,64,132.64,265,10.00,-50.00,-1008.00
2024-05-19 08:31:13.128722,0,0,0,0,0,0,81,83,128,120,64,132.56,265,9.00,-39.00,-1018.00
2024-05-19 08:31:13.230720,0,1,0,0,0,0,81,83,128,120,64,132.60,265,19.00,-26.00,-1046.00
2024-05-19 08:31:13.376147,0,1,0,0,0,0,81,83,128,120,64,132.63,265,5.00,-37.00,-982.00
2024-05-19 08:31:13.434662,-6,1,0,0,0,0,81,83,129,120,64,132.63,265,32.00,-28.00,-1018.00
2024-05-19 08:31:13.580677,-8,1,0,2,0,0,81,83,130,120,64,132.60,265,3.00,-44.00,-1055.00
2024-05-19 08:31:13.638986,-8,1,0,3,0,0,81,83,132,120,64,132.58,266,-2.00,-40.00,-1039.00
2024-05-19 08:31:13.785445,-7,1,1,4,0,0,81,83,132,120,64,132.63,266,-9.00,-38.00,-965.00
2024-05-19 08:31:13.842676,-7,1,1,5,0,0,81,83,132,120,64,132.56,266,-14.00,-11.00,-997.00
2024-05-19 08:31:13.990275,-6,1,1,6,0,0,81,84,132,120,64,132.66,266,-17.00,-18.00,-998.00
2024-05-19 08:31:14.046644,-5,0,1,7,0,0,81,84,132,120,64,132.61,266,-44.00,-1.00,-988.00
2024-05-19 08:31:14.195036,-4,0,1,7,0,0,81,84,132,120,64,132.66,266,-52.00,-10.00,-1012.00
2024-05-19 08:31:14.250689,-2,0,1,8,0,0,81,84,132,120,64,132.69,266,-51.00,-21.00,-999.00
2024-05-19 08:31:14.399754,0,0,1,7,0,0,81,84,133,120,64,132.62,266,-9.00,0.00,-1039.00
2024-05-19 08:31:14.454628,3,1,1,7,0,0,81,84,133,120,64,132.71,266,-31.00,-6.00,-1014.00
2024-05-19 08:31:14.604950,4,1,1,6,0,0,81,84,133,120,64,132.64,266,-44.00,-12.00,-1013.00
2024-05-19 08:31:14.659118,4,1,1,5,0,0,81,84,133,120,64,132.72,267,-30.00,-21.00,-977.00
2024-05-19 08:31:14.809415,2,1,0,4,0,0,81,84,133,120,64,132.73,267,-30.00,-31.00,-1066.00
2024-05-19 08:31:14.862925,1,0,0,3,0,0,81,84,133,120,64,132.65,267,-25.00,-22.00,-995.00
2024-05-19 08:31:15.014251,0,1,0,3,0,0,80,84,132,120,64,132.73,267,-33.00,-1.00,-974.00
2024-05-19 08:31:15.066631,0,0,0,3,0,0,80,84,133,120,64,132.67,267,1.00,3.00,-964.00
2024-05-19 08:31:15.219395,0,0,0,2,0,0,80,84,132,120,64,132.71,267,0.00,-3.00,-1019.00
2024-05-19 08:31:15.270654,0,0,0,2,0,0,80,84,132,120,64,132.69,267,-14.00,0.00,-1088.00
2024-05-19 08:31:15.426989,1,0,0,2,0,0,80,84,133,120,64,132.71,267,-11.00,8.00,-893.00
2024-05-19 08:31:15.474622,5,0,0,1,0,0,80,84,133,120,64,132.76,267,-45.00,-5.00,-985.00
2024-05-19 08:31:15.628659,2,0,0,0,0,0,80,84,134,120,64,132.67,267,10.00,-12.00,-1063.00
2024-05-19 08:31:15.678825,1,0,0,0,0,0,80,84,134,120,64,132.70,268,8.00,-4.00,-995.00
2024-05-19 08:31:15.834539,0,0,0,0,0,0,80,84,133,120,64,132.74,268,9.00,-10.00,-1017.00
2024-05-19 08:31:15.882758,0,0,0,0,0,0,80,84,134,120,64,132.74,268,10.00,-11.00,-1032.00
2024-05-19 08:31:16.038380,0,0,0,0,0,0,81,84,134,120,64,132.67,268,29.00,5.00,-994.00
2024-05-19 08:31:16.086952,0,0,0,0,0,0,81,84,134,120,64,132.73,268,22.00,-10.00,-1052.00
2024-05-19 08:31:16.243405,0,0,0,0,0,0,81,84,135,120,64,132.72,268,3.00,-5.00,-1016.00
2024-05-19 08:31:16.290617,0,0,0,0,0,0,81,84,135,120,64,132.70,268,-8.00,-11.00,-984.00
2024-05-19 08:31:16.447962,0,0,0,0,0,0,81,84,136,130,64,132.70,268,16.00,-24.00,-1070.00
2024-05-19 08:31:16.494608,0,1,1,0,0,0,81,84,136,130,64,132.71,268,28.00,-6.00,-951.00
2024-05-19 08:31:16.653045,0,1,1,0,0,0,81,84,137,130,64,132.68,268,30.00,-29.00,-1082.00
2024-05-19 08:31:16.653503,0,1,0,0,0,0,81,84,137,130,64,132.75,269,-15.00,-21.00,-953.00
2024-05-19 08:31:16.750704,0,1,0,0,0,0,81,84,137,130,64,132.74,269,17.00,-10.00,-1021.00
2024-05-19 08:31:16.857543,0,1,0,0,0,0,81,84,137,130,64,132.68,269,-21.00,-13.00,-956.00
2024-05-19 08:31:16.954951,0,1,0,0,0,0,81,83,137,130,64,132.71,269,4.00,-44.00,-1018.00
2024-05-19 08:31:17.062576,0,1,0,0,0,0,81,83,138,130,64,132.71,269,15.00,-30.00,-1013.00
2024-05-19 08:31:17.158576,0,1,0,0,0,0,81,83,138,130,64,132.72,269,18.00,-25.00,-1063.00
2024-05-19 08:31:17.267156,0,1,0,0,0,0,81,83,138,130,64,132.72,269,30.00,-26.00,-1107.00
2024-05-19 08:31:17.362605,0,1,0,0,0,0,81,83,138,130,64,132.70,269,20.00,-29.00,-1079.00
2024-05-19 08:31:17.471942,0,1,0,0,0,0,81,83,139,130,64,132.73,269,15.00,-20.00,-994.00
2024-05-19 08:31:17.566875,0,1,1,0,0,0,81,83,139,130,64,132.73,269,22.00,-22.00,-967.00
2024-05-19 08:31:17.669364,0,2,1,0,0,0,81,83,139,130,64,132.77,270,0.00,-35.00,-987.00
2024-05-19 08:31:17.779060,1,2,1,0,0,0,81,83,139,130,64,132.71,270,-1.00,-36.00,-905.00
2024-05-19 08:31:17.872455,6,1,1,0,0,0,81,83,139,130,64,132.76,270,14.00,-43.00,-1010.00
2024-05-19 08:31:17.983814,8,1,1,-1,0,0,81,83,140,130,64,132.69,270,28.00,-29.00,-1064.00
2024-05-19 08:31:18.076458,8,1,1,-2,0,0,81,83,141,130,64,132.73,270,39.00,-28.00,-1009.00
2024-05-19 08:31:18.188634,8,2,1,-3,0,0,81,83,140,130,64,132.72,270,48.00,-40.00,-1050.00
2024-05-19 08:31:18.280386,8,2,0,-4,0,0,81,83,140,130,64,132.69,270,53.00,-28.00,-1022.00
2024-05-19 08:31:18.393438,8,3,0,-5,0,0,81,83,141,130,64,132.65,270,33.00,-33.00,-1029.00
2024-05-19 08:31:18.484401,7,2,0,-6,0,0,81,83,139,130,64,132.64,270,33.00,-46.00,-961.00
2024-05-19 08:31:18.598214,6,2,0,-7,0,0,81,83,139,130,64,132.73,270,52.00,-49.00,-1029.00
2024-05-19 08:31:18.688679,4,2,1,-8,0,0,81,83,139,130,63,132.73,271,60.00,-20.00,-1025.00
2024-05-19 08:31:18.802999,1,2,0,-8,0,0,81,83,139,130,63,132.65,271,43.00,-67.00,-976.00
2024-05-19 08:31:18.892446,-1,2,0,-7,0,0,81,83,140,130,63,132.61,271,61.00,-50.00,-978.00
2024-05-19 08:31:19.008134,-3,4,0,-6,0,0,81,84,141,130,63,132.69,271,55.00,-49.00,-1007.00
2024-05-19 08:31:19.096363,-4,4,0,-5,0,0,81,84,141,130,63,132.74,271,45.00,-25.00,-970.00
2024-05-19 08:31:19.212643,-4,4,0,-4,0,0,81,84,141,130,63,132.70,271,34.00,-30.00,-990.00
2024-05-19 08:31:19.300531,-2,3,0,-3,0,0,81,84,141,130,63,132.66,271,42.00,-40.00,-1045.00
2024-05-19 08:31:19.417432,0,2,0,-2,0,0,81,84,142,130,63,132.68,271,63.00,-60.00,-1018.00
2024-05-19 08:31:19.504373,1,3,0,-2,0,0,81,84,142,130,63,132.77,271,21.00,-52.00,-1059.00
2024-05-19 08:31:19.622202,1,3,1,-2,0,0,81,84,143,130,63,132.82,271,13.00,-62.00,-1003.00
2024-05-19 08:31:19.708422,0,3,1,-2,0,0,81,84,143,130,63,132.74,272,18.00,-79.00,-981.00
2024-05-19 08:31:19.827049,0,4,0,-2,0,0,81,84,144,130,63,132.82,272,6.00,-49.00,-903.00
2024-05-19 08:31:19.912358,0,5,0,-2,0,0,81,84,143,130,63,132.77,272,13.00,-68.00,-920.00
2024-05-19 08:31:20.032251,0,5,0,-1,0,0,80,84,144,130,63,132.80,272,26.00,-45.00,-965.00
2024-05-19 08:31:20.116333,0,5,0,-1,0,0,80,84,144,130,63,132.88,272,23.00,-66.00,-1014.00
2024-05-19 08:31:20.236681,-2,5,0,-1,1,0,80,84,143,130,63,132.83,272,28.00,-85.00,-1032.00
2024-05-19 08:31:20.320346,-1,1,0,0,1,0,80,84,143,130,63,132.84,272,17.00,-60.00,-971.00
2024-05-19 08:31:20.441440,0,0,0,0,0,0,80,84,142,130,63,132.84,272,8.00,-62.00,-979.00
2024-05-19 08:31:20.524396,0,1,0,0,0,0,80,84,141,130,63,132.82,272,25.00,-66.00,-1041.00
2024-05-19 08:31:20.575440,0,2,0,0,0,0,80,84,141,130,63,132.73,272,35.00,-47.00,-1015.00
2024-05-19 08:31:20.749493,0,3,0,0,0,0,80,84,140,130,63,132.72,273,38.00,-51.00,-1012.00
2024-05-19 08:31:20.779357,1,3,0,0,0,0,80,84,140,130,63,132.76,273,41.00,-54.00,-1003.00
2024-05-19 08:31:20.953630,2,3,0,0,0,0,80,84,139,130,63,132.70,273,43.00,-86.00,-1029.00
2024-05-19 08:31:21.034401,2,3,0,0,0,0,80,83,138,130,63,132.72,273,35.00,-40.00,-977.00
2024-05-19 08:31:21.085360,2,3,0,0,0,0,80,83,138,130,63,132.75,273,36.00,-44.00,-959.00
2024-05-19 08:31:21.260724,2,4,0,0,0,0,80,83,138,130,63,132.67,273,38.00,-65.00,-1043.00
2024-05-19 08:31:21.289626,2,4,0,0,0,0,80,83,138,120,63,132.74,273,27.00,-41.00,-1011.00
2024-05-19 08:31:21.465526,2,5,0,0,0,0,80,83,138,120,63,132.74,273,32.00,-72.00,-994.00
2024-05-19 08:31:21.493362,2,5,0,0,0,0,80,83,138,120,63,132.71,273,41.00,-53.00,-1025.00
2024-05-19 08:31:21.670322,2,5,0,0,0,0,80,83,139,120,63,132.72,273,31.00,-61.00,-982.00
2024-05-19 08:31:21.697642,2,4,0,0,0,0,80,83,139,130,63,132.67,274,46.00,-90.00,-1023.00
2024-05-19 08:31:21.875710,2,5,0,0,0,0,80,83,138,130,63,132.74,274,30.00,-71.00,-947.00
2024-05-19 08:31:21.901585,2,4,0,0,0,0,80,83,139,130,63,132.72,274,41.00,-50.00,-1000.00
2024-05-19 08:31:22.080564,2,4,0,0,0,0,81,83,139,130,63,132.69,274,43.00,-74.00,-954.00
2024-05-19 08:31:22.106332,2,5,0,0,0,0,81,83,138,130,63,132.74,274,37.00,-70.00,-965.00
2024-05-19 08:31:22.284709,2,4,0,0,0,0,81,83,139,130,63,132.70,274,31.00,-58.00,-1001.00
2024-05-19 08:31:22.311599,2,4,0,0,0,0,81,83,139,130,63,132.71,274,43.00,-79.00,-1020.00
2024-05-19 08:31:22.444827,2,4,0,0,0,0,81,83,139,130,63,132.69,274,42.00,-67.00,-1013.00
2024-05-19 08:31:22.514318,2,4,0,0,0,0,81,83,139,130,63,132.63,274,38.00,-69.00,-960.00
2024-05-19 08:31:22.694253,2,3,0,0,0,0,81,83,139,130,63,132.75,274,47.00,-41.00,-974.00
2024-05-19 08:31:22.718202,0,-5,0,0,0,0,81,83,138,130,62,132.63,275,44.00,-110.00,-1011.00
2024-05-19 08:31:22.898983,1,-5,0,0,-1,0,81,83,138,130,62,132.66,275,42.00,-29.00,-1054.00
2024-05-19 08:31:22.922185,1,-1,0,0,-3,0,81,83,138,130,62,132.62,275,34.00,-24.00,-943.00
2024-05-19 08:31:23.103805,2,0,0,0,-4,0,81,83,138,130,62,132.48,275,49.00,-43.00,-977.00
2024-05-19 08:31:23.126177,1,3,0,0,-4,0,81,83,138,130,62,132.53,275,50.00,-49.00,-989.00
2024-05-19 08:31:23.308644,2,4,0,0,-4,0,81,83,138,130,62,132.58,275,41.00,-43.00,-1004.00
2024-05-19 08:31:23.330303,2,5,0,0,-3,0,81,83,138,130,62,132.55,275,34.00,-41.00,-981.00
2024-05-19 08:31:23.513438,2,4,1,0,-3,0,81,83,137,130,62,132.63,275,34.00,-73.00,-1037.00
2024-05-19 08:31:23.534281,2,3,1,0,-3,0,81,83,137,130,62,132.66,275,34.00,-43.00,-958.00
2024-05-19 08:31:23.718256,2,3,1,0,-3,0,81,83,138,130,62,132.59,275,39.00,-78.00,-999.00
2024-05-19 08:31:23.738158,2,4,0,0,-3,0,81,83,137,130,62,132.63,276,50.00,-48.00,-1025.00
2024-05-19 08:31:23.923078,2,5,0,0,-3,0,81,83,139,130,62,132.60,276,50.00,-65.00,-1001.00
2024-05-19 08:31:23.942133,2,6,0,0,-2,0,81,83,138,130,62,132.59,276,56.00,-25.00,-933.00
2024-05-19 08:31:24.044183,2,7,0,0,-2,0,80,84,138,130,62,132.55,276,53.00,-58.00,-982.00
2024-05-19 08:31:24.146253,3,7,1,0,-1,0,80,84,139,130,62,132.64,276,34.00,-44.00,-946.00
2024-05-19 08:31:24.197173,6,5,1,0,0,0,80,84,137,130,62,132.65,276,53.00,-46.00,-1043.00
2024-05-19 08:31:24.332622,6,4,1,0,0,0,80,84,137,130,62,132.63,276,46.00,-45.00,-939.00
2024-05-19 08:31:24.401111,5,4,1,-1,0,0,80,84,136,130,62,132.70,276,67.00,-68.00,-1019.00
2024-05-19 08:31:24.537372,2,3,0,-1,0,0,80,84,135,120,62,132.63,276,73.00,-58.00,-1016.00
2024-05-19 08:31:24.605160,-1,4,0,0,0,0,80,84,135,120,62,132.62,276,67.00,-40.00,-996.00
2024-05-19 08:31:24.707911,0,4,0,0,0,0,80,84,135,120,62,132.66,277,56.00,-32.00,-1004.00
2024-05-19 08:31:24.844743,2,3,0,0,0,0,80,84,134,120,62,132.56,277,53.00,-98.00,-1039.00
2024-05-19 08:31:24.912277,2,3,0,0,0,0,80,84,134,120,62,132.62,277,49.00,-70.00,-942.00
2024-05-19 08:31:25.049551,2,3,1,0,0,0,81,83,134,120,62,132.61,277,53.00,-77.00,-1031.00
2024-05-19 08:31:25.116314,2,3,0,0,0,0,81,83,133,120,62,132.54,277,50.00,-74.00,-1038.00
2024-05-19 08:31:25.254245,3,4,0,0,0,0,81,83,133,120,62,132.62,277,36.00,-71.00,-1021.00
2024-05-19 08:31:25.320155,3,4,0,0,0,0,81,83,133,120,62,132.62,277,36.00,-64.00,-1012.00
2024-05-19 08:31:25.459088,3,4,0,0,0,0,81,83,132,120,62,132.64,277,43.00,-58.00,-968.00
2024-05-19 08:31:25.524110,2,4,0,0,0,0,81,83,133,120,62,132.62,277,51.00,-69.00,-1020.00
2024-05-19 08:31:25.663856,2,3,0,0,0,0,81,83,132,120,62,132.57,277,48.00,-46.00,-1002.00
2024-05-19 08:31:25.728106,2,3,0,0,0,0,81,83,132,120,62,132.61,278,46.00,-28.00,-1026.00
2024-05-19 08:31:25.868670,3,3,0,0,0,0,81,83,132,120,62,132.60,278,41.00,-52.00,-996.00
2024-05-19 08:31:25.932236,3,3,0,0,0,0,81,83,131,120,62,132.61,278,48.00,-51.00,-991.00
2024-05-19 08:31:26.034121,3,3,0,0,0,0,81,83,133,120,62,132.65,278,67.00,-88.00,-1004.00
2024-05-19 08:31:26.175917,3,3,0,0,0,0,81,83,132,120,62,132.59,278,58.00,-99.00,-995.00
2024-05-19 08:31:26.238527,3,3,0,0,0,0,81,83,132,120,62,132.56,278,62.00,-70.00,-944.00
2024-05-19 08:31:26.380679,3,3,0,0,0,0,81,83,132,120,62,132.56,278,51.00,-50.00,-1011.00
2024-05-19 08:31:26.442292,2,3,0,0,0,0,81,83,133,120,62,132.65,278,44.00,-94.00,-985.00
2024-05-19 08:31:26.585681,2,3,0,0,0,0,81,83,134,120,62,132.53,278,36.00,-91.00,-1020.00
2024-05-19 08:31:26.646286,2,3,0,0,0,0,81,83,133,120,62,132.59,278,53.00,-49.00,-1056.00
2024-05-19 08:31:26.747857,2,3,0,0,0,0,81,83,134,120,62,132.59,279,52.00,-48.00,-1012.00
2024-05-19 08:31:26.892610,3,3,0,0,0,0,81,83,134,120,62,132.54,279,53.00,-89.00,-962.00
2024-05-19 08:31:26.951963,1,8,0,0,0,0,81,83,135,120,62,132.62,279,66.00,-86.00,-1021.00
2024-05-19 08:31:27.099165,2,8,1,0,1,0,81,84,135,120,62,132.62,279,63.00,-82.00,-1015.00
2024-05-19 08:31:27.155946,3,8,1,0,2,0,81,84,135,120,62,132.67,279,44.00,-74.00,-1011.00
2024-05-19 08:31:27.302279,3,7,1,0,2,0,81,84,135,120,62,132.75,279,42.00,-53.00,-959.00
2024-05-19 08:31:27.359928,3,3,1,0,3,0,81,84,135,120,62,132.56,279,54.00,-116.00,-1037.00
2024-05-19 08:31:27.508491,3,3,0,0,2,0,81,84,134,120,62,132.73,279,46.00,-123.00,-1050.00
2024-05-19 08:31:27.563967,3,4,0,0,2,0,81,84,135,120,62,132.68,279,58.00,-60.00,-1018.00
2024-05-19 08:31:27.713319,3,4,0,0,2,0,81,84,136,120,62,132.68,280,44.00,-94.00,-954.00
2024-05-19 08:31:27.767939,3,5,1,0,2,0,81,84,136,120,61,132.69,280,58.00,-89.00,-979.00
2024-05-19 08:31:27.916973,3,5,1,0,2,0,81,84,136,120,61,132.60,280,20.00,-74.00,-921.00
2024-05-19 08:31:27.971880,3,5,0,0,2,0,81,84,136,120,61,132.71,280,48.00,-120.00,-1012.00
2024-05-19 08:31:28.121369,2,5,0,0,2,0,82,83,137,120,61,132.71,280,49.00,-67.00,-1029.00
2024-05-19 08:31:28.124893,2,4,0,0,2,0,82,83,138,120,61,132.61,280,46.00,-79.00,-1027.00
2024-05-19 08:31:28.226953,1,4,0,0,2,0,82,83,138,130,61,132.64,280,45.00,-88.00,-962.00
2024-05-19 08:31:28.329364,1,4,0,0,2,0,82,83,137,130,61,132.64,280,52.00,-61.00,-994.00
2024-05-19 08:31:28.431065,1,4,0,0,2,0,82,83,139,130,61,132.55,280,43.00,-68.00,-1016.00
2024-05-19 08:31:28.533374,2,3,0,0,2,0,82,83,139,130,61,132.60,280,44.00,-47.00,-981.00
2024-05-19 08:31:28.635216,2,1,0,0,2,0,82,83,139,130,61,132.58,281,26.00,-87.00,-1003.00
2024-05-19 08:31:28.736972,2,0,0,0,2,0,82,83,139,130,61,132.64,281,34.00,-51.00,-988.00
2024-05-19 08:31:28.941008,2,0,0,0,1,0,82,83,141,130,61,132.70,281,38.00,-70.00,-937.00
2024-05-19 08:31:28.941202,2,0,0,0,1,0,82,83,140,130,61,132.54,281,30.00,-52.00,-1028.00
2024-05-19 08:31:29.044236,1,1,0,0,0,0,80,83,140,130,61,132.60,281,41.00,-80.00,-1011.00
2024-05-19 08:31:29.145763,2,2,0,0,0,0,80,83,141,130,61,132.58,281,44.00,-72.00,-973.00
2024-05-19 08:31:29.248057,2,3,0,0,0,0,80,83,141,130,61,132.61,281,46.00,-28.00,-975.00
2024-05-19 08:31:29.350194,1,3,0,0,0,0,80,83,141,130,61,132.65,281,28.00,-54.00,-1049.00
2024-05-19 08:31:29.452749,1,3,0,0,0,0,80,83,141,130,61,132.60,281,38.00,-68.00,-953.00
2024-05-19 08:31:29.553051,2,3,0,0,0,0,80,83,141,130,61,132.57,281,44.00,-44.00,-1060.00
2024-05-19 08:31:29.655040,2,2,0,0,0,0,80,83,142,130,61,132.73,282,43.00,-42.00,-963.00
2024-05-19 08:31:29.757339,2,3,0,0,0,0,80,83,142,130,61,132.62,282,57.00,-63.00,-1030.00
2024-05-19 08:31:29.862274,2,3,0,0,0,0,80,83,142,130,61,132.57,282,43.00,-59.00,-981.00
2024-05-19 08:31:29.960940,2,4,0,0,0,0,80,83,143,130,61,132.52,282,50.00,-54.00,-971.00
2024-05-19 08:31:30.063093,2,3,1,0,0,0,80,83,144,130,61,132.55,282,28.00,-55.00,-994.00
2024-05-19 08:31:30.169511,3,3,1,0,0,0,80,83,145,130,61,132.60,282,57.00,-43.00,-1013.00
2024-05-19 08:31:30.266888,3,3,0,0,0,0,80,83,145,130,61,132.60,282,60.00,-50.00,-1036.00
2024-05-19 08:31:30.374213,3,2,1,0,0,0,80,83,145,130,61,132.60,282,45.00,-50.00,-998.00
2024-05-19 08:31:30.471447,3,1,1,0,0,0,80,83,145,130,61,132.56,282,44.00,-54.00,-994.00
2024-05-19 08:31:30.579093,2,1,0,0,0,0,80,83,144,130,61,132.56,282,35.00,-43.00,-955.00
2024-05-19 08:31:30.675302,2,0,0,0,0,0,80,83,143,130,61,132.61,283,33.00,-32.00,-957.00
2024-05-19 08:31:30.777733,2,1,0,0,0,0,80,83,141,130,61,132.49,283,35.00,-12.00,-947.00
2024-05-19 08:31:30.891782,1,1,0,0,0,1,80,83,139,130,61,132.55,283,27.00,-27.00,-1006.00
2024-05-19 08:31:30.981183,1,1,0,0,0,1,80,83,136,130,61,132.55,283,15.00,-40.00,-976.00
2024-05-19 08:31:31.083755,0,1,0,0,0,1,80,84,134,130,61,132.54,283,26.00,-48.00,-1078.00
2024-05-19 08:31:31.194085,0,1,2,0,0,1,80,84,133,120,61,132.57,283,54.00,-58.00,-977.00
2024-05-19 08:31:31.287899,0,0,8,0,0,1,80,84,131,120,61,132.55,283,34.00,-47.00,-1007.00
2024-05-19 08:31:31.389257,1,1,13,0,0,0,80,84,130,120,61,132.51,283,20.00,-33.00,-1011.00
2024-05-19 08:31:31.491334,0,2,19,0,0,0,80,84,130,120,61,132.55,283,15.00,-42.00,-995.00
2024-05-19 08:31:31.592914,0,2,25,0,0,0,80,84,131,120,61,132.51,283,14.00,-40.00,-1046.00
2024-05-19 08:31:31.694911,0,1,31,0,0,0,80,84,131,120,61,132.54,284,16.00,-38.00,-1034.00
2024-05-19 08:31:31.745784,0,1,37,0,0,0,80,84,131,120,61,132.54,284,5.00,-37.00,-955.00
2024-05-19 08:31:31.910166,0,1,44,0,0,0,80,84,132,120,61,132.61,284,24.00,-32.00,-1050.00
2024-05-19 08:31:31.949779,0,2,51,0,0,0,80,84,133,120,61,132.62,284,9.00,-37.00,-1003.00
2024-05-19 08:31:32.052024,0,2,57,0,0,0,81,84,134,120,61,132.64,284,7.00,-35.00,-972.00
2024-05-19 08:31:32.217351,0,2,64,0,0,0,81,84,134,120,61,132.62,284,-13.00,-65.00,-967.00
2024-05-19 08:31:32.255732,0,2,70,0,0,0,81,84,135,120,61,132.55,284,-20.00,-15.00,-908.00
2024-05-19 08:31:32.422180,0,1,76,0,0,0,81,84,135,120,61,132.66,284,-7.00,-33.00,-1021.00
2024-05-19 08:31:32.460121,0,1,83,0,0,0,81,84,136,120,61,132.64,284,7.00,-18.00,-1004.00
2024-05-19 08:31:32.627028,0,1,89,0,0,0,81,84,135,120,61,132.55,284,-24.00,-33.00,-890.00
2024-05-19 08:31:32.663788,0,1,95,0,0,0,81,84,136,120,61,132.56,285,-30.00,-53.00,-978.00
2024-05-19 08:31:32.765707,-1,1,101,0,0,0,81,84,136,120,61,132.60,285,-42.00,-27.00,-993.00
2024-05-19 08:31:32.867549,-1,2,107,0,0,0,81,84,136,120,61,132.65,285,-42.00,-29.00,-952.00
2024-05-19 08:31:33.036584,-1,2,112,0,0,0,81,84,137,120,61,132.76,285,-58.00,-33.00,-932.00
2024-05-19 08:31:33.071664,-2,2,118,0,0,0,82,83,137,120,61,132.78,285,-60.00,-51.00,-961.00
2024-05-19 08:31:33.242472,-2,2,124,0,0,0,82,83,137,120,61,132.72,285,-42.00,-46.00,-995.00
2024-05-19 08:31:33.275738,-3,2,130,0,0,0,82,83,138,130,61,132.66,285,-33.00,-30.00,-1031.00
2024-05-19 08:31:33.447759,-3,1,136,0,0,0,82,83,138,130,61,132.63,285,-34.00,-20.00,-1030.00
2024-05-19 08:31:33.479666,-3,1,142,0,0,0,82,83,139,130,61,132.59,285,-55.00,-26.00,-1052.00
2024-05-19 08:31:33.636342,-3,2,148,0,0,0,82,83,139,130,61,132.54,285,-51.00,-38.00,-989.00
2024-05-19 08:31:33.683758,-3,1,154,0,0,0,82,83,140,130,61,132.63,286,-35.00,-25.00,-1053.00
2024-05-19 08:31:33.785626,-3,1,160,0,0,0,82,83,141,130,60,132.67,286,-56.00,-3.00,-1018.00
2024-05-19 08:31:33.958207,-3,0,166,0,0,0,82,83,141,130,60,132.69,286,-42.00,-7.00,-1000.00
2024-05-19 08:31:33.989671,-3,0,173,0,0,0,82,83,141,130,60,132.68,286,-42.00,6.00,-1017.00
2024-05-19 08:31:34.162967,-3,0,179,0,0,0,80,83,142,130,60,132.72,286,-69.00,7.00,-1022.00
2024-05-19 08:31:34.193564,-3,0,-174,0,0,0,80,83,141,130,60,132.78,286,-52.00,7.00,-1012.00
2024-05-19 08:31:34.367734,-3,0,-167,0,0,0,80,83,141,130,60,132.66,286,-30.00,13.00,-984.00
2024-05-19 08:31:34.397634,-3,0,-160,0,0,0,80,83,141,130,60,132.70,286,-13.00,30.00,-1045.00
2024-05-19 08:31:34.572559,-2,-1,-154,0,0,0,80,83,140,130,60,132.78,286,-26.00,41.00,-1023.00
2024-05-19 08:31:34.602313,-1,-1,-147,0,0,0,80,83,140,130,60,132.80,286,-11.00,37.00,-971.00
2024-05-19 08:31:34.777408,0,-1,-140,0,0,0,80,83,140,130,60,132.82,287,-17.00,42.00,-953.00
2024-05-19 08:31:34.805521,0,-3,-133,0,-1,0,80,83,139,130,60,132.75,287,-9.00,43.00,-1017.00
2024-05-19 08:31:34.982285,0,-3,-128,0,0,0,80,83,138,130,60,132.70,287,-5.00,42.00,-1085.00
2024-05-19 08:31:35.011042,1,-2,-123,0,0,0,80,83,138,130,60,132.67,287,-19.00,31.00,-1003.00
2024-05-19 08:31:35.187088,1,-2,-117,0,0,0,80,83,138,130,60,132.62,287,-1.00,57.00,-992.00
2024-05-19 08:31:35.213532,1,-1,-112,0,0,0,80,83,138,130,60,132.62,287,10.00,47.00,-1020.00
2024-05-19 08:31:35.391807,1,-1,-106,0,0,0,80,83,138,130,60,132.67,287,4.00,34.00,-996.00
2024-05-19 08:31:35.417799,0,0,-100,0,0,0,80,83,138,130,60,132.68,287,22.00,47.00,-1052.00
2024-05-19 08:31:35.596562,0,0,-94,0,0,0,80,83,138,130,60,132.70,287,21.00,18.00,-1079.00
2024-05-19 08:31:35.621675,0,-1,-87,0,0,0,80,83,138,130,60,132.60,287,15.00,43.00,-923.00
2024-05-19 08:31:35.672614,1,-1,-80,0,0,0,80,83,137,130,60,132.65,288,35.00,31.00,-988.00
2024-05-19 08:31:35.774556,1,0,-74,0,0,0,80,83,137,130,60,132.68,288,17.00,4.00,-1013.00
2024-05-19 08:31:35.903749,1,0,-68,0,0,0,80,83,137,130,60,132.61,288,30.00,29.00,-939.00
2024-05-19 08:31:35.978919,1,0,-63,0,0,0,80,83,136,130,60,132.63,288,44.00,3.00,-1040.00
2024-05-19 08:31:36.131542,2,1,-57,0,0,0,80,83,136,130,60,132.59,288,29.00,43.00,-982.00
2024-05-19 08:31:36.313399,3,1,-53,0,0,0,80,83,136,130,60,132.59,288,17.00,34.00,-1028.00
2024-05-19 08:31:36.313461,3,0,-48,0,0,0,80,83,136,130,60,132.62,288,56.00,16.00,-958.00
2024-05-19 08:31:36.386404,3,0,-42,0,0,0,80,83,135,130,60,132.63,288,54.00,10.00,-999.00
2024-05-19 08:31:36.520690,3,0,-37,0,0,0,80,83,135,120,60,132.61,288,32.00,-31.00,-1041.00
2024-05-19 08:31:36.590583,3,0,-31,0,0,0,80,83,135,120,60,132.60,288,36.00,-10.00,-986.00
2024-05-19 08:31:36.723772,3,1,-25,0,0,0,80,83,134,120,60,132.57,289,30.00,0.00,-1062.00
2024-05-19 08:31:36.794474,2,2,-19,0,0,0,80,83,134,120,60,132.62,289,28.00,-24.00,-1023.00
2024-05-19 08:31:36.928069,1,2,-13,0,0,0,80,83,134,120,60,132.65,289,-14.00,-37.00,-963.00
2024-05-19 08:31:36.998501,1,2,-9,0,0,0,80,83,135,120,60,132.67,289,-26.00,-40.00,-1015.00
2024-05-19 08:31:37.132586,0,2,-6,0,0,0,80,83,135,120,60,132.67,289,-2.00,-23.00,-863.00
2024-05-19 08:31:37.202455,0,2,-4,0,0,0,80,83,134,120,60,132.81,289,2.00,-28.00,-941.00
2024-05-19 08:31:37.337394,0,2,-3,0,0,0,80,83,135,120,60,132.75,289,13.00,-4.00,-979.00
2024-05-19 08:31:37.406470,0,2,-2,0,0,0,80,83,135,120,60,132.63,289,4.00,-38.00,-990.00
2024-05-19 08:31:37.542105,0,2,-1,0,0,0,80,83,136,120,60,132.71,289,-3.00,-29.00,-1020.00
2024-05-19 08:31:37.610577,1,2,0,0,0,0,80,83,136,120,60,132.59,289,0.00,-42.00,-989.00
2024-05-19 08:31:37.747055,1,1,0,0,0,0,80,83,135,120,60,132.65,290,-5.00,-46.00,-999.00
2024-05-19 08:31:37.814511,0,2,1,0,0,0,80,83,136,120,60,132.76,290,7.00,-48.00,-1012.00
2024-05-19 08:31:37.951921,0,3,2,0,0,0,80,83,136,120,60,132.68,290,-22.00,-36.00,-1011.00
2024-05-19 08:31:38.018493,0,3,3,0,0,0,80,83,136,120,60,132.85,290,-10.00,-46.00,-1010.00
2024-05-19 08:31:38.157378,0,3,4,0,0,0,79,82,136,120,60,132.76,290,-9.00,-52.00,-977.00
2024-05-19 08:31:38.222645,0,2,5,0,0,0,79,82,137,120,60,132.76,290,-43.00,-35.00,-998.00
2024-05-19 08:31:38.361602,0,3,5,0,0,0,79,82,138,120,60,132.70,290,-11.00,-52.00,-1047.00
2024-05-19 08:31:38.426553,0,2,5,0,0,0,79,82,138,130,60,132.72,290,-10.00,-27.00,-917.00
2024-05-19 08:31:38.566615,0,2,5,0,0,0,79,82,139,130,60,132.72,290,-19.00,-41.00,-914.00
2024-05-19 08:31:38.630476,0,2,5,0,0,0,79,82,140,130,60,132.67,290,4.00,-40.00,-1031.00
2024-05-19 08:31:38.771430,-1,1,5,0,0,0,79,82,139,130,60,132.72,291,0.00,-45.00,-997.00
2024-05-19 08:31:38.834441,0,1,6,0,0,0,79,82,139,130,60,132.67,291,8.00,-41.00,-1027.00
2024-05-19 08:31:38.975853,0,1,6,0,0,0,79,82,140,130,60,132.72,291,-17.00,-61.00,-953.00
2024-05-19 08:31:39.038500,0,2,6,0,0,0,79,82,139,130,60,132.81,291,-16.00,-35.00,-993.00
2024-05-19 08:31:39.180797,0,2,6,0,0,0,79,82,139,130,60,132.72,291,16.00,-61.00,-1028.00
2024-05-19 08:31:39.242579,0,1,6,0,0,0,79,82,139,130,60,132.75,291,-5.00,-42.00,-998.00
2024-05-19 08:31:39.385434,0,2,6,0,0,0,79,82,138,130,60,132.77,291,-10.00,-55.00,-967.00
2024-05-19 08:31:39.446435,0,2,6,0,0,0,79,82,138,130,60,132.75,291,-7.00,-54.00,-976.00
2024-05-19 08:31:39.560829,0,2,6,0,0,0,79,82,138,130,60,132.72,291,9.00,-53.00,-971.00
2024-05-19 08:31:39.652436,0,3,5,0,0,0,79,82,138,130,60,132.77,291,-13.00,-45.00,-1017.00
2024-05-19 08:31:39.701339,0,3,5,0,0,0,79,82,138,130,60,132.66,292,-2.00,-36.00,-1032.00
2024-05-19 08:31:39.803401,0,3,0,0,0,0,79,82,138,130,60,132.79,292,-20.00,-47.00,-978.00
2024-05-19 08:31:39.999783,1,3,-6,0,0,0,79,82,138,130,60,132.75,292,31.00,-39.00,-1004.00
2024-05-19 08:31:40.008489,1,3,-12,0,0,0,79,82,138,130,60,132.79,292,-13.00,-51.00,-964.00
2024-05-19 08:31:40.204584,1,3,-18,0,0,0,79,83,138,130,60,132.73,292,9.00,-61.00,-1015.00
2024-05-19 08:31:40.211273,2,3,-23,0,0,0,79,83,138,130,60,132.72,292,6.00,-34.00,-994.00
2024-05-19 08:31:40.409384,1,2,-28,0,0,0,79,83,139,130,60,132.77,292,11.00,-43.00,-1028.00
2024-05-19 08:31:40.415355,1,1,-33,0,0,0,79,83,139,130,60,132.76,292,19.00,-46.00,-1002.00
2024-05-19 08:31:40.601194,1,1,-39,0,0,0,79,83,140,130,60,132.73,292,11.00,-50.00,-1046.00
2024-05-19 08:31:40.619187,2,2,-44,0,0,0,79,83,140,130,60,132.61,292,22.00,-59.00,-1054.00
2024-05-19 08:31:40.818945,2,2,-50,0,0,0,79,83,140,130,60,132.66,293,32.00,-52.00,-962.00
2024-05-19 08:31:40.823492,2,2,-56,0,0,0,79,83,141,130,60,132.74,293,26.00,-28.00,-1036.00
2024-05-19 08:31:40.925239,2,2,-63,0,0,0,79,83,141,130,60,132.73,293,54.00,-25.00,-1058.00
2024-05-19 08:31:41.126177,2,1,-69,0,0,0,79,83,141,130,60,132.69,293,56.00,-25.00,-965.00
2024-05-19 08:31:41.129226,1,1,-81,0,0,0,80,83,140,130,60,132.60,293,60.00,-19.00,-981.00
2024-05-19 08:31:41.231295,2,1,-87,0,0,0,80,83,140,130,60,132.70,293,24.00,-16.00,-930.00
2024-05-19 08:31:41.333371,2,0,-94,0,0,0,80,83,140,130,60,132.71,293,51.00,13.00,-1068.00
2024-05-19 08:31:41.435275,2,0,-101,0,0,0,80,83,139,130,60,132.73,293,37.00,-9.00,-1014.00
2024-05-19 08:31:41.638158,2,0,-108,0,0,0,80,83,137,130,60,132.68,293,24.00,7.00,-942.00
2024-05-19 08:31:41.639261,2,0,-115,0,0,0,80,83,137,130,60,132.65,294,17.00,-4.00,-1031.00
2024-05-19 08:31:41.842970,1,0,-122,0,0,0,80,83,135,120,59,132.59,294,43.00,10.00,-1069.00
2024-05-19 08:31:41.843326,1,0,-128,0,0,0,80,83,134,120,59,132.62,294,22.00,10.00,-1052.00
2024-05-19 08:31:41.945630,1,0,-135,0,0,0,80,83,133,120,59,132.59,294,25.00,-3.00,-1051.00
2024-05-19 08:31:42.048177,1,0,-141,0,0,0,80,83,132,120,59,132.66,294,40.00,19.00,-995.00
2024-05-19 08:31:42.149786,1,-1,-147,0,0,0,80,83,132,120,59,132.61,294,22.00,-4.00,-1079.00
2024-05-19 08:31:42.252568,1,0,-153,0,0,0,80,83,132,120,59,132.61,294,29.00,9.00,-1023.00
2024-05-19 08:31:42.354917,1,0,-159,0,0,0,80,83,133,120,59,132.67,294,-3.00,5.00,-993.00
2024-05-19 08:31:42.455410,1,0,-166,0,0,0,80,83,132,120,59,132.68,294,18.00,18.00,-957.00
2024-05-19 08:31:42.557145,1,0,-172,0,0,0,80,83,133,120,59,132.65,294,14.00,25.00,-1037.00
2024-05-19 08:31:42.662169,1,-1,-178,0,0,0,80,83,133,120,59,132.62,295,0.00,22.00,-980.00
2024-05-19 08:31:42.761472,1,-1,175,0,0,0,80,83,134,120,59,132.66,295,-11.00,16.00,-983.00
2024-05-19 08:31:42.866965,0,-1,169,0,0,0,80,83,134,120,59,132.66,295,9.00,18.00,-1000.00
2024-05-19 08:31:42.965785,0,-1,162,0,0,0,80,83,134,120,59,132.73,295,-18.00,25.00,-979.00
2024-05-19 08:31:43.071659,0,-1,155,0,0,0,80,83,135,120,59,132.68,295,1.00,19.00,-1036.00
2024-05-19 08:31:43.169166,0,0,149,0,0,0,79,82,135,120,59,132.75,295,-26.00,13.00,-915.00
2024-05-19 08:31:43.276532,0,0,143,0,0,0,79,82,135,120,59,132.75,295,-14.00,10.00,-1023.00
2024-05-19 08:31:43.373199,0,0,137,0,0,0,79,82,135,120,59,132.81,295,-5.00,29.00,-957.00
2024-05-19 08:31:43.481339,0,0,132,0,0,0,79,82,135,120,59,132.76,295,-30.00,4.00,-981.00
2024-05-19 08:31:43.577597,0,0,127,0,0,0,79,82,135,120,59,132.83,295,4.00,8.00,-1046.00
2024-05-19 08:31:43.679108,0,0,121,0,0,0,79,82,135,120,59,132.75,296,-5.00,8.00,-996.00
2024-05-19 08:31:43.730508,0,0,116,0,0,0,79,82,136,120,59,132.75,296,-45.00,26.00,-981.00
2024-05-19 08:31:43.833670,0,0,111,0,0,0,79,82,135,120,59,132.71,296,-3.00,-9.00,-1037.00
2024-05-19 08:31:43.993379,0,0,105,0,0,0,79,82,135,120,59,132.70,296,-25.00,-17.00,-1035.00
2024-05-19 08:31:44.037384,-1,0,99,0,0,0,79,82,136,120,59,132.60,296,-35.00,-15.00,-942.00
2024-05-19 08:31:44.201085,-1,0,93,0,0,0,79,83,136,120,59,132.70,296,-29.00,-16.00,-1040.00
2024-05-19 08:31:44.292206,-1,0,88,0,0,0,79,83,135,120,59,132.65,296,-23.00,-24.00,-1018.00
2024-05-19 08:31:44.343135,-1,1,82,0,0,0,79,83,135,120,59,132.66,296,-41.00,-40.00,-1012.00
2024-05-19 08:31:44.505416,-1,1,76,0,0,0,79,83,134,120,59,132.64,296,-34.00,-41.00,-1029.00
2024-05-19 08:31:44.547091,-1,2,70,0,0,0,79,83,134,120,59,132.67,296,-30.00,-32.00,-929.00
2024-05-19 08:31:44.710234,-1,2,65,0,0,0,79,83,134,120,59,132.66,297,-54.00,-18.00,-993.00
2024-05-19 08:31:44.751405,0,2,59,0,0,0,79,83,134,120,59,132.63,297,-41.00,-37.00,-1014.00
2024-05-19 08:31:44.914956,0,2,53,0,0,0,79,83,135,120,59,132.70,297,-22.00,-41.00,-973.00
2024-05-19 08:31:44.955052,0,2,48,0,0,0,79,83,134,120,59,132.69,297,-25.00,-34.00,-997.00
2024-05-19 08:31:45.119691,-1,2,42,0,0,0,79,83,134,120,59,132.71,297,-26.00,-39.00,-997.00
2024-05-19 08:31:45.159040,0,2,37,0,0,0,79,82,134,120,59,132.75,297,-25.00,-50.00,-1005.00
2024-05-19 08:31:45.324646,0,2,31,0,0,0,79,82,134,120,59,132.75,297,-22.00,-49.00,-968.00
2024-05-19 08:31:45.363262,0,3,25,0,0,0,79,82,134,120,59,132.73,297,-23.00,-32.00,-985.00
2024-05-19 08:31:45.529276,0,3,21,0,0,0,79,82,135,120,59,132.75,297,-6.00,-40.00,-1020.00
2024-05-19 08:31:45.567011,0,2,17,0,0,0,79,82,134,120,59,132.72,297,12.00,-54.00,-1026.00
2024-05-19 08:31:45.734457,0,2,15,0,0,0,79,82,134,120,59,132.72,298,17.00,-52.00,-967.00
2024-05-19 08:31:45.771230,0,2,13,0,0,0,79,82,135,120,59,132.76,298,2.00,-37.00,-977.00
2024-05-19 08:31:45.938937,0,2,11,0,0,0,79,82,136,120,59,132.73,298,0.00,-51.00,-1030.00
2024-05-19 08:31:45.975024,0,2,10,0,0,0,79,82,135,120,59,132.69,298,25.00,-41.00,-1015.00
2024-05-19 08:31:46.143746,0,2,9,0,0,0,79,82,135,120,59,132.73,298,-7.00,-34.00,-966.00
2024-05-19 08:31:46.179082,0,2,9,0,0,0,80,83,135,130,59,132.77,298,-3.00,-57.00,-957.00
2024-05-19 08:31:46.348563,0,2,8,0,0,0,80,83,135,130,59,132.72,298,-16.00,-35.00,-981.00
2024-05-19 08:31:46.382929,0,2,8,0,0,0,80,83,135,130,59,132.74,298,-20.00,-52.00,-1025.00
2024-05-19 08:31:46.553343,0,2,8,0,0,0,80,83,135,130,59,132.73,298,-7.00,-43.00,-986.00
2024-05-19 08:31:46.586897,0,2,7,0,0,0,80,83,135,130,59,132.74,298,-13.00,-41.00,-985.00
2024-05-19 08:31:46.689069,0,2,7,0,0,0,80,83,135,130,59,132.77,299,5.00,-48.00,-977.00
2024-05-19 08:31:46.791114,0,2,8,0,0,0,80,83,135,120,59,132.74,299,4.00,-30.00,-1008.00
2024-05-19 08:31:46.962985,0,2,7,0,0,0,80,83,133,120,59,132.66,299,-2.00,-51.00,-992.00
2024-05-19 08:31:46.995101,0,2,7,0,0,0,80,83,134,120,59,132.63,299,-11.00,-54.00,-993.00
2024-05-19 08:31:47.168170,0,2,7,0,0,0,80,83,133,120,59,132.66,299,1.00,-41.00,-971.00
2024-05-19 08:31:47.198984,0,2,7,0,0,0,80,82,133,120,59,132.66,299,-5.00,-47.00,-1018.00
2024-05-19 08:31:47.373189,0,2,7,0,0,0,80,82,133,120,59,132.67,299,6.00,-49.00,-1058.00
2024-05-19 08:31:47.402897,0,2,7,0,0,0,80,82,133,120,59,132.71,299,-12.00,-42.00,-988.00
2024-05-19 08:31:47.577470,0,3,7,0,0,0,80,82,134,120,59,132.68,299,-16.00,-59.00,-1055.00
2024-05-19 08:31:47.607386,0,3,7,0,0,0,80,82,135,120,59,132.76,299,-17.00,-42.00,-949.00
2024-05-19 08:31:47.782311,0,3,7,0,0,0,80,82,135,120,58,132.69,300,-17.00,-45.00,-1007.00
2024-05-19 08:31:47.810962,0,2,7,0,0,0,80,82,136,120,58,132.72,300,-21.00,-45.00,-1016.00
2024-05-19 08:31:47.987062,0,2,7,0,0,0,80,82,136,120,58,132.70,300,-46.00,-39.00,-909.00
2024-05-19 08:31:47.987273,0,2,7,0,0,0,80,82,137,130,58,132.77,300,-25.00,-20.00,-963.00
2024-05-19 08:31:48.065899,0,2,7,0,0,0,80,82,136,130,58,132.82,300,-22.00,-40.00,-989.00
2024-05-19 08:31:48.219572,0,1,7,0,0,0,80,82,136,130,58,132.73,300,-28.00,-28.00,-968.00
2024-05-19 08:31:48.270040,-1,1,8,0,0,0,80,82,137,130,58,132.77,300,-1.00,-41.00,-1002.00
2024-05-19 08:31:48.396517,-1,2,7,0,0,0,80,82,137,130,58,132.73,300,-28.00,-42.00,-977.00
2024-05-19 08:31:48.473957,-1,2,7,0,0,0,80,82,137,130,58,132.78,300,-13.00,-36.00,-1032.00
2024-05-19 08:31:48.575837,-1,1,7,0,0,0,80,82,137,130,58,132.73,300,-20.00,-33.00,-1004.00
2024-05-19 08:31:48.703683,0,0,8,0,0,0,80,82,137,130,58,132.77,301,-42.00,-37.00,-1438.00
2024-05-19 08:31:48.780205,0,0,8,0,0,-4,80,82,141,130,58,132.79,301,-25.00,-52.00,-1753.00
2024-05-19 08:31:48.908528,0,-9,7,0,0,-11,80,82,158,140,58,132.82,301,1.00,181.00,-1219.00
2024-05-19 08:31:48.984126,-3,-95,8,0,-5,-12,80,82,6553,150,58,133.20,301,-69.00,544.00,-1134.00
2024-05-19 08:31:49.113328,5,140,12,1,-10,1,80,82,548,150,58,133.17,301,-26.00,390.00,-843.00
2024-05-19 08:31:49.187865,3,27,-1,0,-4,12,80,82,166,150,58,133.40,301,23.00,-53.00,-1516.00
2024-05-19 08:31:49.318274,-2,-5,-4,0,-4,10,80,82,145,140,58,132.88,301,13.00,13.00,-1349.00
2024-05-19 08:31:49.391814,1,4,-6,1,-4,6,80,82,139,130,58,132.70,301,2.00,-23.00,-1371.00
2024-05-19 08:31:49.522951,1,5,-4,1,-3,3,80,82,135,120,58,132.60,301,14.00,-41.00,-1215.00
2024-05-19 08:31:49.595795,1,3,3,0,-2,1,80,82,133,120,58,132.62,301,-20.00,12.00,-1165.00
2024-05-19 08:31:49.697804,0,2,7,0,-1,0,80,82,134,120,58,132.56,302,28.00,-21.00,-1164.00
2024-05-19 08:31:49.799980,0,1,7,0,-1,-1,80,82,135,120,58,132.67,302,17.00,9.00,-1017.00
2024-05-19 08:31:49.932474,0,0,7,0,-1,-1,80,82,137,120,58,132.62,302,24.00,-27.00,-939.00
2024-05-19 08:31:50.004099,0,0,7,0,-1,0,80,82,138,120,58,132.64,302,18.00,-23.00,-974.00
2024-05-19 08:31:50.137319,1,1,7,0,-1,0,80,82,139,120,58,132.62,302,2.00,-14.00,-1037.00
2024-05-19 08:31:50.207945,1,3,7,0,-1,0,80,83,139,120,58,132.68,302,3.00,15.00,-918.00
2024-05-19 08:31:50.342324,1,3,7,0,-1,0,80,83,140,120,58,132.67,302,16.00,26.00,-969.00
2024-05-19 08:31:50.413440,1,3,7,0,0,0,80,83,139,120,58,132.67,302,-1.00,4.00,-1015.00
2024-05-19 08:31:50.513874,1,2,7,0,0,0,80,83,139,120,58,132.69,302,-8.00,-43.00,-1017.00
2024-05-19 08:31:50.649341,1,2,7,0,0,0,80,83,139,120,58,132.70,302,0.00,-35.00,-1026.00
2024-05-19 08:31:50.717700,0,2,7,0,0,0,80,83,138,120,57,132.68,303,13.00,-14.00,-986.00
2024-05-19 08:31:50.819765,0,2,7,0,0,0,80,83,138,120,57,132.68,303,-12.00,-23.00,-1023.00
2024-05-19 08:31:50.956509,0,1,7,0,0,0,80,83,137,120,57,132.69,303,5.00,-16.00,-978.00
2024-05-19 08:31:51.024295,0,1,7,0,0,0,80,83,137,120,57,132.71,303,-2.00,1.00,-995.00
2024-05-19 08:31:51.161294,0,1,7,0,0,0,80,83,137,120,57,132.64,303,-5.00,-45.00,-978.00
2024-05-19 08:31:51.227979,0,1,7,0,0,0,80,82,137,120,57,132.71,303,0.00,-19.00,-1020.00
2024-05-19 08:31:51.366120,0,2,7,0,0,0,80,82,135,120,57,132.71,303,3.00,-43.00,-1025.00
2024-05-19 08:31:51.431736,0,2,7,0,0,0,80,82,135,120,57,132.72,303,-5.00,-26.00,-1036.00
2024-05-19 08:31:51.571025,0,2,7,0,0,0,80,82,134,120,57,132.79,303,0.00,-21.00,-1079.00
2024-05-19 08:31:51.635739,0,2,7,0,0,0,80,82,134,120,57,132.62,303,28.00,-43.00,-965.00
2024-05-19 08:31:51.686661,0,1,7,0,0,0,80,82,134,120,57,132.62,304,10.00,-29.00,-965.00
2024-05-19 08:31:51.878370,0,1,7,0,0,0,80,82,133,120,57,132.62,304,14.00,-19.00,-967.00
2024-05-19 08:31:51.891868,0,1,7,0,0,0,80,82,132,120,57,132.62,304,34.00,-11.00,-991.00
2024-05-19 08:31:52.083284,0,1,7,0,0,0,80,82,132,120,57,132.57,304,6.00,-63.00,-997.00
2024-05-19 08:31:52.094710,0,2,7,0,0,0,80,82,132,120,57,132.65,304,14.00,-40.00,-1012.00
2024-05-19 08:31:52.196996,0,2,7,0,0,0,79,82,132,120,57,132.61,304,12.00,-26.00,-1028.00
2024-05-19 08:31:52.390593,0,2,8,0,0,0,79,82,132,120,57,132.62,304,2.00,0.00,-974.00
2024-05-19 08:31:52.400623,0,2,8,0,0,0,79,82,132,120,57,132.60,304,-3.00,-22.00,-1008.00
2024-05-19 08:31:52.595564,0,1,8,0,0,0,79,82,132,120,57,132.53,304,0.00,-8.00,-1001.00
2024-05-19 08:31:52.604759,0,1,8,0,0,0,79,82,131,120,57,132.65,304,8.00,-10.00,-1018.00
2024-05-19 08:31:52.707281,0,1,7,0,0,0,79,82,131,120,57,132.61,305,-6.00,0.00,-992.00
2024-05-19 08:31:52.808700,0,0,8,0,0,0,79,82,131,120,57,132.64,305,-4.00,-28.00,-994.00
2024-05-19 08:31:53.004693,0,0,8,0,0,0,79,82,131,120,57,132.58,305,-22.00,-32.00,-1089.00
2024-05-19 08:31:53.012740,0,0,8,0,0,0,79,82,131,120,57,132.69,305,-9.00,-10.00,-968.00
2024-05-19 08:31:53.209642,0,0,8,0,0,0,79,82,131,120,57,132.71,305,-25.00,-26.00,-975.00
2024-05-19 08:31:53.216704,-1,0,8,0,0,0,79,82,132,120,57,132.64,305,-14.00,-26.00,-1002.00
2024-05-19 08:31:53.414711,0,0,8,0,0,0,79,82,132,120,57,132.69,305,-22.00,-11.00,-897.00
2024-05-19 08:31:53.420856,-1,1,8,0,0,0,79,82,132,120,57,132.65,305,-26.00,-21.00,-1033.00
2024-05-19 08:31:53.619430,0,0,8,0,0,0,79,82,133,120,57,132.67,305,-13.00,-18.00,-1025.00
2024-05-19 08:31:53.624627,0,1,7,0,0,0,79,82,133,120,57,132.67,305,-19.00,-25.00,-975.00
2024-05-19 08:31:53.823961,0,0,7,0,0,0,79,82,133,120,56,132.61,306,-19.00,0.00,-958.00
2024-05-19 08:31:53.829282,0,0,7,0,0,0,79,82,133,120,56,132.70,306,-19.00,-18.00,-1012.00
2024-05-19 08:31:54.028633,0,0,7,0,0,0,79,82,133,120,56,132.62,306,-37.00,-9.00,-904.00
2024-05-19 08:31:54.033700,0,0,7,0,0,0,79,82,133,120,56,132.62,306,-31.00,-18.00,-1013.00
2024-05-19 08:31:54.233703,0,1,7,0,0,0,79,82,132,120,56,132.60,306,-1.00,-11.00,-1032.00
2024-05-19 08:31:54.239328,0,0,7,0,0,0,79,82,132,120,56,132.67,306,-33.00,-15.00,-948.00
