TS,pitch,roll,yaw,vgx,vgy,vgz,templ,temph,tof,h,bat,baro,time,agx,agy,agz
2024-05-19 08:32:45.842904,0,0,4,0,0,0,82,85,10,0,52,131.23,332,1.00,-4.00,-1002.00
2024-05-19 08:32:45.899981,0,0,4,0,0,0,82,85,10,0,52,131.23,332,1.00,-1.00,-1000.00
2024-05-19 08:32:46.002312,0,0,4,0,0,0,82,85,10,0,52,131.26,332,-1.00,-2.00,-999.00
2024-05-19 08:32:46.104116,0,0,4,0,0,0,82,85,10,0,52,131.23,332,0.00,-2.00,-998.00
2024-05-19 08:32:46.252651,0,0,4,0,0,0,82,85,10,0,52,131.23,332,-1.00,-3.00,-1003.00
2024-05-19 08:32:46.307884,0,0,4,0,0,0,82,85,10,0,52,131.22,332,-1.00,-3.00,-999.00
2024-05-19 08:32:46.457190,0,0,4,0,0,0,82,85,10,0,52,131.23,332,2.00,-2.00,-1000.00
2024-05-19 08:32:46.511973,0,0,4,0,0,0,82,84,10,0,52,131.20,332,-1.00,-1.00,-1000.00
2024-05-19 08:32:46.661936,0,0,4,0,0,0,82,84,10,0,52,131.28,332,-1.00,-2.00,-1000.00
2024-05-19 08:32:46.715824,0,0,4,0,0,0,82,84,10,0,52,131.23,332,0.00,-2.00,-998.00
2024-05-19 08:32:46.866740,0,0,4,0,0,0,82,84,10,0,52,131.24,332,0.00,-3.00,-1000.00
2024-05-19 08:32:46.919855,0,0,4,0,0,0,82,84,10,0,52,131.24,332,1.00,-2.00,-1001.00
2024-05-19 08:32:47.021981,0,0,4,0,0,0,82,84,10,0,52,131.25,332,-2.00,-2.00,-1000.00
2024-05-19 08:32:47.174215,0,0,4,0,0,0,82,84,10,0,52,131.28,332,0.00,-2.00,-996.00
2024-05-19 08:32:47.225934,0,0,4,0,0,0,82,84,10,0,52,131.25,332,0.00,-3.00,-999.00
2024-05-19 08:32:47.378800,0,0,4,0,0,0,82,84,10,0,52,131.26,332,0.00,-3.00,-999.00
2024-05-19 08:32:47.430143,0,0,4,0,0,0,82,84,10,0,52,131.27,332,0.00,-3.00,-998.00
2024-05-19 08:32:47.583607,0,0,4,0,0,0,83,85,10,0,52,131.25,332,-1.00,-4.00,-1001.00
2024-05-19 08:32:47.634028,0,0,4,0,0,0,83,85,10,0,52,131.27,332,0.00,-3.00,-1000.00
2024-05-19 08:32:47.788570,0,0,4,0,0,0,83,85,10,0,52,131.24,332,0.00,-5.00,-998.00
2024-05-19 08:32:47.837964,0,0,4,0,0,0,83,85,10,0,52,131.30,332,-1.00,-1.00,-1000.00
2024-05-19 08:32:47.993207,0,0,4,0,0,0,83,85,10,0,52,131.25,332,0.00,-3.00,-1000.00
2024-05-19 08:32:47.993735,0,0,4,0,0,0,83,85,10,0,52,131.24,332,0.00,-4.00,-999.00
2024-05-19 08:32:48.092809,0,0,4,0,0,0,83,85,10,0,52,131.30,332,0.00,-3.00,-998.00
2024-05-19 08:32:48.198045,0,0,4,0,0,0,83,85,10,0,52,131.25,332,0.00,-3.00,-1000.00
2024-05-19 08:32:48.296864,0,0,4,0,0,0,83,85,10,0,52,131.26,332,-1.00,-3.00,-999.00
2024-05-19 08:32:48.402953,0,0,4,0,0,0,83,85,10,0,52,131.26,332,0.00,-4.00,-1000.00
2024-05-19 08:32:48.501068,0,0,4,0,0,0,82,84,10,0,52,131.24,332,0.00,-3.00,-1000.00
2024-05-19 08:32:48.607753,0,0,4,0,0,0,82,84,10,0,52,131.28,332,-2.00,-1.00,-1000.00
2024-05-19 08:32:48.704921,0,0,4,0,0,0,82,84,10,0,52,131.30,332,0.00,-4.00,-1001.00
2024-05-19 08:32:48.812978,0,0,4,0,0,0,82,84,10,0,52,131.29,332,0.00,-4.00,-1000.00
2024-05-19 08:32:48.908756,0,0,4,0,0,0,82,84,10,0,52,131.33,332,0.00,-3.00,-997.00
2024-05-19 08:32:49.010683,0,0,4,0,0,0,82,84,10,0,52,131.31,332,0.00,-2.00,-1000.00
2024-05-19 08:32:49.113010,0,0,4,0,0,0,82,84,10,0,52,131.31,332,0.00,0.00,-995.00
2024-05-19 08:32:49.221898,0,0,4,0,0,0,82,84,10,0,52,131.31,332,-15.00,-22.00,-1000.00
2024-05-19 08:32:49.316670,0,0,4,0,0,0,82,84,10,0,52,131.31,332,10.00,-20.00,-1016.00
2024-05-19 08:32:49.426690,0,0,5,0,0,0,82,84,10,0,52,131.31,332,4.00,-22.00,-989.00
2024-05-19 08:32:49.521027,0,0,5,0,0,0,82,85,10,0,52,131.31,332,-5.00,-5.00,-1007.00
2024-05-19 08:32:49.631739,0,0,4,0,0,0,82,85,10,0,52,131.31,332,-8.00,-22.00,-1219.00
2024-05-19 08:32:49.724871,0,0,4,0,0,-1,82,85,10,0,52,131.31,332,-11.00,-20.00,-1388.00
2024-05-19 08:32:49.836290,0,1,4,0,0,-4,82,85,14,0,52,131.31,332,-35.00,19.00,-1197.00
2024-05-19 08:32:49.928615,-1,0,4,0,0,-6,82,85,22,0,52,131.57,332,20.00,21.00,-1070.00
2024-05-19 08:32:50.030857,-1,-1,4,0,0,-6,82,85,30,0,52,131.64,333,-25.00,3.00,-1040.00
2024-05-19 08:32:50.145146,-1,-1,4,0,0,-6,82,85,39,10,52,131.75,333,2.00,1.00,-1080.00
2024-05-19 08:32:50.234979,0,0,4,0,0,-6,82,85,44,10,52,131.91,333,-36.00,11.00,-954.00
2024-05-19 08:32:50.348318,-1,0,4,0,0,-6,82,85,52,20,52,131.96,333,-9.00,6.00,-947.00
2024-05-19 08:32:50.438648,-1,0,4,0,0,-5,82,85,60,20,52,132.00,333,0.00,0.00,-914.00
2024-05-19 08:32:50.553647,-1,0,4,0,0,-4,83,86,66,30,52,132.08,333,-27.00,36.00,-830.00
2024-05-19 08:32:50.642616,0,-1,4,0,0,-3,83,86,71,30,52,132.10,333,-13.00,15.00,-890.00
2024-05-19 08:32:50.757823,0,0,4,0,0,-2,83,86,75,30,52,132.23,333,-23.00,-5.00,-962.00
2024-05-19 08:32:50.846706,0,0,4,0,0,-1,83,86,79,40,52,132.19,333,-4.00,18.00,-925.00
2024-05-19 08:32:50.963315,-1,0,4,0,0,-1,83,86,83,40,52,132.20,333,-30.00,-2.00,-1011.00
2024-05-19 08:32:51.050597,0,0,4,0,0,0,83,86,85,40,52,132.29,334,-22.00,22.00,-847.00
2024-05-19 08:32:51.168047,-1,0,4,0,0,0,83,86,87,40,52,132.26,334,-26.00,18.00,-898.00
2024-05-19 08:32:51.255260,-1,0,4,0,0,0,83,86,89,50,52,132.30,334,-17.00,5.00,-990.00
2024-05-19 08:32:51.372504,-1,0,4,0,0,0,83,86,91,50,52,132.32,334,1.00,15.00,-967.00
2024-05-19 08:32:51.458890,-1,-1,4,0,0,0,83,86,92,50,52,132.28,334,6.00,5.00,-1077.00
2024-05-19 08:32:51.578746,-1,-1,4,0,0,0,83,86,93,50,52,132.34,334,-18.00,24.00,-895.00
2024-05-19 08:32:51.662637,-1,-1,4,0,0,0,83,86,94,50,52,132.33,334,-13.00,27.00,-968.00
2024-05-19 08:32:51.781886,-1,-1,4,0,0,0,83,86,94,50,52,132.32,334,-26.00,9.00,-908.00
2024-05-19 08:32:51.866501,-1,-1,4,0,0,0,83,86,95,50,52,132.34,334,-4.00,18.00,-977.00
2024-05-19 08:32:51.987348,0,-1,4,0,0,0,83,86,95,50,52,132.38,335,-12.00,19.00,-887.00
2024-05-19 08:32:52.070532,0,-1,4,0,0,0,83,86,95,60,52,132.28,335,7.00,13.00,-992.00
2024-05-19 08:32:52.121574,0,0,4,0,0,0,83,86,94,60,52,132.28,335,-6.00,12.00,-1014.00
2024-05-19 08:32:52.296581,0,-1,4,0,0,0,83,86,94,60,52,132.33,335,0.00,21.00,-963.00
2024-05-19 08:32:52.325595,0,-1,4,0,0,0,83,86,93,60,52,132.24,335,15.00,27.00,-978.00
2024-05-19 08:32:52.499970,0,-1,4,0,0,1,83,86,92,50,52,132.27,335,6.00,42.00,-908.00
2024-05-19 08:32:52.529746,0,-1,4,0,0,1,83,85,91,50,52,132.31,335,-11.00,32.00,-975.00
2024-05-19 08:32:52.703773,0,-1,4,0,0,1,83,85,89,50,52,132.24,335,12.00,31.00,-1030.00
2024-05-19 08:32:52.733720,0,-1,4,0,0,1,83,85,88,50,52,132.20,335,-11.00,31.00,-970.00
2024-05-19 08:32:52.908543,0,-1,4,0,0,1,83,85,86,50,52,132.21,335,-15.00,14.00,-954.00
2024-05-19 08:32:52.937766,0,-1,4,0,0,1,83,85,85,50,52,132.19,336,-1.00,30.00,-1069.00
2024-05-19 08:32:53.039753,0,-1,4,0,0,1,83,85,84,50,52,132.27,336,-1.00,24.00,-998.00
2024-05-19 08:32:53.215471,0,-1,4,0,0,0,83,85,82,50,52,132.23,336,6.00,26.00,-1013.00
2024-05-19 08:32:53.243578,0,-1,4,0,0,0,83,85,81,50,52,132.17,336,-1.00,31.00,-1011.00
2024-05-19 08:32:53.420257,0,-1,4,0,0,0,83,85,80,50,52,132.21,336,-5.00,41.00,-974.00
2024-05-19 08:32:53.447569,0,-1,4,0,0,0,83,85,79,50,52,132.18,336,-17.00,21.00,-970.00
2024-05-19 08:32:53.625643,0,-1,4,0,0,0,83,85,79,40,52,132.17,336,-14.00,22.00,-1026.00
2024-05-19 08:32:53.651446,0,-1,4,0,0,0,83,85,78,40,52,132.12,336,18.00,28.00,-1035.00
2024-05-19 08:32:53.830017,0,-1,4,0,0,0,83,85,78,40,52,132.14,336,12.00,24.00,-1073.00
2024-05-19 08:32:53.856537,0,-1,4,0,0,0,83,85,78,40,52,132.18,336,16.00,35.00,-1009.00
2024-05-19 08:32:54.034808,0,-1,4,0,0,0,83,85,78,40,52,132.13,337,-9.00,4.00,-1056.00
2024-05-19 08:32:54.059825,0,-1,4,0,0,0,83,85,78,40,52,132.13,337,2.00,10.00,-966.00
2024-05-19 08:32:54.240364,0,0,4,0,0,0,83,85,78,40,52,132.18,337,3.00,5.00,-985.00
2024-05-19 08:32:54.263983,0,0,4,0,0,0,83,85,78,40,52,132.18,337,-8.00,26.00,-1002.00
2024-05-19 08:32:54.444305,0,0,4,0,0,0,83,85,78,40,52,132.13,337,-11.00,41.00,-983.00
2024-05-19 08:32:54.467508,0,0,4,0,0,0,83,85,78,40,52,132.18,337,-16.00,50.00,-979.00
2024-05-19 08:32:54.649565,0,-1,4,0,0,0,83,84,78,40,52,132.20,337,-14.00,-3.00,-983.00
2024-05-19 08:32:54.671836,0,-1,4,0,0,0,83,84,78,40,52,132.19,337,-12.00,39.00,-989.00
2024-05-19 08:32:54.773799,0,-1,4,0,0,0,83,84,78,40,52,132.17,337,12.00,31.00,-1038.00
2024-05-19 08:32:54.958288,0,-1,4,0,0,0,83,84,78,40,52,132.20,337,-26.00,23.00,-964.00
2024-05-19 08:32:54.977466,0,-1,4,0,0,0,83,84,79,40,52,132.17,338,-4.00,33.00,-970.00
2024-05-19 08:32:55.161594,0,-1,4,0,0,0,83,84,79,40,52,132.20,338,-10.00,26.00,-995.00
2024-05-19 08:32:55.181448,0,-1,4,0,0,0,83,84,79,40,52,132.20,338,-18.00,37.00,-954.00
2024-05-19 08:32:55.365925,0,-1,4,0,0,0,83,84,80,40,52,132.16,338,-17.00,17.00,-1013.00
2024-05-19 08:32:55.385431,0,-1,4,0,0,0,83,84,80,50,52,132.23,338,-6.00,36.00,-937.00
2024-05-19 08:32:55.487707,-1,-1,4,0,0,0,83,84,81,50,52,132.17,338,-7.00,42.00,-945.00
2024-05-19 08:32:55.589622,-1,-1,4,0,0,0,83,84,80,50,52,132.27,338,-17.00,46.00,-973.00
2024-05-19 08:32:55.775625,-1,-1,4,0,0,0,83,84,81,50,52,132.24,338,-40.00,17.00,-1048.00
2024-05-19 08:32:55.793475,-1,-1,4,0,0,0,83,84,80,50,52,132.20,338,-26.00,27.00,-966.00
2024-05-19 08:32:55.980876,-1,-1,4,0,0,0,83,84,80,50,52,132.09,338,-12.00,23.00,-961.00
2024-05-19 08:32:55.997646,-1,-1,4,0,0,0,83,84,80,50,52,132.24,339,-2.00,20.00,-1057.00
2024-05-19 08:32:56.050465,-1,-1,4,0,0,0,83,84,80,50,52,132.21,339,-8.00,31.00,-991.00
2024-05-19 08:32:56.185847,-1,-1,5,0,0,0,83,84,79,40,52,132.12,339,-35.00,13.00,-1037.00
2024-05-19 08:32:56.253572,-1,-1,4,0,0,0,83,84,79,40,52,132.16,339,2.00,33.00,-1064.00
2024-05-19 08:32:56.355547,-1,-1,4,0,0,0,83,84,78,40,52,132.12,339,-8.00,23.00,-984.00
2024-05-19 08:32:56.494540,-1,-1,4,0,0,0,83,84,78,40,52,132.18,339,-7.00,35.00,-956.00
2024-05-19 08:32:56.559530,0,-1,4,0,0,0,82,84,78,40,52,132.14,339,-33.00,36.00,-967.00
2024-05-19 08:32:56.698754,0,-1,4,0,0,0,82,84,78,40,52,132.19,339,-6.00,45.00,-972.00
2024-05-19 08:32:56.763512,-1,-1,4,0,0,0,82,84,78,40,52,132.11,339,-29.00,33.00,-972.00
2024-05-19 08:32:56.901849,-1,-1,4,0,0,0,82,84,78,40,52,132.19,339,0.00,44.00,-1010.00
2024-05-19 08:32:56.968353,-1,-1,4,0,0,0,82,84,79,40,52,132.24,340,-18.00,32.00,-1066.00
2024-05-19 08:32:57.106823,-1,-1,4,0,0,-1,82,84,80,40,52,132.27,340,-41.00,34.00,-1073.00
2024-05-19 08:32:57.171456,-1,-1,4,0,0,-2,82,84,82,50,52,132.27,340,-17.00,33.00,-1091.00
2024-05-19 08:32:57.312031,-1,-1,4,0,0,-3,82,84,86,50,52,132.29,340,-16.00,21.00,-1089.00
2024-05-19 08:32:57.375395,-1,-1,4,0,0,-4,82,84,90,50,52,132.31,340,-1.00,29.00,-1077.00
2024-05-19 08:32:57.517740,-1,-1,4,0,0,-4,82,84,96,60,52,132.36,340,-4.00,36.00,-1074.00
2024-05-19 08:32:57.579725,-1,-1,4,0,0,-5,82,85,100,60,52,132.39,340,-31.00,25.00,-1038.00
2024-05-19 08:32:57.721699,-1,-1,4,0,0,-5,82,85,106,70,52,132.48,340,-29.00,15.00,-993.00
2024-05-19 08:32:57.783669,-1,-1,4,0,0,-5,82,85,112,70,52,132.51,340,-12.00,25.00,-1054.00
2024-05-19 08:32:57.926500,-1,-1,4,0,0,-5,82,85,118,80,52,132.54,340,-29.00,31.00,-998.00
2024-05-19 08:32:57.988158,0,-1,4,0,0,-5,82,85,123,90,52,132.66,341,-33.00,32.00,-959.00
2024-05-19 08:32:58.131278,0,-1,4,0,0,-5,82,85,129,90,52,132.62,341,-3.00,25.00,-988.00
2024-05-19 08:32:58.192185,-1,-1,4,0,0,-5,82,85,134,100,52,132.72,341,-20.00,42.00,-906.00
2024-05-19 08:32:58.335802,-1,-1,4,0,0,-4,82,85,139,100,52,132.76,341,4.00,31.00,-1011.00
2024-05-19 08:32:58.396324,-1,-1,4,0,0,-4,82,85,144,110,52,132.83,341,-27.00,15.00,-1017.00
2024-05-19 08:32:58.512649,-1,-1,4,0,0,-4,82,85,148,110,52,132.80,341,-13.00,28.00,-1000.00
2024-05-19 08:32:58.600564,-1,-1,4,0,0,-3,82,84,152,120,52,132.86,341,-11.00,31.00,-961.00
2024-05-19 08:32:58.745734,-1,-1,4,0,0,-3,82,84,156,120,52,132.98,341,-9.00,32.00,-967.00
2024-05-19 08:32:58.804396,-1,-1,4,0,0,-3,82,84,160,120,52,132.97,341,-7.00,17.00,-976.00
2024-05-19 08:32:58.917297,-1,-1,4,0,0,-2,82,84,163,130,52,132.98,341,-23.00,-11.00,-963.00
2024-05-19 08:32:59.008828,-1,-1,4,0,0,-2,82,84,165,130,52,132.99,342,-25.00,26.00,-941.00
2024-05-19 08:32:59.110154,-1,-1,4,0,0,-2,82,84,168,130,52,133.06,342,-24.00,24.00,-939.00
2024-05-19 08:32:59.257062,-1,-1,4,0,0,-2,82,84,170,130,52,133.04,342,-20.00,30.00,-944.00
2024-05-19 08:32:59.314242,0,-1,4,0,0,-1,82,84,172,140,52,133.01,342,-13.00,-4.00,-982.00
2024-05-19 08:32:59.462036,0,-1,4,0,0,-1,82,84,174,140,52,133.04,342,-11.00,34.00,-977.00
2024-05-19 08:32:59.518220,0,-1,4,0,0,-1,82,84,176,140,52,133.02,342,-21.00,9.00,-953.00
2024-05-19 08:32:59.669821,0,-1,4,0,0,-1,82,84,178,140,52,133.04,342,-5.00,18.00,-1023.00
2024-05-19 08:32:59.722569,0,-1,4,0,0,0,82,84,179,140,52,133.06,342,3.00,3.00,-1005.00
2024-05-19 08:32:59.871742,0,0,4,0,0,0,82,84,179,140,52,133.09,342,-2.00,31.00,-936.00
2024-05-19 08:32:59.926176,0,0,4,0,0,0,82,84,180,140,52,133.06,342,-4.00,16.00,-956.00
2024-05-19 08:33:00.028328,0,-1,4,0,0,0,82,84,180,140,52,133.10,343,9.00,35.00,-1026.00
2024-05-19 08:33:00.179060,0,0,4,0,0,0,82,84,180,140,52,133.09,343,-6.00,-1.00,-987.00
2024-05-19 08:33:00.232496,0,0,4,0,0,0,82,84,180,140,52,133.12,343,9.00,18.00,-1037.00
2024-05-19 08:33:00.283808,0,0,4,0,0,0,82,84,180,140,52,133.10,343,4.00,14.00,-962.00
2024-05-19 08:33:00.385338,0,-1,4,0,0,0,82,84,180,140,52,133.10,343,32.00,35.00,-1012.00
2024-05-19 08:33:00.588485,0,-1,4,0,0,0,82,84,180,140,52,133.14,343,-17.00,14.00,-971.00
2024-05-19 08:33:00.589388,0,-1,4,0,0,0,82,84,180,140,52,133.10,343,25.00,32.00,-1015.00
2024-05-19 08:33:00.793497,0,-1,4,0,0,0,82,84,179,140,52,133.11,343,-22.00,16.00,-964.00
2024-05-19 08:33:00.793737,0,0,4,0,0,0,82,84,179,140,52,133.07,343,8.00,21.00,-997.00
2024-05-19 08:33:00.895819,0,0,4,0,0,0,82,84,180,140,52,133.05,343,16.00,21.00,-1013.00
2024-05-19 08:33:00.998037,0,0,4,0,0,0,82,84,179,140,52,133.10,344,24.00,10.00,-990.00
2024-05-19 08:33:01.100609,0,-1,4,0,0,0,82,84,180,140,52,133.11,344,-1.00,7.00,-975.00
2024-05-19 08:33:01.203502,0,-1,4,0,0,0,82,84,179,140,52,133.10,344,32.00,48.00,-1016.00
2024-05-19 08:33:01.304816,0,-1,4,0,0,0,82,84,180,140,52,133.12,344,12.00,15.00,-998.00
2024-05-19 08:33:01.408190,0,-1,4,0,0,0,82,84,178,140,52,133.07,344,12.00,40.00,-931.00
2024-05-19 08:33:01.510901,0,-1,4,0,0,0,82,84,179,140,52,133.06,344,4.00,10.00,-987.00
2024-05-19 08:33:01.610094,0,-1,4,0,0,0,81,84,180,140,52,133.05,344,-6.00,35.00,-962.00
2024-05-19 08:33:01.715178,0,-1,4,0,0,0,81,84,179,140,52,133.10,344,9.00,7.00,-949.00
2024-05-19 08:33:01.814008,0,-1,4,0,0,0,81,84,179,140,52,133.03,344,7.00,27.00,-941.00
2024-05-19 08:33:01.920827,0,-1,4,0,0,0,81,84,177,140,52,133.02,344,0.00,17.00,-920.00
2024-05-19 08:33:02.018337,0,-1,4,0,0,1,81,84,177,140,52,133.07,345,12.00,17.00,-932.00
2024-05-19 08:33:02.124340,0,-1,4,0,0,1,81,84,173,140,52,133.00,345,0.00,40.00,-936.00
2024-05-19 08:33:02.222504,0,-1,4,0,0,2,81,84,171,140,52,133.03,345,8.00,50.00,-956.00
2024-05-19 08:33:02.335036,0,-1,4,0,0,2,81,84,169,130,52,132.98,345,-16.00,15.00,-974.00
2024-05-19 08:33:02.426201,0,-1,4,0,0,2,81,84,166,130,52,132.92,345,-22.00,28.00,-947.00
2024-05-19 08:33:02.533844,0,-1,4,0,0,2,81,84,164,130,52,132.95,345,4.00,13.00,-1000.00
2024-05-19 08:33:02.630005,0,-2,4,0,0,2,81,84,162,130,52,132.89,345,-3.00,19.00,-989.00
2024-05-19 08:33:02.738835,0,-2,4,0,0,2,81,84,159,120,52,132.92,345,7.00,37.00,-973.00
2024-05-19 08:33:02.833986,0,-1,4,0,0,2,81,84,156,120,52,132.86,345,22.00,29.00,-1038.00
2024-05-19 08:33:02.943637,0,-1,4,0,0,2,81,84,153,120,52,132.95,345,-1.00,22.00,-989.00
2024-05-19 08:33:03.037946,0,-1,4,0,0,2,81,84,152,120,52,132.81,346,10.00,4.00,-1085.00
2024-05-19 08:33:03.148235,0,-1,5,0,0,2,81,84,149,110,52,132.90,346,0.00,25.00,-1007.00
2024-05-19 08:33:03.243297,0,-1,4,0,0,2,81,84,148,110,52,132.83,346,3.00,18.00,-1022.00
2024-05-19 08:33:03.353914,0,-1,4,0,0,1,81,84,146,110,52,132.78,346,6.00,13.00,-1036.00
2024-05-19 08:33:03.447713,0,0,4,0,0,1,81,84,143,110,52,132.77,346,-4.00,10.00,-1007.00
2024-05-19 08:33:03.548089,0,0,4,0,0,1,81,84,142,110,52,132.72,346,5.00,17.00,-951.00
2024-05-19 08:33:03.660254,0,0,4,0,0,1,81,84,140,110,52,132.73,346,5.00,12.00,-1004.00
2024-05-19 08:33:03.753814,0,0,4,0,0,1,81,84,138,100,52,132.72,346,-26.00,9.00,-971.00
2024-05-19 08:33:03.853962,0,-1,4,0,0,1,81,84,136,100,52,132.73,346,12.00,11.00,-1048.00
2024-05-19 08:33:03.905539,0,0,4,0,0,1,81,84,134,100,52,132.76,346,-3.00,20.00,-971.00
2024-05-19 08:33:04.070767,0,0,4,0,0,1,81,84,132,100,52,132.67,347,-33.00,21.00,-1037.00
2024-05-19 08:33:04.109043,0,0,4,0,0,1,81,84,130,100,52,132.62,347,-14.00,30.00,-1040.00
2024-05-19 08:33:04.274719,0,0,4,0,0,1,81,84,129,100,52,132.64,347,-15.00,60.00,-1023.00
2024-05-19 08:33:04.313285,0,-1,4,0,0,1,81,84,128,90,52,132.52,347,-9.00,31.00,-1050.00
2024-05-19 08:33:04.479704,0,-2,4,0,0,0,81,84,128,90,52,132.56,347,-13.00,42.00,-1055.00
2024-05-19 08:33:04.517228,0,-2,4,0,0,0,81,84,128,90,52,132.53,347,-6.00,41.00,-1032.00
2024-05-19 08:33:04.685119,0,-2,4,0,0,0,82,84,128,90,52,132.56,347,-19.00,8.00,-1029.00
2024-05-19 08:33:04.721032,-1,-1,4,0,0,0,82,84,128,90,52,132.56,347,-10.00,44.00,-1050.00
2024-05-19 08:33:04.890659,-1,-1,4,0,0,0,82,84,129,90,52,132.52,347,-37.00,26.00,-1008.00
2024-05-19 08:33:04.925049,-1,-1,4,0,0,0,82,84,129,90,52,132.46,348,-36.00,35.00,-997.00
2024-05-19 08:33:05.094722,-1,-1,4,0,0,0,82,84,130,90,52,132.52,348,-24.00,30.00,-1001.00
2024-05-19 08:33:05.129487,0,-2,4,0,0,0,82,84,130,90,52,132.59,348,-13.00,36.00,-966.00
2024-05-19 08:33:05.300263,0,-2,4,0,0,0,82,84,130,90,52,132.60,348,-9.00,38.00,-1001.00
2024-05-19 08:33:05.333230,0,-2,4,0,0,0,82,84,130,90,52,132.70,348,8.00,58.00,-991.00
2024-05-19 08:33:05.504461,0,-2,4,0,0,0,82,84,130,90,52,132.66,348,-17.00,53.00,-977.00
2024-05-19 08:33:05.537208,0,-1,4,0,0,0,82,84,131,90,52,132.61,348,-28.00,59.00,-997.00
2024-05-19 08:33:05.709267,-1,-1,4,0,0,0,81,84,130,90,52,132.60,348,-33.00,17.00,-1017.00
2024-05-19 08:33:05.741501,-1,0,4,0,0,0,81,84,130,90,52,132.61,348,-35.00,51.00,-1011.00
2024-05-19 08:33:05.913182,-1,0,4,0,0,0,81,84,130,90,52,132.55,348,-22.00,-13.00,-978.00
2024-05-19 08:33:05.945058,-1,0,4,0,0,0,81,84,130,90,52,132.57,349,-28.00,16.00,-1002.00
2024-05-19 08:33:06.047217,-1,0,4,0,0,0,81,84,130,90,52,132.64,349,-28.00,41.00,-980.00
2024-05-19 08:33:06.148920,-2,0,4,0,0,0,81,84,130,90,52,132.56,349,-14.00,-24.00,-993.00
2024-05-19 08:33:06.323409,-4,0,4,0,0,0,81,84,130,90,52,132.64,349,-18.00,15.00,-1081.00
2024-05-19 08:33:06.353698,-8,0,4,1,0,0,81,84,130,90,52,132.60,349,2.00,15.00,-993.00
2024-05-19 08:33:06.529361,-8,0,4,2,0,0,81,84,131,90,52,132.57,349,-23.00,9.00,-979.00
2024-05-19 08:33:06.557238,-8,0,4,3,0,0,81,84,131,90,52,132.47,349,-39.00,20.00,-962.00
2024-05-19 08:33:06.733453,-8,0,4,4,0,0,81,83,131,90,52,132.48,349,-34.00,1.00,-1020.00
2024-05-19 08:33:06.760983,-8,-1,4,5,0,0,81,83,132,90,52,132.51,349,-48.00,13.00,-1004.00
2024-05-19 08:33:06.937720,-7,0,4,6,0,0,81,83,131,90,52,132.46,349,-54.00,-21.00,-968.00
2024-05-19 08:33:06.964906,-6,0,4,7,0,0,81,83,131,90,52,132.48,350,-90.00,15.00,-968.00
2024-05-19 08:33:07.067083,-5,0,4,7,0,0,81,83,130,90,52,132.46,350,-63.00,20.00,-997.00
2024-05-19 08:33:07.245090,-2,0,4,7,0,0,81,83,130,90,52,132.45,350,-78.00,10.00,-999.00
2024-05-19 08:33:07.270869,0,0,4,7,0,0,81,83,130,90,52,132.47,350,-82.00,-6.00,-966.00
2024-05-19 08:33:07.449722,2,0,4,6,0,0,81,83,131,90,52,132.54,350,-85.00,-7.00,-1027.00
2024-05-19 08:33:07.474902,3,0,4,5,0,0,81,83,132,90,52,132.67,350,-65.00,-3.00,-1000.00
2024-05-19 08:33:07.526707,2,0,4,4,0,0,81,83,131,100,52,132.47,350,-55.00,4.00,-997.00
2024-05-19 08:33:07.678877,1,0,4,3,0,0,81,84,131,90,52,132.57,350,-44.00,-3.00,-1054.00
2024-05-19 08:33:07.730057,0,0,4,3,0,0,81,84,131,90,52,132.58,350,-44.00,22.00,-991.00
2024-05-19 08:33:07.860009,0,0,4,3,0,0,81,84,131,90,52,132.60,350,-45.00,23.00,-995.00
2024-05-19 08:33:07.933811,0,0,4,2,0,0,81,84,131,90,52,132.62,351,-51.00,21.00,-1003.00
2024-05-19 08:33:08.039944,0,-2,4,2,0,0,81,84,131,90,52,132.62,351,-10.00,17.00,-1053.00
2024-05-19 08:33:08.137742,0,-2,4,2,0,0,81,84,131,90,52,132.62,351,-24.00,-5.00,-1038.00
2024-05-19 08:33:08.273198,0,-1,4,2,0,0,81,84,130,90,52,132.61,351,-38.00,10.00,-1022.00
2024-05-19 08:33:08.341896,2,0,4,2,0,0,81,84,131,90,52,132.59,351,-30.00,-5.00,-1038.00
2024-05-19 08:33:08.474681,3,0,4,1,0,0,81,84,131,90,52,132.62,351,-14.00,42.00,-970.00
2024-05-19 08:33:08.545933,1,0,4,0,0,0,81,84,130,90,52,132.52,351,-3.00,16.00,-998.00
2024-05-19 08:33:08.679630,0,0,4,0,0,0,82,84,130,90,52,132.54,351,15.00,13.00,-1011.00
2024-05-19 08:33:08.750158,0,0,4,0,0,0,82,84,129,90,52,132.57,351,24.00,20.00,-1024.00
2024-05-19 08:33:08.883424,1,0,4,0,0,0,82,84,129,90,52,132.56,351,0.00,24.00,-1008.00
2024-05-19 08:33:08.953800,1,0,4,0,0,0,82,84,129,90,52,132.63,352,7.00,21.00,-977.00
2024-05-19 08:33:09.055935,1,0,4,0,0,0,82,84,129,90,52,132.62,352,11.00,25.00,-1031.00
2024-05-19 08:33:09.192289,1,-1,4,0,0,0,82,84,129,90,52,132.56,352,3.00,17.00,-1034.00
2024-05-19 08:33:09.259797,1,-1,4,0,0,0,82,84,128,90,52,132.57,352,4.00,29.00,-1008.00
2024-05-19 08:33:09.395981,1,-1,4,0,0,0,82,84,128,90,52,132.50,352,4.00,29.00,-1041.00
2024-05-19 08:33:09.463940,1,-2,4,0,0,0,82,84,128,90,52,132.53,352,8.00,20.00,-968.00
2024-05-19 08:33:09.600923,1,-1,4,0,0,0,82,84,128,90,52,132.53,352,15.00,20.00,-1004.00
2024-05-19 08:33:09.667787,1,-1,4,0,0,0,82,83,127,90,52,132.55,352,-2.00,16.00,-1004.00
2024-05-19 08:33:09.805574,0,0,4,0,0,0,82,83,128,90,52,132.63,352,-8.00,6.00,-1021.00
2024-05-19 08:33:09.871640,0,0,4,0,0,0,82,83,127,90,52,132.59,352,0.00,10.00,-988.00
2024-05-19 08:33:10.010013,0,0,4,0,0,0,82,83,127,90,52,132.60,353,21.00,-14.00,-1059.00
2024-05-19 08:33:10.075532,0,0,4,0,0,0,82,83,127,90,52,132.57,353,-5.00,12.00,-974.00
2024-05-19 08:33:10.213929,0,0,4,0,0,0,82,83,126,90,52,132.58,353,-17.00,22.00,-997.00
2024-05-19 08:33:10.279721,0,0,4,0,0,0,82,83,126,90,52,132.52,353,8.00,41.00,-1024.00
2024-05-19 08:33:10.420167,0,0,4,0,0,0,82,83,126,90,52,132.54,353,-17.00,-16.00,-1036.00
2024-05-19 08:33:10.483726,0,0,4,0,0,0,82,83,126,90,52,132.62,353,3.00,14.00,-978.00
2024-05-19 08:33:10.585583,0,0,4,0,0,0,82,83,127,90,52,132.61,353,6.00,0.00,-1004.00
2024-05-19 08:33:10.726135,0,0,4,0,0,0,82,83,127,90,52,132.62,353,4.00,11.00,-993.00
2024-05-19 08:33:10.789509,4,-1,4,0,0,0,82,83,128,90,52,132.59,353,0.00,17.00,-997.00
2024-05-19 08:33:10.934883,8,-1,4,-1,0,0,82,83,130,90,52,132.52,353,20.00,15.00,-1028.00
2024-05-19 08:33:10.993578,9,-1,4,-2,0,0,82,83,130,90,52,132.60,354,10.00,23.00,-1049.00
2024-05-19 08:33:11.096765,9,0,4,-4,0,0,82,83,130,90,52,132.58,354,20.00,31.00,-969.00
2024-05-19 08:33:11.240698,7,0,4,-5,0,0,82,83,130,90,52,132.58,354,40.00,4.00,-1045.00
2024-05-19 08:33:11.299927,6,0,4,-6,0,0,82,83,130,90,52,132.60,354,22.00,7.00,-1027.00
2024-05-19 08:33:11.442659,5,0,4,-7,0,0,82,83,130,100,52,132.57,354,32.00,11.00,-995.00
2024-05-19 08:33:11.503687,4,0,4,-7,0,0,82,83,129,100,52,132.55,354,32.00,46.00,-962.00
2024-05-19 08:33:11.554508,3,0,4,-8,0,0,82,83,129,100,52,132.47,354,36.00,44.00,-958.00
2024-05-19 08:33:11.750013,0,-1,4,-8,0,0,80,83,129,100,52,132.59,354,24.00,42.00,-978.00
2024-05-19 08:33:11.809548,-2,-2,4,-7,0,0,80,83,128,100,52,132.50,354,33.00,58.00,-1018.00
2024-05-19 08:33:11.860837,-5,-3,5,-6,0,0,80,83,128,100,52,132.49,354,28.00,79.00,-975.00
2024-05-19 08:33:12.057142,-6,-5,5,-5,0,0,80,83,129,90,52,132.50,355,11.00,1.00,-1026.00
2024-05-19 08:33:12.064782,-4,-5,5,-4,0,0,80,83,128,90,52,132.57,355,7.00,34.00,-1029.00
2024-05-19 08:33:12.262550,-2,-3,5,-3,0,0,80,83,128,90,52,132.51,355,-15.00,55.00,-1008.00
2024-05-19 08:33:12.268736,-2,-2,4,-3,0,0,80,83,127,90,52,132.56,355,-3.00,17.00,-994.00
2024-05-19 08:33:12.467377,-1,0,4,-3,0,0,80,83,127,90,52,132.54,355,2.00,38.00,-1001.00
2024-05-19 08:33:12.472809,0,0,4,-3,0,0,80,83,127,90,52,132.61,355,-14.00,28.00,-1045.00
2024-05-19 08:33:12.672182,0,0,4,-3,0,0,80,83,127,90,52,132.61,355,-5.00,29.00,-974.00
2024-05-19 08:33:12.676690,-2,-1,4,-2,0,0,80,83,127,90,52,132.59,355,-18.00,48.00,-939.00
2024-05-19 08:33:12.876457,-5,-1,4,-2,0,0,80,83,128,90,52,132.66,355,-1.00,44.00,-977.00
2024-05-19 08:33:12.880594,-5,-1,4,-1,0,0,80,83,128,90,52,132.58,355,-32.00,25.00,-980.00
2024-05-19 08:33:13.081730,-3,-1,4,0,0,0,80,83,128,90,52,132.59,356,-24.00,33.00,-948.00
2024-05-19 08:33:13.084453,-2,-1,4,0,0,0,80,83,129,90,52,132.59,356,-33.00,27.00,-981.00
2024-05-19 08:33:13.286120,-1,0,5,0,0,0,80,83,129,90,52,132.57,356,-14.00,16.00,-1044.00
2024-05-19 08:33:13.288624,-1,0,5,0,0,0,80,83,130,90,52,132.61,356,-21.00,23.00,-985.00
2024-05-19 08:33:13.390798,-1,0,5,0,0,0,80,83,129,100,52,132.56,356,-16.00,26.00,-991.00
2024-05-19 08:33:13.492873,-1,0,5,0,0,0,80,83,130,100,52,132.57,356,-20.00,8.00,-1024.00
2024-05-19 08:33:13.594730,0,0,5,0,0,0,80,83,130,100,52,132.62,356,-21.00,-1.00,-1038.00
2024-05-19 08:33:13.799212,-1,0,4,0,0,0,81,84,130,100,52,132.66,356,-46.00,18.00,-889.00
2024-05-19 08:33:13.799429,-1,0,4,0,0,0,81,84,129,90,52,132.63,356,-8.00,9.00,-1014.00
2024-05-19 08:33:14.003401,-1,0,4,0,0,0,81,84,129,90,52,132.57,356,-25.00,-14.00,-1048.00
2024-05-19 08:33:14.003637,-1,0,4,0,0,0,81,84,129,90,52,132.60,357,-17.00,27.00,-1045.00
2024-05-19 08:33:14.105108,-1,0,4,0,0,0,81,84,128,90,52,132.51,357,-28.00,10.00,-1031.00
2024-05-19 08:33:14.207644,0,0,4,0,0,0,81,84,128,90,52,132.60,357,-45.00,-9.00,-1030.00
2024-05-19 08:33:14.310574,-1,0,4,0,0,0,81,84,128,90,52,132.57,357,-27.00,13.00,-1016.00
2024-05-19 08:33:14.412369,-1,0,4,0,0,0,81,84,128,90,52,132.61,357,-27.00,2.00,-1015.00
2024-05-19 08:33:14.512883,-1,0,4,0,0,0,81,84,128,90,52,132.56,357,-23.00,9.00,-1027.00
2024-05-19 08:33:14.614737,-1,0,4,0,0,0,81,84,128,90,52,132.59,357,-25.00,13.00,-972.00
2024-05-19 08:33:14.719518,-1,0,4,0,0,0,81,83,128,90,52,132.62,357,-39.00,-6.00,-978.00
2024-05-19 08:33:14.818617,-1,0,4,0,0,0,81,83,128,90,52,132.57,357,-10.00,11.00,-985.00
2024-05-19 08:33:14.924312,-1,0,4,0,0,0,81,83,128,90,52,132.61,357,-17.00,-24.00,-1012.00
2024-05-19 08:33:15.022926,0,0,4,0,0,0,81,83,128,90,52,132.59,358,-19.00,-17.00,-1026.00
2024-05-19 08:33:15.124897,0,0,4,0,0,0,81,83,129,90,52,132.57,358,-16.00,-7.00,-1025.00
2024-05-19 08:33:15.231565,-1,0,4,0,0,0,81,83,128,90,52,132.51,358,-13.00,-6.00,-994.00
2024-05-19 08:33:15.328501,0,-2,4,0,0,0,81,83,129,90,52,132.54,358,-18.00,-6.00,-953.00
2024-05-19 08:33:15.436776,0,-8,4,0,-1,0,81,83,130,90,52,132.60,358,-13.00,-20.00,-1044.00
2024-05-19 08:33:15.481320,0,-6,4,0,-2,0,81,83,129,90,52,132.54,358,1.00,22.00,-1015.00
2024-05-19 08:33:15.641034,0,-3,4,0,-3,0,81,83,129,90,52,132.51,358,-5.00,30.00,-986.00
2024-05-19 08:33:15.736604,0,-1,4,0,-3,0,81,83,129,90,51,132.51,358,-10.00,59.00,-979.00
2024-05-19 08:33:15.787227,0,0,4,0,-3,0,81,83,128,90,51,132.44,358,-19.00,20.00,-1021.00
2024-05-19 08:33:15.948968,0,0,4,0,-2,0,81,83,128,90,51,132.51,358,-19.00,32.00,-970.00
2024-05-19 08:33:15.991931,0,0,4,0,-2,0,81,83,128,90,51,132.44,359,-11.00,45.00,-1044.00
2024-05-19 08:33:16.093347,0,-1,4,0,-2,0,81,83,128,90,51,132.46,359,2.00,22.00,-1060.00
2024-05-19 08:33:16.255840,0,-1,4,0,-2,0,81,83,128,90,51,132.50,359,7.00,36.00,-1029.00
2024-05-19 08:33:16.297383,0,-1,4,0,-2,0,81,83,128,90,51,132.48,359,-1.00,16.00,-1033.00
2024-05-19 08:33:16.461534,0,-1,4,0,-2,0,81,83,128,90,51,132.44,359,-11.00,19.00,-1012.00
2024-05-19 08:33:16.501287,0,-1,4,0,-2,0,81,83,129,90,51,132.49,359,19.00,14.00,-1032.00
2024-05-19 08:33:16.665423,0,0,4,0,-2,0,81,83,128,90,51,132.51,359,-1.00,39.00,-948.00
2024-05-19 08:33:16.705290,0,0,4,0,-2,0,80,83,129,90,51,132.59,359,0.00,-3.00,-978.00
2024-05-19 08:33:16.870019,0,0,4,0,-2,0,80,83,129,90,51,132.58,359,-1.00,39.00,-989.00
2024-05-19 08:33:16.909987,0,1,4,0,-2,0,80,83,128,100,51,132.53,359,3.00,8.00,-966.00
2024-05-19 08:33:17.075211,0,2,4,0,-1,0,80,83,128,100,51,132.50,360,-5.00,23.00,-916.00
2024-05-19 08:33:17.113317,0,2,4,0,-1,0,80,83,128,90,51,132.53,360,10.00,51.00,-978.00
2024-05-19 08:33:17.279712,2,1,4,0,0,0,80,83,127,90,51,132.55,360,0.00,30.00,-1039.00
2024-05-19 08:33:17.317214,4,0,4,0,0,0,80,83,126,90,51,132.53,360,13.00,25.00,-1017.00
2024-05-19 08:33:17.484317,4,0,4,0,0,0,80,83,125,90,51,132.47,360,21.00,16.00,-982.00
2024-05-19 08:33:17.521506,3,0,4,0,0,0,80,83,125,90,51,132.46,360,10.00,5.00,-1007.00
2024-05-19 08:33:17.689280,2,0,4,-1,0,0,80,83,125,90,51,132.56,360,35.00,16.00,-1013.00
2024-05-19 08:33:17.725130,1,0,4,-1,0,0,80,83,124,90,50,132.52,360,8.00,16.00,-977.00
2024-05-19 08:33:17.827360,-3,0,4,0,0,0,80,83,125,90,50,132.55,360,38.00,-7.00,-978.00
2024-05-19 08:33:17.929448,-1,0,4,0,0,0,80,83,124,90,50,132.53,360,12.00,20.00,-1031.00
2024-05-19 08:33:18.031656,0,0,4,0,0,0,80,83,125,90,50,132.51,361,6.00,14.00,-966.00
2024-05-19 08:33:18.203320,0,0,4,0,0,0,80,83,125,90,50,132.53,361,6.00,-24.00,-1010.00
2024-05-19 08:33:18.235402,0,0,4,0,0,0,80,83,126,90,50,132.49,361,10.00,-34.00,-1016.00
2024-05-19 08:33:18.406438,0,0,4,0,0,0,80,83,126,90,50,132.53,361,8.00,-21.00,-991.00
2024-05-19 08:33:18.439618,0,0,4,0,0,0,80,83,127,90,50,132.54,361,8.00,-6.00,-1019.00
2024-05-19 08:33:18.611603,0,0,4,0,0,0,80,83,128,90,50,132.50,361,8.00,30.00,-993.00
2024-05-19 08:33:18.643293,0,0,4,0,0,0,80,83,128,90,50,132.52,361,-8.00,14.00,-935.00
2024-05-19 08:33:18.816208,0,0,4,0,0,0,81,83,127,90,50,132.54,361,17.00,19.00,-985.00
2024-05-19 08:33:18.847285,0,0,4,0,0,0,81,83,127,90,50,132.57,361,-7.00,-15.00,-1023.00
2024-05-19 08:33:19.020445,0,0,4,0,0,0,81,83,128,90,50,132.59,361,6.00,-5.00,-974.00
2024-05-19 08:33:19.052459,0,0,4,0,0,0,81,83,128,90,50,132.58,362,-7.00,7.00,-961.00
2024-05-19 08:33:19.153270,0,0,4,0,0,0,81,83,127,90,50,132.58,362,1.00,0.00,-1011.00
2024-05-19 08:33:19.204413,0,0,4,0,0,0,81,83,128,90,50,132.57,362,0.00,15.00,-1010.00
2024-05-19 08:33:19.327650,0,0,4,0,0,0,81,83,128,90,50,132.57,362,-9.00,0.00,-951.00
2024-05-19 08:33:19.408416,0,0,4,0,0,0,81,83,128,90,50,132.57,362,-3.00,-15.00,-1033.00
2024-05-19 08:33:19.534099,0,0,4,0,0,0,81,83,129,90,50,132.59,362,-3.00,-15.00,-1012.00
2024-05-19 08:33:19.614718,0,0,4,0,0,0,81,83,130,90,50,132.57,362,15.00,3.00,-1016.00
2024-05-19 08:33:19.714651,0,0,4,0,0,0,80,83,130,90,50,132.60,362,0.00,14.00,-953.00
2024-05-19 08:33:19.816321,0,0,4,0,0,0,80,83,131,90,50,132.50,362,-28.00,12.00,-933.00
2024-05-19 08:33:19.941799,0,4,4,0,0,0,80,83,131,100,50,132.64,363,14.00,11.00,-1023.00
2024-05-19 08:33:20.020238,0,8,4,0,1,0,80,83,132,100,50,132.62,363,15.00,26.00,-1030.00
2024-05-19 08:33:20.122269,0,6,4,0,2,0,80,83,132,100,50,132.59,363,-14.00,-22.00,-1025.00
2024-05-19 08:33:20.250379,0,4,4,0,3,0,80,83,131,100,50,132.54,363,1.00,-11.00,-964.00
2024-05-19 08:33:20.326304,0,1,4,0,3,0,80,83,132,90,50,132.50,363,-3.00,-16.00,-970.00
2024-05-19 08:33:20.453902,0,-1,4,0,3,0,80,83,131,90,50,132.61,363,3.00,-3.00,-1040.00
2024-05-19 08:33:20.530417,0,-1,4,0,3,0,80,83,132,90,50,132.56,363,-19.00,-17.00,-998.00
2024-05-19 08:33:20.658821,0,0,4,0,3,0,80,83,131,90,50,132.62,363,5.00,-25.00,-1070.00
2024-05-19 08:33:20.734296,1,0,4,0,3,0,81,84,130,90,50,132.56,363,-3.00,-18.00,-1046.00
2024-05-19 08:33:20.863728,1,0,4,0,2,0,81,84,131,90,50,132.53,363,-2.00,6.00,-1000.00
2024-05-19 08:33:20.938296,0,0,4,0,2,0,81,84,130,90,50,132.58,364,-8.00,-18.00,-1029.00
2024-05-19 08:33:21.040308,-1,0,4,0,2,0,81,84,130,90,50,132.59,364,9.00,-11.00,-958.00
2024-05-19 08:33:21.170911,0,0,4,0,2,0,81,84,130,90,50,132.55,364,2.00,-29.00,-1022.00
2024-05-19 08:33:21.244253,0,0,4,0,2,0,81,84,130,90,50,132.53,364,-4.00,2.00,-1005.00
2024-05-19 08:33:21.375488,0,0,4,0,2,0,81,84,129,90,50,132.54,364,-5.00,-16.00,-1014.00
2024-05-19 08:33:21.448294,0,0,4,0,1,0,81,84,129,90,50,132.48,364,-3.00,-30.00,-968.00
2024-05-19 08:33:21.580393,0,0,4,0,1,0,81,84,128,90,50,132.59,364,-1.00,6.00,-1022.00
2024-05-19 08:33:21.652152,0,0,4,0,1,0,81,84,127,90,50,132.54,364,5.00,-18.00,-1026.00
2024-05-19 08:33:21.785018,0,0,4,0,1,0,79,83,127,90,50,132.45,364,-1.00,-14.00,-964.00
2024-05-19 08:33:21.856301,0,-3,4,0,0,0,79,83,127,90,50,132.53,364,-7.00,2.00,-1035.00
2024-05-19 08:33:21.989971,0,-1,4,0,0,0,79,83,127,90,50,132.60,365,-20.00,-1.00,-1023.00
2024-05-19 08:33:22.060529,2,0,4,0,0,0,79,83,127,90,50,132.61,365,-13.00,-29.00,-1040.00
2024-05-19 08:33:22.194875,2,0,4,0,0,0,79,83,126,90,50,132.56,365,-23.00,-13.00,-996.00
2024-05-19 08:33:22.264312,0,0,4,-1,0,0,79,83,127,90,50,132.59,365,-23.00,-5.00,-1026.00
2024-05-19 08:33:22.400537,-2,0,4,0,0,0,79,83,126,90,50,132.60,365,0.00,19.00,-1017.00
2024-05-19 08:33:22.468319,-1,0,4,0,0,0,79,83,126,90,50,132.58,365,0.00,1.00,-1052.00
2024-05-19 08:33:22.604653,-1,0,4,0,0,0,79,83,125,90,50,132.51,365,-4.00,16.00,-1025.00
2024-05-19 08:33:22.672425,-1,0,4,0,0,0,79,83,126,90,50,132.55,365,-10.00,12.00,-1064.00
2024-05-19 08:33:22.809790,0,0,4,0,0,0,80,84,125,90,49,132.51,365,-9.00,2.00,-968.00
2024-05-19 08:33:22.877266,0,0,4,0,0,0,80,84,125,90,49,132.45,365,-2.00,16.00,-973.00
2024-05-19 08:33:23.014398,0,0,4,0,0,0,80,84,125,90,49,132.54,366,-32.00,13.00,-956.00
2024-05-19 08:33:23.080564,0,0,4,0,0,0,80,84,125,90,49,132.55,366,-17.00,-22.00,-989.00
2024-05-19 08:33:23.219434,0,0,4,0,0,0,80,84,124,90,49,132.58,366,-13.00,-21.00,-1047.00
2024-05-19 08:33:23.284196,0,0,4,0,0,0,80,84,125,90,49,132.54,366,-7.00,7.00,-1057.00
2024-05-19 08:33:23.423990,0,0,4,0,0,0,80,84,124,90,49,132.55,366,-18.00,-8.00,-973.00
2024-05-19 08:33:23.488280,0,0,4,0,0,0,80,84,124,90,49,132.62,366,8.00,-6.00,-1036.00
2024-05-19 08:33:23.628556,0,0,4,0,0,0,80,84,125,90,49,132.58,366,-9.00,0.00,-954.00
2024-05-19 08:33:23.692326,0,0,4,0,0,0,80,84,125,90,49,132.60,366,6.00,0.00,-1047.00
2024-05-19 08:33:23.833399,0,0,4,0,0,0,81,83,125,90,49,132.57,366,17.00,30.00,-984.00
2024-05-19 08:33:23.896156,0,0,4,0,0,0,81,83,126,90,49,132.65,366,-17.00,-20.00,-972.00
2024-05-19 08:33:24.004740,0,0,4,0,0,0,81,83,125,90,49,132.52,367,15.00,19.00,-987.00
2024-05-19 08:33:24.050477,0,0,4,0,0,0,81,83,127,90,49,132.52,367,0.00,-8.00,-1036.00
2024-05-19 08:33:24.214843,0,0,4,0,0,0,81,83,127,90,49,132.58,367,-5.00,-6.00,-995.00
2024-05-19 08:33:24.253995,0,0,4,0,0,0,81,83,127,90,49,132.54,367,18.00,-4.00,-1007.00
2024-05-19 08:33:24.447466,0,0,7,0,0,0,81,83,127,90,49,132.57,367,17.00,-36.00,-1010.00
2024-05-19 08:33:24.458106,0,0,13,0,0,0,81,83,128,90,49,132.57,367,-6.00,0.00,-1015.00
2024-05-19 08:33:24.652312,0,0,19,0,0,0,81,83,128,90,49,132.56,367,1.00,-27.00,-1032.00
2024-05-19 08:33:24.662029,0,0,25,0,0,0,81,83,128,90,49,132.55,367,-8.00,11.00,-938.00
2024-05-19 08:33:24.857954,0,0,31,0,0,0,81,83,127,90,49,132.61,367,6.00,-9.00,-998.00
2024-05-19 08:33:24.866092,0,0,37,0,0,0,81,83,127,90,49,132.58,367,17.00,15.00,-1023.00
2024-05-19 08:33:24.977626,0,0,44,0,0,0,81,83,127,90,49,132.58,368,6.00,-19.00,-994.00
2024-05-19 08:33:25.070378,0,0,50,0,0,0,81,83,127,90,49,132.56,368,-28.00,-3.00,-948.00
2024-05-19 08:33:25.269051,0,0,56,0,0,0,81,83,127,90,49,132.58,368,0.00,-5.00,-1030.00
2024-05-19 08:33:25.274060,0,0,63,0,0,0,81,83,127,90,49,132.59,368,4.00,-1.00,-1016.00
2024-05-19 08:33:25.471866,0,0,69,0,0,0,81,83,128,90,49,132.61,368,9.00,13.00,-928.00
2024-05-19 08:33:25.477972,0,0,75,0,0,0,81,83,127,90,49,132.55,368,6.00,-12.00,-1034.00
2024-05-19 08:33:25.676600,0,0,81,0,0,0,81,83,128,90,49,132.57,368,15.00,-29.00,-1005.00
2024-05-19 08:33:25.682249,0,0,87,0,0,0,81,83,128,90,49,132.57,368,6.00,16.00,-966.00
2024-05-19 08:33:25.880985,0,0,93,0,0,0,81,84,129,90,49,132.61,368,7.00,6.00,-940.00
2024-05-19 08:33:25.886099,0,0,99,0,0,0,81,84,129,90,49,132.55,368,-5.00,-26.00,-964.00
2024-05-19 08:33:26.089165,0,0,105,0,0,0,81,84,129,90,49,132.54,369,21.00,17.00,-1010.00
2024-05-19 08:33:26.090382,0,1,111,0,0,0,81,84,130,90,49,132.59,369,16.00,-6.00,-1033.00
2024-05-19 08:33:26.291404,0,1,117,0,0,0,81,84,129,90,49,132.55,369,-4.00,-37.00,-1020.00
2024-05-19 08:33:26.294079,0,1,123,0,0,0,81,84,130,90,49,132.58,369,-3.00,-10.00,-986.00
2024-05-19 08:33:26.396163,0,1,129,0,0,0,81,84,130,90,49,132.54,369,-7.00,-8.00,-991.00
2024-05-19 08:33:26.498159,0,1,135,0,0,0,81,84,131,90,49,132.53,369,0.00,-18.00,-935.00
2024-05-19 08:33:26.600090,0,1,141,0,0,0,81,84,130,90,49,132.53,369,0.00,-20.00,-993.00
2024-05-19 08:33:26.702466,0,1,147,0,0,0,81,84,130,90,49,132.53,369,2.00,-3.00,-960.00
2024-05-19 08:33:26.804746,0,1,153,0,0,0,80,83,131,90,49,132.52,369,8.00,-1.00,-993.00
2024-05-19 08:33:26.906087,0,1,159,0,0,0,80,83,131,90,49,132.57,369,-9.00,-13.00,-1020.00
2024-05-19 08:33:27.109864,0,1,165,0,0,0,80,83,131,90,49,132.58,370,10.00,-4.00,-987.00
2024-05-19 08:33:27.110641,0,1,171,0,0,0,80,83,131,90,49,132.63,370,-17.00,-19.00,-959.00
2024-05-19 08:33:27.212419,0,1,178,0,0,0,80,83,132,100,49,132.48,370,-12.00,-23.00,-1001.00
2024-05-19 08:33:27.314253,0,1,-175,0,0,0,80,83,132,100,49,132.55,370,-23.00,-40.00,-1020.00
2024-05-19 08:33:27.417141,0,1,-168,0,0,0,80,83,132,100,49,132.49,370,-25.00,-20.00,-1037.00
2024-05-19 08:33:27.520269,0,1,-162,0,0,0,80,83,133,100,49,132.55,370,10.00,-9.00,-1028.00
2024-05-19 08:33:27.619823,0,1,-156,0,0,0,80,83,133,100,49,132.50,370,-14.00,-13.00,-1008.00
2024-05-19 08:33:27.724244,0,1,-150,0,0,0,80,83,133,100,48,132.56,370,-34.00,-19.00,-933.00
2024-05-19 08:33:27.824089,0,1,-144,0,0,0,81,83,133,100,48,132.56,370,-15.00,-24.00,-989.00
2024-05-19 08:33:27.929804,0,0,-138,0,0,0,81,83,132,100,48,132.54,370,-36.00,-5.00,-916.00
2024-05-19 08:33:28.028019,0,0,-132,0,0,0,81,83,132,100,48,132.63,371,-23.00,-22.00,-942.00
2024-05-19 08:33:28.130091,0,1,-126,0,0,0,81,83,131,100,48,132.49,371,-22.00,1.00,-929.00
2024-05-19 08:33:28.180624,0,1,-120,0,0,0,81,83,131,100,48,132.57,371,-34.00,-3.00,-928.00
2024-05-19 08:33:28.338752,0,0,-114,0,0,0,81,83,130,90,48,132.59,371,-3.00,0.00,-1004.00
2024-05-19 08:33:28.384758,0,0,-108,0,0,0,81,83,129,90,48,132.56,371,-6.00,4.00,-947.00
2024-05-19 08:33:28.543458,0,0,-102,0,0,0,81,83,128,90,48,132.54,371,-8.00,-28.00,-1060.00
2024-05-19 08:33:28.588601,0,0,-96,0,0,0,81,83,128,90,48,132.55,371,6.00,-5.00,-1045.00
2024-05-19 08:33:28.749026,0,0,-90,0,0,0,81,83,128,90,48,132.59,371,0.00,22.00,-998.00
2024-05-19 08:33:28.792693,0,0,-84,0,0,0,80,83,127,90,48,132.59,371,-5.00,0.00,-1010.00
2024-05-19 08:33:28.953196,0,0,-78,0,0,0,80,83,127,90,48,132.56,371,-21.00,-15.00,-1018.00
2024-05-19 08:33:28.996727,0,0,-72,0,0,0,80,83,126,90,48,132.55,372,-2.00,-2.00,-1041.00
2024-05-19 08:33:29.159212,0,0,-65,0,0,0,80,83,127,90,48,132.49,372,14.00,16.00,-985.00
2024-05-19 08:33:29.203169,0,0,-59,0,0,0,80,83,126,90,48,132.57,372,5.00,-11.00,-1009.00
2024-05-19 08:33:29.362532,0,0,-52,0,0,0,80,83,126,90,48,132.58,372,12.00,0.00,-981.00
2024-05-19 08:33:29.407638,0,0,-46,0,0,0,80,83,126,90,48,132.56,372,-4.00,-11.00,-1045.00
2024-05-19 08:33:29.508069,0,0,-40,0,0,0,80,83,127,90,48,132.55,372,3.00,11.00,-959.00
2024-05-19 08:33:29.670589,0,0,-33,0,0,0,80,83,127,90,48,132.57,372,7.00,20.00,-975.00
2024-05-19 08:33:29.712346,0,0,-27,0,0,0,80,83,127,90,48,132.58,372,14.00,-9.00,-1026.00
2024-05-19 08:33:29.874615,0,0,-21,0,0,0,80,83,129,90,48,132.48,372,15.00,-24.00,-1016.00
2024-05-19 08:33:29.915748,0,1,-15,0,0,0,80,83,128,90,48,132.53,372,9.00,-9.00,-969.00
2024-05-19 08:33:30.017751,0,1,-11,0,0,0,80,83,130,90,48,132.51,373,15.00,3.00,-955.00
2024-05-19 08:33:30.121305,0,1,-7,0,0,0,80,83,129,90,48,132.52,373,0.00,1.00,-936.00
2024-05-19 08:33:30.221792,0,1,-4,0,0,0,80,83,130,90,48,132.56,373,26.00,-11.00,-1032.00
2024-05-19 08:33:30.386566,0,1,-2,0,0,0,80,83,130,90,48,132.55,373,-4.00,-9.00,-949.00
2024-05-19 08:33:30.426368,0,1,0,0,0,0,80,83,130,90,48,132.58,373,5.00,-7.00,-1021.00
2024-05-19 08:33:30.591316,0,1,0,0,0,0,80,83,130,90,48,132.60,373,-8.00,-47.00,-995.00
2024-05-19 08:33:30.629652,0,1,1,0,0,0,80,83,130,90,48,132.57,373,-13.00,-37.00,-995.00
2024-05-19 08:33:30.798759,0,1,1,0,0,0,80,83,130,90,48,132.51,373,7.00,-25.00,-1031.00
2024-05-19 08:33:30.833843,0,1,2,0,0,0,80,83,130,90,48,132.53,373,11.00,-4.00,-1010.00
2024-05-19 08:33:30.984680,0,1,2,0,0,0,80,83,130,90,48,132.59,373,-1.00,-43.00,-1095.00
2024-05-19 08:33:31.040008,0,1,2,0,0,0,80,83,130,90,48,132.59,374,-13.00,-22.00,-964.00
2024-05-19 08:33:31.139829,0,1,2,0,0,0,80,83,129,90,48,132.58,374,-5.00,10.00,-961.00
2024-05-19 08:33:31.308227,0,1,2,0,0,0,80,83,130,90,48,132.56,374,6.00,-40.00,-999.00
2024-05-19 08:33:31.343653,0,1,2,0,0,0,80,83,130,90,48,132.56,374,17.00,-40.00,-1016.00
2024-05-19 08:33:31.513557,0,1,2,0,0,0,80,83,130,90,48,132.48,374,-3.00,-1.00,-978.00
2024-05-19 08:33:31.548398,1,1,2,0,0,0,80,83,131,90,48,132.44,374,14.00,-3.00,-988.00
2024-05-19 08:33:31.599270,1,1,2,0,0,0,80,83,130,90,48,132.48,374,18.00,-24.00,-1001.00
2024-05-19 08:33:31.718803,1,1,2,0,0,0,80,83,130,90,48,132.46,374,0.00,-17.00,-969.00
2024-05-19 08:33:31.923502,1,1,2,0,0,0,80,84,131,90,48,132.54,374,3.00,-11.00,-939.00
2024-05-19 08:33:31.923993,0,1,2,0,0,0,80,84,131,90,48,132.51,374,21.00,-13.00,-1018.00
2024-05-19 08:33:32.006804,0,1,2,0,0,0,80,84,130,90,48,132.56,375,8.00,-39.00,-982.00
2024-05-19 08:33:32.128522,0,1,2,0,0,0,80,84,130,90,48,132.50,375,5.00,-15.00,-969.00
2024-05-19 08:33:32.210636,0,1,2,0,0,0,80,84,130,90,48,132.53,375,11.00,-9.00,-993.00
2024-05-19 08:33:32.332334,0,1,2,0,0,0,80,84,130,90,48,132.53,375,5.00,-39.00,-1015.00
2024-05-19 08:33:32.414655,0,1,2,0,0,0,80,84,130,90,48,132.52,375,-13.00,-17.00,-933.00
2024-05-19 08:33:32.537048,0,1,2,0,0,0,80,84,129,90,48,132.50,375,11.00,-19.00,-1012.00
2024-05-19 08:33:32.618536,0,1,2,0,0,0,80,84,130,90,48,132.55,375,-3.00,-20.00,-925.00
2024-05-19 08:33:32.742625,0,0,2,0,0,0,80,84,129,90,47,132.55,375,16.00,-38.00,-1036.00
2024-05-19 08:33:32.822780,0,0,2,0,0,0,81,83,129,90,47,132.47,375,0.00,-16.00,-991.00
2024-05-19 08:33:32.947488,0,0,0,0,0,0,81,83,129,90,47,132.51,376,2.00,-2.00,-1045.00
2024-05-19 08:33:33.026468,0,0,-6,0,0,0,81,83,129,90,47,132.54,376,14.00,-23.00,-980.00
2024-05-19 08:33:33.128367,0,0,-13,0,0,0,81,83,129,90,47,132.53,376,-3.00,-18.00,-975.00
2024-05-19 08:33:33.254672,0,0,-19,0,0,0,81,83,130,90,47,132.55,376,23.00,-52.00,-1021.00
2024-05-19 08:33:33.332462,0,1,-26,0,0,0,81,83,130,90,47,132.56,376,1.00,-24.00,-1023.00
2024-05-19 08:33:33.459441,0,1,-32,0,0,0,81,83,130,90,47,132.47,376,-4.00,-25.00,-985.00
2024-05-19 08:33:33.536403,0,0,-38,0,0,0,81,83,130,90,47,132.51,376,0.00,-5.00,-1037.00
2024-05-19 08:33:33.663353,0,0,-44,0,0,0,81,83,131,90,47,132.44,376,14.00,8.00,-966.00
2024-05-19 08:33:33.740387,0,0,-51,0,0,0,81,83,131,90,47,132.57,376,1.00,-2.00,-958.00
2024-05-19 08:33:33.868753,0,0,-56,0,0,0,80,84,132,90,47,132.57,376,3.00,6.00,-966.00
2024-05-19 08:33:33.944354,0,0,-62,0,0,0,80,84,133,100,47,132.52,377,15.00,1.00,-1034.00
2024-05-19 08:33:34.047920,0,0,-68,0,0,0,80,84,133,100,47,132.46,377,16.00,4.00,-1012.00
2024-05-19 08:33:34.148350,0,0,-74,0,0,0,80,84,134,100,47,132.53,377,6.00,8.00,-976.00
2024-05-19 08:33:34.278240,0,0,-80,0,0,0,80,84,134,100,47,132.53,377,19.00,-2.00,-1002.00
2024-05-19 08:33:34.352351,0,0,-86,0,0,0,80,84,134,100,47,132.56,377,26.00,16.00,-992.00
2024-05-19 08:33:34.482798,0,0,-92,0,0,0,80,84,134,100,47,132.51,377,-3.00,7.00,-993.00
2024-05-19 08:33:34.556429,0,0,-98,0,0,0,80,84,134,100,47,132.53,377,4.00,1.00,-982.00
2024-05-19 08:33:34.687326,0,0,-104,0,0,0,80,84,133,100,47,132.60,377,3.00,-8.00,-1020.00
2024-05-19 08:33:34.760358,0,0,-110,0,0,0,80,84,132,100,47,132.46,377,-8.00,-13.00,-1050.00
2024-05-19 08:33:34.892006,0,0,-115,0,0,0,80,83,131,100,47,132.59,377,-27.00,20.00,-898.00
2024-05-19 08:33:34.964351,-1,1,-121,0,0,0,80,83,131,100,47,132.58,378,-32.00,11.00,-915.00
2024-05-19 08:33:35.096951,-1,1,-127,0,0,0,80,83,131,90,47,132.57,378,-28.00,-10.00,-1023.00
2024-05-19 08:33:35.169469,-1,1,-132,0,0,0,80,83,130,90,47,132.54,378,-22.00,-1.00,-1026.00
2024-05-19 08:33:35.270248,-1,1,-138,0,0,0,80,83,129,90,47,132.53,378,-2.00,-20.00,-1087.00
2024-05-19 08:33:35.405091,-1,1,-144,0,0,0,80,83,129,90,47,132.48,378,-33.00,-10.00,-977.00
2024-05-19 08:33:35.477285,-1,1,-150,0,0,0,80,83,129,90,47,132.48,378,-24.00,-14.00,-1009.00
2024-05-19 08:33:35.577622,-1,1,-156,0,0,0,80,83,129,90,47,132.43,378,8.00,13.00,-1061.00
2024-05-19 08:33:35.678287,0,1,-162,0,0,0,80,83,129,90,47,132.49,378,-59.00,-18.00,-953.00
2024-05-19 08:33:35.729570,-1,1,-168,0,0,0,80,83,128,90,47,132.52,378,-29.00,-15.00,-1006.00
2024-05-19 08:33:35.916577,-1,1,-174,0,0,0,80,83,129,90,47,132.53,378,-23.00,-17.00,-1047.00
2024-05-19 08:33:35.984314,-1,1,179,0,0,0,80,83,129,90,47,132.48,379,-24.00,-17.00,-1042.00
2024-05-19 08:33:36.123769,-1,1,173,0,0,0,80,83,129,90,47,132.44,379,-25.00,-18.00,-1042.00
2024-05-19 08:33:36.188172,-1,1,167,0,0,0,80,83,130,90,47,132.47,379,-22.00,-7.00,-974.00
2024-05-19 08:33:36.239609,0,1,161,0,0,0,80,83,130,90,47,132.57,379,-36.00,-10.00,-977.00
2024-05-19 08:33:36.341474,0,0,155,0,0,0,80,83,130,90,47,132.47,379,-13.00,-11.00,-1036.00
2024-05-19 08:33:36.530774,0,0,149,0,0,0,80,83,130,90,47,132.58,379,-62.00,-16.00,-925.00
2024-05-19 08:33:36.545418,-1,1,143,0,0,0,80,83,131,90,47,132.52,379,-40.00,-20.00,-994.00
2024-05-19 08:33:36.735775,-1,1,138,0,0,0,80,83,131,90,47,132.58,379,-20.00,-20.00,-984.00
2024-05-19 08:33:36.749568,-1,1,132,0,0,0,80,83,131,90,47,132.50,379,-24.00,-18.00,-934.00
2024-05-19 08:33:36.940729,0,1,126,0,0,0,80,83,131,100,47,132.51,379,-9.00,-25.00,-1007.00
2024-05-19 08:33:36.953389,0,1,120,0,0,0,80,83,131,100,47,132.56,380,-26.00,-29.00,-1001.00
2024-05-19 08:33:37.055457,0,2,114,0,0,0,80,83,131,100,47,132.54,380,-6.00,-29.00,-1068.00
2024-05-19 08:33:37.157427,0,2,108,0,0,0,80,83,130,100,47,132.54,380,-24.00,-40.00,-1000.00
2024-05-19 08:33:37.349717,0,2,102,0,0,0,80,83,130,90,47,132.49,380,-20.00,-24.00,-960.00
2024-05-19 08:33:37.361310,0,2,96,0,0,0,80,83,129,90,47,132.54,380,-25.00,-22.00,-900.00
2024-05-19 08:33:37.554823,0,2,90,0,0,0,80,83,128,90,47,132.51,380,-3.00,-16.00,-993.00
2024-05-19 08:33:37.565419,0,2,83,0,0,0,80,83,128,90,47,132.56,380,7.00,-27.00,-996.00
2024-05-19 08:33:37.759391,0,2,77,0,0,0,80,83,128,90,47,132.48,380,6.00,-21.00,-1026.00
2024-05-19 08:33:37.769409,0,1,71,0,0,0,80,83,128,90,47,132.59,380,-9.00,-37.00,-969.00
2024-05-19 08:33:37.964275,1,1,65,0,0,0,81,83,128,90,47,132.43,380,0.00,-38.00,-1023.00
2024-05-19 08:33:37.973388,1,1,59,0,0,0,81,83,128,90,47,132.49,381,-5.00,-30.00,-1009.00
2024-05-19 08:33:38.171724,0,1,52,0,0,0,81,83,128,90,47,132.42,381,13.00,1.00,-1070.00
2024-05-19 08:33:38.179626,0,0,46,0,0,0,81,83,128,90,47,132.47,381,20.00,-12.00,-1096.00
2024-05-19 08:33:38.279377,0,0,40,0,0,0,81,83,129,90,47,132.48,381,29.00,-18.00,-1050.00
2024-05-19 08:33:38.476469,0,0,34,0,0,0,81,83,129,90,47,132.48,381,23.00,14.00,-1010.00
2024-05-19 08:33:38.483408,0,0,28,0,0,0,81,83,129,90,47,132.54,381,10.00,1.00,-988.00
2024-05-19 08:33:38.681208,1,0,23,0,0,0,81,83,129,90,47,132.43,381,20.00,2.00,-984.00
2024-05-19 08:33:38.687321,1,0,18,0,0,0,81,83,129,90,47,132.44,381,24.00,4.00,-986.00
2024-05-19 08:33:38.885892,0,0,14,0,0,0,81,83,129,90,46,132.48,381,8.00,10.00,-996.00
2024-05-19 08:33:38.891292,0,0,11,0,0,0,81,83,128,90,46,132.56,381,19.00,-35.00,-1013.00
2024-05-19 08:33:39.090524,0,0,9,0,0,0,81,83,128,90,46,132.54,382,16.00,3.00,-1003.00
2024-05-19 08:33:39.095337,0,0,7,0,0,0,81,83,128,90,46,132.53,382,12.00,-8.00,-1027.00
2024-05-19 08:33:39.296286,0,0,6,0,0,0,81,83,127,90,46,132.53,382,5.00,-18.00,-979.00
2024-05-19 08:33:39.299491,0,0,5,0,0,0,81,83,127,90,46,132.48,382,-2.00,0.00,-1010.00
2024-05-19 08:33:39.500157,0,0,4,0,0,0,81,83,127,90,46,132.47,382,11.00,-10.00,-1032.00
2024-05-19 08:33:39.503415,0,0,4,0,0,0,81,83,126,90,46,132.43,382,17.00,-3.00,-1034.00
2024-05-19 08:33:39.605256,0,0,3,0,0,0,81,83,125,90,46,132.48,382,-5.00,34.00,-1010.00
2024-05-19 08:33:39.655921,0,0,3,0,0,0,81,83,124,90,46,132.44,382,7.00,-21.00,-1011.00
2024-05-19 08:33:39.808506,0,0,2,0,0,0,81,83,124,90,46,132.40,382,16.00,15.00,-1039.00
2024-05-19 08:33:39.992157,0,0,2,0,0,0,81,83,124,90,46,132.41,382,-7.00,25.00,-980.00
2024-05-19 08:33:39.992762,0,0,2,0,0,0,81,83,123,90,46,132.40,383,-4.00,-6.00,-1053.00
2024-05-19 08:33:40.064181,0,0,1,0,0,0,81,83,123,90,46,132.40,383,7.00,-8.00,-957.00
2024-05-19 08:33:40.169412,0,0,1,0,0,0,81,83,122,90,46,132.37,383,-2.00,-23.00,-1065.00
2024-05-19 08:33:40.268098,0,0,1,0,0,0,81,83,122,90,46,132.28,383,-2.00,10.00,-967.00
2024-05-19 08:33:40.371312,0,0,0,0,0,0,81,83,122,90,46,132.35,383,10.00,-16.00,-984.00
2024-05-19 08:33:40.524227,0,0,0,0,0,0,81,83,123,90,46,132.39,383,-4.00,-3.00,-1020.00
2024-05-19 08:33:40.574040,0,0,0,0,0,0,81,83,123,90,46,132.41,383,0.00,-23.00,-969.00
2024-05-19 08:33:40.734348,0,0,0,0,0,0,81,83,123,90,46,132.38,383,5.00,6.00,-984.00
2024-05-19 08:33:40.778042,0,0,1,0,0,0,81,83,122,90,46,132.39,383,4.00,-26.00,-985.00
2024-05-19 08:33:40.933888,0,0,1,0,0,0,80,83,123,90,46,132.47,383,27.00,-10.00,-1044.00
2024-05-19 08:33:40.982264,0,0,1,0,0,0,80,83,123,90,46,132.45,384,16.00,12.00,-1001.00
2024-05-19 08:33:41.138692,0,0,1,0,0,0,80,83,123,90,46,132.39,384,8.00,-20.00,-1028.00
2024-05-19 08:33:41.186074,0,0,1,0,0,0,80,83,124,90,46,132.37,384,14.00,-17.00,-1036.00
2024-05-19 08:33:41.303457,0,0,1,0,0,0,80,83,124,90,46,132.37,384,-19.00,-23.00,-954.00
2024-05-19 08:33:41.390086,0,0,1,0,0,0,80,83,124,90,46,132.39,384,-2.00,-17.00,-1029.00
2024-05-19 08:33:41.548213,0,0,1,0,0,0,80,83,125,90,46,132.46,384,9.00,-17.00,-1028.00
2024-05-19 08:33:41.594263,0,0,1,0,0,0,80,83,126,90,46,132.42,384,3.00,-18.00,-990.00
2024-05-19 08:33:41.753147,0,0,1,0,0,0,80,83,126,90,46,132.46,384,-7.00,-1.00,-977.00
2024-05-19 08:33:41.798455,0,0,1,0,0,0,80,83,128,90,46,132.47,384,-5.00,-9.00,-941.00
2024-05-19 08:33:41.957815,1,0,1,0,0,0,81,83,128,90,46,132.42,384,16.00,-29.00,-975.00
2024-05-19 08:33:42.002421,0,0,1,0,0,0,81,83,129,90,46,132.45,385,26.00,-39.00,-995.00
2024-05-19 08:33:42.167621,0,1,1,0,0,0,81,83,130,90,46,132.54,385,36.00,-12.00,-1017.00
2024-05-19 08:33:42.205975,0,1,0,0,0,0,81,83,130,90,46,132.51,385,-12.00,-42.00,-980.00
2024-05-19 08:33:42.367385,0,1,0,0,0,0,81,83,130,90,46,132.46,385,6.00,-13.00,-1012.00
2024-05-19 08:33:42.412412,0,1,0,0,0,0,81,83,131,90,46,132.47,385,0.00,-38.00,-924.00
2024-05-19 08:33:42.511994,0,2,0,0,0,0,81,83,131,100,46,132.47,385,20.00,-24.00,-1025.00
2024-05-19 08:33:42.674638,0,2,0,0,0,0,81,83,131,100,46,132.45,385,10.00,-26.00,-968.00
2024-05-19 08:33:42.715887,0,2,0,0,0,0,81,83,131,100,45,132.47,385,38.00,-36.00,-1014.00
2024-05-19 08:33:42.879408,1,2,0,0,0,0,81,83,131,100,45,132.49,385,19.00,-40.00,-1034.00
2024-05-19 08:33:42.920018,1,1,0,0,0,0,81,82,131,100,45,132.48,385,8.00,-25.00,-941.00
2024-05-19 08:33:43.022567,1,2,0,0,0,0,81,82,131,100,45,132.47,386,25.00,-12.00,-975.00
2024-05-19 08:33:43.186526,1,2,0,0,0,0,81,82,131,90,45,132.48,386,40.00,-19.00,-1009.00
2024-05-19 08:33:43.225945,2,1,0,0,0,0,81,82,131,100,45,132.43,386,24.00,-42.00,-978.00
2024-05-19 08:33:43.391726,1,1,0,0,0,0,81,82,131,90,45,132.51,386,33.00,-17.00,-1011.00
2024-05-19 08:33:43.429935,1,1,0,0,0,0,81,82,131,100,45,132.43,386,36.00,-11.00,-931.00
2024-05-19 08:33:43.481603,2,0,0,0,0,0,81,82,131,100,45,132.45,386,34.00,-16.00,-991.00
2024-05-19 08:33:43.599083,1,0,0,0,0,0,81,82,131,90,45,132.46,386,21.00,-18.00,-1002.00
2024-05-19 08:33:43.685213,1,0,0,0,0,0,81,82,132,90,45,132.47,386,37.00,-32.00,-1100.00
2024-05-19 08:33:43.801077,1,1,0,0,0,0,81,82,133,90,45,132.48,386,33.00,7.00,-1009.00
2024-05-19 08:33:43.889126,1,1,0,0,0,0,81,83,133,100,45,132.52,386,12.00,-25.00,-939.00
2024-05-19 08:33:44.006876,1,0,0,0,0,0,81,83,134,100,45,132.52,387,30.00,-25.00,-1028.00
2024-05-19 08:33:44.093214,1,1,1,0,0,0,81,83,134,100,45,132.55,387,16.00,-38.00,-1055.00
2024-05-19 08:33:44.195297,1,1,1,0,0,0,81,83,135,100,45,132.60,387,12.00,-36.00,-983.00
2024-05-19 08:33:44.298325,1,1,1,0,0,0,81,83,136,100,45,132.48,387,9.00,-63.00,-976.00
2024-05-19 08:33:44.399598,1,1,1,0,0,0,81,83,136,100,45,132.49,387,14.00,-38.00,-960.00
2024-05-19 08:33:44.517854,1,2,0,0,0,0,81,83,136,100,45,132.49,387,11.00,-24.00,-1008.00
2024-05-19 08:33:44.603134,0,2,0,0,0,0,81,83,136,100,45,132.48,387,18.00,-47.00,-991.00
2024-05-19 08:33:44.722650,0,2,0,0,0,0,81,83,136,100,45,132.54,387,21.00,-51.00,-955.00
2024-05-19 08:33:44.807168,0,2,0,0,0,0,81,83,136,100,45,132.56,387,35.00,-54.00,-980.00
2024-05-19 08:33:44.909137,0,1,0,0,0,0,81,83,134,100,45,132.52,387,36.00,-38.00,-1002.00
2024-05-19 08:33:45.029806,1,1,0,0,0,0,81,83,133,100,45,132.37,388,43.00,-5.00,-984.00
2024-05-19 08:33:45.113225,1,0,0,0,0,0,81,83,131,100,45,132.49,388,38.00,-32.00,-1002.00
2024-05-19 08:33:45.234757,1,0,0,0,0,0,81,83,131,100,45,132.46,388,30.00,-53.00,-1049.00
2024-05-19 08:33:45.317834,1,1,0,0,0,0,81,83,131,100,45,132.30,388,34.00,-23.00,-1033.00
2024-05-19 08:33:45.439539,1,1,0,0,0,0,81,83,130,90,45,132.40,388,35.00,-56.00,-951.00
2024-05-19 08:33:45.522035,1,1,0,0,0,0,81,83,129,90,45,132.38,388,39.00,-91.00,-984.00
2024-05-19 08:33:45.644385,2,2,1,0,0,0,81,83,130,90,45,132.40,388,45.00,-52.00,-994.00
2024-05-19 08:33:45.726229,2,2,1,0,0,0,81,83,129,90,45,132.37,388,45.00,-61.00,-1064.00
2024-05-19 08:33:45.848883,2,2,1,0,0,0,81,83,128,90,45,132.30,388,30.00,-47.00,-1039.00
2024-05-19 08:33:45.929830,2,2,1,0,0,0,79,83,128,90,45,132.29,388,49.00,-74.00,-990.00
2024-05-19 08:33:46.031768,2,2,1,0,0,0,79,83,127,90,45,132.28,389,43.00,-57.00,-931.00
2024-05-19 08:33:46.156608,2,3,1,0,0,0,79,83,126,90,45,132.38,389,23.00,-43.00,-967.00
2024-05-19 08:33:46.235758,2,3,1,0,0,0,79,83,125,90,45,132.36,389,12.00,-48.00,-1008.00
2024-05-19 08:33:46.361053,1,3,1,0,0,0,79,83,124,90,45,132.36,389,36.00,-57.00,-1029.00
2024-05-19 08:33:46.439797,1,3,1,0,0,0,79,83,123,90,45,132.31,389,23.00,-65.00,-1048.00
2024-05-19 08:33:46.566384,1,3,1,0,0,0,79,83,123,90,45,132.37,389,22.00,-48.00,-989.00
2024-05-19 08:33:46.643907,1,3,1,0,0,0,79,83,123,90,45,132.42,389,29.00,-76.00,-1041.00
2024-05-19 08:33:46.770615,1,3,1,0,0,0,79,83,124,90,45,132.35,389,44.00,-54.00,-965.00
2024-05-19 08:33:46.847810,1,3,0,0,0,0,79,83,124,90,45,132.35,389,18.00,-45.00,-1044.00
2024-05-19 08:33:46.975833,1,3,0,0,0,0,80,83,124,90,45,132.44,389,26.00,-72.00,-1015.00
2024-05-19 08:33:47.051772,1,3,0,0,0,0,80,83,125,90,45,132.34,390,35.00,-61.00,-1016.00
2024-05-19 08:33:47.106773,1,3,0,0,0,0,80,83,126,90,45,132.38,390,31.00,-49.00,-976.00
2024-05-19 08:33:47.205400,1,3,0,0,0,0,80,83,126,90,45,132.37,390,29.00,-47.00,-1013.00
2024-05-19 08:33:47.351814,1,3,0,0,0,0,80,83,127,90,45,132.39,390,27.00,-57.00,-997.00
2024-05-19 08:33:47.408906,1,3,0,0,0,0,80,83,125,90,45,132.36,390,38.00,-88.00,-1029.00
2024-05-19 08:33:47.590546,2,4,0,0,0,0,80,83,126,90,45,132.38,390,59.00,-93.00,-990.00
2024-05-19 08:33:47.613012,2,4,0,0,0,0,80,83,126,90,45,132.41,390,59.00,-83.00,-1015.00
2024-05-19 08:33:47.795355,3,4,0,0,0,0,80,83,126,90,45,132.43,390,52.00,-87.00,-955.00
2024-05-19 08:33:47.816882,3,4,0,0,0,0,80,83,126,90,45,132.40,390,54.00,-78.00,-1006.00
2024-05-19 08:33:48.001504,3,4,1,0,0,0,81,83,125,90,45,132.39,390,32.00,-49.00,-1002.00
2024-05-19 08:33:48.020993,3,4,1,0,0,0,81,83,125,90,45,132.42,391,42.00,-85.00,-1031.00
2024-05-19 08:33:48.204461,3,5,1,0,0,0,81,83,124,90,45,132.41,391,56.00,-80.00,-965.00
2024-05-19 08:33:48.225391,3,5,0,0,0,0,81,83,124,90,45,132.45,391,45.00,-93.00,-983.00
2024-05-19 08:33:48.410057,3,5,1,0,0,0,81,83,123,90,45,132.42,391,55.00,-102.00,-968.00
2024-05-19 08:33:48.428928,3,5,1,0,0,0,81,83,123,90,45,132.49,391,53.00,-127.00,-969.00
2024-05-19 08:33:48.613846,3,5,1,0,0,0,81,83,123,90,45,132.40,391,63.00,-120.00,-1021.00
2024-05-19 08:33:48.632907,3,6,1,0,0,0,81,83,123,90,45,132.38,391,47.00,-123.00,-972.00
2024-05-19 08:33:48.819710,3,6,1,0,0,0,81,83,124,90,45,132.37,391,66.00,-102.00,-998.00
2024-05-19 08:33:48.836766,3,6,1,0,0,0,81,83,124,90,45,132.46,391,43.00,-104.00,-989.00
2024-05-19 08:33:49.000607,3,6,1,0,0,0,80,83,124,90,45,132.43,392,53.00,-135.00,-940.00
2024-05-19 08:33:49.040837,3,6,1,0,0,0,80,83,124,90,45,132.36,392,49.00,-87.00,-994.00
2024-05-19 08:33:49.231239,2,6,1,0,0,0,80,83,125,90,45,132.39,392,45.00,-99.00,-968.00
2024-05-19 08:33:49.244805,3,6,1,0,0,0,80,83,125,90,45,132.43,392,31.00,-123.00,-1009.00
2024-05-19 08:33:49.433053,2,6,1,0,0,0,80,83,125,90,45,132.44,392,37.00,-94.00,-996.00
2024-05-19 08:33:49.448792,2,6,1,0,0,0,80,83,127,90,45,132.42,392,32.00,-116.00,-1084.00
2024-05-19 08:33:49.638892,2,6,1,0,0,0,80,83,126,90,45,132.37,392,41.00,-138.00,-1008.00
2024-05-19 08:33:49.652785,2,6,1,0,0,0,80,83,127,90,45,132.39,392,43.00,-145.00,-976.00
2024-05-19 08:33:49.843976,2,6,1,0,0,0,80,83,127,90,45,132.43,392,36.00,-133.00,-987.00
2024-05-19 08:33:49.856889,2,7,1,0,0,0,80,83,128,90,45,132.42,392,42.00,-116.00,-950.00
2024-05-19 08:33:50.048120,2,7,1,0,0,0,81,84,128,90,45,132.39,393,20.00,-129.00,-960.00
2024-05-19 08:33:50.060846,1,7,1,0,0,0,81,84,128,90,45,132.37,393,30.00,-143.00,-1039.00
2024-05-19 08:33:50.163152,1,7,1,0,0,0,81,84,128,90,45,132.44,393,30.00,-129.00,-1019.00
2024-05-19 08:33:50.355321,0,7,1,0,0,0,81,84,129,90,45,132.43,393,37.00,-161.00,-1077.00
2024-05-19 08:33:50.366742,0,8,0,0,0,0,81,84,130,90,45,132.41,393,38.00,-115.00,-1035.00
2024-05-19 08:33:50.559933,2,7,1,0,0,0,81,84,131,90,45,132.40,393,26.00,-134.00,-975.00
2024-05-19 08:33:50.570785,2,8,1,0,0,0,81,84,132,90,45,132.38,393,49.00,-105.00,-1002.00
2024-05-19 08:33:50.764417,2,8,0,0,0,0,81,84,132,100,45,132.39,393,52.00,-143.00,-938.00
2024-05-19 08:33:50.764814,2,7,0,0,0,0,81,84,133,100,44,132.36,393,59.00,-135.00,-989.00
2024-05-19 08:33:50.825573,3,7,1,0,0,0,81,84,134,100,44,132.37,393,47.00,-106.00,-996.00
2024-05-19 08:33:50.970093,3,7,1,0,0,0,80,84,133,100,44,132.41,394,47.00,-148.00,-980.00
2024-05-19 08:33:51.030853,3,7,1,0,0,0,80,84,133,100,44,132.42,394,53.00,-123.00,-1005.00
2024-05-19 08:33:51.174912,3,7,1,0,0,0,80,84,133,100,44,132.30,394,44.00,-113.00,-1019.00
2024-05-19 08:33:51.235166,2,7,1,0,0,0,80,84,134,100,44,132.35,394,46.00,-135.00,-1007.00
2024-05-19 08:33:51.378960,3,7,1,0,0,0,80,84,134,100,44,132.41,394,73.00,-113.00,-972.00
2024-05-19 08:33:51.438781,3,7,1,0,0,0,80,84,133,100,44,132.37,394,70.00,-95.00,-955.00
2024-05-19 08:33:51.583422,3,6,1,0,0,0,80,84,133,100,44,132.30,394,65.00,-112.00,-1001.00
2024-05-19 08:33:51.643641,3,6,1,0,0,0,80,84,133,100,44,132.24,394,73.00,-110.00,-991.00
2024-05-19 08:33:51.788457,4,6,0,0,0,0,80,84,132,100,44,132.28,394,65.00,-109.00,-1001.00
2024-05-19 08:33:51.847306,4,6,1,0,0,0,80,84,133,100,44,132.30,394,76.00,-117.00,-963.00
2024-05-19 08:33:51.993414,4,5,1,0,0,0,80,84,131,100,44,132.30,395,52.00,-102.00,-982.00
2024-05-19 08:33:52.050807,4,5,1,0,0,0,80,84,131,90,44,132.32,395,52.00,-111.00,-989.00
2024-05-19 08:33:52.198809,3,6,1,0,0,0,80,84,132,90,44,132.24,395,68.00,-88.00,-992.00
2024-05-19 08:33:52.254791,3,6,1,0,0,0,80,84,132,90,44,132.19,395,72.00,-131.00,-969.00
2024-05-19 08:33:52.403184,3,6,1,0,0,0,80,84,131,90,44,132.24,395,66.00,-85.00,-999.00
2024-05-19 08:33:52.458809,3,6,1,0,0,0,80,84,131,90,44,132.22,395,69.00,-81.00,-998.00
2024-05-19 08:33:52.607614,3,5,1,0,0,0,80,84,132,90,44,132.21,395,87.00,-100.00,-985.00
2024-05-19 08:33:52.662704,4,5,1,0,0,0,80,84,132,90,44,132.20,395,82.00,-108.00,-992.00
2024-05-19 08:33:52.812250,4,5,1,0,0,0,80,84,132,90,44,132.24,395,75.00,-89.00,-987.00
2024-05-19 08:33:52.866600,4,5,1,0,0,0,80,84,132,100,44,132.25,395,60.00,-80.00,-1020.00
2024-05-19 08:33:53.017081,4,5,1,0,0,0,81,83,131,100,44,132.23,396,86.00,-114.00,-1003.00
2024-05-19 08:33:53.070757,4,5,1,0,0,0,81,83,131,100,44,132.19,396,78.00,-79.00,-1010.00
2024-05-19 08:33:53.222576,4,5,1,0,0,0,81,83,131,100,44,132.19,396,75.00,-72.00,-973.00
2024-05-19 08:33:53.274586,4,4,1,0,0,0,81,83,132,90,44,132.21,396,85.00,-114.00,-999.00
2024-05-19 08:33:53.378810,4,4,1,0,0,0,81,83,131,90,44,132.20,396,79.00,-110.00,-986.00
2024-05-19 08:33:53.478647,4,4,0,0,0,0,81,83,131,90,44,132.18,396,86.00,-104.00,-964.00
2024-05-19 08:33:53.631587,4,5,1,0,0,0,81,83,130,90,44,132.23,396,72.00,-70.00,-1035.00
2024-05-19 08:33:53.682531,4,4,1,0,0,0,81,83,130,90,44,132.20,396,79.00,-111.00,-976.00
