TS,pitch,roll,yaw,vgx,vgy,vgz,templ,temph,tof,h,bat,baro,time,agx,agy,agz
2024-05-19 08:34:18.010361,0,0,-2,0,0,0,81,84,10,0,44,131.17,400,-5.00,-6.00,-999.00
2024-05-19 08:34:18.207613,0,0,-2,0,0,0,82,84,10,0,44,131.14,400,-5.00,-5.00,-1000.00
2024-05-19 08:34:18.214325,0,0,-2,0,0,0,82,84,10,0,44,131.18,400,-6.00,-3.00,-999.00
2024-05-19 08:34:18.265687,0,0,-2,0,0,0,82,84,10,0,44,131.13,400,-4.00,-6.00,-997.00
2024-05-19 08:34:18.412280,0,0,-2,0,0,0,82,84,10,0,44,131.10,400,-5.00,-5.00,-998.00
2024-05-19 08:34:18.468971,0,0,-2,0,0,0,82,84,10,0,44,131.12,400,-4.00,-4.00,-999.00
2024-05-19 08:34:18.616748,0,0,-2,0,0,0,82,84,10,0,44,131.14,400,-5.00,-4.00,-999.00
2024-05-19 08:34:18.673083,0,0,-2,0,0,0,82,84,10,0,44,131.13,400,-5.00,-5.00,-1001.00
2024-05-19 08:34:18.821695,0,0,-2,0,0,0,82,84,10,0,44,131.16,400,-5.00,-5.00,-1003.00
2024-05-19 08:34:18.877053,0,0,-2,0,0,0,82,84,10,0,44,131.14,400,-4.00,-5.00,-999.00
2024-05-19 08:34:19.026457,0,0,-2,0,0,0,82,84,10,0,44,131.13,400,-5.00,-6.00,-1001.00
2024-05-19 08:34:19.081114,0,0,-2,0,0,0,82,84,10,0,44,131.15,400,-4.00,-5.00,-998.00
2024-05-19 08:34:19.231269,0,0,-2,0,0,0,82,84,10,0,44,131.10,400,-7.00,-5.00,-998.00
2024-05-19 08:34:19.285070,0,0,-2,0,0,0,82,84,10,0,44,131.13,400,-4.00,-4.00,-999.00
2024-05-19 08:34:19.436005,0,0,-2,0,0,0,82,84,10,0,44,131.16,400,-3.00,-5.00,-997.00
2024-05-19 08:34:19.489432,0,0,-2,0,0,0,82,84,10,0,44,131.16,400,-5.00,-4.00,-998.00
2024-05-19 08:34:19.640919,0,0,-2,0,0,0,82,84,10,0,44,131.14,400,-6.00,-5.00,-1001.00
2024-05-19 08:34:19.693037,0,0,-2,0,0,0,82,84,10,0,44,131.13,400,-5.00,-5.00,-1000.00
2024-05-19 08:34:19.805900,0,0,-2,0,0,0,82,84,10,0,44,131.13,400,-5.00,-5.00,-1002.00
2024-05-19 08:34:19.896985,0,0,-2,0,0,0,82,84,10,0,44,131.15,400,-5.00,-6.00,-1000.00
2024-05-19 08:34:20.051403,0,0,-2,0,0,0,82,84,10,0,44,131.14,401,-6.00,-4.00,-985.00
2024-05-19 08:34:20.101920,0,0,-2,0,0,0,82,85,10,0,44,131.14,401,1.00,-3.00,-993.00
2024-05-19 08:34:20.255455,0,0,-2,0,0,0,82,85,10,0,44,131.14,401,-19.00,7.00,-1011.00
2024-05-19 08:34:20.305795,0,0,-2,0,0,0,82,85,10,0,44,131.14,401,21.00,-3.00,-935.00
2024-05-19 08:34:20.460161,0,0,-1,0,0,0,82,85,10,0,44,131.14,401,-18.00,-19.00,-932.00
2024-05-19 08:34:20.509954,0,0,-2,0,0,0,82,85,10,0,44,131.14,401,-10.00,-19.00,-1090.00
2024-05-19 08:34:20.664732,0,0,-3,0,0,0,82,85,10,0,44,131.14,401,18.00,-4.00,-1216.00
2024-05-19 08:34:20.713898,0,1,-3,0,0,-2,82,85,10,-10,44,131.14,401,-59.00,0.00,-1208.00
2024-05-19 08:34:20.871289,-1,1,-3,0,0,-4,82,85,15,0,44,131.25,401,-4.00,-19.00,-1114.00
2024-05-19 08:34:20.917887,-1,0,-3,0,0,-5,82,85,24,0,44,131.57,401,-4.00,1.00,-1088.00
2024-05-19 08:34:21.074294,0,0,-3,0,0,-6,82,85,32,0,44,131.63,402,19.00,11.00,-1043.00
2024-05-19 08:34:21.121897,0,0,-3,0,0,-6,82,85,41,0,44,131.67,402,-20.00,-14.00,-952.00
2024-05-19 08:34:21.279408,0,0,-3,0,0,-5,82,85,47,0,44,131.77,402,-6.00,-3.00,-1000.00
2024-05-19 08:34:21.325858,0,0,-3,0,0,-5,82,85,56,0,44,131.90,402,20.00,-14.00,-989.00
2024-05-19 08:34:21.477220,0,0,-3,0,0,-4,82,85,64,10,44,131.98,402,-3.00,-7.00,-952.00
2024-05-19 08:34:21.529869,0,0,-3,0,0,-3,82,85,71,10,44,132.03,402,-3.00,2.00,-901.00
2024-05-19 08:34:21.688763,0,0,-3,0,0,-3,82,85,77,20,44,132.08,402,-3.00,10.00,-905.00
2024-05-19 08:34:21.689066,0,0,-3,0,0,-2,82,85,84,20,44,132.14,402,1.00,-21.00,-916.00
2024-05-19 08:34:21.785163,0,0,-3,0,0,-1,82,85,89,20,44,132.18,402,-24.00,2.00,-845.00
2024-05-19 08:34:21.893725,0,0,-3,0,0,0,82,85,93,30,44,132.19,402,-3.00,-24.00,-890.00
2024-05-19 08:34:21.989470,0,0,-3,0,0,0,82,85,97,30,44,132.25,403,-7.00,-2.00,-913.00
2024-05-19 08:34:22.098372,0,0,-3,0,0,0,82,85,101,30,44,132.27,403,7.00,-4.00,-941.00
2024-05-19 08:34:22.192904,0,0,-3,0,0,0,82,85,103,30,44,132.32,403,-7.00,-14.00,-968.00
2024-05-19 08:34:22.295271,0,1,-3,0,0,0,82,85,105,30,44,132.22,403,-9.00,-8.00,-936.00
2024-05-19 08:34:22.405586,0,1,-3,0,0,0,82,85,106,40,44,132.28,403,0.00,-5.00,-984.00
2024-05-19 08:34:22.499290,0,1,-3,0,0,1,82,85,108,40,44,132.28,403,-5.00,-9.00,-951.00
2024-05-19 08:34:22.610402,0,1,-3,0,0,1,82,85,108,40,44,132.31,403,8.00,-14.00,-997.00
2024-05-19 08:34:22.703146,0,1,-3,0,0,1,82,85,108,40,44,132.32,403,-5.00,-10.00,-986.00
2024-05-19 08:34:22.815164,0,1,-3,0,0,1,82,85,108,40,44,132.36,403,-19.00,-18.00,-916.00
2024-05-19 08:34:22.906795,0,1,-2,0,0,1,82,85,107,40,44,132.33,403,-17.00,-24.00,-939.00
2024-05-19 08:34:23.019978,0,1,-2,0,0,2,82,85,107,40,44,132.33,404,-28.00,-41.00,-1000.00
2024-05-19 08:34:23.110776,0,1,-3,0,0,2,82,85,106,40,44,132.36,404,3.00,-22.00,-997.00
2024-05-19 08:34:23.212735,0,0,-3,0,0,2,82,85,104,40,44,132.33,404,5.00,-21.00,-976.00
2024-05-19 08:34:23.314790,0,0,-3,0,0,2,82,85,102,40,44,132.36,404,-8.00,-33.00,-1016.00
2024-05-19 08:34:23.429589,-1,0,-3,0,0,2,82,85,100,40,44,132.23,404,-10.00,-29.00,-949.00
2024-05-19 08:34:23.518850,-1,0,-3,0,0,2,82,85,97,40,44,132.26,404,-9.00,-11.00,-972.00
2024-05-19 08:34:23.634374,-1,0,-3,0,0,2,82,85,95,40,44,132.21,404,-9.00,-10.00,-1000.00
2024-05-19 08:34:23.722842,-1,1,-3,0,0,2,82,85,93,40,44,132.21,404,-17.00,-15.00,-953.00
2024-05-19 08:34:23.839197,-1,1,-3,0,0,2,82,85,90,30,44,132.13,404,-17.00,-1.00,-980.00
2024-05-19 08:34:23.926764,-1,1,-3,0,0,1,82,85,88,30,44,132.17,404,-16.00,-13.00,-1006.00
2024-05-19 08:34:24.029084,-1,1,-3,0,0,1,82,85,86,30,44,132.10,405,-8.00,-25.00,-1034.00
2024-05-19 08:34:24.146358,-1,1,-3,0,0,1,81,84,84,30,44,132.14,405,0.00,-22.00,-1032.00
2024-05-19 08:34:24.233115,-1,1,-3,0,0,1,81,84,81,30,44,132.15,405,-4.00,-23.00,-1020.00
2024-05-19 08:34:24.351180,-1,1,-3,0,0,1,81,84,79,30,44,132.09,405,-50.00,-25.00,-960.00
2024-05-19 08:34:24.436700,-1,1,-3,0,0,1,81,84,77,20,44,132.05,405,-9.00,-52.00,-1044.00
2024-05-19 08:34:24.539116,-1,1,-3,0,0,1,81,84,75,20,44,131.97,405,-16.00,-50.00,-1038.00
2024-05-19 08:34:24.658596,-1,1,-3,0,0,1,81,84,74,20,44,132.04,405,-13.00,-36.00,-1048.00
2024-05-19 08:34:24.742690,-1,1,-3,0,0,0,81,84,72,20,44,132.06,405,-13.00,-27.00,-976.00
2024-05-19 08:34:24.863123,-1,1,-3,0,0,0,81,84,71,20,44,132.09,405,-15.00,-29.00,-1018.00
2024-05-19 08:34:24.946716,-1,1,-3,0,0,0,81,84,71,20,44,132.02,405,-9.00,-19.00,-990.00
2024-05-19 08:34:25.067902,-1,1,-3,0,0,0,81,84,70,20,44,131.94,406,-11.00,0.00,-986.00
2024-05-19 08:34:25.150666,-1,1,-3,0,0,0,82,84,69,20,44,132.01,406,-38.00,-32.00,-986.00
2024-05-19 08:34:25.272838,-1,1,-3,0,0,0,82,84,69,20,44,131.98,406,-13.00,-7.00,-1042.00
2024-05-19 08:34:25.354998,-1,1,-3,0,0,0,82,84,69,10,44,131.97,406,-18.00,-43.00,-1022.00
2024-05-19 08:34:25.405674,-1,1,-3,0,0,0,82,84,69,10,44,132.01,406,-44.00,-50.00,-978.00
2024-05-19 08:34:25.579852,-1,2,-3,0,0,0,82,84,69,10,44,131.98,406,-36.00,-20.00,-986.00
2024-05-19 08:34:25.610652,-1,2,-3,0,0,0,82,84,69,10,44,132.01,406,-34.00,-34.00,-982.00
2024-05-19 08:34:25.784770,-1,2,-3,0,0,0,82,84,70,10,44,132.00,406,-7.00,-37.00,-1040.00
2024-05-19 08:34:25.813625,-1,2,-3,0,0,0,82,84,70,10,44,132.01,406,-17.00,-22.00,-975.00
2024-05-19 08:34:25.989542,-1,2,-3,0,0,0,82,84,70,10,44,131.94,406,3.00,-16.00,-1022.00
2024-05-19 08:34:26.019837,-1,1,-3,0,0,0,82,84,71,10,44,131.97,407,-2.00,-37.00,-1079.00
2024-05-19 08:34:26.120341,-1,1,-3,0,0,0,82,84,72,20,44,132.03,407,-26.00,-43.00,-975.00
2024-05-19 08:34:26.296780,-1,1,-3,0,0,0,82,84,72,20,44,132.03,407,-21.00,-42.00,-965.00
2024-05-19 08:34:26.323615,-1,1,-3,0,0,0,82,84,73,20,44,131.99,407,-43.00,-26.00,-959.00
2024-05-19 08:34:26.501568,-1,1,-2,0,0,0,82,84,73,20,44,131.99,407,-25.00,-23.00,-952.00
2024-05-19 08:34:26.527865,-1,1,-2,0,0,0,82,84,73,20,44,131.98,407,-27.00,-35.00,-970.00
2024-05-19 08:34:26.629618,-1,1,-2,0,0,0,82,84,73,20,44,132.05,407,-32.00,-7.00,-906.00
2024-05-19 08:34:26.808785,-1,1,-2,0,0,0,82,84,73,20,44,132.06,407,-1.00,-34.00,-1013.00
2024-05-19 08:34:26.833518,-1,1,-2,0,0,0,82,84,73,20,44,131.96,407,-15.00,-34.00,-1024.00
2024-05-19 08:34:27.013544,-1,1,-3,0,0,0,82,84,73,20,44,132.01,408,0.00,-28.00,-1046.00
2024-05-19 08:34:27.037497,-1,0,-3,0,0,0,82,84,74,20,44,132.01,408,0.00,-47.00,-1084.00
2024-05-19 08:34:27.218337,-1,0,-3,0,0,0,81,84,73,20,44,131.98,408,-15.00,-27.00,-1038.00
2024-05-19 08:34:27.241905,-1,0,-3,0,0,0,81,84,73,20,44,132.03,408,-23.00,-13.00,-971.00
2024-05-19 08:34:27.423302,-1,0,-3,0,0,0,81,84,73,20,44,132.01,408,-30.00,-14.00,-989.00
2024-05-19 08:34:27.445518,-1,0,-3,0,0,0,81,84,72,20,44,131.95,408,-31.00,-38.00,-1034.00
2024-05-19 08:34:27.547704,-1,0,-3,0,0,0,81,84,72,20,44,132.04,408,0.00,-29.00,-1020.00
2024-05-19 08:34:27.730316,-1,1,-3,0,0,0,81,84,72,20,44,131.95,408,-35.00,-23.00,-973.00
2024-05-19 08:34:27.751566,-1,0,-3,0,0,0,81,84,72,20,44,131.96,408,-25.00,-8.00,-970.00
2024-05-19 08:34:27.935074,-1,0,-3,0,0,0,81,84,71,20,44,131.95,408,-26.00,2.00,-951.00
2024-05-19 08:34:27.955590,-1,0,-3,0,0,0,81,84,71,20,44,132.00,409,-16.00,-37.00,-1049.00
2024-05-19 08:34:28.139926,-1,0,-3,0,0,0,81,84,71,20,44,131.95,409,-21.00,-22.00,-959.00
2024-05-19 08:34:28.159631,-1,1,-3,0,0,0,81,84,71,20,44,131.98,409,-24.00,-26.00,-976.00
2024-05-19 08:34:28.344723,-2,1,-3,0,0,0,81,84,70,20,44,131.96,409,-12.00,-5.00,-1001.00
2024-05-19 08:34:28.363613,-1,1,-3,0,0,0,81,84,71,20,44,131.90,409,-15.00,-28.00,-1004.00
2024-05-19 08:34:28.549552,-1,1,-3,0,0,0,81,84,71,20,44,131.98,409,-5.00,-23.00,-1057.00
2024-05-19 08:34:28.567563,-1,1,-3,0,0,0,81,84,71,20,44,132.02,409,-9.00,-25.00,-1017.00
2024-05-19 08:34:28.754476,-1,1,-3,0,0,0,81,84,71,20,44,132.03,409,-17.00,-31.00,-1039.00
2024-05-19 08:34:28.771436,-1,1,-3,0,0,0,81,84,71,20,44,132.01,409,-13.00,-31.00,-1057.00
2024-05-19 08:34:28.873605,-1,1,-3,0,0,0,81,84,71,20,44,131.96,409,-13.00,-12.00,-1020.00
2024-05-19 08:34:29.061599,-1,1,-3,0,0,0,81,84,72,20,44,132.01,410,-10.00,-24.00,-1027.00
2024-05-19 08:34:29.061718,-1,1,-3,0,0,0,81,84,72,20,44,132.02,410,-22.00,-14.00,-969.00
2024-05-19 08:34:29.179640,-1,0,-3,0,0,0,82,85,73,20,44,132.03,410,-52.00,-41.00,-940.00
2024-05-19 08:34:29.368822,-1,0,-3,0,0,0,82,85,73,20,44,131.99,410,-22.00,-25.00,-974.00
2024-05-19 08:34:29.384490,-1,0,-3,0,0,0,82,85,73,20,44,131.99,410,-44.00,-20.00,-938.00
2024-05-19 08:34:29.573638,-1,1,-3,0,0,0,82,85,73,20,44,132.01,410,-31.00,-28.00,-945.00
2024-05-19 08:34:29.588938,-1,1,-3,0,0,0,82,85,73,20,44,132.05,410,-31.00,-25.00,-989.00
2024-05-19 08:34:29.639746,-1,1,-3,0,0,0,82,85,73,20,44,131.99,410,-27.00,-11.00,-982.00
2024-05-19 08:34:29.778578,-1,0,-3,0,0,0,82,85,73,20,44,131.94,410,-24.00,-2.00,-986.00
2024-05-19 08:34:29.843520,-1,0,-3,0,0,0,82,85,73,20,44,132.03,410,-1.00,-17.00,-1000.00
2024-05-19 08:34:29.983622,-1,0,-3,0,0,0,82,85,73,20,44,132.00,411,-28.00,-20.00,-1058.00
2024-05-19 08:34:30.047652,-1,0,-3,0,0,0,82,85,73,20,44,131.95,411,-11.00,-17.00,-1036.00
2024-05-19 08:34:30.188052,-1,0,-3,0,0,0,81,84,73,20,44,132.02,411,-11.00,-14.00,-1064.00
2024-05-19 08:34:30.251681,-1,0,-3,0,0,0,81,84,73,20,44,132.01,411,-18.00,-10.00,-1009.00
2024-05-19 08:34:30.394490,-1,0,-3,0,0,0,81,84,73,20,44,132.02,411,-25.00,-18.00,-1001.00
2024-05-19 08:34:30.455361,-1,0,-2,0,0,0,81,84,73,20,44,132.00,411,-13.00,-21.00,-1077.00
2024-05-19 08:34:30.557403,-1,0,-2,0,0,0,81,84,73,20,44,132.01,411,-17.00,-33.00,-1029.00
2024-05-19 08:34:30.699959,-1,0,-2,0,0,0,81,84,73,20,44,132.00,411,-39.00,-32.00,-998.00
2024-05-19 08:34:30.761402,-1,0,-3,0,0,0,81,84,74,20,44,132.01,411,-5.00,-4.00,-1078.00
2024-05-19 08:34:30.905013,-1,0,-3,0,0,-1,81,84,75,20,44,132.03,411,-4.00,-18.00,-1127.00
2024-05-19 08:34:30.965499,-1,0,-3,0,0,-2,81,84,77,20,44,132.11,412,-27.00,-16.00,-1060.00
2024-05-19 08:34:31.109709,-1,0,-3,0,0,-3,81,84,80,20,44,132.16,412,-41.00,-34.00,-1069.00
2024-05-19 08:34:31.169410,-1,0,-3,0,0,-4,82,83,84,30,44,132.14,412,-10.00,-16.00,-1085.00
2024-05-19 08:34:31.314669,-1,0,-3,0,0,-4,82,83,88,30,44,132.15,412,-34.00,-7.00,-1000.00
2024-05-19 08:34:31.373343,-1,0,-3,0,0,-4,82,83,93,40,44,132.20,412,-43.00,-19.00,-992.00
2024-05-19 08:34:31.519369,-1,0,-3,0,0,-5,82,83,98,40,44,132.22,412,-16.00,-22.00,-1071.00
2024-05-19 08:34:31.577295,-1,0,-3,0,0,-5,82,83,104,50,44,132.37,412,-35.00,-9.00,-942.00
2024-05-19 08:34:31.723895,-1,0,-3,0,0,-5,82,83,110,50,44,132.36,412,-40.00,-12.00,-988.00
2024-05-19 08:34:31.781312,-1,0,-3,0,0,-5,82,83,115,60,44,132.43,412,-14.00,-14.00,-978.00
2024-05-19 08:34:31.884881,-1,0,-2,0,0,-5,82,83,121,60,44,132.48,412,-30.00,-9.00,-930.00
2024-05-19 08:34:31.985335,-1,0,-2,0,0,-5,82,83,126,70,44,132.51,413,-49.00,-26.00,-905.00
2024-05-19 08:34:32.133841,-1,0,-2,0,0,-4,82,83,130,70,44,132.53,413,-27.00,-10.00,-896.00
2024-05-19 08:34:32.189352,-1,1,-2,0,0,-4,80,84,135,80,44,132.61,413,-34.00,-30.00,-918.00
2024-05-19 08:34:32.338847,-1,1,-2,0,0,-4,80,84,140,80,44,132.72,413,-21.00,-39.00,-949.00
2024-05-19 08:34:32.393318,-1,1,-2,0,0,-3,80,84,144,90,44,132.64,413,-30.00,-28.00,-957.00
2024-05-19 08:34:32.544435,-1,1,-3,0,0,-3,80,84,148,90,44,132.72,413,-25.00,-33.00,-965.00
2024-05-19 08:34:32.597350,-1,1,-3,0,0,-3,80,84,151,90,44,132.75,413,-25.00,-16.00,-859.00
2024-05-19 08:34:32.749578,-1,1,-3,0,0,-3,80,84,154,100,44,132.80,413,-2.00,-22.00,-973.00
2024-05-19 08:34:32.801307,-1,1,-3,0,0,-2,80,84,156,100,44,132.79,413,-32.00,8.00,-889.00
2024-05-19 08:34:32.903282,-1,1,-2,0,0,-2,80,84,159,100,44,132.83,413,-32.00,-30.00,-972.00
2024-05-19 08:34:33.056464,-1,1,-2,0,0,-1,80,84,161,100,44,132.77,414,-18.00,-35.00,-992.00
2024-05-19 08:34:33.107265,-1,1,-2,0,0,-1,80,84,163,110,44,132.80,414,-33.00,-9.00,-955.00
2024-05-19 08:34:33.260658,-1,1,-2,0,0,-1,81,84,164,110,44,132.89,414,-16.00,-33.00,-1075.00
2024-05-19 08:34:33.311217,-1,1,-2,0,0,-1,81,84,166,110,44,132.86,414,-31.00,-49.00,-954.00
2024-05-19 08:34:33.464876,-1,1,-2,0,0,-1,81,84,166,110,44,132.85,414,-14.00,-24.00,-1027.00
2024-05-19 08:34:33.515210,-2,1,-2,0,0,-1,81,84,167,110,44,132.86,414,-25.00,-34.00,-994.00
2024-05-19 08:34:33.567460,-2,1,-3,0,0,0,81,84,168,110,44,132.92,414,-27.00,-23.00,-991.00
2024-05-19 08:34:33.670059,-2,1,-3,0,0,0,81,84,169,110,44,132.95,414,-43.00,-36.00,-988.00
2024-05-19 08:34:33.770284,-2,1,-3,0,0,0,81,84,170,110,44,132.91,414,-11.00,-16.00,-990.00
2024-05-19 08:34:33.872347,-2,1,-3,0,0,0,81,84,169,110,44,132.88,414,-38.00,-27.00,-935.00
2024-05-19 08:34:33.978247,-2,1,-2,0,0,0,81,84,170,110,44,132.93,415,-26.00,-41.00,-986.00
2024-05-19 08:34:34.076295,-2,1,-2,0,0,0,81,84,171,110,44,132.85,415,-15.00,-33.00,-1046.00
2024-05-19 08:34:34.183229,-2,1,-3,0,0,0,80,84,170,110,44,132.88,415,-27.00,-42.00,-1009.00
2024-05-19 08:34:34.280830,-2,1,-3,0,0,0,80,84,171,110,44,132.86,415,-53.00,-39.00,-987.00
2024-05-19 08:34:34.386536,-2,1,-3,0,0,0,80,84,171,110,44,132.85,415,-11.00,-30.00,-1056.00
2024-05-19 08:34:34.484201,-1,1,-3,0,0,0,80,84,170,120,44,132.88,415,-27.00,-21.00,-920.00
2024-05-19 08:34:34.591468,-1,1,-3,0,0,0,80,84,170,120,44,132.88,415,-23.00,-25.00,-1010.00
2024-05-19 08:34:34.688294,-1,1,-3,0,0,0,80,84,170,120,44,132.93,415,-22.00,-30.00,-975.00
2024-05-19 08:34:34.796345,-1,1,-3,0,0,0,80,84,170,110,44,132.88,415,-38.00,-22.00,-990.00
2024-05-19 08:34:34.892268,-1,1,-3,0,0,0,80,84,169,110,44,132.83,415,-20.00,-27.00,-998.00
2024-05-19 08:34:35.001402,-1,1,-3,0,0,0,80,84,169,110,44,132.91,416,-22.00,-15.00,-980.00
2024-05-19 08:34:35.096334,-1,1,-3,0,0,0,80,84,169,110,44,132.88,416,-9.00,-36.00,-1053.00
2024-05-19 08:34:35.207051,-1,1,-3,0,0,0,81,83,169,110,44,132.93,416,-44.00,-36.00,-1014.00
2024-05-19 08:34:35.305359,-1,1,-3,0,0,0,81,83,168,110,44,132.79,416,-7.00,-16.00,-999.00
2024-05-19 08:34:35.402540,-1,1,-3,0,0,0,81,83,167,110,44,132.77,416,-27.00,-25.00,-977.00
2024-05-19 08:34:35.512803,-2,1,-3,0,0,0,81,83,168,110,44,132.82,416,-28.00,-24.00,-1014.00
2024-05-19 08:34:35.607449,-1,1,-3,0,0,0,81,83,167,110,44,132.86,416,-32.00,-12.00,-921.00
2024-05-19 08:34:35.717666,-1,1,-2,0,0,0,81,83,167,110,44,132.82,416,-21.00,-43.00,-1048.00
2024-05-19 08:34:35.811273,-1,1,-2,0,0,0,81,83,167,110,44,132.81,416,-6.00,-38.00,-1074.00
2024-05-19 08:34:35.922303,-1,1,-2,0,0,0,81,83,166,110,44,132.80,416,-24.00,-27.00,-928.00
2024-05-19 08:34:36.014107,0,1,-2,0,0,0,81,83,166,110,44,132.77,417,-25.00,-17.00,-915.00
2024-05-19 08:34:36.116203,-1,1,-2,0,0,1,81,83,164,110,44,132.76,417,-11.00,-26.00,-994.00
2024-05-19 08:34:36.230784,-1,1,-2,0,0,1,81,83,160,110,44,132.74,417,-24.00,-33.00,-961.00
2024-05-19 08:34:36.320009,-1,1,-2,0,0,2,81,83,157,110,44,132.69,417,-4.00,-40.00,-1033.00
2024-05-19 08:34:36.434747,-1,1,-2,0,0,2,81,83,154,100,44,132.72,417,0.00,-11.00,-1075.00
2024-05-19 08:34:36.524422,-1,1,-2,0,0,2,81,83,151,100,44,132.65,417,-5.00,-37.00,-1037.00
2024-05-19 08:34:36.639360,-1,1,-2,0,0,3,81,83,148,100,44,132.62,417,-28.00,-36.00,-980.00
2024-05-19 08:34:36.728125,-1,1,-3,0,0,2,81,83,145,90,44,132.62,417,4.00,-30.00,-1063.00
2024-05-19 08:34:36.844264,-1,1,-2,0,0,2,81,83,142,90,44,132.58,417,-42.00,-38.00,-962.00
2024-05-19 08:34:36.932057,-1,1,-3,0,0,2,81,83,140,90,44,132.53,417,4.00,-25.00,-1018.00
2024-05-19 08:34:37.048752,0,1,-3,0,0,2,81,83,138,90,44,132.55,418,-25.00,-25.00,-987.00
2024-05-19 08:34:37.085023,0,1,-3,0,0,2,81,83,136,80,44,132.55,418,-9.00,-26.00,-1015.00
2024-05-19 08:34:37.253809,0,1,-3,0,0,2,80,84,133,80,44,132.45,418,11.00,-16.00,-1059.00
2024-05-19 08:34:37.339914,0,1,-3,0,0,1,80,84,132,80,44,132.43,418,16.00,-27.00,-1011.00
2024-05-19 08:34:37.458550,0,1,-3,0,0,1,80,84,130,80,44,132.45,418,-4.00,-27.00,-1022.00
2024-05-19 08:34:37.543920,0,1,-3,0,0,1,80,84,128,70,44,132.45,418,-13.00,-32.00,-964.00
2024-05-19 08:34:37.663128,0,1,-3,0,0,1,80,84,127,70,44,132.39,418,4.00,-29.00,-1053.00
2024-05-19 08:34:37.697005,0,1,-3,0,0,1,80,84,126,70,44,132.44,418,-7.00,-22.00,-1007.00
2024-05-19 08:34:37.867929,0,1,-3,0,0,1,80,84,124,70,44,132.39,418,-5.00,-23.00,-987.00
2024-05-19 08:34:37.901268,0,1,-3,0,0,1,80,84,123,70,44,132.44,418,-21.00,-34.00,-1015.00
2024-05-19 08:34:38.003416,0,1,-3,0,0,1,80,84,122,70,44,132.39,419,9.00,-21.00,-1045.00
2024-05-19 08:34:38.175658,0,1,-3,0,0,0,80,84,121,70,44,132.37,419,-11.00,-26.00,-973.00
2024-05-19 08:34:38.207467,0,1,-3,0,0,0,81,83,120,70,44,132.40,419,4.00,-31.00,-1031.00
2024-05-19 08:34:38.380419,0,1,-3,0,0,0,81,83,120,70,44,132.33,419,-1.00,-15.00,-1056.00
2024-05-19 08:34:38.411049,0,1,-3,0,0,0,81,83,121,70,44,132.41,419,-4.00,-24.00,-1005.00
2024-05-19 08:34:38.584807,0,1,-3,0,0,0,81,83,120,70,44,132.29,419,-6.00,-28.00,-999.00
2024-05-19 08:34:38.615170,0,1,-3,0,0,0,81,83,120,70,44,132.32,419,-31.00,-20.00,-966.00
2024-05-19 08:34:38.790849,0,1,-3,0,0,0,81,83,121,70,44,132.38,419,-25.00,-25.00,-975.00
2024-05-19 08:34:38.819242,0,1,-3,0,0,0,81,83,121,70,44,132.35,419,0.00,-17.00,-1012.00
2024-05-19 08:34:38.994280,0,1,-3,0,0,0,81,83,121,70,44,132.33,419,11.00,-35.00,-1074.00
2024-05-19 08:34:39.022997,0,1,-3,0,0,0,81,83,121,70,44,132.33,420,-22.00,-23.00,-1012.00
2024-05-19 08:34:39.199184,0,1,-3,0,0,0,81,83,122,70,44,132.38,420,-23.00,-23.00,-937.00
2024-05-19 08:34:39.227061,0,1,-3,0,0,0,81,83,122,70,44,132.37,420,-21.00,-18.00,-967.00
2024-05-19 08:34:39.329184,0,1,-3,0,0,0,81,83,122,70,44,132.34,420,-4.00,-18.00,-998.00
2024-05-19 08:34:39.485028,0,1,-3,0,0,0,81,83,122,70,44,132.40,420,-12.00,-48.00,-950.00
2024-05-19 08:34:39.533870,0,1,-3,0,0,0,81,83,122,70,44,132.37,420,10.00,-18.00,-985.00
2024-05-19 08:34:39.711693,0,1,-3,0,0,0,81,83,121,70,44,132.35,420,-1.00,-18.00,-1012.00
2024-05-19 08:34:39.736972,0,1,-3,0,0,0,81,83,121,70,44,132.36,420,-11.00,-28.00,-966.00
2024-05-19 08:34:39.915985,0,1,-3,0,0,0,81,83,122,70,44,132.33,420,-21.00,-25.00,-955.00
2024-05-19 08:34:39.941432,0,1,-3,0,0,0,81,83,122,70,44,132.30,420,9.00,-18.00,-980.00
2024-05-19 08:34:40.042869,0,1,-3,0,0,0,81,83,122,70,44,132.33,421,-4.00,-26.00,-1002.00
2024-05-19 08:34:40.223840,0,1,-3,0,0,0,81,83,123,70,44,132.29,421,-6.00,-22.00,-1039.00
2024-05-19 08:34:40.246866,-8,1,-3,1,0,0,81,83,124,70,44,132.33,421,-18.00,-39.00,-992.00
2024-05-19 08:34:40.350339,-8,2,-3,3,0,0,81,83,125,70,44,132.41,421,-5.00,-25.00,-1005.00
2024-05-19 08:34:40.530402,-8,2,-3,4,0,0,81,83,125,70,44,132.42,421,0.00,-26.00,-992.00
2024-05-19 08:34:40.552703,-7,2,-3,5,0,0,81,83,125,70,44,132.33,421,-9.00,-27.00,-998.00
2024-05-19 08:34:40.735297,-6,2,-3,6,0,0,81,83,126,70,44,132.45,421,-14.00,-26.00,-1060.00
2024-05-19 08:34:40.756769,-5,2,-3,7,0,0,81,83,125,70,44,132.42,421,-30.00,-35.00,-951.00
2024-05-19 08:34:40.940439,-5,2,-3,7,0,0,81,83,126,70,44,132.35,421,-7.00,-19.00,-1046.00
2024-05-19 08:34:40.960790,-3,2,-3,8,0,0,81,83,126,70,44,132.35,422,-33.00,-29.00,-996.00
2024-05-19 08:34:41.145218,0,2,-3,8,0,0,81,83,126,70,44,132.43,422,-29.00,-34.00,-1034.00
2024-05-19 08:34:41.164778,2,2,-3,7,0,0,81,83,127,70,44,132.42,422,-35.00,-23.00,-989.00
2024-05-19 08:34:41.349498,4,1,-3,6,0,0,80,83,128,70,44,132.47,422,-22.00,-42.00,-1016.00
2024-05-19 08:34:41.368825,4,2,-3,5,0,0,80,83,128,70,44,132.50,422,-15.00,-39.00,-1051.00
2024-05-19 08:34:41.555753,3,2,-2,4,0,0,80,83,128,70,44,132.45,422,-10.00,-44.00,-1026.00
2024-05-19 08:34:41.555973,1,2,-2,3,0,0,80,83,128,70,44,132.42,422,0.00,-45.00,-1030.00
2024-05-19 08:34:41.623764,1,2,-2,3,0,0,80,83,129,70,44,132.47,422,-24.00,-23.00,-965.00
2024-05-19 08:34:41.762422,0,2,-2,2,0,0,80,83,129,70,43,132.50,422,-18.00,-39.00,-995.00
2024-05-19 08:34:41.827896,0,2,-2,2,0,0,80,83,129,70,43,132.50,422,-30.00,-41.00,-969.00
2024-05-19 08:34:41.964052,0,2,-2,2,0,0,80,83,129,70,43,132.44,423,-11.00,-49.00,-1009.00
2024-05-19 08:34:42.031739,0,2,-3,1,0,0,80,83,128,70,43,132.45,423,-15.00,-31.00,-991.00
2024-05-19 08:34:42.168983,0,3,-3,1,0,0,80,83,128,70,43,132.47,423,-14.00,-66.00,-1045.00
2024-05-19 08:34:42.235733,1,6,-3,1,0,0,80,83,128,70,43,132.52,423,-20.00,-33.00,-950.00
2024-05-19 08:34:42.337760,2,6,-3,0,0,0,80,83,127,70,43,132.51,423,-35.00,-68.00,-1021.00
2024-05-19 08:34:42.476162,0,1,-3,0,1,0,80,83,127,70,43,132.52,423,-14.00,-63.00,-970.00
2024-05-19 08:34:42.541665,0,-1,-3,0,0,0,80,83,126,70,43,132.39,423,-5.00,-37.00,-1034.00
2024-05-19 08:34:42.682336,0,0,-3,0,0,0,80,83,125,70,43,132.41,423,14.00,-33.00,-1016.00
2024-05-19 08:34:42.746603,0,1,-3,0,0,0,80,83,124,70,43,132.49,423,-13.00,-55.00,-993.00
2024-05-19 08:34:42.886385,0,1,-3,0,0,0,80,83,124,70,43,132.36,423,-2.00,-49.00,-953.00
2024-05-19 08:34:42.949906,0,2,-3,0,0,0,80,83,124,70,43,132.39,424,-1.00,-37.00,-933.00
2024-05-19 08:34:43.094488,0,2,-3,0,0,0,80,83,123,70,43,132.34,424,-6.00,-38.00,-964.00
2024-05-19 08:34:43.153894,0,2,-2,0,0,0,80,83,123,70,43,132.39,424,14.00,-32.00,-978.00
2024-05-19 08:34:43.295447,0,2,-3,0,0,0,81,84,123,70,43,132.41,424,7.00,-31.00,-1046.00
2024-05-19 08:34:43.357829,0,2,-2,0,0,0,81,84,122,70,43,132.35,424,-6.00,-34.00,-995.00
2024-05-19 08:34:43.501579,0,3,-2,0,0,0,81,84,122,70,43,132.33,424,5.00,-46.00,-1066.00
2024-05-19 08:34:43.561915,0,3,-2,0,0,0,81,84,123,70,43,132.36,424,10.00,-41.00,-963.00
2024-05-19 08:34:43.706775,0,3,-2,0,0,0,81,84,123,70,43,132.31,424,14.00,-29.00,-943.00
2024-05-19 08:34:43.765758,0,3,-2,0,0,0,81,84,123,70,42,132.39,424,16.00,-57.00,-998.00
2024-05-19 08:34:43.912446,0,3,-2,0,0,0,81,84,123,70,42,132.32,424,28.00,-51.00,-1079.00
2024-05-19 08:34:43.970194,0,3,-2,0,0,0,81,84,123,70,42,132.40,425,-15.00,-45.00,-932.00
2024-05-19 08:34:44.115395,0,2,-2,0,0,0,81,84,123,70,42,132.35,425,-7.00,-54.00,-1006.00
2024-05-19 08:34:44.174142,0,3,-2,0,0,0,81,84,123,70,42,132.33,425,-18.00,-40.00,-958.00
2024-05-19 08:34:44.321230,0,3,-3,0,0,0,81,83,122,70,42,132.39,425,0.00,-40.00,-1030.00
2024-05-19 08:34:44.378489,0,3,-3,0,0,0,81,83,123,70,42,132.38,425,-24.00,-40.00,-998.00
2024-05-19 08:34:44.525576,0,3,-3,0,0,0,81,83,123,70,42,132.33,425,-4.00,-51.00,-1040.00
2024-05-19 08:34:44.581692,0,3,-3,0,0,0,81,83,123,70,42,132.30,425,0.00,-63.00,-1053.00
2024-05-19 08:34:44.684943,-1,3,-3,0,0,0,81,83,123,70,42,132.28,425,-36.00,-55.00,-946.00
2024-05-19 08:34:44.785642,0,3,-3,0,0,0,81,83,122,70,42,132.27,425,1.00,-46.00,-1028.00
2024-05-19 08:34:44.933527,1,2,-3,0,0,0,81,83,122,70,42,132.36,425,-8.00,-61.00,-935.00
2024-05-19 08:34:44.989654,6,2,-2,-1,0,0,81,83,123,70,42,132.33,426,-12.00,-43.00,-1010.00
2024-05-19 08:34:45.138490,7,2,-2,-2,0,0,81,83,122,70,42,132.29,426,-20.00,-82.00,-984.00
2024-05-19 08:34:45.193681,7,3,-2,-3,0,0,81,83,122,70,42,132.36,426,17.00,-51.00,-1020.00
2024-05-19 08:34:45.343324,7,3,-3,-5,0,0,81,83,121,70,42,132.36,426,0.00,-47.00,-999.00
2024-05-19 08:34:45.398007,6,4,-3,-6,0,0,81,83,120,70,42,132.30,426,31.00,-53.00,-1032.00
2024-05-19 08:34:45.499514,5,4,-3,-7,0,0,81,83,120,70,42,132.27,426,33.00,-63.00,-973.00
2024-05-19 08:34:45.651088,4,3,-3,-7,0,0,81,83,119,70,42,132.26,426,57.00,-13.00,-1019.00
2024-05-19 08:34:45.652640,3,3,-3,-7,0,0,81,83,119,70,42,132.23,426,48.00,-53.00,-996.00
2024-05-19 08:34:45.754717,0,2,-3,-7,0,0,81,83,118,70,42,132.22,426,51.00,-19.00,-989.00
2024-05-19 08:34:45.856951,-2,0,-3,-7,1,0,81,83,118,70,42,132.17,426,59.00,0.00,-969.00
2024-05-19 08:34:46.059822,-4,0,-3,-6,0,0,81,83,118,60,42,132.23,427,65.00,-46.00,-996.00
2024-05-19 08:34:46.060532,-4,0,-3,-4,0,0,81,83,119,60,42,132.29,427,58.00,-23.00,-965.00
2024-05-19 08:34:46.162845,-2,1,-3,-3,0,0,81,83,118,60,42,132.26,427,46.00,-41.00,-1041.00
2024-05-19 08:34:46.264550,0,1,-3,-2,0,0,80,83,118,60,42,132.24,427,30.00,-24.00,-1014.00
2024-05-19 08:34:46.367261,0,1,-3,-2,0,0,80,83,120,60,42,132.24,427,45.00,-23.00,-1051.00
2024-05-19 08:34:46.470075,1,2,-3,-2,0,0,80,83,120,60,42,132.22,427,31.00,-69.00,-1006.00
2024-05-19 08:34:46.571722,1,2,-3,-2,0,0,80,83,120,60,42,132.31,427,29.00,-51.00,-984.00
2024-05-19 08:34:46.673924,1,2,-3,-2,0,0,80,83,121,70,42,132.30,427,31.00,-18.00,-942.00
2024-05-19 08:34:46.778182,1,2,-3,-1,0,0,80,83,121,70,42,132.27,427,37.00,-57.00,-1015.00
2024-05-19 08:34:46.876582,1,2,-3,-1,0,0,80,83,121,70,42,132.31,427,24.00,-38.00,-983.00
2024-05-19 08:34:46.981465,1,2,-3,-1,0,0,80,83,122,70,42,132.30,428,28.00,-33.00,-976.00
2024-05-19 08:34:47.080537,1,2,-3,-1,0,0,80,83,122,70,42,132.36,428,26.00,-72.00,-1007.00
2024-05-19 08:34:47.186270,0,3,-3,-1,0,0,80,83,122,70,42,132.31,428,28.00,-62.00,-991.00
2024-05-19 08:34:47.284450,0,3,-3,-1,0,0,80,83,122,70,42,132.30,428,29.00,-50.00,-961.00
2024-05-19 08:34:47.386513,-2,3,-3,-1,0,0,80,83,123,70,42,132.30,428,32.00,-55.00,-1060.00
2024-05-19 08:34:47.494261,-2,4,-3,0,0,0,80,83,124,70,42,132.31,428,22.00,-50.00,-935.00
2024-05-19 08:34:47.590507,0,6,-3,0,0,0,80,83,124,70,42,132.33,428,16.00,-49.00,-1070.00
2024-05-19 08:34:47.699124,0,1,-3,0,0,0,80,83,123,70,41,132.29,428,12.00,-49.00,-1015.00
2024-05-19 08:34:47.794660,0,0,-3,0,0,0,80,83,123,70,41,132.34,428,11.00,-56.00,-953.00
2024-05-19 08:34:47.903407,0,1,-2,0,0,0,80,83,124,70,41,132.28,428,-1.00,-64.00,-1008.00
2024-05-19 08:34:47.999037,0,1,-3,0,0,0,80,83,124,70,41,132.29,429,16.00,-59.00,-1019.00
2024-05-19 08:34:48.107968,0,1,-3,0,0,0,80,83,124,70,41,132.35,429,14.00,-50.00,-980.00
2024-05-19 08:34:48.202524,0,2,-3,0,0,0,80,83,124,70,41,132.30,429,10.00,-58.00,-1001.00
2024-05-19 08:34:48.312826,0,1,-3,0,0,0,80,84,124,70,41,132.31,429,-7.00,-60.00,-981.00
2024-05-19 08:34:48.406562,0,2,-3,0,0,0,80,84,124,70,41,132.30,429,15.00,-56.00,-964.00
2024-05-19 08:34:48.508873,0,2,-3,0,0,0,80,84,125,70,41,132.35,429,13.00,-45.00,-933.00
2024-05-19 08:34:48.620212,1,2,-3,0,0,0,80,84,125,70,41,132.24,429,4.00,-50.00,-963.00
2024-05-19 08:34:48.713015,1,2,-2,0,0,0,80,84,125,70,41,132.32,429,10.00,-32.00,-958.00
2024-05-19 08:34:48.825237,1,2,-2,0,0,0,80,84,125,70,41,132.34,429,6.00,-26.00,-1011.00
2024-05-19 08:34:48.916619,1,2,-2,0,0,0,80,84,124,70,41,132.37,429,39.00,-31.00,-1034.00
2024-05-19 08:34:49.029620,0,2,-2,0,0,0,80,84,124,70,41,132.34,430,-10.00,-48.00,-954.00
2024-05-19 08:34:49.120603,0,2,-2,0,0,0,80,84,124,70,41,132.32,430,11.00,-44.00,-999.00
2024-05-19 08:34:49.234499,0,2,-2,0,0,0,80,84,124,70,41,132.27,430,31.00,-45.00,-1068.00
2024-05-19 08:34:49.324557,0,2,-2,0,0,0,80,83,123,70,41,132.32,430,-3.00,-58.00,-1028.00
2024-05-19 08:34:49.439618,0,2,-2,0,0,0,80,83,123,70,41,132.33,430,10.00,-32.00,-951.00
2024-05-19 08:34:49.528579,0,2,-3,0,0,0,80,83,123,70,41,132.36,430,5.00,-37.00,-991.00
2024-05-19 08:34:49.579670,0,2,-3,0,0,0,80,83,123,70,41,132.32,430,5.00,-64.00,-1030.00
2024-05-19 08:34:49.702739,0,2,-3,0,0,0,80,83,123,70,41,132.31,430,-6.00,-42.00,-989.00
2024-05-19 08:34:49.783736,0,2,-3,0,0,0,80,83,122,70,41,132.36,430,5.00,-44.00,-952.00
2024-05-19 08:34:49.951585,0,1,-3,0,0,0,80,83,122,70,41,132.36,430,-3.00,-9.00,-928.00
2024-05-19 08:34:49.987808,0,-5,-3,0,0,0,80,83,123,70,41,132.30,431,7.00,-34.00,-1032.00
2024-05-19 08:34:50.156401,0,-5,-3,0,-1,0,80,83,123,70,41,132.33,431,7.00,-49.00,-993.00
2024-05-19 08:34:50.191372,0,-2,-3,0,-2,0,80,83,122,70,41,132.34,431,-7.00,-37.00,-1041.00
2024-05-19 08:34:50.360878,0,0,-3,0,-3,0,80,84,124,70,41,132.30,431,10.00,-3.00,-990.00
2024-05-19 08:34:50.395412,0,2,-3,0,-3,0,80,84,124,70,41,132.32,431,-12.00,-28.00,-1021.00
2024-05-19 08:34:50.565478,0,3,-3,0,-3,0,80,84,125,70,41,132.41,431,-2.00,-44.00,-989.00
2024-05-19 08:34:50.599352,0,3,-3,0,-3,0,80,84,125,70,41,132.29,431,11.00,-30.00,-994.00
2024-05-19 08:34:50.771060,0,2,-3,0,-2,0,80,84,125,70,41,132.34,431,14.00,-31.00,-957.00
2024-05-19 08:34:50.803325,0,2,-3,0,-2,0,80,84,124,70,41,132.31,431,-2.00,-59.00,-956.00
2024-05-19 08:34:50.976785,0,2,-3,0,-2,0,80,84,124,70,41,132.30,431,5.00,-14.00,-927.00
2024-05-19 08:34:51.007307,0,2,-3,0,-2,0,80,84,123,70,41,132.31,432,4.00,-17.00,-975.00
2024-05-19 08:34:51.180456,0,2,-3,0,-2,0,80,84,122,70,41,132.29,432,0.00,-24.00,-951.00
2024-05-19 08:34:51.211300,0,1,-3,0,-2,0,80,84,122,70,41,132.32,432,9.00,-35.00,-1053.00
2024-05-19 08:34:51.387898,0,1,-3,0,-2,0,80,83,121,70,41,132.33,432,9.00,-39.00,-1015.00
2024-05-19 08:34:51.415105,0,2,-3,0,-2,0,80,83,121,70,41,132.31,432,18.00,-29.00,-1078.00
2024-05-19 08:34:51.517270,0,2,-3,0,-2,0,80,83,122,70,41,132.28,432,2.00,-32.00,-1002.00
2024-05-19 08:34:51.692569,0,3,-3,0,-2,0,80,83,121,70,41,132.28,432,15.00,-47.00,-1088.00
2024-05-19 08:34:51.721323,0,5,-3,0,-1,0,80,83,122,70,40,132.29,432,10.00,-38.00,-992.00
2024-05-19 08:34:51.897106,0,5,-3,0,0,0,80,83,122,70,40,132.30,432,-6.00,-48.00,-1003.00
2024-05-19 08:34:51.925486,0,3,-3,0,0,0,80,83,121,70,40,132.33,432,1.00,-34.00,-997.00
2024-05-19 08:34:52.027430,0,2,-3,0,0,0,80,83,121,70,40,132.32,433,19.00,-39.00,-1006.00
2024-05-19 08:34:52.130125,0,2,-3,0,0,0,80,83,121,70,40,132.28,433,0.00,-44.00,-994.00
2024-05-19 08:34:52.231404,0,2,-3,0,0,0,80,83,121,70,40,132.32,433,5.00,-39.00,-1015.00
2024-05-19 08:34:52.409918,0,2,-3,0,0,0,80,83,121,60,40,132.29,433,-14.00,-73.00,-1016.00
2024-05-19 08:34:52.435172,0,2,-2,0,0,0,80,83,121,60,40,132.39,433,3.00,-63.00,-1048.00
2024-05-19 08:34:52.615569,0,2,-2,0,0,0,80,83,121,60,40,132.34,433,-28.00,-44.00,-965.00
2024-05-19 08:34:52.639486,0,2,-2,0,0,0,80,83,121,70,40,132.35,433,-6.00,-44.00,-1041.00
2024-05-19 08:34:52.818380,0,3,-2,0,0,0,80,83,121,70,40,132.31,433,-5.00,-61.00,-1068.00
2024-05-19 08:34:52.843605,0,3,-2,0,0,0,80,83,121,70,40,132.35,433,-8.00,-48.00,-994.00
2024-05-19 08:34:53.024372,0,3,-2,0,0,0,80,83,121,70,40,132.40,433,-3.00,-44.00,-1073.00
2024-05-19 08:34:53.047217,0,3,-2,0,0,0,80,83,121,70,40,132.31,434,-37.00,-51.00,-913.00
2024-05-19 08:34:53.230854,0,2,-2,0,0,0,80,83,120,70,40,132.29,434,-10.00,-68.00,-989.00
2024-05-19 08:34:53.231047,0,2,-2,0,0,0,80,83,120,70,40,132.35,434,-19.00,-57.00,-1007.00
2024-05-19 08:34:53.433361,0,2,-2,0,0,0,81,83,120,70,40,132.26,434,-20.00,-76.00,-1021.00
2024-05-19 08:34:53.433516,0,2,-2,0,0,0,81,83,119,70,40,132.23,434,-10.00,-31.00,-945.00
2024-05-19 08:34:53.506911,0,3,-3,0,0,0,81,83,119,60,40,132.30,434,-22.00,-50.00,-974.00
2024-05-19 08:34:53.638445,0,3,-3,0,0,0,81,83,118,60,40,132.32,434,16.00,-40.00,-1073.00
2024-05-19 08:34:53.710243,0,2,-3,0,0,0,81,83,118,60,40,132.27,434,-16.00,-64.00,-970.00
2024-05-19 08:34:53.842552,0,2,-3,0,0,0,81,83,118,60,40,132.35,434,-2.00,-66.00,-960.00
2024-05-19 08:34:53.914451,0,3,-3,0,0,0,81,83,118,60,40,132.25,434,0.00,-59.00,-971.00
2024-05-19 08:34:54.016129,0,3,-3,0,0,0,81,83,118,60,40,132.29,435,9.00,-54.00,-1007.00
2024-05-19 08:34:54.149913,0,4,-3,0,0,0,81,83,119,60,40,132.25,435,14.00,-42.00,-973.00
2024-05-19 08:34:54.221481,0,9,-3,0,0,0,81,83,119,60,40,132.34,435,20.00,-40.00,-1070.00
2024-05-19 08:34:54.354622,0,8,-2,0,2,0,81,83,120,60,40,132.23,435,-12.00,-23.00,-914.00
2024-05-19 08:34:54.424134,0,7,-3,0,3,0,81,83,119,60,40,132.29,435,31.00,-79.00,-1126.00
2024-05-19 08:34:54.526501,0,3,-3,0,3,0,81,83,120,60,40,132.46,435,18.00,-42.00,-1021.00
2024-05-19 08:34:54.662997,0,2,-3,0,3,0,81,83,120,60,40,132.33,435,-4.00,-69.00,-1003.00
2024-05-19 08:34:54.730309,0,2,-3,0,2,0,81,83,120,60,40,132.39,435,6.00,-64.00,-956.00
2024-05-19 08:34:54.866458,0,3,-3,0,2,0,81,83,121,60,40,132.34,435,8.00,-80.00,-1021.00
2024-05-19 08:34:54.934128,0,3,-3,0,2,0,81,83,121,70,40,132.33,436,25.00,-65.00,-955.00
2024-05-19 08:34:55.071079,1,3,-3,0,2,0,81,83,122,70,40,132.32,436,18.00,-46.00,-964.00
2024-05-19 08:34:55.138435,1,3,-3,0,2,0,81,83,123,70,40,132.39,436,28.00,-76.00,-1057.00
2024-05-19 08:34:55.275918,1,3,-3,1,2,0,81,83,124,70,40,132.40,436,37.00,-87.00,-1036.00
2024-05-19 08:34:55.342172,2,2,-3,1,2,0,80,82,123,70,40,132.44,436,76.00,-84.00,-975.00
2024-05-19 08:34:55.490564,3,1,-3,1,2,0,80,82,125,70,40,132.35,436,70.00,-38.00,-960.00
2024-05-19 08:34:55.546056,6,0,-3,1,2,0,80,82,125,70,40,132.39,436,44.00,-55.00,-1039.00
2024-05-19 08:34:55.686809,7,0,-3,0,2,0,80,82,125,70,40,132.31,436,50.00,-57.00,-1004.00
2024-05-19 08:34:55.750134,6,0,-3,0,1,0,80,82,126,70,39,132.35,436,53.00,-74.00,-1000.00
2024-05-19 08:34:55.890442,5,0,-3,0,1,0,80,82,125,70,39,132.40,436,66.00,-58.00,-1004.00
2024-05-19 08:34:55.954213,5,0,-3,-1,0,0,80,82,125,70,39,132.30,437,50.00,-31.00,-1004.00
2024-05-19 08:34:56.095284,4,1,-3,-1,0,0,80,82,125,70,39,132.33,437,65.00,-21.00,-1013.00
2024-05-19 08:34:56.159226,4,1,-3,-1,0,0,80,82,126,70,39,132.28,437,71.00,-25.00,-943.00
2024-05-19 08:34:56.301444,2,1,-2,-1,0,0,80,82,125,70,39,132.25,437,73.00,-38.00,-1025.00
2024-05-19 08:34:56.363062,-1,1,-3,0,0,0,80,83,125,70,39,132.27,437,56.00,-65.00,-973.00
2024-05-19 08:34:56.465404,0,1,-2,0,0,0,80,83,125,70,39,132.26,437,45.00,-44.00,-947.00
2024-05-19 08:34:56.607571,1,1,-3,0,0,0,80,83,126,70,39,132.27,437,50.00,-46.00,-998.00
2024-05-19 08:34:56.669250,1,1,-3,0,0,0,80,83,125,70,39,132.30,437,34.00,-53.00,-963.00
2024-05-19 08:34:56.812098,1,2,-3,0,0,0,80,83,125,70,39,132.37,437,24.00,-46.00,-976.00
2024-05-19 08:34:56.873080,1,2,-3,0,0,0,80,83,125,70,39,132.26,437,28.00,-35.00,-1055.00
2024-05-19 08:34:56.924031,1,3,-3,0,0,0,80,83,126,70,39,132.24,438,4.00,-45.00,-993.00
2024-05-19 08:34:57.120710,1,2,-3,0,0,0,80,83,126,70,39,132.36,438,23.00,-29.00,-979.00
2024-05-19 08:34:57.127958,0,1,-2,0,0,0,80,83,126,70,39,132.40,438,9.00,-76.00,-1006.00
2024-05-19 08:34:57.324005,0,1,-2,0,0,0,80,83,127,70,39,132.44,438,10.00,-105.00,-1001.00
2024-05-19 08:34:57.382979,1,2,-3,0,0,0,80,83,128,70,39,132.37,438,31.00,-92.00,-1039.00
2024-05-19 08:34:57.500456,1,3,-3,0,0,0,80,83,128,70,39,132.48,438,31.00,-73.00,-973.00
2024-05-19 08:34:57.587163,1,4,-3,0,0,0,80,83,129,70,39,132.46,438,56.00,-71.00,-994.00
2024-05-19 08:34:57.638580,2,4,-3,0,0,0,80,83,129,70,39,132.40,438,43.00,-65.00,-965.00
2024-05-19 08:34:57.836510,2,4,-2,0,0,0,80,83,129,70,39,132.44,438,36.00,-63.00,-918.00
2024-05-19 08:34:57.842058,2,3,-2,0,0,0,80,83,128,70,39,132.40,438,40.00,-37.00,-974.00
2024-05-19 08:34:58.041009,3,3,-3,0,0,0,80,83,128,70,39,132.35,439,37.00,-67.00,-1007.00
2024-05-19 08:34:58.046613,3,3,-3,0,0,0,80,83,128,70,39,132.38,439,46.00,-89.00,-1029.00
2024-05-19 08:34:58.148034,3,3,-2,0,0,0,80,83,127,70,39,132.43,439,38.00,-51.00,-992.00
2024-05-19 08:34:58.250074,3,3,-2,0,0,0,80,83,127,70,39,132.47,439,50.00,-53.00,-947.00
2024-05-19 08:34:58.352335,3,3,-2,0,0,0,80,83,127,70,39,132.37,439,35.00,-98.00,-1005.00
2024-05-19 08:34:58.468323,2,4,-3,0,0,0,80,83,126,70,39,132.35,439,27.00,-81.00,-977.00
2024-05-19 08:34:58.556024,2,5,-3,0,0,0,80,83,125,70,39,132.33,439,46.00,-54.00,-963.00
2024-05-19 08:34:58.658207,2,4,1,0,0,0,80,83,125,70,39,132.22,439,47.00,-38.00,-1030.00
2024-05-19 08:34:58.759981,2,3,7,0,0,0,80,83,124,70,38,132.30,439,58.00,-67.00,-1016.00
2024-05-19 08:34:58.861964,2,4,13,0,0,0,80,83,124,70,38,132.32,439,45.00,-62.00,-978.00
2024-05-19 08:34:58.963903,2,3,18,0,0,0,80,83,123,70,38,132.33,440,32.00,-77.00,-981.00
2024-05-19 08:34:59.167155,2,3,24,0,0,0,80,83,123,70,38,132.45,440,38.00,-73.00,-979.00
2024-05-19 08:34:59.168011,1,4,30,0,0,0,80,83,123,70,38,132.44,440,25.00,-62.00,-1014.00
2024-05-19 08:34:59.372340,1,4,36,0,0,0,80,83,123,70,38,132.50,440,21.00,-84.00,-1012.00
2024-05-19 08:34:59.373419,0,5,42,0,0,0,80,83,122,70,38,132.54,440,20.00,-116.00,-997.00
2024-05-19 08:34:59.474470,0,5,48,0,0,0,80,83,122,70,38,132.52,440,18.00,-139.00,-968.00
2024-05-19 08:34:59.576606,0,6,54,0,0,0,80,83,121,70,38,132.47,440,0.00,-134.00,-969.00
2024-05-19 08:34:59.681596,0,7,60,0,0,0,80,83,120,60,38,132.39,440,-26.00,-107.00,-1036.00
2024-05-19 08:34:59.782956,-1,6,66,0,0,0,80,83,121,60,38,132.37,440,-37.00,-113.00,-1009.00
2024-05-19 08:34:59.881845,-2,7,72,0,0,0,80,83,120,60,38,132.40,440,-48.00,-94.00,-987.00
2024-05-19 08:34:59.986875,-3,6,79,0,0,0,80,83,120,60,38,132.35,441,-73.00,-77.00,-961.00
2024-05-19 08:35:00.085833,-4,6,85,0,0,0,80,83,122,60,38,132.29,441,-71.00,-88.00,-979.00
2024-05-19 08:35:00.191559,-6,5,91,0,0,0,80,83,121,70,38,132.24,441,-67.00,-83.00,-989.00
2024-05-19 08:35:00.289790,-6,4,97,0,0,0,80,83,121,70,38,132.20,441,-91.00,-82.00,-965.00
2024-05-19 08:35:00.391839,-6,4,103,0,0,0,80,83,122,70,38,132.25,441,-90.00,-71.00,-1000.00
2024-05-19 08:35:00.498357,-6,3,110,0,0,0,80,83,121,70,38,132.19,441,-122.00,-55.00,-1000.00
2024-05-19 08:35:00.595932,-6,2,116,0,0,0,80,83,122,70,38,132.07,441,-112.00,-38.00,-941.00
2024-05-19 08:35:00.703137,-6,1,122,0,0,0,80,83,122,70,38,132.12,441,-82.00,-41.00,-1066.00
2024-05-19 08:35:00.799968,-6,1,129,0,0,0,80,83,122,70,38,132.05,441,-112.00,-20.00,-950.00
2024-05-19 08:35:00.909477,-6,0,135,0,0,0,80,83,121,70,38,132.05,441,-102.00,34.00,-968.00
2024-05-19 08:35:01.003842,-5,0,142,0,0,0,80,83,121,70,38,132.09,442,-106.00,24.00,-972.00
2024-05-19 08:35:01.113262,-5,-1,147,0,0,0,80,83,121,70,38,132.01,442,-102.00,18.00,-1032.00
2024-05-19 08:35:01.156865,-4,-2,153,0,0,0,80,83,120,70,38,132.08,442,-113.00,59.00,-972.00
2024-05-19 08:35:01.324610,-4,-3,159,0,0,0,80,83,120,70,38,132.14,442,-87.00,53.00,-999.00
2024-05-19 08:35:01.414138,-4,-4,165,0,0,0,80,83,120,60,38,132.06,442,-96.00,53.00,-985.00
2024-05-19 08:35:01.462796,-4,-4,171,0,0,0,80,83,119,60,38,132.13,442,-83.00,44.00,-1040.00
2024-05-19 08:35:01.625090,-4,-2,177,0,0,0,80,83,119,60,38,132.28,442,-20.00,46.00,-1057.00
2024-05-19 08:35:01.667265,-3,-3,-175,-1,0,0,80,83,119,60,38,132.30,442,0.00,50.00,-1008.00
2024-05-19 08:35:01.829949,0,-4,-168,-2,0,0,80,83,118,60,38,132.28,442,26.00,67.00,-1043.00
2024-05-19 08:35:01.870734,2,-2,-162,-2,0,0,80,83,118,60,38,132.22,442,5.00,71.00,-1004.00
2024-05-19 08:35:02.034665,3,-1,-156,-1,0,0,80,83,118,60,38,132.25,443,4.00,55.00,-990.00
2024-05-19 08:35:02.075011,2,-1,-150,-1,0,0,80,83,118,60,38,132.23,443,3.00,41.00,-1011.00
2024-05-19 08:35:02.239416,2,-1,-144,0,0,0,80,83,118,60,38,132.21,443,20.00,58.00,-993.00
2024-05-19 08:35:02.278717,1,-1,-139,0,0,0,80,83,117,60,38,132.12,443,26.00,40.00,-1038.00
2024-05-19 08:35:02.444354,1,0,-133,0,0,0,80,83,117,60,38,132.17,443,32.00,70.00,-998.00
2024-05-19 08:35:02.482781,1,0,-127,0,0,0,80,83,117,60,38,132.13,443,36.00,44.00,-1024.00
2024-05-19 08:35:02.648549,2,-1,-121,0,0,0,80,83,117,60,38,132.09,443,45.00,23.00,-1018.00
2024-05-19 08:35:02.686712,2,-1,-115,0,0,0,80,83,117,60,38,132.15,443,64.00,39.00,-1046.00
2024-05-19 08:35:02.853594,2,0,-109,0,0,0,80,83,118,60,38,132.15,443,39.00,-3.00,-1015.00
2024-05-19 08:35:02.890698,2,0,-102,0,0,0,80,83,118,60,38,132.21,443,50.00,39.00,-984.00
2024-05-19 08:35:03.058461,2,0,-96,0,0,0,80,83,119,60,38,132.19,444,43.00,10.00,-994.00
2024-05-19 08:35:03.094709,2,0,-90,0,0,0,80,83,119,60,38,132.19,444,47.00,-18.00,-1012.00
2024-05-19 08:35:03.263060,3,0,-84,0,0,0,80,83,120,60,38,132.14,444,47.00,-25.00,-986.00
2024-05-19 08:35:03.298683,3,1,-78,0,0,0,80,83,121,60,38,132.14,444,50.00,-2.00,-952.00
2024-05-19 08:35:03.400748,3,1,-72,0,0,0,80,82,121,70,38,132.21,444,26.00,-1.00,-983.00
2024-05-19 08:35:03.570524,2,1,-66,0,0,0,80,82,121,70,38,132.16,444,46.00,-9.00,-967.00
2024-05-19 08:35:03.604664,2,1,-60,0,0,0,80,82,121,70,38,132.20,444,42.00,-9.00,-960.00
2024-05-19 08:35:03.775292,2,1,-55,0,0,0,80,82,122,60,38,132.18,444,36.00,-35.00,-1022.00
2024-05-19 08:35:03.808676,1,2,-49,0,0,0,80,82,122,60,38,132.16,444,38.00,-26.00,-998.00
2024-05-19 08:35:03.980261,1,1,-44,0,0,0,80,82,123,60,38,132.25,444,33.00,-3.00,-1041.00
2024-05-19 08:35:04.012643,1,1,-38,0,0,0,80,82,124,60,38,132.23,445,38.00,14.00,-978.00
2024-05-19 08:35:04.184673,1,1,-32,0,0,0,80,82,125,70,38,132.25,445,32.00,-36.00,-995.00
2024-05-19 08:35:04.216728,1,1,-26,0,0,0,80,82,127,70,38,132.29,445,35.00,-62.00,-1034.00
2024-05-19 08:35:04.389596,1,2,-21,0,0,0,80,82,129,70,38,132.35,445,21.00,-14.00,-950.00
2024-05-19 08:35:04.420678,1,2,-16,0,0,0,80,82,132,70,38,132.31,445,14.00,-58.00,-956.00
2024-05-19 08:35:04.594712,1,2,-13,0,0,0,80,82,133,70,38,132.37,445,11.00,-53.00,-1012.00
2024-05-19 08:35:04.624640,1,2,-10,0,0,0,80,82,135,70,38,132.34,445,19.00,-53.00,-1088.00
2024-05-19 08:35:04.802221,1,3,-8,0,0,0,80,82,136,70,37,132.40,445,17.00,-61.00,-1007.00
2024-05-19 08:35:04.828621,0,3,-6,0,0,0,80,82,136,70,37,132.45,445,13.00,-44.00,-943.00
2024-05-19 08:35:04.930718,0,3,-5,0,0,0,80,82,136,70,37,132.44,445,-9.00,-58.00,-1027.00
2024-05-19 08:35:05.106792,0,3,-4,0,0,0,80,82,135,80,37,132.39,446,0.00,-47.00,-906.00
2024-05-19 08:35:05.106970,0,3,-3,0,0,0,80,82,135,80,37,132.37,446,-17.00,-50.00,-920.00
2024-05-19 08:35:05.185694,0,3,-3,0,0,0,80,82,134,70,37,132.40,446,-1.00,-39.00,-973.00
2024-05-19 08:35:05.315268,0,3,-3,0,0,0,80,82,132,70,37,132.38,446,-16.00,-71.00,-996.00
2024-05-19 08:35:05.440678,1,3,-3,0,0,1,80,83,131,70,37,132.38,446,-7.00,-72.00,-994.00
2024-05-19 08:35:05.618435,1,3,-3,0,0,1,80,83,129,70,37,132.35,446,-4.00,-51.00,-961.00
2024-05-19 08:35:05.618553,1,2,-3,0,0,0,80,83,129,70,37,132.36,446,10.00,-30.00,-934.00
2024-05-19 08:35:05.695700,1,2,-3,0,0,0,80,83,127,70,37,132.37,446,22.00,-57.00,-998.00
2024-05-19 08:35:05.823871,1,2,-3,0,0,0,80,83,126,70,37,132.38,446,2.00,-58.00,-985.00
2024-05-19 08:35:05.899760,1,2,-3,0,0,0,80,83,125,70,37,132.33,446,10.00,-36.00,-1036.00
2024-05-19 08:35:06.029728,1,2,-3,0,0,0,80,83,125,70,37,132.33,447,22.00,-56.00,-1067.00
2024-05-19 08:35:06.103561,1,2,-3,0,0,0,80,83,124,70,37,132.35,447,21.00,-51.00,-1062.00
2024-05-19 08:35:06.233119,1,1,-3,0,0,0,80,83,124,70,37,132.34,447,-2.00,-30.00,-999.00
2024-05-19 08:35:06.307657,1,1,-3,0,0,0,80,83,124,70,37,132.34,447,16.00,-46.00,-1007.00
2024-05-19 08:35:06.437646,1,1,-3,0,0,0,80,83,124,70,37,132.33,447,14.00,-55.00,-993.00
2024-05-19 08:35:06.511640,1,2,-3,0,0,0,80,83,125,70,37,132.35,447,14.00,-42.00,-976.00
2024-05-19 08:35:06.642561,1,1,-3,0,0,0,80,83,125,70,37,132.34,447,12.00,-48.00,-1012.00
2024-05-19 08:35:06.715858,1,1,-3,0,0,0,80,83,125,70,37,132.38,447,28.00,-42.00,-1021.00
2024-05-19 08:35:06.848871,1,1,-3,0,0,0,80,83,126,70,37,132.44,447,21.00,-46.00,-996.00
2024-05-19 08:35:06.919498,1,1,-3,0,0,0,80,83,125,70,37,132.40,447,2.00,-65.00,-1032.00
2024-05-19 08:35:07.051817,1,2,-3,0,0,0,80,83,126,70,37,132.43,448,0.00,-32.00,-1015.00
2024-05-19 08:35:07.123482,1,2,-7,0,0,0,80,83,126,70,37,132.40,448,-2.00,-40.00,-1005.00
2024-05-19 08:35:07.257805,1,2,-13,0,0,0,80,83,125,70,37,132.32,448,23.00,-53.00,-1067.00
2024-05-19 08:35:07.327488,1,1,-19,0,0,0,80,83,124,70,37,132.37,448,20.00,-35.00,-1026.00
2024-05-19 08:35:07.429490,1,1,-31,0,0,0,80,82,124,70,37,132.29,448,10.00,-70.00,-990.00
2024-05-19 08:35:07.563849,1,1,-37,0,0,0,80,82,124,70,37,132.33,448,11.00,-60.00,-1016.00
2024-05-19 08:35:07.633605,2,1,-43,0,0,0,80,82,123,70,37,132.35,448,51.00,-8.00,-1021.00
2024-05-19 08:35:07.770103,2,0,-48,0,0,0,80,82,123,70,37,132.38,448,15.00,-27.00,-1006.00
2024-05-19 08:35:07.837611,2,0,-54,0,0,0,80,82,123,70,37,132.30,448,32.00,-33.00,-1027.00
2024-05-19 08:35:07.973413,1,0,-59,0,0,0,80,82,122,70,37,132.27,449,21.00,-26.00,-995.00
2024-05-19 08:35:08.042186,1,0,-65,0,0,0,80,82,121,70,37,132.33,449,-3.00,-22.00,-994.00
2024-05-19 08:35:08.178173,1,0,-70,0,0,0,80,82,120,70,37,132.25,449,29.00,-9.00,-1087.00
2024-05-19 08:35:08.245456,1,0,-76,0,0,0,80,82,120,70,37,132.24,449,7.00,-14.00,-984.00
2024-05-19 08:35:08.385088,1,0,-81,0,0,0,80,82,119,70,37,132.33,449,18.00,-3.00,-1007.00
2024-05-19 08:35:08.449502,0,0,-86,0,0,0,80,83,119,60,37,132.41,449,-18.00,5.00,-980.00
2024-05-19 08:35:08.588362,0,0,-91,0,0,0,80,83,118,60,37,132.34,449,14.00,-7.00,-1017.00
2024-05-19 08:35:08.653418,0,0,-96,0,0,0,80,83,117,60,37,132.29,449,-23.00,8.00,-981.00
2024-05-19 08:35:08.792841,0,0,-102,0,0,0,80,83,116,60,37,132.45,449,-5.00,1.00,-1042.00
2024-05-19 08:35:08.857676,0,0,-107,0,0,0,80,83,116,60,37,132.50,449,-17.00,-8.00,-991.00
2024-05-19 08:35:08.997689,0,0,-113,0,0,0,80,83,115,60,37,132.27,450,-37.00,1.00,-965.00
2024-05-19 08:35:09.061409,0,0,-118,0,0,0,80,83,115,60,37,132.33,450,-25.00,-11.00,-965.00
2024-05-19 08:35:09.203341,0,1,-124,0,0,0,80,83,115,60,37,132.26,450,0.00,-9.00,-1007.00
2024-05-19 08:35:09.265411,0,1,-129,0,0,0,80,83,115,60,37,132.35,450,-22.00,-15.00,-1019.00
2024-05-19 08:35:09.317711,0,2,-136,0,0,0,80,83,115,60,37,132.30,450,-4.00,-40.00,-1062.00
2024-05-19 08:35:09.509838,0,2,-142,0,0,0,79,82,115,60,37,132.44,450,-32.00,-25.00,-1004.00
2024-05-19 08:35:09.571271,0,2,-149,0,0,0,79,82,115,60,37,132.46,450,5.00,-53.00,-974.00
2024-05-19 08:35:09.622419,1,2,-155,0,0,0,79,82,115,60,37,132.37,450,5.00,-19.00,-979.00
2024-05-19 08:35:09.816891,0,3,-161,0,0,0,79,82,115,60,36,132.39,450,25.00,-46.00,-1035.00
2024-05-19 08:35:09.826316,2,2,-167,0,0,0,79,82,115,60,36,132.47,450,30.00,-55.00,-1011.00
2024-05-19 08:35:10.021668,2,3,-172,0,0,0,79,82,116,60,36,132.35,451,42.00,-45.00,-981.00
2024-05-19 08:35:10.030536,2,2,-177,0,0,0,79,82,116,60,36,132.43,451,29.00,-25.00,-1022.00
2024-05-19 08:35:10.231068,3,1,177,0,0,0,79,82,116,60,36,132.46,451,30.00,-58.00,-988.00
2024-05-19 08:35:10.234331,3,1,172,0,0,0,79,82,116,60,36,132.43,451,31.00,-36.00,-1009.00
2024-05-19 08:35:10.431805,3,2,167,0,0,0,79,82,117,60,36,132.50,451,53.00,-27.00,-977.00
2024-05-19 08:35:10.438328,3,2,163,0,0,0,80,82,117,60,36,132.49,451,29.00,-14.00,-1002.00
2024-05-19 08:35:10.635965,3,1,158,0,0,0,80,82,116,60,36,132.51,451,23.00,-23.00,-1004.00
2024-05-19 08:35:10.642276,3,1,154,0,0,0,80,82,117,60,36,132.42,451,14.00,-9.00,-1006.00
2024-05-19 08:35:10.842050,1,0,149,0,0,0,80,82,116,60,36,132.52,451,20.00,-6.00,-980.00
2024-05-19 08:35:10.846202,0,0,145,0,0,0,80,82,115,60,36,132.63,451,18.00,-36.00,-990.00
2024-05-19 08:35:11.045601,1,1,140,0,0,0,80,82,116,60,36,132.46,452,32.00,-40.00,-981.00
2024-05-19 08:35:11.050265,2,2,134,0,0,0,80,82,115,60,36,132.36,452,-16.00,20.00,-1013.00
2024-05-19 08:35:11.250440,1,0,129,0,0,0,80,82,115,60,36,132.61,452,20.00,-23.00,-1046.00
2024-05-19 08:35:11.254271,1,0,124,0,0,0,80,82,115,60,36,132.58,452,13.00,-12.00,-1044.00
2024-05-19 08:35:11.455299,1,1,118,0,0,0,80,82,115,60,36,132.45,452,19.00,2.00,-1023.00
2024-05-19 08:35:11.458407,1,1,113,0,0,0,80,82,116,60,36,132.43,452,17.00,6.00,-1019.00
2024-05-19 08:35:11.560554,0,0,107,0,0,0,80,82,115,60,36,132.40,452,-2.00,15.00,-987.00
2024-05-19 08:35:11.662292,0,0,102,0,0,0,80,82,115,60,36,132.68,452,-16.00,-3.00,-967.00
2024-05-19 08:35:11.764587,0,0,98,0,-1,0,80,82,115,60,36,132.73,452,-33.00,0.00,-946.00
2024-05-19 08:35:11.866422,-1,-1,93,0,-1,0,80,82,114,60,36,132.57,452,31.00,-113.00,-1106.00
2024-05-19 08:35:12.069568,-1,0,90,1,0,0,80,82,113,60,36,132.69,453,9.00,-71.00,-989.00
2024-05-19 08:35:12.070585,-1,1,90,1,0,0,80,82,113,60,36,132.69,453,-15.00,-49.00,-959.00
2024-05-19 08:35:12.172165,-1,2,93,1,0,0,80,82,112,60,36,132.87,453,11.00,-68.00,-1001.00
2024-05-19 08:35:12.274489,0,4,100,1,0,0,80,82,111,60,36,132.63,453,0.00,-12.00,-1044.00
2024-05-19 08:35:12.377427,0,3,109,1,0,0,80,82,111,60,36,132.63,453,0.00,-40.00,-1072.00
2024-05-19 08:35:12.478661,0,2,117,0,0,0,80,83,111,60,36,132.60,453,-36.00,21.00,-1012.00
2024-05-19 08:35:12.581591,0,2,122,0,0,0,80,83,111,60,36,132.48,453,3.00,-57.00,-1049.00
2024-05-19 08:35:12.683792,0,1,121,0,0,0,80,83,111,60,36,132.47,453,-29.00,-4.00,-941.00
2024-05-19 08:35:12.784332,-1,0,115,0,0,0,80,83,111,60,36,132.36,453,-18.00,5.00,-1055.00
2024-05-19 08:35:12.886243,-1,0,104,0,0,0,80,83,111,60,36,132.51,453,-18.00,-4.00,-1019.00
2024-05-19 08:35:12.991290,-1,1,93,0,0,0,80,83,112,60,36,132.55,454,-11.00,-15.00,-1037.00
2024-05-19 08:35:13.090943,-1,0,82,0,0,0,80,83,112,60,36,132.54,454,-27.00,-13.00,-991.00
2024-05-19 08:35:13.196768,-1,1,72,0,0,0,80,83,113,60,36,132.47,454,-5.00,-32.00,-1029.00
2024-05-19 08:35:13.243056,0,1,63,0,0,0,80,83,113,60,36,132.46,454,-39.00,-18.00,-1008.00
2024-05-19 08:35:13.400791,-1,0,53,0,0,0,80,83,115,60,36,132.33,454,-26.00,-13.00,-1008.00
2024-05-19 08:35:13.498183,0,0,44,0,0,0,79,82,115,60,36,132.37,454,-9.00,-27.00,-967.00
2024-05-19 08:35:13.605505,0,1,34,0,0,0,79,82,116,60,36,132.46,454,-13.00,-26.00,-964.00
2024-05-19 08:35:13.651257,1,0,25,0,0,0,79,82,117,60,35,132.48,454,-17.00,-14.00,-919.00
2024-05-19 08:35:13.810847,0,0,15,0,0,0,79,82,117,60,35,132.38,454,12.00,-12.00,-1000.00
2024-05-19 08:35:13.855114,0,0,6,0,0,0,79,82,117,60,35,132.45,454,6.00,-21.00,-1014.00
2024-05-19 08:35:14.015539,0,1,0,0,0,0,79,82,118,60,35,132.41,455,-3.00,-12.00,-998.00
2024-05-19 08:35:14.059103,0,1,-4,0,0,0,79,82,118,60,35,132.43,455,8.00,-33.00,-1005.00
2024-05-19 08:35:14.220107,0,1,-8,0,0,0,79,82,119,60,35,132.39,455,0.00,-33.00,-1003.00
2024-05-19 08:35:14.263171,0,1,-11,0,0,0,79,82,120,60,35,132.46,455,-15.00,-10.00,-1017.00
2024-05-19 08:35:14.425676,0,0,-15,0,0,0,79,82,120,60,35,132.45,455,-1.00,-43.00,-969.00
2024-05-19 08:35:14.467173,0,1,-18,0,0,0,79,82,119,60,35,132.45,455,-15.00,-25.00,-1016.00
2024-05-19 08:35:14.630604,0,1,-21,0,0,0,79,82,121,70,35,132.41,455,-14.00,-8.00,-1012.00
2024-05-19 08:35:14.671604,0,1,-24,0,0,0,79,82,121,70,35,132.41,455,-17.00,-23.00,-999.00
2024-05-19 08:35:14.835054,0,1,-27,0,0,0,79,82,120,70,35,132.51,455,-22.00,-26.00,-1011.00
2024-05-19 08:35:14.875539,0,1,-29,0,0,0,79,82,121,70,35,132.51,455,-29.00,-6.00,-1019.00
2024-05-19 08:35:15.039737,-1,1,-32,0,0,0,79,82,121,70,35,132.43,456,0.00,-30.00,-957.00
2024-05-19 08:35:15.079149,0,0,-34,0,0,0,79,82,121,70,35,132.45,456,-19.00,20.00,-985.00
2024-05-19 08:35:15.244087,0,0,-34,0,0,0,79,82,121,70,35,132.43,456,0.00,-5.00,-971.00
2024-05-19 08:35:15.283094,0,0,-34,0,0,0,79,82,120,70,35,132.45,456,-12.00,8.00,-987.00
2024-05-19 08:35:15.453758,0,0,-34,0,0,0,79,82,120,70,35,132.53,456,-15.00,-12.00,-1012.00
2024-05-19 08:35:15.487885,-1,0,-33,0,0,0,79,82,121,70,35,132.52,456,-2.00,-11.00,-1034.00
2024-05-19 08:35:15.655528,-1,0,-33,0,0,0,79,82,120,70,35,132.47,456,-44.00,-16.00,-1008.00
2024-05-19 08:35:15.691510,-1,0,-33,0,0,0,79,82,120,70,35,132.46,456,-50.00,-13.00,-977.00
2024-05-19 08:35:15.861626,-1,0,-33,0,0,0,79,82,120,70,35,132.48,456,-17.00,-14.00,-981.00
2024-05-19 08:35:15.895098,-1,0,-33,0,0,0,79,82,120,70,35,132.45,456,-12.00,-25.00,-990.00
2024-05-19 08:35:16.020298,-1,0,-33,0,0,0,79,82,120,70,35,132.50,457,-15.00,-18.00,-980.00
2024-05-19 08:35:16.099333,0,0,-33,0,0,0,79,82,120,70,35,132.54,457,-14.00,-47.00,-1013.00
2024-05-19 08:35:16.201128,0,0,-33,0,0,0,79,82,120,70,35,132.34,457,-4.00,-25.00,-1033.00
2024-05-19 08:35:16.370867,0,0,-33,0,0,0,79,82,120,70,35,132.38,457,-30.00,-36.00,-997.00
2024-05-19 08:35:16.405150,0,1,-33,0,0,0,79,82,120,70,35,132.44,457,-16.00,-16.00,-989.00
2024-05-19 08:35:16.576351,0,1,-33,0,0,0,79,82,119,70,35,132.44,457,-42.00,-33.00,-947.00
2024-05-19 08:35:16.609413,0,2,-33,0,0,0,79,82,119,60,35,132.55,457,-5.00,-29.00,-1013.00
2024-05-19 08:35:16.781538,0,2,-33,0,0,0,79,82,119,60,35,132.43,457,-14.00,-28.00,-1023.00
2024-05-19 08:35:16.812928,0,2,-33,0,0,0,79,82,120,60,35,132.42,457,-21.00,-33.00,-1006.00
2024-05-19 08:35:16.984913,0,2,-33,0,0,0,79,82,119,60,35,132.46,457,-16.00,-44.00,-972.00
2024-05-19 08:35:17.017590,0,2,-33,0,0,0,79,82,119,60,35,132.44,458,-6.00,-49.00,-1007.00
2024-05-19 08:35:17.191627,0,2,-33,0,0,0,79,82,119,60,35,132.39,458,-7.00,-44.00,-1034.00
2024-05-19 08:35:17.221011,0,2,-33,0,0,0,79,82,120,60,35,132.51,458,-18.00,-48.00,-992.00
2024-05-19 08:35:17.396436,0,2,-33,0,0,0,79,82,119,60,35,132.46,458,-27.00,-29.00,-966.00
2024-05-19 08:35:17.396638,-1,2,-33,0,0,0,79,82,119,60,35,132.54,458,5.00,-52.00,-1075.00
2024-05-19 08:35:17.476052,0,2,-33,0,0,0,79,82,119,60,35,132.43,458,-2.00,-59.00,-1093.00
2024-05-19 08:35:17.600807,0,2,-33,0,0,0,79,82,120,60,35,132.47,458,10.00,-35.00,-972.00
2024-05-19 08:35:17.680018,0,2,-33,0,0,0,79,82,120,60,34,132.46,458,-8.00,-29.00,-981.00
2024-05-19 08:35:17.805985,0,3,-34,0,0,0,79,82,121,60,34,132.50,458,13.00,-23.00,-1021.00
2024-05-19 08:35:17.884086,1,3,-34,0,0,0,79,82,123,60,34,132.39,458,0.00,-28.00,-971.00
2024-05-19 08:35:18.009310,1,2,-34,0,0,0,79,82,123,70,34,132.43,459,22.00,-42.00,-1020.00
2024-05-19 08:35:18.088020,1,2,-33,0,0,0,79,82,124,70,34,132.48,459,0.00,-61.00,-953.00
2024-05-19 08:35:18.214699,1,1,-33,0,0,0,79,82,125,70,34,132.50,459,11.00,-11.00,-961.00
2024-05-19 08:35:18.291956,2,1,-33,0,0,0,79,82,126,70,34,132.50,459,20.00,-36.00,-948.00
2024-05-19 08:35:18.418758,2,1,-33,0,0,0,79,82,126,70,34,132.48,459,14.00,-31.00,-997.00
2024-05-19 08:35:18.496392,2,0,-33,0,0,0,80,82,127,70,34,132.59,459,-15.00,-40.00,-1003.00
2024-05-19 08:35:18.623676,2,1,-33,0,0,0,80,82,127,70,34,132.61,459,34.00,-39.00,-976.00
2024-05-19 08:35:18.700105,1,0,-33,0,0,0,80,82,127,70,34,132.67,459,24.00,-44.00,-970.00
2024-05-19 08:35:18.835568,1,1,-33,0,0,0,80,82,127,70,34,132.70,459,11.00,-30.00,-996.00
2024-05-19 08:35:18.904642,1,1,-33,0,0,0,80,82,125,70,34,132.59,459,4.00,-39.00,-997.00
2024-05-19 08:35:19.033013,1,2,-33,0,0,0,80,82,125,70,34,132.60,460,26.00,-47.00,-1041.00
2024-05-19 08:35:19.107897,1,2,-33,0,0,0,80,82,123,70,34,132.67,460,4.00,-32.00,-1004.00
2024-05-19 08:35:19.244692,0,1,-32,0,0,0,80,82,121,70,34,132.66,460,28.00,-49.00,-995.00
2024-05-19 08:35:19.311970,1,1,-32,0,0,0,80,82,120,70,34,132.48,460,42.00,-61.00,-1021.00
2024-05-19 08:35:19.442544,1,2,-32,0,0,0,80,82,118,70,34,132.63,460,0.00,-42.00,-1027.00
2024-05-19 08:35:19.516090,1,1,-33,0,0,0,79,82,118,70,34,132.55,460,3.00,-33.00,-980.00
2024-05-19 08:35:19.647441,1,2,-33,0,0,0,79,82,117,60,34,132.50,460,4.00,0.00,-1019.00
2024-05-19 08:35:19.719940,0,2,-33,0,0,0,79,82,116,60,34,132.42,460,5.00,-16.00,-1013.00
2024-05-19 08:35:19.852226,0,2,-33,0,0,0,79,82,115,60,34,132.42,460,18.00,-34.00,-1008.00
2024-05-19 08:35:19.924015,0,1,-33,0,0,0,79,82,115,60,34,132.47,460,23.00,-28.00,-1023.00
2024-05-19 08:35:20.025914,0,0,-33,0,0,0,79,82,116,60,34,132.44,461,1.00,-29.00,-1005.00
2024-05-19 08:35:20.166250,0,1,-33,0,0,0,79,82,116,60,34,132.50,461,30.00,-23.00,-1027.00
2024-05-19 08:35:20.230520,0,1,-33,0,0,0,79,82,116,60,34,132.43,461,9.00,-19.00,-1017.00
2024-05-19 08:35:20.365487,1,1,-33,0,0,0,79,82,118,60,34,132.54,461,28.00,-43.00,-1059.00
2024-05-19 08:35:20.433911,1,1,-33,0,0,0,79,82,119,60,34,132.44,461,12.00,-38.00,-972.00
2024-05-19 08:35:20.573623,1,0,-33,0,0,0,78,82,120,60,34,132.51,461,9.00,-27.00,-998.00
2024-05-19 08:35:20.637908,1,1,-33,0,0,0,78,82,121,60,34,132.55,461,16.00,-42.00,-991.00
2024-05-19 08:35:20.774503,0,1,-33,0,0,0,78,82,122,60,34,132.54,461,-4.00,-41.00,-979.00
2024-05-19 08:35:20.842466,0,1,-33,0,0,0,78,82,122,70,34,132.53,461,-10.00,-39.00,-981.00
2024-05-19 08:35:20.983747,0,0,-33,0,0,0,78,82,122,70,34,132.50,461,-8.00,-37.00,-940.00
2024-05-19 08:35:21.045844,0,2,-33,0,0,0,78,82,123,70,34,132.57,462,10.00,-33.00,-1019.00
2024-05-19 08:35:21.097079,0,2,-33,0,0,0,78,82,122,70,34,132.54,462,12.00,-38.00,-1046.00
2024-05-19 08:35:21.287576,0,2,-33,0,0,0,78,82,122,70,34,132.47,462,-4.00,-50.00,-996.00
2024-05-19 08:35:21.300743,0,2,-33,0,0,0,78,82,122,70,34,132.45,462,11.00,-75.00,-995.00
2024-05-19 08:35:21.497487,0,3,-33,0,0,0,78,82,121,70,34,132.50,462,13.00,-86.00,-1001.00
2024-05-19 08:35:21.504757,0,5,-33,0,0,0,80,82,122,70,34,132.44,462,7.00,-52.00,-1104.00
2024-05-19 08:35:21.695607,1,6,-34,0,0,0,80,82,122,70,34,132.42,462,-8.00,-71.00,-992.00
2024-05-19 08:35:21.708709,0,5,-34,0,0,0,80,82,123,70,34,132.43,462,15.00,-53.00,-987.00
2024-05-19 08:35:21.900460,0,4,-34,0,0,0,80,82,123,70,34,132.43,462,17.00,-30.00,-966.00
2024-05-19 08:35:21.912734,0,3,-34,0,0,0,80,82,123,70,34,132.34,462,26.00,-60.00,-1025.00
2024-05-19 08:35:22.014917,1,3,-34,0,0,0,80,82,124,70,34,132.30,463,38.00,-32.00,-980.00
2024-05-19 08:35:22.117079,1,2,-34,0,0,0,80,82,123,70,34,132.29,463,34.00,-55.00,-1019.00
2024-05-19 08:35:22.311560,1,2,-34,0,0,0,80,82,123,70,34,132.36,463,23.00,-38.00,-943.00
2024-05-19 08:35:22.320911,1,2,-33,0,0,0,80,82,123,70,34,132.38,463,31.00,-13.00,-993.00
2024-05-19 08:35:22.516564,2,1,-33,0,0,0,80,82,123,70,34,132.43,463,34.00,-38.00,-1051.00
2024-05-19 08:35:22.524769,2,2,-33,0,0,0,80,82,123,70,34,132.41,463,0.00,-29.00,-957.00
2024-05-19 08:35:22.720643,1,2,-33,0,0,0,80,82,123,70,34,132.44,463,19.00,-33.00,-1031.00
2024-05-19 08:35:22.728700,1,1,-33,0,0,0,80,82,122,70,34,132.48,463,29.00,-24.00,-990.00
2024-05-19 08:35:22.924422,1,0,-33,0,0,0,80,82,122,70,34,132.60,463,16.00,-28.00,-974.00
2024-05-19 08:35:22.932759,1,1,-33,0,0,0,80,82,122,70,34,132.54,464,2.00,-43.00,-967.00
2024-05-19 08:35:23.129526,1,1,-33,0,0,0,80,82,122,70,34,132.50,464,10.00,-50.00,-1002.00
2024-05-19 08:35:23.136773,1,1,-33,0,0,0,80,82,122,70,34,132.43,464,-1.00,-47.00,-1024.00
2024-05-19 08:35:23.335205,1,2,-33,0,0,0,80,82,121,70,34,132.50,464,-2.00,-61.00,-956.00
2024-05-19 08:35:23.340712,1,3,-33,0,0,0,80,82,122,60,34,132.45,464,5.00,-56.00,-1025.00
2024-05-19 08:35:23.538344,1,4,-33,0,0,0,80,82,123,70,34,132.44,464,6.00,-58.00,-1015.00
2024-05-19 08:35:23.544749,0,4,-33,0,0,0,79,82,123,70,34,132.50,464,32.00,-48.00,-1007.00
2024-05-19 08:35:23.743700,0,3,-33,0,0,0,79,82,124,70,34,132.48,464,21.00,-47.00,-1005.00
2024-05-19 08:35:23.748795,0,3,-33,0,0,0,79,82,125,70,33,132.43,464,16.00,-60.00,-1004.00
2024-05-19 08:35:23.954078,1,3,-33,0,0,0,79,82,125,70,33,132.42,464,11.00,-60.00,-992.00
2024-05-19 08:35:23.954225,0,2,-33,0,0,0,79,82,126,70,33,132.46,465,31.00,-32.00,-989.00
2024-05-19 08:35:24.055439,0,2,-33,0,0,0,79,82,126,70,33,132.43,465,22.00,-36.00,-1018.00
2024-05-19 08:35:24.255611,0,2,-33,0,0,0,79,82,127,70,33,132.44,465,24.00,-57.00,-974.00
2024-05-19 08:35:24.258741,0,2,-33,0,0,0,79,82,126,70,33,132.41,465,-6.00,-63.00,-920.00
2024-05-19 08:35:24.364325,0,3,-33,0,0,0,79,82,127,70,33,132.44,465,26.00,-53.00,-1016.00
2024-05-19 08:35:24.462649,0,4,-33,0,0,0,79,82,126,70,33,132.40,465,1.00,-42.00,-962.00
2024-05-19 08:35:24.565421,0,4,-33,0,0,0,79,82,126,70,33,132.41,465,-5.00,-49.00,-986.00
2024-05-19 08:35:24.667811,0,3,-33,0,0,0,79,82,126,70,33,132.46,465,11.00,-62.00,-1011.00
2024-05-19 08:35:24.717651,0,2,-33,0,0,0,79,82,126,70,33,132.47,465,27.00,-52.00,-1013.00
