TS,pitch,roll,yaw,vgx,vgy,vgz,templ,temph,tof,h,bat,baro,time,agx,agy,agz
2024-05-17 16:07:49.310915,0,0,-12,0,0,0,71,73,10,0,70,190.60,86,1.00,-2.00,-1001.00
2024-05-17 16:07:49.451247,0,0,-12,0,0,0,71,72,10,0,70,190.63,86,2.00,-4.00,-1000.00
2024-05-17 16:07:49.514738,0,0,-12,0,0,0,71,72,10,0,70,190.57,86,1.00,-4.00,-1003.00
2024-05-17 16:07:49.655988,0,0,-12,0,0,0,71,72,10,0,70,190.59,86,2.00,-5.00,-998.00
2024-05-17 16:07:49.718959,0,0,-12,0,0,0,71,72,10,0,70,190.60,86,3.00,-2.00,-999.00
2024-05-17 16:07:49.860654,0,0,-12,0,0,0,71,72,10,0,70,190.56,86,2.00,-4.00,-1000.00
2024-05-17 16:07:49.922754,0,0,-12,0,0,0,71,72,10,0,70,190.59,86,3.00,-4.00,-1001.00
2024-05-17 16:07:50.065699,0,0,-12,0,0,0,71,72,10,0,70,190.53,86,2.00,-3.00,-998.00
2024-05-17 16:07:50.126798,0,0,-12,0,0,0,71,72,10,0,70,190.58,86,2.00,-4.00,-998.00
2024-05-17 16:07:50.177752,0,0,-12,0,0,0,71,72,10,0,70,190.56,86,4.00,-1.00,-999.00
2024-05-17 16:07:50.372820,0,0,-12,0,0,0,71,72,10,0,70,190.62,86,3.00,-2.00,-1000.00
2024-05-17 16:07:50.432611,0,0,-12,0,0,0,71,73,10,0,70,190.59,86,2.00,-4.00,-997.00
2024-05-17 16:07:50.577494,0,0,-12,0,0,0,71,73,10,0,70,190.58,86,3.00,-2.00,-1000.00
2024-05-17 16:07:50.637085,0,0,-12,0,0,0,71,73,10,0,70,190.52,86,3.00,-1.00,-999.00
2024-05-17 16:07:50.688335,0,0,-12,0,0,0,71,73,10,0,70,190.54,86,3.00,-3.00,-999.00
2024-05-17 16:07:50.884724,0,0,-12,0,0,0,71,73,10,0,70,190.57,86,3.00,-3.00,-1001.00
2024-05-17 16:07:50.891685,0,0,-12,0,0,0,71,73,10,0,70,190.60,86,3.00,-3.00,-1002.00
2024-05-17 16:07:50.993803,0,0,-12,0,0,0,71,73,10,0,70,190.62,86,2.00,-3.00,-1001.00
2024-05-17 16:07:51.191966,0,0,-12,0,0,0,71,73,10,0,70,190.54,86,4.00,-1.00,-999.00
2024-05-17 16:07:51.197905,0,0,-12,0,0,0,71,73,10,0,70,190.65,86,2.00,-3.00,-1000.00
2024-05-17 16:07:51.396959,0,0,-12,0,0,0,71,73,10,0,70,190.57,86,3.00,-1.00,-1001.00
2024-05-17 16:07:51.401943,0,0,-12,0,0,0,71,74,10,0,70,190.60,86,3.00,-3.00,-999.00
2024-05-17 16:07:51.556628,0,0,-12,0,0,0,71,74,10,0,70,190.59,86,3.00,-3.00,-1002.00
2024-05-17 16:07:51.605624,0,0,-12,0,0,0,71,74,10,0,70,190.58,86,2.00,-1.00,-1000.00
2024-05-17 16:07:51.806238,0,0,-12,0,0,0,71,74,10,0,70,190.58,86,2.00,-4.00,-999.00
2024-05-17 16:07:51.809673,0,0,-12,0,0,0,71,74,10,0,70,190.58,86,3.00,-4.00,-1000.00
2024-05-17 16:07:51.911666,0,0,-12,0,0,0,71,74,10,0,70,190.58,86,0.00,-1.00,-1002.00
2024-05-17 16:07:52.018041,0,0,-12,0,0,0,71,74,10,0,70,190.58,86,9.00,-2.00,-1000.00
2024-05-17 16:07:52.115649,0,0,-13,0,0,0,71,74,10,0,70,190.58,86,23.00,-13.00,-975.00
2024-05-17 16:07:52.217763,0,0,-13,0,0,0,71,74,10,0,70,190.58,87,-55.00,59.00,-1009.00
2024-05-17 16:07:52.422650,0,-1,-15,0,0,-1,71,74,10,0,70,190.58,87,11.00,13.00,-1043.00
2024-05-17 16:07:52.422730,0,0,-15,0,0,-4,71,73,10,0,70,190.58,87,-23.00,-39.00,-1183.00
2024-05-17 16:07:52.523403,0,0,-15,0,0,-6,71,73,14,0,70,190.74,87,-52.00,-2.00,-1088.00
2024-05-17 16:07:52.625944,0,0,-15,0,0,-7,71,73,23,10,70,190.96,87,7.00,-44.00,-1000.00
2024-05-17 16:07:52.728124,-1,1,-14,0,0,-7,71,73,30,20,70,191.09,87,-28.00,-8.00,-1028.00
2024-05-17 16:07:52.830233,-1,0,-14,0,0,-7,71,73,38,20,70,191.13,87,-24.00,-36.00,-1015.00
2024-05-17 16:07:52.932941,0,0,-14,0,0,-7,71,73,45,30,70,191.30,87,-10.00,26.00,-862.00
2024-05-17 16:07:53.035034,-1,0,-14,0,0,-6,71,73,48,30,70,191.28,87,32.00,-38.00,-871.00
2024-05-17 16:07:53.137864,-1,0,-14,0,0,-5,71,73,53,40,70,191.21,87,-48.00,14.00,-864.00
2024-05-17 16:07:53.237659,0,1,-14,0,0,-4,71,73,58,40,70,191.31,88,-22.00,-18.00,-908.00
2024-05-17 16:07:53.342252,0,1,-14,0,0,-3,71,73,62,50,70,191.38,88,-43.00,-19.00,-958.00
2024-05-17 16:07:53.441546,0,0,-14,0,0,-2,71,75,66,50,70,191.45,88,-26.00,-6.00,-944.00
2024-05-17 16:07:53.546958,0,0,-14,0,0,-1,71,75,68,50,70,191.45,88,5.00,0.00,-1013.00
2024-05-17 16:07:53.645528,0,0,-14,0,0,-1,71,75,68,50,70,191.52,88,17.00,-28.00,-912.00
2024-05-17 16:07:53.751831,0,0,-14,0,0,-1,71,75,70,50,70,191.58,88,-8.00,-21.00,-1053.00
2024-05-17 16:07:53.849583,0,1,-14,0,0,-1,71,75,71,50,70,191.49,88,0.00,-17.00,-977.00
2024-05-17 16:07:53.956653,0,1,-14,0,0,-1,71,75,72,50,70,191.46,88,-21.00,31.00,-949.00
2024-05-17 16:07:54.053473,0,1,-14,0,0,0,71,75,76,60,70,191.55,88,-55.00,-2.00,-1029.00
2024-05-17 16:07:54.104482,-1,0,-14,0,0,0,71,75,75,60,70,191.57,88,-43.00,-8.00,-1009.00
2024-05-17 16:07:54.206606,-1,0,-14,0,0,0,71,75,76,60,70,191.53,89,11.00,4.00,-1028.00
2024-05-17 16:07:54.366256,-1,0,-14,0,0,-1,71,75,76,60,70,191.56,89,-41.00,4.00,-1017.00
2024-05-17 16:07:54.410497,-1,0,-14,0,0,0,71,74,79,60,70,191.54,89,16.00,-21.00,-978.00
2024-05-17 16:07:54.571088,-1,0,-14,0,0,0,71,74,79,60,70,191.57,89,-35.00,21.00,-940.00
2024-05-17 16:07:54.614430,-1,1,-14,0,0,0,71,74,80,60,70,191.57,89,3.00,5.00,-1058.00
2024-05-17 16:07:54.776071,-1,0,-14,0,0,0,71,74,81,60,70,191.58,89,-10.00,5.00,-985.00
2024-05-17 16:07:54.818492,0,0,-14,0,0,0,71,74,82,60,70,191.60,89,-14.00,3.00,-992.00
2024-05-17 16:07:54.920381,0,0,-14,0,0,0,71,74,80,60,70,191.60,89,19.00,12.00,-960.00
2024-05-17 16:07:55.083047,0,1,-14,0,0,0,71,74,80,60,70,191.55,89,-43.00,34.00,-965.00
2024-05-17 16:07:55.124428,0,0,-14,0,0,0,71,74,82,60,70,191.55,89,-21.00,27.00,-1037.00
2024-05-17 16:07:55.287845,-1,0,-14,0,0,0,71,74,82,60,70,191.61,90,-9.00,-15.00,-1056.00
2024-05-17 16:07:55.329239,-1,0,-14,0,0,0,71,74,83,60,70,191.62,90,-39.00,15.00,-987.00
2024-05-17 16:07:55.492654,-1,0,-14,0,0,0,71,74,83,60,70,191.62,90,-24.00,13.00,-1029.00
2024-05-17 16:07:55.532352,-1,0,-14,0,0,0,71,74,84,70,70,191.58,90,8.00,-8.00,-1057.00
2024-05-17 16:07:55.697452,-1,0,-14,0,0,0,71,74,85,70,70,191.58,90,-22.00,39.00,-999.00
2024-05-17 16:07:55.739415,0,0,-14,0,0,0,71,74,85,70,70,191.60,90,3.00,39.00,-986.00
2024-05-17 16:07:55.838675,0,0,-14,0,0,0,71,74,88,70,70,191.58,90,1.00,17.00,-1018.00
2024-05-17 16:07:56.006401,0,0,-14,0,0,0,71,74,88,70,70,191.67,90,-10.00,-3.00,-963.00
2024-05-17 16:07:56.043405,0,0,-14,0,0,0,71,74,89,70,70,191.70,90,1.00,9.00,-973.00
2024-05-17 16:07:56.209486,0,0,-14,0,0,0,71,74,90,70,70,191.72,90,16.00,-26.00,-971.00
2024-05-17 16:07:56.247313,0,0,-14,0,0,0,71,74,90,70,70,191.67,91,-51.00,-8.00,-942.00
2024-05-17 16:07:56.414235,0,0,-14,0,0,0,71,74,90,70,70,191.65,91,-9.00,18.00,-1035.00
2024-05-17 16:07:56.451326,-1,0,-14,0,0,0,72,73,91,70,70,191.66,91,1.00,14.00,-1011.00
2024-05-17 16:07:56.619033,0,0,-14,0,0,0,72,73,90,70,70,191.64,91,-31.00,-1.00,-1023.00
2024-05-17 16:07:56.655441,0,0,-14,0,0,0,72,73,89,70,70,191.65,91,-10.00,-28.00,-935.00
2024-05-17 16:07:56.823837,0,0,-14,0,0,0,72,73,88,70,70,191.67,91,31.00,-33.00,-996.00
2024-05-17 16:07:56.859368,0,0,-14,0,0,0,72,73,86,70,70,191.65,91,4.00,27.00,-1052.00
2024-05-17 16:07:57.028638,0,0,-14,0,0,0,72,73,85,70,70,191.68,91,18.00,32.00,-955.00
2024-05-17 16:07:57.063317,0,0,-14,0,0,0,72,73,84,70,70,191.62,91,15.00,-11.00,-929.00
2024-05-17 16:07:57.233326,0,0,-14,0,0,0,72,73,83,70,70,191.62,92,-16.00,-13.00,-979.00
2024-05-17 16:07:57.267493,0,0,-14,0,0,0,72,73,83,70,70,191.62,92,31.00,-30.00,-1035.00
2024-05-17 16:07:57.438058,0,0,-14,0,0,0,72,73,82,70,70,191.61,92,-34.00,23.00,-1049.00
2024-05-17 16:07:57.471532,0,0,-14,0,0,0,71,74,82,70,70,191.52,92,9.00,20.00,-1025.00
2024-05-17 16:07:57.642846,0,0,-14,0,0,0,71,74,81,70,70,191.61,92,4.00,20.00,-928.00
2024-05-17 16:07:57.675176,0,0,-14,0,0,0,71,74,81,60,70,191.61,92,6.00,-6.00,-985.00
2024-05-17 16:07:57.847747,0,0,-14,0,0,0,71,74,81,60,70,191.58,92,-31.00,15.00,-994.00
2024-05-17 16:07:57.847801,0,0,-14,0,0,0,71,74,81,60,70,191.56,92,-11.00,9.00,-1020.00
2024-05-17 16:07:57.930145,0,0,-14,0,0,0,71,74,81,60,70,191.64,92,-11.00,20.00,-992.00
2024-05-17 16:07:58.032230,0,0,-14,0,0,0,71,74,81,60,70,191.61,92,29.00,12.00,-1003.00
2024-05-17 16:07:58.154864,0,0,-14,0,0,0,71,74,81,60,70,191.57,93,21.00,-9.00,-980.00
2024-05-17 16:07:58.236192,0,0,-14,0,0,0,71,74,81,60,70,191.52,93,-26.00,4.00,-993.00
2024-05-17 16:07:58.359792,0,0,-14,0,0,0,71,74,81,60,70,191.60,93,-9.00,-4.00,-990.00
2024-05-17 16:07:58.440208,0,0,-14,0,0,0,71,73,81,60,70,191.65,93,-17.00,-26.00,-1039.00
2024-05-17 16:07:58.565377,0,0,-14,0,0,0,71,73,82,60,70,191.66,93,12.00,12.00,-969.00
2024-05-17 16:07:58.644177,0,0,-14,0,0,0,71,73,84,70,70,191.63,93,6.00,-37.00,-992.00
2024-05-17 16:07:58.769546,-1,0,-14,0,0,0,71,73,84,70,70,191.62,93,-13.00,8.00,-994.00
2024-05-17 16:07:58.848768,-1,0,-14,0,0,0,71,73,86,70,70,191.59,93,-24.00,14.00,-1083.00
2024-05-17 16:07:58.974279,-1,0,-14,0,0,0,71,73,87,70,70,191.66,93,-27.00,-16.00,-950.00
2024-05-17 16:07:59.052570,-1,0,-14,0,0,0,71,73,89,70,70,191.68,93,-15.00,7.00,-991.00
2024-05-17 16:07:59.179219,-1,0,-14,0,0,0,71,73,90,70,70,191.66,94,-28.00,13.00,-963.00
2024-05-17 16:07:59.256311,-1,0,-14,0,0,0,71,73,92,70,70,191.72,94,-10.00,15.00,-934.00
2024-05-17 16:07:59.383919,-1,0,-14,0,0,0,71,73,93,70,70,191.75,94,16.00,-18.00,-1006.00
2024-05-17 16:07:59.461151,0,0,-14,0,0,0,71,73,93,70,70,191.75,94,20.00,15.00,-950.00
2024-05-17 16:07:59.588703,0,0,-14,0,0,0,71,73,95,70,70,191.70,94,-10.00,6.00,-945.00
2024-05-17 16:07:59.664155,0,0,-14,0,0,0,71,73,95,70,70,191.67,94,16.00,14.00,-1004.00
2024-05-17 16:07:59.794430,0,-1,-14,0,0,0,71,73,95,80,70,191.73,94,31.00,8.00,-922.00
2024-05-17 16:07:59.868546,0,-1,-14,0,0,0,71,73,94,80,70,191.73,94,14.00,11.00,-937.00
2024-05-17 16:07:59.998191,0,0,-14,0,0,0,71,73,93,80,70,191.75,94,35.00,4.00,-984.00
2024-05-17 16:08:00.072140,0,0,-14,0,0,0,71,73,91,70,70,191.77,94,24.00,-6.00,-885.00
2024-05-17 16:08:00.203027,0,0,-14,0,0,1,71,73,89,70,70,191.72,95,19.00,-25.00,-934.00
2024-05-17 16:08:00.276268,0,0,-14,0,0,1,71,73,88,70,70,191.66,95,-1.00,10.00,-967.00
2024-05-17 16:08:00.408000,-1,0,-14,0,0,1,71,73,87,70,70,191.63,95,-3.00,21.00,-1024.00
2024-05-17 16:08:00.480245,-1,0,-14,0,0,1,71,73,84,70,70,191.63,95,-32.00,28.00,-950.00
2024-05-17 16:08:00.582219,-1,0,-14,0,0,1,71,73,83,70,70,191.68,95,-20.00,63.00,-995.00
2024-05-17 16:08:00.715096,-1,0,-14,0,0,1,71,73,81,60,70,191.65,95,-23.00,3.00,-1069.00
2024-05-17 16:08:00.786150,0,0,-14,0,0,0,71,73,80,60,70,191.66,95,-27.00,21.00,-1088.00
2024-05-17 16:08:00.889707,0,0,-14,0,0,0,71,73,79,60,70,191.66,95,-24.00,12.00,-1061.00
2024-05-17 16:08:00.990222,0,0,-14,0,0,0,71,73,80,60,70,191.66,95,20.00,-18.00,-1026.00
2024-05-17 16:08:01.094193,0,0,-14,0,0,0,71,73,80,60,70,191.59,95,28.00,-18.00,-1045.00
2024-05-17 16:08:01.194005,0,0,-14,0,0,0,71,73,80,60,70,191.56,96,2.00,25.00,-1055.00
2024-05-17 16:08:01.329319,0,0,-14,0,0,0,71,73,80,60,70,191.63,96,-29.00,10.00,-1114.00
2024-05-17 16:08:01.398008,0,0,-14,0,0,-1,71,73,81,60,70,191.59,96,12.00,-6.00,-1129.00
2024-05-17 16:08:01.534127,0,0,-14,0,0,-2,70,73,83,70,70,191.63,96,-6.00,55.00,-1035.00
2024-05-17 16:08:01.602206,0,0,-14,0,0,-3,70,73,87,70,70,191.69,96,8.00,8.00,-1080.00
2024-05-17 16:08:01.738913,0,0,-14,0,0,-4,70,73,91,70,70,191.73,96,-19.00,17.00,-1029.00
2024-05-17 16:08:01.805998,0,0,-14,0,0,-4,70,73,96,80,70,191.81,96,-10.00,-13.00,-1048.00
2024-05-17 16:08:01.857855,0,0,-14,0,0,-5,70,73,101,80,70,191.79,96,-2.00,3.00,-1055.00
2024-05-17 16:08:02.046117,0,0,-14,0,0,-5,70,73,107,90,70,191.84,96,10.00,-12.00,-1074.00
2024-05-17 16:08:02.061963,0,0,-14,0,0,-5,70,73,112,90,70,191.88,96,-50.00,63.00,-1028.00
2024-05-17 16:08:02.165888,0,0,-14,0,0,-5,70,73,117,100,70,191.96,97,-15.00,-18.00,-1010.00
2024-05-17 16:08:02.265972,0,0,-14,0,0,-5,70,73,123,100,70,192.03,97,-11.00,-1.00,-972.00
2024-05-17 16:08:02.455738,0,0,-14,0,0,-5,70,73,128,110,70,192.09,97,3.00,6.00,-916.00
2024-05-17 16:08:02.469955,0,0,-14,0,0,-4,70,74,133,110,70,192.08,97,14.00,10.00,-966.00
2024-05-17 16:08:02.660487,0,0,-14,0,0,-4,70,74,138,120,70,192.10,97,-22.00,17.00,-963.00
2024-05-17 16:08:02.674362,0,0,-14,0,0,-4,70,74,142,120,70,192.24,97,-13.00,2.00,-1034.00
2024-05-17 16:08:02.865769,0,0,-14,0,0,-3,70,74,146,130,70,192.34,97,-4.00,4.00,-965.00
2024-05-17 16:08:02.879395,0,0,-14,0,0,-3,70,74,151,130,70,192.32,97,35.00,6.00,-941.00
2024-05-17 16:08:02.980977,0,0,-14,0,0,-3,70,74,155,130,70,192.34,97,-19.00,30.00,-979.00
2024-05-17 16:08:03.172500,0,0,-14,0,0,-3,70,74,159,140,70,192.41,97,-10.00,11.00,-940.00
2024-05-17 16:08:03.185439,0,0,-14,0,0,-3,70,74,163,140,70,192.37,98,31.00,-15.00,-980.00
2024-05-17 16:08:03.377306,0,0,-14,0,0,-3,70,74,167,150,70,192.44,98,0.00,21.00,-962.00
2024-05-17 16:08:03.388895,0,0,-14,0,0,-2,70,74,170,150,70,192.45,98,27.00,-33.00,-925.00
2024-05-17 16:08:03.582035,1,0,-14,0,0,-2,70,72,173,150,70,192.52,98,-3.00,31.00,-960.00
2024-05-17 16:08:03.593621,0,0,-14,0,0,-2,70,72,175,150,70,192.51,98,8.00,4.00,-972.00
2024-05-17 16:08:03.786946,0,0,-14,0,0,-1,70,72,176,160,70,192.50,98,58.00,-7.00,-973.00
2024-05-17 16:08:03.797037,0,0,-14,0,0,-1,70,72,178,160,70,192.51,98,20.00,36.00,-879.00
2024-05-17 16:08:03.991943,0,0,-14,0,0,0,70,72,179,160,70,192.54,98,15.00,-13.00,-909.00
2024-05-17 16:08:04.001716,0,0,-14,0,0,0,70,72,180,160,70,192.56,98,40.00,1.00,-954.00
2024-05-17 16:08:04.196652,0,0,-14,0,0,0,70,72,181,160,70,192.61,98,3.00,46.00,-943.00
2024-05-17 16:08:04.206010,0,0,-14,0,0,0,70,72,182,160,70,192.52,99,6.00,-6.00,-1007.00
2024-05-17 16:08:04.401516,0,0,-14,0,0,0,70,72,182,160,70,192.49,99,-21.00,17.00,-1035.00
2024-05-17 16:08:04.410208,0,0,-14,0,0,0,70,72,182,160,70,192.53,99,-7.00,48.00,-1014.00
2024-05-17 16:08:04.510959,0,0,-14,0,0,0,70,72,182,160,70,192.58,99,35.00,-9.00,-984.00
2024-05-17 16:08:04.713796,0,0,-14,0,0,0,70,72,181,160,70,192.48,99,-8.00,13.00,-1005.00
2024-05-17 16:08:04.714965,0,0,-14,0,0,0,70,72,181,160,70,192.62,99,-16.00,32.00,-968.00
2024-05-17 16:08:04.913562,0,0,-14,0,0,0,70,72,180,160,70,192.61,99,3.00,24.00,-1003.00
2024-05-17 16:08:04.918940,0,0,-14,0,0,0,70,72,178,160,70,192.59,99,46.00,29.00,-1025.00
2024-05-17 16:08:05.122631,0,0,-14,0,0,0,70,72,177,160,70,192.50,99,5.00,39.00,-943.00
2024-05-17 16:08:05.122797,0,0,-14,0,0,0,70,72,176,160,70,192.50,99,0.00,38.00,-932.00
2024-05-17 16:08:05.327416,0,0,-14,0,0,0,70,72,174,160,70,192.50,100,7.00,-18.00,-1130.00
2024-05-17 16:08:05.327671,1,0,-14,0,0,1,70,72,173,160,70,192.50,100,11.00,30.00,-1022.00
2024-05-17 16:08:05.377953,0,0,-14,0,0,0,70,72,172,160,70,192.50,100,-9.00,13.00,-1025.00
2024-05-17 16:08:05.530989,0,0,-14,0,0,0,71,73,172,160,70,192.44,100,60.00,14.00,-1008.00
2024-05-17 16:08:05.632937,0,0,-14,0,0,0,71,73,172,160,70,192.50,100,0.00,-11.00,-1108.00
2024-05-17 16:08:05.735507,0,1,-14,0,0,0,71,73,172,160,70,192.46,100,-6.00,2.00,-1085.00
2024-05-17 16:08:05.837492,0,1,-14,0,0,0,71,73,173,160,70,192.56,100,8.00,23.00,-970.00
2024-05-17 16:08:05.940515,0,1,-14,0,0,0,71,73,174,160,70,192.53,100,9.00,14.00,-1020.00
2024-05-17 16:08:05.990187,0,0,-14,0,0,0,71,73,175,160,70,192.46,100,26.00,-1.00,-1056.00
2024-05-17 16:08:06.144555,0,0,-14,0,0,0,71,73,175,160,70,192.55,100,9.00,8.00,-1009.00
2024-05-17 16:08:06.194408,0,0,-14,0,0,0,71,73,175,160,70,192.45,101,-4.00,-5.00,-994.00
2024-05-17 16:08:06.349201,0,0,-14,0,0,1,71,73,174,160,70,192.44,101,12.00,-11.00,-900.00
2024-05-17 16:08:06.398097,0,0,-14,0,0,1,71,73,173,160,70,192.57,101,16.00,20.00,-978.00
2024-05-17 16:08:06.551814,0,0,-14,0,0,2,71,72,171,150,70,192.43,101,6.00,2.00,-1042.00
2024-05-17 16:08:06.601697,0,0,-14,0,0,2,71,72,170,150,70,192.44,101,24.00,14.00,-928.00
2024-05-17 16:08:06.756503,0,0,-14,0,0,2,71,72,168,150,70,192.47,101,40.00,12.00,-959.00
2024-05-17 16:08:06.805746,1,1,-14,0,0,2,71,72,166,150,70,192.44,101,-12.00,-14.00,-921.00
2024-05-17 16:08:06.961407,1,0,-14,0,0,2,71,72,165,150,70,192.44,101,36.00,13.00,-932.00
2024-05-17 16:08:07.010766,0,0,-14,0,0,2,71,72,162,140,70,192.29,101,-2.00,1.00,-1118.00
2024-05-17 16:08:07.168515,0,0,-14,0,0,2,71,72,160,140,70,192.34,101,45.00,-9.00,-929.00
2024-05-17 16:08:07.218814,0,0,-14,0,0,2,71,72,158,140,70,192.35,102,23.00,18.00,-954.00
2024-05-17 16:08:07.316897,0,0,-14,0,0,2,71,72,156,140,70,192.32,102,-3.00,-7.00,-1045.00
2024-05-17 16:08:07.473554,0,0,-14,0,0,2,71,72,154,140,70,192.36,102,10.00,-3.00,-1041.00
2024-05-17 16:08:07.521621,0,0,-14,0,0,2,70,72,152,130,70,192.33,102,54.00,-4.00,-933.00
2024-05-17 16:08:07.678055,0,0,-14,0,0,2,70,72,150,130,70,192.28,102,0.00,32.00,-927.00
2024-05-17 16:08:07.725366,0,0,-14,0,0,2,70,72,147,130,70,192.30,102,-15.00,12.00,-1025.00
2024-05-17 16:08:07.882866,0,0,-14,0,0,1,70,72,145,130,70,192.24,102,18.00,24.00,-1044.00
2024-05-17 16:08:07.931325,0,0,-14,0,0,1,70,72,143,130,70,192.20,102,51.00,-3.00,-1014.00
2024-05-17 16:08:08.030672,0,0,-14,0,0,1,70,72,141,120,70,192.17,102,-18.00,-11.00,-1005.00
2024-05-17 16:08:08.190056,0,0,-14,0,0,1,70,72,139,120,70,192.16,102,4.00,5.00,-1022.00
2024-05-17 16:08:08.234644,0,0,-14,0,0,1,70,72,137,120,70,192.15,103,9.00,-22.00,-1036.00
2024-05-17 16:08:08.394971,0,0,-14,0,0,1,70,72,136,120,70,192.15,103,-18.00,40.00,-1013.00
2024-05-17 16:08:08.438973,0,0,-14,0,0,1,70,72,134,120,70,192.07,103,-13.00,6.00,-993.00
2024-05-17 16:08:08.606028,0,0,-14,0,0,1,70,72,132,120,70,192.11,103,8.00,26.00,-1029.00
2024-05-17 16:08:08.642692,0,0,-14,0,0,1,70,72,130,110,70,192.03,103,-13.00,58.00,-868.00
2024-05-17 16:08:08.804510,0,0,-14,0,0,1,70,72,129,110,70,192.02,103,13.00,49.00,-961.00
2024-05-17 16:08:08.846684,0,0,-14,0,0,1,70,72,128,110,70,192.01,103,3.00,4.00,-933.00
2024-05-17 16:08:08.948813,0,0,-14,0,0,0,70,72,127,110,70,192.04,103,11.00,-1.00,-1004.00
2024-05-17 16:08:09.111910,0,0,-14,0,0,0,70,72,126,110,70,192.02,103,4.00,-13.00,-982.00
2024-05-17 16:08:09.152845,0,0,-14,0,0,0,70,72,125,110,70,191.97,103,-19.00,-25.00,-970.00
2024-05-17 16:08:09.316533,0,0,-14,0,0,0,70,72,124,110,70,192.02,104,27.00,29.00,-927.00
2024-05-17 16:08:09.356896,0,0,-14,0,0,0,70,72,123,110,70,192.00,104,21.00,19.00,-1034.00
2024-05-17 16:08:09.407948,0,0,-14,0,0,0,70,72,123,110,70,192.02,104,-25.00,21.00,-1014.00
2024-05-17 16:08:09.560665,0,0,-14,0,0,0,70,72,122,110,70,191.99,104,0.00,23.00,-1029.00
2024-05-17 16:08:09.726672,0,0,-14,0,0,0,70,72,122,110,70,191.97,104,30.00,-16.00,-1068.00
2024-05-17 16:08:09.726879,0,0,-14,0,0,0,70,72,123,110,70,191.98,104,27.00,-12.00,-1071.00
2024-05-17 16:08:09.815758,0,0,-14,0,0,0,70,72,123,110,70,191.98,104,2.00,23.00,-962.00
2024-05-17 16:08:09.917714,0,0,-14,0,0,0,70,72,123,110,70,192.03,104,5.00,-6.00,-1123.00
2024-05-17 16:08:10.033624,0,0,-14,0,0,0,70,72,123,110,70,192.09,104,-1.00,6.00,-949.00
2024-05-17 16:08:10.121717,0,0,-14,0,0,0,70,72,124,110,70,192.08,104,10.00,0.00,-965.00
2024-05-17 16:08:10.239997,0,0,-14,0,0,0,70,72,124,110,70,191.97,105,-10.00,12.00,-1034.00
2024-05-17 16:08:10.325646,0,0,-14,0,0,0,70,72,124,110,70,192.01,105,-17.00,0.00,-1009.00
2024-05-17 16:08:10.443735,0,0,-14,0,0,0,70,72,125,110,70,192.03,105,-2.00,-39.00,-1039.00
2024-05-17 16:08:10.529712,0,0,-14,0,0,0,70,72,125,110,70,192.01,105,8.00,5.00,-963.00
2024-05-17 16:08:10.647783,0,0,-14,0,0,0,70,72,125,110,70,192.00,105,27.00,54.00,-888.00
2024-05-17 16:08:10.733623,0,0,-14,0,0,0,70,72,125,110,70,192.10,105,18.00,10.00,-958.00
2024-05-17 16:08:10.852964,0,0,-14,0,0,0,70,72,125,110,70,192.03,105,10.00,20.00,-1065.00
2024-05-17 16:08:10.937856,0,0,-14,0,0,0,70,72,126,110,70,192.01,105,-8.00,29.00,-1026.00
2024-05-17 16:08:11.039546,0,0,-14,0,0,0,70,72,126,110,70,191.99,105,-14.00,37.00,-996.00
2024-05-17 16:08:11.159940,-4,0,-14,0,0,0,70,72,127,110,70,192.04,106,20.00,10.00,-1064.00
2024-05-17 16:08:11.243477,-8,0,-14,1,0,0,70,72,129,110,70,192.01,106,6.00,-33.00,-968.00
2024-05-17 16:08:11.365398,-8,0,-14,2,0,0,70,72,130,110,70,192.04,106,26.00,18.00,-992.00
2024-05-17 16:08:11.450394,-8,0,-14,3,-1,0,70,72,130,110,70,192.02,106,-15.00,14.00,-962.00
2024-05-17 16:08:11.549463,-7,0,-14,5,-1,0,70,72,129,110,70,191.96,106,-4.00,-5.00,-1010.00
2024-05-17 16:08:11.672443,-6,0,-14,6,-1,0,70,72,129,110,70,191.92,106,-18.00,21.00,-949.00
2024-05-17 16:08:11.753471,-6,0,-14,6,-1,0,70,72,129,110,70,191.93,106,-17.00,24.00,-957.00
2024-05-17 16:08:11.877100,-5,0,-14,7,-1,0,70,72,125,110,70,192.01,106,-57.00,26.00,-973.00
2024-05-17 16:08:11.957466,-4,-1,-14,7,-1,0,70,72,126,110,70,191.97,106,-22.00,33.00,-1015.00
2024-05-17 16:08:12.059374,0,-1,-14,7,-1,0,70,72,127,110,70,192.06,106,-58.00,31.00,-973.00
2024-05-17 16:08:12.183522,1,-1,-14,7,-1,0,70,72,127,110,70,191.94,107,-63.00,-5.00,-987.00
2024-05-17 16:08:12.263408,3,-1,-14,6,-1,0,70,72,127,110,70,191.93,107,-5.00,-24.00,-991.00
2024-05-17 16:08:12.388657,5,0,-14,5,-1,0,70,72,127,110,70,191.96,107,-45.00,23.00,-1011.00
2024-05-17 16:08:12.468077,3,0,-14,4,-1,0,70,72,126,110,70,192.02,107,-6.00,25.00,-1002.00
2024-05-17 16:08:12.593247,2,0,-14,3,-1,0,70,72,126,110,70,191.99,107,-25.00,-3.00,-1021.00
2024-05-17 16:08:12.671475,1,1,-14,3,0,0,70,72,126,110,70,191.93,107,-23.00,-1.00,-983.00
2024-05-17 16:08:12.798052,0,0,-14,2,0,0,70,72,125,110,70,192.03,107,-36.00,40.00,-982.00
2024-05-17 16:08:12.875528,0,0,-14,2,0,0,70,72,126,110,70,191.97,107,5.00,-13.00,-998.00
2024-05-17 16:08:13.002802,0,0,-14,2,0,0,70,72,126,110,70,191.96,107,-45.00,-6.00,-980.00
2024-05-17 16:08:13.079367,0,0,-14,2,0,0,70,72,126,110,70,191.95,107,8.00,-2.00,-1015.00
2024-05-17 16:08:13.207622,0,0,-14,2,0,0,70,72,126,110,70,191.95,108,-1.00,3.00,-966.00
2024-05-17 16:08:13.232336,0,0,-14,2,0,0,70,72,125,110,70,192.02,108,-37.00,5.00,-963.00
2024-05-17 16:08:13.412728,2,-1,-14,1,0,0,70,72,128,110,70,191.89,108,-25.00,2.00,-951.00
2024-05-17 16:08:13.436763,3,-2,-14,1,0,0,70,72,129,110,70,192.04,108,-42.00,13.00,-1021.00
2024-05-17 16:08:13.617693,1,-1,-14,0,0,0,70,72,129,110,70,192.00,108,-4.00,20.00,-1019.00
2024-05-17 16:08:13.691482,0,-1,-14,0,0,0,70,72,128,110,70,192.09,108,2.00,0.00,-946.00
2024-05-17 16:08:13.822106,0,0,-14,0,0,0,70,72,128,110,70,192.00,108,41.00,8.00,-968.00
2024-05-17 16:08:13.845381,0,0,-14,0,0,0,70,72,128,110,70,192.00,108,-7.00,30.00,-957.00
2024-05-17 16:08:13.946410,0,0,-14,0,0,0,70,72,128,110,70,192.00,108,25.00,5.00,-985.00
2024-05-17 16:08:14.049817,0,0,-14,0,0,0,70,72,128,110,70,191.97,108,-13.00,4.00,-988.00
2024-05-17 16:08:14.231718,0,0,-14,0,0,0,70,72,128,110,70,192.00,109,19.00,7.00,-1042.00
2024-05-17 16:08:14.254717,0,0,-14,0,0,0,70,72,128,110,70,192.04,109,-4.00,-15.00,-1005.00
2024-05-17 16:08:14.354533,0,0,-14,0,0,0,70,72,128,110,70,192.07,109,-17.00,35.00,-1042.00
2024-05-17 16:08:14.538753,0,0,-14,0,0,0,70,72,128,110,70,192.00,109,-16.00,35.00,-972.00
2024-05-17 16:08:14.558350,0,-1,-14,0,0,0,70,72,128,110,70,191.96,109,31.00,0.00,-1038.00
2024-05-17 16:08:14.743688,0,-1,-14,0,0,0,70,72,128,110,70,192.00,109,-8.00,3.00,-948.00
2024-05-17 16:08:14.762254,0,-1,-14,0,0,0,70,72,127,110,70,191.99,109,-16.00,29.00,-965.00
2024-05-17 16:08:14.948689,0,-1,-14,0,0,0,70,72,127,110,70,192.01,109,54.00,-17.00,-975.00
2024-05-17 16:08:14.966368,0,0,-14,0,0,0,70,72,125,110,70,192.00,109,19.00,31.00,-936.00
2024-05-17 16:08:15.153274,0,0,-14,0,0,0,70,72,125,110,70,191.98,109,9.00,22.00,-1027.00
2024-05-17 16:08:15.171535,0,0,-14,0,0,0,70,72,126,110,70,191.99,110,-21.00,17.00,-959.00
2024-05-17 16:08:15.272446,0,0,-14,0,0,0,70,72,126,110,70,191.97,110,-29.00,63.00,-1016.00
2024-05-17 16:08:15.460536,0,0,-14,0,0,0,70,72,125,110,70,191.94,110,-17.00,6.00,-993.00
2024-05-17 16:08:15.476418,0,-1,-14,0,0,0,70,72,125,110,70,191.98,110,39.00,-19.00,-1011.00
2024-05-17 16:08:15.619151,0,0,-14,0,0,0,70,72,126,110,70,192.06,110,-27.00,75.00,-960.00
2024-05-17 16:08:15.681106,0,0,-14,0,0,0,70,72,126,110,70,191.97,110,-13.00,-3.00,-1034.00
2024-05-17 16:08:15.870072,0,0,-14,0,0,0,70,72,126,110,70,192.02,110,55.00,29.00,-879.00
2024-05-17 16:08:15.884342,6,0,-14,0,0,0,70,72,128,110,70,191.99,110,4.00,-7.00,-991.00
2024-05-17 16:08:15.986312,8,0,-14,-1,0,0,70,72,129,110,70,192.07,110,21.00,-17.00,-984.00
2024-05-17 16:08:16.088535,8,0,-14,-2,0,0,70,72,130,110,70,192.05,110,-1.00,-10.00,-1050.00
2024-05-17 16:08:16.279674,8,0,-14,-4,0,0,70,72,129,110,70,192.05,111,14.00,-5.00,-985.00
2024-05-17 16:08:16.297511,8,0,-14,-5,1,0,70,72,129,110,70,191.97,111,7.00,26.00,-1019.00
2024-05-17 16:08:16.394253,7,0,-14,-6,1,0,70,72,128,110,70,192.02,111,10.00,41.00,-1022.00
2024-05-17 16:08:16.586835,6,0,-14,-7,2,0,70,72,127,110,70,191.99,111,79.00,-36.00,-1006.00
2024-05-17 16:08:16.598844,5,0,-14,-7,2,0,70,72,127,110,70,192.03,111,88.00,-39.00,-1014.00
2024-05-17 16:08:16.701241,3,0,-14,-7,2,0,70,72,128,110,70,192.04,111,39.00,2.00,-1064.00
2024-05-17 16:08:16.802282,0,0,-14,-7,2,0,70,72,126,110,70,192.04,111,53.00,23.00,-903.00
2024-05-17 16:08:16.904251,-2,0,-14,-6,2,0,70,72,127,110,70,191.98,111,51.00,-3.00,-1009.00
2024-05-17 16:08:17.006276,-4,-1,-14,-6,1,0,70,72,127,110,70,192.00,111,51.00,12.00,-1070.00
2024-05-17 16:08:17.201090,-4,-1,-14,-5,1,0,70,72,127,110,70,191.96,111,45.00,2.00,-948.00
2024-05-17 16:08:17.210373,-2,0,-14,-4,1,0,70,72,127,110,70,191.97,112,49.00,11.00,-1050.00
2024-05-17 16:08:17.406003,-1,0,-14,-3,0,0,70,72,127,110,70,191.92,112,12.00,4.00,-995.00
2024-05-17 16:08:17.406632,-1,-1,-14,-3,0,0,70,72,126,110,70,191.92,112,12.00,-13.00,-1086.00
2024-05-17 16:08:17.465257,0,-1,-14,-2,0,0,70,72,125,110,70,191.98,112,-28.00,9.00,-1049.00
2024-05-17 16:08:17.622885,0,-1,-14,-2,0,0,70,72,126,110,70,192.03,112,2.00,2.00,-984.00
2024-05-17 16:08:17.669157,0,-1,-14,-2,0,0,70,72,125,110,70,191.99,112,-3.00,5.00,-1098.00
2024-05-17 16:08:17.815533,0,-1,-14,-2,0,0,70,72,125,110,70,192.01,112,44.00,13.00,-998.00
2024-05-17 16:08:17.873112,-4,0,-14,-1,0,0,70,72,125,110,70,192.00,112,20.00,-3.00,-985.00
2024-05-17 16:08:17.975505,-3,0,-14,-1,0,0,70,72,125,110,70,191.91,112,3.00,16.00,-999.00
2024-05-17 16:08:18.078218,-1,0,-14,0,0,0,70,72,124,110,70,191.92,112,2.00,-29.00,-1028.00
2024-05-17 16:08:18.234113,0,0,-14,0,0,0,70,72,123,110,70,191.93,113,44.00,-13.00,-990.00
2024-05-17 16:08:18.282349,0,0,-14,0,0,0,70,72,122,110,70,191.92,113,0.00,-7.00,-1038.00
2024-05-17 16:08:18.430162,0,0,-14,0,0,0,70,72,121,110,70,191.91,113,28.00,-13.00,-1050.00
2024-05-17 16:08:18.486202,0,0,-14,0,0,0,70,72,122,100,70,191.96,113,-11.00,27.00,-1070.00
2024-05-17 16:08:18.635589,0,0,-14,0,0,0,70,72,122,100,70,192.00,113,-12.00,35.00,-990.00
2024-05-17 16:08:18.690220,0,0,-14,0,0,0,70,72,122,100,70,191.89,113,2.00,29.00,-943.00
2024-05-17 16:08:18.839656,0,0,-14,0,0,0,70,72,122,110,70,191.94,113,-14.00,-13.00,-999.00
2024-05-17 16:08:18.894560,0,0,-14,0,0,0,70,72,123,110,70,191.94,113,-3.00,33.00,-1043.00
2024-05-17 16:08:19.044603,0,0,-14,0,0,0,70,72,125,110,70,191.94,113,-9.00,41.00,-909.00
2024-05-17 16:08:19.098210,0,0,-14,0,0,0,70,72,124,110,70,191.98,113,-35.00,40.00,-1015.00
2024-05-17 16:08:19.249351,0,-1,-14,0,0,0,70,72,124,110,70,191.98,114,-45.00,12.00,-1027.00
2024-05-17 16:08:19.302357,-1,-1,-14,0,0,0,70,72,125,110,70,192.01,114,-8.00,25.00,-939.00
2024-05-17 16:08:19.454081,0,-1,-14,0,0,0,70,72,125,110,70,192.00,114,-18.00,15.00,-1025.00
2024-05-17 16:08:19.507089,0,-1,-14,0,0,0,70,72,125,110,70,192.08,114,-17.00,0.00,-983.00
2024-05-17 16:08:19.658926,0,0,-14,0,0,0,69,72,126,110,70,192.00,114,1.00,17.00,-976.00
2024-05-17 16:08:19.710621,-1,0,-14,0,0,0,69,72,126,110,70,191.98,114,7.00,-20.00,-1031.00
2024-05-17 16:08:19.865355,0,0,-14,0,0,0,69,72,127,110,70,191.99,114,-14.00,29.00,-1017.00
2024-05-17 16:08:19.916356,0,0,-14,0,0,0,69,72,126,110,70,191.98,114,-23.00,11.00,-1084.00
2024-05-17 16:08:20.018610,0,0,-14,0,0,0,69,72,126,110,70,192.01,114,-17.00,7.00,-954.00
2024-05-17 16:08:20.118030,0,0,-14,0,0,0,69,72,126,110,70,191.99,114,-22.00,24.00,-1003.00
2024-05-17 16:08:20.273161,0,-1,-14,0,0,0,69,72,126,110,70,192.01,115,4.00,25.00,-972.00
2024-05-17 16:08:20.321977,0,-8,-14,0,0,0,69,72,128,110,70,192.07,115,7.00,-18.00,-1038.00
2024-05-17 16:08:20.477955,0,-8,-14,0,-1,0,69,72,128,110,70,192.01,115,-12.00,25.00,-1107.00
2024-05-17 16:08:20.526125,0,-6,-14,0,-2,0,69,72,125,110,70,191.99,115,-15.00,45.00,-985.00
2024-05-17 16:08:20.682791,0,-4,-14,-1,-3,0,70,72,126,110,70,191.99,115,12.00,22.00,-1056.00
2024-05-17 16:08:20.729960,0,0,-14,-1,-3,0,70,72,125,110,70,191.92,115,8.00,17.00,-1020.00
2024-05-17 16:08:20.832018,0,1,-14,0,-3,0,70,72,123,110,70,191.97,115,3.00,38.00,-960.00
2024-05-17 16:08:20.989941,0,0,-14,0,-3,0,70,72,122,110,70,191.93,115,16.00,-15.00,-960.00
2024-05-17 16:08:21.037021,0,0,-14,0,-2,0,70,72,120,110,70,191.86,115,-28.00,30.00,-993.00
2024-05-17 16:08:21.194737,0,0,-14,0,-2,0,70,72,120,110,70,191.89,115,22.00,-5.00,-1015.00
2024-05-17 16:08:21.194818,0,0,-14,0,-2,0,70,72,118,110,70,191.86,116,3.00,27.00,-955.00
2024-05-17 16:08:21.290928,0,-1,-14,0,-2,0,70,72,117,110,70,191.84,116,1.00,11.00,-1052.00
2024-05-17 16:08:21.399551,0,0,-14,0,-2,0,70,72,115,110,70,191.82,116,34.00,-5.00,-1024.00
2024-05-17 16:08:21.496859,-1,0,-14,0,-2,0,70,72,115,100,70,191.83,116,-36.00,40.00,-1086.00
2024-05-17 16:08:21.598359,-2,-1,-14,0,-2,0,70,72,113,100,70,191.84,116,-12.00,12.00,-983.00
2024-05-17 16:08:21.700316,-1,-1,-14,0,-2,0,70,72,113,100,70,191.84,116,-19.00,7.00,-1061.00
2024-05-17 16:08:21.800882,-1,-1,-14,0,-2,0,70,72,113,100,70,191.88,116,-4.00,27.00,-925.00
2024-05-17 16:08:21.902920,0,-1,-14,0,-2,0,70,72,113,100,70,191.85,116,-14.00,32.00,-1014.00
2024-05-17 16:08:22.008980,0,-1,-14,0,-2,0,70,72,114,100,70,191.88,116,16.00,-36.00,-1066.00
2024-05-17 16:08:22.109987,0,3,-14,0,-2,0,70,72,112,100,70,191.81,116,-11.00,39.00,-1005.00
2024-05-17 16:08:22.209158,0,4,-14,0,-1,0,70,72,116,100,70,191.83,117,-26.00,26.00,-975.00
2024-05-17 16:08:22.312062,0,1,-14,0,0,0,70,72,116,100,70,191.79,117,-19.00,10.00,-1006.00
2024-05-17 16:08:22.414037,0,0,-14,0,0,0,70,72,118,100,70,191.85,117,-13.00,42.00,-959.00
2024-05-17 16:08:22.526359,0,0,-14,0,0,0,70,72,118,100,70,191.91,117,-11.00,-1.00,-891.00
2024-05-17 16:08:22.617951,0,0,-14,0,0,0,70,72,118,100,70,191.88,117,-2.00,8.00,-990.00
2024-05-17 16:08:22.731736,0,0,-14,0,0,0,70,72,120,100,70,191.92,117,24.00,8.00,-996.00
2024-05-17 16:08:22.825475,0,0,-14,0,0,0,70,72,120,110,70,191.99,117,-14.00,42.00,-966.00
2024-05-17 16:08:22.924209,0,0,-14,0,0,0,70,72,121,110,70,191.94,117,-35.00,14.00,-995.00
2024-05-17 16:08:23.039405,0,0,-14,0,0,0,70,72,123,110,70,191.97,117,26.00,0.00,-976.00
2024-05-17 16:08:23.127994,0,0,-14,0,0,0,70,72,123,110,70,191.99,117,4.00,-6.00,-1026.00
2024-05-17 16:08:23.242896,0,0,-14,0,0,0,70,72,124,110,70,191.97,118,-41.00,5.00,-1064.00
2024-05-17 16:08:23.333305,0,0,-14,0,0,0,70,72,126,110,70,192.03,118,-26.00,33.00,-1007.00
2024-05-17 16:08:23.448011,0,0,-14,0,0,0,70,72,127,110,70,192.02,118,-13.00,-1.00,-933.00
2024-05-17 16:08:23.536483,0,0,-14,0,0,0,70,72,127,110,70,191.98,118,-23.00,23.00,-927.00
2024-05-17 16:08:23.652481,0,0,-14,0,0,0,69,72,128,110,70,191.98,118,5.00,-13.00,-973.00
2024-05-17 16:08:23.739882,0,0,-14,0,0,0,69,72,128,110,70,192.06,118,28.00,-3.00,-990.00
2024-05-17 16:08:23.857353,0,0,-14,0,0,0,69,72,128,110,70,192.02,118,-32.00,-17.00,-1000.00
2024-05-17 16:08:23.945816,0,0,-14,0,0,0,69,72,129,110,70,192.02,118,6.00,13.00,-1075.00
2024-05-17 16:08:24.045857,0,0,-14,0,0,0,69,72,129,110,70,192.01,118,0.00,34.00,-970.00
2024-05-17 16:08:24.164691,0,0,-14,0,0,0,69,72,129,110,70,192.02,118,-17.00,23.00,-947.00
2024-05-17 16:08:24.249785,0,0,-14,0,0,0,69,72,130,110,70,192.03,119,-3.00,5.00,-877.00
2024-05-17 16:08:24.369340,0,0,-14,0,0,0,69,72,130,110,70,192.04,119,-8.00,-2.00,-1076.00
2024-05-17 16:08:24.453806,0,1,-14,0,0,0,69,72,131,110,70,192.05,119,-46.00,9.00,-1005.00
2024-05-17 16:08:24.573928,0,7,-14,0,0,0,69,72,133,110,70,192.10,119,9.00,0.00,-1003.00
2024-05-17 16:08:24.658610,0,7,-14,0,2,0,70,72,131,110,70,191.97,119,-13.00,-10.00,-1019.00
2024-05-17 16:08:24.782778,0,4,-14,0,3,0,70,72,131,110,70,192.03,119,27.00,-34.00,-1004.00
2024-05-17 16:08:24.861739,0,2,-14,0,3,0,70,72,131,110,70,192.07,119,29.00,-44.00,-986.00
2024-05-17 16:08:24.963763,0,0,-14,0,3,0,70,72,130,110,70,192.06,119,5.00,-29.00,-970.00
2024-05-17 16:08:25.020747,0,-1,-14,0,2,0,70,72,132,110,70,192.00,119,0.00,-38.00,-1025.00
2024-05-17 16:08:25.116811,0,0,-14,0,2,0,70,72,133,110,70,191.97,119,1.00,7.00,-1029.00
2024-05-17 16:08:25.222063,-1,0,-14,0,2,0,70,72,133,110,70,192.07,120,18.00,-7.00,-998.00
2024-05-17 16:08:25.321804,0,0,-14,0,2,0,70,72,133,110,70,192.11,120,0.00,-29.00,-928.00
2024-05-17 16:08:25.495627,0,0,-14,0,2,0,70,72,133,110,70,192.08,120,11.00,-12.00,-1050.00
2024-05-17 16:08:25.525180,-1,0,-14,0,2,0,70,72,134,110,70,192.09,120,-54.00,-8.00,-981.00
2024-05-17 16:08:25.700362,-2,0,-14,0,2,0,71,71,135,110,70,192.10,120,-30.00,-2.00,-1015.00
2024-05-17 16:08:25.728691,-2,0,-14,0,2,0,71,71,135,110,70,192.13,120,6.00,-41.00,-1053.00
2024-05-17 16:08:25.909820,-2,0,-14,0,2,0,71,71,136,110,70,192.07,120,-21.00,-17.00,-956.00
2024-05-17 16:08:25.932989,-2,0,-14,0,2,0,71,71,137,110,70,192.13,120,-21.00,-5.00,-992.00
2024-05-17 16:08:26.036335,-2,0,-14,1,2,0,71,71,138,110,70,192.11,120,14.00,-27.00,-1043.00
2024-05-17 16:08:26.136854,0,0,-14,1,2,0,71,71,141,110,70,192.13,121,-57.00,-37.00,-978.00
2024-05-17 16:08:26.314704,2,0,-14,0,2,0,71,71,143,110,70,192.21,121,-12.00,-16.00,-1007.00
2024-05-17 16:08:26.340699,0,-2,-14,0,2,0,71,71,144,110,70,192.13,121,-24.00,-9.00,-970.00
2024-05-17 16:08:26.519481,-1,-5,-14,0,1,0,71,71,146,110,70,192.13,121,-17.00,-33.00,-931.00
2024-05-17 16:08:26.544863,-1,-2,-14,0,0,0,71,71,147,110,70,192.27,121,-12.00,-32.00,-971.00
2024-05-17 16:08:26.725737,0,0,-14,0,0,0,69,72,147,110,70,192.15,121,-1.00,11.00,-953.00
2024-05-17 16:08:26.748702,0,0,-14,0,0,0,69,72,148,110,70,192.23,121,-11.00,3.00,-1000.00
2024-05-17 16:08:26.929265,0,0,-14,0,0,0,69,72,149,120,70,192.18,121,0.00,26.00,-1061.00
2024-05-17 16:08:26.952971,0,0,-14,0,0,0,69,72,151,120,70,192.23,121,-6.00,0.00,-881.00
2024-05-17 16:08:27.135324,0,-1,-14,0,0,0,69,72,151,120,70,192.23,121,-19.00,-22.00,-951.00
2024-05-17 16:08:27.156968,0,-1,-14,0,0,0,69,72,151,120,70,192.23,122,-12.00,31.00,-1009.00
2024-05-17 16:08:27.339659,0,-1,-14,0,0,0,69,72,152,120,70,192.33,122,-10.00,1.00,-953.00
2024-05-17 16:08:27.364699,0,-1,-14,0,0,0,69,72,152,120,70,192.30,122,8.00,22.00,-1048.00
2024-05-17 16:08:27.462704,0,-1,-14,0,0,0,69,72,152,120,70,192.25,122,7.00,-7.00,-929.00
2024-05-17 16:08:27.646279,0,0,-14,0,0,0,69,72,152,120,70,192.25,122,7.00,-12.00,-956.00
2024-05-17 16:08:27.666766,0,0,-14,0,0,0,70,72,152,120,70,192.25,122,24.00,-50.00,-981.00
2024-05-17 16:08:27.770694,0,0,-14,0,0,0,70,72,152,120,70,192.17,122,-39.00,25.00,-990.00
2024-05-17 16:08:27.870790,0,0,-14,0,0,0,70,72,151,120,70,192.22,122,31.00,-1.00,-914.00
2024-05-17 16:08:27.975490,0,0,-14,0,0,0,70,72,149,120,70,192.23,122,-6.00,8.00,-994.00
2024-05-17 16:08:28.074756,0,0,-14,0,0,1,70,72,148,120,70,192.15,122,11.00,18.00,-934.00
2024-05-17 16:08:28.260402,0,0,-14,0,0,1,70,72,147,120,70,192.20,123,-3.00,33.00,-986.00
2024-05-17 16:08:28.278679,0,-1,-14,0,0,1,70,72,145,120,70,192.19,123,-1.00,-18.00,-1021.00
2024-05-17 16:08:28.466685,0,0,-14,0,0,1,70,72,144,120,70,192.17,123,-23.00,26.00,-928.00
2024-05-17 16:08:28.466825,0,0,-14,0,0,1,70,72,143,120,70,192.12,123,12.00,-26.00,-1048.00
2024-05-17 16:08:28.535769,0,0,-14,0,0,1,70,72,142,120,70,192.20,123,-36.00,61.00,-1017.00
2024-05-17 16:08:28.686826,0,0,-14,0,0,0,70,72,141,110,70,192.17,123,9.00,-31.00,-1032.00
2024-05-17 16:08:28.874690,0,0,-9,0,0,0,70,72,140,110,70,192.21,123,7.00,-1.00,-1016.00
2024-05-17 16:08:28.890494,0,-1,-3,0,0,0,70,72,139,110,70,192.15,123,23.00,-7.00,-1026.00
2024-05-17 16:08:28.992522,0,-1,2,0,0,0,70,72,139,110,70,192.15,123,-6.00,-6.00,-994.00
2024-05-17 16:08:29.182485,0,0,8,0,0,0,70,72,138,110,70,192.16,123,-4.00,2.00,-1010.00
2024-05-17 16:08:29.182543,0,0,15,0,0,0,70,72,138,110,70,192.15,124,-11.00,-17.00,-1008.00
2024-05-17 16:08:29.250988,-1,-1,21,0,0,0,70,72,137,110,70,192.09,124,6.00,0.00,-967.00
2024-05-17 16:08:29.349527,-1,-1,27,0,0,0,70,72,138,110,70,192.07,124,-6.00,13.00,-1056.00
2024-05-17 16:08:29.458281,0,-1,33,0,0,0,70,72,137,110,70,192.15,124,-27.00,-10.00,-951.00
2024-05-17 16:08:29.554369,0,-1,39,0,0,0,70,72,137,110,70,192.07,124,6.00,20.00,-977.00
2024-05-17 16:08:29.694430,0,-1,45,0,0,0,70,72,137,110,70,192.15,124,23.00,28.00,-1038.00
2024-05-17 16:08:29.757778,0,0,51,0,0,0,70,72,136,110,70,192.11,124,-10.00,34.00,-1023.00
2024-05-17 16:08:29.898746,0,0,57,0,0,0,70,72,136,110,70,192.04,124,-18.00,-9.00,-973.00
2024-05-17 16:08:29.961759,0,0,63,0,0,0,70,72,136,110,70,192.11,124,-38.00,14.00,-1044.00
2024-05-17 16:08:30.063377,0,0,69,0,0,0,70,72,136,110,70,192.06,124,26.00,0.00,-1002.00
2024-05-17 16:08:30.205842,0,0,75,0,0,0,70,72,135,110,70,192.04,125,5.00,0.00,-967.00
2024-05-17 16:08:30.267462,0,0,81,0,0,0,70,72,134,110,70,192.08,125,-7.00,-6.00,-1011.00
2024-05-17 16:08:30.411902,0,1,87,0,0,0,70,72,135,110,70,192.08,125,-41.00,44.00,-1020.00
2024-05-17 16:08:30.471737,0,0,93,0,0,0,70,72,134,110,70,192.05,125,-20.00,12.00,-967.00
2024-05-17 16:08:30.615427,0,0,99,0,0,0,70,72,136,110,70,192.06,125,4.00,-14.00,-1052.00
2024-05-17 16:08:30.675737,0,0,105,0,0,0,70,72,134,110,70,192.03,125,4.00,-16.00,-1032.00
2024-05-17 16:08:30.820274,0,1,111,0,0,0,70,72,133,110,70,192.08,125,20.00,-3.00,-999.00
2024-05-17 16:08:30.879991,0,1,117,0,0,0,70,72,133,110,70,192.10,125,-12.00,-27.00,-968.00
2024-05-17 16:08:30.981423,0,1,123,0,0,0,70,72,133,110,70,192.05,125,1.00,-38.00,-985.00
2024-05-17 16:08:31.127717,0,1,129,0,0,0,70,72,133,110,70,192.10,125,-37.00,11.00,-1050.00
2024-05-17 16:08:31.185616,0,1,135,0,0,0,70,72,133,110,70,192.06,126,-40.00,-18.00,-1004.00
2024-05-17 16:08:31.334059,0,1,142,0,0,0,70,72,134,110,70,192.05,126,-21.00,-26.00,-1050.00
2024-05-17 16:08:31.390694,0,0,148,0,0,0,70,72,134,110,70,192.09,126,-14.00,8.00,-1010.00
2024-05-17 16:08:31.538075,-1,0,154,0,0,0,70,72,135,110,70,192.00,126,-25.00,6.00,-1001.00
2024-05-17 16:08:31.594630,-1,0,160,0,0,0,70,72,135,110,70,192.08,126,-30.00,36.00,-968.00
2024-05-17 16:08:31.745353,-1,0,166,0,0,0,69,72,135,110,70,192.10,126,-35.00,38.00,-939.00
2024-05-17 16:08:31.797361,-1,0,172,0,0,0,69,72,135,110,70,192.06,126,-12.00,46.00,-916.00
2024-05-17 16:08:31.946662,0,0,178,0,0,0,69,72,136,110,70,192.13,126,-16.00,6.00,-1010.00
2024-05-17 16:08:32.001334,-1,0,-176,0,0,0,69,72,136,110,70,192.05,126,-34.00,-1.00,-1016.00
2024-05-17 16:08:32.151481,-1,0,-170,0,0,0,69,72,136,110,70,192.06,126,-30.00,43.00,-948.00
2024-05-17 16:08:32.205347,-1,0,-164,0,0,0,69,72,137,110,70,192.11,127,-4.00,-34.00,-1098.00
2024-05-17 16:08:32.356250,-1,0,-158,0,0,0,69,72,137,110,70,192.08,127,-41.00,-15.00,-983.00
2024-05-17 16:08:32.409504,-1,0,-152,0,0,0,69,72,137,110,70,192.10,127,-15.00,19.00,-983.00
2024-05-17 16:08:32.560950,-1,1,-147,0,0,0,69,72,137,110,70,192.10,127,-27.00,-10.00,-948.00
2024-05-17 16:08:32.613667,-1,1,-141,0,0,0,69,72,137,110,70,191.99,127,-8.00,27.00,-996.00
2024-05-17 16:08:32.770452,-1,0,-136,0,0,0,70,72,138,110,70,192.08,127,8.00,34.00,-1013.00
2024-05-17 16:08:32.817385,-1,0,-130,0,0,0,70,72,138,110,70,192.05,127,-5.00,-23.00,-944.00
2024-05-17 16:08:32.973062,-1,0,-124,0,0,0,70,72,139,110,70,192.06,127,14.00,-40.00,-971.00
2024-05-17 16:08:33.021402,-1,0,-119,0,0,0,70,72,139,110,70,192.10,127,-16.00,-12.00,-992.00
2024-05-17 16:08:33.076164,0,0,-113,0,0,0,70,72,139,110,70,192.08,127,-25.00,0.00,-998.00
2024-05-17 16:08:33.177378,0,0,-107,0,0,0,70,72,138,110,70,191.99,128,-32.00,23.00,-978.00
2024-05-17 16:08:33.278203,0,0,-101,0,0,0,70,72,138,110,70,192.14,128,0.00,13.00,-981.00
2024-05-17 16:08:33.378390,0,0,-96,0,0,0,70,72,138,110,70,192.14,128,-34.00,34.00,-990.00
2024-05-17 16:08:33.482718,0,0,-90,0,0,0,70,72,138,110,70,192.10,128,-38.00,0.00,-1007.00
2024-05-17 16:08:33.583105,0,0,-84,0,0,0,70,72,137,110,70,192.16,128,-5.00,-18.00,-995.00
2024-05-17 16:08:33.737897,0,0,-78,0,0,0,69,72,136,110,70,191.98,128,-12.00,24.00,-1022.00
2024-05-17 16:08:33.786935,0,0,-72,0,0,0,69,72,136,110,70,192.00,128,-6.00,20.00,-967.00
2024-05-17 16:08:33.892374,0,0,-66,0,0,0,69,72,135,110,70,192.10,128,-13.00,33.00,-959.00
2024-05-17 16:08:33.994636,0,0,-60,0,0,0,69,72,134,110,70,192.16,128,21.00,4.00,-936.00
2024-05-17 16:08:34.097633,0,0,-55,0,0,0,69,72,134,110,70,192.00,128,-7.00,-5.00,-1006.00
2024-05-17 16:08:34.194278,0,0,-49,0,0,0,69,72,134,110,70,191.98,129,-62.00,15.00,-1018.00
2024-05-17 16:08:34.296237,0,0,-43,0,0,0,69,72,135,110,70,192.08,129,-17.00,23.00,-1007.00
2024-05-17 16:08:34.400049,0,0,-37,0,0,0,69,72,135,110,70,192.12,129,-18.00,4.00,-1032.00
2024-05-17 16:08:34.500191,0,0,-31,0,0,0,69,72,135,110,70,192.05,129,-38.00,10.00,-965.00
2024-05-17 16:08:34.604124,0,0,-27,0,0,0,69,72,135,110,70,192.06,129,-20.00,0.00,-998.00
2024-05-17 16:08:34.707185,-1,0,-24,0,0,0,70,72,136,110,70,192.11,129,-52.00,27.00,-984.00
2024-05-17 16:08:34.807627,0,0,-21,0,0,0,70,72,137,110,70,192.08,129,12.00,25.00,-1047.00
2024-05-17 16:08:34.916418,-1,0,-19,0,0,0,70,72,136,110,70,192.13,129,-11.00,1.00,-943.00
2024-05-17 16:08:35.010334,-1,0,-18,0,0,0,70,72,136,110,70,192.08,129,-27.00,18.00,-1018.00
2024-05-17 16:08:35.121054,0,0,-17,0,0,0,70,72,137,110,70,192.07,129,-21.00,20.00,-962.00
2024-05-17 16:08:35.214150,0,0,-16,0,0,0,70,72,137,110,70,192.11,130,-15.00,-39.00,-1047.00
2024-05-17 16:08:35.325855,0,0,-15,0,0,0,70,72,137,110,70,192.11,130,-11.00,1.00,-1005.00
2024-05-17 16:08:35.418614,0,0,-15,0,0,0,70,72,137,110,70,192.14,130,25.00,-1.00,-969.00
2024-05-17 16:08:35.531566,0,0,-15,0,0,0,70,72,137,110,70,192.10,130,-37.00,65.00,-962.00
2024-05-17 16:08:35.622210,0,0,-15,0,0,0,70,72,138,110,70,192.09,130,-11.00,-2.00,-1017.00
2024-05-17 16:08:35.736223,0,0,-15,0,0,0,70,72,137,110,70,192.06,130,22.00,19.00,-905.00
2024-05-17 16:08:35.826677,0,0,-15,0,0,0,70,72,137,110,70,192.09,130,-14.00,62.00,-963.00
2024-05-17 16:08:35.940670,0,0,-15,0,0,0,70,72,136,110,70,192.11,130,10.00,-11.00,-987.00
2024-05-17 16:08:36.030679,0,-1,-15,0,0,0,70,72,136,110,70,192.09,130,-56.00,42.00,-1044.00
2024-05-17 16:08:36.132410,0,0,-15,0,0,0,70,72,135,110,70,192.14,130,-2.00,18.00,-1050.00
2024-05-17 16:08:36.247854,0,0,-15,0,0,0,70,72,135,110,70,192.08,131,-10.00,0.00,-1086.00
2024-05-17 16:08:36.337256,0,-1,-15,0,0,0,70,72,134,110,70,192.05,131,12.00,-7.00,-981.00
2024-05-17 16:08:36.452333,0,0,-15,0,0,0,70,72,134,110,70,192.01,131,16.00,26.00,-1010.00
2024-05-17 16:08:36.540295,0,0,-15,0,0,0,70,72,134,110,70,192.06,131,-12.00,-7.00,-976.00
2024-05-17 16:08:36.657454,0,0,-15,0,0,0,70,72,133,110,70,192.09,131,-17.00,4.00,-962.00
2024-05-17 16:08:36.744361,0,0,-15,0,0,0,70,72,131,110,70,192.02,131,35.00,-15.00,-1022.00
2024-05-17 16:08:36.861942,0,0,-15,0,0,0,70,72,130,110,70,192.06,131,-23.00,24.00,-1011.00
2024-05-17 16:08:36.948294,0,0,-15,0,0,0,70,72,130,110,70,191.99,131,-25.00,17.00,-1039.00
2024-05-17 16:08:37.067592,0,0,-15,0,0,0,70,72,129,110,70,191.96,131,-50.00,19.00,-1029.00
2024-05-17 16:08:37.152166,0,-1,-15,0,0,0,70,72,129,110,70,191.98,131,-18.00,-3.00,-978.00
2024-05-17 16:08:37.254123,-1,-1,-15,0,0,0,70,72,129,110,70,191.98,132,4.00,5.00,-1035.00
2024-05-17 16:08:37.374223,-1,-1,-15,0,0,0,70,72,129,110,70,191.97,132,4.00,23.00,-1005.00
2024-05-17 16:08:37.407156,-1,0,-20,0,0,0,70,72,130,110,70,191.99,132,-10.00,-7.00,-1022.00
2024-05-17 16:08:37.578698,0,0,-26,0,0,0,70,72,130,110,70,192.01,132,-31.00,24.00,-953.00
2024-05-17 16:08:37.614187,0,0,-32,0,0,0,70,72,129,110,70,192.04,132,8.00,0.00,-1013.00
2024-05-17 16:08:37.714636,0,0,-38,0,0,0,70,73,128,110,70,191.94,132,11.00,30.00,-908.00
2024-05-17 16:08:37.815315,0,0,-44,0,0,0,70,73,128,110,70,192.01,132,-12.00,16.00,-1015.00
2024-05-17 16:08:37.988210,0,0,-50,0,0,0,70,73,128,110,70,191.99,132,-29.00,25.00,-972.00
2024-05-17 16:08:38.019365,0,0,-56,0,0,0,70,73,128,110,70,191.98,132,-33.00,0.00,-1053.00
2024-05-17 16:08:38.198465,0,0,-62,0,0,0,70,73,128,110,70,192.01,132,-33.00,24.00,-1055.00
2024-05-17 16:08:38.223079,0,0,-68,0,0,0,70,73,128,110,70,191.97,133,17.00,2.00,-971.00
2024-05-17 16:08:38.397895,0,0,-74,0,0,0,70,73,127,110,70,191.96,133,-22.00,6.00,-996.00
2024-05-17 16:08:38.428898,0,0,-79,0,0,0,70,73,128,110,70,191.95,133,-7.00,-6.00,-974.00
2024-05-17 16:08:38.529314,0,0,-85,0,0,0,70,73,127,110,70,191.93,133,-23.00,4.00,-1028.00
2024-05-17 16:08:38.807540,0,0,-91,0,0,0,70,73,126,110,70,191.92,133,16.00,4.00,-1041.00
2024-05-17 16:08:38.807595,0,0,-103,0,0,0,71,73,125,110,70,191.89,133,-12.00,43.00,-1012.00
2024-05-17 16:08:38.835282,0,0,-109,0,0,0,71,73,125,110,70,191.91,133,11.00,1.00,-996.00
2024-05-17 16:08:39.012905,0,0,-115,0,0,0,71,73,125,110,70,191.94,133,9.00,-2.00,-1040.00
2024-05-17 16:08:39.040169,0,0,-121,0,0,0,71,73,124,110,70,191.86,133,0.00,-8.00,-1090.00
2024-05-17 16:08:39.220824,0,0,-127,0,0,0,71,73,124,110,70,191.84,134,-13.00,-26.00,-990.00
2024-05-17 16:08:39.244510,0,0,-133,0,0,0,71,73,124,110,70,191.93,134,-2.00,-2.00,-960.00
2024-05-17 16:08:39.421840,0,0,-139,0,0,0,71,73,124,110,70,191.90,134,-13.00,18.00,-1024.00
2024-05-17 16:08:39.446989,0,0,-145,0,0,0,71,73,124,110,70,191.95,134,33.00,-39.00,-994.00
2024-05-17 16:08:39.626687,0,0,-151,0,0,0,71,73,123,110,70,191.88,134,15.00,7.00,-1076.00
2024-05-17 16:08:39.651006,0,0,-157,0,0,0,71,73,123,110,70,191.88,134,-30.00,21.00,-1069.00
2024-05-17 16:08:39.753011,0,0,-163,0,0,0,70,72,123,110,70,191.91,134,-16.00,-10.00,-985.00
2024-05-17 16:08:39.933838,0,0,-169,0,0,0,70,72,122,110,70,191.93,134,-8.00,20.00,-976.00
2024-05-17 16:08:39.957809,0,0,-175,0,0,0,70,72,122,110,70,191.82,134,-22.00,40.00,-997.00
2024-05-17 16:08:40.058954,0,0,179,0,0,0,70,72,122,110,70,191.99,134,14.00,-3.00,-1006.00
2024-05-17 16:08:40.241041,0,0,173,0,0,0,70,72,122,110,70,191.97,135,-53.00,-1.00,-1015.00
2024-05-17 16:08:40.263093,0,0,167,0,0,0,70,72,122,110,70,191.90,135,-2.00,-14.00,-995.00
2024-05-17 16:08:40.445847,0,0,161,0,0,0,70,72,122,110,70,191.99,135,-1.00,-17.00,-1016.00
2024-05-17 16:08:40.467162,0,0,155,0,0,0,70,72,123,110,70,191.92,135,-12.00,-12.00,-949.00
2024-05-17 16:08:40.656005,0,1,149,0,0,0,70,72,122,110,70,191.92,135,-12.00,8.00,-1044.00
2024-05-17 16:08:40.671065,0,0,143,0,0,0,70,72,122,110,70,191.97,135,-9.00,-3.00,-986.00
2024-05-17 16:08:40.855454,0,0,138,0,0,0,70,72,123,110,70,191.92,135,-30.00,14.00,-981.00
2024-05-17 16:08:40.875383,0,0,132,0,0,0,70,72,122,110,70,191.91,135,2.00,-11.00,-1005.00
2024-05-17 16:08:41.060172,0,0,126,0,0,0,70,72,123,110,70,191.93,135,31.00,3.00,-872.00
2024-05-17 16:08:41.079050,0,0,120,0,0,0,70,72,123,110,70,191.95,135,-46.00,-5.00,-1113.00
2024-05-17 16:08:41.264891,0,0,114,0,0,0,70,72,123,110,70,191.95,136,-24.00,35.00,-995.00
2024-05-17 16:08:41.265098,0,0,108,0,0,0,70,72,124,110,70,191.93,136,31.00,22.00,-955.00
2024-05-17 16:08:41.334072,0,0,103,0,0,0,70,72,124,110,70,191.99,136,2.00,4.00,-1002.00
2024-05-17 16:08:41.469686,0,0,97,0,0,0,70,72,124,110,70,191.90,136,1.00,-14.00,-1062.00
2024-05-17 16:08:41.537787,0,0,91,0,0,0,70,72,124,110,70,191.89,136,16.00,-5.00,-955.00
2024-05-17 16:08:41.674581,0,0,85,0,0,0,70,72,124,110,70,191.96,136,0.00,-3.00,-994.00
2024-05-17 16:08:41.793497,0,0,79,0,0,0,70,72,123,110,69,191.96,136,18.00,13.00,-949.00
2024-05-17 16:08:41.981769,0,0,73,0,0,0,70,72,124,110,69,191.95,136,-18.00,-11.00,-983.00
2024-05-17 16:08:41.981805,0,0,67,0,0,0,70,72,123,110,69,191.92,136,15.00,1.00,-993.00
2024-05-17 16:08:42.048751,0,0,62,0,0,0,70,72,123,110,69,191.88,136,8.00,-5.00,-1050.00
2024-05-17 16:08:42.151016,0,0,56,0,0,0,70,72,123,110,69,191.96,137,35.00,-16.00,-1000.00
2024-05-17 16:08:42.253316,0,0,50,0,0,0,70,72,124,110,69,191.95,137,-27.00,20.00,-1016.00
2024-05-17 16:08:42.394620,0,0,44,0,0,0,70,72,123,110,69,191.97,137,8.00,27.00,-967.00
2024-05-17 16:08:42.456825,0,0,38,0,0,0,70,72,123,110,69,191.95,137,-52.00,9.00,-1125.00
2024-05-17 16:08:42.596174,0,0,32,0,0,0,70,72,123,110,69,191.92,137,31.00,9.00,-1054.00
2024-05-17 16:08:42.660774,0,0,26,0,0,0,70,72,123,110,69,191.94,137,29.00,19.00,-866.00
2024-05-17 16:08:42.800954,0,0,20,0,0,0,70,73,123,110,69,191.90,137,-1.00,-10.00,-998.00
2024-05-17 16:08:42.864965,0,0,14,0,0,0,70,73,122,110,69,191.87,137,-20.00,4.00,-1051.00
2024-05-17 16:08:43.008343,0,0,8,0,0,0,70,73,122,110,69,191.93,137,25.00,0.00,-1051.00
2024-05-17 16:08:43.070360,0,0,2,0,0,0,70,73,122,110,69,191.92,137,23.00,4.00,-992.00
2024-05-17 16:08:43.171103,0,0,-1,0,0,0,70,73,122,110,69,191.92,138,-9.00,9.00,-1015.00
2024-05-17 16:08:43.273201,0,0,-4,0,0,0,70,73,122,110,69,191.89,138,-12.00,21.00,-984.00
2024-05-17 16:08:43.415366,0,0,-7,0,0,0,70,73,122,110,69,191.96,138,-21.00,7.00,-953.00
2024-05-17 16:08:43.476769,0,0,-9,0,0,0,70,73,122,110,69,192.00,138,7.00,1.00,-1049.00
2024-05-17 16:08:43.578964,0,0,-10,0,0,0,70,73,123,110,69,191.98,138,1.00,-26.00,-1008.00
2024-05-17 16:08:43.685238,0,0,-11,0,0,0,70,73,124,110,69,191.95,138,11.00,6.00,-1048.00
2024-05-17 16:08:43.782814,0,0,-12,0,0,0,71,72,123,110,69,191.95,138,-19.00,1.00,-993.00
2024-05-17 16:08:43.927346,0,0,-13,0,0,0,71,72,124,110,69,192.00,138,14.00,-13.00,-1020.00
2024-05-17 16:08:43.986934,0,0,-13,0,0,0,71,72,124,110,69,191.94,138,9.00,-17.00,-971.00
2024-05-17 16:08:44.088789,0,0,-13,0,0,0,71,72,124,110,69,191.92,138,-20.00,21.00,-1014.00
2024-05-17 16:08:44.190960,0,0,-13,0,0,0,71,72,125,110,69,191.98,139,8.00,-16.00,-1007.00
2024-05-17 16:08:44.337455,0,0,-13,0,0,0,71,72,125,110,69,192.01,139,-17.00,37.00,-946.00
2024-05-17 16:08:44.394913,0,0,-13,0,0,0,71,72,126,110,69,191.95,139,1.00,13.00,-965.00
2024-05-17 16:08:44.542388,0,0,-13,0,0,0,71,72,127,110,69,192.02,139,-17.00,9.00,-1130.00
2024-05-17 16:08:44.598727,0,0,-13,0,0,0,71,72,127,110,69,191.99,139,-2.00,-1.00,-1024.00
2024-05-17 16:08:44.752261,0,0,-13,0,0,0,71,72,128,110,69,192.05,139,-24.00,0.00,-992.00
2024-05-17 16:08:44.802874,0,0,-13,0,0,0,70,72,127,110,69,192.03,139,-47.00,23.00,-1015.00
2024-05-17 16:08:44.951636,-1,0,-13,0,0,0,70,72,127,110,69,192.00,139,6.00,30.00,-914.00
2024-05-17 16:08:45.009310,0,0,-13,0,0,0,70,72,125,110,69,192.03,139,6.00,-1.00,-1040.00
2024-05-17 16:08:45.108819,0,-1,-13,0,0,0,70,72,123,110,69,192.11,139,36.00,0.00,-1000.00
2024-05-17 16:08:45.259164,0,-1,-13,0,0,0,70,72,123,110,69,192.10,140,4.00,33.00,-1064.00
2024-05-17 16:08:45.314124,0,-1,-13,0,0,0,70,72,122,110,69,192.03,140,-13.00,26.00,-929.00
2024-05-17 16:08:45.415008,0,-1,-13,0,0,0,70,72,121,110,69,191.99,140,22.00,-21.00,-1021.00
2024-05-17 16:08:45.466624,0,-1,-13,0,0,0,70,72,120,110,69,191.94,140,43.00,0.00,-1046.00
2024-05-17 16:08:45.567843,0,-1,-13,0,0,0,70,72,119,110,69,191.93,140,8.00,15.00,-972.00
2024-05-17 16:08:45.770739,0,-1,-13,0,0,0,70,72,118,110,69,192.02,140,38.00,8.00,-991.00
2024-05-17 16:08:45.771700,0,-1,-13,0,0,0,69,72,118,110,69,191.98,140,-15.00,25.00,-1087.00
2024-05-17 16:08:45.930914,0,-1,-14,0,0,0,69,72,118,100,69,191.89,140,-25.00,23.00,-1006.00
2024-05-17 16:08:45.975672,0,-1,-14,0,0,0,69,72,117,100,69,191.94,140,4.00,-7.00,-1106.00
2024-05-17 16:08:46.183181,0,-1,-14,0,0,0,69,72,118,100,69,191.97,140,2.00,9.00,-1401.00
2024-05-17 16:08:46.183346,0,-2,-15,0,0,-5,69,72,123,110,69,192.10,141,-30.00,53.00,-1629.00
2024-05-17 16:08:46.282749,-1,-19,-18,0,0,-10,69,72,147,110,69,192.14,141,19.00,201.00,-1210.00
2024-05-17 16:08:46.384990,-7,-119,-11,-1,-7,-8,69,72,251,130,69,192.32,141,-42.00,593.00,-1139.00
2024-05-17 16:08:46.487266,10,112,-9,-2,-9,6,69,72,416,130,69,192.42,141,-64.00,420.00,-985.00
2024-05-17 16:08:46.590017,2,9,-29,0,-2,13,69,72,131,120,69,192.32,141,12.00,-53.00,-1464.00
2024-05-17 16:08:46.692059,0,-3,-33,-1,-3,10,69,72,119,110,69,191.91,141,-29.00,32.00,-1393.00
2024-05-17 16:08:46.795404,0,3,-39,-1,-3,6,70,72,112,100,69,191.81,141,16.00,46.00,-1428.00
2024-05-17 16:08:46.894675,1,3,-41,0,-2,2,70,72,109,90,69,191.81,141,-10.00,-31.00,-1305.00
2024-05-17 16:08:47.000632,0,1,-37,0,-1,0,70,72,107,90,69,191.80,141,-2.00,7.00,-1185.00
2024-05-17 16:08:47.098824,0,0,-27,0,-1,0,70,72,108,90,69,191.85,141,-50.00,-17.00,-1082.00
2024-05-17 16:08:47.204191,0,0,-16,0,0,-1,70,72,111,90,69,191.75,142,-43.00,49.00,-1041.00
2024-05-17 16:08:47.304571,0,0,-13,0,0,-2,70,72,112,90,69,191.79,142,7.00,8.00,-973.00
2024-05-17 16:08:47.404589,0,0,-13,0,0,-2,70,72,114,90,69,191.91,142,4.00,19.00,-1003.00
2024-05-17 16:08:47.507281,0,0,-13,0,0,-1,70,72,117,100,69,191.88,142,6.00,17.00,-929.00
2024-05-17 16:08:47.608573,0,0,-13,0,0,-1,70,72,117,100,69,191.92,142,-1.00,13.00,-988.00
2024-05-17 16:08:47.710634,0,0,-13,0,0,0,70,72,118,100,69,191.87,142,-17.00,5.00,-942.00
2024-05-17 16:08:47.813325,0,0,-13,0,0,0,70,72,119,100,69,191.88,142,38.00,-27.00,-991.00
2024-05-17 16:08:47.914683,0,0,-13,0,0,0,70,72,120,100,69,191.90,142,-20.00,8.00,-913.00
2024-05-17 16:08:48.019481,0,0,-13,0,0,0,70,72,120,100,69,191.91,142,-4.00,9.00,-965.00
2024-05-17 16:08:48.119555,0,1,-13,0,0,0,70,72,120,100,69,191.92,142,6.00,17.00,-982.00
2024-05-17 16:08:48.228073,0,1,-13,0,0,0,70,72,121,100,69,191.92,143,-9.00,11.00,-1016.00
2024-05-17 16:08:48.323529,0,1,-13,0,0,0,70,72,122,100,69,191.97,143,-17.00,-9.00,-1049.00
2024-05-17 16:08:48.433016,0,1,-13,0,0,0,70,72,124,100,69,191.97,143,-1.00,9.00,-1001.00
2024-05-17 16:08:48.532470,0,0,-13,0,0,0,70,72,125,100,69,192.02,143,-23.00,31.00,-1012.00
2024-05-17 16:08:48.629519,0,0,-13,0,0,0,70,72,126,100,69,192.02,143,-13.00,9.00,-996.00
2024-05-17 16:08:48.740112,0,0,-13,0,0,0,70,72,127,100,68,191.94,143,7.00,19.00,-959.00
2024-05-17 16:08:48.833594,0,0,-13,0,0,0,71,72,129,110,68,191.98,143,-34.00,67.00,-997.00
2024-05-17 16:08:48.944995,0,0,-13,0,0,0,71,72,128,110,68,191.99,143,4.00,-5.00,-969.00
2024-05-17 16:08:49.037626,0,0,-13,0,0,0,71,72,130,110,68,192.04,143,-18.00,5.00,-969.00
2024-05-17 16:08:49.149801,0,0,-13,0,0,0,71,72,130,110,68,192.00,143,26.00,-18.00,-952.00
2024-05-17 16:08:49.190765,0,-1,-13,0,0,0,71,72,130,110,68,192.02,144,30.00,5.00,-868.00
2024-05-17 16:08:49.357871,0,0,-13,0,0,0,71,72,130,110,68,192.02,144,-18.00,-1.00,-968.00
2024-05-17 16:08:49.394535,0,0,-13,0,0,0,71,72,130,110,68,192.05,144,-11.00,-18.00,-956.00
2024-05-17 16:08:49.559378,0,0,-13,0,0,0,71,72,130,110,68,192.02,144,19.00,7.00,-1009.00
2024-05-17 16:08:49.599098,0,-1,-13,0,0,0,71,72,129,110,68,191.96,144,4.00,34.00,-1019.00
2024-05-17 16:08:49.764259,0,-1,-13,0,0,0,71,72,129,110,68,192.02,144,42.00,6.00,-1013.00
2024-05-17 16:08:49.802991,0,-1,-13,0,0,0,70,72,127,110,68,192.01,144,-7.00,27.00,-993.00
2024-05-17 16:08:49.968994,0,0,-13,0,0,0,70,72,126,110,68,191.97,144,-13.00,18.00,-942.00
2024-05-17 16:08:50.007242,0,-1,-13,0,0,0,70,72,126,110,68,191.91,144,44.00,0.00,-985.00
2024-05-17 16:08:50.173902,0,0,-13,0,0,0,70,72,124,110,68,191.93,144,11.00,2.00,-1063.00
2024-05-17 16:08:50.212113,0,0,-13,0,0,0,70,72,123,110,68,191.94,145,26.00,17.00,-983.00
2024-05-17 16:08:50.312639,0,0,-13,0,0,0,70,72,122,100,68,191.85,145,-32.00,29.00,-988.00
2024-05-17 16:08:50.480987,0,0,-13,0,0,0,70,72,120,100,68,191.91,145,33.00,11.00,-1032.00
2024-05-17 16:08:50.518168,0,0,-13,0,0,0,70,72,120,100,68,191.91,145,-24.00,-19.00,-993.00
2024-05-17 16:08:50.618592,0,0,-13,0,0,0,70,72,120,100,68,191.92,145,8.00,-5.00,-984.00
2024-05-17 16:08:50.788274,0,0,-13,0,0,0,70,72,119,100,68,191.92,145,20.00,7.00,-1014.00
2024-05-17 16:08:50.822488,0,0,-13,0,0,0,70,72,119,100,68,191.93,145,-19.00,25.00,-1090.00
2024-05-17 16:08:50.993168,0,0,-13,0,0,0,70,72,119,100,68,191.95,145,-14.00,10.00,-993.00
2024-05-17 16:08:51.026770,0,0,-13,0,0,0,70,72,119,100,68,191.89,145,23.00,11.00,-955.00
2024-05-17 16:08:51.198549,0,0,-13,0,0,0,70,72,120,100,68,191.90,145,-6.00,18.00,-956.00
2024-05-17 16:08:51.230470,0,0,-13,0,0,0,70,72,120,100,68,191.90,146,4.00,27.00,-959.00
2024-05-17 16:08:51.403310,0,0,-13,0,0,0,70,72,120,100,68,191.93,146,32.00,-7.00,-1011.00
2024-05-17 16:08:51.434614,0,0,-13,0,0,0,70,72,120,100,68,191.90,146,-8.00,33.00,-999.00
2024-05-17 16:08:51.607746,0,0,-13,0,0,0,70,72,120,100,68,191.95,146,3.00,1.00,-1015.00
2024-05-17 16:08:51.638375,0,0,-13,0,0,0,70,72,120,100,68,191.92,146,-43.00,27.00,-1053.00
2024-05-17 16:08:51.812240,0,0,-13,0,0,0,70,72,121,100,68,191.97,146,-28.00,9.00,-1031.00
2024-05-17 16:08:51.842308,0,0,-13,0,0,0,70,73,121,100,68,191.90,146,1.00,12.00,-957.00
2024-05-17 16:08:52.017734,0,0,-13,0,0,0,70,73,123,100,68,191.98,146,5.00,-13.00,-961.00
2024-05-17 16:08:52.046447,0,0,-13,0,0,0,70,73,123,100,68,191.94,146,-23.00,14.00,-976.00
2024-05-17 16:08:52.222207,0,-1,-13,0,0,0,70,73,123,100,68,191.91,146,-5.00,2.00,-985.00
2024-05-17 16:08:52.250324,0,0,-13,0,0,0,70,73,123,100,68,191.97,147,-20.00,34.00,-886.00
2024-05-17 16:08:52.352658,0,0,-13,0,0,0,70,73,124,100,68,192.00,147,-11.00,-14.00,-1000.00
2024-05-17 16:08:52.528990,0,0,-13,0,0,0,70,73,123,100,68,192.02,147,-25.00,31.00,-934.00
2024-05-17 16:08:52.556317,0,0,-13,0,0,0,70,73,124,100,68,191.96,147,12.00,1.00,-1019.00
2024-05-17 16:08:52.658225,0,0,-13,0,0,0,70,73,124,100,68,191.95,147,-20.00,-4.00,-1003.00
2024-05-17 16:08:52.709232,0,0,-13,0,0,0,70,73,124,100,68,192.08,147,2.00,-20.00,-1451.00
2024-05-17 16:08:52.865164,0,5,-14,0,0,-9,70,73,129,110,68,192.01,147,12.00,11.00,-1690.00
2024-05-17 16:08:52.964224,3,77,-14,0,5,-13,70,73,179,120,68,192.38,147,-55.00,138.00,-1773.00
2024-05-17 16:08:53.066320,0,-155,-9,1,11,0,70,73,201,130,68,192.29,147,-95.00,852.00,-1062.00
2024-05-17 16:08:53.168185,-4,-38,-18,0,5,11,70,73,285,120,68,192.34,148,-103.00,664.00,-864.00
2024-05-17 16:08:53.349644,1,6,-25,0,4,11,70,73,135,110,68,192.01,148,-110.00,376.00,-909.00
2024-05-17 16:08:53.352759,0,-2,-34,0,5,7,70,73,125,100,68,192.00,148,-26.00,-29.00,-1501.00
2024-05-17 16:08:53.423168,-3,-3,-40,0,4,3,70,73,119,100,68,191.78,148,-7.00,-21.00,-1392.00
2024-05-17 16:08:53.552862,-2,-1,-41,0,3,1,70,73,115,90,68,191.77,148,-46.00,-25.00,-1239.00
2024-05-17 16:08:53.627183,-2,-1,-37,0,2,0,70,73,115,90,68,191.79,148,16.00,1.00,-1133.00
2024-05-17 16:08:53.758257,-1,0,-30,0,2,0,70,73,116,90,67,191.81,148,-8.00,-17.00,-1124.00
2024-05-17 16:08:53.831840,-1,0,-19,0,2,-1,71,72,116,90,67,191.75,148,-52.00,-61.00,-987.00
2024-05-17 16:08:53.962391,-1,-1,-13,0,2,-1,71,72,118,90,67,191.94,148,-65.00,26.00,-966.00
2024-05-17 16:08:54.036245,-1,-1,-12,0,1,-1,71,72,120,90,67,191.95,148,-41.00,21.00,-973.00
2024-05-17 16:08:54.137216,-1,0,-12,0,1,-1,71,72,121,100,67,191.87,149,-6.00,-20.00,-986.00
2024-05-17 16:08:54.269667,-2,-3,-12,0,1,-1,71,72,122,100,67,191.85,149,26.00,-40.00,-922.00
2024-05-17 16:08:54.341170,-2,-2,-12,0,0,0,71,72,125,100,67,191.80,149,11.00,-56.00,-1057.00
2024-05-17 16:08:54.443344,-2,-1,-12,0,0,0,71,72,125,100,67,191.86,149,-61.00,-2.00,-968.00
2024-05-17 16:08:54.545172,-2,-1,-12,0,0,0,71,72,125,100,67,191.96,149,-67.00,-30.00,-951.00
2024-05-17 16:08:54.647120,-1,-1,-12,0,0,0,71,72,126,100,67,191.94,149,-35.00,15.00,-1011.00
2024-05-17 16:08:54.781683,-1,-1,-12,0,0,0,71,72,126,100,67,191.90,149,-39.00,14.00,-950.00
2024-05-17 16:08:54.851202,-1,-1,-12,0,0,0,71,72,126,100,67,191.94,149,-13.00,-18.00,-1018.00
2024-05-17 16:08:54.986430,-1,-1,-12,0,0,0,71,72,126,100,67,191.97,149,-23.00,15.00,-978.00
2024-05-17 16:08:55.055912,-1,-1,-13,0,0,0,71,72,126,100,67,191.86,149,-40.00,32.00,-954.00
2024-05-17 16:08:55.191245,-1,-2,-13,0,0,0,71,72,125,100,67,191.93,150,-48.00,7.00,-943.00
2024-05-17 16:08:55.259192,-1,-1,-13,0,0,0,71,72,125,100,67,191.94,150,-35.00,14.00,-1054.00
2024-05-17 16:08:55.396379,-1,-1,-13,0,0,0,71,72,125,100,67,192.00,150,-26.00,-21.00,-962.00
2024-05-17 16:08:55.465417,-1,-1,-13,0,0,0,71,72,125,100,67,191.89,150,-49.00,-7.00,-1013.00
2024-05-17 16:08:55.565083,-1,-1,-13,0,0,0,71,72,124,100,67,191.84,150,-61.00,0.00,-1017.00
2024-05-17 16:08:55.703233,-1,-1,-13,0,0,0,71,72,124,100,67,191.96,150,-36.00,-2.00,-1012.00
2024-05-17 16:08:55.769484,-1,-1,-13,0,0,0,71,72,124,100,66,191.90,150,-60.00,14.00,-1016.00
