TS,pitch,roll,yaw,vgx,vgy,vgz,templ,temph,tof,h,bat,baro,time,agx,agy,agz
2024-06-07 00:10:28.957689,0,0,0,0,0,0,54,56,10,0,51,119.34,0,0.00,2.00,-1000.00
2024-06-07 00:10:29.077870,0,0,0,0,0,0,54,56,10,0,51,119.32,0,0.00,0.00,-999.00
2024-06-07 00:10:29.110545,0,0,0,0,0,0,54,56,10,0,51,119.37,0,0.00,0.00,-998.00
2024-06-07 00:10:29.282298,0,0,0,0,0,0,54,56,10,0,51,119.31,0,0.00,1.00,-997.00
2024-06-07 00:10:29.366585,0,0,0,0,0,0,54,57,10,0,51,119.39,0,0.00,2.00,-1000.00
2024-06-07 00:10:29.487621,0,0,0,0,0,0,54,57,10,0,51,119.39,0,0.00,2.00,-998.00
2024-06-07 00:10:29.519629,0,0,0,0,0,0,54,57,10,0,51,119.37,0,0.00,1.00,-1000.00
2024-06-07 00:10:29.692132,0,0,0,0,0,0,54,57,10,0,51,119.38,0,-1.00,1.00,-1001.00
2024-06-07 00:10:29.723795,0,0,0,0,0,0,54,57,10,0,51,119.32,0,0.00,0.00,-1002.00
2024-06-07 00:10:29.896786,0,0,0,0,0,0,54,57,10,0,51,119.31,0,-1.00,0.00,-1001.00
2024-06-07 00:10:29.927716,0,0,0,0,0,0,54,57,10,0,51,119.32,0,0.00,2.00,-1000.00
2024-06-07 00:10:30.101807,0,0,0,0,0,0,54,57,10,0,51,119.36,0,0.00,1.00,-999.00
2024-06-07 00:10:30.131790,0,0,0,0,0,0,54,57,10,0,51,119.34,0,-1.00,1.00,-1002.00
2024-06-07 00:10:30.233805,0,0,0,0,0,0,54,57,10,0,51,119.29,0,-1.00,0.00,-1000.00
2024-06-07 00:10:30.410209,0,0,0,0,0,0,54,56,10,0,51,119.34,0,0.00,0.00,-1000.00
2024-06-07 00:10:30.437754,0,0,0,0,0,0,54,56,10,0,51,119.35,0,-1.00,0.00,-998.00
2024-06-07 00:10:30.613470,0,0,0,0,0,0,54,56,10,0,51,119.34,0,0.00,0.00,-999.00
2024-06-07 00:10:30.641519,0,0,0,0,0,0,54,56,10,0,51,119.27,0,1.00,0.00,-1000.00
2024-06-07 00:10:30.743675,0,0,0,0,0,0,54,56,10,0,51,119.30,0,0.00,0.00,-999.00
2024-06-07 00:10:30.920734,0,0,0,0,0,0,54,56,10,0,51,119.31,0,0.00,1.00,-998.00
2024-06-07 00:10:30.947645,0,0,0,0,0,0,54,56,10,0,51,119.36,0,-1.00,1.00,-999.00
2024-06-07 00:10:31.125448,0,0,0,0,0,0,54,56,10,0,51,119.34,0,0.00,2.00,-999.00
2024-06-07 00:10:31.151531,0,0,0,0,0,0,54,56,10,0,51,119.28,0,0.00,2.00,-1001.00
2024-06-07 00:10:31.253593,0,0,0,0,0,0,54,56,10,0,51,119.30,0,0.00,0.00,-1001.00
2024-06-07 00:10:31.432521,0,0,0,0,0,0,55,57,10,0,51,119.34,0,0.00,2.00,-1000.00
2024-06-07 00:10:31.457609,0,0,0,0,0,0,55,57,10,0,51,119.30,0,0.00,1.00,-1002.00
2024-06-07 00:10:31.637581,0,0,0,0,0,0,55,57,10,0,51,119.30,0,0.00,1.00,-1000.00
2024-06-07 00:10:31.661577,0,0,0,0,0,0,55,57,10,0,51,119.35,0,0.00,1.00,-1002.00
2024-06-07 00:10:31.842217,0,0,0,0,0,0,55,57,10,0,51,119.34,0,0.00,0.00,-1001.00
2024-06-07 00:10:31.865606,0,0,0,0,0,0,55,57,10,0,51,119.33,0,-1.00,0.00,-1000.00
2024-06-07 00:10:32.053616,0,0,0,0,0,0,55,57,10,0,51,119.41,0,1.00,1.00,-997.00
2024-06-07 00:10:32.069435,0,0,0,0,0,0,55,57,10,0,51,119.36,0,0.00,1.00,-1000.00
2024-06-07 00:10:32.254262,0,0,0,0,0,0,55,57,10,0,51,119.28,0,0.00,1.00,-1002.00
2024-06-07 00:10:32.273432,0,0,0,0,0,0,55,57,10,0,51,119.34,0,0.00,0.00,-999.00
2024-06-07 00:10:32.456608,0,0,0,0,0,0,55,57,10,0,51,119.33,0,0.00,1.00,-998.00
2024-06-07 00:10:32.477351,0,0,0,0,0,0,55,57,10,0,51,119.32,0,0.00,1.00,-999.00
2024-06-07 00:10:32.663950,0,0,0,0,0,0,55,57,10,0,51,119.32,0,-1.00,0.00,-1000.00
2024-06-07 00:10:32.664216,0,0,0,0,0,0,55,57,10,0,51,119.37,0,0.00,1.00,-1000.00
2024-06-07 00:10:32.733140,0,0,0,0,0,0,55,57,10,0,51,119.34,0,0.00,0.00,-998.00
2024-06-07 00:10:32.867809,0,0,0,0,0,0,55,57,10,0,51,119.38,0,0.00,0.00,-1000.00
2024-06-07 00:10:32.939436,0,0,0,0,0,0,55,57,10,0,51,119.29,0,2.00,0.00,-999.00
2024-06-07 00:10:33.039471,0,0,0,0,0,0,55,57,10,0,51,119.29,0,0.00,0.00,-999.00
2024-06-07 00:10:33.173382,0,0,0,0,0,0,55,57,10,0,51,119.32,0,0.00,0.00,-1001.00
2024-06-07 00:10:33.243289,0,0,0,0,0,0,55,57,10,0,51,119.34,0,0.00,0.00,-1001.00
2024-06-07 00:10:33.378362,0,0,0,0,0,0,56,58,10,0,51,119.35,0,0.00,0.00,-998.00
2024-06-07 00:10:33.447419,0,0,0,0,0,0,56,58,10,0,51,119.33,0,1.00,0.00,-1001.00
2024-06-07 00:10:33.583087,0,0,0,0,0,0,56,58,10,0,51,119.30,0,0.00,0.00,-1000.00
2024-06-07 00:10:33.651361,0,0,0,0,0,0,56,58,10,0,51,119.35,0,0.00,1.00,-999.00
2024-06-07 00:10:33.788036,0,0,0,0,0,0,56,58,10,0,51,119.35,0,2.00,3.00,-1001.00
2024-06-07 00:10:33.855401,0,0,0,0,0,0,56,58,10,0,51,119.30,0,0.00,1.00,-1000.00
2024-06-07 00:10:33.992770,0,0,0,0,0,0,56,58,10,0,51,119.34,0,0.00,0.00,-998.00
2024-06-07 00:10:34.059379,0,0,0,0,0,0,56,58,10,0,51,119.32,0,0.00,2.00,-1000.00
2024-06-07 00:10:34.199083,0,0,0,0,0,0,56,58,10,0,51,119.33,0,0.00,0.00,-1001.00
2024-06-07 00:10:34.263740,0,0,0,0,0,0,56,58,10,0,51,119.35,0,0.00,0.00,-999.00
2024-06-07 00:10:34.402134,0,0,0,0,0,0,55,57,10,0,51,119.36,0,1.00,0.00,-999.00
2024-06-07 00:10:34.467424,0,0,0,0,0,0,55,57,10,0,51,119.34,0,0.00,0.00,-999.00
2024-06-07 00:10:34.606947,0,0,0,0,0,0,55,57,10,0,51,119.32,0,0.00,1.00,-1000.00
2024-06-07 00:10:34.671325,0,0,0,0,0,0,55,57,10,0,51,119.29,0,1.00,0.00,-1001.00
2024-06-07 00:10:34.773361,0,0,0,0,0,0,55,57,10,0,51,119.33,0,0.00,0.00,-1001.00
2024-06-07 00:10:34.914296,0,0,0,0,0,0,55,57,10,0,51,119.40,0,0.00,0.00,-998.00
2024-06-07 00:10:34.977229,0,0,0,0,0,0,55,57,10,0,51,119.34,0,0.00,1.00,-999.00
2024-06-07 00:10:35.079138,0,0,0,0,0,0,55,57,10,0,51,119.35,0,0.00,1.00,-998.00
2024-06-07 00:10:35.221229,0,0,0,0,0,0,55,57,10,0,51,119.35,0,0.00,0.00,-1000.00
2024-06-07 00:10:35.283005,0,0,0,0,0,0,55,57,10,0,51,119.34,0,12.00,-13.00,-1000.00
2024-06-07 00:10:35.426329,0,0,0,0,0,0,56,58,10,0,51,119.34,0,3.00,0.00,-998.00
2024-06-07 00:10:35.487066,0,0,0,0,0,0,56,58,10,0,51,119.34,0,0.00,1.00,-997.00
2024-06-07 00:10:35.631681,0,0,0,0,0,0,56,58,10,0,51,119.34,0,0.00,5.00,-1004.00
2024-06-07 00:10:35.691062,0,0,0,0,0,0,56,58,10,0,51,119.34,0,6.00,7.00,-1011.00
2024-06-07 00:10:35.835923,0,0,-1,0,0,0,56,58,10,0,51,119.34,0,-28.00,16.00,-1017.00
2024-06-07 00:10:35.895137,0,0,-2,0,0,-1,56,58,10,0,51,119.34,0,-2.00,-3.00,-1021.00
2024-06-07 00:10:35.945802,0,1,-2,0,0,-4,56,58,21,0,51,119.34,0,1.00,18.00,-1118.00
2024-06-07 00:10:36.142756,0,1,-2,0,0,-6,56,58,21,0,51,119.68,0,34.00,-42.00,-1390.00
2024-06-07 00:10:36.149799,0,0,-2,0,0,-6,56,58,21,0,51,119.76,1,27.00,-53.00,-1234.00
2024-06-07 00:10:36.251792,0,0,-2,0,0,-6,56,58,25,0,51,119.81,1,-9.00,1.00,-1119.00
2024-06-07 00:10:36.449920,0,0,-2,0,0,-6,56,58,32,10,51,119.90,1,22.00,-11.00,-1032.00
2024-06-07 00:10:36.455703,0,0,-2,0,0,-6,56,58,40,10,51,120.02,1,29.00,-34.00,-980.00
2024-06-07 00:10:36.654704,0,0,-2,0,0,-5,56,58,52,20,51,120.10,1,20.00,-10.00,-940.00
2024-06-07 00:10:36.659666,0,0,-2,0,0,-4,56,58,60,20,51,120.14,1,20.00,-16.00,-964.00
2024-06-07 00:10:36.764578,0,0,-2,0,0,-3,56,58,67,20,51,120.26,1,0.00,15.00,-879.00
2024-06-07 00:10:36.863799,0,0,-2,0,0,-2,56,58,73,30,51,120.29,1,8.00,4.00,-887.00
2024-06-07 00:10:37.269052,0,0,-2,0,0,-2,56,58,78,30,51,120.39,1,-20.00,19.00,-917.00
2024-06-07 00:10:37.269162,0,0,-2,0,0,-1,56,58,82,30,51,120.35,1,29.00,-35.00,-919.00
2024-06-07 00:10:37.269401,0,0,-2,0,0,0,56,58,86,40,51,120.42,2,48.00,-33.00,-931.00
2024-06-07 00:10:37.272242,0,0,-2,0,0,0,56,58,89,40,51,120.44,2,-13.00,-21.00,-953.00
2024-06-07 00:10:37.374608,0,0,-2,0,0,0,55,59,92,40,51,120.47,2,5.00,-6.00,-922.00
2024-06-07 00:10:37.552921,0,0,-2,0,0,0,55,59,94,40,50,120.45,2,23.00,-5.00,-911.00
2024-06-07 00:10:37.618543,0,0,-2,0,0,0,55,59,95,40,50,120.53,2,3.00,-7.00,-932.00
2024-06-07 00:10:37.714774,0,0,-2,0,0,0,55,59,96,50,50,120.56,2,27.00,-3.00,-992.00
2024-06-07 00:10:37.799781,0,0,-2,0,0,0,55,59,97,50,50,120.57,2,-8.00,-8.00,-887.00
2024-06-07 00:10:37.883652,0,0,-2,0,0,0,55,59,97,50,50,120.52,2,36.00,-8.00,-936.00
2024-06-07 00:10:38.085433,0,0,-2,0,0,0,55,59,97,50,50,120.58,2,-15.00,5.00,-982.00
2024-06-07 00:10:38.087935,0,0,-2,0,0,1,55,59,98,50,50,120.55,2,4.00,-9.00,-1020.00
2024-06-07 00:10:38.191048,0,0,-2,0,0,1,55,59,97,50,50,120.58,3,11.00,-28.00,-1014.00
2024-06-07 00:10:38.304824,0,0,-2,0,0,1,55,59,97,50,50,120.55,3,-15.00,13.00,-936.00
2024-06-07 00:10:38.448175,0,0,-2,0,0,1,56,59,96,50,50,120.51,3,15.00,-1.00,-1012.00
2024-06-07 00:10:38.495531,0,0,-2,0,0,1,56,59,95,50,50,120.58,3,23.00,-9.00,-1004.00
2024-06-07 00:10:38.611053,0,0,-2,0,0,1,56,59,95,50,50,120.56,3,-25.00,11.00,-969.00
2024-06-07 00:10:38.754452,0,0,-1,0,0,1,56,59,94,50,50,120.62,3,2.00,19.00,-1011.00
2024-06-07 00:10:38.801717,0,0,-1,0,0,1,56,59,92,50,50,120.62,3,6.00,-2.00,-1016.00
2024-06-07 00:10:38.919025,0,0,-1,0,0,1,56,59,91,50,50,120.54,3,3.00,-12.00,-970.00
2024-06-07 00:10:39.072587,0,0,-1,0,0,1,56,59,90,50,50,120.57,3,37.00,0.00,-939.00
2024-06-07 00:10:39.107528,0,0,-2,0,0,1,56,59,89,50,50,120.52,3,-6.00,17.00,-984.00
2024-06-07 00:10:39.214603,0,0,-2,0,0,1,56,59,87,40,50,120.61,4,2.00,-4.00,-989.00
2024-06-07 00:10:39.311564,0,0,-1,0,0,1,56,59,86,40,50,120.52,4,-14.00,9.00,-1000.00
2024-06-07 00:10:39.421071,0,0,-1,0,0,1,57,59,85,40,50,120.49,4,-9.00,-4.00,-997.00
2024-06-07 00:10:39.515526,0,0,-1,0,0,1,57,59,84,40,50,120.46,4,2.00,-8.00,-999.00
2024-06-07 00:10:39.624226,0,0,-2,0,0,1,57,59,82,40,50,120.56,4,-22.00,16.00,-989.00
2024-06-07 00:10:39.721286,0,0,-2,0,0,1,57,59,81,40,50,120.47,4,8.00,21.00,-1003.00
2024-06-07 00:10:39.770860,0,0,-2,0,0,0,57,59,81,40,50,120.49,4,-22.00,7.00,-1008.00
2024-06-07 00:10:39.931424,0,0,-2,0,0,0,57,59,79,40,50,120.48,4,18.00,-22.00,-955.00
2024-06-07 00:10:39.975033,0,0,-2,0,0,0,57,59,79,40,50,120.52,4,0.00,17.00,-984.00
2024-06-07 00:10:40.136410,0,0,-2,0,0,0,57,59,78,40,50,120.54,4,6.00,-8.00,-993.00
2024-06-07 00:10:40.180660,0,0,-1,0,0,0,57,59,78,40,50,120.43,5,8.00,-2.00,-1022.00
2024-06-07 00:10:40.280663,0,0,-1,0,0,0,57,59,77,40,50,120.41,5,22.00,-35.00,-1039.00
2024-06-07 00:10:40.443298,0,0,-1,0,0,0,57,58,77,40,50,120.46,5,1.00,8.00,-956.00
2024-06-07 00:10:40.484710,0,0,-1,0,0,0,57,58,77,40,50,120.47,5,-13.00,5.00,-1093.00
2024-06-07 00:10:40.648273,0,0,-1,0,0,0,57,58,76,40,50,120.52,5,0.00,-18.00,-970.00
2024-06-07 00:10:40.688723,0,0,-1,0,0,0,57,58,76,40,50,120.46,5,0.00,-13.00,-996.00
2024-06-07 00:10:40.790707,0,0,-1,0,0,0,57,58,75,40,50,120.45,5,22.00,5.00,-1010.00
2024-06-07 00:10:40.955366,0,0,-1,0,0,0,57,58,75,30,50,120.46,5,7.00,-19.00,-978.00
2024-06-07 00:10:40.994654,0,0,-1,0,0,0,57,58,74,30,50,120.42,5,0.00,8.00,-948.00
2024-06-07 00:10:41.160148,0,0,-1,0,0,0,57,58,74,30,50,120.43,5,35.00,-10.00,-1045.00
2024-06-07 00:10:41.198626,0,0,-1,0,0,0,57,58,73,30,50,120.43,6,32.00,12.00,-1068.00
2024-06-07 00:10:41.300589,0,0,-1,0,0,0,57,58,73,30,50,120.46,6,-5.00,-10.00,-1013.00
2024-06-07 00:10:41.479410,0,0,-1,0,0,0,56,59,72,30,50,120.45,6,-28.00,19.00,-1026.00
2024-06-07 00:10:41.504557,0,0,-1,0,0,0,56,59,72,30,50,120.41,6,7.00,-2.00,-1114.00
2024-06-07 00:10:41.679066,0,0,-1,0,0,0,56,59,72,30,50,120.49,6,0.00,-24.00,-987.00
2024-06-07 00:10:41.708538,0,0,-1,0,0,0,56,59,72,30,50,120.44,6,4.00,-8.00,-1022.00
2024-06-07 00:10:41.876915,0,0,-1,0,0,0,56,59,72,30,50,120.41,6,-3.00,14.00,-969.00
2024-06-07 00:10:41.912791,0,0,-1,0,0,0,56,59,72,30,50,120.43,6,1.00,1.00,-994.00
2024-06-07 00:10:42.081954,0,0,-1,0,0,0,56,59,72,30,50,120.36,6,10.00,-7.00,-966.00
2024-06-07 00:10:42.119145,0,0,-1,0,0,0,56,59,72,30,50,120.45,6,19.00,-24.00,-1027.00
2024-06-07 00:10:42.219650,0,0,-1,0,0,0,56,59,72,30,50,120.46,7,4.00,1.00,-1034.00
2024-06-07 00:10:42.321805,0,0,-1,0,0,0,56,59,72,30,50,120.49,7,8.00,12.00,-1039.00
2024-06-07 00:10:42.422547,0,0,-1,0,0,0,56,59,73,30,49,120.48,7,17.00,1.00,-966.00
2024-06-07 00:10:42.593680,0,0,-1,0,0,0,56,59,73,30,49,120.40,7,19.00,-8.00,-959.00
2024-06-07 00:10:42.630258,0,0,-1,0,0,0,56,59,73,30,49,120.42,7,8.00,-8.00,-1018.00
2024-06-07 00:10:42.728715,0,0,-1,0,0,0,56,59,74,30,49,120.41,7,-10.00,14.00,-1054.00
2024-06-07 00:10:42.900742,0,0,-1,0,0,0,56,59,74,30,49,120.50,7,-32.00,6.00,-1080.00
2024-06-07 00:10:42.932557,0,0,-1,0,0,0,56,59,74,30,49,120.53,7,4.00,-6.00,-986.00
2024-06-07 00:10:43.105654,0,0,-1,0,0,0,56,59,74,30,49,120.52,7,-21.00,14.00,-965.00
2024-06-07 00:10:43.137267,0,0,-1,0,0,0,56,59,74,30,49,120.47,7,6.00,-23.00,-960.00
2024-06-07 00:10:43.310472,0,0,-1,0,0,0,56,59,74,30,49,120.45,8,38.00,-21.00,-994.00
2024-06-07 00:10:43.346946,0,0,-1,0,0,0,56,59,74,30,49,120.45,8,10.00,17.00,-1045.00
2024-06-07 00:10:43.443101,0,0,-1,0,0,0,57,59,74,30,49,120.48,8,-1.00,0.00,-965.00
2024-06-07 00:10:43.617574,0,0,-1,0,0,0,57,59,74,30,49,120.48,8,-7.00,-6.00,-938.00
2024-06-07 00:10:43.647120,0,0,-1,0,0,0,57,59,74,30,49,120.48,8,-13.00,8.00,-1018.00
2024-06-07 00:10:43.822311,0,0,-1,0,0,0,57,59,73,30,49,120.47,8,50.00,-29.00,-1013.00
2024-06-07 00:10:43.851160,0,0,-1,0,0,0,57,59,73,30,49,120.54,8,0.00,0.00,-1038.00
2024-06-07 00:10:43.955050,0,0,-1,0,0,0,57,59,73,30,49,120.49,8,2.00,16.00,-957.00
2024-06-07 00:10:44.055467,0,0,-1,0,0,0,57,59,73,30,49,120.51,8,-7.00,-9.00,-1022.00
2024-06-07 00:10:44.232071,0,0,-1,0,0,0,57,59,73,30,49,120.44,8,30.00,-24.00,-997.00
2024-06-07 00:10:44.232217,0,0,-1,0,0,0,57,59,73,30,49,120.49,9,21.00,-27.00,-973.00
2024-06-07 00:10:44.310352,0,0,-1,0,0,0,57,59,73,30,49,120.49,9,0.00,24.00,-989.00
2024-06-07 00:10:44.463421,0,0,-1,0,0,0,57,60,74,30,48,120.45,9,5.00,3.00,-1003.00
2024-06-07 00:10:44.641755,0,0,-1,0,0,0,57,60,74,30,48,120.54,9,-9.00,-14.00,-1022.00
2024-06-07 00:10:44.641943,0,0,-1,0,0,0,57,60,74,30,48,120.49,9,18.00,-8.00,-1016.00
2024-06-07 00:10:44.718651,0,0,-1,0,0,0,57,60,74,30,48,120.52,9,-4.00,-9.00,-964.00
2024-06-07 00:10:44.847807,0,0,-1,0,0,0,57,60,74,30,48,120.55,9,13.00,-8.00,-1075.00
2024-06-07 00:10:44.922289,0,0,-1,0,0,0,57,60,74,30,48,120.49,9,4.00,-9.00,-987.00
2024-06-07 00:10:45.052245,0,0,-1,0,0,0,57,60,75,30,48,120.50,9,-9.00,13.00,-987.00
2024-06-07 00:10:45.126913,0,0,-1,0,0,0,57,60,74,30,48,120.44,9,-23.00,19.00,-968.00
2024-06-07 00:10:45.257697,0,0,-1,0,0,0,57,60,74,30,48,120.52,10,10.00,2.00,-991.00
2024-06-07 00:10:45.332097,0,0,-1,0,0,0,57,60,74,30,48,120.48,10,0.00,14.00,-974.00
2024-06-07 00:10:45.462888,0,0,-1,0,0,0,57,59,74,30,48,120.54,10,30.00,-17.00,-1008.00
2024-06-07 00:10:45.534235,0,0,-1,0,0,0,57,59,75,30,48,120.53,10,25.00,-20.00,-1013.00
2024-06-07 00:10:45.636391,0,0,-1,0,0,0,57,59,74,30,48,120.57,10,8.00,0.00,-968.00
2024-06-07 00:10:45.769560,0,0,-2,0,0,0,57,59,75,30,48,120.53,10,-16.00,2.00,-1019.00
2024-06-07 00:10:45.840234,0,0,-1,0,0,0,57,59,75,30,48,120.53,10,-20.00,-11.00,-1006.00
2024-06-07 00:10:45.942033,0,0,-1,0,0,0,57,59,76,30,48,120.57,10,26.00,-20.00,-1021.00
2024-06-07 00:10:46.076705,0,0,-2,0,0,0,57,59,76,30,48,120.53,10,12.00,-11.00,-999.00
2024-06-07 00:10:46.146101,0,0,-2,0,0,0,57,59,77,30,48,120.59,10,-10.00,-4.00,-1100.00
2024-06-07 00:10:46.281156,0,0,-2,0,0,-1,57,59,79,40,48,120.54,11,28.00,-25.00,-1120.00
2024-06-07 00:10:46.349967,0,0,-2,0,0,-2,57,59,82,40,48,120.66,11,22.00,4.00,-1046.00
2024-06-07 00:10:46.486502,0,0,-2,0,0,-3,57,60,85,40,47,120.67,11,5.00,20.00,-972.00
2024-06-07 00:10:46.554052,0,0,-2,0,0,-4,57,60,89,40,47,120.66,11,-10.00,-16.00,-1066.00
2024-06-07 00:10:46.689505,0,0,-2,0,0,-4,57,60,94,50,47,120.76,11,-13.00,20.00,-1039.00
2024-06-07 00:10:46.758053,0,0,-2,0,0,-5,57,60,99,50,47,120.76,11,-8.00,-2.00,-1025.00
2024-06-07 00:10:46.894267,0,0,-2,0,0,-5,57,60,104,60,47,120.87,11,1.00,2.00,-1055.00
2024-06-07 00:10:46.962510,0,0,-2,0,0,-5,57,60,110,60,47,120.87,11,-8.00,-5.00,-1047.00
2024-06-07 00:10:47.099011,0,0,-1,0,0,-5,57,60,116,70,47,120.90,11,48.00,-32.00,-934.00
2024-06-07 00:10:47.166079,0,0,-1,0,0,-5,57,60,121,80,47,121.02,11,10.00,-10.00,-986.00
2024-06-07 00:10:47.304358,0,0,-1,0,0,-5,57,60,127,80,47,121.05,12,15.00,17.00,-1010.00
2024-06-07 00:10:47.371303,0,0,-1,0,0,-5,57,60,132,90,47,121.15,12,-5.00,-20.00,-984.00
2024-06-07 00:10:47.510710,0,0,-1,0,0,-4,59,60,137,100,47,121.17,12,-11.00,0.00,-945.00
2024-06-07 00:10:47.573822,0,0,-1,0,0,-4,59,60,141,100,47,121.19,12,16.00,-17.00,-914.00
2024-06-07 00:10:47.713585,0,0,-1,0,0,-3,59,60,145,100,47,121.24,12,-1.00,-24.00,-961.00
2024-06-07 00:10:47.777947,0,0,-1,0,0,-3,59,60,148,110,47,121.28,12,28.00,-4.00,-958.00
2024-06-07 00:10:47.919940,0,0,-1,0,0,-3,59,60,151,110,47,121.23,12,-12.00,24.00,-963.00
2024-06-07 00:10:47.981761,0,0,-1,0,0,-2,59,60,155,110,47,121.24,12,51.00,-42.00,-965.00
2024-06-07 00:10:48.125775,0,0,-1,0,0,-2,59,60,158,120,47,121.34,12,-12.00,10.00,-944.00
2024-06-07 00:10:48.186692,0,0,-1,0,0,-2,59,60,160,120,47,121.38,13,3.00,-3.00,-942.00
2024-06-07 00:10:48.288103,0,0,-1,0,0,-1,59,60,162,120,47,121.38,13,9.00,-10.00,-961.00
2024-06-07 00:10:48.340069,0,0,-1,0,0,-1,59,60,164,120,47,121.40,13,38.00,-7.00,-993.00
2024-06-07 00:10:48.534205,0,0,-1,0,0,-1,58,60,166,120,46,121.42,13,-3.00,4.00,-949.00
2024-06-07 00:10:48.542690,0,0,-1,0,0,-1,58,60,167,130,46,121.48,13,27.00,-6.00,-987.00
2024-06-07 00:10:48.737429,0,0,-1,0,0,-1,58,60,168,130,46,121.45,13,1.00,-11.00,-973.00
2024-06-07 00:10:48.746658,0,0,-1,0,0,-1,58,60,169,130,46,121.39,13,14.00,8.00,-1014.00
2024-06-07 00:10:48.942633,0,0,-1,0,0,0,58,60,170,130,46,121.42,13,21.00,7.00,-1042.00
2024-06-07 00:10:48.956754,0,0,-1,0,0,0,58,60,170,130,46,121.41,13,14.00,1.00,-900.00
2024-06-07 00:10:49.052940,0,0,-1,0,0,0,58,60,172,130,46,121.53,13,24.00,-6.00,-958.00
2024-06-07 00:10:49.250957,0,0,-1,0,0,0,58,60,172,130,46,121.43,14,59.00,-17.00,-1012.00
2024-06-07 00:10:49.257017,0,0,-1,0,0,0,58,60,173,130,46,121.52,14,55.00,-6.00,-998.00
2024-06-07 00:10:49.454173,0,0,-1,0,0,0,58,60,172,130,46,121.51,14,16.00,29.00,-965.00
2024-06-07 00:10:49.461750,0,0,-1,0,0,0,58,61,172,130,46,121.46,14,-15.00,-9.00,-954.00
2024-06-07 00:10:49.659574,0,0,-1,0,0,0,58,61,173,130,46,121.45,14,-3.00,-8.00,-987.00
2024-06-07 00:10:49.664745,0,0,-1,0,0,0,58,61,173,130,46,121.46,14,31.00,-11.00,-1031.00
2024-06-07 00:10:49.863978,0,0,-1,0,0,0,58,61,173,130,46,121.48,14,38.00,-39.00,-1016.00
2024-06-07 00:10:49.868594,0,0,-1,0,0,0,58,61,174,130,46,121.51,14,30.00,-13.00,-1042.00
2024-06-07 00:10:50.070422,0,0,-1,0,0,0,58,61,175,130,46,121.54,14,26.00,-20.00,-1040.00
2024-06-07 00:10:50.075533,0,0,-1,0,0,0,58,61,175,130,46,121.53,14,16.00,17.00,-1089.00
2024-06-07 00:10:50.174570,0,0,-1,0,0,0,58,61,176,130,46,121.49,15,-6.00,25.00,-930.00
2024-06-07 00:10:50.278083,0,0,-1,0,0,0,58,61,176,130,46,121.45,15,9.00,-5.00,-1035.00
2024-06-07 00:10:50.378578,0,0,-1,0,0,0,58,61,176,130,46,121.47,15,37.00,-16.00,-974.00
2024-06-07 00:10:50.481188,0,0,-1,0,0,0,58,61,177,130,45,121.50,15,11.00,-15.00,-977.00
2024-06-07 00:10:50.582594,0,0,-1,0,0,0,58,61,175,130,45,121.52,15,-16.00,6.00,-1015.00
2024-06-07 00:10:50.684627,0,0,-1,0,0,0,58,61,176,130,45,121.53,15,21.00,1.00,-1006.00
2024-06-07 00:10:50.786575,0,0,-1,0,0,0,58,61,176,130,45,121.53,15,-21.00,4.00,-1013.00
2024-06-07 00:10:50.889154,0,0,-1,0,0,0,58,61,177,130,45,121.57,15,-12.00,21.00,-933.00
2024-06-07 00:10:50.990452,0,0,-1,0,0,0,58,61,177,130,45,121.47,15,-42.00,0.00,-964.00
2024-06-07 00:10:51.092789,0,0,-1,0,0,0,58,61,176,130,45,121.42,15,22.00,16.00,-954.00
2024-06-07 00:10:51.195081,0,0,-1,0,0,0,58,61,175,130,45,121.45,16,28.00,-15.00,-917.00
2024-06-07 00:10:51.297508,0,0,-1,0,0,0,58,61,175,130,45,121.53,16,9.00,12.00,-880.00
2024-06-07 00:10:51.399908,0,0,-1,0,0,1,58,61,172,130,45,121.49,16,22.00,8.00,-977.00
2024-06-07 00:10:51.502044,0,0,-1,0,0,1,58,61,171,130,45,121.44,16,-6.00,14.00,-977.00
2024-06-07 00:10:51.604700,0,0,-1,0,0,2,58,61,169,130,45,121.44,16,-8.00,21.00,-928.00
2024-06-07 00:10:51.706529,0,0,-1,0,0,2,58,61,167,120,45,121.35,16,-6.00,21.00,-950.00
2024-06-07 00:10:51.806462,0,0,-1,0,0,2,58,61,165,120,45,121.36,16,-6.00,10.00,-974.00
2024-06-07 00:10:51.911534,0,0,-1,0,0,2,58,61,161,120,45,121.34,16,-3.00,-12.00,-974.00
2024-06-07 00:10:52.011427,0,0,-1,0,0,2,58,61,158,120,45,121.38,16,26.00,-28.00,-1045.00
2024-06-07 00:10:52.129882,0,0,-1,0,0,2,58,61,156,110,45,121.37,16,1.00,25.00,-971.00
2024-06-07 00:10:52.272393,0,0,-1,0,0,2,58,61,153,110,45,121.23,17,-15.00,0.00,-1031.00
2024-06-07 00:10:52.272675,0,0,-1,0,0,2,58,61,150,110,45,121.31,17,-12.00,-24.00,-971.00
2024-06-07 00:10:52.400239,0,0,-1,0,0,2,58,61,147,110,45,121.22,17,40.00,-17.00,-1080.00
2024-06-07 00:10:52.471919,0,0,-1,0,0,2,60,62,144,100,44,121.24,17,0.00,-2.00,-938.00
2024-06-07 00:10:52.584620,0,0,-1,0,0,2,60,62,142,100,44,121.26,17,-6.00,18.00,-1050.00
2024-06-07 00:10:52.673700,0,0,-1,0,0,2,60,62,140,100,44,121.21,17,43.00,-3.00,-1019.00
2024-06-07 00:10:52.799860,0,0,-1,0,0,2,60,62,138,100,44,121.21,17,-23.00,0.00,-1047.00
2024-06-07 00:10:52.877520,0,0,-1,0,0,1,60,62,136,90,44,121.13,17,-5.00,18.00,-1082.00
2024-06-07 00:10:52.995444,0,0,-1,0,0,1,60,62,134,90,44,121.11,17,26.00,-7.00,-990.00
2024-06-07 00:10:53.179788,0,0,-1,0,0,1,60,62,134,90,44,121.14,17,3.00,21.00,-1005.00
2024-06-07 00:10:53.187626,0,0,-1,0,0,1,60,62,133,90,44,121.15,18,28.00,-18.00,-1066.00
2024-06-07 00:10:53.286361,0,0,-1,0,0,1,60,62,133,90,44,121.17,18,-7.00,12.00,-986.00
2024-06-07 00:10:53.420147,0,0,-1,0,0,0,60,62,132,90,44,121.22,18,35.00,-31.00,-1040.00
2024-06-07 00:10:53.489619,0,0,-1,0,0,0,59,62,132,90,44,121.19,18,0.00,5.00,-1000.00
2024-06-07 00:10:53.663164,0,0,-1,0,0,0,59,62,133,90,44,121.15,18,20.00,-8.00,-1001.00
2024-06-07 00:10:53.806470,0,0,-1,0,0,0,59,62,132,90,44,121.11,18,-5.00,-11.00,-1041.00
2024-06-07 00:10:53.806636,0,0,-1,0,0,0,59,62,132,90,44,121.15,18,15.00,-9.00,-1047.00
2024-06-07 00:10:53.970272,0,0,-1,0,0,0,59,62,132,90,44,121.11,18,18.00,-11.00,-1082.00
2024-06-07 00:10:54.113737,0,0,-1,0,0,0,59,62,132,90,44,121.16,18,38.00,-26.00,-989.00
2024-06-07 00:10:54.113821,0,0,-1,0,0,0,59,62,133,90,44,121.12,18,-25.00,32.00,-962.00
2024-06-07 00:10:54.279158,0,0,-1,0,0,0,59,62,132,90,44,121.20,19,12.00,-19.00,-1018.00
2024-06-07 00:10:54.305214,0,0,-1,0,0,0,59,62,132,90,44,121.13,19,28.00,-18.00,-953.00
2024-06-07 00:10:54.408296,0,0,-1,0,0,0,59,62,132,90,43,121.12,19,-3.00,27.00,-1023.00
2024-06-07 00:10:54.574358,-1,0,-1,0,0,0,59,62,131,90,43,121.17,19,0.00,-8.00,-1052.00
2024-06-07 00:10:54.611214,-1,0,-1,0,0,0,59,62,131,90,43,121.13,19,7.00,-10.00,-1013.00
2024-06-07 00:10:54.782084,0,0,-1,0,0,0,59,62,130,90,43,121.13,19,10.00,-15.00,-980.00
2024-06-07 00:10:54.815133,0,0,-1,0,0,0,59,62,130,90,43,121.08,19,7.00,-12.00,-998.00
2024-06-07 00:10:54.985031,0,0,-1,0,0,0,59,62,129,90,43,121.12,19,6.00,-34.00,-1015.00
2024-06-07 00:10:55.020023,0,0,-1,0,0,0,59,62,130,90,43,121.08,19,5.00,-29.00,-962.00
2024-06-07 00:10:55.192062,0,0,-1,0,0,0,59,62,130,90,43,121.14,19,12.00,3.00,-912.00
2024-06-07 00:10:55.224695,0,0,-1,0,0,0,59,62,130,90,43,121.10,20,4.00,28.00,-927.00
2024-06-07 00:10:55.327026,0,0,-1,0,0,0,59,62,129,90,43,121.08,20,36.00,-6.00,-1007.00
2024-06-07 00:10:55.427657,0,0,-1,0,0,0,59,62,130,90,43,121.08,20,0.00,-17.00,-1127.00
2024-06-07 00:10:55.529407,0,0,-1,0,0,0,58,62,130,90,43,121.08,20,-19.00,-16.00,-1005.00
2024-06-07 00:10:55.700422,0,0,-1,0,0,0,58,62,130,90,43,121.10,20,-13.00,-14.00,-1026.00
2024-06-07 00:10:55.733446,0,0,-1,0,0,0,58,62,130,90,43,121.12,20,-13.00,0.00,-976.00
2024-06-07 00:10:55.905123,0,0,-1,0,0,0,58,62,131,90,43,121.13,20,-4.00,-16.00,-1006.00
2024-06-07 00:10:55.937609,0,0,-1,0,0,0,58,62,131,90,43,121.06,20,38.00,-33.00,-985.00
2024-06-07 00:10:55.988987,0,0,-1,0,0,0,58,62,132,90,43,121.11,20,13.00,-22.00,-971.00
2024-06-07 00:10:56.110085,0,0,-1,0,0,0,58,62,132,90,43,121.05,20,-15.00,9.00,-993.00
2024-06-07 00:10:56.193436,0,0,-1,0,0,0,58,62,132,90,43,121.13,21,34.00,1.00,-965.00
2024-06-07 00:10:56.294395,0,0,-1,0,0,0,58,62,133,90,43,121.09,21,-20.00,31.00,-1072.00
2024-06-07 00:10:56.398642,0,0,-1,0,0,0,58,62,133,90,42,121.14,21,31.00,-10.00,-1034.00
2024-06-07 00:10:56.548965,-2,0,-1,0,0,0,60,62,133,90,42,121.21,21,-8.00,16.00,-984.00
2024-06-07 00:10:56.724289,-7,0,-1,1,0,0,60,62,136,90,42,121.10,21,11.00,-18.00,-999.00
2024-06-07 00:10:56.724348,-8,0,-1,2,0,0,60,62,137,90,42,121.10,21,0.00,8.00,-986.00
2024-06-07 00:10:56.804656,-8,0,-1,4,0,0,60,62,137,90,42,121.08,21,-33.00,7.00,-1013.00
2024-06-07 00:10:56.929021,-8,0,-1,5,0,0,60,62,136,90,42,121.12,21,-17.00,2.00,-1070.00
2024-06-07 00:10:57.007929,-7,0,-1,5,0,0,60,62,135,90,42,121.05,21,-24.00,-39.00,-953.00
2024-06-07 00:10:57.133763,-6,0,-1,6,0,0,60,62,134,90,42,121.13,21,-33.00,9.00,-1032.00
2024-06-07 00:10:57.212086,-5,0,-1,7,0,0,60,62,135,90,42,121.12,22,-41.00,-3.00,-1027.00
2024-06-07 00:10:57.314172,-4,-1,-1,7,0,0,60,62,135,90,42,121.07,22,-39.00,-14.00,-1002.00
2024-06-07 00:10:57.417042,-2,-1,-2,8,0,0,60,62,136,90,42,121.04,22,-16.00,-1.00,-980.00
2024-06-07 00:10:57.543738,0,-1,-2,7,0,0,60,63,136,90,42,121.04,22,-38.00,14.00,-1014.00
2024-06-07 00:10:57.619814,3,0,-2,6,0,0,60,63,136,90,42,121.08,22,-32.00,-11.00,-944.00
2024-06-07 00:10:57.748178,4,0,-2,5,0,0,60,63,136,90,42,121.08,22,-41.00,-15.00,-1036.00
2024-06-07 00:10:57.824013,3,0,-2,4,0,0,60,63,135,90,42,121.16,22,-36.00,-24.00,-978.00
2024-06-07 00:10:57.953367,2,0,-2,3,0,0,60,63,134,90,42,121.16,22,-5.00,4.00,-1071.00
2024-06-07 00:10:58.027881,1,1,-2,3,0,0,60,63,135,90,42,121.07,22,-3.00,-6.00,-1009.00
2024-06-07 00:10:58.157758,0,0,-2,3,0,0,60,63,134,90,42,121.10,22,9.00,-32.00,-986.00
2024-06-07 00:10:58.231996,0,0,-2,2,0,0,60,63,134,90,42,121.07,23,-35.00,-30.00,-1030.00
2024-06-07 00:10:58.333813,0,0,-2,2,0,0,60,63,133,90,42,121.05,23,-1.00,32.00,-962.00
2024-06-07 00:10:58.464976,0,0,-2,2,0,0,60,63,132,90,41,121.04,23,9.00,-21.00,-1028.00
2024-06-07 00:10:58.538786,0,0,-2,2,0,0,60,63,131,90,41,121.04,23,20.00,-31.00,-940.00
2024-06-07 00:10:58.669757,0,0,-2,2,0,0,60,63,131,90,41,121.06,23,-2.00,2.00,-1061.00
2024-06-07 00:10:58.741765,0,-1,-2,1,0,0,60,63,131,90,41,121.05,23,-46.00,-12.00,-1037.00
2024-06-07 00:10:58.874562,0,-3,-2,1,0,0,60,63,130,90,41,121.04,23,18.00,1.00,-967.00
2024-06-07 00:10:58.946252,0,-3,-2,1,0,0,60,63,130,90,41,121.03,23,-21.00,14.00,-1001.00
2024-06-07 00:10:59.080799,0,-2,-2,1,-1,0,60,63,130,90,41,121.02,23,-47.00,10.00,-1024.00
2024-06-07 00:10:59.149971,-1,-1,-1,1,-1,0,60,63,130,90,41,121.04,23,-4.00,-19.00,-968.00
2024-06-07 00:10:59.253436,0,2,-2,1,-1,0,60,63,132,90,41,121.09,24,3.00,23.00,-1009.00
2024-06-07 00:10:59.354545,3,2,-1,1,0,0,60,63,132,90,41,121.06,24,-12.00,-32.00,-1047.00
2024-06-07 00:10:59.456182,2,1,-2,0,0,0,60,63,131,90,41,121.00,24,-28.00,4.00,-967.00
2024-06-07 00:10:59.591305,0,0,-2,0,0,0,60,63,131,90,41,121.01,24,-4.00,-16.00,-1012.00
2024-06-07 00:10:59.659657,0,0,-1,0,0,0,60,63,131,90,41,121.01,24,15.00,-21.00,-1052.00
2024-06-07 00:10:59.796081,0,0,-1,0,0,0,60,63,131,90,41,121.06,24,-7.00,2.00,-998.00
2024-06-07 00:10:59.863970,0,0,-2,0,0,0,60,63,131,90,41,120.97,24,8.00,4.00,-975.00
2024-06-07 00:11:00.000971,-1,0,-1,0,0,0,60,63,131,90,41,121.01,24,-8.00,-26.00,-992.00
2024-06-07 00:11:00.069178,0,0,-2,0,0,0,60,63,130,90,41,121.05,24,-9.00,12.00,-1023.00
2024-06-07 00:11:00.169881,0,0,-2,0,0,0,60,63,130,90,41,121.02,24,3.00,-15.00,-901.00
2024-06-07 00:11:00.220892,0,0,-2,0,0,0,60,63,130,90,41,121.01,25,13.00,-22.00,-964.00
2024-06-07 00:11:00.323058,0,0,-2,0,0,0,60,63,130,90,41,121.03,25,4.00,-18.00,-1058.00
2024-06-07 00:11:00.425060,0,0,-2,0,0,0,60,63,130,90,40,121.04,25,20.00,-15.00,-924.00
2024-06-07 00:11:00.615328,0,0,-2,0,0,0,61,63,131,90,40,120.96,25,2.00,-22.00,-987.00
2024-06-07 00:11:00.628864,0,0,-2,0,0,0,61,63,131,90,40,121.06,25,-2.00,3.00,-916.00
2024-06-07 00:11:00.820144,0,0,-2,0,0,0,61,63,131,90,40,121.06,25,-11.00,-14.00,-1054.00
2024-06-07 00:11:00.832491,0,0,-1,0,0,0,61,63,131,90,40,121.07,25,1.00,-17.00,-1004.00
2024-06-07 00:11:01.024828,-1,0,-1,0,0,0,61,63,132,90,40,120.97,25,-11.00,-25.00,-1003.00
2024-06-07 00:11:01.036789,-1,0,-1,0,0,0,61,63,131,90,40,121.05,25,20.00,-31.00,-965.00
2024-06-07 00:11:01.229530,-1,0,-1,0,0,0,61,63,132,90,40,121.07,25,15.00,0.00,-1037.00
2024-06-07 00:11:01.241560,0,0,-2,0,0,0,61,63,131,90,40,121.05,26,-7.00,-15.00,-1016.00
2024-06-07 00:11:01.345390,0,0,-1,0,0,0,61,63,132,90,40,121.05,26,9.00,3.00,-1017.00
2024-06-07 00:11:01.444883,0,0,-2,0,0,0,61,63,132,90,40,121.04,26,-2.00,-30.00,-1018.00
2024-06-07 00:11:01.639167,0,0,-2,0,0,0,61,62,132,90,40,121.05,26,15.00,3.00,-969.00
2024-06-07 00:11:01.648398,6,0,-1,0,0,0,61,62,135,90,40,120.95,26,-16.00,-2.00,-1042.00
2024-06-07 00:11:01.844091,8,0,-1,-1,0,0,61,62,135,90,40,121.08,26,13.00,-26.00,-1061.00
2024-06-07 00:11:01.852498,8,0,-2,-2,0,0,61,62,134,90,40,121.09,26,23.00,5.00,-1005.00
2024-06-07 00:11:02.048834,8,0,-2,-4,0,0,61,62,133,90,40,121.12,26,39.00,-10.00,-969.00
2024-06-07 00:11:02.061003,7,0,-2,-5,0,0,61,62,132,90,40,121.10,26,34.00,16.00,-963.00
2024-06-07 00:11:02.161416,5,0,-2,-7,0,0,61,62,131,90,40,121.09,27,45.00,-8.00,-964.00
2024-06-07 00:11:02.260405,4,0,-1,-8,0,0,61,62,130,90,40,120.98,27,52.00,-5.00,-1050.00
2024-06-07 00:11:02.363661,2,0,-1,-8,0,0,61,62,130,90,40,121.07,27,38.00,-28.00,-1000.00
2024-06-07 00:11:02.561027,0,0,-1,-7,0,0,61,62,128,90,39,121.02,27,42.00,22.00,-964.00
2024-06-07 00:11:02.567137,-3,0,-1,-6,0,0,61,63,128,90,39,121.05,27,53.00,29.00,-1008.00
2024-06-07 00:11:02.765451,-4,0,-1,-5,0,0,61,63,128,90,39,120.95,27,60.00,6.00,-995.00
2024-06-07 00:11:02.777808,-3,0,-1,-4,0,0,61,63,127,90,39,120.99,27,71.00,-29.00,-988.00
2024-06-07 00:11:02.873573,-2,0,-1,-3,0,0,61,63,128,90,39,121.00,27,57.00,-10.00,-995.00
2024-06-07 00:11:02.974533,0,0,-1,-3,0,0,61,63,128,90,39,121.03,27,51.00,-4.00,-1038.00
2024-06-07 00:11:03.176597,0,0,-1,-3,0,0,61,63,127,90,39,121.07,27,2.00,-2.00,-951.00
2024-06-07 00:11:03.178289,0,0,-1,-3,0,0,61,63,128,90,39,121.05,28,34.00,3.00,-1014.00
2024-06-07 00:11:03.280277,0,0,-1,-2,0,0,61,63,129,90,39,121.06,28,9.00,24.00,-933.00
2024-06-07 00:11:03.382545,0,0,-1,-2,0,0,61,63,127,90,39,121.03,28,43.00,-7.00,-991.00
2024-06-07 00:11:03.484214,-2,0,-1,-2,0,0,61,63,129,90,39,121.14,28,20.00,48.00,-936.00
2024-06-07 00:11:03.586694,-4,0,-2,-1,0,0,62,63,130,90,39,121.02,28,31.00,-20.00,-1040.00
2024-06-07 00:11:03.689230,-2,0,-2,0,0,0,62,63,131,90,39,121.08,28,19.00,6.00,-942.00
2024-06-07 00:11:03.790565,0,0,-1,0,0,0,62,63,134,90,39,121.06,28,18.00,-18.00,-970.00
2024-06-07 00:11:03.995822,0,0,-1,0,0,0,62,63,134,90,39,121.09,28,-3.00,-8.00,-937.00
2024-06-07 00:11:03.996007,0,0,-1,0,0,-1,62,63,137,90,39,121.13,28,0.00,0.00,-976.00
2024-06-07 00:11:04.096477,-1,0,-1,0,0,0,62,63,138,90,39,121.15,28,37.00,-7.00,-983.00
2024-06-07 00:11:04.199564,-1,0,-1,0,0,0,62,63,138,90,39,121.13,29,13.00,4.00,-964.00
2024-06-07 00:11:04.249757,0,0,-1,0,0,0,62,63,140,100,39,121.13,29,-14.00,15.00,-941.00
2024-06-07 00:11:04.351601,0,0,-1,0,0,0,62,63,139,100,39,121.13,29,-9.00,-2.00,-1101.00
2024-06-07 00:11:04.506405,-1,0,-1,0,0,0,62,63,140,100,38,121.17,29,2.00,-4.00,-1017.00
2024-06-07 00:11:04.606806,0,0,-1,0,0,0,62,64,139,100,38,121.21,29,8.00,10.00,-953.00
2024-06-07 00:11:04.657315,0,0,-1,0,0,0,62,64,138,100,38,121.13,29,25.00,-9.00,-1025.00
2024-06-07 00:11:04.759369,0,0,-1,0,0,0,62,64,138,90,38,121.10,29,25.00,5.00,-892.00
2024-06-07 00:11:04.916033,0,0,-1,0,0,0,62,64,137,90,38,121.16,29,-10.00,-25.00,-961.00
2024-06-07 00:11:04.966120,0,0,-1,0,0,0,62,64,136,90,38,121.15,29,-19.00,2.00,-978.00
2024-06-07 00:11:05.065715,0,0,-1,0,0,0,62,64,136,90,38,121.15,29,14.00,1.00,-1071.00
2024-06-07 00:11:05.223204,0,0,-1,0,0,0,62,64,135,90,38,121.11,30,26.00,-9.00,-1012.00
2024-06-07 00:11:05.269352,0,0,-1,0,0,0,62,64,135,90,38,121.11,30,3.00,0.00,-918.00
2024-06-07 00:11:05.373756,0,0,-1,0,0,0,62,64,133,90,38,121.09,30,17.00,-19.00,-1050.00
2024-06-07 00:11:05.473428,0,0,-1,0,0,0,62,64,133,90,38,121.09,30,28.00,13.00,-963.00
2024-06-07 00:11:05.633761,0,0,-1,0,0,0,62,64,134,90,38,121.08,30,5.00,-15.00,-1046.00
2024-06-07 00:11:05.677861,0,0,-1,0,0,0,62,64,132,90,38,121.10,30,29.00,-6.00,-1021.00
2024-06-07 00:11:05.779154,0,0,-1,0,0,0,62,64,132,90,38,121.09,30,16.00,-36.00,-1025.00
2024-06-07 00:11:05.940507,0,-2,-1,0,0,0,62,64,132,90,38,121.06,30,-4.00,36.00,-994.00
2024-06-07 00:11:05.983944,0,-8,-1,0,-1,0,62,64,133,90,38,121.07,30,-12.00,0.00,-1107.00
2024-06-07 00:11:06.144616,0,-6,-1,0,-2,0,62,64,132,90,38,121.16,30,11.00,29.00,-999.00
2024-06-07 00:11:06.187219,0,-4,-1,0,-3,0,62,64,132,90,38,121.04,31,19.00,-4.00,-1006.00
2024-06-07 00:11:06.349330,0,-1,-1,0,-4,0,62,64,131,90,38,121.14,31,21.00,32.00,-972.00
2024-06-07 00:11:06.393360,0,1,-1,0,-3,0,62,64,131,90,38,121.15,31,29.00,0.00,-1023.00
2024-06-07 00:11:06.554111,0,1,-1,0,-3,0,62,64,131,90,37,121.12,31,27.00,-24.00,-1000.00
2024-06-07 00:11:06.596373,0,0,-1,0,-2,0,62,65,131,90,37,121.08,31,23.00,-7.00,-1000.00
2024-06-07 00:11:06.758934,0,0,-1,0,-2,0,62,65,130,90,37,121.10,31,45.00,-5.00,-1027.00
2024-06-07 00:11:06.800055,0,0,-1,0,-2,0,62,65,130,90,37,121.13,31,50.00,-5.00,-985.00
2024-06-07 00:11:06.963738,0,0,-1,0,-2,0,62,65,129,90,37,121.10,31,29.00,13.00,-1044.00
2024-06-07 00:11:07.004281,0,0,-1,0,-2,0,62,65,128,90,37,121.11,31,34.00,21.00,-946.00
2024-06-07 00:11:07.181970,0,0,-1,0,-2,0,62,65,129,90,37,121.06,31,39.00,18.00,-1081.00
2024-06-07 00:11:07.209332,0,0,-1,0,-2,0,62,65,129,90,37,121.14,32,12.00,16.00,-949.00
2024-06-07 00:11:07.324554,0,0,-2,0,-2,0,62,65,129,90,37,121.12,32,25.00,9.00,-1065.00
2024-06-07 00:11:07.452324,0,0,-2,0,-2,0,62,65,129,90,37,121.10,32,18.00,3.00,-944.00
2024-06-07 00:11:07.522966,0,0,-2,0,-2,0,62,65,128,90,37,121.14,32,38.00,17.00,-1047.00
2024-06-07 00:11:07.620270,0,0,-2,0,-2,0,62,64,129,90,37,121.17,32,2.00,-2.00,-1002.00
2024-06-07 00:11:07.717851,0,0,-2,0,-2,0,62,64,130,90,37,121.12,32,8.00,-14.00,-1089.00
2024-06-07 00:11:07.875626,0,5,-2,0,-1,0,62,64,129,90,37,121.06,32,48.00,9.00,-935.00
2024-06-07 00:11:07.922350,0,3,-1,0,0,0,62,64,128,90,37,121.07,32,41.00,14.00,-987.00
2024-06-07 00:11:08.070133,0,1,-1,0,0,0,62,64,127,90,37,121.05,32,7.00,-23.00,-1100.00
2024-06-07 00:11:08.222483,0,0,-1,0,0,0,62,64,126,90,37,121.07,32,-3.00,0.00,-998.00
2024-06-07 00:11:08.222641,0,0,-1,0,0,0,62,64,124,90,37,121.00,33,38.00,-24.00,-944.00
2024-06-07 00:11:08.285379,0,0,-1,0,0,0,62,64,123,90,37,121.08,33,33.00,3.00,-947.00
2024-06-07 00:11:08.427424,0,0,-2,0,0,0,62,64,121,90,36,121.10,33,36.00,-5.00,-1013.00
2024-06-07 00:11:08.571701,0,0,-2,0,0,0,62,64,119,90,36,121.05,33,-2.00,3.00,-998.00
2024-06-07 00:11:08.585046,0,0,-1,0,0,0,62,64,118,80,36,121.11,33,20.00,-9.00,-1087.00
2024-06-07 00:11:08.715462,0,0,-1,0,0,0,62,64,117,80,36,121.10,33,4.00,-19.00,-952.00
2024-06-07 00:11:08.858716,0,0,-1,0,0,0,62,64,116,80,36,120.98,33,4.00,2.00,-981.00
2024-06-07 00:11:08.890997,0,0,-1,0,0,0,62,64,115,80,36,120.99,33,-13.00,28.00,-988.00
2024-06-07 00:11:09.024255,0,0,-1,0,0,0,62,64,115,80,36,120.99,33,13.00,-1.00,-1074.00
2024-06-07 00:11:09.176952,0,0,-1,0,0,0,62,64,115,80,36,120.95,33,6.00,-4.00,-1014.00
2024-06-07 00:11:09.196939,0,0,-1,0,0,0,62,64,115,80,36,121.00,34,19.00,-17.00,-1122.00
2024-06-07 00:11:09.312633,0,0,-1,0,0,0,62,64,115,80,36,120.97,34,28.00,-10.00,-1092.00
2024-06-07 00:11:09.401289,0,0,-1,0,0,0,62,64,115,80,36,120.96,34,14.00,-5.00,-967.00
2024-06-07 00:11:09.523813,0,0,-1,0,0,0,62,64,116,80,36,121.00,34,15.00,15.00,-967.00
2024-06-07 00:11:09.605045,0,0,-1,0,0,0,62,65,117,80,36,120.98,34,14.00,-33.00,-1009.00
2024-06-07 00:11:09.728579,0,0,-1,0,0,0,62,65,118,80,36,121.02,34,17.00,0.00,-956.00
2024-06-07 00:11:09.808915,0,0,-1,0,0,0,62,65,119,80,36,121.04,34,-26.00,15.00,-1066.00
2024-06-07 00:11:09.910954,0,0,-1,0,0,0,62,65,119,80,36,121.04,34,2.00,-9.00,-939.00
2024-06-07 00:11:10.035564,0,0,-1,0,0,0,62,65,122,80,36,121.04,34,9.00,5.00,-1093.00
2024-06-07 00:11:10.114697,1,5,-1,0,0,0,62,65,123,80,36,121.10,34,24.00,-7.00,-1022.00
2024-06-07 00:11:10.240447,0,8,-1,0,1,0,62,65,125,80,36,121.06,35,11.00,8.00,-1070.00
2024-06-07 00:11:10.319010,0,6,-1,0,2,0,62,65,126,80,36,121.06,35,29.00,-24.00,-952.00
2024-06-07 00:11:10.445615,0,3,-1,0,3,0,62,65,127,80,35,121.01,35,-15.00,-19.00,-955.00
2024-06-07 00:11:10.522750,0,1,-1,0,3,0,62,65,128,90,35,121.12,35,32.00,-8.00,-930.00
2024-06-07 00:11:10.649868,0,0,-1,0,3,0,63,65,129,90,35,121.17,35,9.00,-36.00,-999.00
2024-06-07 00:11:10.727495,0,0,-1,0,3,0,63,65,131,90,35,121.17,35,-2.00,-17.00,-1027.00
2024-06-07 00:11:10.854822,0,0,-1,0,2,0,63,65,133,90,35,121.22,35,0.00,-11.00,-973.00
2024-06-07 00:11:10.932500,0,0,-2,0,2,0,63,65,133,90,35,121.20,35,32.00,-6.00,-1008.00
2024-06-07 00:11:11.032899,0,0,-2,0,2,0,63,65,136,90,35,121.20,35,14.00,-30.00,-978.00
2024-06-07 00:11:11.161915,0,0,-1,0,2,0,63,65,137,90,35,121.28,35,-2.00,-22.00,-941.00
2024-06-07 00:11:11.236650,-1,0,-2,0,2,0,63,65,137,90,35,121.27,36,38.00,-37.00,-1012.00
2024-06-07 00:11:11.341555,-3,0,-2,0,2,0,63,65,138,90,35,121.31,36,-15.00,-33.00,-999.00
2024-06-07 00:11:11.440585,-3,-1,-1,0,2,0,63,65,140,90,35,121.27,36,-12.00,-14.00,-962.00
2024-06-07 00:11:11.571504,-3,-1,-1,0,2,0,63,65,141,90,35,121.21,36,-4.00,-27.00,-1002.00
2024-06-07 00:11:11.644628,-3,-2,-1,1,1,0,63,65,142,90,35,121.25,36,17.00,-18.00,-953.00
2024-06-07 00:11:11.746587,-2,-2,-1,1,1,0,63,65,142,90,35,121.26,36,0.00,-12.00,-1001.00
2024-06-07 00:11:11.848603,-1,-1,-1,2,0,0,63,65,142,100,35,121.25,36,14.00,-14.00,-951.00
2024-06-07 00:11:11.981127,0,0,-2,2,0,0,63,65,143,100,35,121.27,36,-24.00,-6.00,-969.00
2024-06-07 00:11:12.053123,5,0,-2,1,0,0,63,65,142,100,35,121.30,36,-13.00,-4.00,-943.00
2024-06-07 00:11:12.155673,2,0,-1,0,0,0,63,65,141,100,35,121.31,36,10.00,-4.00,-981.00
2024-06-07 00:11:12.205745,1,0,-1,0,0,0,63,65,140,100,35,121.34,37,-1.00,3.00,-1030.00
2024-06-07 00:11:12.370703,0,0,-1,0,0,0,63,65,140,100,35,121.27,37,-7.00,0.00,-1008.00
2024-06-07 00:11:12.409578,0,0,-1,0,0,0,63,65,140,90,34,121.24,37,1.00,-9.00,-1050.00
2024-06-07 00:11:12.595554,0,0,-1,0,0,0,63,65,139,90,34,121.17,37,-12.00,27.00,-960.00
2024-06-07 00:11:12.613539,0,0,-1,0,0,0,63,65,140,90,34,121.24,37,14.00,-28.00,-1084.00
2024-06-07 00:11:12.800372,0,0,-1,0,0,0,63,65,139,90,34,121.27,37,-30.00,13.00,-1108.00
2024-06-07 00:11:12.817483,0,0,-1,0,0,0,63,65,140,90,34,121.33,37,10.00,-8.00,-1077.00
2024-06-07 00:11:13.005963,0,0,-1,0,0,0,63,65,141,90,34,121.30,37,4.00,-28.00,-925.00
2024-06-07 00:11:13.022182,0,0,-1,0,0,0,63,65,142,90,34,121.39,37,7.00,-2.00,-1012.00
2024-06-07 00:11:13.210015,0,0,-1,0,0,0,63,65,141,90,34,121.28,37,26.00,-22.00,-1027.00
2024-06-07 00:11:13.225524,0,0,-1,0,0,0,63,65,142,90,34,121.31,38,-10.00,-5.00,-1042.00
2024-06-07 00:11:13.415313,0,0,-1,0,0,0,63,65,143,90,34,121.37,38,-4.00,-15.00,-972.00
2024-06-07 00:11:13.429440,0,0,-1,0,0,0,63,65,143,90,34,121.31,38,-1.00,-18.00,-977.00
2024-06-07 00:11:13.619614,0,0,-1,0,0,0,63,65,144,100,34,121.38,38,8.00,-7.00,-930.00
2024-06-07 00:11:13.633468,0,0,-1,0,0,0,63,65,144,100,34,121.41,38,8.00,12.00,-987.00
2024-06-07 00:11:13.824720,-1,0,-1,0,0,0,63,65,143,100,34,121.36,38,13.00,-19.00,-939.00
2024-06-07 00:11:13.837943,-1,0,-1,0,0,0,63,65,144,100,34,121.44,38,-3.00,-5.00,-973.00
2024-06-07 00:11:14.029285,-1,0,-1,0,0,0,63,65,143,100,34,121.31,38,-12.00,16.00,-1029.00
2024-06-07 00:11:14.041299,0,0,-1,0,0,0,63,65,142,100,34,121.43,38,-6.00,-15.00,-990.00
2024-06-07 00:11:14.143245,0,0,-1,0,0,0,63,65,142,100,34,121.41,38,-4.00,-4.00,-1050.00
2024-06-07 00:11:14.336176,0,0,-1,0,0,0,63,65,142,100,34,121.41,39,24.00,-27.00,-985.00
2024-06-07 00:11:14.348151,-1,0,1,0,0,0,63,65,142,90,34,121.45,39,-1.00,-11.00,-1050.00
2024-06-07 00:11:14.540972,0,0,7,0,0,0,63,65,143,90,34,121.41,39,26.00,25.00,-949.00
2024-06-07 00:11:14.553500,0,0,13,0,0,0,63,65,144,90,34,121.42,39,-1.00,5.00,-1046.00
2024-06-07 00:11:14.653992,0,0,20,0,0,0,63,65,144,90,34,121.41,39,12.00,-10.00,-1028.00
2024-06-07 00:11:14.755332,0,0,26,0,0,0,63,65,144,90,34,121.44,39,15.00,7.00,-997.00
2024-06-07 00:11:14.950584,0,0,32,0,0,0,63,65,145,100,34,121.52,39,6.00,-23.00,-933.00
2024-06-07 00:11:14.959278,0,0,38,0,0,0,63,65,145,100,34,121.45,39,-3.00,0.00,-1022.00
2024-06-07 00:11:15.155330,0,0,44,0,0,0,63,65,146,100,34,121.46,39,-1.00,4.00,-1010.00
2024-06-07 00:11:15.163205,0,0,50,0,0,0,63,65,147,100,34,121.50,39,0.00,-8.00,-977.00
2024-06-07 00:11:15.360106,0,-1,57,0,0,0,63,65,147,100,34,121.49,40,5.00,-6.00,-967.00
2024-06-07 00:11:15.367168,0,0,63,0,0,0,63,65,146,100,34,121.49,40,14.00,-38.00,-897.00
2024-06-07 00:11:15.469127,0,0,69,0,0,0,63,65,146,100,34,121.48,40,23.00,9.00,-976.00
2024-06-07 00:11:15.667309,0,0,75,0,0,0,63,65,146,100,34,121.44,40,5.00,6.00,-970.00
2024-06-07 00:11:15.673232,0,0,81,0,0,0,64,66,146,100,34,121.46,40,-10.00,14.00,-1010.00
2024-06-07 00:11:15.872031,0,0,87,0,0,0,64,66,145,100,34,121.51,40,0.00,3.00,-952.00
2024-06-07 00:11:15.872223,0,0,93,0,0,0,64,66,145,100,34,121.41,40,8.00,-1.00,-1027.00
2024-06-07 00:11:15.928141,0,0,99,0,0,0,64,66,143,100,34,121.48,40,9.00,-16.00,-1003.00
2024-06-07 00:11:16.076896,0,0,106,0,0,0,64,66,143,100,34,121.46,40,12.00,15.00,-977.00
2024-06-07 00:11:16.132124,0,0,112,0,0,0,64,66,143,100,34,121.45,40,9.00,-6.00,-1015.00
2024-06-07 00:11:16.282057,0,0,118,0,0,0,64,66,142,100,34,121.50,41,31.00,1.00,-1061.00
2024-06-07 00:11:16.336322,0,0,124,0,0,0,64,66,140,100,34,121.48,41,7.00,8.00,-1004.00
2024-06-07 00:11:16.486465,0,0,130,0,0,0,64,66,140,90,34,121.42,41,14.00,6.00,-984.00
2024-06-07 00:11:16.540450,0,0,136,0,0,0,64,66,139,90,34,121.49,41,12.00,-3.00,-995.00
2024-06-07 00:11:16.691223,0,0,148,0,0,0,63,66,139,90,34,121.52,41,-11.00,-12.00,-938.00
2024-06-07 00:11:16.744017,0,0,154,0,0,0,63,66,138,90,34,121.42,41,16.00,-10.00,-1003.00
2024-06-07 00:11:16.896029,0,0,160,0,0,0,63,66,137,90,34,121.44,41,20.00,-7.00,-1025.00
2024-06-07 00:11:16.948713,0,0,166,0,0,0,63,66,136,90,34,121.41,41,14.00,-9.00,-1011.00
2024-06-07 00:11:17.101289,0,0,172,0,0,0,63,66,135,90,34,121.45,41,24.00,-5.00,-987.00
2024-06-07 00:11:17.152064,0,0,178,0,0,0,63,66,134,90,34,121.39,42,17.00,-23.00,-954.00
2024-06-07 00:11:17.305673,0,0,-174,0,0,0,63,66,134,90,34,121.37,42,19.00,0.00,-981.00
2024-06-07 00:11:17.357639,1,0,-168,0,0,0,63,66,134,90,34,121.39,42,14.00,0.00,-1005.00
2024-06-07 00:11:17.458053,0,0,-162,0,0,0,63,66,132,90,34,121.39,42,17.00,-25.00,-1036.00
2024-06-07 00:11:17.612805,0,0,-156,0,0,0,63,66,131,90,34,121.36,42,4.00,-8.00,-971.00
2024-06-07 00:11:17.661950,0,1,-150,0,0,0,63,66,130,90,34,121.38,42,6.00,-8.00,-985.00
2024-06-07 00:11:17.817901,0,0,-144,0,0,0,63,66,129,90,34,121.39,42,1.00,-5.00,-1032.00
2024-06-07 00:11:17.866673,0,1,-138,0,0,0,63,66,128,90,34,121.37,42,5.00,-13.00,-993.00
2024-06-07 00:11:18.022406,0,1,-132,0,0,0,63,66,127,90,34,121.32,42,14.00,-1.00,-907.00
2024-06-07 00:11:18.070012,0,0,-126,0,0,0,63,66,127,90,34,121.35,42,13.00,-11.00,-1017.00
2024-06-07 00:11:18.227174,0,0,-120,0,0,0,63,66,126,90,34,121.42,43,2.00,-4.00,-1020.00
2024-06-07 00:11:18.275587,0,1,-114,0,0,0,63,66,127,90,34,121.38,43,23.00,-23.00,-971.00
2024-06-07 00:11:18.379663,0,1,-108,0,0,0,63,66,126,90,34,121.33,43,6.00,10.00,-992.00
2024-06-07 00:11:18.477923,0,1,-101,0,0,0,63,66,126,90,33,121.33,43,14.00,-8.00,-1008.00
2024-06-07 00:11:18.637110,0,1,-95,0,0,0,63,66,126,90,33,121.38,43,15.00,-5.00,-1021.00
2024-06-07 00:11:18.681955,0,1,-89,0,0,0,64,66,126,90,33,121.28,43,6.00,-18.00,-1003.00
2024-06-07 00:11:18.783888,0,1,-83,0,0,0,64,66,126,90,33,121.37,43,5.00,2.00,-1015.00
2024-06-07 00:11:18.944299,0,1,-77,0,0,0,64,66,128,90,33,121.35,43,10.00,-4.00,-1015.00
2024-06-07 00:11:18.991490,0,0,-71,0,0,0,64,66,129,90,33,121.38,43,17.00,-10.00,-982.00
2024-06-07 00:11:19.090025,0,0,-65,0,0,0,64,66,130,90,33,121.38,43,3.00,9.00,-957.00
2024-06-07 00:11:19.251149,0,0,-59,0,0,0,64,66,131,90,33,121.44,44,15.00,-5.00,-1002.00
2024-06-07 00:11:19.293826,0,0,-53,0,0,0,64,66,131,90,33,121.39,44,34.00,-22.00,-983.00
2024-06-07 00:11:19.396499,0,0,-48,0,0,0,64,66,132,90,33,121.47,44,7.00,-9.00,-970.00
2024-06-07 00:11:19.558782,0,0,-42,0,0,0,64,66,133,90,33,121.40,44,18.00,-15.00,-967.00
2024-06-07 00:11:19.599832,0,0,-36,0,0,0,64,66,133,90,33,121.49,44,13.00,1.00,-985.00
2024-06-07 00:11:19.763137,0,0,-30,0,0,0,64,66,134,90,33,121.49,44,18.00,-5.00,-994.00
2024-06-07 00:11:19.803785,0,0,-24,0,0,0,64,66,134,90,33,121.51,44,-5.00,2.00,-1026.00
2024-06-07 00:11:19.967883,0,0,-19,0,0,0,64,66,135,90,33,121.44,44,-31.00,23.00,-1016.00
2024-06-07 00:11:20.007774,0,0,-15,0,0,0,64,66,136,90,33,121.46,44,6.00,-8.00,-991.00
2024-06-07 00:11:20.172727,0,0,-12,0,0,0,64,66,136,90,33,121.45,44,-4.00,5.00,-984.00
2024-06-07 00:11:20.172819,0,0,-9,0,0,0,64,66,136,90,33,121.44,45,-5.00,-6.00,-961.00
2024-06-07 00:11:20.262756,0,0,-8,0,0,0,64,66,136,90,33,121.50,45,-6.00,0.00,-972.00
2024-06-07 00:11:20.364768,0,0,-6,0,0,0,64,66,136,90,33,121.49,45,13.00,-17.00,-988.00
2024-06-07 00:11:20.479889,0,0,-5,0,0,0,64,66,136,90,33,121.53,45,-24.00,7.00,-1009.00
2024-06-07 00:11:20.568749,0,0,-4,0,0,0,64,66,135,90,33,121.50,45,-1.00,-7.00,-988.00
2024-06-07 00:11:20.721749,0,0,-4,0,0,0,64,66,135,90,33,121.56,45,-6.00,-18.00,-1012.00
2024-06-07 00:11:20.824030,0,0,-3,0,0,0,64,66,135,90,33,121.50,45,-5.00,0.00,-1023.00
2024-06-07 00:11:20.874812,0,0,-3,0,0,0,64,66,134,90,33,121.50,45,-6.00,0.00,-1007.00
2024-06-07 00:11:20.992502,0,0,-3,0,0,0,64,66,135,90,33,121.50,45,42.00,-9.00,-1124.00
2024-06-07 00:11:21.078594,0,0,-3,0,0,0,64,66,136,90,33,121.52,45,15.00,-5.00,-1029.00
2024-06-07 00:11:21.197112,0,0,-3,0,0,0,64,66,136,90,33,121.50,46,7.00,-21.00,-1011.00
2024-06-07 00:11:21.282787,0,0,-3,0,0,0,64,66,137,90,33,121.45,46,-8.00,-11.00,-999.00
2024-06-07 00:11:21.385148,0,0,-3,0,0,0,64,66,138,90,33,121.47,46,12.00,-12.00,-951.00
2024-06-07 00:11:21.504079,0,0,-3,0,0,0,64,66,139,90,33,121.53,46,12.00,-29.00,-974.00
2024-06-07 00:11:21.588665,0,0,-3,0,0,0,64,66,139,90,33,121.50,46,39.00,-16.00,-987.00
2024-06-07 00:11:21.708830,0,0,-3,0,0,0,63,67,140,90,33,121.51,46,12.00,-9.00,-974.00
2024-06-07 00:11:21.794082,0,0,-3,0,0,0,63,67,140,90,33,121.47,46,13.00,-38.00,-958.00
2024-06-07 00:11:21.913502,0,0,-3,0,0,0,63,67,141,90,33,121.59,46,-19.00,11.00,-968.00
2024-06-07 00:11:21.997298,0,0,-3,0,0,0,63,67,140,90,33,121.53,46,51.00,-24.00,-1029.00
2024-06-07 00:11:22.114762,0,0,-3,0,0,0,63,67,140,100,33,121.56,46,26.00,-24.00,-1013.00
2024-06-07 00:11:22.257278,0,0,-3,0,0,0,63,67,140,100,33,121.56,47,5.00,-23.00,-1036.00
2024-06-07 00:11:22.366388,0,0,-3,0,0,0,63,67,139,90,33,121.60,47,22.00,-26.00,-975.00
2024-06-07 00:11:22.415317,0,0,-3,0,0,0,63,67,138,90,33,121.55,47,28.00,-47.00,-1003.00
2024-06-07 00:11:22.546018,0,0,-3,0,0,0,63,67,137,90,33,121.62,47,6.00,-23.00,-972.00
2024-06-07 00:11:22.615239,0,0,-3,0,0,0,63,67,136,90,33,121.53,47,4.00,-10.00,-1018.00
2024-06-07 00:11:22.711530,0,0,-3,0,0,0,64,66,135,90,33,121.50,47,8.00,-2.00,-991.00
2024-06-07 00:11:22.813988,0,0,-3,0,0,0,64,66,134,90,33,121.51,47,-1.00,33.00,-896.00
2024-06-07 00:11:23.019657,0,0,-3,0,0,0,64,66,132,90,33,121.53,47,3.00,-12.00,-980.00
2024-06-07 00:11:23.019714,0,0,-8,0,0,0,64,66,133,90,33,121.59,47,7.00,11.00,-978.00
2024-06-07 00:11:23.119357,0,0,-14,0,0,0,64,66,133,90,33,121.48,47,9.00,-20.00,-1012.00
2024-06-07 00:11:23.262307,0,0,-21,0,0,0,64,66,132,90,33,121.57,48,16.00,0.00,-1055.00
2024-06-07 00:11:23.324001,0,0,-27,0,0,0,64,66,132,90,33,121.52,48,6.00,-5.00,-1018.00
2024-06-07 00:11:23.461494,0,0,-33,0,0,0,64,66,132,90,33,121.47,48,34.00,-10.00,-1040.00
2024-06-07 00:11:23.603654,0,0,-39,0,0,0,64,66,132,90,33,121.52,48,22.00,-14.00,-1015.00
2024-06-07 00:11:23.628574,0,0,-44,0,0,0,64,66,133,90,33,121.51,48,14.00,18.00,-1033.00
2024-06-07 00:11:23.793328,0,0,-50,0,0,0,64,67,133,90,33,121.56,48,27.00,-6.00,-1004.00
2024-06-07 00:11:23.911165,0,0,-56,0,0,0,64,67,133,90,33,121.55,48,-5.00,1.00,-1068.00
2024-06-07 00:11:23.934512,0,0,-62,0,0,0,64,67,134,90,33,121.56,48,45.00,-24.00,-963.00
2024-06-07 00:11:24.075374,0,0,-68,0,0,0,64,67,134,90,33,121.56,48,22.00,8.00,-1036.00
2024-06-07 00:11:24.087454,0,0,-74,0,0,0,64,67,134,90,33,121.63,48,9.00,-17.00,-961.00
2024-06-07 00:11:24.205336,0,0,-80,0,0,0,64,67,134,90,33,121.55,49,28.00,-15.00,-1013.00
2024-06-07 00:11:24.291405,0,0,-86,0,0,0,64,67,134,90,33,121.53,49,-1.00,24.00,-943.00
2024-06-07 00:11:24.393438,0,0,-93,0,0,0,64,67,134,90,33,121.53,49,44.00,9.00,-979.00
2024-06-07 00:11:24.575799,1,0,-99,0,0,0,64,67,133,90,33,121.52,49,-2.00,53.00,-960.00
2024-06-07 00:11:24.597948,0,0,-105,0,0,0,64,67,133,90,33,121.52,49,14.00,8.00,-1029.00
2024-06-07 00:11:24.783607,0,0,-111,0,0,0,64,66,133,90,33,121.59,49,5.00,25.00,-976.00
2024-06-07 00:11:24.801318,1,0,-117,0,0,0,64,66,132,90,33,121.56,49,25.00,-8.00,-1110.00
2024-06-07 00:11:24.985316,1,0,-123,0,0,0,64,66,132,90,33,121.46,49,-4.00,9.00,-980.00
2024-06-07 00:11:25.005327,1,0,-129,0,0,0,64,66,132,90,33,121.44,49,5.00,5.00,-1076.00
2024-06-07 00:11:25.190130,1,0,-135,0,0,0,64,66,133,90,33,121.54,49,3.00,-7.00,-971.00
2024-06-07 00:11:25.209532,1,0,-142,0,0,0,64,66,133,90,33,121.49,50,0.00,6.00,-1051.00
2024-06-07 00:11:25.395032,1,0,-148,0,0,0,64,66,132,90,33,121.55,50,-6.00,26.00,-984.00
2024-06-07 00:11:25.413289,0,0,-154,0,0,0,64,66,133,90,32,121.58,50,-1.00,22.00,-1001.00
2024-06-07 00:11:25.599879,0,0,-160,0,0,0,64,66,133,90,32,121.55,50,26.00,36.00,-941.00
2024-06-07 00:11:25.617305,1,0,-166,0,0,0,64,66,133,90,32,121.53,50,47.00,-35.00,-996.00
2024-06-07 00:11:25.804776,1,0,-172,0,0,0,66,67,133,90,32,121.60,50,59.00,3.00,-1085.00
2024-06-07 00:11:25.821322,1,0,-178,0,0,0,66,67,133,90,32,121.56,50,49.00,16.00,-964.00
2024-06-07 00:11:26.009339,1,0,175,0,0,0,66,67,134,90,32,121.56,50,18.00,-8.00,-1018.00
2024-06-07 00:11:26.025831,1,0,169,0,0,0,66,67,135,90,32,121.57,50,11.00,0.00,-1012.00
2024-06-07 00:11:26.214116,1,0,162,0,0,0,66,67,135,90,32,121.65,50,17.00,3.00,-1032.00
2024-06-07 00:11:26.229349,1,0,156,0,0,0,66,67,136,90,32,121.57,51,28.00,-8.00,-1023.00
2024-06-07 00:11:26.418908,1,0,150,0,0,0,66,67,136,90,32,121.49,51,6.00,-29.00,-997.00
2024-06-07 00:11:26.433182,1,0,145,0,0,0,66,67,137,90,32,121.60,51,-15.00,-9.00,-1006.00
2024-06-07 00:11:26.623672,1,0,139,0,0,0,66,67,137,90,32,121.56,51,-20.00,2.00,-1035.00
2024-06-07 00:11:26.637155,0,0,133,0,0,0,66,67,138,90,32,121.59,51,-11.00,31.00,-949.00
2024-06-07 00:11:26.739518,1,0,127,0,0,0,65,68,138,90,32,121.55,51,2.00,6.00,-994.00
2024-06-07 00:11:26.931228,1,0,121,0,0,0,65,68,138,90,32,121.55,51,-10.00,15.00,-1003.00
2024-06-07 00:11:26.943196,1,0,115,0,0,0,65,68,137,90,32,121.62,51,0.00,16.00,-1036.00
2024-06-07 00:11:27.136300,1,0,109,0,0,0,65,68,137,90,32,121.63,51,11.00,10.00,-991.00
2024-06-07 00:11:27.147823,1,0,103,0,0,0,65,68,136,90,32,121.53,51,2.00,7.00,-1048.00
2024-06-07 00:11:27.340448,1,0,97,0,0,0,65,68,136,90,32,121.60,52,-16.00,10.00,-1071.00
2024-06-07 00:11:27.351139,1,0,91,0,0,0,65,68,136,90,32,121.63,52,-18.00,32.00,-1081.00
2024-06-07 00:11:27.453808,0,0,85,0,0,0,65,68,135,90,32,121.58,52,14.00,-20.00,-929.00
2024-06-07 00:11:27.647633,0,0,79,0,0,0,65,68,135,90,32,121.58,52,26.00,-27.00,-998.00
2024-06-07 00:11:27.647688,0,0,73,0,0,0,65,68,134,90,32,121.55,52,18.00,-33.00,-974.00
2024-06-07 00:11:27.759117,0,0,67,0,0,0,65,67,134,90,32,121.49,52,16.00,1.00,-1039.00
2024-06-07 00:11:27.870619,0,0,61,0,0,0,65,67,133,90,32,121.63,52,16.00,-3.00,-979.00
2024-06-07 00:11:27.963145,0,0,55,0,0,0,65,67,132,90,32,121.64,52,6.00,3.00,-1029.00
2024-06-07 00:11:28.013977,0,0,49,0,0,0,65,67,132,90,32,121.55,52,32.00,-16.00,-937.00
2024-06-07 00:11:28.162072,0,0,43,0,0,0,65,67,131,90,32,121.52,52,26.00,-20.00,-997.00
2024-06-07 00:11:28.217870,0,0,37,0,0,0,65,67,131,90,32,121.52,53,13.00,-8.00,-1031.00
2024-06-07 00:11:28.365320,0,0,31,0,0,0,65,67,130,90,32,121.58,53,36.00,-13.00,-970.00
2024-06-07 00:11:28.421953,0,0,25,0,0,0,65,67,130,90,32,121.62,53,26.00,9.00,-1114.00
2024-06-07 00:11:28.569602,0,0,18,0,0,0,65,67,130,90,32,121.48,53,7.00,1.00,-1069.00
2024-06-07 00:11:28.625968,0,0,13,0,0,0,65,67,131,90,32,121.56,53,-7.00,-3.00,-1042.00
2024-06-07 00:11:28.773972,0,0,9,0,0,0,65,67,131,90,32,121.58,53,5.00,-40.00,-1055.00
2024-06-07 00:11:28.830918,0,0,6,0,0,0,65,67,131,90,32,121.55,53,13.00,-19.00,-1025.00
2024-06-07 00:11:28.978759,0,0,3,0,0,0,65,67,132,90,32,121.58,53,2.00,-23.00,-1067.00
2024-06-07 00:11:29.036546,0,0,1,0,0,0,65,67,133,90,32,121.59,53,36.00,-43.00,-995.00
2024-06-07 00:11:29.136936,0,0,0,0,0,0,65,67,133,90,32,121.55,53,38.00,-41.00,-982.00
2024-06-07 00:11:29.239016,0,0,0,0,0,0,65,67,135,90,32,121.55,54,13.00,-2.00,-960.00
2024-06-07 00:11:29.388931,0,0,-1,0,0,0,65,67,135,90,32,121.51,54,40.00,-35.00,-1030.00
2024-06-07 00:11:29.443123,0,0,-1,0,0,0,65,67,135,90,32,121.56,54,15.00,-18.00,-988.00
2024-06-07 00:11:29.593623,0,0,-1,0,0,0,65,67,136,90,32,121.64,54,50.00,-11.00,-994.00
2024-06-07 00:11:29.647169,0,0,-1,0,0,0,65,67,137,90,32,121.63,54,44.00,-30.00,-1008.00
2024-06-07 00:11:29.797956,0,0,-1,0,0,0,65,68,137,90,32,121.60,54,16.00,-6.00,-982.00
2024-06-07 00:11:29.851968,0,0,-1,0,0,0,65,68,137,90,32,121.56,54,14.00,-17.00,-1055.00
2024-06-07 00:11:30.002899,0,0,-1,0,0,0,65,68,137,90,32,121.58,54,28.00,-30.00,-955.00
2024-06-07 00:11:30.055136,0,0,-1,0,0,0,65,68,136,90,32,121.64,54,30.00,-68.00,-1070.00
2024-06-07 00:11:30.208658,0,0,-1,0,0,0,65,68,135,90,32,121.67,54,45.00,5.00,-981.00
2024-06-07 00:11:30.258986,0,0,-1,0,0,0,65,68,136,90,32,121.61,55,47.00,-38.00,-1004.00
2024-06-07 00:11:30.382932,0,0,-1,0,0,0,65,68,135,90,32,121.53,55,14.00,-18.00,-990.00
2024-06-07 00:11:30.463008,0,0,-1,0,0,0,65,68,135,90,32,121.56,55,-30.00,2.00,-1017.00
2024-06-07 00:11:30.617386,0,0,-1,0,0,0,65,68,133,90,32,121.60,55,-15.00,8.00,-968.00
2024-06-07 00:11:30.667494,0,0,-1,0,0,0,65,68,133,90,32,121.56,55,38.00,-16.00,-1077.00
2024-06-07 00:11:30.769942,0,0,-1,0,0,0,66,67,132,90,32,121.61,55,7.00,7.00,-999.00
2024-06-07 00:11:30.925242,0,0,-1,0,0,0,66,67,132,90,32,121.62,55,4.00,17.00,-1058.00
2024-06-07 00:11:30.972864,0,0,-1,0,0,0,66,67,131,90,32,121.59,55,21.00,8.00,-1101.00
2024-06-07 00:11:31.129591,0,0,-1,0,0,0,66,67,132,90,32,121.61,55,-18.00,11.00,-972.00
2024-06-07 00:11:31.176925,0,0,-1,0,0,0,66,67,132,90,32,121.67,56,13.00,-39.00,-1000.00
2024-06-07 00:11:31.334203,0,0,-1,0,0,0,66,67,133,90,32,121.61,56,-6.00,-1.00,-953.00
2024-06-07 00:11:31.381343,0,0,-1,0,0,0,66,67,133,90,32,121.59,56,-13.00,19.00,-959.00
2024-06-07 00:11:31.483228,0,0,-1,0,0,0,66,67,133,90,32,121.57,56,41.00,-4.00,-1057.00
2024-06-07 00:11:31.646570,0,0,-1,0,0,0,66,67,133,90,32,121.65,56,14.00,6.00,-1108.00
2024-06-07 00:11:31.646736,0,0,-1,0,0,0,66,67,134,90,32,121.57,56,18.00,15.00,-886.00
2024-06-07 00:11:31.846423,0,0,-1,0,0,0,65,67,134,90,32,121.62,56,12.00,-13.00,-1080.00
2024-06-07 00:11:31.846587,0,0,-1,0,0,0,65,67,134,90,32,121.64,56,-20.00,13.00,-988.00
2024-06-07 00:11:31.942004,0,0,-1,0,0,0,65,67,133,90,32,121.70,56,14.00,0.00,-952.00
2024-06-07 00:11:32.050725,0,0,-1,0,0,0,65,67,133,90,32,121.59,56,-14.00,22.00,-997.00
2024-06-07 00:11:32.146795,0,0,-1,0,0,0,65,67,133,90,32,121.63,57,14.00,-1.00,-995.00
2024-06-07 00:11:32.255851,0,0,-1,0,0,0,65,67,132,90,32,121.57,57,-17.00,8.00,-948.00
2024-06-07 00:11:32.350067,0,0,-1,0,0,0,65,67,132,90,32,121.65,57,-1.00,38.00,-987.00
2024-06-07 00:11:32.460209,0,0,-1,0,0,0,65,67,132,90,32,121.65,57,-18.00,-1.00,-1016.00
2024-06-07 00:11:32.554056,0,0,-1,0,0,0,65,67,131,90,32,121.60,57,-37.00,9.00,-979.00
2024-06-07 00:11:32.656705,0,0,-1,0,0,0,65,67,132,90,32,121.59,57,0.00,-7.00,-973.00
2024-06-07 00:11:32.757887,0,0,-1,0,0,0,65,68,131,90,32,121.64,57,44.00,-24.00,-1063.00
2024-06-07 00:11:32.859817,0,0,-1,0,0,0,65,68,131,90,32,121.66,57,15.00,-6.00,-1058.00
2024-06-07 00:11:32.962367,0,0,-1,0,0,0,65,68,132,90,32,121.57,57,1.00,11.00,-1019.00
2024-06-07 00:11:33.064067,0,0,-1,0,0,0,65,68,131,90,32,121.60,57,-14.00,32.00,-1002.00
2024-06-07 00:11:33.166009,0,-1,-1,0,0,0,65,68,132,90,32,121.59,58,-13.00,13.00,-983.00
2024-06-07 00:11:33.279748,0,-1,-1,0,0,0,65,68,132,90,32,121.60,58,0.00,14.00,-1007.00
2024-06-07 00:11:33.369890,0,-1,-1,0,0,0,65,68,132,90,32,121.63,58,12.00,-17.00,-983.00
2024-06-07 00:11:33.471700,0,-1,-1,0,0,0,65,68,132,90,32,121.58,58,14.00,11.00,-938.00
2024-06-07 00:11:33.586743,0,-1,-1,0,0,0,65,68,132,90,32,121.55,58,17.00,-11.00,-1016.00
2024-06-07 00:11:33.676136,-1,-1,-1,0,0,0,65,68,132,90,32,121.59,58,-23.00,40.00,-969.00
2024-06-07 00:11:33.791559,0,-1,-1,0,0,0,65,68,132,90,32,121.63,58,5.00,3.00,-1158.00
2024-06-07 00:11:33.887785,0,-1,-1,0,0,0,65,68,131,90,32,121.57,58,-42.00,14.00,-1112.00
2024-06-07 00:11:33.982827,0,0,-1,0,0,0,65,68,132,90,32,121.63,58,5.00,22.00,-965.00
2024-06-07 00:11:34.098632,0,0,-1,0,0,0,65,68,132,90,32,121.61,58,15.00,7.00,-1017.00
2024-06-07 00:11:34.188946,0,0,-1,0,0,0,65,68,132,90,32,121.62,59,1.00,-2.00,-923.00
2024-06-07 00:11:34.288299,0,0,-1,0,0,0,65,68,133,90,32,121.63,59,-44.00,48.00,-1008.00
2024-06-07 00:11:34.406260,0,-1,-2,0,0,0,65,68,131,90,32,121.60,59,9.00,-23.00,-924.00
2024-06-07 00:11:34.491731,0,-1,-2,0,0,0,65,68,132,90,32,121.58,59,14.00,-7.00,-1002.00
2024-06-07 00:11:34.610701,0,-1,-2,0,0,0,65,68,132,90,32,121.49,59,-8.00,-7.00,-978.00
2024-06-07 00:11:34.695567,0,-1,-2,0,0,0,65,68,131,90,32,121.62,59,16.00,-26.00,-1028.00
2024-06-07 00:11:34.815673,0,-1,-2,0,0,0,66,68,130,90,32,121.59,59,20.00,-24.00,-965.00
2024-06-07 00:11:34.899897,0,-1,-2,0,0,0,66,68,129,90,32,121.60,59,22.00,18.00,-957.00
2024-06-07 00:11:35.008709,0,-1,-2,0,0,0,66,68,129,90,32,121.62,59,1.00,14.00,-998.00
2024-06-07 00:11:35.103513,0,-1,-2,0,0,0,66,68,129,90,32,121.55,59,4.00,-3.00,-970.00
2024-06-07 00:11:35.227788,0,-1,-2,0,0,0,66,68,128,90,32,121.52,60,17.00,-10.00,-1041.00
2024-06-07 00:11:35.307536,0,-1,-2,0,0,0,66,68,129,90,32,121.55,60,-9.00,6.00,-1050.00
2024-06-07 00:11:35.409994,0,-1,-2,0,0,0,66,68,128,90,32,121.55,60,25.00,-6.00,-1025.00
2024-06-07 00:11:35.460510,0,-1,-2,0,0,0,66,68,128,90,32,121.55,60,21.00,-6.00,-928.00
2024-06-07 00:11:35.634768,0,-1,-2,0,0,0,66,68,129,90,32,121.57,60,10.00,0.00,-1005.00
2024-06-07 00:11:35.664438,0,-1,-2,0,0,0,66,68,129,90,32,121.59,60,9.00,-9.00,-1042.00
2024-06-07 00:11:35.839323,0,-1,-1,0,0,0,66,68,130,90,32,121.55,60,45.00,-43.00,-1032.00
2024-06-07 00:11:35.868494,0,-1,-1,0,0,0,66,68,130,90,32,121.57,60,2.00,1.00,-1012.00
2024-06-07 00:11:36.044619,0,-1,-2,0,0,0,66,68,131,90,32,121.59,60,39.00,-21.00,-985.00
2024-06-07 00:11:36.072281,0,0,-1,0,0,0,66,68,131,90,32,121.57,60,14.00,16.00,-972.00
2024-06-07 00:11:36.248989,0,0,-1,0,0,0,66,68,133,90,32,121.68,61,38.00,24.00,-861.00
2024-06-07 00:11:36.276438,0,-1,-1,0,0,0,66,68,133,90,32,121.66,61,46.00,11.00,-927.00
2024-06-07 00:11:36.454774,0,-1,-1,0,0,0,66,68,134,90,32,121.60,61,58.00,-55.00,-963.00
2024-06-07 00:11:36.480682,0,-1,-1,0,0,0,66,68,133,90,32,121.64,61,22.00,-3.00,-880.00
2024-06-07 00:11:36.659594,0,0,-1,0,0,0,66,68,134,90,32,121.57,61,-21.00,28.00,-976.00
2024-06-07 00:11:36.685566,0,-1,-1,0,0,0,66,68,135,90,32,121.60,61,-2.00,9.00,-1050.00
2024-06-07 00:11:36.786407,0,-1,-1,0,0,0,66,68,134,90,32,121.62,61,-18.00,-18.00,-1070.00
2024-06-07 00:11:36.965756,0,-1,-1,0,0,0,66,68,134,90,32,121.62,61,-3.00,20.00,-996.00
2024-06-07 00:11:36.990335,0,-1,-1,0,0,0,66,68,133,90,32,121.59,61,2.00,-16.00,-994.00
2024-06-07 00:11:37.107487,-1,-1,-1,0,0,0,66,68,133,90,32,121.59,61,63.00,-25.00,-885.00
2024-06-07 00:11:37.198561,0,0,-1,0,0,0,66,68,133,90,32,121.60,62,0.00,12.00,-1007.00
2024-06-07 00:11:37.296569,0,0,-1,0,0,0,66,68,132,90,32,121.64,62,-3.00,-14.00,-998.00
2024-06-07 00:11:37.465048,0,0,-1,0,0,0,66,68,132,90,31,121.59,62,3.00,10.00,-1033.00
2024-06-07 00:11:37.549581,0,-1,-1,0,0,0,66,68,132,90,31,121.58,62,51.00,-22.00,-998.00
2024-06-07 00:11:37.615309,0,0,-1,0,0,0,66,68,132,90,31,121.57,62,-9.00,13.00,-934.00
2024-06-07 00:11:37.723340,0,0,-1,0,0,0,66,68,132,90,31,121.58,62,-1.00,7.00,-1010.00
2024-06-07 00:11:37.898349,0,0,-1,0,0,0,66,68,132,90,31,121.66,62,24.00,18.00,-983.00
2024-06-07 00:11:37.909563,0,0,-1,0,0,0,66,68,133,90,31,121.62,62,-1.00,0.00,-1040.00
2024-06-07 00:11:38.093473,0,0,-1,0,0,0,66,68,131,90,31,121.61,62,36.00,23.00,-947.00
