TS,pitch,roll,yaw,vgx,vgy,vgz,templ,temph,tof,h,bat,baro,time,agx,agy,agz
2024-06-07 00:12:21.303293,0,0,-9,0,0,0,71,74,10,0,30,120.04,73,1.00,0.00,-996.00
2024-06-07 00:12:21.309360,0,0,-9,0,0,0,71,74,10,0,30,120.04,73,3.00,0.00,-999.00
2024-06-07 00:12:21.507786,0,0,-9,0,0,0,71,74,10,0,30,120.08,73,4.00,0.00,-998.00
2024-06-07 00:12:21.518386,0,0,-9,0,0,0,71,74,10,0,30,120.04,73,3.00,0.00,-1001.00
2024-06-07 00:12:21.616675,0,0,-9,0,0,0,71,74,10,0,30,120.04,73,0.00,0.00,-1001.00
2024-06-07 00:12:21.787018,0,0,-9,0,0,0,71,74,10,0,30,120.09,73,2.00,0.00,-998.00
2024-06-07 00:12:21.820053,0,0,-9,0,0,0,71,74,10,0,30,119.98,73,3.00,1.00,-999.00
2024-06-07 00:12:21.921348,0,0,-9,0,0,0,71,74,10,0,30,120.04,73,0.00,0.00,-1000.00
2024-06-07 00:12:22.135561,0,0,-9,0,0,0,71,75,10,0,30,120.06,73,2.00,1.00,-1001.00
2024-06-07 00:12:22.135700,0,0,-9,0,0,0,71,75,10,0,30,120.04,73,1.00,0.00,-999.00
2024-06-07 00:12:22.279431,0,0,-9,0,0,0,71,75,10,0,30,120.03,73,2.00,0.00,-998.00
2024-06-07 00:12:22.410083,0,0,-9,0,0,0,71,75,10,0,30,120.03,73,1.00,1.00,-1001.00
2024-06-07 00:12:22.431125,0,0,-9,0,0,0,71,75,10,0,30,120.00,73,3.00,0.00,-1001.00
2024-06-07 00:12:22.573992,0,0,-9,0,0,0,71,75,10,0,30,120.00,73,1.00,1.00,-999.00
2024-06-07 00:12:22.635761,0,0,-9,0,0,0,71,75,10,0,30,119.99,73,1.00,0.00,-1001.00
2024-06-07 00:12:22.743793,0,0,-9,0,0,0,71,75,10,0,30,120.07,73,4.00,0.00,-1000.00
2024-06-07 00:12:22.839485,0,0,-9,0,0,0,71,75,10,0,30,120.04,73,2.00,0.00,-999.00
2024-06-07 00:12:22.941232,0,0,-9,0,0,0,71,75,10,0,30,120.10,73,1.00,0.00,-998.00
2024-06-07 00:12:23.054547,0,0,-9,0,0,0,72,75,10,0,30,120.03,73,1.00,0.00,-998.00
2024-06-07 00:12:23.145974,0,0,-9,0,0,0,72,75,10,0,30,120.07,73,0.00,0.00,-1001.00
2024-06-07 00:12:23.248943,0,0,-9,0,0,0,72,75,10,0,30,120.04,73,3.00,-1.00,-1000.00
2024-06-07 00:12:23.361582,0,0,-9,0,0,0,72,75,10,0,30,120.05,73,2.00,0.00,-1001.00
2024-06-07 00:12:23.505067,0,0,-9,0,0,0,72,75,10,0,30,120.03,73,2.00,0.00,-999.00
2024-06-07 00:12:23.553185,0,0,-9,0,0,0,72,75,10,0,30,120.06,73,1.00,0.00,-999.00
2024-06-07 00:12:23.668723,0,0,-9,0,0,0,72,75,10,0,30,120.04,73,0.00,0.00,-1001.00
2024-06-07 00:12:23.812219,0,0,-9,0,0,0,72,75,10,0,30,120.04,73,1.00,-1.00,-998.00
2024-06-07 00:12:23.859087,0,0,-9,0,0,0,72,75,10,0,30,120.01,73,2.00,-1.00,-999.00
2024-06-07 00:12:23.976081,0,0,-9,0,0,0,72,75,10,0,30,119.98,73,2.00,0.00,-1002.00
2024-06-07 00:12:24.130505,0,0,-9,0,0,0,73,75,10,0,30,120.05,73,2.00,0.00,-1000.00
2024-06-07 00:12:24.164912,0,0,-9,0,0,0,73,75,10,0,30,120.02,73,1.00,0.00,-999.00
2024-06-07 00:12:24.274190,0,0,-9,0,0,0,73,75,10,0,30,120.05,73,1.00,0.00,-1001.00
2024-06-07 00:12:24.368873,0,0,-9,0,0,0,73,75,10,0,30,120.06,73,1.00,0.00,-999.00
2024-06-07 00:12:24.477000,0,0,-9,0,0,0,73,75,10,0,30,120.05,73,2.00,1.00,-998.00
2024-06-07 00:12:24.573222,0,0,-9,0,0,0,73,75,10,0,30,120.05,73,-6.00,3.00,-998.00
2024-06-07 00:12:24.623894,0,0,-9,0,0,0,73,75,10,0,30,120.05,73,8.00,13.00,-996.00
2024-06-07 00:12:24.784675,0,0,-9,0,0,0,73,75,10,0,30,120.05,73,20.00,-17.00,-1007.00
2024-06-07 00:12:24.827922,0,0,-10,0,0,0,73,75,10,0,30,120.05,74,0.00,-7.00,-1001.00
2024-06-07 00:12:24.989060,0,0,-11,0,0,0,73,75,10,0,30,120.05,74,2.00,7.00,-955.00
2024-06-07 00:12:25.031900,0,0,-12,0,0,0,72,75,10,0,30,120.05,74,-17.00,10.00,-1004.00
2024-06-07 00:12:25.193888,0,0,-14,0,0,-2,72,75,10,0,30,120.05,74,36.00,-22.00,-1200.00
2024-06-07 00:12:25.235996,0,0,-14,0,0,-5,72,75,10,0,30,120.05,74,-7.00,57.00,-1253.00
2024-06-07 00:12:25.398585,0,0,-13,0,0,-7,72,75,12,10,30,120.07,74,-17.00,31.00,-1249.00
2024-06-07 00:12:25.439804,0,0,-13,0,0,-7,72,75,20,10,30,120.40,74,-36.00,36.00,-1073.00
2024-06-07 00:12:25.603578,0,0,-13,0,0,-8,72,75,26,20,30,120.50,74,20.00,-32.00,-1041.00
2024-06-07 00:12:25.647959,0,0,-13,0,0,-8,72,75,33,30,30,120.57,74,13.00,-1.00,-1124.00
2024-06-07 00:12:25.745844,0,0,-13,0,0,-7,72,75,42,30,30,120.68,74,46.00,-17.00,-873.00
2024-06-07 00:12:25.910913,1,0,-13,0,0,-6,72,75,50,40,30,120.77,75,13.00,-1.00,-879.00
2024-06-07 00:12:25.949753,1,0,-13,0,0,-5,72,75,58,50,30,120.82,75,-1.00,-21.00,-892.00
2024-06-07 00:12:26.115353,0,0,-13,0,0,-4,73,74,63,50,30,120.89,75,17.00,4.00,-905.00
2024-06-07 00:12:26.154245,0,0,-13,0,0,-3,73,74,68,50,30,120.95,75,-13.00,20.00,-905.00
2024-06-07 00:12:26.320133,0,0,-13,0,0,-2,73,74,71,60,30,120.89,75,-51.00,-5.00,-861.00
2024-06-07 00:12:26.358007,0,0,-13,0,0,-1,73,74,73,60,30,121.02,75,4.00,-39.00,-890.00
2024-06-07 00:12:26.524845,0,0,-13,0,0,-1,73,74,75,60,30,121.05,75,-11.00,24.00,-998.00
2024-06-07 00:12:26.562692,0,0,-13,0,0,0,73,74,75,60,30,121.09,75,5.00,24.00,-857.00
2024-06-07 00:12:26.730188,0,0,-13,0,0,0,73,74,76,60,30,121.00,75,-35.00,33.00,-1028.00
2024-06-07 00:12:26.766807,0,0,-13,0,0,0,73,74,76,60,30,121.07,75,14.00,3.00,-997.00
2024-06-07 00:12:26.934451,0,0,-13,0,0,0,73,74,76,60,30,121.06,76,19.00,-3.00,-942.00
2024-06-07 00:12:26.971969,0,0,-13,0,0,0,73,74,76,60,30,121.01,76,-1.00,-13.00,-900.00
2024-06-07 00:12:27.072307,0,1,-13,0,0,0,72,75,75,60,30,121.07,76,18.00,8.00,-988.00
2024-06-07 00:12:27.173662,0,0,-13,0,0,0,72,75,76,60,30,121.02,76,14.00,-14.00,-944.00
2024-06-07 00:12:27.344112,0,0,-13,0,0,0,72,75,76,60,30,120.97,76,25.00,-39.00,-1028.00
2024-06-07 00:12:27.377638,0,0,-13,0,0,0,72,75,76,60,30,121.08,76,12.00,-14.00,-1123.00
2024-06-07 00:12:27.549356,0,0,-13,0,0,0,72,75,76,60,30,121.07,76,25.00,-4.00,-1020.00
2024-06-07 00:12:27.581692,0,0,-13,0,0,0,72,75,77,60,30,121.05,76,12.00,13.00,-963.00
2024-06-07 00:12:27.753733,0,0,-13,0,0,0,72,75,77,60,30,120.97,76,-8.00,40.00,-941.00
2024-06-07 00:12:27.785729,0,0,-13,0,0,0,72,75,77,70,30,121.02,76,-6.00,-3.00,-934.00
2024-06-07 00:12:27.887836,0,0,-13,0,0,0,72,75,77,70,30,120.95,77,-22.00,-2.00,-885.00
2024-06-07 00:12:28.060862,0,0,-13,0,0,0,72,75,77,60,30,121.06,77,7.00,19.00,-1022.00
2024-06-07 00:12:28.091651,0,0,-13,0,0,0,72,75,76,60,30,120.99,77,13.00,-12.00,-1020.00
2024-06-07 00:12:28.265728,0,0,-13,0,0,0,72,75,76,60,30,121.04,77,2.00,19.00,-979.00
2024-06-07 00:12:28.295653,0,0,-13,0,0,0,72,75,75,60,30,120.98,77,-15.00,23.00,-918.00
2024-06-07 00:12:28.470443,0,0,-13,0,0,0,72,75,74,60,30,121.04,77,-13.00,6.00,-943.00
2024-06-07 00:12:28.499589,0,0,-13,0,0,0,72,75,74,60,30,121.01,77,21.00,-1.00,-1119.00
2024-06-07 00:12:28.601585,0,0,-13,0,0,0,72,75,73,60,30,121.03,77,-16.00,16.00,-1031.00
2024-06-07 00:12:28.652615,0,0,-13,0,0,0,72,75,73,60,30,121.00,77,42.00,-34.00,-1004.00
2024-06-07 00:12:28.754590,0,1,-13,0,0,0,72,75,73,60,30,121.06,77,-34.00,21.00,-991.00
2024-06-07 00:12:28.880025,0,1,-13,0,0,0,72,75,73,60,30,121.01,78,32.00,9.00,-1049.00
2024-06-07 00:12:28.959214,0,1,-13,0,0,0,72,75,73,60,30,121.04,78,-5.00,23.00,-964.00
2024-06-07 00:12:29.085444,0,0,-13,0,0,0,73,75,73,60,30,121.03,78,-3.00,-15.00,-988.00
2024-06-07 00:12:29.162715,0,0,-13,0,0,0,73,75,73,60,30,121.06,78,-12.00,4.00,-929.00
2024-06-07 00:12:29.289856,0,0,-13,0,0,0,73,75,74,60,30,121.11,78,-26.00,-23.00,-1015.00
2024-06-07 00:12:29.368578,0,0,-13,0,0,0,73,75,74,60,30,121.00,78,23.00,-12.00,-961.00
2024-06-07 00:12:29.468670,0,0,-13,0,0,0,73,75,75,60,30,121.01,78,-18.00,15.00,-989.00
2024-06-07 00:12:29.570653,0,0,-13,0,0,0,73,75,76,60,30,121.05,78,22.00,-34.00,-960.00
2024-06-07 00:12:29.699345,0,0,-13,0,0,0,73,75,77,60,30,121.01,78,1.00,-23.00,-989.00
2024-06-07 00:12:29.774634,0,1,-13,0,0,0,73,75,77,60,30,120.98,78,-2.00,6.00,-1100.00
2024-06-07 00:12:29.904240,0,1,-13,0,0,0,73,75,78,60,30,121.05,79,11.00,10.00,-969.00
2024-06-07 00:12:29.978663,0,0,-13,0,0,0,73,75,79,60,30,120.99,79,31.00,-26.00,-923.00
2024-06-07 00:12:30.109031,0,0,-13,0,0,0,72,74,79,60,30,121.02,79,26.00,-42.00,-970.00
2024-06-07 00:12:30.182614,0,0,-13,0,0,0,72,74,79,60,30,120.93,79,-26.00,22.00,-1049.00
2024-06-07 00:12:30.315031,0,0,-13,0,0,0,72,74,80,70,30,120.97,79,10.00,-3.00,-979.00
2024-06-07 00:12:30.386631,0,0,-13,0,0,0,72,74,80,70,30,120.99,79,17.00,-6.00,-984.00
2024-06-07 00:12:30.518572,0,0,-13,0,0,0,72,74,80,70,30,121.04,79,-15.00,-13.00,-931.00
2024-06-07 00:12:30.591144,0,0,-13,0,0,0,72,74,80,70,30,121.06,79,-33.00,-18.00,-981.00
2024-06-07 00:12:30.723573,0,0,-13,0,0,0,72,74,80,70,30,121.02,79,-9.00,8.00,-1010.00
2024-06-07 00:12:30.795885,0,0,-13,0,0,0,72,74,80,70,30,120.98,79,-17.00,-26.00,-1091.00
2024-06-07 00:12:30.896634,0,1,-13,0,0,0,72,74,80,70,30,121.01,80,-23.00,10.00,-1028.00
2024-06-07 00:12:31.000038,0,0,-13,0,0,0,72,74,80,70,30,121.10,80,-12.00,19.00,-1029.00
2024-06-07 00:12:31.103885,0,0,-13,0,0,0,71,74,81,70,30,121.04,80,19.00,-36.00,-1024.00
2024-06-07 00:12:31.202775,0,0,-13,0,0,0,71,74,81,70,30,121.03,80,34.00,-33.00,-950.00
2024-06-07 00:12:31.337592,0,0,-13,0,0,0,71,74,81,70,30,121.06,80,-24.00,23.00,-1005.00
2024-06-07 00:12:31.406288,0,0,-13,0,0,0,71,74,82,70,30,121.04,80,17.00,-19.00,-1106.00
2024-06-07 00:12:31.542399,0,0,-13,0,0,-1,71,74,84,70,30,121.13,80,-12.00,9.00,-1054.00
2024-06-07 00:12:31.610177,0,0,-13,0,0,-2,71,74,87,70,30,121.19,80,8.00,-17.00,-1140.00
2024-06-07 00:12:31.747109,0,0,-13,0,0,-3,71,74,91,70,30,121.10,80,-18.00,-1.00,-1151.00
2024-06-07 00:12:31.815656,0,0,-13,0,0,-4,71,74,95,80,30,121.24,80,41.00,-2.00,-1060.00
2024-06-07 00:12:31.951958,0,0,-13,0,0,-5,71,74,100,80,30,121.26,81,21.00,-16.00,-1063.00
2024-06-07 00:12:32.018719,0,0,-13,0,0,-5,71,74,105,90,30,121.29,81,-37.00,35.00,-1008.00
2024-06-07 00:12:32.156768,0,0,-13,0,0,-5,71,74,111,90,30,121.38,81,8.00,-9.00,-979.00
2024-06-07 00:12:32.222790,0,0,-13,0,0,-5,71,74,117,100,30,121.48,81,14.00,4.00,-847.00
2024-06-07 00:12:32.363782,0,0,-13,0,0,-5,71,74,123,110,30,121.54,81,-35.00,29.00,-979.00
2024-06-07 00:12:32.426226,0,0,-13,0,0,-5,71,74,128,110,30,121.54,81,37.00,13.00,-917.00
2024-06-07 00:12:32.566362,0,0,-13,0,0,-5,71,74,135,120,30,121.61,81,10.00,0.00,-907.00
2024-06-07 00:12:32.579232,0,0,-13,0,0,-5,71,74,139,120,30,121.61,81,12.00,-27.00,-965.00
2024-06-07 00:12:32.771134,0,0,-13,0,0,-4,71,74,145,130,30,121.72,81,-24.00,14.00,-868.00
2024-06-07 00:12:32.783860,0,0,-13,0,0,-4,71,74,150,130,30,121.73,81,1.00,-17.00,-990.00
2024-06-07 00:12:32.976264,0,0,-13,0,0,-4,71,74,154,140,30,121.80,82,-7.00,-2.00,-901.00
2024-06-07 00:12:32.989242,0,0,-13,0,0,-3,71,74,160,140,30,121.85,82,35.00,-17.00,-1007.00
2024-06-07 00:12:33.180775,0,0,-13,0,0,-3,71,74,164,140,30,121.82,82,-24.00,24.00,-982.00
2024-06-07 00:12:33.193903,0,0,-13,0,0,-3,71,74,168,150,30,121.85,82,-27.00,-7.00,-968.00
2024-06-07 00:12:33.293236,0,0,-13,0,0,-3,71,74,172,150,30,121.89,82,34.00,-27.00,-986.00
2024-06-07 00:12:33.487881,0,0,-13,0,0,-3,71,74,175,160,30,121.97,82,14.00,-2.00,-824.00
2024-06-07 00:12:33.497409,0,0,-13,0,0,-2,71,74,178,160,30,121.96,82,19.00,-20.00,-952.00
2024-06-07 00:12:33.603510,0,0,-13,0,0,-2,71,74,180,160,30,121.97,82,63.00,-51.00,-916.00
2024-06-07 00:12:33.701503,0,0,-13,0,0,-1,71,74,182,160,30,122.01,82,0.00,43.00,-868.00
2024-06-07 00:12:33.803390,0,0,-13,0,0,-1,71,74,186,170,30,122.00,82,-9.00,-7.00,-881.00
2024-06-07 00:12:34.000018,0,0,-13,0,0,-1,71,74,185,170,30,122.07,83,-25.00,-14.00,-1011.00
2024-06-07 00:12:34.007112,0,0,-13,0,0,0,71,74,186,170,30,122.09,83,35.00,-12.00,-995.00
2024-06-07 00:12:34.205560,0,0,-13,0,0,0,72,74,185,170,30,121.98,83,48.00,-29.00,-889.00
2024-06-07 00:12:34.217854,0,0,-13,0,0,0,72,74,184,170,30,121.94,83,-16.00,0.00,-970.00
2024-06-07 00:12:34.313376,0,0,-13,0,0,0,72,74,184,170,30,122.01,83,11.00,-2.00,-929.00
2024-06-07 00:12:34.511900,0,0,-13,0,0,0,72,74,184,170,30,122.00,83,35.00,-12.00,-907.00
2024-06-07 00:12:34.517226,0,1,-13,0,0,0,72,74,184,170,30,122.02,83,7.00,-22.00,-975.00
2024-06-07 00:12:34.619421,0,0,-13,0,0,0,72,74,183,170,30,121.93,83,10.00,5.00,-1091.00
2024-06-07 00:12:34.820398,0,0,-13,0,0,0,72,74,183,170,30,121.94,83,41.00,0.00,-995.00
2024-06-07 00:12:34.824601,0,0,-13,0,0,0,72,74,182,170,30,121.94,83,9.00,-27.00,-1081.00
2024-06-07 00:12:35.024118,0,0,-13,0,0,0,72,74,181,170,30,122.00,84,9.00,-17.00,-1044.00
2024-06-07 00:12:35.027970,0,0,-13,0,0,0,72,74,182,170,30,121.96,84,4.00,-3.00,-975.00
2024-06-07 00:12:35.228648,0,0,-13,0,0,0,72,75,183,170,30,121.97,84,76.00,-18.00,-1008.00
2024-06-07 00:12:35.232625,0,0,-13,0,0,0,72,75,182,170,30,121.97,84,4.00,-10.00,-1012.00
2024-06-07 00:12:35.335359,0,0,-13,0,0,0,72,75,181,170,30,121.98,84,-48.00,4.00,-1054.00
2024-06-07 00:12:35.436044,0,0,-13,0,0,0,72,75,183,170,30,122.01,84,11.00,-1.00,-1023.00
2024-06-07 00:12:35.537990,0,0,-13,0,0,0,72,75,183,170,30,121.94,84,2.00,8.00,-1001.00
2024-06-07 00:12:35.639895,0,0,-13,0,0,0,72,75,183,170,30,121.99,84,-25.00,-1.00,-1012.00
2024-06-07 00:12:35.742909,0,0,-13,0,0,0,72,75,183,170,30,121.93,84,-23.00,31.00,-1034.00
2024-06-07 00:12:35.843943,0,0,-13,0,0,0,72,75,182,170,30,121.92,84,-2.00,-25.00,-1012.00
2024-06-07 00:12:36.047838,0,0,-13,0,0,1,72,75,180,170,30,121.91,85,12.00,-36.00,-939.00
2024-06-07 00:12:36.048393,0,0,-13,0,0,1,72,75,178,170,30,121.89,85,5.00,34.00,-1043.00
2024-06-07 00:12:36.149949,0,0,-13,0,0,1,71,74,176,160,30,121.89,85,20.00,-29.00,-973.00
2024-06-07 00:12:36.252072,0,0,-13,0,0,2,71,74,174,160,30,121.87,85,17.00,-14.00,-1003.00
2024-06-07 00:12:36.354618,0,0,-13,0,0,2,71,74,170,160,30,121.90,85,-11.00,20.00,-835.00
2024-06-07 00:12:36.457527,0,0,-13,0,0,2,71,74,168,160,30,121.80,85,18.00,-28.00,-1132.00
2024-06-07 00:12:36.557864,0,0,-13,0,0,2,71,74,165,150,30,121.85,85,-6.00,8.00,-976.00
2024-06-07 00:12:36.608914,0,0,-13,0,0,2,71,74,162,150,30,121.82,85,24.00,-2.00,-1095.00
2024-06-07 00:12:36.765075,0,0,-13,0,0,2,71,74,159,150,30,121.82,85,-11.00,14.00,-960.00
2024-06-07 00:12:36.813148,0,0,-13,0,0,2,71,74,157,140,30,121.80,85,-42.00,14.00,-957.00
2024-06-07 00:12:36.969221,0,0,-13,0,0,2,71,74,154,140,30,121.78,86,24.00,-19.00,-1057.00
2024-06-07 00:12:37.016786,0,0,-13,0,0,2,71,74,152,140,30,121.74,86,-44.00,12.00,-975.00
2024-06-07 00:12:37.330389,0,0,-13,0,0,2,71,73,150,140,30,121.70,86,8.00,-12.00,-1069.00
2024-06-07 00:12:37.330890,0,0,-13,0,0,2,71,73,148,140,30,121.64,86,-31.00,24.00,-946.00
2024-06-07 00:12:37.332986,0,0,-13,0,0,1,71,73,147,130,30,121.70,86,3.00,-16.00,-1069.00
2024-06-07 00:12:37.462011,0,0,-13,0,0,1,71,73,146,130,30,121.64,86,19.00,9.00,-915.00
2024-06-07 00:12:37.538359,0,0,-13,0,0,1,71,73,144,130,30,121.68,86,0.00,-3.00,-1030.00
2024-06-07 00:12:37.631921,0,0,-13,0,0,1,71,73,143,130,30,121.58,86,11.00,8.00,-945.00
2024-06-07 00:12:37.797611,0,0,-13,0,0,1,71,73,142,130,30,121.61,86,48.00,-16.00,-1113.00
2024-06-07 00:12:37.881918,0,0,-13,0,0,0,71,73,141,130,30,121.64,86,19.00,-9.00,-1017.00
2024-06-07 00:12:37.948366,0,0,-13,0,0,0,71,73,141,130,30,121.63,87,-14.00,5.00,-922.00
2024-06-07 00:12:38.036663,0,0,-13,0,0,0,71,73,141,130,30,121.65,87,-14.00,21.00,-891.00
2024-06-07 00:12:38.166932,0,0,-13,0,0,0,71,74,139,130,30,121.60,87,-40.00,30.00,-1112.00
2024-06-07 00:12:38.240691,0,0,-13,0,0,0,71,74,139,120,30,121.63,87,21.00,-23.00,-1024.00
2024-06-07 00:12:38.415001,0,0,-13,0,0,0,71,74,139,120,30,121.61,87,2.00,20.00,-1108.00
2024-06-07 00:12:38.557114,0,0,-13,0,0,0,71,74,139,120,30,121.58,87,4.00,-22.00,-1049.00
2024-06-07 00:12:38.557326,0,0,-13,0,0,0,71,74,140,120,30,121.62,87,20.00,-11.00,-1006.00
2024-06-07 00:12:38.721804,0,0,-13,0,0,0,71,74,139,120,30,121.61,87,-31.00,19.00,-962.00
2024-06-07 00:12:38.864374,0,0,-13,0,0,0,71,74,140,120,30,121.58,87,24.00,-15.00,-910.00
2024-06-07 00:12:38.864756,0,0,-13,0,0,0,71,74,141,120,30,121.60,87,38.00,-6.00,-960.00
2024-06-07 00:12:39.028883,0,0,-13,0,0,0,71,74,141,120,30,121.64,88,10.00,5.00,-1006.00
2024-06-07 00:12:39.182372,0,0,-13,0,0,0,71,74,141,120,30,121.61,88,9.00,-1.00,-1066.00
2024-06-07 00:12:39.182504,0,0,-13,0,0,0,72,73,142,130,30,121.61,88,49.00,-29.00,-1018.00
2024-06-07 00:12:39.260748,0,0,-13,0,0,0,72,73,142,130,30,121.63,88,48.00,-2.00,-1041.00
2024-06-07 00:12:39.426948,0,0,-13,0,0,0,72,73,142,130,30,121.59,88,0.00,25.00,-929.00
2024-06-07 00:12:39.464952,0,0,-13,0,0,0,72,73,142,130,30,121.61,88,-15.00,29.00,-996.00
2024-06-07 00:12:39.566817,0,0,-13,0,0,0,72,73,142,130,30,121.63,88,-30.00,34.00,-1016.00
2024-06-07 00:12:39.734488,0,0,-13,0,0,0,72,73,143,130,30,121.62,88,17.00,-14.00,-919.00
2024-06-07 00:12:39.771714,0,0,-13,0,0,0,72,73,142,130,30,121.68,88,6.00,-18.00,-1105.00
2024-06-07 00:12:39.873759,0,0,-13,0,0,0,72,73,142,130,30,121.70,89,0.00,-7.00,-1021.00
2024-06-07 00:12:40.041392,0,0,-13,0,0,0,72,73,142,130,30,121.62,89,17.00,-7.00,-1066.00
2024-06-07 00:12:40.078641,0,0,-13,0,0,0,72,73,142,130,30,121.63,89,36.00,4.00,-1072.00
2024-06-07 00:12:40.178593,0,0,-13,0,0,0,71,73,142,130,30,121.62,89,-2.00,21.00,-1004.00
2024-06-07 00:12:40.295794,0,0,-13,0,0,0,71,73,142,130,30,121.56,89,-46.00,21.00,-993.00
2024-06-07 00:12:40.382818,0,0,-13,0,0,0,71,73,141,130,30,121.59,89,-12.00,9.00,-891.00
2024-06-07 00:12:40.433996,-2,0,-13,0,0,0,71,73,141,130,30,121.64,89,-2.00,8.00,-886.00
2024-06-07 00:12:40.553504,-7,0,-13,0,0,0,71,73,142,130,30,121.59,89,-5.00,0.00,-1015.00
2024-06-07 00:12:40.757963,-8,0,-13,2,0,0,71,73,144,120,30,121.65,89,13.00,-40.00,-1041.00
2024-06-07 00:12:40.758146,-8,0,-13,3,0,0,71,73,144,120,30,121.58,89,1.00,-10.00,-1036.00
2024-06-07 00:12:40.842738,-8,0,-13,4,0,0,71,73,144,120,30,121.54,90,-29.00,12.00,-1095.00
2024-06-07 00:12:40.962772,-7,0,-13,5,-1,0,71,73,143,120,30,121.62,90,-43.00,-5.00,-960.00
2024-06-07 00:12:41.046876,-6,0,-13,6,-1,0,71,73,142,120,30,121.64,90,-56.00,-3.00,-971.00
2024-06-07 00:12:41.167529,-5,0,-13,7,-1,0,72,73,142,120,30,121.55,90,16.00,-1.00,-1023.00
2024-06-07 00:12:41.250473,-3,0,-13,8,-2,0,72,73,141,120,30,121.45,90,-34.00,-24.00,-959.00
2024-06-07 00:12:41.372345,0,0,-13,8,-2,0,72,73,141,120,30,121.55,90,-22.00,11.00,-958.00
2024-06-07 00:12:41.454455,2,0,-13,7,-1,0,72,73,141,130,30,121.50,90,-62.00,14.00,-955.00
2024-06-07 00:12:41.577110,4,0,-13,6,-1,0,72,73,141,130,30,121.50,90,-18.00,-5.00,-958.00
2024-06-07 00:12:41.659317,5,0,-13,5,-1,0,72,73,141,130,30,121.64,90,-38.00,-18.00,-1021.00
2024-06-07 00:12:41.782209,3,-1,-13,4,-1,0,72,73,139,120,30,121.62,90,-46.00,4.00,-1040.00
2024-06-07 00:12:41.863442,1,0,-13,3,-1,0,72,73,139,120,30,121.56,91,-35.00,11.00,-996.00
2024-06-07 00:12:41.986705,0,1,-13,2,-1,0,72,73,137,120,30,121.63,91,1.00,2.00,-1068.00
2024-06-07 00:12:42.067389,0,2,-13,2,-1,0,72,73,137,120,30,121.55,91,11.00,-35.00,-1018.00
2024-06-07 00:12:42.169363,0,2,-13,2,0,0,70,74,137,120,30,121.57,91,-11.00,-21.00,-1006.00
2024-06-07 00:12:42.294317,0,1,-13,2,0,0,70,74,136,120,30,121.61,91,-31.00,-10.00,-1023.00
2024-06-07 00:12:42.377510,0,0,-13,2,0,0,70,74,137,120,30,121.50,91,-4.00,-6.00,-938.00
2024-06-07 00:12:42.476116,0,0,-13,2,0,0,70,74,136,120,30,121.53,91,-11.00,13.00,-936.00
2024-06-07 00:12:42.601092,0,0,-13,2,0,0,70,74,137,120,30,121.52,91,-26.00,-8.00,-917.00
2024-06-07 00:12:42.679531,1,0,-13,2,0,0,70,74,137,120,30,121.46,91,-29.00,7.00,-1055.00
2024-06-07 00:12:42.805876,4,-1,-13,1,0,0,70,74,138,120,30,121.56,91,32.00,-29.00,-1039.00
2024-06-07 00:12:42.883461,2,0,-13,1,0,0,70,74,137,120,30,121.61,92,-8.00,-7.00,-989.00
2024-06-07 00:12:43.010740,1,0,-13,0,0,0,70,74,136,120,30,121.64,92,-3.00,19.00,-1010.00
2024-06-07 00:12:43.088474,0,0,-13,0,0,0,70,74,136,120,30,121.56,92,21.00,-5.00,-862.00
2024-06-07 00:12:43.215621,0,0,-13,0,0,0,72,73,137,120,30,121.55,92,39.00,-36.00,-1076.00
2024-06-07 00:12:43.292339,0,0,-13,0,0,0,72,73,137,120,30,121.59,92,-37.00,2.00,-942.00
2024-06-07 00:12:43.420773,0,0,-13,0,0,0,72,73,136,120,30,121.58,92,-1.00,18.00,-940.00
2024-06-07 00:12:43.496404,0,0,-13,0,0,0,72,73,136,120,30,121.60,92,-1.00,14.00,-1008.00
2024-06-07 00:12:43.625194,0,0,-13,0,0,0,72,73,137,120,30,121.58,92,43.00,-24.00,-921.00
2024-06-07 00:12:43.700387,0,0,-13,0,0,0,72,73,137,120,30,121.65,92,18.00,-29.00,-999.00
2024-06-07 00:12:43.830073,0,0,-13,0,0,0,72,73,137,120,30,121.65,92,23.00,-15.00,-1081.00
2024-06-07 00:12:43.905010,0,0,-13,0,0,0,72,73,138,120,30,121.61,93,-44.00,-1.00,-975.00
2024-06-07 00:12:43.955378,0,0,-13,0,0,0,72,73,139,120,30,121.60,93,2.00,0.00,-989.00
2024-06-07 00:12:44.137112,0,0,-13,0,0,0,72,73,140,120,30,121.68,93,47.00,-35.00,-941.00
2024-06-07 00:12:44.159270,0,0,-13,0,0,0,71,73,141,120,30,121.63,93,27.00,-30.00,-1012.00
2024-06-07 00:12:44.342235,0,0,-13,0,0,0,71,73,141,130,30,121.65,93,10.00,-14.00,-976.00
2024-06-07 00:12:44.363196,0,0,-13,0,0,0,71,73,142,130,30,121.64,93,4.00,18.00,-1020.00
2024-06-07 00:12:44.548061,0,0,-13,0,0,0,71,73,142,130,30,121.68,93,-3.00,-16.00,-1040.00
2024-06-07 00:12:44.567775,0,0,-13,0,0,0,71,73,142,130,30,121.63,93,5.00,2.00,-992.00
2024-06-07 00:12:44.753595,0,0,-13,0,0,0,71,73,142,130,30,121.66,93,-2.00,12.00,-966.00
2024-06-07 00:12:44.771161,0,0,-13,0,0,0,71,73,142,130,30,121.64,93,25.00,5.00,-921.00
2024-06-07 00:12:44.886928,0,0,-13,0,0,0,71,73,140,130,30,121.63,94,45.00,-33.00,-987.00
2024-06-07 00:12:44.975148,0,0,-13,0,0,0,71,73,139,130,30,121.64,94,53.00,-24.00,-1076.00
2024-06-07 00:12:45.161297,2,0,-13,0,0,0,71,73,139,130,30,121.68,94,-21.00,23.00,-1019.00
2024-06-07 00:12:45.179103,8,0,-13,0,0,0,71,74,141,120,30,121.67,94,-19.00,-15.00,-966.00
2024-06-07 00:12:45.365759,8,0,-13,-2,0,0,71,74,141,120,30,121.58,94,43.00,-31.00,-991.00
2024-06-07 00:12:45.383088,8,0,-13,-3,0,0,71,74,140,120,30,121.73,94,-26.00,31.00,-1059.00
2024-06-07 00:12:45.571014,8,0,-13,-4,0,0,71,74,137,120,30,121.65,94,77.00,-18.00,-999.00
2024-06-07 00:12:45.589466,7,0,-13,-5,1,0,71,74,137,120,30,121.63,94,45.00,-15.00,-1045.00
2024-06-07 00:12:45.689295,6,0,-13,-6,1,0,71,74,138,120,30,121.64,94,26.00,1.00,-1006.00
2024-06-07 00:12:45.877759,5,1,-13,-7,1,0,71,74,136,120,30,121.59,94,22.00,30.00,-1062.00
2024-06-07 00:12:45.893231,4,0,-13,-7,2,0,71,74,136,120,30,121.58,95,61.00,-2.00,-912.00
2024-06-07 00:12:46.082481,1,0,-13,-7,2,0,71,74,135,120,30,121.67,95,29.00,10.00,-988.00
2024-06-07 00:12:46.096940,-1,0,-13,-7,2,0,71,74,134,120,30,121.67,95,83.00,14.00,-974.00
2024-06-07 00:12:46.287526,-3,0,-13,-6,1,0,71,74,135,120,30,121.60,95,54.00,-2.00,-1006.00
2024-06-07 00:12:46.300978,-4,0,-13,-5,1,0,71,74,135,120,30,121.58,95,42.00,-6.00,-935.00
2024-06-07 00:12:46.497847,-3,0,-13,-4,1,0,71,74,135,120,30,121.62,95,42.00,-6.00,-1073.00
2024-06-07 00:12:46.505229,-2,0,-13,-3,0,0,71,74,135,120,30,121.58,95,49.00,-18.00,-999.00
2024-06-07 00:12:46.697003,-1,0,-13,-3,0,0,71,74,134,120,30,121.61,95,26.00,-17.00,-1003.00
2024-06-07 00:12:46.709974,0,1,-13,-3,0,0,71,74,135,120,30,121.63,95,-9.00,11.00,-1022.00
2024-06-07 00:12:46.901646,0,1,-13,-2,1,0,71,74,136,120,30,121.61,95,-8.00,22.00,-990.00
2024-06-07 00:12:46.914165,0,1,-13,-2,1,0,71,74,136,120,30,121.57,96,6.00,-17.00,-964.00
2024-06-07 00:12:47.106365,-1,-2,-13,-2,1,0,71,74,135,120,30,121.57,96,-1.00,-6.00,-961.00
2024-06-07 00:12:47.118218,-3,-1,-13,-1,0,0,71,74,135,120,30,121.55,96,35.00,-43.00,-1003.00
2024-06-07 00:12:47.311231,-4,0,-13,-1,0,0,71,73,136,120,30,121.64,96,23.00,-10.00,-1044.00
2024-06-07 00:12:47.321930,-1,0,-13,0,0,0,71,73,136,120,30,121.63,96,-10.00,13.00,-985.00
2024-06-07 00:12:47.516842,0,0,-13,0,0,0,71,73,136,120,30,121.69,96,56.00,-30.00,-1022.00
2024-06-07 00:12:47.526000,0,0,-13,0,0,0,71,73,137,120,30,121.65,96,-38.00,13.00,-1039.00
2024-06-07 00:12:47.628020,0,0,-13,0,0,0,71,73,137,120,30,121.59,96,-2.00,-7.00,-1083.00
2024-06-07 00:12:47.678940,0,0,-13,0,0,0,71,73,138,120,30,121.68,96,-18.00,12.00,-961.00
2024-06-07 00:12:47.823409,0,0,-13,0,0,0,71,73,139,120,30,121.74,96,31.00,2.00,-907.00
2024-06-07 00:12:47.883047,0,-1,-13,0,0,0,71,73,140,120,30,121.63,97,40.00,-29.00,-985.00
2024-06-07 00:12:48.028273,0,0,-13,0,0,0,71,73,140,120,30,121.65,97,-5.00,-30.00,-942.00
2024-06-07 00:12:48.087027,0,0,-13,0,0,0,71,73,139,120,30,121.67,97,-30.00,36.00,-986.00
2024-06-07 00:12:48.240074,0,0,-13,0,0,0,72,73,139,120,30,121.73,97,10.00,-19.00,-1111.00
2024-06-07 00:12:48.438081,0,0,-13,0,0,0,72,73,140,120,30,121.76,97,-8.00,-18.00,-963.00
2024-06-07 00:12:48.439951,0,0,-13,0,0,0,72,73,140,120,30,121.68,97,26.00,-18.00,-968.00
2024-06-07 00:12:48.495432,0,0,-13,0,0,0,72,73,139,120,30,121.65,97,2.00,-14.00,-1148.00
2024-06-07 00:12:48.644943,0,0,-13,0,0,0,72,73,139,120,30,121.66,97,11.00,-5.00,-994.00
2024-06-07 00:12:48.699496,0,0,-13,0,0,0,72,73,139,120,30,121.65,97,-40.00,15.00,-1054.00
2024-06-07 00:12:48.848214,0,0,-13,0,0,0,72,73,138,120,30,121.57,97,19.00,-20.00,-980.00
2024-06-07 00:12:48.902904,0,0,-13,0,0,0,72,73,139,120,30,121.62,98,-12.00,-13.00,-976.00
2024-06-07 00:12:49.052109,0,0,-13,0,0,0,72,73,138,120,30,121.67,98,20.00,-19.00,-1084.00
2024-06-07 00:12:49.108731,0,0,-13,0,0,0,72,73,137,120,30,121.61,98,-8.00,-6.00,-863.00
2024-06-07 00:12:49.209449,0,0,-13,0,0,0,71,73,137,120,30,121.70,98,5.00,-3.00,-991.00
2024-06-07 00:12:49.311420,0,0,-13,0,0,0,71,73,137,120,30,121.65,98,24.00,0.00,-1025.00
2024-06-07 00:12:49.414927,0,0,-13,0,0,0,71,73,137,120,30,121.67,98,-1.00,-10.00,-1100.00
2024-06-07 00:12:49.514795,0,-1,-13,0,0,0,71,73,137,120,30,121.71,98,-13.00,16.00,-1035.00
2024-06-07 00:12:49.668537,0,-7,-13,0,0,0,71,73,139,120,30,121.67,98,16.00,0.00,-995.00
2024-06-07 00:12:49.723343,0,-7,-13,0,-1,0,71,73,137,120,30,121.68,98,11.00,16.00,-930.00
2024-06-07 00:12:49.823752,0,-5,-13,0,-2,0,71,73,137,120,30,121.74,98,21.00,-2.00,-1097.00
2024-06-07 00:12:49.922658,0,-3,-13,-1,-3,0,71,73,137,120,30,121.77,99,11.00,22.00,-984.00
2024-06-07 00:12:50.075947,0,0,-13,-1,-4,0,71,73,137,120,30,121.65,99,21.00,23.00,-1031.00
2024-06-07 00:12:50.126713,0,1,-13,0,-3,0,71,73,137,120,30,121.67,99,8.00,-9.00,-984.00
2024-06-07 00:12:50.280689,0,1,-13,0,-3,0,71,74,137,120,30,121.75,99,-8.00,16.00,-972.00
2024-06-07 00:12:50.330570,0,0,-13,0,-2,0,71,74,137,120,30,121.70,99,49.00,-6.00,-1047.00
2024-06-07 00:12:50.486373,0,0,-13,0,-2,0,71,74,137,120,30,121.73,99,2.00,-17.00,-1072.00
2024-06-07 00:12:50.537619,0,0,-13,0,-2,0,71,74,136,120,30,121.73,99,-19.00,28.00,-980.00
2024-06-07 00:12:50.636599,0,0,-13,0,-2,0,71,74,136,120,30,121.67,99,-5.00,25.00,-884.00
2024-06-07 00:12:50.738607,0,0,-13,0,-2,0,71,74,136,120,30,121.68,99,32.00,4.00,-1030.00
2024-06-07 00:12:50.895175,0,0,-13,0,-2,0,71,74,137,120,30,121.70,99,21.00,-13.00,-1038.00
2024-06-07 00:12:50.942713,0,0,-13,0,-2,0,71,74,136,120,30,121.67,100,43.00,-5.00,-919.00
2024-06-07 00:12:51.100167,0,0,-13,0,-2,0,71,74,136,120,30,121.68,100,-6.00,10.00,-1019.00
2024-06-07 00:12:51.146701,0,0,-13,0,-2,0,71,74,136,120,30,121.72,100,24.00,7.00,-1008.00
2024-06-07 00:12:51.305228,0,1,-13,0,-2,0,71,73,137,120,30,121.72,100,22.00,12.00,-966.00
2024-06-07 00:12:51.352249,0,4,-13,0,-1,0,71,73,137,120,30,121.70,100,-2.00,14.00,-961.00
2024-06-07 00:12:51.452620,0,2,-13,0,0,0,71,73,137,120,30,121.74,100,36.00,-43.00,-1027.00
2024-06-07 00:12:51.612059,0,1,-13,0,0,0,71,73,137,120,30,121.75,100,-17.00,-3.00,-974.00
2024-06-07 00:12:51.656661,0,0,-13,0,0,0,71,73,137,120,30,121.71,100,32.00,5.00,-942.00
2024-06-07 00:12:51.816883,0,0,-13,0,0,0,71,73,137,120,30,121.73,100,34.00,-24.00,-1001.00
2024-06-07 00:12:51.817094,0,0,-13,0,0,0,71,73,138,120,30,121.77,100,-19.00,6.00,-1080.00
2024-06-07 00:12:51.912969,0,0,-13,0,0,0,71,73,138,120,30,121.79,101,-8.00,0.00,-965.00
2024-06-07 00:12:52.021997,0,0,-13,0,0,0,71,73,139,120,30,121.81,101,-24.00,-15.00,-1000.00
2024-06-07 00:12:52.117133,0,0,-13,0,0,0,71,73,139,120,30,121.77,101,18.00,10.00,-970.00
2024-06-07 00:12:52.217610,0,0,-13,0,0,0,71,74,139,120,30,121.74,101,0.00,11.00,-1063.00
2024-06-07 00:12:52.354995,0,0,-13,0,0,0,71,74,139,120,30,121.77,101,38.00,-26.00,-977.00
2024-06-07 00:12:52.423956,0,0,-13,0,0,0,71,74,139,130,30,121.76,101,24.00,-30.00,-959.00
2024-06-07 00:12:52.534122,0,0,-13,0,0,0,71,74,140,120,30,121.73,101,29.00,32.00,-933.00
2024-06-07 00:12:52.641508,0,0,-13,0,0,0,71,74,139,120,30,121.73,101,-29.00,12.00,-973.00
2024-06-07 00:12:52.727753,0,0,-13,0,0,0,71,74,140,120,30,121.77,101,-5.00,25.00,-953.00
2024-06-07 00:12:52.852743,0,0,-13,0,0,0,71,74,140,120,30,121.81,101,11.00,-33.00,-1036.00
2024-06-07 00:12:52.931474,0,0,-13,0,0,0,71,74,140,120,30,121.79,102,19.00,-21.00,-976.00
2024-06-07 00:12:53.046022,0,0,-13,0,0,0,71,74,140,130,30,121.78,102,8.00,1.00,-1043.00
2024-06-07 00:12:53.161563,0,0,-13,0,0,0,71,74,140,130,30,121.81,102,-4.00,-15.00,-918.00
2024-06-07 00:12:53.302209,0,0,-13,0,0,0,72,74,140,130,30,121.73,102,-45.00,-3.00,-996.00
2024-06-07 00:12:53.339454,0,0,-13,0,0,0,72,74,140,130,30,121.78,102,-20.00,-4.00,-994.00
2024-06-07 00:12:53.468157,0,0,-13,0,0,0,72,74,140,120,30,121.81,102,-23.00,11.00,-982.00
2024-06-07 00:12:53.610697,0,0,-13,0,0,0,72,74,139,120,30,121.77,102,-9.00,8.00,-964.00
2024-06-07 00:12:53.645408,0,5,-13,0,0,0,72,74,139,120,30,121.76,102,21.00,-8.00,-1076.00
2024-06-07 00:12:53.773014,0,8,-13,0,1,0,72,74,143,120,30,121.75,102,2.00,12.00,-935.00
2024-06-07 00:12:53.916391,0,6,-13,0,2,0,72,74,143,120,30,121.79,103,-29.00,-11.00,-1007.00
2024-06-07 00:12:53.951300,0,3,-13,0,3,0,72,74,141,120,30,121.77,103,8.00,-33.00,-997.00
2024-06-07 00:12:54.080493,0,1,-13,1,3,0,72,74,141,120,30,121.83,103,42.00,-51.00,-1022.00
2024-06-07 00:12:54.223644,0,0,-13,0,3,0,72,74,140,120,30,121.86,103,12.00,-52.00,-1060.00
2024-06-07 00:12:54.257254,0,-1,-13,0,3,0,72,73,142,120,30,121.77,103,18.00,23.00,-1011.00
2024-06-07 00:12:54.387380,0,-1,-13,0,3,0,72,73,142,120,30,121.85,103,-8.00,-16.00,-1032.00
2024-06-07 00:12:54.530832,0,0,-13,0,3,0,72,73,144,130,30,121.81,103,10.00,-42.00,-1015.00
2024-06-07 00:12:54.563331,0,0,-13,0,2,0,72,73,144,130,30,121.81,103,-1.00,-28.00,-981.00
2024-06-07 00:12:54.716295,0,0,-13,0,2,0,72,73,145,130,30,121.80,103,5.00,-25.00,-828.00
2024-06-07 00:12:54.860138,0,0,-13,0,2,0,72,73,145,130,30,121.89,103,-26.00,-22.00,-953.00
2024-06-07 00:12:54.869243,1,0,-13,0,2,0,72,73,145,130,30,121.84,104,-33.00,4.00,-991.00
2024-06-07 00:12:54.991202,2,0,-13,0,2,0,72,73,146,130,30,121.84,104,-15.00,-33.00,-1024.00
2024-06-07 00:12:55.073362,1,0,-13,0,2,0,72,73,145,130,30,121.85,104,-35.00,-11.00,-955.00
2024-06-07 00:12:55.196785,0,0,-13,0,2,0,72,73,146,130,30,121.85,104,-35.00,-9.00,-955.00
2024-06-07 00:12:55.277257,0,-4,-13,0,2,0,71,74,146,130,30,121.83,104,2.00,20.00,-1072.00
2024-06-07 00:12:55.400938,-1,-4,-13,0,1,0,71,74,147,130,30,121.84,104,38.00,-38.00,-1005.00
2024-06-07 00:12:55.481462,0,-2,-13,0,0,0,71,74,147,130,30,121.82,104,-7.00,7.00,-1006.00
2024-06-07 00:12:55.606710,0,-1,-13,0,0,0,71,74,147,130,30,121.91,104,-9.00,17.00,-954.00
2024-06-07 00:12:55.634705,0,0,-13,0,0,0,71,74,148,130,30,121.77,104,-9.00,-27.00,-1083.00
2024-06-07 00:12:55.810257,0,0,-13,0,0,0,71,74,147,130,30,121.90,104,-7.00,-1.00,-929.00
2024-06-07 00:12:55.838610,0,0,-13,0,0,0,71,74,146,130,30,121.80,105,-19.00,36.00,-1005.00
2024-06-07 00:12:56.015018,0,0,-13,0,0,0,71,74,146,130,30,121.78,105,18.00,6.00,-949.00
2024-06-07 00:12:56.042608,0,0,-13,0,0,0,71,74,146,130,30,121.70,105,-7.00,-31.00,-985.00
2024-06-07 00:12:56.223654,0,0,-13,0,0,0,71,74,144,130,30,121.82,105,-3.00,18.00,-984.00
2024-06-07 00:12:56.246139,0,0,-13,0,0,0,71,73,144,130,30,121.83,105,19.00,-38.00,-955.00
2024-06-07 00:12:56.424695,0,0,-13,0,0,0,71,73,142,130,30,121.85,105,-3.00,0.00,-1102.00
2024-06-07 00:12:56.450144,0,0,-13,0,0,0,71,73,140,130,30,121.82,105,-14.00,-9.00,-1028.00
2024-06-07 00:12:56.631836,0,1,-13,0,0,0,71,73,138,120,30,121.78,105,5.00,0.00,-1064.00
2024-06-07 00:12:56.656094,0,0,-13,0,0,0,71,73,138,120,30,121.75,105,6.00,0.00,-957.00
2024-06-07 00:12:56.756299,0,0,-13,0,0,0,71,73,137,120,30,121.79,105,39.00,-16.00,-1088.00
2024-06-07 00:12:56.937077,0,0,-13,0,0,0,71,73,136,120,30,121.79,106,-39.00,6.00,-992.00
2024-06-07 00:12:56.960134,0,0,-13,0,0,0,71,73,135,120,30,121.75,106,10.00,-31.00,-1092.00
2024-06-07 00:12:57.141730,0,0,-13,0,0,0,71,73,134,120,30,121.73,106,17.00,-16.00,-970.00
2024-06-07 00:12:57.164094,0,1,-13,0,0,0,71,73,134,120,30,121.70,106,16.00,2.00,-921.00
2024-06-07 00:12:57.346094,0,1,-13,0,0,0,72,74,134,120,30,121.73,106,33.00,5.00,-912.00
2024-06-07 00:12:57.368127,0,1,-13,0,0,0,72,74,134,120,30,121.64,106,27.00,10.00,-994.00
2024-06-07 00:12:57.469980,0,0,-13,0,0,0,72,74,134,120,30,121.67,106,-27.00,-12.00,-1037.00
2024-06-07 00:12:57.653441,0,0,-12,0,0,0,72,74,133,120,30,121.71,106,42.00,-36.00,-974.00
2024-06-07 00:12:57.674134,0,0,-6,0,0,0,72,74,133,120,30,121.74,106,6.00,-16.00,-1056.00
2024-06-07 00:12:57.860081,0,0,0,0,0,0,72,74,134,120,30,121.76,106,18.00,16.00,-918.00
2024-06-07 00:12:57.878070,0,0,5,0,0,0,72,74,133,120,30,121.65,107,-10.00,26.00,-1013.00
2024-06-07 00:12:58.064561,0,0,11,0,0,0,72,74,132,120,30,121.72,107,-28.00,29.00,-1005.00
2024-06-07 00:12:58.082242,-1,0,17,0,0,0,72,74,132,120,30,121.72,107,17.00,-12.00,-1059.00
2024-06-07 00:12:58.282925,0,0,23,0,0,0,72,74,132,120,30,121.78,107,10.00,1.00,-998.00
2024-06-07 00:12:58.288619,0,0,29,0,0,0,72,74,131,120,30,121.79,107,44.00,0.00,-1095.00
2024-06-07 00:12:58.395061,0,0,35,0,0,0,72,74,131,120,30,121.76,107,-14.00,0.00,-965.00
2024-06-07 00:12:58.489885,0,0,41,0,0,0,72,74,131,120,30,121.81,107,-3.00,25.00,-980.00
2024-06-07 00:12:58.678878,0,0,47,0,0,0,72,74,132,120,30,121.82,107,31.00,-19.00,-989.00
2024-06-07 00:12:58.699028,0,0,53,0,0,0,72,74,131,120,30,121.78,107,-23.00,26.00,-965.00
2024-06-07 00:12:58.795837,0,0,59,0,0,0,72,74,131,120,30,121.75,107,38.00,-15.00,-1057.00
2024-06-07 00:12:58.984328,0,0,65,0,0,0,72,74,132,120,30,121.82,108,-9.00,-4.00,-1005.00
2024-06-07 00:12:58.999765,0,0,71,0,0,0,72,74,132,120,30,121.82,108,-29.00,0.00,-1058.00
2024-06-07 00:12:59.189121,0,0,77,0,0,0,72,74,133,120,30,121.79,108,60.00,-18.00,-948.00
2024-06-07 00:12:59.203798,0,0,83,0,0,0,72,74,133,120,30,121.77,108,56.00,-38.00,-987.00
2024-06-07 00:12:59.393880,0,0,89,0,0,0,72,74,134,120,30,121.81,108,22.00,-18.00,-1020.00
2024-06-07 00:12:59.407772,0,1,95,0,0,0,72,74,133,120,30,121.81,108,41.00,-36.00,-863.00
2024-06-07 00:12:59.599325,0,1,101,0,0,0,72,74,133,120,30,121.82,108,15.00,-28.00,-991.00
2024-06-07 00:12:59.613167,0,1,107,0,0,0,72,74,133,120,30,121.74,108,-36.00,14.00,-1000.00
2024-06-07 00:12:59.713869,0,0,113,0,0,0,72,74,131,120,30,121.76,108,-28.00,10.00,-970.00
2024-06-07 00:12:59.908555,-1,0,119,0,0,0,72,74,131,120,30,121.73,108,9.00,-7.00,-1061.00
2024-06-07 00:12:59.908803,0,-1,125,0,0,0,72,74,130,120,30,121.73,109,-45.00,1.00,-956.00
2024-06-07 00:12:59.969606,0,0,131,0,0,0,72,74,129,120,30,121.78,109,33.00,-28.00,-992.00
2024-06-07 00:13:00.111484,0,0,137,0,0,0,72,74,130,120,30,121.83,109,-4.00,-33.00,-1058.00
2024-06-07 00:13:00.172728,0,1,143,0,0,0,72,74,130,120,30,121.79,109,10.00,21.00,-960.00
2024-06-07 00:13:00.316265,0,1,150,0,0,0,71,74,130,120,30,121.80,109,27.00,2.00,-1054.00
2024-06-07 00:13:00.376847,0,1,156,0,0,0,71,74,131,120,30,121.73,109,41.00,-14.00,-1006.00
2024-06-07 00:13:00.521928,0,1,162,0,0,0,71,74,131,120,30,121.75,109,49.00,-39.00,-962.00
2024-06-07 00:13:00.580901,0,1,168,0,0,0,71,74,132,120,30,121.84,109,5.00,1.00,-1085.00
2024-06-07 00:13:00.682754,0,0,174,0,0,0,71,74,132,120,30,121.89,109,18.00,-30.00,-1074.00
2024-06-07 00:13:00.827430,0,0,-179,0,0,0,71,74,133,120,30,121.85,109,32.00,-10.00,-971.00
2024-06-07 00:13:00.886667,0,0,-173,0,0,0,71,74,133,120,30,121.83,110,19.00,-21.00,-1002.00
2024-06-07 00:13:01.032380,0,0,-166,0,0,0,71,74,134,120,30,121.85,110,-18.00,7.00,-1118.00
2024-06-07 00:13:01.090623,0,0,-160,0,0,0,71,74,135,120,30,121.85,110,1.00,-6.00,-1026.00
2024-06-07 00:13:01.236993,0,0,-154,0,0,0,71,74,136,120,30,121.85,110,-9.00,19.00,-1045.00
2024-06-07 00:13:01.294623,0,0,-148,0,0,0,71,73,136,120,30,121.87,110,-4.00,-6.00,-994.00
2024-06-07 00:13:01.442382,0,0,-142,0,0,0,71,73,136,120,30,121.78,110,14.00,-10.00,-947.00
2024-06-07 00:13:01.498587,0,0,-136,0,0,0,71,73,137,120,30,121.87,110,-31.00,13.00,-955.00
2024-06-07 00:13:01.648087,0,0,-130,0,0,0,71,73,138,120,30,121.91,110,13.00,-30.00,-1022.00
2024-06-07 00:13:01.702518,0,0,-123,0,0,0,71,73,137,120,30,121.91,110,24.00,-16.00,-992.00
2024-06-07 00:13:01.852509,0,0,-117,0,0,0,71,73,138,120,30,121.82,110,0.00,9.00,-961.00
2024-06-07 00:13:01.906512,0,0,-111,0,0,0,71,73,137,120,30,121.84,111,26.00,-4.00,-1019.00
2024-06-07 00:13:02.056821,0,0,-105,0,0,0,71,73,137,120,30,121.86,111,36.00,11.00,-899.00
2024-06-07 00:13:02.114601,0,0,-99,0,0,0,71,73,135,120,30,121.90,111,15.00,8.00,-931.00
2024-06-07 00:13:02.213191,0,0,-93,0,0,0,71,73,135,120,30,121.82,111,0.00,9.00,-979.00
2024-06-07 00:13:02.367338,0,0,-87,0,0,0,70,73,134,120,30,121.85,111,-3.00,25.00,-920.00
2024-06-07 00:13:02.416459,0,0,-81,0,0,0,70,73,133,120,30,121.77,111,41.00,-43.00,-997.00
2024-06-07 00:13:02.568256,0,0,-75,0,0,0,70,73,133,120,30,121.81,111,54.00,-8.00,-1039.00
2024-06-07 00:13:02.620898,0,1,-69,0,0,0,70,73,132,120,30,121.75,111,25.00,-5.00,-1083.00
2024-06-07 00:13:02.773903,0,1,-63,0,0,0,70,73,133,120,30,121.76,111,14.00,24.00,-1064.00
2024-06-07 00:13:02.824625,0,1,-57,0,0,0,70,73,134,120,30,121.81,111,-22.00,37.00,-915.00
2024-06-07 00:13:02.977737,0,1,-51,0,0,0,70,73,134,120,30,121.86,112,-35.00,-6.00,-933.00
2024-06-07 00:13:02.977822,0,1,-45,0,0,0,70,73,135,120,30,121.81,112,-9.00,-36.00,-1126.00
2024-06-07 00:13:03.080089,0,0,-39,0,0,0,70,73,136,120,30,121.83,112,12.00,0.00,-901.00
2024-06-07 00:13:03.182449,0,0,-33,0,0,0,70,73,137,120,30,121.84,112,-27.00,11.00,-898.00
2024-06-07 00:13:03.342021,0,0,-29,0,0,0,72,74,137,120,30,121.80,112,15.00,-47.00,-968.00
2024-06-07 00:13:03.436409,0,0,-25,0,0,0,72,74,137,120,30,121.82,112,-65.00,30.00,-988.00
2024-06-07 00:13:03.592914,0,0,-22,0,0,0,72,74,137,120,30,121.88,112,43.00,-7.00,-1014.00
2024-06-07 00:13:03.592999,0,0,-20,0,0,0,72,74,138,120,30,121.86,112,-50.00,0.00,-1014.00
2024-06-07 00:13:03.691516,0,0,-18,0,0,0,72,74,138,120,30,121.79,112,0.00,-25.00,-1061.00
2024-06-07 00:13:03.796882,0,0,-17,0,0,0,72,74,138,120,30,121.89,112,20.00,-18.00,-995.00
2024-06-07 00:13:03.895799,0,0,-16,0,0,0,72,74,137,120,30,121.87,113,-26.00,10.00,-885.00
2024-06-07 00:13:04.001705,0,0,-15,0,0,0,72,74,137,120,30,121.87,113,40.00,-15.00,-1086.00
2024-06-07 00:13:04.099428,0,0,-15,0,0,0,72,74,138,120,30,121.83,113,40.00,-30.00,-995.00
2024-06-07 00:13:04.206525,0,0,-15,0,0,0,72,74,138,120,30,121.93,113,36.00,-8.00,-961.00
2024-06-07 00:13:04.304083,0,0,-15,0,0,0,71,74,139,120,30,121.88,113,-6.00,7.00,-1067.00
2024-06-07 00:13:04.411894,0,0,-15,0,0,0,71,74,138,120,30,121.93,113,29.00,-22.00,-992.00
2024-06-07 00:13:04.509686,0,0,-15,0,0,0,71,74,138,120,30,121.82,113,-22.00,-34.00,-1121.00
2024-06-07 00:13:04.610081,0,0,-15,0,0,0,71,74,138,120,30,121.91,113,0.00,-13.00,-1037.00
2024-06-07 00:13:04.714783,0,0,-15,0,0,0,71,74,138,120,30,121.85,113,17.00,-31.00,-1029.00
2024-06-07 00:13:04.814299,1,1,-15,0,0,0,71,74,138,120,30,121.87,113,0.00,0.00,-1018.00
2024-06-07 00:13:04.923380,1,1,-15,0,0,0,71,74,137,120,30,121.83,114,47.00,-37.00,-987.00
2024-06-07 00:13:05.018076,1,0,-15,0,0,0,71,74,137,120,30,121.86,114,32.00,-39.00,-970.00
2024-06-07 00:13:05.119509,0,0,-15,0,0,0,71,74,136,120,30,121.81,114,14.00,-13.00,-923.00
2024-06-07 00:13:05.221407,0,0,-15,0,0,0,71,74,135,120,30,121.80,114,-12.00,2.00,-1018.00
2024-06-07 00:13:05.323471,0,0,-15,0,0,0,71,74,135,120,30,121.82,114,-8.00,28.00,-1015.00
2024-06-07 00:13:05.425395,0,0,-15,0,0,0,71,74,135,120,30,121.79,114,24.00,-3.00,-1016.00
2024-06-07 00:13:05.539881,0,0,-15,0,0,0,71,74,135,120,30,121.80,114,17.00,-26.00,-999.00
2024-06-07 00:13:05.629445,0,0,-15,0,0,0,71,74,135,120,30,121.79,114,-8.00,13.00,-1033.00
2024-06-07 00:13:05.742499,0,0,-15,0,0,0,71,74,135,120,30,121.82,114,7.00,-23.00,-999.00
2024-06-07 00:13:05.833286,0,0,-15,0,0,0,71,74,135,120,30,121.83,114,-23.00,34.00,-956.00
2024-06-07 00:13:05.947354,0,0,-15,0,0,0,71,74,135,120,30,121.85,115,21.00,-14.00,-1066.00
2024-06-07 00:13:06.037367,0,0,-15,0,0,0,71,74,135,120,30,121.84,115,2.00,0.00,-1001.00
2024-06-07 00:13:06.139155,0,0,-15,0,0,0,71,74,134,120,30,121.84,115,10.00,-30.00,-1050.00
2024-06-07 00:13:06.254404,0,0,-15,0,0,0,71,74,135,120,30,121.82,115,-1.00,-5.00,-1064.00
2024-06-07 00:13:06.343357,0,0,-21,0,0,0,72,75,134,120,30,121.79,115,22.00,5.00,-1019.00
2024-06-07 00:13:06.459146,0,0,-27,0,0,0,72,75,135,120,30,121.77,115,-35.00,21.00,-1035.00
2024-06-07 00:13:06.547240,0,0,-33,0,0,0,72,75,135,120,30,121.86,115,-7.00,27.00,-1019.00
2024-06-07 00:13:06.664254,0,0,-39,0,0,0,72,75,135,120,30,121.92,115,-8.00,-9.00,-996.00
2024-06-07 00:13:06.751216,0,0,-45,0,0,0,72,75,135,120,30,121.88,115,67.00,-27.00,-902.00
2024-06-07 00:13:06.868896,1,0,-51,0,0,0,72,75,136,120,30,121.82,115,28.00,-17.00,-990.00
2024-06-07 00:13:06.955119,1,0,-57,0,0,0,72,75,136,120,30,121.89,116,40.00,-18.00,-986.00
2024-06-07 00:13:07.111409,1,0,-63,0,0,0,72,75,136,120,30,121.82,116,78.00,-22.00,-996.00
2024-06-07 00:13:07.111664,1,0,-69,0,0,0,72,75,136,120,30,121.82,116,26.00,-20.00,-1046.00
2024-06-07 00:13:07.291352,1,0,-75,0,0,0,72,75,137,120,30,121.83,116,-3.00,33.00,-927.00
2024-06-07 00:13:07.312828,0,0,-81,0,0,0,71,73,138,120,30,121.77,116,10.00,-6.00,-1058.00
2024-06-07 00:13:07.483215,0,0,-87,0,0,0,71,73,138,120,30,121.79,116,0.00,35.00,-961.00
2024-06-07 00:13:07.574813,0,0,-93,0,0,0,71,73,138,120,30,121.76,116,-2.00,-1.00,-988.00
2024-06-07 00:13:07.640231,0,0,-99,0,0,0,71,73,138,120,30,121.86,116,41.00,-12.00,-983.00
2024-06-07 00:13:07.736444,0,0,-105,0,0,0,71,73,138,120,30,121.92,116,0.00,3.00,-1096.00
2024-06-07 00:13:07.845909,0,0,-111,0,0,0,71,73,138,120,30,121.86,116,6.00,-24.00,-907.00
2024-06-07 00:13:07.935016,0,0,-117,0,0,0,71,73,139,120,30,121.84,117,8.00,3.00,-1071.00
2024-06-07 00:13:08.026036,0,1,-124,0,0,0,71,73,139,120,30,121.88,117,22.00,-2.00,-1066.00
2024-06-07 00:13:08.212860,1,0,-130,0,0,0,71,73,139,120,30,121.83,117,8.00,-2.00,-895.00
2024-06-07 00:13:08.230035,1,0,-136,0,0,0,71,73,139,120,30,121.86,117,-23.00,5.00,-995.00
2024-06-07 00:13:08.396047,1,0,-142,0,0,0,71,74,139,120,30,121.83,117,3.00,-18.00,-977.00
2024-06-07 00:13:08.537486,0,0,-154,0,0,0,71,74,139,120,29,121.85,117,2.00,6.00,-1053.00
2024-06-07 00:13:08.537542,1,0,-160,0,0,0,71,74,139,120,29,121.87,117,43.00,10.00,-1016.00
2024-06-07 00:13:08.682463,1,0,-166,0,0,0,71,74,138,120,29,121.87,117,3.00,19.00,-983.00
2024-06-07 00:13:08.825193,1,0,-172,0,0,0,71,74,138,130,29,121.83,117,17.00,37.00,-1040.00
2024-06-07 00:13:08.842363,1,0,-178,0,0,0,71,74,138,120,29,121.87,118,-24.00,31.00,-894.00
2024-06-07 00:13:08.968482,0,0,175,0,0,0,71,74,137,120,29,121.91,118,40.00,10.00,-1094.00
2024-06-07 00:13:09.132363,0,0,169,0,0,0,71,74,137,120,29,121.80,118,31.00,-15.00,-1056.00
2024-06-07 00:13:09.147895,1,0,163,0,0,0,71,74,136,120,29,121.88,118,2.00,34.00,-977.00
2024-06-07 00:13:09.327021,1,0,157,0,0,0,71,74,136,120,29,121.87,118,34.00,-1.00,-1097.00
2024-06-07 00:13:09.352200,0,0,151,0,0,0,72,74,135,120,29,121.87,118,-29.00,0.00,-939.00
2024-06-07 00:13:09.532983,0,0,145,0,0,0,72,74,136,120,29,121.86,118,15.00,-1.00,-1022.00
2024-06-07 00:13:09.555893,0,0,139,0,0,0,72,74,136,120,29,121.88,118,-2.00,35.00,-1029.00
2024-06-07 00:13:09.737806,1,0,133,0,0,0,72,74,135,120,29,121.91,118,0.00,3.00,-914.00
2024-06-07 00:13:09.760596,1,0,127,0,0,0,72,74,136,120,29,121.88,118,-12.00,4.00,-945.00
2024-06-07 00:13:09.941500,1,0,121,0,0,0,72,74,136,120,29,121.86,119,-30.00,4.00,-937.00
2024-06-07 00:13:09.963879,1,0,115,0,0,0,72,74,137,120,29,121.97,119,-38.00,17.00,-1042.00
2024-06-07 00:13:10.145927,0,0,109,0,0,0,72,74,137,120,29,121.91,119,30.00,7.00,-877.00
2024-06-07 00:13:10.168328,0,0,103,0,0,0,72,74,138,120,29,121.77,119,5.00,30.00,-934.00
2024-06-07 00:13:10.350507,0,0,97,0,0,0,72,74,138,120,29,121.90,119,-16.00,16.00,-992.00
2024-06-07 00:13:10.372353,0,0,91,0,0,0,71,74,138,120,29,121.89,119,-45.00,17.00,-972.00
2024-06-07 00:13:10.556871,0,0,85,0,0,0,71,74,138,120,29,121.83,119,29.00,-31.00,-926.00
2024-06-07 00:13:10.578268,0,0,79,0,0,0,71,74,138,120,29,121.80,119,-11.00,-2.00,-1009.00
2024-06-07 00:13:10.678485,0,0,74,0,0,0,71,74,137,120,29,121.92,119,18.00,-21.00,-998.00
2024-06-07 00:13:10.862197,0,0,68,0,0,0,71,74,137,120,29,121.89,119,-12.00,-10.00,-965.00
2024-06-07 00:13:10.882916,1,0,62,0,0,0,71,74,137,120,29,121.90,120,-4.00,-5.00,-1054.00
2024-06-07 00:13:10.933736,0,0,56,0,0,0,71,74,137,120,29,121.86,120,12.00,-11.00,-1071.00
2024-06-07 00:13:11.066956,0,0,50,0,0,0,71,74,137,120,29,121.90,120,8.00,34.00,-913.00
2024-06-07 00:13:11.140019,0,0,44,0,0,0,71,74,137,120,29,121.83,120,-6.00,-10.00,-890.00
2024-06-07 00:13:11.240069,0,0,38,0,0,0,71,74,137,120,29,121.92,120,10.00,-25.00,-1004.00
2024-06-07 00:13:11.374196,0,0,32,0,0,0,72,74,138,120,29,121.88,120,9.00,1.00,-977.00
2024-06-07 00:13:11.496732,0,0,26,0,0,0,72,74,138,120,29,121.90,120,-34.00,31.00,-943.00
2024-06-07 00:13:11.596880,0,0,20,0,0,0,72,74,138,120,29,121.89,120,31.00,-31.00,-1033.00
2024-06-07 00:13:11.647868,0,0,14,0,0,0,72,74,138,120,29,121.88,120,31.00,-23.00,-1077.00
2024-06-07 00:13:11.784749,0,0,8,0,0,0,72,74,138,120,29,121.88,120,47.00,-4.00,-1018.00
2024-06-07 00:13:11.851955,0,0,3,0,0,0,72,74,138,120,29,121.88,121,20.00,8.00,-910.00
2024-06-07 00:13:11.989208,0,0,-1,0,0,0,72,74,137,120,29,121.79,121,9.00,22.00,-1064.00
2024-06-07 00:13:12.056463,0,0,-4,0,0,0,72,74,136,120,29,121.84,121,5.00,10.00,-1028.00
2024-06-07 00:13:12.160657,0,0,-6,0,0,0,72,74,136,120,29,121.83,121,6.00,-12.00,-988.00
2024-06-07 00:13:12.259902,1,1,-8,0,0,0,72,74,134,120,29,121.83,121,-8.00,21.00,-967.00
2024-06-07 00:13:12.398351,0,1,-10,0,0,0,72,74,134,120,29,121.83,121,29.00,-26.00,-1023.00
2024-06-07 00:13:12.463795,0,1,-11,0,0,0,72,74,133,120,29,121.86,121,26.00,-32.00,-1091.00
2024-06-07 00:13:12.603320,0,1,-12,0,0,0,72,74,134,120,29,121.87,121,36.00,-19.00,-988.00
2024-06-07 00:13:12.667805,0,1,-12,0,0,0,72,74,134,120,29,121.81,121,35.00,0.00,-985.00
2024-06-07 00:13:12.769796,0,1,-13,0,0,0,72,74,134,120,29,121.87,121,3.00,-36.00,-1005.00
2024-06-07 00:13:12.910439,0,1,-13,0,0,0,72,74,134,120,29,121.88,122,17.00,-32.00,-1004.00
2024-06-07 00:13:12.973842,0,1,-13,0,0,0,72,74,134,120,29,121.87,122,17.00,-41.00,-1033.00
2024-06-07 00:13:13.090858,0,1,-13,0,0,0,72,74,134,120,29,121.87,122,32.00,-22.00,-965.00
2024-06-07 00:13:13.177958,0,1,-13,0,0,0,72,74,135,120,29,121.81,122,35.00,-12.00,-911.00
2024-06-07 00:13:13.319787,0,1,-13,0,0,0,72,74,136,120,29,121.85,122,-17.00,5.00,-997.00
2024-06-07 00:13:13.384727,0,1,-13,0,0,0,73,75,136,120,29,121.85,122,48.00,-63.00,-1032.00
2024-06-07 00:13:13.483631,0,1,-13,0,0,0,73,75,137,120,29,121.90,122,1.00,2.00,-1017.00
2024-06-07 00:13:13.626951,0,1,-13,0,0,0,73,75,138,120,29,121.85,122,-11.00,-15.00,-1023.00
2024-06-07 00:13:13.687887,0,0,-13,0,0,0,73,75,138,120,29,121.88,122,17.00,-10.00,-1000.00
2024-06-07 00:13:13.836200,0,0,-13,0,0,0,73,75,139,120,29,121.91,122,20.00,-26.00,-1023.00
2024-06-07 00:13:13.891659,0,0,-13,0,0,0,73,75,138,120,29,121.94,123,-19.00,-14.00,-1051.00
2024-06-07 00:13:14.036579,0,0,-13,0,0,0,73,75,138,120,29,121.89,123,-33.00,-15.00,-900.00
2024-06-07 00:13:14.095659,0,0,-13,0,0,0,73,75,138,120,29,121.86,123,-8.00,6.00,-1011.00
2024-06-07 00:13:14.242108,0,0,-13,0,0,0,73,75,137,120,29,121.94,123,-5.00,-28.00,-947.00
2024-06-07 00:13:14.299716,0,1,-13,0,0,0,73,75,138,120,29,121.90,123,10.00,-28.00,-1074.00
2024-06-07 00:13:14.446242,0,1,-13,0,0,0,72,74,136,120,28,121.87,123,-19.00,24.00,-1060.00
2024-06-07 00:13:14.503460,0,1,-13,0,0,0,72,74,136,120,28,121.84,123,24.00,-32.00,-989.00
2024-06-07 00:13:14.650974,1,1,-13,0,0,0,72,74,136,120,28,121.84,123,-49.00,29.00,-985.00
2024-06-07 00:13:14.707766,1,1,-13,0,0,0,72,74,136,120,28,121.84,123,27.00,-59.00,-970.00
2024-06-07 00:13:14.809570,1,1,-13,0,0,0,72,74,135,120,28,121.88,123,33.00,-35.00,-1090.00
2024-06-07 00:13:14.957953,1,1,-13,0,0,0,72,74,135,120,28,121.90,124,7.00,-38.00,-984.00
2024-06-07 00:13:15.014937,0,1,-13,0,0,0,72,74,135,120,28,121.86,124,23.00,-27.00,-989.00
2024-06-07 00:13:15.066847,1,1,-13,0,0,0,72,74,135,120,28,121.89,124,44.00,-38.00,-1046.00
2024-06-07 00:13:15.167566,0,1,-13,0,0,0,72,74,135,120,28,121.86,124,20.00,10.00,-939.00
2024-06-07 00:13:15.367677,0,1,-13,0,0,0,72,74,135,120,28,121.83,124,-42.00,14.00,-972.00
2024-06-07 00:13:15.371693,0,0,-13,0,0,0,72,75,134,120,28,121.83,124,-44.00,-26.00,-1024.00
2024-06-07 00:13:15.572573,0,1,-13,0,0,0,72,75,134,120,28,121.83,124,-8.00,17.00,-820.00
2024-06-07 00:13:15.575448,0,1,-13,0,0,0,72,75,134,120,28,121.81,124,-22.00,-14.00,-963.00
2024-06-07 00:13:15.678383,0,1,-13,0,0,0,72,75,135,120,28,121.83,124,9.00,-41.00,-1105.00
2024-06-07 00:13:15.780540,0,0,-13,0,0,0,72,75,136,120,28,121.87,124,47.00,-53.00,-970.00
2024-06-07 00:13:15.882502,0,1,-13,0,0,0,72,75,136,120,28,121.87,125,-21.00,-27.00,-909.00
2024-06-07 00:13:15.984875,0,1,-13,0,0,0,72,75,136,120,28,121.87,125,-15.00,-9.00,-1033.00
2024-06-07 00:13:16.086436,0,1,-13,0,0,0,72,75,137,120,28,121.92,125,31.00,-96.00,-1006.00
2024-06-07 00:13:16.289734,0,1,-13,0,0,0,72,75,137,120,28,121.80,125,2.00,8.00,-885.00
2024-06-07 00:13:16.290308,0,0,-13,0,0,0,72,75,138,120,28,121.88,125,32.00,-55.00,-997.00
2024-06-07 00:13:16.494441,0,0,-13,0,0,0,71,74,139,120,28,121.87,125,5.00,21.00,-1057.00
2024-06-07 00:13:16.494561,0,0,-13,0,0,0,71,74,139,120,28,121.88,125,39.00,-30.00,-1002.00
2024-06-07 00:13:16.596942,0,0,-13,0,0,0,71,74,139,120,28,121.83,125,7.00,-18.00,-1029.00
2024-06-07 00:13:16.698661,0,0,-13,0,0,0,71,74,139,120,28,121.85,125,6.00,22.00,-941.00
2024-06-07 00:13:16.801736,0,0,-13,0,0,0,71,74,140,130,28,121.83,125,29.00,-14.00,-949.00
2024-06-07 00:13:16.903945,0,0,-13,0,0,0,71,74,140,130,28,121.81,126,25.00,-33.00,-1091.00
2024-06-07 00:13:17.006024,0,0,-13,0,0,0,71,74,141,130,28,121.83,126,-32.00,-17.00,-883.00
2024-06-07 00:13:17.108820,0,0,-13,0,0,0,71,74,140,130,28,121.86,126,49.00,-36.00,-1042.00
2024-06-07 00:13:17.211214,0,0,-13,0,0,0,71,74,140,130,28,121.88,126,21.00,13.00,-978.00
2024-06-07 00:13:17.312023,0,1,-13,0,0,0,71,74,139,130,28,121.83,126,0.00,-20.00,-1081.00
2024-06-07 00:13:17.415777,0,1,-13,0,0,0,71,74,140,130,28,121.83,126,-16.00,-3.00,-1002.00
2024-06-07 00:13:17.518892,0,1,-13,0,0,0,71,74,140,130,28,121.94,126,-4.00,-16.00,-953.00
2024-06-07 00:13:17.620886,0,1,-13,0,0,0,71,74,141,130,28,121.90,126,-3.00,2.00,-951.00
2024-06-07 00:13:17.729310,0,1,-13,0,0,0,71,74,140,130,28,121.95,126,-5.00,-4.00,-1033.00
2024-06-07 00:13:17.822829,0,0,-13,0,0,0,71,74,140,120,28,121.88,126,5.00,-20.00,-1124.00
2024-06-07 00:13:17.923723,0,0,-13,0,0,0,71,74,140,120,28,121.81,127,0.00,0.00,-1035.00
2024-06-07 00:13:18.030060,0,0,-13,0,0,0,71,74,140,120,28,121.85,127,44.00,0.00,-1080.00
2024-06-07 00:13:18.076306,0,0,-13,0,0,0,71,74,141,120,28,121.84,127,-37.00,21.00,-969.00
2024-06-07 00:13:18.234848,0,0,-13,0,0,0,71,74,141,120,28,121.79,127,79.00,-42.00,-939.00
2024-06-07 00:13:18.280291,0,0,-13,0,0,0,71,74,140,130,28,121.92,127,-27.00,11.00,-1020.00
2024-06-07 00:13:18.439407,0,0,-13,0,0,0,72,74,141,130,28,121.91,127,38.00,-19.00,-996.00
2024-06-07 00:13:18.536552,0,0,-13,0,0,0,72,74,141,130,28,121.87,127,9.00,-4.00,-999.00
2024-06-07 00:13:18.644418,0,0,-13,0,0,0,72,74,141,130,28,121.86,127,-22.00,-5.00,-1016.00
2024-06-07 00:13:18.739480,0,0,-13,0,0,0,72,74,140,130,28,121.82,127,24.00,-3.00,-1117.00
2024-06-07 00:13:18.790078,0,0,-13,0,0,0,72,74,141,130,28,121.86,127,26.00,-8.00,-1142.00
2024-06-07 00:13:18.951855,0,0,-13,0,0,0,72,74,140,130,28,121.89,128,2.00,-29.00,-1125.00
2024-06-07 00:13:18.994140,0,0,-13,0,0,0,72,74,140,130,28,121.86,128,-2.00,-12.00,-967.00
2024-06-07 00:13:19.096167,0,0,-13,0,0,0,72,74,140,130,28,121.86,128,-7.00,30.00,-1010.00
2024-06-07 00:13:19.230793,0,0,-13,0,0,0,72,74,140,130,28,121.89,128,-28.00,-1.00,-1059.00
2024-06-07 00:13:19.300185,0,0,-13,0,0,0,72,74,139,130,28,121.85,128,2.00,-27.00,-1065.00
2024-06-07 00:13:19.463595,0,0,-13,0,0,0,72,74,139,120,28,121.86,128,-18.00,0.00,-935.00
2024-06-07 00:13:19.504106,0,0,-13,0,0,0,72,74,138,120,28,121.87,128,32.00,-16.00,-1060.00
2024-06-07 00:13:19.668470,0,0,-13,0,0,0,72,74,139,120,28,121.86,128,35.00,-45.00,-977.00
2024-06-07 00:13:19.708356,0,0,-13,0,0,0,72,74,138,120,28,121.87,128,-5.00,-7.00,-912.00
2024-06-07 00:13:19.873291,0,0,-13,0,0,0,72,74,139,120,28,121.84,128,-11.00,24.00,-1050.00
2024-06-07 00:13:19.912022,0,0,-13,0,0,0,72,74,139,120,28,121.87,129,40.00,-8.00,-1059.00
2024-06-07 00:13:20.077918,0,0,-13,0,0,0,72,74,139,120,28,121.81,129,23.00,4.00,-1077.00
2024-06-07 00:13:20.116038,0,0,-13,0,0,0,72,74,139,120,28,121.85,129,-9.00,-20.00,-998.00
2024-06-07 00:13:20.283051,0,0,-13,0,0,0,72,74,140,120,28,121.84,129,27.00,-7.00,-1075.00
2024-06-07 00:13:20.320109,0,0,-13,0,0,0,72,74,139,120,28,121.83,129,9.00,-20.00,-988.00
2024-06-07 00:13:20.488305,0,0,-13,0,0,0,72,74,140,130,28,121.86,129,14.00,14.00,-877.00
2024-06-07 00:13:20.524991,0,0,-13,0,0,0,72,74,139,130,28,121.92,129,0.00,-14.00,-1018.00
2024-06-07 00:13:20.711407,0,0,-13,0,0,0,72,74,139,130,28,121.90,129,54.00,16.00,-1040.00
2024-06-07 00:13:20.729763,0,0,-13,0,0,0,72,74,139,130,28,121.87,129,-36.00,4.00,-991.00
2024-06-07 00:13:20.832154,0,0,-13,0,0,0,72,74,139,130,28,121.89,129,10.00,-21.00,-1131.00
2024-06-07 00:13:20.931987,0,0,-13,0,0,0,72,74,139,130,28,121.90,130,1.00,-5.00,-1057.00
2024-06-07 00:13:21.101875,0,0,-13,0,0,0,72,74,139,130,28,121.84,130,6.00,-4.00,-981.00
2024-06-07 00:13:21.135951,0,0,-13,0,0,0,72,74,138,130,28,121.84,130,-9.00,20.00,-1007.00
2024-06-07 00:13:21.307220,0,0,-13,0,0,0,72,74,138,120,28,121.86,130,-5.00,12.00,-1108.00
2024-06-07 00:13:21.339955,0,0,-13,0,0,0,72,74,137,120,28,121.83,130,-4.00,0.00,-961.00
2024-06-07 00:13:21.511842,0,0,-13,0,0,0,71,74,137,120,28,121.82,130,47.00,-26.00,-1056.00
2024-06-07 00:13:21.543997,0,0,-13,0,0,0,71,74,137,120,28,121.86,130,18.00,0.00,-1042.00
2024-06-07 00:13:21.716670,0,0,-13,0,0,0,71,74,136,120,28,121.89,130,-23.00,0.00,-941.00
2024-06-07 00:13:21.747912,0,0,-13,0,0,0,71,74,135,120,28,121.90,130,25.00,-14.00,-1012.00
2024-06-07 00:13:21.921237,0,0,-13,0,0,0,71,74,136,120,28,121.83,130,4.00,-15.00,-1000.00
2024-06-07 00:13:21.952145,0,0,-13,0,0,0,71,74,135,120,28,121.90,131,59.00,-34.00,-1082.00
2024-06-07 00:13:22.117729,0,0,-13,0,0,0,71,74,136,120,28,121.86,131,28.00,-21.00,-994.00
2024-06-07 00:13:22.155929,0,0,-13,0,0,0,71,74,137,120,28,121.88,131,28.00,-19.00,-1189.00
2024-06-07 00:13:22.343909,0,0,-13,0,0,0,71,74,137,120,28,121.83,131,-5.00,-12.00,-1068.00
2024-06-07 00:13:22.344718,0,0,-13,0,0,0,71,74,137,120,28,121.87,131,49.00,-36.00,-1009.00
2024-06-07 00:13:22.458608,0,0,-13,0,0,0,72,74,138,120,28,121.84,131,9.00,24.00,-1033.00
2024-06-07 00:13:22.512873,0,0,-13,0,0,0,72,74,139,120,28,121.86,131,6.00,18.00,-997.00
2024-06-07 00:13:22.615096,0,0,-13,0,0,0,72,74,139,120,28,121.85,131,46.00,9.00,-1017.00
2024-06-07 00:13:22.873982,0,0,-13,0,0,0,72,74,139,120,28,121.80,131,-9.00,35.00,-997.00
2024-06-07 00:13:22.874151,0,0,-13,0,0,0,72,74,139,120,28,121.82,131,2.00,-6.00,-1096.00
2024-06-07 00:13:22.927684,0,0,-13,0,0,0,72,74,138,120,28,121.83,132,-25.00,4.00,-975.00
2024-06-07 00:13:23.126382,0,0,-13,0,0,0,72,74,139,120,28,121.86,132,12.00,-44.00,-1052.00
2024-06-07 00:13:23.126617,0,0,-13,0,0,0,72,74,138,120,28,121.82,132,-27.00,-7.00,-933.00
2024-06-07 00:13:23.331777,0,0,-13,0,0,0,72,74,138,120,28,121.83,132,-8.00,1.00,-940.00
2024-06-07 00:13:23.332063,0,0,-13,0,0,0,72,74,138,120,28,121.92,132,-3.00,-37.00,-1089.00
2024-06-07 00:13:23.430776,0,0,-13,0,0,0,71,74,137,120,28,121.91,132,50.00,-23.00,-942.00
2024-06-07 00:13:23.578482,0,0,-13,0,0,0,71,74,137,120,28,121.84,132,-5.00,-19.00,-1028.00
2024-06-07 00:13:23.764603,0,0,-13,0,0,0,71,74,136,120,28,121.79,132,21.00,7.00,-881.00
2024-06-07 00:13:23.878521,0,0,-13,0,0,0,71,74,137,120,28,121.90,132,15.00,-9.00,-1016.00
2024-06-07 00:13:23.878608,0,0,-13,0,0,0,71,74,136,120,28,121.92,132,55.00,-20.00,-909.00
2024-06-07 00:13:24.020900,0,0,-13,0,0,0,71,74,136,120,28,121.89,133,-3.00,-19.00,-1000.00
2024-06-07 00:13:24.042734,0,0,-13,0,0,0,71,74,137,120,28,121.86,133,40.00,-47.00,-948.00
2024-06-07 00:13:24.184707,0,0,-13,0,0,0,71,74,136,120,28,121.88,133,7.00,-27.00,-1041.00
2024-06-07 00:13:24.253941,0,0,-13,0,0,0,71,74,135,120,28,121.92,133,29.00,1.00,-1038.00
2024-06-07 00:13:24.349290,0,0,-13,0,0,0,71,74,135,120,28,121.86,133,-1.00,23.00,-1024.00
2024-06-07 00:13:24.451492,0,0,-13,0,0,0,72,75,135,120,28,121.85,133,51.00,-11.00,-1115.00
2024-06-07 00:13:24.584740,0,0,-13,0,0,0,72,75,136,120,28,121.90,133,-26.00,17.00,-997.00
2024-06-07 00:13:24.656359,0,0,-13,0,0,0,72,75,135,120,28,121.94,133,-1.00,21.00,-1094.00
2024-06-07 00:13:24.758796,0,0,-13,0,0,0,72,75,136,120,28,121.92,133,15.00,-9.00,-950.00
2024-06-07 00:13:24.858737,0,0,-13,0,0,0,72,75,136,120,28,121.88,134,45.00,-19.00,-988.00
2024-06-07 00:13:24.993597,0,0,-13,0,0,0,72,75,135,120,28,121.87,134,23.00,25.00,-896.00
2024-06-07 00:13:25.062670,0,0,-13,0,0,0,72,75,136,120,28,121.89,134,-11.00,-4.00,-1044.00
2024-06-07 00:13:25.168310,0,0,-13,0,0,0,72,75,135,120,28,121.85,134,12.00,-7.00,-1038.00
2024-06-07 00:13:25.266663,0,0,-13,0,0,0,72,75,135,120,28,121.87,134,19.00,-14.00,-1140.00
2024-06-07 00:13:25.404328,0,0,-13,0,0,0,72,75,135,120,28,121.81,134,23.00,-1.00,-1114.00
2024-06-07 00:13:25.470578,0,0,-13,0,0,0,72,74,136,120,28,121.81,134,0.00,-22.00,-997.00
2024-06-07 00:13:25.609762,0,0,-13,0,0,0,72,74,136,120,28,121.82,134,-17.00,0.00,-978.00
2024-06-07 00:13:25.674588,0,0,-13,0,0,0,72,74,136,120,28,121.88,134,4.00,9.00,-927.00
2024-06-07 00:13:25.776524,0,0,-13,0,0,0,72,74,136,120,28,121.89,134,-18.00,23.00,-975.00
2024-06-07 00:13:25.827505,0,0,-13,0,0,0,72,74,135,120,28,121.90,135,-16.00,8.00,-1025.00
2024-06-07 00:13:26.016866,0,0,-13,0,0,0,72,74,135,120,28,121.84,135,-38.00,-7.00,-965.00
2024-06-07 00:13:26.031417,0,0,-13,0,0,0,72,74,135,120,28,121.88,135,-6.00,10.00,-972.00
2024-06-07 00:13:26.221758,0,0,-13,0,0,0,72,74,135,120,28,121.79,135,-32.00,1.00,-935.00
2024-06-07 00:13:26.235382,0,0,-13,0,0,0,72,74,134,120,28,121.79,135,-31.00,29.00,-915.00
2024-06-07 00:13:26.428207,0,0,-13,0,0,0,72,74,135,120,28,121.84,135,-5.00,37.00,-935.00
2024-06-07 00:13:26.439936,0,0,-13,0,0,0,71,74,135,120,28,121.85,135,-7.00,33.00,-1036.00
2024-06-07 00:13:26.632254,0,0,-13,0,0,0,71,74,135,120,28,121.85,135,-35.00,1.00,-1094.00
2024-06-07 00:13:26.643401,0,0,-13,0,0,0,71,74,135,120,28,121.79,135,-9.00,5.00,-943.00
2024-06-07 00:13:26.748323,0,0,-13,0,0,0,71,74,134,120,28,121.87,135,10.00,-5.00,-948.00
2024-06-07 00:13:26.848506,0,0,-13,0,0,0,71,74,134,120,28,121.89,136,-1.00,-5.00,-987.00
2024-06-07 00:13:26.951358,0,0,-13,0,0,0,71,74,134,120,28,121.87,136,26.00,-7.00,-1012.00
2024-06-07 00:13:27.051240,0,0,-13,0,0,0,71,74,134,120,28,121.81,136,-17.00,3.00,-1022.00
2024-06-07 00:13:27.245478,0,0,-13,0,0,0,71,74,135,120,28,121.87,136,37.00,2.00,-978.00
2024-06-07 00:13:27.255781,0,0,-13,0,0,0,71,74,135,120,28,121.88,136,3.00,-15.00,-1084.00
2024-06-07 00:13:27.422642,0,0,-13,0,0,0,71,74,136,120,28,121.85,136,-4.00,13.00,-828.00
2024-06-07 00:13:27.459311,0,0,-13,0,0,0,73,74,136,120,28,121.82,136,-11.00,3.00,-1001.00
2024-06-07 00:13:27.655518,0,0,-13,0,0,0,73,74,135,120,28,121.84,136,-9.00,9.00,-973.00
2024-06-07 00:13:27.663114,0,0,-13,0,0,1,73,74,134,120,28,121.81,136,33.00,0.00,-902.00
2024-06-07 00:13:27.765317,0,0,-13,0,0,2,73,74,132,120,28,121.83,136,40.00,-16.00,-954.00
2024-06-07 00:13:27.962224,0,0,-13,0,0,3,73,74,129,120,28,121.78,137,17.00,-15.00,-940.00
2024-06-07 00:13:27.969197,0,0,-13,0,0,4,73,74,126,110,28,121.76,137,-29.00,22.00,-878.00
2024-06-07 00:13:28.097341,0,0,-13,0,0,5,73,74,120,110,28,121.71,137,31.00,-9.00,-953.00
2024-06-07 00:13:28.173440,0,0,-13,0,0,6,73,74,114,100,28,121.67,137,35.00,-18.00,-869.00
