TS,pitch,roll,yaw,vgx,vgy,vgz,templ,temph,tof,h,bat,baro,time,agx,agy,agz
2024-06-07 00:13:59.195689,0,0,-3,0,0,0,77,78,10,0,27,120.21,139,2.00,-1.00,-1000.00
2024-06-07 00:13:59.232577,0,0,-3,0,0,0,77,78,10,0,27,120.23,139,2.00,1.00,-1000.00
2024-06-07 00:13:59.398103,0,0,-3,0,0,0,77,78,10,0,27,120.19,139,1.00,0.00,-998.00
2024-06-07 00:13:59.436576,0,0,-3,0,0,0,77,78,10,0,27,120.22,139,3.00,0.00,-1000.00
2024-06-07 00:13:59.487456,0,0,-3,0,0,0,77,78,10,0,27,120.18,139,1.00,-1.00,-1001.00
2024-06-07 00:13:59.640456,0,0,-3,0,0,0,77,79,10,0,27,120.19,139,0.00,0.00,-1000.00
2024-06-07 00:13:59.691373,0,0,-3,0,0,0,77,79,10,0,27,120.21,139,1.00,0.00,-1001.00
2024-06-07 00:13:59.807534,0,0,-3,0,0,0,77,79,10,0,27,120.25,139,2.00,1.00,-1000.00
2024-06-07 00:13:59.895557,0,0,-3,0,0,0,77,79,10,0,27,120.20,139,0.00,0.00,-1000.00
2024-06-07 00:14:00.012682,0,0,-3,0,0,0,77,79,10,0,27,120.21,139,3.00,0.00,-999.00
2024-06-07 00:14:00.099435,0,0,-3,0,0,0,77,79,10,0,27,120.25,139,1.00,1.00,-999.00
2024-06-07 00:14:00.219050,0,0,-3,0,0,0,77,79,10,0,27,120.23,139,2.00,0.00,-998.00
2024-06-07 00:14:00.303215,0,0,-3,0,0,0,77,79,10,0,27,120.20,139,2.00,0.00,-1000.00
2024-06-07 00:14:00.421713,0,0,-3,0,0,0,77,79,10,0,27,120.23,139,1.00,0.00,-999.00
2024-06-07 00:14:00.507257,0,0,-3,0,0,0,77,79,10,0,27,120.21,139,2.00,1.00,-1000.00
2024-06-07 00:14:00.626608,0,0,-3,0,0,0,77,79,10,0,27,120.21,139,1.00,0.00,-1000.00
2024-06-07 00:14:00.711675,0,0,-3,0,0,0,77,79,10,0,27,120.23,139,2.00,0.00,-1003.00
2024-06-07 00:14:00.831604,0,0,-3,0,0,0,77,79,10,0,27,120.20,139,1.00,0.00,-997.00
2024-06-07 00:14:00.915841,0,0,-3,0,0,0,77,79,10,0,27,120.21,139,3.00,0.00,-997.00
2024-06-07 00:14:01.036157,0,0,-3,0,0,0,77,79,10,0,27,120.22,139,3.00,0.00,-999.00
2024-06-07 00:14:01.119384,0,0,-3,0,0,0,77,79,10,0,27,120.25,139,1.00,0.00,-999.00
2024-06-07 00:14:01.240841,0,0,-3,0,0,0,77,79,10,0,27,120.21,139,1.00,0.00,-1000.00
2024-06-07 00:14:01.323340,0,0,-3,0,0,0,77,79,10,0,27,120.21,139,2.00,-2.00,-1002.00
2024-06-07 00:14:01.445760,0,0,-3,0,0,0,77,79,10,0,27,120.20,139,2.00,0.00,-1001.00
2024-06-07 00:14:01.527546,0,0,-3,0,0,0,77,79,10,0,27,120.19,139,2.00,0.00,-997.00
2024-06-07 00:14:01.651101,0,0,-3,0,0,0,76,79,10,0,27,120.24,139,1.00,0.00,-1000.00
2024-06-07 00:14:01.731479,0,0,-3,0,0,0,76,79,10,0,27,120.25,139,2.00,0.00,-999.00
2024-06-07 00:14:01.855371,0,0,-3,0,0,0,76,79,10,0,27,120.20,139,2.00,0.00,-1001.00
2024-06-07 00:14:01.935485,0,0,-3,0,0,0,76,79,10,0,27,120.20,139,3.00,0.00,-1000.00
2024-06-07 00:14:02.037188,0,0,-3,0,0,0,76,79,10,0,27,120.27,139,2.00,1.00,-999.00
2024-06-07 00:14:02.162265,0,0,-3,0,0,0,76,79,10,0,27,120.23,139,4.00,1.00,-997.00
2024-06-07 00:14:02.241151,0,0,-3,0,0,0,76,79,10,0,27,120.23,139,6.00,7.00,-998.00
2024-06-07 00:14:02.368827,0,0,-3,0,0,0,76,79,10,0,27,120.23,139,-9.00,-1.00,-989.00
2024-06-07 00:14:02.445798,0,0,-4,0,0,0,76,79,10,0,27,120.23,139,-3.00,12.00,-1004.00
2024-06-07 00:14:02.572398,0,0,-5,0,0,0,76,79,10,0,27,120.23,139,26.00,-34.00,-1108.00
2024-06-07 00:14:02.653090,0,0,-5,0,0,0,76,80,10,0,27,120.23,139,-45.00,23.00,-1061.00
2024-06-07 00:14:02.751079,0,0,-7,0,0,0,76,80,10,0,27,120.23,140,15.00,-4.00,-1191.00
2024-06-07 00:14:02.855520,0,-1,-7,0,0,-2,76,80,10,0,27,120.23,140,-49.00,-7.00,-1224.00
2024-06-07 00:14:02.955161,0,0,-8,0,0,-5,76,80,12,0,27,120.23,140,-47.00,17.00,-1174.00
2024-06-07 00:14:03.083915,0,0,-7,0,0,-7,76,80,19,10,27,120.47,140,23.00,-22.00,-1043.00
2024-06-07 00:14:03.108033,0,0,-7,0,0,-7,76,80,26,10,27,120.73,140,42.00,20.00,-995.00
2024-06-07 00:14:03.288648,0,0,-7,0,0,-7,76,80,30,20,27,120.81,140,2.00,-4.00,-967.00
2024-06-07 00:14:03.312050,0,0,-7,0,0,-7,76,80,37,30,27,120.80,140,20.00,12.00,-937.00
2024-06-07 00:14:03.493448,0,0,-7,0,0,-6,76,80,44,30,27,120.85,140,4.00,-17.00,-911.00
2024-06-07 00:14:03.516020,0,0,-7,0,0,-6,76,80,51,40,27,120.91,140,3.00,12.00,-942.00
2024-06-07 00:14:03.698180,0,0,-7,0,0,-4,77,80,57,50,27,121.00,141,23.00,-32.00,-840.00
2024-06-07 00:14:03.771825,0,0,-7,0,0,-3,77,80,62,50,27,121.12,141,13.00,-39.00,-896.00
2024-06-07 00:14:03.822789,0,0,-7,0,0,-3,77,80,66,50,27,121.07,141,24.00,3.00,-832.00
2024-06-07 00:14:04.005435,0,0,-7,0,0,-2,77,80,68,60,27,121.13,141,1.00,-18.00,-904.00
2024-06-07 00:14:04.025899,0,0,-7,0,0,-1,77,80,71,60,27,121.14,141,-41.00,3.00,-956.00
2024-06-07 00:14:04.210229,0,0,-7,0,0,-1,77,80,72,60,27,121.17,141,52.00,-21.00,-982.00
2024-06-07 00:14:04.229955,0,0,-7,0,0,-1,77,80,73,60,27,121.13,141,8.00,-23.00,-1079.00
2024-06-07 00:14:04.414995,0,0,-7,0,0,0,77,80,73,60,27,121.13,141,35.00,-15.00,-967.00
2024-06-07 00:14:04.433841,0,0,-7,0,0,0,77,80,73,60,27,121.12,141,-19.00,-18.00,-1006.00
2024-06-07 00:14:04.619807,0,0,-7,0,0,0,77,80,73,60,27,121.10,141,36.00,-33.00,-1005.00
2024-06-07 00:14:04.641207,0,0,-7,0,0,0,78,80,72,60,27,121.19,142,17.00,-11.00,-963.00
2024-06-07 00:14:04.739924,0,0,-7,0,0,0,78,80,72,60,27,121.13,142,36.00,-36.00,-1029.00
2024-06-07 00:14:04.927163,0,1,-7,0,0,0,78,80,72,60,27,121.13,142,18.00,-21.00,-1023.00
2024-06-07 00:14:04.945830,0,1,-7,0,0,0,78,80,72,60,27,121.16,142,25.00,-21.00,-980.00
2024-06-07 00:14:05.046182,0,0,-7,0,0,0,78,80,72,60,27,121.15,142,7.00,-5.00,-1054.00
2024-06-07 00:14:05.234104,0,0,-7,0,0,0,78,80,73,60,27,121.17,142,-50.00,35.00,-1081.00
2024-06-07 00:14:05.249836,0,0,-7,0,0,0,78,80,73,60,27,121.15,142,-25.00,17.00,-1009.00
2024-06-07 00:14:05.439061,0,0,-7,0,0,0,78,80,74,60,27,121.16,142,-8.00,-5.00,-1023.00
2024-06-07 00:14:05.453792,0,0,-7,0,0,-1,78,80,75,60,27,121.18,142,15.00,-18.00,-918.00
2024-06-07 00:14:05.643870,0,0,-7,0,0,0,78,80,76,60,27,121.23,142,-21.00,10.00,-935.00
2024-06-07 00:14:05.657787,0,0,-7,0,0,0,77,79,77,60,27,121.20,143,-15.00,19.00,-872.00
2024-06-07 00:14:05.849062,0,0,-7,0,0,0,77,79,78,60,27,121.25,143,25.00,-13.00,-1021.00
2024-06-07 00:14:05.862217,0,0,-7,0,0,0,77,79,79,70,27,121.26,143,52.00,-28.00,-963.00
2024-06-07 00:14:06.053432,0,1,-7,0,0,0,77,79,80,70,27,121.29,143,8.00,-5.00,-1048.00
2024-06-07 00:14:06.066987,0,0,-7,0,0,0,77,79,82,70,27,121.27,143,11.00,-6.00,-1031.00
2024-06-07 00:14:06.258131,0,1,-7,0,0,0,77,79,83,70,27,121.29,143,8.00,-11.00,-1014.00
2024-06-07 00:14:06.271759,0,0,-7,0,0,0,77,79,84,70,27,121.27,143,25.00,-38.00,-974.00
2024-06-07 00:14:06.372172,0,1,-7,0,0,0,77,79,86,70,27,121.34,143,-29.00,6.00,-1020.00
2024-06-07 00:14:06.475101,0,0,-7,0,0,0,77,79,87,70,27,121.31,143,-4.00,6.00,-872.00
2024-06-07 00:14:06.582849,0,0,-7,0,0,0,77,79,88,70,27,121.37,143,27.00,9.00,-806.00
2024-06-07 00:14:06.677832,0,0,-7,0,0,0,77,79,89,70,27,121.39,144,23.00,-15.00,-1045.00
2024-06-07 00:14:06.872558,0,0,-7,0,0,0,77,79,90,70,27,121.39,144,7.00,-11.00,-994.00
2024-06-07 00:14:06.881797,0,0,-7,0,0,0,77,79,92,70,27,121.31,144,9.00,-8.00,-920.00
2024-06-07 00:14:07.077704,0,0,-7,0,0,0,77,79,93,80,27,121.42,144,30.00,-33.00,-991.00
2024-06-07 00:14:07.117009,0,0,-7,0,0,0,77,79,94,80,27,121.47,144,-12.00,-29.00,-955.00
2024-06-07 00:14:07.187610,0,0,-7,0,0,0,77,79,94,80,27,121.38,144,-8.00,27.00,-910.00
2024-06-07 00:14:07.384841,0,0,-7,0,0,0,77,79,94,80,27,121.43,144,3.00,-2.00,-994.00
2024-06-07 00:14:07.445513,0,0,-7,0,0,0,77,79,94,80,27,121.39,144,-44.00,-29.00,-1049.00
2024-06-07 00:14:07.445616,0,0,-7,0,0,0,77,79,94,80,27,121.39,144,33.00,-33.00,-1038.00
2024-06-07 00:14:07.609102,0,0,-7,0,0,0,77,79,94,80,27,121.39,144,12.00,-4.00,-1060.00
2024-06-07 00:14:07.654000,0,1,-7,0,0,0,76,79,94,80,27,121.32,145,-2.00,5.00,-975.00
2024-06-07 00:14:07.815866,0,0,-7,0,0,0,76,79,93,80,27,121.39,145,34.00,-19.00,-1057.00
2024-06-07 00:14:07.896099,0,0,-7,0,0,1,76,79,92,80,27,121.42,145,-17.00,-22.00,-993.00
2024-06-07 00:14:07.953603,0,0,-7,0,0,0,76,79,91,80,27,121.37,145,-3.00,4.00,-956.00
2024-06-07 00:14:08.112095,0,0,-7,0,0,1,76,79,90,80,27,121.36,145,-17.00,16.00,-1027.00
2024-06-07 00:14:08.255526,0,0,-7,0,0,1,76,79,89,80,27,121.42,145,-50.00,7.00,-1085.00
2024-06-07 00:14:08.259553,0,0,-7,0,0,0,76,79,89,70,27,121.30,145,3.00,-16.00,-969.00
2024-06-07 00:14:08.421592,0,0,-7,0,0,0,76,79,88,70,27,121.34,145,14.00,-9.00,-1012.00
2024-06-07 00:14:08.564752,0,0,-7,0,0,0,76,79,87,70,27,121.45,145,-32.00,29.00,-993.00
2024-06-07 00:14:08.565481,0,0,-7,0,0,0,76,79,87,70,27,121.34,145,0.00,14.00,-937.00
2024-06-07 00:14:08.726507,0,0,-7,0,0,0,77,78,86,70,27,121.37,146,10.00,-29.00,-1047.00
2024-06-07 00:14:08.869867,0,0,-7,0,0,0,77,78,85,70,27,121.41,146,40.00,-18.00,-944.00
2024-06-07 00:14:08.871942,0,0,-7,0,0,0,77,78,85,70,27,121.35,146,19.00,-17.00,-999.00
2024-06-07 00:14:09.033629,0,0,-7,0,0,0,77,78,84,70,27,121.32,146,20.00,-24.00,-921.00
2024-06-07 00:14:09.177035,0,0,-7,0,0,0,77,78,83,70,27,121.37,146,-56.00,6.00,-996.00
2024-06-07 00:14:09.181576,0,0,-7,0,0,0,77,78,83,70,27,121.35,146,7.00,-16.00,-1012.00
2024-06-07 00:14:09.340840,0,0,-7,0,0,0,77,78,82,70,27,121.33,146,-54.00,15.00,-964.00
2024-06-07 00:14:09.484167,0,0,-7,0,0,0,77,78,81,70,27,121.36,146,-40.00,50.00,-1041.00
2024-06-07 00:14:09.484366,0,0,-7,0,0,0,77,78,81,70,27,121.36,146,-24.00,9.00,-1029.00
2024-06-07 00:14:09.648090,0,0,-7,0,0,0,77,78,80,70,27,121.31,146,-23.00,5.00,-947.00
2024-06-07 00:14:09.802308,0,0,-7,0,0,0,77,78,80,70,27,121.36,147,-53.00,13.00,-960.00
2024-06-07 00:14:09.802770,0,0,-7,0,0,0,77,78,80,70,27,121.32,147,-24.00,6.00,-1036.00
2024-06-07 00:14:09.893423,0,0,-7,0,0,0,77,78,80,70,27,121.32,147,-28.00,11.00,-950.00
2024-06-07 00:14:09.993384,0,0,-7,0,0,0,77,78,80,70,27,121.30,147,0.00,-10.00,-1033.00
2024-06-07 00:14:10.151517,0,0,-7,0,0,0,77,78,80,70,27,121.34,147,-2.00,0.00,-941.00
2024-06-07 00:14:10.197400,0,0,-7,0,0,0,77,78,81,70,27,121.36,147,21.00,-20.00,-1096.00
2024-06-07 00:14:10.353884,0,0,-7,0,0,0,77,78,81,70,27,121.30,147,59.00,-26.00,-1047.00
2024-06-07 00:14:10.401388,0,0,-7,0,0,0,77,78,81,70,27,121.36,147,34.00,-39.00,-950.00
2024-06-07 00:14:10.558860,0,0,-7,0,0,0,77,78,82,70,27,121.39,147,33.00,-19.00,-1050.00
2024-06-07 00:14:10.605788,0,0,-7,0,0,0,77,78,82,70,27,121.36,147,43.00,-16.00,-1027.00
2024-06-07 00:14:10.764048,0,0,-7,0,0,0,76,79,83,70,27,121.32,148,-14.00,-17.00,-933.00
2024-06-07 00:14:10.809538,0,0,-7,0,0,0,76,79,83,70,27,121.35,148,-1.00,22.00,-926.00
2024-06-07 00:14:10.911437,0,0,-7,0,0,0,76,79,84,70,27,121.38,148,-9.00,-1.00,-944.00
2024-06-07 00:14:11.070991,0,0,-7,0,0,0,76,79,84,70,27,121.36,148,4.00,-16.00,-990.00
2024-06-07 00:14:11.115642,0,0,-7,0,0,0,76,79,84,70,27,121.36,148,4.00,16.00,-1024.00
2024-06-07 00:14:11.169589,0,0,-7,0,0,0,76,79,84,70,27,121.32,148,-26.00,-26.00,-998.00
2024-06-07 00:14:11.268437,0,0,-7,0,0,0,76,79,84,70,27,121.35,148,-33.00,19.00,-970.00
2024-06-07 00:14:11.377932,0,0,-7,0,0,0,76,79,84,70,27,121.30,148,19.00,5.00,-1034.00
2024-06-07 00:14:11.472498,0,0,-7,0,0,0,76,79,84,70,27,121.36,148,56.00,-47.00,-989.00
2024-06-07 00:14:11.574828,0,0,-7,0,0,0,76,79,83,70,27,121.35,148,25.00,-24.00,-972.00
2024-06-07 00:14:11.676773,0,0,-7,0,0,0,76,78,83,70,27,121.39,149,-72.00,26.00,-1050.00
2024-06-07 00:14:11.778514,0,0,-7,0,0,0,76,78,82,70,27,121.31,149,-3.00,-2.00,-1048.00
2024-06-07 00:14:11.880435,0,0,-7,0,0,0,76,78,82,70,27,121.35,149,-2.00,-2.00,-1010.00
2024-06-07 00:14:11.992464,0,0,-7,0,0,0,76,78,82,70,27,121.33,149,-39.00,10.00,-973.00
2024-06-07 00:14:12.084632,0,0,-7,0,0,0,76,78,83,70,27,121.31,149,13.00,-12.00,-948.00
2024-06-07 00:14:12.197140,0,0,-7,0,0,0,76,78,83,70,27,121.36,149,53.00,-39.00,-993.00
2024-06-07 00:14:12.288365,0,0,-7,0,0,0,76,78,83,70,27,121.39,149,14.00,20.00,-1001.00
2024-06-07 00:14:12.402759,0,0,-7,0,0,0,76,78,83,70,27,121.36,149,-1.00,-3.00,-1024.00
2024-06-07 00:14:12.492487,0,0,-7,0,0,0,76,78,84,70,27,121.44,149,-7.00,-18.00,-931.00
2024-06-07 00:14:12.606794,0,0,-7,0,0,0,76,78,85,70,27,121.41,149,11.00,-38.00,-970.00
2024-06-07 00:14:12.696906,0,0,-7,0,0,0,75,78,85,70,27,121.41,150,-22.00,-17.00,-943.00
2024-06-07 00:14:12.798137,0,0,-7,0,0,0,75,78,85,70,27,121.41,150,-72.00,17.00,-940.00
2024-06-07 00:14:12.900243,0,0,-7,0,0,0,75,78,86,70,27,121.46,150,0.00,8.00,-1043.00
2024-06-07 00:14:13.016242,0,0,-7,0,0,0,75,78,86,70,27,121.43,150,-31.00,-6.00,-1157.00
2024-06-07 00:14:13.104256,0,0,-7,0,0,0,75,78,88,70,27,121.50,150,-19.00,2.00,-1158.00
2024-06-07 00:14:13.221449,0,0,-7,0,0,-2,75,78,90,70,27,121.44,150,40.00,-25.00,-1128.00
2024-06-07 00:14:13.308180,0,0,-7,0,0,-3,75,78,93,80,27,121.49,150,-17.00,-4.00,-1084.00
2024-06-07 00:14:13.425807,0,0,-7,0,0,-4,75,78,97,80,27,121.51,150,3.00,-13.00,-1169.00
2024-06-07 00:14:13.512219,0,0,-7,0,0,-4,75,78,103,80,27,121.59,150,16.00,-4.00,-1007.00
2024-06-07 00:14:13.630619,0,0,-7,0,0,-5,75,78,109,90,27,121.65,150,16.00,-15.00,-975.00
2024-06-07 00:14:13.716199,0,0,-7,0,0,-5,76,77,115,100,27,121.64,151,-35.00,22.00,-961.00
2024-06-07 00:14:13.835913,0,0,-7,0,0,-5,76,77,121,100,27,121.70,151,6.00,11.00,-1000.00
2024-06-07 00:14:13.920110,0,0,-7,0,0,-5,76,77,127,110,27,121.76,151,7.00,-7.00,-953.00
2024-06-07 00:14:14.041417,0,0,-7,0,0,-6,76,77,134,110,27,121.83,151,39.00,-12.00,-859.00
2024-06-07 00:14:14.124096,0,0,-7,0,0,-5,76,77,139,120,27,121.93,151,34.00,-7.00,-960.00
2024-06-07 00:14:14.245366,0,0,-7,0,0,-5,76,77,144,130,27,121.95,151,-32.00,4.00,-927.00
2024-06-07 00:14:14.328363,0,0,-7,0,0,-4,76,77,150,130,27,121.94,151,0.00,7.00,-1002.00
2024-06-07 00:14:14.451163,0,0,-7,0,0,-4,76,77,154,140,27,122.02,151,-44.00,23.00,-1000.00
2024-06-07 00:14:14.532253,0,0,-7,0,0,-4,76,77,158,140,27,122.07,151,14.00,-25.00,-904.00
2024-06-07 00:14:14.584478,0,0,-7,0,0,-3,76,77,163,140,27,122.11,151,-21.00,-2.00,-918.00
2024-06-07 00:14:14.757713,0,0,-7,0,0,-3,75,77,168,150,27,122.07,152,18.00,-21.00,-1040.00
2024-06-07 00:14:14.839397,0,0,-7,0,0,-2,75,77,172,150,27,122.16,152,6.00,4.00,-847.00
2024-06-07 00:14:14.940310,0,0,-7,0,0,-2,75,77,176,150,27,122.12,152,-24.00,8.00,-977.00
2024-06-07 00:14:14.990995,0,0,-7,0,0,-2,75,77,179,160,27,122.21,152,23.00,-43.00,-990.00
2024-06-07 00:14:15.166664,0,0,-7,0,0,-2,75,77,182,160,27,122.25,152,-12.00,0.00,-900.00
2024-06-07 00:14:15.194949,0,0,-7,0,0,-2,75,77,183,160,27,122.20,152,46.00,-8.00,-975.00
2024-06-07 00:14:15.297162,0,0,-7,0,0,-1,75,77,185,170,27,122.31,152,17.00,17.00,-964.00
2024-06-07 00:14:15.473889,0,0,-7,0,0,-1,75,77,187,170,27,122.27,152,-19.00,31.00,-852.00
2024-06-07 00:14:15.501474,0,0,-7,0,0,-1,75,77,188,170,27,122.26,152,-7.00,-11.00,-1053.00
2024-06-07 00:14:15.679869,0,0,-7,0,0,0,75,77,187,170,27,122.29,152,-8.00,22.00,-970.00
2024-06-07 00:14:15.704984,0,0,-7,0,0,0,75,78,187,170,27,122.26,153,-11.00,-7.00,-1003.00
2024-06-07 00:14:15.883394,0,0,-7,0,0,0,75,78,188,170,27,122.28,153,40.00,-13.00,-957.00
2024-06-07 00:14:15.908868,0,0,-7,0,0,0,75,78,186,170,27,122.31,153,7.00,-35.00,-963.00
2024-06-07 00:14:16.088639,0,0,-7,0,0,0,75,78,184,170,27,122.30,153,-23.00,13.00,-1041.00
2024-06-07 00:14:16.113027,0,0,-7,0,0,0,75,78,185,170,27,122.23,153,-6.00,5.00,-930.00
2024-06-07 00:14:16.299110,0,0,-7,0,0,0,75,78,185,170,27,122.22,153,19.00,-4.00,-1062.00
2024-06-07 00:14:16.316960,0,0,-7,0,0,0,75,78,183,170,27,122.22,153,-62.00,37.00,-1044.00
2024-06-07 00:14:16.498489,0,0,-7,0,0,0,75,78,183,170,27,122.25,153,-1.00,-6.00,-1059.00
2024-06-07 00:14:16.520971,0,0,-7,0,0,0,75,78,182,170,27,122.19,153,-14.00,2.00,-961.00
2024-06-07 00:14:16.702825,0,0,-7,0,0,0,75,78,180,170,27,122.20,153,41.00,-13.00,-1027.00
2024-06-07 00:14:16.724898,0,0,-7,0,0,0,75,78,179,170,27,122.20,154,2.00,-17.00,-989.00
2024-06-07 00:14:16.907819,0,0,-7,0,0,0,75,78,178,170,27,122.13,154,-16.00,27.00,-1001.00
2024-06-07 00:14:16.928969,0,0,-7,0,0,0,75,78,177,170,27,122.20,154,14.00,3.00,-977.00
2024-06-07 00:14:17.030951,0,-1,-7,0,0,0,75,78,176,170,27,122.16,154,12.00,5.00,-1027.00
2024-06-07 00:14:17.214936,0,-1,-7,0,0,0,75,78,174,160,27,122.13,154,-23.00,26.00,-1051.00
2024-06-07 00:14:17.239239,0,0,-7,0,0,0,75,78,174,160,27,122.22,154,36.00,-9.00,-1028.00
2024-06-07 00:14:17.343243,0,0,-7,0,0,0,75,78,175,160,27,122.20,154,26.00,-21.00,-1084.00
2024-06-07 00:14:17.438770,0,0,-7,0,0,0,75,78,176,160,27,122.14,154,-21.00,-2.00,-1010.00
2024-06-07 00:14:17.624015,0,0,-7,0,0,0,75,78,176,160,27,122.16,154,7.00,15.00,-917.00
2024-06-07 00:14:17.642741,0,0,-7,0,0,0,75,78,175,160,27,122.12,154,9.00,-28.00,-946.00
2024-06-07 00:14:17.828804,0,0,-7,0,0,0,75,77,172,160,27,122.14,155,19.00,-9.00,-923.00
2024-06-07 00:14:17.846735,0,0,-7,0,0,1,75,77,172,160,27,122.12,155,19.00,-32.00,-888.00
2024-06-07 00:14:18.014563,0,0,-7,0,0,1,75,77,168,160,27,122.07,155,1.00,11.00,-969.00
2024-06-07 00:14:18.050929,0,0,-7,0,0,2,75,77,166,160,27,122.09,155,24.00,12.00,-1026.00
2024-06-07 00:14:18.239962,0,0,-7,0,0,2,75,77,163,150,27,122.03,155,12.00,4.00,-955.00
2024-06-07 00:14:18.255813,0,0,-7,0,0,3,75,77,161,150,27,121.97,155,-34.00,40.00,-1009.00
2024-06-07 00:14:18.443636,0,0,-7,0,0,3,75,77,156,150,27,121.98,155,-38.00,-8.00,-965.00
2024-06-07 00:14:18.443687,-1,0,-7,0,0,3,75,77,154,140,27,121.91,155,16.00,-24.00,-1024.00
2024-06-07 00:14:18.510030,-1,0,-7,0,0,3,75,77,150,140,27,121.96,155,24.00,13.00,-898.00
2024-06-07 00:14:18.648236,-1,0,-7,0,0,3,75,77,147,140,27,121.88,155,28.00,16.00,-1035.00
2024-06-07 00:14:18.764661,0,0,-7,0,0,2,75,77,144,130,27,121.87,156,7.00,-5.00,-1033.00
2024-06-07 00:14:18.955678,0,0,-7,0,0,2,75,77,141,130,27,121.85,156,15.00,-10.00,-866.00
2024-06-07 00:14:18.968825,0,0,-7,0,0,2,75,77,140,130,27,121.80,156,16.00,-19.00,-1035.00
2024-06-07 00:14:19.160014,0,0,-7,0,0,2,75,77,138,130,27,121.79,156,24.00,20.00,-915.00
2024-06-07 00:14:19.160076,0,0,-7,0,0,1,75,77,135,120,27,121.77,156,15.00,16.00,-998.00
2024-06-07 00:14:19.223634,0,0,-7,0,0,1,75,77,134,120,27,121.78,156,-28.00,10.00,-1086.00
2024-06-07 00:14:19.364742,0,0,-7,0,0,1,75,77,133,120,27,121.73,156,48.00,-12.00,-1066.00
2024-06-07 00:14:19.427598,0,0,-7,0,0,1,75,77,131,120,27,121.75,156,-39.00,33.00,-987.00
2024-06-07 00:14:19.569540,0,0,-7,0,0,0,75,77,129,120,27,121.73,156,17.00,11.00,-944.00
2024-06-07 00:14:19.631556,0,0,-7,0,0,0,75,77,128,120,27,121.68,157,10.00,-28.00,-1063.00
2024-06-07 00:14:19.774965,0,0,-7,0,0,1,75,77,125,120,27,121.65,157,11.00,7.00,-988.00
2024-06-07 00:14:19.835860,0,0,-7,0,0,1,75,77,123,110,27,121.71,157,9.00,18.00,-1018.00
2024-06-07 00:14:19.937886,0,0,-7,0,0,0,75,77,122,110,27,121.69,157,18.00,11.00,-1024.00
2024-06-07 00:14:20.039759,0,0,-7,0,0,0,75,77,120,110,27,121.73,157,26.00,-22.00,-1004.00
2024-06-07 00:14:20.184109,0,0,-7,0,0,0,75,77,120,110,27,121.64,157,-1.00,13.00,-944.00
2024-06-07 00:14:20.243804,0,0,-7,0,0,0,75,77,119,110,27,121.61,157,43.00,10.00,-965.00
2024-06-07 00:14:20.388758,0,0,-7,0,0,0,75,77,119,110,27,121.66,157,6.00,23.00,-962.00
2024-06-07 00:14:20.447952,0,0,-7,0,0,0,75,77,118,110,27,121.55,157,37.00,-3.00,-1055.00
2024-06-07 00:14:20.594073,0,0,-7,0,0,0,75,77,118,110,27,121.64,157,-26.00,-19.00,-1022.00
2024-06-07 00:14:20.651688,0,0,-7,0,0,0,75,77,119,110,27,121.62,158,-15.00,3.00,-1016.00
2024-06-07 00:14:20.753674,0,0,-7,0,0,0,75,77,119,110,27,121.65,158,28.00,-14.00,-1033.00
2024-06-07 00:14:20.900877,0,1,-7,0,0,0,75,77,118,110,27,121.65,158,12.00,-12.00,-991.00
2024-06-07 00:14:20.957531,0,1,-7,0,0,0,75,77,118,110,27,121.56,158,-17.00,9.00,-962.00
2024-06-07 00:14:21.059382,0,1,-7,0,0,0,75,77,118,110,27,121.64,158,4.00,-19.00,-1012.00
2024-06-07 00:14:21.208459,0,1,-7,0,0,0,75,77,119,110,27,121.65,158,1.00,-11.00,-1008.00
2024-06-07 00:14:21.263566,0,1,-7,0,0,0,75,77,119,110,27,121.61,158,12.00,15.00,-1008.00
2024-06-07 00:14:21.413626,0,0,-7,0,0,0,75,77,120,110,27,121.71,158,-10.00,6.00,-935.00
2024-06-07 00:14:21.467555,0,0,-7,0,0,0,75,77,119,110,27,121.72,158,-30.00,18.00,-1049.00
2024-06-07 00:14:21.617596,0,0,-7,0,0,0,75,77,120,110,27,121.60,158,0.00,-4.00,-1021.00
2024-06-07 00:14:21.671690,0,0,-7,0,0,0,75,77,120,110,27,121.65,159,29.00,-33.00,-986.00
2024-06-07 00:14:21.778434,0,0,-7,0,0,0,75,77,121,110,27,121.59,159,-35.00,22.00,-1041.00
2024-06-07 00:14:21.875670,0,0,-7,0,0,0,75,77,121,110,27,121.62,159,-40.00,23.00,-937.00
2024-06-07 00:14:22.253540,-3,-1,-7,0,0,0,75,77,121,110,27,121.57,159,-43.00,31.00,-977.00
2024-06-07 00:14:22.253611,-8,-2,-7,0,0,0,75,77,123,110,27,121.57,159,-41.00,46.00,-998.00
2024-06-07 00:14:22.253826,-8,-1,-7,2,0,0,75,77,124,110,27,121.64,159,36.00,6.00,-977.00
2024-06-07 00:14:22.365187,-8,-1,-7,3,0,0,75,77,124,110,27,121.65,159,44.00,-18.00,-939.00
2024-06-07 00:14:22.385474,-8,-1,-7,4,0,0,75,77,123,110,27,121.58,159,-9.00,39.00,-995.00
2024-06-07 00:14:22.526376,-8,0,-7,5,0,0,75,77,123,110,27,121.58,159,-77.00,12.00,-998.00
2024-06-07 00:14:22.618334,-7,0,-7,6,-1,0,75,77,123,110,27,121.66,159,-7.00,-12.00,-1008.00
2024-06-07 00:14:22.642753,-5,0,-7,7,-1,0,75,77,121,110,27,121.53,160,-72.00,-11.00,-999.00
2024-06-07 00:14:22.801462,-5,0,-7,7,-1,0,75,77,121,110,27,121.52,160,-32.00,-21.00,-1022.00
2024-06-07 00:14:22.873135,-3,0,-7,7,-1,0,75,77,121,110,27,121.50,160,-47.00,-2.00,-967.00
2024-06-07 00:14:22.946203,0,0,-7,8,-1,0,75,77,122,110,27,121.46,160,-66.00,28.00,-972.00
2024-06-07 00:14:23.164289,3,1,-7,7,-1,0,75,77,124,110,27,121.53,160,17.00,-39.00,-1073.00
2024-06-07 00:14:23.164894,6,2,-7,6,-1,0,75,77,126,110,27,121.55,160,-15.00,-54.00,-1019.00
2024-06-07 00:14:23.253994,5,1,-7,5,0,0,75,77,125,110,27,121.51,160,-23.00,-21.00,-1046.00
2024-06-07 00:14:23.354335,3,1,-7,4,0,0,75,77,126,110,27,121.54,160,-34.00,4.00,-978.00
2024-06-07 00:14:23.471352,1,0,-7,3,0,0,75,77,126,110,27,121.61,160,-23.00,0.00,-1012.00
2024-06-07 00:14:23.614805,0,0,-7,2,0,0,75,77,126,110,27,121.66,160,-13.00,-22.00,-1003.00
2024-06-07 00:14:23.660293,0,0,-7,2,0,0,75,77,127,110,27,121.64,161,7.00,-19.00,-968.00
2024-06-07 00:14:23.779009,0,0,-7,2,0,0,75,77,126,110,27,121.60,161,-41.00,0.00,-1001.00
2024-06-07 00:14:23.921928,0,0,-7,2,0,0,75,77,127,110,27,121.67,161,15.00,-39.00,-910.00
2024-06-07 00:14:23.966172,0,0,-7,2,0,0,75,77,126,110,27,121.61,161,-13.00,6.00,-972.00
2024-06-07 00:14:24.086153,0,-1,-7,2,0,0,75,77,126,110,27,121.65,161,2.00,-23.00,-935.00
2024-06-07 00:14:24.240465,0,-3,-7,1,0,0,75,77,126,110,27,121.61,161,-16.00,13.00,-961.00
2024-06-07 00:14:24.272238,0,-2,-7,1,-1,0,75,77,126,110,27,121.63,161,1.00,-22.00,-1044.00
2024-06-07 00:14:24.382136,0,1,-7,1,-1,0,75,77,125,110,27,121.59,161,16.00,-24.00,-983.00
2024-06-07 00:14:24.476299,3,3,-7,1,-1,0,75,77,127,110,27,121.63,161,0.00,-7.00,-1037.00
2024-06-07 00:14:24.578200,2,1,-7,0,0,0,75,77,127,110,27,121.53,161,37.00,1.00,-1050.00
2024-06-07 00:14:24.680635,0,0,-7,0,0,0,75,77,128,110,27,121.66,162,41.00,-8.00,-1008.00
2024-06-07 00:14:24.782659,0,0,-7,0,0,0,74,78,128,110,27,121.63,162,37.00,-4.00,-913.00
2024-06-07 00:14:24.894320,0,0,-7,0,0,0,74,78,129,110,27,121.56,162,20.00,-19.00,-999.00
2024-06-07 00:14:24.986234,0,0,-7,0,0,0,74,78,129,110,27,121.65,162,25.00,-35.00,-990.00
2024-06-07 00:14:25.099063,0,0,-7,0,0,0,74,78,129,110,27,121.65,162,5.00,-13.00,-961.00
2024-06-07 00:14:25.190080,0,0,-7,0,0,0,74,78,130,110,27,121.61,162,-22.00,8.00,-964.00
2024-06-07 00:14:25.304175,0,0,-7,0,0,0,74,78,130,110,27,121.65,162,0.00,-6.00,-992.00
2024-06-07 00:14:25.394137,0,0,-7,0,0,0,74,78,129,110,27,121.59,162,7.00,0.00,-1016.00
2024-06-07 00:14:25.508940,0,0,-7,0,0,0,74,78,129,110,27,121.65,162,-48.00,-8.00,-974.00
2024-06-07 00:14:25.598279,0,0,-7,0,0,0,74,78,128,110,27,121.59,162,16.00,-17.00,-1036.00
2024-06-07 00:14:25.713973,0,0,-7,0,0,0,74,78,128,110,27,121.63,163,38.00,5.00,-943.00
2024-06-07 00:14:25.802969,0,0,-7,0,0,0,75,76,128,110,27,121.64,163,13.00,-18.00,-990.00
2024-06-07 00:14:25.918187,0,0,-7,0,0,0,75,76,127,110,27,121.57,163,-24.00,-1.00,-1047.00
2024-06-07 00:14:26.006075,0,0,-7,0,0,0,75,76,127,110,27,121.57,163,0.00,-10.00,-997.00
2024-06-07 00:14:26.123219,0,0,-7,0,0,0,75,76,127,110,27,121.60,163,21.00,2.00,-1092.00
2024-06-07 00:14:26.210103,0,0,-7,0,0,0,75,76,127,110,27,121.59,163,24.00,-11.00,-1014.00
2024-06-07 00:14:26.328205,0,0,-7,0,0,0,75,76,127,110,27,121.54,163,-17.00,23.00,-939.00
2024-06-07 00:14:26.414079,0,0,-7,0,0,0,75,76,127,110,27,121.60,163,3.00,4.00,-1012.00
2024-06-07 00:14:26.465421,0,0,-7,0,0,0,75,76,127,110,27,121.57,163,0.00,-8.00,-1043.00
2024-06-07 00:14:26.581968,0,0,-7,0,0,0,75,76,127,110,27,121.53,163,27.00,-17.00,-957.00
2024-06-07 00:14:26.669336,0,0,-7,0,0,0,75,76,128,110,27,121.50,164,18.00,6.00,-1001.00
2024-06-07 00:14:26.771020,2,0,-7,0,0,0,75,76,128,110,27,121.53,164,-41.00,34.00,-907.00
2024-06-07 00:14:26.941961,8,0,-7,0,0,0,75,76,129,110,27,121.58,164,21.00,-32.00,-1050.00
2024-06-07 00:14:26.980438,8,0,-7,-1,0,0,75,76,127,110,27,121.56,164,15.00,-30.00,-986.00
2024-06-07 00:14:27.077067,8,0,-7,-3,0,0,75,76,127,110,27,121.53,164,39.00,19.00,-930.00
2024-06-07 00:14:27.249398,8,0,-7,-4,0,0,75,76,126,110,27,121.54,164,43.00,-27.00,-1099.00
2024-06-07 00:14:27.281001,7,0,-7,-6,0,0,75,76,124,110,27,121.54,164,11.00,-15.00,-907.00
2024-06-07 00:14:27.453947,6,0,-7,-7,0,0,75,76,123,110,27,121.48,164,57.00,-11.00,-982.00
2024-06-07 00:14:27.485036,5,1,-7,-7,0,0,75,76,119,110,27,121.51,164,18.00,12.00,-1057.00
2024-06-07 00:14:27.659101,4,1,-7,-7,0,0,75,76,120,110,27,121.46,164,43.00,1.00,-1000.00
2024-06-07 00:14:27.693007,1,1,-7,-7,0,0,75,76,119,110,27,121.55,165,89.00,-20.00,-1013.00
2024-06-07 00:14:27.790883,-1,1,-7,-7,1,0,74,77,118,110,27,121.47,165,80.00,-15.00,-969.00
2024-06-07 00:14:27.966651,-3,0,-7,-6,1,0,74,77,117,110,27,121.47,165,46.00,21.00,-936.00
2024-06-07 00:14:27.994804,-4,0,-7,-5,1,0,74,77,117,110,27,121.49,165,79.00,-49.00,-1018.00
2024-06-07 00:14:28.170756,-3,0,-7,-4,0,0,74,77,118,110,27,121.49,165,71.00,-11.00,-1077.00
2024-06-07 00:14:28.198835,-1,-1,-7,-3,0,0,74,77,118,110,27,121.57,165,53.00,-36.00,-1017.00
2024-06-07 00:14:28.375567,0,0,-7,-3,0,0,74,77,119,110,27,121.51,165,37.00,-19.00,-979.00
2024-06-07 00:14:28.402915,0,0,-7,-3,0,0,74,77,118,110,27,121.54,165,33.00,-20.00,-1005.00
2024-06-07 00:14:28.580670,0,0,-7,-3,0,0,74,77,119,110,27,121.52,165,11.00,-13.00,-978.00
2024-06-07 00:14:28.606902,0,0,-7,-2,0,0,74,77,119,110,27,121.48,165,-7.00,31.00,-1007.00
2024-06-07 00:14:28.785692,0,0,-7,-2,0,0,74,77,119,110,27,121.54,166,30.00,-32.00,-989.00
2024-06-07 00:14:28.810844,0,0,-7,-2,0,0,75,77,120,110,27,121.48,166,31.00,20.00,-914.00
2024-06-07 00:14:28.990497,-5,0,-7,-2,0,0,75,77,119,110,27,121.47,166,32.00,21.00,-912.00
2024-06-07 00:14:29.018744,-4,0,-7,-1,0,0,75,77,119,110,27,121.41,166,54.00,14.00,-882.00
2024-06-07 00:14:29.117385,-2,0,-7,0,0,0,75,77,119,110,27,121.45,166,18.00,-35.00,-1099.00
2024-06-07 00:14:29.297407,-1,0,-7,0,0,0,75,77,119,110,27,121.46,166,2.00,-19.00,-1002.00
2024-06-07 00:14:29.320674,0,0,-7,0,0,0,75,77,119,110,27,121.52,166,-10.00,-3.00,-1067.00
2024-06-07 00:14:29.502192,0,0,-7,0,0,0,75,77,119,110,27,121.43,166,-30.00,6.00,-929.00
2024-06-07 00:14:29.524730,0,0,-7,0,0,0,75,77,118,110,27,121.41,166,17.00,-5.00,-939.00
2024-06-07 00:14:29.707251,0,0,-7,0,0,0,75,77,119,110,27,121.46,166,-21.00,-22.00,-937.00
2024-06-07 00:14:29.728736,0,0,-7,0,0,0,75,77,119,110,27,121.51,167,12.00,-1.00,-1024.00
2024-06-07 00:14:29.911606,0,0,-7,0,0,0,75,77,119,110,27,121.48,167,-24.00,34.00,-965.00
2024-06-07 00:14:29.933562,0,0,-7,0,0,0,75,77,119,110,27,121.48,167,12.00,-3.00,-981.00
2024-06-07 00:14:30.036250,0,0,-7,0,0,0,75,77,119,110,27,121.46,167,53.00,3.00,-1016.00
2024-06-07 00:14:30.218781,0,0,-7,0,0,0,75,77,118,110,27,121.43,167,2.00,29.00,-965.00
2024-06-07 00:14:30.241409,0,0,-7,0,0,0,75,77,119,110,27,121.52,167,15.00,-4.00,-957.00
2024-06-07 00:14:30.341846,0,0,-7,0,0,0,75,77,119,110,27,121.51,167,-31.00,18.00,-1001.00
2024-06-07 00:14:30.526335,0,0,-7,0,0,0,75,77,121,110,27,121.51,167,12.00,-16.00,-984.00
2024-06-07 00:14:30.545707,0,0,-7,0,0,0,75,77,121,110,27,121.54,167,22.00,-25.00,-1073.00
2024-06-07 00:14:30.730898,0,0,-7,0,0,0,75,77,121,110,27,121.53,167,-12.00,28.00,-1031.00
2024-06-07 00:14:30.731126,0,0,-7,0,0,0,75,77,122,110,27,121.58,168,20.00,-39.00,-967.00
2024-06-07 00:14:30.853987,0,0,-7,0,0,0,74,77,123,110,27,121.52,168,-13.00,-42.00,-1004.00
2024-06-07 00:14:30.953647,0,0,-7,0,0,0,74,77,124,110,27,121.54,168,-28.00,9.00,-903.00
2024-06-07 00:14:31.009328,0,0,-7,0,0,0,74,77,124,110,27,121.42,168,83.00,-10.00,-967.00
2024-06-07 00:14:31.106662,0,0,-7,0,0,0,74,77,125,110,27,121.54,168,9.00,-32.00,-986.00
2024-06-07 00:14:31.243129,0,0,-7,0,0,0,74,77,124,110,27,121.56,168,5.00,1.00,-956.00
2024-06-07 00:14:31.310778,0,-7,-7,0,0,0,74,77,125,110,27,121.53,168,-2.00,-29.00,-967.00
2024-06-07 00:14:31.447492,0,-8,-7,0,-1,0,74,77,124,110,27,121.56,168,-31.00,21.00,-958.00
2024-06-07 00:14:31.514689,0,-5,-7,0,-2,0,74,77,124,110,27,121.49,168,23.00,30.00,-1079.00
2024-06-07 00:14:31.652264,0,-3,-7,0,-3,0,74,77,123,110,27,121.47,168,-5.00,55.00,-878.00
2024-06-07 00:14:31.718678,0,0,-7,0,-4,0,74,77,123,110,27,121.54,169,0.00,32.00,-908.00
2024-06-07 00:14:31.859786,0,1,-7,0,-3,0,75,77,122,110,27,121.46,169,-14.00,30.00,-1022.00
2024-06-07 00:14:31.922903,0,1,-7,0,-3,0,75,77,121,110,27,121.51,169,25.00,35.00,-921.00
2024-06-07 00:14:32.063953,0,0,-7,0,-2,0,75,77,121,110,27,121.50,169,11.00,8.00,-945.00
2024-06-07 00:14:32.127476,0,0,-7,0,-2,0,75,77,121,110,27,121.50,169,27.00,29.00,-1023.00
2024-06-07 00:14:32.266674,0,0,-7,0,-2,0,75,77,120,110,27,121.48,169,0.00,-32.00,-1045.00
2024-06-07 00:14:32.330524,0,0,-7,0,-2,0,75,77,119,110,27,121.49,169,13.00,20.00,-981.00
2024-06-07 00:14:32.446537,0,0,-7,0,-2,0,75,77,119,110,27,121.47,169,-8.00,10.00,-1023.00
2024-06-07 00:14:32.534864,0,0,-7,0,-2,0,75,77,118,110,27,121.42,169,0.00,0.00,-1123.00
2024-06-07 00:14:32.676885,0,0,-7,0,-2,0,75,77,118,110,27,121.43,169,-12.00,20.00,-1055.00
2024-06-07 00:14:32.738564,0,0,-7,0,-2,0,75,77,119,110,27,121.39,170,8.00,-21.00,-1101.00
2024-06-07 00:14:32.881513,0,0,-7,0,-2,0,75,77,118,110,27,121.41,170,-18.00,13.00,-994.00
2024-06-07 00:14:32.942613,0,0,-7,0,-1,0,75,77,118,110,27,121.38,170,15.00,42.00,-952.00
2024-06-07 00:14:33.044571,0,0,-7,0,-1,0,75,77,119,110,27,121.39,170,27.00,-20.00,-885.00
2024-06-07 00:14:33.188480,0,3,-7,0,-1,0,75,77,119,110,27,121.41,170,-15.00,27.00,-990.00
2024-06-07 00:14:33.248491,0,1,-7,0,0,0,75,77,118,110,27,121.41,170,9.00,0.00,-1029.00
2024-06-07 00:14:33.350665,0,0,-7,0,0,0,75,77,119,110,27,121.40,170,-19.00,17.00,-1066.00
2024-06-07 00:14:33.495401,0,0,-7,0,0,0,75,77,119,110,26,121.36,170,-33.00,29.00,-959.00
2024-06-07 00:14:33.554583,0,0,-7,0,0,0,75,77,119,110,26,121.37,170,6.00,-2.00,-1023.00
2024-06-07 00:14:33.700867,0,0,-7,0,0,0,75,77,119,110,26,121.37,171,20.00,18.00,-1074.00
2024-06-07 00:14:33.758579,0,0,-7,0,0,0,75,77,118,110,26,121.35,171,6.00,23.00,-979.00
2024-06-07 00:14:33.905033,0,0,-7,0,0,0,74,76,118,110,26,121.31,171,11.00,-14.00,-976.00
2024-06-07 00:14:33.962448,0,0,-7,0,0,0,74,76,117,110,26,121.40,171,-7.00,-38.00,-977.00
2024-06-07 00:14:34.110291,0,0,-7,0,0,0,74,76,117,110,26,121.35,171,-31.00,-2.00,-984.00
2024-06-07 00:14:34.166576,0,0,-7,0,0,0,74,76,116,110,26,121.36,171,58.00,-48.00,-1015.00
2024-06-07 00:14:34.314720,0,0,-7,0,0,0,74,76,117,110,26,121.40,171,-27.00,16.00,-1043.00
2024-06-07 00:14:34.370860,0,0,-7,0,0,0,74,76,117,110,26,121.40,171,17.00,-46.00,-1043.00
2024-06-07 00:14:34.520192,0,0,-7,0,0,0,74,76,117,110,26,121.35,171,-8.00,-8.00,-983.00
2024-06-07 00:14:34.523309,0,0,-7,0,0,0,74,76,117,110,26,121.39,171,11.00,-11.00,-1062.00
2024-06-07 00:14:34.629028,0,0,-7,0,0,0,74,76,118,110,26,121.36,172,46.00,-7.00,-949.00
2024-06-07 00:14:34.727371,0,0,-7,0,0,0,74,76,119,110,26,121.43,172,48.00,-36.00,-1028.00
2024-06-07 00:14:34.829378,0,0,-7,0,0,0,74,76,119,110,26,121.38,172,24.00,-19.00,-1026.00
2024-06-07 00:14:35.031554,0,0,-7,0,0,0,74,76,120,110,26,121.46,172,31.00,-10.00,-1014.00
2024-06-07 00:14:35.034392,0,0,-7,0,0,0,74,76,121,110,26,121.41,172,0.00,-5.00,-993.00
2024-06-07 00:14:35.137184,0,0,-7,0,0,0,74,76,122,110,26,121.38,172,-23.00,23.00,-949.00
2024-06-07 00:14:35.238379,0,0,-7,0,0,0,74,76,124,110,26,121.51,172,16.00,1.00,-990.00
2024-06-07 00:14:35.340320,0,0,-7,0,0,0,74,76,125,110,26,121.45,172,11.00,20.00,-1009.00
2024-06-07 00:14:35.543224,0,1,-7,0,0,0,74,76,126,110,25,121.44,172,-20.00,-15.00,-929.00
2024-06-07 00:14:35.544228,0,8,-7,0,0,0,74,76,129,110,25,121.48,172,10.00,-43.00,-1018.00
2024-06-07 00:14:35.748006,0,8,-7,0,2,0,74,76,130,110,25,121.47,173,3.00,-38.00,-1014.00
2024-06-07 00:14:35.748196,0,5,-7,0,3,0,74,76,128,110,25,121.47,173,9.00,-22.00,-1022.00
2024-06-07 00:14:35.850384,1,2,-7,0,3,0,74,77,127,110,25,121.48,173,57.00,-27.00,-903.00
2024-06-07 00:14:35.952940,1,0,-7,0,4,0,74,77,126,110,25,121.53,173,-8.00,-29.00,-1020.00
2024-06-07 00:14:36.054864,0,-1,-7,0,3,0,74,77,125,110,25,121.52,173,71.00,-67.00,-962.00
2024-06-07 00:14:36.158089,0,-1,-7,0,3,0,74,77,125,110,25,121.49,173,7.00,-19.00,-1056.00
2024-06-07 00:14:36.258075,0,0,-7,0,2,0,74,77,124,110,25,121.51,173,-9.00,-17.00,-855.00
2024-06-07 00:14:36.362391,0,0,-7,0,2,0,74,77,122,110,25,121.49,173,14.00,-29.00,-894.00
2024-06-07 00:14:36.462134,0,0,-7,0,2,0,74,77,121,110,25,121.46,173,8.00,-59.00,-1046.00
2024-06-07 00:14:36.567124,0,1,-7,0,2,0,74,77,121,110,25,121.55,173,5.00,-35.00,-986.00
2024-06-07 00:14:36.666204,0,1,-7,0,2,0,74,77,120,110,25,121.47,174,-13.00,-4.00,-966.00
2024-06-07 00:14:36.768159,0,1,-7,0,2,0,74,77,121,110,25,121.47,174,3.00,-25.00,-1010.00
2024-06-07 00:14:36.874335,0,0,-7,0,2,0,73,76,121,110,25,121.43,174,2.00,-16.00,-1049.00
2024-06-07 00:14:36.972524,0,-1,-7,0,2,0,73,76,121,110,25,121.46,174,-11.00,-18.00,-956.00
2024-06-07 00:14:37.110645,0,-5,-7,0,2,0,73,76,122,110,25,121.49,174,-35.00,21.00,-1036.00
2024-06-07 00:14:37.176183,0,-3,-7,0,1,0,73,76,122,110,25,121.49,174,2.00,10.00,-929.00
2024-06-07 00:14:37.297498,0,-1,-7,0,0,0,73,76,122,110,25,121.50,174,48.00,-52.00,-1009.00
2024-06-07 00:14:37.409090,0,0,-7,0,0,0,73,76,123,110,25,121.53,174,19.00,-35.00,-1014.00
2024-06-07 00:14:37.483076,0,0,-7,0,0,0,73,76,123,110,25,121.42,174,21.00,-47.00,-996.00
2024-06-07 00:14:37.591140,0,0,-7,0,0,0,73,76,122,110,25,121.47,174,19.00,-42.00,-1000.00
2024-06-07 00:14:37.762953,0,0,-7,0,0,0,73,76,122,110,25,121.46,175,40.00,-48.00,-959.00
2024-06-07 00:14:37.787943,0,-1,-7,0,0,0,73,76,121,110,25,121.51,175,-7.00,7.00,-999.00
2024-06-07 00:14:37.921800,-1,-1,-7,0,0,0,75,77,120,110,25,121.47,175,-16.00,-32.00,-1026.00
2024-06-07 00:14:37.992213,-1,-1,-7,0,0,0,75,77,120,110,25,121.42,175,-2.00,7.00,-970.00
2024-06-07 00:14:38.103781,0,0,-7,0,0,0,75,77,119,110,25,121.45,175,-4.00,13.00,-1029.00
2024-06-07 00:14:38.329814,0,0,-7,0,0,0,75,77,119,110,25,121.48,175,-9.00,-2.00,-991.00
2024-06-07 00:14:38.329898,0,0,-7,0,0,0,75,77,119,110,25,121.42,175,-20.00,-1.00,-1069.00
2024-06-07 00:14:38.349377,0,0,-7,0,0,0,75,77,120,110,25,121.42,175,6.00,-13.00,-1049.00
2024-06-07 00:14:38.524007,0,0,-7,0,0,0,75,77,120,110,24,121.54,175,41.00,-29.00,-913.00
2024-06-07 00:14:38.667130,0,0,-7,0,0,0,75,77,121,110,24,121.46,175,-14.00,13.00,-927.00
2024-06-07 00:14:38.667331,0,0,-7,0,0,0,75,77,122,110,24,121.51,176,29.00,-19.00,-1055.00
2024-06-07 00:14:38.830899,0,0,-7,0,0,0,75,77,123,110,24,121.49,176,-6.00,-8.00,-1013.00
2024-06-07 00:14:38.974140,0,0,-7,0,0,0,75,77,123,110,24,121.50,176,-11.00,-14.00,-998.00
2024-06-07 00:14:38.974465,0,0,-7,0,0,0,75,77,124,110,24,121.48,176,-25.00,5.00,-988.00
2024-06-07 00:14:39.138088,0,0,-7,0,0,0,75,77,124,110,24,121.53,176,-31.00,26.00,-995.00
2024-06-07 00:14:39.292331,0,0,-7,0,0,0,75,77,125,110,24,121.51,176,23.00,-52.00,-1046.00
2024-06-07 00:14:39.292542,0,0,-7,0,0,0,75,77,125,110,24,121.60,176,28.00,-43.00,-1004.00
2024-06-07 00:14:39.369914,0,0,-7,0,0,0,75,77,126,110,24,121.51,176,0.00,-20.00,-959.00
2024-06-07 00:14:39.537234,0,0,-5,0,0,0,75,77,125,110,24,121.47,176,57.00,-54.00,-972.00
2024-06-07 00:14:39.572890,0,0,0,0,0,0,75,77,125,110,24,121.49,176,39.00,-22.00,-985.00
2024-06-07 00:14:39.741726,0,0,6,0,0,0,75,77,124,110,24,121.49,177,18.00,-6.00,-920.00
2024-06-07 00:14:39.776837,0,0,13,0,0,0,75,77,123,110,24,121.48,177,-11.00,22.00,-989.00
2024-06-07 00:14:39.946310,0,0,19,0,0,0,74,76,123,110,24,121.50,177,-11.00,-7.00,-1086.00
2024-06-07 00:14:39.980834,0,0,25,0,0,0,74,76,123,110,24,121.41,177,12.00,-44.00,-1023.00
2024-06-07 00:14:40.151117,0,0,31,0,0,0,74,76,122,110,24,121.47,177,-4.00,-1.00,-1116.00
2024-06-07 00:14:40.184789,0,0,37,0,0,0,74,76,122,110,24,121.46,177,0.00,-39.00,-1088.00
2024-06-07 00:14:40.356402,0,0,43,0,0,0,74,76,122,110,24,121.53,177,29.00,-33.00,-948.00
2024-06-07 00:14:40.388743,0,0,49,0,0,0,74,76,122,110,24,121.51,177,-27.00,47.00,-974.00
2024-06-07 00:14:40.562975,0,0,55,0,0,0,74,76,123,110,24,121.54,177,-36.00,25.00,-1021.00
2024-06-07 00:14:40.592735,0,0,62,0,0,0,74,76,123,110,24,121.47,177,-33.00,35.00,-911.00
2024-06-07 00:14:40.765458,0,0,68,0,0,0,74,76,123,110,24,121.45,178,-15.00,-9.00,-911.00
2024-06-07 00:14:40.797035,0,0,74,0,0,0,74,76,123,110,24,121.51,178,32.00,4.00,-1001.00
2024-06-07 00:14:40.970586,0,0,80,0,0,0,74,77,123,110,24,121.47,178,-25.00,30.00,-1021.00
2024-06-07 00:14:41.000950,0,0,86,0,0,0,74,77,123,110,24,121.49,178,40.00,-9.00,-1044.00
2024-06-07 00:14:41.103064,0,0,92,0,0,0,74,77,123,110,24,121.48,178,6.00,-20.00,-963.00
2024-06-07 00:14:41.277374,0,0,98,0,0,0,74,77,122,110,24,121.43,178,14.00,-26.00,-1055.00
2024-06-07 00:14:41.306722,0,0,104,0,0,0,74,77,122,110,24,121.50,178,-29.00,27.00,-1104.00
2024-06-07 00:14:41.482235,0,0,110,0,0,0,74,77,122,110,24,121.53,178,18.00,10.00,-1099.00
2024-06-07 00:14:41.510700,0,0,116,0,0,0,74,77,122,110,24,121.53,178,-21.00,11.00,-1005.00
2024-06-07 00:14:41.688240,0,0,122,0,0,0,74,77,121,110,24,121.46,178,21.00,-5.00,-991.00
2024-06-07 00:14:41.714722,0,0,128,0,0,0,74,77,122,110,24,121.44,179,-7.00,22.00,-921.00
2024-06-07 00:14:41.892482,0,1,134,0,0,0,74,77,121,110,24,121.51,179,23.00,-19.00,-999.00
2024-06-07 00:14:41.918765,0,0,140,0,0,0,74,77,121,110,24,121.55,179,-20.00,19.00,-983.00
2024-06-07 00:14:42.023311,0,0,146,0,0,0,74,77,121,110,24,121.44,179,17.00,4.00,-1041.00
2024-06-07 00:14:42.122582,0,0,152,0,0,0,74,77,121,110,24,121.51,179,28.00,1.00,-997.00
2024-06-07 00:14:42.304287,0,0,158,0,0,0,74,77,121,110,24,121.52,179,-2.00,20.00,-906.00
2024-06-07 00:14:42.326530,0,0,165,0,0,0,74,77,121,110,24,121.49,179,32.00,-17.00,-1024.00
2024-06-07 00:14:42.507842,0,0,171,0,0,0,74,77,120,110,23,121.50,179,30.00,0.00,-1016.00
2024-06-07 00:14:42.530960,0,0,177,0,0,0,74,77,120,110,23,121.50,179,13.00,-23.00,-988.00
2024-06-07 00:14:42.581625,0,0,-176,0,0,0,74,77,119,110,23,121.47,179,-9.00,-7.00,-1032.00
2024-06-07 00:14:42.712192,0,1,-170,0,0,0,74,77,120,110,23,121.47,180,-10.00,-1.00,-1080.00
2024-06-07 00:14:42.788018,0,1,-164,0,0,0,74,77,119,110,23,121.48,180,-9.00,10.00,-969.00
2024-06-07 00:14:42.888267,0,1,-158,0,0,0,74,77,119,110,23,121.48,180,-45.00,7.00,-1024.00
2024-06-07 00:14:42.989793,0,1,-152,0,0,0,74,77,118,110,23,121.44,180,-34.00,13.00,-956.00
2024-06-07 00:14:43.120621,0,1,-146,0,0,0,74,77,118,110,23,121.52,180,-2.00,-5.00,-988.00
2024-06-07 00:14:43.194021,-1,1,-140,0,0,0,74,77,118,110,23,121.44,180,3.00,-14.00,-1004.00
2024-06-07 00:14:43.325703,-1,1,-134,0,0,0,74,77,119,110,23,121.52,180,67.00,-6.00,-981.00
2024-06-07 00:14:43.398954,-1,1,-127,0,0,0,74,77,119,110,23,121.51,180,-14.00,13.00,-1026.00
2024-06-07 00:14:43.530746,-1,0,-121,0,0,0,74,77,119,110,23,121.43,180,-15.00,-1.00,-994.00
2024-06-07 00:14:43.605011,-1,1,-115,0,0,0,74,77,120,110,23,121.47,180,-25.00,40.00,-1037.00
2024-06-07 00:14:43.705461,-1,0,-109,0,0,0,74,77,121,110,23,121.56,181,13.00,14.00,-990.00
2024-06-07 00:14:43.806678,-1,0,-103,0,0,0,74,77,121,110,23,121.51,181,-28.00,7.00,-908.00
2024-06-07 00:14:43.907571,-1,0,-97,0,0,0,75,76,122,110,23,121.55,181,38.00,3.00,-982.00
2024-06-07 00:14:44.009511,-1,0,-91,0,0,0,75,76,122,110,23,121.50,181,11.00,7.00,-981.00
2024-06-07 00:14:44.146906,0,0,-85,0,0,0,75,76,122,110,23,121.50,181,-9.00,41.00,-1009.00
2024-06-07 00:14:44.213951,-1,0,-79,0,0,0,75,76,122,110,23,121.53,181,-15.00,35.00,-986.00
2024-06-07 00:14:44.351578,0,0,-73,0,0,0,75,76,122,110,23,121.57,181,-15.00,25.00,-983.00
2024-06-07 00:14:44.417547,-1,-1,-68,0,0,0,75,76,121,110,23,121.50,181,-24.00,22.00,-1037.00
2024-06-07 00:14:44.556322,-1,0,-62,0,0,0,75,76,122,110,23,121.52,181,39.00,7.00,-985.00
2024-06-07 00:14:44.621473,-1,0,-56,0,0,0,75,76,121,110,23,121.54,181,33.00,14.00,-918.00
2024-06-07 00:14:44.723423,0,0,-50,0,0,0,75,76,122,110,23,121.49,182,13.00,-17.00,-1069.00
2024-06-07 00:14:44.825456,0,0,-44,0,-1,0,75,76,122,110,23,121.50,182,-2.00,-4.00,-1052.00
2024-06-07 00:14:44.963658,0,0,-38,0,-1,0,75,77,122,110,23,121.53,182,14.00,16.00,-1035.00
2024-06-07 00:14:45.029418,0,0,-32,0,0,0,75,77,123,110,23,121.43,182,8.00,-16.00,-1116.00
2024-06-07 00:14:45.168944,-1,0,-27,0,0,0,75,77,123,110,23,121.51,182,29.00,-4.00,-894.00
2024-06-07 00:14:45.234771,0,0,-22,0,0,0,75,77,123,110,23,121.52,182,42.00,-6.00,-903.00
2024-06-07 00:14:45.373233,0,0,-18,0,0,0,75,77,123,110,23,121.56,182,-11.00,8.00,-983.00
2024-06-07 00:14:45.438908,0,0,-16,0,0,0,75,77,123,110,23,121.51,182,6.00,19.00,-1028.00
2024-06-07 00:14:45.580657,0,0,-14,0,0,0,75,77,123,110,23,121.51,182,-37.00,26.00,-934.00
2024-06-07 00:14:45.645515,0,0,-12,0,0,0,75,77,123,110,23,121.51,182,29.00,-7.00,-1024.00
2024-06-07 00:14:45.745933,0,0,-11,0,0,0,75,77,123,110,23,121.55,183,70.00,5.00,-1007.00
2024-06-07 00:14:45.845443,0,0,-10,0,0,0,75,77,123,110,23,121.53,183,-3.00,1.00,-1008.00
2024-06-07 00:14:45.988134,0,0,-9,0,0,0,74,76,122,110,23,121.53,183,-2.00,-2.00,-949.00
2024-06-07 00:14:46.049588,0,0,-9,0,0,0,74,76,122,110,23,121.49,183,3.00,9.00,-1012.00
2024-06-07 00:14:46.192619,0,0,-9,0,0,0,74,76,121,110,23,121.44,183,-23.00,23.00,-1047.00
2024-06-07 00:14:46.202619,0,0,-9,0,0,0,74,76,121,110,23,121.50,183,-31.00,-10.00,-1031.00
2024-06-07 00:14:46.397683,0,0,-9,0,0,0,74,76,120,110,23,121.49,183,-21.00,9.00,-984.00
2024-06-07 00:14:46.408452,0,0,-9,0,0,0,74,76,119,110,22,121.53,183,8.00,7.00,-956.00
2024-06-07 00:14:46.508168,0,0,-9,0,0,0,74,76,119,110,22,121.43,183,-18.00,2.00,-1045.00
2024-06-07 00:14:46.704390,0,0,-9,0,0,0,74,76,118,110,22,121.47,183,-3.00,22.00,-995.00
2024-06-07 00:14:46.712426,0,0,-9,0,0,0,74,76,116,110,22,121.47,184,21.00,-23.00,-969.00
2024-06-07 00:14:46.909264,0,0,-9,0,0,0,74,76,115,110,22,121.51,184,-39.00,27.00,-1006.00
2024-06-07 00:14:46.916378,0,0,-9,0,0,0,73,77,114,110,22,121.56,184,6.00,11.00,-1008.00
2024-06-07 00:14:47.018097,0,0,-9,0,0,0,73,77,114,110,22,121.51,184,30.00,-12.00,-937.00
2024-06-07 00:14:47.216754,0,0,-9,0,0,0,73,77,113,100,22,121.52,184,7.00,-9.00,-1004.00
2024-06-07 00:14:47.222132,0,0,-9,0,0,0,73,77,114,100,22,121.45,184,-24.00,29.00,-953.00
2024-06-07 00:14:47.421482,0,0,-9,0,0,0,73,77,113,100,22,121.46,184,-24.00,-6.00,-1013.00
2024-06-07 00:14:47.426226,0,0,-9,0,0,0,73,77,115,100,22,121.52,184,4.00,-22.00,-938.00
2024-06-07 00:14:47.626677,0,0,-9,0,0,0,73,77,115,100,22,121.49,184,-6.00,28.00,-1007.00
2024-06-07 00:14:47.630379,0,0,-9,0,0,0,73,77,116,100,22,121.52,184,4.00,0.00,-1015.00
2024-06-07 00:14:47.831229,0,0,-9,0,0,0,73,77,118,100,22,121.49,185,54.00,1.00,-992.00
2024-06-07 00:14:47.834284,0,0,-9,0,0,0,73,77,119,100,22,121.49,185,-50.00,54.00,-1024.00
2024-06-07 00:14:47.936420,0,0,-9,0,0,0,75,76,119,110,22,121.53,185,34.00,11.00,-1118.00
2024-06-07 00:14:48.037997,0,0,-9,0,0,0,75,76,120,110,22,121.53,185,15.00,15.00,-815.00
2024-06-07 00:14:48.140034,0,0,-11,0,0,0,75,76,121,110,22,121.46,185,-25.00,17.00,-1018.00
2024-06-07 00:14:48.241964,0,0,-17,0,0,0,75,76,122,110,22,121.56,185,13.00,0.00,-1034.00
2024-06-07 00:14:48.445635,0,0,-23,0,0,0,75,76,123,110,22,121.57,185,41.00,-20.00,-946.00
2024-06-07 00:14:48.445869,0,0,-29,0,0,0,75,76,124,110,22,121.61,185,-28.00,26.00,-1025.00
2024-06-07 00:14:48.574468,0,0,-35,0,0,0,75,76,125,110,22,121.57,185,26.00,-20.00,-985.00
2024-06-07 00:14:48.650170,1,0,-41,0,0,0,75,76,127,110,22,121.61,186,39.00,-5.00,-1004.00
2024-06-07 00:14:48.751903,1,0,-47,0,0,0,75,76,127,110,22,121.60,186,37.00,-14.00,-987.00
2024-06-07 00:14:48.854640,1,0,-53,0,0,0,75,76,127,110,22,121.60,186,54.00,-41.00,-988.00
2024-06-07 00:14:48.957146,0,0,-59,0,0,0,75,76,128,110,22,121.57,186,35.00,-37.00,-934.00
2024-06-07 00:14:49.059418,0,0,-65,0,0,0,75,76,128,110,22,121.62,186,13.00,20.00,-993.00
2024-06-07 00:14:49.159890,1,0,-71,0,0,0,75,76,129,110,22,121.59,186,-9.00,12.00,-984.00
2024-06-07 00:14:49.265228,0,0,-77,0,0,0,75,76,130,110,22,121.54,186,23.00,-8.00,-1138.00
2024-06-07 00:14:49.363969,0,0,-83,0,0,0,75,76,131,110,22,121.58,186,33.00,15.00,-971.00
2024-06-07 00:14:49.469113,1,0,-90,0,0,0,75,76,131,110,22,121.58,186,1.00,9.00,-1021.00
2024-06-07 00:14:49.569212,0,0,-96,0,0,0,75,76,131,110,22,121.58,186,-1.00,26.00,-1025.00
2024-06-07 00:14:49.670306,0,0,-102,0,0,0,75,76,131,110,22,121.60,187,8.00,36.00,-892.00
2024-06-07 00:14:49.776288,1,0,-108,0,0,0,75,76,132,110,22,121.61,187,16.00,23.00,-1025.00
2024-06-07 00:14:49.823428,0,0,-114,0,0,0,75,76,131,120,22,121.59,187,44.00,-10.00,-1008.00
2024-06-07 00:14:49.981115,0,0,-120,0,0,0,74,76,132,120,22,121.61,187,-22.00,9.00,-957.00
2024-06-07 00:14:50.026984,0,0,-126,0,0,0,74,76,131,120,22,121.60,187,4.00,5.00,-1059.00
2024-06-07 00:14:50.185841,0,0,-132,0,0,0,74,76,130,120,22,121.61,187,7.00,20.00,-1006.00
2024-06-07 00:14:50.231370,0,0,-139,0,0,0,74,76,130,120,22,121.59,187,-26.00,33.00,-938.00
2024-06-07 00:14:50.390642,0,0,-145,0,0,0,74,76,129,110,22,121.56,187,-1.00,-5.00,-931.00
2024-06-07 00:14:50.435182,0,0,-151,0,0,0,74,76,128,110,22,121.57,187,-30.00,44.00,-978.00
2024-06-07 00:14:50.595470,0,0,-157,0,0,0,74,76,125,110,22,121.55,187,-3.00,40.00,-940.00
2024-06-07 00:14:50.639091,0,0,-163,0,0,0,74,76,124,110,22,121.54,188,20.00,-21.00,-958.00
2024-06-07 00:14:50.745321,0,0,-169,0,0,0,74,76,123,110,22,121.56,188,11.00,-7.00,-979.00
2024-06-07 00:14:50.843010,0,0,-175,0,0,0,74,76,122,110,22,121.54,188,-5.00,17.00,-995.00
2024-06-07 00:14:51.009720,0,0,178,0,0,0,74,77,121,110,22,121.58,188,0.00,5.00,-976.00
2024-06-07 00:14:51.046983,0,0,172,0,0,0,74,77,121,110,22,121.50,188,-7.00,-1.00,-1012.00
2024-06-07 00:14:51.209801,0,0,166,0,0,0,74,77,121,110,22,121.46,188,50.00,-27.00,-1048.00
2024-06-07 00:14:51.251241,0,0,160,0,0,0,74,77,121,110,22,121.52,188,14.00,-22.00,-1033.00
2024-06-07 00:14:51.414538,0,0,155,0,0,0,74,77,121,110,22,121.49,188,10.00,3.00,-1018.00
2024-06-07 00:14:51.455118,0,0,149,0,0,0,74,77,121,110,22,121.53,188,-31.00,6.00,-1030.00
2024-06-07 00:14:51.619947,0,0,143,0,0,0,74,77,122,110,22,121.42,188,-37.00,10.00,-1044.00
2024-06-07 00:14:51.660183,0,0,137,0,0,0,74,77,123,110,22,121.51,189,-36.00,12.00,-918.00
2024-06-07 00:14:51.824072,0,0,131,0,0,0,74,77,124,110,22,121.54,189,-3.00,-11.00,-1001.00
2024-06-07 00:14:51.862744,0,0,125,0,0,0,74,77,125,110,22,121.56,189,0.00,-13.00,-983.00
2024-06-07 00:14:52.131258,0,0,119,0,0,0,74,77,126,110,22,121.58,189,-35.00,10.00,-960.00
2024-06-07 00:14:52.131440,0,0,113,0,0,0,74,77,127,110,22,121.59,189,32.00,-27.00,-1068.00
2024-06-07 00:14:52.170082,0,0,107,0,0,0,74,77,126,110,22,121.58,189,0.00,-49.00,-944.00
2024-06-07 00:14:52.349090,0,0,101,0,0,0,74,77,127,110,22,121.55,189,3.00,34.00,-901.00
2024-06-07 00:14:52.373364,0,0,95,0,0,0,74,77,127,110,22,121.61,189,36.00,-21.00,-1027.00
2024-06-07 00:14:52.630200,0,0,89,0,0,0,74,77,128,110,22,121.59,189,-32.00,2.00,-1159.00
2024-06-07 00:14:52.630265,0,0,83,0,0,0,74,77,128,110,22,121.57,189,-8.00,5.00,-921.00
2024-06-07 00:14:52.699591,0,0,77,0,0,0,74,77,129,110,22,121.59,190,18.00,-33.00,-994.00
2024-06-07 00:14:52.814528,0,0,71,0,0,0,74,77,128,110,22,121.60,190,1.00,-14.00,-945.00
2024-06-07 00:14:52.882806,0,0,65,0,0,0,74,77,128,110,22,121.55,190,-53.00,13.00,-1090.00
2024-06-07 00:14:53.017249,0,0,59,0,0,0,74,77,128,110,22,121.58,190,21.00,-39.00,-1011.00
2024-06-07 00:14:53.086704,0,0,53,0,0,0,74,77,127,110,22,121.57,190,23.00,-31.00,-1108.00
2024-06-07 00:14:53.268921,1,0,47,0,0,0,74,77,128,110,22,121.56,190,2.00,-14.00,-1035.00
2024-06-07 00:14:53.290846,1,0,41,0,0,0,74,77,127,110,22,121.59,190,3.00,-32.00,-1080.00
2024-06-07 00:14:53.462900,0,0,35,0,0,0,74,77,127,110,21,121.60,190,58.00,-22.00,-955.00
2024-06-07 00:14:53.575837,0,0,30,0,0,0,74,77,128,110,21,121.58,190,20.00,-31.00,-1064.00
2024-06-07 00:14:53.596700,0,0,24,0,0,0,74,77,128,110,21,121.57,190,-2.00,42.00,-1013.00
2024-06-07 00:14:53.719249,0,0,18,0,0,0,74,77,128,110,21,121.57,191,68.00,-61.00,-965.00
2024-06-07 00:14:53.883132,0,0,12,0,0,0,74,77,130,110,21,121.52,191,-4.00,7.00,-1031.00
2024-06-07 00:14:53.902814,0,0,7,0,0,0,74,77,128,110,21,121.59,191,64.00,-3.00,-949.00
2024-06-07 00:14:54.026269,1,0,3,0,0,0,74,77,129,110,21,121.66,191,67.00,-1.00,-920.00
2024-06-07 00:14:54.191427,0,0,1,0,0,0,74,77,129,110,21,121.58,191,14.00,19.00,-953.00
2024-06-07 00:14:54.191489,0,0,-1,0,0,0,74,77,129,110,21,121.60,191,8.00,1.00,-997.00
2024-06-07 00:14:54.344327,0,0,-2,0,0,0,74,77,129,110,21,121.53,191,1.00,-2.00,-997.00
2024-06-07 00:14:54.361718,0,0,-4,0,0,0,74,77,130,110,21,121.54,191,20.00,-11.00,-830.00
2024-06-07 00:14:54.484667,0,0,-5,0,0,0,74,77,130,110,21,121.61,191,10.00,51.00,-975.00
2024-06-07 00:14:54.565459,0,0,-6,0,0,0,74,77,131,110,21,121.53,191,0.00,39.00,-1026.00
2024-06-07 00:14:54.691436,0,0,-6,0,0,0,74,77,132,110,21,121.65,192,4.00,38.00,-883.00
2024-06-07 00:14:54.769628,0,0,-7,0,0,0,74,77,131,110,21,121.64,192,4.00,0.00,-1031.00
2024-06-07 00:14:54.897752,0,0,-7,0,0,0,74,77,131,120,21,121.72,192,26.00,0.00,-950.00
2024-06-07 00:14:54.973706,0,0,-7,0,0,0,74,77,130,120,21,121.58,192,4.00,28.00,-970.00
2024-06-07 00:14:55.101013,0,1,-7,0,0,0,74,77,130,110,21,121.64,192,52.00,-13.00,-954.00
2024-06-07 00:14:55.177588,0,1,-7,0,0,0,74,77,129,110,21,121.65,192,40.00,0.00,-918.00
2024-06-07 00:14:55.305622,0,1,-7,0,0,0,74,77,129,110,21,121.65,192,25.00,-24.00,-1038.00
2024-06-07 00:14:55.381678,0,1,-7,0,0,0,74,77,128,110,21,121.61,192,0.00,11.00,-926.00
2024-06-07 00:14:55.510548,0,1,-7,0,0,0,74,77,127,110,21,121.60,192,17.00,13.00,-937.00
2024-06-07 00:14:55.585620,0,0,-7,0,0,0,74,77,125,110,21,121.61,192,38.00,-27.00,-994.00
2024-06-07 00:14:55.717750,0,0,-7,0,0,0,74,77,124,110,21,121.58,193,27.00,-19.00,-908.00
2024-06-07 00:14:55.789393,0,1,-7,0,0,0,74,77,124,110,21,121.62,193,-13.00,6.00,-984.00
2024-06-07 00:14:55.920262,0,0,-7,0,0,0,74,77,123,110,21,121.62,193,48.00,-16.00,-1036.00
2024-06-07 00:14:55.993976,0,0,-7,0,0,0,74,77,123,110,21,121.56,193,-8.00,13.00,-999.00
2024-06-07 00:14:56.124878,0,0,-7,0,0,0,74,77,122,110,21,121.62,193,-13.00,16.00,-1017.00
2024-06-07 00:14:56.198380,0,0,-7,0,0,0,74,77,121,110,21,121.53,193,25.00,-31.00,-1114.00
2024-06-07 00:14:56.329728,0,0,-7,0,0,0,74,77,122,110,21,121.55,193,-1.00,-17.00,-960.00
2024-06-07 00:14:56.403295,0,0,-7,0,0,0,74,77,122,110,21,121.57,193,12.00,-15.00,-929.00
2024-06-07 00:14:56.503438,0,0,-7,0,0,0,74,77,122,110,21,121.56,193,32.00,-46.00,-978.00
2024-06-07 00:14:56.637500,0,0,-7,0,0,0,74,77,123,110,21,121.60,193,38.00,-53.00,-998.00
2024-06-07 00:14:56.707350,0,0,-7,0,0,0,74,77,124,110,21,121.60,194,27.00,-2.00,-993.00
2024-06-07 00:14:56.841718,1,1,-7,0,0,0,74,77,124,110,21,121.61,194,-19.00,15.00,-962.00
2024-06-07 00:14:56.911288,1,1,-7,0,0,0,74,77,124,110,21,121.69,194,-25.00,8.00,-1062.00
2024-06-07 00:14:57.046874,0,0,-7,0,0,0,74,77,125,110,21,121.65,194,43.00,-28.00,-1002.00
2024-06-07 00:14:57.115290,0,0,-7,0,0,0,74,77,124,110,21,121.58,194,4.00,28.00,-1006.00
2024-06-07 00:14:57.251208,0,0,-7,0,0,0,74,77,124,110,21,121.59,194,29.00,-72.00,-1008.00
2024-06-07 00:14:57.319244,0,0,-7,0,0,0,74,77,123,110,21,121.62,194,-8.00,-15.00,-955.00
2024-06-07 00:14:57.456744,0,0,-7,0,0,0,74,77,123,110,21,121.57,194,20.00,17.00,-1032.00
2024-06-07 00:14:57.523902,0,0,-7,0,0,0,74,77,122,110,21,121.56,194,51.00,-29.00,-1002.00
2024-06-07 00:14:57.660876,0,0,-7,0,0,0,74,77,122,110,21,121.58,194,35.00,-9.00,-974.00
2024-06-07 00:14:57.729478,0,0,-7,0,0,0,74,77,122,110,21,121.58,195,-23.00,-17.00,-1014.00
2024-06-07 00:14:57.778499,0,0,-7,0,0,0,74,77,121,110,21,121.63,195,16.00,0.00,-1011.00
2024-06-07 00:14:57.968424,0,0,-7,0,0,0,74,77,122,110,21,121.54,195,44.00,22.00,-1068.00
2024-06-07 00:14:57.987736,0,0,-7,0,0,0,75,76,122,110,21,121.62,195,-28.00,22.00,-1041.00
2024-06-07 00:14:58.088479,0,0,-7,0,0,0,75,76,122,110,21,121.59,195,22.00,27.00,-1127.00
2024-06-07 00:14:58.187193,0,0,-7,0,0,0,75,76,124,110,21,121.58,195,21.00,17.00,-948.00
2024-06-07 00:14:58.378047,0,0,-7,0,0,0,75,76,124,110,21,121.59,195,0.00,3.00,-953.00
2024-06-07 00:14:58.390300,0,0,-7,0,0,0,75,76,125,110,21,121.61,195,11.00,-24.00,-1121.00
2024-06-07 00:14:58.582485,0,0,-7,0,0,0,75,76,126,110,21,121.54,195,6.00,-5.00,-979.00
2024-06-07 00:14:58.594249,0,0,-7,0,0,0,75,76,127,110,21,121.58,195,9.00,4.00,-901.00
2024-06-07 00:14:58.789497,0,0,-7,0,0,0,75,76,127,110,21,121.55,196,-11.00,-2.00,-975.00
2024-06-07 00:14:58.799678,0,0,-7,0,0,0,75,76,127,110,21,121.60,196,7.00,6.00,-935.00
2024-06-07 00:14:58.992339,0,0,-7,0,0,0,75,76,127,110,21,121.58,196,-11.00,0.00,-1019.00
2024-06-07 00:14:59.005517,0,0,-7,0,0,0,74,76,127,110,21,121.59,196,-20.00,0.00,-1022.00
2024-06-07 00:14:59.106117,0,0,-7,0,0,0,74,76,126,110,21,121.60,196,21.00,0.00,-899.00
2024-06-07 00:14:59.207466,0,0,-7,0,0,0,74,76,127,110,21,121.63,196,22.00,16.00,-990.00
2024-06-07 00:14:59.308361,0,0,-7,0,0,0,74,76,126,110,21,121.59,196,9.00,17.00,-925.00
2024-06-07 00:14:59.504411,1,0,-7,0,0,0,74,76,127,110,21,121.64,196,13.00,16.00,-1035.00
2024-06-07 00:14:59.512457,1,0,-7,0,0,0,74,76,125,110,21,121.63,196,34.00,-37.00,-1009.00
2024-06-07 00:14:59.708739,1,0,-7,0,0,0,74,76,126,110,21,121.61,196,24.00,-12.00,-1049.00
2024-06-07 00:14:59.716310,1,0,-7,0,0,0,74,76,125,110,21,121.54,197,24.00,23.00,-953.00
2024-06-07 00:14:59.914025,0,0,-7,0,0,0,74,76,125,110,21,121.51,197,28.00,-14.00,-976.00
2024-06-07 00:14:59.920266,0,0,-7,0,0,0,74,76,124,110,21,121.53,197,9.00,-4.00,-1068.00
2024-06-07 00:15:00.118468,0,0,-7,0,0,0,73,76,125,110,21,121.54,197,29.00,-28.00,-1019.00
2024-06-07 00:15:00.124203,0,0,-7,0,0,0,73,76,124,110,21,121.52,197,24.00,-26.00,-1011.00
2024-06-07 00:15:00.323360,0,0,-7,0,0,0,73,76,124,110,21,121.46,197,28.00,-23.00,-998.00
2024-06-07 00:15:00.328239,0,0,-7,0,0,0,73,76,124,110,21,121.52,197,25.00,-16.00,-1060.00
2024-06-07 00:15:00.527952,0,0,-7,0,0,0,73,76,123,110,21,121.62,197,-15.00,25.00,-1048.00
2024-06-07 00:15:00.532347,0,0,-7,0,0,0,73,76,122,110,21,121.56,197,78.00,-29.00,-990.00
2024-06-07 00:15:00.733349,0,0,-7,0,0,0,73,76,122,110,21,121.58,197,-3.00,17.00,-912.00
2024-06-07 00:15:00.736247,0,0,-7,0,0,0,73,76,123,110,21,121.52,198,50.00,-26.00,-927.00
2024-06-07 00:15:00.838104,0,0,-7,0,0,0,73,76,121,110,21,121.58,198,22.00,-7.00,-991.00
2024-06-07 00:15:00.940282,0,0,-7,0,0,0,73,76,121,110,21,121.51,198,11.00,27.00,-956.00
2024-06-07 00:15:01.042092,0,0,-7,0,0,0,74,76,120,110,21,121.56,198,11.00,-18.00,-961.00
2024-06-07 00:15:01.144142,0,0,-7,0,0,0,74,76,121,110,21,121.55,198,40.00,30.00,-985.00
2024-06-07 00:15:01.347034,0,0,-7,0,0,0,74,76,120,110,21,121.57,198,37.00,-36.00,-1013.00
2024-06-07 00:15:01.348032,0,0,-7,0,0,0,74,76,120,110,21,121.53,198,0.00,-3.00,-1088.00
2024-06-07 00:15:01.552895,0,0,-7,0,0,0,74,76,120,110,21,121.52,198,13.00,-3.00,-934.00
2024-06-07 00:15:01.554815,0,0,-7,0,0,0,74,76,120,110,21,121.50,198,36.00,-2.00,-919.00
2024-06-07 00:15:01.602890,0,0,-7,0,0,0,74,76,120,110,21,121.55,198,19.00,8.00,-1022.00
2024-06-07 00:15:01.756598,0,0,-7,0,0,0,74,76,120,110,21,121.58,199,-18.00,7.00,-910.00
2024-06-07 00:15:01.807194,0,0,-7,0,0,0,74,76,120,110,21,121.50,199,-27.00,15.00,-1040.00
2024-06-07 00:15:01.961462,0,0,-7,0,0,0,74,76,120,110,21,121.53,199,4.00,4.00,-987.00
2024-06-07 00:15:02.010950,0,0,-7,0,0,0,74,77,120,110,21,121.49,199,73.00,-44.00,-1012.00
2024-06-07 00:15:02.166083,0,0,-7,0,0,0,74,77,121,110,21,121.55,199,9.00,25.00,-923.00
2024-06-07 00:15:02.214789,1,0,-7,0,0,0,74,77,121,110,21,121.50,199,25.00,-10.00,-989.00
2024-06-07 00:15:02.370980,0,0,-7,0,0,0,74,77,121,110,21,121.52,199,18.00,0.00,-1217.00
2024-06-07 00:15:02.418799,0,0,-7,0,0,0,74,77,121,110,21,121.47,199,14.00,-9.00,-882.00
2024-06-07 00:15:02.575837,0,0,-7,0,0,0,74,77,122,110,21,121.52,199,-19.00,0.00,-1123.00
2024-06-07 00:15:02.622906,0,0,-7,0,0,0,74,77,122,110,21,121.46,199,-4.00,-16.00,-971.00
2024-06-07 00:15:02.724840,0,0,-7,0,0,0,74,77,123,110,21,121.47,200,36.00,-30.00,-965.00
2024-06-07 00:15:02.883050,0,0,-7,0,0,0,74,77,124,110,21,121.50,200,64.00,-26.00,-962.00
2024-06-07 00:15:02.930088,0,0,-7,0,0,0,74,77,124,110,21,121.48,200,20.00,-22.00,-1003.00
2024-06-07 00:15:03.087862,0,0,-7,0,0,0,75,77,125,110,21,121.51,200,8.00,-6.00,-919.00
2024-06-07 00:15:03.133836,0,0,-7,0,0,0,75,77,125,110,21,121.47,200,62.00,-2.00,-1049.00
2024-06-07 00:15:03.292569,0,0,-7,0,0,0,75,77,126,110,21,121.56,200,44.00,-71.00,-1037.00
2024-06-07 00:15:03.337964,0,0,-7,0,0,0,75,77,126,110,21,121.53,200,54.00,-57.00,-948.00
2024-06-07 00:15:03.497475,0,0,-7,0,0,0,75,77,125,110,21,121.47,200,18.00,11.00,-1002.00
2024-06-07 00:15:03.542063,0,0,-7,0,0,0,75,77,126,110,21,121.51,200,40.00,-17.00,-982.00
2024-06-07 00:15:03.702142,0,0,-7,0,0,0,75,77,126,110,21,121.56,201,31.00,-68.00,-998.00
2024-06-07 00:15:03.746319,0,0,-7,0,0,0,75,77,126,110,21,121.47,201,36.00,-17.00,-973.00
2024-06-07 00:15:03.906962,0,0,-7,0,0,0,75,77,126,110,21,121.54,201,-18.00,-29.00,-969.00
2024-06-07 00:15:03.949993,0,0,-7,0,0,0,75,77,127,110,21,121.50,201,46.00,-29.00,-1003.00
2024-06-07 00:15:04.051759,0,0,-7,0,0,0,74,76,127,110,21,121.50,201,11.00,-37.00,-1170.00
2024-06-07 00:15:04.214115,0,0,-7,0,0,0,74,76,127,110,21,121.48,201,23.00,-12.00,-993.00
2024-06-07 00:15:04.255782,0,0,-7,0,0,0,74,76,126,110,21,121.44,201,56.00,-1.00,-995.00
2024-06-07 00:15:04.419224,0,0,-7,0,0,0,74,76,126,110,21,121.54,201,30.00,-23.00,-1045.00
2024-06-07 00:15:04.460895,0,0,-7,0,0,0,74,76,126,110,20,121.47,201,16.00,-5.00,-938.00
2024-06-07 00:15:04.623734,0,0,-7,0,0,0,74,76,125,110,20,121.46,201,18.00,-24.00,-1019.00
2024-06-07 00:15:04.663817,0,0,-7,0,0,0,74,76,124,110,20,121.45,202,12.00,-18.00,-1076.00
2024-06-07 00:15:04.765853,0,0,-7,0,0,0,74,76,123,110,20,121.48,202,-10.00,-13.00,-997.00
2024-06-07 00:15:04.930763,0,0,-7,0,0,0,74,76,123,110,20,121.41,202,41.00,-15.00,-1072.00
2024-06-07 00:15:04.969952,0,0,-7,0,0,0,74,76,122,110,20,121.52,202,21.00,-32.00,-1064.00
2024-06-07 00:15:05.071855,0,0,-7,0,0,0,74,76,121,110,20,121.45,202,41.00,-24.00,-965.00
2024-06-07 00:15:05.238153,0,0,-7,0,0,0,74,76,121,110,20,121.44,202,-8.00,25.00,-1076.00
2024-06-07 00:15:05.276413,0,0,-7,0,0,0,74,76,121,110,20,121.40,202,-16.00,6.00,-982.00
2024-06-07 00:15:05.326520,0,0,-7,0,0,0,74,76,120,110,20,121.46,202,-16.00,9.00,-1064.00
2024-06-07 00:15:05.442848,0,0,-7,0,0,0,74,76,121,110,20,121.50,202,-46.00,24.00,-935.00
2024-06-07 00:15:05.530876,0,0,-7,0,0,0,74,76,120,110,20,121.46,202,-22.00,-2.00,-994.00
2024-06-07 00:15:05.648661,0,0,-7,0,0,0,74,76,121,110,20,121.46,203,-23.00,19.00,-1003.00
2024-06-07 00:15:05.736320,0,0,-7,0,0,0,74,76,121,110,20,121.46,203,0.00,0.00,-944.00
2024-06-07 00:15:05.836601,0,0,-7,0,0,0,74,76,122,110,20,121.45,203,12.00,16.00,-988.00
2024-06-07 00:15:05.955311,0,0,-7,0,0,0,74,76,121,110,20,121.46,203,9.00,-8.00,-1052.00
2024-06-07 00:15:06.040878,0,0,-7,0,0,0,74,76,123,110,20,121.44,203,25.00,-24.00,-999.00
2024-06-07 00:15:06.159598,0,0,-7,0,0,0,74,76,123,110,20,121.43,203,17.00,-60.00,-1036.00
2024-06-07 00:15:06.244488,0,0,-7,0,0,0,74,76,123,110,20,121.48,203,25.00,-17.00,-1026.00
