TS,pitch,roll,yaw,vgx,vgy,vgz,templ,temph,tof,h,bat,baro,time,agx,agy,agz
2024-06-07 00:17:02.626842,0,0,0,0,0,0,76,79,10,0,87,120.12,0,2.00,0.00,-999.00
2024-06-07 00:17:02.806713,0,0,0,0,0,0,76,79,10,0,87,120.09,0,1.00,-1.00,-1001.00
2024-06-07 00:17:02.830706,0,0,0,0,0,0,76,79,10,0,87,120.13,0,2.00,1.00,-999.00
2024-06-07 00:17:03.011401,0,0,0,0,0,0,76,79,10,0,87,120.12,0,1.00,0.00,-999.00
2024-06-07 00:17:03.034539,0,0,0,0,0,0,76,79,10,0,87,120.13,0,2.00,0.00,-999.00
2024-06-07 00:17:03.216130,0,0,0,0,0,0,76,79,10,0,87,120.09,0,1.00,-1.00,-1004.00
2024-06-07 00:17:03.239181,0,0,0,0,0,0,76,79,10,0,87,120.05,0,1.00,0.00,-1002.00
2024-06-07 00:17:03.420960,0,0,0,0,0,0,76,79,10,0,87,120.08,0,1.00,0.00,-1000.00
2024-06-07 00:17:03.442726,0,0,0,0,0,0,76,79,10,0,87,120.05,0,1.00,-1.00,-997.00
2024-06-07 00:17:03.626043,0,0,0,0,0,0,76,79,10,0,87,120.07,0,2.00,-1.00,-1001.00
2024-06-07 00:17:03.646736,0,0,0,0,0,0,76,79,10,0,87,120.07,0,0.00,0.00,-1000.00
2024-06-07 00:17:03.830947,0,0,0,0,0,0,76,79,10,0,87,120.09,0,2.00,0.00,-1000.00
2024-06-07 00:17:03.851407,0,0,0,0,0,0,76,79,10,0,87,120.05,0,3.00,-1.00,-1002.00
2024-06-07 00:17:04.035263,0,0,0,0,0,0,76,79,10,0,87,120.12,0,2.00,0.00,-999.00
2024-06-07 00:17:04.056489,0,0,0,0,0,0,76,79,10,0,87,120.07,0,2.00,0.00,-1000.00
2024-06-07 00:17:04.158552,0,0,0,0,0,0,76,79,10,0,87,120.03,0,2.00,0.00,-1001.00
2024-06-07 00:17:04.258593,0,0,0,0,0,0,76,79,10,0,87,120.10,0,1.00,0.00,-999.00
2024-06-07 00:17:04.310019,0,0,0,0,0,0,76,79,10,0,87,120.05,0,3.00,0.00,-998.00
2024-06-07 00:17:04.445509,0,0,0,0,0,0,76,79,10,0,87,120.05,0,1.00,-1.00,-997.00
2024-06-07 00:17:04.513691,0,0,0,0,0,0,76,79,10,0,87,120.10,0,2.00,0.00,-1000.00
2024-06-07 00:17:04.619440,0,0,0,0,0,0,77,78,10,0,87,120.04,0,3.00,-2.00,-1000.00
2024-06-07 00:17:04.717322,0,0,0,0,0,0,77,78,10,0,87,120.02,0,0.00,-1.00,-1002.00
2024-06-07 00:17:04.854563,0,0,0,0,0,0,77,78,10,0,87,120.05,0,1.00,0.00,-999.00
2024-06-07 00:17:04.921302,0,0,0,0,0,0,77,78,10,0,87,120.06,0,0.00,-1.00,-1004.00
2024-06-07 00:17:05.059679,0,0,0,0,0,0,77,78,10,0,87,120.02,0,2.00,0.00,-999.00
2024-06-07 00:17:05.125802,0,0,0,0,0,0,77,78,10,0,87,120.05,0,1.00,0.00,-996.00
2024-06-07 00:17:05.270699,0,0,0,0,0,0,77,78,10,0,87,120.04,0,0.00,1.00,-999.00
2024-06-07 00:17:05.329888,0,0,0,0,0,0,77,78,10,0,87,120.06,0,1.00,0.00,-1001.00
2024-06-07 00:17:05.470433,0,0,0,0,0,0,77,78,10,0,87,120.04,0,2.00,1.00,-999.00
2024-06-07 00:17:05.533281,0,0,0,0,0,0,77,78,10,0,87,120.05,0,1.00,0.00,-1001.00
2024-06-07 00:17:05.674027,0,0,0,0,0,0,77,79,10,0,87,120.01,0,0.00,-1.00,-998.00
2024-06-07 00:17:05.737375,0,0,0,0,0,0,77,79,10,0,87,120.04,0,0.00,-1.00,-1001.00
2024-06-07 00:17:05.878492,0,0,0,0,0,0,77,79,10,0,87,120.05,0,2.00,0.00,-1001.00
2024-06-07 00:17:05.941233,0,0,0,0,0,0,77,79,10,0,87,120.05,0,0.00,0.00,-998.00
2024-06-07 00:17:06.043364,0,0,0,0,0,0,77,79,10,0,87,120.05,0,3.00,-1.00,-1000.00
2024-06-07 00:17:06.185632,0,0,0,0,0,0,77,79,10,0,87,120.03,0,1.00,0.00,-1000.00
2024-06-07 00:17:06.247771,0,0,0,0,0,0,77,79,10,0,87,120.09,0,1.00,0.00,-999.00
2024-06-07 00:17:06.362252,0,0,0,0,0,0,77,79,10,0,87,120.07,0,0.00,0.00,-999.00
2024-06-07 00:17:06.451217,0,0,0,0,0,0,77,79,10,0,87,120.09,0,1.00,0.00,-1001.00
2024-06-07 00:17:06.595121,0,0,0,0,0,0,77,79,10,0,87,120.09,0,0.00,0.00,-999.00
2024-06-07 00:17:06.655555,0,0,0,0,0,0,77,79,10,0,87,120.09,0,2.00,0.00,-1000.00
2024-06-07 00:17:06.800235,0,0,0,0,0,0,77,79,10,0,87,120.09,0,-2.00,1.00,-999.00
2024-06-07 00:17:06.859198,0,0,-1,0,0,0,77,79,10,0,87,120.09,0,-5.00,-4.00,-998.00
2024-06-07 00:17:06.910134,0,0,-2,0,0,0,77,79,10,0,87,120.09,0,-18.00,31.00,-1003.00
2024-06-07 00:17:07.120481,0,0,-3,0,0,-1,77,79,10,0,87,120.09,0,60.00,-19.00,-1011.00
2024-06-07 00:17:07.121161,0,0,-3,0,0,-3,77,79,10,0,87,120.09,0,24.00,-36.00,-1059.00
2024-06-07 00:17:07.263194,1,0,-3,0,0,-6,77,79,10,0,87,120.09,0,-3.00,15.00,-1197.00
2024-06-07 00:17:07.391010,1,0,-3,0,0,-7,77,79,16,10,87,120.28,0,-19.00,16.00,-1253.00
2024-06-07 00:17:07.445507,1,0,-3,0,0,-7,77,79,25,20,87,120.43,1,0.00,-7.00,-1205.00
2024-06-07 00:17:07.577349,1,0,-3,0,0,-7,77,79,29,20,87,120.53,1,3.00,3.00,-1085.00
2024-06-07 00:17:07.635095,0,1,-3,0,0,-7,77,79,38,30,87,120.66,1,41.00,-22.00,-1012.00
2024-06-07 00:17:07.766700,0,0,-3,0,0,-6,77,79,45,40,87,120.75,1,-36.00,17.00,-933.00
2024-06-07 00:17:07.828015,0,0,-3,0,0,-5,77,79,53,40,87,120.82,1,15.00,-4.00,-931.00
2024-06-07 00:17:07.947282,-1,0,-3,0,0,-4,77,79,59,50,87,120.87,1,-35.00,39.00,-959.00
2024-06-07 00:17:08.098519,-1,0,-3,0,0,-3,77,79,64,50,87,120.88,1,-18.00,-20.00,-918.00
2024-06-07 00:17:08.138447,0,0,-3,0,0,-2,77,79,68,50,87,120.90,1,13.00,15.00,-916.00
2024-06-07 00:17:08.346706,0,0,-3,0,0,-2,77,79,72,60,87,120.97,1,33.00,26.00,-859.00
2024-06-07 00:17:08.346764,0,0,-3,0,0,-1,77,79,74,60,87,120.99,1,0.00,16.00,-873.00
2024-06-07 00:17:08.528199,0,0,-3,0,0,0,77,79,76,60,87,120.98,2,2.00,-31.00,-851.00
2024-06-07 00:17:08.541935,0,0,-3,0,0,0,77,79,77,60,87,120.98,2,-41.00,19.00,-1054.00
2024-06-07 00:17:08.671403,0,0,-3,0,0,0,76,79,78,60,87,121.03,2,-9.00,35.00,-937.00
2024-06-07 00:17:08.814745,0,0,-3,0,0,0,76,79,79,60,86,121.00,2,16.00,-37.00,-1048.00
2024-06-07 00:17:08.961133,0,0,-3,0,0,0,76,79,81,60,86,121.04,2,21.00,-30.00,-1004.00
2024-06-07 00:17:08.961186,0,0,-3,0,0,0,76,79,82,70,86,121.11,2,-15.00,33.00,-971.00
2024-06-07 00:17:09.104519,0,0,-3,0,0,0,76,79,83,70,86,121.05,2,17.00,-27.00,-1037.00
2024-06-07 00:17:09.155275,0,0,-3,0,0,0,76,79,84,70,86,121.08,2,-1.00,-6.00,-969.00
2024-06-07 00:17:09.268319,0,0,-3,0,0,0,76,79,85,70,86,121.18,2,1.00,11.00,-1044.00
2024-06-07 00:17:09.357889,0,-1,-3,0,0,0,76,79,86,70,86,121.10,2,23.00,27.00,-951.00
2024-06-07 00:17:09.409389,0,0,-3,0,0,0,76,79,86,70,86,121.13,3,-19.00,4.00,-948.00
2024-06-07 00:17:09.566643,0,0,-3,0,0,0,76,79,87,70,86,121.17,3,41.00,-21.00,-1019.00
2024-06-07 00:17:09.663854,0,0,-2,0,0,0,77,79,88,70,86,121.23,3,36.00,3.00,-1016.00
2024-06-07 00:17:09.771404,0,0,-2,0,0,0,77,79,89,70,86,121.17,3,-21.00,30.00,-1002.00
2024-06-07 00:17:09.819301,0,0,-2,0,0,0,77,79,89,70,86,121.18,3,-20.00,32.00,-952.00
2024-06-07 00:17:09.918909,0,-1,-2,0,0,0,77,79,89,70,86,121.19,3,8.00,-30.00,-1017.00
2024-06-07 00:17:10.020812,-1,-1,-2,0,0,0,77,79,89,70,86,121.16,3,-8.00,9.00,-936.00
2024-06-07 00:17:10.124089,-1,0,-2,0,0,0,77,79,89,70,86,121.09,3,36.00,-3.00,-953.00
2024-06-07 00:17:10.224850,0,0,-2,0,0,0,77,79,88,70,86,121.14,3,-9.00,3.00,-1064.00
2024-06-07 00:17:10.387465,0,0,-2,0,0,0,77,79,87,70,86,121.09,3,-3.00,-14.00,-994.00
2024-06-07 00:17:10.429106,0,0,-2,0,0,0,77,79,86,70,86,121.09,4,17.00,16.00,-1021.00
2024-06-07 00:17:10.588530,0,0,-2,0,0,0,77,79,86,70,86,121.17,4,-14.00,7.00,-993.00
2024-06-07 00:17:10.633845,0,0,-2,0,0,0,77,79,84,70,86,121.15,4,10.00,1.00,-1011.00
2024-06-07 00:17:10.793279,0,0,-2,0,0,0,77,79,83,70,86,121.07,4,27.00,0.00,-1016.00
2024-06-07 00:17:10.836704,0,0,-2,0,0,0,77,79,82,70,86,121.12,4,-15.00,9.00,-1056.00
2024-06-07 00:17:10.998007,0,0,-2,0,0,0,77,79,81,70,86,121.08,4,23.00,-11.00,-1053.00
2024-06-07 00:17:11.040721,0,0,-2,0,0,0,77,79,81,70,86,121.10,4,26.00,-38.00,-1013.00
2024-06-07 00:17:11.202840,0,0,-2,0,0,0,77,79,80,70,86,121.07,4,37.00,-37.00,-1013.00
2024-06-07 00:17:11.244714,0,0,-2,0,0,0,77,79,79,70,86,121.05,4,1.00,16.00,-984.00
2024-06-07 00:17:11.407618,0,0,-2,0,0,0,77,79,79,70,86,121.06,4,-4.00,7.00,-972.00
2024-06-07 00:17:11.449092,0,0,-2,0,0,0,77,79,79,70,86,121.01,5,24.00,-14.00,-999.00
2024-06-07 00:17:11.612437,0,0,-2,0,0,0,77,79,78,70,86,121.15,5,-9.00,17.00,-925.00
2024-06-07 00:17:11.652780,0,0,-2,0,0,0,77,79,77,70,86,121.09,5,3.00,-28.00,-999.00
2024-06-07 00:17:11.817212,0,0,-2,0,0,0,77,79,77,70,85,121.07,5,19.00,-17.00,-1027.00
2024-06-07 00:17:11.856928,0,0,-2,0,0,0,77,79,77,60,85,121.11,5,-28.00,19.00,-974.00
2024-06-07 00:17:12.026818,0,0,-2,0,0,0,77,79,76,60,85,121.05,5,15.00,-4.00,-1010.00
2024-06-07 00:17:12.060709,0,0,-2,0,0,0,77,79,76,60,85,121.05,5,-40.00,30.00,-1053.00
2024-06-07 00:17:12.227243,0,0,-2,0,0,0,77,79,76,60,85,121.09,5,2.00,20.00,-987.00
2024-06-07 00:17:12.264733,0,0,-2,0,0,0,77,79,77,60,85,121.07,5,-7.00,6.00,-1026.00
2024-06-07 00:17:12.432889,0,0,-2,0,0,0,77,79,77,60,85,121.08,5,54.00,20.00,-935.00
2024-06-07 00:17:12.468757,0,0,-2,0,0,0,77,79,77,60,85,121.09,6,7.00,23.00,-1014.00
2024-06-07 00:17:12.636489,0,0,-2,0,0,0,77,79,77,60,85,121.09,6,23.00,12.00,-1010.00
2024-06-07 00:17:12.672615,0,0,-2,0,0,0,76,79,77,60,85,121.12,6,-40.00,28.00,-1033.00
2024-06-07 00:17:12.775126,0,0,-2,0,0,0,76,79,77,60,85,121.08,6,-11.00,-24.00,-1012.00
2024-06-07 00:17:12.944530,0,0,-2,0,0,0,76,79,77,60,85,121.01,6,-21.00,1.00,-990.00
2024-06-07 00:17:12.978744,0,0,-2,0,0,0,76,79,77,60,85,121.11,6,0.00,-21.00,-963.00
2024-06-07 00:17:13.127237,0,0,-2,0,0,0,76,79,77,60,85,121.12,6,10.00,-16.00,-970.00
2024-06-07 00:17:13.182656,0,0,-2,0,0,0,76,79,78,60,85,121.07,6,-23.00,27.00,-990.00
2024-06-07 00:17:13.354068,0,0,-2,0,0,0,76,79,78,60,85,121.08,6,-10.00,22.00,-1024.00
2024-06-07 00:17:13.386738,0,0,-2,0,0,0,76,79,78,70,85,121.04,6,11.00,-28.00,-1048.00
2024-06-07 00:17:13.488756,0,0,-2,0,0,0,76,79,79,70,85,121.07,7,28.00,-17.00,-1032.00
2024-06-07 00:17:13.661578,0,0,-2,0,0,0,76,79,79,70,85,121.13,7,-10.00,10.00,-937.00
2024-06-07 00:17:13.692741,0,0,-2,0,0,0,75,78,79,70,84,121.10,7,24.00,-10.00,-1020.00
2024-06-07 00:17:14.073516,0,0,-2,0,0,0,75,78,79,70,84,121.07,7,-45.00,-5.00,-1009.00
2024-06-07 00:17:14.191088,0,0,-2,0,0,0,75,78,79,70,84,121.03,7,-1.00,-42.00,-1021.00
2024-06-07 00:17:14.191276,0,0,-2,0,0,0,75,78,80,70,84,121.09,7,46.00,-27.00,-980.00
2024-06-07 00:17:14.191769,0,0,-2,0,0,0,75,78,80,70,84,121.13,7,-18.00,35.00,-988.00
2024-06-07 00:17:14.191917,0,0,-2,0,0,0,75,78,80,70,84,121.08,7,-44.00,11.00,-938.00
2024-06-07 00:17:14.337546,0,0,-2,0,0,0,75,78,80,70,84,121.10,7,15.00,-21.00,-1024.00
2024-06-07 00:17:14.355841,0,0,-2,0,0,0,75,78,80,70,84,121.12,7,-22.00,-15.00,-1091.00
2024-06-07 00:17:14.494093,0,0,-2,0,0,0,75,78,80,70,84,121.11,8,-18.00,12.00,-967.00
2024-06-07 00:17:14.629081,0,0,-2,0,0,0,75,78,80,70,84,121.17,8,-13.00,-7.00,-933.00
2024-06-07 00:17:14.662925,0,0,-2,0,0,0,76,78,81,70,84,121.04,8,4.00,3.00,-981.00
2024-06-07 00:17:14.805266,0,0,-2,0,0,0,76,78,80,70,84,121.17,8,36.00,4.00,-1058.00
2024-06-07 00:17:14.947795,0,0,-2,0,0,0,76,78,80,70,84,121.08,8,15.00,-17.00,-1033.00
2024-06-07 00:17:14.967409,0,0,-2,0,0,0,76,78,80,70,84,121.18,8,-23.00,4.00,-1014.00
2024-06-07 00:17:15.104134,0,0,-2,0,0,0,76,78,80,70,84,121.18,8,-37.00,-26.00,-1144.00
2024-06-07 00:17:15.249912,0,0,-2,0,0,-1,76,78,82,70,84,121.12,8,-13.00,20.00,-1069.00
2024-06-07 00:17:15.273404,0,0,-2,0,0,-2,76,78,84,70,84,121.23,8,-30.00,-1.00,-1056.00
2024-06-07 00:17:15.466957,0,0,-2,0,0,-3,76,78,87,70,84,121.24,8,48.00,-3.00,-1069.00
2024-06-07 00:17:15.477587,0,0,-2,0,0,-4,76,78,91,80,84,121.32,9,-40.00,10.00,-1022.00
2024-06-07 00:17:15.606691,0,0,-2,0,0,-4,76,78,95,80,84,121.27,9,-20.00,12.00,-1048.00
2024-06-07 00:17:15.719913,0,0,-2,0,0,-4,76,78,100,90,83,121.40,9,-21.00,-3.00,-1088.00
2024-06-07 00:17:15.863254,0,0,-2,0,0,-5,76,78,105,90,83,121.41,9,-35.00,21.00,-1006.00
2024-06-07 00:17:15.885421,0,0,-2,0,0,-5,76,78,110,100,83,121.46,9,-11.00,-12.00,-991.00
2024-06-07 00:17:16.027818,0,0,-2,0,0,-5,76,78,116,100,83,121.56,9,6.00,19.00,-1048.00
2024-06-07 00:17:16.170599,0,0,-2,0,0,-5,76,78,121,110,83,121.63,9,33.00,-29.00,-958.00
2024-06-07 00:17:16.191612,0,0,-2,0,0,-5,76,78,127,110,83,121.56,9,7.00,19.00,-952.00
2024-06-07 00:17:16.334087,0,0,-2,0,0,-4,76,78,132,120,83,121.69,9,-35.00,38.00,-1020.00
2024-06-07 00:17:16.490924,0,0,-2,0,0,-4,76,78,137,120,83,121.69,9,39.00,-40.00,-952.00
2024-06-07 00:17:16.497539,0,0,-2,0,0,-4,76,78,142,130,83,121.80,10,41.00,-11.00,-966.00
2024-06-07 00:17:16.618085,0,0,-2,0,0,-4,76,78,148,130,83,121.77,10,-47.00,-1.00,-930.00
2024-06-07 00:17:16.702292,0,0,-2,0,0,-4,75,77,151,130,83,121.81,10,-4.00,33.00,-929.00
2024-06-07 00:17:16.835329,0,0,-2,0,0,-3,75,77,155,140,83,121.90,10,19.00,-14.00,-1028.00
2024-06-07 00:17:16.907172,0,0,-2,0,0,-3,75,77,160,140,83,121.93,10,-27.00,-2.00,-931.00
2024-06-07 00:17:17.009681,0,0,-2,0,0,-3,75,77,163,150,83,121.96,10,-8.00,-23.00,-928.00
2024-06-07 00:17:17.111966,0,0,-2,0,0,-2,75,77,166,150,83,121.96,10,19.00,-1.00,-956.00
2024-06-07 00:17:17.211655,0,0,-2,0,0,-2,75,77,169,150,83,122.02,10,43.00,-37.00,-991.00
2024-06-07 00:17:17.349070,0,0,-2,0,0,-2,75,77,172,160,83,121.98,10,-3.00,30.00,-989.00
2024-06-07 00:17:17.415407,0,0,-2,0,0,-1,75,77,173,160,83,122.04,10,33.00,-41.00,-981.00
2024-06-07 00:17:17.517951,0,1,-2,0,0,-1,75,77,176,160,83,122.01,11,-6.00,8.00,-960.00
2024-06-07 00:17:17.619585,0,1,-2,0,0,-1,75,77,178,160,83,122.07,11,2.00,2.00,-973.00
2024-06-07 00:17:17.756399,0,1,-2,0,0,-1,75,77,183,160,82,122.10,11,-8.00,14.00,-1006.00
2024-06-07 00:17:17.824013,0,0,-2,0,0,-1,75,77,183,160,82,122.09,11,2.00,-16.00,-962.00
2024-06-07 00:17:17.874685,0,0,-2,0,0,0,75,77,185,170,82,121.95,11,-9.00,6.00,-975.00
2024-06-07 00:17:18.069140,0,0,-2,0,0,0,75,77,187,170,82,122.10,11,48.00,-37.00,-999.00
2024-06-07 00:17:18.078408,0,0,-2,0,0,0,75,77,187,170,82,122.10,11,-4.00,10.00,-904.00
2024-06-07 00:17:18.272230,0,0,-2,0,0,0,75,77,188,170,82,122.02,11,-2.00,-10.00,-952.00
2024-06-07 00:17:18.284711,0,0,-2,0,0,0,75,77,189,170,82,122.13,11,-4.00,4.00,-986.00
2024-06-07 00:17:18.386127,0,0,-2,0,0,0,75,77,189,170,82,122.13,11,7.00,2.00,-1011.00
2024-06-07 00:17:18.489924,0,0,-2,0,0,0,75,77,189,170,82,122.09,12,36.00,-33.00,-1036.00
2024-06-07 00:17:18.588789,0,0,-2,0,0,0,75,77,192,170,82,122.07,12,1.00,3.00,-1051.00
2024-06-07 00:17:18.780636,0,0,-2,0,0,0,75,77,192,170,82,122.06,12,29.00,-32.00,-972.00
2024-06-07 00:17:18.792211,0,0,-2,0,0,0,75,77,192,170,82,122.12,12,37.00,2.00,-972.00
2024-06-07 00:17:18.985385,0,0,-2,0,0,0,75,77,192,170,82,122.11,12,0.00,0.00,-927.00
2024-06-07 00:17:18.996206,0,0,-2,0,0,0,75,77,192,170,82,122.10,12,28.00,-12.00,-937.00
2024-06-07 00:17:19.131202,0,0,-2,0,0,0,75,77,190,170,82,122.10,12,30.00,1.00,-934.00
2024-06-07 00:17:19.200147,0,0,-2,0,0,0,75,77,191,170,82,122.08,12,-21.00,28.00,-978.00
2024-06-07 00:17:19.394586,0,0,-2,0,0,0,75,77,191,170,82,122.08,12,8.00,-26.00,-1056.00
2024-06-07 00:17:19.406185,0,0,-2,0,0,0,75,77,191,170,82,122.05,12,-10.00,27.00,-935.00
2024-06-07 00:17:19.508765,0,0,-2,0,0,0,75,77,189,170,82,122.06,13,-25.00,9.00,-1038.00
2024-06-07 00:17:19.609660,0,0,-2,0,0,0,75,77,188,170,82,122.11,13,42.00,-25.00,-1047.00
2024-06-07 00:17:19.711337,0,0,-2,0,0,0,75,77,188,170,81,122.15,13,8.00,10.00,-999.00
2024-06-07 00:17:19.813398,0,0,-2,0,0,0,75,77,188,170,81,122.08,13,-27.00,13.00,-951.00
2024-06-07 00:17:19.914188,0,0,-2,0,0,0,75,77,186,170,81,122.08,13,12.00,-20.00,-885.00
2024-06-07 00:17:20.015971,0,0,-2,0,0,1,75,77,182,170,81,122.04,13,-22.00,21.00,-917.00
2024-06-07 00:17:20.216404,0,0,-2,0,0,1,75,77,181,170,81,121.99,13,14.00,-20.00,-967.00
2024-06-07 00:17:20.220535,0,0,-2,0,0,2,75,77,178,170,81,122.02,13,12.00,-7.00,-962.00
2024-06-07 00:17:20.418482,0,0,-2,0,0,2,75,77,175,160,81,121.94,13,-3.00,20.00,-962.00
2024-06-07 00:17:20.425274,0,0,-2,0,0,2,75,77,172,160,81,121.92,13,20.00,-34.00,-957.00
2024-06-07 00:17:20.526225,0,1,-2,0,0,3,75,77,168,160,81,121.91,14,51.00,-25.00,-964.00
2024-06-07 00:17:20.727551,0,1,-2,0,0,3,75,77,166,160,81,121.90,14,-16.00,6.00,-1010.00
2024-06-07 00:17:20.730408,0,0,-2,0,0,2,75,77,163,150,81,121.85,14,28.00,-11.00,-949.00
2024-06-07 00:17:20.930437,0,0,-2,0,0,2,75,77,161,150,81,121.83,14,33.00,-17.00,-1058.00
2024-06-07 00:17:20.933882,0,0,-2,0,0,2,75,77,158,150,81,121.81,14,34.00,2.00,-899.00
2024-06-07 00:17:21.035866,0,0,-2,0,0,2,75,77,154,140,81,121.85,14,7.00,6.00,-1013.00
2024-06-07 00:17:21.139906,0,0,-2,0,0,2,75,77,152,140,81,121.76,14,32.00,28.00,-957.00
2024-06-07 00:17:21.239884,0,0,-2,0,0,2,75,77,150,140,81,121.76,14,21.00,-21.00,-999.00
2024-06-07 00:17:21.342034,0,0,-2,0,0,1,75,77,148,140,81,121.78,14,32.00,-41.00,-1046.00
2024-06-07 00:17:21.443876,0,0,-2,0,0,1,75,77,146,140,81,121.74,14,36.00,-15.00,-1024.00
2024-06-07 00:17:21.545872,0,0,-2,0,0,1,75,77,144,130,81,121.72,15,57.00,-16.00,-957.00
2024-06-07 00:17:21.596902,0,0,-2,0,0,1,75,77,143,130,81,121.72,15,16.00,-29.00,-1000.00
2024-06-07 00:17:21.750759,0,0,-2,0,0,0,75,77,142,130,81,121.78,15,-5.00,-19.00,-1074.00
2024-06-07 00:17:21.852314,0,0,-2,0,0,1,75,77,141,130,81,121.69,15,-36.00,-1.00,-983.00
2024-06-07 00:17:21.954479,0,0,-2,0,0,0,75,77,140,130,81,121.64,15,9.00,-14.00,-1107.00
2024-06-07 00:17:22.005219,0,0,-2,0,0,0,75,77,139,130,81,121.61,15,-15.00,7.00,-1033.00
2024-06-07 00:17:22.135245,0,0,-2,0,0,0,75,77,139,130,81,121.67,15,28.00,-63.00,-1060.00
2024-06-07 00:17:22.211051,0,0,-2,0,0,0,75,77,139,130,81,121.69,15,19.00,-18.00,-1010.00
2024-06-07 00:17:22.311026,0,0,-2,0,0,0,75,77,139,130,81,121.71,15,-45.00,-11.00,-1042.00
2024-06-07 00:17:22.466532,0,0,-2,0,0,0,75,77,138,130,81,121.63,16,16.00,-20.00,-1032.00
2024-06-07 00:17:22.514991,0,0,-2,0,0,0,75,77,138,130,81,121.61,16,-5.00,30.00,-920.00
2024-06-07 00:17:22.674074,0,0,-2,0,0,0,75,77,137,130,81,121.61,16,25.00,-6.00,-1039.00
2024-06-07 00:17:22.718925,0,0,-2,0,0,0,74,77,138,130,80,121.64,16,-10.00,-3.00,-959.00
2024-06-07 00:17:22.877453,0,0,-2,0,0,0,74,77,138,130,80,121.68,16,-7.00,-14.00,-953.00
2024-06-07 00:17:22.922843,0,0,-2,0,0,0,74,77,138,130,80,121.63,16,5.00,-50.00,-1013.00
2024-06-07 00:17:23.087271,0,0,-2,0,0,0,74,77,137,130,80,121.65,16,31.00,-10.00,-1042.00
2024-06-07 00:17:23.127055,0,0,-2,0,0,0,74,77,137,130,80,121.65,16,16.00,9.00,-988.00
2024-06-07 00:17:23.287682,0,0,-2,0,0,0,74,77,136,130,80,121.66,16,-29.00,2.00,-1035.00
2024-06-07 00:17:23.331094,0,0,-2,0,0,0,74,77,137,120,80,121.73,16,-40.00,-5.00,-913.00
2024-06-07 00:17:23.492113,0,0,-2,0,0,0,74,77,136,120,80,121.72,17,14.00,-15.00,-1023.00
2024-06-07 00:17:23.534845,0,0,-2,0,0,0,74,77,137,120,80,121.71,17,4.00,-3.00,-1047.00
2024-06-07 00:17:23.695184,0,0,-2,0,0,0,74,77,136,120,80,121.71,17,-26.00,-17.00,-968.00
2024-06-07 00:17:23.739744,0,0,-2,0,0,0,75,78,136,120,80,121.72,17,-39.00,34.00,-941.00
2024-06-07 00:17:23.857287,0,0,-2,0,0,0,75,78,136,120,80,121.72,17,27.00,-37.00,-924.00
2024-06-07 00:17:23.942939,0,0,-2,0,0,0,75,78,137,120,80,121.70,17,7.00,-18.00,-1021.00
2024-06-07 00:17:24.044582,-3,0,-2,0,0,0,75,78,137,120,80,121.70,17,-1.00,-33.00,-1036.00
2024-06-07 00:17:24.211567,-8,0,-2,1,0,0,75,78,141,120,80,121.72,17,1.00,-5.00,-1035.00
2024-06-07 00:17:24.249694,-8,1,-3,2,0,0,75,78,142,120,80,121.71,17,-47.00,1.00,-1009.00
2024-06-07 00:17:24.413220,-8,1,-3,4,0,0,75,78,142,130,80,121.71,17,-68.00,-39.00,-1067.00
2024-06-07 00:17:24.452605,-7,1,-2,5,0,0,75,78,142,130,80,121.69,18,-44.00,-11.00,-1024.00
2024-06-07 00:17:24.616677,-6,0,-2,6,0,0,75,78,144,130,80,121.65,18,-7.00,-12.00,-967.00
2024-06-07 00:17:24.656776,-5,0,-2,7,0,0,75,78,143,130,80,121.67,18,-59.00,20.00,-988.00
2024-06-07 00:17:24.822089,-4,0,-2,7,0,0,75,77,143,130,80,121.68,18,-67.00,-7.00,-931.00
2024-06-07 00:17:24.860496,-3,-1,-2,7,0,0,75,77,143,130,80,121.70,18,-30.00,-20.00,-1016.00
2024-06-07 00:17:25.026692,0,-2,-2,7,0,0,75,77,143,130,80,121.80,18,-65.00,14.00,-1060.00
2024-06-07 00:17:25.067657,2,-2,-3,7,0,0,75,77,144,130,80,121.75,18,-78.00,19.00,-987.00
2024-06-07 00:17:25.166454,4,-1,-3,6,0,0,75,77,145,130,80,121.75,18,-90.00,18.00,-992.00
2024-06-07 00:17:25.333468,3,-1,-3,4,0,0,75,77,145,130,80,121.75,18,-37.00,9.00,-960.00
2024-06-07 00:17:25.373656,2,0,-3,3,0,0,75,77,145,130,80,121.73,18,-41.00,6.00,-1012.00
2024-06-07 00:17:25.472534,1,0,-2,3,0,0,75,77,146,130,80,121.81,19,18.00,-4.00,-1001.00
2024-06-07 00:17:25.642307,0,0,-2,3,0,0,75,77,146,130,80,121.77,19,12.00,-5.00,-1029.00
2024-06-07 00:17:25.676910,1,1,-2,3,0,0,75,77,147,130,80,121.79,19,-17.00,-5.00,-984.00
2024-06-07 00:17:25.845583,1,1,-2,3,0,0,74,78,148,130,79,121.82,19,-12.00,-5.00,-989.00
2024-06-07 00:17:25.885584,1,1,-2,3,0,0,74,78,148,130,79,121.80,19,-24.00,49.00,-943.00
2024-06-07 00:17:25.983699,6,0,-2,2,0,0,74,78,150,130,79,121.82,19,-3.00,-10.00,-979.00
2024-06-07 00:17:26.033414,4,0,-2,1,0,0,74,78,149,130,79,121.90,19,22.00,-25.00,-954.00
2024-06-07 00:17:26.153111,2,0,-2,0,0,0,74,78,148,130,79,121.85,19,-8.00,-1.00,-1018.00
2024-06-07 00:17:26.237706,1,0,-2,0,0,0,74,78,148,130,79,121.81,19,-19.00,-2.00,-986.00
2024-06-07 00:17:26.357623,1,0,-2,0,0,0,74,78,148,130,79,121.86,19,-26.00,10.00,-927.00
2024-06-07 00:17:26.441518,0,0,-2,0,0,0,74,78,147,130,79,121.83,20,-39.00,2.00,-958.00
2024-06-07 00:17:26.543977,0,0,-2,0,0,0,74,78,147,130,79,121.83,20,-19.00,18.00,-986.00
2024-06-07 00:17:26.665073,0,0,-2,0,0,0,74,78,147,130,79,121.81,20,-7.00,-15.00,-982.00
2024-06-07 00:17:26.749096,0,0,-2,0,0,0,75,77,147,130,79,121.83,20,13.00,-42.00,-1025.00
2024-06-07 00:17:26.870492,0,0,-2,0,0,0,75,77,147,130,79,121.81,20,10.00,-27.00,-994.00
2024-06-07 00:17:26.951530,0,0,-2,0,0,0,75,77,147,130,79,121.87,20,37.00,-48.00,-1026.00
2024-06-07 00:17:27.074375,0,0,-2,0,0,0,75,77,148,130,79,121.91,20,-7.00,0.00,-1021.00
2024-06-07 00:17:27.156204,0,0,-2,0,0,0,75,77,149,130,79,121.79,20,8.00,-15.00,-994.00
2024-06-07 00:17:27.280050,0,-1,-2,0,0,0,75,77,149,130,79,121.82,20,15.00,-11.00,-988.00
2024-06-07 00:17:27.360094,0,-1,-2,0,0,0,75,77,149,130,79,121.86,20,20.00,-16.00,-1016.00
2024-06-07 00:17:27.483965,0,-1,-2,0,0,0,75,77,149,130,79,121.83,21,3.00,-19.00,-1031.00
2024-06-07 00:17:27.563896,0,-1,-2,0,0,0,75,77,149,130,79,121.92,21,-23.00,5.00,-1034.00
2024-06-07 00:17:27.689018,0,-1,-2,0,0,0,75,77,149,130,79,121.90,21,8.00,-16.00,-1032.00
2024-06-07 00:17:27.767502,0,-1,-2,0,0,0,75,77,149,130,79,121.88,21,-11.00,16.00,-990.00
2024-06-07 00:17:27.893906,0,-1,-2,0,0,0,75,77,148,130,79,121.81,21,13.00,15.00,-961.00
2024-06-07 00:17:27.971683,0,0,-2,0,0,0,75,77,148,130,79,121.94,21,0.00,6.00,-1013.00
2024-06-07 00:17:28.098228,0,0,-2,0,0,0,75,77,147,130,79,121.87,21,2.00,25.00,-952.00
2024-06-07 00:17:28.175207,0,0,-2,0,0,0,75,77,146,130,79,121.81,21,38.00,-35.00,-1054.00
2024-06-07 00:17:28.277290,0,0,-2,0,0,0,75,77,145,130,79,121.92,21,23.00,-17.00,-1030.00
2024-06-07 00:17:28.379627,4,1,-2,0,0,0,75,77,147,130,79,121.85,21,23.00,-20.00,-1035.00
2024-06-07 00:17:28.481347,8,1,-2,-1,0,0,75,77,147,130,79,121.86,22,-22.00,-5.00,-1033.00
2024-06-07 00:17:28.584280,8,0,-2,-2,0,0,75,77,147,130,79,121.81,22,39.00,-23.00,-1016.00
2024-06-07 00:17:28.712902,8,0,-2,-4,0,0,75,77,146,130,78,121.84,22,-6.00,0.00,-1053.00
2024-06-07 00:17:28.788863,7,-1,-2,-5,0,0,75,77,141,130,78,121.79,22,5.00,33.00,-1004.00
2024-06-07 00:17:28.917404,6,-1,-2,-6,0,0,75,77,143,130,78,121.87,22,39.00,-38.00,-1106.00
2024-06-07 00:17:28.992530,5,0,-2,-7,0,0,75,77,142,130,78,121.77,22,55.00,-9.00,-1083.00
2024-06-07 00:17:29.122015,5,0,-2,-7,0,0,75,77,139,130,78,121.72,22,19.00,2.00,-960.00
2024-06-07 00:17:29.197465,3,0,-2,-7,0,0,75,77,139,130,78,121.77,22,18.00,29.00,-1015.00
2024-06-07 00:17:29.327038,0,0,-2,-7,0,0,75,77,138,130,78,121.75,22,20.00,14.00,-989.00
2024-06-07 00:17:29.400206,-2,0,-2,-6,0,0,75,77,137,130,78,121.72,22,22.00,7.00,-1022.00
2024-06-07 00:17:29.531723,-3,0,-2,-5,0,0,75,77,136,130,78,121.68,23,6.00,2.00,-1015.00
2024-06-07 00:17:29.604142,-3,0,-2,-4,0,0,75,77,136,130,78,121.69,23,-2.00,23.00,-1016.00
2024-06-07 00:17:29.740113,-2,0,-2,-3,0,0,75,77,135,120,78,121.71,23,0.00,-11.00,-962.00
2024-06-07 00:17:29.808880,-1,0,-2,-3,0,0,75,77,134,120,78,121.74,23,25.00,-11.00,-1032.00
2024-06-07 00:17:29.942432,0,0,-2,-2,0,0,75,77,133,120,78,121.72,23,-23.00,48.00,-1038.00
2024-06-07 00:17:30.012147,0,0,-2,-2,0,0,75,77,133,120,78,121.71,23,43.00,-3.00,-948.00
2024-06-07 00:17:30.146093,1,0,-2,-2,0,0,75,77,132,120,78,121.66,23,29.00,-41.00,-1012.00
2024-06-07 00:17:30.165100,1,0,-2,-2,0,0,75,77,133,120,78,121.65,23,20.00,-14.00,-1022.00
2024-06-07 00:17:30.269868,1,0,-2,-2,0,0,75,77,133,120,78,121.65,23,18.00,-36.00,-1026.00
2024-06-07 00:17:30.369056,0,0,-2,-2,0,0,75,77,133,120,78,121.64,23,18.00,-32.00,-1064.00
2024-06-07 00:17:30.561713,0,0,-2,-2,0,0,75,77,134,120,78,121.70,24,8.00,-18.00,-1066.00
2024-06-07 00:17:30.574308,0,0,-2,-2,0,0,75,77,135,120,78,121.69,24,27.00,23.00,-987.00
2024-06-07 00:17:30.765438,0,0,-2,-2,0,0,75,77,135,120,78,121.69,24,58.00,-23.00,-993.00
2024-06-07 00:17:30.777064,-3,0,-2,-1,0,0,74,76,137,120,78,121.73,24,0.00,35.00,-1009.00
2024-06-07 00:17:30.965829,-3,0,-2,0,0,0,74,76,136,120,78,121.76,24,-6.00,-14.00,-985.00
2024-06-07 00:17:30.980973,-1,0,-2,0,0,0,74,76,137,120,78,121.68,24,-2.00,-8.00,-984.00
2024-06-07 00:17:31.145511,0,0,-2,0,0,0,74,76,138,120,78,121.72,24,55.00,-40.00,-957.00
2024-06-07 00:17:31.185508,0,0,-2,0,0,0,74,76,138,120,78,121.75,24,4.00,2.00,-993.00
2024-06-07 00:17:31.375317,0,0,-2,0,0,0,74,76,140,130,78,121.78,24,15.00,-15.00,-995.00
2024-06-07 00:17:31.389040,0,0,-2,0,0,0,74,76,140,130,78,121.80,24,5.00,-2.00,-875.00
2024-06-07 00:17:31.579664,0,0,-2,0,0,0,74,76,141,130,78,121.79,25,3.00,-20.00,-982.00
2024-06-07 00:17:31.593017,0,0,-2,0,0,0,74,76,141,130,78,121.81,25,12.00,-3.00,-962.00
2024-06-07 00:17:31.784886,0,0,-2,0,0,0,74,76,142,130,77,121.75,25,7.00,32.00,-957.00
2024-06-07 00:17:31.797604,1,0,-2,0,0,0,75,77,141,130,77,121.76,25,-15.00,11.00,-922.00
2024-06-07 00:17:31.994331,1,0,-2,0,0,0,75,77,142,130,77,121.79,25,-12.00,45.00,-1017.00
2024-06-07 00:17:32.001062,1,0,-2,0,0,0,75,77,142,130,77,121.80,25,-2.00,51.00,-886.00
2024-06-07 00:17:32.194027,1,0,-2,0,0,0,75,77,141,130,77,121.85,25,0.00,9.00,-997.00
2024-06-07 00:17:32.205017,1,0,-2,0,0,0,75,77,141,130,77,121.82,25,32.00,22.00,-948.00
2024-06-07 00:17:32.399291,1,0,-2,0,0,0,75,77,140,130,77,121.75,25,18.00,32.00,-1003.00
2024-06-07 00:17:32.409067,1,0,-2,0,0,0,75,77,140,130,77,121.74,25,-16.00,32.00,-963.00
2024-06-07 00:17:32.603801,1,0,-2,0,0,0,75,77,139,130,77,121.79,26,48.00,5.00,-1094.00
2024-06-07 00:17:32.613141,1,0,-2,0,0,0,75,77,138,130,77,121.77,26,42.00,26.00,-867.00
2024-06-07 00:17:32.808699,1,0,-2,0,0,0,75,77,137,130,77,121.75,26,28.00,-41.00,-1031.00
2024-06-07 00:17:32.816880,0,0,-2,0,0,0,74,76,137,130,77,121.72,26,-8.00,5.00,-962.00
2024-06-07 00:17:32.969038,0,0,-2,0,0,0,74,76,136,130,77,121.70,26,-46.00,41.00,-1108.00
2024-06-07 00:17:33.020721,0,0,-2,0,0,0,74,76,136,120,77,121.71,26,44.00,12.00,-966.00
2024-06-07 00:17:33.217960,0,0,-2,0,0,0,74,76,134,120,77,121.75,26,10.00,-3.00,-1021.00
2024-06-07 00:17:33.224839,0,-2,-2,0,0,0,74,76,135,120,77,121.74,26,-11.00,14.00,-1095.00
2024-06-07 00:17:33.423970,0,-8,-2,0,-1,0,74,76,136,120,77,121.74,26,3.00,23.00,-995.00
2024-06-07 00:17:33.428899,0,-6,-2,0,-2,0,74,76,133,120,77,121.72,26,19.00,31.00,-1068.00
2024-06-07 00:17:33.531951,0,-4,-2,0,-3,0,74,76,133,120,77,121.73,27,43.00,-14.00,-1040.00
2024-06-07 00:17:33.729853,0,-2,-2,0,-3,0,74,76,133,120,77,121.73,27,18.00,-10.00,-1020.00
2024-06-07 00:17:33.731708,0,0,-2,0,-4,0,74,76,133,120,77,121.66,27,-23.00,26.00,-1016.00
2024-06-07 00:17:33.934713,0,1,-2,0,-3,0,74,77,133,120,77,121.63,27,-33.00,36.00,-1066.00
2024-06-07 00:17:33.938719,1,0,-2,0,-3,0,74,77,133,120,77,121.65,27,6.00,23.00,-1119.00
2024-06-07 00:17:33.991342,2,0,-2,0,-2,0,74,77,133,120,77,121.66,27,13.00,25.00,-1007.00
2024-06-07 00:17:34.091917,2,0,-2,0,-2,0,74,77,134,120,77,121.69,27,-11.00,24.00,-1031.00
2024-06-07 00:17:34.194054,2,0,-2,0,-2,0,74,77,134,120,77,121.64,27,9.00,5.00,-1026.00
2024-06-07 00:17:34.344267,2,0,-2,0,-2,0,74,77,136,120,77,121.66,27,14.00,24.00,-1077.00
2024-06-07 00:17:34.397747,2,0,-2,0,-2,0,74,77,136,120,77,121.68,27,-2.00,43.00,-980.00
2024-06-07 00:17:34.550299,2,0,-2,0,-2,0,74,77,136,120,77,121.66,28,27.00,-24.00,-994.00
2024-06-07 00:17:34.601972,3,0,-2,0,-2,0,74,77,138,120,77,121.71,28,13.00,2.00,-1038.00
2024-06-07 00:17:34.754174,3,1,-2,-1,-2,0,74,77,138,120,77,121.65,28,-26.00,-13.00,-1023.00
2024-06-07 00:17:34.805930,0,3,-3,-1,-2,0,75,77,138,120,77,121.70,28,49.00,-28.00,-989.00
2024-06-07 00:17:34.960201,-2,4,-3,0,-1,0,75,77,138,120,77,121.68,28,0.00,33.00,-996.00
2024-06-07 00:17:35.010450,0,2,-3,0,0,0,75,77,140,130,77,121.64,28,22.00,28.00,-1009.00
2024-06-07 00:17:35.164376,0,1,-2,0,0,0,75,77,140,130,77,121.70,28,0.00,19.00,-976.00
2024-06-07 00:17:35.213703,1,0,-3,0,0,0,75,77,141,130,77,121.72,28,51.00,-35.00,-1008.00
2024-06-07 00:17:35.368633,1,0,-3,0,0,0,75,77,142,130,77,121.68,28,6.00,-15.00,-920.00
2024-06-07 00:17:35.417863,1,0,-3,0,0,0,75,77,143,130,77,121.72,28,0.00,-9.00,-994.00
2024-06-07 00:17:35.574781,0,0,-3,0,0,0,75,77,144,130,77,121.73,29,0.00,-21.00,-980.00
2024-06-07 00:17:35.622002,0,0,-3,0,0,0,75,77,144,130,77,121.75,29,50.00,-45.00,-983.00
2024-06-07 00:17:35.780615,0,0,-3,0,0,0,75,77,144,130,77,121.65,29,29.00,-8.00,-1008.00
2024-06-07 00:17:35.825940,1,0,-2,0,0,0,74,77,144,130,77,121.76,29,-10.00,3.00,-939.00
2024-06-07 00:17:35.982794,1,0,-2,0,0,0,74,77,143,130,77,121.75,29,19.00,3.00,-996.00
2024-06-07 00:17:36.033681,1,0,-2,0,0,0,74,77,143,130,77,121.70,29,24.00,-9.00,-1038.00
2024-06-07 00:17:36.131622,1,0,-2,0,0,0,74,77,141,130,77,121.65,29,43.00,-27.00,-916.00
2024-06-07 00:17:36.289968,1,0,-2,0,0,0,74,77,140,130,77,121.72,29,62.00,-5.00,-877.00
2024-06-07 00:17:36.335993,2,0,-2,0,0,0,74,77,139,130,77,121.58,29,14.00,-27.00,-1073.00
2024-06-07 00:17:36.494709,1,0,-2,0,0,0,74,77,138,130,77,121.55,30,36.00,-15.00,-1014.00
2024-06-07 00:17:36.539475,1,0,-2,0,0,0,74,77,136,130,77,121.58,30,-18.00,17.00,-1003.00
2024-06-07 00:17:36.700819,0,0,-2,0,0,0,74,77,135,120,77,121.57,30,45.00,-11.00,-1102.00
2024-06-07 00:17:36.744002,0,0,-2,0,0,0,74,77,133,120,76,121.61,30,9.00,9.00,-989.00
2024-06-07 00:17:36.904276,0,0,-2,0,0,0,74,77,133,120,76,121.58,30,-5.00,32.00,-1000.00
2024-06-07 00:17:36.947638,0,0,-2,0,0,0,74,77,132,120,76,121.55,30,45.00,-6.00,-1076.00
2024-06-07 00:17:37.098223,1,0,-2,0,0,0,74,77,131,120,76,121.55,30,43.00,5.00,-1042.00
2024-06-07 00:17:37.152278,1,5,-2,0,0,0,74,77,130,120,76,121.58,30,42.00,9.00,-941.00
2024-06-07 00:17:37.285942,1,8,-2,0,0,0,74,77,132,120,76,121.52,30,-20.00,22.00,-988.00
2024-06-07 00:17:37.355469,1,7,-2,0,2,0,74,77,132,120,76,121.51,30,29.00,-3.00,-1021.00
2024-06-07 00:17:37.414286,1,5,-2,0,3,0,74,77,131,120,76,121.52,31,-36.00,78.00,-1025.00
2024-06-07 00:17:37.509722,1,2,-2,0,3,0,74,77,130,120,76,121.54,31,37.00,-40.00,-995.00
2024-06-07 00:17:37.718845,1,0,-2,0,3,0,74,77,130,120,76,121.52,31,-40.00,-8.00,-1086.00
2024-06-07 00:17:37.718888,0,0,-2,0,3,0,74,77,131,120,76,121.60,31,-18.00,18.00,-1018.00
2024-06-07 00:17:37.955152,1,0,-2,0,2,0,74,76,131,120,76,121.61,31,0.00,-27.00,-1065.00
2024-06-07 00:17:37.955224,1,0,-2,0,2,0,74,76,131,120,76,121.53,31,43.00,-56.00,-1101.00
2024-06-07 00:17:38.020665,1,0,-2,0,2,0,74,76,132,120,76,121.50,31,-7.00,4.00,-920.00
2024-06-07 00:17:38.144104,1,1,-2,0,2,0,74,76,133,120,76,121.55,31,-31.00,-3.00,-951.00
2024-06-07 00:17:38.287168,0,1,-2,0,2,0,74,76,133,120,76,121.56,31,-22.00,14.00,-1039.00
2024-06-07 00:17:38.324704,1,0,-2,0,2,0,74,76,134,120,76,121.61,31,-3.00,23.00,-969.00
2024-06-07 00:17:38.451864,1,0,-2,0,2,0,74,76,135,120,76,121.57,32,-18.00,3.00,-1120.00
2024-06-07 00:17:38.595413,1,0,-2,0,2,0,74,76,135,120,76,121.61,32,-5.00,0.00,-994.00
2024-06-07 00:17:38.633186,2,0,-2,0,2,0,74,76,136,120,76,121.63,32,12.00,9.00,-867.00
2024-06-07 00:17:38.763130,3,0,-2,0,1,0,74,76,136,120,76,121.71,32,-32.00,-6.00,-935.00
2024-06-07 00:17:38.901778,3,1,-2,0,1,0,75,77,137,120,76,121.66,32,-3.00,-3.00,-999.00
2024-06-07 00:17:38.938264,2,1,-2,0,1,0,75,77,137,120,76,121.56,32,0.00,22.00,-954.00
2024-06-07 00:17:39.066395,2,1,-2,0,1,0,75,77,138,130,76,121.63,32,-22.00,-3.00,-968.00
2024-06-07 00:17:39.209743,1,1,-2,0,1,0,75,77,138,130,76,121.62,32,4.00,-30.00,-999.00
2024-06-07 00:17:39.245864,1,1,-2,0,1,0,75,77,140,130,76,121.68,32,34.00,-12.00,-1030.00
2024-06-07 00:17:39.375971,2,1,-2,0,1,0,75,77,141,130,76,121.63,32,-14.00,-10.00,-977.00
2024-06-07 00:17:39.515907,2,1,-2,0,1,0,75,77,141,130,76,121.62,33,32.00,-17.00,-1018.00
2024-06-07 00:17:39.549877,2,0,-2,-1,1,0,75,77,141,130,76,121.62,33,-7.00,-9.00,-1011.00
2024-06-07 00:17:39.685807,-1,1,-2,-1,2,0,75,77,142,130,76,121.67,33,38.00,-5.00,-972.00
2024-06-07 00:17:39.828428,-1,1,-2,0,1,0,75,77,142,130,76,121.60,33,33.00,4.00,-925.00
2024-06-07 00:17:39.855153,0,-2,-2,0,1,0,75,77,142,130,76,121.58,33,70.00,-16.00,-952.00
2024-06-07 00:17:39.990514,0,-3,-2,0,0,0,75,77,142,130,76,121.59,33,40.00,-13.00,-906.00
2024-06-07 00:17:40.135037,1,-1,-2,0,0,0,75,77,141,130,76,121.62,33,9.00,-6.00,-998.00
2024-06-07 00:17:40.161398,1,0,-2,0,0,0,75,77,141,130,76,121.57,33,5.00,0.00,-1046.00
2024-06-07 00:17:40.297967,1,0,-2,0,0,0,75,77,140,130,76,121.61,33,18.00,-28.00,-976.00
2024-06-07 00:17:40.380143,1,0,-2,0,0,0,75,77,140,130,76,121.61,33,0.00,4.00,-1035.00
2024-06-07 00:17:40.467238,0,1,-2,0,0,0,75,77,139,130,76,121.60,34,6.00,-3.00,-959.00
2024-06-07 00:17:40.572305,0,1,-2,0,0,0,75,77,139,130,76,121.71,34,34.00,-9.00,-1013.00
2024-06-07 00:17:40.671628,0,1,-2,0,0,0,75,77,140,130,76,121.64,34,-16.00,18.00,-1065.00
2024-06-07 00:17:40.795366,0,0,-2,0,0,0,75,77,141,130,76,121.67,34,32.00,-31.00,-885.00
2024-06-07 00:17:40.878062,0,0,-2,0,0,0,74,76,140,130,76,121.69,34,42.00,5.00,-1007.00
2024-06-07 00:17:40.977274,1,0,-2,0,0,0,74,76,141,130,76,121.62,34,23.00,-29.00,-1093.00
2024-06-07 00:17:41.102577,1,0,-2,0,0,0,74,76,140,130,76,121.62,34,-7.00,-5.00,-1003.00
2024-06-07 00:17:41.181318,0,0,-2,0,0,0,74,76,142,130,76,121.68,34,20.00,7.00,-965.00
2024-06-07 00:17:41.309746,1,0,-2,0,0,0,74,76,142,130,76,121.67,34,-5.00,-8.00,-1020.00
2024-06-07 00:17:41.385028,0,0,-2,0,0,0,74,76,142,130,76,121.61,34,-9.00,22.00,-960.00
2024-06-07 00:17:41.514002,1,0,-2,0,0,0,74,76,143,130,76,121.66,35,-22.00,31.00,-966.00
2024-06-07 00:17:41.590032,1,0,-2,0,0,0,74,76,143,130,76,121.70,35,40.00,-24.00,-1096.00
2024-06-07 00:17:41.640527,1,0,-2,0,0,0,74,76,143,130,76,121.67,35,3.00,-12.00,-973.00
2024-06-07 00:17:41.820735,1,0,-2,0,0,0,74,76,142,130,76,121.63,35,-3.00,8.00,-969.00
2024-06-07 00:17:41.844150,1,0,-2,0,0,0,75,76,144,130,76,121.70,35,3.00,0.00,-929.00
2024-06-07 00:17:42.010811,1,0,-2,0,0,0,75,76,143,130,76,121.65,35,10.00,0.00,-963.00
2024-06-07 00:17:42.049401,1,0,-2,0,0,0,75,76,143,130,76,121.60,35,10.00,-4.00,-932.00
2024-06-07 00:17:42.228713,1,0,-1,0,0,0,75,76,143,130,76,121.55,35,27.00,-21.00,-983.00
2024-06-07 00:17:42.252993,0,0,4,0,0,0,75,76,144,130,76,121.57,35,9.00,-25.00,-1010.00
2024-06-07 00:17:42.438571,0,0,10,0,0,0,75,76,144,130,76,121.66,35,-10.00,-26.00,-992.00
2024-06-07 00:17:42.456893,0,0,16,0,0,0,75,76,143,130,76,121.58,36,12.00,-1.00,-991.00
2024-06-07 00:17:42.566519,0,0,22,0,0,0,75,76,144,130,76,121.68,36,-37.00,8.00,-973.00
2024-06-07 00:17:42.660945,0,0,28,0,0,0,75,76,144,130,76,121.61,36,4.00,-4.00,-1018.00
2024-06-07 00:17:42.846189,0,0,34,0,0,0,75,76,143,130,76,121.64,36,8.00,1.00,-989.00
2024-06-07 00:17:42.865176,0,0,40,0,0,0,74,77,144,130,76,121.62,36,25.00,-9.00,-960.00
2024-06-07 00:17:43.049122,0,0,46,0,0,0,74,77,144,130,76,121.66,36,4.00,4.00,-912.00
2024-06-07 00:17:43.069070,0,0,52,0,0,0,74,77,144,130,76,121.64,36,-1.00,-16.00,-924.00
2024-06-07 00:17:43.253480,0,1,58,0,0,0,74,77,143,130,76,121.63,36,0.00,-1.00,-999.00
2024-06-07 00:17:43.273798,0,1,64,0,0,0,74,77,143,130,76,121.56,36,-15.00,-40.00,-1121.00
2024-06-07 00:17:43.457442,0,1,70,0,0,0,74,77,143,130,76,121.55,36,28.00,6.00,-979.00
2024-06-07 00:17:43.476947,0,1,77,0,0,0,74,77,143,130,76,121.56,37,-26.00,20.00,-981.00
2024-06-07 00:17:43.578913,0,1,83,0,0,0,74,77,142,130,76,121.54,37,26.00,-50.00,-1085.00
2024-06-07 00:17:43.765738,0,1,89,0,0,0,74,77,141,130,76,121.54,37,50.00,11.00,-905.00
2024-06-07 00:17:43.782886,0,0,95,0,0,0,74,77,140,130,76,121.47,37,-9.00,13.00,-962.00
2024-06-07 00:17:43.969808,0,0,101,0,0,0,74,76,139,130,76,121.52,37,25.00,-30.00,-955.00
2024-06-07 00:17:43.990703,0,0,107,0,0,0,74,76,139,130,76,121.59,37,16.00,-21.00,-991.00
2024-06-07 00:17:44.091222,0,0,113,0,0,0,74,76,138,130,76,121.56,37,4.00,20.00,-981.00
2024-06-07 00:17:44.191135,0,0,119,0,0,0,74,76,138,130,76,121.50,37,-12.00,3.00,-1065.00
2024-06-07 00:17:44.381388,0,0,125,0,0,0,74,76,138,130,76,121.56,37,-14.00,-18.00,-985.00
2024-06-07 00:17:44.395028,-1,0,131,0,0,0,74,76,137,130,76,121.46,37,33.00,-24.00,-991.00
2024-06-07 00:17:44.586454,0,0,137,0,0,0,74,76,137,130,76,121.50,38,29.00,-25.00,-978.00
2024-06-07 00:17:44.599671,-1,0,143,0,0,0,74,76,137,120,76,121.47,38,28.00,-50.00,-1011.00
2024-06-07 00:17:44.789604,-1,0,149,0,0,0,74,76,137,120,75,121.49,38,-41.00,17.00,-1029.00
2024-06-07 00:17:44.802777,0,0,155,0,0,0,74,76,138,120,75,121.50,38,2.00,-34.00,-964.00
2024-06-07 00:17:44.993467,0,0,161,0,0,0,74,77,137,130,75,121.58,38,45.00,-32.00,-1005.00
2024-06-07 00:17:45.006775,0,0,167,0,0,0,74,77,138,130,75,121.55,38,-39.00,39.00,-1028.00
2024-06-07 00:17:45.201930,-1,0,173,0,0,0,74,77,139,130,75,121.55,38,8.00,-29.00,-1025.00
2024-06-07 00:17:45.211689,-1,0,-179,0,0,0,74,77,139,130,75,121.50,38,-20.00,13.00,-995.00
2024-06-07 00:17:45.402968,-1,0,-173,0,0,0,74,77,139,130,75,121.51,38,-35.00,-4.00,-1038.00
2024-06-07 00:17:45.415028,0,0,-167,0,0,0,74,77,140,130,75,121.54,38,11.00,-33.00,-1057.00
2024-06-07 00:17:45.465922,0,0,-161,0,0,0,74,77,140,130,75,121.51,39,-33.00,-3.00,-968.00
2024-06-07 00:17:45.569581,0,0,-155,0,0,0,74,77,140,130,75,121.53,39,-17.00,-6.00,-1002.00
2024-06-07 00:17:45.669639,0,0,-149,0,0,0,74,77,140,130,75,121.51,39,-18.00,26.00,-1101.00
2024-06-07 00:17:45.812869,0,0,-143,0,0,0,74,77,141,130,75,121.57,39,3.00,4.00,-1004.00
2024-06-07 00:17:45.873611,0,0,-137,0,0,0,74,77,141,130,75,121.50,39,-8.00,22.00,-1004.00
2024-06-07 00:17:46.017782,0,0,-130,0,0,0,74,77,142,130,75,121.54,39,-41.00,8.00,-957.00
2024-06-07 00:17:46.077894,0,0,-124,0,0,0,74,77,142,130,75,121.61,39,-9.00,23.00,-986.00
2024-06-07 00:17:46.222130,0,0,-118,0,0,0,74,77,142,130,75,121.63,39,15.00,1.00,-991.00
2024-06-07 00:17:46.281711,0,0,-112,0,0,0,74,77,142,130,75,121.55,39,35.00,22.00,-953.00
2024-06-07 00:17:46.426924,0,0,-106,0,0,0,74,77,141,130,75,121.56,39,26.00,-38.00,-990.00
2024-06-07 00:17:46.485795,0,0,-100,0,0,0,74,77,141,130,75,121.55,40,29.00,3.00,-918.00
2024-06-07 00:17:46.587570,0,0,-94,0,0,0,74,77,140,130,75,121.47,40,20.00,-32.00,-1011.00
2024-06-07 00:17:46.736218,0,0,-88,0,0,0,74,77,140,130,75,121.61,40,70.00,5.00,-937.00
2024-06-07 00:17:46.791547,0,0,-82,0,0,0,74,77,139,130,75,121.53,40,2.00,13.00,-962.00
2024-06-07 00:17:46.915127,0,0,-76,0,0,0,74,77,138,130,75,121.53,40,12.00,-27.00,-1033.00
2024-06-07 00:17:46.995523,0,0,-70,0,0,0,74,77,138,130,75,121.51,40,-11.00,8.00,-1008.00
2024-06-07 00:17:47.144024,0,0,-64,0,0,0,74,77,137,130,75,121.50,40,60.00,-14.00,-1027.00
2024-06-07 00:17:47.200325,0,0,-58,0,0,0,74,77,137,130,75,121.46,40,0.00,28.00,-1008.00
2024-06-07 00:17:47.352734,0,0,-52,0,0,0,74,77,137,130,75,121.48,40,12.00,0.00,-1066.00
2024-06-07 00:17:47.405381,0,0,-46,0,0,0,74,77,137,120,75,121.49,40,2.00,21.00,-999.00
2024-06-07 00:17:47.506387,0,0,-40,0,0,0,74,77,137,120,75,121.40,41,16.00,12.00,-1021.00
2024-06-07 00:17:47.607506,0,1,-34,0,0,0,74,77,137,120,75,121.42,41,20.00,-14.00,-1005.00
2024-06-07 00:17:47.757927,0,1,-28,0,0,0,74,77,137,120,75,121.49,41,20.00,-52.00,-1041.00
2024-06-07 00:17:47.811446,0,1,-22,0,0,0,74,77,138,120,75,121.50,41,13.00,17.00,-927.00
2024-06-07 00:17:47.963191,0,1,-18,0,0,0,74,77,138,130,75,121.51,41,34.00,-32.00,-1015.00
2024-06-07 00:17:48.015761,0,1,-14,0,0,0,74,77,139,130,75,121.52,41,-6.00,17.00,-993.00
2024-06-07 00:17:48.167596,0,0,-11,0,0,0,74,77,140,130,75,121.47,41,54.00,-33.00,-936.00
2024-06-07 00:17:48.219375,0,0,-9,0,0,0,74,77,139,130,75,121.46,41,50.00,-16.00,-1003.00
2024-06-07 00:17:48.373202,0,0,-8,0,0,0,74,77,139,130,75,121.50,41,-6.00,18.00,-921.00
2024-06-07 00:17:48.423398,0,0,-6,0,0,0,74,77,140,130,75,121.44,41,26.00,-36.00,-1018.00
2024-06-07 00:17:48.577163,1,1,-5,0,0,0,74,77,139,130,75,121.47,42,-4.00,-31.00,-976.00
2024-06-07 00:17:48.627685,1,1,-5,0,0,0,74,77,139,130,75,121.48,42,-21.00,-18.00,-958.00
2024-06-07 00:17:48.783070,1,1,-4,0,0,0,74,77,141,130,75,121.48,42,-38.00,-1.00,-975.00
2024-06-07 00:17:48.835580,1,1,-4,0,0,0,74,77,140,130,75,121.49,42,6.00,-30.00,-1008.00
2024-06-07 00:17:48.933452,1,1,-4,0,0,0,74,76,141,130,75,121.52,42,43.00,-44.00,-1015.00
2024-06-07 00:17:49.089626,1,0,-4,0,0,0,74,76,140,130,75,121.38,42,19.00,-15.00,-986.00
2024-06-07 00:17:49.137550,1,0,-4,0,0,0,74,76,140,130,75,121.47,42,6.00,-11.00,-1007.00
2024-06-07 00:17:49.294096,1,0,-4,0,0,0,74,76,141,130,75,121.41,42,-17.00,10.00,-996.00
2024-06-07 00:17:49.341405,1,0,-4,0,0,0,74,76,141,130,75,121.42,42,21.00,-7.00,-1066.00
2024-06-07 00:17:49.500428,0,0,-4,0,0,0,74,76,141,130,75,121.49,42,44.00,-3.00,-1081.00
2024-06-07 00:17:49.500609,0,0,-4,0,0,0,74,76,141,130,75,121.47,43,1.00,4.00,-1040.00
2024-06-07 00:17:49.596401,0,0,-4,0,0,0,74,76,142,130,75,121.46,43,14.00,-43.00,-961.00
2024-06-07 00:17:49.705327,0,0,-4,0,0,0,74,76,142,130,75,121.44,43,-5.00,41.00,-949.00
2024-06-07 00:17:49.802301,0,0,-4,0,0,0,74,76,143,130,75,121.37,43,32.00,-58.00,-997.00
2024-06-07 00:17:49.902421,0,0,-4,0,0,0,75,77,142,130,75,121.51,43,24.00,-20.00,-948.00
2024-06-07 00:17:50.004292,0,0,-4,0,0,0,75,77,142,130,75,121.47,43,9.00,-13.00,-844.00
2024-06-07 00:17:50.115949,0,0,-4,0,0,0,75,77,144,130,75,121.49,43,26.00,21.00,-978.00
2024-06-07 00:17:50.208493,0,0,-4,0,0,0,75,77,143,130,75,121.47,43,-19.00,30.00,-935.00
2024-06-07 00:17:50.318420,0,0,-4,0,0,0,75,77,144,130,75,121.51,43,25.00,-32.00,-1034.00
2024-06-07 00:17:50.414764,0,0,-4,0,0,0,75,77,144,130,75,121.45,44,38.00,-27.00,-1003.00
2024-06-07 00:17:50.514327,0,0,-4,0,0,0,75,77,144,130,75,121.45,44,-30.00,2.00,-975.00
2024-06-07 00:17:50.617316,0,0,-4,0,0,0,75,77,144,130,75,121.46,44,33.00,-10.00,-992.00
2024-06-07 00:17:50.718148,0,0,-5,0,0,0,75,77,145,130,75,121.49,44,11.00,-10.00,-1065.00
2024-06-07 00:17:50.829924,0,0,-11,0,0,0,75,77,145,130,75,121.48,44,37.00,-7.00,-966.00
2024-06-07 00:17:50.922111,0,0,-17,0,0,0,74,76,147,130,75,121.51,44,-3.00,17.00,-1015.00
2024-06-07 00:17:51.034991,0,0,-23,0,0,0,74,76,147,130,75,121.53,44,-1.00,-13.00,-1039.00
2024-06-07 00:17:51.126022,0,0,-29,0,0,0,74,76,147,130,75,121.48,44,-9.00,10.00,-1130.00
2024-06-07 00:17:51.239508,0,0,-36,0,0,0,74,76,147,130,75,121.52,44,10.00,27.00,-877.00
2024-06-07 00:17:51.330078,1,0,-42,0,0,0,74,76,148,130,75,121.56,44,41.00,0.00,-935.00
2024-06-07 00:17:51.444254,1,0,-48,0,0,0,74,76,147,130,75,121.58,45,7.00,21.00,-1039.00
2024-06-07 00:17:51.534132,0,-1,-55,0,0,0,74,76,147,130,75,121.52,45,1.00,55.00,-926.00
2024-06-07 00:17:51.650253,0,0,-61,0,0,0,74,76,147,130,75,121.54,45,2.00,11.00,-1013.00
2024-06-07 00:17:51.739107,0,0,-67,0,0,0,74,76,147,130,74,121.45,45,12.00,-32.00,-984.00
2024-06-07 00:17:51.853847,0,0,-73,0,0,0,74,76,147,130,74,121.49,45,-12.00,19.00,-998.00
2024-06-07 00:17:51.943155,0,0,-80,0,0,0,74,77,146,130,74,121.44,45,20.00,-13.00,-1053.00
2024-06-07 00:17:52.112195,1,0,-86,0,0,0,74,77,146,130,74,121.45,45,31.00,0.00,-1003.00
2024-06-07 00:17:52.147972,1,0,-92,0,0,0,74,77,145,130,74,121.52,45,69.00,-19.00,-931.00
2024-06-07 00:17:52.276512,1,0,-98,0,0,0,74,77,144,130,74,121.44,45,29.00,0.00,-1021.00
2024-06-07 00:17:52.380688,1,0,-104,0,0,0,74,77,142,130,74,121.44,45,25.00,-21.00,-963.00
2024-06-07 00:17:52.453326,1,0,-110,0,0,0,74,77,141,130,74,121.39,46,2.00,25.00,-985.00
2024-06-07 00:17:52.617097,0,0,-117,0,0,0,74,77,140,130,74,121.40,46,0.00,-1.00,-950.00
2024-06-07 00:17:52.729212,0,0,-123,0,0,0,74,77,137,130,74,121.40,46,3.00,-19.00,-1056.00
2024-06-07 00:17:52.758975,0,0,-129,0,0,1,74,77,137,130,74,121.42,46,-14.00,24.00,-1013.00
2024-06-07 00:17:52.912893,0,0,-135,0,0,0,74,77,135,120,74,121.41,46,15.00,-20.00,-1072.00
2024-06-07 00:17:52.964105,0,0,-141,0,0,0,74,76,134,120,74,121.35,46,15.00,-14.00,-1085.00
2024-06-07 00:17:53.083105,0,0,-147,0,0,0,74,76,134,120,74,121.34,46,18.00,-25.00,-1037.00
2024-06-07 00:17:53.197768,0,0,-153,0,0,0,74,76,134,120,74,121.33,46,46.00,-13.00,-986.00
2024-06-07 00:17:53.269377,0,0,-159,0,0,0,74,76,135,120,74,121.41,46,-4.00,-11.00,-1025.00
2024-06-07 00:17:53.390326,0,0,-165,0,0,0,74,76,134,120,74,121.36,46,5.00,-22.00,-904.00
2024-06-07 00:17:53.503372,0,0,-171,0,0,0,74,76,135,120,74,121.25,47,17.00,-47.00,-1060.00
2024-06-07 00:17:53.576094,0,0,-177,0,0,0,74,76,135,120,74,121.36,47,0.00,16.00,-933.00
2024-06-07 00:17:53.626171,0,0,176,0,0,0,74,76,136,120,74,121.30,47,39.00,9.00,-1055.00
2024-06-07 00:17:53.810177,0,0,170,0,0,0,74,76,136,120,74,121.37,47,-21.00,31.00,-1013.00
2024-06-07 00:17:53.829839,0,0,165,0,0,0,74,76,136,120,74,121.37,47,9.00,-19.00,-974.00
2024-06-07 00:17:53.953658,0,0,159,0,0,0,74,77,137,120,74,121.45,47,17.00,7.00,-1060.00
2024-06-07 00:17:54.118033,0,0,153,0,0,0,74,77,137,120,74,121.45,47,10.00,36.00,-868.00
2024-06-07 00:17:54.136189,0,0,147,0,0,0,74,77,137,130,74,121.45,47,-26.00,31.00,-911.00
2024-06-07 00:17:54.262368,0,0,141,0,0,0,74,77,138,130,74,121.40,47,0.00,12.00,-963.00
2024-06-07 00:17:54.425266,0,0,135,0,0,0,74,77,138,130,74,121.44,47,18.00,-3.00,-1004.00
2024-06-07 00:17:54.442544,0,0,130,0,0,0,74,77,138,130,74,121.47,48,10.00,-29.00,-992.00
2024-06-07 00:17:54.568477,0,1,124,0,0,0,74,77,136,130,74,121.41,48,-8.00,-10.00,-1000.00
2024-06-07 00:17:54.732316,0,1,118,0,0,0,74,77,137,130,74,121.42,48,-6.00,-14.00,-982.00
2024-06-07 00:17:54.749184,0,1,112,0,0,0,74,77,138,130,74,121.46,48,42.00,-14.00,-1062.00
2024-06-07 00:17:54.875154,0,1,106,0,0,0,74,77,138,130,74,121.50,48,13.00,-17.00,-991.00
2024-06-07 00:17:55.039392,0,1,100,0,0,0,74,77,139,130,74,121.43,48,-5.00,-14.00,-1012.00
2024-06-07 00:17:55.055151,0,0,93,0,0,0,74,77,139,130,74,121.47,48,-28.00,31.00,-1039.00
2024-06-07 00:17:55.193828,0,0,87,0,0,0,74,77,140,130,74,121.42,48,0.00,18.00,-981.00
2024-06-07 00:17:55.259378,0,0,81,0,0,0,74,77,140,130,74,121.36,48,-23.00,31.00,-978.00
2024-06-07 00:17:55.439306,0,0,75,0,0,0,74,77,139,130,74,121.42,48,0.00,-4.00,-956.00
2024-06-07 00:17:55.464071,0,0,69,0,0,0,74,77,139,130,74,121.50,49,-5.00,10.00,-967.00
2024-06-07 00:17:55.643494,0,0,64,0,0,0,74,77,139,130,74,121.44,49,23.00,9.00,-904.00
2024-06-07 00:17:55.667019,1,0,58,0,0,0,74,77,139,130,74,121.36,49,34.00,-3.00,-1078.00
2024-06-07 00:17:55.848148,0,0,52,0,0,0,74,77,139,130,74,121.37,49,-24.00,8.00,-1012.00
2024-06-07 00:17:55.871430,1,0,46,0,0,0,74,77,139,130,74,121.48,49,19.00,1.00,-1055.00
2024-06-07 00:17:56.052404,1,0,40,0,0,0,75,76,140,130,74,121.44,49,26.00,-9.00,-991.00
2024-06-07 00:17:56.074722,1,0,34,0,0,0,75,76,140,130,74,121.46,49,21.00,40.00,-920.00
2024-06-07 00:17:56.259366,1,0,28,0,0,0,75,76,140,130,74,121.43,49,-4.00,12.00,-1001.00
2024-06-07 00:17:56.279403,0,0,22,0,0,0,75,76,140,130,74,121.50,49,-6.00,44.00,-973.00
2024-06-07 00:17:56.461677,0,0,17,0,0,0,75,76,140,130,74,121.47,49,-12.00,17.00,-998.00
2024-06-07 00:17:56.484250,0,0,12,0,0,0,75,76,140,130,74,121.42,50,13.00,-20.00,-1003.00
2024-06-07 00:17:56.586934,0,0,8,0,0,0,75,76,140,130,74,121.48,50,34.00,-23.00,-992.00
2024-06-07 00:17:56.688378,0,0,5,0,0,0,75,76,140,130,74,121.46,50,24.00,5.00,-1079.00
2024-06-07 00:17:56.789761,0,0,2,0,0,0,75,76,140,130,74,121.53,50,-1.00,0.00,-1017.00
2024-06-07 00:17:56.891005,0,0,1,0,0,0,75,76,140,130,74,121.46,50,32.00,-17.00,-938.00
2024-06-07 00:17:56.992612,0,0,0,0,0,0,75,76,140,130,74,121.48,50,20.00,-23.00,-1091.00
2024-06-07 00:17:57.179303,0,0,-1,0,0,0,75,76,140,130,74,121.50,50,-11.00,13.00,-965.00
2024-06-07 00:17:57.196570,0,0,-2,0,0,0,75,76,140,130,74,121.46,50,17.00,10.00,-1073.00
2024-06-07 00:17:57.383287,0,0,-2,0,0,0,75,76,141,130,74,121.48,50,-20.00,-7.00,-949.00
2024-06-07 00:17:57.400672,0,0,-2,0,0,0,75,76,141,130,74,121.49,50,19.00,-24.00,-1000.00
2024-06-07 00:17:57.451764,0,0,-2,0,0,0,75,76,143,130,74,121.53,51,-13.00,-14.00,-922.00
2024-06-07 00:17:57.588710,0,0,-2,0,0,0,75,76,143,130,74,121.58,51,-23.00,15.00,-919.00
2024-06-07 00:17:57.656739,0,0,-2,0,0,0,75,76,143,130,74,121.52,51,-9.00,-10.00,-1003.00
2024-06-07 00:17:57.792909,0,0,-2,0,0,0,75,76,144,130,74,121.57,51,-16.00,1.00,-1035.00
2024-06-07 00:17:57.860672,0,0,-2,0,0,0,75,76,144,130,74,121.58,51,48.00,-15.00,-974.00
2024-06-07 00:17:57.997877,0,0,-2,0,0,0,74,76,145,130,74,121.54,51,16.00,-13.00,-1000.00
2024-06-07 00:17:58.064694,0,0,-2,0,0,0,74,76,145,130,74,121.54,51,15.00,0.00,-992.00
2024-06-07 00:17:58.202984,0,0,-2,0,0,0,74,76,145,130,74,121.60,51,45.00,-31.00,-1028.00
2024-06-07 00:17:58.268591,0,0,-2,0,0,0,74,76,145,130,74,121.57,51,52.00,-23.00,-998.00
2024-06-07 00:17:58.409368,0,0,-3,0,0,0,74,76,144,130,74,121.54,51,33.00,-5.00,-936.00
2024-06-07 00:17:58.472691,0,0,-2,0,0,0,74,76,145,130,74,121.54,52,-22.00,11.00,-902.00
2024-06-07 00:17:58.612208,0,0,-2,0,0,0,74,76,144,130,74,121.51,52,10.00,-6.00,-993.00
2024-06-07 00:17:58.676697,0,0,-3,0,0,0,74,76,145,130,74,121.42,52,3.00,-12.00,-935.00
2024-06-07 00:17:58.816971,0,0,-2,0,0,0,74,76,143,130,74,121.53,52,-5.00,-9.00,-921.00
2024-06-07 00:17:58.880648,0,0,-3,0,0,0,74,76,143,130,74,121.47,52,3.00,11.00,-1048.00
2024-06-07 00:17:59.021814,0,0,-3,0,0,0,74,76,141,130,74,121.50,52,-25.00,0.00,-959.00
2024-06-07 00:17:59.084789,0,0,-3,0,0,0,74,76,141,130,74,121.50,52,-1.00,5.00,-995.00
2024-06-07 00:17:59.226935,0,0,-2,0,0,0,74,76,142,130,74,121.45,52,25.00,-9.00,-1112.00
2024-06-07 00:17:59.288647,0,0,-2,0,0,0,74,76,140,130,74,121.37,52,-37.00,-13.00,-1013.00
2024-06-07 00:17:59.390444,0,0,-2,0,0,0,74,76,140,130,74,121.57,52,-21.00,11.00,-926.00
2024-06-07 00:17:59.533536,0,0,-3,0,0,0,74,76,140,130,74,121.55,53,11.00,18.00,-1170.00
2024-06-07 00:17:59.594715,0,0,-3,0,0,-1,74,76,141,130,74,121.60,53,16.00,22.00,-1602.00
2024-06-07 00:17:59.749570,0,0,-4,0,0,-7,74,76,147,130,74,121.58,53,-54.00,125.00,-1324.00
2024-06-07 00:17:59.798432,-2,-36,-7,0,-1,-12,74,76,231,140,74,121.80,53,-30.00,472.00,-1104.00
2024-06-07 00:17:59.943163,-4,-152,4,-1,-9,-6,74,76,160,150,74,121.86,53,-53.00,430.00,-1021.00
2024-06-07 00:18:00.002471,12,83,-4,0,-8,9,73,76,171,150,74,122.04,53,-17.00,114.00,-1475.00
2024-06-07 00:18:00.148008,0,-1,-18,0,-2,12,73,76,144,140,74,121.43,53,37.00,-126.00,-1406.00
2024-06-07 00:18:00.207132,0,-1,-21,0,-3,9,73,76,135,130,74,121.44,53,18.00,5.00,-1443.00
2024-06-07 00:18:00.353931,1,3,-23,0,-3,5,73,76,130,120,74,121.28,53,19.00,-4.00,-1317.00
2024-06-07 00:18:00.410368,1,3,-20,0,-3,2,73,76,128,120,74,121.28,53,11.00,17.00,-1156.00
2024-06-07 00:18:00.557910,0,2,-10,0,-2,0,73,76,129,110,74,121.32,54,8.00,0.00,-1124.00
2024-06-07 00:18:00.614963,0,1,-3,0,-1,0,73,76,130,110,74,121.42,54,-7.00,-29.00,-1154.00
2024-06-07 00:18:00.762820,0,1,-2,0,-1,-1,73,76,132,120,74,121.39,54,-9.00,-14.00,-1025.00
2024-06-07 00:18:00.818584,0,1,-2,0,0,-2,73,76,134,120,74,121.41,54,5.00,18.00,-954.00
2024-06-07 00:18:00.870833,0,0,-2,0,0,-2,73,76,137,120,74,121.45,54,-18.00,-1.00,-1068.00
2024-06-07 00:18:01.069474,0,1,-2,0,0,-1,74,76,138,120,74,121.49,54,4.00,-23.00,-927.00
2024-06-07 00:18:01.125798,0,2,-2,0,0,-1,74,76,139,120,74,121.47,54,-1.00,-31.00,-1105.00
2024-06-07 00:18:01.226264,0,1,-2,0,0,0,74,76,140,120,74,121.39,54,-12.00,4.00,-903.00
2024-06-07 00:18:01.377094,0,1,-2,0,0,0,74,76,140,120,74,121.49,54,-19.00,16.00,-931.00
2024-06-07 00:18:01.430455,0,1,-2,0,0,0,74,76,141,130,74,121.39,54,33.00,-46.00,-977.00
2024-06-07 00:18:01.481251,0,1,-2,0,0,0,74,76,140,130,74,121.42,55,-4.00,12.00,-1046.00
2024-06-07 00:18:01.590913,0,1,-2,0,0,0,74,76,141,130,74,121.46,55,-15.00,30.00,-1043.00
2024-06-07 00:18:01.685273,0,1,-2,0,0,0,74,76,141,130,73,121.49,55,25.00,-23.00,-896.00
2024-06-07 00:18:01.888718,0,2,-2,0,0,0,74,76,141,130,73,121.43,55,-20.00,-6.00,-1147.00
2024-06-07 00:18:01.889280,0,2,-2,0,0,0,74,76,141,130,73,121.39,55,-21.00,14.00,-920.00
2024-06-07 00:18:01.996025,0,2,-2,0,0,0,75,77,141,130,73,121.50,55,6.00,-5.00,-971.00
2024-06-07 00:18:02.093521,0,2,-2,0,0,0,75,77,141,130,73,121.48,55,-1.00,6.00,-1067.00
2024-06-07 00:18:02.196071,0,2,-2,0,0,0,75,77,141,130,73,121.47,55,41.00,-44.00,-978.00
2024-06-07 00:18:02.298140,0,2,-2,0,0,0,75,77,141,130,73,121.47,55,-2.00,1.00,-994.00
2024-06-07 00:18:02.402543,0,1,-2,0,0,0,75,77,141,130,73,121.41,55,-33.00,8.00,-876.00
2024-06-07 00:18:02.510651,0,1,-2,0,0,0,75,77,141,130,73,121.46,56,-41.00,-37.00,-1063.00
2024-06-07 00:18:02.605364,0,1,-2,0,0,0,75,77,141,130,73,121.49,56,22.00,-30.00,-952.00
2024-06-07 00:18:02.705950,0,2,-2,0,0,0,75,77,140,130,73,121.41,56,26.00,-53.00,-1036.00
2024-06-07 00:18:02.808324,0,1,-2,0,0,0,75,77,140,130,73,121.40,56,13.00,0.00,-1040.00
2024-06-07 00:18:02.909158,0,1,-2,0,0,0,75,77,140,130,73,121.47,56,-51.00,33.00,-994.00
2024-06-07 00:18:03.015487,0,1,-2,0,0,0,75,76,139,130,73,121.45,56,13.00,-9.00,-1067.00
2024-06-07 00:18:03.113301,0,1,-2,0,0,0,75,76,139,130,73,121.43,56,-14.00,39.00,-958.00
2024-06-07 00:18:03.219889,0,0,-2,0,1,0,75,76,139,130,73,121.48,56,-4.00,-12.00,-960.00
2024-06-07 00:18:03.317200,0,0,-2,0,0,0,75,76,139,120,73,121.47,56,29.00,7.00,-985.00
2024-06-07 00:18:03.425013,0,0,-2,0,0,0,75,76,139,120,73,121.49,56,64.00,-36.00,-928.00
2024-06-07 00:18:03.522125,0,0,-2,0,0,0,75,76,139,120,73,121.40,57,9.00,-27.00,-1004.00
2024-06-07 00:18:03.623137,0,0,-2,0,0,0,75,76,138,120,73,121.46,57,9.00,-25.00,-1023.00
2024-06-07 00:18:03.731934,1,1,-2,0,0,0,75,76,137,120,72,121.40,57,8.00,-18.00,-979.00
2024-06-07 00:18:03.827247,1,1,-2,0,0,0,75,76,136,120,72,121.37,57,2.00,-11.00,-1002.00
2024-06-07 00:18:03.937960,1,1,-2,0,0,0,75,76,135,120,72,121.41,57,17.00,6.00,-1040.00
2024-06-07 00:18:04.031048,0,0,-2,0,0,0,75,76,133,120,72,121.36,57,2.00,-47.00,-1041.00
2024-06-07 00:18:04.143984,0,0,-2,0,0,0,75,76,132,120,72,121.44,57,-44.00,0.00,-989.00
2024-06-07 00:18:04.235461,-1,0,-2,0,0,0,75,76,132,120,72,121.34,57,-5.00,-16.00,-956.00
2024-06-07 00:18:04.346591,-1,0,-2,0,0,0,75,76,129,120,72,121.36,57,-5.00,7.00,-967.00
2024-06-07 00:18:04.440669,0,0,-2,0,0,0,75,76,128,120,72,121.41,58,-11.00,-1.00,-950.00
2024-06-07 00:18:04.552744,0,0,-2,0,0,0,75,76,127,120,72,121.42,58,0.00,-24.00,-1006.00
2024-06-07 00:18:04.643502,0,1,-2,0,0,0,75,76,127,120,72,121.39,58,15.00,-39.00,-1021.00
2024-06-07 00:18:04.763756,0,1,-2,0,0,0,75,76,126,120,72,121.39,58,23.00,-42.00,-1071.00
2024-06-07 00:18:04.847065,0,1,-2,0,0,0,75,76,126,120,72,121.38,58,-8.00,18.00,-1020.00
2024-06-07 00:18:04.898005,0,1,-2,0,0,0,75,76,127,120,72,121.33,58,13.00,-30.00,-987.00
2024-06-07 00:18:05.063905,0,1,-2,0,0,0,75,76,127,120,72,121.37,58,-6.00,-25.00,-1022.00
2024-06-07 00:18:05.101919,0,1,-2,0,0,0,75,76,128,120,72,121.38,58,-18.00,-21.00,-971.00
2024-06-07 00:18:05.268972,0,1,-2,0,0,0,75,76,128,120,72,121.40,58,-48.00,25.00,-1016.00
2024-06-07 00:18:05.310558,0,1,-2,0,0,0,75,76,129,120,72,121.40,58,1.00,-12.00,-1033.00
2024-06-07 00:18:05.407985,0,0,-2,0,0,0,75,76,131,120,72,121.40,59,13.00,-7.00,-861.00
2024-06-07 00:18:05.574948,0,0,-2,0,0,0,75,76,132,120,72,121.42,59,18.00,5.00,-1084.00
2024-06-07 00:18:05.612528,0,0,-2,0,0,0,75,76,133,120,72,121.42,59,-12.00,-5.00,-942.00
2024-06-07 00:18:05.780673,0,1,-2,0,0,0,75,76,133,120,71,121.44,59,26.00,-22.00,-1019.00
2024-06-07 00:18:05.816680,0,1,-2,0,0,0,75,76,135,120,71,121.46,59,-23.00,-2.00,-1048.00
2024-06-07 00:18:05.917855,0,0,-2,0,0,0,75,76,136,120,71,121.43,59,26.00,-7.00,-1017.00
2024-06-07 00:18:06.020148,0,0,-3,0,0,-1,73,76,138,120,71,121.51,59,21.00,-46.00,-964.00
2024-06-07 00:18:06.190606,0,0,-4,0,0,-5,73,76,139,120,71,121.61,59,-53.00,-29.00,-1583.00
2024-06-07 00:18:06.224829,2,22,-7,0,0,-12,73,76,148,130,71,121.58,59,-17.00,-67.00,-1717.00
2024-06-07 00:18:06.408871,7,127,0,1,9,-9,73,76,204,150,71,121.86,59,-67.00,293.00,-1461.00
2024-06-07 00:18:06.427729,-8,-107,0,1,9,6,73,76,163,150,71,121.75,60,-134.00,744.00,-915.00
2024-06-07 00:18:06.598868,0,-7,-13,0,3,11,73,76,244,140,71,122.02,60,-81.00,637.00,-1041.00
2024-06-07 00:18:06.631827,1,2,-16,1,4,9,73,76,149,130,71,121.53,60,-34.00,193.00,-888.00
2024-06-07 00:18:06.733728,0,-3,-19,0,4,5,73,76,138,120,71,121.38,60,-36.00,-12.00,-1455.00
2024-06-07 00:18:06.906033,0,-3,-14,0,3,2,73,76,133,110,71,121.51,60,52.00,-29.00,-1382.00
2024-06-07 00:18:06.937806,0,-2,-4,0,2,0,73,76,131,110,71,121.43,60,37.00,-19.00,-1166.00
2024-06-07 00:18:07.111657,0,-1,-2,0,2,0,74,77,131,110,71,121.41,60,36.00,-1.00,-1203.00
2024-06-07 00:18:07.141811,0,0,-2,0,1,-1,74,77,131,110,71,121.42,60,-50.00,53.00,-1185.00
2024-06-07 00:18:07.328971,0,0,-2,0,1,-1,74,77,132,120,71,121.48,60,-52.00,21.00,-1126.00
2024-06-07 00:18:07.345696,0,0,-2,0,1,-1,74,77,134,120,71,121.45,60,-27.00,5.00,-913.00
2024-06-07 00:18:07.520462,0,0,-2,0,1,-1,74,77,136,120,71,121.51,61,-21.00,11.00,-1050.00
2024-06-07 00:18:07.615931,0,-2,-2,0,0,0,74,77,137,120,71,121.51,61,-18.00,-7.00,-962.00
2024-06-07 00:18:07.685539,1,-1,-2,0,0,0,74,77,138,120,71,121.41,61,2.00,4.00,-980.00
2024-06-07 00:18:07.783688,1,-1,-2,0,0,0,74,77,139,120,71,121.48,61,5.00,-11.00,-1020.00
2024-06-07 00:18:07.877082,1,0,-2,0,0,0,74,77,139,120,71,121.45,61,-27.00,-24.00,-1060.00
2024-06-07 00:18:08.029567,0,0,-2,0,0,0,74,77,139,120,71,121.56,61,-26.00,32.00,-867.00
2024-06-07 00:18:08.090997,0,0,-2,0,0,0,75,77,140,120,71,121.53,61,-12.00,3.00,-975.00
2024-06-07 00:18:08.247998,0,0,-2,0,0,0,75,77,139,120,71,121.47,61,0.00,7.00,-1018.00
2024-06-07 00:18:08.264845,0,0,-2,0,0,0,75,77,139,120,71,121.55,61,34.00,-9.00,-966.00
2024-06-07 00:18:08.391793,0,0,-2,0,0,0,75,77,139,120,71,121.51,61,-20.00,8.00,-942.00
2024-06-07 00:18:08.555655,0,0,-2,0,0,0,75,77,139,120,71,121.54,62,-45.00,5.00,-926.00
2024-06-07 00:18:08.570550,0,0,-2,0,0,0,75,77,139,120,71,121.46,62,40.00,-3.00,-1032.00
2024-06-07 00:18:08.699359,0,0,-2,0,0,0,75,77,138,120,71,121.50,62,13.00,-27.00,-1004.00
2024-06-07 00:18:08.723772,0,0,-2,0,0,0,75,77,139,120,71,121.47,62,-25.00,2.00,-1054.00
2024-06-07 00:18:08.862453,0,0,-2,0,0,0,75,77,139,120,71,121.54,62,28.00,-29.00,-1037.00
2024-06-07 00:18:09.005804,0,0,-2,0,0,0,75,77,138,120,71,121.53,62,-4.00,19.00,-930.00
2024-06-07 00:18:09.029566,0,0,-2,0,0,0,74,77,139,120,71,121.54,62,-31.00,1.00,-939.00
2024-06-07 00:18:09.169584,0,0,-2,0,0,0,74,77,140,120,71,121.54,62,-12.00,-20.00,-994.00
2024-06-07 00:18:09.313044,0,0,-2,0,0,0,74,77,139,120,71,121.55,62,-45.00,-1.00,-981.00
2024-06-07 00:18:09.335609,0,0,-2,0,0,0,74,77,140,120,71,121.48,62,40.00,-40.00,-1053.00
2024-06-07 00:18:09.476828,0,0,-2,0,0,0,74,77,140,120,71,121.47,63,-31.00,15.00,-982.00
2024-06-07 00:18:09.625257,0,0,-2,0,0,0,74,77,140,120,71,121.52,63,54.00,-23.00,-1035.00
2024-06-07 00:18:09.641443,0,0,-2,0,0,0,74,77,142,120,71,121.57,63,-14.00,14.00,-994.00
2024-06-07 00:18:09.779581,0,0,-2,0,0,0,74,77,142,120,71,121.52,63,42.00,-10.00,-984.00
2024-06-07 00:18:09.845481,0,0,-2,0,0,0,74,77,143,120,71,121.58,63,34.00,-21.00,-1000.00
2024-06-07 00:18:09.978097,0,0,-2,0,0,0,74,77,144,120,71,121.52,63,40.00,-23.00,-877.00
2024-06-07 00:18:10.050365,0,0,-2,0,0,0,74,77,144,120,71,121.45,63,10.00,-27.00,-974.00
2024-06-07 00:18:10.184723,0,0,-2,0,0,0,74,77,144,120,71,121.52,63,-3.00,20.00,-909.00
2024-06-07 00:18:10.253564,0,0,-2,0,0,0,74,77,145,120,71,121.51,63,39.00,-24.00,-984.00
2024-06-07 00:18:10.390462,0,0,-2,0,0,0,74,77,145,120,71,121.53,63,-39.00,9.00,-1064.00
2024-06-07 00:18:10.457947,0,0,-2,0,0,0,74,77,145,120,71,121.48,64,-26.00,8.00,-1062.00
2024-06-07 00:18:10.593782,0,0,-2,0,0,0,74,77,145,120,71,121.58,64,27.00,-23.00,-981.00
2024-06-07 00:18:10.661524,0,0,-2,0,0,0,74,77,144,120,71,121.58,64,46.00,-28.00,-1000.00
