TS,pitch,roll,yaw,vgx,vgy,vgz,templ,temph,tof,h,bat,baro,time,agx,agy,agz
2024-06-07 00:18:49.098592,0,0,-4,0,0,0,78,80,10,0,69,120.19,83,1.00,0.00,-1000.00
2024-06-07 00:18:49.167143,0,0,-4,0,0,0,78,80,10,0,69,120.14,83,1.00,0.00,-1000.00
2024-06-07 00:18:49.297969,0,0,-4,0,0,0,78,80,10,0,69,120.14,83,1.00,-1.00,-999.00
2024-06-07 00:18:49.371010,0,0,-4,0,0,0,78,80,10,0,69,120.16,83,0.00,0.00,-1001.00
2024-06-07 00:18:49.502407,0,0,-4,0,0,0,78,80,10,0,69,120.14,83,0.00,1.00,-1000.00
2024-06-07 00:18:49.574849,0,0,-4,0,0,0,78,80,10,0,69,120.16,83,2.00,0.00,-998.00
2024-06-07 00:18:49.707467,0,0,-4,0,0,0,78,80,10,0,69,120.16,83,2.00,-1.00,-999.00
2024-06-07 00:18:49.778888,0,0,-4,0,0,0,78,80,10,0,69,120.14,83,0.00,0.00,-999.00
2024-06-07 00:18:49.912107,0,0,-4,0,0,0,78,80,10,0,69,120.18,83,0.00,-1.00,-1001.00
2024-06-07 00:18:49.983711,0,0,-4,0,0,0,78,80,10,0,69,120.19,83,1.00,2.00,-999.00
2024-06-07 00:18:50.116843,0,0,-4,0,0,0,78,80,10,0,69,120.12,83,0.00,0.00,-998.00
2024-06-07 00:18:50.187946,0,0,-4,0,0,0,78,80,10,0,69,120.18,83,1.00,0.00,-998.00
2024-06-07 00:18:50.322091,0,0,-4,0,0,0,77,80,10,0,69,120.15,83,0.00,0.00,-999.00
2024-06-07 00:18:50.391989,0,0,-4,0,0,0,77,80,10,0,69,120.17,83,1.00,-1.00,-1001.00
2024-06-07 00:18:50.526632,0,0,-4,0,0,0,77,80,10,0,69,120.12,83,0.00,0.00,-998.00
2024-06-07 00:18:50.595949,0,0,-4,0,0,0,77,80,10,0,69,120.15,83,1.00,-1.00,-1000.00
2024-06-07 00:18:50.731330,0,0,-4,0,0,0,77,80,10,0,69,120.18,83,0.00,2.00,-999.00
2024-06-07 00:18:50.800311,0,0,-4,0,0,0,77,80,10,0,69,120.13,83,0.00,1.00,-998.00
2024-06-07 00:18:50.918021,0,0,-4,0,0,0,77,80,10,0,69,120.12,83,1.00,1.00,-1000.00
2024-06-07 00:18:51.003943,0,0,-4,0,0,0,77,80,10,0,69,120.20,83,0.00,0.00,-1000.00
2024-06-07 00:18:51.141373,0,0,-4,0,0,0,77,80,10,0,69,120.17,83,0.00,0.00,-1001.00
2024-06-07 00:18:51.207977,0,0,-4,0,0,0,77,80,10,0,69,120.19,83,0.00,0.00,-1001.00
2024-06-07 00:18:51.345846,0,0,-4,0,0,0,78,80,10,0,69,120.16,83,1.00,-1.00,-1001.00
2024-06-07 00:18:51.411925,0,0,-4,0,0,0,78,80,10,0,69,120.14,83,1.00,0.00,-998.00
2024-06-07 00:18:51.462862,0,0,-4,0,0,0,78,80,10,0,69,120.21,83,2.00,0.00,-998.00
2024-06-07 00:18:51.564629,0,0,-4,0,0,0,78,80,10,0,69,120.23,83,0.00,0.00,-999.00
2024-06-07 00:18:51.755258,0,0,-4,0,0,0,78,80,10,0,69,120.20,84,3.00,-2.00,-997.00
2024-06-07 00:18:51.768734,0,0,-4,0,0,0,78,80,10,0,69,120.20,84,-2.00,-8.00,-1004.00
2024-06-07 00:18:51.960451,0,0,-4,0,0,0,78,80,10,0,69,120.20,84,-2.00,-9.00,-988.00
2024-06-07 00:18:51.972905,0,0,-5,0,0,0,78,80,10,0,69,120.20,84,22.00,-28.00,-985.00
2024-06-07 00:18:52.119957,0,0,-6,0,0,0,78,80,10,0,69,120.20,84,47.00,-7.00,-964.00
2024-06-07 00:18:52.176679,0,0,-6,0,0,0,78,80,10,0,69,120.20,84,37.00,-23.00,-1208.00
2024-06-07 00:18:52.369626,0,0,-7,0,0,-1,78,80,10,0,69,120.20,84,43.00,13.00,-1268.00
2024-06-07 00:18:52.381313,0,0,-7,0,0,-3,78,80,12,0,69,120.20,84,33.00,-34.00,-1234.00
2024-06-07 00:18:52.539786,0,0,-7,0,0,-5,78,80,19,0,69,120.42,84,25.00,0.00,-1061.00
2024-06-07 00:18:52.604603,0,0,-7,0,0,-6,78,80,27,0,69,120.61,84,6.00,-1.00,-1083.00
2024-06-07 00:18:52.790001,0,0,-7,0,0,-7,78,80,32,0,69,120.63,85,18.00,6.00,-921.00
2024-06-07 00:18:52.790311,0,0,-7,0,0,-6,78,80,40,10,69,120.76,85,-40.00,14.00,-912.00
2024-06-07 00:18:52.890520,0,0,-7,0,0,-6,78,80,49,10,69,120.77,85,11.00,0.00,-915.00
2024-06-07 00:18:53.097269,0,0,-7,0,0,-5,78,80,57,20,69,120.88,85,0.00,-14.00,-906.00
2024-06-07 00:18:53.097352,0,0,-7,0,0,-4,78,80,64,20,69,120.95,85,-44.00,5.00,-957.00
2024-06-07 00:18:53.240635,0,0,-7,0,0,-3,78,80,70,30,69,121.02,85,-46.00,7.00,-917.00
2024-06-07 00:18:53.404424,0,0,-7,0,0,-2,78,80,75,30,69,121.09,85,20.00,-7.00,-939.00
2024-06-07 00:18:53.404591,-1,0,-7,0,0,-2,78,80,80,30,69,121.07,85,6.00,4.00,-798.00
2024-06-07 00:18:53.547831,0,0,-7,0,0,-1,78,80,84,40,69,121.13,85,17.00,-26.00,-941.00
2024-06-07 00:18:53.711599,0,0,-7,0,0,0,78,80,87,40,69,121.22,85,-9.00,-31.00,-1017.00
2024-06-07 00:18:53.711659,0,0,-7,0,0,0,78,80,90,40,69,121.21,86,1.00,20.00,-901.00
2024-06-07 00:18:53.855181,0,0,-7,0,0,0,78,80,93,40,69,121.27,86,30.00,6.00,-926.00
2024-06-07 00:18:54.021552,0,0,-7,0,0,0,78,80,94,50,69,121.23,86,5.00,-16.00,-1003.00
2024-06-07 00:18:54.021757,0,0,-7,0,0,0,78,80,96,50,69,121.31,86,32.00,-5.00,-947.00
2024-06-07 00:18:54.164877,0,0,-7,0,0,0,78,80,98,50,69,121.31,86,28.00,-60.00,-1044.00
2024-06-07 00:18:54.326262,0,0,-7,0,0,0,78,80,99,50,69,121.28,86,74.00,-38.00,-971.00
2024-06-07 00:18:54.326322,0,0,-7,0,0,0,79,81,99,50,69,121.37,86,43.00,-43.00,-980.00
2024-06-07 00:18:54.469673,0,1,-7,0,0,0,79,81,100,50,69,121.30,86,30.00,-30.00,-936.00
2024-06-07 00:18:54.634833,0,0,-7,0,0,0,79,81,100,50,69,121.28,86,36.00,-35.00,-989.00
2024-06-07 00:18:54.634907,0,0,-7,0,0,0,79,81,99,50,69,121.34,86,-14.00,-18.00,-1026.00
2024-06-07 00:18:54.799955,0,0,-7,0,0,1,79,81,99,50,69,121.28,87,-7.00,2.00,-1004.00
2024-06-07 00:18:54.910300,0,0,-7,0,0,1,79,81,97,50,69,121.29,87,17.00,-4.00,-946.00
2024-06-07 00:18:54.935233,0,0,-7,0,0,1,79,81,96,50,69,121.23,87,27.00,-14.00,-901.00
2024-06-07 00:18:54.981363,0,0,-7,0,0,1,79,81,94,50,69,121.26,87,39.00,-34.00,-912.00
2024-06-07 00:18:55.134700,0,0,-7,0,0,1,79,81,92,50,69,121.27,87,-2.00,-17.00,-1007.00
2024-06-07 00:18:55.236717,0,1,-7,0,0,1,79,81,90,50,69,121.26,87,45.00,-31.00,-960.00
2024-06-07 00:18:55.287310,0,1,-7,0,0,1,78,81,88,50,69,121.22,87,39.00,-62.00,-1039.00
2024-06-07 00:18:55.441496,0,1,-7,0,0,1,78,81,86,50,69,121.27,87,30.00,-17.00,-1050.00
2024-06-07 00:18:55.491390,0,1,-7,0,0,1,78,81,84,50,69,121.28,87,38.00,-42.00,-1057.00
2024-06-07 00:18:55.648587,0,0,-7,0,0,1,78,81,83,50,69,121.17,87,19.00,-35.00,-1034.00
2024-06-07 00:18:55.695275,0,0,-7,0,0,1,78,81,82,50,69,121.17,88,-27.00,2.00,-968.00
2024-06-07 00:18:55.797912,0,0,-7,0,0,1,78,81,80,40,69,121.15,88,47.00,1.00,-992.00
2024-06-07 00:18:55.955238,0,0,-7,0,0,0,78,81,78,40,69,121.14,88,-2.00,-4.00,-946.00
2024-06-07 00:18:56.001384,0,0,-7,0,0,0,78,81,78,40,69,121.07,88,-40.00,6.00,-932.00
2024-06-07 00:18:56.158219,0,0,-7,0,0,0,78,81,76,40,69,121.11,88,0.00,16.00,-865.00
2024-06-07 00:18:56.205288,0,0,-7,0,0,0,78,81,75,40,69,121.09,88,-5.00,8.00,-997.00
2024-06-07 00:18:56.362990,0,0,-7,0,0,0,78,81,75,40,69,121.03,88,10.00,-12.00,-1043.00
2024-06-07 00:18:56.409262,0,0,-7,0,0,0,78,81,74,40,69,121.08,88,-35.00,15.00,-1026.00
2024-06-07 00:18:56.570511,0,0,-7,0,0,0,78,81,74,40,69,121.09,88,-9.00,2.00,-987.00
2024-06-07 00:18:56.613228,0,0,-7,0,0,0,78,81,73,40,69,121.06,89,37.00,20.00,-956.00
2024-06-07 00:18:56.773607,0,0,-7,0,0,0,78,81,73,40,69,121.01,89,8.00,20.00,-952.00
2024-06-07 00:18:56.817760,0,0,-7,0,0,0,78,81,73,40,69,121.05,89,-2.00,-22.00,-1059.00
2024-06-07 00:18:56.977369,0,0,-7,0,0,0,78,81,73,40,69,121.04,89,-42.00,9.00,-998.00
2024-06-07 00:18:57.021218,0,0,-7,0,0,0,78,81,72,40,69,121.07,89,10.00,-22.00,-963.00
2024-06-07 00:18:57.188202,0,0,-7,0,0,0,78,81,73,40,69,121.02,89,13.00,-35.00,-1022.00
2024-06-07 00:18:57.225189,0,0,-7,0,0,0,78,81,72,40,69,120.97,89,39.00,-30.00,-988.00
2024-06-07 00:18:57.388148,0,0,-7,0,0,0,77,80,72,40,69,121.00,89,35.00,-53.00,-971.00
2024-06-07 00:18:57.429150,0,0,-7,0,0,0,77,80,72,40,69,121.04,89,2.00,-20.00,-1007.00
2024-06-07 00:18:57.592065,0,1,-7,0,0,0,77,80,71,40,69,121.02,89,0.00,-2.00,-942.00
2024-06-07 00:18:57.633178,0,0,-7,0,0,0,77,80,71,30,69,121.05,90,-15.00,-3.00,-1015.00
2024-06-07 00:18:57.796570,0,0,-7,0,0,0,77,80,71,30,69,121.04,90,24.00,1.00,-938.00
2024-06-07 00:18:57.837284,0,0,-7,0,0,0,77,80,72,30,69,121.09,90,7.00,-16.00,-988.00
2024-06-07 00:18:58.001323,0,1,-7,0,0,0,77,80,72,40,69,121.08,90,10.00,-40.00,-1056.00
2024-06-07 00:18:58.041154,0,1,-7,0,0,0,77,80,72,40,69,121.04,90,21.00,-17.00,-923.00
2024-06-07 00:18:58.206073,0,0,-7,0,0,0,77,80,72,40,69,121.01,90,-11.00,11.00,-971.00
2024-06-07 00:18:58.245111,0,0,-7,0,0,0,77,80,72,40,69,120.99,90,-29.00,-14.00,-1040.00
2024-06-07 00:18:58.410913,0,0,-7,0,0,0,77,80,72,40,69,121.00,90,47.00,-31.00,-998.00
2024-06-07 00:18:58.449123,0,0,-7,0,0,0,77,80,72,40,69,121.01,90,46.00,-31.00,-995.00
2024-06-07 00:18:58.615711,0,0,-7,0,0,0,77,80,72,40,69,121.05,90,-36.00,-6.00,-937.00
2024-06-07 00:18:58.615846,0,0,-7,0,0,0,77,80,72,40,69,121.06,91,58.00,-20.00,-919.00
2024-06-07 00:18:58.704219,0,0,-7,0,0,0,77,80,72,40,69,121.05,91,-20.00,-14.00,-1045.00
2024-06-07 00:18:58.806135,0,0,-7,0,0,0,77,80,73,40,69,121.10,91,27.00,-21.00,-886.00
2024-06-07 00:18:58.922879,0,0,-7,0,0,0,77,80,73,40,69,121.05,91,40.00,-19.00,-1078.00
2024-06-07 00:18:59.010379,0,0,-7,0,0,0,77,80,74,40,69,121.07,91,-15.00,20.00,-973.00
2024-06-07 00:18:59.127664,0,0,-7,0,0,0,77,80,74,40,69,121.02,91,21.00,-26.00,-998.00
2024-06-07 00:18:59.214045,0,0,-7,0,0,0,77,80,74,40,69,121.03,91,-6.00,1.00,-987.00
2024-06-07 00:18:59.332475,0,0,-7,0,0,0,77,80,75,40,69,121.06,91,-46.00,27.00,-1034.00
2024-06-07 00:18:59.417997,0,0,-7,0,0,0,77,80,75,40,69,121.09,91,6.00,-38.00,-1045.00
2024-06-07 00:18:59.548816,0,0,-7,0,0,0,77,80,76,40,69,121.12,91,38.00,-15.00,-996.00
2024-06-07 00:18:59.621910,0,0,-7,0,0,0,77,80,76,40,69,121.07,92,53.00,-7.00,-977.00
2024-06-07 00:18:59.742047,0,0,-7,0,0,0,77,80,77,40,69,121.04,92,26.00,-11.00,-958.00
2024-06-07 00:18:59.825895,0,0,-7,0,0,0,77,80,77,40,69,121.08,92,1.00,-4.00,-1043.00
2024-06-07 00:18:59.946827,0,0,-7,0,0,0,77,80,77,40,69,121.04,92,29.00,-3.00,-945.00
2024-06-07 00:19:00.029924,0,0,-7,0,0,0,77,80,77,40,69,121.12,92,20.00,9.00,-1051.00
2024-06-07 00:19:00.151622,0,0,-7,0,0,0,77,80,77,40,69,121.08,92,-3.00,3.00,-928.00
2024-06-07 00:19:00.234305,0,0,-7,0,0,0,77,80,77,40,69,121.03,92,26.00,-37.00,-1036.00
2024-06-07 00:19:00.356616,0,0,-7,0,0,0,77,80,77,40,69,121.06,92,50.00,-40.00,-1049.00
2024-06-07 00:19:00.438025,0,0,-7,0,0,0,77,80,77,40,69,121.01,92,-30.00,22.00,-972.00
2024-06-07 00:19:00.567669,0,1,-7,0,0,0,77,80,76,40,69,121.09,92,35.00,-1.00,-1017.00
2024-06-07 00:19:00.642069,0,1,-7,0,0,0,77,80,76,40,69,121.00,93,-23.00,30.00,-998.00
2024-06-07 00:19:00.766349,0,0,-7,0,0,0,77,80,76,40,69,121.00,93,-30.00,20.00,-1015.00
2024-06-07 00:19:00.846013,0,0,-7,0,0,0,77,80,75,40,69,121.05,93,28.00,0.00,-1073.00
2024-06-07 00:19:00.970952,0,0,-7,0,0,0,77,80,75,40,69,121.01,93,19.00,-33.00,-1043.00
2024-06-07 00:19:01.050102,0,0,-7,0,0,0,77,80,76,40,69,120.98,93,54.00,-22.00,-909.00
2024-06-07 00:19:01.176056,0,1,-7,0,0,0,77,80,75,40,69,121.01,93,39.00,-39.00,-957.00
2024-06-07 00:19:01.255406,1,1,-7,0,0,0,77,80,75,40,69,121.03,93,38.00,12.00,-1041.00
2024-06-07 00:19:01.380703,1,1,-7,0,0,0,77,80,75,40,69,121.00,93,-3.00,2.00,-973.00
2024-06-07 00:19:01.462929,0,1,-7,0,0,0,77,80,74,40,69,121.01,93,-2.00,-2.00,-1012.00
2024-06-07 00:19:01.559915,0,0,-7,0,0,0,77,80,74,40,69,121.05,93,42.00,-31.00,-985.00
2024-06-07 00:19:01.693539,0,0,-7,0,0,0,77,80,73,40,69,121.04,94,36.00,-27.00,-996.00
2024-06-07 00:19:01.764302,0,0,-7,0,0,0,77,80,72,40,69,121.04,94,55.00,-3.00,-948.00
2024-06-07 00:19:01.865730,0,0,-7,0,0,0,77,80,71,40,69,121.03,94,59.00,-34.00,-1006.00
2024-06-07 00:19:01.968669,0,1,-7,0,0,0,77,80,70,40,69,120.96,94,61.00,-44.00,-1006.00
2024-06-07 00:19:02.070978,1,1,-7,0,0,0,77,80,70,30,69,120.91,94,56.00,-10.00,-939.00
2024-06-07 00:19:02.199727,1,1,-7,0,0,0,77,80,68,30,69,120.98,94,16.00,16.00,-1028.00
2024-06-07 00:19:02.223820,0,0,-7,0,0,0,77,80,67,30,69,120.96,94,-38.00,28.00,-980.00
2024-06-07 00:19:02.404408,0,0,-7,0,0,0,77,80,66,30,69,120.98,94,34.00,-41.00,-1031.00
2024-06-07 00:19:02.427698,0,0,-7,0,0,0,77,80,66,30,69,120.95,94,-10.00,6.00,-1155.00
2024-06-07 00:19:02.609241,0,0,-7,0,0,0,77,80,66,30,69,120.96,94,23.00,-22.00,-1162.00
2024-06-07 00:19:02.631755,0,0,-7,0,0,-1,77,80,67,30,69,120.96,95,22.00,-4.00,-1156.00
2024-06-07 00:19:02.814001,0,0,-7,0,0,-2,77,80,70,40,69,120.95,95,-39.00,7.00,-1053.00
2024-06-07 00:19:02.836263,0,1,-7,0,0,-3,77,80,73,40,69,121.06,95,-21.00,1.00,-1014.00
2024-06-07 00:19:03.019199,1,1,-7,0,0,-4,77,80,77,40,69,121.08,95,-3.00,-6.00,-1101.00
2024-06-07 00:19:03.040710,1,1,-7,0,0,-4,77,80,81,50,69,121.06,95,29.00,-10.00,-1048.00
2024-06-07 00:19:03.223583,1,1,-7,0,0,-5,77,80,87,50,69,121.16,95,37.00,-38.00,-1051.00
2024-06-07 00:19:03.245402,1,1,-7,0,0,-5,77,80,92,50,69,121.16,95,7.00,6.00,-1074.00
2024-06-07 00:19:03.345799,0,0,-7,0,0,-5,77,80,98,60,69,121.31,95,57.00,12.00,-989.00
2024-06-07 00:19:03.447699,0,0,-7,0,0,-5,77,80,104,70,69,121.35,95,15.00,-32.00,-985.00
2024-06-07 00:19:03.633111,0,1,-7,0,0,-5,77,80,110,70,69,121.39,95,-2.00,6.00,-885.00
2024-06-07 00:19:03.651647,0,1,-7,0,0,-5,77,80,116,80,69,121.44,96,4.00,-20.00,-1008.00
2024-06-07 00:19:03.837837,1,1,-7,0,0,-5,77,80,123,80,69,121.50,96,46.00,-22.00,-1003.00
2024-06-07 00:19:03.856585,1,1,-7,0,0,-5,77,80,129,90,69,121.53,96,26.00,11.00,-951.00
2024-06-07 00:19:04.042766,1,1,-7,0,0,-5,77,80,135,90,69,121.57,96,-19.00,4.00,-951.00
2024-06-07 00:19:04.060662,1,1,-7,0,0,-4,77,80,140,100,69,121.65,96,-41.00,40.00,-968.00
2024-06-07 00:19:04.247522,0,0,-7,0,0,-4,77,80,145,100,69,121.72,96,28.00,-3.00,-1005.00
2024-06-07 00:19:04.264589,0,0,-7,0,0,-4,77,80,149,110,69,121.80,96,0.00,-22.00,-909.00
2024-06-07 00:19:04.452772,0,0,-7,0,0,-3,77,79,154,110,69,121.85,96,19.00,-20.00,-1013.00
2024-06-07 00:19:04.468507,0,0,-7,0,0,-3,77,79,157,120,69,121.84,96,1.00,-9.00,-965.00
2024-06-07 00:19:04.658431,0,1,-7,0,0,-2,77,79,161,120,69,121.87,96,-11.00,23.00,-954.00
2024-06-07 00:19:04.672911,0,1,-7,0,0,-2,77,79,164,120,69,121.88,97,44.00,-7.00,-986.00
2024-06-07 00:19:04.863601,1,1,-7,0,0,-2,77,79,167,130,69,121.90,97,-2.00,0.00,-929.00
2024-06-07 00:19:04.876641,0,1,-7,0,0,-1,77,79,169,130,69,121.91,97,2.00,-17.00,-885.00
2024-06-07 00:19:05.068643,0,1,-7,0,0,-1,77,79,170,130,69,121.92,97,16.00,-29.00,-998.00
2024-06-07 00:19:05.081023,0,1,-7,0,0,-1,77,79,171,130,69,121.99,97,-30.00,19.00,-1021.00
2024-06-07 00:19:05.271651,0,0,-7,0,0,0,77,79,173,130,69,121.92,97,22.00,11.00,-858.00
2024-06-07 00:19:05.285744,0,0,-7,0,0,0,77,79,174,130,69,121.96,97,-23.00,25.00,-975.00
2024-06-07 00:19:05.386782,0,1,-7,0,0,0,77,79,174,130,69,121.89,97,-36.00,10.00,-1048.00
2024-06-07 00:19:05.580063,0,1,-7,0,0,0,77,79,175,130,69,121.95,97,-7.00,7.00,-956.00
2024-06-07 00:19:05.592966,0,1,-7,0,0,0,77,79,175,130,69,121.94,97,-9.00,-16.00,-1060.00
2024-06-07 00:19:05.693457,0,1,-7,0,0,0,77,79,175,130,69,121.98,98,53.00,-35.00,-1004.00
2024-06-07 00:19:05.796935,0,1,-7,0,0,0,77,79,174,130,69,121.96,98,-24.00,1.00,-862.00
2024-06-07 00:19:05.896717,0,1,-7,0,0,0,77,79,173,130,69,121.91,98,16.00,-22.00,-1051.00
2024-06-07 00:19:05.998840,0,1,-7,0,0,0,77,79,174,130,69,121.84,98,17.00,-10.00,-1042.00
2024-06-07 00:19:06.193188,0,1,-7,0,0,0,77,79,172,130,69,121.89,98,21.00,-8.00,-1057.00
2024-06-07 00:19:06.202681,0,1,-7,0,0,0,77,79,172,130,69,121.89,98,4.00,-20.00,-1077.00
2024-06-07 00:19:06.400830,0,1,-7,0,0,0,77,79,172,130,69,121.82,98,-1.00,-4.00,-1029.00
2024-06-07 00:19:06.406590,1,1,-7,0,0,0,77,80,172,130,69,121.91,98,14.00,-21.00,-1097.00
2024-06-07 00:19:06.457509,0,1,-7,0,0,0,77,80,172,130,69,121.88,98,-14.00,-25.00,-1015.00
2024-06-07 00:19:06.607425,0,0,-7,0,0,0,77,80,173,130,69,121.96,98,6.00,-13.00,-1002.00
2024-06-07 00:19:06.661510,0,0,-7,0,0,0,77,80,173,130,69,121.86,99,-12.00,18.00,-1032.00
2024-06-07 00:19:06.817499,0,0,-7,0,0,0,77,80,173,130,69,121.89,99,25.00,-49.00,-1070.00
2024-06-07 00:19:06.865861,0,0,-7,0,0,0,77,80,173,130,69,121.93,99,23.00,33.00,-896.00
2024-06-07 00:19:07.016362,0,0,-7,0,0,0,77,80,174,130,69,121.94,99,-9.00,3.00,-1056.00
2024-06-07 00:19:07.069865,0,1,-7,0,0,0,77,80,175,130,69,121.92,99,51.00,-13.00,-985.00
2024-06-07 00:19:07.422195,0,1,-7,0,0,0,77,80,173,130,69,121.81,99,42.00,-22.00,-1058.00
2024-06-07 00:19:07.497297,0,0,-7,0,0,0,77,80,174,130,69,121.81,99,11.00,15.00,-987.00
2024-06-07 00:19:07.499685,0,0,-7,0,0,0,76,79,173,130,69,121.81,99,19.00,6.00,-981.00
2024-06-07 00:19:07.500577,0,0,-7,0,0,1,76,79,171,130,69,121.89,99,10.00,-9.00,-951.00
2024-06-07 00:19:07.582301,0,0,-7,0,0,2,76,79,167,130,69,121.85,99,14.00,-27.00,-975.00
2024-06-07 00:19:07.681299,0,0,-7,0,0,2,76,79,164,130,69,121.80,100,-19.00,0.00,-910.00
2024-06-07 00:19:07.843816,0,0,-7,0,0,2,76,79,162,130,69,121.83,100,22.00,-26.00,-943.00
2024-06-07 00:19:07.935105,0,0,-7,0,0,2,76,79,158,120,69,121.78,100,40.00,-18.00,-1057.00
2024-06-07 00:19:07.988647,0,1,-7,0,0,3,76,79,154,120,69,121.73,100,55.00,-15.00,-983.00
2024-06-07 00:19:08.149309,0,1,-7,0,0,3,76,79,150,120,69,121.70,100,34.00,-35.00,-1030.00
2024-06-07 00:19:08.209403,0,1,-7,0,0,3,76,79,147,110,69,121.64,100,29.00,-20.00,-995.00
2024-06-07 00:19:08.293603,0,1,-7,0,0,3,76,79,144,110,69,121.64,100,0.00,9.00,-1015.00
2024-06-07 00:19:08.456891,0,1,-7,0,0,3,76,79,141,110,69,121.56,100,11.00,-2.00,-981.00
2024-06-07 00:19:08.599857,0,1,-7,0,0,2,76,79,138,100,69,121.51,100,-2.00,-5.00,-1048.00
2024-06-07 00:19:08.600328,0,1,-7,0,0,2,76,79,136,100,69,121.61,100,-4.00,37.00,-995.00
2024-06-07 00:19:08.763736,0,1,-7,0,0,2,76,79,133,100,69,121.54,101,29.00,-2.00,-1047.00
2024-06-07 00:19:08.907257,0,1,-7,0,0,2,76,79,131,100,69,121.58,101,27.00,-33.00,-1007.00
2024-06-07 00:19:08.907497,0,1,-7,0,0,1,76,79,130,90,69,121.57,101,-51.00,-10.00,-1017.00
2024-06-07 00:19:09.071023,0,1,-7,0,0,1,76,79,127,90,69,121.49,101,18.00,-48.00,-1037.00
2024-06-07 00:19:09.225144,0,1,-7,0,0,1,76,79,126,90,69,121.51,101,-15.00,12.00,-1041.00
2024-06-07 00:19:09.225466,0,1,-7,0,0,1,76,79,125,90,69,121.43,101,-19.00,0.00,-958.00
2024-06-07 00:19:09.313386,0,1,-7,0,0,1,76,79,125,90,69,121.41,101,-1.00,-56.00,-1107.00
2024-06-07 00:19:09.470970,0,1,-7,0,0,0,77,79,124,90,69,121.44,101,-25.00,15.00,-980.00
2024-06-07 00:19:09.517256,0,1,-7,0,0,0,77,79,124,90,69,121.43,101,-5.00,-6.00,-1047.00
2024-06-07 00:19:09.676570,0,1,-7,0,0,0,77,79,124,90,69,121.45,101,-3.00,26.00,-857.00
2024-06-07 00:19:09.721280,0,1,-7,0,0,0,77,79,125,90,69,121.43,102,18.00,-33.00,-1006.00
2024-06-07 00:19:09.823186,0,1,-7,0,0,0,77,79,125,90,69,121.45,102,-7.00,-16.00,-1047.00
2024-06-07 00:19:09.981982,0,1,-7,0,0,0,77,79,126,90,69,121.44,102,12.00,-43.00,-982.00
2024-06-07 00:19:10.029862,0,1,-7,0,0,0,77,79,127,90,69,121.38,102,56.00,-38.00,-953.00
2024-06-07 00:19:10.129351,0,1,-7,0,0,0,77,79,128,90,69,121.43,102,29.00,-16.00,-972.00
2024-06-07 00:19:10.181306,0,1,-7,0,0,0,77,79,128,90,69,121.41,102,-11.00,36.00,-879.00
2024-06-07 00:19:10.293124,0,1,-7,0,0,0,77,79,128,90,69,121.44,102,-16.00,13.00,-954.00
2024-06-07 00:19:10.385494,0,1,-7,0,0,0,77,79,129,90,69,121.47,102,-18.00,3.00,-1030.00
2024-06-07 00:19:10.493714,0,1,-7,0,0,0,77,79,129,90,69,121.50,102,12.00,-35.00,-1034.00
2024-06-07 00:19:10.589362,0,1,-7,0,0,0,77,79,129,90,69,121.44,102,77.00,-49.00,-992.00
2024-06-07 00:19:10.698943,0,1,-7,0,0,0,77,79,130,90,69,121.46,103,34.00,-11.00,-968.00
2024-06-07 00:19:10.795334,0,1,-7,0,0,0,77,79,129,90,69,121.51,103,-24.00,16.00,-988.00
2024-06-07 00:19:10.894072,0,1,-7,0,0,0,77,79,129,90,69,121.50,103,22.00,-45.00,-1050.00
2024-06-07 00:19:11.005892,0,0,-7,0,0,0,77,79,128,90,69,121.44,103,-10.00,-26.00,-1009.00
2024-06-07 00:19:11.098255,0,0,-7,0,0,0,77,79,128,90,69,121.47,103,17.00,-9.00,-931.00
2024-06-07 00:19:11.211397,0,1,-7,0,0,0,77,79,128,90,69,121.50,103,21.00,-20.00,-978.00
2024-06-07 00:19:11.301979,0,0,-7,0,0,0,77,79,128,90,69,121.46,103,0.00,-10.00,-1004.00
2024-06-07 00:19:11.415972,-4,0,-7,0,0,0,77,79,127,90,69,121.44,103,-14.00,-11.00,-999.00
2024-06-07 00:19:11.505884,-7,0,-7,1,0,0,77,79,127,90,69,121.44,103,18.00,-26.00,-950.00
2024-06-07 00:19:11.623511,-8,0,-7,2,0,0,77,79,129,90,69,121.40,104,20.00,6.00,-1056.00
2024-06-07 00:19:11.709826,-8,1,-7,4,0,0,77,79,129,90,69,121.39,104,15.00,-61.00,-1026.00
2024-06-07 00:19:11.828110,-7,1,-7,5,0,0,77,79,127,90,69,121.39,104,-50.00,-22.00,-1026.00
2024-06-07 00:19:11.913976,-6,1,-7,6,0,0,77,79,126,90,69,121.36,104,-43.00,17.00,-1072.00
2024-06-07 00:19:12.015879,-5,1,-7,7,0,0,77,79,125,90,69,121.43,104,-20.00,-14.00,-1006.00
2024-06-07 00:19:12.133376,-4,1,-7,7,0,0,77,79,126,90,69,121.36,104,-22.00,-7.00,-977.00
2024-06-07 00:19:12.219951,-2,1,-7,8,0,0,77,79,126,90,69,121.29,104,-38.00,16.00,-1036.00
2024-06-07 00:19:12.338663,0,2,-7,7,0,0,77,79,126,90,69,121.35,104,-25.00,-12.00,-985.00
2024-06-07 00:19:12.423863,2,0,-7,7,0,0,76,79,127,90,69,121.46,104,-78.00,10.00,-1013.00
2024-06-07 00:19:12.541539,4,0,-7,6,0,0,76,79,127,90,69,121.42,104,-44.00,0.00,-1051.00
2024-06-07 00:19:12.627812,4,0,-7,4,0,0,76,79,127,90,69,121.34,105,-103.00,30.00,-988.00
2024-06-07 00:19:12.746944,2,0,-7,3,0,0,76,79,128,90,69,121.40,105,-25.00,-16.00,-1018.00
2024-06-07 00:19:12.831853,1,0,-7,3,0,0,76,79,128,90,69,121.47,105,-11.00,8.00,-921.00
2024-06-07 00:19:12.952244,0,0,-7,3,0,0,76,79,129,90,69,121.45,105,50.00,-21.00,-987.00
2024-06-07 00:19:13.036033,0,0,-7,2,0,0,76,79,129,90,69,121.42,105,-5.00,5.00,-996.00
2024-06-07 00:19:13.157777,0,0,-7,2,0,0,76,79,130,90,69,121.49,105,-15.00,-3.00,-896.00
2024-06-07 00:19:13.239819,0,0,-7,2,0,0,76,79,130,90,69,121.42,105,12.00,-9.00,-968.00
2024-06-07 00:19:13.360766,0,0,-7,2,0,0,76,79,130,90,69,121.45,105,12.00,-14.00,-982.00
2024-06-07 00:19:13.443818,0,0,-7,2,0,0,76,79,130,90,69,121.41,105,-32.00,9.00,-960.00
2024-06-07 00:19:13.566025,0,0,-7,1,0,0,76,79,130,90,69,121.43,105,-11.00,-11.00,-937.00
2024-06-07 00:19:13.647811,2,0,-7,1,0,0,76,79,128,90,69,121.35,106,-20.00,23.00,-978.00
2024-06-07 00:19:13.771495,2,0,-7,0,0,0,76,79,128,90,69,121.42,106,-11.00,22.00,-1027.00
2024-06-07 00:19:13.853301,1,0,-7,0,0,0,76,79,128,90,69,121.36,106,-13.00,14.00,-1023.00
2024-06-07 00:19:13.980872,0,0,-7,0,0,0,76,79,127,90,69,121.42,106,-13.00,18.00,-935.00
2024-06-07 00:19:14.056798,0,0,-7,0,0,0,76,79,127,90,69,121.43,106,0.00,4.00,-1052.00
2024-06-07 00:19:14.180233,0,0,-7,0,0,0,76,79,128,90,69,121.46,106,28.00,-33.00,-919.00
2024-06-07 00:19:14.262297,0,0,-7,0,0,0,76,79,128,90,69,121.47,106,33.00,-31.00,-1079.00
2024-06-07 00:19:14.364875,0,0,-7,0,0,0,76,79,129,90,69,121.50,106,-3.00,9.00,-1043.00
2024-06-07 00:19:14.466786,1,1,-7,0,0,0,77,78,130,90,69,121.50,106,-34.00,16.00,-946.00
2024-06-07 00:19:14.566738,0,1,-7,0,0,0,77,78,131,90,69,121.48,106,-23.00,26.00,-992.00
2024-06-07 00:19:14.692381,0,0,-7,0,0,0,77,78,131,90,69,121.41,107,-25.00,27.00,-946.00
2024-06-07 00:19:14.719823,-1,0,-7,0,0,0,77,78,131,90,69,121.43,107,7.00,5.00,-1017.00
2024-06-07 00:19:14.896945,-1,0,-7,0,0,0,77,78,132,90,69,121.51,107,-20.00,-1.00,-1053.00
2024-06-07 00:19:14.923640,-1,0,-7,0,0,0,77,78,132,90,69,121.50,107,-4.00,36.00,-940.00
2024-06-07 00:19:15.101806,-1,0,-7,0,0,0,77,78,132,90,69,121.48,107,0.00,-12.00,-951.00
2024-06-07 00:19:15.127722,0,0,-7,0,0,0,77,78,132,90,69,121.46,107,29.00,-45.00,-980.00
2024-06-07 00:19:15.307172,0,0,-7,0,0,0,77,78,131,90,69,121.38,107,-5.00,26.00,-1028.00
2024-06-07 00:19:15.331648,0,0,-7,0,0,0,77,78,130,90,69,121.44,107,-5.00,-4.00,-968.00
2024-06-07 00:19:15.511129,0,0,-7,0,0,0,76,79,130,90,69,121.47,107,-23.00,20.00,-916.00
2024-06-07 00:19:15.535720,0,0,-7,0,0,0,76,79,128,90,69,121.44,107,0.00,-6.00,-1080.00
2024-06-07 00:19:15.716171,-1,0,-7,0,0,0,76,79,127,90,69,121.45,108,24.00,3.00,-993.00
2024-06-07 00:19:15.739670,0,0,-7,0,0,0,76,79,126,90,69,121.40,108,-8.00,-21.00,-1000.00
2024-06-07 00:19:15.844250,0,0,-7,0,0,0,76,79,126,90,69,121.41,108,19.00,0.00,-1090.00
2024-06-07 00:19:15.943488,0,0,-7,0,0,0,76,79,125,90,69,121.38,108,13.00,-33.00,-1022.00
2024-06-07 00:19:16.045580,7,0,-7,0,0,0,76,79,125,90,69,121.39,108,-35.00,15.00,-954.00
2024-06-07 00:19:16.228360,8,0,-7,-1,0,0,76,79,127,80,69,121.44,108,-28.00,5.00,-1065.00
2024-06-07 00:19:16.249790,8,0,-7,-2,0,0,76,79,126,80,69,121.39,108,17.00,-1.00,-1032.00
2024-06-07 00:19:16.432572,8,0,-7,-4,0,0,76,79,126,80,69,121.29,108,58.00,-20.00,-1033.00
2024-06-07 00:19:16.462804,7,0,-7,-5,1,0,76,79,123,80,69,121.29,108,49.00,2.00,-1035.00
2024-06-07 00:19:16.555499,6,0,-7,-6,1,0,76,79,126,80,69,121.35,108,86.00,-43.00,-995.00
2024-06-07 00:19:16.739870,5,0,-7,-7,0,0,76,79,124,80,69,121.28,109,97.00,-21.00,-983.00
2024-06-07 00:19:16.759539,4,0,-7,-8,0,0,76,79,125,80,69,121.28,109,51.00,-10.00,-1048.00
2024-06-07 00:19:16.861468,1,0,-7,-8,0,0,76,79,125,80,69,121.35,109,84.00,-45.00,-1024.00
2024-06-07 00:19:17.047221,-1,0,-7,-7,0,0,76,79,125,80,69,121.29,109,87.00,2.00,-1020.00
2024-06-07 00:19:17.065481,-3,0,-7,-6,0,0,76,79,126,90,69,121.31,109,95.00,-7.00,-1028.00
2024-06-07 00:19:17.252441,-4,0,-7,-5,0,0,76,79,127,90,69,121.37,109,77.00,-6.00,-1024.00
2024-06-07 00:19:17.269466,-3,0,-7,-4,0,0,76,79,127,90,69,121.37,109,7.00,-25.00,-1023.00
2024-06-07 00:19:17.457464,-2,0,-7,-3,0,0,76,79,127,90,69,121.36,109,55.00,-2.00,-1018.00
2024-06-07 00:19:17.473426,0,0,-7,-3,0,0,76,78,128,90,69,121.36,109,13.00,24.00,-969.00
2024-06-07 00:19:17.664108,0,0,-7,-2,0,0,76,78,128,90,69,121.32,109,33.00,-37.00,-1047.00
2024-06-07 00:19:17.677488,0,0,-7,-2,0,0,76,78,129,90,69,121.40,110,58.00,-42.00,-983.00
2024-06-07 00:19:17.866260,0,0,-7,-2,0,0,76,78,129,90,69,121.32,110,32.00,-23.00,-1074.00
2024-06-07 00:19:17.881328,0,0,-7,-2,0,0,76,78,129,90,69,121.35,110,46.00,-51.00,-998.00
2024-06-07 00:19:18.072408,0,0,-7,-2,0,0,76,78,128,90,69,121.36,110,-18.00,-2.00,-1020.00
2024-06-07 00:19:18.085310,-5,0,-7,-2,0,0,76,78,127,90,69,121.30,110,10.00,-3.00,-1006.00
2024-06-07 00:19:18.136812,-4,0,-7,-1,0,0,76,78,126,90,69,121.30,110,35.00,-48.00,-1088.00
2024-06-07 00:19:18.239271,-2,0,-7,0,0,0,76,78,125,90,69,121.25,110,21.00,-6.00,-1047.00
2024-06-07 00:19:18.378742,-1,0,-7,0,0,0,76,78,124,90,69,121.31,110,0.00,18.00,-963.00
2024-06-07 00:19:18.442537,0,0,-7,0,0,0,76,79,124,90,69,121.32,110,3.00,-1.00,-978.00
2024-06-07 00:19:18.585561,0,0,-7,0,0,0,76,79,123,90,69,121.27,110,-2.00,-34.00,-1087.00
2024-06-07 00:19:18.646424,0,0,-7,0,0,0,76,79,123,80,69,121.25,111,-19.00,-1.00,-986.00
2024-06-07 00:19:18.787973,0,0,-7,0,0,0,76,79,122,80,69,121.25,111,-17.00,-6.00,-942.00
2024-06-07 00:19:18.854907,0,0,-7,0,0,0,76,79,122,80,69,121.30,111,0.00,-9.00,-1015.00
2024-06-07 00:19:18.952483,0,0,-7,0,0,0,76,79,122,80,69,121.26,111,5.00,-11.00,-1059.00
2024-06-07 00:19:19.070534,0,0,-7,0,0,0,76,79,122,80,69,121.26,111,38.00,-41.00,-975.00
2024-06-07 00:19:19.156379,0,0,-7,0,0,0,76,79,122,80,69,121.26,111,-3.00,-13.00,-992.00
2024-06-07 00:19:19.299914,0,0,-7,0,0,0,76,79,122,80,69,121.32,111,17.00,-13.00,-999.00
2024-06-07 00:19:19.360987,0,1,-7,0,0,0,76,79,122,80,69,121.30,111,58.00,-7.00,-1006.00
2024-06-07 00:19:19.504840,0,0,-7,0,0,0,77,78,121,80,69,121.28,111,23.00,3.00,-970.00
2024-06-07 00:19:19.564733,0,0,-7,0,0,0,77,78,122,80,69,121.29,111,27.00,-20.00,-990.00
2024-06-07 00:19:19.710572,0,0,-7,0,0,0,77,78,122,80,69,121.32,112,35.00,-26.00,-930.00
2024-06-07 00:19:19.768755,0,0,-7,0,0,0,77,78,121,80,69,121.31,112,-14.00,7.00,-1013.00
2024-06-07 00:19:19.870573,0,0,-7,0,0,0,77,78,121,80,69,121.30,112,-42.00,-16.00,-999.00
2024-06-07 00:19:20.016981,0,0,-7,0,0,0,77,78,121,80,69,121.23,112,39.00,-39.00,-945.00
2024-06-07 00:19:20.074363,0,0,-7,0,0,0,77,78,122,80,69,121.30,112,-15.00,7.00,-1015.00
2024-06-07 00:19:20.190930,0,0,-7,0,0,0,77,78,121,80,69,121.26,112,-18.00,-15.00,-1009.00
2024-06-07 00:19:20.278496,0,0,-7,0,0,0,77,78,121,80,69,121.29,112,-7.00,-36.00,-1069.00
2024-06-07 00:19:20.426355,0,-1,-7,0,0,0,77,78,121,80,69,121.31,112,-47.00,13.00,-925.00
2024-06-07 00:19:20.483673,0,-7,-7,0,0,0,76,79,123,80,69,121.28,112,26.00,-29.00,-1106.00
2024-06-07 00:19:20.630865,0,-7,-7,0,-1,0,76,79,122,80,69,121.36,112,44.00,-18.00,-998.00
2024-06-07 00:19:20.688607,0,-5,-7,0,-3,0,76,79,123,80,69,121.29,113,28.00,-28.00,-1048.00
2024-06-07 00:19:20.788135,-1,-2,-7,0,-3,0,76,79,121,80,69,121.35,113,46.00,-28.00,-1078.00
2024-06-07 00:19:20.894244,0,0,-7,0,-4,0,76,79,122,80,69,121.37,113,28.00,-33.00,-1024.00
2024-06-07 00:19:20.992142,0,1,-7,0,-3,0,76,79,122,90,69,121.28,113,42.00,-16.00,-1028.00
2024-06-07 00:19:21.143214,0,1,-7,0,-3,0,76,79,123,90,69,121.34,113,-6.00,9.00,-987.00
2024-06-07 00:19:21.196087,0,0,-7,0,-2,0,76,79,123,90,69,121.33,113,27.00,-17.00,-984.00
2024-06-07 00:19:21.349105,0,0,-7,0,-2,0,76,79,123,90,69,121.27,113,-13.00,-3.00,-990.00
2024-06-07 00:19:21.400247,0,0,-7,0,-2,0,76,79,123,90,69,121.31,113,54.00,0.00,-994.00
2024-06-07 00:19:21.552744,0,0,-7,0,-2,0,76,78,123,90,69,121.27,113,-13.00,33.00,-968.00
2024-06-07 00:19:21.605132,0,0,-7,0,-2,0,76,78,123,90,69,121.34,113,9.00,24.00,-1037.00
2024-06-07 00:19:21.768172,0,0,-7,0,-2,0,76,78,123,90,69,121.34,114,21.00,-32.00,-1026.00
2024-06-07 00:19:21.809302,0,0,-7,0,-2,0,76,78,123,90,69,121.36,114,13.00,29.00,-897.00
2024-06-07 00:19:21.909942,0,0,-7,0,-2,0,76,78,123,90,69,121.33,114,25.00,-12.00,-1079.00
2024-06-07 00:19:22.111572,0,0,-7,0,-2,0,76,78,122,90,69,121.30,114,-33.00,30.00,-1024.00
2024-06-07 00:19:22.112629,0,0,-7,0,-2,0,76,78,122,90,69,121.36,114,-27.00,-2.00,-980.00
2024-06-07 00:19:22.166338,0,0,-7,0,-2,0,76,78,122,90,69,121.33,114,41.00,-32.00,-1068.00
2024-06-07 00:19:22.318884,0,1,-7,0,-2,0,76,78,123,90,69,121.29,114,-34.00,15.00,-951.00
2024-06-07 00:19:22.371344,0,5,-7,0,-1,0,76,78,121,90,69,121.35,114,-20.00,44.00,-1043.00
2024-06-07 00:19:22.540812,0,3,-7,0,0,0,76,78,122,80,69,121.32,114,9.00,-33.00,-992.00
2024-06-07 00:19:22.613904,0,1,-7,0,0,0,76,78,122,80,69,121.30,114,13.00,-9.00,-1033.00
2024-06-07 00:19:22.707378,0,0,-7,0,0,0,76,78,121,80,69,121.30,115,-3.00,-3.00,-973.00
2024-06-07 00:19:22.777232,0,0,-7,0,0,0,76,78,122,80,69,121.37,115,9.00,-51.00,-1068.00
2024-06-07 00:19:22.878968,0,0,-7,0,0,0,76,78,122,80,69,121.34,115,-20.00,12.00,-999.00
2024-06-07 00:19:23.073304,0,0,-7,0,0,0,76,78,123,80,69,121.30,115,11.00,-3.00,-900.00
2024-06-07 00:19:23.083067,0,0,-7,0,0,0,76,78,123,80,69,121.31,115,-1.00,7.00,-953.00
2024-06-07 00:19:23.278219,0,0,-7,0,0,0,76,78,124,90,69,121.37,115,-15.00,-4.00,-929.00
2024-06-07 00:19:23.287157,0,0,-7,0,0,0,76,78,125,90,69,121.35,115,-40.00,1.00,-1005.00
2024-06-07 00:19:23.397620,0,0,-7,0,0,0,76,78,125,90,69,121.26,115,-47.00,1.00,-986.00
2024-06-07 00:19:23.509947,0,0,-7,0,0,0,76,79,126,90,69,121.35,115,-7.00,7.00,-1074.00
2024-06-07 00:19:23.653967,0,0,-7,0,0,0,76,79,126,90,69,121.37,115,23.00,-41.00,-1029.00
2024-06-07 00:19:23.694990,0,0,-7,0,0,0,76,79,126,90,69,121.31,116,46.00,7.00,-969.00
2024-06-07 00:19:23.816597,0,0,-7,0,0,0,76,79,127,90,69,121.33,116,17.00,-2.00,-994.00
2024-06-07 00:19:23.959326,0,0,-7,0,0,0,76,79,127,90,69,121.26,116,-14.00,-29.00,-991.00
2024-06-07 00:19:24.000902,0,0,-7,0,0,0,76,79,127,90,69,121.31,116,5.00,4.00,-1043.00
2024-06-07 00:19:24.123247,0,0,-7,0,0,0,76,79,127,90,69,121.26,116,29.00,-46.00,-1015.00
2024-06-07 00:19:24.277781,0,0,-7,0,0,0,76,79,126,90,69,121.32,116,33.00,-19.00,-1007.00
2024-06-07 00:19:24.310710,0,0,-7,0,0,0,76,79,126,90,69,121.38,116,12.00,-17.00,-1018.00
2024-06-07 00:19:24.408884,0,0,-7,0,0,0,76,79,125,90,69,121.29,116,55.00,-5.00,-1009.00
2024-06-07 00:19:24.510798,0,0,-7,0,0,0,76,79,125,90,69,121.26,116,0.00,-16.00,-1052.00
2024-06-07 00:19:24.625507,0,0,-7,0,0,0,76,79,124,90,69,121.28,116,-33.00,-18.00,-1056.00
2024-06-07 00:19:24.714801,0,5,-7,0,0,0,76,79,127,90,69,121.28,117,20.00,10.00,-980.00
2024-06-07 00:19:24.829145,0,8,-7,0,1,0,76,79,127,90,69,121.22,117,1.00,2.00,-1019.00
2024-06-07 00:19:24.918813,0,7,-7,0,2,0,76,79,124,90,69,121.27,117,22.00,-64.00,-1073.00
2024-06-07 00:19:25.034535,0,4,-7,0,3,0,76,79,124,90,69,121.28,117,20.00,-22.00,-982.00
2024-06-07 00:19:25.122686,0,1,-7,0,3,0,76,79,124,90,69,121.28,117,-10.00,-22.00,-997.00
2024-06-07 00:19:25.239311,0,0,-7,0,3,0,76,79,125,90,69,121.26,117,27.00,-33.00,-1005.00
2024-06-07 00:19:25.326738,0,-1,-7,0,3,0,76,79,124,90,69,121.31,117,60.00,-20.00,-987.00
2024-06-07 00:19:25.446202,0,0,-7,0,3,0,76,79,125,90,69,121.36,117,46.00,-45.00,-1021.00
2024-06-07 00:19:25.531617,0,0,-7,0,2,0,76,78,125,90,69,121.31,117,44.00,-20.00,-997.00
2024-06-07 00:19:25.648195,0,0,-7,0,2,0,76,78,124,90,69,121.33,118,-10.00,-25.00,-1033.00
2024-06-07 00:19:25.734720,-1,0,-7,0,2,0,76,78,125,90,69,121.31,118,-12.00,-28.00,-1103.00
2024-06-07 00:19:25.852965,0,0,-7,0,2,0,76,78,124,90,69,121.30,118,41.00,-48.00,-958.00
2024-06-07 00:19:25.939470,0,0,-7,0,2,0,76,78,125,90,69,121.40,118,-27.00,31.00,-932.00
2024-06-07 00:19:26.041657,0,0,-7,0,2,0,76,78,124,90,69,121.27,118,35.00,-12.00,-980.00
2024-06-07 00:19:26.160129,0,0,-7,0,2,0,76,78,124,90,69,121.31,118,0.00,-41.00,-1088.00
2024-06-07 00:19:26.194604,0,-1,-7,0,2,0,76,78,124,90,69,121.27,118,-24.00,-5.00,-1001.00
2024-06-07 00:19:26.366052,0,-3,-7,0,1,0,76,78,124,90,69,121.28,118,0.00,-53.00,-1069.00
2024-06-07 00:19:26.399957,0,-2,-7,0,0,0,76,78,124,90,69,121.38,118,27.00,-39.00,-998.00
2024-06-07 00:19:26.570057,0,-1,-7,0,0,0,76,78,123,90,69,121.35,118,8.00,4.00,-952.00
2024-06-07 00:19:26.603290,0,0,-7,0,0,0,76,78,123,90,69,121.24,119,-14.00,13.00,-1014.00
2024-06-07 00:19:26.774706,0,0,-7,0,0,0,76,78,124,90,69,121.28,119,-16.00,-17.00,-1032.00
2024-06-07 00:19:26.806663,0,0,-7,0,0,0,76,78,123,90,69,121.29,119,-3.00,-1.00,-961.00
2024-06-07 00:19:26.908619,0,0,-7,0,0,0,76,78,124,90,69,121.34,119,-28.00,13.00,-1035.00
2024-06-07 00:19:27.081725,0,0,-7,0,0,0,76,78,124,90,69,121.40,119,-9.00,29.00,-1071.00
2024-06-07 00:19:27.112643,0,0,-7,0,0,0,76,78,123,90,69,121.30,119,8.00,39.00,-953.00
2024-06-07 00:19:27.287115,0,0,-7,0,0,0,76,78,124,90,69,121.38,119,32.00,-23.00,-989.00
2024-06-07 00:19:27.316679,0,0,-7,0,0,0,76,78,124,90,69,121.38,119,-8.00,-23.00,-1057.00
2024-06-07 00:19:27.492188,0,0,-7,0,0,0,76,78,124,90,69,121.34,119,-34.00,3.00,-950.00
2024-06-07 00:19:27.520576,0,0,-7,0,0,0,75,78,124,90,69,121.34,119,21.00,-21.00,-1108.00
2024-06-07 00:19:27.696608,0,0,-7,0,0,0,75,78,123,90,69,121.27,120,6.00,-34.00,-1069.00
2024-06-07 00:19:27.724578,0,0,-7,0,0,0,75,78,123,90,69,121.38,120,-15.00,-6.00,-940.00
2024-06-07 00:19:27.900891,0,0,-7,0,0,0,75,78,124,90,69,121.34,120,-24.00,6.00,-928.00
2024-06-07 00:19:27.928481,0,0,-7,0,0,0,75,78,123,90,69,121.37,120,-12.00,-13.00,-1023.00
2024-06-07 00:19:28.030542,0,0,-7,0,0,0,75,78,123,90,69,121.31,120,34.00,-28.00,-989.00
2024-06-07 00:19:28.208548,0,0,-7,0,0,0,75,78,123,90,69,121.33,120,1.00,-3.00,-942.00
2024-06-07 00:19:28.234537,0,0,-7,0,0,0,75,78,123,90,69,121.27,120,-20.00,-3.00,-1109.00
2024-06-07 00:19:28.412927,0,0,-7,0,0,0,75,78,122,90,69,121.32,120,-7.00,-1.00,-980.00
2024-06-07 00:19:28.438686,0,0,-7,0,0,0,75,78,123,90,69,121.30,120,-52.00,-14.00,-1074.00
2024-06-07 00:19:28.573202,0,0,-7,0,0,0,75,77,122,80,69,121.27,120,53.00,3.00,-920.00
2024-06-07 00:19:28.642461,0,0,-7,0,0,0,75,77,122,80,69,121.30,121,0.00,5.00,-1007.00
2024-06-07 00:19:28.823644,0,0,-3,0,0,0,75,77,123,80,68,121.31,121,37.00,5.00,-968.00
2024-06-07 00:19:28.846395,0,0,2,0,0,0,75,77,122,80,68,121.30,121,28.00,-27.00,-1007.00
2024-06-07 00:19:29.027415,0,0,8,0,0,0,75,77,121,80,68,121.33,121,21.00,-7.00,-1020.00
2024-06-07 00:19:29.050433,0,0,14,0,0,0,75,77,122,80,68,121.32,121,13.00,-10.00,-963.00
2024-06-07 00:19:29.233052,0,0,20,0,0,0,75,77,123,80,68,121.39,121,23.00,-27.00,-998.00
2024-06-07 00:19:29.254805,0,0,26,0,0,0,75,77,123,80,68,121.33,121,38.00,-8.00,-942.00
2024-06-07 00:19:29.437241,0,0,32,0,0,0,75,77,123,80,68,121.32,121,1.00,-3.00,-977.00
2024-06-07 00:19:29.458927,0,0,38,0,0,0,75,77,124,90,68,121.28,121,19.00,30.00,-943.00
2024-06-07 00:19:29.642276,0,0,44,0,0,0,76,78,124,90,68,121.32,121,20.00,1.00,-966.00
2024-06-07 00:19:29.664824,0,0,50,0,0,0,76,78,125,90,68,121.35,122,-12.00,-7.00,-1078.00
2024-06-07 00:19:29.765109,0,0,56,0,0,0,76,78,126,90,68,121.38,122,18.00,-13.00,-1021.00
2024-06-07 00:19:29.868613,0,0,62,0,0,0,76,78,126,90,68,121.35,122,42.00,-4.00,-1042.00
2024-06-07 00:19:29.968382,0,0,68,0,0,0,76,78,126,90,68,121.34,122,33.00,-16.00,-907.00
2024-06-07 00:19:30.154014,0,0,74,0,0,0,76,78,126,90,68,121.31,122,19.00,-10.00,-979.00
2024-06-07 00:19:30.154096,0,0,80,0,0,0,76,78,126,90,68,121.33,122,58.00,5.00,-1010.00
2024-06-07 00:19:30.223310,0,0,87,0,0,0,76,78,126,90,68,121.37,122,14.00,-42.00,-1020.00
2024-06-07 00:19:30.359791,0,0,93,0,0,0,76,78,125,90,68,121.28,122,-35.00,15.00,-968.00
2024-06-07 00:19:30.427424,0,0,99,0,0,0,76,78,125,90,68,121.32,122,22.00,26.00,-965.00
2024-06-07 00:19:30.563163,0,0,105,0,0,0,75,78,124,90,68,121.33,122,19.00,-2.00,-1015.00
2024-06-07 00:19:30.631361,0,0,111,0,0,0,75,78,124,90,68,121.35,123,-8.00,-8.00,-1030.00
2024-06-07 00:19:30.768411,0,0,117,0,0,0,75,78,124,90,68,121.34,123,-28.00,36.00,-1052.00
2024-06-07 00:19:30.835666,0,0,123,0,0,0,75,78,123,90,68,121.37,123,9.00,-38.00,-1096.00
2024-06-07 00:19:30.972672,0,0,129,0,0,0,75,78,123,90,68,121.32,123,-21.00,28.00,-1001.00
2024-06-07 00:19:31.039281,0,0,135,0,0,0,75,78,122,90,68,121.33,123,-7.00,3.00,-948.00
2024-06-07 00:19:31.178171,0,0,142,0,0,0,75,78,121,90,68,121.37,123,-4.00,-12.00,-978.00
2024-06-07 00:19:31.243200,0,0,148,0,0,0,75,78,121,80,68,121.32,123,-18.00,-15.00,-1072.00
2024-06-07 00:19:31.382580,0,0,154,0,0,0,75,78,120,80,68,121.27,123,-47.00,25.00,-1098.00
2024-06-07 00:19:31.447154,0,0,160,0,0,0,75,78,120,80,68,121.38,123,-12.00,9.00,-943.00
2024-06-07 00:19:31.549121,0,0,166,0,0,0,76,78,119,80,68,121.37,123,-32.00,26.00,-888.00
2024-06-07 00:19:31.689703,0,0,172,0,0,0,76,78,120,80,68,121.38,124,3.00,-3.00,-1013.00
2024-06-07 00:19:31.753095,0,0,178,0,0,0,76,78,119,80,68,121.41,124,-10.00,-9.00,-1055.00
2024-06-07 00:19:31.895177,0,0,-175,0,0,0,76,78,120,80,68,121.42,124,67.00,-11.00,-1031.00
2024-06-07 00:19:31.957916,0,0,-169,0,0,0,76,78,119,80,68,121.36,124,16.00,6.00,-1051.00
2024-06-07 00:19:32.061228,0,0,-162,0,0,0,76,78,120,80,68,121.39,124,48.00,-10.00,-963.00
2024-06-07 00:19:32.201339,0,0,-156,0,0,0,76,78,119,80,68,121.37,124,-41.00,13.00,-981.00
2024-06-07 00:19:32.264048,0,0,-150,0,0,0,76,78,119,80,68,121.31,124,43.00,2.00,-997.00
2024-06-07 00:19:32.406194,0,0,-144,0,0,0,76,78,119,80,68,121.37,124,-2.00,7.00,-889.00
2024-06-07 00:19:32.468057,0,0,-138,0,0,0,76,78,120,80,68,121.39,124,-1.00,-3.00,-1032.00
2024-06-07 00:19:32.615299,0,0,-132,0,0,0,75,77,120,80,68,121.37,124,58.00,-46.00,-920.00
2024-06-07 00:19:32.671964,0,0,-125,0,0,0,75,77,121,80,68,121.36,125,7.00,21.00,-1028.00
2024-06-07 00:19:32.815802,0,0,-119,0,0,0,75,77,123,80,68,121.41,125,79.00,8.00,-1046.00
2024-06-07 00:19:32.876125,0,0,-113,0,0,0,75,77,122,80,68,121.33,125,-16.00,7.00,-1033.00
2024-06-07 00:19:33.020896,0,0,-107,0,0,0,75,77,123,80,68,121.40,125,7.00,35.00,-1002.00
2024-06-07 00:19:33.079966,0,0,-101,0,0,0,75,77,124,90,68,121.33,125,-60.00,20.00,-1014.00
2024-06-07 00:19:33.226244,0,0,-95,0,0,0,75,77,124,90,68,121.35,125,-7.00,13.00,-1142.00
2024-06-07 00:19:33.284279,0,0,-89,0,0,0,75,77,125,90,68,121.36,125,35.00,-29.00,-1006.00
2024-06-07 00:19:33.430110,0,0,-83,0,0,0,75,77,125,90,68,121.40,125,7.00,-2.00,-883.00
2024-06-07 00:19:33.489277,0,0,-77,0,0,0,75,77,125,90,68,121.37,125,7.00,17.00,-946.00
2024-06-07 00:19:33.635859,0,0,-71,0,0,0,76,78,125,90,68,121.42,125,27.00,-30.00,-1004.00
2024-06-07 00:19:33.697575,0,0,-65,0,0,0,76,78,126,90,68,121.38,126,-14.00,11.00,-980.00
2024-06-07 00:19:33.794789,0,0,-59,0,0,0,76,78,126,90,68,121.44,126,14.00,-37.00,-993.00
2024-06-07 00:19:33.897954,0,0,-53,0,0,0,76,78,127,90,68,121.42,126,4.00,-21.00,-998.00
2024-06-07 00:19:33.999917,0,0,-47,0,0,0,76,78,126,90,68,121.46,126,7.00,0.00,-954.00
2024-06-07 00:19:34.100341,0,0,-41,0,0,0,76,78,126,90,68,121.37,126,-4.00,5.00,-1021.00
2024-06-07 00:19:34.201937,0,0,-36,0,0,0,76,78,127,90,68,121.41,126,-8.00,-3.00,-956.00
2024-06-07 00:19:34.254297,0,0,-30,0,0,0,76,78,128,90,68,121.41,126,-41.00,-7.00,-1060.00
2024-06-07 00:19:34.355134,0,0,-24,0,0,0,76,78,128,90,68,121.41,126,66.00,-8.00,-1039.00
2024-06-07 00:19:34.457245,0,0,-21,0,0,0,76,78,128,90,68,121.48,126,-37.00,54.00,-928.00
2024-06-07 00:19:34.558919,0,0,-17,0,0,0,75,78,129,90,68,121.49,126,-17.00,10.00,-1007.00
2024-06-07 00:19:34.661221,0,0,-15,0,0,0,75,78,129,90,68,121.44,127,0.00,27.00,-989.00
2024-06-07 00:19:34.763108,0,0,-13,0,0,0,75,78,128,90,68,121.38,127,6.00,0.00,-1001.00
2024-06-07 00:19:34.966286,0,0,-12,0,0,0,75,78,128,90,68,121.39,127,21.00,7.00,-932.00
2024-06-07 00:19:34.967031,0,0,-11,0,0,0,75,78,128,90,68,121.45,127,-19.00,0.00,-1024.00
2024-06-07 00:19:35.069011,0,0,-10,0,0,0,75,78,128,90,68,121.43,127,-22.00,8.00,-952.00
2024-06-07 00:19:35.171045,0,0,-9,0,0,0,75,78,127,90,68,121.44,127,-35.00,17.00,-1026.00
2024-06-07 00:19:35.273016,0,0,-9,0,0,0,75,78,127,90,68,121.44,127,-7.00,-11.00,-996.00
2024-06-07 00:19:35.375749,0,0,-9,0,0,0,75,78,127,90,68,121.41,127,22.00,8.00,-1037.00
2024-06-07 00:19:35.478159,0,0,-9,0,0,0,75,78,127,90,68,121.41,127,29.00,-23.00,-1107.00
2024-06-07 00:19:35.580596,0,0,-9,0,0,0,75,78,126,90,68,121.39,127,32.00,-16.00,-1044.00
2024-06-07 00:19:35.680843,0,0,-9,0,0,0,75,78,126,90,67,121.40,128,-29.00,19.00,-1043.00
2024-06-07 00:19:35.782984,0,0,-9,0,0,0,75,78,125,90,67,121.39,128,0.00,21.00,-998.00
2024-06-07 00:19:35.885552,0,0,-9,0,0,0,75,78,125,90,67,121.37,128,4.00,-32.00,-1047.00
2024-06-07 00:19:35.986805,0,0,-9,0,0,0,75,78,124,90,67,121.42,128,-9.00,37.00,-960.00
2024-06-07 00:19:36.092669,0,0,-9,0,0,0,75,78,123,90,67,121.40,128,-8.00,-8.00,-1008.00
2024-06-07 00:19:36.191283,0,0,-9,0,0,0,75,78,124,90,67,121.39,128,-38.00,23.00,-894.00
2024-06-07 00:19:36.298030,0,0,-9,0,0,0,75,78,123,90,67,121.44,128,-23.00,-16.00,-1084.00
2024-06-07 00:19:36.395337,0,0,-9,0,0,0,75,78,123,90,67,121.40,128,14.00,17.00,-926.00
2024-06-07 00:19:36.506211,0,0,-9,0,0,0,75,78,123,90,67,121.42,128,-13.00,-4.00,-948.00
2024-06-07 00:19:36.598885,0,0,-9,0,0,0,75,78,123,80,67,121.40,128,-32.00,5.00,-962.00
2024-06-07 00:19:36.706909,0,0,-9,0,0,0,75,78,123,80,67,121.42,129,18.00,25.00,-971.00
2024-06-07 00:19:36.809389,0,0,-9,0,0,0,75,78,122,80,67,121.37,129,-12.00,5.00,-938.00
2024-06-07 00:19:36.904679,0,0,-9,0,0,0,75,78,123,80,67,121.44,129,-11.00,-25.00,-1043.00
2024-06-07 00:19:37.126101,0,0,-9,0,0,0,75,78,122,80,67,121.37,129,23.00,-17.00,-1072.00
2024-06-07 00:19:37.126266,0,0,-9,0,0,0,75,78,122,80,67,121.39,129,-32.00,21.00,-984.00
2024-06-07 00:19:37.210615,0,0,-9,0,0,0,75,78,123,80,67,121.46,129,-22.00,1.00,-950.00
2024-06-07 00:19:37.334200,0,0,-9,0,0,0,75,78,122,80,67,121.43,129,-33.00,23.00,-1001.00
2024-06-07 00:19:37.425912,0,0,-11,0,0,0,75,78,122,80,67,121.35,129,-36.00,15.00,-1012.00
2024-06-07 00:19:37.516591,0,0,-17,0,0,0,75,78,122,80,67,121.45,129,-34.00,34.00,-969.00
2024-06-07 00:19:37.833599,0,0,-23,0,0,0,76,78,123,80,67,121.43,129,4.00,-21.00,-1086.00
2024-06-07 00:19:37.833670,0,0,-29,0,0,0,76,78,122,80,67,121.40,130,27.00,-18.00,-1020.00
2024-06-07 00:19:37.833989,0,0,-35,0,0,0,76,78,123,80,67,121.47,130,-9.00,-42.00,-989.00
2024-06-07 00:19:37.924535,0,0,-41,0,0,0,76,78,123,80,67,121.37,130,69.00,-27.00,-1024.00
2024-06-07 00:19:37.995382,0,0,-47,0,0,0,76,78,123,80,67,121.41,130,-9.00,2.00,-941.00
2024-06-07 00:19:38.078686,0,0,-53,0,0,0,76,78,122,80,67,121.39,130,-10.00,-21.00,-1093.00
2024-06-07 00:19:38.255557,0,0,-59,0,0,0,76,78,123,80,67,121.37,130,71.00,-27.00,-919.00
2024-06-07 00:19:38.398912,0,0,-65,0,0,0,76,78,122,80,67,121.41,130,8.00,-31.00,-1033.00
2024-06-07 00:19:38.399437,0,0,-71,0,0,0,76,78,122,80,67,121.41,130,10.00,-28.00,-1058.00
2024-06-07 00:19:38.561737,0,0,-77,0,0,0,76,78,123,80,67,121.39,130,-54.00,45.00,-1061.00
2024-06-07 00:19:38.705030,0,0,-83,0,0,0,76,78,123,80,67,121.40,130,26.00,-33.00,-986.00
2024-06-07 00:19:38.705220,0,0,-89,0,0,0,76,78,122,80,67,121.37,131,-16.00,-4.00,-1017.00
2024-06-07 00:19:38.868209,0,0,-95,0,0,0,76,78,123,80,67,121.35,131,29.00,-12.00,-970.00
2024-06-07 00:19:39.022388,0,0,-101,0,0,0,76,78,123,80,67,121.37,131,-27.00,-1.00,-973.00
2024-06-07 00:19:39.022766,0,0,-107,0,0,0,76,78,123,80,67,121.44,131,31.00,-25.00,-1073.00
2024-06-07 00:19:39.101043,0,0,-113,0,0,0,76,78,123,80,67,121.42,131,18.00,11.00,-1084.00
2024-06-07 00:19:39.201443,0,0,-119,0,0,0,76,78,123,90,67,121.35,131,6.00,4.00,-1005.00
2024-06-07 00:19:39.369040,0,0,-125,0,0,0,76,78,123,90,67,121.37,131,19.00,-24.00,-1048.00
2024-06-07 00:19:39.405380,0,0,-131,0,0,0,76,78,123,90,67,121.45,131,2.00,-31.00,-1122.00
2024-06-07 00:19:39.573908,0,0,-137,0,0,0,76,78,123,90,67,121.42,131,19.00,-16.00,-991.00
2024-06-07 00:19:39.609423,1,0,-149,0,0,0,76,77,123,90,67,121.42,132,5.00,-19.00,-1085.00
2024-06-07 00:19:39.778672,1,0,-155,0,0,0,76,77,123,90,67,121.44,132,32.00,-22.00,-993.00
2024-06-07 00:19:39.813461,0,0,-162,0,0,0,76,77,124,90,67,121.49,132,9.00,-8.00,-995.00
2024-06-07 00:19:39.915533,1,0,-168,0,0,0,76,77,124,90,67,121.51,132,-17.00,-3.00,-1071.00
2024-06-07 00:19:40.017307,1,0,-174,0,0,0,76,77,124,90,67,121.40,132,8.00,21.00,-928.00
2024-06-07 00:19:40.188256,1,0,179,0,0,0,76,77,124,90,67,121.34,132,-2.00,-35.00,-1071.00
2024-06-07 00:19:40.221849,1,0,173,0,0,0,76,77,124,90,67,121.39,132,48.00,-28.00,-1024.00
2024-06-07 00:19:40.393047,1,0,167,0,0,0,76,77,124,90,67,121.48,132,39.00,8.00,-872.00
2024-06-07 00:19:40.427150,1,0,161,0,0,0,76,77,125,90,67,121.40,132,3.00,1.00,-1039.00
2024-06-07 00:19:40.527305,1,0,155,0,0,0,76,77,125,90,67,121.41,132,61.00,-23.00,-1003.00
2024-06-07 00:19:40.700221,1,0,149,0,0,0,75,77,124,90,67,121.46,133,-44.00,44.00,-981.00
2024-06-07 00:19:40.731256,1,0,143,0,0,0,75,77,125,90,67,121.42,133,8.00,-8.00,-947.00
2024-06-07 00:19:40.905593,0,0,137,0,0,0,75,77,125,90,67,121.47,133,36.00,-8.00,-968.00
2024-06-07 00:19:40.935505,0,0,131,0,0,0,75,77,126,90,67,121.41,133,41.00,24.00,-925.00
2024-06-07 00:19:41.046742,1,0,125,0,0,0,75,77,125,90,67,121.39,133,-1.00,14.00,-1038.00
2024-06-07 00:19:41.139591,0,0,119,0,0,0,75,77,125,90,67,121.41,133,25.00,14.00,-984.00
2024-06-07 00:19:41.316101,0,0,112,0,0,0,75,77,126,90,67,121.44,133,-1.00,21.00,-975.00
2024-06-07 00:19:41.343940,0,0,106,0,0,0,75,77,125,90,67,121.48,133,13.00,7.00,-1053.00
2024-06-07 00:19:41.395755,0,0,100,0,0,0,75,77,125,90,67,121.43,133,-12.00,18.00,-1018.00
2024-06-07 00:19:41.496289,0,0,94,0,0,0,75,77,125,90,67,121.45,133,-25.00,12.00,-999.00
2024-06-07 00:19:41.621819,0,0,88,0,0,0,75,78,125,90,67,121.42,134,14.00,-1.00,-981.00
2024-06-07 00:19:41.700236,0,0,82,0,0,0,75,78,125,90,67,121.42,134,43.00,-6.00,-933.00
2024-06-07 00:19:41.802652,0,0,76,0,0,0,75,78,125,90,67,121.43,134,33.00,14.00,-975.00
2024-06-07 00:19:41.904544,0,0,70,0,0,0,75,78,125,90,67,121.38,134,64.00,0.00,-968.00
2024-06-07 00:19:42.008032,0,0,65,0,0,0,75,78,125,90,67,121.41,134,6.00,58.00,-983.00
2024-06-07 00:19:42.110224,0,0,59,0,0,0,75,78,124,90,67,121.39,134,10.00,24.00,-1014.00
2024-06-07 00:19:42.211522,0,0,53,0,0,0,75,78,124,90,67,121.41,134,-67.00,23.00,-928.00
2024-06-07 00:19:42.313326,0,0,47,0,0,0,75,78,124,90,67,121.37,134,-22.00,2.00,-1076.00
2024-06-07 00:19:42.415633,0,0,41,0,0,0,75,78,124,90,67,121.38,134,0.00,-3.00,-1017.00
2024-06-07 00:19:42.516159,0,0,35,0,0,0,75,78,124,90,67,121.34,134,10.00,-3.00,-1057.00
2024-06-07 00:19:42.618058,0,0,29,0,0,0,75,78,123,90,67,121.40,135,-6.00,6.00,-959.00
2024-06-07 00:19:42.748144,0,0,23,0,0,0,75,78,123,80,66,121.52,135,-12.00,1.00,-979.00
2024-06-07 00:19:42.822040,0,0,17,0,0,0,75,78,122,80,66,121.47,135,47.00,12.00,-892.00
2024-06-07 00:19:42.924013,0,0,11,0,0,0,75,78,123,80,66,121.47,135,-14.00,1.00,-1147.00
2024-06-07 00:19:43.055346,0,0,7,0,0,0,75,78,124,80,66,121.46,135,17.00,-14.00,-1035.00
2024-06-07 00:19:43.129089,0,0,3,0,0,0,75,78,123,80,66,121.49,135,5.00,6.00,-981.00
2024-06-07 00:19:43.260816,0,0,0,0,0,0,75,78,124,80,66,121.45,135,-25.00,-6.00,-1119.00
2024-06-07 00:19:43.332189,0,0,-1,0,0,0,75,78,124,80,66,121.51,135,29.00,-17.00,-1011.00
2024-06-07 00:19:43.464914,0,0,-3,0,0,0,75,78,124,80,66,121.47,135,21.00,-8.00,-1002.00
2024-06-07 00:19:43.536688,0,0,-4,0,0,0,75,78,124,90,66,121.45,135,-24.00,5.00,-1083.00
2024-06-07 00:19:43.669637,0,0,-5,0,0,0,76,78,125,90,66,121.53,136,-36.00,-13.00,-1024.00
2024-06-07 00:19:43.740050,0,0,-6,0,0,0,76,78,126,90,66,121.43,136,18.00,-33.00,-1042.00
2024-06-07 00:19:43.874701,0,0,-7,0,0,0,76,78,126,90,66,121.39,136,5.00,-6.00,-971.00
2024-06-07 00:19:43.947155,0,0,-7,0,0,0,76,78,127,90,66,121.39,136,-9.00,-6.00,-998.00
2024-06-07 00:19:44.047115,0,0,-7,0,0,0,76,78,126,90,66,121.38,136,-12.00,3.00,-991.00
2024-06-07 00:19:44.148262,0,0,-7,0,0,0,76,78,127,90,66,121.45,136,-64.00,25.00,-953.00
2024-06-07 00:19:44.256306,0,0,-7,0,0,0,76,78,127,90,66,121.42,136,15.00,-26.00,-1005.00
2024-06-07 00:19:44.352072,0,0,-7,0,0,0,76,78,127,90,66,121.41,136,-34.00,19.00,-927.00
2024-06-07 00:19:44.489114,0,0,-7,0,0,0,76,78,128,90,66,121.42,136,9.00,0.00,-977.00
2024-06-07 00:19:44.556008,0,0,-7,0,0,0,76,78,127,90,66,121.38,136,19.00,-15.00,-921.00
2024-06-07 00:19:44.694693,0,0,-7,0,0,0,75,77,128,90,66,121.47,137,49.00,-19.00,-982.00
2024-06-07 00:19:44.761778,0,0,-7,0,0,0,75,77,128,90,66,121.45,137,-23.00,19.00,-1008.00
2024-06-07 00:19:44.863930,0,0,-7,0,0,0,75,77,128,90,66,121.42,137,-4.00,-20.00,-1021.00
2024-06-07 00:19:44.963937,0,0,-7,0,0,0,75,77,127,90,66,121.43,137,-37.00,12.00,-852.00
2024-06-07 00:19:45.103536,0,0,-7,0,0,0,75,77,126,90,66,121.41,137,13.00,-17.00,-1024.00
2024-06-07 00:19:45.168006,0,0,-7,0,0,0,75,77,126,90,66,121.47,137,-30.00,8.00,-1010.00
2024-06-07 00:19:45.309054,0,0,-7,0,0,0,75,77,126,90,66,121.49,137,7.00,-7.00,-920.00
2024-06-07 00:19:45.320878,0,0,-7,0,0,0,75,77,126,90,66,121.43,137,-7.00,-1.00,-1003.00
2024-06-07 00:19:45.513130,0,0,-7,0,0,0,75,77,125,90,66,121.40,137,3.00,-27.00,-1044.00
2024-06-07 00:19:45.524848,0,0,-7,0,0,0,75,77,124,90,66,121.44,137,-24.00,10.00,-1009.00
2024-06-07 00:19:45.717763,0,0,-7,0,0,0,75,77,125,90,66,121.43,138,9.00,3.00,-1008.00
2024-06-07 00:19:45.779894,0,0,-7,0,0,0,75,77,125,90,66,121.37,138,17.00,-34.00,-985.00
2024-06-07 00:19:45.830911,0,0,-7,0,0,0,75,77,124,90,66,121.38,138,-15.00,-2.00,-971.00
2024-06-07 00:19:45.932859,0,0,-7,0,0,0,75,77,124,90,66,121.40,138,41.00,-20.00,-971.00
2024-06-07 00:19:46.128131,0,0,-7,0,0,-1,75,77,124,90,66,121.60,138,-5.00,-14.00,-1414.00
2024-06-07 00:19:46.136822,0,0,-8,0,0,-6,75,77,130,90,66,121.46,138,0.00,-3.00,-1671.00
2024-06-07 00:19:46.332974,0,-31,-10,0,0,-11,75,77,185,100,66,121.74,138,27.00,327.00,-1147.00
2024-06-07 00:19:46.340801,-3,-145,-4,-1,-8,-6,75,77,186,110,66,121.84,138,-44.00,582.00,-1150.00
2024-06-07 00:19:46.536784,7,90,-7,-1,-8,8,75,77,6553,110,66,121.92,138,-16.00,410.00,-958.00
2024-06-07 00:19:46.544710,0,0,-16,-1,-2,12,75,77,134,100,66,121.60,138,31.00,-125.00,-1570.00
2024-06-07 00:19:46.742535,0,-2,-19,-1,-4,9,75,78,121,90,66,121.34,139,-3.00,-13.00,-1426.00
2024-06-07 00:19:46.748741,0,4,-23,-1,-4,5,75,78,115,80,66,121.37,139,16.00,-57.00,-1299.00
2024-06-07 00:19:46.946329,0,4,-23,-1,-3,2,75,78,111,70,66,121.35,139,92.00,-9.00,-1257.00
2024-06-07 00:19:46.952736,0,3,-14,0,-2,0,75,78,110,70,66,121.31,139,0.00,-8.00,-1091.00
2024-06-07 00:19:47.054794,0,1,-7,0,-1,0,75,78,110,70,66,121.36,139,-19.00,0.00,-1173.00
2024-06-07 00:19:47.254199,0,1,-6,0,-1,-1,75,78,111,70,66,121.41,139,10.00,0.00,-1040.00
2024-06-07 00:19:47.258689,0,1,-6,0,-1,-1,75,78,113,70,66,121.40,139,13.00,-9.00,-1044.00
2024-06-07 00:19:47.459642,0,0,-6,0,-1,-1,75,78,115,70,66,121.39,139,35.00,-3.00,-1031.00
2024-06-07 00:19:47.462712,0,1,-6,0,-1,-1,75,78,116,80,66,121.40,139,5.00,-13.00,-939.00
2024-06-07 00:19:47.582628,0,3,-6,0,0,-1,75,78,118,80,66,121.41,139,-31.00,28.00,-915.00
2024-06-07 00:19:47.667573,0,2,-6,0,0,-1,76,78,119,80,66,121.42,140,-3.00,-18.00,-1023.00
2024-06-07 00:19:47.770481,0,1,-6,0,0,0,76,78,121,80,66,121.49,140,19.00,7.00,-909.00
2024-06-07 00:19:47.870682,0,1,-6,0,0,0,76,78,121,80,66,121.45,140,-17.00,16.00,-892.00
2024-06-07 00:19:47.976907,0,1,-6,0,0,0,76,78,121,80,66,121.45,140,-16.00,3.00,-937.00
2024-06-07 00:19:48.074753,0,1,-6,0,0,0,76,78,122,80,66,121.48,140,-23.00,-5.00,-1016.00
2024-06-07 00:19:48.177005,0,1,-6,0,0,0,76,78,122,80,66,121.52,140,29.00,-19.00,-1037.00
2024-06-07 00:19:48.379920,0,1,-6,0,0,0,76,78,122,80,66,121.50,140,4.00,12.00,-883.00
2024-06-07 00:19:48.380549,0,2,-6,0,0,0,76,78,123,80,66,121.47,140,-6.00,-15.00,-960.00
2024-06-07 00:19:48.482610,0,2,-6,0,0,0,76,78,123,80,66,121.45,140,0.00,0.00,-1004.00
2024-06-07 00:19:48.584899,0,2,-6,0,0,0,76,78,123,80,66,121.43,140,47.00,-18.00,-937.00
2024-06-07 00:19:48.687485,0,2,-6,0,0,0,75,78,123,80,65,121.42,141,18.00,-22.00,-999.00
2024-06-07 00:19:48.790223,0,1,-6,0,0,0,75,78,123,80,65,121.37,141,18.00,-11.00,-971.00
2024-06-07 00:19:48.891884,0,1,-6,0,0,0,75,78,123,80,65,121.42,141,30.00,-46.00,-984.00
2024-06-07 00:19:48.994935,0,1,-6,0,0,0,75,78,124,80,65,121.47,141,-32.00,18.00,-963.00
2024-06-07 00:19:49.096446,0,1,-6,0,0,0,75,78,123,80,65,121.47,141,44.00,4.00,-1009.00
2024-06-07 00:19:49.196610,0,1,-6,0,0,0,75,78,124,80,65,121.45,141,-25.00,-5.00,-1027.00
2024-06-07 00:19:49.302733,0,1,-7,0,0,0,75,78,125,80,65,121.45,141,23.00,-21.00,-965.00
2024-06-07 00:19:49.401405,0,1,-7,0,0,0,75,78,124,80,65,121.48,141,18.00,-25.00,-1015.00
2024-06-07 00:19:49.452255,0,1,-7,0,0,0,75,78,125,80,65,121.49,141,-12.00,-33.00,-1024.00
2024-06-07 00:19:49.609386,0,1,-7,0,0,0,75,78,124,80,65,121.49,141,23.00,-2.00,-927.00
2024-06-07 00:19:49.655897,0,1,-7,0,0,0,75,78,125,80,65,121.50,142,8.00,-10.00,-1012.00
2024-06-07 00:19:49.813536,0,1,-7,0,0,0,75,78,125,80,65,121.55,142,-5.00,-1.00,-1024.00
2024-06-07 00:19:49.860259,0,1,-7,0,0,0,75,78,124,80,65,121.45,142,-10.00,-10.00,-1081.00
2024-06-07 00:19:49.962145,0,1,-7,0,0,0,75,78,124,80,65,121.48,142,-40.00,7.00,-973.00
2024-06-07 00:19:50.064251,0,1,-7,0,0,0,75,78,124,80,65,121.40,142,-13.00,7.00,-1022.00
2024-06-07 00:19:50.227967,0,1,-7,0,0,0,75,78,123,80,65,121.46,142,2.00,-9.00,-966.00
2024-06-07 00:19:50.267919,0,1,-7,0,0,0,75,78,124,80,65,121.46,142,1.00,3.00,-935.00
2024-06-07 00:19:50.429109,0,1,-7,0,0,0,75,78,123,80,65,121.40,142,-31.00,16.00,-1044.00
2024-06-07 00:19:50.471834,0,1,-7,0,0,0,75,78,124,80,65,121.34,142,-29.00,1.00,-1012.00
2024-06-07 00:19:50.632938,0,1,-7,0,0,0,75,78,123,80,65,121.37,142,18.00,-26.00,-1008.00
2024-06-07 00:19:50.676095,0,1,-7,0,0,0,75,77,123,80,64,121.35,143,40.00,-26.00,-1019.00
2024-06-07 00:19:50.838020,0,1,-7,0,0,0,75,77,123,80,64,121.38,143,42.00,-31.00,-990.00
2024-06-07 00:19:50.879588,0,1,-7,0,0,0,75,77,123,80,64,121.43,143,-21.00,-26.00,-1010.00
2024-06-07 00:19:50.981478,0,1,-7,0,0,0,75,77,123,80,64,121.47,143,35.00,-4.00,-941.00
2024-06-07 00:19:51.144823,0,1,-7,0,0,0,75,77,124,80,64,121.44,143,12.00,-50.00,-1056.00
2024-06-07 00:19:51.185486,0,1,-7,0,0,0,75,77,124,80,64,121.42,143,13.00,-14.00,-968.00
2024-06-07 00:19:51.350099,0,1,-7,0,0,0,75,77,124,80,64,121.45,143,14.00,-8.00,-1001.00
2024-06-07 00:19:51.389416,0,1,-7,0,0,0,75,77,124,80,64,121.47,143,-37.00,-5.00,-891.00
2024-06-07 00:19:51.554378,0,1,-7,0,0,0,75,77,125,80,64,121.41,143,-15.00,-15.00,-905.00
2024-06-07 00:19:51.596597,0,1,-7,0,0,0,75,77,125,80,64,121.36,143,-15.00,-12.00,-943.00
2024-06-07 00:19:51.695573,0,1,-7,0,0,0,75,78,126,80,64,121.35,144,7.00,-15.00,-1005.00
2024-06-07 00:19:51.861474,0,1,-7,0,0,0,75,78,126,80,64,121.43,144,30.00,-26.00,-1016.00
2024-06-07 00:19:51.899540,0,1,-7,0,0,0,75,78,127,80,64,121.43,144,-16.00,15.00,-958.00
2024-06-07 00:19:52.114861,0,1,-7,0,0,0,75,78,127,80,64,121.48,144,7.00,-8.00,-897.00
2024-06-07 00:19:52.115094,0,1,-7,0,0,0,75,78,127,80,64,121.44,144,3.00,12.00,-843.00
2024-06-07 00:19:52.257874,0,1,-7,0,0,0,75,78,127,80,64,121.47,144,16.00,-28.00,-1082.00
2024-06-07 00:19:52.345990,0,1,-7,0,0,0,75,78,127,80,64,121.51,144,72.00,-24.00,-965.00
2024-06-07 00:19:52.427091,0,0,-7,0,0,0,75,78,126,80,64,121.48,144,12.00,-33.00,-1000.00
2024-06-07 00:19:52.517931,0,0,-7,0,0,0,75,78,126,80,64,121.45,144,-30.00,14.00,-939.00
2024-06-07 00:19:52.613192,0,0,-7,0,0,0,75,78,126,80,64,121.55,144,15.00,13.00,-1495.00
2024-06-07 00:19:52.782896,0,1,-7,0,0,-3,76,78,132,80,64,121.63,145,15.00,47.00,-1667.00
2024-06-07 00:19:52.842554,0,5,-7,0,0,-10,76,78,186,90,64,121.77,145,-16.00,-3.00,-1752.00
2024-06-07 00:19:52.998611,0,77,-7,0,5,-13,76,78,188,100,64,121.77,145,-47.00,813.00,-1101.00
2024-06-07 00:19:53.021806,1,-155,-7,1,11,0,76,78,499,110,64,121.83,145,9.00,812.00,-844.00
2024-06-07 00:19:53.125788,0,-38,-6,1,5,11,76,78,138,110,64,121.76,145,-23.00,341.00,-868.00
2024-06-07 00:19:53.306690,1,9,-10,1,4,11,76,78,126,90,64,121.69,145,-22.00,12.00,-1421.00
2024-06-07 00:19:53.306746,0,0,-21,1,5,8,76,78,119,80,64,121.65,145,-8.00,-77.00,-1438.00
2024-06-07 00:19:53.449139,-2,-5,-32,1,4,4,76,78,115,80,64,121.44,145,21.00,-54.00,-1284.00
2024-06-07 00:19:53.480199,-2,-3,-37,0,3,1,76,78,114,70,64,121.33,145,47.00,-97.00,-1135.00
2024-06-07 00:19:53.616425,0,-1,-35,0,2,0,76,78,115,70,64,121.40,145,-11.00,-48.00,-1105.00
2024-06-07 00:19:53.759705,0,-1,-25,0,2,-1,76,78,116,70,64,121.39,146,31.00,13.00,-1036.00
2024-06-07 00:19:53.786006,0,-1,-13,1,2,-1,76,78,118,70,64,121.38,146,11.00,23.00,-1016.00
2024-06-07 00:19:53.923344,1,-1,-7,1,1,-2,76,78,122,80,64,121.39,146,-41.00,-12.00,-1028.00
2024-06-07 00:19:54.066751,1,-1,-6,1,1,-2,76,78,123,80,64,121.45,146,7.00,-4.00,-968.00
2024-06-07 00:19:54.092131,1,-2,-6,0,1,-1,76,78,125,80,64,121.35,146,-15.00,19.00,-1023.00
2024-06-07 00:19:54.227726,1,-4,-6,0,1,-1,76,78,126,80,64,121.40,146,-43.00,8.00,-945.00
2024-06-07 00:19:54.296172,0,-3,-6,0,0,0,76,78,127,80,64,121.44,146,40.00,-22.00,-968.00
2024-06-07 00:19:54.399319,0,-1,-6,0,0,0,76,78,127,80,64,121.43,146,18.00,-36.00,-968.00
2024-06-07 00:19:54.501135,0,0,-6,0,0,0,76,78,127,80,64,121.40,146,17.00,-25.00,-960.00
2024-06-07 00:19:54.626008,0,0,-6,0,0,0,76,78,126,80,64,121.49,146,21.00,-6.00,-971.00
2024-06-07 00:19:54.704129,0,0,-6,0,0,0,75,78,126,80,63,121.47,147,-2.00,-6.00,-976.00
2024-06-07 00:19:54.805952,0,0,-6,0,0,0,75,78,126,80,63,121.45,147,-15.00,-4.00,-1096.00
2024-06-07 00:19:54.908122,-1,-1,-6,0,0,0,75,78,126,80,63,121.42,147,-19.00,-1.00,-955.00
2024-06-07 00:19:55.010047,-1,-1,-6,0,0,0,75,78,126,80,63,121.53,147,-59.00,2.00,-1083.00
2024-06-07 00:19:55.112093,-1,-1,-6,0,0,0,75,78,126,80,63,121.48,147,10.00,4.00,-1022.00
2024-06-07 00:19:55.240469,-1,-1,-6,0,0,0,75,78,126,80,63,121.41,147,-6.00,-24.00,-1042.00
2024-06-07 00:19:55.316069,0,0,-7,0,0,0,75,78,126,80,63,121.49,147,-22.00,15.00,-983.00
2024-06-07 00:19:55.445270,0,0,-7,0,0,0,75,78,125,80,63,121.45,147,-7.00,17.00,-1014.00
2024-06-07 00:19:55.520046,0,0,-6,0,0,0,75,78,125,80,63,121.44,147,0.00,3.00,-1011.00
2024-06-07 00:19:55.651057,0,0,-7,0,0,0,75,78,124,80,63,121.45,148,13.00,39.00,-1003.00
2024-06-07 00:19:55.724025,0,0,-7,0,0,0,75,78,125,80,63,121.44,148,35.00,-10.00,-1074.00
2024-06-07 00:19:55.854714,0,0,-7,0,0,0,75,78,124,80,63,121.39,148,-66.00,31.00,-1038.00
2024-06-07 00:19:55.927930,0,0,-7,0,0,0,75,78,124,80,63,121.40,148,39.00,-18.00,-1049.00
2024-06-07 00:19:56.030133,0,0,-7,0,0,0,75,78,124,80,63,121.41,148,-5.00,5.00,-897.00
2024-06-07 00:19:56.162095,0,0,-7,0,0,0,75,78,123,80,63,121.43,148,-29.00,-1.00,-980.00
2024-06-07 00:19:56.234171,0,0,-7,0,0,0,75,78,123,80,63,121.43,148,-53.00,22.00,-1067.00
2024-06-07 00:19:56.366813,0,0,-7,0,0,0,75,78,123,80,63,121.47,148,-15.00,-17.00,-1060.00
2024-06-07 00:19:56.438080,0,0,-7,0,0,0,75,78,123,80,63,121.45,148,-8.00,20.00,-956.00
2024-06-07 00:19:56.571675,0,0,-7,0,0,0,75,78,124,80,63,121.45,148,-24.00,-29.00,-1053.00
2024-06-07 00:19:56.590880,0,0,-7,0,0,0,75,78,124,80,63,121.53,149,-40.00,33.00,-1005.00
2024-06-07 00:19:56.776431,0,0,-7,0,0,0,76,78,125,80,62,121.47,149,53.00,-15.00,-995.00
2024-06-07 00:19:56.795002,0,0,-7,0,0,0,76,78,126,80,62,121.46,149,27.00,-15.00,-1021.00
