TS,pitch,roll,yaw,vgx,vgy,vgz,templ,temph,tof,h,bat,baro,time,agx,agy,agz
2024-06-07 00:20:36.115765,0,0,-5,0,0,0,80,82,10,0,61,119.99,167,2.00,0.00,-998.00
2024-06-07 00:20:36.301123,0,0,-5,0,0,0,80,82,10,0,61,120.00,167,0.00,0.00,-999.00
2024-06-07 00:20:36.319565,0,0,-5,0,0,0,80,82,10,0,61,119.92,167,1.00,-1.00,-998.00
2024-06-07 00:20:36.505951,0,0,-5,0,0,0,80,82,10,0,61,119.98,167,1.00,0.00,-999.00
2024-06-07 00:20:36.523196,0,0,-5,0,0,0,80,82,10,0,61,120.03,167,0.00,0.00,-1002.00
2024-06-07 00:20:36.711267,0,0,-5,0,0,0,80,82,10,0,61,120.03,167,0.00,0.00,-1001.00
2024-06-07 00:20:36.727638,0,0,-5,0,0,0,80,82,10,0,61,119.96,167,1.00,0.00,-1002.00
2024-06-07 00:20:36.915560,0,0,-5,0,0,0,80,82,10,0,61,119.98,167,1.00,0.00,-1002.00
2024-06-07 00:20:36.931423,0,0,-5,0,0,0,80,82,10,0,61,119.98,167,1.00,-2.00,-999.00
2024-06-07 00:20:37.120496,0,0,-5,0,0,0,80,82,10,0,61,120.02,167,1.00,0.00,-998.00
2024-06-07 00:20:37.236425,0,0,-5,0,0,0,80,82,10,0,61,119.99,167,2.00,0.00,-1001.00
2024-06-07 00:20:37.238222,0,0,-5,0,0,0,80,82,10,0,61,120.01,167,2.00,0.00,-999.00
2024-06-07 00:20:37.378735,0,0,-5,0,0,0,80,82,10,0,61,120.01,167,0.00,0.00,-1001.00
2024-06-07 00:20:37.486354,0,0,-5,0,0,0,80,82,10,0,61,119.98,167,0.00,0.00,-1001.00
2024-06-07 00:20:37.584475,0,0,-5,0,0,0,80,82,10,0,61,120.00,167,2.00,0.00,-999.00
2024-06-07 00:20:37.670342,0,0,-5,0,0,0,80,82,10,0,61,120.01,167,0.00,-1.00,-1000.00
2024-06-07 00:20:37.776244,0,0,-5,0,0,0,80,82,10,0,61,119.95,167,1.00,-1.00,-999.00
2024-06-07 00:20:37.856783,0,0,-5,0,0,0,80,82,10,0,61,120.00,167,2.00,-2.00,-1000.00
2024-06-07 00:20:37.979664,0,0,-5,0,0,0,80,82,10,0,61,119.98,167,1.00,0.00,-999.00
2024-06-07 00:20:38.155290,0,0,-5,0,0,0,80,82,10,0,61,119.98,167,0.00,0.00,-1001.00
2024-06-07 00:20:38.157245,0,0,-5,0,0,0,80,82,10,0,61,119.98,167,1.00,0.00,-999.00
2024-06-07 00:20:38.349282,0,0,-5,0,0,0,80,82,10,0,61,119.98,167,1.00,0.00,-1000.00
2024-06-07 00:20:38.462307,0,0,-5,0,0,0,80,82,10,0,61,119.98,167,1.00,0.00,-1000.00
2024-06-07 00:20:38.463206,0,0,-5,0,0,0,80,82,10,0,61,120.02,167,2.00,0.00,-998.00
2024-06-07 00:20:38.605566,0,0,-5,0,0,0,80,82,10,0,61,119.97,167,0.00,-1.00,-1000.00
2024-06-07 00:20:38.616068,0,0,-5,0,0,0,80,82,10,0,61,119.94,167,0.00,2.00,-997.00
2024-06-07 00:20:38.769522,0,0,-5,0,0,0,80,82,10,0,61,119.95,167,0.00,-1.00,-1000.00
2024-06-07 00:20:38.912918,0,0,-5,0,0,0,80,82,10,0,61,119.95,167,4.00,-8.00,-1000.00
2024-06-07 00:20:38.922031,0,0,-5,0,0,0,80,82,10,0,61,119.95,168,-9.00,-16.00,-997.00
2024-06-07 00:20:39.076431,0,0,-6,0,0,0,80,82,10,0,61,119.95,168,0.00,30.00,-997.00
2024-06-07 00:20:39.230789,0,0,-7,0,0,0,80,82,10,0,61,119.95,168,39.00,-19.00,-974.00
2024-06-07 00:20:39.230862,0,0,-8,0,0,0,80,82,10,0,61,119.95,168,4.00,-2.00,-1053.00
2024-06-07 00:20:39.347443,0,0,-9,0,0,-1,80,82,10,0,61,119.95,168,-6.00,29.00,-1161.00
2024-06-07 00:20:39.432115,0,0,-9,0,0,-3,80,82,10,0,61,119.95,168,37.00,-20.00,-1326.00
2024-06-07 00:20:39.577679,0,0,-9,0,0,-6,80,82,13,0,61,119.95,168,-17.00,-7.00,-1179.00
2024-06-07 00:20:39.636130,0,0,-9,0,0,-7,80,82,20,10,61,120.26,168,-17.00,10.00,-1072.00
2024-06-07 00:20:39.782764,0,0,-9,0,0,-7,80,82,28,10,61,120.38,168,0.00,-23.00,-1087.00
2024-06-07 00:20:39.840515,0,0,-9,0,0,-7,80,82,32,20,61,120.44,168,20.00,-3.00,-998.00
2024-06-07 00:20:39.989913,0,0,-9,0,0,-7,80,83,40,30,61,120.57,169,-14.00,34.00,-894.00
2024-06-07 00:20:40.044771,0,0,-9,0,0,-6,80,83,47,30,61,120.60,169,13.00,-18.00,-882.00
2024-06-07 00:20:40.147166,0,0,-9,0,0,-5,80,83,55,40,61,120.64,169,37.00,-24.00,-909.00
2024-06-07 00:20:40.294302,0,0,-9,0,0,-4,80,83,60,40,61,120.73,169,20.00,-28.00,-940.00
2024-06-07 00:20:40.349977,0,0,-9,0,0,-3,80,83,64,50,61,120.73,169,0.00,9.00,-1023.00
2024-06-07 00:20:40.500127,0,0,-9,0,0,-2,80,83,68,50,61,120.79,169,-11.00,-1.00,-926.00
2024-06-07 00:20:40.553839,0,0,-9,0,0,-2,80,83,71,50,61,120.81,169,-57.00,9.00,-967.00
2024-06-07 00:20:40.706592,0,0,-9,0,0,-1,80,83,73,50,61,120.85,169,-31.00,35.00,-927.00
2024-06-07 00:20:40.758184,0,0,-8,0,0,0,80,83,74,50,61,120.89,169,5.00,-45.00,-1021.00
2024-06-07 00:20:40.908685,0,0,-9,0,0,0,80,83,76,50,61,120.92,169,-24.00,-1.00,-908.00
2024-06-07 00:20:40.961959,0,0,-9,0,0,0,80,83,77,60,61,120.86,170,11.00,-10.00,-986.00
2024-06-07 00:20:41.113474,0,1,-9,0,0,0,80,83,78,60,61,120.88,170,18.00,-2.00,-890.00
2024-06-07 00:20:41.165857,0,1,-9,0,0,0,80,83,79,60,61,120.86,170,-24.00,12.00,-987.00
2024-06-07 00:20:41.318294,0,0,-8,0,0,0,80,83,80,60,61,120.90,170,-12.00,28.00,-942.00
2024-06-07 00:20:41.370043,0,0,-8,0,0,0,80,83,80,60,61,120.88,170,-4.00,-29.00,-1048.00
2024-06-07 00:20:41.523164,0,0,-8,0,0,0,80,83,82,60,61,120.90,170,-1.00,-10.00,-1014.00
2024-06-07 00:20:41.573878,0,0,-8,0,0,0,80,83,82,60,61,120.86,170,29.00,-33.00,-1021.00
2024-06-07 00:20:41.729413,0,0,-8,0,0,0,80,83,83,60,61,120.86,170,31.00,11.00,-978.00
2024-06-07 00:20:41.777917,0,0,-8,0,0,0,80,83,83,60,61,120.94,170,-2.00,6.00,-1015.00
2024-06-07 00:20:41.932738,0,0,-8,0,0,0,80,83,83,60,61,120.93,170,-9.00,16.00,-949.00
2024-06-07 00:20:41.981784,0,0,-8,0,0,0,81,82,83,60,61,120.90,171,12.00,-1.00,-1030.00
2024-06-07 00:20:42.141568,0,0,-8,0,0,0,81,82,83,60,61,120.94,171,-45.00,41.00,-1040.00
2024-06-07 00:20:42.186216,0,1,-8,0,0,0,81,82,83,60,61,120.88,171,-1.00,24.00,-960.00
2024-06-07 00:20:42.236705,0,1,-8,0,0,0,81,82,83,60,61,120.94,171,35.00,-39.00,-934.00
2024-06-07 00:20:42.342319,0,1,-8,0,0,0,81,82,82,60,61,120.93,171,-7.00,-16.00,-1001.00
2024-06-07 00:20:42.440722,0,1,-8,0,0,0,81,82,81,60,61,120.93,171,-12.00,-14.00,-960.00
2024-06-07 00:20:42.547187,0,1,-8,0,0,0,81,82,81,60,61,120.93,171,17.00,-24.00,-977.00
2024-06-07 00:20:42.644758,0,1,-8,0,0,0,81,82,80,60,61,120.91,171,-4.00,-22.00,-978.00
2024-06-07 00:20:42.753115,0,1,-8,0,0,0,81,82,79,60,61,120.96,171,-2.00,1.00,-992.00
2024-06-07 00:20:42.848706,0,1,-8,0,0,0,81,82,79,60,61,120.91,171,60.00,-83.00,-1093.00
2024-06-07 00:20:42.957816,0,1,-8,0,0,0,80,83,79,60,61,120.84,172,28.00,-7.00,-887.00
2024-06-07 00:20:43.053049,0,1,-8,0,0,0,80,83,78,60,61,120.93,172,-15.00,7.00,-1006.00
2024-06-07 00:20:43.154940,0,1,-8,0,0,0,80,83,78,60,61,120.90,172,-35.00,2.00,-1059.00
2024-06-07 00:20:43.265462,0,1,-8,0,0,0,80,83,78,60,61,120.90,172,42.00,-28.00,-963.00
2024-06-07 00:20:43.358587,0,1,-8,0,0,0,80,83,78,60,61,120.87,172,2.00,11.00,-999.00
2024-06-07 00:20:43.468596,0,0,-8,0,0,0,80,83,78,60,61,120.84,172,-24.00,-24.00,-1045.00
2024-06-07 00:20:43.562613,0,0,-8,0,0,0,80,83,77,60,61,120.84,172,3.00,9.00,-1028.00
2024-06-07 00:20:43.664591,0,0,-8,0,0,0,80,83,78,60,61,120.85,172,8.00,13.00,-955.00
2024-06-07 00:20:43.777987,0,1,-8,0,0,0,80,83,77,60,61,120.86,172,-1.00,-4.00,-1008.00
2024-06-07 00:20:43.868897,0,1,-8,0,0,0,80,83,77,60,61,120.85,172,-4.00,-19.00,-1052.00
2024-06-07 00:20:43.983387,0,1,-8,0,0,0,80,82,77,60,61,120.89,173,40.00,-28.00,-1018.00
2024-06-07 00:20:44.076169,0,0,-8,0,0,0,80,82,77,60,61,120.88,173,-13.00,-3.00,-956.00
2024-06-07 00:20:44.175769,0,0,-8,0,0,0,80,82,77,60,61,120.86,173,-8.00,22.00,-971.00
2024-06-07 00:20:44.288002,0,0,-8,0,0,0,80,82,77,60,61,120.88,173,0.00,4.00,-1082.00
2024-06-07 00:20:44.379731,0,1,-8,0,0,0,80,82,78,60,61,120.86,173,-2.00,12.00,-914.00
2024-06-07 00:20:44.492774,0,1,-8,0,0,0,80,82,77,60,61,120.85,173,42.00,-16.00,-1027.00
2024-06-07 00:20:44.583700,0,1,-8,0,0,0,80,82,77,60,61,120.86,173,2.00,21.00,-972.00
2024-06-07 00:20:44.698495,0,0,-8,0,0,0,80,82,78,60,61,120.85,173,2.00,20.00,-1026.00
2024-06-07 00:20:44.787786,0,0,-8,0,0,0,80,82,78,60,61,120.77,173,5.00,-16.00,-968.00
2024-06-07 00:20:44.905607,0,0,-8,0,0,0,80,82,78,60,61,120.84,173,-13.00,15.00,-1052.00
2024-06-07 00:20:44.991719,0,0,-8,0,0,0,80,82,78,60,61,120.82,174,28.00,-29.00,-1008.00
2024-06-07 00:20:45.107367,0,0,-8,0,0,0,80,82,78,60,61,120.79,174,4.00,-17.00,-1025.00
2024-06-07 00:20:45.195807,0,0,-8,0,0,0,80,82,79,60,61,120.87,174,23.00,28.00,-955.00
2024-06-07 00:20:45.311945,0,1,-8,0,0,0,80,82,79,60,61,120.82,174,14.00,5.00,-1082.00
2024-06-07 00:20:45.399821,0,0,-8,0,0,0,80,82,80,60,61,120.84,174,36.00,-20.00,-1013.00
2024-06-07 00:20:45.516773,0,0,-8,0,0,0,80,82,80,60,61,120.82,174,-35.00,-7.00,-1085.00
2024-06-07 00:20:45.552710,0,0,-8,0,0,0,80,82,81,60,61,120.84,174,15.00,-36.00,-1018.00
2024-06-07 00:20:45.721859,0,1,-8,0,0,0,80,82,81,60,61,120.90,174,-52.00,-7.00,-1041.00
2024-06-07 00:20:45.756874,0,1,-8,0,0,0,80,82,82,60,61,120.87,174,-19.00,5.00,-974.00
2024-06-07 00:20:45.926273,0,1,-8,0,0,0,80,82,82,60,61,120.94,174,56.00,1.00,-933.00
2024-06-07 00:20:45.960861,0,0,-8,0,0,0,80,81,83,60,61,120.88,175,-18.00,-16.00,-997.00
2024-06-07 00:20:46.127321,0,0,-8,0,0,0,80,81,83,60,61,120.93,175,-36.00,-17.00,-1025.00
2024-06-07 00:20:46.164448,0,0,-8,0,0,0,80,81,83,60,61,120.97,175,14.00,-21.00,-990.00
2024-06-07 00:20:46.335718,0,1,-8,0,0,0,80,81,83,60,61,120.95,175,-4.00,30.00,-990.00
2024-06-07 00:20:46.368488,0,1,-8,0,0,0,80,81,85,60,61,120.96,175,25.00,-9.00,-1058.00
2024-06-07 00:20:46.540471,0,0,-8,0,0,-1,80,81,86,60,61,120.93,175,-11.00,22.00,-1029.00
2024-06-07 00:20:46.572315,0,0,-8,0,0,-2,80,81,89,70,61,121.01,175,-8.00,-20.00,-1129.00
2024-06-07 00:20:46.745295,0,0,-8,0,0,-3,80,81,93,70,61,121.10,175,26.00,-40.00,-1115.00
2024-06-07 00:20:46.776338,0,0,-8,0,0,-4,80,81,97,70,61,121.09,175,0.00,-26.00,-1106.00
2024-06-07 00:20:46.950041,0,0,-8,0,0,-4,80,81,102,80,61,121.17,175,-9.00,-10.00,-1058.00
2024-06-07 00:20:46.980293,0,0,-8,0,0,-5,80,82,108,80,61,121.17,176,7.00,-12.00,-1053.00
2024-06-07 00:20:47.154994,0,0,-8,0,0,-5,80,82,114,90,61,121.22,176,62.00,-41.00,-1064.00
2024-06-07 00:20:47.184295,0,0,-8,0,0,-5,80,82,120,90,61,121.22,176,-16.00,15.00,-1021.00
2024-06-07 00:20:47.359621,0,0,-8,0,0,-5,80,82,126,100,61,121.26,176,32.00,-30.00,-967.00
2024-06-07 00:20:47.388207,0,0,-8,0,0,-5,80,82,132,110,61,121.35,176,9.00,13.00,-965.00
2024-06-07 00:20:47.564453,0,0,-8,0,0,-5,80,82,138,110,61,121.36,176,0.00,-17.00,-937.00
2024-06-07 00:20:47.592290,0,1,-8,0,0,-5,80,82,143,120,61,121.50,176,55.00,14.00,-911.00
2024-06-07 00:20:47.769248,0,1,-8,0,0,-4,80,82,148,120,61,121.48,176,-3.00,-10.00,-1008.00
2024-06-07 00:20:47.796309,0,0,-8,0,0,-4,80,82,154,130,61,121.61,176,3.00,-5.00,-1056.00
2024-06-07 00:20:47.973978,0,0,-8,0,0,-4,80,82,158,130,61,121.63,176,39.00,4.00,-984.00
2024-06-07 00:20:48.000905,0,0,-8,0,0,-4,80,82,162,140,61,121.62,177,-8.00,0.00,-986.00
2024-06-07 00:20:48.180227,0,0,-8,0,0,-4,80,82,166,140,61,121.75,177,-33.00,-1.00,-897.00
2024-06-07 00:20:48.204176,0,0,-8,0,0,-3,80,82,169,140,61,121.75,177,18.00,-1.00,-903.00
2024-06-07 00:20:48.385125,0,0,-8,0,0,-2,80,82,171,150,61,121.70,177,27.00,-31.00,-975.00
2024-06-07 00:20:48.408209,0,1,-8,0,0,-2,80,82,174,150,61,121.73,177,-11.00,18.00,-938.00
2024-06-07 00:20:48.588751,0,1,-8,0,0,-1,80,82,177,150,61,121.78,177,-8.00,8.00,-968.00
2024-06-07 00:20:48.612093,0,1,-8,0,0,-1,80,82,179,150,61,121.82,177,-3.00,-25.00,-986.00
2024-06-07 00:20:48.794631,0,1,-8,0,0,-1,80,82,181,160,61,121.84,177,-33.00,-13.00,-991.00
2024-06-07 00:20:48.816143,0,1,-8,0,0,-1,80,82,183,160,61,121.76,177,-45.00,18.00,-972.00
2024-06-07 00:20:49.000006,0,1,-8,0,0,-1,80,82,184,160,61,121.83,177,-17.00,17.00,-1002.00
2024-06-07 00:20:49.022638,0,1,-8,0,0,-1,79,81,186,160,61,121.80,178,1.00,-11.00,-1016.00
2024-06-07 00:20:49.125897,0,1,-8,0,0,0,79,81,186,160,61,121.81,178,7.00,12.00,-909.00
2024-06-07 00:20:49.225974,0,0,-8,0,1,0,79,81,187,160,61,121.79,178,-41.00,24.00,-940.00
2024-06-07 00:20:49.328288,0,0,-8,0,0,0,79,81,187,160,61,121.86,178,34.00,-18.00,-1043.00
2024-06-07 00:20:49.428195,0,0,-8,0,0,0,79,81,187,160,61,121.80,178,-27.00,-1.00,-962.00
2024-06-07 00:20:49.612444,0,0,-8,0,0,0,79,81,186,160,61,121.84,178,-4.00,-25.00,-1054.00
2024-06-07 00:20:49.632188,0,0,-8,0,0,0,79,81,188,160,61,121.83,178,8.00,17.00,-997.00
2024-06-07 00:20:49.817307,0,0,-8,0,0,0,79,81,187,160,61,121.79,178,-5.00,-7.00,-1037.00
2024-06-07 00:20:49.817485,0,1,-8,0,0,0,79,81,187,160,61,121.81,178,-24.00,16.00,-1008.00
2024-06-07 00:20:49.887434,0,0,-8,0,0,0,79,81,187,160,61,121.82,179,-8.00,11.00,-1043.00
2024-06-07 00:20:49.990020,0,0,-8,0,0,0,79,81,188,170,61,121.79,179,-21.00,6.00,-1035.00
2024-06-07 00:20:50.124870,0,0,-8,0,0,0,79,81,189,170,61,121.85,179,14.00,19.00,-921.00
2024-06-07 00:20:50.193534,0,0,-8,0,0,0,79,81,187,170,61,121.86,179,11.00,-14.00,-975.00
2024-06-07 00:20:50.329163,0,0,-8,0,0,0,79,81,189,170,61,121.91,179,-21.00,-27.00,-1009.00
2024-06-07 00:20:50.397501,0,0,-8,0,0,0,79,81,188,170,61,121.85,179,-15.00,2.00,-951.00
2024-06-07 00:20:50.535514,0,0,-8,0,0,0,79,81,189,170,61,121.81,179,12.00,-48.00,-1031.00
2024-06-07 00:20:50.602962,0,1,-8,0,0,0,79,81,189,170,61,121.83,179,-16.00,30.00,-974.00
2024-06-07 00:20:50.704217,0,0,-8,0,0,0,79,81,190,170,61,121.86,179,12.00,-18.00,-994.00
2024-06-07 00:20:50.805401,0,0,-8,0,0,0,79,81,190,170,61,121.94,179,-3.00,26.00,-1004.00
2024-06-07 00:20:50.945539,0,0,-8,0,0,0,79,81,191,170,61,121.86,180,12.00,8.00,-958.00
2024-06-07 00:20:51.010917,0,0,-8,0,0,0,79,80,191,170,61,121.82,180,9.00,-20.00,-891.00
2024-06-07 00:20:51.113666,0,1,-8,0,0,0,79,80,192,170,61,121.87,180,20.00,-32.00,-961.00
2024-06-07 00:20:51.213663,1,1,-8,0,0,1,79,80,192,170,61,121.86,180,7.00,-27.00,-938.00
2024-06-07 00:20:51.353423,0,1,-8,0,0,1,79,80,189,170,61,121.81,180,-10.00,0.00,-904.00
2024-06-07 00:20:51.417025,0,0,-8,0,0,1,79,80,188,160,61,121.82,180,12.00,13.00,-1032.00
2024-06-07 00:20:51.559241,-1,0,-8,0,0,2,79,80,186,160,61,121.85,180,-25.00,31.00,-944.00
2024-06-07 00:20:51.621618,-1,0,-8,0,0,2,79,80,183,160,61,121.82,180,-59.00,10.00,-1013.00
2024-06-07 00:20:51.764472,-2,0,-8,0,0,2,79,80,182,160,61,121.79,180,-11.00,-2.00,-931.00
2024-06-07 00:20:51.825027,-1,0,-8,0,0,2,79,80,177,160,61,121.76,180,50.00,0.00,-1039.00
2024-06-07 00:20:51.968282,0,0,-8,0,0,2,79,80,174,150,61,121.68,181,0.00,34.00,-937.00
2024-06-07 00:20:52.111062,0,0,-8,0,0,2,79,81,169,150,61,121.67,181,0.00,1.00,-995.00
2024-06-07 00:20:52.131330,0,0,-8,0,0,3,79,81,166,150,61,121.62,181,7.00,19.00,-953.00
2024-06-07 00:20:52.288335,0,0,-8,0,0,2,79,81,164,140,61,121.56,181,42.00,25.00,-993.00
2024-06-07 00:20:52.379260,0,0,-8,0,0,2,79,81,162,140,61,121.57,181,24.00,-29.00,-1020.00
2024-06-07 00:20:52.450926,0,1,-8,0,0,2,79,81,159,140,61,121.60,181,28.00,0.00,-1068.00
2024-06-07 00:20:52.554758,1,0,-8,0,0,1,79,81,156,140,61,121.61,181,-16.00,-4.00,-1047.00
2024-06-07 00:20:52.640942,0,0,-8,0,0,2,79,81,154,140,61,121.62,181,21.00,-5.00,-1039.00
2024-06-07 00:20:52.744866,0,0,-8,0,0,1,79,81,151,130,61,121.53,181,-34.00,18.00,-1005.00
2024-06-07 00:20:52.894552,0,0,-8,0,0,2,79,81,149,130,61,121.63,181,-11.00,26.00,-930.00
2024-06-07 00:20:53.045943,-1,-1,-8,0,0,1,79,81,147,130,61,121.46,182,-4.00,-5.00,-1090.00
2024-06-07 00:20:53.049103,-1,-1,-8,0,0,1,78,81,144,130,61,121.47,182,20.00,-16.00,-989.00
2024-06-07 00:20:53.258378,-1,0,-8,0,0,1,78,81,142,120,61,121.44,182,-3.00,9.00,-972.00
2024-06-07 00:20:53.258647,0,0,-8,0,0,1,78,81,139,120,61,121.45,182,8.00,17.00,-984.00
2024-06-07 00:20:53.355706,0,0,-8,0,0,1,78,81,138,120,61,121.45,182,-3.00,9.00,-972.00
2024-06-07 00:20:53.514932,0,0,-8,0,0,1,78,81,136,120,61,121.53,182,2.00,5.00,-1074.00
2024-06-07 00:20:53.658494,0,0,-8,0,0,0,78,81,135,120,61,121.45,182,25.00,-16.00,-1077.00
2024-06-07 00:20:53.665502,0,0,-8,0,0,0,78,81,135,120,61,121.46,182,-31.00,12.00,-986.00
2024-06-07 00:20:53.821687,0,0,-8,0,0,0,78,81,134,120,61,121.50,182,42.00,-6.00,-961.00
2024-06-07 00:20:53.965365,0,0,-8,0,0,0,78,81,135,120,61,121.44,182,12.00,-49.00,-1092.00
2024-06-07 00:20:53.965517,0,0,-8,0,0,0,78,81,135,120,61,121.44,183,41.00,57.00,-908.00
2024-06-07 00:20:54.130051,0,0,-8,0,0,0,78,81,135,120,61,121.50,183,-19.00,0.00,-989.00
2024-06-07 00:20:54.130211,0,0,-8,0,0,0,78,81,134,120,61,121.43,183,-13.00,17.00,-989.00
2024-06-07 00:20:54.229798,0,0,-8,0,0,0,78,81,136,120,61,121.40,183,-4.00,36.00,-959.00
2024-06-07 00:20:54.323765,0,0,-8,0,0,0,78,81,136,120,61,121.41,183,1.00,22.00,-983.00
2024-06-07 00:20:54.527652,0,0,-8,0,0,0,78,81,136,120,61,121.43,183,-21.00,-23.00,-975.00
2024-06-07 00:20:54.527801,0,0,-8,0,0,0,78,81,136,120,61,121.47,183,23.00,-20.00,-962.00
2024-06-07 00:20:54.631077,0,0,-8,0,0,0,78,81,136,120,61,121.43,183,56.00,-14.00,-955.00
2024-06-07 00:20:54.732095,0,0,-8,0,0,0,78,81,136,120,61,121.44,183,17.00,-24.00,-1035.00
2024-06-07 00:20:54.834647,0,0,-8,0,0,0,78,81,137,120,61,121.46,183,-13.00,-19.00,-1039.00
2024-06-07 00:20:54.937127,0,0,-8,0,0,0,78,81,137,120,61,121.44,184,20.00,1.00,-944.00
2024-06-07 00:20:55.039770,0,0,-8,0,0,0,78,80,137,120,61,121.49,184,38.00,-24.00,-977.00
2024-06-07 00:20:55.141978,0,0,-8,0,0,0,78,80,137,120,61,121.50,184,-3.00,-10.00,-946.00
2024-06-07 00:20:55.241781,0,0,-8,0,0,0,78,80,137,120,61,121.50,184,-15.00,37.00,-1013.00
2024-06-07 00:20:55.343547,0,0,-8,0,0,0,78,80,137,120,61,121.48,184,-4.00,-15.00,-947.00
2024-06-07 00:20:55.448940,-1,0,-8,0,0,0,78,80,137,120,61,121.40,184,-31.00,19.00,-1050.00
2024-06-07 00:20:55.547621,-7,0,-8,0,0,0,78,80,139,120,61,121.44,184,4.00,-8.00,-1008.00
2024-06-07 00:20:55.660966,-8,0,-8,2,0,0,78,80,139,120,61,121.34,184,-37.00,-7.00,-1028.00
2024-06-07 00:20:55.751541,-8,0,-8,3,0,0,78,80,138,120,61,121.35,184,-48.00,16.00,-1045.00
2024-06-07 00:20:55.858548,-8,0,-8,4,0,0,78,80,139,120,61,121.36,184,-23.00,-20.00,-1052.00
2024-06-07 00:20:55.956778,-7,0,-8,6,-1,0,78,80,139,120,61,121.34,185,-65.00,-2.00,-991.00
2024-06-07 00:20:56.057565,-6,0,-8,6,-1,0,78,81,136,120,61,121.37,185,-26.00,-3.00,-995.00
2024-06-07 00:20:56.160255,-4,1,-8,7,-1,0,78,81,137,120,61,121.25,185,-27.00,-19.00,-1019.00
2024-06-07 00:20:56.268117,-3,1,-8,8,-1,0,78,81,136,120,61,121.34,185,-56.00,2.00,-1019.00
2024-06-07 00:20:56.363603,-1,0,-8,8,0,0,78,81,136,120,61,121.39,185,-69.00,-6.00,-1078.00
2024-06-07 00:20:56.473280,1,0,-8,7,0,0,78,81,136,120,61,121.29,185,-26.00,-20.00,-1032.00
2024-06-07 00:20:56.568166,4,0,-8,6,-1,0,78,81,137,120,61,121.35,185,-9.00,-44.00,-1058.00
2024-06-07 00:20:56.677697,5,0,-8,5,-1,0,78,81,136,120,61,121.38,185,-46.00,-24.00,-965.00
2024-06-07 00:20:56.771540,4,1,-8,4,0,0,78,81,136,120,61,121.42,185,-26.00,-18.00,-1034.00
2024-06-07 00:20:56.882533,2,1,-8,3,0,0,78,81,135,120,61,121.45,185,-32.00,9.00,-1026.00
2024-06-07 00:20:56.975494,1,1,-8,3,0,0,78,81,134,120,61,121.44,186,-42.00,-50.00,-1049.00
2024-06-07 00:20:57.090891,0,0,-8,2,0,0,78,81,135,120,61,121.46,186,3.00,16.00,-1032.00
2024-06-07 00:20:57.179401,0,0,-8,2,0,0,78,81,134,120,61,121.36,186,1.00,-25.00,-998.00
2024-06-07 00:20:57.294432,0,0,-8,2,0,0,78,81,134,120,61,121.46,186,-17.00,-9.00,-989.00
2024-06-07 00:20:57.384952,0,0,-8,2,0,0,78,81,134,120,61,121.42,186,-3.00,-26.00,-1010.00
2024-06-07 00:20:57.434956,0,0,-8,2,0,0,78,81,134,120,61,121.42,186,11.00,10.00,-992.00
2024-06-07 00:20:57.600208,0,0,-8,2,0,0,78,81,134,120,61,121.38,186,-17.00,0.00,-973.00
2024-06-07 00:20:57.639365,0,0,-8,2,0,0,78,81,134,120,61,121.44,186,-32.00,10.00,-958.00
2024-06-07 00:20:57.804037,3,0,-8,1,0,0,78,81,135,120,61,121.40,186,4.00,7.00,-962.00
2024-06-07 00:20:57.842505,3,0,-8,1,0,0,78,81,135,120,61,121.42,186,-43.00,2.00,-993.00
2024-06-07 00:20:57.945190,1,0,-8,0,0,0,78,81,134,120,61,121.49,187,-16.00,2.00,-1008.00
2024-06-07 00:20:58.046806,1,0,-8,0,0,0,78,80,134,120,61,121.40,187,55.00,-42.00,-1050.00
2024-06-07 00:20:58.148669,0,0,-8,0,0,0,78,80,135,120,61,121.50,187,22.00,12.00,-1014.00
2024-06-07 00:20:58.319510,0,0,-8,0,0,0,78,80,135,120,61,121.46,187,-16.00,15.00,-957.00
2024-06-07 00:20:58.352947,0,0,-8,0,0,0,78,80,136,120,61,121.46,187,-4.00,-3.00,-935.00
2024-06-07 00:20:58.529723,0,0,-8,0,0,0,78,80,136,120,61,121.46,187,-25.00,9.00,-1019.00
2024-06-07 00:20:58.556603,0,0,-8,0,0,0,78,80,137,120,61,121.42,187,31.00,-32.00,-981.00
2024-06-07 00:20:58.730035,0,0,-8,0,0,0,78,80,137,120,61,121.46,187,54.00,-2.00,-975.00
2024-06-07 00:20:58.760602,0,0,-8,0,0,0,78,80,137,120,61,121.40,187,50.00,17.00,-960.00
2024-06-07 00:20:58.924365,0,0,-8,0,0,0,78,80,137,120,61,121.45,187,-17.00,31.00,-998.00
2024-06-07 00:20:58.964624,0,0,-8,0,0,0,78,80,138,120,61,121.51,188,-36.00,26.00,-1057.00
2024-06-07 00:20:59.135494,0,0,-8,0,0,0,78,80,138,120,61,121.49,188,14.00,20.00,-1019.00
2024-06-07 00:20:59.168797,0,0,-8,0,0,0,78,80,138,120,61,121.47,188,22.00,-5.00,-1007.00
2024-06-07 00:20:59.342251,0,0,-8,0,0,0,78,80,138,120,61,121.52,188,31.00,-15.00,-961.00
2024-06-07 00:20:59.372625,0,0,-8,0,0,0,78,80,139,120,61,121.51,188,-19.00,-9.00,-1105.00
2024-06-07 00:20:59.545272,0,0,-8,0,0,0,78,80,139,120,61,121.47,188,1.00,-10.00,-957.00
2024-06-07 00:20:59.576479,0,0,-8,0,0,0,78,80,140,120,61,121.52,188,-8.00,-26.00,-990.00
2024-06-07 00:20:59.753733,0,0,-8,0,0,0,78,80,139,120,61,121.43,188,7.00,16.00,-984.00
2024-06-07 00:20:59.783347,0,0,-8,0,0,0,78,80,139,120,61,121.50,188,25.00,7.00,-1000.00
2024-06-07 00:20:59.882671,0,0,-8,0,0,0,78,80,139,120,61,121.50,188,-28.00,45.00,-972.00
2024-06-07 00:20:59.984314,0,0,-8,0,0,0,78,80,139,120,61,121.45,189,29.00,-7.00,-1013.00
2024-06-07 00:21:00.159170,0,0,-8,0,0,0,77,80,140,120,61,121.49,189,-9.00,-9.00,-940.00
2024-06-07 00:21:00.190617,6,0,-8,0,0,0,77,80,140,120,61,121.49,189,27.00,-13.00,-1002.00
2024-06-07 00:21:00.290414,8,0,-8,-1,0,0,77,80,142,120,61,121.49,189,-9.00,35.00,-940.00
2024-06-07 00:21:00.466270,8,0,-8,-2,0,0,77,80,142,120,61,121.49,189,41.00,-8.00,-1076.00
2024-06-07 00:21:00.494289,8,0,-8,-4,0,0,77,80,143,120,61,121.48,189,8.00,3.00,-1074.00
2024-06-07 00:21:00.671006,8,0,-8,-5,0,0,77,80,142,120,61,121.50,189,36.00,-13.00,-1031.00
2024-06-07 00:21:00.698444,7,0,-8,-6,0,0,77,80,141,120,61,121.50,189,72.00,-29.00,-989.00
2024-06-07 00:21:00.875921,5,0,-8,-7,0,0,77,80,140,120,61,121.44,189,35.00,-19.00,-1069.00
2024-06-07 00:21:00.902991,5,0,-8,-7,1,0,77,80,140,120,61,121.42,189,23.00,-3.00,-1110.00
2024-06-07 00:21:01.080662,2,0,-8,-8,1,0,77,80,139,120,61,121.45,190,89.00,-39.00,-1002.00
2024-06-07 00:21:01.106203,0,1,-8,-7,1,0,77,80,139,120,61,121.48,190,46.00,-9.00,-1031.00
2024-06-07 00:21:01.208381,-2,0,-9,-6,1,0,77,80,137,120,61,121.44,190,94.00,-24.00,-945.00
2024-06-07 00:21:01.387927,-4,0,-9,-6,0,0,77,80,138,120,61,121.43,190,23.00,42.00,-975.00
2024-06-07 00:21:01.412188,-3,0,-8,-4,0,0,77,80,136,120,61,121.49,190,27.00,-20.00,-1036.00
2024-06-07 00:21:01.592676,-2,0,-8,-3,0,0,77,80,136,120,61,121.43,190,18.00,-11.00,-998.00
2024-06-07 00:21:01.592846,-1,1,-8,-3,0,0,77,80,136,120,61,121.46,190,38.00,3.00,-998.00
2024-06-07 00:21:01.667100,0,1,-8,-2,0,0,77,80,135,120,61,121.42,190,-7.00,-2.00,-1025.00
2024-06-07 00:21:01.797521,0,1,-8,-2,0,0,77,80,136,120,61,121.45,190,28.00,-18.00,-1025.00
2024-06-07 00:21:01.871157,0,0,-8,-2,0,0,77,80,136,120,61,121.44,190,19.00,-5.00,-993.00
2024-06-07 00:21:02.002440,0,0,-8,-2,0,0,77,80,135,120,61,121.37,191,49.00,-15.00,-967.00
2024-06-07 00:21:02.077542,0,0,-8,-2,0,0,78,80,135,120,61,121.47,191,34.00,-1.00,-1067.00
2024-06-07 00:21:02.177254,0,0,-8,-2,0,0,78,80,136,120,61,121.41,191,-3.00,3.00,-1034.00
2024-06-07 00:21:02.278980,-2,0,-8,-2,0,0,78,80,136,120,61,121.40,191,7.00,40.00,-974.00
2024-06-07 00:21:02.411833,-4,0,-8,-1,0,0,78,80,136,120,61,121.44,191,-21.00,13.00,-986.00
2024-06-07 00:21:02.483077,-2,0,-8,0,0,0,78,80,136,120,61,121.46,191,-55.00,7.00,-1009.00
2024-06-07 00:21:02.617325,-1,0,-8,0,0,0,78,80,136,120,61,121.47,191,38.00,-22.00,-1018.00
2024-06-07 00:21:02.687217,0,0,-8,0,0,0,78,80,135,120,61,121.47,191,16.00,-45.00,-1036.00
2024-06-07 00:21:02.821565,0,0,-8,0,0,0,78,80,135,120,61,121.45,191,9.00,-1.00,-1004.00
2024-06-07 00:21:02.891121,0,0,-8,0,0,0,78,80,136,120,61,121.42,191,3.00,0.00,-912.00
2024-06-07 00:21:03.028291,0,0,-8,0,0,0,78,80,136,120,61,121.43,192,11.00,-30.00,-1007.00
2024-06-07 00:21:03.095107,0,0,-8,0,0,0,77,80,136,120,61,121.44,192,13.00,-43.00,-1060.00
2024-06-07 00:21:03.197044,0,0,-8,0,0,0,77,80,136,120,61,121.43,192,-63.00,23.00,-1041.00
2024-06-07 00:21:03.333417,0,0,-8,0,0,0,77,80,136,120,61,121.50,192,14.00,-23.00,-984.00
2024-06-07 00:21:03.401416,0,0,-8,0,0,0,77,80,137,120,61,121.48,192,-27.00,-5.00,-932.00
2024-06-07 00:21:03.538212,0,0,-8,0,0,0,77,80,137,120,61,121.42,192,34.00,-28.00,-1003.00
2024-06-07 00:21:03.604981,0,0,-8,0,0,0,77,80,137,120,61,121.46,192,-26.00,-7.00,-983.00
2024-06-07 00:21:03.743097,0,0,-8,0,0,0,77,80,137,120,61,121.53,192,7.00,2.00,-1022.00
2024-06-07 00:21:03.808992,0,0,-8,0,0,0,77,80,138,120,61,121.47,192,-12.00,41.00,-991.00
2024-06-07 00:21:03.947786,0,0,-8,0,0,0,77,80,138,120,61,121.45,193,-4.00,39.00,-975.00
2024-06-07 00:21:04.012818,0,0,-8,0,0,0,77,80,139,120,61,121.57,193,-33.00,10.00,-918.00
2024-06-07 00:21:04.152718,0,0,-8,0,0,0,78,80,140,120,61,121.48,193,-7.00,7.00,-963.00
2024-06-07 00:21:04.217000,0,0,-8,0,0,0,78,80,140,120,61,121.53,193,-8.00,-8.00,-1097.00
2024-06-07 00:21:04.357463,0,0,-8,0,0,0,78,80,140,120,61,121.51,193,-20.00,20.00,-987.00
2024-06-07 00:21:04.420861,0,0,-8,0,0,0,78,80,140,120,61,121.54,193,-8.00,32.00,-988.00
2024-06-07 00:21:04.523387,0,0,-8,0,0,0,78,80,140,120,61,121.52,193,-12.00,52.00,-963.00
2024-06-07 00:21:04.664545,0,-5,-8,0,0,0,78,80,141,120,61,121.42,193,-6.00,44.00,-990.00
2024-06-07 00:21:04.726718,0,-8,-8,0,-1,0,78,80,142,120,60,121.49,193,3.00,8.00,-973.00
2024-06-07 00:21:04.869437,0,-6,-8,0,-2,0,78,80,141,120,60,121.52,193,14.00,-6.00,-957.00
2024-06-07 00:21:04.930790,0,-4,-8,0,-3,0,78,80,141,120,60,121.54,194,-15.00,21.00,-1030.00
2024-06-07 00:21:05.074007,0,-1,-8,0,-4,0,78,80,139,120,60,121.47,194,78.00,7.00,-1000.00
2024-06-07 00:21:05.134718,1,1,-8,0,-3,0,77,80,139,120,60,121.49,194,-26.00,25.00,-1017.00
2024-06-07 00:21:05.236835,0,1,-8,0,-3,0,77,80,139,120,60,121.51,194,30.00,29.00,-1026.00
2024-06-07 00:21:05.382009,1,0,-8,0,-2,0,77,80,138,120,60,121.47,194,0.00,29.00,-1018.00
2024-06-07 00:21:05.390608,0,0,-8,0,-2,0,77,80,138,120,60,121.45,194,0.00,23.00,-989.00
2024-06-07 00:21:05.585958,0,0,-8,0,-2,0,77,80,137,120,60,121.42,194,25.00,15.00,-985.00
2024-06-07 00:21:05.593784,0,0,-8,0,-2,0,77,80,135,120,60,121.45,194,20.00,10.00,-1051.00
2024-06-07 00:21:05.791021,0,0,-8,0,-2,0,77,80,134,120,60,121.37,194,-13.00,26.00,-968.00
2024-06-07 00:21:05.797874,0,-1,-8,0,-2,0,77,80,133,120,60,121.38,194,34.00,4.00,-1064.00
2024-06-07 00:21:05.997776,0,-1,-8,0,-2,0,77,80,132,120,60,121.34,195,-12.00,25.00,-1021.00
2024-06-07 00:21:06.001818,0,-1,-8,0,-2,0,77,80,131,110,60,121.38,195,-18.00,35.00,-1022.00
2024-06-07 00:21:06.191701,0,0,-8,0,-2,0,77,80,131,110,60,121.42,195,-17.00,31.00,-1027.00
2024-06-07 00:21:06.205927,0,0,-8,0,-2,0,77,80,130,110,60,121.36,195,71.00,20.00,-1033.00
2024-06-07 00:21:06.409306,0,0,-8,0,-2,0,77,80,130,110,60,121.39,195,1.00,13.00,-1048.00
2024-06-07 00:21:06.412239,1,4,-8,0,-2,0,77,80,129,110,60,121.38,195,-14.00,46.00,-1017.00
2024-06-07 00:21:06.511808,1,4,-8,0,-1,0,77,80,130,110,60,121.36,195,-16.00,9.00,-1017.00
2024-06-07 00:21:06.717250,0,1,-8,0,0,0,77,80,129,110,60,121.37,195,24.00,-25.00,-1003.00
2024-06-07 00:21:06.719114,0,0,-8,0,0,0,77,80,129,110,60,121.37,195,25.00,-40.00,-1130.00
2024-06-07 00:21:06.818572,0,0,-8,0,0,0,77,80,129,110,60,121.37,195,-25.00,22.00,-991.00
2024-06-07 00:21:06.921007,0,0,-8,0,0,0,77,80,129,110,60,121.37,196,24.00,-19.00,-960.00
2024-06-07 00:21:07.116958,0,0,-8,0,0,0,77,80,129,110,60,121.39,196,61.00,-2.00,-987.00
2024-06-07 00:21:07.124901,0,0,-8,0,0,0,78,80,129,110,60,121.39,196,-16.00,20.00,-958.00
2024-06-07 00:21:07.340685,0,0,-8,0,0,0,78,80,130,110,60,121.36,196,51.00,-14.00,-993.00
2024-06-07 00:21:07.343032,0,0,-8,0,0,0,78,80,130,110,60,121.42,196,28.00,7.00,-909.00
2024-06-07 00:21:07.431430,0,0,-8,0,0,0,78,80,131,110,60,121.38,196,24.00,-8.00,-1016.00
2024-06-07 00:21:07.531890,0,0,-8,0,0,0,78,80,131,110,60,121.35,196,-39.00,-13.00,-1009.00
2024-06-07 00:21:07.754041,0,0,-8,0,0,0,78,80,131,110,60,121.40,196,14.00,-28.00,-990.00
2024-06-07 00:21:07.797846,0,0,-8,0,0,0,78,80,132,110,60,121.42,196,47.00,-24.00,-1042.00
2024-06-07 00:21:07.841237,0,0,-8,0,0,0,78,80,133,110,60,121.49,196,27.00,0.00,-955.00
2024-06-07 00:21:08.029998,0,0,-8,0,0,0,78,80,133,120,60,121.45,197,-9.00,11.00,-1032.00
2024-06-07 00:21:08.045054,0,0,-8,0,0,0,78,80,134,120,60,121.47,197,-5.00,20.00,-985.00
2024-06-07 00:21:08.147093,0,0,-8,0,0,0,77,79,134,120,60,121.43,197,22.00,10.00,-986.00
2024-06-07 00:21:08.261026,0,0,-8,0,0,0,77,79,136,120,60,121.43,197,24.00,-19.00,-1027.00
2024-06-07 00:21:08.350532,1,0,-8,0,0,0,77,79,136,120,60,121.37,197,30.00,10.00,-1029.00
2024-06-07 00:21:08.454359,1,0,-8,0,0,0,77,79,136,120,60,121.43,197,-4.00,26.00,-959.00
2024-06-07 00:21:08.567914,0,0,-8,0,0,0,77,79,136,120,60,121.37,197,-1.00,26.00,-990.00
2024-06-07 00:21:08.710085,0,0,-8,0,0,0,77,79,136,120,60,121.42,197,22.00,4.00,-946.00
2024-06-07 00:21:08.756130,0,0,-8,0,0,0,77,79,136,120,59,121.43,197,64.00,8.00,-1004.00
2024-06-07 00:21:08.873629,0,0,-8,0,0,0,77,79,136,120,59,121.48,197,42.00,-33.00,-991.00
2024-06-07 00:21:09.016972,0,6,-8,0,0,0,77,79,136,120,59,121.47,198,26.00,-16.00,-1017.00
2024-06-07 00:21:09.061600,0,8,-8,0,1,0,77,79,138,120,59,121.42,198,46.00,-13.00,-958.00
2024-06-07 00:21:09.185922,0,6,-8,0,2,0,77,80,137,120,59,121.39,198,45.00,-10.00,-968.00
2024-06-07 00:21:09.326519,0,3,-8,0,3,0,77,80,136,120,59,121.41,198,14.00,6.00,-1030.00
2024-06-07 00:21:09.326571,0,0,-8,0,4,0,77,80,136,120,59,121.39,198,61.00,-30.00,-948.00
2024-06-07 00:21:09.488015,1,-1,-8,0,4,0,77,80,136,120,59,121.44,198,19.00,-53.00,-1062.00
2024-06-07 00:21:09.544799,1,-1,-8,0,3,0,77,80,136,120,59,121.45,198,8.00,-23.00,-1033.00
2024-06-07 00:21:09.622446,0,-1,-8,0,3,0,77,80,135,120,59,121.40,198,-22.00,21.00,-1001.00
2024-06-07 00:21:09.784546,0,0,-8,0,2,0,77,80,136,120,59,121.42,198,17.00,-15.00,-976.00
2024-06-07 00:21:09.826826,0,0,-8,0,2,0,77,80,136,120,59,121.39,198,32.00,-59.00,-972.00
2024-06-07 00:21:09.988971,0,0,-8,0,2,0,77,80,136,120,59,121.38,199,-11.00,-17.00,-1022.00
2024-06-07 00:21:10.030328,0,0,-8,0,2,0,77,80,136,120,59,121.37,199,-2.00,26.00,-1006.00
2024-06-07 00:21:10.193801,0,0,-8,0,2,0,77,79,136,120,59,121.38,199,22.00,-49.00,-1002.00
2024-06-07 00:21:10.234226,0,0,-8,0,2,0,77,79,136,120,59,121.40,199,58.00,-36.00,-973.00
2024-06-07 00:21:10.399474,0,0,-8,0,2,0,77,79,137,120,59,121.38,199,34.00,-17.00,-972.00
2024-06-07 00:21:10.438255,0,-1,-8,0,2,0,77,79,136,120,59,121.46,199,-7.00,-4.00,-951.00
2024-06-07 00:21:10.603597,0,-4,-8,0,2,0,77,79,137,120,59,121.47,199,-20.00,-3.00,-1039.00
2024-06-07 00:21:10.642298,0,-3,-8,0,1,0,77,79,136,120,59,121.40,199,45.00,-24.00,-985.00
2024-06-07 00:21:10.744347,0,-1,-8,0,0,0,77,79,136,120,59,121.38,199,-34.00,28.00,-1082.00
2024-06-07 00:21:10.910840,0,0,-8,0,0,0,77,79,136,120,59,121.37,199,-39.00,14.00,-964.00
2024-06-07 00:21:10.948865,0,0,-8,0,0,0,77,79,136,120,59,121.41,200,-5.00,-13.00,-1003.00
2024-06-07 00:21:11.116363,0,0,-8,0,0,0,77,79,136,120,59,121.41,200,52.00,-43.00,-1074.00
2024-06-07 00:21:11.152502,0,0,-8,0,0,0,77,80,137,120,59,121.41,200,-21.00,-3.00,-1034.00
2024-06-07 00:21:11.320287,0,0,-8,0,0,0,77,80,136,120,59,121.50,200,-5.00,-18.00,-1013.00
2024-06-07 00:21:11.356154,0,0,-8,0,0,0,77,80,136,120,59,121.45,200,-5.00,-6.00,-968.00
2024-06-07 00:21:11.525086,0,0,-8,0,0,0,77,80,137,120,59,121.45,200,-12.00,-38.00,-986.00
2024-06-07 00:21:11.561023,0,0,-8,0,0,0,77,80,136,120,59,121.45,200,27.00,-10.00,-1013.00
2024-06-07 00:21:11.729928,0,0,-8,0,0,0,77,80,136,120,59,121.42,200,24.00,10.00,-934.00
2024-06-07 00:21:11.764243,0,0,-8,0,0,0,77,80,135,120,59,121.40,200,39.00,-6.00,-979.00
2024-06-07 00:21:11.936876,0,0,-8,0,0,0,77,80,136,120,59,121.45,200,-8.00,24.00,-1024.00
2024-06-07 00:21:11.968534,0,0,-8,0,0,0,77,80,135,120,59,121.43,201,-14.00,29.00,-1020.00
2024-06-07 00:21:12.142366,0,0,-8,0,0,0,77,80,136,120,59,121.35,201,6.00,-14.00,-1079.00
2024-06-07 00:21:12.172311,0,0,-8,0,0,0,77,79,136,120,59,121.42,201,18.00,4.00,-986.00
2024-06-07 00:21:12.273993,0,0,-8,0,0,0,77,79,136,120,59,121.42,201,-40.00,15.00,-996.00
2024-06-07 00:21:12.446988,0,0,-8,0,0,0,77,79,137,120,59,121.48,201,-12.00,-27.00,-1033.00
2024-06-07 00:21:12.478338,0,0,-8,0,0,0,77,79,136,120,59,121.42,201,16.00,-37.00,-1073.00
2024-06-07 00:21:12.651448,0,0,-8,0,0,0,77,79,137,120,59,121.51,201,-48.00,10.00,-959.00
2024-06-07 00:21:12.682094,0,0,-8,0,0,0,77,79,138,120,58,121.44,201,26.00,-49.00,-956.00
2024-06-07 00:21:12.784135,0,0,-8,0,0,0,77,79,137,120,58,121.40,201,-40.00,17.00,-1083.00
2024-06-07 00:21:12.958617,0,0,-7,0,0,0,77,79,138,120,58,121.42,201,15.00,-4.00,-975.00
2024-06-07 00:21:12.987893,0,0,-1,0,0,0,77,79,138,120,58,121.38,202,66.00,-21.00,-951.00
2024-06-07 00:21:13.163391,0,0,4,0,0,0,77,79,138,120,58,121.41,202,44.00,-22.00,-998.00
2024-06-07 00:21:13.194975,0,0,10,0,0,0,77,79,138,120,58,121.42,202,29.00,-27.00,-959.00
2024-06-07 00:21:13.294954,0,0,16,0,0,0,77,79,137,120,58,121.43,202,-1.00,3.00,-1050.00
2024-06-07 00:21:13.474769,0,0,22,0,0,0,77,79,137,120,58,121.39,202,12.00,-46.00,-1014.00
2024-06-07 00:21:13.475816,0,0,28,0,0,0,77,79,137,120,58,121.38,202,-1.00,-6.00,-999.00
2024-06-07 00:21:13.550170,0,0,34,0,0,0,77,79,137,120,58,121.41,202,41.00,24.00,-971.00
2024-06-07 00:21:13.652222,0,0,40,0,0,0,77,79,136,120,58,121.41,202,-2.00,19.00,-970.00
2024-06-07 00:21:13.754421,0,0,46,0,0,0,77,79,136,120,58,121.37,202,-27.00,2.00,-1014.00
2024-06-07 00:21:13.856660,0,0,52,0,0,0,77,79,135,120,58,121.46,202,25.00,-15.00,-1039.00
2024-06-07 00:21:13.960095,0,0,58,0,0,0,77,79,135,120,58,121.39,203,-2.00,5.00,-970.00
2024-06-07 00:21:14.063852,0,0,64,0,0,0,77,79,136,120,58,121.41,203,30.00,0.00,-992.00
2024-06-07 00:21:14.168227,0,0,71,0,0,0,77,79,135,120,58,121.47,203,0.00,6.00,-1035.00
2024-06-07 00:21:14.263119,0,0,77,0,0,0,77,79,135,120,58,121.42,203,44.00,-24.00,-939.00
2024-06-07 00:21:14.392693,0,0,83,0,0,0,77,79,135,120,58,121.41,203,-12.00,32.00,-950.00
2024-06-07 00:21:14.467428,0,0,89,0,0,0,77,79,134,120,58,121.44,203,20.00,-19.00,-969.00
2024-06-07 00:21:14.596871,0,0,95,0,0,0,77,79,134,120,58,121.43,203,-23.00,-24.00,-989.00
2024-06-07 00:21:14.671111,0,0,101,0,0,0,77,79,134,120,58,121.41,203,40.00,-25.00,-1074.00
2024-06-07 00:21:14.804271,0,0,107,0,0,0,77,79,135,120,58,121.40,203,-50.00,-18.00,-952.00
2024-06-07 00:21:14.874968,0,0,113,0,0,0,77,79,135,120,58,121.40,203,36.00,-27.00,-1061.00
2024-06-07 00:21:15.007218,0,0,119,0,0,0,77,79,135,120,58,121.38,204,10.00,-12.00,-1032.00
2024-06-07 00:21:15.079201,0,0,125,0,0,0,77,79,135,120,58,121.37,204,-21.00,14.00,-991.00
2024-06-07 00:21:15.202930,0,0,132,0,0,0,77,79,135,120,58,121.42,204,8.00,-23.00,-987.00
2024-06-07 00:21:15.283636,0,0,138,0,0,0,77,79,136,120,58,121.43,204,23.00,-21.00,-1028.00
2024-06-07 00:21:15.416382,0,0,144,0,0,0,77,79,136,120,58,121.43,204,-47.00,9.00,-1026.00
2024-06-07 00:21:15.487357,0,0,150,0,0,0,77,79,135,120,58,121.39,204,20.00,-23.00,-972.00
2024-06-07 00:21:15.620868,0,0,156,0,0,0,77,79,136,120,58,121.43,204,-30.00,-27.00,-1037.00
2024-06-07 00:21:15.690987,0,0,162,0,0,0,77,79,137,120,58,121.43,204,-20.00,-15.00,-1023.00
2024-06-07 00:21:15.825576,0,0,168,0,0,0,77,79,136,120,58,121.48,204,-43.00,9.00,-1019.00
2024-06-07 00:21:15.895078,0,0,174,0,0,0,77,79,138,120,58,121.42,204,18.00,22.00,-984.00
2024-06-07 00:21:15.997104,0,0,-179,0,0,0,77,79,138,120,58,121.42,205,-9.00,18.00,-1016.00
2024-06-07 00:21:16.134952,0,0,-173,0,0,0,77,79,139,120,58,121.40,205,19.00,2.00,-984.00
2024-06-07 00:21:16.201288,0,0,-167,0,0,0,77,80,139,120,58,121.49,205,-6.00,-5.00,-1010.00
2024-06-07 00:21:16.337620,0,0,-161,0,0,0,77,80,140,120,58,121.50,205,39.00,0.00,-951.00
2024-06-07 00:21:16.405030,0,0,-155,0,0,0,77,80,140,120,58,121.43,205,6.00,7.00,-1017.00
2024-06-07 00:21:16.542402,0,0,-149,0,0,0,77,80,139,120,58,121.47,205,-13.00,15.00,-996.00
2024-06-07 00:21:16.608774,0,0,-143,0,0,0,77,80,140,120,58,121.40,205,-21.00,10.00,-1005.00
2024-06-07 00:21:16.747197,0,0,-137,0,0,0,77,80,141,120,57,121.53,205,-4.00,2.00,-1019.00
2024-06-07 00:21:16.813899,0,0,-131,0,0,0,77,80,140,120,57,121.44,205,-23.00,4.00,-997.00
2024-06-07 00:21:16.915310,0,0,-124,0,0,0,77,80,141,120,57,121.43,205,55.00,-18.00,-974.00
2024-06-07 00:21:16.966252,0,0,-118,0,0,0,77,80,141,120,57,121.42,206,34.00,-17.00,-1054.00
2024-06-07 00:21:17.157080,0,0,-112,0,0,0,77,80,140,120,57,121.50,206,-34.00,47.00,-950.00
2024-06-07 00:21:17.220860,0,0,-106,0,0,0,77,79,140,120,57,121.48,206,13.00,6.00,-975.00
2024-06-07 00:21:17.274685,0,0,-100,0,0,0,77,79,140,120,57,121.53,206,34.00,-10.00,-979.00
2024-06-07 00:21:17.375821,0,0,-94,0,0,0,77,79,140,120,57,121.46,206,-12.00,17.00,-1046.00
2024-06-07 00:21:17.476212,0,0,-89,0,0,0,77,79,139,120,57,121.48,206,-2.00,15.00,-972.00
2024-06-07 00:21:17.668743,0,0,-83,0,0,0,77,79,139,120,57,121.45,206,11.00,20.00,-926.00
2024-06-07 00:21:17.679585,0,0,-77,0,0,0,77,79,139,120,57,121.45,206,27.00,17.00,-883.00
2024-06-07 00:21:17.875311,0,0,-71,0,0,0,77,79,139,120,57,121.50,206,-14.00,17.00,-924.00
2024-06-07 00:21:17.883537,0,0,-65,0,0,0,77,79,138,120,57,121.41,206,5.00,39.00,-961.00
2024-06-07 00:21:17.985499,0,0,-59,0,0,0,77,79,139,120,57,121.41,207,-41.00,15.00,-1002.00
2024-06-07 00:21:18.180865,0,0,-53,0,0,0,77,79,139,120,57,121.43,207,3.00,-6.00,-1065.00
2024-06-07 00:21:18.190257,0,0,-42,0,0,0,76,79,139,120,57,121.49,207,40.00,-20.00,-1046.00
2024-06-07 00:21:18.291922,1,0,-36,0,0,0,76,79,141,120,57,121.44,207,70.00,-40.00,-985.00
2024-06-07 00:21:18.488253,1,0,-30,0,0,0,76,79,140,120,57,121.44,207,20.00,12.00,-961.00
2024-06-07 00:21:18.495876,0,0,-25,0,0,0,76,79,140,120,57,121.47,207,-1.00,34.00,-927.00
2024-06-07 00:21:18.693004,0,0,-21,0,0,0,76,79,141,120,57,121.42,207,5.00,13.00,-991.00
2024-06-07 00:21:18.699544,0,0,-18,0,0,0,76,79,141,120,57,121.47,207,-18.00,2.00,-939.00
2024-06-07 00:21:18.897764,0,0,-16,0,0,0,76,79,141,120,57,121.43,207,19.00,26.00,-1043.00
2024-06-07 00:21:18.903490,0,0,-14,0,0,0,76,79,141,120,57,121.40,208,57.00,-12.00,-1036.00
2024-06-07 00:21:19.102227,0,0,-13,0,0,0,76,79,141,120,57,121.44,208,57.00,-12.00,-945.00
2024-06-07 00:21:19.109327,0,0,-12,0,0,0,76,79,140,120,57,121.45,208,23.00,13.00,-1036.00
2024-06-07 00:21:19.210882,0,0,-12,0,0,0,76,80,140,120,57,121.46,208,23.00,-11.00,-1011.00
2024-06-07 00:21:19.409396,1,0,-11,0,0,0,76,80,140,120,57,121.36,208,33.00,-2.00,-967.00
2024-06-07 00:21:19.413426,0,0,-10,0,0,0,76,80,139,120,57,121.39,208,24.00,-16.00,-917.00
2024-06-07 00:21:19.515530,0,0,-10,0,0,0,76,80,138,120,57,121.40,208,3.00,5.00,-971.00
2024-06-07 00:21:19.617778,0,0,-10,0,0,0,76,80,137,120,57,121.40,208,-4.00,10.00,-990.00
2024-06-07 00:21:19.719661,0,0,-10,0,0,0,76,80,137,120,57,121.42,208,12.00,30.00,-975.00
2024-06-07 00:21:19.821696,1,0,-10,0,0,0,76,80,136,120,57,121.42,208,-27.00,-2.00,-1028.00
2024-06-07 00:21:19.923634,1,0,-10,0,0,0,76,80,135,120,57,121.41,209,15.00,1.00,-950.00
2024-06-07 00:21:20.025617,1,0,-10,0,0,0,76,80,135,120,57,121.43,209,37.00,0.00,-993.00
2024-06-07 00:21:20.228763,1,0,-10,0,0,0,76,80,135,120,57,121.43,209,-16.00,-17.00,-1031.00
2024-06-07 00:21:20.229416,0,0,-10,0,0,0,77,80,134,110,57,121.36,209,43.00,-6.00,-1007.00
2024-06-07 00:21:20.331693,0,0,-10,0,0,0,77,80,134,110,57,121.36,209,39.00,-14.00,-1033.00
2024-06-07 00:21:20.433835,0,0,-10,0,0,0,77,80,134,110,57,121.41,209,29.00,-7.00,-1022.00
2024-06-07 00:21:20.536438,0,0,-10,0,0,0,77,80,133,110,57,121.41,209,51.00,-9.00,-981.00
2024-06-07 00:21:20.638024,1,0,-10,0,0,0,77,80,133,120,57,121.39,209,77.00,-15.00,-961.00
2024-06-07 00:21:20.741031,1,0,-10,0,0,0,77,80,134,120,57,121.36,209,39.00,12.00,-970.00
2024-06-07 00:21:20.790714,0,0,-10,0,0,0,77,80,134,120,57,121.42,209,24.00,11.00,-1004.00
2024-06-07 00:21:20.945562,0,0,-10,0,0,0,77,80,133,120,57,121.41,210,-17.00,18.00,-962.00
2024-06-07 00:21:20.994795,0,0,-10,0,0,0,77,80,134,120,57,121.39,210,-33.00,24.00,-999.00
2024-06-07 00:21:21.150330,0,0,-10,0,0,0,77,80,134,120,57,121.44,210,-14.00,33.00,-1024.00
2024-06-07 00:21:21.198894,0,0,-10,0,0,0,77,79,134,120,57,121.43,210,7.00,46.00,-919.00
2024-06-07 00:21:21.300712,0,0,-10,0,0,0,77,79,133,120,57,121.39,210,11.00,-4.00,-1024.00
2024-06-07 00:21:21.457599,0,0,-10,0,0,0,77,79,133,120,57,121.41,210,22.00,-26.00,-1017.00
2024-06-07 00:21:21.504369,0,0,-10,0,0,0,77,79,132,120,57,121.37,210,-28.00,10.00,-1039.00
2024-06-07 00:21:21.662289,0,0,-13,0,0,0,77,79,131,110,57,121.35,210,-32.00,29.00,-986.00
2024-06-07 00:21:21.708302,0,0,-19,0,0,0,77,79,131,110,57,121.38,210,62.00,-34.00,-1024.00
2024-06-07 00:21:21.866954,0,0,-25,0,0,0,77,79,131,110,57,121.31,210,36.00,-23.00,-1039.00
2024-06-07 00:21:21.912416,0,0,-31,0,0,0,77,79,130,110,57,121.37,211,31.00,-21.00,-1057.00
2024-06-07 00:21:22.014410,0,0,-37,0,0,0,77,79,130,110,57,121.35,211,10.00,-27.00,-1004.00
2024-06-07 00:21:22.162857,0,0,-43,0,0,0,77,79,131,110,57,121.37,211,-12.00,6.00,-1044.00
2024-06-07 00:21:22.262226,1,0,-49,0,0,0,77,79,132,110,57,121.37,211,56.00,0.00,-981.00
2024-06-07 00:21:22.326959,1,0,-55,0,0,0,77,79,132,110,57,121.42,211,27.00,-33.00,-1017.00
2024-06-07 00:21:22.452966,1,0,-60,0,0,0,77,79,133,110,57,121.33,211,20.00,-24.00,-1015.00
2024-06-07 00:21:22.525176,1,0,-66,0,0,0,77,79,133,110,57,121.40,211,7.00,-17.00,-1033.00
2024-06-07 00:21:22.826809,0,0,-72,0,0,0,77,79,134,120,57,121.40,211,31.00,-2.00,-1077.00
2024-06-07 00:21:22.826912,0,0,-78,0,0,0,77,79,135,120,57,121.43,211,47.00,-39.00,-977.00
2024-06-07 00:21:22.831157,0,0,-84,0,0,0,77,79,135,120,57,121.45,211,-8.00,20.00,-1038.00
2024-06-07 00:21:23.005481,0,0,-90,0,0,0,77,79,136,120,57,121.39,212,2.00,4.00,-984.00
2024-06-07 00:21:23.147412,0,0,-96,0,0,0,77,79,136,120,57,121.34,212,57.00,1.00,-988.00
2024-06-07 00:21:23.147637,0,0,-102,0,0,0,77,79,136,120,57,121.36,212,-7.00,19.00,-958.00
2024-06-07 00:21:23.316134,0,0,-108,0,0,0,77,78,137,120,57,121.46,212,15.00,20.00,-990.00
2024-06-07 00:21:23.341640,0,0,-114,0,0,0,77,78,137,120,57,121.46,212,23.00,-4.00,-1033.00
2024-06-07 00:21:23.461117,0,0,-120,0,0,0,77,78,137,120,57,121.43,212,-13.00,36.00,-993.00
2024-06-07 00:21:23.618464,0,0,-126,0,0,0,77,78,137,120,57,121.44,212,-19.00,26.00,-942.00
2024-06-07 00:21:23.761822,0,0,-132,0,0,0,77,78,136,120,57,121.45,212,4.00,4.00,-1016.00
2024-06-07 00:21:23.761997,0,0,-138,0,0,0,77,78,136,120,57,121.36,212,19.00,-17.00,-963.00
2024-06-07 00:21:23.925893,0,0,-144,0,0,0,77,78,136,120,57,121.42,212,-25.00,36.00,-953.00
2024-06-07 00:21:24.069144,0,0,-150,0,0,0,77,78,135,120,57,121.45,213,4.00,-4.00,-1052.00
2024-06-07 00:21:24.069442,0,0,-156,0,0,0,77,78,136,120,57,121.40,213,40.00,-15.00,-996.00
2024-06-07 00:21:24.233335,0,0,-162,0,0,0,77,78,135,120,57,121.42,213,-1.00,-7.00,-989.00
2024-06-07 00:21:24.259118,0,0,-168,0,0,0,77,79,136,120,57,121.36,213,17.00,8.00,-975.00
2024-06-07 00:21:24.376404,0,0,-174,0,0,0,77,79,134,120,57,121.40,213,32.00,4.00,-1024.00
2024-06-07 00:21:24.540088,0,0,179,0,0,0,77,79,136,120,57,121.45,213,-5.00,20.00,-976.00
2024-06-07 00:21:24.564978,0,0,173,0,0,0,77,79,136,120,57,121.43,213,19.00,-20.00,-1009.00
2024-06-07 00:21:24.694941,0,0,167,0,0,0,77,79,136,120,56,121.36,213,40.00,-18.00,-1040.00
2024-06-07 00:21:24.774180,0,0,161,0,0,0,77,79,136,120,56,121.41,213,-7.00,-17.00,-1040.00
2024-06-07 00:21:24.829836,0,0,155,0,0,0,77,79,136,120,56,121.45,213,1.00,5.00,-993.00
2024-06-07 00:21:24.922171,0,0,149,0,0,0,77,79,136,120,56,121.43,214,15.00,-14.00,-1017.00
2024-06-07 00:21:25.043016,0,0,143,0,0,0,77,79,137,120,56,121.39,214,-9.00,-24.00,-1033.00
2024-06-07 00:21:25.128095,0,0,137,0,0,0,77,79,137,120,56,121.44,214,34.00,-11.00,-1007.00
2024-06-07 00:21:25.229446,0,0,131,0,0,0,76,79,137,120,56,121.44,214,-38.00,18.00,-982.00
2024-06-07 00:21:25.354387,0,0,125,0,0,0,76,79,137,120,56,121.42,214,40.00,0.00,-984.00
2024-06-07 00:21:25.432168,0,0,119,0,0,0,76,79,138,120,56,121.42,214,-6.00,5.00,-976.00
2024-06-07 00:21:25.555542,0,0,113,0,0,0,76,79,138,120,56,121.38,214,-31.00,-34.00,-984.00
2024-06-07 00:21:25.636242,0,0,107,0,0,0,76,79,137,120,56,121.32,214,16.00,-31.00,-976.00
2024-06-07 00:21:25.758032,0,0,101,0,0,0,76,79,137,120,56,121.37,214,-21.00,-5.00,-1025.00
2024-06-07 00:21:25.840860,0,1,95,0,0,0,76,79,137,120,56,121.35,214,1.00,-32.00,-1012.00
2024-06-07 00:21:25.963370,0,1,89,0,0,0,76,79,136,120,56,121.40,215,45.00,-24.00,-1010.00
2024-06-07 00:21:26.043981,0,1,83,0,0,0,76,79,136,120,56,121.41,215,-1.00,-1.00,-957.00
2024-06-07 00:21:26.167884,0,1,77,0,0,0,76,79,136,120,56,121.37,215,25.00,-22.00,-962.00
2024-06-07 00:21:26.248023,0,1,71,0,0,0,76,79,136,120,56,121.33,215,21.00,-5.00,-987.00
2024-06-07 00:21:26.375651,0,0,65,0,0,0,76,79,136,120,56,121.37,215,-25.00,2.00,-985.00
2024-06-07 00:21:26.453263,0,1,59,0,0,0,76,79,136,120,56,121.39,215,51.00,-1.00,-985.00
2024-06-07 00:21:26.577270,0,1,52,0,0,0,76,79,137,120,56,121.38,215,-45.00,19.00,-975.00
2024-06-07 00:21:26.656284,0,1,46,0,0,0,76,79,136,120,56,121.39,215,14.00,-15.00,-1062.00
2024-06-07 00:21:26.758415,0,1,40,0,0,0,76,79,136,120,56,121.36,215,6.00,-13.00,-978.00
2024-06-07 00:21:26.860926,0,0,34,0,0,0,76,79,137,120,56,121.36,215,21.00,3.00,-1038.00
2024-06-07 00:21:26.963624,0,0,28,0,0,0,76,79,137,120,56,121.43,216,16.00,28.00,-999.00
2024-06-07 00:21:27.065578,1,0,22,0,0,0,76,79,137,120,56,121.39,216,39.00,-8.00,-990.00
2024-06-07 00:21:27.166463,0,0,15,0,0,0,76,79,137,120,56,121.46,216,-10.00,29.00,-981.00
2024-06-07 00:21:27.268009,0,0,9,0,0,0,77,79,137,120,56,121.44,216,34.00,2.00,-989.00
2024-06-07 00:21:27.396250,0,0,4,0,0,0,77,79,138,120,56,121.36,216,0.00,0.00,-986.00
2024-06-07 00:21:27.471828,0,0,0,0,0,0,77,79,137,120,56,121.40,216,-12.00,13.00,-1047.00
2024-06-07 00:21:27.601444,0,0,-2,0,0,0,77,79,138,120,56,121.45,216,56.00,-12.00,-943.00
2024-06-07 00:21:27.677400,1,0,-4,0,0,0,77,79,137,120,56,121.47,216,29.00,-12.00,-1027.00
2024-06-07 00:21:27.778115,1,0,-6,0,0,0,77,79,138,120,56,121.37,216,-37.00,39.00,-1018.00
2024-06-07 00:21:27.908324,0,0,-7,0,0,0,77,79,136,120,56,121.40,216,3.00,-3.00,-1027.00
2024-06-07 00:21:27.982210,0,0,-8,0,0,0,77,79,137,120,56,121.38,217,-12.00,13.00,-1013.00
2024-06-07 00:21:28.113682,0,0,-9,0,0,0,77,79,136,120,56,121.34,217,13.00,1.00,-965.00
2024-06-07 00:21:28.187379,0,0,-9,0,0,0,77,79,136,120,56,121.33,217,5.00,-9.00,-1058.00
2024-06-07 00:21:28.291379,0,0,-9,0,0,0,76,79,137,120,56,121.37,217,-27.00,0.00,-1015.00
2024-06-07 00:21:28.390084,0,0,-9,0,0,0,76,79,137,120,56,121.40,217,32.00,-20.00,-983.00
2024-06-07 00:21:28.522734,0,0,-9,0,0,0,76,79,136,120,56,121.35,217,-18.00,20.00,-960.00
2024-06-07 00:21:28.594264,0,0,-9,0,0,0,76,79,137,120,56,121.39,217,18.00,-15.00,-1045.00
2024-06-07 00:21:28.648732,0,0,-9,0,0,0,76,79,137,120,56,121.37,217,-1.00,-16.00,-1016.00
2024-06-07 00:21:28.749186,0,0,-9,0,0,0,76,79,136,120,56,121.44,217,5.00,7.00,-967.00
2024-06-07 00:21:28.850255,0,0,-9,0,0,0,76,79,136,120,56,121.41,217,69.00,-45.00,-980.00
2024-06-07 00:21:28.950824,0,0,-9,0,0,0,76,79,136,120,56,121.39,218,2.00,-19.00,-966.00
2024-06-07 00:21:29.137435,0,0,-9,0,0,0,76,79,136,120,56,121.40,218,-21.00,33.00,-1011.00
2024-06-07 00:21:29.154629,0,0,-9,0,0,0,76,79,137,120,56,121.40,218,-12.00,26.00,-1008.00
2024-06-07 00:21:29.256744,0,-1,-9,0,0,0,76,79,137,120,56,121.42,218,-36.00,39.00,-1000.00
2024-06-07 00:21:29.444378,-1,-1,-9,0,0,0,76,79,137,120,56,121.35,218,-33.00,21.00,-961.00
2024-06-07 00:21:29.464271,-1,-1,-9,0,0,0,76,79,137,120,56,121.43,218,-16.00,18.00,-930.00
2024-06-07 00:21:29.565083,-1,-1,-9,0,0,0,76,79,138,120,56,121.42,218,29.00,-16.00,-974.00
2024-06-07 00:21:29.664937,0,0,-9,0,0,0,76,79,139,120,55,121.39,218,35.00,-14.00,-1019.00
2024-06-07 00:21:29.853994,1,0,-9,0,0,0,76,79,140,120,55,121.35,218,-34.00,40.00,-960.00
2024-06-07 00:21:29.868697,1,1,-9,0,0,0,76,79,141,120,55,121.41,218,-3.00,-21.00,-1046.00
2024-06-07 00:21:29.970703,1,0,-9,0,0,0,76,79,141,120,55,121.47,219,24.00,-1.00,-963.00
2024-06-07 00:21:30.161494,0,0,-9,0,0,0,76,79,140,120,55,121.54,219,-21.00,-10.00,-1105.00
2024-06-07 00:21:30.174293,0,0,-10,0,0,-2,76,79,143,120,55,121.53,219,28.00,0.00,-1581.00
2024-06-07 00:21:30.277798,0,-1,-13,0,0,-8,76,79,167,130,55,121.64,219,-47.00,77.00,-1455.00
2024-06-07 00:21:30.469296,-4,-44,-16,-1,-1,-12,76,79,531,140,55,121.87,219,-51.00,386.00,-1098.00
2024-06-07 00:21:30.480404,-4,-163,-1,-2,-9,-5,76,79,225,150,55,121.85,219,-75.00,530.00,-1082.00
2024-06-07 00:21:30.673001,13,70,-15,-2,-7,9,76,79,168,150,55,121.97,219,-47.00,258.00,-1273.00
2024-06-07 00:21:30.684539,-1,-6,-28,-1,-2,11,76,79,152,130,55,121.46,219,16.00,-190.00,-1467.00
2024-06-07 00:21:30.877783,-1,-2,-33,-1,-4,9,76,79,141,120,55,121.43,219,6.00,0.00,-1460.00
2024-06-07 00:21:30.888387,1,4,-37,-1,-4,5,76,79,137,120,55,121.34,219,-7.00,-23.00,-1261.00
2024-06-07 00:21:31.082772,1,4,-35,-1,-3,2,76,79,135,110,55,121.46,220,3.00,-14.00,-1168.00
2024-06-07 00:21:31.092412,0,3,-28,-1,-2,0,76,79,135,110,55,121.30,220,18.00,-52.00,-1166.00
2024-06-07 00:21:31.287342,0,1,-16,0,-1,0,76,79,136,110,55,121.40,220,7.00,49.00,-1081.00
2024-06-07 00:21:31.296404,0,1,-9,-1,-1,0,76,79,137,110,55,121.34,220,30.00,6.00,-1021.00
2024-06-07 00:21:31.493791,0,0,-8,0,0,-1,76,79,139,110,55,121.37,220,-28.00,0.00,-1030.00
2024-06-07 00:21:31.500192,0,0,-8,0,0,-1,76,79,141,110,55,121.43,220,25.00,9.00,-959.00
2024-06-07 00:21:31.697096,0,1,-8,0,0,-1,76,79,143,110,55,121.42,220,9.00,-21.00,-1028.00
2024-06-07 00:21:31.704607,-1,2,-8,0,0,0,76,79,144,110,55,121.44,220,31.00,-1.00,-930.00
2024-06-07 00:21:31.903485,0,2,-8,0,0,0,76,79,145,110,55,121.45,220,49.00,-8.00,-914.00
2024-06-07 00:21:31.910081,0,1,-8,0,0,0,76,79,146,110,55,121.53,220,19.00,-32.00,-968.00
2024-06-07 00:21:32.010227,0,1,-8,0,0,0,76,79,146,110,55,121.44,221,-6.00,-6.00,-990.00
2024-06-07 00:21:32.211863,0,1,-8,0,0,0,76,79,147,120,55,121.40,221,17.00,-2.00,-934.00
2024-06-07 00:21:32.214890,0,1,-8,0,0,0,76,79,146,120,55,121.36,221,-3.00,6.00,-1036.00
2024-06-07 00:21:32.316276,0,1,-8,0,0,0,77,79,147,120,55,121.54,221,20.00,14.00,-1068.00
2024-06-07 00:21:32.418902,0,1,-9,0,0,0,77,79,147,120,55,121.41,221,2.00,-19.00,-1009.00
2024-06-07 00:21:32.471591,0,0,-9,0,0,0,77,79,146,120,55,121.45,221,-24.00,-1.00,-964.00
2024-06-07 00:21:32.571968,0,0,-9,0,0,0,77,79,145,120,55,121.45,221,-37.00,4.00,-1042.00
2024-06-07 00:21:32.673702,0,0,-9,0,0,0,77,79,145,110,54,121.42,221,33.00,-6.00,-1023.00
2024-06-07 00:21:32.823885,0,0,-9,0,0,0,77,79,144,110,54,121.41,221,35.00,-20.00,-1004.00
2024-06-07 00:21:32.877422,0,0,-9,0,0,0,77,79,144,110,54,121.47,221,21.00,-34.00,-1019.00
2024-06-07 00:21:33.028121,0,0,-9,0,0,0,77,79,144,110,54,121.47,222,58.00,-42.00,-989.00
2024-06-07 00:21:33.081376,0,0,-9,0,0,0,77,79,144,110,54,121.47,222,-11.00,1.00,-963.00
2024-06-07 00:21:33.214711,0,0,-9,0,0,0,77,79,144,110,54,121.47,222,36.00,6.00,-990.00
2024-06-07 00:21:33.289611,0,0,-9,0,0,0,77,79,144,110,54,121.48,222,-34.00,1.00,-1074.00
2024-06-07 00:21:33.387473,0,0,-9,0,0,0,77,79,144,110,54,121.45,222,5.00,-18.00,-999.00
2024-06-07 00:21:33.540043,0,0,-9,0,0,0,77,79,144,110,54,121.48,222,20.00,-2.00,-953.00
2024-06-07 00:21:33.591683,0,0,-9,0,0,0,77,79,144,110,54,121.49,222,-23.00,21.00,-1049.00
2024-06-07 00:21:33.747274,0,0,-9,0,0,0,77,79,144,110,54,121.47,222,-48.00,10.00,-1042.00
2024-06-07 00:21:33.796039,0,0,-9,0,0,0,77,79,144,110,54,121.44,222,21.00,-19.00,-1072.00
2024-06-07 00:21:33.949750,0,0,-9,0,0,0,77,79,145,110,54,121.38,222,-51.00,18.00,-960.00
2024-06-07 00:21:34.004290,0,0,-9,0,0,0,77,79,146,110,54,121.51,223,-33.00,3.00,-1013.00
2024-06-07 00:21:34.103139,0,0,-9,0,0,0,77,79,146,110,54,121.49,223,29.00,-14.00,-970.00
2024-06-07 00:21:34.260281,0,0,-9,0,0,0,77,79,146,120,54,121.44,223,42.00,-35.00,-980.00
2024-06-07 00:21:34.306108,0,0,-9,0,0,0,76,79,146,120,54,121.53,223,34.00,-25.00,-1042.00
2024-06-07 00:21:34.463380,0,0,-9,0,0,0,76,79,146,120,54,121.42,223,6.00,-33.00,-926.00
2024-06-07 00:21:34.509327,0,0,-9,0,0,0,76,79,146,120,54,121.49,223,18.00,-3.00,-954.00
2024-06-07 00:21:34.670424,0,0,-9,0,0,0,76,79,146,120,54,121.44,223,-1.00,-43.00,-1042.00
2024-06-07 00:21:34.713364,0,0,-9,0,0,0,76,79,147,120,54,121.42,223,9.00,-24.00,-1014.00
2024-06-07 00:21:34.872392,0,0,-9,0,0,0,76,79,145,120,54,121.44,223,20.00,-27.00,-940.00
2024-06-07 00:21:34.918190,0,0,-9,0,0,0,76,79,146,120,54,121.43,224,-19.00,0.00,-1012.00
2024-06-07 00:21:35.075943,0,0,-9,0,0,0,76,79,146,120,54,121.47,224,-25.00,-8.00,-1007.00
2024-06-07 00:21:35.121286,0,0,-9,0,0,0,76,79,144,120,54,121.41,224,-56.00,-8.00,-1091.00
2024-06-07 00:21:35.280924,0,0,-9,0,0,0,76,79,144,120,54,121.40,224,-29.00,0.00,-1089.00
2024-06-07 00:21:35.326150,0,0,-9,0,0,0,76,79,144,120,54,121.41,224,-5.00,-4.00,-976.00
2024-06-07 00:21:35.485966,0,0,-9,0,0,0,76,79,144,110,54,121.41,224,-24.00,36.00,-1005.00
2024-06-07 00:21:35.529383,0,0,-9,0,0,0,76,79,143,110,54,121.43,224,-22.00,-26.00,-1056.00
2024-06-07 00:21:35.690426,0,0,-9,0,0,0,76,79,143,110,54,121.42,224,31.00,-22.00,-970.00
2024-06-07 00:21:35.733290,0,0,-9,0,0,0,76,79,144,110,54,121.41,224,-48.00,40.00,-1041.00
2024-06-07 00:21:35.895251,0,0,-9,0,0,0,76,79,144,110,54,121.40,224,-22.00,2.00,-1052.00
2024-06-07 00:21:35.895611,0,0,-9,0,0,0,76,79,143,110,54,121.45,225,-15.00,-4.00,-1014.00
2024-06-07 00:21:35.988000,0,0,-9,0,0,0,76,79,144,110,54,121.45,225,-55.00,2.00,-1066.00
2024-06-07 00:21:36.101147,0,0,-9,0,0,0,76,79,144,110,54,121.37,225,-6.00,-15.00,-906.00
2024-06-07 00:21:36.192067,0,0,-9,0,0,0,76,79,143,110,54,121.44,225,30.00,-12.00,-1008.00
2024-06-07 00:21:36.295106,0,0,-9,0,0,0,75,79,143,110,54,121.35,225,-13.00,-2.00,-999.00
2024-06-07 00:21:36.408792,0,0,-9,0,0,0,75,79,143,110,54,121.32,225,-7.00,-17.00,-1055.00
2024-06-07 00:21:36.498012,-1,0,-9,0,0,0,75,79,143,110,54,121.37,225,-6.00,-7.00,-1024.00
2024-06-07 00:21:36.608102,0,0,-9,0,0,0,75,79,143,110,54,121.40,225,-37.00,17.00,-946.00
2024-06-07 00:21:36.701923,0,0,-10,0,0,-2,75,79,142,120,54,121.49,225,-48.00,-34.00,-1299.00
2024-06-07 00:21:36.818137,0,1,-11,0,0,-8,75,79,146,120,54,121.43,225,-55.00,-33.00,-1680.00
2024-06-07 00:21:36.905756,3,43,-12,0,2,-13,75,79,164,130,54,121.70,226,-16.00,-77.00,-1619.00
2024-06-07 00:21:37.021922,3,164,-5,1,10,-4,75,79,210,140,54,121.69,226,-102.00,657.00,-1237.00
2024-06-07 00:21:37.137345,-5,-70,-10,0,6,9,75,79,261,140,54,121.68,226,-75.00,719.00,-852.00
2024-06-07 00:21:37.328972,2,7,-18,0,2,11,75,79,165,130,54,121.95,226,-74.00,528.00,-956.00
2024-06-07 00:21:37.396476,1,1,-22,0,5,9,76,79,141,120,54,121.53,226,12.00,36.00,-1298.00
2024-06-07 00:21:37.416117,-2,-5,-26,0,4,4,76,79,134,110,54,121.50,226,27.00,-40.00,-1381.00
2024-06-07 00:21:37.567388,-2,-4,-26,0,3,1,76,79,131,110,54,121.43,226,14.00,-34.00,-1337.00
2024-06-07 00:21:37.635658,0,-2,-20,0,2,0,76,79,130,100,54,121.27,226,17.00,-51.00,-1182.00
2024-06-07 00:21:37.758917,0,-1,-11,0,1,0,76,79,130,100,53,121.29,226,0.00,-12.00,-1098.00
2024-06-07 00:21:37.823775,0,0,-9,0,1,-1,76,79,131,100,53,121.40,226,-5.00,-4.00,-1060.00
2024-06-07 00:21:37.943437,0,0,-8,0,1,-1,76,79,132,100,53,121.49,227,-26.00,10.00,-1005.00
2024-06-07 00:21:38.030131,0,0,-9,0,1,-1,76,79,134,100,53,121.37,227,39.00,-24.00,-1006.00
2024-06-07 00:21:38.210460,0,-2,-9,0,1,-1,76,79,136,110,53,121.40,227,23.00,10.00,-899.00
2024-06-07 00:21:38.233102,0,-2,-9,0,0,-1,76,79,137,110,53,121.38,227,-29.00,-9.00,-955.00
2024-06-07 00:21:38.373428,0,-2,-9,0,0,0,77,79,137,110,53,121.31,227,-20.00,2.00,-1016.00
2024-06-07 00:21:38.516697,0,-1,-9,0,0,0,77,79,137,110,53,121.31,227,43.00,-47.00,-985.00
2024-06-07 00:21:38.537897,0,0,-9,0,0,0,77,79,138,110,53,121.32,227,-19.00,-9.00,-975.00
2024-06-07 00:21:38.671417,0,0,-9,0,0,0,77,79,137,110,53,121.36,227,-39.00,-2.00,-942.00
2024-06-07 00:21:38.814660,0,0,-9,0,0,0,77,79,139,110,53,121.39,227,-39.00,3.00,-1006.00
2024-06-07 00:21:38.843606,0,0,-9,0,0,0,77,79,137,110,53,121.39,227,-15.00,-4.00,-964.00
2024-06-07 00:21:38.977749,0,0,-9,0,0,0,77,79,138,110,53,121.39,228,-2.00,3.00,-1057.00
2024-06-07 00:21:39.132686,0,0,-9,0,0,0,77,79,138,110,53,121.34,228,16.00,-25.00,-1039.00
2024-06-07 00:21:39.151823,0,0,-9,0,0,0,77,79,138,110,53,121.33,228,-63.00,25.00,-1027.00
2024-06-07 00:21:39.272440,0,0,-9,0,0,0,77,79,139,110,53,121.31,228,20.00,-22.00,-1046.00
2024-06-07 00:21:39.353608,0,0,-9,0,0,0,76,79,139,110,53,121.34,228,24.00,-36.00,-1037.00
2024-06-07 00:21:39.480741,0,0,-9,0,0,0,76,79,139,110,53,121.35,228,-18.00,17.00,-983.00
2024-06-07 00:21:39.557563,0,0,-9,0,0,0,76,79,139,110,53,121.31,228,5.00,-10.00,-1003.00
2024-06-07 00:21:39.659595,0,0,-9,0,0,0,76,79,139,110,53,121.33,228,8.00,-11.00,-997.00
2024-06-07 00:21:39.711384,0,0,-9,0,0,0,76,79,138,110,52,121.42,228,8.00,0.00,-993.00
2024-06-07 00:21:39.888516,0,0,-9,0,0,0,76,79,139,110,52,121.37,228,-21.00,0.00,-1015.00
2024-06-07 00:21:39.914757,0,0,-9,0,0,0,76,79,139,110,52,121.40,229,-8.00,13.00,-1025.00
2024-06-07 00:21:40.017060,0,0,-9,0,0,0,76,79,139,110,52,121.34,229,20.00,-5.00,-977.00
2024-06-07 00:21:40.200441,0,0,-9,0,0,0,76,79,139,110,52,121.39,229,-8.00,8.00,-971.00
2024-06-07 00:21:40.220809,0,0,-9,0,0,0,76,79,139,110,52,121.34,229,20.00,-25.00,-935.00
2024-06-07 00:21:40.322875,0,0,-9,0,0,0,76,79,138,110,52,121.39,229,-38.00,-7.00,-1024.00
2024-06-07 00:21:40.503066,0,0,-9,0,0,0,76,79,137,110,52,121.39,229,-2.00,-10.00,-928.00
2024-06-07 00:21:40.526843,0,0,-9,0,0,0,76,79,137,110,52,121.40,229,-44.00,10.00,-1049.00
2024-06-07 00:21:40.710014,0,0,-9,0,0,0,76,79,138,110,52,121.39,229,14.00,14.00,-1033.00
2024-06-07 00:21:40.731050,0,0,-9,0,0,0,76,79,137,110,52,121.36,229,12.00,-41.00,-994.00
2024-06-07 00:21:40.916355,0,0,-9,0,0,0,76,79,135,110,52,121.35,229,-10.00,1.00,-978.00
2024-06-07 00:21:40.936242,0,0,-9,0,0,0,76,79,136,100,52,121.35,230,-1.00,-6.00,-986.00
2024-06-07 00:21:41.121568,0,0,-9,0,0,0,76,79,136,100,52,121.41,230,20.00,-41.00,-1061.00
2024-06-07 00:21:41.140987,0,0,-9,0,0,0,76,79,134,100,52,121.42,230,14.00,-22.00,-931.00
2024-06-07 00:21:41.241530,0,0,-9,0,0,0,76,79,135,100,52,121.37,230,-36.00,15.00,-1052.00
2024-06-07 00:21:41.346571,0,0,-9,0,0,0,76,79,134,100,52,121.36,230,37.00,-48.00,-1030.00
2024-06-07 00:21:41.445807,0,0,-9,0,0,0,76,79,133,100,52,121.35,230,4.00,-22.00,-969.00
2024-06-07 00:21:41.634717,0,0,-9,0,0,0,76,79,133,100,52,121.33,230,-11.00,-15.00,-1035.00
2024-06-07 00:21:41.648701,0,0,-9,0,0,0,76,79,132,100,52,121.34,230,-47.00,21.00,-963.00
2024-06-07 00:21:41.835791,-1,0,-9,0,0,0,76,79,132,100,52,121.32,230,-4.00,-10.00,-1002.00
2024-06-07 00:21:41.852870,-1,0,-9,0,0,0,76,79,132,100,52,121.38,230,-62.00,40.00,-972.00
2024-06-07 00:21:42.043333,-1,0,-9,0,0,0,76,79,132,100,52,121.38,231,-34.00,-20.00,-1083.00
2024-06-07 00:21:42.056665,-1,0,-9,0,0,0,76,79,132,100,52,121.28,231,0.00,20.00,-965.00
2024-06-07 00:21:42.243854,-1,0,-9,0,0,0,76,79,131,100,52,121.30,231,15.00,-26.00,-1027.00
2024-06-07 00:21:42.260665,0,0,-9,0,0,0,76,79,131,100,52,121.32,231,-19.00,-40.00,-1033.00
2024-06-07 00:21:42.448875,0,0,-9,0,0,0,77,79,131,100,52,121.34,231,-4.00,2.00,-935.00
2024-06-07 00:21:42.464739,1,1,-9,0,0,0,77,79,131,100,52,121.35,231,-37.00,22.00,-1004.00
2024-06-07 00:21:42.655855,0,0,-9,0,0,0,77,79,130,100,52,121.37,231,-15.00,9.00,-1015.00
2024-06-07 00:21:42.668700,0,0,-9,0,0,0,77,79,130,100,52,121.40,231,-20.00,-21.00,-1118.00
2024-06-07 00:21:42.858030,0,0,-9,0,0,0,77,79,131,100,52,121.35,231,0.00,16.00,-1017.00
2024-06-07 00:21:42.872983,0,0,-9,0,0,0,77,79,132,100,52,121.31,231,-31.00,-4.00,-972.00
2024-06-07 00:21:43.063645,0,0,-9,0,0,0,77,79,131,100,52,121.35,232,37.00,-48.00,-1044.00
