TS,pitch,roll,yaw,vgx,vgy,vgz,templ,temph,tof,h,bat,baro,time,agx,agy,agz
2024-06-07 11:06:08.414509,0,0,14,0,0,0,65,68,10,0,92,133.23,0,-11.00,9.00,-997.00
2024-06-07 11:06:08.509086,0,0,14,0,0,0,65,68,10,0,92,133.28,0,-10.00,9.00,-1000.00
2024-06-07 11:06:08.611443,0,0,14,0,0,0,65,68,10,0,92,133.26,0,-10.00,9.00,-998.00
2024-06-07 11:06:08.713067,0,0,14,0,0,0,65,68,10,0,92,133.26,0,-10.00,8.00,-997.00
2024-06-07 11:06:08.823615,0,0,14,0,0,0,65,67,10,0,92,133.30,0,-10.00,9.00,-997.00
2024-06-07 11:06:08.916797,0,0,14,0,0,0,65,67,10,0,92,133.27,0,-11.00,9.00,-996.00
2024-06-07 11:06:09.028619,0,0,14,0,0,0,65,67,10,0,92,133.28,0,-11.00,9.00,-997.00
2024-06-07 11:06:09.120983,0,0,14,0,0,0,65,67,10,0,92,133.29,0,-11.00,9.00,-999.00
2024-06-07 11:06:09.233655,0,0,14,0,0,0,65,67,10,0,92,133.29,0,-8.00,9.00,-999.00
2024-06-07 11:06:09.324917,0,0,14,0,0,0,65,67,10,0,92,133.27,0,-10.00,9.00,-998.00
2024-06-07 11:06:09.438208,0,0,14,0,0,0,65,67,10,0,92,133.25,0,-10.00,9.00,-997.00
2024-06-07 11:06:09.528854,0,0,14,0,0,0,65,67,10,0,92,133.26,0,-10.00,8.00,-999.00
2024-06-07 11:06:09.642956,0,0,14,0,0,0,65,67,10,0,92,133.27,0,-11.00,8.00,-997.00
2024-06-07 11:06:09.734488,0,0,14,0,0,0,65,67,10,0,92,133.29,0,-11.00,8.00,-999.00
2024-06-07 11:06:09.834945,0,0,14,0,0,0,65,67,10,0,92,133.25,0,-12.00,8.00,-999.00
2024-06-07 11:06:09.950192,0,0,14,0,0,0,65,67,10,0,92,133.28,0,-11.00,8.00,-1001.00
2024-06-07 11:06:10.041628,0,0,14,0,0,0,65,67,10,0,92,133.28,0,-10.00,8.00,-998.00
2024-06-07 11:06:10.141155,0,0,14,0,0,0,65,67,10,0,92,133.20,0,-9.00,8.00,-1000.00
2024-06-07 11:06:10.242918,0,0,14,0,0,0,65,67,10,0,92,133.23,0,-11.00,8.00,-1001.00
2024-06-07 11:06:10.359746,0,0,14,0,0,0,65,67,10,0,92,133.26,0,-11.00,9.00,-998.00
2024-06-07 11:06:10.446822,0,0,14,0,0,0,65,67,10,0,92,133.27,0,-10.00,7.00,-999.00
2024-06-07 11:06:10.548976,0,0,14,0,0,0,65,67,10,0,92,133.24,0,-12.00,9.00,-1000.00
2024-06-07 11:06:10.666920,0,0,14,0,0,0,65,67,10,0,92,133.25,0,-11.00,8.00,-997.00
2024-06-07 11:06:10.753021,0,0,14,0,0,0,65,67,10,0,92,133.25,0,-11.00,10.00,-995.00
2024-06-07 11:06:10.871560,0,0,14,0,0,0,66,68,10,0,92,133.29,0,-11.00,7.00,-999.00
2024-06-07 11:06:10.958304,0,0,14,0,0,0,66,68,10,0,92,133.29,0,-11.00,9.00,-998.00
2024-06-07 11:06:11.059830,0,0,14,0,0,0,66,68,10,0,92,133.20,0,-11.00,7.00,-1001.00
2024-06-07 11:06:11.179017,0,0,14,0,0,0,66,68,10,0,92,133.28,0,-11.00,8.00,-998.00
2024-06-07 11:06:11.263565,0,0,14,0,0,0,66,68,10,0,92,133.33,0,-9.00,9.00,-999.00
2024-06-07 11:06:11.313603,0,0,14,0,0,0,66,68,10,0,92,133.22,0,-11.00,8.00,-998.00
2024-06-07 11:06:11.415654,0,0,14,0,0,0,66,68,10,0,92,133.32,0,-11.00,9.00,-999.00
2024-06-07 11:06:11.588543,0,0,14,0,0,0,66,68,10,0,92,133.22,0,-10.00,7.00,-999.00
2024-06-07 11:06:11.619833,0,0,14,0,0,0,66,68,10,0,92,133.28,0,-11.00,9.00,-996.00
2024-06-07 11:06:11.721635,0,0,14,0,0,0,66,68,10,0,92,133.27,0,-11.00,8.00,-998.00
2024-06-07 11:06:11.892077,0,0,14,0,0,0,66,67,10,0,92,133.23,0,-12.00,9.00,-999.00
2024-06-07 11:06:11.925516,0,0,14,0,0,0,66,67,10,0,92,133.28,0,-12.00,8.00,-996.00
2024-06-07 11:06:12.100447,0,0,14,0,0,0,66,67,10,0,92,133.22,0,-1.00,17.00,-992.00
2024-06-07 11:06:12.129229,0,0,14,0,0,0,66,67,10,0,92,133.22,0,-1.00,18.00,-1007.00
2024-06-07 11:06:12.231880,0,0,14,0,0,0,66,67,10,0,92,133.22,0,0.00,2.00,-994.00
2024-06-07 11:06:12.407499,0,0,14,0,0,0,66,67,10,0,92,133.22,0,9.00,6.00,-1004.00
2024-06-07 11:06:12.435480,0,0,15,0,0,0,66,67,10,0,92,133.22,0,-29.00,19.00,-1054.00
2024-06-07 11:06:12.612432,0,0,15,0,0,0,66,67,10,0,92,133.22,0,27.00,-25.00,-1126.00
2024-06-07 11:06:12.639258,1,0,14,0,0,-1,66,67,11,0,92,133.22,0,-24.00,-5.00,-1385.00
2024-06-07 11:06:12.741809,0,0,14,0,0,-4,66,67,12,0,92,133.22,0,-44.00,27.00,-1185.00
2024-06-07 11:06:12.919601,-1,1,14,0,0,-6,66,68,15,10,92,133.51,0,-31.00,-21.00,-1183.00
2024-06-07 11:06:12.945364,-2,0,14,0,0,-8,66,68,20,10,92,133.56,0,-9.00,-3.00,-1076.00
2024-06-07 11:06:13.047957,-2,0,14,0,0,-8,66,68,28,20,92,133.55,1,-48.00,-4.00,-994.00
2024-06-07 11:06:13.149455,-2,0,14,0,0,-8,66,68,39,30,92,133.70,1,-27.00,-14.00,-931.00
2024-06-07 11:06:13.329537,-2,0,14,0,0,-7,66,68,47,30,92,133.81,1,-35.00,-27.00,-915.00
2024-06-07 11:06:13.353341,-2,0,14,0,0,-6,66,68,54,40,92,133.87,1,-48.00,0.00,-862.00
2024-06-07 11:06:13.464710,-2,0,14,0,0,-5,66,68,60,50,92,133.90,1,-29.00,-18.00,-873.00
2024-06-07 11:06:13.557373,-2,0,14,0,0,-4,66,68,64,50,92,133.91,1,-44.00,-12.00,-824.00
2024-06-07 11:06:13.741068,-3,0,14,0,0,-3,66,68,68,60,92,133.95,1,-42.00,-38.00,-949.00
2024-06-07 11:06:13.761342,-3,0,14,0,0,-2,66,68,72,60,92,133.99,1,-64.00,-9.00,-920.00
2024-06-07 11:06:13.943511,-4,0,14,0,0,-1,67,69,74,60,92,133.92,1,-78.00,0.00,-932.00
2024-06-07 11:06:13.965310,-4,0,14,0,0,-1,67,69,75,60,92,134.02,2,-30.00,-28.00,-984.00
2024-06-07 11:06:14.148433,-4,0,14,0,0,-1,67,69,77,70,92,133.98,2,-66.00,6.00,-965.00
2024-06-07 11:06:14.169429,-4,0,14,0,0,0,67,69,78,70,92,134.05,2,-73.00,15.00,-956.00
2024-06-07 11:06:14.353330,-4,0,14,0,0,0,67,69,80,70,92,134.05,2,-67.00,4.00,-986.00
2024-06-07 11:06:14.373311,-4,0,14,0,0,0,67,69,81,70,92,134.06,2,-41.00,-3.00,-972.00
2024-06-07 11:06:14.558475,-4,0,14,0,0,0,67,69,82,70,92,134.08,2,-67.00,0.00,-951.00
2024-06-07 11:06:14.577291,-4,0,14,0,0,0,67,69,83,70,92,134.04,2,-70.00,0.00,-978.00
2024-06-07 11:06:14.628507,-4,0,14,0,0,0,67,69,83,70,92,133.99,2,-70.00,-8.00,-1011.00
2024-06-07 11:06:14.730633,-4,0,14,0,0,0,67,69,84,70,92,134.07,2,-77.00,-2.00,-972.00
2024-06-07 11:06:14.865220,-4,0,14,0,0,0,66,68,84,70,92,133.91,2,-62.00,5.00,-1022.00
2024-06-07 11:06:14.934709,-4,0,14,0,0,0,66,68,85,70,92,133.95,3,-47.00,-17.00,-987.00
2024-06-07 11:06:15.036566,-4,0,14,0,0,0,66,68,85,70,92,133.95,3,-53.00,0.00,-1003.00
2024-06-07 11:06:15.172785,-4,0,14,0,0,0,66,68,85,70,92,134.09,3,-74.00,-30.00,-993.00
2024-06-07 11:06:15.240541,-4,0,14,0,0,0,66,68,84,70,92,134.05,3,-80.00,-7.00,-957.00
2024-06-07 11:06:15.381345,-5,0,14,0,0,0,66,68,84,70,92,133.85,3,-87.00,1.00,-957.00
2024-06-07 11:06:15.444442,-5,0,14,0,0,0,66,68,83,70,92,133.97,3,-71.00,-17.00,-1007.00
2024-06-07 11:06:15.546522,-5,0,14,0,0,0,66,68,83,70,92,134.01,3,-75.00,-10.00,-997.00
2024-06-07 11:06:15.684449,-5,0,14,0,0,0,66,68,82,70,92,134.02,3,-74.00,-14.00,-957.00
2024-06-07 11:06:15.750583,-5,0,14,0,0,0,66,68,82,70,92,133.93,3,-78.00,-19.00,-1027.00
2024-06-07 11:06:15.852389,-5,0,14,0,0,0,66,69,82,70,92,133.90,3,-91.00,4.00,-973.00
2024-06-07 11:06:15.991970,-5,0,14,0,0,0,66,69,82,70,92,133.88,4,-45.00,-40.00,-1004.00
2024-06-07 11:06:16.056754,-4,0,14,0,0,0,66,69,81,70,92,133.95,4,-111.00,-31.00,-1109.00
2024-06-07 11:06:16.199720,-4,0,14,0,0,0,66,69,82,70,92,133.86,4,-59.00,-29.00,-965.00
2024-06-07 11:06:16.260494,-4,0,14,0,0,0,66,69,82,70,92,134.02,4,-68.00,0.00,-977.00
2024-06-07 11:06:16.403398,-4,0,15,0,0,0,66,69,82,70,92,133.90,4,-67.00,-23.00,-1026.00
2024-06-07 11:06:16.464440,-4,0,14,0,0,0,66,69,83,70,92,133.95,4,-91.00,-8.00,-994.00
2024-06-07 11:06:16.566654,-4,0,14,0,0,0,66,69,83,70,92,133.98,4,-45.00,-32.00,-984.00
2024-06-07 11:06:16.708444,-4,0,14,0,0,0,66,69,83,70,92,133.90,4,-29.00,-11.00,-973.00
2024-06-07 11:06:16.770650,-4,0,14,0,0,0,66,69,83,70,92,133.87,4,-48.00,12.00,-1007.00
2024-06-07 11:06:16.872378,-3,0,14,0,0,0,67,69,84,70,92,133.89,4,-57.00,-13.00,-994.00
2024-06-07 11:06:17.015575,-3,0,14,0,0,0,67,69,84,70,92,133.87,5,-77.00,-27.00,-1053.00
2024-06-07 11:06:17.076476,-4,0,14,0,0,0,67,69,85,70,92,133.91,5,-76.00,9.00,-1013.00
2024-06-07 11:06:17.221884,-3,0,14,0,0,0,67,69,86,70,92,133.82,5,-89.00,-26.00,-954.00
2024-06-07 11:06:17.280510,-4,0,14,0,0,0,67,69,86,70,92,133.94,5,-62.00,-22.00,-966.00
2024-06-07 11:06:17.426758,-3,0,14,0,0,0,67,69,86,70,92,133.86,5,-62.00,2.00,-1033.00
2024-06-07 11:06:17.484478,-3,0,14,0,0,0,67,69,86,80,92,133.93,5,-67.00,-9.00,-987.00
2024-06-07 11:06:17.630801,-3,0,14,0,0,0,67,69,86,80,92,133.93,5,-64.00,0.00,-992.00
2024-06-07 11:06:17.688390,-3,0,14,0,0,0,67,69,87,80,92,133.91,5,-72.00,-10.00,-987.00
2024-06-07 11:06:17.834852,-3,0,14,0,0,0,67,69,87,80,92,133.88,5,-60.00,-37.00,-995.00
2024-06-07 11:06:17.892199,-4,0,14,0,0,0,66,69,87,80,92,133.80,5,-99.00,-2.00,-961.00
2024-06-07 11:06:18.040845,-4,0,14,0,0,0,66,69,87,80,92,133.95,6,-80.00,-21.00,-1001.00
2024-06-07 11:06:18.096339,-4,0,14,0,0,0,66,69,88,80,92,133.95,6,-89.00,0.00,-1015.00
2024-06-07 11:06:18.246794,-4,0,14,0,0,0,66,69,87,80,92,133.90,6,-77.00,-32.00,-942.00
2024-06-07 11:06:18.300482,-4,0,14,0,0,0,66,69,88,80,92,133.93,6,-70.00,-26.00,-987.00
2024-06-07 11:06:18.449743,-4,0,14,0,0,0,66,69,88,80,92,133.83,6,-64.00,-3.00,-962.00
2024-06-07 11:06:18.504288,-4,0,14,0,0,0,66,69,88,80,92,133.86,6,-86.00,6.00,-967.00
2024-06-07 11:06:18.555006,-4,0,14,0,0,0,66,69,88,80,92,133.85,6,-88.00,-26.00,-976.00
2024-06-07 11:06:18.657114,-4,0,14,0,0,0,66,69,88,80,92,133.82,6,-44.00,-4.00,-1031.00
2024-06-07 11:06:18.759057,-4,0,14,0,0,0,66,69,88,80,92,133.88,6,-80.00,-1.00,-931.00
2024-06-07 11:06:18.965338,-4,0,14,0,0,0,67,69,87,80,92,133.76,6,-108.00,-6.00,-960.00
2024-06-07 11:06:19.014363,-4,0,14,0,0,0,67,69,87,80,92,133.89,7,-85.00,3.00,-1050.00
2024-06-07 11:06:19.166840,-4,0,14,0,0,0,67,69,88,80,92,133.93,7,-51.00,3.00,-945.00
2024-06-07 11:06:19.167006,-4,0,14,0,0,0,67,69,87,80,92,133.79,7,-78.00,-22.00,-1014.00
2024-06-07 11:06:19.371634,-4,0,15,0,0,0,67,69,87,80,92,133.83,7,-73.00,-18.00,-1042.00
2024-06-07 11:06:19.371683,-4,0,15,0,0,0,67,69,86,80,92,133.97,7,-59.00,-28.00,-1029.00
2024-06-07 11:06:19.473070,-4,0,15,0,0,0,67,69,86,80,92,133.91,7,-50.00,-11.00,-972.00
2024-06-07 11:06:19.575840,-4,0,14,0,0,0,67,69,85,70,92,133.83,7,-47.00,11.00,-974.00
2024-06-07 11:06:19.678205,-3,0,14,0,0,0,67,69,85,70,92,133.76,7,-94.00,8.00,-1051.00
2024-06-07 11:06:19.781804,-3,0,14,0,0,0,67,69,84,70,92,133.85,7,-40.00,-1.00,-1013.00
2024-06-07 11:06:19.881020,-3,0,14,0,0,0,66,69,84,70,92,133.86,7,-63.00,10.00,-1037.00
2024-06-07 11:06:19.986910,-3,0,14,0,0,0,66,69,85,80,92,133.81,8,-61.00,-5.00,-917.00
2024-06-07 11:06:20.084976,-3,0,14,0,0,0,66,69,84,80,92,133.75,8,-58.00,-8.00,-1061.00
2024-06-07 11:06:20.187319,-3,0,14,0,0,0,66,69,84,80,92,133.83,8,-67.00,-28.00,-942.00
2024-06-07 11:06:20.292459,-3,0,14,0,0,0,66,69,85,80,92,133.78,8,-56.00,-22.00,-994.00
2024-06-07 11:06:20.391014,-3,0,14,0,0,0,66,69,85,80,92,133.84,8,-42.00,-36.00,-1013.00
2024-06-07 11:06:20.497255,-3,0,15,0,0,0,66,69,84,80,92,133.80,8,-49.00,-27.00,-1024.00
2024-06-07 11:06:20.596406,-4,0,14,0,0,0,66,69,84,80,92,133.75,8,-98.00,-6.00,-996.00
2024-06-07 11:06:20.696979,-4,0,14,0,0,0,66,69,84,80,92,133.74,8,-75.00,-38.00,-971.00
2024-06-07 11:06:20.806855,-4,0,14,0,0,0,66,69,84,70,92,133.74,8,-46.00,-52.00,-973.00
2024-06-07 11:06:20.901076,-4,0,14,0,0,0,66,68,84,70,92,133.87,8,-99.00,-42.00,-997.00
2024-06-07 11:06:21.009478,-3,0,14,0,0,0,66,68,84,70,92,133.84,9,-73.00,1.00,-1008.00
2024-06-07 11:06:21.107250,-3,0,15,0,0,0,66,68,84,70,92,133.92,9,-117.00,1.00,-1025.00
2024-06-07 11:06:21.207174,-3,0,15,0,0,0,66,68,83,70,92,133.82,9,-34.00,-35.00,-1033.00
2024-06-07 11:06:21.316941,-3,0,15,0,0,0,66,68,84,70,92,133.73,9,-78.00,-7.00,-1000.00
2024-06-07 11:06:21.411091,-4,0,15,0,0,0,66,68,83,70,92,133.87,9,-40.00,-28.00,-961.00
2024-06-07 11:06:21.524176,-3,0,14,0,0,0,66,68,84,70,92,133.83,9,-50.00,-12.00,-974.00
2024-06-07 11:06:21.615801,-3,0,14,0,0,0,66,68,84,70,92,133.86,9,-71.00,-19.00,-1034.00
2024-06-07 11:06:21.726902,-3,0,14,0,0,0,66,68,84,70,92,133.80,9,-48.00,-17.00,-1043.00
2024-06-07 11:06:21.818995,-3,0,14,0,0,0,66,68,83,70,92,133.80,9,-15.00,-9.00,-992.00
2024-06-07 11:06:21.931603,-3,0,14,0,0,0,67,69,83,70,92,133.82,9,-38.00,-27.00,-957.00
2024-06-07 11:06:22.023043,-3,0,14,0,0,0,67,69,83,70,92,133.70,10,-59.00,0.00,-1014.00
2024-06-07 11:06:22.139273,-3,0,14,0,0,0,67,69,83,70,92,133.72,10,-73.00,-21.00,-933.00
2024-06-07 11:06:22.235506,-4,0,14,0,0,0,67,69,83,70,92,133.76,10,-33.00,-11.00,-1047.00
2024-06-07 11:06:22.329324,-4,0,14,0,0,0,67,69,83,70,92,133.76,10,-76.00,20.00,-970.00
2024-06-07 11:06:22.443810,-4,0,14,0,0,0,67,69,83,70,92,133.76,10,-56.00,-22.00,-972.00
2024-06-07 11:06:22.534087,-4,0,14,0,0,0,67,69,82,70,92,133.74,10,-61.00,-10.00,-1003.00
2024-06-07 11:06:22.648466,-3,0,14,0,0,0,67,69,82,70,92,133.67,10,-72.00,-40.00,-980.00
2024-06-07 11:06:22.736934,-4,0,14,0,0,0,67,69,82,70,92,133.75,10,-70.00,-17.00,-952.00
2024-06-07 11:06:22.852394,-4,0,14,0,0,0,67,69,82,70,92,133.70,10,-73.00,-1.00,-1001.00
2024-06-07 11:06:22.940943,-4,0,14,0,0,0,67,70,83,70,92,133.65,10,-120.00,7.00,-1068.00
2024-06-07 11:06:22.992132,-4,0,14,0,0,0,67,70,83,70,92,133.64,11,-98.00,16.00,-1089.00
2024-06-07 11:06:23.160471,-4,0,14,0,0,-1,67,70,85,70,92,133.77,11,-110.00,8.00,-1125.00
2024-06-07 11:06:23.196144,-4,0,14,0,0,-2,67,70,88,80,92,133.69,11,-135.00,-3.00,-1173.00
2024-06-07 11:06:23.365381,-5,0,14,0,0,-3,67,70,91,80,92,133.80,11,-97.00,-20.00,-1034.00
2024-06-07 11:06:23.400160,-5,0,14,0,0,-4,67,70,95,80,92,133.83,11,-96.00,1.00,-1038.00
2024-06-07 11:06:23.502499,-5,0,14,0,0,-4,67,70,100,90,92,133.92,11,-116.00,-20.00,-999.00
2024-06-07 11:06:23.673109,-5,0,14,0,0,-5,67,70,106,90,92,134.02,11,-91.00,-26.00,-998.00
2024-06-07 11:06:23.707508,-4,0,14,0,0,-5,67,70,111,100,92,134.11,11,-98.00,-9.00,-1046.00
2024-06-07 11:06:23.808004,-4,0,14,0,0,-5,67,70,117,100,92,134.13,11,-89.00,-6.00,-990.00
2024-06-07 11:06:23.979106,-4,0,14,0,0,-5,66,70,125,110,92,134.20,11,-89.00,19.00,-946.00
2024-06-07 11:06:24.012189,-4,0,14,0,0,-5,66,70,131,120,92,134.18,12,-92.00,-30.00,-967.00
2024-06-07 11:06:24.184150,-4,0,14,0,0,-5,66,70,137,120,92,134.22,12,-46.00,-33.00,-976.00
2024-06-07 11:06:24.216727,-4,0,15,0,0,-4,66,70,142,130,92,134.22,12,-75.00,-13.00,-999.00
2024-06-07 11:06:24.388386,-4,0,14,0,0,-5,66,70,148,130,92,134.27,12,-63.00,-31.00,-1018.00
2024-06-07 11:06:24.421141,-4,0,14,0,0,-4,66,70,152,140,92,134.33,12,-93.00,9.00,-1061.00
2024-06-07 11:06:24.593267,-4,0,14,0,0,-4,66,70,156,140,92,134.36,12,-71.00,-14.00,-997.00
2024-06-07 11:06:24.624845,-4,0,14,0,0,-3,66,70,160,150,92,134.32,12,-104.00,-32.00,-928.00
2024-06-07 11:06:24.798636,-5,0,14,0,0,-3,66,70,164,150,92,134.27,12,-49.00,-26.00,-877.00
2024-06-07 11:06:24.828622,-5,0,14,0,0,-3,66,70,164,150,92,134.43,12,-43.00,-5.00,-900.00
2024-06-07 11:06:25.002743,-5,0,14,0,0,-2,67,70,169,150,92,134.30,12,-71.00,-4.00,-997.00
2024-06-07 11:06:25.032875,-5,0,14,0,0,-2,67,70,170,160,92,134.40,13,-76.00,19.00,-946.00
2024-06-07 11:06:25.207589,-5,0,14,0,0,-2,67,70,173,160,92,134.39,13,-65.00,-23.00,-941.00
2024-06-07 11:06:25.236732,-4,0,14,0,0,-1,67,70,173,160,92,134.41,13,-105.00,0.00,-972.00
2024-06-07 11:06:25.412755,-4,0,14,0,0,-1,67,70,175,160,92,134.22,13,-82.00,6.00,-908.00
2024-06-07 11:06:25.442967,-5,0,14,0,0,-1,67,70,178,160,92,134.51,13,-104.00,-6.00,-983.00
2024-06-07 11:06:25.542778,-5,-1,14,0,0,-1,67,70,176,170,92,134.50,13,-60.00,21.00,-988.00
2024-06-07 11:06:25.720848,-5,0,14,0,0,0,67,70,176,170,92,134.49,13,-74.00,-10.00,-950.00
2024-06-07 11:06:25.746829,-5,0,14,0,0,0,67,70,178,170,92,134.55,13,-110.00,16.00,-962.00
2024-06-07 11:06:25.849241,-5,0,15,0,0,0,67,70,178,170,92,134.58,13,-87.00,28.00,-1014.00
2024-06-07 11:06:26.027221,-5,-1,15,0,0,0,67,70,180,170,92,134.53,13,-92.00,-15.00,-954.00
2024-06-07 11:06:26.053454,-5,-1,15,0,0,0,67,70,180,170,92,134.46,14,-73.00,9.00,-972.00
2024-06-07 11:06:26.231574,-5,-1,15,0,0,0,67,70,180,170,92,134.50,14,-95.00,11.00,-1043.00
2024-06-07 11:06:26.256685,-5,-1,15,0,0,0,67,70,180,170,92,134.44,14,-73.00,-9.00,-978.00
2024-06-07 11:06:26.437320,-4,-1,15,0,0,0,67,70,181,170,92,134.49,14,-82.00,14.00,-990.00
2024-06-07 11:06:26.460717,-4,-1,15,0,0,0,67,70,182,170,92,134.43,14,-72.00,5.00,-1010.00
2024-06-07 11:06:26.641276,-4,-1,14,0,0,0,67,70,182,170,92,134.54,14,-69.00,-26.00,-999.00
2024-06-07 11:06:26.664685,-4,-2,14,0,0,0,67,70,181,170,92,134.47,14,-85.00,-23.00,-1011.00
2024-06-07 11:06:26.767211,-4,-1,14,0,0,0,67,70,180,170,92,134.47,14,-109.00,13.00,-963.00
2024-06-07 11:06:26.817764,-4,-1,14,0,0,0,67,70,182,170,92,134.47,14,-76.00,13.00,-964.00
2024-06-07 11:06:26.948441,-5,-1,14,0,0,0,68,70,182,170,92,134.50,14,-71.00,25.00,-1027.00
2024-06-07 11:06:27.024224,-5,0,14,0,0,0,68,70,182,170,92,134.49,15,-63.00,28.00,-989.00
2024-06-07 11:06:27.124892,-5,-1,15,0,0,0,68,70,183,170,92,134.55,15,-111.00,31.00,-1022.00
2024-06-07 11:06:27.225703,-5,-1,14,0,0,0,68,70,184,170,92,134.55,15,-100.00,34.00,-985.00
2024-06-07 11:06:27.358023,-5,-1,14,0,0,0,68,70,182,170,92,134.54,15,-50.00,14.00,-1033.00
2024-06-07 11:06:27.430076,-5,-2,14,0,0,0,68,70,183,170,92,134.55,15,-59.00,-4.00,-937.00
2024-06-07 11:06:27.563206,-5,-1,14,0,0,0,68,70,185,170,92,134.55,15,-65.00,3.00,-935.00
2024-06-07 11:06:27.634060,-4,0,14,0,0,0,68,70,184,170,92,134.54,15,-90.00,17.00,-1025.00
2024-06-07 11:06:27.768228,-4,0,14,0,0,0,68,70,186,170,92,134.58,15,-57.00,-6.00,-1011.00
2024-06-07 11:06:27.837850,-4,-1,14,0,0,0,68,70,186,170,92,134.59,15,-87.00,16.00,-1005.00
2024-06-07 11:06:27.972364,-5,-1,14,0,0,0,67,70,185,170,92,134.46,16,-55.00,4.00,-971.00
2024-06-07 11:06:28.041821,-5,-1,15,0,0,0,67,70,186,170,92,134.65,16,-94.00,3.00,-923.00
2024-06-07 11:06:28.177130,-5,-1,15,0,0,0,67,70,187,170,92,134.52,16,-55.00,-5.00,-930.00
2024-06-07 11:06:28.245624,-4,-1,14,0,0,1,67,70,185,170,92,134.47,16,-73.00,21.00,-978.00
2024-06-07 11:06:28.347848,-4,-1,14,0,0,1,67,70,182,170,92,134.40,16,-91.00,26.00,-980.00
2024-06-07 11:06:28.484380,-5,-1,15,0,0,1,67,70,184,170,92,134.55,16,-108.00,44.00,-956.00
2024-06-07 11:06:28.552459,-5,-1,15,0,0,1,67,70,181,170,92,134.39,16,-73.00,16.00,-993.00
2024-06-07 11:06:28.689629,-5,0,15,0,0,2,67,70,180,170,92,134.50,16,-112.00,53.00,-972.00
2024-06-07 11:06:28.760394,-6,0,15,0,0,2,67,70,177,160,92,134.60,16,-90.00,14.00,-1083.00
2024-06-07 11:06:28.861244,-6,-1,15,0,0,2,67,70,174,160,92,134.51,16,-81.00,52.00,-1001.00
2024-06-07 11:06:28.959501,-5,-2,14,0,0,2,67,70,170,160,92,134.43,17,-58.00,41.00,-936.00
2024-06-07 11:06:29.098716,-5,-2,15,0,0,3,67,70,168,160,92,134.37,17,-83.00,-35.00,-934.00
2024-06-07 11:06:29.163351,-5,-2,14,0,0,3,67,70,164,150,92,134.31,17,-112.00,-2.00,-1066.00
2024-06-07 11:06:29.305082,-5,-1,14,0,0,3,67,70,162,150,92,134.26,17,-90.00,-13.00,-1010.00
2024-06-07 11:06:29.367907,-5,0,14,0,0,2,67,70,159,150,92,134.06,17,-77.00,-10.00,-993.00
2024-06-07 11:06:29.508329,-6,0,14,0,0,2,67,70,156,140,92,134.20,17,-72.00,5.00,-1045.00
2024-06-07 11:06:29.571377,-6,0,14,0,0,2,67,70,155,140,92,134.07,17,-124.00,25.00,-1002.00
2024-06-07 11:06:29.713140,-6,0,14,0,0,2,67,70,153,140,92,134.15,17,-118.00,25.00,-981.00
2024-06-07 11:06:29.775830,-6,-1,15,0,0,1,67,70,153,140,92,134.08,17,-127.00,1.00,-998.00
2024-06-07 11:06:29.918138,-6,0,15,0,0,1,67,70,150,140,92,134.18,17,-80.00,11.00,-1065.00
2024-06-07 11:06:29.979843,-5,-1,15,0,0,1,68,70,148,140,92,134.17,18,-99.00,10.00,-1054.00
2024-06-07 11:06:30.123039,-5,-1,15,0,0,0,68,70,147,140,92,134.16,18,-91.00,18.00,-972.00
2024-06-07 11:06:30.183393,-4,-1,15,0,0,0,68,70,146,130,92,134.15,18,-80.00,30.00,-1031.00
2024-06-07 11:06:30.327797,-4,-2,14,0,0,0,68,70,147,130,92,134.19,18,-50.00,23.00,-953.00
2024-06-07 11:06:30.387409,-5,-3,14,0,0,0,68,70,148,130,92,134.15,18,-93.00,39.00,-1008.00
2024-06-07 11:06:30.532348,-5,-3,15,0,0,0,68,70,146,130,92,134.11,18,-102.00,42.00,-1008.00
2024-06-07 11:06:30.591345,-5,-3,15,0,0,0,68,70,144,130,92,134.18,18,-70.00,-13.00,-970.00
2024-06-07 11:06:30.712340,-5,-2,15,0,0,0,68,70,144,130,92,134.06,18,-92.00,43.00,-970.00
2024-06-07 11:06:30.795348,-5,-2,15,0,0,1,68,70,143,130,92,134.30,18,-72.00,31.00,-930.00
2024-06-07 11:06:30.846427,-4,-2,15,0,0,1,68,70,141,130,92,134.10,18,-103.00,54.00,-1008.00
2024-06-07 11:06:31.046319,-4,-3,15,1,0,1,68,71,139,130,92,134.23,19,-43.00,44.00,-972.00
2024-06-07 11:06:31.101780,-2,-3,14,1,0,1,68,71,138,130,92,134.16,19,-89.00,39.00,-1014.00
2024-06-07 11:06:31.152337,-3,-3,14,0,0,1,68,71,135,130,92,134.29,19,-70.00,49.00,-1030.00
2024-06-07 11:06:31.254495,-3,-4,14,0,0,0,68,71,134,130,92,134.23,19,-97.00,63.00,-1056.00
2024-06-07 11:06:31.455182,-4,-4,14,0,0,0,68,71,134,130,92,133.99,19,-109.00,34.00,-1064.00
2024-06-07 11:06:31.458468,-5,-3,14,0,0,0,68,71,134,130,92,134.04,19,-79.00,18.00,-1010.00
2024-06-07 11:06:31.662079,-6,-1,14,0,0,0,68,71,134,130,92,134.08,19,-66.00,2.00,-986.00
2024-06-07 11:06:31.662398,-5,-1,14,0,0,0,68,71,134,130,92,134.15,19,-61.00,38.00,-981.00
2024-06-07 11:06:31.863634,-5,-1,14,0,0,0,68,71,134,120,92,134.15,19,-95.00,36.00,-1025.00
2024-06-07 11:06:31.866702,-4,-1,15,0,0,0,68,71,134,120,92,134.10,19,-111.00,73.00,-977.00
2024-06-07 11:06:31.968544,-5,-2,15,0,0,0,68,70,133,120,92,134.25,20,-72.00,29.00,-940.00
2024-06-07 11:06:32.071146,-5,-3,15,0,0,0,68,70,133,120,92,134.21,20,-96.00,75.00,-1055.00
2024-06-07 11:06:32.172560,-6,-3,15,0,0,0,68,70,135,120,92,134.22,20,-99.00,58.00,-1020.00
2024-06-07 11:06:32.275001,-7,-4,15,0,0,0,68,70,136,120,92,134.26,20,-131.00,71.00,-994.00
2024-06-07 11:06:32.478363,-7,-4,15,0,0,0,68,70,135,120,92,134.19,20,-111.00,48.00,-1126.00
2024-06-07 11:06:32.478542,-7,-4,15,0,0,0,68,70,135,130,92,134.29,20,-106.00,58.00,-1001.00
2024-06-07 11:06:32.581798,-7,-4,15,0,0,0,68,70,135,120,92,134.22,20,-103.00,67.00,-978.00
2024-06-07 11:06:32.682390,-7,-5,15,0,0,0,68,70,134,120,92,134.16,20,-113.00,65.00,-1018.00
2024-06-07 11:06:32.787370,-7,-5,15,0,0,0,68,70,134,120,92,134.18,20,-63.00,70.00,-999.00
2024-06-07 11:06:32.887355,-7,-5,15,0,0,0,68,70,134,120,92,134.14,20,-70.00,51.00,-953.00
2024-06-07 11:06:32.990245,-7,-5,15,0,0,0,68,70,134,120,92,134.13,21,-105.00,64.00,-966.00
2024-06-07 11:06:33.092222,-6,-4,15,0,0,0,68,70,134,120,92,134.14,21,-81.00,75.00,-893.00
2024-06-07 11:06:33.192438,-6,-4,15,0,0,0,68,70,134,120,92,134.13,21,-147.00,68.00,-992.00
2024-06-07 11:06:33.294265,-6,-4,15,0,0,0,68,70,135,120,92,134.21,21,-136.00,85.00,-978.00
2024-06-07 11:06:33.399476,-7,-1,14,0,0,0,68,70,135,120,92,134.14,21,-164.00,72.00,-1043.00
2024-06-07 11:06:33.498268,-8,0,14,0,0,0,68,70,136,130,92,134.16,21,-120.00,68.00,-953.00
2024-06-07 11:06:33.604250,-8,-1,14,0,0,0,68,70,137,130,92,134.22,21,-119.00,66.00,-1009.00
2024-06-07 11:06:33.702453,-8,-1,14,0,1,0,68,70,136,130,92,134.13,21,-101.00,70.00,-953.00
2024-06-07 11:06:33.805579,-8,-2,15,0,1,0,68,70,139,130,92,134.17,21,-106.00,65.00,-935.00
2024-06-07 11:06:33.906343,-8,-2,15,0,2,0,68,70,137,130,92,134.08,21,-126.00,34.00,-990.00
2024-06-07 11:06:34.014037,-8,-3,15,0,2,0,68,71,138,130,92,134.10,22,-137.00,18.00,-1007.00
2024-06-07 11:06:34.110286,-8,-2,15,0,2,0,68,71,138,130,92,133.89,22,-113.00,13.00,-1003.00
2024-06-07 11:06:34.218987,-8,-3,15,0,2,0,68,71,139,130,92,133.97,22,-110.00,28.00,-964.00
2024-06-07 11:06:34.314396,-8,-3,15,0,2,0,68,71,141,130,92,134.12,22,-112.00,29.00,-1009.00
2024-06-07 11:06:34.425958,-8,-2,15,0,2,0,68,71,139,130,92,134.22,22,-130.00,58.00,-945.00
2024-06-07 11:06:34.518403,-8,-3,15,0,2,0,68,71,138,130,92,134.29,22,-137.00,44.00,-968.00
2024-06-07 11:06:34.628245,-8,-4,15,0,2,0,68,71,137,130,92,134.06,22,-98.00,50.00,-921.00
2024-06-07 11:06:34.671631,-8,-4,15,1,2,0,68,71,137,130,92,134.02,22,-97.00,70.00,-937.00
2024-06-07 11:06:34.774081,-7,-4,15,1,2,0,68,71,137,130,92,134.06,22,-118.00,52.00,-994.00
2024-06-07 11:06:34.935437,-7,-4,15,1,2,0,68,71,137,130,92,134.06,22,-124.00,68.00,-989.00
2024-06-07 11:06:35.028214,-7,-4,15,1,2,0,68,71,137,130,92,134.06,23,-85.00,2.00,-1016.00
2024-06-07 11:06:35.079508,-7,-4,15,1,2,0,68,71,137,130,92,134.15,23,-100.00,56.00,-1067.00
2024-06-07 11:06:35.243340,-7,-5,15,1,2,0,68,71,139,130,92,134.09,23,-91.00,57.00,-1019.00
2024-06-07 11:06:35.283278,-7,-5,15,1,2,0,68,71,139,130,92,134.10,23,-94.00,36.00,-1019.00
2024-06-07 11:06:35.430682,-7,-5,15,2,2,0,68,71,140,130,92,134.10,23,-124.00,44.00,-1037.00
2024-06-07 11:06:35.490720,-7,-5,15,2,1,0,68,71,140,130,92,134.03,23,-98.00,30.00,-985.00
2024-06-07 11:06:35.589521,-6,-5,15,2,1,0,68,71,140,130,92,134.05,23,-81.00,64.00,-912.00
2024-06-07 11:06:35.754679,-6,-5,15,2,1,0,68,71,141,130,92,134.09,23,-119.00,45.00,-1021.00
2024-06-07 11:06:35.793812,-6,-5,15,2,0,0,68,71,140,130,92,134.05,23,-105.00,52.00,-1022.00
2024-06-07 11:06:35.895123,-6,-6,15,3,0,0,68,71,140,130,92,134.12,23,-79.00,75.00,-1030.00
2024-06-07 11:06:36.061833,-6,-6,15,3,0,0,69,71,138,130,92,134.01,24,-102.00,61.00,-1006.00
2024-06-07 11:06:36.099183,-5,-6,15,3,0,0,69,71,137,130,92,134.10,24,-133.00,86.00,-999.00
2024-06-07 11:06:36.266732,-5,-6,15,3,0,0,69,71,137,130,92,134.02,24,-164.00,74.00,-1033.00
2024-06-07 11:06:36.303148,-6,-6,15,2,0,0,69,71,137,130,92,134.02,24,-99.00,43.00,-887.00
2024-06-07 11:06:36.444110,-6,-5,15,2,-1,0,69,71,135,130,92,134.05,24,-88.00,56.00,-999.00
2024-06-07 11:06:36.508342,-6,-5,15,2,-1,0,69,71,134,130,92,134.01,24,-100.00,66.00,-1000.00
2024-06-07 11:06:36.676242,-7,-5,15,3,-1,0,69,71,133,130,92,134.04,24,-108.00,65.00,-967.00
2024-06-07 11:06:36.711325,-5,-3,15,3,-1,0,69,71,131,130,92,133.95,24,-106.00,104.00,-1009.00
2024-06-07 11:06:36.816097,-4,-3,15,2,-1,0,69,71,131,130,92,133.90,24,-105.00,94.00,-967.00
2024-06-07 11:06:36.915172,-4,-3,15,2,0,0,69,71,130,130,92,133.88,24,-144.00,74.00,-1127.00
2024-06-07 11:06:37.085882,-4,-4,15,1,0,0,69,71,130,130,92,133.88,25,-127.00,72.00,-1028.00
2024-06-07 11:06:37.119090,-6,-5,15,1,0,0,69,71,129,130,92,133.86,25,-111.00,77.00,-945.00
2024-06-07 11:06:37.290907,-7,-5,15,1,0,0,69,71,130,130,92,133.93,25,-124.00,48.00,-964.00
2024-06-07 11:06:37.323081,-7,-5,15,1,-1,0,69,71,128,120,92,133.79,25,-118.00,80.00,-1030.00
2024-06-07 11:06:37.495473,-6,-5,15,1,-1,0,69,71,126,120,92,134.02,25,-76.00,94.00,-936.00
2024-06-07 11:06:37.527071,-7,-4,15,1,0,0,69,71,125,120,92,134.03,25,-51.00,79.00,-907.00
2024-06-07 11:06:37.700845,-6,-4,15,2,0,0,69,71,125,120,92,133.97,25,-78.00,78.00,-1035.00
2024-06-07 11:06:37.731065,-5,-5,15,2,0,0,69,71,123,120,92,133.91,25,-62.00,43.00,-996.00
2024-06-07 11:06:37.906660,-4,-5,15,2,0,0,69,71,123,120,92,134.12,25,-141.00,84.00,-998.00
2024-06-07 11:06:37.935097,-5,-5,15,1,0,0,69,71,123,120,92,134.00,25,-113.00,81.00,-1049.00
2024-06-07 11:06:38.109786,-5,-5,15,1,-1,0,68,71,123,120,92,134.13,26,-162.00,73.00,-1109.00
2024-06-07 11:06:38.139024,-6,-4,15,1,-1,0,68,71,124,120,92,134.11,26,-78.00,60.00,-941.00
2024-06-07 11:06:38.241388,-7,-5,14,1,-1,0,68,71,124,120,92,134.13,26,-148.00,75.00,-1013.00
2024-06-07 11:06:38.417034,-6,-5,14,1,-1,0,68,71,126,120,92,133.82,26,-130.00,53.00,-1016.00
2024-06-07 11:06:38.445085,-8,-5,14,1,-1,-1,68,71,129,120,92,133.71,26,-65.00,-13.00,-924.00
2024-06-07 11:06:38.547060,-8,-5,15,1,-2,0,68,71,129,120,92,133.79,26,-105.00,12.00,-997.00
2024-06-07 11:06:38.724240,-7,-2,14,2,-2,0,68,71,128,120,92,133.66,26,-93.00,-4.00,-1016.00
2024-06-07 11:06:38.750789,-6,-1,15,2,-3,0,68,71,129,120,92,133.73,26,-147.00,22.00,-1038.00
2024-06-07 11:06:38.929052,-6,1,15,2,-3,0,68,71,130,120,92,133.95,26,-98.00,48.00,-938.00
2024-06-07 11:06:38.954917,-7,2,15,2,-2,0,68,71,132,120,92,133.85,26,-63.00,35.00,-1041.00
2024-06-07 11:06:39.137376,-6,-1,15,3,-1,0,68,71,131,120,92,133.91,27,-83.00,36.00,-984.00
2024-06-07 11:06:39.158968,-4,-4,15,3,-1,0,68,71,132,120,92,133.86,27,-53.00,16.00,-1071.00
2024-06-07 11:06:39.338631,-1,-4,15,3,-1,0,68,71,133,120,92,133.81,27,-111.00,-11.00,-1048.00
2024-06-07 11:06:39.338868,3,-1,15,2,-2,0,68,71,135,120,92,133.82,27,-102.00,6.00,-1032.00
2024-06-07 11:06:39.414000,-2,3,15,0,-2,0,68,71,136,130,92,133.97,27,-83.00,58.00,-898.00
2024-06-07 11:06:39.516363,-5,3,14,0,-1,0,68,71,137,130,92,133.99,27,-118.00,25.00,-1030.00
2024-06-07 11:06:39.645887,-6,0,14,0,0,0,68,71,137,130,92,134.05,27,-123.00,53.00,-1004.00
2024-06-07 11:06:39.720258,-6,-1,14,0,0,0,68,71,138,130,92,134.09,27,-140.00,42.00,-996.00
2024-06-07 11:06:39.823470,-7,-2,14,-1,0,0,68,71,136,130,92,133.99,27,-113.00,60.00,-965.00
2024-06-07 11:06:39.924244,-7,-2,15,0,0,0,68,71,138,130,92,134.08,27,-122.00,67.00,-1030.00
2024-06-07 11:06:40.056019,-7,-2,15,0,0,0,69,71,137,130,92,134.00,28,-78.00,3.00,-977.00
2024-06-07 11:06:40.128071,-7,-2,15,0,0,0,69,71,138,130,92,133.95,28,-120.00,37.00,-953.00
2024-06-07 11:06:40.230294,-7,-3,14,0,0,0,69,71,139,130,92,134.11,28,-136.00,40.00,-999.00
2024-06-07 11:06:40.332123,-6,-3,15,0,0,0,69,71,138,130,92,134.11,28,-153.00,58.00,-985.00
2024-06-07 11:06:40.465225,-8,-2,15,0,0,0,69,71,137,130,92,134.10,28,-65.00,49.00,-976.00
2024-06-07 11:06:40.535875,-7,-2,15,0,0,0,69,71,137,130,92,134.10,28,-129.00,54.00,-949.00
2024-06-07 11:06:40.669997,-6,-2,15,0,0,0,69,71,137,130,92,134.14,28,-72.00,78.00,-966.00
2024-06-07 11:06:40.740041,-7,-2,15,0,0,0,69,71,136,130,92,134.06,28,-67.00,36.00,-961.00
2024-06-07 11:06:40.842007,-5,-4,15,0,0,0,69,71,137,130,92,133.96,28,-121.00,46.00,-1064.00
2024-06-07 11:06:40.982126,-5,-4,15,0,0,0,69,71,136,130,92,134.05,28,-98.00,40.00,-965.00
2024-06-07 11:06:41.046006,-4,-2,15,0,0,0,69,72,135,130,92,134.03,29,-124.00,33.00,-1043.00
2024-06-07 11:06:41.182115,-5,-2,15,0,0,0,69,72,135,130,92,134.07,29,-100.00,42.00,-1039.00
2024-06-07 11:06:41.249974,-5,-3,15,0,0,0,69,72,136,130,92,133.99,29,-71.00,58.00,-1053.00
2024-06-07 11:06:41.399247,-6,-3,15,0,0,0,69,72,136,130,92,134.07,29,-125.00,51.00,-1030.00
2024-06-07 11:06:41.453933,-6,-4,15,0,0,0,69,72,137,130,92,134.02,29,-149.00,48.00,-965.00
2024-06-07 11:06:41.555782,-7,-4,15,0,0,0,69,72,137,130,92,134.00,29,-136.00,62.00,-1070.00
2024-06-07 11:06:41.693829,-6,-3,15,0,0,0,69,72,137,130,92,133.98,29,-113.00,55.00,-950.00
2024-06-07 11:06:41.759872,0,-2,15,-1,0,0,69,72,136,130,92,134.01,29,-128.00,92.00,-947.00
2024-06-07 11:06:41.861886,1,-3,14,-2,0,0,69,72,136,130,92,134.12,29,-104.00,99.00,-950.00
2024-06-07 11:06:42.003440,2,-4,14,-3,0,0,69,72,136,130,92,134.18,30,-83.00,57.00,-1020.00
2024-06-07 11:06:42.066429,1,-4,14,-4,0,0,68,71,134,130,92,134.23,30,-106.00,80.00,-953.00
2024-06-07 11:06:42.205825,0,-5,14,-5,0,0,68,71,137,130,92,134.19,30,-99.00,114.00,-1029.00
2024-06-07 11:06:42.271389,0,-5,14,-6,-1,0,68,71,135,130,92,134.13,30,-102.00,83.00,-1007.00
2024-06-07 11:06:42.371904,-1,-5,14,-7,-1,0,68,71,136,130,92,134.17,30,-69.00,49.00,-1034.00
2024-06-07 11:06:42.475853,-2,-6,15,-7,-1,0,68,71,135,130,92,134.13,30,-76.00,113.00,-958.00
2024-06-07 11:06:42.575869,-5,-6,15,-8,-2,0,68,71,136,130,92,134.37,30,-101.00,54.00,-963.00
2024-06-07 11:06:42.677825,-7,-3,15,-7,-2,0,68,71,136,130,92,134.25,30,-54.00,98.00,-975.00
2024-06-07 11:06:42.729125,-7,-2,15,-6,-1,0,68,71,136,130,92,134.19,30,-69.00,113.00,-1026.00
2024-06-07 11:06:42.831569,-7,-4,15,-5,-1,0,68,71,136,130,92,134.17,30,-39.00,57.00,-1002.00
2024-06-07 11:06:42.933136,-6,-4,15,-5,-1,0,68,71,135,120,91,134.20,31,-61.00,37.00,-962.00
2024-06-07 11:06:43.128046,-7,-4,15,-4,-1,0,69,71,136,120,91,134.14,31,-77.00,76.00,-1007.00
2024-06-07 11:06:43.136795,-7,-4,15,-4,-1,0,69,71,136,120,91,134.15,31,-84.00,61.00,-951.00
2024-06-07 11:06:43.332228,-7,-4,15,-4,-1,0,69,71,136,130,91,134.23,31,-100.00,67.00,-997.00
2024-06-07 11:06:43.340671,-7,-4,14,-4,-1,0,69,71,136,130,91,134.07,31,-90.00,84.00,-1061.00
2024-06-07 11:06:43.536986,-7,-4,15,-3,-1,0,69,71,137,130,91,134.00,31,-104.00,28.00,-903.00
2024-06-07 11:06:43.544782,-7,-3,15,-3,-1,0,69,71,138,130,91,133.87,31,-103.00,-11.00,-919.00
2024-06-07 11:06:43.755491,-8,-2,15,-3,-1,0,69,71,138,130,91,133.91,31,-137.00,45.00,-1027.00
2024-06-07 11:06:43.755572,-8,-1,15,-3,-1,0,69,71,138,130,91,133.97,31,-122.00,15.00,-934.00
2024-06-07 11:06:43.850748,-8,-1,15,-3,-1,0,69,71,139,130,91,133.82,31,-101.00,46.00,-930.00
2024-06-07 11:06:43.952669,-8,0,15,-3,-1,0,69,71,137,130,91,134.09,32,-80.00,50.00,-943.00
2024-06-07 11:06:44.054752,-8,-1,15,-3,0,0,69,71,137,130,91,134.15,32,-102.00,69.00,-1057.00
2024-06-07 11:06:44.156734,-9,-2,15,-2,0,0,69,71,137,130,91,134.10,32,-97.00,45.00,-950.00
2024-06-07 11:06:44.258662,-8,-2,15,-2,0,0,69,71,136,130,91,134.06,32,-139.00,39.00,-979.00
2024-06-07 11:06:44.360734,-8,-2,15,-2,0,0,69,71,136,130,91,134.10,32,-77.00,63.00,-947.00
2024-06-07 11:06:44.565362,-8,-2,15,-1,0,0,69,71,135,130,91,134.13,32,-114.00,108.00,-961.00
2024-06-07 11:06:44.565442,-8,-3,15,-1,0,0,69,71,135,120,91,134.17,32,-94.00,86.00,-1013.00
2024-06-07 11:06:44.666820,-7,-4,15,-1,1,0,69,71,135,120,91,134.00,32,-158.00,78.00,-1013.00
2024-06-07 11:06:44.769341,-7,-4,15,-1,1,0,69,71,136,120,91,133.99,32,-130.00,70.00,-907.00
2024-06-07 11:06:44.871543,-7,-4,15,-1,1,0,69,71,136,120,91,133.90,32,-101.00,53.00,-1030.00
2024-06-07 11:06:44.973234,-8,-5,15,-1,0,0,69,71,136,130,91,133.91,33,-124.00,19.00,-949.00
2024-06-07 11:06:45.076972,-9,-4,15,-1,0,0,70,72,138,130,91,133.97,33,-87.00,12.00,-869.00
2024-06-07 11:06:45.177781,-8,-3,15,0,0,0,70,72,137,130,91,134.06,33,-88.00,25.00,-1068.00
2024-06-07 11:06:45.281561,-8,-3,15,0,0,0,70,72,137,130,91,133.85,33,-92.00,25.00,-975.00
2024-06-07 11:06:45.381703,-5,-2,15,0,0,0,70,72,138,130,91,133.84,33,-132.00,43.00,-1108.00
2024-06-07 11:06:45.485325,-5,-1,15,0,0,0,70,72,138,130,91,133.84,33,-113.00,38.00,-1044.00
2024-06-07 11:06:45.586581,-5,-2,14,0,0,0,70,72,138,130,91,133.87,33,-97.00,2.00,-964.00
2024-06-07 11:06:45.687647,-5,-1,14,0,0,0,70,72,139,130,91,133.90,33,-110.00,0.00,-898.00
2024-06-07 11:06:45.789832,-5,-1,15,0,0,0,70,72,141,130,91,133.95,33,-100.00,9.00,-1003.00
2024-06-07 11:06:45.892757,-6,-1,15,0,0,0,70,72,140,130,91,134.00,33,-121.00,18.00,-1010.00
2024-06-07 11:06:45.994581,-6,-1,15,0,0,0,70,72,141,130,91,134.05,34,-94.00,18.00,-1002.00
2024-06-07 11:06:46.095051,-6,-1,15,0,0,0,70,72,142,130,91,133.96,34,-111.00,6.00,-1081.00
2024-06-07 11:06:46.199499,-6,-2,15,0,0,0,70,72,141,130,91,133.99,34,-158.00,59.00,-926.00
2024-06-07 11:06:46.298800,-7,-2,15,0,0,0,70,72,140,130,91,133.98,34,-136.00,-12.00,-1041.00
2024-06-07 11:06:46.404295,-8,-2,15,0,0,0,70,72,141,130,91,134.01,34,-101.00,15.00,-965.00
2024-06-07 11:06:46.503073,-8,-1,15,0,0,0,70,72,139,130,91,133.84,34,-161.00,43.00,-997.00
2024-06-07 11:06:46.609317,-8,-1,15,0,0,0,70,72,139,130,91,133.98,34,-124.00,13.00,-1015.00
2024-06-07 11:06:46.655696,-8,-2,15,0,0,0,70,72,139,130,91,133.94,34,-145.00,11.00,-975.00
2024-06-07 11:06:46.757600,-8,-1,15,0,0,0,70,72,139,130,91,133.96,34,-117.00,33.00,-887.00
2024-06-07 11:06:46.859597,-6,-5,15,0,0,0,70,72,138,130,91,133.86,34,-101.00,54.00,-1066.00
2024-06-07 11:06:47.021590,-4,-7,15,0,-1,0,70,72,137,130,91,133.88,35,-125.00,37.00,-942.00
2024-06-07 11:06:47.115878,-5,-7,15,0,-2,0,69,72,137,130,91,133.88,35,-126.00,15.00,-1039.00
2024-06-07 11:06:47.165635,-6,-6,15,0,-3,0,69,72,138,130,91,133.81,35,-128.00,31.00,-969.00
2024-06-07 11:06:47.326946,-7,-3,15,0,-4,0,69,72,137,130,91,133.87,35,-133.00,0.00,-1059.00
2024-06-07 11:06:47.369580,-8,0,15,0,-4,0,69,72,139,130,91,133.86,35,-65.00,64.00,-987.00
2024-06-07 11:06:47.471836,-7,0,14,1,-3,0,69,72,139,130,91,133.82,35,-75.00,30.00,-843.00
2024-06-07 11:06:47.573840,-6,0,14,1,-3,0,69,72,140,130,91,133.94,35,-126.00,9.00,-996.00
2024-06-07 11:06:47.735552,-6,0,14,1,-3,0,69,72,139,130,91,133.95,35,-113.00,8.00,-1022.00
2024-06-07 11:06:47.778030,-6,-1,14,1,-2,0,69,72,139,130,91,133.81,35,-99.00,27.00,-884.00
2024-06-07 11:06:47.941486,-5,-2,14,1,-2,0,69,72,140,130,90,133.98,35,-104.00,10.00,-984.00
2024-06-07 11:06:47.983377,-5,-2,14,0,-2,0,69,72,140,130,90,133.97,36,-91.00,13.00,-979.00
2024-06-07 11:06:48.083894,-6,-2,15,0,-2,0,69,72,143,130,90,134.08,36,-143.00,29.00,-1008.00
2024-06-07 11:06:48.251490,-6,-2,15,0,-2,0,69,72,143,130,90,133.98,36,-85.00,36.00,-1005.00
2024-06-07 11:06:48.290874,-6,-1,15,0,-2,0,69,72,143,130,90,134.03,36,-64.00,31.00,-975.00
2024-06-07 11:06:48.390445,-4,0,15,0,-2,0,69,72,141,130,90,133.85,36,-96.00,49.00,-1039.00
2024-06-07 11:06:48.491628,-5,0,14,0,-2,0,69,72,144,130,90,133.95,36,-127.00,37.00,-1009.00
2024-06-07 11:06:48.660412,-6,0,15,0,-2,0,69,72,143,130,90,133.98,36,-70.00,7.00,-977.00
2024-06-07 11:06:48.700219,-7,2,15,0,-1,0,69,72,143,130,90,134.00,36,-81.00,49.00,-1008.00
2024-06-07 11:06:48.800219,-6,0,15,0,0,0,69,72,143,130,90,134.04,36,-141.00,69.00,-907.00
2024-06-07 11:06:48.900396,-7,0,15,0,0,0,69,72,143,130,90,134.07,36,-94.00,53.00,-928.00
2024-06-07 11:06:49.069804,-6,-1,15,0,0,0,69,72,143,130,90,133.96,37,-78.00,24.00,-1078.00
2024-06-07 11:06:49.103494,-6,-2,15,0,0,0,70,72,142,130,90,134.02,37,-126.00,23.00,-1010.00
2024-06-07 11:06:49.276477,-7,-1,15,0,0,0,70,72,141,130,90,133.96,37,-148.00,42.00,-1003.00
2024-06-07 11:06:49.307896,-7,-2,15,0,0,0,70,72,142,130,90,134.08,37,-109.00,-3.00,-984.00
2024-06-07 11:06:49.479450,-7,-1,15,0,0,0,70,72,142,130,90,133.96,37,-85.00,47.00,-1033.00
2024-06-07 11:06:49.512348,-6,-2,15,0,0,0,70,72,142,130,90,134.06,37,-68.00,73.00,-1009.00
2024-06-07 11:06:49.615756,-5,-2,14,0,0,0,70,72,142,130,90,134.07,37,-84.00,11.00,-1002.00
2024-06-07 11:06:49.715499,-4,-3,14,0,0,0,70,72,143,130,90,133.87,37,-80.00,33.00,-924.00
2024-06-07 11:06:49.886421,-3,-2,14,0,0,0,70,72,142,130,90,133.86,37,-116.00,15.00,-1035.00
2024-06-07 11:06:49.920217,-5,-1,14,0,0,0,70,72,143,130,90,134.12,37,-95.00,24.00,-936.00
2024-06-07 11:06:50.095260,-5,-1,15,0,0,0,70,72,143,130,90,133.96,38,-86.00,79.00,-954.00
2024-06-07 11:06:50.123409,-6,-2,15,0,0,0,70,72,142,130,90,134.03,38,-148.00,35.00,-1028.00
2024-06-07 11:06:50.225522,-5,-3,15,0,0,0,70,72,141,130,90,133.90,38,-71.00,46.00,-954.00
2024-06-07 11:06:50.402796,-5,-3,15,0,0,0,70,72,140,130,90,133.80,38,-129.00,52.00,-949.00
2024-06-07 11:06:50.429719,-6,-4,14,0,0,0,70,72,140,130,90,133.90,38,-112.00,-1.00,-963.00
2024-06-07 11:06:50.605237,-7,-4,15,0,0,0,70,72,141,130,90,133.90,38,-124.00,6.00,-1065.00
2024-06-07 11:06:50.633549,-7,-2,15,0,0,0,70,72,139,130,90,133.63,38,-136.00,4.00,-898.00
2024-06-07 11:06:50.800490,-7,0,15,0,-1,0,70,72,139,130,90,134.02,38,-88.00,-3.00,-994.00
2024-06-07 11:06:50.837881,-7,0,14,0,0,0,70,72,140,130,90,133.75,38,-127.00,-13.00,-984.00
2024-06-07 11:06:50.888661,-7,0,14,0,0,0,70,72,139,130,90,133.72,38,-131.00,10.00,-1021.00
2024-06-07 11:06:51.015484,-6,3,14,0,0,0,70,72,140,130,90,133.70,39,-78.00,-22.00,-932.00
2024-06-07 11:06:51.092269,-4,6,14,0,0,0,70,72,138,130,90,133.85,39,-108.00,-20.00,-1074.00
2024-06-07 11:06:51.220761,-5,6,14,0,1,0,70,72,140,130,90,133.89,39,-83.00,-22.00,-991.00
2024-06-07 11:06:51.296553,-6,5,14,0,2,0,70,72,139,130,90,133.88,39,-89.00,-54.00,-1036.00
2024-06-07 11:06:51.425041,-6,2,14,0,3,0,70,72,138,130,90,134.02,39,-101.00,-8.00,-985.00
2024-06-07 11:06:51.501833,-5,0,15,0,3,0,70,72,137,130,90,133.87,39,-80.00,-23.00,-963.00
2024-06-07 11:06:51.602344,-6,0,15,0,2,0,70,72,137,130,90,133.82,39,-109.00,6.00,-1012.00
2024-06-07 11:06:51.733652,-6,0,15,0,2,0,70,72,137,130,90,133.77,39,-99.00,-46.00,-1097.00
2024-06-07 11:06:51.806807,-6,0,15,0,2,0,70,72,137,130,90,133.93,39,-89.00,14.00,-973.00
2024-06-07 11:06:51.934054,-7,0,14,0,2,0,70,72,138,130,90,133.67,39,-163.00,13.00,-1053.00
2024-06-07 11:06:52.010287,-7,-1,14,0,2,0,70,72,136,130,90,133.88,40,-113.00,13.00,-1009.00
2024-06-07 11:06:52.139446,-7,0,15,0,2,0,70,72,135,130,90,133.82,40,-115.00,1.00,-954.00
2024-06-07 11:06:52.214716,-7,0,15,0,2,0,70,72,134,130,90,133.72,40,-99.00,-14.00,-1003.00
2024-06-07 11:06:52.356922,-7,0,14,0,2,0,70,72,135,130,90,133.79,40,-130.00,30.00,-963.00
2024-06-07 11:06:52.418714,-7,0,14,0,2,0,70,72,135,130,90,133.71,40,-108.00,29.00,-983.00
2024-06-07 11:06:52.521244,-6,-1,14,0,2,0,70,72,132,130,90,133.76,40,-110.00,-59.00,-998.00
2024-06-07 11:06:52.623456,-6,0,14,0,1,0,70,72,134,130,90,133.82,40,-117.00,-33.00,-992.00
2024-06-07 11:06:52.725501,-6,0,15,0,1,0,70,72,133,120,90,133.70,40,-150.00,-5.00,-1001.00
2024-06-07 11:06:52.826767,-6,1,15,0,1,0,70,72,132,120,90,133.54,40,-138.00,17.00,-941.00
2024-06-07 11:06:52.959885,-5,-5,15,0,1,0,70,72,132,120,90,133.74,40,-156.00,13.00,-1046.00
2024-06-07 11:06:53.030329,-6,-4,15,0,0,0,70,72,132,120,90,133.71,41,-146.00,-22.00,-1045.00
2024-06-07 11:06:53.132631,-7,-2,15,0,0,0,70,73,133,120,90,133.55,41,-177.00,37.00,-988.00
2024-06-07 11:06:53.234261,-7,-1,14,0,0,0,70,73,132,120,90,133.62,41,-163.00,13.00,-1002.00
2024-06-07 11:06:53.370671,-8,-1,15,0,0,0,70,73,132,120,90,133.72,41,-106.00,7.00,-1030.00
2024-06-07 11:06:53.438256,-8,0,15,0,0,0,70,73,133,120,90,133.59,41,-140.00,16.00,-1030.00
2024-06-07 11:06:53.573357,-7,0,14,0,0,0,70,73,132,120,90,133.68,41,-140.00,-26.00,-1005.00
2024-06-07 11:06:53.642332,-7,0,15,0,0,0,70,73,133,120,90,133.72,41,-131.00,37.00,-1043.00
2024-06-07 11:06:53.779332,-7,0,14,0,0,0,70,73,134,120,90,133.80,41,-195.00,53.00,-1038.00
2024-06-07 11:06:53.846509,-8,-2,14,0,0,0,70,73,134,120,90,133.82,41,-113.00,-2.00,-1006.00
2024-06-07 11:06:53.984525,-8,-3,15,0,0,0,70,73,133,120,90,133.78,41,-138.00,1.00,-1020.00
2024-06-07 11:06:54.050244,-8,-2,15,0,0,0,70,73,133,120,90,133.96,42,-119.00,10.00,-995.00
2024-06-07 11:06:54.186712,-9,-1,15,0,0,0,70,73,133,120,90,134.02,42,-111.00,19.00,-1015.00
2024-06-07 11:06:54.254264,-7,0,14,0,0,0,70,73,132,120,90,133.96,42,-195.00,41.00,-1020.00
2024-06-07 11:06:54.400337,-7,0,14,0,0,0,70,73,132,120,90,134.00,42,-110.00,14.00,-890.00
2024-06-07 11:06:54.458118,-9,-1,14,0,0,0,70,73,133,120,90,133.81,42,-89.00,11.00,-1023.00
2024-06-07 11:06:54.596606,-9,-1,14,0,0,0,70,73,132,120,90,133.84,42,-126.00,5.00,-1029.00
2024-06-07 11:06:54.662320,-7,0,15,0,0,0,70,73,131,120,90,133.87,42,-106.00,5.00,-999.00
2024-06-07 11:06:54.713305,-7,0,15,0,0,0,70,73,132,120,90,133.84,42,-165.00,38.00,-925.00
2024-06-07 11:06:54.815654,-7,-1,15,0,0,0,70,73,131,120,90,133.91,42,-127.00,4.00,-945.00
2024-06-07 11:06:54.982936,-8,-2,15,0,0,0,70,73,132,120,89,133.84,42,-94.00,5.00,-1013.00
2024-06-07 11:06:55.018990,-8,-2,15,0,0,0,70,73,131,120,89,133.74,43,-151.00,-2.00,-1073.00
2024-06-07 11:06:55.210480,-8,-1,19,0,0,0,71,73,133,120,89,133.87,43,-145.00,16.00,-956.00
2024-06-07 11:06:55.274127,-8,-2,25,0,0,0,71,73,133,120,89,133.82,43,-164.00,75.00,-989.00
2024-06-07 11:06:55.325572,-8,-3,31,0,0,0,71,73,133,120,89,133.85,43,-132.00,5.00,-971.00
2024-06-07 11:06:55.427157,-7,-3,37,0,0,0,71,73,133,120,89,133.84,43,-156.00,54.00,-1070.00
2024-06-07 11:06:55.621484,-7,-4,43,0,0,0,71,73,134,120,89,133.88,43,-119.00,64.00,-997.00
2024-06-07 11:06:55.631038,-7,-4,49,0,0,0,71,73,133,120,89,133.89,43,-131.00,99.00,-1038.00
2024-06-07 11:06:55.733044,-7,-5,55,0,0,0,71,73,134,120,89,133.98,43,-108.00,79.00,-1053.00
2024-06-07 11:06:55.835273,-6,-6,61,0,0,0,71,73,135,130,89,133.96,43,-101.00,110.00,-955.00
2024-06-07 11:06:56.029700,-5,-7,66,0,0,0,71,73,136,130,89,133.89,44,-87.00,85.00,-994.00
2024-06-07 11:06:56.039968,-4,-7,72,0,0,0,71,73,135,130,89,134.04,44,-31.00,87.00,-958.00
2024-06-07 11:06:56.246557,-2,-6,78,0,0,0,71,72,136,130,89,134.10,44,-48.00,114.00,-1033.00
2024-06-07 11:06:56.246801,-1,-6,84,0,0,0,71,72,134,130,89,134.23,44,-33.00,101.00,-941.00
2024-06-07 11:06:56.345053,0,-7,89,0,0,0,71,72,135,130,89,134.17,44,0.00,111.00,-969.00
2024-06-07 11:06:56.447061,1,-8,95,0,1,0,71,72,135,130,89,134.30,44,-39.00,146.00,-983.00
2024-06-07 11:06:56.549001,3,-7,101,0,0,0,71,72,134,130,89,134.45,44,65.00,139.00,-1003.00
2024-06-07 11:06:56.747772,3,-8,107,0,0,0,71,72,134,130,89,134.24,44,14.00,150.00,-992.00
2024-06-07 11:06:56.756608,1,-8,113,0,0,0,71,72,134,130,89,134.22,44,-19.00,178.00,-1018.00
2024-06-07 11:06:56.856871,1,-8,119,0,0,0,71,72,134,120,89,134.32,44,-42.00,180.00,-1025.00
2024-06-07 11:06:56.956991,3,-8,125,0,0,0,71,72,131,120,89,134.20,45,36.00,129.00,-884.00
2024-06-07 11:06:57.156127,4,-7,131,0,0,0,71,72,132,120,89,134.21,45,67.00,195.00,-991.00
2024-06-07 11:06:57.161009,6,-6,137,0,0,0,71,73,132,120,89,134.19,45,90.00,96.00,-949.00
2024-06-07 11:06:57.360827,6,-4,143,0,0,0,71,73,130,120,89,134.30,45,140.00,82.00,-1118.00
2024-06-07 11:06:57.364942,7,-2,149,0,0,-1,71,73,130,120,89,134.22,45,116.00,82.00,-1128.00
2024-06-07 11:06:57.466962,8,-2,155,0,0,-1,71,73,132,120,89,134.23,45,156.00,66.00,-946.00
2024-06-07 11:06:57.569034,8,-2,162,0,0,-1,71,73,132,120,89,134.11,45,135.00,94.00,-941.00
2024-06-07 11:06:57.671130,8,-1,168,0,0,-1,71,73,133,130,89,134.03,45,170.00,-22.00,-1011.00
2024-06-07 11:06:57.773023,8,0,174,0,0,0,71,73,134,130,89,134.02,45,151.00,25.00,-895.00
2024-06-07 11:06:57.875046,8,0,-179,0,0,0,71,73,136,130,89,133.92,45,143.00,11.00,-952.00
2024-06-07 11:06:57.976983,9,0,-173,0,0,0,71,73,135,130,88,134.04,46,127.00,14.00,-967.00
2024-06-07 11:06:58.179969,9,2,-166,0,0,0,71,73,135,130,88,133.90,46,155.00,-8.00,-921.00
2024-06-07 11:06:58.181050,8,3,-160,0,0,0,71,73,133,120,88,133.99,46,122.00,-25.00,-1088.00
2024-06-07 11:06:58.282934,7,4,-153,0,0,0,71,73,131,120,88,133.85,46,88.00,-16.00,-1059.00
2024-06-07 11:06:58.386795,5,4,-147,1,0,0,71,73,131,120,88,133.89,46,90.00,-38.00,-956.00
2024-06-07 11:06:58.486926,4,3,-141,1,0,0,71,73,130,120,88,133.93,46,128.00,-39.00,-977.00
2024-06-07 11:06:58.589629,3,2,-135,1,0,0,71,73,131,120,88,133.92,46,91.00,-64.00,-1060.00
2024-06-07 11:06:58.697439,3,2,-130,1,0,0,71,73,131,120,88,133.98,46,79.00,-39.00,-1002.00
2024-06-07 11:06:58.798952,4,4,-124,0,-1,0,71,73,131,120,88,134.07,46,68.00,-63.00,-1158.00
2024-06-07 11:06:58.897937,5,4,-118,0,-1,0,71,73,133,120,88,133.98,46,93.00,-103.00,-1025.00
2024-06-07 11:06:58.997105,4,4,-111,0,-1,0,71,73,134,120,88,134.16,47,85.00,-59.00,-908.00
2024-06-07 11:06:59.048423,3,4,-105,0,0,0,71,73,135,130,88,134.15,47,46.00,-72.00,-1048.00
2024-06-07 11:06:59.204058,3,5,-99,0,0,0,70,73,135,130,88,134.11,47,44.00,-92.00,-989.00
2024-06-07 11:06:59.302890,2,6,-92,0,0,0,70,73,137,130,88,134.20,47,20.00,-93.00,-880.00
2024-06-07 11:06:59.353867,1,6,-86,0,0,0,70,73,138,130,88,134.26,47,-10.00,-117.00,-1013.00
2024-06-07 11:06:59.512286,0,7,-81,0,0,0,70,73,137,130,88,134.12,47,-17.00,-117.00,-1005.00
2024-06-07 11:06:59.557852,-1,8,-75,0,0,0,70,73,137,130,88,134.14,47,1.00,-148.00,-959.00
2024-06-07 11:06:59.716040,-2,8,-69,0,0,0,70,73,137,130,88,134.10,47,-25.00,-94.00,-1010.00
2024-06-07 11:06:59.761824,-3,7,-63,0,0,0,70,73,136,130,88,134.09,47,-36.00,-81.00,-919.00
2024-06-07 11:06:59.864054,-3,6,-57,0,0,0,70,73,137,130,88,134.09,47,-84.00,-92.00,-946.00
2024-06-07 11:07:00.023281,-3,5,-50,0,0,0,70,73,136,130,88,133.99,48,-32.00,-117.00,-1040.00
2024-06-07 11:07:00.068231,-4,5,-44,0,0,0,70,73,136,130,88,133.88,48,1.00,-90.00,-1045.00
2024-06-07 11:07:00.228055,-4,5,-37,0,0,0,70,73,137,130,88,133.99,48,-46.00,-93.00,-1089.00
2024-06-07 11:07:00.271925,-4,4,-31,0,0,0,70,73,136,130,88,133.83,48,-91.00,-101.00,-1003.00
2024-06-07 11:07:00.373853,-5,3,-25,0,0,0,70,73,139,130,88,133.86,48,-46.00,-67.00,-997.00
2024-06-07 11:07:00.476119,-5,3,-19,0,0,0,70,73,138,130,88,133.88,48,-75.00,-71.00,-1008.00
2024-06-07 11:07:00.637638,-5,2,-13,0,0,0,70,73,140,130,88,133.76,48,-83.00,-22.00,-977.00
2024-06-07 11:07:00.681456,-5,1,-6,0,0,0,70,73,140,130,88,133.78,48,-82.00,-62.00,-1026.00
2024-06-07 11:07:00.783349,-5,1,-1,0,0,0,70,73,140,130,88,133.69,48,-122.00,3.00,-986.00
2024-06-07 11:07:00.885014,-5,0,2,0,0,0,70,73,140,130,88,133.66,48,-139.00,-3.00,-1069.00
2024-06-07 11:07:01.047385,-6,0,5,0,0,0,70,73,141,130,88,133.61,49,-101.00,3.00,-940.00
2024-06-07 11:07:01.088234,-6,0,8,0,0,0,70,73,143,130,88,133.72,49,-130.00,3.00,-894.00
2024-06-07 11:07:01.253008,-6,0,10,0,0,0,71,73,140,130,88,133.76,49,-80.00,-22.00,-986.00
2024-06-07 11:07:01.291743,-6,0,11,0,0,0,71,73,142,130,88,133.73,49,-126.00,23.00,-934.00
2024-06-07 11:07:01.461104,-5,0,12,0,0,0,71,73,140,130,88,133.60,49,-158.00,13.00,-995.00
2024-06-07 11:07:01.500331,-5,1,13,0,0,0,71,73,140,130,88,133.45,49,-154.00,16.00,-1006.00
2024-06-07 11:07:01.598055,-5,0,13,0,0,0,71,73,140,130,88,133.79,49,-140.00,-3.00,-1040.00
2024-06-07 11:07:01.767229,-5,0,13,0,0,0,71,73,138,130,88,133.57,49,-144.00,-12.00,-941.00
2024-06-07 11:07:01.801736,-5,0,13,0,0,0,71,73,138,130,88,133.63,49,-127.00,18.00,-943.00
2024-06-07 11:07:01.903889,-6,0,13,0,0,0,71,73,138,130,88,133.56,49,-167.00,20.00,-993.00
2024-06-07 11:07:02.005966,-7,0,13,0,0,0,71,73,137,130,88,133.66,50,-138.00,4.00,-1060.00
2024-06-07 11:07:02.107953,-7,1,13,0,0,0,71,73,136,130,88,133.57,50,-86.00,12.00,-917.00
2024-06-07 11:07:02.279337,-6,0,13,0,0,0,71,73,136,130,88,133.70,50,-102.00,-5.00,-894.00
2024-06-07 11:07:02.319736,-7,0,13,0,0,0,71,73,135,130,88,133.71,50,-92.00,-26.00,-987.00
2024-06-07 11:07:02.414028,-7,1,13,0,0,0,71,73,135,130,88,133.74,50,-145.00,26.00,-947.00
2024-06-07 11:07:02.595341,-6,0,13,0,0,0,71,73,135,120,88,133.82,50,-129.00,6.00,-972.00
2024-06-07 11:07:02.617717,-6,0,13,0,0,0,71,73,135,120,88,133.59,50,-126.00,-8.00,-1026.00
2024-06-07 11:07:02.800148,-6,0,13,0,0,0,71,73,136,120,88,133.69,50,-152.00,-7.00,-1009.00
2024-06-07 11:07:02.800293,-8,0,13,-1,0,0,71,73,135,120,88,133.79,50,-131.00,3.00,-868.00
2024-06-07 11:07:02.872785,-9,0,13,-1,0,0,71,73,136,120,88,133.64,50,-154.00,7.00,-1087.00
2024-06-07 11:07:03.004959,-8,0,13,-1,0,0,71,73,137,120,88,133.76,51,-109.00,-21.00,-1074.00
2024-06-07 11:07:03.076807,-8,0,13,0,0,0,71,73,138,130,88,133.65,51,-135.00,23.00,-913.00
2024-06-07 11:07:03.197828,-8,0,13,0,0,0,71,74,138,130,88,133.63,51,-162.00,-17.00,-1070.00
2024-06-07 11:07:03.281450,-8,1,13,0,0,0,71,74,140,130,88,133.72,51,-102.00,28.00,-1005.00
2024-06-07 11:07:03.405685,-9,0,13,0,0,-1,71,74,140,130,88,133.76,51,-117.00,35.00,-896.00
2024-06-07 11:07:03.487151,-8,0,13,0,0,0,71,74,141,130,88,133.79,51,-122.00,-5.00,-964.00
2024-06-07 11:07:03.586813,-8,0,12,0,0,0,71,74,140,130,88,133.66,51,-151.00,43.00,-999.00
2024-06-07 11:07:03.713358,-7,0,6,0,0,0,71,74,140,130,88,133.62,51,-158.00,14.00,-982.00
2024-06-07 11:07:03.790778,-8,0,0,0,0,0,71,74,140,130,88,133.51,51,-124.00,-1.00,-1002.00
2024-06-07 11:07:03.892660,-8,0,-5,0,0,0,71,74,142,130,88,133.88,51,-194.00,21.00,-946.00
2024-06-07 11:07:04.019365,-9,0,-11,0,0,0,71,74,142,130,88,133.94,52,-147.00,-61.00,-965.00
2024-06-07 11:07:04.096657,-9,2,-16,0,0,0,71,74,142,130,88,133.97,52,-144.00,-65.00,-1026.00
2024-06-07 11:07:04.225897,-8,3,-22,0,0,0,72,73,141,130,88,134.00,52,-113.00,-94.00,-959.00
2024-06-07 11:07:04.300685,-7,5,-28,0,0,0,72,73,141,130,88,134.12,52,-85.00,-108.00,-971.00
2024-06-07 11:07:04.430390,-6,6,-34,0,0,0,72,73,140,130,88,134.08,52,-84.00,-120.00,-941.00
2024-06-07 11:07:04.504566,-5,7,-39,0,0,0,72,73,140,130,88,134.10,52,-115.00,-94.00,-1006.00
2024-06-07 11:07:04.643295,-4,7,-45,0,0,0,72,73,140,130,88,134.11,52,-31.00,-104.00,-1004.00
2024-06-07 11:07:04.708610,-3,8,-50,0,0,0,72,73,139,130,88,134.14,52,-24.00,-115.00,-929.00
2024-06-07 11:07:04.838880,-2,8,-56,0,0,0,72,73,139,130,88,134.17,52,-90.00,-113.00,-1049.00
2024-06-07 11:07:04.912698,-1,7,-62,0,0,0,72,73,139,130,87,134.23,52,13.00,-140.00,-1011.00
2024-06-07 11:07:05.051916,0,7,-67,0,0,0,72,73,140,130,87,134.20,53,19.00,-101.00,-937.00
2024-06-07 11:07:05.116627,0,7,-73,0,0,0,72,73,138,130,87,134.36,53,13.00,-168.00,-1045.00
2024-06-07 11:07:05.218565,1,7,-79,0,0,0,72,74,140,130,87,134.41,53,49.00,-149.00,-983.00
2024-06-07 11:07:05.320622,2,8,-86,0,0,0,72,74,140,130,87,134.23,53,50.00,-99.00,-964.00
2024-06-07 11:07:05.423439,4,8,-91,0,0,0,72,74,140,130,87,134.28,53,20.00,-111.00,-1025.00
2024-06-07 11:07:05.525432,5,6,-98,0,0,0,72,74,139,130,87,134.25,53,101.00,-87.00,-1003.00
2024-06-07 11:07:05.627840,5,5,-104,0,0,0,72,74,140,130,87,134.20,53,130.00,-92.00,-884.00
2024-06-07 11:07:05.730532,6,5,-111,0,0,0,72,74,140,130,87,134.23,53,133.00,-74.00,-952.00
2024-06-07 11:07:05.832931,7,3,-117,0,0,0,72,74,139,130,87,134.23,53,129.00,-90.00,-1010.00
2024-06-07 11:07:05.932578,7,2,-123,0,0,0,72,74,141,130,87,134.28,53,114.00,-72.00,-1083.00
2024-06-07 11:07:06.064728,7,2,-129,0,0,0,72,74,141,130,87,134.20,54,148.00,-72.00,-969.00
2024-06-07 11:07:06.136525,7,2,-136,0,0,0,72,74,140,130,87,134.20,54,107.00,-37.00,-1065.00
2024-06-07 11:07:06.238594,7,1,-142,0,0,0,72,74,141,130,87,134.13,54,163.00,-25.00,-969.00
2024-06-07 11:07:06.376397,7,2,-148,0,0,0,72,74,140,130,87,134.12,54,135.00,-22.00,-1022.00
2024-06-07 11:07:06.443787,6,0,-154,0,0,0,72,74,142,130,87,134.07,54,109.00,22.00,-1022.00
2024-06-07 11:07:06.544582,6,-1,-160,0,0,0,72,74,142,130,87,134.17,54,121.00,20.00,-980.00
2024-06-07 11:07:06.595450,5,-1,-166,0,0,0,72,74,141,130,87,134.25,54,93.00,37.00,-985.00
2024-06-07 11:07:06.785193,5,-2,-172,0,0,0,72,74,143,130,87,134.27,54,98.00,27.00,-950.00
2024-06-07 11:07:06.799390,4,-3,-177,0,0,0,72,74,142,130,87,134.28,54,65.00,45.00,-933.00
2024-06-07 11:07:06.901577,4,-3,176,0,0,0,72,74,143,130,87,134.25,54,96.00,70.00,-1005.00
2024-06-07 11:07:07.003361,3,-4,171,0,0,0,72,74,141,130,87,134.27,55,85.00,56.00,-998.00
2024-06-07 11:07:07.106490,3,-4,165,0,0,0,72,74,140,130,87,134.15,55,83.00,88.00,-997.00
2024-06-07 11:07:07.207832,3,-4,160,0,0,0,71,74,140,130,87,134.27,55,80.00,56.00,-979.00
2024-06-07 11:07:07.395953,3,-4,154,0,0,0,71,74,138,130,87,134.30,55,14.00,90.00,-1009.00
2024-06-07 11:07:07.411384,3,-3,148,0,0,0,71,74,137,130,87,134.30,55,66.00,94.00,-997.00
2024-06-07 11:07:07.513579,2,-4,142,0,0,0,71,74,136,130,87,134.29,55,68.00,82.00,-972.00
2024-06-07 11:07:07.707619,2,-3,136,0,0,0,71,74,135,130,87,134.36,55,23.00,80.00,-907.00
2024-06-07 11:07:07.717421,2,-4,129,0,0,0,71,74,133,130,87,134.16,55,3.00,86.00,-1098.00
2024-06-07 11:07:07.911010,1,-3,123,0,0,0,71,74,134,130,87,134.24,55,-47.00,88.00,-1117.00
2024-06-07 11:07:07.921395,0,-3,117,0,0,0,71,74,132,130,87,134.31,55,-2.00,129.00,-982.00
2024-06-07 11:07:08.113621,-1,-3,111,0,0,0,71,74,132,120,87,134.25,56,-6.00,101.00,-971.00
2024-06-07 11:07:08.125432,-1,-4,104,0,0,0,71,74,131,120,87,134.05,56,-66.00,100.00,-986.00
2024-06-07 11:07:08.227808,-1,-4,98,0,0,0,72,74,130,120,87,134.29,56,15.00,90.00,-991.00
2024-06-07 11:07:08.330744,-2,-3,92,0,0,0,72,74,130,120,87,134.28,56,-9.00,118.00,-978.00
2024-06-07 11:07:08.523235,-2,-4,85,0,0,0,72,74,130,120,87,134.06,56,-7.00,48.00,-1069.00
2024-06-07 11:07:08.533386,-1,-4,79,0,0,0,72,74,130,120,87,134.08,56,-74.00,82.00,-1008.00
2024-06-07 11:07:08.731319,-1,-3,73,0,0,0,72,74,131,120,87,134.12,56,-70.00,77.00,-1001.00
2024-06-07 11:07:08.737398,-2,-2,66,0,0,0,72,74,131,120,87,134.01,56,-57.00,30.00,-974.00
2024-06-07 11:07:08.934471,-3,-3,60,0,0,0,72,74,133,120,87,134.09,56,-65.00,22.00,-989.00
2024-06-07 11:07:08.942416,-4,-2,53,0,0,0,72,74,134,120,87,134.15,56,-101.00,24.00,-989.00
2024-06-07 11:07:09.044627,-4,-1,47,0,0,0,72,74,135,130,87,133.83,57,-95.00,-18.00,-957.00
2024-06-07 11:07:09.241383,-4,0,42,0,0,-1,72,74,138,130,87,133.95,57,-53.00,-11.00,-966.00
2024-06-07 11:07:09.248430,-3,2,31,0,0,0,72,74,140,130,87,133.97,57,-100.00,3.00,-946.00
2024-06-07 11:07:09.448385,-3,3,26,0,0,0,72,74,138,130,87,133.82,57,-67.00,-36.00,-982.00
2024-06-07 11:07:09.452292,-4,3,23,0,0,0,72,74,139,130,87,133.81,57,-37.00,-79.00,-938.00
2024-06-07 11:07:09.554306,-3,2,20,0,0,0,72,74,139,130,87,133.89,57,-106.00,5.00,-1108.00
2024-06-07 11:07:09.753882,-5,2,19,-1,0,0,72,74,139,130,87,133.92,57,-134.00,-53.00,-976.00
2024-06-07 11:07:09.758323,-6,2,18,-1,0,0,72,74,139,130,87,133.72,57,-85.00,-7.00,-873.00
2024-06-07 11:07:09.955957,-7,2,17,-1,0,0,72,74,139,130,87,133.75,57,-135.00,4.00,-932.00
2024-06-07 11:07:09.962328,-8,1,16,-1,0,0,72,74,137,130,87,133.97,58,-127.00,-16.00,-920.00
2024-06-07 11:07:10.161359,-8,1,16,-1,0,0,72,74,138,130,87,133.76,58,-131.00,-1.00,-999.00
2024-06-07 11:07:10.166527,-8,1,15,-1,0,0,72,74,138,130,87,133.92,58,-182.00,-31.00,-1018.00
2024-06-07 11:07:10.366351,-8,1,15,-1,0,0,72,74,136,130,87,133.93,58,-179.00,4.00,-961.00
2024-06-07 11:07:10.371216,-8,1,15,-1,0,0,72,74,137,130,87,133.93,58,-84.00,-62.00,-1058.00
2024-06-07 11:07:10.572937,-8,2,15,-1,0,0,72,74,136,130,87,133.92,58,-147.00,-8.00,-923.00
2024-06-07 11:07:10.573220,-8,1,15,-1,0,0,72,74,137,130,87,133.81,58,-150.00,4.00,-856.00
2024-06-07 11:07:10.626323,-8,0,15,-1,0,0,72,74,136,130,87,133.80,58,-181.00,-4.00,-1038.00
2024-06-07 11:07:10.775618,-8,0,15,-1,0,0,72,74,136,130,87,134.07,58,-132.00,-46.00,-997.00
2024-06-07 11:07:10.831494,-8,0,15,-1,0,0,72,74,136,120,87,134.03,58,-144.00,-43.00,-1027.00
2024-06-07 11:07:10.932339,-9,1,15,-1,0,0,72,74,138,120,87,133.96,59,-166.00,-28.00,-1017.00
2024-06-07 11:07:11.087203,-8,1,15,-1,0,0,72,74,139,130,87,133.86,59,-129.00,-49.00,-1032.00
2024-06-07 11:07:11.136343,-8,1,15,-1,0,0,72,74,138,130,87,133.90,59,-163.00,0.00,-928.00
2024-06-07 11:07:11.287473,-9,0,15,-1,0,0,72,74,139,130,87,134.02,59,-165.00,-4.00,-964.00
2024-06-07 11:07:11.343941,-9,0,15,-1,0,0,72,74,140,130,87,133.99,59,-156.00,-25.00,-885.00
2024-06-07 11:07:11.442338,-9,0,15,-1,0,0,72,74,139,130,87,134.03,59,-173.00,-30.00,-1024.00
2024-06-07 11:07:11.597474,-8,0,15,-1,0,0,72,74,139,130,87,133.84,59,-179.00,21.00,-985.00
2024-06-07 11:07:11.646241,-8,0,15,-1,0,0,72,74,140,130,87,133.98,59,-168.00,-13.00,-1018.00
2024-06-07 11:07:11.809433,-8,0,15,-1,0,0,72,74,141,130,87,133.88,59,-199.00,-22.00,-1027.00
2024-06-07 11:07:11.850380,-9,0,15,-1,0,0,72,74,139,130,87,133.87,59,-112.00,-23.00,-970.00
2024-06-07 11:07:12.004716,-9,1,15,-1,0,0,72,74,138,130,87,133.85,60,-149.00,-6.00,-927.00
2024-06-07 11:07:12.055249,-8,1,15,-1,0,0,72,74,136,130,87,133.79,60,-182.00,16.00,-932.00
2024-06-07 11:07:12.209311,-9,0,15,-1,0,0,72,74,137,130,87,133.77,60,-123.00,-4.00,-980.00
2024-06-07 11:07:12.259336,-8,0,15,-1,0,0,71,75,136,130,87,133.85,60,-180.00,-38.00,-1012.00
2024-06-07 11:07:12.369681,-9,0,15,-1,0,0,71,75,136,130,87,133.87,60,-152.00,-40.00,-959.00
2024-06-07 11:07:12.463440,-9,1,15,0,0,0,71,75,136,130,87,133.86,60,-92.00,-44.00,-905.00
2024-06-07 11:07:12.621244,-9,1,15,0,-1,0,71,75,135,120,87,133.87,60,-94.00,-48.00,-925.00
2024-06-07 11:07:12.667140,-8,2,14,0,-1,0,71,75,134,120,87,133.87,60,-94.00,-51.00,-1046.00
2024-06-07 11:07:12.823215,-8,2,14,0,0,0,71,75,133,120,87,133.87,60,-126.00,-40.00,-932.00
2024-06-07 11:07:12.871316,-8,3,15,0,0,0,71,75,134,120,87,133.84,60,-113.00,-17.00,-1049.00
2024-06-07 11:07:13.028031,-8,2,15,0,0,0,71,75,135,120,86,133.86,61,-167.00,-31.00,-1017.00
2024-06-07 11:07:13.075227,-8,2,15,0,0,0,71,75,136,120,86,133.92,61,-78.00,-45.00,-981.00
2024-06-07 11:07:13.235733,-8,2,15,0,0,0,71,75,135,130,86,133.84,61,-98.00,-37.00,-992.00
2024-06-07 11:07:13.279191,-8,2,15,1,0,0,73,74,137,130,86,133.92,61,-136.00,-42.00,-1005.00
2024-06-07 11:07:13.438457,-8,2,15,1,0,0,73,74,138,130,86,133.87,61,-109.00,-35.00,-965.00
2024-06-07 11:07:13.483341,-7,1,15,1,0,0,73,74,138,130,86,133.89,61,-97.00,-73.00,-1076.00
2024-06-07 11:07:13.646099,-6,2,15,2,0,0,73,74,139,130,86,133.88,61,-172.00,-5.00,-933.00
2024-06-07 11:07:13.687754,-5,2,15,1,0,0,73,74,137,130,86,133.80,61,-138.00,-17.00,-1001.00
2024-06-07 11:07:13.847477,-6,1,15,0,0,0,73,74,137,130,86,133.89,61,-160.00,-34.00,-1057.00
2024-06-07 11:07:13.892475,-8,0,15,0,0,0,73,74,136,130,86,133.83,61,-150.00,-28.00,-1035.00
2024-06-07 11:07:13.993689,-8,1,15,1,0,0,73,74,136,130,86,133.86,62,-136.00,-80.00,-1018.00
2024-06-07 11:07:14.097222,-7,2,15,1,0,0,73,74,134,130,86,133.93,62,-112.00,-14.00,-918.00
2024-06-07 11:07:14.197370,-6,2,15,1,0,0,73,74,134,130,86,133.82,62,-103.00,-36.00,-1037.00
2024-06-07 11:07:14.299460,-5,2,15,1,0,0,73,74,133,120,86,133.88,62,-131.00,-48.00,-1061.00
2024-06-07 11:07:14.461650,-5,2,15,1,0,0,73,74,133,120,86,133.93,62,-81.00,-51.00,-1008.00
2024-06-07 11:07:14.462035,-4,2,15,1,0,0,73,74,132,120,86,133.86,62,-89.00,-84.00,-956.00
2024-06-07 11:07:14.555857,-3,3,15,1,0,0,73,74,132,120,86,133.88,62,-58.00,-91.00,-1103.00
2024-06-07 11:07:14.656411,-3,4,15,1,0,0,73,74,132,120,86,133.88,62,-90.00,-58.00,-983.00
