TS,pitch,roll,yaw,vgx,vgy,vgz,templ,temph,tof,h,bat,baro,time,agx,agy,agz
2024-06-07 11:08:21.226246,0,-1,3,0,0,0,76,79,10,0,81,133.29,82,-6.00,21.00,-1001.00
2024-06-07 11:08:21.317615,0,-1,3,0,0,0,76,79,10,0,81,133.24,82,-6.00,20.00,-999.00
2024-06-07 11:08:21.421875,0,-1,3,0,0,0,76,79,10,0,81,133.28,82,-7.00,20.00,-997.00
2024-06-07 11:08:21.521577,0,-1,3,0,0,0,76,79,10,0,81,133.28,82,-7.00,19.00,-1001.00
2024-06-07 11:08:21.635583,0,-1,3,0,0,0,77,80,10,0,81,133.28,82,-6.00,19.00,-1001.00
2024-06-07 11:08:21.725480,0,-1,3,0,0,0,77,80,10,0,81,133.26,82,-6.00,20.00,-1000.00
2024-06-07 11:08:21.840710,0,-1,3,0,0,0,77,80,10,0,81,133.25,82,-9.00,22.00,-999.00
2024-06-07 11:08:21.929511,0,-1,3,0,0,0,77,80,10,0,81,133.24,82,-9.00,22.00,-997.00
2024-06-07 11:08:22.045549,0,-1,3,0,0,0,77,80,10,0,81,133.23,82,-6.00,21.00,-1001.00
2024-06-07 11:08:22.133498,0,-1,3,0,0,0,77,80,10,0,81,133.26,82,-7.00,19.00,-997.00
2024-06-07 11:08:22.235413,0,-1,3,0,0,0,77,80,10,0,81,133.27,82,-7.00,19.00,-999.00
2024-06-07 11:08:22.353110,0,-1,3,0,0,0,77,80,10,0,81,133.27,82,-7.00,21.00,-1000.00
2024-06-07 11:08:22.439272,0,-1,3,0,0,0,77,80,10,0,81,133.25,82,-8.00,19.00,-1000.00
2024-06-07 11:08:22.557486,0,-1,3,0,0,0,77,80,10,0,81,133.23,82,-7.00,21.00,-999.00
2024-06-07 11:08:22.643338,0,-1,3,0,0,0,77,79,10,0,81,133.28,82,-6.00,20.00,-999.00
2024-06-07 11:08:22.762248,0,-1,3,0,0,0,77,79,10,0,81,133.27,82,-7.00,20.00,-999.00
2024-06-07 11:08:22.847449,0,-1,3,0,0,0,77,79,10,0,81,133.31,82,-6.00,21.00,-998.00
2024-06-07 11:08:22.966552,0,-1,3,0,0,0,77,79,10,0,81,133.26,82,-7.00,20.00,-999.00
2024-06-07 11:08:23.051448,0,-1,3,0,0,0,77,79,10,0,81,133.26,82,-6.00,20.00,-1001.00
2024-06-07 11:08:23.171653,0,-1,3,0,0,0,77,79,10,0,81,133.26,82,-7.00,21.00,-999.00
2024-06-07 11:08:23.255435,0,-1,3,0,0,0,77,79,10,0,81,133.26,82,-6.00,19.00,-999.00
2024-06-07 11:08:23.376317,0,-1,3,0,0,0,77,79,10,0,81,133.30,82,-6.00,21.00,-997.00
2024-06-07 11:08:23.459357,0,-1,3,0,0,0,77,79,10,0,81,133.29,82,-5.00,22.00,-999.00
2024-06-07 11:08:23.510360,0,-1,3,0,0,0,77,79,10,0,81,133.28,82,-6.00,20.00,-998.00
2024-06-07 11:08:23.683467,0,-1,3,0,0,0,77,79,10,0,81,133.28,82,-6.00,20.00,-998.00
2024-06-07 11:08:23.714218,0,-1,3,0,0,0,77,79,10,0,81,133.28,82,-6.00,20.00,-996.00
2024-06-07 11:08:23.890116,0,-1,3,0,0,0,77,79,10,0,81,133.23,82,-7.00,20.00,-1001.00
2024-06-07 11:08:23.918274,0,-1,3,0,0,0,77,79,10,0,81,133.28,82,-6.00,20.00,-998.00
2024-06-07 11:08:24.093028,0,-1,3,0,0,0,77,79,10,0,81,133.23,82,-7.00,22.00,-1001.00
2024-06-07 11:08:24.122183,0,-1,3,0,0,0,77,79,10,0,81,133.23,82,-6.00,20.00,-999.00
2024-06-07 11:08:24.224456,0,-1,3,0,0,0,77,79,10,0,81,133.26,82,-7.00,20.00,-999.00
2024-06-07 11:08:24.326636,0,-1,3,0,0,0,77,79,10,0,81,133.26,82,-6.00,20.00,-1000.00
2024-06-07 11:08:24.502641,0,-1,3,0,0,0,77,79,10,0,81,133.25,83,-1.00,31.00,-1000.00
2024-06-07 11:08:24.530117,0,-1,3,0,0,0,77,79,10,0,81,133.25,83,-9.00,21.00,-1001.00
2024-06-07 11:08:24.710843,0,-1,2,0,0,0,77,80,10,0,81,133.25,83,-2.00,36.00,-1002.00
2024-06-07 11:08:24.734505,0,-1,2,0,0,0,77,80,10,0,81,133.25,83,-23.00,-12.00,-998.00
2024-06-07 11:08:24.912094,0,-1,2,0,0,0,77,80,10,0,81,133.25,83,-24.00,24.00,-1025.00
2024-06-07 11:08:24.938196,0,0,1,0,0,-2,77,80,10,0,81,133.25,83,-33.00,1.00,-1245.00
2024-06-07 11:08:25.117632,1,-1,1,0,0,-5,77,80,10,0,81,133.25,83,-29.00,100.00,-1184.00
2024-06-07 11:08:25.142315,-2,-1,1,-1,0,-7,77,80,10,10,81,133.38,83,-25.00,13.00,-1236.00
2024-06-07 11:08:25.321743,-2,0,1,0,0,-7,77,80,15,10,81,133.58,83,-18.00,23.00,-1088.00
2024-06-07 11:08:25.346195,-1,0,1,0,0,-8,77,80,23,20,81,133.77,84,-15.00,1.00,-987.00
2024-06-07 11:08:25.531346,0,0,1,0,0,-7,77,80,32,30,81,133.78,84,-37.00,34.00,-930.00
2024-06-07 11:08:25.552917,0,0,1,0,0,-7,77,80,40,30,81,133.91,84,-7.00,3.00,-990.00
2024-06-07 11:08:25.653036,0,0,1,0,0,-6,77,79,47,40,81,133.91,84,-56.00,49.00,-911.00
2024-06-07 11:08:25.759570,0,0,1,0,0,-5,77,79,54,50,81,134.02,84,-26.00,11.00,-926.00
2024-06-07 11:08:25.857404,-1,-1,1,0,0,-4,77,79,60,50,81,133.99,84,-4.00,27.00,-998.00
2024-06-07 11:08:25.958825,0,-1,1,0,0,-3,77,79,64,50,81,134.12,84,-17.00,3.00,-908.00
2024-06-07 11:08:26.061931,0,0,1,0,0,-2,77,79,67,60,81,134.15,84,-16.00,23.00,-862.00
2024-06-07 11:08:26.162537,0,0,1,0,0,-1,77,79,70,60,81,134.20,84,-5.00,20.00,-907.00
2024-06-07 11:08:26.345720,0,0,1,0,0,-1,77,79,72,60,81,134.23,84,-22.00,-14.00,-1056.00
2024-06-07 11:08:26.366176,0,0,1,0,0,-1,77,79,73,60,81,134.15,85,-36.00,-13.00,-947.00
2024-06-07 11:08:26.555614,-1,0,1,0,0,0,77,79,74,60,81,134.12,85,-6.00,-16.00,-939.00
2024-06-07 11:08:26.570103,-2,1,1,0,0,0,77,79,75,60,81,134.10,85,-22.00,10.00,-968.00
2024-06-07 11:08:26.758763,-2,1,1,0,0,0,77,80,76,60,81,134.12,85,-48.00,-6.00,-1039.00
2024-06-07 11:08:26.773986,-2,1,1,0,0,0,77,80,76,60,81,134.14,85,-59.00,21.00,-981.00
2024-06-07 11:08:26.825584,-2,1,1,0,0,0,77,80,77,60,81,134.04,85,-97.00,14.00,-982.00
2024-06-07 11:08:26.960621,-2,1,1,0,0,0,77,80,77,70,81,134.11,85,-17.00,-20.00,-1007.00
2024-06-07 11:08:27.029112,-1,1,1,0,0,0,77,80,78,70,81,134.10,85,-1.00,-19.00,-968.00
2024-06-07 11:08:27.131175,-2,1,1,0,0,0,77,80,78,70,81,134.07,85,-58.00,-19.00,-973.00
2024-06-07 11:08:27.267771,-1,1,1,0,0,0,77,80,79,70,81,134.15,85,-8.00,-16.00,-949.00
2024-06-07 11:08:27.335143,-1,1,1,0,0,0,77,80,79,70,81,134.14,86,-62.00,-17.00,-952.00
2024-06-07 11:08:27.478271,-2,0,1,0,0,0,77,80,79,70,81,134.22,86,-18.00,-28.00,-1019.00
2024-06-07 11:08:27.539077,-1,1,1,0,0,0,77,80,80,70,81,134.05,86,18.00,-10.00,-969.00
2024-06-07 11:08:27.681189,-1,1,1,0,0,0,77,80,80,70,81,134.23,86,-14.00,-3.00,-1046.00
2024-06-07 11:08:27.743228,-1,0,1,0,0,0,77,80,80,70,81,134.16,86,8.00,-45.00,-1042.00
2024-06-07 11:08:27.882238,-1,0,1,0,0,0,77,80,80,70,81,134.11,86,-21.00,31.00,-932.00
2024-06-07 11:08:27.947229,-1,0,1,0,0,0,77,80,80,70,81,134.18,86,-23.00,5.00,-1046.00
2024-06-07 11:08:28.086730,-1,0,1,0,0,0,77,80,80,70,81,134.07,86,-10.00,-12.00,-920.00
2024-06-07 11:08:28.151018,0,0,1,0,0,0,77,80,79,70,81,134.12,86,-5.00,-27.00,-1012.00
2024-06-07 11:08:28.253014,-1,0,1,0,0,0,77,80,79,70,81,134.05,86,-33.00,-22.00,-976.00
2024-06-07 11:08:28.393744,-1,0,1,0,0,0,77,80,77,70,81,134.09,87,-75.00,10.00,-1036.00
2024-06-07 11:08:28.459194,-2,0,1,0,0,0,77,80,77,70,81,134.10,87,-41.00,0.00,-1030.00
2024-06-07 11:08:28.563625,-3,0,1,0,0,0,77,80,77,70,81,134.20,87,-54.00,10.00,-980.00
2024-06-07 11:08:28.662293,-2,0,1,0,0,0,76,80,76,70,81,134.14,87,-54.00,-19.00,-1023.00
2024-06-07 11:08:28.805771,-1,1,1,0,0,0,76,80,75,60,81,134.18,87,-37.00,9.00,-1003.00
2024-06-07 11:08:28.865992,-1,1,1,0,0,0,76,80,75,60,81,134.11,87,-26.00,20.00,-1032.00
2024-06-07 11:08:29.008716,-1,1,1,0,0,0,76,80,75,60,81,134.11,87,5.00,-23.00,-1100.00
2024-06-07 11:08:29.070878,-1,1,1,0,0,0,76,80,75,60,81,134.08,87,-37.00,-7.00,-1059.00
2024-06-07 11:08:29.173667,-1,1,1,0,0,0,76,80,75,60,81,134.06,87,-38.00,-6.00,-1066.00
2024-06-07 11:08:29.274117,0,1,1,0,0,0,76,80,76,60,81,134.08,87,15.00,1.00,-1044.00
2024-06-07 11:08:29.417882,0,0,1,0,0,0,76,80,76,70,81,134.08,88,-21.00,-26.00,-989.00
2024-06-07 11:08:29.490144,0,0,1,0,0,0,76,80,76,70,81,134.09,88,-6.00,-29.00,-932.00
2024-06-07 11:08:29.580141,0,1,1,0,0,0,76,80,76,70,81,134.14,88,-7.00,-1.00,-872.00
2024-06-07 11:08:29.725524,0,1,1,0,0,0,78,79,76,70,81,134.07,88,-36.00,-10.00,-943.00
2024-06-07 11:08:29.784075,0,1,1,0,0,0,78,79,75,70,81,134.11,88,-16.00,12.00,-942.00
2024-06-07 11:08:29.929723,0,0,1,0,0,0,78,79,77,70,81,134.11,88,-42.00,-20.00,-1066.00
2024-06-07 11:08:29.988039,0,0,1,0,0,0,78,79,77,70,81,134.11,88,2.00,-12.00,-871.00
2024-06-07 11:08:30.134640,-1,0,1,0,0,0,78,79,77,70,81,134.12,88,4.00,-4.00,-1047.00
2024-06-07 11:08:30.192142,-1,0,1,0,0,0,78,79,77,70,81,134.15,88,8.00,-37.00,-987.00
2024-06-07 11:08:30.339360,0,1,1,0,0,0,78,79,77,70,81,134.20,88,-41.00,21.00,-998.00
2024-06-07 11:08:30.396058,0,1,1,0,0,0,78,79,78,70,81,134.16,89,15.00,-26.00,-1032.00
2024-06-07 11:08:30.544207,0,1,1,0,0,0,78,79,77,70,81,134.19,89,14.00,-35.00,-973.00
2024-06-07 11:08:30.548969,0,1,1,0,0,0,78,79,78,70,81,134.21,89,-34.00,2.00,-950.00
2024-06-07 11:08:30.749333,0,1,1,0,0,0,77,80,78,70,81,134.21,89,-54.00,9.00,-1071.00
2024-06-07 11:08:30.752856,0,0,2,0,0,0,77,80,79,70,81,134.23,89,20.00,2.00,-1121.00
2024-06-07 11:08:30.953620,0,0,2,0,0,-1,77,80,81,70,81,134.24,89,-18.00,6.00,-1020.00
2024-06-07 11:08:30.956801,0,0,1,0,0,-2,77,80,83,70,81,134.16,89,-17.00,46.00,-1104.00
2024-06-07 11:08:31.059166,-1,0,1,0,0,-3,77,80,87,70,81,134.23,89,-34.00,-2.00,-1134.00
2024-06-07 11:08:31.160956,-1,0,1,0,0,-4,77,80,92,80,81,134.22,89,-21.00,17.00,-990.00
2024-06-07 11:08:31.263062,-1,0,1,0,0,-4,77,80,96,80,81,134.33,89,-31.00,8.00,-1058.00
2024-06-07 11:08:31.365617,-1,0,1,0,0,-5,77,80,100,90,81,134.42,90,-5.00,-7.00,-1037.00
2024-06-07 11:08:31.466918,-1,0,1,0,0,-5,77,80,106,90,81,134.48,90,47.00,-4.00,-1011.00
2024-06-07 11:08:31.670518,-1,0,1,0,0,-5,77,80,111,100,81,134.49,90,-2.00,1.00,-967.00
2024-06-07 11:08:31.670753,0,0,1,0,0,-5,76,79,117,100,81,134.47,90,-19.00,3.00,-1050.00
2024-06-07 11:08:31.773145,0,0,1,0,0,-5,76,79,123,110,81,134.59,90,-23.00,-10.00,-930.00
2024-06-07 11:08:31.875207,0,0,1,0,0,-5,76,79,128,110,81,134.53,90,-5.00,-12.00,-1036.00
2024-06-07 11:08:31.977838,0,0,1,0,0,-4,76,79,132,120,81,134.67,90,-30.00,-36.00,-992.00
2024-06-07 11:08:32.079991,0,0,1,0,0,-4,76,79,137,120,81,134.72,90,-43.00,20.00,-1018.00
2024-06-07 11:08:32.182100,0,0,1,0,0,-4,76,79,142,130,81,134.74,90,0.00,-55.00,-1002.00
2024-06-07 11:08:32.285457,0,1,1,0,0,-3,76,79,146,130,81,134.76,90,-35.00,-21.00,-971.00
2024-06-07 11:08:32.384850,0,1,1,0,0,-3,76,79,150,130,81,134.83,91,-7.00,-26.00,-857.00
2024-06-07 11:08:32.489583,0,1,1,0,0,-3,76,79,151,140,81,134.96,91,14.00,-37.00,-993.00
2024-06-07 11:08:32.588809,0,1,1,0,0,-3,76,79,156,140,81,134.89,91,-22.00,-17.00,-1067.00
2024-06-07 11:08:32.694465,0,1,1,0,0,-2,76,79,160,140,81,134.98,91,13.00,-29.00,-964.00
2024-06-07 11:08:32.794930,0,1,1,0,0,-2,76,79,163,150,81,134.90,91,-45.00,-12.00,-921.00
2024-06-07 11:08:32.894813,0,1,1,0,0,-2,76,79,166,150,81,135.00,91,-42.00,-38.00,-988.00
2024-06-07 11:08:33.002132,0,1,1,0,0,-2,76,79,168,150,81,134.99,91,-53.00,-24.00,-1052.00
2024-06-07 11:08:33.099918,0,2,1,0,0,-1,76,79,170,150,81,134.98,91,-64.00,6.00,-1039.00
2024-06-07 11:08:33.201242,0,2,1,0,0,-1,76,79,173,160,81,135.04,91,-28.00,-36.00,-922.00
2024-06-07 11:08:33.308873,0,3,1,0,0,-1,76,79,175,160,81,134.99,91,-12.00,-45.00,-965.00
2024-06-07 11:08:33.404787,0,3,1,0,0,-1,76,79,176,160,81,135.08,92,-23.00,-28.00,-947.00
2024-06-07 11:08:33.507113,0,3,1,0,0,-1,76,79,177,160,81,135.08,92,-5.00,-20.00,-952.00
2024-06-07 11:08:33.616166,0,2,1,0,0,-1,76,79,181,160,81,135.04,92,23.00,-44.00,-946.00
2024-06-07 11:08:33.711097,0,2,1,0,0,0,77,79,180,160,81,135.05,92,-49.00,-34.00,-898.00
2024-06-07 11:08:33.813010,0,2,1,0,0,0,77,79,180,170,81,135.13,92,-74.00,-24.00,-1042.00
2024-06-07 11:08:33.923337,-1,2,1,0,0,0,77,79,183,170,81,135.10,92,13.00,-24.00,-1104.00
2024-06-07 11:08:34.017015,-1,2,1,0,0,0,77,79,182,170,81,135.11,92,-13.00,-26.00,-886.00
2024-06-07 11:08:34.128201,-1,2,1,0,0,0,77,79,185,170,81,135.00,92,30.00,-59.00,-916.00
2024-06-07 11:08:34.220867,-1,2,1,0,0,0,77,79,185,170,81,135.11,92,-61.00,4.00,-1037.00
2024-06-07 11:08:34.332848,-1,2,1,0,0,0,77,79,185,170,81,135.14,92,34.00,-25.00,-936.00
2024-06-07 11:08:34.425660,-1,2,1,0,0,0,77,79,185,170,81,135.11,93,-13.00,-23.00,-857.00
2024-06-07 11:08:34.477326,-1,1,2,0,0,0,77,79,183,170,81,135.14,93,-56.00,-32.00,-941.00
2024-06-07 11:08:34.578110,-1,1,2,0,0,0,77,79,184,170,81,135.15,93,-83.00,2.00,-986.00
2024-06-07 11:08:34.742489,-1,1,1,0,0,0,77,79,186,170,81,135.10,93,-8.00,-69.00,-1059.00
2024-06-07 11:08:34.835072,-1,1,1,0,0,0,77,79,183,170,81,135.04,93,-37.00,-31.00,-1004.00
2024-06-07 11:08:34.889277,-1,0,1,0,0,0,77,79,186,170,81,135.10,93,-16.00,-8.00,-938.00
2024-06-07 11:08:34.985764,-1,0,1,0,0,0,77,79,185,170,81,135.01,93,-48.00,-21.00,-947.00
2024-06-07 11:08:35.153287,-1,1,1,0,0,0,77,79,184,170,81,135.10,93,-31.00,-22.00,-992.00
2024-06-07 11:08:35.191456,-2,0,1,0,0,0,77,79,182,170,81,135.05,93,-37.00,-40.00,-907.00
2024-06-07 11:08:35.291786,-2,0,1,0,0,0,77,79,181,170,81,135.07,93,-74.00,-11.00,-976.00
2024-06-07 11:08:35.459337,-2,1,1,0,0,0,77,79,178,170,81,135.10,94,-8.00,-72.00,-1024.00
2024-06-07 11:08:35.495599,-2,1,1,0,0,0,77,79,176,170,81,135.06,94,-45.00,-30.00,-978.00
2024-06-07 11:08:35.664026,-1,2,1,0,0,0,77,79,180,170,81,134.94,94,-24.00,-21.00,-997.00
2024-06-07 11:08:35.699661,-2,2,1,0,0,0,76,79,175,160,81,134.98,94,-79.00,-13.00,-949.00
2024-06-07 11:08:35.868782,-2,2,1,0,0,1,76,79,173,160,81,134.99,94,-58.00,-4.00,-944.00
2024-06-07 11:08:35.913677,-3,1,1,0,0,1,76,79,171,160,81,135.04,94,-22.00,-57.00,-1044.00
2024-06-07 11:08:36.005587,-3,2,1,0,0,2,76,79,170,160,81,134.94,94,-73.00,-37.00,-916.00
2024-06-07 11:08:36.176786,-2,2,1,0,0,2,76,79,164,160,81,134.92,94,-27.00,-36.00,-1018.00
2024-06-07 11:08:36.210375,-2,2,1,0,0,2,76,79,163,150,81,134.87,94,-98.00,-16.00,-972.00
2024-06-07 11:08:36.380829,-2,2,1,0,0,2,76,79,161,150,81,134.77,94,-53.00,-35.00,-1030.00
2024-06-07 11:08:36.422689,-2,2,1,0,0,2,76,79,159,150,81,134.81,95,-58.00,-18.00,-1046.00
2024-06-07 11:08:36.516635,-2,1,1,0,0,2,76,79,155,150,81,134.75,95,-18.00,-13.00,-965.00
2024-06-07 11:08:36.688038,-2,1,1,0,0,2,76,79,152,140,81,134.79,95,-15.00,-55.00,-1057.00
2024-06-07 11:08:36.720609,-2,0,1,0,0,2,76,79,151,140,81,134.73,95,-7.00,-42.00,-904.00
2024-06-07 11:08:36.823014,-2,0,1,0,0,2,76,79,145,140,81,134.79,95,-60.00,-19.00,-1055.00
2024-06-07 11:08:36.995522,-2,0,1,0,0,2,76,79,145,140,81,134.74,95,-31.00,-47.00,-945.00
2024-06-07 11:08:37.026638,-2,1,1,0,0,2,76,79,142,130,81,134.78,95,-1.00,-51.00,-1016.00
2024-06-07 11:08:37.201215,-1,1,1,0,0,2,76,79,140,130,81,134.68,95,-27.00,-30.00,-982.00
2024-06-07 11:08:37.231485,-1,2,1,0,0,1,76,79,140,130,81,134.66,95,-36.00,-26.00,-1147.00
2024-06-07 11:08:37.333610,-1,2,1,0,0,1,76,79,139,130,81,134.62,95,-28.00,-16.00,-1016.00
2024-06-07 11:08:37.507220,-1,2,1,0,0,1,76,79,137,130,81,134.68,96,15.00,-41.00,-1058.00
2024-06-07 11:08:37.537572,-1,1,1,0,0,1,76,79,138,130,81,134.64,96,2.00,-36.00,-989.00
2024-06-07 11:08:37.712119,-1,1,1,0,0,0,76,79,136,120,81,134.68,96,-55.00,-24.00,-930.00
2024-06-07 11:08:37.741689,-1,1,1,0,0,0,76,79,136,120,81,134.72,96,-55.00,-9.00,-934.00
2024-06-07 11:08:37.916921,-1,1,1,0,0,0,76,79,135,120,81,134.73,96,-8.00,-17.00,-993.00
2024-06-07 11:08:37.945643,-1,1,1,0,0,0,76,79,136,120,81,134.61,96,-28.00,-15.00,-987.00
2024-06-07 11:08:38.121616,-1,1,1,0,0,0,76,79,135,120,81,134.68,96,-19.00,-55.00,-988.00
2024-06-07 11:08:38.149481,-1,1,1,0,0,0,76,79,134,120,81,134.66,96,-29.00,-32.00,-920.00
2024-06-07 11:08:38.251401,-1,1,1,0,0,0,76,79,134,120,81,134.68,96,-83.00,-20.00,-1054.00
2024-06-07 11:08:38.431867,-1,0,1,0,0,0,76,79,135,120,81,134.64,96,-2.00,-63.00,-969.00
2024-06-07 11:08:38.456348,-2,0,1,0,0,0,76,79,134,120,81,134.68,97,-49.00,-38.00,-997.00
2024-06-07 11:08:38.506544,-2,1,1,0,0,0,76,79,134,120,81,134.54,97,-28.00,-32.00,-1013.00
2024-06-07 11:08:38.634131,-1,1,1,0,0,0,76,79,133,120,81,134.59,97,-36.00,-52.00,-1006.00
2024-06-07 11:08:38.710617,-1,2,1,0,0,0,77,79,132,120,81,134.56,97,-11.00,-38.00,-1056.00
2024-06-07 11:08:38.838624,-1,2,1,0,0,0,77,79,130,120,81,134.57,97,-69.00,-47.00,-940.00
2024-06-07 11:08:38.914794,-1,2,1,0,0,0,77,79,130,120,81,134.67,97,-35.00,-51.00,-1072.00
2024-06-07 11:08:39.017117,-1,2,1,0,0,0,77,79,129,120,81,134.58,97,-12.00,-38.00,-957.00
2024-06-07 11:08:39.119540,-1,2,1,0,0,0,77,79,130,120,81,134.56,97,-52.00,-22.00,-1058.00
2024-06-07 11:08:39.221493,-1,2,1,0,0,0,77,79,130,120,81,134.56,97,-52.00,-13.00,-945.00
2024-06-07 11:08:39.323508,-1,2,1,0,0,0,77,79,128,120,81,134.48,97,-50.00,-64.00,-1070.00
2024-06-07 11:08:39.426208,-2,1,1,0,0,0,77,79,130,120,81,134.56,98,-20.00,-49.00,-916.00
2024-06-07 11:08:39.528775,-2,2,1,0,0,0,77,79,130,120,81,134.52,98,-47.00,-41.00,-1007.00
2024-06-07 11:08:39.630817,-2,2,1,0,0,0,77,79,129,120,81,134.45,98,-66.00,-44.00,-963.00
2024-06-07 11:08:39.730646,-3,1,1,0,0,0,77,78,130,120,81,134.44,98,-65.00,-55.00,-1075.00
2024-06-07 11:08:39.862356,-3,1,1,0,0,0,77,78,131,120,81,134.52,98,-24.00,-39.00,-1033.00
2024-06-07 11:08:39.934604,-2,1,1,0,0,0,77,78,131,120,81,134.51,98,-50.00,-26.00,-928.00
2024-06-07 11:08:40.067273,-2,2,1,0,0,0,77,78,131,120,81,134.59,98,-18.00,-65.00,-920.00
2024-06-07 11:08:40.138723,-2,3,1,0,0,0,77,78,131,120,81,134.53,98,-11.00,-35.00,-902.00
2024-06-07 11:08:40.240575,-2,2,1,0,0,0,77,78,133,120,81,134.58,98,-52.00,-36.00,-947.00
2024-06-07 11:08:40.374575,-2,2,1,0,0,0,77,78,133,120,81,134.57,99,-51.00,-97.00,-1027.00
2024-06-07 11:08:40.444523,-2,2,1,0,0,0,77,78,133,120,81,134.45,99,-30.00,-52.00,-951.00
2024-06-07 11:08:40.580647,-2,1,1,0,0,0,77,78,133,120,81,134.58,99,-15.00,-44.00,-1108.00
2024-06-07 11:08:40.649427,-2,1,1,0,0,0,77,78,133,120,81,134.58,99,-56.00,-27.00,-987.00
2024-06-07 11:08:40.750853,-3,1,1,0,0,0,76,78,134,120,81,134.52,99,-28.00,-26.00,-983.00
2024-06-07 11:08:40.886397,-7,1,1,0,0,0,76,78,134,120,81,134.56,99,-6.00,-44.00,-1041.00
2024-06-07 11:08:40.954718,-8,1,1,1,0,0,76,78,136,120,81,134.54,99,-9.00,-59.00,-967.00
2024-06-07 11:08:41.091176,-8,1,1,2,0,0,76,78,137,120,81,134.57,99,-41.00,-53.00,-881.00
2024-06-07 11:08:41.160143,-8,1,1,3,0,0,76,78,138,120,81,134.50,99,-37.00,-28.00,-989.00
2024-06-07 11:08:41.260514,-8,1,1,4,0,0,76,78,136,120,81,134.38,99,-48.00,-98.00,-1084.00
2024-06-07 11:08:41.398361,-8,1,1,5,0,0,76,78,137,120,81,134.35,100,-53.00,-57.00,-1010.00
2024-06-07 11:08:41.464340,-8,1,1,5,0,0,76,78,137,120,81,134.35,100,-29.00,-46.00,-981.00
2024-06-07 11:08:41.603205,-8,2,1,6,0,0,76,78,136,120,81,134.32,100,-48.00,-41.00,-1006.00
2024-06-07 11:08:41.668417,-8,2,1,7,0,0,76,78,135,120,81,134.31,100,-105.00,-30.00,-1053.00
2024-06-07 11:08:41.812556,-4,2,1,8,0,0,76,78,135,120,81,134.22,100,-97.00,-45.00,-1038.00
2024-06-07 11:08:41.872369,-1,2,1,7,0,0,76,78,133,120,81,134.32,100,-68.00,-54.00,-1021.00
2024-06-07 11:08:41.974352,1,2,1,7,0,0,76,78,131,120,81,134.35,100,-58.00,-83.00,-1003.00
2024-06-07 11:08:42.115201,3,2,1,6,0,0,76,78,131,120,81,134.32,100,-55.00,-41.00,-1065.00
2024-06-07 11:08:42.128273,2,2,1,4,0,0,76,78,130,120,81,134.30,100,-61.00,-50.00,-1097.00
2024-06-07 11:08:42.230360,0,2,1,3,0,0,76,78,131,120,81,134.40,100,-29.00,-85.00,-1034.00
2024-06-07 11:08:42.422323,0,2,1,3,0,0,76,78,130,120,81,134.45,101,-33.00,-64.00,-1063.00
2024-06-07 11:08:42.434285,0,2,1,3,0,0,76,78,129,120,81,134.49,101,-11.00,-78.00,-995.00
2024-06-07 11:08:42.627209,-1,3,1,3,0,0,76,78,130,120,81,134.45,101,-67.00,-20.00,-1024.00
2024-06-07 11:08:42.638245,-1,2,1,3,0,0,76,78,128,120,81,134.48,101,-24.00,-60.00,-1008.00
2024-06-07 11:08:42.832562,0,3,1,3,0,0,76,79,130,120,81,134.56,101,-39.00,-34.00,-1053.00
2024-06-07 11:08:42.842399,0,2,1,2,0,0,76,79,129,120,81,134.51,101,-28.00,-33.00,-1021.00
2024-06-07 11:08:43.036910,0,1,1,2,0,0,76,79,130,120,81,134.39,101,-26.00,-62.00,-1034.00
2024-06-07 11:08:43.046278,2,1,1,1,0,0,76,79,130,120,81,134.43,101,-32.00,-34.00,-1047.00
2024-06-07 11:08:43.243062,1,1,1,0,0,0,76,79,131,120,81,134.50,101,-9.00,-44.00,-987.00
2024-06-07 11:08:43.250401,0,1,1,0,0,0,76,79,133,120,81,134.58,101,-73.00,7.00,-1032.00
2024-06-07 11:08:43.447502,-1,1,1,0,0,0,76,79,133,120,81,134.58,102,-24.00,-50.00,-1003.00
2024-06-07 11:08:43.454205,-1,1,1,0,0,0,76,79,132,120,81,134.51,102,-18.00,-24.00,-964.00
2024-06-07 11:08:43.651360,-2,1,1,0,0,0,76,79,133,120,81,134.56,102,-73.00,2.00,-966.00
2024-06-07 11:08:43.658248,-2,0,1,0,0,0,76,79,135,120,81,134.60,102,-14.00,-27.00,-938.00
2024-06-07 11:08:43.760350,-1,0,1,0,0,0,76,78,134,120,81,134.60,102,-29.00,-30.00,-1043.00
2024-06-07 11:08:43.958854,-2,0,1,0,0,0,76,78,134,120,81,134.56,102,-19.00,19.00,-1003.00
2024-06-07 11:08:43.964283,-1,0,1,0,0,0,76,78,136,120,81,134.59,102,-41.00,11.00,-944.00
2024-06-07 11:08:44.163574,-1,-1,1,0,0,0,76,78,134,120,81,134.50,102,-31.00,3.00,-1022.00
2024-06-07 11:08:44.168312,-2,-1,1,0,0,0,76,78,136,120,81,134.59,102,2.00,-16.00,-1050.00
2024-06-07 11:08:44.369281,-1,-1,1,0,0,0,76,78,134,120,81,134.51,102,15.00,-16.00,-977.00
2024-06-07 11:08:44.372305,-1,0,1,0,0,0,76,78,135,120,81,134.57,103,-43.00,11.00,-1053.00
2024-06-07 11:08:44.573219,-1,0,1,0,0,0,76,78,135,120,81,134.58,103,-11.00,-39.00,-1009.00
2024-06-07 11:08:44.576334,0,0,1,0,0,0,76,78,135,120,81,134.65,103,-19.00,-17.00,-1022.00
2024-06-07 11:08:44.678281,-1,0,1,0,0,0,76,78,133,120,81,134.61,103,-11.00,4.00,-1038.00
2024-06-07 11:08:44.781264,-1,0,1,0,0,0,76,78,134,120,81,134.63,103,8.00,-18.00,-1071.00
2024-06-07 11:08:44.886360,0,0,1,0,0,0,76,78,133,120,81,134.63,103,2.00,-36.00,-976.00
2024-06-07 11:08:44.984246,0,1,1,0,0,0,76,78,133,120,81,134.56,103,-3.00,10.00,-988.00
2024-06-07 11:08:45.187316,0,1,1,0,0,0,76,78,133,120,81,134.58,103,-11.00,-44.00,-955.00
2024-06-07 11:08:45.188253,0,1,1,0,0,0,76,78,133,120,81,134.64,103,-31.00,-10.00,-1077.00
2024-06-07 11:08:45.290128,0,1,1,0,0,0,76,78,132,120,81,134.59,103,8.00,-20.00,-1026.00
2024-06-07 11:08:45.392621,0,1,1,0,0,0,76,78,131,120,81,134.54,104,5.00,-31.00,-1076.00
2024-06-07 11:08:45.494541,4,2,1,0,0,0,76,78,131,120,81,134.64,104,1.00,-45.00,-988.00
2024-06-07 11:08:45.597444,8,2,1,0,0,0,76,78,132,120,81,134.67,104,3.00,-22.00,-984.00
2024-06-07 11:08:45.699424,8,1,1,-2,0,0,76,78,131,120,81,134.63,104,-19.00,-39.00,-1071.00
2024-06-07 11:08:45.801105,8,1,1,-3,0,0,76,79,131,120,81,134.69,104,-21.00,9.00,-1055.00
2024-06-07 11:08:45.903893,7,1,1,-5,0,0,76,79,133,120,81,134.63,104,55.00,-34.00,-994.00
2024-06-07 11:08:46.004349,6,1,2,-5,0,0,76,79,131,120,81,134.64,104,15.00,-14.00,-1014.00
2024-06-07 11:08:46.106105,6,1,2,-6,0,0,76,79,132,120,81,134.57,104,13.00,-25.00,-900.00
2024-06-07 11:08:46.208693,5,1,2,-7,0,0,76,79,132,120,81,134.55,104,71.00,-17.00,-981.00
2024-06-07 11:08:46.313520,4,1,2,-7,0,0,76,79,131,120,81,134.50,104,41.00,-28.00,-953.00
2024-06-07 11:08:46.361101,2,1,2,-7,0,0,76,79,132,120,81,134.54,105,14.00,-23.00,-999.00
2024-06-07 11:08:46.518257,0,2,1,-7,0,0,76,79,134,120,81,134.57,105,28.00,-49.00,-1043.00
2024-06-07 11:08:46.565068,-3,2,1,-7,0,0,76,79,135,120,81,134.64,105,71.00,-77.00,-1003.00
2024-06-07 11:08:46.723053,-5,2,1,-5,0,0,76,79,136,120,81,134.60,105,23.00,-47.00,-925.00
2024-06-07 11:08:46.769051,-4,2,1,-4,0,0,76,78,136,120,81,134.67,105,54.00,-36.00,-1007.00
2024-06-07 11:08:46.927931,-3,2,1,-3,0,0,76,78,137,120,81,134.52,105,15.00,-59.00,-1020.00
2024-06-07 11:08:46.973020,-1,2,1,-3,0,0,76,78,135,120,81,134.66,105,-18.00,-38.00,-945.00
2024-06-07 11:08:47.133578,-1,2,1,-2,0,0,76,78,136,120,81,134.71,105,21.00,-16.00,-891.00
2024-06-07 11:08:47.177410,0,2,2,-2,0,0,76,78,135,120,81,134.72,105,61.00,-60.00,-940.00
2024-06-07 11:08:47.279642,0,2,2,-2,0,0,76,78,135,120,81,134.65,105,1.00,-62.00,-1024.00
2024-06-07 11:08:47.442142,0,2,2,-2,0,0,76,78,134,120,81,134.68,106,10.00,-43.00,-953.00
2024-06-07 11:08:47.484523,0,2,2,-2,0,0,76,78,134,120,81,134.65,106,-15.00,-50.00,-993.00
2024-06-07 11:08:47.586858,0,1,2,-2,0,0,76,78,133,120,81,134.65,106,-12.00,-35.00,-998.00
2024-06-07 11:08:47.687017,-1,1,1,-2,0,0,76,78,134,120,81,134.57,106,-33.00,-49.00,-956.00
2024-06-07 11:08:47.849682,-1,2,1,-1,0,0,76,79,134,120,81,134.61,106,-14.00,-31.00,-1027.00
2024-06-07 11:08:47.891028,-2,2,1,-1,0,0,76,79,133,120,81,134.65,106,25.00,-35.00,-1059.00
2024-06-07 11:08:48.054492,-4,2,1,0,0,0,76,79,135,120,81,134.63,106,41.00,-20.00,-1016.00
2024-06-07 11:08:48.096784,-1,2,1,0,0,0,76,79,133,120,81,134.67,106,44.00,-24.00,-981.00
2024-06-07 11:08:48.201784,0,2,1,0,0,0,76,79,132,120,81,134.63,106,18.00,-27.00,-962.00
2024-06-07 11:08:48.299584,0,2,1,0,0,0,76,79,132,120,81,134.70,106,-3.00,-29.00,-909.00
2024-06-07 11:08:48.401040,0,3,1,0,0,0,76,79,131,120,81,134.73,107,15.00,-39.00,-918.00
2024-06-07 11:08:48.566356,0,2,1,0,0,0,76,79,131,120,81,134.72,107,-27.00,-32.00,-976.00
2024-06-07 11:08:48.605019,0,2,1,0,0,0,76,79,131,120,81,134.60,107,0.00,-56.00,-984.00
2024-06-07 11:08:48.771163,0,1,1,0,0,0,76,79,130,120,81,134.59,107,11.00,-32.00,-1108.00
2024-06-07 11:08:48.808982,0,2,1,0,0,0,76,78,130,120,81,134.68,107,-9.00,-51.00,-1011.00
2024-06-07 11:08:48.976331,0,2,1,0,0,0,76,78,132,120,81,134.65,107,-43.00,2.00,-1062.00
2024-06-07 11:08:49.012965,0,2,1,0,0,0,76,78,134,120,81,134.65,107,-29.00,-44.00,-946.00
2024-06-07 11:08:49.115003,-1,2,1,0,0,0,76,78,133,120,81,134.64,107,-3.00,-76.00,-970.00
2024-06-07 11:08:49.217004,0,2,1,0,0,0,76,78,135,120,81,134.65,107,-13.00,-48.00,-955.00
2024-06-07 11:08:49.397869,0,2,1,0,0,0,76,78,136,120,81,134.64,107,0.00,-79.00,-977.00
2024-06-07 11:08:49.420903,0,2,1,0,0,0,76,78,137,120,81,134.65,108,-18.00,-43.00,-963.00
2024-06-07 11:08:49.590961,-1,3,1,0,0,0,76,78,139,120,81,134.58,108,5.00,-54.00,-997.00
2024-06-07 11:08:49.624930,-1,3,1,0,0,0,76,78,139,120,81,134.66,108,-21.00,-69.00,-1035.00
2024-06-07 11:08:49.742691,-1,3,1,0,0,0,76,78,140,130,81,134.71,108,-42.00,-51.00,-1027.00
2024-06-07 11:08:49.829062,-1,3,1,0,0,0,75,78,139,130,81,134.75,108,-24.00,-49.00,-974.00
2024-06-07 11:08:50.000044,0,3,1,0,0,0,75,78,141,130,81,134.67,108,1.00,-93.00,-992.00
2024-06-07 11:08:50.032928,0,3,1,0,0,0,75,78,141,130,81,134.66,108,30.00,-90.00,-991.00
2024-06-07 11:08:50.134944,0,4,1,0,0,0,75,78,140,130,81,134.63,108,37.00,-83.00,-958.00
2024-06-07 11:08:50.236920,0,4,1,0,0,0,75,78,140,130,81,134.66,108,-7.00,-42.00,-993.00
2024-06-07 11:08:50.409516,0,0,1,0,0,0,75,78,140,130,81,134.74,108,33.00,-64.00,-1004.00
2024-06-07 11:08:50.409577,0,-5,1,0,-1,0,75,78,140,130,81,134.69,109,35.00,-67.00,-1007.00
2024-06-07 11:08:50.491921,0,-3,1,0,-2,0,75,78,140,120,81,134.67,109,-17.00,-45.00,-1047.00
2024-06-07 11:08:50.614668,0,-1,1,0,-3,0,75,78,142,120,81,134.68,109,15.00,-37.00,-1088.00
2024-06-07 11:08:50.695907,0,1,2,0,-4,0,75,78,142,130,81,134.58,109,-13.00,-31.00,-988.00
2024-06-07 11:08:50.848829,0,3,2,0,-4,0,75,78,140,130,81,134.67,109,2.00,-29.00,-998.00
2024-06-07 11:08:50.900258,0,4,2,0,-3,0,75,78,143,130,81,134.64,109,-21.00,-35.00,-1042.00
2024-06-07 11:08:51.024709,0,4,2,0,-3,0,75,78,142,130,81,134.60,109,-36.00,-24.00,-1013.00
2024-06-07 11:08:51.103880,0,3,1,0,-3,0,75,78,142,130,81,134.70,109,17.00,-21.00,-943.00
2024-06-07 11:08:51.205861,0,2,1,0,-3,0,75,78,140,130,81,134.70,109,-27.00,-21.00,-945.00
2024-06-07 11:08:51.331359,0,2,1,0,-2,0,75,78,139,130,81,134.66,109,3.00,-50.00,-971.00
2024-06-07 11:08:51.409767,0,2,1,0,-2,0,75,78,140,130,81,134.68,110,-16.00,-8.00,-1072.00
2024-06-07 11:08:51.535898,0,2,1,0,-2,0,75,78,139,130,81,134.70,110,22.00,-19.00,-1014.00
2024-06-07 11:08:51.613816,0,3,1,0,-2,0,75,78,138,130,81,134.67,110,-32.00,-54.00,-958.00
2024-06-07 11:08:51.740695,0,3,1,0,-2,0,75,78,139,120,81,134.62,110,-13.00,-70.00,-1025.00
2024-06-07 11:08:51.817796,0,3,1,0,-1,0,76,78,138,120,81,134.56,110,-51.00,0.00,-1078.00
2024-06-07 11:08:51.945473,0,4,1,0,-1,0,76,78,138,120,81,134.56,110,12.00,-49.00,-1040.00
2024-06-07 11:08:52.021930,0,5,1,0,-1,0,76,78,137,120,81,134.53,110,-59.00,-66.00,-1036.00
2024-06-07 11:08:52.123933,0,4,1,0,0,0,76,78,136,120,81,134.57,110,8.00,-55.00,-1055.00
2024-06-07 11:08:52.226036,-1,3,1,0,0,0,76,78,134,120,81,134.55,110,-11.00,-60.00,-999.00
2024-06-07 11:08:52.328733,-1,3,1,0,0,0,76,78,134,120,81,134.58,110,-88.00,-20.00,-988.00
2024-06-07 11:08:52.430792,-1,2,1,0,0,0,76,78,130,120,81,134.44,111,-102.00,-66.00,-1058.00
2024-06-07 11:08:52.533585,-1,2,1,0,0,0,76,78,130,120,81,134.45,111,-48.00,-21.00,-994.00
2024-06-07 11:08:52.635943,-1,2,1,0,0,0,76,78,129,120,81,134.47,111,-68.00,-38.00,-979.00
2024-06-07 11:08:52.738017,-1,1,1,0,0,0,76,78,129,120,81,134.52,111,-43.00,-42.00,-1074.00
2024-06-07 11:08:52.838313,-1,2,1,0,0,0,76,79,129,120,81,134.46,111,-57.00,-62.00,-985.00
2024-06-07 11:08:52.940064,-2,2,1,0,0,0,76,79,127,120,81,134.50,111,-16.00,-47.00,-992.00
2024-06-07 11:08:53.072989,-1,3,1,0,0,0,76,79,128,120,81,134.50,111,-44.00,-16.00,-1050.00
2024-06-07 11:08:53.144025,-1,3,1,0,0,0,76,79,126,120,81,134.60,111,-23.00,-33.00,-1005.00
2024-06-07 11:08:53.276743,0,2,1,0,0,0,76,79,127,120,81,134.71,111,25.00,-45.00,-1053.00
2024-06-07 11:08:53.347774,0,2,1,0,0,0,76,79,127,120,81,134.42,111,18.00,-90.00,-975.00
2024-06-07 11:08:53.449779,0,3,1,0,0,0,76,79,127,120,81,134.50,112,0.00,-73.00,-983.00
2024-06-07 11:08:53.551812,0,3,1,0,0,0,76,79,129,120,81,134.45,112,-6.00,-42.00,-995.00
2024-06-07 11:08:53.686483,0,3,1,0,0,0,76,79,130,120,81,134.51,112,-7.00,-69.00,-979.00
2024-06-07 11:08:53.755677,0,3,1,0,0,0,76,79,131,120,81,134.49,112,-8.00,-19.00,-924.00
2024-06-07 11:08:53.892743,-1,2,1,0,0,0,76,78,131,120,81,134.54,112,-40.00,-42.00,-934.00
2024-06-07 11:08:53.959680,-1,2,2,0,0,0,76,78,132,120,81,134.45,112,-75.00,-23.00,-916.00
2024-06-07 11:08:54.076330,-1,2,2,0,0,0,76,78,133,120,81,134.57,112,-37.00,-12.00,-1001.00
2024-06-07 11:08:54.163718,-1,2,2,0,0,0,76,78,134,120,81,134.42,112,-47.00,-27.00,-977.00
2024-06-07 11:08:54.300822,-1,7,2,0,0,0,76,78,134,120,81,134.46,112,-55.00,-55.00,-1009.00
2024-06-07 11:08:54.317940,-1,8,2,0,1,0,76,78,137,120,81,134.51,113,-60.00,-20.00,-968.00
2024-06-07 11:08:54.506110,-2,8,2,0,2,0,76,78,137,120,81,134.55,113,-35.00,-53.00,-953.00
2024-06-07 11:08:54.521726,-2,8,2,0,3,0,76,78,136,120,81,134.41,113,-34.00,-47.00,-1041.00
2024-06-07 11:08:54.711868,-2,4,2,0,3,0,76,78,134,120,81,134.40,113,-12.00,-29.00,-1003.00
2024-06-07 11:08:54.725636,-1,1,2,0,4,0,76,78,134,120,81,134.68,113,-16.00,-30.00,-992.00
2024-06-07 11:08:54.922284,-1,0,2,0,3,0,76,79,133,120,81,134.53,113,-32.00,-79.00,-1084.00
2024-06-07 11:08:54.929635,-1,1,1,0,3,0,76,79,134,120,81,134.44,113,-10.00,-60.00,-979.00
2024-06-07 11:08:55.120315,-1,1,1,0,3,0,76,79,133,120,81,134.53,113,-47.00,-33.00,-1004.00
2024-06-07 11:08:55.133680,-1,1,1,0,2,0,76,79,136,120,81,134.50,113,-20.00,-46.00,-975.00
2024-06-07 11:08:55.235642,-1,2,1,0,2,0,76,79,135,120,81,134.54,113,0.00,-88.00,-1032.00
2024-06-07 11:08:55.426987,-1,3,1,0,2,0,76,79,135,120,81,134.58,114,0.00,-81.00,-982.00
2024-06-07 11:08:55.440471,0,2,1,0,2,0,76,79,135,120,81,134.48,114,-50.00,-2.00,-942.00
2024-06-07 11:08:55.631906,0,2,1,0,2,0,76,79,133,120,81,134.64,114,23.00,-41.00,-989.00
2024-06-07 11:08:55.645180,0,1,1,0,2,0,76,79,132,120,81,134.61,114,-12.00,-62.00,-995.00
2024-06-07 11:08:55.745711,0,0,1,0,2,0,76,79,131,120,81,134.47,114,18.00,-51.00,-1013.00
2024-06-07 11:08:55.847502,0,0,1,0,2,0,76,79,131,120,81,134.56,114,-3.00,-44.00,-984.00
2024-06-07 11:08:56.041921,0,-1,1,0,1,0,76,79,130,120,81,134.57,114,34.00,-34.00,-1068.00
2024-06-07 11:08:56.051470,2,0,1,0,0,0,76,79,132,120,81,134.52,114,14.00,-42.00,-1028.00
2024-06-07 11:08:56.246337,5,0,1,0,0,0,76,79,132,120,81,134.48,114,61.00,-62.00,-1003.00
2024-06-07 11:08:56.255472,5,1,1,0,0,0,76,79,131,120,81,134.54,114,10.00,-58.00,-1034.00
2024-06-07 11:08:56.451033,3,2,1,0,0,0,76,79,132,120,81,134.51,115,21.00,-67.00,-1029.00
2024-06-07 11:08:56.459431,2,3,1,-1,0,0,76,79,134,120,81,134.55,115,46.00,-37.00,-1016.00
2024-06-07 11:08:56.655970,1,2,1,-1,0,0,76,79,135,120,81,134.55,115,11.00,-20.00,-1056.00
2024-06-07 11:08:56.663664,-3,2,1,0,0,0,76,79,135,120,81,134.46,115,50.00,-45.00,-982.00
2024-06-07 11:08:56.860814,-1,2,1,0,0,0,76,79,137,120,81,134.58,115,19.00,-10.00,-1042.00
2024-06-07 11:08:56.869000,0,1,1,0,0,0,76,78,136,120,81,134.60,115,-3.00,12.00,-958.00
2024-06-07 11:08:56.969766,0,1,1,0,0,0,76,78,136,120,81,134.69,115,33.00,-44.00,-1099.00
2024-06-07 11:08:57.072324,0,1,1,0,0,0,76,78,137,120,81,134.56,115,19.00,-58.00,-950.00
2024-06-07 11:08:57.271261,0,1,2,0,0,0,76,78,137,120,81,134.61,115,13.00,-22.00,-837.00
2024-06-07 11:08:57.275442,0,1,1,0,0,0,76,78,136,120,81,134.56,115,0.00,-28.00,-922.00
2024-06-07 11:08:57.475212,0,2,1,0,0,0,76,78,134,120,81,134.60,116,-20.00,-41.00,-1101.00
2024-06-07 11:08:57.479541,0,2,1,0,0,0,76,78,135,120,81,134.61,116,47.00,-69.00,-988.00
2024-06-07 11:08:57.530563,0,1,2,0,0,0,76,78,136,120,81,134.61,116,-28.00,13.00,-988.00
2024-06-07 11:08:57.680239,0,1,2,0,0,0,76,78,134,120,81,134.60,116,15.00,-38.00,-1073.00
2024-06-07 11:08:57.734572,0,2,2,0,0,0,76,78,134,120,81,134.52,116,17.00,-38.00,-984.00
2024-06-07 11:08:57.891340,0,1,1,0,0,0,75,78,133,120,81,134.53,116,-25.00,-10.00,-1030.00
2024-06-07 11:08:57.990467,0,1,1,0,0,0,75,78,135,120,81,134.48,116,60.00,-46.00,-1029.00
2024-06-07 11:08:58.091343,0,1,1,0,0,0,75,78,134,120,81,134.57,116,-22.00,-16.00,-941.00
2024-06-07 11:08:58.142563,0,1,1,0,0,0,75,78,135,120,81,134.66,116,-33.00,-20.00,-941.00
2024-06-07 11:08:58.244479,0,2,1,0,0,0,75,78,134,120,81,134.57,116,34.00,-55.00,-1123.00
2024-06-07 11:08:58.400941,0,1,1,0,0,0,75,78,135,120,81,134.52,117,15.00,-40.00,-935.00
2024-06-07 11:08:58.448549,0,2,1,0,0,0,75,78,133,120,81,134.56,117,-5.00,-40.00,-992.00
2024-06-07 11:08:58.601579,0,2,1,0,0,0,75,78,133,120,81,134.61,117,-36.00,10.00,-928.00
2024-06-07 11:08:58.652460,0,1,1,0,0,0,75,78,132,120,81,134.59,117,-4.00,-16.00,-931.00
2024-06-07 11:08:58.754406,0,0,1,0,0,0,75,78,133,120,81,134.57,117,-21.00,-16.00,-1011.00
2024-06-07 11:08:58.908636,0,0,5,0,0,0,76,78,132,120,81,134.48,117,40.00,-51.00,-940.00
2024-06-07 11:08:58.958388,0,0,11,0,0,0,76,78,131,120,81,134.43,117,-15.00,-18.00,-1098.00
2024-06-07 11:08:59.113429,0,0,17,0,0,0,76,78,132,120,81,134.50,117,-21.00,-51.00,-1014.00
2024-06-07 11:08:59.162434,-1,0,23,0,0,0,76,78,130,120,81,134.47,117,-22.00,6.00,-1000.00
2024-06-07 11:08:59.318206,-1,0,29,0,0,0,76,78,129,120,81,134.43,117,-49.00,24.00,-961.00
2024-06-07 11:08:59.366345,-2,0,36,0,0,0,76,78,132,120,81,134.50,118,16.00,-18.00,-937.00
2024-06-07 11:08:59.523401,-2,0,41,0,0,0,76,78,132,120,81,134.44,118,-29.00,13.00,-1155.00
2024-06-07 11:08:59.570389,-2,-1,47,0,0,0,76,78,130,120,81,134.45,118,-74.00,20.00,-1020.00
2024-06-07 11:08:59.728588,-2,-1,53,0,0,0,76,78,130,120,81,134.57,118,-83.00,21.00,-932.00
2024-06-07 11:08:59.774333,-2,-2,59,0,0,0,76,78,131,120,81,134.57,118,-18.00,19.00,-1014.00
2024-06-07 11:08:59.934501,-2,-2,65,0,0,0,76,79,131,120,81,134.50,118,-41.00,3.00,-949.00
2024-06-07 11:08:59.979124,-1,-1,71,0,0,0,76,79,132,120,81,134.45,118,-44.00,12.00,-1025.00
2024-06-07 11:09:00.138292,-1,-1,76,0,0,0,76,79,132,120,81,134.58,118,-6.00,38.00,-1007.00
2024-06-07 11:09:00.182360,-1,-2,82,0,0,0,76,79,130,120,81,134.63,118,-51.00,13.00,-971.00
2024-06-07 11:09:00.342163,-1,-2,88,0,0,0,76,79,132,120,81,134.58,118,-40.00,31.00,-932.00
2024-06-07 11:09:00.386683,-2,-1,94,0,0,0,76,79,130,120,81,134.56,119,-12.00,42.00,-1015.00
2024-06-07 11:09:00.546903,-1,-2,100,0,0,0,76,79,132,120,81,134.57,119,-16.00,19.00,-1061.00
2024-06-07 11:09:00.591724,-1,-1,106,0,0,0,76,79,131,120,81,134.46,119,-26.00,39.00,-978.00
2024-06-07 11:09:00.752217,0,-2,112,0,0,0,76,79,132,120,81,134.52,119,-10.00,73.00,-1036.00
2024-06-07 11:09:00.796124,0,-2,118,0,0,0,76,79,131,120,81,134.52,119,16.00,23.00,-1014.00
2024-06-07 11:09:00.896322,0,-2,123,0,0,0,75,78,131,120,81,134.54,119,32.00,63.00,-897.00
2024-06-07 11:09:00.998536,0,-2,129,0,0,0,75,78,130,120,81,134.47,119,-13.00,63.00,-1062.00
2024-06-07 11:09:01.102634,0,-2,135,0,0,0,75,78,131,120,81,134.43,119,49.00,49.00,-1033.00
2024-06-07 11:09:01.202472,1,-2,141,0,0,0,75,78,131,120,81,134.56,119,-1.00,63.00,-987.00
2024-06-07 11:09:01.366184,0,-2,148,0,0,0,75,78,130,120,81,134.54,119,25.00,39.00,-1051.00
2024-06-07 11:09:01.406406,0,-2,154,0,0,0,75,78,131,120,81,134.56,120,54.00,32.00,-909.00
2024-06-07 11:09:01.508237,1,-2,160,0,0,0,75,78,132,120,81,134.59,120,18.00,51.00,-951.00
2024-06-07 11:09:01.610364,1,-2,167,0,0,0,75,78,132,120,81,134.59,120,25.00,53.00,-993.00
2024-06-07 11:09:01.712354,1,-2,173,0,0,0,75,78,132,120,81,134.60,120,37.00,44.00,-1121.00
2024-06-07 11:09:01.814281,2,-1,179,0,0,0,75,78,132,120,81,134.59,120,15.00,19.00,-932.00
2024-06-07 11:09:01.981078,2,-1,-174,0,0,0,75,77,132,120,81,134.66,120,43.00,40.00,-889.00
2024-06-07 11:09:02.018255,2,-1,-169,0,0,0,75,77,132,120,81,134.58,120,63.00,26.00,-1009.00
2024-06-07 11:09:02.069174,2,-1,-163,0,0,0,75,77,134,120,81,134.66,120,47.00,74.00,-1051.00
2024-06-07 11:09:02.186369,2,-1,-157,0,0,0,75,77,133,120,81,134.68,120,44.00,7.00,-985.00
2024-06-07 11:09:02.274163,3,-1,-151,0,0,0,75,77,134,120,81,134.67,120,35.00,42.00,-967.00
2024-06-07 11:09:02.390301,3,0,-144,0,0,0,75,77,135,120,81,134.59,121,55.00,31.00,-1037.00
2024-06-07 11:09:02.478307,4,0,-139,0,0,0,75,77,136,120,81,134.63,121,63.00,17.00,-1001.00
2024-06-07 11:09:02.580083,4,0,-133,0,0,0,75,77,137,120,81,134.61,121,66.00,34.00,-917.00
2024-06-07 11:09:02.698225,4,0,-127,0,0,0,75,77,137,120,81,134.57,121,64.00,-41.00,-1069.00
2024-06-07 11:09:02.784154,3,0,-121,0,0,0,75,77,137,120,81,134.63,121,19.00,19.00,-989.00
2024-06-07 11:09:02.902154,3,0,-115,0,0,0,76,78,138,120,81,134.55,121,43.00,4.00,-1090.00
2024-06-07 11:09:02.988185,3,1,-109,0,0,0,76,78,137,120,81,134.53,121,54.00,-53.00,-938.00
2024-06-07 11:09:03.106979,2,1,-103,0,0,0,76,78,136,120,81,134.54,121,73.00,-43.00,-984.00
2024-06-07 11:09:03.192494,2,1,-98,0,0,0,76,78,137,120,81,134.53,121,79.00,-75.00,-994.00
2024-06-07 11:09:03.311778,1,2,-92,0,0,0,76,78,136,120,81,134.56,121,17.00,-38.00,-977.00
2024-06-07 11:09:03.396247,1,2,-86,0,0,0,76,78,134,120,81,134.62,122,50.00,-41.00,-1067.00
2024-06-07 11:09:03.519502,1,2,-79,0,0,0,76,78,135,120,81,134.57,122,-38.00,-36.00,-1021.00
2024-06-07 11:09:03.600133,0,3,-73,0,0,0,76,78,134,120,81,134.66,122,21.00,-88.00,-1109.00
2024-06-07 11:09:03.702465,0,3,-67,0,0,0,76,78,133,120,81,134.61,122,38.00,-78.00,-957.00
2024-06-07 11:09:03.825412,0,3,-61,0,0,0,76,78,133,120,81,134.58,122,-6.00,-38.00,-1001.00
2024-06-07 11:09:03.906680,0,3,-55,0,0,0,76,78,132,120,80,134.63,122,-4.00,-9.00,-961.00
2024-06-07 11:09:04.031342,-1,3,-49,0,0,0,76,78,130,120,80,134.63,122,-44.00,-49.00,-952.00
2024-06-07 11:09:04.110078,0,3,-43,0,0,0,76,78,131,120,80,134.56,122,26.00,-94.00,-943.00
2024-06-07 11:09:04.212465,0,3,-37,0,0,0,76,78,129,120,80,134.60,122,-13.00,-60.00,-987.00
2024-06-07 11:09:04.336010,-1,3,-32,0,0,0,76,78,127,120,80,134.55,122,3.00,-69.00,-997.00
2024-06-07 11:09:04.416058,-1,3,-26,0,0,0,76,78,127,120,80,134.57,123,22.00,-63.00,-1012.00
2024-06-07 11:09:04.540568,-1,3,-20,0,0,0,76,78,126,120,80,134.54,123,15.00,-71.00,-1044.00
2024-06-07 11:09:04.620082,0,4,-15,0,0,0,76,78,125,120,80,134.58,123,9.00,-73.00,-1016.00
2024-06-07 11:09:04.745295,0,4,-11,0,0,0,76,78,124,120,80,134.52,123,11.00,-48.00,-1106.00
2024-06-07 11:09:04.824059,0,4,-8,0,0,0,76,78,121,120,80,134.53,123,20.00,-89.00,-996.00
2024-06-07 11:09:04.950131,0,4,-6,0,0,0,75,78,121,120,80,134.52,123,-58.00,-41.00,-1082.00
2024-06-07 11:09:05.028128,-1,4,-4,0,0,0,75,78,120,110,80,134.46,123,-54.00,-7.00,-985.00
2024-06-07 11:09:05.154959,-1,4,-2,0,0,0,75,78,120,110,80,134.42,123,-70.00,-55.00,-1087.00
2024-06-07 11:09:05.232093,-1,4,-1,0,0,0,75,78,121,110,80,134.50,123,-23.00,-49.00,-1022.00
2024-06-07 11:09:05.359752,-1,4,0,0,0,0,75,78,123,110,80,134.52,123,3.00,-83.00,-1024.00
2024-06-07 11:09:05.436074,-1,4,0,0,0,0,75,78,123,110,80,134.51,124,-40.00,-70.00,-1001.00
2024-06-07 11:09:05.564733,0,4,0,0,0,0,75,78,124,110,80,134.50,124,-23.00,-43.00,-977.00
2024-06-07 11:09:05.589100,0,4,0,0,0,0,75,78,127,110,80,134.54,124,-53.00,-58.00,-958.00
2024-06-07 11:09:05.772455,0,4,0,0,0,0,75,78,127,110,80,134.53,124,-5.00,-71.00,-1042.00
2024-06-07 11:09:05.793099,0,4,0,0,0,0,75,78,129,120,80,134.57,124,-6.00,-81.00,-1035.00
2024-06-07 11:09:05.974371,0,4,0,0,0,0,76,78,129,120,80,134.58,124,-41.00,-63.00,-1065.00
2024-06-07 11:09:06.048837,0,4,0,0,0,0,76,78,132,120,80,134.60,124,-38.00,-65.00,-1035.00
2024-06-07 11:09:06.099084,0,4,0,0,0,0,76,78,133,120,80,134.58,124,-42.00,-69.00,-915.00
2024-06-07 11:09:06.284317,0,3,0,0,0,0,76,78,135,120,80,134.54,124,-26.00,-35.00,-969.00
2024-06-07 11:09:06.304152,0,3,0,0,0,0,76,78,134,120,80,134.63,124,1.00,-50.00,-983.00
2024-06-07 11:09:06.486346,0,3,0,0,0,0,76,78,136,120,80,134.63,125,25.00,-83.00,-1012.00
2024-06-07 11:09:06.509359,0,3,0,0,0,0,76,78,137,120,80,134.71,125,-26.00,-104.00,-992.00
2024-06-07 11:09:06.691033,0,2,0,0,0,0,76,78,139,120,80,134.64,125,20.00,-87.00,-1020.00
2024-06-07 11:09:06.712181,0,3,0,0,0,0,76,78,141,120,80,134.66,125,-20.00,-55.00,-962.00
2024-06-07 11:09:06.895919,0,3,0,0,0,0,76,78,139,120,80,134.78,125,16.00,-55.00,-1010.00
2024-06-07 11:09:06.916019,0,3,0,0,0,0,76,79,140,120,80,134.75,125,46.00,-90.00,-946.00
2024-06-07 11:09:07.100622,0,3,0,0,0,0,76,79,139,120,80,134.68,125,24.00,-54.00,-965.00
2024-06-07 11:09:07.119898,0,3,0,0,0,0,76,79,139,120,80,134.74,125,46.00,-68.00,-995.00
2024-06-07 11:09:07.305560,0,3,0,0,0,0,76,79,139,120,80,134.75,125,17.00,-44.00,-1061.00
2024-06-07 11:09:07.324005,1,2,0,0,0,0,76,79,139,120,80,134.78,125,52.00,-103.00,-1039.00
2024-06-07 11:09:07.425967,1,3,0,0,0,0,76,79,139,120,80,134.75,126,12.00,-70.00,-988.00
2024-06-07 11:09:07.613134,2,4,0,0,0,0,76,79,137,120,80,134.86,126,39.00,-18.00,-961.00
2024-06-07 11:09:07.630037,3,4,-4,1,0,0,76,79,137,120,80,134.83,126,75.00,-81.00,-1026.00
2024-06-07 11:09:07.759448,4,4,-9,0,0,0,76,79,138,120,80,134.71,126,79.00,-88.00,-1005.00
2024-06-07 11:09:07.833885,5,5,-15,0,0,0,76,79,139,120,80,134.77,126,98.00,-66.00,-1001.00
2024-06-07 11:09:08.022154,5,5,-21,0,0,0,76,79,135,120,80,134.74,126,100.00,-86.00,-1058.00
2024-06-07 11:09:08.038345,6,4,-27,0,0,0,76,79,135,120,80,134.77,126,77.00,-39.00,-952.00
2024-06-07 11:09:08.231761,6,3,-33,0,0,0,76,79,138,120,80,134.78,126,48.00,-85.00,-965.00
2024-06-07 11:09:08.241910,6,3,-39,0,0,0,76,79,135,120,80,134.70,126,61.00,-19.00,-945.00
2024-06-07 11:09:08.343845,5,3,-45,0,0,0,76,79,136,120,80,134.53,126,99.00,-32.00,-995.00
2024-06-07 11:09:08.535166,5,3,-52,0,0,0,76,79,135,120,80,134.66,127,92.00,-23.00,-943.00
2024-06-07 11:09:08.552817,7,1,-58,0,0,0,76,79,137,120,80,134.57,127,87.00,-7.00,-970.00
2024-06-07 11:09:08.649877,6,0,-64,0,0,0,76,79,139,120,80,134.55,127,73.00,-33.00,-973.00
2024-06-07 11:09:08.845521,6,0,-70,0,0,0,76,79,137,120,80,134.49,127,61.00,26.00,-995.00
2024-06-07 11:09:08.854151,6,0,-75,0,0,0,76,79,137,120,80,134.63,127,113.00,0.00,-1044.00
2024-06-07 11:09:09.046680,7,0,-87,0,0,0,77,79,136,120,80,134.53,127,174.00,-23.00,-1051.00
2024-06-07 11:09:09.057751,7,-1,-92,0,0,0,77,79,139,120,80,134.54,127,132.00,19.00,-998.00
2024-06-07 11:09:09.250907,7,-2,-98,0,0,0,77,79,138,120,80,134.75,127,134.00,72.00,-984.00
2024-06-07 11:09:09.261811,7,-3,-104,0,0,0,77,79,136,120,80,134.68,127,173.00,42.00,-983.00
2024-06-07 11:09:09.456112,7,-4,-109,0,0,0,77,79,139,120,80,134.74,128,95.00,67.00,-891.00
2024-06-07 11:09:09.466885,7,-4,-115,0,0,0,77,79,139,120,80,134.79,128,136.00,86.00,-1029.00
2024-06-07 11:09:09.516824,6,-5,-121,0,0,0,77,79,138,120,80,134.84,128,105.00,93.00,-948.00
2024-06-07 11:09:09.660500,6,-5,-127,0,0,0,77,79,138,120,80,134.72,128,68.00,113.00,-997.00
2024-06-07 11:09:09.722363,6,-5,-133,0,0,0,77,79,138,120,80,134.71,128,114.00,110.00,-1034.00
2024-06-07 11:09:09.822756,5,-5,-139,0,0,0,77,79,138,120,80,134.74,128,94.00,86.00,-919.00
2024-06-07 11:09:09.967669,4,-4,-144,-1,0,0,76,78,137,120,80,134.73,128,76.00,76.00,-928.00
2024-06-07 11:09:10.026822,4,-4,-150,-1,0,0,76,78,137,120,80,134.76,128,95.00,51.00,-948.00
2024-06-07 11:09:10.172501,5,-4,-156,-1,0,0,76,78,137,120,80,134.71,128,135.00,59.00,-944.00
2024-06-07 11:09:10.231575,5,-4,-162,-1,0,0,76,78,138,120,80,134.72,128,112.00,107.00,-1095.00
2024-06-07 11:09:10.378783,4,-5,-167,0,0,0,76,78,138,120,80,134.75,129,0.00,97.00,-906.00
2024-06-07 11:09:10.435759,3,-5,-173,0,0,0,76,78,139,120,80,134.77,129,85.00,82.00,-963.00
2024-06-07 11:09:10.582575,2,-5,-179,0,0,0,76,78,138,120,80,134.74,129,31.00,119.00,-1002.00
2024-06-07 11:09:10.639760,1,-5,174,0,0,0,76,78,139,120,80,134.71,129,32.00,79.00,-1011.00
2024-06-07 11:09:10.742358,1,-5,167,0,0,0,76,78,138,120,80,134.54,129,-13.00,103.00,-959.00
2024-06-07 11:09:10.843720,0,-5,161,0,0,0,76,78,137,120,80,134.57,129,-26.00,84.00,-1066.00
2024-06-07 11:09:10.991705,-1,-4,155,0,1,0,76,79,137,120,79,134.69,129,3.00,50.00,-962.00
2024-06-07 11:09:11.047719,-1,-2,149,0,1,0,76,79,137,120,79,134.54,129,11.00,46.00,-900.00
2024-06-07 11:09:11.196485,-1,-2,143,0,0,0,76,79,135,120,79,134.54,129,-46.00,80.00,-1007.00
2024-06-07 11:09:11.251662,-1,-3,137,0,0,0,76,79,135,120,79,134.56,129,-1.00,27.00,-1002.00
2024-06-07 11:09:11.401234,-1,-2,131,0,0,0,76,79,133,120,79,134.56,130,-25.00,68.00,-947.00
2024-06-07 11:09:11.455847,-2,-2,125,0,0,0,76,79,133,120,79,134.49,130,-92.00,56.00,-1034.00
2024-06-07 11:09:11.605978,-3,-1,119,0,0,0,76,79,132,120,79,134.46,130,-69.00,50.00,-996.00
2024-06-07 11:09:11.660266,-3,-1,112,0,0,0,76,79,132,120,79,134.34,130,-94.00,53.00,-972.00
2024-06-07 11:09:11.810944,-4,0,107,1,0,0,76,79,131,120,79,134.35,130,-100.00,1.00,-1016.00
2024-06-07 11:09:11.863575,-4,1,101,0,0,0,76,79,132,120,79,134.15,130,-93.00,24.00,-1014.00
2024-06-07 11:09:12.015581,-4,1,96,0,0,0,76,78,132,120,79,134.25,130,-73.00,4.00,-946.00
2024-06-07 11:09:12.067761,-4,1,90,0,0,0,76,78,131,120,79,134.26,130,-75.00,19.00,-999.00
2024-06-07 11:09:12.220858,-4,1,84,0,0,0,76,78,132,120,79,134.23,130,-94.00,31.00,-1021.00
2024-06-07 11:09:12.273476,-4,1,78,0,0,0,76,78,132,120,79,134.29,130,-87.00,-10.00,-1078.00
2024-06-07 11:09:12.376533,-3,2,72,0,0,0,76,78,131,120,79,134.24,131,-48.00,-23.00,-1015.00
2024-06-07 11:09:12.475907,-3,2,66,0,0,0,76,78,131,120,79,134.23,131,-72.00,-31.00,-1011.00
2024-06-07 11:09:12.630085,-3,1,60,0,0,0,76,78,132,120,79,134.41,131,-57.00,-25.00,-1009.00
2024-06-07 11:09:12.635607,-3,2,53,0,0,0,76,78,131,120,79,134.31,131,-77.00,-16.00,-976.00
2024-06-07 11:09:12.730702,-3,3,47,0,0,0,76,78,132,120,79,134.44,131,6.00,-61.00,-997.00
2024-06-07 11:09:12.834941,-2,4,41,0,0,0,76,78,131,120,79,134.47,131,-15.00,-69.00,-956.00
2024-06-07 11:09:12.985667,0,4,34,0,0,0,76,78,132,120,79,134.41,131,-18.00,-86.00,-998.00
2024-06-07 11:09:13.142144,0,5,29,0,0,0,76,78,132,120,79,134.40,131,-37.00,-52.00,-1031.00
2024-06-07 11:09:13.189587,0,5,23,0,0,0,76,78,131,120,79,134.47,131,-15.00,-90.00,-1071.00
2024-06-07 11:09:13.291543,1,5,17,0,0,0,76,78,132,120,79,134.59,131,62.00,-70.00,-1008.00
2024-06-07 11:09:13.451793,1,4,13,0,0,0,76,78,129,120,79,134.63,132,28.00,-89.00,-1058.00
2024-06-07 11:09:13.451833,2,4,9,0,0,0,76,78,130,120,79,134.57,132,38.00,-88.00,-965.00
2024-06-07 11:09:13.546627,2,4,7,0,0,0,76,78,128,120,79,134.53,132,2.00,-89.00,-1030.00
2024-06-07 11:09:13.648568,2,5,4,0,0,0,76,78,128,120,79,134.63,132,20.00,-89.00,-967.00
2024-06-07 11:09:13.756607,2,5,3,0,0,0,76,78,128,120,79,134.60,132,71.00,-108.00,-1009.00
2024-06-07 11:09:13.856101,3,5,2,0,0,0,76,78,129,120,79,134.66,132,50.00,-116.00,-1014.00
2024-06-07 11:09:13.954644,3,5,1,0,0,0,77,79,127,120,79,134.58,132,29.00,-88.00,-1011.00
2024-06-07 11:09:14.064131,3,5,0,0,0,0,77,79,128,120,79,134.70,132,42.00,-107.00,-991.00
2024-06-07 11:09:14.159204,2,5,0,0,0,0,77,79,128,120,79,134.65,132,-1.00,-69.00,-1013.00
2024-06-07 11:09:14.260810,1,6,0,0,0,0,77,79,131,120,79,134.70,132,54.00,-77.00,-1073.00
2024-06-07 11:09:14.371295,1,5,0,0,0,0,77,79,132,120,79,134.70,133,65.00,-101.00,-968.00
2024-06-07 11:09:14.464778,1,5,0,0,0,0,77,79,132,120,79,134.70,133,51.00,-101.00,-999.00
2024-06-07 11:09:14.575767,1,5,0,0,0,0,77,79,133,120,79,134.71,133,26.00,-120.00,-981.00
2024-06-07 11:09:14.668966,0,6,0,0,0,0,77,79,133,120,79,134.73,133,-6.00,-59.00,-939.00
2024-06-07 11:09:14.786335,0,5,0,0,0,0,77,79,134,120,79,134.72,133,6.00,-102.00,-1018.00
2024-06-07 11:09:14.880963,0,6,0,0,0,0,77,79,133,120,79,134.63,133,0.00,-79.00,-892.00
2024-06-07 11:09:14.976444,0,6,0,0,0,0,76,78,134,120,79,134.61,133,-11.00,-103.00,-952.00
2024-06-07 11:09:15.077226,0,6,0,0,0,0,76,78,134,120,79,134.62,133,-13.00,-114.00,-1016.00
2024-06-07 11:09:15.178777,0,7,0,0,0,0,76,78,135,120,79,134.65,133,31.00,-121.00,-962.00
2024-06-07 11:09:15.280704,0,7,0,0,0,0,76,78,134,120,79,134.62,133,13.00,-110.00,-1077.00
2024-06-07 11:09:15.395345,0,7,0,0,0,0,76,78,132,120,79,134.63,134,-34.00,-62.00,-928.00
2024-06-07 11:09:15.484565,0,7,0,0,0,0,76,78,131,120,79,134.53,134,3.00,-137.00,-1085.00
2024-06-07 11:09:15.586512,0,6,0,0,0,0,76,78,130,120,79,134.55,134,-7.00,-103.00,-981.00
2024-06-07 11:09:15.702749,0,6,0,0,0,0,76,78,130,120,79,134.61,134,-10.00,-93.00,-951.00
2024-06-07 11:09:15.790621,0,7,0,0,0,0,76,78,131,120,79,134.52,134,-23.00,-96.00,-1007.00
2024-06-07 11:09:15.892653,0,6,0,0,0,0,76,78,128,120,78,134.59,134,2.00,-83.00,-985.00
2024-06-07 11:09:15.994488,0,6,0,0,0,0,76,78,127,120,78,134.54,134,13.00,-84.00,-1020.00
2024-06-07 11:09:16.113450,0,0,0,0,0,0,76,78,128,120,78,134.72,134,-6.00,-106.00,-1543.00
2024-06-07 11:09:16.198780,0,-4,-2,0,-1,-6,76,78,134,120,78,134.71,134,2.00,-156.00,-1778.00
2024-06-07 11:09:16.300479,-3,-42,-4,0,-5,-11,76,78,222,130,78,134.87,134,-7.00,240.00,-1262.00
2024-06-07 11:09:16.420236,-3,-155,7,0,-14,-4,76,78,6553,140,78,134.54,135,-82.00,492.00,-1024.00
2024-06-07 11:09:16.504484,10,85,-1,0,-13,10,76,78,429,140,78,134.81,135,-60.00,420.00,-974.00
2024-06-07 11:09:16.623675,0,-9,-11,0,-8,13,76,78,137,120,78,134.93,135,-27.00,-126.00,-1650.00
2024-06-07 11:09:16.710876,-1,-9,-13,-1,-12,10,76,78,123,110,78,134.43,135,0.00,-26.00,-1542.00
2024-06-07 11:09:16.810580,1,5,-20,-1,-13,5,76,78,117,110,78,134.67,135,-4.00,-36.00,-1368.00
2024-06-07 11:09:16.931116,3,8,-27,0,-12,2,76,78,113,100,78,134.35,135,16.00,-54.00,-1300.00
2024-06-07 11:09:17.014432,3,7,-31,0,-10,0,76,79,112,100,78,134.33,135,62.00,-36.00,-1099.00
2024-06-07 11:09:17.136656,4,7,-31,0,-9,0,76,79,112,100,78,134.25,135,31.00,-64.00,-1139.00
2024-06-07 11:09:17.218478,3,7,-27,0,-8,-1,76,79,114,100,78,134.32,135,34.00,-36.00,-1069.00
2024-06-07 11:09:17.270879,2,8,-17,0,-7,-1,76,79,117,100,78,134.30,135,83.00,-80.00,-926.00
2024-06-07 11:09:17.444089,1,8,-5,0,-6,-1,76,79,120,110,78,134.40,136,0.00,-75.00,-967.00
2024-06-07 11:09:17.474355,1,8,1,0,-5,-2,76,79,124,110,78,134.49,136,6.00,-66.00,-999.00
2024-06-07 11:09:17.647740,0,8,1,0,-5,-2,76,79,126,110,78,134.51,136,27.00,-80.00,-967.00
2024-06-07 11:09:17.678355,0,7,1,0,-4,-1,76,79,130,110,78,134.59,136,15.00,-77.00,-987.00
2024-06-07 11:09:17.855359,0,7,1,0,-4,-1,76,79,132,120,78,134.57,136,20.00,-63.00,-951.00
2024-06-07 11:09:17.882362,0,6,1,0,-3,-1,76,79,133,120,78,134.63,136,0.00,-43.00,-966.00
2024-06-07 11:09:18.057264,0,6,1,0,-3,0,76,79,135,120,78,134.65,136,-24.00,-25.00,-966.00
2024-06-07 11:09:18.086452,0,6,1,0,-3,0,76,79,137,120,78,134.60,136,23.00,-56.00,-993.00
2024-06-07 11:09:18.262523,0,6,1,0,-2,0,76,79,136,120,78,134.56,136,-9.00,-10.00,-918.00
2024-06-07 11:09:18.290353,0,5,0,0,-2,0,76,79,137,120,78,134.52,136,-18.00,-33.00,-982.00
2024-06-07 11:09:18.467048,0,5,0,0,-2,0,76,79,137,130,78,134.53,137,-2.00,-45.00,-951.00
2024-06-07 11:09:18.494316,0,5,0,0,-2,0,76,79,138,130,78,134.49,137,-41.00,-33.00,-883.00
2024-06-07 11:09:18.596338,0,5,0,0,-2,0,76,79,138,130,78,134.59,137,31.00,-74.00,-1118.00
2024-06-07 11:09:18.774038,0,7,0,0,-2,0,76,79,138,130,78,134.55,137,0.00,-33.00,-962.00
2024-06-07 11:09:18.800762,0,7,0,0,-1,0,76,79,138,130,78,134.61,137,-8.00,-72.00,-999.00
2024-06-07 11:09:18.978869,0,7,0,0,-1,0,76,79,137,130,77,134.52,137,-19.00,-92.00,-951.00
2024-06-07 11:09:19.004322,0,7,0,0,-1,0,77,79,136,130,77,134.55,137,-29.00,-86.00,-993.00
2024-06-07 11:09:19.183676,0,7,0,0,-1,0,77,79,135,130,77,134.54,137,36.00,-111.00,-1001.00
2024-06-07 11:09:19.208214,0,7,0,0,0,0,77,79,136,120,77,134.57,137,-53.00,-72.00,-1075.00
2024-06-07 11:09:19.310216,0,7,0,0,0,0,77,79,137,120,77,134.54,137,22.00,-80.00,-1008.00
2024-06-07 11:09:19.490853,0,6,0,0,0,0,77,79,137,130,77,134.52,138,14.00,-132.00,-1028.00
2024-06-07 11:09:19.514687,0,6,0,0,0,0,77,79,138,130,77,134.51,138,-48.00,-82.00,-973.00
2024-06-07 11:09:19.696645,0,6,0,0,0,0,77,79,138,130,77,134.50,138,-9.00,-93.00,-942.00
2024-06-07 11:09:19.718266,0,6,0,0,0,0,77,79,139,130,77,134.56,138,-21.00,-104.00,-984.00
2024-06-07 11:09:19.901057,0,7,0,0,0,0,77,79,139,130,77,134.49,138,12.00,-124.00,-993.00
2024-06-07 11:09:19.922243,0,6,0,0,0,0,77,79,140,130,77,134.48,138,6.00,-124.00,-1025.00
2024-06-07 11:09:20.105324,0,6,0,0,0,0,77,79,139,130,77,134.55,138,-11.00,-105.00,-1013.00
2024-06-07 11:09:20.126270,0,6,0,0,0,0,77,79,138,130,77,134.56,138,-4.00,-106.00,-962.00
2024-06-07 11:09:20.228432,0,6,0,0,0,0,77,79,139,130,77,134.56,138,21.00,-141.00,-1024.00
2024-06-07 11:09:20.412583,0,6,0,0,0,0,77,79,139,130,77,134.58,138,-16.00,-85.00,-989.00
2024-06-07 11:09:20.434188,0,6,0,0,0,0,77,79,139,130,77,134.55,139,-24.00,-68.00,-1047.00
2024-06-07 11:09:20.534449,0,5,0,0,0,0,77,79,138,130,77,134.46,139,-20.00,-104.00,-960.00
2024-06-07 11:09:20.719727,0,5,0,0,0,0,77,79,137,130,77,134.51,139,-39.00,-77.00,-942.00
2024-06-07 11:09:20.719923,0,6,0,0,0,0,77,79,137,130,77,134.51,139,-36.00,-97.00,-1029.00
2024-06-07 11:09:20.789314,0,6,0,0,0,0,77,79,137,130,77,134.48,139,23.00,-118.00,-957.00
2024-06-07 11:09:20.924547,0,6,0,0,0,0,77,79,137,130,77,134.50,139,39.00,-101.00,-1103.00
2024-06-07 11:09:21.045169,0,6,0,0,0,0,76,79,137,130,77,134.51,139,-9.00,-72.00,-973.00
2024-06-07 11:09:21.236438,0,5,0,0,0,0,76,79,137,130,77,134.56,139,-21.00,-45.00,-867.00
2024-06-07 11:09:21.236625,0,5,0,0,1,0,76,79,136,130,77,134.51,139,-52.00,-84.00,-982.00
2024-06-07 11:09:21.299274,0,4,0,0,1,0,76,79,137,130,77,134.55,139,-32.00,-79.00,-943.00
2024-06-07 11:09:21.539750,-1,3,0,0,1,0,76,79,133,130,77,134.63,140,23.00,-125.00,-995.00
2024-06-07 11:09:21.540099,-1,3,0,0,0,0,76,79,134,130,77,134.68,140,10.00,-81.00,-929.00
2024-06-07 11:09:21.605392,0,4,0,0,0,0,76,79,134,130,77,134.52,140,38.00,-132.00,-1017.00
2024-06-07 11:09:21.743703,0,4,0,0,0,0,76,79,134,130,77,134.52,140,-44.00,-113.00,-1001.00
2024-06-07 11:09:21.809268,0,5,0,0,0,0,76,79,133,130,77,134.43,140,-46.00,-86.00,-1022.00
2024-06-07 11:09:22.051314,0,5,0,0,0,0,76,79,132,130,77,134.49,140,34.00,-110.00,-1069.00
2024-06-07 11:09:22.051467,0,5,0,0,0,0,77,79,130,130,77,134.47,140,-13.00,-92.00,-951.00
2024-06-07 11:09:22.115390,0,6,0,0,0,0,77,79,130,130,77,134.46,140,1.00,-115.00,-1093.00
2024-06-07 11:09:22.218747,-1,5,0,0,0,0,77,79,130,120,77,134.48,140,-24.00,-92.00,-969.00
2024-06-07 11:09:22.320156,0,5,0,0,0,0,77,79,128,120,77,134.49,140,-35.00,-67.00,-989.00
2024-06-07 11:09:22.460738,0,6,0,0,0,0,77,79,128,120,77,134.41,141,-15.00,-100.00,-966.00
2024-06-07 11:09:22.524252,0,5,0,0,0,0,77,79,125,120,77,134.40,141,0.00,-74.00,-1014.00
2024-06-07 11:09:22.665021,0,5,0,0,0,0,77,79,126,120,77,134.61,141,5.00,-95.00,-1368.00
2024-06-07 11:09:22.729656,0,5,0,0,0,-2,77,79,132,120,77,134.70,141,-68.00,-144.00,-1731.00
2024-06-07 11:09:22.829105,0,6,0,0,0,-8,77,79,160,130,77,134.68,141,5.00,-104.00,-1619.00
2024-06-07 11:09:22.976462,1,59,0,0,3,-13,77,79,6553,140,77,134.63,141,-64.00,727.00,-1185.00
2024-06-07 11:09:23.032916,1,-176,1,0,10,-1,78,80,6553,150,77,134.28,141,-23.00,885.00,-1049.00
2024-06-07 11:09:23.177143,0,-48,0,0,4,11,78,80,136,140,77,134.50,141,-26.00,418.00,-829.00
2024-06-07 11:09:23.237555,2,7,-7,0,1,11,78,80,124,130,77,134.65,141,-24.00,-99.00,-1417.00
2024-06-07 11:09:23.381928,0,-1,-17,0,2,7,78,80,117,120,77,134.57,141,-24.00,-65.00,-1389.00
2024-06-07 11:09:23.441982,-2,-1,-31,0,0,3,78,80,113,120,77,134.43,142,79.00,-113.00,-1178.00
2024-06-07 11:09:23.586696,0,1,-40,0,0,0,78,80,112,110,77,134.44,142,-20.00,-105.00,-1167.00
2024-06-07 11:09:23.645936,0,3,-40,0,-1,-1,78,80,113,110,77,134.37,142,93.00,-97.00,-1055.00
2024-06-07 11:09:23.791463,1,4,-35,0,-1,-1,78,80,114,110,77,134.31,142,16.00,-90.00,-1047.00
2024-06-07 11:09:23.849929,0,3,-24,0,-1,-2,78,80,117,110,77,134.29,142,60.00,-74.00,-949.00
2024-06-07 11:09:23.997297,0,4,-11,0,-1,-1,78,80,117,120,77,134.38,142,37.00,-44.00,-1002.00
2024-06-07 11:09:24.053884,0,4,0,0,-1,-1,77,79,118,120,77,134.51,142,-53.00,-43.00,-1017.00
2024-06-07 11:09:24.201400,0,3,1,0,0,-1,77,79,119,120,77,134.48,142,25.00,-100.00,-993.00
2024-06-07 11:09:24.257997,0,3,1,0,0,-1,77,79,121,120,77,134.54,142,-47.00,-64.00,-1014.00
2024-06-07 11:09:24.360041,-1,4,0,0,0,0,77,79,120,120,77,134.52,143,41.00,-94.00,-975.00
2024-06-07 11:09:24.461914,0,4,1,0,0,0,77,79,122,120,77,134.50,143,25.00,-97.00,-1049.00
2024-06-07 11:09:24.610704,0,3,1,0,0,0,77,79,121,120,77,134.60,143,-3.00,-56.00,-994.00
2024-06-07 11:09:24.615047,0,3,1,0,0,0,77,79,121,120,77,134.43,143,-46.00,-60.00,-964.00
2024-06-07 11:09:24.716968,0,2,0,0,0,0,77,79,120,120,77,134.51,143,-89.00,-41.00,-1009.00
2024-06-07 11:09:24.819059,-1,2,0,0,0,0,77,79,122,120,77,134.57,143,-27.00,-133.00,-1015.00
2024-06-07 11:09:24.921150,-1,3,0,0,0,0,77,79,122,120,76,134.57,143,-29.00,-111.00,-1018.00
2024-06-07 11:09:25.025195,-1,4,0,0,0,0,76,80,122,120,76,134.66,143,-16.00,-97.00,-989.00
2024-06-07 11:09:25.125327,-1,4,0,0,0,0,76,80,122,120,76,134.63,143,-34.00,-113.00,-1023.00
2024-06-07 11:09:25.227920,-1,5,0,0,-1,0,76,80,122,120,76,134.55,143,-15.00,-107.00,-958.00
2024-06-07 11:09:25.328905,0,5,0,0,0,0,76,80,121,120,76,134.48,144,-5.00,-78.00,-1014.00
2024-06-07 11:09:25.532892,0,5,0,0,0,0,76,80,121,120,76,134.53,144,-40.00,-35.00,-1016.00
2024-06-07 11:09:25.536098,0,4,0,0,0,0,76,80,120,120,76,134.57,144,-28.00,-98.00,-990.00
2024-06-07 11:09:25.635181,-1,3,0,0,0,0,76,80,119,120,76,134.55,144,-11.00,-81.00,-1022.00
2024-06-07 11:09:25.740236,-1,3,0,0,0,0,76,80,119,120,76,134.55,144,-15.00,-92.00,-979.00
2024-06-07 11:09:25.840013,-1,3,0,0,0,0,76,80,118,120,76,134.52,144,35.00,-66.00,-947.00
2024-06-07 11:09:25.941719,0,3,0,0,0,0,76,80,117,120,76,134.46,144,12.00,-112.00,-1028.00
2024-06-07 11:09:26.044780,0,3,0,0,0,0,76,79,119,120,76,134.53,144,9.00,-97.00,-1018.00
2024-06-07 11:09:26.144976,0,3,0,0,0,0,76,79,119,120,76,134.39,144,-44.00,-61.00,-1016.00
2024-06-07 11:09:26.251807,0,3,0,0,0,0,76,79,119,120,76,134.42,144,-53.00,-40.00,-1001.00
2024-06-07 11:09:26.348883,0,2,0,0,0,0,76,79,120,120,76,134.39,145,11.00,-100.00,-1018.00
2024-06-07 11:09:26.455362,-1,2,0,0,0,0,76,79,120,120,76,134.50,145,-19.00,-108.00,-981.00
2024-06-07 11:09:26.552866,-1,3,0,0,0,0,76,79,121,120,76,134.33,145,-77.00,-25.00,-968.00
2024-06-07 11:09:26.658857,-1,4,0,0,0,0,76,79,122,120,76,134.36,145,-59.00,-61.00,-963.00
2024-06-07 11:09:26.757029,-1,4,0,0,0,0,76,79,123,120,76,134.39,145,-65.00,-61.00,-989.00
2024-06-07 11:09:26.869220,-2,3,0,0,0,0,76,79,124,120,76,134.37,145,-68.00,-38.00,-921.00
2024-06-07 11:09:26.960848,-2,3,0,0,0,0,76,79,125,120,75,134.52,145,-58.00,-78.00,-968.00
2024-06-07 11:09:27.068326,-2,3,0,0,0,0,77,79,125,120,75,134.54,145,-92.00,-29.00,-982.00
2024-06-07 11:09:27.164944,-3,3,0,0,0,0,77,79,127,120,75,134.60,145,-62.00,-85.00,-1012.00
2024-06-07 11:09:27.273587,-3,3,0,0,0,0,77,79,127,120,75,134.76,145,-6.00,-105.00,-977.00
2024-06-07 11:09:27.369362,-2,3,0,0,0,0,77,79,128,120,75,134.57,146,-15.00,-86.00,-984.00
2024-06-07 11:09:27.479851,-1,3,0,0,0,0,77,79,128,120,75,134.68,146,18.00,-84.00,-931.00
2024-06-07 11:09:27.572857,-1,4,0,0,0,0,77,79,130,120,75,134.60,146,16.00,-99.00,-1059.00
2024-06-07 11:09:27.682765,0,4,0,0,0,0,77,79,130,120,75,134.56,146,3.00,-144.00,-1019.00
2024-06-07 11:09:27.726788,0,4,0,0,0,0,77,79,129,120,75,134.53,146,-9.00,-133.00,-1000.00
2024-06-07 11:09:27.887506,0,4,0,0,0,0,77,79,131,120,75,134.62,146,2.00,-118.00,-1001.00
2024-06-07 11:09:27.932003,0,5,0,0,0,0,77,79,133,120,75,134.56,146,-57.00,-86.00,-1039.00
