TS,pitch,roll,yaw,vgx,vgy,vgz,templ,temph,tof,h,bat,baro,time,agx,agy,agz
2024-06-07 11:12:01.077544,0,0,6,0,0,0,80,82,10,0,65,133.24,220,12.00,-9.00,-998.00
2024-06-07 11:12:01.137610,0,0,6,0,0,0,80,82,10,0,65,133.28,220,12.00,-9.00,-999.00
2024-06-07 11:12:01.281587,0,0,6,0,0,0,80,82,10,0,65,133.27,220,14.00,-8.00,-998.00
2024-06-07 11:12:01.341570,0,0,6,0,0,0,80,82,10,0,65,133.26,220,13.00,-9.00,-999.00
2024-06-07 11:12:01.486311,0,0,6,0,0,0,80,82,10,0,65,133.24,220,13.00,-9.00,-1001.00
2024-06-07 11:12:01.545383,0,0,6,0,0,0,80,82,10,0,65,133.23,220,15.00,-9.00,-1000.00
2024-06-07 11:12:01.691105,0,0,6,0,0,0,80,82,10,0,65,133.27,220,13.00,-10.00,-1000.00
2024-06-07 11:12:01.749440,0,0,6,0,0,0,80,82,10,0,65,133.23,220,14.00,-10.00,-1000.00
2024-06-07 11:12:01.895777,0,0,6,0,0,0,80,82,10,0,65,133.29,220,13.00,-10.00,-1000.00
2024-06-07 11:12:01.953489,0,0,6,0,0,0,80,83,10,0,65,133.24,220,12.00,-8.00,-1000.00
2024-06-07 11:12:02.100589,0,0,6,0,0,0,80,83,10,0,65,133.21,220,13.00,-10.00,-1000.00
2024-06-07 11:12:02.157535,0,0,6,0,0,0,80,83,10,0,65,133.20,220,14.00,-8.00,-1001.00
2024-06-07 11:12:02.305438,0,0,6,0,0,0,80,83,10,0,65,133.14,220,13.00,-9.00,-998.00
2024-06-07 11:12:02.361505,0,0,6,0,0,0,80,83,10,0,65,133.20,220,12.00,-8.00,-999.00
2024-06-07 11:12:02.510373,0,0,6,0,0,0,80,83,10,0,65,133.17,220,13.00,-9.00,-1000.00
2024-06-07 11:12:02.514483,0,0,6,0,0,0,80,83,10,0,65,133.16,220,15.00,-8.00,-1000.00
2024-06-07 11:12:02.715032,0,0,6,0,0,0,80,83,10,0,65,133.18,220,13.00,-9.00,-999.00
2024-06-07 11:12:02.718724,0,0,6,0,0,0,80,83,10,0,65,133.16,220,14.00,-9.00,-1000.00
2024-06-07 11:12:02.821169,0,0,6,0,0,0,80,83,10,0,65,133.19,220,13.00,-9.00,-1002.00
2024-06-07 11:12:02.922482,0,0,6,0,0,0,80,82,10,0,65,133.13,220,13.00,-9.00,-999.00
2024-06-07 11:12:03.024482,0,0,6,0,0,0,80,82,10,0,65,133.18,220,13.00,-10.00,-997.00
2024-06-07 11:12:03.126492,0,0,6,0,0,0,80,82,10,0,65,133.14,220,14.00,-9.00,-1001.00
2024-06-07 11:12:03.329560,0,0,6,0,0,0,80,82,10,0,65,133.16,220,14.00,-8.00,-1000.00
2024-06-07 11:12:03.330376,0,0,6,0,0,0,80,82,10,0,65,133.17,220,13.00,-9.00,-998.00
2024-06-07 11:12:03.432376,0,0,6,0,0,0,80,82,10,0,65,133.13,220,13.00,-9.00,-1000.00
2024-06-07 11:12:03.535377,0,0,6,0,0,0,80,82,10,0,65,133.13,220,13.00,-8.00,-999.00
2024-06-07 11:12:03.636575,0,0,6,0,0,0,80,82,10,0,65,133.15,220,14.00,-9.00,-1001.00
2024-06-07 11:12:03.738856,0,0,6,0,0,0,80,82,10,0,65,133.10,220,13.00,-10.00,-999.00
2024-06-07 11:12:03.841970,0,0,6,0,0,0,80,82,10,0,65,133.13,220,14.00,-11.00,-1000.00
2024-06-07 11:12:03.943507,0,0,6,0,0,0,80,83,10,0,65,133.21,220,13.00,-11.00,-1001.00
2024-06-07 11:12:04.046268,0,0,6,0,0,0,80,83,10,0,65,133.22,220,13.00,-8.00,-999.00
2024-06-07 11:12:04.146436,0,0,6,0,0,0,80,83,10,0,65,133.18,220,13.00,-8.00,-997.00
2024-06-07 11:12:04.248907,0,0,6,0,0,0,80,83,10,0,65,133.17,220,14.00,-8.00,-1000.00
2024-06-07 11:12:04.354120,0,0,6,0,0,0,80,83,10,0,65,133.16,220,15.00,-10.00,-1002.00
2024-06-07 11:12:04.453365,0,0,6,0,0,0,80,83,10,0,65,133.21,220,12.00,-8.00,-1001.00
2024-06-07 11:12:04.558297,0,0,6,0,0,0,80,83,10,0,65,133.22,220,14.00,-8.00,-999.00
2024-06-07 11:12:04.656270,0,0,6,0,0,0,80,83,10,0,65,133.19,220,14.00,-10.00,-999.00
2024-06-07 11:12:04.762891,0,0,6,0,0,0,80,83,10,0,65,133.18,220,16.00,-10.00,-999.00
2024-06-07 11:12:04.863262,0,0,6,0,0,0,80,83,10,0,65,133.18,220,12.00,-13.00,-999.00
2024-06-07 11:12:04.963720,0,0,6,0,0,0,81,83,10,0,65,133.18,220,20.00,-3.00,-1008.00
2024-06-07 11:12:05.064238,0,0,5,0,0,0,81,83,10,0,65,133.18,220,2.00,12.00,-987.00
2024-06-07 11:12:05.172619,0,0,5,0,0,0,81,83,10,0,65,133.18,220,-24.00,-11.00,-1040.00
2024-06-07 11:12:05.268221,1,0,6,0,0,0,81,83,10,0,65,133.18,220,73.00,-82.00,-1029.00
2024-06-07 11:12:05.377376,1,-2,5,0,0,-1,81,83,10,0,65,133.18,220,6.00,-35.00,-1158.00
2024-06-07 11:12:05.472298,0,0,5,-1,-1,-3,81,83,10,0,65,133.18,220,-55.00,-84.00,-1329.00
2024-06-07 11:12:05.582115,-2,2,5,-1,-1,-6,81,83,10,0,65,133.18,220,-18.00,-46.00,-1202.00
2024-06-07 11:12:05.676228,-3,3,5,-1,-1,-7,81,83,15,10,65,133.47,221,-98.00,6.00,-1076.00
2024-06-07 11:12:05.786981,-4,2,5,-1,0,-7,81,83,24,10,65,133.46,221,-42.00,-44.00,-1046.00
2024-06-07 11:12:05.881227,-5,1,5,-1,0,-8,81,83,33,20,65,133.56,221,-63.00,-78.00,-1076.00
2024-06-07 11:12:05.991763,-5,3,5,0,-1,-7,82,83,42,20,65,133.66,221,-75.00,-33.00,-1059.00
2024-06-07 11:12:06.087079,-4,4,5,0,0,-6,82,83,49,30,65,133.75,221,-29.00,-54.00,-915.00
2024-06-07 11:12:06.187732,-3,3,5,0,0,-5,82,83,56,40,65,133.71,221,-63.00,-50.00,-913.00
2024-06-07 11:12:06.242915,-4,2,5,0,0,-4,82,83,61,40,65,133.83,221,-65.00,-42.00,-912.00
2024-06-07 11:12:06.340135,-4,2,5,0,0,-3,82,83,66,40,65,133.91,221,-47.00,-33.00,-893.00
2024-06-07 11:12:06.503876,-3,1,5,0,0,-2,82,83,70,50,65,134.02,221,3.00,-56.00,-905.00
2024-06-07 11:12:06.544168,-3,1,5,0,0,-1,82,83,73,50,65,134.17,221,-11.00,-40.00,-905.00
2024-06-07 11:12:06.675275,-4,1,6,0,0,-1,82,83,75,50,65,133.97,222,-77.00,-36.00,-950.00
2024-06-07 11:12:06.748163,-4,1,6,0,0,-1,82,83,78,50,65,133.96,222,-67.00,-38.00,-951.00
2024-06-07 11:12:06.850572,-3,1,5,0,0,0,82,83,80,50,65,133.98,222,-62.00,-22.00,-926.00
2024-06-07 11:12:07.015681,-4,1,5,0,0,0,80,84,83,60,65,134.00,222,-77.00,-28.00,-1033.00
2024-06-07 11:12:07.054132,-4,0,5,0,0,0,80,84,84,60,65,134.01,222,-63.00,-57.00,-987.00
2024-06-07 11:12:07.221085,-4,1,5,0,0,0,80,84,86,60,65,134.07,222,-59.00,-68.00,-1000.00
2024-06-07 11:12:07.258072,-4,3,5,0,0,0,80,84,89,60,65,134.18,222,-85.00,-86.00,-975.00
2024-06-07 11:12:07.426556,-4,3,5,0,0,0,80,84,89,60,65,134.16,222,-95.00,-79.00,-1056.00
2024-06-07 11:12:07.462160,-4,3,5,0,0,0,80,84,91,60,65,134.15,222,-106.00,-55.00,-972.00
2024-06-07 11:12:07.630167,-4,3,5,0,0,0,80,84,91,70,65,134.12,222,-103.00,-37.00,-997.00
2024-06-07 11:12:07.666116,-4,3,6,0,0,0,80,84,91,70,65,134.17,223,-91.00,-65.00,-1063.00
2024-06-07 11:12:07.840734,-4,4,6,0,0,0,80,84,91,70,65,134.28,223,-59.00,-65.00,-1010.00
2024-06-07 11:12:07.869999,-4,4,6,0,0,0,80,84,91,70,65,134.21,223,-98.00,-35.00,-941.00
2024-06-07 11:12:08.041288,-4,3,6,0,0,0,80,83,91,70,65,134.29,223,-59.00,-82.00,-980.00
2024-06-07 11:12:08.074893,-5,3,5,0,0,0,80,83,90,70,65,134.24,223,-99.00,-62.00,-976.00
2024-06-07 11:12:08.246516,-5,2,5,0,0,0,80,83,89,70,65,134.22,223,-112.00,-19.00,-1038.00
2024-06-07 11:12:08.279331,-4,3,6,0,0,0,80,83,89,70,65,134.22,223,-131.00,-67.00,-1014.00
2024-06-07 11:12:08.449530,-5,3,6,0,0,0,80,83,88,70,65,134.11,223,-116.00,-65.00,-955.00
2024-06-07 11:12:08.482142,-5,2,5,0,0,0,80,83,86,70,65,134.07,223,-82.00,-53.00,-1009.00
2024-06-07 11:12:08.654209,-4,2,5,0,0,0,80,83,86,70,65,134.36,223,-56.00,-96.00,-1012.00
2024-06-07 11:12:08.686121,-5,2,5,0,0,0,80,83,84,70,65,134.26,224,-103.00,-88.00,-970.00
2024-06-07 11:12:08.859003,-5,4,5,0,0,0,80,83,84,60,65,134.09,224,-49.00,-92.00,-976.00
2024-06-07 11:12:08.890167,-6,3,5,0,0,1,80,83,83,60,65,133.92,224,-8.00,-89.00,-1052.00
2024-06-07 11:12:09.063763,-4,4,5,1,0,0,80,83,81,60,65,134.02,224,-63.00,-28.00,-1063.00
2024-06-07 11:12:09.094015,-2,3,5,0,0,0,80,83,81,60,65,134.01,224,-75.00,-58.00,-978.00
2024-06-07 11:12:09.268626,-4,2,5,0,0,0,80,83,80,60,65,134.01,224,-43.00,-72.00,-1018.00
2024-06-07 11:12:09.298020,-3,4,5,1,0,0,80,83,79,60,65,133.95,224,-48.00,-74.00,-974.00
2024-06-07 11:12:09.473553,-2,4,5,1,0,0,80,83,79,60,65,133.92,224,-75.00,-71.00,-923.00
2024-06-07 11:12:09.502044,-2,4,5,0,0,0,80,83,78,60,65,133.93,224,-56.00,-57.00,-995.00
2024-06-07 11:12:09.678122,-3,4,5,0,0,0,80,83,78,60,65,133.84,224,-39.00,-53.00,-1018.00
2024-06-07 11:12:09.706003,-3,2,5,0,0,0,80,83,78,60,65,133.90,225,-34.00,-64.00,-981.00
2024-06-07 11:12:09.808107,-3,2,5,0,0,0,80,83,79,60,65,133.89,225,-45.00,-78.00,-1118.00
2024-06-07 11:12:09.859025,-3,3,5,0,0,0,80,83,79,60,65,133.96,225,-75.00,-41.00,-1020.00
2024-06-07 11:12:10.012424,-2,3,5,0,0,0,81,83,79,60,65,133.78,225,-36.00,-78.00,-1020.00
2024-06-07 11:12:10.113987,-2,3,5,0,0,0,81,83,79,60,65,133.82,225,-3.00,-59.00,-1033.00
2024-06-07 11:12:10.216008,-3,3,5,0,0,0,81,83,79,60,65,133.91,225,-3.00,-87.00,-924.00
2024-06-07 11:12:10.395059,-2,3,5,0,0,0,81,83,79,60,65,133.84,225,-49.00,-58.00,-969.00
2024-06-07 11:12:10.395647,-2,3,5,0,0,0,81,83,79,60,65,133.87,225,-65.00,-85.00,-1013.00
2024-06-07 11:12:10.471123,-3,3,5,0,0,0,81,83,79,60,65,133.84,225,-92.00,-56.00,-1023.00
2024-06-07 11:12:10.573260,-3,3,5,0,0,0,81,83,80,60,65,133.88,225,-106.00,-38.00,-1019.00
2024-06-07 11:12:10.703742,-3,3,5,0,0,0,81,83,80,60,65,133.86,226,-122.00,-46.00,-991.00
2024-06-07 11:12:10.777319,-5,2,5,0,0,0,81,83,80,60,65,133.85,226,-112.00,-45.00,-942.00
2024-06-07 11:12:10.907194,-6,1,5,0,0,0,81,83,81,60,65,133.88,226,-51.00,-49.00,-993.00
2024-06-07 11:12:10.980998,-7,1,5,0,0,0,80,82,81,60,65,133.83,226,-45.00,-58.00,-987.00
2024-06-07 11:12:11.111861,-5,2,5,0,0,0,80,82,81,60,65,133.73,226,-59.00,-69.00,-1016.00
2024-06-07 11:12:11.185208,-4,3,5,0,0,0,80,82,80,60,65,133.78,226,-64.00,-54.00,-971.00
2024-06-07 11:12:11.320462,-4,2,5,0,0,0,80,82,81,60,65,133.80,226,-62.00,-22.00,-1002.00
2024-06-07 11:12:11.389011,-4,2,5,0,0,0,80,82,80,60,65,133.77,226,-69.00,-51.00,-915.00
2024-06-07 11:12:11.521621,-4,3,5,0,0,0,80,82,80,60,65,133.85,226,-103.00,-28.00,-1004.00
2024-06-07 11:12:11.593223,-3,3,5,0,0,0,80,82,80,60,65,133.81,226,-50.00,-74.00,-1029.00
2024-06-07 11:12:11.726374,-3,3,5,0,0,0,80,82,79,60,65,133.95,227,-48.00,-76.00,-984.00
2024-06-07 11:12:11.797202,-4,2,5,0,0,0,80,82,79,60,65,133.95,227,-77.00,-108.00,-1006.00
2024-06-07 11:12:11.931194,-4,2,5,0,0,0,80,82,79,60,65,134.00,227,-21.00,-103.00,-933.00
2024-06-07 11:12:12.000963,-3,3,5,0,0,0,80,82,78,60,65,134.14,227,-52.00,-60.00,-1021.00
2024-06-07 11:12:12.138808,-3,4,5,1,0,0,80,82,79,60,65,134.21,227,-43.00,-106.00,-1049.00
2024-06-07 11:12:12.204907,-2,5,5,1,0,0,80,82,79,60,65,134.12,227,-47.00,-123.00,-1002.00
2024-06-07 11:12:12.340820,-2,6,5,0,0,0,80,82,80,60,65,134.34,227,-7.00,-100.00,-905.00
2024-06-07 11:12:12.408831,-2,6,5,0,0,0,80,82,80,60,65,134.21,227,-34.00,-136.00,-945.00
2024-06-07 11:12:12.510976,-2,6,5,0,0,0,80,82,80,60,65,134.14,227,-33.00,-71.00,-990.00
2024-06-07 11:12:12.647674,-2,6,5,1,0,0,80,82,80,60,65,134.35,227,18.00,-129.00,-1041.00
2024-06-07 11:12:12.715008,-1,6,5,1,0,0,80,82,82,60,65,134.10,228,-7.00,-123.00,-1083.00
2024-06-07 11:12:12.816975,0,6,5,1,0,-1,80,82,84,60,65,134.11,228,21.00,-137.00,-1060.00
2024-06-07 11:12:12.955241,0,6,5,1,0,-2,80,82,87,60,65,134.09,228,-33.00,-103.00,-1082.00
2024-06-07 11:12:13.020854,0,5,5,0,0,-3,80,82,89,60,65,134.16,228,-55.00,-109.00,-1086.00
2024-06-07 11:12:13.159720,0,5,5,0,0,-3,80,82,94,70,65,134.29,228,-35.00,-126.00,-1029.00
2024-06-07 11:12:13.224989,-1,5,5,0,0,-4,80,82,98,70,65,134.20,228,-85.00,-119.00,-1051.00
2024-06-07 11:12:13.364492,-2,5,5,0,0,-5,80,82,104,80,65,134.16,228,-35.00,-112.00,-1026.00
2024-06-07 11:12:13.428705,-2,5,5,0,0,-5,80,82,111,80,65,134.32,228,-58.00,-113.00,-1001.00
2024-06-07 11:12:13.570441,-3,6,5,0,0,-5,80,82,117,90,65,134.45,228,-26.00,-77.00,-1021.00
2024-06-07 11:12:13.632781,-3,6,5,0,0,-5,80,82,123,90,65,134.48,228,-57.00,-53.00,-890.00
2024-06-07 11:12:13.774082,-3,5,5,0,0,-5,80,82,130,100,65,134.52,229,-52.00,-80.00,-925.00
2024-06-07 11:12:13.837077,-3,5,5,0,0,-5,80,82,135,110,65,134.57,229,-58.00,-81.00,-1014.00
2024-06-07 11:12:13.979240,-3,5,5,0,0,-4,80,82,141,110,65,134.55,229,-6.00,-126.00,-1030.00
2024-06-07 11:12:14.040731,-2,5,5,0,0,-4,80,83,148,120,65,134.54,229,-40.00,-116.00,-934.00
2024-06-07 11:12:14.185823,-2,5,5,0,0,-4,80,83,152,120,65,134.61,229,-11.00,-112.00,-948.00
2024-06-07 11:12:14.244759,-2,4,5,0,0,-4,80,83,157,130,65,134.64,229,-28.00,-88.00,-901.00
2024-06-07 11:12:14.388554,-3,4,5,0,0,-4,80,83,163,130,65,134.82,229,-65.00,-56.00,-962.00
2024-06-07 11:12:14.397878,-3,3,5,0,0,-3,80,83,166,140,65,135.12,229,-63.00,-72.00,-916.00
2024-06-07 11:12:14.499753,-3,3,5,0,0,-3,80,83,169,140,65,135.09,229,-17.00,-117.00,-904.00
2024-06-07 11:12:14.695636,-5,4,5,0,0,-2,80,83,171,140,65,135.01,229,-36.00,-84.00,-952.00
2024-06-07 11:12:14.703536,-3,4,5,0,0,-2,80,83,175,150,65,135.01,230,-32.00,-55.00,-950.00
2024-06-07 11:12:14.805927,-3,4,5,0,0,-1,80,83,175,150,65,134.94,230,-58.00,-70.00,-918.00
2024-06-07 11:12:15.002927,-3,4,5,0,0,-1,80,83,177,150,65,135.10,230,-29.00,-85.00,-1000.00
2024-06-07 11:12:15.009688,-4,4,5,0,0,-1,80,82,183,150,65,135.03,230,-39.00,-109.00,-1049.00
2024-06-07 11:12:15.111905,-3,5,5,0,0,-1,80,82,184,150,65,134.99,230,-49.00,-105.00,-1004.00
2024-06-07 11:12:15.310344,-2,5,5,0,0,-1,80,82,184,150,65,135.08,230,-84.00,-71.00,-1002.00
2024-06-07 11:12:15.315751,-1,5,5,0,0,-1,80,82,186,160,65,134.64,230,-71.00,-35.00,-970.00
2024-06-07 11:12:15.515495,-1,4,6,0,0,-1,80,82,188,160,65,134.76,230,-74.00,-16.00,-950.00
2024-06-07 11:12:15.519775,-3,3,6,0,1,-1,80,82,187,160,65,134.68,230,-136.00,2.00,-953.00
2024-06-07 11:12:15.685310,-5,0,6,-1,1,0,80,82,186,160,65,134.83,230,-136.00,-56.00,-1025.00
2024-06-07 11:12:15.724363,-7,0,6,-1,1,0,80,82,189,160,65,134.94,231,-117.00,-15.00,-990.00
2024-06-07 11:12:15.825764,-8,-1,5,-1,1,0,80,82,187,160,65,134.89,231,-88.00,-49.00,-1040.00
2024-06-07 11:12:16.027052,-8,0,5,0,0,0,80,82,190,160,65,134.80,231,-101.00,-21.00,-942.00
2024-06-07 11:12:16.030369,-7,0,5,0,0,0,81,82,189,160,65,134.77,231,-98.00,-44.00,-958.00
2024-06-07 11:12:16.132555,-7,1,5,0,0,0,81,82,190,160,65,134.88,231,-65.00,-62.00,-926.00
2024-06-07 11:12:16.235636,-6,1,5,0,0,0,81,82,186,160,65,134.90,231,-108.00,-37.00,-1021.00
2024-06-07 11:12:16.336547,-6,1,5,0,0,0,81,82,186,160,65,134.72,231,-97.00,-17.00,-960.00
2024-06-07 11:12:16.438590,-6,2,5,0,0,0,81,82,185,160,65,134.83,231,-116.00,-48.00,-1045.00
2024-06-07 11:12:16.539995,-7,2,5,0,0,0,81,82,186,160,65,134.77,231,-86.00,-86.00,-902.00
2024-06-07 11:12:16.642061,-7,4,5,0,0,0,81,82,182,160,65,134.79,232,-115.00,-71.00,-1074.00
2024-06-07 11:12:16.745342,-6,4,5,0,0,0,81,82,185,160,65,134.77,232,-69.00,-27.00,-996.00
2024-06-07 11:12:16.845878,-5,2,5,0,0,0,81,82,181,160,65,134.86,232,-76.00,-41.00,-1003.00
2024-06-07 11:12:16.951266,-5,3,5,0,0,0,81,82,180,160,65,134.86,232,-83.00,-68.00,-1045.00
2024-06-07 11:12:17.051297,-5,3,5,0,0,0,80,82,183,160,65,134.86,232,-108.00,-40.00,-982.00
2024-06-07 11:12:17.158525,-6,4,5,0,0,0,80,82,181,160,65,134.77,232,-77.00,-45.00,-1024.00
2024-06-07 11:12:17.253622,-5,4,5,0,0,0,80,82,183,160,65,134.69,232,-51.00,-19.00,-921.00
2024-06-07 11:12:17.358078,-4,3,5,0,0,0,80,82,179,160,65,134.78,232,-78.00,-29.00,-956.00
2024-06-07 11:12:17.458492,-4,3,5,0,0,0,80,82,177,160,65,134.70,232,-103.00,1.00,-985.00
2024-06-07 11:12:17.560943,-5,2,5,0,0,1,80,82,177,150,65,134.56,232,-81.00,-32.00,-945.00
2024-06-07 11:12:17.665284,-6,1,5,0,0,1,80,82,177,150,65,134.47,233,-76.00,-46.00,-936.00
2024-06-07 11:12:17.712538,-5,1,5,0,0,2,80,82,173,150,65,134.52,233,-104.00,-35.00,-1127.00
2024-06-07 11:12:17.870239,-6,1,5,0,0,2,80,82,171,150,65,134.55,233,-142.00,-31.00,-928.00
2024-06-07 11:12:17.916476,-6,2,5,0,0,2,80,82,169,150,65,134.72,233,-104.00,-67.00,-994.00
2024-06-07 11:12:18.018551,-7,4,5,0,0,3,80,81,166,140,65,134.72,233,-126.00,-36.00,-908.00
2024-06-07 11:12:18.121093,-7,4,5,0,0,3,80,81,164,140,65,134.71,233,-124.00,-75.00,-1065.00
2024-06-07 11:12:18.222619,-7,4,5,0,0,3,80,81,163,140,65,134.65,233,-70.00,-97.00,-885.00
2024-06-07 11:12:18.382076,-6,4,5,0,0,2,80,81,159,130,65,134.59,233,-129.00,-52.00,-1037.00
2024-06-07 11:12:18.428061,-6,4,5,0,0,2,80,81,154,130,65,134.52,233,-84.00,-65.00,-941.00
2024-06-07 11:12:18.528531,-5,4,5,0,0,2,80,81,152,130,65,134.52,233,-127.00,-4.00,-957.00
2024-06-07 11:12:18.689271,-5,3,5,0,0,2,80,81,149,130,65,134.52,234,-114.00,-24.00,-939.00
2024-06-07 11:12:18.732580,-5,4,5,0,0,2,80,81,149,130,65,134.39,234,-126.00,-16.00,-955.00
2024-06-07 11:12:18.835356,-5,2,5,0,0,1,80,81,148,120,65,134.40,234,-119.00,-38.00,-958.00
2024-06-07 11:12:18.996491,-6,2,5,0,0,1,80,81,145,120,65,134.33,234,-112.00,-79.00,-1006.00
2024-06-07 11:12:19.038463,-6,3,5,0,0,0,78,82,145,120,65,134.44,234,-112.00,-51.00,-1089.00
2024-06-07 11:12:19.201272,-6,3,5,0,0,0,78,82,143,120,65,134.31,234,-143.00,-43.00,-991.00
2024-06-07 11:12:19.242595,-6,2,5,0,0,0,78,82,145,120,65,134.20,234,-152.00,-28.00,-964.00
2024-06-07 11:12:19.406029,-7,1,5,0,0,0,78,82,144,120,65,134.26,234,-131.00,-30.00,-1012.00
2024-06-07 11:12:19.446547,-8,1,6,0,0,0,78,82,143,120,65,134.44,234,-136.00,-48.00,-979.00
2024-06-07 11:12:19.610863,-8,2,6,0,0,0,78,82,143,120,65,134.25,234,-152.00,-26.00,-1006.00
2024-06-07 11:12:19.650664,-8,0,5,0,0,0,78,82,144,120,65,134.31,235,-143.00,-39.00,-1066.00
2024-06-07 11:12:19.815531,-8,0,5,0,0,0,78,82,143,120,65,134.12,235,-117.00,-53.00,-1007.00
2024-06-07 11:12:19.854460,-8,1,5,0,0,0,78,82,142,120,65,134.26,235,-121.00,-44.00,-957.00
2024-06-07 11:12:20.020446,-8,2,5,0,0,0,78,82,141,120,65,134.32,235,-115.00,-60.00,-971.00
2024-06-07 11:12:20.060167,-9,3,5,0,0,0,80,82,142,120,65,134.45,235,-114.00,-67.00,-950.00
2024-06-07 11:12:20.160633,-8,2,5,0,0,1,80,82,139,120,65,134.39,235,-25.00,-107.00,-972.00
2024-06-07 11:12:20.331219,-5,4,5,1,0,0,80,82,137,120,65,134.38,235,-60.00,-82.00,-960.00
2024-06-07 11:12:20.367522,-4,5,5,1,0,0,80,82,136,110,65,134.15,235,-70.00,-59.00,-1032.00
2024-06-07 11:12:20.467401,-4,4,5,1,0,1,80,82,132,110,65,134.18,235,-121.00,-41.00,-961.00
2024-06-07 11:12:20.569480,-5,4,5,0,0,1,80,82,132,110,65,134.23,235,-114.00,-39.00,-1029.00
2024-06-07 11:12:20.737396,-5,3,5,0,0,1,80,82,130,110,65,134.15,236,-89.00,-13.00,-1068.00
2024-06-07 11:12:20.773866,-6,2,5,0,0,1,80,82,128,110,65,134.28,236,-123.00,-38.00,-974.00
2024-06-07 11:12:20.876260,-6,3,5,0,0,0,80,82,128,110,65,134.28,236,-70.00,-81.00,-1047.00
2024-06-07 11:12:20.977566,-6,3,5,0,0,0,80,82,128,110,65,134.51,236,-81.00,-80.00,-965.00
2024-06-07 11:12:21.147358,-6,4,5,1,0,0,79,81,126,110,65,134.27,236,-80.00,-68.00,-1000.00
2024-06-07 11:12:21.182617,-5,5,5,1,0,0,79,81,125,110,65,134.22,236,-97.00,-115.00,-1002.00
2024-06-07 11:12:21.351615,-4,5,5,1,0,0,79,81,125,100,65,134.21,236,-36.00,-96.00,-1029.00
2024-06-07 11:12:21.385456,-4,5,5,0,0,0,79,81,125,100,65,134.31,236,-101.00,-84.00,-1065.00
2024-06-07 11:12:21.556565,-4,4,5,0,0,0,79,81,124,100,65,134.20,236,-109.00,-57.00,-932.00
2024-06-07 11:12:21.556744,-5,4,5,0,0,0,79,81,124,100,65,134.05,236,-135.00,-77.00,-1036.00
2024-06-07 11:12:21.640448,-6,3,5,0,0,0,79,81,125,100,65,134.13,237,-92.00,-32.00,-962.00
2024-06-07 11:12:21.761360,-5,3,5,0,0,0,79,81,125,100,65,134.10,237,-98.00,-13.00,-961.00
2024-06-07 11:12:21.844370,-5,2,5,0,1,0,79,81,126,100,65,134.18,237,-108.00,-48.00,-1076.00
2024-06-07 11:12:21.966349,-6,1,5,0,0,0,79,81,124,100,65,134.27,237,-108.00,-22.00,-1014.00
2024-06-07 11:12:22.049149,-6,1,5,0,0,0,79,81,126,100,65,134.23,237,-80.00,-83.00,-1064.00
2024-06-07 11:12:22.171164,-6,3,5,0,0,0,79,81,126,100,65,134.18,237,-100.00,-41.00,-1007.00
2024-06-07 11:12:22.252426,-6,3,5,0,0,0,79,81,126,110,65,134.22,237,-45.00,-52.00,-963.00
2024-06-07 11:12:22.375706,-5,3,5,0,0,0,79,81,128,110,65,134.26,237,-97.00,-44.00,-925.00
2024-06-07 11:12:22.456452,-5,4,5,0,0,0,79,81,127,110,65,134.33,237,-91.00,-74.00,-1010.00
2024-06-07 11:12:22.558316,-4,4,5,0,0,0,79,81,128,110,65,134.28,237,-102.00,-86.00,-1046.00
2024-06-07 11:12:22.682909,-5,4,5,0,0,0,79,81,129,110,65,134.08,238,-146.00,-14.00,-1021.00
2024-06-07 11:12:22.762311,-8,2,5,0,0,0,79,81,127,110,65,134.05,238,-132.00,-31.00,-997.00
2024-06-07 11:12:22.864243,-8,1,5,0,0,0,79,81,129,110,65,134.14,238,-160.00,-51.00,-930.00
2024-06-07 11:12:22.990039,-8,1,5,0,0,0,79,81,127,110,65,134.18,238,-132.00,-43.00,-907.00
2024-06-07 11:12:23.068297,-8,1,5,0,0,0,78,82,127,110,65,134.35,238,-120.00,-86.00,-947.00
2024-06-07 11:12:23.194733,-9,2,5,0,-1,0,78,82,126,110,65,134.39,238,-197.00,14.00,-851.00
2024-06-07 11:12:23.272269,-8,2,5,1,-1,0,78,82,125,110,65,134.32,238,-103.00,-49.00,-993.00
2024-06-07 11:12:23.399489,-8,2,5,1,-1,0,78,82,124,100,65,134.24,238,-99.00,-57.00,-955.00
2024-06-07 11:12:23.476227,-8,3,5,1,-1,0,78,82,125,100,65,134.14,238,-81.00,-22.00,-1108.00
2024-06-07 11:12:23.604383,-8,2,5,2,-1,0,78,82,126,100,65,134.15,238,-53.00,-74.00,-1040.00
2024-06-07 11:12:23.680266,-8,2,5,2,-1,0,78,82,123,100,65,134.11,239,-139.00,-25.00,-960.00
2024-06-07 11:12:23.809247,-8,2,5,2,-1,0,78,82,123,100,65,134.16,239,-148.00,-17.00,-955.00
2024-06-07 11:12:23.884220,-8,2,5,1,0,0,78,82,124,100,65,134.19,239,-151.00,-43.00,-1060.00
2024-06-07 11:12:24.014142,-8,2,5,1,0,0,78,82,124,100,65,134.19,239,-138.00,-64.00,-980.00
2024-06-07 11:12:24.088416,-8,2,5,1,-1,0,79,81,124,100,65,134.09,239,-167.00,-57.00,-1036.00
2024-06-07 11:12:24.219294,-8,2,5,1,-1,0,79,81,125,100,65,134.18,239,-155.00,-42.00,-988.00
2024-06-07 11:12:24.292245,-8,3,5,1,-1,0,79,81,126,100,65,134.21,239,-147.00,-58.00,-1016.00
2024-06-07 11:12:24.423528,-8,3,5,1,-1,0,79,81,125,100,65,134.02,239,-133.00,-7.00,-936.00
2024-06-07 11:12:24.496140,-8,3,5,1,-1,0,79,81,126,100,65,134.20,239,-183.00,-47.00,-961.00
2024-06-07 11:12:24.628457,-8,3,5,1,0,0,79,81,126,100,65,134.19,239,-156.00,-15.00,-968.00
2024-06-07 11:12:24.700111,-8,3,5,0,0,0,79,81,125,100,65,134.28,240,-166.00,-39.00,-1005.00
2024-06-07 11:12:24.802234,-8,3,5,0,0,0,79,81,127,100,65,134.21,240,-157.00,-20.00,-976.00
2024-06-07 11:12:24.935643,-8,3,5,1,0,0,79,81,126,100,65,134.18,240,-117.00,-38.00,-963.00
2024-06-07 11:12:25.006149,-8,3,5,1,0,0,79,81,125,100,65,134.20,240,-130.00,-6.00,-917.00
2024-06-07 11:12:25.140448,-8,3,5,1,0,0,79,81,125,100,65,133.99,240,-157.00,-19.00,-1033.00
2024-06-07 11:12:25.210335,-7,5,5,1,0,0,79,81,124,100,65,134.07,240,-164.00,41.00,-1062.00
2024-06-07 11:12:25.345226,-8,4,5,1,1,0,79,81,122,100,65,134.13,240,-135.00,15.00,-1006.00
2024-06-07 11:12:25.414229,-8,1,5,1,2,0,79,81,124,100,65,133.96,240,-192.00,-11.00,-1053.00
2024-06-07 11:12:25.549990,-9,0,5,1,2,0,79,81,124,100,65,134.16,240,-109.00,-39.00,-1028.00
2024-06-07 11:12:25.618143,-9,0,5,1,2,0,79,81,124,100,65,134.32,240,-204.00,24.00,-882.00
2024-06-07 11:12:25.669062,-9,0,6,1,2,0,79,81,124,100,65,134.11,241,-194.00,-12.00,-1046.00
2024-06-07 11:12:25.857199,-8,0,5,1,1,0,79,81,122,100,65,134.04,241,-190.00,-9.00,-944.00
2024-06-07 11:12:25.873060,-8,0,5,1,1,0,79,81,124,100,65,134.21,241,-183.00,33.00,-977.00
2024-06-07 11:12:26.062002,-9,0,5,1,1,0,79,81,123,100,65,134.21,241,-174.00,25.00,-961.00
2024-06-07 11:12:26.077108,-9,0,5,1,2,0,79,81,123,100,65,133.96,241,-116.00,-6.00,-926.00
2024-06-07 11:12:26.180218,-8,-2,5,1,1,0,79,81,122,100,65,133.98,241,-126.00,-12.00,-1013.00
2024-06-07 11:12:26.369174,-9,-1,6,1,1,0,79,81,124,100,65,134.25,241,-144.00,16.00,-925.00
2024-06-07 11:12:26.384063,-8,0,6,1,1,0,79,81,122,100,65,134.13,241,-136.00,59.00,-959.00
2024-06-07 11:12:26.574513,-8,-1,6,2,1,0,79,81,123,100,65,133.82,241,-134.00,-25.00,-1035.00
2024-06-07 11:12:26.588152,-7,-2,5,2,1,0,79,81,122,100,65,133.97,241,-157.00,-7.00,-1024.00
2024-06-07 11:12:26.690270,-7,-1,6,2,1,0,79,81,124,100,65,134.15,242,-133.00,-7.00,-1008.00
2024-06-07 11:12:26.881166,-7,-1,6,2,1,0,79,81,123,100,65,134.16,242,-89.00,-2.00,-979.00
2024-06-07 11:12:26.893895,-7,0,5,2,0,0,79,81,123,100,65,134.15,242,-62.00,-12.00,-1000.00
2024-06-07 11:12:27.085989,-6,0,5,2,0,0,79,81,123,100,65,133.91,242,-135.00,-21.00,-998.00
2024-06-07 11:12:27.097870,-6,-1,5,2,0,0,79,81,123,100,65,134.04,242,-101.00,0.00,-1041.00
2024-06-07 11:12:27.290830,-6,0,6,2,0,0,79,81,121,100,65,134.08,242,-109.00,15.00,-901.00
2024-06-07 11:12:27.302007,-7,0,6,2,0,0,79,81,123,100,65,134.04,242,-63.00,1.00,-909.00
2024-06-07 11:12:27.495584,-7,0,6,2,0,0,79,81,121,100,65,133.98,242,-89.00,-20.00,-1030.00
2024-06-07 11:12:27.506038,-6,0,5,2,0,0,79,81,123,100,65,133.97,242,-91.00,1.00,-1113.00
2024-06-07 11:12:27.700357,-7,0,5,2,0,0,79,81,123,100,65,134.08,242,-112.00,18.00,-900.00
2024-06-07 11:12:27.710125,-6,-2,5,2,0,0,79,81,122,100,65,134.06,243,-127.00,-6.00,-1086.00
2024-06-07 11:12:27.905193,-6,-2,5,2,0,0,79,81,121,100,65,134.03,243,-67.00,-60.00,-1043.00
2024-06-07 11:12:27.914124,-6,0,5,2,0,0,79,81,121,100,65,134.10,243,-55.00,-19.00,-1058.00
2024-06-07 11:12:28.110014,-5,1,6,3,-1,0,79,81,120,100,65,134.14,243,-90.00,-10.00,-1012.00
2024-06-07 11:12:28.118034,-5,4,5,3,0,0,78,80,120,100,65,134.12,243,-80.00,0.00,-1009.00
2024-06-07 11:12:28.220059,-5,2,5,3,0,0,78,80,120,100,65,134.13,243,-118.00,-17.00,-921.00
2024-06-07 11:12:28.417146,-1,2,5,2,0,0,78,80,119,100,65,134.12,243,-131.00,1.00,-1125.00
2024-06-07 11:12:28.423929,-1,1,5,1,0,0,78,80,118,100,65,134.14,243,-40.00,-46.00,-960.00
2024-06-07 11:12:28.526090,-3,0,5,1,0,0,78,80,117,100,65,133.96,243,-97.00,-44.00,-940.00
2024-06-07 11:12:28.724429,-3,1,5,0,0,0,78,80,117,100,65,134.00,243,-80.00,-58.00,-1150.00
2024-06-07 11:12:28.730201,-4,1,5,0,0,0,78,80,116,100,65,134.08,244,-82.00,-16.00,-996.00
2024-06-07 11:12:28.929257,-4,2,5,0,0,0,78,80,117,100,65,134.08,244,-97.00,-11.00,-930.00
2024-06-07 11:12:28.934095,-4,3,5,0,0,0,78,80,116,100,64,134.11,244,-111.00,-30.00,-916.00
2024-06-07 11:12:29.036058,-5,2,5,0,0,0,78,80,117,100,64,134.08,244,-138.00,-51.00,-1052.00
2024-06-07 11:12:29.138110,-5,2,5,0,0,0,78,80,117,100,64,134.10,244,-131.00,-18.00,-1007.00
2024-06-07 11:12:29.339336,-5,3,5,0,0,0,78,80,118,100,64,134.06,244,-92.00,-28.00,-1084.00
2024-06-07 11:12:29.341981,-6,3,5,0,0,0,78,80,118,100,64,134.04,244,-116.00,-11.00,-1090.00
2024-06-07 11:12:29.446558,-6,1,5,0,0,0,78,80,119,100,64,134.12,244,-148.00,13.00,-929.00
2024-06-07 11:12:29.495100,-6,1,5,0,0,0,78,80,119,100,64,134.05,244,-113.00,1.00,-968.00
2024-06-07 11:12:29.597157,-6,1,5,0,0,0,78,80,120,100,64,134.22,244,-114.00,-3.00,-984.00
2024-06-07 11:12:29.748480,-7,1,5,0,0,0,78,80,120,100,64,134.20,245,-158.00,-38.00,-1019.00
2024-06-07 11:12:29.801014,-7,1,5,0,0,0,78,80,120,100,64,134.26,245,-90.00,-35.00,-962.00
2024-06-07 11:12:29.903000,-7,1,5,0,0,0,78,80,121,100,64,134.10,245,-138.00,5.00,-950.00
2024-06-07 11:12:30.012278,-7,1,5,0,0,0,78,80,123,100,64,134.22,245,-142.00,-26.00,-995.00
2024-06-07 11:12:30.107293,-7,1,5,0,0,0,78,80,123,100,64,134.16,245,-112.00,-21.00,-968.00
2024-06-07 11:12:30.208983,-7,1,5,0,0,0,78,80,124,100,64,134.20,245,-139.00,-1.00,-976.00
2024-06-07 11:12:30.363365,-7,1,5,0,0,0,78,80,123,100,64,134.04,245,-142.00,17.00,-919.00
2024-06-07 11:12:30.413227,-7,0,5,0,0,0,78,80,124,100,64,134.22,245,-111.00,-35.00,-995.00
2024-06-07 11:12:30.515033,-8,0,5,0,0,0,78,80,125,100,64,134.06,245,-136.00,-8.00,-1126.00
2024-06-07 11:12:30.669979,-8,0,5,0,0,0,78,80,126,100,64,134.09,245,-130.00,24.00,-971.00
2024-06-07 11:12:30.718863,-4,0,5,0,0,0,78,80,125,100,64,134.22,246,-136.00,-7.00,-1033.00
2024-06-07 11:12:30.874777,1,0,5,0,0,0,78,80,126,100,64,134.33,246,-91.00,-9.00,-1008.00
2024-06-07 11:12:30.922851,2,0,5,-2,0,0,78,80,128,100,64,134.32,246,-69.00,21.00,-963.00
2024-06-07 11:12:31.079515,2,0,5,-3,0,0,78,80,127,100,64,134.43,246,-79.00,34.00,-972.00
2024-06-07 11:12:31.126868,0,-1,5,-5,0,0,78,80,127,100,64,134.44,246,-71.00,-4.00,-1079.00
2024-06-07 11:12:31.285536,0,-1,6,-6,0,0,78,80,128,110,64,134.42,246,-79.00,-1.00,-1033.00
2024-06-07 11:12:31.330821,0,0,6,-6,0,0,78,80,127,110,64,134.49,246,3.00,-7.00,-1010.00
2024-06-07 11:12:31.489155,0,0,6,-7,0,0,78,80,129,110,64,134.51,246,-53.00,-22.00,-943.00
2024-06-07 11:12:31.535498,-3,0,6,-7,-1,0,78,80,130,110,64,134.49,246,-112.00,-5.00,-1000.00
2024-06-07 11:12:31.698248,-7,0,6,-7,-1,0,78,80,131,110,64,134.51,247,-98.00,-20.00,-988.00
2024-06-07 11:12:31.738899,-7,0,6,-6,0,0,78,80,131,110,64,134.54,247,-121.00,-9.00,-978.00
2024-06-07 11:12:31.898751,-7,0,6,-6,-1,0,78,80,133,110,64,134.55,247,-68.00,-25.00,-975.00
2024-06-07 11:12:31.942778,-7,1,5,-5,-1,0,78,80,131,110,64,134.56,247,-105.00,15.00,-873.00
2024-06-07 11:12:32.103505,-7,2,5,-4,-1,0,78,80,132,110,64,134.52,247,-71.00,-43.00,-919.00
2024-06-07 11:12:32.146896,-8,3,5,-4,-1,0,77,81,134,110,64,134.45,247,-95.00,-27.00,-983.00
2024-06-07 11:12:32.308327,-8,3,5,-3,0,0,77,81,133,110,64,134.55,247,-65.00,-8.00,-1010.00
2024-06-07 11:12:32.352664,-7,2,5,-3,0,0,77,81,133,110,64,134.37,247,-40.00,-34.00,-995.00
2024-06-07 11:12:32.513674,-6,1,5,-2,0,0,77,81,132,110,64,134.42,247,-86.00,-23.00,-1007.00
2024-06-07 11:12:32.560659,-6,1,5,-2,0,0,77,81,131,110,64,134.44,247,-76.00,-4.00,-993.00
2024-06-07 11:12:32.658752,-8,0,5,-1,0,0,77,81,132,110,64,134.40,248,-109.00,-7.00,-998.00
2024-06-07 11:12:32.820315,-8,0,5,-1,0,0,77,81,131,110,64,134.29,248,-31.00,-41.00,-1031.00
2024-06-07 11:12:32.862928,-7,1,5,0,0,0,77,81,131,110,64,134.32,248,-53.00,17.00,-928.00
2024-06-07 11:12:32.912777,-6,1,5,0,0,0,77,81,129,110,63,134.17,248,-58.00,-41.00,-1072.00
2024-06-07 11:12:33.025385,-5,1,5,0,0,0,77,81,129,110,63,134.35,248,-74.00,-5.00,-983.00
2024-06-07 11:12:33.231315,-5,1,5,0,0,0,77,80,130,110,63,134.28,248,-126.00,8.00,-995.00
2024-06-07 11:12:33.231462,-5,1,5,0,0,0,77,80,130,110,63,134.33,248,-94.00,-37.00,-1023.00
2024-06-07 11:12:33.320900,-5,1,5,0,0,0,77,80,130,110,63,134.29,248,-70.00,-48.00,-991.00
2024-06-07 11:12:33.422863,-6,1,5,0,0,0,77,80,129,110,63,134.45,248,-99.00,17.00,-923.00
2024-06-07 11:12:33.537234,-5,0,5,0,0,0,77,80,130,110,63,134.30,248,-100.00,2.00,-947.00
2024-06-07 11:12:33.627399,-5,0,5,0,0,0,77,80,130,110,63,134.39,249,-75.00,-27.00,-1015.00
2024-06-07 11:12:33.742044,-5,0,5,0,0,0,77,80,130,110,63,134.10,249,-120.00,19.00,-1024.00
2024-06-07 11:12:33.831234,-5,0,5,0,0,0,77,80,130,110,63,134.28,249,-50.00,-5.00,-1010.00
2024-06-07 11:12:33.946902,-4,0,5,0,0,0,77,80,130,110,63,134.32,249,-87.00,-24.00,-1013.00
2024-06-07 11:12:34.034822,-4,0,5,0,0,0,77,80,130,110,63,134.23,249,-71.00,-39.00,-1032.00
2024-06-07 11:12:34.136746,-4,0,5,0,0,0,77,80,132,110,63,134.28,249,-81.00,-24.00,-973.00
2024-06-07 11:12:34.238744,-4,0,5,0,0,0,77,80,129,110,63,134.43,249,-48.00,-41.00,-1002.00
2024-06-07 11:12:34.356343,-3,2,5,0,0,0,77,80,131,110,63,134.36,249,-37.00,-33.00,-992.00
2024-06-07 11:12:34.443192,-2,2,5,0,0,0,77,80,130,110,63,134.41,249,-105.00,3.00,-1042.00
2024-06-07 11:12:34.561307,-3,2,5,0,0,0,77,80,129,110,63,134.36,249,-103.00,12.00,-971.00
2024-06-07 11:12:34.646827,-3,1,6,0,0,0,77,80,131,110,63,134.37,250,-58.00,-17.00,-1006.00
2024-06-07 11:12:34.765946,-3,0,5,0,0,0,77,80,131,110,63,134.43,250,-98.00,-2.00,-1045.00
2024-06-07 11:12:34.850838,-3,0,5,0,0,0,77,80,130,110,63,134.42,250,-43.00,-41.00,-1095.00
2024-06-07 11:12:34.970703,-3,0,6,0,0,0,77,80,130,110,63,134.35,250,-64.00,-15.00,-964.00
2024-06-07 11:12:35.054552,-3,-5,6,0,0,0,77,80,132,110,63,134.51,250,-60.00,10.00,-966.00
2024-06-07 11:12:35.156658,-3,-6,6,0,-1,0,77,80,131,110,63,134.40,250,-38.00,-37.00,-1104.00
2024-06-07 11:12:35.278333,-3,-4,5,0,-2,0,77,80,131,110,63,134.55,250,-96.00,0.00,-970.00
2024-06-07 11:12:35.360633,-3,-2,5,0,-3,0,77,80,131,110,63,134.51,250,-20.00,-6.00,-995.00
2024-06-07 11:12:35.482726,-3,0,5,0,-4,0,77,80,131,110,63,134.47,250,-57.00,-50.00,-1037.00
2024-06-07 11:12:35.564561,-3,2,5,0,-3,0,77,80,131,110,63,134.49,250,-71.00,0.00,-1048.00
2024-06-07 11:12:35.687415,-3,2,5,0,-3,0,77,80,131,110,63,134.48,251,-59.00,-13.00,-951.00
2024-06-07 11:12:35.768560,-3,1,5,0,-2,0,77,80,128,110,63,134.58,251,-94.00,4.00,-961.00
2024-06-07 11:12:35.893168,-2,1,5,0,-2,0,77,80,129,110,63,134.50,251,-60.00,0.00,-902.00
2024-06-07 11:12:35.973560,-3,1,6,0,-2,0,77,80,128,110,63,134.48,251,-91.00,28.00,-891.00
2024-06-07 11:12:36.097143,-3,0,5,0,-2,0,77,80,128,110,63,134.47,251,-95.00,22.00,-959.00
2024-06-07 11:12:36.176555,-4,0,5,0,-2,0,78,80,127,110,63,134.62,251,-114.00,24.00,-936.00
2024-06-07 11:12:36.301878,-4,0,5,0,-2,0,78,80,126,110,63,134.59,251,-49.00,-16.00,-931.00
2024-06-07 11:12:36.380563,-3,0,5,0,-2,0,78,80,126,100,63,134.56,251,-32.00,-50.00,-1054.00
2024-06-07 11:12:36.482570,0,2,5,0,-2,0,78,80,127,100,63,134.51,251,-87.00,-15.00,-986.00
2024-06-07 11:12:36.609166,0,3,5,0,-2,0,78,80,126,100,63,134.45,251,-40.00,-29.00,-951.00
2024-06-07 11:12:36.686610,0,3,5,0,-1,0,78,80,127,100,63,134.57,252,-41.00,2.00,-946.00
2024-06-07 11:12:36.737547,-1,2,5,-1,-1,0,78,80,127,100,63,134.54,252,-44.00,-13.00,-1062.00
2024-06-07 11:12:36.916409,-2,0,5,-1,-1,0,78,80,127,100,63,134.53,252,-18.00,-5.00,-993.00
2024-06-07 11:12:36.941554,-7,1,5,-1,0,0,78,80,130,100,62,134.61,252,-70.00,-12.00,-1040.00
2024-06-07 11:12:37.092883,-6,3,5,0,0,0,78,80,128,110,62,134.59,252,-52.00,-24.00,-1024.00
2024-06-07 11:12:37.223552,-4,1,5,0,0,0,78,80,128,110,62,134.70,252,-30.00,-49.00,-983.00
2024-06-07 11:12:37.247459,-3,0,6,0,0,0,78,80,127,110,62,134.65,252,-12.00,18.00,-1044.00
2024-06-07 11:12:37.428496,-3,0,6,0,0,0,78,80,126,110,62,134.69,252,-36.00,-29.00,-959.00
2024-06-07 11:12:37.451521,-2,0,6,0,0,0,78,80,127,110,62,134.65,252,-23.00,-13.00,-988.00
2024-06-07 11:12:37.634122,-2,0,6,0,0,0,78,80,127,110,62,134.54,252,-41.00,29.00,-1014.00
2024-06-07 11:12:37.655560,-3,0,6,0,0,0,78,80,126,110,62,134.56,253,-74.00,29.00,-933.00
2024-06-07 11:12:37.838051,-3,0,6,0,0,0,78,80,125,110,62,134.56,253,-68.00,-10.00,-1017.00
2024-06-07 11:12:37.859848,-3,0,6,0,0,0,78,80,124,100,62,134.58,253,-24.00,-9.00,-1012.00
2024-06-07 11:12:38.042776,-3,0,6,0,0,0,78,80,124,100,62,134.56,253,-48.00,-5.00,-1008.00
2024-06-07 11:12:38.063506,-3,0,6,0,0,0,78,80,125,100,62,134.53,253,-64.00,-22.00,-1031.00
2024-06-07 11:12:38.249301,-2,0,5,0,0,0,77,80,125,100,62,134.55,253,-21.00,3.00,-1002.00
2024-06-07 11:12:38.267374,-2,0,6,0,0,0,77,80,122,100,62,134.61,253,-41.00,-26.00,-1033.00
2024-06-07 11:12:38.453483,-2,0,6,0,0,0,77,80,124,100,62,134.48,253,-64.00,39.00,-911.00
2024-06-07 11:12:38.471325,-3,0,6,0,0,0,77,80,124,100,62,134.51,253,-39.00,-4.00,-1000.00
2024-06-07 11:12:38.657282,-3,0,6,0,0,0,77,80,123,100,62,134.49,253,-34.00,-15.00,-1005.00
2024-06-07 11:12:38.675374,-3,0,6,0,0,0,77,80,121,100,62,134.62,254,-62.00,13.00,-946.00
2024-06-07 11:12:38.862340,-2,0,6,0,0,0,77,80,123,100,62,134.46,254,-42.00,7.00,-1004.00
2024-06-07 11:12:38.882137,-3,0,6,0,0,0,77,80,123,100,62,134.57,254,-26.00,17.00,-1096.00
2024-06-07 11:12:38.982549,-3,0,6,0,0,0,77,80,122,100,62,134.53,254,-55.00,8.00,-996.00
2024-06-07 11:12:39.097734,-3,0,6,0,0,0,77,80,123,100,62,134.63,254,-90.00,20.00,-1023.00
2024-06-07 11:12:39.186466,-3,0,5,0,0,0,77,80,121,100,62,134.54,254,-23.00,7.00,-1011.00
2024-06-07 11:12:39.373925,-2,2,5,0,0,0,77,80,124,100,62,134.64,254,-47.00,-11.00,-961.00
2024-06-07 11:12:39.390313,-2,8,5,0,0,0,77,80,125,100,62,134.66,254,-9.00,12.00,-1002.00
2024-06-07 11:12:39.578663,-2,8,5,0,2,0,77,80,124,100,62,134.61,254,-66.00,3.00,-904.00
2024-06-07 11:12:39.594344,-2,5,5,0,3,0,77,80,125,100,62,134.63,254,-88.00,-30.00,-1016.00
2024-06-07 11:12:39.783490,-3,2,5,0,3,0,77,80,125,100,62,134.70,255,-43.00,-43.00,-1015.00
2024-06-07 11:12:39.798923,-3,0,5,0,3,0,77,80,125,100,62,134.68,255,-50.00,-14.00,-974.00
2024-06-07 11:12:39.900403,-4,0,5,0,3,0,77,80,125,100,62,134.70,255,-38.00,-12.00,-1023.00
2024-06-07 11:12:40.090714,-4,0,5,0,3,0,77,80,125,100,62,134.58,255,-18.00,-51.00,-1077.00
2024-06-07 11:12:40.104228,-3,0,5,0,3,0,77,80,127,100,62,134.68,255,-20.00,-34.00,-1041.00
2024-06-07 11:12:40.206319,-3,0,5,0,3,0,77,80,127,100,62,134.53,255,-93.00,-19.00,-1030.00
2024-06-07 11:12:40.309821,-3,0,5,0,3,0,77,80,127,100,62,134.60,255,-80.00,-16.00,-943.00
2024-06-07 11:12:40.500263,-3,0,5,0,2,0,77,80,127,110,62,134.70,255,-87.00,2.00,-1031.00
2024-06-07 11:12:40.513774,-4,0,5,0,2,0,77,80,126,110,62,134.58,255,-32.00,-39.00,-1008.00
2024-06-07 11:12:40.614422,-4,1,5,0,2,0,77,80,127,110,62,134.60,255,-52.00,-48.00,-1050.00
2024-06-07 11:12:40.807404,-3,1,5,0,2,0,77,80,126,110,62,134.69,256,-24.00,-46.00,-1008.00
2024-06-07 11:12:40.807478,-2,0,5,0,2,0,77,80,126,110,62,134.57,256,-70.00,-2.00,-982.00
2024-06-07 11:12:40.869689,-2,-1,6,0,1,0,77,80,125,110,62,134.70,256,-133.00,-30.00,-1005.00
2024-06-07 11:12:41.012267,-3,-2,6,0,1,0,77,80,126,100,62,134.63,256,-59.00,-9.00,-987.00
2024-06-07 11:12:41.073486,-3,-1,6,0,0,0,77,80,124,100,62,134.73,256,-60.00,18.00,-919.00
2024-06-07 11:12:41.217134,-4,0,5,0,0,0,77,80,125,100,62,134.62,256,-75.00,-23.00,-1085.00
2024-06-07 11:12:41.277383,-4,0,5,0,0,0,77,80,124,100,62,134.59,256,-65.00,12.00,-959.00
2024-06-07 11:12:41.422335,-4,0,5,0,0,0,77,80,124,100,62,134.63,256,-77.00,22.00,-950.00
2024-06-07 11:12:41.481446,-4,0,5,0,0,0,77,80,124,100,62,134.67,256,-98.00,5.00,-979.00
2024-06-07 11:12:41.626831,-3,0,5,0,0,0,77,80,124,100,62,134.61,256,-40.00,-32.00,-1047.00
2024-06-07 11:12:41.685453,-3,0,5,0,0,0,77,80,126,100,62,134.52,257,-105.00,-2.00,-1041.00
2024-06-07 11:12:41.831553,-3,0,5,0,0,0,77,80,127,100,62,134.61,257,-77.00,31.00,-933.00
2024-06-07 11:12:41.889712,-3,0,5,0,0,0,77,80,127,100,61,134.61,257,-70.00,10.00,-839.00
2024-06-07 11:12:42.036344,-4,0,5,0,0,0,77,80,128,110,61,134.67,257,-36.00,-33.00,-963.00
2024-06-07 11:12:42.093344,-3,0,5,0,0,0,77,80,128,110,61,134.64,257,-62.00,-14.00,-995.00
2024-06-07 11:12:42.241807,-3,0,5,0,0,0,77,80,128,110,61,134.63,257,-90.00,3.00,-1004.00
2024-06-07 11:12:42.297279,-4,0,5,0,0,0,77,80,131,110,61,134.69,257,-55.00,-30.00,-1067.00
2024-06-07 11:12:42.445920,-3,0,5,0,0,0,77,80,129,110,61,134.52,257,-96.00,17.00,-988.00
2024-06-07 11:12:42.501319,-3,0,5,0,0,0,77,80,130,110,61,134.71,257,-74.00,-8.00,-1012.00
2024-06-07 11:12:42.650759,-3,0,5,0,0,0,77,80,130,110,61,134.58,257,-45.00,-18.00,-1077.00
2024-06-07 11:12:42.705322,-4,0,5,0,0,0,77,80,129,110,61,134.66,258,-53.00,-13.00,-934.00
2024-06-07 11:12:42.855779,-3,0,5,0,0,0,77,80,131,110,61,134.62,258,-75.00,0.00,-961.00
2024-06-07 11:12:42.909318,-3,0,5,0,0,0,77,80,131,110,61,134.67,258,-20.00,-32.00,-1011.00
2024-06-07 11:12:43.025609,-3,0,5,0,0,0,77,80,130,110,61,134.66,258,-85.00,-28.00,-969.00
2024-06-07 11:12:43.113226,-3,0,5,0,0,0,77,80,129,110,61,134.65,258,-30.00,-75.00,-919.00
2024-06-07 11:12:43.265047,-4,0,6,0,0,0,77,80,127,110,61,134.65,258,-53.00,-3.00,-1044.00
2024-06-07 11:12:43.317125,-4,0,12,0,0,0,77,80,126,110,61,134.68,258,-35.00,-16.00,-1008.00
2024-06-07 11:12:43.469787,-3,0,18,0,0,0,77,80,125,110,61,134.75,258,-65.00,10.00,-1009.00
2024-06-07 11:12:43.521184,-4,-1,23,0,0,0,77,80,126,110,61,134.69,258,-79.00,32.00,-1043.00
2024-06-07 11:12:43.674672,-4,-1,29,0,0,0,77,80,127,100,61,134.68,258,-52.00,17.00,-1015.00
2024-06-07 11:12:43.725099,-4,-2,35,0,0,0,77,80,126,100,61,134.69,259,-31.00,54.00,-1023.00
2024-06-07 11:12:43.827146,-4,-2,41,0,0,0,77,80,125,100,61,134.74,259,-47.00,49.00,-962.00
2024-06-07 11:12:43.929411,-3,-2,47,0,0,0,77,80,125,110,61,134.77,259,-23.00,44.00,-998.00
2024-06-07 11:12:44.047422,-2,-2,53,0,0,0,77,80,125,110,61,134.80,259,-47.00,34.00,-963.00
2024-06-07 11:12:44.133126,-2,-2,59,0,0,0,77,80,124,110,61,134.81,259,-63.00,57.00,-1017.00
2024-06-07 11:12:44.235001,-2,-2,65,0,0,0,77,80,123,100,61,134.77,259,-34.00,9.00,-1023.00
2024-06-07 11:12:44.391402,-2,-2,71,0,0,0,77,80,122,100,61,134.79,259,-5.00,25.00,-1022.00
2024-06-07 11:12:44.439102,-2,-1,77,0,0,0,77,80,121,100,61,134.70,259,-12.00,21.00,-1006.00
2024-06-07 11:12:44.598176,-2,-1,84,0,0,0,77,80,122,100,61,134.82,259,-34.00,73.00,-933.00
2024-06-07 11:12:44.644392,-2,-1,90,0,0,0,77,80,120,100,61,134.86,259,-10.00,56.00,-974.00
2024-06-07 11:12:44.700573,-1,-1,96,0,0,0,77,80,120,100,61,134.78,260,-13.00,65.00,-996.00
2024-06-07 11:12:44.797078,-1,-1,102,0,0,0,77,80,119,100,61,134.72,260,-5.00,47.00,-945.00
2024-06-07 11:12:44.904063,0,0,108,0,0,0,77,80,119,100,61,134.87,260,21.00,62.00,-1033.00
2024-06-07 11:12:45.000087,0,-1,114,0,0,0,77,80,119,100,61,134.77,260,-11.00,41.00,-1000.00
2024-06-07 11:12:45.110513,0,-1,120,0,0,0,77,80,120,100,61,134.78,260,-1.00,59.00,-981.00
2024-06-07 11:12:45.204069,0,0,132,0,0,0,77,79,121,100,61,134.79,260,15.00,37.00,-1005.00
2024-06-07 11:12:45.313058,0,0,138,0,0,0,77,79,123,100,61,134.84,260,-5.00,49.00,-924.00
2024-06-07 11:12:45.408910,1,0,144,0,0,0,77,79,123,100,61,134.86,260,20.00,12.00,-1029.00
2024-06-07 11:12:45.522214,0,-1,151,0,0,0,77,79,125,100,61,134.87,260,45.00,74.00,-970.00
2024-06-07 11:12:45.612288,1,-1,157,0,0,0,77,79,123,110,61,134.84,261,23.00,16.00,-963.00
2024-06-07 11:12:45.723043,2,-1,163,0,0,0,77,79,125,110,61,134.85,261,23.00,63.00,-925.00
2024-06-07 11:12:45.817987,1,-2,169,0,0,0,77,79,125,110,61,134.91,261,36.00,58.00,-906.00
2024-06-07 11:12:45.917996,2,-2,175,0,0,0,77,79,125,110,61,134.87,261,68.00,46.00,-993.00
2024-06-07 11:12:46.029865,2,-3,-177,0,0,0,77,79,125,100,61,134.85,261,54.00,46.00,-1014.00
2024-06-07 11:12:46.121990,3,-3,-171,0,0,0,77,79,126,100,61,134.87,261,71.00,20.00,-1015.00
2024-06-07 11:12:46.224076,3,-2,-164,0,0,0,77,79,125,100,61,134.87,261,77.00,40.00,-1033.00
2024-06-07 11:12:46.326084,3,-2,-158,0,0,0,77,79,124,100,61,134.79,261,82.00,7.00,-1023.00
2024-06-07 11:12:46.439497,4,-1,-152,0,0,0,77,79,124,110,61,134.92,261,16.00,18.00,-963.00
2024-06-07 11:12:46.530076,3,0,-146,0,0,0,77,79,125,110,61,134.94,261,41.00,11.00,-985.00
2024-06-07 11:12:46.644234,3,0,-140,0,0,0,77,79,125,110,61,134.91,262,39.00,44.00,-989.00
2024-06-07 11:12:46.734019,3,0,-134,0,0,0,77,79,126,110,61,134.90,262,93.00,0.00,-1043.00
2024-06-07 11:12:46.836006,4,0,-128,0,0,0,77,79,125,110,61,134.90,262,73.00,-8.00,-946.00
2024-06-07 11:12:46.937953,4,0,-122,0,0,0,77,79,125,110,60,134.85,262,105.00,-4.00,-1007.00
2024-06-07 11:12:47.053678,4,0,-116,0,0,0,77,79,125,110,60,134.86,262,93.00,-30.00,-911.00
2024-06-07 11:12:47.141999,4,1,-110,0,0,0,77,79,125,100,60,134.75,262,34.00,-13.00,-1065.00
2024-06-07 11:12:47.259389,4,1,-104,0,0,0,77,79,126,100,60,134.75,262,86.00,-27.00,-1001.00
2024-06-07 11:12:47.345917,3,1,-98,0,0,0,77,79,124,100,60,134.82,262,-3.00,20.00,-1030.00
2024-06-07 11:12:47.448199,2,1,-92,0,0,0,77,79,124,100,60,134.83,262,22.00,6.00,-1038.00
2024-06-07 11:12:47.565832,2,1,-86,0,0,0,77,79,123,100,60,134.72,262,30.00,4.00,-951.00
2024-06-07 11:12:47.652015,1,1,-81,0,0,0,77,79,123,100,60,134.83,263,64.00,-35.00,-1032.00
2024-06-07 11:12:47.770623,1,1,-75,0,0,0,77,79,123,100,60,134.68,263,39.00,-26.00,-1031.00
2024-06-07 11:12:47.856012,1,1,-69,0,0,0,77,79,123,100,60,134.81,263,31.00,4.00,-955.00
2024-06-07 11:12:47.958011,0,1,-62,0,0,0,77,79,123,100,60,134.85,263,17.00,-21.00,-1008.00
2024-06-07 11:12:48.078374,0,2,-56,0,0,0,77,79,122,100,60,134.83,263,-13.00,-31.00,-1065.00
2024-06-07 11:12:48.161949,0,2,-49,0,0,0,77,79,122,100,60,134.87,263,22.00,-41.00,-1075.00
2024-06-07 11:12:48.282643,0,2,-43,0,0,0,77,79,121,100,60,134.85,263,21.00,-52.00,-975.00
2024-06-07 11:12:48.365908,0,2,-37,0,0,0,77,79,122,100,60,134.84,263,-35.00,-9.00,-1002.00
2024-06-07 11:12:48.487397,0,2,-30,0,0,0,77,79,122,100,60,134.90,263,3.00,14.00,-1026.00
2024-06-07 11:12:48.569843,0,2,-24,0,0,0,77,79,121,100,60,134.85,263,-31.00,-1.00,-1001.00
2024-06-07 11:12:48.692234,-1,1,-18,0,0,0,77,79,123,100,60,134.84,264,34.00,-58.00,-1024.00
2024-06-07 11:12:48.773955,-1,1,-12,0,0,0,77,79,122,100,60,134.87,264,-22.00,-9.00,-1057.00
2024-06-07 11:12:48.897022,-1,1,-8,0,0,0,77,79,124,100,60,134.93,264,0.00,-52.00,-1053.00
2024-06-07 11:12:48.928534,-1,2,-4,0,0,0,77,79,124,100,60,134.91,264,-15.00,-29.00,-978.00
2024-06-07 11:12:49.029111,-1,2,-2,0,0,0,77,79,124,100,60,134.92,264,-34.00,-77.00,-1034.00
2024-06-07 11:12:49.131386,0,2,0,0,0,0,77,79,124,100,60,134.83,264,7.00,-77.00,-1061.00
2024-06-07 11:12:49.306616,0,2,0,0,0,0,77,79,125,100,60,134.95,264,-64.00,-43.00,-1002.00
2024-06-07 11:12:49.334760,0,2,2,0,0,0,77,79,124,100,60,134.95,264,-46.00,-32.00,-961.00
2024-06-07 11:12:49.468100,0,2,2,0,0,0,77,79,125,100,60,134.90,264,-3.00,-45.00,-988.00
2024-06-07 11:12:49.538882,0,2,3,0,0,0,77,79,125,100,60,134.91,264,-55.00,-22.00,-984.00
2024-06-07 11:12:49.716594,0,2,3,0,0,0,77,79,124,100,60,134.90,265,-57.00,-28.00,-979.00
2024-06-07 11:12:49.742905,0,3,3,0,0,0,77,79,124,100,60,135.04,265,-7.00,-58.00,-966.00
2024-06-07 11:12:49.921161,0,3,3,0,0,0,77,79,124,100,60,134.91,265,-7.00,-27.00,-1033.00
2024-06-07 11:12:49.947018,0,2,3,0,0,0,77,79,124,100,60,134.98,265,-15.00,-51.00,-946.00
2024-06-07 11:12:50.055274,0,2,3,0,0,0,77,79,123,100,60,134.86,265,-41.00,-36.00,-1004.00
2024-06-07 11:12:50.150980,-1,1,3,0,0,0,77,79,124,100,60,134.88,265,-20.00,-14.00,-982.00
2024-06-07 11:12:50.252843,-1,1,3,0,0,0,77,79,124,100,60,134.99,265,13.00,-49.00,-1028.00
2024-06-07 11:12:50.354721,0,1,3,0,0,0,77,79,125,100,60,134.87,265,11.00,-38.00,-1035.00
2024-06-07 11:12:50.535451,0,1,3,0,0,0,77,79,125,100,60,134.89,265,-49.00,-13.00,-1028.00
2024-06-07 11:12:50.558918,0,2,3,0,0,0,77,79,124,100,60,134.88,265,-13.00,-58.00,-968.00
2024-06-07 11:12:50.740053,0,1,3,0,0,0,77,79,124,100,60,134.94,266,-28.00,-32.00,-1014.00
2024-06-07 11:12:50.762561,0,2,3,0,0,0,77,79,124,100,60,134.84,266,-49.00,-9.00,-952.00
2024-06-07 11:12:50.944916,-1,1,3,0,0,0,77,79,125,100,60,134.91,266,-18.00,-59.00,-1015.00
2024-06-07 11:12:50.966568,-1,2,3,0,0,0,77,79,124,100,60,134.93,266,-22.00,-33.00,-972.00
2024-06-07 11:12:51.149634,-1,2,3,0,0,0,77,79,124,100,60,134.98,266,-12.00,-72.00,-1028.00
2024-06-07 11:12:51.170689,0,3,3,0,0,0,77,79,123,100,60,135.04,266,-23.00,-12.00,-1052.00
2024-06-07 11:12:51.358932,0,2,4,0,0,0,77,79,124,100,60,134.97,266,-43.00,-2.00,-1028.00
2024-06-07 11:12:51.374649,0,2,4,0,0,0,77,79,125,100,60,134.99,266,-12.00,-76.00,-1072.00
2024-06-07 11:12:51.559308,0,2,4,0,0,0,77,79,126,100,60,135.02,266,-25.00,-18.00,-865.00
2024-06-07 11:12:51.578648,-1,2,4,0,0,0,77,79,126,100,60,135.03,266,-73.00,-5.00,-1009.00
2024-06-07 11:12:51.719447,-1,2,4,0,0,0,77,79,126,110,60,134.92,267,-23.00,5.00,-921.00
2024-06-07 11:12:51.782822,-1,1,4,0,0,0,77,79,126,110,60,134.96,267,-9.00,-27.00,-952.00
2024-06-07 11:12:51.971941,-1,1,3,0,0,0,77,79,128,110,60,134.92,267,-36.00,-11.00,-1107.00
2024-06-07 11:12:51.986603,-1,1,-2,0,0,0,77,79,128,110,60,134.87,267,-44.00,-16.00,-904.00
2024-06-07 11:12:52.038450,-1,1,-7,0,0,0,77,79,127,110,60,134.89,267,-42.00,-11.00,-991.00
2024-06-07 11:12:52.174088,-1,1,-13,0,0,0,77,79,127,110,60,135.03,267,-15.00,-54.00,-944.00
2024-06-07 11:12:52.293876,-1,1,-18,0,0,0,77,79,129,110,60,134.94,267,-11.00,-27.00,-1050.00
2024-06-07 11:12:52.394599,0,2,-24,0,0,0,77,79,129,110,60,135.02,267,-9.00,-54.00,-975.00
2024-06-07 11:12:52.583359,0,2,-29,0,0,0,77,79,129,110,60,135.04,267,-12.00,-9.00,-1001.00
2024-06-07 11:12:52.583413,0,1,-34,0,0,0,77,79,130,110,60,135.02,267,-25.00,-19.00,-999.00
2024-06-07 11:12:52.649697,0,1,-39,0,0,0,77,79,128,110,60,135.15,268,-20.00,-11.00,-977.00
2024-06-07 11:12:52.788137,0,1,-44,0,0,0,77,79,128,110,60,135.09,268,1.00,-24.00,-1045.00
2024-06-07 11:12:52.853717,0,1,-50,0,0,0,77,79,129,110,59,135.07,268,-19.00,-30.00,-985.00
2024-06-07 11:12:52.955669,0,1,-56,0,0,0,77,79,129,110,59,135.03,268,20.00,-50.00,-967.00
2024-06-07 11:12:53.057657,0,1,-62,0,0,0,77,79,129,110,59,134.98,268,-10.00,-21.00,-971.00
2024-06-07 11:12:53.197759,0,1,-68,0,0,0,77,79,128,110,59,134.94,268,22.00,-45.00,-1104.00
2024-06-07 11:12:53.261649,0,1,-74,0,0,0,77,79,128,110,59,134.99,268,-10.00,-32.00,-1006.00
2024-06-07 11:12:53.402606,1,1,-80,0,0,0,77,79,128,110,59,135.02,268,30.00,-20.00,-992.00
2024-06-07 11:12:53.465701,1,1,-86,0,0,0,77,79,127,110,59,134.95,268,-1.00,-25.00,-997.00
2024-06-07 11:12:53.608441,1,1,-92,0,0,0,77,79,129,110,59,135.02,268,22.00,-27.00,-1065.00
2024-06-07 11:12:53.669570,2,1,-98,0,0,0,77,79,127,110,59,134.91,269,0.00,17.00,-1043.00
2024-06-07 11:12:53.812152,2,1,-104,0,0,0,77,79,129,110,59,134.91,269,26.00,-30.00,-970.00
2024-06-07 11:12:53.873766,2,1,-110,0,0,0,77,79,128,110,59,134.95,269,44.00,-16.00,-997.00
2024-06-07 11:12:53.976688,2,1,-116,0,0,0,77,79,127,110,59,134.95,269,11.00,-10.00,-1007.00
2024-06-07 11:12:54.119693,2,1,-122,0,0,0,77,79,127,110,59,134.87,269,43.00,-8.00,-978.00
2024-06-07 11:12:54.179835,2,1,-129,0,0,0,77,79,126,110,59,134.83,269,44.00,-21.00,-975.00
2024-06-07 11:12:54.324145,2,1,-135,0,0,0,77,79,126,100,59,134.86,269,17.00,-27.00,-1028.00
2024-06-07 11:12:54.383464,2,0,-141,0,0,0,77,79,126,100,59,134.90,269,20.00,30.00,-901.00
2024-06-07 11:12:54.528945,2,0,-147,0,0,0,77,79,127,100,59,134.94,269,53.00,-12.00,-1031.00
2024-06-07 11:12:54.587487,2,0,-154,0,0,0,77,79,126,100,59,134.86,269,46.00,7.00,-989.00
2024-06-07 11:12:54.733761,2,0,-160,0,0,0,77,79,127,100,59,134.92,270,34.00,15.00,-996.00
2024-06-07 11:12:54.791433,2,0,-166,0,0,0,77,79,126,100,59,134.92,270,60.00,-5.00,-1048.00
2024-06-07 11:12:54.938472,2,0,-173,0,0,0,77,79,127,100,59,134.89,270,-5.00,43.00,-1057.00
2024-06-07 11:12:54.995498,2,0,-179,0,0,0,77,79,127,100,59,134.91,270,1.00,21.00,-1015.00
2024-06-07 11:12:55.143379,2,0,174,0,0,0,77,79,126,100,59,134.96,270,18.00,47.00,-922.00
2024-06-07 11:12:55.199503,1,0,168,0,0,0,77,79,127,110,59,135.06,270,-2.00,21.00,-981.00
2024-06-07 11:12:55.348827,1,-1,161,0,0,0,77,80,128,110,59,134.95,270,44.00,2.00,-952.00
2024-06-07 11:12:55.403816,1,-1,155,0,0,0,77,80,127,110,59,135.04,270,25.00,51.00,-973.00
2024-06-07 11:12:55.554507,1,-1,149,0,0,0,77,80,125,110,59,134.94,270,10.00,44.00,-978.00
2024-06-07 11:12:55.607393,1,-1,143,0,0,0,77,80,125,100,59,134.92,270,-7.00,23.00,-979.00
2024-06-07 11:12:55.757763,1,-1,136,0,0,0,77,80,127,100,59,135.00,271,51.00,17.00,-1017.00
2024-06-07 11:12:55.811429,1,-1,130,0,0,0,77,80,127,100,59,135.00,271,25.00,12.00,-925.00
2024-06-07 11:12:55.962367,1,-1,124,0,0,0,77,80,127,100,59,134.98,271,27.00,28.00,-978.00
2024-06-07 11:12:56.015372,1,-1,117,0,0,0,77,80,126,100,59,134.89,271,-5.00,40.00,-999.00
2024-06-07 11:12:56.067125,1,-1,111,0,0,0,77,80,128,100,59,134.95,271,-7.00,17.00,-974.00
2024-06-07 11:12:56.168956,0,-1,105,0,0,0,77,80,127,100,59,135.02,271,21.00,26.00,-964.00
2024-06-07 11:12:56.372116,0,-1,98,0,0,0,76,79,126,100,59,134.93,271,-23.00,29.00,-1032.00
2024-06-07 11:12:56.372377,0,-1,91,0,0,0,76,79,127,110,59,134.92,271,4.00,38.00,-1002.00
2024-06-07 11:12:56.474768,0,-1,84,0,0,0,76,79,126,110,59,134.93,271,-35.00,74.00,-1055.00
2024-06-07 11:12:56.576883,-1,0,78,0,0,0,76,79,126,110,59,134.90,271,-30.00,3.00,-1043.00
2024-06-07 11:12:56.679605,-1,0,72,0,0,0,76,79,127,110,59,134.88,272,-30.00,10.00,-954.00
2024-06-07 11:12:56.781986,-2,0,66,0,0,0,76,79,127,110,59,134.94,272,-73.00,8.00,-968.00
2024-06-07 11:12:56.882443,-2,0,60,0,0,0,76,79,125,100,59,134.96,272,30.00,-32.00,-1003.00
2024-06-07 11:12:56.984423,-1,0,53,0,0,0,76,79,127,100,59,134.82,272,-1.00,-41.00,-1039.00
2024-06-07 11:12:57.088896,-1,0,47,0,0,0,76,79,127,100,59,134.91,272,-38.00,20.00,-977.00
2024-06-07 11:12:57.188626,0,1,41,0,0,0,76,79,127,100,59,134.89,272,-33.00,2.00,-1007.00
2024-06-07 11:12:57.293920,-1,1,34,0,0,0,76,79,126,100,59,134.97,272,5.00,-36.00,-966.00
2024-06-07 11:12:57.392469,-1,1,28,0,0,0,76,79,127,100,59,135.01,272,-8.00,-42.00,-990.00
2024-06-07 11:12:57.499838,0,1,22,0,0,0,76,79,127,100,59,134.94,272,0.00,-48.00,-1002.00
2024-06-07 11:12:57.598161,0,2,17,0,0,0,76,79,126,100,59,135.02,272,-10.00,22.00,-1008.00
2024-06-07 11:12:57.698576,0,2,13,0,0,0,76,79,126,100,59,134.96,273,3.00,-17.00,-974.00
2024-06-07 11:12:57.805719,0,2,10,0,0,0,76,79,125,100,59,134.98,273,42.00,-72.00,-1022.00
2024-06-07 11:12:57.902503,1,2,9,0,0,0,76,79,125,100,59,134.99,273,16.00,-21.00,-1068.00
2024-06-07 11:12:58.010514,0,2,7,0,0,0,76,79,126,100,59,134.95,273,-16.00,-30.00,-974.00
2024-06-07 11:12:58.107246,0,1,6,0,0,0,76,79,125,100,59,134.90,273,-1.00,-61.00,-1053.00
2024-06-07 11:12:58.209514,0,1,6,0,0,0,76,79,126,100,59,135.00,273,-26.00,-14.00,-931.00
2024-06-07 11:12:58.317717,-1,2,7,0,0,0,76,79,126,100,59,134.95,273,-11.00,-19.00,-983.00
2024-06-07 11:12:58.413502,-1,2,6,0,0,0,76,79,127,100,59,135.04,273,-23.00,-11.00,-1004.00
2024-06-07 11:12:58.515746,-1,1,6,0,0,0,76,79,127,110,59,135.02,273,-32.00,-28.00,-1036.00
2024-06-07 11:12:58.624899,-1,1,6,0,0,0,76,79,127,110,59,135.01,273,3.00,-33.00,-1061.00
2024-06-07 11:12:58.720859,-1,1,6,0,0,0,76,79,126,110,59,135.03,274,-8.00,-42.00,-965.00
2024-06-07 11:12:58.830193,-1,1,6,0,0,0,76,79,128,110,59,135.08,274,-20.00,-11.00,-964.00
2024-06-07 11:12:58.923529,-1,1,5,0,0,0,76,79,128,110,59,135.08,274,-15.00,-25.00,-981.00
2024-06-07 11:12:59.025474,-1,1,5,0,0,0,76,79,127,110,59,135.07,274,0.00,18.00,-1089.00
2024-06-07 11:12:59.127458,-1,0,5,0,0,0,76,79,124,100,59,135.15,274,27.00,-57.00,-971.00
2024-06-07 11:12:59.240235,0,1,5,0,0,0,76,79,124,100,59,135.04,274,15.00,-66.00,-996.00
2024-06-07 11:12:59.331357,0,1,5,0,0,0,77,79,124,100,59,134.99,274,35.00,-31.00,-1002.00
2024-06-07 11:12:59.444201,0,2,5,0,0,0,77,79,124,100,59,135.00,274,-3.00,-81.00,-1067.00
2024-06-07 11:12:59.535538,1,3,6,0,0,0,77,79,123,100,59,134.99,274,12.00,-52.00,-1055.00
2024-06-07 11:12:59.649055,0,3,6,0,0,0,77,79,124,100,59,135.02,274,-38.00,-4.00,-1068.00
2024-06-07 11:12:59.739318,0,2,6,0,0,0,77,79,125,100,59,134.95,275,-7.00,-31.00,-1045.00
2024-06-07 11:12:59.853888,1,2,6,0,0,0,77,79,125,100,59,134.91,275,9.00,-57.00,-984.00
2024-06-07 11:12:59.893776,1,3,6,0,0,0,77,79,125,100,58,134.94,275,2.00,-39.00,-1019.00
2024-06-07 11:12:59.994344,1,3,6,0,0,0,77,79,126,100,58,135.01,275,11.00,-52.00,-1001.00
2024-06-07 11:13:00.161186,2,3,6,1,0,0,77,79,127,110,58,134.95,275,30.00,-23.00,-972.00
2024-06-07 11:13:00.198269,3,3,6,1,0,0,77,79,127,110,58,135.03,275,29.00,-39.00,-986.00
2024-06-07 11:13:00.365668,3,2,6,0,0,0,77,79,128,110,58,135.00,275,39.00,-44.00,-1021.00
2024-06-07 11:13:00.402245,3,2,6,0,0,0,77,79,128,110,58,135.12,275,56.00,-72.00,-974.00
2024-06-07 11:13:00.504283,2,3,6,0,0,0,77,79,127,110,58,135.03,275,15.00,-60.00,-1044.00
2024-06-07 11:13:00.606874,1,2,6,0,0,0,77,79,127,110,58,135.16,275,36.00,-78.00,-1511.00
2024-06-07 11:13:00.775281,0,-1,5,0,0,-2,77,79,131,110,58,135.17,276,-56.00,-57.00,-1653.00
2024-06-07 11:13:00.810273,0,-3,6,0,-1,-8,77,79,153,110,58,135.37,276,27.00,167.00,-1105.00
2024-06-07 11:13:00.980136,2,-51,9,0,-4,-11,77,79,629,120,58,135.42,276,50.00,623.00,-966.00
2024-06-07 11:13:01.014229,3,-169,2,1,-13,-3,77,79,6553,130,58,135.08,276,36.00,597.00,-831.00
2024-06-07 11:13:01.184900,-2,70,6,2,-11,11,77,79,141,130,58,135.73,276,16.00,67.00,-1687.00
2024-06-07 11:13:01.218334,0,-19,6,2,-6,12,77,79,143,110,58,134.88,276,-47.00,-15.00,-1463.00
2024-06-07 11:13:01.389728,1,5,4,3,-12,6,77,79,117,90,58,135.02,276,-1.00,65.00,-1488.00
2024-06-07 11:13:01.422189,1,8,6,2,-9,2,77,79,113,90,58,134.95,276,38.00,60.00,-1421.00
2024-06-07 11:13:01.594508,1,9,7,2,-7,0,77,79,111,90,58,134.81,276,-18.00,57.00,-1244.00
2024-06-07 11:13:01.625994,1,7,7,2,-5,-1,77,79,112,90,58,134.85,277,19.00,21.00,-1177.00
2024-06-07 11:13:01.799280,1,5,7,1,-4,-2,77,79,115,90,58,135.00,277,44.00,-13.00,-1066.00
2024-06-07 11:13:01.830302,1,3,7,1,-3,-2,77,79,117,90,58,135.02,277,-35.00,27.00,-977.00
2024-06-07 11:13:02.004596,0,3,7,1,-3,-2,77,79,123,100,58,135.03,277,34.00,-13.00,-969.00
2024-06-07 11:13:02.034178,0,3,6,0,-3,-2,77,79,125,100,58,135.06,277,19.00,-29.00,-939.00
2024-06-07 11:13:02.136275,0,3,6,0,-2,-1,77,79,129,100,58,134.99,277,27.00,-24.00,-1016.00
2024-06-07 11:13:02.238115,0,3,6,0,-2,-1,77,79,129,100,58,135.04,277,-19.00,-19.00,-954.00
2024-06-07 11:13:02.413737,0,3,6,0,-2,0,77,79,131,100,58,135.05,277,-24.00,-26.00,-920.00
2024-06-07 11:13:02.442258,0,3,6,0,-2,0,77,79,132,100,58,135.11,277,-4.00,-52.00,-989.00
2024-06-07 11:13:02.544239,0,3,6,0,-2,0,77,79,131,100,58,135.12,277,26.00,-53.00,-994.00
2024-06-07 11:13:02.721338,0,4,6,0,-2,0,77,79,131,100,58,135.10,278,-17.00,-29.00,-1007.00
2024-06-07 11:13:02.748720,0,6,6,0,-1,0,77,79,131,100,58,134.98,278,-3.00,-43.00,-1077.00
2024-06-07 11:13:02.925580,0,6,6,0,-1,0,77,79,131,100,58,135.22,278,-23.00,-36.00,-938.00
2024-06-07 11:13:02.952449,0,5,6,0,-1,0,77,79,130,100,57,135.16,278,42.00,-93.00,-1008.00
2024-06-07 11:13:03.130993,0,5,6,0,0,0,77,79,129,100,57,135.21,278,-37.00,-51.00,-999.00
2024-06-07 11:13:03.156069,-1,5,6,0,0,0,77,79,129,100,57,135.16,278,-16.00,-31.00,-1009.00
2024-06-07 11:13:03.335304,-1,5,6,0,0,0,77,79,129,100,57,135.19,278,13.00,-17.00,-1078.00
2024-06-07 11:13:03.360104,0,4,6,0,0,0,77,79,129,100,57,135.31,278,-3.00,-25.00,-996.00
2024-06-07 11:13:03.540081,0,3,6,0,0,0,77,79,128,100,57,134.98,278,-36.00,0.00,-989.00
2024-06-07 11:13:03.564047,0,3,6,0,0,0,77,79,127,100,57,135.00,278,-5.00,-67.00,-968.00
2024-06-07 11:13:03.615057,-1,3,6,0,0,0,77,79,127,100,57,134.86,279,-82.00,-66.00,-1029.00
2024-06-07 11:13:03.744884,-2,4,6,-1,0,0,77,79,128,100,57,135.00,279,-35.00,-83.00,-1026.00
2024-06-07 11:13:03.819178,-3,4,5,0,0,0,77,79,128,100,57,135.11,279,-56.00,-67.00,-903.00
2024-06-07 11:13:03.950739,-4,5,5,0,0,0,77,79,127,100,57,134.99,279,34.00,-91.00,-944.00
2024-06-07 11:13:04.024006,-2,6,5,0,0,0,77,79,127,100,57,135.27,279,8.00,-91.00,-998.00
2024-06-07 11:13:04.125164,-1,4,5,0,0,0,77,79,127,100,57,135.17,279,-19.00,-77.00,-993.00
2024-06-07 11:13:04.228767,0,5,5,0,0,0,77,79,128,100,57,135.15,279,-19.00,-65.00,-996.00
2024-06-07 11:13:04.329335,1,5,5,0,0,0,76,79,129,100,57,135.00,279,-31.00,-88.00,-1032.00
2024-06-07 11:13:04.462128,0,5,5,0,0,0,76,79,129,100,57,135.11,279,6.00,-137.00,-1007.00
2024-06-07 11:13:04.533868,0,6,5,0,0,0,76,79,129,100,57,135.24,279,31.00,-111.00,-995.00
2024-06-07 11:13:04.635108,0,7,5,0,0,0,76,79,131,100,57,135.23,280,49.00,-118.00,-994.00
2024-06-07 11:13:04.737101,1,8,5,0,0,0,76,79,132,100,57,135.20,280,6.00,-134.00,-1030.00
2024-06-07 11:13:04.871428,1,8,6,0,0,0,76,79,131,110,57,135.16,280,-56.00,-71.00,-953.00
2024-06-07 11:13:04.941351,0,8,5,0,0,0,76,79,131,110,57,135.16,280,13.00,-112.00,-948.00
2024-06-07 11:13:05.043710,0,8,5,0,0,0,76,79,133,110,57,135.03,280,-8.00,-101.00,-947.00
2024-06-07 11:13:05.145398,0,7,5,0,0,0,76,79,132,110,57,135.01,280,9.00,-76.00,-1016.00
2024-06-07 11:13:05.280966,1,6,6,0,0,0,76,79,131,110,57,135.12,280,32.00,-148.00,-987.00
2024-06-07 11:13:05.349004,0,7,6,0,0,0,77,79,132,110,57,135.16,280,-12.00,-105.00,-1026.00
2024-06-07 11:13:05.486184,0,8,5,0,0,0,77,79,132,110,57,135.18,280,51.00,-137.00,-1031.00
2024-06-07 11:13:05.553204,0,7,5,0,0,0,77,79,133,110,57,135.10,280,15.00,-72.00,-953.00
2024-06-07 11:13:05.655414,1,7,5,0,0,0,77,79,133,110,57,134.84,281,8.00,-116.00,-1008.00
2024-06-07 11:13:05.757061,2,7,5,0,1,0,77,79,134,110,57,135.12,281,-32.00,-63.00,-967.00
2024-06-07 11:13:05.859341,2,5,6,0,1,0,77,79,131,110,57,135.17,281,15.00,-129.00,-967.00
2024-06-07 11:13:05.998126,1,5,5,0,1,0,77,79,132,110,56,135.22,281,26.00,-138.00,-973.00
2024-06-07 11:13:06.063362,1,5,5,0,0,0,77,79,133,110,56,135.21,281,0.00,-108.00,-1032.00
2024-06-07 11:13:06.203346,1,5,6,0,0,0,77,79,132,110,56,135.22,281,-22.00,-97.00,-986.00
2024-06-07 11:13:06.267256,0,6,6,0,0,0,77,79,131,110,56,135.22,281,34.00,-101.00,-995.00
2024-06-07 11:13:06.407860,0,6,5,0,0,0,77,79,131,110,56,135.20,281,21.00,-96.00,-1004.00
2024-06-07 11:13:06.471144,0,6,6,0,0,0,77,79,131,110,56,135.12,281,13.00,-86.00,-950.00
2024-06-07 11:13:06.612159,2,6,6,0,0,0,77,79,130,100,56,135.06,281,59.00,-103.00,-1014.00
2024-06-07 11:13:06.675001,2,6,6,0,1,0,77,79,130,100,56,134.98,282,-2.00,-91.00,-989.00
2024-06-07 11:13:06.817142,2,5,6,0,1,0,77,79,130,100,56,134.95,282,7.00,-86.00,-940.00
2024-06-07 11:13:06.878975,2,5,6,0,1,0,77,79,130,100,56,134.92,282,-1.00,-59.00,-1000.00
2024-06-07 11:13:06.980994,1,4,6,0,1,0,77,79,130,100,56,134.97,282,47.00,-110.00,-987.00
2024-06-07 11:13:07.083017,1,4,6,0,1,0,77,79,130,100,56,134.89,282,37.00,-75.00,-977.00
2024-06-07 11:13:07.133969,0,4,6,0,0,0,77,79,130,100,56,135.10,282,32.00,-129.00,-1100.00
2024-06-07 11:13:07.333723,0,3,4,0,0,-4,77,79,134,110,56,135.16,282,-2.00,-107.00,-1618.00
