TS,pitch,roll,yaw,vgx,vgy,vgz,templ,temph,tof,h,bat,baro,time,agx,agy,agz
2024-06-07 11:14:48.601845,0,0,14,0,0,0,82,82,10,0,51,133.44,306,7.00,-8.00,-998.00
2024-06-07 11:14:48.678456,0,0,14,0,0,0,82,82,10,0,51,133.48,306,5.00,-7.00,-1001.00
2024-06-07 11:14:48.806464,0,0,14,0,0,0,82,82,10,0,51,133.47,306,6.00,-6.00,-998.00
2024-06-07 11:14:48.882683,0,0,14,0,0,0,81,83,10,0,51,133.41,306,6.00,-6.00,-1000.00
2024-06-07 11:14:49.011840,0,0,14,0,0,0,81,83,10,0,51,133.46,306,5.00,-8.00,-1000.00
2024-06-07 11:14:49.086319,0,0,14,0,0,0,81,83,10,0,51,133.44,306,4.00,-7.00,-1001.00
2024-06-07 11:14:49.188475,0,0,14,0,0,0,81,83,10,0,51,133.50,306,5.00,-7.00,-1001.00
2024-06-07 11:14:49.290380,0,0,14,0,0,0,81,83,10,0,51,133.50,306,6.00,-6.00,-998.00
2024-06-07 11:14:49.392413,0,0,14,0,0,0,81,83,10,0,51,133.44,306,6.00,-8.00,-999.00
2024-06-07 11:14:49.523298,0,0,14,0,0,0,81,83,10,0,51,133.47,306,4.00,-9.00,-997.00
2024-06-07 11:14:49.596337,0,0,14,0,0,0,81,83,10,0,51,133.46,306,5.00,-8.00,-1000.00
2024-06-07 11:14:49.727937,0,0,14,0,0,0,81,83,10,0,51,133.47,306,3.00,-6.00,-996.00
2024-06-07 11:14:49.800109,0,0,14,0,0,0,81,83,10,0,51,133.47,306,5.00,-8.00,-998.00
2024-06-07 11:14:49.932671,0,0,14,0,0,0,82,83,10,0,51,133.45,306,3.00,-8.00,-999.00
2024-06-07 11:14:50.004252,0,0,14,0,0,0,82,83,10,0,51,133.44,306,5.00,-7.00,-1002.00
2024-06-07 11:14:50.138864,0,0,14,0,0,0,82,83,10,0,51,133.46,306,6.00,-10.00,-1000.00
2024-06-07 11:14:50.208519,0,0,14,0,0,0,82,83,10,0,51,133.46,306,5.00,-7.00,-999.00
2024-06-07 11:14:50.310418,0,0,14,0,0,0,82,83,10,0,51,133.41,306,4.00,-7.00,-1001.00
2024-06-07 11:14:50.412522,0,0,14,0,0,0,82,83,10,0,51,133.46,306,6.00,-6.00,-1002.00
2024-06-07 11:14:50.547261,0,0,14,0,0,0,82,83,10,0,51,133.46,306,6.00,-7.00,-998.00
2024-06-07 11:14:50.616270,0,0,14,0,0,0,82,83,10,0,51,133.45,306,5.00,-8.00,-1000.00
2024-06-07 11:14:50.752274,0,0,14,0,0,0,82,83,10,0,51,133.50,306,5.00,-7.00,-998.00
2024-06-07 11:14:50.820660,0,0,14,0,0,0,82,83,10,0,51,133.49,306,6.00,-8.00,-1000.00
2024-06-07 11:14:50.956800,0,0,14,0,0,0,82,83,10,0,51,133.48,306,6.00,-8.00,-996.00
2024-06-07 11:14:51.025612,0,0,14,0,0,0,82,83,10,0,51,133.44,306,7.00,-7.00,-1000.00
2024-06-07 11:14:51.161575,0,0,14,0,0,0,82,83,10,0,51,133.52,306,5.00,-8.00,-997.00
2024-06-07 11:14:51.228316,0,0,14,0,0,0,82,83,10,0,51,133.46,306,5.00,-7.00,-1000.00
2024-06-07 11:14:51.330255,0,0,14,0,0,0,82,83,10,0,51,133.50,306,6.00,-8.00,-1001.00
2024-06-07 11:14:51.468991,0,0,14,0,0,0,82,83,10,0,51,133.47,306,5.00,-6.00,-1001.00
2024-06-07 11:14:51.534418,0,0,14,0,0,0,82,83,10,0,51,133.48,306,4.00,-6.00,-998.00
2024-06-07 11:14:51.636299,0,0,14,0,0,0,82,83,10,0,51,133.50,306,4.00,-8.00,-999.00
2024-06-07 11:14:51.687154,0,0,14,0,0,0,82,83,10,0,51,133.50,306,1.00,-2.00,-1000.00
2024-06-07 11:14:51.878296,0,0,14,0,0,0,82,83,10,0,51,133.50,306,8.00,-13.00,-1003.00
2024-06-07 11:14:51.942359,0,0,14,0,0,0,82,84,10,0,51,133.50,307,0.00,-2.00,-992.00
2024-06-07 11:14:52.083117,0,0,13,0,0,0,82,84,10,0,51,133.50,307,12.00,-14.00,-995.00
2024-06-07 11:14:52.146281,0,0,13,0,0,0,82,84,10,0,51,133.50,307,-32.00,4.00,-982.00
2024-06-07 11:14:52.287895,1,-1,12,0,0,0,82,84,10,0,51,133.50,307,-32.00,30.00,-1074.00
2024-06-07 11:14:52.350251,2,-2,11,-1,0,-1,82,84,10,0,51,133.50,307,-37.00,6.00,-1237.00
2024-06-07 11:14:52.401204,-1,0,11,-1,0,-4,82,84,10,0,51,133.50,307,-109.00,19.00,-1393.00
2024-06-07 11:14:52.595094,-4,0,11,-1,0,-6,82,84,10,0,51,133.50,307,-85.00,-7.00,-1182.00
2024-06-07 11:14:52.605100,-4,0,11,-1,0,-7,82,84,13,10,51,133.75,307,-9.00,33.00,-1088.00
2024-06-07 11:14:52.795847,-4,0,11,0,0,-7,82,84,22,20,51,133.91,307,-49.00,20.00,-1027.00
2024-06-07 11:14:52.809674,-2,-2,12,0,0,-7,82,84,30,20,51,133.83,307,-80.00,24.00,-1051.00
2024-06-07 11:14:53.004698,-3,-1,11,-1,0,-7,82,84,39,30,50,133.98,308,-110.00,15.00,-948.00
2024-06-07 11:14:53.013129,-5,-1,11,-1,0,-6,82,84,48,40,50,133.88,308,-114.00,-4.00,-1000.00
2024-06-07 11:14:53.209513,-6,0,12,-1,0,-6,82,84,56,40,50,134.20,308,-53.00,36.00,-949.00
2024-06-07 11:14:53.217111,-6,0,12,0,0,-5,82,84,63,50,50,134.33,308,-33.00,56.00,-840.00
2024-06-07 11:14:53.319725,-4,-1,12,0,0,-4,82,84,68,50,50,134.28,308,-38.00,14.00,-860.00
2024-06-07 11:14:53.517045,-4,-2,12,0,0,-3,82,84,73,60,50,134.30,308,-104.00,24.00,-904.00
2024-06-07 11:14:53.522952,-5,-2,12,0,0,-2,82,84,77,60,50,134.33,308,-63.00,72.00,-880.00
2024-06-07 11:14:53.721555,-4,-3,12,0,0,-1,82,84,80,60,50,134.25,308,-96.00,12.00,-892.00
2024-06-07 11:14:53.727045,-5,-2,12,0,0,0,82,84,82,70,50,134.37,308,-76.00,40.00,-870.00
2024-06-07 11:14:53.829076,-5,-1,12,0,0,0,82,84,84,70,50,134.42,308,-61.00,37.00,-884.00
2024-06-07 11:14:54.028747,-4,-2,12,0,0,0,81,84,84,70,50,134.47,309,-40.00,102.00,-902.00
2024-06-07 11:14:54.033260,-3,-3,11,0,1,0,81,84,85,70,50,134.31,309,-87.00,45.00,-1036.00
2024-06-07 11:14:54.233501,-2,-5,11,0,0,0,81,84,86,70,50,134.37,309,-81.00,44.00,-977.00
2024-06-07 11:14:54.237829,-3,-4,12,0,0,0,81,84,86,70,50,134.33,309,-108.00,53.00,-1030.00
2024-06-07 11:14:54.339058,-4,-2,12,0,0,0,81,84,86,70,50,134.40,309,-64.00,38.00,-991.00
2024-06-07 11:14:54.441305,-4,-1,12,0,0,0,81,84,87,70,50,134.31,309,-29.00,23.00,-1074.00
2024-06-07 11:14:54.543767,-5,-2,12,0,0,0,81,84,87,70,50,134.39,309,-70.00,56.00,-934.00
2024-06-07 11:14:54.645033,-4,-2,12,0,0,0,81,84,88,70,50,134.42,309,-33.00,34.00,-890.00
2024-06-07 11:14:54.847898,-4,-2,12,0,0,0,81,84,88,70,50,134.44,309,-52.00,30.00,-997.00
2024-06-07 11:14:54.849622,-3,-3,12,0,0,0,81,84,88,70,50,134.48,309,-75.00,70.00,-965.00
2024-06-07 11:14:55.052547,-2,-4,12,0,0,0,81,84,87,70,50,134.49,310,-80.00,66.00,-1018.00
2024-06-07 11:14:55.052772,-3,-3,12,0,0,0,81,84,86,70,50,134.54,310,-74.00,33.00,-968.00
2024-06-07 11:14:55.155293,-3,-2,12,0,0,0,81,84,86,70,50,134.31,310,-56.00,78.00,-982.00
2024-06-07 11:14:55.257640,-3,-2,12,0,0,0,81,84,85,70,50,134.33,310,-51.00,96.00,-962.00
2024-06-07 11:14:55.360921,-2,-3,12,0,0,0,81,84,86,70,50,134.37,310,-39.00,67.00,-1025.00
2024-06-07 11:14:55.461980,-2,-2,12,0,0,0,81,84,85,70,50,134.37,310,-47.00,66.00,-1029.00
2024-06-07 11:14:55.562961,-2,-3,12,0,0,0,81,84,86,70,50,134.40,310,-46.00,27.00,-1021.00
2024-06-07 11:14:55.667062,-2,-3,12,0,0,0,81,84,86,70,50,134.36,310,-96.00,62.00,-928.00
2024-06-07 11:14:55.767074,-4,-2,12,0,0,0,81,84,85,70,50,134.42,310,-85.00,50.00,-998.00
2024-06-07 11:14:55.868941,-5,-2,12,0,0,0,81,84,85,70,50,134.29,310,-95.00,52.00,-973.00
2024-06-07 11:14:55.971053,-4,-2,12,0,0,0,82,83,84,70,50,134.25,311,-116.00,58.00,-967.00
2024-06-07 11:14:56.073076,-5,-2,12,0,0,0,82,83,83,70,50,134.33,311,-62.00,25.00,-954.00
2024-06-07 11:14:56.179229,-5,-2,12,0,0,0,82,83,84,70,50,134.26,311,-115.00,9.00,-1089.00
2024-06-07 11:14:56.276979,-5,-2,12,0,0,0,82,83,84,70,50,134.25,311,-112.00,42.00,-934.00
2024-06-07 11:14:56.378974,-6,-2,12,0,0,0,82,83,84,70,50,134.34,311,-90.00,50.00,-971.00
2024-06-07 11:14:56.431517,-6,-2,12,0,0,0,82,83,83,70,50,134.34,311,-77.00,80.00,-985.00
2024-06-07 11:14:56.532244,-6,-4,12,0,0,0,82,83,84,70,50,134.36,311,-73.00,38.00,-951.00
2024-06-07 11:14:56.634311,-5,-4,12,0,0,0,82,83,83,70,50,134.28,311,-98.00,31.00,-917.00
2024-06-07 11:14:56.735948,-6,-3,12,0,0,0,82,83,84,70,50,134.22,311,-134.00,71.00,-969.00
2024-06-07 11:14:56.838274,-6,-3,12,0,0,0,82,83,82,70,50,134.28,311,-107.00,70.00,-1034.00
2024-06-07 11:14:56.956095,-6,-4,12,0,0,0,81,83,84,70,50,134.28,312,-99.00,62.00,-1035.00
2024-06-07 11:14:57.042518,-6,-4,12,0,0,0,81,83,83,70,50,134.27,312,-118.00,74.00,-1007.00
2024-06-07 11:14:57.203069,-6,-5,12,0,0,0,81,83,83,70,50,134.32,312,-128.00,78.00,-982.00
2024-06-07 11:14:57.250892,-6,-5,12,0,0,0,81,83,83,70,50,134.26,312,-108.00,88.00,-999.00
2024-06-07 11:14:57.348059,-7,-5,12,0,0,0,81,83,83,70,50,134.18,312,-74.00,69.00,-984.00
2024-06-07 11:14:57.510276,-7,-6,12,0,0,0,81,83,83,70,50,134.25,312,-132.00,76.00,-1000.00
2024-06-07 11:14:57.552247,-7,-5,12,0,0,0,81,83,82,70,50,134.27,312,-113.00,88.00,-924.00
2024-06-07 11:14:57.715059,-7,-5,12,0,0,0,81,83,82,70,50,134.28,312,-87.00,57.00,-1031.00
2024-06-07 11:14:57.755908,-7,-5,12,0,0,0,81,83,81,70,50,134.29,312,-107.00,111.00,-967.00
2024-06-07 11:14:57.919879,-6,-5,12,0,0,0,81,83,80,70,50,134.21,312,-90.00,93.00,-968.00
2024-06-07 11:14:57.959931,-5,-5,12,0,0,0,81,82,79,70,50,134.10,313,-104.00,115.00,-1034.00
2024-06-07 11:14:58.125648,-4,-6,12,0,0,0,81,82,79,70,50,134.05,313,-127.00,100.00,-1056.00
2024-06-07 11:14:58.164615,-5,-7,12,0,0,0,81,82,78,70,50,134.06,313,-105.00,81.00,-953.00
2024-06-07 11:14:58.268118,-6,-7,12,0,0,0,81,82,78,70,50,134.15,313,-71.00,87.00,-957.00
2024-06-07 11:14:58.367800,-6,-6,12,0,0,0,81,82,76,60,50,134.08,313,-82.00,121.00,-984.00
2024-06-07 11:14:58.534265,-6,-6,12,0,0,0,81,82,76,60,50,134.04,313,-140.00,89.00,-1076.00
2024-06-07 11:14:58.572088,-6,-6,12,0,0,0,81,82,77,60,50,134.05,313,-89.00,123.00,-984.00
2024-06-07 11:14:58.739072,-6,-5,12,0,0,0,81,82,77,60,50,134.07,313,-116.00,115.00,-978.00
2024-06-07 11:14:58.776348,-6,-5,12,0,0,0,81,82,78,60,50,134.02,313,-105.00,112.00,-1052.00
2024-06-07 11:14:58.943846,-6,-6,12,0,0,0,81,82,79,60,50,134.10,313,-99.00,105.00,-1026.00
2024-06-07 11:14:58.979899,-6,-6,12,0,0,0,80,82,80,60,50,134.17,314,-116.00,113.00,-990.00
2024-06-07 11:14:59.082113,-6,-5,12,0,0,0,80,82,80,70,50,134.07,314,-117.00,88.00,-996.00
2024-06-07 11:14:59.251193,-7,-5,12,0,0,0,80,82,82,70,50,134.13,314,-102.00,89.00,-972.00
2024-06-07 11:14:59.287856,-6,-5,12,0,0,0,80,82,82,70,50,134.03,314,-68.00,104.00,-980.00
2024-06-07 11:14:59.388108,-6,-5,12,0,0,0,80,82,83,70,50,134.04,314,-118.00,92.00,-959.00
2024-06-07 11:14:59.558223,-6,-5,12,0,0,0,80,82,83,70,50,134.05,314,-96.00,109.00,-962.00
2024-06-07 11:14:59.593381,-6,-4,12,0,0,0,80,82,82,70,50,133.95,314,-123.00,72.00,-1025.00
2024-06-07 11:14:59.767516,-7,-4,12,0,0,0,80,82,82,70,50,134.06,314,-130.00,94.00,-949.00
2024-06-07 11:14:59.795853,-7,-4,12,0,0,0,80,82,82,70,50,134.09,314,-109.00,93.00,-952.00
2024-06-07 11:14:59.846820,-7,-5,12,0,0,0,80,82,81,70,50,134.11,314,-135.00,86.00,-976.00
2024-06-07 11:14:59.999929,-7,-5,12,0,0,0,80,83,80,70,50,134.03,315,-133.00,28.00,-929.00
2024-06-07 11:15:00.172696,-8,-4,12,0,0,0,80,83,79,70,50,133.97,315,-125.00,80.00,-1015.00
2024-06-07 11:15:00.203935,-8,-3,12,0,0,0,80,83,77,70,50,133.95,315,-85.00,89.00,-1038.00
2024-06-07 11:15:00.377621,-7,-3,12,0,0,0,80,83,76,60,50,133.95,315,-92.00,69.00,-996.00
2024-06-07 11:15:00.377746,-6,-3,12,0,0,0,80,83,75,60,50,134.02,315,-119.00,70.00,-1026.00
2024-06-07 11:15:00.459905,-6,-3,12,0,0,0,80,83,75,60,50,133.82,315,-142.00,109.00,-1067.00
2024-06-07 11:15:00.582340,-6,-4,12,0,0,0,80,83,74,60,50,133.89,315,-104.00,43.00,-1047.00
2024-06-07 11:15:00.663918,-6,-3,12,0,0,0,80,83,74,60,50,133.94,315,-102.00,61.00,-1085.00
2024-06-07 11:15:00.787209,-6,-3,12,0,0,0,80,83,74,60,50,133.97,315,-106.00,85.00,-991.00
2024-06-07 11:15:00.867807,-6,-3,12,0,0,0,80,83,74,60,50,133.95,315,-70.00,121.00,-962.00
2024-06-07 11:15:00.992102,-6,-4,12,0,0,0,81,83,74,60,50,133.96,316,-125.00,37.00,-1010.00
2024-06-07 11:15:01.071847,-6,-4,12,0,0,0,81,83,75,60,50,133.86,316,-113.00,67.00,-970.00
2024-06-07 11:15:01.196655,-6,-4,12,0,0,0,81,83,75,60,50,133.98,316,-126.00,83.00,-1028.00
2024-06-07 11:15:01.275851,-6,-3,12,0,0,0,81,83,76,60,50,133.94,316,-115.00,66.00,-1093.00
2024-06-07 11:15:01.401421,-7,-3,12,0,0,-1,81,83,77,60,50,133.88,316,-128.00,52.00,-1027.00
2024-06-07 11:15:01.480430,-7,-3,12,0,0,-2,81,83,80,70,50,133.93,316,-100.00,43.00,-1009.00
2024-06-07 11:15:01.606220,-7,-2,12,0,0,-3,81,83,84,70,50,133.93,316,-134.00,11.00,-1054.00
2024-06-07 11:15:01.683868,-7,-2,12,0,0,-3,81,83,87,70,50,133.94,316,-144.00,43.00,-1062.00
2024-06-07 11:15:01.811077,-6,-2,12,0,0,-4,81,83,93,80,50,134.03,316,-107.00,62.00,-1111.00
2024-06-07 11:15:01.887809,-6,-2,12,0,0,-4,81,83,97,80,50,134.15,316,-85.00,47.00,-1060.00
2024-06-07 11:15:02.015838,-6,-2,12,0,0,-5,80,83,104,90,50,134.19,317,-80.00,67.00,-961.00
2024-06-07 11:15:02.091823,-5,-2,12,0,0,-5,80,83,110,90,50,134.22,317,-104.00,92.00,-999.00
2024-06-07 11:15:02.193818,-5,-3,12,0,0,-6,80,83,117,100,50,134.28,317,-115.00,69.00,-985.00
2024-06-07 11:15:02.323018,-5,-3,12,0,0,-5,80,83,124,100,50,134.35,317,-103.00,57.00,-985.00
2024-06-07 11:15:02.397737,-5,-4,12,0,0,-5,80,83,130,110,50,134.39,317,-67.00,68.00,-958.00
2024-06-07 11:15:02.528897,-5,-3,12,0,0,-5,80,83,136,120,50,134.41,317,-129.00,76.00,-992.00
2024-06-07 11:15:02.601790,-5,-3,12,0,0,-5,80,83,142,120,50,134.60,317,-110.00,65.00,-870.00
2024-06-07 11:15:02.732612,-6,-4,12,0,0,-4,80,83,147,130,50,134.68,317,-95.00,47.00,-885.00
2024-06-07 11:15:02.805650,-6,-4,12,0,0,-4,80,83,154,130,50,134.66,317,-90.00,71.00,-924.00
2024-06-07 11:15:02.937417,-5,-4,12,0,0,-3,80,83,159,140,50,134.72,317,-112.00,84.00,-958.00
2024-06-07 11:15:03.009668,-5,-4,12,0,0,-3,80,82,163,140,50,134.69,318,-92.00,46.00,-979.00
2024-06-07 11:15:03.111716,-6,-5,12,0,0,-3,80,82,167,150,50,134.70,318,-95.00,63.00,-985.00
2024-06-07 11:15:03.213738,-6,-5,12,0,0,-3,80,82,170,150,50,134.85,318,-85.00,104.00,-936.00
2024-06-07 11:15:03.346938,-6,-5,12,0,0,-2,80,82,173,150,50,134.87,318,-104.00,121.00,-926.00
2024-06-07 11:15:03.417668,-6,-5,12,0,0,-2,80,82,175,150,50,134.83,318,-139.00,89.00,-996.00
2024-06-07 11:15:03.519835,-6,-5,12,0,0,-2,80,82,178,160,50,134.86,318,-82.00,54.00,-909.00
2024-06-07 11:15:03.570575,-6,-5,12,0,0,-1,80,82,176,160,50,134.80,318,-117.00,78.00,-955.00
2024-06-07 11:15:03.757378,-6,-5,12,0,0,-1,80,82,177,160,50,134.79,318,-102.00,81.00,-927.00
2024-06-07 11:15:03.774583,-6,-5,12,0,0,-1,80,82,183,160,50,134.86,318,-113.00,51.00,-935.00
2024-06-07 11:15:03.961637,-6,-5,12,0,0,0,80,82,181,160,50,134.98,318,-161.00,50.00,-961.00
2024-06-07 11:15:04.029649,-6,-5,12,0,0,0,79,81,182,160,50,134.93,319,-172.00,90.00,-973.00
2024-06-07 11:15:04.081401,-7,-5,12,-1,0,0,79,81,181,160,50,134.82,319,-188.00,54.00,-990.00
2024-06-07 11:15:04.182827,-7,-4,12,-1,0,0,79,81,183,160,50,134.78,319,-194.00,74.00,-1011.00
2024-06-07 11:15:04.371331,-7,-3,12,-2,0,0,79,81,183,160,50,134.73,319,-159.00,127.00,-1050.00
2024-06-07 11:15:04.386424,-7,-3,12,-2,0,0,79,81,182,160,50,135.03,319,-154.00,118.00,-945.00
2024-06-07 11:15:04.575962,-9,-3,12,-2,0,0,79,81,183,170,50,135.00,319,-113.00,121.00,-937.00
2024-06-07 11:15:04.590487,-9,-3,12,-2,0,1,79,81,179,160,50,134.87,319,-126.00,101.00,-972.00
2024-06-07 11:15:04.781232,-8,-4,12,-2,1,1,79,81,180,160,50,135.01,319,-147.00,102.00,-985.00
2024-06-07 11:15:04.794522,-7,-4,12,-2,1,0,79,81,179,160,50,135.01,319,-147.00,101.00,-995.00
2024-06-07 11:15:04.896604,-7,-4,12,-2,1,0,79,81,177,160,50,134.86,319,-146.00,93.00,-922.00
2024-06-07 11:15:05.088464,-7,-4,12,-3,1,0,80,82,177,160,50,134.93,320,-148.00,120.00,-1027.00
2024-06-07 11:15:05.100525,-7,-4,12,-3,1,0,80,82,176,160,50,134.77,320,-116.00,74.00,-1035.00
2024-06-07 11:15:05.202756,-8,-5,12,-3,1,0,80,82,177,160,50,134.77,320,-83.00,80.00,-964.00
2024-06-07 11:15:05.305915,-8,-5,12,-2,1,0,80,82,178,160,50,134.68,320,-121.00,89.00,-995.00
2024-06-07 11:15:05.411224,-7,-5,12,-1,1,0,80,82,176,160,50,134.66,320,-93.00,49.00,-1050.00
2024-06-07 11:15:05.508273,-7,-5,12,-1,1,0,80,82,176,160,50,134.77,320,-86.00,57.00,-1048.00
2024-06-07 11:15:05.702134,-7,-5,12,0,0,0,80,82,175,160,50,134.69,320,-59.00,50.00,-1061.00
2024-06-07 11:15:05.712317,-7,-5,12,0,0,0,80,82,174,160,50,134.71,320,-78.00,79.00,-1003.00
2024-06-07 11:15:05.815149,-7,-5,12,0,0,0,80,82,173,160,50,134.76,320,-70.00,67.00,-925.00
2024-06-07 11:15:06.009322,-7,-5,12,0,0,0,80,82,174,160,50,134.59,320,-109.00,60.00,-983.00
2024-06-07 11:15:06.020177,-7,-4,12,0,0,1,79,81,171,160,50,134.68,321,-71.00,58.00,-938.00
2024-06-07 11:15:06.120307,-7,-5,12,0,0,2,79,81,169,160,50,134.68,321,-105.00,64.00,-912.00
2024-06-07 11:15:06.222316,-7,-5,12,0,0,2,79,81,169,150,50,134.59,321,-118.00,73.00,-1001.00
2024-06-07 11:15:06.419051,-7,-5,12,0,0,2,79,81,163,150,50,134.61,321,-133.00,60.00,-1010.00
2024-06-07 11:15:06.428180,-7,-4,12,0,0,3,79,81,162,150,50,134.56,321,-117.00,41.00,-990.00
2024-06-07 11:15:06.623729,-7,-4,12,0,0,3,79,81,159,140,50,134.57,321,-117.00,83.00,-909.00
2024-06-07 11:15:06.631319,-7,-4,12,0,0,3,79,81,155,140,50,134.46,321,-115.00,56.00,-969.00
2024-06-07 11:15:06.828745,-6,-4,12,0,0,2,79,81,151,140,50,134.37,321,-129.00,63.00,-1053.00
2024-06-07 11:15:06.835354,-6,-4,12,0,0,1,79,81,149,140,50,134.31,321,-136.00,89.00,-1052.00
2024-06-07 11:15:07.033360,-6,-4,12,0,0,1,79,81,147,130,50,134.39,322,-179.00,90.00,-999.00
2024-06-07 11:15:07.039379,-7,-5,12,0,0,1,80,82,148,130,50,134.37,322,-158.00,27.00,-911.00
2024-06-07 11:15:07.141708,-7,-4,12,-1,0,1,80,82,144,130,50,134.44,322,-162.00,53.00,-977.00
2024-06-07 11:15:07.340472,-7,-4,12,-1,0,1,80,82,145,130,50,134.20,322,-176.00,66.00,-1116.00
2024-06-07 11:15:07.345339,-8,-3,12,-1,0,0,80,82,143,130,50,134.40,322,-189.00,105.00,-943.00
2024-06-07 11:15:07.545299,-8,-3,12,-2,0,1,80,82,142,130,50,134.55,322,-136.00,99.00,-926.00
2024-06-07 11:15:07.549307,-8,-3,12,-2,0,1,80,82,141,130,50,134.52,322,-128.00,110.00,-960.00
2024-06-07 11:15:07.750098,-7,-4,12,-2,0,1,80,82,138,130,50,134.24,322,-162.00,41.00,-1027.00
2024-06-07 11:15:07.753227,-7,-4,12,-2,0,0,80,82,138,120,50,134.29,322,-165.00,74.00,-979.00
2024-06-07 11:15:07.855630,-8,-4,12,-2,0,1,80,82,137,120,50,134.33,322,-168.00,98.00,-997.00
2024-06-07 11:15:07.906276,-8,-3,12,-3,0,1,80,82,135,120,50,134.38,323,-146.00,99.00,-971.00
2024-06-07 11:15:08.059424,-8,-4,12,-3,0,1,79,82,134,120,50,134.30,323,-116.00,84.00,-1013.00
2024-06-07 11:15:08.110358,-8,-4,12,-3,1,1,79,82,133,120,50,134.26,323,-122.00,105.00,-1042.00
2024-06-07 11:15:08.212302,-7,-4,12,-3,1,0,79,82,129,120,50,134.19,323,-121.00,78.00,-1037.00
2024-06-07 11:15:08.364733,-7,-4,12,-3,1,1,79,82,128,120,50,134.14,323,-132.00,91.00,-1043.00
2024-06-07 11:15:08.416289,-7,-4,12,-3,1,0,79,82,127,120,50,134.20,323,-121.00,101.00,-1038.00
2024-06-07 11:15:08.569715,-7,-4,12,-3,1,0,79,82,125,120,50,134.16,323,-132.00,86.00,-952.00
2024-06-07 11:15:08.620297,-7,-4,12,-3,1,0,79,82,124,110,50,134.08,323,-80.00,120.00,-950.00
2024-06-07 11:15:08.774252,-8,-4,12,-2,1,1,79,82,122,110,50,134.23,323,-126.00,111.00,-960.00
2024-06-07 11:15:08.824399,-8,-4,12,-2,1,1,79,82,121,110,50,134.20,323,-110.00,75.00,-986.00
2024-06-07 11:15:08.979172,-7,-5,12,-2,1,0,79,82,121,110,50,134.09,324,-93.00,88.00,-1010.00
2024-06-07 11:15:09.028973,-7,-4,12,-2,1,0,79,82,120,110,50,134.28,324,-95.00,59.00,-995.00
2024-06-07 11:15:09.184159,-7,-4,12,-2,2,0,79,82,120,110,50,134.11,324,-126.00,64.00,-1096.00
2024-06-07 11:15:09.235195,-7,-5,12,-2,2,0,79,82,120,110,50,134.17,324,-122.00,86.00,-926.00
2024-06-07 11:15:09.334555,-7,-5,12,-2,2,0,79,82,120,110,50,134.26,324,-127.00,118.00,-957.00
2024-06-07 11:15:09.440722,-7,-5,12,-2,2,0,79,82,119,110,50,134.28,324,-118.00,61.00,-916.00
2024-06-07 11:15:09.538944,-7,-5,12,-2,2,0,79,82,119,110,50,134.26,324,-146.00,88.00,-940.00
2024-06-07 11:15:09.695814,-7,-5,12,-2,1,0,79,82,119,110,50,134.17,324,-127.00,93.00,-936.00
2024-06-07 11:15:09.743057,-7,-5,12,-2,1,0,79,82,119,110,50,134.21,324,-167.00,71.00,-1030.00
2024-06-07 11:15:09.901152,-7,-5,12,-2,1,0,79,82,119,110,50,134.12,324,-135.00,71.00,-941.00
2024-06-07 11:15:09.948512,-7,-4,12,-2,1,0,79,82,118,110,50,134.15,325,-117.00,122.00,-978.00
2024-06-07 11:15:10.048294,-7,-5,12,-2,1,0,80,81,119,110,50,134.20,325,-123.00,94.00,-995.00
2024-06-07 11:15:10.153148,-7,-5,12,-2,2,0,80,81,118,110,50,134.22,325,-90.00,94.00,-984.00
2024-06-07 11:15:10.253733,-7,-5,12,-1,2,0,80,81,118,110,50,134.20,325,-37.00,59.00,-1000.00
2024-06-07 11:15:10.354205,-6,-5,12,-1,2,0,80,81,117,110,50,134.19,325,-116.00,107.00,-969.00
2024-06-07 11:15:10.516841,-6,-6,12,-1,2,0,80,81,118,110,50,134.18,325,-136.00,107.00,-959.00
2024-06-07 11:15:10.562978,-7,-6,12,-1,1,0,80,81,118,110,50,134.18,325,-110.00,76.00,-1015.00
2024-06-07 11:15:10.663628,-7,-5,12,-1,1,0,80,81,118,110,50,134.24,325,-149.00,75.00,-1045.00
2024-06-07 11:15:10.762182,-8,-6,12,-1,1,0,80,81,120,110,50,134.37,325,-157.00,86.00,-981.00
2024-06-07 11:15:10.924569,-9,-4,12,-1,1,0,80,81,120,110,50,134.22,325,-143.00,82.00,-1002.00
2024-06-07 11:15:10.966832,-10,-4,12,0,1,0,80,81,121,110,50,134.18,326,-131.00,63.00,-975.00
2024-06-07 11:15:11.129382,-11,-4,12,0,1,0,79,81,121,110,50,134.24,326,-126.00,39.00,-968.00
2024-06-07 11:15:11.170117,-11,-4,12,0,1,0,79,81,123,110,50,134.32,326,-145.00,49.00,-968.00
2024-06-07 11:15:11.334162,-11,-3,12,0,1,0,79,81,122,110,50,134.24,326,-169.00,82.00,-1018.00
2024-06-07 11:15:11.376154,-12,-3,12,1,1,0,79,81,122,110,50,134.27,326,-169.00,78.00,-987.00
2024-06-07 11:15:11.476619,-12,-4,12,1,2,0,79,81,122,110,50,134.27,326,-176.00,112.00,-930.00
2024-06-07 11:15:11.578124,-13,-5,12,2,2,0,79,81,122,110,50,134.23,326,-142.00,70.00,-929.00
2024-06-07 11:15:11.680167,-13,-5,13,3,2,0,79,81,122,110,50,134.21,326,-134.00,75.00,-996.00
2024-06-07 11:15:11.731329,-13,-8,13,4,2,0,79,81,122,110,50,134.08,326,-142.00,59.00,-970.00
2024-06-07 11:15:11.833520,-12,-8,13,5,1,0,79,81,121,110,50,134.08,326,-133.00,62.00,-991.00
2024-06-07 11:15:11.948643,-8,-6,13,6,1,0,79,81,118,110,50,134.00,327,-102.00,82.00,-1040.00
2024-06-07 11:15:12.088356,-4,-5,12,7,1,0,79,81,119,110,50,133.95,327,-116.00,106.00,-1063.00
2024-06-07 11:15:12.139328,-2,-5,12,6,0,-1,79,81,120,110,50,133.88,327,-156.00,91.00,-1008.00
2024-06-07 11:15:12.257107,-3,-3,12,5,0,-1,79,81,120,110,50,133.98,327,-127.00,101.00,-1012.00
2024-06-07 11:15:12.343456,-4,-3,12,5,0,-1,79,81,122,110,50,134.10,327,-101.00,116.00,-950.00
2024-06-07 11:15:12.460678,-4,-4,12,4,0,0,79,81,124,110,50,134.03,327,-85.00,96.00,-1016.00
2024-06-07 11:15:12.547874,-2,-5,12,4,0,0,79,81,124,110,50,134.12,327,-113.00,46.00,-956.00
2024-06-07 11:15:12.649357,-3,-4,12,3,0,0,79,81,125,110,50,134.25,327,-116.00,60.00,-930.00
2024-06-07 11:15:12.767928,-5,-3,12,3,0,0,79,81,125,110,50,134.22,327,-51.00,62.00,-978.00
2024-06-07 11:15:12.853372,-4,-3,12,3,0,0,79,81,125,110,50,134.20,327,-110.00,132.00,-999.00
2024-06-07 11:15:12.972703,-3,-5,12,3,0,0,79,81,125,110,50,134.24,328,-98.00,61.00,-968.00
2024-06-07 11:15:13.057358,-3,-4,12,2,0,0,78,81,125,110,50,134.45,328,-108.00,112.00,-943.00
2024-06-07 11:15:13.177481,-2,-3,12,3,0,0,78,81,125,110,50,134.41,328,-64.00,28.00,-922.00
2024-06-07 11:15:13.261420,-2,-5,12,2,0,0,78,81,125,110,50,134.33,328,-28.00,94.00,-1094.00
2024-06-07 11:15:13.363244,-2,-5,12,2,1,0,78,81,123,110,50,134.42,328,-111.00,128.00,-1057.00
2024-06-07 11:15:13.485186,-2,-5,12,1,1,0,78,81,125,110,50,134.45,328,-41.00,60.00,-1010.00
2024-06-07 11:15:13.567233,-3,-5,12,1,1,0,78,81,124,110,50,134.41,328,-66.00,83.00,-1012.00
2024-06-07 11:15:13.669851,-3,-7,12,1,1,0,78,81,125,110,50,134.66,328,-85.00,69.00,-1039.00
2024-06-07 11:15:13.791802,-2,-5,12,1,0,0,78,81,125,110,50,134.48,328,-81.00,119.00,-972.00
2024-06-07 11:15:13.873163,3,-5,12,0,0,0,78,81,124,110,50,134.17,328,-84.00,104.00,-1009.00
2024-06-07 11:15:14.002096,5,-6,12,0,0,0,78,81,125,110,50,134.23,329,-55.00,91.00,-1007.00
2024-06-07 11:15:14.077756,5,-6,12,-2,0,0,79,81,125,110,50,134.35,329,-79.00,45.00,-1021.00
2024-06-07 11:15:14.205122,3,-4,12,-4,-1,0,79,81,125,110,50,134.19,329,-88.00,37.00,-928.00
2024-06-07 11:15:14.281333,1,-3,12,-5,-2,0,79,81,124,110,50,134.17,329,-54.00,29.00,-1000.00
2024-06-07 11:15:14.383170,0,-2,12,-6,-2,0,79,81,126,110,50,134.24,329,-40.00,38.00,-1125.00
2024-06-07 11:15:14.513614,-1,-1,12,-6,-3,0,79,81,125,110,50,134.53,329,-37.00,25.00,-951.00
2024-06-07 11:15:14.587349,-1,0,12,-7,-3,0,79,81,124,110,50,134.45,329,11.00,15.00,-969.00
2024-06-07 11:15:14.713460,-2,1,12,-7,-2,0,79,81,126,110,50,134.48,329,12.00,61.00,-961.00
2024-06-07 11:15:14.791277,-4,0,12,-7,-1,0,79,81,125,110,50,134.55,329,-48.00,79.00,-928.00
2024-06-07 11:15:14.893258,-6,-1,12,-6,0,0,79,81,125,110,50,134.44,329,-8.00,55.00,-1003.00
2024-06-07 11:15:15.020665,-6,-3,12,-5,0,0,79,81,126,110,50,134.44,330,-55.00,46.00,-977.00
2024-06-07 11:15:15.097184,-5,-4,12,-5,0,0,79,81,127,110,50,134.40,330,-94.00,83.00,-1046.00
2024-06-07 11:15:15.225465,-5,-4,12,-5,0,0,79,81,127,110,50,134.33,330,-11.00,39.00,-1018.00
2024-06-07 11:15:15.301224,-6,-4,12,-4,0,0,79,81,127,110,50,134.44,330,-62.00,29.00,-955.00
2024-06-07 11:15:15.403305,-6,-4,12,-4,0,0,79,81,128,110,50,134.38,330,-53.00,60.00,-995.00
2024-06-07 11:15:15.505220,-6,-2,12,-3,0,0,79,81,128,110,50,134.39,330,-38.00,57.00,-1004.00
2024-06-07 11:15:15.634946,-5,-3,12,-3,0,0,79,81,127,110,50,134.42,330,-68.00,92.00,-997.00
2024-06-07 11:15:15.709878,-5,-4,12,-3,0,0,79,81,130,110,50,134.38,330,-101.00,69.00,-966.00
2024-06-07 11:15:15.760501,-7,-4,12,-3,0,0,79,81,130,110,50,134.50,330,-101.00,26.00,-959.00
2024-06-07 11:15:15.861872,-7,-4,12,-3,0,0,79,81,131,110,50,134.48,330,-76.00,97.00,-982.00
2024-06-07 11:15:15.964948,-7,-3,12,-3,0,0,79,81,132,110,50,134.30,331,-97.00,26.00,-1002.00
2024-06-07 11:15:16.066029,-7,-4,12,-2,0,0,78,80,131,110,50,134.35,331,-100.00,33.00,-913.00
2024-06-07 11:15:16.168435,-7,-4,12,-2,0,0,78,80,132,110,50,134.42,331,-61.00,73.00,-901.00
2024-06-07 11:15:16.270014,-7,-4,12,-1,0,0,78,80,131,110,50,134.23,331,-75.00,52.00,-1045.00
2024-06-07 11:15:16.371989,-6,-4,12,-1,0,0,78,80,131,110,50,134.41,331,-128.00,54.00,-1066.00
2024-06-07 11:15:16.556832,-6,-4,12,-1,0,0,78,80,129,110,50,134.41,331,-75.00,63.00,-993.00
2024-06-07 11:15:16.575879,-7,-3,12,-1,0,0,78,80,130,110,50,134.43,331,-89.00,80.00,-1018.00
2024-06-07 11:15:16.720246,-8,-4,12,0,0,0,78,80,131,110,50,134.37,331,-37.00,88.00,-944.00
2024-06-07 11:15:16.780192,-7,-5,12,0,0,0,78,80,130,110,50,134.39,331,-82.00,43.00,-1101.00
2024-06-07 11:15:16.966135,-5,-5,12,0,0,0,78,80,129,110,50,134.37,331,-87.00,82.00,-990.00
2024-06-07 11:15:16.983789,-3,-7,12,0,0,0,78,80,130,110,50,134.42,332,-120.00,84.00,-1028.00
2024-06-07 11:15:17.170956,-3,-8,12,0,0,0,78,80,129,110,50,134.45,332,-100.00,56.00,-1046.00
2024-06-07 11:15:17.187751,-3,-7,12,0,-1,0,78,80,127,110,50,134.38,332,-83.00,76.00,-998.00
2024-06-07 11:15:17.375693,-4,-7,12,0,-1,0,78,80,128,110,50,134.44,332,-66.00,86.00,-979.00
2024-06-07 11:15:17.392491,-5,-7,12,0,-2,0,78,80,128,110,50,134.41,332,-34.00,51.00,-963.00
2024-06-07 11:15:17.493778,-6,-6,12,0,-2,0,78,80,126,110,50,134.43,332,-93.00,95.00,-1021.00
2024-06-07 11:15:17.683164,-6,-5,12,0,-2,0,78,80,126,110,50,134.37,332,-102.00,103.00,-1020.00
2024-06-07 11:15:17.697587,-5,-4,12,0,-2,0,78,80,124,110,50,134.26,332,-99.00,73.00,-992.00
2024-06-07 11:15:17.799799,-5,-4,12,0,-2,0,78,80,123,110,50,134.31,332,-97.00,84.00,-1002.00
2024-06-07 11:15:17.990048,-5,-4,12,0,-2,0,78,80,121,110,49,134.49,332,-64.00,83.00,-945.00
2024-06-07 11:15:18.003803,-5,-5,12,0,-2,0,78,80,121,110,49,134.42,333,-106.00,101.00,-1032.00
2024-06-07 11:15:18.106462,-4,-5,12,1,-2,0,78,80,121,110,49,134.36,333,-101.00,111.00,-990.00
2024-06-07 11:15:18.207672,-4,-5,12,1,-2,0,78,80,119,110,49,134.33,333,-74.00,76.00,-1043.00
2024-06-07 11:15:18.399670,-4,-5,12,1,-2,0,78,80,121,110,49,134.28,333,-23.00,66.00,-1004.00
2024-06-07 11:15:18.411764,-4,-4,12,1,-2,0,78,80,119,110,49,134.36,333,-97.00,99.00,-966.00
2024-06-07 11:15:18.604459,-2,-3,12,1,-3,0,78,80,120,110,49,134.26,333,-93.00,86.00,-1023.00
2024-06-07 11:15:18.615566,-2,-3,12,0,-2,0,78,80,121,110,49,134.23,333,-126.00,99.00,-987.00
2024-06-07 11:15:18.809977,-3,-3,12,0,-2,0,78,80,121,110,49,134.31,333,-110.00,96.00,-1021.00
2024-06-07 11:15:18.819577,-5,-3,12,0,-2,0,78,80,123,110,49,134.17,333,-110.00,58.00,-1014.00
2024-06-07 11:15:19.014089,-6,-1,12,0,-2,0,78,80,123,110,49,134.33,333,-93.00,89.00,-975.00
2024-06-07 11:15:19.023837,-6,1,12,0,-2,0,78,80,123,110,49,134.35,334,-121.00,80.00,-974.00
2024-06-07 11:15:19.125793,-6,0,12,0,-1,0,78,80,125,110,49,134.33,334,-96.00,95.00,-1057.00
2024-06-07 11:15:19.321408,-5,-1,12,0,0,0,78,80,125,110,49,134.43,334,-76.00,80.00,-983.00
2024-06-07 11:15:19.329753,-5,-3,12,0,0,0,78,80,125,110,49,134.28,334,-134.00,58.00,-1014.00
2024-06-07 11:15:19.526221,-5,-3,12,0,0,0,78,80,126,110,49,134.30,334,-124.00,77.00,-1011.00
2024-06-07 11:15:19.533685,-5,-3,12,0,0,0,78,80,127,110,49,134.36,334,-110.00,63.00,-1047.00
2024-06-07 11:15:19.584909,-5,-3,12,0,0,0,78,80,125,110,49,134.30,334,-79.00,55.00,-950.00
2024-06-07 11:15:19.731014,-5,-3,12,0,0,0,78,80,126,110,49,134.34,334,-89.00,84.00,-1003.00
2024-06-07 11:15:19.789062,-4,-3,12,0,0,0,78,80,128,110,49,134.37,334,-113.00,118.00,-990.00
2024-06-07 11:15:19.935789,-5,-4,12,0,0,0,78,80,128,110,49,134.41,334,-116.00,104.00,-939.00
2024-06-07 11:15:19.992945,-5,-4,12,0,0,0,78,80,127,110,49,134.39,335,-105.00,98.00,-982.00
2024-06-07 11:15:20.140622,-5,-4,12,0,0,0,79,81,126,110,49,134.31,335,-66.00,81.00,-967.00
2024-06-07 11:15:20.196916,-5,-5,12,0,0,0,79,81,127,110,49,134.29,335,-101.00,68.00,-1016.00
2024-06-07 11:15:20.345393,-5,-6,12,0,0,0,79,81,125,110,49,134.28,335,-82.00,50.00,-987.00
2024-06-07 11:15:20.400863,-5,-4,12,0,0,0,79,81,125,110,49,134.31,335,-86.00,107.00,-1019.00
2024-06-07 11:15:20.550364,-5,-4,12,0,0,0,79,81,125,110,49,134.34,335,-78.00,57.00,-1019.00
2024-06-07 11:15:20.604847,-5,-4,12,0,0,0,79,81,125,110,49,134.30,335,-80.00,67.00,-1012.00
2024-06-07 11:15:20.754977,-5,-4,12,0,0,0,79,81,125,110,49,134.29,335,-111.00,78.00,-994.00
2024-06-07 11:15:20.809180,-5,-4,12,0,0,0,79,81,124,110,49,134.38,335,-95.00,68.00,-967.00
2024-06-07 11:15:20.959713,-5,-5,12,0,0,0,79,81,123,110,48,134.32,335,-120.00,77.00,-997.00
2024-06-07 11:15:21.013053,-6,-5,12,0,0,0,79,81,124,110,48,134.28,336,-106.00,101.00,-1006.00
2024-06-07 11:15:21.114729,-5,-5,12,0,0,0,79,80,124,110,48,134.32,336,-101.00,89.00,-974.00
2024-06-07 11:15:21.266869,-5,-2,12,0,0,0,79,80,123,110,48,134.21,336,-136.00,67.00,-1118.00
2024-06-07 11:15:21.318873,-5,4,12,0,0,0,79,80,121,110,48,134.28,336,-114.00,91.00,-940.00
2024-06-07 11:15:21.422066,-6,2,12,0,2,0,79,80,122,110,48,134.32,336,-122.00,96.00,-987.00
2024-06-07 11:15:21.574055,-6,0,12,0,3,0,79,80,122,110,48,134.20,336,-112.00,68.00,-936.00
2024-06-07 11:15:21.624530,-6,-2,12,-1,4,0,79,80,120,110,48,134.18,336,-142.00,116.00,-1016.00
2024-06-07 11:15:21.779300,-5,-5,12,-1,4,0,79,80,120,110,48,134.19,336,-102.00,106.00,-1039.00
2024-06-07 11:15:21.828688,-5,-6,12,-1,4,0,79,80,121,110,48,134.30,336,-125.00,124.00,-1072.00
2024-06-07 11:15:21.983809,-5,-6,12,-1,4,0,79,80,122,110,48,134.30,337,-104.00,80.00,-965.00
2024-06-07 11:15:22.032646,-5,-5,12,-1,4,0,79,80,122,110,48,134.12,337,-80.00,61.00,-1032.00
2024-06-07 11:15:22.190027,-6,-6,12,-1,4,0,78,80,123,110,48,134.41,337,-72.00,84.00,-1001.00
2024-06-07 11:15:22.236803,-5,-6,12,-1,4,0,78,80,124,110,48,134.46,337,-113.00,114.00,-939.00
2024-06-07 11:15:22.393175,-4,-7,12,-1,3,0,78,80,122,110,48,134.28,337,-103.00,71.00,-1060.00
2024-06-07 11:15:22.441483,-4,-8,12,-1,3,0,78,80,123,110,48,134.37,337,-125.00,87.00,-1059.00
2024-06-07 11:15:22.598056,-4,-7,12,-1,2,0,78,80,122,110,48,134.37,337,-113.00,66.00,-966.00
2024-06-07 11:15:22.645335,-5,-6,12,-2,1,0,78,80,123,110,48,134.27,337,-123.00,75.00,-989.00
2024-06-07 11:15:22.802863,-7,-5,12,-2,1,0,78,80,123,110,48,134.31,337,-117.00,89.00,-987.00
2024-06-07 11:15:22.850825,-7,-5,12,-1,1,0,78,80,123,110,48,134.33,337,-132.00,121.00,-1026.00
2024-06-07 11:15:22.950711,-7,-5,12,-1,1,0,78,80,123,110,48,134.39,338,-118.00,117.00,-1016.00
2024-06-07 11:15:23.110913,-7,-5,12,-1,1,0,78,80,121,110,48,134.39,338,-122.00,103.00,-1041.00
2024-06-07 11:15:23.154891,-6,-5,12,-1,1,0,77,80,122,110,48,134.25,338,-123.00,104.00,-1016.00
2024-06-07 11:15:23.314888,-6,-5,12,-1,1,0,77,80,122,110,48,134.34,338,-113.00,114.00,-980.00
2024-06-07 11:15:23.358757,-6,-6,12,-1,1,0,77,80,123,110,48,134.35,338,-79.00,108.00,-1051.00
2024-06-07 11:15:23.462533,-6,-7,13,0,1,0,77,80,124,110,48,134.56,338,-71.00,86.00,-902.00
2024-06-07 11:15:23.562639,-5,-8,12,0,1,0,77,80,125,110,48,134.29,338,-144.00,12.00,-976.00
2024-06-07 11:15:23.664594,-6,-7,12,0,0,0,77,80,123,110,48,134.27,338,-47.00,15.00,-970.00
2024-06-07 11:15:23.803339,-6,-5,12,0,0,0,77,80,123,110,48,134.11,338,-113.00,70.00,-922.00
2024-06-07 11:15:23.868949,-6,-4,12,0,0,0,77,80,123,110,48,134.33,338,-81.00,104.00,-1032.00
2024-06-07 11:15:23.919353,-6,-5,12,0,0,0,77,80,123,110,48,134.24,339,-108.00,65.00,-1039.00
2024-06-07 11:15:24.022015,-6,-4,12,1,-1,0,77,80,123,110,48,134.31,339,-105.00,83.00,-1025.00
2024-06-07 11:15:24.174794,-5,-4,12,1,-1,0,78,80,122,110,48,134.39,339,-103.00,93.00,-976.00
2024-06-07 11:15:24.225488,-5,-3,12,1,-1,0,78,80,124,110,48,134.36,339,-87.00,76.00,-1009.00
2024-06-07 11:15:24.344465,-2,-1,12,1,0,0,78,80,122,110,48,134.35,339,-93.00,92.00,-1001.00
2024-06-07 11:15:24.429445,-2,-2,12,0,0,0,78,80,123,110,48,134.28,339,-80.00,86.00,-1017.00
2024-06-07 11:15:24.543623,-4,-3,12,0,0,0,78,80,124,110,48,134.31,339,-119.00,55.00,-1023.00
2024-06-07 11:15:24.633346,-5,-3,12,0,0,0,78,80,125,110,48,134.25,339,-69.00,48.00,-914.00
2024-06-07 11:15:24.748564,-5,-3,12,0,0,0,78,80,126,110,48,134.26,339,-89.00,20.00,-984.00
2024-06-07 11:15:24.837651,-4,-2,12,0,-1,0,78,80,126,110,48,134.18,339,-89.00,30.00,-1043.00
2024-06-07 11:15:24.953387,-4,-1,12,0,-1,0,78,80,124,110,48,134.31,340,-125.00,23.00,-1019.00
2024-06-07 11:15:25.041555,-5,0,12,0,-1,0,78,80,125,110,48,134.29,340,-95.00,43.00,-1044.00
2024-06-07 11:15:25.162038,-5,0,12,0,0,0,78,80,125,110,48,134.18,340,-105.00,16.00,-1021.00
2024-06-07 11:15:25.245478,-5,0,12,0,0,0,78,80,126,110,48,134.12,340,-90.00,13.00,-966.00
2024-06-07 11:15:25.363298,-6,0,12,0,0,0,78,80,126,110,48,134.16,340,-75.00,-22.00,-993.00
2024-06-07 11:15:25.449445,-5,0,12,0,0,0,78,80,126,110,48,134.27,340,-77.00,10.00,-955.00
2024-06-07 11:15:25.569428,-5,1,12,0,0,0,78,80,126,110,48,134.35,340,-100.00,72.00,-905.00
2024-06-07 11:15:25.653434,-5,0,12,0,0,0,78,80,126,110,48,134.37,340,-78.00,42.00,-949.00
2024-06-07 11:15:25.755422,-5,0,12,0,0,0,78,80,126,110,48,134.37,340,-118.00,41.00,-984.00
2024-06-07 11:15:25.874826,-5,-1,14,0,0,0,78,80,126,110,48,134.41,340,-97.00,62.00,-1013.00
2024-06-07 11:15:25.959272,-5,-3,20,0,0,0,78,80,128,110,47,134.42,341,-109.00,29.00,-1069.00
2024-06-07 11:15:26.079513,-6,-4,26,0,0,0,78,80,127,110,47,134.32,341,-129.00,40.00,-974.00
2024-06-07 11:15:26.163383,-5,-4,32,0,0,0,77,79,127,110,47,134.30,341,-102.00,80.00,-1002.00
2024-06-07 11:15:26.284433,-5,-5,38,-1,0,0,77,79,127,110,47,134.46,341,-138.00,108.00,-982.00
2024-06-07 11:15:26.367263,-5,-6,44,-1,0,0,77,79,128,110,47,134.42,341,-99.00,88.00,-994.00
2024-06-07 11:15:26.489242,-5,-7,50,-1,0,0,77,79,127,110,47,134.47,341,-82.00,99.00,-974.00
2024-06-07 11:15:26.571391,-4,-7,56,0,0,0,77,79,127,110,47,134.53,341,-67.00,151.00,-1021.00
2024-06-07 11:15:26.694013,-3,-8,62,0,0,0,77,79,125,110,47,134.44,341,-86.00,130.00,-972.00
2024-06-07 11:15:26.775293,-3,-8,68,0,0,0,77,79,125,110,47,134.53,341,-77.00,127.00,-982.00
2024-06-07 11:15:26.877291,-3,-8,74,0,0,0,77,79,123,110,47,134.76,341,-62.00,120.00,-957.00
2024-06-07 11:15:26.979487,-1,-8,80,0,0,0,77,79,122,110,47,134.87,342,31.00,144.00,-996.00
2024-06-07 11:15:27.081265,0,-8,86,0,0,0,77,79,120,110,47,134.79,342,91.00,140.00,-994.00
2024-06-07 11:15:27.206019,1,-8,92,0,1,0,77,80,118,110,47,134.74,342,27.00,155.00,-988.00
2024-06-07 11:15:27.285264,3,-6,98,0,1,0,77,80,117,110,47,134.70,342,80.00,133.00,-1003.00
2024-06-07 11:15:27.410808,5,-5,105,0,1,0,77,80,116,110,47,134.62,342,44.00,106.00,-1046.00
2024-06-07 11:15:27.489331,6,-3,111,0,2,0,77,80,116,110,47,134.50,342,73.00,78.00,-1014.00
2024-06-07 11:15:27.615612,7,-2,118,0,2,0,77,80,117,110,47,134.55,342,73.00,67.00,-981.00
2024-06-07 11:15:27.693265,8,-1,124,0,1,0,77,80,117,110,47,134.09,342,134.00,62.00,-1050.00
2024-06-07 11:15:27.744433,8,0,131,0,1,0,77,80,117,110,47,134.04,342,157.00,50.00,-1015.00
2024-06-07 11:15:27.922810,8,0,137,0,1,0,77,80,118,110,47,134.18,342,145.00,45.00,-933.00
2024-06-07 11:15:27.948450,8,1,144,0,1,0,77,80,118,110,47,134.15,343,165.00,47.00,-972.00
2024-06-07 11:15:28.127605,7,3,150,0,1,0,77,80,118,110,47,133.95,343,120.00,19.00,-944.00
2024-06-07 11:15:28.203243,7,4,157,0,0,0,78,80,118,110,47,134.20,343,187.00,-23.00,-972.00
2024-06-07 11:15:28.332327,7,2,163,0,0,0,78,80,119,110,47,134.31,343,141.00,-49.00,-1043.00
2024-06-07 11:15:28.356376,6,3,169,0,0,0,78,80,118,110,47,134.29,343,153.00,-61.00,-998.00
2024-06-07 11:15:28.458358,6,3,175,0,0,0,78,80,119,110,47,134.37,343,110.00,-70.00,-1019.00
2024-06-07 11:15:28.639478,5,5,-178,0,0,0,78,80,118,110,47,134.35,343,153.00,-85.00,-1068.00
2024-06-07 11:15:28.662368,5,5,-172,0,0,0,78,80,120,110,47,134.36,343,124.00,-64.00,-1009.00
2024-06-07 11:15:28.844409,5,5,-166,0,0,0,78,80,122,110,47,134.38,343,67.00,-50.00,-989.00
2024-06-07 11:15:28.866352,5,5,-160,0,0,0,78,80,122,110,47,134.39,343,129.00,-75.00,-991.00
2024-06-07 11:15:29.049208,5,4,-155,0,0,0,78,80,123,110,47,134.47,344,133.00,-111.00,-1011.00
2024-06-07 11:15:29.070380,5,5,-149,0,0,0,78,80,122,110,47,134.40,344,91.00,-115.00,-974.00
2024-06-07 11:15:29.253987,4,6,-143,0,0,0,78,81,124,110,47,134.42,344,51.00,-106.00,-1009.00
2024-06-07 11:15:29.274567,3,7,-137,0,0,0,78,81,124,110,47,134.38,344,92.00,-129.00,-927.00
2024-06-07 11:15:29.458826,3,7,-132,0,0,0,78,81,124,110,47,134.49,344,83.00,-124.00,-957.00
2024-06-07 11:15:29.478421,2,7,-126,0,0,0,78,81,125,110,47,134.62,344,28.00,-155.00,-947.00
2024-06-07 11:15:29.663515,2,8,-120,0,0,0,78,81,126,110,47,134.58,344,11.00,-133.00,-912.00
2024-06-07 11:15:29.682713,1,8,-114,0,0,0,78,81,123,110,47,134.62,344,31.00,-176.00,-1011.00
2024-06-07 11:15:29.868418,0,8,-108,0,0,0,78,81,124,110,47,134.58,344,-67.00,-156.00,-974.00
2024-06-07 11:15:29.886201,-1,8,-102,0,0,0,78,81,124,110,46,134.50,344,1.00,-141.00,-1041.00
2024-06-07 11:15:30.073206,-2,8,-96,0,0,0,78,81,122,110,46,134.65,345,-66.00,-139.00,-1040.00
2024-06-07 11:15:30.090291,-3,7,-90,0,0,0,78,81,123,110,46,134.60,345,-77.00,-136.00,-958.00
2024-06-07 11:15:30.192279,-4,7,-84,0,0,0,78,80,122,110,46,134.56,345,-44.00,-121.00,-1081.00
2024-06-07 11:15:30.380450,-4,7,-78,0,0,0,78,80,122,110,46,134.55,345,-92.00,-121.00,-1032.00
2024-06-07 11:15:30.397562,-6,6,-71,0,0,0,78,80,123,110,46,134.44,345,-57.00,-137.00,-1016.00
2024-06-07 11:15:30.500710,-6,5,-65,0,0,0,78,80,121,110,46,134.40,345,-133.00,-71.00,-1021.00
2024-06-07 11:15:30.602410,-7,4,-58,0,0,0,78,80,122,110,46,134.38,345,-165.00,-66.00,-996.00
2024-06-07 11:15:30.702459,-8,3,-52,0,0,0,78,80,120,110,46,134.26,345,-160.00,-73.00,-1010.00
2024-06-07 11:15:30.804298,-8,2,-46,0,0,0,78,80,120,110,46,134.20,345,-162.00,-40.00,-916.00
2024-06-07 11:15:30.994720,-8,1,-39,0,0,0,78,80,120,110,46,134.12,345,-159.00,-39.00,-938.00
2024-06-07 11:15:31.008441,-8,0,-33,-1,0,0,78,80,120,110,46,134.01,346,-162.00,-25.00,-1037.00
2024-06-07 11:15:31.199495,-8,0,-26,-1,0,0,78,80,120,110,46,134.14,346,-165.00,11.00,-929.00
2024-06-07 11:15:31.212329,-8,0,-20,-1,0,0,77,81,121,110,46,134.21,346,-187.00,-4.00,-948.00
2024-06-07 11:15:31.404457,-8,-1,-14,-1,0,0,77,81,121,110,46,134.20,346,-171.00,67.00,-974.00
2024-06-07 11:15:31.416491,-8,-2,-9,-1,0,0,77,81,122,110,46,134.19,346,-191.00,75.00,-976.00
2024-06-07 11:15:31.518289,-8,-3,-4,-1,0,0,77,81,121,110,46,134.21,346,-179.00,79.00,-961.00
2024-06-07 11:15:31.569053,-8,-3,0,-1,1,0,77,81,122,110,46,134.27,346,-170.00,77.00,-987.00
2024-06-07 11:15:31.711592,-7,-4,2,-1,0,0,77,81,123,110,46,134.23,346,-140.00,63.00,-941.00
2024-06-07 11:15:31.772998,-7,-4,4,-2,0,0,77,81,123,110,46,134.17,346,-138.00,65.00,-935.00
2024-06-07 11:15:31.916357,-7,-4,5,-2,0,0,77,81,121,110,46,134.14,346,-165.00,72.00,-978.00
2024-06-07 11:15:31.977016,-7,-4,7,-2,0,0,77,81,122,110,46,134.17,347,-150.00,97.00,-1017.00
2024-06-07 11:15:32.121180,-7,-4,8,-1,0,0,77,81,123,110,46,134.33,347,-160.00,101.00,-978.00
2024-06-07 11:15:32.181638,-8,-4,8,-2,0,0,79,80,123,110,46,134.46,347,-141.00,79.00,-905.00
2024-06-07 11:15:32.325992,-7,-4,9,-2,1,0,79,80,121,110,46,134.32,347,-155.00,113.00,-975.00
2024-06-07 11:15:32.385366,-7,-4,9,-2,1,0,79,80,120,110,46,134.28,347,-115.00,82.00,-995.00
2024-06-07 11:15:32.530747,-7,-5,9,-2,1,0,79,80,120,110,46,134.26,347,-145.00,49.00,-980.00
2024-06-07 11:15:32.589223,-7,-5,10,-2,0,0,79,80,119,110,46,134.13,347,-129.00,84.00,-1020.00
2024-06-07 11:15:32.735735,-7,-5,10,-1,0,0,79,80,118,110,46,134.16,347,-130.00,76.00,-1039.00
2024-06-07 11:15:32.793072,-7,-4,10,-1,0,0,79,80,118,110,46,134.22,347,-75.00,109.00,-966.00
2024-06-07 11:15:32.940540,-7,-5,10,-1,0,0,79,80,119,110,46,134.24,347,-114.00,73.00,-991.00
2024-06-07 11:15:32.997043,-7,-5,10,-1,0,0,79,80,118,110,46,134.13,348,-123.00,57.00,-1018.00
2024-06-07 11:15:33.145391,-7,-5,10,-1,0,0,79,80,118,110,46,134.13,348,-78.00,69.00,-994.00
2024-06-07 11:15:33.201087,-7,-4,10,-1,0,0,78,81,119,110,46,134.23,348,-125.00,74.00,-995.00
2024-06-07 11:15:33.350166,-7,-5,10,-1,0,0,78,81,120,110,46,134.24,348,-159.00,90.00,-953.00
2024-06-07 11:15:33.405335,-7,-5,10,-1,0,0,78,81,121,110,46,134.21,348,-147.00,40.00,-972.00
2024-06-07 11:15:33.554876,-7,-4,10,-1,0,0,78,81,121,110,46,134.25,348,-123.00,93.00,-1002.00
2024-06-07 11:15:33.608958,-7,-4,10,0,0,0,78,81,122,110,46,134.30,348,-112.00,72.00,-1028.00
2024-06-07 11:15:33.759592,-7,-4,10,0,0,0,78,81,122,110,46,134.23,348,-134.00,69.00,-950.00
2024-06-07 11:15:33.813054,-7,-4,10,0,0,0,78,81,121,110,46,134.18,348,-131.00,68.00,-1006.00
2024-06-07 11:15:33.964391,-7,-4,10,0,0,0,78,81,121,110,45,134.20,348,-142.00,81.00,-947.00
2024-06-07 11:15:34.017253,-7,-4,10,0,0,0,78,81,122,110,45,134.19,349,-158.00,93.00,-1094.00
2024-06-07 11:15:34.169292,-7,-4,10,0,0,0,78,81,121,110,45,134.14,349,-120.00,101.00,-1017.00
2024-06-07 11:15:34.221109,-7,-4,10,0,0,0,78,81,122,110,45,134.18,349,-131.00,71.00,-934.00
2024-06-07 11:15:34.374039,-7,-4,10,0,0,0,78,81,120,110,45,134.19,349,-149.00,84.00,-978.00
2024-06-07 11:15:34.425183,-7,-5,10,0,0,0,78,81,120,110,45,134.20,349,-115.00,88.00,-911.00
2024-06-07 11:15:34.584161,-7,-5,10,0,0,0,78,81,120,110,45,134.06,349,-99.00,85.00,-978.00
2024-06-07 11:15:34.628870,-7,-4,10,0,0,0,78,81,120,110,45,134.21,349,-151.00,68.00,-963.00
2024-06-07 11:15:34.783484,-7,-5,10,0,0,0,78,81,119,110,45,134.15,349,-144.00,87.00,-983.00
2024-06-07 11:15:34.832871,-8,-4,7,0,0,0,78,81,119,110,45,134.21,349,-186.00,90.00,-1079.00
2024-06-07 11:15:34.988334,-9,-4,1,0,0,0,78,81,119,110,45,134.12,349,-162.00,65.00,-1006.00
2024-06-07 11:15:35.036807,-9,-3,-4,0,0,0,78,81,120,110,45,134.06,350,-180.00,81.00,-1017.00
2024-06-07 11:15:35.193132,-10,-3,-10,0,0,0,78,81,121,110,45,134.11,350,-163.00,55.00,-1003.00
2024-06-07 11:15:35.240831,-12,-1,-22,0,0,0,79,80,120,110,45,133.90,350,-167.00,-22.00,-962.00
2024-06-07 11:15:35.397930,-12,0,-27,0,0,0,79,80,123,110,45,134.25,350,-201.00,-9.00,-978.00
2024-06-07 11:15:35.444865,-12,1,-33,0,0,0,79,80,123,110,45,134.17,350,-199.00,0.00,-949.00
2024-06-07 11:15:35.602739,-12,3,-39,0,0,0,79,80,123,110,45,134.14,350,-175.00,-48.00,-1089.00
2024-06-07 11:15:35.650370,-13,5,-44,1,-1,0,79,80,125,110,45,134.25,350,-194.00,-16.00,-935.00
2024-06-07 11:15:35.700211,-13,6,-47,1,-1,0,79,80,125,110,45,134.22,350,-185.00,-80.00,-991.00
2024-06-07 11:15:35.807456,-11,5,-47,2,-1,0,79,80,125,110,45,134.16,350,-181.00,-74.00,-1032.00
2024-06-07 11:15:35.904249,-9,5,-47,2,-1,0,79,80,123,110,45,134.13,351,-123.00,-98.00,-1027.00
2024-06-07 11:15:36.012483,-8,4,-47,2,-1,0,79,80,123,110,45,134.09,351,-177.00,-46.00,-1003.00
2024-06-07 11:15:36.108491,-7,4,-47,2,-1,0,79,80,123,110,45,134.01,351,-153.00,-71.00,-971.00
2024-06-07 11:15:36.212205,-7,3,-47,2,0,0,78,80,123,110,45,133.96,351,-174.00,-88.00,-1039.00
2024-06-07 11:15:36.312813,-8,3,-47,2,0,0,78,80,125,110,45,134.00,351,-146.00,-68.00,-975.00
2024-06-07 11:15:36.414323,-8,3,-47,2,0,0,78,80,124,110,45,134.05,351,-164.00,-60.00,-952.00
2024-06-07 11:15:36.524442,-8,3,-47,2,0,0,78,80,124,110,45,133.93,351,-170.00,-63.00,-946.00
2024-06-07 11:15:36.618064,-9,2,-47,1,0,0,78,80,125,110,45,133.98,351,-178.00,-77.00,-1026.00
2024-06-07 11:15:36.720257,-9,2,-47,1,0,0,78,80,126,110,45,133.93,351,-188.00,-58.00,-1068.00
2024-06-07 11:15:36.822312,-9,2,-46,1,0,0,78,80,124,110,45,133.90,351,-168.00,-66.00,-992.00
2024-06-07 11:15:36.924050,-9,2,-47,1,0,0,78,80,125,110,45,133.94,352,-200.00,-57.00,-943.00
2024-06-07 11:15:37.036430,-9,2,-47,1,0,0,78,80,125,110,45,133.96,352,-130.00,-91.00,-1000.00
2024-06-07 11:15:37.128270,-9,2,-47,0,0,0,78,80,126,110,45,133.87,352,-203.00,-59.00,-990.00
2024-06-07 11:15:37.241801,-10,2,-47,0,0,0,77,80,125,110,45,134.09,352,-196.00,-67.00,-966.00
2024-06-07 11:15:37.332075,-12,2,-47,0,0,0,77,80,125,110,45,134.35,352,-210.00,-50.00,-856.00
2024-06-07 11:15:37.464247,-11,3,-47,0,0,1,77,80,124,110,45,134.19,352,-232.00,-34.00,-916.00
2024-06-07 11:15:37.536229,-10,4,-47,0,-1,1,77,80,124,110,45,134.12,352,-170.00,-79.00,-984.00
2024-06-07 11:15:37.650743,-8,5,-47,0,-1,0,77,80,122,110,45,134.16,352,-163.00,-67.00,-1018.00
2024-06-07 11:15:37.745100,-7,5,-47,0,-1,0,77,80,122,110,45,134.07,352,-194.00,-81.00,-1067.00
2024-06-07 11:15:37.842070,-7,4,-47,0,0,0,77,80,122,110,45,134.04,352,-171.00,-73.00,-1084.00
2024-06-07 11:15:37.958317,-8,4,-47,0,0,0,77,80,122,110,45,134.09,353,-154.00,-28.00,-979.00
2024-06-07 11:15:38.046079,-8,4,-47,0,0,0,77,80,124,110,45,134.04,353,-173.00,-62.00,-999.00
2024-06-07 11:15:38.162863,-9,3,-47,0,0,0,77,80,125,110,45,133.96,353,-164.00,-58.00,-1088.00
2024-06-07 11:15:38.250022,-9,4,-47,0,0,-1,78,80,127,110,45,134.09,353,-182.00,-61.00,-970.00
2024-06-07 11:15:38.367549,-8,4,-47,0,0,0,78,80,127,110,45,134.10,353,-153.00,-84.00,-921.00
2024-06-07 11:15:38.454258,-8,4,-47,0,0,0,78,80,130,110,45,134.09,353,-145.00,-100.00,-941.00
2024-06-07 11:15:38.572366,-7,5,-47,0,0,0,78,80,129,110,45,134.12,353,-147.00,-109.00,-898.00
2024-06-07 11:15:38.657964,-7,5,-47,0,0,0,78,80,129,110,45,133.97,353,-161.00,-72.00,-987.00
2024-06-07 11:15:38.759967,-8,4,-47,0,0,0,78,80,129,110,45,133.93,353,-187.00,-31.00,-964.00
2024-06-07 11:15:38.861910,-9,3,-47,0,0,0,78,80,129,110,45,134.16,353,-176.00,-63.00,-908.00
2024-06-07 11:15:38.982032,-10,3,-47,0,1,0,78,80,128,110,45,134.10,354,-167.00,-70.00,-969.00
2024-06-07 11:15:39.065940,-11,3,-47,0,0,0,78,80,127,110,45,134.17,354,-199.00,-74.00,-1010.00
2024-06-07 11:15:39.167956,-10,4,-47,0,0,0,78,80,125,110,45,133.96,354,-240.00,-45.00,-984.00
2024-06-07 11:15:39.289233,-11,3,-47,0,0,0,79,80,127,110,45,134.22,354,-188.00,-58.00,-888.00
2024-06-07 11:15:39.372203,-11,4,-47,0,0,0,79,80,124,110,45,134.24,354,-181.00,-104.00,-951.00
2024-06-07 11:15:39.474280,-10,4,-47,0,0,0,79,80,123,110,45,134.12,354,-205.00,-87.00,-1028.00
2024-06-07 11:15:39.524618,-10,5,-47,0,0,0,79,80,122,110,45,134.08,354,-166.00,-96.00,-959.00
2024-06-07 11:15:39.698863,-9,5,-47,0,0,0,79,80,122,110,45,133.94,354,-197.00,-62.00,-996.00
2024-06-07 11:15:39.728589,-9,4,-47,0,0,0,79,80,121,110,45,134.03,354,-179.00,-75.00,-1040.00
2024-06-07 11:15:39.903512,-10,4,-47,0,0,0,79,80,121,110,45,134.03,354,-210.00,-69.00,-992.00
2024-06-07 11:15:39.932664,-10,3,-47,0,0,0,79,80,120,110,44,134.15,355,-182.00,-87.00,-1025.00
2024-06-07 11:15:40.108357,-9,4,-47,0,0,0,79,80,119,110,44,134.08,355,-154.00,-102.00,-977.00
2024-06-07 11:15:40.136726,-9,4,-47,0,0,0,79,80,118,110,44,134.10,355,-196.00,-73.00,-1019.00
2024-06-07 11:15:40.319664,-9,4,-47,0,0,0,78,80,118,110,44,134.12,355,-164.00,-95.00,-1006.00
2024-06-07 11:15:40.340512,-9,4,-47,0,0,0,78,80,118,110,44,134.22,355,-195.00,-56.00,-984.00
2024-06-07 11:15:40.518165,-10,5,-47,0,0,0,78,80,120,110,44,134.16,355,-204.00,-73.00,-1058.00
2024-06-07 11:15:40.544557,-11,4,-47,0,0,0,78,80,120,110,44,134.23,355,-170.00,-109.00,-1038.00
2024-06-07 11:15:40.693339,-10,5,-47,0,0,0,78,80,120,110,44,134.15,355,-198.00,-60.00,-968.00
2024-06-07 11:15:40.748966,-10,5,-47,0,0,0,78,80,120,110,44,134.02,355,-186.00,-69.00,-1000.00
2024-06-07 11:15:40.928693,-11,4,-47,0,0,0,78,80,122,110,44,134.32,355,-185.00,-93.00,-999.00
2024-06-07 11:15:40.952457,-11,5,-47,0,0,0,78,80,122,110,44,134.17,356,-202.00,-57.00,-902.00
2024-06-07 11:15:41.132465,-12,5,-47,0,0,0,78,80,123,110,44,134.35,356,-183.00,-82.00,-935.00
2024-06-07 11:15:41.156531,-12,4,-47,0,0,0,78,80,123,110,44,134.26,356,-186.00,-92.00,-1054.00
2024-06-07 11:15:41.258872,-11,4,-47,0,0,0,78,80,122,110,44,134.19,356,-185.00,-58.00,-901.00
2024-06-07 11:15:41.439614,-9,5,-47,0,0,0,78,80,123,110,44,134.22,356,-222.00,-44.00,-999.00
2024-06-07 11:15:41.462439,-10,4,-47,0,0,0,78,80,124,110,44,134.03,356,-180.00,-72.00,-1027.00
2024-06-07 11:15:41.644382,-10,4,-47,0,0,0,78,80,124,110,44,134.24,356,-187.00,-62.00,-962.00
2024-06-07 11:15:41.666510,-11,5,-47,0,0,0,78,80,126,110,44,134.13,356,-173.00,-86.00,-935.00
2024-06-07 11:15:41.849283,-10,5,-47,0,0,0,78,80,127,110,44,134.16,356,-179.00,-79.00,-980.00
2024-06-07 11:15:41.870577,-9,4,-47,0,0,0,78,80,126,110,44,133.98,356,-218.00,-72.00,-1006.00
2024-06-07 11:15:41.977092,-8,5,-47,0,0,0,78,80,128,110,44,134.00,357,-209.00,-63.00,-954.00
2024-06-07 11:15:42.074761,-8,5,-47,0,0,0,78,80,127,110,44,134.04,357,-174.00,-54.00,-948.00
2024-06-07 11:15:42.176770,-8,5,-47,0,0,0,78,80,129,110,44,134.21,357,-133.00,-77.00,-943.00
2024-06-07 11:15:42.278601,-9,4,-47,0,0,0,78,80,129,110,44,134.31,357,-167.00,-92.00,-976.00
2024-06-07 11:15:42.386234,-9,4,-47,0,0,0,78,80,130,110,44,134.16,357,-192.00,-65.00,-1041.00
2024-06-07 11:15:42.482674,-9,3,-47,0,0,0,78,80,129,110,44,134.20,357,-95.00,-128.00,-962.00
2024-06-07 11:15:42.668589,-8,5,-47,0,0,0,78,80,129,110,44,134.02,357,-164.00,-58.00,-959.00
2024-06-07 11:15:42.687669,-8,4,-47,0,0,0,78,80,129,110,44,134.22,357,-174.00,-67.00,-1030.00
2024-06-07 11:15:42.874252,-7,3,-47,0,0,0,78,80,126,110,44,134.04,357,-163.00,-89.00,-999.00
2024-06-07 11:15:42.892174,-8,3,-47,0,0,0,78,80,127,110,44,133.94,357,-109.00,-122.00,-1101.00
2024-06-07 11:15:42.992729,-9,4,-47,0,0,0,78,80,127,110,44,134.13,358,-95.00,-149.00,-930.00
2024-06-07 11:15:43.043552,-8,5,-47,0,0,0,78,80,125,110,44,134.02,358,-123.00,-85.00,-882.00
2024-06-07 11:15:43.180305,-7,5,-47,0,0,0,78,80,123,110,44,133.89,358,-183.00,-108.00,-1021.00
2024-06-07 11:15:43.385237,-7,5,-47,0,0,0,78,80,123,110,44,133.97,358,-94.00,-112.00,-956.00
2024-06-07 11:15:43.385423,-6,3,-47,0,0,0,78,80,121,110,44,134.06,358,-127.00,-79.00,-1007.00
2024-06-07 11:15:43.452574,-6,3,-47,0,0,0,78,80,119,110,44,133.89,358,-168.00,-61.00,-984.00
2024-06-07 11:15:43.590409,-6,4,-47,0,0,0,78,80,119,110,44,134.02,358,-89.00,-110.00,-934.00
2024-06-07 11:15:43.656437,-5,4,-47,0,0,0,78,80,118,110,44,133.84,358,-138.00,-72.00,-1126.00
2024-06-07 11:15:43.758418,-5,4,-47,0,0,0,78,80,119,110,44,133.93,358,-116.00,-68.00,-1028.00
2024-06-07 11:15:43.897517,-6,4,-47,0,0,0,78,80,118,110,44,134.09,358,-92.00,-104.00,-1044.00
2024-06-07 11:15:43.962452,-6,4,-47,0,0,0,78,80,120,110,44,133.94,359,-124.00,-102.00,-957.00
2024-06-07 11:15:44.102732,-7,4,-47,0,0,0,78,80,118,110,44,134.09,359,-147.00,-59.00,-915.00
2024-06-07 11:15:44.167241,-7,4,-47,0,0,0,78,80,118,110,44,133.94,359,-109.00,-76.00,-1045.00
2024-06-07 11:15:44.306761,-8,3,-47,0,0,0,78,80,117,110,44,134.01,359,-132.00,-30.00,-954.00
2024-06-07 11:15:44.370592,-8,3,-47,0,0,0,78,80,116,110,44,133.94,359,-83.00,-90.00,-1047.00
2024-06-07 11:15:44.472535,-8,2,-47,0,0,0,78,80,115,100,44,133.98,359,-100.00,-92.00,-1044.00
2024-06-07 11:15:44.614519,-7,2,-47,0,0,0,78,80,113,100,44,133.94,359,-147.00,-60.00,-1078.00
2024-06-07 11:15:44.676421,-7,2,-47,0,0,0,78,80,113,100,44,133.90,359,-123.00,-53.00,-989.00
2024-06-07 11:15:44.778404,-6,2,-47,0,0,0,78,80,113,100,44,134.04,359,-96.00,-86.00,-1034.00
2024-06-07 11:15:44.880558,-5,3,-47,0,0,0,78,80,113,100,44,133.94,359,-76.00,-76.00,-1060.00
2024-06-07 11:15:45.023576,-5,3,-47,0,0,0,78,80,115,100,44,133.84,360,-126.00,-65.00,-1084.00
2024-06-07 11:15:45.084472,-4,3,-47,0,0,0,78,80,116,100,44,133.80,360,-141.00,-5.00,-1032.00
2024-06-07 11:15:45.186459,-5,2,-47,0,0,-1,78,80,118,100,44,133.91,360,-129.00,-51.00,-1010.00
2024-06-07 11:15:45.288398,-6,1,-47,0,0,-1,77,80,119,110,44,134.00,360,-121.00,-26.00,-1046.00
2024-06-07 11:15:45.433226,-6,2,-47,0,0,-1,77,80,121,110,44,133.98,360,-100.00,-75.00,-980.00
2024-06-07 11:15:45.492694,-6,1,-47,0,0,-1,77,80,123,110,44,133.98,360,-87.00,-109.00,-940.00
2024-06-07 11:15:45.637995,-6,2,-47,0,0,0,77,80,123,110,44,134.03,360,-157.00,-11.00,-897.00
2024-06-07 11:15:45.696292,-7,2,-47,0,0,0,77,80,123,110,44,134.05,360,-94.00,-48.00,-1017.00
2024-06-07 11:15:45.843194,-7,2,-47,0,0,0,77,80,122,110,44,134.10,360,-110.00,-46.00,-1060.00
2024-06-07 11:15:45.900635,-7,2,-47,0,0,0,77,80,123,110,44,134.21,360,-132.00,-56.00,-941.00
2024-06-07 11:15:46.047632,-7,2,-47,0,0,0,77,80,123,110,44,134.11,361,-146.00,-29.00,-937.00
2024-06-07 11:15:46.104340,-7,2,-47,0,0,0,77,80,123,110,44,134.12,361,-141.00,-50.00,-909.00
2024-06-07 11:15:46.206264,-7,2,-47,0,0,0,77,80,121,110,44,134.08,361,-85.00,-55.00,-969.00
2024-06-07 11:15:46.354743,-8,2,-47,0,0,0,78,80,119,110,44,134.13,361,-102.00,-46.00,-1067.00
2024-06-07 11:15:46.410332,-8,3,-47,0,0,0,78,80,119,110,44,134.08,361,-92.00,-31.00,-951.00
2024-06-07 11:15:46.513026,-7,2,-47,0,0,0,78,80,118,110,44,133.85,361,-120.00,-19.00,-1064.00
2024-06-07 11:15:46.663718,-6,2,-47,0,0,0,78,80,118,110,44,133.85,361,-126.00,-11.00,-901.00
2024-06-07 11:15:46.716401,-6,1,-47,0,0,0,78,80,118,110,44,134.08,361,-106.00,-36.00,-1018.00
2024-06-07 11:15:46.769131,-6,1,-47,0,0,0,78,80,118,110,44,134.11,361,-92.00,-68.00,-970.00
2024-06-07 11:15:46.969159,-6,1,-47,0,0,0,78,80,117,110,43,133.98,361,-117.00,-46.00,-939.00
2024-06-07 11:15:46.973101,-5,3,-47,0,0,0,78,80,116,110,43,133.78,362,-141.00,2.00,-1066.00
2024-06-07 11:15:47.074272,-4,2,-47,0,0,0,78,80,117,110,43,133.88,362,-96.00,-44.00,-981.00
2024-06-07 11:15:47.176234,-5,1,-47,0,0,0,78,80,117,110,43,134.25,362,-127.00,-70.00,-951.00
2024-06-07 11:15:47.378759,-7,2,-47,0,0,0,77,80,117,110,43,134.22,362,-115.00,-68.00,-967.00
2024-06-07 11:15:47.380254,-6,4,-47,0,-1,0,77,80,116,110,43,134.18,362,-101.00,-66.00,-1021.00
2024-06-07 11:15:47.482274,-5,4,-47,0,0,0,77,80,116,110,43,134.00,362,-118.00,-83.00,-1129.00
2024-06-07 11:15:47.685965,-5,3,-47,0,0,0,77,80,115,100,43,133.89,362,-121.00,-33.00,-1044.00
2024-06-07 11:15:47.686196,-4,4,-47,0,0,0,77,80,115,100,43,133.99,362,-159.00,-55.00,-1027.00
2024-06-07 11:15:47.788288,-5,3,-47,0,0,0,77,80,117,100,43,134.02,362,-181.00,-1.00,-898.00
2024-06-07 11:15:47.890678,-7,2,-47,0,0,0,77,80,118,100,43,133.98,362,-104.00,-48.00,-1036.00
2024-06-07 11:15:47.993321,-6,1,-47,0,0,0,77,80,119,100,43,133.93,363,-101.00,-38.00,-970.00
2024-06-07 11:15:48.095301,-6,2,-47,0,0,0,77,80,120,110,43,134.05,363,-89.00,-32.00,-1022.00
2024-06-07 11:15:48.198394,-6,3,-47,0,0,0,77,80,120,110,43,134.16,363,-64.00,-50.00,-918.00
2024-06-07 11:15:48.298261,-4,2,-47,0,0,0,78,80,120,110,43,134.09,363,-100.00,-52.00,-925.00
2024-06-07 11:15:48.402773,-3,2,-47,0,0,0,78,80,122,110,43,134.18,363,-164.00,-31.00,-948.00
2024-06-07 11:15:48.502068,-3,2,-47,0,0,0,78,80,122,110,43,134.22,363,-118.00,-58.00,-1051.00
2024-06-07 11:15:48.607469,-5,2,-47,0,0,0,78,80,124,110,43,134.14,363,-120.00,-56.00,-1022.00
2024-06-07 11:15:48.706401,-6,2,-47,-1,0,0,78,80,124,110,43,134.24,363,-117.00,-83.00,-1009.00
2024-06-07 11:15:48.812367,-8,3,-47,-1,0,0,78,80,124,110,43,134.20,363,-121.00,-71.00,-927.00
2024-06-07 11:15:48.910249,-8,3,-47,-1,0,0,78,80,124,110,43,134.22,363,-108.00,-79.00,-941.00
2024-06-07 11:15:49.017123,-8,3,-47,-1,0,0,78,80,124,110,43,134.28,364,-135.00,-79.00,-973.00
2024-06-07 11:15:49.114523,-8,4,-47,-1,0,0,78,80,123,110,43,134.24,364,-106.00,-91.00,-967.00
2024-06-07 11:15:49.216414,-7,3,-47,-1,0,0,78,80,123,110,43,134.13,364,-149.00,-49.00,-1029.00
2024-06-07 11:15:49.328913,-8,3,-47,-1,0,0,78,80,121,110,43,134.26,364,-176.00,-24.00,-870.00
2024-06-07 11:15:49.421937,-8,3,-47,-1,1,0,78,80,121,110,43,134.23,364,-95.00,-57.00,-1001.00
2024-06-07 11:15:49.522134,-9,3,-47,-1,1,0,78,80,120,110,43,134.29,364,-73.00,-45.00,-992.00
2024-06-07 11:15:49.631590,-9,2,-47,0,0,1,78,80,117,110,43,134.27,364,-67.00,-94.00,-982.00
2024-06-07 11:15:49.725967,-8,2,-47,0,0,1,78,80,118,110,43,134.32,364,-89.00,-78.00,-1122.00
2024-06-07 11:15:49.828057,-7,3,-47,0,0,0,78,80,118,100,43,134.15,364,-139.00,-47.00,-1008.00
2024-06-07 11:15:49.938608,-7,4,-47,0,0,0,78,80,118,100,43,134.13,364,-132.00,-114.00,-1000.00
2024-06-07 11:15:50.032343,-6,5,-47,0,-1,0,78,80,118,100,43,134.14,365,-113.00,-67.00,-1041.00
2024-06-07 11:15:50.134053,-6,5,-47,0,-1,0,78,80,120,110,43,134.05,365,-128.00,-74.00,-960.00
2024-06-07 11:15:50.237328,-6,5,-47,0,0,-1,78,80,121,110,43,134.14,365,-160.00,-26.00,-887.00
2024-06-07 11:15:50.348234,-7,4,-47,0,0,0,78,80,121,110,43,134.13,365,-136.00,-58.00,-840.00
2024-06-07 11:15:50.440473,-8,4,-47,0,0,1,78,80,121,110,43,134.12,365,-130.00,-40.00,-890.00
2024-06-07 11:15:50.542012,-8,4,-47,0,0,2,78,80,120,110,43,134.35,365,-84.00,-75.00,-912.00
2024-06-07 11:15:50.655434,-7,3,-47,0,0,3,78,80,118,100,43,134.20,365,-110.00,-29.00,-878.00
2024-06-07 11:15:50.745985,-6,4,-47,0,0,4,78,80,114,100,43,134.12,365,-90.00,-45.00,-962.00
2024-06-07 11:15:50.860189,-6,5,-47,0,0,4,78,80,110,100,43,134.02,365,-125.00,-51.00,-783.00
2024-06-07 11:15:50.899288,-5,4,-46,0,0,5,78,80,105,90,43,133.71,366,-92.00,-37.00,-947.00
2024-06-07 11:15:51.001169,-5,3,-46,1,0,6,78,80,99,80,43,133.95,366,-153.00,28.00,-878.00
2024-06-07 11:15:51.167407,-5,1,-46,1,0,6,78,80,92,80,43,133.90,366,-58.00,-62.00,-960.00
2024-06-07 11:15:51.205977,-5,1,-46,0,0,6,78,80,85,70,43,133.88,366,-107.00,-35.00,-1000.00
2024-06-07 11:15:51.372819,-5,1,-47,0,0,6,78,80,78,70,43,133.85,366,-118.00,-38.00,-927.00
2024-06-07 11:15:51.409652,-6,1,-47,0,0,6,78,80,71,60,43,133.76,366,-55.00,-74.00,-1129.00
2024-06-07 11:15:51.511328,-5,2,-47,0,0,6,78,80,64,50,43,133.64,366,-64.00,-76.00,-1077.00
2024-06-07 11:15:51.680789,-5,3,-47,0,0,5,78,80,58,50,43,133.67,366,-72.00,-65.00,-1053.00
2024-06-07 11:15:51.715334,-4,3,-47,0,0,5,78,80,53,40,43,133.53,366,-59.00,-80.00,-1151.00
2024-06-07 11:15:51.817225,-4,2,-47,0,0,4,78,80,48,40,43,133.49,366,-95.00,-73.00,-1073.00
2024-06-07 11:15:51.920390,-5,2,-47,0,0,3,78,80,44,30,42,133.51,367,-117.00,-47.00,-1042.00
2024-06-07 11:15:52.021260,-5,3,-47,0,0,3,78,80,39,30,42,133.42,367,-141.00,-53.00,-956.00
2024-06-07 11:15:52.123513,-7,3,-47,0,0,4,78,80,35,20,42,133.49,367,-99.00,-71.00,-1011.00
2024-06-07 11:15:52.225086,-6,3,-47,0,0,4,78,80,32,20,42,133.34,367,-123.00,-42.00,-1058.00
2024-06-07 11:15:52.327110,-6,2,-47,0,0,3,77,80,27,20,42,133.29,367,-72.00,-91.00,-1033.00
2024-06-07 11:15:52.498631,-6,3,-47,0,0,4,77,80,23,10,42,133.22,367,-131.00,-10.00,-933.00
2024-06-07 11:15:52.531210,-7,2,-47,0,0,4,77,80,18,10,42,133.24,367,-118.00,-42.00,-1008.00
2024-06-07 11:15:52.703360,-7,2,-47,0,0,4,77,80,13,0,42,133.12,367,-140.00,-18.00,-979.00
2024-06-07 11:15:52.735303,-6,2,-47,0,0,4,77,80,10,0,42,132.65,367,-80.00,-51.00,-1034.00
2024-06-07 11:15:52.908165,-6,1,-47,0,0,3,77,80,10,0,42,131.88,367,-61.00,-106.00,-1108.00
2024-06-07 11:15:52.939187,-5,2,-47,0,0,3,77,80,10,0,42,130.91,368,-1.00,-88.00,-994.00
2024-06-07 11:15:53.072199,1,2,-49,0,0,0,77,80,10,0,42,129.83,368,-531.00,6.00,-2642.00
2024-06-07 11:15:53.143101,-2,6,-53,0,0,0,77,80,10,0,42,131.47,368,-30.00,-19.00,-795.00
2024-06-07 11:15:53.276097,-3,1,-58,0,0,0,77,80,10,0,42,131.62,368,-110.00,-157.00,-1071.00
2024-06-07 11:15:53.347110,-1,0,-60,0,0,0,78,80,10,0,42,132.33,368,26.00,-5.00,-1000.00
