TS,pitch,roll,yaw,vgx,vgy,vgz,templ,temph,tof,h,bat,baro,time,agx,agy,agz
2024-05-17 16:09:51.666193,0,0,-4,0,0,0,76,78,10,0,64,190.56,171,3.00,-4.00,-998.00
2024-05-17 16:09:51.818333,0,0,-4,0,0,0,76,78,10,0,64,190.58,171,1.00,-2.00,-1000.00
2024-05-17 16:09:51.870246,0,0,-4,0,0,0,76,78,10,0,64,190.46,171,2.00,-3.00,-997.00
2024-05-17 16:09:52.022928,0,0,-4,0,0,0,76,78,10,0,64,190.52,171,2.00,-2.00,-998.00
2024-05-17 16:09:52.074117,0,0,-4,0,0,0,76,78,10,0,64,190.50,171,1.00,-3.00,-999.00
2024-05-17 16:09:52.227625,0,0,-4,0,0,0,76,79,10,0,64,190.48,171,2.00,-5.00,-998.00
2024-05-17 16:09:52.278133,0,0,-4,0,0,0,76,79,10,0,64,190.54,171,1.00,-3.00,-998.00
2024-05-17 16:09:52.432594,0,0,-4,0,0,0,76,79,10,0,64,190.53,171,2.00,-4.00,-1000.00
2024-05-17 16:09:52.483094,0,0,-4,0,0,0,76,79,10,0,64,190.53,171,3.00,-3.00,-996.00
2024-05-17 16:09:52.637370,0,0,-4,0,0,0,76,79,10,0,64,190.53,171,3.00,-3.00,-998.00
2024-05-17 16:09:52.686116,0,0,-4,0,0,0,76,79,10,0,64,190.52,171,2.00,-3.00,-999.00
2024-05-17 16:09:52.842195,0,0,-4,0,0,0,76,79,10,0,64,190.52,171,3.00,-3.00,-998.00
2024-05-17 16:09:52.890070,0,0,-4,0,0,0,76,79,10,0,64,190.51,171,4.00,-3.00,-999.00
2024-05-17 16:09:53.046973,0,0,-4,0,0,0,76,79,10,0,64,190.49,171,3.00,-2.00,-1000.00
2024-05-17 16:09:53.051083,0,0,-4,0,0,0,76,79,10,0,64,190.50,171,3.00,-3.00,-1001.00
2024-05-17 16:09:53.251705,0,0,-4,0,0,0,77,79,10,0,64,190.54,171,2.00,-3.00,-1003.00
2024-05-17 16:09:53.298045,0,0,-4,0,0,0,77,79,10,0,64,190.48,171,2.00,-3.00,-1001.00
2024-05-17 16:09:53.349065,0,0,-4,0,0,0,77,79,10,0,64,190.51,171,3.00,-3.00,-1001.00
2024-05-17 16:09:53.451378,0,0,-4,0,0,0,77,79,10,0,64,190.49,171,2.00,-4.00,-1000.00
2024-05-17 16:09:53.554737,0,0,-4,0,0,0,77,79,10,0,64,190.50,171,4.00,-3.00,-998.00
2024-05-17 16:09:53.655874,0,0,-4,0,0,0,77,79,10,0,64,190.44,171,2.00,-3.00,-999.00
2024-05-17 16:09:53.763739,0,0,-4,0,0,0,77,79,10,0,64,190.53,171,3.00,-2.00,-1001.00
2024-05-17 16:09:53.861273,0,0,-4,0,0,0,77,79,10,0,64,190.57,171,1.00,-4.00,-1001.00
2024-05-17 16:09:53.961447,0,0,-4,0,0,0,77,79,10,0,64,190.50,171,2.00,-2.00,-1000.00
2024-05-17 16:09:54.063132,0,0,-4,0,0,0,77,79,10,0,64,190.52,171,2.00,-4.00,-1000.00
2024-05-17 16:09:54.173147,0,0,-4,0,0,0,76,79,10,0,64,190.55,171,2.00,-5.00,-998.00
2024-05-17 16:09:54.267189,0,0,-4,0,0,0,76,79,10,0,64,190.54,171,1.00,-3.00,-1002.00
2024-05-17 16:09:54.368968,0,0,-4,0,0,0,76,79,10,0,64,190.54,171,3.00,-5.00,-1000.00
2024-05-17 16:09:54.480361,0,0,-4,0,0,0,76,79,10,0,64,190.54,171,4.00,-8.00,-995.00
2024-05-17 16:09:54.575826,0,0,-4,0,0,0,76,79,10,0,64,190.54,171,28.00,10.00,-1015.00
2024-05-17 16:09:54.675029,0,0,-5,0,0,0,76,79,10,0,64,190.54,171,31.00,-22.00,-930.00
2024-05-17 16:09:54.787500,0,0,-5,0,0,0,76,79,10,0,64,190.54,171,2.00,-12.00,-1114.00
2024-05-17 16:09:54.878949,0,-1,-6,0,0,0,76,79,10,0,64,190.54,171,61.00,5.00,-1157.00
2024-05-17 16:09:54.992334,0,0,-7,0,0,-2,76,79,10,0,64,190.54,172,-22.00,19.00,-1343.00
2024-05-17 16:09:55.082886,-1,0,-7,0,0,-4,76,79,10,0,64,190.54,172,-10.00,1.00,-1161.00
2024-05-17 16:09:55.197168,0,0,-7,0,0,-6,77,79,16,0,64,190.90,172,14.00,-28.00,-1203.00
2024-05-17 16:09:55.286929,0,0,-7,0,0,-7,77,79,25,0,64,190.94,172,-4.00,-6.00,-1062.00
2024-05-17 16:09:55.401962,0,0,-7,0,0,-7,77,79,34,10,64,191.00,172,-4.00,-3.00,-991.00
2024-05-17 16:09:55.490919,0,0,-7,0,0,-7,77,79,43,10,64,191.08,172,4.00,-24.00,-989.00
2024-05-17 16:09:55.606826,0,0,-7,0,0,-6,77,79,48,20,64,191.17,172,-39.00,-11.00,-957.00
2024-05-17 16:09:55.694880,0,0,-7,0,0,-5,77,79,55,30,64,191.26,172,-14.00,20.00,-885.00
2024-05-17 16:09:55.812878,0,0,-7,0,0,-4,77,79,63,30,64,191.33,172,-25.00,5.00,-972.00
2024-05-17 16:09:55.898938,0,0,-7,0,0,-3,77,79,70,30,64,191.45,172,-29.00,-5.00,-889.00
2024-05-17 16:09:56.016416,0,0,-7,0,0,-2,77,79,75,40,64,191.52,173,-42.00,31.00,-893.00
2024-05-17 16:09:56.103188,0,0,-7,0,0,-2,77,79,79,40,64,191.51,173,-11.00,32.00,-861.00
2024-05-17 16:09:56.221140,0,0,-7,0,0,-1,76,80,83,40,64,191.53,173,17.00,21.00,-928.00
2024-05-17 16:09:56.307324,0,0,-7,0,0,0,76,80,84,50,64,191.49,173,-8.00,18.00,-951.00
2024-05-17 16:09:56.425965,0,0,-7,0,0,0,76,80,87,50,64,191.60,173,48.00,-13.00,-917.00
2024-05-17 16:09:56.510924,0,0,-7,0,0,0,76,80,89,50,64,191.63,173,-7.00,-8.00,-952.00
2024-05-17 16:09:56.632510,0,0,-7,0,0,0,76,80,90,50,64,191.61,173,-7.00,49.00,-938.00
2024-05-17 16:09:56.663939,0,0,-7,0,0,0,76,80,91,50,64,191.68,173,-5.00,25.00,-964.00
2024-05-17 16:09:56.835486,0,0,-7,0,0,0,76,80,92,50,64,191.61,173,-3.00,0.00,-1021.00
2024-05-17 16:09:56.867893,0,0,-7,0,0,0,76,80,92,50,64,191.72,173,6.00,0.00,-994.00
2024-05-17 16:09:57.040447,0,0,-7,0,0,0,76,80,94,50,64,191.69,174,-1.00,-11.00,-972.00
2024-05-17 16:09:57.071778,0,0,-7,0,0,0,76,80,94,50,64,191.66,174,0.00,8.00,-1011.00
2024-05-17 16:09:57.245532,0,0,-7,0,0,0,76,79,94,60,64,191.63,174,12.00,-18.00,-972.00
2024-05-17 16:09:57.275679,0,0,-7,0,0,0,76,79,94,60,64,191.65,174,-10.00,-12.00,-1054.00
2024-05-17 16:09:57.449944,0,0,-7,0,0,0,76,79,94,60,64,191.68,174,-28.00,26.00,-971.00
2024-05-17 16:09:57.479760,0,0,-7,0,0,0,76,79,93,60,64,191.68,174,33.00,3.00,-979.00
2024-05-17 16:09:57.655360,0,0,-6,0,0,0,76,79,92,60,64,191.66,174,7.00,-24.00,-1014.00
2024-05-17 16:09:57.684363,0,0,-6,0,0,1,76,79,91,60,64,191.68,174,-16.00,-32.00,-960.00
2024-05-17 16:09:57.859437,0,0,-6,0,0,1,76,79,89,60,64,191.63,174,-34.00,6.00,-1007.00
2024-05-17 16:09:57.887710,0,0,-6,0,0,1,76,79,89,50,64,191.62,174,24.00,-4.00,-1037.00
2024-05-17 16:09:58.064402,0,0,-6,0,0,1,76,79,86,50,64,191.60,175,-33.00,2.00,-1043.00
2024-05-17 16:09:58.091741,0,0,-7,0,0,1,76,79,85,50,64,191.60,175,27.00,-29.00,-980.00
2024-05-17 16:09:58.269133,0,0,-7,0,0,1,76,79,84,50,64,191.63,175,-17.00,23.00,-973.00
2024-05-17 16:09:58.295653,0,0,-7,0,0,0,76,79,83,50,64,191.57,175,-36.00,-5.00,-965.00
2024-05-17 16:09:58.474018,0,0,-7,0,0,0,76,79,83,50,64,191.63,175,-18.00,1.00,-1000.00
2024-05-17 16:09:58.499709,0,0,-7,0,0,0,76,79,82,50,64,191.54,175,-20.00,3.00,-997.00
2024-05-17 16:09:58.678797,0,0,-7,0,0,0,76,79,82,50,64,191.58,175,-10.00,9.00,-996.00
2024-05-17 16:09:58.703908,0,0,-7,0,0,0,76,79,81,50,64,191.44,175,-44.00,14.00,-976.00
2024-05-17 16:09:58.883744,0,0,-6,0,0,0,76,79,80,50,64,191.50,175,6.00,3.00,-963.00
2024-05-17 16:09:58.907635,0,0,-6,0,0,0,76,79,80,50,64,191.54,175,-47.00,34.00,-965.00
2024-05-17 16:09:59.088450,0,0,-6,0,0,0,76,79,79,50,64,191.59,176,2.00,26.00,-1050.00
2024-05-17 16:09:59.111641,0,0,-6,0,0,0,76,79,79,50,64,191.55,176,10.00,13.00,-985.00
2024-05-17 16:09:59.293165,0,0,-6,0,0,0,76,78,79,50,64,191.52,176,7.00,27.00,-956.00
2024-05-17 16:09:59.315663,0,0,-6,0,0,0,76,78,79,50,64,191.46,176,-22.00,3.00,-1030.00
2024-05-17 16:09:59.497983,0,0,-7,0,0,0,76,78,79,50,64,191.53,176,14.00,-35.00,-1007.00
2024-05-17 16:09:59.519560,0,0,-7,0,0,0,76,78,78,50,64,191.51,176,-23.00,-22.00,-1070.00
2024-05-17 16:09:59.621598,0,0,-7,0,0,0,76,78,78,50,64,191.57,176,-23.00,18.00,-1005.00
2024-05-17 16:09:59.806715,0,0,-7,0,0,0,76,78,78,50,64,191.55,176,2.00,-11.00,-981.00
2024-05-17 16:09:59.825728,0,0,-7,0,0,0,76,78,78,50,64,191.49,176,17.00,10.00,-994.00
2024-05-17 16:10:00.009961,0,0,-7,0,0,0,76,78,78,50,64,191.53,176,-8.00,5.00,-1018.00
2024-05-17 16:10:00.033448,0,0,-7,0,0,0,76,78,78,50,64,191.53,177,-9.00,-1.00,-1058.00
2024-05-17 16:10:00.132541,0,0,-7,0,0,0,76,78,79,50,64,191.49,177,-35.00,-9.00,-1014.00
2024-05-17 16:10:00.317502,0,0,-7,0,0,0,76,77,78,50,64,191.44,177,-22.00,-11.00,-987.00
2024-05-17 16:10:00.337805,0,0,-7,0,0,0,76,77,78,50,64,191.49,177,0.00,-10.00,-1022.00
2024-05-17 16:10:00.522259,0,0,-6,0,0,0,76,77,78,50,64,191.47,177,-6.00,7.00,-963.00
2024-05-17 16:10:00.522390,0,0,-6,0,0,0,76,77,78,50,64,191.47,177,13.00,-19.00,-1025.00
2024-05-17 16:10:00.591737,0,0,-6,0,0,0,76,77,78,50,64,191.52,177,-26.00,18.00,-985.00
2024-05-17 16:10:00.726893,0,0,-6,0,0,0,76,77,78,50,64,191.56,177,-6.00,-36.00,-1056.00
2024-05-17 16:10:00.795955,0,0,-6,0,0,0,76,77,78,50,64,191.55,177,-2.00,-28.00,-1019.00
2024-05-17 16:10:00.931689,0,0,-6,0,0,0,76,77,78,50,64,191.57,177,13.00,-2.00,-970.00
2024-05-17 16:10:00.999810,0,0,-6,0,0,0,76,77,78,50,64,191.54,178,-37.00,11.00,-956.00
2024-05-17 16:10:01.136658,0,0,-6,0,0,0,76,77,78,50,64,191.52,178,-52.00,-2.00,-1025.00
2024-05-17 16:10:01.204962,0,0,-7,0,0,0,75,78,78,50,64,191.51,178,-6.00,3.00,-955.00
2024-05-17 16:10:01.341482,0,0,-7,0,0,0,75,78,79,50,64,191.50,178,0.00,-26.00,-1064.00
2024-05-17 16:10:01.407696,0,0,-7,0,0,0,75,78,79,50,64,191.46,178,-2.00,1.00,-1049.00
2024-05-17 16:10:01.546021,0,0,-6,0,0,0,75,78,79,50,64,191.56,178,-13.00,19.00,-1003.00
2024-05-17 16:10:01.611629,0,0,-6,0,0,0,75,78,79,50,64,191.50,178,12.00,-21.00,-981.00
2024-05-17 16:10:01.752639,0,0,-6,0,0,0,75,78,79,50,64,191.50,178,-32.00,6.00,-1065.00
2024-05-17 16:10:01.815733,0,0,-6,0,0,0,75,78,79,50,64,191.53,178,-31.00,25.00,-955.00
2024-05-17 16:10:01.955747,0,0,-6,0,0,0,75,78,79,50,64,191.53,178,-2.00,-24.00,-1042.00
2024-05-17 16:10:02.019487,0,0,-6,0,0,0,75,78,79,50,64,191.54,179,5.00,4.00,-1085.00
2024-05-17 16:10:02.121689,0,0,-6,0,0,0,75,78,79,50,64,191.54,179,-9.00,-1.00,-1017.00
2024-05-17 16:10:02.264353,0,0,-6,0,0,0,74,78,79,50,64,191.57,179,-12.00,2.00,-1074.00
2024-05-17 16:10:02.325574,0,0,-7,0,0,0,74,78,80,50,64,191.63,179,20.00,-27.00,-1127.00
2024-05-17 16:10:02.467485,0,0,-7,0,0,-1,74,78,82,50,64,191.58,179,-44.00,-18.00,-1113.00
2024-05-17 16:10:02.531300,0,0,-7,0,0,-2,74,78,85,50,64,191.66,179,22.00,0.00,-1057.00
2024-05-17 16:10:02.631757,0,0,-7,0,0,-3,74,78,89,50,64,191.69,179,9.00,-11.00,-1074.00
2024-05-17 16:10:02.733502,0,0,-7,0,0,-4,74,78,93,60,64,191.75,179,11.00,12.00,-1081.00
2024-05-17 16:10:02.877119,0,0,-7,0,0,-4,74,78,98,60,64,191.84,179,-46.00,25.00,-1004.00
2024-05-17 16:10:02.937444,0,0,-7,0,0,-5,74,78,103,70,64,191.75,179,-24.00,-17.00,-1041.00
2024-05-17 16:10:03.081911,0,0,-7,0,0,-5,74,78,109,70,64,191.85,180,-3.00,19.00,-949.00
2024-05-17 16:10:03.141779,0,0,-7,0,0,-5,74,78,115,80,64,191.90,180,8.00,-19.00,-1010.00
2024-05-17 16:10:03.286868,0,0,-7,0,0,-5,75,78,120,80,64,191.96,180,15.00,8.00,-1021.00
2024-05-17 16:10:03.345406,0,0,-7,0,0,-5,75,78,126,90,64,191.98,180,-16.00,-13.00,-957.00
2024-05-17 16:10:03.491475,0,0,-7,0,0,-5,75,78,131,90,64,192.10,180,27.00,14.00,-946.00
2024-05-17 16:10:03.549387,1,0,-7,0,0,-5,75,78,137,100,64,192.10,180,-26.00,1.00,-930.00
2024-05-17 16:10:03.696318,1,0,-7,0,0,-4,75,78,142,100,64,192.17,180,15.00,15.00,-1002.00
2024-05-17 16:10:03.753458,0,0,-7,0,0,-4,75,78,147,110,64,192.25,180,22.00,-9.00,-984.00
2024-05-17 16:10:03.901855,0,-1,-7,0,0,-4,75,78,151,110,64,192.31,180,9.00,3.00,-896.00
2024-05-17 16:10:03.958879,0,-1,-7,0,0,-4,75,78,156,120,64,192.36,180,-9.00,0.00,-956.00
2024-05-17 16:10:04.060166,0,-1,-7,0,0,-3,75,78,160,120,64,192.28,181,4.00,0.00,-886.00
2024-05-17 16:10:04.208274,0,-1,-7,0,0,-3,75,78,164,120,64,192.29,181,34.00,-6.00,-1003.00
2024-05-17 16:10:04.263361,0,-1,-7,0,0,-2,75,78,168,130,64,192.39,181,13.00,-29.00,-1057.00
2024-05-17 16:10:04.413070,1,-1,-7,0,0,-2,75,78,172,130,64,192.51,181,0.00,24.00,-969.00
2024-05-17 16:10:04.468437,1,-1,-7,0,0,-2,75,78,175,140,64,192.53,181,-22.00,5.00,-948.00
2024-05-17 16:10:04.619771,1,-1,-7,0,0,-2,75,78,178,140,64,192.41,181,54.00,9.00,-934.00
2024-05-17 16:10:04.671360,1,-1,-7,0,0,-1,75,78,180,140,64,192.54,181,-25.00,27.00,-1008.00
2024-05-17 16:10:04.722716,0,-1,-7,0,0,-1,75,78,183,140,64,192.54,181,-5.00,17.00,-921.00
2024-05-17 16:10:04.824553,0,-1,-7,0,0,-1,75,78,186,150,64,192.59,181,12.00,28.00,-1041.00
2024-05-17 16:10:05.028723,0,-1,-7,0,0,-1,75,78,187,150,64,192.53,182,0.00,23.00,-982.00
2024-05-17 16:10:05.028896,0,-1,-7,0,0,0,75,78,190,150,64,192.65,182,-6.00,23.00,-972.00
2024-05-17 16:10:05.234759,0,-1,-7,0,0,0,75,78,190,150,64,192.56,182,23.00,43.00,-975.00
2024-05-17 16:10:05.235072,0,-2,-7,0,0,0,75,76,191,150,64,192.57,182,-9.00,9.00,-1041.00
2024-05-17 16:10:05.334673,0,-1,-7,0,0,0,75,76,193,150,64,192.64,182,32.00,-14.00,-974.00
2024-05-17 16:10:05.437201,1,-1,-7,0,0,0,75,76,193,150,64,192.55,182,18.00,8.00,-998.00
2024-05-17 16:10:05.539978,1,-2,-6,0,0,0,75,76,196,150,64,192.57,182,-15.00,17.00,-980.00
2024-05-17 16:10:05.642141,1,-1,-6,0,0,0,75,76,197,150,64,192.66,182,1.00,8.00,-996.00
2024-05-17 16:10:05.742633,1,-1,-6,0,0,0,75,76,195,160,64,192.60,182,70.00,-30.00,-1007.00
2024-05-17 16:10:05.846810,1,-1,-7,0,0,0,75,76,195,160,64,192.60,182,35.00,-4.00,-1039.00
2024-05-17 16:10:05.946591,1,-1,-7,0,0,0,75,76,195,160,64,192.58,183,23.00,21.00,-966.00
2024-05-17 16:10:06.048517,1,-2,-7,0,0,0,75,76,196,160,64,192.58,183,24.00,-8.00,-1008.00
2024-05-17 16:10:06.153994,1,-2,-7,0,0,0,75,76,195,160,64,192.67,183,43.00,6.00,-1000.00
2024-05-17 16:10:06.253405,1,-2,-7,0,0,0,74,76,195,160,64,192.59,183,-4.00,17.00,-953.00
2024-05-17 16:10:06.355763,1,-2,-7,0,0,0,74,76,194,160,64,192.50,183,43.00,-13.00,-983.00
2024-05-17 16:10:06.461657,1,-1,-7,0,0,0,74,76,192,150,64,192.55,183,28.00,-23.00,-1051.00
2024-05-17 16:10:06.559668,1,-1,-7,0,0,0,74,76,190,150,64,192.49,183,35.00,-3.00,-1035.00
2024-05-17 16:10:06.661412,1,-1,-7,0,0,0,74,76,189,150,64,192.53,183,30.00,-6.00,-999.00
2024-05-17 16:10:06.763417,0,-1,-7,0,0,0,74,76,189,150,64,192.53,183,17.00,15.00,-1068.00
2024-05-17 16:10:06.865523,0,-1,-7,0,0,0,74,76,188,150,64,192.49,183,10.00,25.00,-991.00
2024-05-17 16:10:06.968324,1,-1,-7,0,0,0,74,76,187,150,64,192.54,184,19.00,-1.00,-971.00
2024-05-17 16:10:07.071326,1,-1,-7,0,0,1,74,76,186,150,64,192.49,184,48.00,14.00,-915.00
2024-05-17 16:10:07.173065,1,-1,-7,0,0,1,74,76,185,150,64,192.47,184,-3.00,-17.00,-1014.00
2024-05-17 16:10:07.275531,2,-1,-7,0,0,2,75,76,181,150,64,192.37,184,23.00,-3.00,-1020.00
2024-05-17 16:10:07.380032,2,-1,-7,0,0,2,75,76,178,140,64,192.40,184,21.00,11.00,-923.00
2024-05-17 16:10:07.477235,1,-1,-7,0,0,2,75,76,174,140,64,192.38,184,19.00,24.00,-973.00
2024-05-17 16:10:07.589178,0,-2,-7,0,0,3,75,76,170,140,64,192.36,184,5.00,-4.00,-912.00
2024-05-17 16:10:07.681220,0,-1,-7,0,0,3,75,76,166,140,64,192.32,184,42.00,7.00,-910.00
2024-05-17 16:10:07.792259,0,-2,-7,0,0,3,75,76,162,130,64,192.28,184,6.00,52.00,-937.00
2024-05-17 16:10:07.885190,0,-2,-7,0,0,3,75,76,159,130,64,192.23,184,50.00,43.00,-953.00
2024-05-17 16:10:07.997417,0,-2,-6,0,0,3,75,76,154,120,64,192.24,185,12.00,21.00,-916.00
2024-05-17 16:10:08.089165,0,-1,-7,0,0,3,75,76,150,120,64,192.22,185,37.00,-5.00,-989.00
2024-05-17 16:10:08.201849,0,-1,-7,0,0,2,75,76,147,120,64,192.11,185,-10.00,18.00,-1084.00
2024-05-17 16:10:08.293140,0,-1,-7,0,0,2,75,76,145,120,64,192.09,185,-4.00,54.00,-1013.00
2024-05-17 16:10:08.406643,0,-1,-7,0,0,2,75,76,141,110,64,192.02,185,-30.00,36.00,-975.00
2024-05-17 16:10:08.500336,0,-1,-7,0,0,2,75,76,139,110,64,192.04,185,-50.00,28.00,-1016.00
2024-05-17 16:10:08.599145,0,0,-7,0,0,1,75,76,138,110,64,191.99,185,-13.00,21.00,-990.00
2024-05-17 16:10:08.651888,0,-1,-7,0,0,1,75,76,136,110,64,192.00,185,-11.00,25.00,-998.00
2024-05-17 16:10:08.752399,0,-1,-7,0,0,0,75,76,135,100,64,192.00,185,17.00,-8.00,-1020.00
2024-05-17 16:10:08.918842,0,-1,-7,0,0,0,75,76,133,100,64,192.00,185,-20.00,33.00,-1053.00
2024-05-17 16:10:08.956436,0,0,-7,0,0,0,75,76,133,100,64,191.99,186,20.00,33.00,-1024.00
2024-05-17 16:10:09.123592,1,-1,-7,0,0,0,75,76,132,100,64,191.98,186,-20.00,18.00,-974.00
2024-05-17 16:10:09.160410,0,-1,-7,0,0,0,75,76,131,100,64,192.04,186,-32.00,-6.00,-1092.00
2024-05-17 16:10:09.329215,0,-1,-7,0,0,0,74,76,131,100,64,192.01,186,5.00,5.00,-1056.00
2024-05-17 16:10:09.364327,0,-1,-7,0,0,0,74,76,131,100,64,191.97,186,10.00,5.00,-955.00
2024-05-17 16:10:09.533594,0,-1,-7,0,0,0,74,76,132,100,64,191.96,186,-33.00,40.00,-1009.00
2024-05-17 16:10:09.568533,0,-1,-6,0,0,0,74,76,132,100,64,192.02,186,20.00,14.00,-1005.00
2024-05-17 16:10:09.738061,0,-1,-6,0,0,0,74,76,132,100,64,192.02,186,-14.00,12.00,-1013.00
2024-05-17 16:10:09.772404,0,0,-6,0,0,0,74,76,132,100,64,191.96,186,-7.00,-14.00,-992.00
2024-05-17 16:10:09.942832,0,0,-6,0,0,0,74,76,132,100,64,192.04,186,-11.00,4.00,-1036.00
2024-05-17 16:10:09.976399,1,0,-6,0,0,0,74,76,133,100,64,192.01,187,0.00,11.00,-960.00
2024-05-17 16:10:10.147425,1,0,-6,0,0,0,74,76,133,100,64,192.01,187,-6.00,-22.00,-1111.00
2024-05-17 16:10:10.180298,1,0,-6,0,0,0,74,76,134,100,64,192.02,187,-4.00,28.00,-978.00
2024-05-17 16:10:10.282254,1,0,-6,0,0,0,75,76,134,100,64,192.03,187,41.00,8.00,-992.00
2024-05-17 16:10:10.454986,1,0,-6,0,0,0,75,76,134,100,64,192.07,187,-2.00,-4.00,-1036.00
2024-05-17 16:10:10.486239,1,0,-6,0,0,0,75,76,134,100,64,191.97,187,-7.00,3.00,-990.00
2024-05-17 16:10:10.588180,1,0,-6,0,0,0,75,76,133,100,64,191.98,187,-20.00,18.00,-1104.00
2024-05-17 16:10:10.690331,1,0,-6,0,0,0,75,76,133,100,64,192.05,187,19.00,-3.00,-961.00
2024-05-17 16:10:10.797876,0,0,-6,0,0,0,75,76,135,100,64,192.02,187,15.00,-17.00,-1018.00
2024-05-17 16:10:10.894193,-8,0,-6,0,0,0,75,76,137,100,64,192.02,187,27.00,-5.00,-939.00
2024-05-17 16:10:11.069077,-8,0,-6,2,0,0,75,76,137,100,64,192.03,188,-33.00,23.00,-942.00
2024-05-17 16:10:11.098155,-8,0,-6,3,0,0,75,76,136,100,64,191.99,188,-36.00,27.00,-1026.00
2024-05-17 16:10:11.273982,-7,-1,-7,5,0,0,75,76,136,100,64,192.02,188,-17.00,-6.00,-945.00
2024-05-17 16:10:11.302338,-6,-1,-7,6,0,0,73,76,135,100,64,192.02,188,-36.00,3.00,-1032.00
2024-05-17 16:10:11.478675,-5,-1,-7,6,0,0,73,76,134,100,64,191.90,188,-84.00,38.00,-993.00
2024-05-17 16:10:11.506208,-4,-2,-7,7,0,0,73,76,132,100,64,192.03,188,-75.00,39.00,-998.00
2024-05-17 16:10:11.683361,-3,-2,-7,7,0,0,73,76,130,100,64,191.94,188,-49.00,16.00,-1016.00
2024-05-17 16:10:11.710320,0,-3,-7,7,0,0,73,76,129,100,64,191.94,188,-31.00,-14.00,-1027.00
2024-05-17 16:10:11.812201,2,-2,-7,6,-1,0,73,76,129,100,64,191.95,188,-44.00,-6.00,-1034.00
2024-05-17 16:10:11.914147,4,-1,-7,6,-1,0,73,76,127,100,64,191.97,188,-42.00,-19.00,-1032.00
2024-05-17 16:10:12.093059,4,-1,-7,5,-1,0,73,76,126,100,64,191.92,189,-14.00,7.00,-1051.00
2024-05-17 16:10:12.093826,3,0,-7,4,-1,0,73,76,126,100,64,191.97,189,-42.00,26.00,-1003.00
2024-05-17 16:10:12.169088,1,0,-7,3,-1,0,73,76,123,100,64,191.91,189,0.00,-2.00,-1060.00
2024-05-17 16:10:12.322786,0,0,-7,3,0,0,73,76,123,100,64,191.96,189,-9.00,10.00,-1039.00
2024-05-17 16:10:12.502667,1,1,-7,3,0,0,73,76,122,100,64,191.89,189,-51.00,43.00,-978.00
2024-05-17 16:10:12.526403,1,0,-7,3,0,0,73,76,122,100,64,191.88,189,-41.00,28.00,-994.00
2024-05-17 16:10:12.628514,3,0,-7,2,0,0,73,76,123,100,64,191.89,189,19.00,-35.00,-990.00
2024-05-17 16:10:12.681855,5,-1,-7,2,0,0,73,76,123,100,64,191.99,189,-25.00,1.00,-970.00
2024-05-17 16:10:12.781374,3,0,-7,1,0,0,73,76,123,100,64,191.87,189,-3.00,22.00,-1008.00
2024-05-17 16:10:12.912701,1,0,-7,0,0,0,73,76,122,100,64,191.92,189,-30.00,7.00,-1031.00
2024-05-17 16:10:12.986337,1,-1,-7,0,0,0,73,76,122,100,64,191.96,190,-20.00,1.00,-1000.00
2024-05-17 16:10:13.088104,1,0,-7,0,0,0,73,76,123,100,64,191.93,190,30.00,5.00,-1009.00
2024-05-17 16:10:13.190095,0,0,-7,0,0,0,73,76,123,100,64,191.93,190,-36.00,18.00,-1014.00
2024-05-17 16:10:13.291370,0,-1,-7,0,0,0,74,76,124,100,64,191.96,190,-34.00,-13.00,-1025.00
2024-05-17 16:10:13.424706,0,-1,-7,0,0,0,74,76,126,100,64,191.92,190,-5.00,4.00,-1028.00
2024-05-17 16:10:13.496751,0,-1,-7,0,0,0,74,76,126,100,64,191.96,190,-23.00,8.00,-985.00
2024-05-17 16:10:13.597144,0,-1,-7,0,0,0,74,76,128,100,64,191.95,190,-9.00,10.00,-942.00
2024-05-17 16:10:13.731507,0,-1,-7,0,0,0,74,76,129,100,64,192.07,190,-4.00,-13.00,-1053.00
2024-05-17 16:10:13.806307,0,-1,-6,0,0,0,74,76,130,100,64,192.04,190,2.00,8.00,-1032.00
2024-05-17 16:10:13.903543,1,0,-6,0,0,0,74,76,131,100,64,192.05,190,23.00,7.00,-960.00
2024-05-17 16:10:14.039008,1,0,-6,0,0,0,74,76,133,100,64,192.02,191,-4.00,-26.00,-1006.00
2024-05-17 16:10:14.107208,1,0,-6,0,0,0,74,76,134,100,64,192.10,191,-28.00,4.00,-1027.00
2024-05-17 16:10:14.243842,1,0,-6,0,0,0,74,76,135,100,64,192.03,191,-23.00,-16.00,-925.00
2024-05-17 16:10:14.310931,1,0,-6,0,0,0,73,75,136,100,64,192.07,191,9.00,-1.00,-995.00
2024-05-17 16:10:14.448437,0,0,-7,0,0,0,73,75,137,100,64,192.04,191,-54.00,23.00,-1003.00
2024-05-17 16:10:14.522291,0,-1,-7,0,0,0,73,75,137,100,64,192.10,191,24.00,1.00,-969.00
2024-05-17 16:10:14.617148,0,-1,-7,0,0,0,73,75,137,100,64,192.08,191,-3.00,-21.00,-977.00
2024-05-17 16:10:14.756039,0,-1,-7,0,0,0,73,75,139,100,64,191.98,191,-29.00,-6.00,-962.00
2024-05-17 16:10:14.820835,0,-1,-7,0,0,0,73,75,140,100,64,192.04,191,5.00,0.00,-967.00
2024-05-17 16:10:14.922838,0,-1,-7,0,0,0,73,75,141,100,64,192.03,191,-5.00,9.00,-1024.00
2024-05-17 16:10:15.024821,1,0,-7,0,0,0,73,75,142,100,64,192.12,192,3.00,49.00,-934.00
2024-05-17 16:10:15.128508,7,0,-7,0,0,0,73,75,144,110,64,192.16,192,-12.00,-12.00,-991.00
2024-05-17 16:10:15.228819,8,0,-6,-2,0,0,73,75,144,110,64,192.15,192,10.00,-2.00,-1034.00
2024-05-17 16:10:15.332546,8,0,-6,-3,0,0,74,76,145,110,64,192.13,192,-3.00,36.00,-1002.00
2024-05-17 16:10:15.432973,8,0,-7,-4,0,0,74,76,145,110,64,192.15,192,-2.00,43.00,-945.00
2024-05-17 16:10:15.576110,7,-1,-7,-5,1,0,74,76,143,110,64,192.11,192,54.00,0.00,-976.00
2024-05-17 16:10:15.639038,6,-1,-7,-6,1,0,74,76,143,110,64,192.09,192,-4.00,-18.00,-1006.00
2024-05-17 16:10:15.739621,5,-1,-7,-7,0,0,74,76,143,110,64,192.04,192,57.00,-27.00,-980.00
2024-05-17 16:10:15.840841,4,-1,-6,-8,0,0,74,76,142,110,64,192.02,192,39.00,-7.00,-1178.00
2024-05-17 16:10:15.984248,1,-2,-6,-8,0,0,74,76,141,110,64,192.01,192,53.00,0.00,-1013.00
2024-05-17 16:10:16.044709,-1,-1,-6,-8,0,0,74,76,141,110,64,192.09,193,15.00,14.00,-977.00
2024-05-17 16:10:16.189045,-3,-1,-6,-7,0,0,74,76,139,110,64,192.09,193,31.00,27.00,-981.00
2024-05-17 16:10:16.197857,-4,0,-7,-6,0,0,74,76,138,110,64,192.05,193,39.00,8.00,-1093.00
2024-05-17 16:10:16.395297,-3,0,-7,-4,0,0,73,76,141,110,64,192.12,193,18.00,0.00,-1062.00
2024-05-17 16:10:16.458548,-2,0,-7,-3,0,0,73,76,141,110,64,192.04,193,11.00,-10.00,-995.00
2024-05-17 16:10:16.504183,-1,0,-7,-3,0,0,73,76,141,110,64,192.07,193,-13.00,18.00,-1006.00
2024-05-17 16:10:16.605971,0,0,-7,-3,0,0,73,76,140,110,64,192.09,193,10.00,-9.00,-1053.00
2024-05-17 16:10:16.803437,0,0,-7,-2,0,0,73,76,139,110,64,192.05,193,33.00,3.00,-1016.00
2024-05-17 16:10:16.810045,0,0,-7,-2,0,0,73,76,138,110,64,192.02,193,5.00,-10.00,-939.00
2024-05-17 16:10:16.913318,0,0,-7,-2,0,0,73,76,138,110,64,192.10,193,9.00,5.00,-961.00
2024-05-17 16:10:17.013815,0,0,-7,-2,0,0,73,76,138,110,64,191.97,194,39.00,12.00,-1019.00
2024-05-17 16:10:17.213041,0,0,-7,-2,0,0,73,76,135,100,64,191.93,194,-2.00,31.00,-960.00
2024-05-17 16:10:17.217830,0,-2,-7,-1,0,0,73,76,136,100,64,191.95,194,-21.00,8.00,-1009.00
2024-05-17 16:10:17.319981,0,-5,-6,-1,0,0,73,76,135,100,64,192.03,194,-4.00,29.00,-938.00
2024-05-17 16:10:17.520187,0,-5,-6,-1,0,0,73,76,134,100,64,192.11,194,-22.00,9.00,-996.00
2024-05-17 16:10:17.523778,-2,-3,-6,-1,-1,0,73,76,134,100,64,192.05,194,51.00,-28.00,-941.00
2024-05-17 16:10:17.625853,-2,-2,-6,0,-1,0,73,76,132,100,64,192.07,194,18.00,13.00,-982.00
2024-05-17 16:10:17.727815,0,-1,-7,0,-2,0,73,76,132,100,64,192.03,194,-4.00,33.00,-1079.00
2024-05-17 16:10:17.929873,0,2,-7,0,-1,0,73,76,131,100,64,192.05,194,0.00,22.00,-968.00
2024-05-17 16:10:17.932154,0,2,-6,0,0,0,73,76,131,100,64,192.07,194,-31.00,33.00,-1039.00
2024-05-17 16:10:18.034037,0,0,-6,0,0,0,73,76,130,100,64,192.10,195,32.00,-29.00,-982.00
2024-05-17 16:10:18.136082,0,0,-6,0,0,0,73,76,130,100,64,192.05,195,2.00,31.00,-1008.00
2024-05-17 16:10:18.238118,0,0,-6,0,0,0,73,76,131,100,64,192.08,195,10.00,-29.00,-1003.00
2024-05-17 16:10:18.340172,0,-1,-6,0,0,0,74,76,131,100,64,192.12,195,-1.00,37.00,-1013.00
2024-05-17 16:10:18.442208,0,-1,-6,0,0,0,74,76,131,100,64,192.11,195,10.00,16.00,-916.00
2024-05-17 16:10:18.543897,0,-1,-6,0,0,0,74,76,132,100,64,192.06,195,39.00,-10.00,-991.00
2024-05-17 16:10:18.658783,0,-1,-6,0,0,0,74,76,133,100,64,192.07,195,-3.00,17.00,-963.00
2024-05-17 16:10:18.749077,0,-1,-6,0,0,0,74,76,133,100,64,192.06,195,8.00,17.00,-948.00
2024-05-17 16:10:18.851675,0,-1,-6,0,0,0,74,76,133,100,64,192.12,195,-7.00,4.00,-973.00
2024-05-17 16:10:18.951904,0,-1,-6,0,0,0,74,76,135,100,64,192.07,196,-28.00,45.00,-1042.00
2024-05-17 16:10:19.059623,0,-1,-6,0,0,0,74,76,135,100,64,192.08,196,-8.00,-8.00,-1027.00
2024-05-17 16:10:19.155864,0,-1,-6,0,0,0,74,76,135,100,64,191.96,196,-40.00,5.00,-980.00
2024-05-17 16:10:19.261720,0,-1,-6,0,0,0,74,76,136,100,64,192.03,196,-3.00,-12.00,-1019.00
2024-05-17 16:10:19.360126,0,0,-6,0,0,0,73,75,137,100,64,192.06,196,-30.00,38.00,-998.00
2024-05-17 16:10:19.466661,0,0,-6,0,0,0,73,75,137,100,64,192.10,196,-25.00,-14.00,-980.00
2024-05-17 16:10:19.563766,1,0,-6,0,0,0,73,75,137,100,64,192.05,196,32.00,-21.00,-976.00
2024-05-17 16:10:19.666056,1,0,-7,0,0,0,73,75,137,100,64,192.09,196,9.00,-22.00,-1027.00
2024-05-17 16:10:19.768904,1,0,-7,0,0,0,73,75,137,100,64,192.09,196,-24.00,4.00,-976.00
2024-05-17 16:10:19.870715,1,0,-7,0,0,0,73,75,137,100,64,192.06,196,30.00,26.00,-988.00
2024-05-17 16:10:19.971796,1,0,-7,0,0,0,73,75,137,100,64,192.08,197,7.00,-1.00,-1018.00
2024-05-17 16:10:20.022403,1,0,-7,0,0,0,73,75,137,100,64,192.07,197,47.00,-1.00,-1007.00
2024-05-17 16:10:20.182616,0,-6,-7,0,0,0,73,75,138,100,64,192.11,197,9.00,27.00,-881.00
2024-05-17 16:10:20.226453,0,-9,-7,0,-1,0,73,75,140,100,64,192.09,197,-14.00,36.00,-969.00
2024-05-17 16:10:20.328477,0,-6,-7,0,-2,0,72,75,140,100,64,192.12,197,15.00,28.00,-978.00
2024-05-17 16:10:20.489783,0,-4,-7,0,-3,0,72,75,139,100,64,192.14,197,7.00,2.00,-1020.00
2024-05-17 16:10:20.533460,0,-1,-7,0,-4,0,72,75,138,100,64,192.11,197,32.00,2.00,-1027.00
2024-05-17 16:10:20.694537,0,0,-7,0,-3,0,72,75,138,100,64,192.05,197,-5.00,54.00,-972.00
2024-05-17 16:10:20.736477,0,0,-7,0,-3,0,72,75,138,100,64,192.04,197,-15.00,30.00,-1078.00
2024-05-17 16:10:20.899342,0,0,-7,0,-2,0,72,75,138,100,64,192.07,197,0.00,15.00,-1006.00
2024-05-17 16:10:20.940475,1,-1,-7,0,-2,0,72,75,138,100,64,192.08,198,24.00,3.00,-941.00
2024-05-17 16:10:21.105285,1,-1,-7,0,-2,0,72,75,138,100,64,192.06,198,7.00,31.00,-940.00
2024-05-17 16:10:21.144457,1,-1,-7,0,-2,0,72,75,139,100,64,192.02,198,0.00,54.00,-939.00
2024-05-17 16:10:21.309000,1,-1,-7,0,-2,0,72,75,139,100,64,192.03,198,-31.00,19.00,-1059.00
2024-05-17 16:10:21.348443,1,-1,-7,0,-2,0,73,76,139,100,64,191.97,198,27.00,-22.00,-1037.00
2024-05-17 16:10:21.513686,1,-1,-7,0,-2,0,73,76,139,100,64,192.04,198,-16.00,38.00,-971.00
2024-05-17 16:10:21.552510,1,-1,-7,0,-2,0,73,76,138,100,64,192.09,198,17.00,36.00,-1010.00
2024-05-17 16:10:21.718541,1,-1,-7,-1,-2,0,73,76,139,100,64,192.05,198,2.00,29.00,-1032.00
2024-05-17 16:10:21.756403,1,-2,-7,-1,-1,0,73,76,139,100,64,192.03,198,-4.00,40.00,-1012.00
2024-05-17 16:10:21.923329,1,-2,-7,-1,-1,0,73,76,139,100,64,192.09,198,0.00,46.00,-1061.00
2024-05-17 16:10:21.960410,1,-2,-7,-1,-1,0,73,76,140,100,64,192.13,199,16.00,-4.00,-1042.00
2024-05-17 16:10:22.063459,1,-1,-7,-1,-1,0,73,76,139,100,64,192.11,199,4.00,5.00,-934.00
2024-05-17 16:10:22.230891,0,-1,-7,-1,-2,0,73,76,139,100,64,192.08,199,17.00,0.00,-1016.00
2024-05-17 16:10:22.266504,-1,1,-7,0,-2,0,73,76,140,100,64,192.04,199,-12.00,22.00,-984.00
2024-05-17 16:10:22.368470,0,4,-7,0,-1,0,73,75,139,100,64,192.05,199,26.00,11.00,-917.00
2024-05-17 16:10:22.540909,0,1,-7,0,0,0,73,75,139,100,64,192.10,199,19.00,43.00,-948.00
2024-05-17 16:10:22.572438,0,0,-7,0,0,0,73,75,138,100,64,192.06,199,-20.00,23.00,-999.00
2024-05-17 16:10:22.742643,0,-1,-6,0,0,0,73,75,137,100,64,192.00,199,31.00,39.00,-937.00
2024-05-17 16:10:22.779072,0,-1,-6,0,0,0,73,75,137,100,64,191.97,199,7.00,2.00,-945.00
2024-05-17 16:10:22.878677,0,-1,-6,0,0,0,73,75,136,100,64,192.06,199,-21.00,33.00,-939.00
2024-05-17 16:10:23.050044,0,-1,-6,0,0,0,73,75,135,100,64,192.12,200,-32.00,38.00,-954.00
2024-05-17 16:10:23.086255,0,-1,-6,0,0,0,73,75,134,100,64,192.02,200,-15.00,14.00,-997.00
2024-05-17 16:10:23.184670,0,-1,-7,0,0,0,73,75,133,100,64,191.99,200,11.00,-13.00,-1024.00
2024-05-17 16:10:23.357022,0,-1,-7,0,0,0,73,75,133,100,64,191.95,200,3.00,32.00,-1004.00
2024-05-17 16:10:23.390780,0,-1,-7,0,0,0,73,76,133,100,64,192.00,200,-2.00,8.00,-1112.00
2024-05-17 16:10:23.565897,0,-1,-7,0,0,0,73,76,132,100,64,192.02,200,1.00,-6.00,-1050.00
2024-05-17 16:10:23.595553,0,-1,-7,0,0,0,73,76,132,100,64,192.00,200,-27.00,6.00,-1002.00
2024-05-17 16:10:23.695802,0,-1,-7,0,0,0,73,76,132,100,64,192.01,200,-8.00,5.00,-987.00
2024-05-17 16:10:23.747817,0,0,-7,0,0,0,73,76,132,100,64,192.08,200,-2.00,24.00,-1074.00
2024-05-17 16:10:23.848668,0,0,-6,0,0,0,73,76,133,100,64,192.05,200,-38.00,3.00,-969.00
2024-05-17 16:10:23.971617,0,0,-7,0,0,0,73,76,133,100,64,192.04,201,25.00,0.00,-1053.00
2024-05-17 16:10:24.053180,0,-1,-6,0,0,0,73,76,133,100,64,192.01,201,-34.00,-23.00,-1053.00
2024-05-17 16:10:24.181574,1,0,-6,0,0,0,73,76,135,100,64,192.03,201,8.00,38.00,-952.00
2024-05-17 16:10:24.256631,0,-1,-6,0,0,0,73,76,135,100,64,192.10,201,-4.00,4.00,-995.00
2024-05-17 16:10:24.358631,0,-1,-7,0,0,0,73,75,136,100,64,192.09,201,-20.00,39.00,-1011.00
2024-05-17 16:10:24.483434,0,-1,-7,0,0,0,73,75,136,100,64,192.07,201,-16.00,31.00,-953.00
2024-05-17 16:10:24.562330,0,-1,-7,0,0,0,73,75,136,100,64,192.02,201,10.00,32.00,-921.00
2024-05-17 16:10:24.688158,0,-1,-7,0,0,0,73,75,137,100,64,192.14,201,2.00,0.00,-1001.00
2024-05-17 16:10:24.766316,0,6,-7,0,0,0,73,75,140,100,64,192.09,201,-7.00,19.00,-939.00
2024-05-17 16:10:24.892981,0,8,-7,0,1,0,73,75,142,100,64,192.06,201,32.00,-16.00,-990.00
2024-05-17 16:10:24.970412,0,5,-7,0,3,0,73,75,138,100,64,192.13,202,-13.00,10.00,-995.00
2024-05-17 16:10:25.097706,0,2,-7,0,3,0,73,75,140,100,64,192.09,202,-31.00,9.00,-957.00
2024-05-17 16:10:25.174215,1,0,-7,0,4,0,73,75,140,100,64,192.12,202,-34.00,12.00,-1003.00
2024-05-17 16:10:25.302539,1,-2,-7,0,4,0,73,75,140,100,64,192.02,202,-4.00,-11.00,-1008.00
2024-05-17 16:10:25.378433,0,-2,-7,0,3,0,73,75,140,100,64,192.11,202,22.00,12.00,-1001.00
2024-05-17 16:10:25.507323,0,-2,-7,0,3,0,73,75,140,110,64,192.04,202,0.00,12.00,-995.00
2024-05-17 16:10:25.582336,0,-2,-7,0,3,0,73,75,140,110,64,192.08,202,-10.00,-1.00,-982.00
2024-05-17 16:10:25.712232,0,-1,-6,0,3,0,73,75,138,110,63,192.00,202,-24.00,26.00,-967.00
2024-05-17 16:10:25.786197,0,-1,-6,0,2,0,73,75,138,100,63,192.05,202,-20.00,3.00,-957.00
2024-05-17 16:10:25.917206,0,-1,-6,0,2,0,73,75,137,100,63,192.10,202,-33.00,-37.00,-1000.00
2024-05-17 16:10:25.990233,0,0,-6,0,2,0,73,75,137,100,63,192.11,203,37.00,-19.00,-986.00
2024-05-17 16:10:26.092163,0,0,-6,0,2,0,73,75,135,100,63,192.03,203,28.00,8.00,-993.00
2024-05-17 16:10:26.224305,0,0,-7,0,2,0,73,75,135,100,63,192.04,203,-15.00,1.00,-1014.00
2024-05-17 16:10:26.297054,0,-2,-7,0,2,0,73,75,136,100,63,192.05,203,-26.00,7.00,-1031.00
2024-05-17 16:10:26.398369,0,-5,-7,0,1,0,72,75,135,100,63,192.03,203,0.00,-3.00,-1082.00
2024-05-17 16:10:26.503628,0,-3,-7,0,0,0,72,75,135,100,63,192.07,203,-23.00,-2.00,-981.00
2024-05-17 16:10:26.602618,0,-2,-7,0,0,0,72,75,135,100,63,192.00,203,-3.00,46.00,-989.00
2024-05-17 16:10:26.736268,0,-1,-7,0,0,0,72,75,134,100,63,192.05,203,-13.00,17.00,-1007.00
2024-05-17 16:10:26.810394,0,-1,-7,0,0,0,72,75,133,100,63,192.00,203,21.00,-11.00,-1048.00
2024-05-17 16:10:26.908296,1,-1,-7,0,0,0,72,75,134,100,63,192.07,203,0.00,8.00,-985.00
2024-05-17 16:10:27.043508,1,-1,-7,0,0,0,72,75,134,100,63,192.07,204,-1.00,0.00,-951.00
2024-05-17 16:10:27.112465,0,-1,-7,0,0,0,72,75,133,100,63,192.06,204,20.00,41.00,-1012.00
2024-05-17 16:10:27.215614,0,-1,-7,0,0,0,72,75,133,100,63,192.12,204,16.00,-5.00,-999.00
2024-05-17 16:10:27.316524,0,-1,-7,0,0,0,72,75,134,100,63,192.04,204,0.00,42.00,-972.00
2024-05-17 16:10:27.418556,0,-1,-7,0,0,0,73,75,133,100,63,192.01,204,-17.00,27.00,-966.00
2024-05-17 16:10:27.556704,0,-2,-7,0,0,0,73,75,133,100,63,192.07,204,27.00,24.00,-953.00
2024-05-17 16:10:27.622277,0,-2,-7,0,0,0,73,75,133,100,63,192.00,204,-21.00,18.00,-973.00
2024-05-17 16:10:27.760273,0,-1,-7,0,0,0,73,75,133,100,63,192.06,204,-38.00,60.00,-986.00
2024-05-17 16:10:27.826234,0,-2,-7,0,0,0,73,75,132,100,63,192.00,204,8.00,22.00,-998.00
2024-05-17 16:10:27.877376,0,-1,-7,0,0,0,73,75,132,100,63,192.04,204,-42.00,9.00,-973.00
2024-05-17 16:10:27.979760,0,-1,-7,0,0,0,73,75,130,100,63,191.96,205,-19.00,14.00,-1019.00
2024-05-17 16:10:28.169956,0,-1,-7,0,0,0,73,75,129,100,63,192.02,205,-41.00,4.00,-1007.00
2024-05-17 16:10:28.183975,0,0,-7,0,0,0,73,75,129,100,63,191.96,205,5.00,8.00,-1054.00
2024-05-17 16:10:28.374695,0,0,-7,0,0,0,73,75,129,100,63,191.93,205,-36.00,6.00,-999.00
2024-05-17 16:10:28.387947,0,0,-7,0,0,0,73,75,129,100,63,191.99,205,11.00,17.00,-1093.00
2024-05-17 16:10:28.489461,0,0,-7,0,0,0,73,75,128,100,63,192.02,205,5.00,14.00,-915.00
2024-05-17 16:10:28.681755,0,0,-7,0,0,0,73,75,128,100,63,191.92,205,25.00,-15.00,-1039.00
2024-05-17 16:10:28.697004,0,0,-2,0,0,0,73,75,128,100,63,191.95,205,-21.00,-1.00,-989.00
2024-05-17 16:10:28.795289,0,0,3,0,0,0,73,75,128,100,63,192.01,205,-11.00,8.00,-1051.00
2024-05-17 16:10:28.988955,0,0,9,0,0,0,73,75,128,100,63,192.02,205,25.00,-22.00,-950.00
2024-05-17 16:10:29.002384,0,0,15,0,0,0,73,75,128,100,63,191.95,206,-1.00,-6.00,-1068.00
2024-05-17 16:10:29.101628,0,0,21,0,0,0,73,75,128,100,63,191.92,206,-46.00,37.00,-1017.00
2024-05-17 16:10:29.296279,0,0,27,0,0,0,73,75,129,100,63,191.92,206,37.00,5.00,-993.00
2024-05-17 16:10:29.306983,0,-1,33,0,0,0,73,75,131,100,63,192.08,206,0.00,20.00,-962.00
2024-05-17 16:10:29.408048,0,-1,39,0,0,0,73,75,131,100,63,192.02,206,16.00,-18.00,-1035.00
2024-05-17 16:10:29.603446,0,0,45,0,0,0,73,75,133,100,63,192.11,206,24.00,23.00,-953.00
2024-05-17 16:10:29.612124,0,-1,51,0,0,0,73,75,134,100,63,192.04,206,-36.00,5.00,-991.00
2024-05-17 16:10:29.714025,0,0,57,0,0,0,73,75,135,100,62,192.04,206,28.00,2.00,-1062.00
2024-05-17 16:10:29.910485,0,0,63,0,0,0,73,75,136,100,62,192.11,206,39.00,-2.00,-1008.00
2024-05-17 16:10:29.918009,0,0,69,0,0,0,73,75,137,100,62,192.09,206,31.00,16.00,-1001.00
2024-05-17 16:10:30.019820,1,0,75,0,0,0,73,75,139,100,62,192.07,207,31.00,49.00,-899.00
2024-05-17 16:10:30.223611,1,-1,81,0,0,0,73,75,140,100,62,192.06,207,36.00,40.00,-946.00
2024-05-17 16:10:30.224743,1,-1,87,0,0,0,73,75,139,100,62,192.10,207,61.00,9.00,-903.00
2024-05-17 16:10:30.422521,1,-1,94,0,0,0,73,75,139,100,62,192.09,207,-6.00,22.00,-988.00
2024-05-17 16:10:30.427853,1,-1,100,0,0,0,73,75,138,100,62,192.03,207,15.00,28.00,-948.00
2024-05-17 16:10:30.627255,1,-1,106,0,0,0,73,75,137,100,62,191.98,207,14.00,13.00,-988.00
2024-05-17 16:10:30.631883,0,0,112,0,0,0,73,75,135,100,62,191.98,207,67.00,19.00,-990.00
2024-05-17 16:10:30.832014,0,0,119,0,0,0,73,75,135,100,62,191.96,207,61.00,-20.00,-1046.00
2024-05-17 16:10:30.837445,0,0,125,0,0,0,73,75,134,100,62,191.99,207,44.00,1.00,-1053.00
2024-05-17 16:10:30.937971,0,1,131,0,0,0,73,75,133,100,62,191.95,207,-1.00,1.00,-1033.00
2024-05-17 16:10:31.040015,0,1,137,0,0,0,73,75,133,100,62,191.99,208,1.00,8.00,-984.00
2024-05-17 16:10:31.142396,0,1,143,0,0,0,73,75,133,100,62,192.06,208,-34.00,13.00,-1000.00
2024-05-17 16:10:31.243924,0,1,149,0,0,0,73,75,133,100,62,192.02,208,-37.00,12.00,-970.00
2024-05-17 16:10:31.346118,0,1,155,0,0,0,73,75,132,100,62,192.04,208,45.00,-41.00,-964.00
2024-05-17 16:10:31.447833,0,1,161,0,0,0,73,75,132,100,62,192.07,208,-9.00,-5.00,-1059.00
2024-05-17 16:10:31.651242,-1,1,167,0,0,0,73,75,133,100,62,191.97,208,-2.00,-10.00,-1069.00
2024-05-17 16:10:31.651792,-1,0,173,0,0,0,73,75,133,100,62,192.06,208,29.00,-10.00,-1054.00
2024-05-17 16:10:31.703079,-1,0,179,0,0,0,73,75,133,100,62,192.00,208,-40.00,0.00,-1049.00
2024-05-17 16:10:31.856071,0,0,-174,0,0,0,73,75,134,100,62,191.97,208,-11.00,4.00,-1037.00
2024-05-17 16:10:31.907117,-1,0,-168,0,0,0,73,75,134,100,62,192.03,208,-24.00,24.00,-1006.00
2024-05-17 16:10:32.061346,-1,0,-162,0,0,0,73,75,134,100,62,191.99,209,30.00,-15.00,-971.00
2024-05-17 16:10:32.111127,-1,0,-156,0,0,0,73,75,133,100,62,192.03,209,-4.00,-46.00,-990.00
2024-05-17 16:10:32.213191,-1,1,-150,0,0,0,73,75,133,100,62,192.03,209,1.00,-29.00,-1059.00
2024-05-17 16:10:32.315424,-1,1,-144,0,0,0,73,75,133,100,62,191.95,209,17.00,-14.00,-1027.00
2024-05-17 16:10:32.417139,-1,1,-138,0,0,0,73,75,133,100,62,191.97,209,16.00,-35.00,-1025.00
2024-05-17 16:10:32.573122,-1,1,-132,0,0,0,73,75,133,100,62,191.97,209,9.00,-32.00,-1058.00
2024-05-17 16:10:32.622043,-1,1,-126,0,0,0,73,75,133,100,62,191.99,209,-14.00,15.00,-993.00
2024-05-17 16:10:32.777638,-1,1,-120,0,0,0,73,75,134,100,62,192.01,209,19.00,12.00,-1032.00
2024-05-17 16:10:32.826317,-1,1,-114,0,0,0,73,75,134,100,62,191.92,209,14.00,16.00,-926.00
2024-05-17 16:10:32.987612,-1,0,-108,0,0,0,73,75,134,100,62,192.00,209,-26.00,-16.00,-946.00
2024-05-17 16:10:33.029180,-1,1,-102,0,0,0,73,75,135,100,62,192.07,210,-7.00,-17.00,-986.00
2024-05-17 16:10:33.187819,-1,1,-96,0,0,0,73,75,135,100,62,192.01,210,-25.00,-8.00,-1002.00
2024-05-17 16:10:33.233055,-1,0,-90,0,0,0,73,75,136,100,62,191.95,210,16.00,-23.00,-1007.00
2024-05-17 16:10:33.392512,-1,0,-84,0,0,0,73,75,136,100,62,191.96,210,10.00,0.00,-965.00
2024-05-17 16:10:33.437070,-1,1,-72,0,0,0,73,75,137,100,62,192.09,210,-7.00,-24.00,-1013.00
2024-05-17 16:10:33.597417,-1,0,-66,0,0,0,73,75,138,100,62,192.05,210,1.00,-1.00,-982.00
2024-05-17 16:10:33.641312,-1,0,-60,0,0,0,73,75,139,100,62,192.00,210,-49.00,-28.00,-1090.00
2024-05-17 16:10:33.801641,-1,0,-54,0,0,0,73,75,139,100,62,192.04,210,-7.00,-11.00,-993.00
2024-05-17 16:10:33.845578,-1,0,-47,0,0,0,73,75,140,110,62,192.07,210,-48.00,-9.00,-975.00
2024-05-17 16:10:34.006439,-1,0,-41,0,0,0,73,75,141,110,62,192.15,211,-9.00,-21.00,-971.00
2024-05-17 16:10:34.049141,-1,0,-35,0,0,0,73,75,142,110,62,192.02,211,-16.00,-20.00,-1062.00
2024-05-17 16:10:34.226294,-1,0,-28,0,0,0,73,75,141,110,62,192.06,211,-57.00,11.00,-1027.00
2024-05-17 16:10:34.259766,0,0,-23,0,0,0,73,75,142,110,62,192.15,211,4.00,-2.00,-944.00
2024-05-17 16:10:34.355173,0,0,-19,0,0,0,73,75,141,110,62,192.15,211,11.00,8.00,-957.00
2024-05-17 16:10:34.518449,0,0,-15,0,0,0,73,75,141,110,62,192.14,211,-63.00,27.00,-981.00
2024-05-17 16:10:34.558878,0,0,-13,0,0,0,73,75,140,110,62,192.15,211,-8.00,12.00,-1005.00
2024-05-17 16:10:34.725858,0,0,-11,0,0,0,73,75,140,110,62,192.08,211,25.00,-4.00,-988.00
2024-05-17 16:10:34.765962,0,0,-10,0,0,0,73,75,139,110,62,192.11,211,-17.00,13.00,-983.00
2024-05-17 16:10:34.865053,0,0,-9,0,0,0,73,75,139,110,62,192.13,211,-18.00,26.00,-1080.00
2024-05-17 16:10:34.967286,0,0,-8,0,0,0,73,75,138,100,62,192.05,212,30.00,15.00,-1007.00
2024-05-17 16:10:35.133549,0,0,-8,0,0,0,73,75,138,100,62,192.07,212,60.00,5.00,-1019.00
2024-05-17 16:10:35.171915,0,0,-8,0,0,0,73,75,137,100,62,192.03,212,27.00,-5.00,-1002.00
2024-05-17 16:10:35.340623,0,0,-8,0,0,0,73,75,137,100,62,192.11,212,-13.00,40.00,-986.00
2024-05-17 16:10:35.375462,0,-1,-8,0,0,0,73,75,136,100,62,192.05,212,29.00,23.00,-978.00
2024-05-17 16:10:35.542688,0,0,-8,0,0,0,72,75,136,100,62,192.12,212,-26.00,23.00,-983.00
2024-05-17 16:10:35.542894,0,0,-8,0,0,0,72,75,136,100,62,192.06,212,-2.00,26.00,-966.00
2024-05-17 16:10:35.630423,0,0,-8,0,0,0,72,75,136,100,62,192.03,212,-21.00,17.00,-975.00
2024-05-17 16:10:35.747393,0,0,-8,0,0,0,72,75,136,100,61,191.94,212,-28.00,61.00,-963.00
2024-05-17 16:10:35.833908,0,0,-9,0,0,0,72,75,136,100,61,192.05,212,-33.00,32.00,-953.00
2024-05-17 16:10:35.952111,0,0,-8,0,0,0,72,75,136,100,61,192.11,213,20.00,-19.00,-960.00
2024-05-17 16:10:36.037798,0,0,-8,0,0,0,72,75,136,100,61,192.05,213,-29.00,33.00,-999.00
2024-05-17 16:10:36.157479,0,0,-8,0,0,0,72,75,137,100,61,192.08,213,-12.00,10.00,-886.00
2024-05-17 16:10:36.241820,0,0,-8,0,0,0,72,75,137,100,61,191.99,213,21.00,-16.00,-973.00
2024-05-17 16:10:36.361847,0,0,-8,0,0,0,72,75,137,100,61,192.05,213,-11.00,0.00,-989.00
2024-05-17 16:10:36.446174,0,-1,-8,0,0,0,72,74,136,100,61,192.09,213,0.00,26.00,-1019.00
2024-05-17 16:10:36.566549,0,-1,-8,0,0,0,72,74,136,100,61,192.11,213,6.00,54.00,-915.00
2024-05-17 16:10:36.649773,0,-1,-8,0,0,0,72,74,136,100,61,192.08,213,19.00,-14.00,-1018.00
2024-05-17 16:10:36.771287,0,-1,-8,0,0,0,72,74,136,100,61,192.06,213,-41.00,27.00,-1077.00
2024-05-17 16:10:36.857231,0,-1,-8,0,0,0,72,74,137,100,61,192.11,213,-20.00,9.00,-968.00
2024-05-17 16:10:36.956019,0,-1,-8,0,0,0,72,74,137,100,61,192.06,214,-34.00,27.00,-945.00
2024-05-17 16:10:37.057688,0,0,-10,0,0,0,72,74,137,100,61,192.02,214,-59.00,46.00,-1009.00
2024-05-17 16:10:37.159617,0,0,-15,0,0,0,72,74,138,100,61,192.06,214,-82.00,41.00,-968.00
2024-05-17 16:10:37.283217,-1,0,-21,0,0,0,72,74,138,100,61,192.08,214,8.00,-3.00,-906.00
2024-05-17 16:10:37.363749,-1,0,-27,0,0,0,72,74,138,100,61,192.09,214,-29.00,2.00,-988.00
2024-05-17 16:10:37.487949,0,0,-33,0,0,0,73,75,138,100,61,191.95,214,-47.00,7.00,-960.00
2024-05-17 16:10:37.568505,0,0,-38,0,0,0,73,75,139,100,61,192.04,214,-24.00,-18.00,-1005.00
2024-05-17 16:10:37.669972,0,0,-44,0,0,0,73,75,137,100,61,192.08,214,-46.00,-5.00,-1116.00
2024-05-17 16:10:37.795130,0,-1,-50,0,0,0,73,75,136,100,61,192.14,214,19.00,-2.00,-1051.00
2024-05-17 16:10:37.873553,0,0,-56,0,0,0,73,75,136,100,61,192.01,214,7.00,3.00,-1022.00
2024-05-17 16:10:38.000056,0,-1,-62,0,0,0,73,75,136,100,61,192.07,215,-22.00,11.00,-1003.00
2024-05-17 16:10:38.078853,0,0,-67,0,0,0,73,75,136,100,61,192.07,215,-32.00,22.00,-978.00
2024-05-17 16:10:38.204859,0,0,-73,0,0,0,73,75,137,100,61,192.06,215,-2.00,-10.00,-1021.00
2024-05-17 16:10:38.282829,0,0,-80,0,0,0,73,75,138,100,61,192.08,215,-4.00,-33.00,-1021.00
2024-05-17 16:10:38.384813,0,0,-86,0,0,0,73,75,136,100,61,192.11,215,4.00,1.00,-1017.00
2024-05-17 16:10:38.512096,0,0,-92,0,0,0,73,75,136,100,61,192.01,215,-22.00,4.00,-971.00
2024-05-17 16:10:38.589003,0,0,-98,0,0,0,73,75,136,100,61,192.07,215,19.00,-14.00,-994.00
2024-05-17 16:10:38.716785,0,0,-105,0,0,0,73,75,135,100,61,191.96,215,-18.00,-20.00,-1012.00
2024-05-17 16:10:38.792872,0,0,-111,0,0,0,73,75,135,100,61,191.95,215,-4.00,19.00,-950.00
2024-05-17 16:10:38.922860,0,1,-118,0,0,0,73,75,135,100,61,192.02,215,29.00,-43.00,-977.00
2024-05-17 16:10:38.996628,0,0,-124,0,0,0,73,75,135,100,61,192.02,216,-12.00,-25.00,-1110.00
2024-05-17 16:10:39.047581,0,1,-131,0,0,0,73,75,135,100,61,191.94,216,-17.00,-7.00,-932.00
2024-05-17 16:10:39.228992,0,1,-137,0,0,0,73,75,135,100,61,192.01,216,0.00,-44.00,-988.00
2024-05-17 16:10:39.251552,0,1,-143,0,0,0,73,75,136,100,61,192.03,216,-11.00,10.00,-1022.00
2024-05-17 16:10:39.433748,0,1,-150,0,0,0,73,75,137,100,61,191.99,216,-25.00,-6.00,-995.00
2024-05-17 16:10:39.506759,0,1,-156,0,0,0,73,75,137,100,61,192.02,216,-31.00,5.00,-982.00
2024-05-17 16:10:39.557491,0,1,-163,0,0,0,73,75,138,100,61,191.99,216,-10.00,-42.00,-1019.00
2024-05-17 16:10:39.740988,0,1,-169,0,0,0,73,75,138,100,61,192.08,216,46.00,-54.00,-1003.00
2024-05-17 16:10:39.761471,0,1,-176,0,0,0,73,75,139,100,61,192.07,216,27.00,11.00,-978.00
2024-05-17 16:10:39.945672,1,1,177,0,0,0,73,75,140,100,61,192.01,216,4.00,-4.00,-983.00
2024-05-17 16:10:39.965924,0,1,170,0,0,0,73,75,139,110,61,192.04,217,42.00,-5.00,-947.00
2024-05-17 16:10:40.067537,0,0,164,0,0,0,73,75,138,110,61,192.12,217,40.00,-1.00,-1006.00
2024-05-17 16:10:40.252841,0,0,157,0,0,0,73,75,137,100,61,192.02,217,-26.00,36.00,-1008.00
2024-05-17 16:10:40.271285,0,0,151,0,0,0,73,75,137,100,61,192.00,217,31.00,22.00,-1056.00
2024-05-17 16:10:40.458022,0,0,144,0,0,0,73,75,137,100,61,192.06,217,1.00,25.00,-974.00
2024-05-17 16:10:40.475791,0,0,138,0,0,0,73,75,137,100,61,192.06,217,38.00,-25.00,-1013.00
2024-05-17 16:10:40.662441,0,0,132,0,0,0,73,75,137,100,61,192.08,217,0.00,34.00,-1029.00
2024-05-17 16:10:40.689055,0,0,125,0,0,0,73,75,136,100,60,192.02,217,11.00,7.00,-990.00
2024-05-17 16:10:40.781450,0,0,118,0,0,0,73,75,136,100,60,192.06,217,13.00,3.00,-1051.00
2024-05-17 16:10:40.969657,1,0,112,0,0,0,73,75,136,100,60,191.98,217,11.00,30.00,-1032.00
2024-05-17 16:10:40.985446,1,0,106,0,0,0,73,75,136,100,60,191.98,218,28.00,4.00,-1011.00
2024-05-17 16:10:41.178085,1,0,100,0,0,0,73,75,136,100,60,191.99,218,-28.00,26.00,-1023.00
2024-05-17 16:10:41.189399,0,0,94,0,0,0,73,75,135,100,60,191.96,218,10.00,30.00,-976.00
2024-05-17 16:10:41.380297,1,0,87,0,0,0,73,75,135,100,60,192.01,218,-9.00,6.00,-1094.00
2024-05-17 16:10:41.393463,0,-1,81,0,0,0,73,75,135,100,60,191.98,218,19.00,-4.00,-1015.00
2024-05-17 16:10:41.584033,0,-1,75,0,0,0,72,75,135,100,60,191.96,218,-13.00,21.00,-1018.00
2024-05-17 16:10:41.597350,1,-1,69,0,0,0,72,75,134,100,60,192.04,218,-10.00,33.00,-978.00
2024-05-17 16:10:41.788855,0,-1,62,0,0,0,72,75,133,100,60,192.01,218,-27.00,39.00,-954.00
2024-05-17 16:10:41.801413,0,-1,56,0,0,0,72,75,131,100,60,191.99,218,28.00,-6.00,-1006.00
2024-05-17 16:10:41.993688,0,-1,50,0,0,0,72,75,130,100,60,191.99,218,15.00,49.00,-1014.00
2024-05-17 16:10:42.005640,0,0,43,0,0,0,72,75,130,100,60,191.96,219,-26.00,43.00,-978.00
2024-05-17 16:10:42.203819,0,0,37,0,0,0,72,75,129,100,60,192.02,219,28.00,28.00,-1014.00
2024-05-17 16:10:42.209909,0,0,31,0,0,0,72,75,128,100,60,192.02,219,-15.00,29.00,-955.00
2024-05-17 16:10:42.403235,0,0,25,0,0,0,72,75,128,100,60,191.98,219,-32.00,42.00,-1056.00
2024-05-17 16:10:42.414188,0,-1,19,0,0,0,72,75,129,100,60,191.99,219,0.00,18.00,-1080.00
2024-05-17 16:10:42.607865,0,-1,13,0,0,0,73,75,129,100,60,192.03,219,-16.00,27.00,-967.00
2024-05-17 16:10:42.617266,0,-1,9,0,0,0,73,75,130,100,60,192.00,219,-17.00,12.00,-1038.00
2024-05-17 16:10:42.812819,0,0,5,0,0,0,73,75,130,100,60,192.11,219,-4.00,7.00,-1005.00
2024-05-17 16:10:42.821308,0,0,2,0,0,0,73,75,132,100,60,192.07,219,32.00,22.00,-921.00
2024-05-17 16:10:42.923343,0,0,0,0,0,0,73,75,133,100,60,192.09,219,1.00,0.00,-1040.00
2024-05-17 16:10:43.120540,0,0,-1,0,0,0,73,75,134,100,60,192.03,220,-6.00,-9.00,-1031.00
2024-05-17 16:10:43.127357,0,0,-2,0,0,0,73,75,136,100,60,192.05,220,-10.00,13.00,-966.00
2024-05-17 16:10:43.324832,0,0,-3,0,0,0,73,75,137,100,60,192.12,220,-31.00,12.00,-1028.00
2024-05-17 16:10:43.333343,0,0,-4,0,0,0,73,75,137,100,60,192.05,220,16.00,23.00,-1016.00
2024-05-17 16:10:43.382838,0,-1,-5,0,0,0,73,75,139,100,60,192.10,220,10.00,1.00,-1065.00
2024-05-17 16:10:43.535331,0,-1,-5,0,0,0,72,75,141,100,60,192.02,220,2.00,10.00,-1066.00
2024-05-17 16:10:43.586482,0,-1,-6,0,0,0,72,75,141,110,60,192.11,220,-28.00,-19.00,-1095.00
2024-05-17 16:10:43.734266,0,0,-6,0,0,0,72,75,141,110,60,192.18,220,-21.00,-1.00,-1041.00
2024-05-17 16:10:43.790925,0,0,-7,0,0,0,72,75,142,110,60,192.03,220,20.00,-3.00,-1037.00
2024-05-17 16:10:43.939559,0,0,-7,0,0,0,72,75,142,110,60,192.03,220,-9.00,-1.00,-968.00
2024-05-17 16:10:43.995711,0,0,-7,0,0,0,72,75,142,110,60,192.10,221,-22.00,-1.00,-953.00
2024-05-17 16:10:44.144144,0,0,-7,0,0,0,72,75,141,110,60,192.09,221,-4.00,15.00,-960.00
2024-05-17 16:10:44.199743,0,0,-7,0,0,0,72,75,141,110,60,192.10,221,-16.00,12.00,-978.00
2024-05-17 16:10:44.348966,0,0,-7,0,0,0,72,75,140,110,60,192.03,221,-20.00,-8.00,-959.00
2024-05-17 16:10:44.403341,-1,0,-7,0,0,0,72,75,140,110,60,192.02,221,-23.00,17.00,-1016.00
2024-05-17 16:10:44.505705,-1,0,-7,0,0,0,73,74,140,110,60,192.03,221,-48.00,21.00,-1000.00
2024-05-17 16:10:44.655922,-1,0,-7,0,0,0,73,74,140,110,60,192.02,221,3.00,-21.00,-1020.00
2024-05-17 16:10:44.709379,0,0,-7,0,0,0,73,74,139,110,60,191.96,221,3.00,3.00,-1007.00
2024-05-17 16:10:44.863212,0,0,-7,0,0,0,73,74,138,110,60,192.07,221,-11.00,-20.00,-1054.00
2024-05-17 16:10:44.913605,-1,0,-7,0,0,0,73,74,138,100,60,192.05,221,-1.00,-2.00,-902.00
2024-05-17 16:10:45.069729,0,0,-7,0,0,0,73,74,138,100,60,192.02,222,16.00,-39.00,-1032.00
2024-05-17 16:10:45.117401,0,0,-7,0,0,0,73,74,136,100,60,192.03,222,-5.00,-6.00,-1017.00
2024-05-17 16:10:45.270686,-1,0,-7,0,0,0,73,74,136,100,60,191.95,222,-18.00,-11.00,-975.00
2024-05-17 16:10:45.321353,-1,0,-7,0,0,0,73,74,135,100,60,191.99,222,-35.00,-16.00,-995.00
2024-05-17 16:10:45.423274,-1,0,-7,0,0,0,73,74,135,100,60,192.04,222,-39.00,38.00,-1025.00
2024-05-17 16:10:45.577681,0,0,-7,0,0,0,72,75,135,100,60,192.02,222,-18.00,4.00,-1015.00
2024-05-17 16:10:45.627278,0,0,-7,0,0,0,72,75,134,100,60,192.02,222,-34.00,27.00,-954.00
2024-05-17 16:10:45.742197,0,0,-7,0,0,0,72,75,134,100,60,192.02,222,-5.00,-33.00,-1006.00
2024-05-17 16:10:45.831135,0,0,-7,0,0,0,72,75,134,100,60,192.04,222,-15.00,-31.00,-1038.00
2024-05-17 16:10:45.933149,0,0,-7,0,0,0,72,75,134,100,60,192.12,222,67.00,-12.00,-1589.00
2024-05-17 16:10:46.035049,0,-1,-7,0,0,-3,72,75,142,100,60,192.12,223,-85.00,51.00,-1674.00
2024-05-17 16:10:46.191929,0,-6,-9,0,0,-10,72,75,204,110,60,192.26,223,-63.00,363.00,-1052.00
2024-05-17 16:10:46.239141,-3,-81,-9,-1,-4,-11,72,75,183,120,60,192.31,223,-35.00,581.00,-1027.00
2024-05-17 16:10:46.398526,3,149,-2,-2,-10,1,72,75,422,130,60,192.32,223,-110.00,435.00,-1161.00
2024-05-17 16:10:46.443112,4,33,-15,-1,-5,12,72,75,146,120,60,192.15,223,24.00,-160.00,-1542.00
2024-05-17 16:10:46.601717,0,-2,-20,-1,-2,10,72,74,136,110,60,191.85,223,-50.00,62.00,-1394.00
2024-05-17 16:10:46.647059,0,2,-30,-1,-2,7,72,74,130,100,60,192.14,223,-13.00,3.00,-1357.00
2024-05-17 16:10:46.808640,0,2,-39,-1,-2,3,72,74,127,90,59,191.97,223,12.00,-4.00,-1264.00
2024-05-17 16:10:46.851006,0,0,-43,0,-1,1,72,74,129,90,59,191.97,223,-28.00,0.00,-1124.00
2024-05-17 16:10:47.012707,0,0,-42,0,-1,0,72,74,129,90,59,191.93,223,-1.00,2.00,-989.00
2024-05-17 16:10:47.012783,0,0,-35,0,-1,-1,72,74,130,90,59,191.94,224,-6.00,2.00,-1044.00
2024-05-17 16:10:47.107696,0,0,-23,0,-1,-1,72,74,132,90,59,191.96,224,20.00,16.00,-1048.00
2024-05-17 16:10:47.217341,0,1,-10,0,-1,-1,72,74,135,90,59,192.00,224,-14.00,26.00,-1081.00
2024-05-17 16:10:47.319168,0,3,-5,0,0,-1,72,74,138,100,59,192.08,224,-30.00,42.00,-987.00
2024-05-17 16:10:47.412389,0,2,-5,0,0,-1,72,74,140,100,59,192.11,224,-2.00,16.00,-948.00
2024-05-17 16:10:47.565033,0,0,-5,0,0,0,72,75,142,100,59,192.14,224,-19.00,22.00,-885.00
2024-05-17 16:10:47.616171,0,0,-5,0,0,0,72,75,143,100,59,192.10,224,12.00,30.00,-829.00
2024-05-17 16:10:47.729072,0,0,-5,0,0,0,72,75,143,100,59,192.14,224,-25.00,3.00,-989.00
2024-05-17 16:10:47.820203,0,0,-6,0,0,0,72,75,142,100,59,192.12,224,-6.00,22.00,-975.00
2024-05-17 16:10:47.937762,0,0,-6,0,0,0,72,75,142,100,59,192.10,225,-15.00,27.00,-947.00
2024-05-17 16:10:48.024270,0,0,-6,0,0,0,72,75,141,100,59,192.09,225,17.00,18.00,-974.00
2024-05-17 16:10:48.126583,0,0,-6,0,0,0,72,75,140,100,59,192.13,225,-11.00,0.00,-928.00
2024-05-17 16:10:48.240677,0,1,-6,0,0,0,72,75,139,100,59,192.08,225,-8.00,9.00,-1032.00
2024-05-17 16:10:48.330339,1,1,-6,0,0,0,72,75,138,100,59,192.03,225,19.00,30.00,-999.00
2024-05-17 16:10:48.433926,0,1,-6,0,0,0,72,75,138,100,59,192.05,225,22.00,-6.00,-1024.00
2024-05-17 16:10:48.534418,1,1,-6,0,0,0,73,75,138,100,59,191.99,225,12.00,2.00,-1018.00
2024-05-17 16:10:48.649590,1,1,-6,0,0,0,73,75,138,100,59,192.03,225,-6.00,20.00,-983.00
2024-05-17 16:10:48.738570,0,1,-6,0,0,0,73,75,137,100,58,192.08,225,6.00,0.00,-981.00
2024-05-17 16:10:48.854516,0,1,-6,0,0,0,73,75,137,100,58,192.09,225,36.00,-8.00,-994.00
2024-05-17 16:10:48.942190,0,0,-6,0,0,0,73,75,137,100,58,191.93,226,5.00,12.00,-1049.00
2024-05-17 16:10:49.044270,0,0,-6,0,0,0,73,75,138,100,58,192.00,226,54.00,-2.00,-1000.00
2024-05-17 16:10:49.161709,0,0,-6,0,0,0,73,75,138,100,58,192.00,226,28.00,-24.00,-1018.00
2024-05-17 16:10:49.248596,0,0,-6,0,0,0,73,75,138,100,58,192.03,226,12.00,-16.00,-1013.00
2024-05-17 16:10:49.370381,0,0,-6,0,0,0,73,75,138,100,58,192.08,226,28.00,38.00,-977.00
2024-05-17 16:10:49.452274,0,0,-6,0,0,0,73,75,139,100,58,192.01,226,-3.00,7.00,-989.00
2024-05-17 16:10:49.571261,0,0,-6,0,0,0,72,75,139,100,58,192.07,226,14.00,-43.00,-949.00
2024-05-17 16:10:49.656197,0,0,-6,0,0,0,72,75,138,100,58,192.03,226,-13.00,16.00,-993.00
2024-05-17 16:10:49.776130,0,0,-6,0,0,0,72,75,138,100,58,192.06,226,36.00,-46.00,-1003.00
2024-05-17 16:10:49.860526,0,0,-6,0,0,0,72,75,138,100,58,192.02,226,-8.00,-31.00,-1001.00
2024-05-17 16:10:49.980894,0,0,-6,0,0,0,72,75,138,100,58,192.02,227,24.00,-7.00,-1044.00
2024-05-17 16:10:50.064592,0,0,-6,0,0,0,72,75,138,100,58,192.01,227,31.00,-29.00,-1041.00
2024-05-17 16:10:50.185658,0,0,-6,0,0,0,72,75,138,100,58,192.07,227,-9.00,-7.00,-1062.00
2024-05-17 16:10:50.268625,0,0,-6,0,0,0,72,75,137,100,58,192.07,227,-13.00,-11.00,-1041.00
2024-05-17 16:10:50.391177,0,0,-6,0,0,0,72,75,137,100,58,192.01,227,13.00,-43.00,-1013.00
2024-05-17 16:10:50.473214,0,0,-6,0,0,0,72,75,137,100,58,192.06,227,-34.00,65.00,-1001.00
2024-05-17 16:10:50.596372,0,0,-6,0,0,0,73,75,137,100,58,192.02,227,6.00,-10.00,-920.00
2024-05-17 16:10:50.676152,0,0,-6,0,0,0,73,75,137,100,58,192.03,227,-27.00,-17.00,-954.00
2024-05-17 16:10:50.805591,0,0,-7,0,0,0,73,75,136,100,57,191.99,227,36.00,-30.00,-969.00
2024-05-17 16:10:50.880317,0,0,-7,0,0,0,73,75,136,100,57,191.99,227,-3.00,-4.00,-1088.00
2024-05-17 16:10:51.005084,0,0,-7,0,0,0,73,75,135,100,57,192.02,228,21.00,-1.00,-1020.00
2024-05-17 16:10:51.084206,0,0,-7,0,0,0,73,75,135,100,57,191.98,228,4.00,41.00,-995.00
2024-05-17 16:10:51.135106,0,0,-7,0,0,0,73,75,135,100,57,191.95,228,-18.00,4.00,-909.00
2024-05-17 16:10:51.312681,0,0,-7,0,0,0,73,75,135,100,57,191.98,228,17.00,-23.00,-1028.00
2024-05-17 16:10:51.339108,0,0,-7,0,0,0,73,75,134,100,57,191.95,228,-5.00,-11.00,-982.00
2024-05-17 16:10:51.440868,0,0,-7,0,0,0,73,75,134,100,57,191.96,228,15.00,-11.00,-964.00
2024-05-17 16:10:51.619829,0,0,-7,0,0,0,72,74,134,100,57,192.00,228,-9.00,26.00,-952.00
2024-05-17 16:10:51.644869,0,0,-7,0,0,0,72,74,134,100,57,192.06,228,-6.00,12.00,-1061.00
2024-05-17 16:10:51.824785,0,0,-7,0,0,0,72,74,134,100,57,192.10,228,14.00,-30.00,-1024.00
2024-05-17 16:10:51.848905,0,0,-7,0,0,0,72,74,134,100,57,192.06,228,0.00,23.00,-1039.00
2024-05-17 16:10:52.028781,0,0,-7,0,0,0,72,74,135,100,57,192.09,229,36.00,-5.00,-990.00
2024-05-17 16:10:52.052840,0,0,-7,0,0,0,72,74,135,100,57,192.05,229,-30.00,25.00,-1002.00
2024-05-17 16:10:52.234552,0,0,-7,0,0,0,72,74,135,100,57,192.07,229,-27.00,19.00,-1017.00
2024-05-17 16:10:52.256858,0,0,-7,0,0,0,72,74,135,100,57,192.02,229,6.00,-6.00,-1049.00
2024-05-17 16:10:52.372859,0,0,-7,0,0,0,72,74,137,100,57,192.06,229,16.00,-23.00,-1001.00
2024-05-17 16:10:52.461317,0,0,-7,0,0,0,72,74,137,100,57,192.08,229,-2.00,-1.00,-959.00
2024-05-17 16:10:52.643067,0,0,-7,0,0,-3,72,75,139,100,57,192.17,229,-68.00,18.00,-1572.00
2024-05-17 16:10:52.665320,0,1,-10,0,0,-9,72,75,149,100,57,192.24,229,2.00,-62.00,-1640.00
2024-05-17 16:10:52.766859,6,58,-12,0,3,-13,72,75,397,120,57,192.48,229,-37.00,393.00,-1339.00
2024-05-17 16:10:52.950270,1,-175,1,1,10,-1,72,75,166,130,57,192.46,229,-99.00,711.00,-983.00
2024-05-17 16:10:52.974583,-8,-54,-12,1,5,10,72,75,231,120,57,192.57,230,-157.00,603.00,-1047.00
2024-05-17 16:10:53.072663,1,7,-20,0,3,11,72,75,151,110,57,192.12,230,-16.00,117.00,-1121.00
2024-05-17 16:10:53.258292,0,0,-27,1,4,8,72,75,140,100,57,192.11,230,10.00,20.00,-1505.00
2024-05-17 16:10:53.276717,-1,-4,-30,0,3,4,72,75,135,90,57,192.10,230,20.00,-72.00,-1363.00
2024-05-17 16:10:53.462353,-1,-3,-25,0,2,1,72,75,133,90,57,192.05,230,36.00,-23.00,-1130.00
2024-05-17 16:10:53.480718,0,-2,-14,0,2,0,72,75,131,90,57,192.20,230,-6.00,-25.00,-1072.00
2024-05-17 16:10:53.669167,0,-1,-6,0,1,0,72,75,132,90,57,192.12,230,-15.00,35.00,-1092.00
2024-05-17 16:10:53.684647,0,-1,-5,0,2,-1,72,75,135,90,57,192.07,230,-59.00,30.00,-998.00
2024-05-17 16:10:53.871773,-1,-1,-5,0,2,-1,72,75,136,90,57,192.05,230,-7.00,-13.00,-1046.00
2024-05-17 16:10:53.888672,-1,-2,-5,0,2,-1,72,75,138,90,57,192.10,230,-32.00,9.00,-927.00
2024-05-17 16:10:54.077256,-1,-4,-6,0,2,-1,72,75,141,90,57,192.02,231,-27.00,0.00,-955.00
2024-05-17 16:10:54.093338,-1,-5,-6,0,1,0,72,75,142,90,57,192.11,231,10.00,2.00,-982.00
2024-05-17 16:10:54.281466,-1,-4,-6,0,0,0,72,75,142,90,57,192.08,231,-16.00,10.00,-929.00
2024-05-17 16:10:54.296626,-1,-3,-6,0,0,0,72,75,142,100,57,192.12,231,-21.00,23.00,-950.00
2024-05-17 16:10:54.486335,-1,-2,-6,0,0,0,72,75,143,100,57,192.07,231,-23.00,34.00,-1031.00
2024-05-17 16:10:54.501929,0,-2,-6,0,0,0,72,75,143,100,57,192.14,231,-38.00,19.00,-1067.00
2024-05-17 16:10:54.694284,0,-2,-6,0,0,0,72,75,143,100,57,192.11,231,-25.00,5.00,-1046.00
2024-05-17 16:10:54.708129,0,-2,-6,0,0,0,72,75,142,100,56,192.10,231,0.00,8.00,-1019.00
2024-05-17 16:10:54.807865,0,-2,-6,0,0,0,72,75,142,100,56,192.13,231,-26.00,20.00,-961.00
2024-05-17 16:10:54.998322,0,-2,-6,0,0,0,72,75,142,100,56,192.07,231,-16.00,43.00,-925.00
2024-05-17 16:10:55.011781,0,-2,-6,0,0,0,72,75,141,100,56,192.10,232,-9.00,11.00,-903.00
2024-05-17 16:10:55.062514,0,-2,-6,0,0,0,72,75,141,100,56,192.09,232,30.00,-29.00,-1004.00
2024-05-17 16:10:55.203108,0,-2,-6,0,0,0,72,75,140,90,56,192.07,232,-27.00,33.00,-1028.00
2024-05-17 16:10:55.266709,0,-1,-6,0,0,0,72,75,139,90,56,192.04,232,-38.00,23.00,-1010.00
2024-05-17 16:10:55.407848,0,-1,-6,0,0,0,72,75,139,90,56,192.06,232,-18.00,14.00,-1057.00
2024-05-17 16:10:55.470617,0,-1,-6,0,0,0,72,75,139,90,56,192.12,232,6.00,-11.00,-952.00
2024-05-17 16:10:55.614089,0,-1,-6,0,0,0,72,75,139,90,56,192.09,232,3.00,7.00,-1029.00
2024-05-17 16:10:55.674599,0,-1,-6,0,0,0,72,75,139,90,56,192.10,232,-30.00,8.00,-966.00
2024-05-17 16:10:55.817508,0,-1,-6,0,0,0,72,75,139,90,56,192.11,232,-31.00,14.00,-954.00
2024-05-17 16:10:55.879816,0,-1,-6,0,0,0,72,75,138,90,56,192.13,232,-23.00,40.00,-947.00
2024-05-17 16:10:55.981032,0,-1,-7,0,0,0,72,75,139,90,56,192.05,233,-14.00,7.00,-1046.00
2024-05-17 16:10:56.125650,0,-2,-7,0,0,0,72,75,139,90,56,192.03,233,-16.00,26.00,-948.00
2024-05-17 16:10:56.186771,0,-2,-7,0,0,0,72,75,138,90,56,192.01,233,-6.00,6.00,-1050.00
2024-05-17 16:10:56.286657,-1,-2,-7,0,0,0,72,75,138,90,56,192.06,233,2.00,6.00,-1022.00
2024-05-17 16:10:56.434272,0,-2,-7,0,0,0,72,75,137,90,56,191.97,233,15.00,5.00,-963.00
2024-05-17 16:10:56.491448,0,-1,-7,0,0,0,72,75,137,90,56,192.00,233,-60.00,39.00,-1059.00
2024-05-17 16:10:56.636774,0,-1,-7,0,0,0,72,74,137,90,56,192.07,233,-8.00,9.00,-1017.00
2024-05-17 16:10:56.694772,0,-1,-7,0,0,0,72,74,137,90,55,192.05,233,-13.00,14.00,-1037.00
2024-05-17 16:10:56.841546,0,-2,-7,0,0,0,72,74,138,90,55,191.97,233,-35.00,13.00,-1036.00
2024-05-17 16:10:56.902166,-1,-1,-7,0,0,0,72,74,139,90,55,192.09,233,-23.00,2.00,-980.00
2024-05-17 16:10:57.001179,-1,-1,-7,0,0,0,72,74,139,90,55,192.08,234,-26.00,6.00,-971.00
2024-05-17 16:10:57.153497,-1,-1,-7,0,0,0,72,74,139,90,55,192.10,234,-46.00,3.00,-1051.00
2024-05-17 16:10:57.204591,-1,-1,-7,0,0,0,72,74,140,90,55,192.03,234,-14.00,-25.00,-988.00
2024-05-17 16:10:57.354059,-1,-1,-7,0,0,0,72,74,140,90,55,192.09,234,9.00,-27.00,-981.00
2024-05-17 16:10:57.408980,-1,0,-7,0,-1,0,72,74,140,100,55,192.08,234,-15.00,32.00,-981.00
2024-05-17 16:10:57.558409,-2,0,-7,0,-1,0,72,74,140,100,55,191.99,234,-46.00,7.00,-1012.00
2024-05-17 16:10:57.612615,-1,0,-7,0,-1,0,73,75,140,100,55,191.99,234,-59.00,-3.00,-1028.00
2024-05-17 16:10:57.764032,-1,0,-7,0,0,0,73,75,140,100,55,192.04,234,-11.00,20.00,-933.00
2024-05-17 16:10:57.816573,-1,0,-7,0,0,0,73,75,139,100,55,192.04,234,-5.00,27.00,-975.00
2024-05-17 16:10:57.967957,-1,0,-7,0,0,0,73,75,138,90,55,192.03,234,-45.00,-3.00,-1026.00
2024-05-17 16:10:58.022713,-1,-1,-7,0,0,0,73,75,138,90,55,192.10,235,2.00,-26.00,-993.00
2024-05-17 16:10:58.123460,-1,-1,-7,0,0,0,73,75,137,90,55,192.03,235,13.00,-20.00,-963.00
2024-05-17 16:10:58.275149,-1,-1,-7,0,0,0,73,75,137,90,55,192.05,235,-10.00,23.00,-1059.00
2024-05-17 16:10:58.326512,-1,0,-7,0,0,0,73,75,137,90,55,192.05,235,4.00,-9.00,-1038.00
2024-05-17 16:10:58.480094,-1,0,-7,0,0,0,73,75,137,90,55,191.93,235,-52.00,30.00,-1009.00
