TS,pitch,roll,yaw,vgx,vgy,vgz,templ,temph,tof,h,bat,baro,time,agx,agy,agz
2024-06-07 11:16:17.368448,0,0,14,0,0,0,80,82,10,0,42,133.56,369,0.00,0.00,-999.00
2024-06-07 11:16:17.470685,0,0,14,0,0,0,79,81,10,0,42,133.54,369,-1.00,2.00,-999.00
2024-06-07 11:16:17.572790,0,0,14,0,0,0,79,81,10,0,42,133.52,369,-1.00,2.00,-1000.00
2024-06-07 11:16:17.675104,0,0,14,0,0,0,79,81,10,0,42,133.51,369,-1.00,1.00,-1001.00
2024-06-07 11:16:17.791242,0,0,14,0,0,0,79,81,10,0,42,133.56,369,1.00,2.00,-1001.00
2024-06-07 11:16:17.827713,0,0,14,0,0,0,79,81,10,0,42,133.56,369,-1.00,1.00,-999.00
2024-06-07 11:16:17.996873,0,0,14,0,0,0,79,81,10,0,42,133.54,369,0.00,2.00,-997.00
2024-06-07 11:16:18.031670,0,0,14,0,0,0,79,81,10,0,42,133.56,369,0.00,2.00,-998.00
2024-06-07 11:16:18.202718,0,0,14,0,0,0,79,81,10,0,42,133.49,369,-1.00,0.00,-1000.00
2024-06-07 11:16:18.236141,0,0,14,0,0,0,79,81,10,0,42,133.54,369,0.00,0.00,-1000.00
2024-06-07 11:16:18.405679,0,0,14,0,0,0,79,81,10,0,42,133.52,369,0.00,0.00,-1001.00
2024-06-07 11:16:18.439986,0,0,14,0,0,0,79,81,10,0,42,133.58,369,-1.00,1.00,-1000.00
2024-06-07 11:16:18.610585,0,0,14,0,0,0,79,81,10,0,42,133.56,369,0.00,0.00,-1000.00
2024-06-07 11:16:18.643770,0,0,14,0,0,0,79,81,10,0,42,133.56,369,-1.00,1.00,-1000.00
2024-06-07 11:16:18.815326,0,0,14,0,0,0,79,81,10,0,42,133.57,369,-1.00,0.00,-1001.00
2024-06-07 11:16:18.847730,0,0,14,0,0,0,79,81,10,0,42,133.54,369,0.00,0.00,-1002.00
2024-06-07 11:16:19.020065,0,0,14,0,0,0,79,81,10,0,42,133.51,369,-1.00,0.00,-996.00
2024-06-07 11:16:19.051616,0,0,14,0,0,0,79,81,10,0,42,133.50,369,0.00,1.00,-1000.00
2024-06-07 11:16:19.224826,0,0,14,0,0,0,79,81,10,0,42,133.56,369,-2.00,0.00,-1000.00
2024-06-07 11:16:19.255677,0,0,14,0,0,0,79,81,10,0,42,133.56,369,0.00,1.00,-1000.00
2024-06-07 11:16:19.429716,0,0,14,0,0,0,79,81,10,0,42,133.62,369,0.00,1.00,-1000.00
2024-06-07 11:16:19.459399,0,0,14,0,0,0,80,81,10,0,42,133.58,369,-1.00,1.00,-999.00
2024-06-07 11:16:19.634691,0,0,14,0,0,0,80,81,10,0,42,133.57,369,-2.00,0.00,-1001.00
2024-06-07 11:16:19.663633,0,0,14,0,0,0,80,81,10,0,42,133.55,369,-1.00,0.00,-997.00
2024-06-07 11:16:19.765611,0,0,14,0,0,0,80,81,10,0,42,133.60,369,-1.00,1.00,-999.00
2024-06-07 11:16:19.941650,0,0,14,0,0,0,80,81,10,0,42,133.60,369,-1.00,1.00,-999.00
2024-06-07 11:16:19.969660,0,0,14,0,0,0,80,81,10,0,42,133.60,369,-1.00,2.00,-998.00
2024-06-07 11:16:20.071636,0,0,14,0,0,0,80,81,10,0,42,133.60,369,-3.00,8.00,-992.00
2024-06-07 11:16:20.173950,0,0,14,0,0,0,80,81,10,0,42,133.60,369,-6.00,3.00,-997.00
2024-06-07 11:16:20.351062,0,0,14,0,0,0,80,81,10,0,42,133.60,369,-8.00,25.00,-1008.00
2024-06-07 11:16:20.377554,0,0,14,0,0,0,80,81,10,0,42,133.60,369,40.00,-33.00,-996.00
2024-06-07 11:16:20.479519,1,0,13,0,0,0,79,82,10,0,42,133.60,369,13.00,20.00,-1081.00
2024-06-07 11:16:20.581682,1,0,12,0,0,0,79,82,10,0,42,133.60,370,-36.00,39.00,-1078.00
2024-06-07 11:16:20.763548,0,0,12,-1,0,-3,79,82,10,0,42,133.60,370,14.00,11.00,-1301.00
2024-06-07 11:16:20.785585,-1,-3,12,-1,0,-6,79,82,10,0,42,133.60,370,-16.00,26.00,-1262.00
2024-06-07 11:16:20.966050,-2,-3,12,-1,0,-7,79,82,15,0,42,133.98,370,-122.00,49.00,-1080.00
2024-06-07 11:16:20.989776,-3,-2,12,-1,0,-8,79,82,24,10,42,134.00,370,-41.00,10.00,-1046.00
2024-06-07 11:16:21.091340,-5,0,12,-1,0,-7,79,82,33,20,42,134.15,370,-74.00,63.00,-928.00
2024-06-07 11:16:21.272953,-5,-2,12,-1,0,-7,79,82,41,20,42,134.16,370,-78.00,53.00,-946.00
2024-06-07 11:16:21.273034,-5,-3,12,-1,0,-6,79,82,49,30,42,134.25,370,-70.00,52.00,-922.00
2024-06-07 11:16:21.346321,-5,-2,12,0,0,-5,79,82,57,40,42,134.38,370,-88.00,50.00,-875.00
2024-06-07 11:16:21.477575,-4,-1,12,0,0,-4,79,82,63,40,42,134.53,370,-90.00,44.00,-880.00
2024-06-07 11:16:21.551099,-4,-2,13,0,0,-3,79,82,68,50,42,134.52,371,-43.00,62.00,-908.00
2024-06-07 11:16:21.652311,-4,-3,13,0,0,-3,79,82,72,50,42,134.49,371,-68.00,62.00,-904.00
2024-06-07 11:16:21.754424,-4,-4,12,0,0,-2,79,82,77,50,42,134.38,371,-90.00,66.00,-884.00
2024-06-07 11:16:21.887092,-4,-4,12,0,0,-2,79,82,80,50,42,134.30,371,-103.00,83.00,-924.00
2024-06-07 11:16:21.958332,-3,-3,12,0,0,-1,79,82,83,60,42,134.59,371,-37.00,36.00,-923.00
2024-06-07 11:16:22.091977,-4,-2,12,0,0,-1,79,82,85,60,42,134.53,371,-46.00,16.00,-966.00
2024-06-07 11:16:22.162637,-4,-1,12,0,0,0,79,82,88,60,42,134.59,371,-72.00,41.00,-921.00
2024-06-07 11:16:22.296709,-4,0,12,0,0,0,79,82,88,60,42,134.53,371,-54.00,36.00,-883.00
2024-06-07 11:16:22.366265,-3,-1,12,0,0,0,79,82,89,60,42,134.48,371,-84.00,46.00,-943.00
2024-06-07 11:16:22.501652,-3,0,12,0,0,0,80,82,89,60,42,134.53,371,-43.00,45.00,-968.00
2024-06-07 11:16:22.570634,-4,0,12,0,0,0,80,82,90,70,42,134.58,372,-74.00,24.00,-880.00
2024-06-07 11:16:22.706261,-4,0,12,0,0,0,80,82,90,70,42,134.46,372,-112.00,-20.00,-978.00
2024-06-07 11:16:22.774311,-3,0,12,0,0,0,80,82,90,70,42,134.41,372,-75.00,-8.00,-1031.00
2024-06-07 11:16:22.911144,-4,0,12,0,0,0,80,82,90,70,42,134.47,372,-59.00,12.00,-926.00
2024-06-07 11:16:22.978260,-5,0,12,0,0,0,80,82,89,70,42,134.46,372,-58.00,7.00,-964.00
2024-06-07 11:16:23.105631,-5,0,12,0,0,1,80,82,89,70,42,134.50,372,-96.00,-22.00,-1005.00
2024-06-07 11:16:23.182252,-5,0,12,0,0,0,80,82,89,70,42,134.37,372,-77.00,37.00,-986.00
2024-06-07 11:16:23.320760,-4,0,12,0,0,0,80,82,88,70,42,134.35,372,-52.00,0.00,-1024.00
2024-06-07 11:16:23.386213,-4,0,12,0,0,0,80,82,87,70,42,134.46,372,-97.00,-20.00,-1069.00
2024-06-07 11:16:23.526031,-4,0,12,0,0,0,79,81,87,70,42,134.48,372,-67.00,8.00,-996.00
2024-06-07 11:16:23.590244,-4,0,13,0,0,0,79,81,87,70,42,134.47,373,-92.00,38.00,-903.00
2024-06-07 11:16:23.730361,-4,0,13,0,0,0,79,81,86,60,42,134.49,373,-64.00,11.00,-987.00
2024-06-07 11:16:23.794179,-4,-1,12,0,0,0,79,81,85,60,42,134.42,373,-100.00,-1.00,-1030.00
2024-06-07 11:16:23.935182,-4,-1,12,0,0,0,79,81,84,60,42,134.41,373,-62.00,-18.00,-1010.00
2024-06-07 11:16:23.998379,-4,0,12,0,0,0,79,81,84,60,42,134.33,373,-67.00,2.00,-1063.00
2024-06-07 11:16:24.139904,-4,0,12,0,0,0,79,81,84,60,42,134.45,373,-85.00,20.00,-982.00
2024-06-07 11:16:24.202135,-4,0,12,0,0,0,79,81,83,60,42,134.35,373,-84.00,12.00,-1019.00
2024-06-07 11:16:24.344750,-4,0,12,0,0,0,79,81,83,60,42,134.42,373,-119.00,1.00,-959.00
2024-06-07 11:16:24.406232,-3,-2,12,0,0,0,79,81,82,60,42,134.35,373,-127.00,49.00,-1037.00
2024-06-07 11:16:24.549605,-4,-1,12,0,0,0,79,81,81,60,42,134.35,373,-102.00,3.00,-984.00
2024-06-07 11:16:24.610224,-5,-1,12,0,0,0,79,81,81,60,42,134.34,374,-120.00,17.00,-983.00
2024-06-07 11:16:24.754360,-6,0,13,0,0,0,79,81,81,60,42,134.32,374,-59.00,6.00,-957.00
2024-06-07 11:16:24.814162,-6,0,12,0,0,0,79,81,81,60,42,134.31,374,-102.00,12.00,-1010.00
2024-06-07 11:16:24.959107,-6,-1,12,0,0,0,79,81,80,60,42,134.34,374,-116.00,4.00,-971.00
2024-06-07 11:16:24.967050,-6,-1,12,0,0,0,79,81,80,60,42,134.40,374,-89.00,0.00,-949.00
2024-06-07 11:16:25.163955,-6,-1,12,0,0,0,79,81,80,60,42,134.32,374,-115.00,14.00,-999.00
2024-06-07 11:16:25.171315,-7,-2,13,0,0,0,79,81,80,60,42,134.25,374,-133.00,47.00,-989.00
2024-06-07 11:16:25.368737,-7,-2,12,0,0,0,79,81,79,60,42,134.28,374,-95.00,17.00,-987.00
2024-06-07 11:16:25.375364,-7,-1,12,0,0,0,79,81,79,60,42,134.33,374,-82.00,13.00,-1019.00
2024-06-07 11:16:25.573559,-6,-2,12,0,0,0,79,82,79,60,42,134.38,374,-113.00,5.00,-961.00
2024-06-07 11:16:25.630112,-6,-1,13,0,0,0,79,82,80,60,42,134.32,375,-80.00,11.00,-1038.00
2024-06-07 11:16:25.681594,-6,-2,13,0,0,0,79,82,80,60,42,134.23,375,-95.00,39.00,-858.00
2024-06-07 11:16:25.880694,-5,-2,13,0,0,0,79,82,79,60,42,134.30,375,-78.00,0.00,-966.00
2024-06-07 11:16:25.885429,-5,0,13,0,0,0,79,82,80,60,42,134.10,375,-125.00,-10.00,-1001.00
2024-06-07 11:16:26.085523,-5,-1,13,0,0,0,79,82,80,60,42,134.21,375,-69.00,-28.00,-1032.00
2024-06-07 11:16:26.090440,-5,0,12,0,0,0,79,82,81,60,42,134.17,375,-107.00,25.00,-880.00
2024-06-07 11:16:26.191372,-5,0,12,0,0,0,79,82,80,60,42,134.32,375,-79.00,3.00,-1047.00
2024-06-07 11:16:26.293458,-5,0,12,0,0,0,79,82,80,60,42,134.31,375,-43.00,44.00,-1009.00
2024-06-07 11:16:26.396010,-4,0,12,0,0,0,79,82,80,60,42,134.34,375,-79.00,46.00,-972.00
2024-06-07 11:16:26.497811,-4,-2,12,0,0,0,80,81,80,60,42,134.35,375,-101.00,23.00,-1015.00
2024-06-07 11:16:26.599088,-5,-2,12,0,0,0,80,81,81,60,42,134.36,376,-120.00,19.00,-1010.00
2024-06-07 11:16:26.802242,-5,0,12,0,0,0,80,81,82,60,42,134.28,376,-107.00,37.00,-1031.00
2024-06-07 11:16:26.803462,-5,0,12,0,0,0,80,81,81,60,42,134.34,376,-60.00,-22.00,-994.00
2024-06-07 11:16:27.007475,-5,-1,12,0,0,0,80,81,83,60,42,134.36,376,-60.00,-2.00,-992.00
2024-06-07 11:16:27.007677,-4,0,12,0,0,0,80,81,83,60,42,134.24,376,-100.00,9.00,-966.00
2024-06-07 11:16:27.109850,-5,0,12,0,0,0,80,81,84,60,42,134.28,376,-78.00,50.00,-986.00
2024-06-07 11:16:27.212029,-5,-1,12,0,0,0,80,81,83,60,42,134.41,376,-68.00,-5.00,-986.00
2024-06-07 11:16:27.314335,-6,-1,12,0,0,0,80,81,83,60,42,134.32,376,-135.00,8.00,-992.00
2024-06-07 11:16:27.416767,-6,0,13,0,0,0,80,81,84,60,42,134.34,376,-32.00,14.00,-1016.00
2024-06-07 11:16:27.519239,-6,0,13,0,0,0,80,81,84,60,42,134.34,376,-98.00,51.00,-1033.00
2024-06-07 11:16:27.619669,-5,-1,13,0,0,0,80,81,84,60,42,134.30,377,-89.00,15.00,-944.00
2024-06-07 11:16:27.724061,-5,-2,13,0,0,0,80,81,83,60,42,134.29,377,-88.00,39.00,-939.00
2024-06-07 11:16:27.823054,-5,-3,13,0,0,0,80,81,83,60,42,134.22,377,-82.00,12.00,-968.00
2024-06-07 11:16:27.931003,-5,-3,12,0,0,0,80,81,82,60,42,134.23,377,-98.00,31.00,-1000.00
2024-06-07 11:16:28.028492,-5,-2,12,0,0,0,80,81,81,60,42,134.28,377,-132.00,36.00,-1034.00
2024-06-07 11:16:28.129203,-5,-2,12,0,0,0,80,81,81,60,42,134.31,377,-81.00,3.00,-1033.00
2024-06-07 11:16:28.231316,-6,-1,13,0,0,0,80,81,81,60,42,134.12,377,-115.00,36.00,-999.00
2024-06-07 11:16:28.333340,-5,-1,12,0,0,0,80,81,81,60,42,134.15,377,-79.00,5.00,-1088.00
2024-06-07 11:16:28.440744,-5,-1,12,0,0,-1,80,81,82,60,42,134.25,377,-99.00,-7.00,-1011.00
2024-06-07 11:16:28.540414,-4,0,12,0,0,-2,79,81,84,60,42,134.27,378,-56.00,-1.00,-1126.00
2024-06-07 11:16:28.641134,-4,-1,12,0,0,-3,79,81,86,70,42,134.32,378,-65.00,12.00,-1097.00
2024-06-07 11:16:28.741591,-4,0,12,0,0,-4,79,81,91,70,42,134.30,378,-74.00,0.00,-1099.00
2024-06-07 11:16:28.850277,-4,0,12,0,0,-4,79,81,95,80,42,134.37,378,-40.00,3.00,-1024.00
2024-06-07 11:16:28.945194,-4,-1,12,0,0,-4,79,81,99,80,42,134.41,378,-68.00,-12.00,-1056.00
2024-06-07 11:16:28.995873,-4,-1,12,0,0,-4,79,81,103,80,42,134.45,378,-43.00,28.00,-1082.00
2024-06-07 11:16:29.157452,-4,-1,13,0,0,-4,79,81,108,90,42,134.58,378,-81.00,46.00,-1002.00
2024-06-07 11:16:29.199970,-5,-2,12,0,0,-5,79,81,113,90,42,134.57,378,-107.00,31.00,-986.00
2024-06-07 11:16:29.363240,-6,-1,12,0,0,-5,79,81,120,100,42,134.60,378,-113.00,38.00,-954.00
2024-06-07 11:16:29.403907,-5,0,13,0,0,-5,79,81,124,100,42,134.60,378,-75.00,-11.00,-1005.00
2024-06-07 11:16:29.506402,-5,0,12,0,0,-5,78,81,129,110,42,134.63,379,-45.00,12.00,-1011.00
2024-06-07 11:16:29.607863,-4,0,12,0,0,-5,78,81,135,110,42,134.67,379,-107.00,12.00,-948.00
2024-06-07 11:16:29.771876,-4,0,12,0,0,-4,78,81,141,120,42,134.74,379,-125.00,14.00,-956.00
2024-06-07 11:16:29.811869,-5,0,12,0,0,-4,78,81,146,120,42,134.86,379,-69.00,6.00,-948.00
2024-06-07 11:16:29.976725,-5,0,12,0,0,-4,78,81,152,130,42,134.95,379,-52.00,14.00,-959.00
2024-06-07 11:16:30.015814,-5,-1,12,0,0,-4,78,81,157,130,42,134.88,379,-65.00,3.00,-959.00
2024-06-07 11:16:30.181485,-5,0,13,0,0,-3,78,81,159,140,42,134.89,379,-47.00,-15.00,-921.00
2024-06-07 11:16:30.220111,-4,0,13,0,0,-3,78,81,163,140,42,134.89,379,-12.00,-5.00,-979.00
2024-06-07 11:16:30.386295,-4,0,12,0,0,-2,78,81,167,140,42,134.98,379,-84.00,-11.00,-929.00
2024-06-07 11:16:30.424104,-4,0,12,0,0,-2,78,81,170,150,42,135.07,379,-91.00,23.00,-986.00
2024-06-07 11:16:30.591102,-4,0,13,0,0,-1,78,81,173,150,42,135.02,380,-88.00,-17.00,-957.00
2024-06-07 11:16:30.627768,-4,0,13,0,0,-1,78,81,176,150,42,135.02,380,-97.00,37.00,-1002.00
2024-06-07 11:16:30.795886,-5,-1,13,0,0,-1,78,81,177,150,42,134.99,380,-36.00,19.00,-989.00
2024-06-07 11:16:30.831997,-5,-1,13,0,0,-1,78,81,181,150,42,135.02,380,-132.00,38.00,-881.00
2024-06-07 11:16:31.000980,-5,0,13,0,0,-1,78,81,182,150,42,135.16,380,-71.00,21.00,-944.00
2024-06-07 11:16:31.035871,-5,0,13,0,0,0,78,81,181,160,42,135.13,380,-61.00,11.00,-948.00
2024-06-07 11:16:31.205586,-4,0,12,0,0,0,78,81,183,160,42,135.10,380,-69.00,33.00,-1073.00
2024-06-07 11:16:31.242303,-4,0,12,0,0,0,78,81,183,160,42,135.09,380,-50.00,23.00,-972.00
2024-06-07 11:16:31.341900,-4,-1,12,0,0,0,78,81,184,160,42,135.16,380,-67.00,27.00,-961.00
2024-06-07 11:16:31.512724,-3,-1,12,0,0,0,78,81,186,160,42,135.11,380,-69.00,12.00,-952.00
2024-06-07 11:16:31.545810,-3,-1,12,0,0,0,77,80,189,160,42,135.09,381,-86.00,-48.00,-1059.00
2024-06-07 11:16:31.647824,-4,0,12,0,0,0,77,80,187,160,42,135.02,381,-67.00,-21.00,-1006.00
2024-06-07 11:16:31.820217,-4,0,12,0,0,0,77,80,191,160,42,135.21,381,-59.00,-26.00,-1069.00
2024-06-07 11:16:31.851685,-5,1,12,0,0,0,77,80,190,160,42,135.13,381,-61.00,-32.00,-976.00
2024-06-07 11:16:32.024730,-5,1,12,0,0,0,77,80,189,160,42,135.09,381,-76.00,-32.00,-1045.00
2024-06-07 11:16:32.055862,-5,1,12,0,0,0,77,80,191,160,42,135.16,381,-86.00,-30.00,-942.00
2024-06-07 11:16:32.229692,-5,0,12,0,0,0,77,80,189,160,42,135.22,381,-78.00,22.00,-976.00
2024-06-07 11:16:32.259779,-5,0,12,0,0,0,77,80,190,160,42,135.16,381,-90.00,9.00,-957.00
2024-06-07 11:16:32.434325,-5,0,12,0,0,0,77,80,189,160,42,135.23,381,-64.00,22.00,-975.00
2024-06-07 11:16:32.463731,-5,0,12,0,0,0,77,80,188,160,42,135.16,381,-88.00,30.00,-1035.00
2024-06-07 11:16:32.639205,-5,0,13,0,0,0,79,80,188,160,42,135.34,382,-71.00,42.00,-1040.00
2024-06-07 11:16:32.667677,-5,0,13,0,0,0,79,80,187,160,42,135.28,382,-84.00,45.00,-981.00
2024-06-07 11:16:32.843938,-5,-2,13,0,1,0,79,80,189,160,42,135.12,382,-33.00,10.00,-1071.00
2024-06-07 11:16:32.871750,-3,-2,13,1,1,0,79,80,187,160,42,135.18,382,-74.00,2.00,-1023.00
2024-06-07 11:16:33.004333,-2,-2,13,0,0,0,79,80,186,160,42,135.20,382,-53.00,8.00,-955.00
2024-06-07 11:16:33.075676,-3,-2,13,0,0,0,79,80,186,160,42,135.14,382,-90.00,-22.00,-1001.00
2024-06-07 11:16:33.126594,-3,-1,12,0,0,0,79,80,185,160,42,135.12,382,-107.00,9.00,-971.00
2024-06-07 11:16:33.253508,-4,-1,12,0,0,0,79,80,183,160,42,135.11,382,-50.00,13.00,-955.00
2024-06-07 11:16:33.330653,-4,-1,12,0,0,1,79,80,182,160,42,135.21,382,-65.00,9.00,-884.00
2024-06-07 11:16:33.458310,-4,-1,12,0,0,1,79,80,180,160,42,135.14,382,-37.00,18.00,-925.00
2024-06-07 11:16:33.663140,-4,-1,12,0,0,2,78,80,178,160,42,135.02,383,-76.00,0.00,-984.00
2024-06-07 11:16:33.663350,-4,0,13,0,0,2,78,80,175,150,42,135.10,383,-75.00,29.00,-913.00
2024-06-07 11:16:33.739478,-4,0,13,0,0,2,78,80,174,150,42,135.06,383,-85.00,16.00,-1015.00
2024-06-07 11:16:33.867842,-3,0,13,0,0,3,78,80,167,150,42,135.19,383,7.00,6.00,-973.00
2024-06-07 11:16:33.942961,-3,0,12,0,0,3,78,80,166,150,42,134.98,383,-57.00,31.00,-1052.00
2024-06-07 11:16:34.072856,-2,0,13,0,0,2,78,80,161,140,42,135.00,383,-63.00,5.00,-1037.00
2024-06-07 11:16:34.147104,-3,0,13,0,0,2,78,80,160,140,42,135.01,383,-74.00,60.00,-911.00
2024-06-07 11:16:34.277909,-3,-1,12,0,0,2,78,80,160,140,42,134.98,383,-57.00,17.00,-1044.00
2024-06-07 11:16:34.350577,-3,-1,13,0,0,2,78,80,155,130,42,134.92,383,-85.00,8.00,-1091.00
2024-06-07 11:16:34.452581,-4,-1,13,0,0,2,78,80,153,130,42,134.98,383,-74.00,13.00,-1020.00
2024-06-07 11:16:34.584650,-3,0,13,0,0,2,77,80,150,130,42,134.99,384,-9.00,11.00,-968.00
2024-06-07 11:16:34.656968,-3,0,13,0,0,2,77,80,148,130,42,134.91,384,-29.00,26.00,-1030.00
2024-06-07 11:16:34.789433,-3,-1,12,0,0,1,77,80,148,130,42,134.85,384,-40.00,0.00,-1034.00
2024-06-07 11:16:34.860604,-3,-2,12,0,0,1,77,80,146,130,42,134.93,384,-42.00,49.00,-953.00
2024-06-07 11:16:34.994210,-2,-2,12,0,0,1,77,80,142,120,42,134.92,384,-35.00,9.00,-1009.00
2024-06-07 11:16:35.064565,-2,-2,12,0,0,1,77,80,141,120,42,134.98,384,-65.00,49.00,-987.00
2024-06-07 11:16:35.166589,-3,-3,13,0,0,1,77,80,139,120,42,134.97,384,-84.00,46.00,-1026.00
2024-06-07 11:16:35.301435,-3,-3,13,0,0,1,77,80,139,120,42,135.00,384,2.00,0.00,-958.00
2024-06-07 11:16:35.371013,-3,-2,13,0,0,1,77,80,137,120,42,134.96,384,-93.00,20.00,-1017.00
2024-06-07 11:16:35.473043,-2,-1,13,0,0,0,77,80,137,120,42,134.94,384,-40.00,-8.00,-1084.00
2024-06-07 11:16:35.575032,-2,0,12,0,0,0,78,80,137,120,42,134.94,385,-24.00,-11.00,-1024.00
2024-06-07 11:16:35.711141,-2,0,12,0,0,0,78,80,136,120,42,134.92,385,-33.00,0.00,-1013.00
2024-06-07 11:16:35.778654,-3,0,12,0,0,0,78,80,136,120,42,134.82,385,-66.00,13.00,-1061.00
2024-06-07 11:16:35.916206,-3,0,12,0,0,0,78,80,136,120,42,134.84,385,-66.00,5.00,-974.00
2024-06-07 11:16:35.982646,-4,-1,12,0,0,0,78,80,137,120,42,134.86,385,-29.00,25.00,-1030.00
2024-06-07 11:16:36.120757,-4,-1,12,0,0,0,78,80,137,120,42,134.82,385,-76.00,8.00,-1023.00
2024-06-07 11:16:36.186861,-3,-1,12,0,0,0,78,80,138,120,42,134.83,385,-41.00,18.00,-958.00
2024-06-07 11:16:36.325563,-3,0,12,0,0,0,78,80,139,120,42,134.83,385,-26.00,31.00,-961.00
2024-06-07 11:16:36.391420,-3,0,12,0,0,0,78,80,138,120,42,134.89,385,-44.00,3.00,-1040.00
2024-06-07 11:16:36.492649,-3,0,12,0,0,0,78,80,139,120,42,134.90,385,-61.00,30.00,-936.00
2024-06-07 11:16:36.632733,-3,0,12,0,0,0,77,80,139,120,42,134.86,386,-75.00,0.00,-979.00
2024-06-07 11:16:36.696936,-4,0,12,0,0,0,77,80,138,120,42,134.84,386,-65.00,-7.00,-994.00
2024-06-07 11:16:36.837461,-4,0,12,0,0,0,77,80,139,120,42,134.76,386,-25.00,1.00,-1014.00
2024-06-07 11:16:36.900808,-4,0,13,0,0,0,77,80,139,120,42,134.84,386,-13.00,20.00,-928.00
2024-06-07 11:16:37.042362,-3,0,13,0,0,0,77,80,139,120,42,134.83,386,-53.00,9.00,-974.00
2024-06-07 11:16:37.107089,-3,0,12,0,0,0,77,80,137,120,42,134.86,386,-54.00,33.00,-1003.00
2024-06-07 11:16:37.206589,-3,0,12,0,0,0,77,80,137,120,42,134.92,386,-57.00,30.00,-1015.00
2024-06-07 11:16:37.349577,-4,-1,12,0,0,0,77,80,136,120,42,134.79,386,-24.00,33.00,-987.00
2024-06-07 11:16:37.410401,-4,-2,12,0,0,0,77,80,135,120,42,134.86,386,-64.00,-2.00,-999.00
2024-06-07 11:16:37.461447,-3,-2,12,0,0,0,77,80,133,120,42,134.87,386,-64.00,17.00,-949.00
2024-06-07 11:16:37.656561,-5,-1,12,0,0,0,78,80,134,110,42,134.82,387,-43.00,16.00,-1046.00
2024-06-07 11:16:37.665397,-8,-1,12,1,0,0,78,80,133,110,42,134.76,387,-97.00,47.00,-981.00
2024-06-07 11:16:37.861383,-8,0,12,1,0,0,78,80,132,110,42,134.76,387,-66.00,7.00,-1023.00
2024-06-07 11:16:37.869449,-8,0,13,2,0,0,78,80,132,110,42,134.76,387,-40.00,55.00,-986.00
2024-06-07 11:16:38.066128,-8,0,12,3,1,0,78,80,132,110,42,134.77,387,-75.00,40.00,-1036.00
2024-06-07 11:16:38.073527,-8,-1,12,4,1,0,78,80,133,110,42,134.82,387,-69.00,17.00,-963.00
2024-06-07 11:16:38.271093,-8,-1,12,5,1,0,78,80,134,110,42,134.73,387,-121.00,45.00,-1041.00
2024-06-07 11:16:38.277303,-8,-1,12,6,1,0,78,80,133,110,42,134.69,387,-69.00,7.00,-963.00
2024-06-07 11:16:38.379432,-8,-1,12,6,1,0,78,80,134,110,42,134.75,387,-67.00,7.00,-1040.00
2024-06-07 11:16:38.578187,-8,-1,12,7,1,0,78,80,134,110,42,134.68,387,-74.00,13.00,-969.00
2024-06-07 11:16:38.583628,-6,-1,12,7,1,0,77,80,132,110,42,134.75,388,-101.00,22.00,-958.00
2024-06-07 11:16:38.782988,-2,-1,12,7,1,0,77,80,134,110,42,134.77,388,-98.00,7.00,-975.00
2024-06-07 11:16:38.787430,0,-1,12,6,1,0,77,80,134,110,42,134.70,388,-91.00,-10.00,-1052.00
2024-06-07 11:16:38.987871,0,-1,12,5,1,0,77,80,135,110,42,134.77,388,-101.00,23.00,-979.00
2024-06-07 11:16:38.993321,0,-1,12,4,0,0,77,80,135,110,42,134.77,388,-74.00,10.00,-940.00
2024-06-07 11:16:39.094892,-1,0,12,3,0,0,77,80,137,110,42,134.74,388,-64.00,13.00,-1001.00
2024-06-07 11:16:39.196095,-2,0,12,3,0,0,77,80,137,120,42,134.77,388,-95.00,11.00,-1017.00
2024-06-07 11:16:39.297529,-3,0,12,3,0,0,77,80,138,120,42,134.79,388,-73.00,0.00,-970.00
2024-06-07 11:16:39.399436,-3,0,12,2,0,0,77,80,140,120,42,134.80,388,-53.00,-8.00,-984.00
2024-06-07 11:16:39.607558,-3,0,12,2,0,0,77,80,141,120,42,134.80,388,-80.00,-6.00,-971.00
2024-06-07 11:16:39.608026,-3,0,12,2,1,0,78,80,141,120,42,134.80,389,-80.00,5.00,-919.00
2024-06-07 11:16:39.705261,-2,-3,12,2,0,0,78,80,142,120,42,134.88,389,-82.00,-7.00,-1013.00
2024-06-07 11:16:39.909355,-1,-1,12,2,0,0,78,80,142,120,42,134.80,389,-74.00,48.00,-1009.00
2024-06-07 11:16:39.909739,1,0,12,1,0,0,78,80,143,120,42,134.78,389,-38.00,22.00,-997.00
2024-06-07 11:16:40.013243,0,0,12,1,0,0,78,80,143,120,42,134.88,389,-80.00,48.00,-953.00
2024-06-07 11:16:40.113979,-1,0,12,0,0,0,78,80,143,120,42,134.88,389,-70.00,35.00,-1031.00
2024-06-07 11:16:40.216792,-2,-1,12,0,0,0,78,80,143,120,42,134.94,389,-66.00,16.00,-1017.00
2024-06-07 11:16:40.317322,-2,-1,13,0,0,0,78,80,144,120,42,135.02,389,-68.00,38.00,-957.00
2024-06-07 11:16:40.421444,-2,-2,13,0,0,0,78,80,145,120,42,135.03,389,-7.00,35.00,-1067.00
2024-06-07 11:16:40.521596,-3,-2,13,0,0,0,78,80,144,120,42,135.04,389,-40.00,77.00,-1067.00
2024-06-07 11:16:40.626324,-2,-2,13,0,0,0,78,80,144,120,42,135.08,390,6.00,32.00,-953.00
2024-06-07 11:16:40.726431,-1,-1,12,0,0,0,78,80,141,120,42,135.00,390,-32.00,60.00,-945.00
2024-06-07 11:16:40.836404,-1,-2,12,0,0,0,78,80,143,120,42,135.04,390,-17.00,30.00,-1033.00
2024-06-07 11:16:40.930374,0,-2,12,0,0,0,78,80,142,120,42,135.08,390,-18.00,35.00,-982.00
2024-06-07 11:16:41.032778,-1,-1,12,0,0,0,78,80,141,120,42,135.03,390,-41.00,15.00,-926.00
2024-06-07 11:16:41.138385,-2,-1,12,0,0,0,78,80,140,120,42,135.07,390,-81.00,43.00,-1017.00
2024-06-07 11:16:41.236753,-2,-1,12,0,0,0,78,80,139,120,42,134.99,390,-33.00,24.00,-1057.00
2024-06-07 11:16:41.342947,-2,-1,12,0,0,0,78,80,139,120,42,134.95,390,-53.00,19.00,-1064.00
2024-06-07 11:16:41.442057,-2,0,12,0,0,0,78,80,139,120,42,134.97,390,-33.00,59.00,-974.00
2024-06-07 11:16:41.542655,-2,0,12,0,0,0,78,80,138,120,42,134.98,391,-33.00,7.00,-1034.00
2024-06-07 11:16:41.646105,-2,0,12,0,0,0,77,79,140,120,42,134.97,391,-45.00,26.00,-1029.00
2024-06-07 11:16:41.695487,-2,0,12,0,0,0,77,79,140,120,42,135.00,391,-67.00,50.00,-1068.00
2024-06-07 11:16:41.797448,-2,0,12,0,0,0,77,79,140,120,42,135.08,391,-38.00,19.00,-1000.00
2024-06-07 11:16:41.957512,-1,0,13,0,0,0,77,79,139,120,42,135.09,391,-23.00,30.00,-1021.00
2024-06-07 11:16:42.001218,-1,-2,13,0,0,0,77,79,140,120,42,135.03,391,0.00,20.00,-991.00
2024-06-07 11:16:42.162139,0,-2,12,0,0,0,77,79,138,120,42,135.05,391,-24.00,31.00,-953.00
2024-06-07 11:16:42.205177,5,-3,12,0,0,0,77,79,139,120,42,134.97,391,1.00,26.00,-990.00
2024-06-07 11:16:42.366982,7,-3,12,-1,0,0,77,79,139,120,42,135.07,391,0.00,29.00,-941.00
2024-06-07 11:16:42.409185,7,-3,12,-3,0,0,77,79,139,120,42,135.11,391,-60.00,62.00,-1041.00
2024-06-07 11:16:42.571762,6,-2,12,-4,0,0,77,79,139,120,42,135.10,392,-13.00,8.00,-999.00
2024-06-07 11:16:42.613357,5,-2,12,-5,-1,0,77,80,137,120,42,135.07,392,8.00,22.00,-1043.00
2024-06-07 11:16:42.776570,4,-2,12,-6,-1,0,77,80,136,120,42,135.00,392,-9.00,49.00,-1000.00
2024-06-07 11:16:42.818002,2,-3,12,-7,-1,0,77,80,136,120,42,135.01,392,38.00,48.00,-1058.00
2024-06-07 11:16:42.981421,1,-3,12,-7,-2,0,77,80,133,120,41,135.06,392,0.00,34.00,-1000.00
2024-06-07 11:16:43.021151,-1,-2,12,-7,-2,0,77,80,134,120,41,134.98,392,40.00,27.00,-1049.00
2024-06-07 11:16:43.186172,-4,-1,12,-7,-2,0,77,80,135,120,41,135.09,392,12.00,20.00,-976.00
2024-06-07 11:16:43.226334,-5,-1,12,-5,-2,0,77,80,135,120,41,135.11,392,33.00,24.00,-1036.00
2024-06-07 11:16:43.327136,-6,0,12,-4,-1,0,77,80,133,120,41,135.09,392,17.00,69.00,-995.00
2024-06-07 11:16:43.429017,-4,0,12,-3,-1,0,77,80,130,110,41,135.03,392,-6.00,35.00,-1009.00
2024-06-07 11:16:43.531639,-3,-1,12,-3,0,0,77,80,131,110,41,135.12,393,8.00,8.00,-1027.00
2024-06-07 11:16:43.634268,-2,-1,12,-2,0,0,77,80,128,110,41,135.11,393,-1.00,9.00,-942.00
2024-06-07 11:16:43.800508,-2,0,12,-2,0,0,77,80,127,110,41,135.10,393,-6.00,32.00,-957.00
2024-06-07 11:16:43.837108,-1,0,13,-2,0,0,77,80,127,110,41,135.05,393,-27.00,32.00,-967.00
2024-06-07 11:16:44.005354,-1,0,13,-2,0,0,77,80,128,110,41,135.08,393,9.00,6.00,-1020.00
2024-06-07 11:16:44.041097,0,0,13,-2,0,0,77,80,129,110,41,135.10,393,-4.00,43.00,-1038.00
2024-06-07 11:16:44.210159,0,0,12,-1,0,0,77,80,130,110,41,135.04,393,-37.00,54.00,-1013.00
2024-06-07 11:16:44.246019,0,0,12,-1,0,0,77,80,129,110,41,135.02,393,53.00,19.00,-1046.00
2024-06-07 11:16:44.418119,0,-1,12,-1,0,0,77,80,130,110,41,135.06,393,2.00,35.00,-979.00
2024-06-07 11:16:44.449925,0,0,12,-1,0,0,77,80,133,110,41,135.05,393,-57.00,51.00,-1006.00
2024-06-07 11:16:44.552077,-6,-2,12,-1,0,0,77,80,134,110,41,135.07,394,1.00,4.00,-945.00
2024-06-07 11:16:44.655873,-4,-1,12,0,0,0,77,80,135,110,41,135.04,394,-7.00,30.00,-977.00
2024-06-07 11:16:44.756470,-3,-1,12,0,0,0,77,80,135,110,41,135.04,394,-55.00,69.00,-996.00
2024-06-07 11:16:44.927833,-2,-2,12,0,0,0,77,80,135,120,41,135.07,394,-17.00,59.00,-1004.00
2024-06-07 11:16:44.960048,-1,-2,12,0,0,0,77,80,133,120,40,135.06,394,-25.00,11.00,-989.00
2024-06-07 11:16:45.131850,-1,-2,12,0,0,0,77,80,135,120,40,135.01,394,-12.00,59.00,-1025.00
2024-06-07 11:16:45.164033,-1,-2,12,0,0,0,77,80,134,120,40,135.03,394,-10.00,58.00,-948.00
2024-06-07 11:16:45.337302,-1,-2,12,0,0,0,77,80,134,120,40,135.03,394,-49.00,52.00,-1048.00
2024-06-07 11:16:45.368025,-1,-1,12,0,0,0,77,80,133,110,40,135.12,394,-41.00,55.00,-993.00
2024-06-07 11:16:45.541504,-1,-1,12,0,0,0,77,80,134,110,40,135.04,394,7.00,7.00,-1007.00
2024-06-07 11:16:45.541705,-1,0,12,0,0,0,77,80,132,110,40,135.03,395,-34.00,36.00,-1008.00
2024-06-07 11:16:45.674366,-1,0,12,0,0,0,77,80,133,110,40,135.05,395,-17.00,52.00,-1015.00
2024-06-07 11:16:45.727138,-1,0,12,0,0,0,77,80,132,110,40,135.07,395,-6.00,26.00,-1026.00
2024-06-07 11:16:45.829389,0,0,12,0,0,0,77,80,135,110,40,135.07,395,-16.00,46.00,-1009.00
2024-06-07 11:16:45.929071,0,0,12,0,0,0,77,80,134,110,40,135.09,395,-28.00,-2.00,-956.00
2024-06-07 11:16:46.053487,0,0,12,0,0,0,77,80,135,110,40,135.03,395,-48.00,5.00,-1004.00
2024-06-07 11:16:46.133263,0,0,12,0,0,0,77,80,136,120,40,135.06,395,-26.00,36.00,-957.00
2024-06-07 11:16:46.258178,-1,0,12,0,0,0,77,80,135,120,40,135.05,395,-58.00,22.00,-984.00
2024-06-07 11:16:46.338010,-1,0,12,0,0,0,77,80,135,120,40,135.09,395,-33.00,30.00,-956.00
2024-06-07 11:16:46.463328,-1,0,12,0,0,0,77,80,137,120,40,135.02,395,-59.00,47.00,-927.00
2024-06-07 11:16:46.541059,-1,0,12,0,0,0,77,80,137,120,40,135.10,396,-20.00,34.00,-1046.00
2024-06-07 11:16:46.656202,-1,0,12,0,0,0,77,79,138,120,40,135.09,396,-17.00,-4.00,-979.00
2024-06-07 11:16:46.745961,-1,0,12,0,0,0,77,79,139,120,40,135.11,396,-36.00,44.00,-957.00
2024-06-07 11:16:46.872581,-1,-4,12,0,0,0,77,79,141,120,39,135.09,396,26.00,61.00,-952.00
2024-06-07 11:16:46.949890,-1,-8,12,0,0,0,77,79,143,120,39,135.09,396,-46.00,11.00,-1006.00
2024-06-07 11:16:47.077331,0,-8,12,0,-1,0,77,79,146,120,39,135.07,396,-15.00,10.00,-1079.00
2024-06-07 11:16:47.153889,0,-7,12,0,-2,0,77,79,146,120,39,135.08,396,-43.00,46.00,-980.00
2024-06-07 11:16:47.282179,-1,-4,12,0,-3,0,77,79,144,120,39,135.09,396,-23.00,18.00,-971.00
2024-06-07 11:16:47.357870,-1,0,12,0,-3,0,77,79,144,120,39,135.21,396,-29.00,40.00,-982.00
2024-06-07 11:16:47.460556,-1,0,12,0,-3,0,77,79,143,120,39,135.14,396,-13.00,50.00,-980.00
2024-06-07 11:16:47.589330,0,0,12,0,-3,0,77,79,142,120,39,135.13,397,-29.00,25.00,-941.00
2024-06-07 11:16:47.663807,0,0,12,0,-2,0,77,79,142,120,39,135.21,397,-2.00,33.00,-945.00
2024-06-07 11:16:47.765878,0,-1,12,0,-2,0,77,79,140,120,39,135.17,397,-27.00,43.00,-974.00
2024-06-07 11:16:47.896536,0,-1,12,0,-2,0,77,79,139,120,39,135.09,397,-18.00,43.00,-1005.00
2024-06-07 11:16:47.970364,0,-2,12,0,-2,0,77,79,138,120,39,135.18,397,-22.00,68.00,-950.00
2024-06-07 11:16:48.101300,0,-2,12,0,-2,0,77,79,138,120,39,135.03,397,-19.00,25.00,-973.00
2024-06-07 11:16:48.174451,0,-1,12,0,-2,0,77,79,137,120,39,135.01,397,-47.00,63.00,-1051.00
2024-06-07 11:16:48.306110,0,0,12,0,-3,0,77,79,134,120,39,135.10,397,-47.00,31.00,-900.00
2024-06-07 11:16:48.378014,-2,2,12,0,-2,0,77,79,136,120,39,135.11,397,-67.00,44.00,-1012.00
2024-06-07 11:16:48.510968,-3,3,12,0,-1,0,77,79,135,120,39,135.09,397,-21.00,47.00,-1030.00
2024-06-07 11:16:48.582245,-2,1,12,0,-1,0,77,79,134,120,39,135.05,398,-20.00,46.00,-1022.00
2024-06-07 11:16:48.683944,-1,0,13,0,0,0,77,79,133,120,39,135.07,398,-43.00,14.00,-1001.00
2024-06-07 11:16:48.818141,-1,0,13,0,0,0,77,79,133,110,39,135.09,398,10.00,10.00,-944.00
2024-06-07 11:16:48.887967,-1,0,12,0,0,0,77,79,133,110,38,135.06,398,6.00,45.00,-1074.00
2024-06-07 11:16:48.989891,-1,0,12,0,0,0,77,79,133,110,38,134.98,398,-64.00,18.00,-998.00
2024-06-07 11:16:49.125388,-1,-1,12,0,0,0,77,79,135,110,38,135.08,398,-31.00,32.00,-996.00
2024-06-07 11:16:49.194050,-1,0,12,0,0,0,77,79,134,110,38,135.04,398,-74.00,42.00,-1011.00
2024-06-07 11:16:49.330190,-1,-1,12,0,0,0,77,79,135,110,38,135.03,398,-69.00,61.00,-975.00
2024-06-07 11:16:49.346815,-1,-1,12,0,0,0,77,79,134,110,38,135.09,398,-45.00,35.00,-982.00
2024-06-07 11:16:49.535339,-2,-1,12,0,0,0,77,79,137,110,38,135.13,398,-9.00,4.00,-1043.00
2024-06-07 11:16:49.550816,-1,0,12,0,0,0,77,79,137,120,38,135.13,399,-14.00,20.00,-970.00
2024-06-07 11:16:49.703853,0,0,12,0,0,0,77,79,137,120,38,135.12,399,-27.00,13.00,-987.00
2024-06-07 11:16:49.842244,0,0,12,0,0,0,77,79,138,120,38,135.10,399,5.00,35.00,-981.00
2024-06-07 11:16:49.907857,0,0,12,0,0,0,77,79,139,120,38,135.14,399,6.00,-16.00,-1012.00
2024-06-07 11:16:49.959243,0,0,12,0,0,0,77,79,139,120,38,135.05,399,-1.00,12.00,-963.00
2024-06-07 11:16:50.151094,0,0,12,0,0,0,77,79,139,120,38,135.14,399,0.00,22.00,-946.00
2024-06-07 11:16:50.162963,0,0,12,0,0,0,77,79,140,120,38,135.09,399,-48.00,9.00,-981.00
2024-06-07 11:16:50.354262,-1,-1,12,0,0,0,77,79,139,120,38,135.13,399,-2.00,7.00,-1061.00
2024-06-07 11:16:50.367109,-2,-1,12,0,0,0,77,79,140,120,38,135.01,399,5.00,28.00,-1066.00
2024-06-07 11:16:50.559424,-1,-1,12,0,0,0,77,79,140,120,38,135.09,399,-12.00,3.00,-996.00
2024-06-07 11:16:50.570854,-1,0,12,0,0,0,77,79,142,120,38,135.16,400,-38.00,28.00,-997.00
2024-06-07 11:16:50.672755,-1,0,13,0,0,0,77,79,142,120,38,135.15,400,-50.00,21.00,-945.00
2024-06-07 11:16:50.775617,-1,0,12,0,0,0,77,79,142,120,38,135.14,400,13.00,-7.00,-954.00
2024-06-07 11:16:50.968508,-1,6,12,0,0,0,77,79,142,120,38,135.12,400,-38.00,19.00,-996.00
2024-06-07 11:16:50.978774,-1,6,12,0,2,0,77,79,143,120,38,135.13,400,6.00,1.00,-1009.00
2024-06-07 11:16:51.174800,0,3,13,0,3,0,77,79,143,120,38,135.17,400,-7.00,-4.00,-975.00
2024-06-07 11:16:51.182675,0,1,13,0,3,0,77,79,142,120,38,135.11,400,-32.00,-6.00,-1029.00
2024-06-07 11:16:51.378143,0,0,13,0,3,0,77,79,140,120,38,135.11,400,12.00,-24.00,-1054.00
2024-06-07 11:16:51.386702,0,-2,13,0,3,0,77,79,141,120,38,135.15,400,-72.00,-11.00,-989.00
2024-06-07 11:16:51.488721,0,-1,12,0,3,0,77,79,141,120,38,135.14,400,-13.00,-5.00,-1018.00
2024-06-07 11:16:51.590700,0,-1,12,0,2,0,77,79,141,120,38,135.15,401,-41.00,-8.00,-1011.00
2024-06-07 11:16:51.692688,0,0,12,0,2,0,76,79,140,120,38,135.15,401,-13.00,-6.00,-1002.00
2024-06-07 11:16:51.890362,0,0,12,0,2,0,76,79,139,120,38,135.17,401,9.00,-14.00,-1052.00
2024-06-07 11:16:51.896823,0,0,12,0,2,0,76,79,140,120,38,135.10,401,-18.00,-1.00,-980.00
2024-06-07 11:16:52.094915,0,0,12,0,2,0,76,79,140,120,38,135.18,401,-35.00,24.00,-996.00
2024-06-07 11:16:52.101301,0,0,12,0,2,0,76,79,139,120,38,135.07,401,-31.00,24.00,-991.00
2024-06-07 11:16:52.202641,0,0,12,0,2,0,76,79,140,120,38,135.17,401,-33.00,-5.00,-979.00
2024-06-07 11:16:52.402112,0,0,12,0,2,0,76,79,138,120,38,135.10,401,-20.00,16.00,-924.00
2024-06-07 11:16:52.408083,0,0,12,0,1,0,76,79,139,120,38,135.19,401,-45.00,13.00,-966.00
2024-06-07 11:16:52.509669,0,0,12,0,1,0,76,79,139,120,38,135.18,401,-23.00,29.00,-1032.00
2024-06-07 11:16:52.709228,-1,0,12,-1,1,0,76,79,140,120,38,135.18,402,9.00,10.00,-998.00
2024-06-07 11:16:52.712592,-4,0,12,0,1,0,77,79,139,120,38,135.16,402,-22.00,24.00,-903.00
2024-06-07 11:16:52.814872,-2,-2,12,0,1,0,77,79,139,120,38,135.12,402,-44.00,3.00,-1068.00
2024-06-07 11:16:52.916746,0,-5,12,0,1,0,77,79,140,120,37,135.21,402,-23.00,0.00,-934.00
2024-06-07 11:16:53.018626,0,-3,12,0,0,0,77,79,141,120,37,135.18,402,3.00,18.00,-1081.00
2024-06-07 11:16:53.120697,0,-2,12,0,0,0,77,79,141,120,37,135.15,402,-10.00,-15.00,-1079.00
2024-06-07 11:16:53.323845,0,-1,12,0,0,0,77,79,139,120,37,135.19,402,15.00,-6.00,-1032.00
2024-06-07 11:16:53.324651,0,0,12,0,0,0,77,79,140,120,37,135.19,402,-9.00,-11.00,-952.00
2024-06-07 11:16:53.528978,0,0,12,0,0,0,77,79,141,120,37,135.17,402,-11.00,2.00,-1052.00
2024-06-07 11:16:53.529319,0,0,12,0,0,0,77,79,139,120,37,135.10,402,-39.00,8.00,-977.00
2024-06-07 11:16:53.579622,0,0,12,0,0,0,77,79,140,120,37,135.17,403,-56.00,28.00,-977.00
2024-06-07 11:16:53.682067,0,0,12,0,0,0,77,79,140,120,37,135.15,403,-30.00,14.00,-979.00
2024-06-07 11:16:53.836799,0,0,12,0,0,0,77,79,139,120,37,135.13,403,-18.00,19.00,-1011.00
2024-06-07 11:16:53.885744,0,0,12,0,0,0,77,79,139,120,37,135.15,403,-15.00,-4.00,-1037.00
2024-06-07 11:16:53.988555,0,0,12,0,0,0,77,79,140,120,37,135.18,403,-67.00,25.00,-997.00
2024-06-07 11:16:54.142991,0,0,12,0,0,0,77,79,141,120,37,135.20,403,12.00,-8.00,-924.00
2024-06-07 11:16:54.191610,0,0,12,0,0,0,77,79,140,120,37,135.20,403,-9.00,-10.00,-1051.00
2024-06-07 11:16:54.293750,0,0,12,0,0,0,77,79,141,120,37,135.14,403,-41.00,-31.00,-1024.00
2024-06-07 11:16:54.450094,0,0,12,0,0,0,77,79,142,120,37,135.16,403,-7.00,20.00,-1068.00
2024-06-07 11:16:54.497518,0,0,12,0,0,0,77,79,142,120,37,135.14,403,-15.00,-14.00,-940.00
2024-06-07 11:16:54.655316,0,0,12,0,0,0,77,79,143,120,37,135.19,404,-23.00,23.00,-958.00
2024-06-07 11:16:54.701726,0,0,12,0,0,0,77,79,143,120,37,135.15,404,12.00,4.00,-1018.00
2024-06-07 11:16:54.803523,0,0,12,0,0,0,77,79,143,120,37,135.11,404,-61.00,19.00,-938.00
2024-06-07 11:16:54.921029,-1,0,12,0,0,0,77,79,144,120,37,135.23,404,15.00,8.00,-1017.00
2024-06-07 11:16:55.007936,-1,0,12,0,0,0,77,79,144,120,37,135.19,404,0.00,-2.00,-1001.00
2024-06-07 11:16:55.166862,-1,0,13,0,0,0,77,79,143,120,37,135.16,404,-24.00,-18.00,-873.00
2024-06-07 11:16:55.215608,0,0,18,0,0,0,77,79,143,120,37,135.10,404,-44.00,45.00,-998.00
2024-06-07 11:16:55.315999,0,0,24,0,0,0,77,79,143,120,37,135.16,404,-8.00,19.00,-963.00
2024-06-07 11:16:55.415953,0,0,30,0,0,0,77,79,143,120,37,135.16,404,-24.00,-16.00,-984.00
2024-06-07 11:16:55.576494,-1,0,36,0,0,0,77,79,142,120,37,135.17,404,-34.00,7.00,-1018.00
2024-06-07 11:16:55.619422,-1,-1,41,0,0,0,77,79,140,120,37,135.15,405,-27.00,43.00,-1004.00
2024-06-07 11:16:55.721443,-1,-1,53,0,0,0,77,79,141,120,37,135.13,405,-12.00,35.00,-1010.00
2024-06-07 11:16:55.883689,-1,-1,59,0,0,0,77,79,137,120,37,135.15,405,-19.00,39.00,-1016.00
2024-06-07 11:16:55.925473,-1,-1,65,0,0,0,77,79,137,120,37,135.10,405,-35.00,67.00,-1024.00
2024-06-07 11:16:56.089859,0,-1,70,0,0,0,77,79,137,120,37,135.16,405,49.00,-22.00,-1042.00
2024-06-07 11:16:56.129454,0,0,76,0,0,0,77,79,137,120,37,135.17,405,-8.00,43.00,-1001.00
2024-06-07 11:16:56.232192,0,0,82,0,0,0,77,79,135,120,37,135.13,405,-7.00,29.00,-1019.00
2024-06-07 11:16:56.395703,0,0,88,0,0,0,77,79,136,120,37,135.15,405,33.00,36.00,-1024.00
2024-06-07 11:16:56.435872,0,0,94,0,0,0,77,79,134,120,37,135.15,405,19.00,42.00,-932.00
2024-06-07 11:16:56.600444,0,0,100,0,0,0,77,79,135,120,37,135.08,406,-7.00,23.00,-1023.00
2024-06-07 11:16:56.642855,0,0,106,0,0,0,77,79,133,120,37,135.13,406,64.00,24.00,-993.00
2024-06-07 11:16:56.741482,1,0,112,0,0,0,77,79,134,110,37,135.11,406,46.00,29.00,-1028.00
2024-06-07 11:16:56.907650,1,-1,118,0,0,0,77,79,134,110,37,135.06,406,30.00,7.00,-1028.00
2024-06-07 11:16:56.946355,1,-1,124,0,0,0,77,79,133,110,36,135.16,406,24.00,34.00,-952.00
2024-06-07 11:16:57.112455,1,-1,130,0,0,0,77,79,135,110,36,135.19,406,25.00,23.00,-1053.00
2024-06-07 11:16:57.112497,1,0,136,0,0,0,77,79,133,110,36,135.16,406,0.00,8.00,-980.00
2024-06-07 11:16:57.200731,2,0,142,0,0,0,77,79,136,110,36,135.10,406,34.00,18.00,-1019.00
2024-06-07 11:16:57.317236,2,0,148,0,0,0,77,79,136,120,36,135.10,406,19.00,15.00,-1002.00
2024-06-07 11:16:57.404388,2,0,154,0,0,0,77,79,136,120,36,135.18,406,29.00,25.00,-959.00
2024-06-07 11:16:57.522018,1,0,161,0,0,0,77,79,138,120,36,135.12,407,52.00,-24.00,-1022.00
2024-06-07 11:16:57.608408,1,0,167,0,0,0,77,79,139,120,36,135.16,407,-8.00,60.00,-1015.00
2024-06-07 11:16:57.735799,1,0,173,0,0,0,77,79,139,120,36,135.14,407,45.00,-10.00,-974.00
2024-06-07 11:16:57.931581,1,0,178,0,0,0,77,79,140,120,36,135.13,407,19.00,10.00,-1029.00
2024-06-07 11:16:57.931629,1,0,-175,0,0,0,77,79,140,120,36,135.22,407,5.00,-24.00,-1022.00
2024-06-07 11:16:58.016352,1,0,-169,0,0,0,77,79,141,120,36,135.10,407,47.00,-64.00,-1037.00
2024-06-07 11:16:58.136417,1,1,-163,0,0,0,77,79,141,120,36,135.15,407,3.00,-18.00,-956.00
2024-06-07 11:16:58.220357,0,1,-157,0,0,0,77,79,141,120,36,135.09,407,50.00,-25.00,-1004.00
2024-06-07 11:16:58.341222,1,2,-151,0,0,0,77,79,139,120,36,135.09,407,20.00,-8.00,-965.00
2024-06-07 11:16:58.424229,1,2,-145,0,0,0,77,79,143,120,36,135.17,407,0.00,-21.00,-971.00
2024-06-07 11:16:58.526324,0,1,-139,0,0,0,77,79,141,120,36,135.17,408,7.00,-6.00,-957.00
2024-06-07 11:16:58.648447,0,1,-133,0,0,0,77,79,142,120,36,135.16,408,-17.00,-8.00,-991.00
2024-06-07 11:16:58.731000,0,1,-127,0,0,0,77,79,141,120,36,135.20,408,-16.00,-12.00,-1023.00
2024-06-07 11:16:58.853212,0,1,-121,0,0,0,77,79,144,120,36,135.28,408,25.00,18.00,-1051.00
2024-06-07 11:16:58.934295,0,2,-115,0,0,0,77,79,141,120,36,135.24,408,-15.00,-7.00,-998.00
2024-06-07 11:16:59.058059,0,1,-109,0,0,0,77,79,141,120,36,135.21,408,-39.00,-11.00,-1001.00
2024-06-07 11:16:59.139557,-1,1,-103,0,0,0,77,79,141,120,36,135.22,408,-16.00,-50.00,-1060.00
2024-06-07 11:16:59.262830,-1,1,-97,0,0,0,77,79,141,120,36,135.28,408,13.00,-28.00,-997.00
2024-06-07 11:16:59.342267,-1,1,-91,0,0,0,77,79,142,120,36,135.25,408,0.00,-38.00,-1073.00
2024-06-07 11:16:59.467573,-1,2,-85,0,0,0,77,79,141,120,36,135.26,408,-22.00,-19.00,-962.00
2024-06-07 11:16:59.546675,-1,2,-79,0,0,0,77,79,143,120,36,135.19,409,-41.00,-39.00,-970.00
2024-06-07 11:16:59.672432,-1,2,-73,0,0,0,77,79,142,120,36,135.25,409,-36.00,-16.00,-992.00
2024-06-07 11:16:59.750239,-1,2,-67,0,0,0,77,79,141,120,36,135.25,409,-25.00,-30.00,-942.00
2024-06-07 11:16:59.877221,0,1,-61,0,0,0,77,79,138,120,36,135.21,409,-48.00,-25.00,-961.00
2024-06-07 11:16:59.954201,0,1,-55,0,0,0,77,79,138,120,35,135.17,409,-5.00,4.00,-979.00
2024-06-07 11:17:00.087313,-1,1,-49,0,0,0,77,79,135,120,35,135.09,409,-63.00,10.00,-961.00
2024-06-07 11:17:00.158303,-1,0,-43,0,0,0,77,79,135,120,35,135.13,409,-43.00,7.00,-982.00
2024-06-07 11:17:00.286833,-2,0,-37,0,0,0,77,79,133,120,35,135.05,409,-39.00,-22.00,-995.00
2024-06-07 11:17:00.362326,-2,0,-32,0,0,0,77,79,132,110,35,135.06,409,-47.00,14.00,-1027.00
2024-06-07 11:17:00.491678,-2,0,-26,0,0,0,77,79,132,110,35,135.05,409,-10.00,-15.00,-1026.00
2024-06-07 11:17:00.566179,-2,0,-20,0,0,0,77,79,130,110,35,135.08,410,-43.00,14.00,-1018.00
2024-06-07 11:17:00.668577,-2,0,-14,0,0,0,77,79,131,110,35,135.06,410,8.00,-21.00,-1074.00
2024-06-07 11:17:00.770203,-1,0,-8,0,0,0,77,79,129,110,35,135.07,410,13.00,35.00,-1002.00
2024-06-07 11:17:00.901190,0,0,-3,0,0,0,77,79,129,110,35,135.09,410,-21.00,-13.00,-1079.00
2024-06-07 11:17:00.974159,-1,0,0,0,0,0,77,79,132,110,35,135.14,410,-50.00,-2.00,-1098.00
2024-06-07 11:17:01.025144,-1,0,3,0,0,-1,77,79,133,110,35,135.09,410,-36.00,50.00,-1004.00
2024-06-07 11:17:01.208429,-1,0,5,0,0,-1,77,79,136,110,35,135.15,410,-13.00,5.00,-1041.00
2024-06-07 11:17:01.229192,-1,0,7,0,0,-1,77,79,138,120,35,135.19,410,-40.00,41.00,-930.00
2024-06-07 11:17:01.413182,-1,0,8,0,0,-1,77,79,138,120,35,135.15,410,-31.00,-14.00,-999.00
2024-06-07 11:17:01.436505,-1,0,9,0,0,0,77,79,141,120,35,135.17,410,-32.00,-23.00,-1001.00
2024-06-07 11:17:01.535616,-1,0,10,0,0,0,77,79,142,120,35,135.16,411,17.00,-19.00,-990.00
2024-06-07 11:17:01.637224,-1,0,11,0,0,0,77,79,144,120,35,135.24,411,-8.00,18.00,-1005.00
2024-06-07 11:17:01.739240,0,1,11,0,0,0,77,79,144,120,35,135.31,411,-16.00,2.00,-971.00
2024-06-07 11:17:01.925266,0,1,11,0,0,0,77,79,145,120,35,135.31,411,-35.00,-11.00,-983.00
2024-06-07 11:17:01.943069,0,0,11,0,0,0,77,79,146,120,35,135.21,411,-42.00,34.00,-975.00
2024-06-07 11:17:02.130435,-1,0,11,0,0,0,77,79,147,120,35,135.20,411,10.00,-30.00,-996.00
2024-06-07 11:17:02.147568,-1,0,11,0,0,0,77,79,146,120,35,135.26,411,-51.00,39.00,-986.00
2024-06-07 11:17:02.249439,-1,0,11,0,0,0,77,79,146,120,35,135.22,411,-15.00,-38.00,-980.00
2024-06-07 11:17:02.437370,-1,0,11,0,0,0,77,79,146,120,35,135.21,411,-34.00,4.00,-1088.00
2024-06-07 11:17:02.453010,-1,0,11,0,0,0,77,79,145,120,35,135.18,411,-38.00,19.00,-1023.00
2024-06-07 11:17:02.642427,-1,0,11,0,0,0,77,79,145,120,35,135.23,412,5.00,-5.00,-982.00
2024-06-07 11:17:02.656999,-1,0,11,0,0,0,77,79,146,120,35,135.18,412,12.00,-16.00,-1037.00
2024-06-07 11:17:02.759152,-1,0,11,0,0,0,77,80,143,120,35,135.16,412,-30.00,-23.00,-1048.00
2024-06-07 11:17:02.949372,-1,0,11,0,0,0,77,80,144,120,34,135.27,412,-2.00,33.00,-999.00
2024-06-07 11:17:02.962974,-1,0,11,0,0,0,77,80,144,120,34,135.14,412,-50.00,-16.00,-1002.00
2024-06-07 11:17:03.154341,-2,0,11,0,0,0,77,80,142,120,34,135.16,412,10.00,-30.00,-1026.00
2024-06-07 11:17:03.167038,-1,0,11,0,0,0,77,80,140,120,34,135.15,412,-18.00,27.00,-1053.00
2024-06-07 11:17:03.359189,-1,0,11,0,0,0,77,80,141,120,34,135.16,412,-42.00,7.00,-1066.00
2024-06-07 11:17:03.371046,-1,0,11,0,0,0,77,80,140,120,34,135.16,412,-18.00,-5.00,-963.00
2024-06-07 11:17:03.563738,-1,0,11,0,0,0,77,80,139,120,34,135.20,412,-23.00,0.00,-1022.00
2024-06-07 11:17:03.575244,-1,0,11,0,0,0,77,80,138,120,34,135.17,413,-55.00,25.00,-974.00
2024-06-07 11:17:03.677069,-1,0,11,0,0,0,77,80,137,120,34,135.12,413,-5.00,-27.00,-1006.00
2024-06-07 11:17:03.870775,-1,0,8,0,0,0,77,79,136,120,34,135.15,413,-29.00,0.00,-1018.00
2024-06-07 11:17:03.880997,-1,0,2,0,0,0,77,79,135,120,34,135.17,413,26.00,-8.00,-1009.00
2024-06-07 11:17:04.075625,-1,0,-3,0,0,0,77,79,134,120,34,135.06,413,20.00,-27.00,-1002.00
2024-06-07 11:17:04.085001,-1,0,-9,0,0,0,77,79,135,120,34,135.09,413,-14.00,-2.00,-1044.00
2024-06-07 11:17:04.187054,-1,0,-14,0,0,0,77,79,133,110,34,135.10,413,-73.00,27.00,-1029.00
2024-06-07 11:17:04.290522,0,0,-20,0,0,0,77,79,132,110,34,135.03,413,-42.00,-21.00,-1001.00
2024-06-07 11:17:04.391028,0,0,-26,0,0,0,77,79,131,110,34,135.05,413,-3.00,-2.00,-998.00
2024-06-07 11:17:04.587452,0,0,-32,0,0,0,77,79,131,110,34,134.99,413,0.00,-25.00,-1026.00
2024-06-07 11:17:04.595250,0,0,-38,0,0,0,77,79,132,110,34,135.04,414,-8.00,5.00,-1010.00
2024-06-07 11:17:04.697740,0,0,-44,0,0,0,77,79,131,110,34,135.12,414,-52.00,15.00,-1025.00
2024-06-07 11:17:04.894786,0,0,-50,0,0,0,77,79,131,110,34,135.10,414,-35.00,6.00,-1039.00
2024-06-07 11:17:04.901946,0,0,-56,0,0,0,77,79,132,110,34,135.09,414,37.00,-12.00,-1073.00
2024-06-07 11:17:05.099498,0,1,-62,0,0,0,77,79,132,110,34,135.13,414,-20.00,9.00,-998.00
2024-06-07 11:17:05.105929,0,1,-68,0,0,0,77,79,131,110,34,135.16,414,3.00,-45.00,-990.00
2024-06-07 11:17:05.304361,0,1,-74,0,0,0,77,79,133,110,34,135.10,414,42.00,-38.00,-1028.00
2024-06-07 11:17:05.304442,0,0,-80,0,0,0,77,79,132,110,34,135.13,414,-27.00,12.00,-977.00
2024-06-07 11:17:05.360920,0,0,-86,0,0,0,77,79,131,110,34,135.21,414,11.00,-42.00,-1021.00
2024-06-07 11:17:05.509206,0,1,-92,0,0,0,77,79,131,110,34,135.10,414,48.00,-9.00,-1028.00
2024-06-07 11:17:05.565291,0,1,-98,0,0,0,77,79,132,110,34,135.10,415,26.00,-63.00,-1013.00
2024-06-07 11:17:05.687400,0,1,-104,0,0,0,77,79,133,110,34,135.09,415,42.00,-13.00,-1006.00
2024-06-07 11:17:05.769961,0,2,-110,0,0,0,77,79,134,110,34,135.11,415,-7.00,-11.00,-918.00
2024-06-07 11:17:05.918756,1,2,-116,0,0,0,77,79,134,110,34,135.02,415,39.00,-31.00,-997.00
2024-06-07 11:17:05.976118,1,1,-122,0,0,0,77,79,133,110,34,135.12,415,29.00,-19.00,-956.00
2024-06-07 11:17:06.076508,2,1,-128,0,0,0,77,79,134,110,34,135.08,415,-28.00,8.00,-1043.00
2024-06-07 11:17:06.178226,2,1,-134,0,0,0,77,79,135,110,34,135.02,415,59.00,22.00,-1018.00
2024-06-07 11:17:06.328363,2,0,-140,0,0,0,77,79,136,120,34,135.08,415,53.00,-36.00,-1038.00
2024-06-07 11:17:06.381983,2,0,-146,0,0,0,77,79,135,120,34,135.13,415,-6.00,9.00,-971.00
2024-06-07 11:17:06.534376,2,0,-151,0,0,0,77,79,136,120,34,135.10,415,35.00,-20.00,-980.00
2024-06-07 11:17:06.585882,1,0,-157,0,0,0,77,79,137,120,34,135.13,416,56.00,-27.00,-949.00
2024-06-07 11:17:06.739187,1,0,-163,0,0,0,77,79,137,120,34,135.13,416,17.00,-6.00,-1005.00
2024-06-07 11:17:06.789810,1,0,-169,0,0,0,77,80,135,120,34,135.05,416,55.00,-26.00,-988.00
2024-06-07 11:17:06.942741,2,0,-175,0,0,0,77,80,136,120,33,135.11,416,16.00,22.00,-1023.00
2024-06-07 11:17:06.993814,2,0,178,0,0,0,77,80,136,120,33,135.12,416,28.00,-29.00,-1075.00
2024-06-07 11:17:07.147550,2,0,172,0,0,0,77,80,134,120,33,135.14,416,34.00,-12.00,-980.00
2024-06-07 11:17:07.199746,2,0,166,0,0,0,77,80,133,120,33,135.14,416,49.00,-34.00,-996.00
2024-06-07 11:17:07.301375,2,0,160,0,0,0,77,80,131,120,33,135.09,416,46.00,-1.00,-953.00
2024-06-07 11:17:07.401846,2,0,154,0,0,0,77,80,131,120,33,135.10,416,41.00,14.00,-968.00
2024-06-07 11:17:07.561601,2,0,148,0,0,0,77,80,131,110,33,135.10,416,54.00,11.00,-1029.00
2024-06-07 11:17:07.606507,2,0,142,0,0,0,77,80,129,110,33,135.07,417,-11.00,8.00,-1054.00
2024-06-07 11:17:07.766956,2,-1,136,0,0,0,77,80,128,110,33,135.02,417,26.00,30.00,-1067.00
2024-06-07 11:17:07.810453,1,-1,130,0,0,0,77,80,127,110,33,135.03,417,49.00,-5.00,-1056.00
2024-06-07 11:17:08.069293,1,-1,124,0,0,0,77,80,128,110,33,135.12,417,25.00,-6.00,-1033.00
2024-06-07 11:17:08.069368,1,-1,118,0,0,0,77,80,127,110,33,135.07,417,-13.00,50.00,-976.00
2024-06-07 11:17:08.117612,1,-1,111,0,0,0,77,80,125,110,33,135.11,417,34.00,25.00,-1011.00
2024-06-07 11:17:08.217809,1,-1,105,0,0,0,77,80,125,110,33,135.08,417,-33.00,31.00,-973.00
2024-06-07 11:17:08.376355,0,-1,99,0,0,0,77,80,125,110,33,135.10,417,30.00,29.00,-978.00
2024-06-07 11:17:08.421768,0,-1,93,0,0,0,77,80,123,110,33,135.06,417,1.00,45.00,-1041.00
2024-06-07 11:17:08.581155,0,-1,87,0,0,0,77,80,125,110,33,135.11,417,-6.00,9.00,-995.00
2024-06-07 11:17:08.625752,0,-1,81,0,0,0,77,80,126,110,33,135.07,418,9.00,-11.00,-1100.00
2024-06-07 11:17:08.727995,0,0,76,0,0,0,77,80,127,110,33,135.03,418,10.00,6.00,-1022.00
2024-06-07 11:17:08.888324,0,0,64,0,0,0,77,79,128,110,33,135.07,418,-50.00,15.00,-945.00
2024-06-07 11:17:08.931702,0,0,58,0,0,0,77,79,128,110,33,135.11,418,-31.00,4.00,-956.00
2024-06-07 11:17:09.093302,0,0,52,0,0,0,77,79,131,110,33,135.12,418,8.00,-5.00,-994.00
2024-06-07 11:17:09.135705,0,0,47,0,0,0,77,79,131,110,33,135.11,418,-7.00,7.00,-1026.00
2024-06-07 11:17:09.298204,0,0,41,0,0,0,77,79,131,110,33,135.11,418,-14.00,-14.00,-971.00
2024-06-07 11:17:09.339753,0,0,35,0,0,0,77,79,132,110,33,135.20,418,-13.00,-15.00,-991.00
2024-06-07 11:17:09.390666,0,0,30,0,0,0,77,79,133,120,33,135.14,418,-58.00,22.00,-924.00
2024-06-07 11:17:09.502753,0,0,25,0,0,0,77,79,135,120,33,135.19,419,7.00,-9.00,-982.00
2024-06-07 11:17:09.600411,0,0,22,0,0,0,77,79,135,120,33,135.17,419,-7.00,-34.00,-1023.00
2024-06-07 11:17:09.696975,0,0,19,0,0,0,77,79,136,120,33,135.11,419,21.00,-22.00,-988.00
2024-06-07 11:17:09.809928,0,0,17,0,0,0,77,79,136,120,33,135.19,419,16.00,-35.00,-1019.00
2024-06-07 11:17:09.900769,0,0,16,0,0,0,77,79,136,120,33,135.14,419,-36.00,1.00,-957.00
2024-06-07 11:17:10.014744,0,0,14,0,0,0,77,79,136,120,33,135.18,419,18.00,14.00,-1091.00
2024-06-07 11:17:10.105506,0,0,14,0,0,0,77,79,136,120,33,135.14,419,-26.00,1.00,-984.00
2024-06-07 11:17:10.206717,0,0,13,0,0,0,77,79,136,120,33,135.14,419,-19.00,-35.00,-983.00
2024-06-07 11:17:10.322707,0,0,12,0,0,0,77,79,136,120,33,135.12,419,34.00,-22.00,-1016.00
2024-06-07 11:17:10.411203,-1,0,12,0,0,0,77,79,135,120,33,135.19,419,-10.00,-21.00,-975.00
2024-06-07 11:17:10.526881,-1,0,12,0,0,0,77,79,136,120,33,135.21,420,-8.00,-12.00,-1005.00
2024-06-07 11:17:10.615205,-1,0,12,0,0,0,77,79,135,120,33,135.14,420,-9.00,-16.00,-1024.00
2024-06-07 11:17:10.731765,-1,0,13,0,0,0,77,79,134,120,33,135.18,420,37.00,-2.00,-1050.00
2024-06-07 11:17:10.819711,-1,0,13,0,0,0,77,80,136,120,33,135.25,420,-16.00,17.00,-1027.00
2024-06-07 11:17:10.936554,-1,0,13,0,0,0,77,80,136,120,33,135.19,420,16.00,3.00,-923.00
2024-06-07 11:17:11.023759,-1,0,13,0,0,0,77,80,137,120,33,135.21,420,-15.00,6.00,-1029.00
2024-06-07 11:17:11.142252,-1,0,13,0,0,0,77,80,136,120,33,135.25,420,11.00,-26.00,-1047.00
2024-06-07 11:17:11.227657,0,0,13,0,0,0,77,80,139,120,33,135.26,420,6.00,-8.00,-1034.00
2024-06-07 11:17:11.346029,0,0,13,0,0,0,77,80,140,120,33,135.27,420,-39.00,-3.00,-1053.00
2024-06-07 11:17:11.431614,0,0,13,0,0,0,77,80,138,120,33,135.27,420,-3.00,-18.00,-938.00
2024-06-07 11:17:11.550925,0,0,12,0,0,0,77,80,138,120,33,135.33,421,19.00,-5.00,-1076.00
2024-06-07 11:17:11.635826,0,-1,12,0,0,0,77,80,140,120,33,135.29,421,10.00,-25.00,-996.00
2024-06-07 11:17:11.737710,0,-1,12,0,0,0,77,80,137,120,33,135.22,421,-6.00,41.00,-941.00
2024-06-07 11:17:11.859046,0,-1,12,0,0,0,77,79,137,120,33,135.25,421,-1.00,54.00,-1013.00
2024-06-07 11:17:11.941719,-1,-1,12,0,0,0,77,79,137,120,33,135.21,421,-46.00,16.00,-953.00
2024-06-07 11:17:12.063365,-1,0,12,0,0,0,77,79,139,120,33,135.16,421,-2.00,-5.00,-1000.00
2024-06-07 11:17:12.146057,0,0,12,0,0,0,77,79,138,120,33,135.20,421,-14.00,18.00,-965.00
2024-06-07 11:17:12.247894,0,0,12,0,0,0,77,79,138,120,33,135.23,421,-4.00,27.00,-962.00
2024-06-07 11:17:12.349675,0,0,12,0,0,0,77,79,139,120,33,135.26,421,-41.00,14.00,-1049.00
2024-06-07 11:17:12.474172,0,-1,12,0,0,0,77,79,138,120,33,135.12,421,1.00,-13.00,-970.00
2024-06-07 11:17:12.553693,-1,-1,12,0,0,0,77,79,139,120,33,135.16,422,-34.00,27.00,-1004.00
2024-06-07 11:17:12.677348,-1,-1,12,0,0,0,77,79,139,120,33,135.17,422,-49.00,29.00,-970.00
2024-06-07 11:17:12.757605,-1,-2,12,0,0,0,77,79,138,120,33,135.16,422,-6.00,1.00,-992.00
2024-06-07 11:17:12.881935,-1,-1,12,0,0,0,77,80,138,120,33,135.16,422,-20.00,36.00,-1018.00
2024-06-07 11:17:12.961615,-1,-1,12,0,0,0,77,80,138,120,32,135.17,422,29.00,2.00,-1000.00
2024-06-07 11:17:13.086899,0,0,12,0,0,0,77,80,137,120,32,135.24,422,9.00,29.00,-942.00
2024-06-07 11:17:13.166341,0,-1,12,0,0,0,77,80,138,120,32,135.22,422,-47.00,52.00,-996.00
2024-06-07 11:17:13.216516,-1,-1,12,0,0,0,77,80,138,120,32,135.17,422,-50.00,11.00,-1019.00
2024-06-07 11:17:13.394322,-1,-1,12,0,0,0,77,80,140,120,32,135.20,422,-9.00,6.00,-1015.00
2024-06-07 11:17:13.420743,-1,0,12,0,0,0,77,80,139,120,32,135.28,422,3.00,15.00,-977.00
2024-06-07 11:17:13.598743,-1,0,13,0,0,0,77,80,139,120,32,135.32,423,29.00,19.00,-917.00
2024-06-07 11:17:13.627819,0,0,13,0,0,0,77,80,139,120,32,135.27,423,3.00,13.00,-959.00
2024-06-07 11:17:13.726812,-1,0,13,0,0,0,77,80,139,120,32,135.28,423,-34.00,40.00,-914.00
2024-06-07 11:17:13.906346,-1,0,13,0,0,0,77,80,139,120,32,135.35,423,-40.00,4.00,-898.00
2024-06-07 11:17:13.930501,-1,-1,13,0,0,0,77,80,139,120,32,135.35,423,-7.00,0.00,-1058.00
2024-06-07 11:17:14.110738,-1,-1,12,0,0,0,77,80,139,120,32,135.25,423,-42.00,19.00,-922.00
2024-06-07 11:17:14.134597,-1,-1,12,0,0,0,77,80,138,120,32,135.24,423,-5.00,8.00,-1001.00
2024-06-07 11:17:14.315485,0,-1,12,0,0,0,77,80,139,120,32,135.21,423,0.00,-19.00,-1031.00
2024-06-07 11:17:14.338470,0,-1,12,0,0,0,77,80,139,120,32,135.22,423,-51.00,24.00,-1060.00
2024-06-07 11:17:14.520375,0,-1,12,0,0,0,77,80,139,120,32,135.24,423,1.00,20.00,-990.00
2024-06-07 11:17:14.542444,0,0,12,0,0,0,77,80,140,120,32,135.21,424,10.00,4.00,-951.00
2024-06-07 11:17:14.698289,0,0,12,0,0,0,77,80,138,120,32,135.25,424,10.00,5.00,-964.00
2024-06-07 11:17:14.746464,0,0,12,0,0,0,77,80,137,120,32,135.27,424,-63.00,10.00,-919.00
2024-06-07 11:17:14.929941,0,-1,12,0,0,0,77,79,139,120,32,135.21,424,1.00,7.00,-982.00
2024-06-07 11:17:14.950441,0,-1,12,0,0,0,77,79,137,120,32,135.23,424,31.00,11.00,-1043.00
2024-06-07 11:17:15.134875,0,-1,12,0,0,0,77,79,137,120,32,135.27,424,36.00,33.00,-1015.00
2024-06-07 11:17:15.154521,0,-1,12,0,0,0,77,79,136,120,32,135.28,424,-17.00,34.00,-958.00
2024-06-07 11:17:15.256527,0,-1,12,0,0,0,77,79,135,120,32,135.18,424,-15.00,28.00,-1012.00
2024-06-07 11:17:15.358370,0,0,12,0,0,0,77,79,137,120,32,135.24,424,14.00,40.00,-1044.00
2024-06-07 11:17:15.460520,0,0,12,0,0,0,77,79,136,120,32,135.26,424,21.00,29.00,-1083.00
2024-06-07 11:17:15.647204,0,0,12,0,0,0,77,79,137,120,32,135.24,425,-13.00,-2.00,-1003.00
2024-06-07 11:17:15.664409,0,-1,12,0,0,0,77,79,137,120,32,135.21,425,-16.00,15.00,-1088.00
2024-06-07 11:17:15.766446,0,0,12,0,0,0,77,79,136,120,32,135.23,425,-18.00,30.00,-994.00
2024-06-07 11:17:15.868439,0,-1,12,0,0,0,77,79,139,120,32,135.28,425,-15.00,55.00,-984.00
2024-06-07 11:17:15.970450,0,-1,12,0,0,0,77,79,140,120,32,135.21,425,-19.00,31.00,-1021.00
2024-06-07 11:17:16.158856,-1,-1,12,0,0,0,77,79,139,120,32,135.16,425,2.00,-21.00,-969.00
2024-06-07 11:17:16.175191,0,0,12,0,0,0,77,79,141,120,32,135.28,425,26.00,18.00,-922.00
2024-06-07 11:17:16.277519,0,0,12,0,0,0,77,79,141,120,32,135.20,425,-22.00,34.00,-997.00
2024-06-07 11:17:16.379305,0,0,12,0,0,0,77,79,141,120,32,135.22,425,-9.00,-25.00,-1008.00
2024-06-07 11:17:16.568859,0,0,12,0,0,0,77,79,140,120,32,135.23,425,41.00,28.00,-985.00
2024-06-07 11:17:16.583292,0,0,12,0,0,0,77,79,140,120,32,135.30,426,28.00,8.00,-957.00
2024-06-07 11:17:16.634844,0,0,12,0,0,0,77,79,140,120,32,135.19,426,-25.00,-4.00,-938.00
2024-06-07 11:17:16.773751,0,0,12,0,0,0,77,79,138,120,32,135.20,426,31.00,37.00,-980.00
2024-06-07 11:17:16.838456,0,0,12,0,0,0,76,79,139,120,31,135.23,426,0.00,-31.00,-1061.00
2024-06-07 11:17:16.978046,0,0,12,0,0,0,76,79,139,120,31,135.28,426,10.00,33.00,-1018.00
2024-06-07 11:17:17.042450,0,0,12,0,0,0,76,79,137,120,31,135.27,426,9.00,29.00,-948.00
2024-06-07 11:17:17.183055,0,0,12,0,0,0,76,79,137,120,31,135.31,426,-12.00,11.00,-1047.00
2024-06-07 11:17:17.246743,0,0,12,0,0,0,76,79,135,120,31,135.26,426,41.00,3.00,-1022.00
2024-06-07 11:17:17.387559,0,0,12,0,0,0,76,79,136,120,31,135.26,426,26.00,-5.00,-989.00
2024-06-07 11:17:17.451386,0,0,12,0,0,0,76,79,136,120,31,135.20,426,52.00,6.00,-1000.00
2024-06-07 11:17:17.592442,0,0,12,0,0,0,76,79,136,120,31,135.28,427,2.00,27.00,-1063.00
2024-06-07 11:17:17.656360,0,0,12,0,0,0,76,79,136,120,31,135.24,427,17.00,1.00,-1098.00
2024-06-07 11:17:17.756262,0,0,12,0,0,0,76,79,135,120,31,135.22,427,2.00,13.00,-1015.00
2024-06-07 11:17:17.901013,0,0,12,0,0,0,76,79,135,120,31,135.23,427,2.00,0.00,-1026.00
2024-06-07 11:17:17.961644,0,0,12,0,0,0,76,79,136,120,31,135.22,427,37.00,-26.00,-936.00
2024-06-07 11:17:18.104345,0,0,12,0,0,0,76,79,134,120,31,135.32,427,24.00,11.00,-923.00
2024-06-07 11:17:18.164973,0,0,12,0,0,0,76,79,134,120,31,135.27,427,78.00,-3.00,-1015.00
2024-06-07 11:17:18.268185,0,0,12,0,0,0,76,79,134,120,31,135.26,427,19.00,33.00,-990.00
2024-06-07 11:17:18.368229,1,0,12,0,0,0,76,79,135,120,31,135.23,427,21.00,-22.00,-951.00
2024-06-07 11:17:18.513932,1,0,12,0,0,0,76,79,134,120,31,135.29,427,-27.00,62.00,-928.00
2024-06-07 11:17:18.572348,1,0,12,0,0,0,76,79,136,120,31,135.30,428,19.00,-44.00,-1157.00
2024-06-07 11:17:18.718807,0,0,12,0,0,0,76,79,136,120,31,135.33,428,-23.00,29.00,-1003.00
2024-06-07 11:17:18.776197,1,0,12,0,0,0,76,79,135,120,31,135.25,428,6.00,8.00,-945.00
2024-06-07 11:17:18.923543,0,0,12,0,0,0,76,79,137,120,31,135.27,428,27.00,0.00,-1001.00
2024-06-07 11:17:18.981470,1,0,12,0,0,0,76,79,134,120,31,135.26,428,17.00,-16.00,-991.00
2024-06-07 11:17:19.128353,1,0,12,0,0,0,76,79,137,120,31,135.28,428,40.00,6.00,-1004.00
2024-06-07 11:17:19.184344,1,0,12,0,0,0,76,79,137,120,31,135.25,428,-5.00,4.00,-998.00
2024-06-07 11:17:19.333240,1,0,12,0,0,0,76,79,135,120,31,135.30,428,28.00,-2.00,-981.00
2024-06-07 11:17:19.388249,1,0,12,0,0,0,76,79,134,120,31,135.26,428,-18.00,21.00,-976.00
2024-06-07 11:17:19.537966,1,0,12,0,0,0,76,79,135,120,31,135.25,428,49.00,6.00,-975.00
2024-06-07 11:17:19.592184,0,0,12,0,0,0,76,79,134,120,31,135.21,429,28.00,5.00,-976.00
2024-06-07 11:17:19.743468,0,0,12,0,0,0,76,79,134,110,31,135.35,429,27.00,33.00,-943.00
2024-06-07 11:17:19.796289,0,0,12,0,0,0,76,79,132,110,31,135.27,429,15.00,16.00,-1010.00
2024-06-07 11:17:19.947737,0,0,12,0,0,0,76,79,134,110,31,135.27,429,0.00,-1.00,-979.00
2024-06-07 11:17:20.000204,0,0,12,0,0,0,76,79,134,110,31,135.29,429,39.00,-21.00,-1014.00
2024-06-07 11:17:20.152332,0,0,12,0,0,0,76,79,135,110,31,135.28,429,3.00,7.00,-987.00
2024-06-07 11:17:20.207052,1,0,12,0,0,0,76,79,135,110,31,135.29,429,-13.00,5.00,-948.00
2024-06-07 11:17:20.306117,1,0,12,0,0,0,76,79,138,120,31,135.37,429,2.00,10.00,-1038.00
2024-06-07 11:17:20.459524,0,0,12,0,0,0,76,79,140,120,31,135.33,429,-22.00,-1.00,-1032.00
2024-06-07 11:17:20.459732,0,0,12,0,0,0,76,79,139,120,31,135.29,429,-42.00,19.00,-1001.00
2024-06-07 11:17:20.561854,0,0,12,0,0,0,76,79,141,120,31,135.40,430,-14.00,25.00,-960.00
2024-06-07 11:17:20.664225,0,0,12,0,0,0,76,79,144,120,31,135.39,430,35.00,-29.00,-965.00
2024-06-07 11:17:20.766397,0,0,12,0,0,0,76,79,144,120,31,135.42,430,9.00,26.00,-1069.00
2024-06-07 11:17:20.869350,0,0,12,0,0,0,77,80,146,120,30,135.44,430,-6.00,12.00,-1040.00
2024-06-07 11:17:20.969299,1,0,12,0,0,0,77,80,146,120,30,135.44,430,-16.00,55.00,-991.00
2024-06-07 11:17:21.071284,1,0,12,0,0,0,77,80,147,120,30,135.38,430,-5.00,-4.00,-956.00
2024-06-07 11:17:21.181538,0,0,12,0,0,0,77,80,146,120,30,135.41,430,15.00,-34.00,-968.00
2024-06-07 11:17:21.275332,0,0,12,0,0,0,77,80,146,120,30,135.46,430,3.00,-19.00,-952.00
2024-06-07 11:17:21.377750,0,0,12,0,0,0,77,80,144,120,30,135.42,430,-29.00,38.00,-982.00
2024-06-07 11:17:21.485260,0,0,12,0,0,0,77,80,145,120,30,135.36,430,11.00,10.00,-1010.00
2024-06-07 11:17:21.581219,0,0,12,0,0,0,77,80,144,120,30,135.39,431,-49.00,14.00,-937.00
2024-06-07 11:17:21.688362,0,0,12,0,0,1,77,80,143,120,30,135.36,431,20.00,23.00,-1043.00
2024-06-07 11:17:21.785329,0,-1,12,0,0,0,77,80,143,120,30,135.43,431,2.00,27.00,-932.00
2024-06-07 11:17:21.893324,0,-1,12,0,0,0,77,79,141,120,30,135.35,431,-16.00,11.00,-1006.00
2024-06-07 11:17:21.989127,0,-1,12,0,0,0,77,79,142,120,30,135.40,431,11.00,-11.00,-961.00
2024-06-07 11:17:22.099145,0,-1,12,0,0,0,77,79,140,120,30,135.33,431,-32.00,29.00,-1025.00
2024-06-07 11:17:22.193216,0,-1,12,0,0,0,77,79,140,120,30,135.24,431,12.00,25.00,-1087.00
2024-06-07 11:17:22.302749,0,0,12,0,0,0,77,79,140,120,30,135.30,431,30.00,5.00,-1041.00
2024-06-07 11:17:22.397102,0,0,12,0,0,0,77,79,137,120,30,135.30,431,-32.00,28.00,-965.00
2024-06-07 11:17:22.507435,0,0,12,0,0,0,77,79,137,120,30,135.35,431,-28.00,34.00,-1043.00
2024-06-07 11:17:22.601145,0,0,12,0,0,0,77,79,137,120,30,135.31,432,44.00,12.00,-1026.00
2024-06-07 11:17:22.712358,0,0,12,0,0,0,77,79,135,120,30,135.37,432,-13.00,5.00,-978.00
2024-06-07 11:17:22.805129,0,0,12,0,0,0,77,79,136,120,30,135.35,432,-7.00,10.00,-1021.00
2024-06-07 11:17:22.917129,0,0,12,0,0,0,77,79,135,120,30,135.36,432,2.00,2.00,-1076.00
2024-06-07 11:17:23.009364,0,0,12,0,0,0,77,79,136,120,30,135.29,432,-6.00,0.00,-1007.00
2024-06-07 11:17:23.122362,0,0,12,0,0,0,77,79,135,120,30,135.31,432,-17.00,-29.00,-986.00
2024-06-07 11:17:23.213257,0,0,12,0,0,0,77,79,136,120,30,135.30,432,27.00,10.00,-1076.00
2024-06-07 11:17:23.327049,0,0,12,0,0,0,77,79,136,110,30,135.30,432,17.00,-1.00,-1034.00
2024-06-07 11:17:23.417056,0,0,12,0,0,0,77,79,138,120,30,135.38,432,-5.00,20.00,-984.00
2024-06-07 11:17:23.531491,0,0,12,0,0,0,77,79,138,120,30,135.33,432,-24.00,17.00,-947.00
2024-06-07 11:17:23.621290,0,0,12,0,0,0,77,79,139,120,30,135.36,433,38.00,-15.00,-994.00
2024-06-07 11:17:23.723080,0,0,12,0,0,0,77,79,139,120,30,135.36,433,7.00,-5.00,-999.00
