TS,pitch,roll,yaw,vgx,vgy,vgz,templ,temph,tof,h,bat,baro,time,agx,agy,agz
2024-06-07 11:17:48.502350,0,0,16,0,0,0,80,82,10,0,28,133.97,438,-5.00,0.00,-1000.00
2024-06-07 11:17:48.560960,0,0,16,0,0,0,80,82,10,0,28,134.00,438,-4.00,0.00,-1000.00
2024-06-07 11:17:48.722073,0,0,16,0,0,0,80,82,10,0,28,134.01,438,-3.00,0.00,-999.00
2024-06-07 11:17:48.765102,0,0,16,0,0,0,80,82,10,0,28,133.97,438,-2.00,-2.00,-1000.00
2024-06-07 11:17:48.867188,0,0,16,0,0,0,80,82,10,0,28,133.94,438,-3.00,-1.00,-1000.00
2024-06-07 11:17:48.917748,0,0,16,0,0,0,80,82,10,0,28,133.95,438,-4.00,-1.00,-997.00
2024-06-07 11:17:49.070649,0,0,16,0,0,0,80,82,10,0,28,133.98,438,-2.00,0.00,-1000.00
2024-06-07 11:17:49.121565,0,0,16,0,0,0,80,82,10,0,28,133.97,438,-1.00,0.00,-1000.00
2024-06-07 11:17:49.233683,0,0,16,0,0,0,80,82,10,0,28,133.95,438,-4.00,0.00,-999.00
2024-06-07 11:17:49.325627,0,0,16,0,0,0,80,82,10,0,28,133.94,438,-2.00,1.00,-1000.00
2024-06-07 11:17:49.427630,0,0,16,0,0,0,80,82,10,0,28,133.96,438,-3.00,0.00,-999.00
2024-06-07 11:17:49.540872,0,0,16,0,0,0,80,82,10,0,28,133.97,438,-2.00,0.00,-1000.00
2024-06-07 11:17:49.631410,0,0,16,0,0,0,80,82,10,0,28,133.95,438,-4.00,1.00,-1000.00
2024-06-07 11:17:49.745529,0,0,16,0,0,0,80,82,10,0,28,133.95,438,-3.00,-2.00,-999.00
2024-06-07 11:17:49.836518,0,0,16,0,0,0,80,82,10,0,28,133.97,438,-3.00,0.00,-1002.00
2024-06-07 11:17:49.950465,0,0,16,0,0,0,80,82,10,0,28,134.00,438,-4.00,0.00,-1002.00
2024-06-07 11:17:50.040541,0,0,16,0,0,0,80,82,10,0,28,133.98,438,-2.00,-1.00,-1000.00
2024-06-07 11:17:50.155345,0,0,16,0,0,0,80,82,10,0,28,133.90,438,-2.00,0.00,-1000.00
2024-06-07 11:17:50.244646,0,0,16,0,0,0,80,82,10,0,28,134.02,438,-4.00,0.00,-999.00
2024-06-07 11:17:50.360111,0,0,16,0,0,0,80,82,10,0,28,133.97,438,-2.00,0.00,-999.00
2024-06-07 11:17:50.448588,0,0,16,0,0,0,80,82,10,0,28,133.96,438,-3.00,1.00,-998.00
2024-06-07 11:17:50.564951,0,0,16,0,0,0,80,82,10,0,28,133.95,438,-1.00,0.00,-1002.00
2024-06-07 11:17:50.652776,0,0,16,0,0,0,80,82,10,0,28,133.97,438,-3.00,0.00,-999.00
2024-06-07 11:17:50.769694,0,0,16,0,0,0,80,82,10,0,28,133.95,438,-2.00,0.00,-1002.00
2024-06-07 11:17:50.856577,0,0,16,0,0,0,80,82,10,0,28,134.03,438,-3.00,0.00,-998.00
2024-06-07 11:17:50.976079,0,0,16,0,0,0,80,82,10,0,28,133.99,438,-2.00,-1.00,-1000.00
2024-06-07 11:17:51.060538,0,0,16,0,0,0,80,82,10,0,28,133.95,438,-2.00,0.00,-1002.00
2024-06-07 11:17:51.162541,0,0,16,0,0,0,80,82,10,0,28,133.98,438,-3.00,0.00,-1002.00
2024-06-07 11:17:51.282903,0,0,16,0,0,0,80,82,10,0,28,134.02,438,-2.00,0.00,-999.00
2024-06-07 11:17:51.366331,0,0,16,0,0,0,80,82,10,0,28,133.99,438,-4.00,1.00,-1000.00
2024-06-07 11:17:51.486413,0,0,16,0,0,0,80,82,10,0,28,133.99,438,-3.00,1.00,-1000.00
2024-06-07 11:17:51.570477,0,0,16,0,0,0,80,82,10,0,28,133.97,438,-4.00,-6.00,-999.00
2024-06-07 11:17:51.691180,0,0,16,0,0,0,80,82,10,0,28,133.97,438,-2.00,7.00,-1001.00
2024-06-07 11:17:51.774441,0,0,16,0,0,0,80,82,10,0,28,133.97,438,7.00,4.00,-990.00
2024-06-07 11:17:51.876425,0,0,17,0,0,0,80,82,10,0,28,133.97,438,17.00,-27.00,-996.00
2024-06-07 11:17:51.998353,0,0,17,0,0,0,80,82,10,0,28,133.97,438,30.00,-2.00,-1020.00
2024-06-07 11:17:52.080402,0,0,17,0,0,0,81,83,10,0,28,133.97,439,6.00,-7.00,-1023.00
2024-06-07 11:17:52.182446,0,-1,16,0,0,0,81,83,10,0,28,133.97,439,28.00,0.00,-1195.00
2024-06-07 11:17:52.307832,0,0,15,0,0,-2,81,83,10,0,28,133.97,439,-45.00,40.00,-1269.00
2024-06-07 11:17:52.335445,-1,0,16,0,0,-5,81,83,10,0,28,133.97,439,-17.00,-16.00,-1230.00
2024-06-07 11:17:52.437425,-2,0,16,0,0,-6,81,83,14,0,28,134.30,439,-9.00,-4.00,-1079.00
2024-06-07 11:17:52.539365,-1,0,16,0,0,-6,81,83,23,0,28,134.39,439,-32.00,-2.00,-1066.00
2024-06-07 11:17:52.641393,-1,0,16,0,0,-6,81,83,31,0,28,134.45,439,6.00,-26.00,-1076.00
2024-06-07 11:17:52.743805,-1,0,16,0,0,-6,81,83,41,10,28,134.54,439,-3.00,-27.00,-1021.00
2024-06-07 11:17:52.920132,-1,0,16,0,0,-6,81,83,50,10,28,134.62,439,-24.00,-10.00,-952.00
2024-06-07 11:17:52.947301,-1,0,16,0,0,-5,81,83,58,20,28,134.72,439,0.00,-40.00,-931.00
2024-06-07 11:17:53.124858,0,0,16,0,0,-4,81,83,66,20,28,134.79,440,-28.00,-5.00,-859.00
2024-06-07 11:17:53.151652,0,0,16,0,0,-3,81,83,73,30,28,134.83,440,-38.00,-31.00,-876.00
2024-06-07 11:17:53.329546,-1,0,16,0,0,-2,81,83,79,30,28,134.89,440,-30.00,-30.00,-929.00
2024-06-07 11:17:53.355314,-1,0,16,0,0,-2,81,83,84,30,28,134.99,440,-29.00,12.00,-890.00
2024-06-07 11:17:53.534341,-2,0,16,0,0,-1,81,83,89,40,28,135.08,440,-22.00,-25.00,-913.00
2024-06-07 11:17:53.559320,-1,0,16,0,0,0,81,83,92,40,28,135.08,440,6.00,-41.00,-935.00
2024-06-07 11:17:53.739172,-1,1,16,0,0,0,81,83,95,40,28,135.06,440,0.00,-3.00,-956.00
2024-06-07 11:17:53.763286,0,2,16,0,0,0,81,83,98,40,28,135.10,440,0.00,7.00,-949.00
2024-06-07 11:17:53.865222,0,2,16,0,0,0,81,83,100,50,28,135.15,440,9.00,-28.00,-936.00
2024-06-07 11:17:54.046374,0,2,16,0,0,0,81,83,101,50,28,135.07,440,10.00,-40.00,-956.00
2024-06-07 11:17:54.069275,0,2,16,0,0,0,81,83,100,50,28,135.02,441,4.00,-45.00,-945.00
2024-06-07 11:17:54.251357,0,1,16,0,0,1,81,83,101,50,28,135.06,441,-54.00,11.00,-944.00
2024-06-07 11:17:54.274267,-1,1,16,0,0,1,81,83,100,50,28,135.06,441,-18.00,-16.00,-935.00
2024-06-07 11:17:54.376255,-1,0,16,0,0,1,81,83,100,50,28,135.06,441,-30.00,0.00,-965.00
2024-06-07 11:17:54.558791,-2,0,16,0,0,1,81,83,99,50,28,135.09,441,-43.00,0.00,-1034.00
2024-06-07 11:17:54.580173,-3,0,16,0,0,1,81,83,97,50,28,135.08,441,-46.00,-33.00,-948.00
2024-06-07 11:17:54.763160,-2,1,16,0,0,1,81,83,97,50,28,135.03,441,-36.00,-24.00,-989.00
2024-06-07 11:17:54.784148,-1,1,15,0,0,1,81,83,96,50,28,135.08,441,12.00,-50.00,-1007.00
2024-06-07 11:17:54.886233,0,1,16,0,0,1,81,83,95,50,28,135.03,441,3.00,-19.00,-1019.00
2024-06-07 11:17:54.991555,0,2,16,0,0,1,81,83,93,50,28,135.06,441,-64.00,3.00,-967.00
2024-06-07 11:17:55.090206,0,1,16,0,0,1,81,83,92,50,28,135.04,442,-18.00,-6.00,-1053.00
2024-06-07 11:17:55.275189,-1,1,16,0,0,1,81,83,91,50,28,135.01,442,-50.00,-3.00,-1002.00
2024-06-07 11:17:55.294218,-1,0,16,0,0,1,81,83,89,50,28,134.92,442,-27.00,-16.00,-948.00
2024-06-07 11:17:55.479914,-1,0,16,0,0,1,81,83,87,50,28,134.95,442,-79.00,19.00,-936.00
2024-06-07 11:17:55.498758,-1,0,16,0,0,1,81,83,87,40,28,134.95,442,-20.00,-43.00,-1066.00
2024-06-07 11:17:55.600215,-2,0,16,0,0,1,81,83,86,40,28,134.92,442,-27.00,-14.00,-1023.00
2024-06-07 11:17:55.702231,-1,0,16,0,0,1,81,83,85,40,28,134.94,442,-18.00,-1.00,-1016.00
2024-06-07 11:17:55.805023,-1,0,16,0,0,1,81,83,83,40,28,134.89,442,-3.00,-51.00,-1000.00
2024-06-07 11:17:55.906289,-1,0,16,0,0,1,81,83,83,40,28,134.93,442,-36.00,-10.00,-1020.00
2024-06-07 11:17:55.957132,-1,0,16,0,0,0,81,83,81,40,28,134.84,442,-39.00,10.00,-995.00
2024-06-07 11:17:56.110199,-1,0,16,0,0,0,80,82,80,40,28,134.94,443,-80.00,22.00,-970.00
2024-06-07 11:17:56.161479,-1,0,16,0,0,0,80,82,78,40,28,134.92,443,-31.00,-15.00,-1062.00
2024-06-07 11:17:56.299132,-1,0,16,0,0,0,80,82,78,40,28,134.95,443,-40.00,19.00,-1026.00
2024-06-07 11:17:56.365171,-1,0,16,0,0,0,80,82,77,40,28,134.91,443,19.00,14.00,-1014.00
2024-06-07 11:17:56.503930,-1,0,16,0,0,0,80,82,76,40,28,134.84,443,27.00,-36.00,-1003.00
2024-06-07 11:17:56.569497,-1,0,16,0,0,0,80,82,76,40,28,134.82,443,-9.00,-15.00,-1099.00
2024-06-07 11:17:56.708695,-1,0,16,0,0,0,80,82,75,40,28,134.82,443,-9.00,0.00,-1032.00
2024-06-07 11:17:56.773323,-1,0,16,0,0,0,80,82,74,40,28,134.79,443,-40.00,29.00,-933.00
2024-06-07 11:17:56.875833,-1,0,16,0,0,0,80,82,74,30,28,134.85,443,-18.00,13.00,-932.00
2024-06-07 11:17:57.017199,-1,0,16,0,0,0,80,82,73,30,28,134.89,443,18.00,-27.00,-1007.00
2024-06-07 11:17:57.079024,-1,0,16,0,0,0,80,82,73,30,28,134.90,444,9.00,-24.00,-1034.00
2024-06-07 11:17:57.220719,-1,0,16,0,0,0,80,82,72,30,28,134.82,444,0.00,-28.00,-989.00
2024-06-07 11:17:57.283020,-1,0,16,0,0,0,80,82,72,30,28,134.83,444,-27.00,-8.00,-1036.00
2024-06-07 11:17:57.425490,-1,0,16,0,0,0,80,82,72,30,28,134.91,444,-10.00,-39.00,-1098.00
2024-06-07 11:17:57.487085,-1,0,16,0,0,0,80,82,72,30,28,134.90,444,-2.00,-22.00,-968.00
2024-06-07 11:17:57.630287,0,0,16,0,0,0,80,82,71,30,28,134.84,444,20.00,-26.00,-972.00
2024-06-07 11:17:57.691210,-1,0,16,0,0,0,80,82,70,30,28,134.87,444,-8.00,-2.00,-977.00
2024-06-07 11:17:57.835160,-1,0,16,0,0,0,80,82,70,30,28,134.79,444,-10.00,-21.00,-1023.00
2024-06-07 11:17:57.895098,0,0,16,0,0,0,80,82,69,30,28,134.77,444,-15.00,-15.00,-981.00
2024-06-07 11:17:58.039919,0,0,16,0,0,0,80,82,69,30,28,134.85,444,-15.00,37.00,-953.00
2024-06-07 11:17:58.099052,0,0,16,0,0,0,80,82,69,30,28,134.81,445,17.00,-19.00,-1008.00
2024-06-07 11:17:58.201049,0,0,16,0,0,0,80,82,68,30,28,134.80,445,-28.00,11.00,-961.00
2024-06-07 11:17:58.303084,0,0,16,0,0,0,80,82,68,30,28,134.78,445,-20.00,-19.00,-971.00
2024-06-07 11:17:58.454618,0,0,16,0,0,0,80,82,67,30,28,134.87,445,11.00,-5.00,-1038.00
2024-06-07 11:17:58.507149,0,0,16,0,0,0,80,82,67,30,28,134.83,445,-54.00,-21.00,-1007.00
2024-06-07 11:17:58.654879,0,0,16,0,0,0,80,82,67,30,28,134.85,445,0.00,11.00,-1018.00
2024-06-07 11:17:58.711041,0,1,16,0,0,0,80,82,67,30,28,134.81,445,-39.00,20.00,-1059.00
2024-06-07 11:17:58.813025,0,0,16,0,0,0,80,82,68,30,28,134.75,445,-28.00,-28.00,-1010.00
2024-06-07 11:17:58.915035,0,0,16,0,0,0,80,82,68,30,28,134.85,445,-21.00,24.00,-1024.00
2024-06-07 11:17:59.065524,0,1,16,0,0,0,80,82,68,30,28,134.93,445,-25.00,15.00,-1103.00
2024-06-07 11:17:59.119284,0,1,16,0,0,0,80,82,69,30,28,134.88,446,-21.00,-30.00,-1002.00
2024-06-07 11:17:59.269701,0,1,16,0,0,0,80,82,69,30,28,134.94,446,0.00,-30.00,-1014.00
2024-06-07 11:17:59.323004,-1,1,16,0,0,0,80,82,71,30,28,134.89,446,-18.00,-11.00,-914.00
2024-06-07 11:17:59.473509,0,1,16,0,0,0,80,82,71,30,28,134.86,446,1.00,-9.00,-1020.00
2024-06-07 11:17:59.527000,0,2,16,0,0,0,80,82,71,30,28,134.84,446,7.00,-21.00,-1023.00
2024-06-07 11:17:59.678291,0,1,16,0,0,0,80,82,71,30,28,134.89,446,16.00,-32.00,-1019.00
2024-06-07 11:17:59.730991,0,1,16,0,0,0,80,82,71,30,28,134.88,446,11.00,-22.00,-937.00
2024-06-07 11:17:59.781951,0,2,16,0,0,0,80,82,72,30,28,134.92,446,-21.00,-46.00,-1090.00
2024-06-07 11:17:59.883939,0,2,16,0,0,0,80,82,72,30,28,134.85,446,-36.00,-21.00,-945.00
2024-06-07 11:17:59.986140,0,2,16,0,0,0,80,82,72,30,28,134.89,446,17.00,-63.00,-1039.00
2024-06-07 11:18:00.139234,0,2,16,0,0,0,81,82,72,30,28,134.93,447,-42.00,-11.00,-1014.00
2024-06-07 11:18:00.190069,0,2,16,0,0,0,81,82,73,30,28,134.84,447,-33.00,-19.00,-1025.00
2024-06-07 11:18:00.292738,0,1,16,0,0,0,81,82,73,30,28,134.84,447,12.00,-43.00,-1028.00
2024-06-07 11:18:00.395085,0,1,16,0,0,0,81,82,73,30,28,134.87,447,-15.00,-4.00,-1009.00
2024-06-07 11:18:00.497626,0,1,16,0,0,0,81,82,74,30,28,134.80,447,-27.00,-45.00,-989.00
2024-06-07 11:18:00.597893,0,1,16,0,0,0,81,82,73,30,28,134.88,447,-16.00,-38.00,-994.00
2024-06-07 11:18:00.702402,-1,1,16,0,0,0,81,82,73,30,28,134.84,447,-46.00,-15.00,-914.00
2024-06-07 11:18:00.802110,-1,0,16,0,0,0,81,82,73,30,28,134.86,447,-40.00,-11.00,-1031.00
2024-06-07 11:18:00.904137,-1,0,16,0,0,0,81,82,73,30,28,134.91,447,30.00,-23.00,-969.00
2024-06-07 11:18:01.006222,-1,0,16,0,0,0,81,82,73,30,28,134.87,448,27.00,6.00,-1050.00
2024-06-07 11:18:01.115456,-2,0,16,0,0,0,80,82,73,30,28,134.87,448,-4.00,-11.00,-959.00
2024-06-07 11:18:01.210406,-1,0,16,0,0,0,80,82,73,30,28,134.83,448,-48.00,40.00,-962.00
2024-06-07 11:18:01.312088,-1,0,16,0,0,0,80,82,73,30,28,134.96,448,-16.00,0.00,-1019.00
2024-06-07 11:18:01.419187,-2,0,16,0,0,0,80,82,73,30,28,134.92,448,16.00,11.00,-955.00
2024-06-07 11:18:01.516260,-2,0,16,0,0,0,80,82,73,30,28,134.83,448,-22.00,29.00,-931.00
2024-06-07 11:18:01.624117,-2,0,16,0,0,0,80,82,73,30,28,134.89,448,35.00,-12.00,-1095.00
2024-06-07 11:18:01.720040,-2,0,16,0,0,0,80,82,73,30,28,134.93,448,-8.00,13.00,-1022.00
2024-06-07 11:18:01.828794,-2,-1,16,0,0,0,80,82,73,30,28,134.74,448,-74.00,17.00,-1024.00
2024-06-07 11:18:01.923924,-2,0,15,0,0,0,80,82,72,30,28,134.82,448,-32.00,-25.00,-950.00
2024-06-07 11:18:02.033542,-2,0,16,0,0,0,80,82,72,30,28,134.85,449,-82.00,-26.00,-958.00
2024-06-07 11:18:02.128098,-3,0,16,0,0,0,80,82,72,30,28,134.79,449,-68.00,-14.00,-1068.00
2024-06-07 11:18:02.229930,-3,0,16,0,0,0,80,82,72,30,28,134.85,449,-46.00,34.00,-1010.00
2024-06-07 11:18:02.340673,-2,0,16,0,0,0,80,82,73,30,28,134.91,449,-30.00,-22.00,-1007.00
2024-06-07 11:18:02.433839,-2,0,16,0,0,-1,80,82,73,30,28,134.84,449,-8.00,-12.00,-1119.00
2024-06-07 11:18:02.545493,-1,0,16,0,0,-2,80,82,76,30,28,134.98,449,-30.00,15.00,-1122.00
2024-06-07 11:18:02.637973,-1,0,16,0,0,-3,80,82,80,40,28,134.94,449,-34.00,-4.00,-1018.00
2024-06-07 11:18:02.750262,-1,0,16,0,0,-4,80,82,84,40,28,134.98,449,12.00,-1.00,-1149.00
2024-06-07 11:18:02.841872,-1,0,16,0,0,-5,80,82,90,50,28,135.04,449,14.00,-42.00,-1028.00
2024-06-07 11:18:02.944816,0,0,16,0,0,-5,80,82,96,50,28,135.03,449,-43.00,-8.00,-1020.00
2024-06-07 11:18:03.058120,0,0,16,0,0,-5,80,82,102,60,28,135.09,450,-14.00,-25.00,-1003.00
2024-06-07 11:18:03.148819,0,0,16,0,0,-5,80,82,107,60,28,135.13,450,4.00,-37.00,-978.00
2024-06-07 11:18:03.250714,0,0,16,0,0,-5,80,82,116,70,28,135.17,450,-10.00,-13.00,-968.00
2024-06-07 11:18:03.365341,0,0,16,0,0,-5,80,82,121,70,28,135.27,450,-11.00,2.00,-1010.00
2024-06-07 11:18:03.454808,-1,0,16,0,0,-5,80,82,127,80,28,135.29,450,-23.00,-6.00,-923.00
2024-06-07 11:18:03.569505,-1,0,16,0,0,-5,80,82,134,90,28,135.38,450,-20.00,17.00,-992.00
2024-06-07 11:18:03.658745,-1,0,16,0,0,-5,80,82,138,90,28,135.55,450,-18.00,-8.00,-996.00
2024-06-07 11:18:03.774275,-2,0,16,0,0,-4,80,82,146,100,28,135.46,450,-32.00,8.00,-1003.00
2024-06-07 11:18:03.862808,-2,0,16,0,0,-4,80,82,150,100,28,135.45,450,-28.00,2.00,-992.00
2024-06-07 11:18:03.964758,-1,0,16,0,0,-3,80,82,155,110,28,135.46,450,-10.00,-15.00,-944.00
2024-06-07 11:18:04.081458,-1,0,16,0,0,-3,80,82,158,110,28,135.58,451,-24.00,-16.00,-967.00
2024-06-07 11:18:04.169394,-1,0,16,0,0,-3,79,82,161,110,28,135.63,451,-14.00,0.00,-963.00
2024-06-07 11:18:04.286252,-2,0,16,0,0,-3,79,82,165,120,28,135.64,451,4.00,-20.00,-947.00
2024-06-07 11:18:04.372852,-1,0,16,0,0,-2,79,82,169,120,28,135.70,451,7.00,-36.00,-995.00
2024-06-07 11:18:04.491034,-1,0,16,0,0,-2,79,82,170,120,28,135.67,451,-36.00,-44.00,-1017.00
2024-06-07 11:18:04.576747,-1,0,16,0,0,-1,79,82,175,130,28,135.72,451,-3.00,-10.00,-961.00
2024-06-07 11:18:04.679186,-1,1,16,0,0,-1,79,82,177,130,28,135.60,451,-2.00,-27.00,-912.00
2024-06-07 11:18:04.798377,-1,1,16,0,0,-1,79,82,175,130,28,135.60,451,-14.00,1.00,-952.00
2024-06-07 11:18:04.831808,-1,1,16,0,0,0,79,82,175,130,28,135.58,451,-41.00,8.00,-966.00
2024-06-07 11:18:04.933779,-2,1,16,0,0,0,79,82,176,130,28,135.54,451,-30.00,-34.00,-988.00
2024-06-07 11:18:05.105343,-2,1,16,0,0,0,79,82,178,130,28,135.59,452,-53.00,-48.00,-1056.00
2024-06-07 11:18:05.137896,-2,1,16,0,0,0,79,82,178,130,28,135.62,452,-7.00,-11.00,-977.00
2024-06-07 11:18:05.310397,-1,1,16,0,0,0,79,82,176,130,28,135.60,452,-23.00,-40.00,-948.00
2024-06-07 11:18:05.341749,-1,1,16,0,0,0,79,82,176,130,28,135.73,452,-49.00,18.00,-982.00
2024-06-07 11:18:05.515354,-1,1,16,0,0,0,79,82,175,130,28,135.58,452,-10.00,-34.00,-990.00
2024-06-07 11:18:05.546376,-1,0,16,0,0,0,79,82,175,130,28,135.77,452,-45.00,29.00,-961.00
2024-06-07 11:18:05.720346,-1,1,16,0,0,0,79,82,175,130,28,135.68,452,-9.00,-12.00,-1044.00
2024-06-07 11:18:05.750418,-1,0,16,0,0,0,79,82,174,130,28,135.70,452,3.00,-41.00,-967.00
2024-06-07 11:18:05.924773,0,1,16,0,0,0,79,82,172,130,28,135.80,452,-14.00,-27.00,-1069.00
2024-06-07 11:18:05.953711,0,1,16,0,0,0,79,82,174,130,28,135.71,452,3.00,-24.00,-1023.00
2024-06-07 11:18:06.129536,0,0,16,0,0,0,79,82,174,130,28,135.76,453,0.00,4.00,-1024.00
2024-06-07 11:18:06.158296,0,0,16,0,0,0,79,82,171,130,28,135.72,453,18.00,-40.00,-1005.00
2024-06-07 11:18:06.334358,-1,0,16,0,0,0,79,82,173,130,28,135.76,453,-29.00,35.00,-1035.00
2024-06-07 11:18:06.361537,-1,0,16,0,0,0,79,82,171,130,28,135.74,453,-35.00,8.00,-1029.00
2024-06-07 11:18:06.539969,-1,0,16,0,0,0,79,82,170,130,28,135.78,453,-31.00,-42.00,-953.00
2024-06-07 11:18:06.565954,-1,1,16,0,0,0,79,82,170,130,28,135.73,453,34.00,-38.00,-995.00
2024-06-07 11:18:06.667587,-1,1,16,0,0,0,79,82,172,130,28,135.77,453,7.00,-15.00,-1055.00
2024-06-07 11:18:06.846268,-1,1,16,0,0,0,79,82,170,130,28,135.70,453,22.00,-80.00,-961.00
2024-06-07 11:18:06.871722,0,1,16,0,0,0,79,82,171,130,28,135.71,453,8.00,-39.00,-895.00
2024-06-07 11:18:07.051849,0,1,16,0,0,0,79,82,170,130,28,135.71,453,22.00,-51.00,-940.00
2024-06-07 11:18:07.076803,0,1,16,0,0,0,79,82,168,130,28,135.59,454,37.00,-59.00,-902.00
2024-06-07 11:18:07.255824,0,2,16,0,0,1,80,82,170,130,28,135.66,454,1.00,-41.00,-1041.00
2024-06-07 11:18:07.280537,0,2,16,0,0,1,80,82,168,120,28,135.66,454,-11.00,-51.00,-1003.00
2024-06-07 11:18:07.382903,0,1,16,0,0,2,80,82,163,120,28,135.72,454,-22.00,-43.00,-896.00
2024-06-07 11:18:07.563053,-1,1,16,0,0,2,80,82,160,120,28,135.62,454,-30.00,-48.00,-982.00
2024-06-07 11:18:07.586519,-1,1,16,0,0,2,80,82,158,120,28,135.52,454,-15.00,-22.00,-983.00
2024-06-07 11:18:07.767813,-1,1,16,0,0,2,80,82,155,120,28,135.50,454,-49.00,-17.00,-949.00
2024-06-07 11:18:07.790573,-1,1,16,0,0,2,80,82,151,110,28,135.47,454,-52.00,7.00,-1043.00
2024-06-07 11:18:07.973290,-2,1,16,0,0,2,80,82,149,110,28,135.45,454,0.00,-10.00,-975.00
2024-06-07 11:18:07.994479,-1,1,16,0,0,2,80,82,145,110,28,135.49,454,-39.00,-25.00,-1031.00
2024-06-07 11:18:08.177465,-1,1,16,0,0,2,80,82,143,100,28,135.46,455,-17.00,-4.00,-1057.00
2024-06-07 11:18:08.198434,-1,1,16,0,0,2,80,81,138,100,28,135.32,455,-58.00,-6.00,-979.00
2024-06-07 11:18:08.300519,-1,1,16,0,0,2,80,81,135,100,28,135.42,455,-49.00,-8.00,-970.00
2024-06-07 11:18:08.484603,-1,1,16,0,0,2,80,81,131,100,28,135.28,455,-38.00,-33.00,-964.00
2024-06-07 11:18:08.504509,-1,1,16,0,0,2,80,81,132,90,28,135.21,455,-28.00,-2.00,-1034.00
2024-06-07 11:18:08.689469,-1,1,16,0,0,2,80,81,127,90,28,135.22,455,-23.00,7.00,-1005.00
2024-06-07 11:18:08.708459,-1,1,16,0,0,1,80,81,125,90,28,135.30,455,-4.00,-10.00,-1037.00
2024-06-07 11:18:08.759399,-1,1,16,0,0,1,80,81,125,90,28,135.27,455,-17.00,-28.00,-990.00
2024-06-07 11:18:08.894429,-1,1,16,0,0,1,80,81,123,90,28,135.30,455,-38.00,-31.00,-993.00
2024-06-07 11:18:08.963672,-1,0,16,0,0,1,80,81,121,80,28,135.24,455,-50.00,-32.00,-999.00
2024-06-07 11:18:09.099454,-1,0,16,0,0,0,80,81,121,80,28,135.29,456,-34.00,10.00,-946.00
2024-06-07 11:18:09.218559,-1,0,16,0,0,0,80,82,120,80,28,135.23,456,-31.00,-14.00,-999.00
2024-06-07 11:18:09.269506,-1,0,16,0,0,0,80,82,119,80,28,135.19,456,-31.00,-18.00,-1061.00
2024-06-07 11:18:09.406352,-1,0,16,0,0,0,80,82,118,80,28,135.29,456,-21.00,45.00,-1047.00
2024-06-07 11:18:09.473587,-1,0,16,0,0,0,80,82,119,80,28,135.26,456,-30.00,11.00,-964.00
2024-06-07 11:18:09.610973,0,0,16,0,0,0,80,82,118,80,28,135.27,456,-1.00,-29.00,-999.00
2024-06-07 11:18:09.677482,0,0,16,0,0,0,80,82,120,80,28,135.16,456,-36.00,14.00,-992.00
2024-06-07 11:18:09.815945,0,0,16,0,0,0,80,82,119,80,28,135.19,456,20.00,-11.00,-992.00
2024-06-07 11:18:09.881747,0,0,16,0,0,0,80,82,119,80,28,135.34,456,-29.00,9.00,-947.00
2024-06-07 11:18:10.020653,0,0,16,0,0,0,80,82,119,80,28,135.30,456,8.00,-5.00,-1065.00
2024-06-07 11:18:10.085529,0,0,16,0,0,0,80,82,119,80,28,135.33,457,-9.00,-20.00,-999.00
2024-06-07 11:18:10.187504,0,0,16,0,0,0,79,82,118,80,28,135.21,457,-9.00,2.00,-1009.00
2024-06-07 11:18:10.304408,0,0,16,0,0,0,79,82,118,80,28,135.28,457,-26.00,2.00,-1088.00
2024-06-07 11:18:10.391458,-1,0,16,0,0,0,79,82,119,80,28,135.23,457,-9.00,-3.00,-945.00
2024-06-07 11:18:10.532755,0,0,16,0,0,0,79,82,119,80,28,135.27,457,-11.00,13.00,-1045.00
2024-06-07 11:18:10.595380,-1,0,16,0,0,0,79,82,119,80,28,135.19,457,0.00,-17.00,-1003.00
2024-06-07 11:18:10.737562,-1,0,16,0,0,0,79,82,119,80,28,135.27,457,-5.00,-10.00,-1030.00
2024-06-07 11:18:10.799475,-1,0,16,0,0,0,79,82,118,80,28,135.17,457,0.00,-7.00,-1019.00
2024-06-07 11:18:10.942796,-1,0,16,0,0,0,79,82,118,80,28,135.20,457,-12.00,4.00,-1033.00
2024-06-07 11:18:11.003552,-1,0,16,0,0,0,79,82,118,80,28,135.18,457,-31.00,-23.00,-994.00
2024-06-07 11:18:11.105748,-1,0,16,0,0,0,79,82,117,80,28,135.17,458,-51.00,0.00,-1043.00
2024-06-07 11:18:11.249752,-1,0,16,0,0,0,80,82,116,80,28,135.24,458,27.00,12.00,-989.00
2024-06-07 11:18:11.309340,-2,0,15,0,0,0,80,82,116,80,28,135.17,458,-32.00,-20.00,-999.00
2024-06-07 11:18:11.455538,-6,0,15,0,0,0,80,82,120,80,28,135.16,458,23.00,-36.00,-973.00
2024-06-07 11:18:11.513320,-8,0,15,1,0,0,80,82,118,80,28,135.09,458,-26.00,-25.00,-1055.00
2024-06-07 11:18:11.659027,-8,0,15,2,0,0,80,82,118,80,28,135.02,458,-38.00,-51.00,-1023.00
2024-06-07 11:18:11.717299,-8,0,16,3,0,0,80,82,118,80,28,135.12,458,-42.00,-31.00,-955.00
2024-06-07 11:18:11.863803,-8,1,16,4,0,0,80,82,120,80,28,135.10,458,-52.00,-24.00,-1026.00
2024-06-07 11:18:11.921265,-8,1,16,5,1,0,80,82,119,80,28,135.13,458,-38.00,-42.00,-991.00
2024-06-07 11:18:12.068617,-8,2,16,6,1,0,80,82,118,80,28,135.11,458,-58.00,-7.00,-1007.00
2024-06-07 11:18:12.125206,-7,3,16,7,1,0,80,82,119,80,28,135.15,459,-65.00,1.00,-967.00
2024-06-07 11:18:12.227293,-1,2,16,7,2,0,80,81,119,80,28,135.13,459,-33.00,-55.00,-945.00
2024-06-07 11:18:12.375784,1,1,16,7,2,0,80,81,119,80,28,135.13,459,-45.00,-15.00,-965.00
2024-06-07 11:18:12.431400,3,0,16,6,2,0,80,81,119,80,28,135.12,459,-24.00,-40.00,-975.00
2024-06-07 11:18:12.580571,4,1,16,5,1,0,80,81,121,80,28,135.23,459,-80.00,-45.00,-1034.00
2024-06-07 11:18:12.635280,2,2,16,4,1,0,80,81,121,80,28,135.32,459,-47.00,-40.00,-1006.00
2024-06-07 11:18:12.785383,0,2,16,3,1,0,80,81,123,80,28,135.25,459,-72.00,-6.00,-926.00
2024-06-07 11:18:12.788210,0,1,16,2,0,0,80,81,122,80,28,135.28,459,-36.00,-33.00,-979.00
2024-06-07 11:18:12.891281,-1,1,16,2,0,0,80,81,122,80,28,135.18,459,-62.00,-43.00,-1017.00
2024-06-07 11:18:12.993242,-1,1,16,2,1,0,80,81,123,80,28,135.19,460,-42.00,-25.00,-1039.00
2024-06-07 11:18:13.095270,-2,1,16,2,1,0,80,81,123,80,28,135.27,460,-47.00,-40.00,-953.00
2024-06-07 11:18:13.197244,-2,0,16,2,0,0,79,81,125,80,28,135.28,460,-25.00,-47.00,-1021.00
2024-06-07 11:18:13.299276,-2,0,16,2,0,0,79,81,123,80,28,135.27,460,-68.00,13.00,-914.00
2024-06-07 11:18:13.402144,-1,-1,16,2,0,0,79,81,124,80,28,135.34,460,-25.00,-71.00,-984.00
2024-06-07 11:18:13.503233,0,0,16,2,0,0,79,81,124,80,28,135.29,460,-46.00,30.00,-999.00
2024-06-07 11:18:13.706966,3,1,16,1,0,0,79,81,123,80,28,135.27,460,-58.00,27.00,-973.00
2024-06-07 11:18:13.707061,2,2,16,1,0,0,79,81,123,80,28,135.23,460,-16.00,-24.00,-1036.00
2024-06-07 11:18:13.809375,0,1,16,0,0,0,79,81,122,80,28,135.21,460,14.00,-40.00,-1050.00
2024-06-07 11:18:13.912016,0,1,16,0,0,0,79,81,123,80,28,135.20,460,26.00,-5.00,-1043.00
2024-06-07 11:18:14.014771,0,1,16,0,0,0,79,81,123,80,28,135.28,461,-10.00,-14.00,-1049.00
2024-06-07 11:18:14.116265,0,1,16,0,0,0,79,81,123,80,28,135.35,461,-12.00,-33.00,-1055.00
2024-06-07 11:18:14.219258,-1,1,16,0,0,0,79,81,123,80,28,135.32,461,23.00,-52.00,-1004.00
2024-06-07 11:18:14.319350,-1,1,16,0,0,0,79,81,123,80,28,135.32,461,19.00,-24.00,-1025.00
2024-06-07 11:18:14.423842,0,1,16,0,0,0,79,81,123,80,28,135.27,461,-20.00,5.00,-1042.00
2024-06-07 11:18:14.523318,0,2,16,0,0,0,79,81,123,80,28,135.37,461,-8.00,-20.00,-956.00
2024-06-07 11:18:14.628593,0,1,16,0,0,0,79,81,123,80,28,135.31,461,17.00,-54.00,-1053.00
2024-06-07 11:18:14.727504,0,1,16,0,0,0,79,81,124,80,28,135.36,461,-7.00,-21.00,-1102.00
2024-06-07 11:18:14.833424,0,1,16,0,0,0,79,81,124,80,28,135.39,461,-52.00,-18.00,-1029.00
2024-06-07 11:18:14.931238,0,1,16,0,0,0,79,81,124,80,28,135.37,461,-15.00,15.00,-975.00
2024-06-07 11:18:15.038285,0,1,16,0,0,0,79,81,123,80,28,135.35,462,3.00,-14.00,-1030.00
2024-06-07 11:18:15.135256,0,1,16,0,0,0,79,81,123,80,28,135.35,462,-6.00,-19.00,-963.00
2024-06-07 11:18:15.243073,0,1,16,0,0,0,79,81,124,80,28,135.31,462,39.00,-4.00,-989.00
2024-06-07 11:18:15.339432,0,1,16,0,0,0,79,81,123,80,28,135.42,462,-10.00,-4.00,-924.00
2024-06-07 11:18:15.447908,0,1,16,0,0,0,79,81,123,80,28,135.39,462,-36.00,15.00,-963.00
2024-06-07 11:18:15.543302,0,0,16,0,0,0,79,81,123,80,28,135.35,462,-25.00,-38.00,-1043.00
2024-06-07 11:18:15.652635,0,0,16,0,0,0,79,81,123,80,28,135.33,462,26.00,-32.00,-1035.00
2024-06-07 11:18:15.747222,0,0,16,0,0,0,79,81,123,80,28,135.36,462,-18.00,-39.00,-977.00
2024-06-07 11:18:15.850113,0,0,16,0,0,0,79,81,122,80,28,135.36,462,-21.00,14.00,-1023.00
2024-06-07 11:18:15.952707,1,0,16,0,0,0,79,81,122,80,28,135.38,462,0.00,4.00,-999.00
2024-06-07 11:18:16.053054,6,0,16,0,0,0,79,81,124,80,28,135.49,463,-7.00,-14.00,-1024.00
2024-06-07 11:18:16.165492,8,0,16,-1,0,0,79,81,124,80,28,135.42,463,11.00,-9.00,-984.00
2024-06-07 11:18:16.257160,8,0,16,-3,0,0,80,81,123,80,28,135.28,463,45.00,-26.00,-1042.00
2024-06-07 11:18:16.359095,7,0,16,-4,-1,0,80,81,123,80,28,135.28,463,14.00,-19.00,-1020.00
2024-06-07 11:18:16.471735,6,0,16,-5,-1,0,80,81,122,80,28,135.25,463,16.00,-4.00,-1045.00
2024-06-07 11:18:16.563088,5,1,16,-6,-2,0,80,81,120,80,28,135.27,463,34.00,-23.00,-994.00
2024-06-07 11:18:16.677903,5,1,16,-6,-2,0,80,81,118,80,28,135.24,463,-1.00,-28.00,-920.00
2024-06-07 11:18:16.716031,4,2,16,-7,-2,0,80,81,118,80,28,135.31,463,3.00,-18.00,-926.00
2024-06-07 11:18:16.881335,1,2,16,-7,-2,0,80,81,114,80,28,135.35,463,25.00,-32.00,-994.00
2024-06-07 11:18:16.920356,-1,2,16,-7,-2,0,80,81,112,80,27,135.29,463,43.00,-20.00,-998.00
2024-06-07 11:18:17.086140,-3,2,15,-6,-1,0,80,81,111,80,27,135.26,464,60.00,-48.00,-1055.00
2024-06-07 11:18:17.124130,-5,2,15,-5,-1,0,80,81,109,80,27,135.23,464,48.00,-26.00,-1038.00
2024-06-07 11:18:17.290939,-4,2,15,-4,-1,0,79,81,107,80,27,135.22,464,40.00,-47.00,-981.00
2024-06-07 11:18:17.328359,-2,3,15,-3,-1,0,79,81,106,70,27,135.20,464,21.00,-18.00,-978.00
2024-06-07 11:18:17.495728,-1,2,15,-2,0,0,79,81,103,70,27,135.20,464,35.00,-53.00,-1034.00
2024-06-07 11:18:17.531987,0,2,15,-2,0,0,79,81,102,70,27,135.20,464,-1.00,23.00,-1061.00
2024-06-07 11:18:17.700528,0,2,16,-2,0,0,79,81,102,70,27,135.22,464,-29.00,17.00,-1047.00
2024-06-07 11:18:17.736004,0,1,16,-2,0,0,79,81,103,70,27,135.20,464,16.00,-1.00,-1024.00
2024-06-07 11:18:17.905352,0,1,16,-2,0,0,79,81,103,70,27,135.23,464,28.00,-23.00,-1031.00
2024-06-07 11:18:17.940186,0,1,16,-2,0,0,79,81,104,70,27,135.19,464,53.00,-27.00,-1044.00
2024-06-07 11:18:18.110732,0,1,16,-2,0,-1,79,81,106,70,27,135.20,465,46.00,-27.00,-1092.00
2024-06-07 11:18:18.144036,0,1,16,-2,0,-1,79,81,108,70,27,135.22,465,28.00,-19.00,-1018.00
2024-06-07 11:18:18.314948,0,0,16,-2,0,-1,78,81,110,70,27,135.23,465,-5.00,6.00,-973.00
2024-06-07 11:18:18.347967,-4,0,16,-1,0,-1,78,81,113,70,27,135.27,465,9.00,-34.00,-960.00
2024-06-07 11:18:18.449922,-3,0,16,0,0,-1,78,81,116,70,27,135.25,465,12.00,-8.00,-982.00
2024-06-07 11:18:18.552080,-1,0,16,0,0,-1,78,81,118,80,27,135.34,465,29.00,-22.00,-1036.00
2024-06-07 11:18:18.727337,-1,1,16,0,0,-1,78,81,120,80,27,135.34,465,-25.00,-15.00,-973.00
2024-06-07 11:18:18.756337,-1,1,16,0,0,-1,78,81,123,80,27,135.34,465,-11.00,-19.00,-980.00
2024-06-07 11:18:18.930750,-1,1,16,0,0,-1,78,81,126,80,27,135.40,465,-6.00,19.00,-915.00
2024-06-07 11:18:18.959813,-1,0,16,0,0,0,78,81,125,80,27,135.35,465,-34.00,-26.00,-955.00
2024-06-07 11:18:19.134205,-1,0,16,0,0,0,78,81,126,80,27,135.41,466,22.00,2.00,-1019.00
2024-06-07 11:18:19.163974,0,0,16,0,0,0,78,81,127,80,27,135.34,466,-23.00,13.00,-954.00
2024-06-07 11:18:19.313574,0,1,16,0,0,0,78,81,128,80,27,135.42,466,-18.00,-22.00,-1000.00
2024-06-07 11:18:19.368086,0,1,16,0,0,0,78,81,129,80,27,135.45,466,35.00,-34.00,-985.00
2024-06-07 11:18:19.543782,0,2,16,0,0,0,78,81,128,80,27,135.40,466,-7.00,-15.00,-971.00
2024-06-07 11:18:19.571959,0,1,16,0,0,0,78,81,128,80,27,135.40,466,-28.00,11.00,-993.00
2024-06-07 11:18:19.748647,0,1,16,0,0,0,78,81,130,90,27,135.48,466,15.00,-13.00,-1024.00
2024-06-07 11:18:19.776005,0,1,16,0,0,0,78,81,130,90,27,135.45,466,19.00,-32.00,-926.00
2024-06-07 11:18:19.963223,0,1,16,0,0,0,78,81,130,90,26,135.46,466,-8.00,0.00,-984.00
2024-06-07 11:18:19.979865,0,1,16,0,0,0,78,81,130,90,26,135.40,466,-6.00,-47.00,-975.00
2024-06-07 11:18:20.081894,0,1,16,0,0,0,78,81,129,90,26,135.44,467,2.00,-14.00,-952.00
2024-06-07 11:18:20.183888,0,1,16,0,0,0,78,81,127,90,26,135.43,467,-22.00,-60.00,-1062.00
2024-06-07 11:18:20.363060,0,1,16,0,0,0,78,81,128,80,26,135.41,467,16.00,-14.00,-1071.00
2024-06-07 11:18:20.387857,0,2,16,0,0,0,78,81,127,80,26,135.36,467,2.00,-27.00,-973.00
2024-06-07 11:18:20.439042,0,2,16,0,0,0,78,81,126,80,26,135.36,467,3.00,-25.00,-1040.00
2024-06-07 11:18:20.541005,0,1,16,0,0,0,78,81,126,80,26,135.34,467,25.00,-39.00,-1075.00
2024-06-07 11:18:20.642925,-1,-2,16,0,0,0,78,81,124,80,26,135.38,467,-22.00,14.00,-1030.00
2024-06-07 11:18:20.772516,0,-7,16,0,0,0,78,81,127,80,26,135.40,467,-10.00,-27.00,-1040.00
2024-06-07 11:18:20.846797,0,-5,16,0,-2,0,78,81,126,80,26,135.44,467,-32.00,8.00,-1038.00
2024-06-07 11:18:20.948833,0,-3,16,1,-3,0,78,81,124,80,26,135.40,467,12.00,-15.00,-1040.00
2024-06-07 11:18:21.050960,0,0,16,1,-3,0,78,81,123,80,26,135.43,468,23.00,-5.00,-1039.00
2024-06-07 11:18:21.182136,0,2,16,1,-3,0,78,81,122,80,26,135.44,468,-24.00,-10.00,-988.00
2024-06-07 11:18:21.254802,0,2,16,1,-3,0,79,80,122,80,26,135.39,468,7.00,-11.00,-1021.00
2024-06-07 11:18:21.390614,0,1,16,0,-2,0,79,80,121,80,26,135.45,468,5.00,-3.00,-1000.00
2024-06-07 11:18:21.458906,0,0,16,0,-2,0,79,80,119,80,26,135.42,468,42.00,-9.00,-930.00
2024-06-07 11:18:21.591756,0,0,16,0,-2,0,79,80,118,80,26,135.43,468,-15.00,19.00,-1089.00
2024-06-07 11:18:21.662797,1,0,16,0,-2,0,79,80,117,80,26,135.42,468,-4.00,-36.00,-966.00
2024-06-07 11:18:21.796507,1,0,16,0,-2,0,79,80,117,80,26,135.36,468,0.00,1.00,-1050.00
2024-06-07 11:18:21.866858,1,0,16,0,-2,0,79,80,116,80,25,135.39,468,7.00,2.00,-946.00
2024-06-07 11:18:21.968831,1,0,16,0,-2,0,79,80,117,80,25,135.37,468,32.00,12.00,-1049.00
2024-06-07 11:18:22.103670,0,0,16,0,-2,0,79,80,115,80,25,135.36,469,-12.00,-17.00,-1090.00
2024-06-07 11:18:22.172987,0,2,16,0,-2,0,79,80,114,80,25,135.31,469,-1.00,25.00,-977.00
2024-06-07 11:18:22.308474,0,6,16,0,-1,0,79,81,115,80,25,135.34,469,27.00,-19.00,-962.00
2024-06-07 11:18:22.376945,0,4,16,0,0,0,79,81,114,80,25,135.28,469,6.00,-25.00,-1070.00
2024-06-07 11:18:22.513442,0,1,16,0,0,0,79,81,113,80,25,135.29,469,-9.00,-2.00,-1017.00
2024-06-07 11:18:22.580815,0,1,16,0,0,0,79,81,113,80,25,135.38,469,-25.00,-24.00,-1011.00
2024-06-07 11:18:22.718335,0,1,16,0,0,0,79,81,113,80,25,135.35,469,11.00,-23.00,-978.00
2024-06-07 11:18:22.784826,0,1,16,0,0,0,79,81,112,80,25,135.40,469,0.00,-28.00,-1016.00
2024-06-07 11:18:22.923029,0,1,16,0,0,0,79,81,113,80,25,135.28,469,4.00,-24.00,-964.00
2024-06-07 11:18:22.988755,0,1,16,0,0,0,79,81,113,80,25,135.36,469,0.00,11.00,-936.00
2024-06-07 11:18:23.127819,0,1,16,0,0,0,79,81,113,80,25,135.26,470,-44.00,-15.00,-985.00
2024-06-07 11:18:23.192701,0,1,16,0,0,0,79,81,112,80,25,135.35,470,9.00,-22.00,-999.00
2024-06-07 11:18:23.295211,0,1,16,0,0,0,78,80,114,70,25,135.34,470,25.00,-27.00,-1036.00
2024-06-07 11:18:23.437219,0,1,16,0,0,0,78,80,115,80,25,135.30,470,-3.00,-2.00,-974.00
2024-06-07 11:18:23.498796,0,1,16,0,0,0,78,80,116,80,25,135.30,470,-9.00,-17.00,-1019.00
2024-06-07 11:18:23.640575,0,1,16,0,0,0,78,80,117,80,25,135.26,470,-3.00,-54.00,-1010.00
2024-06-07 11:18:23.702763,0,2,16,0,0,0,78,80,119,80,25,135.27,470,14.00,-44.00,-971.00
2024-06-07 11:18:23.844882,0,2,16,0,0,0,78,80,119,80,25,135.35,470,-5.00,-7.00,-985.00
2024-06-07 11:18:23.906658,0,2,16,0,0,0,78,80,120,80,25,135.41,470,-37.00,-27.00,-943.00
2024-06-07 11:18:24.049438,0,2,16,0,0,0,78,80,121,80,25,135.43,470,-4.00,-19.00,-943.00
2024-06-07 11:18:24.059847,0,2,16,0,0,0,78,80,121,80,25,135.39,471,4.00,-32.00,-1013.00
2024-06-07 11:18:24.254807,0,2,16,0,0,0,78,80,122,80,25,135.42,471,50.00,-43.00,-1065.00
2024-06-07 11:18:24.315106,0,1,16,0,0,0,78,81,122,80,25,135.40,471,38.00,-47.00,-1034.00
2024-06-07 11:18:24.416640,0,1,16,0,0,0,78,81,124,80,25,135.39,471,7.00,-55.00,-1019.00
2024-06-07 11:18:24.561325,0,1,16,0,0,0,78,81,123,80,25,135.37,471,-8.00,-12.00,-918.00
2024-06-07 11:18:24.620638,0,2,16,0,0,0,78,81,125,80,25,135.36,471,27.00,-8.00,-1051.00
2024-06-07 11:18:24.671576,0,8,16,0,0,0,78,81,126,80,25,135.38,471,-5.00,-53.00,-988.00
2024-06-07 11:18:24.773955,0,8,16,0,1,0,78,81,124,80,25,135.36,471,14.00,-68.00,-1025.00
2024-06-07 11:18:24.970922,0,6,16,0,2,0,78,81,124,80,24,135.40,471,-19.00,-18.00,-982.00
2024-06-07 11:18:24.977614,0,4,16,0,3,0,78,81,121,80,24,135.38,471,24.00,-39.00,-1014.00
2024-06-07 11:18:25.079745,0,1,16,0,3,0,78,81,121,80,24,135.42,472,-20.00,-59.00,-942.00
2024-06-07 11:18:25.181648,0,0,16,-1,3,0,78,81,121,80,24,135.34,472,2.00,-41.00,-978.00
2024-06-07 11:18:25.318803,0,0,16,0,3,0,79,80,120,80,24,135.39,472,-26.00,-20.00,-997.00
2024-06-07 11:18:25.386087,0,1,16,0,2,0,79,80,120,80,24,135.40,472,-33.00,-34.00,-1012.00
2024-06-07 11:18:25.585272,0,1,16,0,2,0,79,80,120,80,24,135.34,472,-37.00,-23.00,-1001.00
2024-06-07 11:18:25.590851,0,2,16,0,2,0,79,80,121,80,24,135.38,472,8.00,-32.00,-1012.00
2024-06-07 11:18:25.791831,0,2,16,0,2,0,79,80,122,80,24,135.48,472,-3.00,-34.00,-1043.00
2024-06-07 11:18:25.793701,0,1,16,0,2,0,79,80,122,80,24,135.42,472,-23.00,-34.00,-1003.00
2024-06-07 11:18:25.895884,-1,1,16,0,2,0,79,80,123,80,24,135.46,472,13.00,-56.00,-952.00
2024-06-07 11:18:25.997530,0,1,16,0,2,0,79,80,123,80,24,135.36,472,20.00,-14.00,-1061.00
2024-06-07 11:18:26.099525,0,1,16,0,2,0,79,80,125,80,24,135.45,473,1.00,-38.00,-988.00
2024-06-07 11:18:26.201477,0,1,16,0,2,0,79,80,124,80,24,135.36,473,24.00,-34.00,-1055.00
2024-06-07 11:18:26.404446,0,0,16,0,2,0,79,80,125,80,24,135.44,473,12.00,-16.00,-985.00
2024-06-07 11:18:26.405532,1,0,16,0,1,0,79,80,125,80,24,135.44,473,-29.00,6.00,-962.00
2024-06-07 11:18:26.609237,4,1,16,0,1,0,79,80,125,80,24,135.48,473,31.00,-11.00,-955.00
2024-06-07 11:18:26.609643,5,0,16,0,1,0,79,80,124,80,24,135.44,473,25.00,-29.00,-994.00
2024-06-07 11:18:26.711941,4,0,16,0,0,0,79,80,124,80,24,135.41,473,21.00,-32.00,-903.00
2024-06-07 11:18:26.814042,2,0,16,-1,0,0,79,80,125,80,24,135.41,473,30.00,-35.00,-1074.00
2024-06-07 11:18:26.916441,-3,0,16,-1,0,0,79,80,125,80,24,135.36,473,48.00,-33.00,-1021.00
2024-06-07 11:18:27.019082,-1,0,16,0,0,0,79,80,126,80,24,135.36,473,39.00,-37.00,-998.00
2024-06-07 11:18:27.120933,0,1,16,0,0,0,79,80,126,80,24,135.41,474,31.00,-33.00,-1009.00
2024-06-07 11:18:27.221709,0,1,16,0,0,0,79,80,128,80,24,135.34,474,11.00,-15.00,-1031.00
2024-06-07 11:18:27.323623,1,1,16,0,0,0,78,80,128,80,24,135.39,474,3.00,21.00,-931.00
2024-06-07 11:18:27.429742,1,1,16,0,0,0,78,80,129,90,24,135.46,474,18.00,10.00,-974.00
2024-06-07 11:18:27.527985,0,0,16,0,0,0,78,80,129,90,24,135.44,474,48.00,15.00,-995.00
2024-06-07 11:18:27.633374,0,0,16,0,0,0,78,80,129,90,24,135.42,474,3.00,-26.00,-992.00
2024-06-07 11:18:27.732068,0,0,16,0,0,0,78,80,129,90,24,135.42,474,0.00,-12.00,-958.00
2024-06-07 11:18:27.838315,0,0,16,0,0,0,78,80,129,90,24,135.38,474,29.00,-13.00,-975.00
2024-06-07 11:18:27.935613,0,0,16,0,0,0,78,80,127,80,23,135.41,474,16.00,6.00,-1064.00
2024-06-07 11:18:28.042930,0,0,16,0,0,0,78,80,128,80,23,135.42,475,13.00,8.00,-1028.00
2024-06-07 11:18:28.140832,1,1,16,0,0,0,78,80,128,80,23,135.37,475,0.00,-14.00,-1047.00
2024-06-07 11:18:28.194755,1,1,16,0,0,0,78,80,126,80,23,135.46,475,-22.00,0.00,-1002.00
2024-06-07 11:18:28.343577,0,1,16,0,0,0,78,80,125,80,23,135.39,475,-23.00,4.00,-978.00
2024-06-07 11:18:28.394683,0,0,16,0,0,0,78,80,126,80,23,135.39,475,28.00,-57.00,-1006.00
2024-06-07 11:18:28.496547,0,1,16,0,0,0,78,80,126,80,23,135.43,475,30.00,-7.00,-1050.00
2024-06-07 11:18:28.657268,0,1,16,0,0,0,78,80,125,80,23,135.42,475,-5.00,2.00,-974.00
2024-06-07 11:18:28.700476,0,1,16,0,0,0,78,80,124,80,23,135.39,475,30.00,-8.00,-1044.00
2024-06-07 11:18:28.862193,0,1,16,0,0,0,78,80,123,80,23,135.44,475,-16.00,-12.00,-1005.00
2024-06-07 11:18:28.904735,0,1,16,0,0,0,78,80,124,80,23,135.39,475,-9.00,21.00,-932.00
2024-06-07 11:18:29.006374,0,1,16,0,0,0,78,80,124,80,23,135.45,476,-22.00,-5.00,-962.00
2024-06-07 11:18:29.169227,0,1,20,0,0,0,78,80,125,80,23,135.36,476,17.00,-27.00,-977.00
2024-06-07 11:18:29.210568,0,0,26,0,0,0,78,80,126,80,23,135.37,476,19.00,-35.00,-959.00
2024-06-07 11:18:29.373959,0,0,32,0,0,0,77,80,124,80,23,135.37,476,0.00,-12.00,-937.00
2024-06-07 11:18:29.415181,0,0,38,0,0,0,77,80,125,80,23,135.37,476,23.00,-7.00,-990.00
2024-06-07 11:18:29.578877,-1,0,44,0,0,0,77,80,126,80,23,135.40,476,-1.00,5.00,-965.00
2024-06-07 11:18:29.618567,0,0,50,0,0,0,77,80,124,80,23,135.42,476,-33.00,13.00,-1033.00
2024-06-07 11:18:29.783602,-1,0,56,0,0,0,77,80,124,80,23,135.41,476,49.00,-36.00,-992.00
2024-06-07 11:18:29.822772,-1,0,62,0,0,0,77,80,122,80,23,135.44,476,-55.00,34.00,-934.00
2024-06-07 11:18:29.988473,-1,0,68,0,0,0,77,80,123,80,22,135.36,476,-4.00,-16.00,-1052.00
2024-06-07 11:18:30.027379,-1,0,75,0,0,0,77,80,124,80,22,135.41,477,-12.00,-18.00,-1009.00
2024-06-07 11:18:30.129723,0,0,81,0,0,0,77,80,123,80,22,135.42,477,-43.00,8.00,-1000.00
2024-06-07 11:18:30.232137,0,0,87,0,0,0,77,80,123,80,22,135.36,477,18.00,-2.00,-1057.00
2024-06-07 11:18:30.398029,0,0,92,0,0,0,78,81,125,80,22,135.39,477,-54.00,27.00,-1029.00
2024-06-07 11:18:30.435308,0,0,99,0,0,0,78,81,124,80,22,135.43,477,16.00,-17.00,-947.00
2024-06-07 11:18:30.603124,0,0,105,0,0,0,78,81,123,80,22,135.43,477,15.00,-14.00,-1013.00
2024-06-07 11:18:30.639273,0,0,111,0,0,0,78,81,123,80,22,135.34,477,31.00,-4.00,-985.00
2024-06-07 11:18:30.807623,0,0,117,0,0,0,78,81,123,80,22,135.36,477,22.00,6.00,-1082.00
2024-06-07 11:18:30.843261,1,0,123,0,0,0,78,81,122,80,22,135.40,477,44.00,32.00,-941.00
2024-06-07 11:18:31.013329,1,0,129,0,0,0,78,81,121,80,22,135.42,477,-17.00,45.00,-994.00
2024-06-07 11:18:31.048455,1,0,136,0,0,0,78,81,119,80,22,135.34,478,-10.00,9.00,-907.00
2024-06-07 11:18:31.217205,0,-1,142,0,0,0,78,81,119,80,22,135.33,478,-4.00,-12.00,-1017.00
2024-06-07 11:18:31.251286,0,-1,148,0,0,0,78,81,118,80,22,135.29,478,-12.00,34.00,-1023.00
2024-06-07 11:18:31.422255,0,0,154,0,0,0,79,81,117,80,22,135.32,478,-38.00,24.00,-994.00
2024-06-07 11:18:31.455223,0,0,160,0,0,0,79,81,115,80,22,135.29,478,-31.00,10.00,-928.00
2024-06-07 11:18:31.627155,0,0,166,0,0,0,79,81,114,80,22,135.36,478,-40.00,20.00,-1039.00
2024-06-07 11:18:31.659266,-1,1,173,0,0,0,79,81,115,80,22,135.35,478,-22.00,1.00,-964.00
2024-06-07 11:18:31.831563,0,1,179,0,0,0,79,81,113,80,22,135.34,478,-55.00,33.00,-958.00
2024-06-07 11:18:31.863195,0,0,-174,0,0,0,79,81,114,80,22,135.32,478,-15.00,22.00,-940.00
2024-06-07 11:18:31.965214,0,0,-168,0,0,0,79,81,114,80,22,135.33,478,-37.00,17.00,-962.00
2024-06-07 11:18:32.138784,0,0,-162,0,0,0,79,81,114,80,22,135.35,479,25.00,-21.00,-1059.00
2024-06-07 11:18:32.138840,0,0,-155,0,0,0,79,81,115,80,22,135.33,479,8.00,-4.00,-1007.00
2024-06-07 11:18:32.220204,0,0,-149,0,0,0,79,81,114,80,22,135.30,479,-1.00,0.00,-1065.00
2024-06-07 11:18:32.373175,-1,0,-143,0,0,0,78,81,114,80,22,135.29,479,-24.00,-8.00,-991.00
2024-06-07 11:18:32.548411,-1,1,-137,0,0,0,78,81,116,80,22,135.29,479,3.00,-24.00,-1009.00
2024-06-07 11:18:32.577182,-1,1,-130,0,0,0,78,81,118,80,22,135.33,479,19.00,-20.00,-964.00
2024-06-07 11:18:32.679180,-1,1,-124,0,0,0,78,81,117,80,22,135.41,479,-9.00,0.00,-965.00
2024-06-07 11:18:32.730361,-1,1,-118,0,0,0,78,81,119,80,22,135.36,479,30.00,-24.00,-1074.00
2024-06-07 11:18:32.855508,-1,0,-112,0,0,0,78,81,118,80,22,135.40,479,-50.00,4.00,-905.00
2024-06-07 11:18:32.934515,-1,1,-106,0,0,0,78,81,119,80,22,135.31,479,-12.00,0.00,-1090.00
2024-06-07 11:18:33.038337,-1,1,-100,0,0,0,78,81,120,80,22,135.40,480,-8.00,5.00,-999.00
2024-06-07 11:18:33.140071,-1,0,-93,0,0,0,78,81,120,80,22,135.35,480,-45.00,31.00,-971.00
2024-06-07 11:18:33.240249,-1,0,-87,0,0,0,78,81,121,80,22,135.31,480,3.00,-38.00,-1003.00
2024-06-07 11:18:33.367390,-1,0,-81,0,0,0,77,80,121,80,22,135.28,480,0.00,-11.00,-965.00
2024-06-07 11:18:33.444129,-1,0,-75,0,0,0,77,80,122,80,22,135.31,480,-46.00,-14.00,-966.00
2024-06-07 11:18:33.572381,-1,0,-69,0,0,0,77,80,121,80,22,135.34,480,2.00,-4.00,-996.00
2024-06-07 11:18:33.648657,-1,0,-63,0,0,0,77,80,122,80,22,135.40,480,-25.00,9.00,-1024.00
2024-06-07 11:18:33.777226,-1,0,-57,0,0,0,77,80,123,80,22,135.40,480,2.00,23.00,-950.00
2024-06-07 11:18:33.852108,-1,0,-51,0,0,0,77,80,123,80,21,135.35,480,-26.00,30.00,-1041.00
2024-06-07 11:18:33.982103,-1,0,-45,0,0,0,77,80,124,80,21,135.36,480,-33.00,14.00,-1028.00
2024-06-07 11:18:34.056089,-1,0,-39,0,0,0,77,80,126,80,21,135.35,481,-1.00,-41.00,-973.00
2024-06-07 11:18:34.186885,-1,0,-34,0,0,0,77,80,126,80,21,135.29,481,7.00,-16.00,-1048.00
2024-06-07 11:18:34.260111,0,0,-28,0,-1,0,77,80,125,80,21,135.31,481,22.00,-22.00,-1016.00
2024-06-07 11:18:34.362066,0,1,-22,0,-1,0,78,81,126,80,21,135.35,481,10.00,-21.00,-1007.00
2024-06-07 11:18:34.493981,0,1,-16,0,0,0,78,81,125,80,21,135.34,481,2.00,-35.00,-1004.00
2024-06-07 11:18:34.566102,0,1,-10,0,0,0,78,81,125,80,21,135.36,481,-30.00,16.00,-964.00
2024-06-07 11:18:34.698814,0,0,-4,0,0,0,78,81,124,80,21,135.30,481,27.00,-22.00,-1018.00
2024-06-07 11:18:34.770262,0,0,0,0,0,0,78,81,124,80,21,135.35,481,-65.00,9.00,-1032.00
2024-06-07 11:18:34.903474,0,0,4,0,0,0,78,81,124,80,21,135.35,481,-1.00,-23.00,-1061.00
2024-06-07 11:18:34.974189,-1,0,7,0,0,0,78,81,124,80,21,135.42,481,-37.00,-5.00,-963.00
2024-06-07 11:18:35.076065,-1,0,10,0,0,0,78,81,124,80,21,135.41,482,-46.00,0.00,-1053.00
2024-06-07 11:18:35.177991,-1,0,11,0,0,0,78,81,123,80,21,135.45,482,19.00,-14.00,-1021.00
2024-06-07 11:18:35.313156,0,0,13,0,0,0,78,81,123,80,21,135.43,482,-48.00,30.00,-999.00
2024-06-07 11:18:35.382117,0,0,14,0,0,0,79,80,124,80,21,135.38,482,-54.00,35.00,-954.00
2024-06-07 11:18:35.518298,0,0,14,0,0,0,79,80,124,80,21,135.41,482,-40.00,-19.00,-1047.00
2024-06-07 11:18:35.586092,0,0,15,0,0,0,79,80,124,80,21,135.42,482,-3.00,-2.00,-1060.00
2024-06-07 11:18:35.722962,0,0,15,0,0,0,79,80,123,80,21,135.39,482,-14.00,4.00,-976.00
2024-06-07 11:18:35.790267,0,0,15,0,0,0,79,80,125,80,21,135.41,482,-16.00,-11.00,-992.00
2024-06-07 11:18:35.927612,0,0,14,0,0,0,79,80,125,80,21,135.39,482,35.00,-6.00,-1011.00
2024-06-07 11:18:35.994063,0,0,14,0,0,0,79,80,125,80,21,135.37,482,0.00,1.00,-993.00
2024-06-07 11:18:36.132480,0,0,14,0,0,0,79,80,126,80,21,135.47,483,-40.00,-16.00,-1040.00
2024-06-07 11:18:36.198082,0,0,14,0,0,0,79,80,125,80,21,135.45,483,-45.00,5.00,-918.00
2024-06-07 11:18:36.249002,0,0,14,0,0,0,79,80,126,80,21,135.48,483,17.00,-20.00,-977.00
2024-06-07 11:18:36.439872,0,0,14,0,0,0,79,80,126,80,21,135.47,483,-39.00,32.00,-985.00
2024-06-07 11:18:36.504076,0,0,14,0,0,0,79,80,126,80,21,135.39,483,-8.00,2.00,-974.00
2024-06-07 11:18:36.555150,0,0,14,0,0,0,79,80,125,80,21,135.40,483,6.00,-12.00,-1054.00
2024-06-07 11:18:36.746966,0,0,14,0,0,0,79,80,125,80,21,135.39,483,-50.00,4.00,-941.00
2024-06-07 11:18:36.759223,0,0,14,0,0,0,79,80,127,80,21,135.36,483,12.00,-12.00,-1072.00
2024-06-07 11:18:36.951587,0,0,14,0,0,0,79,80,127,80,21,135.41,483,19.00,-6.00,-986.00
2024-06-07 11:18:36.963258,0,0,14,0,0,0,79,80,126,80,21,135.50,483,-12.00,0.00,-1046.00
2024-06-07 11:18:37.157343,0,0,14,0,0,0,79,80,126,80,21,135.43,484,-12.00,13.00,-1027.00
2024-06-07 11:18:37.167007,0,0,14,0,0,0,79,80,126,80,21,135.40,484,-11.00,-19.00,-1052.00
2024-06-07 11:18:37.361361,0,0,14,0,0,0,79,80,125,80,21,135.37,484,2.00,-16.00,-983.00
2024-06-07 11:18:37.370846,0,0,14,0,0,0,78,80,127,80,21,135.30,484,-4.00,-12.00,-987.00
2024-06-07 11:18:37.473060,0,0,14,0,0,0,78,80,126,80,21,135.33,484,-59.00,28.00,-910.00
2024-06-07 11:18:37.668416,0,0,12,0,0,0,78,80,126,80,21,135.43,484,-1.00,-11.00,-1054.00
2024-06-07 11:18:37.676841,0,0,6,0,0,0,78,80,126,80,21,135.45,484,-69.00,28.00,-917.00
2024-06-07 11:18:37.873144,0,0,0,0,0,0,78,80,127,80,21,135.38,484,19.00,-16.00,-1039.00
2024-06-07 11:18:37.880864,0,0,-5,0,0,0,78,80,128,80,21,135.36,484,-16.00,-33.00,-962.00
2024-06-07 11:18:37.986017,0,0,-11,0,0,0,78,80,128,80,21,135.42,484,18.00,-28.00,-903.00
2024-06-07 11:18:38.084886,0,0,-17,0,0,0,78,80,128,80,21,135.38,485,31.00,-52.00,-1054.00
2024-06-07 11:18:38.186851,0,0,-23,0,0,0,78,80,129,80,21,135.38,485,-26.00,8.00,-979.00
2024-06-07 11:18:38.385148,0,0,-29,0,0,0,78,80,131,80,21,135.47,485,-4.00,-25.00,-933.00
2024-06-07 11:18:38.392453,0,0,-35,0,0,0,77,80,131,80,21,135.40,485,33.00,18.00,-961.00
2024-06-07 11:18:38.492910,0,0,-42,0,0,0,77,80,130,90,21,135.36,485,-40.00,-2.00,-992.00
2024-06-07 11:18:38.692358,1,0,-48,0,0,0,77,80,131,90,21,135.44,485,22.00,-3.00,-971.00
2024-06-07 11:18:38.702912,1,0,-54,0,0,0,77,80,133,90,21,135.45,485,22.00,-32.00,-968.00
2024-06-07 11:18:38.798931,1,0,-60,0,0,0,77,80,132,90,21,135.41,485,44.00,-60.00,-1002.00
2024-06-07 11:18:38.999482,1,0,-66,0,0,0,77,80,132,90,21,135.49,485,47.00,-12.00,-989.00
2024-06-07 11:18:39.002956,0,0,-72,0,0,0,77,80,131,90,21,135.45,485,18.00,-10.00,-1040.00
2024-06-07 11:18:39.105210,0,0,-78,0,0,0,77,80,132,90,21,135.42,486,-2.00,21.00,-919.00
2024-06-07 11:18:39.207382,0,1,-84,0,0,0,77,80,132,90,21,135.42,486,13.00,-15.00,-954.00
2024-06-07 11:18:39.308823,0,1,-90,0,0,0,77,80,132,90,21,135.34,486,54.00,-25.00,-948.00
2024-06-07 11:18:39.410813,1,1,-96,0,0,0,78,80,132,90,21,135.41,486,54.00,-37.00,-1053.00
2024-06-07 11:18:39.619244,1,1,-102,0,0,0,78,80,133,90,21,135.43,486,17.00,-19.00,-986.00
2024-06-07 11:18:39.619308,1,1,-108,0,0,0,78,80,131,90,21,135.48,486,23.00,-20.00,-933.00
2024-06-07 11:18:39.716821,1,1,-114,0,0,0,78,80,133,90,21,135.42,486,34.00,0.00,-1084.00
2024-06-07 11:18:39.818968,1,0,-120,0,0,0,78,80,132,90,21,135.39,486,-5.00,17.00,-961.00
2024-06-07 11:18:39.921095,1,0,-126,0,0,0,78,80,132,90,21,135.50,486,12.00,10.00,-991.00
2024-06-07 11:18:40.023506,1,0,-132,0,0,0,78,80,133,90,21,135.39,486,45.00,-39.00,-1046.00
2024-06-07 11:18:40.125884,1,0,-138,0,0,0,78,80,133,90,21,135.44,487,-5.00,-28.00,-977.00
2024-06-07 11:18:40.176002,1,0,-144,0,0,0,78,80,133,90,21,135.40,487,-21.00,-21.00,-917.00
2024-06-07 11:18:40.277922,1,0,-149,0,0,0,78,80,133,90,21,135.46,487,13.00,-34.00,-1056.00
2024-06-07 11:18:40.380244,1,0,-155,0,0,0,79,81,132,90,21,135.34,487,-1.00,44.00,-825.00
2024-06-07 11:18:40.535449,1,0,-161,0,0,0,79,81,132,90,21,135.36,487,12.00,6.00,-941.00
2024-06-07 11:18:40.584800,1,0,-166,0,0,0,79,81,131,90,21,135.46,487,63.00,-10.00,-1049.00
2024-06-07 11:18:40.740323,0,0,-172,0,0,0,79,81,130,90,21,135.47,487,-24.00,-5.00,-1028.00
2024-06-07 11:18:40.789884,1,0,-177,0,0,0,79,81,132,90,21,135.44,487,35.00,7.00,-1053.00
2024-06-07 11:18:40.892628,0,0,176,0,0,0,79,81,130,90,20,135.45,487,39.00,10.00,-1062.00
2024-06-07 11:18:40.991946,0,0,171,0,0,0,79,81,129,90,20,135.45,487,-7.00,8.00,-1025.00
2024-06-07 11:18:41.149952,0,0,165,0,0,0,79,81,129,90,20,135.43,488,29.00,18.00,-1012.00
2024-06-07 11:18:41.204038,0,0,160,0,0,0,79,81,127,90,20,135.41,488,-14.00,29.00,-944.00
2024-06-07 11:18:41.298106,0,0,154,0,0,0,79,81,128,90,20,135.46,488,33.00,-2.00,-997.00
2024-06-07 11:18:41.400392,1,0,143,0,0,0,77,80,126,80,20,135.39,488,37.00,1.00,-996.00
2024-06-07 11:18:41.559508,1,0,138,0,0,1,77,80,125,80,20,135.36,488,36.00,-25.00,-1041.00
2024-06-07 11:18:41.603709,1,0,132,0,0,0,77,80,124,80,20,135.38,488,30.00,49.00,-963.00
2024-06-07 11:18:41.764298,1,0,127,0,0,0,77,80,122,80,20,135.36,488,-15.00,16.00,-1015.00
2024-06-07 11:18:41.807702,0,0,121,0,0,0,77,80,122,80,20,135.40,488,-2.00,11.00,-975.00
2024-06-07 11:18:41.969105,0,0,115,0,0,0,77,80,121,80,20,135.34,488,-1.00,41.00,-1026.00
2024-06-07 11:18:42.011671,0,-1,109,0,0,0,77,80,121,80,20,135.34,489,23.00,62.00,-1009.00
2024-06-07 11:18:42.175467,0,-1,103,0,0,0,77,80,120,80,20,135.35,489,40.00,1.00,-1148.00
2024-06-07 11:18:42.215511,0,-1,97,0,0,0,77,80,121,80,20,135.38,489,45.00,-13.00,-1032.00
2024-06-07 11:18:42.378726,0,-1,91,0,0,0,77,80,120,80,20,135.35,489,-4.00,34.00,-995.00
2024-06-07 11:18:42.419485,0,0,84,0,0,0,78,80,121,80,20,135.35,489,-12.00,59.00,-903.00
2024-06-07 11:18:42.583412,0,-1,78,0,0,0,78,80,120,80,20,135.45,489,60.00,20.00,-1010.00
2024-06-07 11:18:42.623912,0,-1,72,0,0,0,78,80,120,80,20,135.40,489,-50.00,41.00,-878.00
2024-06-07 11:18:42.794941,0,-1,65,0,0,0,78,80,120,80,20,135.30,489,-43.00,42.00,-906.00
2024-06-07 11:18:42.827927,0,-1,58,0,0,0,78,80,119,80,20,135.38,489,-51.00,59.00,-1016.00
2024-06-07 11:18:42.993152,0,-1,52,0,0,0,78,80,120,80,20,135.32,489,-43.00,42.00,-955.00
2024-06-07 11:18:43.031628,-1,-1,45,0,0,0,78,80,120,80,20,135.35,490,-58.00,30.00,-1014.00
2024-06-07 11:18:43.197903,0,0,39,0,0,0,78,80,120,80,20,135.35,490,-15.00,12.00,-1028.00
2024-06-07 11:18:43.235505,0,0,33,0,0,0,78,80,119,80,20,135.31,490,-11.00,16.00,-1030.00
2024-06-07 11:18:43.402695,0,0,28,0,0,0,78,80,121,80,20,135.28,490,-45.00,18.00,-980.00
2024-06-07 11:18:43.439509,-1,0,25,0,0,0,78,80,120,80,20,135.27,490,-51.00,4.00,-1012.00
2024-06-07 11:18:43.607554,-1,-1,22,0,0,0,78,80,121,80,20,135.23,490,-44.00,30.00,-992.00
2024-06-07 11:18:43.643653,-1,-1,20,0,0,0,78,80,121,80,20,135.30,490,-36.00,41.00,-1016.00
2024-06-07 11:18:43.812239,-1,0,18,0,0,0,78,80,122,80,20,135.30,490,-53.00,36.00,-978.00
2024-06-07 11:18:43.847342,0,0,17,0,0,0,78,80,124,80,20,135.28,490,-10.00,-1.00,-998.00
2024-06-07 11:18:43.949790,0,0,16,0,0,0,78,80,124,80,20,135.36,490,0.00,-14.00,-1021.00
2024-06-07 11:18:44.000641,0,0,15,0,0,0,78,80,125,80,20,135.38,491,-21.00,17.00,-988.00
2024-06-07 11:18:44.119520,0,0,15,0,0,0,78,80,124,80,20,135.31,491,-21.00,22.00,-1021.00
2024-06-07 11:18:44.204585,-1,0,15,0,0,0,78,80,126,80,20,135.31,491,-33.00,-10.00,-996.00
2024-06-07 11:18:44.324526,0,0,14,0,0,0,78,80,125,80,20,135.31,491,-23.00,12.00,-983.00
2024-06-07 11:18:44.529248,0,0,14,0,0,0,77,80,125,80,20,135.27,491,-14.00,-8.00,-966.00
2024-06-07 11:18:44.561874,-1,0,14,0,0,0,77,80,125,80,20,135.27,491,-18.00,27.00,-982.00
2024-06-07 11:18:44.612707,-1,0,13,0,0,0,77,80,126,80,20,135.29,491,-16.00,-23.00,-1006.00
2024-06-07 11:18:44.734329,-1,0,14,0,0,0,77,80,125,80,20,135.28,491,-26.00,17.00,-967.00
2024-06-07 11:18:44.816636,-1,0,14,0,0,0,77,80,125,80,20,135.34,491,-41.00,13.00,-1028.00
2024-06-07 11:18:44.939012,-1,0,14,0,0,0,77,80,125,80,20,135.43,491,-33.00,0.00,-989.00
2024-06-07 11:18:45.020566,-1,0,14,0,0,0,77,80,126,80,20,135.43,492,34.00,-23.00,-960.00
2024-06-07 11:18:45.143762,-1,0,14,0,0,0,77,80,127,80,20,135.35,492,2.00,13.00,-1037.00
2024-06-07 11:18:45.224705,-1,0,14,0,0,0,77,80,128,80,20,135.34,492,-42.00,-1.00,-937.00
2024-06-07 11:18:45.348408,-1,0,14,0,0,0,77,80,127,80,20,135.35,492,-25.00,3.00,-1051.00
2024-06-07 11:18:45.429170,-1,0,14,0,0,0,78,81,128,80,20,135.45,492,-17.00,26.00,-1005.00
2024-06-07 11:18:45.555835,-1,0,14,0,0,0,78,81,128,80,20,135.39,492,-71.00,20.00,-887.00
2024-06-07 11:18:45.632527,-1,0,14,0,0,0,78,81,128,80,20,135.33,492,-21.00,-24.00,-960.00
2024-06-07 11:18:45.758010,-1,0,14,0,0,0,78,81,129,80,20,135.36,492,-68.00,37.00,-982.00
2024-06-07 11:18:45.836772,-1,0,14,0,0,0,78,81,129,80,20,135.39,492,-11.00,-10.00,-1046.00
2024-06-07 11:18:45.938660,0,0,13,0,0,0,78,81,128,80,19,135.37,492,-38.00,27.00,-996.00
2024-06-07 11:18:46.040649,-1,-1,13,0,0,0,78,81,128,80,19,135.38,493,-34.00,30.00,-1066.00
2024-06-07 11:18:46.167568,-1,-1,14,0,0,0,78,81,128,80,19,135.32,493,-22.00,-21.00,-983.00
2024-06-07 11:18:46.244604,-1,-1,14,0,0,0,78,81,127,80,19,135.39,493,-19.00,-20.00,-1097.00
2024-06-07 11:18:46.372376,-1,0,14,0,0,0,78,81,126,80,19,135.42,493,-24.00,57.00,-973.00
2024-06-07 11:18:46.449938,-1,0,14,0,0,0,77,81,127,80,19,135.34,493,-33.00,13.00,-1008.00
2024-06-07 11:18:46.550652,0,-1,14,0,0,0,77,81,127,80,19,135.30,493,-51.00,14.00,-949.00
2024-06-07 11:18:46.679466,0,0,14,0,0,0,77,81,128,80,19,135.42,493,-61.00,31.00,-1002.00
2024-06-07 11:18:46.754358,0,0,14,0,0,0,77,81,125,80,19,135.34,493,-17.00,3.00,-1109.00
2024-06-07 11:18:46.884485,0,-1,14,0,0,0,77,81,127,80,19,135.41,493,-18.00,26.00,-1004.00
2024-06-07 11:18:46.958611,0,-1,14,0,0,0,77,81,127,80,19,135.28,493,0.00,13.00,-914.00
2024-06-07 11:18:47.089355,0,-1,14,0,0,0,77,81,128,80,19,135.39,494,-39.00,3.00,-973.00
2024-06-07 11:18:47.165636,0,-1,14,0,0,0,77,81,127,80,19,135.34,494,-6.00,45.00,-964.00
2024-06-07 11:18:47.265542,0,-1,14,0,0,0,77,81,126,80,19,135.34,494,-3.00,-7.00,-943.00
2024-06-07 11:18:47.396390,0,-1,13,0,0,0,77,81,125,80,19,135.32,494,14.00,39.00,-937.00
2024-06-07 11:18:47.469510,0,-1,13,0,0,0,77,81,124,80,19,135.28,494,-15.00,0.00,-977.00
2024-06-07 11:18:47.601559,0,-1,13,0,0,0,77,81,124,80,19,135.23,494,-50.00,18.00,-1031.00
2024-06-07 11:18:47.673503,0,-1,13,0,0,0,77,81,121,80,19,135.27,494,-38.00,24.00,-930.00
2024-06-07 11:18:47.811411,-1,-1,14,0,0,0,77,81,121,80,19,135.24,494,-18.00,15.00,-1054.00
2024-06-07 11:18:47.877614,-2,-1,14,0,0,0,77,81,122,80,19,135.22,494,-28.00,18.00,-985.00
2024-06-07 11:18:48.011181,-1,-1,14,0,0,0,77,81,120,80,19,135.27,494,-26.00,56.00,-1021.00
2024-06-07 11:18:48.081455,-1,-1,14,0,0,0,77,81,121,80,19,135.31,495,-15.00,36.00,-1060.00
2024-06-07 11:18:48.132654,-1,-1,14,0,0,0,77,81,120,80,19,135.18,495,5.00,8.00,-1046.00
2024-06-07 11:18:48.318389,-1,-1,14,0,0,0,77,81,121,80,19,135.26,495,-49.00,15.00,-1011.00
2024-06-07 11:18:48.336381,-1,-1,14,0,0,0,77,81,120,80,19,135.23,495,-4.00,18.00,-1085.00
2024-06-07 11:18:48.522848,-1,-1,14,0,0,0,77,80,121,80,19,135.27,495,-46.00,-2.00,-1016.00
2024-06-07 11:18:48.540413,-1,-1,14,0,0,0,77,80,122,80,19,135.18,495,-51.00,29.00,-990.00
2024-06-07 11:18:48.727553,-1,-1,14,0,0,0,77,80,121,80,19,135.28,495,-23.00,29.00,-958.00
2024-06-07 11:18:48.744314,-2,-1,14,0,0,0,77,80,122,80,19,135.25,495,-1.00,2.00,-1086.00
2024-06-07 11:18:48.938579,-2,0,14,0,0,0,77,80,122,80,19,135.37,495,-70.00,9.00,-1039.00
2024-06-07 11:18:48.948260,-1,0,14,0,0,0,77,80,122,80,19,135.28,495,-10.00,0.00,-1030.00
2024-06-07 11:18:49.050567,-1,0,13,0,0,0,77,80,122,80,19,135.27,496,-46.00,-8.00,-1095.00
2024-06-07 11:18:49.239510,-1,0,13,0,0,0,77,80,123,80,19,135.30,496,-25.00,11.00,-987.00
2024-06-07 11:18:49.254320,-1,0,13,0,0,0,77,80,124,80,19,135.27,496,-49.00,-1.00,-1005.00
2024-06-07 11:18:49.356438,-1,0,13,0,0,0,77,80,124,80,19,135.23,496,-44.00,20.00,-985.00
2024-06-07 11:18:49.547407,-1,0,13,0,0,0,78,81,125,80,19,135.22,496,1.00,0.00,-1002.00
2024-06-07 11:18:49.560378,-1,0,13,0,0,0,78,81,124,80,19,135.21,496,-19.00,31.00,-1047.00
2024-06-07 11:18:49.751858,-1,0,14,0,0,0,78,81,124,80,19,135.19,496,-42.00,-3.00,-1020.00
2024-06-07 11:18:49.764340,-1,0,14,0,0,0,78,81,124,80,19,135.28,496,-26.00,-15.00,-972.00
2024-06-07 11:18:49.956439,-1,0,14,0,0,0,78,81,124,80,18,135.28,496,-4.00,-21.00,-957.00
2024-06-07 11:18:49.968451,-1,0,14,0,0,0,78,81,126,80,18,135.28,496,15.00,-1.00,-968.00
2024-06-07 11:18:50.070328,-1,0,14,0,0,0,78,81,122,80,18,135.31,497,-41.00,15.00,-1037.00
2024-06-07 11:18:50.264055,-1,0,14,0,0,0,78,81,123,80,18,135.20,497,-12.00,-17.00,-1079.00
2024-06-07 11:18:50.274327,-2,0,14,0,0,0,78,81,123,80,18,135.19,497,11.00,-10.00,-1106.00
2024-06-07 11:18:50.376278,-2,0,14,0,0,0,78,81,123,80,18,135.21,497,-19.00,-19.00,-1015.00
2024-06-07 11:18:50.570771,-2,0,14,0,0,0,77,80,123,80,18,135.19,497,-33.00,13.00,-938.00
2024-06-07 11:18:50.580453,-1,0,14,0,0,0,77,80,123,80,18,135.18,497,0.00,1.00,-1031.00
2024-06-07 11:18:50.682250,-1,0,14,0,0,0,77,80,123,80,18,135.21,497,-9.00,-62.00,-1029.00
2024-06-07 11:18:50.878722,-2,0,14,0,0,0,77,80,123,80,18,135.18,497,-46.00,-4.00,-1036.00
2024-06-07 11:18:50.886289,-2,0,14,0,0,0,77,80,122,80,18,135.26,497,-8.00,-10.00,-1046.00
2024-06-07 11:18:50.988467,-2,1,14,0,0,0,77,80,124,80,18,135.16,497,-57.00,-21.00,-1006.00
2024-06-07 11:18:51.090561,-2,0,14,0,0,0,77,80,124,80,18,135.29,498,-39.00,-17.00,-946.00
2024-06-07 11:18:51.288819,-2,0,14,0,0,0,77,80,122,80,18,135.22,498,-22.00,-8.00,-1022.00
2024-06-07 11:18:51.294307,-2,0,13,0,0,0,77,80,122,80,18,135.18,498,-38.00,9.00,-999.00
2024-06-07 11:18:51.492380,-2,0,13,0,0,0,77,80,123,80,18,135.14,498,-31.00,-30.00,-969.00
2024-06-07 11:18:51.498385,-2,0,13,0,0,0,77,80,121,80,18,135.28,498,-36.00,5.00,-1006.00
2024-06-07 11:18:51.698407,-2,0,14,0,0,0,77,80,121,80,18,135.18,498,-8.00,-2.00,-958.00
2024-06-07 11:18:51.702649,-2,0,14,0,0,0,77,80,121,80,18,135.24,498,-38.00,39.00,-967.00
2024-06-07 11:18:51.901950,-1,0,14,0,0,0,77,80,119,80,18,135.24,498,-42.00,14.00,-969.00
2024-06-07 11:18:51.907873,-2,0,13,0,0,0,77,80,119,80,18,135.13,498,3.00,-45.00,-1008.00
2024-06-07 11:18:52.009717,-1,-1,13,0,0,0,77,80,120,80,18,135.15,498,-59.00,-3.00,-979.00
2024-06-07 11:18:52.059078,-1,0,14,0,0,0,77,80,120,80,18,135.24,499,-15.00,0.00,-1094.00
2024-06-07 11:18:52.161762,-2,0,14,0,0,0,77,80,121,80,18,135.18,499,-12.00,58.00,-872.00
2024-06-07 11:18:52.311551,-1,0,14,0,0,0,77,80,122,80,18,135.26,499,-80.00,101.00,-930.00
2024-06-07 11:18:52.365239,-1,-1,14,0,0,0,77,80,124,80,18,135.25,499,-73.00,10.00,-987.00
2024-06-07 11:18:52.518087,-2,-2,14,0,0,0,78,80,123,80,18,135.13,499,-64.00,15.00,-1033.00
2024-06-07 11:18:52.569437,-1,-2,14,0,0,0,78,80,124,80,18,135.21,499,-85.00,43.00,-1036.00
2024-06-07 11:18:52.722548,-1,-1,14,0,0,0,78,80,124,80,18,135.16,499,-29.00,23.00,-1007.00
2024-06-07 11:18:52.773300,-2,-2,14,0,0,0,78,80,124,80,18,135.16,499,27.00,23.00,-988.00
2024-06-07 11:18:52.928163,-2,-2,14,0,0,0,78,80,124,80,18,135.11,499,-48.00,87.00,-948.00
2024-06-07 11:18:52.977167,-2,-3,14,0,0,0,78,80,125,80,18,135.14,499,8.00,11.00,-1017.00
2024-06-07 11:18:53.132953,-2,-4,14,0,0,0,78,80,126,80,18,135.24,500,-38.00,23.00,-963.00
2024-06-07 11:18:53.181180,-1,-3,13,0,0,0,78,80,125,80,18,135.21,500,-36.00,29.00,-1067.00
2024-06-07 11:18:53.283334,-1,-3,13,0,0,0,78,80,124,80,18,135.14,500,-43.00,15.00,-1039.00
2024-06-07 11:18:53.438076,-2,-2,14,0,0,0,78,80,124,80,18,135.13,500,-53.00,32.00,-954.00
2024-06-07 11:18:53.487339,-3,-1,14,0,0,0,78,80,124,80,18,135.16,500,-34.00,-2.00,-971.00
2024-06-07 11:18:53.644159,-3,-1,13,0,0,0,78,80,123,80,18,135.11,500,-55.00,-10.00,-1013.00
2024-06-07 11:18:53.691161,-3,0,14,0,0,0,78,80,123,80,18,135.13,500,-25.00,-29.00,-975.00
2024-06-07 11:18:53.853364,-3,0,14,0,-1,0,78,80,123,80,18,135.12,500,-120.00,11.00,-1058.00
2024-06-07 11:18:53.895322,-3,0,14,0,0,0,78,80,123,80,18,135.14,500,-93.00,24.00,-1062.00
2024-06-07 11:18:53.999360,-4,0,14,0,0,0,78,80,122,80,18,135.22,500,-61.00,-17.00,-953.00
2024-06-07 11:18:54.099392,-4,0,14,0,0,0,78,80,123,80,18,135.15,501,-54.00,-1.00,-979.00
2024-06-07 11:18:54.204931,-3,0,14,0,0,0,78,80,122,80,18,135.11,501,-74.00,12.00,-1022.00
2024-06-07 11:18:54.304211,-3,0,14,0,0,0,78,80,123,80,18,135.19,501,-61.00,31.00,-989.00
2024-06-07 11:18:54.464015,-3,0,14,0,0,0,78,80,123,80,18,135.13,501,-22.00,8.00,-987.00
2024-06-07 11:18:54.507147,-3,0,14,0,0,0,78,80,125,80,18,135.09,501,-72.00,14.00,-996.00
2024-06-07 11:18:54.671400,-3,0,14,0,0,0,78,80,126,80,18,135.17,501,-80.00,29.00,-1048.00
2024-06-07 11:18:54.711481,-3,-1,14,0,0,0,78,80,125,80,18,135.17,501,-60.00,2.00,-975.00
2024-06-07 11:18:54.872819,-3,-1,14,0,0,0,78,80,125,80,18,135.13,501,-73.00,50.00,-1046.00
2024-06-07 11:18:54.914999,-3,-1,14,0,0,0,78,80,126,80,18,135.14,501,-47.00,15.00,-1032.00
2024-06-07 11:18:55.017031,-3,-1,14,0,0,0,78,80,127,80,18,135.10,501,-35.00,13.00,-1044.00
2024-06-07 11:18:55.179989,-2,0,14,0,0,0,78,80,127,80,18,135.19,502,-40.00,-1.00,-937.00
2024-06-07 11:18:55.221015,-1,0,14,0,0,0,78,80,129,80,18,135.20,502,-16.00,9.00,-951.00
2024-06-07 11:18:55.383476,-1,0,14,0,0,0,78,80,128,80,18,135.09,502,-11.00,-9.00,-934.00
2024-06-07 11:18:55.425338,0,0,14,0,0,0,78,80,128,90,18,135.17,502,-28.00,5.00,-1004.00
2024-06-07 11:18:55.589118,-2,0,14,0,0,0,78,80,126,90,18,135.06,502,-60.00,-15.00,-1037.00
