TS,pitch,roll,yaw,vgx,vgy,vgz,templ,temph,tof,h,bat,baro,time,agx,agy,agz
2024-05-17 16:05:43.500472,0,0,0,0,0,0,53,55,10,0,91,190.10,0,3.00,-3.00,-999.00
2024-05-17 16:05:43.544828,0,0,0,0,0,0,53,55,10,0,91,190.13,0,1.00,-2.00,-999.00
2024-05-17 16:05:43.705091,0,0,0,0,0,0,53,55,10,0,91,190.13,0,1.00,-5.00,-999.00
2024-05-17 16:05:43.748813,0,0,0,0,0,0,53,55,10,0,91,190.12,0,1.00,-3.00,-997.00
2024-05-17 16:05:43.909771,0,0,0,0,0,0,53,55,10,0,91,190.12,0,2.00,-1.00,-1001.00
2024-05-17 16:05:43.952703,0,0,0,0,0,0,53,55,10,0,91,190.18,0,2.00,-3.00,-996.00
2024-05-17 16:05:44.054749,0,0,0,0,0,0,53,55,10,0,91,190.09,0,1.00,-2.00,-999.00
2024-05-17 16:05:44.217202,0,0,0,0,0,0,53,55,10,0,91,190.13,0,2.00,-1.00,-998.00
2024-05-17 16:05:44.258909,0,0,0,0,0,0,53,55,10,0,91,190.15,0,2.00,-3.00,-1000.00
2024-05-17 16:05:44.421953,0,0,0,0,0,0,53,55,10,0,91,190.16,0,1.00,-3.00,-997.00
2024-05-17 16:05:44.422160,0,0,0,0,0,0,53,55,10,0,91,190.17,0,2.00,-2.00,-996.00
2024-05-17 16:05:44.517369,0,0,0,0,0,0,53,55,10,0,91,190.13,0,3.00,-2.00,-1000.00
2024-05-17 16:05:44.666718,0,0,0,0,0,0,53,55,10,0,91,190.10,0,2.00,-3.00,-999.00
2024-05-17 16:05:44.718927,0,0,0,0,0,0,53,55,10,0,91,190.11,0,2.00,-2.00,-999.00
2024-05-17 16:05:44.831583,0,0,0,0,0,0,53,55,10,0,91,190.13,0,2.00,-2.00,-998.00
2024-05-17 16:05:44.921937,0,0,0,0,0,0,53,55,10,0,91,190.10,0,1.00,-2.00,-998.00
2024-05-17 16:05:45.036417,0,0,0,0,0,0,53,55,10,0,91,190.13,0,2.00,-1.00,-999.00
2024-05-17 16:05:45.126052,0,0,0,0,0,0,53,55,10,0,91,190.10,0,2.00,-2.00,-999.00
2024-05-17 16:05:45.241125,0,0,0,0,0,0,53,55,10,0,91,190.06,0,2.00,-4.00,-999.00
2024-05-17 16:05:45.329915,0,0,0,0,0,0,53,55,10,0,91,190.11,0,1.00,-3.00,-1000.00
2024-05-17 16:05:45.445915,0,0,0,0,0,0,53,55,10,0,91,190.10,0,1.00,-2.00,-996.00
2024-05-17 16:05:45.533696,0,0,0,0,0,0,53,55,10,0,91,190.09,0,2.00,-2.00,-997.00
2024-05-17 16:05:45.650912,0,0,0,0,0,0,53,55,10,0,91,190.16,0,3.00,-2.00,-1001.00
2024-05-17 16:05:45.737772,0,0,0,0,0,0,53,55,10,0,91,190.15,0,3.00,-2.00,-998.00
2024-05-17 16:05:45.855607,0,0,0,0,0,0,53,55,10,0,91,190.17,0,2.00,-3.00,-998.00
2024-05-17 16:05:45.941663,0,0,0,0,0,0,53,55,10,0,91,190.18,0,2.00,-2.00,-999.00
2024-05-17 16:05:46.043920,0,0,0,0,0,0,53,55,10,0,91,190.10,0,3.00,-3.00,-998.00
2024-05-17 16:05:46.165866,0,0,0,0,0,0,53,55,10,0,91,190.11,0,2.00,-2.00,-999.00
2024-05-17 16:05:46.247915,0,0,0,0,0,0,53,55,10,0,91,190.08,0,4.00,-2.00,-1000.00
2024-05-17 16:05:46.367543,0,0,0,0,0,0,53,55,10,0,91,190.12,0,3.00,-3.00,-997.00
2024-05-17 16:05:46.451905,0,0,0,0,0,0,53,55,10,0,91,190.14,0,3.00,-2.00,-1000.00
2024-05-17 16:05:46.572199,0,0,0,0,0,0,53,55,10,0,91,190.13,0,0.00,-4.00,-1001.00
2024-05-17 16:05:46.658124,0,0,0,0,0,0,54,56,10,0,91,190.14,0,1.00,-2.00,-999.00
2024-05-17 16:05:46.757857,0,0,0,0,0,0,54,56,10,0,91,190.22,0,2.00,-4.00,-1003.00
2024-05-17 16:05:46.879611,0,0,0,0,0,0,54,56,10,0,91,190.17,0,1.00,-4.00,-1001.00
2024-05-17 16:05:46.995587,0,0,0,0,0,0,54,56,10,0,91,190.16,0,2.00,-2.00,-999.00
2024-05-17 16:05:47.137946,0,0,0,0,0,0,54,56,10,0,91,190.18,0,2.00,-1.00,-998.00
2024-05-17 16:05:47.165621,0,0,0,0,0,0,54,56,10,0,91,190.10,0,3.00,-3.00,-1001.00
2024-05-17 16:05:47.289728,0,0,0,0,0,0,54,56,10,0,91,190.11,0,0.00,-5.00,-998.00
2024-05-17 16:05:47.435377,0,0,0,0,0,0,54,56,10,0,91,190.11,0,1.00,-2.00,-1001.00
2024-05-17 16:05:47.471765,0,0,0,0,0,0,54,56,10,0,91,190.13,0,0.00,-3.00,-1001.00
2024-05-17 16:05:47.609879,0,0,0,0,0,0,54,56,10,0,91,190.17,0,1.00,-2.00,-1001.00
2024-05-17 16:05:47.744833,0,0,0,0,0,0,54,57,10,0,91,190.17,0,2.00,-2.00,-999.00
2024-05-17 16:05:47.777766,0,0,0,0,0,0,54,57,10,0,91,190.20,0,1.00,-4.00,-999.00
2024-05-17 16:05:47.917102,0,0,0,0,0,0,54,57,10,0,91,190.20,0,2.00,-3.00,-1001.00
2024-05-17 16:05:48.064640,0,0,0,0,0,0,54,57,10,0,91,190.19,0,2.00,-2.00,-999.00
2024-05-17 16:05:48.064855,0,0,0,0,0,0,54,57,10,0,91,190.18,0,0.00,-4.00,-1001.00
2024-05-17 16:05:48.219172,0,0,0,0,0,0,54,57,10,0,91,190.18,0,2.00,-3.00,-1001.00
2024-05-17 16:05:48.236418,0,0,0,0,0,0,54,57,10,0,91,190.10,0,3.00,-3.00,-1002.00
2024-05-17 16:05:48.366806,0,0,0,0,0,0,54,57,10,0,91,190.18,0,1.00,-2.00,-1001.00
2024-05-17 16:05:48.440634,0,0,0,0,0,0,54,57,10,0,91,190.18,0,1.00,-2.00,-998.00
2024-05-17 16:05:48.636920,0,0,0,0,0,0,54,57,10,0,91,190.16,0,3.00,-2.00,-1001.00
2024-05-17 16:05:48.644400,0,0,0,0,0,0,54,56,10,0,91,190.23,0,1.00,-3.00,-1000.00
2024-05-17 16:05:48.835865,0,0,0,0,0,0,54,56,10,0,91,190.21,0,2.00,-3.00,-999.00
2024-05-17 16:05:48.848473,0,0,0,0,0,0,54,56,10,0,91,190.21,0,1.00,-3.00,-999.00
2024-05-17 16:05:48.979254,0,0,0,0,0,0,54,56,10,0,91,190.17,0,2.00,-3.00,-999.00
2024-05-17 16:05:49.143038,0,0,0,0,0,0,54,56,10,0,91,190.25,0,1.00,-2.00,-1001.00
2024-05-17 16:05:49.154396,0,0,0,0,0,0,54,56,10,0,91,190.19,0,3.00,-2.00,-998.00
2024-05-17 16:05:49.286727,0,0,0,0,0,0,54,56,10,0,91,190.18,0,3.00,-2.00,-1001.00
2024-05-17 16:05:49.450387,0,0,0,0,0,0,54,56,10,0,91,190.22,0,3.00,-3.00,-1000.00
2024-05-17 16:05:49.460506,0,0,0,0,0,0,54,56,10,0,91,190.21,0,2.00,-3.00,-997.00
2024-05-17 16:05:49.593752,0,0,0,0,0,0,54,56,10,0,91,190.21,0,2.00,-3.00,-1000.00
2024-05-17 16:05:49.757489,0,0,0,0,0,0,54,57,10,0,91,190.18,0,1.00,-3.00,-1004.00
2024-05-17 16:05:49.766298,0,0,0,0,0,0,54,57,10,0,91,190.21,0,2.00,-1.00,-999.00
2024-05-17 16:05:49.901045,0,0,0,0,0,0,54,57,10,0,91,190.22,0,1.00,-1.00,-999.00
2024-05-17 16:05:50.064653,0,0,0,0,0,0,54,57,10,0,91,190.21,0,2.00,-2.00,-998.00
2024-05-17 16:05:50.072389,0,0,0,0,0,0,54,57,10,0,91,190.18,0,3.00,-4.00,-1001.00
2024-05-17 16:05:50.208048,0,0,0,0,0,0,54,57,10,0,91,190.17,0,1.00,-2.00,-1000.00
2024-05-17 16:05:50.375441,0,0,0,0,0,0,54,57,10,0,91,190.20,0,3.00,-3.00,-1002.00
2024-05-17 16:05:50.378613,0,0,0,0,0,0,54,57,10,0,91,190.17,0,2.00,-3.00,-1001.00
2024-05-17 16:05:50.488259,0,0,0,0,0,0,54,57,10,0,91,190.21,0,2.00,-3.00,-1002.00
2024-05-17 16:05:50.582331,0,0,0,0,0,0,54,57,10,0,91,190.21,0,2.00,-3.00,-998.00
2024-05-17 16:05:50.773304,0,0,0,0,0,0,54,57,10,0,91,190.21,0,2.00,-3.00,-1002.00
2024-05-17 16:05:50.786201,0,0,0,0,0,0,54,57,10,0,91,190.21,0,3.00,3.00,-1002.00
2024-05-17 16:05:50.975353,0,0,0,0,0,0,54,57,10,0,91,190.21,0,-12.00,-32.00,-1000.00
2024-05-17 16:05:50.990309,0,0,0,0,0,0,54,57,10,0,91,190.21,0,-6.00,1.00,-992.00
2024-05-17 16:05:51.180125,0,0,0,0,0,0,54,57,10,0,91,190.21,0,-34.00,15.00,-986.00
2024-05-17 16:05:51.194262,0,0,0,0,0,0,54,57,10,0,91,190.21,0,-19.00,-19.00,-1181.00
2024-05-17 16:05:51.384991,0,0,-1,0,0,-1,54,57,22,0,91,190.21,0,5.00,-3.00,-1271.00
2024-05-17 16:05:51.398158,0,0,-1,0,0,-3,54,57,18,0,91,190.21,0,12.00,7.00,-1354.00
2024-05-17 16:05:51.449387,0,0,-1,0,0,-5,54,57,18,0,91,190.23,0,-30.00,-15.00,-1123.00
2024-05-17 16:05:51.551394,0,0,-1,0,0,-6,54,57,22,0,91,190.51,0,-12.00,9.00,-1070.00
2024-05-17 16:05:51.704352,0,0,-1,0,0,-6,54,57,29,0,91,190.60,1,-12.00,22.00,-995.00
2024-05-17 16:05:51.755472,-1,0,-1,0,0,-6,54,57,38,0,91,190.76,1,-17.00,-3.00,-1017.00
2024-05-17 16:05:51.896883,0,0,-1,0,0,-5,54,57,47,0,91,190.83,1,0.00,15.00,-905.00
2024-05-17 16:05:51.959409,0,0,-1,0,0,-5,54,57,55,10,91,190.90,1,-33.00,24.00,-959.00
2024-05-17 16:05:52.061335,0,0,-1,0,0,-4,54,57,59,10,91,191.03,1,6.00,4.00,-939.00
2024-05-17 16:05:52.204070,0,-1,-1,0,0,-3,54,57,66,10,91,190.99,1,0.00,-1.00,-869.00
2024-05-17 16:05:52.265371,0,0,-1,0,0,-2,54,57,72,20,91,191.07,1,-4.00,9.00,-929.00
2024-05-17 16:05:52.408875,0,0,-1,0,0,-1,54,57,77,20,91,191.21,1,4.00,13.00,-925.00
2024-05-17 16:05:52.469307,0,0,-1,0,0,-1,54,57,82,20,91,191.20,1,-15.00,-13.00,-938.00
2024-05-17 16:05:52.613937,0,0,-1,0,0,-1,54,57,86,20,91,191.27,1,5.00,-23.00,-926.00
2024-05-17 16:05:52.673321,0,0,-1,0,0,0,55,58,90,30,91,191.28,2,-13.00,-15.00,-924.00
2024-05-17 16:05:52.818483,0,0,-1,0,0,0,55,58,92,30,90,191.34,2,20.00,-6.00,-973.00
2024-05-17 16:05:52.877375,0,0,-1,0,0,0,55,58,99,30,90,191.39,2,-39.00,22.00,-951.00
2024-05-17 16:05:53.023282,0,0,-1,0,0,0,55,58,102,30,90,191.42,2,-1.00,13.00,-908.00
2024-05-17 16:05:53.083122,0,0,-1,0,0,0,55,58,103,40,90,191.40,2,-22.00,12.00,-938.00
2024-05-17 16:05:53.183536,0,0,-1,0,0,0,55,58,105,40,90,191.43,2,12.00,-2.00,-966.00
2024-05-17 16:05:53.330497,0,0,-1,0,0,0,55,58,106,40,90,191.44,2,-5.00,0.00,-999.00
2024-05-17 16:05:53.387339,0,0,-1,0,0,0,55,58,107,40,90,191.44,2,-7.00,5.00,-954.00
2024-05-17 16:05:53.535275,0,0,-1,0,0,1,55,58,107,40,90,191.41,2,-39.00,17.00,-967.00
2024-05-17 16:05:53.594458,0,0,-1,0,0,1,55,58,106,40,90,191.47,2,-10.00,19.00,-920.00
2024-05-17 16:05:53.694967,0,0,-1,0,0,1,55,58,106,40,90,191.41,3,2.00,22.00,-1017.00
2024-05-17 16:05:53.795424,0,0,-1,0,0,2,55,58,105,40,90,191.37,3,-7.00,23.00,-943.00
2024-05-17 16:05:53.944874,0,0,-1,0,0,2,55,58,103,40,90,191.38,3,-5.00,-10.00,-990.00
2024-05-17 16:05:53.999286,0,0,-1,0,0,1,55,58,102,40,90,191.36,3,8.00,-9.00,-945.00
2024-05-17 16:05:54.149744,0,0,-1,0,0,2,55,58,99,40,90,191.41,3,-3.00,11.00,-971.00
2024-05-17 16:05:54.203207,0,0,-1,0,0,2,55,58,97,40,90,191.36,3,9.00,-14.00,-973.00
2024-05-17 16:05:54.354467,0,0,-1,0,0,2,55,58,94,40,90,191.31,3,-17.00,8.00,-997.00
2024-05-17 16:05:54.407592,0,0,-1,0,0,1,55,58,92,40,90,191.31,3,-5.00,13.00,-1029.00
2024-05-17 16:05:54.559756,0,0,-1,0,0,1,55,58,91,40,90,191.26,3,-22.00,-13.00,-1071.00
2024-05-17 16:05:54.611289,-1,0,-1,0,0,1,55,58,88,40,90,191.26,3,-28.00,10.00,-978.00
2024-05-17 16:05:54.767203,0,0,-1,0,0,1,54,58,85,30,90,191.22,4,-15.00,10.00,-979.00
2024-05-17 16:05:54.815284,0,0,-1,0,0,1,54,58,82,30,90,191.23,4,-36.00,28.00,-998.00
2024-05-17 16:05:54.968889,0,0,-1,0,0,1,54,58,79,30,90,191.09,4,15.00,-7.00,-1003.00
2024-05-17 16:05:55.019240,0,0,-1,0,0,1,54,58,76,30,90,191.15,4,-17.00,12.00,-1034.00
2024-05-17 16:05:55.173654,0,0,-1,0,0,1,54,58,72,30,90,191.16,4,12.00,-7.00,-950.00
2024-05-17 16:05:55.223329,0,0,-1,0,0,1,54,58,69,20,90,191.12,4,0.00,4.00,-1008.00
2024-05-17 16:05:55.273952,0,0,-1,0,0,1,54,58,67,20,90,191.04,4,6.00,-6.00,-968.00
2024-05-17 16:05:55.378459,0,0,-1,0,0,0,54,58,65,20,90,191.02,4,0.00,13.00,-1115.00
2024-05-17 16:05:55.478722,0,0,-1,0,0,0,54,58,63,20,90,191.04,4,-16.00,9.00,-1032.00
2024-05-17 16:05:55.583249,0,0,-1,0,0,0,54,58,63,20,90,191.06,4,7.00,-15.00,-1093.00
2024-05-17 16:05:55.681995,0,0,-1,0,0,0,55,58,62,20,89,191.03,5,-13.00,8.00,-970.00
2024-05-17 16:05:55.788091,0,0,-1,0,0,0,55,58,61,10,89,191.05,5,9.00,4.00,-953.00
2024-05-17 16:05:55.885952,0,0,-1,0,0,0,55,58,61,10,89,191.02,5,8.00,33.00,-1019.00
2024-05-17 16:05:55.990380,0,0,-1,0,0,0,55,58,60,10,89,190.99,5,20.00,21.00,-1043.00
2024-05-17 16:05:56.092274,0,0,-1,0,0,0,55,58,61,10,89,191.05,5,3.00,2.00,-972.00
2024-05-17 16:05:56.191890,0,0,-1,0,0,0,55,58,62,10,89,191.09,5,21.00,16.00,-1032.00
2024-05-17 16:05:56.299944,0,0,-1,0,0,0,55,58,64,10,89,191.06,5,-14.00,5.00,-1045.00
2024-05-17 16:05:56.395919,0,0,-1,0,0,-1,55,58,65,10,89,191.06,5,-12.00,17.00,-1006.00
2024-05-17 16:05:56.500954,0,0,-1,0,0,-1,55,58,67,10,89,191.10,5,-17.00,7.00,-998.00
2024-05-17 16:05:56.600498,0,0,-1,0,0,-1,55,58,68,20,89,191.16,5,-2.00,-8.00,-984.00
2024-05-17 16:05:56.709637,0,0,-1,0,0,-1,56,58,69,20,89,191.13,6,-3.00,21.00,-957.00
2024-05-17 16:05:56.808323,0,0,-1,0,0,-1,56,58,70,20,89,191.14,6,-29.00,12.00,-1035.00
2024-05-17 16:05:56.910221,0,0,-1,0,0,0,56,58,71,20,89,191.17,6,-29.00,16.00,-1036.00
2024-05-17 16:05:57.010264,0,0,-1,0,0,0,56,58,72,20,89,191.17,6,-1.00,-10.00,-979.00
2024-05-17 16:05:57.109841,0,0,-1,0,0,0,56,58,73,20,89,191.13,6,10.00,11.00,-942.00
2024-05-17 16:05:57.221640,0,0,-1,0,0,0,56,58,74,20,89,191.23,6,-24.00,32.00,-1005.00
2024-05-17 16:05:57.313856,0,0,-1,0,0,0,56,58,75,20,89,191.20,6,1.00,10.00,-1064.00
2024-05-17 16:05:57.426434,0,0,-1,0,0,0,56,58,76,20,89,191.15,6,-2.00,16.00,-981.00
2024-05-17 16:05:57.518135,0,0,-1,0,0,0,56,58,77,20,89,191.23,6,-10.00,1.00,-1048.00
2024-05-17 16:05:57.631149,0,0,-1,0,0,0,56,58,78,20,89,191.22,6,8.00,0.00,-1009.00
2024-05-17 16:05:57.721869,0,0,-1,0,0,0,56,58,79,20,88,191.17,7,20.00,6.00,-1005.00
2024-05-17 16:05:57.836040,0,0,-1,0,0,0,56,58,79,30,88,191.16,7,-21.00,0.00,-994.00
2024-05-17 16:05:57.925773,0,0,-1,0,0,0,56,58,80,30,88,191.19,7,-41.00,25.00,-1052.00
2024-05-17 16:05:58.041216,0,0,-1,0,0,0,56,58,80,30,88,191.24,7,2.00,17.00,-1009.00
2024-05-17 16:05:58.129825,0,0,-1,0,0,0,56,58,80,30,88,191.28,7,-17.00,35.00,-1029.00
2024-05-17 16:05:58.245622,0,0,-1,0,0,0,56,58,80,30,88,191.16,7,-14.00,14.00,-1006.00
2024-05-17 16:05:58.333769,0,0,-1,0,0,0,56,58,80,30,88,191.23,7,-6.00,12.00,-1021.00
2024-05-17 16:05:58.450377,0,0,-1,0,0,0,56,58,80,30,88,191.27,7,8.00,-6.00,-980.00
2024-05-17 16:05:58.537764,-1,0,-1,0,0,0,56,58,80,30,88,191.23,7,1.00,-5.00,-993.00
2024-05-17 16:05:58.656242,0,0,-1,0,0,0,56,58,80,30,88,191.28,7,16.00,10.00,-978.00
2024-05-17 16:05:58.741746,0,0,-1,0,0,0,55,59,80,30,88,191.23,8,-9.00,8.00,-1011.00
2024-05-17 16:05:58.860031,-1,0,-1,0,0,0,55,59,80,30,88,191.25,8,4.00,-3.00,-1014.00
2024-05-17 16:05:58.945851,-1,0,-1,0,0,0,55,59,80,30,88,191.26,8,-9.00,33.00,-939.00
2024-05-17 16:05:59.064833,-1,0,-1,0,0,0,55,59,79,30,88,191.28,8,-25.00,24.00,-999.00
2024-05-17 16:05:59.149787,-1,0,-1,0,0,0,55,59,79,30,88,191.28,8,3.00,19.00,-997.00
2024-05-17 16:05:59.270322,-1,0,-1,0,0,0,55,59,79,30,88,191.26,8,-29.00,21.00,-978.00
2024-05-17 16:05:59.355426,-1,0,-1,0,0,0,55,59,79,30,88,191.19,8,-2.00,-24.00,-1073.00
2024-05-17 16:05:59.405418,-1,0,-1,0,0,0,55,59,79,30,88,191.28,8,-14.00,4.00,-987.00
2024-05-17 16:05:59.578077,-1,0,-1,0,0,0,55,59,79,30,88,191.29,8,-7.00,-14.00,-1033.00
2024-05-17 16:05:59.609044,-1,0,-1,0,0,0,55,59,79,30,88,191.27,8,-7.00,16.00,-955.00
2024-05-17 16:05:59.781630,-1,0,-1,0,0,0,55,59,80,30,87,191.25,9,-14.00,26.00,-894.00
2024-05-17 16:05:59.866287,-1,0,-1,0,0,0,55,59,80,30,87,191.25,9,-18.00,26.00,-1054.00
2024-05-17 16:05:59.915069,-1,0,-1,0,0,0,55,59,80,30,87,191.29,9,12.00,6.00,-1028.00
2024-05-17 16:06:00.089245,-1,0,-1,0,0,0,55,59,80,30,87,191.30,9,-5.00,7.00,-979.00
2024-05-17 16:06:00.118901,-1,0,-1,0,0,0,55,59,80,30,87,191.27,9,-24.00,1.00,-1075.00
2024-05-17 16:06:00.293897,0,0,-1,0,0,0,55,59,80,30,87,191.30,9,-11.00,28.00,-923.00
2024-05-17 16:06:00.323063,0,0,-1,0,0,0,55,59,79,30,87,191.23,9,7.00,-12.00,-988.00
2024-05-17 16:06:00.498643,0,0,-1,0,0,0,55,59,79,30,87,191.26,9,1.00,-5.00,-1024.00
2024-05-17 16:06:00.527466,0,0,-1,0,0,0,55,59,79,30,87,191.29,9,-14.00,8.00,-967.00
2024-05-17 16:06:00.703418,0,0,-1,0,0,0,55,59,78,30,87,191.24,9,3.00,9.00,-979.00
2024-05-17 16:06:00.731013,0,0,-1,0,0,0,57,59,78,30,87,191.25,10,-41.00,25.00,-990.00
2024-05-17 16:06:00.908133,-1,0,-1,0,0,0,57,59,79,30,87,191.25,10,-18.00,-7.00,-1078.00
2024-05-17 16:06:00.934962,-1,0,-1,0,0,0,57,59,78,30,87,191.25,10,-21.00,6.00,-966.00
2024-05-17 16:06:01.112933,-1,0,-1,0,0,0,57,59,79,30,87,191.21,10,-12.00,15.00,-1028.00
2024-05-17 16:06:01.139112,-1,0,-1,0,0,0,57,59,79,30,87,191.20,10,-11.00,-15.00,-986.00
2024-05-17 16:06:01.240949,-1,0,-1,0,0,0,57,59,80,30,87,191.26,10,3.00,-8.00,-969.00
2024-05-17 16:06:01.342827,-1,0,-1,0,0,0,57,59,80,30,87,191.27,10,13.00,-3.00,-996.00
2024-05-17 16:06:01.522402,-1,0,-1,0,0,0,57,59,80,30,87,191.25,10,-13.00,-9.00,-1048.00
2024-05-17 16:06:01.546867,-1,0,-1,0,0,0,57,59,81,30,87,191.24,10,-22.00,-6.00,-1094.00
2024-05-17 16:06:01.727198,0,0,-1,0,0,-1,57,59,83,30,87,191.32,10,8.00,-15.00,-1153.00
2024-05-17 16:06:01.750836,0,0,-1,0,0,-2,57,58,86,30,86,191.30,11,-41.00,-18.00,-1088.00
2024-05-17 16:06:01.852834,0,0,-1,0,0,-3,57,58,89,30,86,191.36,11,-13.00,1.00,-1033.00
2024-05-17 16:06:01.955161,0,0,-1,0,0,-4,57,58,93,40,86,191.46,11,-23.00,-23.00,-1139.00
2024-05-17 16:06:02.058340,0,0,-1,0,0,-4,57,58,98,40,86,191.45,11,-5.00,-12.00,-1010.00
2024-05-17 16:06:02.159014,0,0,-1,0,0,-5,57,58,104,50,86,191.52,11,-11.00,13.00,-1016.00
2024-05-17 16:06:02.260991,0,0,-1,0,0,-5,57,58,109,50,86,191.53,11,42.00,-17.00,-1010.00
2024-05-17 16:06:02.444008,0,0,-1,0,0,-5,57,58,115,60,86,191.60,11,-10.00,40.00,-935.00
2024-05-17 16:06:02.464754,0,0,-1,0,0,-5,57,58,121,60,86,191.76,11,-11.00,6.00,-1027.00
2024-05-17 16:06:02.569054,0,0,-1,0,0,-5,57,58,127,70,86,191.73,11,10.00,0.00,-945.00
2024-05-17 16:06:02.668787,0,0,-1,0,0,-5,57,58,133,70,86,191.77,11,-8.00,13.00,-973.00
2024-05-17 16:06:02.854642,0,0,-1,0,0,-5,57,60,138,90,86,191.87,12,23.00,9.00,-1032.00
2024-05-17 16:06:02.872735,0,0,-1,0,0,-4,57,60,143,90,86,191.90,12,-25.00,9.00,-1046.00
2024-05-17 16:06:03.058386,0,0,-1,0,0,-4,57,60,147,100,86,192.02,12,-1.00,11.00,-945.00
2024-05-17 16:06:03.077004,0,-1,-1,0,0,-4,57,60,152,100,86,191.95,12,-12.00,32.00,-959.00
2024-05-17 16:06:03.263177,0,-1,-1,0,0,-3,57,60,156,100,86,192.09,12,11.00,7.00,-972.00
2024-05-17 16:06:03.280760,0,-1,-1,0,0,-3,57,60,160,110,86,192.11,12,19.00,20.00,-927.00
2024-05-17 16:06:03.467921,0,-1,-1,0,0,-2,57,60,163,110,86,192.09,12,12.00,-1.00,-973.00
2024-05-17 16:06:03.484836,0,-1,-1,0,0,-2,57,60,166,110,86,192.09,12,-17.00,33.00,-982.00
2024-05-17 16:06:03.537788,0,-1,-1,0,0,-2,57,60,168,110,86,192.12,12,-6.00,14.00,-901.00
2024-05-17 16:06:03.637463,0,-1,-1,0,0,-2,57,60,171,120,86,192.17,13,-1.00,12.00,-948.00
2024-05-17 16:06:03.791502,0,0,-1,0,0,-1,57,59,173,120,85,192.22,13,17.00,-1.00,-971.00
2024-05-17 16:06:03.841405,0,0,-1,0,0,-1,57,59,175,120,85,192.27,13,5.00,4.00,-995.00
2024-05-17 16:06:03.944300,0,0,-1,0,0,-1,57,59,178,120,85,192.24,13,0.00,-20.00,-1013.00
2024-05-17 16:06:04.045636,0,0,-1,0,0,0,57,59,179,120,85,192.22,13,-7.00,0.00,-966.00
2024-05-17 16:06:04.184904,0,0,-1,0,0,0,57,59,180,120,85,192.25,13,16.00,-4.00,-977.00
2024-05-17 16:06:04.252613,0,0,-1,0,0,0,57,59,182,130,85,192.22,13,8.00,-10.00,-983.00
2024-05-17 16:06:04.351729,0,0,-1,0,0,0,57,59,183,130,85,192.30,13,-9.00,18.00,-997.00
2024-05-17 16:06:04.492147,0,0,-1,0,0,0,57,59,183,130,85,192.32,13,11.00,14.00,-1054.00
2024-05-17 16:06:04.557474,-1,-1,-1,0,0,0,57,59,184,130,85,192.32,13,5.00,8.00,-1009.00
2024-05-17 16:06:04.657554,-1,-1,-1,0,0,0,57,59,185,130,85,192.28,14,16.00,10.00,-1033.00
2024-05-17 16:06:04.759684,0,-1,-1,0,0,0,57,59,184,130,85,192.27,14,0.00,24.00,-1016.00
2024-05-17 16:06:04.861476,0,-1,-1,0,0,0,57,59,183,130,85,192.33,14,-2.00,33.00,-962.00
2024-05-17 16:06:05.004134,0,-1,-1,0,0,0,57,59,183,130,85,192.24,14,2.00,6.00,-959.00
2024-05-17 16:06:05.065580,0,-1,-1,0,0,0,57,59,182,130,85,192.27,14,-10.00,-6.00,-985.00
2024-05-17 16:06:05.208841,0,-1,-1,0,0,0,57,59,182,130,85,192.23,14,-28.00,54.00,-1059.00
2024-05-17 16:06:05.269459,0,0,-1,0,0,0,57,59,181,130,85,192.25,14,-5.00,24.00,-1032.00
2024-05-17 16:06:05.413628,0,-1,-1,0,0,0,57,59,180,130,85,192.26,14,-10.00,28.00,-1012.00
2024-05-17 16:06:05.473556,0,-1,-1,0,0,0,57,59,180,130,85,192.27,14,-24.00,0.00,-1071.00
2024-05-17 16:06:05.575557,0,-1,-1,0,0,0,57,59,179,130,85,192.32,14,14.00,21.00,-1033.00
2024-05-17 16:06:05.720917,0,0,-1,0,0,0,57,59,178,130,85,192.25,15,12.00,-8.00,-1026.00
2024-05-17 16:06:05.781089,0,0,-1,0,0,0,58,60,179,130,84,192.28,15,8.00,-4.00,-991.00
2024-05-17 16:06:05.896214,0,0,-1,0,0,0,58,60,179,130,84,192.28,15,14.00,19.00,-1017.00
2024-05-17 16:06:05.983600,0,0,-1,0,0,0,58,60,179,130,84,192.25,15,-6.00,18.00,-1023.00
2024-05-17 16:06:06.130358,0,0,-1,0,0,0,58,60,178,130,84,192.23,15,-26.00,49.00,-1002.00
2024-05-17 16:06:06.187394,0,0,-1,0,0,0,58,60,176,120,84,192.32,15,35.00,-21.00,-969.00
2024-05-17 16:06:06.337558,0,0,-1,0,0,1,58,60,175,120,84,192.23,15,7.00,-18.00,-944.00
2024-05-17 16:06:06.391363,0,0,-1,0,0,1,58,60,174,120,84,192.14,15,-22.00,10.00,-998.00
2024-05-17 16:06:06.541084,0,0,-1,0,0,2,58,60,172,120,84,192.24,15,14.00,-4.00,-1001.00
2024-05-17 16:06:06.595319,0,-1,-1,0,0,2,58,60,170,120,84,192.21,15,-18.00,18.00,-1005.00
2024-05-17 16:06:06.744750,-1,-1,-1,0,0,2,58,60,167,120,84,192.17,16,-18.00,30.00,-971.00
2024-05-17 16:06:06.802423,-1,-1,-1,0,0,2,58,60,165,110,84,192.07,16,10.00,-2.00,-991.00
2024-05-17 16:06:06.902533,-1,-1,-1,0,0,2,58,60,163,110,84,192.07,16,-4.00,9.00,-1046.00
2024-05-17 16:06:07.052739,-1,-1,-1,0,0,2,58,60,160,110,84,192.02,16,-18.00,12.00,-1008.00
2024-05-17 16:06:07.105478,-1,-1,-1,0,0,2,58,60,158,110,84,192.07,16,-14.00,21.00,-1003.00
2024-05-17 16:06:07.256690,-1,-1,-1,0,0,2,58,60,156,100,84,192.00,16,39.00,-1.00,-931.00
2024-05-17 16:06:07.311355,0,0,-1,0,0,2,58,60,154,100,84,191.99,16,9.00,24.00,-1007.00
2024-05-17 16:06:07.411763,0,0,-1,0,0,2,58,60,152,100,84,192.01,16,-26.00,-4.00,-1051.00
2024-05-17 16:06:07.470064,0,0,-1,0,0,2,58,60,150,100,84,192.01,16,-22.00,10.00,-1055.00
2024-05-17 16:06:07.564508,0,0,-1,0,0,1,58,60,149,100,84,191.97,16,0.00,0.00,-974.00
2024-05-17 16:06:07.666917,0,0,-1,0,0,1,58,60,148,90,84,191.95,17,-6.00,16.00,-1012.00
2024-05-17 16:06:07.871109,0,-1,-1,0,0,1,58,60,147,90,83,192.02,17,-15.00,0.00,-985.00
2024-05-17 16:06:07.871187,0,-1,-1,0,0,1,58,60,145,90,83,191.92,17,15.00,-6.00,-1015.00
2024-05-17 16:06:07.973632,0,0,-1,0,0,1,58,60,145,90,83,191.91,17,-2.00,5.00,-1067.00
2024-05-17 16:06:08.075552,0,0,-1,0,0,0,58,60,144,90,83,191.90,17,-18.00,2.00,-971.00
2024-05-17 16:06:08.178561,0,0,-1,0,0,1,58,60,143,90,83,191.94,17,-1.00,26.00,-942.00
2024-05-17 16:06:08.281382,0,0,-1,0,0,0,58,60,143,90,83,191.92,17,18.00,-3.00,-1028.00
2024-05-17 16:06:08.380526,0,0,-1,0,0,0,58,60,142,90,83,191.92,17,13.00,5.00,-1018.00
2024-05-17 16:06:08.485577,0,0,-1,0,0,0,58,60,142,90,83,191.89,17,30.00,10.00,-990.00
2024-05-17 16:06:08.584950,0,0,-1,0,0,0,58,60,141,90,83,191.88,17,-2.00,-14.00,-1011.00
2024-05-17 16:06:08.690474,0,0,-1,0,0,0,58,60,140,90,83,191.91,18,5.00,-17.00,-1005.00
2024-05-17 16:06:08.788558,0,0,-1,0,0,0,57,60,140,90,83,191.98,18,34.00,15.00,-931.00
2024-05-17 16:06:08.895175,0,0,-1,0,0,0,57,60,139,90,83,191.94,18,12.00,11.00,-1036.00
2024-05-17 16:06:08.992669,0,0,-1,0,0,0,57,60,137,80,83,191.90,18,0.00,-7.00,-971.00
2024-05-17 16:06:09.099930,0,0,-1,0,0,0,57,60,136,80,83,191.92,18,14.00,12.00,-961.00
2024-05-17 16:06:09.196497,0,0,-1,0,0,0,57,60,134,80,83,191.86,18,30.00,12.00,-1007.00
2024-05-17 16:06:09.304711,0,0,-1,0,0,1,57,60,132,80,83,191.86,18,-3.00,7.00,-982.00
2024-05-17 16:06:09.400508,0,-1,-1,0,0,1,57,60,130,80,83,191.73,18,7.00,3.00,-1053.00
2024-05-17 16:06:09.502471,-1,-1,-1,0,0,1,57,60,129,80,83,191.83,18,-7.00,7.00,-924.00
2024-05-17 16:06:09.605596,-1,-1,-1,0,0,1,57,60,127,80,83,191.82,18,-4.00,3.00,-1007.00
2024-05-17 16:06:09.706699,-1,-1,-1,0,0,0,57,60,126,80,82,191.76,19,-8.00,48.00,-997.00
2024-05-17 16:06:09.816917,0,-1,-1,0,0,0,58,61,125,70,82,191.78,19,0.00,7.00,-957.00
2024-05-17 16:06:09.911896,-1,-1,-1,0,0,0,58,61,124,70,82,191.74,19,-27.00,22.00,-1096.00
2024-05-17 16:06:10.014471,-1,-1,-1,0,0,0,58,61,124,70,82,191.77,19,8.00,0.00,-963.00
2024-05-17 16:06:10.114461,-1,-1,-1,0,0,0,58,61,124,70,82,191.80,19,-5.00,4.00,-1030.00
2024-05-17 16:06:10.216524,-1,-1,-1,0,0,0,58,61,124,70,82,191.74,19,13.00,16.00,-1074.00
2024-05-17 16:06:10.334430,0,-1,-1,0,0,0,58,61,124,70,82,191.76,19,-17.00,-6.00,-1043.00
2024-05-17 16:06:10.420921,0,0,-1,0,0,0,58,61,124,70,82,191.76,19,17.00,-13.00,-993.00
2024-05-17 16:06:10.533580,0,0,-1,0,0,0,58,61,124,70,82,191.71,19,4.00,26.00,-1082.00
2024-05-17 16:06:10.624542,0,0,-1,0,0,0,58,61,124,70,82,191.82,19,0.00,-13.00,-1045.00
2024-05-17 16:06:10.738641,0,0,-1,0,0,0,58,61,124,70,82,191.81,20,1.00,-9.00,-955.00
2024-05-17 16:06:10.828623,0,-1,-1,0,0,0,58,60,124,70,82,191.83,20,12.00,-12.00,-952.00
2024-05-17 16:06:10.943273,0,-1,-1,0,0,0,58,60,124,70,82,191.79,20,-11.00,21.00,-982.00
2024-05-17 16:06:11.032482,0,-1,-1,0,0,0,58,60,124,70,82,191.80,20,-7.00,26.00,-1018.00
2024-05-17 16:06:11.147965,0,-1,-1,0,0,0,58,60,124,70,82,191.84,20,13.00,8.00,-980.00
2024-05-17 16:06:11.239556,0,-1,-1,0,0,0,58,60,124,70,82,191.84,20,-10.00,-7.00,-1006.00
2024-05-17 16:06:11.338527,-1,-1,-1,0,0,0,58,60,125,70,82,191.83,20,-9.00,11.00,-1025.00
2024-05-17 16:06:11.440297,-1,-1,-1,0,0,0,58,60,125,70,82,191.78,20,18.00,-1.00,-969.00
2024-05-17 16:06:11.557584,0,-1,-1,0,0,0,58,60,126,70,82,191.79,20,-2.00,-6.00,-998.00
2024-05-17 16:06:11.644806,-4,0,-1,0,0,0,58,60,127,70,82,191.88,20,0.00,-3.00,-983.00
2024-05-17 16:06:11.695291,-8,0,-1,1,0,0,58,60,129,70,81,191.83,21,21.00,5.00,-972.00
2024-05-17 16:06:11.864770,-8,0,-1,3,0,0,58,61,131,70,81,191.84,21,-13.00,-5.00,-999.00
2024-05-17 16:06:11.899084,-8,0,-1,4,0,0,58,61,131,80,81,191.80,21,-33.00,1.00,-1001.00
2024-05-17 16:06:12.002280,-7,0,-1,5,0,0,58,61,132,80,81,191.75,21,-44.00,4.00,-1010.00
2024-05-17 16:06:12.103216,-7,0,-1,6,0,0,58,61,132,80,81,191.82,21,-28.00,11.00,-966.00
2024-05-17 16:06:12.205082,-6,0,-1,6,0,0,58,61,130,80,81,191.80,21,-69.00,48.00,-1049.00
2024-05-17 16:06:12.381835,-5,0,-1,7,0,0,58,61,130,80,81,191.75,21,-19.00,9.00,-1016.00
2024-05-17 16:06:12.409063,-4,-1,-1,7,0,0,58,61,131,80,81,191.79,21,-81.00,25.00,-1079.00
2024-05-17 16:06:12.581562,0,-1,-1,7,0,0,58,61,130,80,81,191.81,21,-58.00,37.00,-922.00
2024-05-17 16:06:12.613874,1,-2,-1,7,0,0,58,61,132,80,81,191.81,21,-40.00,9.00,-1008.00
2024-05-17 16:06:12.786877,3,-2,-1,6,0,0,58,61,131,80,81,191.73,22,-29.00,0.00,-1039.00
2024-05-17 16:06:12.817039,4,-2,-1,5,0,0,59,62,130,80,81,191.74,22,-31.00,9.00,-999.00
2024-05-17 16:06:12.991150,2,-2,-1,4,0,0,59,62,130,80,81,191.78,22,-28.00,19.00,-973.00
2024-05-17 16:06:13.021404,1,-1,-1,3,0,0,59,62,128,80,81,191.80,22,-39.00,13.00,-970.00
2024-05-17 16:06:13.195803,0,-1,-1,3,0,0,59,62,126,80,81,191.76,22,12.00,18.00,-1030.00
2024-05-17 16:06:13.225023,0,-1,-1,2,0,0,59,62,125,70,81,191.80,22,-34.00,-13.00,-1043.00
2024-05-17 16:06:13.400696,0,-1,-1,2,0,0,59,62,125,70,81,191.78,22,-16.00,20.00,-1005.00
2024-05-17 16:06:13.429140,0,-1,-1,2,0,0,59,62,125,70,81,191.83,22,-11.00,41.00,-1008.00
2024-05-17 16:06:13.605537,0,-1,-1,2,0,0,59,62,126,70,81,191.82,22,-35.00,16.00,-1006.00
2024-05-17 16:06:13.633025,0,-2,-1,2,0,0,59,62,126,70,81,191.82,22,-2.00,15.00,-1039.00
2024-05-17 16:06:13.810354,0,-1,-1,2,0,0,59,62,125,70,80,191.83,23,0.00,41.00,-1002.00
2024-05-17 16:06:13.836913,0,0,-1,2,0,0,58,61,125,70,80,191.83,23,-12.00,19.00,-987.00
2024-05-17 16:06:14.015156,0,0,-1,2,0,0,58,61,125,70,80,191.81,23,-10.00,37.00,-973.00
2024-05-17 16:06:14.040939,0,0,-1,1,0,0,58,61,126,70,80,191.89,23,-18.00,-6.00,-1058.00
2024-05-17 16:06:14.219880,1,-3,-1,1,0,0,58,61,127,70,80,191.90,23,-34.00,17.00,-983.00
2024-05-17 16:06:14.245058,2,-5,-1,0,0,0,58,61,128,70,80,191.86,23,-12.00,1.00,-1027.00
2024-05-17 16:06:14.424892,0,-4,-1,0,0,0,58,61,129,70,80,191.84,23,-29.00,49.00,-1054.00
2024-05-17 16:06:14.448951,0,-3,-1,0,-1,0,58,61,128,70,80,191.88,23,-7.00,27.00,-967.00
2024-05-17 16:06:14.629568,0,0,-1,0,-1,0,58,61,130,70,80,191.83,23,-4.00,28.00,-915.00
2024-05-17 16:06:14.655334,0,2,-1,0,0,0,58,61,129,70,80,191.95,23,8.00,34.00,-987.00
2024-05-17 16:06:14.755105,0,0,-1,0,0,0,58,61,130,80,80,191.84,24,17.00,24.00,-1001.00
2024-05-17 16:06:14.936806,0,0,-1,0,0,0,59,61,131,80,80,191.88,24,-4.00,4.00,-984.00
2024-05-17 16:06:14.959803,0,0,-1,0,0,0,59,61,131,80,80,191.96,24,-8.00,11.00,-965.00
2024-05-17 16:06:15.141632,0,0,-1,0,0,0,59,61,131,80,80,192.00,24,-3.00,11.00,-1025.00
2024-05-17 16:06:15.163009,-1,0,-1,0,0,0,59,61,132,80,80,191.85,24,11.00,21.00,-955.00
2024-05-17 16:06:15.346668,-1,0,-1,0,0,0,59,61,132,80,80,191.88,24,-27.00,30.00,-1002.00
2024-05-17 16:06:15.346872,-1,-1,-1,0,0,0,59,61,133,80,80,191.85,24,-17.00,37.00,-956.00
2024-05-17 16:06:15.418187,-2,-1,-1,0,0,0,59,61,133,80,80,191.88,24,-35.00,26.00,-1032.00
2024-05-17 16:06:15.551600,-2,-2,-1,0,0,0,59,61,133,80,80,191.88,24,-43.00,54.00,-974.00
2024-05-17 16:06:15.622583,-2,-2,-1,0,0,0,59,61,133,80,80,191.88,24,-6.00,18.00,-1021.00
2024-05-17 16:06:15.724216,-2,-2,-1,0,0,0,59,61,133,80,79,191.92,25,-46.00,13.00,-934.00
2024-05-17 16:06:15.858482,-2,-2,-1,0,0,0,60,62,132,80,79,191.85,25,-55.00,46.00,-985.00
2024-05-17 16:06:15.929758,-2,-1,-1,0,0,0,60,62,132,80,79,191.88,25,-34.00,20.00,-1057.00
2024-05-17 16:06:16.030747,-2,-1,-1,0,0,0,60,62,131,80,79,191.82,25,0.00,55.00,-935.00
2024-05-17 16:06:16.165606,-2,-1,-1,0,0,0,60,62,130,80,79,191.86,25,-3.00,2.00,-999.00
2024-05-17 16:06:16.234179,-2,-1,-1,0,0,0,60,62,130,80,79,191.81,25,6.00,6.00,-1026.00
2024-05-17 16:06:16.370680,-2,-1,-1,0,0,0,60,62,130,80,79,191.81,25,-28.00,-21.00,-1069.00
2024-05-17 16:06:16.438111,-1,-1,-1,0,0,0,60,62,130,80,79,191.83,25,-10.00,17.00,-1037.00
2024-05-17 16:06:16.540536,-1,-1,-1,0,0,0,60,62,129,80,79,191.85,25,-18.00,45.00,-995.00
2024-05-17 16:06:16.658903,-1,-1,-1,0,0,0,60,62,129,80,79,191.82,25,8.00,36.00,-968.00
2024-05-17 16:06:16.744514,-1,-1,-1,0,0,0,60,62,129,80,79,191.77,26,26.00,-5.00,-997.00
2024-05-17 16:06:16.882289,5,0,-1,0,0,0,59,62,129,80,79,191.79,26,30.00,-9.00,-974.00
2024-05-17 16:06:16.947849,8,-1,-1,-1,0,0,59,62,131,80,79,191.85,26,-28.00,25.00,-1047.00
2024-05-17 16:06:17.088170,8,-1,-1,-2,0,0,59,62,131,80,79,191.84,26,4.00,18.00,-1041.00
2024-05-17 16:06:17.151906,8,-2,-1,-4,0,0,59,62,130,80,79,191.95,26,17.00,-6.00,-1062.00
2024-05-17 16:06:17.291848,7,-1,-1,-5,0,0,59,62,131,80,79,191.91,26,0.00,23.00,-1027.00
2024-05-17 16:06:17.356000,6,-1,-1,-6,0,0,59,62,130,80,79,191.83,26,56.00,7.00,-983.00
2024-05-17 16:06:17.496701,5,-1,-1,-7,0,0,59,62,129,80,79,191.85,26,26.00,-4.00,-989.00
2024-05-17 16:06:17.559891,4,-1,-1,-7,0,0,59,62,128,80,79,191.85,26,70.00,-9.00,-1010.00
2024-05-17 16:06:17.705237,2,0,-1,-8,0,0,59,62,128,80,79,191.83,27,52.00,16.00,-1039.00
2024-05-17 16:06:17.763916,0,0,-1,-8,0,0,59,62,127,80,78,191.73,27,34.00,-16.00,-1046.00
2024-05-17 16:06:17.906261,-3,0,-1,-7,0,0,60,62,127,80,78,191.86,27,66.00,-14.00,-1010.00
2024-05-17 16:06:17.967651,-5,0,-1,-6,0,0,60,62,126,80,78,191.77,27,44.00,-21.00,-1058.00
2024-05-17 16:06:18.069963,-4,0,-1,-5,0,0,60,62,125,80,78,191.75,27,72.00,-3.00,-968.00
2024-05-17 16:06:18.171688,-3,0,-1,-4,0,0,60,62,125,70,78,191.77,27,28.00,25.00,-934.00
2024-05-17 16:06:18.315747,-1,0,-1,-3,0,0,60,62,125,70,78,191.81,27,19.00,-21.00,-1046.00
2024-05-17 16:06:18.375854,-1,0,-1,-3,0,0,60,62,125,70,78,191.81,27,44.00,-3.00,-1038.00
2024-05-17 16:06:18.520702,0,0,-1,-3,0,0,60,62,124,70,78,191.79,27,20.00,24.00,-958.00
2024-05-17 16:06:18.580542,0,0,-1,-3,0,0,60,62,124,70,78,191.74,27,-2.00,7.00,-1012.00
2024-05-17 16:06:18.725516,-2,0,-1,-2,0,0,60,62,125,70,78,191.79,28,23.00,-15.00,-1092.00
2024-05-17 16:06:18.784774,-5,0,-1,-2,0,0,60,62,124,70,78,191.84,28,23.00,0.00,-970.00
2024-05-17 16:06:18.932774,-4,0,-1,-1,0,0,59,62,125,70,78,191.82,28,2.00,15.00,-1021.00
2024-05-17 16:06:18.939133,-2,0,-1,0,0,0,59,62,127,70,78,191.84,28,17.00,40.00,-992.00
2024-05-17 16:06:19.135507,-1,0,-1,0,0,0,59,62,128,70,78,191.82,28,-9.00,12.00,-990.00
2024-05-17 16:06:19.143533,-1,0,-1,0,0,0,59,62,128,80,78,191.85,28,3.00,33.00,-992.00
2024-05-17 16:06:19.339835,-1,0,-1,0,0,0,59,62,129,80,78,191.87,28,-22.00,-20.00,-1056.00
2024-05-17 16:06:19.346074,-1,0,-1,0,0,0,59,62,129,80,78,191.85,28,10.00,-12.00,-973.00
2024-05-17 16:06:19.544719,-1,-1,-1,0,0,0,59,62,128,80,78,191.87,28,18.00,23.00,-967.00
2024-05-17 16:06:19.550330,-1,-1,-1,0,0,0,59,62,129,80,78,191.83,28,-8.00,17.00,-1037.00
2024-05-17 16:06:19.751841,-1,-1,-1,0,0,0,59,62,130,80,78,191.90,29,1.00,-22.00,-1027.00
2024-05-17 16:06:19.754327,-1,-1,-1,0,0,0,59,62,131,80,77,191.86,29,31.00,-8.00,-1006.00
2024-05-17 16:06:19.945069,-1,-1,-1,0,0,0,60,62,132,80,77,191.85,29,7.00,4.00,-956.00
2024-05-17 16:06:19.957877,-1,-1,-1,0,0,0,60,62,132,80,77,191.83,29,-29.00,10.00,-959.00
2024-05-17 16:06:20.059646,-1,-1,-1,0,0,0,60,62,132,80,77,191.87,29,-10.00,-1.00,-1006.00
2024-05-17 16:06:20.162884,-1,-1,-1,0,0,0,60,62,133,80,77,191.87,29,-25.00,1.00,-1062.00
2024-05-17 16:06:20.263877,-1,-1,-1,0,0,0,60,62,133,80,77,191.96,29,6.00,12.00,-926.00
2024-05-17 16:06:20.365657,-1,0,-1,0,0,0,60,62,134,80,77,191.94,29,-1.00,10.00,-980.00
2024-05-17 16:06:20.671583,-1,-1,-1,0,0,0,60,62,134,80,77,191.92,29,-13.00,7.00,-1023.00
2024-05-17 16:06:20.671777,-1,-1,-1,0,0,0,60,62,133,80,77,191.90,29,-38.00,-1.00,-965.00
2024-05-17 16:06:20.672081,-1,0,-1,0,0,0,60,62,134,80,77,191.94,30,5.00,-7.00,-965.00
2024-05-17 16:06:20.811120,-1,0,-1,0,0,0,60,62,133,80,77,191.84,30,-11.00,24.00,-1011.00
2024-05-17 16:06:20.948843,-1,0,-1,0,0,0,60,62,131,80,77,191.87,30,-31.00,20.00,-952.00
2024-05-17 16:06:20.977895,-1,0,-1,0,0,0,60,62,128,80,77,191.81,30,-15.00,0.00,-1049.00
2024-05-17 16:06:21.117628,-1,0,-1,0,0,0,60,62,127,80,77,191.82,30,0.00,-3.00,-972.00
2024-05-17 16:06:21.241718,0,-6,-1,0,0,1,60,62,124,80,77,191.76,30,-29.00,3.00,-998.00
2024-05-17 16:06:21.286113,0,-8,-1,0,-1,1,60,62,124,70,77,191.73,30,21.00,4.00,-933.00
2024-05-17 16:06:21.390120,0,-6,-1,0,-2,1,60,62,119,70,77,191.83,30,21.00,6.00,-1091.00
2024-05-17 16:06:21.536522,0,-4,-1,0,-3,1,60,62,119,70,77,191.69,30,-41.00,32.00,-1142.00
2024-05-17 16:06:21.589952,0,-1,-1,0,-3,0,60,62,117,70,77,191.68,30,-22.00,37.00,-1033.00
2024-05-17 16:06:21.709357,0,0,-1,0,-3,0,60,62,117,70,77,191.70,31,17.00,17.00,-995.00
2024-05-17 16:06:21.841837,0,0,-1,0,-3,0,60,62,117,70,77,191.68,31,9.00,0.00,-1000.00
2024-05-17 16:06:21.895738,0,0,-1,0,-2,0,60,63,117,70,77,191.72,31,-33.00,-8.00,-1045.00
2024-05-17 16:06:22.019826,0,0,-1,0,-2,0,60,63,118,70,77,191.75,31,0.00,38.00,-968.00
2024-05-17 16:06:22.100578,0,-1,-1,0,-2,0,60,63,118,70,77,191.73,31,3.00,17.00,-1002.00
2024-05-17 16:06:22.207343,0,-1,-1,0,-2,0,60,63,119,70,77,191.76,31,-12.00,7.00,-1053.00
2024-05-17 16:06:22.320315,0,-1,-1,0,-2,0,60,63,119,70,77,191.75,31,-4.00,18.00,-1059.00
2024-05-17 16:06:22.416028,0,-1,-1,0,-2,0,60,63,121,70,77,191.83,31,-6.00,21.00,-947.00
2024-05-17 16:06:22.509799,0,-1,-1,0,-2,0,60,63,121,70,77,191.78,31,2.00,-8.00,-1005.00
2024-05-17 16:06:22.627472,0,-1,-1,0,-2,0,60,63,122,70,77,191.82,31,-5.00,33.00,-976.00
2024-05-17 16:06:22.771051,0,-1,-1,0,-2,0,60,63,123,70,77,191.75,32,-2.00,40.00,-1019.00
2024-05-17 16:06:22.771234,0,-1,-1,0,-2,0,60,63,123,70,77,191.82,32,-9.00,21.00,-992.00
2024-05-17 16:06:22.935184,0,-1,-1,0,-2,0,61,63,123,70,77,191.83,32,11.00,18.00,-988.00
2024-05-17 16:06:23.078595,0,-1,-1,0,-2,0,61,63,124,70,77,191.79,32,-21.00,34.00,-957.00
2024-05-17 16:06:23.121625,0,-1,-1,0,-2,0,61,63,124,70,77,191.81,32,-6.00,-3.00,-1000.00
2024-05-17 16:06:23.241853,0,1,-1,0,-2,0,61,63,125,70,77,191.79,32,21.00,15.00,-1025.00
2024-05-17 16:06:23.309063,0,3,-1,0,-1,0,61,63,126,70,77,191.80,32,-7.00,31.00,-935.00
2024-05-17 16:06:23.376984,0,1,-1,0,0,0,61,63,126,70,77,191.85,32,-4.00,-17.00,-1054.00
2024-05-17 16:06:23.478024,0,0,-1,0,0,0,61,63,126,70,77,191.83,32,20.00,-6.00,-1067.00
2024-05-17 16:06:23.640848,0,0,-1,0,0,0,61,63,127,70,77,191.81,32,5.00,16.00,-1008.00
2024-05-17 16:06:23.681795,0,0,-1,0,0,0,61,63,128,70,77,191.81,33,-21.00,-3.00,-1012.00
2024-05-17 16:06:23.845499,0,0,-1,0,0,0,61,63,129,80,77,191.82,33,32.00,33.00,-924.00
2024-05-17 16:06:23.885548,0,0,-1,0,0,0,60,62,129,80,77,191.88,33,-5.00,14.00,-1015.00
2024-05-17 16:06:24.050394,0,0,-1,0,0,0,60,62,130,80,77,191.84,33,-1.00,22.00,-996.00
2024-05-17 16:06:24.089752,0,0,-1,0,0,0,60,62,131,80,77,191.80,33,19.00,13.00,-1031.00
2024-05-17 16:06:24.255450,0,0,-1,0,0,0,60,62,131,80,77,191.89,33,-21.00,20.00,-991.00
2024-05-17 16:06:24.293577,0,0,-1,0,0,0,60,62,131,80,77,191.94,33,-13.00,15.00,-980.00
2024-05-17 16:06:24.459946,0,-1,-1,0,0,0,60,62,131,80,77,191.86,33,7.00,-7.00,-1044.00
2024-05-17 16:06:24.497504,0,-1,-1,0,0,0,60,62,131,80,77,191.87,33,13.00,2.00,-912.00
2024-05-17 16:06:24.664910,0,-1,-1,0,0,0,60,62,132,80,77,191.84,33,3.00,9.00,-1020.00
2024-05-17 16:06:24.701447,0,-1,-1,0,0,0,60,62,131,80,76,191.90,34,3.00,6.00,-981.00
2024-05-17 16:06:24.869503,0,0,-1,0,0,0,60,62,132,80,76,191.90,34,-12.00,13.00,-978.00
2024-05-17 16:06:24.905373,0,0,-1,0,0,0,60,62,132,80,76,191.88,34,-11.00,5.00,-988.00
2024-05-17 16:06:25.074691,0,-1,-1,0,0,0,60,62,132,80,76,191.84,34,14.00,2.00,-1035.00
2024-05-17 16:06:25.110128,0,-1,-1,0,0,0,60,62,133,80,76,191.83,34,-9.00,3.00,-1096.00
2024-05-17 16:06:25.211354,0,-1,-1,0,0,0,60,62,133,80,76,191.93,34,-17.00,10.00,-1006.00
2024-05-17 16:06:25.327917,0,-1,-1,0,0,0,60,62,133,80,76,191.89,34,5.00,18.00,-976.00
2024-05-17 16:06:25.415357,0,-1,-1,0,0,0,60,62,134,80,76,191.88,34,-29.00,13.00,-1060.00
2024-05-17 16:06:25.586239,0,0,-1,0,0,0,60,62,134,80,76,191.87,34,-24.00,-14.00,-1032.00
2024-05-17 16:06:25.619474,0,7,-1,0,0,0,60,62,136,80,76,191.89,34,-5.00,6.00,-933.00
2024-05-17 16:06:25.791044,0,7,-1,0,1,0,60,62,136,80,76,191.96,35,-18.00,7.00,-1005.00
2024-05-17 16:06:25.823325,0,4,-1,0,3,0,60,62,133,80,76,191.86,35,-12.00,-19.00,-985.00
2024-05-17 16:06:25.995748,0,2,-1,0,3,0,61,63,133,80,76,191.88,35,16.00,-15.00,-977.00
2024-05-17 16:06:26.028086,0,0,-1,0,4,0,61,63,132,80,76,191.81,35,-22.00,-11.00,-1025.00
2024-05-17 16:06:26.200674,0,-1,-1,0,3,0,61,63,132,80,76,191.78,35,-2.00,-7.00,-996.00
2024-05-17 16:06:26.234135,0,-1,-1,0,3,0,61,63,131,80,76,191.84,35,-33.00,11.00,-970.00
2024-05-17 16:06:26.333301,0,-1,-1,0,3,0,61,63,131,80,76,191.83,35,-9.00,-20.00,-1009.00
2024-05-17 16:06:26.511919,0,0,-1,0,2,0,61,63,131,80,76,191.86,35,-8.00,-23.00,-992.00
2024-05-17 16:06:26.537256,0,0,-1,0,2,0,61,63,131,80,76,191.86,35,-33.00,2.00,-987.00
2024-05-17 16:06:26.639237,-2,0,-1,0,2,0,61,63,132,80,76,191.88,35,-12.00,-7.00,-1049.00
2024-05-17 16:06:26.815104,-3,0,-1,0,2,0,61,63,131,80,76,191.88,36,0.00,-4.00,-978.00
2024-05-17 16:06:26.815157,-4,-1,-1,0,2,0,61,63,131,80,76,191.86,36,-8.00,-16.00,-1039.00
2024-05-17 16:06:26.945358,-3,-1,-1,0,2,0,61,63,132,80,76,191.83,36,-20.00,-18.00,-929.00
2024-05-17 16:06:27.122307,-3,-1,-1,1,1,0,61,63,131,80,76,191.86,36,-47.00,15.00,-1042.00
2024-05-17 16:06:27.122344,-3,-2,-1,1,1,0,61,63,132,80,76,191.79,36,22.00,-46.00,-1000.00
2024-05-17 16:06:27.209173,1,-4,-1,1,1,0,61,63,132,80,76,191.84,36,-63.00,12.00,-1016.00
2024-05-17 16:06:27.303631,2,-2,-1,0,0,0,61,63,132,80,76,191.83,36,-7.00,12.00,-1047.00
2024-05-17 16:06:27.404296,0,-1,-1,0,0,0,61,63,130,80,76,191.82,36,-16.00,-7.00,-1002.00
2024-05-17 16:06:27.537309,0,-1,-1,0,0,0,61,63,130,80,76,191.82,36,16.00,9.00,-897.00
2024-05-17 16:06:27.608510,0,-1,-1,0,0,0,61,63,129,80,76,191.86,36,-8.00,17.00,-995.00
2024-05-17 16:06:27.736693,0,-1,-1,0,0,0,61,63,129,80,76,191.85,37,-24.00,9.00,-1042.00
2024-05-17 16:06:27.812409,0,-1,-1,0,0,0,61,63,129,80,76,191.81,37,-8.00,3.00,-899.00
2024-05-17 16:06:27.941726,0,-1,-1,0,0,0,61,63,128,80,76,191.87,37,-6.00,7.00,-996.00
2024-05-17 16:06:28.018292,0,-1,-1,0,0,0,61,63,129,70,76,191.81,37,-39.00,17.00,-1042.00
2024-05-17 16:06:28.118485,0,-1,-1,0,0,0,61,63,129,70,76,191.87,37,9.00,7.00,-1021.00
2024-05-17 16:06:28.249676,0,-1,-1,0,0,0,61,63,129,70,76,191.87,37,-18.00,26.00,-1016.00
2024-05-17 16:06:28.328793,0,-1,-1,0,0,0,61,63,129,70,76,191.78,37,-8.00,3.00,-960.00
2024-05-17 16:06:28.424288,-1,0,-1,0,0,0,61,63,129,80,76,191.79,37,-30.00,-5.00,-1068.00
2024-05-17 16:06:28.555825,-1,0,-1,0,0,0,61,63,130,80,76,191.82,37,1.00,23.00,-982.00
2024-05-17 16:06:28.628620,-1,0,-1,0,0,0,61,63,129,80,76,191.81,37,18.00,-24.00,-993.00
2024-05-17 16:06:28.760643,-1,0,-1,0,0,0,61,63,129,80,76,191.94,38,-17.00,-3.00,-1033.00
2024-05-17 16:06:28.837524,-1,0,-1,0,0,0,61,63,129,80,76,191.78,38,-22.00,10.00,-970.00
2024-05-17 16:06:28.934949,-1,0,-1,0,0,0,60,63,129,80,76,191.89,38,-49.00,0.00,-1005.00
2024-05-17 16:06:29.036159,-1,0,-1,0,0,0,60,63,129,80,76,191.81,38,-10.00,13.00,-957.00
2024-05-17 16:06:29.138269,-1,-1,-1,0,0,0,60,63,128,80,76,191.84,38,-10.00,4.00,-953.00
2024-05-17 16:06:29.241123,-1,0,-1,0,0,0,60,63,128,80,76,191.78,38,6.00,23.00,-960.00
2024-05-17 16:06:29.342294,-1,0,-1,0,0,0,60,63,129,70,76,191.83,38,-23.00,-3.00,-1084.00
2024-05-17 16:06:29.444131,0,0,-1,0,0,0,60,63,129,70,76,191.84,38,4.00,-13.00,-1022.00
2024-05-17 16:06:29.579739,-1,0,0,0,0,0,60,63,129,70,76,191.80,38,17.00,7.00,-932.00
2024-05-17 16:06:29.648049,-1,0,6,0,0,0,60,63,129,80,76,191.72,38,38.00,-20.00,-994.00
2024-05-17 16:06:29.750138,0,0,12,0,0,0,60,63,129,80,76,191.83,39,-10.00,-7.00,-1040.00
2024-05-17 16:06:29.853799,0,0,18,0,0,0,60,63,129,80,76,191.88,39,-7.00,10.00,-953.00
2024-05-17 16:06:29.954102,0,-1,24,0,0,0,61,64,129,80,76,191.74,39,3.00,18.00,-989.00
2024-05-17 16:06:30.056076,0,-1,30,0,0,0,61,64,129,80,76,191.72,39,-18.00,36.00,-1003.00
2024-05-17 16:06:30.194188,0,-1,36,0,0,0,61,64,129,80,76,191.83,39,4.00,6.00,-962.00
2024-05-17 16:06:30.260042,0,-1,42,0,0,0,61,64,129,80,76,191.79,39,4.00,-19.00,-946.00
2024-05-17 16:06:30.399761,0,-1,48,0,0,0,61,64,129,80,76,191.81,39,0.00,-9.00,-989.00
2024-05-17 16:06:30.465261,0,-1,54,0,0,0,61,64,129,80,76,191.77,39,-16.00,1.00,-1076.00
2024-05-17 16:06:30.603701,0,-1,60,0,0,0,61,64,129,80,76,191.78,39,9.00,37.00,-1014.00
2024-05-17 16:06:30.667894,0,-1,66,0,0,0,61,64,129,80,76,191.80,39,3.00,22.00,-1004.00
2024-05-17 16:06:30.719773,0,-1,71,0,0,0,61,64,129,80,76,191.79,40,-32.00,-26.00,-1085.00
2024-05-17 16:06:30.911448,0,0,77,0,0,0,61,64,129,80,76,191.82,40,-14.00,0.00,-975.00
2024-05-17 16:06:30.974208,0,0,89,0,0,0,62,64,129,80,76,191.77,40,-12.00,-24.00,-1068.00
2024-05-17 16:06:31.075909,0,0,94,0,0,0,62,64,129,80,76,191.76,40,-13.00,28.00,-979.00
2024-05-17 16:06:31.218170,0,0,100,0,0,0,62,64,129,80,76,191.79,40,-37.00,17.00,-1071.00
2024-05-17 16:06:31.282742,0,0,106,0,0,0,62,64,129,80,76,191.76,40,8.00,8.00,-931.00
2024-05-17 16:06:31.382309,0,0,112,0,0,0,62,64,129,80,76,191.79,40,-2.00,-2.00,-1084.00
2024-05-17 16:06:31.433015,0,0,118,0,0,0,62,64,129,80,76,191.82,40,12.00,9.00,-1023.00
2024-05-17 16:06:31.627644,0,0,124,0,0,0,62,64,129,80,76,191.84,40,2.00,0.00,-1054.00
2024-05-17 16:06:31.636900,0,0,130,0,0,0,62,64,129,80,76,191.90,41,19.00,-29.00,-996.00
2024-05-17 16:06:31.832665,0,0,136,0,0,0,62,64,130,80,75,191.80,41,20.00,10.00,-936.00
2024-05-17 16:06:31.845868,0,0,142,0,0,0,62,64,130,80,75,191.84,41,-26.00,-14.00,-1045.00
2024-05-17 16:06:31.943393,0,0,148,0,0,0,62,64,130,80,75,191.86,41,27.00,0.00,-976.00
2024-05-17 16:06:32.046224,0,0,155,0,0,0,62,64,130,80,75,191.91,41,-24.00,0.00,-980.00
2024-05-17 16:06:32.242159,0,0,161,0,0,0,62,64,130,80,75,191.84,41,29.00,-18.00,-1030.00
2024-05-17 16:06:32.249138,0,0,167,0,0,0,62,64,129,80,75,191.88,41,-3.00,-8.00,-1035.00
2024-05-17 16:06:32.447513,0,0,173,0,0,0,62,64,130,80,75,191.86,41,-18.00,-6.00,-1060.00
2024-05-17 16:06:32.453057,0,1,-179,0,0,0,62,64,129,80,75,191.82,41,10.00,-48.00,-966.00
2024-05-17 16:06:32.657232,0,1,-173,0,0,0,62,64,129,80,75,191.81,41,-23.00,-2.00,-1054.00
2024-05-17 16:06:32.664058,0,1,-167,0,0,0,62,64,129,80,75,191.81,42,0.00,-22.00,-957.00
2024-05-17 16:06:32.758946,0,1,-160,0,0,0,62,64,129,80,75,191.77,42,16.00,-29.00,-1018.00
2024-05-17 16:06:32.958941,0,1,-154,0,0,0,62,64,128,80,75,191.85,42,-15.00,-1.00,-964.00
2024-05-17 16:06:32.962895,0,0,-148,0,0,0,62,65,128,80,75,191.81,42,-14.00,5.00,-1037.00
2024-05-17 16:06:33.065155,0,0,-142,0,0,0,62,65,128,70,75,191.81,42,0.00,-22.00,-994.00
2024-05-17 16:06:33.166920,0,1,-136,0,0,0,62,65,128,70,75,191.79,42,-23.00,26.00,-1006.00
2024-05-17 16:06:33.272682,0,0,-130,0,0,0,62,65,128,70,75,191.81,42,-23.00,0.00,-962.00
2024-05-17 16:06:33.370883,0,0,-124,0,0,0,62,65,128,70,75,191.88,42,-29.00,6.00,-1028.00
2024-05-17 16:06:33.472838,0,0,-118,0,0,0,62,65,129,70,75,191.72,42,-36.00,13.00,-1029.00
2024-05-17 16:06:33.675648,0,0,-112,0,0,0,62,65,129,70,75,191.78,42,-2.00,-44.00,-1032.00
2024-05-17 16:06:33.676859,-1,0,-106,0,0,0,62,65,129,70,75,191.76,43,-31.00,-13.00,-999.00
2024-05-17 16:06:33.880577,-1,0,-100,0,0,0,62,65,130,80,75,191.79,43,-3.00,1.00,-1002.00
2024-05-17 16:06:33.880853,-1,1,-94,0,0,0,62,65,130,80,75,191.80,43,-44.00,15.00,-966.00
2024-05-17 16:06:33.983263,-1,1,-88,0,0,0,62,64,131,80,75,191.83,43,4.00,0.00,-972.00
2024-05-17 16:06:34.087142,-1,0,-82,0,0,0,62,64,132,80,75,191.77,43,9.00,-10.00,-1031.00
2024-05-17 16:06:34.187972,-1,0,-76,0,0,0,62,64,133,80,75,191.80,43,-15.00,3.00,-1006.00
2024-05-17 16:06:34.290383,-1,0,-70,0,0,0,62,64,133,80,75,191.83,43,-14.00,-16.00,-1019.00
2024-05-17 16:06:34.392823,-1,0,-64,0,0,0,62,64,134,80,75,191.83,43,-32.00,-29.00,-1036.00
2024-05-17 16:06:34.492832,-1,0,-58,0,0,0,62,64,134,80,75,191.83,43,-18.00,-11.00,-1005.00
2024-05-17 16:06:34.597347,-1,0,-52,0,0,0,62,64,135,80,75,191.88,43,1.00,-11.00,-1019.00
2024-05-17 16:06:34.697194,-1,0,-45,0,0,0,62,64,135,80,75,191.87,44,-47.00,29.00,-970.00
2024-05-17 16:06:34.802142,-1,0,-39,0,0,0,62,64,136,80,75,191.91,44,-14.00,-7.00,-967.00
2024-05-17 16:06:34.900688,-1,0,-33,0,0,0,62,64,136,80,75,191.91,44,-24.00,-25.00,-1052.00
2024-05-17 16:06:35.006891,-1,0,-27,0,0,0,63,65,137,80,75,191.85,44,-35.00,18.00,-947.00
2024-05-17 16:06:35.105345,-1,0,-21,0,0,0,63,65,137,80,75,191.87,44,-10.00,11.00,-955.00
2024-05-17 16:06:35.211910,-1,0,-16,0,0,0,63,65,136,80,75,191.85,44,-13.00,34.00,-942.00
2024-05-17 16:06:35.257977,-1,0,-12,0,0,0,63,65,135,80,75,191.87,44,-14.00,20.00,-989.00
2024-05-17 16:06:35.417271,-1,0,-9,0,0,0,63,65,135,80,75,191.86,44,-13.00,-17.00,-1003.00
2024-05-17 16:06:35.461917,-1,-1,-7,0,0,0,63,65,135,80,75,191.88,44,-8.00,14.00,-1007.00
2024-05-17 16:06:35.621248,0,-1,-6,0,0,0,63,65,134,80,75,191.85,44,5.00,-1.00,-965.00
2024-05-17 16:06:35.666323,0,0,-4,0,0,0,63,65,134,80,75,191.91,45,-12.00,12.00,-984.00
2024-05-17 16:06:35.826479,0,0,-4,0,0,0,63,65,133,80,75,191.90,45,-5.00,5.00,-1070.00
2024-05-17 16:06:35.869767,0,-1,-3,0,0,0,63,65,133,80,75,191.84,45,-14.00,12.00,-1036.00
2024-05-17 16:06:35.971873,0,-1,-3,0,0,0,63,65,133,80,75,191.89,45,-25.00,31.00,-1015.00
2024-05-17 16:06:36.073721,0,0,-3,0,0,0,63,65,133,80,75,191.89,45,-22.00,13.00,-980.00
2024-05-17 16:06:36.236162,0,-1,-3,0,0,0,63,65,133,80,75,191.82,45,-3.00,12.00,-1007.00
2024-05-17 16:06:36.278007,0,-1,-3,0,0,0,63,65,133,80,75,191.88,45,12.00,25.00,-1039.00
2024-05-17 16:06:36.445381,0,-1,-3,0,0,0,63,65,133,80,75,191.85,45,-9.00,14.00,-1027.00
2024-05-17 16:06:36.482069,0,-1,-3,0,0,0,63,65,133,80,75,191.91,45,-20.00,33.00,-997.00
2024-05-17 16:06:36.645612,0,-1,-3,0,0,0,63,65,133,80,75,191.96,45,-29.00,30.00,-1003.00
2024-05-17 16:06:36.693575,0,-1,-3,0,0,0,63,65,132,80,75,191.83,46,3.00,2.00,-979.00
2024-05-17 16:06:36.787970,0,-1,-3,0,0,0,63,65,133,80,75,191.82,46,13.00,-5.00,-984.00
2024-05-17 16:06:36.952614,0,-1,-3,0,0,0,63,65,132,80,75,191.82,46,12.00,19.00,-1010.00
2024-05-17 16:06:36.992691,0,-1,-3,0,0,0,62,65,132,80,75,191.90,46,-16.00,18.00,-1079.00
2024-05-17 16:06:37.157517,0,-1,-3,0,0,0,62,65,131,80,75,191.91,46,-17.00,1.00,-1071.00
2024-05-17 16:06:37.195749,0,-1,-3,0,0,0,62,65,131,80,75,191.86,46,8.00,1.00,-1009.00
2024-05-17 16:06:37.364939,0,-1,-3,0,0,0,62,65,131,80,75,191.90,46,-20.00,15.00,-999.00
2024-05-17 16:06:37.399818,0,-1,-3,0,0,0,62,65,130,80,75,191.90,46,-25.00,34.00,-1019.00
2024-05-17 16:06:37.567002,0,0,-3,0,0,0,62,65,129,80,75,191.85,46,17.00,22.00,-992.00
2024-05-17 16:06:37.603771,0,-1,-3,0,0,0,62,65,129,80,75,191.86,46,3.00,35.00,-1017.00
2024-05-17 16:06:37.771724,0,-1,-3,0,0,0,62,65,129,80,75,191.83,47,5.00,0.00,-1012.00
2024-05-17 16:06:37.812629,0,-1,-3,0,0,0,62,65,128,80,75,191.76,47,-34.00,22.00,-1001.00
2024-05-17 16:06:37.912970,0,-1,-3,0,0,0,62,65,128,80,75,191.84,47,-14.00,-4.00,-1016.00
2024-05-17 16:06:38.012181,0,-1,-2,0,0,0,62,65,128,80,75,191.87,47,-8.00,3.00,-973.00
2024-05-17 16:06:38.184180,0,0,-4,0,0,0,62,65,128,80,75,191.75,47,-51.00,56.00,-994.00
2024-05-17 16:06:38.215787,0,0,-9,0,0,0,62,65,129,70,75,191.79,47,-8.00,4.00,-1025.00
2024-05-17 16:06:38.386113,-1,0,-15,0,0,0,62,65,129,70,75,191.83,47,-1.00,16.00,-1014.00
2024-05-17 16:06:38.419682,-1,0,-21,0,0,0,62,65,130,80,75,191.88,47,-6.00,26.00,-996.00
2024-05-17 16:06:38.522053,-1,0,-27,0,0,0,62,65,130,80,75,191.82,47,-10.00,14.00,-939.00
2024-05-17 16:06:38.693634,-1,0,-33,0,0,0,62,65,131,80,75,191.87,47,-14.00,25.00,-935.00
2024-05-17 16:06:38.725801,0,0,-39,0,0,0,62,65,130,80,75,191.83,48,-21.00,17.00,-1004.00
2024-05-17 16:06:38.776472,0,0,-45,0,0,0,62,65,130,80,75,191.88,48,-11.00,4.00,-1037.00
2024-05-17 16:06:38.898093,0,0,-51,0,0,0,62,65,130,80,75,191.83,48,-28.00,24.00,-995.00
2024-05-17 16:06:38.980637,0,0,-57,0,0,0,62,65,129,80,75,191.84,48,-8.00,6.00,-977.00
2024-05-17 16:06:39.102842,-1,0,-63,0,0,0,62,65,130,80,75,191.85,48,-4.00,-9.00,-991.00
2024-05-17 16:06:39.186158,-1,0,-69,0,0,0,62,65,130,80,75,191.86,48,-9.00,11.00,-961.00
2024-05-17 16:06:39.286581,-1,0,-75,0,0,0,62,65,130,80,75,191.76,48,0.00,29.00,-975.00
2024-05-17 16:06:39.410138,0,0,-81,0,0,0,62,65,129,80,75,191.82,48,-2.00,14.00,-1038.00
2024-05-17 16:06:39.492636,0,0,-87,0,0,0,62,65,130,80,75,191.79,48,-13.00,19.00,-968.00
2024-05-17 16:06:39.593073,0,0,-93,0,0,0,62,65,130,80,75,191.87,48,-17.00,9.00,-1017.00
2024-05-17 16:06:39.694529,-1,0,-99,0,0,0,62,65,131,80,75,191.84,49,-36.00,18.00,-967.00
2024-05-17 16:06:39.819797,-1,1,-106,0,0,0,62,65,131,80,75,191.86,49,-58.00,30.00,-998.00
2024-05-17 16:06:39.898704,0,1,-112,0,0,0,62,65,131,80,75,191.90,49,-28.00,11.00,-999.00
2024-05-17 16:06:40.024662,0,1,-118,0,0,0,62,65,131,80,75,191.85,49,-19.00,-8.00,-1057.00
2024-05-17 16:06:40.110014,0,1,-124,0,0,0,62,65,132,80,75,191.86,49,-17.00,5.00,-942.00
2024-05-17 16:06:40.205836,0,1,-131,0,0,0,62,65,131,80,75,191.81,49,-8.00,-6.00,-946.00
2024-05-17 16:06:40.331865,0,1,-137,0,0,0,62,65,131,80,75,191.91,49,-9.00,9.00,-986.00
2024-05-17 16:06:40.409473,0,1,-143,0,0,0,62,65,131,80,75,191.93,49,-8.00,15.00,-948.00
2024-05-17 16:06:40.537307,0,1,-149,0,0,0,62,65,131,80,75,191.92,49,-41.00,25.00,-990.00
2024-05-17 16:06:40.613519,0,1,-155,0,0,0,62,65,131,80,75,191.89,49,0.00,-6.00,-1034.00
2024-05-17 16:06:40.715524,0,1,-161,0,0,0,62,65,131,80,74,191.84,50,-1.00,-9.00,-1027.00
2024-05-17 16:06:40.848792,0,1,-167,0,0,0,62,65,131,80,74,191.90,50,-7.00,24.00,-1023.00
2024-05-17 16:06:40.921723,0,1,-173,0,0,0,62,65,131,80,74,191.91,50,-22.00,1.00,-1009.00
2024-05-17 16:06:41.021689,0,1,-179,0,0,0,62,65,131,80,74,191.92,50,-19.00,-6.00,-980.00
2024-05-17 16:06:41.151191,0,1,173,0,0,0,62,65,130,80,74,191.84,50,-33.00,3.00,-977.00
2024-05-17 16:06:41.226397,0,0,167,0,0,0,62,65,131,80,74,191.87,50,-20.00,21.00,-988.00
2024-05-17 16:06:41.356093,0,0,161,0,0,0,62,65,131,80,74,191.88,50,-6.00,16.00,-1020.00
2024-05-17 16:06:41.429473,0,0,155,0,0,0,62,65,131,80,74,191.93,50,14.00,-40.00,-1055.00
2024-05-17 16:06:41.560412,0,0,149,0,0,0,62,65,131,80,74,191.82,50,-6.00,0.00,-973.00
2024-05-17 16:06:41.635016,0,1,143,0,0,0,62,65,132,80,74,191.88,50,6.00,-13.00,-961.00
2024-05-17 16:06:41.736312,0,1,137,0,0,0,62,65,132,80,74,191.84,51,1.00,-17.00,-1090.00
2024-05-17 16:06:41.837595,0,1,131,0,0,0,62,65,132,80,74,191.83,51,-17.00,29.00,-1007.00
2024-05-17 16:06:41.970216,0,1,125,0,0,0,62,65,132,80,74,191.81,51,3.00,26.00,-901.00
2024-05-17 16:06:42.042403,0,1,119,0,0,0,63,66,132,80,74,191.88,51,22.00,-24.00,-1010.00
2024-05-17 16:06:42.174855,0,0,113,0,0,0,63,66,132,80,74,191.78,51,-6.00,26.00,-966.00
2024-05-17 16:06:42.245599,0,0,107,0,0,0,63,66,131,80,74,191.86,51,38.00,-61.00,-1000.00
2024-05-17 16:06:42.384522,0,0,101,0,0,0,63,66,131,80,74,191.82,51,-3.00,3.00,-986.00
2024-05-17 16:06:42.449443,1,0,95,0,0,0,63,66,131,80,74,191.86,51,31.00,2.00,-1020.00
2024-05-17 16:06:42.551486,1,0,89,0,0,0,63,66,130,80,74,191.82,51,0.00,25.00,-998.00
2024-05-17 16:06:42.602485,1,0,83,0,0,0,63,66,130,80,74,191.91,51,30.00,14.00,-1017.00
2024-05-17 16:06:42.704393,1,0,77,0,0,0,63,66,129,80,74,191.94,52,-2.00,-20.00,-963.00
2024-05-17 16:06:42.895351,1,0,71,0,0,0,63,66,129,80,74,191.87,52,16.00,-26.00,-999.00
2024-05-17 16:06:42.909279,0,0,65,0,0,0,63,66,129,80,74,191.87,52,-13.00,27.00,-1008.00
2024-05-17 16:06:43.096500,0,0,59,0,0,0,63,65,129,80,74,191.88,52,11.00,6.00,-990.00
2024-05-17 16:06:43.116619,0,0,54,0,0,0,63,65,128,80,74,191.92,52,8.00,14.00,-970.00
2024-05-17 16:06:43.214387,0,0,48,0,0,0,63,65,128,70,74,191.79,52,43.00,-6.00,-1034.00
2024-05-17 16:06:43.403683,0,0,42,0,0,0,63,65,129,70,74,191.86,52,-10.00,32.00,-987.00
2024-05-17 16:06:43.418377,0,0,36,0,0,0,63,65,129,70,74,191.90,52,8.00,-25.00,-976.00
2024-05-17 16:06:43.608500,0,0,30,0,0,0,63,65,129,70,74,191.83,52,25.00,0.00,-1031.00
2024-05-17 16:06:43.623274,0,0,25,0,0,0,63,65,129,70,74,191.94,52,-13.00,34.00,-1062.00
2024-05-17 16:06:43.813264,0,0,19,0,0,0,63,65,130,80,74,191.95,53,-8.00,5.00,-998.00
2024-05-17 16:06:43.827391,0,0,14,0,0,0,63,65,130,80,74,191.98,53,13.00,0.00,-976.00
2024-05-17 16:06:44.024841,0,0,10,0,0,0,63,65,130,80,74,191.86,53,1.00,-6.00,-1050.00
2024-05-17 16:06:44.030307,0,0,7,0,0,0,63,66,130,80,74,191.96,53,-2.00,26.00,-993.00
2024-05-17 16:06:44.223756,0,0,5,0,0,0,63,66,130,80,74,191.97,53,15.00,20.00,-1020.00
2024-05-17 16:06:44.234271,0,0,3,0,0,0,63,66,129,80,74,191.92,53,-21.00,0.00,-979.00
2024-05-17 16:06:44.427624,0,0,2,0,0,0,63,66,129,80,74,191.88,53,-31.00,29.00,-1007.00
2024-05-17 16:06:44.439201,0,0,1,0,0,0,63,66,129,80,74,191.88,53,0.00,27.00,-1006.00
2024-05-17 16:06:44.633183,0,0,0,0,0,0,63,66,128,80,74,191.85,53,47.00,2.00,-978.00
2024-05-17 16:06:44.643372,0,0,0,0,0,0,63,66,128,80,74,191.86,53,3.00,-16.00,-999.00
2024-05-17 16:06:44.745068,0,0,0,0,0,0,63,66,128,80,74,191.85,54,-5.00,1.00,-1038.00
2024-05-17 16:06:44.846332,-1,0,-1,0,0,0,63,66,128,70,74,191.86,54,4.00,18.00,-1053.00
2024-05-17 16:06:45.042141,0,0,-1,0,0,0,63,66,127,70,74,191.93,54,3.00,-15.00,-991.00
2024-05-17 16:06:45.050578,0,0,-1,0,0,0,64,66,127,70,74,191.78,54,-10.00,-4.00,-1036.00
2024-05-17 16:06:45.246954,0,0,-1,0,0,0,64,66,127,70,74,191.85,54,23.00,-19.00,-1007.00
2024-05-17 16:06:45.254260,0,0,-1,0,0,0,64,66,127,70,74,191.88,54,-23.00,16.00,-1010.00
2024-05-17 16:06:45.455735,0,0,-1,0,0,0,64,66,127,70,74,191.91,54,5.00,9.00,-992.00
2024-05-17 16:06:45.459319,0,0,-1,0,0,0,64,66,127,70,74,191.86,54,-7.00,-4.00,-983.00
2024-05-17 16:06:45.656594,0,0,-1,0,0,0,64,66,127,70,74,191.82,54,6.00,3.00,-1000.00
2024-05-17 16:06:45.664261,0,0,-1,0,0,0,64,66,127,70,74,191.89,54,6.00,-8.00,-994.00
2024-05-17 16:06:45.764290,0,0,-1,0,0,0,64,66,127,70,74,191.88,55,-11.00,-5.00,-999.00
2024-05-17 16:06:45.966506,0,0,-1,0,0,0,64,66,127,70,74,191.90,55,1.00,-25.00,-1038.00
2024-05-17 16:06:45.968156,0,0,-1,0,0,0,64,66,128,70,74,191.89,55,-16.00,5.00,-970.00
2024-05-17 16:06:46.070390,0,0,-1,0,0,0,64,65,128,80,74,191.87,55,-4.00,11.00,-993.00
2024-05-17 16:06:46.270972,0,0,-1,0,0,0,64,65,127,70,74,191.86,55,6.00,7.00,-1001.00
2024-05-17 16:06:46.274325,0,0,-1,0,0,0,64,65,127,80,74,191.88,55,-17.00,6.00,-1117.00
2024-05-17 16:06:46.475670,0,0,-1,0,0,0,64,65,127,80,74,191.87,55,-13.00,-13.00,-934.00
2024-05-17 16:06:46.478194,0,0,-1,0,0,0,64,65,127,80,74,191.94,55,-10.00,23.00,-972.00
2024-05-17 16:06:46.580259,0,0,-1,0,0,0,64,65,127,80,74,191.91,55,-2.00,-20.00,-1002.00
2024-05-17 16:06:46.631640,0,0,-1,0,0,0,64,65,127,70,74,191.92,56,28.00,-14.00,-997.00
2024-05-17 16:06:46.733943,0,0,-1,0,0,0,64,65,127,70,74,191.87,56,-23.00,0.00,-1043.00
2024-05-17 16:06:46.885334,0,0,-1,0,0,-2,64,65,127,80,74,192.02,56,-29.00,-9.00,-1343.00
2024-05-17 16:06:46.937058,0,-1,-2,0,0,-8,64,65,131,80,74,192.10,56,4.00,9.00,-1679.00
2024-05-17 16:06:47.089955,-3,-56,-3,0,-2,-12,64,66,152,90,74,192.26,56,-65.00,-2.00,-1628.00
2024-05-17 16:06:47.141120,0,-179,5,0,-10,-2,64,66,226,100,74,192.32,56,-6.00,43.00,-1647.00
2024-05-17 16:06:47.294747,8,59,-7,0,-7,11,64,66,420,100,74,192.36,56,-50.00,421.00,-1136.00
2024-05-17 16:06:47.345733,0,-3,-15,0,-2,11,64,66,142,80,74,191.84,56,-59.00,528.00,-1059.00
2024-05-17 16:06:47.499548,0,0,-20,0,-3,8,64,66,128,70,74,191.84,56,-14.00,360.00,-1207.00
2024-05-17 16:06:47.549040,0,2,-23,0,-2,5,64,66,122,70,74,191.86,56,56.00,-197.00,-1547.00
2024-05-17 16:06:47.705135,0,1,-19,0,-1,2,64,66,119,60,74,191.82,57,69.00,-36.00,-1448.00
2024-05-17 16:06:47.753237,0,0,-9,0,-1,0,64,66,117,60,74,191.85,57,11.00,3.00,-1316.00
2024-05-17 16:06:47.909165,0,0,-1,0,-1,0,64,66,117,60,74,191.82,57,0.00,-33.00,-1284.00
2024-05-17 16:06:47.957052,0,0,0,0,0,-1,64,66,119,60,74,191.85,57,-3.00,-42.00,-1153.00
2024-05-17 16:06:48.059032,0,0,0,0,0,-2,64,67,123,60,74,191.84,57,6.00,-15.00,-1009.00
2024-05-17 16:06:48.216371,0,2,0,0,0,-1,64,67,126,70,74,191.87,57,-10.00,-5.00,-945.00
2024-05-17 16:06:48.263318,-1,0,0,0,0,-1,64,67,128,70,74,191.80,57,-8.00,41.00,-958.00
2024-05-17 16:06:48.365134,-1,0,0,0,0,-1,64,67,129,70,74,191.95,57,-15.00,29.00,-977.00
2024-05-17 16:06:48.527004,-1,0,0,0,0,0,64,67,130,70,74,191.87,57,13.00,0.00,-925.00
2024-05-17 16:06:48.569010,-1,0,0,0,0,0,64,67,130,70,74,191.94,57,-14.00,0.00,-954.00
2024-05-17 16:06:48.728477,0,0,0,0,0,0,64,67,130,70,74,191.90,58,27.00,-9.00,-1041.00
2024-05-17 16:06:48.773992,0,0,0,0,0,0,64,67,130,70,74,191.98,58,14.00,14.00,-900.00
2024-05-17 16:06:48.875972,0,0,0,0,0,0,64,67,130,70,74,191.98,58,11.00,30.00,-1054.00
2024-05-17 16:06:49.035686,0,0,0,0,0,0,64,67,130,70,74,191.92,58,2.00,1.00,-1091.00
2024-05-17 16:06:49.079991,0,0,0,0,0,0,63,66,130,70,74,191.87,58,20.00,-15.00,-983.00
2024-05-17 16:06:49.240420,0,0,0,0,0,0,63,66,129,70,74,192.03,58,-1.00,24.00,-919.00
2024-05-17 16:06:49.283921,0,0,0,0,0,0,63,66,128,70,74,191.92,58,-6.00,6.00,-942.00
2024-05-17 16:06:49.385959,0,0,0,0,0,0,63,66,128,70,74,191.94,58,-13.00,3.00,-996.00
2024-05-17 16:06:49.547699,0,0,0,0,0,0,63,66,128,70,74,191.92,58,-2.00,35.00,-1011.00
2024-05-17 16:06:49.590131,0,0,0,0,0,0,63,66,128,70,74,191.95,58,17.00,12.00,-1018.00
2024-05-17 16:06:49.691958,0,0,0,0,0,0,63,66,128,70,74,192.00,59,23.00,0.00,-1044.00
2024-05-17 16:06:49.854733,0,0,0,0,0,0,63,66,129,70,73,191.97,59,14.00,-46.00,-1021.00
2024-05-17 16:06:49.895894,0,0,0,0,0,0,63,66,129,70,73,191.98,59,-13.00,32.00,-1004.00
2024-05-17 16:06:50.059508,0,0,0,0,0,0,63,66,129,70,73,191.97,59,-15.00,28.00,-987.00
2024-05-17 16:06:50.099894,0,0,0,0,0,0,64,66,130,70,73,191.93,59,25.00,-22.00,-954.00
2024-05-17 16:06:50.264322,0,0,-1,0,0,0,64,66,131,70,73,192.01,59,9.00,16.00,-1007.00
2024-05-17 16:06:50.304034,0,0,-1,0,0,0,64,66,131,70,73,191.95,59,11.00,9.00,-1034.00
2024-05-17 16:06:50.472405,0,0,-1,0,0,0,64,66,131,70,73,191.93,59,21.00,-8.00,-974.00
2024-05-17 16:06:50.507971,0,0,-1,0,0,0,64,66,132,70,73,191.91,59,-12.00,-3.00,-974.00
2024-05-17 16:06:50.561092,0,0,-1,0,0,0,64,66,132,70,73,191.98,59,-12.00,38.00,-974.00
2024-05-17 16:06:50.662864,0,0,-1,0,0,0,64,66,132,70,73,192.03,60,-13.00,3.00,-939.00
2024-05-17 16:06:50.763694,0,0,-1,0,0,0,64,66,132,80,73,191.99,60,16.00,20.00,-1019.00
2024-05-17 16:06:50.878877,0,0,0,0,0,0,64,66,132,80,73,191.99,60,31.00,-12.00,-1030.00
2024-05-17 16:06:50.967924,0,0,-1,0,0,0,64,66,132,80,73,191.96,60,-24.00,11.00,-956.00
2024-05-17 16:06:51.088685,0,0,0,0,0,0,64,66,132,80,73,192.03,60,35.00,-18.00,-999.00
2024-05-17 16:06:51.174730,0,0,-1,0,0,0,64,66,132,80,73,192.02,60,-12.00,-9.00,-1002.00
2024-05-17 16:06:51.273320,0,0,-1,0,0,0,64,66,131,80,73,192.08,60,27.00,-13.00,-1017.00
2024-05-17 16:06:51.375012,0,0,-1,0,0,0,64,66,131,70,73,191.96,60,-9.00,8.00,-957.00
2024-05-17 16:06:51.493227,0,0,-1,0,0,0,64,66,131,70,73,191.98,60,16.00,-32.00,-1010.00
2024-05-17 16:06:51.579092,0,0,-1,0,0,0,64,66,131,70,73,191.99,60,-11.00,13.00,-984.00
2024-05-17 16:06:51.698683,0,0,-1,0,0,0,64,66,131,70,72,192.06,61,10.00,-9.00,-1000.00
2024-05-17 16:06:51.782974,0,0,-1,0,0,0,64,66,131,70,72,192.00,61,3.00,0.00,-934.00
2024-05-17 16:06:51.902988,0,0,-1,0,0,0,64,66,131,70,72,192.02,61,25.00,0.00,-1013.00
2024-05-17 16:06:51.987088,0,0,-1,0,0,0,64,66,131,70,72,191.99,61,-28.00,10.00,-1034.00
2024-05-17 16:06:52.089105,0,0,-1,0,0,0,65,67,130,70,72,191.97,61,-8.00,19.00,-940.00
2024-05-17 16:06:52.210557,0,0,-1,0,0,0,65,67,130,70,72,191.99,61,7.00,19.00,-1006.00
