TS,pitch,roll,yaw,vgx,vgy,vgz,templ,temph,tof,h,bat,baro,time,agx,agy,agz
2024-05-17 16:11:55.298480,0,0,-6,0,0,0,78,80,10,0,53,190.49,253,3.00,-4.00,-1000.00
2024-05-17 16:11:55.413977,0,0,-6,0,0,0,78,80,10,0,53,190.52,253,4.00,-4.00,-1003.00
2024-05-17 16:11:55.502616,0,0,-6,0,0,0,78,80,10,0,53,190.54,253,1.00,-3.00,-999.00
2024-05-17 16:11:55.604669,0,0,-6,0,0,0,78,80,10,0,53,190.58,253,1.00,-4.00,-1001.00
2024-05-17 16:11:55.721146,0,0,-6,0,0,0,78,80,10,0,53,190.51,253,2.00,-3.00,-1000.00
2024-05-17 16:11:55.808388,0,0,-6,0,0,0,78,80,10,0,53,190.50,253,2.00,-4.00,-1000.00
2024-05-17 16:11:55.925857,0,0,-6,0,0,0,78,80,10,0,53,190.52,253,1.00,-4.00,-1000.00
2024-05-17 16:11:56.013143,0,0,-6,0,0,0,78,80,10,0,53,190.50,253,3.00,-3.00,-999.00
2024-05-17 16:11:56.131114,0,0,-6,0,0,0,78,80,10,0,53,190.52,253,2.00,-4.00,-1000.00
2024-05-17 16:11:56.216480,0,0,-6,0,0,0,78,80,10,0,53,190.52,253,0.00,-3.00,-999.00
2024-05-17 16:11:56.335578,0,0,-6,0,0,0,78,80,10,0,53,190.48,253,4.00,-4.00,-997.00
2024-05-17 16:11:56.420450,0,0,-6,0,0,0,78,80,10,0,53,190.49,253,3.00,-5.00,-999.00
2024-05-17 16:11:56.540321,0,0,-6,0,0,0,78,80,10,0,53,190.47,253,0.00,-4.00,-999.00
2024-05-17 16:11:56.625027,0,0,-6,0,0,0,78,80,10,0,53,190.53,253,0.00,-6.00,-999.00
2024-05-17 16:11:56.745147,0,0,-6,0,0,0,78,80,10,0,53,190.51,253,2.00,-4.00,-998.00
2024-05-17 16:11:56.828855,0,0,-6,0,0,0,78,80,10,0,53,190.51,253,2.00,-3.00,-1000.00
2024-05-17 16:11:56.950075,0,0,-6,0,0,0,78,81,10,0,53,190.51,253,1.00,-4.00,-1000.00
2024-05-17 16:11:57.032489,0,0,-6,0,0,0,78,81,10,0,53,190.50,253,0.00,-4.00,-1000.00
2024-05-17 16:11:57.154657,0,0,-6,0,0,0,78,81,10,0,53,190.54,253,2.00,-4.00,-999.00
2024-05-17 16:11:57.236564,0,0,-6,0,0,0,78,81,10,0,53,190.47,253,2.00,-4.00,-997.00
2024-05-17 16:11:57.359487,0,0,-6,0,0,0,78,81,10,0,53,190.47,253,1.00,-4.00,-1001.00
2024-05-17 16:11:57.440380,0,0,-6,0,0,0,78,81,10,0,53,190.48,253,4.00,-5.00,-998.00
2024-05-17 16:11:57.564316,0,0,-6,0,0,0,78,81,10,0,53,190.51,253,2.00,-4.00,-998.00
2024-05-17 16:11:57.593531,0,0,-6,0,0,0,78,81,10,0,53,190.52,253,0.00,-5.00,-1001.00
2024-05-17 16:11:57.769886,0,0,-6,0,0,0,78,81,10,0,52,190.49,253,0.00,-4.00,-1001.00
2024-05-17 16:11:57.797172,0,0,-6,0,0,0,78,81,10,0,52,190.53,253,1.00,-3.00,-999.00
2024-05-17 16:11:57.973870,0,0,-6,0,0,0,78,81,10,0,52,190.51,253,1.00,-5.00,-999.00
2024-05-17 16:11:58.001653,0,0,-6,0,0,0,78,81,10,0,52,190.54,253,3.00,-5.00,-1001.00
2024-05-17 16:11:58.178716,0,0,-6,0,0,0,78,81,10,0,52,190.52,253,2.00,-3.00,-1002.00
2024-05-17 16:11:58.205305,0,0,-6,0,0,0,78,81,10,0,52,190.51,253,3.00,-4.00,-998.00
2024-05-17 16:11:58.383466,0,0,-6,0,0,0,78,81,10,0,52,190.53,253,1.00,-5.00,-1000.00
2024-05-17 16:11:58.409318,0,0,-6,0,0,0,78,81,10,0,52,190.56,253,1.00,-3.00,-1002.00
2024-05-17 16:11:58.533924,0,0,-6,0,0,0,78,81,10,0,52,190.57,253,2.00,-5.00,-1002.00
2024-05-17 16:11:58.613213,0,0,-6,0,0,0,78,81,10,0,52,190.55,253,2.00,-4.00,-1000.00
2024-05-17 16:11:58.716767,0,0,-6,0,0,0,78,81,10,0,52,190.53,253,3.00,-4.00,-998.00
2024-05-17 16:11:58.817997,0,0,-6,0,0,0,78,81,10,0,52,190.53,254,1.00,-4.00,-999.00
2024-05-17 16:11:58.919207,0,0,-6,0,0,0,79,80,10,0,52,190.53,254,-10.00,-13.00,-1019.00
2024-05-17 16:11:59.100234,0,0,-7,0,0,0,79,80,10,0,52,190.53,254,-12.00,35.00,-1020.00
2024-05-17 16:11:59.126268,0,0,-7,0,0,0,79,80,10,0,52,190.53,254,-22.00,1.00,-1013.00
2024-05-17 16:11:59.225362,0,0,-8,0,0,0,79,80,10,0,52,190.53,254,-31.00,36.00,-1152.00
2024-05-17 16:11:59.407370,0,0,-9,0,0,-2,79,80,10,0,52,190.53,254,-43.00,-9.00,-1247.00
2024-05-17 16:11:59.429192,-1,-1,-9,0,0,-5,79,80,10,0,52,190.53,254,-18.00,-28.00,-1228.00
2024-05-17 16:11:59.714499,-1,0,-9,0,0,-7,79,80,14,10,52,190.86,254,-1.00,-1.00,-1131.00
2024-05-17 16:11:59.714729,-1,0,-9,0,0,-7,79,80,23,10,52,190.88,254,50.00,-2.00,-1030.00
2024-05-17 16:11:59.735216,0,0,-9,0,0,-7,79,80,32,20,52,191.00,255,1.00,34.00,-973.00
2024-05-17 16:11:59.919376,0,0,-9,0,0,-7,79,80,40,30,52,191.11,255,-33.00,-5.00,-957.00
2024-05-17 16:11:59.939484,0,0,-9,0,0,-7,79,81,48,40,52,191.11,255,17.00,-26.00,-965.00
2024-05-17 16:12:00.041169,0,0,-9,0,0,-6,79,81,52,40,52,191.28,255,0.00,0.00,-929.00
2024-05-17 16:12:00.226723,0,1,-8,0,0,-5,79,81,59,50,52,191.25,255,-6.00,-55.00,-887.00
2024-05-17 16:12:00.245103,0,1,-9,0,0,-4,79,81,65,50,52,191.39,255,25.00,-31.00,-903.00
2024-05-17 16:12:00.431293,0,1,-9,0,0,-3,79,81,70,50,52,191.44,255,-3.00,6.00,-860.00
2024-05-17 16:12:00.449077,0,1,-9,0,0,-2,79,81,73,60,52,191.40,255,9.00,0.00,-887.00
2024-05-17 16:12:00.640814,0,0,-9,0,0,-1,79,81,75,60,52,191.46,255,7.00,-49.00,-970.00
2024-05-17 16:12:00.653030,0,0,-9,0,0,0,79,81,76,60,52,191.48,255,-25.00,-28.00,-861.00
2024-05-17 16:12:00.840892,0,0,-9,0,0,0,79,81,78,60,52,191.49,256,47.00,-18.00,-940.00
2024-05-17 16:12:00.857359,0,0,-9,0,0,0,79,81,78,60,52,191.48,256,10.00,-24.00,-1084.00
2024-05-17 16:12:00.959733,0,1,-9,0,0,0,79,81,78,60,52,191.47,256,-32.00,21.00,-1000.00
2024-05-17 16:12:01.148183,0,1,-8,0,0,0,79,81,79,60,52,191.47,256,36.00,-24.00,-993.00
2024-05-17 16:12:01.163012,0,0,-8,0,0,0,79,81,79,60,52,191.41,256,-12.00,25.00,-982.00
2024-05-17 16:12:01.265011,0,0,-8,0,0,0,79,81,79,60,52,191.43,256,40.00,11.00,-1050.00
2024-05-17 16:12:01.455310,0,0,-8,0,0,0,79,81,80,60,52,191.53,256,-33.00,17.00,-1069.00
2024-05-17 16:12:01.468982,0,0,-8,0,0,0,79,81,82,60,52,191.49,256,7.00,8.00,-1008.00
2024-05-17 16:12:01.522000,0,0,-8,0,0,0,79,81,83,70,52,191.52,256,33.00,-53.00,-1007.00
2024-05-17 16:12:01.621870,0,0,-8,0,0,0,79,81,85,70,52,191.53,256,12.00,11.00,-892.00
2024-05-17 16:12:01.762497,0,0,-8,0,0,0,79,81,87,70,52,191.53,257,-24.00,43.00,-921.00
2024-05-17 16:12:01.825951,0,0,-8,0,0,0,79,81,87,70,52,191.46,257,-1.00,-1.00,-981.00
2024-05-17 16:12:01.979492,0,0,-9,0,0,0,78,81,88,70,52,191.57,257,-7.00,-4.00,-982.00
2024-05-17 16:12:02.030329,0,0,-9,0,0,0,78,81,88,70,52,191.63,257,24.00,15.00,-949.00
2024-05-17 16:12:02.172011,0,0,-9,0,0,0,78,81,88,70,52,191.56,257,24.00,-17.00,-1049.00
2024-05-17 16:12:02.234040,0,0,-9,0,0,0,78,81,90,70,52,191.62,257,18.00,-19.00,-980.00
2024-05-17 16:12:02.376887,0,0,-9,0,0,0,78,81,90,70,52,191.57,257,33.00,10.00,-1043.00
2024-05-17 16:12:02.437946,0,0,-9,0,0,0,78,81,90,70,52,191.62,257,14.00,-13.00,-987.00
2024-05-17 16:12:02.581682,0,0,-9,0,0,0,78,81,90,70,52,191.62,257,-8.00,-30.00,-1027.00
2024-05-17 16:12:02.641992,0,0,-9,0,0,0,78,81,90,70,52,191.57,257,-5.00,6.00,-961.00
2024-05-17 16:12:02.786495,0,0,-9,0,0,0,78,81,89,70,52,191.54,258,-29.00,19.00,-977.00
2024-05-17 16:12:02.845828,0,0,-9,0,0,0,78,81,89,70,52,191.62,258,-1.00,15.00,-1010.00
2024-05-17 16:12:02.991202,0,0,-9,0,0,0,78,80,88,70,52,191.60,258,38.00,-30.00,-1032.00
2024-05-17 16:12:03.049916,0,0,-9,0,0,0,78,80,88,70,52,191.56,258,1.00,-14.00,-1030.00
2024-05-17 16:12:03.196244,0,0,-9,0,0,0,78,80,87,70,52,191.56,258,-4.00,-22.00,-1001.00
2024-05-17 16:12:03.258710,0,0,-9,0,0,0,78,80,86,70,52,191.62,258,-18.00,-44.00,-1063.00
2024-05-17 16:12:03.355800,0,0,-9,0,0,0,78,80,86,70,52,191.60,258,25.00,-43.00,-996.00
2024-05-17 16:12:03.503201,0,0,-9,0,0,0,78,80,85,70,52,191.59,258,-5.00,18.00,-940.00
2024-05-17 16:12:03.559889,0,0,-9,0,0,0,78,80,85,70,52,191.53,258,3.00,-46.00,-1035.00
2024-05-17 16:12:03.661877,0,0,-9,0,0,0,78,80,84,70,52,191.50,258,-59.00,1.00,-1049.00
2024-05-17 16:12:03.810467,0,0,-9,0,0,0,78,80,84,70,52,191.47,259,-18.00,-3.00,-962.00
2024-05-17 16:12:03.865918,0,0,-9,0,0,0,78,80,83,70,52,191.53,259,16.00,-29.00,-971.00
2024-05-17 16:12:03.968931,0,0,-9,0,0,0,79,80,81,70,52,191.50,259,-42.00,20.00,-1003.00
2024-05-17 16:12:04.070057,0,0,-9,0,0,0,79,80,81,70,52,191.50,259,-8.00,-11.00,-971.00
2024-05-17 16:12:04.221636,0,0,-9,0,0,0,79,80,81,70,52,191.50,259,-35.00,3.00,-1042.00
2024-05-17 16:12:04.273893,0,0,-9,0,0,0,79,80,81,70,52,191.55,259,18.00,-15.00,-942.00
2024-05-17 16:12:04.424948,0,0,-9,0,0,0,79,80,80,70,52,191.52,259,43.00,4.00,-940.00
2024-05-17 16:12:04.477868,0,0,-9,0,0,0,79,80,79,60,52,191.59,259,7.00,-15.00,-1014.00
2024-05-17 16:12:04.629724,0,0,-9,0,0,0,79,80,79,60,52,191.49,259,4.00,28.00,-1056.00
2024-05-17 16:12:04.681865,0,0,-9,0,0,0,79,80,79,60,52,191.55,259,-7.00,8.00,-1000.00
2024-05-17 16:12:04.835386,0,0,-9,0,0,0,79,80,79,60,52,191.60,260,13.00,-5.00,-989.00
2024-05-17 16:12:04.885786,0,0,-9,0,0,0,79,80,80,60,52,191.58,260,2.00,12.00,-1014.00
2024-05-17 16:12:05.039341,0,0,-9,0,0,0,78,80,80,60,52,191.55,260,-26.00,8.00,-1007.00
2024-05-17 16:12:05.089851,0,0,-9,0,0,0,78,80,80,60,52,191.50,260,5.00,-10.00,-973.00
2024-05-17 16:12:05.244166,0,0,-9,0,0,0,78,80,80,60,52,191.51,260,-15.00,19.00,-1009.00
2024-05-17 16:12:05.293876,0,0,-9,0,0,0,78,80,80,60,52,191.54,260,-52.00,34.00,-977.00
2024-05-17 16:12:05.448961,0,0,-9,0,0,0,78,80,80,70,52,191.49,260,11.00,-12.00,-1012.00
2024-05-17 16:12:05.497845,0,0,-9,0,0,0,78,80,80,70,52,191.56,260,-12.00,-12.00,-980.00
2024-05-17 16:12:05.656068,0,0,-8,0,0,0,78,80,81,70,52,191.49,260,-14.00,15.00,-979.00
2024-05-17 16:12:05.701976,0,0,-9,0,0,0,78,80,80,70,52,191.56,260,-12.00,16.00,-1026.00
2024-05-17 16:12:05.758549,0,0,-9,0,0,0,78,80,79,60,52,191.54,261,-49.00,27.00,-1009.00
2024-05-17 16:12:05.855194,0,0,-9,0,0,0,78,80,79,60,52,191.59,261,-11.00,4.00,-946.00
2024-05-17 16:12:06.007957,0,0,-9,0,0,0,77,80,79,60,52,191.52,261,4.00,4.00,-1025.00
2024-05-17 16:12:06.064636,0,0,-9,0,0,0,77,80,79,60,52,191.55,261,15.00,-8.00,-1038.00
2024-05-17 16:12:06.161539,0,0,-9,0,0,0,77,80,79,60,52,191.56,261,-12.00,20.00,-1052.00
2024-05-17 16:12:06.263988,0,0,-8,0,0,0,77,80,79,60,52,191.50,261,-18.00,5.00,-945.00
2024-05-17 16:12:06.365596,0,0,-8,0,0,0,77,80,78,60,52,191.55,261,-15.00,-5.00,-965.00
2024-05-17 16:12:06.467652,0,0,-8,0,0,0,77,80,78,60,52,191.48,261,-13.00,36.00,-1001.00
2024-05-17 16:12:06.569058,0,0,-8,0,0,0,77,80,78,60,52,191.55,261,-16.00,11.00,-1037.00
2024-05-17 16:12:06.671063,0,0,-8,0,0,0,77,80,78,60,52,191.52,261,-32.00,32.00,-1004.00
2024-05-17 16:12:06.773249,0,0,-8,0,0,0,77,80,78,60,52,191.50,262,-42.00,24.00,-970.00
2024-05-17 16:12:06.882802,0,0,-8,0,0,0,77,80,78,60,52,191.50,262,-23.00,3.00,-952.00
2024-05-17 16:12:06.981824,0,0,-8,0,0,0,77,79,78,60,52,191.57,262,5.00,9.00,-988.00
2024-05-17 16:12:07.078896,0,0,-8,0,0,0,77,79,78,60,52,191.56,262,-11.00,24.00,-1064.00
2024-05-17 16:12:07.189822,0,0,-8,0,0,0,77,79,77,60,52,191.54,262,-41.00,5.00,-987.00
2024-05-17 16:12:07.282939,0,0,-8,0,0,0,77,79,77,60,52,191.57,262,-30.00,22.00,-972.00
2024-05-17 16:12:07.394721,0,0,-8,0,0,0,77,79,77,60,52,191.48,262,0.00,16.00,-952.00
2024-05-17 16:12:07.486986,0,0,-8,0,0,0,77,79,77,60,52,191.56,262,-4.00,-4.00,-983.00
2024-05-17 16:12:07.599415,0,0,-8,0,0,0,77,79,77,60,52,191.54,262,-35.00,7.00,-1023.00
2024-05-17 16:12:07.691668,0,0,-8,0,0,0,77,79,77,60,52,191.53,262,3.00,16.00,-999.00
2024-05-17 16:12:07.804424,0,-1,-8,0,0,0,77,79,77,60,52,191.57,263,33.00,10.00,-1028.00
2024-05-17 16:12:07.895754,0,0,-8,0,0,0,77,79,78,60,52,191.52,263,7.00,20.00,-1134.00
2024-05-17 16:12:08.010608,0,0,-8,0,0,-1,76,79,79,60,52,191.58,263,-13.00,12.00,-1076.00
2024-05-17 16:12:08.099746,0,0,-8,0,0,-2,76,79,81,70,52,191.58,263,22.00,3.00,-1070.00
2024-05-17 16:12:08.213716,0,0,-8,0,0,-2,76,79,84,70,52,191.63,263,9.00,-2.00,-1104.00
2024-05-17 16:12:08.304061,0,0,-8,0,0,-3,76,79,87,70,52,191.69,263,-6.00,24.00,-1031.00
2024-05-17 16:12:08.418543,0,0,-8,0,0,-4,76,79,90,70,52,191.71,263,9.00,-4.00,-1118.00
2024-05-17 16:12:08.507522,0,0,-8,0,0,-4,76,79,95,80,52,191.66,263,2.00,-12.00,-1032.00
2024-05-17 16:12:08.623330,0,0,-8,0,0,-4,76,79,100,80,52,191.76,263,9.00,0.00,-1045.00
2024-05-17 16:12:08.711662,0,0,-8,0,0,-5,76,79,106,90,52,191.83,263,15.00,23.00,-1027.00
2024-05-17 16:12:08.827953,0,0,-8,0,0,-5,76,79,111,90,52,191.87,264,5.00,20.00,-996.00
2024-05-17 16:12:08.915669,0,0,-8,0,0,-5,76,79,117,100,52,191.94,264,-27.00,24.00,-979.00
2024-05-17 16:12:09.033961,0,0,-8,0,0,-5,77,79,122,100,52,191.94,264,-23.00,6.00,-1023.00
2024-05-17 16:12:09.123027,0,0,-8,0,0,-5,77,79,128,110,52,191.98,264,15.00,-24.00,-984.00
2024-05-17 16:12:09.221681,0,0,-8,0,0,-5,77,79,134,110,52,192.03,264,-35.00,4.00,-994.00
2024-05-17 16:12:09.340119,0,0,-8,0,0,-4,77,79,139,120,52,192.09,264,-12.00,6.00,-996.00
2024-05-17 16:12:09.427036,0,0,-8,0,0,-4,77,79,145,120,52,192.13,264,-3.00,14.00,-921.00
2024-05-17 16:12:09.479028,0,0,-8,0,0,-4,77,79,149,130,52,192.19,264,6.00,-11.00,-984.00
2024-05-17 16:12:09.579399,0,0,-8,0,0,-3,77,79,154,130,52,192.21,264,-12.00,2.00,-967.00
2024-05-17 16:12:09.683279,0,0,-8,0,0,-3,77,79,159,140,52,192.30,264,-16.00,16.00,-1010.00
2024-05-17 16:12:09.786435,0,0,-8,0,0,-3,77,79,164,140,52,192.27,265,-5.00,-5.00,-974.00
2024-05-17 16:12:09.886388,0,0,-8,0,0,-3,77,79,167,150,52,192.34,265,-13.00,13.00,-950.00
2024-05-17 16:12:09.988168,0,0,-8,0,0,-3,76,78,174,150,52,192.40,265,-16.00,12.00,-931.00
2024-05-17 16:12:10.088672,0,0,-8,0,0,-2,76,78,177,150,52,192.48,265,31.00,-4.00,-947.00
2024-05-17 16:12:10.261707,0,0,-8,0,0,-2,76,78,180,160,52,192.50,265,-3.00,3.00,-954.00
2024-05-17 16:12:10.292623,0,0,-8,0,0,-2,76,78,183,160,52,192.46,265,50.00,-8.00,-890.00
2024-05-17 16:12:10.466830,0,0,-8,0,0,-1,76,78,185,160,52,192.48,265,61.00,-13.00,-902.00
2024-05-17 16:12:10.497035,0,0,-8,0,0,-1,76,78,186,160,52,192.56,265,6.00,-2.00,-917.00
2024-05-17 16:12:10.678928,0,-1,-8,0,0,0,76,78,186,170,52,192.59,265,23.00,-16.00,-953.00
2024-05-17 16:12:10.701081,0,-1,-8,0,0,0,76,78,186,170,52,192.50,265,-20.00,-7.00,-988.00
2024-05-17 16:12:10.876142,0,0,-8,0,0,0,76,78,186,170,52,192.51,266,-8.00,33.00,-939.00
2024-05-17 16:12:10.904670,0,0,-8,0,0,0,76,78,186,170,52,192.54,266,-31.00,49.00,-958.00
2024-05-17 16:12:11.082259,0,-1,-8,0,0,0,76,78,187,170,52,192.54,266,10.00,15.00,-1034.00
2024-05-17 16:12:11.108658,0,-1,-8,0,0,0,76,78,187,170,52,192.46,266,46.00,2.00,-992.00
2024-05-17 16:12:11.287421,0,0,-8,0,0,0,76,78,187,170,52,192.52,266,12.00,16.00,-960.00
2024-05-17 16:12:11.313736,0,0,-8,0,0,0,76,78,187,170,52,192.45,266,15.00,10.00,-1006.00
2024-05-17 16:12:11.490575,0,0,-8,0,0,0,76,78,186,170,52,192.49,266,-23.00,5.00,-989.00
2024-05-17 16:12:11.516615,0,-1,-8,0,0,0,76,78,186,170,52,192.57,266,-7.00,14.00,-1028.00
2024-05-17 16:12:11.695713,0,0,-8,0,0,0,76,78,186,170,52,192.48,266,-1.00,-18.00,-1027.00
2024-05-17 16:12:11.721434,0,0,-8,0,0,0,76,78,187,170,52,192.46,266,3.00,12.00,-1015.00
2024-05-17 16:12:11.903783,0,0,-8,0,0,0,76,78,186,170,52,192.48,267,-15.00,2.00,-977.00
2024-05-17 16:12:11.924807,0,0,-8,0,0,0,76,78,186,170,52,192.50,267,-32.00,29.00,-1010.00
2024-05-17 16:12:12.026566,0,0,-8,0,0,0,76,78,185,170,52,192.49,267,-17.00,21.00,-979.00
2024-05-17 16:12:12.128679,0,0,-8,0,0,0,76,78,185,170,52,192.50,267,21.00,29.00,-906.00
2024-05-17 16:12:12.265288,0,0,-8,0,0,0,76,78,184,170,52,192.51,267,9.00,-23.00,-1018.00
2024-05-17 16:12:12.333371,0,0,-8,0,0,0,76,78,185,170,52,192.42,267,-8.00,38.00,-966.00
2024-05-17 16:12:12.514468,0,0,-8,0,0,0,76,78,185,170,52,192.45,267,24.00,-2.00,-982.00
2024-05-17 16:12:12.536456,0,0,-8,0,0,0,76,78,183,170,52,192.43,267,-4.00,16.00,-995.00
2024-05-17 16:12:12.719184,0,-1,-8,0,0,0,76,78,183,170,52,192.50,267,-10.00,20.00,-946.00
2024-05-17 16:12:12.741433,0,-1,-8,0,0,0,76,78,181,170,52,192.45,267,-16.00,27.00,-961.00
2024-05-17 16:12:12.924636,0,-1,-8,0,0,1,76,78,179,160,52,192.41,268,-17.00,23.00,-990.00
2024-05-17 16:12:12.945391,0,0,-8,0,0,1,76,78,179,160,52,192.44,268,21.00,-26.00,-1003.00
2024-05-17 16:12:13.056290,0,0,-8,0,0,2,75,78,175,160,52,192.41,268,0.00,36.00,-990.00
2024-05-17 16:12:13.149357,0,0,-8,0,0,2,75,78,172,160,52,192.34,268,25.00,-33.00,-970.00
2024-05-17 16:12:13.334765,0,0,-8,0,0,2,75,78,170,150,52,192.37,268,-4.00,9.00,-959.00
2024-05-17 16:12:13.353361,0,0,-8,0,0,3,75,78,167,150,52,192.37,268,5.00,28.00,-964.00
2024-05-17 16:12:13.541646,0,-1,-8,0,0,3,75,78,163,150,52,192.28,268,6.00,23.00,-961.00
2024-05-17 16:12:13.557368,0,-1,-8,0,0,3,75,78,160,140,52,192.23,268,15.00,-1.00,-969.00
2024-05-17 16:12:13.659422,0,-1,-9,0,0,2,75,78,157,140,52,192.20,268,-6.00,-4.00,-1001.00
2024-05-17 16:12:13.848806,0,0,-9,0,0,2,75,78,154,140,52,192.21,269,3.00,11.00,-984.00
2024-05-17 16:12:13.848885,0,0,-9,0,0,2,75,78,151,140,52,192.19,269,-20.00,12.00,-1021.00
2024-05-17 16:12:13.916393,0,0,-9,0,0,2,75,78,148,130,52,192.10,269,13.00,17.00,-1014.00
2024-05-17 16:12:14.016305,0,0,-9,0,0,2,76,78,146,130,52,192.13,269,-22.00,18.00,-999.00
2024-05-17 16:12:14.153505,0,0,-9,0,0,1,76,78,144,130,52,192.06,269,-15.00,-1.00,-1049.00
2024-05-17 16:12:14.220230,0,0,-9,0,0,1,76,78,141,130,52,192.09,269,-16.00,8.00,-967.00
2024-05-17 16:12:14.358359,0,-1,-9,0,0,1,76,78,140,120,52,192.10,269,-24.00,39.00,-1059.00
2024-05-17 16:12:14.424482,0,-1,-9,0,0,1,76,78,138,120,52,192.03,269,24.00,8.00,-957.00
2024-05-17 16:12:14.563653,0,-1,-9,0,0,1,76,78,137,120,52,192.06,269,-2.00,1.00,-1061.00
2024-05-17 16:12:14.628818,0,0,-8,0,0,1,76,78,135,120,52,192.05,269,-10.00,16.00,-1021.00
2024-05-17 16:12:14.767970,0,0,-9,0,0,0,76,78,134,120,52,192.03,270,8.00,-6.00,-1041.00
2024-05-17 16:12:14.832418,0,0,-8,0,0,0,76,78,133,120,52,191.97,270,12.00,4.00,-1000.00
2024-05-17 16:12:14.975458,0,0,-8,0,0,0,76,78,132,120,52,192.01,270,-4.00,33.00,-1026.00
2024-05-17 16:12:15.036381,0,0,-8,0,0,0,76,79,132,120,52,191.98,270,-6.00,34.00,-1025.00
2024-05-17 16:12:15.176960,0,-1,-8,0,0,0,76,79,132,120,52,192.00,270,-15.00,36.00,-1055.00
2024-05-17 16:12:15.240384,0,-1,-8,0,0,0,76,79,131,120,52,191.98,270,29.00,-5.00,-1002.00
2024-05-17 16:12:15.381911,0,-1,-8,0,0,0,76,79,130,120,52,191.97,270,14.00,16.00,-956.00
2024-05-17 16:12:15.446096,0,0,-8,0,0,0,76,79,129,120,52,191.93,270,-27.00,8.00,-1082.00
2024-05-17 16:12:15.546443,0,0,-8,0,0,0,76,79,128,120,52,191.99,270,-10.00,26.00,-1004.00
2024-05-17 16:12:15.691712,0,-1,-8,0,0,0,76,79,128,120,52,191.98,270,-26.00,16.00,-981.00
2024-05-17 16:12:15.750390,0,-1,-8,0,0,0,76,79,128,110,52,191.99,271,0.00,2.00,-980.00
2024-05-17 16:12:15.895069,0,-1,-8,0,0,0,76,79,129,110,52,192.00,271,7.00,8.00,-1020.00
2024-05-17 16:12:15.954772,0,-1,-8,0,0,0,76,79,130,110,52,192.02,271,-20.00,16.00,-992.00
2024-05-17 16:12:16.056352,-1,0,-8,0,0,0,75,78,131,120,52,192.00,271,7.00,1.00,-1045.00
2024-05-17 16:12:16.201322,0,0,-8,0,0,-1,75,78,133,120,52,191.94,271,-2.00,2.00,-1031.00
2024-05-17 16:12:16.260400,0,0,-8,0,0,0,75,78,133,120,52,192.00,271,-19.00,21.00,-962.00
2024-05-17 16:12:16.411727,0,0,-8,0,0,0,75,78,134,120,52,191.96,271,0.00,25.00,-1036.00
2024-05-17 16:12:16.464385,0,-1,-8,0,0,0,75,78,135,120,52,191.98,271,25.00,0.00,-960.00
2024-05-17 16:12:16.612131,0,-1,-8,0,0,0,75,78,135,120,52,192.07,271,-23.00,16.00,-980.00
2024-05-17 16:12:16.668317,0,-1,-8,0,0,0,75,78,135,120,52,192.02,271,-10.00,28.00,-969.00
2024-05-17 16:12:16.815180,0,-2,-8,0,0,0,75,78,137,120,52,192.00,272,-10.00,-2.00,-1056.00
2024-05-17 16:12:16.872510,-5,-1,-8,0,0,0,75,78,137,120,52,192.09,272,2.00,8.00,-1036.00
2024-05-17 16:12:16.935554,-8,0,-8,1,0,0,75,78,138,120,52,192.02,272,-25.00,46.00,-940.00
2024-05-17 16:12:17.123290,-8,-1,-8,2,0,0,75,77,139,120,52,192.07,272,0.00,12.00,-1043.00
2024-05-17 16:12:17.180522,-8,-1,-8,4,0,0,75,77,138,120,52,191.98,272,10.00,-41.00,-994.00
2024-05-17 16:12:17.280231,-7,0,-8,5,-1,0,75,77,137,120,52,192.04,272,-5.00,-38.00,-1012.00
2024-05-17 16:12:17.429618,-6,0,-8,6,-1,0,75,77,137,120,52,191.97,272,-65.00,21.00,-962.00
2024-05-17 16:12:17.433227,-6,0,-8,6,-1,0,75,77,138,120,52,191.91,272,-53.00,-36.00,-1045.00
2024-05-17 16:12:17.535193,-6,0,-8,7,-1,0,75,77,135,120,52,191.95,272,-58.00,0.00,-993.00
2024-05-17 16:12:17.637774,-5,0,-8,7,-1,0,75,77,134,120,52,191.95,272,-69.00,-6.00,-1055.00
2024-05-17 16:12:17.839256,-1,0,-8,7,-1,0,75,77,137,120,52,191.92,273,-74.00,-3.00,-922.00
2024-05-17 16:12:17.842215,1,0,-8,7,0,0,75,77,137,120,52,191.97,273,-29.00,2.00,-996.00
2024-05-17 16:12:17.945163,3,0,-9,6,0,0,75,77,139,120,52,191.97,273,-40.00,23.00,-1015.00
2024-05-17 16:12:18.046178,4,-1,-9,5,0,0,76,77,139,120,52,191.98,273,-26.00,5.00,-1005.00
2024-05-17 16:12:18.148143,3,-1,-8,4,0,0,76,77,139,120,52,191.98,273,-32.00,7.00,-1017.00
2024-05-17 16:12:18.351845,2,0,-8,3,0,0,76,77,139,120,52,192.03,273,-11.00,-21.00,-1008.00
2024-05-17 16:12:18.352010,1,0,-8,3,0,0,76,77,138,120,52,192.03,273,0.00,14.00,-950.00
2024-05-17 16:12:18.556251,0,0,-8,3,0,0,76,77,137,120,52,192.02,273,-27.00,33.00,-984.00
2024-05-17 16:12:18.556406,0,0,-8,2,0,0,76,77,137,120,52,191.97,273,-38.00,33.00,-1009.00
2024-05-17 16:12:18.659633,0,-1,-8,2,0,0,76,77,137,120,52,191.99,273,-34.00,62.00,-985.00
2024-05-17 16:12:18.761171,0,-1,-8,2,0,0,76,77,137,120,52,192.03,274,-17.00,-32.00,-1070.00
2024-05-17 16:12:18.863477,0,-1,-8,2,0,0,76,77,136,120,52,192.07,274,-33.00,9.00,-942.00
2024-05-17 16:12:18.965571,0,0,-8,2,0,0,76,77,137,120,52,192.07,274,-10.00,0.00,-1004.00
2024-05-17 16:12:19.075507,4,-1,-8,1,0,0,76,78,139,120,52,192.10,274,-6.00,19.00,-999.00
2024-05-17 16:12:19.170896,2,-1,-8,1,0,0,76,78,140,120,52,192.09,274,-35.00,21.00,-1062.00
2024-05-17 16:12:19.271256,1,0,-8,0,0,0,76,78,140,120,52,192.05,274,10.00,4.00,-1050.00
2024-05-17 16:12:19.375314,1,0,-8,0,0,0,76,78,140,120,52,192.11,274,-13.00,23.00,-1027.00
2024-05-17 16:12:19.475553,1,0,-8,0,0,-1,76,78,142,120,52,192.16,274,-41.00,2.00,-1008.00
2024-05-17 16:12:19.580204,1,0,-8,0,0,0,76,78,142,120,52,192.14,274,-13.00,0.00,-944.00
2024-05-17 16:12:19.680617,0,0,-8,0,0,0,76,78,141,120,52,192.17,274,21.00,2.00,-960.00
2024-05-17 16:12:19.785605,0,0,-8,0,0,0,76,78,141,120,52,192.11,275,-4.00,20.00,-1004.00
2024-05-17 16:12:19.883280,0,0,-8,0,0,0,76,78,141,120,52,192.10,275,30.00,15.00,-993.00
2024-05-17 16:12:19.985778,0,0,-8,0,0,0,76,78,141,120,52,192.04,275,-18.00,49.00,-937.00
2024-05-17 16:12:20.087831,0,0,-8,0,0,0,74,77,140,120,52,192.03,275,-23.00,38.00,-1007.00
2024-05-17 16:12:20.190755,0,0,-8,0,0,0,74,77,140,120,52,192.06,275,0.00,28.00,-917.00
2024-05-17 16:12:20.293054,0,0,-8,0,0,0,74,77,140,120,52,192.11,275,-1.00,26.00,-1040.00
2024-05-17 16:12:20.394767,0,0,-8,0,0,0,74,77,140,120,52,192.07,275,-20.00,1.00,-1045.00
2024-05-17 16:12:20.497432,0,0,-8,0,0,0,74,77,140,120,52,192.01,275,-20.00,6.00,-993.00
2024-05-17 16:12:20.597149,0,0,-8,0,0,0,74,77,140,120,52,192.13,275,25.00,37.00,-975.00
2024-05-17 16:12:20.699178,0,0,-8,0,0,0,74,77,139,120,52,192.07,275,4.00,14.00,-987.00
2024-05-17 16:12:20.809018,0,0,-8,0,0,0,74,77,139,120,52,192.10,276,-16.00,5.00,-1030.00
2024-05-17 16:12:20.904044,0,0,-8,0,0,0,74,77,139,120,52,192.06,276,-29.00,33.00,-907.00
2024-05-17 16:12:21.015550,0,0,-8,0,0,0,74,77,139,120,52,192.12,276,11.00,20.00,-1000.00
2024-05-17 16:12:21.107642,0,0,-8,0,0,0,74,77,139,120,52,192.14,276,12.00,9.00,-1004.00
2024-05-17 16:12:21.209110,0,0,-8,0,0,0,74,77,139,120,52,192.13,276,17.00,-3.00,-1008.00
2024-05-17 16:12:21.320838,0,-1,-8,0,0,0,74,77,139,120,52,192.07,276,4.00,0.00,-1019.00
2024-05-17 16:12:21.365199,2,0,-8,0,0,0,74,77,141,120,52,192.01,276,-11.00,-8.00,-1081.00
2024-05-17 16:12:21.464050,8,-1,-8,0,0,0,74,77,142,120,52,192.16,276,26.00,31.00,-1010.00
2024-05-17 16:12:21.628044,8,-1,-8,-2,0,0,74,77,143,120,52,192.16,276,-6.00,23.00,-1023.00
2024-05-17 16:12:21.668125,8,0,-8,-3,0,0,74,77,143,120,52,192.09,276,-4.00,58.00,-1026.00
2024-05-17 16:12:21.833081,8,0,-9,-4,0,0,74,77,142,120,52,191.97,277,4.00,18.00,-978.00
2024-05-17 16:12:21.871948,8,0,-9,-5,0,0,74,77,143,120,52,192.05,277,29.00,38.00,-998.00
2024-05-17 16:12:22.037554,7,0,-9,-6,0,0,74,77,141,120,52,192.10,277,62.00,-1.00,-999.00
2024-05-17 16:12:22.075921,6,0,-8,-7,1,0,75,77,141,120,52,192.08,277,56.00,55.00,-976.00
2024-05-17 16:12:22.242402,5,-1,-8,-7,1,0,75,77,141,120,52,192.03,277,72.00,-6.00,-1021.00
2024-05-17 16:12:22.279895,2,-1,-8,-8,1,0,75,77,142,120,52,192.07,277,63.00,6.00,-1067.00
2024-05-17 16:12:22.447135,0,0,-9,-7,1,0,75,77,139,120,52,192.02,277,54.00,30.00,-972.00
2024-05-17 16:12:22.486151,-3,0,-9,-7,0,0,75,77,140,120,52,192.07,277,11.00,8.00,-1013.00
2024-05-17 16:12:22.585886,-4,0,-9,-6,0,0,75,77,136,120,52,192.05,277,27.00,68.00,-994.00
2024-05-17 16:12:22.687894,-4,0,-9,-5,0,0,75,77,137,120,52,192.04,277,33.00,1.00,-987.00
2024-05-17 16:12:22.856750,-2,-1,-9,-4,0,0,75,77,139,120,52,192.05,278,-24.00,22.00,-1017.00
2024-05-17 16:12:22.891892,-1,0,-9,-3,0,0,75,77,137,120,52,192.04,278,24.00,5.00,-956.00
2024-05-17 16:12:23.061888,-1,0,-9,-3,0,0,75,77,138,120,52,191.98,278,11.00,-2.00,-1059.00
2024-05-17 16:12:23.095865,0,0,-9,-2,0,0,75,76,138,120,52,192.01,278,-24.00,22.00,-973.00
2024-05-17 16:12:23.266338,-1,0,-9,-2,0,0,75,76,137,120,52,191.97,278,4.00,-18.00,-1039.00
2024-05-17 16:12:23.299877,-1,0,-9,-2,0,0,75,76,137,120,52,191.98,278,14.00,33.00,-1006.00
2024-05-17 16:12:23.471635,-2,0,-8,-1,0,0,75,76,137,120,52,191.98,278,24.00,49.00,-1016.00
2024-05-17 16:12:23.505315,-3,0,-8,-1,0,0,75,76,136,120,52,192.01,278,2.00,47.00,-1002.00
2024-05-17 16:12:23.606057,-2,-1,-8,0,0,0,75,76,135,120,52,192.04,278,8.00,47.00,-965.00
2024-05-17 16:12:23.707979,-1,-1,-8,0,0,0,75,76,136,120,52,192.01,278,42.00,27.00,-995.00
2024-05-17 16:12:23.880843,0,-1,-8,0,0,0,75,76,134,120,52,191.96,279,7.00,11.00,-960.00
2024-05-17 16:12:23.911853,0,-1,-8,0,0,0,75,76,133,120,52,191.98,279,-32.00,66.00,-1020.00
2024-05-17 16:12:24.013912,0,-1,-8,0,0,0,75,76,131,120,52,192.01,279,-41.00,3.00,-967.00
2024-05-17 16:12:24.188059,0,0,-8,0,0,0,75,77,129,120,52,192.01,279,2.00,24.00,-1005.00
2024-05-17 16:12:24.217963,0,0,-8,0,0,0,75,77,129,120,52,191.97,279,43.00,3.00,-1003.00
2024-05-17 16:12:24.319903,0,0,-8,0,0,0,75,77,128,120,52,191.99,279,11.00,32.00,-1007.00
2024-05-17 16:12:24.422408,0,0,-8,0,0,0,75,77,128,120,52,192.02,279,-15.00,48.00,-1030.00
2024-05-17 16:12:24.598318,0,0,-8,0,0,0,75,77,128,120,52,192.03,279,-6.00,44.00,-1017.00
2024-05-17 16:12:24.625782,0,-1,-8,0,0,0,75,77,128,120,52,192.04,279,8.00,11.00,-1001.00
2024-05-17 16:12:24.727946,0,0,-8,0,0,0,75,77,129,120,52,192.01,279,7.00,20.00,-1029.00
2024-05-17 16:12:24.907758,0,0,-8,0,0,0,75,77,128,120,52,192.04,280,29.00,1.00,-1038.00
2024-05-17 16:12:24.933647,0,0,-8,0,0,0,75,77,128,120,52,192.01,280,33.00,0.00,-1001.00
2024-05-17 16:12:24.982980,0,0,-8,0,0,0,75,77,129,120,52,192.04,280,29.00,17.00,-1006.00
2024-05-17 16:12:25.136197,0,0,-8,0,0,0,75,76,129,120,52,191.90,280,-29.00,28.00,-986.00
2024-05-17 16:12:25.186844,0,0,-9,0,0,0,75,76,130,120,52,192.01,280,5.00,16.00,-987.00
2024-05-17 16:12:25.314527,0,-1,-9,0,0,0,75,76,131,120,52,192.02,280,12.00,18.00,-1039.00
2024-05-17 16:12:25.390900,0,-1,-9,0,0,0,75,76,131,120,52,191.97,280,39.00,8.00,-956.00
2024-05-17 16:12:25.519677,0,0,-9,0,0,0,75,76,131,120,52,191.98,280,-7.00,17.00,-937.00
2024-05-17 16:12:25.595901,0,0,-9,0,0,0,75,76,132,120,52,192.05,280,-10.00,37.00,-1016.00
2024-05-17 16:12:25.696694,0,-1,-9,0,0,0,75,76,131,120,52,192.01,280,-30.00,43.00,-1001.00
2024-05-17 16:12:25.828485,0,-1,-9,0,0,0,75,76,132,120,52,192.01,281,10.00,-1.00,-962.00
2024-05-17 16:12:25.901051,0,-8,-9,0,0,0,75,76,134,120,52,192.02,281,24.00,6.00,-1111.00
2024-05-17 16:12:26.032132,0,-8,-9,0,-1,0,75,76,133,120,52,192.03,281,10.00,-19.00,-1014.00
2024-05-17 16:12:26.104697,0,-6,-9,0,-3,0,74,76,133,120,52,191.97,281,-33.00,37.00,-1046.00
2024-05-17 16:12:26.236012,0,-3,-9,0,-4,0,74,76,133,120,52,192.01,281,0.00,20.00,-1055.00
2024-05-17 16:12:26.308665,0,0,-9,0,-4,0,74,76,132,120,52,191.94,281,36.00,-18.00,-951.00
2024-05-17 16:12:26.442926,0,1,-9,0,-3,0,74,76,132,120,52,191.91,281,-14.00,43.00,-972.00
2024-05-17 16:12:26.513234,0,0,-9,0,-3,0,74,76,133,120,52,192.01,281,16.00,31.00,-1025.00
2024-05-17 16:12:26.645862,0,0,-8,0,-3,0,74,76,133,120,52,191.97,281,2.00,50.00,-958.00
2024-05-17 16:12:26.716625,0,0,-8,0,-2,0,74,76,133,120,52,191.96,281,-12.00,32.00,-1015.00
2024-05-17 16:12:26.850330,0,0,-8,0,-2,0,74,76,132,120,52,191.98,282,32.00,40.00,-902.00
2024-05-17 16:12:26.920631,0,0,-8,0,-2,0,74,76,133,120,52,192.00,282,-10.00,26.00,-1014.00
2024-05-17 16:12:27.056333,-1,0,-8,0,-2,0,74,76,133,120,52,192.07,282,-3.00,38.00,-1018.00
2024-05-17 16:12:27.124728,0,0,-8,0,-2,0,73,77,132,120,52,192.01,282,-25.00,1.00,-1088.00
2024-05-17 16:12:27.259889,0,0,-8,0,-2,0,73,77,133,120,52,192.06,282,21.00,16.00,-1035.00
2024-05-17 16:12:27.328731,0,1,-8,0,-2,0,73,77,134,120,52,192.01,282,77.00,35.00,-942.00
2024-05-17 16:12:27.464690,0,2,-8,0,-2,0,73,77,133,120,52,191.95,282,24.00,-5.00,-949.00
2024-05-17 16:12:27.532649,3,3,-8,0,-1,0,73,77,134,120,52,192.02,282,-29.00,24.00,-1021.00
2024-05-17 16:12:27.669482,5,1,-8,0,-1,0,73,77,135,120,52,191.99,282,-19.00,10.00,-1018.00
2024-05-17 16:12:27.736605,4,0,-8,-1,0,0,73,77,134,120,52,191.97,282,3.00,47.00,-942.00
2024-05-17 16:12:27.874296,1,0,-8,-1,0,0,73,77,133,120,52,191.98,283,2.00,12.00,-1101.00
2024-05-17 16:12:27.940898,-3,1,-8,-1,0,0,73,77,134,120,52,191.96,283,10.00,38.00,-949.00
2024-05-17 16:12:28.042792,-1,0,-8,0,0,0,73,77,134,120,52,191.96,283,-35.00,0.00,-1055.00
2024-05-17 16:12:28.183497,0,0,-8,0,0,0,74,76,133,120,52,191.99,283,-6.00,-12.00,-960.00
2024-05-17 16:12:28.247883,0,0,-8,0,0,0,74,76,133,120,52,191.99,283,56.00,-5.00,-1012.00
2024-05-17 16:12:28.386683,0,0,-8,0,0,0,74,76,133,120,52,191.94,283,30.00,30.00,-1001.00
2024-05-17 16:12:28.450628,0,0,-8,0,0,0,74,76,134,120,52,192.02,283,7.00,-9.00,-963.00
2024-05-17 16:12:28.595712,0,0,-8,0,0,0,74,76,134,120,52,192.05,283,-17.00,26.00,-984.00
2024-05-17 16:12:28.654863,0,0,-8,0,0,0,74,76,134,120,52,192.03,283,4.00,12.00,-999.00
2024-05-17 16:12:28.796072,0,0,-8,0,0,0,74,76,134,120,52,192.02,284,5.00,-23.00,-1066.00
2024-05-17 16:12:28.858773,0,0,-8,0,0,0,74,76,134,120,52,192.02,284,-7.00,16.00,-995.00
2024-05-17 16:12:29.000788,0,0,-8,0,0,0,74,76,134,120,52,192.05,284,-4.00,10.00,-1020.00
2024-05-17 16:12:29.013568,0,0,-8,0,0,0,74,76,134,120,52,192.06,284,29.00,4.00,-1040.00
2024-05-17 16:12:29.205667,0,0,-8,0,0,0,74,76,134,120,52,192.07,284,50.00,-5.00,-970.00
2024-05-17 16:12:29.215792,0,0,-8,0,0,0,74,76,134,120,52,192.04,284,-36.00,4.00,-1042.00
2024-05-17 16:12:29.410442,1,0,-8,0,0,0,74,76,135,120,52,192.02,284,20.00,32.00,-987.00
2024-05-17 16:12:29.419670,0,0,-8,0,0,0,74,76,135,120,52,192.05,284,-12.00,-4.00,-1090.00
2024-05-17 16:12:29.616256,0,0,-8,0,0,0,74,76,135,120,52,192.07,284,40.00,2.00,-970.00
2024-05-17 16:12:29.627197,1,0,-8,0,0,0,74,76,134,120,52,192.03,284,9.00,-29.00,-1029.00
2024-05-17 16:12:29.725648,1,0,-8,0,0,0,74,76,135,120,52,192.05,285,51.00,-11.00,-930.00
2024-05-17 16:12:29.827751,0,0,-8,0,0,0,74,76,135,120,52,192.07,285,-21.00,19.00,-1027.00
2024-05-17 16:12:29.930341,0,0,-8,0,0,0,74,76,134,120,52,192.06,285,32.00,22.00,-973.00
2024-05-17 16:12:30.031591,0,1,-8,0,0,0,74,76,134,120,52,191.97,285,0.00,0.00,-1072.00
2024-05-17 16:12:30.229515,0,8,-8,0,0,0,73,76,137,120,52,192.07,285,42.00,25.00,-938.00
2024-05-17 16:12:30.242526,0,7,-8,0,2,0,73,76,137,120,52,192.03,285,-1.00,-29.00,-1041.00
2024-05-17 16:12:30.337468,0,4,-8,0,3,0,73,76,135,120,52,191.94,285,44.00,-15.00,-991.00
2024-05-17 16:12:30.537044,1,2,-8,0,3,0,73,76,134,120,52,191.95,285,-18.00,9.00,-998.00
2024-05-17 16:12:30.541565,1,0,-9,0,3,0,73,76,132,120,52,192.01,285,6.00,-36.00,-972.00
2024-05-17 16:12:30.741534,1,-1,-9,0,3,0,73,76,134,120,52,191.96,285,0.00,-28.00,-1102.00
2024-05-17 16:12:30.746283,1,-1,-9,0,3,0,73,76,134,120,51,192.01,286,-6.00,7.00,-1040.00
2024-05-17 16:12:30.946330,1,0,-9,0,3,0,73,76,134,120,51,192.05,286,2.00,2.00,-960.00
2024-05-17 16:12:30.949464,0,0,-9,0,2,0,73,76,134,120,51,192.01,286,14.00,-12.00,-966.00
2024-05-17 16:12:31.051899,0,0,-9,0,2,0,73,76,136,120,51,192.04,286,16.00,6.00,-967.00
2024-05-17 16:12:31.153449,0,0,-9,0,2,0,74,76,137,120,51,192.06,286,8.00,-14.00,-1016.00
2024-05-17 16:12:31.255435,0,0,-9,0,2,0,74,76,138,120,51,192.03,286,-2.00,16.00,-975.00
2024-05-17 16:12:31.458617,0,0,-8,0,2,0,74,76,139,120,51,192.10,286,1.00,-41.00,-998.00
2024-05-17 16:12:31.459646,0,0,-8,0,2,0,74,76,141,120,51,192.14,286,-14.00,3.00,-985.00
2024-05-17 16:12:31.562981,0,0,-8,0,2,0,74,76,140,120,51,192.06,286,-1.00,-19.00,-974.00
2024-05-17 16:12:31.665757,0,-1,-8,0,2,0,74,76,141,120,51,192.09,286,3.00,-18.00,-1057.00
2024-05-17 16:12:31.767891,0,-2,-8,0,1,0,74,76,142,120,51,192.03,287,-6.00,3.00,-974.00
2024-05-17 16:12:31.867467,0,-3,-8,0,1,0,74,76,143,120,51,192.09,287,-8.00,-35.00,-948.00
2024-05-17 16:12:31.971759,0,-1,-8,0,0,0,74,76,142,120,51,192.15,287,-30.00,-13.00,-1010.00
2024-05-17 16:12:32.074419,0,-1,-8,0,0,0,74,76,142,120,51,192.08,287,1.00,15.00,-971.00
2024-05-17 16:12:32.174884,0,-1,-9,0,0,0,74,77,143,120,51,192.05,287,-30.00,4.00,-1025.00
2024-05-17 16:12:32.275505,0,-1,-9,0,0,0,74,77,143,120,51,192.12,287,-2.00,19.00,-1051.00
2024-05-17 16:12:32.381107,0,-1,-8,0,0,0,74,77,143,120,51,192.16,287,-23.00,13.00,-990.00
2024-05-17 16:12:32.479428,0,-1,-8,0,0,0,74,77,145,120,51,192.17,287,6.00,15.00,-998.00
2024-05-17 16:12:32.586035,0,-2,-8,0,0,0,74,77,145,130,51,192.09,287,-32.00,24.00,-1025.00
2024-05-17 16:12:32.685366,0,-2,-8,0,0,0,74,77,145,130,51,192.09,287,26.00,-23.00,-920.00
2024-05-17 16:12:32.785541,0,-1,-8,0,0,0,74,77,143,130,51,192.08,288,-4.00,25.00,-977.00
2024-05-17 16:12:32.836562,0,-1,-8,0,0,0,74,77,142,130,51,192.11,288,12.00,-4.00,-985.00
2024-05-17 16:12:32.994835,1,-1,-8,0,0,0,74,77,141,120,51,192.02,288,35.00,7.00,-956.00
2024-05-17 16:12:33.040576,1,0,-8,0,0,0,74,77,139,120,51,192.05,288,-48.00,15.00,-1009.00
2024-05-17 16:12:33.204201,0,0,-9,0,0,1,74,76,137,120,51,192.08,288,-29.00,30.00,-1013.00
2024-05-17 16:12:33.247166,0,0,-9,0,0,1,74,76,134,120,51,191.95,288,15.00,-12.00,-1018.00
2024-05-17 16:12:33.349145,0,0,-9,0,0,1,74,76,133,120,51,191.99,288,3.00,7.00,-979.00
2024-05-17 16:12:33.448434,0,0,-9,0,0,0,74,76,132,120,51,192.01,288,-7.00,40.00,-1069.00
2024-05-17 16:12:33.608791,0,-1,-8,0,0,0,74,76,132,120,51,191.94,288,-6.00,18.00,-1111.00
2024-05-17 16:12:33.652398,0,-1,-8,0,0,0,74,76,132,120,51,191.96,288,15.00,-7.00,-1000.00
2024-05-17 16:12:33.754410,0,0,-8,0,0,0,74,76,132,120,50,192.03,289,17.00,11.00,-1036.00
2024-05-17 16:12:33.916611,0,0,-8,0,0,0,74,76,132,120,50,191.99,289,-21.00,2.00,-1043.00
2024-05-17 16:12:33.958677,0,-1,-8,0,0,0,74,76,132,120,50,192.00,289,36.00,0.00,-1032.00
2024-05-17 16:12:34.061204,0,0,-8,0,0,0,74,76,133,120,50,192.04,289,-16.00,45.00,-926.00
2024-05-17 16:12:34.223400,0,0,-5,0,0,0,73,76,132,120,50,192.01,289,-2.00,0.00,-1022.00
2024-05-17 16:12:34.264267,0,0,0,0,0,0,73,76,133,120,50,192.02,289,5.00,6.00,-958.00
2024-05-17 16:12:34.428054,0,0,6,0,0,0,73,76,133,120,50,192.06,289,-7.00,-11.00,-1006.00
2024-05-17 16:12:34.468209,0,0,12,0,0,0,73,76,133,120,50,191.96,289,12.00,8.00,-999.00
2024-05-17 16:12:34.632763,0,0,18,0,0,0,73,76,133,120,50,191.95,289,21.00,2.00,-1032.00
2024-05-17 16:12:34.672311,1,0,24,0,0,0,73,76,133,120,50,192.02,289,-21.00,33.00,-998.00
2024-05-17 16:12:34.837439,0,0,30,0,0,0,73,76,132,120,50,192.02,290,4.00,14.00,-952.00
2024-05-17 16:12:34.876224,0,0,36,0,0,0,73,76,132,120,50,191.98,290,38.00,0.00,-1038.00
2024-05-17 16:12:35.042246,0,0,42,0,0,0,73,76,131,120,50,191.98,290,63.00,5.00,-976.00
2024-05-17 16:12:35.081012,0,0,48,0,0,0,73,76,130,120,50,191.94,290,27.00,-19.00,-1057.00
2024-05-17 16:12:35.247029,0,0,54,0,0,0,73,76,130,120,50,191.93,290,-18.00,17.00,-976.00
2024-05-17 16:12:35.284194,0,0,60,0,0,0,73,76,129,120,50,192.01,290,44.00,19.00,-1018.00
2024-05-17 16:12:35.451918,0,0,67,0,0,0,73,76,130,120,50,192.00,290,-2.00,-14.00,-1081.00
2024-05-17 16:12:35.488285,0,0,73,0,0,0,73,76,130,120,50,192.04,290,25.00,-4.00,-966.00
2024-05-17 16:12:35.656629,0,0,79,0,0,0,73,76,130,120,50,192.04,290,-38.00,46.00,-1010.00
2024-05-17 16:12:35.692294,0,0,85,0,0,0,73,76,130,120,50,191.95,290,-16.00,26.00,-972.00
2024-05-17 16:12:35.861441,0,0,90,0,0,0,73,76,131,120,50,191.95,291,-18.00,25.00,-1036.00
2024-05-17 16:12:35.897877,0,0,96,0,0,0,73,76,132,120,50,191.96,291,-17.00,9.00,-977.00
2024-05-17 16:12:35.998208,0,0,102,0,0,0,73,76,133,120,50,191.96,291,-4.00,-25.00,-996.00
2024-05-17 16:12:36.170371,0,0,108,0,0,0,73,76,135,120,50,192.01,291,-5.00,15.00,-988.00
2024-05-17 16:12:36.206387,0,0,114,0,0,0,73,77,135,120,50,191.97,291,6.00,-10.00,-1004.00
2024-05-17 16:12:36.306807,0,0,120,0,0,0,73,77,137,120,50,192.01,291,31.00,7.00,-961.00
2024-05-17 16:12:36.407283,0,0,126,0,0,0,73,77,137,120,50,191.94,291,-10.00,-19.00,-930.00
2024-05-17 16:12:36.578735,0,0,131,0,0,0,73,77,137,120,50,192.05,291,10.00,-33.00,-956.00
2024-05-17 16:12:36.610096,0,0,137,0,0,0,73,77,138,120,50,191.95,291,-7.00,-13.00,-992.00
2024-05-17 16:12:36.661442,-1,0,143,0,0,0,73,77,138,120,50,192.00,291,-10.00,-17.00,-981.00
2024-05-17 16:12:36.763069,0,0,149,0,0,0,73,77,138,120,50,192.03,292,-42.00,-4.00,-982.00
2024-05-17 16:12:36.885400,-1,0,155,0,0,0,73,77,138,120,50,192.04,292,19.00,-22.00,-1008.00
2024-05-17 16:12:36.967109,-1,0,161,0,0,0,73,77,138,120,50,192.00,292,10.00,26.00,-993.00
2024-05-17 16:12:37.069107,-1,0,166,0,0,0,73,77,137,120,50,191.94,292,-12.00,14.00,-1027.00
2024-05-17 16:12:37.222199,-1,0,172,0,0,0,74,77,137,120,50,191.97,292,-14.00,5.00,-980.00
2024-05-17 16:12:37.273170,-1,0,178,0,0,0,74,77,137,120,50,191.99,292,1.00,13.00,-1037.00
2024-05-17 16:12:37.397414,-1,0,-175,0,0,0,74,77,137,120,50,191.97,292,-18.00,-7.00,-998.00
2024-05-17 16:12:37.477045,-1,0,-170,0,0,0,74,77,136,120,50,192.05,292,4.00,-44.00,-1011.00
2024-05-17 16:12:37.602274,-1,0,-164,0,0,0,74,77,136,120,50,191.96,292,-12.00,-4.00,-1048.00
2024-05-17 16:12:37.681073,-1,0,-158,0,0,0,74,77,137,120,49,191.97,292,-23.00,-10.00,-1021.00
2024-05-17 16:12:37.807000,-1,0,-153,0,0,0,74,77,137,120,49,191.95,293,0.00,-12.00,-1006.00
2024-05-17 16:12:37.885196,-1,0,-147,0,0,0,74,77,137,120,49,191.96,293,-47.00,32.00,-988.00
2024-05-17 16:12:38.012028,-1,0,-141,0,0,0,74,77,137,120,49,192.01,293,-14.00,-5.00,-1045.00
2024-05-17 16:12:38.089034,-1,0,-136,0,0,0,74,77,138,120,49,191.99,293,-43.00,34.00,-992.00
2024-05-17 16:12:38.217158,-1,0,-130,0,0,0,74,76,138,120,49,192.05,293,8.00,-9.00,-991.00
2024-05-17 16:12:38.293031,-1,0,-124,0,0,0,74,76,139,120,49,192.00,293,-6.00,-7.00,-1004.00
2024-05-17 16:12:38.421404,-1,0,-118,0,0,0,74,76,139,120,49,192.03,293,-4.00,-9.00,-1057.00
2024-05-17 16:12:38.497021,0,0,-112,0,0,0,74,76,140,120,49,192.03,293,-37.00,-12.00,-944.00
2024-05-17 16:12:38.626328,-1,0,-106,0,0,0,74,76,139,120,49,192.07,293,0.00,7.00,-1042.00
2024-05-17 16:12:38.701223,-1,0,-99,0,0,0,74,76,139,120,49,192.03,293,-6.00,-21.00,-1030.00
2024-05-17 16:12:38.831017,0,0,-93,0,0,0,74,76,139,120,49,192.07,294,-65.00,71.00,-977.00
2024-05-17 16:12:38.905005,0,0,-87,0,0,0,74,76,138,120,49,192.12,294,-2.00,-13.00,-992.00
2024-05-17 16:12:39.035922,-1,0,-81,0,0,0,74,76,137,120,49,192.02,294,10.00,-12.00,-1021.00
2024-05-17 16:12:39.110402,-1,0,-75,0,0,0,74,76,137,120,49,192.09,294,5.00,0.00,-967.00
2024-05-17 16:12:39.240589,0,0,-69,0,0,0,74,76,136,120,49,192.03,294,-24.00,-3.00,-965.00
2024-05-17 16:12:39.312930,0,0,-63,0,0,0,74,76,136,120,49,191.95,294,-33.00,24.00,-1031.00
2024-05-17 16:12:39.445400,0,0,-56,0,0,0,74,76,134,120,49,191.98,294,7.00,-29.00,-1017.00
2024-05-17 16:12:39.516958,0,0,-50,0,0,0,74,76,134,120,49,192.05,294,4.00,-11.00,-1021.00
2024-05-17 16:12:39.650205,0,0,-44,0,0,0,74,76,132,120,49,192.05,294,-10.00,28.00,-1005.00
2024-05-17 16:12:39.721200,0,0,-38,0,0,0,74,76,131,120,49,192.02,294,-40.00,36.00,-963.00
2024-05-17 16:12:39.855260,0,0,-32,0,0,0,74,76,131,120,49,192.03,295,-15.00,14.00,-969.00
2024-05-17 16:12:39.925674,0,0,-27,0,0,0,74,76,133,120,49,192.01,295,-13.00,2.00,-1057.00
2024-05-17 16:12:40.026932,0,0,-22,0,0,0,74,76,133,120,49,191.94,295,-1.00,6.00,-1092.00
2024-05-17 16:12:40.128953,0,0,-19,0,0,0,74,76,131,120,49,192.01,295,7.00,12.00,-1039.00
2024-05-17 16:12:40.267260,0,0,-16,0,0,0,73,76,131,120,49,192.04,295,10.00,26.00,-1049.00
2024-05-17 16:12:40.334695,0,0,-14,0,0,0,73,76,131,120,49,191.97,295,31.00,-2.00,-992.00
2024-05-17 16:12:40.435120,0,0,-13,0,0,0,73,76,132,120,49,192.01,295,16.00,-15.00,-1073.00
2024-05-17 16:12:40.571812,0,0,-12,0,0,0,73,76,133,120,49,191.98,295,7.00,-30.00,-1031.00
2024-05-17 16:12:40.639954,0,0,-11,0,0,0,73,76,134,120,49,192.02,295,-17.00,-19.00,-1010.00
2024-05-17 16:12:40.741013,0,0,-10,0,0,0,73,76,134,120,49,192.05,295,-23.00,8.00,-908.00
2024-05-17 16:12:40.791866,0,0,-10,0,0,0,73,76,134,120,49,192.03,296,24.00,-11.00,-997.00
2024-05-17 16:12:40.981541,0,0,-10,0,0,0,73,76,135,120,49,191.95,296,28.00,7.00,-912.00
2024-05-17 16:12:40.996657,0,0,-10,0,0,0,73,76,136,120,49,192.10,296,14.00,4.00,-1003.00
2024-05-17 16:12:41.186661,0,0,-10,0,0,0,73,76,135,120,49,191.96,296,-1.00,7.00,-976.00
2024-05-17 16:12:41.199965,0,0,-10,0,0,0,74,76,136,120,49,192.03,296,-31.00,26.00,-979.00
2024-05-17 16:12:41.391243,0,0,-10,0,0,0,74,76,135,120,49,192.06,296,8.00,32.00,-1014.00
2024-05-17 16:12:41.403845,0,0,-10,0,0,0,74,76,136,120,49,192.04,296,26.00,1.00,-951.00
2024-05-17 16:12:41.596280,0,0,-10,0,0,0,74,76,136,120,49,192.01,296,57.00,-28.00,-955.00
2024-05-17 16:12:41.608156,0,0,-10,0,0,0,74,76,136,120,49,192.06,296,30.00,-6.00,-1014.00
2024-05-17 16:12:41.802241,0,0,-10,0,0,0,74,76,136,120,48,192.03,296,-5.00,-11.00,-1037.00
2024-05-17 16:12:41.813211,0,0,-10,0,0,0,74,76,136,120,48,192.03,297,10.00,5.00,-983.00
2024-05-17 16:12:42.005505,0,0,-10,0,0,0,74,76,135,120,48,192.03,297,-7.00,-13.00,-1035.00
2024-05-17 16:12:42.017219,0,0,-10,0,0,0,74,76,135,120,48,192.11,297,11.00,8.00,-1020.00
2024-05-17 16:12:42.216704,0,0,-10,0,0,0,74,76,135,120,48,192.10,297,19.00,-11.00,-1009.00
2024-05-17 16:12:42.233119,0,0,-10,0,0,0,74,76,134,120,48,192.02,297,38.00,-32.00,-939.00
2024-05-17 16:12:42.323160,0,0,-10,0,0,0,74,76,134,120,48,192.06,297,-14.00,20.00,-1012.00
2024-05-17 16:12:42.517777,0,0,-10,0,0,0,74,76,133,120,48,192.06,297,30.00,-15.00,-1006.00
2024-05-17 16:12:42.528542,0,0,-10,0,0,0,74,76,133,120,48,192.06,297,-9.00,36.00,-1012.00
2024-05-17 16:12:42.628897,0,0,-10,0,0,0,74,76,132,120,48,192.03,297,18.00,12.00,-1003.00
2024-05-17 16:12:42.824796,0,0,-12,0,0,0,74,76,132,120,48,192.03,298,-44.00,19.00,-1039.00
2024-05-17 16:12:42.832871,0,0,-18,0,0,0,74,76,132,120,48,192.07,298,-32.00,20.00,-1079.00
2024-05-17 16:12:43.029441,0,0,-24,0,0,0,74,76,132,120,48,192.01,298,7.00,13.00,-994.00
2024-05-17 16:12:43.037998,0,0,-29,0,0,0,74,76,133,120,48,191.94,298,-18.00,4.00,-1074.00
2024-05-17 16:12:43.234225,0,0,-35,0,0,0,74,76,134,120,48,192.02,298,19.00,-7.00,-961.00
2024-05-17 16:12:43.241482,0,0,-41,0,0,0,73,76,134,120,48,192.03,298,11.00,-14.00,-994.00
2024-05-17 16:12:43.438999,0,0,-46,0,0,0,73,76,135,120,48,192.06,298,13.00,39.00,-1003.00
2024-05-17 16:12:43.445027,0,-1,-52,0,0,0,73,76,136,120,48,192.00,298,-8.00,18.00,-967.00
2024-05-17 16:12:43.643755,0,-1,-58,0,0,0,73,76,137,120,48,192.07,298,-2.00,24.00,-986.00
2024-05-17 16:12:43.648707,0,-1,-64,0,0,0,73,76,137,120,48,192.11,298,-2.00,13.00,-975.00
2024-05-17 16:12:43.750718,0,-1,-70,0,0,0,73,76,137,120,48,192.12,299,-48.00,22.00,-1021.00
2024-05-17 16:12:43.950963,0,-1,-76,0,0,0,73,76,137,120,48,192.14,299,15.00,38.00,-988.00
2024-05-17 16:12:43.954672,0,-1,-82,0,0,0,73,76,138,120,48,192.02,299,-27.00,-5.00,-1007.00
2024-05-17 16:12:44.057426,0,0,-87,0,0,0,73,76,138,120,48,192.05,299,-14.00,38.00,-957.00
2024-05-17 16:12:44.158908,-1,0,-93,0,0,0,73,76,139,120,48,192.11,299,-10.00,-9.00,-1056.00
2024-05-17 16:12:44.260868,-1,0,-99,0,0,0,73,75,139,120,48,192.03,299,0.00,13.00,-957.00
2024-05-17 16:12:44.362685,-1,0,-105,0,0,0,73,75,139,120,48,192.01,299,24.00,5.00,-979.00
2024-05-17 16:12:44.464706,-1,0,-111,0,0,0,73,75,139,120,48,191.97,299,-39.00,-6.00,-1037.00
2024-05-17 16:12:44.671568,-1,0,-117,0,0,0,73,75,138,120,48,192.02,299,-27.00,24.00,-980.00
2024-05-17 16:12:44.671650,-1,0,-123,0,0,0,73,75,138,120,48,192.13,299,-45.00,12.00,-1069.00
2024-05-17 16:12:44.720004,-1,0,-129,0,0,0,73,75,138,120,48,192.02,300,-10.00,-34.00,-998.00
2024-05-17 16:12:44.872540,-1,0,-135,0,0,0,73,75,138,120,48,191.98,300,-48.00,15.00,-1092.00
2024-05-17 16:12:44.924300,-1,0,-142,0,0,0,73,75,137,120,48,192.07,300,3.00,-7.00,-957.00
2024-05-17 16:12:45.077346,-1,0,-148,0,0,0,73,75,137,120,48,191.91,300,0.00,-22.00,-977.00
2024-05-17 16:12:45.127789,-1,1,-154,0,0,0,73,75,137,120,48,191.95,300,-14.00,-18.00,-988.00
2024-05-17 16:12:45.283952,-1,0,-160,0,0,0,74,76,137,120,48,191.95,300,-5.00,-28.00,-1031.00
2024-05-17 16:12:45.331726,0,0,-166,0,0,0,74,76,136,120,48,192.08,300,-7.00,-35.00,-1057.00
2024-05-17 16:12:45.486970,0,1,-172,0,0,0,74,76,136,120,48,192.08,300,3.00,-30.00,-977.00
2024-05-17 16:12:45.535691,0,1,-179,0,0,0,74,76,136,120,48,192.04,300,-2.00,-15.00,-1031.00
2024-05-17 16:12:45.691661,0,1,174,0,0,0,74,76,136,120,48,192.04,300,4.00,-13.00,-959.00
2024-05-17 16:12:45.739858,0,1,168,0,0,0,74,76,136,120,47,192.05,301,-51.00,-4.00,-1014.00
2024-05-17 16:12:45.896753,0,1,161,0,0,0,74,76,136,120,47,192.04,301,9.00,-11.00,-1019.00
2024-05-17 16:12:45.944593,0,0,155,0,0,0,74,76,135,120,47,192.08,301,-18.00,-24.00,-988.00
2024-05-17 16:12:46.046596,-1,1,149,0,0,0,74,76,136,120,47,191.99,301,-12.00,-21.00,-1010.00
2024-05-17 16:12:46.203686,0,1,143,0,0,0,74,76,136,120,47,192.02,301,17.00,-28.00,-1032.00
2024-05-17 16:12:46.250587,0,0,136,0,0,0,73,75,136,120,47,192.02,301,-37.00,1.00,-957.00
2024-05-17 16:12:46.408531,0,0,130,0,0,0,73,75,136,120,47,191.99,301,5.00,14.00,-1029.00
2024-05-17 16:12:46.454770,0,1,124,0,0,0,73,75,136,120,47,192.00,301,6.00,-15.00,-1001.00
2024-05-17 16:12:46.613314,0,1,118,0,0,0,73,75,137,120,47,192.05,301,14.00,0.00,-983.00
2024-05-17 16:12:46.666546,0,1,112,0,0,0,73,75,138,120,47,192.00,301,-15.00,37.00,-983.00
2024-05-17 16:12:46.760758,0,1,105,0,0,0,73,75,139,120,47,192.02,302,-5.00,-13.00,-1021.00
2024-05-17 16:12:46.920522,0,1,99,0,0,0,73,75,139,120,47,192.10,302,-2.00,-42.00,-1069.00
2024-05-17 16:12:46.964558,0,1,93,0,0,0,73,75,140,120,47,192.10,302,45.00,-40.00,-1027.00
2024-05-17 16:12:47.125353,0,1,87,0,0,0,73,75,142,120,47,192.11,302,-17.00,-11.00,-996.00
2024-05-17 16:12:47.168541,0,1,81,0,0,0,73,75,143,120,47,192.13,302,17.00,6.00,-946.00
2024-05-17 16:12:47.330168,0,0,76,0,0,0,74,76,144,120,47,192.06,302,17.00,-8.00,-1093.00
2024-05-17 16:12:47.372468,0,0,70,0,0,0,74,76,145,120,47,192.06,302,11.00,-24.00,-1048.00
2024-05-17 16:12:47.534920,0,0,64,0,0,0,74,76,144,130,47,192.11,302,32.00,-9.00,-982.00
2024-05-17 16:12:47.576519,0,0,57,0,0,0,74,76,145,130,47,192.06,302,-9.00,49.00,-944.00
2024-05-17 16:12:47.739743,0,0,51,0,0,0,74,76,144,130,47,192.06,302,7.00,7.00,-973.00
2024-05-17 16:12:47.780496,0,0,45,0,0,0,74,76,144,130,47,192.11,303,3.00,11.00,-967.00
2024-05-17 16:12:47.944522,0,0,39,0,0,0,74,76,144,130,47,192.02,303,-9.00,39.00,-994.00
2024-05-17 16:12:47.984534,0,0,33,0,0,0,74,76,142,130,47,192.06,303,12.00,-16.00,-989.00
2024-05-17 16:12:48.035782,0,0,27,0,0,0,74,76,143,120,47,192.08,303,-19.00,37.00,-1032.00
2024-05-17 16:12:48.152679,0,0,21,0,0,0,74,76,142,120,47,192.04,303,40.00,22.00,-1011.00
2024-05-17 16:12:48.239525,0,0,15,0,0,0,74,76,142,120,47,192.01,303,53.00,16.00,-990.00
2024-05-17 16:12:48.354180,0,0,9,0,0,0,74,76,140,120,47,192.03,303,26.00,9.00,-992.00
2024-05-17 16:12:48.443444,0,0,4,0,0,0,74,76,140,120,47,192.04,303,17.00,12.00,-983.00
2024-05-17 16:12:48.558914,1,0,0,0,0,0,74,76,139,120,47,192.08,303,20.00,-7.00,-980.00
2024-05-17 16:12:48.647435,0,0,-1,0,0,0,74,76,138,120,47,192.05,303,-6.00,22.00,-1069.00
2024-05-17 16:12:48.764221,0,0,-3,0,0,0,74,76,136,120,47,192.02,304,37.00,-5.00,-1007.00
2024-05-17 16:12:48.851434,0,0,-5,0,0,0,74,76,136,120,47,192.00,304,-15.00,27.00,-1008.00
2024-05-17 16:12:48.971315,0,0,-6,0,0,0,74,76,134,120,47,192.00,304,-5.00,0.00,-981.00
2024-05-17 16:12:49.055928,0,0,-7,0,0,0,74,76,134,120,47,192.02,304,-13.00,20.00,-1023.00
2024-05-17 16:12:49.176304,0,0,-8,0,0,0,74,76,133,120,47,191.99,304,-6.00,30.00,-1054.00
2024-05-17 16:12:49.259585,0,0,-8,0,0,0,73,76,133,120,47,191.95,304,39.00,-11.00,-970.00
2024-05-17 16:12:49.378590,0,0,-8,0,0,0,73,76,133,120,47,191.94,304,12.00,40.00,-1000.00
2024-05-17 16:12:49.463612,0,0,-8,0,0,0,73,76,133,120,47,191.98,304,27.00,-13.00,-973.00
2024-05-17 16:12:49.583000,0,0,-8,0,0,0,73,76,133,120,47,192.01,304,-2.00,39.00,-1021.00
2024-05-17 16:12:49.667615,0,0,-8,0,0,0,73,76,133,120,47,191.98,304,26.00,-22.00,-1022.00
2024-05-17 16:12:49.773951,0,0,-8,0,0,0,73,76,133,120,47,192.00,305,22.00,12.00,-1044.00
2024-05-17 16:12:49.871871,0,0,-8,0,0,0,73,76,134,120,47,192.02,305,38.00,1.00,-972.00
2024-05-17 16:12:49.994406,0,0,-8,0,0,0,73,76,133,120,47,192.05,305,35.00,7.00,-922.00
2024-05-17 16:12:50.075691,0,0,-8,0,0,0,73,76,133,120,47,192.12,305,-13.00,23.00,-970.00
2024-05-17 16:12:50.197379,0,0,-8,0,0,0,73,76,133,120,47,192.10,305,39.00,-2.00,-991.00
2024-05-17 16:12:50.279645,0,-1,-8,0,0,0,73,75,133,120,47,192.01,305,-16.00,2.00,-984.00
2024-05-17 16:12:50.404311,0,-1,-8,0,0,0,73,75,132,120,47,192.02,305,7.00,0.00,-960.00
2024-05-17 16:12:50.483591,0,-1,-8,0,0,0,73,75,131,120,47,192.01,305,7.00,3.00,-1154.00
2024-05-17 16:12:50.607492,0,0,-8,0,0,0,73,75,129,120,47,191.99,305,9.00,13.00,-962.00
2024-05-17 16:12:50.687736,0,0,-8,0,0,0,73,75,129,120,47,192.01,305,15.00,-10.00,-1070.00
2024-05-17 16:12:50.791406,0,0,-8,0,0,0,73,75,128,120,47,191.98,306,-27.00,23.00,-999.00
2024-05-17 16:12:50.891740,0,0,-8,0,0,0,73,75,129,120,47,191.93,306,13.00,17.00,-1015.00
2024-05-17 16:12:51.016740,1,0,-8,0,0,0,73,75,129,120,47,191.99,306,-20.00,32.00,-1005.00
2024-05-17 16:12:51.095976,1,0,-8,0,0,0,73,75,130,120,47,191.98,306,10.00,29.00,-996.00
2024-05-17 16:12:51.199293,1,0,-8,0,0,0,73,75,130,120,47,192.04,306,32.00,-6.00,-993.00
2024-05-17 16:12:51.299609,1,0,-8,0,0,0,73,76,130,120,47,192.17,306,-9.00,54.00,-919.00
2024-05-17 16:12:51.429889,1,0,-8,0,0,0,73,76,131,120,47,191.98,306,38.00,4.00,-1037.00
2024-05-17 16:12:51.503407,0,0,-8,0,0,0,73,76,131,120,47,192.01,306,7.00,9.00,-916.00
2024-05-17 16:12:51.631056,0,0,-8,0,0,0,73,76,132,120,47,191.99,306,28.00,5.00,-1028.00
2024-05-17 16:12:51.707412,0,0,-8,0,0,0,73,76,132,120,46,191.97,306,15.00,26.00,-1018.00
2024-05-17 16:12:51.809660,0,0,-8,0,0,0,73,76,133,120,46,192.09,307,-5.00,30.00,-971.00
2024-05-17 16:12:51.860576,0,0,-8,0,0,0,73,76,133,120,46,191.99,307,63.00,9.00,-980.00
2024-05-17 16:12:52.040796,0,0,-8,0,0,0,73,76,133,120,46,192.05,307,5.00,50.00,-912.00
2024-05-17 16:12:52.064318,0,0,-8,0,0,0,73,76,134,120,46,192.03,307,13.00,-15.00,-1066.00
2024-05-17 16:12:52.245458,0,0,-8,0,0,0,73,76,134,120,46,192.02,307,12.00,-41.00,-1030.00
2024-05-17 16:12:52.319471,0,0,-8,0,0,0,74,76,135,120,46,192.05,307,24.00,-3.00,-1022.00
2024-05-17 16:12:52.450710,0,0,-8,0,0,0,74,76,134,120,46,192.02,307,-30.00,68.00,-999.00
2024-05-17 16:12:52.474993,0,0,-8,0,0,0,74,76,134,120,46,191.98,307,36.00,-5.00,-1027.00
2024-05-17 16:12:52.575863,0,0,-8,0,0,0,74,76,134,120,46,192.03,307,-8.00,21.00,-1003.00
2024-05-17 16:12:52.676324,0,0,-8,0,0,0,74,76,135,120,46,192.03,307,15.00,10.00,-1053.00
2024-05-17 16:12:52.782720,0,0,-8,0,0,0,74,76,135,120,46,192.01,308,30.00,12.00,-1064.00
2024-05-17 16:12:52.883392,0,0,-8,0,0,0,74,76,135,120,46,191.97,308,-32.00,43.00,-960.00
2024-05-17 16:12:52.985776,0,0,-8,0,0,0,74,76,135,120,46,191.97,308,12.00,-2.00,-987.00
2024-05-17 16:12:53.084726,0,0,-8,0,0,0,74,76,136,120,46,192.06,308,20.00,-10.00,-1041.00
2024-05-17 16:12:53.273789,0,0,-8,0,0,0,74,76,136,120,46,192.00,308,7.00,-10.00,-1067.00
2024-05-17 16:12:53.288301,0,0,-8,0,0,0,73,75,137,120,46,192.07,308,13.00,19.00,-999.00
2024-05-17 16:12:53.475147,0,0,-8,0,0,0,73,75,137,120,46,192.06,308,19.00,-7.00,-1009.00
2024-05-17 16:12:53.492299,0,0,-8,0,0,0,73,75,137,120,46,192.09,308,-12.00,-3.00,-1023.00
2024-05-17 16:12:53.678981,0,0,-8,0,0,0,73,75,138,120,46,192.07,308,-1.00,11.00,-1002.00
2024-05-17 16:12:53.702769,0,0,-8,0,0,0,73,75,138,120,46,192.13,308,3.00,35.00,-993.00
2024-05-17 16:12:53.807455,0,0,-8,0,0,0,73,75,138,120,46,192.12,309,6.00,9.00,-976.00
2024-05-17 16:12:53.900714,0,0,-8,0,0,0,73,75,138,120,46,192.11,309,42.00,0.00,-1025.00
2024-05-17 16:12:54.090201,0,0,-8,0,0,0,73,75,138,120,46,192.13,309,-17.00,9.00,-981.00
2024-05-17 16:12:54.104572,0,0,-8,0,0,0,73,75,138,120,46,192.16,309,33.00,-16.00,-976.00
2024-05-17 16:12:54.206177,0,0,-8,0,0,0,73,75,138,120,46,192.10,309,-3.00,-10.00,-1066.00
2024-05-17 16:12:54.308275,0,0,-8,0,0,0,73,76,138,120,46,192.15,309,0.00,19.00,-971.00
2024-05-17 16:12:54.498379,0,0,-8,0,0,0,73,76,138,120,46,192.08,309,-45.00,25.00,-1035.00
2024-05-17 16:12:54.515650,0,0,-8,0,0,0,73,76,138,120,46,192.12,309,-47.00,16.00,-1038.00
2024-05-17 16:12:54.614306,0,0,-8,0,0,0,73,76,138,120,46,192.14,309,28.00,-31.00,-1041.00
2024-05-17 16:12:54.806808,0,0,-8,0,0,0,73,76,138,120,46,192.12,309,-11.00,29.00,-950.00
2024-05-17 16:12:54.818181,0,0,-8,0,0,0,73,76,138,120,46,192.14,310,51.00,-3.00,-994.00
2024-05-17 16:12:55.010108,0,0,-8,0,0,0,73,76,138,120,46,192.17,310,56.00,6.00,-1053.00
2024-05-17 16:12:55.022602,0,0,-8,0,0,0,73,76,138,120,46,192.13,310,-7.00,17.00,-997.00
2024-05-17 16:12:55.215043,0,0,-8,0,0,0,73,76,138,120,46,192.20,310,2.00,31.00,-957.00
2024-05-17 16:12:55.227670,0,0,-8,0,0,0,73,76,138,120,46,192.11,310,-24.00,23.00,-994.00
2024-05-17 16:12:55.328505,0,0,-8,0,0,0,73,75,138,120,46,192.21,310,-4.00,20.00,-1001.00
2024-05-17 16:12:55.430206,0,0,-8,0,0,0,73,75,138,120,46,192.17,310,6.00,-4.00,-1011.00
2024-05-17 16:12:55.624532,0,0,-8,0,0,0,73,75,138,120,46,192.18,310,0.00,-2.00,-1050.00
2024-05-17 16:12:55.634047,0,0,-8,0,0,0,73,75,138,120,46,192.08,310,24.00,31.00,-945.00
2024-05-17 16:12:55.829438,0,0,-8,0,0,0,73,75,137,120,45,192.08,310,24.00,15.00,-997.00
2024-05-17 16:12:55.838093,0,0,-8,0,0,0,73,75,137,120,45,192.13,311,-7.00,-2.00,-1014.00
2024-05-17 16:12:55.889126,0,0,-8,0,0,0,73,75,137,120,45,192.05,311,4.00,7.00,-996.00
2024-05-17 16:12:56.035281,0,0,-8,0,0,0,73,75,137,120,45,192.10,311,-10.00,8.00,-1068.00
2024-05-17 16:12:56.094993,0,0,-8,0,0,0,73,75,137,120,45,192.15,311,-1.00,-11.00,-1036.00
2024-05-17 16:12:56.195119,0,0,-8,0,0,0,73,75,136,120,45,192.10,311,-17.00,14.00,-1035.00
2024-05-17 16:12:56.341599,0,-1,-8,0,0,0,73,75,136,120,45,192.07,311,-9.00,37.00,-957.00
2024-05-17 16:12:56.401686,0,0,-8,0,0,0,73,75,136,120,45,192.10,311,27.00,23.00,-1002.00
2024-05-17 16:12:56.501700,0,0,-8,0,0,0,73,75,136,120,45,192.08,311,20.00,-9.00,-1017.00
2024-05-17 16:12:56.649089,0,0,-8,0,0,0,73,75,135,120,45,192.10,311,-44.00,-6.00,-977.00
2024-05-17 16:12:56.705615,0,0,-8,0,0,0,73,75,136,120,45,192.04,311,-41.00,19.00,-980.00
2024-05-17 16:12:56.807279,0,0,-8,0,0,0,73,75,135,120,45,192.06,312,-40.00,11.00,-1055.00
2024-05-17 16:12:56.956212,0,0,-8,0,0,0,73,75,135,120,45,192.05,312,-13.00,21.00,-989.00
2024-05-17 16:12:57.011319,0,0,-8,0,0,0,73,75,135,120,45,192.04,312,-4.00,21.00,-880.00
2024-05-17 16:12:57.161102,0,0,-8,0,0,0,73,75,135,120,45,192.06,312,-17.00,31.00,-935.00
2024-05-17 16:12:57.215564,0,0,-8,0,0,0,73,75,135,120,45,192.13,312,-30.00,12.00,-982.00
2024-05-17 16:12:57.317116,0,0,-8,0,0,0,73,75,135,120,45,192.08,312,25.00,-5.00,-1035.00
2024-05-17 16:12:57.467847,0,0,-8,0,0,0,73,75,136,120,45,192.09,312,2.00,-8.00,-1064.00
2024-05-17 16:12:57.521171,0,0,-8,0,0,0,73,75,136,120,45,192.08,312,-49.00,29.00,-1065.00
2024-05-17 16:12:57.672999,0,0,-8,0,0,0,73,75,136,120,45,192.02,312,-54.00,0.00,-1008.00
2024-05-17 16:12:57.725627,0,0,-8,0,0,0,73,75,136,120,45,192.05,313,3.00,-21.00,-1010.00
2024-05-17 16:12:57.827072,0,0,-8,0,0,0,73,75,136,120,45,192.08,313,-6.00,-5.00,-1030.00
2024-05-17 16:12:57.979802,0,0,-8,0,0,0,73,75,137,120,45,192.01,313,9.00,17.00,-1023.00
2024-05-17 16:12:58.031137,0,0,-8,0,0,0,73,75,137,120,45,192.05,313,4.00,18.00,-1005.00
2024-05-17 16:12:58.184758,0,0,-8,0,0,0,73,75,137,120,45,192.10,313,15.00,13.00,-1040.00
2024-05-17 16:12:58.235108,0,0,-8,0,0,0,73,75,137,120,45,192.11,313,14.00,4.00,-959.00
2024-05-17 16:12:58.389354,0,0,-8,0,0,0,73,75,137,120,45,192.07,313,-25.00,14.00,-1005.00
2024-05-17 16:12:58.439560,0,0,-8,0,0,0,73,75,137,120,45,192.12,313,-3.00,14.00,-1031.00
2024-05-17 16:12:58.594246,0,0,-8,0,0,0,73,75,138,120,45,192.12,313,-18.00,2.00,-1032.00
2024-05-17 16:12:58.643032,0,0,-8,0,0,0,73,75,138,120,45,192.15,313,-25.00,17.00,-1085.00
2024-05-17 16:12:58.799030,0,0,-8,0,0,0,73,75,138,120,45,192.13,314,-11.00,11.00,-965.00
2024-05-17 16:12:58.847080,0,0,-8,0,0,0,73,75,138,120,45,192.10,314,-6.00,11.00,-998.00
2024-05-17 16:12:59.003847,0,0,-8,0,0,0,73,75,138,120,45,192.16,314,-30.00,10.00,-1006.00
2024-05-17 16:12:59.054554,0,0,-8,0,0,0,73,75,138,120,45,192.12,314,-43.00,41.00,-924.00
2024-05-17 16:12:59.154666,0,0,-8,0,0,0,73,75,137,120,45,192.14,314,-24.00,7.00,-1074.00
2024-05-17 16:12:59.255387,0,0,-8,0,0,0,73,75,137,120,45,192.11,314,-10.00,21.00,-924.00
2024-05-17 16:12:59.357157,0,0,-8,0,0,0,73,75,137,120,45,192.11,314,-23.00,39.00,-943.00
2024-05-17 16:12:59.515643,0,0,-8,0,0,0,73,75,137,120,45,192.14,314,-46.00,17.00,-966.00
2024-05-17 16:12:59.561167,0,0,-8,0,0,0,73,75,136,120,45,192.10,314,7.00,19.00,-966.00
2024-05-17 16:12:59.720635,0,0,-8,0,0,0,73,75,136,120,45,192.08,314,8.00,2.00,-989.00
2024-05-17 16:12:59.765510,0,0,-8,0,0,0,73,75,136,120,45,192.10,315,25.00,18.00,-871.00
2024-05-17 16:12:59.925421,0,0,-8,0,0,0,73,75,136,120,45,192.10,315,-12.00,7.00,-1070.00
2024-05-17 16:12:59.969474,0,0,-8,0,0,0,73,75,136,120,45,192.08,315,-21.00,2.00,-1014.00
2024-05-17 16:13:00.020003,0,0,-8,0,0,0,73,75,135,120,45,192.09,315,-22.00,22.00,-1039.00
2024-05-17 16:13:00.130216,0,0,-8,0,0,0,73,75,135,120,45,192.09,315,-5.00,29.00,-947.00
2024-05-17 16:13:00.224143,0,0,-8,0,0,0,73,75,135,120,45,192.06,315,37.00,-28.00,-1040.00
2024-05-17 16:13:00.439384,0,-1,-8,0,0,0,73,75,135,120,45,192.13,315,17.00,35.00,-954.00
2024-05-17 16:13:00.478855,0,-1,-8,0,0,0,73,75,136,120,45,192.11,315,-7.00,16.00,-1026.00
2024-05-17 16:13:00.642737,0,0,-8,0,0,0,73,75,136,120,45,192.17,315,-41.00,-9.00,-988.00
2024-05-17 16:13:00.642912,0,0,-8,0,0,0,73,75,137,120,45,192.18,315,5.00,-26.00,-953.00
2024-05-17 16:13:00.745956,0,0,-8,0,0,0,73,75,137,120,45,192.15,316,33.00,-9.00,-978.00
2024-05-17 16:13:00.836110,0,0,-8,0,0,0,73,75,138,120,45,192.16,316,24.00,34.00,-920.00
2024-05-17 16:13:00.949958,0,0,-8,0,0,0,73,75,138,120,45,192.06,316,-38.00,40.00,-942.00
2024-05-17 16:13:01.039946,0,0,-8,0,0,0,73,75,138,120,45,192.13,316,-12.00,-5.00,-1016.00
2024-05-17 16:13:01.154252,0,0,-8,0,0,0,73,75,139,120,45,192.16,316,-15.00,-2.00,-1018.00
2024-05-17 16:13:01.243892,0,0,-8,0,0,0,73,75,139,120,45,192.22,316,-11.00,12.00,-985.00
2024-05-17 16:13:01.359002,0,-1,-8,0,0,0,73,75,139,120,45,192.09,316,-19.00,13.00,-985.00
2024-05-17 16:13:01.449687,0,0,-8,0,0,0,73,75,139,120,45,192.11,316,0.00,17.00,-999.00
2024-05-17 16:13:01.549936,0,0,-8,0,0,0,73,75,139,120,45,192.10,316,2.00,-21.00,-997.00
2024-05-17 16:13:01.652083,0,0,-8,0,0,0,73,75,138,120,45,192.12,316,3.00,-15.00,-1124.00
2024-05-17 16:13:01.768587,0,0,-8,0,0,0,73,75,138,120,45,192.18,317,-17.00,0.00,-1068.00
2024-05-17 16:13:01.855942,0,0,-8,0,0,0,73,75,138,120,45,192.12,317,-21.00,3.00,-1063.00
2024-05-17 16:13:02.078326,0,-1,-8,0,0,0,73,75,138,120,45,192.04,317,-16.00,7.00,-1082.00
2024-05-17 16:13:02.081447,0,-1,-8,0,0,0,73,75,138,120,45,192.17,317,-34.00,6.00,-974.00
2024-05-17 16:13:02.161954,0,0,-8,0,0,0,73,75,138,120,45,192.16,317,-16.00,37.00,-994.00
2024-05-17 16:13:02.280693,0,-1,-8,0,0,0,73,75,138,120,45,192.12,317,-15.00,17.00,-967.00
2024-05-17 16:13:02.366632,0,0,-8,0,0,0,73,75,138,120,45,192.07,317,-3.00,22.00,-1035.00
2024-05-17 16:13:02.488177,0,-1,-8,0,0,0,73,75,138,120,45,192.12,317,3.00,30.00,-990.00
