TS,pitch,roll,yaw,vgx,vgy,vgz,templ,temph,tof,h,bat,baro,time,agx,agy,agz
2024-05-17 16:14:18.772699,0,0,-4,0,0,0,82,84,10,0,43,190.54,323,2.00,-2.00,-1000.00
2024-05-17 16:14:18.871768,0,0,-4,0,0,0,82,84,10,0,43,190.53,323,0.00,-5.00,-1001.00
2024-05-17 16:14:18.974219,0,0,-4,0,0,0,82,84,10,0,43,190.56,323,2.00,-3.00,-998.00
2024-05-17 16:14:19.076473,0,0,-4,0,0,0,82,84,10,0,43,190.56,323,2.00,-5.00,-1000.00
2024-05-17 16:14:19.179767,0,0,-4,0,0,0,82,84,10,0,43,190.60,323,2.00,-5.00,-1001.00
2024-05-17 16:14:19.281543,0,0,-4,0,0,0,82,84,10,0,43,190.52,323,3.00,-3.00,-1000.00
2024-05-17 16:14:19.383266,0,0,-4,0,0,0,82,84,10,0,43,190.54,323,1.00,-4.00,-1002.00
2024-05-17 16:14:19.432700,0,0,-4,0,0,0,82,84,10,0,43,190.52,323,2.00,-4.00,-1001.00
2024-05-17 16:14:19.593274,0,0,-4,0,0,0,82,84,10,0,43,190.50,323,2.00,-4.00,-998.00
2024-05-17 16:14:19.636806,0,0,-4,0,0,0,82,84,10,0,43,190.56,323,0.00,-4.00,-1000.00
2024-05-17 16:14:19.796742,0,0,-4,0,0,0,82,84,10,0,43,190.58,323,2.00,-3.00,-1001.00
2024-05-17 16:14:19.840814,0,0,-4,0,0,0,82,84,10,0,43,190.54,323,1.00,-5.00,-1000.00
2024-05-17 16:14:20.001639,0,0,-4,0,0,0,82,84,10,0,43,190.52,323,1.00,-4.00,-999.00
2024-05-17 16:14:20.044609,0,0,-4,0,0,0,82,84,10,0,43,190.53,323,3.00,-3.00,-999.00
2024-05-17 16:14:20.206377,0,0,-4,0,0,0,82,84,10,0,43,190.50,323,1.00,-4.00,-1002.00
2024-05-17 16:14:20.248554,0,0,-4,0,0,0,82,84,10,0,43,190.57,323,3.00,-6.00,-1001.00
2024-05-17 16:14:20.411146,0,0,-4,0,0,0,82,84,10,0,43,190.55,323,2.00,-3.00,-998.00
2024-05-17 16:14:20.452767,0,0,-4,0,0,0,82,84,10,0,43,190.52,323,3.00,-4.00,-1001.00
2024-05-17 16:14:20.615768,0,0,-4,0,0,0,82,84,10,0,43,190.55,323,2.00,-5.00,-1000.00
2024-05-17 16:14:20.656855,0,0,-4,0,0,0,82,84,10,0,43,190.53,323,1.00,-4.00,-997.00
2024-05-17 16:14:20.820735,0,0,-4,0,0,0,82,85,10,0,43,190.55,323,2.00,-2.00,-996.00
2024-05-17 16:14:20.860632,0,0,-4,0,0,0,82,85,10,0,43,190.55,323,1.00,-3.00,-1001.00
2024-05-17 16:14:21.025589,0,0,-4,0,0,0,82,85,10,0,43,190.54,323,0.00,-3.00,-999.00
2024-05-17 16:14:21.064526,0,0,-4,0,0,0,82,85,10,0,43,190.52,323,0.00,-4.00,-1000.00
2024-05-17 16:14:21.230326,0,0,-4,0,0,0,82,85,10,0,43,190.52,323,2.00,-5.00,-999.00
2024-05-17 16:14:21.268813,0,0,-4,0,0,0,82,85,10,0,43,190.55,323,2.00,-3.00,-1000.00
2024-05-17 16:14:21.435179,0,0,-4,0,0,0,82,85,10,0,43,190.54,323,2.00,-3.00,-1003.00
2024-05-17 16:14:21.472713,0,0,-4,0,0,0,82,85,10,0,43,190.56,323,2.00,-5.00,-1003.00
2024-05-17 16:14:21.639998,0,0,-4,0,0,0,82,85,10,0,43,190.58,323,2.00,-4.00,-999.00
2024-05-17 16:14:21.676682,0,0,-4,0,0,0,82,85,10,0,43,190.57,323,3.00,-4.00,-998.00
2024-05-17 16:14:21.844801,0,0,-4,0,0,0,82,84,10,0,43,190.57,323,3.00,-4.00,-999.00
2024-05-17 16:14:21.880976,0,0,-4,0,0,0,82,84,10,0,43,190.53,323,0.00,-3.00,-998.00
2024-05-17 16:14:22.049650,0,0,-4,0,0,0,82,84,10,0,43,190.50,323,2.00,-3.00,-999.00
2024-05-17 16:14:22.084536,0,0,-4,0,0,0,82,84,10,0,43,190.56,323,2.00,-4.00,-1001.00
2024-05-17 16:14:22.255067,0,0,-4,0,0,0,82,84,10,0,43,190.57,323,2.00,-4.00,-999.00
2024-05-17 16:14:22.288529,0,0,-4,0,0,0,82,84,10,0,43,190.52,323,1.00,-3.00,-997.00
2024-05-17 16:14:22.459218,0,0,-4,0,0,0,82,84,10,0,43,190.55,323,2.00,-2.00,-1001.00
2024-05-17 16:14:22.492634,0,0,-4,0,0,0,82,84,10,0,43,190.53,323,3.00,-3.00,-997.00
2024-05-17 16:14:22.664056,0,0,-4,0,0,0,82,84,10,0,43,190.51,323,2.00,-3.00,-999.00
2024-05-17 16:14:22.664264,0,0,-4,0,0,0,82,84,10,0,43,190.59,323,1.00,-4.00,-1001.00
2024-05-17 16:14:22.868556,0,0,-4,0,0,0,82,85,10,0,43,190.55,323,1.00,-4.00,-996.00
2024-05-17 16:14:22.868632,0,0,-4,0,0,0,82,85,10,0,43,190.55,323,3.00,-3.00,-999.00
2024-05-17 16:14:22.951391,0,0,-4,0,0,0,82,85,10,0,43,190.55,323,2.00,-5.00,-998.00
2024-05-17 16:14:23.053984,0,0,-4,0,0,0,82,85,10,0,43,190.55,323,7.00,-2.00,-1000.00
2024-05-17 16:14:23.175755,0,0,-4,0,0,0,82,85,10,0,43,190.55,323,2.00,-9.00,-1003.00
2024-05-17 16:14:23.261098,0,0,-5,0,0,0,82,85,10,0,43,190.55,323,5.00,1.00,-1005.00
2024-05-17 16:14:23.359450,0,0,-6,0,0,0,82,85,10,0,43,190.55,323,11.00,-34.00,-968.00
2024-05-17 16:14:23.484148,1,-1,-7,0,0,0,82,85,10,0,43,190.55,323,10.00,-32.00,-982.00
2024-05-17 16:14:23.563408,0,0,-7,0,0,-3,82,85,10,0,43,190.55,323,-22.00,-8.00,-1134.00
2024-05-17 16:14:23.687764,0,0,-7,0,0,-5,82,85,13,0,43,190.63,323,-34.00,-39.00,-1306.00
2024-05-17 16:14:23.767423,-1,1,-7,0,0,-6,82,85,22,0,43,190.93,324,-55.00,4.00,-1037.00
2024-05-17 16:14:23.892594,-1,0,-7,0,0,-7,82,85,30,0,43,190.96,324,21.00,-15.00,-1059.00
2024-05-17 16:14:23.973446,-1,0,-7,0,0,-7,82,85,40,10,43,191.03,324,-33.00,5.00,-953.00
2024-05-17 16:14:24.075479,-1,0,-7,0,0,-7,82,85,48,20,43,191.15,324,-12.00,32.00,-963.00
2024-05-17 16:14:24.175347,-1,0,-7,0,0,-6,82,85,54,20,43,191.24,324,29.00,13.00,-892.00
2024-05-17 16:14:24.302196,-1,0,-7,0,0,-5,82,85,61,30,43,191.30,324,-13.00,0.00,-900.00
2024-05-17 16:14:24.379336,-1,0,-7,0,0,-4,82,85,67,30,43,191.33,324,14.00,-27.00,-819.00
2024-05-17 16:14:24.508512,0,0,-7,0,0,-3,82,85,73,40,43,191.45,324,26.00,-36.00,-897.00
2024-05-17 16:14:24.583334,0,0,-7,0,0,-2,82,85,77,40,43,191.45,324,-13.00,13.00,-977.00
2024-05-17 16:14:24.711765,0,0,-7,0,0,-1,82,85,81,40,43,191.52,324,23.00,-35.00,-909.00
2024-05-17 16:14:24.787598,0,0,-7,0,0,-1,82,84,84,50,43,191.57,325,15.00,13.00,-939.00
2024-05-17 16:14:24.916587,0,0,-7,0,0,0,82,84,85,50,43,191.59,325,52.00,1.00,-985.00
2024-05-17 16:14:24.991587,0,0,-7,0,0,0,82,84,86,50,43,191.61,325,-14.00,-9.00,-959.00
2024-05-17 16:14:25.093302,0,0,-7,0,0,0,82,84,87,50,43,191.65,325,10.00,-18.00,-1011.00
2024-05-17 16:14:25.195648,0,0,-7,0,0,0,82,84,88,50,43,191.64,325,-6.00,31.00,-968.00
2024-05-17 16:14:25.297570,0,0,-7,0,0,0,82,84,89,50,43,191.64,325,15.00,35.00,-874.00
2024-05-17 16:14:25.428568,0,0,-7,0,0,0,82,84,89,50,43,191.56,325,-2.00,32.00,-969.00
2024-05-17 16:14:25.501260,0,0,-7,0,0,0,82,84,89,50,43,191.64,325,-1.00,-32.00,-1037.00
2024-05-17 16:14:25.636068,0,0,-7,0,0,0,82,84,89,50,43,191.70,325,10.00,17.00,-992.00
2024-05-17 16:14:25.714369,0,0,-7,0,0,0,82,84,90,50,43,191.70,325,-16.00,26.00,-985.00
2024-05-17 16:14:25.815393,0,0,-7,0,0,0,82,85,90,50,43,191.64,326,32.00,7.00,-963.00
2024-05-17 16:14:25.909228,0,0,-7,0,0,0,82,85,88,50,43,191.72,326,-10.00,2.00,-1031.00
2024-05-17 16:14:26.011144,0,0,-7,0,0,0,82,85,89,50,43,191.61,326,-5.00,57.00,-955.00
2024-05-17 16:14:26.117102,0,0,-7,0,0,0,82,85,88,50,43,191.69,326,40.00,15.00,-986.00
2024-05-17 16:14:26.215155,0,0,-7,0,0,0,82,85,89,50,43,191.64,326,19.00,-21.00,-1003.00
2024-05-17 16:14:26.350126,0,0,-7,0,0,0,82,85,88,50,43,191.66,326,0.00,33.00,-1008.00
2024-05-17 16:14:26.419277,1,0,-7,0,0,0,82,85,87,50,43,191.59,326,-18.00,8.00,-966.00
2024-05-17 16:14:26.470182,0,0,-7,0,0,0,82,85,86,50,43,191.69,326,-14.00,-22.00,-1074.00
2024-05-17 16:14:26.657354,0,0,-7,0,0,1,82,85,85,50,43,191.67,326,26.00,-20.00,-1003.00
2024-05-17 16:14:26.674316,0,0,-7,0,0,0,82,85,84,50,43,191.61,326,-30.00,-24.00,-1038.00
2024-05-17 16:14:26.866655,0,0,-7,0,0,0,82,84,82,50,43,191.63,327,-21.00,0.00,-1025.00
2024-05-17 16:14:26.878731,0,0,-7,0,0,0,82,84,81,50,43,191.47,327,15.00,17.00,-1017.00
2024-05-17 16:14:27.066904,0,0,-7,0,0,0,82,84,80,50,43,191.52,327,-3.00,-24.00,-1063.00
2024-05-17 16:14:27.082083,0,0,-7,0,0,0,82,84,80,50,43,191.57,327,9.00,4.00,-987.00
2024-05-17 16:14:27.271730,0,0,-7,0,0,0,82,84,80,50,43,191.57,327,30.00,8.00,-1054.00
2024-05-17 16:14:27.286149,0,0,-7,0,0,0,82,84,79,50,43,191.53,327,38.00,-20.00,-1023.00
2024-05-17 16:14:27.477670,0,0,-7,0,0,0,82,84,79,50,43,191.55,327,38.00,-16.00,-983.00
2024-05-17 16:14:27.490495,0,0,-7,0,0,0,82,84,78,50,43,191.55,327,3.00,0.00,-974.00
2024-05-17 16:14:27.681387,0,0,-7,0,0,0,82,84,77,50,43,191.56,327,-27.00,15.00,-950.00
2024-05-17 16:14:27.695611,0,0,-7,0,0,0,82,84,77,50,43,191.61,327,6.00,34.00,-1007.00
2024-05-17 16:14:27.856629,0,0,-7,0,0,0,82,84,76,50,43,191.49,328,-27.00,24.00,-1022.00
2024-05-17 16:14:27.898117,0,0,-7,0,0,0,82,84,76,40,43,191.45,328,-8.00,40.00,-1001.00
2024-05-17 16:14:28.091241,0,-1,-7,0,0,0,82,84,76,40,43,191.50,328,16.00,-28.00,-1029.00
2024-05-17 16:14:28.102075,0,-1,-7,0,0,0,82,84,75,40,43,191.54,328,-15.00,4.00,-967.00
2024-05-17 16:14:28.204237,0,-1,-7,0,0,0,82,84,74,40,43,191.49,328,-37.00,2.00,-1055.00
2024-05-17 16:14:28.306007,0,-1,-7,0,0,0,82,84,74,40,43,191.50,328,-16.00,18.00,-992.00
2024-05-17 16:14:28.408684,0,-1,-7,0,0,0,82,84,75,40,43,191.48,328,-2.00,-37.00,-995.00
2024-05-17 16:14:28.511416,0,0,-7,0,0,0,82,84,74,40,43,191.47,328,-21.00,28.00,-965.00
2024-05-17 16:14:28.705631,0,0,-7,0,0,0,82,84,74,40,43,191.51,328,-3.00,-19.00,-952.00
2024-05-17 16:14:28.716809,0,0,-7,0,0,0,82,84,74,40,43,191.50,328,-5.00,0.00,-961.00
2024-05-17 16:14:28.824481,0,0,-7,0,0,0,81,83,75,40,43,191.50,329,-29.00,21.00,-1009.00
2024-05-17 16:14:28.919457,0,0,-7,0,0,0,81,83,75,40,43,191.50,329,-24.00,40.00,-1018.00
2024-05-17 16:14:29.027900,0,0,-7,0,0,0,81,83,76,40,43,191.55,329,35.00,-53.00,-1060.00
2024-05-17 16:14:29.123464,0,0,-7,0,0,0,81,83,76,40,43,191.55,329,25.00,37.00,-993.00
2024-05-17 16:14:29.319800,0,0,-7,0,0,0,81,83,77,40,43,191.56,329,5.00,20.00,-1001.00
2024-05-17 16:14:29.332135,0,0,-7,0,0,0,81,83,77,40,43,191.55,329,16.00,-9.00,-1012.00
2024-05-17 16:14:29.429198,0,0,-7,0,0,0,81,83,77,50,43,191.59,329,34.00,-11.00,-1030.00
2024-05-17 16:14:29.531585,0,0,-7,0,0,0,81,83,78,50,43,191.60,329,-4.00,13.00,-1033.00
2024-05-17 16:14:29.633237,0,-1,-7,0,0,0,81,83,78,50,43,191.58,329,-6.00,20.00,-945.00
2024-05-17 16:14:29.832345,0,-1,-7,0,0,0,81,83,80,50,43,191.58,329,3.00,32.00,-943.00
2024-05-17 16:14:29.837161,0,-1,-7,0,0,0,81,83,80,50,43,191.54,330,-3.00,-7.00,-958.00
2024-05-17 16:14:29.939460,0,0,-7,0,0,0,81,83,81,50,43,191.53,330,6.00,-13.00,-985.00
2024-05-17 16:14:30.042792,0,0,-7,0,0,0,81,83,81,50,43,191.55,330,13.00,-1.00,-1032.00
2024-05-17 16:14:30.143332,0,0,-7,0,0,0,81,83,82,50,43,191.55,330,0.00,21.00,-947.00
2024-05-17 16:14:30.194170,0,0,-7,0,0,0,81,83,82,50,43,191.61,330,8.00,9.00,-941.00
2024-05-17 16:14:30.344306,0,0,-7,0,0,0,81,83,82,50,43,191.57,330,0.00,-4.00,-982.00
2024-05-17 16:14:30.398182,0,0,-7,0,0,0,81,83,82,50,43,191.58,330,-16.00,13.00,-1038.00
2024-05-17 16:14:30.500128,0,0,-7,0,0,0,81,83,82,50,43,191.62,330,12.00,-21.00,-1020.00
2024-05-17 16:14:30.655802,0,0,-7,0,0,0,81,83,83,50,43,191.58,330,10.00,-18.00,-1064.00
2024-05-17 16:14:30.703944,0,0,-7,0,0,0,81,83,83,50,43,191.62,330,10.00,24.00,-1048.00
2024-05-17 16:14:30.857070,0,0,-7,0,0,-2,81,83,85,50,43,191.63,331,-26.00,28.00,-1098.00
2024-05-17 16:14:30.908018,0,-1,-7,0,0,-3,81,83,88,60,43,191.63,331,-21.00,4.00,-1091.00
2024-05-17 16:14:31.060488,0,-1,-7,0,0,-4,81,83,91,60,43,191.62,331,-9.00,15.00,-1047.00
2024-05-17 16:14:31.114722,0,-1,-7,0,0,-4,81,83,96,60,43,191.71,331,-38.00,29.00,-1043.00
2024-05-17 16:14:31.213884,0,-1,-7,0,0,-5,81,83,101,70,43,191.77,331,11.00,0.00,-1029.00
2024-05-17 16:14:31.367703,0,-1,-7,0,0,-5,81,83,106,70,43,191.77,331,-37.00,35.00,-1102.00
2024-05-17 16:14:31.418525,0,-1,-7,0,0,-5,81,83,112,80,43,191.87,331,-13.00,10.00,-988.00
2024-05-17 16:14:31.572489,0,-1,-7,0,0,-5,81,83,117,80,43,191.94,331,-19.00,31.00,-985.00
2024-05-17 16:14:31.626952,0,-1,-7,0,0,-5,81,83,123,90,43,191.93,331,-8.00,32.00,-999.00
2024-05-17 16:14:31.723950,0,-1,-7,0,0,-5,81,83,129,100,43,192.03,332,30.00,-9.00,-966.00
2024-05-17 16:14:31.879702,0,-1,-7,0,0,-5,80,83,135,100,43,192.02,332,10.00,-11.00,-990.00
2024-05-17 16:14:31.928236,0,0,-7,0,0,-5,80,83,141,110,43,192.10,332,11.00,4.00,-999.00
2024-05-17 16:14:32.029908,0,-1,-7,0,0,-5,80,83,147,110,43,192.16,332,7.00,13.00,-961.00
2024-05-17 16:14:32.187025,0,-1,-7,0,0,-4,80,83,152,120,43,192.23,332,28.00,-2.00,-970.00
2024-05-17 16:14:32.234594,0,-1,-7,0,0,-4,80,83,157,120,43,192.21,332,5.00,23.00,-964.00
2024-05-17 16:14:32.391888,0,-1,-7,0,0,-3,80,83,161,130,43,192.28,332,-43.00,11.00,-924.00
2024-05-17 16:14:32.438352,0,-1,-7,0,0,-3,80,83,164,130,43,192.37,332,32.00,40.00,-900.00
2024-05-17 16:14:32.596703,0,-1,-7,0,0,-2,80,83,168,130,43,192.37,332,-21.00,35.00,-944.00
2024-05-17 16:14:32.641960,0,-1,-7,0,0,-2,80,83,170,140,43,192.44,332,-6.00,-4.00,-950.00
2024-05-17 16:14:32.801253,0,-1,-7,0,0,-1,80,83,174,140,43,192.38,333,5.00,15.00,-1018.00
2024-05-17 16:14:32.845882,0,-1,-7,0,0,-1,80,83,176,140,43,192.42,333,-17.00,8.00,-962.00
2024-05-17 16:14:33.006070,0,-1,-7,0,0,-1,80,83,179,140,43,192.46,333,-2.00,32.00,-921.00
2024-05-17 16:14:33.049743,0,-1,-7,0,0,-1,80,83,181,140,43,192.47,333,10.00,28.00,-948.00
2024-05-17 16:14:33.211147,0,-1,-7,0,0,-1,80,83,185,150,43,192.46,333,-15.00,39.00,-993.00
2024-05-17 16:14:33.258137,0,-1,-7,0,0,-1,80,83,187,150,43,192.53,333,9.00,-15.00,-946.00
2024-05-17 16:14:33.357704,0,0,-7,0,0,-1,80,83,189,150,43,192.48,333,15.00,-4.00,-982.00
2024-05-17 16:14:33.518654,0,0,-7,0,0,-1,80,83,190,150,43,192.48,333,-3.00,14.00,-995.00
2024-05-17 16:14:33.563921,0,0,-7,0,0,0,80,83,191,150,43,192.50,333,-11.00,31.00,-964.00
2024-05-17 16:14:33.662894,0,-1,-7,0,0,0,80,83,193,150,43,192.57,333,13.00,15.00,-1007.00
2024-05-17 16:14:33.826796,0,-1,-7,0,0,0,80,83,192,160,43,192.61,334,15.00,-10.00,-1025.00
2024-05-17 16:14:33.867114,0,-1,-7,0,0,0,80,82,194,160,43,192.50,334,18.00,-23.00,-1001.00
2024-05-17 16:14:34.030129,0,-1,-7,0,0,0,80,82,194,160,43,192.54,334,-24.00,-18.00,-972.00
2024-05-17 16:14:34.071879,0,-1,-7,0,0,0,80,82,194,160,43,192.61,334,-7.00,12.00,-964.00
2024-05-17 16:14:34.172798,0,-1,-7,0,0,0,80,82,194,160,43,192.57,334,-20.00,6.00,-1033.00
2024-05-17 16:14:34.337393,0,-1,-7,0,0,0,80,82,193,160,43,192.55,334,-44.00,34.00,-928.00
2024-05-17 16:14:34.337568,0,0,-7,0,0,0,80,82,193,160,43,192.53,334,-8.00,11.00,-1020.00
2024-05-17 16:14:34.428902,0,0,-7,0,0,0,80,82,192,160,43,192.61,334,26.00,9.00,-916.00
2024-05-17 16:14:34.529893,0,0,-7,0,0,0,80,82,191,160,43,192.55,334,-62.00,24.00,-1052.00
2024-05-17 16:14:34.634048,0,-1,-6,0,0,0,80,82,190,160,43,192.55,334,-19.00,-23.00,-1042.00
2024-05-17 16:14:34.734509,0,0,-7,0,0,0,80,82,190,160,43,192.52,335,11.00,6.00,-990.00
2024-05-17 16:14:34.849403,0,0,-7,0,0,0,80,82,189,160,43,192.57,335,-39.00,7.00,-999.00
2024-05-17 16:14:34.937851,0,0,-7,0,0,0,80,82,189,160,43,192.56,335,35.00,15.00,-933.00
2024-05-17 16:14:35.054347,0,0,-7,0,0,0,80,82,188,150,43,192.55,335,-48.00,37.00,-1048.00
2024-05-17 16:14:35.141801,0,0,-7,0,0,0,80,82,188,150,43,192.53,335,16.00,15.00,-959.00
2024-05-17 16:14:35.258852,0,-1,-7,0,0,0,80,82,187,150,43,192.56,335,-17.00,27.00,-979.00
2024-05-17 16:14:35.345677,0,-1,-7,0,0,0,80,82,185,150,43,192.50,335,7.00,-6.00,-915.00
2024-05-17 16:14:35.463694,0,-1,-7,0,0,1,80,82,185,150,43,192.51,335,13.00,12.00,-957.00
2024-05-17 16:14:35.551413,0,-1,-7,0,0,1,80,82,183,150,43,192.43,335,1.00,-17.00,-939.00
2024-05-17 16:14:35.651955,0,-1,-7,0,0,2,80,82,180,150,43,192.49,335,0.00,5.00,-977.00
2024-05-17 16:14:35.770850,0,-1,-7,0,0,2,80,82,178,150,43,192.49,336,17.00,-21.00,-1048.00
2024-05-17 16:14:35.855893,0,-1,-7,0,0,2,79,81,176,140,43,192.40,336,5.00,1.00,-1018.00
2024-05-17 16:14:35.975651,0,-1,-7,0,0,2,79,81,172,140,43,192.46,336,3.00,22.00,-898.00
2024-05-17 16:14:36.060586,0,-1,-7,0,0,2,79,81,170,140,43,192.37,336,2.00,38.00,-951.00
2024-05-17 16:14:36.180441,0,-1,-7,0,0,2,79,81,167,140,43,192.38,336,4.00,18.00,-992.00
2024-05-17 16:14:36.267395,0,-1,-7,0,0,2,79,81,164,130,43,192.34,336,0.00,-10.00,-1001.00
2024-05-17 16:14:36.367077,0,-1,-7,0,0,2,79,81,161,130,43,192.29,336,-1.00,27.00,-996.00
2024-05-17 16:14:36.488174,0,-1,-7,0,0,2,79,81,157,130,43,192.31,336,32.00,43.00,-919.00
2024-05-17 16:14:36.578123,0,-1,-6,0,0,2,79,81,154,120,43,192.28,336,-19.00,50.00,-1012.00
2024-05-17 16:14:36.672614,0,-1,-6,0,0,2,79,81,152,120,43,192.17,336,-8.00,1.00,-1077.00
2024-05-17 16:14:36.797266,0,-1,-7,0,0,2,79,81,150,120,43,192.21,337,-11.00,25.00,-1033.00
2024-05-17 16:14:36.876612,0,-1,-7,0,0,1,79,81,148,120,43,192.20,337,6.00,-1.00,-1047.00
2024-05-17 16:14:36.999616,0,-1,-7,0,0,1,79,81,146,120,43,192.23,337,16.00,2.00,-993.00
2024-05-17 16:14:37.086311,0,-1,-7,0,0,1,79,81,144,110,43,192.13,337,-28.00,16.00,-959.00
2024-05-17 16:14:37.182708,0,-1,-7,0,0,1,79,81,142,110,43,192.17,337,14.00,22.00,-952.00
2024-05-17 16:14:37.306835,0,-1,-7,0,0,1,79,81,141,110,43,192.15,337,-12.00,21.00,-957.00
2024-05-17 16:14:37.387614,0,-1,-7,0,0,1,79,81,140,110,43,192.06,337,46.00,8.00,-972.00
2024-05-17 16:14:37.490393,0,-1,-7,0,0,0,79,81,140,110,43,192.11,337,-36.00,22.00,-1056.00
2024-05-17 16:14:37.591857,0,-1,-7,0,0,0,79,81,138,110,43,192.17,337,9.00,7.00,-1041.00
2024-05-17 16:14:37.694376,0,-1,-7,0,0,0,79,81,138,110,43,192.10,337,-2.00,11.00,-1058.00
2024-05-17 16:14:37.795584,0,-1,-7,0,0,0,79,81,138,110,43,192.09,338,-7.00,0.00,-1005.00
2024-05-17 16:14:37.899658,0,-1,-7,0,0,0,79,81,138,110,43,192.01,338,-33.00,19.00,-1068.00
2024-05-17 16:14:37.998851,0,-1,-7,0,0,0,79,81,138,110,43,192.04,338,-39.00,35.00,-1037.00
2024-05-17 16:14:38.049997,0,-1,-7,0,0,0,79,81,138,110,43,192.21,338,-20.00,22.00,-1003.00
2024-05-17 16:14:38.228548,0,-1,-7,0,0,0,79,81,138,110,43,192.10,338,16.00,10.00,-1017.00
2024-05-17 16:14:38.254645,0,-1,-7,0,0,0,79,81,138,110,43,191.99,338,41.00,-3.00,-1002.00
2024-05-17 16:14:38.435879,0,-1,-7,0,0,0,79,81,138,110,43,192.01,338,33.00,13.00,-989.00
2024-05-17 16:14:38.457631,1,-1,-7,0,0,0,79,81,138,110,43,192.07,338,-6.00,-30.00,-1058.00
2024-05-17 16:14:38.638171,0,-1,-7,0,0,0,79,81,137,110,43,192.09,338,19.00,-11.00,-1009.00
2024-05-17 16:14:38.661543,0,-1,-7,0,0,0,79,81,137,110,43,192.05,338,18.00,1.00,-1062.00
2024-05-17 16:14:38.843896,0,-1,-7,0,0,0,79,81,137,110,43,191.99,339,5.00,-9.00,-1049.00
2024-05-17 16:14:38.868732,0,-1,-7,0,0,0,78,80,137,110,43,192.07,339,11.00,-29.00,-1040.00
2024-05-17 16:14:38.967775,0,-1,-7,0,0,0,78,80,137,110,43,192.11,339,11.00,-7.00,-1007.00
2024-05-17 16:14:39.150729,0,-1,-7,0,0,0,78,80,137,110,43,192.06,339,13.00,30.00,-1038.00
2024-05-17 16:14:39.172071,0,0,-7,0,0,0,78,80,137,110,43,192.06,339,-2.00,7.00,-1010.00
2024-05-17 16:14:39.339657,0,0,-7,0,0,0,78,80,137,110,43,192.11,339,3.00,23.00,-1082.00
2024-05-17 16:14:39.376800,0,-1,-7,0,0,0,78,80,138,110,43,192.03,339,-8.00,30.00,-1021.00
2024-05-17 16:14:39.559758,0,-1,-7,0,0,0,78,80,138,110,43,192.10,339,-44.00,38.00,-972.00
2024-05-17 16:14:39.579519,-4,0,-7,0,0,0,78,80,138,110,43,192.08,339,-21.00,56.00,-943.00
2024-05-17 16:14:39.764474,-8,0,-7,0,0,0,78,80,143,110,43,192.06,339,-10.00,45.00,-979.00
2024-05-17 16:14:39.783483,-8,0,-7,2,0,0,78,80,142,110,43,192.10,340,-69.00,21.00,-975.00
2024-05-17 16:14:39.970166,-8,-1,-7,3,0,0,78,81,143,110,43,192.02,340,-2.00,-16.00,-1013.00
2024-05-17 16:14:39.987774,-8,-1,-7,4,0,0,78,81,144,110,43,192.17,340,-62.00,25.00,-970.00
2024-05-17 16:14:40.174205,-7,-1,-7,6,0,0,78,81,143,110,43,192.03,340,-9.00,40.00,-1051.00
2024-05-17 16:14:40.191739,-6,-1,-7,7,0,0,78,81,144,110,43,192.04,340,-37.00,24.00,-985.00
2024-05-17 16:14:40.378873,-5,-1,-7,7,0,0,78,81,139,110,43,192.04,340,-36.00,-14.00,-977.00
2024-05-17 16:14:40.395736,-4,-2,-7,8,-1,0,78,81,141,110,43,191.98,340,-22.00,-7.00,-1004.00
2024-05-17 16:14:40.583664,-1,-1,-7,8,-1,0,78,81,142,110,43,192.05,340,-54.00,28.00,-975.00
2024-05-17 16:14:40.599430,1,0,-7,7,-1,0,78,81,142,110,43,192.16,340,-70.00,40.00,-1004.00
2024-05-17 16:14:40.788526,3,0,-7,6,0,0,78,81,142,110,43,192.11,340,-41.00,31.00,-894.00
2024-05-17 16:14:40.803364,4,-1,-7,5,0,0,78,81,142,110,43,192.14,341,2.00,2.00,-1045.00
2024-05-17 16:14:40.993354,3,-1,-7,4,0,0,78,81,141,110,43,192.08,341,-27.00,18.00,-960.00
2024-05-17 16:14:41.007422,1,-1,-7,3,0,0,78,81,141,110,43,192.03,341,-7.00,18.00,-906.00
2024-05-17 16:14:41.109547,0,-1,-7,3,0,0,78,81,138,110,43,192.02,341,-7.00,18.00,-949.00
2024-05-17 16:14:41.300563,0,0,-7,3,0,0,78,81,138,110,43,192.05,341,-27.00,42.00,-1032.00
2024-05-17 16:14:41.313646,0,0,-7,3,0,0,78,81,138,110,43,192.05,341,-22.00,8.00,-971.00
2024-05-17 16:14:41.506797,2,-1,-7,3,0,0,78,81,139,110,43,192.05,341,-38.00,2.00,-1002.00
2024-05-17 16:14:41.519228,4,-3,-7,2,0,0,78,81,139,110,43,192.04,341,-14.00,2.00,-1051.00
2024-05-17 16:14:41.619677,3,-5,-7,1,0,0,78,81,138,110,43,192.09,341,-25.00,24.00,-1032.00
2024-05-17 16:14:41.670376,1,-5,-7,0,0,0,78,81,138,110,43,192.08,341,-25.00,21.00,-970.00
2024-05-17 16:14:41.813232,0,-4,-7,0,-1,0,78,81,138,110,43,192.08,342,11.00,32.00,-1003.00
2024-05-17 16:14:41.874340,0,-3,-7,0,-1,0,78,80,137,110,43,192.05,342,-50.00,31.00,-1027.00
2024-05-17 16:14:42.017292,0,-3,-7,0,-1,0,78,80,137,110,43,192.11,342,-6.00,17.00,-1071.00
2024-05-17 16:14:42.079158,0,-2,-7,0,-1,0,78,80,136,110,43,192.14,342,-54.00,13.00,-1008.00
2024-05-17 16:14:42.224455,0,3,-7,0,-1,0,78,80,136,110,43,191.94,342,-24.00,43.00,-981.00
2024-05-17 16:14:42.283694,0,0,-7,0,0,0,78,80,135,110,43,192.09,342,3.00,7.00,-1020.00
2024-05-17 16:14:42.426970,0,0,-7,0,0,0,78,80,137,110,43,192.03,342,-42.00,12.00,-1032.00
2024-05-17 16:14:42.487636,0,0,-7,0,0,0,78,80,138,110,43,191.98,342,-9.00,39.00,-1002.00
2024-05-17 16:14:42.631729,0,-1,-7,0,0,0,78,80,138,110,43,192.00,342,-14.00,30.00,-1058.00
2024-05-17 16:14:42.695670,0,-1,-7,0,0,0,78,80,140,110,43,192.08,342,-26.00,-3.00,-982.00
2024-05-17 16:14:42.793667,0,-1,-7,0,0,0,78,80,140,110,43,192.11,343,-23.00,7.00,-978.00
2024-05-17 16:14:42.940488,0,-1,-7,0,0,0,77,80,140,110,43,192.07,343,-42.00,14.00,-974.00
2024-05-17 16:14:42.999366,0,-1,-7,0,0,0,77,80,141,110,43,192.00,343,-39.00,34.00,-962.00
2024-05-17 16:14:43.099771,0,-1,-7,0,0,0,77,80,141,110,43,192.02,343,-11.00,-7.00,-935.00
2024-05-17 16:14:43.246569,0,-1,-7,0,0,0,77,80,142,110,43,192.10,343,-25.00,12.00,-996.00
2024-05-17 16:14:43.303337,0,-1,-7,0,0,0,77,80,143,110,43,192.09,343,-54.00,-11.00,-978.00
2024-05-17 16:14:43.451302,-1,-1,-7,0,0,0,77,80,143,110,43,192.11,343,-12.00,11.00,-959.00
2024-05-17 16:14:43.515311,-1,0,-7,0,0,0,77,80,144,110,43,191.98,343,-12.00,2.00,-960.00
2024-05-17 16:14:43.609336,-1,0,-7,0,0,0,77,80,143,110,43,191.93,343,-35.00,3.00,-992.00
2024-05-17 16:14:43.758136,-1,-1,-7,0,0,0,77,80,143,110,43,191.96,343,-15.00,-12.00,-996.00
2024-05-17 16:14:43.813422,-1,-1,-7,0,0,0,77,80,143,110,43,192.04,344,-46.00,-1.00,-973.00
2024-05-17 16:14:43.962976,-1,-1,-7,0,0,0,77,80,142,110,43,192.11,344,-30.00,-6.00,-999.00
2024-05-17 16:14:44.017235,-2,-1,-7,0,0,0,77,80,142,110,43,192.02,344,-34.00,13.00,-1016.00
2024-05-17 16:14:44.119303,-2,-1,-7,0,0,0,77,80,142,110,43,192.03,344,-36.00,21.00,-1021.00
2024-05-17 16:14:44.239881,-2,-1,-7,0,0,0,77,80,142,110,43,192.03,344,-64.00,14.00,-1018.00
2024-05-17 16:14:44.323186,-2,-1,-7,0,0,0,77,80,143,110,43,192.11,344,-44.00,21.00,-1008.00
2024-05-17 16:14:44.474795,-2,-1,-7,0,0,0,77,80,143,110,43,192.11,344,-34.00,-19.00,-936.00
2024-05-17 16:14:44.528590,2,0,-7,0,0,0,77,80,145,110,43,192.11,344,-37.00,16.00,-1002.00
2024-05-17 16:14:44.629405,8,0,-7,0,0,0,77,80,148,110,43,192.12,344,-27.00,23.00,-1001.00
2024-05-17 16:14:44.781938,8,-1,-7,-2,0,0,77,80,149,110,43,192.18,344,26.00,-3.00,-1057.00
2024-05-17 16:14:44.833117,8,-1,-7,-3,0,0,77,80,149,110,43,192.20,345,1.00,-11.00,-1050.00
2024-05-17 16:14:44.935320,7,-1,-7,-5,0,0,77,79,148,110,43,192.14,345,5.00,38.00,-964.00
2024-05-17 16:14:45.089151,6,-1,-7,-6,0,0,77,79,148,110,43,192.15,345,8.00,-24.00,-936.00
2024-05-17 16:14:45.139155,5,-1,-7,-7,0,0,77,79,149,110,43,192.10,345,-16.00,-9.00,-1025.00
2024-05-17 16:14:45.293975,4,0,-7,-7,0,0,77,79,149,110,43,192.11,345,6.00,3.00,-999.00
2024-05-17 16:14:45.294115,3,-1,-7,-8,0,0,77,79,148,110,43,192.12,345,39.00,-12.00,-1001.00
2024-05-17 16:14:45.394319,0,-1,-7,-8,0,0,77,79,147,110,43,192.08,345,37.00,-12.00,-1018.00
2024-05-17 16:14:45.496344,-2,-2,-6,-8,0,0,77,79,148,110,43,192.07,345,67.00,-21.00,-1011.00
2024-05-17 16:14:45.598284,-4,-1,-6,-7,0,0,77,79,146,110,43,192.02,345,45.00,-7.00,-1029.00
2024-05-17 16:14:45.700337,-5,0,-7,-6,0,0,77,79,142,110,43,192.06,345,8.00,28.00,-1058.00
2024-05-17 16:14:45.803467,-4,0,-7,-5,0,0,77,79,146,110,43,192.09,346,-16.00,37.00,-974.00
2024-05-17 16:14:45.955276,-2,-1,-7,-3,0,0,77,79,145,110,43,192.05,346,21.00,-18.00,-1039.00
2024-05-17 16:14:46.006481,0,0,-7,-2,0,0,77,79,146,110,43,192.08,346,24.00,21.00,-1014.00
2024-05-17 16:14:46.119310,0,-1,-7,-2,0,0,77,79,143,110,43,192.04,346,10.00,-1.00,-1041.00
2024-05-17 16:14:46.210440,0,-1,-7,-2,0,0,77,79,142,110,43,192.00,346,9.00,16.00,-992.00
2024-05-17 16:14:46.312244,-1,-1,-7,-2,0,0,77,79,142,110,43,192.07,346,2.00,22.00,-1030.00
2024-05-17 16:14:46.414088,-2,-3,-6,-1,0,0,77,79,142,110,43,192.05,346,17.00,-20.00,-1050.00
2024-05-17 16:14:46.522785,-4,-5,-6,-1,0,0,77,79,141,110,43,192.03,346,-1.00,-18.00,-1078.00
2024-05-17 16:14:46.618200,-2,-4,-6,0,-1,0,77,79,140,110,43,192.06,346,18.00,32.00,-960.00
2024-05-17 16:14:46.727494,-1,-3,-7,0,-1,0,77,79,139,110,43,192.00,347,7.00,-8.00,-1003.00
2024-05-17 16:14:46.822179,0,0,-7,0,-2,0,77,79,137,110,43,192.00,347,-7.00,9.00,-1016.00
2024-05-17 16:14:46.932909,0,3,-7,0,-1,0,77,80,135,110,43,191.95,347,-32.00,57.00,-966.00
2024-05-17 16:14:47.026456,0,1,-7,0,0,0,77,80,135,110,43,191.98,347,-6.00,16.00,-1040.00
2024-05-17 16:14:47.128410,0,0,-7,0,0,0,77,80,133,100,43,192.00,347,15.00,2.00,-990.00
2024-05-17 16:14:47.241627,0,0,-7,0,0,0,77,80,133,100,43,192.00,347,5.00,-21.00,-1000.00
2024-05-17 16:14:47.334851,0,0,-7,0,0,0,77,80,132,100,43,191.98,347,-20.00,-6.00,-1037.00
2024-05-17 16:14:47.434403,0,0,-7,0,0,0,77,80,132,100,43,191.99,347,-16.00,23.00,-1012.00
2024-05-17 16:14:47.546871,0,0,-7,0,0,0,77,80,132,100,43,191.92,347,-16.00,-11.00,-1017.00
2024-05-17 16:14:47.638341,0,0,-7,0,0,0,77,80,132,100,43,192.04,347,7.00,-32.00,-1012.00
2024-05-17 16:14:47.752639,0,0,-7,0,0,0,77,80,133,100,42,192.03,348,26.00,-9.00,-997.00
2024-05-17 16:14:47.842337,0,0,-6,0,0,0,77,80,133,100,42,191.90,348,22.00,1.00,-952.00
2024-05-17 16:14:47.956584,0,-1,-6,0,0,0,77,80,134,100,42,191.97,348,7.00,-2.00,-988.00
2024-05-17 16:14:48.055610,0,-1,-6,0,0,0,77,80,134,100,42,191.98,348,13.00,33.00,-990.00
2024-05-17 16:14:48.148087,0,-1,-6,0,0,0,77,80,134,100,42,192.02,348,-7.00,36.00,-946.00
2024-05-17 16:14:48.263672,0,-1,-6,0,0,0,77,80,135,100,42,192.11,348,-3.00,7.00,-970.00
2024-05-17 16:14:48.352235,0,-1,-7,0,0,0,77,80,136,100,42,192.02,348,-29.00,1.00,-1014.00
2024-05-17 16:14:48.468493,0,-1,-7,0,0,0,77,80,136,100,42,192.01,348,15.00,35.00,-1022.00
2024-05-17 16:14:48.556181,0,-1,-7,0,0,0,77,80,137,100,42,192.03,348,19.00,-16.00,-1035.00
2024-05-17 16:14:48.673265,0,-1,-7,0,0,0,77,80,137,100,42,192.02,348,-50.00,33.00,-1033.00
2024-05-17 16:14:48.760403,0,-2,-7,0,0,0,77,80,138,110,42,192.08,349,-8.00,-28.00,-987.00
2024-05-17 16:14:48.878230,0,-1,-7,0,0,0,77,80,138,110,42,192.07,349,-32.00,30.00,-1041.00
2024-05-17 16:14:48.965145,0,-1,-7,0,0,0,76,79,138,110,42,192.06,349,-29.00,0.00,-986.00
2024-05-17 16:14:49.066084,0,-1,-7,0,0,0,76,79,138,110,42,192.10,349,0.00,-8.00,-1000.00
2024-05-17 16:14:49.168620,0,-1,-7,0,0,0,76,79,138,110,42,192.02,349,-23.00,9.00,-937.00
2024-05-17 16:14:49.287622,0,-6,-7,0,0,0,76,79,139,110,42,192.04,349,5.00,-5.00,-1008.00
2024-05-17 16:14:49.371987,0,-8,-7,0,-1,0,76,79,142,110,42,192.01,349,-14.00,20.00,-1078.00
2024-05-17 16:14:49.492777,0,-6,-7,0,-2,0,76,79,139,110,42,192.05,349,-62.00,9.00,-1006.00
2024-05-17 16:14:49.524942,0,-4,-7,0,-3,0,76,79,139,110,42,192.06,349,-13.00,23.00,-1012.00
2024-05-17 16:14:49.697453,0,-1,-6,0,-4,0,76,79,137,110,42,192.11,349,8.00,-3.00,-1000.00
2024-05-17 16:14:49.728902,-1,0,-6,0,-3,0,76,79,139,110,41,192.00,350,9.00,35.00,-1014.00
2024-05-17 16:14:49.901934,0,0,-6,0,-3,0,76,79,139,110,41,192.11,350,44.00,63.00,-931.00
2024-05-17 16:14:49.932920,0,0,-7,0,-2,0,77,79,138,110,41,192.02,350,27.00,16.00,-1004.00
2024-05-17 16:14:50.035104,0,0,-7,0,-2,0,77,79,137,110,41,192.04,350,54.00,22.00,-992.00
2024-05-17 16:14:50.136832,0,-1,-7,0,-2,0,77,79,136,110,41,192.05,350,49.00,4.00,-986.00
2024-05-17 16:14:50.311479,1,-2,-7,0,-2,0,77,79,138,110,41,191.97,350,-1.00,45.00,-976.00
2024-05-17 16:14:50.342109,1,-2,-7,0,-2,0,77,79,137,110,41,192.02,350,9.00,47.00,-961.00
2024-05-17 16:14:50.516218,1,-1,-7,0,-2,0,77,79,136,110,41,191.98,350,-24.00,20.00,-1053.00
2024-05-17 16:14:50.544814,1,-1,-7,0,-2,0,77,79,136,100,41,191.91,350,21.00,23.00,-1041.00
2024-05-17 16:14:50.722763,1,-2,-7,0,-2,0,77,79,136,100,41,191.98,350,24.00,37.00,-1061.00
2024-05-17 16:14:50.748923,1,-2,-7,0,-2,0,77,79,136,100,41,191.95,351,32.00,5.00,-975.00
2024-05-17 16:14:50.925927,0,-1,-7,0,-2,0,77,79,135,110,41,192.00,351,23.00,21.00,-996.00
2024-05-17 16:14:50.952819,-1,0,-7,0,-2,0,77,79,136,110,41,192.02,351,-15.00,32.00,-1024.00
2024-05-17 16:14:51.130675,0,0,-7,0,-2,0,77,79,134,110,41,191.94,351,-24.00,36.00,-956.00
2024-05-17 16:14:51.157344,0,1,-7,0,-2,0,77,79,134,100,41,191.99,351,38.00,-22.00,-1009.00
2024-05-17 16:14:51.335454,0,3,-7,0,-1,0,77,79,134,100,41,192.00,351,23.00,24.00,-958.00
2024-05-17 16:14:51.361107,0,1,-7,0,0,0,77,79,133,100,41,191.96,351,-7.00,18.00,-1005.00
2024-05-17 16:14:51.541760,0,0,-7,0,0,0,77,79,132,100,41,191.98,351,4.00,16.00,-1010.00
2024-05-17 16:14:51.564920,0,0,-7,0,0,0,77,79,133,100,41,192.03,351,-6.00,25.00,-1044.00
2024-05-17 16:14:51.745285,0,0,-7,0,0,0,77,79,133,100,41,192.04,351,24.00,-4.00,-927.00
2024-05-17 16:14:51.770807,0,0,-7,0,0,0,77,79,133,100,40,192.01,352,9.00,5.00,-1034.00
2024-05-17 16:14:51.871248,0,0,-7,0,0,0,77,79,133,100,40,192.00,352,12.00,-11.00,-1000.00
2024-05-17 16:14:52.052535,0,0,-7,0,0,0,76,79,134,100,40,192.06,352,7.00,-4.00,-967.00
2024-05-17 16:14:52.074981,0,-1,-7,0,0,0,76,79,134,100,40,192.04,352,-26.00,-16.00,-1040.00
2024-05-17 16:14:52.176952,0,-1,-7,0,0,0,76,79,135,100,40,192.03,352,-26.00,5.00,-940.00
2024-05-17 16:14:52.359668,0,-1,-7,0,0,0,76,79,135,100,40,191.94,352,21.00,-30.00,-985.00
2024-05-17 16:14:52.380961,0,-1,-7,0,0,0,76,79,135,100,40,192.00,352,-2.00,5.00,-1068.00
2024-05-17 16:14:52.564456,0,0,-7,0,0,0,76,79,136,100,40,191.98,352,-11.00,23.00,-992.00
2024-05-17 16:14:52.584950,0,0,-7,0,0,0,76,79,136,110,40,192.02,352,15.00,-36.00,-1018.00
2024-05-17 16:14:52.770000,0,0,-7,0,0,0,76,79,137,110,40,192.04,352,-12.00,17.00,-1062.00
2024-05-17 16:14:52.788983,0,0,-7,0,0,0,76,79,137,110,40,192.04,353,-2.00,13.00,-1034.00
2024-05-17 16:14:52.974108,0,-1,-7,0,0,0,76,79,137,110,40,192.05,353,-6.00,47.00,-943.00
2024-05-17 16:14:52.993542,0,-1,-7,0,0,0,76,79,137,110,40,192.01,353,0.00,30.00,-986.00
2024-05-17 16:14:53.095167,0,-1,-7,0,0,0,76,79,137,110,40,192.02,353,-8.00,18.00,-962.00
2024-05-17 16:14:53.281299,0,-1,-7,0,0,0,76,79,138,110,40,192.01,353,15.00,9.00,-1018.00
2024-05-17 16:14:53.298867,0,-1,-7,0,0,0,76,79,138,110,40,191.97,353,-28.00,29.00,-952.00
2024-05-17 16:14:53.349810,0,-1,-7,0,0,0,76,79,139,110,40,191.92,353,-43.00,-12.00,-1099.00
2024-05-17 16:14:53.452297,0,0,-7,0,0,0,76,79,139,110,40,192.04,353,1.00,5.00,-1032.00
2024-05-17 16:14:53.588343,0,2,-7,0,0,0,76,79,140,110,40,192.02,353,-21.00,42.00,-1010.00
2024-05-17 16:14:53.655767,0,9,-7,0,0,0,76,79,144,110,40,192.03,353,-16.00,14.00,-967.00
2024-05-17 16:14:53.793152,0,7,-7,0,2,0,76,79,143,110,40,192.04,354,21.00,26.00,-931.00
2024-05-17 16:14:53.862518,1,4,-7,0,3,0,76,79,141,110,40,191.96,354,-22.00,-2.00,-986.00
2024-05-17 16:14:53.962066,1,1,-7,0,3,0,76,78,141,110,40,191.99,354,-10.00,14.00,-1037.00
2024-05-17 16:14:54.100301,0,-1,-7,0,3,0,76,78,140,110,40,191.96,354,-24.00,-33.00,-1067.00
2024-05-17 16:14:54.165819,0,-2,-7,0,3,0,76,78,140,110,40,192.02,354,-3.00,10.00,-978.00
2024-05-17 16:14:54.305121,0,-1,-7,0,3,0,76,78,140,110,40,192.02,354,-7.00,1.00,-1029.00
2024-05-17 16:14:54.369701,0,0,-7,0,2,0,76,78,142,110,40,192.11,354,19.00,-45.00,-1049.00
2024-05-17 16:14:54.509836,0,0,-7,0,2,0,76,78,141,110,40,191.99,354,-17.00,31.00,-954.00
2024-05-17 16:14:54.573747,0,0,-7,0,2,0,76,78,141,110,40,192.01,354,24.00,-37.00,-975.00
2024-05-17 16:14:54.714700,0,0,-7,0,2,0,76,78,141,110,39,191.98,354,-18.00,3.00,-995.00
2024-05-17 16:14:54.777789,0,0,-7,0,2,0,76,78,141,110,39,192.07,355,22.00,-23.00,-1013.00
2024-05-17 16:14:54.919438,0,0,-7,0,2,0,76,78,142,110,39,192.02,355,30.00,-44.00,-961.00
2024-05-17 16:14:54.981797,0,0,-7,0,2,0,76,78,142,110,39,192.07,355,-7.00,-32.00,-1009.00
2024-05-17 16:14:55.128760,0,0,-7,0,2,0,76,78,144,110,39,191.98,355,1.00,-32.00,-1064.00
2024-05-17 16:14:55.185983,0,0,-7,0,2,0,76,78,144,110,39,192.08,355,-15.00,27.00,-944.00
2024-05-17 16:14:55.329583,0,-1,-7,0,2,0,76,78,145,110,39,192.20,355,1.00,-14.00,-968.00
2024-05-17 16:14:55.389733,0,-3,-7,0,2,0,76,78,148,110,39,192.15,355,0.00,-37.00,-1004.00
2024-05-17 16:14:55.533837,0,-5,-7,0,1,0,76,78,149,110,39,192.16,355,19.00,2.00,-1040.00
2024-05-17 16:14:55.593902,0,-3,-6,0,1,0,76,78,149,110,39,192.07,355,4.00,10.00,-956.00
2024-05-17 16:14:55.738963,0,-2,-6,0,0,0,76,78,150,110,39,192.16,355,-9.00,12.00,-970.00
2024-05-17 16:14:55.798059,0,-2,-6,0,0,0,76,78,150,110,39,192.16,356,-1.00,0.00,-1025.00
2024-05-17 16:14:55.900922,0,-1,-6,0,0,0,76,78,150,110,39,192.18,356,-47.00,21.00,-948.00
2024-05-17 16:14:56.046162,0,-1,-7,0,0,0,76,78,151,110,39,192.15,356,16.00,-7.00,-931.00
2024-05-17 16:14:56.103728,0,-2,-7,0,0,0,76,78,151,110,39,192.21,356,-18.00,28.00,-901.00
2024-05-17 16:14:56.250802,0,-1,-7,0,0,0,76,78,150,110,39,192.12,356,-18.00,3.00,-1001.00
2024-05-17 16:14:56.307780,-1,-1,-7,0,0,0,76,78,151,110,39,192.11,356,-13.00,0.00,-1027.00
2024-05-17 16:14:56.455802,-1,-1,-7,0,0,0,76,78,150,110,39,192.15,356,-26.00,11.00,-912.00
2024-05-17 16:14:56.511819,-1,-1,-7,0,0,0,76,78,149,110,39,192.13,356,-35.00,-29.00,-1055.00
2024-05-17 16:14:56.664164,-1,-1,-7,0,0,0,76,78,149,110,39,192.10,356,-35.00,-9.00,-1030.00
2024-05-17 16:14:56.715831,-1,-1,-7,0,0,0,76,78,149,110,38,192.08,356,-22.00,-2.00,-934.00
2024-05-17 16:14:56.865673,-1,0,-6,0,0,0,76,78,148,110,38,192.20,357,8.00,2.00,-981.00
2024-05-17 16:14:56.919739,-1,0,-6,0,0,0,76,78,148,110,38,192.15,357,0.00,-14.00,-1002.00
2024-05-17 16:14:57.070416,-1,0,-6,0,0,0,75,78,147,110,38,192.23,357,-14.00,-21.00,-1006.00
2024-05-17 16:14:57.131738,-1,0,-6,0,0,0,75,78,146,110,38,192.21,357,-18.00,36.00,-1025.00
2024-05-17 16:14:57.225738,0,0,-6,0,0,0,75,78,145,110,38,192.14,357,-28.00,15.00,-1015.00
2024-05-17 16:14:57.377194,0,0,-6,0,0,0,75,78,144,110,38,192.17,357,71.00,-1.00,-1097.00
2024-05-17 16:14:57.429726,0,-1,-7,0,0,0,75,78,143,110,38,192.06,357,-19.00,59.00,-979.00
2024-05-17 16:14:57.480649,0,-1,-7,0,0,0,75,78,143,110,38,192.16,357,-22.00,5.00,-961.00
2024-05-17 16:14:57.582497,0,-1,-7,0,0,0,75,78,142,110,38,192.02,357,-16.00,6.00,-976.00
2024-05-17 16:14:57.684628,0,-1,-7,0,0,0,75,78,141,110,38,191.97,357,-18.00,8.00,-1035.00
2024-05-17 16:14:57.786794,0,-1,-3,0,0,0,75,78,140,110,38,192.05,358,14.00,-9.00,-994.00
2024-05-17 16:14:57.889321,0,0,2,0,0,0,75,78,140,110,38,192.11,358,-34.00,19.00,-1010.00
2024-05-17 16:14:57.991649,0,-1,8,0,0,0,75,78,140,110,38,192.03,358,-49.00,51.00,-968.00
2024-05-17 16:14:58.093418,-1,-1,13,0,0,0,75,78,141,110,38,192.04,358,-55.00,45.00,-970.00
2024-05-17 16:14:58.196219,-1,-2,19,0,0,0,75,78,140,110,38,192.15,358,-4.00,26.00,-1028.00
2024-05-17 16:14:58.296575,-1,-2,25,0,0,0,75,78,141,110,38,192.12,358,-3.00,42.00,-986.00
2024-05-17 16:14:58.398417,-1,-2,31,0,0,0,75,78,141,110,38,192.05,358,12.00,46.00,-984.00
2024-05-17 16:14:58.500512,0,-2,36,0,0,0,75,78,141,110,38,192.09,358,-10.00,32.00,-936.00
2024-05-17 16:14:58.603803,0,-1,42,0,0,0,75,78,141,110,38,192.03,358,-1.00,24.00,-1013.00
2024-05-17 16:14:58.704992,0,-1,47,0,0,0,75,78,140,110,38,192.00,358,-28.00,56.00,-1012.00
2024-05-17 16:14:58.807728,0,-1,53,0,0,0,75,78,140,110,38,192.07,359,-22.00,11.00,-1001.00
2024-05-17 16:14:58.910233,0,-1,58,0,0,0,75,78,141,110,38,192.05,359,-13.00,28.00,-1062.00
2024-05-17 16:14:59.012807,0,-1,64,0,0,0,76,78,140,110,38,192.06,359,13.00,9.00,-1024.00
2024-05-17 16:14:59.119364,0,-1,69,0,0,0,76,78,140,110,38,192.01,359,-1.00,31.00,-1022.00
2024-05-17 16:14:59.214703,0,-1,75,0,0,0,76,78,140,110,38,192.00,359,22.00,2.00,-951.00
2024-05-17 16:14:59.322584,0,0,81,0,0,0,76,78,140,110,38,192.01,359,-5.00,11.00,-950.00
2024-05-17 16:14:59.418397,0,0,87,0,0,0,76,78,140,110,38,192.02,359,-22.00,17.00,-984.00
2024-05-17 16:14:59.527443,0,0,93,0,0,0,76,78,140,110,38,192.12,359,11.00,48.00,-1003.00
2024-05-17 16:14:59.622347,0,0,100,0,0,0,76,78,141,110,38,192.15,359,17.00,36.00,-1050.00
2024-05-17 16:14:59.732185,0,0,106,0,0,0,76,78,141,110,38,192.07,359,12.00,45.00,-917.00
2024-05-17 16:14:59.826427,0,0,112,0,0,0,76,78,142,110,38,192.05,360,27.00,2.00,-968.00
2024-05-17 16:14:59.938793,0,0,119,0,0,0,76,78,142,110,38,192.07,360,38.00,-16.00,-1011.00
2024-05-17 16:15:00.030525,0,0,131,0,0,0,76,78,143,110,38,192.19,360,-3.00,-12.00,-1056.00
2024-05-17 16:15:00.132828,0,0,138,0,0,0,76,78,143,110,38,192.16,360,37.00,23.00,-924.00
2024-05-17 16:15:00.244967,0,0,144,0,0,0,76,78,144,110,38,192.12,360,-6.00,-1.00,-1020.00
2024-05-17 16:15:00.337398,0,0,151,0,0,0,76,78,144,110,38,192.03,360,4.00,-5.00,-948.00
2024-05-17 16:15:00.449047,0,0,157,0,0,0,76,78,144,110,38,192.07,360,-7.00,-10.00,-1027.00
2024-05-17 16:15:00.541315,0,0,163,0,0,0,76,78,144,110,38,192.07,360,-19.00,1.00,-983.00
2024-05-17 16:15:00.653873,0,0,170,0,0,0,76,78,144,110,38,192.12,360,2.00,7.00,-955.00
2024-05-17 16:15:00.745293,0,0,176,0,0,0,76,78,144,110,37,192.10,361,23.00,-13.00,-1045.00
2024-05-17 16:15:00.858636,0,0,-177,0,0,0,76,78,144,110,37,192.17,361,-33.00,28.00,-1015.00
2024-05-17 16:15:00.949544,0,0,-171,0,0,0,76,78,143,110,37,192.15,361,-8.00,18.00,-1073.00
2024-05-17 16:15:01.063444,0,1,-165,0,0,0,75,77,143,110,37,192.10,361,0.00,-6.00,-1096.00
2024-05-17 16:15:01.153456,0,1,-159,0,0,0,75,77,143,110,37,192.07,361,0.00,-26.00,-1034.00
2024-05-17 16:15:01.268224,0,1,-152,0,0,0,75,77,142,110,37,192.12,361,14.00,-29.00,-995.00
2024-05-17 16:15:01.358967,-1,1,-146,0,0,0,75,77,142,110,37,192.08,361,-32.00,-12.00,-1034.00
2024-05-17 16:15:01.408273,-1,1,-140,0,0,0,75,77,141,110,37,192.05,361,-41.00,6.00,-974.00
2024-05-17 16:15:01.575425,-1,1,-134,0,0,0,75,77,141,110,37,192.07,361,33.00,-7.00,-957.00
2024-05-17 16:15:01.612580,-1,1,-127,0,0,0,75,77,140,110,37,192.01,361,-7.00,-11.00,-981.00
2024-05-17 16:15:01.782025,-1,0,-121,0,0,0,75,77,139,110,37,192.09,362,-30.00,18.00,-1021.00
2024-05-17 16:15:01.818316,-1,1,-114,0,0,0,75,77,138,110,37,192.03,362,-4.00,-14.00,-1061.00
2024-05-17 16:15:01.918693,-1,0,-108,0,0,0,75,77,138,110,37,192.12,362,-24.00,-28.00,-1056.00
2024-05-17 16:15:02.020444,-1,1,-102,0,0,0,75,77,138,110,37,192.04,362,-12.00,-7.00,-961.00
2024-05-17 16:15:02.189754,-1,1,-96,0,0,0,75,77,137,110,37,192.12,362,-35.00,30.00,-1003.00
2024-05-17 16:15:02.226609,-1,0,-90,0,0,0,75,77,137,110,37,192.12,362,-29.00,-19.00,-1047.00
2024-05-17 16:15:02.326269,-1,0,-83,0,0,0,75,77,137,110,37,192.03,362,-35.00,3.00,-1017.00
2024-05-17 16:15:02.497016,-1,0,-77,0,0,0,75,77,138,110,37,192.03,362,-15.00,8.00,-912.00
2024-05-17 16:15:02.530251,-1,0,-71,0,0,0,75,77,137,110,37,191.96,362,-78.00,19.00,-986.00
2024-05-17 16:15:02.701754,-1,0,-66,0,0,0,75,77,138,110,37,192.00,362,-3.00,24.00,-1016.00
2024-05-17 16:15:02.734509,-1,0,-60,0,0,0,75,77,138,110,37,192.00,363,-69.00,40.00,-951.00
2024-05-17 16:15:02.907405,-1,0,-54,0,0,0,75,77,138,110,37,191.98,363,-22.00,-25.00,-1015.00
2024-05-17 16:15:02.938210,-1,0,-48,0,0,0,75,77,137,110,37,192.01,363,-9.00,-22.00,-1053.00
2024-05-17 16:15:03.114276,-1,0,-42,0,0,0,75,78,137,110,37,192.06,363,-5.00,-16.00,-1035.00
2024-05-17 16:15:03.142573,-1,0,-36,0,0,0,75,78,137,110,37,192.01,363,27.00,0.00,-932.00
2024-05-17 16:15:03.244112,0,0,-30,0,0,0,75,78,137,110,37,192.00,363,0.00,36.00,-952.00
2024-05-17 16:15:03.419220,0,0,-24,0,0,0,75,78,137,110,37,192.06,363,-23.00,25.00,-922.00
2024-05-17 16:15:03.448144,-1,0,-20,0,0,0,75,78,136,110,37,192.01,363,-49.00,24.00,-1022.00
2024-05-17 16:15:03.623327,0,0,-16,0,0,0,75,78,135,110,37,192.07,363,15.00,-3.00,-976.00
2024-05-17 16:15:03.653437,0,0,-14,0,0,0,75,78,134,110,37,192.00,363,-18.00,2.00,-932.00
2024-05-17 16:15:03.832782,0,0,-12,0,0,0,75,78,133,110,37,192.00,364,22.00,-20.00,-982.00
2024-05-17 16:15:03.856256,0,0,-10,0,0,0,75,78,132,100,37,192.07,364,-11.00,60.00,-988.00
2024-05-17 16:15:04.035909,0,0,-9,0,0,0,75,78,132,100,37,192.07,364,-53.00,16.00,-980.00
2024-05-17 16:15:04.060117,0,0,-8,0,0,0,76,77,132,100,37,192.04,364,-44.00,41.00,-986.00
2024-05-17 16:15:04.241697,0,0,-8,0,0,0,76,77,132,100,37,192.02,364,-32.00,0.00,-1063.00
2024-05-17 16:15:04.264213,0,0,-8,0,0,0,76,77,132,100,37,192.07,364,-22.00,0.00,-1068.00
2024-05-17 16:15:04.446381,0,0,-8,0,0,0,76,77,133,100,37,192.05,364,-7.00,7.00,-1022.00
2024-05-17 16:15:04.469814,0,0,-9,0,0,0,76,77,134,100,37,192.07,364,34.00,-5.00,-954.00
2024-05-17 16:15:04.570238,0,0,-9,0,0,0,76,77,135,100,37,192.02,364,-1.00,6.00,-1024.00
2024-05-17 16:15:04.749960,0,0,-9,0,0,0,76,77,136,100,37,192.01,364,3.00,8.00,-995.00
2024-05-17 16:15:04.774273,0,0,-9,0,0,0,76,77,137,110,36,191.96,365,-17.00,29.00,-940.00
2024-05-17 16:15:04.954799,0,0,-9,0,0,0,76,77,137,110,36,192.00,365,5.00,-15.00,-933.00
2024-05-17 16:15:04.978238,0,0,-9,0,0,0,76,77,138,110,36,192.00,365,18.00,-11.00,-1001.00
2024-05-17 16:15:05.159617,0,0,-9,0,0,0,75,77,138,110,36,192.03,365,8.00,-17.00,-976.00
2024-05-17 16:15:05.182270,0,0,-9,0,0,0,75,77,140,110,36,192.07,365,-4.00,-19.00,-1001.00
2024-05-17 16:15:05.237092,0,0,-9,0,0,0,75,77,139,110,36,192.11,365,-29.00,0.00,-937.00
2024-05-17 16:15:05.335819,0,0,-9,0,0,0,75,77,140,110,36,192.05,365,-14.00,12.00,-978.00
2024-05-17 16:15:05.469830,0,0,-9,0,0,0,75,77,140,110,36,192.03,365,-25.00,-6.00,-997.00
2024-05-17 16:15:05.539386,0,0,-9,0,0,0,75,77,141,110,36,192.06,365,22.00,-17.00,-973.00
2024-05-17 16:15:05.641810,0,0,-9,0,0,0,75,77,142,110,36,192.08,365,-45.00,11.00,-989.00
2024-05-17 16:15:05.743249,0,0,-9,0,0,0,75,77,143,110,36,192.11,366,0.00,4.00,-1001.00
2024-05-17 16:15:05.876384,0,0,-8,0,0,0,75,77,143,110,36,192.04,366,4.00,-6.00,-1040.00
2024-05-17 16:15:05.951833,0,-1,-8,0,0,0,75,77,144,110,36,192.08,366,-11.00,-6.00,-985.00
2024-05-17 16:15:06.049057,0,0,-8,0,0,0,75,77,145,110,36,192.14,366,18.00,-16.00,-993.00
2024-05-17 16:15:06.151901,0,-1,-8,0,0,0,75,77,145,110,36,192.14,366,0.00,16.00,-960.00
2024-05-17 16:15:06.288147,0,0,-13,0,0,0,75,77,145,110,36,192.10,366,-1.00,-3.00,-996.00
2024-05-17 16:15:06.357054,0,-1,-19,0,0,0,75,77,146,110,36,192.05,366,-26.00,28.00,-976.00
2024-05-17 16:15:06.490613,0,0,-25,0,0,0,75,77,146,110,36,192.10,366,24.00,-5.00,-1012.00
2024-05-17 16:15:06.559943,0,0,-31,0,0,0,75,77,147,110,36,192.07,366,32.00,34.00,-978.00
2024-05-17 16:15:06.695397,0,0,-37,0,0,0,75,77,147,110,36,192.13,366,-22.00,-5.00,-1066.00
2024-05-17 16:15:06.765445,0,0,-43,0,0,0,75,77,147,110,36,192.13,367,-4.00,23.00,-1093.00
2024-05-17 16:15:06.900171,0,-1,-50,0,0,0,75,77,146,110,36,192.13,367,-17.00,19.00,-1002.00
2024-05-17 16:15:06.967979,0,-1,-56,0,0,0,75,77,146,110,36,192.07,367,-2.00,-15.00,-982.00
2024-05-17 16:15:07.104990,0,0,-62,0,0,0,75,77,145,110,36,192.07,367,37.00,16.00,-915.00
2024-05-17 16:15:07.172322,0,-1,-68,0,0,0,75,77,145,110,36,192.06,367,-32.00,38.00,-1034.00
2024-05-17 16:15:07.311763,0,-1,-74,0,0,0,75,77,144,110,36,192.09,367,-9.00,14.00,-980.00
2024-05-17 16:15:07.375946,0,-1,-81,0,0,0,75,77,144,110,36,192.02,367,-8.00,43.00,-1047.00
2024-05-17 16:15:07.514561,0,0,-87,0,0,0,75,77,144,110,36,192.07,367,-4.00,19.00,-1008.00
2024-05-17 16:15:07.579951,0,0,-93,0,0,0,75,77,143,110,36,192.08,367,13.00,9.00,-985.00
2024-05-17 16:15:07.719409,0,0,-99,0,0,0,75,77,144,110,35,192.07,367,21.00,24.00,-943.00
2024-05-17 16:15:07.783860,0,0,-105,0,0,0,75,77,145,110,35,192.12,368,26.00,0.00,-1031.00
2024-05-17 16:15:07.925282,0,0,-111,0,0,0,75,77,144,110,35,192.07,368,0.00,6.00,-968.00
2024-05-17 16:15:07.988196,0,0,-117,0,0,0,75,77,142,110,35,192.10,368,16.00,-28.00,-1077.00
2024-05-17 16:15:08.128963,0,1,-123,0,0,0,74,77,141,110,35,192.08,368,-14.00,-11.00,-1025.00
2024-05-17 16:15:08.193128,0,1,-128,0,0,0,74,77,140,110,35,191.97,368,-19.00,-4.00,-955.00
2024-05-17 16:15:08.333798,0,1,-134,0,0,0,74,77,139,110,35,192.00,368,-52.00,0.00,-967.00
2024-05-17 16:15:08.397104,0,1,-140,0,0,0,74,77,139,110,35,192.04,368,14.00,-12.00,-918.00
2024-05-17 16:15:08.538573,0,1,-146,0,0,0,74,77,138,110,35,192.03,368,-10.00,1.00,-956.00
2024-05-17 16:15:08.602901,0,0,-152,0,0,0,74,77,137,110,35,191.98,368,-35.00,-25.00,-1084.00
2024-05-17 16:15:08.703351,0,0,-157,0,0,0,74,77,137,110,35,192.00,368,-24.00,4.00,-946.00
2024-05-17 16:15:08.845772,0,0,-163,0,0,0,74,77,137,110,35,191.96,369,25.00,-21.00,-992.00
2024-05-17 16:15:08.906962,0,1,-168,0,0,0,74,77,137,110,35,192.02,369,2.00,-24.00,-981.00
2024-05-17 16:15:09.051190,0,1,-174,0,0,0,74,77,137,110,35,191.96,369,7.00,-58.00,-1038.00
2024-05-17 16:15:09.110998,1,1,179,0,0,0,75,77,138,110,35,191.99,369,16.00,-13.00,-1030.00
2024-05-17 16:15:09.212924,1,1,173,0,0,0,75,77,137,110,35,192.06,369,38.00,-24.00,-938.00
2024-05-17 16:15:09.357764,1,1,168,0,0,0,75,77,137,110,35,191.96,369,-3.00,-36.00,-978.00
2024-05-17 16:15:09.417069,1,1,162,0,0,0,75,77,137,110,35,192.00,369,2.00,-24.00,-1013.00
2024-05-17 16:15:09.467993,1,1,156,0,0,0,75,77,137,110,35,192.00,369,14.00,0.00,-991.00
2024-05-17 16:15:09.569814,0,1,150,0,0,0,75,77,137,110,35,191.98,369,20.00,-33.00,-1018.00
2024-05-17 16:15:09.767469,0,1,145,0,0,0,75,77,137,110,35,192.05,369,10.00,-9.00,-927.00
2024-05-17 16:15:09.776424,0,1,139,0,0,0,75,77,137,110,35,191.95,370,-13.00,-54.00,-1035.00
2024-05-17 16:15:09.875787,1,1,133,0,0,0,75,77,137,110,35,191.95,370,-35.00,-28.00,-1039.00
2024-05-17 16:15:10.075163,1,1,127,0,0,0,75,77,138,110,35,192.01,370,17.00,-2.00,-990.00
2024-05-17 16:15:10.079797,1,1,121,0,0,0,75,77,138,110,35,192.03,370,-4.00,-12.00,-1026.00
2024-05-17 16:15:10.279415,1,1,114,0,0,0,75,77,140,110,35,192.02,370,36.00,7.00,-996.00
2024-05-17 16:15:10.283823,1,1,108,0,0,0,75,77,139,110,35,191.89,370,45.00,-32.00,-1010.00
2024-05-17 16:15:10.385848,1,0,102,0,0,0,75,77,140,110,35,191.99,370,14.00,-6.00,-1041.00
2024-05-17 16:15:10.586737,1,0,97,0,0,0,75,77,141,110,35,192.07,370,14.00,0.00,-992.00
2024-05-17 16:15:10.591744,1,0,91,0,0,0,75,77,140,110,35,191.99,370,24.00,19.00,-995.00
2024-05-17 16:15:10.691800,1,0,85,0,0,0,75,77,139,110,35,192.08,370,19.00,26.00,-934.00
2024-05-17 16:15:10.793914,1,0,80,0,0,0,75,77,139,110,35,192.06,371,26.00,25.00,-932.00
2024-05-17 16:15:10.895848,0,-1,74,0,0,0,75,77,139,110,35,192.09,371,11.00,38.00,-977.00
2024-05-17 16:15:10.999345,0,-1,68,0,0,0,75,77,139,110,35,192.05,371,21.00,-10.00,-1060.00
2024-05-17 16:15:11.099788,0,-1,62,0,0,0,75,77,140,110,35,192.15,371,19.00,2.00,-1076.00
2024-05-17 16:15:11.201666,0,-1,57,0,0,0,75,77,140,110,35,192.08,371,3.00,-1.00,-1036.00
2024-05-17 16:15:11.406024,0,-1,51,0,0,0,75,77,139,110,35,192.08,371,30.00,29.00,-1038.00
2024-05-17 16:15:11.406102,0,-1,46,0,0,0,75,77,139,110,35,192.05,371,14.00,-2.00,-957.00
2024-05-17 16:15:11.508579,0,-1,40,0,0,0,75,77,138,110,35,192.02,371,-7.00,43.00,-998.00
2024-05-17 16:15:11.610282,0,-1,34,0,0,0,75,77,137,110,35,191.96,371,20.00,-19.00,-1000.00
2024-05-17 16:15:11.712955,0,0,29,0,0,0,75,77,136,110,34,192.03,371,-2.00,39.00,-1000.00
2024-05-17 16:15:11.815329,0,0,23,0,0,0,75,77,136,110,34,191.96,372,-5.00,44.00,-1014.00
2024-05-17 16:15:11.915725,0,0,17,0,0,0,75,77,135,110,34,191.95,372,21.00,-6.00,-1046.00
2024-05-17 16:15:12.017721,0,0,11,0,0,0,75,77,135,110,34,191.90,372,32.00,9.00,-1102.00
2024-05-17 16:15:12.122719,0,-1,6,0,0,0,75,76,135,110,34,191.98,372,-4.00,43.00,-909.00
2024-05-17 16:15:12.226079,0,-1,2,0,0,0,75,76,135,100,34,191.90,372,4.00,30.00,-982.00
2024-05-17 16:15:12.324854,0,-1,-1,0,0,0,75,76,134,100,34,191.97,372,4.00,10.00,-947.00
2024-05-17 16:15:12.427280,0,0,-4,0,0,0,75,76,134,100,34,191.91,372,-13.00,27.00,-1007.00
2024-05-17 16:15:12.529008,0,0,-5,0,0,0,75,76,134,100,34,191.92,372,-58.00,-19.00,-1064.00
2024-05-17 16:15:12.632379,0,0,-6,0,0,0,75,76,136,100,34,192.14,372,-35.00,23.00,-1030.00
2024-05-17 16:15:12.738522,-1,0,-6,0,0,0,75,76,137,100,34,192.06,372,0.00,4.00,-1121.00
2024-05-17 16:15:12.833840,-1,0,-6,0,0,0,75,76,138,100,34,192.06,373,-34.00,33.00,-1041.00
2024-05-17 16:15:12.935839,0,0,-6,0,0,0,75,76,138,100,34,192.06,373,36.00,29.00,-1001.00
2024-05-17 16:15:12.987019,0,0,-6,0,0,0,75,76,138,110,34,192.01,373,6.00,21.00,-945.00
2024-05-17 16:15:13.146660,0,0,-6,0,0,0,74,77,139,110,34,192.03,373,-2.00,11.00,-974.00
2024-05-17 16:15:13.192979,0,-1,-7,0,0,0,74,77,139,110,34,191.98,373,15.00,29.00,-949.00
2024-05-17 16:15:13.293768,0,-1,-7,0,0,0,74,77,140,110,34,192.07,373,20.00,3.00,-1055.00
2024-05-17 16:15:13.394881,0,-1,-7,0,0,0,74,77,141,110,34,192.03,373,0.00,12.00,-1021.00
2024-05-17 16:15:13.556228,0,-1,-7,0,0,0,74,77,141,110,34,192.02,373,-37.00,39.00,-993.00
2024-05-17 16:15:13.598788,0,-1,-7,0,0,0,74,77,141,110,34,192.00,373,-2.00,4.00,-1063.00
2024-05-17 16:15:13.761134,0,-1,-7,0,0,0,74,77,141,110,34,192.01,373,26.00,7.00,-1039.00
2024-05-17 16:15:13.802831,0,-1,-7,0,0,0,74,77,141,110,34,191.98,374,16.00,12.00,-1095.00
2024-05-17 16:15:13.971288,0,-1,-7,0,0,0,74,77,141,110,34,192.00,374,16.00,-33.00,-1018.00
2024-05-17 16:15:14.006897,0,-1,-7,0,0,0,74,77,141,110,34,191.96,374,3.00,30.00,-973.00
2024-05-17 16:15:14.170713,0,-1,-7,0,0,0,75,76,142,110,34,192.02,374,-44.00,41.00,-1048.00
2024-05-17 16:15:14.211716,0,-1,-7,0,0,0,75,76,141,110,34,192.07,374,1.00,43.00,-950.00
2024-05-17 16:15:14.375690,0,-1,-7,0,0,0,75,76,141,110,34,191.99,374,24.00,-20.00,-1017.00
2024-05-17 16:15:14.415227,0,-1,-7,0,0,0,75,76,141,110,34,192.07,374,-13.00,27.00,-972.00
2024-05-17 16:15:14.581905,0,-1,-7,0,0,0,75,76,140,110,34,191.98,374,-2.00,7.00,-973.00
2024-05-17 16:15:14.619027,0,-1,-7,0,0,0,75,76,141,110,34,192.08,374,-20.00,1.00,-991.00
2024-05-17 16:15:14.784982,0,-1,-7,0,0,0,75,76,141,110,33,192.04,375,-22.00,1.00,-1039.00
2024-05-17 16:15:14.822923,0,-1,-7,0,0,0,75,76,142,110,33,192.04,375,-33.00,37.00,-1000.00
2024-05-17 16:15:14.992577,-1,-1,-7,0,0,0,75,76,141,110,33,192.07,375,-45.00,48.00,-988.00
2024-05-17 16:15:15.027225,-1,-1,-7,0,0,0,75,76,141,110,33,191.98,375,-32.00,11.00,-982.00
2024-05-17 16:15:15.195020,-1,0,-7,0,0,0,74,76,142,110,33,192.02,375,-46.00,18.00,-969.00
2024-05-17 16:15:15.232835,0,0,-7,0,0,0,74,76,141,110,33,191.96,375,-3.00,22.00,-1001.00
2024-05-17 16:15:15.332775,0,0,-7,0,0,0,74,76,141,110,33,192.04,375,3.00,17.00,-1065.00
2024-05-17 16:15:15.501869,0,0,-7,0,0,0,74,76,142,110,33,192.00,375,12.00,4.00,-980.00
2024-05-17 16:15:15.536814,1,0,-7,0,0,0,74,76,142,110,33,192.00,375,0.00,2.00,-976.00
2024-05-17 16:15:15.707434,1,0,-6,0,0,0,74,76,142,110,33,192.02,375,0.00,-7.00,-973.00
2024-05-17 16:15:15.746315,0,-1,-6,0,0,0,74,76,141,110,33,192.08,376,9.00,-23.00,-896.00
2024-05-17 16:15:15.848907,0,-1,-6,0,0,0,74,76,139,110,33,191.98,376,-1.00,34.00,-978.00
2024-05-17 16:15:15.945707,0,-1,-6,0,0,0,74,76,138,110,33,192.03,376,4.00,1.00,-1016.00
2024-05-17 16:15:16.046712,0,0,-6,0,0,0,74,76,136,110,33,192.12,376,-28.00,25.00,-937.00
2024-05-17 16:15:16.218764,0,0,-6,0,0,0,74,77,134,110,33,192.02,376,-33.00,-8.00,-1053.00
2024-05-17 16:15:16.250714,0,0,-6,0,0,0,74,77,133,100,33,191.99,376,-3.00,10.00,-1023.00
2024-05-17 16:15:16.423548,0,0,-6,0,0,0,74,77,133,100,33,192.01,376,-6.00,17.00,-1005.00
2024-05-17 16:15:16.454969,0,0,-6,0,0,0,74,77,134,100,33,191.96,376,-46.00,-3.00,-953.00
2024-05-17 16:15:16.628137,0,0,-6,0,0,0,74,77,133,100,33,192.08,376,-28.00,21.00,-1015.00
2024-05-17 16:15:16.658744,0,0,-6,0,0,0,74,77,132,100,33,192.01,376,-8.00,-4.00,-1140.00
2024-05-17 16:15:16.833510,0,0,-6,0,0,0,74,77,132,100,33,192.02,377,-4.00,-1.00,-994.00
2024-05-17 16:15:16.864405,0,0,-6,0,0,0,74,77,132,100,33,191.99,377,-14.00,-2.00,-962.00
2024-05-17 16:15:16.913900,0,-1,-6,0,0,0,74,77,132,100,33,191.97,377,-54.00,12.00,-1035.00
2024-05-17 16:15:17.037949,0,-1,-6,0,0,0,74,77,133,100,33,191.99,377,-23.00,2.00,-1030.00
2024-05-17 16:15:17.168864,0,0,-6,0,0,0,74,77,133,100,33,191.98,377,-4.00,8.00,-1050.00
2024-05-17 16:15:17.344983,0,0,-6,0,0,0,74,77,134,100,33,192.01,377,4.00,9.00,-1022.00
2024-05-17 16:15:17.374290,0,0,-6,0,0,0,74,77,134,100,33,192.05,377,-21.00,17.00,-1019.00
2024-05-17 16:15:17.423541,0,-1,-7,0,0,0,74,77,134,100,33,192.03,377,-9.00,27.00,-1021.00
2024-05-17 16:15:17.551735,0,0,-6,0,0,0,74,77,135,100,33,192.05,377,-10.00,26.00,-995.00
2024-05-17 16:15:17.627687,0,0,-6,0,0,0,74,77,136,100,33,192.04,377,17.00,-13.00,-1052.00
2024-05-17 16:15:17.754642,0,0,-6,0,0,0,74,77,136,110,33,192.12,378,-20.00,45.00,-1007.00
2024-05-17 16:15:17.832471,0,0,-6,0,0,0,74,77,136,110,33,192.09,378,39.00,-25.00,-943.00
2024-05-17 16:15:17.959900,0,0,-6,0,0,0,74,77,137,110,33,192.04,378,-29.00,40.00,-944.00
2024-05-17 16:15:18.035545,0,0,-7,0,0,0,74,77,137,110,33,192.04,378,-4.00,3.00,-940.00
2024-05-17 16:15:18.164295,0,-1,-7,0,0,0,75,76,137,110,33,191.99,378,-8.00,16.00,-1004.00
2024-05-17 16:15:18.240657,0,-1,-7,0,0,0,75,76,137,110,33,192.08,378,-27.00,31.00,-960.00
2024-05-17 16:15:18.368942,0,-1,-7,0,0,0,75,76,138,110,33,192.01,378,-20.00,18.00,-1005.00
2024-05-17 16:15:18.444640,0,-1,-7,0,0,0,75,76,137,110,33,192.00,378,-11.00,26.00,-1011.00
2024-05-17 16:15:18.573806,0,-1,-7,0,0,0,75,76,137,110,33,191.99,378,34.00,17.00,-1061.00
2024-05-17 16:15:18.648642,0,-1,-7,0,0,0,75,76,137,110,33,192.04,378,25.00,-2.00,-967.00
2024-05-17 16:15:18.750724,0,0,-7,0,0,0,75,76,137,110,32,192.01,379,-10.00,-26.00,-989.00
2024-05-17 16:15:18.881593,0,0,-7,0,0,0,75,76,137,110,32,192.05,379,-7.00,56.00,-994.00
2024-05-17 16:15:18.954766,0,0,-7,0,0,0,75,76,137,110,32,192.02,379,0.00,12.00,-1035.00
2024-05-17 16:15:19.056664,0,-1,-7,0,0,0,75,76,138,110,32,192.03,379,-5.00,0.00,-983.00
2024-05-17 16:15:19.158589,0,0,-7,0,0,0,74,76,138,110,32,192.07,379,11.00,-12.00,-1006.00
2024-05-17 16:15:19.261042,0,0,-7,0,0,0,74,76,139,110,32,192.02,379,-49.00,42.00,-1002.00
2024-05-17 16:15:19.393037,0,0,-7,0,0,0,74,76,139,110,32,192.05,379,-19.00,3.00,-963.00
2024-05-17 16:15:19.465847,0,-1,-7,0,0,0,74,76,140,110,32,192.02,379,33.00,62.00,-988.00
2024-05-17 16:15:19.599215,0,-1,-7,0,0,0,74,76,141,110,32,192.07,379,0.00,-20.00,-1025.00
2024-05-17 16:15:19.668581,0,-1,-7,0,0,0,74,76,141,110,32,192.05,379,0.00,18.00,-995.00
2024-05-17 16:15:19.803536,0,-1,-7,0,0,0,74,76,141,110,32,192.03,380,14.00,2.00,-916.00
2024-05-17 16:15:19.872552,0,0,-7,0,0,0,74,76,141,110,32,192.07,380,-34.00,41.00,-1001.00
2024-05-17 16:15:19.975468,0,0,-7,0,0,0,74,76,140,110,32,192.04,380,-10.00,-23.00,-1015.00
2024-05-17 16:15:20.076516,0,0,-6,0,0,0,74,76,139,110,32,192.02,380,7.00,-9.00,-1005.00
2024-05-17 16:15:20.213195,0,0,-6,0,0,0,73,76,138,110,32,192.04,380,10.00,17.00,-984.00
2024-05-17 16:15:20.280949,0,0,-6,0,0,0,73,76,138,110,32,192.00,380,-1.00,40.00,-1047.00
2024-05-17 16:15:20.417763,0,0,-6,0,0,0,73,76,137,110,32,191.97,380,1.00,-44.00,-1070.00
2024-05-17 16:15:20.486696,0,0,-6,0,0,0,73,76,137,110,32,192.03,380,10.00,36.00,-1062.00
2024-05-17 16:15:20.587129,0,0,-6,0,0,0,73,76,136,110,32,191.99,380,-27.00,6.00,-987.00
2024-05-17 16:15:20.689148,0,0,-6,0,0,0,73,76,136,110,32,191.99,380,2.00,29.00,-960.00
2024-05-17 16:15:20.826607,0,0,-6,0,0,0,73,76,135,110,32,192.02,381,-3.00,10.00,-1000.00
2024-05-17 16:15:20.892617,0,0,-6,0,0,0,73,76,135,100,32,192.02,381,-3.00,1.00,-984.00
2024-05-17 16:15:20.943469,0,0,-6,0,0,0,73,76,135,100,32,191.94,381,33.00,-25.00,-956.00
2024-05-17 16:15:21.135786,0,0,-6,0,0,0,73,76,135,100,32,191.97,381,-2.00,25.00,-1070.00
2024-05-17 16:15:21.148935,0,0,-6,0,0,0,74,77,135,100,32,191.97,381,-19.00,-17.00,-1001.00
2024-05-17 16:15:21.249430,0,0,-6,0,0,0,74,77,136,100,32,191.97,381,-1.00,9.00,-1099.00
2024-05-17 16:15:21.441054,0,-1,-6,0,0,0,74,77,136,100,32,192.01,381,0.00,1.00,-1004.00
2024-05-17 16:15:21.455378,0,0,-6,0,0,0,74,77,137,100,32,192.03,381,22.00,17.00,-1038.00
2024-05-17 16:15:21.555478,0,0,-7,0,0,0,74,77,137,110,32,192.05,381,19.00,-22.00,-1002.00
2024-05-17 16:15:21.748119,0,0,-6,0,0,0,74,77,138,110,31,192.01,381,14.00,-25.00,-1075.00
2024-05-17 16:15:21.759228,0,0,-6,0,0,0,74,77,139,110,31,192.08,382,46.00,11.00,-968.00
2024-05-17 16:15:21.953065,0,0,-6,0,0,0,74,77,140,110,31,192.00,382,10.00,-5.00,-1045.00
2024-05-17 16:15:21.963363,0,0,-6,0,0,0,74,77,141,110,31,192.08,382,16.00,4.00,-1007.00
2024-05-17 16:15:22.157955,0,-1,-7,0,0,0,74,77,141,110,31,192.02,382,-26.00,24.00,-961.00
2024-05-17 16:15:22.168728,0,-1,-7,0,0,0,73,76,141,110,31,192.06,382,11.00,38.00,-987.00
2024-05-17 16:15:22.269362,0,-1,-7,0,0,0,73,76,141,110,31,192.06,382,-26.00,7.00,-980.00
2024-05-17 16:15:22.465065,0,0,-7,0,0,0,73,76,141,110,31,192.11,382,43.00,-19.00,-985.00
2024-05-17 16:15:22.473716,0,0,-7,0,0,0,73,76,141,110,31,192.06,382,14.00,-8.00,-984.00
2024-05-17 16:15:22.669823,0,0,-7,0,0,0,73,76,141,110,31,192.07,382,-10.00,3.00,-972.00
2024-05-17 16:15:22.677175,0,0,-6,0,0,0,73,76,141,110,31,192.00,382,-8.00,28.00,-1026.00
2024-05-17 16:15:22.779662,0,0,-7,0,0,0,73,76,142,110,31,192.08,383,6.00,-29.00,-990.00
2024-05-17 16:15:22.977739,0,0,-7,0,0,0,73,76,142,110,31,192.01,383,2.00,-19.00,-1007.00
2024-05-17 16:15:22.983721,0,0,-7,0,0,0,73,76,142,110,31,192.10,383,-5.00,11.00,-931.00
2024-05-17 16:15:23.181783,0,0,-7,0,0,0,73,76,142,110,31,192.07,383,10.00,-2.00,-1020.00
2024-05-17 16:15:23.187591,0,0,-7,0,0,0,73,76,143,110,31,192.01,383,-35.00,16.00,-946.00
2024-05-17 16:15:23.289119,0,0,-6,0,0,0,73,76,142,110,31,192.03,383,13.00,4.00,-971.00
2024-05-17 16:15:23.488948,0,0,-6,0,0,0,73,76,144,110,31,192.13,383,4.00,-14.00,-1049.00
2024-05-17 16:15:23.493503,0,0,-6,0,0,0,73,76,144,110,31,192.09,383,1.00,36.00,-1039.00
2024-05-17 16:15:23.640825,0,0,-6,0,0,0,73,76,144,110,31,192.07,383,9.00,-13.00,-1018.00
2024-05-17 16:15:23.697237,0,0,-6,0,0,0,73,76,145,110,31,192.11,383,-7.00,0.00,-969.00
2024-05-17 16:15:23.800599,0,0,-6,0,0,0,73,76,145,110,31,192.09,384,28.00,40.00,-901.00
2024-05-17 16:15:23.901764,0,0,-6,0,0,0,73,76,146,110,31,192.07,384,21.00,8.00,-981.00
2024-05-17 16:15:24.003034,0,0,-6,0,0,0,73,76,146,110,31,192.11,384,14.00,-24.00,-928.00
2024-05-17 16:15:24.105559,0,0,-6,0,0,0,73,76,146,110,31,192.11,384,15.00,29.00,-933.00
2024-05-17 16:15:24.308210,0,0,-6,0,0,0,73,76,146,110,31,192.09,384,14.00,12.00,-1049.00
2024-05-17 16:15:24.310359,0,0,-7,0,0,0,73,76,147,110,31,192.11,384,-18.00,42.00,-977.00
2024-05-17 16:15:24.411162,0,-1,-7,0,0,0,73,76,148,110,31,192.13,384,32.00,12.00,-978.00
2024-05-17 16:15:24.513469,0,-1,-7,0,0,0,73,76,147,110,31,192.13,384,-2.00,46.00,-1012.00
2024-05-17 16:15:24.615593,0,-1,-7,0,0,0,73,76,147,110,31,192.08,384,18.00,18.00,-1023.00
2024-05-17 16:15:24.718097,0,-1,-7,0,0,0,73,76,147,110,31,192.12,384,-36.00,43.00,-981.00
2024-05-17 16:15:24.820219,0,-1,-6,0,0,0,73,76,148,110,31,192.11,385,0.00,51.00,-1012.00
2024-05-17 16:15:24.870333,0,-1,-6,0,0,0,73,76,147,110,31,192.12,385,-6.00,-2.00,-980.00
2024-05-17 16:15:25.025075,0,-1,-6,0,0,0,73,76,147,110,31,192.08,385,20.00,26.00,-948.00
2024-05-17 16:15:25.074421,0,-1,-6,0,0,0,73,76,146,110,31,192.16,385,46.00,5.00,-1017.00
2024-05-17 16:15:25.229861,0,0,-6,0,0,0,74,76,146,110,31,192.14,385,8.00,-24.00,-973.00
2024-05-17 16:15:25.278702,0,0,-6,0,0,0,74,76,146,110,31,192.14,385,-10.00,28.00,-990.00
2024-05-17 16:15:25.434729,0,0,-6,0,0,0,74,76,145,110,31,192.04,385,-22.00,0.00,-977.00
2024-05-17 16:15:25.482466,0,0,-6,0,0,0,74,76,145,110,31,192.11,385,36.00,-4.00,-980.00
2024-05-17 16:15:25.586788,0,0,-6,0,0,0,74,76,145,110,31,192.03,385,7.00,13.00,-1023.00
