TS,pitch,roll,yaw,vgx,vgy,vgz,templ,temph,tof,h,bat,baro,time,agx,agy,agz
2024-05-19 08:50:34.203355,0,0,0,0,0,0,56,60,10,0,90,130.78,0,3.00,1.00,-1001.00
2024-05-19 08:50:34.226397,0,0,0,0,0,0,56,60,10,0,90,130.85,0,3.00,2.00,-1000.00
2024-05-19 08:50:34.408050,0,0,0,0,0,0,56,60,10,0,90,130.83,0,3.00,2.00,-999.00
2024-05-19 08:50:34.430644,0,0,0,0,0,0,56,60,10,0,90,130.84,0,2.00,2.00,-997.00
2024-05-19 08:50:34.612820,0,0,0,0,0,0,56,60,10,0,90,130.79,0,3.00,3.00,-1002.00
2024-05-19 08:50:34.613198,0,0,0,0,0,0,56,60,10,0,90,130.81,0,3.00,2.00,-998.00
2024-05-19 08:50:34.685245,0,0,0,0,0,0,56,60,10,0,90,130.80,0,3.00,2.00,-998.00
2024-05-19 08:50:34.822975,0,0,0,0,0,0,56,60,10,0,90,130.83,0,3.00,1.00,-998.00
2024-05-19 08:50:34.889310,0,0,0,0,0,0,56,60,10,0,90,130.86,0,2.00,2.00,-998.00
2024-05-19 08:50:34.991365,0,0,0,0,0,0,56,60,10,0,90,130.84,0,3.00,1.00,-1001.00
2024-05-19 08:50:35.124881,0,0,0,0,0,0,57,60,10,0,90,130.87,0,2.00,2.00,-1001.00
2024-05-19 08:50:35.195407,0,0,0,0,0,0,57,60,10,0,90,130.78,0,3.00,1.00,-1002.00
2024-05-19 08:50:35.329650,0,0,0,0,0,0,57,60,10,0,90,130.78,0,3.00,3.00,-998.00
2024-05-19 08:50:35.399171,0,0,0,0,0,0,57,60,10,0,90,130.85,0,3.00,1.00,-1000.00
2024-05-19 08:50:35.534484,0,0,0,0,0,0,57,60,10,0,90,130.84,0,2.00,1.00,-1001.00
2024-05-19 08:50:35.603394,0,0,0,0,0,0,57,60,10,0,90,130.81,0,3.00,1.00,-999.00
2024-05-19 08:50:35.739289,0,0,0,0,0,0,57,60,10,0,90,130.85,0,4.00,2.00,-1000.00
2024-05-19 08:50:35.807486,0,0,0,0,0,0,57,60,10,0,90,130.83,0,4.00,1.00,-998.00
2024-05-19 08:50:35.944085,0,0,0,0,0,0,57,60,10,0,90,130.78,0,3.00,1.00,-1001.00
2024-05-19 08:50:36.011342,0,0,0,0,0,0,57,60,10,0,90,130.81,0,2.00,3.00,-1001.00
2024-05-19 08:50:36.148936,0,0,0,0,0,0,58,60,10,0,90,130.83,0,3.00,2.00,-1000.00
2024-05-19 08:50:36.215355,0,0,0,0,0,0,58,60,10,0,90,130.84,0,4.00,2.00,-1000.00
2024-05-19 08:50:36.353600,0,0,0,0,0,0,58,60,10,0,90,130.85,0,3.00,3.00,-1000.00
2024-05-19 08:50:36.419380,0,0,0,0,0,0,58,60,10,0,90,130.82,0,4.00,1.00,-1000.00
2024-05-19 08:50:36.558519,0,0,0,0,0,0,58,60,10,0,90,130.78,0,4.00,1.00,-999.00
2024-05-19 08:50:36.623258,0,0,0,0,0,0,58,60,10,0,90,130.77,0,2.00,1.00,-1001.00
2024-05-19 08:50:36.763251,0,0,0,0,0,0,58,60,10,0,90,130.79,0,1.00,2.00,-1000.00
2024-05-19 08:50:36.827420,0,0,0,0,0,0,58,60,10,0,90,130.76,0,4.00,2.00,-1000.00
2024-05-19 08:50:36.968063,0,0,0,0,0,0,58,60,10,0,90,130.85,0,2.00,1.00,-1002.00
2024-05-19 08:50:37.031246,0,0,0,0,0,0,58,60,10,0,90,130.86,0,3.00,1.00,-997.00
2024-05-19 08:50:37.172925,0,0,0,0,0,0,58,60,10,0,90,130.86,0,4.00,2.00,-1001.00
2024-05-19 08:50:37.235278,0,0,0,0,0,0,58,60,10,0,90,130.81,0,3.00,1.00,-1000.00
2024-05-19 08:50:37.377682,0,0,0,0,0,0,58,60,10,0,90,130.78,0,4.00,1.00,-1001.00
2024-05-19 08:50:37.439245,0,0,0,0,0,0,58,60,10,0,90,130.83,0,2.00,1.00,-1002.00
2024-05-19 08:50:37.582466,0,0,0,0,0,0,58,60,10,0,90,130.79,0,3.00,1.00,-1001.00
2024-05-19 08:50:37.645887,0,0,0,0,0,0,58,60,10,0,90,130.75,0,3.00,1.00,-1000.00
2024-05-19 08:50:37.694196,0,0,0,0,0,0,58,60,10,0,90,130.80,0,4.00,2.00,-1002.00
2024-05-19 08:50:37.889702,0,0,0,0,0,0,58,60,10,0,90,130.81,0,2.00,1.00,-1000.00
2024-05-19 08:50:37.898271,0,0,0,0,0,0,58,60,10,0,90,130.82,0,1.00,2.00,-999.00
2024-05-19 08:50:38.000713,0,0,0,0,0,0,58,60,10,0,90,130.81,0,4.00,1.00,-1000.00
2024-05-19 08:50:38.196897,0,0,0,0,0,0,58,60,10,0,90,130.84,0,3.00,1.00,-1000.00
2024-05-19 08:50:38.204135,0,0,0,0,0,0,58,60,10,0,90,130.79,0,4.00,1.00,-999.00
2024-05-19 08:50:38.401673,0,0,0,0,0,0,58,60,10,0,90,130.85,0,2.00,2.00,-1000.00
2024-05-19 08:50:38.408531,0,0,0,0,0,0,58,60,10,0,90,130.78,0,3.00,1.00,-1000.00
2024-05-19 08:50:38.568248,0,0,0,0,0,0,58,60,10,0,90,130.78,0,3.00,1.00,-1001.00
2024-05-19 08:50:38.612202,0,0,0,0,0,0,58,60,10,0,90,130.79,0,4.00,2.00,-1001.00
2024-05-19 08:50:38.714325,0,0,0,0,0,0,58,60,10,0,90,130.79,0,2.00,2.00,-1000.00
2024-05-19 08:50:38.914367,0,0,0,0,0,0,58,60,10,0,90,130.80,0,3.00,1.00,-999.00
2024-05-19 08:50:38.918695,0,0,0,0,0,0,58,60,10,0,90,130.82,0,3.00,2.00,-1000.00
2024-05-19 08:50:39.020674,0,0,0,0,0,0,58,60,10,0,90,130.80,0,0.00,1.00,-998.00
2024-05-19 08:50:39.122908,0,0,0,0,0,0,57,60,10,0,90,130.82,0,4.00,2.00,-1003.00
2024-05-19 08:50:39.224494,0,0,0,0,0,0,57,60,10,0,90,130.82,0,3.00,2.00,-1001.00
2024-05-19 08:50:39.326714,0,0,0,0,0,0,57,60,10,0,90,130.81,0,2.00,2.00,-1001.00
2024-05-19 08:50:39.428573,0,0,0,0,0,0,57,60,10,0,90,130.83,0,3.00,1.00,-1000.00
2024-05-19 08:50:39.530097,0,0,0,0,0,0,57,60,10,0,90,130.77,0,3.00,1.00,-1000.00
2024-05-19 08:50:39.632039,0,0,0,0,0,0,57,60,10,0,90,130.79,0,4.00,1.00,-1001.00
2024-05-19 08:50:39.835086,0,0,0,0,0,0,57,60,10,0,90,130.79,0,7.00,0.00,-1000.00
2024-05-19 08:50:39.836384,0,0,0,0,0,0,57,60,10,0,90,130.79,0,4.00,8.00,-1003.00
2024-05-19 08:50:40.040158,0,0,0,0,0,0,57,60,10,0,90,130.79,0,-14.00,-15.00,-997.00
2024-05-19 08:50:40.040425,0,0,0,0,0,0,57,60,10,0,90,130.79,0,-18.00,-18.00,-1003.00
2024-05-19 08:50:40.141977,0,0,0,0,0,0,58,61,10,0,90,130.79,0,-1.00,3.00,-1060.00
2024-05-19 08:50:40.244691,1,0,0,0,0,-1,58,61,18,0,90,130.79,0,0.00,1.00,-1183.00
2024-05-19 08:50:40.346997,0,0,0,0,0,-4,58,61,18,0,90,130.79,0,-1.00,-44.00,-1360.00
2024-05-19 08:50:40.449394,-1,0,0,0,0,-6,58,61,18,0,90,130.88,0,0.00,-9.00,-1137.00
2024-05-19 08:50:40.551955,-1,0,0,0,0,-7,58,61,21,0,90,131.18,0,-54.00,-6.00,-1027.00
2024-05-19 08:50:40.654249,-2,0,0,0,0,-7,58,61,29,10,90,131.19,1,-12.00,-9.00,-980.00
2024-05-19 08:50:40.756695,-2,1,0,0,0,-7,58,61,34,20,90,131.34,1,-52.00,4.00,-912.00
2024-05-19 08:50:40.857054,-2,0,0,0,0,-6,58,61,45,20,90,131.36,1,-48.00,4.00,-844.00
2024-05-19 08:50:40.958944,-3,0,0,-1,0,-5,58,61,53,20,90,131.40,1,-45.00,15.00,-922.00
2024-05-19 08:50:41.010210,-4,0,0,0,0,-4,58,61,59,30,90,131.56,1,2.00,0.00,-902.00
2024-05-19 08:50:41.166286,-3,0,0,0,0,-3,59,62,65,30,90,131.68,1,-52.00,30.00,-923.00
2024-05-19 08:50:41.213873,-3,0,0,0,0,-2,59,62,70,40,90,131.67,1,-29.00,13.00,-891.00
2024-05-19 08:50:41.371074,-2,0,0,0,0,-2,59,62,74,40,90,131.66,1,-16.00,6.00,-922.00
2024-05-19 08:50:41.417862,-2,-1,0,0,0,-1,59,62,78,40,90,131.68,1,-29.00,30.00,-964.00
2024-05-19 08:50:41.570969,-2,-2,0,0,0,-1,59,62,80,40,90,131.76,1,-40.00,5.00,-995.00
2024-05-19 08:50:41.621861,-2,-1,0,0,0,0,59,62,83,50,90,131.78,2,-45.00,23.00,-962.00
2024-05-19 08:50:41.780679,-2,-1,0,0,0,0,59,62,85,50,90,131.69,2,-22.00,-5.00,-969.00
2024-05-19 08:50:41.825822,-2,-1,0,0,0,0,59,62,87,50,90,131.82,2,-38.00,26.00,-977.00
2024-05-19 08:50:41.985397,-2,-1,0,0,0,0,59,62,88,50,90,131.74,2,-38.00,24.00,-991.00
2024-05-19 08:50:42.030240,-2,0,0,0,0,0,59,62,90,50,90,131.84,2,-36.00,4.00,-990.00
2024-05-19 08:50:42.190266,-2,0,0,0,0,0,60,61,91,50,90,131.84,2,-34.00,9.00,-979.00
2024-05-19 08:50:42.236375,-2,0,0,0,0,0,60,61,92,50,90,131.87,2,-34.00,10.00,-964.00
2024-05-19 08:50:42.335788,-1,0,0,0,0,0,60,61,92,60,90,131.84,2,-31.00,9.00,-943.00
2024-05-19 08:50:42.497451,-2,0,0,0,0,0,60,61,92,60,90,131.79,2,-33.00,16.00,-986.00
2024-05-19 08:50:42.540071,-2,0,0,0,0,0,60,61,92,60,90,131.80,2,-55.00,23.00,-1000.00
2024-05-19 08:50:42.702260,-1,0,0,0,0,0,60,61,92,60,90,131.79,3,-28.00,12.00,-957.00
2024-05-19 08:50:42.743887,-1,0,0,0,0,0,60,61,91,60,90,131.77,3,-35.00,19.00,-971.00
2024-05-19 08:50:42.907068,-2,0,0,0,0,0,60,61,91,60,90,131.93,3,-32.00,15.00,-1004.00
2024-05-19 08:50:42.947804,-1,0,0,0,0,0,60,61,90,60,90,131.75,3,-34.00,10.00,-962.00
2024-05-19 08:50:43.049830,-1,0,0,0,0,0,60,61,89,60,90,131.87,3,-24.00,0.00,-1015.00
2024-05-19 08:50:43.214321,-1,0,0,0,0,0,60,62,89,60,90,131.86,3,-41.00,5.00,-993.00
2024-05-19 08:50:43.253789,-1,0,0,0,0,0,60,62,88,60,90,131.80,3,-13.00,18.00,-983.00
2024-05-19 08:50:43.419048,-1,0,0,0,0,0,60,62,87,50,90,131.83,3,-18.00,-3.00,-978.00
2024-05-19 08:50:43.459103,-1,0,0,0,0,0,60,62,86,50,90,131.78,3,-18.00,2.00,-995.00
2024-05-19 08:50:43.623791,-2,0,0,0,0,0,60,62,86,50,90,131.70,3,-47.00,4.00,-1032.00
2024-05-19 08:50:43.661776,-2,0,0,0,0,0,60,62,84,50,90,131.76,4,-34.00,10.00,-973.00
2024-05-19 08:50:43.828645,-2,0,0,0,0,0,60,62,84,50,90,131.75,4,-40.00,13.00,-999.00
2024-05-19 08:50:43.865716,-2,0,0,0,0,0,60,62,83,50,90,131.81,4,-32.00,-1.00,-1015.00
2024-05-19 08:50:44.034827,-1,0,0,0,0,0,60,62,82,50,90,131.77,4,0.00,-4.00,-1000.00
2024-05-19 08:50:44.069735,-1,0,0,0,0,0,60,62,81,50,90,131.80,4,-6.00,11.00,-985.00
2024-05-19 08:50:44.238181,-1,0,0,0,0,0,60,62,80,50,90,131.75,4,-4.00,0.00,-1002.00
2024-05-19 08:50:44.273708,-1,0,0,0,0,0,60,62,79,50,90,131.78,4,-40.00,18.00,-1009.00
2024-05-19 08:50:44.442996,-1,0,0,0,0,0,60,62,79,50,90,131.70,4,-9.00,1.00,-1019.00
2024-05-19 08:50:44.477711,-1,0,0,0,0,0,60,62,78,50,90,131.65,4,-32.00,10.00,-1052.00
2024-05-19 08:50:44.579961,-1,0,0,0,0,0,60,62,78,50,90,131.65,4,-10.00,1.00,-945.00
2024-05-19 08:50:44.750245,-1,0,0,0,0,0,60,62,78,50,90,131.73,5,-53.00,12.00,-993.00
2024-05-19 08:50:44.750315,-1,0,0,0,0,0,60,62,77,50,90,131.74,5,-10.00,5.00,-944.00
2024-05-19 08:50:44.834652,-1,0,0,0,0,0,60,62,77,50,90,131.70,5,-32.00,3.00,-985.00
2024-05-19 08:50:44.955075,-1,0,0,0,0,0,60,62,76,50,90,131.71,5,-6.00,-6.00,-1031.00
2024-05-19 08:50:45.038649,-1,0,0,0,0,0,60,62,76,50,90,131.68,5,-6.00,7.00,-958.00
2024-05-19 08:50:45.191569,-1,0,0,0,0,0,59,62,76,40,90,131.73,5,-36.00,21.00,-1036.00
2024-05-19 08:50:45.364649,-1,0,0,0,0,0,59,62,75,40,90,131.68,5,-49.00,13.00,-1024.00
2024-05-19 08:50:45.364719,-1,0,0,0,0,0,59,62,75,40,90,131.67,5,3.00,-11.00,-1019.00
2024-05-19 08:50:45.448221,-1,0,0,0,0,0,59,62,75,40,90,131.78,5,-21.00,-1.00,-995.00
2024-05-19 08:50:45.548668,-1,0,0,0,0,0,59,62,76,40,90,131.70,5,-28.00,13.00,-1002.00
2024-05-19 08:50:45.650855,-1,0,0,0,0,0,59,62,76,40,90,131.77,6,-13.00,3.00,-982.00
2024-05-19 08:50:45.774361,-1,0,0,0,0,0,59,62,76,40,90,131.80,6,-22.00,11.00,-971.00
2024-05-19 08:50:45.855201,-1,0,0,0,0,0,59,62,77,50,90,131.67,6,-26.00,-1.00,-1011.00
2024-05-19 08:50:45.979251,-2,0,0,0,0,0,59,62,77,50,90,131.68,6,-1.00,-26.00,-1006.00
2024-05-19 08:50:46.058613,-2,0,0,0,0,0,59,62,78,50,90,131.73,6,-31.00,5.00,-986.00
2024-05-19 08:50:46.183834,-2,0,0,0,0,0,60,63,78,50,90,131.66,6,-40.00,7.00,-1019.00
2024-05-19 08:50:46.262761,-2,0,0,0,0,0,60,63,79,50,90,131.65,6,0.00,-11.00,-958.00
2024-05-19 08:50:46.388770,-2,0,0,0,0,0,60,63,79,50,90,131.75,6,-42.00,-22.00,-1013.00
2024-05-19 08:50:46.466883,-2,0,0,0,0,0,60,63,79,50,90,131.77,6,-27.00,-9.00,-968.00
2024-05-19 08:50:46.568652,-2,0,0,0,0,0,60,63,79,50,90,131.71,6,-30.00,-5.00,-955.00
2024-05-19 08:50:46.696007,-2,0,0,0,0,0,60,63,79,50,90,131.76,7,-44.00,6.00,-996.00
2024-05-19 08:50:46.772757,-2,0,0,0,0,0,60,63,80,50,90,131.70,7,-25.00,-25.00,-1029.00
2024-05-19 08:50:46.900822,-2,0,0,0,0,0,60,63,80,50,90,131.72,7,-52.00,-5.00,-1004.00
2024-05-19 08:50:46.976629,-2,0,0,0,0,0,60,63,80,50,90,131.76,7,-55.00,-11.00,-1085.00
2024-05-19 08:50:47.105512,-2,0,0,0,0,0,60,63,80,50,90,131.79,7,-32.00,-10.00,-930.00
2024-05-19 08:50:47.180655,-2,0,0,0,0,0,61,63,80,50,90,131.71,7,-66.00,9.00,-1038.00
2024-05-19 08:50:47.310343,-2,0,0,0,0,0,61,63,80,50,90,131.71,7,-52.00,-16.00,-1006.00
2024-05-19 08:50:47.384667,-2,0,0,0,0,0,61,63,80,50,90,131.76,7,-47.00,-12.00,-962.00
2024-05-19 08:50:47.515543,-2,0,0,0,0,0,61,63,80,50,90,131.71,7,-21.00,-4.00,-1025.00
2024-05-19 08:50:47.590437,-2,0,0,0,0,0,61,63,79,50,90,131.70,7,-31.00,3.00,-1025.00
2024-05-19 08:50:47.693010,-2,0,0,0,0,0,61,63,80,50,90,131.73,8,-32.00,-40.00,-1051.00
2024-05-19 08:50:47.793405,-2,0,0,0,0,0,61,63,79,50,90,131.77,8,-9.00,1.00,-1053.00
2024-05-19 08:50:47.894655,-2,0,0,0,0,0,61,63,80,50,90,131.78,8,2.00,-12.00,-1072.00
2024-05-19 08:50:47.996624,-2,0,0,0,0,-1,61,63,82,50,90,131.76,8,-9.00,-22.00,-1098.00
2024-05-19 08:50:48.132178,-1,0,0,0,0,-2,61,63,85,50,90,131.83,8,-41.00,-23.00,-1231.00
2024-05-19 08:50:48.200668,-1,0,0,0,0,-4,61,63,89,60,90,131.89,8,-23.00,2.00,-1061.00
2024-05-19 08:50:48.334281,-1,0,0,0,0,-4,61,63,93,60,90,131.88,8,8.00,16.00,-1006.00
2024-05-19 08:50:48.404515,0,0,0,0,0,-4,61,63,98,70,90,131.94,8,14.00,-5.00,-1010.00
2024-05-19 08:50:48.538992,0,0,0,0,0,-5,61,63,104,70,90,132.06,8,-22.00,3.00,-1077.00
2024-05-19 08:50:48.608536,0,0,0,0,0,-5,61,63,109,80,90,132.17,9,-42.00,13.00,-1095.00
2024-05-19 08:50:48.743813,0,0,0,0,0,-5,61,63,116,80,90,132.10,9,14.00,3.00,-1011.00
2024-05-19 08:50:48.812459,0,0,0,0,0,-5,61,63,122,90,90,132.24,9,-26.00,18.00,-1031.00
2024-05-19 08:50:48.948598,-1,0,0,0,0,-5,61,63,127,100,90,132.28,9,5.00,1.00,-976.00
2024-05-19 08:50:48.965437,-1,-1,0,0,0,-5,61,63,132,100,90,132.35,9,-29.00,0.00,-936.00
2024-05-19 08:50:49.067620,-1,-1,0,0,0,-4,61,63,139,110,90,132.34,9,-1.00,17.00,-926.00
2024-05-19 08:50:49.255812,-1,-1,0,0,0,-4,61,63,143,110,90,132.38,9,2.00,-7.00,-934.00
2024-05-19 08:50:49.271524,-1,-1,0,0,0,-4,61,63,147,110,90,132.43,9,-12.00,12.00,-927.00
2024-05-19 08:50:49.461043,-1,0,0,0,0,-3,61,63,151,120,90,132.47,9,-11.00,-4.00,-971.00
2024-05-19 08:50:49.475339,-1,0,0,0,0,-3,61,63,156,120,90,132.43,9,-32.00,-16.00,-971.00
2024-05-19 08:50:49.665403,-1,0,0,0,0,-3,61,63,159,130,90,132.51,10,-10.00,0.00,-952.00
2024-05-19 08:50:49.679440,-1,0,0,0,0,-2,61,63,162,130,90,132.61,10,-19.00,26.00,-968.00
2024-05-19 08:50:49.870188,-1,0,0,0,0,-2,61,63,166,130,90,132.59,10,-8.00,1.00,-984.00
2024-05-19 08:50:49.883384,-1,0,0,0,0,-2,61,63,168,130,90,132.64,10,-18.00,0.00,-999.00
2024-05-19 08:50:50.075064,-1,0,0,0,0,-2,61,63,171,140,90,132.65,10,-34.00,15.00,-985.00
2024-05-19 08:50:50.088400,-2,0,0,0,0,-2,61,63,175,140,90,132.70,10,-13.00,-20.00,-1026.00
2024-05-19 08:50:50.279822,-2,0,0,0,0,-1,61,64,176,140,90,132.67,10,-46.00,27.00,-1000.00
2024-05-19 08:50:50.292708,-1,-1,0,0,0,-1,61,64,178,140,90,132.68,10,-19.00,11.00,-931.00
2024-05-19 08:50:50.484676,-1,-1,0,0,0,0,61,64,180,140,90,132.68,10,-21.00,15.00,-961.00
2024-05-19 08:50:50.496341,-1,-1,0,0,0,0,61,64,181,150,90,132.75,10,-38.00,33.00,-1022.00
2024-05-19 08:50:50.598445,-1,-1,0,0,0,0,61,64,181,150,90,132.67,11,-48.00,37.00,-964.00
2024-05-19 08:50:50.792089,-1,-1,0,0,0,0,61,64,183,150,90,132.69,11,-21.00,13.00,-919.00
2024-05-19 08:50:50.802443,-1,-1,0,0,0,0,61,64,183,150,90,132.78,11,-10.00,15.00,-969.00
2024-05-19 08:50:50.996720,-1,-1,0,0,0,0,61,64,183,150,90,132.69,11,-17.00,4.00,-960.00
2024-05-19 08:50:51.006642,-1,-1,0,0,0,0,61,64,183,150,90,132.83,11,3.00,26.00,-994.00
2024-05-19 08:50:51.201769,-1,-1,0,0,0,0,61,64,183,150,90,132.82,11,-3.00,12.00,-1017.00
2024-05-19 08:50:51.211500,-1,-1,0,0,0,0,62,63,184,150,90,132.77,11,-12.00,10.00,-947.00
2024-05-19 08:50:51.406605,-1,-1,0,0,0,0,62,63,184,150,90,132.76,11,-19.00,48.00,-1059.00
2024-05-19 08:50:51.419152,-1,-1,0,0,0,0,62,63,184,150,90,132.68,11,-28.00,12.00,-1008.00
2024-05-19 08:50:51.517688,-1,-1,0,0,0,0,62,63,185,150,90,132.67,11,-16.00,30.00,-980.00
2024-05-19 08:50:51.713678,-1,-1,0,0,0,0,62,63,186,150,90,132.72,12,-50.00,42.00,-959.00
2024-05-19 08:50:51.721507,-1,-1,0,0,0,0,62,63,185,150,90,132.76,12,-13.00,15.00,-957.00
2024-05-19 08:50:51.918561,-1,-1,0,0,0,0,62,63,185,150,90,132.73,12,10.00,13.00,-935.00
2024-05-19 08:50:51.925948,-1,-1,0,0,0,0,62,63,184,150,90,132.73,12,-18.00,25.00,-980.00
2024-05-19 08:50:52.123164,-1,-1,0,0,0,0,62,63,184,150,90,132.74,12,-51.00,22.00,-991.00
2024-05-19 08:50:52.129283,-1,-1,0,0,0,0,62,63,184,150,90,132.82,12,-26.00,33.00,-1014.00
2024-05-19 08:50:52.231563,-1,-1,0,0,0,0,63,64,185,150,90,132.73,12,-12.00,38.00,-1013.00
2024-05-19 08:50:52.333254,-1,-1,0,0,0,0,63,64,185,150,90,132.75,12,-47.00,7.00,-1026.00
2024-05-19 08:50:52.532581,-1,-1,0,0,0,0,63,64,184,150,90,132.72,12,-33.00,12.00,-929.00
2024-05-19 08:50:52.537792,-1,-1,0,0,0,0,63,64,185,150,90,132.67,12,0.00,14.00,-969.00
2024-05-19 08:50:52.737365,-1,-1,0,0,0,0,63,64,184,150,90,132.76,13,-8.00,4.00,-977.00
2024-05-19 08:50:52.737446,-1,-1,0,0,0,1,63,64,183,150,90,132.70,13,-16.00,32.00,-941.00
2024-05-19 08:50:52.793158,-1,-1,0,0,0,1,63,64,182,150,90,132.66,13,-37.00,12.00,-968.00
2024-05-19 08:50:52.942626,-1,-1,0,0,0,1,63,64,180,150,90,132.64,13,-31.00,26.00,-1007.00
2024-05-19 08:50:53.005057,-1,-1,0,0,0,2,63,64,178,140,90,132.65,13,-42.00,39.00,-1022.00
2024-05-19 08:50:53.099201,-1,-1,0,0,0,2,63,64,175,140,90,132.65,13,2.00,30.00,-964.00
2024-05-19 08:50:53.249402,-1,-1,0,0,0,2,62,64,173,140,90,132.63,13,-51.00,25.00,-999.00
2024-05-19 08:50:53.303298,-1,-1,0,0,0,2,62,64,170,140,89,132.56,13,-15.00,10.00,-1024.00
2024-05-19 08:50:53.454149,-1,-1,0,0,0,2,62,64,167,130,89,132.48,13,-24.00,22.00,-943.00
2024-05-19 08:50:53.511405,-2,-1,0,0,0,2,62,64,164,130,89,132.53,13,-41.00,15.00,-980.00
2024-05-19 08:50:53.614120,-1,-1,0,0,0,2,62,64,162,130,89,132.52,14,-20.00,25.00,-964.00
2024-05-19 08:50:53.711233,-1,-1,0,0,0,2,62,64,160,130,89,132.52,14,-41.00,15.00,-998.00
2024-05-19 08:50:53.863800,-2,-1,0,0,0,2,62,64,158,120,89,132.51,14,-55.00,47.00,-1026.00
2024-05-19 08:50:53.915223,-2,-1,0,0,0,1,62,64,155,120,89,132.53,14,-36.00,32.00,-949.00
2024-05-19 08:50:54.068906,-2,-1,0,0,0,1,62,64,154,120,89,132.52,14,-12.00,24.00,-1021.00
2024-05-19 08:50:54.123317,-2,-1,0,0,0,1,62,64,153,120,89,132.49,14,15.00,36.00,-962.00
2024-05-19 08:50:54.221243,-2,-1,0,0,0,1,62,64,150,120,89,132.54,14,-46.00,23.00,-978.00
2024-05-19 08:50:54.375767,-2,-1,0,0,0,1,62,64,150,120,89,132.53,14,-35.00,17.00,-993.00
2024-05-19 08:50:54.425142,-2,-1,0,0,0,1,62,64,148,120,89,132.55,14,-1.00,-1.00,-1057.00
2024-05-19 08:50:54.586550,-1,-1,0,0,0,1,62,64,147,110,89,132.47,14,-6.00,4.00,-1019.00
2024-05-19 08:50:54.629175,-1,-1,0,0,0,1,62,64,146,110,89,132.45,15,2.00,14.00,-1004.00
2024-05-19 08:50:54.785350,-1,-1,0,0,0,1,62,64,144,110,89,132.43,15,14.00,29.00,-962.00
2024-05-19 08:50:54.833122,-1,-1,0,0,0,1,62,64,144,110,89,132.39,15,-4.00,33.00,-1040.00
2024-05-19 08:50:54.990022,-1,-1,0,0,0,1,62,64,142,110,89,132.36,15,-48.00,34.00,-1025.00
2024-05-19 08:50:55.037447,-1,-1,0,0,0,1,62,64,141,110,89,132.35,15,-8.00,46.00,-994.00
2024-05-19 08:50:55.194943,-1,-1,0,0,0,1,62,64,140,110,89,132.32,15,0.00,-3.00,-1018.00
2024-05-19 08:50:55.241107,-1,-1,0,0,0,0,62,65,140,110,89,132.31,15,-21.00,13.00,-1022.00
2024-05-19 08:50:55.399751,0,-1,0,0,0,0,62,65,139,110,89,132.40,15,-24.00,29.00,-1046.00
2024-05-19 08:50:55.445195,0,-1,0,0,0,0,62,65,138,100,89,132.37,15,-10.00,18.00,-1024.00
2024-05-19 08:50:55.604658,0,-1,0,0,0,0,62,65,138,100,89,132.39,15,-8.00,28.00,-1042.00
2024-05-19 08:50:55.649549,-1,-1,0,0,0,0,62,65,137,100,89,132.36,16,-14.00,35.00,-932.00
2024-05-19 08:50:55.812035,-1,-1,0,0,0,0,62,65,138,100,89,132.28,16,-20.00,32.00,-994.00
2024-05-19 08:50:55.854148,-1,-2,0,0,0,0,62,65,138,100,89,132.32,16,-26.00,27.00,-1056.00
2024-05-19 08:50:56.014631,-1,-2,0,0,0,0,62,65,138,100,89,132.29,16,-22.00,44.00,-1023.00
2024-05-19 08:50:56.060942,-1,-2,0,0,0,0,62,65,138,100,89,132.33,16,-13.00,59.00,-975.00
2024-05-19 08:50:56.108273,-1,-2,0,0,0,0,62,65,138,100,89,132.39,16,-32.00,17.00,-1051.00
2024-05-19 08:50:56.261322,-2,-2,0,0,0,0,63,66,138,110,88,132.39,16,-16.00,33.00,-980.00
2024-05-19 08:50:56.423966,-1,-2,0,0,0,0,63,66,138,110,88,132.40,16,-45.00,35.00,-1038.00
2024-05-19 08:50:56.465207,-2,-2,0,0,0,0,63,66,137,110,88,132.37,16,8.00,27.00,-944.00
2024-05-19 08:50:56.567377,-2,-2,0,0,0,0,63,66,138,110,88,132.39,16,5.00,18.00,-1024.00
2024-05-19 08:50:56.731155,-2,-2,0,0,0,0,63,66,136,100,88,132.39,17,-18.00,37.00,-1046.00
2024-05-19 08:50:56.771140,-1,-2,0,0,0,0,63,66,136,100,88,132.39,17,-21.00,25.00,-1007.00
2024-05-19 08:50:56.935886,-1,-2,0,0,0,0,63,66,136,100,88,132.33,17,-35.00,40.00,-1058.00
2024-05-19 08:50:56.936086,-1,-1,0,0,0,0,63,66,136,100,88,132.33,17,18.00,25.00,-979.00
2024-05-19 08:50:57.027301,-1,-1,0,0,0,0,63,66,135,100,88,132.30,17,-9.00,27.00,-964.00
2024-05-19 08:50:57.140699,-1,-2,0,0,0,0,63,66,135,100,88,132.32,17,-18.00,14.00,-1015.00
2024-05-19 08:50:57.230375,-1,-2,0,0,0,0,63,66,135,100,88,132.36,17,-13.00,32.00,-1049.00
2024-05-19 08:50:57.345508,-1,-2,0,0,0,0,63,66,135,100,88,132.46,17,-8.00,20.00,-975.00
2024-05-19 08:50:57.433966,-1,-2,0,0,0,0,63,66,135,100,88,132.42,17,-16.00,33.00,-1027.00
2024-05-19 08:50:57.550129,-1,-2,0,0,0,0,63,66,135,100,88,132.36,17,-40.00,21.00,-985.00
2024-05-19 08:50:57.638015,-4,0,0,0,0,0,63,66,135,100,88,132.43,18,1.00,26.00,-950.00
2024-05-19 08:50:57.754853,-8,0,0,1,0,0,63,66,136,100,88,132.40,18,-64.00,34.00,-1013.00
2024-05-19 08:50:57.841982,-8,-1,0,2,0,0,63,66,137,100,88,132.41,18,-38.00,44.00,-973.00
2024-05-19 08:50:57.959788,-8,-1,0,4,0,0,63,66,137,100,88,132.39,18,-44.00,8.00,-1040.00
2024-05-19 08:50:58.046676,-8,-1,0,5,0,0,63,66,138,100,88,132.33,18,-26.00,28.00,-966.00
2024-05-19 08:50:58.164511,-8,-2,0,6,0,0,63,66,139,100,88,132.35,18,-37.00,25.00,-975.00
2024-05-19 08:50:58.250946,-8,-2,0,6,0,0,63,66,138,100,88,132.24,18,-43.00,10.00,-1004.00
2024-05-19 08:50:58.369336,-6,-2,0,7,0,0,63,66,138,100,88,132.28,18,-57.00,36.00,-980.00
2024-05-19 08:50:58.455036,-5,-2,0,7,0,0,63,66,139,100,88,132.25,18,-75.00,44.00,-1058.00
2024-05-19 08:50:58.556978,-2,-3,0,8,0,0,63,66,139,100,88,132.23,18,-56.00,21.00,-949.00
2024-05-19 08:50:58.676513,0,-3,0,7,0,0,63,66,140,100,88,132.33,19,-43.00,13.00,-1012.00
2024-05-19 08:50:58.760939,2,-3,0,6,0,0,63,66,140,100,88,132.32,19,-33.00,9.00,-1004.00
2024-05-19 08:50:58.881326,3,-2,0,5,0,0,63,66,140,110,88,132.33,19,-61.00,24.00,-949.00
2024-05-19 08:50:58.964895,2,-1,0,4,0,0,63,66,140,110,88,132.38,19,-63.00,58.00,-1062.00
2024-05-19 08:50:59.067067,0,-2,0,3,0,0,63,66,140,110,88,132.36,19,-29.00,17.00,-1028.00
2024-05-19 08:50:59.188493,0,-2,0,3,0,0,63,66,140,110,88,132.38,19,-17.00,49.00,-997.00
2024-05-19 08:50:59.271011,-1,-2,0,2,0,0,63,67,140,110,87,132.40,19,-48.00,44.00,-994.00
2024-05-19 08:50:59.393318,-1,-2,0,2,0,0,63,67,139,110,87,132.42,19,-8.00,21.00,-1004.00
2024-05-19 08:50:59.474915,-1,-1,0,2,0,0,63,67,139,110,87,132.39,19,-16.00,37.00,-931.00
2024-05-19 08:50:59.598124,-1,-1,0,2,0,0,63,67,139,110,87,132.40,19,-46.00,51.00,-1005.00
2024-05-19 08:50:59.678889,-1,-2,0,2,0,0,63,67,139,110,87,132.39,20,-17.00,46.00,-1005.00
2024-05-19 08:50:59.802911,-1,-3,0,2,0,0,63,67,139,110,87,132.39,20,-40.00,14.00,-1063.00
2024-05-19 08:50:59.882875,-1,-3,0,2,0,0,63,67,139,110,87,132.35,20,-21.00,13.00,-931.00
2024-05-19 08:50:59.985524,-1,-2,0,2,0,0,63,67,139,110,87,132.37,20,-13.00,46.00,-972.00
2024-05-19 08:51:00.086799,-2,0,0,1,0,0,63,67,140,110,87,132.38,20,-1.00,16.00,-920.00
2024-05-19 08:51:00.219668,-2,0,0,1,0,0,63,67,140,110,87,132.31,20,-42.00,29.00,-963.00
2024-05-19 08:51:00.290837,-1,-1,0,1,0,0,64,67,140,110,87,132.43,20,-53.00,44.00,-1001.00
2024-05-19 08:51:00.418073,-1,-1,0,1,0,0,64,67,141,110,87,132.54,20,0.00,23.00,-1032.00
2024-05-19 08:51:00.497437,0,-1,0,1,0,0,64,67,142,110,87,132.52,20,0.00,47.00,-1025.00
2024-05-19 08:51:00.596812,2,-4,0,1,0,0,64,67,142,110,87,132.49,20,29.00,33.00,-961.00
2024-05-19 08:51:00.647796,1,-6,0,1,0,0,64,67,142,110,87,132.43,21,60.00,32.00,-993.00
2024-05-19 08:51:00.826895,1,-6,0,1,0,0,64,67,142,110,87,132.50,21,0.00,57.00,-1056.00
2024-05-19 08:51:00.851777,1,-6,0,1,-1,0,64,67,141,110,87,132.50,21,58.00,14.00,-1004.00
2024-05-19 08:51:01.031748,1,-2,0,1,-1,0,64,67,141,110,87,132.37,21,43.00,44.00,-997.00
2024-05-19 08:51:01.057034,1,2,0,1,-1,0,64,67,142,110,87,132.43,21,50.00,43.00,-973.00
2024-05-19 08:51:01.246997,2,0,0,1,0,0,64,67,141,110,87,132.43,21,17.00,67.00,-1024.00
2024-05-19 08:51:01.263517,2,-1,0,1,0,0,64,67,141,110,86,132.47,21,70.00,39.00,-882.00
2024-05-19 08:51:01.362860,1,-2,0,0,0,0,64,67,140,110,86,132.40,21,20.00,61.00,-1049.00
2024-05-19 08:51:01.543801,1,-3,0,0,0,0,64,67,139,110,86,132.48,21,25.00,37.00,-926.00
2024-05-19 08:51:01.567015,1,-3,0,0,0,0,64,67,139,110,86,132.47,21,31.00,53.00,-964.00
2024-05-19 08:51:01.748619,1,-3,0,0,0,0,64,67,137,100,86,132.39,22,52.00,54.00,-1009.00
2024-05-19 08:51:01.770883,1,-3,0,0,0,0,64,67,137,100,86,132.41,22,54.00,55.00,-936.00
2024-05-19 08:51:01.953452,1,-2,0,0,0,0,64,67,137,100,86,132.40,22,33.00,56.00,-999.00
2024-05-19 08:51:01.974837,1,-3,0,0,0,0,64,67,137,100,86,132.40,22,-21.00,53.00,-1022.00
2024-05-19 08:51:02.078684,0,-3,0,0,0,0,64,67,137,100,86,132.37,22,1.00,37.00,-989.00
2024-05-19 08:51:02.179199,0,-3,0,0,0,0,64,67,137,100,86,132.45,22,33.00,30.00,-981.00
2024-05-19 08:51:02.362913,0,-3,0,0,0,0,65,66,137,100,86,132.34,22,-6.00,39.00,-1032.00
2024-05-19 08:51:02.382802,0,-3,0,0,0,0,65,66,137,100,86,132.40,22,-11.00,40.00,-971.00
2024-05-19 08:51:02.564713,0,-3,0,0,0,0,65,66,137,100,86,132.41,22,-12.00,50.00,-1006.00
2024-05-19 08:51:02.586848,0,-3,0,0,0,0,65,66,137,100,86,132.47,23,-23.00,46.00,-1019.00
2024-05-19 08:51:02.777847,-1,-2,0,0,0,0,65,66,136,100,86,132.39,23,-13.00,80.00,-1001.00
2024-05-19 08:51:02.790707,-1,-3,0,0,0,0,65,66,135,100,86,132.37,23,-34.00,50.00,-1046.00
2024-05-19 08:51:02.977466,-1,-3,0,0,0,0,65,66,135,100,86,132.30,23,-10.00,57.00,-964.00
2024-05-19 08:51:02.995079,0,-3,0,0,0,0,65,66,135,100,86,132.31,23,-17.00,43.00,-938.00
2024-05-19 08:51:03.096667,0,-3,0,0,0,0,65,66,134,100,86,132.34,23,0.00,43.00,-1097.00
2024-05-19 08:51:03.284813,0,-2,0,0,0,0,65,66,134,100,86,132.37,23,1.00,54.00,-990.00
2024-05-19 08:51:03.301383,7,-1,0,0,0,0,64,67,135,100,86,132.39,23,-13.00,53.00,-975.00
2024-05-19 08:51:03.489267,8,-2,0,-2,0,0,64,67,136,100,86,132.36,23,47.00,29.00,-955.00
2024-05-19 08:51:03.504750,7,-2,0,-3,0,0,64,67,135,100,86,132.41,23,-22.00,51.00,-1081.00
2024-05-19 08:51:03.694077,6,-2,0,-5,0,0,64,67,135,100,86,132.37,24,-21.00,58.00,-988.00
2024-05-19 08:51:03.712615,5,-2,0,-6,0,0,64,67,135,100,86,132.30,24,22.00,53.00,-988.00
2024-05-19 08:51:03.810663,4,-2,0,-7,0,0,64,67,134,100,86,132.38,24,33.00,64.00,-943.00
2024-05-19 08:51:04.011286,3,-2,0,-8,0,0,64,67,134,100,86,132.44,24,36.00,43.00,-970.00
2024-05-19 08:51:04.014644,1,-3,0,-8,0,0,64,67,135,100,86,132.46,24,34.00,46.00,-953.00
2024-05-19 08:51:04.066235,-1,-3,0,-8,0,0,64,67,134,100,86,132.38,24,0.00,52.00,-982.00
2024-05-19 08:51:04.206068,-4,-3,0,-7,0,0,64,67,134,100,86,132.44,24,13.00,49.00,-1048.00
2024-05-19 08:51:04.320477,-5,-3,0,-6,0,0,65,67,133,100,86,132.38,24,66.00,59.00,-967.00
2024-05-19 08:51:04.513250,-5,-3,0,-4,0,0,65,67,132,100,86,132.43,24,52.00,36.00,-951.00
2024-05-19 08:51:04.513933,-3,-3,0,-3,0,0,65,67,131,100,86,132.36,24,-8.00,45.00,-1063.00
2024-05-19 08:51:04.575622,-2,-3,0,-3,0,0,65,67,131,100,86,132.32,25,20.00,50.00,-960.00
2024-05-19 08:51:04.718045,-1,-2,0,-3,0,0,65,67,130,100,86,132.33,25,-20.00,33.00,-1040.00
2024-05-19 08:51:04.788633,-1,-2,0,-3,0,0,65,67,130,100,86,132.31,25,-16.00,52.00,-992.00
2024-05-19 08:51:04.884774,-3,-2,0,-3,0,0,65,67,131,100,86,132.33,25,-6.00,29.00,-999.00
2024-05-19 08:51:04.983568,-6,-2,0,-2,0,0,65,67,131,100,86,132.37,25,-3.00,43.00,-1004.00
2024-05-19 08:51:05.086278,-5,-2,0,-1,0,0,65,67,131,100,86,132.32,25,-11.00,43.00,-1022.00
2024-05-19 08:51:05.232761,-4,-5,0,-1,0,0,65,67,130,100,86,132.28,25,11.00,36.00,-939.00
2024-05-19 08:51:05.290153,-2,-6,0,0,0,0,64,67,131,100,85,132.35,25,-5.00,41.00,-1059.00
2024-05-19 08:51:05.434854,-2,-4,0,0,-1,0,64,67,130,100,85,132.40,25,31.00,14.00,-972.00
2024-05-19 08:51:05.493567,-1,0,0,0,-1,0,64,67,129,100,85,132.39,25,-17.00,70.00,-947.00
2024-05-19 08:51:05.639798,-1,0,0,0,0,0,64,67,130,100,85,132.38,26,-23.00,42.00,-1054.00
2024-05-19 08:51:05.697601,-1,-1,0,0,0,0,64,67,130,100,85,132.36,26,-22.00,33.00,-994.00
2024-05-19 08:51:05.849867,-1,-2,0,0,0,0,64,67,130,100,85,132.37,26,-16.00,18.00,-1056.00
2024-05-19 08:51:05.901793,-1,-2,0,0,0,0,64,67,131,100,85,132.40,26,-5.00,32.00,-1001.00
2024-05-19 08:51:06.049431,-1,-2,0,0,0,0,64,67,131,100,85,132.42,26,-15.00,45.00,-1053.00
2024-05-19 08:51:06.105661,-1,-2,0,0,0,0,64,67,132,100,85,132.43,26,14.00,37.00,-958.00
2024-05-19 08:51:06.254146,-1,-2,0,0,0,0,64,67,133,100,85,132.40,26,-2.00,40.00,-1014.00
2024-05-19 08:51:06.309652,-1,-2,0,0,0,0,65,68,134,100,85,132.34,26,-44.00,44.00,-984.00
2024-05-19 08:51:06.458946,-1,-2,0,0,0,0,65,68,135,100,85,132.43,26,-6.00,35.00,-1034.00
2024-05-19 08:51:06.513678,-1,-2,0,0,0,0,65,68,137,100,85,132.47,26,14.00,46.00,-969.00
2024-05-19 08:51:06.663760,-1,-2,0,0,0,0,65,68,138,100,85,132.45,27,-21.00,48.00,-1045.00
2024-05-19 08:51:06.717627,-1,-2,0,0,0,0,65,68,140,100,85,132.43,27,-9.00,59.00,-1031.00
2024-05-19 08:51:06.868571,-1,-2,0,0,0,0,65,68,140,100,85,132.43,27,-28.00,51.00,-964.00
2024-05-19 08:51:06.921609,-1,-2,0,0,0,0,65,68,142,110,85,132.44,27,16.00,52.00,-971.00
2024-05-19 08:51:07.073237,-1,-2,0,0,0,0,65,68,142,110,85,132.54,27,-12.00,21.00,-987.00
2024-05-19 08:51:07.125480,-1,-2,0,0,0,0,65,68,142,110,85,132.48,27,-9.00,27.00,-1002.00
2024-05-19 08:51:07.278603,-1,-2,0,0,0,0,65,68,143,110,85,132.46,27,-18.00,43.00,-958.00
2024-05-19 08:51:07.329484,-1,-2,0,0,0,0,66,67,143,110,85,132.47,27,-25.00,43.00,-984.00
2024-05-19 08:51:07.431575,-1,-2,0,0,0,0,66,67,144,110,85,132.43,27,-15.00,30.00,-1009.00
2024-05-19 08:51:07.533716,-1,-2,0,0,0,0,66,67,143,110,85,132.57,27,-21.00,38.00,-978.00
2024-05-19 08:51:07.687714,-1,-2,0,0,0,0,66,67,143,110,85,132.53,28,3.00,36.00,-968.00
2024-05-19 08:51:07.737720,0,-8,0,0,0,0,66,67,143,110,85,132.51,28,-7.00,36.00,-1006.00
2024-05-19 08:51:07.892503,0,-8,0,0,-1,0,66,67,144,110,85,132.59,28,-10.00,27.00,-1038.00
2024-05-19 08:51:07.943367,0,-8,0,0,-2,0,66,67,142,110,85,132.52,28,-16.00,71.00,-1011.00
2024-05-19 08:51:08.043501,0,-7,0,0,-3,0,66,67,141,110,85,132.56,28,39.00,63.00,-1051.00
2024-05-19 08:51:08.199708,0,-3,0,0,-4,0,66,67,140,110,85,132.49,28,9.00,60.00,-922.00
2024-05-19 08:51:08.247433,0,-1,0,0,-3,0,66,67,140,110,85,132.36,28,-4.00,75.00,-989.00
2024-05-19 08:51:08.404487,0,-1,0,0,-3,0,66,68,140,110,84,132.42,28,11.00,55.00,-967.00
2024-05-19 08:51:08.451708,0,-1,0,0,-2,0,66,68,140,110,84,132.40,28,-17.00,56.00,-987.00
2024-05-19 08:51:08.502398,0,-2,0,0,-2,0,66,68,141,110,84,132.43,28,-5.00,58.00,-955.00
2024-05-19 08:51:08.604533,0,-3,0,0,-2,0,66,68,141,110,84,132.42,29,-24.00,58.00,-1022.00
2024-05-19 08:51:08.711684,0,-3,0,0,-2,0,66,68,141,110,84,132.47,29,4.00,70.00,-959.00
2024-05-19 08:51:08.808443,0,-3,0,0,-2,0,66,68,141,110,84,132.37,29,-11.00,45.00,-966.00
2024-05-19 08:51:08.916511,-1,-2,0,0,-2,0,66,68,141,110,84,132.35,29,0.00,56.00,-984.00
2024-05-19 08:51:09.012736,0,-3,0,0,-2,0,66,68,142,110,84,132.38,29,33.00,45.00,-989.00
2024-05-19 08:51:09.114433,0,-3,0,0,-2,0,66,68,143,110,84,132.41,29,3.00,63.00,-983.00
2024-05-19 08:51:09.223681,0,-3,0,0,-2,0,66,68,143,110,84,132.35,29,26.00,49.00,-955.00
2024-05-19 08:51:09.318390,0,-2,0,0,-2,0,66,68,144,110,84,132.50,29,-13.00,54.00,-995.00
2024-05-19 08:51:09.428490,0,-1,0,0,-2,0,66,68,145,110,84,132.45,29,-9.00,38.00,-1015.00
2024-05-19 08:51:09.528981,0,0,0,0,-2,0,66,68,145,110,84,132.36,29,9.00,53.00,-992.00
2024-05-19 08:51:09.624351,0,1,0,0,-1,0,66,68,146,110,84,132.51,30,1.00,50.00,-1045.00
2024-05-19 08:51:09.735672,0,0,0,0,0,0,66,68,147,110,84,132.55,30,-17.00,49.00,-956.00
2024-05-19 08:51:09.828327,-3,0,0,0,0,0,66,68,147,110,84,132.42,30,33.00,36.00,-924.00
2024-05-19 08:51:09.940493,-4,-1,0,0,0,0,66,68,148,110,84,132.38,30,-14.00,36.00,-986.00
2024-05-19 08:51:10.032402,-4,-2,0,0,0,0,66,68,148,110,84,132.46,30,20.00,48.00,-892.00
2024-05-19 08:51:10.134368,-3,-2,0,1,0,0,66,68,148,110,84,132.49,30,14.00,39.00,-921.00
2024-05-19 08:51:10.236454,0,-1,0,1,0,0,66,68,148,110,84,132.49,30,0.00,31.00,-995.00
2024-05-19 08:51:10.350520,2,-2,0,1,0,0,66,67,148,110,84,132.47,30,0.00,53.00,-982.00
2024-05-19 08:51:10.440399,1,-2,0,0,0,0,66,67,148,110,84,132.44,30,-17.00,51.00,-1012.00
2024-05-19 08:51:10.555388,0,-3,0,0,0,0,66,67,147,110,84,132.52,30,-36.00,61.00,-1010.00
2024-05-19 08:51:10.644365,0,-3,0,0,0,0,66,67,148,110,84,132.50,31,10.00,53.00,-1039.00
2024-05-19 08:51:10.759728,0,-3,0,0,0,0,66,67,147,110,84,132.46,31,-2.00,56.00,-988.00
2024-05-19 08:51:10.848465,0,-2,0,0,0,0,66,67,146,110,84,132.42,31,-1.00,44.00,-980.00
2024-05-19 08:51:10.964565,0,-2,0,0,0,0,66,67,146,110,84,132.46,31,33.00,65.00,-913.00
2024-05-19 08:51:11.052426,0,-2,0,0,0,0,66,67,145,110,84,132.44,31,20.00,34.00,-976.00
2024-05-19 08:51:11.154426,-1,-3,0,0,0,0,66,67,144,110,84,132.38,31,-5.00,40.00,-1075.00
2024-05-19 08:51:11.271787,-1,-3,0,0,0,0,66,67,144,110,84,132.45,31,5.00,6.00,-1061.00
2024-05-19 08:51:11.358390,0,-3,0,0,0,0,67,68,144,110,84,132.48,31,13.00,35.00,-1025.00
2024-05-19 08:51:11.476597,0,-3,0,0,0,0,67,68,144,110,84,132.48,31,81.00,12.00,-995.00
2024-05-19 08:51:11.562495,0,-2,0,0,0,0,67,68,144,110,84,132.51,31,22.00,32.00,-966.00
2024-05-19 08:51:11.681663,0,-2,0,0,0,0,67,68,144,110,84,132.45,32,8.00,43.00,-1024.00
2024-05-19 08:51:11.766738,0,-2,0,0,0,0,67,68,144,110,84,132.43,32,-1.00,58.00,-1002.00
2024-05-19 08:51:11.886406,0,-2,0,0,0,0,67,68,144,110,84,132.50,32,-10.00,32.00,-992.00
2024-05-19 08:51:11.970643,0,-2,0,0,0,0,67,68,144,110,84,132.39,32,26.00,34.00,-998.00
2024-05-19 08:51:12.091011,0,-3,0,0,0,0,67,68,144,110,84,132.50,32,12.00,47.00,-937.00
2024-05-19 08:51:12.174300,0,-3,0,0,0,0,67,68,144,110,84,132.44,32,15.00,50.00,-1029.00
2024-05-19 08:51:12.225282,0,-2,0,0,0,0,67,68,144,110,84,132.41,32,33.00,17.00,-1007.00
2024-05-19 08:51:12.398066,0,-2,0,0,0,0,66,68,143,110,84,132.40,32,-32.00,29.00,-1065.00
2024-05-19 08:51:12.480926,0,4,0,0,0,0,66,68,143,110,84,132.47,32,-14.00,40.00,-1045.00
2024-05-19 08:51:12.533064,0,6,0,0,1,0,66,68,143,110,84,132.46,32,22.00,19.00,-985.00
2024-05-19 08:51:12.633167,0,3,0,0,2,0,66,68,142,110,84,132.47,33,9.00,31.00,-1018.00
2024-05-19 08:51:12.807673,0,1,0,0,3,0,66,68,142,110,84,132.52,33,0.00,36.00,-998.00
2024-05-19 08:51:12.837318,0,-1,0,0,4,0,66,68,142,110,84,132.58,33,-24.00,-1.00,-1033.00
2024-05-19 08:51:13.013459,0,-3,0,0,4,0,66,68,142,110,84,132.49,33,5.00,37.00,-978.00
2024-05-19 08:51:13.041214,0,-3,0,0,3,0,66,68,141,110,84,132.47,33,-7.00,34.00,-1013.00
2024-05-19 08:51:13.143459,0,-3,0,0,3,0,66,68,140,110,84,132.52,33,9.00,23.00,-1019.00
2024-05-19 08:51:13.247363,0,-3,0,0,3,0,66,68,141,110,83,132.51,33,-11.00,21.00,-1033.00
2024-05-19 08:51:13.347156,-1,-3,0,0,2,0,67,69,140,110,83,132.46,33,2.00,42.00,-1011.00
2024-05-19 08:51:13.524454,-2,-2,0,0,2,0,67,69,140,110,83,132.51,33,-32.00,36.00,-1041.00
2024-05-19 08:51:13.551080,-3,-2,0,0,2,0,67,69,141,110,83,132.46,33,-27.00,32.00,-1036.00
2024-05-19 08:51:13.729248,-2,-2,0,0,2,0,67,69,141,110,83,132.50,34,-8.00,30.00,-988.00
2024-05-19 08:51:13.755214,-2,-3,0,0,2,0,67,69,141,110,83,132.42,34,-26.00,43.00,-987.00
2024-05-19 08:51:13.933936,-3,-3,0,1,2,0,67,69,141,110,83,132.52,34,-6.00,41.00,-998.00
2024-05-19 08:51:13.959064,-1,-4,0,1,2,0,67,69,142,110,83,132.51,34,-8.00,54.00,-1009.00
2024-05-19 08:51:14.131423,2,-6,0,1,1,0,67,69,142,110,83,132.51,34,-18.00,42.00,-980.00
2024-05-19 08:51:14.163046,1,-5,0,0,1,0,67,69,141,110,83,132.49,34,3.00,36.00,-990.00
2024-05-19 08:51:14.343606,0,-4,0,0,0,0,67,69,141,110,83,132.58,34,-3.00,32.00,-973.00
2024-05-19 08:51:14.367185,0,-4,0,0,0,0,67,69,141,110,83,132.54,34,-15.00,54.00,-1030.00
2024-05-19 08:51:14.548513,0,-3,0,0,0,0,67,69,141,110,83,132.49,34,44.00,48.00,-951.00
2024-05-19 08:51:14.571173,0,-3,0,0,0,0,67,69,141,110,83,132.45,34,-13.00,37.00,-1007.00
2024-05-19 08:51:14.753690,0,-2,0,0,0,0,67,69,141,110,83,132.50,35,-9.00,38.00,-999.00
2024-05-19 08:51:14.775202,0,-2,0,0,0,0,67,69,142,110,83,132.43,35,14.00,41.00,-1000.00
2024-05-19 08:51:14.958129,0,-3,0,0,0,0,67,69,142,110,83,132.41,35,-7.00,46.00,-1015.00
2024-05-19 08:51:14.979203,0,-3,0,0,0,0,67,69,142,110,83,132.51,35,-6.00,46.00,-980.00
2024-05-19 08:51:15.162972,0,-2,0,0,0,0,67,69,142,110,83,132.49,35,17.00,39.00,-971.00
2024-05-19 08:51:15.183719,0,-2,0,0,0,0,67,69,143,110,83,132.48,35,39.00,52.00,-971.00
2024-05-19 08:51:15.371936,0,-2,0,0,0,0,67,69,142,110,83,132.49,35,-16.00,64.00,-1031.00
2024-05-19 08:51:15.387099,0,-2,0,0,0,0,67,69,143,110,83,132.46,35,7.00,40.00,-1041.00
2024-05-19 08:51:15.575489,0,-3,0,0,0,0,67,69,142,110,83,132.48,35,39.00,38.00,-961.00
2024-05-19 08:51:15.591197,0,-2,0,0,0,0,67,69,142,110,83,132.49,35,11.00,54.00,-984.00
2024-05-19 08:51:15.777267,0,-2,0,0,0,0,67,69,142,110,83,132.46,36,5.00,53.00,-1021.00
2024-05-19 08:51:15.795039,0,-3,0,0,0,0,67,69,142,110,83,132.48,36,11.00,53.00,-1044.00
2024-05-19 08:51:15.982571,0,-2,0,0,0,0,67,69,142,110,83,132.44,36,-17.00,42.00,-999.00
2024-05-19 08:51:15.999007,0,-2,0,0,0,0,67,69,142,110,83,132.45,36,-14.00,56.00,-1015.00
2024-05-19 08:51:16.050153,0,-2,0,0,0,0,67,69,141,110,83,132.46,36,16.00,40.00,-1038.00
2024-05-19 08:51:16.151839,0,-2,0,0,0,0,67,69,142,110,83,132.39,36,-1.00,56.00,-1040.00
2024-05-19 08:51:16.289175,0,-2,0,0,0,0,67,69,142,110,83,132.37,36,50.00,14.00,-998.00
2024-05-19 08:51:16.407027,0,-2,8,0,0,0,67,69,142,110,83,132.40,36,-5.00,40.00,-981.00
2024-05-19 08:51:16.596428,0,-2,14,0,0,0,67,69,142,110,83,132.41,36,9.00,36.00,-1005.00
2024-05-19 08:51:16.596641,0,-2,19,0,0,0,67,69,142,110,83,132.39,37,4.00,49.00,-969.00
2024-05-19 08:51:16.661969,0,-2,25,0,0,0,67,69,143,110,83,132.47,37,25.00,55.00,-933.00
2024-05-19 08:51:16.801198,0,-2,30,0,0,0,67,69,142,110,83,132.43,37,13.00,31.00,-1025.00
2024-05-19 08:51:16.866092,0,-2,36,0,0,0,67,69,141,110,83,132.43,37,54.00,30.00,-937.00
2024-05-19 08:51:17.005893,0,-2,41,0,0,0,67,69,142,110,83,132.43,37,-43.00,44.00,-1004.00
2024-05-19 08:51:17.070277,0,-2,47,0,0,0,67,69,142,110,83,132.35,37,-34.00,54.00,-1081.00
2024-05-19 08:51:17.171842,0,-2,53,0,0,0,67,69,141,110,83,132.43,37,21.00,67.00,-968.00
2024-05-19 08:51:17.313224,1,-2,59,0,0,0,67,69,141,110,82,132.54,37,21.00,46.00,-978.00
2024-05-19 08:51:17.375934,1,-2,65,0,0,0,67,69,141,110,82,132.44,37,3.00,45.00,-1031.00
2024-05-19 08:51:17.477887,1,-1,71,0,0,0,67,69,141,110,82,132.47,37,28.00,28.00,-964.00
2024-05-19 08:51:17.620340,1,-1,76,0,0,0,67,69,141,110,82,132.47,38,49.00,9.00,-985.00
2024-05-19 08:51:17.681875,1,0,82,0,0,0,67,69,141,110,82,132.52,38,44.00,22.00,-1038.00
2024-05-19 08:51:17.825125,2,0,88,0,0,0,67,69,141,110,82,132.41,38,59.00,-11.00,-943.00
2024-05-19 08:51:17.885871,2,0,94,0,0,0,67,69,141,110,82,132.47,38,50.00,29.00,-967.00
2024-05-19 08:51:18.029925,2,0,99,0,0,0,67,69,141,110,82,132.47,38,63.00,12.00,-1006.00
2024-05-19 08:51:18.090077,2,0,105,0,0,0,67,69,141,110,82,132.47,38,59.00,7.00,-931.00
2024-05-19 08:51:18.234750,2,0,111,0,0,0,67,69,141,110,82,132.38,38,72.00,16.00,-899.00
2024-05-19 08:51:18.293819,2,0,117,0,0,0,67,69,142,110,82,132.34,38,27.00,5.00,-1026.00
2024-05-19 08:51:18.439539,2,1,123,0,0,0,67,70,141,110,82,132.40,38,37.00,-6.00,-1013.00
2024-05-19 08:51:18.497801,2,1,129,0,0,0,67,70,142,110,82,132.53,38,37.00,-18.00,-1060.00
2024-05-19 08:51:18.599858,1,1,135,0,0,0,67,70,142,110,82,132.49,39,55.00,-32.00,-1018.00
2024-05-19 08:51:18.746733,1,1,141,0,0,0,67,70,142,110,82,132.44,39,34.00,-51.00,-941.00
2024-05-19 08:51:18.804016,1,2,147,0,0,0,67,70,142,110,82,132.44,39,36.00,-36.00,-977.00
2024-05-19 08:51:18.952927,1,2,153,0,0,0,67,70,141,110,82,132.42,39,2.00,-20.00,-994.00
2024-05-19 08:51:19.008300,1,2,159,0,0,0,67,70,141,110,82,132.37,39,28.00,-25.00,-983.00
2024-05-19 08:51:19.110814,0,2,165,0,0,0,67,70,141,110,82,132.43,39,28.00,-38.00,-987.00
2024-05-19 08:51:19.258643,0,2,171,0,0,0,67,70,140,110,82,132.44,39,-9.00,-18.00,-982.00
2024-05-19 08:51:19.314656,0,2,177,0,0,0,67,70,140,110,82,132.42,39,8.00,-25.00,-973.00
2024-05-19 08:51:19.463514,0,2,-176,0,0,0,67,70,140,110,82,132.40,39,10.00,-35.00,-993.00
2024-05-19 08:51:19.517708,0,2,-171,0,0,0,67,70,140,110,82,132.51,39,2.00,-39.00,-1051.00
2024-05-19 08:51:19.668337,0,1,-165,0,0,0,67,70,140,110,82,132.40,40,21.00,-50.00,-1035.00
2024-05-19 08:51:19.721844,0,1,-159,0,0,0,67,70,140,110,82,132.49,40,-6.00,-21.00,-952.00
2024-05-19 08:51:19.873165,0,1,-153,0,0,0,67,70,140,110,82,132.45,40,-12.00,-30.00,-1003.00
2024-05-19 08:51:19.925735,0,1,-147,0,0,0,67,70,140,110,82,132.42,40,-9.00,-16.00,-1035.00
2024-05-19 08:51:20.077920,0,1,-141,0,0,0,67,70,140,110,82,132.36,40,-6.00,-24.00,-964.00
2024-05-19 08:51:20.129686,0,1,-135,0,0,0,67,70,140,110,82,132.53,40,-13.00,-24.00,-1024.00
2024-05-19 08:51:20.231687,0,2,-129,0,0,0,67,70,140,110,82,132.51,40,-19.00,-17.00,-979.00
2024-05-19 08:51:20.282811,0,1,-123,0,0,0,67,70,140,110,82,132.45,40,-65.00,-4.00,-1029.00
2024-05-19 08:51:20.435820,-1,1,-116,0,0,0,68,70,140,110,82,132.46,40,-39.00,0.00,-979.00
2024-05-19 08:51:20.487467,-1,1,-110,0,0,0,68,70,140,110,82,132.29,40,-29.00,-15.00,-965.00
2024-05-19 08:51:20.589620,-2,0,-104,0,0,0,68,70,139,110,82,132.35,41,-46.00,-2.00,-1005.00
2024-05-19 08:51:20.692317,-2,0,-98,0,0,0,68,70,139,110,82,132.44,41,-62.00,27.00,-993.00
2024-05-19 08:51:20.792767,-2,0,-92,0,0,0,68,70,139,100,82,132.45,41,-35.00,-2.00,-1009.00
2024-05-19 08:51:20.894765,-2,0,-86,0,0,0,68,70,139,100,82,132.34,41,-15.00,-7.00,-993.00
2024-05-19 08:51:21.001191,-2,0,-80,0,0,0,68,70,138,100,82,132.37,41,-32.00,19.00,-976.00
2024-05-19 08:51:21.098941,-2,0,-74,0,0,0,68,70,138,100,82,132.43,41,-19.00,24.00,-1002.00
2024-05-19 08:51:21.204343,-2,-1,-68,0,0,0,68,70,138,100,82,132.40,41,-41.00,13.00,-1034.00
2024-05-19 08:51:21.302728,-1,-1,-62,0,0,0,68,70,138,100,82,132.50,41,-2.00,46.00,-997.00
2024-05-19 08:51:21.409172,-1,-2,-56,0,0,0,68,70,138,100,82,132.55,41,-2.00,47.00,-1051.00
2024-05-19 08:51:21.506958,-1,-2,-50,0,0,0,68,70,138,100,82,132.51,41,-6.00,49.00,-943.00
2024-05-19 08:51:21.613931,0,-3,-44,0,0,0,68,70,138,100,82,132.53,42,8.00,60.00,-955.00
2024-05-19 08:51:21.710944,0,-3,-38,0,0,0,68,70,138,100,82,132.46,42,6.00,52.00,-1039.00
2024-05-19 08:51:21.818744,0,-2,-32,0,0,0,68,70,138,100,82,132.40,42,-8.00,64.00,-991.00
2024-05-19 08:51:21.914672,0,-2,-26,0,0,0,68,70,138,100,82,132.47,42,-1.00,64.00,-977.00
2024-05-19 08:51:22.023524,0,-2,-20,0,0,0,68,70,138,100,82,132.46,42,21.00,41.00,-976.00
2024-05-19 08:51:22.118854,1,-2,-15,0,0,0,68,70,138,100,82,132.49,42,70.00,61.00,-948.00
2024-05-19 08:51:22.228405,1,-2,-12,0,0,0,68,70,137,110,82,132.46,42,35.00,36.00,-963.00
2024-05-19 08:51:22.322758,1,-2,-9,0,0,0,68,70,137,110,82,132.46,42,47.00,33.00,-960.00
2024-05-19 08:51:22.433136,1,-2,-7,0,0,0,68,71,137,110,82,132.40,42,34.00,26.00,-1026.00
2024-05-19 08:51:22.526671,1,-1,-5,0,0,0,68,71,138,110,82,132.38,42,20.00,49.00,-954.00
2024-05-19 08:51:22.637911,1,-1,-4,0,0,0,68,71,138,110,82,132.37,43,31.00,47.00,-1004.00
2024-05-19 08:51:22.730626,1,-1,-3,0,0,0,68,71,138,100,82,132.48,43,34.00,43.00,-992.00
2024-05-19 08:51:22.842645,1,-1,-3,0,0,0,68,71,137,100,82,132.45,43,37.00,31.00,-1049.00
2024-05-19 08:51:22.934775,1,-2,-2,0,0,0,68,71,137,100,82,132.46,43,23.00,34.00,-999.00
2024-05-19 08:51:23.047652,2,-1,-2,0,0,0,68,71,137,100,82,132.53,43,-7.00,35.00,-1037.00
2024-05-19 08:51:23.138770,1,-1,-2,0,0,0,68,71,137,100,82,132.46,43,21.00,27.00,-937.00
2024-05-19 08:51:23.252393,1,-1,-2,0,0,0,68,71,136,100,81,132.37,43,36.00,43.00,-948.00
2024-05-19 08:51:23.342730,1,-1,-2,0,0,0,68,71,136,100,81,132.38,43,32.00,28.00,-1012.00
2024-05-19 08:51:23.457273,1,-1,-2,0,0,0,67,70,137,100,81,132.45,43,30.00,36.00,-984.00
2024-05-19 08:51:23.546767,1,-1,-2,0,0,0,67,70,136,100,81,132.47,43,31.00,28.00,-1006.00
2024-05-19 08:51:23.662036,1,-1,-2,0,0,0,67,70,136,100,81,132.39,44,24.00,23.00,-1018.00
2024-05-19 08:51:23.750691,1,-1,-2,0,0,0,67,70,136,100,81,132.38,44,54.00,13.00,-944.00
2024-05-19 08:51:23.866924,1,-1,-2,0,0,0,67,70,136,100,81,132.41,44,16.00,9.00,-987.00
2024-05-19 08:51:23.954654,1,-1,-2,0,0,0,67,70,136,100,81,132.45,44,56.00,14.00,-926.00
2024-05-19 08:51:24.005722,1,-1,-2,0,0,0,67,70,135,100,81,132.56,44,21.00,22.00,-994.00
2024-05-19 08:51:24.174189,1,-1,-2,0,0,0,67,70,135,100,81,132.49,44,33.00,14.00,-986.00
2024-05-19 08:51:24.209730,1,-1,-2,0,0,0,67,70,135,100,81,132.39,44,25.00,4.00,-1020.00
2024-05-19 08:51:24.378711,0,-1,-2,0,0,0,67,70,135,100,81,132.42,44,58.00,0.00,-968.00
2024-05-19 08:51:24.413617,0,-1,-2,0,0,0,68,71,135,100,81,132.41,44,63.00,22.00,-1020.00
2024-05-19 08:51:24.583741,1,-1,-2,0,0,0,68,71,135,100,81,132.39,44,43.00,-8.00,-981.00
2024-05-19 08:51:24.618256,1,-1,-2,0,0,0,68,71,135,100,81,132.42,45,17.00,-9.00,-993.00
2024-05-19 08:51:24.788480,1,-1,-2,0,0,0,68,71,134,100,81,132.48,45,28.00,29.00,-968.00
2024-05-19 08:51:24.821666,0,-1,-2,0,0,0,68,71,135,100,81,132.45,45,-3.00,6.00,-1011.00
2024-05-19 08:51:24.923497,0,-1,-2,0,0,0,68,71,134,100,81,132.39,45,23.00,18.00,-1082.00
2024-05-19 08:51:25.095515,0,-1,-2,0,0,0,68,71,135,100,81,132.40,45,-31.00,64.00,-1048.00
2024-05-19 08:51:25.127940,0,-1,-8,0,0,0,68,71,134,100,81,132.46,45,29.00,5.00,-921.00
2024-05-19 08:51:25.300334,0,-1,-14,0,0,0,68,71,135,100,81,132.44,45,17.00,14.00,-1040.00
2024-05-19 08:51:25.331464,0,-1,-20,0,0,0,68,71,135,100,81,132.38,45,18.00,22.00,-944.00
2024-05-19 08:51:25.505125,0,-1,-26,0,0,0,69,71,135,100,81,132.40,45,-17.00,33.00,-977.00
2024-05-19 08:51:25.535498,0,-1,-32,0,0,0,69,71,135,100,81,132.35,45,-4.00,34.00,-953.00
2024-05-19 08:51:25.637444,0,-1,-38,0,0,0,69,71,135,100,81,132.42,46,8.00,31.00,-1004.00
2024-05-19 08:51:25.813722,0,-1,-44,0,0,0,69,71,135,100,81,132.47,46,-18.00,34.00,-986.00
2024-05-19 08:51:25.843849,-1,-1,-50,0,0,0,69,71,135,100,81,132.42,46,-25.00,54.00,-1031.00
2024-05-19 08:51:25.943478,-1,-1,-56,0,0,0,69,71,135,100,81,132.43,46,-9.00,39.00,-968.00
2024-05-19 08:51:26.119437,-1,-1,-63,0,0,0,69,71,136,100,81,132.42,46,-32.00,47.00,-939.00
2024-05-19 08:51:26.147349,-1,-1,-69,0,0,0,69,71,135,100,81,132.47,46,7.00,25.00,-968.00
2024-05-19 08:51:26.324325,-2,-1,-75,0,0,0,69,71,135,100,81,132.43,46,-10.00,7.00,-1024.00
2024-05-19 08:51:26.351376,-2,0,-81,0,0,0,69,71,135,100,81,132.42,46,-7.00,47.00,-899.00
2024-05-19 08:51:26.529115,-2,0,-87,0,0,0,69,71,135,100,81,132.37,46,-21.00,14.00,-1004.00
2024-05-19 08:51:26.555538,-2,0,-94,0,0,0,69,71,134,100,81,132.40,46,-25.00,9.00,-972.00
2024-05-19 08:51:26.733924,-2,0,-100,0,0,0,69,71,135,100,81,132.41,47,-23.00,-8.00,-1025.00
2024-05-19 08:51:26.759431,-2,0,-106,0,0,0,69,71,134,100,81,132.41,47,-14.00,7.00,-989.00
2024-05-19 08:51:26.938711,-2,0,-112,0,0,0,69,71,134,100,81,132.46,47,2.00,-6.00,-1013.00
2024-05-19 08:51:26.963407,-2,1,-118,0,0,0,69,71,134,100,81,132.37,47,-34.00,4.00,-981.00
2024-05-19 08:51:27.143505,-2,1,-123,0,0,0,69,71,135,100,81,132.42,47,-70.00,17.00,-997.00
2024-05-19 08:51:27.167427,-2,1,-129,0,0,0,69,71,135,100,81,132.32,47,-41.00,5.00,-1003.00
2024-05-19 08:51:27.348312,-2,1,-135,0,0,0,69,71,136,100,81,132.41,47,-8.00,-35.00,-1034.00
2024-05-19 08:51:27.371371,-2,1,-141,0,0,0,69,71,136,100,81,132.41,47,-43.00,0.00,-965.00
2024-05-19 08:51:27.475936,-1,1,-148,0,0,0,69,71,136,100,81,132.24,47,-41.00,0.00,-932.00
2024-05-19 08:51:27.575357,-1,1,-154,0,0,0,69,71,136,100,81,132.43,47,-56.00,3.00,-999.00
2024-05-19 08:51:27.757901,-1,1,-160,0,0,0,69,71,136,100,81,132.38,48,-13.00,-12.00,-1027.00
2024-05-19 08:51:27.779239,-1,1,-166,0,0,0,69,71,136,100,81,132.42,48,-79.00,14.00,-1037.00
2024-05-19 08:51:27.963835,-1,1,-172,0,0,0,69,71,136,100,81,132.38,48,-22.00,-21.00,-1001.00
2024-05-19 08:51:27.965810,-1,1,-178,0,0,0,69,71,136,100,81,132.41,48,-9.00,-26.00,-1000.00
2024-05-19 08:51:28.034272,-1,2,175,0,0,0,69,71,136,100,81,132.40,48,-54.00,-23.00,-1003.00
2024-05-19 08:51:28.168286,0,2,169,0,0,0,69,71,136,100,81,132.40,48,-5.00,-44.00,-999.00
2024-05-19 08:51:28.238283,0,2,163,0,0,0,69,71,136,100,81,132.45,48,-18.00,-25.00,-991.00
2024-05-19 08:51:28.372292,0,2,156,0,0,0,69,71,135,100,81,132.42,48,-22.00,-9.00,-964.00
2024-05-19 08:51:28.493226,0,2,150,0,0,0,70,71,135,100,81,132.47,48,12.00,-69.00,-1010.00
2024-05-19 08:51:28.545172,0,2,144,0,0,0,70,71,135,100,81,132.46,48,25.00,-32.00,-954.00
2024-05-19 08:51:28.679384,0,2,138,0,0,0,70,71,135,100,81,132.54,49,26.00,-49.00,-1053.00
2024-05-19 08:51:28.749269,0,2,131,0,0,0,70,71,135,100,81,132.44,49,3.00,-25.00,-1026.00
2024-05-19 08:51:28.884258,1,2,125,0,0,0,70,71,135,100,81,132.38,49,23.00,-39.00,-1069.00
2024-05-19 08:51:28.953233,1,2,118,0,0,0,70,71,135,100,81,132.40,49,59.00,-45.00,-1011.00
2024-05-19 08:51:29.089011,1,1,112,0,0,0,70,71,135,100,81,132.40,49,36.00,-15.00,-1033.00
2024-05-19 08:51:29.157398,1,1,105,0,0,0,70,71,136,100,81,132.33,49,38.00,-13.00,-966.00
2024-05-19 08:51:29.293838,1,0,99,0,0,0,70,71,136,100,81,132.43,49,39.00,-1.00,-984.00
2024-05-19 08:51:29.361183,2,0,93,0,0,0,70,71,137,100,81,132.47,49,31.00,-21.00,-1041.00
2024-05-19 08:51:29.498641,1,0,80,0,0,0,69,71,137,100,81,132.43,49,0.00,29.00,-1016.00
2024-05-19 08:51:29.568554,1,0,74,0,0,0,69,71,137,100,81,132.43,50,36.00,8.00,-1076.00
2024-05-19 08:51:29.667217,1,0,68,0,0,0,69,71,137,100,81,132.35,50,30.00,16.00,-1024.00
2024-05-19 08:51:29.805809,1,0,62,0,0,0,69,71,138,110,81,132.40,50,14.00,7.00,-966.00
2024-05-19 08:51:29.871178,1,0,56,0,0,0,69,71,137,110,81,132.45,50,22.00,17.00,-1047.00
2024-05-19 08:51:30.010657,1,0,50,0,0,0,69,71,138,110,81,132.45,50,47.00,-8.00,-1002.00
2024-05-19 08:51:30.075104,1,0,44,0,0,0,69,71,137,110,81,132.45,50,5.00,11.00,-984.00
2024-05-19 08:51:30.177200,1,0,38,0,0,0,69,71,137,110,81,132.39,50,26.00,-10.00,-933.00
2024-05-19 08:51:30.317850,1,0,32,0,0,0,69,71,136,100,81,132.38,50,25.00,22.00,-1016.00
2024-05-19 08:51:30.381091,1,0,26,0,0,0,69,71,135,100,81,132.32,50,-8.00,38.00,-960.00
2024-05-19 08:51:30.522745,1,0,20,0,0,0,70,72,135,100,81,132.39,50,19.00,13.00,-976.00
2024-05-19 08:51:30.585251,0,0,15,0,0,0,70,72,135,100,81,132.35,51,3.00,43.00,-984.00
2024-05-19 08:51:30.727400,0,0,10,0,0,0,70,72,134,100,81,132.37,51,41.00,2.00,-946.00
2024-05-19 08:51:30.793653,0,0,7,0,0,0,70,72,134,100,81,132.42,51,21.00,9.00,-936.00
2024-05-19 08:51:30.891106,0,0,5,0,0,0,70,72,134,100,81,132.42,51,52.00,40.00,-1051.00
2024-05-19 08:51:31.034662,0,-1,3,0,0,0,70,72,134,100,81,132.36,51,-15.00,26.00,-1032.00
2024-05-19 08:51:31.095142,0,-1,2,0,0,0,70,72,133,100,81,132.43,51,-26.00,36.00,-1026.00
2024-05-19 08:51:31.197204,0,-1,1,0,0,0,70,72,134,100,81,132.43,51,62.00,11.00,-932.00
2024-05-19 08:51:31.341905,0,-1,0,0,0,0,70,72,134,100,80,132.41,51,5.00,23.00,-1070.00
2024-05-19 08:51:31.401145,0,0,0,0,0,0,70,72,134,100,80,132.47,51,35.00,39.00,-1011.00
2024-05-19 08:51:31.546753,0,0,0,0,0,0,69,72,135,100,80,132.40,51,-4.00,51.00,-1000.00
2024-05-19 08:51:31.605263,0,-1,0,0,0,0,69,72,136,100,80,132.40,52,17.00,30.00,-1047.00
2024-05-19 08:51:31.751572,0,-2,0,0,0,0,69,72,137,100,80,132.40,52,-43.00,34.00,-1068.00
2024-05-19 08:51:31.809821,0,-1,0,0,0,0,69,72,137,100,80,132.38,52,37.00,15.00,-933.00
2024-05-19 08:51:31.956397,0,-2,0,0,0,0,69,72,137,100,80,132.47,52,48.00,18.00,-962.00
2024-05-19 08:51:32.013694,0,-2,0,0,0,0,69,72,137,100,80,132.45,52,1.00,52.00,-1002.00
2024-05-19 08:51:32.147541,0,-2,0,0,0,0,69,72,137,100,80,132.42,52,28.00,44.00,-986.00
2024-05-19 08:51:32.166409,0,-2,0,0,0,0,69,72,137,100,80,132.36,52,-4.00,29.00,-1030.00
2024-05-19 08:51:32.365939,0,-2,0,0,0,0,69,72,137,100,80,132.42,52,6.00,30.00,-959.00
2024-05-19 08:51:32.371509,0,-1,0,0,0,0,69,72,137,100,80,132.41,52,17.00,21.00,-1067.00
2024-05-19 08:51:32.571384,0,-2,0,0,0,0,69,71,137,100,80,132.32,52,4.00,16.00,-1023.00
2024-05-19 08:51:32.576809,0,-2,0,0,0,0,69,71,137,100,80,132.43,53,-12.00,31.00,-1013.00
2024-05-19 08:51:32.677781,0,-2,0,0,0,0,69,71,137,100,80,132.52,53,10.00,29.00,-986.00
2024-05-19 08:51:32.778154,0,-2,0,0,0,0,69,71,137,100,80,132.47,53,10.00,44.00,-1056.00
2024-05-19 08:51:32.880146,0,-2,0,0,0,0,69,71,138,100,80,132.53,53,33.00,52.00,-929.00
2024-05-19 08:51:32.982183,0,-2,0,0,0,0,69,71,138,100,80,132.49,53,5.00,14.00,-950.00
2024-05-19 08:51:33.185532,0,-2,0,0,0,0,69,71,138,100,80,132.45,53,-3.00,25.00,-990.00
2024-05-19 08:51:33.186230,0,-2,0,0,0,0,69,71,138,100,80,132.42,53,0.00,10.00,-1051.00
2024-05-19 08:51:33.288095,0,-2,0,0,0,0,69,71,138,110,80,132.41,53,11.00,29.00,-997.00
2024-05-19 08:51:33.390157,0,-1,0,0,0,0,69,71,138,110,80,132.48,53,10.00,13.00,-993.00
2024-05-19 08:51:33.492328,0,-1,0,0,0,-1,70,72,139,110,80,132.58,53,-32.00,42.00,-1476.00
2024-05-19 08:51:33.594543,0,-1,-2,0,0,-7,70,72,146,110,80,132.60,54,34.00,85.00,-1700.00
2024-05-19 08:51:33.696893,-1,-36,-3,0,-1,-11,70,72,218,120,80,132.75,54,46.00,316.00,-1231.00
2024-05-19 08:51:33.799372,-2,-152,2,0,-9,-6,70,72,519,130,80,132.82,54,-60.00,613.00,-1106.00
2024-05-19 08:51:33.901760,6,82,-1,0,-8,8,70,72,416,130,80,132.62,54,-43.00,458.00,-939.00
2024-05-19 08:51:34.002212,0,-5,-8,0,-2,11,70,72,151,120,80,132.80,54,-3.00,-118.00,-1607.00
2024-05-19 08:51:34.104126,0,-4,-11,0,-4,8,70,72,141,110,80,132.48,54,-43.00,41.00,-1449.00
2024-05-19 08:51:34.205940,1,5,-13,0,-4,4,70,72,136,100,80,132.45,54,-33.00,52.00,-1292.00
2024-05-19 08:51:34.311399,0,4,-10,0,-2,1,70,72,134,100,80,132.39,54,11.00,10.00,-1257.00
2024-05-19 08:51:34.410080,0,1,-1,0,-1,0,70,72,134,100,80,132.44,54,-50.00,73.00,-1083.00
2024-05-19 08:51:34.516235,0,0,0,0,0,0,70,72,136,100,80,132.41,54,-16.00,47.00,-1047.00
2024-05-19 08:51:34.613892,0,0,0,0,0,-1,70,72,137,100,80,132.37,55,31.00,20.00,-1066.00
2024-05-19 08:51:34.726061,0,0,0,0,0,-1,70,72,138,100,80,132.42,55,50.00,5.00,-930.00
2024-05-19 08:51:34.817942,0,0,0,0,0,-1,70,72,140,100,80,132.41,55,-17.00,19.00,-1044.00
2024-05-19 08:51:34.925827,0,0,0,0,0,0,70,72,140,110,80,132.46,55,4.00,23.00,-935.00
2024-05-19 08:51:35.021933,0,0,0,0,0,0,70,72,141,110,80,132.48,55,8.00,29.00,-925.00
2024-05-19 08:51:35.130631,0,0,0,0,0,0,70,72,141,110,80,132.52,55,23.00,37.00,-931.00
2024-05-19 08:51:35.225928,0,0,0,0,0,0,70,72,141,110,80,132.52,55,16.00,9.00,-1028.00
2024-05-19 08:51:35.335428,0,0,0,0,0,0,70,72,140,110,80,132.46,55,13.00,-2.00,-992.00
2024-05-19 08:51:35.429850,0,-1,0,0,0,0,70,72,140,110,80,132.45,55,20.00,-13.00,-1049.00
2024-05-19 08:51:35.540165,0,0,0,0,0,0,70,72,139,110,80,132.46,55,36.00,15.00,-1045.00
2024-05-19 08:51:35.633877,0,0,0,0,0,0,70,72,139,110,80,132.60,56,26.00,9.00,-926.00
2024-05-19 08:51:35.744961,0,0,0,0,0,0,70,72,139,110,80,132.53,56,-34.00,33.00,-938.00
2024-05-19 08:51:35.837867,0,0,0,0,0,0,70,72,138,110,80,132.53,56,13.00,13.00,-953.00
2024-05-19 08:51:35.949764,0,0,0,0,0,0,70,72,137,110,80,132.50,56,-30.00,25.00,-1106.00
2024-05-19 08:51:36.041950,0,0,0,0,0,0,70,72,138,100,80,132.49,56,-4.00,23.00,-1049.00
2024-05-19 08:51:36.154480,0,0,0,0,0,0,70,72,138,100,80,132.43,56,4.00,5.00,-1015.00
2024-05-19 08:51:36.246838,0,0,0,0,0,0,70,72,138,100,79,132.41,56,9.00,23.00,-944.00
2024-05-19 08:51:36.359390,0,0,0,0,0,0,70,72,138,100,79,132.47,56,12.00,-7.00,-1014.00
2024-05-19 08:51:36.400105,0,0,0,0,0,0,70,72,138,100,79,132.52,56,45.00,-2.00,-990.00
2024-05-19 08:51:36.564140,0,0,0,0,0,0,70,72,138,100,79,132.59,56,58.00,0.00,-967.00
2024-05-19 08:51:36.604738,0,0,0,0,0,0,70,72,139,100,79,132.52,57,39.00,8.00,-950.00
2024-05-19 08:51:36.768950,0,0,0,0,0,0,70,72,139,100,79,132.50,57,56.00,0.00,-945.00
2024-05-19 08:51:36.809040,0,0,0,0,0,0,70,72,139,100,79,132.58,57,18.00,1.00,-955.00
2024-05-19 08:51:36.910972,0,0,0,0,0,0,70,72,140,100,79,132.59,57,36.00,-4.00,-982.00
2024-05-19 08:51:37.076259,0,0,0,0,0,0,70,72,140,100,79,132.58,57,51.00,27.00,-953.00
2024-05-19 08:51:37.114922,0,0,0,0,0,0,70,72,141,110,79,132.48,57,12.00,24.00,-991.00
2024-05-19 08:51:37.216875,0,0,0,0,0,0,70,72,141,110,79,132.52,57,-5.00,18.00,-1024.00
2024-05-19 08:51:37.385116,0,0,0,0,0,0,70,72,141,110,79,132.56,57,46.00,22.00,-1031.00
2024-05-19 08:51:37.420925,1,0,0,0,0,0,70,72,141,110,79,132.55,57,8.00,23.00,-1001.00
2024-05-19 08:51:37.588344,1,0,0,0,0,0,71,72,140,110,79,132.61,57,19.00,12.00,-956.00
2024-05-19 08:51:37.634895,1,0,0,0,0,0,71,72,140,110,79,132.61,58,16.00,18.00,-1023.00
2024-05-19 08:51:37.726912,1,0,0,0,0,0,71,72,140,110,79,132.55,58,93.00,-4.00,-996.00
2024-05-19 08:51:37.895537,1,0,0,0,0,0,71,72,141,110,79,132.63,58,40.00,-2.00,-1036.00
2024-05-19 08:51:37.930845,1,0,0,0,0,0,71,72,141,110,79,132.51,58,30.00,9.00,-951.00
2024-05-19 08:51:38.032885,1,0,0,0,0,0,71,72,141,110,79,132.51,58,42.00,28.00,-1022.00
2024-05-19 08:51:38.150446,0,0,0,0,0,0,71,72,140,110,79,132.60,58,19.00,5.00,-968.00
2024-05-19 08:51:38.236907,0,-1,0,0,0,0,71,72,140,110,79,132.56,58,39.00,19.00,-966.00
2024-05-19 08:51:38.409679,0,-1,0,0,0,0,71,72,140,110,79,132.49,58,42.00,18.00,-963.00
2024-05-19 08:51:38.440778,0,-1,0,0,0,0,71,72,140,110,79,132.49,58,16.00,33.00,-992.00
2024-05-19 08:51:38.612478,0,-1,0,0,0,0,70,72,140,110,79,132.45,58,42.00,1.00,-1034.00
2024-05-19 08:51:38.645829,0,-1,0,0,0,0,70,72,140,110,79,132.46,59,-30.00,26.00,-1011.00
2024-05-19 08:51:38.817448,0,-1,0,0,0,0,70,72,141,110,79,132.44,59,31.00,42.00,-1049.00
2024-05-19 08:51:38.849786,0,-1,0,0,0,0,70,72,141,110,79,132.53,59,20.00,6.00,-998.00
2024-05-19 08:51:39.021901,0,-1,0,0,0,0,70,72,142,110,79,132.59,59,16.00,6.00,-996.00
2024-05-19 08:51:39.053819,0,-1,0,0,0,0,70,72,142,110,79,132.62,59,6.00,-1.00,-979.00
2024-05-19 08:51:39.226684,0,-2,0,0,0,0,70,72,141,110,79,132.51,59,-13.00,44.00,-1096.00
2024-05-19 08:51:39.257752,0,-2,0,0,0,0,70,72,141,110,79,132.50,59,-1.00,9.00,-1066.00
2024-05-19 08:51:39.431402,0,-1,0,0,0,0,70,72,142,110,79,132.49,59,5.00,21.00,-998.00
2024-05-19 08:51:39.431870,0,-1,0,0,0,0,70,72,141,110,79,132.54,59,36.00,19.00,-931.00
2024-05-19 08:51:39.563767,0,-1,0,0,0,0,71,73,141,110,79,132.66,59,23.00,17.00,-954.00
2024-05-19 08:51:39.744075,0,-1,0,0,0,0,71,73,141,110,79,132.58,60,36.00,0.00,-940.00
2024-05-19 08:51:39.767706,0,-1,0,0,0,0,71,73,140,110,79,132.60,60,-13.00,18.00,-999.00
2024-05-19 08:51:39.869618,0,-1,0,0,0,0,71,73,140,110,79,132.50,60,-21.00,45.00,-1114.00
2024-05-19 08:51:40.045719,0,-1,0,0,0,0,71,73,139,110,79,132.54,60,22.00,41.00,-1000.00
2024-05-19 08:51:40.045880,0,0,0,0,0,0,71,73,139,110,79,132.59,60,-8.00,69.00,-1645.00
2024-05-19 08:51:40.124653,0,1,0,0,0,-6,71,73,145,110,79,132.74,60,34.00,-72.00,-1705.00
2024-05-19 08:51:40.259097,0,35,-1,0,2,-13,71,73,220,120,79,133.01,60,43.00,493.00,-1362.00
2024-05-19 08:51:40.329221,0,148,0,0,10,-7,71,73,535,130,79,132.68,60,4.00,743.00,-837.00
2024-05-19 08:51:40.455314,0,-88,0,1,9,7,71,73,349,130,79,132.89,60,-11.00,728.00,-1037.00
2024-05-19 08:51:40.532800,0,1,-2,1,4,10,70,73,147,120,79,132.68,60,5.00,124.00,-1103.00
2024-05-19 08:51:40.660731,1,3,-6,0,6,8,70,73,139,110,79,132.50,61,-4.00,5.00,-1424.00
2024-05-19 08:51:40.736672,-1,-5,-12,1,6,4,70,73,132,110,79,132.40,61,-55.00,-43.00,-1348.00
2024-05-19 08:51:40.864956,0,-6,-10,0,4,1,70,73,128,100,79,132.35,61,21.00,0.00,-1088.00
2024-05-19 08:51:40.940578,0,-4,-1,0,3,0,70,73,126,100,79,132.41,61,7.00,-4.00,-1119.00
2024-05-19 08:51:41.069754,0,-2,0,0,2,0,70,73,125,100,79,132.45,61,-12.00,0.00,-1195.00
2024-05-19 08:51:41.144681,0,-1,0,0,2,-1,70,73,125,100,79,132.42,61,1.00,-9.00,-1035.00
2024-05-19 08:51:41.247530,0,-1,0,0,1,-1,70,73,126,100,79,132.32,61,-47.00,28.00,-962.00
2024-05-19 08:51:41.376877,0,0,0,0,1,-1,70,73,127,100,79,132.40,61,-16.00,-7.00,-1050.00
2024-05-19 08:51:41.451597,-1,0,0,0,1,-1,70,73,128,100,79,132.40,61,19.00,10.00,-972.00
2024-05-19 08:51:41.581721,-1,0,0,0,1,-1,70,73,130,100,79,132.42,61,-42.00,57.00,-1024.00
2024-05-19 08:51:41.655668,0,-3,0,0,1,0,70,73,131,110,79,132.40,62,-5.00,-10.00,-1004.00
2024-05-19 08:51:41.757584,0,-3,0,0,1,0,70,73,132,110,79,132.46,62,32.00,-5.00,-932.00
2024-05-19 08:51:41.859737,0,-3,0,0,0,0,70,73,132,110,79,132.47,62,0.00,-6.00,-966.00
2024-05-19 08:51:41.991306,0,-2,0,0,0,0,70,73,132,110,79,132.48,62,31.00,-28.00,-1018.00
2024-05-19 08:51:42.063609,0,-2,0,0,0,0,70,73,131,110,79,132.48,62,-17.00,28.00,-983.00
2024-05-19 08:51:42.196218,0,-2,0,0,0,0,70,73,131,110,79,132.44,62,-7.00,10.00,-1029.00
2024-05-19 08:51:42.267578,0,-2,0,0,0,0,70,73,132,110,78,132.40,62,19.00,-1.00,-991.00
