TS,pitch,roll,yaw,vgx,vgy,vgz,templ,temph,tof,h,bat,baro,time,agx,agy,agz
2024-05-19 08:53:09.440133,0,0,-7,0,0,0,82,84,10,0,74,130.96,83,5.00,0.00,-999.00
2024-05-19 08:53:09.528935,0,0,-7,0,0,0,82,84,10,0,74,130.90,83,5.00,0.00,-997.00
2024-05-19 08:53:09.645106,0,0,-7,0,0,0,82,84,10,0,74,130.98,83,4.00,0.00,-1000.00
2024-05-19 08:53:09.732891,0,0,-7,0,0,0,82,84,10,0,74,130.94,83,3.00,2.00,-999.00
2024-05-19 08:53:09.849777,0,0,-7,0,0,0,82,84,10,0,74,130.94,83,4.00,0.00,-999.00
2024-05-19 08:53:09.936754,0,0,-7,0,0,0,82,84,10,0,74,130.95,83,4.00,0.00,-999.00
2024-05-19 08:53:10.054511,0,0,-7,0,0,0,82,84,10,0,74,131.03,83,6.00,2.00,-1001.00
2024-05-19 08:53:10.140793,0,0,-7,0,0,0,82,84,10,0,74,130.98,83,4.00,1.00,-999.00
2024-05-19 08:53:10.259399,0,0,-7,0,0,0,82,84,10,0,74,130.95,83,5.00,1.00,-1000.00
2024-05-19 08:53:10.344871,0,0,-7,0,0,0,82,84,10,0,74,131.01,83,4.00,0.00,-999.00
2024-05-19 08:53:10.446771,0,0,-7,0,0,0,82,84,10,0,74,130.97,83,4.00,1.00,-1000.00
2024-05-19 08:53:10.548673,0,0,-7,0,0,0,82,84,10,0,74,130.97,83,4.00,1.00,-1001.00
2024-05-19 08:53:10.669001,0,0,-7,0,0,0,82,84,10,0,74,130.97,83,4.00,0.00,-1002.00
2024-05-19 08:53:10.752827,0,0,-7,0,0,0,82,84,10,0,74,131.01,83,4.00,0.00,-999.00
2024-05-19 08:53:10.873736,0,0,-7,0,0,0,82,84,10,0,74,130.89,83,5.00,1.00,-1002.00
2024-05-19 08:53:10.905475,0,0,-7,0,0,0,82,84,10,0,74,130.94,83,5.00,0.00,-1001.00
2024-05-19 08:53:11.078671,0,0,-7,0,0,0,82,84,10,0,74,130.99,83,4.00,1.00,-1000.00
2024-05-19 08:53:11.160610,0,0,-7,0,0,0,82,84,10,0,74,130.96,83,5.00,0.00,-1000.00
2024-05-19 08:53:11.283506,0,0,-7,0,0,0,82,84,10,0,74,130.97,83,6.00,3.00,-1000.00
2024-05-19 08:53:11.313854,0,0,-7,0,0,0,82,84,10,0,74,130.94,83,3.00,1.00,-1001.00
2024-05-19 08:53:11.488800,0,0,-7,0,0,0,82,84,10,0,74,130.94,83,5.00,0.00,-1000.00
2024-05-19 08:53:11.518781,0,0,-7,0,0,0,82,84,10,0,74,130.99,83,4.00,0.00,-999.00
2024-05-19 08:53:11.693140,0,0,-7,0,0,0,82,84,10,0,74,130.92,83,4.00,2.00,-1000.00
2024-05-19 08:53:11.722795,0,0,-7,0,0,0,82,84,10,0,74,130.92,83,5.00,0.00,-999.00
2024-05-19 08:53:11.897806,0,0,-7,0,0,0,82,84,10,0,74,130.91,83,5.00,2.00,-1002.00
2024-05-19 08:53:11.926702,0,0,-7,0,0,0,82,84,10,0,74,130.98,83,5.00,1.00,-998.00
2024-05-19 08:53:12.102767,0,0,-7,0,0,0,82,84,10,0,74,130.96,83,3.00,1.00,-1000.00
2024-05-19 08:53:12.130807,0,0,-7,0,0,0,82,84,10,0,74,130.95,83,5.00,2.00,-1001.00
2024-05-19 08:53:12.307438,0,0,-7,0,0,0,82,84,10,0,74,130.96,83,5.00,0.00,-1001.00
2024-05-19 08:53:12.334696,0,0,-7,0,0,0,82,84,10,0,74,130.89,83,4.00,0.00,-999.00
2024-05-19 08:53:12.512959,0,0,-7,0,0,0,82,84,10,0,74,130.92,83,5.00,2.00,-999.00
2024-05-19 08:53:12.539010,0,0,-7,0,0,0,82,84,10,0,74,130.92,83,4.00,0.00,-1001.00
2024-05-19 08:53:12.717354,0,0,-7,0,0,0,82,84,10,0,74,130.93,83,4.00,1.00,-999.00
2024-05-19 08:53:12.742704,0,0,-7,0,0,0,82,84,10,0,74,130.96,83,4.00,1.00,-1000.00
2024-05-19 08:53:12.846950,0,0,-7,0,0,0,82,84,10,0,74,130.97,83,5.00,0.00,-999.00
2024-05-19 08:53:12.946655,0,0,-7,0,0,0,82,84,10,0,74,131.01,83,5.00,0.00,-998.00
2024-05-19 08:53:13.048614,0,0,-7,0,0,0,82,84,10,0,74,130.94,83,5.00,1.00,-1000.00
2024-05-19 08:53:13.229818,0,0,-7,0,0,0,82,84,10,0,74,130.94,83,4.00,2.00,-1003.00
2024-05-19 08:53:13.252622,0,0,-7,0,0,0,82,84,10,0,74,130.94,83,4.00,1.00,-998.00
2024-05-19 08:53:13.433722,0,0,-7,0,0,0,82,84,10,0,74,130.94,83,9.00,0.00,-1000.00
2024-05-19 08:53:13.456565,0,0,-7,0,0,0,82,84,10,0,74,130.94,83,-3.00,-6.00,-1002.00
2024-05-19 08:53:13.558624,0,0,-7,0,0,0,82,84,10,0,74,130.94,83,18.00,2.00,-1009.00
2024-05-19 08:53:13.740909,0,0,-8,0,0,0,82,84,10,0,74,130.94,84,-31.00,40.00,-973.00
2024-05-19 08:53:13.762465,0,-1,-9,0,0,-1,82,84,10,0,74,130.94,84,26.00,-41.00,-1077.00
2024-05-19 08:53:13.955442,0,0,-9,0,0,-4,82,84,10,0,74,130.94,84,38.00,-17.00,-1134.00
2024-05-19 08:53:13.967186,1,0,-9,0,0,-6,82,84,13,10,74,131.18,84,49.00,-10.00,-1300.00
2024-05-19 08:53:14.150564,0,0,-9,0,0,-8,82,85,25,10,74,131.40,84,31.00,-26.00,-976.00
2024-05-19 08:53:14.170540,0,0,-9,0,0,-8,82,85,33,20,74,131.49,84,30.00,-16.00,-983.00
2024-05-19 08:53:14.355523,0,0,-9,0,0,-8,82,85,37,30,74,131.46,84,50.00,-56.00,-909.00
2024-05-19 08:53:14.374538,0,0,-9,0,0,-7,82,85,45,40,74,131.60,84,52.00,-35.00,-863.00
2024-05-19 08:53:14.476491,1,1,-9,0,0,-6,82,85,51,40,74,131.65,84,14.00,9.00,-953.00
2024-05-19 08:53:14.578576,0,1,-9,0,0,-5,82,85,56,50,74,131.69,84,-25.00,-26.00,-903.00
2024-05-19 08:53:14.772619,0,0,-9,0,0,-4,82,85,61,50,74,131.71,85,41.00,-19.00,-819.00
2024-05-19 08:53:14.782485,0,0,-9,0,0,-3,82,85,64,60,74,131.80,85,-22.00,27.00,-983.00
2024-05-19 08:53:14.970357,0,0,-9,0,0,-2,82,85,66,60,74,131.85,85,-16.00,9.00,-1003.00
2024-05-19 08:53:14.970567,0,0,-9,0,0,-1,82,85,68,60,74,131.83,85,52.00,-24.00,-930.00
2024-05-19 08:53:15.174436,0,0,-9,0,0,-1,83,85,69,60,74,131.83,85,28.00,7.00,-979.00
2024-05-19 08:53:15.174518,0,0,-9,0,0,0,83,85,69,60,74,131.78,85,11.00,-5.00,-976.00
2024-05-19 08:53:15.241574,0,0,-9,0,0,0,83,85,70,60,74,131.89,85,-1.00,-2.00,-1016.00
2024-05-19 08:53:15.379491,1,0,-9,0,0,0,83,85,70,60,74,131.91,85,-14.00,17.00,-981.00
2024-05-19 08:53:15.447680,1,0,-8,0,0,0,83,85,71,60,74,131.89,85,-3.00,26.00,-1024.00
2024-05-19 08:53:15.547383,1,0,-8,0,0,0,83,85,72,70,74,131.91,85,-25.00,5.00,-1040.00
2024-05-19 08:53:15.650676,0,0,-8,0,0,0,83,85,72,70,74,131.88,86,0.00,-24.00,-999.00
2024-05-19 08:53:15.788938,0,0,-8,0,0,-1,83,85,74,70,74,131.82,86,56.00,-20.00,-934.00
2024-05-19 08:53:15.853423,0,0,-8,0,0,-1,83,85,74,70,74,131.87,86,42.00,9.00,-960.00
2024-05-19 08:53:15.993740,0,0,-8,0,0,-1,83,85,75,70,74,131.91,86,33.00,-21.00,-976.00
2024-05-19 08:53:16.057872,0,0,-8,0,0,-1,83,84,76,70,74,131.97,86,-7.00,-15.00,-1025.00
2024-05-19 08:53:16.198543,0,0,-8,0,0,0,83,84,77,70,74,131.90,86,-4.00,14.00,-1010.00
2024-05-19 08:53:16.263752,0,0,-8,0,0,0,83,84,78,70,74,132.00,86,35.00,1.00,-954.00
2024-05-19 08:53:16.363502,0,0,-8,0,0,0,83,84,78,70,74,131.92,86,-41.00,-3.00,-1037.00
2024-05-19 08:53:16.465442,0,0,-8,0,0,0,83,84,79,70,74,131.96,86,-7.00,-10.00,-1001.00
2024-05-19 08:53:16.567546,0,0,-8,0,0,0,83,84,80,70,74,131.97,86,48.00,-18.00,-1052.00
2024-05-19 08:53:16.710521,0,0,-8,0,0,0,83,84,80,70,74,131.95,87,-21.00,5.00,-1050.00
2024-05-19 08:53:16.771405,0,0,-8,0,0,0,83,84,80,70,74,131.94,87,24.00,-19.00,-987.00
2024-05-19 08:53:16.916470,0,0,-8,0,0,0,83,84,81,70,74,131.96,87,60.00,-37.00,-952.00
2024-05-19 08:53:16.975459,0,0,-8,0,0,0,83,84,81,70,74,131.96,87,-18.00,3.00,-977.00
2024-05-19 08:53:17.120133,0,0,-8,0,0,0,82,84,81,70,74,131.99,87,-39.00,12.00,-1070.00
2024-05-19 08:53:17.179362,0,0,-8,0,0,0,82,84,82,70,74,131.99,87,9.00,-29.00,-1030.00
2024-05-19 08:53:17.324924,0,0,-8,0,0,0,82,84,82,70,74,131.93,87,-46.00,6.00,-1040.00
2024-05-19 08:53:17.385517,0,0,-8,0,0,0,82,84,81,70,74,131.94,87,8.00,-21.00,-1014.00
2024-05-19 08:53:17.485722,0,0,-8,0,0,0,82,84,81,70,74,131.93,87,10.00,8.00,-1052.00
2024-05-19 08:53:17.632024,0,0,-8,0,0,0,82,84,81,70,74,132.00,88,1.00,-4.00,-985.00
2024-05-19 08:53:17.689351,0,0,-8,0,0,0,82,84,82,70,74,131.97,88,33.00,-18.00,-1004.00
2024-05-19 08:53:17.837385,0,0,-8,0,0,0,82,84,82,70,74,131.96,88,1.00,-7.00,-1036.00
2024-05-19 08:53:17.896797,0,0,-8,0,0,0,82,84,82,70,74,131.94,88,38.00,-38.00,-962.00
2024-05-19 08:53:17.995539,0,0,-8,0,0,0,82,84,82,70,74,131.99,88,55.00,-17.00,-984.00
2024-05-19 08:53:18.157161,0,0,-8,0,0,0,82,84,82,70,74,132.02,88,20.00,-15.00,-999.00
2024-05-19 08:53:18.199620,0,1,-8,0,0,0,82,84,82,70,74,132.01,88,-3.00,12.00,-1047.00
2024-05-19 08:53:18.350558,0,0,-8,0,0,0,82,84,82,70,74,131.98,88,-39.00,-14.00,-1049.00
2024-05-19 08:53:18.407957,0,0,-8,0,0,0,82,84,82,80,74,132.00,88,44.00,-24.00,-926.00
2024-05-19 08:53:18.505439,0,0,-8,0,0,0,82,84,82,80,74,132.01,88,-18.00,7.00,-1009.00
2024-05-19 08:53:18.656182,0,0,-8,0,0,0,82,84,82,80,74,131.94,89,30.00,-35.00,-995.00
2024-05-19 08:53:18.663107,0,0,-8,0,0,0,82,84,82,80,74,131.87,89,5.00,-26.00,-995.00
2024-05-19 08:53:18.760284,0,0,-8,0,0,0,82,84,82,70,74,131.95,89,-27.00,-2.00,-971.00
2024-05-19 08:53:18.963249,0,0,-8,0,0,0,82,84,81,70,74,131.95,89,42.00,-1.00,-991.00
2024-05-19 08:53:18.964244,0,0,-8,0,0,0,82,84,82,70,74,131.90,89,-3.00,-4.00,-987.00
2024-05-19 08:53:19.174833,0,0,-8,0,0,0,82,84,82,70,74,131.90,89,25.00,-4.00,-978.00
2024-05-19 08:53:19.174982,0,0,-8,0,0,0,82,84,82,70,74,131.95,89,34.00,-54.00,-1035.00
2024-05-19 08:53:19.270460,0,0,-8,0,0,0,82,84,82,70,74,131.96,89,-27.00,4.00,-1047.00
2024-05-19 08:53:19.372916,0,0,-8,0,0,0,82,84,81,70,74,131.99,89,18.00,-2.00,-968.00
2024-05-19 08:53:19.474980,0,0,-8,0,0,0,82,84,82,70,74,131.95,89,-20.00,12.00,-977.00
2024-05-19 08:53:19.577431,0,0,-9,0,0,0,82,84,82,70,74,131.87,90,54.00,-36.00,-961.00
2024-05-19 08:53:19.680125,0,0,-9,0,0,0,82,84,82,70,74,131.94,90,29.00,6.00,-997.00
2024-05-19 08:53:19.780584,0,0,-9,0,0,0,82,84,83,70,74,132.01,90,0.00,-31.00,-993.00
2024-05-19 08:53:19.882130,0,0,-9,0,0,0,82,84,82,70,74,132.00,90,22.00,-7.00,-976.00
2024-05-19 08:53:19.987192,1,0,-8,0,0,0,82,84,83,70,74,132.04,90,24.00,-16.00,-1041.00
2024-05-19 08:53:20.086209,1,0,-8,0,0,0,81,83,84,70,74,132.04,90,41.00,-7.00,-1099.00
2024-05-19 08:53:20.191989,1,0,-8,0,0,-1,81,83,85,80,74,132.01,90,-3.00,-7.00,-1170.00
2024-05-19 08:53:20.290049,0,0,-8,0,0,-2,81,83,88,80,74,132.03,90,10.00,-36.00,-1131.00
2024-05-19 08:53:20.397210,0,0,-8,0,0,-3,81,83,92,80,74,132.12,90,-5.00,8.00,-1127.00
2024-05-19 08:53:20.494206,0,1,-8,0,0,-4,81,83,97,90,74,132.16,90,13.00,2.00,-1045.00
2024-05-19 08:53:20.596047,0,0,-8,0,0,-5,81,83,103,90,74,132.14,91,-19.00,-8.00,-1070.00
2024-05-19 08:53:20.704004,0,0,-8,0,0,-5,81,83,108,100,74,132.26,91,-25.00,-20.00,-1050.00
2024-05-19 08:53:20.800139,0,0,-8,0,0,-5,81,83,114,100,74,132.28,91,21.00,-37.00,-1008.00
2024-05-19 08:53:20.908789,0,0,-8,0,0,-5,81,83,120,110,74,132.36,91,28.00,-57.00,-999.00
2024-05-19 08:53:21.004123,0,1,-8,0,0,-5,81,83,126,110,74,132.40,91,46.00,-22.00,-906.00
2024-05-19 08:53:21.113579,0,1,-8,0,0,-5,82,84,132,120,74,132.42,91,20.00,-7.00,-989.00
2024-05-19 08:53:21.208036,0,1,-8,0,0,-5,82,84,138,130,74,132.45,91,48.00,-54.00,-965.00
2024-05-19 08:53:21.318428,0,1,-8,0,0,-5,82,84,143,130,74,132.53,91,-16.00,-28.00,-916.00
2024-05-19 08:53:21.412038,1,1,-8,0,0,-4,82,84,149,140,74,132.56,91,12.00,-12.00,-980.00
2024-05-19 08:53:21.514093,1,1,-8,0,0,-4,82,84,153,140,74,132.70,91,1.00,-5.00,-979.00
2024-05-19 08:53:21.626183,0,1,-8,0,0,-4,82,84,158,150,74,132.65,92,-12.00,0.00,-1015.00
2024-05-19 08:53:21.718176,0,0,-8,0,0,-3,82,84,162,150,74,132.69,92,-3.00,5.00,-958.00
2024-05-19 08:53:21.830420,0,0,-8,0,0,-3,82,84,166,150,74,132.78,92,4.00,-10.00,-934.00
2024-05-19 08:53:21.922997,0,0,-8,0,0,-3,82,84,169,160,74,132.72,92,-2.00,-43.00,-972.00
2024-05-19 08:53:22.035194,0,0,-8,0,0,-2,82,84,172,160,74,132.77,92,65.00,-23.00,-865.00
2024-05-19 08:53:22.126019,0,0,-8,0,0,-2,82,83,174,160,74,132.84,92,36.00,-44.00,-950.00
2024-05-19 08:53:22.239996,0,1,-8,0,0,-2,82,83,177,170,74,132.88,92,12.00,-6.00,-974.00
2024-05-19 08:53:22.330026,0,1,-8,0,0,-1,82,83,179,170,74,132.91,92,46.00,-51.00,-973.00
2024-05-19 08:53:22.432082,0,2,-8,0,0,-1,82,83,180,170,74,132.93,92,22.00,-26.00,-952.00
2024-05-19 08:53:22.544689,1,2,-8,0,0,-1,82,83,182,170,74,132.94,92,20.00,-34.00,-876.00
2024-05-19 08:53:22.636177,0,2,-8,0,0,0,82,83,182,170,74,132.89,93,-14.00,-19.00,-973.00
2024-05-19 08:53:22.752070,0,2,-8,0,0,0,82,83,182,170,74,132.95,93,55.00,-69.00,-961.00
2024-05-19 08:53:22.840487,0,2,-8,0,0,0,82,83,183,170,74,132.96,93,18.00,-20.00,-891.00
2024-05-19 08:53:22.957111,0,2,-8,0,0,0,82,83,182,170,74,132.90,93,7.00,-51.00,-997.00
2024-05-19 08:53:23.044037,0,2,-8,0,0,0,82,83,183,170,74,132.91,93,-18.00,-39.00,-1050.00
2024-05-19 08:53:23.161684,0,2,-8,0,0,0,81,83,182,170,74,132.87,93,-7.00,-19.00,-947.00
2024-05-19 08:53:23.248098,0,2,-8,0,0,0,81,83,182,170,74,132.92,93,45.00,-28.00,-957.00
2024-05-19 08:53:23.299096,0,2,-8,0,0,0,81,83,181,170,74,132.90,93,2.00,-54.00,-1039.00
2024-05-19 08:53:23.469029,0,2,-8,0,0,0,81,83,182,170,74,132.89,93,26.00,-15.00,-856.00
2024-05-19 08:53:23.503110,0,2,-9,0,0,0,81,83,182,170,74,132.89,93,-26.00,-34.00,-1025.00
2024-05-19 08:53:23.673704,1,2,-9,0,0,0,81,83,181,170,74,132.84,94,38.00,-63.00,-1021.00
2024-05-19 08:53:23.707172,1,2,-9,0,0,0,81,83,181,170,74,132.87,94,49.00,-66.00,-1017.00
2024-05-19 08:53:23.878540,1,2,-9,0,0,0,81,83,181,170,74,132.86,94,26.00,-46.00,-1043.00
2024-05-19 08:53:23.911134,1,2,-8,0,0,0,81,83,182,170,74,132.98,94,44.00,-42.00,-983.00
2024-05-19 08:53:24.083642,1,2,-8,0,0,0,81,83,182,170,74,132.82,94,-30.00,-26.00,-1084.00
2024-05-19 08:53:24.115088,1,2,-8,0,0,0,80,83,182,170,74,132.94,94,15.00,-25.00,-972.00
2024-05-19 08:53:24.288112,1,2,-8,0,0,0,80,83,182,170,74,132.84,94,6.00,-44.00,-1023.00
2024-05-19 08:53:24.319137,1,1,-8,0,0,0,80,83,181,170,74,132.87,94,-2.00,-9.00,-945.00
2024-05-19 08:53:24.420880,1,2,-8,0,0,0,80,83,182,170,74,132.88,94,7.00,-41.00,-1088.00
2024-05-19 08:53:24.523112,0,2,-8,0,0,0,80,83,182,170,74,132.84,94,3.00,-39.00,-994.00
2024-05-19 08:53:24.697561,0,2,-8,0,0,0,80,83,181,170,74,132.90,95,15.00,-7.00,-996.00
2024-05-19 08:53:24.726861,0,2,-8,0,0,0,80,83,180,170,74,132.85,95,-2.00,-32.00,-964.00
2024-05-19 08:53:24.902351,1,2,-8,0,0,1,80,83,179,170,74,132.82,95,-10.00,-12.00,-1068.00
2024-05-19 08:53:24.930944,1,2,-8,0,0,1,80,83,178,170,74,132.77,95,-3.00,-39.00,-1029.00
2024-05-19 08:53:25.107154,1,2,-8,0,0,2,80,83,175,170,74,132.76,95,-5.00,-40.00,-983.00
2024-05-19 08:53:25.134966,1,2,-8,0,0,2,82,84,173,170,74,132.87,95,24.00,-16.00,-988.00
2024-05-19 08:53:25.311890,1,2,-8,0,0,2,82,84,170,160,74,132.76,95,35.00,-57.00,-1010.00
2024-05-19 08:53:25.341817,1,2,-8,0,0,2,82,84,166,160,74,132.71,95,0.00,-66.00,-1001.00
2024-05-19 08:53:25.440924,1,2,-8,0,0,3,82,84,165,160,74,132.72,95,-42.00,-29.00,-1007.00
2024-05-19 08:53:25.547771,0,2,-8,0,0,3,82,84,161,150,74,132.75,95,3.00,-52.00,-1024.00
2024-05-19 08:53:25.644838,1,2,-8,0,0,2,82,84,158,150,74,132.71,96,-6.00,-49.00,-1018.00
2024-05-19 08:53:25.823848,0,2,-8,0,0,2,82,84,155,150,74,132.67,96,-3.00,-34.00,-1048.00
2024-05-19 08:53:25.848846,0,2,-8,0,0,2,82,84,152,150,74,132.64,96,56.00,-48.00,-1001.00
2024-05-19 08:53:26.028746,0,2,-8,0,0,2,82,84,149,140,74,132.59,96,0.00,-31.00,-968.00
2024-05-19 08:53:26.052810,0,2,-8,0,0,2,82,84,147,140,74,132.53,96,53.00,-48.00,-1082.00
2024-05-19 08:53:26.233506,0,2,-8,0,0,2,82,83,146,140,74,132.47,96,21.00,-26.00,-963.00
2024-05-19 08:53:26.256802,0,1,-8,0,0,1,82,83,143,140,74,132.58,96,-19.00,-43.00,-1062.00
2024-05-19 08:53:26.438360,0,1,-8,0,0,1,82,83,142,130,74,132.47,96,0.00,-41.00,-1050.00
2024-05-19 08:53:26.460851,0,2,-8,0,0,1,82,83,140,130,74,132.48,96,-17.00,-17.00,-1014.00
2024-05-19 08:53:26.562962,0,2,-8,0,0,1,82,83,139,130,74,132.52,96,25.00,-75.00,-1046.00
2024-05-19 08:53:26.746151,0,2,-8,0,0,1,82,83,138,130,74,132.50,97,-9.00,-43.00,-1011.00
2024-05-19 08:53:26.766859,0,2,-8,0,0,1,82,83,137,130,74,132.50,97,38.00,-47.00,-949.00
2024-05-19 08:53:26.950320,0,2,-8,0,0,0,82,83,136,130,74,132.54,97,-13.00,-36.00,-1033.00
2024-05-19 08:53:26.950695,0,2,-8,0,0,0,82,83,134,130,74,132.50,97,-10.00,-42.00,-1035.00
2024-05-19 08:53:27.021832,0,2,-9,0,0,0,82,83,134,130,74,132.44,97,17.00,-47.00,-975.00
2024-05-19 08:53:27.175040,0,2,-9,0,0,0,81,83,132,130,74,132.49,97,23.00,-40.00,-985.00
2024-05-19 08:53:27.225859,0,2,-8,0,0,0,81,83,132,130,74,132.43,97,42.00,-73.00,-1068.00
2024-05-19 08:53:27.359960,0,1,-8,0,0,0,81,83,132,130,74,132.45,97,6.00,-51.00,-1034.00
2024-05-19 08:53:27.429978,1,2,-8,0,0,0,81,83,131,130,74,132.40,97,15.00,-72.00,-1029.00
2024-05-19 08:53:27.535477,1,2,-8,0,0,0,81,83,131,130,74,132.40,97,-49.00,-54.00,-1058.00
2024-05-19 08:53:27.634396,1,2,-8,0,0,0,81,83,131,130,74,132.38,98,53.00,-32.00,-958.00
2024-05-19 08:53:27.770341,1,2,-8,0,0,0,81,83,131,130,74,132.37,98,-2.00,-26.00,-1014.00
2024-05-19 08:53:27.838372,1,2,-8,0,0,0,81,83,131,130,74,132.48,98,6.00,-42.00,-994.00
2024-05-19 08:53:27.972693,0,2,-8,0,0,0,81,83,131,130,74,132.43,98,41.00,-53.00,-1019.00
2024-05-19 08:53:28.041842,0,2,-8,0,0,0,81,83,131,130,74,132.40,98,20.00,-54.00,-1076.00
2024-05-19 08:53:28.179658,0,2,-8,0,0,0,81,83,131,130,74,132.41,98,14.00,-64.00,-1021.00
2024-05-19 08:53:28.246174,0,2,-8,0,0,0,81,83,131,130,74,132.39,98,-4.00,-60.00,-926.00
2024-05-19 08:53:28.383989,0,2,-8,0,0,0,81,83,132,130,74,132.40,98,-12.00,-14.00,-1032.00
2024-05-19 08:53:28.449879,0,2,-8,0,0,0,81,83,132,130,74,132.40,98,25.00,-63.00,-989.00
2024-05-19 08:53:28.551858,0,2,-8,0,0,0,81,83,132,130,74,132.34,98,19.00,-35.00,-1038.00
2024-05-19 08:53:28.691256,0,2,-8,0,0,0,81,83,132,130,74,132.35,99,17.00,-77.00,-1025.00
2024-05-19 08:53:28.755772,0,2,-8,0,0,0,81,83,133,130,74,132.47,99,25.00,-47.00,-1000.00
2024-05-19 08:53:28.896051,0,3,-8,0,0,0,81,83,133,130,74,132.38,99,46.00,-51.00,-1003.00
2024-05-19 08:53:28.959717,0,2,-9,0,0,0,81,83,133,130,74,132.44,99,-13.00,-32.00,-1042.00
2024-05-19 08:53:29.100752,0,2,-9,0,0,0,81,83,133,130,74,132.40,99,18.00,-21.00,-1035.00
2024-05-19 08:53:29.163694,0,2,-8,0,0,0,80,83,132,130,74,132.43,99,25.00,-28.00,-965.00
2024-05-19 08:53:29.305506,-5,1,-9,0,0,0,80,83,133,130,74,132.40,99,19.00,-43.00,-1000.00
2024-05-19 08:53:29.368783,-7,1,-8,2,0,0,80,83,133,130,74,132.40,99,13.00,-28.00,-958.00
2024-05-19 08:53:29.516982,-7,1,-8,3,0,0,80,83,132,130,74,132.38,99,-16.00,-38.00,-1020.00
2024-05-19 08:53:29.572749,-7,1,-8,4,0,0,80,83,132,130,74,132.39,99,-22.00,-29.00,-978.00
2024-05-19 08:53:29.715119,-6,1,-8,5,0,0,80,83,132,130,74,132.38,100,-42.00,-10.00,-955.00
2024-05-19 08:53:29.776665,-6,1,-8,6,-1,0,80,83,132,130,74,132.39,100,-31.00,-21.00,-993.00
2024-05-19 08:53:29.919835,-4,1,-8,7,-1,0,80,83,132,130,74,132.40,100,-32.00,-31.00,-941.00
2024-05-19 08:53:29.980674,-4,1,-8,7,-1,0,80,83,133,130,74,132.32,100,-54.00,-34.00,-1002.00
2024-05-19 08:53:30.124727,-1,1,-8,7,-1,0,80,83,133,130,74,132.40,100,-23.00,-59.00,-969.00
2024-05-19 08:53:30.184579,1,1,-9,7,-1,0,81,83,135,130,74,132.47,100,-85.00,-24.00,-1062.00
2024-05-19 08:53:30.329486,3,1,-8,6,-1,0,81,83,135,130,74,132.52,100,-44.00,-16.00,-995.00
2024-05-19 08:53:30.388718,4,1,-8,5,-1,0,81,83,136,130,74,132.52,100,28.00,-43.00,-1010.00
2024-05-19 08:53:30.532536,4,1,-8,4,-1,0,81,83,136,130,74,132.49,100,17.00,-8.00,-938.00
2024-05-19 08:53:30.592563,3,2,-8,4,-1,0,81,83,136,130,74,132.49,100,29.00,-57.00,-979.00
2024-05-19 08:53:30.739113,3,2,-8,4,0,0,81,83,136,130,74,132.44,101,31.00,-29.00,-1002.00
2024-05-19 08:53:30.745587,2,3,-8,3,0,0,81,83,137,130,74,132.39,101,18.00,-11.00,-1030.00
2024-05-19 08:53:30.848099,2,2,-8,3,0,0,81,83,137,130,74,132.51,101,-38.00,-17.00,-1095.00
2024-05-19 08:53:30.950544,2,1,-8,3,0,0,81,83,136,130,74,132.40,101,-8.00,-19.00,-981.00
2024-05-19 08:53:31.053016,4,1,-8,2,0,0,81,83,136,130,74,132.50,101,34.00,-43.00,-1007.00
2024-05-19 08:53:31.155588,5,0,-8,1,0,0,81,83,136,130,74,132.42,101,83.00,-32.00,-909.00
2024-05-19 08:53:31.258737,2,0,-8,0,0,0,81,83,135,130,74,132.36,101,20.00,-47.00,-1029.00
2024-05-19 08:53:31.360061,1,-3,-8,0,0,0,81,83,135,130,74,132.42,101,38.00,-41.00,-1013.00
2024-05-19 08:53:31.464169,1,0,-8,0,-1,0,81,83,135,130,74,132.34,101,35.00,-48.00,-1009.00
2024-05-19 08:53:31.565118,1,5,-8,0,-1,0,81,83,135,130,74,132.41,102,-6.00,13.00,-1041.00
2024-05-19 08:53:31.667416,1,3,-8,0,0,0,81,83,135,130,74,132.33,102,52.00,-37.00,-1031.00
2024-05-19 08:53:31.765674,1,3,-8,0,0,0,81,83,135,130,74,132.28,102,43.00,-64.00,-990.00
2024-05-19 08:53:31.867783,1,2,-8,0,0,0,81,83,136,130,74,132.30,102,13.00,-42.00,-1025.00
2024-05-19 08:53:31.970044,1,2,-8,0,0,0,81,83,136,130,74,132.36,102,18.00,-24.00,-961.00
2024-05-19 08:53:32.179672,1,1,-8,0,0,0,81,83,136,130,74,132.37,102,62.00,-18.00,-1006.00
2024-05-19 08:53:32.179880,1,1,-8,0,0,0,81,83,136,130,74,132.34,102,19.00,-48.00,-1021.00
2024-05-19 08:53:32.275748,2,1,-8,0,0,0,81,83,136,130,74,132.46,102,25.00,-25.00,-967.00
2024-05-19 08:53:32.377978,2,1,-8,0,0,0,81,83,136,130,74,132.36,102,34.00,-54.00,-958.00
2024-05-19 08:53:32.480445,1,1,-8,0,0,0,81,83,136,130,74,132.36,102,25.00,-24.00,-984.00
2024-05-19 08:53:32.582649,1,1,-8,0,0,0,81,83,136,130,74,132.31,103,0.00,-51.00,-949.00
2024-05-19 08:53:32.684874,1,1,-8,0,0,0,81,83,136,130,74,132.37,103,57.00,-61.00,-994.00
2024-05-19 08:53:32.787633,0,2,-8,0,0,0,81,83,135,130,74,132.41,103,26.00,-54.00,-999.00
2024-05-19 08:53:32.887510,0,2,-8,0,0,0,81,83,135,130,74,132.40,103,-2.00,-49.00,-1024.00
2024-05-19 08:53:32.989519,0,2,-8,0,0,0,81,83,135,130,74,132.44,103,29.00,-14.00,-955.00
2024-05-19 08:53:33.094472,0,2,-9,0,0,0,81,83,135,130,74,132.44,103,1.00,-24.00,-952.00
2024-05-19 08:53:33.193836,0,2,-9,0,0,0,80,82,134,130,74,132.46,103,10.00,-42.00,-978.00
2024-05-19 08:53:33.299352,0,2,-9,0,0,0,80,82,134,130,74,132.44,103,24.00,-47.00,-987.00
2024-05-19 08:53:33.397638,0,2,-9,0,0,0,80,82,134,130,74,132.34,103,31.00,-26.00,-1024.00
2024-05-19 08:53:33.504562,1,2,-9,0,0,0,80,82,135,130,74,132.42,103,-16.00,-33.00,-1001.00
2024-05-19 08:53:33.601590,0,1,-9,0,0,0,80,82,134,130,74,132.34,104,-13.00,-22.00,-1030.00
2024-05-19 08:53:33.708777,0,1,-8,0,0,0,80,82,134,130,74,132.31,104,-37.00,-48.00,-1125.00
2024-05-19 08:53:33.805501,6,1,-8,0,0,0,80,82,134,130,74,132.37,104,37.00,-49.00,-942.00
2024-05-19 08:53:33.913553,8,1,-8,-1,0,0,80,82,136,130,74,132.39,104,23.00,-39.00,-989.00
2024-05-19 08:53:34.009437,8,1,-8,-2,0,0,80,82,136,130,74,132.34,104,24.00,-28.00,-969.00
2024-05-19 08:53:34.062256,8,1,-8,-4,0,0,80,82,135,130,74,132.33,104,-11.00,-14.00,-1021.00
2024-05-19 08:53:34.222327,8,1,-8,-5,0,0,80,83,134,130,74,132.28,104,46.00,-24.00,-995.00
2024-05-19 08:53:34.267696,8,2,-8,-6,0,0,80,83,134,130,74,132.33,104,67.00,-67.00,-983.00
2024-05-19 08:53:34.369162,7,2,-8,-7,1,0,80,83,134,130,74,132.31,104,74.00,-33.00,-1001.00
2024-05-19 08:53:34.472743,6,1,-8,-7,1,0,80,83,134,130,74,132.35,104,100.00,-33.00,-940.00
2024-05-19 08:53:34.574234,4,1,-8,-8,1,0,80,83,133,130,74,132.28,105,66.00,-10.00,-957.00
2024-05-19 08:53:34.672629,0,0,-8,-8,1,0,80,83,133,130,74,132.27,105,49.00,-14.00,-1038.00
2024-05-19 08:53:34.835060,-1,0,-8,-7,1,0,80,83,132,130,74,132.24,105,64.00,-32.00,-1034.00
2024-05-19 08:53:34.876379,-4,1,-8,-6,1,0,80,83,132,130,74,132.39,105,39.00,-27.00,-988.00
2024-05-19 08:53:35.039889,-4,0,-8,-5,0,0,80,83,133,130,74,132.40,105,63.00,-35.00,-1005.00
2024-05-19 08:53:35.080352,-2,0,-8,-4,0,0,80,83,133,130,74,132.33,105,37.00,-20.00,-999.00
2024-05-19 08:53:35.244648,0,1,-8,-3,0,0,80,83,133,130,74,132.39,105,59.00,-19.00,-988.00
2024-05-19 08:53:35.284312,0,1,-8,-3,0,0,80,83,133,130,74,132.35,105,8.00,-13.00,-1055.00
2024-05-19 08:53:35.449461,0,1,-8,-2,0,0,80,83,134,130,74,132.29,105,48.00,-56.00,-1004.00
2024-05-19 08:53:35.488558,1,1,-8,-2,0,0,80,83,134,130,74,132.39,105,43.00,-3.00,-956.00
2024-05-19 08:53:35.654246,1,1,-8,-2,0,0,80,83,134,130,74,132.41,106,18.00,-41.00,-987.00
2024-05-19 08:53:35.692293,0,1,-8,-2,0,0,80,83,134,130,74,132.41,106,13.00,-44.00,-984.00
2024-05-19 08:53:35.865692,0,2,-8,-2,0,0,80,83,134,130,74,132.38,106,1.00,-39.00,-1117.00
2024-05-19 08:53:35.896360,-3,3,-8,-1,0,0,80,83,133,130,74,132.40,106,40.00,-58.00,-1000.00
2024-05-19 08:53:36.063821,-1,3,-8,0,0,0,80,83,134,130,74,132.42,106,13.00,-43.00,-1015.00
2024-05-19 08:53:36.100595,0,3,-8,0,0,0,80,83,133,130,74,132.29,106,-14.00,-47.00,-1099.00
2024-05-19 08:53:36.268835,0,2,-8,0,0,0,81,82,133,130,74,132.36,106,30.00,-72.00,-966.00
2024-05-19 08:53:36.304492,0,2,-8,0,0,0,81,82,133,130,74,132.35,106,77.00,-89.00,-906.00
2024-05-19 08:53:36.473589,0,2,-8,0,0,0,81,82,132,130,74,132.39,106,38.00,-47.00,-972.00
2024-05-19 08:53:36.508778,0,2,-8,0,0,0,81,82,132,130,74,132.36,106,29.00,-68.00,-989.00
2024-05-19 08:53:36.678395,0,2,-8,0,0,0,81,82,132,130,74,132.31,107,13.00,-27.00,-982.00
2024-05-19 08:53:36.713321,0,2,-8,0,0,0,81,82,131,130,74,132.34,107,-22.00,-42.00,-971.00
2024-05-19 08:53:36.883201,0,2,-8,0,0,0,81,82,132,130,74,132.35,107,-16.00,-42.00,-996.00
2024-05-19 08:53:36.917519,0,2,-8,0,0,0,81,82,132,130,74,132.37,107,51.00,-87.00,-1019.00
2024-05-19 08:53:37.087944,0,2,-8,0,0,0,81,82,132,130,74,132.40,107,15.00,-50.00,-1007.00
2024-05-19 08:53:37.121291,1,2,-8,0,0,0,81,82,133,130,74,132.36,107,17.00,-53.00,-1035.00
2024-05-19 08:53:37.294806,1,2,-8,0,0,0,80,83,132,130,74,132.33,107,-5.00,-31.00,-1050.00
2024-05-19 08:53:37.325296,0,2,-8,0,0,0,80,83,133,130,74,132.32,107,69.00,-57.00,-955.00
2024-05-19 08:53:37.499952,0,2,-8,0,0,0,80,83,133,130,74,132.37,107,-21.00,-15.00,-986.00
2024-05-19 08:53:37.529351,0,2,-8,0,0,0,80,83,133,130,74,132.32,107,45.00,-42.00,-975.00
2024-05-19 08:53:37.631378,0,2,-8,0,0,0,80,83,133,130,74,132.26,108,-23.00,-37.00,-1016.00
2024-05-19 08:53:37.735806,0,2,-8,0,0,0,80,83,133,130,74,132.36,108,67.00,-62.00,-984.00
2024-05-19 08:53:37.840141,0,2,-8,0,0,0,80,83,134,130,74,132.35,108,19.00,-34.00,-969.00
2024-05-19 08:53:37.937421,0,2,-8,0,0,0,80,83,134,130,74,132.52,108,22.00,-49.00,-992.00
2024-05-19 08:53:38.083838,0,2,-8,0,0,0,80,83,134,130,74,132.45,108,0.00,-45.00,-1012.00
2024-05-19 08:53:38.141215,1,2,-8,0,0,0,80,83,134,130,74,132.36,108,45.00,-71.00,-972.00
2024-05-19 08:53:38.316726,0,2,-9,0,0,0,80,83,134,130,74,132.36,108,55.00,-42.00,-1005.00
2024-05-19 08:53:38.345171,1,-3,-9,0,0,0,80,83,134,130,74,132.29,108,-11.00,-26.00,-1047.00
2024-05-19 08:53:38.521499,1,-5,-9,0,-1,0,80,83,135,130,74,132.44,108,42.00,-57.00,-992.00
2024-05-19 08:53:38.549125,2,-3,-8,0,-2,0,80,83,134,130,74,132.38,108,0.00,-29.00,-1029.00
2024-05-19 08:53:38.600463,2,-1,-8,0,-3,0,80,83,133,130,74,132.34,109,-13.00,0.00,-1035.00
2024-05-19 08:53:38.726303,2,0,-8,0,-3,0,80,83,134,130,74,132.39,109,77.00,-28.00,-945.00
2024-05-19 08:53:38.804295,1,3,-8,0,-3,0,80,83,134,130,74,132.34,109,50.00,-38.00,-949.00
2024-05-19 08:53:38.931116,1,3,-8,0,-3,0,80,83,134,130,74,132.27,109,-9.00,-40.00,-1015.00
2024-05-19 08:53:39.008394,1,2,-8,0,-2,0,80,83,135,130,74,132.37,109,-12.00,-28.00,-1079.00
2024-05-19 08:53:39.135869,1,2,-8,0,-2,0,80,83,135,130,74,132.35,109,-25.00,-27.00,-990.00
2024-05-19 08:53:39.212228,0,1,-8,0,-2,0,80,83,134,130,74,132.36,109,13.00,-18.00,-1078.00
2024-05-19 08:53:39.340698,0,1,-9,0,-2,0,80,83,133,130,74,132.26,109,-7.00,-14.00,-1012.00
2024-05-19 08:53:39.416223,0,1,-8,0,-2,0,80,83,133,130,74,132.29,109,76.00,-24.00,-1009.00
2024-05-19 08:53:39.545586,1,1,-8,0,-2,0,80,83,134,130,74,132.32,109,-11.00,-1.00,-958.00
2024-05-19 08:53:39.620142,1,0,-8,0,-2,0,80,83,133,130,74,132.37,110,-12.00,0.00,-979.00
2024-05-19 08:53:39.750296,0,1,-8,0,-2,0,80,83,133,130,74,132.38,110,-1.00,-24.00,-987.00
2024-05-19 08:53:39.824156,0,1,-8,0,-2,0,80,83,134,130,74,132.35,110,10.00,-9.00,-964.00
2024-05-19 08:53:39.955095,1,0,-8,0,-2,0,80,83,134,130,74,132.40,110,23.00,-30.00,-981.00
2024-05-19 08:53:40.028291,1,1,-8,0,-2,0,80,83,134,130,74,132.33,110,-4.00,4.00,-924.00
2024-05-19 08:53:40.159879,1,2,-8,0,-2,0,80,83,134,130,74,132.39,110,-18.00,-10.00,-1022.00
2024-05-19 08:53:40.232157,1,3,-8,0,-2,0,80,82,134,130,74,132.38,110,63.00,-45.00,-925.00
2024-05-19 08:53:40.364692,1,6,-8,0,-1,0,80,82,133,130,74,132.35,110,-12.00,-1.00,-982.00
2024-05-19 08:53:40.436137,1,4,-8,0,0,0,80,82,133,130,74,132.35,110,-17.00,-58.00,-1055.00
2024-05-19 08:53:40.538501,0,3,-8,0,0,0,80,82,133,130,74,132.31,110,-22.00,-22.00,-1045.00
2024-05-19 08:53:40.640453,0,3,-8,0,0,0,80,82,133,130,74,132.41,111,57.00,-42.00,-923.00
2024-05-19 08:53:40.774587,0,2,-8,0,0,0,80,82,132,130,74,132.43,111,8.00,-40.00,-1009.00
2024-05-19 08:53:40.844121,0,1,-8,0,0,0,80,82,132,130,74,132.35,111,56.00,-65.00,-988.00
2024-05-19 08:53:40.979193,0,2,-9,0,0,0,80,82,133,130,74,132.38,111,14.00,-17.00,-958.00
2024-05-19 08:53:41.048238,0,1,-8,0,0,0,80,82,133,130,74,132.39,111,-16.00,-20.00,-1039.00
2024-05-19 08:53:41.184004,0,1,-8,0,0,0,80,82,133,130,74,132.38,111,14.00,-20.00,-972.00
2024-05-19 08:53:41.252125,0,1,-8,0,0,0,81,82,133,130,74,132.44,111,-11.00,-30.00,-1042.00
2024-05-19 08:53:41.388788,0,2,-8,0,0,0,81,82,132,130,74,132.36,111,-10.00,-43.00,-995.00
2024-05-19 08:53:41.456189,0,2,-8,0,0,0,81,82,132,130,74,132.42,111,-32.00,-27.00,-1098.00
2024-05-19 08:53:41.558410,0,2,-8,0,0,0,81,82,132,130,74,132.41,111,35.00,-43.00,-1025.00
2024-05-19 08:53:41.695854,0,2,-8,0,0,0,81,82,132,130,74,132.36,112,-50.00,-50.00,-1104.00
2024-05-19 08:53:41.762568,0,2,-8,0,0,0,81,82,132,130,74,132.38,112,16.00,-31.00,-1044.00
2024-05-19 08:53:41.900783,0,1,-8,0,0,0,81,82,131,130,74,132.37,112,-15.00,-21.00,-1009.00
2024-05-19 08:53:41.966187,0,1,-8,0,0,0,81,82,131,130,74,132.38,112,-31.00,-40.00,-1071.00
2024-05-19 08:53:42.107251,0,2,-8,0,0,0,81,82,131,130,74,132.34,112,9.00,-57.00,-972.00
2024-05-19 08:53:42.118876,0,2,-8,0,0,0,81,82,131,130,74,132.43,112,-27.00,-28.00,-986.00
2024-05-19 08:53:42.310687,0,2,-8,0,0,0,80,83,132,130,74,132.38,112,4.00,-45.00,-1005.00
2024-05-19 08:53:42.374244,0,2,-8,0,0,0,80,83,133,130,74,132.37,112,-37.00,-50.00,-1078.00
2024-05-19 08:53:42.425062,0,2,-8,0,0,0,80,83,133,130,74,132.34,112,-37.00,-15.00,-1064.00
2024-05-19 08:53:42.617724,0,2,-8,0,0,0,80,83,134,130,74,132.34,112,-3.00,-35.00,-1044.00
2024-05-19 08:53:42.628948,0,8,-8,0,0,0,80,83,136,130,74,132.43,113,34.00,-50.00,-963.00
2024-05-19 08:53:42.822302,0,8,-8,0,1,0,80,83,136,130,74,132.43,113,7.00,-33.00,-974.00
2024-05-19 08:53:42.833041,0,8,-8,0,2,0,80,83,136,130,74,132.45,113,36.00,-45.00,-927.00
2024-05-19 08:53:43.027081,0,6,-8,0,3,0,80,83,135,130,74,132.48,113,-11.00,-46.00,-930.00
2024-05-19 08:53:43.037006,0,3,-8,0,3,0,80,83,135,130,74,132.36,113,-10.00,-74.00,-1031.00
2024-05-19 08:53:43.138988,0,1,-8,0,3,0,80,83,136,130,74,132.44,113,21.00,-73.00,-963.00
2024-05-19 08:53:43.334253,0,1,-8,0,3,0,80,82,135,130,74,132.44,113,4.00,-40.00,-981.00
2024-05-19 08:53:43.342834,0,1,-8,0,2,0,80,82,135,130,74,132.41,113,-22.00,-25.00,-948.00
2024-05-19 08:53:43.541030,0,2,-8,0,2,0,80,82,135,130,74,132.57,113,-3.00,-49.00,-972.00
2024-05-19 08:53:43.546872,0,3,-8,0,2,0,80,82,136,130,74,132.42,113,18.00,-62.00,-974.00
2024-05-19 08:53:43.648868,0,3,-8,0,2,0,80,82,137,130,74,132.35,114,-52.00,-42.00,-1035.00
2024-05-19 08:53:43.750988,1,2,-8,0,2,0,80,82,136,130,74,132.44,114,9.00,-72.00,-969.00
2024-05-19 08:53:43.852885,0,2,-8,0,2,0,80,82,137,130,74,132.45,114,-17.00,-81.00,-1030.00
2024-05-19 08:53:43.956568,0,2,-8,0,2,0,80,82,137,130,74,132.43,114,-34.00,-32.00,-995.00
2024-05-19 08:53:44.057763,0,2,-9,0,2,0,80,82,137,130,74,132.40,114,20.00,-56.00,-987.00
2024-05-19 08:53:44.160138,0,1,-9,0,2,0,80,82,137,130,74,132.50,114,-18.00,-20.00,-982.00
2024-05-19 08:53:44.260975,0,0,-9,0,2,0,80,83,138,130,74,132.43,114,1.00,-47.00,-998.00
2024-05-19 08:53:44.366282,0,-1,-9,0,2,0,80,83,138,130,74,132.42,114,-1.00,-26.00,-1032.00
2024-05-19 08:53:44.467384,0,-2,-8,0,1,0,80,83,138,130,74,132.39,114,16.00,-37.00,-1013.00
2024-05-19 08:53:44.570264,0,0,-8,0,0,0,80,83,138,130,74,132.36,114,-23.00,-33.00,-978.00
2024-05-19 08:53:44.672043,0,0,-8,0,0,0,80,83,139,130,74,132.42,115,5.00,-40.00,-942.00
2024-05-19 08:53:44.774859,0,1,-8,0,0,0,80,83,139,130,74,132.38,115,23.00,-34.00,-849.00
2024-05-19 08:53:44.872926,0,1,-9,0,0,0,80,83,140,130,74,132.46,115,-16.00,1.00,-973.00
2024-05-19 08:53:44.974987,0,2,-9,0,0,0,80,83,139,130,74,132.36,115,22.00,-36.00,-954.00
2024-05-19 08:53:45.077048,0,1,-9,0,0,0,80,83,139,130,74,132.32,115,14.00,-31.00,-974.00
2024-05-19 08:53:45.279907,0,1,-9,0,0,0,80,83,139,130,74,132.29,115,15.00,-29.00,-955.00
2024-05-19 08:53:45.280829,0,1,-9,0,0,0,81,82,138,130,74,132.40,115,-11.00,-15.00,-991.00
2024-05-19 08:53:45.484695,1,2,-8,0,0,0,81,82,138,130,74,132.41,115,-32.00,-18.00,-1005.00
2024-05-19 08:53:45.484811,1,2,-8,0,0,0,81,82,137,130,74,132.34,115,-48.00,-5.00,-1026.00
2024-05-19 08:53:45.587154,1,2,-8,0,0,0,81,82,136,130,74,132.38,115,-9.00,-27.00,-1063.00
2024-05-19 08:53:45.689517,0,2,-8,0,0,0,81,82,136,130,74,132.30,116,3.00,-18.00,-979.00
2024-05-19 08:53:45.791791,0,2,-8,0,0,0,81,82,136,130,74,132.34,116,10.00,-25.00,-1007.00
2024-05-19 08:53:45.894336,0,1,-8,0,0,0,81,82,135,130,74,132.39,116,-35.00,-28.00,-1012.00
2024-05-19 08:53:45.944009,0,1,-8,0,0,0,81,82,135,130,74,132.32,116,64.00,-33.00,-983.00
2024-05-19 08:53:46.099195,0,1,-8,0,0,0,81,82,135,130,74,132.29,116,-19.00,-14.00,-1007.00
2024-05-19 08:53:46.147999,0,1,-8,0,0,0,81,82,135,130,74,132.28,116,12.00,-25.00,-1017.00
2024-05-19 08:53:46.303985,0,1,-8,0,0,0,81,82,135,130,74,132.29,116,-3.00,-39.00,-954.00
2024-05-19 08:53:46.352018,0,1,-8,0,0,0,81,82,135,130,74,132.31,116,26.00,-22.00,-1067.00
2024-05-19 08:53:46.471067,0,1,-8,0,0,0,81,82,135,130,74,132.36,116,-11.00,-27.00,-905.00
2024-05-19 08:53:46.555864,1,1,-7,0,0,0,81,82,135,130,74,132.34,117,18.00,-51.00,-959.00
2024-05-19 08:53:46.658207,1,2,-1,0,0,0,81,82,136,130,74,132.34,117,17.00,-46.00,-1043.00
2024-05-19 08:53:46.815832,1,2,4,0,0,0,81,82,135,130,74,132.38,117,44.00,-46.00,-948.00
2024-05-19 08:53:46.862945,1,2,10,0,0,0,81,82,135,130,74,132.36,117,-27.00,-37.00,-1007.00
2024-05-19 08:53:47.020624,0,2,15,0,0,0,81,82,135,130,74,132.37,117,8.00,-38.00,-968.00
2024-05-19 08:53:47.066164,0,2,21,0,0,0,81,82,134,130,74,132.31,117,2.00,-48.00,-1011.00
2024-05-19 08:53:47.225468,-1,1,27,0,0,0,81,82,135,130,74,132.36,117,0.00,-38.00,-1012.00
2024-05-19 08:53:47.269880,-1,1,33,0,0,0,80,83,134,130,74,132.37,117,14.00,-1.00,-964.00
2024-05-19 08:53:47.375327,-1,0,39,0,0,0,80,83,134,130,74,132.32,117,-5.00,-10.00,-957.00
2024-05-19 08:53:47.474125,-1,0,45,0,0,0,80,83,133,130,74,132.35,117,-17.00,0.00,-997.00
2024-05-19 08:53:47.576114,-1,0,51,0,0,0,80,83,132,130,74,132.34,118,-24.00,-32.00,-1030.00
2024-05-19 08:53:47.737572,-2,0,57,0,0,0,80,83,132,130,74,132.27,118,-42.00,9.00,-987.00
2024-05-19 08:53:47.779835,-2,0,63,0,0,0,80,83,131,130,74,132.25,118,-26.00,-12.00,-1019.00
2024-05-19 08:53:47.944722,-2,0,69,0,0,0,80,83,132,130,74,132.23,118,-21.00,-27.00,-1005.00
2024-05-19 08:53:47.983812,-2,0,75,0,0,0,80,83,131,130,74,132.27,118,-15.00,1.00,-980.00
2024-05-19 08:53:48.147021,-2,0,81,0,0,0,80,83,132,130,74,132.20,118,-46.00,4.00,-989.00
2024-05-19 08:53:48.187783,-2,0,87,0,0,0,80,83,131,130,74,132.30,118,-43.00,19.00,-983.00
2024-05-19 08:53:48.351833,-2,0,93,0,0,0,80,82,131,130,74,132.22,118,-12.00,31.00,-1018.00
2024-05-19 08:53:48.392927,-2,0,99,0,0,0,80,82,131,130,74,132.18,118,-59.00,4.00,-1093.00
2024-05-19 08:53:48.556605,-2,0,105,0,0,0,80,82,132,130,74,132.19,118,-53.00,20.00,-1073.00
2024-05-19 08:53:48.595806,-1,0,111,0,0,0,80,82,132,130,74,132.26,119,-29.00,9.00,-1012.00
2024-05-19 08:53:48.761642,-1,-1,117,0,0,0,80,82,132,130,74,132.34,119,-45.00,16.00,-1026.00
2024-05-19 08:53:48.808111,-2,-1,123,0,0,0,80,82,133,130,74,132.16,119,-36.00,45.00,-988.00
2024-05-19 08:53:48.901814,-2,-1,129,0,0,0,80,82,133,130,74,132.28,119,-38.00,33.00,-975.00
2024-05-19 08:53:49.068616,-2,-1,135,0,0,0,80,82,133,130,74,132.23,119,-44.00,32.00,-986.00
2024-05-19 08:53:49.105781,-2,-1,141,0,0,0,80,82,133,130,74,132.27,119,-39.00,46.00,-1007.00
2024-05-19 08:53:49.273415,-2,0,146,0,0,0,80,82,133,130,74,132.29,119,-3.00,32.00,-937.00
2024-05-19 08:53:49.312748,-1,0,152,0,0,0,80,82,133,130,74,132.25,119,-23.00,31.00,-1002.00
2024-05-19 08:53:49.411769,-1,-1,158,0,0,0,80,82,132,130,74,132.24,119,-36.00,49.00,-1026.00
2024-05-19 08:53:49.568069,-1,-1,164,0,0,0,80,82,132,130,74,132.21,119,-23.00,45.00,-965.00
2024-05-19 08:53:49.615572,-1,-1,169,0,0,0,80,82,132,130,74,132.30,120,-36.00,69.00,-997.00
2024-05-19 08:53:49.785557,-1,-2,175,0,0,0,80,82,132,130,74,132.33,120,10.00,51.00,-1012.00
2024-05-19 08:53:49.819674,-1,-2,-178,0,0,0,80,82,132,120,74,132.31,120,-13.00,45.00,-1047.00
2024-05-19 08:53:49.990207,-1,-2,-171,0,0,0,80,82,133,120,74,132.25,120,48.00,35.00,-956.00
2024-05-19 08:53:50.023666,0,-1,-165,0,0,0,80,82,133,130,74,132.31,120,-5.00,9.00,-1087.00
2024-05-19 08:53:50.195033,0,-1,-159,0,0,0,80,82,133,130,74,132.30,120,-11.00,30.00,-1023.00
2024-05-19 08:53:50.195096,0,-1,-153,0,0,0,80,82,133,130,74,132.32,120,20.00,42.00,-922.00
2024-05-19 08:53:50.329731,0,-1,-147,0,0,0,80,82,134,130,74,132.29,120,28.00,38.00,-1030.00
2024-05-19 08:53:50.502225,0,-1,-141,0,0,0,80,82,134,130,74,132.27,120,61.00,22.00,-939.00
2024-05-19 08:53:50.502283,1,-1,-135,0,0,0,80,82,135,130,74,132.27,120,0.00,43.00,-1001.00
2024-05-19 08:53:50.586987,1,-1,-129,0,0,0,80,82,134,130,74,132.28,121,32.00,42.00,-1037.00
2024-05-19 08:53:50.686492,2,-1,-122,0,0,0,80,82,135,130,74,132.30,121,57.00,30.00,-1007.00
2024-05-19 08:53:50.809398,2,-1,-116,0,0,0,80,82,136,130,74,132.32,121,54.00,21.00,-967.00
2024-05-19 08:53:50.890508,2,-1,-110,0,0,0,80,82,135,130,74,132.29,121,52.00,21.00,-982.00
2024-05-19 08:53:51.014178,2,-1,-104,0,0,0,80,82,135,130,74,132.28,121,24.00,22.00,-998.00
2024-05-19 08:53:51.094454,2,0,-98,0,0,0,80,82,135,130,74,132.28,121,24.00,29.00,-976.00
2024-05-19 08:53:51.219004,2,0,-92,0,0,0,80,82,135,130,74,132.27,121,70.00,23.00,-939.00
2024-05-19 08:53:51.298458,2,0,-86,0,0,0,80,82,136,130,74,132.29,121,1.00,35.00,-1018.00
2024-05-19 08:53:51.424177,2,0,-81,0,0,0,80,82,137,130,74,132.25,121,67.00,11.00,-979.00
2024-05-19 08:53:51.502468,2,0,-75,0,0,0,80,82,137,130,74,132.26,121,8.00,28.00,-1068.00
2024-05-19 08:53:51.604530,2,0,-69,0,0,0,80,82,138,130,74,132.30,122,48.00,-8.00,-1010.00
2024-05-19 08:53:51.730981,2,0,-63,0,0,0,80,82,138,130,74,132.35,122,49.00,-29.00,-996.00
2024-05-19 08:53:51.808481,2,0,-57,0,0,0,80,82,138,130,74,132.26,122,17.00,1.00,-931.00
2024-05-19 08:53:51.935805,2,0,-51,0,0,0,80,82,138,130,74,132.29,122,58.00,25.00,-898.00
2024-05-19 08:53:52.012347,2,1,-45,0,0,0,80,82,138,130,74,132.24,122,53.00,-25.00,-943.00
2024-05-19 08:53:52.140596,1,0,-39,0,0,0,80,82,138,130,74,132.27,122,-2.00,-10.00,-988.00
2024-05-19 08:53:52.216608,1,1,-33,0,0,0,80,82,137,130,74,132.26,122,49.00,-55.00,-1062.00
2024-05-19 08:53:52.345375,1,1,-27,0,0,0,79,82,137,130,74,132.26,122,50.00,-12.00,-937.00
2024-05-19 08:53:52.420409,1,2,-22,0,0,0,79,82,136,130,74,132.30,122,61.00,-34.00,-981.00
2024-05-19 08:53:52.550247,1,2,-19,0,0,0,79,82,136,130,74,132.31,122,10.00,-27.00,-990.00
2024-05-19 08:53:52.624571,1,2,-16,0,0,0,79,82,135,130,74,132.35,123,30.00,-27.00,-972.00
2024-05-19 08:53:52.754976,1,2,-14,0,0,0,79,82,135,130,74,132.30,123,26.00,-49.00,-1012.00
2024-05-19 08:53:52.828423,1,2,-13,0,0,0,79,82,135,130,74,132.27,123,23.00,-14.00,-938.00
2024-05-19 08:53:52.959723,1,2,-12,0,0,0,79,82,133,130,74,132.26,123,49.00,-41.00,-1010.00
2024-05-19 08:53:53.032444,1,2,-11,0,0,0,79,82,133,130,74,132.31,123,6.00,-25.00,-1012.00
2024-05-19 08:53:53.134473,1,2,-10,0,0,0,79,82,133,130,74,132.25,123,-16.00,-27.00,-1091.00
2024-05-19 08:53:53.267478,1,2,-10,0,0,0,79,82,133,130,73,132.26,123,-19.00,-45.00,-1134.00
2024-05-19 08:53:53.338455,1,2,-10,0,0,0,79,82,132,130,73,132.33,123,53.00,-35.00,-1029.00
2024-05-19 08:53:53.472037,1,2,-10,0,0,0,79,82,132,120,73,132.31,123,53.00,-33.00,-937.00
2024-05-19 08:53:53.542404,2,1,-10,0,0,0,79,82,132,120,73,132.30,123,41.00,-12.00,-985.00
2024-05-19 08:53:53.676674,2,1,-10,0,0,0,79,82,133,120,73,132.26,124,49.00,-44.00,-1014.00
2024-05-19 08:53:53.746454,2,1,-10,0,0,0,79,82,134,130,73,132.25,124,2.00,-12.00,-1122.00
2024-05-19 08:53:53.881600,1,1,-10,0,0,0,79,82,135,130,73,132.30,124,17.00,-13.00,-968.00
2024-05-19 08:53:53.950562,1,1,-10,0,0,0,79,82,136,130,73,132.35,124,33.00,-59.00,-1042.00
2024-05-19 08:53:54.086422,1,1,-10,0,0,0,79,82,136,130,73,132.30,124,-3.00,-18.00,-1012.00
2024-05-19 08:53:54.103544,1,1,-10,0,0,0,79,82,137,130,73,132.33,124,7.00,-15.00,-1021.00
2024-05-19 08:53:54.291576,1,1,-10,0,0,0,79,82,138,130,73,132.30,124,-27.00,-26.00,-967.00
2024-05-19 08:53:54.307539,1,2,-10,0,0,0,80,81,138,130,73,132.33,124,73.00,-36.00,-889.00
2024-05-19 08:53:54.495881,0,2,-10,0,0,0,80,81,139,130,73,132.36,124,16.00,-41.00,-978.00
2024-05-19 08:53:54.511608,0,2,-10,0,0,0,80,81,139,130,73,132.31,124,22.00,-50.00,-967.00
2024-05-19 08:53:54.613492,0,2,-10,0,0,0,80,81,138,130,73,132.37,125,30.00,-38.00,-1012.00
2024-05-19 08:53:54.803068,0,2,-10,0,0,0,80,81,138,130,73,132.28,125,22.00,-23.00,-992.00
2024-05-19 08:53:54.817487,1,2,-10,0,0,0,80,81,138,130,73,132.32,125,23.00,-49.00,-989.00
2024-05-19 08:53:55.007913,1,2,-10,0,0,0,80,81,138,130,73,132.33,125,84.00,-53.00,-994.00
2024-05-19 08:53:55.021398,1,2,-10,0,0,0,80,81,137,130,73,132.33,125,44.00,-17.00,-933.00
2024-05-19 08:53:55.123633,1,1,-10,0,0,0,80,81,138,130,73,132.27,125,-5.00,-43.00,-1049.00
2024-05-19 08:53:55.314956,1,1,-11,0,0,0,80,81,137,130,73,132.29,125,12.00,-20.00,-990.00
2024-05-19 08:53:55.327413,1,1,-16,0,0,0,80,82,137,130,73,132.24,125,31.00,-25.00,-986.00
2024-05-19 08:53:55.519686,1,1,-22,0,0,0,80,82,136,130,73,132.22,125,23.00,-20.00,-1012.00
2024-05-19 08:53:55.533292,1,1,-28,0,0,0,80,82,137,130,73,132.22,125,53.00,-20.00,-1003.00
2024-05-19 08:53:55.633471,1,1,-34,0,0,0,80,82,137,130,73,132.28,126,76.00,-13.00,-919.00
2024-05-19 08:53:55.826883,1,0,-40,0,0,0,80,82,137,130,73,132.27,126,32.00,-16.00,-924.00
2024-05-19 08:53:55.837358,2,0,-46,0,0,0,80,82,137,130,73,132.27,126,49.00,-10.00,-980.00
2024-05-19 08:53:56.031697,2,0,-51,0,0,0,80,82,137,130,73,132.24,126,41.00,28.00,-975.00
2024-05-19 08:53:56.041276,2,0,-57,0,0,0,80,82,137,130,73,132.31,126,27.00,19.00,-994.00
2024-05-19 08:53:56.143209,3,0,-64,0,0,0,80,82,137,130,73,132.22,126,59.00,-2.00,-1024.00
2024-05-19 08:53:56.338894,2,0,-70,0,0,0,80,82,137,130,73,132.25,126,79.00,-27.00,-972.00
2024-05-19 08:53:56.347275,2,0,-76,0,0,0,80,82,137,130,73,132.33,126,12.00,35.00,-981.00
2024-05-19 08:53:56.543824,2,0,-82,0,0,0,80,82,137,130,73,132.31,126,84.00,13.00,-979.00
2024-05-19 08:53:56.551378,2,-1,-88,0,0,0,80,82,137,130,73,132.31,126,48.00,6.00,-992.00
2024-05-19 08:53:56.748545,2,-1,-94,0,0,0,80,82,136,130,73,132.30,127,33.00,57.00,-990.00
2024-05-19 08:53:56.756250,1,-1,-100,0,0,0,80,82,137,130,73,132.31,127,59.00,2.00,-963.00
2024-05-19 08:53:56.953258,1,-1,-106,0,0,0,80,82,136,130,73,132.25,127,-8.00,41.00,-995.00
2024-05-19 08:53:56.960184,1,-1,-112,0,0,0,80,82,137,130,73,132.23,127,18.00,22.00,-972.00
2024-05-19 08:53:57.062332,1,-1,-117,0,0,0,80,82,136,130,73,132.21,127,29.00,31.00,-976.00
2024-05-19 08:53:57.164723,1,-1,-123,0,0,0,80,82,136,130,73,132.26,127,25.00,49.00,-938.00
2024-05-19 08:53:57.267367,1,-1,-129,0,0,0,80,82,137,130,73,132.26,127,32.00,19.00,-1001.00
2024-05-19 08:53:57.466059,1,-1,-135,0,0,0,80,82,136,130,73,132.29,127,45.00,32.00,-1057.00
2024-05-19 08:53:57.472291,1,-1,-141,0,0,0,80,82,135,130,73,132.21,127,37.00,26.00,-1026.00
2024-05-19 08:53:57.574893,0,-2,-147,0,0,0,80,82,135,130,73,132.20,127,6.00,36.00,-939.00
2024-05-19 08:53:57.624494,0,-2,-153,0,0,0,80,82,135,130,73,132.23,128,29.00,38.00,-979.00
2024-05-19 08:53:57.772493,0,-2,-159,0,0,0,80,82,134,130,73,132.17,128,-8.00,47.00,-1047.00
2024-05-19 08:53:57.827870,0,-2,-165,0,0,0,80,82,134,130,73,132.27,128,-35.00,41.00,-1064.00
2024-05-19 08:53:57.977858,0,-2,-171,0,0,0,80,82,134,130,73,132.21,128,-17.00,64.00,-970.00
2024-05-19 08:53:58.031785,0,-1,-176,0,0,0,80,82,134,130,73,132.25,128,-12.00,53.00,-1017.00
2024-05-19 08:53:58.182066,0,-1,177,0,0,0,80,82,135,130,73,132.29,128,-25.00,53.00,-921.00
2024-05-19 08:53:58.235300,0,-1,171,0,0,0,80,82,135,130,73,132.24,128,-36.00,40.00,-1029.00
2024-05-19 08:53:58.386918,-1,-1,165,0,0,0,80,81,135,130,73,132.30,128,-6.00,66.00,-1017.00
2024-05-19 08:53:58.439236,-1,-1,159,0,0,0,80,81,135,130,73,132.29,128,-20.00,28.00,-893.00
2024-05-19 08:53:58.592119,-1,-1,153,0,0,0,80,81,135,130,73,132.31,128,-30.00,38.00,-1016.00
2024-05-19 08:53:58.645026,-1,-1,147,0,0,0,80,81,135,130,73,132.25,129,-20.00,27.00,-1018.00
2024-05-19 08:53:58.745399,-1,0,141,0,0,0,80,81,135,130,73,132.32,129,-35.00,23.00,-1058.00
2024-05-19 08:53:58.898947,-1,0,135,0,0,0,80,81,136,130,73,132.26,129,5.00,22.00,-961.00
2024-05-19 08:53:58.949219,-1,0,130,0,0,0,80,81,135,130,73,132.21,129,-44.00,25.00,-950.00
2024-05-19 08:53:59.106093,-1,0,124,0,0,0,80,81,135,130,73,132.29,129,-49.00,22.00,-872.00
2024-05-19 08:53:59.153269,-1,0,119,0,0,0,80,81,135,130,73,132.32,129,-28.00,-6.00,-1052.00
2024-05-19 08:53:59.310759,-1,0,113,0,0,0,80,81,135,130,73,132.34,129,-5.00,13.00,-1049.00
2024-05-19 08:53:59.357462,-1,0,108,0,0,0,80,82,135,130,73,132.26,129,-15.00,14.00,-1001.00
2024-05-19 08:53:59.513422,-1,0,102,0,0,0,80,82,135,130,73,132.31,129,-29.00,13.00,-960.00
2024-05-19 08:53:59.561390,-1,0,97,0,0,0,80,82,134,130,73,132.20,129,-62.00,31.00,-1063.00
2024-05-19 08:53:59.718297,-1,0,91,0,0,0,80,82,134,130,73,132.32,130,-36.00,-6.00,-1042.00
2024-05-19 08:53:59.765200,-1,0,86,0,0,0,80,82,134,130,73,132.31,130,-36.00,-17.00,-966.00
2024-05-19 08:53:59.922838,-1,0,80,0,0,0,80,82,134,130,73,132.22,130,-19.00,22.00,-972.00
2024-05-19 08:53:59.974476,-1,0,75,0,0,0,80,82,134,130,73,132.29,130,-20.00,-10.00,-1067.00
2024-05-19 08:54:00.071297,-1,0,69,0,0,0,80,82,134,130,73,132.27,130,-6.00,-15.00,-975.00
2024-05-19 08:54:00.176079,-1,0,64,0,0,0,80,82,133,130,73,132.22,130,-13.00,2.00,-963.00
2024-05-19 08:54:00.275169,-1,0,58,0,0,0,80,82,133,130,72,132.20,130,-6.00,10.00,-964.00
2024-05-19 08:54:00.434854,-1,0,47,0,0,0,80,82,133,130,72,132.19,130,-31.00,-7.00,-986.00
2024-05-19 08:54:00.479110,-1,0,41,0,0,0,80,82,133,130,72,132.15,130,-22.00,-9.00,-1018.00
2024-05-19 08:54:00.581412,-1,0,35,0,0,0,80,82,133,130,72,132.16,131,-48.00,-35.00,-1025.00
2024-05-19 08:54:00.749300,-1,0,29,0,0,0,80,82,132,130,72,132.24,131,-22.00,-30.00,-986.00
2024-05-19 08:54:00.789515,-1,0,23,0,0,0,80,82,133,130,72,132.26,131,-8.00,-11.00,-999.00
2024-05-19 08:54:00.889912,-1,1,17,0,0,0,80,82,133,130,72,132.27,131,-15.00,-30.00,-916.00
2024-05-19 08:54:00.990662,0,0,10,0,0,0,80,82,132,130,72,132.30,131,0.00,-35.00,-980.00
2024-05-19 08:54:01.091120,0,1,5,0,0,0,80,82,133,130,72,132.24,131,-6.00,-23.00,-954.00
2024-05-19 08:54:01.254114,0,2,1,0,0,0,80,82,133,130,72,132.31,131,15.00,-43.00,-1001.00
2024-05-19 08:54:01.295241,0,2,-1,0,0,0,80,82,132,130,72,132.26,131,10.00,-26.00,-969.00
2024-05-19 08:54:01.459015,-1,2,-3,0,0,0,80,82,132,130,72,132.24,131,-40.00,-3.00,-961.00
2024-05-19 08:54:01.499054,-1,2,-5,0,0,0,80,82,132,130,72,132.26,131,-17.00,-23.00,-1033.00
2024-05-19 08:54:01.601086,-1,2,-6,0,0,0,80,82,132,130,72,132.22,132,1.00,-49.00,-961.00
2024-05-19 08:54:01.766023,-1,2,-7,0,0,0,80,82,131,130,72,132.25,132,1.00,-31.00,-969.00
2024-05-19 08:54:01.766228,0,2,-8,0,0,0,80,82,131,130,72,132.29,132,0.00,-38.00,-974.00
2024-05-19 08:54:01.856215,0,2,-8,0,0,0,80,82,131,130,72,132.23,132,-14.00,-30.00,-1075.00
2024-05-19 08:54:01.970999,-1,1,-8,0,0,0,80,82,131,130,72,132.27,132,-71.00,-5.00,-1057.00
2024-05-19 08:54:02.061429,-1,1,-8,0,0,0,80,82,131,130,72,132.27,132,-28.00,-9.00,-999.00
2024-05-19 08:54:02.175809,-1,1,-8,0,0,0,80,82,131,130,72,132.33,132,44.00,-38.00,-973.00
2024-05-19 08:54:02.263925,-1,1,-8,0,0,0,80,82,131,130,72,132.27,132,-19.00,8.00,-1001.00
2024-05-19 08:54:02.365994,-1,1,-8,0,0,0,79,81,132,130,72,132.23,132,-46.00,1.00,-989.00
2024-05-19 08:54:02.482882,-1,1,-8,0,0,0,79,81,132,130,72,132.21,132,-26.00,-18.00,-1027.00
2024-05-19 08:54:02.570971,-2,1,-8,0,0,0,79,81,133,130,72,132.23,133,11.00,-19.00,-882.00
2024-05-19 08:54:02.687747,-2,1,-8,0,0,0,79,81,133,130,72,132.26,133,-31.00,-25.00,-1049.00
2024-05-19 08:54:02.775148,-2,1,-9,0,0,0,79,81,134,130,72,132.24,133,-48.00,-4.00,-931.00
2024-05-19 08:54:02.892583,-1,0,-9,0,0,0,79,81,133,130,72,132.33,133,-38.00,-33.00,-1011.00
2024-05-19 08:54:02.979130,-1,0,-9,0,0,0,79,81,133,130,72,132.34,133,-15.00,-5.00,-970.00
2024-05-19 08:54:03.097684,-1,1,-9,0,0,0,79,81,134,130,72,132.41,133,-39.00,-7.00,-1016.00
2024-05-19 08:54:03.183075,-1,1,-9,0,0,0,79,81,133,130,72,132.31,133,-18.00,6.00,-919.00
2024-05-19 08:54:03.302231,-1,0,-9,0,0,0,79,81,133,130,72,132.40,133,-13.00,-22.00,-1010.00
2024-05-19 08:54:03.387025,-1,0,-9,0,0,0,79,82,133,130,72,132.33,133,16.00,-38.00,-959.00
2024-05-19 08:54:03.507078,0,1,-9,0,0,0,79,82,134,130,72,132.24,133,-24.00,-20.00,-957.00
2024-05-19 08:54:03.591207,0,1,-9,0,0,0,79,82,134,130,72,132.26,134,-15.00,-26.00,-1065.00
2024-05-19 08:54:03.711793,0,1,-9,0,0,0,79,82,134,130,72,132.30,134,-13.00,-15.00,-1000.00
2024-05-19 08:54:03.795497,0,1,-9,0,0,0,79,82,134,130,72,132.32,134,13.00,-56.00,-997.00
2024-05-19 08:54:03.897039,0,2,-8,0,0,0,79,82,135,130,72,132.26,134,-2.00,-29.00,-952.00
2024-05-19 08:54:04.018884,0,0,-9,0,0,0,79,82,135,130,72,132.42,134,20.00,-9.00,-1022.00
2024-05-19 08:54:04.100967,0,-1,-10,0,0,-5,79,82,136,130,72,132.49,134,35.00,-53.00,-1583.00
2024-05-19 08:54:04.223685,-1,-20,-12,0,-1,-11,79,82,145,140,72,132.54,134,-53.00,58.00,-1480.00
2024-05-19 08:54:04.304922,-5,-121,-7,-1,-8,-9,79,82,374,150,72,132.74,134,-71.00,439.00,-1150.00
2024-05-19 08:54:04.428466,7,112,-6,-1,-11,5,79,82,506,150,72,132.60,134,-34.00,539.00,-1042.00
2024-05-19 08:54:04.508915,2,8,-17,0,-5,12,79,82,148,140,72,132.98,134,-66.00,580.00,-1151.00
2024-05-19 08:54:04.610889,0,-3,-19,-1,-6,9,79,82,138,130,72,132.33,135,-25.00,441.00,-838.00
2024-05-19 08:54:04.735693,0,5,-20,-1,-6,5,79,82,131,130,72,132.28,135,2.00,-66.00,-1543.00
2024-05-19 08:54:04.814893,0,5,-15,-1,-4,2,79,82,128,120,72,132.20,135,8.00,0.00,-1363.00
2024-05-19 08:54:04.940470,0,3,-8,0,-3,0,79,82,126,120,72,132.23,135,7.00,7.00,-1284.00
2024-05-19 08:54:05.022113,0,2,-8,0,-3,0,79,82,128,120,72,132.16,135,1.00,-10.00,-1264.00
2024-05-19 08:54:05.120858,0,1,-8,0,-2,-1,79,82,130,120,72,132.32,135,-37.00,-19.00,-1186.00
2024-05-19 08:54:05.247679,0,1,-8,0,-1,-1,79,82,131,120,72,132.32,135,-40.00,-4.00,-1080.00
2024-05-19 08:54:05.273782,0,0,-8,0,-1,-1,79,82,134,120,72,132.31,135,1.00,-5.00,-1011.00
2024-05-19 08:54:05.452456,0,0,-8,0,-1,-1,79,82,135,130,72,132.25,135,-18.00,8.00,-1035.00
2024-05-19 08:54:05.528932,0,1,-8,0,-1,0,79,82,136,130,72,132.33,135,5.00,-34.00,-965.00
2024-05-19 08:54:05.634655,0,2,-8,0,-2,0,79,82,137,130,72,132.29,136,14.00,-2.00,-907.00
2024-05-19 08:54:05.685193,0,5,-8,0,-1,0,79,82,138,130,72,132.24,136,-8.00,-3.00,-970.00
2024-05-19 08:54:05.783804,0,4,-8,0,-1,0,79,82,138,130,72,132.25,136,-15.00,-3.00,-989.00
2024-05-19 08:54:05.964886,0,3,-8,0,0,0,79,82,138,130,72,132.32,136,2.00,-14.00,-1014.00
2024-05-19 08:54:05.990546,0,3,-8,0,0,0,79,82,137,130,72,132.25,136,30.00,-42.00,-995.00
2024-05-19 08:54:06.090073,0,2,-8,0,0,0,79,82,137,130,72,132.26,136,-12.00,13.00,-945.00
2024-05-19 08:54:06.271706,0,2,-8,0,0,0,79,82,137,130,72,132.30,136,18.00,-2.00,-916.00
2024-05-19 08:54:06.293582,0,2,-8,0,0,0,79,82,137,130,71,132.25,136,-24.00,-20.00,-984.00
2024-05-19 08:54:06.476449,0,2,-8,0,0,0,79,82,136,130,71,132.24,136,-31.00,6.00,-995.00
2024-05-19 08:54:06.497854,0,2,-9,0,0,0,79,82,136,130,71,132.35,136,-26.00,3.00,-1004.00
2024-05-19 08:54:06.681647,0,2,-9,0,0,0,79,82,135,130,71,132.35,137,-14.00,-2.00,-1003.00
2024-05-19 08:54:06.701626,0,2,-9,0,0,0,79,82,135,130,71,132.37,137,74.00,23.00,-881.00
2024-05-19 08:54:06.886060,0,1,-9,0,0,0,79,82,135,130,71,132.30,137,7.00,-21.00,-1121.00
2024-05-19 08:54:06.908653,0,1,-9,0,0,0,79,82,134,130,71,132.26,137,-6.00,-10.00,-1039.00
2024-05-19 08:54:07.007646,0,1,-8,0,0,0,79,82,135,130,71,132.33,137,15.00,-14.00,-996.00
2024-05-19 08:54:07.193242,0,1,-8,0,0,0,79,82,136,130,71,132.22,137,9.00,-5.00,-1007.00
2024-05-19 08:54:07.211472,0,1,-8,0,0,0,79,82,135,130,71,132.17,137,-9.00,-33.00,-1076.00
2024-05-19 08:54:07.397933,0,2,-8,0,0,0,79,82,136,130,71,132.23,137,-16.00,-23.00,-1123.00
2024-05-19 08:54:07.415680,1,1,-8,0,0,0,80,82,136,130,71,132.24,137,-5.00,-3.00,-940.00
2024-05-19 08:54:07.517618,0,1,-8,0,0,0,80,82,136,130,71,132.27,137,4.00,-23.00,-1002.00
2024-05-19 08:54:07.705778,0,1,-8,0,0,0,80,82,135,130,71,132.29,138,49.00,-22.00,-1039.00
2024-05-19 08:54:07.721586,0,1,-8,0,0,0,80,82,135,130,71,132.22,138,26.00,-21.00,-976.00
2024-05-19 08:54:07.825037,0,1,-8,0,0,0,80,82,135,130,71,132.27,138,-11.00,5.00,-1011.00
2024-05-19 08:54:07.925704,0,1,-8,0,0,0,80,82,134,130,71,132.28,138,8.00,-40.00,-1044.00
2024-05-19 08:54:08.115155,0,1,-8,0,0,0,80,82,133,130,71,132.22,138,5.00,-36.00,-1025.00
2024-05-19 08:54:08.129497,0,1,-8,0,0,0,80,82,132,130,71,132.25,138,40.00,-41.00,-965.00
2024-05-19 08:54:08.319846,0,1,-8,0,0,0,80,82,131,130,70,132.21,138,55.00,-17.00,-1001.00
2024-05-19 08:54:08.333580,0,1,-8,0,0,0,80,82,131,130,70,132.15,138,49.00,-25.00,-942.00
2024-05-19 08:54:08.524606,0,1,-8,0,0,0,80,82,130,120,70,132.16,138,-13.00,10.00,-1019.00
2024-05-19 08:54:08.537734,0,0,-8,0,0,0,80,82,130,120,70,132.24,138,0.00,-26.00,-1021.00
2024-05-19 08:54:08.639728,1,1,-8,0,0,0,80,82,130,120,70,132.24,139,47.00,-30.00,-1050.00
2024-05-19 08:54:08.831715,1,1,-8,0,0,0,80,82,130,120,70,132.24,139,25.00,-29.00,-1018.00
2024-05-19 08:54:08.843364,1,1,-8,0,0,0,80,82,130,120,70,132.30,139,33.00,-36.00,-1027.00
2024-05-19 08:54:09.036476,1,1,-8,0,0,0,80,82,130,120,70,132.25,139,25.00,-16.00,-1061.00
2024-05-19 08:54:09.047487,1,0,-8,0,0,0,80,82,130,120,70,132.21,139,-12.00,-2.00,-992.00
2024-05-19 08:54:09.098722,1,0,-8,0,0,0,80,82,130,120,70,132.22,139,44.00,-27.00,-988.00
2024-05-19 08:54:09.241346,0,0,-8,0,0,0,80,82,130,120,70,132.22,139,42.00,9.00,-881.00
2024-05-19 08:54:09.302835,1,0,-8,0,0,0,80,82,131,120,70,132.27,139,2.00,-25.00,-1041.00
2024-05-19 08:54:09.446138,1,0,-8,0,0,0,79,82,131,120,70,132.20,139,40.00,-18.00,-988.00
2024-05-19 08:54:09.506897,0,0,-8,0,0,0,79,82,132,120,70,132.25,139,23.00,-18.00,-1031.00
2024-05-19 08:54:09.650974,0,0,-8,0,0,0,79,82,132,120,70,132.22,140,1.00,-47.00,-1096.00
2024-05-19 08:54:09.710742,0,0,-8,0,0,0,79,82,133,130,70,132.23,140,54.00,-10.00,-1017.00
2024-05-19 08:54:09.855681,0,0,-8,0,0,0,79,82,134,130,70,132.23,140,-2.00,-1.00,-1081.00
2024-05-19 08:54:09.914583,0,0,-8,0,0,0,79,82,134,130,70,132.29,140,-11.00,0.00,-942.00
2024-05-19 08:54:10.060559,1,0,-8,0,0,0,79,82,134,130,70,132.29,140,5.00,-21.00,-983.00
2024-05-19 08:54:10.118659,0,0,-8,0,0,0,79,82,135,130,70,132.26,140,17.00,-12.00,-1026.00
2024-05-19 08:54:10.265352,0,1,-8,0,0,0,79,82,134,130,70,132.27,140,34.00,-31.00,-956.00
2024-05-19 08:54:10.322593,0,1,-8,0,0,0,79,82,135,130,70,132.22,140,47.00,-59.00,-985.00
2024-05-19 08:54:10.470085,1,1,-8,0,0,0,80,82,135,130,70,132.24,140,36.00,-3.00,-987.00
2024-05-19 08:54:10.526916,1,1,-8,0,0,0,80,82,135,130,70,132.25,140,35.00,-15.00,-974.00
2024-05-19 08:54:10.674941,0,2,-9,0,0,0,80,82,135,130,70,132.38,141,81.00,-36.00,-1340.00
2024-05-19 08:54:10.730640,0,2,-11,0,0,-4,80,82,140,130,70,132.39,141,123.00,-42.00,-1597.00
2024-05-19 08:54:10.886916,1,14,-15,0,0,-10,80,82,161,140,70,132.47,141,-17.00,-58.00,-1588.00
2024-05-19 08:54:10.934518,10,103,-9,1,7,-10,80,82,677,150,70,132.52,141,-51.00,529.00,-1102.00
2024-05-19 08:54:11.084439,-5,-123,-3,2,9,4,80,82,707,150,70,132.47,141,-107.00,765.00,-1009.00
2024-05-19 08:54:11.138679,-1,-13,-17,1,2,11,80,82,151,140,70,132.47,141,-75.00,482.00,-1060.00
2024-05-19 08:54:11.289200,1,6,-19,2,3,10,80,82,141,130,70,132.44,141,9.00,31.00,-1268.00
2024-05-19 08:54:11.345759,0,-4,-18,2,4,6,80,82,133,120,70,132.19,141,41.00,-59.00,-1445.00
2024-05-19 08:54:11.444515,0,-5,-10,1,2,2,79,82,131,120,70,132.31,141,11.00,-24.00,-1281.00
2024-05-19 08:54:11.596596,0,-2,-8,1,1,0,79,82,130,120,70,132.17,141,10.00,-50.00,-1154.00
2024-05-19 08:54:11.648526,0,0,-8,1,0,-1,79,82,131,120,70,132.24,142,1.00,-19.00,-1028.00
2024-05-19 08:54:11.801188,0,1,-8,0,0,-1,79,82,134,120,70,132.22,142,-18.00,-10.00,-1021.00
2024-05-19 08:54:11.852502,0,1,-8,0,0,-1,79,82,136,120,70,132.32,142,-12.00,-28.00,-994.00
2024-05-19 08:54:12.006001,0,1,-8,0,0,-1,79,82,138,120,70,132.31,142,2.00,-39.00,-911.00
2024-05-19 08:54:12.056722,1,0,-8,0,0,-1,79,82,139,130,70,132.30,142,1.00,-34.00,-995.00
2024-05-19 08:54:12.210809,1,0,-8,0,0,0,79,82,140,130,70,132.30,142,-7.00,12.00,-942.00
2024-05-19 08:54:12.260611,1,0,-8,0,0,0,79,82,140,130,70,132.29,142,29.00,-41.00,-951.00
2024-05-19 08:54:12.415595,1,0,-8,0,0,0,79,82,140,130,70,132.31,142,4.00,-5.00,-966.00
2024-05-19 08:54:12.464535,1,1,-8,0,0,0,79,82,139,130,70,132.34,142,-10.00,-1.00,-992.00
2024-05-19 08:54:12.566624,1,1,-8,0,0,0,79,82,138,130,70,132.28,142,57.00,-21.00,-942.00
2024-05-19 08:54:12.668528,1,1,-8,0,0,0,79,82,138,130,70,132.30,143,0.00,-21.00,-985.00
2024-05-19 08:54:12.772467,1,1,-8,0,0,0,79,82,137,130,70,132.30,143,-32.00,-52.00,-1059.00
2024-05-19 08:54:12.821319,0,1,-8,0,0,0,79,82,137,130,70,132.29,143,4.00,-28.00,-1028.00
2024-05-19 08:54:12.927557,0,1,-8,0,0,0,79,82,136,120,70,132.28,143,25.00,-33.00,-976.00
2024-05-19 08:54:13.025307,0,1,-8,0,0,0,79,82,135,120,70,132.30,143,34.00,-14.00,-974.00
2024-05-19 08:54:13.132396,0,1,-8,0,0,0,79,82,135,120,70,132.26,143,44.00,-55.00,-974.00
2024-05-19 08:54:13.229173,1,2,-8,0,0,0,79,82,135,120,69,132.29,143,31.00,-46.00,-1031.00
2024-05-19 08:54:13.337193,1,2,-8,0,0,0,79,82,134,120,69,132.25,143,48.00,-66.00,-938.00
2024-05-19 08:54:13.433267,1,2,-8,0,0,0,79,82,134,120,69,132.25,143,37.00,-52.00,-981.00
2024-05-19 08:54:13.541979,1,2,-8,0,0,0,79,82,134,120,69,132.26,143,33.00,-54.00,-1007.00
2024-05-19 08:54:13.637441,1,2,-8,0,0,0,79,82,134,120,69,132.25,144,-10.00,-46.00,-968.00
2024-05-19 08:54:13.746785,1,2,-8,0,0,0,79,82,134,120,69,132.24,144,-15.00,-24.00,-1022.00
2024-05-19 08:54:13.841257,1,2,-8,0,0,0,79,82,134,120,69,132.22,144,39.00,-61.00,-1015.00
2024-05-19 08:54:13.951562,1,2,-8,0,0,0,79,82,134,120,69,132.30,144,3.00,-36.00,-1079.00
2024-05-19 08:54:14.046137,1,1,-8,0,0,0,79,82,134,120,69,132.19,144,-3.00,-47.00,-1038.00
2024-05-19 08:54:14.147244,1,1,-8,0,0,0,79,82,134,120,69,132.27,144,14.00,-54.00,-973.00
2024-05-19 08:54:14.258898,1,1,-8,0,0,0,79,82,135,120,69,132.22,144,12.00,-54.00,-1028.00
2024-05-19 08:54:14.351318,1,1,-8,0,0,0,79,82,134,120,69,132.23,144,50.00,-51.00,-981.00
2024-05-19 08:54:14.463568,1,1,-8,0,0,0,80,82,135,120,69,132.22,144,72.00,-76.00,-994.00
2024-05-19 08:54:14.555560,1,1,-8,0,0,0,80,82,135,120,69,132.28,144,34.00,-29.00,-1000.00
2024-05-19 08:54:14.665421,1,1,-8,0,0,0,80,82,135,120,69,132.17,145,24.00,-25.00,-945.00
2024-05-19 08:54:14.759535,1,1,-8,0,0,0,80,82,136,120,69,132.30,145,34.00,-24.00,-977.00
2024-05-19 08:54:14.873650,1,2,-8,0,0,0,80,82,136,120,69,132.30,145,54.00,-53.00,-1005.00
2024-05-19 08:54:14.963674,1,1,-8,0,0,0,80,82,137,120,69,132.25,145,0.00,-37.00,-1034.00
2024-05-19 08:54:15.078067,1,1,-8,0,0,0,80,82,138,120,69,132.29,145,-36.00,-5.00,-1021.00
2024-05-19 08:54:15.168539,1,1,-8,0,0,0,80,82,138,120,69,132.25,145,-5.00,-10.00,-969.00
2024-05-19 08:54:15.269381,1,1,-8,0,0,0,80,82,139,120,69,132.30,145,15.00,-65.00,-1019.00
2024-05-19 08:54:15.385296,1,1,-8,0,0,0,80,82,140,120,69,132.26,145,19.00,-32.00,-957.00
2024-05-19 08:54:15.475487,1,1,-8,0,0,0,80,82,140,130,69,132.25,145,-8.00,-37.00,-988.00
2024-05-19 08:54:15.575355,2,1,-8,0,0,0,80,82,140,130,69,132.22,145,-8.00,-19.00,-947.00
2024-05-19 08:54:15.677172,1,2,-8,0,0,0,80,82,140,130,69,132.32,146,1.00,-42.00,-985.00
2024-05-19 08:54:15.779661,1,1,-8,0,0,0,80,82,141,130,69,132.25,146,60.00,-73.00,-986.00
2024-05-19 08:54:15.897675,1,1,-8,0,0,0,80,82,139,130,69,132.30,146,-2.00,-30.00,-943.00
2024-05-19 08:54:15.983250,0,1,-8,0,0,0,80,82,139,130,69,132.31,146,38.00,-63.00,-941.00
2024-05-19 08:54:16.085228,1,1,-8,0,0,0,80,82,139,130,69,132.29,146,27.00,-47.00,-1035.00
2024-05-19 08:54:16.211912,0,1,-8,0,0,0,80,82,139,130,69,132.26,146,-20.00,-24.00,-1030.00
2024-05-19 08:54:16.289137,0,1,-8,0,0,0,80,82,138,130,69,132.30,146,50.00,-61.00,-1044.00
