TS,pitch,roll,yaw,vgx,vgy,vgz,templ,temph,tof,h,bat,baro,time,agx,agy,agz
2024-05-19 08:54:55.628173,0,0,-5,0,0,0,83,85,10,0,67,130.74,163,4.00,1.00,-999.00
2024-05-19 08:54:55.660207,0,0,-5,0,0,0,83,85,10,0,67,130.74,163,4.00,1.00,-999.00
2024-05-19 08:54:55.833411,0,0,-5,0,0,0,83,85,10,0,67,130.74,163,4.00,0.00,-999.00
2024-05-19 08:54:55.864239,0,0,-5,0,0,0,83,85,10,0,67,130.74,163,4.00,2.00,-997.00
2024-05-19 08:54:56.037438,0,0,-5,0,0,0,83,85,10,0,67,130.71,163,5.00,1.00,-999.00
2024-05-19 08:54:56.068040,0,0,-5,0,0,0,83,85,10,0,67,130.71,163,4.00,0.00,-999.00
2024-05-19 08:54:56.242495,0,0,-5,0,0,0,83,85,10,0,67,130.76,163,5.00,1.00,-1000.00
2024-05-19 08:54:56.272162,0,0,-5,0,0,0,83,85,10,0,67,130.71,163,5.00,0.00,-999.00
2024-05-19 08:54:56.447258,0,0,-5,0,0,0,83,85,10,0,67,130.78,163,6.00,2.00,-999.00
2024-05-19 08:54:56.476179,0,0,-5,0,0,0,83,85,10,0,67,130.73,163,5.00,2.00,-1000.00
2024-05-19 08:54:56.578045,0,0,-5,0,0,0,83,85,10,0,67,130.76,163,4.00,2.00,-1000.00
2024-05-19 08:54:56.754157,0,0,-5,0,0,0,83,85,10,0,67,130.74,163,4.00,1.00,-1000.00
2024-05-19 08:54:56.782057,0,0,-5,0,0,0,83,85,10,0,67,130.76,163,5.00,1.00,-1000.00
2024-05-19 08:54:56.959204,0,0,-5,0,0,0,83,85,10,0,67,130.74,163,5.00,2.00,-1000.00
2024-05-19 08:54:56.986027,0,0,-5,0,0,0,83,85,10,0,67,130.77,163,4.00,1.00,-998.00
2024-05-19 08:54:57.164070,0,0,-5,0,0,0,83,85,10,0,67,130.72,163,4.00,2.00,-1000.00
2024-05-19 08:54:57.190115,0,0,-5,0,0,0,83,85,10,0,67,130.69,163,6.00,1.00,-999.00
2024-05-19 08:54:57.368873,0,0,-5,0,0,0,83,85,10,0,67,130.70,163,4.00,0.00,-1000.00
2024-05-19 08:54:57.394267,0,0,-5,0,0,0,83,85,10,0,67,130.71,163,5.00,2.00,-1000.00
2024-05-19 08:54:57.573729,0,0,-5,0,0,0,83,85,10,0,67,130.73,163,5.00,0.00,-1001.00
2024-05-19 08:54:57.597978,0,0,-5,0,0,0,83,85,10,0,67,130.69,163,5.00,1.00,-999.00
2024-05-19 08:54:57.778511,0,0,-5,0,0,0,83,84,10,0,67,130.69,163,6.00,1.00,-1000.00
2024-05-19 08:54:57.802021,0,0,-5,0,0,0,83,84,10,0,67,130.69,163,4.00,2.00,-1001.00
2024-05-19 08:54:57.983247,0,0,-5,0,0,0,83,84,10,0,67,130.69,163,3.00,2.00,-998.00
2024-05-19 08:54:58.005912,0,0,-5,0,0,0,83,84,10,0,67,130.71,163,5.00,1.00,-1003.00
2024-05-19 08:54:58.187848,0,0,-5,0,0,0,83,84,10,0,67,130.69,163,4.00,1.00,-1000.00
2024-05-19 08:54:58.211313,0,0,-5,0,0,0,83,84,10,0,67,130.74,163,6.00,0.00,-1000.00
2024-05-19 08:54:58.392955,0,0,-5,0,0,0,83,84,10,0,67,130.72,163,6.00,0.00,-999.00
2024-05-19 08:54:58.415400,0,0,-5,0,0,0,83,84,10,0,67,130.78,163,5.00,0.00,-999.00
2024-05-19 08:54:58.571966,0,0,-5,0,0,0,83,84,10,0,67,130.68,163,4.00,0.00,-997.00
2024-05-19 08:54:58.617898,0,0,-5,0,0,0,83,84,10,0,67,130.74,163,4.00,1.00,-998.00
2024-05-19 08:54:58.802351,0,0,-5,0,0,0,83,85,10,0,67,130.73,163,5.00,5.00,-1001.00
2024-05-19 08:54:58.821956,0,0,-5,0,0,0,83,85,10,0,67,130.73,164,4.00,1.00,-1015.00
2024-05-19 08:54:59.007006,0,0,-5,0,0,0,83,85,10,0,67,130.73,164,13.00,16.00,-998.00
2024-05-19 08:54:59.025901,0,0,-4,0,0,0,83,85,10,0,67,130.73,164,-9.00,-12.00,-1003.00
2024-05-19 08:54:59.211776,0,0,-5,0,0,0,83,85,10,0,67,130.73,164,-11.00,-11.00,-1000.00
2024-05-19 08:54:59.229875,0,0,-5,0,0,0,83,85,10,0,67,130.73,164,-35.00,12.00,-1063.00
2024-05-19 08:54:59.280640,2,-1,-6,0,0,0,83,85,10,0,67,130.73,164,-57.00,0.00,-1232.00
2024-05-19 08:54:59.416627,0,-1,-6,-1,0,-3,83,85,10,0,67,130.73,164,3.00,-14.00,-1314.00
2024-05-19 08:54:59.484630,-2,0,-6,-1,0,-6,83,85,11,0,67,130.73,164,-23.00,23.00,-1144.00
2024-05-19 08:54:59.621469,-2,0,-6,0,0,-7,83,85,20,0,67,131.03,164,26.00,-2.00,-1047.00
2024-05-19 08:54:59.691399,-2,0,-6,0,0,-8,83,86,28,10,67,131.12,164,-77.00,11.00,-1095.00
2024-05-19 08:54:59.790641,-2,0,-6,0,0,-8,83,86,33,20,67,131.19,165,-60.00,27.00,-947.00
2024-05-19 08:54:59.928684,-2,0,-6,0,0,-7,83,86,41,30,67,131.38,165,-71.00,8.00,-1009.00
2024-05-19 08:54:59.999614,-2,0,-6,0,0,-7,83,86,50,30,67,131.43,165,-20.00,55.00,-854.00
2024-05-19 08:55:00.105372,-2,0,-6,0,0,-6,83,86,58,40,67,131.41,165,6.00,3.00,-807.00
2024-05-19 08:55:00.198624,-2,0,-6,0,0,-4,83,86,64,40,67,131.54,165,-27.00,27.00,-856.00
2024-05-19 08:55:00.338179,-1,0,-6,0,0,-3,83,86,69,50,67,131.55,165,-38.00,-20.00,-920.00
2024-05-19 08:55:00.402570,-1,0,-6,0,0,-2,83,86,73,50,67,131.59,165,-73.00,-1.00,-976.00
2024-05-19 08:55:00.543158,-2,0,-6,0,0,-1,83,86,76,50,67,131.66,165,-45.00,-9.00,-873.00
2024-05-19 08:55:00.606577,-2,0,-6,0,0,0,83,86,78,50,67,131.65,165,51.00,28.00,-848.00
2024-05-19 08:55:00.747883,-1,0,-6,0,0,0,83,85,79,50,67,131.66,165,-36.00,3.00,-920.00
2024-05-19 08:55:00.810691,-1,0,-6,0,0,0,83,85,80,60,67,131.60,166,21.00,-12.00,-968.00
2024-05-19 08:55:00.952663,-1,0,-6,0,0,0,83,85,81,60,67,131.70,166,-7.00,24.00,-971.00
2024-05-19 08:55:01.014601,-1,0,-6,0,0,0,83,85,82,60,67,131.70,166,18.00,-16.00,-1004.00
2024-05-19 08:55:01.157484,-1,0,-6,0,0,0,83,85,83,60,67,131.69,166,-1.00,-27.00,-1031.00
2024-05-19 08:55:01.218555,0,1,-5,0,0,0,83,85,84,60,67,131.67,166,-11.00,-11.00,-961.00
2024-05-19 08:55:01.362264,0,1,-5,0,0,0,83,85,85,60,67,131.74,166,-40.00,19.00,-970.00
2024-05-19 08:55:01.426291,0,1,-5,0,0,0,83,85,86,60,67,131.69,166,-33.00,-5.00,-1076.00
2024-05-19 08:55:01.524592,-1,1,-5,0,0,0,83,85,87,60,67,131.70,166,-5.00,-26.00,-901.00
2024-05-19 08:55:01.669452,-1,1,-5,0,0,0,83,85,88,60,67,131.67,166,-12.00,-3.00,-1024.00
2024-05-19 08:55:01.728556,-1,0,-5,0,0,0,83,86,88,60,67,131.69,166,-32.00,2.00,-975.00
2024-05-19 08:55:01.830556,-1,0,-6,0,0,0,83,86,88,60,67,131.76,167,3.00,8.00,-1017.00
2024-05-19 08:55:01.976671,-1,0,-6,0,0,0,83,86,88,60,67,131.84,167,-34.00,2.00,-988.00
2024-05-19 08:55:02.034528,-1,0,-6,0,0,0,83,86,88,60,67,131.85,167,-10.00,0.00,-1024.00
2024-05-19 08:55:02.189232,-1,0,-6,0,0,0,83,86,88,70,67,131.78,167,-19.00,0.00,-1001.00
2024-05-19 08:55:02.238515,-1,0,-6,0,0,0,83,86,87,60,67,131.86,167,-44.00,19.00,-1003.00
2024-05-19 08:55:02.341181,-1,-1,-6,0,0,0,83,86,86,60,67,131.80,167,-2.00,1.00,-972.00
2024-05-19 08:55:02.442545,-1,-1,-6,0,0,0,83,86,86,60,67,131.73,167,-34.00,12.00,-999.00
2024-05-19 08:55:02.544630,-1,-1,-6,0,0,0,83,86,85,60,67,131.65,167,-12.00,-17.00,-1039.00
2024-05-19 08:55:02.693402,-1,-1,-6,0,0,0,83,86,84,60,67,131.74,167,-16.00,18.00,-956.00
2024-05-19 08:55:02.749095,-1,-1,-6,0,0,0,84,86,84,60,67,131.64,167,-28.00,1.00,-1040.00
2024-05-19 08:55:02.898249,-1,-1,-6,0,0,0,84,86,83,60,67,131.59,168,-42.00,-5.00,-998.00
2024-05-19 08:55:02.953296,-1,0,-6,0,0,0,84,86,82,60,67,131.56,168,-19.00,5.00,-996.00
2024-05-19 08:55:03.103061,-2,0,-6,0,0,0,84,86,82,60,67,131.69,168,-34.00,10.00,-983.00
2024-05-19 08:55:03.156686,-1,0,-6,0,0,0,84,86,81,60,67,131.67,168,-75.00,30.00,-1025.00
2024-05-19 08:55:03.307849,-1,0,-6,0,0,0,84,86,80,60,67,131.71,168,-36.00,14.00,-994.00
2024-05-19 08:55:03.309780,-2,0,-6,0,0,0,84,86,80,60,67,131.66,168,-10.00,6.00,-1012.00
2024-05-19 08:55:03.512654,-2,0,-6,0,0,0,84,86,80,60,67,131.65,168,-3.00,-10.00,-1032.00
2024-05-19 08:55:03.513822,-2,0,-6,0,0,0,84,86,80,60,67,131.60,168,-13.00,-17.00,-1025.00
2024-05-19 08:55:03.717443,-2,0,-6,0,0,0,84,86,79,60,67,131.59,168,-17.00,-25.00,-991.00
2024-05-19 08:55:03.717640,-1,0,-6,0,0,0,84,85,79,60,67,131.63,168,-46.00,-5.00,-984.00
2024-05-19 08:55:03.819856,-1,0,-6,0,0,0,84,85,79,60,67,131.61,169,-32.00,-8.00,-1017.00
2024-05-19 08:55:03.922216,-1,0,-6,0,0,0,84,85,80,60,67,131.55,169,-18.00,-8.00,-1047.00
2024-05-19 08:55:04.024617,-1,0,-6,0,0,0,84,85,80,60,67,131.53,169,-66.00,-7.00,-1057.00
2024-05-19 08:55:04.126966,-1,0,-6,0,0,0,84,85,80,60,67,131.59,169,-32.00,1.00,-946.00
2024-05-19 08:55:04.229414,-2,0,-6,0,0,0,84,85,81,60,67,131.67,169,-45.00,3.00,-1063.00
2024-05-19 08:55:04.329803,-2,0,-6,0,0,0,84,85,81,60,67,131.51,169,-77.00,9.00,-1083.00
2024-05-19 08:55:04.431779,-2,0,-6,0,0,0,84,85,81,60,67,131.57,169,-47.00,-30.00,-1034.00
2024-05-19 08:55:04.536777,-2,0,-6,0,0,0,84,85,80,60,67,131.51,169,-48.00,24.00,-995.00
2024-05-19 08:55:04.635826,-1,0,-6,0,0,0,84,85,80,60,67,131.57,169,-46.00,6.00,-955.00
2024-05-19 08:55:04.743731,-1,0,-6,0,0,0,83,85,79,60,67,131.58,169,-38.00,1.00,-976.00
2024-05-19 08:55:04.839763,-2,0,-6,0,0,0,83,85,79,60,67,131.54,170,-26.00,-44.00,-1041.00
2024-05-19 08:55:04.946441,-1,0,-6,0,0,0,83,85,78,60,67,131.48,170,-68.00,0.00,-1042.00
2024-05-19 08:55:05.043800,-1,0,-6,0,0,0,83,85,78,60,67,131.47,170,-77.00,10.00,-975.00
2024-05-19 08:55:05.151226,-1,0,-6,0,0,0,83,85,77,60,67,131.49,170,-90.00,-20.00,-1071.00
2024-05-19 08:55:05.247808,-2,0,-6,0,0,0,83,85,77,60,67,131.52,170,-15.00,-37.00,-999.00
2024-05-19 08:55:05.355967,-1,0,-6,0,0,0,83,85,77,60,67,131.52,170,0.00,-25.00,-1011.00
2024-05-19 08:55:05.451457,0,1,-6,0,0,0,83,85,77,60,67,131.56,170,-52.00,3.00,-1072.00
2024-05-19 08:55:05.560698,-1,0,-6,0,0,0,83,85,77,60,67,131.55,170,-2.00,-30.00,-943.00
2024-05-19 08:55:05.655883,-1,0,-6,0,0,0,83,85,77,60,67,131.58,170,-49.00,-15.00,-1111.00
2024-05-19 08:55:05.766111,-1,0,-6,0,0,0,83,85,78,60,67,131.55,170,-41.00,-27.00,-1034.00
2024-05-19 08:55:05.859947,-1,0,-6,0,0,0,83,85,78,60,67,131.59,171,10.00,-18.00,-1009.00
2024-05-19 08:55:05.970541,-1,0,-6,0,0,0,83,85,78,60,67,131.61,171,13.00,-22.00,-961.00
2024-05-19 08:55:06.063905,0,0,-6,0,0,0,83,85,78,60,67,131.58,171,2.00,-9.00,-1039.00
2024-05-19 08:55:06.175245,-1,0,-6,0,0,0,83,85,78,60,67,131.62,171,-13.00,-47.00,-991.00
2024-05-19 08:55:06.267800,0,0,-6,0,0,0,83,85,78,60,67,131.64,171,-14.00,-32.00,-1032.00
2024-05-19 08:55:06.379970,-1,0,-6,0,0,0,83,85,78,60,67,131.71,171,36.00,12.00,-931.00
2024-05-19 08:55:06.420458,-1,0,-6,0,0,0,83,85,78,60,67,131.67,171,-40.00,12.00,-999.00
2024-05-19 08:55:06.584879,-1,0,-6,0,0,0,83,85,78,60,67,131.64,171,-28.00,-18.00,-1051.00
2024-05-19 08:55:06.624367,-1,0,-6,0,0,0,83,85,78,60,67,131.67,171,-22.00,-33.00,-1072.00
2024-05-19 08:55:06.789481,-1,0,-6,0,0,0,82,85,78,60,67,131.55,171,37.00,-14.00,-1049.00
2024-05-19 08:55:06.879393,-1,0,-6,0,0,0,82,85,79,60,67,131.62,172,-35.00,10.00,-1070.00
2024-05-19 08:55:06.981301,-1,0,-6,0,0,-1,82,85,81,60,67,131.65,172,1.00,0.00,-1088.00
2024-05-19 08:55:07.096670,-1,0,-6,0,0,-2,82,85,83,60,67,131.70,172,9.00,1.00,-1087.00
2024-05-19 08:55:07.188489,-1,-1,-6,0,0,-3,82,85,87,60,67,131.68,172,-29.00,6.00,-1082.00
2024-05-19 08:55:07.236303,-1,-1,-6,0,0,-3,82,85,91,70,67,131.82,172,-18.00,3.00,-1104.00
2024-05-19 08:55:07.403908,-1,-1,-6,0,0,-4,82,85,96,70,67,131.82,172,-68.00,-11.00,-1048.00
2024-05-19 08:55:07.440279,-1,-1,-6,0,0,-5,82,85,100,80,67,131.82,172,-31.00,18.00,-1020.00
2024-05-19 08:55:07.608693,-2,0,-6,0,0,-5,82,85,106,80,67,131.86,172,3.00,-2.00,-988.00
2024-05-19 08:55:07.644186,-2,0,-6,0,0,-5,82,85,111,90,67,131.96,172,12.00,21.00,-903.00
2024-05-19 08:55:07.813473,-1,0,-6,0,0,-5,82,85,116,90,67,131.99,172,-65.00,-8.00,-1002.00
2024-05-19 08:55:07.848261,0,0,-6,0,0,-5,82,85,121,100,67,132.00,173,-74.00,8.00,-1043.00
2024-05-19 08:55:07.950275,0,1,-6,0,0,-5,82,85,125,100,67,132.03,173,18.00,-10.00,-922.00
2024-05-19 08:55:08.120821,-1,1,-6,0,0,-4,82,85,130,110,67,132.10,173,-46.00,9.00,-980.00
2024-05-19 08:55:08.154500,-1,1,-6,0,0,-4,82,85,134,110,67,132.15,173,-13.00,-5.00,-965.00
2024-05-19 08:55:08.325647,-1,0,-6,0,0,-4,82,85,138,110,67,132.21,173,-13.00,-3.00,-946.00
2024-05-19 08:55:08.358228,-1,0,-6,0,0,-3,82,85,142,120,67,132.22,173,-56.00,0.00,-996.00
2024-05-19 08:55:08.532528,-1,0,-6,0,0,-3,82,85,146,120,67,132.27,173,-23.00,5.00,-991.00
2024-05-19 08:55:08.562278,-1,0,-6,0,0,-3,82,85,149,130,67,132.28,173,-25.00,-20.00,-991.00
2024-05-19 08:55:08.735601,-1,0,-6,0,0,-3,82,85,153,130,67,132.39,173,-3.00,-25.00,-970.00
2024-05-19 08:55:08.766270,-1,0,-6,0,0,-2,83,85,156,140,67,132.34,174,-14.00,-6.00,-1019.00
2024-05-19 08:55:08.939839,-1,0,-6,0,0,-2,83,85,159,140,67,132.35,174,-20.00,-4.00,-1009.00
2024-05-19 08:55:08.970182,-1,0,-6,0,0,-2,83,85,162,140,67,132.45,174,-31.00,-25.00,-1037.00
2024-05-19 08:55:09.144851,-1,0,-6,0,0,-2,83,85,164,140,67,132.43,174,-3.00,-6.00,-1104.00
2024-05-19 08:55:09.174138,0,0,-6,0,0,-1,83,85,167,140,67,132.42,174,0.00,-24.00,-1001.00
2024-05-19 08:55:09.349675,0,0,-6,0,0,-1,83,85,168,150,67,132.45,174,15.00,-23.00,-929.00
2024-05-19 08:55:09.378173,0,0,-6,0,0,-1,83,85,169,150,67,132.49,174,-5.00,-9.00,-1058.00
2024-05-19 08:55:09.555568,0,0,-6,0,0,-1,83,85,171,150,67,132.50,174,-5.00,-30.00,-968.00
2024-05-19 08:55:09.582184,-1,0,-6,0,0,-1,83,85,172,150,67,132.48,174,6.00,-7.00,-925.00
2024-05-19 08:55:09.759048,-1,0,-6,0,0,0,83,85,174,150,67,132.48,174,22.00,-18.00,-950.00
2024-05-19 08:55:09.786290,-1,0,-6,0,0,0,83,84,174,150,67,132.50,175,16.00,-16.00,-950.00
2024-05-19 08:55:09.957492,0,0,-6,0,0,0,83,84,176,150,67,132.54,175,-24.00,-12.00,-1009.00
2024-05-19 08:55:09.990262,0,0,-6,0,0,0,83,84,175,150,67,132.49,175,-16.00,25.00,-956.00
2024-05-19 08:55:10.092335,0,0,-6,0,0,0,83,84,176,150,67,132.51,175,-28.00,-27.00,-940.00
2024-05-19 08:55:10.194323,0,0,-6,0,0,0,83,84,177,150,67,132.55,175,-10.00,-5.00,-957.00
2024-05-19 08:55:10.373672,0,1,-6,0,0,0,83,84,177,150,67,132.49,175,-34.00,-23.00,-1082.00
2024-05-19 08:55:10.398287,0,1,-6,0,0,0,83,84,177,150,67,132.52,175,-26.00,-10.00,-1026.00
2024-05-19 08:55:10.578511,0,1,-6,0,0,0,83,84,177,150,67,132.63,175,-3.00,-13.00,-980.00
2024-05-19 08:55:10.602169,0,1,-6,0,0,0,83,84,178,150,67,132.52,175,3.00,-19.00,-973.00
2024-05-19 08:55:10.783571,0,1,-6,0,0,0,83,84,177,150,67,132.52,175,-14.00,-20.00,-1013.00
2024-05-19 08:55:10.810636,0,1,-6,0,0,0,82,85,177,150,67,132.59,176,50.00,-26.00,-892.00
2024-05-19 08:55:10.908176,0,1,-6,0,0,0,82,85,177,150,67,132.57,176,9.00,-7.00,-991.00
2024-05-19 08:55:10.959110,0,1,-6,0,0,0,82,85,177,150,67,132.59,176,-17.00,-14.00,-1041.00
2024-05-19 08:55:11.090374,0,0,-6,0,0,0,82,85,176,150,67,132.51,176,-4.00,-19.00,-1059.00
2024-05-19 08:55:11.163622,0,0,-6,0,0,0,82,85,176,150,67,132.54,176,-45.00,-25.00,-1102.00
2024-05-19 08:55:11.295243,0,0,-6,0,0,0,82,85,177,150,67,132.56,176,29.00,-23.00,-997.00
2024-05-19 08:55:11.367661,0,0,-6,0,0,0,82,85,176,150,67,132.60,176,12.00,-37.00,-999.00
2024-05-19 08:55:11.499878,0,0,-6,0,0,0,82,85,176,150,67,132.60,176,25.00,-32.00,-1026.00
2024-05-19 08:55:11.571254,0,1,-6,0,0,0,82,85,176,150,67,132.55,176,58.00,-41.00,-1000.00
2024-05-19 08:55:11.704697,0,1,-6,0,0,0,82,85,177,150,67,132.58,176,43.00,-14.00,-962.00
2024-05-19 08:55:11.775741,0,1,-6,0,0,0,82,83,177,150,67,132.60,177,-27.00,-23.00,-1025.00
2024-05-19 08:55:11.909476,0,1,-6,0,0,0,82,83,177,150,67,132.56,177,-4.00,-24.00,-1016.00
2024-05-19 08:55:11.979021,0,1,-6,0,0,0,82,83,177,150,67,132.50,177,-2.00,-19.00,-972.00
2024-05-19 08:55:12.114148,0,1,-6,0,0,0,82,83,176,150,67,132.52,177,-2.00,-32.00,-973.00
2024-05-19 08:55:12.183032,0,1,-6,0,0,1,82,83,175,150,67,132.52,177,-12.00,-16.00,-865.00
2024-05-19 08:55:12.319019,0,1,-6,0,0,1,82,83,174,150,67,132.52,177,22.00,-29.00,-918.00
2024-05-19 08:55:12.387015,0,1,-6,0,0,2,82,83,172,150,67,132.54,177,27.00,-33.00,-929.00
2024-05-19 08:55:12.523777,0,1,-6,0,0,2,82,83,170,150,67,132.46,177,25.00,-36.00,-937.00
2024-05-19 08:55:12.592360,0,1,-6,0,0,2,82,83,167,150,67,132.42,177,21.00,-45.00,-962.00
2024-05-19 08:55:12.728701,0,1,-6,0,0,2,82,83,165,140,67,132.47,177,5.00,7.00,-852.00
2024-05-19 08:55:12.795409,0,1,-6,0,0,2,82,84,163,140,67,132.48,178,10.00,-41.00,-965.00
2024-05-19 08:55:12.933529,0,1,-6,0,0,3,82,84,159,140,67,132.49,178,42.00,-25.00,-1038.00
2024-05-19 08:55:13.000026,0,0,-6,0,0,2,82,84,158,140,67,132.45,178,-24.00,-14.00,-1015.00
2024-05-19 08:55:13.138140,0,0,-6,0,0,2,82,84,155,130,67,132.42,178,-37.00,-23.00,-997.00
2024-05-19 08:55:13.202969,0,0,-6,0,0,2,82,84,153,130,67,132.43,178,9.00,-57.00,-961.00
2024-05-19 08:55:13.343780,0,0,-6,0,0,2,82,84,150,130,67,132.43,178,25.00,-48.00,-945.00
2024-05-19 08:55:13.407215,0,1,-6,0,0,2,82,84,148,130,67,132.36,178,-9.00,-30.00,-1050.00
2024-05-19 08:55:13.547753,0,2,-6,0,0,2,82,84,145,120,67,132.32,178,-6.00,-10.00,-1007.00
2024-05-19 08:55:13.610858,0,1,-6,0,0,1,82,84,143,120,67,132.19,178,-17.00,-52.00,-1072.00
2024-05-19 08:55:13.752922,0,1,-6,0,0,1,82,84,140,120,67,132.23,178,-26.00,5.00,-951.00
2024-05-19 08:55:13.815525,0,1,-6,0,0,1,82,84,138,120,67,132.21,179,-17.00,-9.00,-1007.00
2024-05-19 08:55:13.925301,0,1,-6,0,0,1,82,84,135,120,67,132.11,179,-38.00,-12.00,-1041.00
2024-05-19 08:55:14.018938,0,1,-6,0,0,1,82,84,133,110,67,132.10,179,-35.00,-6.00,-927.00
2024-05-19 08:55:14.162228,0,1,-6,0,0,1,82,84,131,110,67,132.10,179,-10.00,10.00,-947.00
2024-05-19 08:55:14.222940,0,1,-5,0,0,1,82,84,130,110,67,132.12,179,12.00,-31.00,-1005.00
2024-05-19 08:55:14.325068,0,1,-5,0,0,1,82,84,128,110,67,132.10,179,-48.00,-1.00,-1009.00
2024-05-19 08:55:14.469434,0,1,-5,0,0,1,82,84,126,110,67,132.04,179,-15.00,-31.00,-1115.00
2024-05-19 08:55:14.529508,0,1,-5,0,0,0,82,84,126,110,67,132.04,179,-3.00,-24.00,-971.00
2024-05-19 08:55:14.674288,0,1,-6,0,0,0,82,84,125,110,67,131.99,179,-33.00,-42.00,-1053.00
2024-05-19 08:55:14.733360,0,1,-6,0,0,0,82,84,125,110,67,132.05,179,-52.00,14.00,-1011.00
2024-05-19 08:55:14.835302,0,1,-6,0,0,0,82,84,125,110,67,132.02,180,-40.00,5.00,-1000.00
2024-05-19 08:55:14.981680,0,0,-6,0,0,0,82,84,124,110,67,132.05,180,0.00,-1.00,-930.00
2024-05-19 08:55:15.038924,0,0,-6,0,0,0,82,84,125,110,67,132.07,180,-53.00,-25.00,-1043.00
2024-05-19 08:55:15.186675,0,0,-6,0,0,0,82,84,124,110,67,132.07,180,2.00,-26.00,-1035.00
2024-05-19 08:55:15.242968,0,0,-6,0,0,0,82,84,125,110,67,132.06,180,-40.00,-4.00,-1006.00
2024-05-19 08:55:15.391702,0,1,-6,0,0,0,82,84,125,100,67,132.02,180,-47.00,-13.00,-987.00
2024-05-19 08:55:15.398351,0,0,-6,0,0,0,82,84,125,100,67,132.12,180,-22.00,-2.00,-953.00
2024-05-19 08:55:15.501093,0,0,-6,0,0,0,82,84,124,100,67,132.12,180,23.00,-6.00,-943.00
2024-05-19 08:55:15.601680,0,0,-6,0,0,0,82,84,125,100,67,132.08,180,-32.00,-14.00,-1008.00
2024-05-19 08:55:15.800786,0,0,-6,0,0,0,82,84,124,100,67,132.06,180,-65.00,-18.00,-1018.00
2024-05-19 08:55:15.804106,0,0,-6,0,0,0,81,84,125,100,67,132.07,181,-15.00,-25.00,-1032.00
2024-05-19 08:55:15.906109,0,0,-6,0,0,0,81,84,124,100,67,132.18,181,-51.00,-9.00,-1059.00
2024-05-19 08:55:16.007962,0,1,-6,0,0,0,81,84,125,100,67,132.16,181,13.00,-35.00,-971.00
2024-05-19 08:55:16.109955,0,1,-6,0,0,0,81,84,125,100,67,132.07,181,25.00,12.00,-863.00
2024-05-19 08:55:16.212063,0,0,-6,0,0,0,81,84,126,100,67,132.04,181,30.00,-15.00,-1024.00
2024-05-19 08:55:16.313727,0,0,-6,0,0,0,81,84,126,100,67,132.10,181,-41.00,-12.00,-1015.00
2024-05-19 08:55:16.517444,0,0,-6,0,0,0,81,84,127,100,67,132.15,181,3.00,-33.00,-944.00
2024-05-19 08:55:16.517943,-5,0,-6,0,0,0,81,84,127,110,67,132.09,181,8.00,-37.00,-944.00
2024-05-19 08:55:16.619737,-8,0,-6,1,0,0,81,84,130,110,67,132.01,181,5.00,-22.00,-1017.00
2024-05-19 08:55:16.722181,-8,0,-6,2,0,0,81,84,130,110,67,132.13,181,-55.00,-7.00,-1039.00
2024-05-19 08:55:16.825293,-8,1,-6,3,0,0,82,84,131,110,67,132.08,182,34.00,-15.00,-965.00
2024-05-19 08:55:16.926642,-8,1,-6,5,0,0,82,84,132,110,67,132.02,182,-8.00,-27.00,-1048.00
2024-05-19 08:55:17.029408,-8,1,-6,6,0,0,82,84,132,110,67,132.02,182,-53.00,-28.00,-1113.00
2024-05-19 08:55:17.130014,-6,0,-6,7,0,0,82,84,131,110,67,132.04,182,-46.00,0.00,-967.00
2024-05-19 08:55:17.233906,-5,0,-6,7,0,0,82,84,132,110,67,132.01,182,-73.00,26.00,-1018.00
2024-05-19 08:55:17.333773,-4,0,-6,8,0,0,82,84,132,110,67,132.06,182,-23.00,-8.00,-945.00
2024-05-19 08:55:17.438979,-1,0,-6,8,0,0,82,84,132,110,67,132.03,182,-47.00,35.00,-908.00
2024-05-19 08:55:17.537737,1,0,-6,7,0,0,82,84,134,110,67,132.01,182,-46.00,-2.00,-917.00
2024-05-19 08:55:17.644517,3,0,-6,6,0,0,82,84,134,110,67,132.08,182,-13.00,-8.00,-899.00
2024-05-19 08:55:17.741737,4,0,-6,5,0,0,82,84,134,110,67,132.03,182,-62.00,9.00,-979.00
2024-05-19 08:55:17.843752,3,0,-6,4,0,0,82,84,134,110,67,132.04,183,-13.00,-15.00,-1009.00
2024-05-19 08:55:17.950967,2,1,-6,3,0,0,82,84,133,110,67,132.17,183,-38.00,18.00,-945.00
2024-05-19 08:55:18.047712,0,0,-6,3,0,0,82,84,133,110,67,132.16,183,-2.00,-4.00,-975.00
2024-05-19 08:55:18.155774,0,0,-6,3,0,0,82,84,133,110,67,132.16,183,-25.00,22.00,-1006.00
2024-05-19 08:55:18.252623,0,0,-6,2,0,0,82,84,133,110,67,132.16,183,-27.00,-4.00,-969.00
2024-05-19 08:55:18.360567,0,0,-6,2,0,0,82,84,133,110,67,132.08,183,3.00,-16.00,-1014.00
2024-05-19 08:55:18.455708,1,0,-6,2,0,0,82,84,132,110,67,132.11,183,-34.00,17.00,-965.00
2024-05-19 08:55:18.557604,3,0,-6,1,0,0,82,84,131,110,67,132.13,183,-79.00,-22.00,-1065.00
2024-05-19 08:55:18.667724,2,0,-6,0,0,0,82,84,130,110,67,132.18,183,-38.00,9.00,-1031.00
2024-05-19 08:55:18.761827,0,0,-6,0,0,0,82,84,129,110,67,132.08,183,13.00,-20.00,-965.00
2024-05-19 08:55:18.864352,0,0,-6,0,0,0,82,83,128,110,67,132.08,184,-14.00,-2.00,-1029.00
2024-05-19 08:55:18.914881,0,0,-6,0,0,0,82,83,129,110,67,132.01,184,8.00,-14.00,-1089.00
2024-05-19 08:55:19.077496,0,0,-6,0,0,0,82,83,128,110,67,132.12,184,-28.00,3.00,-1038.00
2024-05-19 08:55:19.118699,1,0,-6,0,0,0,82,83,128,110,67,132.07,184,-14.00,0.00,-1011.00
2024-05-19 08:55:19.282271,0,0,-6,0,0,0,82,83,128,110,67,132.20,184,15.00,5.00,-964.00
2024-05-19 08:55:19.322698,0,0,-6,0,0,0,82,83,128,110,67,132.16,184,-20.00,16.00,-962.00
2024-05-19 08:55:19.487111,0,0,-6,0,0,0,82,83,128,110,67,132.11,184,19.00,-4.00,-940.00
2024-05-19 08:55:19.526759,0,0,-6,0,0,0,82,83,129,110,67,132.14,184,-20.00,11.00,-985.00
2024-05-19 08:55:19.691854,0,0,-6,0,0,0,82,83,129,110,67,132.14,184,-7.00,-24.00,-1043.00
2024-05-19 08:55:19.730678,0,0,-6,0,0,0,82,83,130,110,67,132.15,184,-39.00,21.00,-1024.00
2024-05-19 08:55:19.896734,-1,0,-6,0,0,0,81,83,130,110,67,132.09,185,-4.00,4.00,-999.00
2024-05-19 08:55:19.944312,-1,0,-6,0,0,0,81,83,131,110,67,132.11,185,-31.00,17.00,-978.00
2024-05-19 08:55:20.037260,0,0,-6,0,0,0,81,83,132,110,67,132.07,185,-4.00,10.00,-951.00
2024-05-19 08:55:20.203938,0,0,-6,0,0,0,81,83,131,110,67,132.09,185,1.00,-4.00,-989.00
2024-05-19 08:55:20.269613,0,0,-6,0,0,0,81,83,132,110,67,132.07,185,-12.00,4.00,-1028.00
2024-05-19 08:55:20.342609,0,0,-6,0,0,0,81,83,132,110,67,132.08,185,-21.00,3.00,-890.00
2024-05-19 08:55:20.511291,0,0,-6,0,0,0,81,83,132,110,67,132.20,185,-10.00,14.00,-977.00
2024-05-19 08:55:20.546649,0,0,-6,0,0,0,81,83,132,110,67,132.17,185,12.00,-23.00,-1005.00
2024-05-19 08:55:20.671276,0,0,-6,0,0,0,81,83,132,110,67,132.17,185,-7.00,27.00,-994.00
2024-05-19 08:55:20.750554,0,0,-6,0,0,0,81,83,133,110,67,132.12,185,-13.00,-8.00,-987.00
2024-05-19 08:55:20.852923,0,0,-6,0,0,0,82,84,132,110,67,132.09,186,56.00,12.00,-912.00
2024-05-19 08:55:21.022952,4,0,-6,0,0,0,82,84,133,110,67,132.07,186,6.00,-8.00,-1033.00
2024-05-19 08:55:21.056556,8,0,-6,0,0,0,82,84,134,110,67,132.10,186,1.00,4.00,-880.00
2024-05-19 08:55:21.227748,8,0,-6,-2,0,0,82,84,133,110,67,132.10,186,19.00,15.00,-945.00
2024-05-19 08:55:21.260551,8,0,-6,-4,0,0,82,84,133,110,67,132.17,186,26.00,3.00,-1018.00
2024-05-19 08:55:21.439709,7,0,-6,-5,0,0,82,84,132,110,67,132.15,186,34.00,12.00,-1026.00
2024-05-19 08:55:21.464520,6,0,-6,-6,1,0,82,84,132,110,67,132.24,186,71.00,-15.00,-952.00
2024-05-19 08:55:21.637358,5,0,-6,-7,1,0,82,84,131,110,67,132.14,186,94.00,1.00,-891.00
2024-05-19 08:55:21.668870,4,0,-6,-7,0,0,82,84,130,110,67,132.10,186,58.00,-10.00,-1035.00
2024-05-19 08:55:21.843124,3,0,-6,-8,0,0,82,84,130,110,67,132.12,186,38.00,25.00,-1017.00
2024-05-19 08:55:21.872983,0,0,-6,-8,0,0,82,84,129,110,67,132.12,187,23.00,-2.00,-1089.00
2024-05-19 08:55:22.046897,-2,-1,-6,-7,0,0,82,84,129,110,67,132.07,187,22.00,-18.00,-988.00
2024-05-19 08:55:22.077089,-5,0,-6,-6,0,0,82,84,129,110,67,132.13,187,-20.00,27.00,-1071.00
2024-05-19 08:55:22.251770,-5,0,-6,-5,0,0,82,84,128,110,67,132.09,187,57.00,8.00,-994.00
2024-05-19 08:55:22.280439,-3,0,-6,-4,0,0,82,84,128,110,66,132.09,187,29.00,33.00,-951.00
2024-05-19 08:55:22.404660,-2,0,-6,-3,0,0,82,84,127,110,66,132.08,187,11.00,-1.00,-1000.00
2024-05-19 08:55:22.484587,-1,0,-6,-3,0,0,82,84,127,110,66,132.09,187,25.00,-6.00,-1054.00
2024-05-19 08:55:22.586449,0,0,-6,-2,0,0,82,84,127,110,66,132.13,187,19.00,-15.00,-1024.00
2024-05-19 08:55:22.764138,0,0,-6,-2,0,0,82,84,126,110,66,132.05,187,19.00,-2.00,-1014.00
2024-05-19 08:55:22.764193,0,0,-6,-2,0,0,82,84,126,110,66,132.19,187,-9.00,25.00,-1003.00
2024-05-19 08:55:22.892348,-1,0,-6,-2,0,0,81,84,126,100,66,132.16,188,19.00,-1.00,-1038.00
2024-05-19 08:55:22.994384,-5,0,-6,-1,0,0,81,84,126,100,66,132.08,188,12.00,15.00,-956.00
2024-05-19 08:55:23.173245,-3,0,-6,0,0,0,81,84,125,100,66,132.06,188,-26.00,-11.00,-1072.00
2024-05-19 08:55:23.199034,-2,0,-6,0,0,0,81,84,125,100,66,132.12,188,-19.00,-2.00,-990.00
2024-05-19 08:55:23.249465,-1,0,-6,0,0,0,81,84,125,110,66,132.10,188,5.00,-22.00,-1029.00
2024-05-19 08:55:23.378247,-1,0,-6,0,0,0,81,84,125,110,66,132.15,188,21.00,13.00,-1025.00
2024-05-19 08:55:23.453550,-1,0,-6,0,0,0,81,84,125,110,66,132.10,188,-23.00,35.00,-974.00
2024-05-19 08:55:23.582999,0,-1,-6,0,0,0,81,84,125,110,66,132.07,188,-49.00,12.00,-1049.00
2024-05-19 08:55:23.657590,0,-1,-6,0,0,0,81,84,124,110,66,132.10,188,2.00,0.00,-989.00
2024-05-19 08:55:23.787860,0,-1,-6,0,0,0,81,84,125,100,66,132.12,189,-6.00,51.00,-973.00
2024-05-19 08:55:23.861436,0,-1,-6,0,0,0,81,83,125,100,66,132.08,189,-27.00,22.00,-1018.00
2024-05-19 08:55:23.995191,0,-1,-6,0,0,0,81,83,125,100,66,132.16,189,-41.00,13.00,-1028.00
2024-05-19 08:55:24.075024,0,0,-6,0,0,0,81,83,125,100,66,132.11,189,-46.00,52.00,-1041.00
2024-05-19 08:55:24.167712,0,0,-6,0,0,0,81,83,125,100,66,132.16,189,-76.00,34.00,-1037.00
2024-05-19 08:55:24.299820,0,0,-6,0,0,0,81,83,126,100,66,132.17,189,-40.00,23.00,-1013.00
2024-05-19 08:55:24.374142,0,-1,-6,0,0,0,81,83,126,110,66,132.15,189,-15.00,26.00,-957.00
2024-05-19 08:55:24.473668,0,-1,-6,0,0,0,81,83,126,110,66,132.16,189,-6.00,12.00,-955.00
2024-05-19 08:55:24.575383,0,-1,-6,0,0,0,81,83,126,110,66,132.14,189,-16.00,41.00,-981.00
2024-05-19 08:55:24.709422,0,-1,-6,0,0,0,81,83,126,110,66,132.14,189,41.00,-22.00,-924.00
2024-05-19 08:55:24.779457,0,-1,-6,0,0,0,81,83,126,110,66,132.13,190,5.00,41.00,-997.00
2024-05-19 08:55:24.881467,0,-1,-6,0,0,0,80,83,126,110,66,132.08,190,-43.00,10.00,-1056.00
2024-05-19 08:55:25.016617,0,-1,-6,0,0,0,80,83,127,110,66,132.12,190,-33.00,51.00,-998.00
2024-05-19 08:55:25.085664,0,-1,-6,0,0,0,80,83,127,110,66,132.17,190,-35.00,37.00,-1015.00
2024-05-19 08:55:25.187423,0,-1,-6,0,0,0,80,83,127,110,66,132.19,190,-6.00,11.00,-975.00
2024-05-19 08:55:25.326599,0,-1,-6,0,0,0,80,83,127,110,66,132.17,190,86.00,-2.00,-907.00
2024-05-19 08:55:25.391442,0,-6,-6,0,0,0,80,83,127,110,66,132.18,190,8.00,22.00,-985.00
2024-05-19 08:55:25.529353,0,-8,-6,0,-1,0,80,83,128,110,66,132.14,190,-24.00,20.00,-1064.00
2024-05-19 08:55:25.595320,0,-7,-6,0,-2,0,80,83,128,110,66,132.08,190,49.00,6.00,-1002.00
2024-05-19 08:55:25.733258,0,-5,-6,0,-3,0,80,83,128,110,66,132.12,190,-52.00,21.00,-1072.00
2024-05-19 08:55:25.799289,0,-2,-6,0,-4,0,80,83,127,110,66,132.02,191,1.00,13.00,-1032.00
2024-05-19 08:55:25.901194,-1,0,-6,0,-3,0,80,83,127,110,66,132.06,191,0.00,43.00,-931.00
2024-05-19 08:55:26.003261,0,0,-6,0,-3,0,80,83,127,110,66,132.16,191,-11.00,18.00,-1012.00
2024-05-19 08:55:26.142948,0,0,-6,0,-2,0,80,83,127,110,66,132.13,191,-11.00,33.00,-1029.00
2024-05-19 08:55:26.207357,1,0,-6,0,-2,0,80,83,127,110,66,132.09,191,30.00,34.00,-937.00
2024-05-19 08:55:26.347682,0,-1,-6,0,-2,0,80,83,127,110,65,132.14,191,-24.00,10.00,-998.00
2024-05-19 08:55:26.411394,0,-1,-6,0,-2,0,80,83,126,110,65,132.08,191,-23.00,34.00,-1011.00
2024-05-19 08:55:26.552513,-1,-1,-6,0,-2,0,80,83,125,110,65,132.10,191,11.00,25.00,-966.00
2024-05-19 08:55:26.615269,-1,-1,-6,0,-2,0,80,83,125,110,65,132.10,191,-13.00,31.00,-978.00
2024-05-19 08:55:26.757321,-1,-1,-6,0,-2,0,80,83,125,110,65,132.06,191,3.00,5.00,-1008.00
2024-05-19 08:55:26.819241,0,0,-6,0,-2,0,80,83,124,100,65,132.06,192,-53.00,43.00,-1005.00
2024-05-19 08:55:26.962126,-2,-1,-6,0,-2,0,81,84,124,100,65,132.11,192,-29.00,16.00,-1052.00
2024-05-19 08:55:27.023220,-2,0,-6,0,-2,0,81,84,124,100,65,132.16,192,-31.00,15.00,-986.00
2024-05-19 08:55:27.074161,-1,2,-6,0,-2,0,81,84,124,100,65,132.23,192,-44.00,14.00,-1011.00
2024-05-19 08:55:27.269294,-1,4,-6,0,-1,0,81,84,124,100,65,132.14,192,-9.00,14.00,-961.00
2024-05-19 08:55:27.278609,-1,1,-6,0,0,0,81,84,124,100,65,132.17,192,-50.00,27.00,-1031.00
2024-05-19 08:55:27.474245,0,0,-5,0,0,0,81,84,124,100,65,132.13,192,-1.00,-14.00,-1044.00
2024-05-19 08:55:27.482395,0,0,-5,0,0,0,81,84,124,100,65,132.23,192,-4.00,35.00,-1000.00
2024-05-19 08:55:27.585248,0,0,-5,0,0,0,81,84,124,100,65,132.30,192,-5.00,26.00,-1023.00
2024-05-19 08:55:27.686337,0,0,-5,0,0,0,81,84,124,100,65,132.21,192,-41.00,28.00,-1051.00
2024-05-19 08:55:27.788685,0,0,-5,0,0,0,81,84,125,100,65,132.29,193,4.00,7.00,-1054.00
2024-05-19 08:55:27.891069,0,0,-5,0,0,0,81,83,125,100,65,132.16,193,18.00,-2.00,-992.00
2024-05-19 08:55:27.993747,0,-1,-6,0,0,0,81,83,125,110,65,132.16,193,1.00,24.00,-974.00
2024-05-19 08:55:28.096005,0,-1,-6,0,0,0,81,83,126,110,65,132.17,193,-6.00,22.00,-953.00
2024-05-19 08:55:28.198659,0,-1,-6,0,0,0,81,83,126,110,65,132.22,193,-22.00,30.00,-1048.00
2024-05-19 08:55:28.300716,1,-1,-6,0,0,0,81,83,126,110,65,132.15,193,-18.00,45.00,-1011.00
2024-05-19 08:55:28.403975,0,-1,-6,0,0,0,81,83,127,110,65,132.19,193,1.00,28.00,-935.00
2024-05-19 08:55:28.502311,0,-1,-6,0,0,0,81,83,127,110,65,132.19,193,-8.00,29.00,-1027.00
2024-05-19 08:55:28.608006,0,-1,-6,0,0,0,81,83,127,110,65,132.27,193,-68.00,24.00,-1085.00
2024-05-19 08:55:28.706262,0,-1,-6,0,0,0,81,83,127,110,65,132.20,193,1.00,0.00,-1001.00
2024-05-19 08:55:28.808147,0,-1,-6,0,0,0,81,83,128,110,65,132.22,194,18.00,6.00,-1002.00
2024-05-19 08:55:28.910231,0,-1,-6,0,0,0,80,83,128,110,65,132.21,194,-3.00,5.00,-1040.00
2024-05-19 08:55:29.012202,0,-1,-6,0,0,0,80,83,128,110,65,132.24,194,-54.00,18.00,-1035.00
2024-05-19 08:55:29.114257,0,-1,-6,0,0,0,80,83,129,110,65,132.21,194,-6.00,18.00,-982.00
2024-05-19 08:55:29.289894,0,-1,-6,0,0,0,80,83,129,110,65,132.22,194,5.00,-9.00,-1077.00
2024-05-19 08:55:29.318106,0,-1,-6,0,0,0,80,83,130,110,65,132.23,194,8.00,29.00,-969.00
2024-05-19 08:55:29.420657,0,-1,-6,0,0,0,80,83,130,110,65,132.26,194,-4.00,32.00,-1052.00
2024-05-19 08:55:29.522424,-1,3,-6,0,0,0,80,83,130,110,65,132.22,194,-34.00,30.00,-989.00
2024-05-19 08:55:29.625303,-1,7,-6,0,1,0,80,83,132,110,65,132.24,194,-15.00,29.00,-1010.00
2024-05-19 08:55:29.727380,0,5,-6,0,2,0,80,83,132,110,65,132.19,194,13.00,26.00,-1020.00
2024-05-19 08:55:29.829893,1,2,-6,0,3,0,80,83,131,110,65,132.23,195,0.00,-12.00,-1008.00
2024-05-19 08:55:29.932803,1,0,-6,0,4,0,80,83,132,110,65,132.18,195,-24.00,12.00,-935.00
2024-05-19 08:55:30.031983,0,-2,-6,0,4,0,80,83,132,110,65,132.28,195,-21.00,26.00,-1045.00
2024-05-19 08:55:30.136967,0,-2,-6,0,3,0,80,83,132,110,65,132.29,195,0.00,5.00,-992.00
2024-05-19 08:55:30.235987,0,-2,-6,0,3,0,80,83,133,110,65,132.27,195,17.00,0.00,-1095.00
2024-05-19 08:55:30.341204,0,-1,-6,0,3,0,80,83,132,110,65,132.27,195,21.00,35.00,-988.00
2024-05-19 08:55:30.440062,0,-1,-6,0,2,0,80,83,132,110,65,132.17,195,24.00,11.00,-1044.00
2024-05-19 08:55:30.541978,0,0,-6,0,2,0,80,83,133,110,65,132.23,195,0.00,36.00,-1089.00
2024-05-19 08:55:30.648374,0,0,-6,0,2,0,80,83,133,110,65,132.30,195,-15.00,6.00,-1022.00
2024-05-19 08:55:30.696416,0,0,-6,0,2,0,80,83,133,110,65,132.23,195,-5.00,1.00,-937.00
2024-05-19 08:55:30.797139,0,0,-6,0,2,0,80,83,133,110,65,132.22,196,-9.00,6.00,-1059.00
2024-05-19 08:55:30.901133,0,0,-6,0,2,0,80,83,133,110,65,132.21,196,-35.00,27.00,-1056.00
2024-05-19 08:55:31.001039,0,-1,-6,0,2,0,80,83,133,110,65,132.19,196,64.00,1.00,-1022.00
2024-05-19 08:55:31.160485,0,-4,-6,0,2,0,80,83,135,110,65,132.21,196,-25.00,14.00,-1008.00
2024-05-19 08:55:31.205039,0,-6,-6,0,1,0,80,83,134,110,64,132.16,196,-13.00,35.00,-993.00
2024-05-19 08:55:31.365815,0,-3,-6,0,1,0,80,83,134,110,64,132.18,196,38.00,18.00,-986.00
2024-05-19 08:55:31.409221,0,-3,-6,0,0,0,80,83,133,110,64,132.11,196,-23.00,12.00,-1020.00
2024-05-19 08:55:31.570099,0,-2,-6,0,0,0,80,83,133,110,64,132.18,196,-24.00,32.00,-995.00
2024-05-19 08:55:31.613298,0,-1,-6,0,0,0,80,83,132,110,64,132.19,196,16.00,9.00,-996.00
2024-05-19 08:55:31.774898,0,-1,-6,0,0,0,80,83,132,110,64,132.15,196,42.00,25.00,-893.00
2024-05-19 08:55:31.817326,0,-1,-6,0,0,0,80,83,131,110,64,132.13,197,-22.00,24.00,-1083.00
2024-05-19 08:55:31.919001,0,-1,-6,0,0,0,80,83,130,110,64,132.16,197,-22.00,15.00,-1002.00
2024-05-19 08:55:32.021436,0,-1,-6,0,0,0,80,83,130,110,64,132.09,197,-5.00,12.00,-970.00
2024-05-19 08:55:32.184516,0,0,-6,0,0,0,80,83,130,110,64,132.12,197,-19.00,24.00,-984.00
2024-05-19 08:55:32.225187,0,-1,-6,0,0,0,80,83,130,110,64,132.15,197,12.00,-7.00,-929.00
2024-05-19 08:55:32.389183,0,0,-6,0,0,0,80,83,129,110,64,132.19,197,-1.00,5.00,-999.00
2024-05-19 08:55:32.428985,0,0,-6,0,0,0,80,83,130,110,64,132.17,197,-33.00,15.00,-1060.00
2024-05-19 08:55:32.594446,0,0,-6,0,0,0,80,83,130,110,64,132.17,197,10.00,-1.00,-976.00
2024-05-19 08:55:32.635056,0,0,-6,0,0,0,80,83,130,110,64,132.23,197,-14.00,9.00,-1048.00
2024-05-19 08:55:32.735057,0,0,-6,0,0,0,80,83,131,110,64,132.21,197,-15.00,31.00,-993.00
2024-05-19 08:55:32.901332,0,0,-6,0,0,0,80,83,131,110,64,132.16,198,19.00,17.00,-936.00
2024-05-19 08:55:32.938963,0,0,-6,0,0,0,80,82,131,110,64,132.15,198,-19.00,35.00,-956.00
2024-05-19 08:55:33.106498,0,0,-6,0,0,0,80,82,131,110,64,132.19,198,23.00,2.00,-1014.00
2024-05-19 08:55:33.142993,0,0,-6,0,0,0,80,82,131,110,64,132.14,198,12.00,22.00,-1035.00
2024-05-19 08:55:33.311046,0,0,-6,0,0,0,80,82,130,110,64,132.18,198,29.00,23.00,-1035.00
2024-05-19 08:55:33.347141,0,-1,-6,0,0,0,80,82,130,110,64,132.12,198,-8.00,36.00,-1012.00
2024-05-19 08:55:33.448791,0,-1,-6,0,0,0,80,82,129,110,64,132.13,198,-31.00,35.00,-954.00
2024-05-19 08:55:33.617972,0,-1,-5,0,0,0,80,82,128,110,64,132.19,198,20.00,24.00,-1009.00
2024-05-19 08:55:33.652757,0,-1,0,0,0,0,80,82,129,110,64,132.14,198,-13.00,26.00,-969.00
2024-05-19 08:55:33.822763,0,-1,6,0,0,0,80,82,128,110,64,132.18,198,-23.00,48.00,-1043.00
2024-05-19 08:55:33.856823,0,-1,12,0,0,0,80,82,128,110,64,132.07,199,-12.00,52.00,-1107.00
2024-05-19 08:55:34.027572,0,-2,18,0,0,0,81,82,127,110,64,132.13,199,21.00,40.00,-1078.00
2024-05-19 08:55:34.062196,0,-1,24,0,0,0,81,82,127,110,64,132.15,199,45.00,52.00,-941.00
2024-05-19 08:55:34.232361,0,-1,29,0,0,0,81,82,126,110,64,132.15,199,53.00,37.00,-963.00
2024-05-19 08:55:34.264808,0,-1,35,0,0,0,81,82,126,110,64,132.15,199,-5.00,58.00,-993.00
2024-05-19 08:55:34.315763,1,-1,41,0,0,0,81,82,126,110,64,132.17,199,36.00,42.00,-1041.00
2024-05-19 08:55:34.437181,1,-1,47,0,0,0,81,82,126,100,64,132.10,199,66.00,18.00,-970.00
2024-05-19 08:55:34.520305,2,-1,53,0,0,0,81,82,126,100,64,132.24,199,55.00,35.00,-929.00
2024-05-19 08:55:34.641961,2,-1,60,0,0,0,81,82,126,100,64,132.20,199,35.00,18.00,-981.00
2024-05-19 08:55:34.723753,2,0,66,0,0,0,81,82,127,100,64,132.14,199,35.00,-11.00,-1018.00
2024-05-19 08:55:34.846760,1,0,72,0,0,0,81,82,127,110,64,132.12,200,78.00,-3.00,-1114.00
2024-05-19 08:55:34.928358,1,0,78,0,0,0,80,82,127,110,64,132.12,200,35.00,11.00,-983.00
2024-05-19 08:55:35.030699,1,1,85,0,0,0,80,82,127,110,64,132.15,200,18.00,6.00,-1042.00
2024-05-19 08:55:35.153954,1,1,91,0,0,0,80,82,127,110,64,132.16,200,56.00,-15.00,-922.00
2024-05-19 08:55:35.233820,1,1,97,0,0,0,80,82,128,110,63,132.06,200,78.00,-26.00,-972.00
2024-05-19 08:55:35.358750,1,1,103,0,0,0,80,82,127,110,63,132.10,200,36.00,-20.00,-999.00
2024-05-19 08:55:35.437668,1,1,110,0,0,0,80,82,127,110,63,132.15,200,24.00,2.00,-968.00
2024-05-19 08:55:35.563461,1,2,116,0,0,0,80,82,127,110,63,132.12,200,9.00,10.00,-981.00
2024-05-19 08:55:35.641722,0,2,122,0,0,0,80,82,128,110,63,132.11,200,66.00,-16.00,-956.00
2024-05-19 08:55:35.768353,0,1,128,0,0,0,80,82,127,110,63,132.11,200,6.00,12.00,-1022.00
2024-05-19 08:55:35.845690,0,1,134,0,0,0,80,82,127,110,63,132.07,201,53.00,-28.00,-924.00
2024-05-19 08:55:35.973161,0,1,140,0,0,0,80,83,128,110,63,132.14,201,-32.00,5.00,-981.00
2024-05-19 08:55:36.049625,0,1,146,0,0,0,80,83,127,110,63,132.10,201,35.00,-25.00,-1026.00
2024-05-19 08:55:36.178245,0,0,152,0,0,0,80,83,127,110,63,132.16,201,-46.00,-12.00,-1006.00
2024-05-19 08:55:36.253676,0,0,157,0,0,0,80,83,128,110,63,132.13,201,6.00,-26.00,-969.00
2024-05-19 08:55:36.382937,0,0,163,0,0,0,80,83,127,110,63,132.13,201,-28.00,4.00,-999.00
2024-05-19 08:55:36.458341,0,1,169,0,0,0,80,83,127,110,63,132.12,201,12.00,6.00,-989.00
2024-05-19 08:55:36.559630,0,0,175,0,0,0,80,83,127,110,63,132.15,201,20.00,-16.00,-943.00
2024-05-19 08:55:36.689913,0,0,-179,0,0,0,80,83,127,110,63,132.17,201,-2.00,-7.00,-959.00
2024-05-19 08:55:36.763570,0,0,-173,0,0,0,80,83,128,110,63,132.24,201,27.00,-34.00,-999.00
2024-05-19 08:55:36.894728,0,0,-167,0,0,0,80,83,127,110,63,132.18,202,-22.00,-13.00,-1131.00
2024-05-19 08:55:36.967741,0,0,-162,0,0,0,80,83,128,110,63,132.10,202,15.00,0.00,-1007.00
2024-05-19 08:55:37.099644,0,0,-156,0,0,0,80,83,129,110,63,132.12,202,28.00,-26.00,-991.00
2024-05-19 08:55:37.171598,0,0,-150,0,0,0,80,83,129,110,63,132.21,202,-21.00,0.00,-973.00
2024-05-19 08:55:37.311961,0,0,-145,0,0,0,80,83,129,110,63,132.16,202,-14.00,13.00,-941.00
2024-05-19 08:55:37.375559,0,0,-139,0,0,0,80,83,130,110,63,132.19,202,-7.00,-14.00,-964.00
2024-05-19 08:55:37.509211,0,0,-133,0,0,0,80,83,130,110,63,132.14,202,-17.00,-35.00,-1039.00
2024-05-19 08:55:37.579612,0,0,-127,0,0,0,80,83,130,110,63,132.19,202,-24.00,6.00,-982.00
2024-05-19 08:55:37.713953,0,1,-121,0,0,0,80,83,130,110,63,132.13,202,28.00,-39.00,-1036.00
2024-05-19 08:55:37.784826,0,1,-115,0,0,0,80,83,130,110,63,132.17,202,37.00,-49.00,-987.00
2024-05-19 08:55:37.918776,0,2,-109,0,0,0,80,83,131,110,63,132.13,203,11.00,-48.00,-1036.00
2024-05-19 08:55:37.987500,0,2,-97,0,0,0,81,82,131,110,63,132.18,203,-8.00,15.00,-938.00
2024-05-19 08:55:38.135376,-1,1,-91,0,0,0,81,82,131,110,63,132.09,203,-17.00,-13.00,-994.00
2024-05-19 08:55:38.191609,-1,1,-85,0,0,0,81,82,131,110,63,132.23,203,32.00,-28.00,-924.00
2024-05-19 08:55:38.296916,-1,1,-79,0,0,0,81,82,131,110,63,132.10,203,-30.00,-14.00,-1003.00
2024-05-19 08:55:38.344517,-1,0,-73,0,0,0,81,82,131,110,63,132.20,203,-23.00,-7.00,-999.00
2024-05-19 08:55:38.533166,-1,0,-67,0,0,0,81,82,130,110,63,132.15,203,-29.00,-27.00,-1051.00
2024-05-19 08:55:38.599506,-1,0,-62,0,0,0,81,82,131,110,63,132.16,203,-56.00,-12.00,-997.00
2024-05-19 08:55:38.737981,-1,0,-56,0,0,0,81,82,130,110,63,132.09,203,-33.00,0.00,-1043.00
2024-05-19 08:55:38.752590,-2,0,-50,0,0,0,81,82,129,110,63,132.19,204,6.00,8.00,-964.00
2024-05-19 08:55:38.942881,-1,0,-45,0,0,0,81,82,129,110,63,132.05,204,-4.00,-5.00,-1010.00
2024-05-19 08:55:38.956589,-1,0,-39,0,0,0,80,83,129,110,63,132.15,204,-41.00,26.00,-1026.00
2024-05-19 08:55:39.058587,-1,-1,-33,0,0,0,80,83,129,110,63,132.13,204,-72.00,29.00,-1020.00
2024-05-19 08:55:39.251909,-1,-1,-27,0,0,0,80,83,129,110,63,132.18,204,-39.00,31.00,-1003.00
2024-05-19 08:55:39.262536,-1,-1,-22,0,0,0,80,83,129,110,63,132.17,204,0.00,18.00,-978.00
2024-05-19 08:55:39.454776,-1,0,-18,0,0,0,80,83,129,110,63,132.14,204,5.00,8.00,-1021.00
2024-05-19 08:55:39.466513,0,0,-15,0,0,0,80,83,128,110,63,132.13,204,-38.00,23.00,-1015.00
2024-05-19 08:55:39.659594,-1,0,-13,0,0,0,80,83,129,110,63,132.10,204,-37.00,35.00,-952.00
2024-05-19 08:55:39.671672,-1,-1,-12,0,0,0,80,83,128,110,63,132.11,204,-45.00,35.00,-1001.00
2024-05-19 08:55:39.864390,-1,-1,-10,0,0,0,80,83,128,110,63,132.08,205,-14.00,-1.00,-997.00
2024-05-19 08:55:39.874773,0,0,-10,0,0,0,80,83,128,110,63,132.15,205,-43.00,16.00,-1001.00
2024-05-19 08:55:39.976602,0,0,-9,0,0,0,80,83,127,110,63,132.11,205,-46.00,43.00,-983.00
2024-05-19 08:55:40.171489,0,0,-8,0,0,0,80,83,127,110,63,132.14,205,-23.00,20.00,-1040.00
2024-05-19 08:55:40.180661,0,0,-8,0,0,0,80,83,127,110,63,132.14,205,16.00,-4.00,-996.00
2024-05-19 08:55:40.376540,0,0,-8,0,0,0,80,83,127,110,62,132.12,205,-24.00,29.00,-997.00
2024-05-19 08:55:40.384561,0,0,-8,0,0,0,80,83,126,110,62,132.12,205,-7.00,-1.00,-965.00
2024-05-19 08:55:40.487387,0,0,-8,0,0,0,80,83,126,110,62,132.10,205,14.00,26.00,-1002.00
2024-05-19 08:55:40.588617,0,0,-8,0,0,0,80,83,125,100,62,132.03,205,-48.00,13.00,-1100.00
2024-05-19 08:55:40.691118,0,0,-7,0,0,0,80,83,126,100,62,132.13,205,-42.00,20.00,-1063.00
2024-05-19 08:55:40.888556,-1,0,-7,0,0,0,80,83,126,100,62,132.10,206,-17.00,-6.00,-1051.00
2024-05-19 08:55:40.895865,0,0,-7,0,0,0,80,83,126,100,62,132.05,206,25.00,24.00,-872.00
2024-05-19 08:55:40.996590,0,0,-7,0,0,0,80,83,126,110,62,132.05,206,-32.00,18.00,-1078.00
2024-05-19 08:55:41.195539,0,0,-7,0,0,0,80,83,126,110,62,132.17,206,-9.00,-7.00,-963.00
2024-05-19 08:55:41.200666,0,0,-7,0,0,0,80,83,125,110,62,132.17,206,1.00,13.00,-953.00
2024-05-19 08:55:41.303697,0,0,-8,0,0,0,80,83,125,100,62,132.20,206,-49.00,26.00,-994.00
2024-05-19 08:55:41.502822,0,0,-8,0,0,0,80,83,125,100,62,132.19,206,-38.00,8.00,-1059.00
2024-05-19 08:55:41.506624,0,0,-8,0,0,0,80,83,125,100,62,132.11,206,0.00,-18.00,-968.00
2024-05-19 08:55:41.558466,0,0,-8,0,0,0,80,83,124,100,62,132.12,206,-61.00,44.00,-1011.00
2024-05-19 08:55:41.707807,-1,0,-8,0,0,0,80,83,125,100,62,132.16,206,-18.00,6.00,-1020.00
2024-05-19 08:55:41.761601,-1,0,-8,0,0,0,80,83,124,100,62,132.13,207,0.00,11.00,-986.00
2024-05-19 08:55:41.912613,-1,0,-8,0,0,0,80,83,124,100,62,132.11,207,-65.00,13.00,-1006.00
2024-05-19 08:55:42.016458,-2,0,-8,0,0,0,80,83,124,100,62,132.10,207,-29.00,-8.00,-1071.00
2024-05-19 08:55:42.069686,-1,0,-8,0,0,0,80,83,124,100,62,132.13,207,3.00,19.00,-1036.00
2024-05-19 08:55:42.170146,0,0,-8,0,0,0,80,83,124,100,62,132.10,207,-36.00,8.00,-981.00
2024-05-19 08:55:42.271449,0,0,-8,0,0,0,80,83,124,100,62,132.09,207,-70.00,32.00,-1104.00
2024-05-19 08:55:42.424281,-1,0,-14,0,0,0,80,83,124,100,62,132.10,207,-68.00,38.00,-1009.00
2024-05-19 08:55:42.475249,-1,0,-20,0,0,0,80,83,124,100,62,132.12,207,-49.00,27.00,-1004.00
2024-05-19 08:55:42.577353,-1,0,-26,0,0,0,80,83,125,100,62,132.07,207,-19.00,-2.00,-1028.00
2024-05-19 08:55:42.731465,-1,0,-32,0,0,0,80,83,125,100,62,132.06,207,-17.00,3.00,-975.00
2024-05-19 08:55:42.781262,-1,0,-38,0,0,0,80,83,125,100,62,132.13,208,-23.00,-23.00,-1031.00
2024-05-19 08:55:42.883570,0,0,-43,0,0,0,80,83,126,100,62,132.14,208,12.00,21.00,-951.00
2024-05-19 08:55:43.041912,0,0,-49,0,0,0,81,83,126,100,62,132.13,208,-15.00,-8.00,-1061.00
2024-05-19 08:55:43.087278,0,-1,-55,0,0,0,81,83,126,100,62,132.21,208,-31.00,16.00,-1033.00
2024-05-19 08:55:43.243694,-1,-1,-60,0,0,0,81,83,127,100,62,132.14,208,-6.00,29.00,-962.00
2024-05-19 08:55:43.291669,-1,-1,-66,0,0,0,81,83,127,100,62,132.21,208,-71.00,31.00,-1073.00
2024-05-19 08:55:43.448351,-1,-1,-71,0,0,0,81,83,127,100,62,132.22,208,18.00,25.00,-887.00
2024-05-19 08:55:43.495309,-1,-1,-77,0,0,0,81,83,129,110,62,132.25,208,-7.00,-15.00,-924.00
2024-05-19 08:55:43.653137,-1,-1,-83,0,0,0,81,83,129,110,62,132.20,208,-49.00,42.00,-1076.00
2024-05-19 08:55:43.699484,-1,-1,-89,0,0,0,81,83,129,110,62,132.16,208,-34.00,31.00,-1007.00
2024-05-19 08:55:43.857938,-1,-1,-95,0,0,0,81,83,130,110,62,132.14,209,-24.00,1.00,-997.00
2024-05-19 08:55:43.903713,-2,-1,-101,0,0,0,81,83,130,110,62,132.12,209,-78.00,30.00,-1023.00
2024-05-19 08:55:44.005176,-2,0,-107,0,0,0,80,82,130,110,62,132.15,209,-25.00,2.00,-981.00
2024-05-19 08:55:44.165135,-2,0,-113,0,0,0,80,82,131,110,62,132.09,209,-80.00,-24.00,-1046.00
2024-05-19 08:55:44.209255,-2,0,-120,0,0,0,80,82,131,110,62,132.07,209,-8.00,-22.00,-970.00
2024-05-19 08:55:44.369954,-1,1,-126,0,0,0,80,82,131,110,62,132.07,209,-57.00,-14.00,-965.00
2024-05-19 08:55:44.413384,-1,1,-132,0,0,0,80,82,130,110,62,132.14,209,-73.00,-20.00,-1037.00
2024-05-19 08:55:44.574763,-2,1,-139,0,0,0,80,82,130,110,62,132.18,209,-18.00,-30.00,-983.00
2024-05-19 08:55:44.618496,-3,1,-145,0,0,0,80,82,130,110,62,132.18,209,-19.00,-5.00,-913.00
2024-05-19 08:55:44.779416,-2,1,-151,0,0,0,80,82,131,110,62,132.23,209,-19.00,-39.00,-1025.00
2024-05-19 08:55:44.821358,-1,2,-157,0,0,0,80,82,131,110,62,132.19,210,-32.00,-39.00,-1048.00
2024-05-19 08:55:44.924345,0,3,-163,0,0,0,80,82,131,110,62,132.17,210,-43.00,-41.00,-1094.00
2024-05-19 08:55:45.086712,0,2,-169,0,0,0,80,83,131,110,62,132.26,210,17.00,-58.00,-988.00
2024-05-19 08:55:45.127192,0,2,-175,0,0,0,80,83,131,110,62,132.13,210,-26.00,-32.00,-1020.00
2024-05-19 08:55:45.293970,0,2,178,0,0,0,80,83,131,110,62,132.18,210,7.00,-46.00,-934.00
2024-05-19 08:55:45.335412,0,2,171,0,0,0,80,83,132,110,62,132.22,210,52.00,-35.00,-1007.00
2024-05-19 08:55:45.433162,0,2,165,0,0,0,80,83,131,110,62,132.21,210,0.00,-50.00,-1035.00
2024-05-19 08:55:45.598772,1,1,159,0,0,0,80,83,132,110,62,132.15,210,36.00,-39.00,-1013.00
2024-05-19 08:55:45.637120,1,1,153,0,0,0,80,83,132,110,62,132.22,210,49.00,-12.00,-999.00
2024-05-19 08:55:45.688048,1,0,147,0,0,0,80,83,131,110,62,132.23,210,35.00,-6.00,-1052.00
2024-05-19 08:55:45.803437,1,0,141,0,0,0,80,83,131,110,62,132.13,211,74.00,35.00,-917.00
2024-05-19 08:55:45.892517,1,0,135,0,0,0,80,83,131,110,62,132.23,211,36.00,-15.00,-984.00
2024-05-19 08:55:46.008425,0,0,129,0,0,0,81,82,131,110,62,132.26,211,90.00,-3.00,-976.00
2024-05-19 08:55:46.096111,0,0,123,0,0,0,81,82,131,110,62,132.28,211,64.00,6.00,-972.00
2024-05-19 08:55:46.213058,1,0,117,0,0,0,81,82,131,110,62,132.25,211,70.00,-2.00,-959.00
2024-05-19 08:55:46.300020,1,0,112,0,0,0,81,82,131,110,62,132.22,211,128.00,8.00,-872.00
2024-05-19 08:55:46.417824,1,0,107,0,0,0,81,82,131,110,62,132.22,211,61.00,-11.00,-940.00
2024-05-19 08:55:46.504328,2,0,101,0,0,0,81,82,131,110,62,132.25,211,14.00,31.00,-926.00
2024-05-19 08:55:46.622665,2,0,95,0,0,0,81,82,132,110,62,132.21,211,51.00,13.00,-1049.00
2024-05-19 08:55:46.708093,2,0,90,0,0,0,81,82,132,110,62,132.21,211,71.00,31.00,-933.00
2024-05-19 08:55:46.827425,1,0,84,0,0,0,81,82,132,110,62,132.21,212,41.00,31.00,-1009.00
2024-05-19 08:55:46.912977,1,0,78,0,0,0,81,82,132,110,62,132.27,212,58.00,14.00,-983.00
2024-05-19 08:55:47.032264,1,0,72,0,0,0,80,83,132,110,62,132.14,212,62.00,0.00,-1018.00
2024-05-19 08:55:47.116068,1,-1,67,0,0,0,80,83,132,110,62,132.22,212,21.00,69.00,-934.00
2024-05-19 08:55:47.237058,1,-1,61,0,0,0,80,83,132,110,62,132.16,212,17.00,45.00,-925.00
2024-05-19 08:55:47.320043,1,-1,56,0,0,0,80,83,132,110,62,132.18,212,24.00,32.00,-950.00
2024-05-19 08:55:47.441769,1,0,50,0,0,0,80,83,133,110,62,132.16,212,69.00,51.00,-964.00
2024-05-19 08:55:47.524112,2,0,44,0,0,0,80,83,133,110,62,132.20,212,29.00,12.00,-1010.00
2024-05-19 08:55:47.646638,2,-1,38,0,0,0,80,83,133,110,62,132.22,212,-23.00,57.00,-991.00
2024-05-19 08:55:47.728027,1,-1,32,0,0,0,80,83,134,110,62,132.20,212,28.00,32.00,-957.00
2024-05-19 08:55:47.851447,1,-1,26,0,0,0,80,83,133,110,62,132.20,213,9.00,74.00,-980.00
2024-05-19 08:55:47.931962,1,-1,21,0,0,0,80,83,133,110,62,132.14,213,-6.00,63.00,-1025.00
2024-05-19 08:55:48.056228,1,-1,15,0,0,0,81,82,132,110,62,132.18,213,16.00,84.00,-909.00
2024-05-19 08:55:48.136401,0,-1,9,0,0,0,81,82,132,110,62,132.17,213,-41.00,41.00,-1017.00
2024-05-19 08:55:48.261036,0,-1,5,0,0,0,81,82,132,110,61,132.15,213,26.00,20.00,-950.00
2024-05-19 08:55:48.340828,0,-1,2,0,0,0,81,82,132,110,61,132.23,213,26.00,46.00,-1014.00
2024-05-19 08:55:48.441915,0,-1,0,0,0,0,81,82,132,110,61,132.21,213,-7.00,24.00,-1023.00
2024-05-19 08:55:48.548065,0,-1,-1,0,0,0,81,82,132,110,61,132.22,213,10.00,28.00,-1009.00
2024-05-19 08:55:48.645921,0,-1,-3,0,0,0,81,82,132,110,61,132.21,213,20.00,24.00,-954.00
2024-05-19 08:55:48.772965,0,0,-4,0,0,0,81,82,132,110,61,132.28,213,-8.00,44.00,-975.00
2024-05-19 08:55:48.850090,0,-1,-4,0,0,0,81,82,132,110,61,132.29,214,-10.00,53.00,-981.00
2024-05-19 08:55:48.952110,0,-1,-5,0,0,0,81,82,131,110,61,132.27,214,0.00,61.00,-848.00
2024-05-19 08:55:49.080322,0,-1,-6,0,0,0,80,82,130,110,61,132.20,214,5.00,52.00,-1036.00
2024-05-19 08:55:49.157027,0,-1,-6,0,0,0,80,82,130,110,61,132.19,214,-28.00,32.00,-1057.00
2024-05-19 08:55:49.285119,0,-1,-6,0,0,0,80,82,130,110,61,132.09,214,8.00,28.00,-988.00
2024-05-19 08:55:49.310153,0,-1,-6,0,0,0,80,82,129,110,61,132.20,214,-38.00,23.00,-1010.00
2024-05-19 08:55:49.489967,0,-1,-6,0,0,0,80,82,130,110,61,132.02,214,34.00,28.00,-906.00
2024-05-19 08:55:49.514049,0,-2,-6,0,0,0,80,82,129,110,61,132.08,214,7.00,7.00,-1003.00
2024-05-19 08:55:49.694758,0,-1,-6,0,0,0,80,82,130,110,61,132.14,214,-30.00,2.00,-1037.00
2024-05-19 08:55:49.718007,0,-1,-6,0,0,0,80,82,129,110,61,132.11,214,-17.00,37.00,-975.00
2024-05-19 08:55:49.899661,0,0,-6,0,0,0,80,82,129,110,61,132.16,215,-98.00,7.00,-1062.00
2024-05-19 08:55:49.922459,-1,0,-6,0,0,0,80,82,129,110,61,132.14,215,2.00,26.00,-950.00
2024-05-19 08:55:50.104367,-1,0,-6,0,0,0,80,82,130,110,61,132.15,215,-19.00,6.00,-999.00
2024-05-19 08:55:50.128457,-1,0,-6,0,0,0,80,82,130,110,61,132.10,215,-60.00,45.00,-993.00
2024-05-19 08:55:50.227963,-2,-1,-6,0,0,0,80,82,130,110,61,132.09,215,-6.00,-2.00,-1002.00
2024-05-19 08:55:50.412786,-2,0,-6,0,0,0,80,82,130,110,61,132.18,215,-10.00,63.00,-932.00
2024-05-19 08:55:50.431906,-1,0,-6,0,0,0,80,82,130,110,61,132.16,215,-52.00,25.00,-1032.00
2024-05-19 08:55:50.616895,-1,0,-6,0,0,0,80,82,130,110,61,132.20,215,-11.00,43.00,-917.00
2024-05-19 08:55:50.635842,-1,-1,-6,0,0,0,80,82,129,110,61,132.15,215,-2.00,34.00,-1009.00
2024-05-19 08:55:50.821131,-1,-2,-6,0,0,0,80,82,130,110,61,132.19,215,-23.00,34.00,-1024.00
2024-05-19 08:55:50.839839,-1,-2,-6,0,0,0,80,82,130,110,61,132.15,216,0.00,37.00,-1104.00
2024-05-19 08:55:50.941939,-1,-2,-6,0,0,0,80,82,130,110,61,132.17,216,-7.00,31.00,-985.00
2024-05-19 08:55:51.043831,0,-2,-6,0,0,0,80,82,129,110,61,132.22,216,-32.00,58.00,-970.00
2024-05-19 08:55:51.230590,0,-2,-6,0,0,0,80,82,131,110,61,132.43,216,27.00,49.00,-1405.00
2024-05-19 08:55:51.247793,0,-2,-7,0,0,-4,80,82,137,110,61,132.41,216,-49.00,47.00,-1661.00
2024-05-19 08:55:51.435392,0,-11,-9,0,0,-10,80,82,231,120,61,132.35,216,-17.00,205.00,-1130.00
2024-05-19 08:55:51.451786,-5,-92,-7,-1,-4,-10,80,82,518,130,61,132.45,216,-84.00,579.00,-1118.00
2024-05-19 08:55:51.640193,4,137,-1,-1,-9,3,80,82,297,130,61,132.35,216,0.00,464.00,-1070.00
2024-05-19 08:55:51.655802,2,23,-13,0,-2,13,80,82,138,120,61,132.33,216,49.00,-9.00,-1386.00
2024-05-19 08:55:51.844979,0,-7,-11,-1,-1,11,80,82,125,110,61,132.31,216,-28.00,12.00,-1436.00
2024-05-19 08:55:51.859882,0,1,-9,-1,-2,8,80,82,117,100,61,132.38,217,-35.00,39.00,-1376.00
2024-05-19 08:55:51.961797,-1,3,-6,-1,-1,4,80,82,115,90,61,132.09,217,0.00,30.00,-1298.00
2024-05-19 08:55:52.152208,-1,2,-6,0,0,1,80,83,114,90,61,132.03,217,-15.00,58.00,-1194.00
2024-05-19 08:55:52.165761,-1,0,-6,0,0,0,80,83,115,90,61,132.11,217,-23.00,52.00,-1200.00
2024-05-19 08:55:52.357026,-1,-1,-6,0,0,-2,80,83,118,90,61,132.11,217,-7.00,56.00,-1041.00
2024-05-19 08:55:52.369821,-1,0,-6,0,0,-2,80,83,120,90,61,132.12,217,-10.00,42.00,-1076.00
2024-05-19 08:55:52.561829,0,-1,-6,0,0,-2,80,83,122,90,61,132.12,217,-34.00,40.00,-949.00
2024-05-19 08:55:52.573707,0,-1,-6,0,0,-2,80,83,124,100,61,132.12,217,-23.00,24.00,-985.00
2024-05-19 08:55:52.774122,0,-1,-6,0,0,-1,80,83,126,100,61,132.15,217,-71.00,81.00,-940.00
2024-05-19 08:55:52.777699,0,-1,-6,0,0,-1,80,83,127,100,61,132.21,217,-14.00,60.00,-995.00
2024-05-19 08:55:52.971408,-1,-2,-6,0,0,0,80,83,128,100,61,132.21,218,-38.00,59.00,-992.00
2024-05-19 08:55:52.981674,-1,-2,-6,0,0,0,80,83,128,100,61,132.22,218,-51.00,56.00,-1004.00
2024-05-19 08:55:53.176190,-1,-2,-6,0,0,0,81,82,128,100,61,132.22,218,3.00,25.00,-984.00
2024-05-19 08:55:53.185663,-1,-2,-6,0,0,0,81,82,128,100,61,132.24,218,23.00,27.00,-952.00
2024-05-19 08:55:53.236778,0,-1,-6,0,0,0,81,82,128,100,60,132.21,218,-61.00,56.00,-1099.00
2024-05-19 08:55:53.340868,0,-1,-6,0,0,0,81,82,128,100,60,132.16,218,10.00,50.00,-982.00
2024-05-19 08:55:53.440688,0,-1,-6,0,0,0,81,82,128,100,60,132.11,218,-36.00,18.00,-1034.00
2024-05-19 08:55:53.585797,0,-1,-6,0,0,0,81,82,127,100,60,132.11,218,-31.00,33.00,-1025.00
2024-05-19 08:55:53.644663,-1,-1,-6,0,0,0,81,82,128,100,60,132.14,218,-27.00,46.00,-1042.00
2024-05-19 08:55:53.790581,-1,-1,-6,0,0,0,81,82,128,100,60,132.21,218,19.00,44.00,-917.00
2024-05-19 08:55:53.848643,-1,-1,-6,0,0,0,81,82,128,100,60,132.20,219,-37.00,22.00,-1001.00
2024-05-19 08:55:53.950886,-1,-1,-6,0,0,0,81,82,128,100,60,132.24,219,-53.00,44.00,-1022.00
2024-05-19 08:55:54.097779,-1,-1,-6,0,0,0,80,82,128,100,60,132.18,219,-3.00,27.00,-963.00
2024-05-19 08:55:54.154765,-1,-1,-6,0,0,0,80,82,128,100,60,132.15,219,-10.00,47.00,-973.00
2024-05-19 08:55:54.302573,-1,-1,-6,0,0,0,80,82,128,100,60,132.23,219,-27.00,99.00,-966.00
2024-05-19 08:55:54.358651,-1,-2,-6,0,0,0,80,82,128,100,60,132.22,219,-19.00,36.00,-1025.00
2024-05-19 08:55:54.507363,-1,-2,-6,0,0,0,80,82,129,100,60,132.14,219,-34.00,49.00,-985.00
2024-05-19 08:55:54.563709,-2,-2,-6,0,0,0,80,82,129,100,60,132.23,219,-35.00,60.00,-1029.00
2024-05-19 08:55:54.720045,-2,-3,-6,0,0,0,80,82,129,100,60,132.20,219,-17.00,29.00,-990.00
2024-05-19 08:55:54.766724,-1,-2,-6,0,0,0,80,82,130,100,60,132.17,220,-46.00,60.00,-1000.00
2024-05-19 08:55:54.917107,-1,-2,-6,0,0,0,80,82,129,100,60,132.20,220,-8.00,50.00,-935.00
2024-05-19 08:55:54.973652,-1,-2,-6,0,0,0,80,82,129,100,60,132.28,220,-27.00,32.00,-925.00
2024-05-19 08:55:55.074108,0,-1,-6,0,0,0,80,82,129,100,60,132.20,220,-43.00,56.00,-970.00
2024-05-19 08:55:55.174692,0,-1,-6,0,0,0,80,82,128,100,60,132.22,220,26.00,27.00,-988.00
2024-05-19 08:55:55.326761,0,-1,-6,0,0,0,80,82,128,100,59,132.20,220,-27.00,22.00,-1030.00
2024-05-19 08:55:55.378711,0,-1,-6,0,0,0,80,82,128,100,59,132.26,220,-13.00,34.00,-992.00
2024-05-19 08:55:55.531479,0,-1,-6,0,0,0,80,82,128,100,59,132.25,220,-3.00,53.00,-1008.00
2024-05-19 08:55:55.582637,0,-1,-6,0,0,0,80,82,127,100,59,132.12,220,-15.00,47.00,-983.00
2024-05-19 08:55:55.736337,0,-1,-6,0,0,0,80,82,127,100,59,132.16,220,5.00,3.00,-996.00
2024-05-19 08:55:55.787743,0,-1,-6,0,0,0,80,82,127,100,59,132.17,221,-18.00,28.00,-923.00
2024-05-19 08:55:55.941209,0,-1,-6,0,0,0,80,82,127,100,59,132.20,221,20.00,40.00,-948.00
2024-05-19 08:55:55.990657,0,-1,-6,0,0,0,80,82,128,100,59,132.26,221,-13.00,12.00,-1044.00
2024-05-19 08:55:56.145977,0,-1,-6,0,0,0,80,82,127,100,59,132.18,221,4.00,27.00,-993.00
2024-05-19 08:55:56.194724,0,-1,-6,0,0,0,80,82,127,100,59,132.27,221,23.00,39.00,-1023.00
2024-05-19 08:55:56.350752,0,-1,-6,0,0,0,80,82,128,100,59,132.14,221,-11.00,43.00,-1017.00
2024-05-19 08:55:56.398668,0,-1,-6,0,0,0,80,82,128,100,59,132.08,221,36.00,-1.00,-1005.00
2024-05-19 08:55:56.555612,0,-1,-6,0,0,0,80,82,129,100,59,132.17,221,-27.00,42.00,-969.00
2024-05-19 08:55:56.603085,0,-1,-6,0,0,0,80,82,129,100,59,132.17,221,2.00,42.00,-881.00
2024-05-19 08:55:56.653743,0,-1,-6,0,0,0,80,82,129,100,59,132.13,221,5.00,12.00,-1030.00
2024-05-19 08:55:56.760283,0,-1,-6,0,0,0,80,82,129,100,59,132.16,222,17.00,6.00,-983.00
2024-05-19 08:55:56.857668,0,-1,-6,0,0,0,80,82,129,100,59,132.21,222,42.00,9.00,-929.00
2024-05-19 08:55:56.959724,1,-1,-6,0,0,0,80,82,129,100,59,132.15,222,5.00,29.00,-1032.00
2024-05-19 08:55:57.067531,1,-1,-6,0,0,0,79,83,129,100,59,132.26,222,41.00,15.00,-1002.00
2024-05-19 08:55:57.163691,1,-1,-6,0,0,0,79,83,129,100,59,132.15,222,41.00,33.00,-1003.00
2024-05-19 08:55:57.272251,0,-2,-6,0,0,0,79,83,129,100,59,132.17,222,39.00,21.00,-919.00
2024-05-19 08:55:57.367630,0,-2,-6,0,0,0,79,83,129,100,59,132.23,222,11.00,15.00,-1007.00
2024-05-19 08:55:57.477166,0,-2,-6,0,0,0,79,83,129,100,59,132.23,222,12.00,14.00,-1022.00
2024-05-19 08:55:57.571646,0,-2,-6,0,0,0,79,83,129,100,59,132.19,222,-24.00,34.00,-992.00
2024-05-19 08:55:57.681825,0,0,-6,0,0,0,79,83,130,100,59,132.29,222,37.00,15.00,-1069.00
2024-05-19 08:55:57.775855,0,1,-7,0,0,-4,79,83,130,100,59,132.33,223,6.00,102.00,-1522.00
2024-05-19 08:55:57.886610,0,6,-9,0,1,-10,79,83,136,110,59,132.30,223,-47.00,52.00,-1646.00
2024-05-19 08:55:57.979398,5,77,-8,0,6,-12,79,83,188,120,59,132.62,223,-28.00,170.00,-1484.00
2024-05-19 08:55:58.091422,-1,-155,0,1,12,1,80,82,595,130,59,132.54,223,-70.00,742.00,-1014.00
2024-05-19 08:55:58.183520,-4,-37,-11,1,6,11,80,82,167,120,59,132.59,223,-89.00,636.00,-937.00
2024-05-19 08:55:58.296281,2,11,-15,1,6,11,80,82,139,110,59,132.37,223,-59.00,312.00,-935.00
2024-05-19 08:55:58.389523,0,-1,-20,1,8,8,80,82,126,100,59,132.19,223,21.00,-6.00,-1524.00
2024-05-19 08:55:58.490019,-2,-7,-22,0,6,3,80,82,121,90,59,132.13,223,-7.00,-23.00,-1431.00
2024-05-19 08:55:58.604469,-1,-6,-17,0,5,1,80,82,119,90,59,132.13,223,-24.00,-30.00,-1242.00
2024-05-19 08:55:58.694432,0,-4,-7,0,4,0,80,82,119,90,59,132.09,223,-4.00,28.00,-1230.00
2024-05-19 08:55:58.808260,0,-2,-5,0,3,-1,80,82,120,90,59,132.07,224,-34.00,33.00,-1175.00
2024-05-19 08:55:58.898487,0,-2,-5,0,3,-2,80,82,122,90,59,132.06,224,-4.00,44.00,-1048.00
2024-05-19 08:55:59.000387,0,-2,-5,0,3,-2,80,82,125,90,59,132.10,224,8.00,7.00,-1014.00
2024-05-19 08:55:59.115401,0,-3,-5,0,3,-1,80,82,127,100,59,132.15,224,-7.00,23.00,-934.00
2024-05-19 08:55:59.204415,0,-3,-5,0,2,-1,80,82,129,100,59,132.18,224,-1.00,36.00,-894.00
2024-05-19 08:55:59.320237,0,-3,-5,0,2,0,80,82,131,100,59,132.22,224,16.00,9.00,-924.00
2024-05-19 08:55:59.408445,0,-3,-5,0,2,0,80,82,131,100,59,132.20,224,37.00,10.00,-879.00
2024-05-19 08:55:59.524998,0,-3,-5,0,2,0,80,82,131,100,59,132.23,224,0.00,-23.00,-1003.00
2024-05-19 08:55:59.612422,0,-2,-5,0,2,0,80,82,133,100,59,132.17,224,-29.00,15.00,-1054.00
2024-05-19 08:55:59.729787,0,-5,-5,0,1,0,80,82,133,100,59,132.27,224,12.00,6.00,-1038.00
2024-05-19 08:55:59.816396,0,-5,-5,0,1,0,80,82,132,100,59,132.27,225,3.00,1.00,-968.00
2024-05-19 08:55:59.934605,0,-4,-5,0,0,0,80,82,132,100,59,132.19,225,-41.00,45.00,-1138.00
2024-05-19 08:56:00.020407,0,-4,-6,0,0,0,80,82,132,100,59,132.20,225,-12.00,57.00,-1010.00
2024-05-19 08:56:00.139401,0,-3,-6,0,0,0,80,82,131,100,59,132.16,225,0.00,18.00,-989.00
2024-05-19 08:56:00.224476,0,-3,-6,0,0,0,80,82,132,100,59,132.15,225,-12.00,29.00,-1024.00
2024-05-19 08:56:00.344221,0,-3,-6,0,0,0,80,82,131,100,58,132.18,225,-39.00,34.00,-991.00
2024-05-19 08:56:00.428516,-1,-3,-6,0,0,0,80,82,131,100,58,132.17,225,-21.00,26.00,-954.00
2024-05-19 08:56:00.549221,-1,-3,-6,0,0,0,80,82,131,100,58,132.21,225,-6.00,30.00,-980.00
2024-05-19 08:56:00.634133,-1,-3,-6,0,0,0,80,82,130,100,58,132.22,225,-46.00,33.00,-995.00
2024-05-19 08:56:00.683352,-1,-3,-6,0,0,0,80,82,130,100,58,132.19,225,0.00,30.00,-1017.00
2024-05-19 08:56:00.856194,0,-3,-6,0,0,0,80,82,131,100,58,132.22,226,-40.00,38.00,-1053.00
2024-05-19 08:56:00.887318,0,-3,-6,0,0,0,80,82,131,100,58,132.18,226,-4.00,44.00,-1031.00
2024-05-19 08:56:00.989489,0,-3,-6,0,0,0,80,82,131,100,58,132.20,226,42.00,26.00,-1012.00
2024-05-19 08:56:01.163390,0,-3,-6,0,0,0,80,82,131,100,58,132.15,226,-37.00,18.00,-1064.00
2024-05-19 08:56:01.193565,0,-3,-6,0,0,0,80,82,132,100,58,132.25,226,-16.00,41.00,-996.00
2024-05-19 08:56:01.368226,0,-3,-6,0,0,0,80,82,132,100,58,132.17,226,-43.00,52.00,-1006.00
2024-05-19 08:56:01.397243,0,-3,-6,0,0,0,80,82,132,100,58,132.21,226,16.00,32.00,-948.00
2024-05-19 08:56:01.573469,0,-3,-6,0,0,0,80,82,132,100,58,132.18,226,-16.00,37.00,-1039.00
2024-05-19 08:56:01.601342,0,-3,-6,0,0,0,80,82,132,100,58,132.17,226,-2.00,16.00,-1027.00
2024-05-19 08:56:01.777937,0,-3,-6,0,0,0,80,82,133,100,58,132.24,226,-3.00,22.00,-1082.00
2024-05-19 08:56:01.805316,0,-2,-6,0,0,0,80,82,133,100,58,132.30,227,3.00,24.00,-965.00
2024-05-19 08:56:01.982684,0,-2,-6,0,0,0,80,82,133,100,58,132.24,227,-22.00,48.00,-1006.00
2024-05-19 08:56:02.009408,0,-2,-6,0,0,0,80,82,133,100,58,132.13,227,-42.00,51.00,-978.00
2024-05-19 08:56:02.187651,0,-2,-6,0,0,0,80,83,133,100,58,132.15,227,-35.00,20.00,-953.00
