TS,pitch,roll,yaw,vgx,vgy,vgz,templ,temph,tof,h,bat,baro,time,agx,agy,agz
2024-05-19 08:56:45.604828,0,0,6,0,0,0,83,86,10,0,55,130.67,247,3.00,1.00,-1003.00
2024-05-19 08:56:45.665241,0,0,6,0,0,0,83,86,10,0,55,130.66,247,4.00,1.00,-1002.00
2024-05-19 08:56:45.767111,0,0,6,0,0,0,83,86,10,0,55,130.72,247,3.00,0.00,-998.00
2024-05-19 08:56:45.911829,0,0,6,0,0,0,83,86,10,0,55,130.68,247,5.00,1.00,-1002.00
2024-05-19 08:56:45.970957,0,0,6,0,0,0,83,86,10,0,55,130.70,247,5.00,1.00,-1000.00
2024-05-19 08:56:46.116515,0,0,6,0,0,0,83,86,10,0,55,130.68,247,5.00,1.00,-1000.00
2024-05-19 08:56:46.174770,0,0,6,0,0,0,83,86,10,0,55,130.60,247,3.00,2.00,-1001.00
2024-05-19 08:56:46.321601,0,0,6,0,0,0,83,86,10,0,55,130.66,247,5.00,0.00,-1001.00
2024-05-19 08:56:46.378915,0,0,6,0,0,0,84,86,10,0,55,130.68,247,3.00,1.00,-999.00
2024-05-19 08:56:46.526296,0,0,6,0,0,0,84,86,10,0,55,130.64,247,4.00,1.00,-999.00
2024-05-19 08:56:46.583027,0,0,6,0,0,0,84,86,10,0,55,130.64,247,3.00,1.00,-1001.00
2024-05-19 08:56:46.730904,0,0,6,0,0,0,84,86,10,0,55,130.67,247,4.00,1.00,-1000.00
2024-05-19 08:56:46.786880,0,0,6,0,0,0,84,86,10,0,55,130.61,247,4.00,1.00,-998.00
2024-05-19 08:56:46.935774,0,0,6,0,0,0,84,86,10,0,55,130.66,247,5.00,0.00,-1001.00
2024-05-19 08:56:46.990790,0,0,6,0,0,0,84,86,10,0,55,130.65,247,4.00,1.00,-1002.00
2024-05-19 08:56:47.140581,0,0,6,0,0,0,84,86,10,0,55,130.64,247,5.00,0.00,-999.00
2024-05-19 08:56:47.194839,0,0,6,0,0,0,84,86,10,0,55,130.61,247,4.00,3.00,-998.00
2024-05-19 08:56:47.245754,0,0,6,0,0,0,84,86,10,0,55,130.67,247,4.00,0.00,-998.00
2024-05-19 08:56:47.447819,0,0,6,0,0,0,83,86,10,0,55,130.69,247,4.00,0.00,-1000.00
2024-05-19 08:56:47.449898,0,0,6,0,0,0,83,86,10,0,55,130.68,247,4.00,0.00,-998.00
2024-05-19 08:56:47.551856,0,0,6,0,0,0,83,86,10,0,55,130.63,247,4.00,0.00,-1001.00
2024-05-19 08:56:47.754889,0,0,6,0,0,0,83,86,10,0,55,130.66,247,6.00,1.00,-999.00
2024-05-19 08:56:47.755533,0,0,6,0,0,0,83,86,10,0,55,130.65,247,4.00,1.00,-998.00
2024-05-19 08:56:47.960655,0,0,6,0,0,0,83,86,10,0,55,130.63,247,4.00,0.00,-1000.00
2024-05-19 08:56:47.960890,0,0,6,0,0,0,83,86,10,0,55,130.65,247,3.00,2.00,-1002.00
2024-05-19 08:56:48.062105,0,0,6,0,0,0,83,86,10,0,55,130.68,247,3.00,1.00,-1000.00
2024-05-19 08:56:48.165074,0,0,6,0,0,0,83,86,10,0,55,130.72,247,4.00,2.00,-1002.00
2024-05-19 08:56:48.266611,0,0,6,0,0,0,83,86,10,0,55,130.66,247,5.00,2.00,-997.00
2024-05-19 08:56:48.369463,0,0,6,0,0,0,83,86,10,0,55,130.72,247,3.00,0.00,-999.00
2024-05-19 08:56:48.469832,0,0,6,0,0,0,83,86,10,0,55,130.62,247,3.00,0.00,-1000.00
2024-05-19 08:56:48.571805,0,0,6,0,0,0,83,86,10,0,55,130.64,247,3.00,2.00,-999.00
2024-05-19 08:56:48.673692,0,0,6,0,0,0,83,86,10,0,55,130.65,247,3.00,0.00,-1001.00
2024-05-19 08:56:48.775673,0,0,6,0,0,0,83,86,10,0,55,130.64,247,3.00,8.00,-998.00
2024-05-19 08:56:48.881553,0,0,6,0,0,0,83,86,10,0,55,130.64,247,0.00,0.00,-1011.00
2024-05-19 08:56:48.979600,0,0,6,0,0,0,83,86,10,0,55,130.64,247,-15.00,3.00,-1006.00
2024-05-19 08:56:49.086106,0,0,6,0,0,0,83,86,10,0,55,130.64,247,27.00,16.00,-989.00
2024-05-19 08:56:49.183550,0,0,6,0,0,0,83,86,10,0,55,130.64,247,8.00,1.00,-1024.00
2024-05-19 08:56:49.290793,0,0,5,0,0,0,83,86,10,0,55,130.64,247,-24.00,-2.00,-1129.00
2024-05-19 08:56:49.387595,0,-1,4,0,0,-2,84,86,10,0,55,130.64,247,0.00,-22.00,-1198.00
2024-05-19 08:56:49.495630,-1,-1,4,0,0,-5,84,86,10,0,55,130.64,247,26.00,-52.00,-1331.00
2024-05-19 08:56:49.591605,0,1,5,0,0,-7,84,86,15,10,55,130.64,248,-20.00,-2.00,-1209.00
2024-05-19 08:56:49.700420,0,1,5,0,0,-8,84,86,22,20,55,131.06,248,-12.00,-9.00,-1065.00
2024-05-19 08:56:49.795600,0,2,5,0,0,-8,84,86,30,30,55,131.18,248,44.00,-34.00,-1019.00
2024-05-19 08:56:49.905295,1,2,5,0,0,-8,84,86,33,30,55,131.15,248,-29.00,-14.00,-958.00
2024-05-19 08:56:49.999706,1,1,5,0,0,-7,84,86,40,40,55,131.25,248,-26.00,5.00,-968.00
2024-05-19 08:56:50.110261,0,0,5,0,0,-6,84,86,46,50,55,131.40,248,29.00,-28.00,-881.00
2024-05-19 08:56:50.203598,0,2,5,0,0,-5,84,86,52,50,55,131.43,248,-23.00,7.00,-980.00
2024-05-19 08:56:50.314903,1,3,5,0,0,-4,84,86,56,60,55,131.37,248,-26.00,19.00,-980.00
2024-05-19 08:56:50.407604,0,2,5,0,0,-3,85,86,60,60,55,131.36,248,87.00,-8.00,-873.00
2024-05-19 08:56:50.519846,1,1,5,0,0,-2,85,86,63,60,55,131.41,248,7.00,-15.00,-869.00
2024-05-19 08:56:50.611588,1,1,5,0,0,-1,85,86,65,70,55,131.49,249,17.00,-50.00,-959.00
2024-05-19 08:56:50.724570,1,1,5,0,0,-1,85,86,66,70,55,131.56,249,21.00,-24.00,-963.00
2024-05-19 08:56:50.815676,1,1,5,0,0,-1,85,86,67,70,55,131.54,249,9.00,-23.00,-1054.00
2024-05-19 08:56:50.929292,1,1,5,0,0,-1,85,86,68,70,55,131.47,249,25.00,-38.00,-1006.00
2024-05-19 08:56:51.019585,2,1,5,0,0,-1,85,86,68,70,55,131.51,249,28.00,-30.00,-1004.00
2024-05-19 08:56:51.070896,1,1,5,0,0,-1,85,86,69,70,55,131.52,249,-25.00,-7.00,-1031.00
2024-05-19 08:56:51.236522,1,1,5,0,0,-1,85,86,70,70,55,131.52,249,-10.00,-4.00,-1022.00
2024-05-19 08:56:51.274545,1,1,5,0,0,-1,85,86,71,70,55,131.56,249,48.00,-38.00,-1024.00
2024-05-19 08:56:51.441282,1,0,5,0,0,-1,85,87,72,70,55,131.51,249,58.00,-7.00,-986.00
2024-05-19 08:56:51.478533,1,0,5,0,0,-1,85,87,73,70,55,131.47,249,24.00,-3.00,-1063.00
2024-05-19 08:56:51.646114,1,0,5,0,0,-1,85,87,74,70,55,131.53,250,44.00,-31.00,-992.00
2024-05-19 08:56:51.684170,1,1,5,0,0,-1,85,87,75,80,55,131.57,250,84.00,-16.00,-908.00
2024-05-19 08:56:51.784702,0,1,5,0,0,0,85,87,76,80,55,131.61,250,-38.00,-24.00,-966.00
2024-05-19 08:56:51.953263,0,2,5,0,0,-1,85,87,76,80,55,131.58,250,-45.00,-36.00,-1071.00
2024-05-19 08:56:51.988524,0,2,5,0,0,0,85,87,77,80,55,131.58,250,29.00,-45.00,-981.00
2024-05-19 08:56:52.158150,0,2,5,0,0,0,85,87,77,80,55,131.65,250,37.00,-45.00,-1015.00
2024-05-19 08:56:52.192732,0,2,5,0,0,0,85,87,78,80,55,131.61,250,-30.00,-27.00,-1037.00
2024-05-19 08:56:52.362967,-1,2,5,0,0,0,85,87,78,80,55,131.62,250,-13.00,-20.00,-973.00
2024-05-19 08:56:52.396507,0,2,5,0,0,0,84,87,78,80,55,131.59,250,-51.00,-6.00,-1001.00
2024-05-19 08:56:52.567728,0,2,5,0,0,0,84,87,78,80,55,131.62,250,52.00,-38.00,-969.00
2024-05-19 08:56:52.600461,0,2,5,0,0,0,84,87,77,80,55,131.65,251,3.00,-13.00,-1017.00
2024-05-19 08:56:52.772450,0,2,5,0,0,0,84,87,77,80,55,131.64,251,-32.00,-11.00,-1060.00
2024-05-19 08:56:52.804445,0,2,5,0,0,0,84,87,77,80,55,131.62,251,0.00,-21.00,-1006.00
2024-05-19 08:56:52.978988,0,2,5,0,0,0,84,87,78,80,55,131.59,251,-3.00,-41.00,-1010.00
2024-05-19 08:56:53.008475,0,2,5,0,0,0,84,87,77,80,55,131.64,251,-29.00,-39.00,-977.00
2024-05-19 08:56:53.182364,0,2,5,0,0,0,84,87,78,80,55,131.52,251,15.00,-34.00,-1003.00
2024-05-19 08:56:53.212469,0,1,5,0,0,0,84,87,78,80,55,131.60,251,-24.00,-53.00,-1021.00
2024-05-19 08:56:53.386861,0,2,5,0,0,0,84,87,78,80,55,131.67,251,-18.00,-30.00,-967.00
2024-05-19 08:56:53.416518,0,2,5,0,0,0,84,87,77,80,55,131.63,251,17.00,-47.00,-1011.00
2024-05-19 08:56:53.518511,0,3,4,0,0,0,84,87,77,80,55,131.66,251,76.00,-21.00,-863.00
2024-05-19 08:56:53.694310,1,3,4,0,0,0,84,87,77,80,55,131.64,252,38.00,-49.00,-1038.00
2024-05-19 08:56:53.722517,2,3,5,0,0,0,84,87,78,80,55,131.61,252,44.00,-33.00,-994.00
2024-05-19 08:56:53.898924,2,2,5,0,0,0,84,87,78,80,55,131.66,252,50.00,-74.00,-1059.00
2024-05-19 08:56:53.926521,2,3,5,0,0,0,84,87,79,80,55,131.66,252,22.00,-54.00,-1085.00
2024-05-19 08:56:54.103794,1,4,5,0,0,0,84,87,79,80,55,131.73,252,-3.00,-5.00,-1023.00
2024-05-19 08:56:54.130621,0,3,5,0,0,0,84,87,80,80,55,131.72,252,65.00,-53.00,-934.00
2024-05-19 08:56:54.308672,0,1,5,0,0,0,84,87,81,80,55,131.67,252,-4.00,-45.00,-968.00
2024-05-19 08:56:54.334491,0,2,5,0,0,0,84,87,81,80,55,131.71,252,9.00,-79.00,-1011.00
2024-05-19 08:56:54.513389,0,3,5,0,0,0,84,86,82,80,55,131.63,252,38.00,-82.00,-886.00
2024-05-19 08:56:54.538412,0,4,5,0,0,0,84,86,82,80,55,131.73,252,10.00,-61.00,-1094.00
2024-05-19 08:56:54.718190,0,4,5,0,0,0,84,86,83,80,55,131.69,253,-1.00,-57.00,-982.00
2024-05-19 08:56:54.742328,0,4,5,0,0,0,84,86,83,80,55,131.66,253,-8.00,-53.00,-1036.00
2024-05-19 08:56:54.922930,0,5,5,0,0,0,84,86,83,80,55,131.69,253,13.00,-82.00,-958.00
2024-05-19 08:56:54.923170,0,4,5,0,0,0,84,86,83,80,55,131.69,253,4.00,-82.00,-953.00
2024-05-19 08:56:54.997553,-1,4,5,0,0,0,84,86,82,80,55,131.67,253,22.00,-84.00,-904.00
2024-05-19 08:56:55.127857,-1,5,5,0,0,0,84,86,82,80,55,131.60,253,-1.00,-97.00,-922.00
2024-05-19 08:56:55.201378,-1,5,5,0,0,0,84,86,81,80,55,131.62,253,-44.00,-74.00,-1020.00
2024-05-19 08:56:55.332575,-2,4,5,0,0,0,84,86,82,80,55,131.74,253,-3.00,-94.00,-1006.00
2024-05-19 08:56:55.405423,-1,4,5,0,0,0,84,86,81,80,55,131.75,253,40.00,-101.00,-985.00
2024-05-19 08:56:55.507315,0,5,5,0,0,0,84,86,80,80,55,131.74,253,20.00,-54.00,-938.00
2024-05-19 08:56:55.639673,0,4,4,0,0,0,84,86,80,80,55,131.68,254,16.00,-80.00,-977.00
2024-05-19 08:56:55.711307,0,4,4,0,0,0,84,86,80,80,55,131.60,254,41.00,-32.00,-1004.00
2024-05-19 08:56:55.844525,1,4,4,0,0,0,84,86,81,80,55,131.74,254,13.00,-86.00,-1090.00
2024-05-19 08:56:55.915495,0,4,5,0,0,-2,84,86,83,80,55,131.65,254,20.00,-70.00,-1077.00
2024-05-19 08:56:56.049187,0,4,5,0,0,-3,84,86,85,80,55,131.73,254,-2.00,-67.00,-1048.00
2024-05-19 08:56:56.119577,0,4,5,0,0,-3,84,86,89,90,55,131.64,254,2.00,-55.00,-1091.00
2024-05-19 08:56:56.254032,0,4,5,0,0,-4,84,86,94,90,55,131.80,254,43.00,-105.00,-1040.00
2024-05-19 08:56:56.323312,0,4,5,0,0,-5,84,86,99,100,55,131.84,254,-25.00,-48.00,-1100.00
2024-05-19 08:56:56.458863,0,3,5,0,0,-5,84,86,104,100,55,131.87,254,38.00,-50.00,-919.00
2024-05-19 08:56:56.527499,0,3,5,0,1,-5,84,86,109,110,55,131.82,254,55.00,-50.00,-887.00
2024-05-19 08:56:56.663659,0,2,5,0,1,-5,84,86,114,110,55,131.97,255,17.00,-60.00,-1043.00
2024-05-19 08:56:56.731398,0,2,5,0,0,-5,84,86,120,120,55,131.93,255,25.00,-29.00,-1049.00
2024-05-19 08:56:56.869706,0,2,5,0,0,-5,84,86,126,120,55,132.00,255,-14.00,-10.00,-956.00
2024-05-19 08:56:56.935220,0,2,5,0,0,-5,84,86,132,130,55,132.00,255,-1.00,-28.00,-1075.00
2024-05-19 08:56:57.074225,0,2,5,0,0,-5,84,86,137,130,55,132.01,255,-37.00,-25.00,-945.00
2024-05-19 08:56:57.139074,0,2,5,0,0,-5,84,86,143,140,55,132.10,255,12.00,-76.00,-929.00
2024-05-19 08:56:57.278035,0,3,5,0,0,-4,84,86,148,140,55,132.05,255,97.00,-62.00,-814.00
2024-05-19 08:56:57.343114,0,2,5,0,0,-4,84,86,152,150,55,132.12,255,14.00,-56.00,-952.00
2024-05-19 08:56:57.445167,0,3,5,0,0,-3,84,86,156,150,55,132.21,255,-28.00,-12.00,-949.00
2024-05-19 08:56:57.585164,0,3,5,0,0,-3,84,86,160,160,55,132.28,255,45.00,-39.00,-951.00
2024-05-19 08:56:57.649506,0,2,5,0,0,-2,84,86,163,160,55,132.34,256,87.00,-25.00,-966.00
2024-05-19 08:56:57.790029,1,2,5,0,0,-2,84,86,166,160,55,132.28,256,31.00,-29.00,-926.00
2024-05-19 08:56:57.853217,1,1,5,0,0,-2,84,86,169,160,55,132.30,256,-42.00,-36.00,-1011.00
2024-05-19 08:56:57.995951,1,2,5,0,0,-1,84,86,171,170,55,132.31,256,13.00,-39.00,-970.00
2024-05-19 08:56:58.057218,0,2,5,0,0,-1,84,86,173,170,55,132.35,256,15.00,-39.00,-889.00
2024-05-19 08:56:58.159191,0,2,5,0,0,-1,84,86,175,170,55,132.38,256,6.00,-19.00,-957.00
2024-05-19 08:56:58.210150,0,3,5,0,0,-1,84,86,177,170,55,132.35,256,45.00,-77.00,-996.00
2024-05-19 08:56:58.404500,0,4,5,0,0,-1,84,86,178,170,55,132.40,256,52.00,-58.00,-1014.00
2024-05-19 08:56:58.414194,0,4,5,0,0,0,83,85,180,180,55,132.48,256,22.00,-58.00,-1075.00
2024-05-19 08:56:58.609723,0,4,5,0,0,0,83,85,183,180,55,132.52,256,-37.00,-34.00,-950.00
2024-05-19 08:56:58.618107,0,4,5,0,0,0,83,85,183,180,55,132.53,257,-24.00,-63.00,-970.00
2024-05-19 08:56:58.720204,0,4,5,0,0,0,83,85,183,180,55,132.47,257,-10.00,-78.00,-1088.00
2024-05-19 08:56:58.822304,0,3,5,0,0,0,83,85,185,180,55,132.58,257,18.00,-77.00,-963.00
2024-05-19 08:56:58.924798,-1,4,5,0,0,0,83,85,186,180,55,132.53,257,15.00,-63.00,-949.00
2024-05-19 08:56:59.027483,-1,4,5,0,0,0,83,85,186,180,55,132.49,257,58.00,-101.00,-1001.00
2024-05-19 08:56:59.129601,0,5,5,0,0,0,83,85,185,180,55,132.56,257,58.00,-79.00,-883.00
2024-05-19 08:56:59.231940,0,4,5,0,0,0,83,85,185,180,55,132.50,257,1.00,-72.00,-1034.00
2024-05-19 08:56:59.334161,0,4,5,0,0,0,83,85,185,180,55,132.52,257,21.00,-52.00,-1019.00
2024-05-19 08:56:59.436860,1,3,5,0,0,0,83,85,184,180,55,132.52,257,25.00,-64.00,-930.00
2024-05-19 08:56:59.539943,1,4,5,0,0,0,83,85,184,180,55,132.55,257,-12.00,-51.00,-1111.00
2024-05-19 08:56:59.641302,1,4,5,0,0,0,83,85,184,180,55,132.58,258,52.00,-78.00,-897.00
2024-05-19 08:56:59.743739,0,5,5,0,0,0,83,85,183,180,55,132.40,258,16.00,-54.00,-972.00
2024-05-19 08:56:59.842241,0,4,5,0,0,0,83,85,183,180,55,132.53,258,47.00,-67.00,-926.00
2024-05-19 08:57:00.042948,0,4,5,0,0,0,83,85,183,180,55,132.50,258,42.00,-49.00,-983.00
2024-05-19 08:57:00.046236,1,5,4,0,0,0,83,85,183,180,55,132.45,258,69.00,-45.00,-972.00
2024-05-19 08:57:00.148275,1,4,5,0,0,0,83,85,182,180,55,132.58,258,43.00,-63.00,-953.00
2024-05-19 08:57:00.249999,2,2,5,0,1,0,83,85,181,180,55,132.49,258,12.00,-63.00,-1000.00
2024-05-19 08:57:00.352052,3,3,5,0,0,0,83,85,181,180,55,132.41,258,20.00,-82.00,-1009.00
2024-05-19 08:57:00.454057,0,3,5,0,0,0,84,85,179,180,55,132.51,258,11.00,-64.00,-999.00
2024-05-19 08:57:00.555922,0,4,5,0,0,0,84,85,179,180,55,132.47,259,61.00,-84.00,-929.00
2024-05-19 08:57:00.759625,1,5,5,0,0,0,84,85,180,180,55,132.47,259,32.00,-75.00,-957.00
2024-05-19 08:57:00.759932,1,4,5,0,0,0,84,85,179,180,55,132.49,259,42.00,-61.00,-958.00
2024-05-19 08:57:00.862296,1,4,5,0,0,1,84,85,177,170,55,132.48,259,7.00,-50.00,-964.00
2024-05-19 08:57:00.964411,1,4,5,0,0,1,84,85,175,170,55,132.39,259,-35.00,-41.00,-991.00
2024-05-19 08:57:01.066794,1,4,5,0,0,2,84,85,174,170,55,132.40,259,32.00,-85.00,-953.00
2024-05-19 08:57:01.169393,1,5,5,0,0,2,84,85,171,170,55,132.39,259,63.00,-72.00,-977.00
2024-05-19 08:57:01.271601,1,5,5,0,0,2,84,85,169,170,55,132.33,259,59.00,-62.00,-1031.00
2024-05-19 08:57:01.371876,1,4,5,0,0,2,84,85,166,160,55,132.30,259,36.00,-71.00,-971.00
2024-05-19 08:57:01.473987,2,4,5,0,0,2,83,86,163,160,55,132.32,259,26.00,-38.00,-1105.00
2024-05-19 08:57:01.578785,3,4,5,0,0,3,83,86,161,160,55,132.28,260,70.00,-63.00,-984.00
2024-05-19 08:57:01.677952,3,4,5,0,0,2,83,86,157,150,55,132.21,260,57.00,-81.00,-1053.00
2024-05-19 08:57:01.783559,3,4,5,0,0,2,83,86,155,150,55,132.17,260,48.00,-73.00,-1028.00
2024-05-19 08:57:01.882051,3,3,5,0,0,2,83,86,151,150,55,132.14,260,75.00,-37.00,-951.00
2024-05-19 08:57:01.990256,2,3,5,0,0,2,83,86,149,150,55,132.11,260,72.00,-90.00,-1062.00
2024-05-19 08:57:02.086093,2,3,5,0,0,1,83,86,147,140,55,132.12,260,59.00,-46.00,-1066.00
2024-05-19 08:57:02.187853,2,3,5,0,0,1,83,86,145,140,55,132.13,260,26.00,-11.00,-1011.00
2024-05-19 08:57:02.295588,2,3,5,0,0,1,83,86,144,140,55,132.06,260,4.00,-35.00,-1009.00
2024-05-19 08:57:02.391853,2,3,5,0,0,1,83,86,142,140,55,131.97,260,44.00,-45.00,-987.00
2024-05-19 08:57:02.500376,2,3,5,0,0,1,83,85,141,140,55,132.04,260,46.00,-40.00,-1022.00
2024-05-19 08:57:02.595908,2,3,5,0,0,1,83,85,139,140,55,131.95,261,88.00,-81.00,-1023.00
2024-05-19 08:57:02.705134,2,2,5,0,0,1,83,85,137,140,55,132.03,261,40.00,-30.00,-980.00
2024-05-19 08:57:02.748948,2,2,5,0,0,1,83,85,136,140,55,131.99,261,41.00,-35.00,-975.00
2024-05-19 08:57:02.909934,2,2,5,0,0,0,83,85,135,130,55,131.95,261,37.00,-31.00,-1058.00
2024-05-19 08:57:02.952864,1,2,5,0,0,1,83,85,134,130,55,132.00,261,71.00,-25.00,-1011.00
2024-05-19 08:57:03.114718,1,2,5,0,0,0,83,85,133,130,55,131.97,261,93.00,-26.00,-978.00
2024-05-19 08:57:03.157121,1,2,5,0,0,0,83,85,132,130,55,131.89,261,34.00,-51.00,-924.00
2024-05-19 08:57:03.319715,2,2,5,0,0,0,83,85,132,130,55,131.88,261,8.00,-15.00,-1016.00
2024-05-19 08:57:03.360969,1,2,5,0,0,0,83,85,131,130,55,131.90,261,55.00,-64.00,-1030.00
2024-05-19 08:57:03.524623,1,2,5,0,0,0,83,86,130,130,55,131.86,261,24.00,-26.00,-997.00
2024-05-19 08:57:03.565460,1,2,5,0,0,0,83,86,130,130,55,131.88,262,53.00,-43.00,-983.00
2024-05-19 08:57:03.729337,1,2,5,0,0,0,83,86,129,130,55,131.85,262,43.00,-25.00,-991.00
2024-05-19 08:57:03.769140,2,1,5,0,0,0,83,86,130,130,55,131.95,262,-24.00,-19.00,-1148.00
2024-05-19 08:57:03.934481,1,1,5,0,0,0,83,86,129,130,55,131.92,262,57.00,-20.00,-1065.00
2024-05-19 08:57:03.972936,1,1,5,0,0,0,83,86,129,130,55,131.95,262,25.00,-13.00,-984.00
2024-05-19 08:57:04.138875,1,1,5,0,0,0,83,86,129,130,55,131.98,262,18.00,-28.00,-1046.00
2024-05-19 08:57:04.176897,1,1,5,0,0,0,83,86,129,130,55,131.94,262,63.00,-55.00,-953.00
2024-05-19 08:57:04.343811,1,1,5,0,0,0,83,86,128,130,55,131.85,262,-17.00,-22.00,-1113.00
2024-05-19 08:57:04.380970,1,1,5,0,0,0,83,86,127,130,55,131.83,262,46.00,-31.00,-1003.00
2024-05-19 08:57:04.548477,2,1,5,0,0,0,83,85,126,130,55,131.81,262,7.00,-8.00,-1041.00
2024-05-19 08:57:04.588758,1,0,5,0,0,0,83,85,125,130,55,131.85,263,35.00,9.00,-981.00
2024-05-19 08:57:04.687927,1,0,5,0,0,0,83,85,125,130,55,131.81,263,18.00,-30.00,-989.00
2024-05-19 08:57:04.859660,1,0,5,0,0,0,83,85,124,130,55,131.85,263,5.00,-33.00,-1021.00
2024-05-19 08:57:04.891922,1,0,5,0,0,0,83,85,124,130,55,131.83,263,2.00,11.00,-999.00
2024-05-19 08:57:05.060481,1,1,5,0,0,0,83,85,123,130,55,131.92,263,30.00,-44.00,-1016.00
2024-05-19 08:57:05.095832,0,1,5,0,0,0,83,85,123,130,55,131.90,263,46.00,1.00,-966.00
2024-05-19 08:57:05.197842,1,0,5,0,0,0,83,85,123,130,55,131.92,263,51.00,-18.00,-1011.00
2024-05-19 08:57:05.316456,0,1,5,0,0,0,83,85,123,130,55,131.95,263,53.00,-44.00,-993.00
2024-05-19 08:57:05.401813,-4,1,5,0,0,0,83,85,124,130,55,131.99,263,-36.00,-38.00,-1110.00
2024-05-19 08:57:05.508312,-7,2,5,1,0,0,83,85,126,130,55,131.92,263,62.00,-58.00,-1002.00
2024-05-19 08:57:05.606878,-7,2,5,2,0,0,83,85,126,130,55,131.94,264,-8.00,-33.00,-1064.00
2024-05-19 08:57:05.777186,-7,2,5,4,0,0,83,85,127,130,55,131.96,264,-7.00,-7.00,-987.00
2024-05-19 08:57:05.809754,-6,2,5,5,0,0,83,85,128,130,55,131.97,264,-44.00,8.00,-1016.00
2024-05-19 08:57:05.981981,-6,1,5,6,1,0,83,85,128,130,55,131.96,264,-4.00,-26.00,-1107.00
2024-05-19 08:57:06.013757,-5,1,5,6,1,0,83,85,129,130,55,131.96,264,0.00,-33.00,-1001.00
2024-05-19 08:57:06.186681,-4,0,5,7,1,0,83,85,129,130,55,132.05,264,23.00,-13.00,-1030.00
2024-05-19 08:57:06.217770,-2,0,5,7,1,0,83,85,130,130,55,132.05,264,29.00,-58.00,-994.00
2024-05-19 08:57:06.391560,0,0,5,7,1,0,83,85,131,130,55,132.04,264,-39.00,-16.00,-986.00
2024-05-19 08:57:06.391621,3,0,5,7,0,0,83,85,133,130,55,132.03,264,-28.00,-17.00,-1017.00
2024-05-19 08:57:06.523758,5,0,5,6,0,0,83,85,133,130,55,132.02,264,-47.00,-7.00,-1047.00
2024-05-19 08:57:06.575142,6,1,5,5,0,0,83,85,134,130,55,132.02,265,39.00,-19.00,-966.00
2024-05-19 08:57:06.698764,4,1,5,4,0,0,83,85,133,130,55,132.12,265,19.00,-29.00,-1025.00
2024-05-19 08:57:06.778683,3,1,5,3,0,0,83,85,135,130,55,132.09,265,13.00,-15.00,-1008.00
2024-05-19 08:57:06.903598,2,1,5,3,0,0,83,85,136,130,55,132.03,265,14.00,-17.00,-950.00
2024-05-19 08:57:06.982705,1,1,5,2,0,0,83,85,137,130,55,132.13,265,-26.00,-2.00,-1040.00
2024-05-19 08:57:07.108357,1,1,5,2,0,0,83,85,137,130,55,132.16,265,31.00,-12.00,-958.00
2024-05-19 08:57:07.186680,0,0,5,2,0,0,83,85,137,130,55,132.19,265,-18.00,5.00,-1037.00
2024-05-19 08:57:07.313148,0,0,5,2,0,0,83,85,138,130,55,132.15,265,17.00,12.00,-985.00
2024-05-19 08:57:07.390691,0,0,5,2,0,0,83,85,139,130,55,132.20,265,29.00,-20.00,-1019.00
2024-05-19 08:57:07.517989,1,0,5,2,0,0,82,85,139,140,55,132.12,265,-30.00,5.00,-949.00
2024-05-19 08:57:07.594658,2,0,5,2,0,0,82,85,140,140,55,132.28,266,-31.00,0.00,-1029.00
2024-05-19 08:57:07.722751,4,0,5,1,0,0,82,85,140,140,55,132.17,266,11.00,-18.00,-950.00
2024-05-19 08:57:07.798752,4,0,5,0,0,0,82,85,141,140,55,132.17,266,11.00,-11.00,-998.00
2024-05-19 08:57:07.900742,2,0,5,0,0,0,82,85,140,140,55,132.26,266,70.00,-19.00,-983.00
2024-05-19 08:57:08.030062,1,0,5,0,0,0,82,85,140,140,55,132.04,266,32.00,4.00,-1049.00
2024-05-19 08:57:08.104715,1,1,5,0,0,0,82,85,140,140,55,132.17,266,-2.00,-10.00,-1071.00
2024-05-19 08:57:08.206697,1,0,5,0,0,0,82,85,140,140,55,132.15,266,36.00,-30.00,-1010.00
2024-05-19 08:57:08.337654,0,1,5,0,0,0,82,85,139,140,55,132.14,266,39.00,11.00,-993.00
2024-05-19 08:57:08.410713,0,0,5,0,0,0,82,85,139,140,55,132.18,266,66.00,-8.00,-885.00
2024-05-19 08:57:08.542523,0,0,5,0,0,0,83,85,138,140,55,132.16,266,19.00,-45.00,-1047.00
2024-05-19 08:57:08.614675,0,0,5,0,0,0,83,85,139,140,55,132.18,267,47.00,-9.00,-929.00
2024-05-19 08:57:08.746891,0,0,5,0,0,0,83,85,139,140,55,132.12,267,-2.00,8.00,-1029.00
2024-05-19 08:57:08.818663,0,0,5,0,0,0,83,85,139,140,55,132.11,267,36.00,-23.00,-1015.00
2024-05-19 08:57:08.960008,0,0,5,0,0,0,83,85,139,140,55,132.14,267,68.00,9.00,-1033.00
2024-05-19 08:57:09.022629,0,0,5,0,0,0,83,85,138,140,55,132.20,267,27.00,17.00,-926.00
2024-05-19 08:57:09.156481,0,0,5,0,0,0,83,85,138,140,55,132.19,267,-3.00,22.00,-1036.00
2024-05-19 08:57:09.226680,0,0,5,0,0,0,83,85,138,140,55,132.14,267,-1.00,19.00,-975.00
2024-05-19 08:57:09.361601,0,-1,5,0,0,0,83,85,138,140,55,132.29,267,46.00,-26.00,-1022.00
2024-05-19 08:57:09.430670,0,-1,5,0,0,0,83,85,137,140,55,132.26,267,45.00,-2.00,-920.00
2024-05-19 08:57:09.569685,0,-1,5,0,0,0,83,85,137,130,55,132.26,267,-18.00,9.00,-1036.00
2024-05-19 08:57:09.634683,0,0,5,0,0,0,83,85,136,130,55,132.20,268,7.00,23.00,-1032.00
2024-05-19 08:57:09.770894,0,0,5,0,0,0,83,85,136,130,55,132.12,268,-31.00,2.00,-978.00
2024-05-19 08:57:09.841530,0,0,5,0,0,0,83,85,135,130,55,132.02,268,-6.00,-20.00,-1090.00
2024-05-19 08:57:09.940427,0,0,5,0,0,0,83,85,134,130,55,132.04,268,43.00,-32.00,-926.00
2024-05-19 08:57:10.077946,0,1,5,0,0,0,83,85,135,130,55,131.99,268,-1.00,-6.00,-942.00
2024-05-19 08:57:10.144553,7,2,5,0,0,0,83,85,136,130,55,132.12,268,-55.00,-9.00,-1066.00
2024-05-19 08:57:10.282741,8,2,5,-1,0,0,83,85,137,130,54,132.23,268,48.00,-29.00,-1111.00
2024-05-19 08:57:10.348536,8,1,5,-3,0,0,83,85,137,130,54,132.23,268,16.00,-18.00,-964.00
2024-05-19 08:57:10.487513,8,1,5,-4,0,0,83,85,135,130,54,132.21,268,64.00,-44.00,-1035.00
2024-05-19 08:57:10.552541,8,2,5,-5,0,0,82,85,136,130,54,132.20,268,58.00,-52.00,-1066.00
2024-05-19 08:57:10.692532,7,2,5,-7,0,0,82,85,135,130,54,132.18,269,64.00,-35.00,-1039.00
2024-05-19 08:57:10.756544,4,4,5,-7,0,0,82,85,135,130,54,132.17,269,44.00,-25.00,-997.00
2024-05-19 08:57:10.807452,4,3,5,-8,0,0,82,85,136,130,54,132.13,269,53.00,-16.00,-1080.00
2024-05-19 08:57:10.999492,1,2,5,-8,0,0,82,85,135,130,54,132.16,269,31.00,-34.00,-1045.00
2024-05-19 08:57:11.011477,-1,1,5,-8,0,0,82,85,135,130,54,132.14,269,66.00,-19.00,-945.00
2024-05-19 08:57:11.204324,-4,0,5,-7,0,0,82,85,135,130,54,132.17,269,37.00,-23.00,-987.00
2024-05-19 08:57:11.215502,-5,0,5,-6,0,0,82,85,135,130,54,132.17,269,50.00,-29.00,-981.00
2024-05-19 08:57:11.409129,-4,0,5,-5,0,0,82,85,134,130,54,132.17,269,32.00,-30.00,-970.00
2024-05-19 08:57:11.419399,-2,0,5,-4,0,0,82,85,134,130,54,132.08,269,28.00,5.00,-999.00
2024-05-19 08:57:11.613913,-1,0,5,-3,0,0,82,84,133,130,54,132.14,269,30.00,-11.00,-999.00
2024-05-19 08:57:11.623344,-1,0,5,-3,0,0,82,84,133,130,54,132.13,270,17.00,-11.00,-964.00
2024-05-19 08:57:11.818721,-1,0,5,-2,0,0,82,84,132,130,54,132.13,270,65.00,-3.00,-964.00
2024-05-19 08:57:11.827362,-2,0,5,-1,0,0,82,84,131,130,54,132.17,270,44.00,-2.00,-1051.00
2024-05-19 08:57:11.929499,-2,0,5,0,0,0,82,84,131,130,54,132.04,270,61.00,-27.00,-1031.00
2024-05-19 08:57:12.032295,0,0,5,0,0,0,82,84,130,130,54,132.09,270,41.00,-40.00,-1012.00
2024-05-19 08:57:12.134543,0,0,5,0,0,0,82,84,131,130,54,132.10,270,51.00,-18.00,-985.00
2024-05-19 08:57:12.236713,1,0,5,0,0,0,82,84,131,130,54,132.00,270,14.00,6.00,-976.00
2024-05-19 08:57:12.338947,1,1,5,0,0,0,82,84,131,130,54,132.01,270,29.00,-22.00,-1052.00
2024-05-19 08:57:12.441625,1,0,5,0,0,0,82,84,131,130,54,132.15,270,55.00,-2.00,-993.00
2024-05-19 08:57:12.543678,1,0,5,0,0,0,83,84,131,130,54,132.01,270,9.00,3.00,-1015.00
2024-05-19 08:57:12.646448,1,0,5,0,0,0,83,84,132,130,54,132.07,271,0.00,-4.00,-1001.00
2024-05-19 08:57:12.746998,1,0,5,0,0,0,83,84,133,130,54,132.05,271,3.00,19.00,-1035.00
2024-05-19 08:57:12.945164,1,0,5,0,0,0,83,84,133,130,54,132.08,271,13.00,-20.00,-1015.00
2024-05-19 08:57:12.951432,1,1,5,0,0,0,83,84,133,130,54,132.08,271,81.00,-20.00,-922.00
2024-05-19 08:57:13.150313,1,0,5,0,0,0,83,84,134,130,54,132.16,271,33.00,-7.00,-966.00
2024-05-19 08:57:13.158442,2,1,5,0,0,0,83,84,135,130,54,132.10,271,33.00,-24.00,-1015.00
2024-05-19 08:57:13.258371,2,1,5,0,0,0,83,84,134,130,54,132.05,271,42.00,-45.00,-1009.00
2024-05-19 08:57:13.358912,2,1,5,0,0,0,83,84,134,130,54,132.11,271,35.00,-29.00,-948.00
2024-05-19 08:57:13.559767,1,1,5,0,0,0,83,84,135,130,54,132.10,271,17.00,-14.00,-996.00
2024-05-19 08:57:13.562458,1,1,5,0,0,0,81,85,134,130,54,132.12,271,32.00,-23.00,-986.00
2024-05-19 08:57:13.664531,1,1,5,0,0,0,81,85,134,130,54,132.14,272,43.00,-20.00,-941.00
2024-05-19 08:57:13.766602,2,2,5,0,0,0,81,85,134,130,54,132.17,272,55.00,-32.00,-939.00
2024-05-19 08:57:13.868433,2,2,5,0,0,0,81,85,133,130,54,132.13,272,35.00,11.00,-945.00
2024-05-19 08:57:13.970406,2,1,5,0,0,0,81,85,133,130,54,132.18,272,2.00,-44.00,-1011.00
2024-05-19 08:57:14.072583,2,1,5,0,0,0,81,85,133,130,54,132.19,272,-4.00,29.00,-961.00
2024-05-19 08:57:14.276472,3,1,5,0,0,0,81,85,132,130,54,132.16,272,83.00,15.00,-925.00
2024-05-19 08:57:14.276871,3,0,5,0,0,0,81,85,133,130,53,132.14,272,48.00,-12.00,-1015.00
2024-05-19 08:57:14.328261,3,-8,5,0,0,0,81,85,132,130,53,132.10,272,69.00,-11.00,-976.00
2024-05-19 08:57:14.481110,2,-6,5,0,-2,0,81,85,131,130,53,132.01,272,17.00,-60.00,-1030.00
2024-05-19 08:57:14.583160,2,-2,5,0,-3,0,83,84,130,130,53,132.06,272,17.00,0.00,-960.00
2024-05-19 08:57:14.686336,1,0,5,0,-4,0,83,84,129,130,53,132.12,273,39.00,-1.00,-998.00
2024-05-19 08:57:14.737189,1,1,5,0,-3,0,83,84,129,130,53,132.11,273,73.00,4.00,-955.00
2024-05-19 08:57:14.837775,1,2,5,0,-3,0,83,84,129,130,53,132.06,273,9.00,-11.00,-1018.00
2024-05-19 08:57:14.993651,1,1,5,0,-2,0,83,84,130,130,53,132.21,273,81.00,-9.00,-983.00
2024-05-19 08:57:15.042689,1,0,5,0,-2,0,83,84,130,130,53,132.02,273,2.00,28.00,-1000.00
2024-05-19 08:57:15.143665,1,0,5,0,-2,0,83,84,130,130,53,132.06,273,-11.00,3.00,-1026.00
2024-05-19 08:57:15.245649,1,0,5,0,-2,0,83,84,131,130,53,132.02,273,31.00,-15.00,-995.00
2024-05-19 08:57:15.347803,1,0,5,0,-2,0,83,84,131,130,53,132.16,273,50.00,7.00,-965.00
2024-05-19 08:57:15.505083,1,0,5,0,-2,0,83,84,131,130,53,132.18,273,-23.00,20.00,-1141.00
2024-05-19 08:57:15.551261,1,0,5,0,-2,0,83,84,131,130,53,132.12,274,9.00,10.00,-1056.00
2024-05-19 08:57:15.709901,1,1,5,0,-2,0,83,84,131,130,53,132.11,274,19.00,-4.00,-1089.00
2024-05-19 08:57:15.758838,0,1,5,0,-2,0,83,84,130,130,53,132.03,274,38.00,4.00,-995.00
2024-05-19 08:57:15.857205,-2,1,5,0,-1,0,83,84,130,130,53,132.07,274,56.00,-15.00,-953.00
2024-05-19 08:57:16.017056,1,3,5,0,-1,0,83,84,129,130,53,132.10,274,39.00,-32.00,-990.00
2024-05-19 08:57:16.061183,3,4,5,0,-1,0,83,84,129,130,53,132.13,274,-5.00,13.00,-972.00
2024-05-19 08:57:16.222045,1,2,5,0,0,0,83,84,128,130,53,132.10,274,29.00,-18.00,-1071.00
2024-05-19 08:57:16.265293,1,1,5,0,0,0,83,84,128,130,53,132.14,274,29.00,-12.00,-1043.00
2024-05-19 08:57:16.426872,1,1,5,0,0,0,83,84,128,130,53,132.03,274,-8.00,-43.00,-1027.00
2024-05-19 08:57:16.469270,1,1,5,0,0,0,83,84,128,130,53,132.00,274,8.00,-1.00,-1043.00
2024-05-19 08:57:16.571660,0,1,5,0,0,0,82,84,127,130,53,131.99,275,23.00,-28.00,-989.00
2024-05-19 08:57:16.734648,0,1,4,0,0,0,82,84,127,130,53,132.03,275,38.00,-3.00,-979.00
2024-05-19 08:57:16.775170,0,1,5,0,0,0,82,84,127,130,53,131.92,275,41.00,-6.00,-982.00
2024-05-19 08:57:16.939649,0,0,5,0,0,0,82,84,126,130,53,131.96,275,-3.00,4.00,-1026.00
2024-05-19 08:57:16.979333,1,0,5,0,0,0,82,84,126,130,53,132.01,275,51.00,8.00,-1016.00
2024-05-19 08:57:17.143692,1,0,5,0,0,0,82,84,126,130,53,131.96,275,50.00,-35.00,-1039.00
2024-05-19 08:57:17.185441,2,0,5,0,0,0,82,84,125,130,53,131.98,275,70.00,-35.00,-995.00
2024-05-19 08:57:17.285279,2,0,5,0,0,0,82,84,125,130,53,131.87,275,49.00,-10.00,-995.00
2024-05-19 08:57:17.451010,2,0,5,0,0,0,82,84,125,130,53,131.96,275,9.00,21.00,-1039.00
2024-05-19 08:57:17.489255,2,0,5,0,0,0,82,84,124,130,53,132.02,275,-2.00,-11.00,-1051.00
2024-05-19 08:57:17.655930,2,0,5,0,0,0,82,84,124,130,53,131.95,276,25.00,-23.00,-916.00
2024-05-19 08:57:17.693168,1,0,5,0,0,0,82,84,124,130,53,131.91,276,67.00,-21.00,-987.00
2024-05-19 08:57:17.860405,1,1,5,0,0,0,82,84,124,130,53,132.11,276,67.00,-63.00,-989.00
2024-05-19 08:57:17.897356,2,1,5,0,0,0,82,84,124,130,53,132.03,276,28.00,-54.00,-1050.00
2024-05-19 08:57:18.065581,2,0,5,0,0,0,82,84,124,130,53,132.04,276,50.00,-37.00,-1022.00
2024-05-19 08:57:18.101126,2,0,5,0,0,0,82,84,125,130,53,132.05,276,18.00,-6.00,-1030.00
2024-05-19 08:57:18.152350,2,1,5,0,0,0,82,84,125,130,53,132.06,276,42.00,-38.00,-903.00
2024-05-19 08:57:18.254084,2,1,6,0,0,0,82,84,126,130,53,132.04,276,50.00,-17.00,-971.00
2024-05-19 08:57:18.372197,2,3,6,0,0,0,82,84,126,130,53,132.06,276,40.00,-44.00,-1003.00
2024-05-19 08:57:18.458136,2,8,6,0,0,0,82,84,128,130,53,132.10,276,76.00,-35.00,-894.00
2024-05-19 08:57:18.679428,2,8,5,0,1,0,81,84,128,130,53,132.12,277,64.00,-50.00,-941.00
2024-05-19 08:57:18.679934,3,7,6,0,2,0,81,84,128,130,53,132.11,277,67.00,-63.00,-972.00
2024-05-19 08:57:18.763924,4,6,6,0,2,0,81,84,127,130,53,132.08,277,-27.00,-34.00,-958.00
2024-05-19 08:57:18.884261,3,3,5,0,2,0,81,84,126,130,53,132.08,277,40.00,-90.00,-1031.00
2024-05-19 08:57:18.967963,0,2,5,-1,2,0,81,84,126,130,53,132.09,277,-8.00,-34.00,-1000.00
2024-05-19 08:57:19.089374,0,2,5,-1,1,0,81,84,125,130,53,132.06,277,-34.00,-72.00,-1100.00
2024-05-19 08:57:19.172937,-1,3,5,-1,1,0,81,84,125,130,53,132.00,277,13.00,-88.00,-1042.00
2024-05-19 08:57:19.274170,-1,3,5,-1,1,0,81,84,125,130,52,132.05,277,12.00,-80.00,-1074.00
2024-05-19 08:57:19.396686,-1,3,5,0,1,0,81,84,126,120,52,132.07,277,56.00,-76.00,-885.00
2024-05-19 08:57:19.479424,0,4,5,0,1,0,81,84,126,120,52,132.10,277,11.00,-38.00,-1100.00
2024-05-19 08:57:19.601038,0,4,5,0,1,0,82,84,127,120,52,131.96,278,-26.00,-43.00,-1036.00
2024-05-19 08:57:19.682019,0,4,5,0,1,0,82,84,128,130,52,132.01,278,36.00,-48.00,-992.00
2024-05-19 08:57:19.805821,0,4,5,0,1,0,82,84,130,130,52,132.14,278,17.00,-54.00,-975.00
2024-05-19 08:57:19.886227,0,4,5,0,2,0,82,84,131,130,52,132.00,278,64.00,-56.00,-1024.00
2024-05-19 08:57:20.011119,0,3,5,0,2,0,82,84,133,130,52,132.07,278,-7.00,-50.00,-983.00
2024-05-19 08:57:20.089904,0,3,5,0,3,0,82,84,133,130,52,132.13,278,14.00,-62.00,-1002.00
2024-05-19 08:57:20.215937,0,1,5,0,3,0,82,84,135,130,52,132.09,278,-3.00,-13.00,-973.00
2024-05-19 08:57:20.293957,0,0,5,0,3,0,82,84,136,130,52,132.16,278,-38.00,-26.00,-981.00
2024-05-19 08:57:20.420243,0,0,5,0,3,0,82,84,137,130,52,132.10,278,44.00,-91.00,-994.00
2024-05-19 08:57:20.497986,0,-2,5,0,3,0,82,84,138,130,52,132.00,278,6.00,-66.00,-1059.00
2024-05-19 08:57:20.625026,-3,-3,5,0,2,0,82,84,139,130,52,132.11,279,-15.00,-43.00,-1029.00
2024-05-19 08:57:20.702925,-3,-3,5,0,1,0,82,84,141,130,52,132.04,279,11.00,-52.00,-1006.00
2024-05-19 08:57:20.838333,-2,-1,5,1,0,0,82,84,142,130,52,132.12,279,0.00,-26.00,-1028.00
2024-05-19 08:57:20.906932,0,0,5,1,0,0,82,84,143,140,52,132.12,279,46.00,-31.00,-895.00
2024-05-19 08:57:21.034542,5,0,5,1,0,0,82,84,144,140,52,132.21,279,-1.00,-36.00,-938.00
2024-05-19 08:57:21.111060,2,1,5,0,0,0,82,84,145,140,52,132.12,279,39.00,-27.00,-924.00
2024-05-19 08:57:21.212931,1,1,5,0,0,0,82,84,144,140,52,132.15,279,-1.00,-13.00,-933.00
2024-05-19 08:57:21.342651,0,0,5,0,0,0,82,84,145,140,52,132.14,279,34.00,-51.00,-935.00
2024-05-19 08:57:21.417049,0,0,5,0,0,0,82,84,145,140,52,132.13,279,-19.00,-43.00,-1033.00
2024-05-19 08:57:21.549425,0,0,5,0,0,0,82,84,145,140,52,132.15,279,21.00,0.00,-996.00
2024-05-19 08:57:21.621017,0,0,5,0,0,0,82,84,145,140,52,132.19,280,25.00,-8.00,-915.00
2024-05-19 08:57:21.751856,0,0,5,0,0,0,82,84,145,140,52,132.19,280,7.00,-42.00,-970.00
2024-05-19 08:57:21.775917,0,1,5,0,0,0,82,84,146,140,52,132.19,280,28.00,-49.00,-977.00
2024-05-19 08:57:21.875959,0,1,5,0,0,0,82,84,146,140,52,132.17,280,19.00,-46.00,-1009.00
2024-05-19 08:57:22.059566,0,1,5,0,0,0,82,84,147,140,52,132.13,280,-37.00,-13.00,-985.00
2024-05-19 08:57:22.079856,0,1,5,0,0,0,82,84,146,140,52,132.15,280,39.00,-34.00,-951.00
2024-05-19 08:57:22.263665,0,1,5,0,0,0,82,84,145,140,52,132.22,280,-11.00,-28.00,-931.00
2024-05-19 08:57:22.284923,0,1,5,0,0,0,82,84,145,140,52,132.20,280,44.00,-56.00,-949.00
2024-05-19 08:57:22.468274,0,1,5,0,0,0,82,84,145,140,52,132.17,280,0.00,-33.00,-910.00
2024-05-19 08:57:22.488933,0,1,5,0,0,0,82,84,145,140,52,132.16,280,-35.00,-37.00,-1030.00
2024-05-19 08:57:22.673895,0,2,5,0,0,0,82,84,144,140,52,132.16,281,5.00,-41.00,-973.00
2024-05-19 08:57:22.692872,0,2,5,0,0,0,82,84,144,140,52,132.16,281,-18.00,-29.00,-990.00
2024-05-19 08:57:22.878067,0,2,5,0,0,0,82,84,142,140,52,132.15,281,-26.00,-37.00,-993.00
2024-05-19 08:57:22.896876,0,3,5,0,0,0,82,84,141,140,52,132.18,281,-28.00,-23.00,-985.00
2024-05-19 08:57:23.063360,0,2,5,0,0,0,82,84,141,140,52,132.16,281,-14.00,-44.00,-1013.00
2024-05-19 08:57:23.102533,-1,2,5,0,0,0,82,84,140,140,52,132.21,281,25.00,-48.00,-882.00
2024-05-19 08:57:23.204309,-1,2,6,0,0,0,82,84,139,140,52,132.10,281,14.00,-54.00,-1004.00
2024-05-19 08:57:23.304928,-1,2,12,0,0,0,82,84,137,140,52,132.01,281,-27.00,-46.00,-921.00
2024-05-19 08:57:23.492655,-1,2,18,0,0,0,82,84,136,130,52,132.01,281,-38.00,-73.00,-1061.00
2024-05-19 08:57:23.508766,-1,2,24,0,0,0,82,84,134,130,52,132.07,281,-41.00,-35.00,-994.00
2024-05-19 08:57:23.697512,-2,3,30,0,0,0,81,84,133,130,52,132.02,282,-54.00,-39.00,-1040.00
2024-05-19 08:57:23.712723,-2,2,36,0,0,0,81,84,132,130,52,131.91,282,-66.00,-2.00,-1053.00
2024-05-19 08:57:23.901792,-3,1,41,0,0,0,81,84,132,130,52,131.90,282,-48.00,-44.00,-1047.00
2024-05-19 08:57:23.916919,-4,1,47,0,0,0,81,84,132,130,52,131.97,282,-41.00,-7.00,-967.00
2024-05-19 08:57:24.106514,-3,0,53,0,0,0,81,84,132,130,52,131.85,282,-36.00,-10.00,-975.00
2024-05-19 08:57:24.120773,-4,0,59,0,0,0,81,84,132,130,52,131.84,282,-41.00,5.00,-1003.00
2024-05-19 08:57:24.222769,-4,0,64,0,0,0,81,84,132,130,51,131.91,282,-24.00,-7.00,-1013.00
2024-05-19 08:57:24.416714,-3,-1,70,0,0,0,81,84,132,130,51,131.76,282,-79.00,-9.00,-1037.00
2024-05-19 08:57:24.426721,-2,-1,75,0,0,0,81,84,131,130,51,131.86,282,-86.00,-42.00,-1083.00
2024-05-19 08:57:24.618690,-2,0,81,0,0,0,81,84,132,130,51,131.79,282,-65.00,4.00,-908.00
2024-05-19 08:57:24.630646,-3,0,86,0,0,0,82,84,133,130,51,131.82,283,-55.00,14.00,-1033.00
2024-05-19 08:57:24.823311,-3,0,92,0,0,0,82,84,133,130,51,131.84,283,-83.00,28.00,-988.00
2024-05-19 08:57:24.834637,-3,0,98,0,0,0,82,84,134,130,51,131.85,283,-17.00,-5.00,-859.00
2024-05-19 08:57:25.028878,-3,0,104,0,0,0,82,84,134,130,51,131.89,283,-63.00,6.00,-969.00
2024-05-19 08:57:25.038610,-3,0,109,0,0,0,82,84,135,130,51,131.85,283,-49.00,4.00,-965.00
2024-05-19 08:57:25.233010,-3,-1,115,0,0,0,82,84,135,130,51,131.80,283,-14.00,20.00,-924.00
2024-05-19 08:57:25.242615,-3,-1,121,0,0,0,82,84,135,130,51,131.87,283,-72.00,53.00,-984.00
2024-05-19 08:57:25.437771,-3,-1,126,0,0,0,82,84,136,130,51,131.91,283,-103.00,41.00,-1009.00
2024-05-19 08:57:25.446580,-4,-2,132,0,0,0,82,84,136,130,51,131.87,283,-54.00,31.00,-928.00
2024-05-19 08:57:25.548716,-4,-2,137,1,0,0,82,84,136,130,51,132.09,283,-74.00,56.00,-923.00
2024-05-19 08:57:25.651131,-4,-2,143,1,0,0,82,84,137,130,51,132.04,284,-51.00,34.00,-944.00
2024-05-19 08:57:25.755676,-4,-2,148,1,0,0,82,84,137,130,51,132.00,284,-97.00,42.00,-972.00
2024-05-19 08:57:25.847366,-4,-2,153,1,0,0,82,84,137,130,51,132.01,284,-40.00,42.00,-979.00
2024-05-19 08:57:25.906708,-4,-2,158,0,0,0,82,84,136,130,51,132.05,284,-95.00,57.00,-987.00
2024-05-19 08:57:26.052266,-4,-2,164,0,0,0,82,84,135,130,51,131.97,284,-53.00,108.00,-1000.00
2024-05-19 08:57:26.109612,-3,-2,169,0,0,0,82,84,135,130,51,131.89,284,-55.00,75.00,-991.00
2024-05-19 08:57:26.251943,-3,-3,175,0,0,0,82,84,135,130,51,132.01,284,-36.00,79.00,-1068.00
2024-05-19 08:57:26.313527,-2,-3,-179,0,0,0,82,84,133,130,51,131.99,284,-24.00,80.00,-990.00
2024-05-19 08:57:26.464459,0,-3,-173,0,0,0,82,84,132,130,51,132.10,284,-8.00,70.00,-978.00
2024-05-19 08:57:26.518600,0,-3,-167,0,0,0,82,84,132,130,51,132.03,284,11.00,64.00,-966.00
2024-05-19 08:57:26.666578,0,-3,-162,0,0,0,82,84,130,130,51,131.99,285,47.00,60.00,-951.00
2024-05-19 08:57:26.722649,0,-3,-156,0,0,0,82,84,130,130,51,132.05,285,-6.00,66.00,-1035.00
2024-05-19 08:57:26.871682,1,-2,-150,0,0,0,82,84,129,130,51,132.03,285,-2.00,51.00,-1034.00
2024-05-19 08:57:26.927005,1,-3,-144,0,0,0,82,84,128,130,51,131.95,285,43.00,54.00,-987.00
2024-05-19 08:57:27.076188,1,-2,-138,0,0,0,82,84,128,130,51,131.94,285,53.00,31.00,-1026.00
2024-05-19 08:57:27.130541,1,-2,-132,0,0,0,82,84,127,130,51,131.95,285,7.00,55.00,-967.00
2024-05-19 08:57:27.232448,2,-2,-126,0,0,0,82,84,127,130,51,131.98,285,28.00,32.00,-1037.00
2024-05-19 08:57:27.383318,2,-1,-120,0,0,0,82,84,127,130,51,131.98,285,19.00,48.00,-1024.00
2024-05-19 08:57:27.436907,2,-1,-114,0,0,0,82,84,126,130,51,131.85,285,52.00,46.00,-1110.00
2024-05-19 08:57:27.588157,2,0,-108,0,0,0,82,84,127,130,51,131.93,285,89.00,25.00,-978.00
2024-05-19 08:57:27.640415,2,-1,-102,0,0,0,81,83,127,130,51,131.96,286,39.00,47.00,-936.00
2024-05-19 08:57:27.792976,2,-1,-96,0,0,0,81,83,127,130,51,131.99,286,39.00,30.00,-935.00
2024-05-19 08:57:27.849121,2,0,-90,0,0,0,81,83,127,130,51,131.83,286,93.00,40.00,-942.00
2024-05-19 08:57:27.946531,2,-1,-84,0,0,0,81,83,127,130,51,131.90,286,126.00,5.00,-947.00
2024-05-19 08:57:28.102510,3,0,-78,0,0,0,81,83,128,130,51,131.95,286,58.00,55.00,-982.00
2024-05-19 08:57:28.150476,3,0,-72,0,0,0,81,83,128,130,51,131.94,286,56.00,33.00,-978.00
2024-05-19 08:57:28.252638,3,0,-66,0,0,0,81,83,129,130,50,131.96,286,156.00,3.00,-934.00
2024-05-19 08:57:28.424882,3,0,-60,0,0,0,81,83,129,130,50,131.94,286,112.00,12.00,-958.00
2024-05-19 08:57:28.459225,3,0,-54,0,0,0,81,83,130,130,50,131.85,286,53.00,18.00,-1052.00
2024-05-19 08:57:28.559297,3,0,-48,0,0,0,81,83,130,130,50,131.89,286,54.00,-31.00,-1023.00
2024-05-19 08:57:28.724282,3,1,-42,0,0,0,81,84,131,130,50,131.83,287,61.00,2.00,-911.00
2024-05-19 08:57:28.762486,2,1,-36,0,0,0,81,84,132,130,50,131.92,287,59.00,-15.00,-976.00
2024-05-19 08:57:28.919294,2,1,-30,0,0,0,81,84,133,130,50,131.87,287,17.00,-21.00,-1005.00
2024-05-19 08:57:28.968866,2,1,-24,0,0,0,81,84,133,130,50,131.88,287,70.00,-18.00,-1016.00
2024-05-19 08:57:29.069355,2,2,-18,0,0,0,81,84,133,130,50,131.89,287,16.00,-40.00,-1058.00
2024-05-19 08:57:29.170785,1,2,-12,0,0,0,81,84,133,130,50,131.94,287,71.00,-48.00,-961.00
2024-05-19 08:57:29.221972,1,2,-8,0,0,0,81,84,134,130,50,131.95,287,12.00,-34.00,-1042.00
2024-05-19 08:57:29.323517,1,2,-5,0,0,0,81,84,134,130,50,131.99,287,44.00,-56.00,-947.00
2024-05-19 08:57:29.431330,1,3,-2,0,0,0,81,84,134,130,50,131.99,287,19.00,-27.00,-936.00
2024-05-19 08:57:29.529381,1,2,0,0,0,0,81,84,134,130,50,131.92,287,17.00,-32.00,-1001.00
2024-05-19 08:57:29.691951,1,2,0,0,0,0,81,84,133,130,50,132.04,288,36.00,-47.00,-1000.00
2024-05-19 08:57:29.787934,1,2,2,0,0,0,81,84,133,130,50,132.04,288,69.00,-41.00,-905.00
2024-05-19 08:57:29.833360,1,2,2,0,0,0,81,84,134,130,50,132.10,288,28.00,-56.00,-968.00
2024-05-19 08:57:29.935524,1,2,3,0,0,0,81,84,133,130,50,132.01,288,57.00,-62.00,-986.00
2024-05-19 08:57:30.046120,1,2,3,0,0,0,81,84,133,130,50,132.00,288,10.00,-23.00,-1001.00
2024-05-19 08:57:30.139521,1,3,2,0,0,0,81,84,133,130,50,132.04,288,67.00,-15.00,-978.00
2024-05-19 08:57:30.241543,1,2,2,0,0,0,81,84,133,130,50,131.86,288,-9.00,-31.00,-989.00
2024-05-19 08:57:30.353006,2,2,3,0,0,0,81,84,133,130,50,131.94,288,61.00,-29.00,-970.00
2024-05-19 08:57:30.445661,2,1,3,0,0,0,81,84,133,130,50,132.01,288,32.00,-18.00,-1025.00
2024-05-19 08:57:30.547566,3,0,3,0,1,0,81,84,132,130,50,132.05,288,55.00,-29.00,-961.00
2024-05-19 08:57:30.660250,1,0,3,0,0,0,82,84,131,130,50,132.03,289,34.00,10.00,-983.00
2024-05-19 08:57:30.754516,2,0,3,0,0,0,82,84,131,130,50,132.01,289,39.00,1.00,-1003.00
2024-05-19 08:57:30.854888,1,0,3,0,0,0,82,84,131,130,50,131.97,289,7.00,3.00,-1004.00
2024-05-19 08:57:30.955572,1,0,3,0,0,0,82,84,130,130,50,132.04,289,51.00,-13.00,-964.00
2024-05-19 08:57:31.078435,1,0,3,0,0,0,82,84,130,130,50,131.98,289,75.00,-35.00,-1042.00
2024-05-19 08:57:31.160443,2,1,3,0,0,0,82,84,130,130,50,131.99,289,31.00,-47.00,-1028.00
2024-05-19 08:57:31.263810,2,1,3,0,0,0,82,84,130,130,50,131.94,289,0.00,-43.00,-974.00
2024-05-19 08:57:31.363489,2,2,3,0,0,0,82,84,130,130,50,131.95,289,42.00,-21.00,-1015.00
2024-05-19 08:57:31.479718,2,2,3,0,0,0,82,84,131,130,50,132.11,289,55.00,-8.00,-941.00
2024-05-19 08:57:31.567707,2,2,3,0,0,0,82,84,131,130,50,132.02,290,5.00,-49.00,-918.00
2024-05-19 08:57:31.686104,2,2,3,0,0,0,81,84,132,130,50,132.07,290,45.00,-60.00,-1008.00
2024-05-19 08:57:31.771472,2,2,3,0,0,0,81,84,133,130,50,132.04,290,28.00,-20.00,-1043.00
2024-05-19 08:57:31.888942,2,2,3,0,0,0,81,84,134,130,50,132.08,290,53.00,-51.00,-940.00
2024-05-19 08:57:31.977847,1,2,3,0,0,0,81,84,135,130,50,132.04,290,33.00,-37.00,-953.00
2024-05-19 08:57:32.077819,1,2,0,0,0,0,81,84,136,130,50,132.08,290,17.00,-30.00,-998.00
2024-05-19 08:57:32.196167,2,2,-6,0,0,0,81,84,136,130,50,132.19,290,49.00,-35.00,-988.00
2024-05-19 08:57:32.283626,2,2,-11,0,0,0,81,84,137,130,50,132.01,290,58.00,-48.00,-1032.00
2024-05-19 08:57:32.383999,3,2,-16,0,0,0,81,84,138,130,50,132.08,290,83.00,-57.00,-960.00
2024-05-19 08:57:32.485348,3,2,-21,0,0,0,81,84,138,140,50,132.04,290,87.00,-57.00,-987.00
2024-05-19 08:57:32.605601,4,2,-28,0,0,0,81,84,139,140,50,132.11,291,48.00,-14.00,-977.00
2024-05-19 08:57:32.689309,4,2,-34,0,0,0,82,83,139,140,50,132.07,291,82.00,-18.00,-972.00
2024-05-19 08:57:32.810498,5,1,-40,0,0,0,82,83,139,140,50,132.08,291,74.00,19.00,-910.00
2024-05-19 08:57:32.893767,4,0,-46,0,0,0,82,83,138,140,50,132.15,291,90.00,1.00,-946.00
2024-05-19 08:57:33.016470,4,-1,-53,0,0,0,82,83,138,140,50,132.09,291,82.00,36.00,-957.00
2024-05-19 08:57:33.097950,5,-2,-58,0,0,0,82,83,137,140,50,132.08,291,83.00,28.00,-986.00
2024-05-19 08:57:33.148182,4,-2,-64,0,0,0,82,83,138,130,50,132.18,291,52.00,19.00,-1033.00
2024-05-19 08:57:33.250351,4,-2,-69,0,0,0,82,83,137,130,50,132.19,291,44.00,39.00,-997.00
2024-05-19 08:57:33.424898,4,-4,-74,0,0,0,82,83,136,130,50,132.01,291,132.00,-12.00,-990.00
2024-05-19 08:57:33.454228,3,-2,-78,-1,0,0,82,83,137,130,50,132.17,291,35.00,6.00,-936.00
2024-05-19 08:57:33.629701,4,0,-84,-1,0,0,82,83,136,130,50,132.05,292,94.00,-20.00,-1009.00
2024-05-19 08:57:33.658258,4,1,-90,-2,0,0,81,84,136,130,50,132.02,292,57.00,-27.00,-1008.00
2024-05-19 08:57:33.834495,4,2,-96,-1,0,0,81,84,135,130,50,132.04,292,47.00,17.00,-1046.00
2024-05-19 08:57:33.862333,4,1,-103,-1,0,0,81,84,135,130,50,132.07,292,32.00,36.00,-992.00
2024-05-19 08:57:34.039306,3,0,-109,0,0,0,81,84,135,130,50,131.98,292,-1.00,50.00,-1011.00
2024-05-19 08:57:34.066185,1,-1,-115,0,0,0,81,84,135,130,50,132.11,292,11.00,13.00,-1035.00
2024-05-19 08:57:34.244101,1,-2,-120,0,0,0,81,84,135,130,50,132.25,292,31.00,-3.00,-991.00
2024-05-19 08:57:34.270149,0,-2,-124,0,0,0,81,84,135,130,49,132.27,292,-5.00,24.00,-960.00
2024-05-19 08:57:34.448909,1,-1,-128,-1,0,0,81,84,136,130,49,132.04,292,49.00,-2.00,-999.00
2024-05-19 08:57:34.474153,2,0,-133,-1,0,0,81,84,135,130,49,132.03,292,61.00,3.00,-997.00
2024-05-19 08:57:34.576188,2,0,-139,-1,0,0,81,84,137,130,49,132.01,293,98.00,-8.00,-996.00
2024-05-19 08:57:34.756104,3,0,-145,-1,0,0,81,84,137,130,49,132.02,293,9.00,69.00,-1027.00
2024-05-19 08:57:34.780155,3,0,-152,0,0,0,81,84,138,130,49,132.14,293,20.00,54.00,-1115.00
2024-05-19 08:57:34.971564,2,-1,-159,0,0,0,81,84,139,130,49,132.04,293,-36.00,32.00,-1060.00
2024-05-19 08:57:34.984318,1,-2,-165,0,0,0,81,84,138,130,49,132.05,293,-17.00,59.00,-1011.00
2024-05-19 08:57:35.165700,0,-3,-171,0,0,0,81,84,139,130,49,132.29,293,12.00,27.00,-1010.00
2024-05-19 08:57:35.188136,0,-2,-175,0,0,0,81,84,139,140,49,132.51,293,-9.00,44.00,-974.00
2024-05-19 08:57:35.290175,1,0,-179,0,0,0,81,84,139,140,49,132.23,293,71.00,28.00,-914.00
2024-05-19 08:57:35.472869,2,0,176,0,0,0,81,84,139,140,49,132.27,293,46.00,41.00,-950.00
2024-05-19 08:57:35.496690,1,-2,171,0,0,0,81,84,138,130,49,132.22,293,-16.00,69.00,-1012.00
2024-05-19 08:57:35.597177,0,-2,166,0,0,0,81,84,137,130,49,132.27,294,-65.00,81.00,-1034.00
2024-05-19 08:57:35.698446,0,-2,161,0,0,0,81,83,137,130,49,132.22,294,34.00,63.00,-1023.00
2024-05-19 08:57:35.882783,0,-2,155,0,0,0,81,83,135,130,49,132.07,294,-8.00,58.00,-1010.00
2024-05-19 08:57:35.902082,0,-2,148,0,0,0,81,83,136,130,49,132.05,294,-46.00,64.00,-1002.00
2024-05-19 08:57:36.087288,0,-2,142,0,0,0,81,83,136,130,49,131.98,294,10.00,45.00,-941.00
2024-05-19 08:57:36.110667,0,-3,135,0,0,0,81,83,136,130,49,132.01,294,-25.00,21.00,-1049.00
2024-05-19 08:57:36.211201,-2,-2,128,0,0,0,81,83,137,130,49,132.07,294,-84.00,39.00,-1095.00
2024-05-19 08:57:36.310252,-2,-1,122,0,0,0,81,83,138,130,49,131.98,294,-53.00,8.00,-1039.00
2024-05-19 08:57:36.412083,-2,0,115,1,0,0,81,83,139,130,49,132.15,294,-51.00,20.00,-1028.00
2024-05-19 08:57:36.599299,-1,1,109,1,0,0,81,83,140,140,49,132.32,294,-20.00,0.00,-945.00
2024-05-19 08:57:36.616073,-1,2,103,0,0,0,81,83,140,140,49,132.10,295,-72.00,17.00,-996.00
2024-05-19 08:57:36.803955,-1,1,97,0,0,0,81,83,141,140,49,132.08,295,-48.00,15.00,-1007.00
2024-05-19 08:57:36.820044,-2,1,90,0,0,0,81,83,141,140,49,132.18,295,-34.00,-10.00,-994.00
2024-05-19 08:57:37.008899,-2,1,83,0,0,0,81,83,142,140,49,132.03,295,-20.00,-36.00,-903.00
2024-05-19 08:57:37.008967,-1,2,76,0,0,0,81,83,142,140,49,132.01,295,-46.00,-47.00,-1027.00
2024-05-19 08:57:37.075000,-1,2,69,0,0,0,81,83,142,140,49,132.00,295,16.00,27.00,-927.00
2024-05-19 08:57:37.216014,0,2,62,0,0,0,81,83,141,140,49,132.11,295,6.00,-39.00,-986.00
2024-05-19 08:57:37.279026,0,2,54,0,0,0,81,83,141,140,49,132.15,295,20.00,-25.00,-987.00
2024-05-19 08:57:37.420189,1,2,47,0,0,0,81,83,139,140,49,131.97,295,-25.00,-15.00,-1028.00
2024-05-19 08:57:37.488677,0,2,39,0,0,0,81,83,138,140,49,132.00,295,-47.00,-24.00,-1136.00
2024-05-19 08:57:37.586624,1,2,32,0,0,0,81,83,137,140,49,132.04,296,35.00,-39.00,-887.00
2024-05-19 08:57:37.687151,1,1,26,0,0,0,80,82,135,130,49,132.16,296,8.00,-33.00,-995.00
2024-05-19 08:57:37.859418,1,0,20,0,0,0,80,82,133,130,49,132.42,296,-5.00,-11.00,-1144.00
2024-05-19 08:57:37.891002,0,0,17,0,0,0,80,82,131,130,49,132.10,296,-18.00,-31.00,-1047.00
2024-05-19 08:57:38.032904,0,0,14,0,0,0,80,82,131,130,49,132.05,296,9.00,-49.00,-980.00
2024-05-19 08:57:38.094980,0,0,11,0,0,0,80,82,129,130,49,132.04,296,24.00,-22.00,-947.00
2024-05-19 08:57:38.237653,0,1,9,0,0,0,80,82,128,130,49,131.99,296,31.00,-58.00,-1020.00
2024-05-19 08:57:38.298944,0,2,8,0,0,0,80,82,126,130,49,132.08,296,7.00,-32.00,-1073.00
2024-05-19 08:57:38.442442,0,3,6,0,0,0,80,82,127,130,49,131.98,296,-49.00,-10.00,-1084.00
2024-05-19 08:57:38.503272,0,3,6,0,0,0,80,82,126,130,49,132.04,296,-1.00,-15.00,-1052.00
2024-05-19 08:57:38.647275,0,2,6,0,0,0,80,82,125,130,49,132.08,297,-2.00,-2.00,-1016.00
2024-05-19 08:57:38.706950,0,2,6,0,0,0,81,83,125,130,49,132.00,297,8.00,-20.00,-989.00
2024-05-19 08:57:38.852043,0,2,5,0,0,0,81,83,125,130,49,131.97,297,37.00,-46.00,-1027.00
2024-05-19 08:57:38.913179,0,2,5,0,0,0,81,83,125,130,49,131.96,297,-5.00,-12.00,-1050.00
2024-05-19 08:57:39.012959,0,2,5,0,0,0,81,83,125,130,49,132.00,297,-21.00,-48.00,-1062.00
2024-05-19 08:57:39.159459,0,2,5,0,0,0,81,83,126,130,49,131.96,297,-13.00,-40.00,-1081.00
2024-05-19 08:57:39.217025,0,2,5,0,0,0,81,83,125,130,49,131.97,297,8.00,-30.00,-942.00
2024-05-19 08:57:39.364109,0,2,4,0,0,0,81,83,126,130,49,131.88,297,7.00,-21.00,-1027.00
2024-05-19 08:57:39.420879,0,2,4,0,0,0,81,83,127,130,49,131.92,297,-2.00,-32.00,-1028.00
2024-05-19 08:57:39.568918,0,2,4,0,0,0,81,83,127,130,49,131.94,297,-8.00,-17.00,-1008.00
2024-05-19 08:57:39.625029,0,2,4,0,0,0,81,83,127,130,49,131.98,298,74.00,-46.00,-932.00
2024-05-19 08:57:39.774509,0,1,4,0,0,0,81,83,128,130,49,131.99,298,-40.00,-15.00,-915.00
2024-05-19 08:57:39.829136,0,1,4,0,0,0,81,83,128,130,49,131.97,298,-37.00,-26.00,-973.00
2024-05-19 08:57:39.978568,0,1,4,0,0,0,81,83,129,130,49,132.08,298,8.00,-17.00,-958.00
2024-05-19 08:57:40.032963,0,1,5,0,0,0,81,83,129,130,49,131.94,298,-4.00,-36.00,-954.00
2024-05-19 08:57:40.184066,-1,1,4,0,0,0,81,83,130,130,49,131.97,298,-36.00,-16.00,-900.00
2024-05-19 08:57:40.236961,0,2,4,0,0,0,81,83,130,130,48,132.03,298,40.00,-41.00,-1040.00
2024-05-19 08:57:40.388082,0,2,4,0,0,0,81,83,130,130,48,132.03,298,-21.00,-48.00,-1144.00
2024-05-19 08:57:40.443704,0,2,4,0,0,0,81,83,131,130,48,132.07,298,-4.00,-7.00,-1009.00
2024-05-19 08:57:40.493013,0,1,4,0,0,0,81,83,131,130,48,132.02,298,29.00,-38.00,-993.00
2024-05-19 08:57:40.594018,0,1,4,0,0,0,81,83,131,130,48,132.03,299,30.00,-26.00,-993.00
2024-05-19 08:57:40.797711,0,1,4,0,0,0,81,83,131,130,48,132.04,299,-12.00,-39.00,-1102.00
2024-05-19 08:57:40.848987,0,1,4,0,0,0,81,83,132,130,48,131.97,299,-27.00,-36.00,-1010.00
2024-05-19 08:57:40.950927,0,1,4,0,0,0,81,83,132,130,48,132.07,299,3.00,-30.00,-949.00
2024-05-19 08:57:41.002983,0,1,4,0,0,0,81,83,132,130,48,132.13,299,24.00,-41.00,-1030.00
2024-05-19 08:57:41.106083,0,1,4,0,0,0,81,83,132,130,48,132.13,299,4.00,-35.00,-968.00
2024-05-19 08:57:41.207062,0,1,4,0,0,0,81,83,132,130,48,132.19,299,3.00,-12.00,-909.00
2024-05-19 08:57:41.309573,0,1,4,0,0,0,81,83,132,130,48,132.19,299,-20.00,-9.00,-1037.00
2024-05-19 08:57:41.412075,0,1,4,0,0,0,81,83,132,130,48,132.09,299,41.00,-39.00,-977.00
2024-05-19 08:57:41.514461,0,1,4,0,0,0,81,83,132,130,48,132.11,299,4.00,-12.00,-1027.00
2024-05-19 08:57:41.615160,0,1,4,0,0,0,81,83,132,130,48,132.10,300,23.00,-25.00,-951.00
2024-05-19 08:57:41.717000,0,0,4,0,0,0,81,83,132,130,48,132.02,300,64.00,-7.00,-971.00
2024-05-19 08:57:41.823123,0,0,4,0,0,0,81,83,133,130,48,131.94,300,38.00,-22.00,-1038.00
2024-05-19 08:57:41.920954,1,0,4,0,0,0,81,83,134,130,48,132.11,300,-2.00,-6.00,-992.00
2024-05-19 08:57:42.026701,1,1,4,0,0,0,81,83,136,130,48,132.05,300,3.00,-8.00,-988.00
2024-05-19 08:57:42.124826,2,0,5,0,0,0,81,83,138,130,48,132.18,300,38.00,0.00,-953.00
2024-05-19 08:57:42.231328,2,0,5,0,0,0,81,83,138,130,48,132.08,300,45.00,-37.00,-1011.00
2024-05-19 08:57:42.328846,2,0,5,0,0,0,81,83,140,130,48,132.10,300,1.00,-3.00,-1011.00
2024-05-19 08:57:42.437617,2,1,4,0,0,0,81,83,141,140,48,132.08,300,39.00,-44.00,-980.00
2024-05-19 08:57:42.534264,3,2,4,0,0,0,81,83,141,140,48,132.13,300,48.00,-32.00,-981.00
2024-05-19 08:57:42.634828,3,2,5,1,0,0,81,83,141,140,48,132.07,301,52.00,-25.00,-1041.00
2024-05-19 08:57:42.743659,4,1,5,0,0,0,81,83,140,140,48,132.05,301,76.00,-11.00,-952.00
2024-05-19 08:57:42.838800,3,1,5,0,0,0,81,83,140,140,48,132.12,301,37.00,-38.00,-1120.00
2024-05-19 08:57:42.948114,3,1,4,0,0,0,81,83,139,140,48,132.01,301,70.00,-26.00,-992.00
2024-05-19 08:57:43.042782,3,1,4,0,0,0,81,83,138,140,48,132.04,301,51.00,20.00,-980.00
2024-05-19 08:57:43.152974,3,1,5,0,0,0,81,83,137,140,48,132.05,301,95.00,-28.00,-967.00
2024-05-19 08:57:43.246871,3,0,5,0,0,0,81,83,136,140,48,132.07,301,41.00,-20.00,-1013.00
2024-05-19 08:57:43.357599,3,0,5,0,0,0,81,83,133,140,48,132.00,301,49.00,-70.00,-1086.00
2024-05-19 08:57:43.451076,3,1,5,0,0,0,81,83,132,130,48,132.01,301,64.00,-21.00,-1014.00
2024-05-19 08:57:43.562735,3,2,5,0,0,0,81,83,130,130,48,131.99,301,87.00,-15.00,-981.00
2024-05-19 08:57:43.654899,3,1,5,0,0,0,81,83,129,130,48,132.03,302,33.00,-6.00,-1053.00
2024-05-19 08:57:43.767258,3,1,5,0,0,0,81,83,127,130,48,131.90,302,87.00,-42.00,-1003.00
2024-05-19 08:57:43.858756,3,1,5,0,0,0,81,83,125,130,48,131.98,302,42.00,-18.00,-981.00
2024-05-19 08:57:43.960773,3,1,5,0,0,0,81,83,124,130,48,131.97,302,51.00,-10.00,-1022.00
2024-05-19 08:57:44.076121,4,1,5,0,0,0,81,83,122,130,48,131.90,302,40.00,-58.00,-1045.00
2024-05-19 08:57:44.168873,3,1,5,0,0,0,81,83,121,130,48,131.95,302,-2.00,-29.00,-1127.00
2024-05-19 08:57:44.268536,2,2,5,0,0,0,81,83,121,120,48,131.79,302,39.00,-40.00,-1081.00
2024-05-19 08:57:44.368702,2,2,5,0,0,0,81,83,121,120,48,131.84,302,57.00,-59.00,-1070.00
2024-05-19 08:57:44.419722,2,2,5,0,0,0,81,83,121,120,48,131.83,302,31.00,-25.00,-1010.00
2024-05-19 08:57:44.521954,2,2,5,0,0,0,81,83,121,120,48,131.95,302,73.00,-40.00,-1005.00
2024-05-19 08:57:44.689442,2,2,5,0,0,0,81,83,121,120,48,131.86,303,10.00,-8.00,-1008.00
2024-05-19 08:57:44.725740,2,2,5,0,0,0,81,84,121,120,48,131.92,303,31.00,-47.00,-986.00
2024-05-19 08:57:44.893690,2,3,5,0,0,0,81,84,121,120,48,131.90,303,49.00,-25.00,-947.00
2024-05-19 08:57:44.929778,3,3,5,0,0,0,81,84,123,120,48,131.89,303,37.00,-36.00,-1017.00
2024-05-19 08:57:45.098512,3,3,5,0,0,0,81,84,124,130,48,131.89,303,112.00,-20.00,-952.00
2024-05-19 08:57:45.133593,3,2,5,0,0,0,81,84,124,130,48,131.93,303,63.00,-40.00,-1043.00
2024-05-19 08:57:45.305324,3,2,5,0,0,0,81,84,125,130,48,131.93,303,35.00,-13.00,-962.00
2024-05-19 08:57:45.337633,3,2,5,0,0,0,81,84,126,130,48,131.84,303,10.00,-34.00,-1026.00
2024-05-19 08:57:45.508068,3,2,5,0,0,0,81,84,127,130,48,131.90,303,18.00,-22.00,-992.00
2024-05-19 08:57:45.541719,3,2,5,0,0,0,81,84,127,130,48,131.89,303,53.00,-33.00,-1055.00
2024-05-19 08:57:45.712952,3,2,5,0,0,0,81,84,128,130,48,131.85,304,22.00,-21.00,-982.00
2024-05-19 08:57:45.747786,3,2,5,0,0,0,82,83,129,130,48,131.89,304,27.00,-33.00,-975.00
2024-05-19 08:57:45.847861,3,2,5,0,0,0,82,83,129,130,48,131.88,304,77.00,-34.00,-1072.00
2024-05-19 08:57:46.024683,3,1,5,0,0,0,82,83,130,130,48,131.90,304,57.00,-56.00,-1059.00
2024-05-19 08:57:46.051619,4,1,5,0,0,0,82,83,131,130,48,131.97,304,36.00,-41.00,-1002.00
2024-05-19 08:57:46.224944,4,2,5,0,0,0,82,83,131,130,48,131.94,304,65.00,-39.00,-993.00
2024-05-19 08:57:46.255821,4,2,5,0,0,0,82,83,131,130,48,131.96,304,83.00,-48.00,-967.00
2024-05-19 08:57:46.429720,4,2,5,0,0,0,82,83,132,130,48,131.95,304,36.00,-39.00,-1030.00
2024-05-19 08:57:46.459670,4,2,5,0,0,0,82,83,133,130,48,131.92,304,70.00,-53.00,-1012.00
2024-05-19 08:57:46.561593,4,2,5,0,0,0,82,83,134,130,48,131.98,304,65.00,-31.00,-1015.00
2024-05-19 08:57:46.736922,4,2,5,0,0,0,82,83,134,130,48,131.97,305,68.00,-18.00,-924.00
2024-05-19 08:57:46.765566,3,1,5,0,0,0,81,84,135,130,48,131.92,305,83.00,-46.00,-999.00
2024-05-19 08:57:46.943219,3,1,5,0,0,0,81,84,134,130,48,131.95,305,19.00,-16.00,-1049.00
2024-05-19 08:57:46.973267,3,2,5,0,0,0,81,84,134,130,48,132.02,305,53.00,-39.00,-990.00
2024-05-19 08:57:47.071625,3,2,5,0,0,0,81,84,134,130,48,131.99,305,64.00,-47.00,-981.00
2024-05-19 08:57:47.249365,3,2,5,0,0,0,81,84,134,130,48,131.94,305,2.00,-42.00,-1044.00
2024-05-19 08:57:47.275574,3,2,5,0,0,0,81,84,135,130,47,131.91,305,83.00,-15.00,-959.00
2024-05-19 08:57:47.455887,3,1,5,0,0,0,81,84,134,130,47,132.05,305,48.00,-48.00,-955.00
2024-05-19 08:57:47.479689,4,1,5,0,0,0,81,84,135,130,47,131.99,305,62.00,-20.00,-1066.00
2024-05-19 08:57:47.658482,4,2,5,0,0,0,81,84,135,130,47,132.07,306,31.00,-14.00,-1070.00
2024-05-19 08:57:47.683576,4,1,5,0,0,0,81,84,135,130,47,132.04,306,61.00,-50.00,-1031.00
2024-05-19 08:57:47.812722,4,2,5,0,0,0,81,84,135,130,47,132.09,306,75.00,-65.00,-998.00
2024-05-19 08:57:47.887574,5,3,5,0,0,0,81,84,135,130,47,132.00,306,105.00,-44.00,-985.00
2024-05-19 08:57:48.068196,6,2,5,0,0,0,81,84,135,130,47,132.05,306,143.00,-62.00,-891.00
2024-05-19 08:57:48.094396,6,2,5,0,0,0,81,84,135,130,47,132.17,306,84.00,-56.00,-998.00
2024-05-19 08:57:48.193417,6,2,5,0,0,0,81,84,135,130,47,132.05,306,123.00,-51.00,-946.00
2024-05-19 08:57:48.244826,7,2,5,0,0,0,81,84,133,130,47,132.01,306,116.00,-54.00,-990.00
2024-05-19 08:57:48.346460,6,2,5,0,0,0,81,84,135,130,47,131.98,306,95.00,-10.00,-952.00
2024-05-19 08:57:48.481885,6,2,5,0,0,0,81,84,135,130,47,131.96,306,53.00,-12.00,-1022.00
2024-05-19 08:57:48.550648,6,2,5,0,0,0,81,84,134,130,47,132.02,307,98.00,-46.00,-997.00
2024-05-19 08:57:48.682492,5,1,5,0,0,0,81,84,133,130,47,131.99,307,71.00,-40.00,-986.00
2024-05-19 08:57:48.754538,4,2,5,0,0,0,81,84,134,130,47,132.09,307,86.00,-41.00,-1051.00
2024-05-19 08:57:48.887299,4,3,5,0,0,0,81,84,134,130,47,132.08,307,77.00,-11.00,-988.00
2024-05-19 08:57:48.958472,4,3,5,0,0,0,81,84,133,130,47,131.98,307,21.00,-13.00,-1113.00
2024-05-19 08:57:49.094673,4,3,5,0,0,0,81,84,134,130,47,132.00,307,90.00,-60.00,-1116.00
2024-05-19 08:57:49.163541,3,3,5,0,0,0,81,84,134,130,47,131.92,307,100.00,-32.00,-935.00
2024-05-19 08:57:49.264724,4,2,5,0,0,0,81,84,135,130,47,131.99,307,80.00,-60.00,-974.00
2024-05-19 08:57:49.399355,5,2,5,0,0,0,81,84,135,130,47,132.02,307,72.00,0.00,-958.00
2024-05-19 08:57:49.468326,5,2,5,0,0,0,81,84,136,130,47,131.99,307,109.00,-56.00,-1007.00
2024-05-19 08:57:49.604105,6,2,5,0,0,0,81,84,136,130,47,131.94,308,88.00,-50.00,-979.00
2024-05-19 08:57:49.672374,6,2,5,0,0,0,81,84,136,130,47,132.08,308,61.00,-3.00,-987.00
2024-05-19 08:57:49.808798,6,2,5,0,0,0,81,84,136,130,47,132.03,308,60.00,-49.00,-1104.00
2024-05-19 08:57:49.876271,6,1,5,0,0,0,81,84,135,130,47,132.02,308,108.00,-43.00,-940.00
2024-05-19 08:57:49.978386,6,2,5,0,0,0,81,84,136,130,47,131.97,308,125.00,-63.00,-953.00
2024-05-19 08:57:50.080376,5,2,5,0,0,0,81,84,135,130,47,131.86,308,123.00,-12.00,-1016.00
2024-05-19 08:57:50.218674,6,1,5,0,0,0,81,84,134,130,47,132.03,308,76.00,-17.00,-899.00
2024-05-19 08:57:50.284584,5,1,5,0,0,0,81,84,134,130,47,132.00,308,86.00,-44.00,-961.00
2024-05-19 08:57:50.423233,6,1,5,0,0,0,81,84,133,130,47,132.08,308,79.00,-60.00,-998.00
2024-05-19 08:57:50.488667,5,1,5,0,0,0,81,84,133,130,47,131.89,308,107.00,-27.00,-1040.00
2024-05-19 08:57:50.590396,5,1,5,0,0,0,81,84,133,130,47,131.98,309,120.00,-47.00,-1042.00
2024-05-19 08:57:50.730666,5,1,5,0,0,0,81,84,132,130,47,131.89,309,68.00,-19.00,-1019.00
2024-05-19 08:57:50.794564,5,2,5,0,0,0,81,84,131,130,47,131.96,309,28.00,-8.00,-1081.00
2024-05-19 08:57:50.935611,5,1,5,0,0,0,81,84,131,130,47,131.96,309,117.00,-39.00,-923.00
2024-05-19 08:57:50.998309,4,1,5,0,0,0,81,84,131,130,47,131.81,309,102.00,-18.00,-894.00
2024-05-19 08:57:51.139992,5,2,5,0,0,0,81,84,131,130,47,131.84,309,66.00,-23.00,-927.00
2024-05-19 08:57:51.202235,5,1,5,0,0,0,81,84,131,130,47,131.89,309,111.00,-26.00,-949.00
2024-05-19 08:57:51.304331,5,1,5,0,0,0,81,84,131,130,47,131.91,309,75.00,-33.00,-1055.00
2024-05-19 08:57:51.447145,4,0,5,0,0,0,81,84,131,130,47,131.89,309,65.00,-22.00,-951.00
2024-05-19 08:57:51.508173,4,1,5,0,0,0,81,84,131,130,47,131.90,309,62.00,-27.00,-1004.00
2024-05-19 08:57:51.652049,4,0,5,0,0,0,81,84,132,130,47,131.86,310,127.00,-11.00,-1052.00
2024-05-19 08:57:51.661242,4,0,5,0,0,0,81,84,131,130,47,131.84,310,104.00,11.00,-1040.00
2024-05-19 08:57:51.856814,4,0,5,0,0,0,82,84,132,130,47,131.97,310,107.00,-12.00,-1003.00
2024-05-19 08:57:51.916332,4,0,5,0,0,0,82,84,132,130,47,131.95,310,89.00,-51.00,-1037.00
2024-05-19 08:57:51.967473,5,0,5,0,0,0,82,84,132,130,47,131.90,310,79.00,-21.00,-918.00
2024-05-19 08:57:52.163993,5,0,5,0,0,0,82,84,132,130,47,131.88,310,115.00,-33.00,-1005.00
2024-05-19 08:57:52.172469,4,0,5,0,0,0,82,84,131,130,47,131.98,310,63.00,-36.00,-1019.00
2024-05-19 08:57:52.368843,4,1,5,0,0,0,82,84,132,130,47,131.82,310,109.00,-32.00,-1010.00
2024-05-19 08:57:52.377161,4,1,5,0,0,0,82,84,132,130,47,131.95,310,93.00,11.00,-976.00
2024-05-19 08:57:52.477347,4,1,5,0,0,0,82,84,131,130,47,131.91,310,105.00,-46.00,-1003.00
2024-05-19 08:57:52.582687,4,1,5,0,0,0,82,84,132,130,47,131.83,311,33.00,29.00,-1058.00
2024-05-19 08:57:52.681676,4,1,5,0,0,0,82,84,132,130,47,131.91,311,46.00,-17.00,-1093.00
2024-05-19 08:57:52.880800,3,0,5,0,0,0,82,84,132,130,47,131.89,311,75.00,-11.00,-945.00
