TS,pitch,roll,yaw,vgx,vgy,vgz,templ,temph,tof,h,bat,baro,time,agx,agy,agz
2024-05-19 08:58:17.415890,0,0,7,0,0,0,84,86,10,0,46,130.79,316,6.00,1.00,-999.00
2024-05-19 08:58:17.559058,0,0,7,0,0,0,84,86,10,0,46,130.84,316,5.00,1.00,-1002.00
2024-05-19 08:58:17.619957,0,0,7,0,0,0,84,86,10,0,46,130.84,316,3.00,0.00,-999.00
2024-05-19 08:58:17.763993,0,0,7,0,0,0,84,86,10,0,46,130.81,316,4.00,2.00,-997.00
2024-05-19 08:58:17.823679,0,0,7,0,0,0,84,86,10,0,46,130.79,316,4.00,1.00,-1000.00
2024-05-19 08:58:17.968387,0,0,7,0,0,0,83,85,10,0,46,130.80,316,4.00,1.00,-1000.00
2024-05-19 08:58:18.028025,0,0,7,0,0,0,83,85,10,0,46,130.86,316,4.00,1.00,-998.00
2024-05-19 08:58:18.173359,0,0,7,0,0,0,83,85,10,0,46,130.81,316,5.00,2.00,-1000.00
2024-05-19 08:58:18.231739,0,0,7,0,0,0,83,85,10,0,46,130.80,316,4.00,1.00,-1000.00
2024-05-19 08:58:18.378157,0,0,7,0,0,0,83,85,10,0,46,130.80,316,5.00,2.00,-999.00
2024-05-19 08:58:18.435794,0,0,7,0,0,0,83,85,10,0,46,130.78,316,4.00,1.00,-1000.00
2024-05-19 08:58:18.537746,0,0,7,0,0,0,83,85,10,0,46,130.81,316,5.00,0.00,-999.00
2024-05-19 08:58:18.685898,0,0,7,0,0,0,83,85,10,0,46,130.82,316,6.00,0.00,-999.00
2024-05-19 08:58:18.741837,0,0,7,0,0,0,83,85,10,0,46,130.81,316,4.00,1.00,-998.00
2024-05-19 08:58:18.890325,0,0,7,0,0,0,83,85,10,0,46,130.74,316,4.00,0.00,-999.00
2024-05-19 08:58:18.945830,0,0,7,0,0,0,83,86,10,0,46,130.77,316,5.00,1.00,-997.00
2024-05-19 08:58:19.047770,0,0,7,0,0,0,83,86,10,0,46,130.73,316,5.00,2.00,-1000.00
2024-05-19 08:58:19.197360,0,0,7,0,0,0,83,86,10,0,46,130.83,316,5.00,1.00,-1000.00
2024-05-19 08:58:19.251780,0,0,7,0,0,0,83,86,10,0,46,130.79,316,6.00,0.00,-998.00
2024-05-19 08:58:19.354074,0,0,7,0,0,0,83,86,10,0,46,130.82,316,4.00,2.00,-1001.00
2024-05-19 08:58:19.510323,0,0,7,0,0,0,83,86,10,0,46,130.84,316,3.00,2.00,-998.00
2024-05-19 08:58:19.513176,0,0,7,0,0,0,83,86,10,0,46,130.86,316,6.00,2.00,-1002.00
2024-05-19 08:58:19.608727,0,0,7,0,0,0,83,86,10,0,46,130.82,316,6.00,0.00,-999.00
2024-05-19 08:58:19.811806,0,0,7,0,0,0,83,86,10,0,46,130.80,316,4.00,1.00,-1001.00
2024-05-19 08:58:19.812700,0,0,7,0,0,0,83,86,10,0,46,130.71,316,3.00,1.00,-1000.00
2024-05-19 08:58:19.915381,0,0,7,0,0,0,84,86,10,0,46,130.82,316,5.00,0.00,-1002.00
2024-05-19 08:58:20.016597,0,0,7,0,0,0,84,86,10,0,46,130.80,316,5.00,1.00,-1002.00
2024-05-19 08:58:20.118835,0,0,7,0,0,0,84,86,10,0,46,130.78,316,3.00,-1.00,-998.00
2024-05-19 08:58:20.221140,0,0,7,0,0,0,84,86,10,0,46,130.78,316,10.00,-2.00,-999.00
2024-05-19 08:58:20.323619,0,0,7,0,0,0,84,86,10,0,46,130.78,316,-3.00,0.00,-1014.00
2024-05-19 08:58:20.426299,0,0,7,0,0,0,84,86,10,0,46,130.78,316,-1.00,18.00,-999.00
2024-05-19 08:58:20.528045,0,0,7,0,0,0,84,86,10,0,46,130.78,316,39.00,-35.00,-972.00
2024-05-19 08:58:20.628567,0,0,6,0,0,0,84,86,10,0,46,130.78,316,-1.00,13.00,-994.00
2024-05-19 08:58:20.730622,0,-1,5,0,0,0,84,86,10,0,46,130.78,316,-38.00,6.00,-1149.00
2024-05-19 08:58:20.835591,1,-1,5,0,0,-1,84,86,10,0,46,130.78,316,7.00,3.00,-1332.00
2024-05-19 08:58:20.935228,-1,0,5,0,0,-4,84,87,10,0,46,130.78,316,7.00,-4.00,-1217.00
2024-05-19 08:58:21.040633,-1,0,5,0,0,-6,84,87,18,10,46,131.04,317,-40.00,-6.00,-1124.00
2024-05-19 08:58:21.138554,-1,0,5,0,0,-7,84,87,26,10,46,131.21,317,-24.00,1.00,-1019.00
2024-05-19 08:58:21.245238,-1,0,5,0,0,-8,84,87,33,20,46,131.24,317,-59.00,6.00,-990.00
2024-05-19 08:58:21.342776,-2,0,5,0,0,-7,84,87,38,30,46,131.34,317,39.00,-9.00,-820.00
2024-05-19 08:58:21.450030,-2,0,5,0,0,-7,84,87,45,30,46,131.51,317,14.00,0.00,-920.00
2024-05-19 08:58:21.546580,-2,0,5,0,0,-6,84,87,52,40,46,131.49,317,0.00,-24.00,-917.00
2024-05-19 08:58:21.654825,-2,0,5,0,0,-5,84,87,57,50,46,131.56,317,-22.00,-5.00,-927.00
2024-05-19 08:58:21.750546,-1,1,5,0,0,-4,84,87,62,50,46,131.53,317,-21.00,-14.00,-897.00
2024-05-19 08:58:21.859688,0,1,5,0,0,-3,84,87,66,50,46,131.65,317,-10.00,-32.00,-884.00
2024-05-19 08:58:21.954669,0,1,4,0,0,-2,84,87,69,60,46,131.72,317,18.00,-13.00,-944.00
2024-05-19 08:58:22.064366,0,2,4,0,0,-2,84,87,72,60,46,131.68,318,16.00,-30.00,-915.00
2024-05-19 08:58:22.158399,0,2,4,0,0,-1,84,87,74,60,46,131.78,318,-3.00,-15.00,-1087.00
2024-05-19 08:58:22.269236,1,1,4,0,0,-1,84,87,74,60,46,131.69,318,-28.00,0.00,-1071.00
2024-05-19 08:58:22.362558,0,0,5,0,0,0,84,87,75,70,46,131.78,318,-6.00,-6.00,-983.00
2024-05-19 08:58:22.474019,1,1,5,0,0,0,84,87,76,70,46,131.78,318,22.00,-12.00,-942.00
2024-05-19 08:58:22.566507,1,0,5,0,0,0,84,87,77,70,46,131.73,318,47.00,-9.00,-1014.00
2024-05-19 08:58:22.669137,1,0,5,0,0,0,84,87,77,70,46,131.68,318,3.00,13.00,-1044.00
2024-05-19 08:58:22.781414,1,1,6,0,0,0,84,87,77,70,46,131.75,318,25.00,-13.00,-941.00
2024-05-19 08:58:22.872499,1,1,5,0,0,0,84,87,78,70,46,131.81,318,31.00,-8.00,-1010.00
2024-05-19 08:58:22.985951,0,1,5,0,0,0,84,86,79,70,46,131.80,318,8.00,14.00,-987.00
2024-05-19 08:58:23.076412,0,0,5,0,0,0,84,86,79,70,46,131.81,319,20.00,18.00,-1068.00
2024-05-19 08:58:23.190863,0,0,5,0,0,0,84,86,80,70,46,131.87,319,80.00,-10.00,-1092.00
2024-05-19 08:58:23.229415,0,0,5,0,0,0,84,86,81,70,46,131.89,319,3.00,24.00,-1018.00
2024-05-19 08:58:23.395611,0,0,5,0,0,0,84,86,81,70,46,131.74,319,12.00,9.00,-1028.00
2024-05-19 08:58:23.433519,1,0,5,0,0,0,84,86,82,70,46,131.79,319,39.00,-13.00,-987.00
2024-05-19 08:58:23.600466,2,0,5,0,0,0,84,86,83,70,46,131.74,319,43.00,-35.00,-979.00
2024-05-19 08:58:23.637376,1,0,5,0,0,0,84,86,83,70,46,131.84,319,57.00,-41.00,-1004.00
2024-05-19 08:58:23.805253,0,0,5,0,0,0,84,86,83,70,46,131.81,319,34.00,-25.00,-933.00
2024-05-19 08:58:23.841508,0,2,5,0,0,0,84,86,83,70,46,131.83,319,19.00,-7.00,-918.00
2024-05-19 08:58:24.009906,1,2,5,0,0,0,85,86,83,70,46,131.86,320,-16.00,-19.00,-988.00
2024-05-19 08:58:24.045416,0,1,5,0,0,0,85,86,82,70,46,131.74,320,-23.00,-31.00,-1037.00
2024-05-19 08:58:24.164459,1,2,5,0,0,0,85,86,82,70,46,131.81,320,-5.00,-16.00,-1005.00
2024-05-19 08:58:24.249379,0,2,5,0,0,0,85,86,83,70,46,131.89,320,30.00,-49.00,-1044.00
2024-05-19 08:58:24.419544,0,2,5,0,0,0,85,86,83,70,46,131.79,320,-7.00,-24.00,-1005.00
2024-05-19 08:58:24.454223,0,2,5,0,0,0,85,86,83,70,46,131.83,320,-20.00,-60.00,-1031.00
2024-05-19 08:58:24.556485,0,3,6,0,0,0,85,86,84,70,46,131.89,320,-13.00,-61.00,-1019.00
2024-05-19 08:58:24.726853,0,2,6,0,0,0,85,86,84,70,46,131.85,320,-19.00,-3.00,-996.00
2024-05-19 08:58:24.760355,0,1,6,0,0,0,85,86,84,70,46,131.89,320,-48.00,-23.00,-991.00
2024-05-19 08:58:24.931545,0,1,6,0,0,0,85,86,84,70,46,131.82,320,25.00,-62.00,-981.00
2024-05-19 08:58:24.964356,-1,2,5,0,0,0,84,86,84,70,46,131.80,321,16.00,-50.00,-973.00
2024-05-19 08:58:25.136555,-1,3,4,0,0,0,84,86,84,70,46,131.82,321,60.00,-63.00,-998.00
2024-05-19 08:58:25.168535,0,2,5,0,0,0,84,86,85,70,46,131.83,321,20.00,-73.00,-1059.00
2024-05-19 08:58:25.341361,0,2,5,0,0,0,84,86,85,70,46,131.94,321,39.00,-45.00,-1037.00
2024-05-19 08:58:25.372518,0,3,4,0,0,0,84,86,85,80,46,131.84,321,47.00,-8.00,-809.00
2024-05-19 08:58:25.546176,0,2,4,0,0,0,84,86,86,80,46,131.96,321,40.00,-46.00,-966.00
2024-05-19 08:58:25.576470,0,1,4,0,0,0,84,86,86,80,46,131.92,321,26.00,-28.00,-1004.00
2024-05-19 08:58:25.752029,1,1,4,0,0,0,84,86,85,80,46,131.92,321,27.00,-19.00,-960.00
2024-05-19 08:58:25.780330,0,1,4,0,0,0,84,86,84,70,46,131.90,321,29.00,7.00,-995.00
2024-05-19 08:58:25.955683,0,0,4,0,0,0,84,86,83,70,46,131.73,321,-21.00,-7.00,-1016.00
2024-05-19 08:58:25.984367,0,0,4,0,0,0,84,86,82,70,46,131.93,322,47.00,-27.00,-956.00
2024-05-19 08:58:26.160401,0,0,4,0,0,0,84,86,81,70,46,131.86,322,38.00,10.00,-1010.00
2024-05-19 08:58:26.188498,1,0,4,0,1,0,84,86,80,70,46,131.74,322,15.00,0.00,-1078.00
2024-05-19 08:58:26.365530,1,0,4,0,1,0,84,86,78,70,46,131.85,322,29.00,13.00,-1042.00
2024-05-19 08:58:26.392434,2,-1,4,0,1,0,84,86,77,70,46,131.94,322,67.00,-17.00,-1009.00
2024-05-19 08:58:26.494661,3,-1,4,1,0,0,84,86,77,70,46,131.81,322,59.00,-35.00,-1048.00
2024-05-19 08:58:26.672369,3,-1,5,1,0,0,84,86,76,70,46,131.80,322,0.00,-58.00,-1194.00
2024-05-19 08:58:26.698259,3,0,5,0,0,0,84,86,75,70,46,131.71,322,50.00,-51.00,-1097.00
2024-05-19 08:58:26.749279,3,0,5,0,0,-1,84,86,76,70,46,131.86,322,14.00,15.00,-1080.00
2024-05-19 08:58:26.877283,2,0,5,0,0,-2,84,86,78,70,46,131.75,322,48.00,12.00,-1147.00
2024-05-19 08:58:27.004367,2,0,5,0,0,-3,84,86,83,70,46,131.78,323,39.00,-27.00,-1170.00
2024-05-19 08:58:27.184396,1,1,5,0,0,-4,84,86,87,80,46,131.81,323,35.00,-63.00,-1194.00
2024-05-19 08:58:27.208224,1,1,5,0,0,-5,84,86,93,80,46,131.86,323,69.00,-12.00,-1033.00
2024-05-19 08:58:27.389205,1,2,5,0,0,-6,84,86,98,90,46,131.98,323,45.00,-25.00,-1049.00
2024-05-19 08:58:27.419440,2,2,5,0,0,-6,84,86,104,90,46,132.10,323,90.00,-14.00,-983.00
2024-05-19 08:58:27.463342,3,2,5,0,0,-6,84,86,110,100,46,132.10,323,53.00,-40.00,-1023.00
2024-05-19 08:58:27.595554,4,2,5,0,0,-5,84,86,115,110,46,132.17,323,26.00,17.00,-1036.00
2024-05-19 08:58:27.669826,4,1,5,0,0,-5,84,86,122,110,46,132.21,323,62.00,-30.00,-939.00
2024-05-19 08:58:27.769146,4,1,5,0,0,-5,84,86,127,120,46,132.22,323,92.00,-17.00,-944.00
2024-05-19 08:58:27.901105,4,1,5,0,0,-5,84,86,132,120,46,132.25,323,92.00,-31.00,-990.00
2024-05-19 08:58:27.973181,4,0,5,0,0,-4,84,86,136,130,46,132.31,324,91.00,-35.00,-973.00
2024-05-19 08:58:28.105947,4,0,5,0,0,-4,84,86,142,130,46,132.26,324,52.00,-37.00,-959.00
2024-05-19 08:58:28.177327,3,1,5,0,0,-4,84,86,145,130,46,132.33,324,-2.00,-43.00,-1010.00
2024-05-19 08:58:28.315368,3,1,5,0,0,-3,84,86,149,140,46,132.38,324,27.00,-16.00,-1030.00
2024-05-19 08:58:28.383254,2,1,5,0,0,-3,84,86,153,140,46,132.34,324,22.00,-14.00,-1014.00
2024-05-19 08:58:28.483326,2,1,5,0,0,-3,84,86,155,150,46,132.39,324,60.00,-37.00,-995.00
2024-05-19 08:58:28.617953,2,1,5,0,0,-2,84,86,157,150,46,132.34,324,47.00,-47.00,-1034.00
2024-05-19 08:58:28.687303,1,1,5,0,0,-2,84,86,160,150,46,132.37,324,9.00,3.00,-934.00
2024-05-19 08:58:28.823373,1,1,5,0,0,-2,84,86,161,150,46,132.42,324,11.00,-18.00,-984.00
2024-05-19 08:58:28.891213,1,1,5,0,0,-1,84,86,163,150,46,132.45,324,19.00,-12.00,-951.00
2024-05-19 08:58:29.027523,1,1,5,0,0,-1,84,86,165,160,46,132.44,325,19.00,-5.00,-999.00
2024-05-19 08:58:29.095178,1,1,5,0,0,-1,84,86,165,160,46,132.48,325,-1.00,-36.00,-997.00
2024-05-19 08:58:29.232654,1,1,5,0,0,-1,84,86,166,160,46,132.62,325,73.00,-7.00,-1001.00
2024-05-19 08:58:29.299139,1,0,5,0,0,0,84,86,167,160,46,132.53,325,71.00,-41.00,-993.00
2024-05-19 08:58:29.401428,1,0,5,0,0,0,84,86,169,160,46,132.59,325,31.00,-17.00,-942.00
2024-05-19 08:58:29.551199,0,0,5,0,0,0,84,86,169,160,46,132.63,325,57.00,-18.00,-982.00
2024-05-19 08:58:29.605194,0,0,5,0,0,0,84,86,170,160,46,132.57,325,50.00,26.00,-1032.00
2024-05-19 08:58:29.744267,0,0,5,0,0,0,84,86,171,160,46,132.57,325,51.00,-21.00,-993.00
2024-05-19 08:58:29.809226,0,1,5,0,0,0,84,86,172,160,46,132.60,325,11.00,7.00,-980.00
2024-05-19 08:58:29.911494,0,1,5,0,0,0,84,86,173,160,46,132.66,325,-20.00,2.00,-959.00
2024-05-19 08:58:30.051724,0,0,5,0,0,0,84,85,172,160,46,132.70,326,-58.00,31.00,-1042.00
2024-05-19 08:58:30.119489,0,0,5,0,0,0,84,85,173,160,46,132.69,326,17.00,-16.00,-950.00
2024-05-19 08:58:30.217501,0,0,5,0,0,0,84,85,173,160,46,132.72,326,1.00,-15.00,-1021.00
2024-05-19 08:58:30.358659,0,0,5,0,0,0,84,85,172,160,46,132.65,326,2.00,3.00,-1020.00
2024-05-19 08:58:30.423066,0,0,5,0,0,0,84,85,173,160,46,132.65,326,10.00,14.00,-997.00
2024-05-19 08:58:30.523644,0,0,5,0,0,0,84,85,173,160,46,132.69,326,-5.00,18.00,-1017.00
2024-05-19 08:58:30.666394,0,0,5,0,0,0,84,85,173,160,46,132.66,326,-35.00,-10.00,-1077.00
2024-05-19 08:58:30.727401,0,0,5,0,0,0,84,85,173,160,46,132.60,326,13.00,-9.00,-979.00
2024-05-19 08:58:30.829130,0,0,5,0,0,0,84,85,173,160,46,132.59,326,-4.00,-7.00,-1028.00
2024-05-19 08:58:30.880141,0,0,5,0,0,0,84,85,173,160,46,132.66,326,38.00,-12.00,-983.00
2024-05-19 08:58:31.075701,0,0,5,0,0,0,83,86,172,160,46,132.67,327,68.00,-5.00,-990.00
2024-05-19 08:58:31.135066,0,0,5,0,0,0,83,86,172,160,46,132.62,327,37.00,-35.00,-985.00
2024-05-19 08:58:31.281349,0,0,5,0,0,0,83,86,172,160,46,132.67,327,11.00,-17.00,-1067.00
2024-05-19 08:58:31.289607,0,0,5,0,0,0,83,86,171,160,46,132.64,327,35.00,7.00,-977.00
2024-05-19 08:58:31.392749,0,0,5,0,0,0,83,86,171,160,46,132.61,327,35.00,-6.00,-1002.00
2024-05-19 08:58:31.494330,1,0,5,0,0,0,83,86,171,160,46,132.61,327,-20.00,-1.00,-1081.00
2024-05-19 08:58:31.595892,1,0,5,0,0,0,83,86,171,160,46,132.55,327,-24.00,-6.00,-1131.00
2024-05-19 08:58:31.699646,1,0,5,0,0,0,83,86,171,160,46,132.68,327,-19.00,-1.00,-1030.00
2024-05-19 08:58:31.798116,0,0,5,0,0,0,83,86,171,160,46,132.68,327,18.00,12.00,-987.00
2024-05-19 08:58:31.903358,1,0,5,0,0,0,83,86,170,160,46,132.59,327,17.00,3.00,-949.00
2024-05-19 08:58:32.003888,1,0,5,0,0,0,83,85,171,160,46,132.58,328,8.00,-30.00,-1093.00
2024-05-19 08:58:32.104254,0,1,5,0,0,0,83,85,171,160,46,132.62,328,-4.00,-14.00,-956.00
2024-05-19 08:58:32.206070,0,1,5,0,0,0,83,85,171,160,46,132.58,328,-15.00,0.00,-1050.00
2024-05-19 08:58:32.406671,0,1,5,0,0,0,83,85,170,160,46,132.64,328,35.00,6.00,-908.00
2024-05-19 08:58:32.409987,0,1,5,0,0,1,83,85,169,160,46,132.64,328,5.00,-25.00,-959.00
2024-05-19 08:58:32.513441,1,1,5,0,0,1,83,85,167,160,46,132.60,328,-43.00,-6.00,-910.00
2024-05-19 08:58:32.613971,1,1,5,0,0,2,83,85,165,160,46,132.55,328,31.00,-34.00,-991.00
2024-05-19 08:58:32.715835,1,1,5,0,0,2,83,85,163,150,46,132.60,328,0.00,-13.00,-904.00
2024-05-19 08:58:32.818165,1,1,5,0,0,2,83,85,160,150,46,132.55,328,-15.00,2.00,-970.00
2024-05-19 08:58:33.021064,1,1,5,0,0,2,83,85,157,150,46,132.55,328,58.00,-44.00,-970.00
2024-05-19 08:58:33.022036,0,1,5,0,0,2,83,85,154,150,46,132.52,329,-37.00,19.00,-1054.00
2024-05-19 08:58:33.124261,0,1,5,0,0,2,83,85,152,140,46,132.48,329,34.00,-4.00,-985.00
2024-05-19 08:58:33.226524,1,1,5,0,0,2,83,85,149,140,46,132.43,329,-24.00,15.00,-1037.00
2024-05-19 08:58:33.327883,1,0,5,0,0,2,83,85,146,140,46,132.45,329,12.00,18.00,-1035.00
2024-05-19 08:58:33.432529,1,0,5,0,1,2,83,85,143,140,46,132.42,329,-13.00,5.00,-1031.00
2024-05-19 08:58:33.533461,1,0,5,0,0,2,83,85,141,130,46,132.33,329,77.00,13.00,-918.00
2024-05-19 08:58:33.635217,1,0,5,0,0,2,83,85,138,130,46,132.33,329,41.00,0.00,-984.00
2024-05-19 08:58:33.737931,1,-1,5,0,0,2,83,85,136,130,46,132.34,329,-6.00,-2.00,-1042.00
2024-05-19 08:58:33.837837,1,-1,5,0,0,2,83,85,134,130,46,132.39,329,20.00,28.00,-1023.00
2024-05-19 08:58:33.942715,0,-1,5,0,0,1,83,85,132,120,46,132.27,329,49.00,-11.00,-1010.00
2024-05-19 08:58:34.042028,0,-1,5,0,0,1,83,85,131,120,46,132.28,330,3.00,39.00,-902.00
2024-05-19 08:58:34.147494,0,-1,5,0,0,1,83,85,129,120,46,132.38,330,5.00,-12.00,-1027.00
2024-05-19 08:58:34.245884,0,-1,5,0,0,1,83,85,129,120,46,132.24,330,22.00,44.00,-911.00
2024-05-19 08:58:34.352294,0,-1,5,0,0,1,83,85,127,120,46,132.30,330,27.00,2.00,-1004.00
2024-05-19 08:58:34.449930,0,-1,5,0,0,1,83,85,126,120,46,132.32,330,27.00,17.00,-1078.00
2024-05-19 08:58:34.551860,1,-1,5,0,0,0,83,85,126,120,46,132.32,330,3.00,45.00,-1097.00
2024-05-19 08:58:34.659649,1,-1,5,0,0,0,83,85,126,120,46,132.21,330,-13.00,15.00,-1054.00
2024-05-19 08:58:34.757859,1,-1,5,0,0,0,83,85,125,120,46,132.29,330,18.00,60.00,-987.00
2024-05-19 08:58:34.858252,0,-2,5,0,0,0,83,85,126,120,46,132.27,330,11.00,53.00,-1043.00
2024-05-19 08:58:34.909068,0,-1,5,0,0,0,83,85,127,120,46,132.40,330,48.00,21.00,-1078.00
2024-05-19 08:58:35.069371,0,-1,5,0,0,0,83,85,126,120,46,132.36,331,14.00,17.00,-967.00
2024-05-19 08:58:35.163901,0,0,5,0,0,0,83,85,127,120,46,132.39,331,-48.00,44.00,-1076.00
2024-05-19 08:58:35.274012,0,0,5,0,0,0,83,85,127,120,46,132.35,331,25.00,19.00,-994.00
2024-05-19 08:58:35.317242,0,0,5,0,0,0,83,85,128,120,46,132.33,331,18.00,-6.00,-957.00
2024-05-19 08:58:35.478932,0,-1,5,0,0,0,83,85,127,120,46,132.32,331,-2.00,40.00,-963.00
2024-05-19 08:58:35.521713,0,-1,5,0,0,0,83,85,128,120,46,132.32,331,7.00,15.00,-946.00
2024-05-19 08:58:35.683795,0,-1,5,0,0,0,83,85,128,120,46,132.27,331,-39.00,29.00,-1015.00
2024-05-19 08:58:35.726689,0,-1,5,0,0,0,83,85,127,120,46,132.36,331,21.00,21.00,-1012.00
2024-05-19 08:58:35.827234,0,-1,5,0,0,0,83,85,127,120,46,132.42,331,43.00,21.00,-927.00
2024-05-19 08:58:35.999842,0,-2,5,0,0,0,83,85,127,120,46,132.46,331,28.00,29.00,-891.00
2024-05-19 08:58:36.030921,0,-1,5,0,0,0,82,85,127,120,46,132.42,332,4.00,-4.00,-1067.00
2024-05-19 08:58:36.195686,0,-2,5,0,0,0,82,85,127,120,46,132.37,332,4.00,10.00,-976.00
2024-05-19 08:58:36.234884,0,-1,5,0,0,0,82,85,126,120,46,132.32,332,0.00,12.00,-1041.00
2024-05-19 08:58:36.400393,0,0,5,0,0,0,82,85,126,120,46,132.27,332,10.00,6.00,-1007.00
2024-05-19 08:58:36.438843,0,0,5,0,0,0,82,85,126,120,46,132.37,332,31.00,-14.00,-1036.00
2024-05-19 08:58:36.540902,0,0,5,0,0,0,82,85,126,120,46,132.25,332,3.00,9.00,-993.00
2024-05-19 08:58:36.707494,0,0,5,0,0,0,82,85,126,120,46,132.26,332,16.00,8.00,-984.00
2024-05-19 08:58:36.744837,-5,1,5,1,0,0,82,85,127,120,46,132.26,332,4.00,18.00,-1052.00
2024-05-19 08:58:36.846824,-7,0,5,2,0,0,82,85,128,120,46,132.25,332,48.00,20.00,-992.00
2024-05-19 08:58:37.014953,-7,0,5,3,0,0,82,85,126,120,46,132.34,332,-31.00,35.00,-936.00
2024-05-19 08:58:37.050845,-6,0,5,5,0,0,83,85,126,120,46,132.37,333,22.00,7.00,-1075.00
2024-05-19 08:58:37.219654,-5,0,5,5,1,0,83,85,125,120,46,132.36,333,7.00,17.00,-1071.00
2024-05-19 08:58:37.254853,-4,-1,5,6,1,0,83,85,125,120,45,132.30,333,-27.00,30.00,-1017.00
2024-05-19 08:58:37.425307,-4,-2,5,7,1,0,83,85,125,120,45,132.19,333,-45.00,19.00,-997.00
2024-05-19 08:58:37.458816,-4,-2,5,7,1,0,83,85,125,120,45,132.23,333,-18.00,-1.00,-924.00
2024-05-19 08:58:37.629075,-1,-3,5,7,1,0,83,85,126,120,45,132.21,333,-63.00,30.00,-1067.00
2024-05-19 08:58:37.662760,1,-2,5,7,0,0,83,85,126,120,45,132.21,333,-44.00,15.00,-1050.00
2024-05-19 08:58:37.835992,3,-1,5,6,0,0,83,85,126,120,45,132.19,333,-64.00,31.00,-1016.00
2024-05-19 08:58:37.874337,4,-1,5,5,0,0,83,85,126,120,45,132.28,333,-15.00,25.00,-936.00
2024-05-19 08:58:37.968639,3,-1,5,4,0,0,83,85,125,120,45,132.26,333,-43.00,6.00,-1047.00
2024-05-19 08:58:38.084543,1,0,5,2,0,0,83,84,125,120,45,132.32,334,0.00,23.00,-839.00
2024-05-19 08:58:38.172682,0,0,5,2,0,0,83,84,124,120,45,132.36,334,33.00,-3.00,-1003.00
2024-05-19 08:58:38.345880,0,0,5,2,0,0,83,84,124,120,45,132.40,334,6.00,10.00,-1101.00
2024-05-19 08:58:38.376867,0,-1,5,2,0,0,83,84,124,120,45,132.38,334,51.00,15.00,-955.00
2024-05-19 08:58:38.478883,0,-1,5,2,0,0,83,84,124,120,45,132.35,334,0.00,37.00,-951.00
2024-05-19 08:58:38.653090,0,-1,5,2,0,0,83,84,123,120,45,132.29,334,5.00,26.00,-1018.00
2024-05-19 08:58:38.682713,0,-1,5,2,0,0,83,84,123,110,45,132.24,334,21.00,11.00,-1023.00
2024-05-19 08:58:38.857866,0,-1,5,2,0,0,83,84,122,110,45,132.30,334,-19.00,22.00,-1011.00
2024-05-19 08:58:38.886739,0,-1,5,2,0,0,83,84,122,110,45,132.31,334,12.00,26.00,-937.00
2024-05-19 08:58:39.062672,1,0,5,2,0,0,83,84,122,110,45,132.22,335,9.00,33.00,-951.00
2024-05-19 08:58:39.090806,6,0,5,1,0,0,82,84,122,110,45,132.21,335,7.00,17.00,-1153.00
2024-05-19 08:58:39.269645,4,-1,5,0,0,0,82,84,121,110,45,132.30,335,38.00,9.00,-988.00
2024-05-19 08:58:39.269840,2,-1,5,0,0,0,82,84,121,110,45,132.29,335,34.00,18.00,-1041.00
2024-05-19 08:58:39.351380,1,-1,4,0,0,0,82,84,121,110,45,132.29,335,37.00,44.00,-1009.00
2024-05-19 08:58:39.447549,1,-1,4,0,0,0,82,84,121,110,45,132.17,335,3.00,41.00,-1016.00
2024-05-19 08:58:39.574775,0,-1,5,0,0,0,82,84,121,110,45,132.18,335,17.00,34.00,-980.00
2024-05-19 08:58:39.651561,0,-1,5,0,0,0,82,84,121,110,45,132.24,335,-4.00,41.00,-981.00
2024-05-19 08:58:39.754101,0,-2,5,0,0,0,82,84,121,110,45,132.31,335,62.00,28.00,-1010.00
2024-05-19 08:58:39.881876,0,-2,5,0,0,0,82,84,122,110,45,132.23,335,13.00,42.00,-1027.00
2024-05-19 08:58:39.957381,0,-2,5,0,0,0,82,84,122,110,45,132.17,336,-6.00,32.00,-1049.00
2024-05-19 08:58:40.086628,0,-2,5,0,0,0,82,84,123,110,45,132.22,336,19.00,20.00,-993.00
2024-05-19 08:58:40.161599,0,-1,5,0,0,0,82,84,123,120,45,132.24,336,-2.00,18.00,-958.00
2024-05-19 08:58:40.291569,0,-1,5,0,0,0,82,84,123,120,44,132.25,336,-20.00,31.00,-972.00
2024-05-19 08:58:40.365643,0,-1,5,0,0,0,82,84,123,120,44,132.19,336,-12.00,49.00,-1016.00
2024-05-19 08:58:40.467535,0,0,5,0,0,0,82,84,123,120,44,132.28,336,28.00,10.00,-1021.00
2024-05-19 08:58:40.569609,0,0,5,0,0,0,82,84,123,120,44,132.29,336,-20.00,21.00,-1062.00
2024-05-19 08:58:40.701111,0,0,5,0,0,0,82,84,123,110,44,132.15,336,11.00,3.00,-966.00
2024-05-19 08:58:40.773595,0,0,5,0,0,0,82,84,123,110,44,132.27,336,-12.00,8.00,-1020.00
2024-05-19 08:58:40.906326,0,0,5,0,0,0,82,84,123,110,44,132.30,336,2.00,22.00,-1056.00
2024-05-19 08:58:40.977601,0,0,5,0,0,0,82,84,123,110,44,132.24,337,35.00,-5.00,-964.00
2024-05-19 08:58:41.110683,0,0,5,0,0,0,81,84,123,110,44,132.18,337,2.00,24.00,-991.00
2024-05-19 08:58:41.181654,0,0,5,0,0,0,81,84,124,110,44,132.25,337,11.00,4.00,-1032.00
2024-05-19 08:58:41.286023,0,0,5,0,0,0,81,84,124,110,44,132.23,337,-11.00,24.00,-1001.00
2024-05-19 08:58:41.385408,0,-1,5,0,0,0,81,84,125,120,44,132.34,337,17.00,16.00,-969.00
2024-05-19 08:58:41.487424,5,0,5,0,0,0,81,84,126,120,44,132.30,337,-48.00,-2.00,-1042.00
2024-05-19 08:58:41.622569,8,-1,5,-1,0,0,81,84,127,120,44,132.38,337,-9.00,20.00,-998.00
2024-05-19 08:58:41.691372,8,-1,4,-3,0,0,81,84,128,120,44,132.26,337,-20.00,22.00,-1020.00
2024-05-19 08:58:41.827608,8,-1,5,-4,0,0,81,84,127,120,44,132.22,337,-10.00,41.00,-988.00
2024-05-19 08:58:41.895425,7,-1,5,-5,0,0,81,84,127,120,44,132.30,337,39.00,39.00,-1011.00
2024-05-19 08:58:42.032120,7,-1,5,-6,0,0,81,84,127,120,44,132.26,338,56.00,13.00,-1010.00
2024-05-19 08:58:42.099377,6,-1,5,-7,0,0,82,84,126,120,44,132.30,338,28.00,20.00,-1025.00
2024-05-19 08:58:42.236988,6,-1,5,-7,0,0,82,84,127,120,44,132.31,338,-2.00,2.00,-1076.00
2024-05-19 08:58:42.303351,3,-1,5,-8,0,0,82,84,126,120,44,132.24,338,89.00,-34.00,-989.00
2024-05-19 08:58:42.444238,0,0,5,-8,0,0,82,84,125,120,44,132.29,338,59.00,19.00,-900.00
2024-05-19 08:58:42.511208,-2,0,5,-7,0,0,82,84,125,120,44,132.31,338,56.00,29.00,-954.00
2024-05-19 08:58:42.610509,-4,0,5,-6,0,0,82,84,125,120,44,132.25,338,4.00,6.00,-1016.00
2024-05-19 08:58:42.748976,-4,0,5,-5,0,0,82,84,125,120,44,132.27,338,69.00,22.00,-903.00
2024-05-19 08:58:42.814525,-2,0,5,-4,0,0,82,84,125,120,44,132.23,338,-14.00,10.00,-1006.00
2024-05-19 08:58:42.865784,-1,0,5,-3,0,0,82,84,125,120,44,132.31,338,46.00,-11.00,-1016.00
2024-05-19 08:58:43.056240,0,0,5,-3,0,0,82,84,125,110,44,132.24,339,23.00,1.00,-1027.00
2024-05-19 08:58:43.069291,0,0,5,-3,0,0,82,83,126,110,44,132.27,339,56.00,-19.00,-1009.00
2024-05-19 08:58:43.260952,0,0,5,-3,0,0,82,83,126,120,44,132.31,339,10.00,13.00,-944.00
2024-05-19 08:58:43.273351,-2,-1,5,-2,0,0,82,83,127,120,43,132.19,339,60.00,0.00,-1023.00
2024-05-19 08:58:43.467768,-5,-1,5,-1,0,0,82,83,126,120,43,132.19,339,22.00,38.00,-938.00
2024-05-19 08:58:43.477382,-2,-1,5,-1,0,0,82,83,127,120,43,132.22,339,16.00,30.00,-998.00
2024-05-19 08:58:43.579565,-1,-1,5,0,0,0,82,83,128,120,43,132.33,339,53.00,9.00,-999.00
2024-05-19 08:58:43.773532,0,-1,5,0,0,0,82,83,128,120,43,132.31,339,10.00,55.00,-1021.00
2024-05-19 08:58:43.790668,0,-1,5,0,0,0,82,83,128,120,43,132.31,339,47.00,18.00,-978.00
2024-05-19 08:58:43.885432,0,-1,5,0,0,0,82,83,128,120,43,132.29,339,-16.00,23.00,-1025.00
2024-05-19 08:58:44.080317,0,-1,5,0,0,0,82,83,129,120,43,132.29,340,-10.00,27.00,-1000.00
2024-05-19 08:58:44.089440,0,-1,5,0,0,0,82,84,129,120,43,132.30,340,37.00,22.00,-1016.00
2024-05-19 08:58:44.191621,0,-1,5,0,0,0,82,84,130,120,43,132.29,340,-21.00,23.00,-1024.00
2024-05-19 08:58:44.293935,0,-1,5,0,0,0,82,84,130,120,43,132.33,340,-9.00,44.00,-1023.00
2024-05-19 08:58:44.397569,0,0,5,0,0,0,82,84,131,120,43,132.26,340,30.00,22.00,-986.00
2024-05-19 08:58:44.498692,0,0,5,0,0,0,82,84,131,120,43,132.29,340,1.00,9.00,-943.00
2024-05-19 08:58:44.600038,1,0,5,0,0,0,82,84,131,120,43,132.29,340,67.00,16.00,-886.00
2024-05-19 08:58:44.701877,1,0,5,0,0,0,82,84,132,120,43,132.31,340,-18.00,8.00,-997.00
2024-05-19 08:58:44.899535,1,0,5,0,0,0,82,84,133,120,43,132.32,340,48.00,0.00,-953.00
2024-05-19 08:58:44.905917,1,0,5,0,0,0,82,84,133,120,43,132.27,340,-4.00,40.00,-924.00
2024-05-19 08:58:45.104302,1,0,5,0,0,0,82,84,133,120,43,132.27,341,32.00,4.00,-1028.00
2024-05-19 08:58:45.113746,1,0,5,0,0,0,82,85,133,120,43,132.29,341,24.00,-7.00,-1105.00
2024-05-19 08:58:45.211392,1,0,5,0,0,0,82,85,134,120,42,132.28,341,-32.00,16.00,-991.00
2024-05-19 08:58:45.411685,1,0,5,0,0,0,82,85,132,120,42,132.37,341,-2.00,48.00,-971.00
2024-05-19 08:58:45.415490,0,0,5,0,0,0,82,85,132,120,42,132.33,341,49.00,32.00,-919.00
2024-05-19 08:58:45.517815,0,0,5,0,0,0,82,85,133,120,42,132.35,341,28.00,19.00,-1012.00
2024-05-19 08:58:45.619199,0,0,5,0,0,0,82,85,131,120,42,132.31,341,-1.00,29.00,-1007.00
2024-05-19 08:58:45.721216,0,-1,5,0,0,0,82,85,131,120,42,132.30,341,25.00,30.00,-942.00
2024-05-19 08:58:45.823336,1,-8,5,0,0,0,82,85,132,120,42,132.28,341,-39.00,-18.00,-1184.00
2024-05-19 08:58:45.925348,1,-8,5,0,-1,0,82,85,132,120,42,132.32,341,-10.00,8.00,-1036.00
2024-05-19 08:58:46.027539,1,-6,5,0,-3,0,82,85,130,120,42,132.31,342,-32.00,22.00,-1017.00
2024-05-19 08:58:46.230591,1,-4,5,0,-3,0,82,84,130,120,42,132.26,342,-9.00,26.00,-1047.00
2024-05-19 08:58:46.231117,0,0,5,0,-4,0,82,84,129,120,42,132.30,342,-15.00,32.00,-1016.00
2024-05-19 08:58:46.333380,0,0,5,0,-3,0,82,84,128,120,42,132.26,342,27.00,30.00,-991.00
2024-05-19 08:58:46.435800,0,0,5,0,-3,0,82,84,128,120,42,132.29,342,73.00,33.00,-869.00
2024-05-19 08:58:46.537442,1,0,5,0,-3,0,82,84,127,120,42,132.34,342,15.00,40.00,-1041.00
2024-05-19 08:58:46.588396,1,-1,5,0,-2,0,82,84,126,120,42,132.33,342,29.00,27.00,-993.00
2024-05-19 08:58:46.742573,1,-1,5,0,-2,0,82,84,124,120,42,132.23,342,28.00,35.00,-981.00
2024-05-19 08:58:46.792594,1,-1,5,0,-2,0,82,84,123,120,42,132.20,342,70.00,14.00,-981.00
2024-05-19 08:58:46.949840,1,-1,5,0,-2,0,82,84,123,120,42,132.28,342,37.00,20.00,-992.00
2024-05-19 08:58:47.000802,1,0,5,0,-2,0,82,84,123,120,42,132.20,343,46.00,18.00,-999.00
2024-05-19 08:58:47.099822,1,0,5,0,-2,0,82,84,122,120,42,132.17,343,17.00,44.00,-922.00
2024-05-19 08:58:47.256171,1,1,5,0,-2,0,82,84,121,120,42,132.22,343,32.00,64.00,-984.00
2024-05-19 08:58:47.302569,1,2,5,0,-1,0,82,84,122,120,42,132.26,343,7.00,45.00,-1034.00
2024-05-19 08:58:47.459380,4,1,5,0,0,0,82,84,122,110,42,132.28,343,24.00,9.00,-1024.00
2024-05-19 08:58:47.506276,5,0,5,0,0,0,82,84,122,110,42,132.16,343,15.00,50.00,-1013.00
2024-05-19 08:58:47.664180,3,0,5,-1,0,0,82,84,121,110,42,132.19,343,4.00,58.00,-963.00
2024-05-19 08:58:47.710192,0,0,5,-1,0,0,82,84,121,110,42,132.18,343,-2.00,62.00,-1050.00
2024-05-19 08:58:47.868974,-4,-1,5,-1,0,0,82,84,122,110,42,132.28,343,-1.00,21.00,-967.00
2024-05-19 08:58:47.914337,-1,-1,5,0,0,0,82,84,122,110,42,132.23,343,51.00,40.00,-902.00
2024-05-19 08:58:48.073879,0,-1,5,0,0,0,82,84,121,110,42,132.17,344,43.00,-5.00,-988.00
2024-05-19 08:58:48.118437,0,-1,5,0,0,0,82,84,121,110,42,132.23,344,2.00,18.00,-943.00
2024-05-19 08:58:48.278712,0,-1,5,0,0,0,82,84,121,110,42,132.20,344,18.00,46.00,-1018.00
2024-05-19 08:58:48.322389,1,-1,5,0,0,0,82,84,122,110,42,132.22,344,36.00,28.00,-954.00
2024-05-19 08:58:48.483501,1,-2,5,0,0,0,82,84,123,110,42,132.28,344,6.00,8.00,-1055.00
2024-05-19 08:58:48.526551,1,-2,5,0,0,0,82,84,124,110,42,132.18,344,28.00,24.00,-1052.00
2024-05-19 08:58:48.688316,1,-1,5,0,0,0,82,84,125,110,42,132.25,344,48.00,45.00,-993.00
2024-05-19 08:58:48.730590,0,0,5,0,0,0,82,84,126,120,42,132.29,344,-11.00,20.00,-1002.00
2024-05-19 08:58:48.893168,1,0,5,0,0,0,82,84,128,120,42,132.29,344,-12.00,26.00,-993.00
2024-05-19 08:58:48.934242,1,0,5,0,0,0,82,84,128,120,42,132.25,344,31.00,5.00,-947.00
2024-05-19 08:58:49.097912,1,0,5,0,0,0,82,84,128,120,42,132.31,345,59.00,12.00,-970.00
2024-05-19 08:58:49.138555,0,-1,5,0,0,0,82,84,129,120,42,132.24,345,-15.00,10.00,-990.00
2024-05-19 08:58:49.302740,1,-1,5,0,0,0,82,84,129,120,41,132.26,345,37.00,-10.00,-973.00
2024-05-19 08:58:49.342441,1,-1,5,0,0,0,82,84,129,120,41,132.37,345,-31.00,14.00,-991.00
2024-05-19 08:58:49.509491,1,0,5,0,0,0,82,84,128,120,41,132.25,345,12.00,3.00,-984.00
2024-05-19 08:58:49.546276,1,0,5,0,0,0,82,84,127,120,41,132.24,345,59.00,14.00,-899.00
2024-05-19 08:58:49.712271,1,0,4,0,0,0,82,84,126,120,41,132.31,345,6.00,-14.00,-1011.00
2024-05-19 08:58:49.750634,1,0,4,0,0,0,82,84,125,120,41,132.30,345,-15.00,0.00,-994.00
2024-05-19 08:58:49.872616,1,0,4,0,0,0,82,84,124,120,41,132.34,345,4.00,-13.00,-997.00
2024-05-19 08:58:49.955742,0,0,4,0,0,1,82,84,124,120,41,132.27,345,15.00,23.00,-965.00
2024-05-19 08:58:50.056278,0,0,5,0,0,0,82,84,123,110,41,132.21,346,28.00,-11.00,-1091.00
2024-05-19 08:58:50.224137,0,5,5,0,0,0,81,84,124,110,41,132.15,346,-36.00,-3.00,-979.00
2024-05-19 08:58:50.260208,-1,8,5,0,1,0,81,84,123,110,41,132.16,346,24.00,-11.00,-1061.00
2024-05-19 08:58:50.428988,-1,5,5,0,2,0,81,84,122,110,41,132.23,346,41.00,9.00,-961.00
2024-05-19 08:58:50.464046,0,3,5,0,3,0,81,84,123,110,41,132.23,346,20.00,-20.00,-1050.00
2024-05-19 08:58:50.515229,0,0,5,0,3,0,81,84,124,110,41,132.30,346,-17.00,-24.00,-1024.00
2024-05-19 08:58:50.633738,0,-1,5,0,3,0,81,84,125,110,41,132.29,346,28.00,-21.00,-1006.00
2024-05-19 08:58:50.720952,0,-1,5,0,3,0,81,84,125,110,41,132.35,346,47.00,-19.00,-1012.00
2024-05-19 08:58:50.820949,0,0,5,0,2,0,81,84,126,110,41,132.30,346,0.00,-28.00,-1091.00
2024-05-19 08:58:50.940969,0,0,5,0,2,0,81,84,126,120,41,132.25,346,-15.00,34.00,-1017.00
2024-05-19 08:58:51.027950,0,0,5,0,2,0,81,84,126,120,41,132.36,347,16.00,-9.00,-1018.00
2024-05-19 08:58:51.126911,0,0,5,0,2,0,82,84,127,120,41,132.29,347,-14.00,8.00,-1002.00
2024-05-19 08:58:51.251110,0,0,5,0,2,0,82,84,127,120,41,132.27,347,20.00,0.00,-1001.00
2024-05-19 08:58:51.330935,0,0,5,0,2,0,82,84,127,120,41,132.35,347,49.00,7.00,-905.00
2024-05-19 08:58:51.453003,0,0,5,0,2,0,82,84,127,120,41,132.35,347,-20.00,0.00,-1095.00
2024-05-19 08:58:51.534874,0,-1,5,0,2,0,82,84,128,120,41,132.40,347,36.00,6.00,-961.00
2024-05-19 08:58:51.657758,0,-2,5,0,2,0,82,84,128,120,41,132.37,347,8.00,-14.00,-1046.00
2024-05-19 08:58:51.740178,1,-2,5,0,2,0,82,84,129,120,41,132.28,347,47.00,-5.00,-949.00
2024-05-19 08:58:51.863287,1,-3,5,0,1,0,82,84,130,120,41,132.26,347,11.00,8.00,-941.00
2024-05-19 08:58:51.942871,1,-4,5,0,1,0,82,84,131,120,41,132.39,347,77.00,-2.00,-894.00
2024-05-19 08:58:52.067342,-1,-3,5,0,0,0,82,84,129,120,41,132.43,348,17.00,11.00,-925.00
2024-05-19 08:58:52.146883,-3,-2,5,0,0,0,83,84,130,120,41,132.33,348,19.00,-10.00,-988.00
2024-05-19 08:58:52.272087,-3,-2,5,1,0,0,83,84,130,120,40,132.36,348,2.00,29.00,-963.00
2024-05-19 08:58:52.350862,-2,-1,5,1,0,0,83,84,129,120,40,132.33,348,29.00,24.00,-995.00
2024-05-19 08:58:52.477072,4,0,5,1,0,0,83,84,129,120,40,132.35,348,18.00,3.00,-981.00
2024-05-19 08:58:52.555068,3,-1,5,0,0,0,83,84,129,120,40,132.36,348,-11.00,42.00,-1043.00
2024-05-19 08:58:52.657535,1,-1,5,0,0,0,83,84,128,120,40,132.36,348,19.00,21.00,-901.00
2024-05-19 08:58:52.784260,1,-1,5,0,0,0,83,84,128,120,40,132.34,348,33.00,-3.00,-965.00
2024-05-19 08:58:52.860860,0,-1,5,0,0,0,83,84,128,120,40,132.40,348,7.00,31.00,-1030.00
2024-05-19 08:58:52.989069,0,0,5,0,0,0,83,84,128,120,40,132.39,348,-7.00,27.00,-1031.00
2024-05-19 08:58:53.064969,0,0,5,0,0,0,83,84,127,120,40,132.37,349,-47.00,21.00,-1077.00
2024-05-19 08:58:53.193774,0,0,5,0,0,0,82,84,127,120,40,132.38,349,59.00,2.00,-917.00
2024-05-19 08:58:53.268945,0,0,5,0,0,0,82,84,125,120,40,132.44,349,14.00,-12.00,-1026.00
2024-05-19 08:58:53.398661,0,0,5,0,0,0,82,84,125,120,40,132.44,349,-8.00,14.00,-1026.00
2024-05-19 08:58:53.473049,0,0,5,0,0,0,82,84,124,110,40,132.43,349,26.00,5.00,-919.00
2024-05-19 08:58:53.605800,0,0,5,0,0,0,82,84,124,110,40,132.31,349,12.00,2.00,-985.00
2024-05-19 08:58:53.676925,0,0,5,0,0,0,82,84,124,110,40,132.36,349,-14.00,37.00,-1029.00
2024-05-19 08:58:53.808171,0,0,5,0,0,0,82,84,123,110,40,132.40,349,1.00,22.00,-959.00
2024-05-19 08:58:53.880867,0,0,5,0,0,0,82,84,123,110,40,132.35,349,2.00,29.00,-957.00
2024-05-19 08:58:54.013973,0,0,5,0,0,0,82,84,123,110,40,132.30,350,33.00,-3.00,-1020.00
2024-05-19 08:58:54.084912,0,0,5,0,0,0,82,84,123,110,40,132.30,350,22.00,26.00,-1058.00
2024-05-19 08:58:54.217855,0,0,5,0,0,0,82,84,124,110,40,132.34,350,-1.00,12.00,-1010.00
2024-05-19 08:58:54.288838,0,0,5,0,0,0,82,84,123,110,40,132.48,350,-24.00,22.00,-1002.00
2024-05-19 08:58:54.340156,0,0,5,0,0,0,82,84,123,110,40,132.33,350,26.00,-4.00,-947.00
2024-05-19 08:58:54.441852,0,0,6,0,0,0,82,84,123,110,40,132.31,350,33.00,26.00,-952.00
2024-05-19 08:58:54.543926,0,0,11,0,0,0,82,84,124,110,40,132.35,350,-1.00,15.00,-1068.00
2024-05-19 08:58:54.729642,0,0,17,0,0,0,82,84,124,110,40,132.37,350,-15.00,31.00,-1061.00
2024-05-19 08:58:54.747735,0,0,23,0,0,0,82,84,124,110,40,132.22,350,13.00,-8.00,-984.00
2024-05-19 08:58:54.934538,0,0,28,0,0,0,82,84,124,110,40,132.25,350,15.00,-37.00,-1032.00
2024-05-19 08:58:54.951863,0,0,33,0,0,0,82,84,123,110,40,132.26,351,-33.00,22.00,-1018.00
2024-05-19 08:58:55.139271,0,0,38,0,0,0,82,84,124,110,40,132.23,351,27.00,-12.00,-985.00
2024-05-19 08:58:55.155856,0,0,43,0,0,0,82,84,125,110,40,132.27,351,8.00,0.00,-981.00
2024-05-19 08:58:55.344019,0,0,48,0,0,0,82,84,124,110,40,132.28,351,4.00,11.00,-972.00
2024-05-19 08:58:55.359844,0,0,53,0,0,0,82,84,125,110,40,132.23,351,-38.00,26.00,-1031.00
2024-05-19 08:58:55.548900,0,-1,58,0,0,0,82,84,124,110,40,132.29,351,0.00,8.00,-982.00
2024-05-19 08:58:55.563738,0,-1,63,0,0,0,82,84,125,110,40,132.32,351,-10.00,36.00,-1033.00
2024-05-19 08:58:55.753704,0,-1,68,0,0,0,82,84,125,110,40,132.25,351,8.00,33.00,-942.00
2024-05-19 08:58:55.767828,0,-1,74,0,0,0,82,84,125,120,40,132.28,351,29.00,14.00,-948.00
2024-05-19 08:58:55.958544,0,-1,79,0,0,0,82,84,124,120,40,132.40,351,16.00,29.00,-967.00
2024-05-19 08:58:55.971686,0,-1,85,0,0,0,82,84,124,120,40,132.36,352,-15.00,27.00,-991.00
2024-05-19 08:58:56.163342,0,-1,91,0,0,0,82,84,125,120,40,132.39,352,70.00,22.00,-920.00
2024-05-19 08:58:56.175884,0,-1,97,0,0,0,82,84,124,120,40,132.29,352,27.00,12.00,-986.00
2024-05-19 08:58:56.367982,0,-1,103,0,0,0,82,84,124,120,39,132.40,352,-5.00,39.00,-1031.00
2024-05-19 08:58:56.379848,0,-1,109,0,0,0,82,84,124,110,39,132.45,352,43.00,16.00,-997.00
2024-05-19 08:58:56.572903,1,-1,115,0,0,0,82,84,124,110,39,132.44,352,-9.00,15.00,-1002.00
2024-05-19 08:58:56.584669,0,-1,121,0,0,0,82,84,124,120,39,132.45,352,13.00,12.00,-1069.00
2024-05-19 08:58:56.777728,1,0,127,0,0,0,82,84,125,120,39,132.45,352,50.00,0.00,-1029.00
2024-05-19 08:58:56.788537,1,0,133,0,0,0,82,84,125,120,39,132.41,352,-11.00,41.00,-1022.00
2024-05-19 08:58:56.982417,1,0,139,0,0,0,82,84,125,120,39,132.41,352,34.00,11.00,-938.00
2024-05-19 08:58:56.992559,1,0,145,0,0,0,82,84,124,120,39,132.42,353,57.00,23.00,-970.00
2024-05-19 08:58:57.187304,1,0,151,0,0,0,82,84,124,120,39,132.43,353,4.00,29.00,-975.00
2024-05-19 08:58:57.196549,1,0,157,0,0,0,81,84,124,120,39,132.32,353,-13.00,28.00,-1025.00
2024-05-19 08:58:57.299033,1,0,162,0,0,0,81,84,123,120,39,132.32,353,43.00,-37.00,-1027.00
2024-05-19 08:58:57.401412,1,0,168,0,0,0,81,84,122,120,39,132.33,353,5.00,2.00,-1003.00
2024-05-19 08:58:57.503816,1,0,174,0,0,0,81,84,121,110,39,132.38,353,26.00,8.00,-1031.00
2024-05-19 08:58:57.604559,1,0,-179,0,0,0,81,84,121,110,39,132.41,353,16.00,-10.00,-981.00
2024-05-19 08:58:57.708801,1,0,-172,0,0,0,81,84,120,110,39,132.41,353,53.00,-4.00,-991.00
2024-05-19 08:58:57.810931,1,0,-166,0,0,0,81,84,119,110,39,132.40,353,13.00,2.00,-992.00
2024-05-19 08:58:57.913236,1,1,-160,0,0,0,81,84,119,110,39,132.34,353,30.00,12.00,-1015.00
2024-05-19 08:58:57.963941,0,0,-154,0,0,0,81,84,119,110,39,132.25,354,42.00,-15.00,-999.00
2024-05-19 08:58:58.063724,1,1,-148,0,0,0,81,84,119,110,39,132.31,354,-7.00,10.00,-1036.00
2024-05-19 08:58:58.211223,0,1,-142,0,0,0,82,84,120,110,39,132.32,354,1.00,10.00,-1002.00
2024-05-19 08:58:58.267668,0,0,-136,0,0,0,82,84,120,110,38,132.29,354,7.00,-2.00,-1004.00
2024-05-19 08:58:58.416115,0,0,-129,0,0,0,82,84,121,110,38,132.22,354,26.00,0.00,-907.00
2024-05-19 08:58:58.471786,0,1,-123,0,0,0,82,84,121,110,38,132.22,354,35.00,-16.00,-1002.00
2024-05-19 08:58:58.573754,0,1,-117,0,0,0,82,84,122,110,38,132.30,354,33.00,-31.00,-962.00
2024-05-19 08:58:58.723407,0,1,-111,0,0,0,82,84,123,110,38,132.40,354,-14.00,-9.00,-1118.00
2024-05-19 08:58:58.777920,0,1,-104,0,0,0,82,84,124,110,38,132.32,354,5.00,-11.00,-975.00
2024-05-19 08:58:58.927981,0,2,-98,0,0,0,82,84,125,110,38,132.35,354,6.00,-10.00,-1048.00
2024-05-19 08:58:58.983283,-1,1,-91,0,0,0,82,84,125,110,38,132.34,355,2.00,-46.00,-1023.00
2024-05-19 08:58:59.083978,-1,1,-85,0,0,0,82,84,126,110,38,132.39,355,16.00,11.00,-936.00
2024-05-19 08:58:59.186342,-1,1,-78,0,0,0,82,83,126,120,38,132.32,355,-58.00,6.00,-1124.00
2024-05-19 08:58:59.287953,-1,1,-71,0,0,0,82,83,127,120,38,132.38,355,-65.00,-8.00,-1088.00
2024-05-19 08:58:59.390915,-1,1,-64,0,0,0,82,83,127,120,38,132.36,355,-19.00,4.00,-1002.00
2024-05-19 08:58:59.491933,-1,0,-58,0,0,0,82,83,127,120,38,132.37,355,35.00,-7.00,-936.00
2024-05-19 08:58:59.593583,-1,0,-51,0,0,0,82,83,127,120,38,132.39,355,-25.00,3.00,-938.00
2024-05-19 08:58:59.751429,-1,0,-44,0,0,0,82,83,128,120,38,132.44,355,7.00,8.00,-952.00
2024-05-19 08:58:59.797631,-1,0,-37,0,0,0,82,83,127,120,38,132.33,355,-38.00,0.00,-996.00
2024-05-19 08:58:59.952096,-1,0,-31,0,0,0,82,83,127,120,38,132.34,355,-22.00,-8.00,-1007.00
2024-05-19 08:59:00.001562,-1,0,-24,0,0,0,82,83,127,120,38,132.43,356,47.00,-17.00,-960.00
2024-05-19 08:59:00.104973,-1,0,-18,0,0,0,82,83,126,120,38,132.35,356,30.00,0.00,-880.00
2024-05-19 08:59:00.259273,-1,0,-12,0,0,0,82,84,126,120,38,132.38,356,-5.00,4.00,-1049.00
2024-05-19 08:59:00.309352,-1,-1,-7,0,0,0,82,84,126,120,38,132.27,356,-33.00,26.00,-1101.00
2024-05-19 08:59:00.411171,-1,-1,-4,0,0,0,82,84,125,120,38,132.36,356,-39.00,38.00,-932.00
2024-05-19 08:59:00.514848,0,-1,-2,0,0,0,82,84,125,120,38,132.42,356,-17.00,30.00,-1020.00
2024-05-19 08:59:00.615277,0,-1,0,0,0,0,82,84,125,120,38,132.38,356,1.00,-11.00,-989.00
2024-05-19 08:59:00.716353,0,0,0,0,0,0,82,84,125,120,38,132.33,356,-15.00,14.00,-973.00
2024-05-19 08:59:00.878180,0,-1,1,0,0,0,82,84,124,120,38,132.30,356,-8.00,33.00,-1000.00
2024-05-19 08:59:00.920401,0,-1,2,0,0,0,82,84,124,120,38,132.41,356,1.00,18.00,-978.00
2024-05-19 08:59:01.078483,0,0,3,0,0,0,82,84,124,110,38,132.29,357,-1.00,8.00,-1003.00
2024-05-19 08:59:01.124480,0,0,3,0,0,0,82,84,124,110,38,132.32,357,-26.00,19.00,-1004.00
2024-05-19 08:59:01.283742,0,0,3,0,0,0,82,84,123,110,38,132.28,357,-52.00,6.00,-1057.00
2024-05-19 08:59:01.328515,0,0,3,0,0,0,82,84,123,110,38,132.39,357,-29.00,16.00,-953.00
2024-05-19 08:59:01.488093,0,-1,3,0,0,0,82,84,124,110,38,132.34,357,-2.00,-3.00,-1068.00
2024-05-19 08:59:01.533439,0,-1,3,0,0,0,82,84,123,110,38,132.42,357,-20.00,30.00,-902.00
2024-05-19 08:59:01.583771,0,-1,3,0,0,0,82,84,124,120,38,132.42,357,3.00,13.00,-995.00
2024-05-19 08:59:01.693547,0,-1,3,0,0,0,82,84,124,120,38,132.37,357,-13.00,15.00,-1027.00
2024-05-19 08:59:01.787689,0,-1,3,0,0,0,82,84,124,110,38,132.43,357,14.00,14.00,-989.00
2024-05-19 08:59:01.897871,0,-1,3,0,0,0,82,84,123,110,38,132.35,357,9.00,10.00,-987.00
2024-05-19 08:59:01.991646,0,0,3,0,0,0,82,84,123,110,38,132.39,358,-4.00,3.00,-1028.00
2024-05-19 08:59:02.102613,0,0,3,0,0,0,82,84,124,110,38,132.40,358,-9.00,15.00,-900.00
2024-05-19 08:59:02.196384,0,-1,3,0,0,0,82,84,124,120,38,132.35,358,-18.00,11.00,-1068.00
2024-05-19 08:59:02.307699,0,0,3,0,0,0,82,84,124,110,38,132.38,358,-31.00,13.00,-1043.00
2024-05-19 08:59:02.399595,0,-1,3,0,0,0,82,84,124,110,38,132.33,358,-21.00,23.00,-992.00
2024-05-19 08:59:02.513121,0,-1,3,0,0,0,82,84,124,110,38,132.38,358,-23.00,32.00,-1074.00
2024-05-19 08:59:02.603793,0,0,3,0,0,0,82,84,125,110,38,132.33,358,-3.00,1.00,-993.00
2024-05-19 08:59:02.716994,0,-1,3,0,0,0,82,84,124,110,38,132.37,358,6.00,28.00,-984.00
2024-05-19 08:59:02.807541,0,-1,3,0,0,0,82,84,125,110,38,132.34,358,-15.00,5.00,-1041.00
2024-05-19 08:59:02.921723,0,-1,3,0,0,0,82,84,125,120,38,132.35,358,-44.00,48.00,-961.00
2024-05-19 08:59:03.011562,0,0,3,0,0,0,82,84,125,120,38,132.41,359,-37.00,6.00,-1087.00
2024-05-19 08:59:03.113479,0,0,3,0,0,0,82,84,126,120,38,132.35,359,44.00,-4.00,-899.00
2024-05-19 08:59:03.228873,0,0,3,0,0,0,82,84,125,120,37,132.38,359,-65.00,56.00,-1002.00
2024-05-19 08:59:03.317469,0,0,-1,0,0,0,82,84,126,120,37,132.36,359,18.00,0.00,-1042.00
2024-05-19 08:59:03.433630,0,0,-7,0,0,0,82,84,126,120,37,132.35,359,15.00,6.00,-1077.00
2024-05-19 08:59:03.521745,0,-1,-13,0,0,0,82,84,126,120,37,132.37,359,-30.00,13.00,-1021.00
2024-05-19 08:59:03.638453,0,0,-19,0,0,0,82,84,127,120,37,132.36,359,-7.00,-3.00,-1035.00
2024-05-19 08:59:03.725387,0,-1,-25,0,0,0,82,84,127,120,37,132.32,359,43.00,-22.00,-967.00
2024-05-19 08:59:03.843294,0,-1,-31,0,0,0,82,84,127,120,37,132.42,359,34.00,1.00,-956.00
2024-05-19 08:59:03.929372,0,0,-37,0,0,0,82,84,128,120,37,132.39,359,27.00,-17.00,-1022.00
2024-05-19 08:59:04.047980,0,0,-43,0,0,0,82,84,129,120,37,132.40,360,-34.00,27.00,-1062.00
2024-05-19 08:59:04.133318,0,0,-50,0,0,0,82,84,129,120,37,132.39,360,-40.00,23.00,-969.00
2024-05-19 08:59:04.252847,0,0,-56,0,0,0,82,84,130,120,37,132.42,360,-14.00,-10.00,-1010.00
2024-05-19 08:59:04.340262,0,0,-62,0,0,0,82,84,130,120,37,132.39,360,-1.00,18.00,-860.00
2024-05-19 08:59:04.439713,0,0,-68,0,0,0,82,84,130,120,37,132.42,360,54.00,-36.00,-938.00
2024-05-19 08:59:04.541345,0,0,-74,0,0,0,82,84,129,120,37,132.41,360,0.00,-21.00,-1039.00
2024-05-19 08:59:04.662462,0,0,-80,0,0,0,82,84,130,120,37,132.42,360,-12.00,3.00,-1076.00
2024-05-19 08:59:04.745371,0,0,-86,0,0,0,82,84,130,120,37,132.40,360,7.00,9.00,-915.00
2024-05-19 08:59:04.847555,0,0,-92,0,0,0,82,84,128,120,37,132.42,360,15.00,4.00,-969.00
2024-05-19 08:59:04.969652,0,0,-97,0,0,0,82,84,127,120,37,132.35,360,-29.00,24.00,-1063.00
2024-05-19 08:59:05.051361,0,0,-103,0,0,0,82,84,127,120,37,132.44,361,-1.00,-7.00,-981.00
2024-05-19 08:59:05.102070,0,0,-109,0,0,0,82,84,126,120,37,132.37,361,-74.00,17.00,-1139.00
2024-05-19 08:59:05.276738,0,0,-115,0,0,0,81,84,125,120,37,132.39,361,22.00,-38.00,-1018.00
2024-05-19 08:59:05.357303,0,0,-121,0,0,0,81,84,125,120,37,132.34,361,-32.00,28.00,-1066.00
2024-05-19 08:59:05.407978,0,0,-127,0,0,0,81,84,124,120,37,132.34,361,-5.00,-16.00,-1030.00
2024-05-19 08:59:05.584196,0,0,-133,0,0,0,81,84,123,120,37,132.43,361,-43.00,8.00,-1038.00
2024-05-19 08:59:05.612126,0,0,-139,0,0,0,81,84,122,120,37,132.37,361,-8.00,-19.00,-1089.00
2024-05-19 08:59:05.788836,0,0,-145,0,0,0,81,84,121,110,37,132.39,361,-41.00,12.00,-985.00
2024-05-19 08:59:05.816195,0,0,-151,0,0,0,81,84,121,110,37,132.30,361,-26.00,-8.00,-1064.00
2024-05-19 08:59:05.993622,0,1,-157,0,0,0,81,84,120,110,37,132.32,361,39.00,-9.00,-954.00
2024-05-19 08:59:06.019966,0,1,-163,0,0,0,81,84,119,110,37,132.26,362,23.00,12.00,-957.00
2024-05-19 08:59:06.198340,0,1,-169,0,0,0,81,84,120,110,37,132.29,362,5.00,-21.00,-1012.00
2024-05-19 08:59:06.224047,0,1,-175,0,0,0,81,84,119,110,37,132.29,362,-11.00,-21.00,-988.00
2024-05-19 08:59:06.403178,0,1,178,0,0,0,81,84,120,110,37,132.27,362,43.00,-11.00,-944.00
2024-05-19 08:59:06.428047,0,1,172,0,0,0,81,84,120,110,37,132.33,362,24.00,-11.00,-1031.00
2024-05-19 08:59:06.530339,0,1,166,0,0,0,81,84,120,110,37,132.28,362,-13.00,-25.00,-1088.00
2024-05-19 08:59:06.632201,0,1,160,0,0,0,81,84,120,110,37,132.37,362,14.00,-49.00,-1117.00
2024-05-19 08:59:06.814835,1,1,153,0,0,0,81,84,121,110,37,132.31,362,-1.00,0.00,-1022.00
2024-05-19 08:59:06.835941,1,1,147,0,0,0,81,84,121,110,37,132.30,362,-34.00,2.00,-1090.00
2024-05-19 08:59:06.938082,1,1,141,0,0,0,81,84,122,110,37,132.27,362,-12.00,-9.00,-1020.00
2024-05-19 08:59:07.119942,1,1,135,0,0,0,81,84,121,110,37,132.34,363,-14.00,24.00,-1021.00
2024-05-19 08:59:07.141951,1,0,128,0,0,0,81,84,121,110,37,132.34,363,38.00,-9.00,-995.00
2024-05-19 08:59:07.324695,1,0,122,0,0,0,81,84,122,110,36,132.34,363,54.00,-5.00,-970.00
2024-05-19 08:59:07.346043,1,0,115,0,0,0,81,84,122,110,36,132.35,363,62.00,-6.00,-984.00
2024-05-19 08:59:07.529611,2,0,109,0,0,0,81,84,122,110,36,132.31,363,16.00,14.00,-1017.00
2024-05-19 08:59:07.550008,1,0,102,0,0,0,81,84,122,110,36,132.23,363,39.00,37.00,-971.00
2024-05-19 08:59:07.735202,1,0,96,0,0,0,81,84,123,110,36,132.25,363,-3.00,34.00,-988.00
2024-05-19 08:59:07.754017,1,0,90,0,0,0,81,84,122,110,36,132.35,363,29.00,2.00,-957.00
2024-05-19 08:59:07.939225,1,0,84,0,0,0,81,84,124,110,36,132.34,363,38.00,2.00,-1050.00
2024-05-19 08:59:07.957989,1,0,78,0,0,0,81,84,123,110,36,132.32,363,5.00,42.00,-971.00
2024-05-19 08:59:08.143862,1,-1,72,0,0,0,81,84,124,110,36,132.34,364,63.00,23.00,-948.00
2024-05-19 08:59:08.161916,1,-1,66,0,0,0,81,84,123,110,36,132.36,364,10.00,42.00,-961.00
2024-05-19 08:59:08.348738,1,-1,59,0,0,0,82,83,123,120,36,132.34,364,38.00,17.00,-1006.00
2024-05-19 08:59:08.366008,2,-1,53,0,0,0,82,83,123,110,36,132.28,364,24.00,19.00,-991.00
2024-05-19 08:59:08.557482,2,-1,47,0,0,0,82,83,124,110,36,132.28,364,21.00,33.00,-1019.00
2024-05-19 08:59:08.573235,1,-2,40,0,0,0,82,83,123,110,36,132.30,364,-2.00,29.00,-918.00
2024-05-19 08:59:08.671927,0,-2,33,0,0,0,82,83,124,110,36,132.33,364,21.00,25.00,-982.00
2024-05-19 08:59:08.860812,0,-2,26,0,0,0,82,83,124,110,36,132.34,364,17.00,30.00,-992.00
2024-05-19 08:59:08.875883,0,-2,20,0,0,0,82,83,124,110,36,132.31,364,-21.00,9.00,-1001.00
2024-05-19 08:59:08.928826,0,-1,14,0,0,0,82,83,124,110,36,132.39,364,2.00,16.00,-998.00
2024-05-19 08:59:09.029176,0,0,10,0,0,0,82,83,124,110,36,132.35,365,3.00,-8.00,-966.00
2024-05-19 08:59:09.167868,0,0,7,0,0,0,82,83,125,110,36,132.34,365,4.00,15.00,-963.00
2024-05-19 08:59:09.373579,-1,0,4,0,-1,0,81,83,125,110,36,132.42,365,-58.00,-1.00,-1001.00
2024-05-19 08:59:09.385899,-1,0,2,0,-1,0,81,83,125,120,36,132.36,365,-60.00,-15.00,-1087.00
2024-05-19 08:59:09.577674,-2,0,1,0,-1,0,81,83,126,120,36,132.40,365,-33.00,0.00,-1032.00
2024-05-19 08:59:09.577986,-2,0,1,0,0,0,81,83,126,120,36,132.44,365,-3.00,12.00,-973.00
2024-05-19 08:59:09.642616,-2,0,0,0,0,0,81,83,126,120,36,132.36,365,6.00,22.00,-916.00
2024-05-19 08:59:09.787001,-2,0,0,0,0,0,81,83,127,120,36,132.39,365,-38.00,-3.00,-1004.00
2024-05-19 08:59:09.846036,-2,0,-1,0,0,0,81,83,127,120,36,132.33,365,-17.00,16.00,-998.00
2024-05-19 08:59:09.987553,-2,0,-1,0,0,0,81,83,126,120,36,132.33,366,-62.00,-32.00,-955.00
2024-05-19 08:59:10.049954,-2,0,-2,0,0,0,81,83,127,120,36,132.33,366,-24.00,30.00,-1030.00
2024-05-19 08:59:10.191992,-2,0,-2,0,0,0,81,83,126,120,36,132.34,366,-13.00,-8.00,-982.00
2024-05-19 08:59:10.254024,-2,0,-2,0,0,0,82,83,126,120,36,132.34,366,17.00,-14.00,-973.00
2024-05-19 08:59:10.398430,-2,0,-2,0,0,0,82,83,126,120,36,132.36,366,-39.00,5.00,-1049.00
2024-05-19 08:59:10.458122,-2,0,-2,0,0,0,82,83,125,120,36,132.49,366,6.00,1.00,-959.00
2024-05-19 08:59:10.559794,-2,0,-2,0,0,0,82,83,124,120,36,132.42,366,-14.00,23.00,-946.00
2024-05-19 08:59:10.703928,-2,0,-2,0,0,0,82,83,124,120,36,132.45,366,-35.00,-2.00,-953.00
2024-05-19 08:59:10.763927,-2,0,-2,0,0,0,82,83,123,120,36,132.31,366,-56.00,-7.00,-1040.00
2024-05-19 08:59:10.908818,-2,0,-2,0,0,0,82,83,123,110,36,132.24,366,10.00,-21.00,-975.00
2024-05-19 08:59:10.967921,-1,0,-2,0,0,0,82,83,122,110,36,132.31,367,-53.00,-2.00,-1032.00
2024-05-19 08:59:11.069903,-1,0,-2,0,0,0,82,83,121,110,36,132.27,367,-53.00,-7.00,-1076.00
2024-05-19 08:59:11.184809,-2,0,-2,0,0,0,82,83,120,110,36,132.27,367,-39.00,-16.00,-990.00
2024-05-19 08:59:11.273876,-2,0,-2,0,0,0,81,84,120,110,35,132.30,367,-86.00,-21.00,-1083.00
2024-05-19 08:59:11.431422,-2,0,-2,0,0,0,81,84,120,110,35,132.23,367,-18.00,-19.00,-994.00
2024-05-19 08:59:11.479216,-2,0,-2,0,0,0,81,84,120,110,35,132.23,367,-32.00,-17.00,-950.00
2024-05-19 08:59:11.579798,-2,0,-2,0,0,0,81,84,120,110,35,132.25,367,-46.00,5.00,-964.00
2024-05-19 08:59:11.727927,-2,0,-2,0,0,0,81,84,120,110,35,132.31,367,-61.00,-16.00,-1014.00
2024-05-19 08:59:11.783839,-2,0,-2,0,0,0,81,84,119,110,35,132.27,367,-63.00,19.00,-1062.00
2024-05-19 08:59:11.932858,-2,0,-1,0,0,0,81,84,119,110,35,132.31,367,-63.00,-28.00,-1072.00
2024-05-19 08:59:11.987916,-2,0,-1,0,0,0,81,84,120,110,35,132.28,368,-1.00,-33.00,-1015.00
2024-05-19 08:59:12.140119,-2,0,-1,0,0,0,81,84,120,110,35,132.22,368,-79.00,5.00,-1003.00
2024-05-19 08:59:12.191770,-2,0,-1,0,0,0,81,84,122,110,35,132.30,368,25.00,-8.00,-965.00
2024-05-19 08:59:12.342501,-1,0,-2,0,0,0,81,84,122,110,35,132.36,368,-23.00,16.00,-912.00
2024-05-19 08:59:12.398068,-1,0,-2,0,0,0,81,84,122,110,35,132.21,368,0.00,5.00,-963.00
2024-05-19 08:59:12.497775,0,0,-2,0,0,0,81,84,124,110,35,132.24,368,-27.00,16.00,-1062.00
2024-05-19 08:59:12.600286,0,0,-2,0,0,0,81,84,124,110,35,132.33,368,-7.00,30.00,-998.00
2024-05-19 08:59:12.753695,0,-1,-2,0,0,0,81,84,125,110,35,132.31,368,-17.00,25.00,-973.00
2024-05-19 08:59:12.804264,0,-1,-2,0,1,0,81,84,125,110,35,132.39,368,23.00,15.00,-966.00
2024-05-19 08:59:12.956990,0,-2,-2,0,0,0,81,84,126,110,35,132.36,368,-14.00,22.00,-1025.00
2024-05-19 08:59:13.008080,0,-2,-2,0,0,0,81,84,126,110,35,132.33,369,-1.00,30.00,-1102.00
2024-05-19 08:59:13.109878,0,-3,-2,0,0,0,81,84,126,110,35,132.38,369,18.00,28.00,-1022.00
2024-05-19 08:59:13.161294,0,-2,-2,0,0,0,81,84,127,120,35,132.36,369,-15.00,38.00,-963.00
2024-05-19 08:59:13.314262,0,-3,-2,0,0,0,82,84,127,120,35,132.32,369,-18.00,23.00,-1025.00
2024-05-19 08:59:13.366423,0,-2,-2,0,0,0,82,84,126,120,35,132.32,369,-14.00,30.00,-1034.00
2024-05-19 08:59:13.468826,0,-2,-2,0,0,0,82,84,126,120,35,132.30,369,-29.00,44.00,-983.00
2024-05-19 08:59:13.568903,0,-2,-2,0,0,0,82,84,127,120,35,132.31,369,6.00,58.00,-981.00
2024-05-19 08:59:13.673687,0,-3,-2,0,0,0,82,84,127,120,35,132.32,369,-22.00,49.00,-961.00
2024-05-19 08:59:13.773222,0,-3,-2,0,0,0,82,84,127,120,35,132.32,369,-31.00,51.00,-991.00
2024-05-19 08:59:13.878363,0,-3,-2,0,0,0,82,84,127,120,35,132.34,369,-26.00,60.00,-995.00
2024-05-19 08:59:13.976912,0,-3,-2,0,0,0,82,84,126,120,35,132.35,370,15.00,31.00,-1033.00
2024-05-19 08:59:14.079139,0,-3,-2,0,0,0,82,84,126,120,35,132.42,370,-23.00,65.00,-1049.00
2024-05-19 08:59:14.185643,0,-3,-2,0,0,0,82,84,126,120,35,132.28,370,7.00,40.00,-1030.00
2024-05-19 08:59:14.282957,0,-3,-2,0,0,0,82,84,125,120,34,132.43,370,32.00,25.00,-984.00
2024-05-19 08:59:14.390516,1,-3,-1,0,0,0,82,84,126,120,34,132.40,370,-18.00,47.00,-1003.00
2024-05-19 08:59:14.486944,1,-3,-2,0,0,0,82,84,125,120,34,132.39,370,10.00,53.00,-1044.00
2024-05-19 08:59:14.588919,1,-2,-2,0,0,0,82,84,125,120,34,132.41,370,62.00,37.00,-987.00
2024-05-19 08:59:14.697706,1,-2,-2,0,0,0,82,84,125,120,34,132.36,370,86.00,11.00,-978.00
2024-05-19 08:59:14.792914,2,-2,-2,0,0,0,82,84,125,120,34,132.42,370,5.00,7.00,-987.00
2024-05-19 08:59:14.898695,1,-1,-2,0,0,0,82,84,124,120,34,132.43,370,6.00,11.00,-932.00
2024-05-19 08:59:14.996891,0,-1,-2,0,0,0,82,84,122,120,34,132.43,371,20.00,17.00,-951.00
2024-05-19 08:59:15.107458,0,-1,-2,0,0,0,82,84,123,110,34,132.36,371,1.00,29.00,-964.00
2024-05-19 08:59:15.201218,0,-1,-2,0,0,1,82,84,121,110,34,132.41,371,-39.00,59.00,-1017.00
2024-05-19 08:59:15.311972,-1,-1,-2,0,0,1,81,83,119,110,34,132.36,371,-32.00,12.00,-1060.00
2024-05-19 08:59:15.406403,-1,-2,-2,0,0,0,81,83,118,110,34,132.26,371,18.00,30.00,-998.00
2024-05-19 08:59:15.506910,-1,-2,-2,0,0,0,81,83,117,110,34,132.26,371,0.00,56.00,-998.00
2024-05-19 08:59:15.608874,-1,-3,-2,0,0,0,81,83,117,110,34,132.35,371,-22.00,25.00,-997.00
2024-05-19 08:59:15.721625,-1,-3,-2,0,0,0,81,83,117,110,34,132.27,371,22.00,73.00,-970.00
2024-05-19 08:59:15.812983,-1,-3,-2,0,0,0,81,83,117,110,34,132.21,371,-57.00,47.00,-1034.00
2024-05-19 08:59:15.926459,-1,-2,-2,0,0,0,81,83,117,110,34,132.24,371,-30.00,41.00,-1036.00
2024-05-19 08:59:16.016929,-1,-2,-2,0,0,0,81,83,118,110,34,132.35,372,-37.00,63.00,-933.00
2024-05-19 08:59:16.131205,-1,-2,-2,0,0,0,81,83,119,110,34,132.33,372,-2.00,42.00,-1066.00
2024-05-19 08:59:16.220958,-2,-2,-2,0,0,0,81,83,119,110,34,132.27,372,-12.00,55.00,-1031.00
2024-05-19 08:59:16.335983,-2,-2,-2,0,0,0,81,84,120,110,34,132.35,372,-58.00,34.00,-1040.00
2024-05-19 08:59:16.424851,-2,-2,-2,0,0,0,81,84,121,110,34,132.34,372,-47.00,38.00,-1052.00
2024-05-19 08:59:16.526788,-2,-2,-2,0,0,0,81,84,121,110,34,132.33,372,-29.00,0.00,-1032.00
2024-05-19 08:59:16.643557,-3,-1,-1,0,0,0,81,84,122,110,34,132.35,372,-27.00,14.00,-956.00
2024-05-19 08:59:16.730851,-2,-1,-1,0,0,0,81,84,122,110,34,132.40,372,-40.00,31.00,-1021.00
2024-05-19 08:59:16.781535,-2,-2,-1,0,0,0,81,84,123,110,34,132.34,372,-31.00,48.00,-971.00
2024-05-19 08:59:16.950710,-2,-2,-2,0,0,0,81,84,123,120,34,132.32,372,-31.00,30.00,-1006.00
2024-05-19 08:59:16.985651,-1,-2,-2,0,0,0,81,84,123,120,34,132.29,373,-17.00,20.00,-966.00
2024-05-19 08:59:17.087756,-1,-1,-2,0,0,0,81,84,122,120,34,132.34,373,-58.00,30.00,-1038.00
2024-05-19 08:59:17.189632,-1,-1,-2,0,0,0,81,84,122,110,34,132.33,373,-22.00,23.00,-1029.00
2024-05-19 08:59:17.291611,-2,-1,-2,0,0,0,81,84,123,110,34,132.23,373,-12.00,-1.00,-1016.00
2024-05-19 08:59:17.462425,-1,-1,-2,0,0,0,81,84,123,110,34,132.32,373,-12.00,15.00,-986.00
2024-05-19 08:59:17.495628,0,-1,-2,0,0,0,81,84,124,110,34,132.32,373,-2.00,24.00,-996.00
2024-05-19 08:59:17.597490,0,0,-2,0,0,0,81,84,124,110,34,132.30,373,-26.00,15.00,-1017.00
2024-05-19 08:59:17.769603,0,0,-2,0,0,0,81,84,125,110,34,132.35,373,-34.00,27.00,-1008.00
2024-05-19 08:59:17.801546,-1,-1,-2,0,0,0,81,84,127,110,34,132.38,373,-29.00,19.00,-966.00
2024-05-19 08:59:17.974472,-1,-1,-2,0,0,0,81,84,128,120,34,132.37,373,9.00,21.00,-965.00
2024-05-19 08:59:18.005447,-2,-1,-2,0,0,0,81,84,129,120,34,132.33,374,17.00,18.00,-929.00
2024-05-19 08:59:18.179617,-2,-1,-2,0,0,0,81,84,130,120,34,132.28,374,-2.00,5.00,-985.00
2024-05-19 08:59:18.209486,-1,-1,-2,0,0,0,81,84,130,120,34,132.37,374,-68.00,25.00,-916.00
2024-05-19 08:59:18.383973,-2,-1,-2,0,0,0,82,84,131,120,34,132.43,374,-34.00,9.00,-998.00
2024-05-19 08:59:18.413550,-2,0,-2,0,0,0,82,84,132,120,34,132.27,374,-45.00,7.00,-1015.00
2024-05-19 08:59:18.588964,-1,0,-2,0,0,0,82,84,132,120,34,132.34,374,-26.00,-12.00,-1009.00
2024-05-19 08:59:18.617566,-1,0,-2,0,0,0,82,84,133,120,34,132.35,374,-56.00,25.00,-1036.00
2024-05-19 08:59:18.793499,-1,0,-2,0,0,0,82,84,133,120,34,132.36,374,-64.00,35.00,-998.00
2024-05-19 08:59:18.821448,0,0,-2,0,0,0,82,84,133,120,34,132.44,374,-26.00,5.00,-989.00
2024-05-19 08:59:18.998599,0,0,-2,0,0,0,82,84,133,120,34,132.46,374,-72.00,3.00,-1083.00
2024-05-19 08:59:19.027987,0,0,-2,0,0,0,82,84,133,120,34,132.36,375,-33.00,0.00,-1123.00
2024-05-19 08:59:19.127523,0,0,-2,0,0,0,82,84,133,120,34,132.45,375,-33.00,17.00,-1022.00
2024-05-19 08:59:19.306051,0,0,-1,0,0,0,82,84,134,120,33,132.47,375,-50.00,-9.00,-1061.00
2024-05-19 08:59:19.331789,0,0,-1,0,0,0,82,83,134,120,33,132.54,375,12.00,0.00,-881.00
2024-05-19 08:59:19.433630,-1,0,-1,0,0,0,82,83,135,120,33,132.50,375,-39.00,8.00,-996.00
2024-05-19 08:59:19.612773,-1,0,-1,0,0,0,82,83,135,120,33,132.49,375,-56.00,-3.00,-967.00
2024-05-19 08:59:19.637481,-1,0,-1,0,0,0,82,83,136,120,33,132.48,375,-28.00,15.00,-938.00
2024-05-19 08:59:19.817664,-1,0,-1,0,0,0,82,83,135,120,33,132.53,375,-8.00,1.00,-868.00
2024-05-19 08:59:19.841457,-1,0,-1,0,0,0,82,83,135,120,33,132.57,375,10.00,32.00,-910.00
2024-05-19 08:59:20.022344,-1,0,-1,0,0,0,82,83,135,120,33,132.52,375,-52.00,22.00,-1013.00
2024-05-19 08:59:20.045464,-1,0,-1,0,0,0,82,83,134,120,33,132.54,376,-61.00,16.00,-1042.00
2024-05-19 08:59:20.227219,-1,0,-2,0,0,0,82,83,134,120,33,132.57,376,6.00,22.00,-954.00
2024-05-19 08:59:20.249376,-1,0,-2,0,0,0,82,83,134,120,33,132.57,376,-30.00,14.00,-999.00
2024-05-19 08:59:20.433086,-1,0,-2,0,0,0,82,84,134,120,33,132.48,376,-21.00,38.00,-1022.00
2024-05-19 08:59:20.433283,-1,0,-2,0,0,0,82,84,133,120,33,132.46,376,-25.00,31.00,-977.00
2024-05-19 08:59:20.505134,0,0,-2,0,0,0,82,84,133,120,33,132.46,376,-8.00,11.00,-984.00
2024-05-19 08:59:20.607347,0,-1,-2,0,0,0,82,84,133,120,33,132.38,376,-5.00,5.00,-1040.00
2024-05-19 08:59:20.739278,0,0,-2,0,0,0,82,84,132,120,33,132.44,376,-34.00,19.00,-1052.00
2024-05-19 08:59:20.811373,0,0,-2,0,0,0,82,84,132,120,33,132.46,376,-52.00,-15.00,-1076.00
2024-05-19 08:59:20.913370,0,0,-2,0,0,0,82,84,132,120,33,132.46,376,-44.00,36.00,-1030.00
2024-05-19 08:59:21.049201,0,-1,-2,0,0,0,82,84,132,120,33,132.42,377,-8.00,11.00,-983.00
2024-05-19 08:59:21.117402,0,-1,-2,0,0,0,82,84,132,120,33,132.49,377,-21.00,27.00,-961.00
2024-05-19 08:59:21.251493,0,-1,-2,0,0,0,82,84,131,120,33,132.46,377,-32.00,5.00,-981.00
2024-05-19 08:59:21.321460,-1,-1,-2,0,0,0,81,83,130,120,33,132.43,377,-2.00,-9.00,-1018.00
2024-05-19 08:59:21.456228,0,-1,-2,0,0,0,81,83,130,120,33,132.44,377,0.00,-18.00,-1024.00
2024-05-19 08:59:21.525353,0,0,-2,0,0,0,81,83,130,120,33,132.30,377,-10.00,18.00,-992.00
2024-05-19 08:59:21.627305,0,0,-2,0,0,0,81,83,130,120,33,132.38,377,10.00,13.00,-906.00
2024-05-19 08:59:21.763250,0,0,-2,0,0,0,81,83,129,120,33,132.36,377,-35.00,-2.00,-993.00
2024-05-19 08:59:21.831357,-1,0,-2,0,0,0,81,83,128,120,33,132.37,377,-8.00,16.00,-947.00
2024-05-19 08:59:21.967791,-1,0,-2,0,0,0,81,83,127,120,33,132.41,377,-4.00,4.00,-985.00
2024-05-19 08:59:22.035290,-1,0,-2,0,0,0,81,83,126,120,33,132.34,378,10.00,-15.00,-986.00
2024-05-19 08:59:22.172806,-1,0,-2,0,0,0,81,83,125,120,33,132.35,378,0.00,-8.00,-925.00
2024-05-19 08:59:22.239637,0,0,-2,0,0,0,81,83,124,120,33,132.31,378,-67.00,15.00,-1049.00
2024-05-19 08:59:22.377565,-1,0,-2,0,0,0,82,84,124,110,33,132.43,378,-37.00,-1.00,-1096.00
2024-05-19 08:59:22.443337,-1,0,-2,0,0,0,82,84,125,110,33,132.48,378,10.00,-20.00,-1017.00
2024-05-19 08:59:22.548593,-1,0,-1,0,0,0,82,84,125,110,33,132.41,378,-60.00,4.00,-1123.00
2024-05-19 08:59:22.649003,-2,0,-1,0,0,0,82,84,125,110,33,132.45,378,15.00,-4.00,-1042.00
2024-05-19 08:59:22.750271,-2,0,-1,0,0,0,82,84,125,110,33,132.44,378,-18.00,17.00,-1028.00
2024-05-19 08:59:22.851624,-2,0,-1,0,0,0,82,84,126,110,33,132.52,378,-12.00,31.00,-980.00
2024-05-19 08:59:22.991974,-1,-1,-1,0,0,0,82,84,127,110,33,132.48,378,47.00,32.00,-965.00
2024-05-19 08:59:23.055295,-1,-1,-2,0,0,0,82,84,127,120,33,132.51,379,-13.00,23.00,-971.00
2024-05-19 08:59:23.200078,-1,-1,-2,0,0,0,82,84,127,120,33,132.41,379,22.00,48.00,-967.00
2024-05-19 08:59:23.259075,-1,-2,-2,0,0,0,82,84,128,120,33,132.46,379,-16.00,25.00,-1032.00
2024-05-19 08:59:23.401385,-1,-2,-2,0,0,0,82,83,127,120,33,132.49,379,-29.00,38.00,-954.00
2024-05-19 08:59:23.463049,-1,-2,-2,0,0,0,82,83,129,120,33,132.41,379,-29.00,61.00,-972.00
2024-05-19 08:59:23.606183,-1,-2,-2,0,0,0,82,83,128,120,33,132.48,379,-33.00,32.00,-1135.00
2024-05-19 08:59:23.667037,-1,-2,-2,0,0,0,82,83,129,120,33,132.39,379,-62.00,56.00,-998.00
2024-05-19 08:59:23.810980,0,-2,-2,0,0,0,82,83,130,120,33,132.51,379,-65.00,53.00,-979.00
2024-05-19 08:59:23.871160,0,-2,-2,0,0,0,82,83,129,120,33,132.51,379,-48.00,35.00,-918.00
2024-05-19 08:59:23.922465,-1,-2,-2,0,0,0,82,83,128,120,33,132.48,379,-9.00,24.00,-989.00
2024-05-19 08:59:24.118176,-1,-2,-2,0,0,0,82,83,126,120,33,132.45,380,-26.00,52.00,-820.00
2024-05-19 08:59:24.127343,-1,-2,-2,0,0,1,82,83,124,120,33,132.48,380,14.00,45.00,-785.00
2024-05-19 08:59:24.322973,0,-1,-2,0,0,2,82,83,121,110,33,132.39,380,6.00,24.00,-898.00
2024-05-19 08:59:24.332123,0,-2,-2,0,0,3,82,84,116,110,33,132.32,380,-48.00,47.00,-899.00
2024-05-19 08:59:24.432657,0,-2,-2,0,0,4,82,84,111,110,33,132.22,380,-46.00,36.00,-898.00
2024-05-19 08:59:24.536924,0,-2,-2,0,0,5,82,84,104,100,33,132.28,380,-29.00,7.00,-933.00
2024-05-19 08:59:24.639319,0,-2,-2,0,0,6,82,84,97,100,33,132.26,380,-20.00,60.00,-908.00
