TS,pitch,roll,yaw,vgx,vgy,vgz,templ,temph,tof,h,bat,baro,time,agx,agy,agz
2024-05-17 17:03:37.305407,0,0,0,0,0,0,56,58,10,0,100,170.08,0,8.00,3.00,-999.00
2024-05-17 17:03:37.366281,0,0,0,0,0,0,56,58,10,0,100,169.99,0,8.00,4.00,-999.00
2024-05-17 17:03:37.465649,0,0,0,0,0,0,56,58,10,0,100,169.96,0,10.00,3.00,-999.00
2024-05-17 17:03:37.567672,0,0,0,0,0,0,56,58,10,0,100,170.17,0,9.00,1.00,-999.00
2024-05-17 17:03:37.713253,0,0,0,0,0,0,56,58,10,0,100,169.94,0,9.00,2.00,-999.00
2024-05-17 17:03:37.771645,0,0,0,0,0,0,56,58,10,0,100,169.93,0,8.00,3.00,-1001.00
2024-05-17 17:03:37.916496,0,0,0,0,0,0,56,58,10,0,100,169.92,0,8.00,3.00,-999.00
2024-05-17 17:03:37.924333,0,0,0,0,0,0,56,58,10,0,100,169.87,0,9.00,4.00,-1000.00
2024-05-17 17:03:38.121710,0,0,0,0,0,0,56,58,10,0,100,170.06,0,10.00,2.00,-1000.00
2024-05-17 17:03:38.129303,0,0,0,0,0,0,57,59,10,0,100,169.86,0,9.00,3.00,-999.00
2024-05-17 17:03:38.318125,0,0,0,0,0,0,57,59,10,0,100,169.98,0,8.00,2.00,-998.00
2024-05-17 17:03:38.333337,0,0,0,0,0,0,57,59,10,0,100,169.68,0,8.00,1.00,-999.00
2024-05-17 17:03:38.530626,0,0,0,0,0,0,57,59,10,0,100,170.14,0,9.00,4.00,-1000.00
2024-05-17 17:03:38.537159,0,0,0,0,0,0,57,59,10,0,100,169.91,0,9.00,2.00,-1002.00
2024-05-17 17:03:38.639821,0,0,0,0,0,0,57,59,10,0,100,170.01,0,8.00,3.00,-999.00
2024-05-17 17:03:38.742827,0,0,0,0,0,0,57,59,10,0,100,169.95,0,8.00,5.00,-998.00
2024-05-17 17:03:38.843615,0,0,0,0,0,0,57,59,10,0,100,170.06,0,9.00,4.00,-1001.00
2024-05-17 17:03:39.042753,0,0,0,0,0,0,57,59,10,0,100,169.74,0,8.00,2.00,-1001.00
2024-05-17 17:03:39.047633,0,0,0,0,0,0,57,59,10,0,100,169.73,0,9.00,4.00,-997.00
2024-05-17 17:03:39.247642,0,0,0,0,0,0,56,59,10,0,100,170.00,0,7.00,2.00,-999.00
2024-05-17 17:03:39.251613,0,0,0,0,0,0,56,59,10,0,100,170.22,0,9.00,2.00,-1000.00
2024-05-17 17:03:39.452424,0,0,0,0,0,0,56,59,10,0,100,169.95,0,7.00,2.00,-996.00
2024-05-17 17:03:39.455276,0,0,0,0,0,0,56,59,10,0,100,169.76,0,7.00,3.00,-999.00
2024-05-17 17:03:39.557797,0,0,0,0,0,0,56,59,10,0,100,169.92,0,8.00,2.00,-1001.00
2024-05-17 17:03:39.659334,0,0,0,0,0,0,56,59,10,0,100,169.96,0,8.00,3.00,-998.00
2024-05-17 17:03:39.861797,0,0,0,0,0,0,56,59,10,0,100,169.70,0,9.00,4.00,-1000.00
2024-05-17 17:03:39.863050,0,0,0,0,0,0,56,59,10,0,100,169.96,0,7.00,4.00,-999.00
2024-05-17 17:03:40.066982,0,0,0,0,0,0,56,59,10,0,100,169.88,0,8.00,4.00,-1001.00
2024-05-17 17:03:40.067260,0,0,0,0,0,0,56,59,10,0,100,169.96,0,8.00,3.00,-999.00
2024-05-17 17:03:40.169430,0,0,0,0,0,0,56,59,10,0,100,170.02,0,9.00,4.00,-998.00
2024-05-17 17:03:40.271317,0,0,0,0,0,0,56,59,10,0,100,169.96,0,9.00,3.00,-1000.00
2024-05-17 17:03:40.374547,0,0,0,0,0,0,56,59,10,0,100,170.12,0,9.00,2.00,-998.00
2024-05-17 17:03:40.476637,0,0,0,0,0,0,56,59,10,0,100,170.25,0,8.00,3.00,-1001.00
2024-05-17 17:03:40.578398,0,0,0,0,0,0,56,59,10,0,100,169.95,0,7.00,3.00,-997.00
2024-05-17 17:03:40.681035,0,0,0,0,0,0,56,59,10,0,100,169.95,0,17.00,2.00,-1001.00
2024-05-17 17:03:40.781420,0,0,0,0,0,0,56,59,10,0,100,169.95,0,6.00,1.00,-1000.00
2024-05-17 17:03:40.883376,0,0,0,0,0,0,56,59,10,0,100,169.95,0,-18.00,0.00,-1002.00
2024-05-17 17:03:40.934104,0,0,1,0,0,0,56,59,10,0,100,169.95,0,18.00,35.00,-1053.00
2024-05-17 17:03:41.091449,0,0,1,0,0,0,56,59,10,0,100,169.95,0,6.00,37.00,-1002.00
2024-05-17 17:03:41.138049,0,0,1,0,0,-1,57,60,10,0,100,169.95,0,21.00,22.00,-1181.00
2024-05-17 17:03:41.295449,0,0,1,0,0,-3,57,60,10,10,100,169.95,0,22.00,4.00,-1368.00
2024-05-17 17:03:41.342129,2,0,2,1,0,-6,57,60,10,10,100,169.95,0,68.00,-4.00,-1214.00
2024-05-17 17:03:41.500272,3,0,1,0,0,-8,57,60,18,20,100,170.34,0,-21.00,0.00,-1025.00
2024-05-17 17:03:41.546989,2,0,1,0,0,-9,57,60,26,30,100,170.40,0,-29.00,29.00,-938.00
2024-05-17 17:03:41.705018,1,0,1,0,0,-9,57,60,34,40,100,170.46,1,-13.00,2.00,-979.00
2024-05-17 17:03:41.751714,1,0,1,0,0,-8,57,60,41,50,100,170.36,1,54.00,18.00,-923.00
2024-05-17 17:03:41.910395,1,0,1,0,0,-7,57,60,45,60,100,170.47,1,42.00,-32.00,-904.00
2024-05-17 17:03:41.955076,0,0,1,0,0,-6,57,60,49,70,100,170.68,1,11.00,-6.00,-855.00
2024-05-17 17:03:42.057249,0,0,1,0,0,-5,57,60,51,70,100,170.32,1,35.00,2.00,-851.00
2024-05-17 17:03:42.217013,0,0,1,0,0,-3,57,59,53,80,100,170.37,1,69.00,-17.00,-909.00
2024-05-17 17:03:42.261151,1,0,1,0,0,-2,57,59,54,80,100,170.58,1,32.00,7.00,-924.00
2024-05-17 17:03:42.422431,2,0,1,0,0,-2,57,59,54,80,100,170.55,1,9.00,33.00,-927.00
2024-05-17 17:03:42.465937,2,0,1,0,0,-1,57,59,53,80,100,170.58,1,-6.00,22.00,-948.00
2024-05-17 17:03:42.566951,2,0,1,0,0,-1,57,59,52,80,100,170.32,1,73.00,-19.00,-1057.00
2024-05-17 17:03:42.731946,2,0,1,0,0,-1,57,59,51,80,100,170.53,2,0.00,47.00,-1032.00
2024-05-17 17:03:42.770931,1,0,1,0,0,-1,57,59,49,80,100,170.63,2,50.00,4.00,-1073.00
2024-05-17 17:03:42.933768,1,0,1,0,0,-1,57,59,48,80,100,170.65,2,-15.00,7.00,-1003.00
2024-05-17 17:03:42.975296,1,0,1,0,0,-1,57,59,48,80,100,170.49,2,81.00,-57.00,-1039.00
2024-05-17 17:03:43.077024,1,0,1,0,0,-2,57,59,49,80,100,170.44,2,32.00,13.00,-1066.00
2024-05-17 17:03:43.241064,1,0,1,0,0,-2,57,59,50,80,100,170.47,2,72.00,-3.00,-1043.00
2024-05-17 17:03:43.281693,1,0,1,0,0,-2,57,59,51,80,100,170.55,2,40.00,29.00,-1044.00
2024-05-17 17:03:43.448491,1,0,1,0,0,-2,57,59,53,80,100,170.64,2,-20.00,30.00,-985.00
2024-05-17 17:03:43.485233,1,0,1,0,0,-2,57,59,56,80,100,170.72,2,37.00,1.00,-1043.00
2024-05-17 17:03:43.587246,2,0,1,0,0,-2,57,59,57,80,100,170.48,2,12.00,37.00,-993.00
2024-05-17 17:03:43.709428,2,0,1,0,0,-2,57,59,57,80,100,170.65,3,21.00,21.00,-986.00
2024-05-17 17:03:43.795015,2,0,1,0,0,-3,57,59,59,90,100,170.59,3,4.00,60.00,-988.00
2024-05-17 17:03:43.843571,2,0,1,0,0,-3,57,59,62,90,100,170.64,3,-2.00,46.00,-937.00
2024-05-17 17:03:43.943987,2,0,1,0,0,-2,57,59,65,90,100,170.70,3,59.00,2.00,-1033.00
2024-05-17 17:03:44.046809,2,0,1,0,0,-2,57,59,67,100,100,170.85,3,93.00,-24.00,-1007.00
2024-05-17 17:03:44.147959,2,0,1,0,0,-2,57,59,70,100,100,170.50,3,33.00,17.00,-970.00
2024-05-17 17:03:44.269474,2,0,1,0,0,-2,57,59,72,100,100,170.63,3,24.00,15.00,-960.00
2024-05-17 17:03:44.351798,1,-1,1,0,0,-2,57,59,74,100,100,170.81,3,28.00,-7.00,-959.00
2024-05-17 17:03:44.470821,1,-1,1,0,0,-1,57,59,76,100,100,170.65,3,52.00,33.00,-992.00
2024-05-17 17:03:44.555775,1,-1,1,0,0,-1,57,59,77,110,100,170.89,3,52.00,15.00,-985.00
2024-05-17 17:03:44.674636,2,0,1,0,0,-1,57,59,79,110,100,170.83,4,90.00,6.00,-1059.00
2024-05-17 17:03:44.761424,2,0,1,0,0,-1,57,59,80,110,100,170.81,4,31.00,32.00,-983.00
2024-05-17 17:03:44.862091,2,0,1,0,0,-1,57,59,81,110,100,170.84,4,76.00,21.00,-1019.00
2024-05-17 17:03:44.983055,2,0,1,0,0,-1,57,59,82,110,100,170.88,4,49.00,3.00,-977.00
2024-05-17 17:03:45.065883,1,-1,1,0,0,-1,57,59,84,110,100,170.95,4,9.00,35.00,-953.00
2024-05-17 17:03:45.186609,1,0,1,0,0,-1,57,60,84,110,100,170.76,4,9.00,30.00,-963.00
2024-05-17 17:03:45.273597,1,-1,1,0,0,0,57,60,88,110,100,170.76,4,4.00,28.00,-970.00
2024-05-17 17:03:45.371718,0,-1,1,0,0,0,57,60,88,120,100,170.71,4,81.00,5.00,-1010.00
2024-05-17 17:03:45.494048,1,0,1,0,0,0,57,60,89,120,100,171.04,4,26.00,33.00,-983.00
2024-05-17 17:03:45.586043,1,0,1,0,0,0,57,60,90,120,100,170.92,4,27.00,2.00,-980.00
2024-05-17 17:03:45.677884,1,0,1,0,0,0,57,60,91,120,100,170.82,5,38.00,13.00,-988.00
2024-05-17 17:03:45.780938,2,0,1,0,0,0,57,60,92,120,100,170.85,5,42.00,-8.00,-992.00
2024-05-17 17:03:45.882393,3,0,1,0,0,0,57,60,94,120,100,170.59,5,62.00,-1.00,-988.00
2024-05-17 17:03:46.005796,3,0,1,0,0,0,57,60,94,120,100,170.83,5,-6.00,32.00,-990.00
2024-05-17 17:03:46.085833,2,0,1,0,0,0,57,60,94,120,100,171.11,5,25.00,14.00,-975.00
2024-05-17 17:03:46.188642,1,0,1,0,0,0,58,60,94,120,99,170.74,5,111.00,-17.00,-1054.00
2024-05-17 17:03:46.289926,1,-1,1,0,0,0,58,60,95,120,99,170.93,5,27.00,17.00,-986.00
2024-05-17 17:03:46.415485,2,0,1,0,0,0,58,60,95,120,99,170.95,5,29.00,19.00,-1025.00
2024-05-17 17:03:46.493796,1,-1,1,0,0,0,58,60,96,120,99,170.99,5,21.00,41.00,-976.00
2024-05-17 17:03:46.596506,1,-1,1,0,0,0,58,60,97,120,99,171.05,5,51.00,40.00,-992.00
2024-05-17 17:03:46.697847,0,-1,1,0,0,0,58,60,98,120,99,170.93,6,64.00,11.00,-970.00
2024-05-17 17:03:46.824994,1,-1,1,0,0,0,58,60,99,120,99,170.91,6,107.00,-21.00,-981.00
2024-05-17 17:03:46.901758,2,-1,1,0,0,0,58,60,100,120,99,171.04,6,-3.00,18.00,-961.00
2024-05-17 17:03:47.029792,2,0,1,0,0,0,58,60,101,120,99,171.25,6,70.00,25.00,-1023.00
2024-05-17 17:03:47.106677,1,-1,1,0,0,0,58,60,101,130,99,170.94,6,43.00,12.00,-979.00
2024-05-17 17:03:47.212899,1,-1,1,0,0,0,58,60,102,130,99,170.90,6,60.00,16.00,-1019.00
2024-05-17 17:03:47.309876,2,-1,1,0,0,0,58,60,102,130,99,170.83,6,48.00,30.00,-981.00
2024-05-17 17:03:47.412186,2,-1,1,0,0,0,58,60,102,130,99,170.95,6,46.00,34.00,-1001.00
2024-05-17 17:03:47.541910,1,-1,1,0,0,0,58,60,102,130,99,171.00,6,43.00,13.00,-989.00
2024-05-17 17:03:47.615759,2,-1,1,0,0,0,58,60,102,130,99,170.95,6,33.00,28.00,-996.00
2024-05-17 17:03:47.747375,1,-1,1,0,0,1,58,60,101,130,99,171.12,7,-18.00,63.00,-930.00
2024-05-17 17:03:47.820745,1,-1,1,0,0,1,58,60,101,130,99,170.99,7,91.00,-29.00,-1040.00
2024-05-17 17:03:47.874271,1,-1,1,0,0,1,58,60,100,130,99,171.09,7,42.00,19.00,-996.00
2024-05-17 17:03:47.972752,1,-1,1,0,0,1,58,60,99,130,99,171.09,7,96.00,-11.00,-997.00
2024-05-17 17:03:48.075516,1,-1,1,0,0,1,58,60,98,130,99,170.92,7,13.00,17.00,-1007.00
2024-05-17 17:03:48.260307,2,-1,1,0,0,1,58,61,96,120,98,170.82,7,-8.00,44.00,-955.00
2024-05-17 17:03:48.278855,1,-1,1,0,0,1,58,61,95,120,98,170.81,7,56.00,16.00,-1060.00
2024-05-17 17:03:48.463383,1,-1,1,0,0,0,58,61,95,120,98,170.87,7,71.00,-12.00,-999.00
2024-05-17 17:03:48.482672,1,-1,1,0,0,0,58,61,94,120,98,170.87,7,-9.00,49.00,-1025.00
2024-05-17 17:03:48.668766,1,-1,1,0,0,0,58,61,94,120,98,170.75,7,43.00,10.00,-1008.00
2024-05-17 17:03:48.686681,1,-1,1,0,0,0,58,61,94,120,98,171.03,8,51.00,21.00,-1022.00
2024-05-17 17:03:48.873665,1,-2,1,0,0,0,58,61,94,120,98,170.82,8,45.00,17.00,-1017.00
2024-05-17 17:03:48.892315,1,-2,1,0,0,0,58,61,94,120,98,170.91,8,-8.00,59.00,-980.00
2024-05-17 17:03:48.993472,1,-2,1,0,0,0,58,61,95,120,98,170.62,8,43.00,22.00,-1014.00
2024-05-17 17:03:49.094670,1,-2,1,0,0,0,58,61,95,120,98,170.77,8,13.00,25.00,-971.00
2024-05-17 17:03:49.282583,1,-2,1,0,0,0,58,61,96,120,98,170.88,8,-18.00,68.00,-1007.00
2024-05-17 17:03:49.302912,0,-2,1,0,0,0,58,61,96,120,98,170.94,8,82.00,-2.00,-1113.00
2024-05-17 17:03:49.403908,1,-2,1,0,0,0,58,61,96,120,98,170.73,8,51.00,19.00,-991.00
2024-05-17 17:03:49.503582,1,-2,1,0,0,0,58,61,96,120,98,170.72,8,125.00,-6.00,-1073.00
2024-05-17 17:03:49.605024,1,-1,1,0,0,0,58,61,96,120,98,170.84,8,82.00,-5.00,-1099.00
2024-05-17 17:03:49.800475,1,-1,1,0,0,0,58,61,96,120,98,170.69,9,59.00,7.00,-999.00
2024-05-17 17:03:49.808883,1,-2,1,0,0,0,58,61,96,120,98,170.66,9,71.00,14.00,-1033.00
2024-05-17 17:03:49.999495,1,-1,1,0,0,0,58,61,96,120,98,170.60,9,47.00,15.00,-972.00
2024-05-17 17:03:50.012786,1,-1,1,0,0,0,58,61,95,120,98,170.59,9,24.00,35.00,-993.00
2024-05-17 17:03:50.114670,1,-1,1,0,0,0,58,61,95,120,98,170.79,9,19.00,52.00,-1025.00
2024-05-17 17:03:50.306713,1,-1,1,0,0,0,58,61,95,120,97,170.76,9,32.00,39.00,-983.00
2024-05-17 17:03:50.326011,1,-1,1,0,0,0,58,61,95,120,97,170.84,9,-11.00,73.00,-976.00
2024-05-17 17:03:50.420750,1,-1,1,0,0,0,58,61,95,120,97,170.73,9,82.00,21.00,-1047.00
2024-05-17 17:03:50.613912,1,-1,1,0,0,0,58,61,95,120,97,170.62,9,50.00,31.00,-999.00
2024-05-17 17:03:50.624651,2,-1,1,0,0,0,58,61,94,120,97,171.09,9,19.00,8.00,-968.00
2024-05-17 17:03:50.728187,1,-1,1,0,0,0,58,61,93,120,97,170.92,10,64.00,-18.00,-1026.00
2024-05-17 17:03:50.921468,1,-1,1,0,0,0,58,61,93,120,97,170.67,10,9.00,27.00,-958.00
2024-05-17 17:03:50.930911,1,-1,1,0,0,0,58,61,92,120,97,170.81,10,-6.00,53.00,-970.00
2024-05-17 17:03:51.125783,1,-1,1,0,0,0,58,61,92,120,97,170.81,10,76.00,-9.00,-1062.00
2024-05-17 17:03:51.134632,0,-1,1,0,0,0,58,61,91,120,97,170.84,10,52.00,26.00,-1044.00
2024-05-17 17:03:51.288624,1,-1,1,0,0,0,59,61,90,120,97,170.72,10,6.00,12.00,-958.00
2024-05-17 17:03:51.338520,1,-1,1,0,0,0,59,61,89,120,97,170.69,10,57.00,32.00,-1048.00
2024-05-17 17:03:51.535303,1,-1,1,0,0,0,59,61,89,120,97,170.68,10,38.00,13.00,-964.00
2024-05-17 17:03:51.542760,1,-1,1,0,0,0,59,61,89,120,97,170.82,10,14.00,25.00,-1063.00
2024-05-17 17:03:51.645436,1,-1,1,0,0,0,59,61,90,120,97,170.60,10,-5.00,47.00,-1096.00
2024-05-17 17:03:51.696756,1,-1,1,0,0,-1,59,61,93,120,97,170.67,11,10.00,44.00,-1093.00
2024-05-17 17:03:51.797411,0,-2,1,0,0,-2,59,61,96,120,97,170.86,11,102.00,16.00,-1127.00
2024-05-17 17:03:51.944977,0,-2,1,0,0,-3,59,61,99,120,97,171.09,11,-25.00,19.00,-1074.00
2024-05-17 17:03:52.001454,0,-2,1,0,0,-4,59,61,104,130,97,171.00,11,67.00,-2.00,-1091.00
2024-05-17 17:03:52.103509,0,-2,1,0,0,-4,59,61,110,130,97,170.88,11,8.00,35.00,-1066.00
2024-05-17 17:03:52.252164,1,-1,1,0,0,-5,59,61,114,140,96,170.88,11,55.00,-6.00,-1073.00
2024-05-17 17:03:52.307759,1,-1,1,0,0,-5,59,61,120,140,96,171.17,11,14.00,37.00,-1050.00
2024-05-17 17:03:52.458483,1,-1,1,0,0,-5,59,61,126,150,96,171.10,11,13.00,44.00,-1046.00
2024-05-17 17:03:52.512278,1,-1,1,0,0,-5,59,61,132,150,96,171.21,11,37.00,42.00,-992.00
2024-05-17 17:03:52.662098,1,-1,1,0,0,-5,59,61,139,160,96,171.24,11,34.00,33.00,-951.00
2024-05-17 17:03:52.715425,1,-2,1,0,0,-5,59,61,144,170,96,171.39,12,22.00,44.00,-989.00
2024-05-17 17:03:52.866503,1,-2,1,0,0,-5,59,61,150,170,96,171.33,12,9.00,32.00,-998.00
2024-05-17 17:03:52.921326,1,-1,1,0,0,-4,59,61,155,180,96,171.52,12,93.00,-20.00,-975.00
2024-05-17 17:03:53.021402,1,-1,1,0,0,-4,59,61,161,180,96,171.40,12,13.00,52.00,-972.00
2024-05-17 17:03:53.124273,2,-1,1,0,0,-4,59,61,166,190,96,171.42,12,64.00,20.00,-993.00
2024-05-17 17:03:53.227031,2,0,1,0,0,-4,59,62,171,190,96,171.63,12,41.00,26.00,-968.00
2024-05-17 17:03:53.327281,2,0,1,0,0,-4,59,62,175,200,96,171.40,12,3.00,46.00,-981.00
2024-05-17 17:03:53.431677,2,-1,1,0,0,-3,59,62,178,200,96,171.50,12,51.00,41.00,-991.00
2024-05-17 17:03:53.531563,1,-1,1,0,0,-3,59,62,182,200,96,171.47,12,93.00,-31.00,-978.00
2024-05-17 17:03:53.688147,1,-1,1,0,0,-2,59,62,184,210,96,171.65,12,107.00,23.00,-1015.00
2024-05-17 17:03:53.742601,2,-1,1,0,0,-2,59,62,187,210,96,171.65,13,29.00,20.00,-912.00
2024-05-17 17:03:53.840881,3,-1,1,0,0,-2,59,62,188,210,96,171.78,13,61.00,25.00,-946.00
2024-05-17 17:03:53.940694,2,-1,1,0,0,-1,59,62,191,220,96,171.38,13,72.00,17.00,-923.00
2024-05-17 17:03:54.095265,1,-2,1,0,0,-1,59,62,192,220,96,171.68,13,41.00,47.00,-945.00
2024-05-17 17:03:54.144435,1,-1,1,0,0,0,59,62,192,220,96,171.59,13,24.00,42.00,-967.00
2024-05-17 17:03:54.300041,1,-1,1,0,0,0,60,62,192,220,95,171.68,13,60.00,7.00,-1001.00
2024-05-17 17:03:54.348377,1,-2,1,0,0,0,60,62,192,220,95,171.55,13,-14.00,16.00,-938.00
2024-05-17 17:03:54.452033,0,-2,1,0,0,0,60,62,192,220,95,171.89,13,65.00,-5.00,-1024.00
2024-05-17 17:03:54.552331,1,-2,1,0,0,0,60,62,192,220,95,171.86,13,-17.00,24.00,-967.00
2024-05-17 17:03:54.710236,1,-1,1,0,0,0,60,62,192,220,95,171.38,14,31.00,33.00,-991.00
2024-05-17 17:03:54.756493,0,-2,1,0,0,0,60,62,191,220,95,171.51,14,7.00,29.00,-1014.00
2024-05-17 17:03:54.915231,1,-2,1,0,0,0,60,62,192,220,95,171.51,14,84.00,24.00,-1049.00
2024-05-17 17:03:54.961599,2,-1,1,0,0,0,60,62,191,220,95,171.83,14,37.00,43.00,-994.00
2024-05-17 17:03:55.120214,2,-1,1,0,0,0,60,62,192,220,95,171.88,14,7.00,35.00,-995.00
2024-05-17 17:03:55.164500,1,-2,1,0,0,0,60,62,191,220,95,171.62,14,13.00,56.00,-971.00
2024-05-17 17:03:55.325321,0,-2,1,0,0,0,60,62,191,220,95,171.69,14,47.00,2.00,-1000.00
2024-05-17 17:03:55.368739,0,-2,1,0,0,0,60,62,192,220,95,171.71,14,90.00,-13.00,-1116.00
2024-05-17 17:03:55.529100,1,-2,1,0,0,0,60,62,192,220,95,171.69,14,48.00,25.00,-1017.00
2024-05-17 17:03:55.572364,1,-2,1,0,0,0,60,62,192,220,95,171.33,14,28.00,38.00,-998.00
2024-05-17 17:03:55.624653,1,-2,1,0,0,0,60,62,193,220,95,171.55,15,61.00,13.00,-1007.00
2024-05-17 17:03:55.726488,2,-1,1,0,0,0,60,62,192,220,95,171.40,15,14.00,52.00,-977.00
2024-05-17 17:03:55.827404,2,-1,1,0,0,0,60,62,193,220,95,171.73,15,75.00,-18.00,-994.00
2024-05-17 17:03:55.929398,2,-1,1,0,0,0,60,62,194,220,95,171.73,15,25.00,18.00,-988.00
2024-05-17 17:03:56.042955,1,-1,1,0,0,0,60,62,194,220,95,171.60,15,41.00,-10.00,-965.00
2024-05-17 17:03:56.135887,1,-1,1,0,0,0,60,62,195,220,95,171.60,15,-11.00,74.00,-890.00
2024-05-17 17:03:56.235720,1,-2,1,0,0,0,59,61,195,220,94,171.50,15,5.00,26.00,-943.00
2024-05-17 17:03:56.348236,1,-2,1,0,0,1,59,61,194,220,94,171.61,15,30.00,14.00,-953.00
2024-05-17 17:03:56.439235,1,-2,1,0,0,1,59,61,193,220,94,171.94,15,-22.00,53.00,-910.00
2024-05-17 17:03:56.541785,1,-2,1,0,0,1,59,61,192,220,94,171.76,15,43.00,39.00,-970.00
2024-05-17 17:03:56.643594,1,-2,1,0,0,2,59,61,189,220,94,172.02,16,-29.00,33.00,-881.00
2024-05-17 17:03:56.757858,1,-2,1,0,0,2,59,61,187,210,94,171.82,16,74.00,12.00,-1017.00
2024-05-17 17:03:56.847224,1,-2,1,0,0,2,59,61,184,210,94,171.33,16,83.00,-4.00,-1020.00
2024-05-17 17:03:56.962403,1,-2,1,0,0,2,59,61,182,210,94,171.77,16,19.00,64.00,-951.00
2024-05-17 17:03:57.062884,1,-2,1,0,0,2,59,61,178,210,94,171.27,16,-4.00,30.00,-921.00
2024-05-17 17:03:57.156582,1,-2,1,0,0,2,59,61,176,200,94,171.56,16,32.00,3.00,-973.00
2024-05-17 17:03:57.255209,2,-1,1,0,0,2,59,63,173,200,94,171.19,16,10.00,39.00,-999.00
2024-05-17 17:03:57.372093,2,-1,1,0,0,2,59,63,170,200,94,171.61,16,-20.00,34.00,-944.00
2024-05-17 17:03:57.459158,2,-1,1,0,0,2,59,63,167,200,94,171.25,16,25.00,31.00,-972.00
2024-05-17 17:03:57.561166,2,-1,1,0,0,2,59,63,164,190,94,171.30,16,68.00,16.00,-1043.00
2024-05-17 17:03:57.679269,2,-1,1,0,0,2,59,63,162,190,94,171.53,17,63.00,-6.00,-1000.00
2024-05-17 17:03:57.765893,2,-1,1,0,0,2,59,63,159,190,94,171.42,17,37.00,19.00,-980.00
2024-05-17 17:03:57.884077,1,-1,1,0,0,2,59,63,157,190,94,171.35,17,0.00,35.00,-1016.00
2024-05-17 17:03:57.969347,1,-2,1,0,0,2,59,63,154,180,94,171.30,17,82.00,-18.00,-1026.00
2024-05-17 17:03:58.088850,1,-2,1,0,0,1,59,63,153,180,94,171.13,17,37.00,10.00,-975.00
2024-05-17 17:03:58.173125,1,-1,1,0,0,1,59,63,151,180,94,171.13,17,50.00,33.00,-941.00
2024-05-17 17:03:58.276999,1,-2,1,0,0,1,60,62,149,180,93,171.43,17,115.00,6.00,-1057.00
2024-05-17 17:03:58.377257,1,-2,1,0,0,1,60,62,148,180,93,171.19,17,19.00,34.00,-1040.00
2024-05-17 17:03:58.499760,1,-1,1,0,0,1,60,62,147,180,93,171.18,17,56.00,35.00,-1051.00
2024-05-17 17:03:58.582267,1,-2,1,0,0,1,60,62,145,170,93,171.36,17,43.00,12.00,-1006.00
2024-05-17 17:03:58.705408,1,-2,1,0,0,0,60,62,144,170,93,171.08,18,-50.00,20.00,-966.00
2024-05-17 17:03:58.785881,1,-1,1,0,0,0,60,62,143,170,93,171.26,18,66.00,21.00,-1053.00
2024-05-17 17:03:58.909311,1,-1,1,0,0,0,60,62,143,170,93,171.12,18,6.00,63.00,-968.00
2024-05-17 17:03:58.991980,1,-1,1,0,0,0,60,62,143,170,93,171.07,18,-5.00,47.00,-1002.00
2024-05-17 17:03:59.092012,1,-2,1,0,0,0,60,62,144,170,93,171.25,18,24.00,41.00,-982.00
2024-05-17 17:03:59.142285,1,-2,1,0,0,0,60,62,144,170,93,171.11,18,33.00,18.00,-992.00
2024-05-17 17:03:59.317913,1,-2,1,0,0,0,60,62,144,170,93,170.93,18,68.00,14.00,-1067.00
2024-05-17 17:03:59.397329,1,-1,1,0,0,0,60,62,142,170,93,171.27,18,32.00,23.00,-1013.00
2024-05-17 17:03:59.522607,1,-2,1,0,0,0,60,62,144,170,93,171.31,18,-30.00,40.00,-924.00
2024-05-17 17:03:59.602494,1,-2,1,0,0,0,60,62,144,170,93,171.34,18,32.00,36.00,-1003.00
2024-05-17 17:03:59.652677,1,-1,1,0,0,0,60,62,144,170,93,171.22,19,-39.00,56.00,-964.00
2024-05-17 17:03:59.831159,1,-1,1,0,0,0,60,62,144,170,93,171.40,19,80.00,31.00,-1019.00
2024-05-17 17:03:59.857347,1,-1,1,0,0,0,60,62,144,170,93,171.31,19,52.00,22.00,-1006.00
2024-05-17 17:03:59.959531,1,-1,1,0,0,0,60,62,144,170,93,171.27,19,49.00,5.00,-1014.00
2024-05-17 17:04:00.063798,1,-1,1,0,0,0,60,62,144,170,93,171.51,19,1.00,32.00,-967.00
2024-05-17 17:04:00.162915,1,-1,1,0,0,0,60,62,144,170,92,171.04,19,23.00,25.00,-977.00
2024-05-17 17:04:00.342268,1,-1,1,0,0,0,61,62,144,170,92,170.90,19,53.00,22.00,-968.00
2024-05-17 17:04:00.369638,1,-2,1,0,0,0,61,62,145,170,92,171.04,19,-25.00,35.00,-944.00
2024-05-17 17:04:00.468648,1,-2,1,0,0,0,61,62,145,170,92,171.14,19,39.00,24.00,-1039.00
2024-05-17 17:04:00.574028,1,-1,1,0,0,0,61,62,144,170,92,171.30,19,-58.00,67.00,-969.00
2024-05-17 17:04:00.674750,1,-2,1,0,0,0,61,62,145,170,92,171.46,20,40.00,27.00,-1009.00
2024-05-17 17:04:00.779694,1,-2,1,0,0,0,61,62,145,170,92,171.16,20,-2.00,51.00,-947.00
2024-05-17 17:04:00.879160,2,-2,1,0,0,0,61,62,145,170,92,171.16,20,84.00,12.00,-1045.00
2024-05-17 17:04:00.978457,2,-2,1,0,0,0,61,62,145,170,92,171.29,20,60.00,-5.00,-1047.00
2024-05-17 17:04:01.100602,2,-2,1,0,0,0,61,62,145,170,92,171.19,20,0.00,28.00,-971.00
2024-05-17 17:04:01.182115,2,-1,1,0,0,0,61,62,145,170,92,171.40,20,128.00,-13.00,-1040.00
2024-05-17 17:04:01.284163,2,-1,1,0,0,0,60,63,146,170,92,171.15,20,55.00,31.00,-1001.00
2024-05-17 17:04:01.386307,1,-1,1,0,0,0,60,63,145,170,92,171.27,20,94.00,0.00,-990.00
2024-05-17 17:04:01.574321,1,-1,1,0,0,0,60,63,146,170,92,171.36,20,-5.00,57.00,-990.00
2024-05-17 17:04:01.589921,2,-1,1,0,0,0,60,63,146,170,92,171.39,20,0.00,40.00,-897.00
2024-05-17 17:04:01.775517,1,-1,1,0,0,0,60,63,146,170,92,171.01,21,6.00,27.00,-965.00
2024-05-17 17:04:01.793995,1,-1,1,0,0,0,60,63,146,170,92,170.89,21,70.00,-9.00,-1055.00
2024-05-17 17:04:01.987200,1,-1,1,0,0,0,60,63,147,170,92,171.34,21,73.00,13.00,-1113.00
2024-05-17 17:04:01.998036,1,-1,1,0,0,0,60,63,147,170,92,171.08,21,47.00,-7.00,-992.00
2024-05-17 17:04:02.208814,1,-1,1,0,0,0,60,63,147,170,92,171.22,21,35.00,34.00,-1032.00
2024-05-17 17:04:02.208999,2,-1,1,0,0,0,60,63,147,170,91,171.05,21,100.00,-21.00,-1012.00
2024-05-17 17:04:02.303952,2,-1,1,0,0,0,61,64,147,170,91,171.17,21,51.00,-1.00,-1003.00
2024-05-17 17:04:02.498441,2,-1,1,0,0,0,61,64,148,170,91,171.20,21,-2.00,37.00,-1011.00
2024-05-17 17:04:02.509454,2,-1,1,0,0,0,61,64,148,170,91,171.19,21,17.00,42.00,-1002.00
2024-05-17 17:04:02.621572,2,-1,1,0,0,0,61,64,148,170,91,171.20,21,95.00,18.00,-1022.00
2024-05-17 17:04:02.723442,2,-1,1,0,0,0,61,64,148,180,91,171.26,22,102.00,-14.00,-1042.00
2024-05-17 17:04:02.813983,5,0,1,0,0,0,61,64,149,170,91,171.21,22,-30.00,55.00,-1013.00
2024-05-17 17:04:03.003984,8,0,1,0,0,0,61,64,150,180,91,170.94,22,74.00,7.00,-993.00
2024-05-17 17:04:03.017812,8,0,1,-1,0,0,61,64,149,180,91,171.04,22,50.00,43.00,-931.00
2024-05-17 17:04:03.119867,8,0,1,-2,0,0,61,64,150,170,91,171.02,22,31.00,23.00,-990.00
2024-05-17 17:04:03.311219,8,-1,1,-3,0,0,61,64,149,170,91,171.17,22,74.00,18.00,-1029.00
2024-05-17 17:04:03.324520,8,-1,1,-4,0,0,60,64,149,170,91,171.08,22,60.00,33.00,-1025.00
2024-05-17 17:04:03.523667,8,-1,1,-4,0,0,60,64,149,170,91,171.34,22,81.00,-15.00,-1001.00
2024-05-17 17:04:03.529197,8,0,1,-5,0,0,60,64,148,170,91,171.20,22,128.00,4.00,-1006.00
2024-05-17 17:04:03.578950,8,0,1,-6,0,0,60,64,148,170,91,171.34,22,114.00,-7.00,-1032.00
2024-05-17 17:04:03.720797,8,-1,1,-6,0,0,60,64,148,170,91,171.10,23,70.00,34.00,-975.00
2024-05-17 17:04:03.782881,7,-1,1,-7,0,0,60,64,146,170,91,171.33,23,81.00,16.00,-971.00
2024-05-17 17:04:03.926121,3,-1,1,-7,0,0,60,64,144,170,91,171.19,23,40.00,15.00,-945.00
2024-05-17 17:04:03.986831,0,-1,1,-7,0,0,60,64,143,170,91,171.28,23,75.00,26.00,-996.00
2024-05-17 17:04:04.132986,-2,-1,1,-6,0,0,60,64,144,170,91,171.01,23,144.00,2.00,-1016.00
2024-05-17 17:04:04.193487,-2,-1,1,-5,0,0,60,64,143,170,90,170.98,23,118.00,-27.00,-988.00
2024-05-17 17:04:04.292824,0,-2,1,-4,0,0,62,65,143,170,90,171.23,23,86.00,-2.00,-1005.00
2024-05-17 17:04:04.437589,0,-2,1,-3,0,0,62,65,142,170,90,171.18,23,72.00,14.00,-1036.00
2024-05-17 17:04:04.497221,0,-2,1,-3,0,0,62,65,143,170,90,170.70,23,33.00,26.00,-979.00
2024-05-17 17:04:04.600112,1,-2,1,-3,0,0,62,65,142,170,90,171.09,23,23.00,35.00,-998.00
2024-05-17 17:04:04.701509,1,-3,1,-2,-1,0,62,65,141,170,90,171.17,24,52.00,10.00,-1036.00
2024-05-17 17:04:04.802827,0,-3,1,-2,-1,0,62,65,141,170,90,171.26,24,22.00,9.00,-1051.00
2024-05-17 17:04:04.949589,0,1,1,-2,-1,0,62,65,140,170,90,171.01,24,49.00,22.00,-916.00
2024-05-17 17:04:05.006741,-1,1,1,-1,0,0,62,65,139,170,90,171.19,24,40.00,11.00,-962.00
2024-05-17 17:04:05.109296,0,0,1,0,0,0,62,65,140,170,90,171.05,24,13.00,20.00,-1014.00
2024-05-17 17:04:05.258747,1,0,1,0,0,0,62,65,140,170,90,171.13,24,22.00,30.00,-1015.00
2024-05-17 17:04:05.314390,1,-1,1,0,0,0,62,64,140,170,90,171.23,24,84.00,5.00,-1029.00
2024-05-17 17:04:05.463574,1,-1,1,0,0,0,62,64,140,170,90,171.19,24,33.00,2.00,-1035.00
2024-05-17 17:04:05.516889,1,-1,1,0,0,0,62,64,140,170,90,170.97,24,8.00,0.00,-969.00
2024-05-17 17:04:05.666534,1,-1,1,0,0,0,62,64,141,170,90,171.23,24,-28.00,73.00,-986.00
2024-05-17 17:04:05.720896,1,-1,1,0,0,0,62,64,141,170,90,170.96,25,79.00,-5.00,-1014.00
2024-05-17 17:04:05.825140,1,-1,1,0,0,0,62,64,142,170,90,171.16,25,18.00,14.00,-956.00
2024-05-17 17:04:05.924849,1,-1,1,0,0,0,62,64,142,170,90,171.26,25,25.00,48.00,-997.00
2024-05-17 17:04:06.028307,1,-1,1,0,0,0,62,64,142,170,90,171.31,25,66.00,0.00,-1077.00
2024-05-17 17:04:06.128931,1,-1,1,0,0,0,62,64,143,170,90,171.07,25,22.00,37.00,-973.00
2024-05-17 17:04:06.284433,1,-1,1,0,0,0,62,64,143,170,89,171.47,25,-24.00,72.00,-936.00
2024-05-17 17:04:06.332716,1,-2,1,0,0,0,62,64,144,170,89,171.36,25,22.00,6.00,-961.00
2024-05-17 17:04:06.485825,0,-2,1,0,0,0,62,64,143,170,89,171.55,25,35.00,15.00,-993.00
2024-05-17 17:04:06.537192,0,-2,1,0,0,0,62,64,143,170,89,171.22,25,62.00,-11.00,-1014.00
2024-05-17 17:04:06.690570,1,-1,1,0,0,0,62,64,143,170,89,171.40,25,72.00,18.00,-1015.00
2024-05-17 17:04:06.740861,1,-1,1,0,0,0,62,64,143,170,89,171.21,26,-27.00,35.00,-967.00
2024-05-17 17:04:06.897283,1,-1,1,0,0,0,62,64,143,170,89,170.97,26,37.00,21.00,-1027.00
2024-05-17 17:04:06.945181,1,-1,1,0,0,0,62,64,144,170,89,171.17,26,4.00,49.00,-972.00
2024-05-17 17:04:06.999737,1,-1,1,0,0,0,62,64,145,170,89,171.24,26,43.00,-5.00,-1044.00
2024-05-17 17:04:07.099463,1,-1,1,0,0,0,62,64,145,170,89,171.44,26,-3.00,31.00,-1026.00
2024-05-17 17:04:07.202459,2,-1,1,0,0,0,62,64,148,170,89,171.21,26,71.00,-8.00,-973.00
2024-05-17 17:04:07.302812,2,-5,1,0,0,0,62,64,149,170,89,171.22,26,27.00,11.00,-986.00
2024-05-17 17:04:07.405552,2,-8,1,0,-1,0,62,64,150,170,89,171.22,26,65.00,-5.00,-979.00
2024-05-17 17:04:07.509919,2,-6,1,0,-2,0,62,64,150,180,89,171.21,26,52.00,27.00,-950.00
2024-05-17 17:04:07.612000,2,-5,1,0,-3,0,62,64,150,180,89,171.04,26,49.00,28.00,-978.00
2024-05-17 17:04:07.710680,2,-3,1,0,-3,0,62,64,149,180,89,171.33,27,-7.00,61.00,-981.00
2024-05-17 17:04:07.818991,2,-1,1,0,-2,0,62,64,149,180,89,171.35,27,56.00,42.00,-969.00
2024-05-17 17:04:07.914747,1,-1,1,0,-2,0,62,64,150,180,89,171.24,27,45.00,12.00,-954.00
2024-05-17 17:04:08.021664,1,-2,1,0,-2,0,62,64,150,180,89,171.35,27,1.00,30.00,-941.00
2024-05-17 17:04:08.118937,1,-2,1,0,-2,0,62,64,150,180,89,171.03,27,16.00,68.00,-989.00
2024-05-17 17:04:08.226444,1,-2,1,0,-2,0,62,64,150,180,88,171.24,27,45.00,41.00,-987.00
2024-05-17 17:04:08.322641,1,-2,1,0,-2,0,61,65,149,180,88,171.14,27,46.00,9.00,-1047.00
2024-05-17 17:04:08.432932,0,-2,1,0,-2,0,61,65,147,180,88,171.05,27,-23.00,91.00,-971.00
2024-05-17 17:04:08.529662,0,-2,1,0,-2,0,61,65,147,180,88,171.02,27,30.00,19.00,-1002.00
2024-05-17 17:04:08.629993,0,-2,1,0,-2,0,61,65,146,170,88,171.10,27,34.00,2.00,-981.00
2024-05-17 17:04:08.731220,0,-2,1,0,-2,0,61,65,146,170,88,171.24,28,67.00,20.00,-1043.00
2024-05-17 17:04:08.832756,0,-2,1,0,-2,0,61,65,146,170,88,171.00,28,43.00,47.00,-1006.00
2024-05-17 17:04:08.943203,0,-2,1,0,-2,0,61,65,146,170,88,171.34,28,45.00,18.00,-1049.00
2024-05-17 17:04:09.036587,0,-2,1,0,-2,0,61,65,146,170,88,171.58,28,-7.00,51.00,-962.00
2024-05-17 17:04:09.139167,0,-2,1,0,-2,0,61,65,145,170,88,171.42,28,28.00,23.00,-965.00
2024-05-17 17:04:09.240662,1,-2,1,0,-2,0,61,65,144,170,88,171.04,28,41.00,21.00,-1057.00
2024-05-17 17:04:09.352774,2,-2,1,0,-2,0,62,65,144,170,88,171.10,28,14.00,45.00,-976.00
2024-05-17 17:04:09.446394,2,-2,1,0,-2,0,62,65,143,170,88,171.32,28,79.00,-3.00,-964.00
2024-05-17 17:04:09.546892,2,-1,2,0,-2,0,62,65,144,170,88,171.11,28,-10.00,87.00,-969.00
2024-05-17 17:04:09.659960,2,-1,2,0,-1,0,62,65,143,170,88,171.15,29,36.00,55.00,-1006.00
2024-05-17 17:04:09.757859,2,-1,2,0,-1,0,62,65,142,170,88,171.35,29,84.00,23.00,-1145.00
2024-05-17 17:04:09.853050,2,2,2,0,-1,0,62,65,142,170,88,171.18,29,96.00,7.00,-963.00
2024-05-17 17:04:09.955703,2,0,2,0,0,0,62,65,143,170,88,171.27,29,118.00,-14.00,-987.00
2024-05-17 17:04:10.057818,3,0,2,0,0,0,62,65,141,170,88,171.25,29,76.00,-41.00,-1118.00
2024-05-17 17:04:10.160403,2,0,2,0,0,0,62,65,141,170,88,171.24,29,65.00,16.00,-1114.00
2024-05-17 17:04:10.260658,2,-1,2,0,0,0,62,65,141,170,87,171.02,29,19.00,8.00,-979.00
2024-05-17 17:04:10.377364,1,-1,2,0,0,0,62,65,140,170,87,171.04,29,25.00,52.00,-1024.00
2024-05-17 17:04:10.467602,1,-1,2,0,0,0,62,65,140,170,87,171.08,29,81.00,5.00,-1048.00
2024-05-17 17:04:10.568222,0,-1,1,0,0,0,62,65,140,170,87,171.19,29,83.00,-33.00,-930.00
2024-05-17 17:04:10.671839,1,-1,1,0,0,0,62,65,139,170,87,171.31,30,35.00,18.00,-995.00
2024-05-17 17:04:10.770647,1,0,1,0,0,0,62,65,138,170,87,171.14,30,-32.00,53.00,-942.00
2024-05-17 17:04:10.821576,1,-1,1,0,0,0,62,65,138,170,87,171.22,30,32.00,33.00,-927.00
2024-05-17 17:04:10.991515,1,-1,1,0,0,0,62,65,138,170,87,170.99,30,87.00,-54.00,-1072.00
2024-05-17 17:04:11.025616,1,-1,1,0,0,0,62,65,137,170,87,171.26,30,85.00,-21.00,-1020.00
2024-05-17 17:04:11.196157,1,-2,1,0,0,0,62,65,137,170,87,171.34,30,33.00,53.00,-1048.00
2024-05-17 17:04:11.229610,1,-2,1,0,0,0,62,65,137,170,87,171.04,30,129.00,-65.00,-981.00
2024-05-17 17:04:11.401109,1,-2,1,0,0,0,62,65,137,170,87,171.25,30,-36.00,20.00,-908.00
2024-05-17 17:04:11.433451,1,-1,1,0,0,0,62,65,136,170,87,171.26,30,63.00,2.00,-1131.00
2024-05-17 17:04:11.605757,1,-1,1,0,0,0,62,65,136,170,87,171.06,30,16.00,54.00,-1022.00
2024-05-17 17:04:11.639858,1,-1,1,0,0,0,62,65,136,170,87,171.00,31,-1.00,60.00,-975.00
2024-05-17 17:04:11.810483,1,-1,1,0,0,0,62,65,136,170,87,170.96,31,-12.00,28.00,-1078.00
2024-05-17 17:04:11.842836,1,-1,1,0,0,0,62,65,137,170,87,171.28,31,49.00,22.00,-981.00
2024-05-17 17:04:11.959372,1,-1,1,0,0,0,62,65,137,170,87,171.20,31,47.00,-16.00,-1080.00
2024-05-17 17:04:12.046501,1,-1,1,0,0,0,62,65,138,170,87,171.10,31,6.00,31.00,-1029.00
2024-05-17 17:04:12.148844,2,3,1,0,0,0,62,65,139,170,87,171.20,31,-29.00,48.00,-993.00
2024-05-17 17:04:12.322356,2,7,1,0,1,0,62,65,141,170,86,171.30,31,105.00,-14.00,-971.00
2024-05-17 17:04:12.352919,1,5,1,0,2,0,62,65,140,170,86,171.13,31,34.00,14.00,-1149.00
2024-05-17 17:04:12.527210,1,2,1,0,3,0,62,65,142,170,86,171.07,31,-9.00,14.00,-1032.00
2024-05-17 17:04:12.556334,1,0,1,0,3,0,62,65,141,170,86,171.27,31,50.00,7.00,-997.00
2024-05-17 17:04:12.731983,1,-1,1,0,3,0,62,65,141,170,86,171.21,32,28.00,-8.00,-993.00
2024-05-17 17:04:12.760736,2,0,1,0,2,0,62,65,141,170,86,171.20,32,55.00,-1.00,-1059.00
2024-05-17 17:04:12.936784,2,0,1,0,2,0,62,65,142,170,86,171.16,32,-28.00,32.00,-965.00
2024-05-17 17:04:12.964363,0,0,1,0,2,0,62,65,142,170,86,171.31,32,53.00,-16.00,-997.00
2024-05-17 17:04:13.141608,0,0,1,0,2,0,62,65,141,170,86,171.26,32,-72.00,29.00,-975.00
2024-05-17 17:04:13.168513,0,-1,1,0,2,0,62,65,141,170,86,170.95,32,30.00,-38.00,-989.00
2024-05-17 17:04:13.271408,0,0,1,0,2,0,62,65,143,170,86,170.88,32,10.00,-1.00,-956.00
2024-05-17 17:04:13.376849,0,0,1,0,2,0,62,66,144,170,86,171.22,32,-64.00,25.00,-992.00
2024-05-17 17:04:13.474303,0,-1,1,0,2,0,62,66,144,170,86,171.43,32,-8.00,30.00,-975.00
2024-05-17 17:04:13.576661,0,-1,1,0,2,0,62,66,143,170,86,171.24,32,10.00,15.00,-960.00
2024-05-17 17:04:13.755989,1,-2,1,0,2,0,62,66,145,170,86,171.18,33,-5.00,0.00,-957.00
2024-05-17 17:04:13.780294,0,-3,1,0,2,0,62,66,144,170,86,171.28,33,39.00,-21.00,-968.00
2024-05-17 17:04:13.962642,-2,-5,1,0,1,0,62,66,144,170,86,171.16,33,12.00,5.00,-981.00
2024-05-17 17:04:13.985185,-2,-3,1,0,0,0,62,66,144,170,86,171.27,33,38.00,-10.00,-1007.00
2024-05-17 17:04:14.165596,1,-2,1,1,0,0,62,66,145,170,86,171.22,33,16.00,14.00,-959.00
2024-05-17 17:04:14.188483,5,-1,1,1,0,0,62,66,142,170,86,171.21,33,38.00,12.00,-1020.00
2024-05-17 17:04:14.290539,3,-1,1,0,0,0,62,66,143,170,85,171.02,33,21.00,15.00,-1058.00
2024-05-17 17:04:14.472866,2,-1,1,0,0,0,63,65,143,170,85,170.96,33,72.00,-2.00,-1014.00
2024-05-17 17:04:14.472980,1,-1,1,0,0,0,63,65,143,170,85,171.21,33,61.00,7.00,-1026.00
2024-05-17 17:04:14.545410,1,-1,1,0,0,0,63,65,143,170,85,171.14,33,20.00,14.00,-994.00
2024-05-17 17:04:14.677752,1,-1,1,0,0,0,63,65,142,170,85,171.13,34,50.00,17.00,-981.00
2024-05-17 17:04:14.749590,1,-1,1,0,0,0,63,65,142,170,85,171.13,34,34.00,38.00,-1009.00
2024-05-17 17:04:14.884011,1,-1,1,0,0,0,63,65,142,170,85,171.06,34,93.00,-37.00,-1026.00
2024-05-17 17:04:14.954578,1,-1,1,0,0,0,63,65,141,170,85,171.26,34,5.00,-3.00,-959.00
2024-05-17 17:04:15.091515,1,-1,1,0,0,0,63,65,142,170,85,171.44,34,25.00,13.00,-1017.00
2024-05-17 17:04:15.157922,1,-1,1,0,0,0,63,65,142,170,85,171.55,34,22.00,-21.00,-990.00
2024-05-17 17:04:15.292097,0,-1,1,0,0,0,63,65,141,170,85,170.93,34,21.00,48.00,-974.00
2024-05-17 17:04:15.363152,0,-1,1,0,0,0,63,66,141,170,85,171.24,34,13.00,30.00,-1014.00
2024-05-17 17:04:15.463810,0,-1,1,0,0,0,63,66,142,170,85,171.08,34,50.00,-18.00,-1009.00
2024-05-17 17:04:15.565451,0,-1,1,0,0,0,63,66,142,170,85,170.79,34,58.00,-20.00,-1061.00
2024-05-17 17:04:15.701669,1,-1,1,0,0,0,63,66,142,170,85,170.96,35,11.00,9.00,-986.00
2024-05-17 17:04:15.769364,1,-1,1,0,0,0,63,66,142,170,85,171.41,35,64.00,-7.00,-1020.00
2024-05-17 17:04:15.873257,1,-1,1,0,0,0,63,66,142,170,85,171.07,35,54.00,-3.00,-1023.00
2024-05-17 17:04:15.973797,1,-1,1,0,0,0,63,66,142,170,85,171.06,35,73.00,1.00,-1008.00
2024-05-17 17:04:16.076992,1,-1,1,0,0,0,63,66,142,170,85,171.23,35,64.00,-10.00,-1027.00
2024-05-17 17:04:16.177259,1,-1,1,0,0,0,63,66,142,170,84,171.39,35,14.00,25.00,-985.00
2024-05-17 17:04:16.279166,1,-1,1,0,0,0,63,66,142,170,84,171.20,35,2.00,13.00,-930.00
2024-05-17 17:04:16.384474,1,-1,2,0,0,0,62,66,142,170,84,171.09,35,10.00,-2.00,-1002.00
2024-05-17 17:04:16.483351,1,0,8,0,0,0,62,66,142,170,84,170.95,35,79.00,-24.00,-1032.00
2024-05-17 17:04:16.585280,1,0,14,0,0,0,62,66,143,170,84,171.09,35,-13.00,25.00,-932.00
2024-05-17 17:04:16.725538,2,0,20,0,0,0,62,66,144,170,84,171.09,36,-19.00,36.00,-949.00
2024-05-17 17:04:16.789155,2,0,26,0,0,0,62,66,143,170,84,171.16,36,-18.00,6.00,-904.00
2024-05-17 17:04:16.932713,1,0,32,0,0,0,62,66,143,170,84,171.07,36,55.00,15.00,-992.00
2024-05-17 17:04:16.993193,1,-1,39,0,0,0,62,66,144,170,84,171.37,36,-45.00,31.00,-937.00
2024-05-17 17:04:17.136144,1,-1,45,0,0,0,62,66,144,170,84,171.49,36,96.00,15.00,-1011.00
2024-05-17 17:04:17.197134,1,0,51,0,0,0,62,66,144,170,84,171.07,36,-10.00,46.00,-964.00
2024-05-17 17:04:17.339917,1,0,57,0,0,0,62,66,144,170,84,170.88,36,56.00,-12.00,-1049.00
2024-05-17 17:04:17.403191,2,0,63,0,0,0,64,67,144,170,84,171.29,36,-47.00,41.00,-984.00
2024-05-17 17:04:17.503168,2,0,69,0,0,0,64,67,145,170,84,171.07,36,76.00,-24.00,-1063.00
2024-05-17 17:04:17.605125,2,0,75,0,0,0,64,67,146,170,84,171.15,36,-59.00,31.00,-944.00
2024-05-17 17:04:17.749524,2,0,81,0,0,0,64,67,146,170,84,171.47,37,26.00,19.00,-931.00
2024-05-17 17:04:17.810107,2,0,88,0,0,0,64,67,146,170,84,170.99,37,-13.00,30.00,-943.00
2024-05-17 17:04:17.954317,2,0,94,0,0,0,64,67,147,170,84,171.08,37,40.00,-5.00,-981.00
2024-05-17 17:04:17.962133,2,0,100,0,0,0,64,67,148,170,84,170.97,37,70.00,-25.00,-1086.00
2024-05-17 17:04:18.159510,2,0,106,0,0,0,64,67,148,170,84,171.07,37,-18.00,6.00,-917.00
2024-05-17 17:04:18.166209,2,0,112,0,0,0,64,67,147,180,83,171.36,37,119.00,0.00,-1037.00
2024-05-17 17:04:18.363848,2,0,119,0,0,0,64,67,148,180,83,171.31,37,21.00,22.00,-946.00
2024-05-17 17:04:18.421079,2,0,125,0,0,0,63,66,147,180,83,171.41,37,34.00,14.00,-1000.00
2024-05-17 17:04:18.473408,2,0,132,0,0,0,63,66,147,180,83,170.93,37,10.00,29.00,-1038.00
2024-05-17 17:04:18.671062,2,0,138,0,0,0,63,66,147,180,83,171.27,37,53.00,27.00,-1004.00
2024-05-17 17:04:18.676448,2,0,144,0,0,0,63,66,147,170,83,171.08,38,17.00,-9.00,-964.00
2024-05-17 17:04:18.778085,2,0,150,0,0,0,63,66,147,170,83,171.24,38,16.00,23.00,-873.00
2024-05-17 17:04:18.978543,2,1,157,0,0,0,63,66,147,170,83,171.18,38,59.00,-7.00,-1010.00
2024-05-17 17:04:18.993606,1,0,163,0,0,0,63,66,146,170,83,171.06,38,-15.00,34.00,-950.00
2024-05-17 17:04:19.087837,1,0,170,0,-1,0,63,66,146,170,83,171.14,38,14.00,58.00,-1094.00
2024-05-17 17:04:19.189929,1,0,176,0,0,0,63,66,146,170,83,171.14,38,-32.00,25.00,-923.00
2024-05-17 17:04:19.288244,2,1,-177,0,0,0,63,66,146,170,83,170.84,38,16.00,19.00,-949.00
2024-05-17 17:04:19.391334,2,1,-170,0,0,0,64,68,146,170,83,171.31,38,55.00,11.00,-996.00
2024-05-17 17:04:19.492032,1,1,-164,0,0,0,64,68,146,170,83,171.33,38,105.00,-6.00,-960.00
2024-05-17 17:04:19.594046,1,1,-158,0,0,0,64,68,145,170,83,170.90,38,-36.00,63.00,-1037.00
2024-05-17 17:04:19.797497,1,1,-151,0,-1,0,64,68,145,170,83,171.38,39,26.00,25.00,-946.00
2024-05-17 17:04:19.798002,1,1,-145,0,-1,0,64,68,145,170,83,171.16,39,48.00,14.00,-1060.00
2024-05-17 17:04:19.900158,1,1,-139,0,-1,0,64,68,144,170,83,171.05,39,43.00,15.00,-974.00
2024-05-17 17:04:20.003169,1,1,-133,0,-1,0,64,68,144,170,83,171.06,39,39.00,12.00,-1046.00
2024-05-17 17:04:20.105846,0,1,-127,0,-1,0,64,68,143,170,83,171.27,39,-3.00,40.00,-1022.00
2024-05-17 17:04:20.207504,0,1,-121,0,-1,0,64,68,142,170,82,171.48,39,-26.00,41.00,-994.00
2024-05-17 17:04:20.309727,0,0,-115,0,-1,0,64,68,142,170,82,171.21,39,42.00,33.00,-1039.00
2024-05-17 17:04:20.410180,0,0,-109,0,-1,0,64,66,142,170,82,171.31,39,57.00,27.00,-1060.00
2024-05-17 17:04:20.512017,1,0,-103,0,-1,0,64,66,143,170,82,171.04,39,1.00,35.00,-957.00
2024-05-17 17:04:20.616681,1,0,-98,0,-1,0,64,66,144,170,82,170.86,39,62.00,5.00,-1014.00
2024-05-17 17:04:20.715966,0,0,-92,0,-1,0,64,66,145,170,82,171.35,40,57.00,20.00,-1013.00
2024-05-17 17:04:20.821493,0,0,-86,0,-1,0,64,66,146,170,82,171.23,40,25.00,39.00,-1041.00
2024-05-17 17:04:20.920069,0,0,-80,0,-1,0,64,66,147,170,82,171.20,40,16.00,35.00,-1059.00
2024-05-17 17:04:21.026289,0,0,-74,0,-1,0,64,66,147,170,82,171.30,40,98.00,10.00,-1020.00
2024-05-17 17:04:21.123965,0,0,-69,1,-1,0,64,66,149,170,82,171.11,40,13.00,-7.00,-1017.00
2024-05-17 17:04:21.231074,1,0,-63,1,0,0,64,66,149,180,82,171.35,40,48.00,11.00,-1032.00
2024-05-17 17:04:21.331465,1,0,-57,0,0,0,64,66,148,180,82,171.24,40,0.00,24.00,-953.00
2024-05-17 17:04:21.431100,0,0,-51,1,0,0,64,67,148,180,82,171.29,40,-6.00,18.00,-954.00
2024-05-17 17:04:21.538281,1,0,-46,1,0,0,64,67,148,180,82,171.16,40,-4.00,40.00,-964.00
2024-05-17 17:04:21.634058,0,0,-40,1,0,0,64,67,147,180,82,171.21,40,-83.00,79.00,-934.00
2024-05-17 17:04:21.743100,1,0,-34,1,0,0,64,67,147,170,82,170.85,41,-7.00,25.00,-1071.00
2024-05-17 17:04:21.838742,1,0,-28,1,0,0,64,67,146,170,82,171.45,41,20.00,17.00,-1014.00
2024-05-17 17:04:21.947812,1,0,-23,1,0,0,64,67,145,170,82,171.21,41,17.00,66.00,-990.00
2024-05-17 17:04:21.990928,1,0,-17,0,0,0,64,67,144,170,82,171.10,41,79.00,-3.00,-1068.00
2024-05-17 17:04:22.153664,1,0,-13,0,0,0,64,67,144,170,82,171.05,41,11.00,26.00,-936.00
2024-05-17 17:04:22.195002,1,0,-10,0,0,0,64,67,144,170,81,171.31,41,-7.00,23.00,-1007.00
2024-05-17 17:04:22.357477,2,0,-7,1,0,0,64,67,145,170,81,171.38,41,27.00,6.00,-1065.00
2024-05-17 17:04:22.398828,2,0,-5,1,0,0,65,67,145,170,81,170.99,41,63.00,-10.00,-1016.00
2024-05-17 17:04:22.568296,2,0,-3,1,0,0,65,67,145,170,81,171.15,41,-52.00,69.00,-992.00
2024-05-17 17:04:22.602987,2,0,-2,0,0,0,65,67,146,170,81,171.21,41,1.00,12.00,-962.00
2024-05-17 17:04:22.767192,2,0,-1,1,0,0,65,67,147,170,81,171.38,42,66.00,0.00,-958.00
2024-05-17 17:04:22.806877,3,0,-1,1,0,0,65,67,148,170,81,171.34,42,33.00,11.00,-1083.00
2024-05-17 17:04:22.972165,4,1,0,1,0,0,65,67,148,170,81,171.12,42,42.00,-14.00,-1023.00
2024-05-17 17:04:23.010964,4,1,0,1,0,0,65,67,149,170,81,171.33,42,-36.00,101.00,-972.00
2024-05-17 17:04:23.176753,4,0,0,0,0,0,65,67,150,180,81,171.36,42,14.00,33.00,-998.00
2024-05-17 17:04:23.214974,3,0,0,0,0,0,65,67,150,180,81,171.11,42,33.00,23.00,-1051.00
2024-05-17 17:04:23.319471,3,0,0,0,0,0,65,67,150,180,81,170.94,42,54.00,19.00,-1020.00
2024-05-17 17:04:23.419544,3,0,0,0,0,0,64,67,150,180,81,171.27,42,85.00,-4.00,-989.00
2024-05-17 17:04:23.586422,3,0,0,0,0,0,64,67,148,180,81,171.26,42,45.00,-26.00,-968.00
2024-05-17 17:04:23.624149,3,0,0,0,0,0,64,67,148,180,81,171.42,42,99.00,-39.00,-978.00
2024-05-17 17:04:23.791374,2,0,0,0,0,0,64,67,147,180,81,171.16,43,14.00,28.00,-963.00
2024-05-17 17:04:23.828063,2,0,0,0,0,0,64,67,146,180,81,171.29,43,75.00,-30.00,-1001.00
2024-05-17 17:04:23.996067,2,0,0,0,0,0,64,67,145,170,81,171.00,43,37.00,-10.00,-1003.00
2024-05-17 17:04:24.030905,2,0,0,0,0,0,64,67,145,170,81,171.25,43,38.00,-26.00,-1016.00
2024-05-17 17:04:24.201639,2,0,0,0,0,0,64,67,145,170,81,171.22,43,74.00,-27.00,-1089.00
2024-05-17 17:04:24.235646,1,0,0,0,0,0,64,67,144,170,80,170.92,43,59.00,-5.00,-1083.00
2024-05-17 17:04:24.405581,1,0,0,0,0,0,64,67,144,170,80,171.27,43,8.00,7.00,-982.00
2024-05-17 17:04:24.438846,1,0,0,0,0,0,64,67,145,170,80,171.22,43,53.00,-28.00,-979.00
2024-05-17 17:04:24.610375,1,0,0,0,0,0,64,67,145,170,80,171.16,43,122.00,7.00,-1147.00
2024-05-17 17:04:24.643407,1,0,0,0,0,0,64,67,145,170,80,171.29,44,125.00,-24.00,-1028.00
2024-05-17 17:04:24.815218,2,0,0,0,0,0,64,67,144,170,80,171.38,44,71.00,-19.00,-974.00
2024-05-17 17:04:24.846891,2,0,0,0,0,0,64,67,144,170,80,171.26,44,71.00,-11.00,-1041.00
2024-05-17 17:04:24.977955,1,0,0,0,0,0,64,67,144,170,80,171.07,44,69.00,-21.00,-1001.00
2024-05-17 17:04:25.050786,2,0,0,0,0,0,64,67,144,170,80,171.04,44,44.00,21.00,-985.00
2024-05-17 17:04:25.226151,1,0,-3,0,0,0,64,67,143,170,80,171.02,44,-2.00,33.00,-1046.00
2024-05-17 17:04:25.254839,1,0,-9,0,0,0,64,67,143,170,80,170.89,44,50.00,2.00,-1028.00
2024-05-17 17:04:25.429561,1,0,-15,0,0,0,64,67,143,170,80,171.38,44,25.00,-5.00,-1026.00
2024-05-17 17:04:25.458838,1,0,-20,0,0,0,65,67,144,170,80,171.24,44,78.00,-2.00,-1030.00
2024-05-17 17:04:25.560679,2,0,-26,0,0,0,65,67,143,170,80,171.09,44,4.00,36.00,-997.00
2024-05-17 17:04:25.664145,3,0,-32,0,0,0,65,67,143,170,80,171.19,45,-2.00,29.00,-1009.00
2024-05-17 17:04:25.764705,2,-1,-39,0,0,0,65,67,143,170,80,171.65,45,46.00,9.00,-1000.00
2024-05-17 17:04:25.942467,2,0,-45,0,0,0,65,67,143,170,80,171.32,45,20.00,9.00,-996.00
2024-05-17 17:04:25.968772,2,0,-51,0,0,0,65,67,143,170,80,171.01,45,44.00,7.00,-958.00
2024-05-17 17:04:26.146241,2,-1,-57,0,0,0,65,67,142,170,80,170.95,45,51.00,2.00,-1012.00
2024-05-17 17:04:26.146413,2,-1,-63,0,0,0,65,67,142,170,80,171.03,45,25.00,69.00,-1033.00
2024-05-17 17:04:26.223697,2,-1,-69,0,0,0,65,67,142,170,79,171.06,45,50.00,0.00,-1000.00
2024-05-17 17:04:26.326388,2,-1,-75,0,0,0,65,67,141,170,79,171.33,45,0.00,61.00,-981.00
2024-05-17 17:04:26.556089,1,-1,-81,0,0,0,65,68,141,170,79,171.05,45,-11.00,42.00,-1007.00
2024-05-17 17:04:26.582268,0,-1,-86,0,0,0,65,68,142,170,79,171.39,45,46.00,14.00,-992.00
2024-05-17 17:04:26.631710,0,0,-92,0,0,0,65,68,142,170,79,171.33,46,57.00,15.00,-998.00
2024-05-17 17:04:26.761278,0,0,-98,0,0,0,65,68,142,170,79,171.39,46,32.00,10.00,-1079.00
2024-05-17 17:04:26.835643,0,0,-104,0,0,0,65,68,142,170,79,170.84,46,31.00,-3.00,-1032.00
2024-05-17 17:04:26.965441,1,0,-110,-1,0,0,65,68,143,170,79,171.09,46,40.00,11.00,-1006.00
2024-05-17 17:04:27.039572,2,0,-116,0,0,0,65,68,144,170,79,171.25,46,24.00,9.00,-951.00
2024-05-17 17:04:27.141713,2,0,-122,0,0,0,65,68,144,170,79,171.28,46,78.00,16.00,-1066.00
2024-05-17 17:04:27.243661,2,0,-128,0,0,0,65,68,145,170,79,171.18,46,46.00,8.00,-1031.00
2024-05-17 17:04:27.375060,1,0,-134,0,0,0,65,68,147,170,79,171.41,46,21.00,8.00,-953.00
2024-05-17 17:04:27.447796,1,0,-141,0,0,0,65,68,146,170,79,171.02,46,-28.00,6.00,-933.00
2024-05-17 17:04:27.550046,1,1,-146,0,0,0,65,68,146,180,79,171.28,46,42.00,-17.00,-962.00
2024-05-17 17:04:27.682262,1,1,-153,0,0,0,65,68,146,180,79,171.12,47,56.00,35.00,-936.00
2024-05-17 17:04:27.753584,1,1,-159,0,0,0,65,68,147,180,79,171.28,47,8.00,28.00,-993.00
2024-05-17 17:04:27.887490,1,1,-165,0,0,0,65,68,146,180,79,171.20,47,76.00,-16.00,-996.00
2024-05-17 17:04:27.957603,2,1,-171,0,0,0,65,68,146,180,79,171.18,47,40.00,23.00,-1042.00
2024-05-17 17:04:28.091790,2,1,-177,0,0,0,65,68,145,180,79,171.25,47,84.00,-24.00,-1060.00
2024-05-17 17:04:28.163167,2,1,176,0,0,0,65,68,145,170,79,171.23,47,-8.00,-8.00,-959.00
2024-05-17 17:04:28.263579,2,1,170,0,0,0,65,68,145,170,79,171.13,47,16.00,5.00,-964.00
2024-05-17 17:04:28.400383,2,1,164,0,0,0,65,68,144,170,79,171.09,47,-93.00,59.00,-945.00
2024-05-17 17:04:28.467687,1,1,159,0,0,0,65,67,144,170,79,171.41,47,32.00,9.00,-1056.00
2024-05-17 17:04:28.603783,1,0,153,0,0,0,65,67,144,170,79,171.37,47,15.00,34.00,-982.00
2024-05-17 17:04:28.671620,1,0,147,0,0,0,65,67,145,170,79,171.23,48,100.00,-12.00,-1101.00
2024-05-17 17:04:28.809016,2,0,141,0,0,0,65,67,146,170,79,170.93,48,24.00,31.00,-1043.00
2024-05-17 17:04:28.875557,3,0,135,0,0,0,65,67,148,170,79,171.30,48,74.00,4.00,-937.00
2024-05-17 17:04:29.014532,4,0,129,0,0,0,65,67,149,170,79,171.16,48,34.00,43.00,-1056.00
2024-05-17 17:04:29.083553,3,0,123,0,0,0,65,67,150,180,79,171.27,48,46.00,27.00,-1061.00
2024-05-17 17:04:29.181620,3,0,117,0,0,0,65,67,152,180,79,171.26,48,77.00,-2.00,-1009.00
2024-05-17 17:04:29.320607,3,0,111,0,0,0,65,67,153,180,79,171.21,48,10.00,17.00,-970.00
2024-05-17 17:04:29.385545,3,0,105,0,0,0,65,67,153,180,79,171.31,48,-3.00,49.00,-979.00
2024-05-17 17:04:29.489839,3,0,99,0,0,0,65,68,154,180,79,171.28,48,49.00,30.00,-980.00
2024-05-17 17:04:29.589883,3,0,94,0,0,0,65,68,155,180,79,171.32,48,31.00,-35.00,-974.00
2024-05-17 17:04:29.730213,3,0,88,0,0,0,65,68,154,180,79,171.21,49,48.00,31.00,-1049.00
2024-05-17 17:04:29.795771,4,0,82,0,0,0,65,68,154,180,79,171.39,49,79.00,17.00,-978.00
2024-05-17 17:04:29.895812,5,0,76,0,0,0,65,68,154,180,79,171.20,49,79.00,-25.00,-956.00
2024-05-17 17:04:30.038341,4,0,70,0,0,0,65,68,153,180,79,171.29,49,24.00,16.00,-886.00
2024-05-17 17:04:30.099488,5,0,64,0,0,0,65,68,152,180,79,171.29,49,101.00,-22.00,-979.00
2024-05-17 17:04:30.201444,4,0,58,0,0,0,65,68,152,180,79,171.19,49,83.00,-2.00,-920.00
2024-05-17 17:04:30.252455,4,0,52,0,-1,0,65,68,149,180,79,171.03,49,37.00,-2.00,-978.00
2024-05-17 17:04:30.447009,3,0,46,0,-1,0,65,68,147,180,79,171.21,49,124.00,-3.00,-984.00
2024-05-17 17:04:30.507576,4,0,40,0,-1,0,65,68,145,180,79,170.99,49,69.00,29.00,-1009.00
2024-05-17 17:04:30.559086,4,0,35,0,-1,0,65,68,143,180,79,171.11,49,-7.00,90.00,-962.00
2024-05-17 17:04:30.756932,4,0,29,0,-1,0,65,68,141,170,79,171.30,50,31.00,47.00,-1029.00
2024-05-17 17:04:30.762421,4,0,23,0,-1,0,65,68,138,170,79,170.73,50,64.00,-9.00,-957.00
2024-05-17 17:04:30.959556,4,0,17,0,-1,0,65,68,136,170,79,170.87,50,117.00,22.00,-1133.00
2024-05-17 17:04:30.967521,3,0,13,0,-1,0,65,68,134,170,79,171.38,50,47.00,19.00,-1009.00
2024-05-17 17:04:31.163821,3,0,10,0,-1,0,65,68,133,170,79,170.81,50,35.00,47.00,-1066.00
2024-05-17 17:04:31.171077,2,0,7,0,0,0,65,68,131,170,79,170.98,50,72.00,1.00,-984.00
2024-05-17 17:04:31.368601,2,0,5,0,0,0,65,68,130,170,79,170.94,50,89.00,33.00,-1056.00
2024-05-17 17:04:31.374376,2,0,4,0,0,0,65,68,129,160,79,170.95,50,45.00,43.00,-1066.00
2024-05-17 17:04:31.574347,2,0,3,0,0,0,65,68,128,160,79,171.08,50,14.00,54.00,-990.00
2024-05-17 17:04:31.580066,1,0,2,0,0,0,65,68,127,160,79,170.93,50,2.00,62.00,-997.00
2024-05-17 17:04:31.779117,1,0,1,0,0,0,65,68,128,160,79,170.99,51,11.00,30.00,-973.00
2024-05-17 17:04:31.785534,2,0,1,0,0,0,65,68,128,160,79,171.01,51,127.00,4.00,-1032.00
2024-05-17 17:04:31.885519,2,0,1,0,0,0,65,68,129,160,79,171.04,51,38.00,41.00,-997.00
2024-05-17 17:04:32.086792,2,0,1,0,0,0,65,68,130,160,79,170.60,51,-45.00,71.00,-1015.00
2024-05-17 17:04:32.098207,2,0,1,0,0,0,65,68,131,160,79,170.84,51,9.00,23.00,-924.00
2024-05-17 17:04:32.195637,2,0,1,0,0,0,65,68,132,160,79,170.99,51,102.00,-24.00,-1052.00
2024-05-17 17:04:32.295073,1,0,1,0,0,0,65,68,133,170,79,170.86,51,-9.00,77.00,-978.00
2024-05-17 17:04:32.395482,1,0,1,0,0,0,65,68,134,170,79,170.95,51,4.00,22.00,-958.00
2024-05-17 17:04:32.497988,2,0,1,0,0,0,65,67,136,170,79,170.96,51,92.00,10.00,-1011.00
2024-05-17 17:04:32.601935,2,0,1,0,0,0,65,67,138,170,79,171.11,51,-3.00,34.00,-977.00
2024-05-17 17:04:32.704093,2,0,1,0,0,0,65,67,139,170,79,170.91,52,0.00,48.00,-934.00
2024-05-17 17:04:32.803421,2,0,1,0,0,0,65,67,140,170,79,171.17,52,16.00,1.00,-994.00
2024-05-17 17:04:33.007156,3,0,1,0,0,0,65,67,141,170,79,171.11,52,0.00,73.00,-951.00
2024-05-17 17:04:33.007369,2,0,1,0,0,0,65,67,140,170,79,171.06,52,1.00,31.00,-976.00
2024-05-17 17:04:33.109854,2,0,1,0,0,0,65,67,140,170,79,171.15,52,67.00,-17.00,-961.00
2024-05-17 17:04:33.211618,2,0,1,0,0,0,65,67,140,170,79,171.26,52,147.00,10.00,-1061.00
2024-05-17 17:04:33.323303,2,-1,1,0,0,0,65,67,139,170,79,171.01,52,0.00,68.00,-1027.00
2024-05-17 17:04:33.416774,2,-1,1,0,0,0,65,67,139,170,79,170.94,52,-40.00,54.00,-954.00
2024-05-17 17:04:33.518709,2,-1,1,0,0,0,65,69,140,170,79,170.93,52,22.00,34.00,-1039.00
2024-05-17 17:04:33.621649,2,-1,1,0,0,0,65,69,139,170,79,171.37,52,106.00,-8.00,-999.00
2024-05-17 17:04:33.721291,2,-1,1,0,0,0,65,69,139,170,79,171.38,53,-25.00,73.00,-1162.00
2024-05-17 17:04:33.826193,1,-1,2,0,0,0,65,69,143,170,79,171.20,53,60.00,62.00,-1587.00
2024-05-17 17:04:33.925812,0,-2,6,0,0,-6,65,69,155,170,79,171.36,53,36.00,194.00,-1297.00
2024-05-17 17:04:34.030961,5,-35,8,0,0,-11,65,69,261,180,79,171.35,53,104.00,625.00,-931.00
2024-05-17 17:04:34.129447,5,-150,-7,0,-9,-6,65,69,234,190,79,171.38,53,159.00,670.00,-1100.00
2024-05-17 17:04:34.231236,-10,86,2,0,-8,9,65,69,171,190,79,171.52,53,68.00,279.00,-1472.00
2024-05-17 17:04:34.282360,0,-3,11,0,-2,12,65,69,143,180,79,171.40,53,22.00,-68.00,-1337.00
2024-05-17 17:04:34.384228,0,-1,13,1,-4,10,65,69,134,170,79,171.00,53,134.00,45.00,-1536.00
2024-05-17 17:04:34.542931,0,4,16,1,-3,5,66,67,131,160,79,171.18,53,69.00,-6.00,-1345.00
2024-05-17 17:04:34.588695,1,3,15,1,-2,2,66,67,127,160,79,171.13,53,11.00,81.00,-1237.00
2024-05-17 17:04:34.747897,2,1,8,1,-1,0,66,67,127,150,79,170.91,54,34.00,46.00,-1155.00
2024-05-17 17:04:34.792843,2,0,1,1,-1,-1,66,67,129,150,79,171.11,54,-23.00,36.00,-1043.00
2024-05-17 17:04:34.952948,2,0,0,0,0,-1,66,67,131,160,79,171.04,54,-8.00,52.00,-1005.00
2024-05-17 17:04:34.996197,1,-1,0,1,0,-2,66,67,133,160,79,171.24,54,81.00,-28.00,-972.00
2024-05-17 17:04:35.157361,1,-1,0,1,0,-2,66,67,135,160,79,170.97,54,85.00,-7.00,-932.00
2024-05-17 17:04:35.203542,3,0,1,1,0,-2,66,67,135,160,79,170.72,54,18.00,21.00,-839.00
2024-05-17 17:04:35.302202,3,0,1,1,0,-1,66,67,136,160,79,171.10,54,35.00,40.00,-970.00
2024-05-17 17:04:35.464569,3,0,1,0,0,0,66,67,137,160,79,171.00,54,73.00,26.00,-994.00
2024-05-17 17:04:35.507487,3,0,1,0,0,0,65,69,136,170,79,170.76,54,27.00,75.00,-950.00
2024-05-17 17:04:35.669334,3,0,1,0,0,0,65,69,136,170,79,171.22,54,-43.00,70.00,-941.00
2024-05-17 17:04:35.710361,2,-1,1,0,0,0,65,69,135,170,79,171.40,55,41.00,5.00,-971.00
2024-05-17 17:04:35.883145,1,-1,1,0,0,0,65,69,134,160,79,171.01,55,3.00,76.00,-966.00
2024-05-17 17:04:35.914889,2,0,1,0,0,0,65,69,133,160,79,170.67,55,80.00,28.00,-1087.00
2024-05-17 17:04:36.080163,1,0,1,0,0,0,65,69,132,160,79,170.80,55,56.00,18.00,-1021.00
2024-05-17 17:04:36.118172,1,0,1,0,0,0,65,69,131,160,79,171.09,55,28.00,31.00,-1021.00
2024-05-17 17:04:36.220140,1,0,1,0,0,0,65,69,129,160,78,170.99,55,-18.00,31.00,-986.00
2024-05-17 17:04:36.391160,1,0,1,0,0,0,65,69,128,160,78,171.09,55,90.00,23.00,-1039.00
2024-05-17 17:04:36.424111,1,0,1,0,0,0,65,69,128,160,78,171.03,55,0.00,66.00,-1006.00
2024-05-17 17:04:36.599764,1,0,1,0,0,0,66,69,128,160,78,170.97,55,54.00,25.00,-1011.00
2024-05-17 17:04:36.630651,1,0,1,0,0,0,66,69,128,160,78,171.03,55,81.00,-14.00,-1024.00
2024-05-17 17:04:36.732418,2,0,1,0,0,0,66,69,128,160,78,171.10,56,72.00,5.00,-1004.00
2024-05-17 17:04:36.832067,2,0,1,0,0,0,66,69,128,160,78,170.78,56,-3.00,31.00,-933.00
2024-05-17 17:04:36.936172,2,0,1,0,0,0,66,69,129,160,78,170.75,56,-19.00,76.00,-1028.00
2024-05-17 17:04:37.040382,2,0,1,0,0,0,66,69,129,160,78,170.74,56,16.00,49.00,-956.00
2024-05-17 17:04:37.138573,2,0,1,0,0,0,66,69,130,160,78,170.92,56,40.00,16.00,-972.00
2024-05-17 17:04:37.240108,2,0,1,0,0,0,66,69,131,160,78,170.98,56,77.00,-21.00,-1025.00
2024-05-17 17:04:37.410271,2,0,1,0,0,0,66,69,132,160,78,171.32,56,3.00,28.00,-948.00
2024-05-17 17:04:37.444113,2,0,1,0,0,0,66,69,132,160,78,170.83,56,68.00,33.00,-1004.00
2024-05-17 17:04:37.617132,2,0,1,0,1,0,66,69,133,160,78,171.20,56,32.00,11.00,-982.00
2024-05-17 17:04:37.650369,1,0,1,0,1,0,66,69,135,160,78,170.88,57,44.00,-15.00,-1031.00
2024-05-17 17:04:37.751264,1,-1,1,0,1,0,66,69,135,160,78,170.89,57,74.00,-8.00,-1009.00
2024-05-17 17:04:37.852178,1,-1,1,0,1,0,66,69,137,160,78,171.03,57,54.00,-14.00,-1006.00
2024-05-17 17:04:38.131028,1,-1,1,0,1,0,66,69,138,160,78,170.86,57,55.00,22.00,-1033.00
2024-05-17 17:04:38.131121,2,-1,1,0,0,0,66,69,139,160,78,171.05,57,-6.00,13.00,-945.00
2024-05-17 17:04:38.158187,2,-1,1,0,0,0,66,69,140,160,78,171.02,57,40.00,7.00,-1012.00
2024-05-17 17:04:38.260031,2,-1,1,0,0,0,66,69,140,160,78,171.10,57,97.00,-3.00,-1086.00
2024-05-17 17:04:38.313843,2,-1,1,0,0,0,66,69,140,160,78,170.79,57,10.00,36.00,-1008.00
2024-05-17 17:04:38.413106,2,-1,1,0,0,0,66,69,141,160,78,171.08,57,69.00,11.00,-999.00
2024-05-17 17:04:38.538660,2,-1,1,0,0,0,66,69,140,160,78,170.95,57,53.00,12.00,-985.00
2024-05-17 17:04:38.617166,1,-1,1,0,0,0,66,69,141,170,78,171.10,58,3.00,45.00,-966.00
2024-05-17 17:04:38.743525,1,-1,1,0,0,0,66,69,140,170,78,170.76,58,19.00,47.00,-956.00
2024-05-17 17:04:38.821396,1,-1,1,0,0,0,66,69,139,160,78,171.38,58,84.00,3.00,-974.00
2024-05-17 17:04:38.947688,0,-1,1,0,0,0,66,69,138,160,78,170.97,58,58.00,18.00,-1021.00
2024-05-17 17:04:39.025479,0,-1,1,0,0,0,66,69,137,160,78,171.16,58,64.00,35.00,-1064.00
2024-05-17 17:04:39.155179,0,-1,1,0,0,0,66,69,135,160,78,171.04,58,10.00,57.00,-1022.00
2024-05-17 17:04:39.229206,0,-1,1,0,0,0,66,69,134,160,78,170.64,58,49.00,46.00,-982.00
2024-05-17 17:04:39.357577,0,-1,1,0,0,0,66,69,134,160,78,171.09,58,52.00,16.00,-996.00
2024-05-17 17:04:39.433313,0,-1,1,0,0,0,66,69,133,160,78,171.15,58,23.00,17.00,-1012.00
2024-05-17 17:04:39.562862,0,-1,1,0,0,0,66,69,132,160,78,170.87,58,17.00,27.00,-1036.00
2024-05-17 17:04:39.638064,0,0,1,0,0,0,66,69,132,160,78,171.04,59,42.00,19.00,-1080.00
2024-05-17 17:04:39.766709,0,0,1,0,0,0,66,69,133,160,78,171.11,59,32.00,-21.00,-1021.00
2024-05-17 17:04:39.841072,0,0,1,0,0,0,66,69,134,160,78,171.00,59,51.00,21.00,-1019.00
2024-05-17 17:04:39.971615,1,0,1,0,0,0,66,69,136,160,78,171.20,59,12.00,24.00,-966.00
2024-05-17 17:04:40.045228,1,0,1,0,0,0,66,69,137,160,78,170.90,59,35.00,40.00,-949.00
2024-05-17 17:04:40.147083,1,0,1,0,0,0,66,69,139,160,78,171.02,59,43.00,19.00,-1027.00
2024-05-17 17:04:40.249039,1,0,1,0,0,0,66,69,140,160,78,171.17,59,30.00,20.00,-1167.00
2024-05-17 17:04:40.380922,0,1,2,0,0,-4,66,69,143,160,78,171.21,59,2.00,73.00,-1519.00
2024-05-17 17:04:40.452935,0,11,5,0,1,-10,66,69,152,170,78,171.23,59,16.00,-27.00,-1701.00
2024-05-17 17:04:40.584519,-8,98,1,0,8,-11,66,69,356,190,78,171.28,59,60.00,729.00,-1245.00
2024-05-17 17:04:40.656883,9,-137,-8,0,11,3,66,69,236,190,78,171.26,60,248.00,916.00,-900.00
2024-05-17 17:04:40.791417,7,-22,18,1,5,12,66,69,167,180,78,171.77,60,218.00,809.00,-1088.00
2024-05-17 17:04:40.860898,-2,10,20,1,6,10,66,69,149,170,78,171.17,60,154.00,-7.00,-1147.00
2024-05-17 17:04:40.996089,2,-3,19,1,8,6,66,69,138,160,78,171.31,60,52.00,-34.00,-1450.00
2024-05-17 17:04:41.064885,2,-8,13,1,6,3,66,69,133,160,78,170.76,60,54.00,-43.00,-1316.00
2024-05-17 17:04:41.200950,1,-6,3,1,4,1,66,69,129,150,78,171.04,60,112.00,-48.00,-1312.00
2024-05-17 17:04:41.268861,1,-4,1,1,3,0,66,69,128,150,78,170.67,60,44.00,3.00,-1112.00
2024-05-17 17:04:41.405378,1,-3,0,1,3,-1,66,69,128,150,78,170.83,60,38.00,0.00,-1062.00
2024-05-17 17:04:41.472855,2,-2,0,1,2,-1,66,69,128,150,78,170.84,60,10.00,35.00,-1013.00
2024-05-17 17:04:41.576146,2,-2,0,1,2,-1,65,69,128,150,78,170.86,60,34.00,-26.00,-1020.00
2024-05-17 17:04:41.677685,2,-2,1,1,2,0,65,69,128,150,78,170.91,61,30.00,-14.00,-1011.00
2024-05-17 17:04:41.779099,1,-1,1,1,1,0,65,69,128,150,78,171.03,61,5.00,-22.00,-988.00
2024-05-17 17:04:41.830022,2,-1,1,0,1,0,65,69,128,150,78,171.00,61,80.00,-18.00,-993.00
2024-05-17 17:04:42.020173,1,-1,1,0,1,0,65,69,128,150,78,170.82,61,72.00,-49.00,-953.00
2024-05-17 17:04:42.033937,1,-2,1,0,1,0,65,69,127,150,78,170.72,61,20.00,29.00,-1002.00
2024-05-17 17:04:42.222821,2,-3,1,0,0,0,65,69,126,150,78,170.61,61,24.00,-18.00,-998.00
2024-05-17 17:04:42.238872,2,-2,1,0,0,0,65,69,126,150,78,170.96,61,37.00,1.00,-975.00
2024-05-17 17:04:42.339892,1,-2,1,0,0,0,65,69,126,150,78,170.77,61,20.00,-5.00,-1063.00
2024-05-17 17:04:42.530097,0,-2,1,0,0,0,65,69,125,150,78,170.91,61,10.00,4.00,-1009.00
2024-05-17 17:04:42.543758,0,-2,1,0,0,0,66,70,125,150,78,170.76,61,17.00,79.00,-985.00
2024-05-17 17:04:42.737190,0,-2,1,0,0,0,66,70,126,150,78,171.05,62,15.00,38.00,-993.00
2024-05-17 17:04:42.747725,0,-2,1,0,0,0,66,70,126,140,78,170.69,62,50.00,4.00,-1017.00
2024-05-17 17:04:42.946827,0,-3,1,0,0,0,66,70,125,140,78,171.09,62,-2.00,43.00,-983.00
2024-05-17 17:04:42.957062,0,-2,1,0,0,0,66,70,125,150,78,170.86,62,25.00,15.00,-907.00
2024-05-17 17:04:43.057002,0,-2,1,0,0,0,66,70,124,150,78,170.92,62,27.00,1.00,-808.00
2024-05-17 17:04:43.157495,0,-2,1,0,0,0,66,70,123,150,78,170.91,62,54.00,26.00,-1043.00
2024-05-17 17:04:43.262983,0,-2,1,0,0,0,66,70,122,140,77,170.95,62,-48.00,78.00,-917.00
2024-05-17 17:04:43.359724,0,-2,1,0,0,0,66,70,122,140,77,171.04,62,-71.00,91.00,-814.00
2024-05-17 17:04:43.555753,1,-2,1,0,0,0,66,70,121,140,77,171.17,62,-22.00,61.00,-899.00
2024-05-17 17:04:43.563690,0,-2,1,0,0,0,66,69,120,140,77,170.98,62,-67.00,62.00,-908.00
2024-05-17 17:04:43.667142,0,-3,1,0,0,0,66,69,118,140,77,170.78,63,27.00,7.00,-904.00
2024-05-17 17:04:43.767931,1,-2,1,0,0,0,66,69,116,140,77,170.80,63,35.00,38.00,-928.00
2024-05-17 17:04:43.870033,1,-1,1,0,0,0,66,69,115,140,77,170.89,63,72.00,-12.00,-1128.00
2024-05-17 17:04:44.067549,1,-2,1,0,0,0,66,69,115,140,77,170.83,63,103.00,17.00,-974.00
2024-05-17 17:04:44.073899,0,-2,1,0,0,0,66,69,114,140,77,170.89,63,150.00,-70.00,-1119.00
2024-05-17 17:04:44.271477,0,-2,1,0,0,0,66,69,113,140,77,171.06,63,25.00,101.00,-1149.00
2024-05-17 17:04:44.278290,0,-2,1,0,0,0,66,69,113,140,77,170.98,63,0.00,48.00,-983.00
2024-05-17 17:04:44.578468,1,-2,1,0,0,0,66,69,112,140,77,170.68,63,32.00,54.00,-1002.00
2024-05-17 17:04:44.578629,0,-2,1,0,0,0,66,69,112,140,77,170.83,63,17.00,46.00,-1042.00
2024-05-17 17:04:44.586959,0,-2,1,0,0,0,67,70,112,140,77,170.73,63,45.00,0.00,-1073.00
2024-05-17 17:04:44.687586,0,-2,1,0,0,0,67,70,113,140,77,171.16,64,4.00,26.00,-1111.00
2024-05-17 17:04:44.788870,0,-2,1,0,0,0,67,70,113,140,77,170.84,64,4.00,25.00,-1015.00
2024-05-17 17:04:44.987883,0,-3,1,0,0,0,67,70,113,140,77,170.64,64,3.00,64.00,-1006.00
2024-05-17 17:04:44.991804,0,-2,1,0,0,0,67,70,113,140,77,170.77,64,-23.00,71.00,-1047.00
2024-05-17 17:04:45.192605,0,-2,1,0,0,0,67,70,113,140,77,170.71,64,52.00,-33.00,-995.00
2024-05-17 17:04:45.200681,0,-2,1,0,0,0,67,70,114,140,77,170.87,64,43.00,-8.00,-839.00
2024-05-17 17:04:45.297993,0,-2,1,0,0,0,67,70,115,140,77,170.91,64,75.00,-13.00,-1059.00
2024-05-17 17:04:45.399806,0,-2,1,0,0,0,67,70,115,140,77,170.77,64,-28.00,44.00,-1091.00
2024-05-17 17:04:45.450783,0,-2,1,0,0,0,67,70,116,140,77,170.78,64,-18.00,63.00,-980.00
