TS,pitch,roll,yaw,vgx,vgy,vgz,templ,temph,tof,h,bat,baro,time,agx,agy,agz
2024-06-07 01:18:40.095687,0,0,-2,0,0,0,72,74,10,0,27,98.71,72,2.00,13.00,-998.00
2024-06-07 01:18:40.183774,0,0,-2,0,0,0,72,74,10,0,27,98.62,72,3.00,11.00,-999.00
2024-06-07 01:18:40.319766,0,0,-2,0,0,0,72,74,10,0,27,98.50,72,2.00,11.00,-1000.00
2024-06-07 01:18:40.388104,0,0,-2,0,0,0,72,74,10,0,27,98.58,72,1.00,11.00,-999.00
2024-06-07 01:18:40.524492,0,0,-2,0,0,0,72,74,10,0,27,98.67,72,1.00,12.00,-1001.00
2024-06-07 01:18:40.591550,0,0,-2,0,0,0,72,74,10,0,27,98.71,72,3.00,12.00,-1000.00
2024-06-07 01:18:40.693272,0,0,-2,0,0,0,72,74,10,0,27,98.66,72,3.00,10.00,-999.00
2024-06-07 01:18:40.795545,0,0,-2,0,0,0,72,74,10,0,27,98.81,72,1.00,12.00,-1001.00
2024-06-07 01:18:40.912668,0,0,-2,0,0,0,72,74,10,0,27,98.60,72,2.00,12.00,-1000.00
2024-06-07 01:18:40.999306,0,0,-2,0,0,0,72,74,10,0,27,98.65,72,1.00,11.00,-999.00
2024-06-07 01:18:41.138620,0,0,-2,0,0,0,72,74,10,0,27,98.67,72,2.00,9.00,-1002.00
2024-06-07 01:18:41.203412,0,0,-2,0,0,0,72,74,10,0,27,98.81,72,3.00,10.00,-1000.00
2024-06-07 01:18:41.254534,0,0,-2,0,0,0,72,74,10,0,27,98.65,72,3.00,13.00,-1000.00
2024-06-07 01:18:41.446038,0,0,-2,0,0,0,72,74,10,0,27,98.62,72,3.00,11.00,-1005.00
2024-06-07 01:18:41.458289,0,0,-2,0,0,0,72,74,10,0,27,98.53,72,1.00,11.00,-1001.00
2024-06-07 01:18:41.650610,0,0,-2,0,0,0,72,74,10,0,27,98.58,72,0.00,11.00,-999.00
2024-06-07 01:18:41.662225,0,0,-2,0,0,0,73,75,10,0,27,98.88,72,1.00,11.00,-1000.00
2024-06-07 01:18:41.764313,0,0,-2,0,0,0,73,75,10,0,27,98.64,72,1.00,12.00,-999.00
2024-06-07 01:18:41.958763,0,0,-2,0,0,0,73,75,10,0,27,98.63,72,1.00,10.00,-996.00
2024-06-07 01:18:41.968335,0,0,-2,0,0,0,73,75,10,0,27,98.84,72,2.00,12.00,-1000.00
2024-06-07 01:18:42.070000,0,0,-2,0,0,0,73,75,10,0,27,98.67,72,2.00,10.00,-998.00
2024-06-07 01:18:42.264831,0,0,-2,0,0,0,73,75,10,0,27,98.67,72,-11.00,4.00,-999.00
2024-06-07 01:18:42.274396,0,0,-2,0,0,0,73,75,10,0,27,98.67,72,4.00,7.00,-998.00
2024-06-07 01:18:42.469798,0,0,-2,0,0,0,73,75,10,0,27,98.67,72,12.00,1.00,-992.00
2024-06-07 01:18:42.478042,0,0,-2,0,0,0,73,75,10,0,27,98.67,72,-27.00,41.00,-985.00
2024-06-07 01:18:42.679538,0,0,-2,0,0,0,73,75,10,0,27,98.67,72,25.00,4.00,-1035.00
2024-06-07 01:18:42.683460,0,0,-2,0,0,0,73,75,10,0,27,98.67,72,15.00,10.00,-1011.00
2024-06-07 01:18:42.879241,0,0,-2,0,0,-1,73,75,10,0,27,98.67,72,8.00,30.00,-1139.00
2024-06-07 01:18:42.888772,0,0,-1,0,0,-3,73,75,10,0,27,98.67,72,10.00,15.00,-1274.00
2024-06-07 01:18:42.987952,1,-2,-1,0,0,-6,73,75,12,10,27,98.67,72,90.00,-49.00,-1306.00
2024-06-07 01:18:43.186237,2,0,-1,0,0,-7,73,75,20,10,27,98.75,73,80.00,8.00,-1030.00
2024-06-07 01:18:43.191967,1,0,-1,0,0,-7,73,75,28,20,27,99.01,73,-5.00,0.00,-943.00
2024-06-07 01:18:43.391090,1,0,-2,0,0,-7,73,75,32,30,27,99.02,73,73.00,11.00,-1025.00
2024-06-07 01:18:43.396163,1,-1,-2,0,0,-7,73,75,39,30,27,99.16,73,-111.00,45.00,-775.00
2024-06-07 01:18:43.595903,1,-1,-2,0,0,-6,73,75,46,40,27,99.42,73,-13.00,24.00,-876.00
2024-06-07 01:18:43.600343,2,0,-2,0,0,-5,73,75,52,50,27,99.59,73,16.00,58.00,-834.00
2024-06-07 01:18:43.800799,2,0,-2,0,0,-5,72,74,56,50,27,99.58,73,84.00,-16.00,-962.00
2024-06-07 01:18:43.803961,3,0,-2,0,0,-4,72,74,60,60,27,99.63,73,-3.00,62.00,-892.00
2024-06-07 01:18:43.905890,3,0,-2,0,0,-3,72,74,63,60,27,99.70,73,65.00,-20.00,-957.00
2024-06-07 01:18:44.007890,4,0,-2,0,0,-2,72,74,65,60,27,99.74,73,39.00,71.00,-906.00
2024-06-07 01:18:44.109885,3,0,-2,0,0,-1,72,74,66,60,27,99.47,74,107.00,-9.00,-1014.00
2024-06-07 01:18:44.312816,3,0,-2,0,0,-1,72,74,67,60,27,99.31,74,48.00,45.00,-1006.00
2024-06-07 01:18:44.314352,2,0,-2,0,0,-1,72,74,66,60,27,99.32,74,31.00,34.00,-996.00
2024-06-07 01:18:44.416214,2,0,-2,0,0,0,72,74,66,60,27,99.85,74,35.00,15.00,-1032.00
2024-06-07 01:18:44.620143,1,0,-2,0,0,0,72,74,65,60,27,99.57,74,52.00,37.00,-994.00
2024-06-07 01:18:44.620190,1,0,-2,0,0,0,72,74,64,60,27,99.89,74,59.00,-20.00,-946.00
2024-06-07 01:18:44.721994,2,0,-2,0,0,0,73,75,63,60,27,99.53,74,71.00,-19.00,-1056.00
2024-06-07 01:18:44.824718,2,0,-2,0,0,0,73,75,62,60,27,99.34,74,57.00,28.00,-1134.00
2024-06-07 01:18:44.874887,2,0,-2,0,0,0,73,75,61,60,27,99.35,74,29.00,-3.00,-1038.00
2024-06-07 01:18:45.029537,2,0,-2,0,0,0,73,75,60,60,27,99.52,74,39.00,-5.00,-1041.00
2024-06-07 01:18:45.078955,2,0,-2,0,0,-1,73,75,59,60,27,99.48,75,0.00,58.00,-957.00
2024-06-07 01:18:45.234316,2,0,-2,0,0,-1,73,75,60,60,27,99.44,75,-21.00,15.00,-1002.00
2024-06-07 01:18:45.283054,2,0,-2,0,0,-1,73,75,60,60,27,99.55,75,24.00,21.00,-1066.00
2024-06-07 01:18:45.439943,2,0,-2,0,0,-2,73,75,61,60,27,99.34,75,-41.00,40.00,-926.00
2024-06-07 01:18:45.486858,2,0,-2,0,0,-2,73,75,62,70,27,99.24,75,24.00,35.00,-1056.00
2024-06-07 01:18:45.643834,2,0,-1,0,0,-2,73,75,63,70,27,99.49,75,25.00,-8.00,-1016.00
2024-06-07 01:18:45.690883,2,0,-1,0,0,-2,73,75,64,70,27,99.30,75,-54.00,19.00,-949.00
2024-06-07 01:18:45.848674,2,0,-1,0,0,-2,73,75,65,70,27,99.61,75,-25.00,25.00,-1038.00
2024-06-07 01:18:45.894858,2,0,-1,0,0,-2,73,75,66,80,27,99.68,75,50.00,13.00,-963.00
2024-06-07 01:18:46.053585,2,0,-1,0,0,-2,73,75,67,80,27,99.55,75,-89.00,86.00,-932.00
2024-06-07 01:18:46.098805,2,0,-1,0,0,-2,73,75,68,80,27,99.48,76,155.00,-54.00,-1007.00
2024-06-07 01:18:46.258620,2,0,-1,0,0,-2,73,75,69,80,27,99.70,76,-84.00,43.00,-861.00
2024-06-07 01:18:46.302803,2,0,-1,0,0,-1,73,75,70,80,27,99.55,76,27.00,-26.00,-1069.00
2024-06-07 01:18:46.463944,2,0,-2,0,0,-1,73,75,71,80,27,99.62,76,32.00,10.00,-939.00
2024-06-07 01:18:46.508722,2,0,-2,0,0,-1,73,75,72,90,27,99.82,76,13.00,3.00,-940.00
2024-06-07 01:18:46.608754,2,0,-2,0,0,-1,73,75,73,90,27,99.35,76,57.00,-21.00,-1070.00
2024-06-07 01:18:46.710708,2,0,-2,0,0,-1,72,76,74,90,27,99.64,76,-27.00,43.00,-920.00
2024-06-07 01:18:46.872668,2,0,-2,0,0,-1,72,76,75,90,27,99.71,76,-30.00,40.00,-909.00
2024-06-07 01:18:46.914710,2,0,-2,0,0,-1,72,76,76,90,27,99.44,76,9.00,-12.00,-1034.00
2024-06-07 01:18:47.016986,2,0,-2,0,0,-1,72,76,77,90,27,99.66,76,14.00,20.00,-939.00
2024-06-07 01:18:47.193720,2,0,-2,0,0,-1,72,76,77,90,27,99.53,77,33.00,15.00,-1037.00
2024-06-07 01:18:47.220672,2,0,-2,0,0,-1,72,76,77,100,27,99.57,77,11.00,21.00,-1014.00
2024-06-07 01:18:47.385016,2,0,-2,0,0,-1,72,76,78,100,27,99.46,77,52.00,11.00,-1036.00
2024-06-07 01:18:47.479409,2,0,-2,0,0,-1,72,76,78,100,27,99.34,77,0.00,8.00,-915.00
2024-06-07 01:18:47.528747,2,0,-2,0,0,-1,72,76,78,100,27,99.62,77,5.00,0.00,-961.00
2024-06-07 01:18:47.629963,2,0,-2,0,0,0,72,76,79,100,27,99.81,77,19.00,5.00,-941.00
2024-06-07 01:18:47.731772,2,0,-2,0,0,-1,73,75,79,100,27,99.69,77,22.00,-7.00,-1085.00
2024-06-07 01:18:47.915294,2,0,-2,0,0,0,73,75,79,100,27,99.66,77,61.00,-38.00,-1009.00
2024-06-07 01:18:47.934695,2,0,-2,0,0,0,73,75,79,100,27,99.58,77,9.00,33.00,-994.00
2024-06-07 01:18:48.054586,2,0,-2,0,0,0,73,75,78,100,27,99.73,77,11.00,6.00,-907.00
2024-06-07 01:18:48.142737,2,0,-2,0,0,0,73,75,78,90,27,99.60,78,-18.00,2.00,-1035.00
2024-06-07 01:18:48.240617,2,0,-2,0,0,0,73,75,78,90,27,99.70,78,92.00,-10.00,-1060.00
2024-06-07 01:18:48.419679,2,0,-2,0,0,0,73,75,78,90,27,99.66,78,35.00,-9.00,-1014.00
2024-06-07 01:18:48.444587,2,0,-2,0,0,0,73,75,78,90,27,99.66,78,66.00,11.00,-999.00
2024-06-07 01:18:48.563593,2,0,-2,0,0,0,73,75,78,90,27,99.49,78,20.00,9.00,-1019.00
2024-06-07 01:18:48.597551,2,0,-2,0,0,0,73,75,79,90,27,99.53,78,19.00,-9.00,-1038.00
2024-06-07 01:18:48.727882,2,0,-2,0,0,0,72,75,79,90,27,99.90,78,1.00,28.00,-1038.00
2024-06-07 01:18:48.870476,2,0,-2,0,0,0,72,75,80,90,27,99.63,78,49.00,-35.00,-1072.00
2024-06-07 01:18:48.903712,3,0,-2,0,0,0,72,75,81,90,27,99.61,78,16.00,6.00,-974.00
2024-06-07 01:18:49.033860,2,0,-2,0,0,0,72,75,81,100,27,99.93,78,95.00,-6.00,-1010.00
2024-06-07 01:18:49.177894,2,0,-2,0,0,0,72,75,82,100,27,99.55,79,17.00,15.00,-972.00
2024-06-07 01:18:49.217677,3,0,-2,0,0,0,72,75,83,100,27,99.52,79,12.00,5.00,-957.00
2024-06-07 01:18:49.341175,2,0,-2,0,0,0,72,75,83,100,27,99.86,79,49.00,-6.00,-1005.00
2024-06-07 01:18:49.414195,2,0,-2,0,0,0,72,75,84,100,27,99.93,79,30.00,86.00,-951.00
2024-06-07 01:18:49.535018,2,0,-2,0,0,0,72,75,84,100,27,99.93,79,-15.00,5.00,-851.00
2024-06-07 01:18:49.617617,2,-1,-2,0,0,0,72,75,84,100,27,99.79,79,-18.00,73.00,-948.00
2024-06-07 01:18:49.739886,1,-1,-2,0,0,0,72,75,84,100,27,99.88,79,28.00,-17.00,-989.00
2024-06-07 01:18:49.821698,2,-1,-2,0,0,0,72,75,83,100,27,99.66,79,6.00,43.00,-1004.00
2024-06-07 01:18:49.944636,2,0,-2,0,0,0,72,75,83,100,27,99.65,79,1.00,30.00,-956.00
2024-06-07 01:18:50.025553,2,0,-2,0,0,0,72,75,83,100,27,99.89,79,5.00,30.00,-929.00
2024-06-07 01:18:50.149448,2,0,-2,0,0,0,72,75,82,100,27,99.53,80,41.00,13.00,-1022.00
2024-06-07 01:18:50.229523,1,0,-2,0,0,0,72,75,82,100,27,99.73,80,9.00,37.00,-1099.00
2024-06-07 01:18:50.354214,1,0,-2,0,0,0,72,75,81,100,27,99.57,80,-68.00,91.00,-921.00
2024-06-07 01:18:50.433404,1,0,-2,0,0,0,72,75,81,100,27,99.78,80,89.00,7.00,-994.00
2024-06-07 01:18:50.559041,2,-1,-2,0,0,0,72,75,81,100,27,99.53,80,29.00,12.00,-1048.00
2024-06-07 01:18:50.637584,2,0,-2,0,0,0,72,75,81,100,27,99.75,80,5.00,56.00,-1021.00
2024-06-07 01:18:50.753805,2,0,-2,0,0,0,72,75,81,100,27,99.77,80,27.00,40.00,-957.00
2024-06-07 01:18:50.841405,2,0,-2,0,0,0,72,75,81,100,27,99.88,80,71.00,-25.00,-1022.00
2024-06-07 01:18:50.968467,2,0,-2,0,0,0,72,75,81,100,27,99.40,80,24.00,35.00,-1052.00
2024-06-07 01:18:51.045385,2,0,-2,0,0,0,72,75,82,100,27,99.73,80,61.00,-25.00,-1136.00
2024-06-07 01:18:51.173267,2,0,-2,0,0,-1,72,75,83,100,27,99.64,81,36.00,-15.00,-1091.00
2024-06-07 01:18:51.249376,2,0,-2,0,0,-2,72,75,86,100,27,99.90,81,60.00,0.00,-1046.00
2024-06-07 01:18:51.377997,2,0,-2,0,0,-3,72,75,89,100,27,99.68,81,17.00,-3.00,-962.00
2024-06-07 01:18:51.453386,2,0,-2,0,0,-4,72,75,92,110,27,99.64,81,106.00,-35.00,-1069.00
2024-06-07 01:18:51.582824,2,0,-2,0,0,-4,72,75,97,110,27,99.95,81,-92.00,43.00,-982.00
2024-06-07 01:18:51.657309,2,0,-2,0,0,-5,72,75,101,110,27,99.94,81,73.00,9.00,-1143.00
2024-06-07 01:18:51.787686,1,0,-2,0,0,-5,72,76,107,120,27,99.96,81,4.00,2.00,-923.00
2024-06-07 01:18:51.861284,1,0,-2,0,0,-5,72,76,113,120,27,100.03,81,115.00,-15.00,-1055.00
2024-06-07 01:18:51.992437,1,0,-2,0,0,-5,72,76,117,130,27,100.07,81,106.00,-35.00,-1214.00
2024-06-07 01:18:52.065300,1,-1,-2,0,0,-5,72,76,123,140,27,99.87,81,36.00,-4.00,-1012.00
2024-06-07 01:18:52.167916,1,-1,-2,0,0,-5,72,76,129,140,27,100.16,82,-1.00,34.00,-1035.00
2024-06-07 01:18:52.299540,1,-1,-2,0,0,-5,72,76,135,150,27,100.16,82,43.00,-17.00,-974.00
2024-06-07 01:18:52.320874,1,-1,-2,0,0,-4,72,76,139,150,27,100.27,82,51.00,4.00,-965.00
2024-06-07 01:18:52.504619,1,-1,-2,0,0,-4,72,76,144,160,27,100.24,82,-29.00,28.00,-936.00
2024-06-07 01:18:52.524251,2,-1,-2,0,0,-4,72,76,149,160,27,100.30,82,117.00,10.00,-986.00
2024-06-07 01:18:52.709639,2,0,-2,0,0,-4,72,76,154,160,27,100.35,82,50.00,14.00,-983.00
2024-06-07 01:18:52.728159,2,0,-2,0,0,-3,73,75,157,170,27,100.23,82,-7.00,29.00,-893.00
2024-06-07 01:18:52.917004,2,0,-2,0,0,-3,73,75,160,180,27,100.54,82,19.00,8.00,-931.00
2024-06-07 01:18:52.932797,2,0,-2,0,0,-3,73,75,163,180,27,100.69,82,41.00,0.00,-1026.00
2024-06-07 01:18:53.118808,2,0,-2,0,0,-2,73,75,166,180,27,100.40,83,-64.00,84.00,-913.00
2024-06-07 01:18:53.136744,2,0,-2,0,0,-2,73,75,167,180,27,100.45,83,26.00,41.00,-958.00
2024-06-07 01:18:53.323569,1,0,-2,0,0,-1,73,75,170,190,27,100.66,83,6.00,50.00,-1010.00
2024-06-07 01:18:53.340147,1,0,-2,0,0,0,73,75,170,190,27,100.50,83,73.00,-5.00,-995.00
2024-06-07 01:18:53.442020,1,0,-2,0,0,0,73,75,172,190,27,100.11,83,78.00,0.00,-1034.00
2024-06-07 01:18:53.630706,2,0,-2,0,0,0,73,75,172,190,27,100.45,83,-14.00,32.00,-1022.00
2024-06-07 01:18:53.646046,2,0,-2,0,0,0,73,75,175,190,27,100.15,83,47.00,19.00,-1003.00
2024-06-07 01:18:53.842917,2,0,-2,0,0,0,73,75,175,190,27,100.35,83,-10.00,11.00,-953.00
2024-06-07 01:18:53.849982,2,0,-2,0,0,0,73,75,176,190,27,100.19,83,39.00,33.00,-1020.00
2024-06-07 01:18:54.002276,2,0,-2,0,0,0,73,75,177,190,27,100.54,83,24.00,33.00,-934.00
2024-06-07 01:18:54.055363,2,0,-2,0,0,-1,73,75,178,190,27,100.54,84,10.00,22.00,-1000.00
2024-06-07 01:18:54.156931,2,0,-2,0,0,0,73,75,179,190,27,100.46,84,47.00,0.00,-1060.00
2024-06-07 01:18:54.258180,2,0,-2,0,0,0,73,75,179,190,27,100.65,84,53.00,-16.00,-975.00
2024-06-07 01:18:54.453278,2,0,-2,0,0,0,73,75,178,190,27,100.38,84,69.00,8.00,-1076.00
2024-06-07 01:18:54.462018,2,0,-2,0,0,0,73,75,178,190,27,100.80,84,24.00,44.00,-933.00
2024-06-07 01:18:54.654871,1,0,-2,0,0,0,73,75,178,190,27,100.33,84,60.00,-1.00,-1080.00
2024-06-07 01:18:54.666203,1,-1,-2,0,0,0,73,75,178,190,27,100.48,84,0.00,9.00,-949.00
2024-06-07 01:18:54.768132,1,0,-2,0,0,0,73,75,177,190,27,100.30,84,-55.00,33.00,-898.00
2024-06-07 01:18:54.961990,1,-1,-2,0,0,0,73,75,177,190,27,100.43,84,-42.00,35.00,-943.00
2024-06-07 01:18:54.972092,1,-1,-2,0,0,0,73,75,177,190,27,100.51,84,83.00,-8.00,-948.00
2024-06-07 01:18:55.169392,2,-1,-2,0,0,0,73,75,177,190,27,100.46,85,17.00,14.00,-1042.00
2024-06-07 01:18:55.176078,2,0,-2,0,0,0,73,75,178,190,27,100.52,85,-14.00,37.00,-976.00
2024-06-07 01:18:55.372015,2,0,-2,0,0,0,73,75,179,190,27,100.50,85,1.00,7.00,-991.00
2024-06-07 01:18:55.380025,2,0,-2,0,0,0,73,75,179,190,27,100.38,85,31.00,7.00,-1034.00
2024-06-07 01:18:55.481962,1,0,-2,0,0,0,73,75,179,190,27,100.20,85,74.00,-19.00,-1111.00
2024-06-07 01:18:55.678792,1,0,-2,0,0,0,73,75,179,190,27,100.53,85,25.00,29.00,-945.00
2024-06-07 01:18:55.685934,1,0,-2,0,0,0,73,75,180,190,27,100.59,85,67.00,-8.00,-1025.00
2024-06-07 01:18:55.888306,2,-1,-2,0,0,0,72,75,180,190,27,100.69,85,-52.00,57.00,-942.00
2024-06-07 01:18:55.891033,1,-1,-2,0,0,0,72,75,180,190,27,100.64,85,-39.00,18.00,-1005.00
2024-06-07 01:18:56.006150,1,-1,-2,0,0,0,72,75,181,190,27,100.78,85,89.00,-29.00,-1089.00
2024-06-07 01:18:56.093814,2,0,-2,0,0,0,72,75,182,190,27,100.64,86,28.00,17.00,-971.00
2024-06-07 01:18:56.295157,3,0,-2,0,0,0,72,75,181,200,27,100.57,86,147.00,-46.00,-1079.00
2024-06-07 01:18:56.297815,3,0,-2,0,0,0,72,75,181,200,27,100.58,86,-16.00,48.00,-874.00
2024-06-07 01:18:56.349216,3,0,-2,0,0,0,72,75,181,190,27,100.39,86,11.00,45.00,-980.00
2024-06-07 01:18:56.451286,2,-1,-2,0,0,1,72,75,179,190,27,100.44,86,22.00,13.00,-985.00
2024-06-07 01:18:56.605783,2,-1,-2,0,0,1,72,75,178,190,27,100.64,86,3.00,17.00,-922.00
2024-06-07 01:18:56.655127,2,-1,-2,0,0,2,72,75,177,190,27,100.69,86,26.00,11.00,-993.00
2024-06-07 01:18:56.805057,2,-1,-2,0,0,2,74,76,174,190,27,100.53,86,33.00,22.00,-1002.00
2024-06-07 01:18:56.861497,2,-1,-2,0,0,2,74,76,173,190,27,100.51,86,47.00,0.00,-926.00
2024-06-07 01:18:56.960836,2,-1,-2,0,0,2,74,76,169,180,27,100.54,86,-99.00,69.00,-860.00
2024-06-07 01:18:57.062839,2,0,-2,0,0,2,74,76,166,180,27,100.26,87,8.00,-12.00,-972.00
2024-06-07 01:18:57.214944,3,0,-2,0,0,2,74,76,163,180,27,100.09,87,7.00,30.00,-981.00
2024-06-07 01:18:57.267336,3,0,-2,0,0,2,74,76,159,180,27,100.39,87,-68.00,5.00,-918.00
2024-06-07 01:18:57.421324,2,0,-2,0,0,3,74,76,155,170,27,100.45,87,20.00,9.00,-998.00
2024-06-07 01:18:57.470792,1,-1,-2,0,0,3,74,76,151,170,27,100.21,87,-9.00,44.00,-927.00
2024-06-07 01:18:57.628874,1,-1,-2,-1,0,3,74,76,148,170,27,100.38,87,19.00,36.00,-1079.00
2024-06-07 01:18:57.674799,1,-1,-2,-1,0,3,74,76,144,160,27,100.02,87,72.00,-4.00,-1096.00
2024-06-07 01:18:57.776782,1,-1,-2,0,0,3,73,76,140,160,27,100.06,87,29.00,43.00,-991.00
2024-06-07 01:18:57.934041,1,-1,-2,0,0,2,73,76,138,160,27,99.98,87,-14.00,11.00,-1005.00
2024-06-07 01:18:57.982700,1,-1,-2,0,0,2,73,76,136,150,27,99.92,87,8.00,3.00,-972.00
2024-06-07 01:18:58.082780,1,-1,-2,0,0,1,73,76,135,150,27,100.22,88,-82.00,69.00,-1042.00
2024-06-07 01:18:58.188709,1,-1,-2,0,0,1,73,76,133,150,27,100.06,88,11.00,-13.00,-1054.00
2024-06-07 01:18:58.293115,1,-1,-2,0,0,0,73,76,132,150,27,99.85,88,39.00,4.00,-1081.00
2024-06-07 01:18:58.389114,2,0,-2,0,0,0,73,76,132,150,27,100.22,88,55.00,10.00,-1044.00
2024-06-07 01:18:58.492740,2,0,-2,0,0,0,73,76,132,150,27,100.29,88,61.00,14.00,-1068.00
2024-06-07 01:18:58.593211,2,0,-2,0,0,0,73,76,131,150,27,99.85,88,89.00,45.00,-1108.00
2024-06-07 01:18:58.694843,2,-1,-2,0,0,0,73,76,131,150,27,99.95,88,-6.00,4.00,-935.00
2024-06-07 01:18:58.796808,1,-1,-2,0,0,0,73,76,131,150,27,99.85,88,53.00,-8.00,-976.00
2024-06-07 01:18:58.898791,2,-1,-2,0,0,0,73,76,130,150,27,100.44,88,75.00,30.00,-957.00
2024-06-07 01:18:59.061585,1,-1,-2,0,0,0,73,76,130,150,27,100.09,88,47.00,29.00,-1013.00
2024-06-07 01:18:59.106716,2,-1,-2,0,0,0,73,76,130,150,27,100.38,89,54.00,27.00,-922.00
2024-06-07 01:18:59.204634,2,-1,-2,0,0,0,73,76,129,150,27,100.09,89,95.00,-14.00,-1153.00
2024-06-07 01:18:59.365123,2,0,-2,0,0,0,73,76,129,150,27,100.04,89,26.00,15.00,-963.00
2024-06-07 01:18:59.408760,2,0,-2,0,0,0,73,76,129,150,27,100.01,89,3.00,37.00,-964.00
2024-06-07 01:18:59.573557,1,0,-2,0,0,0,73,76,129,150,27,100.20,89,43.00,9.00,-917.00
2024-06-07 01:18:59.612653,1,-1,-2,0,0,0,73,76,128,150,27,100.40,89,86.00,-50.00,-1061.00
2024-06-07 01:18:59.775052,1,-1,-2,0,0,0,73,76,129,150,27,99.86,89,22.00,35.00,-1047.00
2024-06-07 01:18:59.816799,1,-1,-2,0,0,0,73,76,129,150,27,100.14,89,19.00,-10.00,-880.00
2024-06-07 01:18:59.982702,2,-1,-2,0,0,0,73,76,129,150,27,99.82,89,76.00,-24.00,-1075.00
2024-06-07 01:19:00.021135,1,-1,-2,0,0,0,73,76,129,150,27,100.06,89,-34.00,86.00,-918.00
2024-06-07 01:19:00.074134,2,-1,-2,0,0,0,73,76,130,150,27,99.89,90,113.00,-19.00,-1135.00
2024-06-07 01:19:00.173536,2,-1,-2,0,0,0,73,76,130,150,27,99.99,90,-52.00,39.00,-955.00
2024-06-07 01:19:00.286502,1,-1,-2,0,0,0,73,76,132,150,27,99.99,90,-29.00,77.00,-988.00
2024-06-07 01:19:00.377544,-4,0,-2,0,0,0,73,76,133,150,27,100.15,90,15.00,19.00,-965.00
2024-06-07 01:19:00.479576,-7,0,-2,1,0,0,73,76,134,150,27,100.15,90,-29.00,35.00,-982.00
2024-06-07 01:19:00.593672,-7,0,-2,2,0,0,73,76,135,150,27,100.10,90,63.00,7.00,-986.00
2024-06-07 01:19:00.683590,-6,-1,-2,4,0,0,73,76,134,150,27,100.07,90,14.00,13.00,-1090.00
2024-06-07 01:19:00.785527,-5,-1,-2,5,0,0,73,76,134,150,27,99.97,90,-109.00,15.00,-914.00
2024-06-07 01:19:00.887531,-5,-2,-2,5,0,0,73,76,134,150,27,100.16,90,-12.00,17.00,-960.00
2024-06-07 01:19:00.989520,-5,-2,-2,6,0,0,73,76,135,150,27,100.04,90,-40.00,27.00,-960.00
2024-06-07 01:19:01.105680,-3,-2,-2,7,0,0,73,76,134,150,27,99.96,91,0.00,19.00,-967.00
2024-06-07 01:19:01.193470,-1,0,-2,7,0,0,73,76,134,150,27,99.92,91,-12.00,36.00,-993.00
2024-06-07 01:19:01.310591,1,0,-2,7,0,0,73,76,135,150,27,100.51,91,-7.00,1.00,-986.00
2024-06-07 01:19:01.397455,4,0,-2,7,0,0,73,76,134,150,27,100.22,91,-20.00,29.00,-1030.00
2024-06-07 01:19:01.499471,6,0,-2,6,0,0,73,76,136,150,27,99.75,91,12.00,3.00,-1024.00
2024-06-07 01:19:01.617529,6,0,-2,5,0,0,73,76,135,150,27,100.15,91,-79.00,39.00,-867.00
2024-06-07 01:19:01.703384,4,0,-2,4,0,0,73,76,134,150,27,100.09,91,46.00,-29.00,-1045.00
2024-06-07 01:19:01.823941,3,0,-2,3,0,0,72,76,135,150,27,100.17,91,49.00,-7.00,-972.00
2024-06-07 01:19:01.907410,2,0,-2,3,0,0,72,76,134,150,27,100.24,91,-7.00,11.00,-994.00
2024-06-07 01:19:02.113244,2,0,-2,3,0,0,72,76,133,150,27,100.08,91,-33.00,30.00,-886.00
2024-06-07 01:19:02.113898,1,0,-2,2,0,0,72,76,133,150,27,99.91,92,81.00,-47.00,-1101.00
2024-06-07 01:19:02.256197,1,0,-2,2,0,0,72,76,134,150,27,100.31,92,-15.00,-30.00,-1026.00
2024-06-07 01:19:02.384346,3,0,-2,2,0,0,72,76,134,150,27,100.10,92,35.00,-2.00,-1004.00
2024-06-07 01:19:02.437907,6,-1,-2,1,0,0,72,76,134,150,27,100.13,92,56.00,7.00,-1072.00
2024-06-07 01:19:02.530345,4,0,-2,0,0,0,72,76,134,150,27,100.13,92,-14.00,1.00,-1064.00
2024-06-07 01:19:02.624192,2,0,-2,0,0,0,72,76,133,150,27,100.28,92,-46.00,25.00,-899.00
2024-06-07 01:19:02.724941,2,0,-2,0,0,0,72,76,133,150,27,99.84,92,50.00,-14.00,-999.00
2024-06-07 01:19:03.012360,1,0,-2,0,0,0,73,76,134,150,27,100.26,92,-92.00,96.00,-894.00
2024-06-07 01:19:03.012562,1,0,-2,0,0,0,73,76,135,150,27,100.32,92,79.00,-19.00,-1108.00
2024-06-07 01:19:03.044306,1,0,-2,0,0,0,73,76,135,150,27,100.12,92,-15.00,15.00,-981.00
2024-06-07 01:19:03.187881,2,0,-2,0,0,0,73,76,136,150,27,99.95,93,15.00,23.00,-939.00
2024-06-07 01:19:03.331039,1,0,-2,0,0,0,73,76,137,150,27,99.99,93,48.00,-10.00,-994.00
2024-06-07 01:19:03.336358,1,0,-2,0,0,0,73,76,138,150,27,100.09,93,-63.00,21.00,-920.00
2024-06-07 01:19:03.485108,2,0,-2,0,0,0,73,76,139,150,27,100.27,93,22.00,36.00,-1009.00
2024-06-07 01:19:03.540244,2,0,-2,0,0,0,73,76,139,150,27,100.19,93,1.00,19.00,-954.00
2024-06-07 01:19:03.670366,2,0,-2,0,0,0,73,76,139,150,27,99.94,93,102.00,-7.00,-1118.00
2024-06-07 01:19:03.693206,2,0,-2,0,0,0,73,76,140,150,27,100.39,93,27.00,-21.00,-900.00
2024-06-07 01:19:03.870461,2,0,-2,0,0,0,73,76,142,150,27,100.24,93,-44.00,63.00,-927.00
2024-06-07 01:19:03.948320,2,0,-2,0,0,0,73,76,140,150,27,100.27,93,-2.00,12.00,-941.00
2024-06-07 01:19:03.999256,1,0,-2,0,0,0,73,76,141,150,27,100.51,93,133.00,-39.00,-1115.00
2024-06-07 01:19:04.181860,1,0,-2,0,0,0,73,76,141,150,27,100.11,94,-3.00,33.00,-918.00
2024-06-07 01:19:04.203276,1,0,-2,0,0,0,73,76,142,150,27,100.17,94,9.00,39.00,-963.00
2024-06-07 01:19:04.382415,2,0,-2,0,0,0,73,76,143,150,27,100.08,94,-14.00,33.00,-1010.00
2024-06-07 01:19:04.407152,2,0,-2,0,0,0,73,76,143,150,27,100.09,94,-5.00,24.00,-904.00
2024-06-07 01:19:04.511407,3,0,-2,0,0,0,73,76,144,150,27,100.21,94,91.00,-8.00,-961.00
2024-06-07 01:19:04.611275,3,0,-2,0,0,0,73,76,144,160,27,100.02,94,-24.00,15.00,-904.00
2024-06-07 01:19:04.713725,2,0,-2,0,0,0,73,76,144,160,27,100.07,94,0.00,-2.00,-931.00
2024-06-07 01:19:04.894225,6,-1,-2,0,0,0,73,76,146,160,27,100.41,94,-12.00,0.00,-954.00
2024-06-07 01:19:04.918494,8,0,-2,-1,0,0,73,76,146,160,27,100.05,94,18.00,14.00,-1012.00
2024-06-07 01:19:05.099640,8,0,-2,-2,0,0,73,76,144,160,27,100.12,94,1.00,2.00,-984.00
2024-06-07 01:19:05.121801,8,0,-2,-4,0,0,73,76,144,160,27,100.02,95,53.00,41.00,-928.00
2024-06-07 01:19:05.303847,8,0,-2,-5,0,0,73,76,142,150,27,100.27,95,70.00,8.00,-1002.00
2024-06-07 01:19:05.328406,8,-1,-2,-6,0,0,73,76,142,150,27,100.20,95,126.00,-23.00,-1011.00
2024-06-07 01:19:05.427155,8,-1,-2,-7,0,1,73,76,140,150,27,99.96,95,131.00,-12.00,-1089.00
2024-06-07 01:19:05.611214,7,-1,-2,-7,0,0,73,76,137,150,27,100.05,95,95.00,7.00,-966.00
2024-06-07 01:19:05.630984,5,-1,-2,-8,0,0,73,76,135,150,27,100.09,95,67.00,2.00,-979.00
2024-06-07 01:19:05.815862,2,-1,-2,-8,0,0,73,76,134,150,27,100.05,95,87.00,12.00,-1036.00
2024-06-07 01:19:05.835133,0,0,-2,-7,0,0,73,77,132,150,27,100.13,95,85.00,16.00,-1022.00
2024-06-07 01:19:06.014751,-2,0,-2,-6,0,0,73,77,131,150,27,99.93,95,101.00,-9.00,-1011.00
2024-06-07 01:19:06.039314,-2,0,-2,-5,0,0,73,77,128,150,27,100.17,95,82.00,21.00,-969.00
2024-06-07 01:19:06.225346,-1,0,-2,-4,0,0,73,77,127,150,27,100.13,96,104.00,-5.00,-1041.00
2024-06-07 01:19:06.243000,0,0,-2,-3,0,1,73,77,125,140,27,100.07,96,71.00,-18.00,-1123.00
2024-06-07 01:19:06.430067,1,-1,-2,-3,0,0,73,77,125,140,27,100.22,96,135.00,-5.00,-1169.00
2024-06-07 01:19:06.447005,1,-1,-2,-2,0,0,73,77,124,140,27,99.90,96,121.00,-64.00,-1147.00
2024-06-07 01:19:06.635607,2,-1,-2,-2,0,0,73,77,124,140,27,100.19,96,46.00,21.00,-1029.00
2024-06-07 01:19:06.651043,2,0,-2,-2,0,0,73,77,123,140,27,99.80,96,86.00,-22.00,-1004.00
2024-06-07 01:19:06.839767,2,0,-2,-2,0,0,73,77,122,140,27,99.77,96,46.00,-10.00,-947.00
2024-06-07 01:19:06.855139,2,-1,-2,-2,0,0,74,76,122,140,27,99.91,96,58.00,-3.00,-1005.00
2024-06-07 01:19:07.044565,1,0,-2,-2,0,0,74,76,121,140,27,99.72,96,67.00,5.00,-1092.00
2024-06-07 01:19:07.058912,0,0,-2,-2,0,0,74,76,122,140,27,99.95,96,-32.00,27.00,-867.00
2024-06-07 01:19:07.161029,-1,0,-2,-1,0,0,74,76,121,140,27,100.10,97,-18.00,48.00,-882.00
2024-06-07 01:19:07.352212,-1,0,-2,-1,0,0,74,76,121,140,27,99.74,97,-93.00,41.00,-854.00
2024-06-07 01:19:07.364928,0,0,-2,0,0,0,74,76,122,140,27,99.65,97,7.00,13.00,-1005.00
2024-06-07 01:19:07.518805,0,0,-2,0,0,0,74,76,123,140,27,99.95,97,-8.00,50.00,-1089.00
2024-06-07 01:19:07.519922,0,-1,-2,0,0,0,74,76,123,140,27,99.91,97,57.00,25.00,-1076.00
2024-06-07 01:19:07.620103,1,-1,-2,0,0,0,74,76,125,140,27,100.00,97,122.00,-99.00,-1144.00
2024-06-07 01:19:07.761322,1,-1,-2,0,0,-1,74,76,126,140,27,100.32,97,30.00,25.00,-1038.00
2024-06-07 01:19:07.875181,1,-1,-2,0,0,-1,74,76,127,140,27,99.89,97,-47.00,79.00,-989.00
2024-06-07 01:19:08.068789,1,-1,-2,0,0,0,74,76,128,150,27,100.16,97,-41.00,4.00,-996.00
2024-06-07 01:19:08.068966,1,-1,-2,0,0,0,74,76,129,150,27,100.08,98,45.00,11.00,-912.00
2024-06-07 01:19:08.129941,1,-1,-2,0,0,0,74,76,129,150,27,99.89,98,-37.00,39.00,-890.00
2024-06-07 01:19:08.273848,1,-1,-2,0,0,0,74,76,130,150,27,99.85,98,-14.00,47.00,-917.00
2024-06-07 01:19:08.334055,1,-1,-2,0,0,0,74,76,130,150,27,100.09,98,30.00,15.00,-995.00
2024-06-07 01:19:08.480999,1,-1,-2,0,0,0,74,76,130,150,27,100.16,98,-20.00,35.00,-1012.00
2024-06-07 01:19:08.537864,1,-1,-2,0,0,0,74,76,130,150,27,100.11,98,-18.00,16.00,-940.00
2024-06-07 01:19:08.683542,1,-1,-2,0,0,0,74,76,130,150,27,99.96,98,38.00,-2.00,-943.00
2024-06-07 01:19:08.741989,1,-1,-2,0,0,0,74,76,129,150,27,99.89,98,71.00,-21.00,-1045.00
2024-06-07 01:19:08.887775,1,0,-2,0,0,0,74,76,129,150,27,100.02,98,8.00,40.00,-950.00
2024-06-07 01:19:08.945779,1,0,-2,0,0,0,74,76,129,150,27,99.85,98,96.00,-9.00,-1260.00
2024-06-07 01:19:09.047966,1,0,-2,0,0,0,74,76,128,150,27,100.12,99,81.00,-3.00,-1098.00
2024-06-07 01:19:09.195883,1,0,-2,0,0,0,74,76,128,150,27,99.91,99,-87.00,87.00,-899.00
2024-06-07 01:19:09.253009,1,-1,-2,0,0,0,74,76,127,150,27,99.86,99,30.00,15.00,-1047.00
2024-06-07 01:19:09.353997,1,-1,-2,0,0,0,74,76,126,140,27,99.89,99,-1.00,49.00,-998.00
2024-06-07 01:19:09.455807,1,-1,-2,0,0,0,74,76,126,140,27,99.91,99,29.00,-1.00,-1049.00
2024-06-07 01:19:09.557707,1,-6,-2,0,0,0,74,76,125,140,27,99.93,99,32.00,15.00,-894.00
2024-06-07 01:19:09.706904,1,-8,-2,0,-1,0,74,76,127,140,27,100.14,99,-3.00,35.00,-907.00
2024-06-07 01:19:09.761729,1,-6,-2,0,-2,0,74,76,126,140,27,99.96,99,43.00,-7.00,-1005.00
2024-06-07 01:19:09.911643,1,-4,-2,0,-3,0,74,76,125,140,27,99.90,99,16.00,38.00,-1029.00
2024-06-07 01:19:09.965475,1,-1,-2,0,-3,0,74,76,125,140,27,100.12,99,36.00,31.00,-1025.00
2024-06-07 01:19:10.116444,1,0,-2,0,-3,0,74,76,125,140,27,99.60,100,79.00,27.00,-1075.00
2024-06-07 01:19:10.169636,1,0,-2,0,-2,0,74,76,126,140,27,100.01,100,62.00,5.00,-1012.00
2024-06-07 01:19:10.321259,1,-1,-2,0,-2,0,74,76,128,140,27,100.18,100,45.00,51.00,-1139.00
2024-06-07 01:19:10.373765,1,-1,-2,0,-2,0,74,76,128,140,27,100.25,100,91.00,19.00,-1144.00
2024-06-07 01:19:10.526083,1,-2,-2,0,-2,0,74,76,129,140,27,100.15,100,15.00,49.00,-945.00
2024-06-07 01:19:10.577640,1,-2,-2,0,-2,0,74,76,131,140,27,100.10,100,-46.00,32.00,-971.00
2024-06-07 01:19:10.679662,1,-1,-2,0,-2,0,74,76,132,150,27,100.10,100,77.00,6.00,-1039.00
2024-06-07 01:19:10.833253,1,-1,-2,0,-2,0,74,76,133,150,27,100.01,100,10.00,58.00,-955.00
2024-06-07 01:19:10.883736,1,-1,-2,0,-2,0,73,77,133,150,27,100.09,100,-10.00,17.00,-915.00
2024-06-07 01:19:11.037925,1,-1,-2,0,-2,0,73,77,135,150,27,100.36,100,70.00,-9.00,-1015.00
2024-06-07 01:19:11.088103,1,-1,-2,0,-2,0,73,77,135,150,27,100.14,101,-45.00,81.00,-878.00
2024-06-07 01:19:11.242671,1,-1,-2,0,-2,0,73,77,135,150,27,99.83,101,62.00,28.00,-1050.00
2024-06-07 01:19:11.291577,1,-1,-2,0,-1,0,73,77,135,150,27,99.91,101,53.00,0.00,-932.00
2024-06-07 01:19:11.448466,1,-1,-2,0,-1,0,73,77,136,150,27,99.97,101,22.00,21.00,-983.00
2024-06-07 01:19:11.496289,1,0,-2,0,-1,0,73,77,136,150,27,100.01,101,-52.00,64.00,-1000.00
2024-06-07 01:19:11.599211,1,2,-2,0,-1,0,73,77,137,150,27,100.02,101,24.00,36.00,-995.00
2024-06-07 01:19:11.648560,1,0,-2,0,0,0,73,77,137,150,27,100.15,101,73.00,-2.00,-1110.00
2024-06-07 01:19:11.754771,2,0,-2,0,0,0,73,77,137,150,27,100.20,101,67.00,42.00,-1034.00
2024-06-07 01:19:11.903525,5,-1,-2,0,0,0,74,76,137,150,27,100.29,101,85.00,-6.00,-1121.00
2024-06-07 01:19:11.954774,5,-1,-2,0,0,0,74,76,136,150,27,100.02,101,-11.00,45.00,-1028.00
2024-06-07 01:19:12.056496,-1,-1,-2,-1,0,0,74,76,134,150,27,100.29,102,138.00,0.00,-1120.00
2024-06-07 01:19:12.164498,-1,0,-2,0,0,0,74,76,134,150,27,99.93,102,53.00,-30.00,-1111.00
2024-06-07 01:19:12.260565,0,0,-2,0,0,0,74,76,134,150,27,100.13,102,36.00,47.00,-1019.00
2024-06-07 01:19:12.363214,1,0,-2,0,0,0,74,76,135,150,27,100.21,102,-39.00,38.00,-947.00
2024-06-07 01:19:12.464784,1,-1,-2,0,0,0,74,76,135,150,27,100.34,102,89.00,-17.00,-1140.00
2024-06-07 01:19:12.574091,1,-1,-2,0,0,0,74,76,134,150,27,99.99,102,-37.00,30.00,-920.00
2024-06-07 01:19:12.668559,0,-1,-2,0,0,0,74,76,136,150,27,100.12,102,23.00,42.00,-980.00
2024-06-07 01:19:12.778636,1,-1,-2,0,0,0,74,76,137,150,27,99.93,102,57.00,-4.00,-1059.00
2024-06-07 01:19:12.872532,1,0,-2,0,0,0,74,76,136,150,27,100.11,102,-6.00,34.00,-901.00
2024-06-07 01:19:12.983673,1,0,-2,0,0,0,74,76,137,150,27,100.19,102,-68.00,68.00,-864.00
2024-06-07 01:19:13.077490,1,-1,-2,0,0,0,74,76,136,150,27,100.11,103,-90.00,70.00,-917.00
2024-06-07 01:19:13.188435,1,-1,-2,0,0,0,74,76,137,150,27,99.86,103,-34.00,68.00,-924.00
2024-06-07 01:19:13.280549,1,-1,-2,0,0,0,74,76,137,150,27,100.13,103,12.00,10.00,-999.00
2024-06-07 01:19:13.393648,1,-1,-2,0,0,0,74,76,137,150,27,100.16,103,105.00,-10.00,-1042.00
2024-06-07 01:19:13.485311,1,-1,-2,0,0,0,74,76,136,150,27,100.20,103,16.00,23.00,-997.00
2024-06-07 01:19:13.598025,1,-1,-2,0,0,0,74,76,137,150,27,99.95,103,-17.00,48.00,-1031.00
2024-06-07 01:19:13.689504,1,-1,-2,0,0,0,74,76,137,150,27,100.13,103,38.00,5.00,-1059.00
2024-06-07 01:19:13.802796,1,-2,-2,0,0,0,74,76,136,150,27,100.14,103,4.00,42.00,-1123.00
2024-06-07 01:19:13.894517,1,-1,-2,0,0,0,73,76,137,150,27,99.91,103,67.00,9.00,-990.00
2024-06-07 01:19:13.996341,1,-1,-2,0,0,0,73,76,137,150,27,100.19,103,0.00,41.00,-993.00
2024-06-07 01:19:14.097189,1,-1,-2,0,0,0,73,76,137,150,27,100.33,104,15.00,10.00,-1017.00
2024-06-07 01:19:14.199339,1,4,-2,0,0,0,73,76,137,150,27,100.12,104,-25.00,64.00,-989.00
2024-06-07 01:19:14.301299,2,7,-2,0,1,0,73,76,138,150,27,100.03,104,63.00,1.00,-911.00
2024-06-07 01:19:14.403406,1,5,-2,0,2,0,73,76,137,150,27,99.96,104,33.00,9.00,-1059.00
2024-06-07 01:19:14.505414,1,2,-2,0,3,0,73,76,135,150,27,99.91,104,61.00,-18.00,-1025.00
2024-06-07 01:19:14.621808,1,0,-2,0,3,0,73,76,134,150,27,100.13,104,10.00,26.00,-985.00
2024-06-07 01:19:14.714454,1,-2,-2,0,3,0,73,76,133,150,27,100.15,104,87.00,-21.00,-1057.00
2024-06-07 01:19:14.811243,1,-1,-2,0,3,0,73,76,132,150,27,100.35,104,10.00,10.00,-1032.00
2024-06-07 01:19:14.913342,1,-1,-2,0,2,0,73,77,132,150,27,100.04,104,-6.00,42.00,-912.00
2024-06-07 01:19:15.015280,1,0,-2,0,2,0,73,77,132,150,27,100.06,104,75.00,-46.00,-1001.00
2024-06-07 01:19:15.117253,1,0,-2,0,2,0,73,77,130,150,27,100.21,105,56.00,-42.00,-1104.00
2024-06-07 01:19:15.236727,1,0,-2,0,2,0,73,77,131,150,27,100.01,105,15.00,-6.00,-966.00
2024-06-07 01:19:15.270130,1,0,-2,0,2,0,73,77,131,150,27,100.11,105,56.00,7.00,-948.00
2024-06-07 01:19:15.441019,1,0,-2,0,2,0,73,77,131,150,27,99.99,105,-53.00,19.00,-902.00
2024-06-07 01:19:15.475788,1,0,-2,0,2,0,73,77,130,150,27,100.19,105,8.00,3.00,-904.00
2024-06-07 01:19:15.576192,1,0,-2,0,2,0,73,77,130,150,27,100.11,105,-33.00,30.00,-943.00
2024-06-07 01:19:15.748186,1,0,-2,0,2,0,73,77,129,150,27,99.80,105,-55.00,64.00,-956.00
2024-06-07 01:19:15.781087,1,0,-2,0,2,0,73,77,129,150,27,100.29,105,34.00,-14.00,-968.00
2024-06-07 01:19:15.952963,1,-5,-2,0,2,0,75,77,129,150,27,99.93,105,71.00,-15.00,-1085.00
2024-06-07 01:19:15.987269,1,-6,-2,0,1,0,75,77,129,150,27,99.93,105,22.00,5.00,-998.00
2024-06-07 01:19:16.086242,1,-3,-2,0,0,0,75,77,127,150,27,100.03,106,20.00,10.00,-1056.00
2024-06-07 01:19:16.260508,1,-2,-2,0,0,0,75,77,127,140,27,100.00,106,-40.00,28.00,-954.00
2024-06-07 01:19:16.292316,2,0,-2,0,0,0,75,77,126,140,27,100.07,106,-27.00,41.00,-903.00
2024-06-07 01:19:16.392615,2,0,-2,0,0,0,75,77,126,150,27,99.94,106,-118.00,62.00,-891.00
2024-06-07 01:19:16.567902,1,-1,-2,0,0,0,75,77,126,140,27,99.99,106,12.00,26.00,-948.00
2024-06-07 01:19:16.597559,1,-1,-2,0,0,0,75,77,126,140,27,99.93,106,-40.00,51.00,-896.00
2024-06-07 01:19:16.699898,0,-1,-2,0,0,0,75,77,126,140,27,100.22,106,7.00,42.00,-936.00
2024-06-07 01:19:16.800324,1,-1,-2,0,0,0,75,77,126,140,27,100.12,106,90.00,16.00,-1095.00
2024-06-07 01:19:16.976948,1,-1,-2,0,0,0,73,76,126,140,27,100.22,106,27.00,-6.00,-957.00
2024-06-07 01:19:17.004109,1,-1,-2,0,0,0,73,76,126,140,27,99.88,106,50.00,-30.00,-965.00
2024-06-07 01:19:17.127801,1,-1,-2,0,0,0,73,76,126,140,27,100.28,107,76.00,8.00,-965.00
2024-06-07 01:19:17.275290,1,-2,-2,0,0,0,73,76,126,140,27,100.22,107,-12.00,66.00,-1022.00
2024-06-07 01:19:17.363367,2,-1,-2,0,0,0,73,76,126,140,27,100.11,107,112.00,8.00,-1092.00
2024-06-07 01:19:17.452328,1,-1,-2,0,0,0,73,76,126,140,27,100.07,107,-20.00,33.00,-874.00
2024-06-07 01:19:17.557790,1,0,-2,0,0,0,73,76,126,140,27,100.18,107,18.00,10.00,-984.00
2024-06-07 01:19:17.643054,1,0,-2,0,0,0,73,76,125,140,27,99.87,107,29.00,50.00,-1077.00
2024-06-07 01:19:17.742079,1,-1,-2,0,0,0,73,76,125,140,27,100.16,107,12.00,70.00,-1041.00
2024-06-07 01:19:17.909462,1,-1,-2,0,0,0,73,76,124,140,27,99.94,107,12.00,48.00,-1205.00
2024-06-07 01:19:17.923264,1,-1,-2,0,0,0,74,77,125,140,27,100.08,107,-64.00,-11.00,-959.00
2024-06-07 01:19:18.063781,1,-2,-2,0,0,0,74,77,124,140,27,100.04,107,106.00,-20.00,-1091.00
2024-06-07 01:19:18.216545,1,-1,-2,0,0,0,74,77,123,140,27,100.24,108,-14.00,21.00,-1021.00
2024-06-07 01:19:18.227944,1,0,-1,0,0,0,74,77,123,140,27,99.96,108,53.00,-16.00,-1013.00
2024-06-07 01:19:18.359908,1,0,3,0,0,0,74,77,122,140,27,100.12,108,-14.00,-4.00,-1022.00
2024-06-07 01:19:18.523730,1,0,9,0,0,0,74,77,122,140,27,99.72,108,0.00,35.00,-1018.00
2024-06-07 01:19:18.533987,1,0,15,0,0,0,74,77,122,140,27,100.17,108,-13.00,31.00,-940.00
2024-06-07 01:19:18.667778,0,0,21,0,0,0,74,77,123,140,27,100.09,108,85.00,-20.00,-1021.00
2024-06-07 01:19:18.830950,1,0,27,0,0,0,74,77,123,140,27,100.15,108,135.00,-4.00,-1131.00
2024-06-07 01:19:18.831007,1,0,32,0,0,0,74,77,124,140,27,99.81,108,34.00,52.00,-1071.00
2024-06-07 01:19:18.974807,1,0,38,0,0,0,75,77,125,140,27,100.12,108,0.00,56.00,-975.00
2024-06-07 01:19:19.137933,1,-1,44,0,0,0,75,77,125,140,27,100.25,108,33.00,8.00,-971.00
2024-06-07 01:19:19.138227,1,0,50,0,0,0,75,77,127,140,27,100.27,109,38.00,33.00,-1042.00
2024-06-07 01:19:19.282034,1,0,56,0,0,0,75,77,128,140,27,99.85,109,7.00,2.00,-960.00
2024-06-07 01:19:19.299802,1,0,62,0,0,0,75,77,128,140,27,99.95,109,116.00,-22.00,-1082.00
2024-06-07 01:19:19.445265,1,0,68,0,0,0,75,77,128,150,27,100.32,109,-74.00,66.00,-1022.00
2024-06-07 01:19:19.589588,1,0,74,0,0,0,75,77,128,150,27,99.92,109,8.00,29.00,-1005.00
2024-06-07 01:19:19.606786,1,0,80,0,0,0,75,77,130,150,27,100.02,109,32.00,2.00,-1024.00
2024-06-07 01:19:19.752441,1,0,86,0,0,0,75,77,131,150,27,99.78,109,8.00,18.00,-1034.00
2024-06-07 01:19:19.810753,1,0,92,0,0,0,75,77,131,150,27,99.96,109,54.00,13.00,-1014.00
2024-06-07 01:19:19.946406,2,0,98,0,0,0,74,77,131,150,27,99.87,109,22.00,12.00,-1097.00
2024-06-07 01:19:20.014785,2,1,104,0,0,0,74,77,131,150,27,100.07,109,31.00,9.00,-1023.00
2024-06-07 01:19:20.151206,1,1,110,0,0,0,74,77,132,150,27,100.10,110,37.00,12.00,-1030.00
2024-06-07 01:19:20.218862,2,1,116,0,0,0,74,77,132,150,27,100.20,110,128.00,-34.00,-1161.00
2024-06-07 01:19:20.355950,1,0,122,0,0,0,74,77,132,150,27,100.12,110,35.00,-7.00,-958.00
2024-06-07 01:19:20.424390,2,0,128,0,0,0,74,77,132,150,27,100.10,110,107.00,-1.00,-1087.00
2024-06-07 01:19:20.524776,1,0,134,0,0,0,74,77,132,150,27,100.21,110,18.00,27.00,-1027.00
2024-06-07 01:19:20.663749,1,0,140,0,0,0,74,77,132,150,27,100.18,110,-28.00,-5.00,-923.00
2024-06-07 01:19:20.728678,1,0,146,0,0,0,74,77,132,150,27,100.05,110,115.00,-63.00,-1054.00
2024-06-07 01:19:20.867903,1,1,152,0,0,0,74,77,132,150,27,100.07,110,6.00,39.00,-1047.00
2024-06-07 01:19:20.932674,1,1,158,0,0,0,75,77,133,150,27,99.86,110,132.00,-59.00,-1154.00
2024-06-07 01:19:21.034719,1,1,164,0,0,0,75,77,134,150,27,100.03,110,25.00,-15.00,-1040.00
2024-06-07 01:19:21.175157,1,1,171,0,0,0,75,77,134,150,27,100.19,111,-16.00,44.00,-946.00
2024-06-07 01:19:21.238757,1,1,177,0,0,0,75,77,134,150,27,100.05,111,-4.00,27.00,-1002.00
2024-06-07 01:19:21.379935,0,0,-176,0,0,0,75,77,134,150,26,99.98,111,52.00,-28.00,-1078.00
2024-06-07 01:19:21.442650,0,0,-170,0,0,0,75,77,134,150,26,100.34,111,-41.00,26.00,-918.00
2024-06-07 01:19:21.544664,0,1,-164,0,0,0,75,77,135,150,26,100.13,111,-15.00,38.00,-985.00
2024-06-07 01:19:21.687133,0,1,-158,0,0,0,75,77,135,150,26,100.23,111,20.00,8.00,-989.00
2024-06-07 01:19:21.748688,0,1,-151,0,0,0,75,77,135,150,26,99.83,111,9.00,19.00,-954.00
2024-06-07 01:19:21.891953,0,1,-145,0,0,0,75,77,135,150,26,100.21,111,22.00,29.00,-1071.00
2024-06-07 01:19:21.954670,0,1,-139,0,-1,0,75,77,135,150,26,100.04,111,-19.00,47.00,-926.00
2024-06-07 01:19:22.054572,0,1,-133,0,-1,0,75,77,134,150,26,100.02,111,26.00,15.00,-1021.00
2024-06-07 01:19:22.200399,0,1,-127,0,-1,0,75,77,134,150,26,100.27,112,3.00,-28.00,-976.00
2024-06-07 01:19:22.259108,0,1,-121,0,-1,0,75,77,133,150,26,100.09,112,36.00,12.00,-1016.00
2024-06-07 01:19:22.403929,0,1,-115,0,-1,0,75,77,133,150,26,100.15,112,-4.00,33.00,-964.00
2024-06-07 01:19:22.412335,0,0,-109,0,-1,0,75,77,132,150,26,99.85,112,24.00,4.00,-1033.00
2024-06-07 01:19:22.608801,0,0,-103,0,-1,0,75,77,131,150,26,100.22,112,89.00,29.00,-1108.00
2024-06-07 01:19:22.615752,0,0,-97,0,-1,0,75,77,131,150,26,100.05,112,81.00,19.00,-1115.00
2024-06-07 01:19:22.813408,0,0,-91,0,-1,0,75,77,130,150,26,99.95,112,12.00,9.00,-1114.00
2024-06-07 01:19:22.819620,0,0,-86,0,-1,0,75,77,130,150,26,100.08,112,22.00,2.00,-990.00
2024-06-07 01:19:23.018304,0,0,-80,0,-1,0,75,77,130,150,26,100.11,112,68.00,-12.00,-1084.00
2024-06-07 01:19:23.074517,0,0,-68,0,0,0,75,77,129,150,26,100.10,113,55.00,23.00,-1064.00
2024-06-07 01:19:23.125446,0,1,-62,0,0,0,75,77,128,150,26,100.21,113,45.00,4.00,-1011.00
2024-06-07 01:19:23.325444,0,1,-56,0,0,0,75,77,128,150,26,100.03,113,-36.00,64.00,-967.00
2024-06-07 01:19:23.329444,0,1,-50,0,0,0,75,77,128,150,25,100.08,113,-55.00,56.00,-924.00
2024-06-07 01:19:23.531464,0,0,-44,0,0,0,75,77,128,150,25,100.25,113,56.00,2.00,-1018.00
2024-06-07 01:19:23.533812,0,0,-38,0,0,0,75,77,129,150,25,100.27,113,36.00,0.00,-1040.00
2024-06-07 01:19:23.635508,0,0,-32,0,0,0,75,77,129,150,25,100.09,113,16.00,11.00,-996.00
2024-06-07 01:19:23.737415,0,0,-26,1,0,0,75,77,129,150,25,99.81,113,91.00,-3.00,-1149.00
2024-06-07 01:19:23.839617,0,0,-21,0,0,0,75,77,129,150,25,100.24,113,35.00,-33.00,-967.00
2024-06-07 01:19:23.941425,0,1,-16,0,0,0,75,77,129,150,25,100.29,113,-4.00,17.00,-930.00
2024-06-07 01:19:24.043489,0,0,-13,0,0,0,75,77,129,150,25,100.08,114,100.00,-12.00,-1100.00
2024-06-07 01:19:24.146255,0,0,-10,1,0,0,75,77,129,150,25,99.96,114,57.00,0.00,-1084.00
2024-06-07 01:19:24.349617,0,0,-8,0,0,0,75,77,129,150,25,100.20,114,-5.00,30.00,-975.00
2024-06-07 01:19:24.349678,0,0,-6,1,0,0,75,77,129,150,25,99.87,114,-18.00,40.00,-901.00
2024-06-07 01:19:24.452060,0,0,-5,1,0,0,75,77,130,150,25,100.07,114,122.00,-24.00,-1018.00
2024-06-07 01:19:24.553972,0,0,-4,1,0,0,75,77,130,150,25,99.98,114,74.00,-10.00,-1042.00
2024-06-07 01:19:24.657317,0,0,-4,1,0,0,75,77,131,150,25,99.94,114,28.00,0.00,-1031.00
2024-06-07 01:19:24.758800,1,0,-3,1,0,0,75,77,131,150,25,100.20,114,8.00,23.00,-998.00
2024-06-07 01:19:24.861444,1,0,-3,1,0,0,75,77,132,150,25,100.19,114,-6.00,47.00,-961.00
2024-06-07 01:19:24.963910,1,0,-3,0,0,0,74,78,131,150,25,99.90,114,16.00,17.00,-946.00
2024-06-07 01:19:25.066506,1,0,-3,0,0,0,74,78,133,150,25,100.11,115,-23.00,26.00,-913.00
2024-06-07 01:19:25.166888,1,0,-3,0,0,0,74,78,134,150,25,99.99,115,50.00,9.00,-978.00
2024-06-07 01:19:25.269300,1,0,-4,0,0,0,74,78,134,150,25,100.04,115,95.00,-47.00,-950.00
2024-06-07 01:19:25.370379,1,0,-4,0,0,0,74,78,135,150,25,100.10,115,-52.00,44.00,-907.00
2024-06-07 01:19:25.476186,1,0,-4,0,0,0,74,78,137,150,25,100.07,115,23.00,0.00,-978.00
2024-06-07 01:19:25.574411,1,0,-3,0,0,0,74,78,137,150,25,100.09,115,93.00,-41.00,-945.00
2024-06-07 01:19:25.680579,1,0,-4,0,0,0,74,78,137,150,25,100.24,115,49.00,-11.00,-1085.00
2024-06-07 01:19:25.778441,1,0,-4,0,0,0,74,78,137,150,25,100.27,115,2.00,46.00,-968.00
2024-06-07 01:19:25.888068,1,0,-4,0,0,0,74,78,137,150,25,100.16,115,94.00,35.00,-972.00
2024-06-07 01:19:25.982263,1,0,-4,0,0,0,74,78,137,150,25,100.07,115,-18.00,-1.00,-1009.00
2024-06-07 01:19:26.084470,1,0,-4,0,0,0,74,78,137,150,25,100.20,116,-113.00,55.00,-915.00
2024-06-07 01:19:26.187254,1,0,-3,0,0,0,74,78,137,150,25,99.79,116,114.00,20.00,-1111.00
2024-06-07 01:19:26.289351,1,0,-3,0,0,0,74,78,136,150,25,100.10,116,50.00,-14.00,-974.00
2024-06-07 01:19:26.390589,1,0,-3,0,0,0,74,78,135,150,24,100.03,116,77.00,-18.00,-1236.00
2024-06-07 01:19:26.500181,0,0,-3,0,0,0,74,78,134,150,24,100.07,116,-67.00,59.00,-872.00
2024-06-07 01:19:26.594256,0,0,-3,0,0,0,74,78,132,150,24,100.14,116,95.00,-60.00,-984.00
2024-06-07 01:19:26.645612,0,0,-3,0,0,0,74,78,131,150,24,100.25,116,-68.00,25.00,-1010.00
2024-06-07 01:19:26.747235,0,0,-4,0,0,0,74,78,130,150,24,100.03,116,8.00,53.00,-1043.00
2024-06-07 01:19:26.909345,0,0,-9,0,0,0,74,78,129,150,24,99.99,116,24.00,22.00,-1026.00
2024-06-07 01:19:26.951226,1,0,-15,0,0,0,75,78,128,150,24,100.01,116,1.00,23.00,-1065.00
2024-06-07 01:19:27.114034,1,0,-21,0,0,0,75,78,129,140,24,99.90,117,38.00,9.00,-1008.00
2024-06-07 01:19:27.155353,2,0,-27,0,0,0,75,78,128,140,24,99.89,117,24.00,-6.00,-1126.00
2024-06-07 01:19:27.257220,2,0,-33,0,0,0,75,78,128,140,24,99.72,117,56.00,0.00,-1036.00
2024-06-07 01:19:27.421296,2,0,-39,0,0,0,75,78,128,140,24,100.11,117,6.00,23.00,-973.00
2024-06-07 01:19:27.462088,2,0,-45,0,0,0,75,78,128,140,24,100.08,117,-9.00,8.00,-1028.00
2024-06-07 01:19:27.564931,1,0,-51,0,0,0,75,78,129,140,24,100.00,117,73.00,17.00,-1076.00
2024-06-07 01:19:27.665439,1,-1,-57,0,0,0,75,78,130,140,24,100.16,117,24.00,0.00,-1032.00
2024-06-07 01:19:27.767126,1,0,-63,0,0,0,75,78,130,140,24,100.25,117,75.00,8.00,-1131.00
2024-06-07 01:19:27.933908,1,0,-69,0,0,0,75,78,131,150,24,100.26,117,80.00,-7.00,-1094.00
2024-06-07 01:19:27.971072,2,0,-75,0,0,0,75,78,133,150,24,100.04,117,34.00,31.00,-1012.00
2024-06-07 01:19:28.139191,1,0,-81,0,0,0,75,78,134,150,24,99.73,118,29.00,6.00,-1068.00
2024-06-07 01:19:28.175115,1,0,-87,0,0,0,75,78,135,150,24,100.02,118,-35.00,42.00,-999.00
2024-06-07 01:19:28.342861,1,0,-93,0,0,0,75,78,136,150,24,100.01,118,123.00,-3.00,-1034.00
2024-06-07 01:19:28.380343,1,0,-100,0,0,0,75,78,137,150,24,99.98,118,17.00,49.00,-1016.00
2024-06-07 01:19:28.481035,1,0,-106,0,0,0,75,78,137,150,24,100.06,118,38.00,0.00,-961.00
2024-06-07 01:19:28.583034,1,0,-112,0,0,0,75,78,137,150,24,100.37,118,90.00,-10.00,-1104.00
2024-06-07 01:19:28.685085,1,0,-118,0,0,0,75,78,138,150,24,100.23,118,12.00,13.00,-1045.00
2024-06-07 01:19:28.854822,1,0,-124,0,0,0,75,78,137,150,24,100.03,118,-30.00,33.00,-859.00
2024-06-07 01:19:28.889084,1,0,-130,0,0,0,75,78,137,150,24,100.26,118,51.00,-5.00,-917.00
2024-06-07 01:19:29.059560,1,0,-136,0,0,0,75,77,136,150,24,100.17,118,50.00,-34.00,-1070.00
2024-06-07 01:19:29.093057,2,0,-142,0,0,0,75,77,135,150,24,100.25,119,36.00,42.00,-982.00
2024-06-07 01:19:29.264445,1,0,-148,0,0,0,75,77,134,150,24,100.09,119,-16.00,21.00,-993.00
2024-06-07 01:19:29.297270,2,0,-154,0,0,0,75,77,132,150,24,100.06,119,-45.00,72.00,-970.00
2024-06-07 01:19:29.469167,1,0,-160,0,0,0,75,77,130,150,24,99.77,119,120.00,-18.00,-957.00
2024-06-07 01:19:29.501134,1,0,-166,0,0,0,75,77,130,150,24,99.88,119,-12.00,17.00,-1037.00
2024-06-07 01:19:29.602929,1,0,-171,0,0,0,75,77,128,150,24,99.78,119,70.00,1.00,-1050.00
2024-06-07 01:19:29.776435,1,0,-177,0,0,0,75,77,126,150,24,99.78,119,116.00,-44.00,-1056.00
2024-06-07 01:19:29.806898,1,1,176,0,0,0,75,77,126,140,24,99.80,119,29.00,-20.00,-1011.00
2024-06-07 01:19:29.857898,1,1,170,0,0,0,75,77,125,140,24,100.10,119,56.00,-31.00,-1120.00
2024-06-07 01:19:30.015743,1,1,165,0,0,0,76,78,124,140,24,100.11,119,-16.00,35.00,-941.00
2024-06-07 01:19:30.113098,1,1,159,0,0,0,76,78,124,140,24,99.99,120,27.00,-37.00,-1144.00
2024-06-07 01:19:30.288345,0,0,153,0,0,0,76,78,125,140,24,99.94,120,94.00,-25.00,-1012.00
2024-06-07 01:19:30.288948,1,1,147,0,0,0,76,78,126,140,24,100.08,120,14.00,5.00,-1034.00
2024-06-07 01:19:30.368684,1,0,141,0,0,0,76,78,127,140,24,100.13,120,-7.00,3.00,-993.00
2024-06-07 01:19:30.494206,1,0,135,0,0,0,76,78,128,140,24,100.12,120,44.00,16.00,-1096.00
2024-06-07 01:19:30.572194,1,0,129,0,0,0,76,78,129,140,24,100.35,120,47.00,0.00,-928.00
2024-06-07 01:19:30.673803,1,0,123,0,0,0,76,78,131,150,24,100.17,120,97.00,-42.00,-1156.00
2024-06-07 01:19:30.800937,1,1,117,0,0,0,76,78,132,150,24,100.19,120,56.00,-22.00,-932.00
2024-06-07 01:19:30.878598,1,0,111,0,0,0,76,78,132,150,24,100.16,120,68.00,-2.00,-1104.00
2024-06-07 01:19:31.006500,1,0,105,0,0,0,75,79,132,150,24,100.02,120,100.00,-1.00,-1046.00
2024-06-07 01:19:31.081749,2,0,99,0,0,0,75,79,132,150,24,100.10,121,34.00,29.00,-1101.00
2024-06-07 01:19:31.209949,2,0,93,0,0,0,75,79,133,150,24,99.75,121,51.00,-26.00,-1003.00
2024-06-07 01:19:31.285814,2,0,87,0,0,0,75,79,133,150,24,100.20,121,15.00,6.00,-896.00
2024-06-07 01:19:31.414699,2,0,80,0,0,0,75,79,132,150,24,99.91,121,-5.00,55.00,-950.00
2024-06-07 01:19:31.490303,2,0,74,0,0,0,75,79,131,150,24,99.94,121,-42.00,43.00,-938.00
2024-06-07 01:19:31.592973,2,0,68,0,0,0,75,79,130,150,24,100.28,121,-18.00,3.00,-1032.00
2024-06-07 01:19:31.723760,2,0,62,0,0,0,75,79,130,150,24,100.23,121,15.00,9.00,-976.00
2024-06-07 01:19:31.795722,2,0,56,0,0,0,75,79,129,150,24,100.20,121,45.00,9.00,-1086.00
2024-06-07 01:19:31.926714,1,0,50,0,0,0,75,79,129,150,24,100.08,121,0.00,36.00,-958.00
2024-06-07 01:19:32.113026,1,0,44,0,0,0,75,77,129,140,24,100.12,121,103.00,13.00,-1133.00
2024-06-07 01:19:32.113361,2,0,38,0,0,0,75,77,128,140,24,99.82,122,77.00,-9.00,-947.00
2024-06-07 01:19:32.203685,2,0,32,0,0,0,75,77,129,140,24,99.78,122,59.00,21.00,-1098.00
2024-06-07 01:19:32.349334,3,-1,26,0,0,0,75,77,128,140,23,99.85,122,-42.00,61.00,-859.00
2024-06-07 01:19:32.458351,2,-1,21,0,0,0,75,77,129,140,23,99.92,122,93.00,-30.00,-1154.00
2024-06-07 01:19:32.532033,1,-1,15,0,0,0,75,77,129,140,23,99.97,122,75.00,-12.00,-1014.00
2024-06-07 01:19:32.627304,1,-1,10,0,0,0,75,77,130,150,23,100.10,122,188.00,-52.00,-1087.00
2024-06-07 01:19:32.714728,1,-1,7,0,0,0,75,77,130,150,23,99.91,122,-63.00,50.00,-819.00
2024-06-07 01:19:32.842344,1,0,4,0,0,0,75,77,131,150,23,99.96,122,22.00,31.00,-940.00
2024-06-07 01:19:33.155823,1,0,2,0,0,0,75,77,131,150,23,99.97,122,87.00,31.00,-1048.00
2024-06-07 01:19:33.271453,1,0,1,0,0,0,75,78,131,150,23,100.06,122,14.00,44.00,-953.00
2024-06-07 01:19:33.271542,1,0,0,0,0,0,75,78,132,150,23,100.25,123,-24.00,66.00,-918.00
2024-06-07 01:19:33.271850,1,0,-1,0,0,0,75,78,132,150,23,99.92,123,45.00,48.00,-1049.00
2024-06-07 01:19:33.417064,1,0,-1,0,0,0,75,78,132,150,23,100.03,123,11.00,24.00,-1039.00
2024-06-07 01:19:33.417662,1,0,-2,0,0,0,75,78,132,150,23,100.12,123,32.00,32.00,-999.00
2024-06-07 01:19:33.575993,1,0,-2,0,0,0,75,78,132,150,23,100.17,123,154.00,-48.00,-1088.00
2024-06-07 01:19:33.582702,0,-1,-2,0,0,0,75,78,131,150,23,99.99,123,51.00,13.00,-1008.00
2024-06-07 01:19:33.719906,0,-1,-2,0,0,0,75,78,131,150,23,100.04,123,122.00,7.00,-1013.00
2024-06-07 01:19:33.883239,0,-1,-2,0,0,0,75,78,130,150,23,100.14,123,31.00,37.00,-1016.00
2024-06-07 01:19:33.888556,0,0,-2,0,0,0,75,78,129,150,23,100.02,123,18.00,7.00,-1042.00
2024-06-07 01:19:34.026540,0,0,-2,0,0,0,75,78,130,150,23,100.07,123,42.00,-8.00,-1051.00
2024-06-07 01:19:34.191152,0,0,-2,0,0,0,75,78,129,150,23,99.92,124,17.00,20.00,-954.00
2024-06-07 01:19:34.194637,1,0,-2,0,0,0,75,78,130,150,23,100.13,124,93.00,4.00,-1027.00
2024-06-07 01:19:34.384905,1,0,-2,0,0,0,75,78,129,150,23,99.89,124,-20.00,21.00,-1048.00
2024-06-07 01:19:34.398506,2,0,-2,0,0,0,75,78,129,150,23,99.86,124,61.00,4.00,-1039.00
2024-06-07 01:19:34.501685,2,0,-2,0,0,0,75,78,129,150,23,99.77,124,38.00,5.00,-1052.00
2024-06-07 01:19:34.602692,2,0,-2,0,0,0,75,78,129,150,23,99.85,124,81.00,-2.00,-1058.00
2024-06-07 01:19:34.704525,1,0,-2,0,0,0,75,78,129,150,23,100.10,124,3.00,60.00,-1091.00
2024-06-07 01:19:34.896291,1,0,-2,0,0,0,75,78,130,150,23,99.82,124,-68.00,52.00,-836.00
2024-06-07 01:19:34.908608,1,0,-2,0,0,0,75,78,130,150,23,100.04,124,36.00,39.00,-1061.00
2024-06-07 01:19:35.101751,0,0,-2,0,0,0,75,77,131,150,23,100.02,124,0.00,35.00,-974.00
2024-06-07 01:19:35.112848,1,0,-2,0,0,0,75,77,130,150,23,100.23,125,32.00,-1.00,-959.00
2024-06-07 01:19:35.306080,1,0,-2,0,0,0,75,77,131,150,23,99.92,125,95.00,-10.00,-1104.00
2024-06-07 01:19:35.316869,1,-1,-2,0,0,0,75,77,130,150,23,100.09,125,12.00,18.00,-954.00
2024-06-07 01:19:35.418853,0,-1,-2,0,0,0,75,77,131,150,23,99.77,125,-4.00,42.00,-1001.00
2024-06-07 01:19:35.520594,0,-1,-2,0,0,0,75,77,131,150,23,100.10,125,42.00,-7.00,-1051.00
2024-06-07 01:19:35.715290,0,-1,-2,0,0,0,75,77,131,150,23,99.95,125,30.00,-25.00,-1051.00
2024-06-07 01:19:35.724787,0,-1,-2,0,0,0,75,77,131,150,23,100.10,125,92.00,-22.00,-1050.00
2024-06-07 01:19:35.920275,1,-1,-2,0,0,0,75,77,131,150,23,100.06,125,-3.00,18.00,-958.00
2024-06-07 01:19:35.929332,2,0,-2,0,0,0,75,77,131,150,23,99.66,125,-42.00,30.00,-965.00
2024-06-07 01:19:36.125411,1,-1,-2,0,0,0,75,79,131,150,23,99.83,125,-12.00,28.00,-964.00
2024-06-07 01:19:36.132638,1,-1,-2,0,0,0,75,79,132,150,23,99.93,126,40.00,16.00,-999.00
2024-06-07 01:19:36.329848,0,-1,-2,0,0,0,75,79,131,150,23,99.96,126,24.00,53.00,-1108.00
2024-06-07 01:19:36.336841,1,-1,-2,0,0,0,75,79,131,150,23,100.06,126,2.00,13.00,-999.00
2024-06-07 01:19:36.534630,0,-1,-2,0,0,0,75,79,132,150,23,100.10,126,5.00,29.00,-930.00
2024-06-07 01:19:36.540467,1,0,-2,0,0,0,75,79,133,150,23,99.87,126,104.00,-22.00,-1109.00
2024-06-07 01:19:36.642786,1,0,-2,0,0,0,75,79,134,150,23,100.11,126,22.00,30.00,-1120.00
2024-06-07 01:19:36.841832,2,0,-2,0,0,0,75,79,135,150,23,99.93,126,44.00,7.00,-1021.00
2024-06-07 01:19:36.847403,2,0,-2,0,0,0,75,79,136,150,23,99.99,126,38.00,35.00,-937.00
2024-06-07 01:19:36.949481,1,0,-2,0,0,0,75,79,136,150,23,99.93,126,2.00,-1.00,-973.00
2024-06-07 01:19:37.148971,0,0,-2,0,0,0,75,78,136,150,23,100.00,126,86.00,-1.00,-1025.00
2024-06-07 01:19:37.153679,0,0,-2,0,0,0,75,78,137,150,23,99.96,127,98.00,-54.00,-1036.00
2024-06-07 01:19:37.359704,0,-1,-2,0,0,0,75,78,137,150,23,100.31,127,84.00,-24.00,-953.00
2024-06-07 01:19:37.359864,0,0,-2,0,0,0,75,78,138,150,22,99.80,127,-4.00,40.00,-885.00
2024-06-07 01:19:37.460123,0,0,-2,0,0,0,75,78,138,150,22,100.04,127,72.00,-18.00,-1131.00
2024-06-07 01:19:37.511441,0,0,-2,0,0,0,75,78,139,150,22,100.41,127,-45.00,20.00,-986.00
2024-06-07 01:19:37.613761,1,0,-2,0,0,0,75,78,139,150,22,100.06,127,35.00,24.00,-986.00
2024-06-07 01:19:37.763755,0,0,-2,0,0,0,75,78,139,150,22,99.95,127,88.00,-13.00,-1088.00
2024-06-07 01:19:37.817380,1,0,-2,0,0,0,75,78,139,150,22,99.83,127,59.00,-17.00,-1030.00
2024-06-07 01:19:37.968118,1,0,-2,0,0,0,75,78,140,150,22,100.35,127,-34.00,53.00,-873.00
2024-06-07 01:19:38.021726,1,0,-2,0,0,0,75,77,140,150,22,99.94,127,-61.00,52.00,-954.00
2024-06-07 01:19:38.172892,0,0,-2,0,0,0,75,77,140,150,22,100.05,128,72.00,-9.00,-1062.00
2024-06-07 01:19:38.226205,1,0,-2,0,0,0,75,77,141,150,22,100.20,128,-6.00,27.00,-990.00
2024-06-07 01:19:38.377673,1,0,-2,0,0,0,75,77,141,150,22,100.12,128,69.00,-16.00,-1097.00
2024-06-07 01:19:38.429803,1,0,-2,0,0,0,75,77,141,150,22,100.27,128,66.00,15.00,-929.00
2024-06-07 01:19:38.531493,1,0,-2,0,0,0,75,77,140,150,22,100.28,128,-8.00,14.00,-891.00
2024-06-07 01:19:38.684984,1,0,-2,0,0,0,75,77,139,150,22,99.96,128,10.00,46.00,-908.00
2024-06-07 01:19:38.735303,0,-1,-2,0,0,0,75,77,138,150,22,99.91,128,-59.00,69.00,-864.00
2024-06-07 01:19:38.889716,0,-1,-2,0,0,1,75,77,137,150,22,100.07,128,24.00,12.00,-1010.00
2024-06-07 01:19:38.939176,0,-1,-2,0,0,0,75,77,136,150,22,99.99,128,4.00,35.00,-908.00
2024-06-07 01:19:39.094502,1,-1,-2,0,0,0,75,78,135,150,22,100.15,129,14.00,62.00,-1109.00
2024-06-07 01:19:39.143979,1,0,-2,0,0,0,75,78,136,150,22,100.08,129,32.00,3.00,-1067.00
2024-06-07 01:19:39.299579,1,0,-2,0,0,0,75,78,135,150,22,99.74,129,8.00,15.00,-1035.00
2024-06-07 01:19:39.347175,1,0,-2,0,0,0,75,78,135,150,22,99.88,129,3.00,29.00,-1025.00
2024-06-07 01:19:39.503985,1,0,-2,0,0,0,75,78,135,150,22,99.93,129,43.00,30.00,-1046.00
2024-06-07 01:19:39.551542,1,0,-2,0,0,0,75,78,137,150,22,100.09,129,18.00,4.00,-1027.00
2024-06-07 01:19:39.708840,1,0,-2,0,0,0,75,78,137,150,22,100.27,129,-68.00,100.00,-921.00
2024-06-07 01:19:39.757469,1,-1,-2,0,0,0,75,78,138,150,22,100.13,129,4.00,-9.00,-1063.00
2024-06-07 01:19:39.857222,1,0,-2,0,0,0,75,78,138,150,22,99.85,129,-37.00,34.00,-958.00
2024-06-07 01:19:40.016065,1,0,-2,0,0,0,75,78,140,150,22,99.77,129,1.00,-30.00,-1023.00
2024-06-07 01:19:40.061058,1,0,-2,0,0,0,75,77,140,150,22,100.44,130,15.00,40.00,-1014.00
2024-06-07 01:19:40.220749,1,0,-2,0,0,0,75,77,141,150,22,99.98,130,-54.00,42.00,-952.00
2024-06-07 01:19:40.265058,2,0,-2,0,0,0,75,77,141,150,22,100.04,130,95.00,-20.00,-1071.00
2024-06-07 01:19:40.429258,1,0,-2,0,0,0,75,77,141,150,22,100.23,130,23.00,38.00,-866.00
2024-06-07 01:19:40.469054,1,-1,-2,0,0,0,75,77,141,150,22,100.08,130,34.00,0.00,-985.00
2024-06-07 01:19:40.571721,0,0,-2,0,0,0,75,77,142,150,22,100.07,130,-11.00,14.00,-982.00
2024-06-07 01:19:40.673237,0,0,-2,0,0,0,75,77,142,150,22,99.90,130,60.00,-15.00,-1068.00
2024-06-07 01:19:40.835055,0,0,-2,0,0,0,75,77,143,150,22,100.11,130,-18.00,41.00,-873.00
2024-06-07 01:19:40.877077,0,0,-2,0,0,0,75,77,143,150,22,100.11,130,-5.00,20.00,-1085.00
2024-06-07 01:19:41.040108,1,0,-2,0,0,0,75,77,143,160,22,100.19,130,-17.00,55.00,-945.00
2024-06-07 01:19:41.081397,1,0,-2,0,0,0,75,77,143,160,22,99.94,131,109.00,14.00,-1088.00
2024-06-07 01:19:41.183554,1,0,-2,0,0,0,75,77,142,160,22,100.15,131,27.00,33.00,-944.00
2024-06-07 01:19:41.347566,1,0,-2,0,0,0,75,77,139,150,22,100.14,131,84.00,0.00,-965.00
2024-06-07 01:19:41.347706,0,-1,-2,0,0,1,75,77,138,150,22,99.88,131,-17.00,26.00,-918.00
2024-06-07 01:19:41.437881,0,0,-2,0,0,1,75,77,136,150,22,100.08,131,-23.00,63.00,-965.00
2024-06-07 01:19:41.541930,0,0,-2,0,0,1,75,77,134,150,22,100.00,131,44.00,14.00,-1128.00
2024-06-07 01:19:41.654315,0,0,-2,0,0,1,75,77,132,150,22,99.83,131,43.00,-6.00,-962.00
2024-06-07 01:19:41.745323,0,0,-2,0,0,1,75,77,130,150,22,100.25,131,37.00,13.00,-1092.00
2024-06-07 01:19:41.847553,1,0,-2,0,0,0,75,77,130,140,22,100.13,131,51.00,20.00,-1062.00
2024-06-07 01:19:41.949362,1,0,-2,0,0,0,75,77,130,140,22,99.85,131,33.00,42.00,-1016.00
2024-06-07 01:19:42.051077,1,0,-2,0,0,0,75,79,129,140,22,100.07,132,53.00,-21.00,-1047.00
2024-06-07 01:19:42.153123,1,0,-2,0,0,0,75,79,129,140,22,99.79,132,34.00,20.00,-1094.00
2024-06-07 01:19:42.254885,1,0,-2,0,0,0,75,79,129,140,22,99.95,132,58.00,-14.00,-990.00
2024-06-07 01:19:42.374919,1,0,-2,0,0,0,75,79,129,140,22,100.10,132,37.00,2.00,-1025.00
2024-06-07 01:19:42.458987,1,0,-2,0,0,0,75,79,129,150,22,100.09,132,-34.00,19.00,-986.00
2024-06-07 01:19:42.575987,0,0,-2,0,0,0,75,79,130,150,22,100.16,132,8.00,22.00,-1018.00
2024-06-07 01:19:42.662883,0,-1,-2,0,0,0,75,79,130,150,22,100.06,132,-18.00,28.00,-1014.00
2024-06-07 01:19:42.766553,0,-1,-2,0,0,0,75,79,130,150,22,99.93,132,64.00,3.00,-996.00
2024-06-07 01:19:42.867005,0,-1,-2,0,0,0,75,79,131,150,22,99.78,132,16.00,34.00,-988.00
2024-06-07 01:19:42.985488,1,-1,-2,0,0,0,75,79,130,150,22,100.03,132,-20.00,48.00,-967.00
2024-06-07 01:19:43.071675,1,-1,-2,0,0,0,75,78,130,150,22,100.28,133,-10.00,28.00,-1015.00
2024-06-07 01:19:43.190259,1,0,-2,0,0,0,75,78,130,150,22,99.98,133,36.00,4.00,-962.00
2024-06-07 01:19:43.274995,1,0,-2,0,0,0,75,78,129,150,22,99.91,133,-14.00,4.00,-951.00
2024-06-07 01:19:43.376899,1,0,-2,0,0,0,75,78,130,150,22,100.15,133,-35.00,25.00,-944.00
2024-06-07 01:19:43.498171,1,-1,-2,0,0,0,75,78,129,150,22,99.82,133,97.00,-14.00,-982.00
2024-06-07 01:19:43.580879,0,-1,-2,0,0,0,75,78,128,150,22,99.65,133,7.00,-39.00,-952.00
2024-06-07 01:19:43.702663,0,-1,-2,0,0,0,75,78,129,150,22,100.02,133,33.00,6.00,-1076.00
2024-06-07 01:19:43.784768,0,-1,-2,0,0,0,75,78,129,150,22,99.67,133,18.00,4.00,-992.00
2024-06-07 01:19:43.907521,0,-1,-2,0,0,0,75,78,129,150,22,100.04,133,-35.00,21.00,-1004.00
2024-06-07 01:19:43.988880,0,-1,-2,0,0,0,75,78,129,150,22,100.24,133,-17.00,37.00,-932.00
2024-06-07 01:19:44.111870,0,-1,-2,0,0,0,75,79,130,150,22,100.04,134,15.00,15.00,-1004.00
2024-06-07 01:19:44.192910,0,0,-2,0,0,0,75,79,130,150,22,99.90,134,-13.00,2.00,-914.00
2024-06-07 01:19:44.316687,0,-1,-2,0,0,0,75,79,130,150,22,100.08,134,13.00,6.00,-1039.00
2024-06-07 01:19:44.397850,0,-1,-2,0,0,0,75,79,132,150,22,99.90,134,12.00,13.00,-941.00
2024-06-07 01:19:44.498727,0,-1,-2,0,0,0,75,79,132,150,22,99.90,134,-11.00,-15.00,-993.00
2024-06-07 01:19:44.600746,0,-1,-2,0,0,0,75,79,132,150,22,100.29,134,18.00,3.00,-1032.00
2024-06-07 01:19:44.702704,0,-1,-2,0,0,0,75,79,132,150,22,99.90,134,-38.00,31.00,-1017.00
2024-06-07 01:19:44.828627,0,-1,-2,0,0,0,75,79,132,150,22,100.01,134,12.00,28.00,-925.00
2024-06-07 01:19:44.855881,1,0,-2,0,0,0,75,79,133,150,22,99.85,134,128.00,-37.00,-1094.00
2024-06-07 01:19:44.957713,1,0,-2,0,0,0,75,79,132,150,22,100.02,134,64.00,-3.00,-986.00
2024-06-07 01:19:45.135873,1,0,-2,0,0,0,76,78,132,150,22,100.01,135,-35.00,44.00,-946.00
2024-06-07 01:19:45.212737,1,0,-2,0,0,0,76,78,131,150,22,100.12,135,-8.00,44.00,-981.00
2024-06-07 01:19:45.340630,1,-1,-2,0,0,0,76,78,130,150,22,99.74,135,53.00,37.00,-998.00
2024-06-07 01:19:45.367574,0,-1,-2,0,0,0,76,78,128,150,22,99.82,135,57.00,3.00,-1031.00
2024-06-07 01:19:45.468041,0,-1,-2,0,0,0,76,78,128,150,22,99.70,135,38.00,14.00,-1011.00
2024-06-07 01:19:45.572465,0,-1,-2,0,0,0,76,78,126,150,22,99.86,135,78.00,1.00,-1079.00
2024-06-07 01:19:45.671830,0,-1,-2,0,0,0,76,78,126,140,22,99.81,135,-23.00,31.00,-1044.00
2024-06-07 01:19:45.856782,0,-1,-2,0,0,0,76,78,126,140,22,100.00,135,-27.00,21.00,-1096.00
2024-06-07 01:19:45.880164,0,-1,-2,0,0,0,76,78,126,140,22,99.84,135,-6.00,4.00,-961.00
2024-06-07 01:19:45.977724,0,-1,-2,0,0,0,76,78,126,140,22,99.83,135,2.00,53.00,-929.00
2024-06-07 01:19:46.159771,0,0,-2,0,0,0,75,79,127,140,22,100.06,136,-29.00,37.00,-1048.00
2024-06-07 01:19:46.181648,1,0,-2,0,0,0,75,79,127,140,22,100.22,136,59.00,9.00,-992.00
2024-06-07 01:19:46.283629,1,0,-2,0,0,0,75,79,126,140,22,99.76,136,-41.00,46.00,-985.00
2024-06-07 01:19:46.469433,1,0,-2,0,0,0,75,79,126,140,22,100.11,136,80.00,-24.00,-1093.00
2024-06-07 01:19:46.488298,1,-1,-2,0,0,0,75,79,127,140,22,99.89,136,-53.00,66.00,-990.00
2024-06-07 01:19:46.595919,0,-1,-2,0,0,0,75,79,128,140,22,99.78,136,23.00,38.00,-1144.00
2024-06-07 01:19:46.692569,0,-1,-2,0,0,0,75,79,127,140,22,99.82,136,-60.00,31.00,-936.00
2024-06-07 01:19:46.876595,0,-1,-2,0,0,0,75,79,128,140,22,99.68,136,128.00,-12.00,-1144.00
2024-06-07 01:19:46.897120,1,-1,-2,0,0,0,75,79,128,150,22,99.97,136,71.00,0.00,-1089.00
2024-06-07 01:19:46.997578,1,-1,-2,0,0,0,75,79,129,150,22,99.87,136,27.00,8.00,-1026.00
2024-06-07 01:19:47.286522,1,0,-2,0,0,0,75,79,128,150,22,99.82,137,-19.00,35.00,-887.00
2024-06-07 01:19:47.388414,1,0,-2,0,0,0,75,79,128,150,22,99.97,137,18.00,24.00,-945.00
2024-06-07 01:19:47.389026,1,-1,-2,0,0,0,75,79,128,150,22,99.80,137,71.00,16.00,-1085.00
2024-06-07 01:19:47.405490,0,-1,-2,0,0,0,75,79,128,150,22,99.58,137,34.00,27.00,-961.00
2024-06-07 01:19:47.536149,0,-1,-2,0,0,0,75,79,127,140,22,99.95,137,-49.00,24.00,-954.00
2024-06-07 01:19:47.634819,0,0,-2,0,0,0,75,79,128,140,22,99.79,137,107.00,2.00,-1138.00
