TS,pitch,roll,yaw,vgx,vgy,vgz,templ,temph,tof,h,bat,baro,time,agx,agy,agz
2024-06-07 01:17:03.976292,0,0,0,0,0,0,53,55,10,0,66,99.63,0,4.00,6.00,-999.00
2024-06-07 01:17:04.001878,0,0,0,0,0,0,53,55,10,0,66,99.23,0,5.00,6.00,-1000.00
2024-06-07 01:17:04.119865,0,0,0,0,0,0,53,55,10,0,66,99.58,0,5.00,7.00,-1000.00
2024-06-07 01:17:04.285170,0,0,0,0,0,0,53,55,10,0,66,99.68,0,5.00,6.00,-1000.00
2024-06-07 01:17:04.307956,0,0,0,0,0,0,53,55,10,0,66,99.90,0,4.00,5.00,-998.00
2024-06-07 01:17:04.477334,0,0,0,0,0,0,53,55,10,0,66,99.35,0,5.00,6.00,-997.00
2024-06-07 01:17:04.511947,0,0,0,0,0,0,53,55,10,0,66,99.42,0,5.00,4.00,-998.00
2024-06-07 01:17:04.682060,0,0,0,0,0,0,53,55,10,0,66,99.42,0,6.00,6.00,-997.00
2024-06-07 01:17:04.716729,0,0,0,0,0,0,53,55,10,0,66,99.41,0,5.00,6.00,-997.00
2024-06-07 01:17:04.887568,0,0,0,0,0,0,53,55,10,0,66,99.65,0,6.00,5.00,-1001.00
2024-06-07 01:17:04.919976,0,0,0,0,0,0,53,55,10,0,66,99.42,0,3.00,5.00,-1001.00
2024-06-07 01:17:05.092162,0,0,0,0,0,0,53,55,10,0,66,99.61,0,4.00,5.00,-998.00
2024-06-07 01:17:05.123932,0,0,0,0,0,0,53,55,10,0,66,99.69,0,6.00,6.00,-998.00
2024-06-07 01:17:05.296331,0,0,0,0,0,0,53,55,10,0,66,99.34,0,6.00,6.00,-999.00
2024-06-07 01:17:05.327891,0,0,0,0,0,0,53,55,10,0,66,99.69,0,4.00,7.00,-1001.00
2024-06-07 01:17:05.501424,0,0,0,0,0,0,53,55,10,0,66,99.52,0,4.00,6.00,-999.00
2024-06-07 01:17:05.531817,0,0,0,0,0,0,53,55,10,0,66,99.58,0,5.00,7.00,-1002.00
2024-06-07 01:17:05.706012,0,0,0,0,0,0,53,55,10,0,66,99.33,0,4.00,7.00,-1001.00
2024-06-07 01:17:05.706254,0,0,0,0,0,0,53,55,10,0,66,99.66,0,5.00,7.00,-997.00
2024-06-07 01:17:05.788349,0,0,0,0,0,0,53,55,10,0,66,99.77,0,3.00,7.00,-1001.00
2024-06-07 01:17:05.911045,0,0,0,0,0,0,53,55,10,0,66,99.65,0,5.00,5.00,-998.00
2024-06-07 01:17:05.990999,0,0,0,0,0,0,53,55,10,0,66,99.64,0,5.00,5.00,-999.00
2024-06-07 01:17:06.115831,0,0,0,0,0,0,53,55,10,0,66,99.61,0,5.00,6.00,-998.00
2024-06-07 01:17:06.195003,0,0,0,0,0,0,53,55,10,0,66,99.64,0,5.00,5.00,-998.00
2024-06-07 01:17:06.320557,0,0,0,0,0,0,53,55,10,0,66,99.51,0,6.00,6.00,-1001.00
2024-06-07 01:17:06.399055,0,0,0,0,0,0,53,55,10,0,66,99.57,0,6.00,7.00,-1000.00
2024-06-07 01:17:06.525253,0,0,0,0,0,0,53,55,10,0,66,99.75,0,5.00,6.00,-1001.00
2024-06-07 01:17:06.603084,0,0,0,0,0,0,53,55,10,0,66,99.31,0,5.00,7.00,-1001.00
2024-06-07 01:17:06.704931,0,0,0,0,0,0,53,55,10,0,66,99.32,0,5.00,6.00,-998.00
2024-06-07 01:17:06.832813,0,0,0,0,0,0,53,55,10,0,66,99.60,0,5.00,6.00,-1000.00
2024-06-07 01:17:06.909877,0,0,0,0,0,0,53,55,10,0,66,99.31,0,5.00,6.00,-1000.00
2024-06-07 01:17:07.037338,0,0,0,0,0,0,53,55,10,0,66,99.38,0,5.00,5.00,-1000.00
2024-06-07 01:17:07.114113,0,0,0,0,0,0,54,57,10,0,66,99.45,0,5.00,6.00,-1000.00
2024-06-07 01:17:07.241888,0,0,0,0,0,0,54,57,10,0,66,99.57,0,6.00,7.00,-996.00
2024-06-07 01:17:07.317474,0,0,0,0,0,0,54,57,10,0,66,99.67,0,5.00,7.00,-998.00
2024-06-07 01:17:07.446828,0,0,0,0,0,0,54,57,10,0,66,99.43,0,5.00,6.00,-1001.00
2024-06-07 01:17:07.521767,0,0,0,0,0,0,54,57,10,0,66,99.64,0,6.00,6.00,-999.00
2024-06-07 01:17:07.651448,0,0,0,0,0,0,54,57,10,0,66,99.49,0,4.00,6.00,-998.00
2024-06-07 01:17:07.725786,0,0,0,0,0,0,54,57,10,0,66,99.64,0,7.00,7.00,-1000.00
2024-06-07 01:17:07.856755,0,0,0,0,0,0,54,57,10,0,66,99.54,0,5.00,5.00,-1001.00
2024-06-07 01:17:07.929756,0,0,0,0,0,0,54,57,10,0,66,99.20,0,4.00,6.00,-998.00
2024-06-07 01:17:08.061208,0,0,0,0,0,0,54,57,10,0,66,99.36,0,5.00,6.00,-999.00
2024-06-07 01:17:08.133637,0,0,0,0,0,0,54,57,10,0,66,99.43,0,5.00,6.00,-1001.00
2024-06-07 01:17:08.265980,0,0,0,0,0,0,54,57,10,0,66,99.49,0,6.00,7.00,-999.00
2024-06-07 01:17:08.337871,0,0,0,0,0,0,54,57,10,0,66,99.57,0,5.00,4.00,-998.00
2024-06-07 01:17:08.439803,0,0,0,0,0,0,54,57,10,0,66,99.58,0,6.00,7.00,-998.00
2024-06-07 01:17:08.573142,0,0,0,0,0,0,54,57,10,0,66,99.58,0,9.00,14.00,-1000.00
2024-06-07 01:17:08.645309,0,0,0,0,0,0,54,57,10,0,66,99.58,0,11.00,10.00,-1003.00
2024-06-07 01:17:08.745592,0,0,0,0,0,0,54,57,10,0,66,99.58,0,2.00,-19.00,-1004.00
2024-06-07 01:17:08.881178,0,0,0,0,0,0,54,57,10,0,66,99.58,0,50.00,-11.00,-996.00
2024-06-07 01:17:08.949497,0,0,-1,0,0,0,54,57,10,0,66,99.58,0,-5.00,45.00,-955.00
2024-06-07 01:17:09.085047,0,0,-1,0,0,0,54,57,10,0,66,99.58,0,32.00,7.00,-1107.00
2024-06-07 01:17:09.153495,0,1,-1,0,0,0,54,57,10,0,66,99.58,0,37.00,11.00,-1119.00
2024-06-07 01:17:09.289781,0,1,0,0,0,-2,54,57,11,0,66,99.58,0,47.00,25.00,-1340.00
2024-06-07 01:17:09.357482,2,0,0,0,0,-5,54,57,13,10,66,99.58,0,51.00,0.00,-1176.00
2024-06-07 01:17:09.408625,2,0,0,0,0,-7,54,57,21,10,66,99.88,0,-11.00,46.00,-974.00
2024-06-07 01:17:09.596998,2,-1,0,0,0,-8,54,57,29,20,66,100.10,1,26.00,9.00,-1004.00
2024-06-07 01:17:09.612626,2,0,0,0,0,-8,54,57,33,30,66,99.94,1,14.00,17.00,-967.00
2024-06-07 01:17:09.801798,2,0,0,0,0,-8,54,57,41,40,66,100.06,1,176.00,-14.00,-1091.00
2024-06-07 01:17:09.816673,2,0,-1,0,0,-7,54,57,48,40,66,100.23,1,54.00,-16.00,-920.00
2024-06-07 01:17:10.006634,2,0,-1,0,0,-6,54,57,56,50,66,100.19,1,32.00,-9.00,-874.00
2024-06-07 01:17:10.020552,2,-1,-1,0,0,-5,54,57,61,60,66,100.41,1,37.00,0.00,-913.00
2024-06-07 01:17:10.211527,1,0,-1,0,0,-4,54,57,65,60,66,100.18,1,31.00,26.00,-895.00
2024-06-07 01:17:10.224683,1,0,0,0,0,-3,54,57,68,60,66,100.59,1,13.00,73.00,-915.00
2024-06-07 01:17:10.416185,2,0,0,0,0,-2,54,57,69,70,66,100.48,1,9.00,21.00,-910.00
2024-06-07 01:17:10.428565,1,0,0,0,0,-1,54,57,70,70,66,100.36,1,13.00,17.00,-965.00
2024-06-07 01:17:10.620975,1,0,0,0,0,0,54,57,71,70,66,100.41,2,51.00,-7.00,-977.00
2024-06-07 01:17:10.632472,2,0,0,0,0,0,54,57,71,70,66,100.41,2,64.00,4.00,-999.00
2024-06-07 01:17:10.734697,2,0,0,0,0,0,54,57,71,70,66,100.47,2,15.00,40.00,-1012.00
2024-06-07 01:17:10.928182,2,0,0,0,0,0,54,57,71,70,66,100.25,2,18.00,33.00,-1010.00
2024-06-07 01:17:10.938630,2,0,0,0,0,0,54,57,71,70,66,100.71,2,-44.00,33.00,-982.00
2024-06-07 01:17:11.135756,2,0,0,0,0,0,54,57,72,70,66,100.47,2,60.00,12.00,-1050.00
2024-06-07 01:17:11.142788,1,0,0,0,0,0,55,57,72,70,66,100.38,2,33.00,9.00,-1003.00
2024-06-07 01:17:11.337771,1,0,0,0,0,0,55,57,72,70,66,100.28,2,39.00,17.00,-1008.00
2024-06-07 01:17:11.346527,1,0,0,0,0,0,55,57,73,70,66,100.48,2,32.00,34.00,-995.00
2024-06-07 01:17:11.542553,1,0,0,0,0,0,55,57,74,70,66,100.27,2,76.00,1.00,-1043.00
2024-06-07 01:17:11.550481,1,0,0,0,0,0,55,57,75,70,66,100.45,3,102.00,-1.00,-1084.00
2024-06-07 01:17:11.747333,1,0,0,0,0,0,55,57,76,70,66,100.56,3,39.00,16.00,-987.00
2024-06-07 01:17:11.754353,1,-1,0,0,0,0,55,57,77,70,66,100.25,3,-23.00,76.00,-983.00
2024-06-07 01:17:11.856658,1,-1,0,0,0,-1,55,57,78,80,66,100.48,3,3.00,57.00,-969.00
2024-06-07 01:17:12.054449,1,-1,0,0,0,0,55,57,79,80,66,100.43,3,28.00,43.00,-984.00
2024-06-07 01:17:12.060470,1,-1,0,0,0,0,55,57,80,80,66,100.44,3,66.00,4.00,-1115.00
2024-06-07 01:17:12.162459,1,-1,0,0,0,0,55,57,81,80,66,100.75,3,18.00,27.00,-937.00
2024-06-07 01:17:12.348929,1,-1,0,0,0,0,55,57,82,80,66,100.54,3,2.00,57.00,-964.00
2024-06-07 01:17:12.366456,1,0,0,0,0,0,55,57,82,80,66,100.44,3,-1.00,40.00,-948.00
2024-06-07 01:17:12.566678,1,0,0,0,0,0,55,57,83,80,66,100.44,3,46.00,23.00,-1022.00
2024-06-07 01:17:12.570390,1,0,0,0,0,0,55,57,84,80,66,100.30,4,70.00,19.00,-1013.00
2024-06-07 01:17:12.771382,1,0,-1,0,0,0,55,57,85,80,66,100.57,4,95.00,9.00,-1062.00
2024-06-07 01:17:12.771436,2,0,-1,0,0,0,55,57,85,80,66,100.34,4,22.00,14.00,-1015.00
2024-06-07 01:17:12.825820,2,0,-1,0,0,0,55,57,86,80,66,100.57,4,0.00,43.00,-992.00
2024-06-07 01:17:12.976193,2,0,-1,0,0,0,55,57,86,80,66,100.28,4,34.00,5.00,-984.00
2024-06-07 01:17:13.029174,2,0,-1,0,0,0,55,57,86,80,66,100.42,4,12.00,40.00,-999.00
2024-06-07 01:17:13.132380,2,0,-1,0,0,0,56,58,87,80,66,100.51,4,18.00,54.00,-972.00
2024-06-07 01:17:13.233145,2,0,0,0,0,0,56,58,87,80,66,100.44,4,92.00,-1.00,-1097.00
2024-06-07 01:17:13.385718,1,0,-1,0,0,0,56,58,87,80,65,100.49,4,-31.00,64.00,-913.00
2024-06-07 01:17:13.437150,1,0,-1,0,0,0,56,58,87,80,65,100.35,4,73.00,7.00,-1061.00
2024-06-07 01:17:13.590476,1,0,-1,0,0,0,56,58,88,80,65,100.62,5,15.00,28.00,-925.00
2024-06-07 01:17:13.641114,1,0,-1,0,0,0,56,58,88,80,65,100.33,5,30.00,6.00,-982.00
2024-06-07 01:17:13.743052,1,0,-1,0,0,0,56,58,88,80,65,100.73,5,80.00,-18.00,-989.00
2024-06-07 01:17:13.897626,2,0,-1,0,0,0,56,58,88,80,65,100.43,5,63.00,0.00,-1053.00
2024-06-07 01:17:13.947078,1,0,0,0,0,0,56,58,88,80,65,100.49,5,40.00,33.00,-999.00
2024-06-07 01:17:14.049269,1,0,0,0,0,0,56,58,88,80,65,100.59,5,47.00,32.00,-982.00
2024-06-07 01:17:14.151067,1,-1,0,0,0,0,56,58,88,80,65,100.32,5,33.00,26.00,-949.00
2024-06-07 01:17:14.307295,1,-1,0,0,0,0,56,58,88,80,65,100.79,5,0.00,96.00,-929.00
2024-06-07 01:17:14.355811,2,0,0,0,0,0,56,58,88,80,65,100.56,5,116.00,-33.00,-1101.00
2024-06-07 01:17:14.456988,2,0,0,0,0,0,56,58,88,80,65,100.27,6,30.00,27.00,-944.00
2024-06-07 01:17:14.559634,2,0,0,0,0,0,56,58,87,80,65,100.24,6,43.00,-8.00,-975.00
2024-06-07 01:17:14.662431,2,0,-1,0,0,0,56,58,87,80,65,100.35,6,18.00,0.00,-960.00
2024-06-07 01:17:14.763039,2,0,-1,0,0,0,56,58,86,80,65,100.46,6,30.00,18.00,-959.00
2024-06-07 01:17:14.921495,2,0,-1,0,0,0,56,58,86,80,65,100.34,6,39.00,24.00,-1001.00
2024-06-07 01:17:14.966901,2,0,-1,0,0,0,56,58,86,80,65,100.50,6,26.00,26.00,-990.00
2024-06-07 01:17:15.126984,2,0,-1,0,0,0,56,58,85,80,65,100.49,6,10.00,-13.00,-956.00
2024-06-07 01:17:15.175363,2,-1,-1,0,0,0,56,58,85,80,65,100.33,6,33.00,14.00,-967.00
2024-06-07 01:17:15.273193,2,-1,-1,0,0,0,56,58,84,80,65,100.40,6,19.00,18.00,-984.00
2024-06-07 01:17:15.374903,1,-1,-1,0,0,0,56,58,84,80,64,100.38,6,138.00,-69.00,-1022.00
2024-06-07 01:17:15.535916,1,-1,-1,0,0,0,56,58,83,80,64,100.34,7,115.00,16.00,-1066.00
2024-06-07 01:17:15.578808,2,-1,-1,0,0,0,56,58,82,80,64,100.18,7,32.00,62.00,-985.00
2024-06-07 01:17:15.740751,2,0,-1,0,0,0,56,58,80,80,64,100.49,7,17.00,57.00,-963.00
2024-06-07 01:17:15.782796,2,0,-1,0,0,0,56,58,79,80,64,100.53,7,17.00,10.00,-980.00
2024-06-07 01:17:15.945839,2,0,-1,0,0,0,56,58,78,80,64,100.32,7,41.00,35.00,-1015.00
2024-06-07 01:17:15.986877,1,0,0,0,0,0,56,58,77,80,64,100.26,7,23.00,35.00,-1012.00
2024-06-07 01:17:16.150195,1,-1,0,0,0,0,56,58,76,80,64,100.40,7,6.00,37.00,-962.00
2024-06-07 01:17:16.190770,1,0,0,0,0,0,56,58,75,80,64,100.22,7,34.00,18.00,-1006.00
2024-06-07 01:17:16.293329,1,0,0,0,0,0,56,58,74,80,64,100.21,7,60.00,4.00,-989.00
2024-06-07 01:17:16.394853,1,0,0,0,0,0,56,58,73,70,64,100.30,7,-68.00,63.00,-873.00
2024-06-07 01:17:16.497340,1,0,0,0,0,0,56,58,73,70,64,100.37,8,-28.00,43.00,-975.00
2024-06-07 01:17:16.547980,1,-1,0,0,0,0,56,58,72,70,64,100.28,8,27.00,3.00,-1042.00
2024-06-07 01:17:16.662446,0,-1,0,0,0,0,56,58,72,70,64,100.11,8,41.00,16.00,-1055.00
2024-06-07 01:17:16.751981,1,-1,0,0,0,0,56,58,72,70,64,100.34,8,43.00,15.00,-997.00
2024-06-07 01:17:16.854002,1,-1,0,0,0,0,56,58,73,70,64,100.48,8,19.00,27.00,-1021.00
2024-06-07 01:17:16.956050,2,0,0,0,0,0,56,58,74,70,64,100.23,8,139.00,-25.00,-1055.00
2024-06-07 01:17:17.057938,2,0,0,0,0,0,56,58,75,70,64,100.55,8,52.00,25.00,-1045.00
2024-06-07 01:17:17.189218,2,-1,0,0,0,-1,56,60,78,70,64,100.11,8,44.00,19.00,-1037.00
2024-06-07 01:17:17.330625,2,-1,0,0,0,0,56,60,79,70,64,100.26,8,31.00,23.00,-959.00
2024-06-07 01:17:17.364176,2,-1,-1,0,0,0,56,60,80,80,63,100.24,8,-30.00,62.00,-932.00
2024-06-07 01:17:17.471973,1,-1,0,0,0,0,56,60,81,80,63,100.09,9,30.00,6.00,-1035.00
2024-06-07 01:17:17.646921,1,-1,-1,0,0,0,56,60,81,80,63,100.34,9,-40.00,62.00,-888.00
2024-06-07 01:17:17.671108,1,-1,-1,0,0,0,56,60,82,80,63,100.35,9,43.00,26.00,-1007.00
2024-06-07 01:17:17.853937,2,0,-1,0,0,0,56,60,82,80,63,100.31,9,61.00,14.00,-992.00
2024-06-07 01:17:17.873987,2,0,-1,0,0,0,56,60,82,80,63,100.45,9,14.00,29.00,-1000.00
2024-06-07 01:17:17.991654,2,0,-1,0,0,0,56,60,82,80,63,100.20,9,64.00,36.00,-1022.00
2024-06-07 01:17:18.088432,2,0,-1,0,0,0,56,60,82,80,63,100.37,9,28.00,26.00,-970.00
2024-06-07 01:17:18.179947,1,0,0,0,0,0,57,60,82,80,63,100.34,9,7.00,20.00,-929.00
2024-06-07 01:17:18.301234,1,0,-1,0,0,0,57,60,81,80,63,100.35,9,30.00,29.00,-980.00
2024-06-07 01:17:18.413990,1,-1,0,0,0,0,57,60,81,80,63,100.47,9,90.00,13.00,-1008.00
2024-06-07 01:17:18.557446,1,-1,0,0,0,0,57,60,81,80,63,100.41,10,26.00,21.00,-982.00
2024-06-07 01:17:18.588038,1,-1,-1,0,0,0,57,60,81,80,63,100.56,10,44.00,30.00,-1008.00
2024-06-07 01:17:18.721553,1,-1,-1,0,0,0,57,60,81,80,63,100.20,10,91.00,-10.00,-982.00
2024-06-07 01:17:18.864555,1,0,-1,0,0,0,57,60,81,80,63,100.46,10,35.00,26.00,-992.00
2024-06-07 01:17:18.893900,2,0,-1,0,0,0,57,60,81,80,63,100.57,10,146.00,-9.00,-1118.00
2024-06-07 01:17:19.028700,2,0,-1,0,0,0,57,60,80,80,63,100.20,10,13.00,25.00,-946.00
2024-06-07 01:17:19.182646,2,0,-1,0,0,0,57,60,80,80,63,100.28,10,13.00,9.00,-952.00
2024-06-07 01:17:19.199725,2,0,-1,0,0,0,58,60,79,80,63,100.51,10,60.00,0.00,-972.00
2024-06-07 01:17:19.324334,2,0,-1,0,0,0,58,60,78,80,63,100.27,10,64.00,24.00,-1043.00
2024-06-07 01:17:19.403859,2,0,-1,0,0,0,58,60,78,80,62,100.57,10,50.00,14.00,-1069.00
2024-06-07 01:17:19.529380,1,0,-1,0,0,0,58,60,78,80,62,100.65,11,96.00,-10.00,-993.00
2024-06-07 01:17:19.607718,1,-1,-1,0,0,-1,58,60,79,80,62,100.10,11,12.00,27.00,-1098.00
2024-06-07 01:17:19.734125,1,-1,-1,0,0,-2,58,60,81,80,62,100.02,11,48.00,15.00,-1114.00
2024-06-07 01:17:19.811713,1,-1,-1,0,0,-3,58,60,85,80,62,100.33,11,-54.00,26.00,-1052.00
2024-06-07 01:17:19.938974,1,-1,-1,0,0,-3,58,60,89,80,62,100.38,11,53.00,3.00,-1107.00
2024-06-07 01:17:20.015849,1,-1,-1,0,0,-5,58,60,95,90,62,100.41,11,83.00,8.00,-1071.00
2024-06-07 01:17:20.143765,1,-1,-1,0,0,-5,58,60,102,100,62,100.39,11,57.00,0.00,-1067.00
2024-06-07 01:17:20.219710,1,-1,-1,0,0,-5,58,60,107,100,62,100.68,11,28.00,17.00,-999.00
2024-06-07 01:17:20.348536,2,-1,-1,0,0,-6,58,60,113,110,62,100.49,11,39.00,21.00,-976.00
2024-06-07 01:17:20.423750,2,-1,-1,0,0,-6,58,60,120,110,62,100.67,11,148.00,-34.00,-1101.00
2024-06-07 01:17:20.526134,2,-1,-1,0,0,-6,58,60,128,120,62,100.66,12,18.00,12.00,-927.00
2024-06-07 01:17:20.627811,2,0,-1,0,0,-6,58,60,133,130,62,100.74,12,23.00,28.00,-953.00
2024-06-07 01:17:20.678392,2,-1,-1,0,0,-5,58,60,139,130,62,101.20,12,50.00,28.00,-960.00
2024-06-07 01:17:20.860565,2,-1,-1,0,0,-5,58,60,145,140,62,101.05,12,40.00,49.00,-933.00
2024-06-07 01:17:20.882362,2,-1,-1,0,0,-4,58,60,149,140,62,100.82,12,85.00,-10.00,-1032.00
2024-06-07 01:17:21.065537,1,-1,-1,0,0,-4,58,60,153,150,62,101.24,12,101.00,-18.00,-1027.00
2024-06-07 01:17:21.086822,1,-1,-1,0,0,-4,58,60,158,150,62,101.10,12,57.00,10.00,-970.00
2024-06-07 01:17:21.188394,1,-1,-1,0,0,-3,58,61,162,160,62,101.08,12,77.00,1.00,-955.00
2024-06-07 01:17:21.359461,1,0,-1,0,0,-3,58,61,165,160,61,101.31,12,-12.00,49.00,-905.00
2024-06-07 01:17:21.392399,1,0,-1,0,0,-2,58,61,167,160,61,100.98,12,41.00,18.00,-975.00
2024-06-07 01:17:21.582817,1,0,-1,0,0,-2,58,61,169,170,61,101.26,13,31.00,16.00,-958.00
2024-06-07 01:17:21.596390,1,-1,-1,0,0,-2,58,61,173,170,61,101.28,13,33.00,15.00,-961.00
2024-06-07 01:17:21.782256,1,-1,-1,0,0,-1,58,61,175,170,61,101.01,13,97.00,-5.00,-975.00
2024-06-07 01:17:21.800239,1,-1,-1,0,0,-1,58,61,176,170,61,101.40,13,26.00,12.00,-990.00
2024-06-07 01:17:21.902364,1,-1,-1,0,0,-1,58,61,177,170,61,100.83,13,14.00,14.00,-928.00
2024-06-07 01:17:22.089398,1,-1,-1,0,0,-1,58,61,179,170,61,101.32,13,59.00,24.00,-953.00
2024-06-07 01:17:22.113200,1,-1,-1,0,0,0,58,61,180,180,61,100.98,13,15.00,28.00,-934.00
2024-06-07 01:17:22.208626,1,-1,-1,0,0,0,58,61,180,180,61,101.19,13,-32.00,78.00,-825.00
2024-06-07 01:17:22.396485,1,-1,-1,0,0,0,58,61,180,180,61,101.15,13,34.00,16.00,-963.00
2024-06-07 01:17:22.412385,1,-1,-1,0,0,0,58,61,180,180,61,101.18,13,25.00,5.00,-987.00
2024-06-07 01:17:22.516814,1,-1,-1,0,0,0,58,61,180,180,61,101.42,14,47.00,-14.00,-994.00
2024-06-07 01:17:22.616591,2,-1,-1,0,0,0,58,61,180,180,61,100.96,14,49.00,1.00,-1022.00
2024-06-07 01:17:22.719480,1,-1,-1,0,0,0,58,61,179,180,61,101.01,14,28.00,11.00,-998.00
2024-06-07 01:17:22.908633,1,-1,-1,0,0,0,58,61,178,180,61,101.05,14,102.00,-25.00,-1044.00
2024-06-07 01:17:22.925406,1,-1,-1,0,0,0,58,61,180,180,61,101.00,14,90.00,8.00,-1082.00
2024-06-07 01:17:23.024680,1,-1,-1,0,0,0,58,61,180,180,61,101.46,14,43.00,8.00,-1019.00
2024-06-07 01:17:23.219209,1,-1,-1,0,0,0,58,61,178,180,61,100.83,14,118.00,0.00,-1072.00
2024-06-07 01:17:23.228134,1,-1,-1,0,0,0,58,62,180,180,61,100.97,14,-26.00,63.00,-945.00
2024-06-07 01:17:23.420851,1,-1,-1,0,0,0,58,62,180,180,60,101.12,14,-130.00,77.00,-865.00
2024-06-07 01:17:23.432627,1,-1,-1,0,0,0,58,62,180,180,60,101.34,14,41.00,11.00,-1020.00
2024-06-07 01:17:23.625493,1,0,-1,0,0,0,58,62,180,180,60,101.30,15,21.00,13.00,-1048.00
2024-06-07 01:17:23.636696,1,-1,-1,0,0,0,58,62,181,180,60,101.28,15,35.00,17.00,-1044.00
2024-06-07 01:17:23.689020,2,-1,-1,0,0,0,58,62,182,180,60,101.00,15,31.00,50.00,-971.00
2024-06-07 01:17:23.831094,1,-1,-1,0,0,0,58,62,180,180,60,101.02,15,83.00,-8.00,-1071.00
2024-06-07 01:17:23.891519,1,-1,-1,0,0,0,58,62,180,180,60,101.16,15,22.00,20.00,-996.00
2024-06-07 01:17:24.034806,1,-1,-1,0,0,0,58,62,181,180,60,101.14,15,26.00,16.00,-977.00
2024-06-07 01:17:24.096900,1,-1,-1,0,0,0,58,62,181,180,60,101.21,15,84.00,-2.00,-1054.00
2024-06-07 01:17:24.342359,2,-1,-1,0,0,0,59,62,181,180,60,101.25,15,0.00,50.00,-915.00
2024-06-07 01:17:24.342412,2,0,-1,0,0,1,59,62,179,180,60,101.32,15,26.00,7.00,-905.00
2024-06-07 01:17:24.403140,1,0,-1,0,0,1,59,62,178,170,60,101.25,15,20.00,40.00,-967.00
2024-06-07 01:17:24.503589,1,-1,-1,0,0,2,59,62,175,170,60,100.94,16,52.00,6.00,-1016.00
2024-06-07 01:17:24.605443,1,-1,-1,0,0,2,59,62,175,170,60,100.97,16,95.00,-13.00,-1028.00
2024-06-07 01:17:24.707147,1,-1,-1,0,0,2,59,62,171,170,60,100.96,16,45.00,8.00,-965.00
2024-06-07 01:17:24.809482,1,-1,-1,0,0,2,59,62,169,170,60,101.26,16,119.00,-17.00,-957.00
2024-06-07 01:17:24.911086,1,-1,-1,0,0,2,59,62,165,160,60,100.87,16,38.00,29.00,-1034.00
2024-06-07 01:17:25.058695,1,-1,-1,0,0,2,59,62,163,160,60,100.92,16,-30.00,15.00,-936.00
2024-06-07 01:17:25.115405,2,0,-1,0,0,2,59,62,160,160,60,100.73,16,44.00,17.00,-996.00
2024-06-07 01:17:25.223187,1,0,-1,0,0,2,60,62,154,150,60,100.68,16,64.00,-8.00,-1051.00
2024-06-07 01:17:25.319226,1,-1,-1,0,0,2,60,62,153,150,59,100.90,16,50.00,15.00,-1018.00
2024-06-07 01:17:25.468766,1,-1,-1,0,0,2,60,62,149,150,59,100.79,16,35.00,4.00,-1035.00
2024-06-07 01:17:25.523291,1,-1,-1,0,0,2,60,62,145,150,59,100.92,17,48.00,16.00,-1032.00
2024-06-07 01:17:25.673691,1,-1,-1,0,0,2,60,62,144,140,59,100.78,17,2.00,1.00,-1001.00
2024-06-07 01:17:25.727226,1,-1,-1,0,0,2,60,62,141,140,59,100.73,17,50.00,-32.00,-947.00
2024-06-07 01:17:25.877839,1,-1,-1,0,0,2,60,62,139,140,59,100.78,17,36.00,14.00,-1041.00
2024-06-07 01:17:25.931205,1,-1,-1,0,0,1,60,62,136,140,59,100.79,17,41.00,20.00,-1039.00
2024-06-07 01:17:26.083423,1,-1,-1,0,0,1,60,62,135,130,59,100.49,17,-58.00,53.00,-962.00
2024-06-07 01:17:26.135413,1,-1,-1,0,0,1,60,62,132,130,59,100.61,17,2.00,36.00,-934.00
2024-06-07 01:17:26.287623,1,-1,-1,0,0,1,59,62,131,130,59,100.55,17,45.00,18.00,-1032.00
2024-06-07 01:17:26.340415,1,-1,-1,0,0,1,59,62,130,130,59,100.95,17,75.00,16.00,-1066.00
2024-06-07 01:17:26.492330,1,-1,-1,0,0,0,59,62,130,130,59,100.60,17,18.00,23.00,-1006.00
2024-06-07 01:17:26.544003,1,-1,-1,0,0,0,59,62,129,130,59,100.88,18,-47.00,52.00,-936.00
2024-06-07 01:17:26.697174,1,-1,-1,0,0,0,59,62,128,130,59,100.84,18,34.00,25.00,-1014.00
2024-06-07 01:17:26.750549,1,-1,-1,0,0,0,59,62,130,130,59,100.93,18,49.00,19.00,-1027.00
2024-06-07 01:17:26.850954,1,-1,-1,0,0,0,59,62,131,130,59,100.68,18,95.00,-13.00,-990.00
2024-06-07 01:17:26.952080,1,-1,-1,0,0,0,59,62,131,130,59,100.57,18,17.00,29.00,-1001.00
2024-06-07 01:17:27.106852,1,-1,-1,0,0,0,59,62,131,130,59,100.88,18,68.00,-11.00,-1029.00
2024-06-07 01:17:27.156060,1,-1,-1,0,0,0,59,62,132,130,59,100.78,18,12.00,-20.00,-1006.00
2024-06-07 01:17:27.311695,1,-1,-1,0,0,0,60,62,132,130,59,100.89,18,2.00,45.00,-927.00
2024-06-07 01:17:27.361182,1,0,-1,0,0,0,60,62,133,130,58,100.84,18,17.00,13.00,-1013.00
2024-06-07 01:17:27.517358,1,0,-1,0,0,0,60,62,134,130,58,100.73,18,0.00,43.00,-1013.00
2024-06-07 01:17:27.565136,1,-1,-1,0,0,0,60,62,134,130,58,100.68,19,80.00,12.00,-1073.00
2024-06-07 01:17:27.667160,1,-1,-1,0,0,0,60,62,134,130,58,100.48,19,26.00,7.00,-959.00
2024-06-07 01:17:27.717900,1,-1,-1,0,0,0,60,62,135,130,58,100.72,19,52.00,4.00,-1037.00
2024-06-07 01:17:27.828200,1,-1,-1,0,0,0,60,62,135,130,58,100.63,19,-8.00,0.00,-932.00
2024-06-07 01:17:27.924130,1,-1,-1,0,0,0,60,62,135,130,58,100.49,19,39.00,-1.00,-1008.00
2024-06-07 01:17:28.025388,1,-1,-1,0,0,0,60,62,135,130,58,100.81,19,15.00,-5.00,-1033.00
2024-06-07 01:17:28.125929,1,-1,-1,0,0,0,60,62,136,130,58,100.71,19,-2.00,50.00,-997.00
2024-06-07 01:17:28.228154,0,-1,-1,0,0,0,60,62,136,130,58,100.90,19,-13.00,21.00,-993.00
2024-06-07 01:17:28.335834,0,-1,-1,0,0,0,60,62,137,130,58,100.78,19,44.00,6.00,-1029.00
2024-06-07 01:17:28.432446,-4,0,-1,0,0,0,60,62,138,130,58,100.67,19,29.00,11.00,-1044.00
2024-06-07 01:17:28.540190,-6,0,-1,2,0,0,60,62,138,130,58,100.74,20,47.00,7.00,-999.00
2024-06-07 01:17:28.635875,-6,0,0,3,0,0,60,62,138,130,58,100.57,20,-21.00,13.00,-947.00
2024-06-07 01:17:28.744869,-6,0,0,4,0,0,60,62,138,130,58,100.87,20,0.00,21.00,-988.00
2024-06-07 01:17:28.839816,-6,0,0,5,0,0,60,62,138,130,58,100.78,20,82.00,-38.00,-1142.00
2024-06-07 01:17:28.951224,-5,0,0,6,0,0,60,62,138,130,58,100.66,20,-10.00,34.00,-1032.00
2024-06-07 01:17:29.045964,-3,0,-1,7,0,0,60,62,137,130,58,100.88,20,-48.00,12.00,-944.00
2024-06-07 01:17:29.145727,-2,-1,0,7,0,0,60,62,136,130,58,100.63,20,-47.00,35.00,-985.00
2024-06-07 01:17:29.247712,0,-1,-1,7,0,0,61,63,136,130,58,100.83,20,-18.00,-28.00,-1027.00
2024-06-07 01:17:29.349706,2,-1,-1,7,0,0,61,63,135,130,57,100.73,20,0.00,0.00,-1027.00
2024-06-07 01:17:29.461651,4,0,-1,6,0,0,61,63,136,130,57,100.73,20,59.00,-27.00,-1052.00
2024-06-07 01:17:29.554011,6,0,-1,5,0,0,61,63,135,130,57,100.80,21,36.00,43.00,-1099.00
2024-06-07 01:17:29.666783,5,-1,-1,4,0,0,61,63,133,130,57,100.55,21,46.00,2.00,-1056.00
2024-06-07 01:17:29.757773,3,-1,-1,3,0,0,61,63,133,130,57,100.96,21,46.00,5.00,-1027.00
2024-06-07 01:17:29.872170,2,-1,-1,3,0,0,61,63,131,130,57,100.72,21,-27.00,11.00,-1014.00
2024-06-07 01:17:29.961632,1,-1,-1,2,0,0,61,63,131,130,57,100.58,21,62.00,15.00,-1038.00
2024-06-07 01:17:30.076445,1,-1,-1,2,0,0,61,63,130,130,57,100.77,21,41.00,2.00,-1022.00
2024-06-07 01:17:30.168267,1,0,0,2,0,0,61,63,129,130,57,100.95,21,32.00,21.00,-1052.00
2024-06-07 01:17:30.267484,1,-2,-1,2,0,0,62,63,129,130,57,100.62,21,42.00,-2.00,-1029.00
2024-06-07 01:17:30.369497,1,-3,-1,2,0,0,62,63,129,130,57,100.68,21,36.00,13.00,-1040.00
2024-06-07 01:17:30.486350,1,-3,-1,1,0,0,62,63,129,130,57,100.51,22,14.00,14.00,-997.00
2024-06-07 01:17:30.573469,0,-2,-1,2,0,0,62,63,129,130,57,100.58,22,5.00,51.00,-1089.00
2024-06-07 01:17:30.676266,1,-1,-1,1,-1,0,62,63,128,130,57,100.36,22,72.00,-17.00,-1012.00
2024-06-07 01:17:30.792743,0,1,-1,1,0,0,62,63,128,130,57,100.45,22,21.00,55.00,-1042.00
2024-06-07 01:17:30.879820,1,0,-1,1,0,0,62,63,129,130,57,100.68,22,41.00,15.00,-1054.00
2024-06-07 01:17:30.981508,5,0,-1,1,0,0,62,63,128,130,57,100.69,22,16.00,13.00,-966.00
2024-06-07 01:17:31.083726,4,-1,-1,0,0,0,62,63,130,130,57,100.77,22,-55.00,81.00,-895.00
2024-06-07 01:17:31.202484,2,-1,-1,0,0,0,62,63,130,130,57,100.46,22,21.00,-4.00,-1014.00
2024-06-07 01:17:31.287541,2,-1,-1,0,0,0,61,64,131,130,57,100.68,22,38.00,21.00,-997.00
2024-06-07 01:17:31.407306,2,0,-1,0,0,0,61,64,131,130,56,100.57,22,41.00,18.00,-1003.00
2024-06-07 01:17:31.491615,1,-1,-1,0,0,0,61,64,132,130,56,100.61,23,21.00,11.00,-965.00
2024-06-07 01:17:31.612049,1,-1,-1,0,0,0,61,64,133,130,56,100.84,23,-18.00,67.00,-995.00
2024-06-07 01:17:31.644979,0,-1,-1,0,0,0,61,64,134,130,56,100.82,23,-8.00,55.00,-900.00
2024-06-07 01:17:31.816912,0,-1,-1,0,0,0,61,64,134,130,56,100.68,23,70.00,4.00,-1053.00
2024-06-07 01:17:31.848741,1,-1,-1,0,0,0,61,64,136,130,56,100.97,23,44.00,13.00,-1000.00
2024-06-07 01:17:32.124429,1,-1,-1,0,0,0,61,64,137,130,56,100.78,23,23.00,16.00,-956.00
2024-06-07 01:17:32.124576,1,-1,-1,0,0,0,61,64,137,130,56,100.63,23,32.00,-2.00,-928.00
2024-06-07 01:17:32.260573,1,-1,-1,0,0,0,61,64,138,130,56,100.61,23,42.00,28.00,-1004.00
2024-06-07 01:17:32.260740,1,-1,-1,0,0,0,61,64,139,130,56,100.77,23,38.00,39.00,-943.00
2024-06-07 01:17:32.369052,1,-1,-1,0,0,0,61,64,138,130,56,100.70,23,30.00,26.00,-989.00
2024-06-07 01:17:32.556190,1,-1,-1,0,0,0,61,64,138,130,56,100.82,24,45.00,16.00,-995.00
2024-06-07 01:17:32.562701,1,-1,-1,0,0,0,61,64,137,130,56,100.63,24,32.00,10.00,-998.00
2024-06-07 01:17:32.735514,1,-1,-1,0,0,0,61,64,136,130,56,100.69,24,27.00,6.00,-1038.00
2024-06-07 01:17:32.785763,1,-1,-1,0,0,0,61,64,135,130,56,100.76,24,86.00,-81.00,-1094.00
2024-06-07 01:17:32.883163,1,-1,-1,0,0,0,61,64,134,130,56,100.68,24,64.00,14.00,-1065.00
2024-06-07 01:17:32.975200,1,-1,-1,0,0,0,61,64,133,130,56,100.89,24,129.00,-41.00,-1126.00
2024-06-07 01:17:33.072813,1,-1,-1,0,0,0,61,64,132,130,56,100.65,24,35.00,15.00,-1057.00
2024-06-07 01:17:33.254130,1,-1,-1,0,0,0,61,64,131,130,56,100.56,24,-95.00,92.00,-952.00
2024-06-07 01:17:33.276530,4,0,-1,0,0,0,61,64,129,130,56,100.85,24,58.00,17.00,-1030.00
2024-06-07 01:17:33.467698,8,0,-1,0,0,0,61,64,132,130,55,100.38,24,47.00,-5.00,-1027.00
2024-06-07 01:17:33.480537,8,0,-1,-1,0,0,61,64,130,130,55,100.60,25,13.00,55.00,-992.00
2024-06-07 01:17:33.610409,8,0,-1,-3,0,0,61,64,129,130,55,100.41,25,76.00,-5.00,-1076.00
2024-06-07 01:17:33.773146,8,0,-1,-4,0,0,61,64,129,130,55,100.72,25,17.00,54.00,-968.00
2024-06-07 01:17:33.789323,8,-1,-1,-5,0,0,61,64,126,130,55,100.49,25,53.00,22.00,-1039.00
2024-06-07 01:17:33.916923,8,-1,-1,-6,0,0,61,64,128,130,55,100.54,25,82.00,1.00,-1033.00
2024-06-07 01:17:34.080432,8,-1,-1,-7,0,0,61,64,126,130,55,100.53,25,64.00,26.00,-950.00
2024-06-07 01:17:34.092788,6,-1,-1,-7,0,0,61,64,126,130,55,100.76,25,63.00,13.00,-1007.00
2024-06-07 01:17:34.236856,2,-1,0,-8,0,0,61,64,125,130,55,100.38,25,104.00,0.00,-994.00
2024-06-07 01:17:34.300061,0,-1,0,-7,0,0,61,65,125,130,55,100.57,25,85.00,1.00,-1037.00
2024-06-07 01:17:34.398484,-2,-1,0,-6,0,0,61,65,125,130,55,100.55,25,72.00,4.00,-953.00
2024-06-07 01:17:34.500428,-2,-2,0,-5,0,0,61,65,126,130,55,100.55,26,59.00,38.00,-1042.00
2024-06-07 01:17:34.683942,-1,-2,0,-4,0,0,61,65,126,130,55,100.62,26,38.00,31.00,-943.00
2024-06-07 01:17:34.709835,0,-2,-1,-3,0,0,61,65,127,130,55,100.66,26,47.00,24.00,-962.00
2024-06-07 01:17:34.807117,0,-2,-1,-3,0,0,61,65,127,130,55,100.75,26,16.00,26.00,-950.00
2024-06-07 01:17:34.991044,0,-2,-1,-3,0,0,61,65,128,130,55,100.74,26,35.00,7.00,-988.00
2024-06-07 01:17:35.010409,0,-2,-1,-2,0,0,61,65,129,130,55,100.53,26,24.00,24.00,-946.00
2024-06-07 01:17:35.063211,0,-2,-1,-2,-1,0,61,65,130,130,55,100.56,26,100.00,-17.00,-1095.00
2024-06-07 01:17:35.165687,0,-3,-1,-2,-1,0,61,65,130,130,55,100.63,26,82.00,-10.00,-1072.00
2024-06-07 01:17:35.316322,-2,2,-1,-1,-1,0,62,65,130,130,55,100.21,26,41.00,25.00,-854.00
2024-06-07 01:17:35.370420,-1,1,-1,-1,0,0,62,65,131,130,54,100.75,26,81.00,-12.00,-994.00
2024-06-07 01:17:35.469454,0,0,-1,0,0,0,62,65,131,130,54,100.64,27,106.00,-19.00,-1034.00
2024-06-07 01:17:35.612173,0,0,0,0,0,0,62,65,131,130,54,100.72,27,11.00,25.00,-997.00
2024-06-07 01:17:35.673225,0,-1,0,0,0,0,62,65,131,130,54,100.66,27,116.00,-28.00,-1079.00
2024-06-07 01:17:35.810641,1,-1,0,0,0,0,62,65,132,130,54,100.63,27,42.00,20.00,-1010.00
2024-06-07 01:17:35.877452,1,-1,0,0,0,0,62,65,132,130,54,100.82,27,31.00,-4.00,-975.00
2024-06-07 01:17:36.015203,1,-1,0,0,0,0,62,65,131,130,54,100.52,27,37.00,12.00,-993.00
2024-06-07 01:17:36.081286,1,-1,0,0,0,0,62,65,131,130,54,100.74,27,96.00,-33.00,-1079.00
2024-06-07 01:17:36.220022,1,-1,0,0,0,0,62,65,132,130,54,100.63,27,60.00,-1.00,-1052.00
2024-06-07 01:17:36.286563,1,-1,-1,0,0,0,63,64,131,130,54,100.85,27,41.00,23.00,-996.00
2024-06-07 01:17:36.425099,1,-1,-1,0,0,0,63,64,131,130,54,100.59,27,31.00,38.00,-965.00
2024-06-07 01:17:36.489260,1,-1,-1,0,0,0,63,64,131,130,54,100.69,28,30.00,-17.00,-1006.00
2024-06-07 01:17:36.591300,1,-1,-1,0,0,0,63,64,131,130,54,100.56,28,9.00,32.00,-976.00
2024-06-07 01:17:36.693173,1,-1,-1,0,0,0,63,64,130,130,54,100.59,28,44.00,-32.00,-981.00
2024-06-07 01:17:36.835954,1,-1,-1,0,0,0,63,64,130,130,54,100.85,28,-9.00,10.00,-987.00
2024-06-07 01:17:36.897166,1,-1,0,0,0,0,63,64,129,130,54,100.53,28,54.00,-3.00,-1041.00
2024-06-07 01:17:37.039161,1,-1,0,0,0,0,63,64,127,130,54,100.71,28,18.00,34.00,-1011.00
2024-06-07 01:17:37.101011,0,-1,0,0,0,0,63,64,127,130,54,100.81,28,65.00,-9.00,-1051.00
2024-06-07 01:17:37.243920,0,-1,0,0,0,0,63,64,126,130,54,100.47,28,84.00,-5.00,-1029.00
2024-06-07 01:17:37.305194,1,-1,0,0,0,0,62,65,126,130,53,100.77,28,-12.00,47.00,-1024.00
2024-06-07 01:17:37.448659,1,-1,0,0,0,0,62,65,125,130,53,100.47,28,-29.00,32.00,-970.00
2024-06-07 01:17:37.508933,0,-1,0,0,0,0,62,65,125,120,53,100.76,29,36.00,11.00,-1045.00
2024-06-07 01:17:37.654602,0,-1,0,0,0,0,62,65,125,120,53,100.74,29,-5.00,6.00,-1039.00
2024-06-07 01:17:37.712905,2,-5,-1,0,0,0,62,65,126,120,53,100.33,29,-21.00,35.00,-976.00
2024-06-07 01:17:37.814895,1,-8,-1,0,-1,0,62,65,126,120,53,100.32,29,50.00,19.00,-1021.00
2024-06-07 01:17:37.960974,1,-6,-1,0,-2,0,62,65,127,120,53,100.56,29,80.00,-6.00,-1029.00
2024-06-07 01:17:38.019007,1,-4,-1,0,-3,0,62,65,127,130,53,100.57,29,140.00,-16.00,-1149.00
2024-06-07 01:17:38.165519,2,-2,-1,0,-3,0,62,65,126,130,53,100.66,29,-12.00,57.00,-1004.00
2024-06-07 01:17:38.223231,2,0,0,0,-3,0,62,65,127,130,53,100.57,29,72.00,9.00,-971.00
2024-06-07 01:17:38.324825,1,0,0,0,-2,0,62,66,127,130,53,100.68,29,55.00,-4.00,-1104.00
2024-06-07 01:17:38.426909,1,-1,-1,0,-2,0,62,66,127,130,53,100.47,29,84.00,14.00,-1039.00
2024-06-07 01:17:38.528793,1,-1,-1,0,-2,0,62,66,127,130,53,100.62,30,69.00,44.00,-1034.00
2024-06-07 01:17:38.630925,2,-1,-1,0,-2,0,62,66,127,130,53,100.46,30,58.00,11.00,-978.00
2024-06-07 01:17:38.732852,1,-1,-1,0,-2,0,62,66,128,130,53,100.63,30,67.00,16.00,-1026.00
2024-06-07 01:17:38.784235,2,-1,-1,0,-2,0,62,66,128,130,53,100.46,30,6.00,38.00,-929.00
2024-06-07 01:17:38.989487,2,-1,-1,0,-2,0,62,66,129,130,53,100.57,30,35.00,35.00,-1003.00
2024-06-07 01:17:38.989540,2,-1,-1,0,-2,0,62,66,129,130,53,100.54,30,107.00,-26.00,-1102.00
2024-06-07 01:17:39.090188,2,-1,-1,0,-2,0,62,66,129,130,53,100.52,30,4.00,61.00,-920.00
2024-06-07 01:17:39.193705,2,-1,-1,0,-2,0,62,66,129,130,53,100.51,30,12.00,34.00,-954.00
2024-06-07 01:17:39.293966,1,-2,-1,0,-2,0,63,67,131,130,52,100.84,30,-15.00,61.00,-882.00
2024-06-07 01:17:39.396002,1,-2,-1,0,-2,0,63,67,131,130,52,100.80,30,44.00,27.00,-1032.00
2024-06-07 01:17:39.598892,1,-2,-1,0,-2,0,63,67,131,130,52,100.76,31,49.00,16.00,-982.00
2024-06-07 01:17:39.600245,2,-2,-1,0,-2,0,63,67,131,130,52,100.84,31,-14.00,55.00,-1028.00
2024-06-07 01:17:39.701647,2,-2,-1,0,-2,0,63,67,132,130,52,100.54,31,34.00,32.00,-946.00
2024-06-07 01:17:39.804006,2,-2,-1,0,-2,0,63,67,132,130,52,100.69,31,76.00,4.00,-1087.00
2024-06-07 01:17:39.906224,2,2,0,0,-2,0,63,67,133,130,52,100.37,31,34.00,35.00,-1009.00
2024-06-07 01:17:40.008159,2,3,0,0,-1,0,63,67,133,130,52,100.41,31,42.00,23.00,-1030.00
2024-06-07 01:17:40.111268,2,0,0,0,0,0,63,67,134,130,52,100.37,31,65.00,53.00,-1042.00
2024-06-07 01:17:40.213790,2,0,-1,0,0,0,63,67,134,130,52,100.56,31,16.00,27.00,-1006.00
2024-06-07 01:17:40.313928,1,-1,0,0,0,0,64,66,134,130,52,100.64,31,56.00,4.00,-1041.00
2024-06-07 01:17:40.418751,1,-1,0,0,0,0,64,66,135,130,52,100.51,31,-15.00,30.00,-944.00
2024-06-07 01:17:40.522098,1,-1,0,0,0,0,64,66,135,130,52,100.73,32,13.00,38.00,-989.00
2024-06-07 01:17:40.623441,1,-1,0,0,0,0,64,66,136,130,52,100.46,32,48.00,21.00,-1003.00
2024-06-07 01:17:40.722137,1,-2,0,0,0,0,64,66,136,130,52,100.65,32,-6.00,16.00,-955.00
2024-06-07 01:17:40.828112,2,-2,0,0,0,0,64,66,136,130,52,100.39,32,32.00,33.00,-931.00
2024-06-07 01:17:40.926037,2,-1,0,0,0,0,64,66,137,130,52,100.55,32,95.00,-10.00,-1018.00
2024-06-07 01:17:41.032500,2,-1,0,0,0,0,64,66,136,130,52,100.86,32,81.00,-13.00,-1081.00
2024-06-07 01:17:41.129991,2,-1,0,0,0,0,64,66,137,130,52,100.46,32,16.00,17.00,-977.00
2024-06-07 01:17:41.231911,2,-1,0,0,0,0,64,66,136,130,52,100.59,32,61.00,0.00,-1025.00
2024-06-07 01:17:41.340971,2,-1,0,0,0,0,63,66,136,130,51,100.66,32,71.00,6.00,-943.00
2024-06-07 01:17:41.438468,2,-1,0,0,0,0,63,66,136,130,51,100.46,32,15.00,21.00,-908.00
2024-06-07 01:17:41.537719,1,-1,0,0,0,0,63,66,135,130,51,100.46,33,59.00,9.00,-989.00
2024-06-07 01:17:41.647306,1,-2,0,0,0,0,63,66,136,130,51,100.74,33,-13.00,20.00,-948.00
2024-06-07 01:17:41.741775,1,-2,0,0,0,0,63,66,135,130,51,100.74,33,108.00,5.00,-1038.00
2024-06-07 01:17:41.852822,1,-1,0,0,0,0,63,66,134,130,51,100.30,33,25.00,16.00,-1014.00
2024-06-07 01:17:41.945880,1,-1,0,0,0,0,63,66,134,130,51,100.24,33,81.00,-11.00,-970.00
2024-06-07 01:17:42.051161,1,-1,0,0,0,0,63,66,133,130,51,100.66,33,14.00,6.00,-1007.00
2024-06-07 01:17:42.149521,2,-1,0,0,0,0,63,66,132,130,51,100.32,33,58.00,-23.00,-1102.00
2024-06-07 01:17:42.251495,2,2,0,0,0,0,63,66,134,130,51,100.38,33,31.00,32.00,-938.00
2024-06-07 01:17:42.354669,3,8,0,0,0,0,64,66,134,130,51,100.59,33,149.00,-10.00,-1065.00
2024-06-07 01:17:42.455472,2,6,0,0,2,0,64,66,131,130,51,100.54,33,63.00,-3.00,-1025.00
2024-06-07 01:17:42.506581,2,3,0,0,3,0,64,66,130,130,51,100.67,34,84.00,-36.00,-1016.00
2024-06-07 01:17:42.608470,2,0,0,0,3,0,64,66,130,130,51,100.63,34,54.00,-13.00,-954.00
2024-06-07 01:17:42.711056,2,-1,0,0,3,0,64,66,129,130,51,100.54,34,62.00,-29.00,-1041.00
2024-06-07 01:17:42.812424,1,-2,0,0,3,0,64,66,128,130,51,100.33,34,65.00,-28.00,-1079.00
2024-06-07 01:17:42.914392,1,-1,0,0,2,0,64,66,127,130,51,100.62,34,25.00,-20.00,-977.00
2024-06-07 01:17:43.017825,1,0,-1,0,2,0,64,66,128,130,51,100.26,34,10.00,-31.00,-1032.00
2024-06-07 01:17:43.120405,1,0,-1,0,2,0,64,66,127,130,51,100.36,34,11.00,-23.00,-1006.00
2024-06-07 01:17:43.220723,0,0,-1,0,2,0,64,66,127,130,51,100.61,34,46.00,-30.00,-1055.00
2024-06-07 01:17:43.322989,-1,0,-1,0,2,0,64,67,127,130,50,100.71,34,20.00,-20.00,-1008.00
2024-06-07 01:17:43.424782,-2,-1,-1,0,2,0,64,67,126,130,50,100.25,34,-4.00,-1.00,-936.00
2024-06-07 01:17:43.526497,-2,-1,-1,0,2,0,64,67,127,130,50,100.44,35,-10.00,-11.00,-951.00
2024-06-07 01:17:43.698651,-2,-2,-1,0,1,0,64,67,126,130,50,100.52,35,-50.00,-13.00,-907.00
2024-06-07 01:17:43.730404,-1,-3,-1,1,1,0,64,67,126,130,50,100.72,35,-19.00,2.00,-992.00
2024-06-07 01:17:43.899832,-1,-4,-1,1,1,0,64,67,126,130,50,100.34,35,73.00,-25.00,-989.00
2024-06-07 01:17:43.934371,0,-2,-1,1,0,0,64,67,127,130,50,100.63,35,63.00,-33.00,-1045.00
2024-06-07 01:17:44.104253,6,-1,-1,1,0,0,64,67,127,130,50,100.43,35,-9.00,27.00,-953.00
2024-06-07 01:17:44.138294,4,0,-1,0,0,0,64,67,127,130,50,100.54,35,27.00,10.00,-1017.00
2024-06-07 01:17:44.240687,2,-1,-1,0,0,0,64,67,126,130,50,100.79,35,72.00,-5.00,-1020.00
2024-06-07 01:17:44.412644,1,-1,-1,0,0,0,64,67,127,130,50,100.78,35,-27.00,15.00,-934.00
2024-06-07 01:17:44.444411,0,-1,-1,0,0,0,64,67,127,130,50,100.35,35,58.00,14.00,-1025.00
2024-06-07 01:17:44.617526,0,-1,-1,0,0,0,64,67,127,130,50,100.45,36,59.00,4.00,-966.00
2024-06-07 01:17:44.648447,0,-1,-1,0,0,0,64,67,127,130,50,100.54,36,-31.00,34.00,-947.00
2024-06-07 01:17:44.821857,0,-1,-1,0,0,0,64,67,128,130,50,100.40,36,14.00,34.00,-1070.00
2024-06-07 01:17:44.852286,0,-1,-1,0,0,0,64,67,129,130,50,100.55,36,3.00,5.00,-989.00
2024-06-07 01:17:45.028448,0,-1,-1,0,0,0,64,67,129,130,50,100.72,36,47.00,-23.00,-1104.00
2024-06-07 01:17:45.056561,0,-1,-1,0,0,0,64,67,130,130,50,100.41,36,-59.00,24.00,-950.00
2024-06-07 01:17:45.234582,0,0,-1,0,0,0,64,67,132,130,50,100.51,36,26.00,-2.00,-911.00
2024-06-07 01:17:45.260424,1,0,-1,0,0,0,64,67,132,130,50,100.66,36,56.00,0.00,-1042.00
2024-06-07 01:17:45.435614,1,0,-1,0,0,0,64,68,132,130,49,100.47,36,83.00,-11.00,-1005.00
2024-06-07 01:17:45.464268,1,0,-1,0,0,0,64,68,133,130,49,100.57,36,18.00,12.00,-1063.00
2024-06-07 01:17:45.640274,0,0,-1,0,0,0,64,68,133,130,49,100.68,37,30.00,12.00,-1021.00
2024-06-07 01:17:45.668338,0,-1,-1,0,0,0,64,68,133,130,49,100.68,37,36.00,3.00,-947.00
2024-06-07 01:17:45.845428,0,-1,-1,0,0,0,64,68,133,130,49,100.74,37,19.00,16.00,-935.00
2024-06-07 01:17:45.872233,1,-1,-1,0,0,0,64,68,133,130,49,100.58,37,15.00,16.00,-1002.00
2024-06-07 01:17:46.049963,0,-1,0,0,0,0,64,68,134,130,49,100.58,37,63.00,-6.00,-1068.00
2024-06-07 01:17:46.050204,1,-1,-1,0,0,0,64,68,135,130,49,100.54,37,9.00,2.00,-1015.00
2024-06-07 01:17:46.127431,2,0,-1,0,0,0,64,68,136,130,49,100.63,37,15.00,23.00,-953.00
2024-06-07 01:17:46.259070,1,0,-1,0,0,0,64,68,137,130,49,100.61,37,15.00,-53.00,-941.00
2024-06-07 01:17:46.459381,1,0,8,0,0,0,65,67,137,130,49,100.58,37,7.00,25.00,-932.00
2024-06-07 01:17:46.483998,1,0,14,0,0,0,65,67,137,130,49,100.40,38,-13.00,0.00,-908.00
2024-06-07 01:17:46.535899,1,-1,20,0,0,0,65,67,137,130,49,100.57,38,71.00,-16.00,-1055.00
2024-06-07 01:17:46.664332,1,-1,27,0,0,0,65,67,136,130,49,100.26,38,9.00,39.00,-989.00
2024-06-07 01:17:46.739147,0,-1,33,0,0,0,65,67,135,130,49,100.45,38,10.00,17.00,-960.00
2024-06-07 01:17:46.868920,0,-2,39,0,0,0,65,67,134,130,49,100.40,38,123.00,-28.00,-1032.00
2024-06-07 01:17:46.943064,0,-2,45,0,0,0,65,67,132,130,49,100.42,38,7.00,21.00,-998.00
2024-06-07 01:17:47.178737,1,-2,51,0,0,0,65,67,131,130,49,100.42,38,64.00,5.00,-1026.00
2024-06-07 01:17:47.291568,1,-2,57,0,0,0,65,67,130,130,49,100.45,38,56.00,11.00,-975.00
2024-06-07 01:17:47.291612,1,-1,64,0,0,0,65,67,129,130,49,100.48,38,81.00,5.00,-1066.00
2024-06-07 01:17:47.401963,2,0,70,0,0,0,65,67,127,130,48,100.32,38,22.00,37.00,-932.00
2024-06-07 01:17:47.459954,2,-1,76,0,0,0,65,67,127,130,48,100.10,39,9.00,41.00,-1024.00
2024-06-07 01:17:47.573357,1,-1,82,0,0,0,65,67,127,120,48,100.67,39,26.00,26.00,-1066.00
2024-06-07 01:17:47.658382,1,-1,89,0,0,0,65,67,126,120,48,100.82,39,19.00,45.00,-1010.00
2024-06-07 01:17:47.780493,2,0,95,0,0,0,65,67,127,120,48,100.52,39,31.00,25.00,-981.00
2024-06-07 01:17:47.903736,2,0,101,0,0,0,65,67,128,130,48,100.43,39,0.00,29.00,-952.00
2024-06-07 01:17:47.985291,2,0,107,0,0,0,65,67,128,130,48,100.43,39,43.00,29.00,-1019.00
2024-06-07 01:17:48.064991,2,0,113,0,0,0,65,67,129,130,48,100.44,39,27.00,23.00,-1072.00
2024-06-07 01:17:48.302508,2,0,118,0,0,0,65,67,130,130,48,100.48,39,-24.00,50.00,-951.00
2024-06-07 01:17:48.302574,3,0,124,0,0,0,65,67,130,130,48,100.60,39,33.00,21.00,-975.00
2024-06-07 01:17:48.370946,3,0,130,0,0,0,65,67,132,130,48,100.40,39,9.00,22.00,-998.00
2024-06-07 01:17:48.517934,3,0,136,0,0,0,65,67,131,130,48,100.57,40,20.00,10.00,-968.00
2024-06-07 01:17:48.661505,3,0,142,0,0,0,65,67,132,130,48,100.35,40,98.00,6.00,-1061.00
2024-06-07 01:17:48.676881,3,1,148,0,0,0,65,67,133,130,48,100.19,40,38.00,40.00,-1048.00
2024-06-07 01:17:48.825336,3,1,154,0,0,0,65,67,133,130,48,100.46,40,28.00,20.00,-983.00
2024-06-07 01:17:49.019547,2,1,160,0,0,0,65,67,133,130,48,100.60,40,49.00,2.00,-1076.00
2024-06-07 01:17:49.132584,2,1,167,0,0,0,65,67,133,130,48,100.24,40,23.00,9.00,-1008.00
2024-06-07 01:17:49.132651,2,1,173,0,-1,0,65,67,133,130,48,100.51,40,5.00,16.00,-1058.00
2024-06-07 01:17:49.188542,2,1,179,0,-1,0,65,67,133,130,48,100.81,40,22.00,33.00,-1006.00
2024-06-07 01:17:49.289759,2,1,-174,0,-1,0,65,67,132,130,48,100.67,40,36.00,6.00,-977.00
2024-06-07 01:17:49.390929,1,1,-167,0,-1,0,65,68,131,130,47,100.50,40,67.00,-15.00,-1018.00
2024-06-07 01:17:49.493347,1,1,-161,0,-1,0,65,68,132,130,47,100.40,41,60.00,7.00,-1024.00
2024-06-07 01:17:49.594855,1,1,-155,0,-1,0,65,68,131,130,47,100.54,41,61.00,-9.00,-1084.00
2024-06-07 01:17:49.737657,1,1,-148,0,-1,0,65,68,130,130,47,100.55,41,72.00,-7.00,-1036.00
2024-06-07 01:17:49.798740,1,1,-142,0,-1,0,65,68,130,130,47,100.64,41,92.00,-17.00,-1057.00
2024-06-07 01:17:49.940748,1,1,-136,0,-1,0,65,68,130,130,47,100.52,41,49.00,-14.00,-1049.00
2024-06-07 01:17:50.002704,1,1,-129,0,-1,0,65,68,130,130,47,100.44,41,53.00,20.00,-982.00
2024-06-07 01:17:50.145474,1,1,-123,0,-1,0,65,68,130,130,47,100.40,41,12.00,12.00,-1034.00
2024-06-07 01:17:50.155761,1,0,-117,0,-1,0,65,68,130,130,47,100.61,41,46.00,17.00,-1045.00
2024-06-07 01:17:50.257898,1,0,-111,0,-1,0,65,68,130,130,47,100.56,41,25.00,13.00,-1031.00
2024-06-07 01:17:50.452725,1,0,-105,0,-1,0,65,68,130,130,47,100.58,41,37.00,14.00,-997.00
2024-06-07 01:17:50.512670,1,1,-100,0,-1,0,65,68,131,130,47,100.54,42,-36.00,37.00,-929.00
2024-06-07 01:17:50.657528,1,1,-94,0,-1,0,65,68,131,130,47,100.44,42,101.00,-16.00,-1051.00
2024-06-07 01:17:50.665915,1,0,-88,0,-1,0,65,68,131,130,47,100.31,42,-1.00,9.00,-1007.00
2024-06-07 01:17:50.862394,1,0,-82,0,-1,0,65,68,132,130,47,100.41,42,12.00,6.00,-1026.00
2024-06-07 01:17:50.869727,1,0,-76,0,0,0,65,68,131,130,47,100.34,42,35.00,12.00,-1029.00
2024-06-07 01:17:51.067022,1,0,-71,0,-1,0,65,68,132,130,47,100.47,42,32.00,-7.00,-1045.00
2024-06-07 01:17:51.073595,1,1,-65,0,-1,0,65,68,132,130,47,100.40,42,52.00,-22.00,-1066.00
2024-06-07 01:17:51.271828,1,1,-59,0,0,0,65,68,132,130,47,100.43,42,24.00,18.00,-1004.00
2024-06-07 01:17:51.278373,1,1,-53,1,0,0,65,68,132,130,47,100.54,42,-10.00,12.00,-933.00
2024-06-07 01:17:51.379716,1,0,-47,1,0,0,66,68,132,130,46,100.34,42,48.00,-10.00,-1073.00
2024-06-07 01:17:51.487983,1,0,-42,1,0,0,66,68,132,130,46,100.61,43,32.00,-5.00,-1020.00
2024-06-07 01:17:51.583686,1,0,-36,1,0,0,66,68,132,130,46,100.61,43,39.00,15.00,-1039.00
2024-06-07 01:17:51.783804,1,0,-30,1,0,0,66,68,132,130,46,100.43,43,76.00,-24.00,-1004.00
2024-06-07 01:17:51.787697,1,0,-25,1,0,0,66,68,132,130,46,100.45,43,50.00,1.00,-993.00
2024-06-07 01:17:51.889715,1,0,-19,1,0,0,66,68,132,130,46,100.58,43,5.00,26.00,-1028.00
2024-06-07 01:17:51.992039,1,0,-15,1,0,0,66,68,131,130,46,100.68,43,39.00,14.00,-1020.00
2024-06-07 01:17:52.093750,1,0,-12,1,0,0,66,68,132,130,46,100.42,43,100.00,-25.00,-1129.00
2024-06-07 01:17:52.196663,1,1,-10,1,0,0,66,68,132,130,46,100.71,43,4.00,35.00,-930.00
2024-06-07 01:17:52.297612,1,1,-8,1,0,0,66,68,132,130,46,100.49,43,28.00,-19.00,-1010.00
2024-06-07 01:17:52.403491,2,1,-7,1,0,0,65,69,131,130,46,100.52,43,7.00,-14.00,-943.00
2024-06-07 01:17:52.501611,2,1,-6,1,0,0,65,69,130,130,46,100.34,44,-13.00,52.00,-1021.00
2024-06-07 01:17:52.706013,2,1,-5,0,0,0,65,69,129,130,46,100.21,44,10.00,27.00,-967.00
2024-06-07 01:17:52.706347,2,1,-4,0,0,0,65,69,127,130,46,100.53,44,0.00,2.00,-939.00
2024-06-07 01:17:52.808034,1,0,-3,0,0,0,65,69,126,130,46,100.35,44,43.00,6.00,-1059.00
2024-06-07 01:17:52.910577,1,0,-3,0,0,0,65,69,125,130,46,100.41,44,7.00,9.00,-932.00
2024-06-07 01:17:53.014930,1,0,-3,0,0,0,65,69,124,130,46,100.52,44,41.00,-17.00,-983.00
2024-06-07 01:17:53.114721,1,0,-2,0,0,0,65,69,123,120,46,100.28,44,62.00,-18.00,-1035.00
2024-06-07 01:17:53.217557,1,0,-2,0,0,0,65,69,123,120,46,100.49,44,-36.00,49.00,-1007.00
2024-06-07 01:17:53.319540,1,0,-2,0,0,0,65,69,122,120,45,100.43,44,78.00,-7.00,-1053.00
2024-06-07 01:17:53.422201,2,0,-2,0,0,0,65,68,122,120,45,100.34,44,-27.00,9.00,-937.00
2024-06-07 01:17:53.521811,2,1,-2,0,0,0,65,68,122,120,45,100.40,45,22.00,-2.00,-950.00
2024-06-07 01:17:53.628503,2,1,-2,0,0,0,65,68,123,120,45,100.27,45,0.00,32.00,-989.00
2024-06-07 01:17:53.729298,2,0,-2,0,0,0,65,68,123,120,45,100.20,45,-8.00,29.00,-1041.00
2024-06-07 01:17:53.831915,2,0,-2,0,0,0,65,68,124,120,45,100.48,45,-2.00,22.00,-1033.00
2024-06-07 01:17:53.929610,2,0,-2,0,0,0,65,68,124,120,45,100.31,45,-4.00,0.00,-971.00
2024-06-07 01:17:53.980573,2,0,-3,0,0,0,65,68,126,120,45,100.38,45,59.00,-35.00,-988.00
2024-06-07 01:17:54.082641,2,0,-3,0,0,0,65,68,126,130,45,100.23,45,25.00,-1.00,-1062.00
2024-06-07 01:17:54.184583,2,0,-2,0,0,0,65,68,127,130,45,100.27,45,58.00,14.00,-1053.00
2024-06-07 01:17:54.286877,1,0,-3,0,0,0,65,68,127,130,45,100.40,45,9.00,7.00,-1010.00
2024-06-07 01:17:54.446240,1,0,-2,0,0,0,66,69,128,130,45,100.52,45,27.00,-14.00,-965.00
2024-06-07 01:17:54.490513,1,0,-2,0,0,0,66,69,129,130,45,100.35,46,76.00,-25.00,-1091.00
2024-06-07 01:17:54.651146,1,0,-2,0,0,0,66,69,129,130,45,100.38,46,17.00,0.00,-967.00
2024-06-07 01:17:54.694443,0,0,-2,0,0,0,66,69,129,130,45,100.55,46,39.00,0.00,-906.00
2024-06-07 01:17:54.857427,1,0,-2,0,0,0,66,69,129,130,45,100.31,46,95.00,-50.00,-1097.00
2024-06-07 01:17:54.898466,1,0,-2,0,0,0,66,69,129,130,45,100.40,46,35.00,-17.00,-914.00
2024-06-07 01:17:55.015943,1,0,-2,0,0,0,66,69,130,130,45,100.24,46,80.00,-11.00,-1020.00
2024-06-07 01:17:55.102249,1,0,-2,0,0,0,66,69,129,130,45,100.47,46,33.00,-14.00,-1057.00
2024-06-07 01:17:55.265332,1,0,-6,0,0,0,66,69,130,130,45,100.38,46,46.00,-18.00,-1033.00
2024-06-07 01:17:55.306836,1,0,-12,0,0,0,66,69,130,130,44,100.45,46,-35.00,47.00,-916.00
2024-06-07 01:17:55.408266,1,0,-18,0,0,0,67,69,129,130,44,100.50,46,34.00,-8.00,-1044.00
2024-06-07 01:17:55.572449,1,0,-24,0,0,0,67,69,131,130,44,100.51,47,48.00,2.00,-1009.00
2024-06-07 01:17:55.613857,1,0,-30,0,0,0,67,69,131,130,44,100.45,47,-57.00,44.00,-906.00
2024-06-07 01:17:55.714326,2,0,-36,0,0,0,67,69,131,130,44,100.36,47,20.00,17.00,-970.00
2024-06-07 01:17:55.818456,2,0,-42,0,0,0,67,69,132,130,44,100.49,47,38.00,13.00,-967.00
2024-06-07 01:17:55.919684,2,0,-48,0,0,0,67,69,133,130,44,100.24,47,12.00,25.00,-1012.00
2024-06-07 01:17:56.021188,2,0,-54,0,0,0,67,69,133,130,44,100.33,47,92.00,-38.00,-976.00
2024-06-07 01:17:56.123133,2,0,-60,0,0,0,67,69,134,130,44,100.60,47,58.00,-1.00,-935.00
2024-06-07 01:17:56.289238,2,0,-66,0,0,0,67,69,136,130,44,100.40,47,52.00,0.00,-1029.00
2024-06-07 01:17:56.326495,2,0,-72,0,0,0,67,69,136,130,44,100.78,47,120.00,-44.00,-1112.00
2024-06-07 01:17:56.428230,2,0,-79,0,0,0,67,70,137,130,44,100.64,47,106.00,-30.00,-1067.00
2024-06-07 01:17:56.596538,3,0,-85,0,0,0,67,70,136,130,44,100.56,48,46.00,11.00,-1048.00
2024-06-07 01:17:56.636976,2,0,-91,0,0,0,67,70,136,130,44,100.54,48,72.00,-6.00,-1079.00
2024-06-07 01:17:56.734090,2,0,-97,0,0,0,67,70,136,130,44,100.43,48,24.00,37.00,-923.00
2024-06-07 01:17:56.903846,2,0,-103,0,0,0,67,70,136,130,44,100.36,48,34.00,38.00,-970.00
2024-06-07 01:17:56.938070,2,0,-109,0,0,0,67,70,135,130,44,100.66,48,34.00,10.00,-948.00
2024-06-07 01:17:57.108728,2,0,-115,0,0,0,67,70,136,130,44,100.29,48,-21.00,28.00,-942.00
2024-06-07 01:17:57.142059,1,0,-121,0,0,0,67,70,135,130,44,100.56,48,52.00,14.00,-1043.00
2024-06-07 01:17:57.313187,0,0,-127,0,0,0,67,70,135,130,44,100.60,48,49.00,-1.00,-983.00
2024-06-07 01:17:57.346040,0,0,-133,0,0,0,67,70,135,130,43,100.50,48,120.00,9.00,-1044.00
2024-06-07 01:17:57.517956,1,0,-139,0,0,0,67,70,135,130,43,100.68,48,6.00,20.00,-991.00
2024-06-07 01:17:57.550031,2,0,-146,0,0,0,67,70,136,130,43,100.46,49,28.00,1.00,-990.00
2024-06-07 01:17:57.722777,2,0,-152,0,0,0,67,70,137,130,43,100.51,49,39.00,-2.00,-1043.00
2024-06-07 01:17:57.754025,2,0,-158,0,0,0,67,70,138,130,43,100.25,49,-31.00,21.00,-972.00
2024-06-07 01:17:57.856083,3,0,-164,0,0,0,67,70,138,130,43,100.44,49,11.00,40.00,-960.00
2024-06-07 01:17:57.907665,2,0,-170,0,0,0,67,70,139,130,43,100.69,49,24.00,-3.00,-1027.00
2024-06-07 01:17:58.132381,2,0,-176,0,0,0,67,70,140,130,43,100.32,49,-27.00,41.00,-909.00
2024-06-07 01:17:58.132467,2,0,177,0,0,0,67,70,141,130,43,100.65,49,6.00,21.00,-1008.00
2024-06-07 01:17:58.213088,3,1,171,0,0,0,67,70,142,130,43,100.57,49,97.00,28.00,-1092.00
2024-06-07 01:17:58.315050,3,0,165,0,0,0,67,70,142,140,43,100.72,49,-9.00,1.00,-849.00
2024-06-07 01:17:58.439502,3,0,159,0,0,0,67,70,142,140,43,100.77,49,12.00,17.00,-984.00
2024-06-07 01:17:58.518946,3,0,153,0,0,0,67,70,141,140,43,100.42,50,3.00,63.00,-926.00
2024-06-07 01:17:58.644380,3,0,147,0,0,0,67,70,140,140,43,100.56,50,-21.00,70.00,-955.00
2024-06-07 01:17:58.723115,2,0,141,1,0,1,67,70,138,140,43,100.46,50,4.00,29.00,-1001.00
2024-06-07 01:17:58.853947,1,0,135,1,0,1,67,70,137,130,43,100.49,50,-16.00,42.00,-947.00
2024-06-07 01:17:58.926976,0,0,129,1,0,1,67,70,138,130,43,100.38,50,47.00,-10.00,-1073.00
2024-06-07 01:17:59.054025,1,0,123,0,0,0,67,70,138,130,43,100.40,50,35.00,31.00,-1030.00
2024-06-07 01:17:59.130985,2,0,117,0,0,0,67,70,137,130,43,100.29,50,41.00,21.00,-1087.00
2024-06-07 01:17:59.258695,3,0,111,0,0,0,67,70,138,130,43,100.29,50,19.00,47.00,-1087.00
2024-06-07 01:17:59.334941,3,0,105,0,0,0,67,70,138,130,42,100.78,50,48.00,-8.00,-968.00
2024-06-07 01:17:59.463488,3,0,99,0,0,0,67,70,139,130,42,100.46,50,-39.00,71.00,-907.00
2024-06-07 01:17:59.538920,4,0,93,0,0,0,67,70,138,130,42,100.50,51,48.00,-1.00,-1096.00
2024-06-07 01:17:59.668378,2,0,87,0,-1,0,67,70,138,130,42,100.62,51,102.00,-33.00,-1049.00
2024-06-07 01:17:59.742815,2,0,81,0,0,0,67,70,137,130,42,100.65,51,47.00,10.00,-956.00
2024-06-07 01:17:59.873101,3,0,75,1,0,0,67,70,137,130,42,100.52,51,100.00,-40.00,-977.00
2024-06-07 01:17:59.946831,3,0,69,0,0,0,67,70,135,130,42,100.58,51,64.00,-12.00,-1068.00
2024-06-07 01:18:00.077865,3,0,63,0,-1,0,67,70,133,130,42,100.23,51,12.00,40.00,-980.00
2024-06-07 01:18:00.150868,2,0,57,0,-1,0,67,70,131,130,42,100.56,51,-11.00,14.00,-1017.00
2024-06-07 01:18:00.282649,1,0,51,0,-1,1,67,70,130,130,42,100.31,51,31.00,29.00,-990.00
2024-06-07 01:18:00.355401,0,0,45,0,-1,1,67,70,128,130,42,100.77,51,93.00,5.00,-1068.00
2024-06-07 01:18:00.456787,1,0,40,0,-1,0,68,70,128,130,42,100.70,51,47.00,30.00,-1037.00
2024-06-07 01:18:00.591710,2,0,34,0,0,0,68,70,128,120,42,100.24,52,10.00,13.00,-993.00
2024-06-07 01:18:00.662350,3,0,28,0,0,0,68,70,128,120,42,100.48,52,22.00,46.00,-1029.00
2024-06-07 01:18:00.762905,2,-1,22,0,0,0,68,70,128,120,42,100.32,52,27.00,32.00,-1044.00
2024-06-07 01:18:00.864882,3,-1,16,0,-1,0,68,70,129,120,42,100.52,52,10.00,32.00,-1175.00
2024-06-07 01:18:00.999438,3,-1,12,0,-1,0,68,70,130,120,42,100.42,52,42.00,50.00,-958.00
2024-06-07 01:18:01.068770,3,-1,8,0,-1,0,68,70,132,130,42,100.27,52,66.00,42.00,-938.00
2024-06-07 01:18:01.204247,3,0,5,0,-1,0,68,70,133,130,42,100.13,52,19.00,24.00,-953.00
2024-06-07 01:18:01.276874,3,0,3,0,-1,-1,68,70,134,130,42,100.51,52,6.00,65.00,-957.00
2024-06-07 01:18:01.374829,2,0,1,0,-1,0,68,70,135,130,41,100.38,52,5.00,66.00,-1029.00
2024-06-07 01:18:01.511573,2,0,0,0,0,0,67,70,135,130,41,100.67,53,104.00,1.00,-987.00
2024-06-07 01:18:01.578662,2,0,0,0,0,0,67,70,135,130,41,100.53,53,32.00,20.00,-1016.00
2024-06-07 01:18:01.716203,2,0,0,0,0,0,67,70,135,130,41,100.59,53,88.00,-1.00,-944.00
2024-06-07 01:18:01.782867,1,0,-1,0,0,0,67,70,134,130,41,100.28,53,55.00,42.00,-1094.00
2024-06-07 01:18:01.833798,1,0,-1,0,0,0,67,70,134,130,41,100.24,53,16.00,28.00,-964.00
2024-06-07 01:18:02.116370,1,0,-1,0,0,0,67,70,133,130,41,100.15,53,30.00,41.00,-926.00
2024-06-07 01:18:02.116555,0,0,-1,0,0,0,67,70,132,130,41,100.11,53,97.00,13.00,-1055.00
2024-06-07 01:18:02.174031,1,0,-1,0,0,0,67,70,131,130,41,100.30,53,-43.00,49.00,-933.00
2024-06-07 01:18:02.314036,2,0,-1,0,0,0,67,70,130,130,41,100.44,53,76.00,8.00,-991.00
2024-06-07 01:18:02.463288,2,0,-1,0,0,0,67,70,129,130,41,100.20,53,83.00,36.00,-966.00
2024-06-07 01:18:02.463493,1,0,-1,0,0,0,68,70,128,130,41,100.38,54,35.00,27.00,-971.00
2024-06-07 01:18:02.581606,1,0,-1,0,0,0,68,70,127,130,41,100.21,54,-60.00,69.00,-952.00
2024-06-07 01:18:02.650470,0,0,-1,0,0,0,68,70,127,130,41,100.08,54,23.00,1.00,-1019.00
2024-06-07 01:18:02.843005,0,0,-1,0,0,0,68,70,126,120,41,100.20,54,18.00,18.00,-1023.00
2024-06-07 01:18:02.877299,0,0,-1,0,0,0,68,70,125,120,41,100.13,54,-65.00,46.00,-999.00
2024-06-07 01:18:03.028641,0,0,-1,0,0,0,68,70,126,120,41,100.36,54,57.00,0.00,-1072.00
2024-06-07 01:18:03.066012,0,0,-1,0,0,0,68,70,127,130,41,100.16,54,29.00,15.00,-1032.00
2024-06-07 01:18:03.263159,1,0,-1,0,0,0,68,70,129,130,41,100.44,54,37.00,17.00,-1004.00
2024-06-07 01:18:03.264366,1,0,-1,0,0,0,68,70,129,130,41,100.25,54,-33.00,58.00,-953.00
2024-06-07 01:18:03.407110,1,0,-1,0,0,0,68,70,129,130,40,100.71,54,-24.00,22.00,-894.00
2024-06-07 01:18:03.570371,2,0,-1,0,0,0,67,70,130,130,40,100.34,55,75.00,-31.00,-964.00
2024-06-07 01:18:03.570527,1,0,-1,0,0,0,67,70,131,130,40,100.59,55,106.00,-8.00,-1070.00
2024-06-07 01:18:03.714091,1,0,-1,0,0,0,67,70,131,130,40,100.24,55,13.00,28.00,-1009.00
2024-06-07 01:18:03.877736,1,0,-1,0,0,0,67,70,132,130,40,100.63,55,24.00,-17.00,-1007.00
2024-06-07 01:18:03.878362,0,0,-1,0,0,0,67,70,131,130,40,100.26,55,71.00,-15.00,-1109.00
2024-06-07 01:18:04.020895,0,0,-1,0,0,0,67,70,132,130,40,100.26,55,-28.00,34.00,-1010.00
2024-06-07 01:18:04.185134,1,0,-1,0,0,0,67,70,131,130,40,100.28,55,38.00,8.00,-953.00
2024-06-07 01:18:04.185291,0,0,-1,0,0,0,67,70,130,130,40,100.06,55,14.00,7.00,-959.00
2024-06-07 01:18:04.328254,0,-1,-1,0,0,0,67,70,131,130,40,100.33,55,26.00,10.00,-957.00
2024-06-07 01:18:04.491929,0,-1,-1,0,0,0,67,70,130,130,40,100.18,55,30.00,9.00,-976.00
2024-06-07 01:18:04.492070,0,-1,-1,0,0,0,67,71,130,130,40,100.23,56,61.00,-6.00,-1049.00
2024-06-07 01:18:04.635303,0,-1,-1,0,0,0,67,71,130,130,40,100.18,56,53.00,3.00,-1053.00
2024-06-07 01:18:04.799146,0,0,-1,0,0,0,67,71,130,130,40,100.07,56,45.00,6.00,-964.00
2024-06-07 01:18:04.799342,0,-1,-1,0,0,0,67,71,130,130,40,100.43,56,22.00,0.00,-1068.00
2024-06-07 01:18:04.953446,0,-1,-1,0,0,0,67,71,130,130,40,100.41,56,-29.00,38.00,-1045.00
2024-06-07 01:18:05.018833,0,-1,-1,0,0,0,67,71,130,130,40,100.60,56,34.00,16.00,-969.00
2024-06-07 01:18:05.099067,0,-1,-1,0,0,0,67,71,130,130,40,100.10,56,38.00,7.00,-1016.00
2024-06-07 01:18:05.201012,0,-1,-1,0,0,0,67,71,130,130,40,100.19,56,-58.00,49.00,-889.00
2024-06-07 01:18:05.304229,0,-1,-1,0,0,0,67,71,131,130,40,100.21,56,29.00,1.00,-974.00
2024-06-07 01:18:05.405684,0,0,-1,0,0,0,67,71,131,130,39,100.29,56,-2.00,26.00,-993.00
2024-06-07 01:18:05.508134,1,0,-1,0,0,0,68,71,130,130,39,100.43,57,64.00,24.00,-974.00
2024-06-07 01:18:05.607559,0,0,-1,0,0,0,68,71,131,130,39,100.27,57,44.00,-19.00,-1054.00
2024-06-07 01:18:05.709823,0,-1,-1,0,0,0,68,71,131,130,39,100.24,57,8.00,15.00,-987.00
2024-06-07 01:18:05.760560,0,-1,-1,0,0,0,68,71,131,130,39,100.25,57,12.00,31.00,-995.00
2024-06-07 01:18:05.914624,0,-1,-1,0,0,0,68,71,130,130,39,100.42,57,42.00,14.00,-961.00
2024-06-07 01:18:05.964498,0,-1,-1,0,0,0,68,71,130,130,39,100.27,57,45.00,28.00,-951.00
2024-06-07 01:18:06.119698,0,-1,-1,0,0,0,68,71,131,130,39,100.22,57,28.00,39.00,-984.00
2024-06-07 01:18:06.168893,0,-1,-1,0,0,0,68,71,130,130,39,100.21,57,39.00,8.00,-1005.00
2024-06-07 01:18:06.324296,0,-1,-1,0,0,0,68,71,130,130,39,100.30,57,93.00,-6.00,-1015.00
2024-06-07 01:18:06.374720,0,-1,-1,0,0,0,68,71,129,130,39,100.37,57,83.00,7.00,-1031.00
2024-06-07 01:18:06.474504,0,-1,-1,0,0,0,69,71,129,130,39,100.30,58,15.00,29.00,-932.00
2024-06-07 01:18:06.631404,0,-1,-1,0,0,0,69,71,129,130,39,100.22,58,38.00,12.00,-981.00
2024-06-07 01:18:06.678352,0,-1,-1,0,0,0,69,71,128,130,39,100.41,58,120.00,-9.00,-1021.00
2024-06-07 01:18:06.780539,0,-1,-1,0,0,0,69,71,128,130,39,100.33,58,-36.00,18.00,-924.00
2024-06-07 01:18:06.882344,0,-1,-1,0,0,0,69,71,128,130,39,100.58,58,31.00,-10.00,-1039.00
2024-06-07 01:18:07.041032,0,-1,-1,0,0,0,69,71,128,130,39,100.22,58,83.00,2.00,-1036.00
2024-06-07 01:18:07.086472,0,-1,-1,0,0,0,69,71,126,130,39,100.28,58,-20.00,-14.00,-993.00
2024-06-07 01:18:07.247052,0,-1,-1,0,0,0,69,71,126,130,39,100.49,58,74.00,14.00,-1016.00
2024-06-07 01:18:07.290568,0,-1,-1,0,0,0,69,71,126,130,38,100.30,58,33.00,11.00,-977.00
2024-06-07 01:18:07.392751,0,-1,-1,0,0,0,69,71,126,130,38,100.12,58,-41.00,60.00,-940.00
2024-06-07 01:18:07.553241,0,-1,-1,0,0,0,69,71,127,130,38,100.29,59,84.00,-1.00,-1112.00
2024-06-07 01:18:07.596542,0,-1,-1,0,0,0,69,71,127,130,38,100.12,59,11.00,19.00,-972.00
2024-06-07 01:18:07.757776,0,-1,-1,0,0,0,69,71,127,130,38,100.30,59,40.00,22.00,-1066.00
2024-06-07 01:18:07.800782,0,-1,-1,0,0,0,69,71,128,130,38,100.43,59,-37.00,39.00,-922.00
2024-06-07 01:18:07.962482,0,-1,-1,0,0,0,69,71,128,130,38,100.28,59,112.00,19.00,-1123.00
2024-06-07 01:18:08.004402,1,-1,-1,0,0,0,69,71,128,130,38,100.34,59,37.00,40.00,-1046.00
2024-06-07 01:18:08.167749,0,-1,-1,0,0,0,69,71,127,130,38,100.22,59,31.00,29.00,-1025.00
2024-06-07 01:18:08.208692,0,-1,-1,0,0,0,69,71,127,130,38,100.59,59,67.00,0.00,-1054.00
2024-06-07 01:18:08.310278,0,-1,-1,0,0,0,69,71,127,130,38,100.33,59,38.00,13.00,-1003.00
2024-06-07 01:18:08.412236,0,-1,-1,0,0,0,69,71,126,130,38,100.05,59,18.00,37.00,-946.00
2024-06-07 01:18:08.576780,0,-1,-1,0,0,0,68,72,126,130,38,100.34,60,-41.00,40.00,-946.00
2024-06-07 01:18:08.617102,0,-2,-1,0,0,0,68,72,126,130,38,100.34,60,2.00,10.00,-976.00
2024-06-07 01:18:08.719512,0,-1,-1,0,0,0,68,72,126,130,38,100.30,60,12.00,19.00,-975.00
2024-06-07 01:18:08.822747,0,-1,-1,0,0,0,68,72,125,130,38,100.34,60,29.00,25.00,-979.00
2024-06-07 01:18:08.922196,0,-1,-1,0,0,0,68,72,126,120,38,100.18,60,48.00,30.00,-1011.00
2024-06-07 01:18:09.024219,0,-1,-1,0,0,0,68,72,126,120,38,100.31,60,10.00,27.00,-995.00
2024-06-07 01:18:09.126125,0,-2,-1,0,0,0,68,72,126,120,38,100.10,60,-37.00,47.00,-892.00
2024-06-07 01:18:09.293687,0,-2,-1,0,0,0,68,72,126,130,38,100.42,60,33.00,5.00,-1067.00
2024-06-07 01:18:09.293833,0,-2,-1,0,0,0,68,72,126,130,37,100.36,60,38.00,15.00,-1025.00
2024-06-07 01:18:09.381637,0,-1,-1,0,0,0,68,72,127,130,37,100.57,60,19.00,87.00,-1010.00
2024-06-07 01:18:09.498379,1,-1,-1,1,0,0,69,72,128,130,37,100.20,61,61.00,-5.00,-994.00
2024-06-07 01:18:09.585942,1,-1,-1,1,0,0,69,72,128,130,37,100.15,61,47.00,12.00,-1065.00
2024-06-07 01:18:09.703710,1,-1,-1,0,0,0,69,72,129,130,37,100.26,61,-8.00,21.00,-957.00
2024-06-07 01:18:09.789248,1,-1,-1,0,0,0,69,72,130,130,37,100.38,61,-1.00,0.00,-982.00
2024-06-07 01:18:09.891107,0,-1,-1,0,0,0,69,72,130,130,37,100.48,61,79.00,-8.00,-1071.00
2024-06-07 01:18:10.011007,0,-1,-1,0,0,0,69,72,130,130,37,100.04,61,-31.00,72.00,-975.00
2024-06-07 01:18:10.097609,0,-1,-1,0,0,0,69,72,131,130,37,99.93,61,22.00,16.00,-920.00
2024-06-07 01:18:10.198111,0,-1,-1,0,0,0,69,72,131,130,37,100.23,61,42.00,16.00,-1046.00
2024-06-07 01:18:10.317933,0,-1,-1,0,0,0,69,72,131,130,37,100.46,61,-7.00,64.00,-977.00
2024-06-07 01:18:10.401171,0,-1,-1,0,0,0,69,72,131,130,37,100.55,61,-30.00,57.00,-979.00
2024-06-07 01:18:10.522311,0,-1,-1,0,0,0,68,71,131,130,37,100.14,62,-20.00,53.00,-939.00
2024-06-07 01:18:10.606066,0,-1,-1,0,0,0,68,71,131,130,37,100.06,62,12.00,12.00,-1010.00
2024-06-07 01:18:10.707686,0,-1,-1,0,0,0,68,71,132,130,37,100.29,62,24.00,13.00,-970.00
2024-06-07 01:18:10.810138,0,-2,-1,0,0,0,68,71,132,130,37,100.24,62,-2.00,9.00,-995.00
2024-06-07 01:18:10.912494,1,-1,-1,0,0,0,68,71,132,130,37,100.41,62,10.00,39.00,-982.00
2024-06-07 01:18:11.015042,1,-1,-1,0,0,0,68,71,134,130,37,100.47,62,29.00,22.00,-1081.00
2024-06-07 01:18:11.116492,1,-1,-1,0,0,0,68,71,133,130,37,100.35,62,23.00,-2.00,-1014.00
2024-06-07 01:18:11.217087,1,-1,-1,0,0,0,68,71,134,130,37,100.34,62,-4.00,23.00,-961.00
2024-06-07 01:18:11.319259,1,-1,-1,0,0,0,68,71,133,130,36,100.15,62,12.00,4.00,-1010.00
2024-06-07 01:18:11.444316,1,-1,-1,0,0,0,68,71,133,130,36,100.22,62,24.00,25.00,-992.00
2024-06-07 01:18:11.523113,0,-1,-1,0,0,0,69,71,134,130,36,100.14,63,5.00,62.00,-972.00
2024-06-07 01:18:11.648860,0,-1,-1,0,0,0,69,71,132,130,36,100.41,63,32.00,38.00,-1036.00
2024-06-07 01:18:11.727013,1,-1,-1,0,0,0,69,71,133,130,36,99.98,63,5.00,14.00,-910.00
2024-06-07 01:18:11.853417,1,-1,-1,0,0,0,69,71,132,130,36,100.21,63,39.00,12.00,-1069.00
2024-06-07 01:18:11.930933,1,-1,-1,0,0,0,69,71,132,130,36,100.28,63,81.00,20.00,-1009.00
2024-06-07 01:18:12.058316,0,-1,-1,0,0,0,69,71,131,130,36,100.24,63,-27.00,6.00,-1110.00
2024-06-07 01:18:12.134997,0,-1,-1,0,0,0,69,71,131,130,36,100.26,63,81.00,-5.00,-1080.00
