TS,pitch,roll,yaw,vgx,vgy,vgz,templ,temph,tof,h,bat,baro,time,agx,agy,agz
2024-06-07 01:22:59.627066,0,0,11,0,0,0,76,78,10,0,89,98.66,0,4.00,6.00,-1001.00
2024-06-07 01:22:59.679646,0,0,11,0,0,0,76,78,10,0,89,98.62,0,3.00,6.00,-996.00
2024-06-07 01:22:59.833474,0,0,11,0,0,0,76,78,10,0,89,98.38,0,4.00,7.00,-999.00
2024-06-07 01:22:59.883984,0,0,11,0,0,0,76,78,10,0,89,98.56,0,4.00,5.00,-1000.00
2024-06-07 01:23:00.036413,0,0,11,0,0,0,76,78,10,0,89,98.16,0,4.00,6.00,-1001.00
2024-06-07 01:23:00.087583,0,0,11,0,0,0,76,78,10,0,89,98.65,0,7.00,7.00,-1001.00
2024-06-07 01:23:00.247701,0,0,11,0,0,0,76,78,10,0,89,98.69,0,4.00,5.00,-1001.00
2024-06-07 01:23:00.292883,0,0,11,0,0,0,77,78,10,0,89,98.43,0,6.00,6.00,-1000.00
2024-06-07 01:23:00.446137,0,0,11,0,0,0,77,78,10,0,89,98.46,0,5.00,6.00,-998.00
2024-06-07 01:23:00.498046,0,0,11,0,0,0,77,78,10,0,89,98.49,0,5.00,6.00,-999.00
2024-06-07 01:23:00.598589,0,0,11,0,0,0,77,78,10,0,89,98.70,0,5.00,5.00,-1000.00
2024-06-07 01:23:00.699607,0,0,11,0,0,0,77,78,10,0,89,98.87,0,5.00,6.00,-1001.00
2024-06-07 01:23:00.855942,0,0,11,0,0,0,77,78,10,0,89,98.72,0,6.00,4.00,-1001.00
2024-06-07 01:23:00.903627,0,0,11,0,0,0,77,78,10,0,89,98.57,0,4.00,5.00,-998.00
2024-06-07 01:23:01.060575,0,0,11,0,0,0,77,78,10,0,89,98.59,0,6.00,6.00,-1001.00
2024-06-07 01:23:01.107684,0,0,11,0,0,0,77,78,10,0,89,98.80,0,4.00,5.00,-998.00
2024-06-07 01:23:01.266627,0,0,11,0,0,0,77,78,10,0,89,98.57,0,4.00,6.00,-999.00
2024-06-07 01:23:01.311483,0,0,11,0,0,0,75,78,10,0,89,98.91,0,5.00,5.00,-999.00
2024-06-07 01:23:01.470416,0,0,11,0,0,0,75,78,10,0,89,98.61,0,6.00,6.00,-1000.00
2024-06-07 01:23:01.515591,0,0,11,0,0,0,75,78,10,0,89,98.65,0,5.00,6.00,-1000.00
2024-06-07 01:23:01.674991,0,0,11,0,0,0,75,78,10,0,89,98.50,0,4.00,5.00,-998.00
2024-06-07 01:23:01.719390,0,0,11,0,0,0,75,78,10,0,89,98.99,0,4.00,7.00,-1001.00
2024-06-07 01:23:01.879809,0,0,11,0,0,0,75,78,10,0,89,98.70,0,5.00,6.00,-1004.00
2024-06-07 01:23:01.923635,0,0,11,0,0,0,75,78,10,0,89,98.50,0,5.00,6.00,-1003.00
2024-06-07 01:23:01.974482,0,0,11,0,0,0,75,78,10,0,89,98.78,0,4.00,8.00,-998.00
2024-06-07 01:23:02.076663,0,0,11,0,0,0,75,78,10,0,89,98.88,0,5.00,6.00,-999.00
2024-06-07 01:23:02.178658,0,0,11,0,0,0,75,78,10,0,89,98.61,0,5.00,7.00,-1000.00
2024-06-07 01:23:02.289530,0,0,11,0,0,0,77,78,10,0,89,98.44,0,6.00,6.00,-1000.00
2024-06-07 01:23:02.382591,0,0,11,0,0,0,77,78,10,0,89,98.32,0,5.00,8.00,-1000.00
2024-06-07 01:23:02.500136,0,0,11,0,0,0,77,78,10,0,89,98.27,0,6.00,6.00,-1000.00
2024-06-07 01:23:02.586613,0,0,11,0,0,0,77,78,10,0,89,98.70,0,6.00,5.00,-1000.00
2024-06-07 01:23:02.700686,0,0,11,0,0,0,77,78,10,0,89,98.30,0,4.00,6.00,-999.00
2024-06-07 01:23:02.790773,0,0,11,0,0,0,77,78,10,0,89,98.50,0,4.00,7.00,-1000.00
2024-06-07 01:23:02.905511,0,0,11,0,0,0,77,78,10,0,89,98.51,0,6.00,6.00,-998.00
2024-06-07 01:23:02.995124,0,0,11,0,0,0,77,78,10,0,89,98.65,0,5.00,7.00,-1000.00
2024-06-07 01:23:03.110175,0,0,11,0,0,0,77,78,10,0,89,98.63,0,5.00,6.00,-998.00
2024-06-07 01:23:03.198608,0,0,11,0,0,0,77,78,10,0,89,98.20,0,5.00,6.00,-999.00
2024-06-07 01:23:03.319276,0,0,11,0,0,0,77,78,10,0,89,98.51,0,5.00,6.00,-1002.00
2024-06-07 01:23:03.402453,0,0,11,0,0,0,77,78,10,0,89,98.44,0,5.00,6.00,-998.00
2024-06-07 01:23:03.518075,0,0,11,0,0,0,77,78,10,0,89,98.59,0,5.00,7.00,-999.00
2024-06-07 01:23:03.606444,0,0,11,0,0,0,77,78,10,0,89,98.80,0,6.00,6.00,-1001.00
2024-06-07 01:23:03.724705,0,0,11,0,0,0,77,78,10,0,89,98.48,0,5.00,6.00,-1003.00
2024-06-07 01:23:03.810451,0,0,11,0,0,0,77,78,10,0,89,98.41,0,6.00,6.00,-997.00
2024-06-07 01:23:03.912415,0,0,11,0,0,0,77,78,10,0,89,98.37,0,6.00,4.00,-1001.00
2024-06-07 01:23:04.117789,0,0,11,0,0,0,77,78,10,0,89,98.50,0,5.00,5.00,-998.00
2024-06-07 01:23:04.124676,0,0,11,0,0,0,77,78,10,0,89,98.53,0,4.00,6.00,-999.00
2024-06-07 01:23:04.260306,0,0,11,0,0,0,77,78,10,0,89,99.01,0,6.00,7.00,-998.00
2024-06-07 01:23:04.393301,0,0,11,0,0,0,76,79,10,0,89,98.57,0,4.00,5.00,-1000.00
2024-06-07 01:23:04.422439,0,0,11,0,0,0,76,79,10,0,89,98.37,0,5.00,8.00,-1001.00
2024-06-07 01:23:04.566785,0,0,11,0,0,0,76,79,10,0,89,98.85,0,4.00,5.00,-1000.00
2024-06-07 01:23:04.702837,0,0,11,0,0,0,76,79,10,0,89,98.69,0,4.00,6.00,-1003.00
2024-06-07 01:23:04.702911,0,0,11,0,0,0,76,79,10,0,89,98.76,0,5.00,6.00,-1000.00
2024-06-07 01:23:04.850914,0,0,11,0,0,0,76,79,10,0,89,98.46,0,6.00,6.00,-998.00
2024-06-07 01:23:04.993504,0,0,11,0,0,0,76,79,10,0,89,98.17,0,3.00,6.00,-998.00
2024-06-07 01:23:04.993656,0,0,11,0,0,0,76,79,10,0,89,98.66,0,5.00,5.00,-1001.00
2024-06-07 01:23:05.172783,0,0,11,0,0,0,76,79,10,0,89,98.53,0,6.00,5.00,-999.00
2024-06-07 01:23:05.187197,0,0,11,0,0,0,76,79,10,0,89,98.39,0,4.00,5.00,-998.00
2024-06-07 01:23:05.312751,0,0,11,0,0,0,76,80,10,0,89,98.72,0,6.00,7.00,-999.00
2024-06-07 01:23:05.477157,0,0,11,0,0,0,76,80,10,0,89,98.60,0,6.00,5.00,-1000.00
2024-06-07 01:23:05.492845,0,0,11,0,0,0,76,80,10,0,89,98.37,0,5.00,6.00,-998.00
2024-06-07 01:23:05.615242,0,0,11,0,0,0,76,80,10,0,89,98.60,0,2.00,7.00,-1002.00
2024-06-07 01:23:05.799715,0,0,11,0,0,0,76,80,10,0,89,98.45,0,-9.00,17.00,-1004.00
2024-06-07 01:23:05.799792,0,0,11,0,0,0,76,80,10,0,89,98.45,0,1.00,25.00,-996.00
2024-06-07 01:23:05.943508,0,0,12,0,0,0,76,80,10,0,89,98.45,0,40.00,30.00,-1004.00
2024-06-07 01:23:06.091025,0,0,13,0,0,0,76,80,10,0,89,98.45,0,28.00,31.00,-883.00
2024-06-07 01:23:06.105020,0,0,13,0,0,0,76,80,10,0,89,98.45,0,171.00,-60.00,-1143.00
2024-06-07 01:23:06.234746,0,0,14,1,0,-1,76,80,10,0,89,98.45,0,10.00,11.00,-1303.00
2024-06-07 01:23:06.411552,3,1,14,1,0,-4,77,80,10,0,89,98.45,0,-51.00,52.00,-1133.00
2024-06-07 01:23:06.411599,4,0,14,0,0,-7,77,80,16,0,89,98.94,0,43.00,17.00,-1444.00
2024-06-07 01:23:06.539237,2,0,14,0,0,-8,77,80,23,10,89,99.27,0,4.00,45.00,-1395.00
2024-06-07 01:23:06.706558,2,0,14,0,0,-8,77,80,30,20,89,98.95,1,143.00,-30.00,-1244.00
2024-06-07 01:23:06.716890,2,0,14,0,0,-7,77,80,32,30,89,99.05,1,162.00,-56.00,-1003.00
2024-06-07 01:23:06.896948,2,0,14,0,0,-6,77,80,37,30,89,99.25,1,76.00,18.00,-908.00
2024-06-07 01:23:06.921432,2,0,14,0,0,-4,77,80,41,30,89,99.12,1,99.00,-61.00,-1009.00
2024-06-07 01:23:07.101694,1,-1,14,0,0,-3,77,80,43,40,89,98.95,1,-27.00,43.00,-755.00
2024-06-07 01:23:07.124887,2,0,14,0,0,-3,77,80,45,40,89,99.26,1,-17.00,17.00,-989.00
2024-06-07 01:23:07.306508,3,0,14,0,0,-2,77,80,46,40,89,99.30,1,11.00,28.00,-908.00
2024-06-07 01:23:07.328801,2,0,14,0,0,-1,77,80,46,40,89,99.21,1,24.00,26.00,-1029.00
2024-06-07 01:23:07.511234,2,0,14,0,0,-1,77,80,47,40,89,99.17,1,-19.00,78.00,-971.00
2024-06-07 01:23:07.532796,2,0,14,0,0,-1,77,80,47,40,88,99.40,1,88.00,-3.00,-985.00
2024-06-07 01:23:07.717887,2,0,14,0,0,-1,77,80,47,40,88,99.28,2,3.00,36.00,-1024.00
2024-06-07 01:23:07.736795,2,0,14,0,0,-2,77,80,48,40,88,99.31,2,26.00,2.00,-1030.00
2024-06-07 01:23:07.920875,2,0,14,0,0,-2,77,80,49,40,88,99.30,2,15.00,32.00,-946.00
2024-06-07 01:23:07.940617,2,0,14,0,0,-2,77,80,49,40,88,99.45,2,-1.00,18.00,-1020.00
2024-06-07 01:23:08.122123,2,0,14,0,0,-2,77,80,50,50,88,98.96,2,118.00,-59.00,-1180.00
2024-06-07 01:23:08.144705,2,0,14,0,0,-3,77,80,50,50,88,99.20,2,48.00,15.00,-924.00
2024-06-07 01:23:08.195943,2,0,14,0,0,-3,77,80,51,50,88,99.43,2,45.00,20.00,-977.00
2024-06-07 01:23:08.348693,2,0,14,0,0,-3,77,80,51,50,88,99.01,2,24.00,-14.00,-1068.00
2024-06-07 01:23:08.535245,1,0,14,0,0,-3,77,80,51,60,88,99.33,2,48.00,28.00,-1103.00
2024-06-07 01:23:08.535306,2,0,14,0,0,-2,77,80,50,60,88,99.37,2,63.00,3.00,-990.00
2024-06-07 01:23:08.605932,2,0,14,0,0,-2,77,80,48,60,88,99.34,3,36.00,16.00,-1037.00
2024-06-07 01:23:08.705849,3,0,14,0,0,-2,77,80,47,70,88,99.20,3,72.00,-4.00,-1107.00
2024-06-07 01:23:08.842436,2,0,14,0,0,-3,77,80,46,70,88,99.19,3,46.00,32.00,-1013.00
2024-06-07 01:23:08.909894,2,0,14,0,0,-2,77,80,45,70,88,99.30,3,-17.00,59.00,-983.00
2024-06-07 01:23:09.047225,2,0,14,0,0,-3,77,80,44,70,88,98.98,3,28.00,14.00,-949.00
2024-06-07 01:23:09.113865,2,0,14,0,0,-3,77,80,43,70,88,99.21,3,96.00,-38.00,-1085.00
2024-06-07 01:23:09.252046,2,0,14,0,0,-3,77,80,42,80,88,99.30,3,-68.00,37.00,-920.00
2024-06-07 01:23:09.318493,2,0,14,0,0,-3,77,79,40,80,88,98.94,3,81.00,13.00,-891.00
2024-06-07 01:23:09.458788,2,0,14,0,0,-2,77,79,39,80,88,98.89,3,62.00,32.00,-1013.00
2024-06-07 01:23:09.521919,2,0,14,0,0,-3,77,79,38,80,88,99.04,3,103.00,-14.00,-962.00
2024-06-07 01:23:09.663461,2,0,14,0,0,-3,77,79,36,80,88,99.36,4,77.00,-39.00,-1146.00
2024-06-07 01:23:09.725833,2,0,14,0,0,-3,77,79,34,90,88,99.09,4,-77.00,72.00,-928.00
2024-06-07 01:23:09.867001,2,0,14,0,0,-3,77,79,32,90,88,99.08,4,78.00,0.00,-1011.00
2024-06-07 01:23:09.929898,2,0,14,0,0,-3,77,79,30,90,88,98.99,4,89.00,-15.00,-1192.00
2024-06-07 01:23:10.032355,2,0,14,0,0,-3,77,79,28,90,88,99.17,4,6.00,5.00,-1095.00
2024-06-07 01:23:10.133876,2,0,14,0,0,-3,77,79,26,90,88,98.99,4,32.00,35.00,-937.00
2024-06-07 01:23:10.276477,2,0,14,0,0,-3,77,79,24,90,88,98.98,4,56.00,4.00,-1029.00
2024-06-07 01:23:10.337897,2,0,14,0,0,-3,77,80,22,90,88,99.08,4,-8.00,12.00,-1106.00
2024-06-07 01:23:10.480745,2,0,14,0,0,-3,77,80,20,90,88,99.10,4,40.00,1.00,-1083.00
2024-06-07 01:23:10.541984,1,0,13,0,0,-4,77,80,23,100,88,99.15,4,71.00,8.00,-998.00
2024-06-07 01:23:10.685547,1,0,13,0,0,-4,77,80,21,100,88,98.85,5,69.00,2.00,-1064.00
2024-06-07 01:23:10.745698,1,0,14,0,0,-4,77,80,20,100,88,98.78,5,-3.00,18.00,-964.00
2024-06-07 01:23:10.890356,2,0,13,0,0,-4,77,80,19,90,88,99.00,5,54.00,18.00,-985.00
2024-06-07 01:23:10.949737,2,0,14,0,0,-4,77,80,18,90,88,98.82,5,37.00,22.00,-920.00
2024-06-07 01:23:11.101543,2,0,14,0,0,-4,77,80,17,90,88,98.82,5,85.00,-33.00,-1053.00
2024-06-07 01:23:11.153880,1,0,14,0,0,-4,77,80,16,90,88,98.55,5,5.00,14.00,-1059.00
2024-06-07 01:23:11.300183,1,0,14,0,0,-4,77,80,16,90,88,98.65,5,88.00,4.00,-987.00
2024-06-07 01:23:11.357948,1,0,14,0,0,-4,76,80,16,90,88,98.53,5,54.00,42.00,-983.00
2024-06-07 01:23:11.511087,1,0,13,0,0,-4,76,80,16,90,88,98.78,5,-9.00,37.00,-1126.00
2024-06-07 01:23:11.561791,1,0,13,0,0,-4,76,80,17,90,88,98.77,5,7.00,21.00,-1005.00
2024-06-07 01:23:11.709602,1,-1,13,0,0,-4,76,80,18,90,88,98.85,6,-25.00,44.00,-936.00
2024-06-07 01:23:11.767197,1,-1,14,0,0,-4,76,80,18,90,88,99.05,6,60.00,36.00,-901.00
2024-06-07 01:23:11.867829,1,0,13,0,0,-4,76,80,19,100,88,98.88,6,27.00,22.00,-1041.00
2024-06-07 01:23:11.918488,1,0,13,0,0,-4,76,80,20,100,88,98.86,6,-48.00,104.00,-884.00
2024-06-07 01:23:12.020423,1,0,13,0,0,-5,76,80,22,100,88,98.74,6,23.00,23.00,-898.00
2024-06-07 01:23:12.122715,2,0,14,0,0,-4,76,80,23,100,88,98.85,6,38.00,16.00,-971.00
2024-06-07 01:23:12.224491,3,1,14,0,0,-4,76,80,24,100,88,98.95,6,33.00,26.00,-1077.00
2024-06-07 01:23:12.326725,2,0,14,0,0,-5,76,80,25,100,88,99.05,6,38.00,-18.00,-967.00
2024-06-07 01:23:12.428337,2,0,14,0,0,-4,76,80,26,100,88,99.27,6,37.00,9.00,-987.00
2024-06-07 01:23:12.530462,2,0,14,0,0,-4,76,80,26,100,88,99.11,6,-1.00,27.00,-1055.00
2024-06-07 01:23:12.733561,2,0,13,0,0,-4,76,80,27,110,88,99.13,7,35.00,10.00,-982.00
2024-06-07 01:23:12.734448,2,0,13,0,0,-4,76,80,28,100,88,98.97,7,29.00,26.00,-1031.00
2024-06-07 01:23:12.849569,2,0,13,0,0,-4,76,80,28,100,88,98.73,7,110.00,-20.00,-1113.00
2024-06-07 01:23:12.940310,2,0,13,0,0,-4,76,80,29,100,88,99.10,7,20.00,29.00,-1065.00
2024-06-07 01:23:13.040818,1,0,13,0,0,-3,76,80,30,100,88,99.12,7,15.00,-19.00,-1112.00
2024-06-07 01:23:13.142820,1,0,13,0,0,-3,76,80,31,100,88,99.07,7,77.00,16.00,-1065.00
2024-06-07 01:23:13.245512,1,0,14,0,0,-3,76,80,32,100,88,99.26,7,-10.00,28.00,-929.00
2024-06-07 01:23:13.348437,2,0,13,0,0,-3,77,79,32,100,88,99.04,7,-24.00,0.00,-947.00
2024-06-07 01:23:13.450412,2,0,13,0,0,0,77,79,31,100,88,98.93,7,-46.00,68.00,-913.00
2024-06-07 01:23:13.550283,2,0,14,0,0,0,77,79,30,100,88,99.11,8,74.00,-20.00,-898.00
2024-06-07 01:23:13.655104,2,0,14,0,0,0,77,79,30,100,88,99.13,8,-26.00,65.00,-950.00
2024-06-07 01:23:13.754420,1,0,14,0,0,0,77,79,29,100,88,99.08,8,105.00,-13.00,-927.00
2024-06-07 01:23:13.862672,2,0,14,0,0,0,77,79,28,100,88,98.96,8,67.00,28.00,-963.00
2024-06-07 01:23:13.962506,2,0,14,0,0,0,77,79,27,100,88,99.12,8,41.00,7.00,-1094.00
2024-06-07 01:23:14.060231,1,0,14,0,0,0,77,79,26,100,88,98.93,8,-57.00,77.00,-891.00
2024-06-07 01:23:14.162404,1,0,13,0,0,0,77,79,26,90,88,98.99,8,149.00,-18.00,-1040.00
2024-06-07 01:23:14.269641,1,0,13,0,0,0,77,79,25,90,88,98.90,8,0.00,20.00,-1002.00
2024-06-07 01:23:14.366389,1,0,13,0,0,0,77,79,25,90,88,98.81,8,-22.00,57.00,-928.00
2024-06-07 01:23:14.474506,1,0,14,0,0,0,77,79,24,90,88,99.00,8,123.00,-16.00,-1091.00
2024-06-07 01:23:14.570466,1,0,14,0,0,0,77,79,24,90,88,98.84,9,-45.00,16.00,-966.00
2024-06-07 01:23:14.679497,2,0,14,0,0,0,77,79,24,90,88,98.99,9,-15.00,5.00,-985.00
2024-06-07 01:23:14.774287,2,0,13,0,0,0,77,79,24,90,88,99.03,9,91.00,0.00,-949.00
2024-06-07 01:23:14.884044,2,0,13,0,0,0,77,79,24,90,88,98.78,9,14.00,2.00,-1006.00
2024-06-07 01:23:14.978242,2,0,14,0,0,0,77,79,24,90,88,99.12,9,61.00,7.00,-980.00
2024-06-07 01:23:15.088805,2,0,14,0,0,0,77,79,24,90,88,98.99,9,54.00,0.00,-908.00
2024-06-07 01:23:15.182407,2,0,14,0,0,0,77,79,25,90,88,99.04,9,-39.00,19.00,-1056.00
2024-06-07 01:23:15.293623,2,0,13,0,0,0,77,79,26,100,88,99.15,9,115.00,18.00,-955.00
2024-06-07 01:23:15.386177,2,0,13,0,0,0,77,80,27,100,88,99.10,9,82.00,0.00,-1069.00
2024-06-07 01:23:15.498338,2,0,14,0,0,0,77,80,27,100,88,99.07,9,83.00,-23.00,-1078.00
2024-06-07 01:23:15.590146,2,0,14,0,0,0,77,80,28,100,88,99.17,10,-1.00,12.00,-1181.00
2024-06-07 01:23:15.703305,2,0,14,0,0,0,77,80,28,100,88,99.13,10,36.00,5.00,-908.00
2024-06-07 01:23:15.743446,2,0,14,0,0,0,77,80,29,100,88,98.96,10,-22.00,50.00,-980.00
2024-06-07 01:23:15.908497,1,0,14,0,0,0,77,80,29,100,88,99.33,10,132.00,-8.00,-1029.00
2024-06-07 01:23:15.947441,2,0,14,0,0,0,77,80,29,100,88,99.36,10,50.00,-2.00,-1017.00
2024-06-07 01:23:16.112746,2,0,14,0,0,0,77,80,28,100,88,99.08,10,-20.00,25.00,-1077.00
2024-06-07 01:23:16.151363,2,0,14,0,0,0,77,80,29,100,88,99.14,10,98.00,8.00,-946.00
2024-06-07 01:23:16.270889,1,0,14,0,0,0,77,80,29,100,88,99.17,10,32.00,1.00,-1018.00
2024-06-07 01:23:16.355920,2,0,14,0,0,0,76,80,28,100,88,99.17,10,53.00,-6.00,-1151.00
2024-06-07 01:23:16.522202,1,0,14,0,0,0,76,80,29,100,88,98.99,10,31.00,-5.00,-1050.00
2024-06-07 01:23:16.560075,1,0,14,0,0,-1,76,80,30,100,88,99.12,11,50.00,11.00,-1109.00
2024-06-07 01:23:16.726898,1,0,14,0,0,-2,76,80,33,100,88,99.18,11,-1.00,12.00,-1102.00
2024-06-07 01:23:16.764053,1,0,13,0,0,-3,76,80,31,100,88,99.28,11,29.00,8.00,-1030.00
2024-06-07 01:23:16.931761,2,0,13,0,0,-4,76,80,35,110,88,99.20,11,60.00,-20.00,-1107.00
2024-06-07 01:23:16.967968,1,0,13,0,0,-5,76,80,40,110,88,99.18,11,30.00,20.00,-946.00
2024-06-07 01:23:17.126778,2,0,13,0,0,-5,76,80,44,120,88,99.22,11,-26.00,26.00,-968.00
2024-06-07 01:23:17.172006,2,0,13,0,0,-4,76,80,48,120,88,99.11,11,72.00,16.00,-960.00
2024-06-07 01:23:17.274302,2,0,13,0,0,-5,76,80,52,130,88,99.52,11,65.00,-34.00,-1047.00
2024-06-07 01:23:17.375889,1,0,14,0,0,-5,77,80,56,130,88,99.41,11,24.00,14.00,-1033.00
2024-06-07 01:23:17.548049,1,0,14,0,0,-4,77,80,61,140,88,99.58,11,54.00,-5.00,-1142.00
2024-06-07 01:23:17.582724,1,-1,14,0,0,-4,77,80,65,140,87,99.41,12,97.00,-12.00,-847.00
2024-06-07 01:23:17.682132,1,0,14,0,0,-4,77,80,69,140,87,99.31,12,120.00,0.00,-1032.00
2024-06-07 01:23:17.853312,1,0,14,0,0,-4,77,80,73,150,87,99.47,12,50.00,46.00,-893.00
2024-06-07 01:23:17.885889,1,-1,14,0,0,-4,77,80,77,150,87,99.53,12,55.00,-7.00,-948.00
2024-06-07 01:23:18.058131,1,-1,14,0,0,-3,77,80,81,150,87,99.40,12,140.00,-73.00,-1120.00
2024-06-07 01:23:18.089943,1,0,14,0,0,-3,77,80,85,160,87,99.77,12,65.00,0.00,-1031.00
2024-06-07 01:23:18.262840,1,0,14,0,0,-3,77,80,89,160,87,99.86,12,-37.00,63.00,-953.00
2024-06-07 01:23:18.293919,1,0,14,0,0,-3,77,80,92,160,87,99.95,12,-25.00,53.00,-984.00
2024-06-07 01:23:18.396724,1,0,14,0,0,-3,76,79,96,170,87,99.44,12,-15.00,46.00,-940.00
2024-06-07 01:23:18.570029,2,0,14,0,0,-3,76,79,98,170,87,99.70,12,9.00,20.00,-973.00
2024-06-07 01:23:18.599907,2,0,14,0,0,-3,76,79,101,170,87,100.18,13,22.00,20.00,-913.00
2024-06-07 01:23:18.879270,2,0,14,0,0,-2,76,79,104,180,87,99.83,13,-12.00,29.00,-938.00
2024-06-07 01:23:18.879703,2,0,14,0,0,-2,76,79,105,180,87,99.90,13,22.00,-8.00,-868.00
2024-06-07 01:23:18.905796,1,0,14,0,0,-2,76,79,106,180,87,99.85,13,41.00,8.00,-951.00
2024-06-07 01:23:19.119518,2,0,14,0,0,-1,76,79,107,180,87,99.78,13,77.00,-12.00,-1000.00
2024-06-07 01:23:19.119789,2,0,14,0,0,-1,76,79,108,180,87,99.76,13,43.00,15.00,-957.00
2024-06-07 01:23:19.301555,1,0,14,0,0,-1,76,79,108,180,87,99.66,13,2.00,23.00,-852.00
2024-06-07 01:23:19.301617,2,0,14,0,0,-1,76,79,109,180,87,99.81,13,30.00,-8.00,-902.00
2024-06-07 01:23:19.452982,1,0,13,0,0,0,77,79,108,190,87,99.83,13,39.00,38.00,-856.00
2024-06-07 01:23:19.571237,1,0,14,0,0,0,77,79,108,190,86,99.54,13,147.00,-1.00,-1113.00
2024-06-07 01:23:19.644175,1,-1,13,0,0,0,77,79,107,190,86,99.78,14,-23.00,42.00,-973.00
2024-06-07 01:23:19.746872,1,-1,13,0,0,0,77,79,107,180,86,100.09,14,9.00,-8.00,-879.00
2024-06-07 01:23:19.772954,1,-1,13,0,0,0,77,79,107,180,86,99.76,14,55.00,-16.00,-1064.00
2024-06-07 01:23:19.928415,1,0,13,0,0,0,77,79,107,180,86,99.81,14,18.00,32.00,-933.00
2024-06-07 01:23:19.977014,1,0,13,0,0,0,77,79,108,180,86,99.74,14,102.00,24.00,-1022.00
2024-06-07 01:23:20.143072,1,0,13,0,0,0,77,79,108,180,86,99.95,14,29.00,10.00,-993.00
2024-06-07 01:23:20.220992,1,0,13,0,0,0,77,79,108,180,86,99.99,14,-1.00,15.00,-1057.00
2024-06-07 01:23:20.364375,1,-1,13,0,0,0,77,79,109,190,86,99.79,14,41.00,-4.00,-996.00
2024-06-07 01:23:20.385205,1,-1,13,0,0,0,77,80,109,190,86,99.70,14,4.00,12.00,-1090.00
2024-06-07 01:23:20.526286,2,0,13,0,0,0,77,80,110,190,86,99.89,14,-1.00,23.00,-974.00
2024-06-07 01:23:20.669837,1,0,13,0,0,0,77,80,111,190,86,99.74,15,-71.00,79.00,-923.00
2024-06-07 01:23:20.690926,1,-1,13,0,0,0,77,80,112,190,86,99.99,15,-39.00,25.00,-951.00
2024-06-07 01:23:20.834780,1,-1,13,0,0,0,77,80,113,190,86,99.82,15,70.00,-27.00,-1019.00
2024-06-07 01:23:20.979805,1,-1,13,0,0,0,77,80,114,190,86,100.03,15,110.00,-19.00,-1053.00
2024-06-07 01:23:20.997016,1,0,13,0,0,0,77,80,115,190,86,99.90,15,65.00,4.00,-897.00
2024-06-07 01:23:21.140772,2,0,14,0,0,0,77,80,117,190,86,99.94,15,115.00,-26.00,-1083.00
2024-06-07 01:23:21.298251,1,0,14,0,0,0,77,80,118,190,86,100.01,15,12.00,24.00,-915.00
2024-06-07 01:23:21.302963,1,0,14,0,0,0,77,80,118,190,86,99.92,15,1.00,52.00,-979.00
2024-06-07 01:23:21.404959,1,0,14,0,0,0,77,79,118,190,86,99.82,15,66.00,25.00,-842.00
2024-06-07 01:23:21.539559,1,-1,14,0,0,0,77,79,119,190,85,99.96,15,59.00,37.00,-887.00
2024-06-07 01:23:21.608973,1,-1,14,0,0,0,77,79,118,190,85,99.96,16,14.00,18.00,-1016.00
2024-06-07 01:23:21.746478,1,-1,14,0,0,0,77,79,119,190,85,100.01,16,-24.00,38.00,-995.00
2024-06-07 01:23:21.812979,1,0,14,0,0,0,77,79,119,190,85,99.86,16,7.00,55.00,-862.00
2024-06-07 01:23:21.914828,2,0,14,0,0,0,77,79,119,190,85,99.77,16,65.00,-9.00,-954.00
2024-06-07 01:23:22.051701,2,0,14,0,0,0,77,79,118,190,85,99.76,16,26.00,17.00,-1008.00
2024-06-07 01:23:22.119317,1,-1,14,0,0,0,77,79,118,190,85,99.88,16,95.00,13.00,-1013.00
2024-06-07 01:23:22.256785,1,-1,14,0,0,0,77,79,118,190,85,99.85,16,47.00,17.00,-879.00
2024-06-07 01:23:22.323659,1,0,14,0,0,0,77,79,117,190,85,99.86,16,-31.00,32.00,-988.00
2024-06-07 01:23:22.425845,1,0,14,0,0,0,76,79,116,190,85,99.86,16,13.00,5.00,-944.00
2024-06-07 01:23:22.528004,2,0,14,0,0,0,76,79,114,190,85,99.72,16,82.00,5.00,-1075.00
2024-06-07 01:23:22.629691,2,0,14,0,0,0,76,79,113,190,85,100.24,17,86.00,-25.00,-1015.00
2024-06-07 01:23:22.731550,2,0,14,0,0,1,76,79,110,190,85,99.87,17,65.00,-4.00,-885.00
2024-06-07 01:23:22.833514,2,0,14,0,0,0,76,79,109,190,85,100.10,17,60.00,-8.00,-1109.00
2024-06-07 01:23:22.885422,2,0,14,0,0,0,76,79,108,180,85,99.74,17,22.00,36.00,-1054.00
2024-06-07 01:23:23.077687,2,0,13,0,0,1,76,79,106,180,85,99.86,17,48.00,-1.00,-961.00
2024-06-07 01:23:23.088743,2,-1,13,0,0,1,76,79,104,180,85,99.68,17,3.00,14.00,-958.00
2024-06-07 01:23:23.190835,1,-1,14,0,0,2,76,79,102,180,85,99.89,17,102.00,-18.00,-1047.00
2024-06-07 01:23:23.382632,1,-1,14,0,0,2,76,79,99,180,85,99.95,17,21.00,22.00,-942.00
2024-06-07 01:23:23.445454,1,0,14,0,0,2,77,80,95,170,85,99.73,17,88.00,-14.00,-975.00
2024-06-07 01:23:23.496742,1,-1,13,0,0,2,77,80,92,170,85,99.67,17,36.00,4.00,-1009.00
2024-06-07 01:23:23.690256,1,-1,14,0,0,3,77,80,88,170,85,99.86,18,50.00,-1.00,-1013.00
2024-06-07 01:23:23.700462,0,-1,14,0,0,3,77,80,85,160,85,99.88,18,46.00,0.00,-947.00
2024-06-07 01:23:23.894682,0,-2,13,0,0,3,77,80,82,160,85,99.70,18,7.00,1.00,-1006.00
2024-06-07 01:23:23.904563,0,-2,13,0,0,2,77,80,78,160,85,99.46,18,-54.00,98.00,-900.00
2024-06-07 01:23:24.099416,1,-1,13,0,0,2,77,80,75,150,85,99.49,18,12.00,22.00,-1049.00
2024-06-07 01:23:24.108545,1,-1,13,0,0,2,77,80,72,150,85,99.50,18,-58.00,61.00,-1057.00
2024-06-07 01:23:24.304999,1,-1,13,0,0,2,77,80,69,150,85,99.46,18,-28.00,40.00,-953.00
2024-06-07 01:23:24.312580,1,-1,13,0,0,2,77,80,67,150,85,99.44,18,9.00,38.00,-957.00
2024-06-07 01:23:24.414535,2,0,13,0,0,1,77,79,65,140,85,99.43,18,32.00,20.00,-924.00
2024-06-07 01:23:24.613760,2,0,14,0,0,1,77,79,64,140,84,99.51,18,67.00,0.00,-1034.00
2024-06-07 01:23:24.618883,2,0,14,0,0,1,77,79,63,140,84,99.33,19,-59.00,51.00,-989.00
2024-06-07 01:23:24.816602,1,-1,14,0,0,0,77,79,63,140,84,99.38,19,75.00,-17.00,-1060.00
2024-06-07 01:23:24.822659,1,-1,14,0,0,0,77,79,63,140,84,99.61,19,-37.00,56.00,-948.00
2024-06-07 01:23:24.924775,1,-1,14,0,0,0,77,79,63,140,84,99.30,19,65.00,47.00,-1116.00
2024-06-07 01:23:25.026728,1,-1,14,0,0,0,77,79,62,140,84,99.63,19,52.00,-5.00,-1069.00
2024-06-07 01:23:25.128655,1,-1,14,0,0,0,77,79,62,140,84,99.31,19,-10.00,3.00,-992.00
2024-06-07 01:23:25.230725,1,0,14,0,0,0,77,79,61,140,84,99.38,19,-42.00,21.00,-874.00
2024-06-07 01:23:25.332745,2,0,14,0,0,0,77,79,61,140,84,99.45,19,4.00,20.00,-942.00
2024-06-07 01:23:25.434604,2,0,14,0,0,0,76,80,60,140,84,99.51,19,19.00,32.00,-933.00
2024-06-07 01:23:25.536634,2,0,14,0,0,0,76,80,58,140,84,99.32,19,86.00,-5.00,-1000.00
2024-06-07 01:23:25.638566,2,0,14,0,0,0,76,80,57,140,84,99.18,20,8.00,25.00,-973.00
2024-06-07 01:23:25.744293,2,-1,14,0,0,0,76,80,56,140,84,99.38,20,106.00,-32.00,-966.00
2024-06-07 01:23:25.844214,2,-1,14,0,0,0,76,80,55,130,84,99.46,20,81.00,-28.00,-1115.00
2024-06-07 01:23:25.944434,1,-1,14,0,0,0,76,80,54,130,84,99.16,20,100.00,5.00,-1009.00
2024-06-07 01:23:26.147436,1,-1,14,0,0,0,76,80,54,130,84,99.34,20,-28.00,25.00,-1022.00
2024-06-07 01:23:26.148451,1,-1,14,0,0,0,76,80,53,130,84,99.16,20,7.00,57.00,-1061.00
2024-06-07 01:23:26.250558,1,-1,14,0,0,0,76,80,53,130,84,99.57,20,-4.00,9.00,-1002.00
2024-06-07 01:23:26.353260,2,-1,14,0,0,0,76,80,53,130,84,99.56,20,103.00,-11.00,-1021.00
2024-06-07 01:23:26.454616,2,-1,14,0,0,0,77,79,53,130,84,99.35,20,10.00,32.00,-1195.00
2024-06-07 01:23:26.557060,1,-1,14,0,0,0,77,79,53,130,83,99.30,20,-36.00,47.00,-951.00
2024-06-07 01:23:26.659053,1,0,14,0,0,-1,77,79,53,130,83,99.51,21,59.00,12.00,-890.00
2024-06-07 01:23:26.767662,1,0,14,0,0,0,77,79,53,130,83,99.27,21,21.00,35.00,-1052.00
2024-06-07 01:23:26.811174,0,0,14,0,0,0,77,79,53,130,83,99.67,21,-19.00,55.00,-984.00
2024-06-07 01:23:26.968566,-5,-1,14,0,0,0,77,79,52,130,83,99.21,21,53.00,-4.00,-950.00
2024-06-07 01:23:27.015141,-6,-1,14,1,0,0,77,79,53,130,83,99.45,21,75.00,23.00,-1008.00
2024-06-07 01:23:27.171371,-7,-1,14,3,1,0,77,79,53,130,83,99.36,21,21.00,-2.00,-1006.00
2024-06-07 01:23:27.219074,-6,-1,14,4,1,0,77,79,53,130,83,99.06,21,-29.00,41.00,-1051.00
2024-06-07 01:23:27.376510,-6,-1,14,5,1,0,77,79,54,130,83,99.29,21,-32.00,34.00,-902.00
2024-06-07 01:23:27.423146,-5,0,14,6,1,0,77,81,54,130,83,99.53,21,24.00,35.00,-1080.00
2024-06-07 01:23:27.583349,-4,-1,14,7,1,0,77,81,54,130,83,98.99,21,-28.00,35.00,-1004.00
2024-06-07 01:23:27.626941,-3,0,14,7,1,0,77,81,54,130,83,99.68,22,-35.00,26.00,-1080.00
2024-06-07 01:23:27.787812,-1,0,14,8,1,0,77,81,55,130,83,99.39,22,31.00,8.00,-1023.00
2024-06-07 01:23:27.831038,1,0,13,7,1,0,77,81,56,130,83,99.45,22,52.00,-71.00,-1113.00
2024-06-07 01:23:27.992440,4,0,13,7,1,0,77,81,57,130,83,99.44,22,-56.00,42.00,-955.00
2024-06-07 01:23:28.042218,6,0,13,6,1,0,77,81,58,140,83,99.38,22,-4.00,5.00,-970.00
2024-06-07 01:23:28.137068,6,0,13,5,1,0,77,81,59,140,83,99.62,22,61.00,-16.00,-1123.00
2024-06-07 01:23:28.297934,4,-1,13,4,1,0,77,81,60,140,83,99.43,22,-5.00,42.00,-1018.00
2024-06-07 01:23:28.341263,3,-1,13,3,1,0,77,81,61,140,83,99.34,22,42.00,10.00,-1026.00
2024-06-07 01:23:28.604914,2,-2,13,3,0,0,76,80,62,140,83,99.36,22,-34.00,33.00,-949.00
2024-06-07 01:23:28.604964,2,-2,13,2,0,0,76,80,63,140,83,99.22,22,-5.00,7.00,-976.00
2024-06-07 01:23:28.648030,1,-1,13,2,0,0,76,80,64,140,83,99.66,23,42.00,-2.00,-1020.00
2024-06-07 01:23:28.809685,1,-1,13,2,0,0,76,80,65,140,83,99.69,23,40.00,38.00,-1070.00
2024-06-07 01:23:28.852269,1,-1,13,2,0,0,76,80,66,140,83,99.37,23,9.00,1.00,-1067.00
2024-06-07 01:23:29.016463,1,-1,13,2,0,0,76,80,66,140,83,99.43,23,21.00,12.00,-963.00
2024-06-07 01:23:29.056294,1,-1,13,2,0,0,76,80,68,140,83,99.33,23,97.00,21.00,-827.00
2024-06-07 01:23:29.221483,4,0,13,2,0,0,76,80,68,140,83,99.53,23,-78.00,84.00,-973.00
2024-06-07 01:23:29.261150,5,0,13,1,0,0,76,80,69,150,83,99.48,23,-12.00,0.00,-879.00
2024-06-07 01:23:29.424562,3,0,13,0,0,0,76,80,69,150,83,99.31,23,7.00,70.00,-1087.00
2024-06-07 01:23:29.465128,2,0,13,0,0,0,77,80,70,150,83,99.82,23,-7.00,26.00,-949.00
2024-06-07 01:23:29.629328,2,0,13,0,0,0,77,80,70,150,82,99.34,24,-29.00,27.00,-978.00
2024-06-07 01:23:29.668916,2,0,13,0,0,0,77,80,70,150,82,99.63,24,61.00,-11.00,-982.00
2024-06-07 01:23:29.833775,1,0,13,0,0,0,77,80,70,150,82,99.25,24,-18.00,38.00,-993.00
2024-06-07 01:23:29.873058,1,-1,13,0,0,0,77,80,70,150,82,99.45,24,57.00,5.00,-986.00
2024-06-07 01:23:30.040841,1,0,13,0,0,0,77,80,70,150,82,99.51,24,53.00,46.00,-945.00
2024-06-07 01:23:30.076903,1,0,13,0,0,0,77,80,69,150,82,99.79,24,18.00,42.00,-1016.00
2024-06-07 01:23:30.245530,1,0,13,0,0,0,77,80,69,150,82,99.50,24,-30.00,29.00,-994.00
2024-06-07 01:23:30.280982,1,-1,13,0,0,0,77,80,68,150,82,99.81,24,106.00,-34.00,-1115.00
2024-06-07 01:23:30.332153,0,-1,14,0,0,0,77,80,68,140,82,99.69,24,109.00,-11.00,-974.00
2024-06-07 01:23:30.550413,0,-1,14,0,0,0,77,79,67,140,82,99.59,24,9.00,46.00,-940.00
2024-06-07 01:23:30.586970,0,-1,14,0,0,0,77,79,67,140,82,99.47,25,82.00,-16.00,-1482.00
2024-06-07 01:23:30.638006,0,-1,13,0,0,0,77,79,66,140,82,99.56,25,24.00,4.00,-897.00
2024-06-07 01:23:30.755253,0,-1,13,0,0,0,77,79,65,140,82,99.76,25,-19.00,-9.00,-937.00
2024-06-07 01:23:30.842233,1,0,13,0,0,0,77,79,64,140,82,99.28,25,-18.00,-5.00,-916.00
2024-06-07 01:23:30.960101,1,-1,13,0,0,0,77,79,63,140,82,99.56,25,-9.00,8.00,-1366.00
2024-06-07 01:23:31.046147,1,0,13,0,0,0,77,79,63,140,82,99.41,25,36.00,45.00,-1039.00
2024-06-07 01:23:31.167336,2,0,13,0,0,0,77,79,62,140,82,99.62,25,60.00,-11.00,-1010.00
2024-06-07 01:23:31.250021,1,-1,13,0,0,0,77,79,62,140,82,99.48,25,54.00,6.00,-970.00
2024-06-07 01:23:31.352014,1,-1,13,0,0,0,77,79,61,140,82,99.57,25,16.00,20.00,-1151.00
2024-06-07 01:23:31.471860,6,0,13,0,0,0,77,79,61,140,82,99.66,25,20.00,43.00,-1017.00
2024-06-07 01:23:31.555947,8,0,13,-1,0,0,77,79,62,140,82,99.67,26,-3.00,69.00,-949.00
2024-06-07 01:23:31.676678,8,0,13,-2,0,0,77,79,62,140,82,99.85,26,-1.00,73.00,-978.00
2024-06-07 01:23:31.759944,8,-1,13,-3,0,0,77,79,62,140,82,99.43,26,-1.00,40.00,-1009.00
2024-06-07 01:23:31.887584,8,-1,13,-4,0,0,77,79,62,140,82,99.36,26,60.00,0.00,-1047.00
2024-06-07 01:23:31.964732,8,-1,13,-5,-1,0,77,79,62,140,82,99.48,26,-2.00,1.00,-960.00
2024-06-07 01:23:32.088337,8,-1,13,-6,-1,0,77,79,62,140,82,99.21,26,77.00,-11.00,-1027.00
2024-06-07 01:23:32.168609,8,-2,13,-6,-1,0,77,79,61,140,82,99.29,26,79.00,4.00,-974.00
2024-06-07 01:23:32.296937,7,-2,13,-7,-1,0,77,79,60,140,82,99.51,26,95.00,-7.00,-988.00
2024-06-07 01:23:32.371875,4,-1,13,-7,-2,0,77,79,58,140,82,99.48,26,196.00,31.00,-1060.00
2024-06-07 01:23:32.495944,1,-1,14,-7,-2,0,76,80,57,140,82,99.31,26,155.00,-24.00,-917.00
2024-06-07 01:23:32.577824,0,-1,14,-6,-1,0,76,80,56,140,81,99.44,27,17.00,48.00,-1056.00
2024-06-07 01:23:32.677849,-2,-1,14,-5,-1,0,76,80,55,140,81,99.38,27,111.00,-10.00,-1037.00
2024-06-07 01:23:32.805296,-1,-1,14,-4,-1,0,76,80,55,140,81,99.26,27,114.00,-20.00,-1055.00
2024-06-07 01:23:32.881847,0,-1,14,-3,-1,0,76,80,54,140,81,99.70,27,127.00,6.00,-1042.00
2024-06-07 01:23:33.007857,0,-1,14,-3,-1,0,76,80,53,140,81,99.37,27,13.00,36.00,-984.00
2024-06-07 01:23:33.085799,0,-1,14,-3,-1,0,76,80,53,130,81,99.46,27,28.00,79.00,-1048.00
2024-06-07 01:23:33.214055,1,0,14,-2,-1,0,76,80,53,130,81,99.06,27,63.00,3.00,-949.00
2024-06-07 01:23:33.289829,1,3,14,-2,-1,0,76,80,53,130,81,99.29,27,-8.00,13.00,-1067.00
2024-06-07 01:23:33.417475,0,1,14,-2,0,0,76,80,52,130,81,99.27,27,49.00,8.00,-1010.00
2024-06-07 01:23:33.493712,-3,-1,14,-2,0,0,76,80,52,130,81,99.48,27,26.00,48.00,-1164.00
2024-06-07 01:23:33.631022,-2,-1,14,-1,0,0,76,80,51,130,81,99.42,28,38.00,-32.00,-1066.00
2024-06-07 01:23:33.697922,0,-1,14,0,0,0,76,80,50,130,81,99.32,28,33.00,12.00,-916.00
2024-06-07 01:23:33.827286,0,-1,14,0,0,0,76,80,50,130,81,99.30,28,58.00,-42.00,-1037.00
2024-06-07 01:23:33.901766,1,-1,14,0,0,0,76,80,49,130,81,99.26,28,-1.00,19.00,-1004.00
2024-06-07 01:23:34.116243,1,-1,14,0,0,0,76,80,49,130,81,99.33,28,16.00,10.00,-1090.00
2024-06-07 01:23:34.116440,1,-1,14,0,0,0,76,80,48,130,81,99.45,28,61.00,60.00,-906.00
2024-06-07 01:23:34.208210,1,-1,14,0,0,0,76,80,47,130,81,99.46,28,76.00,12.00,-975.00
2024-06-07 01:23:34.352211,1,-1,14,0,0,-1,76,80,47,130,81,99.24,28,-56.00,54.00,-996.00
2024-06-07 01:23:34.361099,1,-1,14,0,0,0,76,80,46,130,81,99.57,28,13.00,19.00,-931.00
2024-06-07 01:23:34.502523,1,-1,14,0,0,0,77,80,44,130,81,99.29,28,54.00,-11.00,-938.00
2024-06-07 01:23:34.660616,1,-1,14,0,0,0,77,80,43,130,81,99.22,29,87.00,-5.00,-1185.00
2024-06-07 01:23:34.690131,1,-1,14,0,0,0,77,80,42,130,81,99.22,29,42.00,22.00,-869.00
2024-06-07 01:23:34.779625,1,0,14,0,0,0,77,80,40,130,81,99.35,29,23.00,6.00,-975.00
2024-06-07 01:23:34.962242,1,0,14,0,0,0,77,80,37,130,81,99.28,29,-3.00,38.00,-1102.00
2024-06-07 01:23:34.972651,1,0,14,0,0,0,77,80,36,130,81,99.37,29,110.00,2.00,-1053.00
2024-06-07 01:23:35.097027,1,0,14,0,0,0,77,80,34,130,81,99.18,29,30.00,43.00,-971.00
2024-06-07 01:23:35.193342,1,0,14,0,0,0,77,80,32,120,81,99.62,29,52.00,26.00,-1170.00
2024-06-07 01:23:35.278486,1,0,14,0,0,0,77,80,33,120,81,99.10,29,18.00,33.00,-966.00
2024-06-07 01:23:35.404428,1,0,14,0,0,0,77,80,30,120,81,99.02,29,-33.00,32.00,-1195.00
2024-06-07 01:23:35.579062,2,0,14,0,0,0,78,80,28,120,81,99.35,29,21.00,49.00,-976.00
2024-06-07 01:23:35.584398,1,-1,14,0,0,-1,78,80,26,120,81,98.93,30,42.00,44.00,-922.00
2024-06-07 01:23:35.721961,1,-1,14,0,0,0,78,80,24,120,81,99.41,30,5.00,20.00,-1007.00
2024-06-07 01:23:35.890317,1,-2,14,0,0,0,78,80,20,120,81,98.85,30,26.00,35.00,-970.00
2024-06-07 01:23:36.029974,1,-8,13,0,0,0,78,80,19,120,81,99.03,30,52.00,-112.00,-1627.00
2024-06-07 01:23:36.196855,2,-7,13,0,-2,-1,78,80,18,120,81,99.01,30,17.00,9.00,-992.00
2024-06-07 01:23:36.197245,2,-5,13,0,-3,-1,78,80,16,120,81,98.94,30,76.00,39.00,-830.00
2024-06-07 01:23:36.336302,2,-3,13,0,-3,0,78,80,19,120,81,98.59,30,63.00,19.00,-884.00
2024-06-07 01:23:36.500209,2,-1,13,1,-3,0,78,80,18,120,81,98.76,30,52.00,54.00,-1043.00
2024-06-07 01:23:36.502161,2,0,13,1,-3,0,77,81,17,120,80,98.74,30,-10.00,14.00,-1034.00
2024-06-07 01:23:36.657443,2,0,13,1,-3,0,77,81,15,120,80,98.56,31,68.00,3.00,-1016.00
2024-06-07 01:23:36.731397,2,0,13,1,-3,0,77,81,13,120,80,98.35,31,-17.00,59.00,-940.00
2024-06-07 01:23:36.808021,3,0,13,0,-3,0,77,81,11,120,80,98.21,31,-3.00,25.00,-1126.00
2024-06-07 01:23:37.010951,3,0,13,0,-2,0,77,81,11,120,80,98.38,31,82.00,-21.00,-1095.00
2024-06-07 01:23:37.012173,2,0,13,0,-2,-1,77,81,11,120,80,97.80,31,-2.00,55.00,-998.00
2024-06-07 01:23:37.208531,2,0,13,0,-2,0,77,81,11,120,80,98.46,31,69.00,-36.00,-1013.00
2024-06-07 01:23:37.233765,2,0,13,0,-2,-1,77,81,11,120,80,98.22,31,76.00,44.00,-1008.00
2024-06-07 01:23:37.318170,2,0,13,0,-2,-1,77,81,12,120,80,98.44,31,29.00,19.00,-916.00
2024-06-07 01:23:37.420355,2,0,13,0,-2,-1,77,81,13,130,80,98.19,31,27.00,40.00,-988.00
2024-06-07 01:23:37.615581,2,1,14,0,-2,-1,77,81,15,130,80,98.68,31,62.00,-5.00,-939.00
2024-06-07 01:23:37.624077,2,3,14,0,-1,-1,77,81,16,130,80,98.88,32,-14.00,56.00,-865.00
2024-06-07 01:23:37.726208,2,1,14,0,0,-1,77,81,17,130,80,99.05,32,113.00,-12.00,-967.00
2024-06-07 01:23:37.777502,2,0,14,0,0,-1,77,81,18,130,80,99.09,32,39.00,15.00,-987.00
2024-06-07 01:23:37.879460,2,0,14,0,0,-1,77,81,18,130,80,99.06,32,41.00,40.00,-918.00
2024-06-07 01:23:38.025381,2,0,14,0,0,-1,77,81,19,140,80,98.75,32,146.00,-20.00,-953.00
2024-06-07 01:23:38.083460,2,1,14,0,-1,-1,77,81,20,140,80,99.11,32,109.00,-6.00,-1086.00
2024-06-07 01:23:38.185566,-2,0,14,-2,0,-1,77,81,21,130,80,98.77,32,72.00,-3.00,-944.00
2024-06-07 01:23:38.287655,-4,-1,14,0,0,-1,77,81,21,130,80,98.66,32,62.00,22.00,-980.00
2024-06-07 01:23:38.437132,0,0,14,0,0,-1,77,81,21,140,80,99.00,32,6.00,14.00,-935.00
2024-06-07 01:23:38.491930,1,0,14,0,0,0,76,80,22,140,80,99.00,32,16.00,14.00,-1223.00
2024-06-07 01:23:38.640119,1,0,14,0,0,-1,76,80,21,140,80,99.09,33,65.00,-23.00,-934.00
2024-06-07 01:23:38.695505,0,-1,14,0,0,0,76,80,21,140,80,98.85,33,87.00,-23.00,-1126.00
2024-06-07 01:23:38.844783,0,-2,14,0,0,0,76,80,20,140,80,98.84,33,16.00,44.00,-856.00
2024-06-07 01:23:38.899651,0,-2,14,0,0,0,76,80,20,140,80,98.88,33,22.00,13.00,-955.00
2024-06-07 01:23:39.002147,0,-1,14,0,0,0,76,80,21,140,80,98.83,33,13.00,-48.00,-948.00
2024-06-07 01:23:39.157614,1,0,13,0,0,0,76,80,22,140,80,98.97,33,63.00,6.00,-1068.00
2024-06-07 01:23:39.205317,1,-1,13,0,0,0,76,80,22,140,80,99.07,33,39.00,44.00,-930.00
2024-06-07 01:23:39.362420,1,-1,13,0,0,0,76,80,23,140,80,98.86,33,48.00,44.00,-1100.00
2024-06-07 01:23:39.409616,1,0,13,0,0,0,76,80,24,140,80,99.21,33,21.00,77.00,-975.00
2024-06-07 01:23:39.561481,1,0,13,0,0,0,77,80,26,140,80,99.11,33,81.00,7.00,-946.00
2024-06-07 01:23:39.613419,0,0,13,0,0,-1,77,80,27,140,80,99.02,34,22.00,8.00,-829.00
2024-06-07 01:23:39.715897,0,0,13,0,0,0,77,80,28,140,80,99.15,34,23.00,13.00,-871.00
2024-06-07 01:23:39.868360,1,0,13,0,0,0,77,80,30,140,80,99.11,34,49.00,25.00,-1003.00
2024-06-07 01:23:39.921800,1,3,14,0,0,0,77,80,27,140,80,99.18,34,-6.00,40.00,-957.00
2024-06-07 01:23:40.021329,2,7,14,0,1,0,77,80,28,140,80,99.16,34,11.00,7.00,-968.00
2024-06-07 01:23:40.123292,2,5,14,0,2,0,77,80,30,140,80,99.38,34,3.00,31.00,-901.00
2024-06-07 01:23:40.226041,3,3,14,0,3,0,77,80,31,140,80,98.97,34,76.00,12.00,-952.00
2024-06-07 01:23:40.327230,2,0,14,0,3,0,77,80,32,150,80,99.06,34,-70.00,84.00,-967.00
2024-06-07 01:23:40.431614,2,-1,13,0,3,-1,77,80,34,150,80,98.86,34,-57.00,-4.00,-934.00
2024-06-07 01:23:40.531222,1,-1,13,-1,3,-1,77,80,35,150,80,99.36,34,41.00,-12.00,-930.00
2024-06-07 01:23:40.687441,1,-1,13,0,2,0,77,80,35,150,80,99.10,35,91.00,-25.00,-977.00
2024-06-07 01:23:40.735174,1,0,13,0,2,0,77,80,36,150,80,99.20,35,-86.00,15.00,-1093.00
2024-06-07 01:23:40.898331,0,0,14,0,2,0,77,80,36,150,80,99.15,35,30.00,-9.00,-950.00
2024-06-07 01:23:40.939184,0,0,13,0,2,0,77,80,37,150,80,99.42,35,161.00,-22.00,-971.00
2024-06-07 01:23:41.099302,0,0,13,0,2,0,77,80,37,150,80,98.96,35,-23.00,30.00,-979.00
2024-06-07 01:23:41.143096,2,0,13,0,2,0,77,80,37,150,80,99.45,35,51.00,-16.00,-1038.00
2024-06-07 01:23:41.301790,2,0,13,0,2,0,77,80,38,150,80,99.44,35,104.00,-21.00,-994.00
2024-06-07 01:23:41.347056,2,0,13,0,2,0,77,80,38,150,80,99.31,35,-40.00,48.00,-988.00
2024-06-07 01:23:41.448951,1,0,14,0,2,0,77,80,39,150,80,99.22,35,41.00,-8.00,-1126.00
2024-06-07 01:23:41.609047,0,0,13,0,2,0,77,80,39,150,80,99.54,35,15.00,6.00,-859.00
2024-06-07 01:23:41.653109,1,-4,13,0,2,0,77,80,39,150,80,99.18,36,-70.00,38.00,-1097.00
2024-06-07 01:23:41.815217,1,-5,13,0,1,0,77,80,39,150,80,99.54,36,-58.00,56.00,-979.00
2024-06-07 01:23:41.856969,1,-2,13,0,0,0,77,80,39,150,80,99.41,36,81.00,-19.00,-1170.00
2024-06-07 01:23:42.026560,1,-1,13,0,0,0,77,80,39,150,80,99.36,36,-1.00,55.00,-886.00
2024-06-07 01:23:42.026746,2,-1,13,0,0,0,77,80,38,150,80,99.45,36,-80.00,96.00,-950.00
2024-06-07 01:23:42.112874,2,-1,13,0,0,0,77,80,38,150,80,99.50,36,126.00,-10.00,-1046.00
2024-06-07 01:23:42.223544,1,-1,13,0,0,0,77,80,37,150,80,99.19,36,-9.00,24.00,-964.00
2024-06-07 01:23:42.317766,1,-1,14,0,0,0,77,80,37,150,80,99.49,36,67.00,12.00,-911.00
2024-06-07 01:23:42.419073,2,-1,14,0,0,0,77,80,36,150,80,99.35,36,-67.00,52.00,-932.00
2024-06-07 01:23:42.536671,1,-1,14,0,0,0,77,80,36,150,79,99.14,36,25.00,60.00,-932.00
2024-06-07 01:23:42.621875,1,-1,14,0,0,1,77,80,35,150,79,99.38,37,86.00,12.00,-1392.00
2024-06-07 01:23:42.735508,1,-1,14,0,0,0,77,80,35,150,79,99.45,37,11.00,36.00,-972.00
2024-06-07 01:23:42.825876,1,-1,14,0,0,0,77,80,35,150,79,99.35,37,62.00,6.00,-1265.00
2024-06-07 01:23:42.947750,1,0,14,0,0,0,77,80,35,150,79,99.55,37,0.00,32.00,-893.00
2024-06-07 01:23:43.029763,1,0,14,0,0,0,77,80,34,150,79,99.28,37,-68.00,-11.00,-1212.00
2024-06-07 01:23:43.147323,0,0,14,0,0,0,77,80,34,150,79,99.26,37,8.00,24.00,-913.00
2024-06-07 01:23:43.233814,0,0,14,0,0,0,77,80,33,150,79,99.33,37,27.00,10.00,-1127.00
2024-06-07 01:23:43.351871,0,0,14,0,0,0,77,80,33,150,79,99.46,37,8.00,11.00,-883.00
2024-06-07 01:23:43.437762,0,0,14,0,0,0,77,80,32,150,79,98.95,37,94.00,-33.00,-1117.00
2024-06-07 01:23:43.539761,0,0,14,0,0,0,76,80,31,150,79,99.16,37,58.00,-5.00,-949.00
2024-06-07 01:23:43.641691,0,0,14,0,0,0,76,80,31,150,79,99.40,38,124.00,-27.00,-1024.00
2024-06-07 01:23:43.759334,1,0,14,0,0,0,76,80,30,150,79,99.12,38,61.00,-8.00,-1041.00
2024-06-07 01:23:43.846056,2,0,14,0,0,0,76,80,29,150,79,99.14,38,7.00,19.00,-956.00
2024-06-07 01:23:43.968030,2,0,14,0,0,0,76,80,28,140,79,99.02,38,-3.00,2.00,-1107.00
2024-06-07 01:23:44.049583,1,0,18,0,0,0,76,80,27,140,79,99.05,38,56.00,27.00,-1045.00
2024-06-07 01:23:44.174820,1,0,24,0,0,0,76,80,27,140,79,99.26,38,57.00,18.00,-902.00
2024-06-07 01:23:44.253660,1,-1,30,0,0,0,76,80,28,140,79,99.16,38,73.00,-1.00,-908.00
2024-06-07 01:23:44.375859,1,0,36,0,0,0,76,80,28,140,79,99.18,38,45.00,3.00,-1088.00
2024-06-07 01:23:44.457527,1,0,42,0,0,0,76,80,29,140,79,99.37,38,54.00,3.00,-951.00
2024-06-07 01:23:44.580461,1,0,54,0,0,0,77,80,31,140,79,99.22,39,81.00,31.00,-960.00
2024-06-07 01:23:44.661455,1,0,60,0,0,0,77,80,32,140,79,98.97,39,4.00,-49.00,-1145.00
2024-06-07 01:23:44.785464,2,0,66,0,0,0,77,80,33,140,79,98.98,39,27.00,18.00,-851.00
2024-06-07 01:23:44.865772,2,0,72,0,0,-1,77,80,34,150,79,99.10,39,81.00,6.00,-960.00
2024-06-07 01:23:44.989779,2,0,78,0,0,0,77,80,35,150,79,99.42,39,-54.00,34.00,-987.00
2024-06-07 01:23:45.070130,2,0,84,0,0,0,77,80,35,150,79,99.32,39,45.00,19.00,-905.00
2024-06-07 01:23:45.194575,1,0,90,0,0,0,77,80,35,150,79,99.39,39,-15.00,9.00,-916.00
2024-06-07 01:23:45.274207,1,0,96,0,0,0,77,80,36,150,79,99.55,39,32.00,42.00,-937.00
2024-06-07 01:23:45.399050,1,0,102,0,0,0,77,80,36,150,79,99.19,39,-3.00,33.00,-1026.00
2024-06-07 01:23:45.480742,2,0,108,0,0,0,77,80,36,150,79,99.51,39,17.00,63.00,-984.00
2024-06-07 01:23:45.581121,2,0,114,0,0,0,78,80,37,150,78,99.34,40,-30.00,59.00,-1040.00
2024-06-07 01:23:45.681468,2,0,120,0,0,0,78,80,38,150,78,99.13,40,54.00,-32.00,-1145.00
2024-06-07 01:23:45.809108,2,0,126,0,0,0,78,80,39,150,78,99.15,40,40.00,19.00,-879.00
2024-06-07 01:23:45.885514,2,0,132,0,0,0,78,80,40,150,78,99.16,40,10.00,36.00,-1033.00
2024-06-07 01:23:45.936928,2,0,138,0,0,0,78,80,41,150,78,99.66,40,60.00,-4.00,-953.00
2024-06-07 01:23:46.115644,2,0,144,0,0,0,78,80,43,150,78,99.54,40,21.00,38.00,-995.00
2024-06-07 01:23:46.141805,2,0,150,0,0,0,78,80,45,150,78,99.35,40,-12.00,10.00,-994.00
2024-06-07 01:23:46.421710,2,0,156,0,0,0,78,80,47,150,78,99.46,40,14.00,38.00,-877.00
2024-06-07 01:23:46.421883,1,0,162,0,0,0,78,80,48,150,78,99.38,40,34.00,25.00,-868.00
2024-06-07 01:23:46.446616,1,0,168,0,0,0,78,80,50,160,78,99.58,40,-75.00,40.00,-836.00
2024-06-07 01:23:46.632448,1,0,174,0,0,0,78,80,50,160,78,99.53,41,-4.00,-19.00,-1084.00
2024-06-07 01:23:46.650642,2,1,-179,0,0,0,78,80,51,160,78,99.32,41,-20.00,50.00,-907.00
2024-06-07 01:23:46.837183,2,1,-173,0,0,0,78,80,51,160,78,99.45,41,42.00,15.00,-1008.00
2024-06-07 01:23:46.866988,2,1,-167,0,0,0,78,80,51,160,78,99.48,41,-8.00,16.00,-977.00
2024-06-07 01:23:46.956677,2,1,-161,0,0,1,78,80,50,160,78,99.57,41,-31.00,48.00,-966.00
2024-06-07 01:23:47.140684,2,1,-155,0,-1,1,78,80,49,150,78,99.24,41,26.00,13.00,-1075.00
2024-06-07 01:23:47.160352,2,0,-149,0,-1,1,78,80,49,150,78,99.43,41,28.00,31.00,-1038.00
2024-06-07 01:23:47.345358,2,0,-143,0,-1,0,78,80,48,150,78,99.60,41,-29.00,32.00,-1039.00
2024-06-07 01:23:47.364591,1,0,-137,0,-1,0,78,80,48,150,78,99.38,41,57.00,5.00,-1033.00
2024-06-07 01:23:47.466556,2,1,-131,0,-1,0,78,80,48,150,78,99.44,41,68.00,-15.00,-1128.00
2024-06-07 01:23:47.758657,1,1,-125,0,0,0,77,81,48,150,78,99.17,42,30.00,23.00,-874.00
2024-06-07 01:23:47.758747,1,1,-119,0,0,0,77,81,48,150,78,99.36,42,6.00,10.00,-1003.00
2024-06-07 01:23:47.772579,0,1,-113,0,0,0,77,81,47,150,78,99.46,42,2.00,21.00,-1002.00
2024-06-07 01:23:47.882470,0,0,-107,0,0,0,77,81,48,150,78,99.39,42,23.00,9.00,-1042.00
2024-06-07 01:23:47.976523,0,0,-101,0,0,0,77,81,48,150,78,99.68,42,37.00,11.00,-1027.00
2024-06-07 01:23:48.168666,0,0,-95,0,0,0,77,81,48,150,78,99.28,42,41.00,-13.00,-901.00
2024-06-07 01:23:48.180504,0,0,-89,0,-1,0,77,81,48,150,78,99.49,42,103.00,-18.00,-1040.00
2024-06-07 01:23:48.369289,1,1,-83,0,-1,0,77,81,48,150,78,99.57,42,48.00,8.00,-963.00
2024-06-07 01:23:48.384489,1,1,-77,0,0,0,77,81,47,150,78,99.40,42,124.00,-26.00,-1039.00
2024-06-07 01:23:48.486272,1,1,-71,1,-1,0,77,81,45,150,78,99.58,42,79.00,4.00,-1023.00
2024-06-07 01:23:48.675057,1,1,-65,1,-1,0,77,81,44,150,78,99.36,43,-42.00,34.00,-929.00
2024-06-07 01:23:48.690432,1,0,-59,1,0,1,77,81,42,150,78,99.56,43,37.00,-24.00,-1029.00
2024-06-07 01:23:48.803198,1,0,-53,1,0,1,77,81,41,150,78,99.16,43,43.00,25.00,-941.00
2024-06-07 01:23:48.894440,1,1,-47,1,0,1,77,81,40,150,78,99.47,43,63.00,30.00,-1018.00
2024-06-07 01:23:49.318673,1,1,-40,1,0,1,77,81,40,140,78,99.13,43,27.00,3.00,-947.00
2024-06-07 01:23:49.318751,1,1,-34,1,0,1,77,81,40,140,78,99.30,43,8.00,19.00,-1051.00
2024-06-07 01:23:49.319002,1,1,-28,1,0,0,77,81,41,140,78,99.02,43,66.00,-11.00,-1179.00
2024-06-07 01:23:49.319062,0,1,-22,1,0,0,77,81,42,140,78,99.38,43,-98.00,24.00,-1089.00
2024-06-07 01:23:49.409819,0,1,-17,1,0,-1,77,81,44,140,78,99.40,43,89.00,-5.00,-939.00
2024-06-07 01:23:49.589052,0,0,-11,1,0,0,77,81,45,150,78,99.40,43,49.00,49.00,-780.00
2024-06-07 01:23:49.608274,0,0,-5,1,0,0,78,81,46,150,78,99.57,44,44.00,-35.00,-1092.00
2024-06-07 01:23:49.728248,1,0,-1,1,0,0,78,81,47,150,78,99.35,44,58.00,10.00,-848.00
2024-06-07 01:23:49.813861,1,0,2,1,0,0,78,81,48,150,78,99.59,44,-31.00,30.00,-974.00
2024-06-07 01:23:50.016372,1,0,7,1,0,0,78,81,49,150,78,99.47,44,29.00,15.00,-1060.00
2024-06-07 01:23:50.173841,1,0,8,1,0,0,78,81,49,150,78,99.29,44,-19.00,26.00,-965.00
2024-06-07 01:23:50.173902,1,0,9,1,0,0,78,81,48,150,78,99.43,44,14.00,-21.00,-973.00
2024-06-07 01:23:50.323593,1,1,10,0,0,0,78,81,48,150,78,99.51,44,21.00,29.00,-996.00
2024-06-07 01:23:50.466916,2,1,11,0,0,0,78,81,48,150,78,99.42,44,20.00,13.00,-1018.00
2024-06-07 01:23:50.475013,2,0,11,0,0,0,78,81,48,150,78,99.37,44,65.00,-29.00,-1050.00
2024-06-07 01:23:50.638009,2,0,12,0,0,0,77,80,47,150,78,99.54,45,28.00,-3.00,-943.00
2024-06-07 01:23:50.810424,2,1,12,0,0,0,77,80,46,150,78,99.46,45,2.00,24.00,-975.00
2024-06-07 01:23:50.810465,2,1,12,0,0,0,77,80,45,150,78,99.33,45,79.00,-9.00,-963.00
2024-06-07 01:23:50.938265,2,0,12,0,0,0,77,80,44,150,78,99.53,45,91.00,-35.00,-1039.00
2024-06-07 01:23:51.081622,2,0,12,0,0,0,77,80,43,150,78,99.44,45,90.00,-12.00,-1075.00
2024-06-07 01:23:51.086904,2,1,12,0,0,0,77,80,43,150,78,99.40,45,50.00,35.00,-912.00
2024-06-07 01:23:51.245085,2,0,12,0,0,0,77,80,42,140,78,99.25,45,7.00,17.00,-901.00
2024-06-07 01:23:51.388493,2,0,12,0,0,0,77,80,42,140,78,99.40,45,1.00,-3.00,-896.00
2024-06-07 01:23:51.392999,2,0,12,0,0,0,77,80,42,140,78,99.25,45,-42.00,32.00,-938.00
2024-06-07 01:23:51.554737,1,0,12,0,0,0,77,80,43,140,77,99.30,45,60.00,-10.00,-1106.00
2024-06-07 01:23:51.696378,1,0,12,0,0,0,77,80,43,140,77,99.56,46,84.00,-38.00,-922.00
2024-06-07 01:23:51.699016,2,0,12,0,0,0,77,80,43,140,77,99.58,46,-30.00,74.00,-950.00
2024-06-07 01:23:51.859536,2,0,12,0,0,0,77,80,43,150,77,99.57,46,80.00,-12.00,-1035.00
2024-06-07 01:23:51.926951,2,0,12,0,0,0,77,80,42,150,77,99.28,46,-26.00,29.00,-1005.00
2024-06-07 01:23:52.004822,2,0,12,0,0,0,77,80,42,150,77,99.39,46,-34.00,17.00,-982.00
2024-06-07 01:23:52.161757,1,0,12,0,0,0,77,80,41,150,77,99.37,46,48.00,4.00,-879.00
2024-06-07 01:23:52.209213,1,0,12,0,0,0,77,80,40,150,77,99.49,46,58.00,8.00,-903.00
2024-06-07 01:23:52.366528,1,0,12,0,0,0,77,80,38,140,77,99.14,46,69.00,-36.00,-1174.00
2024-06-07 01:23:52.412831,1,0,12,0,0,0,77,80,37,140,77,99.25,46,25.00,0.00,-981.00
2024-06-07 01:23:52.565415,1,0,12,0,0,1,77,80,36,140,77,99.27,46,14.00,13.00,-1064.00
2024-06-07 01:23:52.616879,1,0,12,0,0,0,77,81,35,140,77,99.43,47,3.00,11.00,-986.00
2024-06-07 01:23:52.771465,1,0,12,0,0,0,77,81,34,140,77,99.30,47,70.00,-15.00,-1492.00
2024-06-07 01:23:52.821067,0,0,12,0,0,0,77,81,33,140,77,99.53,47,21.00,41.00,-963.00
2024-06-07 01:23:52.922897,0,0,12,0,0,0,77,81,32,140,77,99.39,47,-28.00,27.00,-1069.00
2024-06-07 01:23:53.024992,1,0,12,0,0,0,77,81,31,140,77,99.45,47,42.00,-1.00,-981.00
2024-06-07 01:23:53.126699,1,0,12,0,0,0,77,81,30,140,77,99.05,47,45.00,-22.00,-1035.00
2024-06-07 01:23:53.230397,1,0,12,0,0,0,77,81,29,140,77,99.19,47,29.00,-11.00,-941.00
2024-06-07 01:23:53.280091,1,0,12,0,0,0,77,81,28,140,77,99.28,47,-30.00,29.00,-1185.00
2024-06-07 01:23:53.384541,1,0,12,0,0,0,77,81,28,140,77,99.29,47,56.00,-6.00,-988.00
2024-06-07 01:23:53.483997,1,0,12,0,0,0,77,81,27,140,77,99.02,47,12.00,44.00,-1114.00
2024-06-07 01:23:53.637010,1,0,12,0,0,0,78,81,27,130,77,99.31,48,-23.00,-25.00,-1063.00
2024-06-07 01:23:53.800259,1,0,12,0,0,0,78,81,27,130,77,99.25,48,61.00,-16.00,-985.00
2024-06-07 01:23:53.841783,1,0,12,0,0,0,78,81,26,130,77,99.52,48,84.00,-19.00,-1090.00
2024-06-07 01:23:53.893352,1,0,12,0,0,0,78,81,26,140,77,99.33,48,-10.00,-6.00,-1010.00
2024-06-07 01:23:53.995018,1,0,12,0,0,0,78,81,25,140,77,99.08,48,12.00,38.00,-900.00
2024-06-07 01:23:54.097718,1,0,12,0,0,0,78,81,24,140,77,99.22,48,55.00,-31.00,-1047.00
2024-06-07 01:23:54.203468,1,0,12,0,0,0,78,81,24,130,77,99.45,48,56.00,-9.00,-997.00
2024-06-07 01:23:54.299716,1,0,12,0,0,0,78,81,23,130,77,99.39,48,37.00,10.00,-926.00
2024-06-07 01:23:54.408530,1,0,12,0,0,0,78,81,22,130,77,99.03,48,-17.00,0.00,-978.00
2024-06-07 01:23:54.503659,1,0,12,0,0,0,78,81,21,130,77,99.16,48,-11.00,-5.00,-981.00
2024-06-07 01:23:54.613328,2,0,12,0,0,0,78,81,21,130,77,99.07,49,133.00,-57.00,-1226.00
2024-06-07 01:23:54.707689,2,0,12,0,0,0,78,81,21,130,77,99.00,49,51.00,-4.00,-962.00
2024-06-07 01:23:54.809573,2,0,12,0,0,0,78,81,22,130,77,99.02,49,-38.00,53.00,-963.00
2024-06-07 01:23:54.920727,1,0,12,0,0,0,78,81,23,130,77,99.29,49,34.00,0.00,-994.00
2024-06-07 01:23:55.013598,1,0,12,0,0,0,78,81,24,130,77,99.18,49,-5.00,-5.00,-992.00
2024-06-07 01:23:55.125289,0,0,12,0,0,-1,78,81,24,130,77,99.32,49,19.00,4.00,-896.00
2024-06-07 01:23:55.217665,0,0,12,0,0,0,78,81,24,130,77,99.48,49,-49.00,38.00,-979.00
2024-06-07 01:23:55.330292,0,0,12,0,0,0,78,81,25,130,77,99.06,49,52.00,13.00,-1046.00
2024-06-07 01:23:55.421979,0,0,12,0,0,0,78,81,25,130,77,99.31,49,-90.00,57.00,-1024.00
2024-06-07 01:23:55.534873,1,0,12,0,0,-1,78,81,25,140,77,99.09,49,-38.00,18.00,-1017.00
2024-06-07 01:23:55.627450,1,0,12,0,0,0,78,80,24,140,77,99.19,50,60.00,-5.00,-951.00
2024-06-07 01:23:55.740559,1,0,12,0,0,0,78,80,23,140,77,99.08,50,43.00,-1.00,-987.00
2024-06-07 01:23:55.830616,1,0,12,0,0,0,78,80,21,140,77,98.96,50,50.00,-25.00,-901.00
2024-06-07 01:23:55.944436,1,0,12,0,0,0,78,80,25,130,77,99.15,50,19.00,21.00,-1021.00
2024-06-07 01:23:56.034531,1,0,12,0,0,0,78,80,24,130,77,99.38,50,3.00,14.00,-1132.00
2024-06-07 01:23:56.149241,1,0,12,0,0,0,78,80,23,130,77,98.93,50,60.00,-10.00,-1058.00
2024-06-07 01:23:56.238723,1,0,12,0,0,0,78,80,24,130,77,98.91,50,32.00,-1.00,-1101.00
2024-06-07 01:23:56.360282,1,0,12,0,0,0,78,80,24,130,77,99.24,50,18.00,-4.00,-941.00
2024-06-07 01:23:56.442576,1,0,12,0,0,0,78,80,25,130,77,99.09,50,76.00,-18.00,-947.00
2024-06-07 01:23:56.564786,1,0,12,0,0,0,78,80,27,130,77,99.18,50,62.00,41.00,-1042.00
2024-06-07 01:23:56.646491,1,0,12,0,0,0,77,81,29,130,77,99.39,51,95.00,-17.00,-1051.00
2024-06-07 01:23:56.763541,1,0,12,0,0,-1,77,81,32,140,77,99.12,51,-12.00,3.00,-1071.00
2024-06-07 01:23:56.850545,1,0,12,0,0,-1,77,81,33,140,77,99.17,51,31.00,-2.00,-936.00
2024-06-07 01:23:56.970635,1,0,12,0,0,0,77,81,31,140,77,99.26,51,24.00,-16.00,-1103.00
2024-06-07 01:23:57.054554,1,0,12,0,0,0,77,81,33,140,77,99.05,51,-109.00,57.00,-1145.00
2024-06-07 01:23:57.156834,1,0,12,0,0,0,77,81,35,140,77,99.25,51,-17.00,-1.00,-834.00
2024-06-07 01:23:57.281605,0,0,12,0,0,0,77,81,36,140,77,99.32,51,-82.00,45.00,-936.00
2024-06-07 01:23:57.311779,0,0,12,0,0,0,77,81,38,140,77,99.44,51,44.00,45.00,-1003.00
2024-06-07 01:23:57.411407,1,0,12,0,0,0,77,81,39,150,77,99.32,51,0.00,2.00,-935.00
2024-06-07 01:23:57.513352,2,0,12,0,0,0,77,81,40,150,77,99.42,51,30.00,-4.00,-893.00
2024-06-07 01:23:57.691161,2,0,12,0,0,0,77,81,41,150,77,99.28,52,11.00,43.00,-869.00
2024-06-07 01:23:57.717865,2,0,12,0,0,0,77,81,42,150,77,99.34,52,23.00,-6.00,-926.00
2024-06-07 01:23:57.819415,1,0,12,0,0,0,77,81,42,150,77,99.21,52,-36.00,41.00,-858.00
2024-06-07 01:23:57.992979,1,0,12,0,0,0,77,81,42,150,77,99.47,52,17.00,16.00,-900.00
2024-06-07 01:23:58.023410,1,1,12,0,0,0,77,81,42,150,77,99.21,52,32.00,-15.00,-1010.00
2024-06-07 01:23:58.197171,0,1,12,0,0,0,77,81,41,150,77,98.89,52,44.00,0.00,-869.00
2024-06-07 01:23:58.227357,0,1,12,0,0,0,77,81,39,150,77,99.45,52,42.00,33.00,-864.00
2024-06-07 01:23:58.401968,1,0,12,0,0,1,77,81,38,150,77,99.22,52,48.00,-13.00,-1030.00
2024-06-07 01:23:58.431340,1,0,12,0,0,1,77,81,36,150,77,99.31,52,-1.00,34.00,-1054.00
2024-06-07 01:23:58.606767,1,0,12,0,0,1,77,81,35,150,76,99.13,52,107.00,-36.00,-986.00
2024-06-07 01:23:58.635307,0,0,12,0,0,1,78,81,34,140,76,99.18,53,-58.00,29.00,-1222.00
2024-06-07 01:23:58.817498,1,0,12,0,0,0,78,81,33,140,76,99.50,53,48.00,-46.00,-1008.00
2024-06-07 01:23:58.839413,1,0,12,0,0,0,78,81,32,140,76,99.32,53,-63.00,21.00,-1010.00
2024-06-07 01:23:59.017083,1,0,12,0,0,0,78,81,31,140,76,99.22,53,8.00,20.00,-896.00
2024-06-07 01:23:59.043560,1,0,12,0,0,0,78,81,29,140,76,99.34,53,104.00,-17.00,-1051.00
2024-06-07 01:23:59.227271,1,0,12,0,0,0,78,81,27,140,76,99.15,53,-24.00,2.00,-997.00
2024-06-07 01:23:59.247895,1,0,12,0,0,0,78,81,25,140,76,99.21,53,75.00,34.00,-1094.00
2024-06-07 01:23:59.426074,1,0,12,0,0,1,78,81,24,140,76,99.57,53,31.00,17.00,-980.00
2024-06-07 01:23:59.452216,1,0,12,0,0,1,78,81,23,140,76,99.16,53,33.00,17.00,-1030.00
2024-06-07 01:23:59.636762,1,0,12,0,0,1,78,81,22,130,76,99.35,53,31.00,7.00,-1069.00
2024-06-07 01:23:59.657530,1,0,12,0,0,0,77,82,23,130,76,99.26,54,22.00,6.00,-1037.00
2024-06-07 01:23:59.757950,1,0,12,0,0,0,77,82,24,130,76,99.17,54,3.00,38.00,-1044.00
2024-06-07 01:23:59.863393,0,0,12,0,0,0,77,82,25,140,76,99.34,54,-19.00,22.00,-1156.00
2024-06-07 01:23:59.963508,0,0,12,0,0,-1,77,82,26,140,76,99.36,54,35.00,27.00,-952.00
2024-06-07 01:24:00.063654,0,0,12,0,0,-1,77,82,27,140,76,99.03,54,97.00,16.00,-955.00
2024-06-07 01:24:00.165283,0,0,12,0,0,-1,77,82,28,140,76,99.38,54,-43.00,42.00,-817.00
2024-06-07 01:24:00.347653,1,0,12,0,0,0,77,82,29,140,76,99.49,54,-19.00,23.00,-933.00
2024-06-07 01:24:00.369889,2,0,12,0,0,0,77,82,29,140,76,99.14,54,22.00,40.00,-893.00
2024-06-07 01:24:00.552398,2,0,12,0,0,0,77,82,30,140,76,99.08,54,30.00,-19.00,-970.00
2024-06-07 01:24:00.573170,2,0,12,0,0,0,77,82,30,140,76,99.33,55,-75.00,36.00,-926.00
2024-06-07 01:24:00.764415,2,0,12,0,0,0,78,81,31,140,76,99.28,55,117.00,-4.00,-962.00
2024-06-07 01:24:00.776985,2,0,12,0,0,0,78,81,31,140,76,99.40,55,69.00,-7.00,-1064.00
2024-06-07 01:24:00.879481,1,0,12,0,0,0,78,81,31,140,76,99.47,55,-10.00,33.00,-954.00
2024-06-07 01:24:00.983970,1,0,9,0,0,0,78,81,31,140,76,99.45,55,2.00,55.00,-992.00
2024-06-07 01:24:01.083107,0,0,3,0,0,0,78,81,31,140,76,99.40,55,85.00,2.00,-983.00
2024-06-07 01:24:01.270998,0,0,-3,0,0,0,78,81,31,140,76,99.11,55,49.00,12.00,-897.00
2024-06-07 01:24:01.271064,0,0,-9,0,0,0,78,81,30,140,76,99.48,55,96.00,-41.00,-983.00
2024-06-07 01:24:01.338159,1,0,-15,0,0,0,78,81,30,140,76,99.05,55,46.00,-1.00,-970.00
2024-06-07 01:24:01.479799,1,0,-21,0,0,1,78,81,29,140,76,99.32,55,19.00,37.00,-1026.00
2024-06-07 01:24:01.542100,1,0,-27,0,0,0,78,81,30,140,76,99.14,56,55.00,-18.00,-980.00
2024-06-07 01:24:01.678599,1,0,-33,0,0,0,77,81,31,140,76,99.21,56,88.00,-105.00,-1413.00
2024-06-07 01:24:01.745945,0,0,-39,0,0,0,77,81,32,140,76,99.27,56,124.00,-8.00,-1103.00
2024-06-07 01:24:01.883582,0,0,-45,0,0,0,77,81,34,140,76,99.41,56,47.00,-31.00,-996.00
2024-06-07 01:24:01.949989,0,1,-51,0,0,0,77,81,36,140,76,99.32,56,-36.00,27.00,-980.00
2024-06-07 01:24:02.088224,0,1,-57,0,0,0,77,81,37,150,76,99.51,56,47.00,32.00,-873.00
2024-06-07 01:24:02.153987,0,0,-63,0,0,0,77,81,38,150,76,99.41,56,67.00,4.00,-895.00
2024-06-07 01:24:02.292965,0,0,-69,0,0,0,77,81,39,150,76,99.69,56,-40.00,47.00,-936.00
2024-06-07 01:24:02.358166,0,0,-75,0,0,0,77,81,39,150,76,99.26,56,66.00,-108.00,-1066.00
2024-06-07 01:24:02.503745,0,0,-81,0,0,0,77,81,40,150,76,99.30,56,-43.00,47.00,-971.00
2024-06-07 01:24:02.561959,1,1,-87,0,0,0,77,81,40,150,76,99.29,57,28.00,2.00,-967.00
2024-06-07 01:24:02.702602,2,1,-93,0,0,0,77,81,40,150,76,99.43,57,63.00,-189.00,-959.00
2024-06-07 01:24:02.765949,2,1,-99,0,0,0,77,81,39,150,76,99.28,57,26.00,22.00,-945.00
2024-06-07 01:24:02.868017,1,2,-105,0,0,0,77,81,38,150,76,99.45,57,46.00,-20.00,-898.00
2024-06-07 01:24:02.969907,1,1,-111,0,0,0,77,81,37,150,76,99.27,57,64.00,-1.00,-971.00
2024-06-07 01:24:03.118826,0,1,-117,0,0,0,77,81,36,150,76,99.06,57,-37.00,21.00,-1044.00
2024-06-07 01:24:03.173887,0,1,-123,0,0,0,77,81,35,150,76,99.35,57,-28.00,29.00,-945.00
2024-06-07 01:24:03.322945,0,1,-129,0,0,0,77,81,34,150,76,99.15,57,48.00,-4.00,-1134.00
2024-06-07 01:24:03.377879,0,1,-134,0,0,0,77,81,33,150,76,99.61,57,15.00,25.00,-1130.00
2024-06-07 01:24:03.522330,0,0,-140,0,0,0,77,81,32,140,76,99.32,57,-68.00,21.00,-1018.00
2024-06-07 01:24:03.587314,0,0,-146,0,0,0,77,81,32,140,76,99.32,58,42.00,27.00,-899.00
2024-06-07 01:24:03.683870,1,0,-152,0,0,0,78,81,31,140,76,99.49,58,85.00,-11.00,-1106.00
2024-06-07 01:24:03.812482,1,1,-158,0,0,0,78,81,29,140,76,99.57,58,70.00,-13.00,-896.00
2024-06-07 01:24:03.887911,2,1,-164,0,0,0,78,81,28,140,76,99.18,58,15.00,-15.00,-1059.00
2024-06-07 01:24:04.149697,2,0,-170,0,0,0,78,81,27,140,76,99.48,58,76.00,-10.00,-1001.00
2024-06-07 01:24:04.149764,2,1,-176,0,0,0,78,81,27,140,76,98.98,58,-36.00,29.00,-989.00
2024-06-07 01:24:04.295446,2,1,178,0,0,0,78,81,26,140,76,99.07,58,94.00,-20.00,-971.00
2024-06-07 01:24:04.295837,3,1,172,0,0,0,78,81,26,140,76,99.35,58,-11.00,-9.00,-990.00
2024-06-07 01:24:04.460970,2,1,166,0,0,0,78,81,26,140,76,99.26,58,-27.00,-30.00,-1010.00
2024-06-07 01:24:04.577433,1,0,160,0,0,0,78,81,25,140,76,99.32,58,7.00,18.00,-953.00
2024-06-07 01:24:04.602838,1,0,154,0,0,0,78,81,24,140,75,99.25,59,92.00,-3.00,-895.00
2024-06-07 01:24:04.729972,2,0,148,0,0,0,79,81,23,140,75,99.21,59,24.00,22.00,-1000.00
2024-06-07 01:24:04.883894,2,0,142,0,0,0,79,81,22,140,75,99.44,59,42.00,19.00,-1052.00
2024-06-07 01:24:04.907799,2,0,136,0,0,0,79,81,21,140,75,98.81,59,19.00,21.00,-984.00
2024-06-07 01:24:05.045900,2,0,130,0,0,0,79,81,21,140,75,99.47,59,54.00,19.00,-1020.00
2024-06-07 01:24:05.079919,3,0,124,0,0,0,79,81,22,140,75,99.23,59,62.00,-17.00,-992.00
2024-06-07 01:24:05.165990,3,0,118,0,0,0,79,81,23,140,75,99.37,59,27.00,10.00,-996.00
2024-06-07 01:24:05.265332,3,0,112,0,0,0,79,81,24,140,75,99.30,59,127.00,-7.00,-1032.00
2024-06-07 01:24:05.434855,3,0,106,0,0,0,79,81,25,140,75,99.22,59,51.00,-6.00,-1004.00
2024-06-07 01:24:05.519259,3,0,100,0,0,0,79,81,26,140,75,99.41,59,-77.00,80.00,-880.00
2024-06-07 01:24:05.682869,2,0,93,0,0,0,79,81,28,140,75,99.14,60,56.00,30.00,-1017.00
2024-06-07 01:24:05.682915,2,0,87,0,0,-1,77,81,31,140,75,99.40,60,-56.00,75.00,-1017.00
2024-06-07 01:24:05.826223,2,0,81,1,0,-1,77,81,33,140,75,99.48,60,79.00,55.00,-871.00
2024-06-07 01:24:05.876686,2,0,75,1,0,-1,77,81,35,140,75,99.34,60,-12.00,14.00,-993.00
2024-06-07 01:24:06.048977,2,0,69,0,0,0,77,81,36,150,75,99.56,60,146.00,-57.00,-1218.00
2024-06-07 01:24:06.133426,2,0,63,0,0,0,77,81,38,150,75,99.27,60,55.00,-13.00,-954.00
2024-06-07 01:24:06.184214,2,0,56,1,0,0,77,81,39,150,75,99.40,60,41.00,12.00,-918.00
2024-06-07 01:24:06.297282,3,2,50,1,0,0,77,81,39,150,75,99.38,60,109.00,-131.00,-1066.00
2024-06-07 01:24:06.454621,3,1,44,1,0,0,77,81,40,150,75,99.26,60,-76.00,-38.00,-1010.00
2024-06-07 01:24:06.491275,2,0,38,0,0,0,77,81,40,150,75,99.39,60,13.00,-191.00,-1144.00
2024-06-07 01:24:06.590687,2,1,32,1,-1,0,77,81,40,150,75,99.18,61,-44.00,-12.00,-899.00
2024-06-07 01:24:06.693142,1,2,27,0,-1,0,78,81,39,150,75,99.33,61,17.00,49.00,-1011.00
2024-06-07 01:24:06.794572,0,0,23,0,0,1,78,81,38,150,75,99.63,61,77.00,-25.00,-1071.00
2024-06-07 01:24:06.896552,0,0,20,0,0,0,78,81,38,150,75,99.35,61,-14.00,-13.00,-1092.00
2024-06-07 01:24:07.009170,0,-1,18,0,0,0,78,81,38,150,75,99.73,61,16.00,4.00,-955.00
2024-06-07 01:24:07.100587,0,-1,16,0,0,0,78,81,38,150,75,99.50,61,41.00,8.00,-976.00
2024-06-07 01:24:07.207974,1,-1,15,0,0,0,78,81,39,150,75,99.59,61,65.00,-9.00,-929.00
2024-06-07 01:24:07.304525,1,-1,14,0,0,0,78,81,40,150,75,99.73,61,117.00,6.00,-991.00
2024-06-07 01:24:07.406655,1,-1,14,0,0,0,78,81,41,150,75,99.62,61,-51.00,20.00,-1002.00
2024-06-07 01:24:07.508605,1,-1,13,0,0,0,78,81,41,150,75,99.48,61,128.00,-55.00,-1009.00
2024-06-07 01:24:07.617718,2,0,13,0,0,0,78,81,41,150,75,99.27,62,63.00,12.00,-1039.00
2024-06-07 01:24:07.713003,1,0,13,0,0,0,78,81,41,150,75,99.39,62,-80.00,41.00,-892.00
2024-06-07 01:24:07.824550,1,0,13,0,0,0,78,81,42,150,75,99.65,62,116.00,-81.00,-1067.00
2024-06-07 01:24:07.916557,1,0,14,0,0,0,78,81,42,150,75,99.53,62,-34.00,24.00,-1018.00
2024-06-07 01:24:08.029047,0,0,14,0,0,0,78,81,42,150,75,99.50,62,43.00,21.00,-912.00
2024-06-07 01:24:08.120609,0,0,14,0,0,0,78,81,42,150,75,99.47,62,52.00,27.00,-904.00
2024-06-07 01:24:08.222733,1,0,14,0,0,0,78,81,42,150,75,99.64,62,38.00,55.00,-883.00
2024-06-07 01:24:08.324715,0,0,14,0,0,0,78,81,43,150,75,99.53,62,-1.00,26.00,-965.00
2024-06-07 01:24:08.436958,0,0,14,0,0,0,78,81,42,150,75,99.37,62,-82.00,47.00,-1042.00
2024-06-07 01:24:08.528511,0,0,14,0,0,0,78,81,42,150,75,99.64,62,-103.00,71.00,-865.00
2024-06-07 01:24:08.579441,0,0,14,0,0,0,78,81,42,150,75,99.38,63,28.00,33.00,-1002.00
2024-06-07 01:24:08.749914,1,0,14,0,0,0,78,82,42,150,75,99.59,63,34.00,31.00,-1130.00
2024-06-07 01:24:08.834523,1,0,14,0,0,0,78,82,41,150,75,99.41,63,179.00,-20.00,-979.00
2024-06-07 01:24:08.948675,1,0,14,0,0,0,78,82,40,150,75,99.54,63,69.00,6.00,-909.00
2024-06-07 01:24:09.038375,1,0,14,0,0,1,78,82,39,150,75,99.26,63,38.00,31.00,-953.00
2024-06-07 01:24:09.089430,1,0,14,0,0,1,78,82,38,150,75,99.39,63,37.00,46.00,-897.00
