TS,pitch,roll,yaw,vgx,vgy,vgz,templ,temph,tof,h,bat,baro,time,agx,agy,agz
2024-06-07 01:20:10.632444,0,0,0,0,0,0,78,80,10,0,21,98.55,142,-4.00,12.00,-1000.00
2024-06-07 01:20:10.713779,0,0,0,0,0,0,78,80,10,0,21,98.25,142,-4.00,12.00,-1002.00
2024-06-07 01:20:10.837402,0,0,0,0,0,0,78,80,10,0,21,98.29,142,-6.00,11.00,-999.00
2024-06-07 01:20:10.917674,0,0,0,0,0,0,78,80,10,0,21,98.58,142,-5.00,11.00,-1000.00
2024-06-07 01:20:11.041965,0,0,0,0,0,0,78,80,10,0,21,98.69,142,-4.00,11.00,-999.00
2024-06-07 01:20:11.121188,0,0,0,0,0,0,78,80,10,0,21,98.43,142,-5.00,10.00,-1000.00
2024-06-07 01:20:11.246771,0,0,0,0,0,0,78,79,10,0,21,98.37,142,-5.00,10.00,-1000.00
2024-06-07 01:20:11.325359,0,0,0,0,0,0,78,79,10,0,21,98.51,142,-5.00,10.00,-1001.00
2024-06-07 01:20:11.451367,0,0,0,0,0,0,78,79,10,0,21,98.40,142,-5.00,11.00,-998.00
2024-06-07 01:20:11.529351,0,0,0,0,0,0,78,79,10,0,21,98.60,142,-5.00,10.00,-998.00
2024-06-07 01:20:11.656467,0,0,0,0,0,0,78,79,10,0,21,98.45,142,-3.00,10.00,-1000.00
2024-06-07 01:20:11.733158,0,0,0,0,0,0,78,79,10,0,21,98.30,142,-5.00,12.00,-998.00
2024-06-07 01:20:11.861026,0,0,0,0,0,0,78,79,10,0,21,98.32,142,-5.00,11.00,-998.00
2024-06-07 01:20:11.937356,0,0,0,0,0,0,78,79,10,0,21,98.44,142,-4.00,10.00,-1000.00
2024-06-07 01:20:12.065903,0,0,0,0,0,0,78,79,10,0,21,98.51,142,-5.00,11.00,-1001.00
2024-06-07 01:20:12.141234,0,0,0,0,0,0,78,79,10,0,21,98.73,142,-6.00,12.00,-1002.00
2024-06-07 01:20:12.243299,0,0,0,0,0,0,77,80,10,0,21,98.15,142,-5.00,12.00,-999.00
2024-06-07 01:20:12.372835,0,0,0,0,0,0,77,80,10,0,21,98.67,142,-6.00,11.00,-1000.00
2024-06-07 01:20:12.447198,0,0,0,0,0,0,77,80,10,0,21,98.48,142,-5.00,11.00,-1001.00
2024-06-07 01:20:12.498403,0,0,0,0,0,0,77,80,10,0,21,98.47,142,-6.00,12.00,-1000.00
2024-06-07 01:20:12.680105,0,0,0,0,0,0,77,80,10,0,21,98.34,142,-5.00,12.00,-997.00
2024-06-07 01:20:12.701920,0,0,0,0,0,0,77,80,10,0,21,98.48,142,-5.00,10.00,-1001.00
2024-06-07 01:20:12.885158,0,0,0,0,0,0,77,80,10,0,21,98.64,142,-4.00,10.00,-998.00
2024-06-07 01:20:12.906629,0,0,0,0,0,0,77,80,10,0,21,98.35,142,-5.00,12.00,-1000.00
2024-06-07 01:20:13.090444,0,0,0,0,0,0,77,80,10,0,21,98.57,142,-5.00,12.00,-1000.00
2024-06-07 01:20:13.110094,0,0,0,0,0,0,77,80,10,0,21,98.45,142,-4.00,9.00,-999.00
2024-06-07 01:20:13.294569,0,0,0,0,0,0,78,80,10,0,21,98.72,142,-7.00,11.00,-998.00
2024-06-07 01:20:13.315590,0,0,0,0,0,0,78,80,10,0,21,98.28,142,-6.00,11.00,-1001.00
2024-06-07 01:20:13.415988,0,0,0,0,0,0,78,80,10,0,21,98.49,142,-6.00,10.00,-1000.00
2024-06-07 01:20:13.601633,0,0,0,0,0,0,78,80,10,0,21,98.59,142,-6.00,10.00,-998.00
2024-06-07 01:20:13.620071,0,0,0,0,0,0,78,80,10,0,21,98.48,142,-5.00,11.00,-999.00
2024-06-07 01:20:13.806617,0,0,0,0,0,0,78,80,10,0,21,98.68,142,-5.00,12.00,-998.00
2024-06-07 01:20:13.824052,0,0,0,0,0,0,78,80,10,0,21,98.42,142,-5.00,11.00,-998.00
2024-06-07 01:20:14.011727,0,0,0,0,0,0,78,80,10,0,21,98.56,142,-6.00,11.00,-997.00
2024-06-07 01:20:14.027991,0,0,0,0,0,0,78,80,10,0,21,98.33,142,-5.00,11.00,-995.00
2024-06-07 01:20:14.129937,0,0,0,0,0,0,78,80,10,0,21,98.65,142,-6.00,11.00,-1000.00
2024-06-07 01:20:14.319315,0,0,0,0,0,0,77,80,10,0,21,98.52,142,0.00,9.00,-1000.00
2024-06-07 01:20:14.333802,0,0,0,0,0,0,77,80,10,0,21,98.52,142,0.00,11.00,-994.00
2024-06-07 01:20:14.523248,0,0,0,0,0,0,77,80,10,0,21,98.52,142,-31.00,17.00,-996.00
2024-06-07 01:20:14.537731,0,0,0,0,0,0,77,80,10,0,21,98.52,142,1.00,-34.00,-998.00
2024-06-07 01:20:14.728245,0,0,0,0,0,1,77,80,10,-10,21,98.52,142,60.00,-21.00,-935.00
2024-06-07 01:20:14.742892,0,0,0,0,0,1,77,80,10,-10,21,98.52,142,20.00,-4.00,-1095.00
2024-06-07 01:20:14.932687,0,0,1,0,0,1,77,80,10,-20,21,98.52,142,-9.00,57.00,-1157.00
2024-06-07 01:20:14.946915,0,0,1,0,0,1,77,80,10,-20,21,98.52,143,65.00,-1.00,-1252.00
2024-06-07 01:20:15.137506,2,0,1,1,0,0,77,80,12,-30,21,98.58,143,9.00,6.00,-1197.00
2024-06-07 01:20:15.150850,2,0,1,0,0,-2,77,80,21,-40,21,98.87,143,14.00,34.00,-1004.00
2024-06-07 01:20:15.254225,1,0,1,0,0,-2,77,81,29,-40,21,99.09,143,-22.00,-19.00,-1064.00
2024-06-07 01:20:15.444727,1,0,1,0,0,-2,77,81,35,-40,21,99.05,143,40.00,-14.00,-1057.00
2024-06-07 01:20:15.458226,1,0,1,0,0,-3,77,81,47,-40,21,99.21,143,-45.00,33.00,-994.00
2024-06-07 01:20:15.558916,0,-1,1,0,0,-3,77,81,56,-40,21,99.16,143,67.00,-11.00,-1035.00
2024-06-07 01:20:15.756969,0,-1,1,0,0,-4,77,81,68,-40,21,99.09,143,24.00,43.00,-1054.00
2024-06-07 01:20:15.757233,2,-1,1,0,0,-4,77,81,80,-40,21,99.16,143,41.00,9.00,-1000.00
2024-06-07 01:20:15.813802,2,0,1,0,0,-3,77,81,91,-30,21,99.56,143,91.00,2.00,-1001.00
2024-06-07 01:20:15.961077,2,0,1,0,0,-2,77,81,101,-20,21,99.42,144,17.00,24.00,-869.00
2024-06-07 01:20:16.017788,1,0,1,0,0,-2,77,81,110,-20,21,99.74,144,98.00,5.00,-911.00
2024-06-07 01:20:16.167923,1,-1,1,0,0,-1,77,81,119,-10,21,99.81,144,46.00,-6.00,-941.00
2024-06-07 01:20:16.366586,1,0,1,0,0,0,79,81,126,0,21,99.88,144,-9.00,15.00,-828.00
2024-06-07 01:20:16.366998,1,0,1,0,0,0,79,81,132,0,21,100.12,144,74.00,0.00,-907.00
2024-06-07 01:20:16.425738,2,0,1,0,0,1,79,81,135,0,21,100.15,144,18.00,19.00,-833.00
2024-06-07 01:20:16.571118,1,0,1,0,0,2,79,81,139,0,21,100.17,144,14.00,2.00,-879.00
2024-06-07 01:20:16.631196,1,0,1,0,0,2,79,81,141,0,21,99.98,144,-73.00,81.00,-856.00
2024-06-07 01:20:16.777814,1,0,1,0,0,3,79,81,142,10,21,99.73,144,-51.00,31.00,-909.00
2024-06-07 01:20:16.834726,1,0,1,0,0,3,79,81,142,10,21,100.02,145,-28.00,52.00,-805.00
2024-06-07 01:20:16.981050,1,0,1,0,0,3,79,81,142,10,21,99.98,145,-6.00,20.00,-865.00
2024-06-07 01:20:17.039037,1,0,1,0,0,3,79,81,140,10,21,100.08,145,36.00,11.00,-958.00
2024-06-07 01:20:17.199014,1,0,1,0,0,4,79,81,139,10,21,100.03,145,28.00,15.00,-908.00
2024-06-07 01:20:17.341489,1,0,1,0,0,4,78,81,135,10,21,99.79,145,21.00,21.00,-971.00
2024-06-07 01:20:17.344666,1,-1,1,0,0,4,78,81,132,10,21,99.96,145,-26.00,43.00,-901.00
2024-06-07 01:20:17.488391,1,0,1,0,0,3,78,81,129,10,21,100.19,145,87.00,-30.00,-1107.00
2024-06-07 01:20:17.548832,1,0,1,0,0,4,78,81,125,0,21,100.04,145,85.00,20.00,-1179.00
2024-06-07 01:20:17.651431,1,0,1,0,0,4,78,81,122,0,21,99.99,145,47.00,-28.00,-1071.00
2024-06-07 01:20:17.752597,1,0,1,0,0,3,78,81,117,0,21,99.61,145,113.00,-35.00,-1100.00
2024-06-07 01:20:17.924117,1,0,1,0,0,3,78,81,113,0,21,99.65,146,-3.00,26.00,-1030.00
2024-06-07 01:20:17.992841,0,0,1,0,0,3,78,81,108,0,21,99.89,146,-70.00,45.00,-920.00
2024-06-07 01:20:18.088232,1,0,1,0,0,2,78,81,105,0,21,99.94,146,33.00,10.00,-971.00
2024-06-07 01:20:18.165624,1,0,1,0,0,2,78,81,101,0,21,99.76,146,60.00,-29.00,-1140.00
2024-06-07 01:20:18.262578,1,0,1,0,0,2,78,80,98,0,21,99.35,146,33.00,-6.00,-1101.00
2024-06-07 01:20:18.425099,1,0,1,0,0,2,78,80,95,-10,21,99.79,146,22.00,20.00,-1137.00
2024-06-07 01:20:18.573121,1,0,1,0,0,1,78,80,92,-10,21,99.79,146,24.00,20.00,-1061.00
2024-06-07 01:20:18.573168,1,0,1,0,0,2,78,80,89,-10,21,99.76,146,98.00,-31.00,-1157.00
2024-06-07 01:20:18.732605,1,0,1,0,0,1,78,80,86,-10,21,99.65,146,-19.00,16.00,-948.00
2024-06-07 01:20:18.876483,1,0,1,0,0,1,78,80,83,-10,21,99.65,146,-33.00,8.00,-1018.00
2024-06-07 01:20:18.876541,1,0,1,0,0,1,78,80,81,-20,21,99.61,147,12.00,22.00,-1056.00
2024-06-07 01:20:19.039504,2,0,1,0,0,1,78,80,79,-20,21,99.49,147,-35.00,48.00,-895.00
2024-06-07 01:20:19.193751,2,0,1,0,0,0,78,80,78,-20,21,99.54,147,-29.00,28.00,-978.00
2024-06-07 01:20:19.193815,2,0,1,0,0,0,78,80,77,-20,21,99.73,147,-24.00,61.00,-968.00
2024-06-07 01:20:19.282473,2,0,1,0,0,0,78,80,75,-20,21,99.24,147,16.00,-2.00,-1035.00
2024-06-07 01:20:19.438383,1,0,1,0,0,0,78,80,75,-20,21,99.48,147,37.00,28.00,-1004.00
2024-06-07 01:20:19.486417,1,0,1,0,0,0,78,80,74,-20,21,99.26,147,0.00,19.00,-908.00
2024-06-07 01:20:19.642956,1,0,1,0,0,0,78,80,74,-20,21,99.33,147,-68.00,27.00,-916.00
2024-06-07 01:20:19.690441,2,0,1,0,0,0,78,80,74,-30,21,99.30,147,102.00,-24.00,-1119.00
2024-06-07 01:20:19.742300,2,0,1,0,0,0,78,80,74,-30,21,99.53,147,-22.00,-25.00,-1029.00
2024-06-07 01:20:19.843498,1,0,1,0,0,0,78,80,75,-30,21,99.25,148,23.00,-6.00,-903.00
2024-06-07 01:20:19.945413,1,0,1,0,0,0,78,80,75,-30,21,99.66,148,-7.00,19.00,-976.00
2024-06-07 01:20:20.052763,2,0,1,0,0,0,78,80,76,-20,21,99.70,148,-4.00,3.00,-924.00
2024-06-07 01:20:20.149436,2,0,1,0,0,0,78,80,77,-20,21,99.49,148,34.00,-15.00,-985.00
2024-06-07 01:20:20.258508,2,0,1,0,0,0,79,80,77,-20,21,99.44,148,41.00,43.00,-1043.00
2024-06-07 01:20:20.353420,2,0,1,0,0,0,79,80,77,-20,21,99.51,148,22.00,41.00,-1013.00
2024-06-07 01:20:20.462796,2,-1,1,0,0,0,79,80,78,-20,21,99.39,148,-15.00,9.00,-1035.00
2024-06-07 01:20:20.557310,2,-1,1,0,0,0,79,80,77,-20,21,99.50,148,19.00,14.00,-1020.00
2024-06-07 01:20:20.659683,2,0,1,0,0,0,79,80,77,-20,21,99.55,148,57.00,43.00,-932.00
2024-06-07 01:20:20.769957,2,0,1,0,0,0,79,80,76,-20,21,99.39,148,-88.00,31.00,-919.00
2024-06-07 01:20:20.863368,1,0,1,0,0,0,79,80,75,-20,21,99.46,149,29.00,21.00,-944.00
2024-06-07 01:20:20.977436,1,0,1,0,0,0,79,80,74,-20,21,99.41,149,9.00,-4.00,-1061.00
2024-06-07 01:20:21.067445,1,0,1,0,0,0,79,80,74,-20,21,99.25,149,78.00,-32.00,-1098.00
2024-06-07 01:20:21.180532,1,0,1,0,0,0,79,80,73,-20,21,99.30,149,-18.00,22.00,-1016.00
2024-06-07 01:20:21.271348,2,0,1,0,0,0,78,81,72,-30,21,99.38,149,-21.00,19.00,-1108.00
2024-06-07 01:20:21.384441,2,0,1,0,0,0,78,81,72,-30,21,99.51,149,-60.00,19.00,-978.00
2024-06-07 01:20:21.477066,1,0,1,0,0,0,78,81,71,-30,21,99.19,149,-13.00,29.00,-986.00
2024-06-07 01:20:21.577382,1,0,1,0,0,0,78,81,71,-30,21,99.38,149,61.00,1.00,-1059.00
2024-06-07 01:20:21.692047,2,0,1,0,0,0,78,81,71,-30,21,99.21,149,10.00,10.00,-1092.00
2024-06-07 01:20:21.781297,1,0,1,0,0,0,78,81,71,-30,21,99.38,149,63.00,-20.00,-983.00
2024-06-07 01:20:21.883303,2,0,1,0,0,0,78,81,71,-30,21,99.29,150,65.00,-32.00,-1089.00
2024-06-07 01:20:21.985378,2,0,1,0,0,0,78,81,71,-30,21,99.50,150,64.00,-9.00,-1191.00
2024-06-07 01:20:22.087293,1,0,1,0,0,0,78,81,71,-30,21,99.36,150,22.00,-18.00,-978.00
2024-06-07 01:20:22.203515,1,0,1,0,0,0,78,81,70,-30,21,99.30,150,45.00,-17.00,-1067.00
2024-06-07 01:20:22.291270,1,0,1,0,0,0,78,80,70,-30,21,99.51,150,18.00,-12.00,-987.00
2024-06-07 01:20:22.408216,1,0,1,0,0,0,78,80,69,-30,21,99.12,150,-84.00,45.00,-911.00
2024-06-07 01:20:22.495521,1,0,1,0,0,0,78,80,69,-30,21,99.44,150,29.00,5.00,-1024.00
2024-06-07 01:20:22.612761,1,0,1,0,0,0,78,80,68,-30,21,98.99,150,50.00,16.00,-1018.00
2024-06-07 01:20:22.699136,1,0,1,0,0,0,78,80,68,-30,21,99.06,150,31.00,0.00,-979.00
2024-06-07 01:20:22.821239,2,0,1,0,0,0,78,80,67,-30,21,99.24,150,19.00,-7.00,-1021.00
2024-06-07 01:20:22.904465,2,0,1,0,0,0,78,80,66,-30,21,99.26,151,-41.00,57.00,-938.00
2024-06-07 01:20:23.023123,2,0,1,0,0,0,78,80,66,-30,21,99.24,151,61.00,22.00,-906.00
2024-06-07 01:20:23.107376,2,0,1,0,0,0,78,80,65,-30,21,99.44,151,83.00,-33.00,-1092.00
2024-06-07 01:20:23.227095,1,0,1,0,0,0,78,80,65,-30,21,99.49,151,-21.00,-1.00,-933.00
2024-06-07 01:20:23.311897,1,0,1,0,0,0,77,80,65,-30,21,99.49,151,136.00,-28.00,-1064.00
2024-06-07 01:20:23.433776,2,0,1,0,0,0,77,80,65,-30,21,99.41,151,152.00,-53.00,-1069.00
2024-06-07 01:20:23.464144,2,0,1,0,0,0,77,80,64,-30,21,98.97,151,38.00,22.00,-1065.00
2024-06-07 01:20:23.638085,2,0,1,0,0,0,77,80,64,-30,21,99.52,151,-2.00,17.00,-920.00
2024-06-07 01:20:23.669027,1,0,1,0,0,0,77,80,64,-30,21,99.12,151,28.00,40.00,-939.00
2024-06-07 01:20:23.842963,1,-1,1,0,0,0,77,80,64,-30,21,99.23,151,172.00,-66.00,-1179.00
2024-06-07 01:20:23.875337,1,-1,1,0,0,0,77,80,65,-30,21,99.43,152,-7.00,5.00,-967.00
2024-06-07 01:20:23.975947,1,-1,1,0,0,0,77,80,65,-30,21,99.14,152,69.00,8.00,-1034.00
2024-06-07 01:20:24.148580,2,-1,1,0,0,0,77,80,65,-30,21,99.30,152,-28.00,31.00,-860.00
2024-06-07 01:20:24.179110,2,0,1,0,0,0,77,80,66,-30,21,99.21,152,30.00,6.00,-935.00
2024-06-07 01:20:24.281220,2,0,1,0,0,0,77,80,66,-30,21,99.59,152,110.00,10.00,-1026.00
2024-06-07 01:20:24.456721,2,0,1,0,0,0,77,80,67,-30,21,99.61,152,1.00,-3.00,-971.00
2024-06-07 01:20:24.485140,1,0,1,0,0,0,77,80,67,-30,21,99.28,152,-67.00,44.00,-871.00
2024-06-07 01:20:24.660548,1,0,1,0,0,0,77,80,67,-30,21,99.59,152,36.00,24.00,-1048.00
2024-06-07 01:20:24.689278,1,0,1,0,0,0,77,80,67,-30,21,99.24,152,89.00,42.00,-955.00
2024-06-07 01:20:24.857312,1,-1,1,0,0,0,77,80,67,-30,21,99.36,152,41.00,2.00,-1012.00
2024-06-07 01:20:24.892985,1,-1,1,0,0,0,77,80,67,-30,21,99.45,153,-15.00,18.00,-1037.00
2024-06-07 01:20:25.069861,1,-1,1,0,0,0,77,80,67,-30,21,99.19,153,-21.00,4.00,-973.00
2024-06-07 01:20:25.096848,1,0,1,0,0,0,77,80,67,-30,21,99.14,153,-7.00,2.00,-1075.00
2024-06-07 01:20:25.279866,1,0,1,0,0,-1,77,80,68,-30,21,99.66,153,76.00,-1.00,-1103.00
2024-06-07 01:20:25.301055,1,0,1,0,0,-2,77,80,70,-30,21,99.31,153,-84.00,58.00,-900.00
2024-06-07 01:20:25.479486,1,-1,1,0,0,-2,77,80,72,-30,21,99.36,153,14.00,-8.00,-1121.00
2024-06-07 01:20:25.504936,1,-1,1,0,0,-3,77,80,76,-20,21,99.19,153,88.00,-34.00,-1176.00
2024-06-07 01:20:25.684304,2,-1,1,0,0,-4,77,80,80,-20,21,99.30,153,-20.00,14.00,-1021.00
2024-06-07 01:20:25.709793,2,0,1,0,0,-4,77,80,84,-20,21,99.46,153,35.00,19.00,-1013.00
2024-06-07 01:20:25.855124,2,0,1,0,0,-5,77,80,89,-10,21,99.45,153,55.00,-9.00,-1033.00
2024-06-07 01:20:25.912903,2,-1,1,0,0,-5,77,80,95,-10,21,99.49,154,53.00,31.00,-1112.00
2024-06-07 01:20:26.099172,2,-1,1,0,0,-5,77,80,101,0,21,99.43,154,-40.00,13.00,-1005.00
2024-06-07 01:20:26.116799,2,0,1,0,0,-5,77,80,107,0,21,99.63,154,28.00,0.00,-940.00
2024-06-07 01:20:26.298650,2,0,1,0,0,-5,77,80,112,0,21,99.86,154,-30.00,54.00,-949.00
2024-06-07 01:20:26.320894,2,-1,1,0,0,-5,77,80,117,10,21,99.62,154,40.00,22.00,-969.00
2024-06-07 01:20:26.503754,2,-1,1,0,0,-5,77,80,122,10,21,100.01,154,-49.00,18.00,-903.00
2024-06-07 01:20:26.528884,2,-1,1,0,0,-5,77,80,126,20,21,100.10,154,21.00,38.00,-994.00
2024-06-07 01:20:26.626883,2,-1,1,0,0,-4,77,80,132,20,21,99.56,154,111.00,-34.00,-1065.00
2024-06-07 01:20:26.728691,2,-1,1,0,0,-4,77,80,135,20,21,99.81,154,75.00,24.00,-1043.00
2024-06-07 01:20:26.914288,2,0,1,0,0,-3,77,80,139,30,21,100.09,154,9.00,1.00,-1015.00
2024-06-07 01:20:26.933401,2,-1,1,0,0,-3,77,80,143,30,21,100.09,155,72.00,-2.00,-914.00
2024-06-07 01:20:27.121123,1,-1,1,0,0,-3,77,80,146,30,21,99.92,155,-15.00,45.00,-961.00
2024-06-07 01:20:27.121182,1,-1,1,0,0,-3,77,80,149,40,21,100.43,155,-69.00,37.00,-834.00
2024-06-07 01:20:27.187996,1,-1,1,0,0,-2,77,80,152,40,21,100.18,155,55.00,0.00,-1079.00
2024-06-07 01:20:27.289745,1,-1,1,0,0,-2,78,80,156,40,21,100.39,155,129.00,1.00,-1013.00
2024-06-07 01:20:27.424916,1,-1,1,0,0,-2,78,80,156,50,21,100.10,155,12.00,-6.00,-974.00
2024-06-07 01:20:27.493661,1,-1,1,0,0,-1,78,80,158,50,21,100.06,155,60.00,0.00,-990.00
2024-06-07 01:20:27.629918,1,-1,1,0,0,-1,78,80,161,50,21,100.26,155,-4.00,54.00,-964.00
2024-06-07 01:20:27.698181,1,-1,1,0,0,-1,78,80,162,50,21,100.20,155,55.00,39.00,-985.00
2024-06-07 01:20:27.840028,1,-1,1,0,0,-1,78,80,163,50,21,100.32,155,-3.00,52.00,-974.00
2024-06-07 01:20:27.902596,1,-1,1,0,0,0,78,80,164,50,21,100.12,156,83.00,-16.00,-972.00
2024-06-07 01:20:28.039298,2,0,1,0,0,0,78,80,163,50,21,100.24,156,-65.00,59.00,-941.00
2024-06-07 01:20:28.106886,2,-1,1,0,0,0,78,80,164,50,21,100.21,156,-11.00,77.00,-936.00
2024-06-07 01:20:28.249963,2,-1,1,0,0,0,78,80,163,50,21,100.28,156,-11.00,39.00,-956.00
2024-06-07 01:20:28.310790,1,-1,1,0,0,0,77,80,164,50,21,100.19,156,-19.00,8.00,-908.00
2024-06-07 01:20:28.412759,1,-1,1,0,0,0,77,80,163,50,21,100.54,156,20.00,33.00,-1019.00
2024-06-07 01:20:28.514851,1,-1,1,0,0,0,77,80,162,50,21,100.38,156,-22.00,50.00,-1106.00
2024-06-07 01:20:28.653873,1,0,1,0,0,0,77,80,161,50,21,100.15,156,107.00,-29.00,-998.00
2024-06-07 01:20:28.718744,1,0,1,0,0,0,77,80,160,50,21,100.07,156,93.00,22.00,-1129.00
2024-06-07 01:20:28.858863,1,-1,1,0,0,0,77,80,159,50,21,100.25,156,4.00,56.00,-931.00
2024-06-07 01:20:28.922868,1,-1,1,0,0,0,77,80,158,50,21,100.11,157,48.00,2.00,-1149.00
2024-06-07 01:20:29.063461,1,0,1,0,0,0,77,80,156,50,21,100.15,157,13.00,2.00,-908.00
2024-06-07 01:20:29.126908,1,-1,1,0,0,0,77,80,154,50,21,100.23,157,33.00,-8.00,-1010.00
2024-06-07 01:20:29.268502,1,-1,1,0,0,0,77,80,153,50,21,100.19,157,74.00,28.00,-1012.00
2024-06-07 01:20:29.330658,1,-1,1,0,0,0,77,80,152,50,21,99.83,157,72.00,24.00,-990.00
2024-06-07 01:20:29.472991,1,-1,1,0,0,0,77,80,151,50,21,100.19,157,43.00,13.00,-1101.00
2024-06-07 01:20:29.534813,1,-1,1,0,0,0,77,80,149,50,21,100.26,157,48.00,-3.00,-1070.00
2024-06-07 01:20:29.677820,1,0,1,0,0,0,77,80,148,40,21,100.12,157,-45.00,6.00,-978.00
2024-06-07 01:20:29.738666,1,0,1,0,0,0,77,80,148,40,21,100.17,157,74.00,-9.00,-1014.00
2024-06-07 01:20:29.882668,1,0,1,0,0,0,77,80,147,40,21,100.15,157,-38.00,60.00,-1116.00
2024-06-07 01:20:29.942566,1,-1,1,0,0,0,77,80,146,40,21,100.18,158,-61.00,64.00,-866.00
2024-06-07 01:20:30.087409,1,-1,1,0,0,0,77,80,146,40,21,99.84,158,-39.00,34.00,-1013.00
2024-06-07 01:20:30.146511,1,-1,1,0,0,0,77,80,146,40,21,100.13,158,15.00,-12.00,-1071.00
2024-06-07 01:20:30.292079,1,-1,1,0,0,0,77,80,145,40,21,99.80,158,23.00,50.00,-880.00
2024-06-07 01:20:30.350807,1,-1,1,0,0,0,78,81,144,40,21,100.21,158,-26.00,44.00,-1000.00
2024-06-07 01:20:30.500638,1,-1,1,0,0,1,78,81,142,40,21,99.85,158,56.00,-12.00,-864.00
2024-06-07 01:20:30.554471,1,-1,1,0,0,1,78,81,139,40,21,99.89,158,-7.00,46.00,-898.00
2024-06-07 01:20:30.609516,2,-1,1,0,0,2,78,81,137,30,21,99.93,158,-65.00,12.00,-942.00
2024-06-07 01:20:30.707944,2,-1,1,0,0,2,78,81,134,30,21,99.72,158,-88.00,52.00,-942.00
2024-06-07 01:20:30.907099,2,-1,1,0,0,2,78,81,130,30,21,99.95,158,-54.00,5.00,-1017.00
2024-06-07 01:20:30.911278,1,-1,1,0,0,2,78,81,127,20,21,99.91,159,21.00,47.00,-988.00
2024-06-07 01:20:31.111275,1,-1,1,0,0,2,78,81,123,20,21,100.00,159,91.00,3.00,-1092.00
2024-06-07 01:20:31.115309,1,-1,1,0,0,3,78,81,119,20,21,99.55,159,-26.00,23.00,-975.00
2024-06-07 01:20:31.316055,1,-1,1,0,0,2,78,81,115,10,21,99.88,159,-48.00,52.00,-889.00
2024-06-07 01:20:31.319676,1,-1,1,0,0,2,77,80,112,10,21,99.71,159,57.00,23.00,-1021.00
2024-06-07 01:20:31.421495,1,0,1,0,0,2,77,80,109,10,21,99.95,159,98.00,-42.00,-1021.00
2024-06-07 01:20:31.523446,1,-1,1,0,0,2,77,80,105,10,21,99.93,159,101.00,-12.00,-1134.00
2024-06-07 01:20:31.625442,2,0,1,0,0,2,77,80,102,0,21,99.59,159,57.00,3.00,-1158.00
2024-06-07 01:20:31.727508,2,0,1,0,0,1,77,80,100,0,21,99.68,159,4.00,52.00,-895.00
2024-06-07 01:20:31.930439,2,-1,1,0,0,1,77,80,96,0,21,99.76,159,38.00,27.00,-1011.00
2024-06-07 01:20:31.931385,1,-1,1,0,0,1,77,80,94,0,21,99.75,160,-76.00,107.00,-965.00
2024-06-07 01:20:32.113014,1,-1,1,0,0,1,77,80,92,0,21,99.30,160,106.00,-25.00,-1077.00
2024-06-07 01:20:32.135704,1,-1,1,0,0,0,77,80,90,0,21,99.37,160,-31.00,61.00,-1047.00
2024-06-07 01:20:32.280010,1,-1,1,0,0,1,77,80,88,0,21,99.48,160,-7.00,82.00,-970.00
2024-06-07 01:20:32.340654,1,-1,1,0,0,0,78,80,87,0,21,99.35,160,40.00,-5.00,-1028.00
2024-06-07 01:20:32.442908,1,-1,1,0,0,0,78,80,85,0,21,99.61,160,-38.00,31.00,-1047.00
2024-06-07 01:20:32.749812,1,-1,1,0,0,0,78,80,85,0,21,99.61,160,36.00,57.00,-965.00
2024-06-07 01:20:32.776961,2,0,1,0,0,0,78,80,84,0,21,99.51,160,150.00,-20.00,-1210.00
2024-06-07 01:20:32.777086,1,0,1,0,0,0,78,80,83,0,21,99.65,160,14.00,16.00,-1053.00
2024-06-07 01:20:32.931672,1,-1,1,0,0,0,78,80,83,0,21,99.31,161,-21.00,9.00,-979.00
2024-06-07 01:20:32.951414,1,-1,1,0,0,0,78,80,82,0,21,99.57,161,55.00,-7.00,-994.00
2024-06-07 01:20:33.056875,1,-1,1,0,0,0,78,80,82,0,21,99.19,161,7.00,19.00,-1076.00
2024-06-07 01:20:33.170685,1,-1,1,0,0,0,78,80,82,0,21,99.55,161,-36.00,58.00,-971.00
2024-06-07 01:20:33.314749,1,-1,1,0,0,0,78,80,81,0,21,99.52,161,72.00,8.00,-1003.00
2024-06-07 01:20:33.359807,1,-1,1,0,0,0,78,80,81,-10,21,99.61,161,-55.00,43.00,-920.00
2024-06-07 01:20:33.477758,1,-1,1,0,0,0,78,80,81,-10,21,99.43,161,28.00,16.00,-992.00
2024-06-07 01:20:33.621781,1,-2,1,0,0,0,78,80,81,0,21,99.51,161,-48.00,44.00,-925.00
2024-06-07 01:20:33.665345,1,-2,1,0,0,0,78,80,82,0,21,99.43,161,30.00,40.00,-1038.00
2024-06-07 01:20:33.784658,1,-2,1,0,0,0,78,80,82,0,21,99.56,161,-16.00,29.00,-906.00
2024-06-07 01:20:33.929349,1,-2,1,0,0,0,78,80,82,0,21,99.58,162,21.00,20.00,-1068.00
2024-06-07 01:20:33.972034,1,-1,1,0,0,0,78,80,83,0,21,99.60,162,-94.00,100.00,-850.00
2024-06-07 01:20:34.091796,1,-1,1,0,0,0,78,80,83,0,21,99.27,162,1.00,24.00,-1052.00
2024-06-07 01:20:34.241150,-4,0,1,0,0,0,78,80,83,0,21,99.18,162,119.00,-2.00,-1063.00
2024-06-07 01:20:34.241312,-6,0,1,1,0,0,78,80,84,0,21,99.55,162,-80.00,58.00,-914.00
2024-06-07 01:20:34.398782,-7,-1,1,3,0,0,77,80,84,0,21,99.26,162,26.00,7.00,-1096.00
2024-06-07 01:20:34.544333,-6,-1,1,4,0,0,77,80,84,0,21,99.45,162,-85.00,29.00,-961.00
2024-06-07 01:20:34.544695,-6,-1,1,5,0,0,77,80,85,0,21,99.75,162,-11.00,12.00,-993.00
2024-06-07 01:20:34.706243,-5,-1,1,6,0,0,77,80,85,0,21,99.35,162,-24.00,32.00,-957.00
2024-06-07 01:20:34.860239,-4,-1,1,6,0,0,77,80,86,0,21,99.37,162,-5.00,-15.00,-994.00
2024-06-07 01:20:34.860302,-3,-1,1,7,0,0,77,80,87,0,21,99.74,163,27.00,-11.00,-950.00
2024-06-07 01:20:34.941692,-1,-1,1,7,0,0,77,80,87,0,21,99.39,163,5.00,0.00,-1020.00
2024-06-07 01:20:35.042369,1,0,1,7,0,0,77,80,87,0,21,99.48,163,-81.00,18.00,-1025.00
2024-06-07 01:20:35.146248,4,0,1,6,0,0,77,80,88,0,21,99.55,163,-76.00,36.00,-955.00
2024-06-07 01:20:35.245961,5,0,1,5,0,0,77,80,89,0,21,99.84,163,-7.00,-19.00,-1036.00
2024-06-07 01:20:35.348697,5,0,1,4,0,0,77,80,90,0,21,99.70,163,16.00,9.00,-983.00
2024-06-07 01:20:35.514191,3,0,1,3,0,0,77,80,90,0,21,99.61,163,-102.00,67.00,-920.00
2024-06-07 01:20:35.552014,2,0,1,3,0,0,77,80,90,0,21,99.75,163,-37.00,20.00,-1069.00
2024-06-07 01:20:35.719960,2,0,1,3,0,0,77,80,90,0,21,99.68,163,31.00,-19.00,-1050.00
2024-06-07 01:20:35.757849,1,0,1,2,0,0,77,80,91,0,21,99.59,163,39.00,-36.00,-987.00
2024-06-07 01:20:35.857922,1,0,1,2,0,0,77,80,90,0,21,99.51,164,71.00,-26.00,-1012.00
2024-06-07 01:20:35.959930,1,0,1,2,0,0,77,80,91,0,21,99.56,164,51.00,-13.00,-1047.00
2024-06-07 01:20:36.128580,2,0,1,2,0,0,77,80,90,0,21,99.81,164,-17.00,5.00,-1016.00
2024-06-07 01:20:36.163878,2,0,1,2,0,0,77,80,90,0,21,99.38,164,-27.00,-4.00,-834.00
2024-06-07 01:20:36.333370,5,0,1,1,0,0,77,80,90,0,21,99.23,164,93.00,-42.00,-1076.00
2024-06-07 01:20:36.367882,4,0,1,0,0,0,78,81,90,0,21,99.55,164,38.00,25.00,-1054.00
2024-06-07 01:20:36.469929,2,0,1,0,0,0,78,81,90,0,21,99.78,164,-54.00,12.00,-1056.00
2024-06-07 01:20:36.641751,2,0,1,0,0,0,78,81,90,0,21,99.38,164,-14.00,23.00,-921.00
2024-06-07 01:20:36.674988,1,0,1,0,0,0,78,81,90,0,21,99.48,164,63.00,-11.00,-1032.00
2024-06-07 01:20:36.775881,1,0,1,0,0,0,78,81,90,0,21,99.53,164,66.00,-24.00,-1079.00
2024-06-07 01:20:36.948001,1,0,1,0,0,0,78,81,90,0,21,99.50,165,-2.00,-11.00,-951.00
2024-06-07 01:20:36.979955,1,-1,1,0,0,0,78,81,90,0,21,99.36,165,64.00,-17.00,-1128.00
2024-06-07 01:20:37.153437,1,-1,1,0,0,0,78,81,89,0,21,99.54,165,-34.00,0.00,-989.00
2024-06-07 01:20:37.184112,1,0,1,0,0,0,78,81,89,0,21,99.48,165,53.00,23.00,-1081.00
2024-06-07 01:20:37.358999,1,0,1,0,0,0,78,81,89,0,21,99.70,165,42.00,3.00,-1049.00
2024-06-07 01:20:37.389850,1,-1,1,0,0,0,78,80,89,0,21,99.40,165,86.00,-13.00,-1032.00
2024-06-07 01:20:37.490070,2,-1,1,0,0,0,78,80,89,0,21,99.39,165,52.00,8.00,-1032.00
2024-06-07 01:20:37.664706,2,-1,1,0,0,0,78,80,88,0,21,99.50,165,3.00,3.00,-884.00
2024-06-07 01:20:37.693959,1,-1,1,0,0,0,78,80,88,0,21,99.47,165,-106.00,74.00,-922.00
2024-06-07 01:20:37.875776,1,-1,1,0,0,0,78,80,88,0,21,99.34,165,-15.00,20.00,-912.00
2024-06-07 01:20:37.897942,2,-1,1,0,0,0,78,80,87,0,21,99.58,166,-91.00,72.00,-873.00
2024-06-07 01:20:38.075778,2,0,1,0,0,0,78,80,87,0,21,99.56,166,31.00,-9.00,-1053.00
2024-06-07 01:20:38.075958,1,0,1,0,0,0,78,80,86,0,21,99.58,166,40.00,10.00,-1092.00
2024-06-07 01:20:38.153013,1,0,1,0,0,0,78,80,86,0,21,99.32,166,49.00,9.00,-1028.00
2024-06-07 01:20:38.279409,2,0,1,0,0,0,78,80,86,0,21,99.38,166,-46.00,63.00,-974.00
2024-06-07 01:20:38.407943,1,-1,1,0,0,0,78,80,85,0,21,99.47,166,-45.00,42.00,-958.00
2024-06-07 01:20:38.458801,0,-1,1,0,0,0,78,80,84,0,21,99.33,166,54.00,3.00,-1079.00
2024-06-07 01:20:38.586066,1,0,1,0,0,0,78,80,84,0,21,99.44,166,66.00,-11.00,-1045.00
2024-06-07 01:20:38.662812,7,0,1,0,0,0,78,80,84,0,21,99.29,166,-9.00,30.00,-973.00
2024-06-07 01:20:38.764772,8,0,1,-1,0,0,78,80,85,0,21,99.61,166,108.00,-8.00,-1086.00
2024-06-07 01:20:38.893368,8,0,1,-2,0,0,78,80,85,0,21,99.55,167,3.00,34.00,-901.00
2024-06-07 01:20:38.968979,8,0,1,-3,0,0,78,80,84,0,21,99.61,167,33.00,29.00,-1041.00
2024-06-07 01:20:39.098118,8,0,1,-4,0,0,78,80,85,0,21,99.54,167,-9.00,9.00,-1103.00
2024-06-07 01:20:39.173073,8,0,1,-6,0,0,78,80,86,0,21,99.44,167,-9.00,13.00,-930.00
2024-06-07 01:20:39.302837,8,0,1,-6,0,0,78,80,86,0,21,99.26,167,28.00,26.00,-1043.00
2024-06-07 01:20:39.376741,7,0,1,-7,0,0,78,80,86,0,21,99.53,167,69.00,0.00,-927.00
2024-06-07 01:20:39.507842,4,0,1,-8,0,0,78,80,85,0,21,99.38,167,123.00,-35.00,-974.00
2024-06-07 01:20:39.581386,0,0,1,-8,0,0,78,80,85,0,21,99.53,167,41.00,28.00,-1015.00
2024-06-07 01:20:39.684079,-1,-1,1,-7,0,0,78,80,85,0,21,99.07,167,-40.00,64.00,-966.00
2024-06-07 01:20:39.786157,-3,-1,1,-6,0,0,78,80,85,0,21,99.52,167,85.00,44.00,-1090.00
2024-06-07 01:20:39.917286,-3,-2,1,-5,0,0,78,80,85,0,21,99.31,168,-32.00,41.00,-965.00
2024-06-07 01:20:39.991269,-1,-3,1,-4,0,0,78,80,85,0,21,99.29,168,2.00,12.00,-890.00
2024-06-07 01:20:40.091616,0,-3,1,-3,0,0,78,80,85,0,21,99.23,168,177.00,-8.00,-1186.00
2024-06-07 01:20:40.192740,0,-2,1,-2,0,0,78,80,85,0,21,99.33,168,-56.00,80.00,-815.00
2024-06-07 01:20:40.326867,1,-2,1,-2,0,0,78,80,86,0,21,99.33,168,-10.00,33.00,-938.00
2024-06-07 01:20:40.396610,1,0,1,-2,-1,0,77,80,86,0,21,99.22,168,-4.00,57.00,-1019.00
2024-06-07 01:20:40.531667,1,1,1,-2,0,0,77,80,87,0,21,99.44,168,93.00,16.00,-1039.00
2024-06-07 01:20:40.601055,2,0,1,-2,0,0,77,80,87,0,21,99.69,168,25.00,10.00,-992.00
2024-06-07 01:20:40.702774,2,0,1,-2,0,0,77,80,87,0,21,99.30,168,120.00,1.00,-1052.00
2024-06-07 01:20:40.838835,1,0,1,-2,0,0,77,80,87,0,21,99.63,168,30.00,51.00,-1068.00
2024-06-07 01:20:40.908463,-4,0,1,-2,0,0,77,80,88,0,21,99.28,169,66.00,12.00,-1003.00
2024-06-07 01:20:41.043908,-1,-1,1,-1,0,0,77,80,87,0,21,99.56,169,36.00,-2.00,-1126.00
2024-06-07 01:20:41.112581,0,0,1,0,0,0,77,80,87,0,21,99.23,169,26.00,15.00,-1021.00
2024-06-07 01:20:41.248537,1,0,1,0,0,0,77,80,86,0,21,99.37,169,37.00,34.00,-1051.00
2024-06-07 01:20:41.317143,1,-1,1,0,0,0,77,80,86,0,21,99.63,169,17.00,-7.00,-1004.00
2024-06-07 01:20:41.453464,1,-1,1,0,0,0,78,81,86,0,21,99.35,169,36.00,6.00,-1087.00
2024-06-07 01:20:41.519697,1,-1,1,0,0,0,78,81,86,0,21,99.82,169,31.00,28.00,-1112.00
2024-06-07 01:20:41.658060,2,-1,1,0,0,0,78,81,85,0,21,99.35,169,99.00,-19.00,-978.00
2024-06-07 01:20:41.672543,2,-1,1,0,0,0,78,81,84,0,21,99.37,169,70.00,-2.00,-960.00
2024-06-07 01:20:41.774488,2,-1,1,0,0,0,78,81,84,0,21,99.46,169,7.00,16.00,-1069.00
2024-06-07 01:20:41.876609,2,-1,1,0,0,0,78,81,83,0,21,99.62,170,-30.00,12.00,-949.00
2024-06-07 01:20:42.068790,1,-1,1,0,0,0,78,81,83,0,21,99.59,170,40.00,8.00,-1052.00
2024-06-07 01:20:42.080401,1,-1,1,0,0,0,78,81,82,0,21,99.49,170,49.00,30.00,-974.00
2024-06-07 01:20:42.274435,0,-2,1,0,0,0,78,81,83,0,21,99.49,170,-5.00,61.00,-1050.00
2024-06-07 01:20:42.284501,0,-2,1,0,0,0,78,81,83,-10,21,99.63,170,-12.00,33.00,-979.00
2024-06-07 01:20:42.477420,0,-1,1,0,0,0,77,81,84,-10,21,99.56,170,48.00,-8.00,-1057.00
2024-06-07 01:20:42.488905,0,-1,1,0,0,0,77,81,85,0,21,99.40,170,-25.00,11.00,-955.00
2024-06-07 01:20:42.682029,1,-1,1,0,0,0,77,81,87,0,21,99.39,170,-4.00,-7.00,-1023.00
2024-06-07 01:20:42.692463,1,-1,1,0,0,0,77,81,89,0,21,99.33,170,9.00,34.00,-1058.00
2024-06-07 01:20:42.794498,1,0,1,0,0,0,77,81,91,0,21,99.48,170,26.00,14.00,-993.00
2024-06-07 01:20:42.989491,1,0,1,0,0,0,77,81,93,0,21,99.45,171,46.00,18.00,-1089.00
2024-06-07 01:20:42.998494,1,-1,1,0,0,-1,77,81,95,0,21,99.27,171,-59.00,64.00,-945.00
2024-06-07 01:20:43.100397,1,-1,1,0,0,0,77,81,97,0,21,99.42,171,-35.00,-4.00,-959.00
2024-06-07 01:20:43.296355,1,-1,1,0,0,0,77,81,97,0,21,99.60,171,-17.00,55.00,-857.00
2024-06-07 01:20:43.304423,1,-6,1,0,0,0,77,81,99,0,21,99.19,171,0.00,39.00,-927.00
2024-06-07 01:20:43.501457,1,-8,1,0,-1,0,79,81,100,0,21,99.57,171,-9.00,36.00,-982.00
2024-06-07 01:20:43.508561,2,-7,1,0,-2,0,79,81,100,0,21,99.36,171,-2.00,44.00,-984.00
2024-06-07 01:20:43.705954,1,-5,1,0,-3,0,79,81,99,0,21,99.45,171,64.00,21.00,-968.00
2024-06-07 01:20:43.712332,1,-2,1,0,-3,0,79,81,99,0,21,99.45,171,39.00,46.00,-1012.00
2024-06-07 01:20:43.910671,1,0,1,0,-3,0,79,81,99,0,21,99.47,171,47.00,24.00,-1033.00
2024-06-07 01:20:43.916169,1,0,1,0,-3,0,79,81,99,0,21,99.39,172,6.00,31.00,-991.00
2024-06-07 01:20:44.115373,1,-1,1,0,-2,0,79,81,99,0,21,99.57,172,52.00,36.00,-1079.00
2024-06-07 01:20:44.120313,1,-1,1,0,-2,0,79,81,99,0,21,99.36,172,3.00,28.00,-926.00
2024-06-07 01:20:44.320161,1,-1,1,0,-2,0,79,81,98,0,21,99.26,172,97.00,15.00,-1059.00
2024-06-07 01:20:44.324147,2,-1,1,0,-2,0,79,81,98,0,21,99.40,172,-72.00,103.00,-931.00
2024-06-07 01:20:44.525069,1,-1,1,0,-2,0,78,81,97,0,21,99.77,172,-23.00,33.00,-1008.00
2024-06-07 01:20:44.528256,1,-2,1,0,-2,0,78,81,96,0,21,99.41,172,9.00,36.00,-1020.00
2024-06-07 01:20:44.630232,1,-1,1,0,-2,0,78,81,96,0,21,99.60,172,8.00,53.00,-1016.00
2024-06-07 01:20:44.733047,3,-1,1,0,-2,0,78,81,96,0,21,99.22,172,35.00,29.00,-1007.00
2024-06-07 01:20:44.834223,5,0,1,0,-2,0,78,81,96,0,21,99.51,172,62.00,2.00,-1067.00
2024-06-07 01:20:45.042001,6,0,1,0,-2,0,78,81,94,0,21,99.62,173,99.00,10.00,-989.00
2024-06-07 01:20:45.042076,5,1,1,-1,-1,0,78,81,93,0,21,99.58,173,29.00,-5.00,-1049.00
2024-06-07 01:20:45.089262,4,2,1,-1,-1,0,78,81,92,0,21,99.62,173,-17.00,26.00,-1034.00
2024-06-07 01:20:45.241746,0,1,1,-1,0,0,78,81,91,0,21,99.44,173,79.00,4.00,-991.00
2024-06-07 01:20:45.294384,-2,0,1,-1,0,0,78,81,89,0,21,99.39,173,31.00,-13.00,-966.00
2024-06-07 01:20:45.446615,0,0,1,0,0,0,77,80,88,0,21,99.56,173,59.00,-2.00,-1059.00
2024-06-07 01:20:45.549190,0,0,1,0,0,0,77,80,87,0,21,99.34,173,76.00,-6.00,-1005.00
2024-06-07 01:20:45.599200,1,0,1,0,0,0,77,80,87,0,21,99.58,173,41.00,-1.00,-985.00
2024-06-07 01:20:45.753879,1,0,1,0,0,0,77,80,86,0,21,99.44,173,19.00,6.00,-1025.00
2024-06-07 01:20:45.803301,2,0,1,0,0,0,77,80,86,0,21,99.41,173,97.00,-13.00,-1117.00
2024-06-07 01:20:45.905289,2,0,1,0,0,0,77,80,85,0,21,99.73,174,20.00,21.00,-968.00
2024-06-07 01:20:46.061038,2,0,1,0,0,0,77,80,85,0,21,99.50,174,34.00,35.00,-939.00
2024-06-07 01:20:46.109245,2,-1,1,0,0,0,77,80,85,0,21,99.58,174,37.00,9.00,-1022.00
2024-06-07 01:20:46.211232,1,-1,1,0,0,0,77,80,85,0,21,99.39,174,31.00,43.00,-1049.00
2024-06-07 01:20:46.313251,1,-1,1,0,0,0,77,80,86,0,21,99.11,174,51.00,-6.00,-1063.00
2024-06-07 01:20:46.471001,1,-1,1,0,0,0,78,81,87,0,21,99.56,174,25.00,-6.00,-1058.00
2024-06-07 01:20:46.517100,1,0,1,0,0,0,78,81,88,0,21,99.34,174,0.00,36.00,-921.00
2024-06-07 01:20:46.675563,1,0,1,0,0,0,78,81,89,0,21,99.37,174,89.00,32.00,-1093.00
2024-06-07 01:20:46.721424,1,0,1,0,0,0,78,81,90,0,21,99.35,174,3.00,27.00,-1010.00
2024-06-07 01:20:46.881033,1,0,1,0,0,0,78,81,91,0,21,99.36,174,52.00,-11.00,-881.00
2024-06-07 01:20:46.925943,1,0,1,0,0,0,78,81,92,0,21,99.42,175,44.00,20.00,-942.00
2024-06-07 01:20:47.116672,1,-1,1,0,0,0,78,81,92,0,21,99.48,175,-37.00,14.00,-944.00
2024-06-07 01:20:47.129179,2,-1,1,0,0,0,78,81,93,0,21,99.46,175,47.00,9.00,-1031.00
2024-06-07 01:20:47.302886,2,0,1,0,0,0,78,81,93,0,21,99.32,175,65.00,4.00,-907.00
2024-06-07 01:20:47.411649,2,-1,1,0,0,0,78,81,93,0,20,99.47,175,40.00,37.00,-911.00
2024-06-07 01:20:47.438848,1,-1,1,0,0,0,78,80,94,0,20,99.48,175,-2.00,57.00,-1029.00
2024-06-07 01:20:47.577648,1,-1,1,0,0,0,78,80,94,0,20,99.37,175,-28.00,66.00,-968.00
2024-06-07 01:20:47.638936,1,0,1,0,0,0,78,80,94,0,20,99.51,175,100.00,5.00,-1025.00
2024-06-07 01:20:47.759676,1,7,1,0,0,0,78,80,95,0,20,99.41,175,41.00,47.00,-981.00
2024-06-07 01:20:47.882064,1,7,1,0,2,0,78,80,95,0,20,100.02,175,-11.00,19.00,-1026.00
2024-06-07 01:20:47.951472,1,4,1,0,3,0,78,80,95,0,20,99.14,176,60.00,-25.00,-1130.00
2024-06-07 01:20:48.057132,1,1,1,0,3,0,78,80,96,0,20,99.32,176,9.00,3.00,-948.00
2024-06-07 01:20:48.254139,1,-1,1,0,3,0,78,80,96,0,20,99.75,176,14.00,12.00,-968.00
2024-06-07 01:20:48.254347,2,-2,1,0,3,0,78,80,96,0,20,99.13,176,16.00,-6.00,-963.00
2024-06-07 01:20:48.392757,2,-1,1,0,3,0,78,80,97,0,20,99.70,176,0.00,-17.00,-931.00
2024-06-07 01:20:48.536163,2,0,1,0,2,0,78,80,98,0,20,99.44,176,96.00,-33.00,-1047.00
2024-06-07 01:20:48.556722,2,0,1,0,2,0,78,80,98,0,20,99.63,176,37.00,-3.00,-960.00
2024-06-07 01:20:48.679609,2,0,1,0,2,0,78,80,98,0,20,99.49,176,-51.00,40.00,-858.00
2024-06-07 01:20:48.836467,1,0,1,0,2,0,78,80,98,0,20,99.33,176,7.00,16.00,-1030.00
2024-06-07 01:20:48.864041,1,0,1,0,2,0,78,80,98,0,20,99.64,177,34.00,7.00,-1065.00
2024-06-07 01:20:48.981616,1,0,1,0,2,0,78,80,98,0,20,99.49,177,-13.00,46.00,-870.00
2024-06-07 01:20:49.143671,1,0,1,0,2,0,78,80,97,0,20,99.69,177,27.00,-13.00,-893.00
2024-06-07 01:20:49.143907,2,-1,1,0,2,0,78,80,96,0,20,99.60,177,-47.00,18.00,-906.00
2024-06-07 01:20:49.219824,2,-2,1,0,1,0,78,80,96,0,20,99.29,177,49.00,-6.00,-1061.00
2024-06-07 01:20:49.337663,1,-4,1,0,1,0,78,80,95,0,19,99.24,177,-52.00,43.00,-959.00
2024-06-07 01:20:49.426285,1,-4,1,0,0,0,78,80,94,0,19,99.52,177,-29.00,28.00,-989.00
2024-06-07 01:20:49.526924,1,-2,1,0,0,1,78,80,93,0,19,99.39,177,43.00,2.00,-926.00
2024-06-07 01:20:49.627772,1,-1,1,0,0,0,78,80,92,0,19,99.36,177,50.00,-4.00,-970.00
2024-06-07 01:20:49.729914,2,-1,1,0,0,0,78,80,92,0,19,99.07,177,4.00,20.00,-980.00
2024-06-07 01:20:49.850749,1,-1,1,0,0,0,78,80,92,0,19,99.74,178,35.00,0.00,-979.00
2024-06-07 01:20:49.934093,1,-1,1,0,0,0,78,80,91,0,19,99.34,178,55.00,0.00,-955.00
2024-06-07 01:20:50.054515,1,-1,1,0,0,0,78,80,91,0,19,99.38,178,42.00,8.00,-948.00
2024-06-07 01:20:50.137887,1,0,1,0,0,0,78,80,91,0,19,99.67,178,39.00,6.00,-980.00
2024-06-07 01:20:50.240170,1,0,1,0,0,0,78,80,90,0,19,99.51,178,105.00,-17.00,-1025.00
2024-06-07 01:20:50.361641,1,0,1,0,0,0,78,80,90,0,19,99.51,178,48.00,10.00,-1022.00
2024-06-07 01:20:50.446756,1,0,1,0,0,0,77,80,90,0,19,99.49,178,-36.00,53.00,-1044.00
2024-06-07 01:20:50.546155,1,-1,1,0,0,0,77,80,89,0,19,99.58,178,4.00,16.00,-952.00
2024-06-07 01:20:50.669488,2,-1,1,0,0,0,77,80,89,0,19,99.62,178,30.00,30.00,-934.00
2024-06-07 01:20:50.751336,1,-1,1,0,0,0,77,80,88,0,19,99.50,178,12.00,0.00,-994.00
2024-06-07 01:20:50.852242,1,0,1,0,0,0,77,80,87,0,19,99.68,179,-30.00,50.00,-929.00
2024-06-07 01:20:50.953669,1,0,1,0,0,0,77,80,87,0,19,99.54,179,52.00,21.00,-1004.00
2024-06-07 01:20:51.078876,1,-1,1,0,0,0,77,80,86,0,19,99.39,179,65.00,-10.00,-1048.00
2024-06-07 01:20:51.157738,2,0,1,0,0,0,77,80,86,0,19,99.44,179,41.00,31.00,-1091.00
2024-06-07 01:20:51.283797,1,-1,1,0,0,0,77,80,86,0,19,99.45,179,31.00,-13.00,-1004.00
2024-06-07 01:20:51.361738,1,-1,1,0,0,0,77,80,85,0,19,99.45,179,4.00,10.00,-995.00
2024-06-07 01:20:51.464063,1,0,1,0,0,0,78,81,86,0,19,99.47,179,36.00,-5.00,-1031.00
2024-06-07 01:20:51.565700,1,0,1,0,0,0,78,81,87,0,19,99.70,179,-19.00,43.00,-982.00
2024-06-07 01:20:51.692743,1,0,2,0,0,0,78,81,88,0,19,99.41,179,-19.00,-18.00,-872.00
2024-06-07 01:20:51.769782,1,0,8,0,0,0,78,81,89,0,19,99.48,179,79.00,5.00,-1043.00
2024-06-07 01:20:51.897562,2,0,14,0,0,0,78,81,90,0,19,99.69,180,8.00,32.00,-1020.00
2024-06-07 01:20:51.973626,2,0,20,0,0,0,78,81,91,0,19,99.35,180,119.00,-31.00,-1059.00
2024-06-07 01:20:52.102358,1,0,26,0,0,0,78,81,93,0,19,99.42,180,104.00,5.00,-1028.00
2024-06-07 01:20:52.177800,1,0,32,0,0,0,78,81,94,0,19,99.47,180,0.00,0.00,-926.00
2024-06-07 01:20:52.307047,1,0,37,0,0,0,78,81,94,0,19,99.49,180,52.00,-8.00,-1043.00
2024-06-07 01:20:52.381544,1,0,43,0,0,0,78,81,94,0,19,99.69,180,53.00,-31.00,-984.00
2024-06-07 01:20:52.511912,1,0,49,0,0,0,77,81,94,0,19,99.47,180,29.00,7.00,-939.00
2024-06-07 01:20:52.585813,1,0,55,0,0,0,77,81,94,0,19,99.66,180,-44.00,25.00,-908.00
2024-06-07 01:20:52.688308,1,0,61,0,0,0,77,81,93,0,19,99.30,180,-23.00,5.00,-921.00
2024-06-07 01:20:52.790723,1,0,67,0,0,0,77,81,93,0,19,99.52,180,5.00,19.00,-917.00
2024-06-07 01:20:52.892667,1,0,73,0,0,0,77,81,93,0,19,99.29,181,-29.00,7.00,-996.00
2024-06-07 01:20:52.943032,1,0,79,0,0,0,77,81,93,0,19,99.23,181,39.00,13.00,-1052.00
2024-06-07 01:20:53.118656,1,0,85,0,0,0,77,81,93,0,19,99.45,181,7.00,0.00,-1071.00
2024-06-07 01:20:53.146479,1,0,91,0,0,0,77,81,92,0,19,99.47,181,14.00,-3.00,-1063.00
2024-06-07 01:20:53.331090,1,0,97,0,0,0,77,81,92,0,19,99.20,181,29.00,9.00,-981.00
2024-06-07 01:20:53.350563,1,0,103,0,0,0,77,81,92,0,18,99.22,181,15.00,20.00,-950.00
2024-06-07 01:20:53.535815,1,0,109,0,0,0,78,81,92,0,18,99.33,181,5.00,0.00,-920.00
2024-06-07 01:20:53.554417,1,0,115,0,0,0,78,81,91,0,18,99.54,181,-29.00,57.00,-910.00
2024-06-07 01:20:53.744596,0,0,121,0,0,0,78,81,91,0,18,99.54,181,28.00,14.00,-1077.00
2024-06-07 01:20:53.758747,0,0,127,0,0,0,78,81,91,0,18,99.53,181,125.00,-34.00,-1088.00
2024-06-07 01:20:53.860423,0,0,133,0,0,0,78,81,91,0,18,99.33,182,-7.00,26.00,-1049.00
2024-06-07 01:20:54.047898,1,0,139,0,0,0,78,81,91,0,18,99.32,182,-86.00,67.00,-955.00
2024-06-07 01:20:54.064361,0,0,145,0,0,0,78,81,91,0,18,99.73,182,-54.00,31.00,-926.00
2024-06-07 01:20:54.166397,0,0,151,0,0,0,78,81,91,0,18,99.70,182,-1.00,23.00,-995.00
2024-06-07 01:20:54.356087,0,0,157,0,0,0,78,81,91,0,18,99.31,182,29.00,-13.00,-974.00
2024-06-07 01:20:54.370268,0,0,163,0,0,0,78,81,91,0,18,99.37,182,-50.00,48.00,-872.00
2024-06-07 01:20:54.571590,0,0,169,0,0,0,78,81,90,0,18,99.18,182,9.00,29.00,-914.00
2024-06-07 01:20:54.574308,0,0,175,0,0,0,78,81,90,0,18,99.29,182,-20.00,16.00,-1018.00
2024-06-07 01:20:54.676366,0,0,-178,0,0,0,78,81,90,0,18,99.52,182,33.00,8.00,-1116.00
2024-06-07 01:20:54.781542,0,0,-172,0,0,0,78,81,90,0,18,99.40,182,87.00,-8.00,-1028.00
2024-06-07 01:20:54.880360,1,0,-165,0,0,0,78,81,90,0,18,99.41,183,-15.00,16.00,-1020.00
2024-06-07 01:20:54.982309,1,0,-159,0,0,0,78,81,90,0,18,99.56,183,54.00,21.00,-980.00
2024-06-07 01:20:55.174189,0,0,-153,0,0,0,78,81,89,0,18,99.32,183,54.00,13.00,-989.00
2024-06-07 01:20:55.186242,0,0,-147,0,0,0,78,81,89,0,18,99.13,183,38.00,-12.00,-1078.00
2024-06-07 01:20:55.379002,0,0,-141,0,0,0,78,81,89,0,18,99.25,183,12.00,32.00,-1002.00
2024-06-07 01:20:55.390058,0,0,-135,0,0,0,78,81,89,0,18,99.23,183,-5.00,23.00,-957.00
2024-06-07 01:20:55.583731,0,0,-129,0,0,0,77,81,88,0,18,99.31,183,28.00,13.00,-1063.00
2024-06-07 01:20:55.594180,0,0,-123,0,0,0,77,81,88,0,18,99.25,183,40.00,48.00,-1020.00
2024-06-07 01:20:55.788563,0,0,-117,0,0,0,77,81,88,0,18,99.16,183,37.00,-2.00,-940.00
2024-06-07 01:20:55.798578,0,0,-112,0,0,0,77,81,87,0,18,99.42,183,9.00,19.00,-1010.00
2024-06-07 01:20:55.993235,0,0,-106,0,0,0,77,81,87,0,18,99.72,184,37.00,-7.00,-1070.00
2024-06-07 01:20:56.002224,1,0,-100,0,0,0,77,81,87,0,18,99.49,184,92.00,16.00,-1043.00
2024-06-07 01:20:56.199848,1,0,-94,0,0,0,77,81,87,0,18,99.28,184,-17.00,42.00,-1032.00
2024-06-07 01:20:56.206076,1,0,-88,0,0,0,77,81,87,0,18,99.49,184,12.00,42.00,-916.00
2024-06-07 01:20:56.308155,1,0,-82,0,-1,0,77,81,87,0,18,99.65,184,-22.00,42.00,-909.00
2024-06-07 01:20:56.505292,1,1,-76,0,0,0,77,81,87,0,18,99.38,184,133.00,2.00,-1118.00
2024-06-07 01:20:56.514627,1,0,-70,0,0,0,78,81,87,0,18,99.56,184,36.00,46.00,-1009.00
2024-06-07 01:20:56.614148,1,0,-64,0,0,0,78,81,87,0,18,99.54,184,42.00,36.00,-1045.00
2024-06-07 01:20:56.665222,1,0,-58,0,0,0,78,81,87,0,18,99.27,184,70.00,-6.00,-1045.00
2024-06-07 01:20:56.812637,1,0,-52,0,0,0,78,81,87,0,18,99.39,184,71.00,-20.00,-1042.00
2024-06-07 01:20:56.869510,0,0,-46,0,0,0,78,81,87,0,18,99.72,185,103.00,8.00,-1117.00
2024-06-07 01:20:56.971268,0,0,-40,0,0,0,78,81,87,0,18,99.47,185,140.00,-48.00,-1093.00
2024-06-07 01:20:57.073215,1,0,-34,0,0,0,78,81,87,0,18,99.73,185,54.00,13.00,-937.00
2024-06-07 01:20:57.175184,1,0,-28,0,0,0,78,81,87,0,18,99.57,185,-16.00,27.00,-968.00
2024-06-07 01:20:57.327969,1,0,-23,0,0,0,78,81,87,0,17,99.35,185,-18.00,41.00,-1058.00
2024-06-07 01:20:57.379010,2,0,-17,0,0,0,78,81,87,0,17,99.40,185,-3.00,8.00,-979.00
2024-06-07 01:20:57.529172,1,0,-12,0,0,0,78,80,86,0,17,99.34,185,84.00,-6.00,-1050.00
2024-06-07 01:20:57.584064,1,1,-9,0,0,0,78,80,86,0,17,99.63,185,69.00,-21.00,-1028.00
2024-06-07 01:20:57.685325,1,1,-6,0,0,0,78,80,86,0,17,99.73,185,51.00,18.00,-975.00
2024-06-07 01:20:57.787626,0,1,-4,0,0,0,78,80,86,0,17,99.55,185,3.00,27.00,-915.00
2024-06-07 01:20:57.888961,0,0,-3,0,0,0,78,80,86,0,17,99.42,186,71.00,-20.00,-957.00
2024-06-07 01:20:58.041141,0,0,-2,0,0,0,78,80,86,0,17,99.65,186,29.00,33.00,-989.00
2024-06-07 01:20:58.092981,0,0,-1,0,0,0,78,80,86,0,17,99.20,186,103.00,-31.00,-1031.00
2024-06-07 01:20:58.246349,1,0,0,0,0,0,78,80,87,0,17,99.25,186,18.00,37.00,-1079.00
2024-06-07 01:20:58.297173,1,0,0,0,0,0,78,80,88,0,17,99.48,186,-37.00,40.00,-969.00
2024-06-07 01:20:58.452168,1,0,0,0,0,0,78,80,90,0,17,99.19,186,7.00,15.00,-986.00
2024-06-07 01:20:58.501956,2,0,0,0,0,0,78,81,91,0,17,99.35,186,46.00,28.00,-987.00
2024-06-07 01:20:58.603265,2,0,0,0,0,0,78,81,93,0,17,99.58,186,119.00,-48.00,-1089.00
2024-06-07 01:20:58.705367,2,0,0,0,0,0,78,81,95,0,17,99.66,186,12.00,-6.00,-978.00
2024-06-07 01:20:58.807327,2,0,0,0,0,0,78,81,97,0,17,99.48,186,-46.00,45.00,-873.00
2024-06-07 01:20:58.909719,2,0,0,0,0,0,78,81,98,0,17,99.49,187,-14.00,28.00,-894.00
2024-06-07 01:20:59.011814,2,0,0,0,0,0,78,81,99,0,17,99.58,187,51.00,-5.00,-986.00
2024-06-07 01:20:59.113193,1,0,0,0,0,0,78,81,101,0,17,99.56,187,27.00,17.00,-969.00
2024-06-07 01:20:59.215234,1,0,0,0,0,0,78,81,101,0,17,99.24,187,-34.00,62.00,-864.00
2024-06-07 01:20:59.317273,1,0,0,0,0,0,78,81,102,0,17,99.38,187,5.00,11.00,-1012.00
2024-06-07 01:20:59.418990,1,0,0,0,0,0,78,81,102,0,17,99.44,187,23.00,-47.00,-851.00
2024-06-07 01:20:59.577724,1,0,0,0,0,0,78,80,102,0,17,99.60,187,19.00,-5.00,-997.00
2024-06-07 01:20:59.622962,1,0,0,0,0,0,78,80,102,0,17,99.41,187,-34.00,28.00,-964.00
2024-06-07 01:20:59.788529,1,0,0,0,0,0,78,80,101,0,17,99.41,187,-10.00,21.00,-949.00
2024-06-07 01:20:59.826977,1,0,0,0,0,0,78,80,100,0,17,99.32,187,-1.00,-10.00,-945.00
2024-06-07 01:20:59.986853,0,0,0,0,0,0,78,80,100,0,17,99.46,188,8.00,34.00,-920.00
2024-06-07 01:21:00.031033,1,0,0,0,0,0,78,80,99,0,17,99.47,188,44.00,-16.00,-959.00
2024-06-07 01:21:00.133142,1,0,0,0,0,0,78,80,98,0,17,99.47,188,18.00,-12.00,-930.00
2024-06-07 01:21:00.249527,1,0,0,0,0,0,78,80,97,0,17,99.60,188,31.00,-5.00,-1045.00
2024-06-07 01:21:00.337035,1,0,0,0,0,0,78,80,97,0,16,99.57,188,25.00,-21.00,-954.00
2024-06-07 01:21:00.438883,1,0,0,0,0,0,78,80,95,0,16,99.53,188,25.00,21.00,-979.00
2024-06-07 01:21:00.601779,1,0,-4,0,0,1,78,81,94,0,16,99.87,188,3.00,33.00,-1005.00
2024-06-07 01:21:00.601836,1,0,-10,0,0,1,78,81,93,0,16,99.28,188,36.00,-19.00,-1037.00
2024-06-07 01:21:00.696932,1,0,-16,0,0,0,78,81,93,0,16,99.37,188,69.00,-26.00,-1047.00
2024-06-07 01:21:00.796131,1,0,-22,0,0,0,78,81,93,0,16,99.45,188,22.00,10.00,-1000.00
2024-06-07 01:21:00.908867,1,0,-28,0,0,0,78,81,92,0,16,99.43,189,44.00,4.00,-927.00
2024-06-07 01:21:00.999866,1,0,-34,0,0,0,78,81,91,0,16,99.49,189,39.00,5.00,-1053.00
2024-06-07 01:21:01.113157,2,0,-40,0,0,0,78,81,91,0,16,99.59,189,60.00,0.00,-1052.00
2024-06-07 01:21:01.203785,2,0,-46,0,0,0,78,81,91,0,16,99.49,189,67.00,23.00,-1040.00
2024-06-07 01:21:01.305773,2,0,-52,0,0,0,78,81,91,0,16,99.40,189,66.00,16.00,-943.00
2024-06-07 01:21:01.407767,2,0,-58,0,0,0,78,81,91,0,16,99.39,189,82.00,-22.00,-1002.00
2024-06-07 01:21:01.522728,2,0,-64,0,0,0,77,81,90,0,16,99.25,189,-23.00,35.00,-911.00
2024-06-07 01:21:01.611724,2,0,-70,0,0,0,77,81,89,0,16,99.24,189,84.00,-14.00,-1044.00
2024-06-07 01:21:01.727495,2,0,-76,0,0,0,77,81,89,0,16,99.36,189,20.00,54.00,-969.00
2024-06-07 01:21:01.815658,3,0,-81,0,0,0,77,81,88,0,16,99.48,189,77.00,54.00,-952.00
2024-06-07 01:21:01.932281,2,0,-87,0,0,0,77,81,87,0,16,99.53,190,71.00,18.00,-993.00
2024-06-07 01:21:02.112695,2,0,-93,0,0,0,77,81,87,0,16,99.41,190,61.00,17.00,-956.00
2024-06-07 01:21:02.121561,2,0,-99,0,0,0,77,81,86,0,16,99.49,190,19.00,56.00,-1017.00
2024-06-07 01:21:02.239486,2,0,-105,0,0,0,77,81,86,0,16,99.40,190,45.00,29.00,-1044.00
2024-06-07 01:21:02.354930,1,0,-110,0,0,0,77,81,86,0,16,99.41,190,39.00,19.00,-1061.00
2024-06-07 01:21:02.467940,2,0,-116,0,0,0,77,81,86,0,16,99.35,190,40.00,20.00,-1067.00
2024-06-07 01:21:02.529552,2,0,-122,0,0,0,78,82,86,0,16,99.56,190,21.00,41.00,-1060.00
2024-06-07 01:21:02.635056,1,0,-128,0,0,0,78,82,85,0,16,99.18,190,61.00,19.00,-993.00
2024-06-07 01:21:02.815011,1,0,-134,0,0,0,78,82,85,0,16,99.53,190,26.00,40.00,-1008.00
2024-06-07 01:21:02.836121,2,0,-140,0,0,0,78,82,85,0,16,99.23,190,9.00,63.00,-872.00
2024-06-07 01:21:02.937793,2,0,-146,0,0,0,78,82,85,0,16,99.20,191,47.00,28.00,-961.00
2024-06-07 01:21:03.101441,2,0,-152,0,0,0,78,82,86,0,16,99.31,191,78.00,-11.00,-1070.00
2024-06-07 01:21:03.145812,2,0,-158,0,0,0,78,82,87,0,16,99.45,191,46.00,0.00,-1033.00
2024-06-07 01:21:03.289313,2,0,-164,0,0,0,78,82,87,0,16,99.84,191,-8.00,42.00,-987.00
2024-06-07 01:21:03.432690,2,0,-170,0,0,0,78,82,88,0,16,99.58,191,43.00,42.00,-1004.00
2024-06-07 01:21:03.447520,1,0,-176,0,0,0,78,82,88,0,16,99.37,191,23.00,28.00,-1013.00
2024-06-07 01:21:03.581476,1,0,171,0,0,0,78,81,88,0,16,99.34,191,78.00,7.00,-979.00
2024-06-07 01:21:03.728769,1,0,165,0,0,0,78,81,89,0,16,99.64,191,17.00,23.00,-945.00
2024-06-07 01:21:03.753587,1,0,159,0,0,0,78,81,88,0,16,99.08,191,-28.00,48.00,-977.00
2024-06-07 01:21:03.889148,1,0,153,0,0,0,78,81,89,0,16,99.34,192,66.00,-7.00,-1038.00
2024-06-07 01:21:03.957489,1,0,147,0,0,0,78,81,89,0,16,99.36,192,11.00,7.00,-1039.00
2024-06-07 01:21:04.082626,1,0,140,0,0,0,78,81,89,0,16,99.65,192,12.00,20.00,-945.00
2024-06-07 01:21:04.161509,1,0,134,0,0,0,78,81,89,0,16,99.37,192,65.00,-5.00,-969.00
2024-06-07 01:21:04.287314,1,-1,128,0,0,0,78,81,88,0,16,99.55,192,17.00,27.00,-976.00
2024-06-07 01:21:04.365483,1,-1,122,0,0,0,78,81,88,0,16,99.54,192,19.00,23.00,-1020.00
2024-06-07 01:21:04.416674,0,-1,116,0,0,0,78,81,88,0,16,99.32,192,3.00,1.00,-1001.00
2024-06-07 01:21:04.594766,0,0,110,0,0,0,78,82,88,0,16,99.44,192,-26.00,26.00,-958.00
2024-06-07 01:21:04.673756,1,0,104,0,0,0,78,82,88,0,16,99.61,192,80.00,-29.00,-1039.00
2024-06-07 01:21:04.722471,1,0,98,0,0,0,78,82,88,0,16,99.54,192,-3.00,12.00,-921.00
2024-06-07 01:21:04.826167,1,0,92,0,0,0,78,82,88,0,16,99.40,193,67.00,-6.00,-1102.00
2024-06-07 01:21:04.927228,1,0,86,0,0,0,78,82,88,0,16,99.35,193,71.00,-10.00,-1093.00
2024-06-07 01:21:05.107442,1,0,80,0,0,0,78,82,88,0,16,99.43,193,-34.00,33.00,-1010.00
2024-06-07 01:21:05.130475,1,0,74,0,0,0,78,82,87,0,16,99.61,193,24.00,27.00,-973.00
2024-06-07 01:21:05.311988,0,0,68,0,0,0,78,82,87,0,16,99.43,193,20.00,5.00,-928.00
2024-06-07 01:21:05.334477,1,0,62,0,0,0,78,82,87,0,15,99.23,193,12.00,9.00,-1012.00
2024-06-07 01:21:05.516140,1,0,56,0,0,0,78,82,86,0,15,99.62,193,12.00,-1.00,-984.00
2024-06-07 01:21:05.538395,0,0,50,0,0,0,77,81,85,0,15,99.27,193,-10.00,23.00,-1020.00
2024-06-07 01:21:05.720952,0,0,44,0,0,0,77,81,85,0,15,99.54,193,18.00,8.00,-946.00
2024-06-07 01:21:05.742772,0,0,38,0,0,0,77,81,84,0,15,99.38,193,37.00,-16.00,-1041.00
2024-06-07 01:21:05.844635,0,0,32,0,0,0,77,81,83,0,15,99.29,194,-46.00,33.00,-985.00
2024-06-07 01:21:06.028166,0,0,26,0,0,0,77,81,83,0,15,99.62,194,56.00,8.00,-1058.00
2024-06-07 01:21:06.048431,1,0,20,0,0,0,77,81,82,0,15,99.27,194,-28.00,33.00,-931.00
2024-06-07 01:21:06.150358,1,0,15,0,0,0,77,81,82,0,15,99.45,194,22.00,-8.00,-991.00
2024-06-07 01:21:06.335331,1,0,11,0,0,0,77,81,81,0,15,99.10,194,96.00,-20.00,-1016.00
2024-06-07 01:21:06.356765,0,0,8,0,0,0,77,81,81,0,15,99.13,194,56.00,-3.00,-1111.00
2024-06-07 01:21:06.456681,0,0,6,0,0,0,77,81,81,-10,15,99.27,194,-2.00,26.00,-951.00
2024-06-07 01:21:06.644218,1,0,4,0,0,0,77,81,81,-10,15,99.54,194,25.00,-16.00,-1083.00
2024-06-07 01:21:06.660484,1,0,3,0,0,0,77,81,80,0,15,99.53,194,78.00,-5.00,-1012.00
2024-06-07 01:21:06.847273,1,0,2,0,0,0,77,81,80,0,15,99.24,194,46.00,-16.00,-1082.00
2024-06-07 01:21:06.864599,1,0,1,0,0,0,77,81,80,-10,15,99.27,195,84.00,-11.00,-963.00
2024-06-07 01:21:07.054218,1,0,1,0,0,0,77,81,80,-10,15,99.03,195,-2.00,48.00,-924.00
2024-06-07 01:21:07.068404,1,0,1,0,0,0,77,81,79,-10,15,99.39,195,-70.00,83.00,-887.00
2024-06-07 01:21:07.257233,0,0,1,0,0,0,77,81,78,-10,15,99.07,195,-5.00,56.00,-939.00
2024-06-07 01:21:07.272389,0,0,1,0,0,0,77,81,78,-10,15,99.30,195,73.00,-25.00,-1155.00
2024-06-07 01:21:07.462112,0,0,1,0,0,0,77,81,78,-10,15,99.06,195,21.00,7.00,-1010.00
2024-06-07 01:21:07.479536,0,0,1,0,0,0,77,81,78,-10,15,99.31,195,57.00,4.00,-1001.00
2024-06-07 01:21:07.578283,0,0,1,0,0,0,77,81,78,-10,15,99.45,195,13.00,9.00,-1081.00
2024-06-07 01:21:07.769949,0,0,1,0,0,0,77,81,78,-10,15,99.10,195,82.00,-29.00,-995.00
2024-06-07 01:21:07.782299,0,0,1,0,0,0,77,81,79,-10,15,99.41,195,68.00,-35.00,-1141.00
2024-06-07 01:21:07.884424,1,0,1,0,0,0,77,81,79,-10,15,99.20,196,-19.00,20.00,-916.00
2024-06-07 01:21:08.076147,1,0,1,0,0,0,77,81,80,-10,15,99.37,196,38.00,13.00,-994.00
2024-06-07 01:21:08.088144,1,0,1,0,0,0,77,81,81,-10,15,99.64,196,17.00,4.00,-1017.00
2024-06-07 01:21:08.280951,1,0,1,0,0,0,77,81,82,-10,15,99.37,196,-13.00,0.00,-1013.00
2024-06-07 01:21:08.281134,1,0,1,0,0,0,77,81,83,-10,15,99.31,196,-6.00,58.00,-823.00
2024-06-07 01:21:08.344630,0,0,1,0,0,0,77,81,85,-10,15,99.47,196,-36.00,57.00,-984.00
2024-06-07 01:21:08.485686,0,0,1,0,0,0,77,81,86,0,15,99.50,196,41.00,8.00,-977.00
2024-06-07 01:21:08.690517,0,0,1,0,0,-1,79,81,87,0,15,99.25,196,-49.00,69.00,-870.00
2024-06-07 01:21:08.690691,1,0,1,0,0,0,79,81,89,0,15,99.43,196,-55.00,89.00,-916.00
2024-06-07 01:21:08.751125,1,0,1,0,0,0,79,81,89,0,15,99.41,196,107.00,1.00,-1074.00
2024-06-07 01:21:08.853162,1,0,1,0,0,0,79,81,90,0,15,99.42,197,116.00,-10.00,-997.00
2024-06-07 01:21:08.955004,1,0,1,0,0,0,79,81,91,0,15,99.55,197,30.00,-16.00,-912.00
2024-06-07 01:21:09.100110,1,0,1,0,0,0,79,81,91,0,15,99.42,197,-13.00,16.00,-998.00
2024-06-07 01:21:09.159160,1,0,1,0,0,0,79,81,91,0,15,99.48,197,-42.00,73.00,-986.00
2024-06-07 01:21:09.305855,1,0,1,0,0,0,79,81,91,0,15,99.30,197,72.00,3.00,-1099.00
2024-06-07 01:21:09.363005,1,0,1,0,0,0,79,81,90,0,15,99.34,197,62.00,-16.00,-1039.00
2024-06-07 01:21:09.511700,1,0,1,0,0,0,79,81,90,0,15,99.30,197,74.00,-17.00,-1040.00
2024-06-07 01:21:09.567563,0,0,1,0,0,0,78,81,89,0,15,99.39,197,-21.00,12.00,-1051.00
2024-06-07 01:21:09.669135,1,0,1,0,0,0,78,81,87,0,15,99.56,197,1.00,-10.00,-941.00
2024-06-07 01:21:09.816634,0,0,1,0,0,0,78,81,87,0,15,99.40,197,-18.00,19.00,-852.00
2024-06-07 01:21:09.872941,0,0,1,0,0,0,78,81,85,0,15,99.37,198,30.00,12.00,-1006.00
2024-06-07 01:21:09.975013,0,0,1,0,0,0,78,81,84,0,15,99.34,198,117.00,-31.00,-1071.00
2024-06-07 01:21:10.077003,0,0,1,0,0,0,78,81,83,0,15,99.33,198,10.00,13.00,-1047.00
2024-06-07 01:21:10.226805,0,0,1,0,0,0,78,81,82,0,15,99.20,198,70.00,-31.00,-1024.00
2024-06-07 01:21:10.281107,0,0,1,0,0,0,78,81,80,0,14,99.41,198,48.00,0.00,-1007.00
2024-06-07 01:21:10.431082,1,0,1,0,0,0,78,81,79,0,14,99.33,198,-48.00,32.00,-975.00
2024-06-07 01:21:10.485033,1,0,1,0,0,0,78,81,78,-10,14,99.47,198,-28.00,33.00,-1007.00
2024-06-07 01:21:10.635962,0,0,1,0,0,0,78,80,77,-10,14,99.47,198,105.00,-6.00,-1151.00
2024-06-07 01:21:10.688911,1,0,1,0,0,0,78,80,76,-10,14,99.42,198,-60.00,25.00,-940.00
2024-06-07 01:21:10.841142,0,0,1,0,0,0,78,80,75,-10,14,99.28,198,83.00,-29.00,-1019.00
2024-06-07 01:21:10.892912,1,0,1,0,0,0,78,80,73,-10,14,99.24,199,21.00,-3.00,-1038.00
2024-06-07 01:21:11.047315,1,0,1,0,0,0,78,80,72,-10,14,99.45,199,0.00,-1.00,-927.00
2024-06-07 01:21:11.096935,1,0,1,0,0,0,78,80,70,-10,14,99.26,199,20.00,-9.00,-1113.00
2024-06-07 01:21:11.253613,1,0,1,0,0,0,78,80,68,-10,14,99.55,199,84.00,-19.00,-1125.00
2024-06-07 01:21:11.300945,1,0,1,0,0,0,78,80,66,-10,14,99.34,199,-66.00,32.00,-887.00
2024-06-07 01:21:11.455368,1,0,1,0,0,0,78,80,64,-10,14,99.26,199,91.00,-32.00,-1081.00
2024-06-07 01:21:11.504896,1,0,1,0,0,0,78,80,62,-10,14,99.14,199,-45.00,7.00,-987.00
2024-06-07 01:21:11.607099,0,0,1,0,0,0,78,81,60,-10,14,99.36,199,11.00,-6.00,-978.00
2024-06-07 01:21:11.762561,0,0,1,0,0,0,78,81,57,-10,14,99.15,199,-16.00,16.00,-930.00
2024-06-07 01:21:11.810925,0,0,1,0,0,0,78,81,55,-10,14,99.18,199,-34.00,38.00,-1008.00
2024-06-07 01:21:11.912844,0,0,1,0,0,0,78,81,54,-10,14,99.11,200,-36.00,55.00,-1053.00
2024-06-07 01:21:12.015595,0,0,1,0,0,0,78,81,52,-10,14,99.09,200,-25.00,47.00,-1002.00
2024-06-07 01:21:12.066116,0,0,1,0,0,0,78,81,51,-10,14,99.25,200,5.00,5.00,-1051.00
2024-06-07 01:21:12.176161,0,0,1,0,0,0,78,81,51,-20,14,99.03,200,87.00,-62.00,-1170.00
2024-06-07 01:21:12.270950,0,0,1,0,0,0,78,81,50,-20,14,98.98,200,25.00,14.00,-982.00
2024-06-07 01:21:12.377170,0,0,1,0,0,-1,78,81,50,-20,14,99.05,200,-36.00,34.00,-1031.00
2024-06-07 01:21:12.473981,1,0,1,0,0,0,78,81,50,-20,14,98.90,200,18.00,-8.00,-1028.00
2024-06-07 01:21:12.626803,1,0,1,0,0,-1,78,81,50,-20,14,99.13,200,91.00,-20.00,-1256.00
2024-06-07 01:21:12.789038,1,0,1,0,0,-1,78,81,51,-20,14,99.14,200,13.00,-23.00,-1030.00
2024-06-07 01:21:12.789839,1,0,1,0,0,-1,78,81,51,-20,14,98.85,200,50.00,-19.00,-990.00
2024-06-07 01:21:12.882496,1,0,1,0,0,-1,78,81,52,-10,14,99.26,201,-12.00,-9.00,-1038.00
2024-06-07 01:21:12.991329,0,0,1,0,0,-1,78,81,52,-10,14,99.00,201,46.00,-12.00,-1089.00
2024-06-07 01:21:13.085811,1,0,1,0,0,-1,78,81,53,-10,14,99.08,201,33.00,-14.00,-994.00
2024-06-07 01:21:13.195962,1,0,1,0,0,-1,78,81,53,-10,14,99.33,201,2.00,38.00,-1007.00
2024-06-07 01:21:13.289896,0,0,1,0,0,-1,78,81,54,-10,14,99.20,201,-10.00,27.00,-866.00
2024-06-07 01:21:13.404354,0,-1,1,0,0,-1,78,81,54,-10,14,99.10,201,4.00,-17.00,-972.00
2024-06-07 01:21:13.493953,1,-1,1,0,0,0,78,81,55,-10,14,99.14,201,13.00,7.00,-985.00
2024-06-07 01:21:13.605488,1,0,1,0,0,0,79,81,55,-10,14,99.09,201,44.00,-6.00,-1030.00
2024-06-07 01:21:13.697856,1,0,1,0,0,0,79,81,56,-10,14,99.14,201,34.00,22.00,-937.00
2024-06-07 01:21:13.810089,1,0,1,0,0,0,79,81,57,-10,14,98.87,201,42.00,-3.00,-986.00
2024-06-07 01:21:13.901881,1,0,1,0,0,0,79,81,57,-10,14,99.27,202,93.00,-23.00,-1012.00
2024-06-07 01:21:14.015020,1,0,1,0,0,0,79,81,58,-10,14,99.14,202,141.00,-32.00,-1161.00
2024-06-07 01:21:14.105852,1,0,1,0,0,0,79,81,58,-10,14,99.42,202,33.00,17.00,-1113.00
2024-06-07 01:21:14.208207,1,0,1,0,0,0,79,81,59,-10,14,98.73,202,-1.00,32.00,-901.00
2024-06-07 01:21:14.309932,0,0,1,0,0,0,79,81,60,-10,14,99.15,202,-50.00,42.00,-1020.00
2024-06-07 01:21:14.411805,0,0,1,0,0,0,79,81,60,-10,14,98.88,202,50.00,39.00,-957.00
2024-06-07 01:21:14.527402,0,0,1,0,0,0,79,81,61,-10,14,99.33,202,0.00,-2.00,-1000.00
2024-06-07 01:21:14.616090,0,-1,1,0,0,0,79,81,63,-10,14,98.94,202,61.00,-5.00,-998.00
2024-06-07 01:21:14.732647,0,0,1,0,0,0,79,81,64,-10,14,99.39,202,27.00,37.00,-967.00
2024-06-07 01:21:14.819788,1,0,1,0,0,0,79,81,66,0,14,99.21,202,15.00,24.00,-1040.00
2024-06-07 01:21:14.921575,0,0,1,0,0,0,79,81,68,0,14,99.14,203,50.00,-7.00,-1119.00
2024-06-07 01:21:15.024209,1,0,1,0,0,0,79,81,69,0,14,99.11,203,-38.00,36.00,-905.00
2024-06-07 01:21:15.127164,1,0,1,0,0,0,79,81,71,0,14,99.29,203,38.00,-12.00,-981.00
2024-06-07 01:21:15.227611,1,0,1,0,0,0,79,81,73,0,14,99.16,203,-40.00,59.00,-888.00
2024-06-07 01:21:15.349155,1,0,1,0,0,0,79,81,74,0,14,99.32,203,79.00,-34.00,-995.00
2024-06-07 01:21:15.432734,1,0,1,0,0,0,79,81,75,0,14,99.40,203,3.00,29.00,-979.00
2024-06-07 01:21:15.551324,1,0,1,0,0,0,79,81,76,0,14,99.38,203,56.00,11.00,-933.00
2024-06-07 01:21:15.635768,1,-1,1,0,0,0,79,81,76,0,14,99.37,203,-43.00,14.00,-962.00
2024-06-07 01:21:15.764061,1,-1,1,0,0,0,79,81,76,0,14,99.40,203,2.00,12.00,-1005.00
2024-06-07 01:21:15.839658,0,0,1,0,0,0,79,81,76,0,14,99.48,203,-12.00,22.00,-924.00
2024-06-07 01:21:15.964600,0,0,1,0,0,0,79,81,75,0,14,99.30,204,53.00,-28.00,-1070.00
2024-06-07 01:21:15.992470,0,0,1,0,0,0,79,81,75,0,14,99.48,204,-19.00,31.00,-1045.00
2024-06-07 01:21:16.165432,1,0,1,0,0,0,79,81,74,0,14,99.24,204,-15.00,19.00,-937.00
2024-06-07 01:21:16.196521,1,0,1,0,0,0,79,81,73,0,14,99.55,204,16.00,35.00,-978.00
2024-06-07 01:21:16.370139,1,0,1,0,0,0,79,81,72,0,14,99.22,204,28.00,-7.00,-1034.00
2024-06-07 01:21:16.400405,1,0,1,0,0,0,79,81,71,0,14,99.16,204,37.00,-3.00,-1077.00
2024-06-07 01:21:16.575151,1,0,1,0,0,0,79,81,69,0,14,99.30,204,-10.00,40.00,-888.00
2024-06-07 01:21:16.604492,1,0,1,0,0,0,77,81,68,0,14,99.32,204,62.00,-3.00,-1077.00
2024-06-07 01:21:16.785549,1,0,1,0,0,0,77,81,68,0,14,99.13,204,64.00,-28.00,-983.00
2024-06-07 01:21:16.808366,0,0,1,0,0,0,77,81,67,0,14,99.14,204,-8.00,22.00,-944.00
2024-06-07 01:21:16.910300,0,0,1,0,0,0,77,81,67,0,14,99.02,205,-5.00,16.00,-983.00
2024-06-07 01:21:17.116191,0,0,1,0,0,0,77,81,67,0,14,99.19,205,-34.00,16.00,-981.00
2024-06-07 01:21:17.116540,1,0,1,0,0,0,77,81,68,0,14,99.23,205,24.00,-9.00,-1066.00
2024-06-07 01:21:17.258805,1,0,1,0,0,0,77,81,69,0,14,99.15,205,-8.00,11.00,-943.00
2024-06-07 01:21:17.371882,0,0,1,0,0,0,77,81,70,0,14,99.14,205,18.00,14.00,-1015.00
2024-06-07 01:21:17.426049,1,0,1,0,0,0,77,81,72,0,14,99.18,205,10.00,45.00,-951.00
2024-06-07 01:21:17.547510,0,-1,1,0,0,0,77,81,74,0,14,99.31,205,43.00,22.00,-1051.00
2024-06-07 01:21:17.726563,1,-1,1,0,0,0,77,81,76,0,14,99.23,205,18.00,18.00,-946.00
2024-06-07 01:21:17.726711,1,0,1,0,0,0,77,81,78,0,14,99.13,205,31.00,10.00,-1033.00
2024-06-07 01:21:17.838753,1,0,1,0,0,0,77,81,80,0,14,99.12,205,-7.00,31.00,-903.00
2024-06-07 01:21:17.932800,0,0,1,0,0,0,77,81,82,0,14,99.50,206,76.00,-22.00,-1048.00
2024-06-07 01:21:18.032270,1,0,1,0,0,0,77,81,84,0,14,99.29,206,-8.00,41.00,-974.00
2024-06-07 01:21:18.134592,1,0,1,0,0,0,77,81,85,0,14,99.52,206,5.00,22.00,-947.00
2024-06-07 01:21:18.326464,1,0,1,0,0,0,77,81,86,0,14,99.39,206,43.00,2.00,-988.00
2024-06-07 01:21:18.338266,2,0,1,0,0,0,77,81,87,0,14,99.43,206,14.00,12.00,-968.00
2024-06-07 01:21:18.475346,1,0,1,0,0,0,77,81,87,0,14,99.38,206,-28.00,34.00,-959.00
2024-06-07 01:21:18.639419,1,0,1,0,0,0,77,81,87,0,14,99.31,206,-38.00,36.00,-833.00
2024-06-07 01:21:18.644632,0,-1,1,0,0,1,79,81,86,0,14,99.23,206,39.00,5.00,-1039.00
2024-06-07 01:21:18.782683,0,0,1,0,0,1,79,81,85,0,14,99.58,206,-21.00,-3.00,-945.00
2024-06-07 01:21:18.944241,0,0,1,0,0,1,79,81,85,0,14,99.29,207,37.00,16.00,-909.00
2024-06-07 01:21:18.950025,0,0,1,0,0,1,79,81,84,0,14,99.42,207,14.00,17.00,-1033.00
2024-06-07 01:21:19.088515,0,0,1,0,0,1,79,81,83,0,14,99.50,207,80.00,-31.00,-1066.00
2024-06-07 01:21:19.248109,0,0,1,0,0,1,79,81,82,0,14,99.31,207,-41.00,29.00,-884.00
2024-06-07 01:21:19.256274,0,0,1,0,0,1,79,81,82,0,14,99.28,207,100.00,-5.00,-1031.00
2024-06-07 01:21:19.402384,1,0,1,0,0,1,79,81,81,0,14,99.45,207,-19.00,60.00,-1038.00
2024-06-07 01:21:19.467788,1,0,1,0,0,0,79,81,80,0,14,99.16,207,18.00,-3.00,-977.00
2024-06-07 01:21:19.561978,1,0,1,0,0,0,79,81,79,0,14,99.35,207,34.00,-15.00,-998.00
2024-06-07 01:21:19.750875,1,0,1,0,0,0,78,81,78,0,14,99.34,207,17.00,27.00,-1095.00
2024-06-07 01:21:19.766173,1,0,1,0,0,0,78,81,77,0,14,99.33,207,-16.00,33.00,-963.00
2024-06-07 01:21:19.954511,0,0,1,0,0,1,78,81,76,0,14,99.22,208,-78.00,5.00,-901.00
2024-06-07 01:21:19.970030,0,0,1,0,0,0,78,81,75,0,14,99.46,208,-4.00,5.00,-932.00
2024-06-07 01:21:20.158832,0,0,1,0,0,1,78,81,75,0,14,99.14,208,42.00,-13.00,-1047.00
2024-06-07 01:21:20.159025,0,-1,1,0,0,0,78,81,74,0,14,99.63,208,41.00,-23.00,-1078.00
2024-06-07 01:21:20.225530,0,0,1,0,0,0,78,81,74,0,14,99.11,208,61.00,-45.00,-1098.00
2024-06-07 01:21:20.363606,0,-1,1,0,0,0,78,81,73,0,14,99.45,208,44.00,5.00,-1079.00
