TS,pitch,roll,yaw,vgx,vgy,vgz,templ,temph,tof,h,bat,baro,time,agx,agy,agz
2024-06-07 01:51:28.754624,0,0,15,0,0,0,60,62,10,0,70,103.24,0,4.00,5.00,-1001.00
2024-06-07 01:51:28.778024,0,0,15,0,0,0,60,62,10,0,70,102.99,0,3.00,4.00,-999.00
2024-06-07 01:51:28.881455,0,0,15,0,0,0,60,62,10,0,70,103.00,0,5.00,6.00,-997.00
2024-06-07 01:51:29.062880,0,0,15,0,0,0,60,62,10,0,70,103.24,0,4.00,4.00,-998.00
2024-06-07 01:51:29.083898,0,0,15,0,0,0,62,62,10,0,70,103.32,0,3.00,5.00,-1001.00
2024-06-07 01:51:29.185912,0,0,15,0,0,0,62,62,10,0,70,103.13,0,3.00,5.00,-998.00
2024-06-07 01:51:29.367979,0,0,15,0,0,0,62,62,10,0,70,103.00,0,2.00,5.00,-999.00
2024-06-07 01:51:29.389941,0,0,15,0,0,0,62,62,10,0,70,103.20,0,4.00,6.00,-1001.00
2024-06-07 01:51:29.491920,0,0,15,0,0,0,62,62,10,0,70,103.14,0,4.00,6.00,-1000.00
2024-06-07 01:51:29.684079,0,0,15,0,0,0,62,62,10,0,70,103.09,0,4.00,7.00,-999.00
2024-06-07 01:51:29.698630,0,0,15,0,0,0,62,62,10,0,70,103.10,0,5.00,5.00,-999.00
2024-06-07 01:51:29.798829,0,0,15,0,0,0,62,62,10,0,70,103.14,0,3.00,6.00,-1000.00
2024-06-07 01:51:29.982437,0,0,15,0,0,0,62,62,10,0,70,103.08,0,3.00,6.00,-1000.00
2024-06-07 01:51:30.002753,0,0,15,0,0,0,62,62,10,0,70,103.31,0,3.00,5.00,-999.00
2024-06-07 01:51:30.104827,0,0,15,0,0,0,61,63,10,0,70,103.15,0,4.00,4.00,-1000.00
2024-06-07 01:51:30.290115,0,0,15,0,0,0,61,63,10,0,70,103.16,0,4.00,3.00,-1001.00
2024-06-07 01:51:30.308666,0,0,15,0,0,0,61,63,10,0,70,103.05,0,4.00,6.00,-996.00
2024-06-07 01:51:30.494808,0,0,15,0,0,0,61,63,10,0,70,103.29,0,3.00,6.00,-1000.00
2024-06-07 01:51:30.512752,0,0,15,0,0,0,61,63,10,0,70,103.08,0,4.00,5.00,-998.00
2024-06-07 01:51:30.699151,0,0,15,0,0,0,61,63,10,0,70,103.17,0,4.00,4.00,-1000.00
2024-06-07 01:51:30.716614,0,0,15,0,0,0,61,63,10,0,70,102.96,0,4.00,6.00,-1000.00
2024-06-07 01:51:30.818684,0,0,15,0,0,0,61,63,10,0,70,103.06,0,3.00,4.00,-999.00
2024-06-07 01:51:30.920564,0,0,15,0,0,0,61,63,10,0,70,103.09,0,4.00,5.00,-997.00
2024-06-07 01:51:31.109108,0,0,15,0,0,0,61,63,10,0,70,103.16,0,5.00,6.00,-997.00
2024-06-07 01:51:31.124517,0,0,15,0,0,0,61,63,10,0,70,103.16,0,5.00,5.00,-1003.00
2024-06-07 01:51:31.226496,0,0,15,0,0,0,61,63,10,0,70,103.16,0,14.00,-30.00,-1001.00
2024-06-07 01:51:31.330791,0,0,16,0,0,0,61,63,10,0,70,103.16,0,15.00,-20.00,-1044.00
2024-06-07 01:51:31.430837,0,0,17,0,0,0,61,63,10,0,70,103.16,0,28.00,13.00,-973.00
2024-06-07 01:51:31.532576,0,0,17,0,0,0,61,63,10,0,70,103.16,0,4.00,19.00,-1088.00
2024-06-07 01:51:31.723958,0,0,18,0,0,0,61,63,10,0,70,103.16,0,62.00,14.00,-1107.00
2024-06-07 01:51:31.736448,0,0,18,0,0,-2,61,63,10,0,70,103.16,0,12.00,62.00,-1352.00
2024-06-07 01:51:31.930032,3,0,18,0,0,-6,61,63,12,0,70,103.16,0,24.00,61.00,-1312.00
2024-06-07 01:51:31.940501,2,0,18,0,0,-8,61,63,21,10,70,103.34,0,68.00,-19.00,-1149.00
2024-06-07 01:51:31.992761,2,0,18,0,0,-9,61,63,30,20,70,103.48,1,12.00,16.00,-1009.00
2024-06-07 01:51:32.144475,2,0,18,0,0,-9,62,63,36,30,70,103.81,1,33.00,-17.00,-977.00
2024-06-07 01:51:32.337246,2,0,18,0,0,-8,62,63,45,30,70,103.49,1,5.00,23.00,-902.00
2024-06-07 01:51:32.337417,1,-1,18,0,0,-7,62,63,53,40,70,103.84,1,15.00,40.00,-926.00
2024-06-07 01:51:32.400696,1,0,18,0,0,-6,62,63,59,50,70,103.95,1,34.00,24.00,-898.00
2024-06-07 01:51:32.502819,1,0,18,0,0,-5,62,63,65,50,70,104.09,1,-72.00,35.00,-772.00
2024-06-07 01:51:32.603696,1,0,18,0,0,-3,62,63,68,60,70,103.95,1,80.00,4.00,-838.00
2024-06-07 01:51:32.705631,1,-1,18,0,0,-2,62,63,71,60,70,103.97,1,49.00,7.00,-912.00
2024-06-07 01:51:32.807651,1,0,18,0,0,-1,62,63,73,60,70,103.88,1,37.00,24.00,-892.00
2024-06-07 01:51:32.951813,1,0,18,0,0,0,62,63,74,60,70,104.16,1,25.00,-35.00,-945.00
2024-06-07 01:51:33.011724,1,0,18,0,0,0,62,63,74,60,70,104.08,2,20.00,13.00,-964.00
2024-06-07 01:51:33.157554,2,0,18,0,0,0,61,64,74,60,70,104.28,2,10.00,52.00,-1014.00
2024-06-07 01:51:33.217759,2,0,18,0,0,0,61,64,73,60,70,103.93,2,40.00,-31.00,-1024.00
2024-06-07 01:51:33.318150,2,0,18,0,0,0,61,64,73,60,70,104.26,2,61.00,-52.00,-1134.00
2024-06-07 01:51:33.419482,2,0,18,0,0,0,61,64,72,60,70,104.20,2,47.00,8.00,-1087.00
2024-06-07 01:51:33.521426,2,0,18,0,0,0,61,64,72,60,70,103.87,2,-30.00,28.00,-975.00
2024-06-07 01:51:33.669882,2,0,18,0,0,0,61,64,71,60,70,104.27,2,9.00,0.00,-1046.00
2024-06-07 01:51:33.725513,2,0,18,0,0,0,61,64,71,60,70,104.05,2,34.00,7.00,-965.00
2024-06-07 01:51:33.875319,2,0,18,0,0,0,61,64,71,60,70,103.92,2,44.00,4.00,-1008.00
2024-06-07 01:51:33.929516,1,0,18,0,0,0,61,64,71,60,70,104.18,2,129.00,8.00,-992.00
2024-06-07 01:51:34.079995,2,0,18,0,0,0,61,64,71,60,70,104.06,3,44.00,4.00,-1064.00
2024-06-07 01:51:34.133821,2,0,18,0,0,0,63,64,71,60,70,104.17,3,63.00,11.00,-995.00
2024-06-07 01:51:34.282811,2,0,18,0,0,0,63,64,71,60,70,104.21,3,28.00,7.00,-992.00
2024-06-07 01:51:34.338534,2,0,18,0,0,0,63,64,71,60,70,104.15,3,52.00,12.00,-1004.00
2024-06-07 01:51:34.439514,1,0,18,0,0,0,63,64,72,60,70,104.14,3,-68.00,62.00,-1026.00
2024-06-07 01:51:34.541536,1,0,18,0,0,0,63,64,72,60,70,104.27,3,29.00,24.00,-962.00
2024-06-07 01:51:34.643981,1,0,18,0,0,0,63,64,73,60,70,104.17,3,22.00,49.00,-953.00
2024-06-07 01:51:34.794939,1,0,18,0,0,0,63,64,74,60,70,104.06,3,11.00,12.00,-1030.00
2024-06-07 01:51:34.847624,1,0,18,0,0,0,63,64,74,60,70,104.16,3,1.00,34.00,-949.00
2024-06-07 01:51:34.954641,1,0,18,0,0,0,63,64,75,60,70,104.13,3,37.00,11.00,-1005.00
2024-06-07 01:51:35.051447,1,0,18,0,0,0,63,64,76,60,70,104.10,4,45.00,14.00,-987.00
2024-06-07 01:51:35.205306,1,0,18,0,0,0,62,64,77,60,70,104.12,4,-30.00,62.00,-1052.00
2024-06-07 01:51:35.256434,1,0,18,0,0,0,62,64,78,60,70,104.15,4,67.00,54.00,-894.00
2024-06-07 01:51:35.409780,1,0,18,0,0,0,62,64,79,70,70,104.04,4,24.00,13.00,-1065.00
2024-06-07 01:51:35.459397,1,0,18,0,0,0,62,64,80,70,70,104.32,4,31.00,9.00,-1015.00
2024-06-07 01:51:35.616009,1,0,18,0,0,0,62,64,81,70,70,104.19,4,-5.00,41.00,-951.00
2024-06-07 01:51:35.663505,1,0,18,0,0,0,62,64,82,70,70,104.22,4,108.00,-9.00,-1088.00
2024-06-07 01:51:35.765445,1,0,18,0,0,0,62,64,83,70,70,104.19,4,20.00,21.00,-958.00
2024-06-07 01:51:35.816258,2,0,18,0,0,0,62,64,83,70,70,104.24,4,2.00,26.00,-1021.00
2024-06-07 01:51:35.923015,2,0,18,0,0,0,62,64,84,70,70,104.21,4,40.00,33.00,-952.00
2024-06-07 01:51:36.020426,2,0,18,0,0,0,62,64,85,70,70,104.12,5,117.00,4.00,-989.00
2024-06-07 01:51:36.130328,2,0,18,0,0,0,62,65,85,70,70,103.99,5,60.00,3.00,-1037.00
2024-06-07 01:51:36.226267,2,0,18,0,0,0,62,65,85,70,70,103.99,5,-35.00,17.00,-963.00
2024-06-07 01:51:36.325984,1,0,18,0,0,0,62,65,85,70,69,103.92,5,4.00,33.00,-963.00
2024-06-07 01:51:36.433877,2,0,18,0,0,0,62,65,85,70,69,104.11,5,69.00,-12.00,-984.00
2024-06-07 01:51:36.530332,2,0,18,0,0,0,62,65,85,70,69,104.32,5,-1.00,20.00,-962.00
2024-06-07 01:51:36.638570,2,0,18,0,0,0,62,65,85,70,69,104.20,5,54.00,10.00,-1018.00
2024-06-07 01:51:36.734231,2,0,18,0,0,0,62,65,85,70,69,104.19,5,20.00,8.00,-948.00
2024-06-07 01:51:36.842749,1,0,18,0,0,0,62,65,84,70,69,104.27,5,-45.00,42.00,-982.00
2024-06-07 01:51:36.937915,1,-1,18,0,0,0,62,65,84,70,69,104.30,5,7.00,14.00,-1031.00
2024-06-07 01:51:37.049790,1,-1,18,0,0,0,62,65,83,70,69,103.99,6,30.00,28.00,-944.00
2024-06-07 01:51:37.142716,2,0,18,0,0,0,62,64,83,70,69,104.24,6,22.00,25.00,-947.00
2024-06-07 01:51:37.252385,3,0,18,0,0,0,62,64,82,70,69,104.10,6,17.00,-11.00,-990.00
2024-06-07 01:51:37.346032,3,0,18,0,0,0,62,64,81,70,69,103.95,6,-19.00,62.00,-912.00
2024-06-07 01:51:37.459400,2,0,18,0,0,0,62,64,80,70,69,104.15,6,-57.00,33.00,-945.00
2024-06-07 01:51:37.550008,2,-1,18,0,0,0,62,64,79,70,69,104.09,6,15.00,18.00,-1031.00
2024-06-07 01:51:37.662095,2,-1,18,0,0,0,62,64,78,70,69,103.98,6,80.00,-17.00,-1091.00
2024-06-07 01:51:37.754265,2,-1,18,0,0,0,62,64,77,70,69,104.09,6,48.00,36.00,-992.00
2024-06-07 01:51:37.868702,2,0,18,0,0,0,62,64,76,70,69,104.15,6,61.00,13.00,-1058.00
2024-06-07 01:51:37.957784,2,-1,18,0,0,0,62,64,75,70,69,103.98,6,41.00,6.00,-1070.00
2024-06-07 01:51:38.073667,2,-1,18,0,0,0,62,64,74,60,69,104.14,7,18.00,27.00,-1003.00
2024-06-07 01:51:38.162441,2,0,18,0,0,0,62,65,73,60,69,104.19,7,33.00,3.00,-1038.00
2024-06-07 01:51:38.276418,1,-1,18,0,0,0,62,65,73,60,69,104.35,7,45.00,0.00,-1008.00
2024-06-07 01:51:38.365900,1,-1,18,0,0,0,62,65,72,60,68,104.08,7,35.00,20.00,-1121.00
2024-06-07 01:51:38.482853,2,0,18,0,0,0,62,65,71,60,68,103.95,7,5.00,32.00,-985.00
2024-06-07 01:51:38.570084,3,0,18,0,0,0,62,65,71,60,68,104.16,7,25.00,1.00,-1041.00
2024-06-07 01:51:38.688761,2,0,18,0,0,0,62,65,71,60,68,104.11,7,1.00,23.00,-1035.00
2024-06-07 01:51:38.776208,2,-1,18,0,0,0,62,65,71,60,68,104.05,7,49.00,1.00,-960.00
2024-06-07 01:51:38.875936,2,-1,18,0,0,0,62,65,71,60,68,103.85,7,-24.00,13.00,-961.00
2024-06-07 01:51:38.995173,2,0,18,0,0,0,62,65,71,60,68,103.92,7,35.00,19.00,-962.00
2024-06-07 01:51:39.080026,1,0,18,0,0,0,62,65,71,60,68,103.90,8,14.00,22.00,-947.00
2024-06-07 01:51:39.181963,1,0,18,0,0,0,63,65,71,60,68,104.12,8,25.00,19.00,-1038.00
2024-06-07 01:51:39.302583,1,0,18,0,0,0,63,65,71,60,68,104.12,8,73.00,42.00,-974.00
2024-06-07 01:51:39.385810,1,-1,18,0,0,0,63,65,71,60,68,103.91,8,65.00,5.00,-1020.00
2024-06-07 01:51:39.507205,1,-1,18,0,0,0,63,65,71,60,68,104.19,8,8.00,64.00,-915.00
2024-06-07 01:51:39.590111,1,-1,18,0,0,0,63,65,72,60,68,103.98,8,67.00,-5.00,-1021.00
2024-06-07 01:51:39.640967,1,-1,18,0,0,0,63,65,72,60,68,104.17,8,20.00,9.00,-957.00
2024-06-07 01:51:39.743133,1,-1,18,0,0,0,63,65,72,60,68,103.86,8,36.00,9.00,-1003.00
2024-06-07 01:51:39.914601,1,-1,18,0,0,0,63,65,73,60,68,103.72,8,6.00,2.00,-1018.00
2024-06-07 01:51:39.947084,1,-1,18,0,0,0,63,65,73,60,68,103.88,8,37.00,-9.00,-1002.00
2024-06-07 01:51:40.121602,1,-1,18,0,0,0,63,65,74,60,68,104.16,9,10.00,-33.00,-1006.00
2024-06-07 01:51:40.201934,1,0,18,0,0,0,63,65,75,60,68,104.09,9,-7.00,2.00,-1009.00
2024-06-07 01:51:40.253868,1,0,18,0,0,0,63,65,75,60,68,103.91,9,15.00,23.00,-988.00
2024-06-07 01:51:40.431598,1,0,18,0,0,0,63,65,76,60,67,103.99,9,-1.00,36.00,-1067.00
2024-06-07 01:51:40.456918,1,0,18,0,0,0,63,65,77,60,67,104.28,9,54.00,3.00,-960.00
2024-06-07 01:51:40.631444,1,-1,18,0,0,0,63,65,77,70,67,103.76,9,-43.00,84.00,-981.00
2024-06-07 01:51:40.661077,2,0,18,0,0,0,63,65,78,70,67,103.87,9,55.00,28.00,-961.00
2024-06-07 01:51:40.840515,2,0,18,0,0,0,63,65,78,70,67,104.07,9,49.00,23.00,-995.00
2024-06-07 01:51:40.866057,2,0,18,0,0,0,63,65,78,70,67,104.03,9,72.00,-3.00,-973.00
2024-06-07 01:51:41.041188,2,0,18,0,0,0,63,65,78,70,67,103.82,9,74.00,30.00,-1031.00
2024-06-07 01:51:41.156906,2,0,18,0,0,0,63,65,78,70,67,104.16,10,21.00,2.00,-990.00
2024-06-07 01:51:41.171172,2,0,18,0,0,0,64,65,78,70,67,104.13,10,38.00,23.00,-942.00
2024-06-07 01:51:41.299496,2,0,18,0,0,0,64,65,77,70,67,103.93,10,74.00,-17.00,-1059.00
2024-06-07 01:51:41.432849,2,0,18,0,0,0,64,65,77,70,67,104.03,10,-38.00,21.00,-1014.00
2024-06-07 01:51:41.496410,2,0,18,0,0,0,64,65,76,70,67,103.78,10,31.00,1.00,-1027.00
2024-06-07 01:51:41.607657,2,0,18,0,0,0,64,65,76,70,67,104.18,10,25.00,34.00,-1005.00
2024-06-07 01:51:41.691553,2,0,18,0,0,0,64,65,75,70,67,104.09,10,130.00,-8.00,-988.00
2024-06-07 01:51:41.782887,1,-1,18,0,0,0,64,65,75,70,67,103.92,10,23.00,2.00,-1027.00
2024-06-07 01:51:41.962502,1,-1,18,0,0,0,64,65,74,60,67,104.02,10,0.00,3.00,-1056.00
2024-06-07 01:51:41.987134,1,-1,18,0,0,0,64,65,74,60,67,103.97,10,47.00,-14.00,-1094.00
2024-06-07 01:51:42.136296,1,-1,18,0,0,-1,64,65,76,60,67,104.24,11,22.00,24.00,-1135.00
2024-06-07 01:51:42.190841,1,0,18,0,0,-2,63,66,78,70,67,104.43,11,54.00,10.00,-1058.00
2024-06-07 01:51:42.382969,1,0,18,0,0,-3,63,66,81,70,67,104.26,11,-1.00,24.00,-1094.00
2024-06-07 01:51:42.395079,1,0,18,0,0,-3,63,66,85,70,66,104.17,11,52.00,1.00,-1028.00
2024-06-07 01:51:42.526256,1,0,18,0,0,-4,63,66,89,80,66,104.55,11,-9.00,21.00,-1089.00
2024-06-07 01:51:42.691719,1,-1,18,0,0,-4,63,66,94,80,66,104.06,11,46.00,3.00,-1006.00
2024-06-07 01:51:42.700804,1,-1,18,0,0,-5,63,66,99,90,66,104.49,11,74.00,3.00,-1127.00
2024-06-07 01:51:42.833421,1,-1,18,0,0,-5,63,66,105,90,66,104.26,11,43.00,12.00,-969.00
2024-06-07 01:51:42.997451,2,-1,18,0,0,-5,63,66,110,100,66,104.25,11,10.00,22.00,-1007.00
2024-06-07 01:51:43.006791,2,-1,18,0,0,-5,63,66,116,100,66,104.68,11,-30.00,25.00,-975.00
2024-06-07 01:51:43.140564,2,0,18,0,0,-5,63,66,121,110,66,104.42,12,56.00,18.00,-999.00
2024-06-07 01:51:43.304475,2,0,18,0,0,-5,63,67,126,110,66,104.70,12,38.00,31.00,-974.00
2024-06-07 01:51:43.312836,2,0,18,0,0,-4,63,67,132,120,66,104.31,12,60.00,14.00,-975.00
2024-06-07 01:51:43.447810,2,-1,18,0,0,-4,63,67,136,130,66,104.36,12,-57.00,22.00,-942.00
2024-06-07 01:51:43.612392,2,-1,18,0,0,-3,63,67,141,130,66,104.67,12,42.00,38.00,-915.00
2024-06-07 01:51:43.618648,1,-1,18,0,0,-3,63,67,146,130,66,104.85,12,17.00,61.00,-943.00
2024-06-07 01:51:43.766040,1,-1,18,0,0,-3,63,67,150,140,66,104.85,12,-45.00,90.00,-846.00
2024-06-07 01:51:43.772648,1,-1,18,0,0,-3,63,67,154,140,66,104.74,12,25.00,22.00,-940.00
2024-06-07 01:51:43.873468,1,0,18,0,0,-3,63,67,158,150,66,104.87,12,-24.00,35.00,-986.00
2024-06-07 01:51:44.010359,1,0,18,0,0,-3,63,67,163,150,66,104.68,13,89.00,21.00,-948.00
2024-06-07 01:51:44.077916,1,0,18,0,0,-2,63,67,167,150,66,104.90,13,-13.00,24.00,-983.00
2024-06-07 01:51:44.216759,1,0,18,0,0,-2,64,67,170,160,66,104.66,13,-17.00,13.00,-1036.00
2024-06-07 01:51:44.282668,1,0,18,0,0,-2,64,67,171,160,66,104.89,13,11.00,27.00,-972.00
2024-06-07 01:51:44.384982,1,0,18,0,0,-1,64,67,174,160,65,104.84,13,7.00,39.00,-913.00
2024-06-07 01:51:44.487751,1,-1,18,0,0,-1,64,67,175,160,65,104.85,13,17.00,0.00,-946.00
2024-06-07 01:51:44.589588,1,-1,18,0,0,0,64,67,177,160,65,105.03,13,59.00,12.00,-917.00
2024-06-07 01:51:44.727981,2,0,18,0,0,0,64,67,177,170,65,104.89,13,15.00,24.00,-925.00
2024-06-07 01:51:44.793349,2,0,18,0,0,0,64,67,179,170,65,104.62,13,46.00,-34.00,-984.00
2024-06-07 01:51:44.939854,2,0,18,0,0,0,64,67,177,170,65,104.84,13,60.00,-13.00,-905.00
2024-06-07 01:51:44.996869,2,0,18,0,0,0,64,67,176,170,65,105.13,14,-4.00,66.00,-854.00
2024-06-07 01:51:45.098634,1,0,18,0,0,0,64,67,177,170,65,105.13,14,52.00,13.00,-935.00
2024-06-07 01:51:45.200750,1,-1,18,0,0,0,65,67,177,170,65,104.88,14,47.00,33.00,-940.00
2024-06-07 01:51:45.343681,1,0,18,0,0,0,65,67,177,160,65,104.82,14,-104.00,72.00,-968.00
2024-06-07 01:51:45.404891,1,-1,18,0,0,0,65,67,176,160,65,104.91,14,56.00,25.00,-1060.00
2024-06-07 01:51:45.548775,1,-1,18,0,0,0,65,67,176,160,65,104.65,14,56.00,5.00,-1054.00
2024-06-07 01:51:45.608636,1,-1,18,0,0,0,65,67,175,160,65,104.97,14,2.00,29.00,-982.00
2024-06-07 01:51:45.752623,1,-1,18,0,0,0,65,67,176,160,65,105.01,14,-65.00,70.00,-946.00
2024-06-07 01:51:45.813104,1,-1,18,0,0,0,65,67,177,160,65,104.87,14,6.00,25.00,-1000.00
2024-06-07 01:51:45.914810,1,-1,18,0,0,0,65,67,176,160,65,105.16,14,12.00,13.00,-972.00
2024-06-07 01:51:46.060555,1,0,18,0,0,0,65,67,176,170,65,104.88,15,-20.00,61.00,-1010.00
2024-06-07 01:51:46.120678,1,0,18,0,0,0,65,67,178,170,65,104.94,15,37.00,9.00,-1046.00
2024-06-07 01:51:46.222701,2,0,18,0,0,0,65,67,176,170,65,104.75,15,176.00,-64.00,-1102.00
2024-06-07 01:51:46.324646,2,0,18,0,0,0,65,67,178,170,65,105.09,15,50.00,-1.00,-941.00
2024-06-07 01:51:46.426958,2,0,18,0,0,0,65,67,177,170,64,105.06,15,41.00,0.00,-1042.00
2024-06-07 01:51:46.526415,2,0,18,0,0,0,65,67,178,170,64,105.12,15,27.00,25.00,-944.00
2024-06-07 01:51:46.673756,1,-1,18,0,0,0,65,67,177,170,64,104.78,15,94.00,18.00,-918.00
2024-06-07 01:51:46.730458,1,-1,18,0,0,1,65,67,176,160,64,105.18,15,105.00,-7.00,-968.00
2024-06-07 01:51:46.878685,1,-1,18,0,0,1,65,67,175,160,64,104.85,15,43.00,21.00,-925.00
2024-06-07 01:51:46.934488,2,0,18,0,0,1,65,67,175,160,64,104.93,15,21.00,36.00,-930.00
2024-06-07 01:51:47.036447,2,0,18,0,0,2,65,67,174,160,64,104.98,16,71.00,-9.00,-960.00
2024-06-07 01:51:47.189606,2,0,18,0,0,2,65,67,171,160,64,105.11,16,24.00,4.00,-1072.00
2024-06-07 01:51:47.243222,2,0,18,0,0,1,65,67,168,160,64,104.79,16,58.00,54.00,-970.00
2024-06-07 01:51:47.293116,1,0,18,0,0,2,65,67,168,150,64,104.83,16,52.00,0.00,-975.00
2024-06-07 01:51:47.393120,0,-1,18,0,0,2,65,67,166,150,64,104.47,16,-52.00,9.00,-1008.00
2024-06-07 01:51:47.599755,0,-1,18,0,0,2,65,67,162,150,64,104.74,16,8.00,31.00,-988.00
2024-06-07 01:51:47.599947,0,-1,18,0,0,2,65,67,159,150,64,104.65,16,45.00,4.00,-1019.00
2024-06-07 01:51:47.699443,0,-1,18,0,0,2,65,67,158,150,64,105.04,16,8.00,-10.00,-1039.00
2024-06-07 01:51:47.801149,0,-1,18,0,0,2,65,67,155,140,64,104.74,16,30.00,8.00,-962.00
2024-06-07 01:51:47.903184,0,-1,18,0,0,2,65,67,152,140,64,104.65,16,-31.00,48.00,-1019.00
2024-06-07 01:51:48.106184,0,-1,18,0,0,2,65,67,149,140,64,104.60,17,4.00,55.00,-1008.00
2024-06-07 01:51:48.107390,0,-2,18,0,0,2,65,67,148,140,64,104.87,17,84.00,-3.00,-1069.00
2024-06-07 01:51:48.210079,0,-2,18,0,0,2,65,67,146,140,64,104.71,17,43.00,22.00,-955.00
2024-06-07 01:51:48.311732,1,-1,18,1,0,2,65,67,145,130,64,104.59,17,70.00,10.00,-1010.00
2024-06-07 01:51:48.416037,2,-1,18,1,0,1,65,67,143,130,63,104.64,17,-6.00,29.00,-992.00
2024-06-07 01:51:48.515787,2,0,18,1,0,1,65,67,141,130,63,104.42,17,60.00,30.00,-1025.00
2024-06-07 01:51:48.723067,2,0,18,0,0,1,65,67,140,130,63,104.58,17,45.00,12.00,-1005.00
2024-06-07 01:51:48.723315,2,0,18,0,0,1,65,67,139,130,63,104.52,17,5.00,26.00,-1055.00
2024-06-07 01:51:48.822637,2,-1,18,0,0,1,65,67,139,130,63,104.77,17,76.00,1.00,-985.00
2024-06-07 01:51:48.923230,1,-1,18,0,0,0,65,67,137,130,63,104.53,17,-9.00,16.00,-1077.00
2024-06-07 01:51:49.025980,1,-1,18,0,0,0,65,67,137,120,63,104.21,18,52.00,31.00,-903.00
2024-06-07 01:51:49.133297,1,-1,18,0,0,0,65,67,136,120,63,104.66,18,12.00,14.00,-1026.00
2024-06-07 01:51:49.230830,1,-1,18,0,0,0,65,68,136,120,63,104.62,18,63.00,-3.00,-1028.00
2024-06-07 01:51:49.331279,1,-1,18,0,0,0,65,68,135,120,63,104.61,18,14.00,21.00,-1070.00
2024-06-07 01:51:49.439407,1,-1,18,0,0,0,65,68,134,120,63,104.74,18,0.00,-4.00,-1033.00
2024-06-07 01:51:49.534969,1,-1,18,0,0,0,65,68,133,120,63,104.46,18,68.00,-9.00,-995.00
2024-06-07 01:51:49.644647,1,-1,18,0,0,0,65,68,132,120,63,104.50,18,47.00,6.00,-971.00
2024-06-07 01:51:49.738952,1,-1,18,0,0,0,65,68,131,120,63,104.75,18,-28.00,52.00,-975.00
2024-06-07 01:51:49.841157,0,-1,18,0,0,0,65,68,130,120,63,104.44,18,25.00,47.00,-991.00
2024-06-07 01:51:49.951610,1,-1,18,0,0,0,65,68,129,120,63,104.57,18,40.00,24.00,-1089.00
2024-06-07 01:51:50.048075,0,-1,18,0,0,0,65,68,127,120,63,104.52,19,58.00,19.00,-993.00
2024-06-07 01:51:50.147114,1,-1,18,0,0,0,65,68,126,120,63,104.24,19,-29.00,56.00,-983.00
2024-06-07 01:51:50.249331,1,-1,18,0,0,0,65,68,126,120,63,104.51,19,128.00,-13.00,-1042.00
2024-06-07 01:51:50.361414,1,0,18,0,0,0,65,68,125,120,62,104.42,19,74.00,17.00,-1064.00
2024-06-07 01:51:50.454842,1,0,18,0,0,0,65,68,124,120,62,104.52,19,64.00,9.00,-1038.00
2024-06-07 01:51:50.555046,1,0,18,0,0,0,65,68,122,120,62,104.66,19,82.00,11.00,-972.00
2024-06-07 01:51:50.668173,1,-1,18,0,0,0,65,68,121,120,62,104.40,19,80.00,1.00,-938.00
2024-06-07 01:51:50.758902,1,-1,18,0,0,0,65,68,120,110,62,104.47,19,24.00,22.00,-1071.00
2024-06-07 01:51:50.810644,1,-2,18,0,0,0,65,68,119,110,62,104.42,19,21.00,8.00,-1005.00
2024-06-07 01:51:50.974143,1,-2,18,0,0,0,65,68,119,110,62,104.20,19,32.00,8.00,-1018.00
2024-06-07 01:51:51.016567,1,-1,18,0,0,0,65,68,118,110,62,104.49,20,20.00,23.00,-1022.00
2024-06-07 01:51:51.116189,1,-1,18,0,0,0,65,68,118,110,62,104.28,20,43.00,19.00,-980.00
2024-06-07 01:51:51.218027,1,-1,18,0,0,0,65,69,118,110,62,104.35,20,51.00,9.00,-1112.00
2024-06-07 01:51:51.383188,1,-1,18,0,0,0,65,69,117,110,62,104.48,20,-9.00,23.00,-1071.00
2024-06-07 01:51:51.422092,0,-1,18,0,0,0,65,69,118,110,62,104.43,20,67.00,0.00,-1089.00
2024-06-07 01:51:51.590261,0,-1,18,0,0,0,65,69,118,110,62,104.20,20,43.00,12.00,-1043.00
2024-06-07 01:51:51.626047,1,-1,18,0,0,0,65,69,119,110,62,104.17,20,-1.00,36.00,-900.00
2024-06-07 01:51:51.728038,1,-1,18,0,0,0,65,69,119,110,62,104.43,20,-15.00,11.00,-1034.00
2024-06-07 01:51:51.829938,1,-1,18,0,0,0,65,69,119,110,62,104.42,20,-2.00,-1.00,-1004.00
2024-06-07 01:51:52.000029,1,-1,18,0,0,0,65,69,119,110,62,104.19,20,53.00,20.00,-933.00
2024-06-07 01:51:52.033945,-1,0,18,0,0,0,65,69,119,110,62,104.43,21,103.00,3.00,-988.00
2024-06-07 01:51:52.201948,-6,0,18,1,0,0,65,69,118,110,62,104.23,21,22.00,21.00,-996.00
2024-06-07 01:51:52.237943,-7,-1,18,2,1,0,66,69,119,110,62,104.20,21,64.00,32.00,-1013.00
2024-06-07 01:51:52.406858,-6,-1,18,3,1,0,66,69,120,110,61,104.30,21,65.00,20.00,-1086.00
2024-06-07 01:51:52.441897,-5,-1,18,5,2,0,66,69,120,110,61,104.34,21,-33.00,60.00,-986.00
2024-06-07 01:51:52.544090,-5,-2,18,5,2,0,66,69,121,110,61,104.54,21,-6.00,16.00,-933.00
2024-06-07 01:51:52.714610,-4,-2,18,6,2,0,66,69,121,110,61,104.26,21,-54.00,24.00,-997.00
2024-06-07 01:51:52.749399,-3,-2,18,7,2,0,66,69,120,110,61,104.37,21,-9.00,32.00,-1029.00
2024-06-07 01:51:52.922893,-2,-2,18,7,2,0,66,69,121,110,61,104.39,21,-28.00,19.00,-1033.00
2024-06-07 01:51:52.951860,1,-1,18,7,2,0,66,69,122,110,61,104.52,21,58.00,-12.00,-1002.00
2024-06-07 01:51:53.125787,3,-1,18,6,1,0,66,69,123,110,61,104.39,22,-58.00,47.00,-932.00
2024-06-07 01:51:53.156390,4,-1,18,6,1,0,66,69,124,120,61,104.14,22,61.00,-3.00,-1025.00
2024-06-07 01:51:53.262256,5,-1,18,5,1,0,66,69,124,120,61,104.60,22,-17.00,-2.00,-1075.00
2024-06-07 01:51:53.359823,4,0,18,4,1,0,66,69,124,120,61,104.50,22,-14.00,5.00,-994.00
2024-06-07 01:51:53.533955,3,-1,18,3,0,0,66,69,124,120,61,104.33,22,-79.00,38.00,-1113.00
2024-06-07 01:51:53.563995,2,-1,18,2,0,0,66,69,124,120,61,104.58,22,75.00,2.00,-965.00
2024-06-07 01:51:53.740143,2,-2,18,2,0,0,66,69,124,120,61,104.25,22,61.00,-5.00,-991.00
2024-06-07 01:51:53.768692,1,-2,18,2,0,0,66,69,124,120,61,104.56,22,38.00,-5.00,-981.00
2024-06-07 01:51:53.953585,1,-1,18,2,0,0,66,69,125,120,61,104.52,22,29.00,20.00,-989.00
2024-06-07 01:51:53.953672,1,-1,18,2,0,0,66,69,124,120,61,104.49,22,20.00,32.00,-1010.00
2024-06-07 01:51:54.023706,0,-1,18,2,0,0,66,69,125,120,61,104.51,23,29.00,3.00,-995.00
2024-06-07 01:51:54.125757,0,-1,18,2,0,0,66,69,125,120,61,104.23,23,27.00,7.00,-1057.00
2024-06-07 01:51:54.355377,0,-1,18,2,0,0,67,69,125,120,61,104.36,23,1.00,7.00,-947.00
2024-06-07 01:51:54.380491,1,-1,18,2,0,0,67,69,126,120,60,104.61,23,58.00,14.00,-876.00
2024-06-07 01:51:54.436767,4,0,18,2,0,0,67,69,126,120,60,104.52,23,-36.00,35.00,-988.00
2024-06-07 01:51:54.533821,6,0,18,1,0,0,67,69,126,120,60,104.36,23,37.00,27.00,-997.00
2024-06-07 01:51:54.635775,4,0,18,0,0,0,67,69,125,120,60,104.12,23,32.00,43.00,-979.00
2024-06-07 01:51:54.737936,2,-1,18,0,0,0,67,69,124,120,60,104.29,23,-89.00,59.00,-919.00
2024-06-07 01:51:54.866653,2,-1,18,0,0,0,67,69,124,120,60,104.30,23,49.00,7.00,-1040.00
2024-06-07 01:51:54.942300,1,-1,18,0,0,0,67,69,123,120,60,104.39,23,53.00,8.00,-985.00
2024-06-07 01:51:55.069252,1,-1,18,0,0,0,67,69,123,120,60,104.01,24,26.00,-4.00,-989.00
2024-06-07 01:51:55.145787,1,-1,18,0,0,0,67,69,123,120,60,104.58,24,76.00,20.00,-925.00
2024-06-07 01:51:55.249549,1,-2,18,0,0,0,66,69,123,120,60,104.78,24,42.00,4.00,-1014.00
2024-06-07 01:51:55.349898,1,-1,18,0,0,0,66,69,123,120,60,104.24,24,-9.00,4.00,-1074.00
2024-06-07 01:51:55.452357,1,-1,18,0,0,0,66,69,124,120,60,104.15,24,63.00,23.00,-961.00
2024-06-07 01:51:55.581276,0,-1,18,0,0,0,66,69,124,120,60,104.53,24,15.00,1.00,-1007.00
2024-06-07 01:51:55.655731,0,-1,18,0,0,0,66,69,125,120,60,104.52,24,20.00,31.00,-1010.00
2024-06-07 01:51:55.757606,0,-1,18,0,0,0,66,69,125,120,60,104.45,24,74.00,0.00,-977.00
2024-06-07 01:51:55.860256,0,-1,18,0,0,0,66,69,125,120,60,104.15,24,30.00,1.00,-920.00
2024-06-07 01:51:55.963535,0,-2,18,0,0,0,66,69,126,120,60,104.35,24,-4.00,43.00,-966.00
2024-06-07 01:51:56.063895,0,-2,18,0,0,0,66,69,126,120,60,104.45,25,55.00,9.00,-1017.00
2024-06-07 01:51:56.400874,1,-2,18,0,0,0,66,69,126,120,60,104.42,25,-6.00,40.00,-1014.00
2024-06-07 01:51:56.484718,1,-2,18,0,0,0,67,70,127,120,60,104.41,25,49.00,15.00,-948.00
2024-06-07 01:51:56.484930,1,-1,18,0,0,0,67,70,126,120,59,104.18,25,45.00,-7.00,-1020.00
2024-06-07 01:51:56.485006,1,-1,18,0,0,0,67,70,127,120,59,104.47,25,6.00,18.00,-1028.00
2024-06-07 01:51:56.659635,1,-1,18,0,0,0,67,70,126,120,59,104.57,25,64.00,54.00,-922.00
2024-06-07 01:51:56.675534,1,-1,18,0,0,0,67,70,125,120,59,104.40,25,94.00,-14.00,-1048.00
2024-06-07 01:51:56.829961,1,-2,18,0,0,0,67,70,125,120,59,104.42,25,64.00,11.00,-999.00
2024-06-07 01:51:56.925022,4,-1,18,0,0,0,67,70,126,120,59,104.25,25,74.00,15.00,-993.00
2024-06-07 01:51:57.016995,8,0,18,0,0,0,67,70,127,120,59,104.34,25,56.00,-6.00,-1145.00
2024-06-07 01:51:57.098823,8,0,18,-1,0,0,67,70,127,120,59,104.53,26,2.00,14.00,-1064.00
2024-06-07 01:51:57.185418,8,0,18,-3,0,0,67,70,127,120,59,104.84,26,8.00,87.00,-1073.00
2024-06-07 01:51:57.435047,8,-1,18,-4,-1,0,67,70,126,120,59,104.50,26,123.00,-33.00,-1019.00
2024-06-07 01:51:57.435131,8,-1,18,-4,-1,0,67,70,127,120,59,104.56,26,40.00,9.00,-980.00
2024-06-07 01:51:57.578413,8,-1,18,-5,-1,0,67,70,127,120,59,104.61,26,91.00,25.00,-963.00
2024-06-07 01:51:57.593475,8,-2,18,-6,-1,0,67,70,126,120,59,104.23,26,91.00,-19.00,-969.00
2024-06-07 01:51:57.742184,8,-3,18,-6,-2,0,67,70,126,120,59,104.57,26,62.00,22.00,-975.00
2024-06-07 01:51:57.885593,5,-2,18,-7,-2,0,67,70,124,120,59,103.99,26,67.00,24.00,-1001.00
2024-06-07 01:51:57.899626,1,-2,18,-7,-2,0,67,70,124,120,59,104.39,26,99.00,30.00,-1053.00
2024-06-07 01:51:58.053424,0,-1,18,-6,-2,0,67,70,124,120,59,104.33,26,-6.00,59.00,-933.00
2024-06-07 01:51:58.053507,-2,-1,18,-5,-2,0,67,70,123,120,59,104.15,27,58.00,26.00,-984.00
2024-06-07 01:51:58.154682,-2,0,18,-4,-2,0,67,70,122,120,59,104.04,27,91.00,-20.00,-1073.00
2024-06-07 01:51:58.256063,0,0,18,-3,-1,0,67,69,122,120,59,104.56,27,86.00,21.00,-935.00
2024-06-07 01:51:58.448097,0,0,18,-2,-1,0,67,69,122,110,58,103.83,27,3.00,37.00,-1070.00
2024-06-07 01:51:58.460161,1,0,18,-2,-1,0,67,69,121,110,58,104.23,27,72.00,15.00,-943.00
2024-06-07 01:51:58.654715,1,-1,18,-2,-1,0,67,69,122,110,58,104.35,27,78.00,15.00,-1040.00
2024-06-07 01:51:58.664128,1,-1,18,-2,-1,0,67,69,122,110,58,104.49,27,40.00,10.00,-1051.00
2024-06-07 01:51:58.768127,1,-2,18,-2,-1,0,67,69,122,110,58,104.58,27,47.00,13.00,-1051.00
2024-06-07 01:51:58.868340,1,-2,18,-2,-1,0,67,69,123,110,58,104.37,27,-40.00,37.00,-963.00
2024-06-07 01:51:59.065704,0,-1,18,-2,-1,0,67,69,123,120,58,104.25,27,64.00,-13.00,-1034.00
2024-06-07 01:51:59.072130,-3,1,18,-1,-1,0,67,69,125,120,58,104.07,28,87.00,-42.00,-1088.00
2024-06-07 01:51:59.174102,-1,0,18,0,0,0,67,69,124,120,58,104.50,28,68.00,0.00,-955.00
2024-06-07 01:51:59.276583,0,0,18,0,0,0,67,70,125,120,58,104.33,28,45.00,-11.00,-1075.00
2024-06-07 01:51:59.378150,1,0,18,0,0,0,67,70,126,120,58,104.30,28,12.00,21.00,-941.00
2024-06-07 01:51:59.574687,1,-1,18,0,0,0,67,70,127,120,58,104.48,28,104.00,28.00,-1070.00
2024-06-07 01:51:59.582213,1,-1,18,0,0,0,67,70,127,120,58,104.09,28,-30.00,47.00,-951.00
2024-06-07 01:51:59.781854,1,-1,18,0,0,0,67,70,128,120,58,104.56,28,5.00,58.00,-993.00
2024-06-07 01:51:59.788328,2,-1,18,0,0,0,67,70,128,120,58,104.52,28,73.00,15.00,-966.00
2024-06-07 01:51:59.888388,2,-1,18,0,0,0,67,70,129,120,58,104.51,28,18.00,-13.00,-1015.00
2024-06-07 01:51:59.990028,2,-1,18,0,0,0,67,70,129,120,58,104.22,28,84.00,-24.00,-1014.00
2024-06-07 01:52:00.191279,2,-1,18,0,0,0,67,70,130,120,58,104.46,29,17.00,20.00,-938.00
2024-06-07 01:52:00.196336,2,-1,18,0,0,0,67,70,131,120,58,104.45,29,67.00,6.00,-911.00
2024-06-07 01:52:00.297865,1,-1,18,0,0,0,67,70,132,120,58,104.27,29,49.00,-19.00,-1048.00
2024-06-07 01:52:00.399307,1,-2,18,0,0,0,67,70,133,120,57,104.69,29,-33.00,22.00,-999.00
2024-06-07 01:52:00.500436,1,-2,18,0,0,0,67,70,133,120,57,104.40,29,118.00,19.00,-1034.00
2024-06-07 01:52:00.703244,0,-2,18,0,0,0,67,70,134,120,57,104.40,29,96.00,-37.00,-965.00
2024-06-07 01:52:00.704127,1,-1,18,0,0,0,67,70,134,120,57,104.32,29,-23.00,28.00,-964.00
2024-06-07 01:52:00.805961,1,-1,18,0,0,0,67,70,135,120,57,104.36,29,12.00,45.00,-1003.00
2024-06-07 01:52:00.908255,1,-1,18,0,0,0,67,70,135,120,57,104.26,29,5.00,19.00,-930.00
2024-06-07 01:52:01.010447,2,-1,18,0,0,0,67,70,135,120,57,104.57,30,12.00,5.00,-976.00
2024-06-07 01:52:01.112130,2,-1,18,0,0,0,67,70,135,120,57,104.34,30,57.00,40.00,-1019.00
2024-06-07 01:52:01.214911,0,-2,18,0,0,0,67,70,135,120,57,104.43,30,7.00,0.00,-1005.00
2024-06-07 01:52:01.319937,0,-5,18,0,0,0,67,71,135,120,57,104.37,30,-41.00,99.00,-953.00
2024-06-07 01:52:01.421241,0,-8,18,0,0,0,67,71,135,120,57,104.59,30,-11.00,28.00,-1075.00
2024-06-07 01:52:01.520251,0,-8,18,0,-1,0,67,71,135,120,57,104.20,30,45.00,-8.00,-1089.00
2024-06-07 01:52:01.624934,1,-7,18,1,-3,0,67,71,134,120,57,104.48,30,50.00,64.00,-981.00
2024-06-07 01:52:01.729412,3,-3,18,2,-3,0,67,71,133,120,57,104.69,30,-5.00,50.00,-1014.00
2024-06-07 01:52:01.826831,4,0,18,2,-3,0,67,71,133,120,57,104.35,30,25.00,9.00,-1077.00
2024-06-07 01:52:01.877563,3,0,18,1,-3,0,67,71,132,120,57,104.45,30,-49.00,87.00,-925.00
2024-06-07 01:52:02.032745,1,0,18,0,-3,0,67,71,132,120,57,104.38,31,-15.00,36.00,-978.00
2024-06-07 01:52:02.081017,0,0,18,0,-3,0,67,71,131,120,57,104.43,31,22.00,33.00,-955.00
2024-06-07 01:52:02.240742,0,-1,18,0,-2,0,67,71,131,120,57,104.29,31,-31.00,87.00,-984.00
2024-06-07 01:52:02.284977,0,-2,18,0,-2,0,68,71,131,120,57,104.34,31,36.00,4.00,-1120.00
2024-06-07 01:52:02.386969,1,-2,18,1,-2,0,68,71,132,120,56,104.26,31,75.00,21.00,-1121.00
2024-06-07 01:52:02.543922,4,-1,18,1,-2,0,68,71,133,120,56,104.50,31,26.00,11.00,-980.00
2024-06-07 01:52:02.590956,5,-1,18,1,-2,0,68,71,133,120,56,104.53,31,-49.00,111.00,-927.00
2024-06-07 01:52:02.748827,3,-1,18,0,-2,0,68,71,133,120,56,104.33,31,9.00,48.00,-978.00
2024-06-07 01:52:02.794934,2,-2,18,0,-2,0,68,71,132,120,56,104.25,31,170.00,-21.00,-994.00
2024-06-07 01:52:02.953916,2,-1,18,0,-2,0,68,71,132,120,56,104.37,31,20.00,29.00,-955.00
2024-06-07 01:52:03.000487,2,-1,18,0,-2,0,68,71,132,120,56,104.41,32,30.00,58.00,-894.00
2024-06-07 01:52:03.101066,1,0,18,0,-2,0,68,71,131,120,56,104.82,32,28.00,30.00,-1019.00
2024-06-07 01:52:03.263500,0,3,18,0,-1,0,68,71,131,120,56,104.32,32,50.00,39.00,-885.00
2024-06-07 01:52:03.304934,0,1,18,0,0,0,68,71,130,120,56,104.36,32,159.00,-37.00,-1112.00
2024-06-07 01:52:03.407076,1,0,18,0,0,0,68,71,130,120,56,104.42,32,9.00,40.00,-1018.00
2024-06-07 01:52:03.567971,1,0,18,0,0,0,68,71,130,120,56,104.47,32,67.00,15.00,-1024.00
2024-06-07 01:52:03.614831,1,0,18,0,0,0,68,71,129,120,56,104.22,32,-5.00,25.00,-940.00
2024-06-07 01:52:03.714782,1,0,18,0,0,0,68,71,130,120,56,104.19,32,58.00,5.00,-1035.00
2024-06-07 01:52:03.815133,1,0,18,0,0,0,68,71,130,120,56,104.37,32,88.00,15.00,-992.00
2024-06-07 01:52:03.916998,2,0,18,0,0,0,68,71,131,120,56,104.38,32,0.00,20.00,-1033.00
2024-06-07 01:52:04.079970,1,0,18,0,0,0,68,71,131,120,56,104.42,33,20.00,3.00,-882.00
2024-06-07 01:52:04.120884,1,-1,18,0,0,0,68,71,132,120,56,104.26,33,90.00,20.00,-1026.00
2024-06-07 01:52:04.290196,1,-1,18,0,0,0,68,71,132,120,56,104.35,33,57.00,8.00,-993.00
2024-06-07 01:52:04.325868,1,-1,18,0,0,0,68,71,132,120,56,104.30,33,-96.00,79.00,-906.00
2024-06-07 01:52:04.494683,0,-2,18,0,0,0,68,71,132,120,55,104.65,33,51.00,7.00,-1044.00
2024-06-07 01:52:04.529230,0,-2,18,0,0,0,68,71,133,120,55,104.43,33,29.00,23.00,-1016.00
2024-06-07 01:52:04.696367,0,-2,18,0,0,0,68,71,133,120,55,104.35,33,-11.00,14.00,-1047.00
2024-06-07 01:52:04.733088,0,-2,18,0,0,0,68,71,133,120,55,104.53,33,43.00,-17.00,-946.00
2024-06-07 01:52:04.899214,1,-1,18,0,0,0,68,71,134,120,55,104.21,33,-21.00,99.00,-896.00
2024-06-07 01:52:04.937705,1,-1,18,0,0,0,68,71,135,120,55,104.42,33,18.00,8.00,-936.00
2024-06-07 01:52:05.105017,1,-2,18,0,0,0,68,71,134,120,55,103.96,34,78.00,-42.00,-1221.00
2024-06-07 01:52:05.141741,1,-1,18,0,0,0,68,71,134,120,55,104.58,34,2.00,44.00,-972.00
2024-06-07 01:52:05.309087,1,-1,18,0,0,0,68,71,135,120,55,104.43,34,54.00,28.00,-1008.00
2024-06-07 01:52:05.345744,2,-1,18,0,0,0,68,71,134,120,55,104.59,34,-2.00,21.00,-947.00
2024-06-07 01:52:05.446729,2,-1,18,0,0,0,68,71,134,120,55,104.36,34,39.00,-1.00,-974.00
2024-06-07 01:52:05.615866,2,0,18,0,0,0,68,71,134,120,55,104.48,34,-59.00,-3.00,-994.00
2024-06-07 01:52:05.618106,2,8,18,0,0,0,68,71,137,120,55,104.20,34,39.00,42.00,-993.00
2024-06-07 01:52:05.701802,2,6,18,0,2,0,68,71,134,120,55,104.34,34,-42.00,23.00,-1034.00
2024-06-07 01:52:05.828953,1,3,18,-1,3,0,68,71,133,120,55,104.35,34,85.00,-22.00,-1072.00
2024-06-07 01:52:05.905588,1,1,18,-1,3,0,68,71,133,120,55,104.21,34,97.00,-22.00,-986.00
2024-06-07 01:52:06.025430,2,-1,18,-1,3,0,68,71,132,120,55,104.60,35,13.00,5.00,-988.00
2024-06-07 01:52:06.109634,2,-2,18,0,3,0,68,71,131,120,55,104.24,35,-19.00,40.00,-1006.00
2024-06-07 01:52:06.230164,2,-1,18,0,2,0,68,71,131,120,55,104.48,35,109.00,-45.00,-1035.00
2024-06-07 01:52:06.313510,2,0,18,0,2,0,68,71,131,120,55,104.47,35,57.00,12.00,-949.00
2024-06-07 01:52:06.415994,2,0,18,0,2,0,68,71,130,120,55,104.41,35,109.00,-24.00,-1039.00
2024-06-07 01:52:06.537422,2,0,18,0,2,0,68,71,130,120,55,104.00,35,83.00,0.00,-1007.00
2024-06-07 01:52:06.619467,1,0,18,-1,2,0,68,71,130,120,55,104.42,35,76.00,16.00,-1132.00
2024-06-07 01:52:06.721461,0,-1,18,-1,2,0,68,71,130,120,55,104.36,35,111.00,-6.00,-1049.00
2024-06-07 01:52:06.823449,0,-1,18,0,2,0,68,71,130,120,55,104.26,35,50.00,22.00,-979.00
2024-06-07 01:52:06.925444,0,-1,18,0,2,0,68,71,130,120,55,104.46,35,0.00,28.00,-934.00
2024-06-07 01:52:07.051784,1,-1,18,0,2,0,68,71,130,120,55,104.15,36,67.00,3.00,-980.00
2024-06-07 01:52:07.129391,2,-6,18,0,2,0,68,71,131,120,55,104.56,36,80.00,-19.00,-984.00
2024-06-07 01:52:07.254134,2,-4,18,0,0,0,68,71,129,120,55,104.34,36,45.00,19.00,-1032.00
2024-06-07 01:52:07.333554,1,-2,18,0,0,0,69,72,129,120,54,104.23,36,78.00,38.00,-954.00
2024-06-07 01:52:07.461593,1,-1,18,0,0,0,69,72,128,120,54,104.19,36,32.00,-12.00,-1054.00
2024-06-07 01:52:07.537569,1,-1,18,0,0,0,69,72,128,120,54,104.74,36,31.00,-2.00,-1006.00
2024-06-07 01:52:07.669982,1,-1,18,0,0,0,69,72,128,120,54,104.17,36,-55.00,43.00,-1075.00
2024-06-07 01:52:07.741328,1,-1,18,0,0,0,69,72,128,120,54,104.25,36,22.00,2.00,-984.00
2024-06-07 01:52:07.873045,1,-1,18,0,0,0,69,72,127,120,54,104.35,36,53.00,-16.00,-1031.00
2024-06-07 01:52:07.946949,2,-1,18,0,0,0,69,72,127,120,54,104.27,36,24.00,15.00,-1032.00
2024-06-07 01:52:08.076094,2,-1,18,0,0,0,69,72,126,120,54,104.17,37,-88.00,57.00,-1004.00
2024-06-07 01:52:08.149476,1,-1,18,0,0,0,69,72,126,120,54,104.23,37,129.00,0.00,-1059.00
2024-06-07 01:52:08.280772,1,-1,18,0,0,0,69,72,126,120,54,104.25,37,19.00,14.00,-1049.00
2024-06-07 01:52:08.353885,0,-1,18,0,0,0,70,72,126,120,54,104.60,37,78.00,34.00,-982.00
2024-06-07 01:52:08.486433,0,-1,18,0,0,0,70,72,126,120,54,104.29,37,61.00,-6.00,-1040.00
2024-06-07 01:52:08.557317,1,-1,18,0,0,0,70,72,127,120,54,104.52,37,97.00,2.00,-1100.00
2024-06-07 01:52:08.659636,1,-1,18,0,0,0,70,72,127,120,54,104.46,37,34.00,24.00,-996.00
2024-06-07 01:52:08.792583,1,-1,18,0,0,0,70,72,126,120,54,104.38,37,135.00,5.00,-1018.00
2024-06-07 01:52:08.864045,1,-1,18,0,0,0,70,72,127,120,54,104.66,37,-21.00,12.00,-972.00
2024-06-07 01:52:08.965393,2,0,18,0,0,0,70,72,127,120,54,104.48,37,68.00,-7.00,-943.00
2024-06-07 01:52:09.067600,2,0,18,0,0,0,70,72,127,120,54,104.48,38,49.00,-47.00,-1019.00
2024-06-07 01:52:09.118494,1,-1,18,0,0,0,70,72,127,120,54,104.62,38,-33.00,68.00,-890.00
2024-06-07 01:52:09.286131,2,-1,18,0,0,0,70,72,127,120,54,104.32,38,111.00,-6.00,-1015.00
2024-06-07 01:52:09.375750,1,-1,18,0,0,0,68,72,127,120,54,103.98,38,73.00,33.00,-915.00
2024-06-07 01:52:09.475213,1,-1,18,0,0,0,68,72,127,120,54,104.25,38,90.00,16.00,-1074.00
2024-06-07 01:52:09.611883,1,-1,24,0,0,0,68,72,127,120,54,104.32,38,-15.00,-9.00,-945.00
2024-06-07 01:52:09.631173,1,-1,30,0,0,0,68,72,127,120,54,104.43,38,12.00,25.00,-1086.00
2024-06-07 01:52:09.730374,1,-1,36,0,0,0,68,72,127,120,54,104.51,38,-7.00,-9.00,-1048.00
2024-06-07 01:52:09.917558,1,-1,42,0,0,0,68,72,128,120,54,104.36,38,78.00,-38.00,-927.00
2024-06-07 01:52:09.934444,1,0,48,0,0,0,68,72,128,120,54,104.22,38,45.00,-5.00,-971.00
2024-06-07 01:52:10.036415,2,0,54,0,0,0,68,72,129,120,54,104.50,39,48.00,-14.00,-938.00
2024-06-07 01:52:10.138334,1,0,60,0,0,0,68,72,129,120,54,104.43,39,176.00,-34.00,-1095.00
2024-06-07 01:52:10.328492,1,0,66,0,0,0,68,72,130,120,54,104.18,39,50.00,18.00,-1002.00
2024-06-07 01:52:10.342435,1,-1,72,0,0,0,68,72,130,120,53,104.51,39,28.00,-10.00,-948.00
2024-06-07 01:52:10.536208,1,-1,78,0,0,0,68,72,130,120,53,104.23,39,101.00,-4.00,-1005.00
2024-06-07 01:52:10.546324,2,-1,84,0,0,0,68,72,132,120,53,104.36,39,7.00,34.00,-945.00
2024-06-07 01:52:10.736120,2,0,90,0,0,0,68,72,132,120,53,104.39,39,91.00,-17.00,-1076.00
2024-06-07 01:52:10.750478,2,0,96,0,0,0,68,72,132,120,53,104.63,39,21.00,20.00,-964.00
2024-06-07 01:52:10.940416,2,0,102,0,0,0,68,72,132,120,53,104.36,39,6.00,-1.00,-996.00
2024-06-07 01:52:10.954319,2,0,108,0,0,0,68,72,132,120,53,104.43,39,64.00,-1.00,-1056.00
2024-06-07 01:52:11.109310,1,0,114,0,0,0,68,72,132,120,53,104.68,40,62.00,45.00,-957.00
2024-06-07 01:52:11.185059,1,0,120,0,0,0,68,72,132,120,53,104.56,40,46.00,21.00,-989.00
2024-06-07 01:52:11.289048,1,0,126,0,0,0,68,72,131,120,53,104.38,40,47.00,0.00,-981.00
2024-06-07 01:52:11.362787,2,0,133,0,0,0,70,72,131,120,53,104.54,40,50.00,-19.00,-987.00
2024-06-07 01:52:11.496310,2,0,139,0,0,0,70,72,131,120,53,104.23,40,20.00,-3.00,-1048.00
2024-06-07 01:52:11.606193,2,0,145,0,0,0,70,72,129,120,53,104.23,40,9.00,23.00,-993.00
2024-06-07 01:52:11.671806,2,0,151,0,0,0,70,72,128,120,53,104.53,40,10.00,72.00,-1035.00
2024-06-07 01:52:11.784780,1,0,157,0,0,0,70,72,127,120,53,104.51,40,51.00,37.00,-914.00
2024-06-07 01:52:11.937482,2,0,163,0,0,0,70,72,126,120,53,104.64,40,66.00,-12.00,-1066.00
2024-06-07 01:52:11.975111,2,1,169,0,0,0,70,72,126,120,53,104.40,40,29.00,31.00,-933.00
2024-06-07 01:52:12.180222,2,1,-178,0,0,0,70,72,124,120,53,104.57,41,31.00,22.00,-1032.00
2024-06-07 01:52:12.324523,2,1,-172,0,0,0,70,72,123,120,53,104.24,41,-43.00,56.00,-984.00
2024-06-07 01:52:12.489998,1,1,-166,0,0,0,70,73,123,120,53,104.58,41,44.00,-17.00,-1008.00
2024-06-07 01:52:12.490181,1,1,-160,0,0,0,70,73,123,120,53,104.63,41,11.00,7.00,-968.00
2024-06-07 01:52:12.630544,1,1,-154,0,0,0,70,73,122,120,53,104.56,41,0.00,7.00,-1093.00
2024-06-07 01:52:12.794627,1,1,-149,0,-1,0,70,73,122,120,53,104.30,41,52.00,2.00,-950.00
2024-06-07 01:52:12.794961,1,1,-143,0,-1,0,70,73,122,120,53,104.20,41,50.00,19.00,-996.00
2024-06-07 01:52:12.937664,2,1,-137,0,-1,0,70,73,121,120,53,104.23,41,25.00,21.00,-981.00
2024-06-07 01:52:13.101558,2,1,-131,0,-1,0,70,73,120,110,53,104.39,41,33.00,25.00,-1001.00
2024-06-07 01:52:13.101621,2,1,-125,0,-1,0,70,73,119,110,53,104.14,42,23.00,-2.00,-974.00
2024-06-07 01:52:13.244963,1,1,-119,0,-1,0,70,73,118,110,53,104.24,42,-7.00,21.00,-1094.00
2024-06-07 01:52:13.300981,1,1,-114,0,-1,0,70,73,118,110,53,104.58,42,23.00,-5.00,-994.00
2024-06-07 01:52:13.415369,0,0,-108,0,0,0,70,73,118,110,53,104.40,42,20.00,0.00,-1039.00
2024-06-07 01:52:13.557190,1,1,-102,0,-1,0,70,73,118,110,53,104.42,42,74.00,-12.00,-1021.00
2024-06-07 01:52:13.561762,0,0,-96,0,0,0,70,73,119,110,53,104.28,42,25.00,-14.00,-972.00
2024-06-07 01:52:13.715829,1,0,-90,0,-1,0,70,73,120,110,53,104.47,42,9.00,8.00,-1144.00
2024-06-07 01:52:13.870049,1,1,-84,0,-1,0,70,73,120,110,53,104.44,42,0.00,8.00,-1037.00
2024-06-07 01:52:13.870199,1,0,-78,0,0,0,70,73,121,110,53,104.38,42,12.00,43.00,-885.00
2024-06-07 01:52:13.964121,0,0,-72,0,0,0,70,73,121,110,53,104.22,42,-7.00,51.00,-1017.00
2024-06-07 01:52:14.119519,0,1,-66,0,0,0,70,73,121,110,53,104.15,43,50.00,24.00,-969.00
2024-06-07 01:52:14.168202,0,0,-60,1,0,0,70,73,122,120,53,104.58,43,32.00,5.00,-1047.00
2024-06-07 01:52:14.321989,0,0,-54,1,0,0,70,73,122,120,53,104.33,43,85.00,-36.00,-1120.00
2024-06-07 01:52:14.371985,1,0,-48,1,0,0,69,72,123,120,53,104.28,43,22.00,18.00,-971.00
2024-06-07 01:52:14.524261,1,1,-42,1,0,0,69,72,123,120,53,104.15,43,-18.00,14.00,-981.00
2024-06-07 01:52:14.575994,1,0,-36,1,0,0,69,72,123,120,53,104.61,43,44.00,-13.00,-956.00
2024-06-07 01:52:14.731420,0,0,-30,1,0,0,69,72,123,120,53,104.48,43,65.00,12.00,-959.00
2024-06-07 01:52:14.780006,1,0,-24,1,0,0,69,72,123,120,53,104.58,43,2.00,-12.00,-1027.00
2024-06-07 01:52:14.936315,0,0,-18,1,0,0,69,72,123,120,53,104.43,43,-16.00,39.00,-1056.00
2024-06-07 01:52:14.983926,1,0,-12,0,0,0,69,72,122,120,53,104.35,43,7.00,6.00,-1032.00
2024-06-07 01:52:15.139562,0,0,-7,0,0,0,69,72,122,120,53,104.33,44,24.00,13.00,-985.00
2024-06-07 01:52:15.187984,0,0,-1,0,0,0,69,72,122,120,53,104.55,44,16.00,21.00,-1037.00
2024-06-07 01:52:15.344452,0,0,3,0,0,0,69,72,122,120,53,104.54,44,68.00,-31.00,-1036.00
2024-06-07 01:52:15.391935,1,0,9,1,0,0,70,73,123,110,52,104.52,44,29.00,27.00,-989.00
2024-06-07 01:52:15.550558,1,0,11,1,0,0,70,73,123,120,52,104.42,44,92.00,-14.00,-1000.00
2024-06-07 01:52:15.595641,2,0,13,1,0,0,70,73,123,120,52,104.29,44,55.00,14.00,-1121.00
2024-06-07 01:52:15.758293,2,0,14,1,0,0,70,73,124,120,52,104.47,44,13.00,-16.00,-1004.00
2024-06-07 01:52:15.799866,2,0,15,1,0,0,70,73,124,120,52,104.60,44,57.00,-29.00,-1019.00
2024-06-07 01:52:15.960351,2,0,16,1,0,0,70,73,124,120,52,104.44,44,-22.00,39.00,-996.00
2024-06-07 01:52:16.003692,2,0,16,0,0,0,70,73,126,120,52,104.35,45,56.00,12.00,-955.00
2024-06-07 01:52:16.162785,2,0,16,0,0,0,70,73,126,120,52,104.38,45,-6.00,22.00,-962.00
2024-06-07 01:52:16.207976,2,0,16,0,0,0,70,73,126,120,52,104.30,45,-73.00,67.00,-945.00
2024-06-07 01:52:16.309999,2,0,16,0,0,0,70,73,127,120,52,104.37,45,-3.00,-19.00,-1037.00
2024-06-07 01:52:16.470135,2,0,16,0,0,0,70,73,127,120,52,104.23,45,64.00,12.00,-921.00
2024-06-07 01:52:16.513908,2,0,16,0,0,0,70,73,127,120,52,104.51,45,-15.00,-3.00,-969.00
2024-06-07 01:52:16.615884,2,0,16,0,0,0,70,73,127,120,52,104.66,45,27.00,34.00,-927.00
2024-06-07 01:52:16.777787,1,0,16,0,0,0,70,73,128,120,52,104.54,45,26.00,33.00,-1105.00
2024-06-07 01:52:16.819873,1,0,16,0,0,0,70,73,127,120,52,104.58,45,39.00,17.00,-982.00
2024-06-07 01:52:16.981844,0,0,16,0,0,0,70,73,128,120,52,104.47,45,99.00,-13.00,-1012.00
2024-06-07 01:52:17.024715,1,0,16,0,0,0,70,73,129,120,52,104.39,46,44.00,23.00,-1037.00
2024-06-07 01:52:17.188889,1,0,16,0,0,0,70,73,130,120,52,104.35,46,17.00,2.00,-994.00
2024-06-07 01:52:17.189062,1,0,16,0,0,0,70,73,131,120,52,104.50,46,-7.00,68.00,-909.00
2024-06-07 01:52:17.278867,1,0,16,0,0,0,70,73,132,120,52,104.49,46,120.00,-41.00,-1076.00
2024-06-07 01:52:17.431962,1,0,16,0,0,0,70,72,133,120,52,104.65,46,16.00,9.00,-1030.00
2024-06-07 01:52:17.596649,1,0,16,0,0,0,70,72,134,120,52,104.52,46,15.00,27.00,-977.00
2024-06-07 01:52:17.638348,2,0,16,0,0,0,70,72,134,120,52,104.54,46,-23.00,16.00,-962.00
2024-06-07 01:52:17.687872,2,0,16,0,0,0,70,72,134,120,52,104.37,46,-140.00,58.00,-934.00
2024-06-07 01:52:17.801078,1,0,16,0,0,0,70,72,134,120,52,104.60,46,9.00,53.00,-835.00
2024-06-07 01:52:17.890651,1,0,16,0,0,0,70,72,135,120,52,104.53,46,43.00,-3.00,-974.00
2024-06-07 01:52:18.008055,1,1,16,0,0,0,70,72,134,120,52,104.83,47,72.00,2.00,-1011.00
2024-06-07 01:52:18.094350,1,0,16,0,0,0,70,72,134,120,52,104.52,47,-53.00,18.00,-951.00
2024-06-07 01:52:18.210498,1,0,12,0,0,0,70,72,133,120,52,104.40,47,11.00,35.00,-1015.00
2024-06-07 01:52:18.298716,1,0,6,0,0,0,70,72,134,120,52,104.30,47,135.00,-34.00,-1044.00
2024-06-07 01:52:18.400532,1,-1,0,0,0,0,70,73,134,120,52,104.41,47,5.00,-11.00,-1014.00
2024-06-07 01:52:18.520208,1,-1,-5,0,0,0,70,73,134,120,52,104.84,47,33.00,-15.00,-1002.00
2024-06-07 01:52:18.604447,2,-1,-11,0,0,0,70,73,133,120,52,104.81,47,45.00,1.00,-1004.00
2024-06-07 01:52:18.724747,2,-1,-17,0,0,0,70,73,133,120,52,104.60,47,-13.00,24.00,-1023.00
2024-06-07 01:52:18.808405,2,-1,-23,0,0,0,70,73,133,120,52,104.62,47,10.00,28.00,-949.00
2024-06-07 01:52:18.929555,2,0,-29,0,0,0,70,73,132,120,52,104.73,47,-9.00,41.00,-985.00
2024-06-07 01:52:19.013634,2,0,-35,0,0,0,70,73,131,120,52,104.55,48,45.00,-24.00,-996.00
2024-06-07 01:52:19.134507,2,0,-41,0,0,0,70,73,131,120,52,104.63,48,41.00,40.00,-996.00
2024-06-07 01:52:19.216356,2,0,-47,0,0,0,70,73,129,120,52,104.25,48,33.00,30.00,-1016.00
2024-06-07 01:52:19.318335,1,0,-52,0,0,0,70,73,129,120,52,104.52,48,35.00,33.00,-953.00
2024-06-07 01:52:19.439248,1,0,-58,0,0,0,71,73,127,120,51,104.23,48,59.00,4.00,-981.00
2024-06-07 01:52:19.522642,1,0,-64,0,0,0,71,73,126,120,51,104.36,48,64.00,-12.00,-1048.00
2024-06-07 01:52:19.646651,1,0,-70,0,0,0,71,73,125,120,51,104.46,48,-7.00,36.00,-1041.00
2024-06-07 01:52:19.726619,1,0,-76,0,0,0,71,73,125,120,51,104.81,48,-25.00,36.00,-1055.00
2024-06-07 01:52:19.848792,1,0,-82,0,0,0,71,73,125,120,51,104.42,48,-104.00,92.00,-1105.00
2024-06-07 01:52:19.930318,1,0,-88,0,0,0,71,73,125,120,51,104.20,48,-17.00,53.00,-1056.00
2024-06-07 01:52:20.032328,1,0,-93,0,0,0,71,73,124,120,51,104.31,49,13.00,21.00,-964.00
2024-06-07 01:52:20.134194,1,0,-99,0,0,0,71,73,124,120,51,104.04,49,44.00,8.00,-1055.00
2024-06-07 01:52:20.236406,1,0,-105,0,0,0,71,73,123,120,51,104.54,49,60.00,9.00,-1065.00
2024-06-07 01:52:20.338184,1,0,-111,0,0,0,71,73,123,120,51,104.28,49,-21.00,44.00,-978.00
2024-06-07 01:52:20.465885,1,0,-117,0,0,0,71,73,122,120,51,104.66,49,40.00,23.00,-951.00
2024-06-07 01:52:20.542208,1,0,-122,0,0,0,71,73,122,120,51,104.30,49,-46.00,48.00,-935.00
2024-06-07 01:52:20.668242,1,0,-128,0,0,0,71,73,120,120,51,104.40,49,-40.00,24.00,-993.00
2024-06-07 01:52:20.746337,1,0,-134,0,0,0,71,73,118,110,51,104.19,49,12.00,18.00,-957.00
2024-06-07 01:52:20.877642,1,1,-140,0,0,0,71,73,116,110,51,104.41,49,46.00,4.00,-1057.00
2024-06-07 01:52:20.950046,1,1,-146,0,0,0,71,73,116,110,51,104.17,49,18.00,23.00,-1041.00
2024-06-07 01:52:21.077642,1,1,-151,0,0,0,71,73,115,110,51,104.25,50,1.00,41.00,-996.00
2024-06-07 01:52:21.154161,1,0,-157,0,0,0,71,73,114,110,51,104.29,50,-67.00,62.00,-1074.00
2024-06-07 01:52:21.282316,1,0,-163,0,0,0,71,73,114,110,51,104.42,50,3.00,-3.00,-1038.00
2024-06-07 01:52:21.358039,1,1,-168,0,0,0,71,73,114,110,51,104.33,50,68.00,-9.00,-1088.00
2024-06-07 01:52:21.460721,1,1,-174,0,0,0,71,73,114,110,51,104.43,50,80.00,0.00,-1021.00
2024-06-07 01:52:21.589538,2,1,179,0,0,0,71,73,115,110,51,104.07,50,14.00,24.00,-1034.00
2024-06-07 01:52:21.664244,2,0,173,0,0,0,71,73,115,110,51,104.41,50,86.00,-13.00,-1099.00
2024-06-07 01:52:21.715344,3,0,168,0,0,-1,71,73,116,110,51,104.33,50,3.00,37.00,-940.00
2024-06-07 01:52:21.899920,2,1,162,0,0,-1,71,73,116,110,51,104.33,50,39.00,-5.00,-1019.00
2024-06-07 01:52:21.919452,2,1,156,0,0,0,71,73,117,110,51,104.21,50,49.00,4.00,-1021.00
2024-06-07 01:52:22.101583,3,1,150,0,0,0,71,73,117,110,51,104.85,51,27.00,12.00,-990.00
2024-06-07 01:52:22.123037,3,1,144,0,0,0,71,73,117,110,51,104.40,51,52.00,-7.00,-1020.00
2024-06-07 01:52:22.227850,3,1,138,0,0,0,71,73,117,110,51,104.42,51,35.00,15.00,-1042.00
2024-06-07 01:52:22.327655,3,1,132,0,0,0,71,73,118,110,51,104.73,51,31.00,2.00,-994.00
2024-06-07 01:52:22.429399,3,1,126,0,0,0,71,74,117,110,51,104.43,51,90.00,-133.00,-1106.00
2024-06-07 01:52:22.615894,3,0,120,0,0,0,71,74,118,110,51,104.59,51,-9.00,34.00,-1046.00
2024-06-07 01:52:22.633201,3,0,115,0,0,0,71,74,118,110,51,104.43,51,78.00,35.00,-990.00
2024-06-07 01:52:22.735550,4,0,109,0,0,0,71,74,119,110,51,104.67,51,-1.00,26.00,-1027.00
2024-06-07 01:52:22.921319,3,0,103,0,0,0,71,74,119,110,51,104.59,51,49.00,-6.00,-1067.00
2024-06-07 01:52:22.941284,2,0,97,0,0,0,71,74,120,110,51,104.36,51,27.00,7.00,-1007.00
2024-06-07 01:52:23.041329,3,0,91,0,0,0,71,74,121,110,51,104.75,52,128.00,1.00,-1009.00
2024-06-07 01:52:23.143248,2,0,85,0,0,0,71,74,121,110,51,104.30,52,91.00,-14.00,-1025.00
2024-06-07 01:52:23.245614,3,0,79,0,0,0,71,74,122,110,51,104.50,52,2.00,5.00,-1003.00
2024-06-07 01:52:23.348276,3,0,73,0,0,0,71,74,123,120,50,104.34,52,109.00,9.00,-1121.00
2024-06-07 01:52:23.448977,2,0,67,0,0,0,71,75,124,120,50,104.32,52,100.00,43.00,-950.00
2024-06-07 01:52:23.637447,2,0,61,0,0,0,71,75,125,120,50,104.25,52,71.00,8.00,-1048.00
2024-06-07 01:52:23.652925,3,0,55,0,0,0,71,75,124,120,50,104.37,52,49.00,57.00,-898.00
2024-06-07 01:52:23.754944,4,0,49,0,0,0,71,75,125,120,50,104.55,52,78.00,15.00,-1006.00
2024-06-07 01:52:23.947318,4,0,43,0,0,0,71,75,125,120,50,104.46,52,100.00,39.00,-1027.00
2024-06-07 01:52:23.958881,4,0,37,0,0,0,71,75,126,120,50,104.62,52,22.00,6.00,-949.00
2024-06-07 01:52:24.149447,4,0,32,0,0,0,71,75,126,120,50,104.61,53,-41.00,91.00,-928.00
2024-06-07 01:52:24.162800,4,0,28,0,0,0,71,75,125,120,50,104.51,53,-31.00,52.00,-996.00
2024-06-07 01:52:24.356811,3,0,25,0,0,0,71,75,124,120,50,104.52,53,123.00,-12.00,-1097.00
2024-06-07 01:52:24.367043,3,0,23,0,0,0,71,75,124,120,50,104.45,53,38.00,2.00,-1110.00
2024-06-07 01:52:24.472299,3,0,21,0,0,0,71,74,122,120,50,104.23,53,112.00,20.00,-1099.00
2024-06-07 01:52:24.571289,3,0,20,0,0,0,71,74,122,120,50,104.47,53,13.00,16.00,-996.00
2024-06-07 01:52:24.763991,3,0,19,0,0,0,71,74,122,120,50,104.25,53,55.00,0.00,-955.00
2024-06-07 01:52:24.775172,2,0,19,0,0,0,71,74,122,120,50,104.28,53,48.00,45.00,-953.00
2024-06-07 01:52:24.968838,2,0,18,0,0,0,71,74,122,110,50,104.27,53,112.00,28.00,-975.00
2024-06-07 01:52:24.978933,2,0,18,0,0,0,71,74,122,110,50,104.43,53,20.00,28.00,-943.00
2024-06-07 01:52:25.173532,2,0,18,0,0,0,71,74,123,110,50,104.29,54,19.00,50.00,-1031.00
2024-06-07 01:52:25.182933,2,0,18,0,0,0,71,74,123,110,50,104.50,54,68.00,-18.00,-970.00
2024-06-07 01:52:25.381144,2,0,18,0,0,0,71,74,125,110,50,104.42,54,71.00,29.00,-1054.00
2024-06-07 01:52:25.381297,2,0,18,0,0,0,71,74,125,120,50,104.62,54,74.00,-30.00,-941.00
2024-06-07 01:52:25.583038,2,0,18,0,0,0,71,74,126,120,50,104.40,54,50.00,-20.00,-1084.00
2024-06-07 01:52:25.583443,2,0,18,0,0,-1,71,74,127,120,50,104.60,54,66.00,39.00,-926.00
2024-06-07 01:52:25.642016,2,0,18,0,0,0,71,74,126,120,50,104.45,54,148.00,-12.00,-990.00
2024-06-07 01:52:25.744381,2,0,18,0,0,0,71,74,127,120,50,104.48,54,11.00,48.00,-953.00
2024-06-07 01:52:25.890247,2,0,18,0,0,0,71,74,127,120,50,104.23,54,55.00,2.00,-993.00
2024-06-07 01:52:25.947900,3,0,18,0,0,0,71,74,126,120,50,104.36,54,6.00,50.00,-925.00
2024-06-07 01:52:26.118504,3,0,18,0,0,0,71,74,126,120,50,104.54,55,77.00,-7.00,-997.00
2024-06-07 01:52:26.151874,3,0,18,0,0,0,71,74,126,120,50,104.43,55,5.00,27.00,-921.00
2024-06-07 01:52:26.312917,2,0,18,0,0,0,71,74,125,120,50,104.08,55,115.00,-5.00,-948.00
2024-06-07 01:52:26.429077,2,0,18,0,0,0,71,74,124,120,50,104.54,55,44.00,22.00,-941.00
2024-06-07 01:52:26.490535,1,0,18,0,0,0,72,73,124,120,50,104.22,55,41.00,1.00,-1115.00
2024-06-07 01:52:26.605203,2,0,18,0,0,0,72,73,123,120,50,104.33,55,33.00,7.00,-1009.00
2024-06-07 01:52:26.670749,1,0,18,0,0,0,72,73,124,120,50,104.53,55,130.00,-3.00,-987.00
2024-06-07 01:52:26.786289,1,0,18,0,0,0,72,73,124,120,50,104.46,55,20.00,13.00,-988.00
2024-06-07 01:52:26.865886,1,0,18,0,0,0,72,73,123,120,50,104.27,55,-62.00,63.00,-1049.00
2024-06-07 01:52:27.119416,1,0,18,0,0,0,72,73,124,120,50,104.45,55,37.00,29.00,-957.00
2024-06-07 01:52:27.133566,1,-1,18,0,0,0,72,73,124,120,50,104.34,56,99.00,13.00,-982.00
2024-06-07 01:52:27.277080,1,-1,18,0,0,0,72,73,124,120,50,104.30,56,18.00,18.00,-967.00
2024-06-07 01:52:27.277203,1,-1,18,0,0,0,72,73,124,120,50,104.29,56,127.00,6.00,-1107.00
2024-06-07 01:52:27.420257,2,-1,18,0,0,0,72,73,124,120,49,104.78,56,84.00,5.00,-1006.00
2024-06-07 01:52:27.563799,2,-1,18,0,0,0,71,74,124,120,49,104.20,56,98.00,42.00,-1011.00
2024-06-07 01:52:27.579599,2,0,18,0,0,0,71,74,124,120,49,104.20,56,6.00,-10.00,-978.00
2024-06-07 01:52:27.706999,3,0,18,0,0,0,71,74,125,120,49,104.42,56,126.00,10.00,-1000.00
2024-06-07 01:52:27.850483,2,0,18,0,0,0,71,74,125,120,49,104.07,56,-63.00,72.00,-1120.00
2024-06-07 01:52:27.994050,2,0,18,0,0,0,71,74,124,120,49,104.36,56,44.00,10.00,-1020.00
2024-06-07 01:52:27.994175,1,0,18,0,0,0,71,74,124,120,49,104.25,56,11.00,21.00,-988.00
2024-06-07 01:52:28.156765,1,0,18,0,0,0,71,74,123,120,49,104.57,57,-35.00,109.00,-1032.00
2024-06-07 01:52:28.299973,1,0,18,0,0,0,71,74,123,120,49,104.35,57,9.00,20.00,-1032.00
2024-06-07 01:52:28.300133,1,-1,18,0,0,0,71,74,123,120,49,104.52,57,81.00,10.00,-1075.00
2024-06-07 01:52:28.461879,1,-1,18,0,0,0,71,74,122,120,49,104.29,57,69.00,15.00,-1047.00
2024-06-07 01:52:28.516860,1,-1,18,0,0,0,72,75,122,110,49,104.58,57,70.00,35.00,-1031.00
2024-06-07 01:52:28.599557,2,-1,18,0,0,0,72,75,123,110,49,104.34,57,-12.00,12.00,-1088.00
2024-06-07 01:52:28.702108,2,-1,18,0,0,0,72,75,123,110,49,104.13,57,40.00,7.00,-1054.00
2024-06-07 01:52:28.859773,2,-1,18,0,0,0,72,75,125,110,49,104.65,57,88.00,21.00,-1091.00
2024-06-07 01:52:28.906088,2,-1,18,0,0,0,72,75,126,120,49,104.38,57,46.00,-14.00,-949.00
2024-06-07 01:52:28.956859,3,-1,18,0,0,0,72,75,127,120,49,104.01,57,-26.00,74.00,-993.00
2024-06-07 01:52:29.068181,2,-1,18,0,0,0,72,75,130,120,49,104.63,58,82.00,1.00,-992.00
2024-06-07 01:52:29.161196,1,-1,18,0,0,0,72,75,131,120,49,104.63,58,63.00,54.00,-931.00
2024-06-07 01:52:29.272114,2,-1,18,0,0,0,72,75,132,120,49,104.46,58,89.00,-11.00,-1056.00
2024-06-07 01:52:29.364615,1,-2,18,0,0,0,72,75,133,120,49,104.64,58,14.00,50.00,-916.00
2024-06-07 01:52:29.474435,1,-1,18,0,0,0,72,74,136,120,49,104.65,58,45.00,32.00,-1021.00
2024-06-07 01:52:29.568955,1,-1,18,0,0,0,72,74,136,120,49,104.36,58,-81.00,67.00,-934.00
2024-06-07 01:52:29.681677,2,-1,18,0,0,0,72,74,137,120,49,104.48,58,1.00,61.00,-944.00
2024-06-07 01:52:29.772512,2,0,18,0,0,0,72,74,137,120,49,104.83,58,85.00,5.00,-1034.00
2024-06-07 01:52:29.874828,2,0,18,0,0,0,72,74,137,120,49,104.47,58,-14.00,60.00,-972.00
2024-06-07 01:52:29.987346,2,0,18,0,0,0,72,74,138,130,49,104.47,59,132.00,-38.00,-1030.00
2024-06-07 01:52:30.078453,2,0,18,0,0,0,72,74,139,130,49,104.65,59,-23.00,38.00,-996.00
2024-06-07 01:52:30.190859,2,0,18,0,0,0,72,74,139,130,49,104.53,59,115.00,-19.00,-1028.00
2024-06-07 01:52:30.282448,1,-1,18,0,0,0,72,74,138,130,49,104.52,59,14.00,38.00,-983.00
2024-06-07 01:52:30.385092,2,-1,18,0,0,0,72,74,138,130,49,104.61,59,-5.00,25.00,-966.00
2024-06-07 01:52:30.486429,2,0,18,0,0,0,71,75,137,130,49,104.28,59,30.00,52.00,-997.00
2024-06-07 01:52:30.588434,1,0,18,0,0,0,71,75,137,130,49,104.47,59,95.00,-7.00,-994.00
2024-06-07 01:52:30.690411,2,0,18,0,0,0,71,75,137,120,49,104.40,59,34.00,0.00,-973.00
2024-06-07 01:52:30.809389,2,-1,18,0,0,0,71,75,135,120,49,104.51,59,70.00,16.00,-989.00
2024-06-07 01:52:30.894444,1,-1,18,0,0,1,71,75,134,120,49,104.51,59,43.00,41.00,-997.00
2024-06-07 01:52:31.010089,1,-1,18,0,0,0,71,75,132,120,49,104.56,60,21.00,68.00,-998.00
2024-06-07 01:52:31.099099,1,-2,18,0,0,0,71,75,131,120,49,104.23,60,0.00,44.00,-1018.00
2024-06-07 01:52:31.215001,1,-2,18,0,0,0,71,75,131,120,49,104.27,60,52.00,0.00,-1057.00
2024-06-07 01:52:31.302429,1,-1,18,0,0,0,71,75,130,120,49,104.45,60,71.00,19.00,-1024.00
2024-06-07 01:52:31.404550,1,-1,18,0,0,0,71,75,128,120,49,104.45,60,60.00,-39.00,-1117.00
2024-06-07 01:52:31.522205,2,-1,18,0,0,0,72,75,127,120,49,104.60,60,7.00,28.00,-1000.00
2024-06-07 01:52:31.608346,2,-1,18,0,0,0,72,75,127,120,49,104.76,60,86.00,19.00,-1028.00
2024-06-07 01:52:31.727029,2,-1,18,0,0,0,72,75,127,120,49,104.60,60,2.00,21.00,-1037.00
2024-06-07 01:52:31.812318,2,-1,18,0,0,0,72,75,125,120,49,104.56,60,15.00,23.00,-1063.00
2024-06-07 01:52:31.933931,1,-1,18,0,0,0,72,75,126,120,49,104.58,60,77.00,12.00,-996.00
2024-06-07 01:52:32.016994,1,-1,18,0,0,0,72,75,126,120,49,104.31,61,43.00,47.00,-1003.00
2024-06-07 01:52:32.138865,2,-1,18,0,0,0,72,75,127,120,49,104.69,61,20.00,43.00,-967.00
2024-06-07 01:52:32.220254,2,-1,18,0,0,0,72,75,128,120,49,104.28,61,-37.00,45.00,-1014.00
2024-06-07 01:52:32.322299,2,-1,18,0,0,0,72,75,128,120,49,104.37,61,64.00,-3.00,-927.00
2024-06-07 01:52:32.443625,1,-1,18,0,0,0,72,75,130,120,49,104.22,61,111.00,4.00,-999.00
2024-06-07 01:52:32.526265,1,-1,18,0,0,0,72,75,131,120,49,104.13,61,-11.00,-2.00,-1088.00
2024-06-07 01:52:32.648424,1,-1,18,0,0,0,72,75,133,120,49,104.65,61,-1.00,28.00,-885.00
2024-06-07 01:52:32.730234,1,-1,18,0,0,0,72,75,134,120,49,104.52,61,40.00,22.00,-968.00
2024-06-07 01:52:32.832616,1,-1,18,0,0,0,72,75,135,120,49,104.34,61,92.00,-6.00,-1037.00
2024-06-07 01:52:32.934184,1,-1,18,0,0,0,72,75,135,120,49,104.54,61,45.00,25.00,-965.00
2024-06-07 01:52:33.036259,1,-1,18,0,0,0,72,75,137,120,49,104.59,62,84.00,25.00,-985.00
2024-06-07 01:52:33.087153,1,-1,18,0,0,0,72,75,136,120,49,104.67,62,-17.00,37.00,-904.00
2024-06-07 01:52:33.267465,1,-1,18,0,0,0,72,75,136,120,49,104.34,62,15.00,62.00,-1004.00
2024-06-07 01:52:33.291747,2,-1,18,0,0,0,72,75,137,130,49,104.36,62,68.00,32.00,-889.00
2024-06-07 01:52:33.393579,2,-1,18,0,0,0,72,75,136,120,49,104.55,62,60.00,19.00,-984.00
2024-06-07 01:52:33.573161,3,0,18,0,0,0,73,75,134,120,49,104.68,62,57.00,1.00,-979.00
2024-06-07 01:52:33.597286,3,0,18,0,0,0,73,75,134,120,49,104.49,62,-2.00,17.00,-1000.00
2024-06-07 01:52:33.777574,2,0,18,0,0,0,73,75,133,120,49,104.45,62,10.00,45.00,-953.00
2024-06-07 01:52:33.801072,1,-1,18,0,0,0,73,75,131,120,49,104.45,62,30.00,-5.00,-999.00
2024-06-07 01:52:33.980829,1,-1,18,0,0,0,73,75,131,120,49,104.45,62,1.00,56.00,-1023.00
2024-06-07 01:52:34.005106,1,-1,18,0,0,0,73,75,130,120,49,104.32,63,54.00,9.00,-965.00
2024-06-07 01:52:34.189092,1,-1,18,0,0,0,73,75,130,120,49,104.43,63,89.00,-19.00,-1067.00
2024-06-07 01:52:34.211733,1,-1,18,0,0,0,73,75,129,120,49,104.06,63,26.00,-3.00,-975.00
2024-06-07 01:52:34.311058,2,-1,18,0,0,0,73,75,130,120,49,104.84,63,24.00,25.00,-1019.00
2024-06-07 01:52:34.491518,1,-1,18,0,0,0,73,75,131,120,48,104.43,63,53.00,15.00,-1013.00
2024-06-07 01:52:34.514871,1,-1,18,0,0,0,72,75,130,120,48,104.43,63,80.00,-8.00,-962.00
2024-06-07 01:52:34.696799,1,-1,18,0,0,0,72,75,131,120,48,104.46,63,17.00,14.00,-991.00
2024-06-07 01:52:34.718875,1,-1,18,0,0,0,72,75,131,120,48,104.56,63,31.00,42.00,-972.00
2024-06-07 01:52:34.901375,1,-1,18,0,0,0,72,75,133,120,48,104.56,63,28.00,9.00,-1026.00
2024-06-07 01:52:34.923689,1,-1,18,0,0,0,72,75,133,120,48,104.45,63,39.00,-18.00,-1032.00
2024-06-07 01:52:35.106127,1,-1,18,0,0,0,72,75,133,120,48,104.46,64,100.00,-21.00,-1131.00
2024-06-07 01:52:35.126938,1,-1,18,0,0,0,72,75,134,120,48,104.34,64,50.00,17.00,-912.00
2024-06-07 01:52:35.310632,2,0,18,0,0,0,72,75,134,120,48,104.63,64,19.00,65.00,-910.00
2024-06-07 01:52:35.331777,1,-1,18,0,0,0,72,75,134,120,48,104.47,64,15.00,36.00,-957.00
2024-06-07 01:52:35.515424,1,-1,18,0,0,0,72,75,135,120,48,104.49,64,84.00,27.00,-908.00
2024-06-07 01:52:35.536884,1,-1,18,0,0,0,72,75,135,120,48,104.57,64,-4.00,36.00,-936.00
2024-06-07 01:52:35.637033,1,-1,18,0,0,0,72,75,135,120,48,104.42,64,43.00,11.00,-1004.00
2024-06-07 01:52:35.738934,2,-1,18,0,0,0,72,75,135,120,48,104.46,64,-10.00,34.00,-1064.00
2024-06-07 01:52:35.886935,2,0,18,0,0,0,72,75,134,120,48,104.66,64,39.00,10.00,-982.00
2024-06-07 01:52:35.942874,2,-1,18,0,0,0,72,75,134,120,48,104.53,64,100.00,-34.00,-1044.00
2024-06-07 01:52:36.045115,2,-1,18,0,0,0,72,75,134,120,48,104.41,65,2.00,39.00,-949.00
2024-06-07 01:52:36.146810,2,0,18,0,0,0,72,75,133,120,48,104.64,65,-1.00,22.00,-1006.00
2024-06-07 01:52:36.248901,1,0,18,0,0,0,72,75,133,120,48,104.45,65,54.00,10.00,-1067.00
2024-06-07 01:52:36.351170,1,0,18,0,0,0,72,75,133,120,48,104.43,65,50.00,-13.00,-938.00
2024-06-07 01:52:36.452908,1,0,18,0,0,0,72,75,132,120,48,104.42,65,105.00,9.00,-982.00
2024-06-07 01:52:36.554942,2,0,18,0,0,0,73,75,131,120,48,104.52,65,-11.00,50.00,-1016.00
2024-06-07 01:52:36.746888,1,0,18,0,0,0,73,75,130,120,48,104.45,65,30.00,31.00,-1018.00
2024-06-07 01:52:36.758825,1,-1,18,0,0,0,73,75,129,120,48,104.57,65,35.00,-9.00,-958.00
